country,state,city,station,last_update,latitude,longitude,pollutant_id,min_value,max_value,avg_value
India,Andhra_Pradesh,Chittoor,"Gangineni Cheruvu, Chittoor - APPCB",13-12-2025 07:00:00,13.204880,79.097889,NH3,6,7,6
India,Andhra_Pradesh,Chittoor,"Gangineni Cheruvu, Chittoor - APPCB",13-12-2025 07:00:00,13.204880,79.097889,OZONE,53,61,59
India,Andhra_Pradesh,Kadapa,"Yerramukkapalli, Kadapa - APPCB",13-12-2025 07:00:00,14.465052,78.824187,PM10,52,89,72
India,Andhra_Pradesh,Rajamahendravaram,"Anand Kala Kshetram, Rajamahendravaram - APPCB",13-12-2025 07:00:00,16.9872867,81.7363176,PM10,86,208,130
India,Andhra_Pradesh,Rajamahendravaram,"Anand Kala Kshetram, Rajamahendravaram - APPCB",13-12-2025 07:00:00,16.9872867,81.7363176,CO,18,80,46
India,Andhra_Pradesh,Tirumala,"Toll Gate, Tirumala - APPCB",13-12-2025 07:00:00,13.67,79.35,PM10,93,119,110
India,Andhra_Pradesh,Tirumala,"Toll Gate, Tirumala - APPCB",13-12-2025 07:00:00,13.67,79.35,CO,2,90,52
India,Andhra_Pradesh,Tirupati,"Vaikuntapuram, Tirupati - APPCB",13-12-2025 07:00:00,13.615387,79.409230,PM2.5,51,62,58
India,Andhra_Pradesh,Tirupati,"Vaikuntapuram, Tirupati - APPCB",13-12-2025 07:00:00,13.615387,79.409230,PM10,58,72,67
India,Andhra_Pradesh,Tirupati,"Vaikuntapuram, Tirupati - APPCB",13-12-2025 07:00:00,13.615387,79.409230,SO2,15,18,17
India,Bihar,Bihar Sharif,"D M Colony, Bihar Sharif - BSPCB",13-12-2025 07:00:00,25.204762,85.514960,SO2,9,10,9
India,Bihar,Buxar,"Charitra Van, Buxar - BSPCB",13-12-2025 07:00:00,25.567520,83.966379,PM10,121,217,165
India,Bihar,Buxar,"Charitra Van, Buxar - BSPCB",13-12-2025 07:00:00,25.567520,83.966379,NO2,9,10,10
India,Bihar,Buxar,"Charitra Van, Buxar - BSPCB",13-12-2025 07:00:00,25.567520,83.966379,NH3,3,3,3
India,Bihar,Buxar,"Charitra Van, Buxar - BSPCB",13-12-2025 07:00:00,25.567520,83.966379,SO2,4,10,8
India,Bihar,Buxar,"Charitra Van, Buxar - BSPCB",13-12-2025 07:00:00,25.567520,83.966379,CO,22,27,25
India,Bihar,Chhapra,"Darshan Nagar, Chhapra - BSPCB",13-12-2025 07:00:00,25.7808257,84.7446768,OZONE,22,93,34
India,Bihar,Gaya,"Kareemganj, Gaya - BSPCB",13-12-2025 07:00:00,24.792403,84.992416,PM10,163,358,208
India,Bihar,Gaya,"SFTI Kusdihra, Gaya - BSPCB",13-12-2025 07:00:00,24.762518,84.982348,PM2.5,40,75,50
India,Bihar,Araria,"Kharahiya Basti, Araria - BSPCB",13-12-2025 07:00:00,26.146529,87.454184,PM10,23,326,99
India,Bihar,Araria,"Kharahiya Basti, Araria - BSPCB",13-12-2025 07:00:00,26.146529,87.454184,CO,4,55,25
India,Bihar,Aurangabad,"Gurdeo Nagar, Aurangabad - BSPCB",13-12-2025 07:00:00,24.75746,84.366208,NO2,7,8,8
India,Bihar,Aurangabad,"Gurdeo Nagar, Aurangabad - BSPCB",13-12-2025 07:00:00,24.75746,84.366208,NH3,1,2,1
India,Bihar,Aurangabad,"Gurdeo Nagar, Aurangabad - BSPCB",13-12-2025 07:00:00,24.75746,84.366208,CO,101,103,102
India,Bihar,Aurangabad,"Gurdeo Nagar, Aurangabad - BSPCB",13-12-2025 07:00:00,24.75746,84.366208,OZONE,1,41,7
India,Bihar,Begusarai,"Lohiyanagar, Begusarai - BSPCB",13-12-2025 07:00:00,25.42742023,86.13886079,SO2,61,79,70
India,Bihar,Bettiah,"Kamalnath Nagar, Bettiah - BSPCB",13-12-2025 07:00:00,26.80365,84.51954,NO2,6,9,8
India,Assam,Nagaon,"Christianpatty, Nagaon - PCBA",13-12-2025 07:00:00,26.349082,92.68449,NO2,1,2,1
India,Assam,Nagaon,"Christianpatty, Nagaon - PCBA",13-12-2025 07:00:00,26.349082,92.68449,SO2,8,15,11
India,Assam,Nalbari,"Bata Chowk, Nalbari - PCBA",13-12-2025 07:00:00,26.446912,91.439057,SO2,7,8,8
India,Assam,Silchar,"Tarapur, Silchar - PCBA",13-12-2025 07:00:00,24.82827,92.79525,PM10,53,63,58
India,Assam,Silchar,"Tarapur, Silchar - PCBA",13-12-2025 07:00:00,24.82827,92.79525,CO,36,86,74
India,Assam,Sivasagar,"Girls College, Sivasagar - PCBA",13-12-2025 07:00:00,26.987634,94.636574,PM2.5,26,100,65
India,Assam,Sivasagar,"Girls College, Sivasagar - PCBA",13-12-2025 07:00:00,26.987634,94.636574,PM10,37,98,66
India,Assam,Sivasagar,"Girls College, Sivasagar - PCBA",13-12-2025 07:00:00,26.987634,94.636574,SO2,11,15,13
India,Andhra_Pradesh,Vijayawada,"HB Colony, Vijayawada - APPCB",13-12-2025 07:00:00,16.536107,80.594233,SO2,15,23,21
India,Andhra_Pradesh,Vijayawada,"Rajiv Gandhi Park, Vijayawada - APPCB",13-12-2025 07:00:00,16.509717,80.612222,PM10,NA,NA,NA
India,Andhra_Pradesh,Vijayawada,"Rajiv Gandhi Park, Vijayawada - APPCB",13-12-2025 07:00:00,16.509717,80.612222,NO2,NA,NA,NA
India,Andhra_Pradesh,Vijayawada,"Rajiv Nagar, Vijayawada - APPCB",13-12-2025 07:00:00,16.554731,80.649110,PM10,47,56,50
India,Andhra_Pradesh,Vijayawada,"Rajiv Nagar, Vijayawada - APPCB",13-12-2025 07:00:00,16.554731,80.649110,NO2,6,11,9
India,Andhra_Pradesh,Vijayawada,"Rajiv Nagar, Vijayawada - APPCB",13-12-2025 07:00:00,16.554731,80.649110,SO2,12,32,15
India,Andhra_Pradesh,Vijayawada,"Rajiv Nagar, Vijayawada - APPCB",13-12-2025 07:00:00,16.554731,80.649110,OZONE,83,100,91
India,Bihar,Katihar,"Mirchaibari, Katihar - BSPCB",13-12-2025 07:00:00,25.560083,87.553265,PM10,13,130,69
India,Bihar,Katihar,"Mirchaibari, Katihar - BSPCB",13-12-2025 07:00:00,25.560083,87.553265,OZONE,4,7,5
India,Bihar,Kishanganj,"SDM Office_Khagra, Kishanganj - BSPCB",13-12-2025 07:00:00,26.0881305,87.93840336,PM2.5,35,47,41
India,Bihar,Kishanganj,"SDM Office_Khagra, Kishanganj - BSPCB",13-12-2025 07:00:00,26.0881305,87.93840336,OZONE,16,18,17
India,Bihar,Manguraha,"Forest Rest House, Manguraha - BSPCB",13-12-2025 07:00:00,27.308328,84.531742,CO,31,33,32
India,Bihar,Gaya,"SFTI Kusdihra, Gaya - BSPCB",13-12-2025 07:00:00,24.762518,84.982348,SO2,7,9,8
India,Bihar,Gaya,"SFTI Kusdihra, Gaya - BSPCB",13-12-2025 07:00:00,24.762518,84.982348,CO,14,46,43
India,Bihar,Hajipur,"Industrial Area, Hajipur - BSPCB",13-12-2025 07:00:00,25.697189,85.245900,PM2.5,80,335,238
India,Bihar,Hajipur,"Industrial Area, Hajipur - BSPCB",13-12-2025 07:00:00,25.697189,85.245900,NO2,21,94,47
India,Bihar,Hajipur,"Industrial Area, Hajipur - BSPCB",13-12-2025 07:00:00,25.697189,85.245900,NH3,6,21,13
India,Bihar,Hajipur,"Industrial Area, Hajipur - BSPCB",13-12-2025 07:00:00,25.697189,85.245900,SO2,8,11,9
India,Andhra_Pradesh,Visakhapatnam,"GVM Corporation, Visakhapatnam - APPCB",13-12-2025 07:00:00,17.72,83.3,SO2,22,46,32
India,Assam,Guwahati,"LGBI Airport, Guwahati - PCBA",13-12-2025 07:00:00,26.10887,91.589544,OZONE,12,14,13
India,Assam,Guwahati,"Pan Bazaar, Guwahati - PCBA",13-12-2025 07:00:00,26.187500,91.744194,SO2,15,36,25
India,Bihar,Bhagalpur,"DM Office_Kachari Chowk, Bhagalpur - BSPCB",13-12-2025 07:00:00,25.251013,86.989001,PM2.5,28,217,127
India,Bihar,Bhagalpur,"DM Office_Kachari Chowk, Bhagalpur - BSPCB",13-12-2025 07:00:00,25.251013,86.989001,CO,12,16,14
India,Bihar,Bhagalpur,"DM Office_Kachari Chowk, Bhagalpur - BSPCB",13-12-2025 07:00:00,25.251013,86.989001,OZONE,9,26,15
India,Bihar,Bhagalpur,"Mayaganj, Bhagalpur - BSPCB",13-12-2025 07:00:00,25.265194,87.012947,NO2,6,8,7
India,Andhra_Pradesh,Anantapur,"Gulzarpet, Anantapur - APPCB",13-12-2025 07:00:00,14.675886,77.593027,NH3,6,6,6
India,Bihar,Saharsa,"Police Line, Saharsa - BSPCB",13-12-2025 07:00:00,25.892357,86.590325,PM2.5,24,263,86
India,Bihar,Saharsa,"Police Line, Saharsa - BSPCB",13-12-2025 07:00:00,25.892357,86.590325,PM10,33,167,85
India,Bihar,Samastipur,"DM Office_Kasipur, Samastipur - BSPCB",13-12-2025 07:00:00,25.859655,85.77944,CO,31,126,66
India,Bihar,Sasaram,"Dada Peer, Sasaram - BSPCB",13-12-2025 07:00:00,24.952822,84.002396,NH3,2,4,3
India,Bihar,Siwan,"Chitragupta Nagar, Siwan - BSPCB",13-12-2025 07:00:00,26.2271665,84.3570427,PM10,59,133,103
India,Bihar,Siwan,"Chitragupta Nagar, Siwan - BSPCB",13-12-2025 07:00:00,26.2271665,84.3570427,NH3,1,1,1
India,Bihar,Siwan,"Chitragupta Nagar, Siwan - BSPCB",13-12-2025 07:00:00,26.2271665,84.3570427,OZONE,2,6,6
India,Chandigarh,Chandigarh,"Sector 22, Chandigarh - CPCC",13-12-2025 07:00:00,30.735567,76.775714,SO2,4,108,20
India,Chandigarh,Chandigarh,"Sector-25, Chandigarh - CPCC",13-12-2025 07:00:00,30.751462,76.762879,PM2.5,115,331,244
India,Chandigarh,Chandigarh,"Sector-25, Chandigarh - CPCC",13-12-2025 07:00:00,30.751462,76.762879,SO2,6,22,12
India,Chandigarh,Chandigarh,"Sector-53, Chandigarh - CPCC",13-12-2025 07:00:00,30.719859,76.738637,PM10,57,250,148
India,Chandigarh,Chandigarh,"Sector-53, Chandigarh - CPCC",13-12-2025 07:00:00,30.719859,76.738637,SO2,8,41,16
India,Chhattisgarh,Bhilai,"Civic Center, Bhilai - Bhilai Steel Plant",13-12-2025 07:00:00,21.185571,81.343175,PM2.5,45,106,74
India,Bihar,Patna,"Muradpur, Patna - BSPCB",13-12-2025 07:00:00,25.619651,85.147382,OZONE,5,23,5
India,Bihar,Purnia,"Mariam Nagar, Purnia - BSPCB",13-12-2025 07:00:00,25.366336,87.117468,PM2.5,18,153,78
India,Bihar,Purnia,"Mariam Nagar, Purnia - BSPCB",13-12-2025 07:00:00,25.366336,87.117468,PM10,16,107,64
India,Bihar,Rajgir,"Dangi Tola, Rajgir - BSPCB",13-12-2025 07:00:00,25.03280,85.41948,PM2.5,65,352,217
India,Bihar,Rajgir,"Dangi Tola, Rajgir - BSPCB",13-12-2025 07:00:00,25.03280,85.41948,OZONE,31,35,32
India,Chhattisgarh,Kunjemura,"OP Jindal School, Kunjemura - CECB",13-12-2025 07:00:00,22.126650,83.483212,PM2.5,22,38,29
India,Chhattisgarh,Kunjemura,"OP Jindal School, Kunjemura - CECB",13-12-2025 07:00:00,22.126650,83.483212,NH3,2,2,2
India,Chhattisgarh,Kunjemura,"OP Jindal School, Kunjemura - CECB",13-12-2025 07:00:00,22.126650,83.483212,OZONE,1,58,2
India,Chhattisgarh,Milupara,"Govt. Higher Secondary School, Milupara - CECB",13-12-2025 07:00:00,22.1910172,83.5197009,PM10,42,251,83
India,Chhattisgarh,Bhilai,"Hathkhoj, Bhilai - CECB",13-12-2025 07:00:00,21.224231,81.408350,SO2,24,45,34
India,Chhattisgarh,Bilaspur,"Mangala, Bilaspur - NTPC",13-12-2025 07:00:00,22.08815,82.13737,PM2.5,38,194,75
India,Chhattisgarh,Bilaspur,"Mangala, Bilaspur - NTPC",13-12-2025 07:00:00,22.08815,82.13737,NO2,19,139,30
India,Chhattisgarh,Korba,"Rampur, Korba - CECB",13-12-2025 07:00:00,22.368195,82.746431,PM2.5,49,86,51
India,Bihar,Munger,"Town Hall, Munger - BSPCB",13-12-2025 07:00:00,25.376776,86.471523,PM2.5,93,312,194
India,Bihar,Muzaffarpur,"Buddha Colony, Muzaffarpur - BSPCB",13-12-2025 07:00:00,26.11442,85.39813,OZONE,5,125,6
India,Bihar,Muzaffarpur,"MIT-Daudpur Kothi, Muzaffarpur - BSPCB",13-12-2025 07:00:00,26.1403345,85.3650192,PM10,67,83,74
India,Bihar,Patna,"Govt. High School Shikarpur, Patna - BSPCB",13-12-2025 07:00:00,25.592539,85.227158,PM2.5,58,86,71
India,Bihar,Patna,"IGSC Planetarium Complex, Patna - BSPCB",13-12-2025 07:00:00,25.610369,85.132568,PM2.5,121,381,271
India,Bihar,Patna,"IGSC Planetarium Complex, Patna - BSPCB",13-12-2025 07:00:00,25.610369,85.132568,NO2,11,19,15
India,Bihar,Muzaffarpur,"Muzaffarpur Collectorate, Muzaffarpur - BSPCB",13-12-2025 07:00:00,26.1209,85.3647,OZONE,8,41,11
India,Bihar,Patna,"DRM Office Danapur, Patna - BSPCB",13-12-2025 07:00:00,25.586562,85.043586,CO,10,135,69
India,Chhattisgarh,Tumidih,"OP Jindal Industrial Park, Tumidih - CECB",13-12-2025 07:00:00,22.06631475,83.33820077,NO2,32,91,63
India,Delhi,Delhi,"Pusa, Delhi - IMD",13-12-2025 07:00:00,28.636110,77.173332,CO,39,161,143
India,Delhi,Delhi,"Pusa, Delhi - IMD",13-12-2025 07:00:00,28.636110,77.173332,OZONE,1,234,33
India,Delhi,Delhi,"R K Puram, Delhi - DPCC",13-12-2025 07:00:00,28.563262,77.186937,PM10,165,499,355
India,Delhi,Delhi,"Rohini, Delhi - DPCC",13-12-2025 07:00:00,28.732528,77.119920,PM2.5,323,500,434
India,Delhi,Delhi,"Rohini, Delhi - DPCC",13-12-2025 07:00:00,28.732528,77.119920,NO2,26,149,68
India,Delhi,Delhi,"Rohini, Delhi - DPCC",13-12-2025 07:00:00,28.732528,77.119920,NH3,21,30,25
India,Delhi,Delhi,"Rohini, Delhi - DPCC",13-12-2025 07:00:00,28.732528,77.119920,SO2,4,17,9
India,Delhi,Delhi,"Shadipur, Delhi - CPCB",13-12-2025 07:00:00,28.6514781,77.1473105,NO2,61,163,109
India,Delhi,Delhi,"Shadipur, Delhi - CPCB",13-12-2025 07:00:00,28.6514781,77.1473105,SO2,1,22,11
India,Delhi,Delhi,"Sirifort, Delhi - CPCB",13-12-2025 07:00:00,28.5504249,77.2159377,NO2,27,76,46
India,Delhi,Delhi,"Sirifort, Delhi - CPCB",13-12-2025 07:00:00,28.5504249,77.2159377,NH3,7,11,10
India,Delhi,Delhi,"NSIT Dwarka, Delhi - CPCB",13-12-2025 07:00:00,28.60909,77.0325413,PM10,144,463,348
India,Delhi,Delhi,"NSIT Dwarka, Delhi - CPCB",13-12-2025 07:00:00,28.60909,77.0325413,CO,48,104,60
India,Delhi,Delhi,"Narela, Delhi - DPCC",13-12-2025 07:00:00,28.822836,77.101981,PM10,189,500,372
India,Delhi,Delhi,"Narela, Delhi - DPCC",13-12-2025 07:00:00,28.822836,77.101981,NH3,7,12,9
India,Delhi,Delhi,"Narela, Delhi - DPCC",13-12-2025 07:00:00,28.822836,77.101981,CO,7,111,88
India,Delhi,Delhi,"Nehru Nagar, Delhi - DPCC",13-12-2025 07:00:00,28.567890,77.250515,CO,122,169,156
India,Delhi,Delhi,"North Campus, DU, Delhi - IMD",13-12-2025 07:00:00,28.6573814,77.1585447,PM10,198,448,362
India,Delhi,Delhi,"IIT Delhi, Delhi - IITM",13-12-2025 07:00:00,28.542460,77.191651,OZONE,3,51,9
India,Delhi,Delhi,"ITO, Delhi - CPCB",13-12-2025 07:00:00,28.628624,77.241060,NO2,67,294,165
India,Delhi,Delhi,"Jahangirpuri, Delhi - DPCC",13-12-2025 07:00:00,28.732820,77.170633,PM10,241,498,393
India,Delhi,Delhi,"Jahangirpuri, Delhi - DPCC",13-12-2025 07:00:00,28.732820,77.170633,CO,66,180,122
India,Delhi,Delhi,"Jawaharlal Nehru Stadium, Delhi - DPCC",13-12-2025 07:00:00,28.580280,77.233829,PM10,181,500,358
India,Delhi,Delhi,"Jawaharlal Nehru Stadium, Delhi - DPCC",13-12-2025 07:00:00,28.580280,77.233829,NH3,5,5,5
India,Delhi,Delhi,"Major Dhyan Chand National Stadium, Delhi - DPCC",13-12-2025 07:00:00,28.611281,77.237738,PM10,183,412,317
India,Delhi,Delhi,"Major Dhyan Chand National Stadium, Delhi - DPCC",13-12-2025 07:00:00,28.611281,77.237738,NH3,21,26,24
India,Delhi,Delhi,"Major Dhyan Chand National Stadium, Delhi - DPCC",13-12-2025 07:00:00,28.611281,77.237738,SO2,12,49,21
India,Delhi,Delhi,"Major Dhyan Chand National Stadium, Delhi - DPCC",13-12-2025 07:00:00,28.611281,77.237738,CO,31,157,145
India,Delhi,Delhi,"Major Dhyan Chand National Stadium, Delhi - DPCC",13-12-2025 07:00:00,28.611281,77.237738,OZONE,1,294,1
India,Delhi,Delhi,"Mandir Marg, Delhi - DPCC",13-12-2025 07:00:00,28.636429,77.201067,OZONE,2,84,14
India,Delhi,Delhi,"Anand Vihar, Delhi - DPCC",13-12-2025 07:00:00,28.647622,77.3158090,OZONE,8,18,18
India,Delhi,Delhi,"Ashok Vihar, Delhi - DPCC",13-12-2025 07:00:00,28.695381,77.181665,PM10,237,500,421
India,Delhi,Delhi,"Ashok Vihar, Delhi - DPCC",13-12-2025 07:00:00,28.695381,77.181665,NO2,50,173,109
India,Delhi,Delhi,"Ashok Vihar, Delhi - DPCC",13-12-2025 07:00:00,28.695381,77.181665,NH3,1,2,1
India,Delhi,Delhi,"Ashok Vihar, Delhi - DPCC",13-12-2025 07:00:00,28.695381,77.181665,SO2,2,38,17
India,Delhi,Delhi,"North Campus, DU, Delhi - IMD",13-12-2025 07:00:00,28.6573814,77.1585447,NO2,30,308,147
India,Delhi,Delhi,"Punjabi Bagh, Delhi - DPCC",13-12-2025 07:00:00,28.674045,77.131023,NO2,31,102,64
India,Delhi,Delhi,"Pusa, Delhi - DPCC",13-12-2025 07:00:00,28.639652,77.146275,NO2,58,194,126
India,Delhi,Delhi,"Pusa, Delhi - DPCC",13-12-2025 07:00:00,28.639652,77.146275,CO,58,106,102
India,Delhi,Delhi,"Chandni Chowk, Delhi - IITM",13-12-2025 07:00:00,28.656756,77.227234,PM2.5,322,500,415
India,Delhi,Delhi,"DTU, Delhi - CPCB",13-12-2025 07:00:00,28.7500499,77.1112615,NO2,32,71,51
India,Delhi,Delhi,"DTU, Delhi - CPCB",13-12-2025 07:00:00,28.7500499,77.1112615,NH3,8,12,11
India,Delhi,Delhi,"DTU, Delhi - CPCB",13-12-2025 07:00:00,28.7500499,77.1112615,SO2,28,39,35
India,Delhi,Delhi,"IGI Airport (T3), Delhi - IMD",13-12-2025 07:00:00,28.5627763,77.1180053,PM2.5,131,427,309
India,Delhi,Delhi,"IHBAS, Dilshad Garden, Delhi - CPCB",13-12-2025 07:00:00,28.6811736,77.3025234,NH3,9,15,12
India,Delhi,Delhi,"Burari Crossing, Delhi - IMD",13-12-2025 07:00:00,28.7256504,77.2011573,CO,36,142,113
India,Haryana,Gurugram,"Teri Gram, Gurugram - HSPCB",13-12-2025 07:00:00,28.4275,77.1465,CO,42,88,70
India,Haryana,Gurugram,"Vikas Sadan, Gurugram - HSPCB",13-12-2025 07:00:00,28.4501238,77.0263051,PM2.5,285,303,292
India,Haryana,Gurugram,"Vikas Sadan, Gurugram - HSPCB",13-12-2025 07:00:00,28.4501238,77.0263051,PM10,144,152,146
India,Haryana,Gurugram,"Vikas Sadan, Gurugram - HSPCB",13-12-2025 07:00:00,28.4501238,77.0263051,SO2,2,8,5
India,Haryana,Hisar,"Urban Estate-II, Hisar - HSPCB",13-12-2025 07:00:00,29.140560,75.744941,PM10,123,189,151
India,Haryana,Jind,"Police Lines, Jind - HSPCB",13-12-2025 07:00:00,29.307814,76.337619,PM10,134,204,174
India,Haryana,Jind,"Police Lines, Jind - HSPCB",13-12-2025 07:00:00,29.307814,76.337619,SO2,1,9,3
India,Haryana,Kaithal,"Rishi Nagar, Kaithal - HSPCB",13-12-2025 07:00:00,29.8006,76.4155,NO2,29,34,31
India,Haryana,Kaithal,"Rishi Nagar, Kaithal - HSPCB",13-12-2025 07:00:00,29.8006,76.4155,OZONE,2,29,3
India,Haryana,Faridabad,"Sector 30, Faridabad - HSPCB",13-12-2025 07:00:00,28.4417,77.3217,PM10,64,147,101
India,Haryana,Faridabad,"Sector 30, Faridabad - HSPCB",13-12-2025 07:00:00,28.4417,77.3217,NO2,36,39,37
India,Haryana,Fatehabad,"Huda Sector, Fatehabad - HSPCB",13-12-2025 07:00:00,29.503664,75.467934,PM2.5,147,261,205
India,Haryana,Fatehabad,"Huda Sector, Fatehabad - HSPCB",13-12-2025 07:00:00,29.503664,75.467934,PM10,132,178,155
India,Haryana,Fatehabad,"Huda Sector, Fatehabad - HSPCB",13-12-2025 07:00:00,29.503664,75.467934,CO,25,34,27
India,Haryana,Gurugram,"NISE Gwal Pahari, Gurugram - IMD",13-12-2025 07:00:00,28.422681,77.148944,CO,38,102,81
India,Haryana,Gurugram,"Sector-51, Gurugram - HSPCB",13-12-2025 07:00:00,28.4227,77.0667,NH3,3,10,8
India,Haryana,Gurugram,"Sector-51, Gurugram - HSPCB",13-12-2025 07:00:00,28.4227,77.0667,SO2,1,36,18
India,Haryana,Gurugram,"Sector-51, Gurugram - HSPCB",13-12-2025 07:00:00,28.4227,77.0667,CO,33,69,50
India,Gujarat,Ahmedabad,"SAC ISRO Satellite, Ahmedabad - IITM",13-12-2025 07:00:00,23.023389,72.515201,SO2,4,23,9
India,Gujarat,Ahmedabad,"SAC ISRO Satellite, Ahmedabad - IITM",13-12-2025 07:00:00,23.023389,72.515201,OZONE,1,70,2
India,Gujarat,Ahmedabad,"SVPI Airport Hansol, Ahmedabad - IITM",13-12-2025 07:00:00,23.076793,72.627874,PM10,NA,NA,NA
India,Gujarat,Ahmedabad,"SVPI Airport Hansol, Ahmedabad - IITM",13-12-2025 07:00:00,23.076793,72.627874,SO2,5,14,8
India,Gujarat,Ankleshwar,"GIDC, Ankleshwar - GPCB",13-12-2025 07:00:00,21.613267,73.010555,SO2,28,43,40
India,Gujarat,Ankleshwar,"GIDC, Ankleshwar - GPCB",13-12-2025 07:00:00,21.613267,73.010555,CO,24,90,63
India,Gujarat,Gandhinagar,"IIPHG Lekawada, Gandhinagar - IITM",13-12-2025 07:00:00,23.243639,72.68994,OZONE,3,47,3
India,Delhi,Delhi,"Sonia Vihar, Delhi - DPCC",13-12-2025 07:00:00,28.710508,77.249485,NH3,8,14,10
India,Delhi,Delhi,"Sonia Vihar, Delhi - DPCC",13-12-2025 07:00:00,28.710508,77.249485,CO,86,181,138
India,Delhi,Delhi,"Sri Aurobindo Marg, Delhi - DPCC",13-12-2025 07:00:00,28.531346,77.190156,PM10,151,319,216
India,Delhi,Delhi,"Vivek Vihar, Delhi - DPCC",13-12-2025 07:00:00,28.672342,77.315260,PM2.5,325,500,440
India,Delhi,Delhi,"Vivek Vihar, Delhi - DPCC",13-12-2025 07:00:00,28.672342,77.315260,PM10,228,500,412
India,Delhi,Delhi,"Vivek Vihar, Delhi - DPCC",13-12-2025 07:00:00,28.672342,77.315260,OZONE,2,150,3
India,Delhi,Delhi,"Wazirpur, Delhi - DPCC",13-12-2025 07:00:00,28.699793,77.165453,NO2,NA,NA,NA
India,Gujarat,Ahmedabad,"Gyaspur, Ahmedabad - IITM",13-12-2025 07:00:00,22.977134,72.553024,PM2.5,75,257,144
India,Gujarat,Ahmedabad,"Gyaspur, Ahmedabad - IITM",13-12-2025 07:00:00,22.977134,72.553024,NO2,32,159,87
India,Gujarat,Ahmedabad,"Maninagar, Ahmedabad - GPCB",13-12-2025 07:00:00,23.002657,72.591912,NO2,63,64,63
India,Gujarat,Ahmedabad,"Raikhad, Ahmedabad - IITM",13-12-2025 07:00:00,23.020509,72.579261,PM10,120,196,157
India,Gujarat,Ahmedabad,"Raikhad, Ahmedabad - IITM",13-12-2025 07:00:00,23.020509,72.579261,NO2,18,117,65
India,Gujarat,Ahmedabad,"Raikhad, Ahmedabad - IITM",13-12-2025 07:00:00,23.020509,72.579261,NH3,11,27,20
India,Gujarat,Ahmedabad,"Raikhad, Ahmedabad - IITM",13-12-2025 07:00:00,23.020509,72.579261,SO2,4,26,14
India,Haryana,Charkhi Dadri,"Mini Secretariat, Charkhi Dadri - HSPCB",13-12-2025 07:00:00,28.593883,76.270653,OZONE,14,18,16
India,Haryana,Dharuhera,"Municipal Corporation Office, Dharuhera -  HSPCB",13-12-2025 07:00:00,28.206800,76.799700,NO2,15,52,38
India,Haryana,Dharuhera,"Municipal Corporation Office, Dharuhera -  HSPCB",13-12-2025 07:00:00,28.206800,76.799700,OZONE,8,56,10
India,Haryana,Faridabad,"Sector 11, Faridabad - HSPCB",13-12-2025 07:00:00,28.376058,77.315741,PM2.5,253,436,350
India,Haryana,Faridabad,"Sector 11, Faridabad - HSPCB",13-12-2025 07:00:00,28.376058,77.315741,NO2,30,33,31
India,Gujarat,Surat,"Science Center, Surat - SMC",13-12-2025 07:00:00,21.170046,72.795405,CO,37,46,43
India,Gujarat,Vatva,"Phase-4 GIDC, Vatva - GPCB",13-12-2025 07:00:00,22.969611,72.643500,PM2.5,42,234,137
India,Haryana,Ballabgarh,"Nathu Colony, Ballabgarh - HSPCB",13-12-2025 07:00:00,28.3419248,77.319699,OZONE,15,15,15
India,Gujarat,Surat,"Science Center, Surat - SMC",13-12-2025 07:00:00,21.170046,72.795405,PM2.5,15,123,59
India,Karnataka,Bengaluru,"Sanegurava Halli, Bengaluru - KSPCB",13-12-2025 07:00:00,12.990328,77.5431385,CO,18,102,24
India,Karnataka,Bengaluru,"Shivapura_Peenya, Bengaluru - KSPCB",13-12-2025 07:00:00,13.0246342,77.5080115,NO2,NA,NA,NA
India,Karnataka,Bengaluru,"Shivapura_Peenya, Bengaluru - KSPCB",13-12-2025 07:00:00,13.0246342,77.5080115,NH3,NA,NA,NA
India,Karnataka,Bengaluru,"Shivapura_Peenya, Bengaluru - KSPCB",13-12-2025 07:00:00,13.0246342,77.5080115,OZONE,NA,NA,NA
India,Karnataka,Bengaluru,"Silk Board, Bengaluru - KSPCB",13-12-2025 07:00:00,12.917348,77.622813,PM10,111,423,180
India,Karnataka,Chikkamagaluru,"Kalyana Nagara, Chikkamagaluru - KSPCB",13-12-2025 07:00:00,13.328028,75.797056,NH3,2,2,2
India,Karnataka,Dharwad,"Kalabhavan, Dharwad - KSPCB",13-12-2025 07:00:00,15.459706,75.008381,PM10,62,122,87
India,Haryana,Karnal,"Sector-12, Karnal - HSPCB",13-12-2025 07:00:00,29.695300,77.002700,OZONE,36,37,36
India,Haryana,Kurukshetra,"Sector-7, Kurukshetra - HSPCB",13-12-2025 07:00:00,29.966942,76.875879,PM10,152,285,224
India,Haryana,Kurukshetra,"Sector-7, Kurukshetra - HSPCB",13-12-2025 07:00:00,29.966942,76.875879,NO2,16,21,19
India,Haryana,Kurukshetra,"Sector-7, Kurukshetra - HSPCB",13-12-2025 07:00:00,29.966942,76.875879,OZONE,1,70,2
India,Haryana,Mandikhera,"General Hospital, Mandikhera(Nuh) - HSPCB",13-12-2025 07:00:00,27.9002,76.9938,PM10,89,174,136
India,Haryana,Manesar,"Sector-2 IMT, Manesar - HSPCB",13-12-2025 07:00:00,28.360699,76.936090,NH3,6,21,18
India,Haryana,Manesar,"Sector-2 IMT, Manesar - HSPCB",13-12-2025 07:00:00,28.360699,76.936090,OZONE,6,31,8
India,Karnataka,Bengaluru,"BWSSB Kadabesanahalli, Bengaluru - CPCB",13-12-2025 07:00:00,12.9352049,77.6814488,NH3,NA,NA,NA
India,Karnataka,Bengaluru,"Hebbal, Bengaluru - KSPCB",13-12-2025 07:00:00,13.029152,77.585901,OZONE,7,14,10
India,Karnataka,Bengaluru,"Hombegowda Nagar, Bengaluru - KSPCB",13-12-2025 07:00:00,12.938539,77.590100,NO2,16,91,33
India,Karnataka,Bengaluru,"Hombegowda Nagar, Bengaluru - KSPCB",13-12-2025 07:00:00,12.938539,77.590100,SO2,10,26,17
India,Karnataka,Bengaluru,"Hombegowda Nagar, Bengaluru - KSPCB",13-12-2025 07:00:00,12.938539,77.590100,OZONE,2,72,39
India,Karnataka,Bengaluru,"Jayanagar 5th Block, Bengaluru - KSPCB",13-12-2025 07:00:00,12.920984,77.584908,PM10,107,159,134
India,Karnataka,Bengaluru,"Jayanagar 5th Block, Bengaluru - KSPCB",13-12-2025 07:00:00,12.920984,77.584908,NH3,1,2,1
India,Himachal Pradesh,Baddi,"HIMUDA Complex Phase-1, Baddi - HPPCB",13-12-2025 07:00:00,30.943887,76.801991,NH3,4,43,9
India,Jammu_and_Kashmir,Srinagar,"Rajbagh, Srinagar - JKSPCB",13-12-2025 07:00:00,34.066206,74.819820,SO2,3,4,3
India,Jharkhand,Dhanbad,"Sardar Patel Nagar, Dhanbad - JSPCB",13-12-2025 07:00:00,23.80569,86.44268,PM2.5,84,307,201
India,Jharkhand,Dhanbad,"Sardar Patel Nagar, Dhanbad - JSPCB",13-12-2025 07:00:00,23.80569,86.44268,OZONE,NA,NA,NA
India,Jharkhand,Jorapokhar,"Tata Stadium, Jorapokhar - JSPCB",13-12-2025 07:00:00,23.707909,86.414670,PM10,NA,NA,NA
India,Haryana,Narnaul,"Shastri Nagar, Narnaul - HSPCB",13-12-2025 07:00:00,28.060249,76.113115,NO2,55,102,78
India,Haryana,Narnaul,"Shastri Nagar, Narnaul - HSPCB",13-12-2025 07:00:00,28.060249,76.113115,NH3,21,35,27
India,Haryana,Narnaul,"Shastri Nagar, Narnaul - HSPCB",13-12-2025 07:00:00,28.060249,76.113115,SO2,6,7,7
India,Haryana,Palwal,"Shyam Nagar, Palwal - HSPCB",13-12-2025 07:00:00,28.1485564,77.3320667,PM2.5,89,193,140
India,Haryana,Panipat,"Sector-18, Panipat - HSPCB",13-12-2025 07:00:00,29.432304,76.972765,PM10,139,488,328
India,Karnataka,Hubballi,"Lingaraj Nagar, Hubballi - KSPCB",13-12-2025 07:00:00,15.3714823,75.1160168,NO2,9,9,9
India,Karnataka,Kalaburagi,"Mahatma Basaveswar Colony, Kalaburgi - KSPCB",13-12-2025 07:00:00,17.336318,76.847397,PM2.5,23,57,38
India,Karnataka,Madikeri,"Stuart Hill, Madikeri - KSPCB",13-12-2025 07:00:00,12.415911,75.735050,OZONE,3,6,4
India,Karnataka,Bengaluru,"Kasturi Nagar, Bengaluru - KSPCB",13-12-2025 07:00:00,13.003872,77.664217,NO2,29,42,33
India,Karnataka,Bengaluru,"Peenya, Bengaluru - CPCB",13-12-2025 07:00:00,13.0270199,77.494094,PM10,53,63,56
India,Karnataka,Bengaluru,"Peenya, Bengaluru - CPCB",13-12-2025 07:00:00,13.0270199,77.494094,NO2,21,28,24
India,Karnataka,Bengaluru,"RVCE-Mailasandra, Bengaluru - KSPCB",13-12-2025 07:00:00,12.921418,77.502466,OZONE,16,16,16
India,Haryana,Panipat,"Sector-18, Panipat - HSPCB",13-12-2025 07:00:00,29.432304,76.972765,NO2,31,32,31
India,Haryana,Sirsa,"F-Block, Sirsa - HSPCB",13-12-2025 07:00:00,29.536400,75.015800,NO2,14,23,19
India,Karnataka,Mysuru,"Hebbal 1st Stage, Mysuru - KSPCB",13-12-2025 07:00:00,12.21041,76.37376,NH3,3,6,5
India,Madhya Pradesh,Bhopal,"Idgah Hills, Bhopal - MPPCB",13-12-2025 07:00:00,23.264759,77.381568,PM2.5,45,322,121
India,Madhya Pradesh,Bhopal,"Idgah Hills, Bhopal - MPPCB",13-12-2025 07:00:00,23.264759,77.381568,PM10,81,197,122
India,Madhya Pradesh,Bhopal,"Idgah Hills, Bhopal - MPPCB",13-12-2025 07:00:00,23.264759,77.381568,SO2,10,13,12
India,Madhya Pradesh,Bhopal,"Paryavaran Parisar, Bhopal - MPPCB",13-12-2025 07:00:00,23.210494,77.425409,PM2.5,33,382,170
India,Madhya Pradesh,Bhopal,"Paryavaran Parisar, Bhopal - MPPCB",13-12-2025 07:00:00,23.210494,77.425409,PM10,66,293,153
India,Madhya Pradesh,Bhopal,"Paryavaran Parisar, Bhopal - MPPCB",13-12-2025 07:00:00,23.210494,77.425409,NH3,1,1,1
India,Madhya Pradesh,Bhopal,"Paryavaran Parisar, Bhopal - MPPCB",13-12-2025 07:00:00,23.210494,77.425409,SO2,5,12,8
India,Madhya Pradesh,Bhopal,"T T Nagar, Bhopal - MPPCB",13-12-2025 07:00:00,23.233584,77.400574,PM10,85,284,151
India,Madhya Pradesh,Damoh,"Shrivastav Colony, Damoh - MPPCB",13-12-2025 07:00:00,23.81748678,79.446246,CO,16,90,28
India,Madhya Pradesh,Dewas,"Bhopal Chauraha, Dewas - MPPCB",13-12-2025 07:00:00,22.9682591,76.064118,PM10,46,140,87
India,Madhya Pradesh,Dewas,"Bhopal Chauraha, Dewas - MPPCB",13-12-2025 07:00:00,22.9682591,76.064118,CO,10,34,16
India,Kerala,Eloor,"Udyogamandal, Eloor - Kerala PCB",13-12-2025 07:00:00,10.073232,76.302765,PM2.5,NA,NA,NA
India,Kerala,Eloor,"Udyogamandal, Eloor - Kerala PCB",13-12-2025 07:00:00,10.073232,76.302765,CO,NA,NA,NA
India,Kerala,Kannur,"Thavakkara, Kannur - Kerala PCB",13-12-2025 07:00:00,11.875000,75.373200,PM10,63,71,66
India,Kerala,Kannur,"Thavakkara, Kannur - Kerala PCB",13-12-2025 07:00:00,11.875000,75.373200,OZONE,28,32,28
India,Kerala,Thiruvananthapuram,"Kariavattom, Thiruvananthapuram - Kerala PCB",13-12-2025 07:00:00,8.563700,76.886500,PM10,69,136,103
India,Kerala,Thiruvananthapuram,"Kariavattom, Thiruvananthapuram - Kerala PCB",13-12-2025 07:00:00,8.563700,76.886500,NO2,6,7,6
India,Kerala,Thrissur,"Corporation Ground, Thrissur - Kerala PCB",13-12-2025 07:00:00,10.532400,76.215900,PM2.5,51,59,55
India,Kerala,Thrissur,"Corporation Ground, Thrissur - Kerala PCB",13-12-2025 07:00:00,10.532400,76.215900,SO2,1,1,1
India,Madhya Pradesh,Sagar,"Civil Lines, Sagar - MPPCB",13-12-2025 07:00:00,23.838586,78.759431,OZONE,42,73,64
India,Madhya Pradesh,Satna,"Bandhavgar Colony, Satna - Birla Cement",13-12-2025 07:00:00,24.58434363,80.8549414,PM10,64,65,64
India,Madhya Pradesh,Singrauli,"Suryakiran Bhawan NCL, Singrauli - MPPCB",13-12-2025 07:00:00,24.108970,82.645580,CO,34,103,101
India,Maharashtra,Ahmednagar,"Tarakpur, Ahmednagar - MPCB",13-12-2025 07:00:00,19.10122,74.73339,SO2,4,28,16
India,Madhya Pradesh,Gwalior,"Maharaj Bada, Gwalior - MPPCB",13-12-2025 07:00:00,26.200388,78.147714,OZONE,4,52,27
India,Madhya Pradesh,Indore,"Chhoti Gwaltoli, Indore - MPPCB",13-12-2025 07:00:00,22.4310,75.5213,NO2,27,170,122
India,Madhya Pradesh,Indore,"Chhoti Gwaltoli, Indore - MPPCB",13-12-2025 07:00:00,22.4310,75.5213,OZONE,3,79,4
India,Madhya Pradesh,Indore,"Maguda Nagar, Indore - IMC",13-12-2025 07:00:00,22.7524,75.8872,NH3,NA,NA,NA
India,Madhya Pradesh,Indore,"Maguda Nagar, Indore - IMC",13-12-2025 07:00:00,22.7524,75.8872,CO,27,58,51
India,Madhya Pradesh,Indore,"Maguda Nagar, Indore - IMC",13-12-2025 07:00:00,22.7524,75.8872,OZONE,10,21,18
India,Madhya Pradesh,Jabalpur,"Marhatal, Jabalpur - MPPCB",13-12-2025 07:00:00,23.168606,79.932247,SO2,11,31,17
India,Madhya Pradesh,Jabalpur,"Marhatal, Jabalpur - MPPCB",13-12-2025 07:00:00,23.168606,79.932247,OZONE,8,159,21
India,Madhya Pradesh,Jabalpur,"Suhagi, Jabalpur - JMC",13-12-2025 07:00:00,23.218135,79.957770,PM10,50,212,108
India,Madhya Pradesh,Katni,"Gole Bazar, Katni - MPPCB",13-12-2025 07:00:00,23.50016,80.23284,PM2.5,22,334,145
India,Madhya Pradesh,Maihar,"Sahilara, Maihar - KJS Cements",13-12-2025 07:00:00,24.2613009,80.7231783,NO2,32,164,70
India,Madhya Pradesh,Maihar,"Sahilara, Maihar - KJS Cements",13-12-2025 07:00:00,24.2613009,80.7231783,SO2,17,17,17
India,Madhya Pradesh,Mandideep,"Sector-D Industrial Area, Mandideep - MPPCB",13-12-2025 07:00:00,23.108440,77.511428,PM10,106,491,300
India,Madhya Pradesh,Mandideep,"Sector-D Industrial Area, Mandideep - MPPCB",13-12-2025 07:00:00,23.108440,77.511428,OZONE,3,37,4
India,Karnataka,Shivamogga,"Vinoba Nagara, Shivamogga - KSPCB",13-12-2025 07:00:00,13.940000,75.555917,OZONE,10,85,22
India,Karnataka,Yadgir,"Collector Office, Yadgir - KSPCB",13-12-2025 07:00:00,16.7602,77.1428,NO2,7,21,11
India,Madhya Pradesh,Jabalpur,"Govindh Bhavan Colony, Jabalpur - JMC",13-12-2025 07:00:00,23.163174,79.973061,OZONE,23,24,24
India,Madhya Pradesh,Indore,"Residency Area, Indore - IMC",13-12-2025 07:00:00,22.7084,75.8815,PM10,NA,NA,NA
India,Maharashtra,Kolhapur,"Shivaji University, Kolhapur - MPCB",13-12-2025 07:00:00,16.6870449,74.2505872,NH3,1,7,4
India,Maharashtra,Kolhapur,"Shivaji University, Kolhapur - MPCB",13-12-2025 07:00:00,16.6870449,74.2505872,CO,17,78,52
India,Maharashtra,Kolhapur,"Sinchan Bhavan, Kolhapur - MPCB",13-12-2025 07:00:00,16.7143745,74.2426398,PM2.5,41,337,130
India,Maharashtra,Latur,"Sawe Wadi, Latur - MPCB",13-12-2025 07:00:00,18.39963,76.57452,PM2.5,41,150,91
India,Maharashtra,Mahad,"Kamble Tarf Birwadi, Mahad - MPCB",13-12-2025 07:00:00,18.1023399,73.4783687,SO2,14,126,38
India,Maharashtra,Malegaon,"Mahesh Nagar, Malegaon - MPCB",13-12-2025 07:00:00,20.555712,74.529236,NO2,10,99,36
India,Maharashtra,Akola,"Ramdaspeth, Akola - MPCB",13-12-2025 07:00:00,20.719516,77.000253,PM10,36,189,93
India,Maharashtra,Amravati,"Shivneri Colony, Amravati - MPCB",13-12-2025 07:00:00,20.9402359,77.7895248,SO2,19,27,23
India,Maharashtra,Amravati,"Shivneri Colony, Amravati - MPCB",13-12-2025 07:00:00,20.9402359,77.7895248,CO,12,48,22
India,Maharashtra,Amravati,"Shri Shivaji Science College, Amravati - MPCB",13-12-2025 07:00:00,20.939198,77.765701,SO2,NA,NA,NA
India,Maharashtra,Aurangabad,"MIDC Chilkalthana, Aurangabad - MPCB",13-12-2025 07:00:00,19.875620,75.387310,NO2,NA,NA,NA
India,Maharashtra,Aurangabad,"Rachnakar Colony, Aurangabad - MPCB",13-12-2025 07:00:00,19.863756,75.321188,PM2.5,64,395,164
India,Maharashtra,Aurangabad,"Rachnakar Colony, Aurangabad - MPCB",13-12-2025 07:00:00,19.863756,75.321188,NO2,17,23,19
India,Maharashtra,Badlapur,"Katrap, Badlapur - MPCB",13-12-2025 07:00:00,19.16485,73.23409,PM10,77,170,118
India,Maharashtra,Belapur,"CBD Belapur, Belapur - MPCB",13-12-2025 07:00:00,19.0243902,73.0406721,NH3,1,2,1
India,Maharashtra,Belapur,"CBD Belapur, Belapur - MPCB",13-12-2025 07:00:00,19.0243902,73.0406721,OZONE,7,96,11
India,Maharashtra,Boisar,"Khaira, Boisar - MPCB",13-12-2025 07:00:00,19.786089,72.757971,PM10,80,176,119
India,Maharashtra,Chandrapur,"Chauhan Colony, Chandrapur - MPCB",13-12-2025 07:00:00,19.962900,79.298714,NO2,29,35,32
India,Maharashtra,Chandrapur,"Chauhan Colony, Chandrapur - MPCB",13-12-2025 07:00:00,19.962900,79.298714,OZONE,24,24,24
India,Maharashtra,Chandrapur,"MIDC Khutala, Chandrapur - MPCB",13-12-2025 07:00:00,19.9775302,79.2337086,PM2.5,34,301,119
India,Maharashtra,Chandrapur,"MIDC Khutala, Chandrapur - MPCB",13-12-2025 07:00:00,19.9775302,79.2337086,SO2,8,9,9
India,Maharashtra,Mira-Bhayandar,"Bhayandar West, Mira-Bhayandar - MPCB",13-12-2025 07:00:00,19.296481,72.840923,PM10,56,259,108
India,Maharashtra,Mira-Bhayandar,"Bhayandar West, Mira-Bhayandar - MPCB",13-12-2025 07:00:00,19.296481,72.840923,NO2,20,78,46
India,Maharashtra,Mumbai,"Borivali East, Mumbai - IITM",13-12-2025 07:00:00,19.23241,72.86895,PM10,51,116,80
India,Maharashtra,Mumbai,"Borivali East, Mumbai - MPCB",13-12-2025 07:00:00,19.2243333,72.8658113,PM2.5,50,90,68
India,Maharashtra,Jalgaon,"Prabhat Colony, Jalgaon - MPCB",13-12-2025 07:00:00,21.001264,75.565602,PM2.5,73,331,167
India,Maharashtra,Jalgaon,"Prabhat Colony, Jalgaon - MPCB",13-12-2025 07:00:00,21.001264,75.565602,PM10,78,229,127
India,Maharashtra,Jalgaon,"Prabhat Colony, Jalgaon - MPCB",13-12-2025 07:00:00,21.001264,75.565602,OZONE,5,94,35
India,Maharashtra,Jalna,"Old MIDC, Jalna - MPCB",13-12-2025 07:00:00,19.854616,75.905894,OZONE,21,78,31
India,Maharashtra,Mumbai,"Chhatrapati Shivaji Intl. Airport (T2), Mumbai - MPCB",13-12-2025 07:00:00,19.10078,72.87462,OZONE,NA,NA,NA
India,Maharashtra,Mumbai,"Colaba, Mumbai - MPCB",13-12-2025 07:00:00,18.910000,72.820000,PM10,80,141,110
India,Maharashtra,Mumbai,"Borivali East, Mumbai - MPCB",13-12-2025 07:00:00,19.2243333,72.8658113,OZONE,12,15,12
India,Maharashtra,Mumbai,"Byculla, Mumbai - BMC",13-12-2025 07:00:00,18.9767,72.8380,PM2.5,45,144,94
India,Maharashtra,Mumbai,"Deonar, Mumbai - IITM",13-12-2025 07:00:00,19.04946,72.9230,PM2.5,31,138,80
India,Maharashtra,Mumbai,"Deonar, Mumbai - IITM",13-12-2025 07:00:00,19.04946,72.9230,PM10,75,148,122
India,Maharashtra,Nashik,"Hirawadi, Nashik - MPCB",13-12-2025 07:00:00,20.021503,73.813844,SO2,1,15,6
India,Maharashtra,Nashik,"MIDC Ambad, Nashik - MPCB",13-12-2025 07:00:00,19.950220,73.731480,PM2.5,84,199,121
India,Maharashtra,Nashik,"MIDC Ambad, Nashik - MPCB",13-12-2025 07:00:00,19.950220,73.731480,NH3,1,5,3
India,Maharashtra,Nashik,"MIDC Ambad, Nashik - MPCB",13-12-2025 07:00:00,19.950220,73.731480,SO2,9,46,17
India,Maharashtra,Nashik,"MIDC Ambad, Nashik - MPCB",13-12-2025 07:00:00,19.950220,73.731480,OZONE,7,91,34
India,Maharashtra,Nashik,"Pandav Nagari, Nashik - MPCB",13-12-2025 07:00:00,19.9591346,73.7788008,CO,NA,NA,NA
India,Maharashtra,Navi Mumbai,"Kopripada-Vashi, Navi Mumbai - MPCB",13-12-2025 07:00:00,19.090337,73.014232,PM2.5,54,77,64
India,Maharashtra,Navi Mumbai,"Kopripada-Vashi, Navi Mumbai - MPCB",13-12-2025 07:00:00,19.090337,73.014232,OZONE,1,97,1
India,Maharashtra,Navi Mumbai,"Mahape, Navi Mumbai - MPCB",13-12-2025 07:00:00,19.1135051,73.008978,PM2.5,9,20,15
India,Maharashtra,Mumbai,"Khindipada-Bhandup West, Mumbai - IITM",13-12-2025 07:00:00,19.1653323,72.922099,PM10,34,131,88
India,Maharashtra,Mumbai,"Khindipada-Bhandup West, Mumbai - IITM",13-12-2025 07:00:00,19.1653323,72.922099,NH3,1,3,1
India,Maharashtra,Mumbai,"Kurla, Mumbai - MPCB",13-12-2025 07:00:00,19.0863,72.8888,PM2.5,74,174,97
India,Maharashtra,Mumbai,"Kurla, Mumbai - MPCB",13-12-2025 07:00:00,19.0863,72.8888,NO2,6,9,7
India,Maharashtra,Mumbai,"Kurla, Mumbai - MPCB",13-12-2025 07:00:00,19.0863,72.8888,CO,12,25,21
India,Maharashtra,Mumbai,"Malad West, Mumbai - IITM",13-12-2025 07:00:00,19.19709,72.82204,CO,19,96,76
India,Maharashtra,Mumbai,"Mazgaon, Mumbai - IITM",13-12-2025 07:00:00,18.96702,72.84214,PM10,57,107,79
India,Maharashtra,Nagpur,"Opp GPO Civil Lines, Nagpur - MPCB",13-12-2025 07:00:00,21.152875,79.0517531,NO2,25,100,50
India,Maharashtra,Nagpur,"Ram Nagar, Nagpur - MPCB",13-12-2025 07:00:00,21.143383,79.048912,PM10,64,158,101
India,Maharashtra,Nagpur,"Ram Nagar, Nagpur - MPCB",13-12-2025 07:00:00,21.143383,79.048912,NH3,5,13,7
India,Maharashtra,Nagpur,"Ram Nagar, Nagpur - MPCB",13-12-2025 07:00:00,21.143383,79.048912,CO,12,101,41
India,Maharashtra,Nanded,"Sneh Nagar, Nanded - MPCB",13-12-2025 07:00:00,19.173852,77.296291,NH3,3,5,4
India,Maharashtra,Nashik,"Gangapur Road, Nashik - MPCB",13-12-2025 07:00:00,20.0073285,73.7762427,CO,18,32,29
India,Maharashtra,Parbhani,"Masoom Colony, Parbhani - MPCB",13-12-2025 07:00:00,19.265594,76.761463,NO2,22,86,48
India,Maharashtra,Parbhani,"Masoom Colony, Parbhani - MPCB",13-12-2025 07:00:00,19.265594,76.761463,CO,8,16,12
India,Maharashtra,Pimpri-Chinchwad,"Gavalinagar, Pimpri Chinchwad - MPCB",13-12-2025 07:00:00,18.63673,73.82487,PM10,72,453,207
India,Maharashtra,Pimpri-Chinchwad,"Gavalinagar, Pimpri Chinchwad - MPCB",13-12-2025 07:00:00,18.63673,73.82487,NO2,31,122,70
India,Maharashtra,Pimpri-Chinchwad,"Savta Mali Nagar, Pimpri-Chinchwad - IITM",13-12-2025 07:00:00,18.614767,73.799516,PM2.5,55,335,209
India,Maharashtra,Mumbai,"Vile Parle West, Mumbai - MPCB",13-12-2025 07:00:00,19.10861,72.83622,NO2,11,11,11
India,Maharashtra,Nagpur,"Ambazari, Nagpur - MPCB",13-12-2025 07:00:00,21.121801,79.04952,SO2,19,133,44
India,Maharashtra,Nagpur,"Ambazari, Nagpur - MPCB",13-12-2025 07:00:00,21.121801,79.04952,OZONE,1,85,13
India,Maharashtra,Nagpur,"Mahal, Nagpur - MPCB",13-12-2025 07:00:00,21.14472,79.107595,PM2.5,69,284,142
India,Maharashtra,Nagpur,"Mahal, Nagpur - MPCB",13-12-2025 07:00:00,21.14472,79.107595,NO2,6,94,46
India,Maharashtra,Navi Mumbai,"Mahape, Navi Mumbai - MPCB",13-12-2025 07:00:00,19.1135051,73.008978,CO,24,30,29
India,Maharashtra,Navi Mumbai,"Sanpada, Navi Mumbai - MPCB",13-12-2025 07:00:00,19.0575752,73.0151367,NO2,1,33,18
India,Maharashtra,Navi Mumbai,"Sector-2E Kalamboli, Navi Mumbai - MPCB",13-12-2025 07:00:00,19.02579,73.10297,PM10,40,171,117
India,Maharashtra,Navi Mumbai,"Sector-2E Kalamboli, Navi Mumbai - MPCB",13-12-2025 07:00:00,19.02579,73.10297,CO,2,66,24
India,Maharashtra,Mumbai,"Sewri, Mumbai - BMC",13-12-2025 07:00:00,19.000084,72.856730,OZONE,75,316,212
India,Maharashtra,Mumbai,"Shivaji Nagar, Mumbai - BMC",13-12-2025 07:00:00,19.060498,72.923356,PM10,78,182,136
India,Maharashtra,Mumbai,"Shivaji Nagar, Mumbai - BMC",13-12-2025 07:00:00,19.060498,72.923356,OZONE,1,88,7
India,Maharashtra,Mumbai,"Sion, Mumbai - MPCB",13-12-2025 07:00:00,19.047000,72.874600,PM10,42,129,95
India,Maharashtra,Mumbai,"Mindspace-Malad West, Mumbai - MPCB",13-12-2025 07:00:00,19.1878657,72.8304069,NO2,24,130,60
India,Maharashtra,Mumbai,"Mulund West, Mumbai - MPCB",13-12-2025 07:00:00,19.1750,72.9419,PM10,54,147,89
India,Maharashtra,Mumbai,"Mulund West, Mumbai - MPCB",13-12-2025 07:00:00,19.1750,72.9419,NO2,16,22,17
India,Maharashtra,Mumbai,"Mulund West, Mumbai - MPCB",13-12-2025 07:00:00,19.1750,72.9419,SO2,NA,NA,NA
India,Maharashtra,Mumbai,"Ghatkopar, Mumbai - BMC",13-12-2025 07:00:00,19.083694,72.920967,OZONE,NA,NA,NA
India,Maharashtra,Mumbai,"Kandivali West, Mumbai - BMC",13-12-2025 07:00:00,19.215859,72.831718,CO,16,98,66
India,Mizoram,Aizawl,"Sikulpuikawn, Aizawl - Mizoram PCB",13-12-2025 07:00:00,23.7176342,92.7192841,SO2,13,14,14
India,Mizoram,Aizawl,"Sikulpuikawn, Aizawl - Mizoram PCB",13-12-2025 07:00:00,23.7176342,92.7192841,CO,3,3,3
India,Nagaland,Kohima,"PWD Junction, Kohima - NPCB",13-12-2025 07:00:00,25.6635413,94.0989878,SO2,73,75,74
India,Nagaland,Kohima,"PWD Junction, Kohima - NPCB",13-12-2025 07:00:00,25.6635413,94.0989878,OZONE,5,35,8
India,Odisha,Angul,"Hakimapada, Angul - OSPCB",13-12-2025 07:00:00,20.832874,85.104082,PM2.5,90,324,166
India,Odisha,Angul,"Hakimapada, Angul - OSPCB",13-12-2025 07:00:00,20.832874,85.104082,PM10,103,245,138
India,Odisha,Angul,"Hakimapada, Angul - OSPCB",13-12-2025 07:00:00,20.832874,85.104082,NO2,26,86,46
India,Odisha,Angul,"Hakimapada, Angul - OSPCB",13-12-2025 07:00:00,20.832874,85.104082,OZONE,14,160,27
India,Odisha,Balasore,"Kalidaspur, Balasore - OSPCB",13-12-2025 07:00:00,21.51161,86.89088,NO2,12,123,39
India,Odisha,Balasore,"Kalidaspur, Balasore - OSPCB",13-12-2025 07:00:00,21.51161,86.89088,SO2,7,34,16
India,Odisha,Barbil,"Forest Office, Barbil - OSPCB",13-12-2025 07:00:00,22.1166054,85.3945546,PM2.5,52,341,175
India,Odisha,Baripada,"Meher Colony, Baripada - OSPCB",13-12-2025 07:00:00,21.941841,86.728318,CO,92,116,96
India,Odisha,Baripada,"Meher Colony, Baripada - OSPCB",13-12-2025 07:00:00,21.941841,86.728318,OZONE,4,96,38
India,Odisha,Bhubaneswar,"Lingraj Mandir, Bhubaneswar - OSPCB",13-12-2025 07:00:00,20.240790,85.836784,NO2,22,138,72
India,Odisha,Bhubaneswar,"Lingraj Mandir, Bhubaneswar - OSPCB",13-12-2025 07:00:00,20.240790,85.836784,NH3,5,8,6
India,Odisha,Bhubaneswar,"Lingraj Mandir, Bhubaneswar - OSPCB",13-12-2025 07:00:00,20.240790,85.836784,SO2,3,26,11
India,Odisha,Bhubaneswar,"Patia, Bhubaneswar - OSPCB",13-12-2025 07:00:00,20.34652,85.81630,PM10,111,356,182
India,Odisha,Bhubaneswar,"Patia, Bhubaneswar - OSPCB",13-12-2025 07:00:00,20.34652,85.81630,NH3,7,11,9
India,Maharashtra,Pune,"Panchawati_Pashan, Pune - IITM",13-12-2025 07:00:00,18.536457,73.805454,CO,20,53,44
India,Maharashtra,Pune,"Revenue Colony-Shivajinagar, Pune - IITM",13-12-2025 07:00:00,18.530085,73.849598,PM2.5,76,311,197
India,Maharashtra,Pune,"Revenue Colony-Shivajinagar, Pune - IITM",13-12-2025 07:00:00,18.530085,73.849598,CO,56,161,92
India,Maharashtra,Pune,"Savitribai Phule Pune University, Pune - MPCB",13-12-2025 07:00:00,18.547056,73.826908,PM2.5,54,174,108
India,Maharashtra,Pune,"Savitribai Phule Pune University, Pune - MPCB",13-12-2025 07:00:00,18.547056,73.826908,CO,4,139,106
India,Maharashtra,Sangli,"Vijay Nagar, Sangli - MPCB",13-12-2025 07:00:00, 16.5038,74.3623,PM2.5,73,417,195
India,Odisha,Bileipada,"Tata Township, Bileipada - OSPCB",13-12-2025 07:00:00,22.06156703,85.47409613,PM10,NA,NA,NA
India,Odisha,Brajrajnagar,"GM Office, Brajrajnagar - OSPCB",13-12-2025 07:00:00,21.8004996,83.8396977,NH3,12,12,12
India,Odisha,Byasanagar,"Ferro Chrome Colony, Byasanagar - OSPCB",13-12-2025 07:00:00,20.94185,86.11510,NO2,NA,NA,NA
India,Odisha,Cuttack,"CDA Area, Cuttack - OSPCB",13-12-2025 07:00:00,20.48891     ,85.84768     ,PM10,117,306,180
India,Maharashtra,Pimpri-Chinchwad,"Savta Mali Nagar, Pimpri-Chinchwad - IITM",13-12-2025 07:00:00,18.614767,73.799516,OZONE,2,56,2
India,Maharashtra,Pimpri-Chinchwad,"Thergaon, Pimpri Chinchwad - MPCB",13-12-2025 07:00:00,18.616318,73.765797,NO2,23,133,59
India,Maharashtra,Pimpri-Chinchwad,"Thergaon, Pimpri Chinchwad - MPCB",13-12-2025 07:00:00,18.616318,73.765797,NH3,6,14,10
India,Maharashtra,Pimpri-Chinchwad,"Thergaon, Pimpri Chinchwad - MPCB",13-12-2025 07:00:00,18.616318,73.765797,SO2,1,8,4
India,Maharashtra,Pune,"Bhosari, Pune - IITM",13-12-2025 07:00:00,18.640051,73.848956,PM10,NA,NA,NA
India,Maharashtra,Thane,"Upvan Fort, Thane - MPCB",13-12-2025 07:00:00,19.222279,72.957979,SO2,8,33,16
India,Maharashtra,Thane,"Upvan Fort, Thane - MPCB",13-12-2025 07:00:00,19.222279,72.957979,OZONE,11,119,54
India,Maharashtra,Ulhasnagar,"Sidhi Vinayak Nagar, Ulhasnagar - MPCB",13-12-2025 07:00:00,19.235581,73.159121,NH3,3,6,4
India,Maharashtra,Virar,"Bolinj, Virar - MPCB",13-12-2025 07:00:00,19.4458210,72.7988231,CO,14,156,95
India,Maharashtra,Pune,"Bhumkar Nagar, Pune - IITM",13-12-2025 07:00:00,18.605770,73.749976,PM2.5,NA,NA,NA
India,Maharashtra,Pune,"Katraj Dairy, Pune - MPCB",13-12-2025 07:00:00,18.454450,73.854155,PM2.5,74,147,105
India,Maharashtra,Pune,"Mhada Colony, Pune - IITM",13-12-2025 07:00:00,18.573040,73.927715,OZONE,15,114,19
India,Maharashtra,Sangli,"Vijay Nagar, Sangli - MPCB",13-12-2025 07:00:00, 16.5038,74.3623,CO,30,57,41
India,Maharashtra,Sangli,"Vijay Nagar, Sangli - MPCB",13-12-2025 07:00:00, 16.5038,74.3623,OZONE,1,56,10
India,Maharashtra,Thane,"Kasarvadavali, Thane - MPCB",13-12-2025 07:00:00,19.26777,72.97182,CO,6,57,38
India,Punjab,Bathinda,"Hardev Nagar, Bathinda - PPCB",13-12-2025 07:00:00,30.233011,74.907758,PM10,37,157,86
India,Punjab,Jalandhar,"Civil Line, Jalandhar - PPCB",13-12-2025 07:00:00,31.321907,75.578914,SO2,14,17,16
India,Punjab,Khanna,"Kalal Majra, Khanna - PPCB",13-12-2025 07:00:00,30.736056 ,76.209694,PM2.5,101,332,216
India,Punjab,Khanna,"Kalal Majra, Khanna - PPCB",13-12-2025 07:00:00,30.736056 ,76.209694,OZONE,24,26,25
India,Punjab,Ludhiana,"Punjab Agricultural University, Ludhiana - PPCB",13-12-2025 07:00:00,30.9028,75.8086,PM10,120,146,138
India,Punjab,Mandi Gobindgarh,"RIMT University, Mandi Gobindgarh - PPCB",13-12-2025 07:00:00,30.649961,76.331442,PM10,89,182,123
India,Punjab,Mandi Gobindgarh,"RIMT University, Mandi Gobindgarh - PPCB",13-12-2025 07:00:00,30.649961,76.331442,CO,20,116,49
India,Punjab,Mandi Gobindgarh,"RIMT University, Mandi Gobindgarh - PPCB",13-12-2025 07:00:00,30.649961,76.331442,OZONE,29,35,33
India,Odisha,Keonjhar,"Jagamohanpur, Keonjhar - OSPCB",13-12-2025 07:00:00,21.643900,85.599355,NO2,30,72,47
India,Odisha,Keonjhar,"Jagamohanpur, Keonjhar - OSPCB",13-12-2025 07:00:00,21.643900,85.599355,OZONE,16,19,18
India,Odisha,Rairangpur,"Divisional Forest Office, Rairangpur - OSPCB",13-12-2025 07:00:00,22.265816,86.174829,NO2,11,11,11
India,Odisha,Rairangpur,"Divisional Forest Office, Rairangpur - OSPCB",13-12-2025 07:00:00,22.265816,86.174829,NH3,1,1,1
India,Odisha,Rairangpur,"Divisional Forest Office, Rairangpur - OSPCB",13-12-2025 07:00:00,22.265816,86.174829,SO2,1,36,13
India,Odisha,Rairangpur,"Divisional Forest Office, Rairangpur - OSPCB",13-12-2025 07:00:00,22.265816,86.174829,CO,38,85,57
India,Odisha,Rourkela,"Fertilizer Township, Rourkela - OSPCB",13-12-2025 07:00:00,22.18972222,84.86277778,NO2,11,11,11
India,Odisha,Rourkela,"Raghunathpali, Rourkela - OSPCB",13-12-2025 07:00:00,22.220833,84.809444,PM2.5,87,264,160
India,Odisha,Rourkela,"Raghunathpali, Rourkela - OSPCB",13-12-2025 07:00:00,22.220833,84.809444,PM10,92,237,139
India,Odisha,Rourkela,"Sector-2, Rourkela - OSPCB",13-12-2025 07:00:00,22.24500000,84.88111111,PM2.5,75,218,105
India,Odisha,Rourkela,"Sector-2, Rourkela - OSPCB",13-12-2025 07:00:00,22.24500000,84.88111111,CO,NA,NA,NA
India,Odisha,Talcher,"Talcher Coalfields,Talcher - OSPCB",13-12-2025 07:00:00,20.9360711,85.1707021,NO2,52,102,78
India,Puducherry,Puducherry,"Jawahar Nagar, Puducherry - PPCC",13-12-2025 07:00:00,11.9309,79.8027,SO2,4,11,8
India,Puducherry,Puducherry,"Jawahar Nagar, Puducherry - PPCC",13-12-2025 07:00:00,11.9309,79.8027,CO,23,41,26
India,Punjab,Amritsar,"Golden Temple, Amritsar - PPCB",13-12-2025 07:00:00,31.620000,74.876512,PM10,52,450,197
India,Punjab,Amritsar,"Golden Temple, Amritsar - PPCB",13-12-2025 07:00:00,31.620000,74.876512,SO2,17,37,26
India,Rajasthan,Bikaner,"MM Ground, Bikaner - RSPCB",13-12-2025 07:00:00,28.018792,73.292658,SO2,7,22,12
India,Rajasthan,Bikaner,"MM Ground, Bikaner - RSPCB",13-12-2025 07:00:00,28.018792,73.292658,CO,19,145,40
India,Rajasthan,Bundi,"New Colony, Bundi - RSPCB",13-12-2025 07:00:00,25.435774,75.644272,NO2,16,101,39
India,Rajasthan,Churu,"Subash Chowk, Churu - RSPCB",13-12-2025 07:00:00,28.296139,74.961696,NO2,11,126,48
India,Rajasthan,Churu,"Subash Chowk, Churu - RSPCB",13-12-2025 07:00:00,28.296139,74.961696,OZONE,7,119,25
India,Rajasthan,Bhilwara,"Pratap Nagar, Bhilwara - RSPCB",13-12-2025 07:00:00,25.339605,74.618883,OZONE,1,50,4
India,Rajasthan,Bhiwadi,"RIICO Ind. Area III, Bhiwadi - RSPCB",13-12-2025 07:00:00,28.194909,76.862296,PM2.5,217,432,331
India,Rajasthan,Bhiwadi,"RIICO Ind. Area III, Bhiwadi - RSPCB",13-12-2025 07:00:00,28.194909,76.862296,NO2,23,76,47
India,Rajasthan,Bhiwadi,"RIICO Ind. Area III, Bhiwadi - RSPCB",13-12-2025 07:00:00,28.194909,76.862296,CO,23,111,104
India,Rajasthan,Baran,"Bamboliya, Baran - RSPCB",13-12-2025 07:00:00,25.106006,76.469948,NH3,8,15,12
India,Rajasthan,Barmer,"Railway Colony, Barmer - RSPCB",13-12-2025 07:00:00,25.747299,71.393989,NO2,7,100,35
India,Rajasthan,Barmer,"Railway Colony, Barmer - RSPCB",13-12-2025 07:00:00,25.747299,71.393989,NH3,4,8,5
India,Rajasthan,Barmer,"Railway Colony, Barmer - RSPCB",13-12-2025 07:00:00,25.747299,71.393989,SO2,4,23,8
India,Rajasthan,Ajmer,"Civil Lines,  Ajmer - RSPCB",13-12-2025 07:00:00,26.470859,74.646594,OZONE,3,10,6
India,Rajasthan,Banswara,"Rati Talai, Banswara - RSPCB",13-12-2025 07:00:00,23.555190,74.440010,NH3,NA,NA,NA
India,Rajasthan,Banswara,"Rati Talai, Banswara - RSPCB",13-12-2025 07:00:00,23.555190,74.440010,OZONE,21,147,54
India,Rajasthan,Barmer,"Railway Colony, Barmer - RSPCB",13-12-2025 07:00:00,25.747299,71.393989,OZONE,12,76,45
India,Rajasthan,Bharatpur,"Krishna Nagar, Bharatpur - RSPCB",13-12-2025 07:00:00,27.215415,77.50873,NO2,31,113,65
India,Rajasthan,Ajmer,"Civil Lines,  Ajmer - RSPCB",13-12-2025 07:00:00,26.470859,74.646594,NH3,3,4,4
India,Rajasthan,Rajsamand,"Dhoinda, Rajsamand - RSPCB",13-12-2025 07:00:00,25.036360,73.883502,NO2,12,84,30
India,Rajasthan,Sawai Madhopur,"Sahu Nagar, Sawai Madhopur - RSPCB",13-12-2025 07:00:00,26.031443,76.359327,SO2,1,13,4
India,Rajasthan,Sikar,"Radhakishan Pura, Sikar - RSPCB",13-12-2025 07:00:00,27.608912,75.153302,NH3,9,23,15
India,Rajasthan,Sikar,"Radhakishan Pura, Sikar - RSPCB",13-12-2025 07:00:00,27.608912,75.153302,SO2,3,8,5
India,Rajasthan,Sirohi,"Vedhaynath Colony, Sirohi - RSPCB",13-12-2025 07:00:00,24.885261,72.857549,PM2.5,20,302,66
India,Rajasthan,Sirohi,"Vedhaynath Colony, Sirohi - RSPCB",13-12-2025 07:00:00,24.885261,72.857549,PM10,49,228,94
India,Rajasthan,Sirohi,"Vedhaynath Colony, Sirohi - RSPCB",13-12-2025 07:00:00,24.885261,72.857549,SO2,4,8,6
India,Rajasthan,Sirohi,"Vedhaynath Colony, Sirohi - RSPCB",13-12-2025 07:00:00,24.885261,72.857549,OZONE,4,94,29
India,Rajasthan,Sri Ganganagar,"Old City, Sri Ganganagar - RSPCB",13-12-2025 07:00:00,29.931624,73.864511,PM2.5,43,117,75
India,Rajasthan,Sri Ganganagar,"Old City, Sri Ganganagar - RSPCB",13-12-2025 07:00:00,29.931624,73.864511,NO2,55,156,94
India,Rajasthan,Dausa,"Khatikan Mohalla, Dausa - RSPCB",13-12-2025 07:00:00,26.895552,76.334753,OZONE,4,84,19
India,Rajasthan,Dholpur,"Raja Ganj, Dholpur - RSPCB",13-12-2025 07:00:00,26.699557,77.898881,PM10,36,197,94
India,Rajasthan,Dholpur,"Raja Ganj, Dholpur - RSPCB",13-12-2025 07:00:00,26.699557,77.898881,OZONE,9,38,32
India,Rajasthan,Dungarpur,"Bhoiwada, Dungarpur - RSPCB",13-12-2025 07:00:00,23.837789,73.714926,PM2.5,37,305,107
India,Rajasthan,Jaipur,"Adarsh Nagar, Jaipur - RSPCB",13-12-2025 07:00:00,26.902909,75.836858,PM2.5,62,315,177
India,Rajasthan,Jaipur,"Adarsh Nagar, Jaipur - RSPCB",13-12-2025 07:00:00,26.902909,75.836858,NO2,33,105,74
India,Rajasthan,Jaipur,"Adarsh Nagar, Jaipur - RSPCB",13-12-2025 07:00:00,26.902909,75.836858,NH3,20,58,40
India,Rajasthan,Jhalawar,"Rajlaxmi Nagar, Jhalawar - RSPCB",13-12-2025 07:00:00,24.588397,76.172782,OZONE,2,134,2
India,Rajasthan,Jhunjhunu,"Indra Nagar, Jhunjhunu - RSPCB",13-12-2025 07:00:00,28.108988,75.386577,CO,19,121,36
India,Rajasthan,Jodhpur,"Collectorate, Jodhpur - RSPCB",13-12-2025 07:00:00,26.268249,73.0193853,PM10,81,443,205
India,Rajasthan,Jodhpur,"Digari Kalan, Jodhpur - RSPCB",13-12-2025 07:00:00,26.295810,73.082283,PM2.5,32,302,94
India,Rajasthan,Jodhpur,"Digari Kalan, Jodhpur - RSPCB",13-12-2025 07:00:00,26.295810,73.082283,CO,28,138,85
India,Rajasthan,Jodhpur,"Mandor, Jodhpur - RSPCB",13-12-2025 07:00:00,26.358805,73.047444,NO2,24,108,54
India,Rajasthan,Jodhpur,"Samrat Ashok Udhyan, Jodhpur - RSPCB",13-12-2025 07:00:00,26.253384,72.976571,NH3,1,7,4
India,Rajasthan,Jodhpur,"Samrat Ashok Udhyan, Jodhpur - RSPCB",13-12-2025 07:00:00,26.253384,72.976571,CO,32,130,115
India,Rajasthan,Karauli,"Satyawati Vihar, Karauli - RSPCB",13-12-2025 07:00:00,26.506177,77.025989,SO2,4,11,8
India,Rajasthan,Karauli,"Satyawati Vihar, Karauli - RSPCB",13-12-2025 07:00:00,26.506177,77.025989,CO,26,121,54
India,Rajasthan,Karauli,"Satyawati Vihar, Karauli - RSPCB",13-12-2025 07:00:00,26.506177,77.025989,OZONE,11,96,22
India,Rajasthan,Kota,"Dhanmandi, Kota - RSPCB",13-12-2025 07:00:00,25.164090,75.858137,CO,5,139,66
India,Rajasthan,Kota,"Nayapura, Kota - RSPCB",13-12-2025 07:00:00,25.196024,75.855668,CO,18,133,68
India,Rajasthan,Jaipur,"Sector-2 Murlipura, Jaipur - RSPCB",13-12-2025 07:00:00,26.960669,75.771817,NH3,2,15,7
India,Rajasthan,Jaipur,"Shastri Nagar, Jaipur - RSPCB",13-12-2025 07:00:00,26.9502929,75.730943,PM2.5,55,345,180
India,Rajasthan,Jaipur,"Shastri Nagar, Jaipur - RSPCB",13-12-2025 07:00:00,26.9502929,75.730943,NO2,55,125,95
India,Rajasthan,Jaipur,"Shastri Nagar, Jaipur - RSPCB",13-12-2025 07:00:00,26.9502929,75.730943,SO2,1,77,35
India,Rajasthan,Jalore,"Mudtra Sili, Jalore - RSPCB",13-12-2025 07:00:00,25.344694,72.626208,PM2.5,22,362,148
India,Rajasthan,Jalore,"Mudtra Sili, Jalore - RSPCB",13-12-2025 07:00:00,25.344694,72.626208,PM10,65,500,192
India,Rajasthan,Kota,"Shrinath Puram, Kota - RSPCB",13-12-2025 07:00:00,25.14389,75.821256,CO,28,113,60
India,Rajasthan,Nagaur,"Karni Colony, Nagaur - RSPCB",13-12-2025 07:00:00,27.213494,73.734444,PM10,86,446,193
India,Rajasthan,Nagaur,"Karni Colony, Nagaur - RSPCB",13-12-2025 07:00:00,27.213494,73.734444,NH3,12,24,18
India,Rajasthan,Pali,"Indira Colony Vistar, Pali - RSPCB",13-12-2025 07:00:00,25.771061, 73.340227,CO,15,81,50
India,Rajasthan,Pali,"Indira Colony Vistar, Pali - RSPCB",13-12-2025 07:00:00,25.771061, 73.340227,OZONE,4,69,10
India,Rajasthan,Sri Ganganagar,"Old City, Sri Ganganagar - RSPCB",13-12-2025 07:00:00,29.931624,73.864511,OZONE,1,106,6
India,Rajasthan,Tonk,"Shastri Nagar, Tonk - RSPCB",13-12-2025 07:00:00,26.159933,75.780517,NO2,13,110,46
India,TamilNadu,Ariyalur,"Keelapalur, Ariyalur - TNPCB",13-12-2025 07:00:00,11.06825,79.07033,PM2.5,65,112,78
India,TamilNadu,Chennai,"Kodungaiyur, Chennai - TNPCB",13-12-2025 07:00:00,13.1278,80.2642,NO2,1,4,1
India,Rajasthan,Jaipur,"Mansarovar Sector-12, Jaipur - RSPCB",13-12-2025 07:00:00,26.843698,75.766894,PM10,96,418,263
India,Rajasthan,Jaipur,"RIICO Sitapura, Jaipur - RSPCB",13-12-2025 07:00:00,26.786682,75.827928,PM2.5,35,388,202
India,Rajasthan,Jaipur,"RIICO Sitapura, Jaipur - RSPCB",13-12-2025 07:00:00,26.786682,75.827928,NO2,32,185,93
India,Rajasthan,Jaipur,"RIICO Sitapura, Jaipur - RSPCB",13-12-2025 07:00:00,26.786682,75.827928,CO,15,129,68
India,TamilNadu,Chennai,"Manali Village, Chennai - TNPCB",13-12-2025 07:00:00,13.1662,80.2584,PM10,45,132,107
India,TamilNadu,Chennai,"Perungudi, Chennai - TNPCB",13-12-2025 07:00:00,12.9533,80.2357,CO,40,68,53
India,TamilNadu,Chennai,"Perungudi, Chennai - TNPCB",13-12-2025 07:00:00,12.9533,80.2357,OZONE,6,39,9
India,TamilNadu,Thanjavur,"Parisutham Nagar, Thanjavur - TNPCB",13-12-2025 07:00:00,10.7654824,79.1389968,NO2,3,3,3
India,TamilNadu,Thoothukudi,"Meelavittan, Thoothukudi - TNPCB",13-12-2025 07:00:00,8.816428 ,78.099039,SO2,5,17,8
India,TamilNadu,Thoothukudi,"Meelavittan, Thoothukudi - TNPCB",13-12-2025 07:00:00,8.816428 ,78.099039,CO,42,62,50
India,TamilNadu,Tirunelveli,"Municipal Corporation Office, Tirunelveli - TNPCB",13-12-2025 07:00:00,8.728442,77.6962,CO,18,24,20
India,TamilNadu,Tirunelveli,"Municipal Corporation Office, Tirunelveli - TNPCB",13-12-2025 07:00:00,8.728442,77.6962,OZONE,6,7,6
India,TamilNadu,Tirupur,"Kumaran College, Tirupur - TNPCB",13-12-2025 07:00:00,11.0973603,77.3228673,PM10,66,279,132
India,TamilNadu,Tirupur,"Kumaran College, Tirupur - TNPCB",13-12-2025 07:00:00,11.0973603,77.3228673,NO2,10,32,15
India,Telangana,Hyderabad,"Bollaram Industrial Area, Hyderabad - TSPCB",13-12-2025 07:00:00,17.540891,78.358528,NO2,22,62,43
India,TamilNadu,Nagapattinam,"Velippalayam, Nagapattinam - TNPCB",13-12-2025 07:00:00,10.798548,79.838212,OZONE,1,1,1
India,TamilNadu,Ooty,"Bombay Castel, Ooty - TNPCB",13-12-2025 07:00:00,11.4068288,76.7138973,NO2,NA,NA,NA
India,TamilNadu,Ooty,"Bombay Castel, Ooty - TNPCB",13-12-2025 07:00:00,11.4068288,76.7138973,OZONE,5,7,6
India,TamilNadu,Perundurai,"SIPCOT Industrial Park, Perundurai - TNPCB",13-12-2025 07:00:00,11.258242,77.552761,CO,23,47,39
India,TamilNadu,Pudukottai,"SIPCOT Nathampannai, Pudukottai - TNPCB",13-12-2025 07:00:00,10.423417,78.784889,PM10,87,153,104
India,TamilNadu,Ramanathapuram,"Chalai Bazaar, Ramanathapuram - TNPCB",13-12-2025 07:00:00,9.36399,78.831977,PM10,35,108,81
India,TamilNadu,Ramanathapuram,"Chalai Bazaar, Ramanathapuram - TNPCB",13-12-2025 07:00:00,9.36399,78.831977,NO2,1,3,2
India,TamilNadu,Ramanathapuram,"Chalai Bazaar, Ramanathapuram - TNPCB",13-12-2025 07:00:00,9.36399,78.831977,SO2,4,5,5
India,Telangana,Hyderabad,"ECIL Kapra, Hyderabad - TSPCB",13-12-2025 07:00:00,17.470431,78.566959,NH3,1,6,4
India,Telangana,Hyderabad,"ECIL Kapra, Hyderabad - TSPCB",13-12-2025 07:00:00,17.470431,78.566959,OZONE,11,49,14
India,Telangana,Hyderabad,"ICRISAT Patancheru, Hyderabad - TSPCB",13-12-2025 07:00:00,17.518400,78.278777,NO2,2,36,19
India,Telangana,Hyderabad,"IITH Kandi, Hyderabad - TSPCB",13-12-2025 07:00:00,17.585705,78.126199,PM10,62,89,80
India,Telangana,Hyderabad,"IITH Kandi, Hyderabad - TSPCB",13-12-2025 07:00:00,17.585705,78.126199,OZONE,18,26,19
India,Telangana,Hyderabad,"Kokapet, Hyderabad - TSPCB",13-12-2025 07:00:00,17.393559,78.339194,PM2.5,47,72,55
India,Telangana,Hyderabad,"Kokapet, Hyderabad - TSPCB",13-12-2025 07:00:00,17.393559,78.339194,CO,23,37,24
India,Telangana,Hyderabad,"Kompally Municipal Office, Hyderabad - TSPCB",13-12-2025 07:00:00,17.544899,78.486949,NH3,3,3,3
India,Telangana,Hyderabad,"Nacharam_TSIIC IALA, Hyderabad - TSPCB",13-12-2025 07:00:00,17.429398,78.569354,PM10,NA,NA,NA
India,Telangana,Hyderabad,"New Malakpet, Hyderabad - TSPCB",13-12-2025 07:00:00,17.37206,78.50864,CO,26,44,27
India,Telangana,Hyderabad,"Sanathnagar, Hyderabad - TSPCB",13-12-2025 07:00:00,17.4559458,78.4332152,PM2.5,17,153,73
India,Telangana,Hyderabad,"Sanathnagar, Hyderabad - TSPCB",13-12-2025 07:00:00,17.4559458,78.4332152,CO,30,65,64
India,Telangana,Hyderabad,"Somajiguda, Hyderabad - TSPCB",13-12-2025 07:00:00,17.417094,78.457437,PM10,38,168,116
India,Telangana,Hyderabad,"Somajiguda, Hyderabad - TSPCB",13-12-2025 07:00:00,17.417094,78.457437,NO2,16,19,16
India,TamilNadu,Chennai,"Velachery Res. Area, Chennai - CPCB",13-12-2025 07:00:00,13.0052189,80.2398125,SO2,15,20,17
India,TamilNadu,Coimbatore,"SIDCO Kurichi, Coimbatore - TNPCB",13-12-2025 07:00:00,10.942451,76.978996,PM2.5,53,228,115
India,TamilNadu,Coimbatore,"SIDCO Kurichi, Coimbatore - TNPCB",13-12-2025 07:00:00,10.942451,76.978996,PM10,57,144,95
India,TamilNadu,Coimbatore,"SIDCO Kurichi, Coimbatore - TNPCB",13-12-2025 07:00:00,10.942451,76.978996,NH3,1,3,2
India,TamilNadu,Coimbatore,"SIDCO Kurichi, Coimbatore - TNPCB",13-12-2025 07:00:00,10.942451,76.978996,SO2,23,24,23
India,TamilNadu,Coimbatore,"SIDCO Kurichi, Coimbatore - TNPCB",13-12-2025 07:00:00,10.942451,76.978996,CO,15,64,36
India,TamilNadu,Cuddalore,"Kudikadu, Cuddalore - TNPCB",13-12-2025 07:00:00,11.6829898,79.7532099,PM2.5,57,129,80
India,TamilNadu,Cuddalore,"Semmandalam, Cuddalore - TNPCB",13-12-2025 07:00:00,11.7637683,79.7499835,NH3,1,3,2
India,TamilNadu,Dindigul,"Mendonsa Colony, Dindigul - TNPCB",13-12-2025 07:00:00,10.358535,77.984321,NO2,4,24,14
India,TamilNadu,Dindigul,"Mendonsa Colony, Dindigul - TNPCB",13-12-2025 07:00:00,10.358535,77.984321,NH3,1,2,1
India,Telangana,Hyderabad,"Zoo Park, Hyderabad - TSPCB",13-12-2025 07:00:00,17.349694,78.451437,NH3,3,4,3
India,Telangana,Hyderabad,"Zoo Park, Hyderabad - TSPCB",13-12-2025 07:00:00,17.349694,78.451437,CO,2,77,8
India,Tripura,Agartala,"Bardowali, Agartala - Tripura SPCB",13-12-2025 07:00:00,23.8175497,91.2726974,NO2,13,13,13
India,Tripura,Agartala,"Bardowali, Agartala - Tripura SPCB",13-12-2025 07:00:00,23.8175497,91.2726974,CO,28,37,31
India,TamilNadu,Karur,"Kamadenu Nagar, Karur - TNPCB",13-12-2025 07:00:00,10.967820,78.080882,NO2,5,6,5
India,TamilNadu,Karur,"Kamadenu Nagar, Karur - TNPCB",13-12-2025 07:00:00,10.967820,78.080882,SO2,14,17,15
India,TamilNadu,Madurai,"Uchapatti, Madurai - TNPCB",13-12-2025 07:00:00,9.865935,78.022669,PM10,63,129,96
India,Telangana,Hyderabad,"Central University, Hyderabad - TSPCB",13-12-2025 07:00:00,17.460103,78.334361,CO,12,71,50
India,Telangana,Hyderabad,"Central University, Hyderabad - TSPCB",13-12-2025 07:00:00,17.460103,78.334361,OZONE,5,24,9
India,Uttar_Pradesh,Lucknow,"B R Ambedkar University, Lucknow - UPPCB",13-12-2025 07:00:00,26.766433,80.927299,PM2.5,92,310,207
India,Uttar_Pradesh,Lucknow,"B R Ambedkar University, Lucknow - UPPCB",13-12-2025 07:00:00,26.766433,80.927299,PM10,106,181,143
India,Uttar_Pradesh,Lucknow,"B R Ambedkar University, Lucknow - UPPCB",13-12-2025 07:00:00,26.766433,80.927299,CO,40,60,57
India,Uttar_Pradesh,Lucknow,"Gomti Nagar, Lucknow - UPPCB",13-12-2025 07:00:00,26.868120,81.005119,NO2,6,8,7
India,Uttar_Pradesh,Lucknow,"Gomti Nagar, Lucknow - UPPCB",13-12-2025 07:00:00,26.868120,81.005119,SO2,9,14,11
India,Uttar_Pradesh,Lucknow,"Kendriya Vidyalaya, Lucknow - CPCB",13-12-2025 07:00:00,26.906111,80.948222,NO2,38,50,47
India,Uttar_Pradesh,Lucknow,"Kukrail Picnic Spot-1, Lucknow - UPPCB",13-12-2025 07:00:00,26.90723,80.98579,NO2,32,32,32
India,Uttar_Pradesh,Lucknow,"Kukrail Picnic Spot-1, Lucknow - UPPCB",13-12-2025 07:00:00,26.90723,80.98579,SO2,37,57,44
India,Uttar_Pradesh,Lucknow,"Kukrail Picnic Spot-1, Lucknow - UPPCB",13-12-2025 07:00:00,26.90723,80.98579,OZONE,7,40,8
India,Uttar_Pradesh,Lucknow,"Lalbagh, Lucknow - CPCB",13-12-2025 07:00:00,26.8458805,80.9365541,NH3,14,23,18
India,Uttar_Pradesh,Ghaziabad,"Sanjay Nagar, Ghaziabad - UPPCB",13-12-2025 07:00:00,28.685382,77.453839,OZONE,9,78,10
India,Uttar_Pradesh,Ghaziabad,"Vasundhara, Ghaziabad - UPPCB",13-12-2025 07:00:00,28.6603346,77.3572563,PM2.5,NA,NA,NA
India,Uttar_Pradesh,Ghaziabad,"Vasundhara, Ghaziabad - UPPCB",13-12-2025 07:00:00,28.6603346,77.3572563,PM10,NA,NA,NA
India,Uttar_Pradesh,Ghaziabad,"Vasundhara, Ghaziabad - UPPCB",13-12-2025 07:00:00,28.6603346,77.3572563,CO,NA,NA,NA
India,Uttar_Pradesh,Gorakhpur,"Madan Mohan Malaviya University of Technology, Gorakhpur - UPPCB",13-12-2025 07:00:00,26.730136,83.433859,CO,6,12,8
India,Uttar_Pradesh,Greater Noida,"Knowledge Park - III, Greater Noida - UPPCB",13-12-2025 07:00:00,28.47272,77.482000,PM2.5,302,466,385
India,Uttar_Pradesh,Greater Noida,"Knowledge Park - III, Greater Noida - UPPCB",13-12-2025 07:00:00,28.47272,77.482000,PM10,196,468,373
India,Uttar_Pradesh,Greater Noida,"Knowledge Park - V, Greater Noida - UPPCB",13-12-2025 07:00:00,28.557054,77.453663,PM2.5,338,500,455
India,Uttar_Pradesh,Lucknow,"Lalbagh, Lucknow - CPCB",13-12-2025 07:00:00,26.8458805,80.9365541,CO,5,125,32
India,Uttar_Pradesh,Meerut,"Ganga Nagar, Meerut - UPPCB",13-12-2025 07:00:00,28.999264,77.7590354,PM10,196,484,376
India,Uttar_Pradesh,Meerut,"Ganga Nagar, Meerut - UPPCB",13-12-2025 07:00:00,28.999264,77.7590354,NO2,41,115,76
India,Uttar_Pradesh,Meerut,"Ganga Nagar, Meerut - UPPCB",13-12-2025 07:00:00,28.999264,77.7590354,NH3,4,10,7
India,Uttar_Pradesh,Meerut,"Jai Bhim Nagar, Meerut - UPPCB",13-12-2025 07:00:00,28.9535882,77.7622941,PM2.5,303,500,400
India,Uttar_Pradesh,Meerut,"Jai Bhim Nagar, Meerut - UPPCB",13-12-2025 07:00:00,28.9535882,77.7622941,SO2,4,14,7
India,Uttar_Pradesh,Kanpur,"NSI Kalyanpur, Kanpur - UPPCB",13-12-2025 07:00:00,26.509954,80.249612,SO2,19,31,20
India,Uttar_Pradesh,Kanpur,"Nehru Nagar, Kanpur - UPPCB",13-12-2025 07:00:00,26.4703136,80.3229863,PM2.5,62,305,161
India,Uttar_Pradesh,Kanpur,"Nehru Nagar, Kanpur - UPPCB",13-12-2025 07:00:00,26.4703136,80.3229863,NO2,13,42,24
India,Uttar_Pradesh,Khurja,"Kalindi Kunj, Khurja - UPPCB",13-12-2025 07:00:00,28.2348927,77.8683002,NO2,6,7,7
India,Uttar_Pradesh,Khurja,"Kalindi Kunj, Khurja - UPPCB",13-12-2025 07:00:00,28.2348927,77.8683002,NH3,1,1,1
India,Uttar_Pradesh,Agra,"Sanjay Palace, Agra - UPPCB",13-12-2025 07:00:00,27.19865833,78.00598056,SO2,16,17,16
India,Uttar_Pradesh,Agra,"Sector-3B Avas Vikas Colony, Agra - UPPCB",13-12-2025 07:00:00,27.19412,77.96237,NH3,7,10,8
India,Uttar_Pradesh,Agra,"Shahjahan Garden, Agra - UPPCB",13-12-2025 07:00:00,27.169338,78.03582,PM10,123,423,202
India,Uttar_Pradesh,Agra,"Shahjahan Garden, Agra - UPPCB",13-12-2025 07:00:00,27.169338,78.03582,OZONE,2,8,3
India,Uttar_Pradesh,Hapur,"Anand Vihar, Hapur - UPPCB",13-12-2025 07:00:00,28.725645,77.749675,PM2.5,237,394,332
India,Uttar_Pradesh,Jhansi,"Shivaji Nagar, Jhansi - UPPCB",13-12-2025 07:00:00,25.4547,78.6039,NH3,4,4,4
India,Uttar_Pradesh,Kanpur,"FTI Kidwai Nagar, Kanpur - UPPCB",13-12-2025 07:00:00,26.428282,80.327067,PM10,73,178,132
India,Uttar_Pradesh,Kanpur,"FTI Kidwai Nagar, Kanpur - UPPCB",13-12-2025 07:00:00,26.428282,80.327067,NH3,2,2,2
India,Uttar_Pradesh,Kanpur,"FTI Kidwai Nagar, Kanpur - UPPCB",13-12-2025 07:00:00,26.428282,80.327067,OZONE,13,14,14
India,Uttar_Pradesh,Bulandshahr,"Yamunapuram, Bulandshahr - UPPCB",13-12-2025 07:00:00,28.406963,77.849831,SO2,1,38,22
India,Uttar_Pradesh,Firozabad,"Nagla Bhau, Firozabad - UPPCB",13-12-2025 07:00:00,27.168897,78.376960,SO2,8,15,12
India,Uttar_Pradesh,Bulandshahr,"Yamunapuram, Bulandshahr - UPPCB",13-12-2025 07:00:00,28.406963,77.849831,NO2,28,202,99
India,Uttar_Pradesh,Muzaffarnagar,"New Mandi, Muzaffarnagar - UPPCB",13-12-2025 07:00:00,29.4723508,77.7194031,NH3,18,35,26
India,Uttar_Pradesh,Noida,"Sector - 125, Noida - UPPCB",13-12-2025 07:00:00,28.5447608,77.3231257,PM10,160,500,397
India,Uttar_Pradesh,Noida,"Sector - 125, Noida - UPPCB",13-12-2025 07:00:00,28.5447608,77.3231257,NH3,2,4,3
India,Uttar_Pradesh,Noida,"Sector - 62, Noida - IMD",13-12-2025 07:00:00,28.6245479,77.3577104,CO,63,114,110
India,Uttar_Pradesh,Noida,"Sector-1, Noida - UPPCB",13-12-2025 07:00:00,28.5898,77.3101,PM2.5,341,500,429
India,Uttar_Pradesh,Noida,"Sector-1, Noida - UPPCB",13-12-2025 07:00:00,28.5898,77.3101,SO2,6,40,18
India,Uttar_Pradesh,Noida,"Sector-116, Noida - UPPCB",13-12-2025 07:00:00,28.569230,77.393848,NO2,85,225,165
India,Uttar_Pradesh,Noida,"Sector-116, Noida - UPPCB",13-12-2025 07:00:00,28.569230,77.393848,CO,6,187,91
India,West_Bengal,Barrackpore,"SVSPA Campus, Barrackpore - WBPCB",13-12-2025 07:00:00,22.7605581,88.3617589,CO,67,102,96
India,West_Bengal,Durgapur,"Mahishkapur Road_B-Zone, Durgapur - WBPCB",13-12-2025 07:00:00,23.567923,87.306843,PM2.5,119,315,217
India,West_Bengal,Durgapur,"Mahishkapur Road_B-Zone, Durgapur - WBPCB",13-12-2025 07:00:00,23.567923,87.306843,NO2,21,87,49
India,West_Bengal,Durgapur,"Mahishkapur Road_B-Zone, Durgapur - WBPCB",13-12-2025 07:00:00,23.567923,87.306843,NH3,2,2,2
India,West_Bengal,Durgapur,"PCBL Residential Complex, Durgapur - WBPCB",13-12-2025 07:00:00,23.5087640,87.3544400,PM10,96,196,145
India,West_Bengal,Haldia,"Priyambada Housing Estate, Haldia - WBPCB",13-12-2025 07:00:00,22.06047,88.109737,PM2.5,241,325,300
India,West_Bengal,Haldia,"Priyambada Housing Estate, Haldia - WBPCB",13-12-2025 07:00:00,22.06047,88.109737,PM10,133,228,171
India,Uttarakhand,Dehradun,"Doon University, Dehradun - UKPCB",13-12-2025 07:00:00,30.269444,78.044167,PM2.5,41,244,118
India,Uttarakhand,Dehradun,"Doon University, Dehradun - UKPCB",13-12-2025 07:00:00,30.269444,78.044167,NO2,1,8,3
India,Uttarakhand,Kashipur,"Govt. Girls Inter College, Kashipur - UKPCB",13-12-2025 07:00:00,29.2124114,78.9611753,PM2.5,NA,NA,NA
India,Uttarakhand,Kashipur,"Govt. Girls Inter College, Kashipur - UKPCB",13-12-2025 07:00:00,29.2124114,78.9611753,SO2,2,10,8
India,Uttarakhand,Rishikesh,"Shivaji Nagar, Rishikesh - UKPCB",13-12-2025 07:00:00,30.075911,78.2859547,SO2,2,3,3
India,West_Bengal,Asansol,"Asansol Court Area, Asansol - WBPCB",13-12-2025 07:00:00,23.685297,86.945968,NO2,15,28,22
India,West_Bengal,Asansol,"Asansol Court Area, Asansol - WBPCB",13-12-2025 07:00:00,23.685297,86.945968,NH3,3,9,5
India,Uttar_Pradesh,Moradabad,"Employment Office, Moradabad - UPPCB",13-12-2025 07:00:00,28.88528,78.73880,NO2,16,16,16
India,Uttar_Pradesh,Moradabad,"Jigar Colony, Moradabad - UPPCB",13-12-2025 07:00:00,28.856664,78.772638,PM2.5,NA,NA,NA
India,Uttar_Pradesh,Moradabad,"Jigar Colony, Moradabad - UPPCB",13-12-2025 07:00:00,28.856664,78.772638,NO2,21,25,25
India,Uttar_Pradesh,Moradabad,"Jigar Colony, Moradabad - UPPCB",13-12-2025 07:00:00,28.856664,78.772638,SO2,19,63,45
India,Uttar_Pradesh,Moradabad,"Kashiram Nagar, Moradabad - UPPCB",13-12-2025 07:00:00,28.849399,78.742362,PM10,101,227,165
India,Uttar_Pradesh,Moradabad,"Kashiram Nagar, Moradabad - UPPCB",13-12-2025 07:00:00,28.849399,78.742362,NO2,25,25,25
India,Uttar_Pradesh,Moradabad,"Transport Nagar, Moradabad - UPPCB",13-12-2025 07:00:00,28.802625,78.753728,SO2,31,43,36
India,Uttar_Pradesh,Moradabad,"Transport Nagar, Moradabad - UPPCB",13-12-2025 07:00:00,28.802625,78.753728,CO,55,90,81
India,Uttar_Pradesh,Varanasi,"Bhelupur, Varanasi - UPPCB",13-12-2025 07:00:00,25.301778,82.996789,NH3,1,1,1
India,Uttar_Pradesh,Varanasi,"Bhelupur, Varanasi - UPPCB",13-12-2025 07:00:00,25.301778,82.996789,SO2,27,32,29
India,Uttar_Pradesh,Varanasi,"Bhelupur, Varanasi - UPPCB",13-12-2025 07:00:00,25.301778,82.996789,CO,24,110,85
India,Uttar_Pradesh,Varanasi,"Maldahiya, Varanasi - UPPCB",13-12-2025 07:00:00,25.32393,82.99687,PM2.5,82,312,204
India,Uttar_Pradesh,Varanasi,"Maldahiya, Varanasi - UPPCB",13-12-2025 07:00:00,25.32393,82.99687,CO,30,85,76
India,Uttar_Pradesh,Varanasi,"Maldahiya, Varanasi - UPPCB",13-12-2025 07:00:00,25.32393,82.99687,OZONE,1,6,2
India,Uttar_Pradesh,Vrindavan,"Omex Eternity, Vrindavan - UPPCB",13-12-2025 07:00:00,27.5714090,77.6557570,PM2.5,46,305,128
India,Uttar_Pradesh,Vrindavan,"Omex Eternity, Vrindavan - UPPCB",13-12-2025 07:00:00,27.5714090,77.6557570,OZONE,15,15,15
India,Uttar_Pradesh,Meerut,"Jai Bhim Nagar, Meerut - UPPCB",13-12-2025 07:00:00,28.9535882,77.7622941,CO,41,125,95
India,Uttar_Pradesh,Meerut,"Jai Bhim Nagar, Meerut - UPPCB",13-12-2025 07:00:00,28.9535882,77.7622941,OZONE,2,153,9
India,Uttar_Pradesh,Meerut,"Pallavpuram Phase 2, Meerut - UPPCB",13-12-2025 07:00:00,29.063510,77.709723,SO2,5,24,11
India,Uttar_Pradesh,Moradabad,"Buddhi Vihar, Moradabad - UPPCB",13-12-2025 07:00:00,28.83526,78.74460,NH3,5,5,5
India,Uttar_Pradesh,Moradabad,"Eco Herbal Park, Moradabad - UPPCB",13-12-2025 07:00:00,28.840739,78.697531,SO2,6,21,13
India,Uttar_Pradesh,Noida,"Sector-116, Noida - UPPCB",13-12-2025 07:00:00,28.569230,77.393848,OZONE,7,293,8
India,Uttar_Pradesh,Prayagraj,"Jhunsi, Prayagraj - UPPCB",13-12-2025 07:00:00,25.425602,81.917152,CO,30,96,82
India,Uttar_Pradesh,Prayagraj,"Nagar Nigam, Prayagraj - UPPCB",13-12-2025 07:00:00,25.44919916 ,81.82735986 ,PM2.5,NA,NA,NA
India,Uttar_Pradesh,Prayagraj,"Nagar Nigam, Prayagraj - UPPCB",13-12-2025 07:00:00,25.44919916 ,81.82735986 ,PM10,NA,NA,NA
India,Uttar_Pradesh,Prayagraj,"Nagar Nigam, Prayagraj - UPPCB",13-12-2025 07:00:00,25.44919916 ,81.82735986 ,SO2,41,66,54
India,Uttar_Pradesh,Prayagraj,"Nagar Nigam, Prayagraj - UPPCB",13-12-2025 07:00:00,25.44919916 ,81.82735986 ,OZONE,10,46,18
India,West_Bengal,Asansol,"Trivenidevi Bhalotia College, Asansol - WBPCB",13-12-2025 07:00:00,23.616515,87.119133,PM2.5,142,337,280
India,West_Bengal,Barrackpore,"SVSPA Campus, Barrackpore - WBPCB",13-12-2025 07:00:00,22.7605581,88.3617589,NH3,9,12,11
India,West_Bengal,Asansol,"Evelyn Lodge, Asansol - WBPCB",13-12-2025 07:00:00,23.6979360,86.9443950,PM10,119,210,164
India,West_Bengal,Howrah,"Belur Math, Howrah - WBPCB",13-12-2025 07:00:00,22.629801,88.352017,PM2.5,252,400,345
India,West_Bengal,Howrah,"Belur Math, Howrah - WBPCB",13-12-2025 07:00:00,22.629801,88.352017,PM10,142,348,237
India,West_Bengal,Howrah,"Belur Math, Howrah - WBPCB",13-12-2025 07:00:00,22.629801,88.352017,CO,20,108,51
India,West_Bengal,Howrah,"Ghusuri, Howrah - WBPCB",13-12-2025 07:00:00,22.611968,88.347422,NO2,21,37,27
India,West_Bengal,Howrah,"Ghusuri, Howrah - WBPCB",13-12-2025 07:00:00,22.611968,88.347422,CO,13,114,82
India,West_Bengal,Howrah,"Padmapukur, Howrah - WBPCB",13-12-2025 07:00:00,22.5687319,88.2797276,NH3,2,2,2
India,West_Bengal,Kolkata,"Ballygunge, Kolkata - WBPCB",13-12-2025 07:00:00,22.5367507,88.3638022,CO,18,121,94
India,West_Bengal,Kolkata,"Bidhannagar, Kolkata - WBPCB",13-12-2025 07:00:00,22.58157048,88.41002457,PM10,80,306,174
India,West_Bengal,Kolkata,"Jadavpur, Kolkata - WBPCB",13-12-2025 07:00:00,22.49929,88.36917,SO2,6,14,10
India,West_Bengal,Kolkata,"Rabindra Bharati University, Kolkata - WBPCB",13-12-2025 07:00:00,22.627847,88.380669,NO2,40,153,102
India,West_Bengal,Kolkata,"Rabindra Sarobar, Kolkata - WBPCB",13-12-2025 07:00:00,22.51106,88.35142,PM2.5,67,287,146
India,West_Bengal,Kolkata,"Rabindra Sarobar, Kolkata - WBPCB",13-12-2025 07:00:00,22.51106,88.35142,PM10,78,164,119
India,West_Bengal,Kolkata,"Victoria, Kolkata - WBPCB",13-12-2025 07:00:00,22.5448082,88.3403691,PM10,139,289,201
India,West_Bengal,Kolkata,"Victoria, Kolkata - WBPCB",13-12-2025 07:00:00,22.5448082,88.3403691,CO,15,105,59
India,Andhra_Pradesh,Vijayawada,"Rajiv Gandhi Park, Vijayawada - APPCB",13-12-2025 07:00:00,16.509717,80.612222,NH3,NA,NA,NA
India,Andhra_Pradesh,Vijayawada,"Rajiv Gandhi Park, Vijayawada - APPCB",13-12-2025 07:00:00,16.509717,80.612222,SO2,NA,NA,NA
India,Andhra_Pradesh,Visakhapatnam,"GVM Corporation, Visakhapatnam - APPCB",13-12-2025 07:00:00,17.72,83.3,PM10,118,405,220
India,Andhra_Pradesh,Visakhapatnam,"GVM Corporation, Visakhapatnam - APPCB",13-12-2025 07:00:00,17.72,83.3,NH3,3,4,3
India,Andhra_Pradesh,Visakhapatnam,"GVM Corporation, Visakhapatnam - APPCB",13-12-2025 07:00:00,17.72,83.3,OZONE,4,96,5
India,Arunachal_Pradesh,Naharlagun,"Naharlagun, Naharlagun - APSPCB",13-12-2025 07:00:00,27.103358,93.679645,OZONE,5,7,5
India,Assam,Byrnihat,"Central Academy for SFS, Byrnihat - PCBA",13-12-2025 07:00:00,26.071318,91.87488,PM10,78,151,103
India,Assam,Byrnihat,"Central Academy for SFS, Byrnihat - PCBA",13-12-2025 07:00:00,26.071318,91.87488,NO2,3,10,7
India,Assam,Byrnihat,"Central Academy for SFS, Byrnihat - PCBA",13-12-2025 07:00:00,26.071318,91.87488,SO2,5,12,7
India,Assam,Byrnihat,"Central Academy for SFS, Byrnihat - PCBA",13-12-2025 07:00:00,26.071318,91.87488,OZONE,15,35,19
India,Andhra_Pradesh,Anantapur,"Gulzarpet, Anantapur - APPCB",13-12-2025 07:00:00,14.675886,77.593027,PM10,31,131,78
India,Andhra_Pradesh,Anantapur,"Gulzarpet, Anantapur - APPCB",13-12-2025 07:00:00,14.675886,77.593027,SO2,11,12,12
India,Andhra_Pradesh,Chittoor,"Gangineni Cheruvu, Chittoor - APPCB",13-12-2025 07:00:00,13.204880,79.097889,NO2,28,34,32
India,Andhra_Pradesh,Chittoor,"Gangineni Cheruvu, Chittoor - APPCB",13-12-2025 07:00:00,13.204880,79.097889,CO,20,50,36
India,Andhra_Pradesh,Kadapa,"Yerramukkapalli, Kadapa - APPCB",13-12-2025 07:00:00,14.465052,78.824187,SO2,10,17,11
India,Andhra_Pradesh,Rajamahendravaram,"Anand Kala Kshetram, Rajamahendravaram - APPCB",13-12-2025 07:00:00,16.9872867,81.7363176,NO2,15,114,47
India,Assam,Silchar,"Tarapur, Silchar - PCBA",13-12-2025 07:00:00,24.82827,92.79525,NH3,1,1,1
India,Assam,Silchar,"Tarapur, Silchar - PCBA",13-12-2025 07:00:00,24.82827,92.79525,OZONE,1,8,1
India,Assam,Sivasagar,"Girls College, Sivasagar - PCBA",13-12-2025 07:00:00,26.987634,94.636574,NO2,28,52,36
India,Assam,Sivasagar,"Girls College, Sivasagar - PCBA",13-12-2025 07:00:00,26.987634,94.636574,NH3,4,19,10
India,Bihar,Araria,"Kharahiya Basti, Araria - BSPCB",13-12-2025 07:00:00,26.146529,87.454184,NO2,1,40,13
India,Bihar,Arrah,"New DM Office, Arrah - BSPCB",13-12-2025 07:00:00,25.5626095,84.663264,OZONE,5,12,7
India,Assam,Guwahati,"LGBI Airport, Guwahati - PCBA",13-12-2025 07:00:00,26.10887,91.589544,NO2,13,18,15
India,Assam,Guwahati,"LGBI Airport, Guwahati - PCBA",13-12-2025 07:00:00,26.10887,91.589544,SO2,1,19,10
India,Assam,Guwahati,"Railway Colony, Guwahati - PCBA",13-12-2025 07:00:00,26.181742,91.78063,PM2.5,32,387,206
India,Assam,Guwahati,"Railway Colony, Guwahati - PCBA",13-12-2025 07:00:00,26.181742,91.78063,CO,26,109,95
India,Assam,Nalbari,"Bata Chowk, Nalbari - PCBA",13-12-2025 07:00:00,26.446912,91.439057,NH3,6,6,6
India,Assam,Nalbari,"Bata Chowk, Nalbari - PCBA",13-12-2025 07:00:00,26.446912,91.439057,OZONE,13,16,15
India,Andhra_Pradesh,Tirupati,"Vaikuntapuram, Tirupati - APPCB",13-12-2025 07:00:00,13.615387,79.409230,OZONE,12,17,16
India,Andhra_Pradesh,Vijayawada,"HB Colony, Vijayawada - APPCB",13-12-2025 07:00:00,16.536107,80.594233,PM10,61,102,78
India,Andhra_Pradesh,Vijayawada,"HB Colony, Vijayawada - APPCB",13-12-2025 07:00:00,16.536107,80.594233,NH3,3,5,3
India,Andhra_Pradesh,Vijayawada,"Kanuru, Vijayawada - APPCB",13-12-2025 07:00:00,16.486692,80.699436,PM10,40,84,50
India,Andhra_Pradesh,Vijayawada,"Kanuru, Vijayawada - APPCB",13-12-2025 07:00:00,16.486692,80.699436,NO2,23,60,33
India,Andhra_Pradesh,Vijayawada,"Kanuru, Vijayawada - APPCB",13-12-2025 07:00:00,16.486692,80.699436,NH3,2,3,3
India,Andaman and Nicobar,Sri Vijaya Puram,"Police Line, Sri Vijaya Puram - ANPCC",13-12-2025 07:00:00,11.654054,92.734055,SO2,1,34,17
India,Andhra_Pradesh,Amaravati,"Secretariat, Amaravati - APPCB",13-12-2025 07:00:00,16.5150833,80.5181667,NH3,1,4,2
India,Andhra_Pradesh,Amaravati,"Secretariat, Amaravati - APPCB",13-12-2025 07:00:00,16.5150833,80.5181667,SO2,1,49,8
India,Bihar,Chhapra,"Darshan Nagar, Chhapra - BSPCB",13-12-2025 07:00:00,25.7808257,84.7446768,NO2,1,4,2
India,Bihar,Gaya,"Collectorate, Gaya - BSPCB",13-12-2025 07:00:00,24.7955,84.9994,CO,26,115,47
India,Bihar,Gaya,"SFTI Kusdihra, Gaya - BSPCB",13-12-2025 07:00:00,24.762518,84.982348,NO2,17,20,19
India,Bihar,Bhagalpur,"DM Office_Kachari Chowk, Bhagalpur - BSPCB",13-12-2025 07:00:00,25.251013,86.989001,SO2,30,49,40
India,Bihar,Bhagalpur,"Mayaganj, Bhagalpur - BSPCB",13-12-2025 07:00:00,25.265194,87.012947,CO,54,102,72
India,Bihar,Bhagalpur,"Mayaganj, Bhagalpur - BSPCB",13-12-2025 07:00:00,25.265194,87.012947,OZONE,9,85,31
India,Bihar,Bihar Sharif,"D M Colony, Bihar Sharif - BSPCB",13-12-2025 07:00:00,25.204762,85.514960,CO,5,114,88
India,Bihar,Buxar,"Charitra Van, Buxar - BSPCB",13-12-2025 07:00:00,25.567520,83.966379,PM2.5,153,322,260
India,Bihar,Gaya,"SFTI Kusdihra, Gaya - BSPCB",13-12-2025 07:00:00,24.762518,84.982348,OZONE,14,49,15
India,Bihar,Patna,"Rajbansi Nagar, Patna - BSPCB",13-12-2025 07:00:00,25.599486,85.113666,SO2,6,9,7
India,Bihar,Patna,"Rajbansi Nagar, Patna - BSPCB",13-12-2025 07:00:00,25.599486,85.113666,CO,52,126,102
India,Bihar,Patna,"Samanpura, Patna - BSPCB",13-12-2025 07:00:00,25.596727,85.085624,PM10,171,236,201
India,Bihar,Patna,"Samanpura, Patna - BSPCB",13-12-2025 07:00:00,25.596727,85.085624,NO2,19,21,21
India,Bihar,Purnia,"Mariam Nagar, Purnia - BSPCB",13-12-2025 07:00:00,25.366336,87.117468,NO2,5,6,6
India,Bihar,Purnia,"Mariam Nagar, Purnia - BSPCB",13-12-2025 07:00:00,25.366336,87.117468,SO2,14,18,16
India,Bihar,Purnia,"Mariam Nagar, Purnia - BSPCB",13-12-2025 07:00:00,25.366336,87.117468,OZONE,19,32,20
India,Bihar,Rajgir,"Dangi Tola, Rajgir - BSPCB",13-12-2025 07:00:00,25.03280,85.41948,PM10,70,219,147
India,Bihar,Rajgir,"Dangi Tola, Rajgir - BSPCB",13-12-2025 07:00:00,25.03280,85.41948,CO,72,101,90
India,Bihar,Saharsa,"Police Line, Saharsa - BSPCB",13-12-2025 07:00:00,25.892357,86.590325,NO2,6,9,7
India,Bihar,Samastipur,"DM Office_Kasipur, Samastipur - BSPCB",13-12-2025 07:00:00,25.859655,85.77944,NH3,1,2,1
India,Bihar,Sasaram,"Dada Peer, Sasaram - BSPCB",13-12-2025 07:00:00,24.952822,84.002396,PM2.5,132,395,287
India,Bihar,Sasaram,"Dada Peer, Sasaram - BSPCB",13-12-2025 07:00:00,24.952822,84.002396,SO2,3,5,4
India,Bihar,Siwan,"Chitragupta Nagar, Siwan - BSPCB",13-12-2025 07:00:00,26.2271665,84.3570427,NO2,1,3,1
India,Bihar,Siwan,"Chitragupta Nagar, Siwan - BSPCB",13-12-2025 07:00:00,26.2271665,84.3570427,CO,12,31,28
India,Chandigarh,Chandigarh,"Sector 22, Chandigarh - CPCC",13-12-2025 07:00:00,30.735567,76.775714,PM10,62,261,156
India,Chhattisgarh,Raipur,"Krishak Nagar, Raipur - CECB",13-12-2025 07:00:00,21.237755,81.705301,NO2,19,27,23
India,Chhattisgarh,Raipur,"Krishak Nagar, Raipur - CECB",13-12-2025 07:00:00,21.237755,81.705301,SO2,6,8,7
India,Chhattisgarh,Raipur,"Krishak Nagar, Raipur - CECB",13-12-2025 07:00:00,21.237755,81.705301,CO,22,52,46
India,Chhattisgarh,Raipur,"Siltara Phase-II, Raipur - CECB",13-12-2025 07:00:00,21.371751,81.664929,NH3,2,3,3
India,Chhattisgarh,Raipur,"Siltara Phase-II, Raipur - CECB",13-12-2025 07:00:00,21.371751,81.664929,CO,34,36,35
India,Chhattisgarh,Tumidih,"OP Jindal Industrial Park, Tumidih - CECB",13-12-2025 07:00:00,22.06631475,83.33820077,PM10,38,146,80
India,Chhattisgarh,Tumidih,"OP Jindal Industrial Park, Tumidih - CECB",13-12-2025 07:00:00,22.06631475,83.33820077,NH3,1,2,2
India,Chandigarh,Chandigarh,"Sector-25, Chandigarh - CPCC",13-12-2025 07:00:00,30.751462,76.762879,NO2,19,67,40
India,Chandigarh,Chandigarh,"Sector-25, Chandigarh - CPCC",13-12-2025 07:00:00,30.751462,76.762879,CO,56,111,84
India,Chandigarh,Chandigarh,"Sector-25, Chandigarh - CPCC",13-12-2025 07:00:00,30.751462,76.762879,OZONE,1,57,1
India,Chandigarh,Chandigarh,"Sector-53, Chandigarh - CPCC",13-12-2025 07:00:00,30.719859,76.738637,OZONE,2,83,3
India,Chhattisgarh,Bhilai,"32Bungalows, Bhilai - CECB",13-12-2025 07:00:00,21.194815,81.314770,NO2,32,114,68
India,Chhattisgarh,Bhilai,"Civic Center, Bhilai - Bhilai Steel Plant",13-12-2025 07:00:00,21.185571,81.343175,NH3,6,6,6
India,Chhattisgarh,Kunjemura,"OP Jindal School, Kunjemura - CECB",13-12-2025 07:00:00,22.126650,83.483212,CO,18,42,35
India,Chhattisgarh,Milupara,"Govt. Higher Secondary School, Milupara - CECB",13-12-2025 07:00:00,22.1910172,83.5197009,NH3,1,2,2
India,Chhattisgarh,Raipur,"AIIMS, Raipur - CECB",13-12-2025 07:00:00,21.258815,81.578979,OZONE,NA,NA,NA
India,Chhattisgarh,Raipur,"Bhatagaon New ISBT, Raipur - CECB",13-12-2025 07:00:00,21.219665,81.630094,NO2,NA,NA,NA
India,Bihar,Patna,"IGSC Planetarium Complex, Patna - BSPCB",13-12-2025 07:00:00,25.610369,85.132568,SO2,17,31,24
India,Bihar,Patna,"Muradpur, Patna - BSPCB",13-12-2025 07:00:00,25.619651,85.147382,PM2.5,98,269,154
India,Bihar,Patna,"Muradpur, Patna - BSPCB",13-12-2025 07:00:00,25.619651,85.147382,CO,28,88,54
India,Bihar,Patna,"Rajbansi Nagar, Patna - BSPCB",13-12-2025 07:00:00,25.599486,85.113666,PM2.5,105,302,205
India,Bihar,Patna,"Rajbansi Nagar, Patna - BSPCB",13-12-2025 07:00:00,25.599486,85.113666,PM10,97,186,132
India,Chhattisgarh,Bhilai,"Hathkhoj, Bhilai - CECB",13-12-2025 07:00:00,21.224231,81.408350,NH3,1,6,3
India,Chhattisgarh,Bhilai,"Hathkhoj, Bhilai - CECB",13-12-2025 07:00:00,21.224231,81.408350,OZONE,2,16,2
India,Chhattisgarh,Korba,"Rampur, Korba - CECB",13-12-2025 07:00:00,22.368195,82.746431,PM10,72,86,85
India,Chhattisgarh,Korba,"Rampur, Korba - CECB",13-12-2025 07:00:00,22.368195,82.746431,CO,10,38,24
India,Chhattisgarh,Korba,"Urja Nagar, Korba - CECB",13-12-2025 07:00:00,22.348441,82.549611,SO2,1,16,6
India,Bihar,Motihari,"Gandak Colony, Motihari - BSPCB",13-12-2025 07:00:00,26.63086,84.90051,OZONE,3,5,3
India,Bihar,Muzaffarpur,"Buddha Colony, Muzaffarpur - BSPCB",13-12-2025 07:00:00,26.11442,85.39813,PM10,67,127,109
India,Bihar,Muzaffarpur,"MIT-Daudpur Kothi, Muzaffarpur - BSPCB",13-12-2025 07:00:00,26.1403345,85.3650192,CO,43,62,52
India,Bihar,Patna,"DRM Office Danapur, Patna - BSPCB",13-12-2025 07:00:00,25.586562,85.043586,NH3,7,35,15
India,Delhi,Delhi,"Mundka, Delhi - DPCC",13-12-2025 07:00:00,28.684678,77.076574,NO2,65,160,103
India,Delhi,Delhi,"Mundka, Delhi - DPCC",13-12-2025 07:00:00,28.684678,77.076574,SO2,12,50,29
India,Delhi,Delhi,"Mundka, Delhi - DPCC",13-12-2025 07:00:00,28.684678,77.076574,CO,18,136,125
India,Delhi,Delhi,"NSIT Dwarka, Delhi - CPCB",13-12-2025 07:00:00,28.60909,77.0325413,NO2,52,113,90
India,Delhi,Delhi,"NSIT Dwarka, Delhi - CPCB",13-12-2025 07:00:00,28.60909,77.0325413,OZONE,26,86,30
India,Delhi,Delhi,"Najafgarh, Delhi - DPCC",13-12-2025 07:00:00,28.570173,76.933762,PM2.5,217,368,311
India,Delhi,Delhi,"Najafgarh, Delhi - DPCC",13-12-2025 07:00:00,28.570173,76.933762,PM10,126,232,165
India,Delhi,Delhi,"Najafgarh, Delhi - DPCC",13-12-2025 07:00:00,28.570173,76.933762,OZONE,4,6,4
India,Delhi,Delhi,"Narela, Delhi - DPCC",13-12-2025 07:00:00,28.822836,77.101981,PM2.5,318,500,428
India,Delhi,Delhi,"Narela, Delhi - DPCC",13-12-2025 07:00:00,28.822836,77.101981,OZONE,4,157,8
India,Delhi,Delhi,"North Campus, DU, Delhi - IMD",13-12-2025 07:00:00,28.6573814,77.1585447,PM2.5,304,499,403
India,Delhi,Delhi,"North Campus, DU, Delhi - IMD",13-12-2025 07:00:00,28.6573814,77.1585447,CO,26,173,148
India,Delhi,Delhi,"Okhla Phase-2, Delhi - DPCC",13-12-2025 07:00:00,28.530785,77.271255,PM2.5,304,480,395
India,Delhi,Delhi,"Okhla Phase-2, Delhi - DPCC",13-12-2025 07:00:00,28.530785,77.271255,NO2,142,333,214
India,Delhi,Delhi,"Okhla Phase-2, Delhi - DPCC",13-12-2025 07:00:00,28.530785,77.271255,NH3,18,28,22
India,Delhi,Delhi,"Okhla Phase-2, Delhi - DPCC",13-12-2025 07:00:00,28.530785,77.271255,OZONE,4,238,8
India,Delhi,Delhi,"Patparganj, Delhi - DPCC",13-12-2025 07:00:00,28.623763,77.287209,PM2.5,316,500,421
India,Delhi,Delhi,"Patparganj, Delhi - DPCC",13-12-2025 07:00:00,28.623763,77.287209,CO,23,187,151
India,Delhi,Delhi,"Lodhi Road, Delhi - IITM",13-12-2025 07:00:00,28.588333,77.221667,PM10,NA,NA,NA
India,Delhi,Delhi,"Lodhi Road, Delhi - IITM",13-12-2025 07:00:00,28.588333,77.221667,SO2,NA,NA,NA
India,Delhi,Delhi,"Lodhi Road, Delhi - IMD",13-12-2025 07:00:00,28.5918245,77.2273074,OZONE,8,166,10
India,Delhi,Delhi,"Major Dhyan Chand National Stadium, Delhi - DPCC",13-12-2025 07:00:00,28.611281,77.237738,NO2,50,231,112
India,Delhi,Delhi,"Mandir Marg, Delhi - DPCC",13-12-2025 07:00:00,28.636429,77.201067,PM10,148,461,303
India,Delhi,Delhi,"Mandir Marg, Delhi - DPCC",13-12-2025 07:00:00,28.636429,77.201067,NH3,6,13,9
India,Delhi,Delhi,"Chandni Chowk, Delhi - IITM",13-12-2025 07:00:00,28.656756,77.227234,PM10,284,500,410
India,Delhi,Delhi,"Chandni Chowk, Delhi - IITM",13-12-2025 07:00:00,28.656756,77.227234,NO2,44,142,86
India,Delhi,Delhi,"Chandni Chowk, Delhi - IITM",13-12-2025 07:00:00,28.656756,77.227234,SO2,5,9,6
India,Delhi,Delhi,"DTU, Delhi - CPCB",13-12-2025 07:00:00,28.7500499,77.1112615,PM10,157,444,339
India,Delhi,Delhi,"DTU, Delhi - CPCB",13-12-2025 07:00:00,28.7500499,77.1112615,OZONE,17,38,22
India,Delhi,Delhi,"Dr. Karni Singh Shooting Range, Delhi - DPCC",13-12-2025 07:00:00,28.498571,77.264840,PM2.5,297,487,398
India,Delhi,Delhi,"IIT Delhi, Delhi - IITM",13-12-2025 07:00:00,28.542460,77.191651,PM2.5,191,430,326
India,Delhi,Delhi,"IIT Delhi, Delhi - IITM",13-12-2025 07:00:00,28.542460,77.191651,NO2,40,128,74
India,Delhi,Delhi,"ITO, Delhi - CPCB",13-12-2025 07:00:00,28.628624,77.241060,PM2.5,75,500,420
India,Delhi,Delhi,"Jahangirpuri, Delhi - DPCC",13-12-2025 07:00:00,28.732820,77.170633,NH3,2,9,5
India,Delhi,Delhi,"Jawaharlal Nehru Stadium, Delhi - DPCC",13-12-2025 07:00:00,28.580280,77.233829,PM2.5,302,446,378
India,Delhi,Delhi,"Ashok Vihar, Delhi - DPCC",13-12-2025 07:00:00,28.695381,77.181665,OZONE,4,153,5
India,Delhi,Delhi,"Aya Nagar, Delhi - IMD",13-12-2025 07:00:00,28.4706914,77.1099364,CO,20,128,106
India,Delhi,Delhi,"Bawana, Delhi - DPCC",13-12-2025 07:00:00,28.776200,77.051074,SO2,6,67,13
India,Delhi,Delhi,"Alipur, Delhi - DPCC",13-12-2025 07:00:00,28.815329,77.153010,NH3,8,11,10
India,Delhi,Delhi,"Alipur, Delhi - DPCC",13-12-2025 07:00:00,28.815329,77.153010,SO2,1,29,7
India,Delhi,Delhi,"IHBAS, Dilshad Garden, Delhi - CPCB",13-12-2025 07:00:00,28.6811736,77.3025234,PM2.5,50,435,199
India,Delhi,Delhi,"Burari Crossing, Delhi - IMD",13-12-2025 07:00:00,28.7256504,77.2011573,NO2,1,180,72
India,Delhi,Delhi,"Shadipur, Delhi - CPCB",13-12-2025 07:00:00,28.6514781,77.1473105,OZONE,9,43,10
India,Delhi,Delhi,"Sirifort, Delhi - CPCB",13-12-2025 07:00:00,28.5504249,77.2159377,SO2,25,36,30
India,Delhi,Delhi,"Sirifort, Delhi - CPCB",13-12-2025 07:00:00,28.5504249,77.2159377,CO,40,154,149
India,Delhi,Delhi,"Sonia Vihar, Delhi - DPCC",13-12-2025 07:00:00,28.710508,77.249485,PM2.5,350,500,428
India,Delhi,Delhi,"Sri Aurobindo Marg, Delhi - DPCC",13-12-2025 07:00:00,28.531346,77.190156,PM2.5,270,424,333
India,Delhi,Delhi,"Sri Aurobindo Marg, Delhi - DPCC",13-12-2025 07:00:00,28.531346,77.190156,NH3,6,8,7
India,Delhi,Delhi,"Sri Aurobindo Marg, Delhi - DPCC",13-12-2025 07:00:00,28.531346,77.190156,CO,58,134,120
India,Delhi,Delhi,"Sri Aurobindo Marg, Delhi - DPCC",13-12-2025 07:00:00,28.531346,77.190156,OZONE,1,130,1
India,Gujarat,Ahmedabad,"SAC ISRO Satellite, Ahmedabad - IITM",13-12-2025 07:00:00,23.023389,72.515201,CO,1,86,56
India,Gujarat,Ahmedabad,"SVPI Airport Hansol, Ahmedabad - IITM",13-12-2025 07:00:00,23.076793,72.627874,PM2.5,NA,NA,NA
India,Gujarat,Ankleshwar,"GIDC, Ankleshwar - GPCB",13-12-2025 07:00:00,21.613267,73.010555,PM2.5,43,158,108
India,Gujarat,Ankleshwar,"GIDC, Ankleshwar - GPCB",13-12-2025 07:00:00,21.613267,73.010555,PM10,78,184,143
India,Gujarat,Gandhinagar,"IIPHG Lekawada, Gandhinagar - IITM",13-12-2025 07:00:00,23.243639,72.68994,NH3,2,3,2
India,Gujarat,Gandhinagar,"IIPHG Lekawada, Gandhinagar - IITM",13-12-2025 07:00:00,23.243639,72.68994,SO2,3,9,6
India,Gujarat,Ahmedabad,"Gyaspur, Ahmedabad - IITM",13-12-2025 07:00:00,22.977134,72.553024,OZONE,1,63,1
India,Gujarat,Ahmedabad,"Maninagar, Ahmedabad - GPCB",13-12-2025 07:00:00,23.002657,72.591912,PM10,35,246,132
India,Gujarat,Ahmedabad,"Maninagar, Ahmedabad - GPCB",13-12-2025 07:00:00,23.002657,72.591912,SO2,33,44,39
India,Gujarat,Ahmedabad,"Maninagar, Ahmedabad - GPCB",13-12-2025 07:00:00,23.002657,72.591912,CO,24,36,30
India,Gujarat,Ahmedabad,"Maninagar, Ahmedabad - GPCB",13-12-2025 07:00:00,23.002657,72.591912,OZONE,38,84,42
India,Gujarat,Ahmedabad,"Raikhad, Ahmedabad - IITM",13-12-2025 07:00:00,23.020509,72.579261,CO,4,82,33
India,Delhi,Delhi,"Pusa, Delhi - DPCC",13-12-2025 07:00:00,28.639652,77.146275,OZONE,12,18,17
India,Delhi,Delhi,"R K Puram, Delhi - DPCC",13-12-2025 07:00:00,28.563262,77.186937,PM2.5,293,500,401
India,Delhi,Delhi,"R K Puram, Delhi - DPCC",13-12-2025 07:00:00,28.563262,77.186937,NH3,8,12,9
India,Delhi,Delhi,"R K Puram, Delhi - DPCC",13-12-2025 07:00:00,28.563262,77.186937,CO,9,182,149
India,Delhi,Delhi,"R K Puram, Delhi - DPCC",13-12-2025 07:00:00,28.563262,77.186937,OZONE,16,161,22
India,Delhi,Delhi,"Rohini, Delhi - DPCC",13-12-2025 07:00:00,28.732528,77.119920,CO,19,174,149
India,Haryana,Ambala,"Patti Mehar, Ambala - HSPCB",13-12-2025 07:00:00,30.379589,76.778328,NO2,19,25,22
India,Haryana,Ambala,"Patti Mehar, Ambala - HSPCB",13-12-2025 07:00:00,30.379589,76.778328,CO,97,101,99
India,Haryana,Bahadurgarh,"Arya Nagar, Bahadurgarh - HSPCB",13-12-2025 07:00:00,28.6701,76.9254,PM10,13,422,204
India,Haryana,Bahadurgarh,"Arya Nagar, Bahadurgarh - HSPCB",13-12-2025 07:00:00,28.6701,76.9254,NO2,12,14,13
India,Gujarat,Ahmedabad,"Rakhial, Ahmedabad - IITM",13-12-2025 07:00:00,23.016834,72.625775,NO2,19,91,56
India,Gujarat,Ahmedabad,"Rakhial, Ahmedabad - IITM",13-12-2025 07:00:00,23.016834,72.625775,NH3,5,13,8
India,Gujarat,Ahmedabad,"SAC ISRO Bopal, Ahmedabad - IITM",13-12-2025 07:00:00,23.041137,72.456691,NH3,11,19,15
India,Gujarat,Ahmedabad,"SAC ISRO Bopal, Ahmedabad - IITM",13-12-2025 07:00:00,23.041137,72.456691,OZONE,1,61,1
India,Haryana,Ballabgarh,"Nathu Colony, Ballabgarh - HSPCB",13-12-2025 07:00:00,28.3419248,77.319699,NH3,3,3,3
India,Haryana,Bhiwani,"H.B. Colony, Bhiwani - HSPCB",13-12-2025 07:00:00,28.806223,76.141105,NO2,1,35,31
India,Gujarat,Vapi,"Phase-1 GIDC, Vapi - GPCB",13-12-2025 07:00:00,20.362421,72.918013,NO2,1,12,6
India,Gujarat,Vatva,"Phase-4 GIDC, Vatva - GPCB",13-12-2025 07:00:00,22.969611,72.643500,NH3,6,12,9
India,Gujarat,Gandhinagar,"Sector-10, Gandhinagar - GPCB",13-12-2025 07:00:00,23.221714,72.654328,CO,23,52,34
India,Haryana,Gurugram,"Sector-51, Gurugram - HSPCB",13-12-2025 07:00:00,28.4227,77.0667,OZONE,6,45,12
India,Haryana,Gurugram,"Teri Gram, Gurugram - HSPCB",13-12-2025 07:00:00,28.4275,77.1465,NO2,37,76,53
India,Haryana,Gurugram,"Teri Gram, Gurugram - HSPCB",13-12-2025 07:00:00,28.4275,77.1465,SO2,3,35,14
India,Haryana,Gurugram,"Teri Gram, Gurugram - HSPCB",13-12-2025 07:00:00,28.4275,77.1465,OZONE,10,44,12
India,Haryana,Hisar,"Urban Estate-II, Hisar - HSPCB",13-12-2025 07:00:00,29.140560,75.744941,NO2,19,20,19
India,Haryana,Jind,"Police Lines, Jind - HSPCB",13-12-2025 07:00:00,29.307814,76.337619,NO2,37,54,45
India,Haryana,Jind,"Police Lines, Jind - HSPCB",13-12-2025 07:00:00,29.307814,76.337619,CO,2,126,68
India,Haryana,Jind,"Police Lines, Jind - HSPCB",13-12-2025 07:00:00,29.307814,76.337619,OZONE,5,63,9
India,Haryana,Panipat,"Sector-18, Panipat - HSPCB",13-12-2025 07:00:00,29.432304,76.972765,NH3,2,3,2
India,Haryana,Panipat,"Sector-18, Panipat - HSPCB",13-12-2025 07:00:00,29.432304,76.972765,SO2,11,11,11
India,Haryana,Panipat,"Sector-18, Panipat - HSPCB",13-12-2025 07:00:00,29.432304,76.972765,CO,47,48,48
India,Haryana,Rohtak,"MD University, Rohtak - HSPCB",13-12-2025 07:00:00,28.52123,76.37138,SO2,10,14,12
India,Haryana,Sirsa,"F-Block, Sirsa - HSPCB",13-12-2025 07:00:00,29.536400,75.015800,PM10,37,114,68
India,Haryana,Sirsa,"F-Block, Sirsa - HSPCB",13-12-2025 07:00:00,29.536400,75.015800,SO2,10,17,13
India,Haryana,Sirsa,"F-Block, Sirsa - HSPCB",13-12-2025 07:00:00,29.536400,75.015800,CO,38,71,55
India,Haryana,Sonipat,"Murthal, Sonipat - HSPCB",13-12-2025 07:00:00,29.027200,77.062100,NH3,17,66,25
India,Haryana,Charkhi Dadri,"Mini Secretariat, Charkhi Dadri - HSPCB",13-12-2025 07:00:00,28.593883,76.270653,PM2.5,79,403,232
India,Haryana,Charkhi Dadri,"Mini Secretariat, Charkhi Dadri - HSPCB",13-12-2025 07:00:00,28.593883,76.270653,NH3,5,8,6
India,Haryana,Charkhi Dadri,"Mini Secretariat, Charkhi Dadri - HSPCB",13-12-2025 07:00:00,28.593883,76.270653,SO2,10,12,11
India,Haryana,Dharuhera,"Municipal Corporation Office, Dharuhera -  HSPCB",13-12-2025 07:00:00,28.206800,76.799700,PM2.5,176,500,342
India,Haryana,Dharuhera,"Municipal Corporation Office, Dharuhera -  HSPCB",13-12-2025 07:00:00,28.206800,76.799700,SO2,2,18,9
India,Haryana,Faridabad,"New Industrial Town, Faridabad - HSPCB",13-12-2025 07:00:00,28.39072,77.30059,PM2.5,162,190,179
India,Haryana,Faridabad,"New Industrial Town, Faridabad - HSPCB",13-12-2025 07:00:00,28.39072,77.30059,PM10,146,163,157
India,Jharkhand,Dhanbad,"Sardar Patel Nagar, Dhanbad - JSPCB",13-12-2025 07:00:00,23.80569,86.44268,SO2,16,25,22
India,Jharkhand,Jorapokhar,"Tata Stadium, Jorapokhar - JSPCB",13-12-2025 07:00:00,23.707909,86.414670,OZONE,NA,NA,NA
India,Karnataka,Belgaum,"Ramteerth Nagar, Belgaum - KSPCB",13-12-2025 07:00:00,15.888653,74.541751,OZONE,19,20,19
India,Karnataka,Bengaluru,"BTM Layout, Bengaluru - CPCB",13-12-2025 07:00:00,12.9135218,77.5950804,NH3,5,7,6
India,Karnataka,Bengaluru,"BWSSB Kadabesanahalli, Bengaluru - CPCB",13-12-2025 07:00:00,12.9352049,77.6814488,NO2,13,40,27
India,Haryana,Kaithal,"Rishi Nagar, Kaithal - HSPCB",13-12-2025 07:00:00,29.8006,76.4155,CO,16,90,49
India,Haryana,Karnal,"Sector-12, Karnal - HSPCB",13-12-2025 07:00:00,29.695300,77.002700,PM2.5,248,349,313
India,Haryana,Mandikhera,"General Hospital, Mandikhera(Nuh) - HSPCB",13-12-2025 07:00:00,27.9002,76.9938,NO2,20,23,22
India,Haryana,Mandikhera,"General Hospital, Mandikhera(Nuh) - HSPCB",13-12-2025 07:00:00,27.9002,76.9938,SO2,30,36,34
India,Haryana,Mandikhera,"General Hospital, Mandikhera(Nuh) - HSPCB",13-12-2025 07:00:00,27.9002,76.9938,CO,46,84,73
India,Haryana,Mandikhera,"General Hospital, Mandikhera(Nuh) - HSPCB",13-12-2025 07:00:00,27.9002,76.9938,OZONE,22,30,27
India,Himachal Pradesh,Baddi,"HIMUDA Complex Phase-1, Baddi - HPPCB",13-12-2025 07:00:00,30.943887,76.801991,CO,55,112,70
India,Jammu_and_Kashmir,Srinagar,"Rajbagh, Srinagar - JKSPCB",13-12-2025 07:00:00,34.066206,74.819820,OZONE,NA,NA,NA
India,Jharkhand,Dhanbad,"Sardar Patel Nagar, Dhanbad - JSPCB",13-12-2025 07:00:00,23.80569,86.44268,PM10,119,319,199
India,Haryana,Manesar,"Sector-2 IMT, Manesar - HSPCB",13-12-2025 07:00:00,28.360699,76.936090,SO2,9,19,13
India,Haryana,Manesar,"Sector-2 IMT, Manesar - HSPCB",13-12-2025 07:00:00,28.360699,76.936090,CO,26,86,60
India,Haryana,Palwal,"Shyam Nagar, Palwal - HSPCB",13-12-2025 07:00:00,28.1485564,77.3320667,SO2,12,13,12
India,Haryana,Panchgaon,"Amity University, Panchgaon - IITM",13-12-2025 07:00:00,28.3153,76.9143,NO2,1,32,11
India,Haryana,Faridabad,"Sector 11, Faridabad - HSPCB",13-12-2025 07:00:00,28.376058,77.315741,OZONE,15,16,15
India,Haryana,Gurugram,"NISE Gwal Pahari, Gurugram - IMD",13-12-2025 07:00:00,28.422681,77.148944,NO2,11,109,42
India,Haryana,Gurugram,"Sector-51, Gurugram - HSPCB",13-12-2025 07:00:00,28.4227,77.0667,PM10,118,500,276
India,Haryana,Yamuna Nagar,"Gobind Pura, Yamuna Nagar - HSPCB",13-12-2025 07:00:00,30.1480566,77.2893471,CO,24,105,57
India,Himachal Pradesh,Baddi,"HIMUDA Complex Phase-1, Baddi - HPPCB",13-12-2025 07:00:00,30.943887,76.801991,PM2.5,149,391,286
India,Kerala,Thiruvananthapuram,"Kariavattom, Thiruvananthapuram - Kerala PCB",13-12-2025 07:00:00,8.563700,76.886500,OZONE,36,37,36
India,Kerala,Thiruvananthapuram,"Plammoodu, Thiruvananthapuram - Kerala PCB",13-12-2025 07:00:00,8.5149093,76.9435879,PM2.5,44,90,62
India,Kerala,Thiruvananthapuram,"Plammoodu, Thiruvananthapuram - Kerala PCB",13-12-2025 07:00:00,8.5149093,76.9435879,NO2,NA,NA,NA
India,Kerala,Thiruvananthapuram,"Plammoodu, Thiruvananthapuram - Kerala PCB",13-12-2025 07:00:00,8.5149093,76.9435879,SO2,8,24,16
India,Kerala,Thiruvananthapuram,"Plammoodu, Thiruvananthapuram - Kerala PCB",13-12-2025 07:00:00,8.5149093,76.9435879,CO,16,42,23
India,Kerala,Thiruvananthapuram,"Plammoodu, Thiruvananthapuram - Kerala PCB",13-12-2025 07:00:00,8.5149093,76.9435879,OZONE,11,28,21
India,Kerala,Thrissur,"Corporation Ground, Thrissur - Kerala PCB",13-12-2025 07:00:00,10.532400,76.215900,CO,13,24,23
India,Madhya Pradesh,Bhopal,"Idgah Hills, Bhopal - MPPCB",13-12-2025 07:00:00,23.264759,77.381568,NH3,5,7,6
India,Madhya Pradesh,Bhopal,"Paryavaran Parisar, Bhopal - MPPCB",13-12-2025 07:00:00,23.210494,77.425409,NO2,28,110,60
India,Karnataka,Chamarajanagar,"Urban, Chamarajanagar - KSPCB",13-12-2025 07:00:00,11.55358,76.55521,NH3,1,4,2
India,Karnataka,Chikkamagaluru,"Kalyana Nagara, Chikkamagaluru - KSPCB",13-12-2025 07:00:00,13.328028,75.797056,PM2.5,5,26,14
India,Karnataka,Chikkamagaluru,"Kalyana Nagara, Chikkamagaluru - KSPCB",13-12-2025 07:00:00,13.328028,75.797056,SO2,1,7,3
India,Karnataka,Dharwad,"Kalabhavan, Dharwad - KSPCB",13-12-2025 07:00:00,15.459706,75.008381,SO2,1,9,4
India,Karnataka,Dharwad,"Kalabhavan, Dharwad - KSPCB",13-12-2025 07:00:00,15.459706,75.008381,CO,54,112,84
India,Karnataka,Hubballi,"Lingaraj Nagar, Hubballi - KSPCB",13-12-2025 07:00:00,15.3714823,75.1160168,SO2,1,7,3
India,Karnataka,Hubballi,"Lingaraj Nagar, Hubballi - KSPCB",13-12-2025 07:00:00,15.3714823,75.1160168,OZONE,29,30,29
India,Karnataka,Kalaburagi,"Mahatma Basaveswar Colony, Kalaburgi - KSPCB",13-12-2025 07:00:00,17.336318,76.847397,PM10,32,73,51
India,Karnataka,Kalaburagi,"Mahatma Basaveswar Colony, Kalaburgi - KSPCB",13-12-2025 07:00:00,17.336318,76.847397,SO2,1,6,4
India,Karnataka,Kalaburagi,"Mahatma Basaveswar Colony, Kalaburgi - KSPCB",13-12-2025 07:00:00,17.336318,76.847397,OZONE,11,21,14
India,Karnataka,Koppal,"Diwator Nagar, Koppal - KSPCB",13-12-2025 07:00:00,15.347630,76.181767,NO2,34,39,37
India,Karnataka,Koppal,"Diwator Nagar, Koppal - KSPCB",13-12-2025 07:00:00,15.347630,76.181767,OZONE,4,8,6
India,Karnataka,Mangalore,"Kadri, Mangalore - KSPCB",13-12-2025 07:00:00,12.889250,74.853000,OZONE,4,41,19
India,Karnataka,Mysuru,"Hebbal 1st Stage, Mysuru - KSPCB",13-12-2025 07:00:00,12.21041,76.37376,PM2.5,48,81,67
India,Karnataka,Bengaluru,"BWSSB Kadabesanahalli, Bengaluru - CPCB",13-12-2025 07:00:00,12.9352049,77.6814488,OZONE,15,86,45
India,Karnataka,Bengaluru,"Hombegowda Nagar, Bengaluru - KSPCB",13-12-2025 07:00:00,12.938539,77.590100,NH3,2,4,3
India,Karnataka,Bengaluru,"Jayanagar 5th Block, Bengaluru - KSPCB",13-12-2025 07:00:00,12.920984,77.584908,SO2,1,56,13
India,Karnataka,Bengaluru,"Jigani, Bengaluru - KSPCB",13-12-2025 07:00:00,12.7816279,77.6299145,NO2,23,24,24
India,Karnataka,Bengaluru,"Jigani, Bengaluru - KSPCB",13-12-2025 07:00:00,12.7816279,77.6299145,CO,42,44,42
India,Karnataka,Bengaluru,"Kasturi Nagar, Bengaluru - KSPCB",13-12-2025 07:00:00,13.003872,77.664217,NH3,1,2,1
India,Karnataka,Bengaluru,"Peenya, Bengaluru - CPCB",13-12-2025 07:00:00,13.0270199,77.494094,CO,17,60,29
India,Karnataka,Bengaluru,"Peenya, Bengaluru - CPCB",13-12-2025 07:00:00,13.0270199,77.494094,OZONE,20,20,20
