country,state,city,station,last_update,latitude,longitude,pollutant_id,min_value,max_value,avg_value
India,Andhra_Pradesh,Tirupati,"Vaikuntapuram, Tirupati - APPCB",05-12-2025 07:00:00,13.615387,79.409230,OZONE,17,22,21
India,Andhra_Pradesh,Vijayawada,"HB Colony, Vijayawada - APPCB",05-12-2025 07:00:00,16.536107,80.594233,PM2.5,44,123,69
India,Andhra_Pradesh,Vijayawada,"HB Colony, Vijayawada - APPCB",05-12-2025 07:00:00,16.536107,80.594233,PM10,38,118,69
India,Andhra_Pradesh,Vijayawada,"HB Colony, Vijayawada - APPCB",05-12-2025 07:00:00,16.536107,80.594233,NO2,19,19,19
India,Andhra_Pradesh,Rajamahendravaram,"Anand Kala Kshetram, Rajamahendravaram - APPCB",05-12-2025 07:00:00,16.9872867,81.7363176,PM2.5,107,277,196
India,Andhra_Pradesh,Rajamahendravaram,"Anand Kala Kshetram, Rajamahendravaram - APPCB",05-12-2025 07:00:00,16.9872867,81.7363176,PM10,112,157,136
India,Andhra_Pradesh,Rajamahendravaram,"Anand Kala Kshetram, Rajamahendravaram - APPCB",05-12-2025 07:00:00,16.9872867,81.7363176,NO2,18,38,28
India,Andhra_Pradesh,Rajamahendravaram,"Anand Kala Kshetram, Rajamahendravaram - APPCB",05-12-2025 07:00:00,16.9872867,81.7363176,SO2,7,33,17
India,Andhra_Pradesh,Amaravati,"Secretariat, Amaravati - APPCB",05-12-2025 07:00:00,16.5150833,80.5181667,PM2.5,93,322,207
India,Andhra_Pradesh,Amaravati,"Secretariat, Amaravati - APPCB",05-12-2025 07:00:00,16.5150833,80.5181667,OZONE,28,68,49
India,Andhra_Pradesh,Vijayawada,"Kanuru, Vijayawada - APPCB",05-12-2025 07:00:00,16.486692,80.699436,PM10,NA,NA,NA
India,Andhra_Pradesh,Anantapur,"Gulzarpet, Anantapur - APPCB",05-12-2025 07:00:00,14.675886,77.593027,SO2,10,12,12
India,Andhra_Pradesh,Tirumala,"Toll Gate, Tirumala - APPCB",05-12-2025 07:00:00,13.67,79.35,PM10,19,74,45
India,Andhra_Pradesh,Tirumala,"Toll Gate, Tirumala - APPCB",05-12-2025 07:00:00,13.67,79.35,SO2,5,7,6
India,Assam,Guwahati,"LGBI Airport, Guwahati - PCBA",05-12-2025 07:00:00,26.10887,91.589544,OZONE,9,19,13
India,Assam,Guwahati,"Pan Bazaar, Guwahati - PCBA",05-12-2025 07:00:00,26.187500,91.744194,PM10,34,118,77
India,Assam,Nagaon,"Christianpatty, Nagaon - PCBA",05-12-2025 07:00:00,26.349082,92.68449,SO2,9,14,12
India,Assam,Byrnihat,"Central Academy for SFS, Byrnihat - PCBA",05-12-2025 07:00:00,26.071318,91.87488,PM2.5,79,142,100
India,Assam,Byrnihat,"Central Academy for SFS, Byrnihat - PCBA",05-12-2025 07:00:00,26.071318,91.87488,PM10,71,106,86
India,Assam,Guwahati,"IITG, Guwahati - PCBA",05-12-2025 07:00:00,26.2028636,91.70046436,NO2,1,10,5
India,Andhra_Pradesh,Vijayawada,"Rajiv Gandhi Park, Vijayawada - APPCB",05-12-2025 07:00:00,16.509717,80.612222,PM2.5,85,144,104
India,Andhra_Pradesh,Vijayawada,"Rajiv Gandhi Park, Vijayawada - APPCB",05-12-2025 07:00:00,16.509717,80.612222,SO2,10,15,14
India,Andhra_Pradesh,Vijayawada,"Rajiv Nagar, Vijayawada - APPCB",05-12-2025 07:00:00,16.554731,80.649110,PM10,40,116,50
India,Arunachal_Pradesh,Naharlagun,"Naharlagun, Naharlagun - APSPCB",05-12-2025 07:00:00,27.103358,93.679645,PM10,43,207,102
India,Andhra_Pradesh,Vijayawada,"Kanuru, Vijayawada - APPCB",05-12-2025 07:00:00,16.486692,80.699436,OZONE,35,39,36
India,Bihar,Araria,"Kharahiya Basti, Araria - BSPCB",05-12-2025 07:00:00,26.146529,87.454184,PM2.5,43,312,172
India,Andhra_Pradesh,Vijayawada,"Kanuru, Vijayawada - APPCB",05-12-2025 07:00:00,16.486692,80.699436,SO2,NA,NA,NA
India,Bihar,Begusarai,"Lohiyanagar, Begusarai - BSPCB",05-12-2025 07:00:00,25.42742023,86.13886079,CO,20,36,34
India,Bihar,Bettiah,"Kamalnath Nagar, Bettiah - BSPCB",05-12-2025 07:00:00,26.80365,84.51954,PM2.5,43,217,103
India,Bihar,Bihar Sharif,"D M Colony, Bihar Sharif - BSPCB",05-12-2025 07:00:00,25.204762,85.514960,SO2,10,10,10
India,Bihar,Bihar Sharif,"D M Colony, Bihar Sharif - BSPCB",05-12-2025 07:00:00,25.204762,85.514960,OZONE,NA,NA,NA
India,Bihar,Bhagalpur,"DM Office_Kachari Chowk, Bhagalpur - BSPCB",05-12-2025 07:00:00,25.251013,86.989001,OZONE,12,19,15
India,Bihar,Begusarai,"Lohiyanagar, Begusarai - BSPCB",05-12-2025 07:00:00,25.42742023,86.13886079,PM10,8,198,101
India,Bihar,Begusarai,"Lohiyanagar, Begusarai - BSPCB",05-12-2025 07:00:00,25.42742023,86.13886079,NH3,1,3,2
India,Bihar,Bettiah,"Kamalnath Nagar, Bettiah - BSPCB",05-12-2025 07:00:00,26.80365,84.51954,SO2,5,17,10
India,Bihar,Buxar,"Charitra Van, Buxar - BSPCB",05-12-2025 07:00:00,25.567520,83.966379,PM10,70,136,109
India,Bihar,Aurangabad,"Gurdeo Nagar, Aurangabad - BSPCB",05-12-2025 07:00:00,24.75746,84.366208,NO2,7,8,8
India,Bihar,Araria,"Kharahiya Basti, Araria - BSPCB",05-12-2025 07:00:00,26.146529,87.454184,NH3,4,5,5
India,Bihar,Chhapra,"Darshan Nagar, Chhapra - BSPCB",05-12-2025 07:00:00,25.7808257,84.7446768,NH3,5,7,5
India,Bihar,Chhapra,"Darshan Nagar, Chhapra - BSPCB",05-12-2025 07:00:00,25.7808257,84.7446768,CO,8,18,11
India,Bihar,Gaya,"Collectorate, Gaya - BSPCB",05-12-2025 07:00:00,24.7955,84.9994,PM2.5,52,268,149
India,Bihar,Gaya,"Collectorate, Gaya - BSPCB",05-12-2025 07:00:00,24.7955,84.9994,SO2,8,18,11
India,Bihar,Munger,"Town Hall, Munger - BSPCB",05-12-2025 07:00:00,25.376776,86.471523,NO2,4,5,5
India,Bihar,Munger,"Town Hall, Munger - BSPCB",05-12-2025 07:00:00,25.376776,86.471523,CO,12,54,23
India,Bihar,Muzaffarpur,"Buddha Colony, Muzaffarpur - BSPCB",05-12-2025 07:00:00,26.11442,85.39813,NH3,5,13,9
India,Bihar,Gaya,"SFTI Kusdihra, Gaya - BSPCB",05-12-2025 07:00:00,24.762518,84.982348,NO2,18,20,19
India,Bihar,Gaya,"SFTI Kusdihra, Gaya - BSPCB",05-12-2025 07:00:00,24.762518,84.982348,SO2,8,9,8
India,Bihar,Gaya,"Kareemganj, Gaya - BSPCB",05-12-2025 07:00:00,24.792403,84.992416,CO,37,42,40
India,Bihar,Gaya,"Kareemganj, Gaya - BSPCB",05-12-2025 07:00:00,24.792403,84.992416,OZONE,1,18,2
India,Bihar,Katihar,"Mirchaibari, Katihar - BSPCB",05-12-2025 07:00:00,25.560083,87.553265,PM10,NA,NA,NA
India,Bihar,Katihar,"Mirchaibari, Katihar - BSPCB",05-12-2025 07:00:00,25.560083,87.553265,SO2,17,27,22
India,Bihar,Kishanganj,"SDM Office_Khagra, Kishanganj - BSPCB",05-12-2025 07:00:00,26.0881305,87.93840336,PM2.5,35,48,43
India,Bihar,Kishanganj,"SDM Office_Khagra, Kishanganj - BSPCB",05-12-2025 07:00:00,26.0881305,87.93840336,SO2,6,9,7
India,Bihar,Motihari,"Gandak Colony, Motihari - BSPCB",05-12-2025 07:00:00,26.63086,84.90051,PM10,31,135,90
India,Bihar,Gaya,"Collectorate, Gaya - BSPCB",05-12-2025 07:00:00,24.7955,84.9994,OZONE,19,21,19
India,Bihar,Patna,"Rajbansi Nagar, Patna - BSPCB",05-12-2025 07:00:00,25.599486,85.113666,NH3,1,9,6
India,Bihar,Patna,"Rajbansi Nagar, Patna - BSPCB",05-12-2025 07:00:00,25.599486,85.113666,SO2,5,8,6
India,Bihar,Patna,"Rajbansi Nagar, Patna - BSPCB",05-12-2025 07:00:00,25.599486,85.113666,OZONE,22,27,25
India,Bihar,Patna,"Govt. High School Shikarpur, Patna - BSPCB",05-12-2025 07:00:00,25.592539,85.227158,OZONE,7,12,10
India,Bihar,Patna,"Govt. High School Shikarpur, Patna - BSPCB",05-12-2025 07:00:00,25.592539,85.227158,NH3,4,5,5
India,Bihar,Patna,"DRM Office Danapur, Patna - BSPCB",05-12-2025 07:00:00,25.586562,85.043586,NO2,37,94,65
India,Bihar,Patna,"DRM Office Danapur, Patna - BSPCB",05-12-2025 07:00:00,25.586562,85.043586,NH3,6,23,11
India,Bihar,Patna,"DRM Office Danapur, Patna - BSPCB",05-12-2025 07:00:00,25.586562,85.043586,OZONE,7,54,7
India,Bihar,Patna,"DRM Office Danapur, Patna - BSPCB",05-12-2025 07:00:00,25.586562,85.043586,SO2,7,12,9
India,Bihar,Patna,"Muradpur, Patna - BSPCB",05-12-2025 07:00:00,25.619651,85.147382,PM2.5,70,297,168
India,Bihar,Patna,"Muradpur, Patna - BSPCB",05-12-2025 07:00:00,25.619651,85.147382,NO2,5,8,6
India,Chandigarh,Chandigarh,"Sector 22, Chandigarh - CPCC",05-12-2025 07:00:00,30.735567,76.775714,SO2,NA,NA,NA
India,Chandigarh,Chandigarh,"Sector 22, Chandigarh - CPCC",05-12-2025 07:00:00,30.735567,76.775714,OZONE,3,16,5
India,Chandigarh,Chandigarh,"Sector-25, Chandigarh - CPCC",05-12-2025 07:00:00,30.751462,76.762879,SO2,4,17,10
India,Bihar,Saharsa,"Police Line, Saharsa - BSPCB",05-12-2025 07:00:00,25.892357,86.590325,PM2.5,25,153,88
India,Bihar,Saharsa,"Police Line, Saharsa - BSPCB",05-12-2025 07:00:00,25.892357,86.590325,PM10,36,129,93
India,Bihar,Saharsa,"Police Line, Saharsa - BSPCB",05-12-2025 07:00:00,25.892357,86.590325,NH3,4,4,4
India,Bihar,Purnia,"Mariam Nagar, Purnia - BSPCB",05-12-2025 07:00:00,25.366336,87.117468,NO2,5,7,6
India,Bihar,Purnia,"Mariam Nagar, Purnia - BSPCB",05-12-2025 07:00:00,25.366336,87.117468,SO2,15,18,16
India,Bihar,Siwan,"Chitragupta Nagar, Siwan - BSPCB",05-12-2025 07:00:00,26.2271665,84.3570427,PM10,32,92,62
India,Chhattisgarh,Bhilai,"32Bungalows, Bhilai - CECB",05-12-2025 07:00:00,21.194815,81.314770,CO,19,101,59
India,Bihar,Purnia,"Mariam Nagar, Purnia - BSPCB",05-12-2025 07:00:00,25.366336,87.117468,PM2.5,50,133,90
India,Bihar,Siwan,"Chitragupta Nagar, Siwan - BSPCB",05-12-2025 07:00:00,26.2271665,84.3570427,OZONE,6,7,7
India,Bihar,Siwan,"Chitragupta Nagar, Siwan - BSPCB",05-12-2025 07:00:00,26.2271665,84.3570427,SO2,3,4,4
India,Bihar,Patna,"Samanpura, Patna - BSPCB",05-12-2025 07:00:00,25.596727,85.085624,NO2,20,22,21
India,Chhattisgarh,Bhilai,"Civic Center, Bhilai - Bhilai Steel Plant",05-12-2025 07:00:00,21.185571,81.343175,NO2,13,13,13
India,Chhattisgarh,Bhilai,"Civic Center, Bhilai - Bhilai Steel Plant",05-12-2025 07:00:00,21.185571,81.343175,SO2,6,10,8
India,Chhattisgarh,Bilaspur,"Mangala, Bilaspur - NTPC",05-12-2025 07:00:00,22.08815,82.13737,PM10,58,122,89
India,Chhattisgarh,Chhal,"Nawapara SECL Colony, Chhal - CECB",05-12-2025 07:00:00,22.118125,83.140608,NO2,8,31,12
India,Chhattisgarh,Korba,"Rampur, Korba - CECB",05-12-2025 07:00:00,22.368195,82.746431,PM2.5,48,87,51
India,Chhattisgarh,Raipur,"Krishak Nagar, Raipur - CECB",05-12-2025 07:00:00,21.237755,81.705301,PM10,53,107,77
India,Chhattisgarh,Raipur,"Siltara Phase-II, Raipur - CECB",05-12-2025 07:00:00,21.371751,81.664929,PM10,48,161,101
India,Chhattisgarh,Milupara,"Govt. Higher Secondary School, Milupara - CECB",05-12-2025 07:00:00,22.1910172,83.5197009,PM10,60,166,92
India,Chhattisgarh,Milupara,"Govt. Higher Secondary School, Milupara - CECB",05-12-2025 07:00:00,22.1910172,83.5197009,CO,20,41,30
India,Chhattisgarh,Milupara,"Govt. Higher Secondary School, Milupara - CECB",05-12-2025 07:00:00,22.1910172,83.5197009,SO2,12,15,13
India,Chhattisgarh,Raipur,"Bhatagaon New ISBT, Raipur - CECB",05-12-2025 07:00:00,21.219665,81.630094,SO2,5,35,10
India,Chhattisgarh,Korba,"Urja Nagar, Korba - CECB",05-12-2025 07:00:00,22.348441,82.549611,NH3,1,2,2
India,Chhattisgarh,Korba,"Rampur, Korba - CECB",05-12-2025 07:00:00,22.368195,82.746431,SO2,9,37,13
India,Chhattisgarh,Korba,"Rampur, Korba - CECB",05-12-2025 07:00:00,22.368195,82.746431,OZONE,2,25,2
India,Chhattisgarh,Raipur,"Siltara Phase-II, Raipur - CECB",05-12-2025 07:00:00,21.371751,81.664929,SO2,3,16,5
India,Chhattisgarh,Raipur,"Siltara Phase-II, Raipur - CECB",05-12-2025 07:00:00,21.371751,81.664929,CO,34,36,35
India,Delhi,Delhi,"Aya Nagar, Delhi - IMD",05-12-2025 07:00:00,28.4706914,77.1099364,NO2,6,73,38
India,Delhi,Delhi,"Aya Nagar, Delhi - IMD",05-12-2025 07:00:00,28.4706914,77.1099364,OZONE,9,136,12
India,Delhi,Delhi,"Bawana, Delhi - DPCC",05-12-2025 07:00:00,28.776200,77.051074,NH3,5,7,6
India,Delhi,Delhi,"Bawana, Delhi - DPCC",05-12-2025 07:00:00,28.776200,77.051074,OZONE,3,127,5
India,Chhattisgarh,Tumidih,"OP Jindal Industrial Park, Tumidih - CECB",05-12-2025 07:00:00,22.06631475,83.33820077,PM10,NA,NA,NA
India,Chhattisgarh,Tumidih,"OP Jindal Industrial Park, Tumidih - CECB",05-12-2025 07:00:00,22.06631475,83.33820077,NH3,NA,NA,NA
India,Delhi,Delhi,"Burari Crossing, Delhi - IMD",05-12-2025 07:00:00,28.7256504,77.2011573,CO,16,108,81
India,Delhi,Delhi,"Ashok Vihar, Delhi - DPCC",05-12-2025 07:00:00,28.695381,77.181665,OZONE,4,122,5
India,Delhi,Delhi,"Ashok Vihar, Delhi - DPCC",05-12-2025 07:00:00,28.695381,77.181665,NH3,5,7,6
India,Delhi,Delhi,"Alipur, Delhi - DPCC",05-12-2025 07:00:00,28.815329,77.153010,OZONE,6,59,7
India,Delhi,Delhi,"Major Dhyan Chand National Stadium, Delhi - DPCC",05-12-2025 07:00:00,28.611281,77.237738,CO,22,116,98
India,Delhi,Delhi,"Major Dhyan Chand National Stadium, Delhi - DPCC",05-12-2025 07:00:00,28.611281,77.237738,OZONE,1,153,1
India,Delhi,Delhi,"Mandir Marg, Delhi - DPCC",05-12-2025 07:00:00,28.636429,77.201067,NO2,73,143,106
India,Delhi,Delhi,"Mandir Marg, Delhi - DPCC",05-12-2025 07:00:00,28.636429,77.201067,NH3,7,13,10
India,Delhi,Delhi,"CRRI Mathura Road, Delhi - IMD",05-12-2025 07:00:00,28.5512005,77.2735737,OZONE,10,79,12
India,Delhi,Delhi,"Chandni Chowk, Delhi - IITM",05-12-2025 07:00:00,28.656756,77.227234,PM2.5,263,409,347
India,Delhi,Delhi,"Chandni Chowk, Delhi - IITM",05-12-2025 07:00:00,28.656756,77.227234,NO2,30,74,49
India,Delhi,Delhi,"ITO, Delhi - CPCB",05-12-2025 07:00:00,28.628624,77.241060,CO,48,125,87
India,Delhi,Delhi,"Jahangirpuri, Delhi - DPCC",05-12-2025 07:00:00,28.732820,77.170633,PM10,171,405,270
India,Delhi,Delhi,"Major Dhyan Chand National Stadium, Delhi - DPCC",05-12-2025 07:00:00,28.611281,77.237738,SO2,11,34,23
India,Delhi,Delhi,"Dr. Karni Singh Shooting Range, Delhi - DPCC",05-12-2025 07:00:00,28.498571,77.264840,OZONE,6,44,6
India,Delhi,Delhi,"IHBAS, Dilshad Garden, Delhi - CPCB",05-12-2025 07:00:00,28.6811736,77.3025234,PM10,250,363,304
India,Delhi,Delhi,"IGI Airport (T3), Delhi - IMD",05-12-2025 07:00:00,28.5627763,77.1180053,PM2.5,99,338,267
India,Delhi,Delhi,"Dwarka-Sector 8, Delhi - DPCC ",05-12-2025 07:00:00,28.5710274,77.0719006,NH3,17,22,20
India,Delhi,Delhi,"Lodhi Road, Delhi - IITM",05-12-2025 07:00:00,28.588333,77.221667,PM2.5,198,334,290
India,Delhi,Delhi,"North Campus, DU, Delhi - IMD",05-12-2025 07:00:00,28.6573814,77.1585447,OZONE,18,319,21
India,Delhi,Delhi,"Okhla Phase-2, Delhi - DPCC",05-12-2025 07:00:00,28.530785,77.271255,PM2.5,293,395,342
India,Delhi,Delhi,"Mundka, Delhi - DPCC",05-12-2025 07:00:00,28.684678,77.076574,PM10,111,477,236
India,Delhi,Delhi,"NSIT Dwarka, Delhi - CPCB",05-12-2025 07:00:00,28.60909,77.0325413,PM2.5,116,376,266
India,Delhi,Delhi,"Najafgarh, Delhi - DPCC",05-12-2025 07:00:00,28.570173,76.933762,CO,33,72,65
India,Delhi,Delhi,"Najafgarh, Delhi - DPCC",05-12-2025 07:00:00,28.570173,76.933762,OZONE,3,32,4
India,Delhi,Delhi,"Punjabi Bagh, Delhi - DPCC",05-12-2025 07:00:00,28.674045,77.131023,PM2.5,203,407,336
India,Delhi,Delhi,"Okhla Phase-2, Delhi - DPCC",05-12-2025 07:00:00,28.530785,77.271255,NO2,121,205,165
India,Delhi,Delhi,"Nehru Nagar, Delhi - DPCC",05-12-2025 07:00:00,28.567890,77.250515,SO2,11,31,19
India,Delhi,Delhi,"Patparganj, Delhi - DPCC",05-12-2025 07:00:00,28.623763,77.287209,SO2,8,14,11
India,Delhi,Delhi,"Pusa, Delhi - DPCC",05-12-2025 07:00:00,28.639652,77.146275,PM10,187,415,246
India,Delhi,Delhi,"Narela, Delhi - DPCC",05-12-2025 07:00:00,28.822836,77.101981,CO,40,100,64
India,Delhi,Delhi,"Pusa, Delhi - DPCC",05-12-2025 07:00:00,28.639652,77.146275,NH3,3,15,11
India,Delhi,Delhi,"Pusa, Delhi - DPCC",05-12-2025 07:00:00,28.639652,77.146275,CO,59,102,78
India,Delhi,Delhi,"Pusa, Delhi - DPCC",05-12-2025 07:00:00,28.639652,77.146275,OZONE,19,29,26
India,Delhi,Delhi,"Sri Aurobindo Marg, Delhi - DPCC",05-12-2025 07:00:00,28.531346,77.190156,PM2.5,180,346,301
India,Delhi,Delhi,"Sirifort, Delhi - CPCB",05-12-2025 07:00:00,28.5504249,77.2159377,PM2.5,297,374,344
India,Delhi,Delhi,"R K Puram, Delhi - DPCC",05-12-2025 07:00:00,28.563262,77.186937,CO,34,131,91
India,Delhi,Delhi,"Sirifort, Delhi - CPCB",05-12-2025 07:00:00,28.5504249,77.2159377,SO2,19,24,21
India,Delhi,Delhi,"Sonia Vihar, Delhi - DPCC",05-12-2025 07:00:00,28.710508,77.249485,NH3,6,9,7
India,Delhi,Delhi,"R K Puram, Delhi - DPCC",05-12-2025 07:00:00,28.563262,77.186937,SO2,1,7,4
India,Delhi,Delhi,"Rohini, Delhi - DPCC",05-12-2025 07:00:00,28.732528,77.119920,NO2,33,110,67
India,Delhi,Delhi,"Rohini, Delhi - DPCC",05-12-2025 07:00:00,28.732528,77.119920,NH3,9,22,14
India,Delhi,Delhi,"Sri Aurobindo Marg, Delhi - DPCC",05-12-2025 07:00:00,28.531346,77.190156,NH3,4,6,6
India,Delhi,Delhi,"Sri Aurobindo Marg, Delhi - DPCC",05-12-2025 07:00:00,28.531346,77.190156,OZONE,1,114,1
India,Gujarat,Ahmedabad,"Chandkheda, Ahmedabad - IITM",05-12-2025 07:00:00,23.107969,72.574648,PM10,98,153,121
India,Gujarat,Ahmedabad,"Gyaspur, Ahmedabad - IITM",05-12-2025 07:00:00,22.977134,72.553024,PM10,125,192,158
India,Gujarat,Ahmedabad,"Raikhad, Ahmedabad - IITM",05-12-2025 07:00:00,23.020509,72.579261,NO2,19,110,49
India,Gujarat,Ahmedabad,"Rakhial, Ahmedabad - IITM",05-12-2025 07:00:00,23.016834,72.625775,SO2,15,71,20
India,Delhi,Delhi,"Vivek Vihar, Delhi - DPCC",05-12-2025 07:00:00,28.672342,77.315260,NO2,32,128,76
India,Delhi,Delhi,"Wazirpur, Delhi - DPCC",05-12-2025 07:00:00,28.699793,77.165453,PM10,188,500,340
India,Delhi,Delhi,"Vivek Vihar, Delhi - DPCC",05-12-2025 07:00:00,28.672342,77.315260,NH3,11,14,12
India,Delhi,Delhi,"Wazirpur, Delhi - DPCC",05-12-2025 07:00:00,28.699793,77.165453,NH3,8,12,10
India,Gujarat,Ahmedabad,"SAC ISRO Satellite, Ahmedabad - IITM",05-12-2025 07:00:00,23.023389,72.515201,OZONE,4,49,18
India,Gujarat,Ahmedabad,"SVPI Airport Hansol, Ahmedabad - IITM",05-12-2025 07:00:00,23.076793,72.627874,PM2.5,41,77,57
India,Gujarat,Ahmedabad,"SAC ISRO Satellite, Ahmedabad - IITM",05-12-2025 07:00:00,23.023389,72.515201,SO2,5,17,8
India,Gujarat,Ahmedabad,"SAC ISRO Satellite, Ahmedabad - IITM",05-12-2025 07:00:00,23.023389,72.515201,CO,2,46,19
India,Gujarat,Ahmedabad,"SAC ISRO Satellite, Ahmedabad - IITM",05-12-2025 07:00:00,23.023389,72.515201,PM2.5,48,85,62
India,Gujarat,Ahmedabad,"SAC ISRO Satellite, Ahmedabad - IITM",05-12-2025 07:00:00,23.023389,72.515201,NO2,9,45,21
India,Gujarat,Gandhinagar,"IIPHG Lekawada, Gandhinagar - IITM",05-12-2025 07:00:00,23.243639,72.68994,PM10,62,112,94
India,Gujarat,Gandhinagar,"IIPHG Lekawada, Gandhinagar - IITM",05-12-2025 07:00:00,23.243639,72.68994,CO,25,84,47
India,Gujarat,Gandhinagar,"Sector-10, Gandhinagar - GPCB",05-12-2025 07:00:00,23.221714,72.654328,PM2.5,39,77,60
India,Gujarat,Ankleshwar,"GIDC, Ankleshwar - GPCB",05-12-2025 07:00:00,21.613267,73.010555,OZONE,48,59,50
India,Gujarat,Ankleshwar,"GIDC, Ankleshwar - GPCB",05-12-2025 07:00:00,21.613267,73.010555,SO2,23,34,27
India,Haryana,Faridabad,"New Industrial Town, Faridabad - HSPCB",05-12-2025 07:00:00,28.39072,77.30059,PM2.5,223,237,230
India,Haryana,Faridabad,"New Industrial Town, Faridabad - HSPCB",05-12-2025 07:00:00,28.39072,77.30059,NH3,11,12,11
India,Haryana,Bahadurgarh,"Arya Nagar, Bahadurgarh - HSPCB",05-12-2025 07:00:00,28.6701,76.9254,PM10,119,430,218
India,Gujarat,Gandhinagar,"Sector-10, Gandhinagar - GPCB",05-12-2025 07:00:00,23.221714,72.654328,OZONE,6,65,31
India,Haryana,Ballabgarh,"Nathu Colony, Ballabgarh - HSPCB",05-12-2025 07:00:00,28.3419248,77.319699,SO2,4,11,7
India,Haryana,Faridabad,"Sector 11, Faridabad - HSPCB",05-12-2025 07:00:00,28.376058,77.315741,NO2,30,33,31
India,Gujarat,Surat,"Science Center, Surat - SMC",05-12-2025 07:00:00,21.170046,72.795405,SO2,28,32,30
India,Haryana,Bhiwani,"H.B. Colony, Bhiwani - HSPCB",05-12-2025 07:00:00,28.806223,76.141105,CO,11,13,12
India,Gujarat,Vapi,"Phase-1 GIDC, Vapi - GPCB",05-12-2025 07:00:00,20.362421,72.918013,NO2,9,36,22
India,Haryana,Kurukshetra,"Sector-7, Kurukshetra - HSPCB",05-12-2025 07:00:00,29.966942,76.875879,OZONE,4,79,18
India,Haryana,Mandikhera,"General Hospital, Mandikhera(Nuh) - HSPCB",05-12-2025 07:00:00,27.9002,76.9938,PM2.5,90,208,143
India,Haryana,Gurugram,"NISE Gwal Pahari, Gurugram - IMD",05-12-2025 07:00:00,28.422681,77.148944,PM2.5,167,365,307
India,Haryana,Gurugram,"Sector-51, Gurugram - HSPCB",05-12-2025 07:00:00,28.4227,77.0667,PM2.5,66,500,305
India,Haryana,Faridabad,"Sector 30, Faridabad - HSPCB",05-12-2025 07:00:00,28.4417,77.3217,PM10,144,156,149
India,Haryana,Faridabad,"Sector 30, Faridabad - HSPCB",05-12-2025 07:00:00,28.4417,77.3217,NO2,36,39,38
India,Haryana,Mandikhera,"General Hospital, Mandikhera(Nuh) - HSPCB",05-12-2025 07:00:00,27.9002,76.9938,NO2,19,23,21
India,Haryana,Fatehabad,"Huda Sector, Fatehabad - HSPCB",05-12-2025 07:00:00,29.503664,75.467934,PM2.5,92,386,256
India,Haryana,Jind,"Police Lines, Jind - HSPCB",05-12-2025 07:00:00,29.307814,76.337619,PM10,107,153,135
India,Haryana,Kaithal,"Rishi Nagar, Kaithal - HSPCB",05-12-2025 07:00:00,29.8006,76.4155,OZONE,10,19,12
India,Haryana,Karnal,"Sector-12, Karnal - HSPCB",05-12-2025 07:00:00,29.695300,77.002700,CO,40,58,49
India,Haryana,Jind,"Police Lines, Jind - HSPCB",05-12-2025 07:00:00,29.307814,76.337619,NH3,1,3,2
India,Haryana,Mandikhera,"General Hospital, Mandikhera(Nuh) - HSPCB",05-12-2025 07:00:00,27.9002,76.9938,SO2,32,38,35
India,Haryana,Mandikhera,"General Hospital, Mandikhera(Nuh) - HSPCB",05-12-2025 07:00:00,27.9002,76.9938,CO,64,92,80
India,Haryana,Panchkula,"Sector-6, Panchkula - HSPCB ",05-12-2025 07:00:00,30.7057778,76.8531805555555,CO,21,30,22
India,Haryana,Narnaul,"Shastri Nagar, Narnaul - HSPCB",05-12-2025 07:00:00,28.060249,76.113115,PM2.5,141,288,187
India,Haryana,Palwal,"Shyam Nagar, Palwal - HSPCB",05-12-2025 07:00:00,28.1485564,77.3320667,PM10,68,129,109
India,Haryana,Panchgaon,"Amity University, Panchgaon - IITM",05-12-2025 07:00:00,28.3153,76.9143,SO2,3,11,5
India,Haryana,Narnaul,"Shastri Nagar, Narnaul - HSPCB",05-12-2025 07:00:00,28.060249,76.113115,CO,19,58,40
India,Haryana,Manesar,"Sector-2 IMT, Manesar - HSPCB",05-12-2025 07:00:00,28.360699,76.936090,CO,NA,NA,NA
India,Haryana,Palwal,"Shyam Nagar, Palwal - HSPCB",05-12-2025 07:00:00,28.1485564,77.3320667,NH3,8,9,9
India,Haryana,Sirsa,"F-Block, Sirsa - HSPCB",05-12-2025 07:00:00,29.536400,75.015800,CO,29,74,64
India,Karnataka,Bagalkot,"Vidayagiri, Bagalkot - KSPCB",05-12-2025 07:00:00,16.172806,75.659694,OZONE,10,16,15
India,Karnataka,Bengaluru,"BTM Layout, Bengaluru - CPCB",05-12-2025 07:00:00,12.9135218,77.5950804,PM10,76,78,77
India,Karnataka,Bengaluru,"City Railway Station, Bengaluru - KSPCB",05-12-2025 07:00:00,12.9756843,77.5660749,NO2,37,43,40
India,Karnataka,Bengaluru,"City Railway Station, Bengaluru - KSPCB",05-12-2025 07:00:00,12.9756843,77.5660749,SO2,11,17,14
India,Karnataka,Bengaluru,"City Railway Station, Bengaluru - KSPCB",05-12-2025 07:00:00,12.9756843,77.5660749,CO,85,88,86
India,Haryana,Sonipat,"Murthal, Sonipat - HSPCB",05-12-2025 07:00:00,29.027200,77.062100,NH3,18,39,24
India,Haryana,Sonipat,"Murthal, Sonipat - HSPCB",05-12-2025 07:00:00,29.027200,77.062100,CO,28,40,37
India,Himachal Pradesh,Baddi,"HIMUDA Complex Phase-1, Baddi - HPPCB",05-12-2025 07:00:00,30.943887,76.801991,PM2.5,70,362,219
India,Himachal Pradesh,Baddi,"HIMUDA Complex Phase-1, Baddi - HPPCB",05-12-2025 07:00:00,30.943887,76.801991,OZONE,10,151,28
India,Himachal Pradesh,Baddi,"HIMUDA Complex Phase-1, Baddi - HPPCB",05-12-2025 07:00:00,30.943887,76.801991,NO2,30,118,71
India,Karnataka,Bengaluru,"BWSSB Kadabesanahalli, Bengaluru - CPCB",05-12-2025 07:00:00,12.9352049,77.6814488,OZONE,14,44,34
India,Jammu_and_Kashmir,Srinagar,"Rajbagh, Srinagar - JKSPCB",05-12-2025 07:00:00,34.066206,74.819820,PM2.5,112,277,170
India,Jharkhand,Dhanbad,"Sardar Patel Nagar, Dhanbad - JSPCB",05-12-2025 07:00:00,23.80569,86.44268,NO2,94,178,104
India,Karnataka,Bengaluru,"Kasturi Nagar, Bengaluru - KSPCB",05-12-2025 07:00:00,13.003872,77.664217,PM2.5,59,61,60
India,Karnataka,Bengaluru,"Kasturi Nagar, Bengaluru - KSPCB",05-12-2025 07:00:00,13.003872,77.664217,PM10,71,72,71
India,Karnataka,Bengaluru,"Sanegurava Halli, Bengaluru - KSPCB",05-12-2025 07:00:00,12.990328,77.5431385,PM10,54,57,54
India,Karnataka,Bengaluru,"Hombegowda Nagar, Bengaluru - KSPCB",05-12-2025 07:00:00,12.938539,77.590100,PM10,28,51,39
India,Karnataka,Bengaluru,"Kasturi Nagar, Bengaluru - KSPCB",05-12-2025 07:00:00,13.003872,77.664217,OZONE,20,21,20
India,Karnataka,Bengaluru,"RVCE-Mailasandra, Bengaluru - KSPCB",05-12-2025 07:00:00,12.921418,77.502466,NH3,4,5,4
India,Karnataka,Chamarajanagar,"Urban, Chamarajanagar - KSPCB",05-12-2025 07:00:00,11.55358,76.55521,PM2.5,12,46,30
India,Karnataka,Bengaluru,"Silk Board, Bengaluru - KSPCB",05-12-2025 07:00:00,12.917348,77.622813,NO2,10,14,11
India,Karnataka,Bengaluru,"Peenya, Bengaluru - CPCB",05-12-2025 07:00:00,13.0270199,77.494094,CO,6,64,31
India,Karnataka,Dharwad,"Kalabhavan, Dharwad - KSPCB",05-12-2025 07:00:00,15.459706,75.008381,SO2,2,6,3
India,Karnataka,Madikeri,"Stuart Hill, Madikeri - KSPCB",05-12-2025 07:00:00,12.415911,75.735050,PM10,14,86,29
India,Karnataka,Mangalore,"Kadri, Mangalore - KSPCB",05-12-2025 07:00:00,12.889250,74.853000,PM2.5,20,73,36
India,Karnataka,Shivamogga,"Vinoba Nagara, Shivamogga - KSPCB",05-12-2025 07:00:00,13.940000,75.555917,NO2,18,30,21
India,Karnataka,Hubballi,"Lingaraj Nagar, Hubballi - KSPCB",05-12-2025 07:00:00,15.3714823,75.1160168,CO,18,88,22
India,Karnataka,Yadgir,"Collector Office, Yadgir - KSPCB",05-12-2025 07:00:00,16.7602,77.1428,PM2.5,95,160,119
India,Karnataka,Haveri,"Ashwini Nagar, Haveri - KSPCB",05-12-2025 07:00:00,14.791800,75.389600,PM10,59,90,76
India,Karnataka,Hubballi,"Lingaraj Nagar, Hubballi - KSPCB",05-12-2025 07:00:00,15.3714823,75.1160168,SO2,1,1,1
India,Karnataka,Haveri,"Ashwini Nagar, Haveri - KSPCB",05-12-2025 07:00:00,14.791800,75.389600,NO2,51,53,52
India,Karnataka,Mangalore,"Kadri, Mangalore - KSPCB",05-12-2025 07:00:00,12.889250,74.853000,OZONE,4,43,27
India,Karnataka,Haveri,"Ashwini Nagar, Haveri - KSPCB",05-12-2025 07:00:00,14.791800,75.389600,CO,39,39,39
India,Kerala,Thiruvananthapuram,"Plammoodu, Thiruvananthapuram - Kerala PCB",05-12-2025 07:00:00,8.5149093,76.9435879,NO2,10,52,28
India,Kerala,Thiruvananthapuram,"Kariavattom, Thiruvananthapuram - Kerala PCB",05-12-2025 07:00:00,8.563700,76.886500,OZONE,36,37,36
India,Kerala,Thiruvananthapuram,"Plammoodu, Thiruvananthapuram - Kerala PCB",05-12-2025 07:00:00,8.5149093,76.9435879,CO,14,58,16
India,Kerala,Thiruvananthapuram,"Plammoodu, Thiruvananthapuram - Kerala PCB",05-12-2025 07:00:00,8.5149093,76.9435879,SO2,9,20,13
India,Kerala,Thrissur,"Corporation Ground, Thrissur - Kerala PCB",05-12-2025 07:00:00,10.532400,76.215900,NO2,8,10,9
India,Madhya Pradesh,Bhopal,"Idgah Hills, Bhopal - MPPCB",05-12-2025 07:00:00,23.264759,77.381568,CO,20,48,35
India,Karnataka,Yadgir,"Collector Office, Yadgir - KSPCB",05-12-2025 07:00:00,16.7602,77.1428,PM10,86,112,100
India,Kerala,Kannur,"Thavakkara, Kannur - Kerala PCB",05-12-2025 07:00:00,11.875000,75.373200,PM10,50,61,53
India,Kerala,Kollam,"Polayathode, Kollam - Kerala PCB",05-12-2025 07:00:00,8.8787,76.6073,PM2.5,48,185,101
India,Madhya Pradesh,Bhopal,"T T Nagar, Bhopal - MPPCB",05-12-2025 07:00:00,23.233584,77.400574,SO2,5,17,11
India,Madhya Pradesh,Damoh,"Shrivastav Colony, Damoh - MPPCB",05-12-2025 07:00:00,23.81748678,79.446246,CO,18,51,21
India,Madhya Pradesh,Gwalior,"City Center, Gwalior - MPPCB",05-12-2025 07:00:00,26.203442,78.193251,PM10,67,174,125
India,Madhya Pradesh,Gwalior,"City Center, Gwalior - MPPCB",05-12-2025 07:00:00,26.203442,78.193251,NO2,17,138,58
India,Madhya Pradesh,Bhopal,"Paryavaran Parisar, Bhopal - MPPCB",05-12-2025 07:00:00,23.210494,77.425409,PM10,84,196,133
India,Madhya Pradesh,Gwalior,"Deen Dayal Nagar, Gwalior - MPPCB",05-12-2025 07:00:00,26.259242,78.216432,CO,5,132,72
India,Madhya Pradesh,Gwalior,"Deen Dayal Nagar, Gwalior - MPPCB",05-12-2025 07:00:00,26.259242,78.216432,NH3,2,9,5
India,Madhya Pradesh,Indore,"Chhoti Gwaltoli, Indore - MPPCB",05-12-2025 07:00:00,22.4310,75.5213,CO,34,92,45
India,Madhya Pradesh,Indore,"Chhoti Gwaltoli, Indore - MPPCB",05-12-2025 07:00:00,22.4310,75.5213,SO2,4,10,7
India,Madhya Pradesh,Bhopal,"T T Nagar, Bhopal - MPPCB",05-12-2025 07:00:00,23.233584,77.400574,NO2,31,76,52
India,Madhya Pradesh,Indore,"Maguda Nagar, Indore - IMC",05-12-2025 07:00:00,22.7524,75.8872,PM2.5,5,93,64
India,Madhya Pradesh,Jabalpur,"Govindh Bhavan Colony, Jabalpur - JMC",05-12-2025 07:00:00,23.163174,79.973061,PM10,33,105,61
India,Madhya Pradesh,Jabalpur,"Marhatal, Jabalpur - MPPCB",05-12-2025 07:00:00,23.168606,79.932247,PM10,90,176,125
India,Madhya Pradesh,Jabalpur,"Gupteshwar, Jabalpur - JMC",05-12-2025 07:00:00,23.142888,79.916147,NO2,24,100,45
India,Madhya Pradesh,Jabalpur,"Gupteshwar, Jabalpur - JMC",05-12-2025 07:00:00,23.142888,79.916147,CO,37,127,69
India,Madhya Pradesh,Indore,"Residency Area, Indore - IMC",05-12-2025 07:00:00,22.7084,75.8815,PM2.5,32,75,45
India,Madhya Pradesh,Jabalpur,"Marhatal, Jabalpur - MPPCB",05-12-2025 07:00:00,23.168606,79.932247,NO2,11,55,24
India,Madhya Pradesh,Indore,"Residency Area, Indore - IMC",05-12-2025 07:00:00,22.7084,75.8815,SO2,25,28,27
India,Madhya Pradesh,Jabalpur,"Suhagi, Jabalpur - JMC",05-12-2025 07:00:00,23.218135,79.957770,NH3,2,5,4
India,Madhya Pradesh,Jabalpur,"Suhagi, Jabalpur - JMC",05-12-2025 07:00:00,23.218135,79.957770,SO2,6,8,7
India,Maharashtra,Ahmednagar,"Tarakpur, Ahmednagar - MPCB",05-12-2025 07:00:00,19.10122,74.73339,OZONE,10,112,59
India,Maharashtra,Akola,"Ramdaspeth, Akola - MPCB",05-12-2025 07:00:00,20.719516,77.000253,PM10,44,120,71
India,Maharashtra,Akola,"Ramdaspeth, Akola - MPCB",05-12-2025 07:00:00,20.719516,77.000253,NO2,19,89,36
India,Maharashtra,Akola,"Ramdaspeth, Akola - MPCB",05-12-2025 07:00:00,20.719516,77.000253,NH3,4,5,5
India,Maharashtra,Ahmednagar,"Tarakpur, Ahmednagar - MPCB",05-12-2025 07:00:00,19.10122,74.73339,PM2.5,67,115,84
India,Maharashtra,Ahmednagar,"Tarakpur, Ahmednagar - MPCB",05-12-2025 07:00:00,19.10122,74.73339,NO2,12,58,32
India,Madhya Pradesh,Pithampur,"Sector-2 Industrial Area, Pithampur - MPPCB",05-12-2025 07:00:00,22.624758,75.675238,OZONE,24,42,37
India,Madhya Pradesh,Singrauli,"Suryakiran Bhawan NCL, Singrauli - MPPCB",05-12-2025 07:00:00,24.108970,82.645580,NO2,89,125,111
India,Maharashtra,Amravati,"Shri Shivaji Science College, Amravati - MPCB",05-12-2025 07:00:00,20.939198,77.765701,NH3,1,16,4
India,Madhya Pradesh,Ratlam,"Shasthri Nagar, Ratlam - IPCA Lab",05-12-2025 07:00:00,23.331731,75.045981,NO2,9,36,18
India,Madhya Pradesh,Maihar,"Sahilara, Maihar - KJS Cements",05-12-2025 07:00:00,24.2613009,80.7231783,PM2.5,5,48,30
India,Madhya Pradesh,Sagar,"Deen Dayal Nagar, Sagar - MPPCB",05-12-2025 07:00:00,23.8640158,78.80289321,CO,48,67,60
India,Madhya Pradesh,Sagar,"Civil Lines, Sagar - MPPCB",05-12-2025 07:00:00,23.838586,78.759431,OZONE,35,64,50
India,Maharashtra,Aurangabad,"MIDC Chilkalthana, Aurangabad - MPCB",05-12-2025 07:00:00,19.875620,75.387310,PM10,78,121,99
India,Maharashtra,Aurangabad,"MIDC Chilkalthana, Aurangabad - MPCB",05-12-2025 07:00:00,19.875620,75.387310,NO2,18,63,34
India,Maharashtra,Amravati,"Shri Shivaji Science College, Amravati - MPCB",05-12-2025 07:00:00,20.939198,77.765701,SO2,5,60,22
India,Maharashtra,Aurangabad,"More Chowk Waluj, Aurangabad - MPCB",05-12-2025 07:00:00,19.8389439,75.244448,PM2.5,64,216,131
India,Maharashtra,Aurangabad,"More Chowk Waluj, Aurangabad - MPCB",05-12-2025 07:00:00,19.8389439,75.244448,CO,2,111,41
India,Maharashtra,Aurangabad,"Rachnakar Colony, Aurangabad - MPCB",05-12-2025 07:00:00,19.863756,75.321188,NO2,17,22,19
India,Maharashtra,Aurangabad,"More Chowk Waluj, Aurangabad - MPCB",05-12-2025 07:00:00,19.8389439,75.244448,NH3,9,11,11
India,Maharashtra,Aurangabad,"Rachnakar Colony, Aurangabad - MPCB",05-12-2025 07:00:00,19.863756,75.321188,SO2,8,40,19
India,Maharashtra,Aurangabad,"MIDC Chilkalthana, Aurangabad - MPCB",05-12-2025 07:00:00,19.875620,75.387310,SO2,1,2,1
India,Maharashtra,Badlapur,"Katrap, Badlapur - MPCB",05-12-2025 07:00:00,19.16485,73.23409,PM10,73,187,133
India,Maharashtra,Jalgaon,"Prabhat Colony, Jalgaon - MPCB",05-12-2025 07:00:00,21.001264,75.565602,CO,22,52,23
India,Maharashtra,Jalgaon,"Prabhat Colony, Jalgaon - MPCB",05-12-2025 07:00:00,21.001264,75.565602,OZONE,6,91,50
India,Maharashtra,Jalna,"Old MIDC, Jalna - MPCB",05-12-2025 07:00:00,19.854616,75.905894,PM2.5,47,70,57
India,Maharashtra,Chandrapur,"Chauhan Colony, Chandrapur - MPCB",05-12-2025 07:00:00,19.962900,79.298714,NO2,31,34,32
India,Maharashtra,Chandrapur,"Chauhan Colony, Chandrapur - MPCB",05-12-2025 07:00:00,19.962900,79.298714,OZONE,22,22,22
India,Maharashtra,Kalyan,"Pimpleshwar Mandir, Kalyan - MPCB",05-12-2025 07:00:00,19.192056,72.9585188,NH3,3,14,6
India,Maharashtra,Chandrapur,"Chauhan Colony, Chandrapur - MPCB",05-12-2025 07:00:00,19.962900,79.298714,SO2,34,34,34
India,Maharashtra,Jalgaon,"Prabhat Colony, Jalgaon - MPCB",05-12-2025 07:00:00,21.001264,75.565602,NO2,4,33,11
India,Maharashtra,Dhule,"Deopur, Dhule - MPCB",05-12-2025 07:00:00,20.918946,74.776388,PM10,92,186,140
India,Maharashtra,Jalna,"Old MIDC, Jalna - MPCB",05-12-2025 07:00:00,19.854616,75.905894,NO2,8,19,12
India,Maharashtra,Boisar,"Khaira, Boisar - MPCB",05-12-2025 07:00:00,19.786089,72.757971,NO2,7,60,25
India,Maharashtra,Mumbai,"Bandra Kurla Complex, Mumbai - MPCB",05-12-2025 07:00:00,19.065931,72.862131,CO,4,96,47
India,Maharashtra,Mumbai,"Bandra Kurla Complex, Mumbai - MPCB",05-12-2025 07:00:00,19.065931,72.862131,OZONE,1,79,14
India,Maharashtra,Mumbai,"Bandra Kurla Complex, Mumbai - MPCB",05-12-2025 07:00:00,19.065931,72.862131,PM2.5,64,258,130
India,Maharashtra,Kolhapur,"Shivaji University, Kolhapur - MPCB",05-12-2025 07:00:00,16.6870449,74.2505872,NO2,19,112,41
India,Maharashtra,Kolhapur,"Shivaji University, Kolhapur - MPCB",05-12-2025 07:00:00,16.6870449,74.2505872,NH3,3,5,3
India,Maharashtra,Mumbai,"Bandra Kurla Complex, Mumbai - MPCB",05-12-2025 07:00:00,19.065931,72.862131,SO2,6,20,10
India,Maharashtra,Mahad,"Kamble Tarf Birwadi, Mahad - MPCB",05-12-2025 07:00:00,18.1023399,73.4783687,CO,14,43,18
India,Maharashtra,Mahad,"Kamble Tarf Birwadi, Mahad - MPCB",05-12-2025 07:00:00,18.1023399,73.4783687,NH3,3,5,4
India,Maharashtra,Latur,"Sawe Wadi, Latur - MPCB",05-12-2025 07:00:00,18.39963,76.57452,OZONE,60,129,101
India,Maharashtra,Latur,"Sawe Wadi, Latur - MPCB",05-12-2025 07:00:00,18.39963,76.57452,NO2,21,50,28
India,Maharashtra,Mumbai,"Kherwadi_Bandra East, Mumbai - MPCB",05-12-2025 07:00:00,19.0632143,72.8456324,PM10,98,166,135
India,Maharashtra,Mumbai,"Kherwadi_Bandra East, Mumbai - MPCB",05-12-2025 07:00:00,19.0632143,72.8456324,NO2,37,66,52
India,Maharashtra,Mumbai,"Ghatkopar, Mumbai - BMC",05-12-2025 07:00:00,19.083694,72.920967,SO2,1,8,3
India,Maharashtra,Mumbai,"Ghatkopar, Mumbai - BMC",05-12-2025 07:00:00,19.083694,72.920967,CO,14,72,35
India,Maharashtra,Mumbai,"Chakala-Andheri East, Mumbai - IITM",05-12-2025 07:00:00,19.11074,72.86084,PM10,97,153,118
India,Maharashtra,Mumbai,"Kherwadi_Bandra East, Mumbai - MPCB",05-12-2025 07:00:00,19.0632143,72.8456324,CO,24,56,41
India,Maharashtra,Mumbai,"Kandivali West, Mumbai - BMC",05-12-2025 07:00:00,19.215859,72.831718,NO2,10,51,24
India,Maharashtra,Mumbai,"Ghatkopar, Mumbai - BMC",05-12-2025 07:00:00,19.083694,72.920967,PM10,124,214,180
India,Maharashtra,Mumbai,"Chembur, Mumbai - MPCB",05-12-2025 07:00:00,19.0364585,72.8954371,NO2,27,125,66
India,Maharashtra,Mumbai,"Borivali East, Mumbai - MPCB",05-12-2025 07:00:00,19.2243333,72.8658113,NH3,2,2,2
India,Maharashtra,Mumbai,"Deonar, Mumbai - IITM",05-12-2025 07:00:00,19.04946,72.9230,SO2,6,15,9
India,Maharashtra,Mumbai,"Khindipada-Bhandup West, Mumbai - IITM",05-12-2025 07:00:00,19.1653323,72.922099,PM10,89,168,132
India,Maharashtra,Mumbai,"Khindipada-Bhandup West, Mumbai - IITM",05-12-2025 07:00:00,19.1653323,72.922099,NO2,10,33,19
India,Maharashtra,Mumbai,"Khindipada-Bhandup West, Mumbai - IITM",05-12-2025 07:00:00,19.1653323,72.922099,SO2,5,20,12
India,Maharashtra,Mumbai,"Navy Nagar-Colaba, Mumbai - IITM",05-12-2025 07:00:00,18.897756,72.813320,NO2,45,146,94
India,Maharashtra,Mumbai,"Malad West, Mumbai - IITM",05-12-2025 07:00:00,19.19709,72.82204,OZONE,11,78,38
India,Maharashtra,Mumbai,"Mulund West, Mumbai - MPCB",05-12-2025 07:00:00,19.1750,72.9419,NO2,16,18,17
India,Maharashtra,Mumbai,"Kurla, Mumbai - MPCB",05-12-2025 07:00:00,19.0863,72.8888,PM2.5,71,118,85
India,Maharashtra,Mumbai,"Mazgaon, Mumbai - IITM",05-12-2025 07:00:00,18.96702,72.84214,CO,27,83,78
India,Maharashtra,Mumbai,"Mulund West, Mumbai - MPCB",05-12-2025 07:00:00,19.1750,72.9419,NH3,3,4,4
India,Maharashtra,Mumbai,"Kurla, Mumbai - MPCB",05-12-2025 07:00:00,19.0863,72.8888,OZONE,28,29,28
India,Maharashtra,Mumbai,"Sewri, Mumbai - BMC",05-12-2025 07:00:00,19.000084,72.856730,NO2,1,53,18
India,Maharashtra,Mumbai,"Sewri, Mumbai - BMC",05-12-2025 07:00:00,19.000084,72.856730,CO,1,100,30
India,Maharashtra,Nagpur,"Opp GPO Civil Lines, Nagpur - MPCB",05-12-2025 07:00:00,21.152875,79.0517531,PM2.5,39,132,82
India,Maharashtra,Mumbai,"Siddharth Nagar-Worli, Mumbai - IITM",05-12-2025 07:00:00,19.000083,72.813993,PM10,98,172,133
India,Maharashtra,Mumbai,"Siddharth Nagar-Worli, Mumbai - IITM",05-12-2025 07:00:00,19.000083,72.813993,NH3,4,9,6
India,Maharashtra,Nagpur,"Opp GPO Civil Lines, Nagpur - MPCB",05-12-2025 07:00:00,21.152875,79.0517531,NH3,1,12,5
India,Maharashtra,Mumbai,"Vile Parle West, Mumbai - MPCB",05-12-2025 07:00:00,19.10861,72.83622,CO,18,26,24
India,Maharashtra,Mumbai,"Vile Parle West, Mumbai - MPCB",05-12-2025 07:00:00,19.10861,72.83622,NH3,1,5,4
India,Maharashtra,Mumbai,"Shivaji Nagar, Mumbai - BMC",05-12-2025 07:00:00,19.060498,72.923356,NH3,2,16,4
India,Maharashtra,Mumbai,"Sion, Mumbai - MPCB",05-12-2025 07:00:00,19.047000,72.874600,NH3,5,7,6
India,Maharashtra,Navi Mumbai,"Sanpada, Navi Mumbai - MPCB",05-12-2025 07:00:00,19.0575752,73.0151367,PM2.5,75,134,104
India,Maharashtra,Navi Mumbai,"Sanpada, Navi Mumbai - MPCB",05-12-2025 07:00:00,19.0575752,73.0151367,NH3,3,9,6
India,Maharashtra,Navi Mumbai,"Kopripada-Vashi, Navi Mumbai - MPCB",05-12-2025 07:00:00,19.090337,73.014232,NO2,11,68,35
India,Maharashtra,Navi Mumbai,"Mahape, Navi Mumbai - MPCB",05-12-2025 07:00:00,19.1135051,73.008978,PM10,105,157,124
India,Maharashtra,Nashik,"Pandav Nagari, Nashik - MPCB",05-12-2025 07:00:00,19.9591346,73.7788008,NH3,2,7,4
India,Maharashtra,Navi Mumbai,"Nerul, Navi Mumbai - MPCB",05-12-2025 07:00:00,19.008751,73.016620,NO2,35,38,36
India,Maharashtra,Nashik,"Hirawadi, Nashik - MPCB",05-12-2025 07:00:00,20.021503,73.813844,PM2.5,43,153,96
India,Maharashtra,Nagpur,"Ram Nagar, Nagpur - MPCB",05-12-2025 07:00:00,21.143383,79.048912,NO2,12,57,25
India,Maharashtra,Nagpur,"Ram Nagar, Nagpur - MPCB",05-12-2025 07:00:00,21.143383,79.048912,NH3,2,11,4
India,Maharashtra,Navi Mumbai,"Nerul, Navi Mumbai - MPCB",05-12-2025 07:00:00,19.008751,73.016620,NH3,4,4,4
India,Maharashtra,Navi Mumbai,"Sector-2E Kalamboli, Navi Mumbai - MPCB",05-12-2025 07:00:00,19.02579,73.10297,SO2,1,11,6
India,Maharashtra,Navi Mumbai,"Sector-2E Kalamboli, Navi Mumbai - MPCB",05-12-2025 07:00:00,19.02579,73.10297,CO,5,84,17
India,Maharashtra,Pimpri-Chinchwad,"Park Street Wakad, Pimpri Chinchwad - MPCB",05-12-2025 07:00:00,18.59051,73.77946,PM10,114,256,155
India,Maharashtra,Pimpri-Chinchwad,"Savta Mali Nagar, Pimpri-Chinchwad - IITM",05-12-2025 07:00:00,18.614767,73.799516,CO,31,94,38
India,Maharashtra,Pimpri-Chinchwad,"Park Street Wakad, Pimpri Chinchwad - MPCB",05-12-2025 07:00:00,18.59051,73.77946,SO2,3,20,9
India,Maharashtra,Pimpri-Chinchwad,"Thergaon, Pimpri Chinchwad - MPCB",05-12-2025 07:00:00,18.616318,73.765797,PM10,124,162,141
India,Maharashtra,Pimpri-Chinchwad,"Thergaon, Pimpri Chinchwad - MPCB",05-12-2025 07:00:00,18.616318,73.765797,CO,20,103,41
India,Maharashtra,Navi Mumbai,"Tondare-Taloja, Navi Mumbai - MPCB",05-12-2025 07:00:00,19.0630,73.1209,PM2.5,66,179,120
India,Maharashtra,Navi Mumbai,"Tondare-Taloja, Navi Mumbai - MPCB",05-12-2025 07:00:00,19.0630,73.1209,SO2,2,3,2
India,Maharashtra,Parbhani,"Masoom Colony, Parbhani - MPCB",05-12-2025 07:00:00,19.265594,76.761463,OZONE,10,10,10
India,Maharashtra,Pune,"Revenue Colony-Shivajinagar, Pune - IITM",05-12-2025 07:00:00,18.530085,73.849598,NO2,61,137,106
India,Maharashtra,Pune,"Savitribai Phule Pune University, Pune - MPCB",05-12-2025 07:00:00,18.547056,73.826908,SO2,1,4,2
India,Maharashtra,Pune,"Bhumkar Nagar, Pune - IITM",05-12-2025 07:00:00,18.605770,73.749976,PM2.5,238,370,308
India,Maharashtra,Sangli,"Vijay Nagar, Sangli - MPCB",05-12-2025 07:00:00, 16.5038,74.3623,PM2.5,134,289,190
India,Maharashtra,Pune,"Mhada Colony, Pune - IITM",05-12-2025 07:00:00,18.573040,73.927715,PM10,136,228,171
India,Maharashtra,Pune,"Katraj Dairy, Pune - MPCB",05-12-2025 07:00:00,18.454450,73.854155,PM2.5,54,84,64
India,Maharashtra,Pune,"Bhumkar Nagar, Pune - IITM",05-12-2025 07:00:00,18.605770,73.749976,OZONE,2,58,20
India,Maharashtra,Pune,"Katraj Dairy, Pune - MPCB",05-12-2025 07:00:00,18.454450,73.854155,CO,32,95,52
India,Maharashtra,Pune,"Mhada Colony, Pune - IITM",05-12-2025 07:00:00,18.573040,73.927715,CO,4,60,12
India,Odisha,Barbil,"Forest Office, Barbil - OSPCB",05-12-2025 07:00:00,22.1166054,85.3945546,NH3,1,2,2
India,Odisha,Barbil,"Forest Office, Barbil - OSPCB",05-12-2025 07:00:00,22.1166054,85.3945546,SO2,6,28,11
India,Odisha,Baripada,"Meher Colony, Baripada - OSPCB",05-12-2025 07:00:00,21.941841,86.728318,PM2.5,106,195,156
India,Odisha,Baripada,"Meher Colony, Baripada - OSPCB",05-12-2025 07:00:00,21.941841,86.728318,NO2,13,76,38
India,Odisha,Baripada,"Meher Colony, Baripada - OSPCB",05-12-2025 07:00:00,21.941841,86.728318,NH3,1,5,4
India,Maharashtra,Solapur,"Ratandeep Housing Society, Solapur - MPCB",05-12-2025 07:00:00,17.65439,75.90649,OZONE,4,172,45
India,Maharashtra,Thane,"Kasarvadavali, Thane - MPCB",05-12-2025 07:00:00,19.26777,72.97182,PM10,72,148,106
India,Maharashtra,Thane,"Kasarvadavali, Thane - MPCB",05-12-2025 07:00:00,19.26777,72.97182,NH3,2,22,7
India,Maharashtra,Thane,"Kasarvadavali, Thane - MPCB",05-12-2025 07:00:00,19.26777,72.97182,SO2,8,21,14
India,Maharashtra,Thane,"Upvan Fort, Thane - MPCB",05-12-2025 07:00:00,19.222279,72.957979,CO,8,45,17
India,Maharashtra,Thane,"Upvan Fort, Thane - MPCB",05-12-2025 07:00:00,19.222279,72.957979,OZONE,7,98,53
India,Odisha,Bhubaneswar,"Lingraj Mandir, Bhubaneswar - OSPCB",05-12-2025 07:00:00,20.240790,85.836784,OZONE,3,304,46
India,Odisha,Bhubaneswar,"Patia, Bhubaneswar - OSPCB",05-12-2025 07:00:00,20.34652,85.81630,PM2.5,167,335,252
India,Maharashtra,Ulhasnagar,"Sidhi Vinayak Nagar, Ulhasnagar - MPCB",05-12-2025 07:00:00,19.235581,73.159121,OZONE,13,108,14
India,Maharashtra,Solapur,"Ratandeep Housing Society, Solapur - MPCB",05-12-2025 07:00:00,17.65439,75.90649,PM2.5,73,132,94
India,Maharashtra,Ulhasnagar,"Sidhi Vinayak Nagar, Ulhasnagar - MPCB",05-12-2025 07:00:00,19.235581,73.159121,SO2,3,64,14
India,Nagaland,Kohima,"PWD Junction, Kohima - NPCB",05-12-2025 07:00:00,25.6635413,94.0989878,NH3,1,1,1
India,Odisha,Angul,"Hakimapada, Angul - OSPCB",05-12-2025 07:00:00,20.832874,85.104082,NH3,7,9,8
India,Odisha,Byasanagar,"Ferro Chrome Colony, Byasanagar - OSPCB",05-12-2025 07:00:00,20.94185,86.11510,NO2,11,32,16
India,Odisha,Cuttack,"CDA Area, Cuttack - OSPCB",05-12-2025 07:00:00,20.48891     ,85.84768     ,PM2.5,203,356,287
India,Odisha,Brajrajnagar,"GM Office, Brajrajnagar - OSPCB",05-12-2025 07:00:00,21.8004996,83.8396977,PM2.5,34,169,67
India,Odisha,Brajrajnagar,"GM Office, Brajrajnagar - OSPCB",05-12-2025 07:00:00,21.8004996,83.8396977,SO2,17,18,17
India,Odisha,Brajrajnagar,"GM Office, Brajrajnagar - OSPCB",05-12-2025 07:00:00,21.8004996,83.8396977,OZONE,25,28,27
India,Odisha,Rairangpur,"Divisional Forest Office, Rairangpur - OSPCB",05-12-2025 07:00:00,22.265816,86.174829,CO,32,69,44
India,Odisha,Rourkela,"Fertilizer Township, Rourkela - OSPCB",05-12-2025 07:00:00,22.18972222,84.86277778,CO,9,59,29
India,Odisha,Cuttack,"CDA Area, Cuttack - OSPCB",05-12-2025 07:00:00,20.48891     ,85.84768     ,OZONE,5,169,20
India,Odisha,Bileipada,"Tata Township, Bileipada - OSPCB",05-12-2025 07:00:00,22.06156703,85.47409613,NH3,4,4,4
India,Odisha,Keonjhar,"Jagamohanpur, Keonjhar - OSPCB",05-12-2025 07:00:00,21.643900,85.599355,CO,1,127,81
India,Odisha,Bhubaneswar,"Patia, Bhubaneswar - OSPCB",05-12-2025 07:00:00,20.34652,85.81630,NO2,18,98,38
India,Odisha,Nayagarh,"Dabuna, Nayagarh - OSPCB",05-12-2025 07:00:00,21.847279,85.416905,NH3,6,7,6
India,Odisha,Tensa,"Barsua Iron Ore Mines, Tensa - OSPCB",05-12-2025 07:00:00,21.869985,85.167016,OZONE,12,49,27
India,Puducherry,Puducherry,"Jawahar Nagar, Puducherry - PPCC",05-12-2025 07:00:00,11.9309,79.8027,NH3,1,11,2
India,Punjab,Jalandhar,"Civil Line, Jalandhar - PPCB",05-12-2025 07:00:00,31.321907,75.578914,CO,53,66,57
India,Punjab,Jalandhar,"Civil Line, Jalandhar - PPCB",05-12-2025 07:00:00,31.321907,75.578914,OZONE,39,53,41
India,Punjab,Ludhiana,"Punjab Agricultural University, Ludhiana - PPCB",05-12-2025 07:00:00,30.9028,75.8086,PM10,117,162,137
India,Punjab,Amritsar,"Golden Temple, Amritsar - PPCB",05-12-2025 07:00:00,31.620000,74.876512,PM2.5,52,324,185
India,Odisha,Talcher,"Talcher Coalfields,Talcher - OSPCB",05-12-2025 07:00:00,20.9360711,85.1707021,NO2,57,99,80
India,Odisha,Rourkela,"Raghunathpali, Rourkela - OSPCB",05-12-2025 07:00:00,22.220833,84.809444,OZONE,7,20,8
India,Punjab,Amritsar,"Golden Temple, Amritsar - PPCB",05-12-2025 07:00:00,31.620000,74.876512,CO,32,100,42
India,Odisha,Rourkela,"Raghunathpali, Rourkela - OSPCB",05-12-2025 07:00:00,22.220833,84.809444,NO2,1,12,7
India,Odisha,Rourkela,"Raghunathpali, Rourkela - OSPCB",05-12-2025 07:00:00,22.220833,84.809444,SO2,2,6,3
India,Punjab,Mandi Gobindgarh,"RIMT University, Mandi Gobindgarh - PPCB",05-12-2025 07:00:00,30.649961,76.331442,PM2.5,92,394,253
India,Punjab,Mandi Gobindgarh,"RIMT University, Mandi Gobindgarh - PPCB",05-12-2025 07:00:00,30.649961,76.331442,NO2,23,24,24
India,Punjab,Mandi Gobindgarh,"RIMT University, Mandi Gobindgarh - PPCB",05-12-2025 07:00:00,30.649961,76.331442,SO2,9,17,12
India,Rajasthan,Banswara,"Rati Talai, Banswara - RSPCB",05-12-2025 07:00:00,23.555190,74.440010,PM2.5,52,333,91
India,Rajasthan,Banswara,"Rati Talai, Banswara - RSPCB",05-12-2025 07:00:00,23.555190,74.440010,PM10,90,369,130
India,Rajasthan,Alwar,"Moti Doongri, Alwar - RSPCB",05-12-2025 07:00:00,27.554793,76.611536,PM2.5,52,94,68
India,Punjab,Patiala,"Model Town, Patiala - PPCB",05-12-2025 07:00:00,30.349388,76.366642,PM10,97,148,123
India,Rajasthan,Alwar,"Moti Doongri, Alwar - RSPCB",05-12-2025 07:00:00,27.554793,76.611536,SO2,18,53,34
India,Rajasthan,Ajmer,"Civil Lines,  Ajmer - RSPCB",05-12-2025 07:00:00,26.470859,74.646594,NH3,3,4,4
India,Rajasthan,Bhiwadi,"RIICO Ind. Area III, Bhiwadi - RSPCB",05-12-2025 07:00:00,28.194909,76.862296,NH3,9,23,15
India,Rajasthan,Bhiwadi,"RIICO Ind. Area III, Bhiwadi - RSPCB",05-12-2025 07:00:00,28.194909,76.862296,SO2,11,28,16
India,Rajasthan,Bhiwadi,"Vasundhara Nagar_UIT, Bhiwadi - RSPCB",05-12-2025 07:00:00,28.207266,76.829265,CO,40,150,115
India,Rajasthan,Bhiwadi,"Vasundhara Nagar_UIT, Bhiwadi - RSPCB",05-12-2025 07:00:00,28.207266,76.829265,NH3,1,5,4
India,Rajasthan,Bhilwara,"Pratap Nagar, Bhilwara - RSPCB",05-12-2025 07:00:00,25.339605,74.618883,CO,19,108,43
India,Rajasthan,Bhilwara,"Pratap Nagar, Bhilwara - RSPCB",05-12-2025 07:00:00,25.339605,74.618883,NH3,7,20,12
India,Rajasthan,Banswara,"Rati Talai, Banswara - RSPCB",05-12-2025 07:00:00,23.555190,74.440010,SO2,5,29,11
India,Rajasthan,Banswara,"Rati Talai, Banswara - RSPCB",05-12-2025 07:00:00,23.555190,74.440010,CO,22,79,32
India,Rajasthan,Barmer,"Railway Colony, Barmer - RSPCB",05-12-2025 07:00:00,25.747299,71.393989,CO,12,37,16
India,Rajasthan,Baran,"Bamboliya, Baran - RSPCB",05-12-2025 07:00:00,25.106006,76.469948,OZONE,3,152,10
India,Rajasthan,Dungarpur,"Bhoiwada, Dungarpur - RSPCB",05-12-2025 07:00:00,23.837789,73.714926,SO2,1,5,3
India,Rajasthan,Dungarpur,"Bhoiwada, Dungarpur - RSPCB",05-12-2025 07:00:00,23.837789,73.714926,OZONE,4,113,11
India,Rajasthan,Dungarpur,"Bhoiwada, Dungarpur - RSPCB",05-12-2025 07:00:00,23.837789,73.714926,NO2,12,64,24
India,Rajasthan,Dungarpur,"Bhoiwada, Dungarpur - RSPCB",05-12-2025 07:00:00,23.837789,73.714926,NH3,5,7,6
India,Rajasthan,Bikaner,"MM Ground, Bikaner - RSPCB",05-12-2025 07:00:00,28.018792,73.292658,NO2,26,157,90
India,Rajasthan,Bikaner,"MM Ground, Bikaner - RSPCB",05-12-2025 07:00:00,28.018792,73.292658,CO,18,134,52
India,Rajasthan,Chittorgarh,"Shastri Nagar, Chittorgarh - RSPCB",05-12-2025 07:00:00,24.892047,74.623527,SO2,2,104,17
India,Rajasthan,Hanumangarh,"Housing Board, Hanumangarh - RSPCB",05-12-2025 07:00:00,29.610750,74.283608,NH3,12,17,15
India,Rajasthan,Bikaner,"MM Ground, Bikaner - RSPCB",05-12-2025 07:00:00,28.018792,73.292658,OZONE,1,148,35
India,Rajasthan,Dholpur,"Raja Ganj, Dholpur - RSPCB",05-12-2025 07:00:00,26.699557,77.898881,NO2,11,31,14
India,Rajasthan,Churu,"Subash Chowk, Churu - RSPCB",05-12-2025 07:00:00,28.296139,74.961696,CO,4,110,40
India,Rajasthan,Bundi,"New Colony, Bundi - RSPCB",05-12-2025 07:00:00,25.435774,75.644272,NO2,14,98,37
India,Rajasthan,Jaipur,"Police Commissionerate, Jaipur - RSPCB",05-12-2025 07:00:00,26.9164092,75.7994901,PM2.5,53,173,89
India,Rajasthan,Jaipur,"Police Commissionerate, Jaipur - RSPCB",05-12-2025 07:00:00,26.9164092,75.7994901,PM10,59,172,104
India,Rajasthan,Jhunjhunu,"Indra Nagar, Jhunjhunu - RSPCB",05-12-2025 07:00:00,28.108988,75.386577,PM10,78,430,173
India,Rajasthan,Jhunjhunu,"Indra Nagar, Jhunjhunu - RSPCB",05-12-2025 07:00:00,28.108988,75.386577,NO2,11,110,58
India,Rajasthan,Jaipur,"RIICO Sitapura, Jaipur - RSPCB",05-12-2025 07:00:00,26.786682,75.827928,PM10,92,466,209
India,Rajasthan,Jaipur,"RIICO Sitapura, Jaipur - RSPCB",05-12-2025 07:00:00,26.786682,75.827928,NO2,28,168,87
India,Rajasthan,Jaipur,"Adarsh Nagar, Jaipur - RSPCB",05-12-2025 07:00:00,26.902909,75.836858,NH3,11,54,30
India,Rajasthan,Jaipur,"Adarsh Nagar, Jaipur - RSPCB",05-12-2025 07:00:00,26.902909,75.836858,CO,32,118,54
India,Rajasthan,Jaipur,"Mansarovar Sector-12, Jaipur - RSPCB",05-12-2025 07:00:00,26.843698,75.766894,PM2.5,48,394,202
India,Rajasthan,Jaipur,"Police Commissionerate, Jaipur - RSPCB",05-12-2025 07:00:00,26.9164092,75.7994901,CO,42,72,58
India,Rajasthan,Jaipur,"Shastri Nagar, Jaipur - RSPCB",05-12-2025 07:00:00,26.9502929,75.730943,PM2.5,76,333,187
India,Rajasthan,Jaipur,"Shastri Nagar, Jaipur - RSPCB",05-12-2025 07:00:00,26.9502929,75.730943,NO2,51,135,86
India,Rajasthan,Jaipur,"Adarsh Nagar, Jaipur - RSPCB",05-12-2025 07:00:00,26.902909,75.836858,NO2,26,129,84
India,Rajasthan,Jodhpur,"Mandor, Jodhpur - RSPCB",05-12-2025 07:00:00,26.358805,73.047444,OZONE,7,132,35
India,Rajasthan,Jodhpur,"Samrat Ashok Udhyan, Jodhpur - RSPCB",05-12-2025 07:00:00,26.253384,72.976571,NO2,17,124,51
India,Rajasthan,Karauli,"Satyawati Vihar, Karauli - RSPCB",05-12-2025 07:00:00,26.506177,77.025989,PM10,46,158,94
India,Rajasthan,Jhunjhunu,"Indra Nagar, Jhunjhunu - RSPCB",05-12-2025 07:00:00,28.108988,75.386577,OZONE,3,139,18
India,Rajasthan,Jodhpur,"Collectorate, Jodhpur - RSPCB",05-12-2025 07:00:00,26.268249,73.0193853,PM2.5,53,230,131
India,Rajasthan,Jodhpur,"Mandor, Jodhpur - RSPCB",05-12-2025 07:00:00,26.358805,73.047444,NO2,9,104,36
India,Rajasthan,Jodhpur,"Mandor, Jodhpur - RSPCB",05-12-2025 07:00:00,26.358805,73.047444,CO,14,36,29
India,Rajasthan,Jodhpur,"Collectorate, Jodhpur - RSPCB",05-12-2025 07:00:00,26.268249,73.0193853,PM10,42,248,121
India,Rajasthan,Jhunjhunu,"Indra Nagar, Jhunjhunu - RSPCB",05-12-2025 07:00:00,28.108988,75.386577,CO,21,114,56
India,Rajasthan,Jhunjhunu,"Indra Nagar, Jhunjhunu - RSPCB",05-12-2025 07:00:00,28.108988,75.386577,SO2,2,24,7
India,Rajasthan,Jodhpur,"Digari Kalan, Jodhpur - RSPCB",05-12-2025 07:00:00,26.295810,73.082283,NO2,6,77,36
India,Rajasthan,Jodhpur,"Collectorate, Jodhpur - RSPCB",05-12-2025 07:00:00,26.268249,73.0193853,NH3,4,18,10
India,Rajasthan,Jodhpur,"Collectorate, Jodhpur - RSPCB",05-12-2025 07:00:00,26.268249,73.0193853,SO2,3,21,10
India,Rajasthan,Kota,"Nayapura, Kota - RSPCB",05-12-2025 07:00:00,25.196024,75.855668,OZONE,4,158,6
India,Rajasthan,Kota,"Shrinath Puram, Kota - RSPCB",05-12-2025 07:00:00,25.14389,75.821256,PM2.5,110,322,205
India,Rajasthan,Kota,"Shrinath Puram, Kota - RSPCB",05-12-2025 07:00:00,25.14389,75.821256,OZONE,10,25,18
India,Rajasthan,Pali,"Indira Colony Vistar, Pali - RSPCB",05-12-2025 07:00:00,25.771061, 73.340227,CO,11,67,42
India,Rajasthan,Pratapgarh,"Pragati Nagar, Pratapgarh - RSPCB",05-12-2025 07:00:00,24.041198,74.780702,NH3,4,8,6
India,Rajasthan,Rajsamand,"Dhoinda, Rajsamand - RSPCB",05-12-2025 07:00:00,25.036360,73.883502,PM2.5,82,309,169
India,Rajasthan,Karauli,"Satyawati Vihar, Karauli - RSPCB",05-12-2025 07:00:00,26.506177,77.025989,SO2,1,12,5
India,Rajasthan,Nagaur,"Karni Colony, Nagaur - RSPCB",05-12-2025 07:00:00,27.213494,73.734444,SO2,3,14,6
India,Rajasthan,Kota,"Dhanmandi, Kota - RSPCB",05-12-2025 07:00:00,25.164090,75.858137,PM2.5,67,323,202
India,Rajasthan,Kota,"Dhanmandi, Kota - RSPCB",05-12-2025 07:00:00,25.164090,75.858137,OZONE,9,156,11
India,Rajasthan,Kota,"Nayapura, Kota - RSPCB",05-12-2025 07:00:00,25.196024,75.855668,NO2,20,122,65
India,Rajasthan,Sikar,"Radhakishan Pura, Sikar - RSPCB",05-12-2025 07:00:00,27.608912,75.153302,SO2,1,10,5
India,Rajasthan,Sirohi,"Vedhaynath Colony, Sirohi - RSPCB",05-12-2025 07:00:00,24.885261,72.857549,PM10,73,141,110
India,Rajasthan,Sirohi,"Vedhaynath Colony, Sirohi - RSPCB",05-12-2025 07:00:00,24.885261,72.857549,NO2,11,104,51
India,Rajasthan,Sri Ganganagar,"Old City, Sri Ganganagar - RSPCB",05-12-2025 07:00:00,29.931624,73.864511,NO2,35,148,88
India,Rajasthan,Sri Ganganagar,"Old City, Sri Ganganagar - RSPCB",05-12-2025 07:00:00,29.931624,73.864511,NH3,3,29,15
India,Rajasthan,Sawai Madhopur,"Sahu Nagar, Sawai Madhopur - RSPCB",05-12-2025 07:00:00,26.031443,76.359327,OZONE,2,99,7
India,Rajasthan,Sawai Madhopur,"Sahu Nagar, Sawai Madhopur - RSPCB",05-12-2025 07:00:00,26.031443,76.359327,SO2,1,16,5
India,Rajasthan,Sri Ganganagar,"Old City, Sri Ganganagar - RSPCB",05-12-2025 07:00:00,29.931624,73.864511,CO,24,168,80
India,Rajasthan,Sirohi,"Vedhaynath Colony, Sirohi - RSPCB",05-12-2025 07:00:00,24.885261,72.857549,OZONE,11,95,40
India,Rajasthan,Rajsamand,"Dhoinda, Rajsamand - RSPCB",05-12-2025 07:00:00,25.036360,73.883502,OZONE,4,178,14
India,Rajasthan,Sikar,"Radhakishan Pura, Sikar - RSPCB",05-12-2025 07:00:00,27.608912,75.153302,NH3,6,19,12
India,Rajasthan,Tonk,"Shastri Nagar, Tonk - RSPCB",05-12-2025 07:00:00,26.159933,75.780517,NO2,17,113,42
India,TamilNadu,Chennai,"Velachery Res. Area, Chennai - CPCB",05-12-2025 07:00:00,13.0052189,80.2398125,PM2.5,21,51,35
India,Rajasthan,Udaipur,"Ashok Nagar, Udaipur - RSPCB",05-12-2025 07:00:00,24.5886166,73.6321397,PM2.5,84,302,158
India,Sikkim,Gangtok,"Zero Point GICI, Gangtok - SSPCB",05-12-2025 07:00:00,27.338530,88.614099,PM10,34,69,46
India,Sikkim,Gangtok,"Zero Point GICI, Gangtok - SSPCB",05-12-2025 07:00:00,27.338530,88.614099,CO,6,20,10
India,Rajasthan,Tonk,"Shastri Nagar, Tonk - RSPCB",05-12-2025 07:00:00,26.159933,75.780517,CO,33,126,42
India,TamilNadu,Chennai,"Perungudi, Chennai - TNPCB",05-12-2025 07:00:00,12.9533,80.2357,CO,38,78,65
India,TamilNadu,Chennai,"Perungudi, Chennai - TNPCB",05-12-2025 07:00:00,12.9533,80.2357,PM10,NA,NA,NA
India,TamilNadu,Chennai,"Manali, Chennai - CPCB",05-12-2025 07:00:00,13.164544,80.26285,PM10,NA,NA,NA
India,TamilNadu,Chennai,"Manali, Chennai - CPCB",05-12-2025 07:00:00,13.164544,80.26285,NH3,NA,NA,NA
India,TamilNadu,Karur,"Kamadenu Nagar, Karur - TNPCB",05-12-2025 07:00:00,10.967820,78.080882,PM2.5,7,67,32
India,TamilNadu,Karur,"Kamadenu Nagar, Karur - TNPCB",05-12-2025 07:00:00,10.967820,78.080882,SO2,14,21,15
India,TamilNadu,Madurai,"Uchapatti, Madurai - TNPCB",05-12-2025 07:00:00,9.865935,78.022669,PM10,19,112,57
India,TamilNadu,Coimbatore,"SIDCO Kurichi, Coimbatore - TNPCB",05-12-2025 07:00:00,10.942451,76.978996,SO2,22,23,22
India,TamilNadu,Coimbatore,"SIDCO Kurichi, Coimbatore - TNPCB",05-12-2025 07:00:00,10.942451,76.978996,OZONE,4,47,6
India,TamilNadu,Coimbatore,"PSG College of Arts and Science, Coimbatore - TNPCB",05-12-2025 07:00:00,11.0328,77.0349,NH3,1,1,1
India,TamilNadu,Coimbatore,"PSG College of Arts and Science, Coimbatore - TNPCB",05-12-2025 07:00:00,11.0328,77.0349,SO2,3,4,4
India,TamilNadu,Madurai,"Uchapatti, Madurai - TNPCB",05-12-2025 07:00:00,9.865935,78.022669,SO2,33,36,34
India,TamilNadu,Madurai,"Uchapatti, Madurai - TNPCB",05-12-2025 07:00:00,9.865935,78.022669,CO,12,16,13
India,TamilNadu,Chennai,"Velachery Res. Area, Chennai - CPCB",05-12-2025 07:00:00,13.0052189,80.2398125,PM10,66,100,80
India,TamilNadu,Chennai,"Velachery Res. Area, Chennai - CPCB",05-12-2025 07:00:00,13.0052189,80.2398125,CO,35,48,38
India,TamilNadu,Nagapattinam,"Velippalayam, Nagapattinam - TNPCB",05-12-2025 07:00:00,10.798548,79.838212,NH3,2,2,2
India,TamilNadu,Cuddalore,"Semmandalam, Cuddalore - TNPCB",05-12-2025 07:00:00,11.7637683,79.7499835,NH3,1,3,2
India,TamilNadu,Coimbatore,"SIDCO Kurichi, Coimbatore - TNPCB",05-12-2025 07:00:00,10.942451,76.978996,NH3,1,1,1
India,TamilNadu,Perundurai,"SIPCOT Industrial Park, Perundurai - TNPCB",05-12-2025 07:00:00,11.258242,77.552761,CO,30,42,42
India,TamilNadu,Perundurai,"SIPCOT Industrial Park, Perundurai - TNPCB",05-12-2025 07:00:00,11.258242,77.552761,OZONE,18,28,18
India,Telangana,Hyderabad,"Bollaram Industrial Area, Hyderabad - TSPCB",05-12-2025 07:00:00,17.540891,78.358528,NH3,2,5,4
India,Telangana,Hyderabad,"Bollaram Industrial Area, Hyderabad - TSPCB",05-12-2025 07:00:00,17.540891,78.358528,SO2,3,8,6
India,TamilNadu,Tirunelveli,"Municipal Corporation Office, Tirunelveli - TNPCB",05-12-2025 07:00:00,8.728442,77.6962,NO2,6,18,11
India,TamilNadu,Perundurai,"SIPCOT Industrial Park, Perundurai - TNPCB",05-12-2025 07:00:00,11.258242,77.552761,PM2.5,20,50,34
India,TamilNadu,Virudhunagar,"Collectorate Office, Virudhunagar - TNPCB",05-12-2025 07:00:00,9.559382,77.948828,PM2.5,23,55,36
India,Telangana,Hyderabad,"ICRISAT Patancheru, Hyderabad - TSPCB",05-12-2025 07:00:00,17.518400,78.278777,PM2.5,108,189,148
India,Telangana,Hyderabad,"Central University, Hyderabad - TSPCB",05-12-2025 07:00:00,17.460103,78.334361,OZONE,6,27,22
India,TamilNadu,Ramanathapuram,"Chalai Bazaar, Ramanathapuram - TNPCB",05-12-2025 07:00:00,9.36399,78.831977,NO2,2,5,4
India,TamilNadu,Thoothukudi,"Meelavittan, Thoothukudi - TNPCB",05-12-2025 07:00:00,8.816428 ,78.099039,NO2,8,13,11
India,Telangana,Hyderabad,"New Malakpet, Hyderabad - TSPCB",05-12-2025 07:00:00,17.37206,78.50864,NO2,13,20,17
India,Telangana,Hyderabad,"New Malakpet, Hyderabad - TSPCB",05-12-2025 07:00:00,17.37206,78.50864,SO2,13,18,16
India,Telangana,Hyderabad,"New Malakpet, Hyderabad - TSPCB",05-12-2025 07:00:00,17.37206,78.50864,OZONE,11,28,21
India,Telangana,Hyderabad,"Ramachandrapuram, Hyderabad - TSPCB",05-12-2025 07:00:00,17.528544,78.286195,OZONE,22,33,23
India,Telangana,Hyderabad,"Kokapet, Hyderabad - TSPCB",05-12-2025 07:00:00,17.393559,78.339194,NH3,2,3,2
India,Telangana,Hyderabad,"Kompally Municipal Office, Hyderabad - TSPCB",05-12-2025 07:00:00,17.544899,78.486949,PM2.5,44,58,50
India,Telangana,Hyderabad,"Nacharam_TSIIC IALA, Hyderabad - TSPCB",05-12-2025 07:00:00,17.429398,78.569354,PM10,71,97,80
India,Telangana,Hyderabad,"ICRISAT Patancheru, Hyderabad - TSPCB",05-12-2025 07:00:00,17.518400,78.278777,SO2,4,104,25
India,Telangana,Hyderabad,"Nacharam_TSIIC IALA, Hyderabad - TSPCB",05-12-2025 07:00:00,17.429398,78.569354,NH3,4,6,5
India,Telangana,Hyderabad,"ICRISAT Patancheru, Hyderabad - TSPCB",05-12-2025 07:00:00,17.518400,78.278777,NH3,2,7,4
India,Telangana,Hyderabad,"IITH Kandi, Hyderabad - TSPCB",05-12-2025 07:00:00,17.585705,78.126199,PM10,58,184,96
India,Telangana,Hyderabad,"Somajiguda, Hyderabad - TSPCB",05-12-2025 07:00:00,17.417094,78.457437,CO,23,38,28
India,Tripura,Agartala,"Bardowali, Agartala - Tripura SPCB",05-12-2025 07:00:00,23.8175497,91.2726974,NO2,13,13,13
India,Uttar_Pradesh,Bareilly,"Rajendra Nagar, Bareilly - UPPCB",05-12-2025 07:00:00,28.38910936,79.42963708,PM10,69,160,112
India,Uttar_Pradesh,Bareilly,"Rajendra Nagar, Bareilly - UPPCB",05-12-2025 07:00:00,28.38910936,79.42963708,NO2,9,10,10
India,Uttar_Pradesh,Agra,"Shahjahan Garden, Agra - UPPCB",05-12-2025 07:00:00,27.169338,78.03582,PM10,108,266,171
India,Uttar_Pradesh,Agra,"Shahjahan Garden, Agra - UPPCB",05-12-2025 07:00:00,27.169338,78.03582,NO2,20,21,21
India,Uttar_Pradesh,Bareilly,"Civil Lines, Bareilly - UPPCB",05-12-2025 07:00:00,28.359581,79.414455,OZONE,16,55,32
India,Uttar_Pradesh,Bareilly,"Civil Lines, Bareilly - UPPCB",05-12-2025 07:00:00,28.359581,79.414455,PM10,52,83,64
India,Uttar_Pradesh,Agra,"Sanjay Palace, Agra - UPPCB",05-12-2025 07:00:00,27.19865833,78.00598056,OZONE,NA,NA,NA
India,Tripura,Agartala,"Bardowali, Agartala - Tripura SPCB",05-12-2025 07:00:00,23.8175497,91.2726974,OZONE,2,7,2
India,Tripura,Agartala,"Bardowali, Agartala - Tripura SPCB",05-12-2025 07:00:00,23.8175497,91.2726974,SO2,6,8,7
India,Uttar_Pradesh,Agra,"Rohta, Agra - UPPCB",05-12-2025 07:00:00,27.106972,78.000111,CO,20,80,47
India,Uttar_Pradesh,Agra,"Manoharpur, Agra - UPPCB",05-12-2025 07:00:00,27.23711,78.01936,NO2,NA,NA,NA
India,Uttar_Pradesh,Greater Noida,"Knowledge Park - III, Greater Noida - UPPCB",05-12-2025 07:00:00,28.47272,77.482000,PM2.5,118,337,270
India,Uttar_Pradesh,Bulandshahr,"Yamunapuram, Bulandshahr - UPPCB",05-12-2025 07:00:00,28.406963,77.849831,PM2.5,110,358,271
India,Uttar_Pradesh,Firozabad,"Nagla Bhau, Firozabad - UPPCB",05-12-2025 07:00:00,27.168897,78.376960,PM2.5,35,104,70
India,Uttar_Pradesh,Ghaziabad,"Indirapuram, Ghaziabad - UPPCB",05-12-2025 07:00:00,28.646233,77.358075,NO2,30,123,76
India,Uttar_Pradesh,Firozabad,"Nagla Bhau, Firozabad - UPPCB",05-12-2025 07:00:00,27.168897,78.376960,SO2,22,28,25
India,Uttar_Pradesh,Firozabad,"Nagla Bhau, Firozabad - UPPCB",05-12-2025 07:00:00,27.168897,78.376960,CO,20,26,23
India,Uttar_Pradesh,Ghaziabad,"Vasundhara, Ghaziabad - UPPCB",05-12-2025 07:00:00,28.6603346,77.3572563,SO2,NA,NA,NA
India,Uttar_Pradesh,Firozabad,"Vibhab Nagar, Firozabad - UPPCB",05-12-2025 07:00:00,27.1594,78.3953,PM2.5,NA,NA,NA
India,Uttar_Pradesh,Ghaziabad,"Loni, Ghaziabad - UPPCB",05-12-2025 07:00:00,28.757294,77.278792,NH3,3,31,11
India,Uttar_Pradesh,Greater Noida,"Knowledge Park - III, Greater Noida - UPPCB",05-12-2025 07:00:00,28.47272,77.482000,NO2,24,112,61
India,Uttar_Pradesh,Greater Noida,"Knowledge Park - III, Greater Noida - UPPCB",05-12-2025 07:00:00,28.47272,77.482000,NH3,6,11,8
India,Uttar_Pradesh,Greater Noida,"Knowledge Park - V, Greater Noida - UPPCB",05-12-2025 07:00:00,28.557054,77.453663,PM10,200,407,280
India,Uttar_Pradesh,Lucknow,"B R Ambedkar University, Lucknow - UPPCB",05-12-2025 07:00:00,26.766433,80.927299,PM2.5,57,340,153
India,Uttar_Pradesh,Greater Noida,"Knowledge Park - V, Greater Noida - UPPCB",05-12-2025 07:00:00,28.557054,77.453663,OZONE,3,158,4
India,Uttar_Pradesh,Greater Noida,"Knowledge Park - V, Greater Noida - UPPCB",05-12-2025 07:00:00,28.557054,77.453663,CO,40,118,63
India,Uttar_Pradesh,Kanpur,"Nehru Nagar, Kanpur - UPPCB",05-12-2025 07:00:00,26.4703136,80.3229863,PM2.5,37,309,99
India,Uttar_Pradesh,Khurja,"Kalindi Kunj, Khurja - UPPCB",05-12-2025 07:00:00,28.2348927,77.8683002,CO,30,74,61
India,Uttar_Pradesh,Kanpur,"Nehru Nagar, Kanpur - UPPCB",05-12-2025 07:00:00,26.4703136,80.3229863,SO2,6,17,12
India,Uttar_Pradesh,Khurja,"Kalindi Kunj, Khurja - UPPCB",05-12-2025 07:00:00,28.2348927,77.8683002,NO2,6,7,7
India,Uttar_Pradesh,Lucknow,"Kukrail Picnic Spot-1, Lucknow - UPPCB",05-12-2025 07:00:00,26.90723,80.98579,SO2,41,53,44
India,Uttar_Pradesh,Lucknow,"Kukrail Picnic Spot-1, Lucknow - UPPCB",05-12-2025 07:00:00,26.90723,80.98579,CO,10,18,14
India,Uttar_Pradesh,Lucknow,"Talkatora District Industries Center, Lucknow - CPCB",05-12-2025 07:00:00,26.83399722,80.8917361,PM10,16,175,134
India,Uttar_Pradesh,Lucknow,"Kendriya Vidyalaya, Lucknow - CPCB",05-12-2025 07:00:00,26.906111,80.948222,CO,30,80,54
India,Uttar_Pradesh,Lucknow,"Gomti Nagar, Lucknow - UPPCB",05-12-2025 07:00:00,26.868120,81.005119,PM10,66,126,97
India,Uttar_Pradesh,Lucknow,"Lalbagh, Lucknow - CPCB",05-12-2025 07:00:00,26.8458805,80.9365541,PM2.5,48,314,189
India,Uttar_Pradesh,Lucknow,"Gomti Nagar, Lucknow - UPPCB",05-12-2025 07:00:00,26.868120,81.005119,SO2,9,11,10
India,Uttar_Pradesh,Lucknow,"Lalbagh, Lucknow - CPCB",05-12-2025 07:00:00,26.8458805,80.9365541,PM10,61,354,171
India,Uttar_Pradesh,Lucknow,"Lalbagh, Lucknow - CPCB",05-12-2025 07:00:00,26.8458805,80.9365541,OZONE,23,83,51
India,Uttar_Pradesh,Lucknow,"Gomti Nagar, Lucknow - UPPCB",05-12-2025 07:00:00,26.868120,81.005119,NO2,6,8,7
India,Uttar_Pradesh,Meerut,"Pallavpuram Phase 2, Meerut - UPPCB",05-12-2025 07:00:00,29.063510,77.709723,PM2.5,100,411,288
India,Uttar_Pradesh,Moradabad,"Buddhi Vihar, Moradabad - UPPCB",05-12-2025 07:00:00,28.83526,78.74460,PM2.5,37,151,95
India,Uttar_Pradesh,Moradabad,"Buddhi Vihar, Moradabad - UPPCB",05-12-2025 07:00:00,28.83526,78.74460,NO2,29,29,29
India,Uttar_Pradesh,Lucknow,"Talkatora District Industries Center, Lucknow - CPCB",05-12-2025 07:00:00,26.83399722,80.8917361,CO,18,36,25
India,Uttar_Pradesh,Meerut,"Ganga Nagar, Meerut - UPPCB",05-12-2025 07:00:00,28.999264,77.7590354,PM2.5,80,316,207
India,Uttar_Pradesh,Muzaffarnagar,"New Mandi, Muzaffarnagar - UPPCB",05-12-2025 07:00:00,29.4723508,77.7194031,PM10,108,202,152
India,Uttar_Pradesh,Muzaffarnagar,"New Mandi, Muzaffarnagar - UPPCB",05-12-2025 07:00:00,29.4723508,77.7194031,NO2,32,100,55
India,Uttar_Pradesh,Moradabad,"Kashiram Nagar, Moradabad - UPPCB",05-12-2025 07:00:00,28.849399,78.742362,NH3,4,4,4
India,Uttar_Pradesh,Moradabad,"Kashiram Nagar, Moradabad - UPPCB",05-12-2025 07:00:00,28.849399,78.742362,SO2,10,105,49
India,Uttar_Pradesh,Moradabad,"Eco Herbal Park, Moradabad - UPPCB",05-12-2025 07:00:00,28.840739,78.697531,SO2,10,47,20
India,Uttar_Pradesh,Moradabad,"Transport Nagar, Moradabad - UPPCB",05-12-2025 07:00:00,28.802625,78.753728,NO2,29,30,30
India,Uttar_Pradesh,Meerut,"Jai Bhim Nagar, Meerut - UPPCB",05-12-2025 07:00:00,28.9535882,77.7622941,SO2,5,25,15
India,Uttar_Pradesh,Moradabad,"Kashiram Nagar, Moradabad - UPPCB",05-12-2025 07:00:00,28.849399,78.742362,NO2,25,25,25
India,Uttar_Pradesh,Noida,"Sector - 125, Noida - UPPCB",05-12-2025 07:00:00,28.5447608,77.3231257,NO2,33,158,99
India,Uttar_Pradesh,Prayagraj,"Motilal Nehru NIT, Prayagraj - UPPCB",05-12-2025 07:00:00,25.494,81.863,PM10,46,106,77
India,Uttar_Pradesh,Prayagraj,"Motilal Nehru NIT, Prayagraj - UPPCB",05-12-2025 07:00:00,25.494,81.863,NH3,8,8,8
India,Uttar_Pradesh,Prayagraj,"Nagar Nigam, Prayagraj - UPPCB",05-12-2025 07:00:00,25.44919916 ,81.82735986 ,PM2.5,42,182,117
India,Uttar_Pradesh,Prayagraj,"Nagar Nigam, Prayagraj - UPPCB",05-12-2025 07:00:00,25.44919916 ,81.82735986 ,PM10,47,110,81
India,Uttar_Pradesh,Prayagraj,"Motilal Nehru NIT, Prayagraj - UPPCB",05-12-2025 07:00:00,25.494,81.863,PM2.5,48,151,105
India,Uttar_Pradesh,Noida,"Sector - 62, Noida - IMD",05-12-2025 07:00:00,28.6245479,77.3577104,PM2.5,142,355,286
India,Uttar_Pradesh,Noida,"Sector - 62, Noida - IMD",05-12-2025 07:00:00,28.6245479,77.3577104,CO,36,98,85
India,Uttar_Pradesh,Noida,"Sector-116, Noida - UPPCB",05-12-2025 07:00:00,28.569230,77.393848,CO,30,132,86
India,Uttar_Pradesh,Noida,"Sector-116, Noida - UPPCB",05-12-2025 07:00:00,28.569230,77.393848,SO2,6,22,13
India,Uttar_Pradesh,Prayagraj,"Jhunsi, Prayagraj - UPPCB",05-12-2025 07:00:00,25.425602,81.917152,NO2,6,6,6
India,Uttar_Pradesh,Noida,"Sector-1, Noida - UPPCB",05-12-2025 07:00:00,28.5898,77.3101,OZONE,6,87,6
India,Uttarakhand,Dehradun,"Doon University, Dehradun - UKPCB",05-12-2025 07:00:00,30.269444,78.044167,CO,38,44,40
India,Uttarakhand,Kashipur,"Govt. Girls Inter College, Kashipur - UKPCB",05-12-2025 07:00:00,29.2124114,78.9611753,PM2.5,149,303,223
India,Uttarakhand,Kashipur,"Govt. Girls Inter College, Kashipur - UKPCB",05-12-2025 07:00:00,29.2124114,78.9611753,CO,29,41,34
India,Uttarakhand,Kashipur,"Govt. Girls Inter College, Kashipur - UKPCB",05-12-2025 07:00:00,29.2124114,78.9611753,OZONE,1,6,1
India,Uttar_Pradesh,Varanasi,"IESD Banaras Hindu University, Varanasi - UPPCB",05-12-2025 07:00:00,25.262326,82.995408,PM2.5,15,116,60
India,Uttar_Pradesh,Varanasi,"IESD Banaras Hindu University, Varanasi - UPPCB",05-12-2025 07:00:00,25.262326,82.995408,NO2,2,2,2
India,Uttar_Pradesh,Prayagraj,"Nagar Nigam, Prayagraj - UPPCB",05-12-2025 07:00:00,25.44919916 ,81.82735986 ,SO2,21,99,42
India,Uttar_Pradesh,Varanasi,"Ardhali Bazar, Varanasi - UPPCB",05-12-2025 07:00:00,25.3505986,82.9083074,PM10,41,171,112
India,Uttarakhand,Rishikesh,"Shivaji Nagar, Rishikesh - UKPCB",05-12-2025 07:00:00,30.075911,78.2859547,OZONE,17,17,17
India,West_Bengal,Asansol,"Asansol Court Area, Asansol - WBPCB",05-12-2025 07:00:00,23.685297,86.945968,NH3,2,9,5
India,Uttar_Pradesh,Varanasi,"Maldahiya, Varanasi - UPPCB",05-12-2025 07:00:00,25.32393,82.99687,CO,14,34,28
India,West_Bengal,Asansol,"Trivenidevi Bhalotia College, Asansol - WBPCB",05-12-2025 07:00:00,23.616515,87.119133,PM10,88,154,120
India,West_Bengal,Asansol,"Trivenidevi Bhalotia College, Asansol - WBPCB",05-12-2025 07:00:00,23.616515,87.119133,NO2,20,51,36
India,West_Bengal,Asansol,"Trivenidevi Bhalotia College, Asansol - WBPCB",05-12-2025 07:00:00,23.616515,87.119133,NH3,6,7,6
India,West_Bengal,Asansol,"Trivenidevi Bhalotia College, Asansol - WBPCB",05-12-2025 07:00:00,23.616515,87.119133,SO2,1,5,2
India,West_Bengal,Durgapur,"Mahishkapur Road_B-Zone, Durgapur - WBPCB",05-12-2025 07:00:00,23.567923,87.306843,CO,42,97,49
India,West_Bengal,Durgapur,"PCBL Residential Complex, Durgapur - WBPCB",05-12-2025 07:00:00,23.5087640,87.3544400,PM10,77,160,108
India,West_Bengal,Durgapur,"Womens College_City Center, Durgapur - WBPCB (Formerly known as Sidhu Kanhu Indoor Stadium)",05-12-2025 07:00:00,23.549395,87.300496,SO2,15,34,23
India,West_Bengal,Asansol,"Evelyn Lodge, Asansol - WBPCB",05-12-2025 07:00:00,23.6979360,86.9443950,NO2,9,35,24
India,West_Bengal,Asansol,"Evelyn Lodge, Asansol - WBPCB",05-12-2025 07:00:00,23.6979360,86.9443950,NH3,4,5,4
India,West_Bengal,Durgapur,"Mahishkapur Road_B-Zone, Durgapur - WBPCB",05-12-2025 07:00:00,23.567923,87.306843,PM2.5,66,222,122
India,West_Bengal,Durgapur,"Mahishkapur Road_B-Zone, Durgapur - WBPCB",05-12-2025 07:00:00,23.567923,87.306843,NO2,11,77,39
India,West_Bengal,Haldia,"Priyambada Housing Estate, Haldia - WBPCB",05-12-2025 07:00:00,22.06047,88.109737,CO,32,78,53
India,West_Bengal,Barrackpore,"SVSPA Campus, Barrackpore - WBPCB",05-12-2025 07:00:00,22.7605581,88.3617589,CO,54,100,76
India,West_Bengal,Durgapur,"Mahishkapur Road_B-Zone, Durgapur - WBPCB",05-12-2025 07:00:00,23.567923,87.306843,NH3,2,2,2
India,West_Bengal,Kolkata,"Rabindra Bharati University, Kolkata - WBPCB",05-12-2025 07:00:00,22.627847,88.380669,OZONE,18,124,33
India,West_Bengal,Kolkata,"Rabindra Bharati University, Kolkata - WBPCB",05-12-2025 07:00:00,22.627847,88.380669,NO2,38,111,64
India,West_Bengal,Kolkata,"Bidhannagar, Kolkata - WBPCB",05-12-2025 07:00:00,22.58157048,88.41002457,NH3,10,27,14
India,West_Bengal,Kolkata,"Rabindra Sarobar, Kolkata - WBPCB",05-12-2025 07:00:00,22.51106,88.35142,NH3,9,30,14
India,West_Bengal,Howrah,"Padmapukur, Howrah - WBPCB",05-12-2025 07:00:00,22.5687319,88.2797276,OZONE,3,112,12
India,West_Bengal,Howrah,"Padmapukur, Howrah - WBPCB",05-12-2025 07:00:00,22.5687319,88.2797276,SO2,4,10,7
India,West_Bengal,Howrah,"Dasnagar, Howrah - WBPCB",05-12-2025 07:00:00,22.6025571,88.3105664,SO2,9,52,26
India,West_Bengal,Kolkata,"Jadavpur, Kolkata - WBPCB",05-12-2025 07:00:00,22.49929,88.36917,CO,44,104,84
India,West_Bengal,Howrah,"Ghusuri, Howrah - WBPCB",05-12-2025 07:00:00,22.611968,88.347422,CO,18,92,45
India,West_Bengal,Kolkata,"Victoria, Kolkata - WBPCB",05-12-2025 07:00:00,22.5448082,88.3403691,SO2,2,21,10
India,West_Bengal,Kolkata,"Victoria, Kolkata - WBPCB",05-12-2025 07:00:00,22.5448082,88.3403691,CO,40,96,60
India,West_Bengal,Siliguri,"Ward-32 Bapupara, Siliguri - WBPCB",05-12-2025 07:00:00,26.6879226,88.4152495,CO,31,109,62
India,Andhra_Pradesh,Vijayawada,"Rajiv Gandhi Park, Vijayawada - APPCB",05-12-2025 07:00:00,16.509717,80.612222,PM10,84,117,98
India,Andhra_Pradesh,Vijayawada,"Rajiv Gandhi Park, Vijayawada - APPCB",05-12-2025 07:00:00,16.509717,80.612222,CO,24,32,24
India,Andhra_Pradesh,Chittoor,"Gangineni Cheruvu, Chittoor - APPCB",05-12-2025 07:00:00,13.204880,79.097889,PM2.5,37,76,54
India,Andhra_Pradesh,Visakhapatnam,"GVM Corporation, Visakhapatnam - APPCB",05-12-2025 07:00:00,17.72,83.3,SO2,16,102,32
India,Andhra_Pradesh,Tirupati,"Vaikuntapuram, Tirupati - APPCB",05-12-2025 07:00:00,13.615387,79.409230,PM2.5,50,58,54
India,Andhra_Pradesh,Amaravati,"Secretariat, Amaravati - APPCB",05-12-2025 07:00:00,16.5150833,80.5181667,NH3,1,5,4
India,Andhra_Pradesh,Anantapur,"Gulzarpet, Anantapur - APPCB",05-12-2025 07:00:00,14.675886,77.593027,PM10,43,110,80
India,Arunachal_Pradesh,Naharlagun,"Naharlagun, Naharlagun - APSPCB",05-12-2025 07:00:00,27.103358,93.679645,NO2,6,7,6
India,Andhra_Pradesh,Kadapa,"Yerramukkapalli, Kadapa - APPCB",05-12-2025 07:00:00,14.465052,78.824187,CO,NA,NA,NA
India,Andhra_Pradesh,Vijayawada,"Kanuru, Vijayawada - APPCB",05-12-2025 07:00:00,16.486692,80.699436,PM2.5,NA,NA,NA
India,Andhra_Pradesh,Tirumala,"Toll Gate, Tirumala - APPCB",05-12-2025 07:00:00,13.67,79.35,PM2.5,16,102,52
India,Assam,Byrnihat,"Central Academy for SFS, Byrnihat - PCBA",05-12-2025 07:00:00,26.071318,91.87488,NH3,4,4,4
India,Assam,Byrnihat,"Central Academy for SFS, Byrnihat - PCBA",05-12-2025 07:00:00,26.071318,91.87488,SO2,5,8,6
India,Assam,Byrnihat,"Central Academy for SFS, Byrnihat - PCBA",05-12-2025 07:00:00,26.071318,91.87488,OZONE,15,24,17
India,Assam,Guwahati,"IITG, Guwahati - PCBA",05-12-2025 07:00:00,26.2028636,91.70046436,NH3,5,5,5
India,Assam,Guwahati,"LGBI Airport, Guwahati - PCBA",05-12-2025 07:00:00,26.10887,91.589544,NH3,2,12,5
India,Assam,Guwahati,"Pan Bazaar, Guwahati - PCBA",05-12-2025 07:00:00,26.187500,91.744194,OZONE,17,29,19
India,Assam,Nagaon,"Christianpatty, Nagaon - PCBA",05-12-2025 07:00:00,26.349082,92.68449,PM10,56,58,57
India,Bihar,Araria,"Kharahiya Basti, Araria - BSPCB",05-12-2025 07:00:00,26.146529,87.454184,PM10,22,169,104
India,Bihar,Araria,"Kharahiya Basti, Araria - BSPCB",05-12-2025 07:00:00,26.146529,87.454184,NO2,1,27,9
India,Assam,Silchar,"Tarapur, Silchar - PCBA",05-12-2025 07:00:00,24.82827,92.79525,SO2,4,7,6
India,Assam,Silchar,"Tarapur, Silchar - PCBA",05-12-2025 07:00:00,24.82827,92.79525,CO,14,59,31
India,Assam,Nalbari,"Bata Chowk, Nalbari - PCBA",05-12-2025 07:00:00,26.446912,91.439057,NO2,13,15,14
India,Assam,Nalbari,"Bata Chowk, Nalbari - PCBA",05-12-2025 07:00:00,26.446912,91.439057,SO2,7,9,8
India,Assam,Sivasagar,"Girls College, Sivasagar - PCBA",05-12-2025 07:00:00,26.987634,94.636574,PM10,39,88,56
India,Assam,Sivasagar,"Girls College, Sivasagar - PCBA",05-12-2025 07:00:00,26.987634,94.636574,OZONE,4,85,5
India,Assam,Sivasagar,"Girls College, Sivasagar - PCBA",05-12-2025 07:00:00,26.987634,94.636574,SO2,8,12,10
India,Assam,Guwahati,"IITG, Guwahati - PCBA",05-12-2025 07:00:00,26.2028636,91.70046436,OZONE,NA,NA,NA
India,Bihar,Bettiah,"Kamalnath Nagar, Bettiah - BSPCB",05-12-2025 07:00:00,26.80365,84.51954,PM10,50,157,103
India,Bihar,Bettiah,"Kamalnath Nagar, Bettiah - BSPCB",05-12-2025 07:00:00,26.80365,84.51954,CO,56,114,90
India,Bihar,Bettiah,"Kamalnath Nagar, Bettiah - BSPCB",05-12-2025 07:00:00,26.80365,84.51954,OZONE,22,23,23
India,Bihar,Bhagalpur,"DM Office_Kachari Chowk, Bhagalpur - BSPCB",05-12-2025 07:00:00,25.251013,86.989001,PM2.5,38,157,81
India,Bihar,Bihar Sharif,"D M Colony, Bihar Sharif - BSPCB",05-12-2025 07:00:00,25.204762,85.514960,PM2.5,52,230,125
India,Bihar,Bihar Sharif,"D M Colony, Bihar Sharif - BSPCB",05-12-2025 07:00:00,25.204762,85.514960,PM10,41,123,84
India,Bihar,Arrah,"New DM Office, Arrah - BSPCB",05-12-2025 07:00:00,25.5626095,84.663264,NO2,5,9,7
India,Bihar,Arrah,"New DM Office, Arrah - BSPCB",05-12-2025 07:00:00,25.5626095,84.663264,NH3,1,1,1
India,Bihar,Bhagalpur,"DM Office_Kachari Chowk, Bhagalpur - BSPCB",05-12-2025 07:00:00,25.251013,86.989001,CO,16,20,17
India,Bihar,Aurangabad,"Gurdeo Nagar, Aurangabad - BSPCB",05-12-2025 07:00:00,24.75746,84.366208,PM2.5,18,123,55
India,Bihar,Begusarai,"Lohiyanagar, Begusarai - BSPCB",05-12-2025 07:00:00,25.42742023,86.13886079,OZONE,1,50,18
India,Bihar,Arrah,"New DM Office, Arrah - BSPCB",05-12-2025 07:00:00,25.5626095,84.663264,PM2.5,40,233,137
India,Bihar,Begusarai,"Lohiyanagar, Begusarai - BSPCB",05-12-2025 07:00:00,25.42742023,86.13886079,SO2,1,33,13
India,Bihar,Aurangabad,"Gurdeo Nagar, Aurangabad - BSPCB",05-12-2025 07:00:00,24.75746,84.366208,NH3,1,2,2
India,Bihar,Motihari,"Gandak Colony, Motihari - BSPCB",05-12-2025 07:00:00,26.63086,84.90051,OZONE,3,5,3
India,Bihar,Munger,"Town Hall, Munger - BSPCB",05-12-2025 07:00:00,25.376776,86.471523,PM2.5,42,200,124
India,Bihar,Muzaffarpur,"Buddha Colony, Muzaffarpur - BSPCB",05-12-2025 07:00:00,26.11442,85.39813,PM2.5,43,205,124
India,Bihar,Manguraha,"Forest Rest House, Manguraha - BSPCB",05-12-2025 07:00:00,27.308328,84.531742,OZONE,9,19,10
India,Bihar,Motihari,"Gandak Colony, Motihari - BSPCB",05-12-2025 07:00:00,26.63086,84.90051,PM2.5,27,153,83
India,Bihar,Muzaffarpur,"Muzaffarpur Collectorate, Muzaffarpur - BSPCB",05-12-2025 07:00:00,26.1209,85.3647,PM2.5,90,127,110
India,Bihar,Muzaffarpur,"Muzaffarpur Collectorate, Muzaffarpur - BSPCB",05-12-2025 07:00:00,26.1209,85.3647,NO2,8,15,10
India,Bihar,Gaya,"Kareemganj, Gaya - BSPCB",05-12-2025 07:00:00,24.792403,84.992416,PM10,104,308,189
India,Bihar,Gaya,"Kareemganj, Gaya - BSPCB",05-12-2025 07:00:00,24.792403,84.992416,NO2,3,7,4
India,Bihar,Katihar,"Mirchaibari, Katihar - BSPCB",05-12-2025 07:00:00,25.560083,87.553265,NO2,13,19,16
India,Bihar,Katihar,"Mirchaibari, Katihar - BSPCB",05-12-2025 07:00:00,25.560083,87.553265,NH3,1,1,1
India,Bihar,Patna,"DRM Office Danapur, Patna - BSPCB",05-12-2025 07:00:00,25.586562,85.043586,PM2.5,39,307,127
India,Bihar,Chhapra,"Darshan Nagar, Chhapra - BSPCB",05-12-2025 07:00:00,25.7808257,84.7446768,PM2.5,20,88,49
India,Bihar,Buxar,"Charitra Van, Buxar - BSPCB",05-12-2025 07:00:00,25.567520,83.966379,PM2.5,72,193,129
India,Bihar,Gaya,"Kareemganj, Gaya - BSPCB",05-12-2025 07:00:00,24.792403,84.992416,NH3,4,6,5
India,Bihar,Patna,"Rajbansi Nagar, Patna - BSPCB",05-12-2025 07:00:00,25.599486,85.113666,PM10,54,114,90
India,Bihar,Patna,"Rajbansi Nagar, Patna - BSPCB",05-12-2025 07:00:00,25.599486,85.113666,CO,12,100,45
India,Bihar,Patna,"IGSC Planetarium Complex, Patna - BSPCB",05-12-2025 07:00:00,25.610369,85.132568,PM2.5,41,249,127
India,Bihar,Patna,"Govt. High School Shikarpur, Patna - BSPCB",05-12-2025 07:00:00,25.592539,85.227158,SO2,9,14,11
India,Bihar,Samastipur,"DM Office_Kasipur, Samastipur - BSPCB",05-12-2025 07:00:00,25.859655,85.77944,PM10,16,114,51
India,Bihar,Siwan,"Chitragupta Nagar, Siwan - BSPCB",05-12-2025 07:00:00,26.2271665,84.3570427,PM2.5,13,88,58
India,Bihar,Saharsa,"Police Line, Saharsa - BSPCB",05-12-2025 07:00:00,25.892357,86.590325,OZONE,9,11,10
India,Bihar,Rajgir,"Dangi Tola, Rajgir - BSPCB",05-12-2025 07:00:00,25.03280,85.41948,PM2.5,47,207,105
India,Bihar,Patna,"Samanpura, Patna - BSPCB",05-12-2025 07:00:00,25.596727,85.085624,OZONE,20,87,23
India,Bihar,Patna,"Muradpur, Patna - BSPCB",05-12-2025 07:00:00,25.619651,85.147382,NH3,4,5,5
India,Chhattisgarh,Bhilai,"Civic Center, Bhilai - Bhilai Steel Plant",05-12-2025 07:00:00,21.185571,81.343175,OZONE,4,15,12
India,Chhattisgarh,Bilaspur,"Mangala, Bilaspur - NTPC",05-12-2025 07:00:00,22.08815,82.13737,SO2,6,14,10
India,Chhattisgarh,Chhal,"Nawapara SECL Colony, Chhal - CECB",05-12-2025 07:00:00,22.118125,83.140608,PM10,29,185,65
India,Chhattisgarh,Chhal,"Nawapara SECL Colony, Chhal - CECB",05-12-2025 07:00:00,22.118125,83.140608,SO2,2,11,8
India,Chhattisgarh,Chhal,"Nawapara SECL Colony, Chhal - CECB",05-12-2025 07:00:00,22.118125,83.140608,OZONE,2,137,13
India,Chhattisgarh,Korba,"Rampur, Korba - CECB",05-12-2025 07:00:00,22.368195,82.746431,PM10,72,86,85
India,Chhattisgarh,Bhilai,"32Bungalows, Bhilai - CECB",05-12-2025 07:00:00,21.194815,81.314770,NH3,1,3,2
India,Chhattisgarh,Bhilai,"Civic Center, Bhilai - Bhilai Steel Plant",05-12-2025 07:00:00,21.185571,81.343175,PM10,23,137,58
India,Chhattisgarh,Raipur,"Krishak Nagar, Raipur - CECB",05-12-2025 07:00:00,21.237755,81.705301,CO,22,38,33
India,Chhattisgarh,Raipur,"Krishak Nagar, Raipur - CECB",05-12-2025 07:00:00,21.237755,81.705301,OZONE,NA,NA,NA
India,Chandigarh,Chandigarh,"Sector 22, Chandigarh - CPCC",05-12-2025 07:00:00,30.735567,76.775714,PM10,NA,NA,NA
India,Chandigarh,Chandigarh,"Sector 22, Chandigarh - CPCC",05-12-2025 07:00:00,30.735567,76.775714,NH3,NA,NA,NA
India,Chhattisgarh,Kunjemura,"OP Jindal School, Kunjemura - CECB",05-12-2025 07:00:00,22.126650,83.483212,PM2.5,32,57,44
India,Chhattisgarh,Kunjemura,"OP Jindal School, Kunjemura - CECB",05-12-2025 07:00:00,22.126650,83.483212,NO2,11,43,26
India,Chhattisgarh,Raipur,"Krishak Nagar, Raipur - CECB",05-12-2025 07:00:00,21.237755,81.705301,PM2.5,44,75,57
India,Chhattisgarh,Korba,"Urja Nagar, Korba - CECB",05-12-2025 07:00:00,22.348441,82.549611,NO2,42,60,48
India,Chandigarh,Chandigarh,"Sector-53, Chandigarh - CPCC",05-12-2025 07:00:00,30.719859,76.738637,NH3,5,8,6
India,Chhattisgarh,Raipur,"Siltara Phase-II, Raipur - CECB",05-12-2025 07:00:00,21.371751,81.664929,OZONE,3,3,3
India,Chhattisgarh,Tumidih,"OP Jindal Industrial Park, Tumidih - CECB",05-12-2025 07:00:00,22.06631475,83.33820077,PM2.5,NA,NA,NA
India,Delhi,Delhi,"Anand Vihar, Delhi - DPCC",05-12-2025 07:00:00,28.647622,77.3158090,PM10,145,463,287
India,Delhi,Delhi,"Anand Vihar, Delhi - DPCC",05-12-2025 07:00:00,28.647622,77.3158090,SO2,37,44,41
India,Chhattisgarh,Tumidih,"OP Jindal Industrial Park, Tumidih - CECB",05-12-2025 07:00:00,22.06631475,83.33820077,SO2,NA,NA,NA
India,Chhattisgarh,Raipur,"Siltara Phase-II, Raipur - CECB",05-12-2025 07:00:00,21.371751,81.664929,NH3,3,3,3
India,Delhi,Delhi,"Ashok Vihar, Delhi - DPCC",05-12-2025 07:00:00,28.695381,77.181665,PM2.5,226,418,341
India,Delhi,Delhi,"Ashok Vihar, Delhi - DPCC",05-12-2025 07:00:00,28.695381,77.181665,CO,28,124,66
India,Delhi,Delhi,"Alipur, Delhi - DPCC",05-12-2025 07:00:00,28.815329,77.153010,PM2.5,163,442,324
India,Delhi,Delhi,"Bawana, Delhi - DPCC",05-12-2025 07:00:00,28.776200,77.051074,CO,49,107,77
India,Delhi,Delhi,"Alipur, Delhi - DPCC",05-12-2025 07:00:00,28.815329,77.153010,NH3,7,21,13
India,Delhi,Delhi,"Dr. Karni Singh Shooting Range, Delhi - DPCC",05-12-2025 07:00:00,28.498571,77.264840,PM10,165,352,240
India,Delhi,Delhi,"Dr. Karni Singh Shooting Range, Delhi - DPCC",05-12-2025 07:00:00,28.498571,77.264840,NH3,8,11,10
India,Delhi,Delhi,"Dwarka-Sector 8, Delhi - DPCC ",05-12-2025 07:00:00,28.5710274,77.0719006,PM2.5,217,402,343
India,Delhi,Delhi,"CRRI Mathura Road, Delhi - IMD",05-12-2025 07:00:00,28.5512005,77.2735737,PM10,159,376,238
India,Delhi,Delhi,"Chandni Chowk, Delhi - IITM",05-12-2025 07:00:00,28.656756,77.227234,NH3,8,11,9
India,Delhi,Delhi,"IIT Delhi, Delhi - IITM",05-12-2025 07:00:00,28.542460,77.191651,PM10,148,278,204
India,Delhi,Delhi,"IIT Delhi, Delhi - IITM",05-12-2025 07:00:00,28.542460,77.191651,NO2,47,99,67
India,Delhi,Delhi,"IIT Delhi, Delhi - IITM",05-12-2025 07:00:00,28.542460,77.191651,CO,10,62,61
India,Delhi,Delhi,"Dwarka-Sector 8, Delhi - DPCC ",05-12-2025 07:00:00,28.5710274,77.0719006,CO,38,130,89
India,Delhi,Delhi,"Dwarka-Sector 8, Delhi - DPCC ",05-12-2025 07:00:00,28.5710274,77.0719006,OZONE,1,114,1
India,Delhi,Delhi,"IHBAS, Dilshad Garden, Delhi - CPCB",05-12-2025 07:00:00,28.6811736,77.3025234,NH3,9,12,10
India,Delhi,Delhi,"Burari Crossing, Delhi - IMD",05-12-2025 07:00:00,28.7256504,77.2011573,PM10,157,401,241
India,Delhi,Delhi,"IGI Airport (T3), Delhi - IMD",05-12-2025 07:00:00,28.5627763,77.1180053,NO2,50,132,99
India,Delhi,Delhi,"Jahangirpuri, Delhi - DPCC",05-12-2025 07:00:00,28.732820,77.170633,NH3,8,11,9
India,Delhi,Delhi,"DTU, Delhi - CPCB",05-12-2025 07:00:00,28.7500499,77.1112615,NH3,9,13,9
India,Delhi,Delhi,"Lodhi Road, Delhi - IMD",05-12-2025 07:00:00,28.5918245,77.2273074,PM10,161,280,202
India,Delhi,Delhi,"Lodhi Road, Delhi - IMD",05-12-2025 07:00:00,28.5918245,77.2273074,NO2,13,45,25
India,Delhi,Delhi,"Najafgarh, Delhi - DPCC",05-12-2025 07:00:00,28.570173,76.933762,PM10,129,235,170
India,Delhi,Delhi,"Najafgarh, Delhi - DPCC",05-12-2025 07:00:00,28.570173,76.933762,NO2,22,76,63
India,Delhi,Delhi,"Punjabi Bagh, Delhi - DPCC",05-12-2025 07:00:00,28.674045,77.131023,NO2,21,70,48
India,Delhi,Delhi,"Punjabi Bagh, Delhi - DPCC",05-12-2025 07:00:00,28.674045,77.131023,CO,47,102,66
India,Delhi,Delhi,"Nehru Nagar, Delhi - DPCC",05-12-2025 07:00:00,28.567890,77.250515,PM2.5,257,463,366
India,Delhi,Delhi,"Nehru Nagar, Delhi - DPCC",05-12-2025 07:00:00,28.567890,77.250515,PM10,164,425,282
India,Delhi,Delhi,"Major Dhyan Chand National Stadium, Delhi - DPCC",05-12-2025 07:00:00,28.611281,77.237738,PM10,146,449,225
India,Delhi,Delhi,"Mandir Marg, Delhi - DPCC",05-12-2025 07:00:00,28.636429,77.201067,PM2.5,58,329,222
India,Delhi,Delhi,"Mandir Marg, Delhi - DPCC",05-12-2025 07:00:00,28.636429,77.201067,OZONE,4,96,5
India,Delhi,Delhi,"NSIT Dwarka, Delhi - CPCB",05-12-2025 07:00:00,28.60909,77.0325413,NH3,9,30,12
India,Delhi,Delhi,"Mundka, Delhi - DPCC",05-12-2025 07:00:00,28.684678,77.076574,NO2,94,157,120
India,Delhi,Delhi,"Pusa, Delhi - DPCC",05-12-2025 07:00:00,28.639652,77.146275,NO2,32,182,113
India,Delhi,Delhi,"Pusa, Delhi - IMD",05-12-2025 07:00:00,28.636110,77.173332,PM2.5,166,395,307
India,Delhi,Delhi,"Pusa, Delhi - IMD",05-12-2025 07:00:00,28.636110,77.173332,PM10,125,328,215
India,Delhi,Delhi,"Sirifort, Delhi - CPCB",05-12-2025 07:00:00,28.5504249,77.2159377,NO2,57,60,58
India,Delhi,Delhi,"Sirifort, Delhi - CPCB",05-12-2025 07:00:00,28.5504249,77.2159377,NH3,10,13,12
India,Delhi,Delhi,"R K Puram, Delhi - DPCC",05-12-2025 07:00:00,28.563262,77.186937,PM2.5,287,467,374
India,Delhi,Delhi,"Sonia Vihar, Delhi - DPCC",05-12-2025 07:00:00,28.710508,77.249485,OZONE,4,175,5
India,Delhi,Delhi,"Sonia Vihar, Delhi - DPCC",05-12-2025 07:00:00,28.710508,77.249485,NO2,26,86,53
India,Delhi,Delhi,"Shadipur, Delhi - CPCB",05-12-2025 07:00:00,28.6514781,77.1473105,NO2,54,127,85
India,Delhi,Delhi,"Shadipur, Delhi - CPCB",05-12-2025 07:00:00,28.6514781,77.1473105,OZONE,9,35,10
India,Delhi,Delhi,"Rohini, Delhi - DPCC",05-12-2025 07:00:00,28.732528,77.119920,PM10,153,443,300
India,Delhi,Delhi,"Rohini, Delhi - DPCC",05-12-2025 07:00:00,28.732528,77.119920,OZONE,5,152,5
India,Gujarat,Ahmedabad,"Rakhial, Ahmedabad - IITM",05-12-2025 07:00:00,23.016834,72.625775,PM2.5,64,113,83
India,Gujarat,Ahmedabad,"Rakhial, Ahmedabad - IITM",05-12-2025 07:00:00,23.016834,72.625775,NO2,13,63,26
India,Gujarat,Ahmedabad,"Rakhial, Ahmedabad - IITM",05-12-2025 07:00:00,23.016834,72.625775,CO,34,104,48
India,Gujarat,Ahmedabad,"Rakhial, Ahmedabad - IITM",05-12-2025 07:00:00,23.016834,72.625775,OZONE,16,72,42
India,Gujarat,Ahmedabad,"Maninagar, Ahmedabad - GPCB",05-12-2025 07:00:00,23.002657,72.591912,SO2,32,46,41
India,Gujarat,Ahmedabad,"Maninagar, Ahmedabad - GPCB",05-12-2025 07:00:00,23.002657,72.591912,CO,12,39,31
India,Gujarat,Ahmedabad,"Maninagar, Ahmedabad - GPCB",05-12-2025 07:00:00,23.002657,72.591912,OZONE,43,74,46
India,Gujarat,Ahmedabad,"Maninagar, Ahmedabad - GPCB",05-12-2025 07:00:00,23.002657,72.591912,PM2.5,55,120,79
India,Gujarat,Ahmedabad,"Maninagar, Ahmedabad - GPCB",05-12-2025 07:00:00,23.002657,72.591912,PM10,67,113,83
India,Delhi,Delhi,"Sri Aurobindo Marg, Delhi - DPCC",05-12-2025 07:00:00,28.531346,77.190156,PM10,135,256,179
India,Gujarat,Ahmedabad,"Raikhad, Ahmedabad - IITM",05-12-2025 07:00:00,23.020509,72.579261,PM2.5,87,154,118
India,Gujarat,Ahmedabad,"Gyaspur, Ahmedabad - IITM",05-12-2025 07:00:00,22.977134,72.553024,PM2.5,83,214,133
India,Gujarat,Ahmedabad,"Gyaspur, Ahmedabad - IITM",05-12-2025 07:00:00,22.977134,72.553024,NH3,3,23,10
India,Delhi,Delhi,"Wazirpur, Delhi - DPCC",05-12-2025 07:00:00,28.699793,77.165453,NO2,35,82,61
India,Delhi,Delhi,"Wazirpur, Delhi - DPCC",05-12-2025 07:00:00,28.699793,77.165453,SO2,4,26,13
India,Gujarat,Vapi,"Phase-1 GIDC, Vapi - GPCB",05-12-2025 07:00:00,20.362421,72.918013,NH3,3,5,4
India,Gujarat,Vatva,"Phase-4 GIDC, Vatva - GPCB",05-12-2025 07:00:00,22.969611,72.643500,PM2.5,87,171,135
India,Gujarat,Ahmedabad,"SAC ISRO Bopal, Ahmedabad - IITM",05-12-2025 07:00:00,23.041137,72.456691,CO,22,37,30
India,Gujarat,Ahmedabad,"SAC ISRO Bopal, Ahmedabad - IITM",05-12-2025 07:00:00,23.041137,72.456691,OZONE,5,54,20
India,Gujarat,Ahmedabad,"SAC ISRO Satellite, Ahmedabad - IITM",05-12-2025 07:00:00,23.023389,72.515201,PM10,59,97,76
India,Gujarat,Gandhinagar,"IIPHG Lekawada, Gandhinagar - IITM",05-12-2025 07:00:00,23.243639,72.68994,OZONE,2,45,4
India,Gujarat,Gandhinagar,"IIPHG Lekawada, Gandhinagar - IITM",05-12-2025 07:00:00,23.243639,72.68994,NO2,7,202,25
India,Gujarat,Gandhinagar,"Sector-10, Gandhinagar - GPCB",05-12-2025 07:00:00,23.221714,72.654328,PM10,57,100,78
India,Gujarat,Gandhinagar,"Sector-10, Gandhinagar - GPCB",05-12-2025 07:00:00,23.221714,72.654328,CO,28,52,46
India,Gujarat,Vapi,"Phase-1 GIDC, Vapi - GPCB",05-12-2025 07:00:00,20.362421,72.918013,PM10,49,121,76
India,Gujarat,Ankleshwar,"GIDC, Ankleshwar - GPCB",05-12-2025 07:00:00,21.613267,73.010555,CO,24,87,69
India,Haryana,Bahadurgarh,"Arya Nagar, Bahadurgarh - HSPCB",05-12-2025 07:00:00,28.6701,76.9254,OZONE,15,20,17
India,Haryana,Ballabgarh,"Nathu Colony, Ballabgarh - HSPCB",05-12-2025 07:00:00,28.3419248,77.319699,PM2.5,97,361,245
India,Haryana,Dharuhera,"Municipal Corporation Office, Dharuhera -  HSPCB",05-12-2025 07:00:00,28.206800,76.799700,PM2.5,186,418,332
India,Haryana,Dharuhera,"Municipal Corporation Office, Dharuhera -  HSPCB",05-12-2025 07:00:00,28.206800,76.799700,PM10,124,405,245
India,Haryana,Bhiwani,"H.B. Colony, Bhiwani - HSPCB",05-12-2025 07:00:00,28.806223,76.141105,PM2.5,224,306,256
India,Haryana,Bhiwani,"H.B. Colony, Bhiwani - HSPCB",05-12-2025 07:00:00,28.806223,76.141105,SO2,12,13,13
India,Haryana,Charkhi Dadri,"Mini Secretariat, Charkhi Dadri - HSPCB",05-12-2025 07:00:00,28.593883,76.270653,PM10,105,324,176
India,Haryana,Charkhi Dadri,"Mini Secretariat, Charkhi Dadri - HSPCB",05-12-2025 07:00:00,28.593883,76.270653,NO2,9,24,15
India,Haryana,Bahadurgarh,"Arya Nagar, Bahadurgarh - HSPCB",05-12-2025 07:00:00,28.6701,76.9254,CO,22,50,48
India,Haryana,Ballabgarh,"Nathu Colony, Ballabgarh - HSPCB",05-12-2025 07:00:00,28.3419248,77.319699,NH3,3,3,3
India,Haryana,Ambala,"Patti Mehar, Ambala - HSPCB",05-12-2025 07:00:00,30.379589,76.778328,NH3,9,11,10
India,Haryana,Bahadurgarh,"Arya Nagar, Bahadurgarh - HSPCB",05-12-2025 07:00:00,28.6701,76.9254,SO2,7,7,7
India,Haryana,Gurugram,"Sector-51, Gurugram - HSPCB",05-12-2025 07:00:00,28.4227,77.0667,OZONE,10,46,12
India,Haryana,Gurugram,"Teri Gram, Gurugram - HSPCB",05-12-2025 07:00:00,28.4275,77.1465,PM10,137,254,193
India,Haryana,Gurugram,"Teri Gram, Gurugram - HSPCB",05-12-2025 07:00:00,28.4275,77.1465,NH3,11,20,15
India,Haryana,Gurugram,"Vikas Sadan, Gurugram - HSPCB",05-12-2025 07:00:00,28.4501238,77.0263051,PM2.5,283,304,290
India,Haryana,Gurugram,"Vikas Sadan, Gurugram - HSPCB",05-12-2025 07:00:00,28.4501238,77.0263051,SO2,3,8,5
India,Haryana,Hisar,"Urban Estate-II, Hisar - HSPCB",05-12-2025 07:00:00,29.140560,75.744941,PM10,44,193,121
India,Haryana,Jind,"Police Lines, Jind - HSPCB",05-12-2025 07:00:00,29.307814,76.337619,OZONE,7,70,11
India,Haryana,Kaithal,"Rishi Nagar, Kaithal - HSPCB",05-12-2025 07:00:00,29.8006,76.4155,NO2,27,33,31
India,Haryana,Gurugram,"Sector-51, Gurugram - HSPCB",05-12-2025 07:00:00,28.4227,77.0667,PM10,104,495,244
India,Haryana,Gurugram,"Sector-51, Gurugram - HSPCB",05-12-2025 07:00:00,28.4227,77.0667,NO2,4,37,10
India,Haryana,Fatehabad,"Huda Sector, Fatehabad - HSPCB",05-12-2025 07:00:00,29.503664,75.467934,NH3,13,16,14
India,Haryana,Fatehabad,"Huda Sector, Fatehabad - HSPCB",05-12-2025 07:00:00,29.503664,75.467934,SO2,NA,NA,NA
India,Haryana,Jind,"Police Lines, Jind - HSPCB",05-12-2025 07:00:00,29.307814,76.337619,NO2,36,50,43
India,Haryana,Faridabad,"Sector 30, Faridabad - HSPCB",05-12-2025 07:00:00,28.4417,77.3217,CO,60,64,63
India,Haryana,Faridabad,"Sector 30, Faridabad - HSPCB",05-12-2025 07:00:00,28.4417,77.3217,NH3,11,12,11
India,Haryana,Faridabad,"Sector 30, Faridabad - HSPCB",05-12-2025 07:00:00,28.4417,77.3217,SO2,6,6,6
India,Haryana,Kurukshetra,"Sector-7, Kurukshetra - HSPCB",05-12-2025 07:00:00,29.966942,76.875879,PM2.5,102,250,193
India,Haryana,Kurukshetra,"Sector-7, Kurukshetra - HSPCB",05-12-2025 07:00:00,29.966942,76.875879,PM10,110,172,149
India,Haryana,Mandikhera,"General Hospital, Mandikhera(Nuh) - HSPCB",05-12-2025 07:00:00,27.9002,76.9938,PM10,100,148,123
India,Haryana,Palwal,"Shyam Nagar, Palwal - HSPCB",05-12-2025 07:00:00,28.1485564,77.3320667,PM2.5,60,150,109
India,Haryana,Narnaul,"Shastri Nagar, Narnaul - HSPCB",05-12-2025 07:00:00,28.060249,76.113115,NO2,62,109,85
India,Haryana,Kurukshetra,"Sector-7, Kurukshetra - HSPCB",05-12-2025 07:00:00,29.966942,76.875879,SO2,2,14,9
India,Haryana,Palwal,"Shyam Nagar, Palwal - HSPCB",05-12-2025 07:00:00,28.1485564,77.3320667,OZONE,23,24,24
India,Haryana,Manesar,"Sector-2 IMT, Manesar - HSPCB",05-12-2025 07:00:00,28.360699,76.936090,PM10,NA,NA,NA
India,Haryana,Manesar,"Sector-2 IMT, Manesar - HSPCB",05-12-2025 07:00:00,28.360699,76.936090,SO2,NA,NA,NA
India,Haryana,Karnal,"Sector-12, Karnal - HSPCB",05-12-2025 07:00:00,29.695300,77.002700,NH3,6,7,6
India,Haryana,Panchgaon,"Amity University, Panchgaon - IITM",05-12-2025 07:00:00,28.3153,76.9143,PM10,71,128,102
India,Haryana,Panchgaon,"Amity University, Panchgaon - IITM",05-12-2025 07:00:00,28.3153,76.9143,NO2,39,95,66
India,Himachal Pradesh,Baddi,"HIMUDA Complex Phase-1, Baddi - HPPCB",05-12-2025 07:00:00,30.943887,76.801991,PM10,116,311,176
India,Himachal Pradesh,Baddi,"HIMUDA Complex Phase-1, Baddi - HPPCB",05-12-2025 07:00:00,30.943887,76.801991,CO,38,101,68
India,Haryana,Yamuna Nagar,"Gobind Pura, Yamuna Nagar - HSPCB",05-12-2025 07:00:00,30.1480566,77.2893471,OZONE,8,34,9
India,Haryana,Yamuna Nagar,"Gobind Pura, Yamuna Nagar - HSPCB",05-12-2025 07:00:00,30.1480566,77.2893471,SO2,10,15,12
India,Haryana,Panchkula,"Sector-6, Panchkula - HSPCB ",05-12-2025 07:00:00,30.7057778,76.8531805555555,NO2,23,27,25
India,Haryana,Panchgaon,"Amity University, Panchgaon - IITM",05-12-2025 07:00:00,28.3153,76.9143,OZONE,1,84,2
India,Haryana,Sirsa,"F-Block, Sirsa - HSPCB",05-12-2025 07:00:00,29.536400,75.015800,OZONE,20,44,22
India,Haryana,Panipat,"Sector-18, Panipat - HSPCB",05-12-2025 07:00:00,29.432304,76.972765,SO2,11,11,11
India,Jharkhand,Dhanbad,"Sardar Patel Nagar, Dhanbad - JSPCB",05-12-2025 07:00:00,23.80569,86.44268,OZONE,1,23,9
India,Jharkhand,Jorapokhar,"Tata Stadium, Jorapokhar - JSPCB",05-12-2025 07:00:00,23.707909,86.414670,SO2,NA,NA,NA
India,Karnataka,Bengaluru,"BTM Layout, Bengaluru - CPCB",05-12-2025 07:00:00,12.9135218,77.5950804,SO2,18,19,18
India,Karnataka,Bengaluru,"BTM Layout, Bengaluru - CPCB",05-12-2025 07:00:00,12.9135218,77.5950804,CO,42,52,45
India,Karnataka,Bengaluru,"Jayanagar 5th Block, Bengaluru - KSPCB",05-12-2025 07:00:00,12.920984,77.584908,PM2.5,20,38,31
India,Karnataka,Bengaluru,"Jayanagar 5th Block, Bengaluru - KSPCB",05-12-2025 07:00:00,12.920984,77.584908,PM10,28,52,42
India,Karnataka,Bengaluru,"Jayanagar 5th Block, Bengaluru - KSPCB",05-12-2025 07:00:00,12.920984,77.584908,CO,8,70,12
India,Karnataka,Bengaluru,"Hombegowda Nagar, Bengaluru - KSPCB",05-12-2025 07:00:00,12.938539,77.590100,NH3,2,3,2
India,Karnataka,Bagalkot,"Vidayagiri, Bagalkot - KSPCB",05-12-2025 07:00:00,16.172806,75.659694,PM10,53,54,53
India,Karnataka,Bengaluru,"BTM Layout, Bengaluru - CPCB",05-12-2025 07:00:00,12.9135218,77.5950804,NO2,NA,NA,NA
India,Karnataka,Bagalkot,"Vidayagiri, Bagalkot - KSPCB",05-12-2025 07:00:00,16.172806,75.659694,NH3,1,2,1
India,Karnataka,Chamarajanagar,"Urban, Chamarajanagar - KSPCB",05-12-2025 07:00:00,11.55358,76.55521,NO2,15,36,27
India,Karnataka,Chamarajanagar,"Urban, Chamarajanagar - KSPCB",05-12-2025 07:00:00,11.55358,76.55521,NH3,1,3,2
India,Karnataka,Davanagere,"Devaraj Urs Badavane, Davanagere - KSPCB",05-12-2025 07:00:00,14.475800,75.905200,PM2.5,8,71,44
India,Karnataka,Chikkamagaluru,"Kalyana Nagara, Chikkamagaluru - KSPCB",05-12-2025 07:00:00,13.328028,75.797056,NO2,17,26,19
India,Karnataka,Bengaluru,"Silk Board, Bengaluru - KSPCB",05-12-2025 07:00:00,12.917348,77.622813,PM2.5,21,53,33
India,Karnataka,Bengaluru,"Kasturi Nagar, Bengaluru - KSPCB",05-12-2025 07:00:00,13.003872,77.664217,NO2,29,30,30
India,Karnataka,Bengaluru,"Jigani, Bengaluru - KSPCB",05-12-2025 07:00:00,12.7816279,77.6299145,NO2,24,30,27
India,Karnataka,Bengaluru,"Jigani, Bengaluru - KSPCB",05-12-2025 07:00:00,12.7816279,77.6299145,SO2,19,25,21
India,Karnataka,Bengaluru,"Peenya, Bengaluru - CPCB",05-12-2025 07:00:00,13.0270199,77.494094,PM10,47,52,48
India,Karnataka,Bengaluru,"Peenya, Bengaluru - CPCB",05-12-2025 07:00:00,13.0270199,77.494094,SO2,5,24,10
India,Karnataka,Kalaburagi,"Lal Bahadur Shastri Nagar, Kalaburagi - KSPCB",05-12-2025 07:00:00,17.321993,76.822628,PM2.5,59,80,70
India,Karnataka,Kalaburagi,"Lal Bahadur Shastri Nagar, Kalaburagi - KSPCB",05-12-2025 07:00:00,17.321993,76.822628,NO2,11,12,12
India,Karnataka,Mysuru,"Hebbal 1st Stage, Mysuru - KSPCB",05-12-2025 07:00:00,12.21041,76.37376,PM10,31,63,42
India,Karnataka,Mysuru,"Hebbal 1st Stage, Mysuru - KSPCB",05-12-2025 07:00:00,12.21041,76.37376,NH3,4,5,5
India,Karnataka,Kalaburagi,"Mahatma Basaveswar Colony, Kalaburgi - KSPCB",05-12-2025 07:00:00,17.336318,76.847397,CO,30,59,44
India,Karnataka,Hubballi,"Lingaraj Nagar, Hubballi - KSPCB",05-12-2025 07:00:00,15.3714823,75.1160168,OZONE,19,26,20
India,Karnataka,Hubballi,"Lingaraj Nagar, Hubballi - KSPCB",05-12-2025 07:00:00,15.3714823,75.1160168,PM10,56,62,58
India,Karnataka,Madikeri,"Stuart Hill, Madikeri - KSPCB",05-12-2025 07:00:00,12.415911,75.735050,PM2.5,10,59,22
India,Karnataka,Koppal,"Diwator Nagar, Koppal - KSPCB",05-12-2025 07:00:00,15.347630,76.181767,SO2,8,25,13
India,Karnataka,Haveri,"Ashwini Nagar, Haveri - KSPCB",05-12-2025 07:00:00,14.791800,75.389600,SO2,NA,NA,NA
India,Karnataka,Madikeri,"Stuart Hill, Madikeri - KSPCB",05-12-2025 07:00:00,12.415911,75.735050,SO2,7,7,7
India,Kerala,Thiruvananthapuram,"Plammoodu, Thiruvananthapuram - Kerala PCB",05-12-2025 07:00:00,8.5149093,76.9435879,PM10,52,103,74
India,Kerala,Thiruvananthapuram,"Kariavattom, Thiruvananthapuram - Kerala PCB",05-12-2025 07:00:00,8.563700,76.886500,PM2.5,45,51,48
India,Kerala,Thiruvananthapuram,"Kariavattom, Thiruvananthapuram - Kerala PCB",05-12-2025 07:00:00,8.563700,76.886500,PM10,38,120,76
India,Kerala,Thiruvananthapuram,"Plammoodu, Thiruvananthapuram - Kerala PCB",05-12-2025 07:00:00,8.5149093,76.9435879,NH3,2,6,4
India,Karnataka,Mysuru,"Hebbal 1st Stage, Mysuru - KSPCB",05-12-2025 07:00:00,12.21041,76.37376,OZONE,5,52,13
India,Kerala,Kannur,"Thavakkara, Kannur - Kerala PCB",05-12-2025 07:00:00,11.875000,75.373200,PM2.5,46,53,51
India,Karnataka,Yadgir,"Collector Office, Yadgir - KSPCB",05-12-2025 07:00:00,16.7602,77.1428,NH3,1,2,1
India,Kerala,Kannur,"Thavakkara, Kannur - Kerala PCB",05-12-2025 07:00:00,11.875000,75.373200,NO2,12,16,13
India,Kerala,Kollam,"Polayathode, Kollam - Kerala PCB",05-12-2025 07:00:00,8.8787,76.6073,CO,14,18,16
India,Madhya Pradesh,Bhopal,"Idgah Hills, Bhopal - MPPCB",05-12-2025 07:00:00,23.264759,77.381568,OZONE,33,80,49
India,Madhya Pradesh,Bhopal,"Paryavaran Parisar, Bhopal - MPPCB",05-12-2025 07:00:00,23.210494,77.425409,PM2.5,60,233,117
India,Madhya Pradesh,Bhopal,"Paryavaran Parisar, Bhopal - MPPCB",05-12-2025 07:00:00,23.210494,77.425409,OZONE,17,62,28
India,Madhya Pradesh,Bhopal,"T T Nagar, Bhopal - MPPCB",05-12-2025 07:00:00,23.233584,77.400574,PM2.5,78,279,198
India,Madhya Pradesh,Dewas,"Bhopal Chauraha, Dewas - MPPCB",05-12-2025 07:00:00,22.9682591,76.064118,SO2,44,54,48
India,Madhya Pradesh,Dewas,"Bhopal Chauraha, Dewas - MPPCB",05-12-2025 07:00:00,22.9682591,76.064118,OZONE,25,27,25
India,Madhya Pradesh,Gwalior,"Deen Dayal Nagar, Gwalior - MPPCB",05-12-2025 07:00:00,26.259242,78.216432,PM2.5,74,374,230
India,Madhya Pradesh,Bhopal,"Paryavaran Parisar, Bhopal - MPPCB",05-12-2025 07:00:00,23.210494,77.425409,NO2,25,100,60
India,Kerala,Thrissur,"Corporation Ground, Thrissur - Kerala PCB",05-12-2025 07:00:00,10.532400,76.215900,PM10,44,57,52
India,Kerala,Thrissur,"Corporation Ground, Thrissur - Kerala PCB",05-12-2025 07:00:00,10.532400,76.215900,OZONE,31,32,31
India,Madhya Pradesh,Gwalior,"City Center, Gwalior - MPPCB",05-12-2025 07:00:00,26.203442,78.193251,CO,6,109,57
India,Madhya Pradesh,Bhopal,"Idgah Hills, Bhopal - MPPCB",05-12-2025 07:00:00,23.264759,77.381568,NO2,18,48,27
