country,state,city,station,last_update,latitude,longitude,pollutant_id,min_value,max_value,avg_value
India,Andhra_Pradesh,Vijayawada,"Rajiv Gandhi Park, Vijayawada - APPCB",15-10-2025 07:00:00,16.509717,80.612222,SO2,9,20,14
India,Andhra_Pradesh,Vijayawada,"Rajiv Gandhi Park, Vijayawada - APPCB",15-10-2025 07:00:00,16.509717,80.612222,CO,32,44,35
India,Andhra_Pradesh,Vijayawada,"Rajiv Nagar, Vijayawada - APPCB",15-10-2025 07:00:00,16.554731,80.649110,PM10,37,51,41
India,Andhra_Pradesh,Vijayawada,"Rajiv Nagar, Vijayawada - APPCB",15-10-2025 07:00:00,16.554731,80.649110,NO2,NA,NA,NA
India,Andhra_Pradesh,Vijayawada,"Rajiv Nagar, Vijayawada - APPCB",15-10-2025 07:00:00,16.554731,80.649110,SO2,3,46,11
India,Andhra_Pradesh,Vijayawada,"Rajiv Nagar, Vijayawada - APPCB",15-10-2025 07:00:00,16.554731,80.649110,CO,10,24,13
India,Andhra_Pradesh,Visakhapatnam,"GVM Corporation, Visakhapatnam - APPCB",15-10-2025 07:00:00,17.72,83.3,PM2.5,48,140,95
India,Andhra_Pradesh,Visakhapatnam,"GVM Corporation, Visakhapatnam - APPCB",15-10-2025 07:00:00,17.72,83.3,NO2,10,62,24
India,Andhra_Pradesh,Visakhapatnam,"GVM Corporation, Visakhapatnam - APPCB",15-10-2025 07:00:00,17.72,83.3,SO2,4,10,8
India,Arunachal_Pradesh,Naharlagun,"Naharlagun, Naharlagun - APSPCB",15-10-2025 07:00:00,27.103358,93.679645,PM2.5,2,71,36
India,Arunachal_Pradesh,Naharlagun,"Naharlagun, Naharlagun - APSPCB",15-10-2025 07:00:00,27.103358,93.679645,CO,6,16,9
India,Assam,Byrnihat,"Central Academy for SFS, Byrnihat - PCBA",15-10-2025 07:00:00,26.071318,91.87488,CO,5,66,59
India,Andaman and Nicobar,Sri Vijaya Puram,"Police Line, Sri Vijaya Puram - ANPCC",15-10-2025 07:00:00,11.654054,92.734055,NO2,NA,NA,NA
India,Andaman and Nicobar,Sri Vijaya Puram,"Police Line, Sri Vijaya Puram - ANPCC",15-10-2025 07:00:00,11.654054,92.734055,CO,NA,NA,NA
India,Andaman and Nicobar,Sri Vijaya Puram,"Police Line, Sri Vijaya Puram - ANPCC",15-10-2025 07:00:00,11.654054,92.734055,OZONE,NA,NA,NA
India,Andhra_Pradesh,Anantapur,"Gulzarpet, Anantapur - APPCB",15-10-2025 07:00:00,14.675886,77.593027,PM2.5,49,74,59
India,Andhra_Pradesh,Anantapur,"Gulzarpet, Anantapur - APPCB",15-10-2025 07:00:00,14.675886,77.593027,PM10,42,67,52
India,Andhra_Pradesh,Anantapur,"Gulzarpet, Anantapur - APPCB",15-10-2025 07:00:00,14.675886,77.593027,NO2,13,23,18
India,Andhra_Pradesh,Anantapur,"Gulzarpet, Anantapur - APPCB",15-10-2025 07:00:00,14.675886,77.593027,SO2,11,13,12
India,Andhra_Pradesh,Chittoor,"Gangineni Cheruvu, Chittoor - APPCB",15-10-2025 07:00:00,13.204880,79.097889,PM2.5,1,266,97
India,Andhra_Pradesh,Chittoor,"Gangineni Cheruvu, Chittoor - APPCB",15-10-2025 07:00:00,13.204880,79.097889,NO2,11,16,14
India,Andhra_Pradesh,Chittoor,"Gangineni Cheruvu, Chittoor - APPCB",15-10-2025 07:00:00,13.204880,79.097889,SO2,1,17,10
India,Andhra_Pradesh,Kadapa,"Yerramukkapalli, Kadapa - APPCB",15-10-2025 07:00:00,14.465052,78.824187,NO2,21,21,21
India,Bihar,Chhapra,"Darshan Nagar, Chhapra - BSPCB",15-10-2025 07:00:00,25.7808257,84.7446768,SO2,19,20,19
India,Bihar,Chhapra,"Darshan Nagar, Chhapra - BSPCB",15-10-2025 07:00:00,25.7808257,84.7446768,OZONE,17,33,22
India,Bihar,Gaya,"Collectorate, Gaya - BSPCB",15-10-2025 07:00:00,24.7955,84.9994,CO,40,58,44
India,Bihar,Gaya,"Kareemganj, Gaya - BSPCB",15-10-2025 07:00:00,24.792403,84.992416,NO2,2,6,5
India,Bihar,Gaya,"Kareemganj, Gaya - BSPCB",15-10-2025 07:00:00,24.792403,84.992416,OZONE,4,35,9
India,Bihar,Gaya,"SFTI Kusdihra, Gaya - BSPCB",15-10-2025 07:00:00,24.762518,84.982348,OZONE,8,45,11
India,Bihar,Hajipur,"Industrial Area, Hajipur - BSPCB",15-10-2025 07:00:00,25.697189,85.245900,PM10,88,140,115
India,Bihar,Hajipur,"Industrial Area, Hajipur - BSPCB",15-10-2025 07:00:00,25.697189,85.245900,CO,20,60,54
India,Bihar,Bhagalpur,"DM Office_Kachari Chowk, Bhagalpur - BSPCB",15-10-2025 07:00:00,25.251013,86.989001,PM10,37,103,65
India,Bihar,Bhagalpur,"DM Office_Kachari Chowk, Bhagalpur - BSPCB",15-10-2025 07:00:00,25.251013,86.989001,NO2,14,21,18
India,Bihar,Bhagalpur,"DM Office_Kachari Chowk, Bhagalpur - BSPCB",15-10-2025 07:00:00,25.251013,86.989001,OZONE,4,22,15
India,Bihar,Bihar Sharif,"D M Colony, Bihar Sharif - BSPCB",15-10-2025 07:00:00,25.204762,85.514960,PM10,54,72,64
India,Bihar,Bihar Sharif,"D M Colony, Bihar Sharif - BSPCB",15-10-2025 07:00:00,25.204762,85.514960,NO2,9,10,10
India,Bihar,Bihar Sharif,"D M Colony, Bihar Sharif - BSPCB",15-10-2025 07:00:00,25.204762,85.514960,NH3,2,2,2
India,Bihar,Bihar Sharif,"D M Colony, Bihar Sharif - BSPCB",15-10-2025 07:00:00,25.204762,85.514960,OZONE,25,43,30
India,Bihar,Chhapra,"Darshan Nagar, Chhapra - BSPCB",15-10-2025 07:00:00,25.7808257,84.7446768,PM10,30,101,62
India,Bihar,Chhapra,"Darshan Nagar, Chhapra - BSPCB",15-10-2025 07:00:00,25.7808257,84.7446768,NO2,2,2,2
India,Bihar,Katihar,"Mirchaibari, Katihar - BSPCB",15-10-2025 07:00:00,25.560083,87.553265,NH3,1,1,1
India,Bihar,Katihar,"Mirchaibari, Katihar - BSPCB",15-10-2025 07:00:00,25.560083,87.553265,CO,48,91,72
India,Bihar,Kishanganj,"SDM Office_Khagra, Kishanganj - BSPCB",15-10-2025 07:00:00,26.0881305,87.93840336,SO2,NA,NA,NA
India,Bihar,Manguraha,"Forest Rest House, Manguraha - BSPCB",15-10-2025 07:00:00,27.308328,84.531742,PM2.5,37,130,56
India,Bihar,Manguraha,"Forest Rest House, Manguraha - BSPCB",15-10-2025 07:00:00,27.308328,84.531742,PM10,43,137,69
India,Bihar,Manguraha,"Forest Rest House, Manguraha - BSPCB",15-10-2025 07:00:00,27.308328,84.531742,NO2,3,10,6
India,Bihar,Munger,"Town Hall, Munger - BSPCB",15-10-2025 07:00:00,25.376776,86.471523,PM10,34,78,51
India,Bihar,Munger,"Town Hall, Munger - BSPCB",15-10-2025 07:00:00,25.376776,86.471523,CO,20,36,26
India,Bihar,Muzaffarpur,"Buddha Colony, Muzaffarpur - BSPCB",15-10-2025 07:00:00,26.11442,85.39813,NO2,5,14,9
India,Bihar,Muzaffarpur,"MIT-Daudpur Kothi, Muzaffarpur - BSPCB",15-10-2025 07:00:00,26.1403345,85.3650192,NH3,1,2,1
India,Bihar,Muzaffarpur,"Muzaffarpur Collectorate, Muzaffarpur - BSPCB",15-10-2025 07:00:00,26.1209,85.3647,CO,12,102,102
India,Bihar,Patna,"DRM Office Danapur, Patna - BSPCB",15-10-2025 07:00:00,25.586562,85.043586,PM2.5,12,96,68
India,Andhra_Pradesh,Rajamahendravaram,"Anand Kala Kshetram, Rajamahendravaram - APPCB",15-10-2025 07:00:00,16.9872867,81.7363176,SO2,3,10,5
India,Andhra_Pradesh,Rajamahendravaram,"Anand Kala Kshetram, Rajamahendravaram - APPCB",15-10-2025 07:00:00,16.9872867,81.7363176,CO,16,40,23
India,Andhra_Pradesh,Tirumala,"Toll Gate, Tirumala - APPCB",15-10-2025 07:00:00,13.67,79.35,PM10,24,61,41
India,Andhra_Pradesh,Vijayawada,"HB Colony, Vijayawada - APPCB",15-10-2025 07:00:00,16.536107,80.594233,PM10,57,73,61
India,Andhra_Pradesh,Vijayawada,"HB Colony, Vijayawada - APPCB",15-10-2025 07:00:00,16.536107,80.594233,NO2,11,28,22
India,Andhra_Pradesh,Vijayawada,"HB Colony, Vijayawada - APPCB",15-10-2025 07:00:00,16.536107,80.594233,NH3,3,4,3
India,Assam,Guwahati,"IITG, Guwahati - PCBA",15-10-2025 07:00:00,26.2028636,91.70046436,SO2,22,27,24
India,Assam,Guwahati,"Pan Bazaar, Guwahati - PCBA",15-10-2025 07:00:00,26.187500,91.744194,SO2,40,87,61
India,Assam,Guwahati,"Railway Colony, Guwahati - PCBA",15-10-2025 07:00:00,26.181742,91.78063,PM2.5,38,166,79
India,Assam,Guwahati,"Railway Colony, Guwahati - PCBA",15-10-2025 07:00:00,26.181742,91.78063,NO2,2,4,3
India,Assam,Guwahati,"Railway Colony, Guwahati - PCBA",15-10-2025 07:00:00,26.181742,91.78063,SO2,29,31,30
India,Assam,Nagaon,"Christianpatty, Nagaon - PCBA",15-10-2025 07:00:00,26.349082,92.68449,PM10,47,49,49
India,Bihar,Araria,"Kharahiya Basti, Araria - BSPCB",15-10-2025 07:00:00,26.146529,87.454184,CO,21,35,34
India,Bihar,Araria,"Kharahiya Basti, Araria - BSPCB",15-10-2025 07:00:00,26.146529,87.454184,OZONE,10,11,10
India,Bihar,Begusarai,"Lohiyanagar, Begusarai - BSPCB",15-10-2025 07:00:00,25.42742023,86.13886079,SO2,14,43,27
India,Bihar,Bettiah,"Kamalnath Nagar, Bettiah - BSPCB",15-10-2025 07:00:00,26.80365,84.51954,PM10,58,175,93
India,Bihar,Bettiah,"Kamalnath Nagar, Bettiah - BSPCB",15-10-2025 07:00:00,26.80365,84.51954,NO2,4,14,8
India,Assam,Nagaon,"Christianpatty, Nagaon - PCBA",15-10-2025 07:00:00,26.349082,92.68449,OZONE,8,9,9
India,Assam,Nalbari,"Bata Chowk, Nalbari - PCBA",15-10-2025 07:00:00,26.446912,91.439057,PM2.5,50,53,53
India,Assam,Silchar,"Tarapur, Silchar - PCBA",15-10-2025 07:00:00,24.82827,92.79525,NH3,1,1,1
India,Assam,Sivasagar,"Girls College, Sivasagar - PCBA",15-10-2025 07:00:00,26.987634,94.636574,PM10,14,47,34
India,Chhattisgarh,Tumidih,"OP Jindal Industrial Park, Tumidih - CECB",15-10-2025 07:00:00,22.06631475,83.33820077,CO,18,30,22
India,Delhi,Delhi,"Alipur, Delhi - DPCC",15-10-2025 07:00:00,28.815329,77.153010,PM2.5,50,348,183
India,Delhi,Delhi,"Alipur, Delhi - DPCC",15-10-2025 07:00:00,28.815329,77.153010,NH3,3,5,4
India,Delhi,Delhi,"Anand Vihar, Delhi - DPCC",15-10-2025 07:00:00,28.647622,77.3158090,NH3,1,3,2
India,Delhi,Delhi,"Anand Vihar, Delhi - DPCC",15-10-2025 07:00:00,28.647622,77.3158090,OZONE,9,86,12
India,Delhi,Delhi,"Ashok Vihar, Delhi - DPCC",15-10-2025 07:00:00,28.695381,77.181665,PM10,127,398,217
India,Delhi,Delhi,"Ashok Vihar, Delhi - DPCC",15-10-2025 07:00:00,28.695381,77.181665,CO,21,120,75
India,Delhi,Delhi,"Aya Nagar, Delhi - IMD",15-10-2025 07:00:00,28.4706914,77.1099364,PM2.5,76,206,128
India,Chhattisgarh,Korba,"Rampur, Korba - CECB",15-10-2025 07:00:00,22.368195,82.746431,NH3,2,2,2
India,Chhattisgarh,Korba,"Rampur, Korba - CECB",15-10-2025 07:00:00,22.368195,82.746431,SO2,6,16,9
India,Chhattisgarh,Korba,"Rampur, Korba - CECB",15-10-2025 07:00:00,22.368195,82.746431,OZONE,2,23,2
India,Chhattisgarh,Korba,"Urja Nagar, Korba - CECB",15-10-2025 07:00:00,22.348441,82.549611,PM2.5,17,22,17
India,Chhattisgarh,Korba,"Urja Nagar, Korba - CECB",15-10-2025 07:00:00,22.348441,82.549611,NO2,22,28,25
India,Chhattisgarh,Korba,"Urja Nagar, Korba - CECB",15-10-2025 07:00:00,22.348441,82.549611,NH3,1,2,2
India,Chhattisgarh,Korba,"Urja Nagar, Korba - CECB",15-10-2025 07:00:00,22.348441,82.549611,SO2,7,10,8
India,Chhattisgarh,Milupara,"Govt. Higher Secondary School, Milupara - CECB",15-10-2025 07:00:00,22.1910172,83.5197009,PM10,38,98,64
India,Chhattisgarh,Milupara,"Govt. Higher Secondary School, Milupara - CECB",15-10-2025 07:00:00,22.1910172,83.5197009,NH3,1,2,2
India,Delhi,Delhi,"Aya Nagar, Delhi - IMD",15-10-2025 07:00:00,28.4706914,77.1099364,CO,34,100,79
India,Delhi,Delhi,"Bawana, Delhi - DPCC",15-10-2025 07:00:00,28.776200,77.051074,NO2,8,72,36
India,Delhi,Delhi,"Bawana, Delhi - DPCC",15-10-2025 07:00:00,28.776200,77.051074,OZONE,4,129,6
India,Delhi,Delhi,"Burari Crossing, Delhi - IMD",15-10-2025 07:00:00,28.7256504,77.2011573,PM2.5,66,284,208
India,Delhi,Delhi,"Chandni Chowk, Delhi - IITM",15-10-2025 07:00:00,28.656756,77.227234,NO2,15,107,64
India,Delhi,Delhi,"Chandni Chowk, Delhi - IITM",15-10-2025 07:00:00,28.656756,77.227234,SO2,9,30,18
India,Bihar,Patna,"Samanpura, Patna - BSPCB",15-10-2025 07:00:00,25.596727,85.085624,OZONE,16,28,18
India,Bihar,Purnia,"Mariam Nagar, Purnia - BSPCB",15-10-2025 07:00:00,25.366336,87.117468,NH3,3,3,3
India,Bihar,Purnia,"Mariam Nagar, Purnia - BSPCB",15-10-2025 07:00:00,25.366336,87.117468,CO,3,66,33
India,Bihar,Rajgir,"Dangi Tola, Rajgir - BSPCB",15-10-2025 07:00:00,25.03280,85.41948,PM2.5,59,66,62
India,Bihar,Samastipur,"DM Office_Kasipur, Samastipur - BSPCB",15-10-2025 07:00:00,25.859655,85.77944,OZONE,7,9,8
India,Chhattisgarh,Bhilai,"32Bungalows, Bhilai - CECB",15-10-2025 07:00:00,21.194815,81.314770,PM10,33,102,64
India,Chhattisgarh,Bhilai,"32Bungalows, Bhilai - CECB",15-10-2025 07:00:00,21.194815,81.314770,CO,14,50,35
India,Chhattisgarh,Bhilai,"Civic Center, Bhilai - Bhilai Steel Plant",15-10-2025 07:00:00,21.185571,81.343175,PM10,51,115,90
India,Chhattisgarh,Bhilai,"Civic Center, Bhilai - Bhilai Steel Plant",15-10-2025 07:00:00,21.185571,81.343175,NH3,3,3,3
India,Chhattisgarh,Bhilai,"Hathkhoj, Bhilai - CECB",15-10-2025 07:00:00,21.224231,81.408350,NH3,3,5,4
India,Bihar,Siwan,"Chitragupta Nagar, Siwan - BSPCB",15-10-2025 07:00:00,26.2271665,84.3570427,SO2,2,3,3
India,Chandigarh,Chandigarh,"Sector-25, Chandigarh - CPCC",15-10-2025 07:00:00,30.751462,76.762879,NO2,10,43,21
India,Chandigarh,Chandigarh,"Sector-53, Chandigarh - CPCC",15-10-2025 07:00:00,30.719859,76.738637,PM10,NA,NA,NA
India,Chandigarh,Chandigarh,"Sector-53, Chandigarh - CPCC",15-10-2025 07:00:00,30.719859,76.738637,NO2,50,76,65
India,Chhattisgarh,Milupara,"Govt. Higher Secondary School, Milupara - CECB",15-10-2025 07:00:00,22.1910172,83.5197009,CO,14,23,15
India,Chhattisgarh,Milupara,"Govt. Higher Secondary School, Milupara - CECB",15-10-2025 07:00:00,22.1910172,83.5197009,OZONE,1,60,2
India,Chhattisgarh,Raipur,"Krishak Nagar, Raipur - CECB",15-10-2025 07:00:00,21.237755,81.705301,PM2.5,9,49,19
India,Chhattisgarh,Raipur,"Krishak Nagar, Raipur - CECB",15-10-2025 07:00:00,21.237755,81.705301,NH3,2,2,2
India,Delhi,Delhi,"Dwarka-Sector 8, Delhi - DPCC ",15-10-2025 07:00:00,28.5710274,77.0719006,OZONE,11,100,13
India,Delhi,Delhi,"IGI Airport (T3), Delhi - IMD",15-10-2025 07:00:00,28.5627763,77.1180053,PM2.5,68,301,157
India,Delhi,Delhi,"IHBAS, Dilshad Garden, Delhi - CPCB",15-10-2025 07:00:00,28.6811736,77.3025234,PM2.5,76,395,210
India,Delhi,Delhi,"IHBAS, Dilshad Garden, Delhi - CPCB",15-10-2025 07:00:00,28.6811736,77.3025234,OZONE,11,21,12
India,Bihar,Patna,"Govt. High School Shikarpur, Patna - BSPCB",15-10-2025 07:00:00,25.592539,85.227158,PM10,43,59,50
India,Bihar,Patna,"Govt. High School Shikarpur, Patna - BSPCB",15-10-2025 07:00:00,25.592539,85.227158,NH3,4,5,5
India,Bihar,Patna,"Govt. High School Shikarpur, Patna - BSPCB",15-10-2025 07:00:00,25.592539,85.227158,OZONE,8,11,10
India,Bihar,Patna,"Muradpur, Patna - BSPCB",15-10-2025 07:00:00,25.619651,85.147382,PM2.5,48,58,52
India,Delhi,Delhi,"Lodhi Road, Delhi - IMD",15-10-2025 07:00:00,28.5918245,77.2273074,NO2,10,72,26
India,Delhi,Delhi,"Lodhi Road, Delhi - IMD",15-10-2025 07:00:00,28.5918245,77.2273074,OZONE,14,206,16
India,Delhi,Delhi,"Major Dhyan Chand National Stadium, Delhi - DPCC",15-10-2025 07:00:00,28.611281,77.237738,PM2.5,63,290,160
India,Delhi,Delhi,"Major Dhyan Chand National Stadium, Delhi - DPCC",15-10-2025 07:00:00,28.611281,77.237738,PM10,123,252,168
India,Delhi,Delhi,"Major Dhyan Chand National Stadium, Delhi - DPCC",15-10-2025 07:00:00,28.611281,77.237738,NH3,14,16,14
India,Delhi,Delhi,"Mandir Marg, Delhi - DPCC",15-10-2025 07:00:00,28.636429,77.201067,NH3,5,6,5
India,Delhi,Delhi,"Mandir Marg, Delhi - DPCC",15-10-2025 07:00:00,28.636429,77.201067,OZONE,8,167,9
India,Delhi,Delhi,"Mundka, Delhi - DPCC",15-10-2025 07:00:00,28.684678,77.076574,NO2,33,99,70
India,Delhi,Delhi,"Mundka, Delhi - DPCC",15-10-2025 07:00:00,28.684678,77.076574,SO2,7,31,16
India,Delhi,Delhi,"NSIT Dwarka, Delhi - CPCB",15-10-2025 07:00:00,28.60909,77.0325413,PM10,105,235,157
India,Delhi,Delhi,"NSIT Dwarka, Delhi - CPCB",15-10-2025 07:00:00,28.60909,77.0325413,CO,12,133,41
India,Gujarat,Ahmedabad,"SAC ISRO Bopal, Ahmedabad - IITM",15-10-2025 07:00:00,23.041137,72.456691,NO2,18,53,24
India,Gujarat,Ahmedabad,"SAC ISRO Bopal, Ahmedabad - IITM",15-10-2025 07:00:00,23.041137,72.456691,OZONE,1,66,2
India,Gujarat,Ahmedabad,"SAC ISRO Satellite, Ahmedabad - IITM",15-10-2025 07:00:00,23.023389,72.515201,SO2,3,20,7
India,Gujarat,Ahmedabad,"SAC ISRO Satellite, Ahmedabad - IITM",15-10-2025 07:00:00,23.023389,72.515201,OZONE,1,47,2
India,Gujarat,Ahmedabad,"SVPI Airport Hansol, Ahmedabad - IITM",15-10-2025 07:00:00,23.076793,72.627874,SO2,6,19,10
India,Gujarat,Ankleshwar,"GIDC, Ankleshwar - GPCB",15-10-2025 07:00:00,21.613267,73.010555,PM2.5,66,83,78
India,Gujarat,Gandhinagar,"GIFT City, Gandhinagar - IITM",15-10-2025 07:00:00,23.163798,72.677768,PM10,85,132,105
India,Delhi,Delhi,"Najafgarh, Delhi - DPCC",15-10-2025 07:00:00,28.570173,76.933762,OZONE,4,46,5
India,Delhi,Delhi,"Narela, Delhi - DPCC",15-10-2025 07:00:00,28.822836,77.101981,PM2.5,66,350,208
India,Delhi,Delhi,"Narela, Delhi - DPCC",15-10-2025 07:00:00,28.822836,77.101981,NO2,6,66,33
India,Delhi,Delhi,"Nehru Nagar, Delhi - DPCC",15-10-2025 07:00:00,28.567890,77.250515,SO2,1,34,15
India,Delhi,Delhi,"North Campus, DU, Delhi - IMD",15-10-2025 07:00:00,28.6573814,77.1585447,PM10,106,232,162
India,Delhi,Delhi,"North Campus, DU, Delhi - IMD",15-10-2025 07:00:00,28.6573814,77.1585447,NO2,10,47,22
India,Delhi,Delhi,"North Campus, DU, Delhi - IMD",15-10-2025 07:00:00,28.6573814,77.1585447,CO,14,132,109
India,Delhi,Delhi,"ITO, Delhi - CPCB",15-10-2025 07:00:00,28.628624,77.241060,PM2.5,71,299,180
India,Delhi,Delhi,"ITO, Delhi - CPCB",15-10-2025 07:00:00,28.628624,77.241060,PM10,83,171,127
India,Delhi,Delhi,"Jahangirpuri, Delhi - DPCC",15-10-2025 07:00:00,28.732820,77.170633,OZONE,6,158,7
India,Delhi,Delhi,"Jawaharlal Nehru Stadium, Delhi - DPCC",15-10-2025 07:00:00,28.580280,77.233829,PM2.5,77,266,157
India,Delhi,Delhi,"Lodhi Road, Delhi - IITM",15-10-2025 07:00:00,28.588333,77.221667,NO2,33,246,86
India,Delhi,Delhi,"Lodhi Road, Delhi - IMD",15-10-2025 07:00:00,28.5918245,77.2273074,PM2.5,75,245,133
India,Delhi,Delhi,"Okhla Phase-2, Delhi - DPCC",15-10-2025 07:00:00,28.530785,77.271255,OZONE,12,302,27
India,Delhi,Delhi,"Punjabi Bagh, Delhi - DPCC",15-10-2025 07:00:00,28.674045,77.131023,SO2,NA,NA,NA
India,Delhi,Delhi,"Pusa, Delhi - DPCC",15-10-2025 07:00:00,28.639652,77.146275,PM2.5,73,311,152
India,Delhi,Delhi,"Pusa, Delhi - DPCC",15-10-2025 07:00:00,28.639652,77.146275,CO,34,102,80
India,Delhi,Delhi,"Pusa, Delhi - IMD",15-10-2025 07:00:00,28.636110,77.173332,NO2,18,117,67
India,Delhi,Delhi,"Pusa, Delhi - IMD",15-10-2025 07:00:00,28.636110,77.173332,CO,14,142,122
India,Gujarat,Gandhinagar,"IIPHG Lekawada, Gandhinagar - IITM",15-10-2025 07:00:00,23.243639,72.68994,OZONE,2,36,3
India,Gujarat,Gandhinagar,"Sector-10, Gandhinagar - GPCB",15-10-2025 07:00:00,23.221714,72.654328,NO2,27,29,28
India,Gujarat,Nandesari,"GIDC, Nandesari - Nandesari Ind. Association",15-10-2025 07:00:00,22.410802,73.097923,PM10,71,348,158
India,Gujarat,Vapi,"Phase-1 GIDC, Vapi - GPCB",15-10-2025 07:00:00,20.362421,72.918013,PM10,NA,NA,NA
India,Gujarat,Ahmedabad,"Raikhad, Ahmedabad - IITM",15-10-2025 07:00:00,23.020509,72.579261,NO2,20,134,73
India,Gujarat,Ahmedabad,"Raikhad, Ahmedabad - IITM",15-10-2025 07:00:00,23.020509,72.579261,NH3,8,21,14
India,Gujarat,Ahmedabad,"Raikhad, Ahmedabad - IITM",15-10-2025 07:00:00,23.020509,72.579261,SO2,5,18,9
India,Gujarat,Ahmedabad,"Raikhad, Ahmedabad - IITM",15-10-2025 07:00:00,23.020509,72.579261,OZONE,1,80,3
India,Gujarat,Ahmedabad,"Rakhial, Ahmedabad - IITM",15-10-2025 07:00:00,23.016834,72.625775,PM2.5,34,164,99
India,Delhi,Delhi,"Shadipur, Delhi - CPCB",15-10-2025 07:00:00,28.6514781,77.1473105,PM10,110,439,235
India,Delhi,Delhi,"Shadipur, Delhi - CPCB",15-10-2025 07:00:00,28.6514781,77.1473105,OZONE,16,52,33
India,Delhi,Delhi,"Sirifort, Delhi - CPCB",15-10-2025 07:00:00,28.5504249,77.2159377,PM2.5,67,236,149
India,Delhi,Delhi,"Sirifort, Delhi - CPCB",15-10-2025 07:00:00,28.5504249,77.2159377,PM10,133,454,223
India,Delhi,Delhi,"Sirifort, Delhi - CPCB",15-10-2025 07:00:00,28.5504249,77.2159377,NH3,7,13,11
India,Delhi,Delhi,"Sonia Vihar, Delhi - DPCC",15-10-2025 07:00:00,28.710508,77.249485,SO2,33,53,39
India,Delhi,Delhi,"Sri Aurobindo Marg, Delhi - DPCC",15-10-2025 07:00:00,28.531346,77.190156,SO2,1,4,2
India,Delhi,Delhi,"Sri Aurobindo Marg, Delhi - DPCC",15-10-2025 07:00:00,28.531346,77.190156,CO,28,83,67
India,Delhi,Delhi,"Vivek Vihar, Delhi - DPCC",15-10-2025 07:00:00,28.672342,77.315260,CO,32,111,87
India,Haryana,Yamuna Nagar,"Gobind Pura, Yamuna Nagar - HSPCB",15-10-2025 07:00:00,30.1480566,77.2893471,NH3,1,10,2
India,Haryana,Yamuna Nagar,"Gobind Pura, Yamuna Nagar - HSPCB",15-10-2025 07:00:00,30.1480566,77.2893471,SO2,9,15,12
India,Himachal Pradesh,Baddi,"HIMUDA Complex Phase-1, Baddi - HPPCB",15-10-2025 07:00:00,30.943887,76.801991,NO2,10,66,27
India,Jammu_and_Kashmir,Srinagar,"Rajbagh, Srinagar - JKSPCB",15-10-2025 07:00:00,34.066206,74.819820,PM10,35,124,89
India,Jammu_and_Kashmir,Srinagar,"Rajbagh, Srinagar - JKSPCB",15-10-2025 07:00:00,34.066206,74.819820,SO2,3,4,3
India,Jammu_and_Kashmir,Srinagar,"Rajbagh, Srinagar - JKSPCB",15-10-2025 07:00:00,34.066206,74.819820,OZONE,1,10,1
India,Jharkhand,Dhanbad,"Sardar Patel Nagar, Dhanbad - JSPCB",15-10-2025 07:00:00,23.80569,86.44268,PM10,42,100,85
India,Jharkhand,Jorapokhar,"Tata Stadium, Jorapokhar - JSPCB",15-10-2025 07:00:00,23.707909,86.414670,SO2,NA,NA,NA
India,Karnataka,Bagalkot,"Vidayagiri, Bagalkot - KSPCB",15-10-2025 07:00:00,16.172806,75.659694,PM10,42,43,42
India,Haryana,Panchgaon,"Amity University, Panchgaon - IITM",15-10-2025 07:00:00,28.3153,76.9143,OZONE,1,108,4
India,Haryana,Panipat,"Sector-18, Panipat - HSPCB",15-10-2025 07:00:00,29.432304,76.972765,NO2,NA,NA,NA
India,Haryana,Panipat,"Sector-18, Panipat - HSPCB",15-10-2025 07:00:00,29.432304,76.972765,CO,NA,NA,NA
India,Haryana,Rohtak,"MD University, Rohtak - HSPCB",15-10-2025 07:00:00,28.52123,76.37138,OZONE,44,52,47
India,Haryana,Sirsa,"F-Block, Sirsa - HSPCB",15-10-2025 07:00:00,29.536400,75.015800,PM10,29,105,58
India,Haryana,Sirsa,"F-Block, Sirsa - HSPCB",15-10-2025 07:00:00,29.536400,75.015800,SO2,1,11,7
India,Haryana,Sirsa,"F-Block, Sirsa - HSPCB",15-10-2025 07:00:00,29.536400,75.015800,OZONE,11,31,19
India,Haryana,Yamuna Nagar,"Gobind Pura, Yamuna Nagar - HSPCB",15-10-2025 07:00:00,30.1480566,77.2893471,PM2.5,17,166,92
India,Haryana,Fatehabad,"Huda Sector, Fatehabad - HSPCB",15-10-2025 07:00:00,29.503664,75.467934,NO2,18,20,19
India,Haryana,Fatehabad,"Huda Sector, Fatehabad - HSPCB",15-10-2025 07:00:00,29.503664,75.467934,SO2,3,46,21
India,Haryana,Gurugram,"Sector-51, Gurugram - HSPCB",15-10-2025 07:00:00,28.4227,77.0667,NH3,NA,NA,NA
India,Haryana,Gurugram,"Vikas Sadan, Gurugram - HSPCB",15-10-2025 07:00:00,28.4501238,77.0263051,PM2.5,25,484,317
India,Haryana,Jind,"Police Lines, Jind - HSPCB",15-10-2025 07:00:00,29.307814,76.337619,SO2,9,10,10
India,Haryana,Kaithal,"Rishi Nagar, Kaithal - HSPCB",15-10-2025 07:00:00,29.8006,76.4155,CO,6,24,19
India,Karnataka,Bengaluru,"Kasturi Nagar, Bengaluru - KSPCB",15-10-2025 07:00:00,13.003872,77.664217,NH3,5,6,6
India,Karnataka,Bengaluru,"Shivapura_Peenya, Bengaluru - KSPCB",15-10-2025 07:00:00,13.0246342,77.5080115,PM2.5,70,143,99
India,Karnataka,Bengaluru,"Shivapura_Peenya, Bengaluru - KSPCB",15-10-2025 07:00:00,13.0246342,77.5080115,PM10,58,89,70
India,Karnataka,Bengaluru,"Silk Board, Bengaluru - KSPCB",15-10-2025 07:00:00,12.917348,77.622813,PM2.5,8,36,21
India,Karnataka,Bengaluru,"Silk Board, Bengaluru - KSPCB",15-10-2025 07:00:00,12.917348,77.622813,NO2,9,13,10
India,Karnataka,Bengaluru,"Silk Board, Bengaluru - KSPCB",15-10-2025 07:00:00,12.917348,77.622813,SO2,8,10,9
India,Karnataka,Bengaluru,"Silk Board, Bengaluru - KSPCB",15-10-2025 07:00:00,12.917348,77.622813,OZONE,10,11,11
India,Haryana,Dharuhera,"Municipal Corporation Office, Dharuhera -  HSPCB",15-10-2025 07:00:00,28.206800,76.799700,CO,7,27,11
India,Haryana,Faridabad,"New Industrial Town, Faridabad - HSPCB",15-10-2025 07:00:00,28.39072,77.30059,PM2.5,119,146,133
India,Haryana,Faridabad,"New Industrial Town, Faridabad - HSPCB",15-10-2025 07:00:00,28.39072,77.30059,PM10,108,118,113
India,Haryana,Faridabad,"Sector 11, Faridabad - HSPCB",15-10-2025 07:00:00,28.376058,77.315741,PM2.5,71,78,74
India,Haryana,Faridabad,"Sector 30, Faridabad - HSPCB",15-10-2025 07:00:00,28.4417,77.3217,PM10,96,102,99
India,Gujarat,Vapi,"Phase-1 GIDC, Vapi - GPCB",15-10-2025 07:00:00,20.362421,72.918013,SO2,NA,NA,NA
India,Gujarat,Vapi,"Phase-1 GIDC, Vapi - GPCB",15-10-2025 07:00:00,20.362421,72.918013,OZONE,NA,NA,NA
India,Haryana,Bahadurgarh,"Arya Nagar, Bahadurgarh - HSPCB",15-10-2025 07:00:00,28.6701,76.9254,PM10,NA,NA,NA
India,Haryana,Bahadurgarh,"Arya Nagar, Bahadurgarh - HSPCB",15-10-2025 07:00:00,28.6701,76.9254,CO,NA,NA,NA
India,Haryana,Bhiwani,"H.B. Colony, Bhiwani - HSPCB",15-10-2025 07:00:00,28.806223,76.141105,NO2,NA,NA,NA
India,Karnataka,Bengaluru,"BTM Layout, Bengaluru - CPCB",15-10-2025 07:00:00,12.9135218,77.5950804,PM10,52,54,53
India,Karnataka,Bengaluru,"BTM Layout, Bengaluru - CPCB",15-10-2025 07:00:00,12.9135218,77.5950804,NO2,NA,NA,NA
India,Karnataka,Bengaluru,"BTM Layout, Bengaluru - CPCB",15-10-2025 07:00:00,12.9135218,77.5950804,NH3,NA,NA,NA
India,Karnataka,Bengaluru,"BTM Layout, Bengaluru - CPCB",15-10-2025 07:00:00,12.9135218,77.5950804,CO,11,40,19
India,Karnataka,Bengaluru,"Hebbal, Bengaluru - KSPCB",15-10-2025 07:00:00,13.029152,77.585901,NO2,20,26,24
India,Haryana,Karnal,"Sector-12, Karnal - HSPCB",15-10-2025 07:00:00,29.695300,77.002700,CO,43,54,51
India,Haryana,Mandikhera,"General Hospital, Mandikhera - HSPCB",15-10-2025 07:00:00,27.9002,76.9938,OZONE,16,17,16
India,Haryana,Palwal,"Shyam Nagar, Palwal - HSPCB",15-10-2025 07:00:00,28.1485564,77.3320667,SO2,12,13,13
India,Karnataka,Chikkamagaluru,"Kalyana Nagara, Chikkamagaluru - KSPCB",15-10-2025 07:00:00,13.328028,75.797056,CO,NA,NA,NA
India,Karnataka,Haveri,"Ashwini Nagar, Haveri - KSPCB",15-10-2025 07:00:00,14.791800,75.389600,NO2,NA,NA,NA
India,Karnataka,Haveri,"Ashwini Nagar, Haveri - KSPCB",15-10-2025 07:00:00,14.791800,75.389600,SO2,NA,NA,NA
India,Kerala,Eloor,"Udyogamandal, Eloor - Kerala PCB",15-10-2025 07:00:00,10.073232,76.302765,CO,18,80,27
India,Kerala,Eloor,"Udyogamandal, Eloor - Kerala PCB",15-10-2025 07:00:00,10.073232,76.302765,OZONE,10,14,11
India,Kerala,Kannur,"Thavakkara, Kannur - Kerala PCB",15-10-2025 07:00:00,11.875000,75.373200,NO2,12,14,14
India,Kerala,Kannur,"Thavakkara, Kannur - Kerala PCB",15-10-2025 07:00:00,11.875000,75.373200,NH3,2,2,2
India,Kerala,Kannur,"Thavakkara, Kannur - Kerala PCB",15-10-2025 07:00:00,11.875000,75.373200,SO2,4,5,4
India,Kerala,Kollam,"Polayathode, Kollam - Kerala PCB",15-10-2025 07:00:00,8.8787,76.6073,NH3,NA,NA,NA
India,Kerala,Thiruvananthapuram,"Kariavattom, Thiruvananthapuram - Kerala PCB",15-10-2025 07:00:00,8.563700,76.886500,PM10,37,52,43
India,Kerala,Thiruvananthapuram,"Kariavattom, Thiruvananthapuram - Kerala PCB",15-10-2025 07:00:00,8.563700,76.886500,NO2,6,7,6
India,Kerala,Thiruvananthapuram,"Kariavattom, Thiruvananthapuram - Kerala PCB",15-10-2025 07:00:00,8.563700,76.886500,OZONE,36,36,36
India,Karnataka,Mysuru,"Hebbal 1st Stage, Mysuru - KSPCB",15-10-2025 07:00:00,12.21041,76.37376,CO,6,33,11
India,Karnataka,Ramanagara,"Vijay Nagar, Ramanagara - KSPCB",15-10-2025 07:00:00,12.733409,77.298051,PM10,17,68,39
India,Karnataka,Ramanagara,"Vijay Nagar, Ramanagara - KSPCB",15-10-2025 07:00:00,12.733409,77.298051,SO2,14,24,18
India,Karnataka,Vijayapura,"Ibrahimpur, Vijayapura - KSPCB",15-10-2025 07:00:00,16.802639,75.722694,PM10,43,44,44
India,Karnataka,Vijayapura,"Ibrahimpur, Vijayapura - KSPCB",15-10-2025 07:00:00,16.802639,75.722694,OZONE,14,17,16
India,Karnataka,Yadgir,"Collector Office, Yadgir - KSPCB",15-10-2025 07:00:00,16.7602,77.1428,NO2,22,36,26
India,Karnataka,Yadgir,"Collector Office, Yadgir - KSPCB",15-10-2025 07:00:00,16.7602,77.1428,NH3,2,2,2
India,Madhya Pradesh,Indore,"Residency Area, Indore - IMC",15-10-2025 07:00:00,22.7084,75.8815,PM10,43,175,94
India,Madhya Pradesh,Indore,"Residency Area, Indore - IMC",15-10-2025 07:00:00,22.7084,75.8815,NO2,13,19,16
India,Madhya Pradesh,Jabalpur,"Govindh Bhavan Colony, Jabalpur - JMC",15-10-2025 07:00:00,23.163174,79.973061,SO2,14,16,15
India,Madhya Pradesh,Jabalpur,"Govindh Bhavan Colony, Jabalpur - JMC",15-10-2025 07:00:00,23.163174,79.973061,OZONE,7,91,23
India,Madhya Pradesh,Jabalpur,"Marhatal, Jabalpur - MPPCB",15-10-2025 07:00:00,23.168606,79.932247,NO2,7,45,21
India,Madhya Pradesh,Jabalpur,"Marhatal, Jabalpur - MPPCB",15-10-2025 07:00:00,23.168606,79.932247,NH3,3,4,4
India,Madhya Pradesh,Jabalpur,"Suhagi, Jabalpur - JMC",15-10-2025 07:00:00,23.218135,79.957770,PM10,81,148,116
India,Kerala,Thiruvananthapuram,"Plammoodu, Thiruvananthapuram - Kerala PCB",15-10-2025 07:00:00,8.5149093,76.9435879,CO,8,34,12
India,Kerala,Thiruvananthapuram,"Plammoodu, Thiruvananthapuram - Kerala PCB",15-10-2025 07:00:00,8.5149093,76.9435879,OZONE,13,301,15
India,Kerala,Thrissur,"Corporation Ground, Thrissur - Kerala PCB",15-10-2025 07:00:00,10.532400,76.215900,CO,NA,NA,NA
India,Madhya Pradesh,Bhopal,"Idgah Hills, Bhopal - MPPCB",15-10-2025 07:00:00,23.264759,77.381568,NO2,13,40,21
India,Madhya Pradesh,Bhopal,"Idgah Hills, Bhopal - MPPCB",15-10-2025 07:00:00,23.264759,77.381568,NH3,5,8,6
India,Madhya Pradesh,Bhopal,"Paryavaran Parisar, Bhopal - MPPCB",15-10-2025 07:00:00,23.210494,77.425409,SO2,1,12,6
India,Madhya Pradesh,Katni,"Gole Bazar, Katni - MPPCB",15-10-2025 07:00:00,23.50016,80.23284,SO2,21,42,30
India,Madhya Pradesh,Mandideep,"Sector-D Industrial Area, Mandideep - MPPCB",15-10-2025 07:00:00,23.108440,77.511428,NO2,NA,NA,NA
India,Madhya Pradesh,Mandideep,"Sector-D Industrial Area, Mandideep - MPPCB",15-10-2025 07:00:00,23.108440,77.511428,OZONE,NA,NA,NA
India,Madhya Pradesh,Pithampur,"Sector-2 Industrial Area, Pithampur - MPPCB",15-10-2025 07:00:00,22.624758,75.675238,PM10,63,215,138
India,Madhya Pradesh,Pithampur,"Sector-2 Industrial Area, Pithampur - MPPCB",15-10-2025 07:00:00,22.624758,75.675238,CO,27,78,46
India,Madhya Pradesh,Ratlam,"Shasthri Nagar, Ratlam - IPCA Lab",15-10-2025 07:00:00,23.331731,75.045981,NO2,33,36,35
India,Karnataka,Haveri,"Ashwini Nagar, Haveri - KSPCB",15-10-2025 07:00:00,14.791800,75.389600,OZONE,13,30,16
India,Karnataka,Kalaburagi,"Mahatma Basaveswar Colony, Kalaburgi - KSPCB",15-10-2025 07:00:00,17.336318,76.847397,NH3,2,3,3
India,Karnataka,Karwar,"KHB Colony, Karwar - KSPCB",15-10-2025 07:00:00,14.816666,74.141003,NH3,1,2,1
India,Karnataka,Koppal,"Diwator Nagar, Koppal - KSPCB",15-10-2025 07:00:00,15.347630,76.181767,NH3,NA,NA,NA
India,Karnataka,Madikeri,"Stuart Hill, Madikeri - KSPCB",15-10-2025 07:00:00,12.415911,75.735050,CO,7,14,12
India,Madhya Pradesh,Dewas,"Bhopal Chauraha, Dewas - MPPCB",15-10-2025 07:00:00,22.9682591,76.064118,PM2.5,61,193,112
India,Madhya Pradesh,Dewas,"Bhopal Chauraha, Dewas - MPPCB",15-10-2025 07:00:00,22.9682591,76.064118,SO2,23,30,26
India,Madhya Pradesh,Gwalior,"Deen Dayal Nagar, Gwalior - MPPCB",15-10-2025 07:00:00,26.259242,78.216432,NO2,9,72,33
India,Madhya Pradesh,Gwalior,"Deen Dayal Nagar, Gwalior - MPPCB",15-10-2025 07:00:00,26.259242,78.216432,OZONE,12,183,39
India,Madhya Pradesh,Gwalior,"Maharaj Bada, Gwalior - MPPCB",15-10-2025 07:00:00,26.200388,78.147714,PM10,95,197,136
India,Madhya Pradesh,Singrauli,"Suryakiran Bhawan NCL, Singrauli - MPPCB",15-10-2025 07:00:00,24.108970,82.645580,SO2,24,59,35
India,Madhya Pradesh,Singrauli,"Suryakiran Bhawan NCL, Singrauli - MPPCB",15-10-2025 07:00:00,24.108970,82.645580,CO,12,15,12
India,Maharashtra,Akola,"Ramdaspeth, Akola - MPCB",15-10-2025 07:00:00,20.719516,77.000253,PM2.5,53,137,82
India,Maharashtra,Akola,"Ramdaspeth, Akola - MPCB",15-10-2025 07:00:00,20.719516,77.000253,NO2,9,46,17
India,Maharashtra,Akola,"Ramdaspeth, Akola - MPCB",15-10-2025 07:00:00,20.719516,77.000253,CO,15,53,20
India,Madhya Pradesh,Indore,"Maguda Nagar, Indore - IMC",15-10-2025 07:00:00,22.7524,75.8872,NO2,2,2,2
India,Maharashtra,Mumbai,"Borivali East, Mumbai - MPCB",15-10-2025 07:00:00,19.2243333,72.8658113,SO2,NA,NA,NA
India,Maharashtra,Mumbai,"Borivali East, Mumbai - MPCB",15-10-2025 07:00:00,19.2243333,72.8658113,CO,NA,NA,NA
India,Maharashtra,Mumbai,"Byculla, Mumbai - BMC",15-10-2025 07:00:00,18.9767,72.8380,PM2.5,70,152,108
India,Maharashtra,Mumbai,"Byculla, Mumbai - BMC",15-10-2025 07:00:00,18.9767,72.8380,NH3,6,25,13
India,Maharashtra,Mumbai,"Byculla, Mumbai - BMC",15-10-2025 07:00:00,18.9767,72.8380,CO,4,46,29
India,Maharashtra,Mumbai,"Byculla, Mumbai - BMC",15-10-2025 07:00:00,18.9767,72.8380,OZONE,5,122,14
India,Maharashtra,Mumbai,"Chakala-Andheri East, Mumbai - IITM",15-10-2025 07:00:00,19.11074,72.86084,NO2,43,131,82
India,Maharashtra,Mumbai,"Chakala-Andheri East, Mumbai - IITM",15-10-2025 07:00:00,19.11074,72.86084,NH3,7,24,12
India,Maharashtra,Mumbai,"Chakala-Andheri East, Mumbai - IITM",15-10-2025 07:00:00,19.11074,72.86084,CO,14,78,54
India,Maharashtra,Mumbai,"Chakala-Andheri East, Mumbai - IITM",15-10-2025 07:00:00,19.11074,72.86084,OZONE,1,76,4
India,Maharashtra,Mumbai,"Chembur, Mumbai - MPCB",15-10-2025 07:00:00,19.0364585,72.8954371,PM2.5,89,168,116
India,Maharashtra,Mumbai,"Chembur, Mumbai - MPCB",15-10-2025 07:00:00,19.0364585,72.8954371,NH3,2,7,5
India,Maharashtra,Mahad,"Kamble Tarf Birwadi, Mahad - MPCB",15-10-2025 07:00:00,18.1023399,73.4783687,SO2,14,28,18
India,Maharashtra,Malegaon,"Mahesh Nagar, Malegaon - MPCB",15-10-2025 07:00:00,20.555712,74.529236,SO2,7,31,12
India,Maharashtra,Mira-Bhayandar,"Bhayandar West, Mira-Bhayandar - MPCB",15-10-2025 07:00:00,19.296481,72.840923,SO2,1,6,3
India,Maharashtra,Mumbai,"Bandra Kurla Complex, Mumbai - IITM",15-10-2025 07:00:00,19.053536,72.84643,PM10,121,329,224
India,Maharashtra,Mumbai,"Bandra Kurla Complex, Mumbai - IITM",15-10-2025 07:00:00,19.053536,72.84643,NH3,22,79,50
India,Maharashtra,Mumbai,"Bandra Kurla Complex, Mumbai - MPCB",15-10-2025 07:00:00,19.065931,72.862131,NH3,3,4,3
India,Maharashtra,Mumbai,"Bandra Kurla Complex, Mumbai - MPCB",15-10-2025 07:00:00,19.065931,72.862131,SO2,2,3,3
India,Maharashtra,Jalna,"Old MIDC, Jalna - MPCB",15-10-2025 07:00:00,19.854616,75.905894,PM10,NA,NA,NA
India,Maharashtra,Jalna,"Old MIDC, Jalna - MPCB",15-10-2025 07:00:00,19.854616,75.905894,NO2,NA,NA,NA
India,Maharashtra,Jalna,"Old MIDC, Jalna - MPCB",15-10-2025 07:00:00,19.854616,75.905894,OZONE,32,117,42
India,Maharashtra,Kolhapur,"Shivaji University, Kolhapur - MPCB",15-10-2025 07:00:00,16.6870449,74.2505872,NO2,3,52,22
India,Maharashtra,Kolhapur,"Sinchan Bhavan, Kolhapur - MPCB",15-10-2025 07:00:00,16.7143745,74.2426398,CO,18,71,27
India,Maharashtra,Latur,"Sawe Wadi, Latur - MPCB",15-10-2025 07:00:00,18.39963,76.57452,CO,13,58,19
India,Maharashtra,Mahad,"Kamble Tarf Birwadi, Mahad - MPCB",15-10-2025 07:00:00,18.1023399,73.4783687,PM2.5,49,226,77
India,Maharashtra,Mumbai,"Malad West, Mumbai - IITM",15-10-2025 07:00:00,19.19709,72.82204,PM10,118,229,167
India,Maharashtra,Mumbai,"Malad West, Mumbai - IITM",15-10-2025 07:00:00,19.19709,72.82204,NH3,6,12,9
India,Maharashtra,Mumbai,"Mazgaon, Mumbai - IITM",15-10-2025 07:00:00,18.96702,72.84214,SO2,5,12,10
India,Maharashtra,Mumbai,"Mindspace-Malad West, Mumbai - MPCB",15-10-2025 07:00:00,19.1878657,72.8304069,PM10,80,117,107
India,Maharashtra,Mumbai,"Mindspace-Malad West, Mumbai - MPCB",15-10-2025 07:00:00,19.1878657,72.8304069,NH3,6,23,12
India,Maharashtra,Mumbai,"Mindspace-Malad West, Mumbai - MPCB",15-10-2025 07:00:00,19.1878657,72.8304069,CO,28,90,73
India,Maharashtra,Mumbai,"Mulund West, Mumbai - MPCB",15-10-2025 07:00:00,19.1750,72.9419,SO2,NA,NA,NA
India,Maharashtra,Badlapur,"Katrap, Badlapur - MPCB",15-10-2025 07:00:00,19.16485,73.23409,PM10,38,153,98
India,Maharashtra,Belapur,"CBD Belapur, Belapur - MPCB",15-10-2025 07:00:00,19.0243902,73.0406721,NO2,3,9,6
India,Maharashtra,Bhiwandi,"Gokul Nagar, Bhiwandi - MPCB",15-10-2025 07:00:00,19.309073,73.057223,PM2.5,34,151,101
India,Maharashtra,Bhiwandi,"Gokul Nagar, Bhiwandi - MPCB",15-10-2025 07:00:00,19.309073,73.057223,PM10,44,148,120
India,Maharashtra,Bhiwandi,"Gokul Nagar, Bhiwandi - MPCB",15-10-2025 07:00:00,19.309073,73.057223,NH3,3,7,5
India,Maharashtra,Boisar,"Khaira, Boisar - MPCB",15-10-2025 07:00:00,19.786089,72.757971,SO2,39,43,41
India,Maharashtra,Aurangabad,"MIDC Chilkalthana, Aurangabad - MPCB",15-10-2025 07:00:00,19.875620,75.387310,PM2.5,60,312,155
India,Maharashtra,Aurangabad,"MIDC Chilkalthana, Aurangabad - MPCB",15-10-2025 07:00:00,19.875620,75.387310,NH3,1,3,2
India,Maharashtra,Aurangabad,"MIDC Chilkalthana, Aurangabad - MPCB",15-10-2025 07:00:00,19.875620,75.387310,CO,6,14,10
India,Maharashtra,Aurangabad,"More Chowk Waluj, Aurangabad - MPCB",15-10-2025 07:00:00,19.8389439,75.244448,CO,19,105,54
India,Maharashtra,Aurangabad,"Rachnakar Colony, Aurangabad - MPCB",15-10-2025 07:00:00,19.863756,75.321188,PM2.5,44,340,107
India,Maharashtra,Aurangabad,"Rachnakar Colony, Aurangabad - MPCB",15-10-2025 07:00:00,19.863756,75.321188,SO2,9,27,20
India,Maharashtra,Chandrapur,"Chauhan Colony, Chandrapur - MPCB",15-10-2025 07:00:00,19.962900,79.298714,PM10,42,110,70
India,Maharashtra,Chandrapur,"Chauhan Colony, Chandrapur - MPCB",15-10-2025 07:00:00,19.962900,79.298714,OZONE,20,22,20
India,Maharashtra,Chandrapur,"MIDC Khutala, Chandrapur - MPCB",15-10-2025 07:00:00,19.9775302,79.2337086,NO2,13,15,14
India,Maharashtra,Dhule,"Deopur, Dhule - MPCB",15-10-2025 07:00:00,20.918946,74.776388,SO2,7,15,11
India,Maharashtra,Jalgaon,"Prabhat Colony, Jalgaon - MPCB",15-10-2025 07:00:00,21.001264,75.565602,CO,14,58,21
India,Maharashtra,Mumbai,"Chhatrapati Shivaji Intl. Airport (T2), Mumbai - MPCB",15-10-2025 07:00:00,19.10078,72.87462,SO2,20,21,21
India,Maharashtra,Mumbai,"Chhatrapati Shivaji Intl. Airport (T2), Mumbai - MPCB",15-10-2025 07:00:00,19.10078,72.87462,OZONE,7,8,7
India,Maharashtra,Mumbai,"Colaba, Mumbai - MPCB",15-10-2025 07:00:00,18.910000,72.820000,CO,25,28,27
India,Maharashtra,Mumbai,"Deonar, Mumbai - IITM",15-10-2025 07:00:00,19.04946,72.9230,PM2.5,74,175,121
India,Maharashtra,Mumbai,"Deonar, Mumbai - IITM",15-10-2025 07:00:00,19.04946,72.9230,PM10,170,300,221
India,Maharashtra,Mumbai,"Kandivali West, Mumbai - BMC",15-10-2025 07:00:00,19.215859,72.831718,PM2.5,50,87,68
India,Maharashtra,Mumbai,"Kandivali West, Mumbai - BMC",15-10-2025 07:00:00,19.215859,72.831718,NH3,1,3,2
India,Maharashtra,Mumbai,"Kandivali West, Mumbai - BMC",15-10-2025 07:00:00,19.215859,72.831718,OZONE,2,60,9
India,Maharashtra,Solapur,"Dnyaneshwar Nagar, Solapur - MPCB",15-10-2025 07:00:00,17.6336264,75.9132495,NH3,6,16,9
India,Maharashtra,Solapur,"Dnyaneshwar Nagar, Solapur - MPCB",15-10-2025 07:00:00,17.6336264,75.9132495,CO,12,34,18
India,Maharashtra,Solapur,"Ratandeep Housing Society, Solapur - MPCB",15-10-2025 07:00:00,17.65439,75.90649,SO2,1,2,1
India,Maharashtra,Solapur,"Ratandeep Housing Society, Solapur - MPCB",15-10-2025 07:00:00,17.65439,75.90649,OZONE,20,88,35
India,Maharashtra,Thane,"Kasarvadavali, Thane - MPCB",15-10-2025 07:00:00,19.26777,72.97182,PM10,NA,NA,NA
India,Maharashtra,Thane,"Upvan Fort, Thane - MPCB",15-10-2025 07:00:00,19.222279,72.957979,PM2.5,43,133,81
India,Maharashtra,Thane,"Upvan Fort, Thane - MPCB",15-10-2025 07:00:00,19.222279,72.957979,PM10,89,125,103
India,Maharashtra,Thane,"Upvan Fort, Thane - MPCB",15-10-2025 07:00:00,19.222279,72.957979,NH3,1,2,1
India,Maharashtra,Ulhasnagar,"Sidhi Vinayak Nagar, Ulhasnagar - MPCB",15-10-2025 07:00:00,19.235581,73.159121,PM10,69,166,104
India,Maharashtra,Ulhasnagar,"Sidhi Vinayak Nagar, Ulhasnagar - MPCB",15-10-2025 07:00:00,19.235581,73.159121,NO2,16,34,24
India,Maharashtra,Ulhasnagar,"Sidhi Vinayak Nagar, Ulhasnagar - MPCB",15-10-2025 07:00:00,19.235581,73.159121,CO,12,46,22
India,Maharashtra,Navi Mumbai,"Tondare-Taloja, Navi Mumbai - MPCB",15-10-2025 07:00:00,19.0630,73.1209,CO,1,49,29
India,Maharashtra,Parbhani,"Masoom Colony, Parbhani - MPCB",15-10-2025 07:00:00,19.265594,76.761463,PM2.5,59,172,95
India,Maharashtra,Parbhani,"Masoom Colony, Parbhani - MPCB",15-10-2025 07:00:00,19.265594,76.761463,PM10,97,154,117
India,Maharashtra,Parbhani,"Masoom Colony, Parbhani - MPCB",15-10-2025 07:00:00,19.265594,76.761463,NO2,12,44,24
India,Maharashtra,Pimpri-Chinchwad,"Gavalinagar, Pimpri Chinchwad - MPCB",15-10-2025 07:00:00,18.63673,73.82487,CO,16,103,43
India,Maharashtra,Pimpri-Chinchwad,"Park Street Wakad, Pimpri Chinchwad - MPCB",15-10-2025 07:00:00,18.59051,73.77946,SO2,1,3,2
India,Maharashtra,Pimpri-Chinchwad,"Savta Mali Nagar, Pimpri-Chinchwad - IITM",15-10-2025 07:00:00,18.614767,73.799516,PM10,70,127,107
India,Maharashtra,Pimpri-Chinchwad,"Savta Mali Nagar, Pimpri-Chinchwad - IITM",15-10-2025 07:00:00,18.614767,73.799516,OZONE,1,46,5
India,Maharashtra,Pimpri-Chinchwad,"Thergaon, Pimpri Chinchwad - MPCB",15-10-2025 07:00:00,18.616318,73.765797,NO2,23,78,47
India,Maharashtra,Pimpri-Chinchwad,"Thergaon, Pimpri Chinchwad - MPCB",15-10-2025 07:00:00,18.616318,73.765797,NH3,2,3,3
India,Maharashtra,Pune,"Bhumkar Nagar, Pune - IITM",15-10-2025 07:00:00,18.605770,73.749976,PM2.5,112,361,245
India,Maharashtra,Pune,"Bhumkar Nagar, Pune - IITM",15-10-2025 07:00:00,18.605770,73.749976,PM10,124,434,203
India,Maharashtra,Pune,"Bhumkar Nagar, Pune - IITM",15-10-2025 07:00:00,18.605770,73.749976,OZONE,3,63,14
India,Maharashtra,Pune,"Hadapsar, Pune - IITM",15-10-2025 07:00:00,18.501793,73.927532,NO2,18,24,20
India,Maharashtra,Pune,"Mhada Colony, Pune - IITM",15-10-2025 07:00:00,18.573040,73.927715,OZONE,10,67,12
India,Maharashtra,Mumbai,"Powai, Mumbai - MPCB",15-10-2025 07:00:00,19.137500,72.915056,PM2.5,71,163,102
India,Maharashtra,Mumbai,"Powai, Mumbai - MPCB",15-10-2025 07:00:00,19.137500,72.915056,CO,14,14,14
India,Maharashtra,Mumbai,"Sewri, Mumbai - BMC",15-10-2025 07:00:00,19.000084,72.856730,NH3,6,22,13
India,Maharashtra,Mumbai,"Shivaji Nagar, Mumbai - BMC",15-10-2025 07:00:00,19.060498,72.923356,PM10,110,157,129
India,Maharashtra,Mumbai,"Shivaji Nagar, Mumbai - BMC",15-10-2025 07:00:00,19.060498,72.923356,NH3,2,4,2
India,Maharashtra,Mumbai,"Shivaji Nagar, Mumbai - BMC",15-10-2025 07:00:00,19.060498,72.923356,OZONE,2,103,7
India,Maharashtra,Mumbai,"Siddharth Nagar-Worli, Mumbai - IITM",15-10-2025 07:00:00,19.000083,72.813993,NO2,36,120,64
India,Maharashtra,Nashik,"Gangapur Road, Nashik - MPCB",15-10-2025 07:00:00,20.0073285,73.7762427,CO,16,22,17
India,Maharashtra,Nashik,"Gangapur Road, Nashik - MPCB",15-10-2025 07:00:00,20.0073285,73.7762427,OZONE,7,27,15
India,Maharashtra,Nashik,"Hirawadi, Nashik - MPCB",15-10-2025 07:00:00,20.021503,73.813844,PM2.5,60,190,94
India,Maharashtra,Nashik,"Hirawadi, Nashik - MPCB",15-10-2025 07:00:00,20.021503,73.813844,PM10,79,227,124
India,Maharashtra,Nashik,"Pandav Nagari, Nashik - MPCB",15-10-2025 07:00:00,19.9591346,73.7788008,PM10,88,327,133
India,Maharashtra,Navi Mumbai,"Kopripada-Vashi, Navi Mumbai - MPCB",15-10-2025 07:00:00,19.090337,73.014232,PM10,48,122,76
India,Maharashtra,Nagpur,"Mahal, Nagpur - MPCB",15-10-2025 07:00:00,21.14472,79.107595,SO2,4,35,14
India,Maharashtra,Nagpur,"Opp GPO Civil Lines, Nagpur - MPCB",15-10-2025 07:00:00,21.152875,79.0517531,NO2,11,43,21
India,Maharashtra,Nagpur,"Opp GPO Civil Lines, Nagpur - MPCB",15-10-2025 07:00:00,21.152875,79.0517531,SO2,4,41,13
India,Maharashtra,Nagpur,"Ram Nagar, Nagpur - MPCB",15-10-2025 07:00:00,21.143383,79.048912,NO2,11,32,17
India,Maharashtra,Nanded,"Sneh Nagar, Nanded - MPCB",15-10-2025 07:00:00,19.173852,77.296291,PM2.5,56,142,83
India,Maharashtra,Nanded,"Sneh Nagar, Nanded - MPCB",15-10-2025 07:00:00,19.173852,77.296291,OZONE,11,53,21
India,Maharashtra,Navi Mumbai,"Mahape, Navi Mumbai - MPCB",15-10-2025 07:00:00,19.1135051,73.008978,PM2.5,13,35,23
India,Maharashtra,Navi Mumbai,"Mahape, Navi Mumbai - MPCB",15-10-2025 07:00:00,19.1135051,73.008978,SO2,27,29,29
India,Maharashtra,Navi Mumbai,"Mahape, Navi Mumbai - MPCB",15-10-2025 07:00:00,19.1135051,73.008978,CO,14,21,14
India,Maharashtra,Navi Mumbai,"Sector-2E Kalamboli, Navi Mumbai - MPCB",15-10-2025 07:00:00,19.02579,73.10297,NO2,15,72,42
India,Maharashtra,Navi Mumbai,"Sector-2E Kalamboli, Navi Mumbai - MPCB",15-10-2025 07:00:00,19.02579,73.10297,NH3,2,14,8
India,Maharashtra,Navi Mumbai,"Sector-2E Kalamboli, Navi Mumbai - MPCB",15-10-2025 07:00:00,19.02579,73.10297,SO2,4,8,6
India,Maharashtra,Pune,"Panchawati_Pashan, Pune - IITM",15-10-2025 07:00:00,18.536457,73.805454,NO2,18,51,28
India,Maharashtra,Pune,"Revenue Colony-Shivajinagar, Pune - IITM",15-10-2025 07:00:00,18.530085,73.849598,CO,22,26,24
India,Maharashtra,Pune,"Savitribai Phule Pune University, Pune - MPCB",15-10-2025 07:00:00,18.547056,73.826908,PM2.5,44,365,106
India,Maharashtra,Sangli,"Vijay Nagar, Sangli - MPCB",15-10-2025 07:00:00, 16.5038,74.3623,CO,30,52,33
India,Maharashtra,Mumbai,"Vasai West, Mumbai - MPCB",15-10-2025 07:00:00,19.383200,72.820400,SO2,8,8,8
India,Maharashtra,Mumbai,"Vasai West, Mumbai - MPCB",15-10-2025 07:00:00,19.383200,72.820400,OZONE,10,21,11
India,Maharashtra,Mumbai,"Vile Parle West, Mumbai - MPCB",15-10-2025 07:00:00,19.10861,72.83622,CO,18,26,24
India,Maharashtra,Nagpur,"Ambazari, Nagpur - MPCB",15-10-2025 07:00:00,21.121801,79.04952,PM2.5,82,172,115
India,Maharashtra,Ulhasnagar,"Sidhi Vinayak Nagar, Ulhasnagar - MPCB",15-10-2025 07:00:00,19.235581,73.159121,OZONE,12,80,13
India,Maharashtra,Virar,"Bolinj, Virar - MPCB",15-10-2025 07:00:00,19.4458210,72.7988231,PM10,77,113,91
India,Meghalaya,Shillong,"JN Stadium, Shillong - Meghalaya PCB",15-10-2025 07:00:00,25.5803419,91.8942571,PM10,NA,NA,NA
India,Meghalaya,Shillong,"JN Stadium, Shillong - Meghalaya PCB",15-10-2025 07:00:00,25.5803419,91.8942571,NH3,6,9,8
India,Meghalaya,Shillong,"Lumpyngngad, Shillong - Meghalaya PCB",15-10-2025 07:00:00,25.5586,91.8985,PM2.5,1,15,8
India,Meghalaya,Shillong,"Lumpyngngad, Shillong - Meghalaya PCB",15-10-2025 07:00:00,25.5586,91.8985,CO,2,7,3
India,Nagaland,Kohima,"PWD Junction, Kohima - NPCB",15-10-2025 07:00:00,25.6635413,94.0989878,OZONE,8,17,9
India,Rajasthan,Bhiwadi,"RIICO Ind. Area III, Bhiwadi - RSPCB",15-10-2025 07:00:00,28.194909,76.862296,PM10,82,357,186
India,Rajasthan,Bhiwadi,"RIICO Ind. Area III, Bhiwadi - RSPCB",15-10-2025 07:00:00,28.194909,76.862296,OZONE,10,67,12
India,Rajasthan,Bhiwadi,"Vasundhara Nagar_UIT, Bhiwadi - RSPCB",15-10-2025 07:00:00,28.207266,76.829265,NO2,13,134,69
India,Rajasthan,Bikaner,"MM Ground, Bikaner - RSPCB",15-10-2025 07:00:00,28.018792,73.292658,PM10,83,333,168
India,Rajasthan,Bikaner,"MM Ground, Bikaner - RSPCB",15-10-2025 07:00:00,28.018792,73.292658,NH3,9,15,11
India,Rajasthan,Bikaner,"MM Ground, Bikaner - RSPCB",15-10-2025 07:00:00,28.018792,73.292658,CO,14,116,33
India,Rajasthan,Bundi,"New Colony, Bundi - RSPCB",15-10-2025 07:00:00,25.435774,75.644272,NO2,5,40,16
India,Rajasthan,Bundi,"New Colony, Bundi - RSPCB",15-10-2025 07:00:00,25.435774,75.644272,SO2,1,7,4
India,Punjab,Rupnagar,"Ratanpura, Rupnagar - Ambuja Cements",15-10-2025 07:00:00,31.0325454,76.5623046,PM2.5,32,131,70
India,Punjab,Rupnagar,"Ratanpura, Rupnagar - Ambuja Cements",15-10-2025 07:00:00,31.0325454,76.5623046,NO2,5,7,6
India,Rajasthan,Ajmer,"Civil Lines,  Ajmer - RSPCB",15-10-2025 07:00:00,26.470859,74.646594,PM10,67,133,100
India,Rajasthan,Ajmer,"Civil Lines,  Ajmer - RSPCB",15-10-2025 07:00:00,26.470859,74.646594,NH3,3,28,6
India,Rajasthan,Ajmer,"Civil Lines,  Ajmer - RSPCB",15-10-2025 07:00:00,26.470859,74.646594,CO,20,51,38
India,Rajasthan,Alwar,"Moti Doongri, Alwar - RSPCB",15-10-2025 07:00:00,27.554793,76.611536,SO2,11,101,53
India,Rajasthan,Alwar,"Moti Doongri, Alwar - RSPCB",15-10-2025 07:00:00,27.554793,76.611536,CO,10,64,47
India,Odisha,Cuttack,"CDA Area, Cuttack - OSPCB",15-10-2025 07:00:00,20.48891     ,85.84768     ,OZONE,16,67,24
India,Odisha,Keonjhar,"Jagamohanpur, Keonjhar - OSPCB",15-10-2025 07:00:00,21.643900,85.599355,NH3,NA,NA,NA
India,Odisha,Keonjhar,"Jagamohanpur, Keonjhar - OSPCB",15-10-2025 07:00:00,21.643900,85.599355,CO,2,193,51
India,Odisha,Nayagarh,"Dabuna, Nayagarh - OSPCB",15-10-2025 07:00:00,21.847279,85.416905,SO2,7,10,8
India,Odisha,Rairangpur,"Divisional Forest Office, Rairangpur - OSPCB",15-10-2025 07:00:00,22.265816,86.174829,PM2.5,25,82,36
India,Odisha,Rairangpur,"Divisional Forest Office, Rairangpur - OSPCB",15-10-2025 07:00:00,22.265816,86.174829,NH3,2,3,3
India,Punjab,Jalandhar,"Civil Line, Jalandhar - PPCB",15-10-2025 07:00:00,31.321907,75.578914,SO2,17,19,18
India,Punjab,Jalandhar,"Civil Line, Jalandhar - PPCB",15-10-2025 07:00:00,31.321907,75.578914,OZONE,40,49,46
India,Punjab,Ludhiana,"Punjab Agricultural University, Ludhiana - PPCB",15-10-2025 07:00:00,30.9028,75.8086,PM10,102,185,118
India,Punjab,Mandi Gobindgarh,"RIMT University, Mandi Gobindgarh - PPCB",15-10-2025 07:00:00,30.649961,76.331442,NO2,23,24,24
India,Punjab,Mandi Gobindgarh,"RIMT University, Mandi Gobindgarh - PPCB",15-10-2025 07:00:00,30.649961,76.331442,NH3,6,6,6
India,Rajasthan,Baran,"Bamboliya, Baran - RSPCB",15-10-2025 07:00:00,25.106006,76.469948,PM10,41,199,81
India,Rajasthan,Barmer,"Railway Colony, Barmer - RSPCB",15-10-2025 07:00:00,25.747299,71.393989,SO2,4,135,16
India,Rajasthan,Bharatpur,"Krishna Nagar, Bharatpur - RSPCB",15-10-2025 07:00:00,27.215415,77.50873,SO2,2,16,5
India,Rajasthan,Bhilwara,"Pratap Nagar, Bhilwara - RSPCB",15-10-2025 07:00:00,25.339605,74.618883,PM10,31,122,63
India,Odisha,Brajrajnagar,"GM Office, Brajrajnagar - OSPCB",15-10-2025 07:00:00,21.8004996,83.8396977,PM2.5,33,179,70
India,Odisha,Brajrajnagar,"GM Office, Brajrajnagar - OSPCB",15-10-2025 07:00:00,21.8004996,83.8396977,PM10,46,163,85
India,Odisha,Byasanagar,"Ferro Chrome Colony, Byasanagar - OSPCB",15-10-2025 07:00:00,20.94185,86.11510,PM2.5,60,150,98
India,Odisha,Byasanagar,"Ferro Chrome Colony, Byasanagar - OSPCB",15-10-2025 07:00:00,20.94185,86.11510,NO2,4,17,10
India,Odisha,Byasanagar,"Ferro Chrome Colony, Byasanagar - OSPCB",15-10-2025 07:00:00,20.94185,86.11510,NH3,2,3,3
India,Odisha,Balasore,"Kalidaspur, Balasore - OSPCB",15-10-2025 07:00:00,21.51161,86.89088,PM2.5,72,173,105
India,Odisha,Balasore,"Kalidaspur, Balasore - OSPCB",15-10-2025 07:00:00,21.51161,86.89088,PM10,74,154,103
India,Odisha,Barbil,"Forest Office, Barbil - OSPCB",15-10-2025 07:00:00,22.1166054,85.3945546,NH3,2,3,3
India,Odisha,Bhubaneswar,"Lingraj Mandir, Bhubaneswar - OSPCB",15-10-2025 07:00:00,20.240790,85.836784,CO,32,82,63
India,Odisha,Talcher,"Talcher Coalfields,Talcher - OSPCB",15-10-2025 07:00:00,20.9360711,85.1707021,NH3,5,8,5
India,Puducherry,Puducherry,"Jawahar Nagar, Puducherry - PPCC",15-10-2025 07:00:00,11.9309,79.8027,PM10,7,56,23
India,Punjab,Bathinda,"Hardev Nagar, Bathinda - PPCB",15-10-2025 07:00:00,30.233011,74.907758,PM2.5,3,71,33
India,Rajasthan,Churu,"Subash Chowk, Churu - RSPCB",15-10-2025 07:00:00,28.296139,74.961696,PM10,97,256,151
India,Rajasthan,Churu,"Subash Chowk, Churu - RSPCB",15-10-2025 07:00:00,28.296139,74.961696,SO2,1,7,4
India,Rajasthan,Dausa,"Khatikan Mohalla, Dausa - RSPCB",15-10-2025 07:00:00,26.895552,76.334753,PM10,52,252,104
India,Rajasthan,Dausa,"Khatikan Mohalla, Dausa - RSPCB",15-10-2025 07:00:00,26.895552,76.334753,NH3,4,16,10
India,Rajasthan,Dholpur,"Raja Ganj, Dholpur - RSPCB",15-10-2025 07:00:00,26.699557,77.898881,PM2.5,48,173,85
India,Rajasthan,Dholpur,"Raja Ganj, Dholpur - RSPCB",15-10-2025 07:00:00,26.699557,77.898881,PM10,95,215,141
India,Rajasthan,Dholpur,"Raja Ganj, Dholpur - RSPCB",15-10-2025 07:00:00,26.699557,77.898881,SO2,9,12,10
India,Rajasthan,Dungarpur,"Bhoiwada, Dungarpur - RSPCB",15-10-2025 07:00:00,23.837789,73.714926,PM2.5,13,97,43
India,Rajasthan,Dungarpur,"Bhoiwada, Dungarpur - RSPCB",15-10-2025 07:00:00,23.837789,73.714926,NO2,5,33,13
India,Rajasthan,Dungarpur,"Bhoiwada, Dungarpur - RSPCB",15-10-2025 07:00:00,23.837789,73.714926,CO,5,9,6
India,Rajasthan,Jaipur,"Adarsh Nagar, Jaipur - RSPCB",15-10-2025 07:00:00,26.902909,75.836858,PM2.5,40,190,90
India,Rajasthan,Jaipur,"Adarsh Nagar, Jaipur - RSPCB",15-10-2025 07:00:00,26.902909,75.836858,PM10,58,129,89
India,Rajasthan,Jaipur,"Adarsh Nagar, Jaipur - RSPCB",15-10-2025 07:00:00,26.902909,75.836858,OZONE,9,147,27
India,Rajasthan,Jaipur,"Mansarovar Sector-12, Jaipur - RSPCB",15-10-2025 07:00:00,26.843698,75.766894,OZONE,4,276,71
India,Rajasthan,Jaipur,"Police Commissionerate, Jaipur - RSPCB",15-10-2025 07:00:00,26.9164092,75.7994901,PM10,77,162,122
India,Rajasthan,Jaipur,"Police Commissionerate, Jaipur - RSPCB",15-10-2025 07:00:00,26.9164092,75.7994901,NO2,81,104,94
India,Rajasthan,Jaipur,"Police Commissionerate, Jaipur - RSPCB",15-10-2025 07:00:00,26.9164092,75.7994901,NH3,8,11,9
India,Rajasthan,Jaipur,"Sector-2 Murlipura, Jaipur - RSPCB",15-10-2025 07:00:00,26.960669,75.771817,SO2,5,11,7
India,Rajasthan,Jaipur,"Shastri Nagar, Jaipur - RSPCB",15-10-2025 07:00:00,26.9502929,75.730943,NO2,49,143,80
India,Rajasthan,Jaipur,"Shastri Nagar, Jaipur - RSPCB",15-10-2025 07:00:00,26.9502929,75.730943,SO2,4,54,20
India,Rajasthan,Jaipur,"Shastri Nagar, Jaipur - RSPCB",15-10-2025 07:00:00,26.9502929,75.730943,CO,2,159,100
India,Rajasthan,Jaisalmer,"Sadar Bazar, Jaisalmer - RSPCB",15-10-2025 07:00:00,26.912329,70.909168,PM10,51,213,95
India,Rajasthan,Jaisalmer,"Sadar Bazar, Jaisalmer - RSPCB",15-10-2025 07:00:00,26.912329,70.909168,OZONE,5,108,45
India,Rajasthan,Jalore,"Mudtra Sili, Jalore - RSPCB",15-10-2025 07:00:00,25.344694,72.626208,NH3,3,9,6
India,Rajasthan,Jalore,"Mudtra Sili, Jalore - RSPCB",15-10-2025 07:00:00,25.344694,72.626208,SO2,3,6,4
India,Rajasthan,Jhalawar,"Rajlaxmi Nagar, Jhalawar - RSPCB",15-10-2025 07:00:00,24.588397,76.172782,OZONE,21,148,49
India,Rajasthan,Jodhpur,"Collectorate, Jodhpur - RSPCB",15-10-2025 07:00:00,26.268249,73.0193853,PM2.5,21,276,125
India,Rajasthan,Jodhpur,"Collectorate, Jodhpur - RSPCB",15-10-2025 07:00:00,26.268249,73.0193853,NO2,15,33,21
India,Rajasthan,Jodhpur,"Collectorate, Jodhpur - RSPCB",15-10-2025 07:00:00,26.268249,73.0193853,NH3,5,19,12
India,Rajasthan,Karauli,"Satyawati Vihar, Karauli - RSPCB",15-10-2025 07:00:00,26.506177,77.025989,OZONE,NA,NA,NA
India,Rajasthan,Kota,"Dhanmandi, Kota - RSPCB",15-10-2025 07:00:00,25.164090,75.858137,OZONE,9,143,11
India,Rajasthan,Kota,"Shrinath Puram, Kota - RSPCB",15-10-2025 07:00:00,25.14389,75.821256,NO2,11,16,14
India,Rajasthan,Nagaur,"Karni Colony, Nagaur - RSPCB",15-10-2025 07:00:00,27.213494,73.734444,NO2,7,59,26
India,Rajasthan,Nagaur,"Karni Colony, Nagaur - RSPCB",15-10-2025 07:00:00,27.213494,73.734444,CO,12,59,17
India,Rajasthan,Rajsamand,"Dhoinda, Rajsamand - RSPCB",15-10-2025 07:00:00,25.036360,73.883502,PM2.5,35,177,58
India,Rajasthan,Rajsamand,"Dhoinda, Rajsamand - RSPCB",15-10-2025 07:00:00,25.036360,73.883502,NO2,4,58,16
India,Rajasthan,Rajsamand,"Dhoinda, Rajsamand - RSPCB",15-10-2025 07:00:00,25.036360,73.883502,SO2,1,15,6
India,Rajasthan,Sawai Madhopur,"Sahu Nagar, Sawai Madhopur - RSPCB",15-10-2025 07:00:00,26.031443,76.359327,OZONE,16,145,24
India,Rajasthan,Sikar,"Radhakishan Pura, Sikar - RSPCB",15-10-2025 07:00:00,27.608912,75.153302,PM10,70,330,133
India,Rajasthan,Sri Ganganagar,"Old City, Sri Ganganagar - RSPCB",15-10-2025 07:00:00,29.931624,73.864511,PM2.5,37,140,61
India,Rajasthan,Sri Ganganagar,"Old City, Sri Ganganagar - RSPCB",15-10-2025 07:00:00,29.931624,73.864511,NH3,2,3,3
India,Rajasthan,Tonk,"Shastri Nagar, Tonk - RSPCB",15-10-2025 07:00:00,26.159933,75.780517,PM10,84,406,141
India,Rajasthan,Udaipur,"Ashok Nagar, Udaipur - RSPCB",15-10-2025 07:00:00,24.5886166,73.6321397,SO2,7,14,9
India,Rajasthan,Jodhpur,"Samrat Ashok Udhyan, Jodhpur - RSPCB",15-10-2025 07:00:00,26.253384,72.976571,CO,28,72,47
India,Rajasthan,Jodhpur,"Samrat Ashok Udhyan, Jodhpur - RSPCB",15-10-2025 07:00:00,26.253384,72.976571,OZONE,1,180,46
India,Rajasthan,Karauli,"Satyawati Vihar, Karauli - RSPCB",15-10-2025 07:00:00,26.506177,77.025989,PM10,NA,NA,NA
India,Rajasthan,Karauli,"Satyawati Vihar, Karauli - RSPCB",15-10-2025 07:00:00,26.506177,77.025989,NO2,NA,NA,NA
India,Rajasthan,Karauli,"Satyawati Vihar, Karauli - RSPCB",15-10-2025 07:00:00,26.506177,77.025989,SO2,NA,NA,NA
India,Rajasthan,Pali,"Indira Colony Vistar, Pali - RSPCB",15-10-2025 07:00:00,25.771061, 73.340227,NO2,42,58,48
India,Rajasthan,Pali,"Indira Colony Vistar, Pali - RSPCB",15-10-2025 07:00:00,25.771061, 73.340227,CO,8,43,25
India,TamilNadu,Chennai,"Velachery Res. Area, Chennai - CPCB",15-10-2025 07:00:00,13.0052189,80.2398125,CO,32,59,54
India,TamilNadu,Coimbatore,"PSG College of Arts and Science, Coimbatore - TNPCB",15-10-2025 07:00:00,11.0328,77.0349,PM2.5,89,305,171
India,TamilNadu,Coimbatore,"PSG College of Arts and Science, Coimbatore - TNPCB",15-10-2025 07:00:00,11.0328,77.0349,PM10,68,140,99
India,TamilNadu,Coimbatore,"PSG College of Arts and Science, Coimbatore - TNPCB",15-10-2025 07:00:00,11.0328,77.0349,NO2,10,13,11
India,TamilNadu,Coimbatore,"PSG College of Arts and Science, Coimbatore - TNPCB",15-10-2025 07:00:00,11.0328,77.0349,SO2,10,34,21
India,TamilNadu,Coimbatore,"SIDCO Kurichi, Coimbatore - TNPCB",15-10-2025 07:00:00,10.942451,76.978996,NO2,6,60,29
India,TamilNadu,Coimbatore,"SIDCO Kurichi, Coimbatore - TNPCB",15-10-2025 07:00:00,10.942451,76.978996,CO,36,73,45
India,TamilNadu,Cuddalore,"Kudikadu, Cuddalore - TNPCB",15-10-2025 07:00:00,11.6829898,79.7532099,PM2.5,12,51,28
India,TamilNadu,Cuddalore,"Kudikadu, Cuddalore - TNPCB",15-10-2025 07:00:00,11.6829898,79.7532099,OZONE,12,13,13
India,TamilNadu,Cuddalore,"Semmandalam, Cuddalore - TNPCB",15-10-2025 07:00:00,11.7637683,79.7499835,PM2.5,7,98,36
India,TamilNadu,Dindigul,"Mendonsa Colony, Dindigul - TNPCB",15-10-2025 07:00:00,10.358535,77.984321,NH3,1,2,2
India,TamilNadu,Dindigul,"Mendonsa Colony, Dindigul - TNPCB",15-10-2025 07:00:00,10.358535,77.984321,SO2,20,24,22
India,TamilNadu,Dindigul,"Mendonsa Colony, Dindigul - TNPCB",15-10-2025 07:00:00,10.358535,77.984321,OZONE,5,44,7
India,TamilNadu,Gummidipoondi,"Anthoni Pillai Nagar, Gummidipoondi - TNPCB",15-10-2025 07:00:00,13.4127,80.1081,PM10,27,156,73
India,TamilNadu,Kanchipuram,"Kilambi, Kanchipuram - TNPCB",15-10-2025 07:00:00,12.864618,79.659968,PM10,74,102,87
India,TamilNadu,Kanchipuram,"Kilambi, Kanchipuram - TNPCB",15-10-2025 07:00:00,12.864618,79.659968,NO2,3,24,12
India,TamilNadu,Kanchipuram,"Kilambi, Kanchipuram - TNPCB",15-10-2025 07:00:00,12.864618,79.659968,CO,21,23,22
India,TamilNadu,Karur,"Kamadenu Nagar, Karur - TNPCB",15-10-2025 07:00:00,10.967820,78.080882,NH3,3,3,3
India,TamilNadu,Karur,"Kamadenu Nagar, Karur - TNPCB",15-10-2025 07:00:00,10.967820,78.080882,CO,10,36,12
India,TamilNadu,Palkalaiperur,"Bharathidasan University, Palkalaiperur - TNPCB",15-10-2025 07:00:00,10.681158,78.741746,SO2,5,6,6
India,TamilNadu,Perundurai,"SIPCOT Industrial Park, Perundurai - TNPCB",15-10-2025 07:00:00,11.258242,77.552761,PM10,19,74,40
India,TamilNadu,Perundurai,"SIPCOT Industrial Park, Perundurai - TNPCB",15-10-2025 07:00:00,11.258242,77.552761,NH3,3,6,4
India,TamilNadu,Pudukottai,"SIPCOT Nathampannai, Pudukottai - TNPCB",15-10-2025 07:00:00,10.423417,78.784889,PM2.5,12,62,26
India,TamilNadu,Ramanathapuram,"Chalai Bazaar, Ramanathapuram - TNPCB",15-10-2025 07:00:00,9.36399,78.831977,NH3,2,2,2
India,TamilNadu,Ramanathapuram,"Chalai Bazaar, Ramanathapuram - TNPCB",15-10-2025 07:00:00,9.36399,78.831977,CO,25,32,28
India,TamilNadu,Thanjavur,"Parisutham Nagar, Thanjavur - TNPCB",15-10-2025 07:00:00,10.7654824,79.1389968,PM2.5,28,56,45
India,Telangana,Hyderabad,"Central University, Hyderabad - TSPCB",15-10-2025 07:00:00,17.460103,78.334361,PM10,8,26,16
India,Telangana,Hyderabad,"ECIL Kapra, Hyderabad - TSPCB",15-10-2025 07:00:00,17.470431,78.566959,NO2,10,22,14
India,Telangana,Hyderabad,"ECIL Kapra, Hyderabad - TSPCB",15-10-2025 07:00:00,17.470431,78.566959,NH3,4,5,5
India,Telangana,Hyderabad,"ECIL Kapra, Hyderabad - TSPCB",15-10-2025 07:00:00,17.470431,78.566959,CO,6,24,9
India,Telangana,Hyderabad,"ICRISAT Patancheru, Hyderabad - TSPCB",15-10-2025 07:00:00,17.518400,78.278777,PM10,26,132,55
India,Telangana,Hyderabad,"ICRISAT Patancheru, Hyderabad - TSPCB",15-10-2025 07:00:00,17.518400,78.278777,NH3,1,4,2
India,Telangana,Hyderabad,"ICRISAT Patancheru, Hyderabad - TSPCB",15-10-2025 07:00:00,17.518400,78.278777,CO,6,38,18
India,TamilNadu,Chennai,"Kodungaiyur, Chennai - TNPCB",15-10-2025 07:00:00,13.1278,80.2642,NO2,6,78,12
India,TamilNadu,Chennai,"Perungudi, Chennai - TNPCB",15-10-2025 07:00:00,12.9533,80.2357,NO2,1,5,2
India,TamilNadu,Chennai,"Perungudi, Chennai - TNPCB",15-10-2025 07:00:00,12.9533,80.2357,OZONE,1,5,1
India,TamilNadu,Chennai,"Royapuram, Chennai - TNPCB",15-10-2025 07:00:00,13.1036,80.2909,PM2.5,8,57,23
India,TamilNadu,Chennai,"Royapuram, Chennai - TNPCB",15-10-2025 07:00:00,13.1036,80.2909,PM10,14,50,27
India,TamilNadu,Chennai,"Royapuram, Chennai - TNPCB",15-10-2025 07:00:00,13.1036,80.2909,NO2,4,21,13
India,TamilNadu,Chennai,"Royapuram, Chennai - TNPCB",15-10-2025 07:00:00,13.1036,80.2909,CO,6,16,9
India,TamilNadu,Madurai,"Uchapatti, Madurai - TNPCB",15-10-2025 07:00:00,9.865935,78.022669,CO,24,26,25
India,TamilNadu,Nagapattinam,"Velippalayam, Nagapattinam - TNPCB",15-10-2025 07:00:00,10.798548,79.838212,PM2.5,5,52,14
India,TamilNadu,Namakkal,"Ponnusamy Nagar, Namakkal - TNPCB",15-10-2025 07:00:00,11.273992,78.163545,NH3,1,1,1
India,TamilNadu,Ooty,"Bombay Castel, Ooty - TNPCB",15-10-2025 07:00:00,11.4068288,76.7138973,NH3,NA,NA,NA
India,TamilNadu,Tirunelveli,"Municipal Corporation Office, Tirunelveli - TNPCB",15-10-2025 07:00:00,8.728442,77.6962,NO2,6,16,11
India,TamilNadu,Virudhunagar,"Collectorate Office, Virudhunagar - TNPCB",15-10-2025 07:00:00,9.559382,77.948828,PM2.5,21,71,36
India,TamilNadu,Virudhunagar,"Collectorate Office, Virudhunagar - TNPCB",15-10-2025 07:00:00,9.559382,77.948828,NO2,20,23,21
India,Telangana,Hyderabad,"Bollaram Industrial Area, Hyderabad - TSPCB",15-10-2025 07:00:00,17.540891,78.358528,NO2,11,38,27
India,Sikkim,Gangtok,"Zero Point GICI, Gangtok - SSPCB",15-10-2025 07:00:00,27.338530,88.614099,PM10,10,36,20
India,TamilNadu,Chengalpattu,"Crescent University, Chengalpattu - TNPCB",15-10-2025 07:00:00,12.8777316,80.0834807,PM2.5,44,81,60
India,TamilNadu,Chengalpattu,"Crescent University, Chengalpattu - TNPCB",15-10-2025 07:00:00,12.8777316,80.0834807,PM10,40,80,60
India,Telangana,Hyderabad,"Kompally Municipal Office, Hyderabad - TSPCB",15-10-2025 07:00:00,17.544899,78.486949,NO2,16,17,17
India,Telangana,Hyderabad,"New Malakpet, Hyderabad - TSPCB",15-10-2025 07:00:00,17.37206,78.50864,NO2,12,16,14
India,Uttar_Pradesh,Lucknow,"Gomti Nagar, Lucknow - UPPCB",15-10-2025 07:00:00,26.868120,81.005119,OZONE,34,44,35
India,Uttar_Pradesh,Lucknow,"Kendriya Vidyalaya, Lucknow - CPCB",15-10-2025 07:00:00,26.906111,80.948222,PM2.5,55,246,142
India,Uttar_Pradesh,Lucknow,"Kendriya Vidyalaya, Lucknow - CPCB",15-10-2025 07:00:00,26.906111,80.948222,SO2,4,39,16
India,Uttar_Pradesh,Lucknow,"Kukrail Picnic Spot-1, Lucknow - UPPCB",15-10-2025 07:00:00,26.90723,80.98579,NO2,20,24,23
India,Uttar_Pradesh,Lucknow,"Kukrail Picnic Spot-1, Lucknow - UPPCB",15-10-2025 07:00:00,26.90723,80.98579,SO2,27,29,28
India,Uttar_Pradesh,Lucknow,"Lalbagh, Lucknow - CPCB",15-10-2025 07:00:00,26.8458805,80.9365541,NO2,42,71,55
India,Uttar_Pradesh,Lucknow,"Lalbagh, Lucknow - CPCB",15-10-2025 07:00:00,26.8458805,80.9365541,CO,2,108,20
India,Uttar_Pradesh,Lucknow,"Lalbagh, Lucknow - CPCB",15-10-2025 07:00:00,26.8458805,80.9365541,OZONE,10,56,24
India,Uttar_Pradesh,Lucknow,"Talkatora District Industries Center, Lucknow - CPCB",15-10-2025 07:00:00,26.83399722,80.8917361,PM10,72,154,122
India,Uttar_Pradesh,Lucknow,"Talkatora District Industries Center, Lucknow - CPCB",15-10-2025 07:00:00,26.83399722,80.8917361,NO2,33,59,42
India,Uttar_Pradesh,Agra,"Shahjahan Garden, Agra - UPPCB",15-10-2025 07:00:00,27.169338,78.03582,SO2,19,28,23
India,Uttar_Pradesh,Agra,"Shastripuram, Agra - UPPCB",15-10-2025 07:00:00,27.19862,77.92066,CO,20,32,26
India,Uttar_Pradesh,Agra,"Shastripuram, Agra - UPPCB",15-10-2025 07:00:00,27.19862,77.92066,OZONE,6,7,7
India,Uttar_Pradesh,Baghpat,"Sardar Patel Inter College, Baghpat - UPPCB",15-10-2025 07:00:00,28.964949,77.278761,PM2.5,58,120,87
India,Uttar_Pradesh,Baghpat,"Sardar Patel Inter College, Baghpat - UPPCB",15-10-2025 07:00:00,28.964949,77.278761,NH3,4,7,6
India,Uttar_Pradesh,Bareilly,"Civil Lines, Bareilly - UPPCB",15-10-2025 07:00:00,28.359581,79.414455,SO2,9,30,17
India,Uttar_Pradesh,Bareilly,"Rajendra Nagar, Bareilly - UPPCB",15-10-2025 07:00:00,28.38910936,79.42963708,PM2.5,80,245,159
India,Uttar_Pradesh,Bareilly,"Rajendra Nagar, Bareilly - UPPCB",15-10-2025 07:00:00,28.38910936,79.42963708,PM10,115,225,155
India,Uttar_Pradesh,Greater Noida,"Knowledge Park - III, Greater Noida - UPPCB",15-10-2025 07:00:00,28.47272,77.482000,PM10,113,404,195
India,Uttar_Pradesh,Greater Noida,"Knowledge Park - V, Greater Noida - UPPCB",15-10-2025 07:00:00,28.557054,77.453663,PM2.5,69,338,197
India,Uttar_Pradesh,Greater Noida,"Knowledge Park - V, Greater Noida - UPPCB",15-10-2025 07:00:00,28.557054,77.453663,NO2,38,157,89
India,Uttar_Pradesh,Greater Noida,"Knowledge Park - V, Greater Noida - UPPCB",15-10-2025 07:00:00,28.557054,77.453663,SO2,11,19,16
India,Uttar_Pradesh,Hapur,"Anand Vihar, Hapur - UPPCB",15-10-2025 07:00:00,28.725645,77.749675,OZONE,30,165,39
India,Uttar_Pradesh,Kanpur,"FTI Kidwai Nagar, Kanpur - UPPCB",15-10-2025 07:00:00,26.428282,80.327067,PM2.5,46,300,140
India,Uttar_Pradesh,Meerut,"Ganga Nagar, Meerut - UPPCB",15-10-2025 07:00:00,28.999264,77.7590354,OZONE,15,106,41
India,Uttar_Pradesh,Meerut,"Pallavpuram Phase 2, Meerut - UPPCB",15-10-2025 07:00:00,29.063510,77.709723,PM10,114,280,190
India,Uttar_Pradesh,Meerut,"Pallavpuram Phase 2, Meerut - UPPCB",15-10-2025 07:00:00,29.063510,77.709723,CO,7,58,26
India,Uttar_Pradesh,Moradabad,"Buddhi Vihar, Moradabad - UPPCB",15-10-2025 07:00:00,28.83526,78.74460,PM10,122,266,161
India,Uttar_Pradesh,Moradabad,"Buddhi Vihar, Moradabad - UPPCB",15-10-2025 07:00:00,28.83526,78.74460,SO2,28,84,31
India,Uttar_Pradesh,Agra,"Manoharpur, Agra - UPPCB",15-10-2025 07:00:00,27.23711,78.01936,PM10,60,149,113
India,Uttar_Pradesh,Agra,"Manoharpur, Agra - UPPCB",15-10-2025 07:00:00,27.23711,78.01936,NH3,2,2,2
India,Uttar_Pradesh,Agra,"Rohta, Agra - UPPCB",15-10-2025 07:00:00,27.106972,78.000111,NO2,17,17,17
India,Uttar_Pradesh,Agra,"Rohta, Agra - UPPCB",15-10-2025 07:00:00,27.106972,78.000111,SO2,14,29,22
India,Uttar_Pradesh,Agra,"Rohta, Agra - UPPCB",15-10-2025 07:00:00,27.106972,78.000111,OZONE,9,11,10
India,Uttar_Pradesh,Agra,"Sanjay Palace, Agra - UPPCB",15-10-2025 07:00:00,27.19865833,78.00598056,CO,32,60,43
India,Uttar_Pradesh,Ghaziabad,"Loni, Ghaziabad - UPPCB",15-10-2025 07:00:00,28.757294,77.278792,SO2,8,21,17
India,Uttar_Pradesh,Ghaziabad,"Loni, Ghaziabad - UPPCB",15-10-2025 07:00:00,28.757294,77.278792,CO,50,58,57
India,Uttar_Pradesh,Ghaziabad,"Vasundhara, Ghaziabad - UPPCB",15-10-2025 07:00:00,28.6603346,77.3572563,NO2,19,108,50
India,Uttar_Pradesh,Gorakhpur,"Madan Mohan Malaviya University of Technology, Gorakhpur - UPPCB",15-10-2025 07:00:00,26.730136,83.433859,NO2,10,12,11
India,Uttar_Pradesh,Gorakhpur,"Madan Mohan Malaviya University of Technology, Gorakhpur - UPPCB",15-10-2025 07:00:00,26.730136,83.433859,CO,4,6,6
India,Telangana,Hyderabad,"Ramachandrapuram, Hyderabad - TSPCB",15-10-2025 07:00:00,17.528544,78.286195,PM10,57,71,67
India,Telangana,Hyderabad,"Ramachandrapuram, Hyderabad - TSPCB",15-10-2025 07:00:00,17.528544,78.286195,OZONE,1,62,9
India,Telangana,Hyderabad,"Somajiguda, Hyderabad - TSPCB",15-10-2025 07:00:00,17.417094,78.457437,NH3,3,4,3
India,Telangana,Hyderabad,"Somajiguda, Hyderabad - TSPCB",15-10-2025 07:00:00,17.417094,78.457437,SO2,NA,NA,NA
India,Telangana,Hyderabad,"Zoo Park, Hyderabad - TSPCB",15-10-2025 07:00:00,17.349694,78.451437,CO,10,16,13
India,Uttar_Pradesh,Kanpur,"Nehru Nagar, Kanpur - UPPCB",15-10-2025 07:00:00,26.4703136,80.3229863,PM2.5,NA,NA,NA
India,Uttar_Pradesh,Kanpur,"Nehru Nagar, Kanpur - UPPCB",15-10-2025 07:00:00,26.4703136,80.3229863,NO2,NA,NA,NA
India,Uttar_Pradesh,Kanpur,"Nehru Nagar, Kanpur - UPPCB",15-10-2025 07:00:00,26.4703136,80.3229863,OZONE,NA,NA,NA
India,Uttar_Pradesh,Khurja,"Kalindi Kunj, Khurja - UPPCB",15-10-2025 07:00:00,28.2348927,77.8683002,NO2,3,4,3
India,Uttar_Pradesh,Khurja,"Kalindi Kunj, Khurja - UPPCB",15-10-2025 07:00:00,28.2348927,77.8683002,SO2,14,15,15
India,Uttar_Pradesh,Khurja,"Kalindi Kunj, Khurja - UPPCB",15-10-2025 07:00:00,28.2348927,77.8683002,OZONE,4,37,5
India,Uttar_Pradesh,Bulandshahr,"Yamunapuram, Bulandshahr - UPPCB",15-10-2025 07:00:00,28.406963,77.849831,CO,20,95,49
India,Uttar_Pradesh,Firozabad,"Nagla Bhau, Firozabad - UPPCB",15-10-2025 07:00:00,27.168897,78.376960,PM2.5,18,67,38
India,Uttar_Pradesh,Firozabad,"Nagla Bhau, Firozabad - UPPCB",15-10-2025 07:00:00,27.168897,78.376960,NO2,17,17,17
India,West_Bengal,Durgapur,"PCBL Residential Complex, Durgapur - WBPCB",15-10-2025 07:00:00,23.5087640,87.3544400,PM10,67,111,92
India,West_Bengal,Durgapur,"PCBL Residential Complex, Durgapur - WBPCB",15-10-2025 07:00:00,23.5087640,87.3544400,NO2,8,12,11
India,West_Bengal,Durgapur,"PCBL Residential Complex, Durgapur - WBPCB",15-10-2025 07:00:00,23.5087640,87.3544400,SO2,5,6,5
India,West_Bengal,Durgapur,"Womens College_City Center, Durgapur - WBPCB (Formerly known as Sidhu Kanhu Indoor Stadium)",15-10-2025 07:00:00,23.549395,87.300496,PM10,75,114,92
India,West_Bengal,Durgapur,"Womens College_City Center, Durgapur - WBPCB (Formerly known as Sidhu Kanhu Indoor Stadium)",15-10-2025 07:00:00,23.549395,87.300496,NO2,25,29,27
India,West_Bengal,Durgapur,"Womens College_City Center, Durgapur - WBPCB (Formerly known as Sidhu Kanhu Indoor Stadium)",15-10-2025 07:00:00,23.549395,87.300496,NH3,2,3,2
India,West_Bengal,Durgapur,"Womens College_City Center, Durgapur - WBPCB (Formerly known as Sidhu Kanhu Indoor Stadium)",15-10-2025 07:00:00,23.549395,87.300496,OZONE,9,63,11
India,West_Bengal,Haldia,"Priyambada Housing Estate, Haldia - WBPCB",15-10-2025 07:00:00,22.06047,88.109737,PM2.5,95,159,128
India,West_Bengal,Howrah,"Belur Math, Howrah - WBPCB",15-10-2025 07:00:00,22.629801,88.352017,PM10,105,136,119
India,West_Bengal,Asansol,"Mahabir Colliery, Asansol - WBPCB",15-10-2025 07:00:00,23.6181830,87.1057180,PM2.5,60,138,93
India,West_Bengal,Asansol,"Mahabir Colliery, Asansol - WBPCB",15-10-2025 07:00:00,23.6181830,87.1057180,PM10,50,116,82
India,West_Bengal,Barrackpore,"SVSPA Campus, Barrackpore - WBPCB",15-10-2025 07:00:00,22.7605581,88.3617589,NO2,12,34,23
India,West_Bengal,Barrackpore,"SVSPA Campus, Barrackpore - WBPCB",15-10-2025 07:00:00,22.7605581,88.3617589,CO,24,42,29
India,West_Bengal,Barrackpore,"SVSPA Campus, Barrackpore - WBPCB",15-10-2025 07:00:00,22.7605581,88.3617589,OZONE,7,46,11
India,West_Bengal,Durgapur,"Mahishkapur Road_B-Zone, Durgapur - WBPCB",15-10-2025 07:00:00,23.567923,87.306843,PM2.5,36,70,53
India,West_Bengal,Durgapur,"Mahishkapur Road_B-Zone, Durgapur - WBPCB",15-10-2025 07:00:00,23.567923,87.306843,PM10,47,81,66
India,Uttar_Pradesh,Vrindavan,"Omex Eternity, Vrindavan - UPPCB",15-10-2025 07:00:00,27.5714090,77.6557570,OZONE,15,15,15
India,Uttarakhand,Dehradun,"Doon University, Dehradun - UKPCB",15-10-2025 07:00:00,30.269444,78.044167,PM2.5,23,91,59
India,Uttarakhand,Kashipur,"Govt. Girls Inter College, Kashipur - UKPCB",15-10-2025 07:00:00,29.2124114,78.9611753,NH3,2,22,8
India,Uttarakhand,Kashipur,"Govt. Girls Inter College, Kashipur - UKPCB",15-10-2025 07:00:00,29.2124114,78.9611753,CO,9,22,20
India,Uttarakhand,Rishikesh,"Shivaji Nagar, Rishikesh - UKPCB",15-10-2025 07:00:00,30.075911,78.2859547,SO2,3,3,3
India,Uttar_Pradesh,Moradabad,"Eco Herbal Park, Moradabad - UPPCB",15-10-2025 07:00:00,28.840739,78.697531,PM2.5,63,319,123
India,Uttar_Pradesh,Moradabad,"Employment Office, Moradabad - UPPCB",15-10-2025 07:00:00,28.88528,78.73880,PM10,93,176,134
India,Uttar_Pradesh,Moradabad,"Jigar Colony, Moradabad - UPPCB",15-10-2025 07:00:00,28.856664,78.772638,PM2.5,65,221,115
India,Uttar_Pradesh,Moradabad,"Jigar Colony, Moradabad - UPPCB",15-10-2025 07:00:00,28.856664,78.772638,SO2,3,27,20
India,Uttar_Pradesh,Moradabad,"Jigar Colony, Moradabad - UPPCB",15-10-2025 07:00:00,28.856664,78.772638,CO,40,41,41
India,Uttar_Pradesh,Moradabad,"Kashiram Nagar, Moradabad - UPPCB",15-10-2025 07:00:00,28.849399,78.742362,SO2,53,106,80
India,West_Bengal,Howrah,"Botanical Garden, Howrah - WBPCB",15-10-2025 07:00:00,22.554954,88.292568,PM2.5,64,129,98
India,West_Bengal,Howrah,"Dasnagar, Howrah - WBPCB",15-10-2025 07:00:00,22.6025571,88.3105664,NH3,1,1,1
India,West_Bengal,Howrah,"Ghusuri, Howrah - WBPCB",15-10-2025 07:00:00,22.611968,88.347422,NO2,21,27,24
India,West_Bengal,Howrah,"Ghusuri, Howrah - WBPCB",15-10-2025 07:00:00,22.611968,88.347422,SO2,1,15,8
India,West_Bengal,Howrah,"Ghusuri, Howrah - WBPCB",15-10-2025 07:00:00,22.611968,88.347422,CO,7,48,10
India,Uttar_Pradesh,Noida,"Sector-116, Noida - UPPCB",15-10-2025 07:00:00,28.569230,77.393848,NH3,9,13,11
India,Uttar_Pradesh,Prayagraj,"Nagar Nigam, Prayagraj - UPPCB",15-10-2025 07:00:00,25.44919916 ,81.82735986 ,PM2.5,53,123,81
India,Uttar_Pradesh,Prayagraj,"Nagar Nigam, Prayagraj - UPPCB",15-10-2025 07:00:00,25.44919916 ,81.82735986 ,NH3,2,12,7
India,Uttar_Pradesh,Noida,"Sector - 125, Noida - UPPCB",15-10-2025 07:00:00,28.5447608,77.3231257,OZONE,12,236,12
India,Uttar_Pradesh,Noida,"Sector-1, Noida - UPPCB",15-10-2025 07:00:00,28.5898,77.3101,PM10,147,433,265
India,Uttar_Pradesh,Noida,"Sector-1, Noida - UPPCB",15-10-2025 07:00:00,28.5898,77.3101,NH3,7,11,9
India,Uttar_Pradesh,Varanasi,"IESD Banaras Hindu University, Varanasi - UPPCB",15-10-2025 07:00:00,25.262326,82.995408,NO2,2,2,2
India,Uttar_Pradesh,Varanasi,"Bhelupur, Varanasi - UPPCB",15-10-2025 07:00:00,25.301778,82.996789,CO,11,50,30
India,West_Bengal,Howrah,"Padmapukur, Howrah - WBPCB",15-10-2025 07:00:00,22.5687319,88.2797276,CO,15,26,19
India,West_Bengal,Kolkata,"Ballygunge, Kolkata - WBPCB",15-10-2025 07:00:00,22.5367507,88.3638022,NO2,27,64,47
India,West_Bengal,Kolkata,"Bidhannagar, Kolkata - WBPCB",15-10-2025 07:00:00,22.58157048,88.41002457,NO2,1,20,7
India,West_Bengal,Kolkata,"Fort William, Kolkata - WBPCB",15-10-2025 07:00:00,22.556640,88.342674,NH3,5,7,6
India,West_Bengal,Kolkata,"Jadavpur, Kolkata - WBPCB",15-10-2025 07:00:00,22.49929,88.36917,NH3,7,14,8
India,West_Bengal,Kolkata,"Jadavpur, Kolkata - WBPCB",15-10-2025 07:00:00,22.49929,88.36917,OZONE,14,68,20
India,West_Bengal,Kolkata,"Rabindra Bharati University, Kolkata - WBPCB",15-10-2025 07:00:00,22.627847,88.380669,NO2,31,74,48
India,West_Bengal,Kolkata,"Rabindra Sarobar, Kolkata - WBPCB",15-10-2025 07:00:00,22.51106,88.35142,PM10,64,81,71
India,West_Bengal,Kolkata,"Rabindra Sarobar, Kolkata - WBPCB",15-10-2025 07:00:00,22.51106,88.35142,NO2,41,155,77
India,West_Bengal,Kolkata,"Victoria, Kolkata - WBPCB",15-10-2025 07:00:00,22.5448082,88.3403691,NO2,12,26,18
India,West_Bengal,Kolkata,"Victoria, Kolkata - WBPCB",15-10-2025 07:00:00,22.5448082,88.3403691,OZONE,6,35,11
India,West_Bengal,Siliguri,"Ward-32 Bapupara, Siliguri - WBPCB",15-10-2025 07:00:00,26.6879226,88.4152495,PM2.5,33,62,47
India,Andhra_Pradesh,Vijayawada,"Rajiv Gandhi Park, Vijayawada - APPCB",15-10-2025 07:00:00,16.509717,80.612222,NO2,28,53,38
India,Andhra_Pradesh,Vijayawada,"Rajiv Nagar, Vijayawada - APPCB",15-10-2025 07:00:00,16.554731,80.649110,OZONE,62,88,71
India,Andhra_Pradesh,Visakhapatnam,"GVM Corporation, Visakhapatnam - APPCB",15-10-2025 07:00:00,17.72,83.3,OZONE,33,71,60
India,Arunachal_Pradesh,Naharlagun,"Naharlagun, Naharlagun - APSPCB",15-10-2025 07:00:00,27.103358,93.679645,NO2,5,6,6
India,Arunachal_Pradesh,Naharlagun,"Naharlagun, Naharlagun - APSPCB",15-10-2025 07:00:00,27.103358,93.679645,SO2,8,8,8
India,Assam,Byrnihat,"Central Academy for SFS, Byrnihat - PCBA",15-10-2025 07:00:00,26.071318,91.87488,PM2.5,80,158,103
India,Assam,Byrnihat,"Central Academy for SFS, Byrnihat - PCBA",15-10-2025 07:00:00,26.071318,91.87488,PM10,76,115,91
India,Bihar,Araria,"Kharahiya Basti, Araria - BSPCB",15-10-2025 07:00:00,26.146529,87.454184,NH3,5,5,5
India,Bihar,Araria,"Kharahiya Basti, Araria - BSPCB",15-10-2025 07:00:00,26.146529,87.454184,SO2,13,22,20
India,Bihar,Arrah,"New DM Office, Arrah - BSPCB",15-10-2025 07:00:00,25.5626095,84.663264,CO,42,75,52
India,Bihar,Arrah,"New DM Office, Arrah - BSPCB",15-10-2025 07:00:00,25.5626095,84.663264,OZONE,5,41,8
India,Bihar,Aurangabad,"Gurdeo Nagar, Aurangabad - BSPCB",15-10-2025 07:00:00,24.75746,84.366208,PM10,5,22,15
India,Bihar,Begusarai,"Lohiyanagar, Begusarai - BSPCB",15-10-2025 07:00:00,25.42742023,86.13886079,PM2.5,16,58,46
India,Assam,Nagaon,"Christianpatty, Nagaon - PCBA",15-10-2025 07:00:00,26.349082,92.68449,CO,17,106,38
India,Assam,Nalbari,"Bata Chowk, Nalbari - PCBA",15-10-2025 07:00:00,26.446912,91.439057,PM10,45,47,47
India,Assam,Silchar,"Tarapur, Silchar - PCBA",15-10-2025 07:00:00,24.82827,92.79525,OZONE,1,15,2
India,Assam,Sivasagar,"Girls College, Sivasagar - PCBA",15-10-2025 07:00:00,26.987634,94.636574,OZONE,1,13,1
India,Bihar,Araria,"Kharahiya Basti, Araria - BSPCB",15-10-2025 07:00:00,26.146529,87.454184,PM10,35,75,53
India,Assam,Byrnihat,"Central Academy for SFS, Byrnihat - PCBA",15-10-2025 07:00:00,26.071318,91.87488,OZONE,18,30,20
India,Assam,Guwahati,"IITG, Guwahati - PCBA",15-10-2025 07:00:00,26.2028636,91.70046436,PM10,31,124,76
India,Assam,Guwahati,"LGBI Airport, Guwahati - PCBA",15-10-2025 07:00:00,26.10887,91.589544,NH3,NA,NA,NA
India,Assam,Guwahati,"LGBI Airport, Guwahati - PCBA",15-10-2025 07:00:00,26.10887,91.589544,CO,15,66,66
India,Assam,Guwahati,"LGBI Airport, Guwahati - PCBA",15-10-2025 07:00:00,26.10887,91.589544,OZONE,14,17,14
India,Assam,Guwahati,"Pan Bazaar, Guwahati - PCBA",15-10-2025 07:00:00,26.187500,91.744194,PM2.5,24,72,50
India,Andaman and Nicobar,Sri Vijaya Puram,"Police Line, Sri Vijaya Puram - ANPCC",15-10-2025 07:00:00,11.654054,92.734055,NH3,NA,NA,NA
India,Andhra_Pradesh,Amaravati,"Secretariat, Amaravati - APPCB",15-10-2025 07:00:00,16.5150833,80.5181667,NH3,4,5,5
India,Andhra_Pradesh,Anantapur,"Gulzarpet, Anantapur - APPCB",15-10-2025 07:00:00,14.675886,77.593027,OZONE,9,19,10
India,Andhra_Pradesh,Kadapa,"Yerramukkapalli, Kadapa - APPCB",15-10-2025 07:00:00,14.465052,78.824187,SO2,19,24,23
India,Bihar,Bhagalpur,"DM Office_Kachari Chowk, Bhagalpur - BSPCB",15-10-2025 07:00:00,25.251013,86.989001,CO,14,20,15
India,Bihar,Bhagalpur,"Mayaganj, Bhagalpur - BSPCB",15-10-2025 07:00:00,25.265194,87.012947,NO2,9,14,10
India,Bihar,Buxar,"Charitra Van, Buxar - BSPCB",15-10-2025 07:00:00,25.567520,83.966379,PM2.5,56,63,63
India,Bihar,Buxar,"Charitra Van, Buxar - BSPCB",15-10-2025 07:00:00,25.567520,83.966379,SO2,NA,NA,NA
India,Bihar,Chhapra,"Darshan Nagar, Chhapra - BSPCB",15-10-2025 07:00:00,25.7808257,84.7446768,PM2.5,25,85,52
India,Bihar,Kishanganj,"SDM Office_Khagra, Kishanganj - BSPCB",15-10-2025 07:00:00,26.0881305,87.93840336,NO2,NA,NA,NA
India,Bihar,Manguraha,"Forest Rest House, Manguraha - BSPCB",15-10-2025 07:00:00,27.308328,84.531742,SO2,15,17,16
India,Bihar,Motihari,"Gandak Colony, Motihari - BSPCB",15-10-2025 07:00:00,26.63086,84.90051,NO2,4,10,8
India,Bihar,Munger,"Town Hall, Munger - BSPCB",15-10-2025 07:00:00,25.376776,86.471523,NO2,4,5,5
India,Andhra_Pradesh,Tirumala,"Toll Gate, Tirumala - APPCB",15-10-2025 07:00:00,13.67,79.35,OZONE,10,28,11
India,Andhra_Pradesh,Tirupati,"Vaikuntapuram, Tirupati - APPCB",15-10-2025 07:00:00,13.615387,79.409230,PM2.5,54,303,95
India,Andhra_Pradesh,Tirupati,"Vaikuntapuram, Tirupati - APPCB",15-10-2025 07:00:00,13.615387,79.409230,SO2,13,14,14
India,Andhra_Pradesh,Vijayawada,"HB Colony, Vijayawada - APPCB",15-10-2025 07:00:00,16.536107,80.594233,CO,32,40,40
India,Bihar,Munger,"Town Hall, Munger - BSPCB",15-10-2025 07:00:00,25.376776,86.471523,OZONE,11,30,13
India,Bihar,Muzaffarpur,"Buddha Colony, Muzaffarpur - BSPCB",15-10-2025 07:00:00,26.11442,85.39813,SO2,3,5,4
India,Bihar,Muzaffarpur,"Muzaffarpur Collectorate, Muzaffarpur - BSPCB",15-10-2025 07:00:00,26.1209,85.3647,NO2,10,18,16
India,Bihar,Gaya,"Collectorate, Gaya - BSPCB",15-10-2025 07:00:00,24.7955,84.9994,OZONE,19,21,20
India,Bihar,Gaya,"SFTI Kusdihra, Gaya - BSPCB",15-10-2025 07:00:00,24.762518,84.982348,SO2,7,12,8
India,Delhi,Delhi,"DTU, Delhi - CPCB",15-10-2025 07:00:00,28.7500499,77.1112615,NO2,47,82,59
India,Delhi,Delhi,"Dr. Karni Singh Shooting Range, Delhi - DPCC",15-10-2025 07:00:00,28.498571,77.264840,PM2.5,80,233,147
India,Delhi,Delhi,"Dr. Karni Singh Shooting Range, Delhi - DPCC",15-10-2025 07:00:00,28.498571,77.264840,NO2,61,123,86
India,Delhi,Delhi,"Dr. Karni Singh Shooting Range, Delhi - DPCC",15-10-2025 07:00:00,28.498571,77.264840,CO,16,106,80
India,Delhi,Delhi,"Dwarka-Sector 8, Delhi - DPCC ",15-10-2025 07:00:00,28.5710274,77.0719006,NO2,28,143,86
India,Delhi,Delhi,"Dwarka-Sector 8, Delhi - DPCC ",15-10-2025 07:00:00,28.5710274,77.0719006,NH3,5,9,6
India,Delhi,Delhi,"IGI Airport (T3), Delhi - IMD",15-10-2025 07:00:00,28.5627763,77.1180053,OZONE,1,7,6
India,Delhi,Delhi,"IHBAS, Dilshad Garden, Delhi - CPCB",15-10-2025 07:00:00,28.6811736,77.3025234,PM10,119,298,160
India,Delhi,Delhi,"IHBAS, Dilshad Garden, Delhi - CPCB",15-10-2025 07:00:00,28.6811736,77.3025234,NO2,65,77,71
India,Delhi,Delhi,"Aya Nagar, Delhi - IMD",15-10-2025 07:00:00,28.4706914,77.1099364,OZONE,11,219,21
India,Delhi,Delhi,"Bawana, Delhi - DPCC",15-10-2025 07:00:00,28.776200,77.051074,PM2.5,57,441,253
India,Delhi,Delhi,"Bawana, Delhi - DPCC",15-10-2025 07:00:00,28.776200,77.051074,CO,20,108,68
India,Delhi,Delhi,"CRRI Mathura Road, Delhi - IMD",15-10-2025 07:00:00,28.5512005,77.2735737,PM10,136,500,300
India,Delhi,Delhi,"CRRI Mathura Road, Delhi - IMD",15-10-2025 07:00:00,28.5512005,77.2735737,NO2,3,54,30
India,Delhi,Delhi,"Chandni Chowk, Delhi - IITM",15-10-2025 07:00:00,28.656756,77.227234,PM2.5,74,222,127
India,Delhi,Delhi,"Chandni Chowk, Delhi - IITM",15-10-2025 07:00:00,28.656756,77.227234,PM10,123,498,257
India,Delhi,Delhi,"DTU, Delhi - CPCB",15-10-2025 07:00:00,28.7500499,77.1112615,PM2.5,57,223,97
India,Bihar,Patna,"Samanpura, Patna - BSPCB",15-10-2025 07:00:00,25.596727,85.085624,SO2,1,2,1
India,Bihar,Patna,"Samanpura, Patna - BSPCB",15-10-2025 07:00:00,25.596727,85.085624,CO,28,78,44
India,Bihar,Rajgir,"Dangi Tola, Rajgir - BSPCB",15-10-2025 07:00:00,25.03280,85.41948,PM10,84,93,88
India,Bihar,Rajgir,"Dangi Tola, Rajgir - BSPCB",15-10-2025 07:00:00,25.03280,85.41948,SO2,19,23,21
India,Bihar,Rajgir,"Dangi Tola, Rajgir - BSPCB",15-10-2025 07:00:00,25.03280,85.41948,CO,79,100,89
India,Bihar,Samastipur,"DM Office_Kasipur, Samastipur - BSPCB",15-10-2025 07:00:00,25.859655,85.77944,PM2.5,42,73,56
India,Bihar,Sasaram,"Dada Peer, Sasaram - BSPCB",15-10-2025 07:00:00,24.952822,84.002396,PM10,42,145,108
India,Chhattisgarh,Raipur,"AIIMS, Raipur - CECB",15-10-2025 07:00:00,21.258815,81.578979,PM10,34,116,63
India,Chhattisgarh,Raipur,"Bhatagaon New ISBT, Raipur - CECB",15-10-2025 07:00:00,21.219665,81.630094,PM10,33,67,47
India,Chhattisgarh,Raipur,"Bhatagaon New ISBT, Raipur - CECB",15-10-2025 07:00:00,21.219665,81.630094,NH3,2,2,2
India,Chhattisgarh,Raipur,"Krishak Nagar, Raipur - CECB",15-10-2025 07:00:00,21.237755,81.705301,NO2,8,23,12
India,Chhattisgarh,Raipur,"Krishak Nagar, Raipur - CECB",15-10-2025 07:00:00,21.237755,81.705301,SO2,1,9,5
India,Chhattisgarh,Raipur,"Krishak Nagar, Raipur - CECB",15-10-2025 07:00:00,21.237755,81.705301,CO,12,27,25
India,Chhattisgarh,Raipur,"Siltara Phase-II, Raipur - CECB",15-10-2025 07:00:00,21.371751,81.664929,PM10,48,139,97
India,Chhattisgarh,Raipur,"Siltara Phase-II, Raipur - CECB",15-10-2025 07:00:00,21.371751,81.664929,SO2,4,9,8
India,Chhattisgarh,Chhal,"Nawapara SECL Colony, Chhal - CECB",15-10-2025 07:00:00,22.118125,83.140608,NH3,5,5,5
India,Chhattisgarh,Korba,"Urja Nagar, Korba - CECB",15-10-2025 07:00:00,22.348441,82.549611,CO,14,34,26
India,Chhattisgarh,Kunjemura,"OP Jindal School, Kunjemura - CECB",15-10-2025 07:00:00,22.126650,83.483212,NH3,2,2,2
India,Chhattisgarh,Kunjemura,"OP Jindal School, Kunjemura - CECB",15-10-2025 07:00:00,22.126650,83.483212,OZONE,12,14,12
India,Chhattisgarh,Milupara,"Govt. Higher Secondary School, Milupara - CECB",15-10-2025 07:00:00,22.1910172,83.5197009,NO2,9,37,16
India,Chhattisgarh,Milupara,"Govt. Higher Secondary School, Milupara - CECB",15-10-2025 07:00:00,22.1910172,83.5197009,SO2,14,15,15
India,Bihar,Patna,"DRM Office Danapur, Patna - BSPCB",15-10-2025 07:00:00,25.586562,85.043586,OZONE,5,80,10
India,Bihar,Patna,"Govt. High School Shikarpur, Patna - BSPCB",15-10-2025 07:00:00,25.592539,85.227158,PM2.5,40,74,54
India,Bihar,Patna,"Govt. High School Shikarpur, Patna - BSPCB",15-10-2025 07:00:00,25.592539,85.227158,SO2,7,12,9
India,Bihar,Patna,"Muradpur, Patna - BSPCB",15-10-2025 07:00:00,25.619651,85.147382,PM10,123,460,195
India,Bihar,Patna,"Rajbansi Nagar, Patna - BSPCB",15-10-2025 07:00:00,25.599486,85.113666,PM10,70,105,91
India,Bihar,Patna,"Rajbansi Nagar, Patna - BSPCB",15-10-2025 07:00:00,25.599486,85.113666,NH3,2,3,3
India,Chhattisgarh,Tumidih,"OP Jindal Industrial Park, Tumidih - CECB",15-10-2025 07:00:00,22.06631475,83.33820077,SO2,5,9,6
India,Delhi,Delhi,"Alipur, Delhi - DPCC",15-10-2025 07:00:00,28.815329,77.153010,NO2,25,98,66
India,Delhi,Delhi,"Alipur, Delhi - DPCC",15-10-2025 07:00:00,28.815329,77.153010,CO,40,109,99
India,Delhi,Delhi,"Anand Vihar, Delhi - DPCC",15-10-2025 07:00:00,28.647622,77.3158090,SO2,3,42,28
India,Delhi,Delhi,"Ashok Vihar, Delhi - DPCC",15-10-2025 07:00:00,28.695381,77.181665,PM2.5,67,355,215
India,Bihar,Sasaram,"Dada Peer, Sasaram - BSPCB",15-10-2025 07:00:00,24.952822,84.002396,OZONE,14,21,17
India,Bihar,Siwan,"Chitragupta Nagar, Siwan - BSPCB",15-10-2025 07:00:00,26.2271665,84.3570427,NH3,1,1,1
India,Chandigarh,Chandigarh,"Sector 22, Chandigarh - CPCC",15-10-2025 07:00:00,30.735567,76.775714,NH3,11,15,12
India,Chandigarh,Chandigarh,"Sector 22, Chandigarh - CPCC",15-10-2025 07:00:00,30.735567,76.775714,OZONE,6,162,46
India,Chandigarh,Chandigarh,"Sector-53, Chandigarh - CPCC",15-10-2025 07:00:00,30.719859,76.738637,CO,30,100,61
India,Chhattisgarh,Bhilai,"32Bungalows, Bhilai - CECB",15-10-2025 07:00:00,21.194815,81.314770,PM2.5,26,57,41
India,Chhattisgarh,Bhilai,"Civic Center, Bhilai - Bhilai Steel Plant",15-10-2025 07:00:00,21.185571,81.343175,OZONE,1,16,9
India,Chhattisgarh,Bhilai,"Hathkhoj, Bhilai - CECB",15-10-2025 07:00:00,21.224231,81.408350,OZONE,9,36,12
India,Gujarat,Ahmedabad,"SAC ISRO Bopal, Ahmedabad - IITM",15-10-2025 07:00:00,23.041137,72.456691,PM10,73,166,111
India,Gujarat,Ahmedabad,"SAC ISRO Bopal, Ahmedabad - IITM",15-10-2025 07:00:00,23.041137,72.456691,NH3,2,5,3
India,Gujarat,Ahmedabad,"SAC ISRO Bopal, Ahmedabad - IITM",15-10-2025 07:00:00,23.041137,72.456691,SO2,1,6,2
India,Gujarat,Ahmedabad,"SAC ISRO Satellite, Ahmedabad - IITM",15-10-2025 07:00:00,23.023389,72.515201,NH3,NA,NA,NA
India,Gujarat,Ahmedabad,"SVPI Airport Hansol, Ahmedabad - IITM",15-10-2025 07:00:00,23.076793,72.627874,OZONE,2,48,6
India,Gujarat,Ankleshwar,"GIDC, Ankleshwar - GPCB",15-10-2025 07:00:00,21.613267,73.010555,PM10,73,86,82
India,Gujarat,Ankleshwar,"GIDC, Ankleshwar - GPCB",15-10-2025 07:00:00,21.613267,73.010555,NO2,29,33,32
India,Gujarat,Ankleshwar,"GIDC, Ankleshwar - GPCB",15-10-2025 07:00:00,21.613267,73.010555,SO2,52,73,57
India,Gujarat,Gandhinagar,"GIFT City, Gandhinagar - IITM",15-10-2025 07:00:00,23.163798,72.677768,NH3,2,15,6
India,Gujarat,Ahmedabad,"Chandkheda, Ahmedabad - IITM",15-10-2025 07:00:00,23.107969,72.574648,NH3,6,24,15
India,Gujarat,Ahmedabad,"Chandkheda, Ahmedabad - IITM",15-10-2025 07:00:00,23.107969,72.574648,CO,1,61,29
India,Gujarat,Ahmedabad,"Gyaspur, Ahmedabad - IITM",15-10-2025 07:00:00,22.977134,72.553024,PM10,84,266,161
India,Gujarat,Ahmedabad,"Maninagar, Ahmedabad - GPCB",15-10-2025 07:00:00,23.002657,72.591912,CO,4,36,25
India,Gujarat,Ahmedabad,"Raikhad, Ahmedabad - IITM",15-10-2025 07:00:00,23.020509,72.579261,PM10,80,183,131
India,Gujarat,Ahmedabad,"Raikhad, Ahmedabad - IITM",15-10-2025 07:00:00,23.020509,72.579261,CO,1,147,76
India,Gujarat,Ahmedabad,"Rakhial, Ahmedabad - IITM",15-10-2025 07:00:00,23.016834,72.625775,PM10,71,138,110
India,Gujarat,Ahmedabad,"Rakhial, Ahmedabad - IITM",15-10-2025 07:00:00,23.016834,72.625775,CO,14,28,22
India,Delhi,Delhi,"Lodhi Road, Delhi - IMD",15-10-2025 07:00:00,28.5918245,77.2273074,CO,46,101,99
India,Delhi,Delhi,"Major Dhyan Chand National Stadium, Delhi - DPCC",15-10-2025 07:00:00,28.611281,77.237738,CO,14,127,73
India,Delhi,Delhi,"Mandir Marg, Delhi - DPCC",15-10-2025 07:00:00,28.636429,77.201067,SO2,14,21,17
India,Delhi,Delhi,"Mundka, Delhi - DPCC",15-10-2025 07:00:00,28.684678,77.076574,NH3,4,9,6
India,Delhi,Delhi,"NSIT Dwarka, Delhi - CPCB",15-10-2025 07:00:00,28.60909,77.0325413,NO2,12,91,46
India,Delhi,Delhi,"NSIT Dwarka, Delhi - CPCB",15-10-2025 07:00:00,28.60909,77.0325413,NH3,7,13,10
India,Delhi,Delhi,"NSIT Dwarka, Delhi - CPCB",15-10-2025 07:00:00,28.60909,77.0325413,SO2,2,98,26
India,Delhi,Delhi,"ITO, Delhi - CPCB",15-10-2025 07:00:00,28.628624,77.241060,OZONE,1,44,5
India,Delhi,Delhi,"Jahangirpuri, Delhi - DPCC",15-10-2025 07:00:00,28.732820,77.170633,PM2.5,72,396,258
India,Delhi,Delhi,"Jahangirpuri, Delhi - DPCC",15-10-2025 07:00:00,28.732820,77.170633,NO2,37,114,73
India,Delhi,Delhi,"Jahangirpuri, Delhi - DPCC",15-10-2025 07:00:00,28.732820,77.170633,SO2,4,33,18
India,Delhi,Delhi,"Jahangirpuri, Delhi - DPCC",15-10-2025 07:00:00,28.732820,77.170633,CO,38,116,106
India,Delhi,Delhi,"Jawaharlal Nehru Stadium, Delhi - DPCC",15-10-2025 07:00:00,28.580280,77.233829,PM10,138,246,183
India,Delhi,Delhi,"Lodhi Road, Delhi - IITM",15-10-2025 07:00:00,28.588333,77.221667,PM10,118,158,133
India,Delhi,Delhi,"Okhla Phase-2, Delhi - DPCC",15-10-2025 07:00:00,28.530785,77.271255,NO2,29,151,81
India,Delhi,Delhi,"Okhla Phase-2, Delhi - DPCC",15-10-2025 07:00:00,28.530785,77.271255,NH3,4,8,6
India,Delhi,Delhi,"Patparganj, Delhi - DPCC",15-10-2025 07:00:00,28.623763,77.287209,NH3,8,13,9
India,Delhi,Delhi,"Patparganj, Delhi - DPCC",15-10-2025 07:00:00,28.623763,77.287209,CO,5,111,82
India,Delhi,Delhi,"Punjabi Bagh, Delhi - DPCC",15-10-2025 07:00:00,28.674045,77.131023,CO,NA,NA,NA
India,Delhi,Delhi,"Punjabi Bagh, Delhi - DPCC",15-10-2025 07:00:00,28.674045,77.131023,OZONE,NA,NA,NA
India,Delhi,Delhi,"Pusa, Delhi - IMD",15-10-2025 07:00:00,28.636110,77.173332,PM10,87,217,154
India,Delhi,Delhi,"Sri Aurobindo Marg, Delhi - DPCC",15-10-2025 07:00:00,28.531346,77.190156,PM10,73,179,113
India,Delhi,Delhi,"Sri Aurobindo Marg, Delhi - DPCC",15-10-2025 07:00:00,28.531346,77.190156,NO2,17,63,27
India,Delhi,Delhi,"Vivek Vihar, Delhi - DPCC",15-10-2025 07:00:00,28.672342,77.315260,SO2,10,24,16
India,Delhi,Delhi,"Wazirpur, Delhi - DPCC",15-10-2025 07:00:00,28.699793,77.165453,CO,18,137,60
India,Gujarat,Nandesari,"GIDC, Nandesari - Nandesari Ind. Association",15-10-2025 07:00:00,22.410802,73.097923,PM2.5,54,365,182
India,Gujarat,Surat,"Science Center, Surat - SMC",15-10-2025 07:00:00,21.170046,72.795405,SO2,19,26,22
India,Delhi,Delhi,"Najafgarh, Delhi - DPCC",15-10-2025 07:00:00,28.570173,76.933762,PM2.5,57,240,150
India,Delhi,Delhi,"Narela, Delhi - DPCC",15-10-2025 07:00:00,28.822836,77.101981,CO,17,68,50
India,Delhi,Delhi,"R K Puram, Delhi - DPCC",15-10-2025 07:00:00,28.563262,77.186937,NO2,2,113,56
India,Delhi,Delhi,"Rohini, Delhi - DPCC",15-10-2025 07:00:00,28.732528,77.119920,NH3,8,11,10
India,Karnataka,Bengaluru,"BTM Layout, Bengaluru - CPCB",15-10-2025 07:00:00,12.9135218,77.5950804,SO2,18,18,18
India,Karnataka,Bengaluru,"Bapuji Nagar, Bengaluru - KSPCB",15-10-2025 07:00:00,12.951913,77.539784,PM10,38,144,86
India,Karnataka,Bengaluru,"Bapuji Nagar, Bengaluru - KSPCB",15-10-2025 07:00:00,12.951913,77.539784,CO,20,101,30
India,Karnataka,Bengaluru,"Bapuji Nagar, Bengaluru - KSPCB",15-10-2025 07:00:00,12.951913,77.539784,OZONE,7,43,10
India,Karnataka,Bengaluru,"City Railway Station, Bengaluru - KSPCB",15-10-2025 07:00:00,12.9756843,77.5660749,NO2,NA,NA,NA
India,Karnataka,Bengaluru,"Hebbal, Bengaluru - KSPCB",15-10-2025 07:00:00,13.029152,77.585901,PM2.5,7,36,24
India,Karnataka,Bengaluru,"Hebbal, Bengaluru - KSPCB",15-10-2025 07:00:00,13.029152,77.585901,OZONE,7,12,8
India,Karnataka,Bengaluru,"Hombegowda Nagar, Bengaluru - KSPCB",15-10-2025 07:00:00,12.938539,77.590100,NH3,2,2,2
India,Haryana,Karnal,"Sector-12, Karnal - HSPCB",15-10-2025 07:00:00,29.695300,77.002700,NH3,2,2,2
India,Haryana,Karnal,"Sector-12, Karnal - HSPCB",15-10-2025 07:00:00,29.695300,77.002700,SO2,7,10,9
India,Haryana,Kurukshetra,"Sector-7, Kurukshetra - HSPCB",15-10-2025 07:00:00,29.966942,76.875879,NO2,16,21,19
India,Haryana,Kurukshetra,"Sector-7, Kurukshetra - HSPCB",15-10-2025 07:00:00,29.966942,76.875879,SO2,6,13,9
India,Haryana,Mandikhera,"General Hospital, Mandikhera - HSPCB",15-10-2025 07:00:00,27.9002,76.9938,NO2,26,30,28
India,Haryana,Mandikhera,"General Hospital, Mandikhera - HSPCB",15-10-2025 07:00:00,27.9002,76.9938,SO2,14,45,32
India,Haryana,Manesar,"Sector-2 IMT, Manesar - HSPCB",15-10-2025 07:00:00,28.360699,76.936090,CO,33,92,67
India,Haryana,Manesar,"Sector-2 IMT, Manesar - HSPCB",15-10-2025 07:00:00,28.360699,76.936090,OZONE,30,32,31
India,Karnataka,Chamarajanagar,"Urban, Chamarajanagar - KSPCB",15-10-2025 07:00:00,11.55358,76.55521,PM10,32,58,42
India,Karnataka,Chikkamagaluru,"Kalyana Nagara, Chikkamagaluru - KSPCB",15-10-2025 07:00:00,13.328028,75.797056,NO2,NA,NA,NA
India,Karnataka,Davanagere,"Devaraj Urs Badavane, Davanagere - KSPCB",15-10-2025 07:00:00,14.475800,75.905200,SO2,2,4,3
India,Karnataka,Dharwad,"Kalabhavan, Dharwad - KSPCB",15-10-2025 07:00:00,15.459706,75.008381,NO2,16,16,16
India,Karnataka,Dharwad,"Kalabhavan, Dharwad - KSPCB",15-10-2025 07:00:00,15.459706,75.008381,NH3,4,4,4
India,Karnataka,Haveri,"Ashwini Nagar, Haveri - KSPCB",15-10-2025 07:00:00,14.791800,75.389600,NH3,NA,NA,NA
India,Haryana,Yamuna Nagar,"Gobind Pura, Yamuna Nagar - HSPCB",15-10-2025 07:00:00,30.1480566,77.2893471,OZONE,38,53,38
India,Himachal Pradesh,Baddi,"HIMUDA Complex Phase-1, Baddi - HPPCB",15-10-2025 07:00:00,30.943887,76.801991,PM10,81,251,135
India,Himachal Pradesh,Baddi,"HIMUDA Complex Phase-1, Baddi - HPPCB",15-10-2025 07:00:00,30.943887,76.801991,OZONE,16,161,70
India,Jharkhand,Dhanbad,"Sardar Patel Nagar, Dhanbad - JSPCB",15-10-2025 07:00:00,23.80569,86.44268,CO,12,50,35
India,Jharkhand,Dhanbad,"Sardar Patel Nagar, Dhanbad - JSPCB",15-10-2025 07:00:00,23.80569,86.44268,OZONE,1,24,4
India,Haryana,Panchgaon,"Amity University, Panchgaon - IITM",15-10-2025 07:00:00,28.3153,76.9143,PM10,40,144,87
India,Haryana,Panchgaon,"Amity University, Panchgaon - IITM",15-10-2025 07:00:00,28.3153,76.9143,CO,33,77,58
India,Haryana,Rohtak,"MD University, Rohtak - HSPCB",15-10-2025 07:00:00,28.52123,76.37138,CO,24,32,28
India,Haryana,Sirsa,"F-Block, Sirsa - HSPCB",15-10-2025 07:00:00,29.536400,75.015800,PM2.5,6,37,20
India,Haryana,Yamuna Nagar,"Gobind Pura, Yamuna Nagar - HSPCB",15-10-2025 07:00:00,30.1480566,77.2893471,NO2,1,32,5
India,Gujarat,Vatva,"Phase-4 GIDC, Vatva - GPCB",15-10-2025 07:00:00,22.969611,72.643500,SO2,19,24,21
India,Gujarat,Vatva,"Phase-4 GIDC, Vatva - GPCB",15-10-2025 07:00:00,22.969611,72.643500,OZONE,12,55,26
India,Haryana,Ambala,"Patti Mehar, Ambala - HSPCB",15-10-2025 07:00:00,30.379589,76.778328,PM10,35,146,67
India,Haryana,Ballabgarh,"Nathu Colony, Ballabgarh - HSPCB",15-10-2025 07:00:00,28.3419248,77.319699,NH3,3,4,3
India,Haryana,Bhiwani,"H.B. Colony, Bhiwani - HSPCB",15-10-2025 07:00:00,28.806223,76.141105,NH3,NA,NA,NA
India,Karnataka,Bengaluru,"Kasturi Nagar, Bengaluru - KSPCB",15-10-2025 07:00:00,13.003872,77.664217,PM2.5,59,60,59
India,Karnataka,Bengaluru,"Kasturi Nagar, Bengaluru - KSPCB",15-10-2025 07:00:00,13.003872,77.664217,PM10,61,62,62
India,Karnataka,Bengaluru,"Peenya, Bengaluru - CPCB",15-10-2025 07:00:00,13.0270199,77.494094,SO2,1,14,6
India,Karnataka,Bengaluru,"Peenya, Bengaluru - CPCB",15-10-2025 07:00:00,13.0270199,77.494094,OZONE,26,27,26
India,Karnataka,Bengaluru,"Silk Board, Bengaluru - KSPCB",15-10-2025 07:00:00,12.917348,77.622813,CO,5,24,11
India,Haryana,Faridabad,"New Industrial Town, Faridabad - HSPCB",15-10-2025 07:00:00,28.39072,77.30059,NH3,11,12,11
India,Haryana,Faridabad,"Sector 30, Faridabad - HSPCB",15-10-2025 07:00:00,28.4417,77.3217,NO2,36,39,38
India,Haryana,Faridabad,"Sector 30, Faridabad - HSPCB",15-10-2025 07:00:00,28.4417,77.3217,SO2,6,6,6
India,Haryana,Faridabad,"Sector 30, Faridabad - HSPCB",15-10-2025 07:00:00,28.4417,77.3217,CO,58,65,61
India,Haryana,Gurugram,"Sector-51, Gurugram - HSPCB",15-10-2025 07:00:00,28.4227,77.0667,NO2,NA,NA,NA
India,Haryana,Gurugram,"Sector-51, Gurugram - HSPCB",15-10-2025 07:00:00,28.4227,77.0667,SO2,4,19,7
India,Haryana,Gurugram,"Sector-51, Gurugram - HSPCB",15-10-2025 07:00:00,28.4227,77.0667,CO,10,120,96
India,Haryana,Gurugram,"Sector-51, Gurugram - HSPCB",15-10-2025 07:00:00,28.4227,77.0667,OZONE,5,150,8
India,Madhya Pradesh,Maihar,"Sahilara, Maihar - KJS Cements",15-10-2025 07:00:00,24.2613009,80.7231783,NO2,13,13,13
India,Madhya Pradesh,Maihar,"Sahilara, Maihar - KJS Cements",15-10-2025 07:00:00,24.2613009,80.7231783,CO,31,32,32
India,Madhya Pradesh,Mandideep,"Sector-D Industrial Area, Mandideep - MPPCB",15-10-2025 07:00:00,23.108440,77.511428,PM10,NA,NA,NA
India,Madhya Pradesh,Mandideep,"Sector-D Industrial Area, Mandideep - MPPCB",15-10-2025 07:00:00,23.108440,77.511428,NH3,NA,NA,NA
India,Madhya Pradesh,Pithampur,"Sector-2 Industrial Area, Pithampur - MPPCB",15-10-2025 07:00:00,22.624758,75.675238,OZONE,17,71,41
India,Madhya Pradesh,Ratlam,"Shasthri Nagar, Ratlam - IPCA Lab",15-10-2025 07:00:00,23.331731,75.045981,PM10,107,166,133
India,Madhya Pradesh,Ratlam,"Shasthri Nagar, Ratlam - IPCA Lab",15-10-2025 07:00:00,23.331731,75.045981,SO2,45,58,51
India,Madhya Pradesh,Damoh,"Shrivastav Colony, Damoh - MPPCB",15-10-2025 07:00:00,23.81748678,79.446246,PM2.5,55,223,109
India,Madhya Pradesh,Damoh,"Shrivastav Colony, Damoh - MPPCB",15-10-2025 07:00:00,23.81748678,79.446246,SO2,32,36,35
India,Madhya Pradesh,Damoh,"Shrivastav Colony, Damoh - MPPCB",15-10-2025 07:00:00,23.81748678,79.446246,CO,20,27,26
India,Madhya Pradesh,Dewas,"Bhopal Chauraha, Dewas - MPPCB",15-10-2025 07:00:00,22.9682591,76.064118,OZONE,26,30,30
India,Madhya Pradesh,Gwalior,"City Center, Gwalior - MPPCB",15-10-2025 07:00:00,26.203442,78.193251,SO2,1,28,17
India,Madhya Pradesh,Gwalior,"Deen Dayal Nagar, Gwalior - MPPCB",15-10-2025 07:00:00,26.259242,78.216432,NH3,5,7,6
India,Madhya Pradesh,Gwalior,"Deen Dayal Nagar, Gwalior - MPPCB",15-10-2025 07:00:00,26.259242,78.216432,SO2,9,17,13
India,Karnataka,Mysuru,"Hebbal 1st Stage, Mysuru - KSPCB",15-10-2025 07:00:00,12.21041,76.37376,PM10,28,80,53
India,Karnataka,Ramanagara,"Vijay Nagar, Ramanagara - KSPCB",15-10-2025 07:00:00,12.733409,77.298051,PM2.5,20,55,32
India,Karnataka,Ramanagara,"Vijay Nagar, Ramanagara - KSPCB",15-10-2025 07:00:00,12.733409,77.298051,CO,2,32,8
India,Karnataka,Shivamogga,"Vinoba Nagara, Shivamogga - KSPCB",15-10-2025 07:00:00,13.940000,75.555917,PM2.5,23,49,30
India,Karnataka,Shivamogga,"Vinoba Nagara, Shivamogga - KSPCB",15-10-2025 07:00:00,13.940000,75.555917,SO2,2,6,3
India,Karnataka,Shivamogga,"Vinoba Nagara, Shivamogga - KSPCB",15-10-2025 07:00:00,13.940000,75.555917,OZONE,13,48,37
India,Karnataka,Vijayapura,"Ibrahimpur, Vijayapura - KSPCB",15-10-2025 07:00:00,16.802639,75.722694,CO,16,119,32
India,Madhya Pradesh,Gwalior,"Maharaj Bada, Gwalior - MPPCB",15-10-2025 07:00:00,26.200388,78.147714,SO2,4,9,7
India,Madhya Pradesh,Gwalior,"Maharaj Bada, Gwalior - MPPCB",15-10-2025 07:00:00,26.200388,78.147714,OZONE,3,134,17
India,Madhya Pradesh,Indore,"Airport Area, Indore - IMC",15-10-2025 07:00:00,22.7289,75.8076,PM2.5,32,263,79
India,Madhya Pradesh,Indore,"Chhoti Gwaltoli, Indore - MPPCB",15-10-2025 07:00:00,22.4310,75.5213,NO2,50,146,97
India,Madhya Pradesh,Indore,"Chhoti Gwaltoli, Indore - MPPCB",15-10-2025 07:00:00,22.4310,75.5213,SO2,14,44,21
India,Madhya Pradesh,Indore,"Maguda Nagar, Indore - IMC",15-10-2025 07:00:00,22.7524,75.8872,PM10,46,136,79
India,Madhya Pradesh,Indore,"Residency Area, Indore - IMC",15-10-2025 07:00:00,22.7084,75.8815,OZONE,8,15,11
India,Madhya Pradesh,Jabalpur,"Govindh Bhavan Colony, Jabalpur - JMC",15-10-2025 07:00:00,23.163174,79.973061,PM2.5,62,211,110
India,Madhya Pradesh,Jabalpur,"Gupteshwar, Jabalpur - JMC",15-10-2025 07:00:00,23.142888,79.916147,PM2.5,43,85,60
India,Madhya Pradesh,Jabalpur,"Marhatal, Jabalpur - MPPCB",15-10-2025 07:00:00,23.168606,79.932247,SO2,14,38,25
India,Madhya Pradesh,Jabalpur,"Suhagi, Jabalpur - JMC",15-10-2025 07:00:00,23.218135,79.957770,NO2,23,83,44
India,Madhya Pradesh,Sagar,"Civil Lines, Sagar - MPPCB",15-10-2025 07:00:00,23.838586,78.759431,SO2,12,26,18
India,Madhya Pradesh,Satna,"Bandhavgar Colony, Satna - Birla Cement",15-10-2025 07:00:00,24.58434363,80.8549414,NO2,22,33,27
India,Madhya Pradesh,Singrauli,"Suryakiran Bhawan NCL, Singrauli - MPPCB",15-10-2025 07:00:00,24.108970,82.645580,PM10,114,247,144
India,Maharashtra,Ahmednagar,"Tarakpur, Ahmednagar - MPCB",15-10-2025 07:00:00,19.10122,74.73339,OZONE,6,68,21
India,Karnataka,Yadgir,"Collector Office, Yadgir - KSPCB",15-10-2025 07:00:00,16.7602,77.1428,CO,10,20,10
India,Kerala,Eloor,"Udyogamandal, Eloor - Kerala PCB",15-10-2025 07:00:00,10.073232,76.302765,PM2.5,47,118,64
