country,state,city,station,last_update,latitude,longitude,pollutant_id,min_value,max_value,avg_value
India,Bihar,Araria,"Kharahiya Basti, Araria - BSPCB",13-02-2026 08:00:00,26.146529,87.454184,PM2.5,32,207,108
India,Bihar,Araria,"Kharahiya Basti, Araria - BSPCB",13-02-2026 08:00:00,26.146529,87.454184,SO2,16,66,40
India,Bihar,Arrah,"New DM Office, Arrah - BSPCB",13-02-2026 08:00:00,25.5626095,84.663264,PM10,NA,NA,NA
India,Bihar,Arrah,"New DM Office, Arrah - BSPCB",13-02-2026 08:00:00,25.5626095,84.663264,SO2,NA,NA,NA
India,Bihar,Arrah,"New DM Office, Arrah - BSPCB",13-02-2026 08:00:00,25.5626095,84.663264,OZONE,7,38,8
India,Bihar,Aurangabad,"Gurdeo Nagar, Aurangabad - BSPCB",13-02-2026 08:00:00,24.75746,84.366208,NO2,7,8,8
India,Bihar,Aurangabad,"Gurdeo Nagar, Aurangabad - BSPCB",13-02-2026 08:00:00,24.75746,84.366208,NH3,1,2,1
India,Bihar,Aurangabad,"Gurdeo Nagar, Aurangabad - BSPCB",13-02-2026 08:00:00,24.75746,84.366208,CO,101,103,102
India,Bihar,Begusarai,"Lohiyanagar, Begusarai - BSPCB",13-02-2026 08:00:00,25.42742023,86.13886079,PM10,47,125,92
India,Bihar,Begusarai,"Lohiyanagar, Begusarai - BSPCB",13-02-2026 08:00:00,25.42742023,86.13886079,CO,52,64,59
India,Bihar,Bettiah,"Kamalnath Nagar, Bettiah - BSPCB",13-02-2026 08:00:00,26.80365,84.51954,NO2,NA,NA,NA
India,Bihar,Bhagalpur,"DM Office_Kachari Chowk, Bhagalpur - BSPCB",13-02-2026 08:00:00,25.251013,86.989001,NO2,5,12,8
India,Bihar,Bhagalpur,"DM Office_Kachari Chowk, Bhagalpur - BSPCB",13-02-2026 08:00:00,25.251013,86.989001,CO,11,27,18
India,Andhra_Pradesh,Kadapa,"Yerramukkapalli, Kadapa - APPCB",13-02-2026 08:00:00,14.465052,78.824187,OZONE,13,15,14
India,Andhra_Pradesh,Rajamahendravaram,"Anand Kala Kshetram, Rajamahendravaram - APPCB",13-02-2026 08:00:00,16.9872867,81.7363176,NO2,23,73,39
India,Andhra_Pradesh,Rajamahendravaram,"Anand Kala Kshetram, Rajamahendravaram - APPCB",13-02-2026 08:00:00,16.9872867,81.7363176,SO2,6,36,17
India,Andhra_Pradesh,Tirupati,"Vaikuntapuram, Tirupati - APPCB",13-02-2026 08:00:00,13.615387,79.409230,CO,NA,NA,NA
India,Andhra_Pradesh,Vijayawada,"HB Colony, Vijayawada - APPCB",13-02-2026 08:00:00,16.536107,80.594233,PM10,57,95,69
India,Andhra_Pradesh,Vijayawada,"HB Colony, Vijayawada - APPCB",13-02-2026 08:00:00,16.536107,80.594233,SO2,13,24,17
India,Andhra_Pradesh,Vijayawada,"Kanuru, Vijayawada - APPCB",13-02-2026 08:00:00,16.486692,80.699436,SO2,12,18,16
India,Andhra_Pradesh,Vijayawada,"Kanuru, Vijayawada - APPCB",13-02-2026 08:00:00,16.486692,80.699436,CO,35,52,49
India,Andhra_Pradesh,Vijayawada,"Kanuru, Vijayawada - APPCB",13-02-2026 08:00:00,16.486692,80.699436,OZONE,21,29,29
India,Andhra_Pradesh,Vijayawada,"Rajiv Gandhi Park, Vijayawada - APPCB",13-02-2026 08:00:00,16.509717,80.612222,PM10,NA,NA,NA
India,Bihar,Rajgir,"Dangi Tola, Rajgir - BSPCB",13-02-2026 08:00:00,25.03280,85.41948,PM2.5,5,113,52
India,Bihar,Saharsa,"Police Line, Saharsa - BSPCB",13-02-2026 08:00:00,25.892357,86.590325,PM10,62,181,119
India,Bihar,Saharsa,"Police Line, Saharsa - BSPCB",13-02-2026 08:00:00,25.892357,86.590325,CO,18,44,38
India,Bihar,Samastipur,"DM Office_Kasipur, Samastipur - BSPCB",13-02-2026 08:00:00,25.859655,85.77944,PM2.5,45,130,74
India,Bihar,Samastipur,"DM Office_Kasipur, Samastipur - BSPCB",13-02-2026 08:00:00,25.859655,85.77944,SO2,26,36,28
India,Bihar,Samastipur,"DM Office_Kasipur, Samastipur - BSPCB",13-02-2026 08:00:00,25.859655,85.77944,CO,6,10,9
India,Bihar,Siwan,"Chitragupta Nagar, Siwan - BSPCB",13-02-2026 08:00:00,26.2271665,84.3570427,PM2.5,33,85,60
India,Bihar,Siwan,"Chitragupta Nagar, Siwan - BSPCB",13-02-2026 08:00:00,26.2271665,84.3570427,PM10,49,117,88
India,Bihar,Siwan,"Chitragupta Nagar, Siwan - BSPCB",13-02-2026 08:00:00,26.2271665,84.3570427,SO2,7,7,7
India,Chandigarh,Chandigarh,"Sector 22, Chandigarh - CPCC",13-02-2026 08:00:00,30.735567,76.775714,PM10,37,105,66
India,Andhra_Pradesh,Vijayawada,"Rajiv Gandhi Park, Vijayawada - APPCB",13-02-2026 08:00:00,16.509717,80.612222,OZONE,NA,NA,NA
India,Andhra_Pradesh,Vijayawada,"Rajiv Nagar, Vijayawada - APPCB",13-02-2026 08:00:00,16.554731,80.649110,PM10,60,95,71
India,Andhra_Pradesh,Visakhapatnam,"GVM Corporation, Visakhapatnam - APPCB",13-02-2026 08:00:00,17.72,83.3,PM2.5,53,301,128
India,Andhra_Pradesh,Visakhapatnam,"GVM Corporation, Visakhapatnam - APPCB",13-02-2026 08:00:00,17.72,83.3,PM10,85,401,189
India,Arunachal_Pradesh,Naharlagun,"Naharlagun, Naharlagun - APSPCB",13-02-2026 08:00:00,27.103358,93.679645,OZONE,6,6,6
India,Assam,Guwahati,"LGBI Airport, Guwahati - PCBA",13-02-2026 08:00:00,26.10887,91.589544,PM2.5,31,154,77
India,Assam,Guwahati,"LGBI Airport, Guwahati - PCBA",13-02-2026 08:00:00,26.10887,91.589544,CO,10,103,44
India,Assam,Guwahati,"LGBI Airport, Guwahati - PCBA",13-02-2026 08:00:00,26.10887,91.589544,OZONE,9,15,13
India,Bihar,Bhagalpur,"DM Office_Kachari Chowk, Bhagalpur - BSPCB",13-02-2026 08:00:00,25.251013,86.989001,OZONE,11,22,16
India,Bihar,Bhagalpur,"Mayaganj, Bhagalpur - BSPCB",13-02-2026 08:00:00,25.265194,87.012947,PM2.5,13,32,23
India,Bihar,Bhagalpur,"Mayaganj, Bhagalpur - BSPCB",13-02-2026 08:00:00,25.265194,87.012947,NO2,7,9,7
India,Bihar,Bihar Sharif,"D M Colony, Bihar Sharif - BSPCB",13-02-2026 08:00:00,25.204762,85.514960,NO2,9,10,9
India,Bihar,Bihar Sharif,"D M Colony, Bihar Sharif - BSPCB",13-02-2026 08:00:00,25.204762,85.514960,CO,46,63,57
India,Bihar,Bihar Sharif,"D M Colony, Bihar Sharif - BSPCB",13-02-2026 08:00:00,25.204762,85.514960,OZONE,1,2,1
India,Bihar,Buxar,"Charitra Van, Buxar - BSPCB",13-02-2026 08:00:00,25.567520,83.966379,NH3,3,3,3
India,Bihar,Chhapra,"Darshan Nagar, Chhapra - BSPCB",13-02-2026 08:00:00,25.7808257,84.7446768,PM2.5,42,243,82
India,Bihar,Chhapra,"Darshan Nagar, Chhapra - BSPCB",13-02-2026 08:00:00,25.7808257,84.7446768,NO2,1,1,1
India,Assam,Guwahati,"Pan Bazaar, Guwahati - PCBA",13-02-2026 08:00:00,26.187500,91.744194,PM10,113,181,137
India,Assam,Guwahati,"Pan Bazaar, Guwahati - PCBA",13-02-2026 08:00:00,26.187500,91.744194,CO,20,98,35
India,Assam,Nagaon,"Christianpatty, Nagaon - PCBA",13-02-2026 08:00:00,26.349082,92.68449,PM2.5,54,177,117
India,Assam,Silchar,"Tarapur, Silchar - PCBA",13-02-2026 08:00:00,24.82827,92.79525,NO2,19,32,25
India,Assam,Sivasagar,"Girls College, Sivasagar - PCBA",13-02-2026 08:00:00,26.987634,94.636574,PM2.5,34,96,60
India,Assam,Sivasagar,"Girls College, Sivasagar - PCBA",13-02-2026 08:00:00,26.987634,94.636574,NO2,31,81,46
India,Assam,Sivasagar,"Girls College, Sivasagar - PCBA",13-02-2026 08:00:00,26.987634,94.636574,OZONE,5,102,13
India,Bihar,Patna,"IGSC Planetarium Complex, Patna - BSPCB",13-02-2026 08:00:00,25.610369,85.132568,SO2,1,15,4
India,Bihar,Patna,"Muradpur, Patna - BSPCB",13-02-2026 08:00:00,25.619651,85.147382,NO2,10,12,11
India,Bihar,Patna,"Muradpur, Patna - BSPCB",13-02-2026 08:00:00,25.619651,85.147382,SO2,8,9,8
India,Bihar,Patna,"Rajbansi Nagar, Patna - BSPCB",13-02-2026 08:00:00,25.599486,85.113666,NH3,1,3,2
India,Bihar,Patna,"Samanpura, Patna - BSPCB",13-02-2026 08:00:00,25.596727,85.085624,CO,69,115,82
India,Bihar,Purnia,"Mariam Nagar, Purnia - BSPCB",13-02-2026 08:00:00,25.366336,87.117468,CO,34,58,54
India,Bihar,Purnia,"Mariam Nagar, Purnia - BSPCB",13-02-2026 08:00:00,25.366336,87.117468,OZONE,4,39,20
India,Bihar,Gaya,"Kareemganj, Gaya - BSPCB",13-02-2026 08:00:00,24.792403,84.992416,NH3,1,2,1
India,Bihar,Gaya,"Kareemganj, Gaya - BSPCB",13-02-2026 08:00:00,24.792403,84.992416,CO,1,16,3
India,Bihar,Gaya,"SFTI Kusdihra, Gaya - BSPCB",13-02-2026 08:00:00,24.762518,84.982348,SO2,4,11,7
India,Bihar,Gaya,"SFTI Kusdihra, Gaya - BSPCB",13-02-2026 08:00:00,24.762518,84.982348,CO,22,40,32
India,Bihar,Katihar,"Mirchaibari, Katihar - BSPCB",13-02-2026 08:00:00,25.560083,87.553265,CO,57,92,70
India,Bihar,Kishanganj,"SDM Office_Khagra, Kishanganj - BSPCB",13-02-2026 08:00:00,26.0881305,87.93840336,NH3,3,3,3
India,Bihar,Kishanganj,"SDM Office_Khagra, Kishanganj - BSPCB",13-02-2026 08:00:00,26.0881305,87.93840336,CO,16,24,17
India,Bihar,Muzaffarpur,"Buddha Colony, Muzaffarpur - BSPCB",13-02-2026 08:00:00,26.11442,85.39813,PM10,66,188,103
India,Bihar,Muzaffarpur,"Muzaffarpur Collectorate, Muzaffarpur - BSPCB",13-02-2026 08:00:00,26.1209,85.3647,OZONE,8,22,13
India,Bihar,Patna,"DRM Office Danapur, Patna - BSPCB",13-02-2026 08:00:00,25.586562,85.043586,PM10,85,188,118
India,Bihar,Patna,"DRM Office Danapur, Patna - BSPCB",13-02-2026 08:00:00,25.586562,85.043586,SO2,2,7,6
India,Bihar,Patna,"Govt. High School Shikarpur, Patna - BSPCB",13-02-2026 08:00:00,25.592539,85.227158,PM2.5,76,171,127
India,Bihar,Patna,"Govt. High School Shikarpur, Patna - BSPCB",13-02-2026 08:00:00,25.592539,85.227158,SO2,4,8,6
India,Andhra_Pradesh,Amaravati,"Secretariat, Amaravati - APPCB",13-02-2026 08:00:00,16.5150833,80.5181667,NO2,19,86,40
India,Andhra_Pradesh,Amaravati,"Secretariat, Amaravati - APPCB",13-02-2026 08:00:00,16.5150833,80.5181667,OZONE,1,64,6
India,Andhra_Pradesh,Chittoor,"Gangineni Cheruvu, Chittoor - APPCB",13-02-2026 08:00:00,13.204880,79.097889,PM10,43,107,70
India,Andhra_Pradesh,Chittoor,"Gangineni Cheruvu, Chittoor - APPCB",13-02-2026 08:00:00,13.204880,79.097889,NH3,2,5,3
India,Chhattisgarh,Milupara,"Govt. Higher Secondary School, Milupara - CECB",13-02-2026 08:00:00,22.1910172,83.5197009,OZONE,6,119,16
India,Chhattisgarh,Raipur,"Bhatagaon New ISBT, Raipur - CECB",13-02-2026 08:00:00,21.219665,81.630094,PM10,36,131,85
India,Chhattisgarh,Raipur,"Bhatagaon New ISBT, Raipur - CECB",13-02-2026 08:00:00,21.219665,81.630094,NO2,11,66,37
India,Chhattisgarh,Raipur,"Bhatagaon New ISBT, Raipur - CECB",13-02-2026 08:00:00,21.219665,81.630094,NH3,2,2,2
India,Chhattisgarh,Raipur,"Bhatagaon New ISBT, Raipur - CECB",13-02-2026 08:00:00,21.219665,81.630094,SO2,4,73,22
India,Chhattisgarh,Raipur,"Bhatagaon New ISBT, Raipur - CECB",13-02-2026 08:00:00,21.219665,81.630094,CO,34,109,94
India,Chhattisgarh,Raipur,"Krishak Nagar, Raipur - CECB",13-02-2026 08:00:00,21.237755,81.705301,NO2,13,32,20
India,Chhattisgarh,Raipur,"Siltara Phase-II, Raipur - CECB",13-02-2026 08:00:00,21.371751,81.664929,PM2.5,33,102,60
India,Chhattisgarh,Raipur,"Siltara Phase-II, Raipur - CECB",13-02-2026 08:00:00,21.371751,81.664929,CO,34,36,35
India,Chhattisgarh,Tumidih,"OP Jindal Industrial Park, Tumidih - CECB",13-02-2026 08:00:00,22.06631475,83.33820077,PM2.5,44,97,70
India,Chhattisgarh,Tumidih,"OP Jindal Industrial Park, Tumidih - CECB",13-02-2026 08:00:00,22.06631475,83.33820077,PM10,35,260,96
India,Chhattisgarh,Tumidih,"OP Jindal Industrial Park, Tumidih - CECB",13-02-2026 08:00:00,22.06631475,83.33820077,NH3,1,2,1
India,Delhi,Delhi,"Najafgarh, Delhi - DPCC",13-02-2026 08:00:00,28.570173,76.933762,OZONE,4,116,5
India,Delhi,Delhi,"Narela, Delhi - DPCC",13-02-2026 08:00:00,28.822836,77.101981,PM10,97,246,166
India,Delhi,Delhi,"Narela, Delhi - DPCC",13-02-2026 08:00:00,28.822836,77.101981,NO2,17,52,34
India,Delhi,Delhi,"Narela, Delhi - DPCC",13-02-2026 08:00:00,28.822836,77.101981,NH3,5,7,6
India,Delhi,Delhi,"Narela, Delhi - DPCC",13-02-2026 08:00:00,28.822836,77.101981,CO,34,73,52
India,Delhi,Delhi,"Narela, Delhi - DPCC",13-02-2026 08:00:00,28.822836,77.101981,OZONE,8,81,13
India,Delhi,Delhi,"Nehru Nagar, Delhi - DPCC",13-02-2026 08:00:00,28.567890,77.250515,PM10,91,299,163
India,Delhi,Delhi,"Nehru Nagar, Delhi - DPCC",13-02-2026 08:00:00,28.567890,77.250515,CO,34,113,86
India,Delhi,Delhi,"Nehru Nagar, Delhi - DPCC",13-02-2026 08:00:00,28.567890,77.250515,OZONE,1,114,2
India,Delhi,Delhi,"Okhla Phase-2, Delhi - DPCC",13-02-2026 08:00:00,28.530785,77.271255,NH3,14,26,20
India,Delhi,Delhi,"Okhla Phase-2, Delhi - DPCC",13-02-2026 08:00:00,28.530785,77.271255,SO2,9,20,14
India,Delhi,Delhi,"Punjabi Bagh, Delhi - DPCC",13-02-2026 08:00:00,28.674045,77.131023,NH3,4,5,5
India,Delhi,Delhi,"Punjabi Bagh, Delhi - DPCC",13-02-2026 08:00:00,28.674045,77.131023,SO2,15,58,20
India,Delhi,Delhi,"Alipur, Delhi - DPCC",13-02-2026 08:00:00,28.815329,77.153010,SO2,7,16,10
India,Delhi,Delhi,"Alipur, Delhi - DPCC",13-02-2026 08:00:00,28.815329,77.153010,CO,12,50,45
India,Delhi,Delhi,"Anand Vihar, Delhi - DPCC",13-02-2026 08:00:00,28.647622,77.3158090,SO2,10,26,20
India,Delhi,Delhi,"Anand Vihar, Delhi - DPCC",13-02-2026 08:00:00,28.647622,77.3158090,CO,51,122,91
India,Delhi,Delhi,"Ashok Vihar, Delhi - DPCC",13-02-2026 08:00:00,28.695381,77.181665,PM10,97,202,156
India,Delhi,Delhi,"Bawana, Delhi - DPCC",13-02-2026 08:00:00,28.776200,77.051074,PM2.5,63,358,220
India,Delhi,Delhi,"Bawana, Delhi - DPCC",13-02-2026 08:00:00,28.776200,77.051074,PM10,75,268,152
India,Delhi,Delhi,"Bawana, Delhi - DPCC",13-02-2026 08:00:00,28.776200,77.051074,NO2,4,54,24
India,Delhi,Delhi,"Bawana, Delhi - DPCC",13-02-2026 08:00:00,28.776200,77.051074,CO,36,100,72
India,Delhi,Delhi,"Burari Crossing, Delhi - IMD",13-02-2026 08:00:00,28.7256504,77.2011573,PM10,82,218,153
India,Delhi,Delhi,"CRRI Mathura Road, Delhi - IMD",13-02-2026 08:00:00,28.5512005,77.2735737,PM10,85,260,156
India,Delhi,Delhi,"CRRI Mathura Road, Delhi - IMD",13-02-2026 08:00:00,28.5512005,77.2735737,CO,2,88,64
India,Delhi,Delhi,"Chandni Chowk, Delhi - IITM",13-02-2026 08:00:00,28.656756,77.227234,PM2.5,60,304,169
India,Delhi,Delhi,"DTU, Delhi - CPCB",13-02-2026 08:00:00,28.7500499,77.1112615,NO2,20,45,32
India,Delhi,Delhi,"Dr. Karni Singh Shooting Range, Delhi - DPCC",13-02-2026 08:00:00,28.498571,77.264840,PM2.5,63,297,169
India,Delhi,Delhi,"Dwarka-Sector 8, Delhi - DPCC ",13-02-2026 08:00:00,28.5710274,77.0719006,NH3,20,23,22
India,Delhi,Delhi,"Dwarka-Sector 8, Delhi - DPCC ",13-02-2026 08:00:00,28.5710274,77.0719006,SO2,19,35,27
India,Delhi,Delhi,"IGI Airport (T3), Delhi - IMD",13-02-2026 08:00:00,28.5627763,77.1180053,NO2,42,111,74
India,Chandigarh,Chandigarh,"Sector 22, Chandigarh - CPCC",13-02-2026 08:00:00,30.735567,76.775714,NH3,9,17,13
India,Chandigarh,Chandigarh,"Sector 22, Chandigarh - CPCC",13-02-2026 08:00:00,30.735567,76.775714,SO2,6,20,11
India,Chandigarh,Chandigarh,"Sector-25, Chandigarh - CPCC",13-02-2026 08:00:00,30.751462,76.762879,PM2.5,63,170,104
India,Chandigarh,Chandigarh,"Sector-53, Chandigarh - CPCC",13-02-2026 08:00:00,30.719859,76.738637,SO2,1,21,10
India,Chhattisgarh,Bhilai,"32Bungalows, Bhilai - CECB",13-02-2026 08:00:00,21.194815,81.314770,CO,25,52,47
India,Chhattisgarh,Bhilai,"Civic Center, Bhilai - Bhilai Steel Plant",13-02-2026 08:00:00,21.185571,81.343175,CO,27,35,34
India,Chhattisgarh,Bhilai,"Hathkhoj, Bhilai - CECB",13-02-2026 08:00:00,21.224231,81.408350,PM2.5,11,128,52
India,Chhattisgarh,Bhilai,"Hathkhoj, Bhilai - CECB",13-02-2026 08:00:00,21.224231,81.408350,CO,12,88,51
India,Delhi,Delhi,"Punjabi Bagh, Delhi - DPCC",13-02-2026 08:00:00,28.674045,77.131023,OZONE,3,60,7
India,Delhi,Delhi,"Pusa, Delhi - DPCC",13-02-2026 08:00:00,28.639652,77.146275,PM10,122,384,184
India,Delhi,Delhi,"Pusa, Delhi - DPCC",13-02-2026 08:00:00,28.639652,77.146275,NO2,36,133,78
India,Delhi,Delhi,"Pusa, Delhi - IMD",13-02-2026 08:00:00,28.636110,77.173332,PM10,50,254,143
India,Delhi,Delhi,"R K Puram, Delhi - DPCC",13-02-2026 08:00:00,28.563262,77.186937,PM10,107,199,151
India,Delhi,Delhi,"Rohini, Delhi - DPCC",13-02-2026 08:00:00,28.732528,77.119920,OZONE,6,121,13
India,Delhi,Delhi,"Shadipur, Delhi - CPCB",13-02-2026 08:00:00,28.6514781,77.1473105,PM2.5,130,377,256
India,Delhi,Delhi,"Shadipur, Delhi - CPCB",13-02-2026 08:00:00,28.6514781,77.1473105,SO2,13,20,16
India,Chhattisgarh,Bhilai,"Hathkhoj, Bhilai - CECB",13-02-2026 08:00:00,21.224231,81.408350,OZONE,3,16,7
India,Chhattisgarh,Bilaspur,"Mangala, Bilaspur - NTPC",13-02-2026 08:00:00,22.08815,82.13737,PM10,52,135,85
India,Chhattisgarh,Chhal,"Nawapara SECL Colony, Chhal - CECB",13-02-2026 08:00:00,22.118125,83.140608,SO2,1,42,13
India,Chhattisgarh,Korba,"Rampur, Korba - CECB",13-02-2026 08:00:00,22.368195,82.746431,SO2,9,54,21
India,Chhattisgarh,Korba,"Urja Nagar, Korba - CECB",13-02-2026 08:00:00,22.348441,82.549611,NH3,1,1,1
India,Chhattisgarh,Korba,"Urja Nagar, Korba - CECB",13-02-2026 08:00:00,22.348441,82.549611,SO2,3,18,9
India,Chhattisgarh,Korba,"Urja Nagar, Korba - CECB",13-02-2026 08:00:00,22.348441,82.549611,CO,19,76,40
India,Delhi,Delhi,"IHBAS, Dilshad Garden, Delhi - CPCB",13-02-2026 08:00:00,28.6811736,77.3025234,PM2.5,50,210,126
India,Delhi,Delhi,"ITO, Delhi - CPCB",13-02-2026 08:00:00,28.628624,77.241060,NH3,2,5,4
India,Delhi,Delhi,"Jahangirpuri, Delhi - DPCC",13-02-2026 08:00:00,28.732820,77.170633,PM10,113,287,182
India,Delhi,Delhi,"Jawaharlal Nehru Stadium, Delhi - DPCC",13-02-2026 08:00:00,28.580280,77.233829,PM2.5,55,287,166
India,Delhi,Delhi,"Jawaharlal Nehru Stadium, Delhi - DPCC",13-02-2026 08:00:00,28.580280,77.233829,SO2,7,26,16
India,Delhi,Delhi,"Mandir Marg, Delhi - DPCC",13-02-2026 08:00:00,28.636429,77.201067,PM2.5,18,316,121
India,Delhi,Delhi,"Mandir Marg, Delhi - DPCC",13-02-2026 08:00:00,28.636429,77.201067,OZONE,13,143,16
India,Delhi,Delhi,"Mundka, Delhi - DPCC",13-02-2026 08:00:00,28.684678,77.076574,PM2.5,58,378,230
India,Delhi,Delhi,"Mundka, Delhi - DPCC",13-02-2026 08:00:00,28.684678,77.076574,NH3,9,13,11
India,Delhi,Delhi,"NSIT Dwarka, Delhi - CPCB",13-02-2026 08:00:00,28.60909,77.0325413,NO2,2,48,18
India,Delhi,Delhi,"NSIT Dwarka, Delhi - CPCB",13-02-2026 08:00:00,28.60909,77.0325413,SO2,9,21,15
India,Haryana,Charkhi Dadri,"Mini Secretariat, Charkhi Dadri - HSPCB",13-02-2026 08:00:00,28.593883,76.270653,OZONE,13,18,15
India,Haryana,Dharuhera,"Municipal Corporation Office, Dharuhera -  HSPCB",13-02-2026 08:00:00,28.206800,76.799700,NO2,20,68,50
India,Haryana,Dharuhera,"Municipal Corporation Office, Dharuhera -  HSPCB",13-02-2026 08:00:00,28.206800,76.799700,NH3,9,26,19
India,Haryana,Dharuhera,"Municipal Corporation Office, Dharuhera -  HSPCB",13-02-2026 08:00:00,28.206800,76.799700,SO2,6,7,7
India,Haryana,Faridabad,"New Industrial Town, Faridabad - HSPCB",13-02-2026 08:00:00,28.39072,77.30059,PM2.5,183,206,196
India,Haryana,Faridabad,"New Industrial Town, Faridabad - HSPCB",13-02-2026 08:00:00,28.39072,77.30059,PM10,130,138,134
India,Haryana,Faridabad,"New Industrial Town, Faridabad - HSPCB",13-02-2026 08:00:00,28.39072,77.30059,CO,10,13,12
India,Haryana,Faridabad,"Sector 30, Faridabad - HSPCB",13-02-2026 08:00:00,28.4417,77.3217,NH3,11,12,11
India,Haryana,Faridabad,"Sector 30, Faridabad - HSPCB",13-02-2026 08:00:00,28.4417,77.3217,CO,57,64,62
India,Haryana,Fatehabad,"Huda Sector, Fatehabad - HSPCB",13-02-2026 08:00:00,29.503664,75.467934,OZONE,55,69,62
India,Haryana,Gurugram,"Sector-51, Gurugram - HSPCB",13-02-2026 08:00:00,28.4227,77.0667,PM10,95,419,191
India,Haryana,Gurugram,"Sector-51, Gurugram - HSPCB",13-02-2026 08:00:00,28.4227,77.0667,CO,38,102,77
India,Haryana,Panchkula,"Sector-6, Panchkula - HSPCB ",13-02-2026 08:00:00,30.7057778,76.8531805555555,SO2,14,15,15
India,Haryana,Panchkula,"Sector-6, Panchkula - HSPCB ",13-02-2026 08:00:00,30.7057778,76.8531805555555,CO,6,30,21
India,Haryana,Panipat,"Sector-18, Panipat - HSPCB",13-02-2026 08:00:00,29.432304,76.972765,PM2.5,NA,NA,NA
India,Haryana,Panipat,"Sector-18, Panipat - HSPCB",13-02-2026 08:00:00,29.432304,76.972765,NH3,NA,NA,NA
India,Haryana,Panipat,"Sector-18, Panipat - HSPCB",13-02-2026 08:00:00,29.432304,76.972765,CO,NA,NA,NA
India,Haryana,Rohtak,"MD University, Rohtak - HSPCB",13-02-2026 08:00:00,28.52123,76.37138,CO,31,36,34
India,Haryana,Sonipat,"Murthal, Sonipat - HSPCB",13-02-2026 08:00:00,29.027200,77.062100,PM2.5,55,265,136
India,Haryana,Yamuna Nagar,"Gobind Pura, Yamuna Nagar - HSPCB",13-02-2026 08:00:00,30.1480566,77.2893471,PM10,86,122,106
India,Himachal Pradesh,Baddi,"HIMUDA Complex Phase-1, Baddi - HPPCB",13-02-2026 08:00:00,30.943887,76.801991,NO2,12,73,37
India,Himachal Pradesh,Baddi,"HIMUDA Complex Phase-1, Baddi - HPPCB",13-02-2026 08:00:00,30.943887,76.801991,NH3,5,9,7
India,Gujarat,Ahmedabad,"Gyaspur, Ahmedabad - IITM",13-02-2026 08:00:00,22.977134,72.553024,SO2,NA,NA,NA
India,Gujarat,Ahmedabad,"Maninagar, Ahmedabad - GPCB",13-02-2026 08:00:00,23.002657,72.591912,NO2,95,108,105
India,Gujarat,Ahmedabad,"Raikhad, Ahmedabad - IITM",13-02-2026 08:00:00,23.020509,72.579261,NO2,31,178,86
India,Gujarat,Ahmedabad,"Raikhad, Ahmedabad - IITM",13-02-2026 08:00:00,23.020509,72.579261,NH3,14,46,22
India,Gujarat,Ahmedabad,"Raikhad, Ahmedabad - IITM",13-02-2026 08:00:00,23.020509,72.579261,CO,8,56,23
India,Gujarat,Ahmedabad,"Raikhad, Ahmedabad - IITM",13-02-2026 08:00:00,23.020509,72.579261,OZONE,1,73,17
India,Gujarat,Ahmedabad,"SAC ISRO Bopal, Ahmedabad - IITM",13-02-2026 08:00:00,23.041137,72.456691,PM2.5,138,199,172
India,Gujarat,Ahmedabad,"SAC ISRO Bopal, Ahmedabad - IITM",13-02-2026 08:00:00,23.041137,72.456691,OZONE,1,119,10
India,Gujarat,Ahmedabad,"SAC ISRO Satellite, Ahmedabad - IITM",13-02-2026 08:00:00,23.023389,72.515201,OZONE,2,72,15
India,Gujarat,Ahmedabad,"SVPI Airport Hansol, Ahmedabad - IITM",13-02-2026 08:00:00,23.076793,72.627874,PM2.5,69,154,99
India,Gujarat,Ahmedabad,"SVPI Airport Hansol, Ahmedabad - IITM",13-02-2026 08:00:00,23.076793,72.627874,SO2,5,15,8
India,Delhi,Delhi,"Sonia Vihar, Delhi - DPCC",13-02-2026 08:00:00,28.710508,77.249485,PM10,69,230,156
India,Delhi,Delhi,"Sonia Vihar, Delhi - DPCC",13-02-2026 08:00:00,28.710508,77.249485,NO2,27,66,48
India,Delhi,Delhi,"Sonia Vihar, Delhi - DPCC",13-02-2026 08:00:00,28.710508,77.249485,NH3,5,8,7
India,Delhi,Delhi,"Vivek Vihar, Delhi - DPCC",13-02-2026 08:00:00,28.672342,77.315260,SO2,7,30,15
India,Delhi,Delhi,"Wazirpur, Delhi - DPCC",13-02-2026 08:00:00,28.699793,77.165453,PM2.5,47,339,207
India,Delhi,Delhi,"Wazirpur, Delhi - DPCC",13-02-2026 08:00:00,28.699793,77.165453,NO2,79,250,150
India,Gujarat,Ahmedabad,"Chandkheda, Ahmedabad - IITM",13-02-2026 08:00:00,23.107969,72.574648,PM2.5,60,198,106
India,Gujarat,Ahmedabad,"Chandkheda, Ahmedabad - IITM",13-02-2026 08:00:00,23.107969,72.574648,NH3,2,5,4
India,Gujarat,Ahmedabad,"Chandkheda, Ahmedabad - IITM",13-02-2026 08:00:00,23.107969,72.574648,SO2,12,28,17
India,Gujarat,Ahmedabad,"Chandkheda, Ahmedabad - IITM",13-02-2026 08:00:00,23.107969,72.574648,CO,22,66,40
India,Gujarat,Ahmedabad,"Gyaspur, Ahmedabad - IITM",13-02-2026 08:00:00,22.977134,72.553024,PM2.5,94,289,169
India,Gujarat,Vatva,"Phase-4 GIDC, Vatva - GPCB",13-02-2026 08:00:00,22.969611,72.643500,NH3,2,11,6
India,Gujarat,Vatva,"Phase-4 GIDC, Vatva - GPCB",13-02-2026 08:00:00,22.969611,72.643500,SO2,12,26,21
India,Haryana,Ambala,"Patti Mehar, Ambala - HSPCB",13-02-2026 08:00:00,30.379589,76.778328,SO2,15,32,22
India,Haryana,Bahadurgarh,"Arya Nagar, Bahadurgarh - HSPCB",13-02-2026 08:00:00,28.6701,76.9254,NH3,12,13,13
India,Haryana,Ballabgarh,"Nathu Colony, Ballabgarh - HSPCB",13-02-2026 08:00:00,28.3419248,77.319699,PM2.5,55,323,179
India,Haryana,Ballabgarh,"Nathu Colony, Ballabgarh - HSPCB",13-02-2026 08:00:00,28.3419248,77.319699,PM10,157,420,258
India,Haryana,Bhiwani,"H.B. Colony, Bhiwani - HSPCB",13-02-2026 08:00:00,28.806223,76.141105,PM2.5,45,497,158
India,Haryana,Kurukshetra,"Sector-7, Kurukshetra - HSPCB",13-02-2026 08:00:00,29.966942,76.875879,CO,2,23,16
India,Haryana,Manesar,"Sector-2 IMT, Manesar - HSPCB",13-02-2026 08:00:00,28.360699,76.936090,PM2.5,58,377,146
India,Haryana,Manesar,"Sector-2 IMT, Manesar - HSPCB",13-02-2026 08:00:00,28.360699,76.936090,SO2,15,42,26
India,Haryana,Narnaul,"Shastri Nagar, Narnaul - HSPCB",13-02-2026 08:00:00,28.060249,76.113115,NH3,6,23,12
India,Haryana,Palwal,"Shyam Nagar, Palwal - HSPCB",13-02-2026 08:00:00,28.1485564,77.3320667,PM10,45,67,56
India,Haryana,Panchgaon,"Amity University, Panchgaon - IITM",13-02-2026 08:00:00,28.3153,76.9143,NH3,3,16,8
India,Gujarat,Bhavnagar,"Vidhyanagar, Bhavnagar - Nexteng Enviro",13-02-2026 08:00:00,21.755417,72.139056,PM2.5,52,326,149
India,Gujarat,Bhavnagar,"Vidhyanagar, Bhavnagar - Nexteng Enviro",13-02-2026 08:00:00,21.755417,72.139056,NO2,53,81,62
India,Gujarat,Gandhinagar,"GIFT City, Gandhinagar - IITM",13-02-2026 08:00:00,23.163798,72.677768,PM2.5,73,180,111
India,Gujarat,Gandhinagar,"GIFT City, Gandhinagar - IITM",13-02-2026 08:00:00,23.163798,72.677768,NO2,19,64,38
India,Gujarat,Gandhinagar,"GIFT City, Gandhinagar - IITM",13-02-2026 08:00:00,23.163798,72.677768,CO,20,60,36
India,Gujarat,Gandhinagar,"IIPHG Lekawada, Gandhinagar - IITM",13-02-2026 08:00:00,23.243639,72.68994,PM2.5,NA,NA,NA
India,Gujarat,Gandhinagar,"Sector-10, Gandhinagar - GPCB",13-02-2026 08:00:00,23.221714,72.654328,SO2,5,13,9
India,Haryana,Hisar,"Urban Estate-II, Hisar - HSPCB",13-02-2026 08:00:00,29.140560,75.744941,NO2,26,27,27
India,Haryana,Jind,"Police Lines, Jind - HSPCB",13-02-2026 08:00:00,29.307814,76.337619,PM2.5,84,171,110
India,Haryana,Jind,"Police Lines, Jind - HSPCB",13-02-2026 08:00:00,29.307814,76.337619,PM10,72,111,87
India,Haryana,Jind,"Police Lines, Jind - HSPCB",13-02-2026 08:00:00,29.307814,76.337619,OZONE,10,28,15
India,Haryana,Kaithal,"Rishi Nagar, Kaithal - HSPCB",13-02-2026 08:00:00,29.8006,76.4155,PM10,51,98,73
India,Haryana,Karnal,"Sector-12, Karnal - HSPCB",13-02-2026 08:00:00,29.695300,77.002700,PM10,64,131,103
India,Haryana,Karnal,"Sector-12, Karnal - HSPCB",13-02-2026 08:00:00,29.695300,77.002700,NO2,6,7,6
India,Gujarat,Rajkot,"Mavdi, Rajkot - Nexteng Enviro ",13-02-2026 08:00:00,22.248853,70.776774,PM2.5,85,322,199
India,Gujarat,Surat,"Katargam, Surat - Nexteng Enviro",13-02-2026 08:00:00,21.217779 ,72.834787 ,PM2.5,73,384,241
India,Gujarat,Surat,"Katargam, Surat - Nexteng Enviro",13-02-2026 08:00:00,21.217779 ,72.834787 ,OZONE,7,8,8
India,Gujarat,Vadodara,"Bapunagar, Vadodara - Nexteng Enviro",13-02-2026 08:00:00,22.320153,73.216285,NO2,12,23,16
India,Gujarat,Vadodara,"Bapunagar, Vadodara - Nexteng Enviro",13-02-2026 08:00:00,22.320153,73.216285,NH3,1,3,2
India,Gujarat,Vapi,"Phase-1 GIDC, Vapi - GPCB",13-02-2026 08:00:00,20.362421,72.918013,NO2,18,20,19
India,Karnataka,Hubballi,"Lingaraj Nagar, Hubballi - KSPCB",13-02-2026 08:00:00,15.3714823,75.1160168,OZONE,7,40,24
India,Karnataka,Kalaburagi,"Mahatma Basaveswar Colony, Kalaburgi - KSPCB",13-02-2026 08:00:00,17.336318,76.847397,CO,30,61,42
India,Karnataka,Mysuru,"Hebbal 1st Stage, Mysuru - KSPCB",13-02-2026 08:00:00,12.21041,76.37376,NH3,6,6,6
India,Karnataka,Mysuru,"Hebbal 1st Stage, Mysuru - KSPCB",13-02-2026 08:00:00,12.21041,76.37376,SO2,1,5,3
India,Karnataka,Mysuru,"Hebbal 1st Stage, Mysuru - KSPCB",13-02-2026 08:00:00,12.21041,76.37376,CO,14,46,30
India,Karnataka,Ramanagara,"Vijay Nagar, Ramanagara - KSPCB",13-02-2026 08:00:00,12.733409,77.298051,PM10,12,116,64
India,Karnataka,Shivamogga,"Vinoba Nagara, Shivamogga - KSPCB",13-02-2026 08:00:00,13.940000,75.555917,PM2.5,36,51,42
India,Karnataka,Bengaluru,"Kasturi Nagar, Bengaluru - KSPCB",13-02-2026 08:00:00,13.003872,77.664217,NO2,31,33,32
India,Karnataka,Bengaluru,"Peenya, Bengaluru - CPCB",13-02-2026 08:00:00,13.0270199,77.494094,SO2,NA,NA,NA
India,Karnataka,Bengaluru,"RVCE-Mailasandra, Bengaluru - KSPCB",13-02-2026 08:00:00,12.921418,77.502466,NH3,3,4,4
India,Karnataka,Bengaluru,"RVCE-Mailasandra, Bengaluru - KSPCB",13-02-2026 08:00:00,12.921418,77.502466,SO2,5,6,6
India,Karnataka,Bengaluru,"Sanegurava Halli, Bengaluru - KSPCB",13-02-2026 08:00:00,12.990328,77.5431385,PM10,50,53,52
India,Karnataka,Bengaluru,"Shivapura_Peenya, Bengaluru - KSPCB",13-02-2026 08:00:00,13.0246342,77.5080115,PM2.5,NA,NA,NA
India,Karnataka,Bengaluru,"Silk Board, Bengaluru - KSPCB",13-02-2026 08:00:00,12.917348,77.622813,NH3,5,6,6
India,Madhya Pradesh,Gwalior,"City Center, Gwalior - MPPCB",13-02-2026 08:00:00,26.203442,78.193251,SO2,3,17,11
India,Madhya Pradesh,Gwalior,"Deen Dayal Nagar, Gwalior - MPPCB",13-02-2026 08:00:00,26.259242,78.216432,NH3,3,6,3
India,Madhya Pradesh,Gwalior,"Maharaj Bada, Gwalior - MPPCB",13-02-2026 08:00:00,26.200388,78.147714,NH3,3,4,4
India,Madhya Pradesh,Gwalior,"Maharaj Bada, Gwalior - MPPCB",13-02-2026 08:00:00,26.200388,78.147714,CO,2,122,36
India,Madhya Pradesh,Gwalior,"Maharaj Bada, Gwalior - MPPCB",13-02-2026 08:00:00,26.200388,78.147714,OZONE,9,97,64
India,Madhya Pradesh,Indore,"Airport Area, Indore - IMC",13-02-2026 08:00:00,22.7289,75.8076,OZONE,5,17,6
India,Madhya Pradesh,Indore,"Chhoti Gwaltoli, Indore - MPPCB",13-02-2026 08:00:00,22.4310,75.5213,PM10,94,188,124
India,Karnataka,Bengaluru,"Bapuji Nagar, Bengaluru - KSPCB",13-02-2026 08:00:00,12.951913,77.539784,PM10,77,148,107
India,Karnataka,Bengaluru,"Bapuji Nagar, Bengaluru - KSPCB",13-02-2026 08:00:00,12.951913,77.539784,NH3,5,7,6
India,Karnataka,Bengaluru,"Hebbal, Bengaluru - KSPCB",13-02-2026 08:00:00,13.029152,77.585901,NH3,1,2,1
India,Karnataka,Bengaluru,"Hombegowda Nagar, Bengaluru - KSPCB",13-02-2026 08:00:00,12.938539,77.590100,PM10,20,52,36
India,Karnataka,Bengaluru,"Hombegowda Nagar, Bengaluru - KSPCB",13-02-2026 08:00:00,12.938539,77.590100,NH3,3,7,4
India,Karnataka,Bengaluru,"Jayanagar 5th Block, Bengaluru - KSPCB",13-02-2026 08:00:00,12.920984,77.584908,PM2.5,21,78,46
India,Karnataka,Bengaluru,"Jayanagar 5th Block, Bengaluru - KSPCB",13-02-2026 08:00:00,12.920984,77.584908,PM10,59,102,78
India,Karnataka,Bengaluru,"Jayanagar 5th Block, Bengaluru - KSPCB",13-02-2026 08:00:00,12.920984,77.584908,CO,10,64,12
India,Himachal Pradesh,Baddi,"HIMUDA Complex Phase-1, Baddi - HPPCB",13-02-2026 08:00:00,30.943887,76.801991,OZONE,11,122,31
India,Jammu_and_Kashmir,Pampore,"Khrew, Pampore - JKPCC",13-02-2026 08:00:00,34.031606,75.009712,SO2,2,3,2
India,Jammu_and_Kashmir,Srinagar,"Rajbagh, Srinagar - JKPCC",13-02-2026 08:00:00,34.066206,74.819820,PM2.5,15,26,20
India,Jammu_and_Kashmir,Srinagar,"Rajbagh, Srinagar - JKPCC",13-02-2026 08:00:00,34.066206,74.819820,PM10,24,41,32
India,Jharkhand,Dhanbad,"Sardar Patel Nagar, Dhanbad - JSPCB",13-02-2026 08:00:00,23.80569,86.44268,PM2.5,11,299,93
India,Karnataka,Shivamogga,"Vinoba Nagara, Shivamogga - KSPCB",13-02-2026 08:00:00,13.940000,75.555917,OZONE,8,61,11
India,Karnataka,Tumakuru,"Thimmalapura, Tumakuru - KSPCB",13-02-2026 08:00:00,13.377516,77.099072,NO2,31,32,31
India,Karnataka,Tumakuru,"Thimmalapura, Tumakuru - KSPCB",13-02-2026 08:00:00,13.377516,77.099072,OZONE,23,23,23
India,Karnataka,Vijayapura,"Ibrahimpur, Vijayapura - KSPCB",13-02-2026 08:00:00,16.802639,75.722694,NH3,1,2,1
India,Karnataka,Vijayapura,"Ibrahimpur, Vijayapura - KSPCB",13-02-2026 08:00:00,16.802639,75.722694,OZONE,16,17,16
India,Karnataka,Yadgir,"Collector Office, Yadgir - KSPCB",13-02-2026 08:00:00,16.7602,77.1428,NO2,7,48,23
India,Madhya Pradesh,Bhopal,"Paryavaran Parisar, Bhopal - MPPCB",13-02-2026 08:00:00,23.210494,77.425409,NO2,29,88,52
India,Madhya Pradesh,Bhopal,"Paryavaran Parisar, Bhopal - MPPCB",13-02-2026 08:00:00,23.210494,77.425409,SO2,10,21,16
India,Madhya Pradesh,Bhopal,"Paryavaran Parisar, Bhopal - MPPCB",13-02-2026 08:00:00,23.210494,77.425409,CO,18,74,24
India,Madhya Pradesh,Bhopal,"T T Nagar, Bhopal - MPPCB",13-02-2026 08:00:00,23.233584,77.400574,PM10,83,135,108
India,Madhya Pradesh,Bhopal,"T T Nagar, Bhopal - MPPCB",13-02-2026 08:00:00,23.233584,77.400574,OZONE,49,192,80
India,Madhya Pradesh,Dewas,"Bhopal Chauraha, Dewas - MPPCB",13-02-2026 08:00:00,22.9682591,76.064118,NO2,72,120,100
India,Karnataka,Bengaluru,"Silk Board, Bengaluru - KSPCB",13-02-2026 08:00:00,12.917348,77.622813,OZONE,8,75,38
India,Karnataka,Chamarajanagar,"Urban, Chamarajanagar - KSPCB",13-02-2026 08:00:00,11.55358,76.55521,PM2.5,29,46,33
India,Karnataka,Dharwad,"Kalabhavan, Dharwad - KSPCB",13-02-2026 08:00:00,15.459706,75.008381,CO,49,109,58
India,Karnataka,Hubballi,"Lingaraj Nagar, Hubballi - KSPCB",13-02-2026 08:00:00,15.3714823,75.1160168,NO2,7,11,11
India,Kerala,Kollam,"Polayathode, Kollam - Kerala PCB",13-02-2026 08:00:00,8.8787,76.6073,NO2,8,10,9
India,Kerala,Thiruvananthapuram,"Plammoodu, Thiruvananthapuram - Kerala PCB",13-02-2026 08:00:00,8.5149093,76.9435879,OZONE,11,87,23
India,Kerala,Thrissur,"Corporation Ground, Thrissur - Kerala PCB",13-02-2026 08:00:00,10.532400,76.215900,CO,6,10,8
India,Madhya Pradesh,Indore,"Maguda Nagar, Indore - IMC",13-02-2026 08:00:00,22.7524,75.8872,OZONE,19,21,19
India,Madhya Pradesh,Indore,"Regional Park, Indore - IMC",13-02-2026 08:00:00,22.6780,75.8559,PM2.5,57,267,102
India,Madhya Pradesh,Indore,"Regional Park, Indore - IMC",13-02-2026 08:00:00,22.6780,75.8559,NH3,1,3,2
India,Madhya Pradesh,Indore,"Residency Area, Indore - IMC",13-02-2026 08:00:00,22.7084,75.8815,OZONE,6,14,6
India,Madhya Pradesh,Jabalpur,"Govindh Bhavan Colony, Jabalpur - JMC",13-02-2026 08:00:00,23.163174,79.973061,PM10,47,113,62
India,Madhya Pradesh,Jabalpur,"Marhatal, Jabalpur - MPPCB",13-02-2026 08:00:00,23.168606,79.932247,PM2.5,42,293,107
India,Madhya Pradesh,Jabalpur,"Marhatal, Jabalpur - MPPCB",13-02-2026 08:00:00,23.168606,79.932247,NH3,2,2,2
India,Madhya Pradesh,Jabalpur,"Suhagi, Jabalpur - JMC",13-02-2026 08:00:00,23.218135,79.957770,PM2.5,NA,NA,NA
India,Madhya Pradesh,Katni,"Gole Bazar, Katni - MPPCB",13-02-2026 08:00:00,23.50016,80.23284,PM10,70,355,134
India,Madhya Pradesh,Katni,"Gole Bazar, Katni - MPPCB",13-02-2026 08:00:00,23.50016,80.23284,NH3,4,7,6
India,Madhya Pradesh,Katni,"Gole Bazar, Katni - MPPCB",13-02-2026 08:00:00,23.50016,80.23284,SO2,14,54,38
India,Madhya Pradesh,Katni,"Gole Bazar, Katni - MPPCB",13-02-2026 08:00:00,23.50016,80.23284,OZONE,7,138,12
India,Madhya Pradesh,Pithampur,"Sector-2 Industrial Area, Pithampur - MPPCB",13-02-2026 08:00:00,22.624758,75.675238,NO2,40,55,44
India,Madhya Pradesh,Pithampur,"Sector-2 Industrial Area, Pithampur - MPPCB",13-02-2026 08:00:00,22.624758,75.675238,OZONE,45,123,64
India,Madhya Pradesh,Ratlam,"Shasthri Nagar, Ratlam - IPCA Lab",13-02-2026 08:00:00,23.331731,75.045981,PM2.5,32,141,78
India,Madhya Pradesh,Ratlam,"Shasthri Nagar, Ratlam - IPCA Lab",13-02-2026 08:00:00,23.331731,75.045981,SO2,35,39,37
India,Maharashtra,Chandrapur,"Chauhan Colony, Chandrapur - MPCB",13-02-2026 08:00:00,19.962900,79.298714,CO,17,24,20
India,Maharashtra,Chandrapur,"MIDC Khutala, Chandrapur - MPCB",13-02-2026 08:00:00,19.9775302,79.2337086,OZONE,17,19,18
India,Maharashtra,Dhule,"Deopur, Dhule - MPCB",13-02-2026 08:00:00,20.918946,74.776388,PM2.5,52,241,128
India,Maharashtra,Dhule,"Deopur, Dhule - MPCB",13-02-2026 08:00:00,20.918946,74.776388,PM10,82,190,128
India,Maharashtra,Dhule,"Deopur, Dhule - MPCB",13-02-2026 08:00:00,20.918946,74.776388,CO,11,60,29
India,Maharashtra,Jalgaon,"Prabhat Colony, Jalgaon - MPCB",13-02-2026 08:00:00,21.001264,75.565602,PM2.5,87,217,136
India,Maharashtra,Kalyan,"Khadakpada, Kalyan - MPCB",13-02-2026 08:00:00,19.25292,73.142019,OZONE,NA,NA,NA
India,Maharashtra,Aurangabad,"More Chowk Waluj, Aurangabad - MPCB",13-02-2026 08:00:00,19.8389439,75.244448,CO,1,108,46
India,Maharashtra,Badlapur,"Katrap, Badlapur - MPCB",13-02-2026 08:00:00,19.16485,73.23409,NH3,3,9,6
India,Maharashtra,Belapur,"CBD Belapur, Belapur - MPCB",13-02-2026 08:00:00,19.0243902,73.0406721,SO2,11,34,18
India,Maharashtra,Bhiwandi,"Gokul Nagar, Bhiwandi - MPCB",13-02-2026 08:00:00,19.309073,73.057223,PM10,104,180,141
India,Maharashtra,Bhiwandi,"Gokul Nagar, Bhiwandi - MPCB",13-02-2026 08:00:00,19.309073,73.057223,SO2,7,13,11
India,Maharashtra,Boisar,"Khaira, Boisar - MPCB",13-02-2026 08:00:00,19.786089,72.757971,PM2.5,51,102,72
India,Maharashtra,Kolhapur,"Shivaji University, Kolhapur - MPCB",13-02-2026 08:00:00,16.6870449,74.2505872,NH3,2,5,3
India,Maharashtra,Kolhapur,"Shivaji University, Kolhapur - MPCB",13-02-2026 08:00:00,16.6870449,74.2505872,OZONE,2,74,8
India,Maharashtra,Kolhapur,"Sinchan Bhavan, Kolhapur - MPCB",13-02-2026 08:00:00,16.7143745,74.2426398,OZONE,1,39,1
India,Maharashtra,Latur,"Sawe Wadi, Latur - MPCB",13-02-2026 08:00:00,18.39963,76.57452,PM10,NA,NA,NA
India,Maharashtra,Latur,"Sawe Wadi, Latur - MPCB",13-02-2026 08:00:00,18.39963,76.57452,NH3,NA,NA,NA
India,Maharashtra,Latur,"Sawe Wadi, Latur - MPCB",13-02-2026 08:00:00,18.39963,76.57452,SO2,NA,NA,NA
India,Maharashtra,Mahad,"Kamble Tarf Birwadi, Mahad - MPCB",13-02-2026 08:00:00,18.1023399,73.4783687,NO2,12,82,41
India,Madhya Pradesh,Sagar,"Civil Lines, Sagar - MPPCB",13-02-2026 08:00:00,23.838586,78.759431,OZONE,59,123,81
India,Madhya Pradesh,Sagar,"Deen Dayal Nagar, Sagar - MPPCB",13-02-2026 08:00:00,23.8640158,78.80289321,PM10,51,128,93
India,Madhya Pradesh,Sagar,"Deen Dayal Nagar, Sagar - MPPCB",13-02-2026 08:00:00,23.8640158,78.80289321,SO2,4,7,6
India,Madhya Pradesh,Sagar,"Deen Dayal Nagar, Sagar - MPPCB",13-02-2026 08:00:00,23.8640158,78.80289321,CO,13,28,17
India,Madhya Pradesh,Singrauli,"Suryakiran Bhawan NCL, Singrauli - MPPCB",13-02-2026 08:00:00,24.108970,82.645580,CO,6,101,64
India,Madhya Pradesh,Ujjain,"Mahashweta Nagar, Ujjain - MPPCB",13-02-2026 08:00:00,23.1633321,75.800225,OZONE,42,72,50
India,Maharashtra,Amravati,"Shri Shivaji Science College, Amravati - MPCB",13-02-2026 08:00:00,20.939198,77.765701,NH3,NA,NA,NA
India,Maharashtra,Amravati,"Shri Shivaji Science College, Amravati - MPCB",13-02-2026 08:00:00,20.939198,77.765701,SO2,19,42,28
India,Maharashtra,Aurangabad,"More Chowk Waluj, Aurangabad - MPCB",13-02-2026 08:00:00,19.8389439,75.244448,NH3,10,11,10
India,Maharashtra,Akola,"Ramdaspeth, Akola - MPCB",13-02-2026 08:00:00,20.719516,77.000253,PM2.5,38,142,63
India,Maharashtra,Akola,"Ramdaspeth, Akola - MPCB",13-02-2026 08:00:00,20.719516,77.000253,PM10,57,200,94
India,Maharashtra,Akola,"Ramdaspeth, Akola - MPCB",13-02-2026 08:00:00,20.719516,77.000253,NO2,10,128,48
India,Maharashtra,Aurangabad,"More Chowk Waluj, Aurangabad - MPCB",13-02-2026 08:00:00,19.8389439,75.244448,SO2,9,21,14
India,Maharashtra,Mumbai,"Malad West, Mumbai - IITM",13-02-2026 08:00:00,19.19709,72.82204,NO2,55,111,80
India,Maharashtra,Mumbai,"Mazgaon, Mumbai - IITM",13-02-2026 08:00:00,18.96702,72.84214,PM2.5,72,181,114
India,Maharashtra,Mumbai,"Mazgaon, Mumbai - IITM",13-02-2026 08:00:00,18.96702,72.84214,PM10,79,133,108
India,Maharashtra,Mumbai,"Mazgaon, Mumbai - IITM",13-02-2026 08:00:00,18.96702,72.84214,CO,26,84,81
India,Maharashtra,Mumbai,"Mindspace-Malad West, Mumbai - MPCB",13-02-2026 08:00:00,19.1878657,72.8304069,NO2,15,123,59
India,Maharashtra,Mumbai,"Mindspace-Malad West, Mumbai - MPCB",13-02-2026 08:00:00,19.1878657,72.8304069,SO2,9,57,22
India,Maharashtra,Mumbai,"Mulund West, Mumbai - MPCB",13-02-2026 08:00:00,19.1750,72.9419,PM10,NA,NA,NA
India,Maharashtra,Mumbai,"Mulund West, Mumbai - MPCB",13-02-2026 08:00:00,19.1750,72.9419,NO2,15,18,16
India,Maharashtra,Mumbai,"Mulund West, Mumbai - MPCB",13-02-2026 08:00:00,19.1750,72.9419,SO2,NA,NA,NA
India,Maharashtra,Mumbai,"Navy Nagar-Colaba, Mumbai - IITM",13-02-2026 08:00:00,18.897756,72.813320,PM10,96,193,142
India,Maharashtra,Mumbai,"Navy Nagar-Colaba, Mumbai - IITM",13-02-2026 08:00:00,18.897756,72.813320,NO2,34,182,96
India,Maharashtra,Mumbai,"Powai, Mumbai - MPCB",13-02-2026 08:00:00,19.137500,72.915056,NO2,7,8,8
India,Maharashtra,Nashik,"MIDC Ambad, Nashik - MPCB",13-02-2026 08:00:00,19.950220,73.731480,PM2.5,35,77,51
India,Maharashtra,Nashik,"MIDC Ambad, Nashik - MPCB",13-02-2026 08:00:00,19.950220,73.731480,NO2,7,56,18
India,Maharashtra,Nashik,"MIDC Ambad, Nashik - MPCB",13-02-2026 08:00:00,19.950220,73.731480,SO2,17,22,19
India,Maharashtra,Nashik,"MIDC Ambad, Nashik - MPCB",13-02-2026 08:00:00,19.950220,73.731480,OZONE,6,71,42
India,Maharashtra,Nashik,"Pandav Nagari, Nashik - MPCB",13-02-2026 08:00:00,19.9591346,73.7788008,PM10,NA,NA,NA
India,Maharashtra,Nashik,"Pandav Nagari, Nashik - MPCB",13-02-2026 08:00:00,19.9591346,73.7788008,NO2,NA,NA,NA
India,Maharashtra,Nashik,"Pandav Nagari, Nashik - MPCB",13-02-2026 08:00:00,19.9591346,73.7788008,SO2,NA,NA,NA
India,Maharashtra,Navi Mumbai,"Mahape, Navi Mumbai - MPCB",13-02-2026 08:00:00,19.1135051,73.008978,PM2.5,46,80,59
India,Maharashtra,Navi Mumbai,"Mahape, Navi Mumbai - MPCB",13-02-2026 08:00:00,19.1135051,73.008978,NH3,1,2,1
India,Maharashtra,Navi Mumbai,"Sanpada, Navi Mumbai - MPCB",13-02-2026 08:00:00,19.0575752,73.0151367,OZONE,43,43,43
India,Maharashtra,Navi Mumbai,"Sector-2E Kalamboli, Navi Mumbai - MPCB",13-02-2026 08:00:00,19.02579,73.10297,PM2.5,43,99,71
India,Maharashtra,Pimpri-Chinchwad,"Thergaon, Pimpri Chinchwad - MPCB",13-02-2026 08:00:00,18.616318,73.765797,NO2,42,111,70
India,Maharashtra,Pune,"Bhosari, Pune - IITM",13-02-2026 08:00:00,18.640051,73.848956,NO2,8,15,12
India,Maharashtra,Pune,"Bhumkar Nagar, Pune - IITM",13-02-2026 08:00:00,18.605770,73.749976,NO2,NA,NA,NA
India,Maharashtra,Pune,"Dhankawadi, Pune - IITM",13-02-2026 08:00:00,18.459883,73.852193,PM10,78,190,130
India,Maharashtra,Pune,"Dhankawadi, Pune - IITM",13-02-2026 08:00:00,18.459883,73.852193,OZONE,4,65,12
India,Maharashtra,Pune,"Hadapsar, Pune - IITM",13-02-2026 08:00:00,18.501793,73.927532,CO,8,108,82
India,Maharashtra,Pune,"Katraj Dairy, Pune - MPCB",13-02-2026 08:00:00,18.454450,73.854155,NO2,20,57,39
India,Maharashtra,Pune,"Katraj Dairy, Pune - MPCB",13-02-2026 08:00:00,18.454450,73.854155,NH3,3,9,5
India,Maharashtra,Nagpur,"Opp GPO Civil Lines, Nagpur - MPCB",13-02-2026 08:00:00,21.152875,79.0517531,NO2,15,70,31
India,Maharashtra,Nagpur,"Ram Nagar, Nagpur - MPCB",13-02-2026 08:00:00,21.143383,79.048912,PM2.5,118,247,178
India,Maharashtra,Nagpur,"Ram Nagar, Nagpur - MPCB",13-02-2026 08:00:00,21.143383,79.048912,PM10,121,180,145
India,Maharashtra,Nagpur,"Ram Nagar, Nagpur - MPCB",13-02-2026 08:00:00,21.143383,79.048912,CO,22,72,52
India,Maharashtra,Nanded,"Sneh Nagar, Nanded - MPCB",13-02-2026 08:00:00,19.173852,77.296291,OZONE,24,94,46
India,Maharashtra,Nashik,"Gangapur Road, Nashik - MPCB",13-02-2026 08:00:00,20.0073285,73.7762427,NO2,5,5,5
India,Maharashtra,Nashik,"Hirawadi, Nashik - MPCB",13-02-2026 08:00:00,20.021503,73.813844,SO2,11,81,24
India,Maharashtra,Mira-Bhayandar,"Bhayandar West, Mira-Bhayandar - MPCB",13-02-2026 08:00:00,19.296481,72.840923,NO2,24,81,51
India,Maharashtra,Mira-Bhayandar,"Bhayandar West, Mira-Bhayandar - MPCB",13-02-2026 08:00:00,19.296481,72.840923,NH3,3,9,6
India,Maharashtra,Mumbai,"Bandra Kurla Complex, Mumbai - IITM",13-02-2026 08:00:00,19.053536,72.84643,SO2,3,9,5
India,Maharashtra,Mumbai,"Bandra Kurla Complex, Mumbai - IITM",13-02-2026 08:00:00,19.053536,72.84643,CO,14,74,51
India,Maharashtra,Mumbai,"Borivali East, Mumbai - IITM",13-02-2026 08:00:00,19.23241,72.86895,PM2.5,75,141,93
India,Maharashtra,Mumbai,"Borivali East, Mumbai - IITM",13-02-2026 08:00:00,19.23241,72.86895,PM10,70,136,111
India,Maharashtra,Mumbai,"Borivali East, Mumbai - IITM",13-02-2026 08:00:00,19.23241,72.86895,CO,NA,NA,NA
India,Maharashtra,Mumbai,"Byculla, Mumbai - BMC",13-02-2026 08:00:00,18.9767,72.8380,NH3,NA,NA,NA
India,Maharashtra,Navi Mumbai,"Sector-2E Kalamboli, Navi Mumbai - MPCB",13-02-2026 08:00:00,19.02579,73.10297,SO2,1,15,4
India,Maharashtra,Navi Mumbai,"Tondare-Taloja, Navi Mumbai - MPCB",13-02-2026 08:00:00,19.0630,73.1209,OZONE,NA,NA,NA
India,Maharashtra,Parbhani,"Masoom Colony, Parbhani - MPCB",13-02-2026 08:00:00,19.265594,76.761463,PM10,44,130,75
India,Maharashtra,Pimpri-Chinchwad,"Gavalinagar, Pimpri Chinchwad - MPCB",13-02-2026 08:00:00,18.63673,73.82487,CO,20,94,53
India,Maharashtra,Pimpri-Chinchwad,"Park Street Wakad, Pimpri Chinchwad - MPCB",13-02-2026 08:00:00,18.59051,73.77946,CO,13,115,52
India,Maharashtra,Mumbai,"Sewri, Mumbai - BMC",13-02-2026 08:00:00,19.000084,72.856730,OZONE,5,26,2
India,Maharashtra,Mumbai,"Shivaji Nagar, Mumbai - BMC",13-02-2026 08:00:00,19.060498,72.923356,PM2.5,60,84,72
India,Maharashtra,Mumbai,"Shivaji Nagar, Mumbai - BMC",13-02-2026 08:00:00,19.060498,72.923356,PM10,NA,NA,NA
India,Maharashtra,Mumbai,"Sion, Mumbai - MPCB",13-02-2026 08:00:00,19.047000,72.874600,NH3,6,7,7
India,Maharashtra,Mumbai,"Sion, Mumbai - MPCB",13-02-2026 08:00:00,19.047000,72.874600,CO,8,16,16
India,Maharashtra,Nagpur,"Ambazari, Nagpur - MPCB",13-02-2026 08:00:00,21.121801,79.04952,PM2.5,128,237,176
India,Maharashtra,Nagpur,"Ambazari, Nagpur - MPCB",13-02-2026 08:00:00,21.121801,79.04952,PM10,112,150,131
India,Maharashtra,Mumbai,"Byculla, Mumbai - BMC",13-02-2026 08:00:00,18.9767,72.8380,CO,NA,NA,NA
India,Maharashtra,Mumbai,"Chakala-Andheri East, Mumbai - IITM",13-02-2026 08:00:00,19.11074,72.86084,PM2.5,87,190,130
India,Maharashtra,Mumbai,"Chakala-Andheri East, Mumbai - IITM",13-02-2026 08:00:00,19.11074,72.86084,OZONE,6,111,42
India,Maharashtra,Mumbai,"Chhatrapati Shivaji Intl. Airport (T2), Mumbai - MPCB",13-02-2026 08:00:00,19.10078,72.87462,PM2.5,81,211,124
India,Maharashtra,Mumbai,"Colaba, Mumbai - MPCB",13-02-2026 08:00:00,18.910000,72.820000,CO,63,71,68
India,Maharashtra,Mumbai,"Colaba, Mumbai - MPCB",13-02-2026 08:00:00,18.910000,72.820000,OZONE,10,11,11
India,Maharashtra,Mumbai,"Kandivali West, Mumbai - BMC",13-02-2026 08:00:00,19.215859,72.831718,PM2.5,74,131,94
India,Maharashtra,Mumbai,"Kandivali West, Mumbai - BMC",13-02-2026 08:00:00,19.215859,72.831718,SO2,4,17,8
India,Maharashtra,Mumbai,"Kandivali West, Mumbai - BMC",13-02-2026 08:00:00,19.215859,72.831718,CO,40,109,70
India,Maharashtra,Mumbai,"Khindipada-Bhandup West, Mumbai - IITM",13-02-2026 08:00:00,19.1653323,72.922099,SO2,2,17,6
India,Maharashtra,Mumbai,"Khindipada-Bhandup West, Mumbai - IITM",13-02-2026 08:00:00,19.1653323,72.922099,CO,7,24,10
India,Maharashtra,Mumbai,"Kurla, Mumbai - MPCB",13-02-2026 08:00:00,19.0863,72.8888,PM2.5,59,235,92
India,Maharashtra,Mumbai,"Kurla, Mumbai - MPCB",13-02-2026 08:00:00,19.0863,72.8888,NH3,2,2,2
India,Odisha,Suakati,"OMC Colony, Suakati - OSPCB",13-02-2026 08:00:00,21.606865,85.510538,PM10,105,168,127
India,Odisha,Suakati,"OMC Colony, Suakati - OSPCB",13-02-2026 08:00:00,21.606865,85.510538,NH3,6,6,6
India,Odisha,Suakati,"OMC Colony, Suakati - OSPCB",13-02-2026 08:00:00,21.606865,85.510538,OZONE,37,107,45
India,Odisha,Talcher,"Talcher Coalfields,Talcher - OSPCB",13-02-2026 08:00:00,20.9360711,85.1707021,NH3,6,9,7
India,Odisha,Talcher,"Talcher Coalfields,Talcher - OSPCB",13-02-2026 08:00:00,20.9360711,85.1707021,SO2,1,39,15
India,Odisha,Talcher,"Talcher Coalfields,Talcher - OSPCB",13-02-2026 08:00:00,20.9360711,85.1707021,CO,20,106,59
India,Odisha,Talcher,"Talcher Coalfields,Talcher - OSPCB",13-02-2026 08:00:00,20.9360711,85.1707021,OZONE,31,62,40
India,Odisha,Tensa,"Barsua Iron Ore Mines, Tensa - OSPCB",13-02-2026 08:00:00,21.869985,85.167016,PM2.5,32,56,44
India,Odisha,Tensa,"Barsua Iron Ore Mines, Tensa - OSPCB",13-02-2026 08:00:00,21.869985,85.167016,NO2,NA,NA,NA
India,Odisha,Tensa,"Barsua Iron Ore Mines, Tensa - OSPCB",13-02-2026 08:00:00,21.869985,85.167016,NH3,NA,NA,NA
India,Puducherry,Puducherry,"Jawahar Nagar, Puducherry - PPCC",13-02-2026 08:00:00,11.9309,79.8027,CO,14,30,19
India,Puducherry,Puducherry,"Jawahar Nagar, Puducherry - PPCC",13-02-2026 08:00:00,11.9309,79.8027,OZONE,31,89,41
India,Punjab,Amritsar,"Golden Temple, Amritsar - PPCB",13-02-2026 08:00:00,31.620000,74.876512,PM10,48,119,90
India,Punjab,Amritsar,"Golden Temple, Amritsar - PPCB",13-02-2026 08:00:00,31.620000,74.876512,NH3,7,16,11
India,Maharashtra,Solapur,"Ratandeep Housing Society, Solapur - MPCB",13-02-2026 08:00:00,17.65439,75.90649,OZONE,1,42,19
India,Maharashtra,Thane,"Kasarvadavali, Thane - MPCB",13-02-2026 08:00:00,19.26777,72.97182,NO2,NA,NA,NA
India,Maharashtra,Thane,"Kasarvadavali, Thane - MPCB",13-02-2026 08:00:00,19.26777,72.97182,CO,17,105,62
India,Maharashtra,Thane,"Upvan Fort, Thane - MPCB",13-02-2026 08:00:00,19.222279,72.957979,PM10,83,131,105
India,Maharashtra,Thane,"Upvan Fort, Thane - MPCB",13-02-2026 08:00:00,19.222279,72.957979,NO2,19,69,36
India,Maharashtra,Thane,"Upvan Fort, Thane - MPCB",13-02-2026 08:00:00,19.222279,72.957979,CO,2,46,23
India,Maharashtra,Thane,"Upvan Fort, Thane - MPCB",13-02-2026 08:00:00,19.222279,72.957979,OZONE,25,106,49
India,Maharashtra,Ulhasnagar,"Sidhi Vinayak Nagar, Ulhasnagar - MPCB",13-02-2026 08:00:00,19.235581,73.159121,NH3,4,9,6
India,Maharashtra,Virar,"Bolinj, Virar - MPCB",13-02-2026 08:00:00,19.4458210,72.7988231,SO2,5,27,14
India,Maharashtra,Virar,"Bolinj, Virar - MPCB",13-02-2026 08:00:00,19.4458210,72.7988231,OZONE,1,56,10
India,Meghalaya,Shillong,"Lumpyngngad, Shillong - Meghalaya PCB",13-02-2026 08:00:00,25.5586,91.8985,PM2.5,1,23,10
India,Odisha,Baripada,"Meher Colony, Baripada - OSPCB",13-02-2026 08:00:00,21.941841,86.728318,CO,28,84,33
India,Odisha,Bhubaneswar,"Lingraj Mandir, Bhubaneswar - OSPCB",13-02-2026 08:00:00,20.240790,85.836784,PM10,99,165,117
India,Odisha,Bhubaneswar,"Patia, Bhubaneswar - OSPCB",13-02-2026 08:00:00,20.34652,85.81630,NO2,16,48,26
India,Odisha,Bhubaneswar,"Patia, Bhubaneswar - OSPCB",13-02-2026 08:00:00,20.34652,85.81630,NH3,4,9,6
India,Odisha,Bhubaneswar,"Patia, Bhubaneswar - OSPCB",13-02-2026 08:00:00,20.34652,85.81630,OZONE,7,153,16
India,Odisha,Bileipada,"Tata Township, Bileipada - OSPCB",13-02-2026 08:00:00,22.06156703,85.47409613,CO,14,54,36
India,Odisha,Bileipada,"Tata Township, Bileipada - OSPCB",13-02-2026 08:00:00,22.06156703,85.47409613,OZONE,2,6,6
India,Odisha,Brajrajnagar,"GM Office, Brajrajnagar - OSPCB",13-02-2026 08:00:00,21.8004996,83.8396977,PM10,35,159,83
India,Odisha,Brajrajnagar,"GM Office, Brajrajnagar - OSPCB",13-02-2026 08:00:00,21.8004996,83.8396977,CO,23,64,40
India,Odisha,Byasanagar,"Ferro Chrome Colony, Byasanagar - OSPCB",13-02-2026 08:00:00,20.94185,86.11510,NO2,13,32,22
India,Odisha,Byasanagar,"Ferro Chrome Colony, Byasanagar - OSPCB",13-02-2026 08:00:00,20.94185,86.11510,SO2,2,9,6
India,Punjab,Patiala,"Model Town, Patiala - PPCB",13-02-2026 08:00:00,30.349388,76.366642,OZONE,11,42,11
India,Punjab,Rupnagar,"Ratanpura, Rupnagar - Ambuja Cements",13-02-2026 08:00:00,31.0325454,76.5623046,SO2,6,6,6
India,Rajasthan,Alwar,"Moti Doongri, Alwar - RSPCB",13-02-2026 08:00:00,27.554793,76.611536,CO,68,104,77
India,Rajasthan,Alwar,"Moti Doongri, Alwar - RSPCB",13-02-2026 08:00:00,27.554793,76.611536,OZONE,6,90,21
India,Rajasthan,Banswara,"Rati Talai, Banswara - RSPCB",13-02-2026 08:00:00,23.555190,74.440010,PM10,47,180,99
India,Rajasthan,Banswara,"Rati Talai, Banswara - RSPCB",13-02-2026 08:00:00,23.555190,74.440010,NO2,11,95,35
India,Rajasthan,Baran,"Bamboliya, Baran - RSPCB",13-02-2026 08:00:00,25.106006,76.469948,PM2.5,18,103,50
India,Rajasthan,Baran,"Bamboliya, Baran - RSPCB",13-02-2026 08:00:00,25.106006,76.469948,PM10,65,117,88
India,Rajasthan,Baran,"Bamboliya, Baran - RSPCB",13-02-2026 08:00:00,25.106006,76.469948,NH3,9,17,13
India,Rajasthan,Barmer,"Railway Colony, Barmer - RSPCB",13-02-2026 08:00:00,25.747299,71.393989,NH3,3,6,5
India,Maharashtra,Pune,"Revenue Colony-Shivajinagar, Pune - IITM",13-02-2026 08:00:00,18.530085,73.849598,NO2,26,117,69
India,Maharashtra,Pune,"Revenue Colony-Shivajinagar, Pune - IITM",13-02-2026 08:00:00,18.530085,73.849598,OZONE,3,47,11
India,Maharashtra,Pune,"Savitribai Phule Pune University, Pune - MPCB",13-02-2026 08:00:00,18.547056,73.826908,OZONE,NA,NA,NA
India,Maharashtra,Pune,"Transport Nagar-Nigdi, Pune - IITM",13-02-2026 08:00:00,18.664282,73.763966,PM2.5,90,295,139
India,Maharashtra,Sangli,"Vijay Nagar, Sangli - MPCB",13-02-2026 08:00:00, 16.5038,74.3623,NO2,NA,NA,NA
India,Maharashtra,Sangli,"Vijay Nagar, Sangli - MPCB",13-02-2026 08:00:00, 16.5038,74.3623,SO2,NA,NA,NA
India,Maharashtra,Sangli,"Vijay Nagar, Sangli - MPCB",13-02-2026 08:00:00, 16.5038,74.3623,OZONE,NA,NA,NA
India,Maharashtra,Solapur,"Ratandeep Housing Society, Solapur - MPCB",13-02-2026 08:00:00,17.65439,75.90649,NO2,9,135,45
India,Punjab,Bathinda,"Hardev Nagar, Bathinda - PPCB",13-02-2026 08:00:00,30.233011,74.907758,PM2.5,8,55,26
India,Punjab,Bathinda,"Hardev Nagar, Bathinda - PPCB",13-02-2026 08:00:00,30.233011,74.907758,NO2,8,20,16
India,Punjab,Khanna,"Kalal Majra, Khanna - PPCB",13-02-2026 08:00:00,30.736056 ,76.209694,NH3,7,8,7
India,Punjab,Ludhiana,"Punjab Agricultural University, Ludhiana - PPCB",13-02-2026 08:00:00,30.9028,75.8086,SO2,29,53,39
India,Punjab,Mandi Gobindgarh,"RIMT University, Mandi Gobindgarh - PPCB",13-02-2026 08:00:00,30.649961,76.331442,NH3,6,6,6
India,Punjab,Patiala,"Model Town, Patiala - PPCB",13-02-2026 08:00:00,30.349388,76.366642,NO2,16,20,18
India,Punjab,Patiala,"Model Town, Patiala - PPCB",13-02-2026 08:00:00,30.349388,76.366642,NH3,6,7,6
India,Mizoram,Aizawl,"Sikulpuikawn, Aizawl - Mizoram PCB",13-02-2026 08:00:00,23.7176342,92.7192841,PM10,54,58,56
India,Nagaland,Kohima,"PWD Junction, Kohima - NPCB",13-02-2026 08:00:00,25.6635413,94.0989878,NH3,1,1,1
India,Nagaland,Kohima,"PWD Junction, Kohima - NPCB",13-02-2026 08:00:00,25.6635413,94.0989878,OZONE,3,27,5
India,Odisha,Balasore,"Kalidaspur, Balasore - OSPCB",13-02-2026 08:00:00,21.51161,86.89088,PM10,101,500,189
India,Odisha,Balasore,"Kalidaspur, Balasore - OSPCB",13-02-2026 08:00:00,21.51161,86.89088,NH3,1,10,3
India,Odisha,Balasore,"Kalidaspur, Balasore - OSPCB",13-02-2026 08:00:00,21.51161,86.89088,SO2,10,75,23
India,Odisha,Barbil,"Forest Office, Barbil - OSPCB",13-02-2026 08:00:00,22.1166054,85.3945546,SO2,9,68,18
India,Odisha,Cuttack,"CDA Area, Cuttack - OSPCB",13-02-2026 08:00:00,20.48891     ,85.84768     ,PM10,115,291,170
India,Odisha,Cuttack,"CDA Area, Cuttack - OSPCB",13-02-2026 08:00:00,20.48891     ,85.84768     ,SO2,5,10,7
India,Odisha,Keonjhar,"Jagamohanpur, Keonjhar - OSPCB",13-02-2026 08:00:00,21.643900,85.599355,PM10,76,161,116
India,Odisha,Nayagarh,"Dabuna, Nayagarh - OSPCB",13-02-2026 08:00:00,21.847279,85.416905,CO,2,26,22
India,Odisha,Rairangpur,"Divisional Forest Office, Rairangpur - OSPCB",13-02-2026 08:00:00,22.265816,86.174829,NO2,11,11,11
India,Odisha,Rourkela,"Raghunathpali, Rourkela - OSPCB",13-02-2026 08:00:00,22.220833,84.809444,SO2,4,6,5
India,Rajasthan,Barmer,"Railway Colony, Barmer - RSPCB",13-02-2026 08:00:00,25.747299,71.393989,CO,98,107,100
India,Rajasthan,Bhilwara,"Pratap Nagar, Bhilwara - RSPCB",13-02-2026 08:00:00,25.339605,74.618883,NO2,14,59,26
India,Rajasthan,Bhiwadi,"RIICO Ind. Area III, Bhiwadi - RSPCB",13-02-2026 08:00:00,28.194909,76.862296,PM10,97,240,150
India,Rajasthan,Bikaner,"MM Ground, Bikaner - RSPCB",13-02-2026 08:00:00,28.018792,73.292658,SO2,7,19,11
India,Rajasthan,Chittorgarh,"Shastri Nagar, Chittorgarh - RSPCB",13-02-2026 08:00:00,24.892047,74.623527,SO2,4,128,39
India,Rajasthan,Chittorgarh,"Shastri Nagar, Chittorgarh - RSPCB",13-02-2026 08:00:00,24.892047,74.623527,CO,4,54,20
India,Rajasthan,Chittorgarh,"Shastri Nagar, Chittorgarh - RSPCB",13-02-2026 08:00:00,24.892047,74.623527,OZONE,7,106,13
India,Rajasthan,Churu,"Subash Chowk, Churu - RSPCB",13-02-2026 08:00:00,28.296139,74.961696,PM2.5,11,184,73
India,Rajasthan,Churu,"Subash Chowk, Churu - RSPCB",13-02-2026 08:00:00,28.296139,74.961696,SO2,7,8,8
India,Rajasthan,Dausa,"Khatikan Mohalla, Dausa - RSPCB",13-02-2026 08:00:00,26.895552,76.334753,NH3,9,17,12
India,Rajasthan,Dausa,"Khatikan Mohalla, Dausa - RSPCB",13-02-2026 08:00:00,26.895552,76.334753,CO,39,104,54
India,Rajasthan,Dholpur,"Raja Ganj, Dholpur - RSPCB",13-02-2026 08:00:00,26.699557,77.898881,CO,30,64,41
India,Rajasthan,Dungarpur,"Bhoiwada, Dungarpur - RSPCB",13-02-2026 08:00:00,23.837789,73.714926,PM10,73,199,120
India,Rajasthan,Dungarpur,"Bhoiwada, Dungarpur - RSPCB",13-02-2026 08:00:00,23.837789,73.714926,NH3,11,24,16
India,TamilNadu,Coimbatore,"PSG College of Arts and Science, Coimbatore - TNPCB",13-02-2026 08:00:00,11.0328,77.0349,NO2,10,11,10
India,TamilNadu,Coimbatore,"PSG College of Arts and Science, Coimbatore - TNPCB",13-02-2026 08:00:00,11.0328,77.0349,NH3,1,1,1
India,TamilNadu,Coimbatore,"SIDCO Kurichi, Coimbatore - TNPCB",13-02-2026 08:00:00,10.942451,76.978996,NH3,1,1,1
India,TamilNadu,Gummidipoondi,"Anthoni Pillai Nagar, Gummidipoondi - TNPCB",13-02-2026 08:00:00,13.4127,80.1081,PM2.5,65,405,205
India,TamilNadu,Perundurai,"SIPCOT Industrial Park, Perundurai - TNPCB",13-02-2026 08:00:00,11.258242,77.552761,PM10,NA,NA,NA
India,Telangana,Hyderabad,"Bollaram Industrial Area, Hyderabad - TSPCB",13-02-2026 08:00:00,17.540891,78.358528,PM2.5,70,143,110
India,Telangana,Hyderabad,"Bollaram Industrial Area, Hyderabad - TSPCB",13-02-2026 08:00:00,17.540891,78.358528,NH3,2,6,5
India,Telangana,Hyderabad,"Bollaram Industrial Area, Hyderabad - TSPCB",13-02-2026 08:00:00,17.540891,78.358528,SO2,4,11,8
India,Rajasthan,Hanumangarh,"Housing Board, Hanumangarh - RSPCB",13-02-2026 08:00:00,29.610750,74.283608,PM10,40,173,110
India,Rajasthan,Hanumangarh,"Housing Board, Hanumangarh - RSPCB",13-02-2026 08:00:00,29.610750,74.283608,NO2,12,62,30
India,Rajasthan,Jaipur,"Adarsh Nagar, Jaipur - RSPCB",13-02-2026 08:00:00,26.902909,75.836858,PM2.5,90,226,152
India,Rajasthan,Jaipur,"Adarsh Nagar, Jaipur - RSPCB",13-02-2026 08:00:00,26.902909,75.836858,SO2,16,31,23
India,Rajasthan,Jaipur,"Mansarovar Sector-12, Jaipur - RSPCB",13-02-2026 08:00:00,26.843698,75.766894,NH3,6,13,9
India,Rajasthan,Jaipur,"Police Commissionerate, Jaipur - RSPCB",13-02-2026 08:00:00,26.9164092,75.7994901,NO2,116,148,136
India,Rajasthan,Jaipur,"RIICO Sitapura, Jaipur - RSPCB",13-02-2026 08:00:00,26.786682,75.827928,NH3,4,7,6
India,Rajasthan,Jaipur,"RIICO Sitapura, Jaipur - RSPCB",13-02-2026 08:00:00,26.786682,75.827928,CO,19,103,47
India,Rajasthan,Sri Ganganagar,"Old City, Sri Ganganagar - RSPCB",13-02-2026 08:00:00,29.931624,73.864511,SO2,4,15,7
India,Rajasthan,Sri Ganganagar,"Old City, Sri Ganganagar - RSPCB",13-02-2026 08:00:00,29.931624,73.864511,OZONE,5,201,37
India,Rajasthan,Tonk,"Shastri Nagar, Tonk - RSPCB",13-02-2026 08:00:00,26.159933,75.780517,NO2,11,121,40
India,Rajasthan,Tonk,"Shastri Nagar, Tonk - RSPCB",13-02-2026 08:00:00,26.159933,75.780517,OZONE,1,94,16
India,Rajasthan,Udaipur,"Ashok Nagar, Udaipur - RSPCB",13-02-2026 08:00:00,24.5886166,73.6321397,PM2.5,53,242,119
India,Sikkim,Gangtok,"Zero Point GICI, Gangtok - SSPCB",13-02-2026 08:00:00,27.338530,88.614099,NH3,1,1,1
India,TamilNadu,Chennai,"Arumbakkam, Chennai - TNPCB",13-02-2026 08:00:00,13.0664,80.2112 ,PM2.5,41,196,80
India,Rajasthan,Jaisalmer,"Sadar Bazar, Jaisalmer - RSPCB",13-02-2026 08:00:00,26.912329,70.909168,PM2.5,20,303,95
India,Rajasthan,Jaisalmer,"Sadar Bazar, Jaisalmer - RSPCB",13-02-2026 08:00:00,26.912329,70.909168,PM10,53,309,115
India,Rajasthan,Jaisalmer,"Sadar Bazar, Jaisalmer - RSPCB",13-02-2026 08:00:00,26.912329,70.909168,NH3,6,18,8
India,Rajasthan,Jalore,"Mudtra Sili, Jalore - RSPCB",13-02-2026 08:00:00,25.344694,72.626208,PM10,52,191,108
India,Rajasthan,Jalore,"Mudtra Sili, Jalore - RSPCB",13-02-2026 08:00:00,25.344694,72.626208,NO2,11,145,42
India,Rajasthan,Jalore,"Mudtra Sili, Jalore - RSPCB",13-02-2026 08:00:00,25.344694,72.626208,CO,20,117,27
India,Rajasthan,Jhalawar,"Rajlaxmi Nagar, Jhalawar - RSPCB",13-02-2026 08:00:00,24.588397,76.172782,NH3,6,11,9
India,Rajasthan,Jhunjhunu,"Indra Nagar, Jhunjhunu - RSPCB",13-02-2026 08:00:00,28.108988,75.386577,CO,14,56,32
India,Rajasthan,Jodhpur,"Collectorate, Jodhpur - RSPCB",13-02-2026 08:00:00,26.268249,73.0193853,PM10,30,93,56
India,Rajasthan,Jodhpur,"Collectorate, Jodhpur - RSPCB",13-02-2026 08:00:00,26.268249,73.0193853,CO,5,58,23
India,Rajasthan,Jodhpur,"Digari Kalan, Jodhpur - RSPCB",13-02-2026 08:00:00,26.295810,73.082283,SO2,1,11,4
India,Rajasthan,Jodhpur,"Digari Kalan, Jodhpur - RSPCB",13-02-2026 08:00:00,26.295810,73.082283,CO,12,42,17
India,Rajasthan,Jodhpur,"Jhalamand, Jodhpur - RSPCB",13-02-2026 08:00:00,26.215415,73.070156,PM2.5,23,87,52
India,Rajasthan,Jodhpur,"Jhalamand, Jodhpur - RSPCB",13-02-2026 08:00:00,26.215415,73.070156,NO2,9,71,30
India,Rajasthan,Jodhpur,"Jhalamand, Jodhpur - RSPCB",13-02-2026 08:00:00,26.215415,73.070156,NH3,6,11,8
India,Rajasthan,Jodhpur,"Mandor, Jodhpur - RSPCB",13-02-2026 08:00:00,26.358805,73.047444,NH3,3,6,4
India,Rajasthan,Pali,"Indira Colony Vistar, Pali - RSPCB",13-02-2026 08:00:00,25.771061, 73.340227,SO2,4,14,10
India,Rajasthan,Pratapgarh,"Pragati Nagar, Pratapgarh - RSPCB",13-02-2026 08:00:00,24.041198,74.780702,SO2,3,9,6
India,Rajasthan,Pratapgarh,"Pragati Nagar, Pratapgarh - RSPCB",13-02-2026 08:00:00,24.041198,74.780702,OZONE,51,116,68
India,Rajasthan,Rajsamand,"Dhoinda, Rajsamand - RSPCB",13-02-2026 08:00:00,25.036360,73.883502,NH3,9,26,16
India,Rajasthan,Sikar,"Radhakishan Pura, Sikar - RSPCB",13-02-2026 08:00:00,27.608912,75.153302,PM10,59,408,164
India,Rajasthan,Sikar,"Radhakishan Pura, Sikar - RSPCB",13-02-2026 08:00:00,27.608912,75.153302,SO2,1,11,5
India,TamilNadu,Chennai,"Manali, Chennai - CPCB",13-02-2026 08:00:00,13.164544,80.26285,PM2.5,NA,NA,NA
India,TamilNadu,Chennai,"Perungudi, Chennai - TNPCB",13-02-2026 08:00:00,12.9533,80.2357,NH3,1,2,1
India,TamilNadu,Chennai,"Royapuram, Chennai - TNPCB",13-02-2026 08:00:00,13.1036,80.2909,NH3,2,6,3
India,TamilNadu,Chennai,"Royapuram, Chennai - TNPCB",13-02-2026 08:00:00,13.1036,80.2909,CO,46,58,53
India,TamilNadu,Chennai,"Velachery Res. Area, Chennai - CPCB",13-02-2026 08:00:00,13.0052189,80.2398125,PM2.5,NA,NA,NA
India,TamilNadu,Chennai,"Velachery Res. Area, Chennai - CPCB",13-02-2026 08:00:00,13.0052189,80.2398125,SO2,5,14,7
India,TamilNadu,Chennai,"Velachery Res. Area, Chennai - CPCB",13-02-2026 08:00:00,13.0052189,80.2398125,OZONE,3,9,4
India,Rajasthan,Karauli,"Satyawati Vihar, Karauli - RSPCB",13-02-2026 08:00:00,26.506177,77.025989,PM2.5,39,282,82
India,Rajasthan,Karauli,"Satyawati Vihar, Karauli - RSPCB",13-02-2026 08:00:00,26.506177,77.025989,NH3,11,21,14
India,Rajasthan,Kota,"Nayapura, Kota - RSPCB",13-02-2026 08:00:00,25.196024,75.855668,PM10,77,159,111
India,Rajasthan,Kota,"Nayapura, Kota - RSPCB",13-02-2026 08:00:00,25.196024,75.855668,NO2,19,122,59
India,Rajasthan,Kota,"Shrinath Puram, Kota - RSPCB",13-02-2026 08:00:00,25.14389,75.821256,PM10,77,177,112
India,Rajasthan,Nagaur,"Karni Colony, Nagaur - RSPCB",13-02-2026 08:00:00,27.213494,73.734444,SO2,5,15,8
India,Telangana,Hyderabad,"IITH Kandi, Hyderabad - TSPCB",13-02-2026 08:00:00,17.585705,78.126199,NH3,3,4,3
India,Telangana,Hyderabad,"IITH Kandi, Hyderabad - TSPCB",13-02-2026 08:00:00,17.585705,78.126199,CO,20,62,46
India,Telangana,Hyderabad,"Kokapet, Hyderabad - TSPCB",13-02-2026 08:00:00,17.393559,78.339194,PM2.5,55,71,62
India,Telangana,Hyderabad,"Kokapet, Hyderabad - TSPCB",13-02-2026 08:00:00,17.393559,78.339194,OZONE,17,30,18
India,Telangana,Hyderabad,"Kompally Municipal Office, Hyderabad - TSPCB",13-02-2026 08:00:00,17.544899,78.486949,PM10,69,91,85
India,Telangana,Hyderabad,"Kompally Municipal Office, Hyderabad - TSPCB",13-02-2026 08:00:00,17.544899,78.486949,NH3,3,5,3
India,Telangana,Hyderabad,"Nacharam_TSIIC IALA, Hyderabad - TSPCB",13-02-2026 08:00:00,17.429398,78.569354,PM2.5,48,60,52
India,Telangana,Hyderabad,"Nacharam_TSIIC IALA, Hyderabad - TSPCB",13-02-2026 08:00:00,17.429398,78.569354,NH3,4,7,5
India,Telangana,Hyderabad,"Nacharam_TSIIC IALA, Hyderabad - TSPCB",13-02-2026 08:00:00,17.429398,78.569354,OZONE,15,33,15
India,Telangana,Hyderabad,"New Malakpet, Hyderabad - TSPCB",13-02-2026 08:00:00,17.37206,78.50864,PM2.5,41,126,72
India,Telangana,Hyderabad,"New Malakpet, Hyderabad - TSPCB",13-02-2026 08:00:00,17.37206,78.50864,PM10,79,105,92
India,Telangana,Hyderabad,"New Malakpet, Hyderabad - TSPCB",13-02-2026 08:00:00,17.37206,78.50864,CO,30,44,30
India,Telangana,Hyderabad,"Ramachandrapuram, Hyderabad - TSPCB",13-02-2026 08:00:00,17.528544,78.286195,CO,15,34,31
India,Telangana,Hyderabad,"Sanathnagar, Hyderabad - TSPCB",13-02-2026 08:00:00,17.4559458,78.4332152,CO,42,57,54
India,Telangana,Hyderabad,"Somajiguda, Hyderabad - TSPCB",13-02-2026 08:00:00,17.417094,78.457437,NO2,15,19,18
India,Telangana,Hyderabad,"Zoo Park, Hyderabad - TSPCB",13-02-2026 08:00:00,17.349694,78.451437,PM10,88,158,129
India,Telangana,Hyderabad,"Zoo Park, Hyderabad - TSPCB",13-02-2026 08:00:00,17.349694,78.451437,OZONE,17,25,23
India,Tripura,Agartala,"Bardowali, Agartala - Tripura SPCB",13-02-2026 08:00:00,23.8175497,91.2726974,PM2.5,18,62,41
India,Uttar_Pradesh,Agra,"Manoharpur, Agra - UPPCB",13-02-2026 08:00:00,27.23711,78.01936,OZONE,7,7,7
India,Uttar_Pradesh,Ghaziabad,"Indirapuram, Ghaziabad - UPPCB",13-02-2026 08:00:00,28.646233,77.358075,CO,25,105,62
India,Uttar_Pradesh,Ghaziabad,"Indirapuram, Ghaziabad - UPPCB",13-02-2026 08:00:00,28.646233,77.358075,OZONE,9,17,9
India,Uttar_Pradesh,Ghaziabad,"Sanjay Nagar, Ghaziabad - UPPCB",13-02-2026 08:00:00,28.685382,77.453839,NO2,45,120,78
India,Uttar_Pradesh,Ghaziabad,"Vasundhara, Ghaziabad - UPPCB",13-02-2026 08:00:00,28.6603346,77.3572563,PM10,112,209,156
India,Uttar_Pradesh,Ghaziabad,"Vasundhara, Ghaziabad - UPPCB",13-02-2026 08:00:00,28.6603346,77.3572563,NH3,8,13,10
India,Uttar_Pradesh,Ghaziabad,"Vasundhara, Ghaziabad - UPPCB",13-02-2026 08:00:00,28.6603346,77.3572563,SO2,12,30,18
India,Uttar_Pradesh,Gorakhpur,"Madan Mohan Malaviya University of Technology, Gorakhpur - UPPCB",13-02-2026 08:00:00,26.730136,83.433859,CO,4,5,4
India,Uttar_Pradesh,Bareilly,"Civil Lines, Bareilly - UPPCB",13-02-2026 08:00:00,28.359581,79.414455,SO2,39,62,49
India,Uttar_Pradesh,Bareilly,"Civil Lines, Bareilly - UPPCB",13-02-2026 08:00:00,28.359581,79.414455,OZONE,14,50,22
India,Uttar_Pradesh,Bareilly,"Rajendra Nagar, Bareilly - UPPCB",13-02-2026 08:00:00,28.38910936,79.42963708,NO2,9,10,10
India,Uttar_Pradesh,Firozabad,"Nagla Bhau, Firozabad - UPPCB",13-02-2026 08:00:00,27.168897,78.376960,PM10,26,158,75
India,Uttar_Pradesh,Firozabad,"Nagla Bhau, Firozabad - UPPCB",13-02-2026 08:00:00,27.168897,78.376960,CO,NA,NA,NA
India,Uttar_Pradesh,Firozabad,"Vibhab Nagar, Firozabad - UPPCB",13-02-2026 08:00:00,27.1594,78.3953,PM2.5,21,77,39
India,Uttar_Pradesh,Firozabad,"Vibhab Nagar, Firozabad - UPPCB",13-02-2026 08:00:00,27.1594,78.3953,NH3,2,2,2
India,Telangana,Hyderabad,"Central University, Hyderabad - TSPCB",13-02-2026 08:00:00,17.460103,78.334361,NH3,3,6,5
India,Telangana,Hyderabad,"ECIL Kapra, Hyderabad - TSPCB",13-02-2026 08:00:00,17.470431,78.566959,PM2.5,21,73,43
India,Telangana,Hyderabad,"ICRISAT Patancheru, Hyderabad - TSPCB",13-02-2026 08:00:00,17.518400,78.278777,NO2,4,12,8
India,Telangana,Hyderabad,"ICRISAT Patancheru, Hyderabad - TSPCB",13-02-2026 08:00:00,17.518400,78.278777,SO2,4,12,8
India,Telangana,Hyderabad,"IDA Pashamylaram, Hyderabad - TSPCB",13-02-2026 08:00:00,17.5316895,78.218939,PM2.5,60,155,101
India,Telangana,Hyderabad,"IDA Pashamylaram, Hyderabad - TSPCB",13-02-2026 08:00:00,17.5316895,78.218939,PM10,45,96,71
India,Telangana,Hyderabad,"IDA Pashamylaram, Hyderabad - TSPCB",13-02-2026 08:00:00,17.5316895,78.218939,OZONE,16,19,17
India,Uttar_Pradesh,Greater Noida,"Knowledge Park - III, Greater Noida - UPPCB",13-02-2026 08:00:00,28.47272,77.482000,PM2.5,17,174,101
India,Uttar_Pradesh,Greater Noida,"Knowledge Park - V, Greater Noida - UPPCB",13-02-2026 08:00:00,28.557054,77.453663,PM10,134,254,175
India,Uttar_Pradesh,Jhansi,"Shivaji Nagar, Jhansi - UPPCB",13-02-2026 08:00:00,25.4547,78.6039,NO2,6,9,6
India,Uttar_Pradesh,Jhansi,"Shivaji Nagar, Jhansi - UPPCB",13-02-2026 08:00:00,25.4547,78.6039,NH3,4,4,4
India,Uttar_Pradesh,Jhansi,"Shivaji Nagar, Jhansi - UPPCB",13-02-2026 08:00:00,25.4547,78.6039,SO2,17,23,20
India,Uttar_Pradesh,Kanpur,"FTI Kidwai Nagar, Kanpur - UPPCB",13-02-2026 08:00:00,26.428282,80.327067,PM2.5,8,120,56
India,Uttar_Pradesh,Agra,"Sector-3B Avas Vikas Colony, Agra - UPPCB",13-02-2026 08:00:00,27.19412,77.96237,PM2.5,45,101,67
India,Uttar_Pradesh,Agra,"Shastripuram, Agra - UPPCB",13-02-2026 08:00:00,27.19862,77.92066,PM2.5,14,181,48
India,Uttar_Pradesh,Agra,"Shastripuram, Agra - UPPCB",13-02-2026 08:00:00,27.19862,77.92066,OZONE,12,13,12
India,Uttar_Pradesh,Baghpat,"Sardar Patel Inter College, Baghpat - UPPCB",13-02-2026 08:00:00,28.964949,77.278761,SO2,16,53,26
India,Uttar_Pradesh,Khurja,"Kalindi Kunj, Khurja - UPPCB",13-02-2026 08:00:00,28.2348927,77.8683002,SO2,14,15,14
India,Uttar_Pradesh,Lucknow,"Gomti Nagar, Lucknow - UPPCB",13-02-2026 08:00:00,26.868120,81.005119,PM2.5,58,218,123
India,Uttar_Pradesh,Lucknow,"Kendriya Vidyalaya, Lucknow - CPCB",13-02-2026 08:00:00,26.906111,80.948222,NO2,26,31,28
India,Uttar_Pradesh,Kanpur,"Nehru Nagar, Kanpur - UPPCB",13-02-2026 08:00:00,26.4703136,80.3229863,PM2.5,21,166,74
India,Uttar_Pradesh,Kanpur,"Nehru Nagar, Kanpur - UPPCB",13-02-2026 08:00:00,26.4703136,80.3229863,SO2,8,20,14
India,Uttar_Pradesh,Kanpur,"Nehru Nagar, Kanpur - UPPCB",13-02-2026 08:00:00,26.4703136,80.3229863,CO,32,86,47
India,Uttar_Pradesh,Moradabad,"Transport Nagar, Moradabad - UPPCB",13-02-2026 08:00:00,28.802625,78.753728,PM10,36,100,65
India,Uttar_Pradesh,Moradabad,"Transport Nagar, Moradabad - UPPCB",13-02-2026 08:00:00,28.802625,78.753728,NO2,29,30,30
India,Uttar_Pradesh,Moradabad,"Transport Nagar, Moradabad - UPPCB",13-02-2026 08:00:00,28.802625,78.753728,CO,63,70,67
India,Uttar_Pradesh,Muzaffarnagar,"New Mandi, Muzaffarnagar - UPPCB",13-02-2026 08:00:00,29.4723508,77.7194031,NO2,NA,NA,NA
India,Uttar_Pradesh,Muzaffarnagar,"New Mandi, Muzaffarnagar - UPPCB",13-02-2026 08:00:00,29.4723508,77.7194031,CO,18,74,38
India,Uttar_Pradesh,Muzaffarnagar,"New Mandi, Muzaffarnagar - UPPCB",13-02-2026 08:00:00,29.4723508,77.7194031,OZONE,20,75,29
India,Uttar_Pradesh,Noida,"Sector - 125, Noida - UPPCB",13-02-2026 08:00:00,28.5447608,77.3231257,NH3,3,4,3
India,Uttar_Pradesh,Noida,"Sector - 125, Noida - UPPCB",13-02-2026 08:00:00,28.5447608,77.3231257,SO2,7,15,10
India,Uttar_Pradesh,Noida,"Sector - 62, Noida - IMD",13-02-2026 08:00:00,28.6245479,77.3577104,PM2.5,40,225,125
India,Uttar_Pradesh,Noida,"Sector - 62, Noida - IMD",13-02-2026 08:00:00,28.6245479,77.3577104,CO,4,53,32
India,Uttar_Pradesh,Noida,"Sector-1, Noida - UPPCB",13-02-2026 08:00:00,28.5898,77.3101,PM10,80,204,144
India,Uttar_Pradesh,Noida,"Sector-1, Noida - UPPCB",13-02-2026 08:00:00,28.5898,77.3101,OZONE,1,44,3
India,West_Bengal,Asansol,"Evelyn Lodge, Asansol - WBPCB",13-02-2026 08:00:00,23.6979360,86.9443950,PM10,50,152,107
India,West_Bengal,Asansol,"Mahabir Colliery, Asansol - WBPCB",13-02-2026 08:00:00,23.6181830,87.1057180,NO2,7,26,16
India,West_Bengal,Asansol,"Mahabir Colliery, Asansol - WBPCB",13-02-2026 08:00:00,23.6181830,87.1057180,NH3,1,2,1
India,West_Bengal,Asansol,"Trivenidevi Bhalotia College, Asansol - WBPCB",13-02-2026 08:00:00,23.616515,87.119133,PM2.5,44,192,107
India,West_Bengal,Asansol,"Trivenidevi Bhalotia College, Asansol - WBPCB",13-02-2026 08:00:00,23.616515,87.119133,SO2,5,13,9
India,West_Bengal,Asansol,"Trivenidevi Bhalotia College, Asansol - WBPCB",13-02-2026 08:00:00,23.616515,87.119133,OZONE,5,70,6
India,West_Bengal,Barrackpore,"SVSPA Campus, Barrackpore - WBPCB",13-02-2026 08:00:00,22.7605581,88.3617589,NO2,11,52,27
India,West_Bengal,Barrackpore,"SVSPA Campus, Barrackpore - WBPCB",13-02-2026 08:00:00,22.7605581,88.3617589,SO2,10,16,12
India,West_Bengal,Durgapur,"PCBL Residential Complex, Durgapur - WBPCB",13-02-2026 08:00:00,23.5087640,87.3544400,PM2.5,48,313,147
India,West_Bengal,Howrah,"Padmapukur, Howrah - WBPCB",13-02-2026 08:00:00,22.5687319,88.2797276,OZONE,8,67,10
India,West_Bengal,Kolkata,"Ballygunge, Kolkata - WBPCB",13-02-2026 08:00:00,22.5367507,88.3638022,NH3,7,11,8
India,West_Bengal,Kolkata,"Ballygunge, Kolkata - WBPCB",13-02-2026 08:00:00,22.5367507,88.3638022,SO2,9,29,17
India,West_Bengal,Kolkata,"Ballygunge, Kolkata - WBPCB",13-02-2026 08:00:00,22.5367507,88.3638022,CO,2,106,69
India,West_Bengal,Kolkata,"Ballygunge, Kolkata - WBPCB",13-02-2026 08:00:00,22.5367507,88.3638022,OZONE,4,34,7
India,West_Bengal,Kolkata,"Bidhannagar, Kolkata - WBPCB",13-02-2026 08:00:00,22.58157048,88.41002457,PM10,62,161,106
India,West_Bengal,Kolkata,"Bidhannagar, Kolkata - WBPCB",13-02-2026 08:00:00,22.58157048,88.41002457,NH3,5,6,5
India,West_Bengal,Kolkata,"Fort William, Kolkata - WBPCB",13-02-2026 08:00:00,22.556640,88.342674,PM2.5,64,210,118
India,West_Bengal,Kolkata,"Fort William, Kolkata - WBPCB",13-02-2026 08:00:00,22.556640,88.342674,NH3,10,15,11
India,West_Bengal,Kolkata,"Jadavpur, Kolkata - WBPCB",13-02-2026 08:00:00,22.49929,88.36917,NO2,22,60,42
India,West_Bengal,Durgapur,"Womens College_City Center, Durgapur - WBPCB",13-02-2026 08:00:00,23.549395,87.300496,PM10,72,190,126
India,West_Bengal,Haldia,"Priyambada Housing Estate, Haldia - WBPCB",13-02-2026 08:00:00,22.06047,88.109737,NO2,12,46,26
India,West_Bengal,Haldia,"Priyambada Housing Estate, Haldia - WBPCB",13-02-2026 08:00:00,22.06047,88.109737,NH3,6,7,6
India,West_Bengal,Howrah,"Belur Math, Howrah - WBPCB",13-02-2026 08:00:00,22.629801,88.352017,PM10,98,427,164
India,West_Bengal,Howrah,"Belur Math, Howrah - WBPCB",13-02-2026 08:00:00,22.629801,88.352017,CO,18,102,52
India,West_Bengal,Howrah,"Botanical Garden, Howrah - WBPCB",13-02-2026 08:00:00,22.554954,88.292568,CO,16,93,66
India,West_Bengal,Howrah,"Dasnagar, Howrah - WBPCB",13-02-2026 08:00:00,22.6025571,88.3105664,PM2.5,33,168,83
India,West_Bengal,Howrah,"Dasnagar, Howrah - WBPCB",13-02-2026 08:00:00,22.6025571,88.3105664,PM10,64,158,109
India,West_Bengal,Howrah,"Dasnagar, Howrah - WBPCB",13-02-2026 08:00:00,22.6025571,88.3105664,NH3,6,8,7
India,Uttar_Pradesh,Meerut,"Pallavpuram Phase 2, Meerut - UPPCB",13-02-2026 08:00:00,29.063510,77.709723,NO2,13,29,20
India,Uttar_Pradesh,Meerut,"Pallavpuram Phase 2, Meerut - UPPCB",13-02-2026 08:00:00,29.063510,77.709723,NH3,5,6,6
India,Uttar_Pradesh,Meerut,"Pallavpuram Phase 2, Meerut - UPPCB",13-02-2026 08:00:00,29.063510,77.709723,OZONE,10,102,16
India,Uttar_Pradesh,Moradabad,"Buddhi Vihar, Moradabad - UPPCB",13-02-2026 08:00:00,28.83526,78.74460,PM10,35,108,66
India,Uttar_Pradesh,Moradabad,"Buddhi Vihar, Moradabad - UPPCB",13-02-2026 08:00:00,28.83526,78.74460,NO2,28,29,29
India,Uttar_Pradesh,Moradabad,"Eco Herbal Park, Moradabad - UPPCB",13-02-2026 08:00:00,28.840739,78.697531,PM2.5,27,116,75
India,Uttar_Pradesh,Moradabad,"Eco Herbal Park, Moradabad - UPPCB",13-02-2026 08:00:00,28.840739,78.697531,CO,26,66,50
India,Uttar_Pradesh,Moradabad,"Employment Office, Moradabad - UPPCB",13-02-2026 08:00:00,28.88528,78.73880,NO2,15,16,16
India,Uttar_Pradesh,Moradabad,"Jigar Colony, Moradabad - UPPCB",13-02-2026 08:00:00,28.856664,78.772638,NH3,6,6,6
India,Uttar_Pradesh,Varanasi,"IESD Banaras Hindu University, Varanasi - UPPCB",13-02-2026 08:00:00,25.262326,82.995408,CO,8,36,15
India,Uttar_Pradesh,Varanasi,"Maldahiya, Varanasi - UPPCB",13-02-2026 08:00:00,25.32393,82.99687,SO2,26,28,27
India,Uttarakhand,Dehradun,"Doon University, Dehradun - UKPCB",13-02-2026 08:00:00,30.269444,78.044167,NO2,1,5,2
India,Uttarakhand,Kashipur,"Govt. Girls Inter College, Kashipur - UKPCB",13-02-2026 08:00:00,29.2124114,78.9611753,PM2.5,68,140,97
India,Uttarakhand,Kashipur,"Govt. Girls Inter College, Kashipur - UKPCB",13-02-2026 08:00:00,29.2124114,78.9611753,NH3,6,11,10
India,Uttarakhand,Kashipur,"Govt. Girls Inter College, Kashipur - UKPCB",13-02-2026 08:00:00,29.2124114,78.9611753,CO,27,36,31
India,West_Bengal,Asansol,"Asansol Court Area, Asansol - WBPCB",13-02-2026 08:00:00,23.685297,86.945968,PM10,61,141,106
India,West_Bengal,Kolkata,"Rabindra Bharati University, Kolkata - WBPCB",13-02-2026 08:00:00,22.627847,88.380669,OZONE,8,46,13
India,West_Bengal,Kolkata,"Rabindra Sarobar, Kolkata - WBPCB",13-02-2026 08:00:00,22.51106,88.35142,PM2.5,71,254,149
India,West_Bengal,Kolkata,"Rabindra Sarobar, Kolkata - WBPCB",13-02-2026 08:00:00,22.51106,88.35142,PM10,79,143,103
India,West_Bengal,Kolkata,"Rabindra Sarobar, Kolkata - WBPCB",13-02-2026 08:00:00,22.51106,88.35142,NH3,8,43,18
India,West_Bengal,Kolkata,"Victoria, Kolkata - WBPCB",13-02-2026 08:00:00,22.5448082,88.3403691,PM2.5,79,272,153
India,West_Bengal,Kolkata,"Victoria, Kolkata - WBPCB",13-02-2026 08:00:00,22.5448082,88.3403691,NO2,55,88,69
India,West_Bengal,Kolkata,"Victoria, Kolkata - WBPCB",13-02-2026 08:00:00,22.5448082,88.3403691,OZONE,6,63,7
India,West_Bengal,Siliguri,"Ward-32 Bapupara, Siliguri - WBPCB",13-02-2026 08:00:00,26.6879226,88.4152495,NH3,10,10,10
India,West_Bengal,Siliguri,"Ward-32 Bapupara, Siliguri - WBPCB",13-02-2026 08:00:00,26.6879226,88.4152495,CO,37,87,61
India,Uttar_Pradesh,Prayagraj,"Jhunsi, Prayagraj - UPPCB",13-02-2026 08:00:00,25.425602,81.917152,NO2,6,6,6
India,Uttar_Pradesh,Prayagraj,"Nagar Nigam, Prayagraj - UPPCB",13-02-2026 08:00:00,25.44919916 ,81.82735986 ,NO2,5,5,5
India,Uttar_Pradesh,Prayagraj,"Nagar Nigam, Prayagraj - UPPCB",13-02-2026 08:00:00,25.44919916 ,81.82735986 ,SO2,18,46,35
India,Uttar_Pradesh,Prayagraj,"Nagar Nigam, Prayagraj - UPPCB",13-02-2026 08:00:00,25.44919916 ,81.82735986 ,CO,22,62,44
India,Uttar_Pradesh,Prayagraj,"Nagar Nigam, Prayagraj - UPPCB",13-02-2026 08:00:00,25.44919916 ,81.82735986 ,OZONE,11,12,11
India,Uttar_Pradesh,Varanasi,"Bhelupur, Varanasi - UPPCB",13-02-2026 08:00:00,25.301778,82.996789,NO2,8,8,8
India,Uttar_Pradesh,Varanasi,"IESD Banaras Hindu University, Varanasi - UPPCB",13-02-2026 08:00:00,25.262326,82.995408,PM10,32,114,72
India,Uttar_Pradesh,Varanasi,"IESD Banaras Hindu University, Varanasi - UPPCB",13-02-2026 08:00:00,25.262326,82.995408,NO2,2,2,2
India,Uttar_Pradesh,Lucknow,"Lalbagh, Lucknow - CPCB",13-02-2026 08:00:00,26.8458805,80.9365541,PM10,104,183,152
India,Uttar_Pradesh,Lucknow,"Talkatora District Industries Center, Lucknow - CPCB",13-02-2026 08:00:00,26.83399722,80.8917361,NO2,41,53,45
India,Uttar_Pradesh,Lucknow,"Talkatora District Industries Center, Lucknow - CPCB",13-02-2026 08:00:00,26.83399722,80.8917361,CO,30,66,40
India,Uttar_Pradesh,Meerut,"Ganga Nagar, Meerut - UPPCB",13-02-2026 08:00:00,28.999264,77.7590354,NH3,8,10,9
India,Uttar_Pradesh,Meerut,"Jai Bhim Nagar, Meerut - UPPCB",13-02-2026 08:00:00,28.9535882,77.7622941,SO2,7,12,10
India,Andhra_Pradesh,Rajamahendravaram,"Anand Kala Kshetram, Rajamahendravaram - APPCB",13-02-2026 08:00:00,16.9872867,81.7363176,PM10,82,133,110
India,Andhra_Pradesh,Rajamahendravaram,"Anand Kala Kshetram, Rajamahendravaram - APPCB",13-02-2026 08:00:00,16.9872867,81.7363176,NH3,4,6,5
India,Andhra_Pradesh,Tirumala,"Toll Gate, Tirumala - APPCB",13-02-2026 08:00:00,13.67,79.35,PM2.5,5,89,56
India,Andhra_Pradesh,Tirumala,"Toll Gate, Tirumala - APPCB",13-02-2026 08:00:00,13.67,79.35,PM10,7,100,62
India,Andhra_Pradesh,Tirumala,"Toll Gate, Tirumala - APPCB",13-02-2026 08:00:00,13.67,79.35,CO,10,28,17
India,Andhra_Pradesh,Tirupati,"Vaikuntapuram, Tirupati - APPCB",13-02-2026 08:00:00,13.615387,79.409230,NO2,NA,NA,NA
India,Andhra_Pradesh,Tirupati,"Vaikuntapuram, Tirupati - APPCB",13-02-2026 08:00:00,13.615387,79.409230,SO2,NA,NA,NA
India,Andhra_Pradesh,Vijayawada,"HB Colony, Vijayawada - APPCB",13-02-2026 08:00:00,16.536107,80.594233,PM2.5,54,109,70
India,Andhra_Pradesh,Vijayawada,"Kanuru, Vijayawada - APPCB",13-02-2026 08:00:00,16.486692,80.699436,PM10,50,75,62
India,Andhra_Pradesh,Vijayawada,"Kanuru, Vijayawada - APPCB",13-02-2026 08:00:00,16.486692,80.699436,NO2,16,19,18
India,Bihar,Munger,"Town Hall, Munger - BSPCB",13-02-2026 08:00:00,25.376776,86.471523,NO2,4,5,5
India,Bihar,Munger,"Town Hall, Munger - BSPCB",13-02-2026 08:00:00,25.376776,86.471523,NH3,2,2,2
India,Bihar,Munger,"Town Hall, Munger - BSPCB",13-02-2026 08:00:00,25.376776,86.471523,CO,24,84,28
India,Bihar,Muzaffarpur,"MIT-Daudpur Kothi, Muzaffarpur - BSPCB",13-02-2026 08:00:00,26.1403345,85.3650192,PM10,61,70,66
India,Bihar,Muzaffarpur,"Muzaffarpur Collectorate, Muzaffarpur - BSPCB",13-02-2026 08:00:00,26.1209,85.3647,CO,20,64,43
India,Bihar,Patna,"DRM Office Danapur, Patna - BSPCB",13-02-2026 08:00:00,25.586562,85.043586,PM2.5,88,181,115
India,Bihar,Patna,"DRM Office Danapur, Patna - BSPCB",13-02-2026 08:00:00,25.586562,85.043586,CO,14,84,33
India,Bihar,Patna,"Govt. High School Shikarpur, Patna - BSPCB",13-02-2026 08:00:00,25.592539,85.227158,PM10,106,181,139
India,Bihar,Patna,"Govt. High School Shikarpur, Patna - BSPCB",13-02-2026 08:00:00,25.592539,85.227158,CO,52,108,71
India,Bihar,Hajipur,"Industrial Area, Hajipur - BSPCB",13-02-2026 08:00:00,25.697189,85.245900,NO2,48,115,81
India,Bihar,Hajipur,"Industrial Area, Hajipur - BSPCB",13-02-2026 08:00:00,25.697189,85.245900,SO2,4,6,4
India,Bihar,Hajipur,"Industrial Area, Hajipur - BSPCB",13-02-2026 08:00:00,25.697189,85.245900,CO,20,59,41
India,Bihar,Katihar,"Mirchaibari, Katihar - BSPCB",13-02-2026 08:00:00,25.560083,87.553265,PM10,76,135,100
India,Bihar,Katihar,"Mirchaibari, Katihar - BSPCB",13-02-2026 08:00:00,25.560083,87.553265,NH3,1,1,1
India,Bihar,Katihar,"Mirchaibari, Katihar - BSPCB",13-02-2026 08:00:00,25.560083,87.553265,OZONE,6,33,6
India,Bihar,Kishanganj,"SDM Office_Khagra, Kishanganj - BSPCB",13-02-2026 08:00:00,26.0881305,87.93840336,PM10,86,165,124
India,Bihar,Kishanganj,"SDM Office_Khagra, Kishanganj - BSPCB",13-02-2026 08:00:00,26.0881305,87.93840336,SO2,3,8,6
India,Bihar,Kishanganj,"SDM Office_Khagra, Kishanganj - BSPCB",13-02-2026 08:00:00,26.0881305,87.93840336,OZONE,32,34,32
India,Bihar,Motihari,"Gandak Colony, Motihari - BSPCB",13-02-2026 08:00:00,26.63086,84.90051,NH3,3,3,3
India,Assam,Guwahati,"Railway Colony, Guwahati - PCBA",13-02-2026 08:00:00,26.181742,91.78063,PM2.5,2,382,288
India,Assam,Guwahati,"Railway Colony, Guwahati - PCBA",13-02-2026 08:00:00,26.181742,91.78063,NO2,3,4,3
India,Assam,Nalbari,"Bata Chowk, Nalbari - PCBA",13-02-2026 08:00:00,26.446912,91.439057,PM10,94,121,108
India,Assam,Nalbari,"Bata Chowk, Nalbari - PCBA",13-02-2026 08:00:00,26.446912,91.439057,NO2,13,15,14
India,Assam,Nalbari,"Bata Chowk, Nalbari - PCBA",13-02-2026 08:00:00,26.446912,91.439057,CO,20,23,21
India,Assam,Nalbari,"Bata Chowk, Nalbari - PCBA",13-02-2026 08:00:00,26.446912,91.439057,OZONE,14,16,15
India,Assam,Silchar,"Tarapur, Silchar - PCBA",13-02-2026 08:00:00,24.82827,92.79525,NH3,1,2,1
India,Assam,Silchar,"Tarapur, Silchar - PCBA",13-02-2026 08:00:00,24.82827,92.79525,OZONE,2,6,2
India,Assam,Sivasagar,"Girls College, Sivasagar - PCBA",13-02-2026 08:00:00,26.987634,94.636574,PM10,36,98,59
India,Bihar,Aurangabad,"Gurdeo Nagar, Aurangabad - BSPCB",13-02-2026 08:00:00,24.75746,84.366208,PM2.5,18,78,36
India,Bihar,Aurangabad,"Gurdeo Nagar, Aurangabad - BSPCB",13-02-2026 08:00:00,24.75746,84.366208,PM10,59,158,89
India,Bihar,Begusarai,"Lohiyanagar, Begusarai - BSPCB",13-02-2026 08:00:00,25.42742023,86.13886079,PM2.5,47,200,107
India,Bihar,Begusarai,"Lohiyanagar, Begusarai - BSPCB",13-02-2026 08:00:00,25.42742023,86.13886079,NH3,10,11,11
India,Bihar,Bettiah,"Kamalnath Nagar, Bettiah - BSPCB",13-02-2026 08:00:00,26.80365,84.51954,SO2,NA,NA,NA
India,Bihar,Bettiah,"Kamalnath Nagar, Bettiah - BSPCB",13-02-2026 08:00:00,26.80365,84.51954,OZONE,22,24,22
India,Bihar,Bhagalpur,"DM Office_Kachari Chowk, Bhagalpur - BSPCB",13-02-2026 08:00:00,25.251013,86.989001,PM2.5,27,70,52
India,Bihar,Bhagalpur,"DM Office_Kachari Chowk, Bhagalpur - BSPCB",13-02-2026 08:00:00,25.251013,86.989001,SO2,33,75,51
India,Andhra_Pradesh,Vijayawada,"Rajiv Nagar, Vijayawada - APPCB",13-02-2026 08:00:00,16.554731,80.649110,PM2.5,48,86,62
India,Andhra_Pradesh,Visakhapatnam,"GVM Corporation, Visakhapatnam - APPCB",13-02-2026 08:00:00,17.72,83.3,NO2,16,194,99
India,Andhra_Pradesh,Visakhapatnam,"GVM Corporation, Visakhapatnam - APPCB",13-02-2026 08:00:00,17.72,83.3,OZONE,4,76,4
India,Arunachal_Pradesh,Naharlagun,"Naharlagun, Naharlagun - APSPCB",13-02-2026 08:00:00,27.103358,93.679645,PM10,83,452,177
India,Arunachal_Pradesh,Naharlagun,"Naharlagun, Naharlagun - APSPCB",13-02-2026 08:00:00,27.103358,93.679645,NO2,7,7,7
India,Arunachal_Pradesh,Naharlagun,"Naharlagun, Naharlagun - APSPCB",13-02-2026 08:00:00,27.103358,93.679645,SO2,9,10,10
India,Bihar,Patna,"IGSC Planetarium Complex, Patna - BSPCB",13-02-2026 08:00:00,25.610369,85.132568,OZONE,29,31,29
India,Bihar,Patna,"Muradpur, Patna - BSPCB",13-02-2026 08:00:00,25.619651,85.147382,OZONE,4,16,5
India,Bihar,Patna,"Rajbansi Nagar, Patna - BSPCB",13-02-2026 08:00:00,25.599486,85.113666,NO2,13,57,27
India,Bihar,Patna,"Rajbansi Nagar, Patna - BSPCB",13-02-2026 08:00:00,25.599486,85.113666,OZONE,22,91,36
India,Bihar,Patna,"Samanpura, Patna - BSPCB",13-02-2026 08:00:00,25.596727,85.085624,PM10,111,183,141
India,Bihar,Purnia,"Mariam Nagar, Purnia - BSPCB",13-02-2026 08:00:00,25.366336,87.117468,NH3,3,3,3
India,Bihar,Rajgir,"Dangi Tola, Rajgir - BSPCB",13-02-2026 08:00:00,25.03280,85.41948,NH3,6,7,6
India,Bihar,Samastipur,"DM Office_Kasipur, Samastipur - BSPCB",13-02-2026 08:00:00,25.859655,85.77944,OZONE,7,9,8
India,Bihar,Sasaram,"Dada Peer, Sasaram - BSPCB",13-02-2026 08:00:00,24.952822,84.002396,NH3,3,8,4
India,Bihar,Sasaram,"Dada Peer, Sasaram - BSPCB",13-02-2026 08:00:00,24.952822,84.002396,CO,44,104,51
India,Chandigarh,Chandigarh,"Sector 22, Chandigarh - CPCC",13-02-2026 08:00:00,30.735567,76.775714,PM2.5,33,147,76
India,Bihar,Bihar Sharif,"D M Colony, Bihar Sharif - BSPCB",13-02-2026 08:00:00,25.204762,85.514960,SO2,10,10,10
India,Bihar,Chhapra,"Darshan Nagar, Chhapra - BSPCB",13-02-2026 08:00:00,25.7808257,84.7446768,NH3,6,11,8
India,Bihar,Gaya,"Collectorate, Gaya - BSPCB",13-02-2026 08:00:00,24.7955,84.9994,CO,44,101,47
India,Andhra_Pradesh,Anantapur,"Gulzarpet, Anantapur - APPCB",13-02-2026 08:00:00,14.675886,77.593027,PM10,63,87,70
India,Andhra_Pradesh,Kadapa,"Yerramukkapalli, Kadapa - APPCB",13-02-2026 08:00:00,14.465052,78.824187,NH3,3,4,3
India,Chhattisgarh,Tumidih,"OP Jindal Industrial Park, Tumidih - CECB",13-02-2026 08:00:00,22.06631475,83.33820077,OZONE,7,95,20
India,Delhi,Delhi,"Alipur, Delhi - DPCC",13-02-2026 08:00:00,28.815329,77.153010,PM2.5,45,346,212
India,Delhi,Delhi,"Anand Vihar, Delhi - DPCC",13-02-2026 08:00:00,28.647622,77.3158090,PM2.5,3,334,229
India,Delhi,Delhi,"Anand Vihar, Delhi - DPCC",13-02-2026 08:00:00,28.647622,77.3158090,OZONE,1,21,17
India,Delhi,Delhi,"Ashok Vihar, Delhi - DPCC",13-02-2026 08:00:00,28.695381,77.181665,PM2.5,45,331,201
India,Delhi,Delhi,"Ashok Vihar, Delhi - DPCC",13-02-2026 08:00:00,28.695381,77.181665,NO2,25,132,68
India,Delhi,Delhi,"Ashok Vihar, Delhi - DPCC",13-02-2026 08:00:00,28.695381,77.181665,NH3,8,9,8
India,Delhi,Delhi,"Aya Nagar, Delhi - IMD",13-02-2026 08:00:00,28.4706914,77.1099364,CO,NA,NA,NA
India,Delhi,Delhi,"Chandni Chowk, Delhi - IITM",13-02-2026 08:00:00,28.656756,77.227234,NH3,2,7,5
India,Delhi,Delhi,"Chandni Chowk, Delhi - IITM",13-02-2026 08:00:00,28.656756,77.227234,SO2,16,48,27
India,Delhi,Delhi,"Chandni Chowk, Delhi - IITM",13-02-2026 08:00:00,28.656756,77.227234,CO,40,121,89
India,Delhi,Delhi,"DTU, Delhi - CPCB",13-02-2026 08:00:00,28.7500499,77.1112615,SO2,29,34,31
India,Delhi,Delhi,"Dr. Karni Singh Shooting Range, Delhi - DPCC",13-02-2026 08:00:00,28.498571,77.264840,OZONE,2,124,12
India,Delhi,Delhi,"Dwarka-Sector 8, Delhi - DPCC ",13-02-2026 08:00:00,28.5710274,77.0719006,PM2.5,47,315,190
India,Delhi,Delhi,"Dwarka-Sector 8, Delhi - DPCC ",13-02-2026 08:00:00,28.5710274,77.0719006,PM10,103,354,179
India,Delhi,Delhi,"Dwarka-Sector 8, Delhi - DPCC ",13-02-2026 08:00:00,28.5710274,77.0719006,NO2,46,125,79
India,Delhi,Delhi,"Dwarka-Sector 8, Delhi - DPCC ",13-02-2026 08:00:00,28.5710274,77.0719006,CO,40,124,80
India,Delhi,Delhi,"Narela, Delhi - DPCC",13-02-2026 08:00:00,28.822836,77.101981,SO2,10,33,17
India,Delhi,Delhi,"Nehru Nagar, Delhi - DPCC",13-02-2026 08:00:00,28.567890,77.250515,NO2,58,111,77
India,Delhi,Delhi,"Nehru Nagar, Delhi - DPCC",13-02-2026 08:00:00,28.567890,77.250515,NH3,6,11,8
India,Delhi,Delhi,"North Campus, DU, Delhi - IMD",13-02-2026 08:00:00,28.6573814,77.1585447,OZONE,13,200,17
India,Delhi,Delhi,"Okhla Phase-2, Delhi - DPCC",13-02-2026 08:00:00,28.530785,77.271255,PM2.5,65,302,175
India,Delhi,Delhi,"Patparganj, Delhi - DPCC",13-02-2026 08:00:00,28.623763,77.287209,PM2.5,38,304,182
India,Delhi,Delhi,"Patparganj, Delhi - DPCC",13-02-2026 08:00:00,28.623763,77.287209,NO2,23,141,81
India,Delhi,Delhi,"Punjabi Bagh, Delhi - DPCC",13-02-2026 08:00:00,28.674045,77.131023,PM10,84,259,163
India,Delhi,Delhi,"Pusa, Delhi - IMD",13-02-2026 08:00:00,28.636110,77.173332,NO2,40,197,106
India,Delhi,Delhi,"Pusa, Delhi - IMD",13-02-2026 08:00:00,28.636110,77.173332,OZONE,43,141,46
India,Delhi,Delhi,"R K Puram, Delhi - DPCC",13-02-2026 08:00:00,28.563262,77.186937,CO,27,112,89
India,Delhi,Delhi,"Rohini, Delhi - DPCC",13-02-2026 08:00:00,28.732528,77.119920,PM10,96,305,180
India,Delhi,Delhi,"Rohini, Delhi - DPCC",13-02-2026 08:00:00,28.732528,77.119920,NH3,7,13,10
India,Delhi,Delhi,"Rohini, Delhi - DPCC",13-02-2026 08:00:00,28.732528,77.119920,CO,7,105,42
India,Delhi,Delhi,"Shadipur, Delhi - CPCB",13-02-2026 08:00:00,28.6514781,77.1473105,PM10,102,279,156
India,Delhi,Delhi,"Shadipur, Delhi - CPCB",13-02-2026 08:00:00,28.6514781,77.1473105,NH3,11,15,12
India,Delhi,Delhi,"Sirifort, Delhi - CPCB",13-02-2026 08:00:00,28.5504249,77.2159377,SO2,28,58,36
India,Chhattisgarh,Milupara,"Govt. Higher Secondary School, Milupara - CECB",13-02-2026 08:00:00,22.1910172,83.5197009,SO2,12,16,14
India,Chhattisgarh,Raipur,"AIIMS, Raipur - CECB",13-02-2026 08:00:00,21.258815,81.578979,OZONE,1,2,1
India,Chhattisgarh,Raipur,"Siltara Phase-II, Raipur - CECB",13-02-2026 08:00:00,21.371751,81.664929,PM10,70,165,113
India,Chhattisgarh,Raipur,"Siltara Phase-II, Raipur - CECB",13-02-2026 08:00:00,21.371751,81.664929,SO2,3,5,3
India,Chhattisgarh,Raipur,"Siltara Phase-II, Raipur - CECB",13-02-2026 08:00:00,21.371751,81.664929,OZONE,1,20,1
India,Chhattisgarh,Tumidih,"OP Jindal Industrial Park, Tumidih - CECB",13-02-2026 08:00:00,22.06631475,83.33820077,NO2,29,94,59
India,Delhi,Delhi,"Lodhi Road, Delhi - IMD",13-02-2026 08:00:00,28.5918245,77.2273074,CO,57,100,91
India,Delhi,Delhi,"Major Dhyan Chand National Stadium, Delhi - DPCC",13-02-2026 08:00:00,28.611281,77.237738,PM10,69,227,145
India,Delhi,Delhi,"Mundka, Delhi - DPCC",13-02-2026 08:00:00,28.684678,77.076574,NO2,54,107,75
India,Delhi,Delhi,"Mundka, Delhi - DPCC",13-02-2026 08:00:00,28.684678,77.076574,OZONE,3,73,3
India,Delhi,Delhi,"NSIT Dwarka, Delhi - CPCB",13-02-2026 08:00:00,28.60909,77.0325413,NH3,6,8,7
India,Delhi,Delhi,"Najafgarh, Delhi - DPCC",13-02-2026 08:00:00,28.570173,76.933762,SO2,16,85,23
India,Chhattisgarh,Bhilai,"32Bungalows, Bhilai - CECB",13-02-2026 08:00:00,21.194815,81.314770,PM10,58,101,73
India,Chhattisgarh,Bhilai,"32Bungalows, Bhilai - CECB",13-02-2026 08:00:00,21.194815,81.314770,NH3,1,3,2
India,Chhattisgarh,Bhilai,"Civic Center, Bhilai - Bhilai Steel Plant",13-02-2026 08:00:00,21.185571,81.343175,OZONE,10,12,10
India,Chhattisgarh,Bilaspur,"Mangala, Bilaspur - NTPC",13-02-2026 08:00:00,22.08815,82.13737,SO2,7,66,26
India,Chhattisgarh,Kunjemura,"OP Jindal School, Kunjemura - CECB",13-02-2026 08:00:00,22.126650,83.483212,NH3,2,2,2
India,Delhi,Delhi,"IIT Delhi, Delhi - IITM",13-02-2026 08:00:00,28.542460,77.191651,PM10,109,187,144
India,Delhi,Delhi,"Jawaharlal Nehru Stadium, Delhi - DPCC",13-02-2026 08:00:00,28.580280,77.233829,NO2,18,118,68
India,Gujarat,Ankleshwar,"GIDC, Ankleshwar - GPCB",13-02-2026 08:00:00,21.613267,73.010555,NO2,22,26,23
India,Gujarat,Ankleshwar,"GIDC, Ankleshwar - GPCB",13-02-2026 08:00:00,21.613267,73.010555,SO2,27,31,28
India,Gujarat,Ankleshwar,"GIDC, Ankleshwar - GPCB",13-02-2026 08:00:00,21.613267,73.010555,CO,27,100,74
India,Gujarat,Bhavnagar,"Vidhyanagar, Bhavnagar - Nexteng Enviro",13-02-2026 08:00:00,21.755417,72.139056,NH3,4,10,7
India,Gujarat,Bhavnagar,"Vidhyanagar, Bhavnagar - Nexteng Enviro",13-02-2026 08:00:00,21.755417,72.139056,CO,121,146,126
India,Gujarat,Bhavnagar,"Vidhyanagar, Bhavnagar - Nexteng Enviro",13-02-2026 08:00:00,21.755417,72.139056,OZONE,10,37,17
India,Gujarat,Gandhinagar,"IIPHG Lekawada, Gandhinagar - IITM",13-02-2026 08:00:00,23.243639,72.68994,NO2,NA,NA,NA
India,Gujarat,Gandhinagar,"IIPHG Lekawada, Gandhinagar - IITM",13-02-2026 08:00:00,23.243639,72.68994,NH3,NA,NA,NA
India,Gujarat,Gandhinagar,"IIPHG Lekawada, Gandhinagar - IITM",13-02-2026 08:00:00,23.243639,72.68994,SO2,NA,NA,NA
India,Gujarat,Gandhinagar,"IIPHG Lekawada, Gandhinagar - IITM",13-02-2026 08:00:00,23.243639,72.68994,OZONE,NA,NA,NA
India,Gujarat,Gandhinagar,"Sector-10, Gandhinagar - GPCB",13-02-2026 08:00:00,23.221714,72.654328,NO2,21,56,33
India,Gujarat,Gandhinagar,"Sector-10, Gandhinagar - GPCB",13-02-2026 08:00:00,23.221714,72.654328,OZONE,4,99,19
India,Gujarat,Mehsana,"Sadanand Nagar, Mehsana - Nexteng Enviro",13-02-2026 08:00:00,23.593150,72.372792,PM10,92,176,117
India,Gujarat,Mehsana,"Sadanand Nagar, Mehsana - Nexteng Enviro",13-02-2026 08:00:00,23.593150,72.372792,SO2,4,17,11
India,Gujarat,Ahmedabad,"Gyaspur, Ahmedabad - IITM",13-02-2026 08:00:00,22.977134,72.553024,OZONE,1,184,4
India,Gujarat,Ahmedabad,"Maninagar, Ahmedabad - GPCB",13-02-2026 08:00:00,23.002657,72.591912,PM10,58,157,113
India,Gujarat,Ahmedabad,"Raikhad, Ahmedabad - IITM",13-02-2026 08:00:00,23.020509,72.579261,PM2.5,74,180,108
India,Gujarat,Ahmedabad,"Rakhial, Ahmedabad - IITM",13-02-2026 08:00:00,23.016834,72.625775,PM2.5,70,221,116
India,Gujarat,Ahmedabad,"Rakhial, Ahmedabad - IITM",13-02-2026 08:00:00,23.016834,72.625775,SO2,NA,NA,NA
India,Gujarat,Ahmedabad,"Rakhial, Ahmedabad - IITM",13-02-2026 08:00:00,23.016834,72.625775,CO,35,93,42
India,Gujarat,Ahmedabad,"SAC ISRO Bopal, Ahmedabad - IITM",13-02-2026 08:00:00,23.041137,72.456691,PM10,116,196,144
India,Gujarat,Ahmedabad,"SAC ISRO Bopal, Ahmedabad - IITM",13-02-2026 08:00:00,23.041137,72.456691,CO,18,39,33
India,Gujarat,Ahmedabad,"SAC ISRO Satellite, Ahmedabad - IITM",13-02-2026 08:00:00,23.023389,72.515201,PM2.5,83,198,126
India,Gujarat,Ahmedabad,"SAC ISRO Satellite, Ahmedabad - IITM",13-02-2026 08:00:00,23.023389,72.515201,PM10,108,166,131
India,Gujarat,Ahmedabad,"SAC ISRO Satellite, Ahmedabad - IITM",13-02-2026 08:00:00,23.023389,72.515201,CO,50,108,92
India,Gujarat,Ahmedabad,"SVPI Airport Hansol, Ahmedabad - IITM",13-02-2026 08:00:00,23.076793,72.627874,NO2,18,131,60
India,Haryana,Panchkula,"Sector-6, Panchkula - HSPCB ",13-02-2026 08:00:00,30.7057778,76.8531805555555,PM2.5,47,154,81
India,Haryana,Panchkula,"Sector-6, Panchkula - HSPCB ",13-02-2026 08:00:00,30.7057778,76.8531805555555,NO2,22,26,25
India,Haryana,Panipat,"Sector-18, Panipat - HSPCB",13-02-2026 08:00:00,29.432304,76.972765,PM10,NA,NA,NA
India,Haryana,Panipat,"Sector-18, Panipat - HSPCB",13-02-2026 08:00:00,29.432304,76.972765,SO2,NA,NA,NA
India,Haryana,Panipat,"Sector-18, Panipat - HSPCB",13-02-2026 08:00:00,29.432304,76.972765,OZONE,NA,NA,NA
India,Haryana,Rohtak,"MD University, Rohtak - HSPCB",13-02-2026 08:00:00,28.52123,76.37138,PM2.5,71,389,132
India,Haryana,Rohtak,"MD University, Rohtak - HSPCB",13-02-2026 08:00:00,28.52123,76.37138,PM10,64,441,111
India,Haryana,Sonipat,"Murthal, Sonipat - HSPCB",13-02-2026 08:00:00,29.027200,77.062100,NH3,11,11,11
India,Haryana,Sonipat,"Murthal, Sonipat - HSPCB",13-02-2026 08:00:00,29.027200,77.062100,SO2,7,10,8
India,Haryana,Yamuna Nagar,"Gobind Pura, Yamuna Nagar - HSPCB",13-02-2026 08:00:00,30.1480566,77.2893471,NH3,4,4,4
India,Haryana,Yamuna Nagar,"Gobind Pura, Yamuna Nagar - HSPCB",13-02-2026 08:00:00,30.1480566,77.2893471,CO,29,52,35
India,Haryana,Yamuna Nagar,"Gobind Pura, Yamuna Nagar - HSPCB",13-02-2026 08:00:00,30.1480566,77.2893471,OZONE,8,34,9
India,Haryana,Gurugram,"Vikas Sadan, Gurugram - HSPCB",13-02-2026 08:00:00,28.4501238,77.0263051,PM10,88,434,194
India,Haryana,Gurugram,"Vikas Sadan, Gurugram - HSPCB",13-02-2026 08:00:00,28.4501238,77.0263051,OZONE,4,31,11
India,Haryana,Hisar,"Urban Estate-II, Hisar - HSPCB",13-02-2026 08:00:00,29.140560,75.744941,PM10,50,94,79
India,Haryana,Hisar,"Urban Estate-II, Hisar - HSPCB",13-02-2026 08:00:00,29.140560,75.744941,NH3,10,11,11
India,Haryana,Hisar,"Urban Estate-II, Hisar - HSPCB",13-02-2026 08:00:00,29.140560,75.744941,SO2,7,17,12
India,Haryana,Hisar,"Urban Estate-II, Hisar - HSPCB",13-02-2026 08:00:00,29.140560,75.744941,CO,28,61,34
India,Haryana,Hisar,"Urban Estate-II, Hisar - HSPCB",13-02-2026 08:00:00,29.140560,75.744941,OZONE,14,110,41
India,Haryana,Jind,"Police Lines, Jind - HSPCB",13-02-2026 08:00:00,29.307814,76.337619,SO2,3,14,7
India,Haryana,Kaithal,"Rishi Nagar, Kaithal - HSPCB",13-02-2026 08:00:00,29.8006,76.4155,NH3,5,6,6
India,Haryana,Kaithal,"Rishi Nagar, Kaithal - HSPCB",13-02-2026 08:00:00,29.8006,76.4155,OZONE,5,15,8
India,Haryana,Karnal,"Sector-12, Karnal - HSPCB",13-02-2026 08:00:00,29.695300,77.002700,SO2,6,7,6
India,Delhi,Delhi,"Sonia Vihar, Delhi - DPCC",13-02-2026 08:00:00,28.710508,77.249485,OZONE,1,110,5
India,Delhi,Delhi,"Sri Aurobindo Marg, Delhi - DPCC",13-02-2026 08:00:00,28.531346,77.190156,PM2.5,45,177,102
India,Delhi,Delhi,"Sri Aurobindo Marg, Delhi - DPCC",13-02-2026 08:00:00,28.531346,77.190156,PM10,90,155,123
India,Delhi,Delhi,"Sri Aurobindo Marg, Delhi - DPCC",13-02-2026 08:00:00,28.531346,77.190156,SO2,5,14,9
India,Delhi,Delhi,"Vivek Vihar, Delhi - DPCC",13-02-2026 08:00:00,28.672342,77.315260,PM10,88,216,150
India,Delhi,Delhi,"Wazirpur, Delhi - DPCC",13-02-2026 08:00:00,28.699793,77.165453,SO2,6,10,8
India,Gujarat,Ahmedabad,"Chandkheda, Ahmedabad - IITM",13-02-2026 08:00:00,23.107969,72.574648,PM10,106,194,141
India,Gujarat,Ahmedabad,"Chandkheda, Ahmedabad - IITM",13-02-2026 08:00:00,23.107969,72.574648,OZONE,2,62,14
India,Gujarat,Ahmedabad,"Gyaspur, Ahmedabad - IITM",13-02-2026 08:00:00,22.977134,72.553024,NO2,45,152,104
India,Gujarat,Vatva,"Phase-4 GIDC, Vatva - GPCB",13-02-2026 08:00:00,22.969611,72.643500,OZONE,30,45,31
India,Haryana,Ambala,"Patti Mehar, Ambala - HSPCB",13-02-2026 08:00:00,30.379589,76.778328,CO,27,45,30
India,Haryana,Bahadurgarh,"Arya Nagar, Bahadurgarh - HSPCB",13-02-2026 08:00:00,28.6701,76.9254,PM2.5,70,337,241
India,Haryana,Ballabgarh,"Nathu Colony, Ballabgarh - HSPCB",13-02-2026 08:00:00,28.3419248,77.319699,SO2,3,6,5
India,Haryana,Bhiwani,"H.B. Colony, Bhiwani - HSPCB",13-02-2026 08:00:00,28.806223,76.141105,NH3,1,9,8
India,Haryana,Charkhi Dadri,"Mini Secretariat, Charkhi Dadri - HSPCB",13-02-2026 08:00:00,28.593883,76.270653,NO2,9,22,16
India,Haryana,Kurukshetra,"Sector-7, Kurukshetra - HSPCB",13-02-2026 08:00:00,29.966942,76.875879,OZONE,13,53,23
India,Haryana,Mandikhera,"General Hospital, Mandikhera(Nuh) - HSPCB",13-02-2026 08:00:00,27.9002,76.9938,NO2,19,23,21
India,Haryana,Mandikhera,"General Hospital, Mandikhera(Nuh) - HSPCB",13-02-2026 08:00:00,27.9002,76.9938,SO2,32,37,34
India,Haryana,Mandikhera,"General Hospital, Mandikhera(Nuh) - HSPCB",13-02-2026 08:00:00,27.9002,76.9938,OZONE,25,31,27
India,Haryana,Narnaul,"Shastri Nagar, Narnaul - HSPCB",13-02-2026 08:00:00,28.060249,76.113115,CO,42,68,55
India,Haryana,Narnaul,"Shastri Nagar, Narnaul - HSPCB",13-02-2026 08:00:00,28.060249,76.113115,OZONE,1,8,1
India,Haryana,Palwal,"Shyam Nagar, Palwal - HSPCB",13-02-2026 08:00:00,28.1485564,77.3320667,PM2.5,42,60,50
India,Haryana,Palwal,"Shyam Nagar, Palwal - HSPCB",13-02-2026 08:00:00,28.1485564,77.3320667,CO,16,50,34
India,Haryana,Faridabad,"New Industrial Town, Faridabad - HSPCB",13-02-2026 08:00:00,28.39072,77.30059,OZONE,26,35,31
India,Haryana,Faridabad,"Sector 30, Faridabad - HSPCB",13-02-2026 08:00:00,28.4417,77.3217,PM2.5,92,96,93
India,Haryana,Faridabad,"Sector 30, Faridabad - HSPCB",13-02-2026 08:00:00,28.4417,77.3217,PM10,101,104,102
India,Haryana,Faridabad,"Sector 30, Faridabad - HSPCB",13-02-2026 08:00:00,28.4417,77.3217,NO2,37,39,38
India,Haryana,Gurugram,"NISE Gwal Pahari, Gurugram - IMD",13-02-2026 08:00:00,28.422681,77.148944,PM10,90,269,155
India,Haryana,Gurugram,"NISE Gwal Pahari, Gurugram - IMD",13-02-2026 08:00:00,28.422681,77.148944,NO2,18,94,44
India,Haryana,Gurugram,"Sector-51, Gurugram - HSPCB",13-02-2026 08:00:00,28.4227,77.0667,PM2.5,89,413,238
India,Haryana,Gurugram,"Sector-51, Gurugram - HSPCB",13-02-2026 08:00:00,28.4227,77.0667,SO2,5,9,7
India,Gujarat,Mehsana,"Sadanand Nagar, Mehsana - Nexteng Enviro",13-02-2026 08:00:00,23.593150,72.372792,OZONE,10,25,12
India,Gujarat,Rajkot,"Mavdi, Rajkot - Nexteng Enviro ",13-02-2026 08:00:00,22.248853,70.776774,SO2,13,129,64
India,Gujarat,Surat,"Katargam, Surat - Nexteng Enviro",13-02-2026 08:00:00,21.217779 ,72.834787 ,NO2,24,124,78
India,Gujarat,Surat,"Science Center, Surat - SMC",13-02-2026 08:00:00,21.170046,72.795405,CO,38,51,48
India,Gujarat,Vapi,"Phase-1 GIDC, Vapi - GPCB",13-02-2026 08:00:00,20.362421,72.918013,PM10,38,86,66
India,Karnataka,Bengaluru,"BWSSB Kadabesanahalli, Bengaluru - CPCB",13-02-2026 08:00:00,12.9352049,77.6814488,SO2,3,8,5
India,Karnataka,Bengaluru,"BWSSB Kadabesanahalli, Bengaluru - CPCB",13-02-2026 08:00:00,12.9352049,77.6814488,CO,36,38,37
India,Karnataka,Bengaluru,"City Railway Station, Bengaluru - KSPCB",13-02-2026 08:00:00,12.9756843,77.5660749,NO2,31,37,34
India,Karnataka,Bengaluru,"Hebbal, Bengaluru - KSPCB",13-02-2026 08:00:00,13.029152,77.585901,PM2.5,20,92,52
India,Karnataka,Bengaluru,"Hebbal, Bengaluru - KSPCB",13-02-2026 08:00:00,13.029152,77.585901,SO2,9,16,12
India,Karnataka,Bengaluru,"Hebbal, Bengaluru - KSPCB",13-02-2026 08:00:00,13.029152,77.585901,CO,15,76,27
India,Karnataka,Bengaluru,"Hebbal, Bengaluru - KSPCB",13-02-2026 08:00:00,13.029152,77.585901,OZONE,6,9,7
