country,state,city,station,last_update,latitude,longitude,pollutant_id,min_value,max_value,avg_value
India,Bihar,Bihar Sharif,"D M Colony, Bihar Sharif - BSPCB",30-10-2025 07:00:00,25.204762,85.514960,PM2.5,40,203,85
India,Bihar,Bihar Sharif,"D M Colony, Bihar Sharif - BSPCB",30-10-2025 07:00:00,25.204762,85.514960,NO2,9,10,9
India,Bihar,Bihar Sharif,"D M Colony, Bihar Sharif - BSPCB",30-10-2025 07:00:00,25.204762,85.514960,SO2,10,10,10
India,Bihar,Bihar Sharif,"D M Colony, Bihar Sharif - BSPCB",30-10-2025 07:00:00,25.204762,85.514960,CO,8,8,8
India,Bihar,Buxar,"Charitra Van, Buxar - BSPCB",30-10-2025 07:00:00,25.567520,83.966379,PM2.5,7,33,18
India,Bihar,Buxar,"Charitra Van, Buxar - BSPCB",30-10-2025 07:00:00,25.567520,83.966379,NO2,9,10,9
India,Bihar,Buxar,"Charitra Van, Buxar - BSPCB",30-10-2025 07:00:00,25.567520,83.966379,SO2,1,8,5
India,Bihar,Chhapra,"Darshan Nagar, Chhapra - BSPCB",30-10-2025 07:00:00,25.7808257,84.7446768,NH3,8,11,9
India,Bihar,Gaya,"Collectorate, Gaya - BSPCB",30-10-2025 07:00:00,24.7955,84.9994,SO2,8,11,10
India,Bihar,Gaya,"Collectorate, Gaya - BSPCB",30-10-2025 07:00:00,24.7955,84.9994,CO,31,48,43
India,Bihar,Gaya,"Collectorate, Gaya - BSPCB",30-10-2025 07:00:00,24.7955,84.9994,OZONE,19,21,19
India,Bihar,Manguraha,"Forest Rest House, Manguraha - BSPCB",30-10-2025 07:00:00,27.308328,84.531742,PM10,33,127,58
India,Bihar,Manguraha,"Forest Rest House, Manguraha - BSPCB",30-10-2025 07:00:00,27.308328,84.531742,NO2,5,7,6
India,Bihar,Manguraha,"Forest Rest House, Manguraha - BSPCB",30-10-2025 07:00:00,27.308328,84.531742,NH3,2,3,2
India,Bihar,Motihari,"Gandak Colony, Motihari - BSPCB",30-10-2025 07:00:00,26.63086,84.90051,NO2,3,8,6
India,Bihar,Motihari,"Gandak Colony, Motihari - BSPCB",30-10-2025 07:00:00,26.63086,84.90051,OZONE,2,3,3
India,Bihar,Munger,"Town Hall, Munger - BSPCB",30-10-2025 07:00:00,25.376776,86.471523,NO2,4,5,5
India,Bihar,Munger,"Town Hall, Munger - BSPCB",30-10-2025 07:00:00,25.376776,86.471523,SO2,16,22,18
India,Arunachal_Pradesh,Naharlagun,"Naharlagun, Naharlagun - APSPCB",30-10-2025 07:00:00,27.103358,93.679645,OZONE,5,5,5
India,Assam,Guwahati,"IITG, Guwahati - PCBA",30-10-2025 07:00:00,26.2028636,91.70046436,SO2,22,25,24
India,Assam,Guwahati,"LGBI Airport, Guwahati - PCBA",30-10-2025 07:00:00,26.10887,91.589544,PM10,94,108,102
India,Assam,Guwahati,"LGBI Airport, Guwahati - PCBA",30-10-2025 07:00:00,26.10887,91.589544,NO2,13,17,15
India,Assam,Guwahati,"LGBI Airport, Guwahati - PCBA",30-10-2025 07:00:00,26.10887,91.589544,OZONE,13,17,15
India,Assam,Guwahati,"Pan Bazaar, Guwahati - PCBA",30-10-2025 07:00:00,26.187500,91.744194,SO2,45,59,51
India,Bihar,Begusarai,"Lohiyanagar, Begusarai - BSPCB",30-10-2025 07:00:00,25.42742023,86.13886079,NO2,9,23,18
India,Bihar,Begusarai,"Lohiyanagar, Begusarai - BSPCB",30-10-2025 07:00:00,25.42742023,86.13886079,SO2,40,64,51
India,Bihar,Begusarai,"Lohiyanagar, Begusarai - BSPCB",30-10-2025 07:00:00,25.42742023,86.13886079,CO,58,92,76
India,Bihar,Bettiah,"Kamalnath Nagar, Bettiah - BSPCB",30-10-2025 07:00:00,26.80365,84.51954,PM2.5,NA,NA,NA
India,Bihar,Bettiah,"Kamalnath Nagar, Bettiah - BSPCB",30-10-2025 07:00:00,26.80365,84.51954,NH3,1,2,1
India,Bihar,Bhagalpur,"DM Office_Kachari Chowk, Bhagalpur - BSPCB",30-10-2025 07:00:00,25.251013,86.989001,OZONE,9,22,16
India,Assam,Nagaon,"Christianpatty, Nagaon - PCBA",30-10-2025 07:00:00,26.349082,92.68449,PM2.5,16,45,28
India,Assam,Nagaon,"Christianpatty, Nagaon - PCBA",30-10-2025 07:00:00,26.349082,92.68449,PM10,34,81,54
India,Assam,Nalbari,"Bata Chowk, Nalbari - PCBA",30-10-2025 07:00:00,26.446912,91.439057,PM2.5,17,80,49
India,Assam,Nalbari,"Bata Chowk, Nalbari - PCBA",30-10-2025 07:00:00,26.446912,91.439057,SO2,3,8,8
India,Assam,Silchar,"Tarapur, Silchar - PCBA",30-10-2025 07:00:00,24.82827,92.79525,PM2.5,31,59,39
India,Assam,Silchar,"Tarapur, Silchar - PCBA",30-10-2025 07:00:00,24.82827,92.79525,PM10,43,72,54
India,Andhra_Pradesh,Kadapa,"Yerramukkapalli, Kadapa - APPCB",30-10-2025 07:00:00,14.465052,78.824187,PM10,35,500,115
India,Andhra_Pradesh,Kadapa,"Yerramukkapalli, Kadapa - APPCB",30-10-2025 07:00:00,14.465052,78.824187,CO,24,42,33
India,Andhra_Pradesh,Tirumala,"Toll Gate, Tirumala - APPCB",30-10-2025 07:00:00,13.67,79.35,PM10,24,104,37
India,Andhra_Pradesh,Tirumala,"Toll Gate, Tirumala - APPCB",30-10-2025 07:00:00,13.67,79.35,NH3,1,1,1
India,Andhra_Pradesh,Tirupati,"Vaikuntapuram, Tirupati - APPCB",30-10-2025 07:00:00,13.615387,79.409230,NO2,8,10,9
India,Assam,Sivasagar,"Girls College, Sivasagar - PCBA",30-10-2025 07:00:00,26.987634,94.636574,OZONE,2,5,2
India,Bihar,Araria,"Kharahiya Basti, Araria - BSPCB",30-10-2025 07:00:00,26.146529,87.454184,NH3,5,5,5
India,Bihar,Arrah,"New DM Office, Arrah - BSPCB",30-10-2025 07:00:00,25.5626095,84.663264,SO2,NA,NA,NA
India,Bihar,Aurangabad,"Gurdeo Nagar, Aurangabad - BSPCB",30-10-2025 07:00:00,24.75746,84.366208,PM2.5,NA,NA,NA
India,Bihar,Gaya,"Kareemganj, Gaya - BSPCB",30-10-2025 07:00:00,24.792403,84.992416,PM10,36,115,73
India,Bihar,Gaya,"Kareemganj, Gaya - BSPCB",30-10-2025 07:00:00,24.792403,84.992416,CO,37,42,40
India,Bihar,Gaya,"SFTI Kusdihra, Gaya - BSPCB",30-10-2025 07:00:00,24.762518,84.982348,NH3,3,4,3
India,Bihar,Gaya,"SFTI Kusdihra, Gaya - BSPCB",30-10-2025 07:00:00,24.762518,84.982348,OZONE,12,55,14
India,Bihar,Hajipur,"Industrial Area, Hajipur - BSPCB",30-10-2025 07:00:00,25.697189,85.245900,PM2.5,47,148,98
India,Andhra_Pradesh,Vijayawada,"HB Colony, Vijayawada - APPCB",30-10-2025 07:00:00,16.536107,80.594233,PM10,52,67,60
India,Andhra_Pradesh,Vijayawada,"Rajiv Gandhi Park, Vijayawada - APPCB",30-10-2025 07:00:00,16.509717,80.612222,NH3,4,5,5
India,Andhra_Pradesh,Vijayawada,"Rajiv Gandhi Park, Vijayawada - APPCB",30-10-2025 07:00:00,16.509717,80.612222,SO2,11,15,13
India,Andhra_Pradesh,Visakhapatnam,"GVM Corporation, Visakhapatnam - APPCB",30-10-2025 07:00:00,17.72,83.3,OZONE,5,36,8
India,Andhra_Pradesh,Amaravati,"Secretariat, Amaravati - APPCB",30-10-2025 07:00:00,16.5150833,80.5181667,PM10,8,71,44
India,Andhra_Pradesh,Amaravati,"Secretariat, Amaravati - APPCB",30-10-2025 07:00:00,16.5150833,80.5181667,SO2,8,16,11
India,Andhra_Pradesh,Chittoor,"Gangineni Cheruvu, Chittoor - APPCB",30-10-2025 07:00:00,13.204880,79.097889,PM2.5,38,72,51
India,Andhra_Pradesh,Chittoor,"Gangineni Cheruvu, Chittoor - APPCB",30-10-2025 07:00:00,13.204880,79.097889,PM10,45,89,63
India,Chhattisgarh,Kunjemura,"OP Jindal School, Kunjemura - CECB",30-10-2025 07:00:00,22.126650,83.483212,CO,10,26,20
India,Chhattisgarh,Milupara,"Govt. Higher Secondary School, Milupara - CECB",30-10-2025 07:00:00,22.1910172,83.5197009,NH3,NA,NA,NA
India,Chhattisgarh,Milupara,"Govt. Higher Secondary School, Milupara - CECB",30-10-2025 07:00:00,22.1910172,83.5197009,SO2,NA,NA,NA
India,Chhattisgarh,Raipur,"AIIMS, Raipur - CECB",30-10-2025 07:00:00,21.258815,81.578979,PM10,9,38,25
India,Chhattisgarh,Raipur,"AIIMS, Raipur - CECB",30-10-2025 07:00:00,21.258815,81.578979,NH3,4,5,5
India,Chhattisgarh,Raipur,"Bhatagaon New ISBT, Raipur - CECB",30-10-2025 07:00:00,21.219665,81.630094,PM10,12,44,22
India,Chhattisgarh,Raipur,"Bhatagaon New ISBT, Raipur - CECB",30-10-2025 07:00:00,21.219665,81.630094,NH3,2,2,2
India,Chhattisgarh,Raipur,"Bhatagaon New ISBT, Raipur - CECB",30-10-2025 07:00:00,21.219665,81.630094,OZONE,2,6,2
India,Bihar,Patna,"Govt. High School Shikarpur, Patna - BSPCB",30-10-2025 07:00:00,25.592539,85.227158,NH3,4,6,6
India,Bihar,Patna,"IGSC Planetarium Complex, Patna - BSPCB",30-10-2025 07:00:00,25.610369,85.132568,PM2.5,13,108,58
India,Bihar,Patna,"IGSC Planetarium Complex, Patna - BSPCB",30-10-2025 07:00:00,25.610369,85.132568,SO2,25,29,27
India,Bihar,Patna,"Muradpur, Patna - BSPCB",30-10-2025 07:00:00,25.619651,85.147382,NO2,14,18,16
India,Bihar,Patna,"Muradpur, Patna - BSPCB",30-10-2025 07:00:00,25.619651,85.147382,CO,32,80,56
India,Bihar,Patna,"Rajbansi Nagar, Patna - BSPCB",30-10-2025 07:00:00,25.599486,85.113666,OZONE,3,6,5
India,Bihar,Patna,"Samanpura, Patna - BSPCB",30-10-2025 07:00:00,25.596727,85.085624,PM2.5,69,181,135
India,Bihar,Siwan,"Chitragupta Nagar, Siwan - BSPCB",30-10-2025 07:00:00,26.2271665,84.3570427,PM10,2,88,28
India,Chandigarh,Chandigarh,"Sector 22, Chandigarh - CPCC",30-10-2025 07:00:00,30.735567,76.775714,NO2,20,176,56
India,Chandigarh,Chandigarh,"Sector 22, Chandigarh - CPCC",30-10-2025 07:00:00,30.735567,76.775714,NH3,8,10,9
India,Chandigarh,Chandigarh,"Sector 22, Chandigarh - CPCC",30-10-2025 07:00:00,30.735567,76.775714,CO,33,106,54
India,Chandigarh,Chandigarh,"Sector-25, Chandigarh - CPCC",30-10-2025 07:00:00,30.751462,76.762879,PM2.5,56,264,172
India,Chhattisgarh,Raipur,"Krishak Nagar, Raipur - CECB",30-10-2025 07:00:00,21.237755,81.705301,PM2.5,4,15,10
India,Chhattisgarh,Raipur,"Krishak Nagar, Raipur - CECB",30-10-2025 07:00:00,21.237755,81.705301,OZONE,2,2,2
India,Chhattisgarh,Tumidih,"OP Jindal Industrial Park, Tumidih - CECB",30-10-2025 07:00:00,22.06631475,83.33820077,NO2,9,30,18
India,Delhi,Delhi,"Alipur, Delhi - DPCC",30-10-2025 07:00:00,28.815329,77.153010,PM10,243,473,344
India,Bihar,Patna,"Samanpura, Patna - BSPCB",30-10-2025 07:00:00,25.596727,85.085624,OZONE,29,41,35
India,Bihar,Purnia,"Mariam Nagar, Purnia - BSPCB",30-10-2025 07:00:00,25.366336,87.117468,NO2,4,6,6
India,Bihar,Purnia,"Mariam Nagar, Purnia - BSPCB",30-10-2025 07:00:00,25.366336,87.117468,NH3,3,3,3
India,Bihar,Saharsa,"Police Line, Saharsa - BSPCB",30-10-2025 07:00:00,25.892357,86.590325,PM10,11,73,43
India,Bihar,Saharsa,"Police Line, Saharsa - BSPCB",30-10-2025 07:00:00,25.892357,86.590325,OZONE,9,17,13
India,Chhattisgarh,Bilaspur,"Mangala, Bilaspur - NTPC",30-10-2025 07:00:00,22.08815,82.13737,SO2,11,23,16
India,Chhattisgarh,Chhal,"Nawapara SECL Colony, Chhal - CECB",30-10-2025 07:00:00,22.118125,83.140608,PM10,10,34,21
India,Chhattisgarh,Chhal,"Nawapara SECL Colony, Chhal - CECB",30-10-2025 07:00:00,22.118125,83.140608,OZONE,20,37,24
India,Chhattisgarh,Kunjemura,"OP Jindal School, Kunjemura - CECB",30-10-2025 07:00:00,22.126650,83.483212,PM10,3,15,8
India,Chhattisgarh,Bhilai,"Civic Center, Bhilai - Bhilai Steel Plant",30-10-2025 07:00:00,21.185571,81.343175,PM2.5,5,52,25
India,Chhattisgarh,Bhilai,"Civic Center, Bhilai - Bhilai Steel Plant",30-10-2025 07:00:00,21.185571,81.343175,CO,14,22,22
India,Chhattisgarh,Bilaspur,"Mangala, Bilaspur - NTPC",30-10-2025 07:00:00,22.08815,82.13737,PM2.5,5,311,56
India,Bihar,Muzaffarpur,"Muzaffarpur Collectorate, Muzaffarpur - BSPCB",30-10-2025 07:00:00,26.1209,85.3647,SO2,4,5,5
India,Bihar,Patna,"DRM Office Danapur, Patna - BSPCB",30-10-2025 07:00:00,25.586562,85.043586,NH3,NA,NA,NA
India,Bihar,Patna,"DRM Office Danapur, Patna - BSPCB",30-10-2025 07:00:00,25.586562,85.043586,SO2,NA,NA,NA
India,Delhi,Delhi,"Alipur, Delhi - DPCC",30-10-2025 07:00:00,28.815329,77.153010,CO,60,111,106
India,Delhi,Delhi,"Jahangirpuri, Delhi - DPCC",30-10-2025 07:00:00,28.732820,77.170633,NO2,73,124,99
India,Delhi,Delhi,"Jahangirpuri, Delhi - DPCC",30-10-2025 07:00:00,28.732820,77.170633,CO,64,128,113
India,Delhi,Delhi,"Jawaharlal Nehru Stadium, Delhi - DPCC",30-10-2025 07:00:00,28.580280,77.233829,NH3,8,15,12
India,Delhi,Delhi,"Jawaharlal Nehru Stadium, Delhi - DPCC",30-10-2025 07:00:00,28.580280,77.233829,OZONE,3,275,4
India,Delhi,Delhi,"Lodhi Road, Delhi - IITM",30-10-2025 07:00:00,28.588333,77.221667,PM10,136,282,242
India,Delhi,Delhi,"Lodhi Road, Delhi - IITM",30-10-2025 07:00:00,28.588333,77.221667,SO2,1,32,14
India,Delhi,Delhi,"Lodhi Road, Delhi - IMD",30-10-2025 07:00:00,28.5918245,77.2273074,PM2.5,152,378,325
India,Delhi,Delhi,"Lodhi Road, Delhi - IMD",30-10-2025 07:00:00,28.5918245,77.2273074,CO,54,105,103
India,Delhi,Delhi,"Patparganj, Delhi - DPCC",30-10-2025 07:00:00,28.623763,77.287209,NH3,10,16,13
India,Delhi,Delhi,"Punjabi Bagh, Delhi - DPCC",30-10-2025 07:00:00,28.674045,77.131023,NO2,46,65,55
India,Delhi,Delhi,"Punjabi Bagh, Delhi - DPCC",30-10-2025 07:00:00,28.674045,77.131023,SO2,1,8,4
India,Delhi,Delhi,"Pusa, Delhi - DPCC",30-10-2025 07:00:00,28.639652,77.146275,PM2.5,240,397,350
India,Delhi,Delhi,"Pusa, Delhi - DPCC",30-10-2025 07:00:00,28.639652,77.146275,PM10,157,406,269
India,Delhi,Delhi,"Pusa, Delhi - DPCC",30-10-2025 07:00:00,28.639652,77.146275,OZONE,5,82,6
India,Delhi,Delhi,"Pusa, Delhi - IMD",30-10-2025 07:00:00,28.636110,77.173332,CO,34,132,119
India,Delhi,Delhi,"R K Puram, Delhi - DPCC",30-10-2025 07:00:00,28.563262,77.186937,CO,100,146,129
India,Delhi,Delhi,"Rohini, Delhi - DPCC",30-10-2025 07:00:00,28.732528,77.119920,PM2.5,314,500,385
India,Delhi,Delhi,"Rohini, Delhi - DPCC",30-10-2025 07:00:00,28.732528,77.119920,CO,14,75,57
India,Delhi,Delhi,"Shadipur, Delhi - CPCB",30-10-2025 07:00:00,28.6514781,77.1473105,CO,38,114,97
India,Delhi,Delhi,"Sirifort, Delhi - CPCB",30-10-2025 07:00:00,28.5504249,77.2159377,PM2.5,311,411,377
India,Delhi,Delhi,"Sirifort, Delhi - CPCB",30-10-2025 07:00:00,28.5504249,77.2159377,OZONE,11,15,14
India,Delhi,Delhi,"Anand Vihar, Delhi - DPCC",30-10-2025 07:00:00,28.647622,77.3158090,NO2,48,132,90
India,Delhi,Delhi,"Anand Vihar, Delhi - DPCC",30-10-2025 07:00:00,28.647622,77.3158090,OZONE,18,42,20
India,Delhi,Delhi,"Ashok Vihar, Delhi - DPCC",30-10-2025 07:00:00,28.695381,77.181665,PM2.5,314,459,385
India,Delhi,Delhi,"Aya Nagar, Delhi - IMD",30-10-2025 07:00:00,28.4706914,77.1099364,CO,15,88,74
India,Delhi,Delhi,"Bawana, Delhi - DPCC",30-10-2025 07:00:00,28.776200,77.051074,PM2.5,308,472,382
India,Delhi,Delhi,"IGI Airport (T3), Delhi - IMD",30-10-2025 07:00:00,28.5627763,77.1180053,PM10,165,428,299
India,Delhi,Delhi,"IHBAS, Dilshad Garden, Delhi - CPCB",30-10-2025 07:00:00,28.6811736,77.3025234,PM10,169,354,237
India,Delhi,Delhi,"IHBAS, Dilshad Garden, Delhi - CPCB",30-10-2025 07:00:00,28.6811736,77.3025234,NO2,61,69,66
India,Delhi,Delhi,"ITO, Delhi - CPCB",30-10-2025 07:00:00,28.628624,77.241060,NO2,87,123,101
India,Delhi,Delhi,"Major Dhyan Chand National Stadium, Delhi - DPCC",30-10-2025 07:00:00,28.611281,77.237738,PM10,155,336,250
India,Delhi,Delhi,"Major Dhyan Chand National Stadium, Delhi - DPCC",30-10-2025 07:00:00,28.611281,77.237738,OZONE,7,257,7
India,Delhi,Delhi,"Mandir Marg, Delhi - DPCC",30-10-2025 07:00:00,28.636429,77.201067,OZONE,5,182,7
India,Delhi,Delhi,"Mundka, Delhi - DPCC",30-10-2025 07:00:00,28.684678,77.076574,OZONE,3,55,4
India,Delhi,Delhi,"Najafgarh, Delhi - DPCC",30-10-2025 07:00:00,28.570173,76.933762,NO2,69,135,92
India,Delhi,Delhi,"Narela, Delhi - DPCC",30-10-2025 07:00:00,28.822836,77.101981,NO2,19,66,41
India,Delhi,Delhi,"Narela, Delhi - DPCC",30-10-2025 07:00:00,28.822836,77.101981,CO,28,81,58
India,Delhi,Delhi,"Okhla Phase-2, Delhi - DPCC",30-10-2025 07:00:00,28.530785,77.271255,NH3,8,13,10
India,Delhi,Delhi,"CRRI Mathura Road, Delhi - IMD",30-10-2025 07:00:00,28.5512005,77.2735737,PM10,149,418,303
India,Delhi,Delhi,"Dr. Karni Singh Shooting Range, Delhi - DPCC",30-10-2025 07:00:00,28.498571,77.264840,PM2.5,207,426,350
India,Delhi,Delhi,"Najafgarh, Delhi - DPCC",30-10-2025 07:00:00,28.570173,76.933762,PM2.5,233,376,336
India,Gujarat,Gandhinagar,"GIFT City, Gandhinagar - IITM",30-10-2025 07:00:00,23.163798,72.677768,SO2,1,10,4
India,Gujarat,Gandhinagar,"GIFT City, Gandhinagar - IITM",30-10-2025 07:00:00,23.163798,72.677768,OZONE,25,55,29
India,Gujarat,Gandhinagar,"IIPHG Lekawada, Gandhinagar - IITM",30-10-2025 07:00:00,23.243639,72.68994,PM2.5,26,65,52
India,Gujarat,Gandhinagar,"IIPHG Lekawada, Gandhinagar - IITM",30-10-2025 07:00:00,23.243639,72.68994,SO2,5,8,6
India,Gujarat,Gandhinagar,"Sector-10, Gandhinagar - GPCB",30-10-2025 07:00:00,23.221714,72.654328,NO2,11,16,12
India,Gujarat,Gandhinagar,"Sector-10, Gandhinagar - GPCB",30-10-2025 07:00:00,23.221714,72.654328,OZONE,19,41,23
India,Gujarat,Surat,"Science Center, Surat - SMC",30-10-2025 07:00:00,21.170046,72.795405,PM2.5,30,80,56
India,Gujarat,Surat,"Science Center, Surat - SMC",30-10-2025 07:00:00,21.170046,72.795405,CO,36,38,36
India,Gujarat,Vapi,"Phase-1 GIDC, Vapi - GPCB",30-10-2025 07:00:00,20.362421,72.918013,NO2,13,14,14
India,Gujarat,Vapi,"Phase-1 GIDC, Vapi - GPCB",30-10-2025 07:00:00,20.362421,72.918013,OZONE,2,2,2
India,Gujarat,Vatva,"Phase-4 GIDC, Vatva - GPCB",30-10-2025 07:00:00,22.969611,72.643500,PM10,17,53,33
India,Delhi,Delhi,"Sonia Vihar, Delhi - DPCC",30-10-2025 07:00:00,28.710508,77.249485,OZONE,5,147,8
India,Delhi,Delhi,"Sri Aurobindo Marg, Delhi - DPCC",30-10-2025 07:00:00,28.531346,77.190156,PM2.5,133,304,263
India,Delhi,Delhi,"Sri Aurobindo Marg, Delhi - DPCC",30-10-2025 07:00:00,28.531346,77.190156,NH3,4,6,5
India,Delhi,Delhi,"Vivek Vihar, Delhi - DPCC",30-10-2025 07:00:00,28.672342,77.315260,NO2,27,173,80
India,Delhi,Delhi,"Vivek Vihar, Delhi - DPCC",30-10-2025 07:00:00,28.672342,77.315260,CO,74,128,101
India,Delhi,Delhi,"Wazirpur, Delhi - DPCC",30-10-2025 07:00:00,28.699793,77.165453,PM2.5,332,457,394
India,Delhi,Delhi,"Wazirpur, Delhi - DPCC",30-10-2025 07:00:00,28.699793,77.165453,SO2,6,16,10
India,Delhi,Delhi,"Wazirpur, Delhi - DPCC",30-10-2025 07:00:00,28.699793,77.165453,OZONE,9,155,17
India,Gujarat,Ahmedabad,"Chandkheda, Ahmedabad - IITM",30-10-2025 07:00:00,23.107969,72.574648,PM10,NA,NA,NA
India,Gujarat,Ahmedabad,"Chandkheda, Ahmedabad - IITM",30-10-2025 07:00:00,23.107969,72.574648,NO2,NA,NA,NA
India,Haryana,Charkhi Dadri,"Mini Secretariat, Charkhi Dadri - HSPCB",30-10-2025 07:00:00,28.593883,76.270653,CO,11,25,15
India,Haryana,Dharuhera,"Municipal Corporation Office, Dharuhera -  HSPCB",30-10-2025 07:00:00,28.206800,76.799700,PM2.5,276,430,356
India,Haryana,Dharuhera,"Municipal Corporation Office, Dharuhera -  HSPCB",30-10-2025 07:00:00,28.206800,76.799700,SO2,NA,NA,NA
India,Haryana,Faridabad,"Sector 11, Faridabad - HSPCB",30-10-2025 07:00:00,28.376058,77.315741,PM2.5,NA,NA,NA
India,Haryana,Faridabad,"Sector 11, Faridabad - HSPCB",30-10-2025 07:00:00,28.376058,77.315741,SO2,NA,NA,NA
India,Haryana,Faridabad,"Sector 30, Faridabad - HSPCB",30-10-2025 07:00:00,28.4417,77.3217,PM10,NA,NA,NA
India,Haryana,Faridabad,"Sector 30, Faridabad - HSPCB",30-10-2025 07:00:00,28.4417,77.3217,CO,20,64,62
India,Haryana,Faridabad,"Sector 30, Faridabad - HSPCB",30-10-2025 07:00:00,28.4417,77.3217,OZONE,17,19,18
India,Haryana,Gurugram,"NISE Gwal Pahari, Gurugram - IMD",30-10-2025 07:00:00,28.422681,77.148944,PM10,136,337,220
India,Gujarat,Ahmedabad,"Chandkheda, Ahmedabad - IITM",30-10-2025 07:00:00,23.107969,72.574648,OZONE,11,25,20
India,Gujarat,Ahmedabad,"Gyaspur, Ahmedabad - IITM",30-10-2025 07:00:00,22.977134,72.553024,PM2.5,16,66,46
India,Gujarat,Ahmedabad,"Maninagar, Ahmedabad - GPCB",30-10-2025 07:00:00,23.002657,72.591912,SO2,17,36,30
India,Gujarat,Ahmedabad,"Maninagar, Ahmedabad - GPCB",30-10-2025 07:00:00,23.002657,72.591912,CO,16,36,26
India,Gujarat,Ahmedabad,"Raikhad, Ahmedabad - IITM",30-10-2025 07:00:00,23.020509,72.579261,NH3,10,11,11
India,Gujarat,Ahmedabad,"Raikhad, Ahmedabad - IITM",30-10-2025 07:00:00,23.020509,72.579261,SO2,12,14,13
India,Gujarat,Ahmedabad,"Rakhial, Ahmedabad - IITM",30-10-2025 07:00:00,23.016834,72.625775,NH3,8,13,10
India,Gujarat,Ahmedabad,"SAC ISRO Bopal, Ahmedabad - IITM",30-10-2025 07:00:00,23.041137,72.456691,PM2.5,24,83,54
India,Haryana,Manesar,"Sector-2 IMT, Manesar - HSPCB",30-10-2025 07:00:00,28.360699,76.936090,NO2,17,37,33
India,Haryana,Manesar,"Sector-2 IMT, Manesar - HSPCB",30-10-2025 07:00:00,28.360699,76.936090,SO2,4,12,8
India,Haryana,Narnaul,"Shastri Nagar, Narnaul - HSPCB",30-10-2025 07:00:00,28.060249,76.113115,PM2.5,143,170,155
India,Haryana,Narnaul,"Shastri Nagar, Narnaul - HSPCB",30-10-2025 07:00:00,28.060249,76.113115,NO2,15,45,28
India,Haryana,Narnaul,"Shastri Nagar, Narnaul - HSPCB",30-10-2025 07:00:00,28.060249,76.113115,SO2,23,24,24
India,Haryana,Narnaul,"Shastri Nagar, Narnaul - HSPCB",30-10-2025 07:00:00,28.060249,76.113115,CO,36,52,50
India,Haryana,Palwal,"Shyam Nagar, Palwal - HSPCB",30-10-2025 07:00:00,28.1485564,77.3320667,PM10,NA,NA,NA
India,Haryana,Palwal,"Shyam Nagar, Palwal - HSPCB",30-10-2025 07:00:00,28.1485564,77.3320667,CO,28,28,28
India,Haryana,Ambala,"Patti Mehar, Ambala - HSPCB",30-10-2025 07:00:00,30.379589,76.778328,SO2,31,32,31
India,Haryana,Ambala,"Patti Mehar, Ambala - HSPCB",30-10-2025 07:00:00,30.379589,76.778328,OZONE,49,51,49
India,Haryana,Bahadurgarh,"Arya Nagar, Bahadurgarh - HSPCB",30-10-2025 07:00:00,28.6701,76.9254,PM2.5,14,500,315
India,Haryana,Bahadurgarh,"Arya Nagar, Bahadurgarh - HSPCB",30-10-2025 07:00:00,28.6701,76.9254,SO2,7,7,7
India,Haryana,Ballabgarh,"Nathu Colony, Ballabgarh - HSPCB",30-10-2025 07:00:00,28.3419248,77.319699,PM10,272,294,283
India,Haryana,Charkhi Dadri,"Mini Secretariat, Charkhi Dadri - HSPCB",30-10-2025 07:00:00,28.593883,76.270653,PM2.5,305,500,379
India,Haryana,Panipat,"Sector-18, Panipat - HSPCB",30-10-2025 07:00:00,29.432304,76.972765,NO2,31,32,31
India,Haryana,Panipat,"Sector-18, Panipat - HSPCB",30-10-2025 07:00:00,29.432304,76.972765,OZONE,30,30,30
India,Haryana,Rohtak,"MD University, Rohtak - HSPCB",30-10-2025 07:00:00,28.52123,76.37138,NO2,11,12,12
India,Haryana,Sonipat,"Murthal, Sonipat - HSPCB",30-10-2025 07:00:00,29.027200,77.062100,PM10,NA,NA,NA
India,Haryana,Sonipat,"Murthal, Sonipat - HSPCB",30-10-2025 07:00:00,29.027200,77.062100,SO2,NA,NA,NA
India,Haryana,Sonipat,"Murthal, Sonipat - HSPCB",30-10-2025 07:00:00,29.027200,77.062100,CO,36,38,37
India,Gujarat,Ahmedabad,"SVPI Airport Hansol, Ahmedabad - IITM",30-10-2025 07:00:00,23.076793,72.627874,PM10,34,109,80
India,Gujarat,Ahmedabad,"SVPI Airport Hansol, Ahmedabad - IITM",30-10-2025 07:00:00,23.076793,72.627874,CO,17,38,26
India,Gujarat,Ankleshwar,"GIDC, Ankleshwar - GPCB",30-10-2025 07:00:00,21.613267,73.010555,NO2,28,29,29
India,Gujarat,Gandhinagar,"GIFT City, Gandhinagar - IITM",30-10-2025 07:00:00,23.163798,72.677768,PM2.5,25,88,63
India,Gujarat,Gandhinagar,"GIFT City, Gandhinagar - IITM",30-10-2025 07:00:00,23.163798,72.677768,NO2,7,40,13
India,Haryana,Gurugram,"Vikas Sadan, Gurugram - HSPCB",30-10-2025 07:00:00,28.4501238,77.0263051,CO,102,140,119
India,Haryana,Kurukshetra,"Sector-7, Kurukshetra - HSPCB",30-10-2025 07:00:00,29.966942,76.875879,SO2,6,17,12
India,Haryana,Kurukshetra,"Sector-7, Kurukshetra - HSPCB",30-10-2025 07:00:00,29.966942,76.875879,OZONE,20,21,20
India,Haryana,Mandikhera,"General Hospital, Mandikhera - HSPCB",30-10-2025 07:00:00,27.9002,76.9938,PM10,33,79,56
India,Karnataka,Kalaburagi,"Lal Bahadur Shastri Nagar, Kalaburagi - KSPCB",30-10-2025 07:00:00,17.321993,76.822628,SO2,64,66,65
India,Karnataka,Kalaburagi,"Mahatma Basaveswar Colony, Kalaburgi - KSPCB",30-10-2025 07:00:00,17.336318,76.847397,PM2.5,11,38,21
India,Karnataka,Kalaburagi,"Mahatma Basaveswar Colony, Kalaburgi - KSPCB",30-10-2025 07:00:00,17.336318,76.847397,PM10,18,50,29
India,Karnataka,Kalaburagi,"Mahatma Basaveswar Colony, Kalaburgi - KSPCB",30-10-2025 07:00:00,17.336318,76.847397,SO2,2,7,4
India,Karnataka,Madikeri,"Stuart Hill, Madikeri - KSPCB",30-10-2025 07:00:00,12.415911,75.735050,OZONE,2,6,4
India,Karnataka,Mysuru,"Hebbal 1st Stage, Mysuru - KSPCB",30-10-2025 07:00:00,12.21041,76.37376,CO,2,32,9
India,Karnataka,Ramanagara,"Vijay Nagar, Ramanagara - KSPCB",30-10-2025 07:00:00,12.733409,77.298051,PM2.5,25,82,41
India,Karnataka,Bengaluru,"Jayanagar 5th Block, Bengaluru - KSPCB",30-10-2025 07:00:00,12.920984,77.584908,PM10,20,43,30
India,Karnataka,Bengaluru,"Jayanagar 5th Block, Bengaluru - KSPCB",30-10-2025 07:00:00,12.920984,77.584908,NO2,6,22,12
India,Karnataka,Bengaluru,"Jigani, Bengaluru - KSPCB",30-10-2025 07:00:00,12.7816279,77.6299145,PM2.5,38,53,44
India,Karnataka,Bengaluru,"Jigani, Bengaluru - KSPCB",30-10-2025 07:00:00,12.7816279,77.6299145,OZONE,21,26,22
India,Karnataka,Bengaluru,"Kasturi Nagar, Bengaluru - KSPCB",30-10-2025 07:00:00,13.003872,77.664217,NO2,31,34,32
India,Karnataka,Bengaluru,"Kasturi Nagar, Bengaluru - KSPCB",30-10-2025 07:00:00,13.003872,77.664217,SO2,10,11,10
India,Karnataka,Bengaluru,"Peenya, Bengaluru - CPCB",30-10-2025 07:00:00,13.0270199,77.494094,PM2.5,24,56,39
India,Karnataka,Bengaluru,"Peenya, Bengaluru - CPCB",30-10-2025 07:00:00,13.0270199,77.494094,PM10,76,102,86
India,Karnataka,Bengaluru,"Peenya, Bengaluru - CPCB",30-10-2025 07:00:00,13.0270199,77.494094,NH3,3,4,3
India,Karnataka,Bengaluru,"Peenya, Bengaluru - CPCB",30-10-2025 07:00:00,13.0270199,77.494094,OZONE,22,23,23
India,Karnataka,Bengaluru,"RVCE-Mailasandra, Bengaluru - KSPCB",30-10-2025 07:00:00,12.921418,77.502466,NO2,18,24,23
India,Karnataka,Bengaluru,"RVCE-Mailasandra, Bengaluru - KSPCB",30-10-2025 07:00:00,12.921418,77.502466,CO,24,40,24
India,Karnataka,Bengaluru,"Sanegurava Halli, Bengaluru - KSPCB",30-10-2025 07:00:00,12.990328,77.5431385,PM10,42,52,45
India,Karnataka,Bengaluru,"Sanegurava Halli, Bengaluru - KSPCB",30-10-2025 07:00:00,12.990328,77.5431385,SO2,7,7,7
India,Karnataka,Bengaluru,"Shivapura_Peenya, Bengaluru - KSPCB",30-10-2025 07:00:00,13.0246342,77.5080115,SO2,3,20,10
India,Karnataka,Bengaluru,"Silk Board, Bengaluru - KSPCB",30-10-2025 07:00:00,12.917348,77.622813,PM2.5,32,45,37
India,Karnataka,Yadgir,"Collector Office, Yadgir - KSPCB",30-10-2025 07:00:00,16.7602,77.1428,CO,10,27,12
India,Kerala,Eloor,"Udyogamandal, Eloor - Kerala PCB",30-10-2025 07:00:00,10.073232,76.302765,SO2,1,1,1
India,Kerala,Kannur,"Thavakkara, Kannur - Kerala PCB",30-10-2025 07:00:00,11.875000,75.373200,NH3,2,2,2
India,Kerala,Kannur,"Thavakkara, Kannur - Kerala PCB",30-10-2025 07:00:00,11.875000,75.373200,SO2,3,8,5
India,Kerala,Kannur,"Thavakkara, Kannur - Kerala PCB",30-10-2025 07:00:00,11.875000,75.373200,CO,15,18,17
India,Kerala,Kollam,"Polayathode, Kollam - Kerala PCB",30-10-2025 07:00:00,8.8787,76.6073,SO2,2,3,3
India,Jammu_and_Kashmir,Srinagar,"Rajbagh, Srinagar - JKSPCB",30-10-2025 07:00:00,34.066206,74.819820,CO,NA,NA,NA
India,Jharkhand,Dhanbad,"Sardar Patel Nagar, Dhanbad - JSPCB",30-10-2025 07:00:00,23.80569,86.44268,PM2.5,3,62,18
India,Jharkhand,Dhanbad,"Sardar Patel Nagar, Dhanbad - JSPCB",30-10-2025 07:00:00,23.80569,86.44268,PM10,11,58,28
India,Karnataka,Belgaum,"Ramteerth Nagar, Belgaum - KSPCB",30-10-2025 07:00:00,15.888653,74.541751,NH3,NA,NA,NA
India,Karnataka,Belgaum,"Ramteerth Nagar, Belgaum - KSPCB",30-10-2025 07:00:00,15.888653,74.541751,SO2,15,23,19
India,Karnataka,Belgaum,"Ramteerth Nagar, Belgaum - KSPCB",30-10-2025 07:00:00,15.888653,74.541751,CO,20,26,24
India,Karnataka,Chamarajanagar,"Urban, Chamarajanagar - KSPCB",30-10-2025 07:00:00,11.55358,76.55521,OZONE,15,38,19
India,Karnataka,Chikkamagaluru,"Kalyana Nagara, Chikkamagaluru - KSPCB",30-10-2025 07:00:00,13.328028,75.797056,OZONE,35,45,45
India,Karnataka,Dharwad,"Kalabhavan, Dharwad - KSPCB",30-10-2025 07:00:00,15.459706,75.008381,PM2.5,34,88,52
India,Karnataka,Gadag,"Panchal Nagar, Gadag - KSPCB",30-10-2025 07:00:00,15.411456,75.638133,PM2.5,12,27,17
India,Karnataka,Gadag,"Panchal Nagar, Gadag - KSPCB",30-10-2025 07:00:00,15.411456,75.638133,NO2,1,34,5
India,Karnataka,Bengaluru,"BTM Layout, Bengaluru - CPCB",30-10-2025 07:00:00,12.9135218,77.5950804,PM10,58,60,59
India,Karnataka,Bengaluru,"BTM Layout, Bengaluru - CPCB",30-10-2025 07:00:00,12.9135218,77.5950804,SO2,28,29,28
India,Karnataka,Bengaluru,"BWSSB Kadabesanahalli, Bengaluru - CPCB",30-10-2025 07:00:00,12.9352049,77.6814488,PM10,31,113,80
India,Karnataka,Bengaluru,"BWSSB Kadabesanahalli, Bengaluru - CPCB",30-10-2025 07:00:00,12.9352049,77.6814488,OZONE,26,26,26
India,Karnataka,Bengaluru,"Bapuji Nagar, Bengaluru - KSPCB",30-10-2025 07:00:00,12.951913,77.539784,PM2.5,29,61,40
India,Karnataka,Bengaluru,"Bapuji Nagar, Bengaluru - KSPCB",30-10-2025 07:00:00,12.951913,77.539784,NH3,1,1,1
India,Karnataka,Hubballi,"Deshpande Nagar, Hubballi - KSPCB",30-10-2025 07:00:00,15.351773,75.140726,SO2,NA,NA,NA
India,Karnataka,Hubballi,"Deshpande Nagar, Hubballi - KSPCB",30-10-2025 07:00:00,15.351773,75.140726,CO,NA,NA,NA
India,Karnataka,Hubballi,"Lingaraj Nagar, Hubballi - KSPCB",30-10-2025 07:00:00,15.3714823,75.1160168,PM2.5,28,48,40
India,Karnataka,Hubballi,"Lingaraj Nagar, Hubballi - KSPCB",30-10-2025 07:00:00,15.3714823,75.1160168,PM10,40,56,50
India,Karnataka,Hubballi,"Lingaraj Nagar, Hubballi - KSPCB",30-10-2025 07:00:00,15.3714823,75.1160168,NO2,7,11,10
India,Karnataka,Kalaburagi,"Lal Bahadur Shastri Nagar, Kalaburagi - KSPCB",30-10-2025 07:00:00,17.321993,76.822628,PM2.5,35,60,49
India,Karnataka,Shivamogga,"Vinoba Nagara, Shivamogga - KSPCB",30-10-2025 07:00:00,13.940000,75.555917,NH3,2,3,2
India,Karnataka,Tumakuru,"Thimmalapura, Tumakuru - KSPCB",30-10-2025 07:00:00,13.377516,77.099072,PM2.5,NA,NA,NA
India,Karnataka,Tumakuru,"Thimmalapura, Tumakuru - KSPCB",30-10-2025 07:00:00,13.377516,77.099072,SO2,NA,NA,NA
India,Karnataka,Udupi,"Brahmagiri, Udupi - KSPCB",30-10-2025 07:00:00,13.34194444,74.74694444,CO,39,55,55
India,Karnataka,Udupi,"Brahmagiri, Udupi - KSPCB",30-10-2025 07:00:00,13.34194444,74.74694444,OZONE,8,16,8
India,Madhya Pradesh,Indore,"Regional Park, Indore - IMC",30-10-2025 07:00:00,22.6780,75.8559,PM2.5,27,60,41
India,Madhya Pradesh,Indore,"Regional Park, Indore - IMC",30-10-2025 07:00:00,22.6780,75.8559,NO2,9,14,11
India,Madhya Pradesh,Indore,"Regional Park, Indore - IMC",30-10-2025 07:00:00,22.6780,75.8559,SO2,20,23,22
India,Madhya Pradesh,Indore,"Regional Park, Indore - IMC",30-10-2025 07:00:00,22.6780,75.8559,OZONE,10,23,14
India,Madhya Pradesh,Indore,"Residency Area, Indore - IMC",30-10-2025 07:00:00,22.7084,75.8815,NO2,13,19,16
India,Madhya Pradesh,Jabalpur,"Govindh Bhavan Colony, Jabalpur - JMC",30-10-2025 07:00:00,23.163174,79.973061,PM2.5,8,52,22
India,Madhya Pradesh,Jabalpur,"Govindh Bhavan Colony, Jabalpur - JMC",30-10-2025 07:00:00,23.163174,79.973061,NH3,1,1,1
India,Madhya Pradesh,Jabalpur,"Govindh Bhavan Colony, Jabalpur - JMC",30-10-2025 07:00:00,23.163174,79.973061,SO2,8,16,12
India,Madhya Pradesh,Jabalpur,"Gupteshwar, Jabalpur - JMC",30-10-2025 07:00:00,23.142888,79.916147,NO2,NA,NA,NA
India,Madhya Pradesh,Jabalpur,"Gupteshwar, Jabalpur - JMC",30-10-2025 07:00:00,23.142888,79.916147,SO2,NA,NA,NA
India,Madhya Pradesh,Jabalpur,"Marhatal, Jabalpur - MPPCB",30-10-2025 07:00:00,23.168606,79.932247,PM10,32,123,75
India,Madhya Pradesh,Jabalpur,"Marhatal, Jabalpur - MPPCB",30-10-2025 07:00:00,23.168606,79.932247,SO2,5,20,15
India,Madhya Pradesh,Jabalpur,"Marhatal, Jabalpur - MPPCB",30-10-2025 07:00:00,23.168606,79.932247,OZONE,26,186,28
India,Madhya Pradesh,Jabalpur,"Suhagi, Jabalpur - JMC",30-10-2025 07:00:00,23.218135,79.957770,NH3,2,2,2
India,Madhya Pradesh,Jabalpur,"Suhagi, Jabalpur - JMC",30-10-2025 07:00:00,23.218135,79.957770,OZONE,7,54,14
India,Madhya Pradesh,Katni,"Gole Bazar, Katni - MPPCB",30-10-2025 07:00:00,23.50016,80.23284,PM2.5,10,60,28
India,Madhya Pradesh,Katni,"Gole Bazar, Katni - MPPCB",30-10-2025 07:00:00,23.50016,80.23284,SO2,17,39,26
India,Madhya Pradesh,Maihar,"Sahilara, Maihar - KJS Cements",30-10-2025 07:00:00,24.2613009,80.7231783,PM2.5,4,186,52
India,Madhya Pradesh,Maihar,"Sahilara, Maihar - KJS Cements",30-10-2025 07:00:00,24.2613009,80.7231783,CO,4,9,6
India,Madhya Pradesh,Mandideep,"Sector-D Industrial Area, Mandideep - MPPCB",30-10-2025 07:00:00,23.108440,77.511428,NH3,3,5,4
India,Madhya Pradesh,Pithampur,"Sector-2 Industrial Area, Pithampur - MPPCB",30-10-2025 07:00:00,22.624758,75.675238,NO2,4,36,20
India,Maharashtra,Aurangabad,"More Chowk Waluj, Aurangabad - MPCB",30-10-2025 07:00:00,19.8389439,75.244448,OZONE,25,29,28
India,Maharashtra,Aurangabad,"Rachnakar Colony, Aurangabad - MPCB",30-10-2025 07:00:00,19.863756,75.321188,PM10,34,89,56
India,Maharashtra,Aurangabad,"Rachnakar Colony, Aurangabad - MPCB",30-10-2025 07:00:00,19.863756,75.321188,NO2,17,24,20
India,Maharashtra,Aurangabad,"Rachnakar Colony, Aurangabad - MPCB",30-10-2025 07:00:00,19.863756,75.321188,OZONE,10,45,13
India,Maharashtra,Badlapur,"Katrap, Badlapur - MPCB",30-10-2025 07:00:00,19.16485,73.23409,SO2,4,32,11
India,Maharashtra,Belapur,"CBD Belapur, Belapur - MPCB",30-10-2025 07:00:00,19.0243902,73.0406721,PM10,23,99,77
India,Maharashtra,Bhiwandi,"Gokul Nagar, Bhiwandi - MPCB",30-10-2025 07:00:00,19.309073,73.057223,PM2.5,34,82,50
India,Maharashtra,Bhiwandi,"Gokul Nagar, Bhiwandi - MPCB",30-10-2025 07:00:00,19.309073,73.057223,SO2,6,20,13
India,Madhya Pradesh,Gwalior,"Deen Dayal Nagar, Gwalior - MPPCB",30-10-2025 07:00:00,26.259242,78.216432,CO,1,98,35
India,Madhya Pradesh,Gwalior,"Maharaj Bada, Gwalior - MPPCB",30-10-2025 07:00:00,26.200388,78.147714,PM10,77,155,105
India,Madhya Pradesh,Gwalior,"Maharaj Bada, Gwalior - MPPCB",30-10-2025 07:00:00,26.200388,78.147714,CO,1,121,8
India,Madhya Pradesh,Indore,"Airport Area, Indore - IMC",30-10-2025 07:00:00,22.7289,75.8076,SO2,19,20,20
India,Madhya Pradesh,Indore,"Chhoti Gwaltoli, Indore - MPPCB",30-10-2025 07:00:00,22.4310,75.5213,NO2,52,73,62
India,Madhya Pradesh,Indore,"Chhoti Gwaltoli, Indore - MPPCB",30-10-2025 07:00:00,22.4310,75.5213,NH3,5,6,5
India,Madhya Pradesh,Indore,"Maguda Nagar, Indore - IMC",30-10-2025 07:00:00,22.7524,75.8872,NH3,NA,NA,NA
India,Maharashtra,Boisar,"Khaira, Boisar - MPCB",30-10-2025 07:00:00,19.786089,72.757971,OZONE,20,21,21
India,Maharashtra,Chandrapur,"Chauhan Colony, Chandrapur - MPCB",30-10-2025 07:00:00,19.962900,79.298714,PM10,1,50,29
India,Maharashtra,Chandrapur,"MIDC Khutala, Chandrapur - MPCB",30-10-2025 07:00:00,19.9775302,79.2337086,CO,34,42,39
India,Maharashtra,Chandrapur,"MIDC Khutala, Chandrapur - MPCB",30-10-2025 07:00:00,19.9775302,79.2337086,OZONE,16,19,18
India,Maharashtra,Dhule,"Deopur, Dhule - MPCB",30-10-2025 07:00:00,20.918946,74.776388,SO2,6,14,11
India,Maharashtra,Jalgaon,"Prabhat Colony, Jalgaon - MPCB",30-10-2025 07:00:00,21.001264,75.565602,CO,23,40,28
India,Maharashtra,Jalgaon,"Prabhat Colony, Jalgaon - MPCB",30-10-2025 07:00:00,21.001264,75.565602,OZONE,14,32,26
India,Madhya Pradesh,Bhopal,"T T Nagar, Bhopal - MPPCB",30-10-2025 07:00:00,23.233584,77.400574,NO2,18,35,24
India,Madhya Pradesh,Damoh,"Shrivastav Colony, Damoh - MPPCB",30-10-2025 07:00:00,23.81748678,79.446246,SO2,40,42,41
India,Madhya Pradesh,Damoh,"Shrivastav Colony, Damoh - MPPCB",30-10-2025 07:00:00,23.81748678,79.446246,CO,22,26,25
India,Madhya Pradesh,Dewas,"Bhopal Chauraha, Dewas - MPPCB",30-10-2025 07:00:00,22.9682591,76.064118,PM2.5,53,128,86
India,Madhya Pradesh,Gwalior,"City Center, Gwalior - MPPCB",30-10-2025 07:00:00,26.203442,78.193251,CO,2,105,48
India,Madhya Pradesh,Gwalior,"City Center, Gwalior - MPPCB",30-10-2025 07:00:00,26.203442,78.193251,OZONE,2,92,6
India,Maharashtra,Akola,"Ramdaspeth, Akola - MPCB",30-10-2025 07:00:00,20.719516,77.000253,PM2.5,36,73,57
India,Maharashtra,Akola,"Ramdaspeth, Akola - MPCB",30-10-2025 07:00:00,20.719516,77.000253,PM10,41,83,63
India,Maharashtra,Amravati,"Shivneri Colony, Amravati - MPCB",30-10-2025 07:00:00,20.9402359,77.7895248,CO,12,38,17
India,Maharashtra,Amravati,"Shri Shivaji Science College, Amravati - MPCB",30-10-2025 07:00:00,20.939198,77.765701,PM2.5,35,66,47
India,Maharashtra,Amravati,"Shri Shivaji Science College, Amravati - MPCB",30-10-2025 07:00:00,20.939198,77.765701,PM10,35,74,52
India,Maharashtra,Aurangabad,"MIDC Chilkalthana, Aurangabad - MPCB",30-10-2025 07:00:00,19.875620,75.387310,OZONE,4,44,11
India,Madhya Pradesh,Singrauli,"Suryakiran Bhawan NCL, Singrauli - MPPCB",30-10-2025 07:00:00,24.108970,82.645580,PM2.5,9,76,35
India,Madhya Pradesh,Singrauli,"Suryakiran Bhawan NCL, Singrauli - MPPCB",30-10-2025 07:00:00,24.108970,82.645580,NO2,21,22,21
India,Madhya Pradesh,Singrauli,"Suryakiran Bhawan NCL, Singrauli - MPPCB",30-10-2025 07:00:00,24.108970,82.645580,SO2,25,58,41
India,Madhya Pradesh,Singrauli,"Suryakiran Bhawan NCL, Singrauli - MPPCB",30-10-2025 07:00:00,24.108970,82.645580,OZONE,12,26,20
India,Maharashtra,Ahmednagar,"Tarakpur, Ahmednagar - MPCB",30-10-2025 07:00:00,19.10122,74.73339,PM2.5,16,37,25
India,Maharashtra,Ahmednagar,"Tarakpur, Ahmednagar - MPCB",30-10-2025 07:00:00,19.10122,74.73339,CO,10,46,13
India,Kerala,Thiruvananthapuram,"Kariavattom, Thiruvananthapuram - Kerala PCB",30-10-2025 07:00:00,8.563700,76.886500,CO,26,82,32
India,Kerala,Thiruvananthapuram,"Plammoodu, Thiruvananthapuram - Kerala PCB",30-10-2025 07:00:00,8.5149093,76.9435879,PM10,12,44,24
India,Madhya Pradesh,Bhopal,"Idgah Hills, Bhopal - MPPCB",30-10-2025 07:00:00,23.264759,77.381568,NO2,10,21,16
India,Madhya Pradesh,Bhopal,"Paryavaran Parisar, Bhopal - MPPCB",30-10-2025 07:00:00,23.210494,77.425409,SO2,4,14,9
India,Maharashtra,Kolhapur,"Sinchan Bhavan, Kolhapur - MPCB",30-10-2025 07:00:00,16.7143745,74.2426398,CO,10,52,16
India,Maharashtra,Kolhapur,"Sinchan Bhavan, Kolhapur - MPCB",30-10-2025 07:00:00,16.7143745,74.2426398,OZONE,2,38,25
India,Maharashtra,Latur,"Sawe Wadi, Latur - MPCB",30-10-2025 07:00:00,18.39963,76.57452,NH3,1,12,4
India,Maharashtra,Mahad,"Kamble Tarf Birwadi, Mahad - MPCB",30-10-2025 07:00:00,18.1023399,73.4783687,PM2.5,48,56,51
India,Maharashtra,Mahad,"Kamble Tarf Birwadi, Mahad - MPCB",30-10-2025 07:00:00,18.1023399,73.4783687,NH3,2,7,5
India,Maharashtra,Malegaon,"Mahesh Nagar, Malegaon - MPCB",30-10-2025 07:00:00,20.555712,74.529236,PM10,57,119,96
India,Maharashtra,Malegaon,"Mahesh Nagar, Malegaon - MPCB",30-10-2025 07:00:00,20.555712,74.529236,NO2,4,21,13
India,Maharashtra,Malegaon,"Mahesh Nagar, Malegaon - MPCB",30-10-2025 07:00:00,20.555712,74.529236,OZONE,16,21,18
India,Maharashtra,Mira-Bhayandar,"Bhayandar West, Mira-Bhayandar - MPCB",30-10-2025 07:00:00,19.296481,72.840923,NH3,1,5,3
India,Maharashtra,Nagpur,"Opp GPO Civil Lines, Nagpur - MPCB",30-10-2025 07:00:00,21.152875,79.0517531,PM2.5,15,75,37
India,Maharashtra,Nagpur,"Opp GPO Civil Lines, Nagpur - MPCB",30-10-2025 07:00:00,21.152875,79.0517531,PM10,11,79,38
India,Maharashtra,Nagpur,"Ram Nagar, Nagpur - MPCB",30-10-2025 07:00:00,21.143383,79.048912,CO,10,22,12
India,Maharashtra,Nanded,"Sneh Nagar, Nanded - MPCB",30-10-2025 07:00:00,19.173852,77.296291,PM2.5,59,99,74
India,Maharashtra,Nanded,"Sneh Nagar, Nanded - MPCB",30-10-2025 07:00:00,19.173852,77.296291,NO2,8,21,12
India,Maharashtra,Nanded,"Sneh Nagar, Nanded - MPCB",30-10-2025 07:00:00,19.173852,77.296291,SO2,4,5,4
India,Maharashtra,Nanded,"Sneh Nagar, Nanded - MPCB",30-10-2025 07:00:00,19.173852,77.296291,OZONE,14,56,20
India,Maharashtra,Nashik,"Gangapur Road, Nashik - MPCB",30-10-2025 07:00:00,20.0073285,73.7762427,NO2,7,7,7
India,Maharashtra,Nashik,"Gangapur Road, Nashik - MPCB",30-10-2025 07:00:00,20.0073285,73.7762427,NH3,4,4,4
India,Maharashtra,Mumbai,"Deonar, Mumbai - IITM",30-10-2025 07:00:00,19.04946,72.9230,CO,21,62,35
India,Maharashtra,Mumbai,"Ghatkopar, Mumbai - BMC",30-10-2025 07:00:00,19.083694,72.920967,PM2.5,10,54,34
India,Maharashtra,Mumbai,"Ghatkopar, Mumbai - BMC",30-10-2025 07:00:00,19.083694,72.920967,NO2,15,35,23
India,Maharashtra,Mumbai,"Ghatkopar, Mumbai - BMC",30-10-2025 07:00:00,19.083694,72.920967,OZONE,10,72,26
India,Maharashtra,Mumbai,"Kandivali East, Mumbai - MPCB",30-10-2025 07:00:00,19.205800,72.868200,PM10,20,81,58
India,Maharashtra,Mumbai,"Kandivali West, Mumbai - BMC",30-10-2025 07:00:00,19.215859,72.831718,PM10,18,65,47
India,Maharashtra,Mumbai,"Kherwadi_Bandra East, Mumbai - MPCB",30-10-2025 07:00:00,19.0632143,72.8456324,PM2.5,12,68,45
India,Maharashtra,Mumbai,"Kherwadi_Bandra East, Mumbai - MPCB",30-10-2025 07:00:00,19.0632143,72.8456324,CO,14,28,19
India,Maharashtra,Mumbai,"Bandra Kurla Complex, Mumbai - IITM",30-10-2025 07:00:00,19.053536,72.84643,PM2.5,13,113,60
India,Maharashtra,Mumbai,"Bandra Kurla Complex, Mumbai - IITM",30-10-2025 07:00:00,19.053536,72.84643,NO2,15,44,26
India,Maharashtra,Mumbai,"Bandra Kurla Complex, Mumbai - IITM",30-10-2025 07:00:00,19.053536,72.84643,SO2,1,5,4
India,Maharashtra,Mumbai,"Bandra Kurla Complex, Mumbai - MPCB",30-10-2025 07:00:00,19.065931,72.862131,CO,6,18,11
India,Maharashtra,Mumbai,"Borivali East, Mumbai - IITM",30-10-2025 07:00:00,19.23241,72.86895,NH3,5,6,5
India,Maharashtra,Mumbai,"Borivali East, Mumbai - MPCB",30-10-2025 07:00:00,19.2243333,72.8658113,PM10,18,64,50
India,Maharashtra,Mumbai,"Borivali East, Mumbai - MPCB",30-10-2025 07:00:00,19.2243333,72.8658113,NH3,2,3,2
India,Maharashtra,Mumbai,"Borivali East, Mumbai - MPCB",30-10-2025 07:00:00,19.2243333,72.8658113,CO,9,10,10
India,Maharashtra,Mumbai,"Chakala-Andheri East, Mumbai - IITM",30-10-2025 07:00:00,19.11074,72.86084,PM10,20,96,67
India,Maharashtra,Mumbai,"Chakala-Andheri East, Mumbai - IITM",30-10-2025 07:00:00,19.11074,72.86084,OZONE,5,36,16
India,Maharashtra,Mumbai,"Chhatrapati Shivaji Intl. Airport (T2), Mumbai - MPCB",30-10-2025 07:00:00,19.10078,72.87462,SO2,20,21,20
India,Maharashtra,Mumbai,"Chhatrapati Shivaji Intl. Airport (T2), Mumbai - MPCB",30-10-2025 07:00:00,19.10078,72.87462,CO,13,14,14
India,Maharashtra,Mumbai,"Colaba, Mumbai - MPCB",30-10-2025 07:00:00,18.910000,72.820000,NH3,3,3,3
India,Maharashtra,Mumbai,"Colaba, Mumbai - MPCB",30-10-2025 07:00:00,18.910000,72.820000,OZONE,11,11,11
India,Maharashtra,Mumbai,"Deonar, Mumbai - IITM",30-10-2025 07:00:00,19.04946,72.9230,NH3,9,12,10
India,Maharashtra,Mumbai,"Siddharth Nagar-Worli, Mumbai - IITM",30-10-2025 07:00:00,19.000083,72.813993,NH3,3,5,3
India,Maharashtra,Mumbai,"Vile Parle West, Mumbai - MPCB",30-10-2025 07:00:00,19.10861,72.83622,NO2,2,30,25
India,Maharashtra,Mumbai,"Vile Parle West, Mumbai - MPCB",30-10-2025 07:00:00,19.10861,72.83622,OZONE,2,27,25
India,Maharashtra,Mumbai,"Worli, Mumbai - MPCB",30-10-2025 07:00:00,18.9936162,72.8128113,NO2,9,18,12
India,Maharashtra,Mumbai,"Worli, Mumbai - MPCB",30-10-2025 07:00:00,18.9936162,72.8128113,SO2,21,27,23
India,Maharashtra,Nagpur,"Ambazari, Nagpur - MPCB",30-10-2025 07:00:00,21.121801,79.04952,SO2,15,22,17
India,Maharashtra,Nagpur,"Ambazari, Nagpur - MPCB",30-10-2025 07:00:00,21.121801,79.04952,CO,10,21,12
India,Maharashtra,Mumbai,"Mulund West, Mumbai - MPCB",30-10-2025 07:00:00,19.1750,72.9419,NO2,13,15,14
India,Maharashtra,Mumbai,"Mulund West, Mumbai - MPCB",30-10-2025 07:00:00,19.1750,72.9419,NH3,4,4,4
India,Maharashtra,Mumbai,"Navy Nagar-Colaba, Mumbai - IITM",30-10-2025 07:00:00,18.897756,72.813320,SO2,7,13,11
India,Maharashtra,Mumbai,"Navy Nagar-Colaba, Mumbai - IITM",30-10-2025 07:00:00,18.897756,72.813320,CO,10,17,16
India,Maharashtra,Mumbai,"Powai, Mumbai - MPCB",30-10-2025 07:00:00,19.137500,72.915056,PM10,21,94,64
India,Maharashtra,Mumbai,"Powai, Mumbai - MPCB",30-10-2025 07:00:00,19.137500,72.915056,CO,16,16,16
India,Maharashtra,Mumbai,"Shivaji Nagar, Mumbai - BMC",30-10-2025 07:00:00,19.060498,72.923356,CO,4,76,35
India,Maharashtra,Jalna,"Old MIDC, Jalna - MPCB",30-10-2025 07:00:00,19.854616,75.905894,PM2.5,39,58,48
India,Maharashtra,Jalna,"Old MIDC, Jalna - MPCB",30-10-2025 07:00:00,19.854616,75.905894,NH3,3,5,4
India,Maharashtra,Jalna,"Old MIDC, Jalna - MPCB",30-10-2025 07:00:00,19.854616,75.905894,SO2,10,11,10
India,Maharashtra,Kalyan,"Pimpleshwar Mandir, Kalyan - MPCB",30-10-2025 07:00:00,19.192056,72.9585188,PM2.5,22,99,64
India,Maharashtra,Kalyan,"Pimpleshwar Mandir, Kalyan - MPCB",30-10-2025 07:00:00,19.192056,72.9585188,PM10,21,95,61
India,Maharashtra,Kolhapur,"Sinchan Bhavan, Kolhapur - MPCB",30-10-2025 07:00:00,16.7143745,74.2426398,NO2,4,27,14
India,Maharashtra,Mumbai,"Kurla, Mumbai - MPCB",30-10-2025 07:00:00,19.0863,72.8888,PM2.5,37,64,52
India,Maharashtra,Mumbai,"Kurla, Mumbai - MPCB",30-10-2025 07:00:00,19.0863,72.8888,NO2,4,4,4
India,Maharashtra,Mumbai,"Mazgaon, Mumbai - IITM",30-10-2025 07:00:00,18.96702,72.84214,PM2.5,12,66,40
India,Maharashtra,Mumbai,"Mazgaon, Mumbai - IITM",30-10-2025 07:00:00,18.96702,72.84214,SO2,7,13,10
India,Maharashtra,Mumbai,"Mindspace-Malad West, Mumbai - MPCB",30-10-2025 07:00:00,19.1878657,72.8304069,SO2,14,16,15
India,Maharashtra,Mumbai,"Mindspace-Malad West, Mumbai - MPCB",30-10-2025 07:00:00,19.1878657,72.8304069,OZONE,14,46,22
India,Maharashtra,Parbhani,"Masoom Colony, Parbhani - MPCB",30-10-2025 07:00:00,19.265594,76.761463,NO2,6,23,13
India,Maharashtra,Parbhani,"Masoom Colony, Parbhani - MPCB",30-10-2025 07:00:00,19.265594,76.761463,CO,7,16,12
India,Maharashtra,Parbhani,"Masoom Colony, Parbhani - MPCB",30-10-2025 07:00:00,19.265594,76.761463,OZONE,21,27,24
India,Maharashtra,Pimpri-Chinchwad,"Gavalinagar, Pimpri Chinchwad - MPCB",30-10-2025 07:00:00,18.63673,73.82487,NH3,7,8,7
India,Maharashtra,Pimpri-Chinchwad,"Gavalinagar, Pimpri Chinchwad - MPCB",30-10-2025 07:00:00,18.63673,73.82487,CO,8,44,15
India,Maharashtra,Pimpri-Chinchwad,"Park Street Wakad, Pimpri Chinchwad - MPCB",30-10-2025 07:00:00,18.59051,73.77946,PM10,52,102,82
India,Maharashtra,Pimpri-Chinchwad,"Savta Mali Nagar, Pimpri-Chinchwad - IITM",30-10-2025 07:00:00,18.614767,73.799516,PM2.5,30,77,48
India,Maharashtra,Pimpri-Chinchwad,"Savta Mali Nagar, Pimpri-Chinchwad - IITM",30-10-2025 07:00:00,18.614767,73.799516,NO2,23,52,33
India,Maharashtra,Pimpri-Chinchwad,"Savta Mali Nagar, Pimpri-Chinchwad - IITM",30-10-2025 07:00:00,18.614767,73.799516,CO,44,83,70
India,Maharashtra,Pimpri-Chinchwad,"Thergaon, Pimpri Chinchwad - MPCB",30-10-2025 07:00:00,18.616318,73.765797,NO2,13,73,30
India,Maharashtra,Pimpri-Chinchwad,"Thergaon, Pimpri Chinchwad - MPCB",30-10-2025 07:00:00,18.616318,73.765797,SO2,2,4,3
India,Maharashtra,Solapur,"Ratandeep Housing Society, Solapur - MPCB",30-10-2025 07:00:00,17.65439,75.90649,CO,11,55,18
India,Maharashtra,Thane,"Kasarvadavali, Thane - MPCB",30-10-2025 07:00:00,19.26777,72.97182,OZONE,30,80,39
India,Maharashtra,Thane,"Upvan Fort, Thane - MPCB",30-10-2025 07:00:00,19.222279,72.957979,PM2.5,16,58,36
India,Maharashtra,Thane,"Upvan Fort, Thane - MPCB",30-10-2025 07:00:00,19.222279,72.957979,SO2,1,7,3
India,Maharashtra,Ulhasnagar,"Sidhi Vinayak Nagar, Ulhasnagar - MPCB",30-10-2025 07:00:00,19.235581,73.159121,NH3,2,5,4
India,Maharashtra,Ulhasnagar,"Sidhi Vinayak Nagar, Ulhasnagar - MPCB",30-10-2025 07:00:00,19.235581,73.159121,SO2,10,16,14
India,Maharashtra,Ulhasnagar,"Sidhi Vinayak Nagar, Ulhasnagar - MPCB",30-10-2025 07:00:00,19.235581,73.159121,CO,20,38,22
India,Maharashtra,Ulhasnagar,"Sidhi Vinayak Nagar, Ulhasnagar - MPCB",30-10-2025 07:00:00,19.235581,73.159121,OZONE,12,61,13
India,Maharashtra,Nashik,"Gangapur Road, Nashik - MPCB",30-10-2025 07:00:00,20.0073285,73.7762427,SO2,3,7,6
India,Maharashtra,Nashik,"Hirawadi, Nashik - MPCB",30-10-2025 07:00:00,20.021503,73.813844,PM10,39,172,75
India,Maharashtra,Nashik,"Hirawadi, Nashik - MPCB",30-10-2025 07:00:00,20.021503,73.813844,NH3,1,2,1
India,Maharashtra,Nashik,"MIDC Ambad, Nashik - MPCB",30-10-2025 07:00:00,19.950220,73.731480,SO2,1,7,4
India,Maharashtra,Nashik,"Pandav Nagari, Nashik - MPCB",30-10-2025 07:00:00,19.9591346,73.7788008,NO2,3,9,5
India,Maharashtra,Navi Mumbai,"Kopripada-Vashi, Navi Mumbai - MPCB",30-10-2025 07:00:00,19.090337,73.014232,PM2.5,NA,NA,NA
India,Maharashtra,Navi Mumbai,"Kopripada-Vashi, Navi Mumbai - MPCB",30-10-2025 07:00:00,19.090337,73.014232,NH3,NA,NA,NA
India,Meghalaya,Shillong,"JN Stadium, Shillong - Meghalaya PCB",30-10-2025 07:00:00,25.5803419,91.8942571,NO2,4,13,7
India,Meghalaya,Shillong,"JN Stadium, Shillong - Meghalaya PCB",30-10-2025 07:00:00,25.5803419,91.8942571,SO2,NA,NA,NA
India,Meghalaya,Shillong,"Lumpyngngad, Shillong - Meghalaya PCB",30-10-2025 07:00:00,25.5586,91.8985,CO,2,13,4
India,Odisha,Angul,"Hakimapada, Angul - OSPCB",30-10-2025 07:00:00,20.832874,85.104082,PM2.5,3,73,38
India,Odisha,Angul,"Hakimapada, Angul - OSPCB",30-10-2025 07:00:00,20.832874,85.104082,NO2,3,14,7
India,Odisha,Balasore,"Kalidaspur, Balasore - OSPCB",30-10-2025 07:00:00,21.51161,86.89088,PM10,30,89,45
India,Maharashtra,Pune,"Revenue Colony-Shivajinagar, Pune - IITM",30-10-2025 07:00:00,18.530085,73.849598,CO,15,162,26
India,Maharashtra,Pune,"Savitribai Phule Pune University, Pune - MPCB",30-10-2025 07:00:00,18.547056,73.826908,NH3,1,1,1
India,Maharashtra,Pune,"Transport Nagar-Nigdi, Pune - IITM",30-10-2025 07:00:00,18.664282,73.763966,CO,46,82,74
India,Maharashtra,Solapur,"Dnyaneshwar Nagar, Solapur - MPCB",30-10-2025 07:00:00,17.6336264,75.9132495,SO2,2,6,3
India,Maharashtra,Solapur,"Dnyaneshwar Nagar, Solapur - MPCB",30-10-2025 07:00:00,17.6336264,75.9132495,CO,13,44,15
India,Odisha,Baripada,"Meher Colony, Baripada - OSPCB",30-10-2025 07:00:00,21.941841,86.728318,OZONE,5,18,8
India,Odisha,Bhubaneswar,"Lingraj Mandir, Bhubaneswar - OSPCB",30-10-2025 07:00:00,20.240790,85.836784,OZONE,14,45,30
India,Odisha,Brajrajnagar,"GM Office, Brajrajnagar - OSPCB",30-10-2025 07:00:00,21.8004996,83.8396977,SO2,14,16,15
India,Odisha,Brajrajnagar,"GM Office, Brajrajnagar - OSPCB",30-10-2025 07:00:00,21.8004996,83.8396977,CO,10,33,24
India,Odisha,Byasanagar,"Ferro Chrome Colony, Byasanagar - OSPCB",30-10-2025 07:00:00,20.94185,86.11510,PM2.5,5,23,13
India,Maharashtra,Navi Mumbai,"Nerul, Navi Mumbai - MPCB",30-10-2025 07:00:00,19.008751,73.016620,NH3,4,4,4
India,Maharashtra,Navi Mumbai,"Sanpada, Navi Mumbai - MPCB",30-10-2025 07:00:00,19.0575752,73.0151367,PM10,26,70,56
India,Maharashtra,Navi Mumbai,"Sanpada, Navi Mumbai - MPCB",30-10-2025 07:00:00,19.0575752,73.0151367,NH3,3,6,4
India,Maharashtra,Navi Mumbai,"Sanpada, Navi Mumbai - MPCB",30-10-2025 07:00:00,19.0575752,73.0151367,SO2,6,10,8
India,Maharashtra,Navi Mumbai,"Sector-2E Kalamboli, Navi Mumbai - MPCB",30-10-2025 07:00:00,19.02579,73.10297,SO2,1,8,1
India,Maharashtra,Navi Mumbai,"Tondare-Taloja, Navi Mumbai - MPCB",30-10-2025 07:00:00,19.0630,73.1209,PM10,57,128,88
India,Odisha,Byasanagar,"Ferro Chrome Colony, Byasanagar - OSPCB",30-10-2025 07:00:00,20.94185,86.11510,PM10,14,45,27
India,Odisha,Byasanagar,"Ferro Chrome Colony, Byasanagar - OSPCB",30-10-2025 07:00:00,20.94185,86.11510,CO,19,83,26
India,Odisha,Rairangpur,"Divisional Forest Office, Rairangpur - OSPCB",30-10-2025 07:00:00,22.265816,86.174829,NO2,15,19,17
India,Odisha,Rairangpur,"Divisional Forest Office, Rairangpur - OSPCB",30-10-2025 07:00:00,22.265816,86.174829,CO,20,37,23
India,Odisha,Rourkela,"Fertilizer Township, Rourkela - OSPCB",30-10-2025 07:00:00,22.18972222,84.86277778,PM2.5,72,137,81
India,Maharashtra,Pimpri-Chinchwad,"Thergaon, Pimpri Chinchwad - MPCB",30-10-2025 07:00:00,18.616318,73.765797,OZONE,5,53,13
India,Maharashtra,Pune,"Bhumkar Nagar, Pune - IITM",30-10-2025 07:00:00,18.605770,73.749976,CO,49,96,58
India,Maharashtra,Pune,"Mhada Colony, Pune - IITM",30-10-2025 07:00:00,18.573040,73.927715,PM2.5,33,63,47
India,Maharashtra,Pune,"Panchawati_Pashan, Pune - IITM",30-10-2025 07:00:00,18.536457,73.805454,PM2.5,12,57,33
India,Rajasthan,Churu,"Subash Chowk, Churu - RSPCB",30-10-2025 07:00:00,28.296139,74.961696,CO,2,38,10
India,Rajasthan,Churu,"Subash Chowk, Churu - RSPCB",30-10-2025 07:00:00,28.296139,74.961696,OZONE,67,129,74
India,Rajasthan,Dausa,"Khatikan Mohalla, Dausa - RSPCB",30-10-2025 07:00:00,26.895552,76.334753,PM2.5,34,312,109
India,Rajasthan,Dausa,"Khatikan Mohalla, Dausa - RSPCB",30-10-2025 07:00:00,26.895552,76.334753,PM10,53,217,108
India,Rajasthan,Dausa,"Khatikan Mohalla, Dausa - RSPCB",30-10-2025 07:00:00,26.895552,76.334753,NH3,7,12,9
India,Rajasthan,Dausa,"Khatikan Mohalla, Dausa - RSPCB",30-10-2025 07:00:00,26.895552,76.334753,SO2,2,5,4
India,Rajasthan,Dausa,"Khatikan Mohalla, Dausa - RSPCB",30-10-2025 07:00:00,26.895552,76.334753,OZONE,18,100,44
India,Rajasthan,Dungarpur,"Bhoiwada, Dungarpur - RSPCB",30-10-2025 07:00:00,23.837789,73.714926,PM2.5,45,100,68
India,Rajasthan,Dungarpur,"Bhoiwada, Dungarpur - RSPCB",30-10-2025 07:00:00,23.837789,73.714926,PM10,51,104,72
India,Rajasthan,Dungarpur,"Bhoiwada, Dungarpur - RSPCB",30-10-2025 07:00:00,23.837789,73.714926,CO,6,44,15
India,Rajasthan,Hanumangarh,"Housing Board, Hanumangarh - RSPCB",30-10-2025 07:00:00,29.610750,74.283608,SO2,4,13,6
India,Odisha,Rourkela,"Fertilizer Township, Rourkela - OSPCB",30-10-2025 07:00:00,22.18972222,84.86277778,SO2,8,10,9
India,Odisha,Rourkela,"Raghunathpali, Rourkela - OSPCB",30-10-2025 07:00:00,22.220833,84.809444,NO2,NA,NA,NA
India,Odisha,Rourkela,"Raghunathpali, Rourkela - OSPCB",30-10-2025 07:00:00,22.220833,84.809444,CO,4,32,13
India,Odisha,Talcher,"Talcher Coalfields,Talcher - OSPCB",30-10-2025 07:00:00,20.9360711,85.1707021,PM2.5,NA,NA,NA
India,Odisha,Talcher,"Talcher Coalfields,Talcher - OSPCB",30-10-2025 07:00:00,20.9360711,85.1707021,PM10,NA,NA,NA
India,Odisha,Tensa,"Barsua Iron Ore Mines, Tensa - OSPCB",30-10-2025 07:00:00,21.869985,85.167016,CO,24,35,27
India,Odisha,Tensa,"Barsua Iron Ore Mines, Tensa - OSPCB",30-10-2025 07:00:00,21.869985,85.167016,OZONE,8,23,11
India,Puducherry,Puducherry,"Jawahar Nagar, Puducherry - PPCC",30-10-2025 07:00:00,11.9309,79.8027,SO2,5,12,8
India,Rajasthan,Barmer,"Railway Colony, Barmer - RSPCB",30-10-2025 07:00:00,25.747299,71.393989,PM2.5,17,73,39
India,Rajasthan,Bharatpur,"Krishna Nagar, Bharatpur - RSPCB",30-10-2025 07:00:00,27.215415,77.50873,NO2,16,99,38
India,Rajasthan,Bharatpur,"Krishna Nagar, Bharatpur - RSPCB",30-10-2025 07:00:00,27.215415,77.50873,OZONE,3,115,31
India,Rajasthan,Bhilwara,"Pratap Nagar, Bhilwara - RSPCB",30-10-2025 07:00:00,25.339605,74.618883,NO2,8,19,12
India,Rajasthan,Bhilwara,"Pratap Nagar, Bhilwara - RSPCB",30-10-2025 07:00:00,25.339605,74.618883,SO2,3,16,7
India,Rajasthan,Bhiwadi,"RIICO Ind. Area III, Bhiwadi - RSPCB",30-10-2025 07:00:00,28.194909,76.862296,PM2.5,239,416,338
India,Rajasthan,Bhiwadi,"RIICO Ind. Area III, Bhiwadi - RSPCB",30-10-2025 07:00:00,28.194909,76.862296,SO2,2,14,9
India,Rajasthan,Bhiwadi,"RIICO Ind. Area III, Bhiwadi - RSPCB",30-10-2025 07:00:00,28.194909,76.862296,CO,8,110,86
India,Punjab,Bathinda,"Hardev Nagar, Bathinda - PPCB",30-10-2025 07:00:00,30.233011,74.907758,PM2.5,28,346,184
India,Punjab,Jalandhar,"Civil Line, Jalandhar - PPCB",30-10-2025 07:00:00,31.321907,75.578914,SO2,16,19,17
India,Punjab,Khanna,"Kalal Majra, Khanna - PPCB",30-10-2025 07:00:00,30.736056 ,76.209694,NH3,7,8,7
India,Punjab,Khanna,"Kalal Majra, Khanna - PPCB",30-10-2025 07:00:00,30.736056 ,76.209694,SO2,5,7,6
India,Punjab,Ludhiana,"Punjab Agricultural University, Ludhiana - PPCB",30-10-2025 07:00:00,30.9028,75.8086,OZONE,20,42,33
India,Punjab,Mandi Gobindgarh,"RIMT University, Mandi Gobindgarh - PPCB",30-10-2025 07:00:00,30.649961,76.331442,CO,14,87,48
India,Punjab,Patiala,"Model Town, Patiala - PPCB",30-10-2025 07:00:00,30.349388,76.366642,PM10,128,196,164
India,Punjab,Patiala,"Model Town, Patiala - PPCB",30-10-2025 07:00:00,30.349388,76.366642,NH3,6,7,6
India,Punjab,Rupnagar,"Ratanpura, Rupnagar - Ambuja Cements",30-10-2025 07:00:00,31.0325454,76.5623046,CO,24,32,28
India,Rajasthan,Ajmer,"Civil Lines,  Ajmer - RSPCB",30-10-2025 07:00:00,26.470859,74.646594,SO2,7,24,18
India,Rajasthan,Banswara,"Rati Talai, Banswara - RSPCB",30-10-2025 07:00:00,23.555190,74.440010,PM10,59,112,84
India,Rajasthan,Banswara,"Rati Talai, Banswara - RSPCB",30-10-2025 07:00:00,23.555190,74.440010,NH3,3,7,4
India,Rajasthan,Bhiwadi,"Vasundhara Nagar_UIT, Bhiwadi - RSPCB",30-10-2025 07:00:00,28.207266,76.829265,PM10,101,226,154
India,Rajasthan,Bhiwadi,"Vasundhara Nagar_UIT, Bhiwadi - RSPCB",30-10-2025 07:00:00,28.207266,76.829265,NH3,5,7,6
India,Rajasthan,Bundi,"New Colony, Bundi - RSPCB",30-10-2025 07:00:00,25.435774,75.644272,PM10,48,119,74
India,Rajasthan,Bundi,"New Colony, Bundi - RSPCB",30-10-2025 07:00:00,25.435774,75.644272,CO,4,32,21
India,Rajasthan,Bundi,"New Colony, Bundi - RSPCB",30-10-2025 07:00:00,25.435774,75.644272,OZONE,24,84,69
India,Rajasthan,Chittorgarh,"Shastri Nagar, Chittorgarh - RSPCB",30-10-2025 07:00:00,24.892047,74.623527,PM10,NA,NA,NA
India,Rajasthan,Chittorgarh,"Shastri Nagar, Chittorgarh - RSPCB",30-10-2025 07:00:00,24.892047,74.623527,CO,11,35,18
India,Rajasthan,Hanumangarh,"Housing Board, Hanumangarh - RSPCB",30-10-2025 07:00:00,29.610750,74.283608,OZONE,6,66,37
India,Rajasthan,Jaipur,"Mansarovar Sector-12, Jaipur - RSPCB",30-10-2025 07:00:00,26.843698,75.766894,CO,23,79,50
India,Rajasthan,Jaipur,"RIICO Sitapura, Jaipur - RSPCB",30-10-2025 07:00:00,26.786682,75.827928,PM2.5,17,293,109
India,Rajasthan,Jaipur,"RIICO Sitapura, Jaipur - RSPCB",30-10-2025 07:00:00,26.786682,75.827928,OZONE,7,89,68
India,Rajasthan,Jhunjhunu,"Indra Nagar, Jhunjhunu - RSPCB",30-10-2025 07:00:00,28.108988,75.386577,PM10,83,176,137
India,Rajasthan,Jodhpur,"Collectorate, Jodhpur - RSPCB",30-10-2025 07:00:00,26.268249,73.0193853,NO2,9,18,13
India,Rajasthan,Jodhpur,"Collectorate, Jodhpur - RSPCB",30-10-2025 07:00:00,26.268249,73.0193853,NH3,4,14,8
India,Rajasthan,Jodhpur,"Digari Kalan, Jodhpur - RSPCB",30-10-2025 07:00:00,26.295810,73.082283,NO2,11,36,19
India,Rajasthan,Jaisalmer,"Sadar Bazar, Jaisalmer - RSPCB",30-10-2025 07:00:00,26.912329,70.909168,CO,14,36,25
India,Rajasthan,Jalore,"Mudtra Sili, Jalore - RSPCB",30-10-2025 07:00:00,25.344694,72.626208,PM10,34,97,60
India,Rajasthan,Udaipur,"Ashok Nagar, Udaipur - RSPCB",30-10-2025 07:00:00,24.5886166,73.6321397,OZONE,2,28,5
India,Sikkim,Gangtok,"Zero Point GICI, Gangtok - SSPCB",30-10-2025 07:00:00,27.338530,88.614099,NO2,1,9,4
India,Sikkim,Gangtok,"Zero Point GICI, Gangtok - SSPCB",30-10-2025 07:00:00,27.338530,88.614099,SO2,1,1,1
India,TamilNadu,Ariyalur,"Keelapalur, Ariyalur - TNPCB",30-10-2025 07:00:00,11.06825,79.07033,NO2,NA,NA,NA
India,TamilNadu,Chengalpattu,"Crescent University, Chengalpattu - TNPCB",30-10-2025 07:00:00,12.8777316,80.0834807,OZONE,4,21,12
India,TamilNadu,Chennai,"Alandur Bus Depot, Chennai - CPCB",30-10-2025 07:00:00,12.9099161,80.1076538,SO2,15,16,15
India,Rajasthan,Sikar,"Radhakishan Pura, Sikar - RSPCB",30-10-2025 07:00:00,27.608912,75.153302,PM2.5,62,324,195
India,Rajasthan,Sikar,"Radhakishan Pura, Sikar - RSPCB",30-10-2025 07:00:00,27.608912,75.153302,NH3,8,14,11
India,Rajasthan,Sirohi,"Vedhaynath Colony, Sirohi - RSPCB",30-10-2025 07:00:00,24.885261,72.857549,NO2,10,33,17
India,Rajasthan,Sirohi,"Vedhaynath Colony, Sirohi - RSPCB",30-10-2025 07:00:00,24.885261,72.857549,NH3,NA,NA,NA
India,Rajasthan,Sri Ganganagar,"Old City, Sri Ganganagar - RSPCB",30-10-2025 07:00:00,29.931624,73.864511,PM2.5,40,239,105
India,Rajasthan,Sri Ganganagar,"Old City, Sri Ganganagar - RSPCB",30-10-2025 07:00:00,29.931624,73.864511,NH3,4,32,9
India,Rajasthan,Tonk,"Shastri Nagar, Tonk - RSPCB",30-10-2025 07:00:00,26.159933,75.780517,PM2.5,61,241,150
India,Rajasthan,Tonk,"Shastri Nagar, Tonk - RSPCB",30-10-2025 07:00:00,26.159933,75.780517,OZONE,NA,NA,NA
India,TamilNadu,Karur,"Kamadenu Nagar, Karur - TNPCB",30-10-2025 07:00:00,10.967820,78.080882,NH3,3,4,3
India,TamilNadu,Karur,"Kamadenu Nagar, Karur - TNPCB",30-10-2025 07:00:00,10.967820,78.080882,SO2,14,16,15
India,TamilNadu,Madurai,"Uchapatti, Madurai - TNPCB",30-10-2025 07:00:00,9.865935,78.022669,PM2.5,NA,NA,NA
India,TamilNadu,Nagapattinam,"Velippalayam, Nagapattinam - TNPCB",30-10-2025 07:00:00,10.798548,79.838212,PM2.5,10,40,22
India,TamilNadu,Nagapattinam,"Velippalayam, Nagapattinam - TNPCB",30-10-2025 07:00:00,10.798548,79.838212,NO2,5,5,5
India,TamilNadu,Nagapattinam,"Velippalayam, Nagapattinam - TNPCB",30-10-2025 07:00:00,10.798548,79.838212,CO,12,21,15
India,TamilNadu,Namakkal,"Ponnusamy Nagar, Namakkal - TNPCB",30-10-2025 07:00:00,11.273992,78.163545,NO2,NA,NA,NA
India,TamilNadu,Chennai,"Arumbakkam, Chennai - TNPCB",30-10-2025 07:00:00,13.0664,80.2112 ,PM2.5,19,72,40
India,TamilNadu,Chennai,"Arumbakkam, Chennai - TNPCB",30-10-2025 07:00:00,13.0664,80.2112 ,NO2,7,20,14
India,TamilNadu,Chennai,"Kodungaiyur, Chennai - TNPCB",30-10-2025 07:00:00,13.1278,80.2642,CO,14,42,22
India,TamilNadu,Chennai,"Manali, Chennai - CPCB",30-10-2025 07:00:00,13.164544,80.26285,NH3,NA,NA,NA
India,TamilNadu,Chennai,"Perungudi, Chennai - TNPCB",30-10-2025 07:00:00,12.9533,80.2357,PM10,22,500,104
India,TamilNadu,Chennai,"Perungudi, Chennai - TNPCB",30-10-2025 07:00:00,12.9533,80.2357,SO2,2,9,5
India,TamilNadu,Chennai,"Perungudi, Chennai - TNPCB",30-10-2025 07:00:00,12.9533,80.2357,CO,21,52,34
India,TamilNadu,Cuddalore,"Semmandalam, Cuddalore - TNPCB",30-10-2025 07:00:00,11.7637683,79.7499835,NO2,NA,NA,NA
India,TamilNadu,Dindigul,"Mendonsa Colony, Dindigul - TNPCB",30-10-2025 07:00:00,10.358535,77.984321,CO,13,14,13
India,TamilNadu,Hosur,"SIPCOT Phase-1, Hosur - TNPCB",30-10-2025 07:00:00,12.746998,77.813811,NO2,1,2,2
India,TamilNadu,Hosur,"SIPCOT Phase-1, Hosur - TNPCB",30-10-2025 07:00:00,12.746998,77.813811,NH3,1,1,1
India,TamilNadu,Kanchipuram,"Kilambi, Kanchipuram - TNPCB",30-10-2025 07:00:00,12.864618,79.659968,NO2,1,13,6
India,TamilNadu,Kanchipuram,"Kilambi, Kanchipuram - TNPCB",30-10-2025 07:00:00,12.864618,79.659968,SO2,1,5,2
India,Rajasthan,Jodhpur,"Mandor, Jodhpur - RSPCB",30-10-2025 07:00:00,26.358805,73.047444,SO2,2,3,3
India,Rajasthan,Jodhpur,"Mandor, Jodhpur - RSPCB",30-10-2025 07:00:00,26.358805,73.047444,CO,8,26,20
India,Rajasthan,Jodhpur,"Mandor, Jodhpur - RSPCB",30-10-2025 07:00:00,26.358805,73.047444,OZONE,32,76,45
India,Rajasthan,Jodhpur,"Samrat Ashok Udhyan, Jodhpur - RSPCB",30-10-2025 07:00:00,26.253384,72.976571,NO2,15,53,26
India,Rajasthan,Jodhpur,"Samrat Ashok Udhyan, Jodhpur - RSPCB",30-10-2025 07:00:00,26.253384,72.976571,CO,25,40,30
India,Rajasthan,Karauli,"Satyawati Vihar, Karauli - RSPCB",30-10-2025 07:00:00,26.506177,77.025989,PM2.5,68,216,101
India,Rajasthan,Kota,"Nayapura, Kota - RSPCB",30-10-2025 07:00:00,25.196024,75.855668,NH3,2,7,5
India,Rajasthan,Kota,"Nayapura, Kota - RSPCB",30-10-2025 07:00:00,25.196024,75.855668,SO2,1,13,7
India,Rajasthan,Kota,"Shrinath Puram, Kota - RSPCB",30-10-2025 07:00:00,25.14389,75.821256,PM2.5,58,97,81
India,Rajasthan,Kota,"Shrinath Puram, Kota - RSPCB",30-10-2025 07:00:00,25.14389,75.821256,PM10,62,98,82
India,Rajasthan,Nagaur,"Karni Colony, Nagaur - RSPCB",30-10-2025 07:00:00,27.213494,73.734444,NO2,10,42,19
India,Rajasthan,Nagaur,"Karni Colony, Nagaur - RSPCB",30-10-2025 07:00:00,27.213494,73.734444,NH3,4,6,5
India,Rajasthan,Pratapgarh,"Pragati Nagar, Pratapgarh - RSPCB",30-10-2025 07:00:00,24.041198,74.780702,NH3,NA,NA,NA
India,Rajasthan,Rajsamand,"Dhoinda, Rajsamand - RSPCB",30-10-2025 07:00:00,25.036360,73.883502,PM10,51,83,63
India,Rajasthan,Rajsamand,"Dhoinda, Rajsamand - RSPCB",30-10-2025 07:00:00,25.036360,73.883502,SO2,6,13,9
India,Rajasthan,Sawai Madhopur,"Sahu Nagar, Sawai Madhopur - RSPCB",30-10-2025 07:00:00,26.031443,76.359327,PM2.5,24,112,75
India,Rajasthan,Sawai Madhopur,"Sahu Nagar, Sawai Madhopur - RSPCB",30-10-2025 07:00:00,26.031443,76.359327,OZONE,28,341,44
India,TamilNadu,Chennai,"Perungudi, Chennai - TNPCB",30-10-2025 07:00:00,12.9533,80.2357,OZONE,1,18,3
India,TamilNadu,Chennai,"Royapuram, Chennai - TNPCB",30-10-2025 07:00:00,13.1036,80.2909,PM2.5,13,52,31
India,TamilNadu,Chennai,"Velachery Res. Area, Chennai - CPCB",30-10-2025 07:00:00,13.0052189,80.2398125,NH3,3,4,4
India,TamilNadu,Chennai,"Velachery Res. Area, Chennai - CPCB",30-10-2025 07:00:00,13.0052189,80.2398125,CO,34,39,35
India,Uttar_Pradesh,Agra,"Shahjahan Garden, Agra - UPPCB",30-10-2025 07:00:00,27.169338,78.03582,SO2,15,25,22
India,Uttar_Pradesh,Agra,"Shahjahan Garden, Agra - UPPCB",30-10-2025 07:00:00,27.169338,78.03582,CO,8,22,18
India,Uttar_Pradesh,Agra,"Shastripuram, Agra - UPPCB",30-10-2025 07:00:00,27.19862,77.92066,PM10,59,130,102
India,Uttar_Pradesh,Agra,"Shastripuram, Agra - UPPCB",30-10-2025 07:00:00,27.19862,77.92066,NO2,40,51,43
India,Uttar_Pradesh,Agra,"Shastripuram, Agra - UPPCB",30-10-2025 07:00:00,27.19862,77.92066,SO2,8,17,12
India,Uttar_Pradesh,Baghpat,"Sardar Patel Inter College, Baghpat - UPPCB",30-10-2025 07:00:00,28.964949,77.278761,PM10,149,286,239
India,Uttar_Pradesh,Baghpat,"Sardar Patel Inter College, Baghpat - UPPCB",30-10-2025 07:00:00,28.964949,77.278761,OZONE,2,224,11
India,Uttar_Pradesh,Bareilly,"Rajendra Nagar, Bareilly - UPPCB",30-10-2025 07:00:00,28.38910936,79.42963708,NH3,1,1,1
India,Uttar_Pradesh,Agra,"Manoharpur, Agra - UPPCB",30-10-2025 07:00:00,27.23711,78.01936,PM2.5,30,86,52
India,Uttar_Pradesh,Agra,"Manoharpur, Agra - UPPCB",30-10-2025 07:00:00,27.23711,78.01936,NO2,30,30,30
India,Uttar_Pradesh,Agra,"Manoharpur, Agra - UPPCB",30-10-2025 07:00:00,27.23711,78.01936,OZONE,8,8,8
India,Uttar_Pradesh,Agra,"Rohta, Agra - UPPCB",30-10-2025 07:00:00,27.106972,78.000111,PM2.5,22,75,47
India,Uttar_Pradesh,Agra,"Rohta, Agra - UPPCB",30-10-2025 07:00:00,27.106972,78.000111,SO2,14,29,21
India,Uttar_Pradesh,Agra,"Rohta, Agra - UPPCB",30-10-2025 07:00:00,27.106972,78.000111,OZONE,13,15,15
India,Uttar_Pradesh,Agra,"Sanjay Palace, Agra - UPPCB",30-10-2025 07:00:00,27.19865833,78.00598056,OZONE,5,84,6
India,Uttar_Pradesh,Agra,"Shahjahan Garden, Agra - UPPCB",30-10-2025 07:00:00,27.169338,78.03582,PM2.5,5,43,26
India,Uttar_Pradesh,Agra,"Shahjahan Garden, Agra - UPPCB",30-10-2025 07:00:00,27.169338,78.03582,NO2,28,29,28
India,Telangana,Hyderabad,"IITH Kandi, Hyderabad - TSPCB",30-10-2025 07:00:00,17.585705,78.126199,PM10,63,80,69
India,Telangana,Hyderabad,"IITH Kandi, Hyderabad - TSPCB",30-10-2025 07:00:00,17.585705,78.126199,CO,14,34,33
India,Telangana,Hyderabad,"Kokapet, Hyderabad - TSPCB",30-10-2025 07:00:00,17.393559,78.339194,NO2,5,12,7
India,Telangana,Hyderabad,"Kokapet, Hyderabad - TSPCB",30-10-2025 07:00:00,17.393559,78.339194,NH3,1,2,1
India,Telangana,Hyderabad,"Nacharam_TSIIC IALA, Hyderabad - TSPCB",30-10-2025 07:00:00,17.429398,78.569354,SO2,NA,NA,NA
India,Telangana,Hyderabad,"New Malakpet, Hyderabad - TSPCB",30-10-2025 07:00:00,17.37206,78.50864,NO2,9,13,10
India,TamilNadu,Ooty,"Bombay Castel, Ooty - TNPCB",30-10-2025 07:00:00,11.4068288,76.7138973,SO2,6,11,9
India,TamilNadu,Perundurai,"SIPCOT Industrial Park, Perundurai - TNPCB",30-10-2025 07:00:00,11.258242,77.552761,OZONE,10,14,14
India,TamilNadu,Ramanathapuram,"Chalai Bazaar, Ramanathapuram - TNPCB",30-10-2025 07:00:00,9.36399,78.831977,PM10,25,50,34
India,TamilNadu,Ranipet,"VOC Nagar_SIPCOT, Ranipet - TNPCB",30-10-2025 07:00:00,12.952707,79.30394,PM2.5,25,75,48
India,Telangana,Hyderabad,"New Malakpet, Hyderabad - TSPCB",30-10-2025 07:00:00,17.37206,78.50864,OZONE,19,32,21
India,Telangana,Hyderabad,"Sanathnagar, Hyderabad - TSPCB",30-10-2025 07:00:00,17.4559458,78.4332152,CO,3,28,11
India,Telangana,Hyderabad,"Somajiguda, Hyderabad - TSPCB",30-10-2025 07:00:00,17.417094,78.457437,SO2,12,18,15
India,Tripura,Agartala,"Bardowali, Agartala - Tripura SPCB",30-10-2025 07:00:00,23.8175497,91.2726974,PM2.5,12,54,31
India,TamilNadu,Salem,"Sona College of Technology, Salem - TNPCB",30-10-2025 07:00:00,11.679111,78.125052,PM2.5,NA,NA,NA
India,TamilNadu,Salem,"Sona College of Technology, Salem - TNPCB",30-10-2025 07:00:00,11.679111,78.125052,OZONE,20,20,20
India,TamilNadu,Thoothukudi,"Meelavittan, Thoothukudi - TNPCB",30-10-2025 07:00:00,8.816428 ,78.099039,NO2,1,16,6
India,TamilNadu,Tiruchirappalli,"St Joseph College, Tiruchirappalli - TNPCB",30-10-2025 07:00:00,10.830158,78.691849,OZONE,4,31,22
India,TamilNadu,Virudhunagar,"Collectorate Office, Virudhunagar - TNPCB",30-10-2025 07:00:00,9.559382,77.948828,CO,16,21,18
India,Telangana,Hyderabad,"ICRISAT Patancheru, Hyderabad - TSPCB",30-10-2025 07:00:00,17.518400,78.278777,OZONE,12,26,19
India,Telangana,Hyderabad,"IDA Pashamylaram, Hyderabad - TSPCB",30-10-2025 07:00:00,17.5316895,78.218939,NH3,NA,NA,NA
India,Uttar_Pradesh,Firozabad,"Vibhab Nagar, Firozabad - UPPCB",30-10-2025 07:00:00,27.1594,78.3953,PM2.5,30,100,53
India,Uttar_Pradesh,Firozabad,"Vibhab Nagar, Firozabad - UPPCB",30-10-2025 07:00:00,27.1594,78.3953,PM10,23,78,41
India,Uttar_Pradesh,Firozabad,"Vibhab Nagar, Firozabad - UPPCB",30-10-2025 07:00:00,27.1594,78.3953,NO2,15,15,15
India,Uttar_Pradesh,Moradabad,"Employment Office, Moradabad - UPPCB",30-10-2025 07:00:00,28.88528,78.73880,PM2.5,67,186,109
India,Uttar_Pradesh,Moradabad,"Employment Office, Moradabad - UPPCB",30-10-2025 07:00:00,28.88528,78.73880,PM10,70,130,106
India,Uttar_Pradesh,Moradabad,"Employment Office, Moradabad - UPPCB",30-10-2025 07:00:00,28.88528,78.73880,NO2,15,16,16
India,Uttar_Pradesh,Moradabad,"Employment Office, Moradabad - UPPCB",30-10-2025 07:00:00,28.88528,78.73880,CO,26,86,41
India,Uttar_Pradesh,Moradabad,"Jigar Colony, Moradabad - UPPCB",30-10-2025 07:00:00,28.856664,78.772638,PM10,94,158,118
India,Uttar_Pradesh,Moradabad,"Jigar Colony, Moradabad - UPPCB",30-10-2025 07:00:00,28.856664,78.772638,NH3,6,13,6
India,Uttar_Pradesh,Moradabad,"Kashiram Nagar, Moradabad - UPPCB",30-10-2025 07:00:00,28.849399,78.742362,PM2.5,65,236,110
India,Uttar_Pradesh,Moradabad,"Kashiram Nagar, Moradabad - UPPCB",30-10-2025 07:00:00,28.849399,78.742362,CO,24,70,35
India,Uttar_Pradesh,Moradabad,"Transport Nagar, Moradabad - UPPCB",30-10-2025 07:00:00,28.802625,78.753728,SO2,33,37,34
India,Uttar_Pradesh,Meerut,"Jai Bhim Nagar, Meerut - UPPCB",30-10-2025 07:00:00,28.9535882,77.7622941,NO2,28,75,48
India,Uttar_Pradesh,Meerut,"Jai Bhim Nagar, Meerut - UPPCB",30-10-2025 07:00:00,28.9535882,77.7622941,NH3,6,6,6
India,Uttar_Pradesh,Meerut,"Jai Bhim Nagar, Meerut - UPPCB",30-10-2025 07:00:00,28.9535882,77.7622941,OZONE,9,181,19
India,Uttar_Pradesh,Meerut,"Pallavpuram Phase 2, Meerut - UPPCB",30-10-2025 07:00:00,29.063510,77.709723,CO,8,73,22
India,Uttar_Pradesh,Moradabad,"Buddhi Vihar, Moradabad - UPPCB",30-10-2025 07:00:00,28.83526,78.74460,PM2.5,46,226,91
India,Uttar_Pradesh,Moradabad,"Buddhi Vihar, Moradabad - UPPCB",30-10-2025 07:00:00,28.83526,78.74460,PM10,80,156,118
India,Uttar_Pradesh,Moradabad,"Buddhi Vihar, Moradabad - UPPCB",30-10-2025 07:00:00,28.83526,78.74460,NO2,25,29,29
India,Uttar_Pradesh,Moradabad,"Buddhi Vihar, Moradabad - UPPCB",30-10-2025 07:00:00,28.83526,78.74460,NH3,5,5,5
India,Uttar_Pradesh,Noida,"Sector-116, Noida - UPPCB",30-10-2025 07:00:00,28.569230,77.393848,SO2,16,29,22
India,Uttar_Pradesh,Prayagraj,"Jhunsi, Prayagraj - UPPCB",30-10-2025 07:00:00,25.425602,81.917152,PM10,25,112,59
India,Uttar_Pradesh,Prayagraj,"Jhunsi, Prayagraj - UPPCB",30-10-2025 07:00:00,25.425602,81.917152,OZONE,16,49,18
India,Uttar_Pradesh,Prayagraj,"Motilal Nehru NIT, Prayagraj - UPPCB",30-10-2025 07:00:00,25.494,81.863,SO2,36,37,37
India,Uttar_Pradesh,Prayagraj,"Nagar Nigam, Prayagraj - UPPCB",30-10-2025 07:00:00,25.44919916 ,81.82735986 ,NO2,5,5,5
India,Uttar_Pradesh,Prayagraj,"Nagar Nigam, Prayagraj - UPPCB",30-10-2025 07:00:00,25.44919916 ,81.82735986 ,CO,16,30,20
India,Uttar_Pradesh,Prayagraj,"Nagar Nigam, Prayagraj - UPPCB",30-10-2025 07:00:00,25.44919916 ,81.82735986 ,OZONE,14,23,20
India,Uttar_Pradesh,Lucknow,"Lalbagh, Lucknow - CPCB",30-10-2025 07:00:00,26.8458805,80.9365541,PM10,75,149,113
India,Uttar_Pradesh,Lucknow,"Lalbagh, Lucknow - CPCB",30-10-2025 07:00:00,26.8458805,80.9365541,CO,20,108,56
India,Uttar_Pradesh,Lucknow,"Talkatora District Industries Center, Lucknow - CPCB",30-10-2025 07:00:00,26.83399722,80.8917361,PM10,10,127,88
India,Uttar_Pradesh,Lucknow,"Talkatora District Industries Center, Lucknow - CPCB",30-10-2025 07:00:00,26.83399722,80.8917361,NH3,8,12,10
India,Uttar_Pradesh,Meerut,"Ganga Nagar, Meerut - UPPCB",30-10-2025 07:00:00,28.999264,77.7590354,PM10,134,448,272
India,Uttar_Pradesh,Jhansi,"Shivaji Nagar, Jhansi - UPPCB",30-10-2025 07:00:00,25.4547,78.6039,NH3,4,4,4
India,Uttar_Pradesh,Jhansi,"Shivaji Nagar, Jhansi - UPPCB",30-10-2025 07:00:00,25.4547,78.6039,SO2,9,15,12
India,Uttar_Pradesh,Jhansi,"Shivaji Nagar, Jhansi - UPPCB",30-10-2025 07:00:00,25.4547,78.6039,CO,8,10,8
India,Uttar_Pradesh,Kanpur,"FTI Kidwai Nagar, Kanpur - UPPCB",30-10-2025 07:00:00,26.428282,80.327067,PM2.5,25,95,61
India,Uttar_Pradesh,Kanpur,"FTI Kidwai Nagar, Kanpur - UPPCB",30-10-2025 07:00:00,26.428282,80.327067,PM10,35,91,67
India,Uttar_Pradesh,Kanpur,"FTI Kidwai Nagar, Kanpur - UPPCB",30-10-2025 07:00:00,26.428282,80.327067,NO2,25,25,25
India,Uttar_Pradesh,Varanasi,"Bhelupur, Varanasi - UPPCB",30-10-2025 07:00:00,25.301778,82.996789,PM2.5,10,43,24
India,Uttar_Pradesh,Varanasi,"Bhelupur, Varanasi - UPPCB",30-10-2025 07:00:00,25.301778,82.996789,NO2,8,8,8
India,Uttar_Pradesh,Varanasi,"Bhelupur, Varanasi - UPPCB",30-10-2025 07:00:00,25.301778,82.996789,NH3,1,1,1
India,Uttar_Pradesh,Varanasi,"Maldahiya, Varanasi - UPPCB",30-10-2025 07:00:00,25.32393,82.99687,PM10,17,70,43
India,Uttar_Pradesh,Vrindavan,"Omex Eternity, Vrindavan - UPPCB",30-10-2025 07:00:00,27.5714090,77.6557570,PM2.5,22,78,51
India,Uttar_Pradesh,Kanpur,"NSI Kalyanpur, Kanpur - UPPCB",30-10-2025 07:00:00,26.509954,80.249612,PM10,NA,NA,NA
India,Uttar_Pradesh,Kanpur,"NSI Kalyanpur, Kanpur - UPPCB",30-10-2025 07:00:00,26.509954,80.249612,OZONE,NA,NA,NA
India,Uttar_Pradesh,Kanpur,"Nehru Nagar, Kanpur - UPPCB",30-10-2025 07:00:00,26.4703136,80.3229863,NO2,32,53,42
India,Uttar_Pradesh,Kanpur,"Nehru Nagar, Kanpur - UPPCB",30-10-2025 07:00:00,26.4703136,80.3229863,SO2,13,15,14
India,Uttar_Pradesh,Khurja,"Kalindi Kunj, Khurja - UPPCB",30-10-2025 07:00:00,28.2348927,77.8683002,NO2,3,4,4
India,Uttar_Pradesh,Ghaziabad,"Sanjay Nagar, Ghaziabad - UPPCB",30-10-2025 07:00:00,28.685382,77.453839,NH3,10,14,12
India,Uttar_Pradesh,Ghaziabad,"Vasundhara, Ghaziabad - UPPCB",30-10-2025 07:00:00,28.6603346,77.3572563,NH3,14,21,17
India,Uttar_Pradesh,Gorakhpur,"Madan Mohan Malaviya University of Technology, Gorakhpur - UPPCB",30-10-2025 07:00:00,26.730136,83.433859,NO2,11,12,11
India,Uttar_Pradesh,Noida,"Sector - 125, Noida - UPPCB",30-10-2025 07:00:00,28.5447608,77.3231257,PM2.5,348,453,409
India,Uttarakhand,Dehradun,"Doon University, Dehradun - UKPCB",30-10-2025 07:00:00,30.269444,78.044167,PM2.5,7,126,52
India,Uttarakhand,Dehradun,"Doon University, Dehradun - UKPCB",30-10-2025 07:00:00,30.269444,78.044167,PM10,23,90,42
India,Uttarakhand,Kashipur,"Govt. Girls Inter College, Kashipur - UKPCB",30-10-2025 07:00:00,29.2124114,78.9611753,NO2,8,60,18
India,West_Bengal,Asansol,"Evelyn Lodge, Asansol - WBPCB",30-10-2025 07:00:00,23.6979360,86.9443950,SO2,2,4,3
India,West_Bengal,Asansol,"Trivenidevi Bhalotia College, Asansol - WBPCB",30-10-2025 07:00:00,23.616515,87.119133,PM2.5,9,38,21
India,West_Bengal,Asansol,"Trivenidevi Bhalotia College, Asansol - WBPCB",30-10-2025 07:00:00,23.616515,87.119133,NH3,3,3,3
India,West_Bengal,Asansol,"Trivenidevi Bhalotia College, Asansol - WBPCB",30-10-2025 07:00:00,23.616515,87.119133,SO2,5,8,6
India,West_Bengal,Barrackpore,"SVSPA Campus, Barrackpore - WBPCB",30-10-2025 07:00:00,22.7605581,88.3617589,PM10,17,62,27
India,West_Bengal,Barrackpore,"SVSPA Campus, Barrackpore - WBPCB",30-10-2025 07:00:00,22.7605581,88.3617589,SO2,7,8,8
India,West_Bengal,Durgapur,"Mahishkapur Road_B-Zone, Durgapur - WBPCB",30-10-2025 07:00:00,23.567923,87.306843,NO2,6,30,11
India,West_Bengal,Durgapur,"PCBL Residential Complex, Durgapur - WBPCB",30-10-2025 07:00:00,23.5087640,87.3544400,PM2.5,6,26,15
India,West_Bengal,Durgapur,"PCBL Residential Complex, Durgapur - WBPCB",30-10-2025 07:00:00,23.5087640,87.3544400,PM10,9,32,18
India,West_Bengal,Durgapur,"Womens College_City Center, Durgapur - WBPCB (Formerly known as Sidhu Kanhu Indoor Stadium)",30-10-2025 07:00:00,23.549395,87.300496,PM2.5,4,28,13
India,West_Bengal,Durgapur,"Womens College_City Center, Durgapur - WBPCB (Formerly known as Sidhu Kanhu Indoor Stadium)",30-10-2025 07:00:00,23.549395,87.300496,NO2,23,28,25
India,West_Bengal,Durgapur,"Womens College_City Center, Durgapur - WBPCB (Formerly known as Sidhu Kanhu Indoor Stadium)",30-10-2025 07:00:00,23.549395,87.300496,CO,20,40,26
India,West_Bengal,Haldia,"Priyambada Housing Estate, Haldia - WBPCB",30-10-2025 07:00:00,22.06047,88.109737,SO2,12,15,13
India,West_Bengal,Howrah,"Belur Math, Howrah - WBPCB",30-10-2025 07:00:00,22.629801,88.352017,PM2.5,13,47,28
India,West_Bengal,Howrah,"Belur Math, Howrah - WBPCB",30-10-2025 07:00:00,22.629801,88.352017,NH3,7,13,10
India,West_Bengal,Howrah,"Botanical Garden, Howrah - WBPCB",30-10-2025 07:00:00,22.554954,88.292568,PM2.5,5,28,15
India,West_Bengal,Howrah,"Botanical Garden, Howrah - WBPCB",30-10-2025 07:00:00,22.554954,88.292568,NO2,14,86,44
India,West_Bengal,Howrah,"Botanical Garden, Howrah - WBPCB",30-10-2025 07:00:00,22.554954,88.292568,NH3,2,3,2
India,West_Bengal,Howrah,"Botanical Garden, Howrah - WBPCB",30-10-2025 07:00:00,22.554954,88.292568,SO2,5,15,10
India,West_Bengal,Howrah,"Ghusuri, Howrah - WBPCB",30-10-2025 07:00:00,22.611968,88.347422,NO2,21,37,26
India,West_Bengal,Howrah,"Padmapukur, Howrah - WBPCB",30-10-2025 07:00:00,22.5687319,88.2797276,NH3,3,11,8
India,West_Bengal,Howrah,"Padmapukur, Howrah - WBPCB",30-10-2025 07:00:00,22.5687319,88.2797276,SO2,2,7,5
India,West_Bengal,Howrah,"Padmapukur, Howrah - WBPCB",30-10-2025 07:00:00,22.5687319,88.2797276,CO,7,62,20
India,West_Bengal,Howrah,"Padmapukur, Howrah - WBPCB",30-10-2025 07:00:00,22.5687319,88.2797276,OZONE,8,27,11
India,West_Bengal,Kolkata,"Ballygunge, Kolkata - WBPCB",30-10-2025 07:00:00,22.5367507,88.3638022,PM2.5,15,40,23
India,West_Bengal,Kolkata,"Ballygunge, Kolkata - WBPCB",30-10-2025 07:00:00,22.5367507,88.3638022,PM10,13,43,23
India,West_Bengal,Kolkata,"Ballygunge, Kolkata - WBPCB",30-10-2025 07:00:00,22.5367507,88.3638022,NO2,27,67,47
India,West_Bengal,Kolkata,"Bidhannagar, Kolkata - WBPCB",30-10-2025 07:00:00,22.58157048,88.41002457,NO2,13,18,15
India,West_Bengal,Kolkata,"Fort William, Kolkata - WBPCB",30-10-2025 07:00:00,22.556640,88.342674,NH3,7,12,10
India,West_Bengal,Kolkata,"Jadavpur, Kolkata - WBPCB",30-10-2025 07:00:00,22.49929,88.36917,PM10,34,82,49
India,West_Bengal,Kolkata,"Jadavpur, Kolkata - WBPCB",30-10-2025 07:00:00,22.49929,88.36917,NO2,1,19,6
India,West_Bengal,Kolkata,"Rabindra Bharati University, Kolkata - WBPCB",30-10-2025 07:00:00,22.627847,88.380669,NO2,46,84,62
India,West_Bengal,Kolkata,"Rabindra Sarobar, Kolkata - WBPCB",30-10-2025 07:00:00,22.51106,88.35142,OZONE,2,10,5
India,West_Bengal,Kolkata,"Victoria, Kolkata - WBPCB",30-10-2025 07:00:00,22.5448082,88.3403691,PM2.5,26,44,34
India,West_Bengal,Siliguri,"Ward-32 Bapupara, Siliguri - WBPCB",30-10-2025 07:00:00,26.6879226,88.4152495,PM10,33,144,75
India,Andhra_Pradesh,Anantapur,"Gulzarpet, Anantapur - APPCB",30-10-2025 07:00:00,14.675886,77.593027,CO,10,46,15
India,Andhra_Pradesh,Anantapur,"Gulzarpet, Anantapur - APPCB",30-10-2025 07:00:00,14.675886,77.593027,OZONE,29,47,33
India,Andhra_Pradesh,Chittoor,"Gangineni Cheruvu, Chittoor - APPCB",30-10-2025 07:00:00,13.204880,79.097889,NH3,3,5,4
India,Andhra_Pradesh,Chittoor,"Gangineni Cheruvu, Chittoor - APPCB",30-10-2025 07:00:00,13.204880,79.097889,OZONE,52,57,55
India,Andhra_Pradesh,Kadapa,"Yerramukkapalli, Kadapa - APPCB",30-10-2025 07:00:00,14.465052,78.824187,NO2,21,21,21
India,Andhra_Pradesh,Kadapa,"Yerramukkapalli, Kadapa - APPCB",30-10-2025 07:00:00,14.465052,78.824187,NH3,3,3,3
India,Andhra_Pradesh,Kadapa,"Yerramukkapalli, Kadapa - APPCB",30-10-2025 07:00:00,14.465052,78.824187,SO2,12,12,12
India,Andhra_Pradesh,Kadapa,"Yerramukkapalli, Kadapa - APPCB",30-10-2025 07:00:00,14.465052,78.824187,OZONE,10,12,11
India,Andhra_Pradesh,Rajamahendravaram,"Anand Kala Kshetram, Rajamahendravaram - APPCB",30-10-2025 07:00:00,16.9872867,81.7363176,PM2.5,6,62,34
India,Andhra_Pradesh,Rajamahendravaram,"Anand Kala Kshetram, Rajamahendravaram - APPCB",30-10-2025 07:00:00,16.9872867,81.7363176,NH3,1,2,2
India,Andhra_Pradesh,Visakhapatnam,"GVM Corporation, Visakhapatnam - APPCB",30-10-2025 07:00:00,17.72,83.3,NH3,3,3,3
India,Arunachal_Pradesh,Naharlagun,"Naharlagun, Naharlagun - APSPCB",30-10-2025 07:00:00,27.103358,93.679645,PM10,36,121,71
India,Arunachal_Pradesh,Naharlagun,"Naharlagun, Naharlagun - APSPCB",30-10-2025 07:00:00,27.103358,93.679645,NO2,6,6,6
India,Arunachal_Pradesh,Naharlagun,"Naharlagun, Naharlagun - APSPCB",30-10-2025 07:00:00,27.103358,93.679645,CO,6,14,8
India,Assam,Byrnihat,"Central Academy for SFS, Byrnihat - PCBA",30-10-2025 07:00:00,26.071318,91.87488,PM2.5,NA,NA,NA
India,Assam,Byrnihat,"Central Academy for SFS, Byrnihat - PCBA",30-10-2025 07:00:00,26.071318,91.87488,CO,34,60,48
India,Assam,Guwahati,"IITG, Guwahati - PCBA",30-10-2025 07:00:00,26.2028636,91.70046436,PM10,56,114,81
India,Assam,Guwahati,"IITG, Guwahati - PCBA",30-10-2025 07:00:00,26.2028636,91.70046436,NH3,5,5,5
India,Bihar,Chhapra,"Darshan Nagar, Chhapra - BSPCB",30-10-2025 07:00:00,25.7808257,84.7446768,NO2,2,3,2
India,Bihar,Chhapra,"Darshan Nagar, Chhapra - BSPCB",30-10-2025 07:00:00,25.7808257,84.7446768,SO2,19,23,21
India,Bihar,Chhapra,"Darshan Nagar, Chhapra - BSPCB",30-10-2025 07:00:00,25.7808257,84.7446768,CO,4,14,6
India,Bihar,Gaya,"Kareemganj, Gaya - BSPCB",30-10-2025 07:00:00,24.792403,84.992416,SO2,15,17,16
India,Bihar,Gaya,"Kareemganj, Gaya - BSPCB",30-10-2025 07:00:00,24.792403,84.992416,OZONE,4,63,25
India,Bihar,Gaya,"SFTI Kusdihra, Gaya - BSPCB",30-10-2025 07:00:00,24.762518,84.982348,CO,11,28,22
India,Bihar,Hajipur,"Industrial Area, Hajipur - BSPCB",30-10-2025 07:00:00,25.697189,85.245900,NH3,4,7,6
India,Bihar,Hajipur,"Industrial Area, Hajipur - BSPCB",30-10-2025 07:00:00,25.697189,85.245900,CO,10,50,15
India,Andhra_Pradesh,Tirumala,"Toll Gate, Tirumala - APPCB",30-10-2025 07:00:00,13.67,79.35,SO2,6,7,6
India,Andhra_Pradesh,Tirumala,"Toll Gate, Tirumala - APPCB",30-10-2025 07:00:00,13.67,79.35,OZONE,9,22,14
India,Andhra_Pradesh,Tirupati,"Vaikuntapuram, Tirupati - APPCB",30-10-2025 07:00:00,13.615387,79.409230,SO2,16,19,17
India,Andhra_Pradesh,Vijayawada,"HB Colony, Vijayawada - APPCB",30-10-2025 07:00:00,16.536107,80.594233,NO2,13,13,13
India,Andhra_Pradesh,Vijayawada,"Rajiv Gandhi Park, Vijayawada - APPCB",30-10-2025 07:00:00,16.509717,80.612222,NO2,23,48,31
India,Andhra_Pradesh,Vijayawada,"Rajiv Nagar, Vijayawada - APPCB",30-10-2025 07:00:00,16.554731,80.649110,PM10,NA,NA,NA
India,Bihar,Aurangabad,"Gurdeo Nagar, Aurangabad - BSPCB",30-10-2025 07:00:00,24.75746,84.366208,NO2,NA,NA,NA
India,Bihar,Aurangabad,"Gurdeo Nagar, Aurangabad - BSPCB",30-10-2025 07:00:00,24.75746,84.366208,OZONE,NA,NA,NA
India,Bihar,Begusarai,"Lohiyanagar, Begusarai - BSPCB",30-10-2025 07:00:00,25.42742023,86.13886079,PM2.5,NA,NA,NA
India,Bihar,Bettiah,"Kamalnath Nagar, Bettiah - BSPCB",30-10-2025 07:00:00,26.80365,84.51954,OZONE,22,23,23
India,Bihar,Bhagalpur,"DM Office_Kachari Chowk, Bhagalpur - BSPCB",30-10-2025 07:00:00,25.251013,86.989001,PM2.5,20,85,52
India,Assam,Guwahati,"Pan Bazaar, Guwahati - PCBA",30-10-2025 07:00:00,26.187500,91.744194,PM2.5,43,93,60
India,Assam,Guwahati,"Railway Colony, Guwahati - PCBA",30-10-2025 07:00:00,26.181742,91.78063,PM10,34,128,76
India,Assam,Nalbari,"Bata Chowk, Nalbari - PCBA",30-10-2025 07:00:00,26.446912,91.439057,NO2,9,19,15
India,Assam,Nalbari,"Bata Chowk, Nalbari - PCBA",30-10-2025 07:00:00,26.446912,91.439057,OZONE,8,165,41
India,Bihar,Kishanganj,"SDM Office_Khagra, Kishanganj - BSPCB",30-10-2025 07:00:00,26.0881305,87.93840336,PM10,28,225,99
India,Bihar,Kishanganj,"SDM Office_Khagra, Kishanganj - BSPCB",30-10-2025 07:00:00,26.0881305,87.93840336,SO2,6,7,7
India,Bihar,Kishanganj,"SDM Office_Khagra, Kishanganj - BSPCB",30-10-2025 07:00:00,26.0881305,87.93840336,CO,12,14,13
India,Bihar,Motihari,"Gandak Colony, Motihari - BSPCB",30-10-2025 07:00:00,26.63086,84.90051,PM2.5,17,26,22
India,Assam,Sivasagar,"Girls College, Sivasagar - PCBA",30-10-2025 07:00:00,26.987634,94.636574,NO2,21,32,26
India,Assam,Sivasagar,"Girls College, Sivasagar - PCBA",30-10-2025 07:00:00,26.987634,94.636574,SO2,8,13,10
India,Bihar,Arrah,"New DM Office, Arrah - BSPCB",30-10-2025 07:00:00,25.5626095,84.663264,CO,NA,NA,NA
India,Bihar,Bhagalpur,"DM Office_Kachari Chowk, Bhagalpur - BSPCB",30-10-2025 07:00:00,25.251013,86.989001,CO,16,24,18
India,Bihar,Chhapra,"Darshan Nagar, Chhapra - BSPCB",30-10-2025 07:00:00,25.7808257,84.7446768,PM10,NA,NA,NA
India,Andhra_Pradesh,Anantapur,"Gulzarpet, Anantapur - APPCB",30-10-2025 07:00:00,14.675886,77.593027,PM2.5,51,77,60
India,Andhra_Pradesh,Anantapur,"Gulzarpet, Anantapur - APPCB",30-10-2025 07:00:00,14.675886,77.593027,NO2,9,19,16
India,Chhattisgarh,Raipur,"AIIMS, Raipur - CECB",30-10-2025 07:00:00,21.258815,81.578979,CO,26,48,32
India,Chhattisgarh,Raipur,"Bhatagaon New ISBT, Raipur - CECB",30-10-2025 07:00:00,21.219665,81.630094,NO2,6,12,9
India,Chhattisgarh,Raipur,"Bhatagaon New ISBT, Raipur - CECB",30-10-2025 07:00:00,21.219665,81.630094,CO,11,22,14
India,Chhattisgarh,Raipur,"Krishak Nagar, Raipur - CECB",30-10-2025 07:00:00,21.237755,81.705301,NO2,7,8,8
India,Chhattisgarh,Raipur,"Siltara Phase-II, Raipur - CECB",30-10-2025 07:00:00,21.371751,81.664929,PM2.5,11,36,20
India,Chhattisgarh,Raipur,"Siltara Phase-II, Raipur - CECB",30-10-2025 07:00:00,21.371751,81.664929,PM10,13,144,79
India,Chhattisgarh,Raipur,"Siltara Phase-II, Raipur - CECB",30-10-2025 07:00:00,21.371751,81.664929,NO2,4,30,12
India,Chhattisgarh,Tumidih,"OP Jindal Industrial Park, Tumidih - CECB",30-10-2025 07:00:00,22.06631475,83.33820077,PM2.5,4,21,9
India,Bihar,Munger,"Town Hall, Munger - BSPCB",30-10-2025 07:00:00,25.376776,86.471523,OZONE,10,24,14
India,Bihar,Muzaffarpur,"Buddha Colony, Muzaffarpur - BSPCB",30-10-2025 07:00:00,26.11442,85.39813,PM2.5,14,96,56
India,Bihar,Muzaffarpur,"MIT-Daudpur Kothi, Muzaffarpur - BSPCB",30-10-2025 07:00:00,26.1403345,85.3650192,PM2.5,35,80,47
India,Bihar,Muzaffarpur,"MIT-Daudpur Kothi, Muzaffarpur - BSPCB",30-10-2025 07:00:00,26.1403345,85.3650192,NO2,4,9,6
India,Bihar,Muzaffarpur,"MIT-Daudpur Kothi, Muzaffarpur - BSPCB",30-10-2025 07:00:00,26.1403345,85.3650192,NH3,1,1,1
India,Bihar,Muzaffarpur,"MIT-Daudpur Kothi, Muzaffarpur - BSPCB",30-10-2025 07:00:00,26.1403345,85.3650192,OZONE,13,43,28
India,Bihar,Muzaffarpur,"Muzaffarpur Collectorate, Muzaffarpur - BSPCB",30-10-2025 07:00:00,26.1209,85.3647,PM2.5,40,88,51
India,Chhattisgarh,Bilaspur,"Mangala, Bilaspur - NTPC",30-10-2025 07:00:00,22.08815,82.13737,NO2,16,23,18
India,Chhattisgarh,Bilaspur,"Mangala, Bilaspur - NTPC",30-10-2025 07:00:00,22.08815,82.13737,CO,30,42,31
India,Chhattisgarh,Chhal,"Nawapara SECL Colony, Chhal - CECB",30-10-2025 07:00:00,22.118125,83.140608,NO2,3,14,8
India,Chhattisgarh,Chhal,"Nawapara SECL Colony, Chhal - CECB",30-10-2025 07:00:00,22.118125,83.140608,SO2,1,29,15
India,Chhattisgarh,Chhal,"Nawapara SECL Colony, Chhal - CECB",30-10-2025 07:00:00,22.118125,83.140608,CO,16,34,24
India,Chhattisgarh,Korba,"Rampur, Korba - CECB",30-10-2025 07:00:00,22.368195,82.746431,NH3,2,2,2
India,Chandigarh,Chandigarh,"Sector 22, Chandigarh - CPCC",30-10-2025 07:00:00,30.735567,76.775714,SO2,4,37,13
India,Chandigarh,Chandigarh,"Sector-25, Chandigarh - CPCC",30-10-2025 07:00:00,30.751462,76.762879,PM10,43,151,117
India,Chandigarh,Chandigarh,"Sector-25, Chandigarh - CPCC",30-10-2025 07:00:00,30.751462,76.762879,NH3,4,7,5
India,Chandigarh,Chandigarh,"Sector-25, Chandigarh - CPCC",30-10-2025 07:00:00,30.751462,76.762879,SO2,5,9,7
India,Chandigarh,Chandigarh,"Sector-25, Chandigarh - CPCC",30-10-2025 07:00:00,30.751462,76.762879,CO,18,56,31
India,Chandigarh,Chandigarh,"Sector-53, Chandigarh - CPCC",30-10-2025 07:00:00,30.719859,76.738637,NH3,NA,NA,NA
India,Chandigarh,Chandigarh,"Sector-53, Chandigarh - CPCC",30-10-2025 07:00:00,30.719859,76.738637,SO2,NA,NA,NA
India,Bihar,Saharsa,"Police Line, Saharsa - BSPCB",30-10-2025 07:00:00,25.892357,86.590325,NO2,6,8,7
India,Bihar,Saharsa,"Police Line, Saharsa - BSPCB",30-10-2025 07:00:00,25.892357,86.590325,SO2,15,17,16
India,Bihar,Saharsa,"Police Line, Saharsa - BSPCB",30-10-2025 07:00:00,25.892357,86.590325,CO,34,40,38
India,Bihar,Sasaram,"Dada Peer, Sasaram - BSPCB",30-10-2025 07:00:00,24.952822,84.002396,OZONE,8,24,17
India,Bihar,Siwan,"Chitragupta Nagar, Siwan - BSPCB",30-10-2025 07:00:00,26.2271665,84.3570427,NO2,1,1,1
India,Chhattisgarh,Korba,"Urja Nagar, Korba - CECB",30-10-2025 07:00:00,22.348441,82.549611,OZONE,35,36,35
India,Chhattisgarh,Kunjemura,"OP Jindal School, Kunjemura - CECB",30-10-2025 07:00:00,22.126650,83.483212,NH3,2,2,2
India,Chhattisgarh,Milupara,"Govt. Higher Secondary School, Milupara - CECB",30-10-2025 07:00:00,22.1910172,83.5197009,PM2.5,NA,NA,NA
India,Chhattisgarh,Milupara,"Govt. Higher Secondary School, Milupara - CECB",30-10-2025 07:00:00,22.1910172,83.5197009,OZONE,1,83,1
India,Bihar,Patna,"Rajbansi Nagar, Patna - BSPCB",30-10-2025 07:00:00,25.599486,85.113666,NO2,13,40,25
India,Bihar,Patna,"Rajbansi Nagar, Patna - BSPCB",30-10-2025 07:00:00,25.599486,85.113666,SO2,9,10,9
India,Bihar,Rajgir,"Dangi Tola, Rajgir - BSPCB",30-10-2025 07:00:00,25.03280,85.41948,PM10,8,86,32
India,Bihar,Rajgir,"Dangi Tola, Rajgir - BSPCB",30-10-2025 07:00:00,25.03280,85.41948,NH3,6,8,7
India,Bihar,Patna,"DRM Office Danapur, Patna - BSPCB",30-10-2025 07:00:00,25.586562,85.043586,PM10,NA,NA,NA
India,Bihar,Patna,"DRM Office Danapur, Patna - BSPCB",30-10-2025 07:00:00,25.586562,85.043586,NO2,NA,NA,NA
India,Bihar,Patna,"DRM Office Danapur, Patna - BSPCB",30-10-2025 07:00:00,25.586562,85.043586,CO,NA,NA,NA
India,Bihar,Patna,"Govt. High School Shikarpur, Patna - BSPCB",30-10-2025 07:00:00,25.592539,85.227158,OZONE,8,13,11
India,Chhattisgarh,Tumidih,"OP Jindal Industrial Park, Tumidih - CECB",30-10-2025 07:00:00,22.06631475,83.33820077,OZONE,7,29,9
India,Delhi,Delhi,"Lodhi Road, Delhi - IITM",30-10-2025 07:00:00,28.588333,77.221667,NO2,101,218,145
India,Delhi,Delhi,"Lodhi Road, Delhi - IMD",30-10-2025 07:00:00,28.5918245,77.2273074,OZONE,21,201,40
India,Delhi,Delhi,"Major Dhyan Chand National Stadium, Delhi - DPCC",30-10-2025 07:00:00,28.611281,77.237738,NO2,27,179,92
India,Delhi,Delhi,"Major Dhyan Chand National Stadium, Delhi - DPCC",30-10-2025 07:00:00,28.611281,77.237738,NH3,18,23,20
India,Delhi,Delhi,"Major Dhyan Chand National Stadium, Delhi - DPCC",30-10-2025 07:00:00,28.611281,77.237738,CO,34,118,99
India,Delhi,Delhi,"Mandir Marg, Delhi - DPCC",30-10-2025 07:00:00,28.636429,77.201067,NH3,1,16,6
India,Delhi,Delhi,"Mandir Marg, Delhi - DPCC",30-10-2025 07:00:00,28.636429,77.201067,CO,26,95,65
India,Delhi,Delhi,"Mundka, Delhi - DPCC",30-10-2025 07:00:00,28.684678,77.076574,PM10,131,484,250
India,Delhi,Delhi,"Mundka, Delhi - DPCC",30-10-2025 07:00:00,28.684678,77.076574,NO2,88,146,117
India,Delhi,Delhi,"IHBAS, Dilshad Garden, Delhi - CPCB",30-10-2025 07:00:00,28.6811736,77.3025234,NH3,4,5,4
India,Delhi,Delhi,"ITO, Delhi - CPCB",30-10-2025 07:00:00,28.628624,77.241060,CO,40,132,102
India,Delhi,Delhi,"Jahangirpuri, Delhi - DPCC",30-10-2025 07:00:00,28.732820,77.170633,PM2.5,320,442,385
India,Delhi,Delhi,"Jahangirpuri, Delhi - DPCC",30-10-2025 07:00:00,28.732820,77.170633,NH3,4,7,5
India,Delhi,Delhi,"Jahangirpuri, Delhi - DPCC",30-10-2025 07:00:00,28.732820,77.170633,SO2,1,39,20
India,Delhi,Delhi,"Jawaharlal Nehru Stadium, Delhi - DPCC",30-10-2025 07:00:00,28.580280,77.233829,PM2.5,260,411,356
India,Delhi,Delhi,"Pusa, Delhi - DPCC",30-10-2025 07:00:00,28.639652,77.146275,SO2,8,19,13
India,Delhi,Delhi,"Pusa, Delhi - DPCC",30-10-2025 07:00:00,28.639652,77.146275,CO,74,104,101
India,Delhi,Delhi,"R K Puram, Delhi - DPCC",30-10-2025 07:00:00,28.563262,77.186937,SO2,13,102,43
India,Delhi,Delhi,"R K Puram, Delhi - DPCC",30-10-2025 07:00:00,28.563262,77.186937,OZONE,5,168,7
India,Delhi,Delhi,"Rohini, Delhi - DPCC",30-10-2025 07:00:00,28.732528,77.119920,NO2,9,53,30
India,Delhi,Delhi,"Rohini, Delhi - DPCC",30-10-2025 07:00:00,28.732528,77.119920,OZONE,10,218,12
India,Delhi,Delhi,"DTU, Delhi - CPCB",30-10-2025 07:00:00,28.7500499,77.1112615,CO,42,98,92
India,Delhi,Delhi,"Dwarka-Sector 8, Delhi - DPCC ",30-10-2025 07:00:00,28.5710274,77.0719006,SO2,15,58,26
India,Delhi,Delhi,"IGI Airport (T3), Delhi - IMD",30-10-2025 07:00:00,28.5627763,77.1180053,PM2.5,166,395,316
India,Delhi,Delhi,"IHBAS, Dilshad Garden, Delhi - CPCB",30-10-2025 07:00:00,28.6811736,77.3025234,PM2.5,322,416,363
India,Delhi,Delhi,"Nehru Nagar, Delhi - DPCC",30-10-2025 07:00:00,28.567890,77.250515,CO,1,107,99
India,Delhi,Delhi,"North Campus, DU, Delhi - IMD",30-10-2025 07:00:00,28.6573814,77.1585447,PM10,167,375,266
India,Delhi,Delhi,"North Campus, DU, Delhi - IMD",30-10-2025 07:00:00,28.6573814,77.1585447,OZONE,30,307,36
India,Delhi,Delhi,"Okhla Phase-2, Delhi - DPCC",30-10-2025 07:00:00,28.530785,77.271255,OZONE,9,195,14
India,Delhi,Delhi,"Burari Crossing, Delhi - IMD",30-10-2025 07:00:00,28.7256504,77.2011573,PM10,158,404,287
India,Delhi,Delhi,"Burari Crossing, Delhi - IMD",30-10-2025 07:00:00,28.7256504,77.2011573,NO2,1,49,24
India,Delhi,Delhi,"CRRI Mathura Road, Delhi - IMD",30-10-2025 07:00:00,28.5512005,77.2735737,PM2.5,153,415,332
India,Delhi,Delhi,"CRRI Mathura Road, Delhi - IMD",30-10-2025 07:00:00,28.5512005,77.2735737,NO2,17,101,43
India,Delhi,Delhi,"Narela, Delhi - DPCC",30-10-2025 07:00:00,28.822836,77.101981,PM10,169,415,292
India,Delhi,Delhi,"Narela, Delhi - DPCC",30-10-2025 07:00:00,28.822836,77.101981,SO2,6,33,14
India,Delhi,Delhi,"Narela, Delhi - DPCC",30-10-2025 07:00:00,28.822836,77.101981,OZONE,7,153,11
India,Delhi,Delhi,"Nehru Nagar, Delhi - DPCC",30-10-2025 07:00:00,28.567890,77.250515,PM10,146,407,271
India,Delhi,Delhi,"Anand Vihar, Delhi - DPCC",30-10-2025 07:00:00,28.647622,77.3158090,PM2.5,324,500,409
India,Delhi,Delhi,"Anand Vihar, Delhi - DPCC",30-10-2025 07:00:00,28.647622,77.3158090,PM10,215,500,375
India,Delhi,Delhi,"Ashok Vihar, Delhi - DPCC",30-10-2025 07:00:00,28.695381,77.181665,NO2,33,119,79
India,Delhi,Delhi,"Mundka, Delhi - DPCC",30-10-2025 07:00:00,28.684678,77.076574,SO2,7,21,12
India,Gujarat,Ahmedabad,"Raikhad, Ahmedabad - IITM",30-10-2025 07:00:00,23.020509,72.579261,NO2,17,46,25
India,Gujarat,Ahmedabad,"Raikhad, Ahmedabad - IITM",30-10-2025 07:00:00,23.020509,72.579261,CO,8,54,15
India,Gujarat,Ahmedabad,"Rakhial, Ahmedabad - IITM",30-10-2025 07:00:00,23.016834,72.625775,NO2,13,36,21
India,Gujarat,Ahmedabad,"Rakhial, Ahmedabad - IITM",30-10-2025 07:00:00,23.016834,72.625775,OZONE,22,46,29
India,Gujarat,Ahmedabad,"SAC ISRO Bopal, Ahmedabad - IITM",30-10-2025 07:00:00,23.041137,72.456691,NH3,2,3,3
India,Gujarat,Ahmedabad,"SAC ISRO Bopal, Ahmedabad - IITM",30-10-2025 07:00:00,23.041137,72.456691,OZONE,6,44,10
India,Gujarat,Ahmedabad,"SAC ISRO Satellite, Ahmedabad - IITM",30-10-2025 07:00:00,23.023389,72.515201,PM10,29,83,54
India,Gujarat,Ahmedabad,"SVPI Airport Hansol, Ahmedabad - IITM",30-10-2025 07:00:00,23.076793,72.627874,PM2.5,20,70,48
India,Gujarat,Ahmedabad,"SVPI Airport Hansol, Ahmedabad - IITM",30-10-2025 07:00:00,23.076793,72.627874,NO2,42,57,50
India,Gujarat,Vapi,"Phase-1 GIDC, Vapi - GPCB",30-10-2025 07:00:00,20.362421,72.918013,PM10,19,161,86
India,Gujarat,Vatva,"Phase-4 GIDC, Vatva - GPCB",30-10-2025 07:00:00,22.969611,72.643500,PM2.5,24,64,42
India,Haryana,Ambala,"Patti Mehar, Ambala - HSPCB",30-10-2025 07:00:00,30.379589,76.778328,PM10,NA,NA,NA
India,Haryana,Ambala,"Patti Mehar, Ambala - HSPCB",30-10-2025 07:00:00,30.379589,76.778328,NO2,21,26,22
India,Haryana,Ambala,"Patti Mehar, Ambala - HSPCB",30-10-2025 07:00:00,30.379589,76.778328,CO,100,105,103
India,Haryana,Bahadurgarh,"Arya Nagar, Bahadurgarh - HSPCB",30-10-2025 07:00:00,28.6701,76.9254,PM10,17,451,292
India,Haryana,Ballabgarh,"Nathu Colony, Ballabgarh - HSPCB",30-10-2025 07:00:00,28.3419248,77.319699,PM2.5,318,321,320
India,Haryana,Gurugram,"NISE Gwal Pahari, Gurugram - IMD",30-10-2025 07:00:00,28.422681,77.148944,OZONE,2,90,4
India,Haryana,Gurugram,"Vikas Sadan, Gurugram - HSPCB",30-10-2025 07:00:00,28.4501238,77.0263051,OZONE,8,56,17
India,Haryana,Jind,"Police Lines, Jind - HSPCB",30-10-2025 07:00:00,29.307814,76.337619,NO2,12,14,13
India,Haryana,Jind,"Police Lines, Jind - HSPCB",30-10-2025 07:00:00,29.307814,76.337619,NH3,5,5,5
India,Haryana,Jind,"Police Lines, Jind - HSPCB",30-10-2025 07:00:00,29.307814,76.337619,SO2,27,30,28
India,Haryana,Kaithal,"Rishi Nagar, Kaithal - HSPCB",30-10-2025 07:00:00,29.8006,76.4155,PM10,96,188,147
India,Haryana,Kaithal,"Rishi Nagar, Kaithal - HSPCB",30-10-2025 07:00:00,29.8006,76.4155,OZONE,1,63,5
India,Delhi,Delhi,"Shadipur, Delhi - CPCB",30-10-2025 07:00:00,28.6514781,77.1473105,NH3,10,16,13
India,Delhi,Delhi,"Shadipur, Delhi - CPCB",30-10-2025 07:00:00,28.6514781,77.1473105,OZONE,11,42,13
India,Delhi,Delhi,"Sirifort, Delhi - CPCB",30-10-2025 07:00:00,28.5504249,77.2159377,CO,31,128,121
India,Delhi,Delhi,"Sonia Vihar, Delhi - DPCC",30-10-2025 07:00:00,28.710508,77.249485,PM10,167,356,252
India,Delhi,Delhi,"Sonia Vihar, Delhi - DPCC",30-10-2025 07:00:00,28.710508,77.249485,NH3,3,7,3
India,Delhi,Delhi,"Sri Aurobindo Marg, Delhi - DPCC",30-10-2025 07:00:00,28.531346,77.190156,PM10,108,218,179
India,Delhi,Delhi,"Vivek Vihar, Delhi - DPCC",30-10-2025 07:00:00,28.672342,77.315260,PM10,201,488,350
India,Haryana,Bhiwani,"H.B. Colony, Bhiwani - HSPCB",30-10-2025 07:00:00,28.806223,76.141105,SO2,12,13,12
India,Haryana,Charkhi Dadri,"Mini Secretariat, Charkhi Dadri - HSPCB",30-10-2025 07:00:00,28.593883,76.270653,NH3,5,8,6
India,Haryana,Dharuhera,"Municipal Corporation Office, Dharuhera -  HSPCB",30-10-2025 07:00:00,28.206800,76.799700,PM10,166,434,298
India,Haryana,Dharuhera,"Municipal Corporation Office, Dharuhera -  HSPCB",30-10-2025 07:00:00,28.206800,76.799700,CO,76,102,99
India,Haryana,Dharuhera,"Municipal Corporation Office, Dharuhera -  HSPCB",30-10-2025 07:00:00,28.206800,76.799700,OZONE,10,71,13
India,Haryana,Faridabad,"Sector 11, Faridabad - HSPCB",30-10-2025 07:00:00,28.376058,77.315741,NO2,NA,NA,NA
India,Haryana,Palwal,"Shyam Nagar, Palwal - HSPCB",30-10-2025 07:00:00,28.1485564,77.3320667,SO2,NA,NA,NA
India,Haryana,Palwal,"Shyam Nagar, Palwal - HSPCB",30-10-2025 07:00:00,28.1485564,77.3320667,OZONE,24,24,24
India,Haryana,Panchgaon,"Amity University, Panchgaon - IITM",30-10-2025 07:00:00,28.3153,76.9143,PM10,44,172,90
India,Haryana,Panchgaon,"Amity University, Panchgaon - IITM",30-10-2025 07:00:00,28.3153,76.9143,NH3,11,27,17
India,Haryana,Panchgaon,"Amity University, Panchgaon - IITM",30-10-2025 07:00:00,28.3153,76.9143,SO2,1,20,9
India,Haryana,Panchkula,"Sector-6, Panchkula - HSPCB ",30-10-2025 07:00:00,30.7057778,76.8531805555555,NO2,24,27,25
India,Delhi,Delhi,"Vivek Vihar, Delhi - DPCC",30-10-2025 07:00:00,28.672342,77.315260,OZONE,3,24,4
India,Delhi,Delhi,"Wazirpur, Delhi - DPCC",30-10-2025 07:00:00,28.699793,77.165453,PM10,235,482,378
India,Gujarat,Ahmedabad,"Chandkheda, Ahmedabad - IITM",30-10-2025 07:00:00,23.107969,72.574648,NH3,NA,NA,NA
India,Gujarat,Ahmedabad,"Chandkheda, Ahmedabad - IITM",30-10-2025 07:00:00,23.107969,72.574648,CO,3,9,5
India,Gujarat,Ahmedabad,"Gyaspur, Ahmedabad - IITM",30-10-2025 07:00:00,22.977134,72.553024,NO2,25,41,33
India,Haryana,Kurukshetra,"Sector-7, Kurukshetra - HSPCB",30-10-2025 07:00:00,29.966942,76.875879,PM10,131,278,176
India,Haryana,Kurukshetra,"Sector-7, Kurukshetra - HSPCB",30-10-2025 07:00:00,29.966942,76.875879,NH3,5,5,5
India,Haryana,Mandikhera,"General Hospital, Mandikhera - HSPCB",30-10-2025 07:00:00,27.9002,76.9938,PM2.5,46,118,77
India,Haryana,Mandikhera,"General Hospital, Mandikhera - HSPCB",30-10-2025 07:00:00,27.9002,76.9938,NO2,20,24,22
India,Gujarat,Gandhinagar,"IIPHG Lekawada, Gandhinagar - IITM",30-10-2025 07:00:00,23.243639,72.68994,PM10,23,76,54
India,Gujarat,Gandhinagar,"IIPHG Lekawada, Gandhinagar - IITM",30-10-2025 07:00:00,23.243639,72.68994,NH3,2,2,2
India,Gujarat,Gandhinagar,"Sector-10, Gandhinagar - GPCB",30-10-2025 07:00:00,23.221714,72.654328,CO,17,26,22
India,Jharkhand,Dhanbad,"Sardar Patel Nagar, Dhanbad - JSPCB",30-10-2025 07:00:00,23.80569,86.44268,SO2,2,93,27
India,Jharkhand,Dhanbad,"Sardar Patel Nagar, Dhanbad - JSPCB",30-10-2025 07:00:00,23.80569,86.44268,CO,2,48,1
India,Jharkhand,Jorapokhar,"Tata Stadium, Jorapokhar - JSPCB",30-10-2025 07:00:00,23.707909,86.414670,OZONE,NA,NA,NA
India,Karnataka,Belgaum,"Ramteerth Nagar, Belgaum - KSPCB",30-10-2025 07:00:00,15.888653,74.541751,OZONE,19,19,19
India,Karnataka,Bengaluru,"BTM Layout, Bengaluru - CPCB",30-10-2025 07:00:00,12.9135218,77.5950804,PM2.5,28,40,33
India,Karnataka,Bengaluru,"BTM Layout, Bengaluru - CPCB",30-10-2025 07:00:00,12.9135218,77.5950804,OZONE,24,25,24
India,Karnataka,Bengaluru,"BWSSB Kadabesanahalli, Bengaluru - CPCB",30-10-2025 07:00:00,12.9352049,77.6814488,PM2.5,45,46,46
India,Karnataka,Bengaluru,"BWSSB Kadabesanahalli, Bengaluru - CPCB",30-10-2025 07:00:00,12.9352049,77.6814488,NH3,3,3,3
India,Karnataka,Bengaluru,"Bapuji Nagar, Bengaluru - KSPCB",30-10-2025 07:00:00,12.951913,77.539784,PM10,43,91,60
India,Karnataka,Mangalore,"Kadri, Mangalore - KSPCB",30-10-2025 07:00:00,12.889250,74.853000,SO2,13,14,13
India,Karnataka,Mangalore,"Kadri, Mangalore - KSPCB",30-10-2025 07:00:00,12.889250,74.853000,CO,20,28,23
India,Karnataka,Mangalore,"Kadri, Mangalore - KSPCB",30-10-2025 07:00:00,12.889250,74.853000,OZONE,4,43,24
India,Karnataka,Mysuru,"Hebbal 1st Stage, Mysuru - KSPCB",30-10-2025 07:00:00,12.21041,76.37376,PM10,26,45,33
India,Karnataka,Ramanagara,"Vijay Nagar, Ramanagara - KSPCB",30-10-2025 07:00:00,12.733409,77.298051,SO2,NA,NA,NA
India,Karnataka,Ramanagara,"Vijay Nagar, Ramanagara - KSPCB",30-10-2025 07:00:00,12.733409,77.298051,CO,10,41,19
