country,state,city,station,last_update,latitude,longitude,pollutant_id,min_value,max_value,avg_value
India,Andaman and Nicobar,Sri Vijaya Puram,"Police Line, Sri Vijaya Puram - ANPCC",24-09-2025 07:00:00,11.654054,92.734055,NH3,NA,NA,NA
India,Andhra_Pradesh,Amaravati,"Secretariat, Amaravati - APPCB",24-09-2025 07:00:00,16.5150833,80.5181667,OZONE,8,22,16
India,Andhra_Pradesh,Anantapur,"Gulzarpet, Anantapur - APPCB",24-09-2025 07:00:00,14.675886,77.593027,SO2,13,15,14
India,Andhra_Pradesh,Anantapur,"Gulzarpet, Anantapur - APPCB",24-09-2025 07:00:00,14.675886,77.593027,CO,11,34,14
India,Andhra_Pradesh,Anantapur,"Gulzarpet, Anantapur - APPCB",24-09-2025 07:00:00,14.675886,77.593027,OZONE,9,13,10
India,Andhra_Pradesh,Kadapa,"Yerramukkapalli, Kadapa - APPCB",24-09-2025 07:00:00,14.465052,78.824187,NO2,10,12,10
India,Andhra_Pradesh,Kadapa,"Yerramukkapalli, Kadapa - APPCB",24-09-2025 07:00:00,14.465052,78.824187,SO2,19,21,20
India,Andhra_Pradesh,Rajamahendravaram,"Anand Kala Kshetram, Rajamahendravaram - APPCB",24-09-2025 07:00:00,16.9872867,81.7363176,PM10,24,64,46
India,Andhra_Pradesh,Rajamahendravaram,"Anand Kala Kshetram, Rajamahendravaram - APPCB",24-09-2025 07:00:00,16.9872867,81.7363176,SO2,7,7,7
India,Bihar,Patna,"Govt. High School Shikarpur, Patna - BSPCB",24-09-2025 07:00:00,25.592539,85.227158,PM2.5,7,40,15
India,Bihar,Patna,"Govt. High School Shikarpur, Patna - BSPCB",24-09-2025 07:00:00,25.592539,85.227158,PM10,57,77,64
India,Bihar,Patna,"IGSC Planetarium Complex, Patna - BSPCB",24-09-2025 07:00:00,25.610369,85.132568,NO2,16,17,16
India,Bihar,Patna,"IGSC Planetarium Complex, Patna - BSPCB",24-09-2025 07:00:00,25.610369,85.132568,SO2,27,29,28
India,Bihar,Patna,"Muradpur, Patna - BSPCB",24-09-2025 07:00:00,25.619651,85.147382,PM2.5,27,83,59
India,Bihar,Patna,"Muradpur, Patna - BSPCB",24-09-2025 07:00:00,25.619651,85.147382,PM10,42,139,87
India,Bihar,Patna,"Muradpur, Patna - BSPCB",24-09-2025 07:00:00,25.619651,85.147382,NH3,5,11,6
India,Bihar,Patna,"Muradpur, Patna - BSPCB",24-09-2025 07:00:00,25.619651,85.147382,OZONE,4,40,5
India,Bihar,Patna,"Rajbansi Nagar, Patna - BSPCB",24-09-2025 07:00:00,25.599486,85.113666,PM2.5,23,73,43
India,Bihar,Patna,"Rajbansi Nagar, Patna - BSPCB",24-09-2025 07:00:00,25.599486,85.113666,NH3,1,2,2
India,Bihar,Rajgir,"Dangi Tola, Rajgir - BSPCB",24-09-2025 07:00:00,25.03280,85.41948,PM2.5,NA,NA,NA
India,Bihar,Bhagalpur,"Mayaganj, Bhagalpur - BSPCB",24-09-2025 07:00:00,25.265194,87.012947,PM10,3,88,34
India,Bihar,Bhagalpur,"Mayaganj, Bhagalpur - BSPCB",24-09-2025 07:00:00,25.265194,87.012947,SO2,46,59,54
India,Bihar,Bihar Sharif,"D M Colony, Bihar Sharif - BSPCB",24-09-2025 07:00:00,25.204762,85.514960,PM2.5,57,103,78
India,Bihar,Bihar Sharif,"D M Colony, Bihar Sharif - BSPCB",24-09-2025 07:00:00,25.204762,85.514960,PM10,69,115,93
India,Bihar,Bihar Sharif,"D M Colony, Bihar Sharif - BSPCB",24-09-2025 07:00:00,25.204762,85.514960,NO2,9,10,9
India,Bihar,Buxar,"Charitra Van, Buxar - BSPCB",24-09-2025 07:00:00,25.567520,83.966379,NH3,3,3,3
India,Bihar,Buxar,"Charitra Van, Buxar - BSPCB",24-09-2025 07:00:00,25.567520,83.966379,CO,22,27,25
India,Bihar,Gaya,"Collectorate, Gaya - BSPCB",24-09-2025 07:00:00,24.7955,84.9994,PM2.5,18,223,70
India,Bihar,Gaya,"Collectorate, Gaya - BSPCB",24-09-2025 07:00:00,24.7955,84.9994,CO,42,60,46
India,Bihar,Gaya,"Kareemganj, Gaya - BSPCB",24-09-2025 07:00:00,24.792403,84.992416,NH3,4,6,5
India,Bihar,Motihari,"Gandak Colony, Motihari - BSPCB",24-09-2025 07:00:00,26.63086,84.90051,OZONE,2,4,2
India,Bihar,Munger,"Town Hall, Munger - BSPCB",24-09-2025 07:00:00,25.376776,86.471523,PM10,9,115,41
India,Bihar,Munger,"Town Hall, Munger - BSPCB",24-09-2025 07:00:00,25.376776,86.471523,CO,12,55,24
India,Bihar,Munger,"Town Hall, Munger - BSPCB",24-09-2025 07:00:00,25.376776,86.471523,OZONE,10,13,11
India,Bihar,Muzaffarpur,"Buddha Colony, Muzaffarpur - BSPCB",24-09-2025 07:00:00,26.11442,85.39813,NO2,11,19,15
India,Bihar,Muzaffarpur,"Muzaffarpur Collectorate, Muzaffarpur - BSPCB",24-09-2025 07:00:00,26.1209,85.3647,NO2,10,16,13
India,Bihar,Patna,"DRM Office Danapur, Patna - BSPCB",24-09-2025 07:00:00,25.586562,85.043586,PM2.5,4,101,39
India,Bihar,Patna,"DRM Office Danapur, Patna - BSPCB",24-09-2025 07:00:00,25.586562,85.043586,PM10,48,120,73
India,Andhra_Pradesh,Visakhapatnam,"GVM Corporation, Visakhapatnam - APPCB",24-09-2025 07:00:00,17.72,83.3,NO2,43,110,76
India,Andhra_Pradesh,Visakhapatnam,"GVM Corporation, Visakhapatnam - APPCB",24-09-2025 07:00:00,17.72,83.3,NH3,3,3,3
India,Arunachal_Pradesh,Naharlagun,"Naharlagun, Naharlagun - APSPCB",24-09-2025 07:00:00,27.103358,93.679645,PM10,13,62,39
India,Arunachal_Pradesh,Naharlagun,"Naharlagun, Naharlagun - APSPCB",24-09-2025 07:00:00,27.103358,93.679645,OZONE,5,5,5
India,Assam,Byrnihat,"Central Academy for SFS, Byrnihat - PCBA",24-09-2025 07:00:00,26.071318,91.87488,PM2.5,NA,NA,NA
India,Assam,Byrnihat,"Central Academy for SFS, Byrnihat - PCBA",24-09-2025 07:00:00,26.071318,91.87488,OZONE,20,26,22
India,Assam,Guwahati,"LGBI Airport, Guwahati - PCBA",24-09-2025 07:00:00,26.10887,91.589544,NH3,6,6,6
India,Bihar,Rajgir,"Dangi Tola, Rajgir - BSPCB",24-09-2025 07:00:00,25.03280,85.41948,CO,76,98,87
India,Bihar,Saharsa,"Police Line, Saharsa - BSPCB",24-09-2025 07:00:00,25.892357,86.590325,PM10,4,78,37
India,Bihar,Saharsa,"Police Line, Saharsa - BSPCB",24-09-2025 07:00:00,25.892357,86.590325,OZONE,11,74,20
India,Bihar,Siwan,"Chitragupta Nagar, Siwan - BSPCB",24-09-2025 07:00:00,26.2271665,84.3570427,PM10,64,459,137
India,Bihar,Siwan,"Chitragupta Nagar, Siwan - BSPCB",24-09-2025 07:00:00,26.2271665,84.3570427,NO2,1,1,1
India,Bihar,Siwan,"Chitragupta Nagar, Siwan - BSPCB",24-09-2025 07:00:00,26.2271665,84.3570427,NH3,1,1,1
India,Chandigarh,Chandigarh,"Sector-25, Chandigarh - CPCC",24-09-2025 07:00:00,30.751462,76.762879,PM2.5,NA,NA,NA
India,Bihar,Gaya,"SFTI Kusdihra, Gaya - BSPCB",24-09-2025 07:00:00,24.762518,84.982348,PM2.5,7,40,20
India,Bihar,Gaya,"SFTI Kusdihra, Gaya - BSPCB",24-09-2025 07:00:00,24.762518,84.982348,NO2,17,20,18
India,Bihar,Gaya,"SFTI Kusdihra, Gaya - BSPCB",24-09-2025 07:00:00,24.762518,84.982348,NH3,3,4,3
India,Bihar,Gaya,"SFTI Kusdihra, Gaya - BSPCB",24-09-2025 07:00:00,24.762518,84.982348,OZONE,9,19,10
India,Bihar,Kishanganj,"SDM Office_Khagra, Kishanganj - BSPCB",24-09-2025 07:00:00,26.0881305,87.93840336,PM2.5,NA,NA,NA
India,Bihar,Kishanganj,"SDM Office_Khagra, Kishanganj - BSPCB",24-09-2025 07:00:00,26.0881305,87.93840336,NO2,8,9,8
India,Bihar,Kishanganj,"SDM Office_Khagra, Kishanganj - BSPCB",24-09-2025 07:00:00,26.0881305,87.93840336,OZONE,16,17,16
India,Bihar,Motihari,"Gandak Colony, Motihari - BSPCB",24-09-2025 07:00:00,26.63086,84.90051,PM10,NA,NA,NA
India,Assam,Nalbari,"Bata Chowk, Nalbari - PCBA",24-09-2025 07:00:00,26.446912,91.439057,PM2.5,17,388,69
India,Assam,Silchar,"Tarapur, Silchar - PCBA",24-09-2025 07:00:00,24.82827,92.79525,NH3,1,1,1
India,Assam,Silchar,"Tarapur, Silchar - PCBA",24-09-2025 07:00:00,24.82827,92.79525,SO2,1,10,5
India,Assam,Silchar,"Tarapur, Silchar - PCBA",24-09-2025 07:00:00,24.82827,92.79525,OZONE,1,9,2
India,Assam,Sivasagar,"Girls College, Sivasagar - PCBA",24-09-2025 07:00:00,26.987634,94.636574,NH3,3,4,4
India,Bihar,Araria,"Kharahiya Basti, Araria - BSPCB",24-09-2025 07:00:00,26.146529,87.454184,PM2.5,45,453,75
India,Andhra_Pradesh,Tirumala,"Toll Gate, Tirumala - APPCB",24-09-2025 07:00:00,13.67,79.35,PM10,16,48,34
India,Andhra_Pradesh,Tirumala,"Toll Gate, Tirumala - APPCB",24-09-2025 07:00:00,13.67,79.35,NH3,1,1,1
India,Andhra_Pradesh,Tirumala,"Toll Gate, Tirumala - APPCB",24-09-2025 07:00:00,13.67,79.35,SO2,2,4,3
India,Andhra_Pradesh,Tirumala,"Toll Gate, Tirumala - APPCB",24-09-2025 07:00:00,13.67,79.35,CO,12,32,20
India,Andhra_Pradesh,Vijayawada,"HB Colony, Vijayawada - APPCB",24-09-2025 07:00:00,16.536107,80.594233,PM2.5,NA,NA,NA
India,Andhra_Pradesh,Vijayawada,"HB Colony, Vijayawada - APPCB",24-09-2025 07:00:00,16.536107,80.594233,CO,NA,NA,NA
India,Andhra_Pradesh,Vijayawada,"Rajiv Gandhi Park, Vijayawada - APPCB",24-09-2025 07:00:00,16.509717,80.612222,NO2,NA,NA,NA
India,Bihar,Arrah,"New DM Office, Arrah - BSPCB",24-09-2025 07:00:00,25.5626095,84.663264,PM10,27,28,27
India,Bihar,Arrah,"New DM Office, Arrah - BSPCB",24-09-2025 07:00:00,25.5626095,84.663264,CO,28,62,51
India,Bihar,Arrah,"New DM Office, Arrah - BSPCB",24-09-2025 07:00:00,25.5626095,84.663264,OZONE,7,9,7
India,Bihar,Begusarai,"Lohiyanagar, Begusarai - BSPCB",24-09-2025 07:00:00,25.42742023,86.13886079,NH3,3,4,4
India,Bihar,Begusarai,"Lohiyanagar, Begusarai - BSPCB",24-09-2025 07:00:00,25.42742023,86.13886079,OZONE,18,42,26
India,Delhi,Delhi,"Najafgarh, Delhi - DPCC",24-09-2025 07:00:00,28.570173,76.933762,PM10,73,406,107
India,Delhi,Delhi,"Najafgarh, Delhi - DPCC",24-09-2025 07:00:00,28.570173,76.933762,SO2,16,17,16
India,Delhi,Delhi,"Narela, Delhi - DPCC",24-09-2025 07:00:00,28.822836,77.101981,PM2.5,38,193,69
India,Delhi,Delhi,"Nehru Nagar, Delhi - DPCC",24-09-2025 07:00:00,28.567890,77.250515,PM2.5,28,331,62
India,Delhi,Delhi,"Nehru Nagar, Delhi - DPCC",24-09-2025 07:00:00,28.567890,77.250515,PM10,74,189,107
India,Delhi,Delhi,"Nehru Nagar, Delhi - DPCC",24-09-2025 07:00:00,28.567890,77.250515,OZONE,7,118,12
India,Delhi,Delhi,"North Campus, DU, Delhi - IMD",24-09-2025 07:00:00,28.6573814,77.1585447,PM2.5,19,89,48
India,Delhi,Delhi,"Okhla Phase-2, Delhi - DPCC",24-09-2025 07:00:00,28.530785,77.271255,NH3,1,35,12
India,Delhi,Delhi,"Okhla Phase-2, Delhi - DPCC",24-09-2025 07:00:00,28.530785,77.271255,SO2,3,28,19
India,Delhi,Delhi,"Okhla Phase-2, Delhi - DPCC",24-09-2025 07:00:00,28.530785,77.271255,OZONE,4,87,25
India,Chandigarh,Chandigarh,"Sector-25, Chandigarh - CPCC",24-09-2025 07:00:00,30.751462,76.762879,NO2,NA,NA,NA
India,Chandigarh,Chandigarh,"Sector-25, Chandigarh - CPCC",24-09-2025 07:00:00,30.751462,76.762879,NH3,NA,NA,NA
India,Chandigarh,Chandigarh,"Sector-53, Chandigarh - CPCC",24-09-2025 07:00:00,30.719859,76.738637,PM2.5,NA,NA,NA
India,Chandigarh,Chandigarh,"Sector-53, Chandigarh - CPCC",24-09-2025 07:00:00,30.719859,76.738637,SO2,NA,NA,NA
India,Chandigarh,Chandigarh,"Sector-53, Chandigarh - CPCC",24-09-2025 07:00:00,30.719859,76.738637,CO,NA,NA,NA
India,Chhattisgarh,Bhilai,"32Bungalows, Bhilai - CECB",24-09-2025 07:00:00,21.194815,81.314770,PM10,32,102,49
India,Chhattisgarh,Bhilai,"32Bungalows, Bhilai - CECB",24-09-2025 07:00:00,21.194815,81.314770,NO2,4,27,10
India,Chhattisgarh,Bhilai,"Civic Center, Bhilai - Bhilai Steel Plant",24-09-2025 07:00:00,21.185571,81.343175,PM10,42,74,57
India,Chhattisgarh,Bhilai,"Hathkhoj, Bhilai - CECB",24-09-2025 07:00:00,21.224231,81.408350,PM2.5,22,46,33
India,Chhattisgarh,Bhilai,"Hathkhoj, Bhilai - CECB",24-09-2025 07:00:00,21.224231,81.408350,SO2,7,10,8
India,Chhattisgarh,Chhal,"Nawapara SECL Colony, Chhal - CECB",24-09-2025 07:00:00,22.118125,83.140608,CO,NA,NA,NA
India,Chhattisgarh,Korba,"Rampur, Korba - CECB",24-09-2025 07:00:00,22.368195,82.746431,PM2.5,10,12,11
India,Chhattisgarh,Korba,"Rampur, Korba - CECB",24-09-2025 07:00:00,22.368195,82.746431,PM10,13,15,13
India,Chhattisgarh,Korba,"Urja Nagar, Korba - CECB",24-09-2025 07:00:00,22.348441,82.549611,NO2,29,38,34
India,Chhattisgarh,Korba,"Urja Nagar, Korba - CECB",24-09-2025 07:00:00,22.348441,82.549611,NH3,1,2,2
India,Chhattisgarh,Korba,"Urja Nagar, Korba - CECB",24-09-2025 07:00:00,22.348441,82.549611,SO2,6,12,9
India,Chhattisgarh,Kunjemura,"OP Jindal School, Kunjemura - CECB",24-09-2025 07:00:00,22.126650,83.483212,PM2.5,8,35,19
India,Chhattisgarh,Kunjemura,"OP Jindal School, Kunjemura - CECB",24-09-2025 07:00:00,22.126650,83.483212,NO2,3,3,3
India,Chhattisgarh,Kunjemura,"OP Jindal School, Kunjemura - CECB",24-09-2025 07:00:00,22.126650,83.483212,CO,26,30,29
India,Chhattisgarh,Tumidih,"OP Jindal Industrial Park, Tumidih - CECB",24-09-2025 07:00:00,22.06631475,83.33820077,SO2,5,11,6
India,Chhattisgarh,Tumidih,"OP Jindal Industrial Park, Tumidih - CECB",24-09-2025 07:00:00,22.06631475,83.33820077,CO,15,70,28
India,Delhi,Delhi,"Anand Vihar, Delhi - DPCC",24-09-2025 07:00:00,28.647622,77.3158090,OZONE,2,31,5
India,Delhi,Delhi,"Ashok Vihar, Delhi - DPCC",24-09-2025 07:00:00,28.695381,77.181665,PM10,103,167,130
India,Delhi,Delhi,"Ashok Vihar, Delhi - DPCC",24-09-2025 07:00:00,28.695381,77.181665,OZONE,8,57,16
India,Delhi,Delhi,"Aya Nagar, Delhi - IMD",24-09-2025 07:00:00,28.4706914,77.1099364,NO2,2,30,16
India,Delhi,Delhi,"Punjabi Bagh, Delhi - DPCC",24-09-2025 07:00:00,28.674045,77.131023,NH3,3,38,8
India,Delhi,Delhi,"Punjabi Bagh, Delhi - DPCC",24-09-2025 07:00:00,28.674045,77.131023,SO2,5,11,6
India,Delhi,Delhi,"Punjabi Bagh, Delhi - DPCC",24-09-2025 07:00:00,28.674045,77.131023,OZONE,6,39,10
India,Delhi,Delhi,"Pusa, Delhi - DPCC",24-09-2025 07:00:00,28.639652,77.146275,OZONE,3,53,11
India,Delhi,Delhi,"Pusa, Delhi - IMD",24-09-2025 07:00:00,28.636110,77.173332,PM2.5,NA,NA,NA
India,Delhi,Delhi,"R K Puram, Delhi - DPCC",24-09-2025 07:00:00,28.563262,77.186937,PM2.5,12,123,59
India,Delhi,Delhi,"Rohini, Delhi - DPCC",24-09-2025 07:00:00,28.732528,77.119920,SO2,3,6,3
India,Delhi,Delhi,"IGI Airport (T3), Delhi - IMD",24-09-2025 07:00:00,28.5627763,77.1180053,OZONE,1,1,1
India,Delhi,Delhi,"IHBAS, Dilshad Garden, Delhi - CPCB",24-09-2025 07:00:00,28.6811736,77.3025234,OZONE,9,15,13
India,Delhi,Delhi,"ITO, Delhi - CPCB",24-09-2025 07:00:00,28.628624,77.241060,NO2,81,97,89
India,Delhi,Delhi,"ITO, Delhi - CPCB",24-09-2025 07:00:00,28.628624,77.241060,CO,32,62,48
India,Delhi,Delhi,"Jawaharlal Nehru Stadium, Delhi - DPCC",24-09-2025 07:00:00,28.580280,77.233829,PM2.5,20,99,43
India,Delhi,Delhi,"Jawaharlal Nehru Stadium, Delhi - DPCC",24-09-2025 07:00:00,28.580280,77.233829,SO2,1,18,7
India,Chhattisgarh,Raipur,"AIIMS, Raipur - CECB",24-09-2025 07:00:00,21.258815,81.578979,SO2,11,22,13
India,Chhattisgarh,Raipur,"AIIMS, Raipur - CECB",24-09-2025 07:00:00,21.258815,81.578979,CO,18,28,27
India,Chhattisgarh,Raipur,"Siltara Phase-II, Raipur - CECB",24-09-2025 07:00:00,21.371751,81.664929,NO2,6,61,24
India,Delhi,Delhi,"Mandir Marg, Delhi - DPCC",24-09-2025 07:00:00,28.636429,77.201067,PM2.5,10,170,64
India,Delhi,Delhi,"Mundka, Delhi - DPCC",24-09-2025 07:00:00,28.684678,77.076574,PM10,104,388,150
India,Delhi,Delhi,"DTU, Delhi - CPCB",24-09-2025 07:00:00,28.7500499,77.1112615,PM2.5,21,62,37
India,Karnataka,Bengaluru,"BTM Layout, Bengaluru - CPCB",24-09-2025 07:00:00,12.9135218,77.5950804,OZONE,22,23,22
India,Karnataka,Bengaluru,"Bapuji Nagar, Bengaluru - KSPCB",24-09-2025 07:00:00,12.951913,77.539784,SO2,2,8,5
India,Karnataka,Bengaluru,"Bapuji Nagar, Bengaluru - KSPCB",24-09-2025 07:00:00,12.951913,77.539784,OZONE,1,29,3
India,Karnataka,Bengaluru,"Hebbal, Bengaluru - KSPCB",24-09-2025 07:00:00,13.029152,77.585901,CO,16,30,18
India,Karnataka,Bengaluru,"Hombegowda Nagar, Bengaluru - KSPCB",24-09-2025 07:00:00,12.938539,77.590100,PM2.5,6,52,16
India,Karnataka,Bengaluru,"Hombegowda Nagar, Bengaluru - KSPCB",24-09-2025 07:00:00,12.938539,77.590100,CO,8,20,11
India,Karnataka,Bengaluru,"Sanegurava Halli, Bengaluru - KSPCB",24-09-2025 07:00:00,12.990328,77.5431385,NO2,NA,NA,NA
India,Karnataka,Bengaluru,"Shivapura_Peenya, Bengaluru - KSPCB",24-09-2025 07:00:00,13.0246342,77.5080115,PM10,48,63,54
India,Gujarat,Gandhinagar,"GIFT City, Gandhinagar - IITM",24-09-2025 07:00:00,23.163798,72.677768,OZONE,2,17,6
India,Gujarat,Gandhinagar,"IIPHG Lekawada, Gandhinagar - IITM",24-09-2025 07:00:00,23.243639,72.68994,NO2,3,10,5
India,Gujarat,Vapi,"Phase-1 GIDC, Vapi - GPCB",24-09-2025 07:00:00,20.362421,72.918013,PM2.5,26,300,78
India,Gujarat,Vapi,"Phase-1 GIDC, Vapi - GPCB",24-09-2025 07:00:00,20.362421,72.918013,NO2,13,14,14
India,Gujarat,Vapi,"Phase-1 GIDC, Vapi - GPCB",24-09-2025 07:00:00,20.362421,72.918013,NH3,10,10,10
India,Gujarat,Vapi,"Phase-1 GIDC, Vapi - GPCB",24-09-2025 07:00:00,20.362421,72.918013,SO2,45,47,46
India,Haryana,Gurugram,"NISE Gwal Pahari, Gurugram - IMD",24-09-2025 07:00:00,28.422681,77.148944,PM2.5,1,171,78
India,Haryana,Gurugram,"NISE Gwal Pahari, Gurugram - IMD",24-09-2025 07:00:00,28.422681,77.148944,PM10,79,149,114
India,Haryana,Gurugram,"NISE Gwal Pahari, Gurugram - IMD",24-09-2025 07:00:00,28.422681,77.148944,CO,48,76,73
India,Haryana,Panchgaon,"Amity University, Panchgaon - IITM",24-09-2025 07:00:00,28.3153,76.9143,NH3,1,5,3
India,Jharkhand,Dhanbad,"Sardar Patel Nagar, Dhanbad - JSPCB",24-09-2025 07:00:00,23.80569,86.44268,SO2,1,105,24
India,Jharkhand,Jorapokhar,"Tata Stadium, Jorapokhar - JSPCB",24-09-2025 07:00:00,23.707909,86.414670,OZONE,NA,NA,NA
India,Karnataka,Bengaluru,"BTM Layout, Bengaluru - CPCB",24-09-2025 07:00:00,12.9135218,77.5950804,NO2,74,90,82
India,Delhi,Delhi,"Wazirpur, Delhi - DPCC",24-09-2025 07:00:00,28.699793,77.165453,NO2,52,97,74
India,Delhi,Delhi,"Wazirpur, Delhi - DPCC",24-09-2025 07:00:00,28.699793,77.165453,SO2,6,29,15
India,Gujarat,Ahmedabad,"Chandkheda, Ahmedabad - IITM",24-09-2025 07:00:00,23.107969,72.574648,PM2.5,15,44,26
India,Gujarat,Ahmedabad,"Chandkheda, Ahmedabad - IITM",24-09-2025 07:00:00,23.107969,72.574648,OZONE,4,30,10
India,Gujarat,Ahmedabad,"Gyaspur, Ahmedabad - IITM",24-09-2025 07:00:00,22.977134,72.553024,PM2.5,11,75,34
India,Gujarat,Ahmedabad,"Gyaspur, Ahmedabad - IITM",24-09-2025 07:00:00,22.977134,72.553024,PM10,49,216,97
India,Gujarat,Ahmedabad,"Gyaspur, Ahmedabad - IITM",24-09-2025 07:00:00,22.977134,72.553024,NH3,1,2,1
India,Gujarat,Ahmedabad,"Gyaspur, Ahmedabad - IITM",24-09-2025 07:00:00,22.977134,72.553024,SO2,11,17,13
India,Delhi,Delhi,"Shadipur, Delhi - CPCB",24-09-2025 07:00:00,28.6514781,77.1473105,CO,22,63,46
India,Delhi,Delhi,"Sirifort, Delhi - CPCB",24-09-2025 07:00:00,28.5504249,77.2159377,SO2,22,27,24
India,Delhi,Delhi,"Sonia Vihar, Delhi - DPCC",24-09-2025 07:00:00,28.710508,77.249485,CO,37,71,62
India,Delhi,Delhi,"Sri Aurobindo Marg, Delhi - DPCC",24-09-2025 07:00:00,28.531346,77.190156,NO2,3,23,13
India,Delhi,Delhi,"Vivek Vihar, Delhi - DPCC",24-09-2025 07:00:00,28.672342,77.315260,PM10,98,147,116
India,Gujarat,Ahmedabad,"Rakhial, Ahmedabad - IITM",24-09-2025 07:00:00,23.016834,72.625775,SO2,6,61,16
India,Gujarat,Ahmedabad,"Rakhial, Ahmedabad - IITM",24-09-2025 07:00:00,23.016834,72.625775,OZONE,7,22,11
India,Gujarat,Ahmedabad,"SAC ISRO Bopal, Ahmedabad - IITM",24-09-2025 07:00:00,23.041137,72.456691,OZONE,4,31,9
India,Gujarat,Ahmedabad,"SAC ISRO Satellite, Ahmedabad - IITM",24-09-2025 07:00:00,23.023389,72.515201,OZONE,2,25,7
India,Gujarat,Ahmedabad,"SVPI Airport Hansol, Ahmedabad - IITM",24-09-2025 07:00:00,23.076793,72.627874,NH3,1,1,1
India,Gujarat,Ahmedabad,"SVPI Airport Hansol, Ahmedabad - IITM",24-09-2025 07:00:00,23.076793,72.627874,SO2,1,26,7
India,Karnataka,Bengaluru,"Shivapura_Peenya, Bengaluru - KSPCB",24-09-2025 07:00:00,13.0246342,77.5080115,NO2,24,26,25
India,Karnataka,Bengaluru,"Shivapura_Peenya, Bengaluru - KSPCB",24-09-2025 07:00:00,13.0246342,77.5080115,SO2,1,5,2
India,Karnataka,Bengaluru,"Shivapura_Peenya, Bengaluru - KSPCB",24-09-2025 07:00:00,13.0246342,77.5080115,CO,24,30,26
India,Karnataka,Chikkamagaluru,"Kalyana Nagara, Chikkamagaluru - KSPCB",24-09-2025 07:00:00,13.328028,75.797056,PM10,18,31,21
India,Karnataka,Chikkamagaluru,"Kalyana Nagara, Chikkamagaluru - KSPCB",24-09-2025 07:00:00,13.328028,75.797056,CO,8,24,12
India,Karnataka,Chikkamagaluru,"Kalyana Nagara, Chikkamagaluru - KSPCB",24-09-2025 07:00:00,13.328028,75.797056,OZONE,30,39,35
India,Karnataka,Dharwad,"Kalabhavan, Dharwad - KSPCB",24-09-2025 07:00:00,15.459706,75.008381,OZONE,12,19,15
India,Karnataka,Hassan,"B.Katihalli, Hassan - KSPCB",24-09-2025 07:00:00,13.008556,76.125258,NH3,NA,NA,NA
India,Karnataka,Hubballi,"Lingaraj Nagar, Hubballi - KSPCB",24-09-2025 07:00:00,15.3714823,75.1160168,NO2,7,8,7
India,Gujarat,Ahmedabad,"Gyaspur, Ahmedabad - IITM",24-09-2025 07:00:00,22.977134,72.553024,CO,32,56,38
India,Gujarat,Ahmedabad,"Raikhad, Ahmedabad - IITM",24-09-2025 07:00:00,23.020509,72.579261,PM10,39,67,56
India,Gujarat,Ahmedabad,"Rakhial, Ahmedabad - IITM",24-09-2025 07:00:00,23.016834,72.625775,PM2.5,8,32,17
India,Gujarat,Ahmedabad,"Rakhial, Ahmedabad - IITM",24-09-2025 07:00:00,23.016834,72.625775,PM10,35,91,60
India,Kerala,Thiruvananthapuram,"Kariavattom, Thiruvananthapuram - Kerala PCB",24-09-2025 07:00:00,8.563700,76.886500,OZONE,36,36,36
India,Kerala,Thiruvananthapuram,"Plammoodu, Thiruvananthapuram - Kerala PCB",24-09-2025 07:00:00,8.5149093,76.9435879,PM10,1,99,22
India,Kerala,Thiruvananthapuram,"Plammoodu, Thiruvananthapuram - Kerala PCB",24-09-2025 07:00:00,8.5149093,76.9435879,SO2,11,26,19
India,Kerala,Thrissur,"Corporation Ground, Thrissur - Kerala PCB",24-09-2025 07:00:00,10.532400,76.215900,NO2,6,7,7
India,Madhya Pradesh,Bhopal,"Idgah Hills, Bhopal - MPPCB",24-09-2025 07:00:00,23.264759,77.381568,PM2.5,32,78,42
India,Madhya Pradesh,Bhopal,"Idgah Hills, Bhopal - MPPCB",24-09-2025 07:00:00,23.264759,77.381568,NH3,2,7,3
India,Madhya Pradesh,Bhopal,"Paryavaran Parisar, Bhopal - MPPCB",24-09-2025 07:00:00,23.210494,77.425409,NH3,2,3,2
India,Madhya Pradesh,Bhopal,"Paryavaran Parisar, Bhopal - MPPCB",24-09-2025 07:00:00,23.210494,77.425409,CO,14,46,16
India,Madhya Pradesh,Bhopal,"T T Nagar, Bhopal - MPPCB",24-09-2025 07:00:00,23.233584,77.400574,NO2,17,57,29
India,Madhya Pradesh,Bhopal,"T T Nagar, Bhopal - MPPCB",24-09-2025 07:00:00,23.233584,77.400574,NH3,5,6,5
India,Madhya Pradesh,Damoh,"Shrivastav Colony, Damoh - MPPCB",24-09-2025 07:00:00,23.81748678,79.446246,SO2,24,29,27
India,Madhya Pradesh,Damoh,"Shrivastav Colony, Damoh - MPPCB",24-09-2025 07:00:00,23.81748678,79.446246,CO,16,25,25
India,Madhya Pradesh,Gwalior,"City Center, Gwalior - MPPCB",24-09-2025 07:00:00,26.203442,78.193251,NO2,8,10,10
India,Madhya Pradesh,Gwalior,"City Center, Gwalior - MPPCB",24-09-2025 07:00:00,26.203442,78.193251,NH3,1,2,1
India,Madhya Pradesh,Gwalior,"City Center, Gwalior - MPPCB",24-09-2025 07:00:00,26.203442,78.193251,CO,4,72,23
India,Madhya Pradesh,Gwalior,"Maharaj Bada, Gwalior - MPPCB",24-09-2025 07:00:00,26.200388,78.147714,NO2,8,27,14
India,Madhya Pradesh,Gwalior,"Maharaj Bada, Gwalior - MPPCB",24-09-2025 07:00:00,26.200388,78.147714,NH3,2,3,2
India,Madhya Pradesh,Gwalior,"Maharaj Bada, Gwalior - MPPCB",24-09-2025 07:00:00,26.200388,78.147714,SO2,4,8,6
India,Madhya Pradesh,Gwalior,"Maharaj Bada, Gwalior - MPPCB",24-09-2025 07:00:00,26.200388,78.147714,CO,7,107,58
India,Madhya Pradesh,Indore,"Airport Area, Indore - IMC",24-09-2025 07:00:00,22.7289,75.8076,PM2.5,15,32,21
India,Madhya Pradesh,Indore,"Airport Area, Indore - IMC",24-09-2025 07:00:00,22.7289,75.8076,SO2,20,21,20
India,Karnataka,Shivamogga,"Vinoba Nagara, Shivamogga - KSPCB",24-09-2025 07:00:00,13.940000,75.555917,NH3,3,4,4
India,Karnataka,Vijayapura,"Ibrahimpur, Vijayapura - KSPCB",24-09-2025 07:00:00,16.802639,75.722694,PM2.5,36,38,37
India,Karnataka,Yadgir,"Collector Office, Yadgir - KSPCB",24-09-2025 07:00:00,16.7602,77.1428,SO2,14,20,18
India,Kerala,Kannur,"Thavakkara, Kannur - Kerala PCB",24-09-2025 07:00:00,11.875000,75.373200,PM2.5,57,62,59
India,Kerala,Kannur,"Thavakkara, Kannur - Kerala PCB",24-09-2025 07:00:00,11.875000,75.373200,CO,14,15,14
India,Kerala,Kollam,"Polayathode, Kollam - Kerala PCB",24-09-2025 07:00:00,8.8787,76.6073,PM2.5,21,28,24
India,Kerala,Thiruvananthapuram,"Kariavattom, Thiruvananthapuram - Kerala PCB",24-09-2025 07:00:00,8.563700,76.886500,PM2.5,32,38,36
India,Madhya Pradesh,Indore,"Chhoti Gwaltoli, Indore - MPPCB",24-09-2025 07:00:00,22.4310,75.5213,NO2,48,75,62
India,Madhya Pradesh,Indore,"Chhoti Gwaltoli, Indore - MPPCB",24-09-2025 07:00:00,22.4310,75.5213,SO2,9,18,11
India,Madhya Pradesh,Indore,"Regional Park, Indore - IMC",24-09-2025 07:00:00,22.6780,75.8559,NH3,1,2,1
India,Madhya Pradesh,Indore,"Residency Area, Indore - IMC",24-09-2025 07:00:00,22.7084,75.8815,NO2,13,17,15
India,Madhya Pradesh,Indore,"Residency Area, Indore - IMC",24-09-2025 07:00:00,22.7084,75.8815,CO,13,14,13
India,Madhya Pradesh,Jabalpur,"Govindh Bhavan Colony, Jabalpur - JMC",24-09-2025 07:00:00,23.163174,79.973061,PM10,47,94,67
India,Madhya Pradesh,Jabalpur,"Govindh Bhavan Colony, Jabalpur - JMC",24-09-2025 07:00:00,23.163174,79.973061,SO2,26,26,26
India,Madhya Pradesh,Jabalpur,"Marhatal, Jabalpur - MPPCB",24-09-2025 07:00:00,23.168606,79.932247,PM10,52,101,84
India,Madhya Pradesh,Jabalpur,"Marhatal, Jabalpur - MPPCB",24-09-2025 07:00:00,23.168606,79.932247,SO2,7,21,12
India,Madhya Pradesh,Katni,"Gole Bazar, Katni - MPPCB",24-09-2025 07:00:00,23.50016,80.23284,SO2,9,51,21
India,Madhya Pradesh,Katni,"Gole Bazar, Katni - MPPCB",24-09-2025 07:00:00,23.50016,80.23284,OZONE,20,92,48
India,Madhya Pradesh,Maihar,"Sahilara, Maihar - KJS Cements",24-09-2025 07:00:00,24.2613009,80.7231783,PM2.5,19,205,75
India,Madhya Pradesh,Mandideep,"Sector-D Industrial Area, Mandideep - MPPCB",24-09-2025 07:00:00,23.108440,77.511428,NH3,2,4,3
India,Maharashtra,Aurangabad,"More Chowk Waluj, Aurangabad - MPCB",24-09-2025 07:00:00,19.8389439,75.244448,NO2,15,23,18
India,Maharashtra,Aurangabad,"Rachnakar Colony, Aurangabad - MPCB",24-09-2025 07:00:00,19.863756,75.321188,PM2.5,26,66,47
India,Maharashtra,Aurangabad,"Rachnakar Colony, Aurangabad - MPCB",24-09-2025 07:00:00,19.863756,75.321188,CO,8,16,9
India,Maharashtra,Badlapur,"Katrap, Badlapur - MPCB",24-09-2025 07:00:00,19.16485,73.23409,OZONE,12,39,13
India,Maharashtra,Bhiwandi,"Gokul Nagar, Bhiwandi - MPCB",24-09-2025 07:00:00,19.309073,73.057223,PM10,18,81,51
India,Karnataka,Karwar,"KHB Colony, Karwar - KSPCB",24-09-2025 07:00:00,14.816666,74.141003,NO2,NA,NA,NA
India,Karnataka,Karwar,"KHB Colony, Karwar - KSPCB",24-09-2025 07:00:00,14.816666,74.141003,SO2,NA,NA,NA
India,Karnataka,Karwar,"KHB Colony, Karwar - KSPCB",24-09-2025 07:00:00,14.816666,74.141003,CO,NA,NA,NA
India,Karnataka,Madikeri,"Stuart Hill, Madikeri - KSPCB",24-09-2025 07:00:00,12.415911,75.735050,SO2,7,7,7
India,Karnataka,Ramanagara,"Vijay Nagar, Ramanagara - KSPCB",24-09-2025 07:00:00,12.733409,77.298051,NH3,NA,NA,NA
India,Madhya Pradesh,Pithampur,"Sector-2 Industrial Area, Pithampur - MPPCB",24-09-2025 07:00:00,22.624758,75.675238,PM10,39,128,78
India,Madhya Pradesh,Pithampur,"Sector-2 Industrial Area, Pithampur - MPPCB",24-09-2025 07:00:00,22.624758,75.675238,CO,10,37,20
India,Madhya Pradesh,Pithampur,"Sector-2 Industrial Area, Pithampur - MPPCB",24-09-2025 07:00:00,22.624758,75.675238,OZONE,22,59,29
India,Madhya Pradesh,Ratlam,"Shasthri Nagar, Ratlam - IPCA Lab",24-09-2025 07:00:00,23.331731,75.045981,NO2,35,36,35
India,Maharashtra,Akola,"Ramdaspeth, Akola - MPCB",24-09-2025 07:00:00,20.719516,77.000253,PM2.5,18,56,30
India,Maharashtra,Akola,"Ramdaspeth, Akola - MPCB",24-09-2025 07:00:00,20.719516,77.000253,SO2,7,9,8
India,Maharashtra,Amravati,"Shri Shivaji Science College, Amravati - MPCB",24-09-2025 07:00:00,20.939198,77.765701,PM10,29,120,57
India,Maharashtra,Mumbai,"Shivaji Nagar, Mumbai - BMC",24-09-2025 07:00:00,19.060498,72.923356,PM2.5,16,53,36
India,Maharashtra,Mumbai,"Shivaji Nagar, Mumbai - BMC",24-09-2025 07:00:00,19.060498,72.923356,NH3,2,5,4
India,Maharashtra,Mumbai,"Shivaji Nagar, Mumbai - BMC",24-09-2025 07:00:00,19.060498,72.923356,CO,4,66,22
India,Maharashtra,Mumbai,"Shivaji Nagar, Mumbai - BMC",24-09-2025 07:00:00,19.060498,72.923356,OZONE,1,19,1
India,Maharashtra,Mumbai,"Worli, Mumbai - MPCB",24-09-2025 07:00:00,18.9936162,72.8128113,NH3,NA,NA,NA
India,Maharashtra,Mumbai,"Worli, Mumbai - MPCB",24-09-2025 07:00:00,18.9936162,72.8128113,OZONE,NA,NA,NA
India,Maharashtra,Nagpur,"Ambazari, Nagpur - MPCB",24-09-2025 07:00:00,21.121801,79.04952,PM2.5,27,73,46
India,Maharashtra,Nagpur,"Ambazari, Nagpur - MPCB",24-09-2025 07:00:00,21.121801,79.04952,NO2,2,41,11
India,Maharashtra,Nagpur,"Ambazari, Nagpur - MPCB",24-09-2025 07:00:00,21.121801,79.04952,SO2,12,15,14
India,Maharashtra,Nagpur,"Ambazari, Nagpur - MPCB",24-09-2025 07:00:00,21.121801,79.04952,CO,5,69,13
India,Maharashtra,Nagpur,"Mahal, Nagpur - MPCB",24-09-2025 07:00:00,21.14472,79.107595,PM2.5,35,94,55
India,Maharashtra,Nagpur,"Opp GPO Civil Lines, Nagpur - MPCB",24-09-2025 07:00:00,21.152875,79.0517531,PM10,31,84,56
India,Maharashtra,Latur,"Sawe Wadi, Latur - MPCB",24-09-2025 07:00:00,18.39963,76.57452,SO2,NA,NA,NA
India,Maharashtra,Latur,"Sawe Wadi, Latur - MPCB",24-09-2025 07:00:00,18.39963,76.57452,CO,12,46,45
India,Maharashtra,Mahad,"Kamble Tarf Birwadi, Mahad - MPCB",24-09-2025 07:00:00,18.1023399,73.4783687,PM10,14,50,26
India,Maharashtra,Mahad,"Kamble Tarf Birwadi, Mahad - MPCB",24-09-2025 07:00:00,18.1023399,73.4783687,NO2,22,32,25
India,Maharashtra,Malegaon,"Mahesh Nagar, Malegaon - MPCB",24-09-2025 07:00:00,20.555712,74.529236,PM10,46,64,55
India,Maharashtra,Malegaon,"Mahesh Nagar, Malegaon - MPCB",24-09-2025 07:00:00,20.555712,74.529236,NO2,4,19,10
India,Maharashtra,Malegaon,"Mahesh Nagar, Malegaon - MPCB",24-09-2025 07:00:00,20.555712,74.529236,NH3,2,2,2
India,Maharashtra,Mira-Bhayandar,"Bhayandar West, Mira-Bhayandar - MPCB",24-09-2025 07:00:00,19.296481,72.840923,PM2.5,9,35,20
India,Maharashtra,Mira-Bhayandar,"Bhayandar West, Mira-Bhayandar - MPCB",24-09-2025 07:00:00,19.296481,72.840923,PM10,14,50,32
India,Maharashtra,Mira-Bhayandar,"Bhayandar West, Mira-Bhayandar - MPCB",24-09-2025 07:00:00,19.296481,72.840923,NH3,1,6,2
India,Maharashtra,Mira-Bhayandar,"Bhayandar West, Mira-Bhayandar - MPCB",24-09-2025 07:00:00,19.296481,72.840923,OZONE,1,55,1
India,Maharashtra,Jalgaon,"Prabhat Colony, Jalgaon - MPCB",24-09-2025 07:00:00,21.001264,75.565602,CO,14,28,16
India,Maharashtra,Jalna,"Old MIDC, Jalna - MPCB",24-09-2025 07:00:00,19.854616,75.905894,NO2,38,49,44
India,Maharashtra,Jalna,"Old MIDC, Jalna - MPCB",24-09-2025 07:00:00,19.854616,75.905894,NH3,3,5,4
India,Maharashtra,Jalna,"Old MIDC, Jalna - MPCB",24-09-2025 07:00:00,19.854616,75.905894,SO2,11,12,11
India,Maharashtra,Kalyan,"Khadakpada, Kalyan - MPCB",24-09-2025 07:00:00,19.25292,73.142019,CO,10,16,14
India,Maharashtra,Kolhapur,"Shivaji University, Kolhapur - MPCB",24-09-2025 07:00:00,16.6870449,74.2505872,SO2,1,3,2
India,Maharashtra,Kolhapur,"Sinchan Bhavan, Kolhapur - MPCB",24-09-2025 07:00:00,16.7143745,74.2426398,PM2.5,24,44,34
India,Maharashtra,Kolhapur,"Sinchan Bhavan, Kolhapur - MPCB",24-09-2025 07:00:00,16.7143745,74.2426398,CO,6,17,8
India,Maharashtra,Latur,"Sawe Wadi, Latur - MPCB",24-09-2025 07:00:00,18.39963,76.57452,NO2,10,13,11
India,Maharashtra,Mumbai,"Chembur, Mumbai - MPCB",24-09-2025 07:00:00,19.0364585,72.8954371,NH3,5,8,7
India,Maharashtra,Mumbai,"Chembur, Mumbai - MPCB",24-09-2025 07:00:00,19.0364585,72.8954371,OZONE,NA,NA,NA
India,Maharashtra,Mumbai,"Colaba, Mumbai - MPCB",24-09-2025 07:00:00,18.910000,72.820000,NH3,3,3,3
India,Maharashtra,Mumbai,"Ghatkopar, Mumbai - BMC",24-09-2025 07:00:00,19.083694,72.920967,PM2.5,7,45,19
India,Maharashtra,Mumbai,"Ghatkopar, Mumbai - BMC",24-09-2025 07:00:00,19.083694,72.920967,PM10,9,71,44
India,Maharashtra,Mumbai,"Kandivali East, Mumbai - MPCB",24-09-2025 07:00:00,19.205800,72.868200,PM2.5,18,90,39
India,Maharashtra,Mumbai,"Kandivali East, Mumbai - MPCB",24-09-2025 07:00:00,19.205800,72.868200,NO2,6,8,7
India,Maharashtra,Mumbai,"Kandivali East, Mumbai - MPCB",24-09-2025 07:00:00,19.205800,72.868200,NH3,1,1,1
India,Maharashtra,Mumbai,"Kandivali West, Mumbai - BMC",24-09-2025 07:00:00,19.215859,72.831718,PM10,27,42,35
India,Maharashtra,Mumbai,"Kandivali West, Mumbai - BMC",24-09-2025 07:00:00,19.215859,72.831718,OZONE,NA,NA,NA
India,Maharashtra,Mumbai,"Kherwadi_Bandra East, Mumbai - MPCB",24-09-2025 07:00:00,19.0632143,72.8456324,NO2,16,16,16
India,Maharashtra,Mumbai,"Kherwadi_Bandra East, Mumbai - MPCB",24-09-2025 07:00:00,19.0632143,72.8456324,OZONE,1,37,1
India,Maharashtra,Mumbai,"Khindipada-Bhandup West, Mumbai - IITM",24-09-2025 07:00:00,19.1653323,72.922099,SO2,2,15,6
India,Maharashtra,Mumbai,"Kurla, Mumbai - MPCB",24-09-2025 07:00:00,19.0863,72.8888,NO2,4,7,5
India,Maharashtra,Mumbai,"Kurla, Mumbai - MPCB",24-09-2025 07:00:00,19.0863,72.8888,CO,4,22,11
India,Maharashtra,Mumbai,"Kurla, Mumbai - MPCB",24-09-2025 07:00:00,19.0863,72.8888,OZONE,28,30,28
India,Maharashtra,Mumbai,"Malad West, Mumbai - IITM",24-09-2025 07:00:00,19.19709,72.82204,NH3,NA,NA,NA
India,Maharashtra,Mumbai,"Mindspace-Malad West, Mumbai - MPCB",24-09-2025 07:00:00,19.1878657,72.8304069,NH3,5,6,6
India,Maharashtra,Mumbai,"Mindspace-Malad West, Mumbai - MPCB",24-09-2025 07:00:00,19.1878657,72.8304069,CO,30,31,30
India,Maharashtra,Mumbai,"Navy Nagar-Colaba, Mumbai - IITM",24-09-2025 07:00:00,18.897756,72.813320,NO2,14,90,40
India,Maharashtra,Mumbai,"Navy Nagar-Colaba, Mumbai - IITM",24-09-2025 07:00:00,18.897756,72.813320,CO,6,40,8
India,Maharashtra,Mumbai,"Powai, Mumbai - MPCB",24-09-2025 07:00:00,19.137500,72.915056,PM10,28,93,44
India,Maharashtra,Mumbai,"Powai, Mumbai - MPCB",24-09-2025 07:00:00,19.137500,72.915056,NH3,2,2,2
India,Maharashtra,Mumbai,"Powai, Mumbai - MPCB",24-09-2025 07:00:00,19.137500,72.915056,SO2,15,15,15
India,Maharashtra,Mumbai,"Powai, Mumbai - MPCB",24-09-2025 07:00:00,19.137500,72.915056,OZONE,9,9,9
India,Maharashtra,Mumbai,"Bandra Kurla Complex, Mumbai - MPCB",24-09-2025 07:00:00,19.065931,72.862131,NO2,8,36,20
India,Maharashtra,Mumbai,"Borivali East, Mumbai - MPCB",24-09-2025 07:00:00,19.2243333,72.8658113,NO2,1,8,3
India,Maharashtra,Mumbai,"Borivali East, Mumbai - MPCB",24-09-2025 07:00:00,19.2243333,72.8658113,NH3,1,1,1
India,Maharashtra,Mumbai,"Byculla, Mumbai - BMC",24-09-2025 07:00:00,18.9767,72.8380,PM2.5,11,55,28
India,Maharashtra,Mumbai,"Byculla, Mumbai - BMC",24-09-2025 07:00:00,18.9767,72.8380,NH3,3,14,7
India,Maharashtra,Mumbai,"Chakala-Andheri East, Mumbai - IITM",24-09-2025 07:00:00,19.11074,72.86084,PM2.5,15,56,34
India,Maharashtra,Nanded,"Sneh Nagar, Nanded - MPCB",24-09-2025 07:00:00,19.173852,77.296291,PM10,24,37,29
India,Maharashtra,Nanded,"Sneh Nagar, Nanded - MPCB",24-09-2025 07:00:00,19.173852,77.296291,SO2,NA,NA,NA
India,Maharashtra,Nashik,"Gangapur Road, Nashik - MPCB",24-09-2025 07:00:00,20.0073285,73.7762427,PM2.5,8,29,17
India,Maharashtra,Nashik,"Gangapur Road, Nashik - MPCB",24-09-2025 07:00:00,20.0073285,73.7762427,CO,8,10,9
India,Maharashtra,Nashik,"Hirawadi, Nashik - MPCB",24-09-2025 07:00:00,20.021503,73.813844,PM2.5,7,25,16
India,Maharashtra,Chandrapur,"Chauhan Colony, Chandrapur - MPCB",24-09-2025 07:00:00,19.962900,79.298714,NH3,3,3,3
India,Maharashtra,Chandrapur,"MIDC Khutala, Chandrapur - MPCB",24-09-2025 07:00:00,19.9775302,79.2337086,CO,49,84,54
India,Maharashtra,Jalgaon,"Prabhat Colony, Jalgaon - MPCB",24-09-2025 07:00:00,21.001264,75.565602,PM2.5,15,64,46
India,Meghalaya,Shillong,"Lumpyngngad, Shillong - Meghalaya PCB",24-09-2025 07:00:00,25.5586,91.8985,CO,2,6,2
India,Nagaland,Kohima,"PWD Junction, Kohima - NPCB",24-09-2025 07:00:00,25.6635413,94.0989878,PM2.5,NA,NA,NA
India,Odisha,Angul,"Hakimapada, Angul - OSPCB",24-09-2025 07:00:00,20.832874,85.104082,PM10,6,137,42
India,Odisha,Angul,"Hakimapada, Angul - OSPCB",24-09-2025 07:00:00,20.832874,85.104082,SO2,6,81,15
India,Odisha,Balasore,"Kalidaspur, Balasore - OSPCB",24-09-2025 07:00:00,21.51161,86.89088,NH3,1,3,1
India,Odisha,Balasore,"Kalidaspur, Balasore - OSPCB",24-09-2025 07:00:00,21.51161,86.89088,OZONE,5,65,11
India,Odisha,Barbil,"Forest Office, Barbil - OSPCB",24-09-2025 07:00:00,22.1166054,85.3945546,PM2.5,7,42,19
India,Odisha,Barbil,"Forest Office, Barbil - OSPCB",24-09-2025 07:00:00,22.1166054,85.3945546,PM10,2,47,22
India,Odisha,Barbil,"Forest Office, Barbil - OSPCB",24-09-2025 07:00:00,22.1166054,85.3945546,NO2,11,29,17
India,Odisha,Barbil,"Forest Office, Barbil - OSPCB",24-09-2025 07:00:00,22.1166054,85.3945546,SO2,7,11,9
India,Odisha,Barbil,"Forest Office, Barbil - OSPCB",24-09-2025 07:00:00,22.1166054,85.3945546,CO,24,43,32
India,Odisha,Baripada,"Meher Colony, Baripada - OSPCB",24-09-2025 07:00:00,21.941841,86.728318,PM2.5,17,77,42
India,Maharashtra,Pune,"Revenue Colony-Shivajinagar, Pune - IITM",24-09-2025 07:00:00,18.530085,73.849598,PM10,39,281,91
India,Maharashtra,Pune,"Revenue Colony-Shivajinagar, Pune - IITM",24-09-2025 07:00:00,18.530085,73.849598,OZONE,NA,NA,NA
India,Maharashtra,Pune,"Transport Nagar-Nigdi, Pune - IITM",24-09-2025 07:00:00,18.664282,73.763966,NO2,13,18,16
India,Maharashtra,Pune,"Transport Nagar-Nigdi, Pune - IITM",24-09-2025 07:00:00,18.664282,73.763966,CO,43,101,59
India,Maharashtra,Sangli,"Vijay Nagar, Sangli - MPCB",24-09-2025 07:00:00, 16.5038,74.3623,PM2.5,23,46,35
India,Maharashtra,Sangli,"Vijay Nagar, Sangli - MPCB",24-09-2025 07:00:00, 16.5038,74.3623,NH3,1,3,2
India,Maharashtra,Solapur,"Dnyaneshwar Nagar, Solapur - MPCB",24-09-2025 07:00:00,17.6336264,75.9132495,PM2.5,6,20,13
India,Maharashtra,Solapur,"Dnyaneshwar Nagar, Solapur - MPCB",24-09-2025 07:00:00,17.6336264,75.9132495,SO2,1,4,3
India,Maharashtra,Solapur,"Ratandeep Housing Society, Solapur - MPCB",24-09-2025 07:00:00,17.65439,75.90649,PM2.5,4,32,19
India,Maharashtra,Nashik,"MIDC Ambad, Nashik - MPCB",24-09-2025 07:00:00,19.950220,73.731480,NO2,5,14,9
India,Maharashtra,Nashik,"Pandav Nagari, Nashik - MPCB",24-09-2025 07:00:00,19.9591346,73.7788008,NO2,2,10,4
India,Maharashtra,Nashik,"Pandav Nagari, Nashik - MPCB",24-09-2025 07:00:00,19.9591346,73.7788008,CO,1,30,7
India,Maharashtra,Navi Mumbai,"Mahape, Navi Mumbai - MPCB",24-09-2025 07:00:00,19.1135051,73.008978,SO2,28,28,28
India,Maharashtra,Navi Mumbai,"Mahape, Navi Mumbai - MPCB",24-09-2025 07:00:00,19.1135051,73.008978,OZONE,7,11,10
India,Maharashtra,Navi Mumbai,"Nerul, Navi Mumbai - MPCB",24-09-2025 07:00:00,19.008751,73.016620,PM10,NA,NA,NA
India,Maharashtra,Navi Mumbai,"Nerul, Navi Mumbai - MPCB",24-09-2025 07:00:00,19.008751,73.016620,NO2,29,30,29
India,Maharashtra,Navi Mumbai,"Nerul, Navi Mumbai - MPCB",24-09-2025 07:00:00,19.008751,73.016620,NH3,3,4,3
India,Maharashtra,Navi Mumbai,"Nerul, Navi Mumbai - MPCB",24-09-2025 07:00:00,19.008751,73.016620,SO2,NA,NA,NA
India,Maharashtra,Navi Mumbai,"Sanpada, Navi Mumbai - MPCB",24-09-2025 07:00:00,19.0575752,73.0151367,NH3,11,24,15
India,Odisha,Byasanagar,"Ferro Chrome Colony, Byasanagar - OSPCB",24-09-2025 07:00:00,20.94185,86.11510,OZONE,11,48,36
India,Odisha,Nayagarh,"Dabuna, Nayagarh - OSPCB",24-09-2025 07:00:00,21.847279,85.416905,PM10,23,25,24
India,Odisha,Nayagarh,"Dabuna, Nayagarh - OSPCB",24-09-2025 07:00:00,21.847279,85.416905,OZONE,14,25,20
India,Odisha,Rairangpur,"Divisional Forest Office, Rairangpur - OSPCB",24-09-2025 07:00:00,22.265816,86.174829,SO2,NA,NA,NA
India,Odisha,Rourkela,"Fertilizer Township, Rourkela - OSPCB",24-09-2025 07:00:00,22.18972222,84.86277778,PM10,57,387,92
India,Odisha,Rourkela,"Fertilizer Township, Rourkela - OSPCB",24-09-2025 07:00:00,22.18972222,84.86277778,NO2,NA,NA,NA
India,Odisha,Rourkela,"Fertilizer Township, Rourkela - OSPCB",24-09-2025 07:00:00,22.18972222,84.86277778,CO,NA,NA,NA
India,Odisha,Rourkela,"Raghunathpali, Rourkela - OSPCB",24-09-2025 07:00:00,22.220833,84.809444,NH3,1,2,1
India,Maharashtra,Navi Mumbai,"Sector-2E Kalamboli, Navi Mumbai - MPCB",24-09-2025 07:00:00,19.02579,73.10297,SO2,1,4,2
India,Maharashtra,Navi Mumbai,"Sector-2E Kalamboli, Navi Mumbai - MPCB",24-09-2025 07:00:00,19.02579,73.10297,CO,6,16,8
India,Maharashtra,Navi Mumbai,"Tondare-Taloja, Navi Mumbai - MPCB",24-09-2025 07:00:00,19.0630,73.1209,NO2,15,46,29
India,Maharashtra,Navi Mumbai,"Tondare-Taloja, Navi Mumbai - MPCB",24-09-2025 07:00:00,19.0630,73.1209,SO2,3,4,4
India,Maharashtra,Pimpri-Chinchwad,"Gavalinagar, Pimpri Chinchwad - MPCB",24-09-2025 07:00:00,18.63673,73.82487,SO2,2,3,3
India,Maharashtra,Pimpri-Chinchwad,"Gavalinagar, Pimpri Chinchwad - MPCB",24-09-2025 07:00:00,18.63673,73.82487,CO,7,35,10
India,Maharashtra,Pimpri-Chinchwad,"Park Street Wakad, Pimpri Chinchwad - MPCB",24-09-2025 07:00:00,18.59051,73.77946,NO2,5,15,11
India,Maharashtra,Pimpri-Chinchwad,"Park Street Wakad, Pimpri Chinchwad - MPCB",24-09-2025 07:00:00,18.59051,73.77946,SO2,2,3,3
India,Maharashtra,Pimpri-Chinchwad,"Park Street Wakad, Pimpri Chinchwad - MPCB",24-09-2025 07:00:00,18.59051,73.77946,OZONE,1,16,2
India,Maharashtra,Pimpri-Chinchwad,"Savta Mali Nagar, Pimpri-Chinchwad - IITM",24-09-2025 07:00:00,18.614767,73.799516,PM10,28,70,50
India,Maharashtra,Pimpri-Chinchwad,"Savta Mali Nagar, Pimpri-Chinchwad - IITM",24-09-2025 07:00:00,18.614767,73.799516,NO2,20,46,33
India,Maharashtra,Pune,"Katraj Dairy, Pune - MPCB",24-09-2025 07:00:00,18.454450,73.854155,CO,4,113,19
India,Maharashtra,Pune,"Mhada Colony, Pune - IITM",24-09-2025 07:00:00,18.573040,73.927715,PM10,43,101,80
India,Maharashtra,Pune,"Panchawati_Pashan, Pune - IITM",24-09-2025 07:00:00,18.536457,73.805454,PM2.5,20,53,32
India,Odisha,Baripada,"Meher Colony, Baripada - OSPCB",24-09-2025 07:00:00,21.941841,86.728318,OZONE,6,20,11
India,Odisha,Bhubaneswar,"Lingraj Mandir, Bhubaneswar - OSPCB",24-09-2025 07:00:00,20.240790,85.836784,CO,13,56,26
India,Odisha,Bhubaneswar,"Patia, Bhubaneswar - OSPCB",24-09-2025 07:00:00,20.34652,85.81630,PM2.5,2,52,23
India,Odisha,Bhubaneswar,"Patia, Bhubaneswar - OSPCB",24-09-2025 07:00:00,20.34652,85.81630,SO2,1,44,10
India,Odisha,Byasanagar,"Ferro Chrome Colony, Byasanagar - OSPCB",24-09-2025 07:00:00,20.94185,86.11510,PM2.5,10,75,27
India,Odisha,Byasanagar,"Ferro Chrome Colony, Byasanagar - OSPCB",24-09-2025 07:00:00,20.94185,86.11510,PM10,5,105,40
India,Odisha,Rourkela,"Raghunathpali, Rourkela - OSPCB",24-09-2025 07:00:00,22.220833,84.809444,CO,23,80,32
India,Odisha,Talcher,"Talcher Coalfields,Talcher - OSPCB",24-09-2025 07:00:00,20.9360711,85.1707021,PM2.5,1,92,30
India,Odisha,Talcher,"Talcher Coalfields,Talcher - OSPCB",24-09-2025 07:00:00,20.9360711,85.1707021,NO2,29,52,43
India,Punjab,Amritsar,"Golden Temple, Amritsar - PPCB",24-09-2025 07:00:00,31.620000,74.876512,PM2.5,65,82,75
India,Punjab,Bathinda,"Hardev Nagar, Bathinda - PPCB",24-09-2025 07:00:00,30.233011,74.907758,PM10,46,114,77
India,Maharashtra,Thane,"Upvan Fort, Thane - MPCB",24-09-2025 07:00:00,19.222279,72.957979,CO,18,48,33
India,Maharashtra,Ulhasnagar,"Sidhi Vinayak Nagar, Ulhasnagar - MPCB",24-09-2025 07:00:00,19.235581,73.159121,CO,12,76,30
India,Meghalaya,Shillong,"JN Stadium, Shillong - Meghalaya PCB",24-09-2025 07:00:00,25.5803419,91.8942571,NH3,8,14,11
India,Meghalaya,Shillong,"Lumpyngngad, Shillong - Meghalaya PCB",24-09-2025 07:00:00,25.5586,91.8985,PM2.5,1,18,8
India,Rajasthan,Dungarpur,"Bhoiwada, Dungarpur - RSPCB",24-09-2025 07:00:00,23.837789,73.714926,PM2.5,20,33,25
India,Rajasthan,Dungarpur,"Bhoiwada, Dungarpur - RSPCB",24-09-2025 07:00:00,23.837789,73.714926,SO2,3,44,8
India,Rajasthan,Dungarpur,"Bhoiwada, Dungarpur - RSPCB",24-09-2025 07:00:00,23.837789,73.714926,CO,18,48,20
India,Rajasthan,Hanumangarh,"Housing Board, Hanumangarh - RSPCB",24-09-2025 07:00:00,29.610750,74.283608,NO2,5,23,11
India,Rajasthan,Hanumangarh,"Housing Board, Hanumangarh - RSPCB",24-09-2025 07:00:00,29.610750,74.283608,NH3,5,9,7
India,Rajasthan,Hanumangarh,"Housing Board, Hanumangarh - RSPCB",24-09-2025 07:00:00,29.610750,74.283608,OZONE,21,50,25
India,Rajasthan,Jaipur,"Mansarovar Sector-12, Jaipur - RSPCB",24-09-2025 07:00:00,26.843698,75.766894,PM10,54,184,100
India,Rajasthan,Jaipur,"Mansarovar Sector-12, Jaipur - RSPCB",24-09-2025 07:00:00,26.843698,75.766894,OZONE,19,133,34
India,Rajasthan,Jaipur,"Police Commissionerate, Jaipur - RSPCB",24-09-2025 07:00:00,26.9164092,75.7994901,PM10,44,136,92
India,Rajasthan,Jaipur,"Police Commissionerate, Jaipur - RSPCB",24-09-2025 07:00:00,26.9164092,75.7994901,SO2,3,25,13
India,Rajasthan,Jaipur,"Sector-2 Murlipura, Jaipur - RSPCB",24-09-2025 07:00:00,26.960669,75.771817,NO2,13,81,27
India,Rajasthan,Jaipur,"Sector-2 Murlipura, Jaipur - RSPCB",24-09-2025 07:00:00,26.960669,75.771817,NH3,1,3,2
India,Rajasthan,Jaipur,"Sector-2 Murlipura, Jaipur - RSPCB",24-09-2025 07:00:00,26.960669,75.771817,OZONE,6,38,14
India,Rajasthan,Jaipur,"Shastri Nagar, Jaipur - RSPCB",24-09-2025 07:00:00,26.9502929,75.730943,PM10,76,149,102
India,Rajasthan,Jaipur,"Shastri Nagar, Jaipur - RSPCB",24-09-2025 07:00:00,26.9502929,75.730943,OZONE,17,47,35
India,Rajasthan,Jaisalmer,"Sadar Bazar, Jaisalmer - RSPCB",24-09-2025 07:00:00,26.912329,70.909168,PM2.5,8,38,22
India,Rajasthan,Jalore,"Mudtra Sili, Jalore - RSPCB",24-09-2025 07:00:00,25.344694,72.626208,SO2,2,4,3
India,Rajasthan,Jhalawar,"Rajlaxmi Nagar, Jhalawar - RSPCB",24-09-2025 07:00:00,24.588397,76.172782,PM10,22,59,41
India,Rajasthan,Jhalawar,"Rajlaxmi Nagar, Jhalawar - RSPCB",24-09-2025 07:00:00,24.588397,76.172782,NO2,7,22,11
India,Rajasthan,Banswara,"Rati Talai, Banswara - RSPCB",24-09-2025 07:00:00,23.555190,74.440010,PM10,52,88,70
India,Rajasthan,Banswara,"Rati Talai, Banswara - RSPCB",24-09-2025 07:00:00,23.555190,74.440010,NO2,5,18,10
India,Rajasthan,Baran,"Bamboliya, Baran - RSPCB",24-09-2025 07:00:00,25.106006,76.469948,PM10,61,127,91
India,Rajasthan,Baran,"Bamboliya, Baran - RSPCB",24-09-2025 07:00:00,25.106006,76.469948,NH3,3,4,4
India,Rajasthan,Baran,"Bamboliya, Baran - RSPCB",24-09-2025 07:00:00,25.106006,76.469948,SO2,5,6,6
India,Rajasthan,Baran,"Bamboliya, Baran - RSPCB",24-09-2025 07:00:00,25.106006,76.469948,CO,15,28,20
India,Rajasthan,Baran,"Bamboliya, Baran - RSPCB",24-09-2025 07:00:00,25.106006,76.469948,OZONE,16,72,24
India,Rajasthan,Barmer,"Railway Colony, Barmer - RSPCB",24-09-2025 07:00:00,25.747299,71.393989,NO2,2,16,7
India,Rajasthan,Bharatpur,"Krishna Nagar, Bharatpur - RSPCB",24-09-2025 07:00:00,27.215415,77.50873,PM2.5,30,66,43
India,Punjab,Khanna,"Kalal Majra, Khanna - PPCB",24-09-2025 07:00:00,30.736056 ,76.209694,PM2.5,35,95,71
India,Punjab,Khanna,"Kalal Majra, Khanna - PPCB",24-09-2025 07:00:00,30.736056 ,76.209694,PM10,39,103,78
India,Punjab,Ludhiana,"Punjab Agricultural University, Ludhiana - PPCB",24-09-2025 07:00:00,30.9028,75.8086,SO2,NA,NA,NA
India,Punjab,Mandi Gobindgarh,"RIMT University, Mandi Gobindgarh - PPCB",24-09-2025 07:00:00,30.649961,76.331442,NO2,23,25,24
India,Punjab,Mandi Gobindgarh,"RIMT University, Mandi Gobindgarh - PPCB",24-09-2025 07:00:00,30.649961,76.331442,SO2,3,41,16
India,Punjab,Patiala,"Model Town, Patiala - PPCB",24-09-2025 07:00:00,30.349388,76.366642,PM10,36,90,64
India,Punjab,Rupnagar,"Ratanpura, Rupnagar - Ambuja Cements",24-09-2025 07:00:00,31.0325454,76.5623046,CO,55,96,82
India,Rajasthan,Jhunjhunu,"Indra Nagar, Jhunjhunu - RSPCB",24-09-2025 07:00:00,28.108988,75.386577,PM10,45,144,80
India,Rajasthan,Jhunjhunu,"Indra Nagar, Jhunjhunu - RSPCB",24-09-2025 07:00:00,28.108988,75.386577,SO2,2,2,2
India,Rajasthan,Jodhpur,"Collectorate, Jodhpur - RSPCB",24-09-2025 07:00:00,26.268249,73.0193853,SO2,1,16,5
India,Rajasthan,Jodhpur,"Collectorate, Jodhpur - RSPCB",24-09-2025 07:00:00,26.268249,73.0193853,OZONE,9,27,12
India,Rajasthan,Jodhpur,"Jhalamand, Jodhpur - RSPCB",24-09-2025 07:00:00,26.215415,73.070156,PM2.5,8,43,25
India,Rajasthan,Jodhpur,"Jhalamand, Jodhpur - RSPCB",24-09-2025 07:00:00,26.215415,73.070156,CO,7,19,9
India,Rajasthan,Bharatpur,"Krishna Nagar, Bharatpur - RSPCB",24-09-2025 07:00:00,27.215415,77.50873,NO2,8,31,19
India,Rajasthan,Bhilwara,"Pratap Nagar, Bhilwara - RSPCB",24-09-2025 07:00:00,25.339605,74.618883,PM2.5,7,57,29
India,Rajasthan,Bhilwara,"Pratap Nagar, Bhilwara - RSPCB",24-09-2025 07:00:00,25.339605,74.618883,NH3,1,2,1
India,Rajasthan,Bhiwadi,"RIICO Ind. Area III, Bhiwadi - RSPCB",24-09-2025 07:00:00,28.194909,76.862296,PM2.5,55,194,120
India,Rajasthan,Bhiwadi,"RIICO Ind. Area III, Bhiwadi - RSPCB",24-09-2025 07:00:00,28.194909,76.862296,SO2,2,17,8
India,Rajasthan,Karauli,"Satyawati Vihar, Karauli - RSPCB",24-09-2025 07:00:00,26.506177,77.025989,NO2,24,36,30
India,Rajasthan,Karauli,"Satyawati Vihar, Karauli - RSPCB",24-09-2025 07:00:00,26.506177,77.025989,NH3,4,5,5
India,Rajasthan,Karauli,"Satyawati Vihar, Karauli - RSPCB",24-09-2025 07:00:00,26.506177,77.025989,OZONE,1,13,5
India,Rajasthan,Kota,"Nayapura, Kota - RSPCB",24-09-2025 07:00:00,25.196024,75.855668,PM2.5,17,57,31
India,Rajasthan,Kota,"Nayapura, Kota - RSPCB",24-09-2025 07:00:00,25.196024,75.855668,PM10,59,169,95
India,Rajasthan,Kota,"Nayapura, Kota - RSPCB",24-09-2025 07:00:00,25.196024,75.855668,NO2,9,51,20
India,Rajasthan,Bundi,"New Colony, Bundi - RSPCB",24-09-2025 07:00:00,25.435774,75.644272,NO2,3,45,10
India,Rajasthan,Chittorgarh,"Shastri Nagar, Chittorgarh - RSPCB",24-09-2025 07:00:00,24.892047,74.623527,OZONE,6,75,14
India,Rajasthan,Dausa,"Khatikan Mohalla, Dausa - RSPCB",24-09-2025 07:00:00,26.895552,76.334753,PM10,55,149,106
India,Rajasthan,Dausa,"Khatikan Mohalla, Dausa - RSPCB",24-09-2025 07:00:00,26.895552,76.334753,CO,22,41,28
India,Rajasthan,Nagaur,"Karni Colony, Nagaur - RSPCB",24-09-2025 07:00:00,27.213494,73.734444,PM10,45,127,79
India,Rajasthan,Nagaur,"Karni Colony, Nagaur - RSPCB",24-09-2025 07:00:00,27.213494,73.734444,NH3,3,7,4
India,TamilNadu,Thanjavur,"Parisutham Nagar, Thanjavur - TNPCB",24-09-2025 07:00:00,10.7654824,79.1389968,NH3,1,1,1
India,TamilNadu,Thanjavur,"Parisutham Nagar, Thanjavur - TNPCB",24-09-2025 07:00:00,10.7654824,79.1389968,OZONE,6,19,12
India,TamilNadu,Thoothukudi,"Meelavittan, Thoothukudi - TNPCB",24-09-2025 07:00:00,8.816428 ,78.099039,PM10,21,78,41
India,TamilNadu,Thoothukudi,"Meelavittan, Thoothukudi - TNPCB",24-09-2025 07:00:00,8.816428 ,78.099039,SO2,2,9,6
India,TamilNadu,Tiruchirappalli,"St Joseph College, Tiruchirappalli - TNPCB",24-09-2025 07:00:00,10.830158,78.691849,NH3,4,4,4
India,TamilNadu,Tiruchirappalli,"St Joseph College, Tiruchirappalli - TNPCB",24-09-2025 07:00:00,10.830158,78.691849,SO2,23,23,23
India,TamilNadu,Tiruchirappalli,"St Joseph College, Tiruchirappalli - TNPCB",24-09-2025 07:00:00,10.830158,78.691849,CO,25,42,28
India,TamilNadu,Tiruchirappalli,"St Joseph College, Tiruchirappalli - TNPCB",24-09-2025 07:00:00,10.830158,78.691849,OZONE,9,17,10
India,TamilNadu,Tirunelveli,"Municipal Corporation Office, Tirunelveli - TNPCB",24-09-2025 07:00:00,8.728442,77.6962,NO2,4,9,7
India,TamilNadu,Tirunelveli,"Municipal Corporation Office, Tirunelveli - TNPCB",24-09-2025 07:00:00,8.728442,77.6962,SO2,27,45,35
India,TamilNadu,Tirupur,"Kumaran College, Tirupur - TNPCB",24-09-2025 07:00:00,11.0973603,77.3228673,PM10,8,31,18
India,Sikkim,Gangtok,"Zero Point GICI, Gangtok - SSPCB",24-09-2025 07:00:00,27.338530,88.614099,SO2,1,1,1
India,TamilNadu,Ariyalur,"Keelapalur, Ariyalur - TNPCB",24-09-2025 07:00:00,11.06825,79.07033,PM10,23,78,49
India,TamilNadu,Ariyalur,"Keelapalur, Ariyalur - TNPCB",24-09-2025 07:00:00,11.06825,79.07033,NH3,1,1,1
India,TamilNadu,Chengalpattu,"Crescent University, Chengalpattu - TNPCB",24-09-2025 07:00:00,12.8777316,80.0834807,NH3,1,1,1
India,TamilNadu,Chengalpattu,"Crescent University, Chengalpattu - TNPCB",24-09-2025 07:00:00,12.8777316,80.0834807,SO2,15,16,16
India,TamilNadu,Chennai,"Alandur Bus Depot, Chennai - CPCB",24-09-2025 07:00:00,12.9099161,80.1076538,CO,96,111,106
India,TamilNadu,Chennai,"Alandur Bus Depot, Chennai - CPCB",24-09-2025 07:00:00,12.9099161,80.1076538,OZONE,4,11,6
India,TamilNadu,Chennai,"Arumbakkam, Chennai - TNPCB",24-09-2025 07:00:00,13.0664,80.2112 ,NO2,10,21,14
India,TamilNadu,Chennai,"Arumbakkam, Chennai - TNPCB",24-09-2025 07:00:00,13.0664,80.2112 ,NH3,3,4,4
India,TamilNadu,Chennai,"Kodungaiyur, Chennai - TNPCB",24-09-2025 07:00:00,13.1278,80.2642,PM10,20,121,62
India,TamilNadu,Coimbatore,"SIDCO Kurichi, Coimbatore - TNPCB",24-09-2025 07:00:00,10.942451,76.978996,OZONE,1,33,4
India,TamilNadu,Cuddalore,"Kudikadu, Cuddalore - TNPCB",24-09-2025 07:00:00,11.6829898,79.7532099,NO2,19,19,19
India,TamilNadu,Cuddalore,"Kudikadu, Cuddalore - TNPCB",24-09-2025 07:00:00,11.6829898,79.7532099,NH3,4,5,5
India,TamilNadu,Cuddalore,"Kudikadu, Cuddalore - TNPCB",24-09-2025 07:00:00,11.6829898,79.7532099,OZONE,4,7,6
India,TamilNadu,Cuddalore,"Semmandalam, Cuddalore - TNPCB",24-09-2025 07:00:00,11.7637683,79.7499835,PM2.5,15,61,31
India,TamilNadu,Cuddalore,"Semmandalam, Cuddalore - TNPCB",24-09-2025 07:00:00,11.7637683,79.7499835,PM10,12,46,23
India,TamilNadu,Cuddalore,"Semmandalam, Cuddalore - TNPCB",24-09-2025 07:00:00,11.7637683,79.7499835,NO2,1,11,4
India,TamilNadu,Dindigul,"Mendonsa Colony, Dindigul - TNPCB",24-09-2025 07:00:00,10.358535,77.984321,PM2.5,14,55,28
India,TamilNadu,Dindigul,"Mendonsa Colony, Dindigul - TNPCB",24-09-2025 07:00:00,10.358535,77.984321,NO2,13,33,21
India,TamilNadu,Dindigul,"Mendonsa Colony, Dindigul - TNPCB",24-09-2025 07:00:00,10.358535,77.984321,SO2,19,24,22
India,TamilNadu,Dindigul,"Mendonsa Colony, Dindigul - TNPCB",24-09-2025 07:00:00,10.358535,77.984321,CO,12,28,13
India,TamilNadu,Chennai,"Kodungaiyur, Chennai - TNPCB",24-09-2025 07:00:00,13.1278,80.2642,SO2,1,4,2
India,TamilNadu,Chennai,"Manali Village, Chennai - TNPCB",24-09-2025 07:00:00,13.1662,80.2584,NH3,1,2,1
India,TamilNadu,Chennai,"Manali Village, Chennai - TNPCB",24-09-2025 07:00:00,13.1662,80.2584,CO,16,98,67
India,TamilNadu,Chennai,"Manali, Chennai - CPCB",24-09-2025 07:00:00,13.164544,80.26285,NH3,6,7,6
India,TamilNadu,Chennai,"Perungudi, Chennai - TNPCB",24-09-2025 07:00:00,12.9533,80.2357,SO2,2,3,2
India,TamilNadu,Chennai,"Perungudi, Chennai - TNPCB",24-09-2025 07:00:00,12.9533,80.2357,CO,20,36,30
India,TamilNadu,Chennai,"Royapuram, Chennai - TNPCB",24-09-2025 07:00:00,13.1036,80.2909,NO2,10,42,23
India,TamilNadu,Chennai,"Velachery Res. Area, Chennai - CPCB",24-09-2025 07:00:00,13.0052189,80.2398125,PM2.5,30,53,43
India,TamilNadu,Chennai,"Velachery Res. Area, Chennai - CPCB",24-09-2025 07:00:00,13.0052189,80.2398125,PM10,34,81,55
India,TamilNadu,Ooty,"Bombay Castel, Ooty - TNPCB",24-09-2025 07:00:00,11.4068288,76.7138973,SO2,NA,NA,NA
India,TamilNadu,Palkalaiperur,"Bharathidasan University, Palkalaiperur - TNPCB",24-09-2025 07:00:00,10.681158,78.741746,NO2,7,7,7
India,TamilNadu,Pudukottai,"SIPCOT Nathampannai, Pudukottai - TNPCB",24-09-2025 07:00:00,10.423417,78.784889,PM2.5,10,40,22
India,TamilNadu,Ramanathapuram,"Chalai Bazaar, Ramanathapuram - TNPCB",24-09-2025 07:00:00,9.36399,78.831977,SO2,12,16,14
India,TamilNadu,Salem,"Sona College of Technology, Salem - TNPCB",24-09-2025 07:00:00,11.679111,78.125052,NH3,NA,NA,NA
India,TamilNadu,Thanjavur,"Parisutham Nagar, Thanjavur - TNPCB",24-09-2025 07:00:00,10.7654824,79.1389968,PM10,17,53,32
India,Rajasthan,Sikar,"Radhakishan Pura, Sikar - RSPCB",24-09-2025 07:00:00,27.608912,75.153302,OZONE,26,75,44
India,Rajasthan,Sirohi,"Vedhaynath Colony, Sirohi - RSPCB",24-09-2025 07:00:00,24.885261,72.857549,PM2.5,22,55,42
India,Rajasthan,Sirohi,"Vedhaynath Colony, Sirohi - RSPCB",24-09-2025 07:00:00,24.885261,72.857549,SO2,5,6,6
India,Rajasthan,Sri Ganganagar,"Old City, Sri Ganganagar - RSPCB",24-09-2025 07:00:00,29.931624,73.864511,NO2,4,33,14
India,Rajasthan,Udaipur,"Ashok Nagar, Udaipur - RSPCB",24-09-2025 07:00:00,24.5886166,73.6321397,PM10,31,81,57
India,Rajasthan,Udaipur,"Ashok Nagar, Udaipur - RSPCB",24-09-2025 07:00:00,24.5886166,73.6321397,NO2,1,31,13
India,Sikkim,Gangtok,"Zero Point GICI, Gangtok - SSPCB",24-09-2025 07:00:00,27.338530,88.614099,PM10,12,36,21
India,TamilNadu,Virudhunagar,"Collectorate Office, Virudhunagar - TNPCB",24-09-2025 07:00:00,9.559382,77.948828,NH3,6,7,7
India,Telangana,Hyderabad,"Bollaram Industrial Area, Hyderabad - TSPCB",24-09-2025 07:00:00,17.540891,78.358528,SO2,5,15,8
India,Telangana,Hyderabad,"Bollaram Industrial Area, Hyderabad - TSPCB",24-09-2025 07:00:00,17.540891,78.358528,OZONE,47,54,48
India,Telangana,Hyderabad,"Central University, Hyderabad - TSPCB",24-09-2025 07:00:00,17.460103,78.334361,NO2,13,63,34
India,Telangana,Hyderabad,"Central University, Hyderabad - TSPCB",24-09-2025 07:00:00,17.460103,78.334361,CO,NA,NA,NA
India,Telangana,Hyderabad,"ECIL Kapra, Hyderabad - TSPCB",24-09-2025 07:00:00,17.470431,78.566959,OZONE,11,58,19
India,Telangana,Hyderabad,"ICRISAT Patancheru, Hyderabad - TSPCB",24-09-2025 07:00:00,17.518400,78.278777,OZONE,9,34,15
India,TamilNadu,Gummidipoondi,"Anthoni Pillai Nagar, Gummidipoondi - TNPCB",24-09-2025 07:00:00,13.4127,80.1081,NO2,1,17,7
India,TamilNadu,Karur,"Kamadenu Nagar, Karur - TNPCB",24-09-2025 07:00:00,10.967820,78.080882,PM2.5,2,34,14
India,TamilNadu,Karur,"Kamadenu Nagar, Karur - TNPCB",24-09-2025 07:00:00,10.967820,78.080882,SO2,14,16,15
India,TamilNadu,Karur,"Kamadenu Nagar, Karur - TNPCB",24-09-2025 07:00:00,10.967820,78.080882,CO,8,34,30
India,TamilNadu,Madurai,"Uchapatti, Madurai - TNPCB",24-09-2025 07:00:00,9.865935,78.022669,PM2.5,6,17,11
India,TamilNadu,Nagapattinam,"Velippalayam, Nagapattinam - TNPCB",24-09-2025 07:00:00,10.798548,79.838212,PM2.5,NA,NA,NA
India,TamilNadu,Ooty,"Bombay Castel, Ooty - TNPCB",24-09-2025 07:00:00,11.4068288,76.7138973,NO2,NA,NA,NA
India,Rajasthan,Rajsamand,"Dhoinda, Rajsamand - RSPCB",24-09-2025 07:00:00,25.036360,73.883502,PM2.5,7,57,23
India,Rajasthan,Rajsamand,"Dhoinda, Rajsamand - RSPCB",24-09-2025 07:00:00,25.036360,73.883502,SO2,1,7,3
India,Rajasthan,Rajsamand,"Dhoinda, Rajsamand - RSPCB",24-09-2025 07:00:00,25.036360,73.883502,OZONE,9,108,18
India,Telangana,Hyderabad,"IDA Pashamylaram, Hyderabad - TSPCB",24-09-2025 07:00:00,17.5316895,78.218939,PM10,53,95,69
India,Telangana,Hyderabad,"IDA Pashamylaram, Hyderabad - TSPCB",24-09-2025 07:00:00,17.5316895,78.218939,SO2,1,19,6
India,Telangana,Hyderabad,"IITH Kandi, Hyderabad - TSPCB",24-09-2025 07:00:00,17.585705,78.126199,NH3,5,5,5
India,Telangana,Hyderabad,"IITH Kandi, Hyderabad - TSPCB",24-09-2025 07:00:00,17.585705,78.126199,OZONE,18,19,18
India,Telangana,Hyderabad,"Kokapet, Hyderabad - TSPCB",24-09-2025 07:00:00,17.393559,78.339194,PM10,NA,NA,NA
India,Telangana,Hyderabad,"Kokapet, Hyderabad - TSPCB",24-09-2025 07:00:00,17.393559,78.339194,SO2,6,10,9
India,Telangana,Hyderabad,"Kompally Municipal Office, Hyderabad - TSPCB",24-09-2025 07:00:00,17.544899,78.486949,NO2,9,14,12
India,Telangana,Hyderabad,"Kompally Municipal Office, Hyderabad - TSPCB",24-09-2025 07:00:00,17.544899,78.486949,CO,NA,NA,NA
India,Telangana,Hyderabad,"Nacharam_TSIIC IALA, Hyderabad - TSPCB",24-09-2025 07:00:00,17.429398,78.569354,CO,26,38,36
India,Uttar_Pradesh,Gorakhpur,"Madan Mohan Malaviya University of Technology, Gorakhpur - UPPCB",24-09-2025 07:00:00,26.730136,83.433859,OZONE,1,9,3
India,Uttar_Pradesh,Greater Noida,"Knowledge Park - III, Greater Noida - UPPCB",24-09-2025 07:00:00,28.47272,77.482000,NH3,4,10,7
India,Uttar_Pradesh,Greater Noida,"Knowledge Park - III, Greater Noida - UPPCB",24-09-2025 07:00:00,28.47272,77.482000,CO,24,100,52
India,Uttar_Pradesh,Greater Noida,"Knowledge Park - V, Greater Noida - UPPCB",24-09-2025 07:00:00,28.557054,77.453663,PM10,123,223,176
India,Uttar_Pradesh,Greater Noida,"Knowledge Park - V, Greater Noida - UPPCB",24-09-2025 07:00:00,28.557054,77.453663,NO2,30,93,55
India,Uttar_Pradesh,Greater Noida,"Knowledge Park - V, Greater Noida - UPPCB",24-09-2025 07:00:00,28.557054,77.453663,SO2,3,12,9
India,Uttar_Pradesh,Bulandshahr,"Yamunapuram, Bulandshahr - UPPCB",24-09-2025 07:00:00,28.406963,77.849831,NO2,21,79,47
India,Uttar_Pradesh,Bulandshahr,"Yamunapuram, Bulandshahr - UPPCB",24-09-2025 07:00:00,28.406963,77.849831,NH3,5,11,8
India,Uttar_Pradesh,Firozabad,"Vibhab Nagar, Firozabad - UPPCB",24-09-2025 07:00:00,27.1594,78.3953,OZONE,3,11,5
India,Uttar_Pradesh,Ghaziabad,"Indirapuram, Ghaziabad - UPPCB",24-09-2025 07:00:00,28.646233,77.358075,CO,34,73,51
India,Uttar_Pradesh,Ghaziabad,"Sanjay Nagar, Ghaziabad - UPPCB",24-09-2025 07:00:00,28.685382,77.453839,PM10,105,237,149
India,Uttar_Pradesh,Ghaziabad,"Sanjay Nagar, Ghaziabad - UPPCB",24-09-2025 07:00:00,28.685382,77.453839,NO2,15,51,31
India,Uttar_Pradesh,Agra,"Shahjahan Garden, Agra - UPPCB",24-09-2025 07:00:00,27.169338,78.03582,PM10,NA,NA,NA
India,Uttar_Pradesh,Baghpat,"Sardar Patel Inter College, Baghpat - UPPCB",24-09-2025 07:00:00,28.964949,77.278761,SO2,27,50,34
India,Uttar_Pradesh,Bareilly,"Civil Lines, Bareilly - UPPCB",24-09-2025 07:00:00,28.359581,79.414455,NO2,2,2,2
India,Uttar_Pradesh,Bareilly,"Civil Lines, Bareilly - UPPCB",24-09-2025 07:00:00,28.359581,79.414455,SO2,31,60,44
India,Uttar_Pradesh,Bareilly,"Rajendra Nagar, Bareilly - UPPCB",24-09-2025 07:00:00,28.38910936,79.42963708,SO2,42,43,42
India,Telangana,Hyderabad,"Nacharam_TSIIC IALA, Hyderabad - TSPCB",24-09-2025 07:00:00,17.429398,78.569354,OZONE,22,32,22
India,Telangana,Hyderabad,"Ramachandrapuram, Hyderabad - TSPCB",24-09-2025 07:00:00,17.528544,78.286195,PM10,63,71,67
India,Telangana,Hyderabad,"Ramachandrapuram, Hyderabad - TSPCB",24-09-2025 07:00:00,17.528544,78.286195,SO2,10,20,15
India,Telangana,Hyderabad,"Ramachandrapuram, Hyderabad - TSPCB",24-09-2025 07:00:00,17.528544,78.286195,OZONE,7,23,9
India,Telangana,Hyderabad,"Sanathnagar, Hyderabad - TSPCB",24-09-2025 07:00:00,17.4559458,78.4332152,SO2,4,9,6
India,Telangana,Hyderabad,"Sanathnagar, Hyderabad - TSPCB",24-09-2025 07:00:00,17.4559458,78.4332152,CO,1,15,7
India,Tripura,Agartala,"Bardowali, Agartala - Tripura SPCB",24-09-2025 07:00:00,23.8175497,91.2726974,SO2,26,27,26
India,Uttar_Pradesh,Agra,"Manoharpur, Agra - UPPCB",24-09-2025 07:00:00,27.23711,78.01936,NO2,20,21,21
India,Uttar_Pradesh,Agra,"Sanjay Palace, Agra - UPPCB",24-09-2025 07:00:00,27.19865833,78.00598056,PM10,37,114,68
India,Uttar_Pradesh,Agra,"Sanjay Palace, Agra - UPPCB",24-09-2025 07:00:00,27.19865833,78.00598056,SO2,13,18,15
India,Uttar_Pradesh,Hapur,"Anand Vihar, Hapur - UPPCB",24-09-2025 07:00:00,28.725645,77.749675,NH3,7,8,7
India,Uttar_Pradesh,Hapur,"Anand Vihar, Hapur - UPPCB",24-09-2025 07:00:00,28.725645,77.749675,OZONE,3,49,6
India,Uttar_Pradesh,Jhansi,"Shivaji Nagar, Jhansi - UPPCB",24-09-2025 07:00:00,25.4547,78.6039,PM10,71,120,102
India,Uttar_Pradesh,Kanpur,"NSI Kalyanpur, Kanpur - UPPCB",24-09-2025 07:00:00,26.509954,80.249612,NH3,2,2,2
India,Uttar_Pradesh,Ghaziabad,"Sanjay Nagar, Ghaziabad - UPPCB",24-09-2025 07:00:00,28.685382,77.453839,OZONE,13,68,26
India,Uttar_Pradesh,Gorakhpur,"Madan Mohan Malaviya University of Technology, Gorakhpur - UPPCB",24-09-2025 07:00:00,26.730136,83.433859,CO,4,7,5
India,Uttar_Pradesh,Agra,"Shahjahan Garden, Agra - UPPCB",24-09-2025 07:00:00,27.169338,78.03582,PM2.5,34,117,71
India,West_Bengal,Barrackpore,"SVSPA Campus, Barrackpore - WBPCB",24-09-2025 07:00:00,22.7605581,88.3617589,PM2.5,10,46,29
India,West_Bengal,Barrackpore,"SVSPA Campus, Barrackpore - WBPCB",24-09-2025 07:00:00,22.7605581,88.3617589,NO2,4,22,13
India,West_Bengal,Barrackpore,"SVSPA Campus, Barrackpore - WBPCB",24-09-2025 07:00:00,22.7605581,88.3617589,NH3,5,9,6
India,West_Bengal,Barrackpore,"SVSPA Campus, Barrackpore - WBPCB",24-09-2025 07:00:00,22.7605581,88.3617589,SO2,14,16,15
India,West_Bengal,Barrackpore,"SVSPA Campus, Barrackpore - WBPCB",24-09-2025 07:00:00,22.7605581,88.3617589,OZONE,3,18,3
India,West_Bengal,Durgapur,"Mahishkapur Road_B-Zone, Durgapur - WBPCB",24-09-2025 07:00:00,23.567923,87.306843,PM10,10,47,19
India,West_Bengal,Durgapur,"Mahishkapur Road_B-Zone, Durgapur - WBPCB",24-09-2025 07:00:00,23.567923,87.306843,NH3,1,1,1
India,West_Bengal,Durgapur,"Mahishkapur Road_B-Zone, Durgapur - WBPCB",24-09-2025 07:00:00,23.567923,87.306843,SO2,12,13,13
India,West_Bengal,Durgapur,"PCBL Residential Complex, Durgapur - WBPCB",24-09-2025 07:00:00,23.5087640,87.3544400,SO2,4,5,5
India,West_Bengal,Durgapur,"Womens College_City Center, Durgapur - WBPCB (Formerly known as Sidhu Kanhu Indoor Stadium)",24-09-2025 07:00:00,23.549395,87.300496,NO2,NA,NA,NA
India,West_Bengal,Durgapur,"Womens College_City Center, Durgapur - WBPCB (Formerly known as Sidhu Kanhu Indoor Stadium)",24-09-2025 07:00:00,23.549395,87.300496,CO,15,48,32
India,Uttar_Pradesh,Lucknow,"B R Ambedkar University, Lucknow - UPPCB",24-09-2025 07:00:00,26.766433,80.927299,NO2,11,12,12
India,Uttar_Pradesh,Lucknow,"B R Ambedkar University, Lucknow - UPPCB",24-09-2025 07:00:00,26.766433,80.927299,SO2,5,41,33
India,Uttar_Pradesh,Lucknow,"Gomti Nagar, Lucknow - UPPCB",24-09-2025 07:00:00,26.868120,81.005119,NO2,9,11,10
India,Uttar_Pradesh,Lucknow,"Kendriya Vidyalaya, Lucknow - CPCB",24-09-2025 07:00:00,26.906111,80.948222,NH3,8,14,12
India,Uttar_Pradesh,Lucknow,"Kukrail Picnic Spot-1, Lucknow - UPPCB",24-09-2025 07:00:00,26.90723,80.98579,PM10,56,99,69
India,Uttar_Pradesh,Lucknow,"Kukrail Picnic Spot-1, Lucknow - UPPCB",24-09-2025 07:00:00,26.90723,80.98579,SO2,23,44,27
India,Uttar_Pradesh,Lucknow,"Kukrail Picnic Spot-1, Lucknow - UPPCB",24-09-2025 07:00:00,26.90723,80.98579,CO,12,24,20
India,Uttar_Pradesh,Lucknow,"Lalbagh, Lucknow - CPCB",24-09-2025 07:00:00,26.8458805,80.9365541,PM2.5,35,357,164
India,Uttar_Pradesh,Lucknow,"Lalbagh, Lucknow - CPCB",24-09-2025 07:00:00,26.8458805,80.9365541,SO2,1,13,5
India,Uttar_Pradesh,Lucknow,"Lalbagh, Lucknow - CPCB",24-09-2025 07:00:00,26.8458805,80.9365541,CO,2,114,52
India,Uttar_Pradesh,Varanasi,"IESD Banaras Hindu University, Varanasi - UPPCB",24-09-2025 07:00:00,25.262326,82.995408,NO2,2,2,2
India,Uttar_Pradesh,Varanasi,"IESD Banaras Hindu University, Varanasi - UPPCB",24-09-2025 07:00:00,25.262326,82.995408,NH3,3,7,4
India,Uttar_Pradesh,Varanasi,"Maldahiya, Varanasi - UPPCB",24-09-2025 07:00:00,25.32393,82.99687,OZONE,3,16,3
India,Uttarakhand,Dehradun,"Doon University, Dehradun - UKPCB",24-09-2025 07:00:00,30.269444,78.044167,PM10,1,87,59
India,Uttarakhand,Dehradun,"Doon University, Dehradun - UKPCB",24-09-2025 07:00:00,30.269444,78.044167,NO2,1,3,2
India,Uttarakhand,Kashipur,"Govt. Girls Inter College, Kashipur - UKPCB",24-09-2025 07:00:00,29.2124114,78.9611753,PM10,2,411,125
India,Uttarakhand,Kashipur,"Govt. Girls Inter College, Kashipur - UKPCB",24-09-2025 07:00:00,29.2124114,78.9611753,SO2,2,6,5
India,Uttarakhand,Kashipur,"Govt. Girls Inter College, Kashipur - UKPCB",24-09-2025 07:00:00,29.2124114,78.9611753,OZONE,4,84,12
India,Uttarakhand,Rishikesh,"Shivaji Nagar, Rishikesh - UKPCB",24-09-2025 07:00:00,30.075911,78.2859547,PM10,55,112,90
India,West_Bengal,Asansol,"Asansol Court Area, Asansol - WBPCB",24-09-2025 07:00:00,23.685297,86.945968,PM10,42,77,59
India,West_Bengal,Asansol,"Mahabir Colliery, Asansol - WBPCB",24-09-2025 07:00:00,23.6181830,87.1057180,SO2,NA,NA,NA
India,West_Bengal,Asansol,"Mahabir Colliery, Asansol - WBPCB",24-09-2025 07:00:00,23.6181830,87.1057180,CO,39,56,47
India,West_Bengal,Asansol,"Trivenidevi Bhalotia College, Asansol - WBPCB",24-09-2025 07:00:00,23.616515,87.119133,PM10,NA,NA,NA
India,West_Bengal,Asansol,"Trivenidevi Bhalotia College, Asansol - WBPCB",24-09-2025 07:00:00,23.616515,87.119133,NH3,NA,NA,NA
India,Uttar_Pradesh,Prayagraj,"Jhunsi, Prayagraj - UPPCB",24-09-2025 07:00:00,25.425602,81.917152,NH3,5,5,5
India,Uttar_Pradesh,Prayagraj,"Jhunsi, Prayagraj - UPPCB",24-09-2025 07:00:00,25.425602,81.917152,OZONE,2,48,2
India,Uttar_Pradesh,Prayagraj,"Nagar Nigam, Prayagraj - UPPCB",24-09-2025 07:00:00,25.44919916 ,81.82735986 ,PM2.5,56,166,83
India,Uttar_Pradesh,Prayagraj,"Nagar Nigam, Prayagraj - UPPCB",24-09-2025 07:00:00,25.44919916 ,81.82735986 ,NO2,5,5,5
India,Uttar_Pradesh,Prayagraj,"Nagar Nigam, Prayagraj - UPPCB",24-09-2025 07:00:00,25.44919916 ,81.82735986 ,NH3,2,6,4
India,Uttar_Pradesh,Prayagraj,"Nagar Nigam, Prayagraj - UPPCB",24-09-2025 07:00:00,25.44919916 ,81.82735986 ,SO2,8,47,24
India,Uttar_Pradesh,Varanasi,"Bhelupur, Varanasi - UPPCB",24-09-2025 07:00:00,25.301778,82.996789,NO2,8,8,8
India,Uttar_Pradesh,Lucknow,"Talkatora District Industries Center, Lucknow - CPCB",24-09-2025 07:00:00,26.83399722,80.8917361,NO2,NA,NA,NA
India,Uttar_Pradesh,Meerut,"Ganga Nagar, Meerut - UPPCB",24-09-2025 07:00:00,28.999264,77.7590354,NH3,4,7,5
India,Uttar_Pradesh,Meerut,"Ganga Nagar, Meerut - UPPCB",24-09-2025 07:00:00,28.999264,77.7590354,OZONE,31,121,42
India,Uttar_Pradesh,Meerut,"Pallavpuram Phase 2, Meerut - UPPCB",24-09-2025 07:00:00,29.063510,77.709723,NO2,13,24,17
India,Uttar_Pradesh,Meerut,"Pallavpuram Phase 2, Meerut - UPPCB",24-09-2025 07:00:00,29.063510,77.709723,SO2,13,26,18
India,Uttar_Pradesh,Moradabad,"Employment Office, Moradabad - UPPCB",24-09-2025 07:00:00,28.88528,78.73880,NH3,4,4,4
India,Uttar_Pradesh,Moradabad,"Jigar Colony, Moradabad - UPPCB",24-09-2025 07:00:00,28.856664,78.772638,PM2.5,34,90,67
India,Uttar_Pradesh,Moradabad,"Jigar Colony, Moradabad - UPPCB",24-09-2025 07:00:00,28.856664,78.772638,NO2,23,25,25
India,Uttar_Pradesh,Moradabad,"Jigar Colony, Moradabad - UPPCB",24-09-2025 07:00:00,28.856664,78.772638,NH3,6,8,6
India,Uttar_Pradesh,Noida,"Sector - 125, Noida - UPPCB",24-09-2025 07:00:00,28.5447608,77.3231257,PM2.5,25,80,51
India,Uttar_Pradesh,Noida,"Sector - 62, Noida - IMD",24-09-2025 07:00:00,28.6245479,77.3577104,CO,16,32,29
India,Uttar_Pradesh,Noida,"Sector-116, Noida - UPPCB",24-09-2025 07:00:00,28.569230,77.393848,SO2,12,25,17
India,West_Bengal,Howrah,"Belur Math, Howrah - WBPCB",24-09-2025 07:00:00,22.629801,88.352017,OZONE,23,44,26
India,West_Bengal,Howrah,"Botanical Garden, Howrah - WBPCB",24-09-2025 07:00:00,22.554954,88.292568,PM2.5,11,44,29
India,West_Bengal,Howrah,"Botanical Garden, Howrah - WBPCB",24-09-2025 07:00:00,22.554954,88.292568,NH3,1,2,1
India,West_Bengal,Howrah,"Dasnagar, Howrah - WBPCB",24-09-2025 07:00:00,22.6025571,88.3105664,NH3,1,2,1
India,West_Bengal,Howrah,"Dasnagar, Howrah - WBPCB",24-09-2025 07:00:00,22.6025571,88.3105664,CO,39,100,84
India,West_Bengal,Howrah,"Ghusuri, Howrah - WBPCB",24-09-2025 07:00:00,22.611968,88.347422,SO2,4,17,10
India,West_Bengal,Howrah,"Ghusuri, Howrah - WBPCB",24-09-2025 07:00:00,22.611968,88.347422,OZONE,20,52,29
India,West_Bengal,Howrah,"Padmapukur, Howrah - WBPCB",24-09-2025 07:00:00,22.5687319,88.2797276,PM10,25,97,48
India,West_Bengal,Howrah,"Padmapukur, Howrah - WBPCB",24-09-2025 07:00:00,22.5687319,88.2797276,NO2,11,23,16
India,West_Bengal,Howrah,"Padmapukur, Howrah - WBPCB",24-09-2025 07:00:00,22.5687319,88.2797276,SO2,5,11,7
India,West_Bengal,Kolkata,"Bidhannagar, Kolkata - WBPCB",24-09-2025 07:00:00,22.58157048,88.41002457,CO,32,56,49
India,West_Bengal,Kolkata,"Fort William, Kolkata - WBPCB",24-09-2025 07:00:00,22.556640,88.342674,PM2.5,18,37,27
India,West_Bengal,Kolkata,"Jadavpur, Kolkata - WBPCB",24-09-2025 07:00:00,22.49929,88.36917,PM2.5,30,57,44
India,West_Bengal,Kolkata,"Jadavpur, Kolkata - WBPCB",24-09-2025 07:00:00,22.49929,88.36917,OZONE,7,17,8
India,West_Bengal,Kolkata,"Rabindra Bharati University, Kolkata - WBPCB",24-09-2025 07:00:00,22.627847,88.380669,PM10,15,41,28
India,West_Bengal,Kolkata,"Rabindra Bharati University, Kolkata - WBPCB",24-09-2025 07:00:00,22.627847,88.380669,CO,20,39,33
India,West_Bengal,Kolkata,"Rabindra Sarobar, Kolkata - WBPCB",24-09-2025 07:00:00,22.51106,88.35142,PM10,23,31,26
India,West_Bengal,Kolkata,"Rabindra Sarobar, Kolkata - WBPCB",24-09-2025 07:00:00,22.51106,88.35142,NO2,18,79,42
India,West_Bengal,Kolkata,"Victoria, Kolkata - WBPCB",24-09-2025 07:00:00,22.5448082,88.3403691,PM2.5,NA,NA,NA
India,West_Bengal,Kolkata,"Victoria, Kolkata - WBPCB",24-09-2025 07:00:00,22.5448082,88.3403691,CO,15,43,34
India,West_Bengal,Siliguri,"Ward-32 Bapupara, Siliguri - WBPCB",24-09-2025 07:00:00,26.6879226,88.4152495,PM10,35,71,51
India,Bihar,Araria,"Kharahiya Basti, Araria - BSPCB",24-09-2025 07:00:00,26.146529,87.454184,NO2,10,176,72
India,Bihar,Araria,"Kharahiya Basti, Araria - BSPCB",24-09-2025 07:00:00,26.146529,87.454184,NH3,5,5,5
India,Bihar,Arrah,"New DM Office, Arrah - BSPCB",24-09-2025 07:00:00,25.5626095,84.663264,PM2.5,28,30,29
India,Bihar,Arrah,"New DM Office, Arrah - BSPCB",24-09-2025 07:00:00,25.5626095,84.663264,NH3,1,1,1
India,Bihar,Aurangabad,"Gurdeo Nagar, Aurangabad - BSPCB",24-09-2025 07:00:00,24.75746,84.366208,SO2,6,35,13
India,Bihar,Begusarai,"Lohiyanagar, Begusarai - BSPCB",24-09-2025 07:00:00,25.42742023,86.13886079,NO2,5,23,14
India,Bihar,Begusarai,"Lohiyanagar, Begusarai - BSPCB",24-09-2025 07:00:00,25.42742023,86.13886079,SO2,17,33,28
India,Bihar,Begusarai,"Lohiyanagar, Begusarai - BSPCB",24-09-2025 07:00:00,25.42742023,86.13886079,CO,34,64,56
India,Bihar,Bettiah,"Kamalnath Nagar, Bettiah - BSPCB",24-09-2025 07:00:00,26.80365,84.51954,NO2,3,10,8
India,Bihar,Bhagalpur,"DM Office_Kachari Chowk, Bhagalpur - BSPCB",24-09-2025 07:00:00,25.251013,86.989001,NO2,12,18,15
India,Bihar,Bhagalpur,"DM Office_Kachari Chowk, Bhagalpur - BSPCB",24-09-2025 07:00:00,25.251013,86.989001,SO2,26,92,63
India,Bihar,Bhagalpur,"DM Office_Kachari Chowk, Bhagalpur - BSPCB",24-09-2025 07:00:00,25.251013,86.989001,CO,11,25,18
India,Bihar,Gaya,"SFTI Kusdihra, Gaya - BSPCB",24-09-2025 07:00:00,24.762518,84.982348,CO,7,34,9
India,Bihar,Hajipur,"Industrial Area, Hajipur - BSPCB",24-09-2025 07:00:00,25.697189,85.245900,PM2.5,50,99,78
India,Bihar,Hajipur,"Industrial Area, Hajipur - BSPCB",24-09-2025 07:00:00,25.697189,85.245900,PM10,42,83,65
India,Bihar,Hajipur,"Industrial Area, Hajipur - BSPCB",24-09-2025 07:00:00,25.697189,85.245900,NO2,4,10,6
India,Bihar,Hajipur,"Industrial Area, Hajipur - BSPCB",24-09-2025 07:00:00,25.697189,85.245900,SO2,3,5,4
India,Bihar,Katihar,"Mirchaibari, Katihar - BSPCB",24-09-2025 07:00:00,25.560083,87.553265,PM2.5,30,37,34
India,Bihar,Katihar,"Mirchaibari, Katihar - BSPCB",24-09-2025 07:00:00,25.560083,87.553265,PM10,29,31,30
India,Bihar,Katihar,"Mirchaibari, Katihar - BSPCB",24-09-2025 07:00:00,25.560083,87.553265,CO,68,103,91
India,Bihar,Katihar,"Mirchaibari, Katihar - BSPCB",24-09-2025 07:00:00,25.560083,87.553265,OZONE,1,23,1
India,Bihar,Kishanganj,"SDM Office_Khagra, Kishanganj - BSPCB",24-09-2025 07:00:00,26.0881305,87.93840336,SO2,4,8,7
India,Bihar,Manguraha,"Forest Rest House, Manguraha - BSPCB",24-09-2025 07:00:00,27.308328,84.531742,PM2.5,33,270,60
India,Bihar,Patna,"Govt. High School Shikarpur, Patna - BSPCB",24-09-2025 07:00:00,25.592539,85.227158,CO,18,92,37
India,Bihar,Patna,"IGSC Planetarium Complex, Patna - BSPCB",24-09-2025 07:00:00,25.610369,85.132568,PM2.5,25,110,68
India,Bihar,Patna,"Muradpur, Patna - BSPCB",24-09-2025 07:00:00,25.619651,85.147382,NO2,40,94,59
India,Bihar,Patna,"Rajbansi Nagar, Patna - BSPCB",24-09-2025 07:00:00,25.599486,85.113666,PM10,27,75,44
India,Bihar,Purnia,"Mariam Nagar, Purnia - BSPCB",24-09-2025 07:00:00,25.366336,87.117468,PM2.5,NA,NA,NA
India,Bihar,Purnia,"Mariam Nagar, Purnia - BSPCB",24-09-2025 07:00:00,25.366336,87.117468,NH3,3,3,3
India,Bihar,Purnia,"Mariam Nagar, Purnia - BSPCB",24-09-2025 07:00:00,25.366336,87.117468,OZONE,13,174,19
India,Bihar,Rajgir,"Dangi Tola, Rajgir - BSPCB",24-09-2025 07:00:00,25.03280,85.41948,OZONE,27,57,32
India,Andhra_Pradesh,Rajamahendravaram,"Anand Kala Kshetram, Rajamahendravaram - APPCB",24-09-2025 07:00:00,16.9872867,81.7363176,OZONE,7,12,10
India,Andhra_Pradesh,Tirumala,"Toll Gate, Tirumala - APPCB",24-09-2025 07:00:00,13.67,79.35,NO2,7,15,12
India,Andhra_Pradesh,Tirupati,"Vaikuntapuram, Tirupati - APPCB",24-09-2025 07:00:00,13.615387,79.409230,PM10,NA,NA,NA
India,Andhra_Pradesh,Tirupati,"Vaikuntapuram, Tirupati - APPCB",24-09-2025 07:00:00,13.615387,79.409230,NO2,5,7,6
India,Andhra_Pradesh,Tirupati,"Vaikuntapuram, Tirupati - APPCB",24-09-2025 07:00:00,13.615387,79.409230,NH3,5,6,6
India,Andhra_Pradesh,Tirupati,"Vaikuntapuram, Tirupati - APPCB",24-09-2025 07:00:00,13.615387,79.409230,SO2,22,27,26
India,Andhra_Pradesh,Vijayawada,"HB Colony, Vijayawada - APPCB",24-09-2025 07:00:00,16.536107,80.594233,NH3,NA,NA,NA
India,Andhra_Pradesh,Vijayawada,"Rajiv Gandhi Park, Vijayawada - APPCB",24-09-2025 07:00:00,16.509717,80.612222,SO2,NA,NA,NA
India,Andhra_Pradesh,Vijayawada,"Rajiv Nagar, Vijayawada - APPCB",24-09-2025 07:00:00,16.554731,80.649110,CO,NA,NA,NA
India,Assam,Byrnihat,"Central Academy for SFS, Byrnihat - PCBA",24-09-2025 07:00:00,26.071318,91.87488,PM10,NA,NA,NA
India,Assam,Byrnihat,"Central Academy for SFS, Byrnihat - PCBA",24-09-2025 07:00:00,26.071318,91.87488,SO2,NA,NA,NA
India,Assam,Byrnihat,"Central Academy for SFS, Byrnihat - PCBA",24-09-2025 07:00:00,26.071318,91.87488,CO,16,62,52
India,Assam,Guwahati,"IITG, Guwahati - PCBA",24-09-2025 07:00:00,26.2028636,91.70046436,PM10,13,50,30
India,Assam,Guwahati,"IITG, Guwahati - PCBA",24-09-2025 07:00:00,26.2028636,91.70046436,SO2,22,28,24
India,Assam,Guwahati,"IITG, Guwahati - PCBA",24-09-2025 07:00:00,26.2028636,91.70046436,CO,2,12,8
India,Assam,Guwahati,"IITG, Guwahati - PCBA",24-09-2025 07:00:00,26.2028636,91.70046436,OZONE,NA,NA,NA
India,Assam,Guwahati,"Pan Bazaar, Guwahati - PCBA",24-09-2025 07:00:00,26.187500,91.744194,PM2.5,1,43,20
India,Andhra_Pradesh,Amaravati,"Secretariat, Amaravati - APPCB",24-09-2025 07:00:00,16.5150833,80.5181667,CO,3,22,14
India,Andhra_Pradesh,Anantapur,"Gulzarpet, Anantapur - APPCB",24-09-2025 07:00:00,14.675886,77.593027,NO2,24,24,24
India,Andhra_Pradesh,Chittoor,"Gangineni Cheruvu, Chittoor - APPCB",24-09-2025 07:00:00,13.204880,79.097889,PM10,66,103,80
India,Andhra_Pradesh,Chittoor,"Gangineni Cheruvu, Chittoor - APPCB",24-09-2025 07:00:00,13.204880,79.097889,OZONE,56,77,65
India,Andhra_Pradesh,Kadapa,"Yerramukkapalli, Kadapa - APPCB",24-09-2025 07:00:00,14.465052,78.824187,CO,26,54,42
India,Andhra_Pradesh,Kadapa,"Yerramukkapalli, Kadapa - APPCB",24-09-2025 07:00:00,14.465052,78.824187,OZONE,38,48,43
India,Andhra_Pradesh,Rajamahendravaram,"Anand Kala Kshetram, Rajamahendravaram - APPCB",24-09-2025 07:00:00,16.9872867,81.7363176,NO2,9,24,14
India,Bihar,Motihari,"Gandak Colony, Motihari - BSPCB",24-09-2025 07:00:00,26.63086,84.90051,CO,12,24,17
India,Bihar,Munger,"Town Hall, Munger - BSPCB",24-09-2025 07:00:00,25.376776,86.471523,NH3,5,7,6
India,Bihar,Muzaffarpur,"Buddha Colony, Muzaffarpur - BSPCB",24-09-2025 07:00:00,26.11442,85.39813,PM10,44,110,77
India,Bihar,Muzaffarpur,"MIT-Daudpur Kothi, Muzaffarpur - BSPCB",24-09-2025 07:00:00,26.1403345,85.3650192,OZONE,22,40,35
India,Bihar,Patna,"DRM Office Danapur, Patna - BSPCB",24-09-2025 07:00:00,25.586562,85.043586,CO,33,57,43
India,Bihar,Patna,"DRM Office Danapur, Patna - BSPCB",24-09-2025 07:00:00,25.586562,85.043586,OZONE,33,58,42
India,Assam,Guwahati,"Pan Bazaar, Guwahati - PCBA",24-09-2025 07:00:00,26.187500,91.744194,CO,4,28,18
India,Assam,Guwahati,"Railway Colony, Guwahati - PCBA",24-09-2025 07:00:00,26.181742,91.78063,PM2.5,15,50,29
India,Assam,Guwahati,"Railway Colony, Guwahati - PCBA",24-09-2025 07:00:00,26.181742,91.78063,NO2,3,3,3
India,Assam,Nagaon,"Christianpatty, Nagaon - PCBA",24-09-2025 07:00:00,26.349082,92.68449,PM10,46,50,48
India,Assam,Nagaon,"Christianpatty, Nagaon - PCBA",24-09-2025 07:00:00,26.349082,92.68449,NO2,1,1,1
India,Assam,Nagaon,"Christianpatty, Nagaon - PCBA",24-09-2025 07:00:00,26.349082,92.68449,CO,16,84,42
India,Assam,Silchar,"Tarapur, Silchar - PCBA",24-09-2025 07:00:00,24.82827,92.79525,PM10,46,47,46
India,Bihar,Bhagalpur,"Mayaganj, Bhagalpur - BSPCB",24-09-2025 07:00:00,25.265194,87.012947,NO2,9,10,10
India,Bihar,Bhagalpur,"Mayaganj, Bhagalpur - BSPCB",24-09-2025 07:00:00,25.265194,87.012947,NH3,6,7,7
India,Bihar,Buxar,"Charitra Van, Buxar - BSPCB",24-09-2025 07:00:00,25.567520,83.966379,PM10,66,71,71
India,Bihar,Chhapra,"Darshan Nagar, Chhapra - BSPCB",24-09-2025 07:00:00,25.7808257,84.7446768,PM10,3,280,54
India,Bihar,Chhapra,"Darshan Nagar, Chhapra - BSPCB",24-09-2025 07:00:00,25.7808257,84.7446768,NH3,3,4,4
India,Bihar,Gaya,"Kareemganj, Gaya - BSPCB",24-09-2025 07:00:00,24.792403,84.992416,NO2,3,7,5
India,Bihar,Samastipur,"DM Office_Kasipur, Samastipur - BSPCB",24-09-2025 07:00:00,25.859655,85.77944,NH3,2,2,2
India,Bihar,Samastipur,"DM Office_Kasipur, Samastipur - BSPCB",24-09-2025 07:00:00,25.859655,85.77944,SO2,17,31,28
India,Bihar,Samastipur,"DM Office_Kasipur, Samastipur - BSPCB",24-09-2025 07:00:00,25.859655,85.77944,CO,1,20,6
India,Bihar,Sasaram,"Dada Peer, Sasaram - BSPCB",24-09-2025 07:00:00,24.952822,84.002396,PM2.5,8,23,15
India,Bihar,Sasaram,"Dada Peer, Sasaram - BSPCB",24-09-2025 07:00:00,24.952822,84.002396,SO2,1,5,3
India,Chandigarh,Chandigarh,"Sector 22, Chandigarh - CPCC",24-09-2025 07:00:00,30.735567,76.775714,PM2.5,30,68,49
India,Delhi,Delhi,"CRRI Mathura Road, Delhi - IMD",24-09-2025 07:00:00,28.5512005,77.2735737,PM10,93,175,124
India,Delhi,Delhi,"CRRI Mathura Road, Delhi - IMD",24-09-2025 07:00:00,28.5512005,77.2735737,NO2,32,63,48
India,Delhi,Delhi,"CRRI Mathura Road, Delhi - IMD",24-09-2025 07:00:00,28.5512005,77.2735737,OZONE,16,69,21
India,Delhi,Delhi,"Chandni Chowk, Delhi - IITM",24-09-2025 07:00:00,28.656756,77.227234,PM10,90,134,116
India,Delhi,Delhi,"Chandni Chowk, Delhi - IITM",24-09-2025 07:00:00,28.656756,77.227234,CO,40,60,48
India,Delhi,Delhi,"Chandni Chowk, Delhi - IITM",24-09-2025 07:00:00,28.656756,77.227234,OZONE,6,68,12
India,Delhi,Delhi,"DTU, Delhi - CPCB",24-09-2025 07:00:00,28.7500499,77.1112615,PM10,21,134,104
India,Delhi,Delhi,"Dr. Karni Singh Shooting Range, Delhi - DPCC",24-09-2025 07:00:00,28.498571,77.264840,SO2,10,13,11
India,Delhi,Delhi,"Dr. Karni Singh Shooting Range, Delhi - DPCC",24-09-2025 07:00:00,28.498571,77.264840,CO,8,81,26
India,Delhi,Delhi,"Dr. Karni Singh Shooting Range, Delhi - DPCC",24-09-2025 07:00:00,28.498571,77.264840,OZONE,5,67,12
India,Delhi,Delhi,"Dwarka-Sector 8, Delhi - DPCC ",24-09-2025 07:00:00,28.5710274,77.0719006,NO2,21,83,43
India,Chhattisgarh,Chhal,"Nawapara SECL Colony, Chhal - CECB",24-09-2025 07:00:00,22.118125,83.140608,NO2,NA,NA,NA
India,Chhattisgarh,Chhal,"Nawapara SECL Colony, Chhal - CECB",24-09-2025 07:00:00,22.118125,83.140608,OZONE,NA,NA,NA
India,Chhattisgarh,Korba,"Rampur, Korba - CECB",24-09-2025 07:00:00,22.368195,82.746431,CO,12,24,15
India,Chhattisgarh,Korba,"Rampur, Korba - CECB",24-09-2025 07:00:00,22.368195,82.746431,OZONE,2,32,4
India,Chhattisgarh,Korba,"Urja Nagar, Korba - CECB",24-09-2025 07:00:00,22.348441,82.549611,CO,12,29,16
India,Chhattisgarh,Kunjemura,"OP Jindal School, Kunjemura - CECB",24-09-2025 07:00:00,22.126650,83.483212,PM10,6,61,28
India,Chhattisgarh,Kunjemura,"OP Jindal School, Kunjemura - CECB",24-09-2025 07:00:00,22.126650,83.483212,NH3,2,2,2
India,Chhattisgarh,Milupara,"Govt. Higher Secondary School, Milupara - CECB",24-09-2025 07:00:00,22.1910172,83.5197009,PM2.5,NA,NA,NA
India,Chhattisgarh,Milupara,"Govt. Higher Secondary School, Milupara - CECB",24-09-2025 07:00:00,22.1910172,83.5197009,NO2,NA,NA,NA
India,Chhattisgarh,Raipur,"AIIMS, Raipur - CECB",24-09-2025 07:00:00,21.258815,81.578979,PM2.5,16,35,27
India,Delhi,Delhi,"Narela, Delhi - DPCC",24-09-2025 07:00:00,28.822836,77.101981,NH3,16,17,16
India,Delhi,Delhi,"Nehru Nagar, Delhi - DPCC",24-09-2025 07:00:00,28.567890,77.250515,SO2,1,40,10
India,Delhi,Delhi,"North Campus, DU, Delhi - IMD",24-09-2025 07:00:00,28.6573814,77.1585447,NO2,40,158,77
India,Delhi,Delhi,"North Campus, DU, Delhi - IMD",24-09-2025 07:00:00,28.6573814,77.1585447,CO,22,75,60
India,Delhi,Delhi,"Patparganj, Delhi - DPCC",24-09-2025 07:00:00,28.623763,77.287209,PM2.5,47,103,69
India,Delhi,Delhi,"Patparganj, Delhi - DPCC",24-09-2025 07:00:00,28.623763,77.287209,PM10,111,173,132
India,Delhi,Delhi,"Patparganj, Delhi - DPCC",24-09-2025 07:00:00,28.623763,77.287209,NO2,16,81,45
India,Delhi,Delhi,"Patparganj, Delhi - DPCC",24-09-2025 07:00:00,28.623763,77.287209,CO,28,60,44
India,Delhi,Delhi,"Punjabi Bagh, Delhi - DPCC",24-09-2025 07:00:00,28.674045,77.131023,CO,40,63,49
India,Delhi,Delhi,"Alipur, Delhi - DPCC",24-09-2025 07:00:00,28.815329,77.153010,PM10,81,150,112
India,Delhi,Delhi,"Alipur, Delhi - DPCC",24-09-2025 07:00:00,28.815329,77.153010,NO2,17,49,29
India,Delhi,Delhi,"Alipur, Delhi - DPCC",24-09-2025 07:00:00,28.815329,77.153010,NH3,4,5,4
India,Delhi,Delhi,"Anand Vihar, Delhi - DPCC",24-09-2025 07:00:00,28.647622,77.3158090,PM2.5,NA,NA,NA
India,Delhi,Delhi,"Anand Vihar, Delhi - DPCC",24-09-2025 07:00:00,28.647622,77.3158090,PM10,59,453,293
India,Delhi,Delhi,"Ashok Vihar, Delhi - DPCC",24-09-2025 07:00:00,28.695381,77.181665,CO,36,63,48
India,Delhi,Delhi,"Aya Nagar, Delhi - IMD",24-09-2025 07:00:00,28.4706914,77.1099364,PM2.5,14,195,56
India,Delhi,Delhi,"Bawana, Delhi - DPCC",24-09-2025 07:00:00,28.776200,77.051074,PM2.5,50,177,120
India,Delhi,Delhi,"Bawana, Delhi - DPCC",24-09-2025 07:00:00,28.776200,77.051074,CO,40,98,55
India,Delhi,Delhi,"IHBAS, Dilshad Garden, Delhi - CPCB",24-09-2025 07:00:00,28.6811736,77.3025234,NH3,1,3,2
India,Delhi,Delhi,"IHBAS, Dilshad Garden, Delhi - CPCB",24-09-2025 07:00:00,28.6811736,77.3025234,CO,38,70,54
India,Delhi,Delhi,"Jahangirpuri, Delhi - DPCC",24-09-2025 07:00:00,28.732820,77.170633,PM2.5,117,330,235
India,Delhi,Delhi,"Jahangirpuri, Delhi - DPCC",24-09-2025 07:00:00,28.732820,77.170633,PM10,115,211,146
India,Delhi,Delhi,"Jahangirpuri, Delhi - DPCC",24-09-2025 07:00:00,28.732820,77.170633,OZONE,18,320,55
India,Delhi,Delhi,"Jawaharlal Nehru Stadium, Delhi - DPCC",24-09-2025 07:00:00,28.580280,77.233829,NH3,5,8,7
India,Delhi,Delhi,"Major Dhyan Chand National Stadium, Delhi - DPCC",24-09-2025 07:00:00,28.611281,77.237738,PM2.5,22,127,52
India,Delhi,Delhi,"Major Dhyan Chand National Stadium, Delhi - DPCC",24-09-2025 07:00:00,28.611281,77.237738,SO2,6,11,8
India,Chhattisgarh,Raipur,"Bhatagaon New ISBT, Raipur - CECB",24-09-2025 07:00:00,21.219665,81.630094,NO2,12,26,17
India,Chhattisgarh,Raipur,"Bhatagaon New ISBT, Raipur - CECB",24-09-2025 07:00:00,21.219665,81.630094,SO2,4,8,7
India,Chhattisgarh,Raipur,"Bhatagaon New ISBT, Raipur - CECB",24-09-2025 07:00:00,21.219665,81.630094,OZONE,6,18,8
India,Chhattisgarh,Raipur,"Krishak Nagar, Raipur - CECB",24-09-2025 07:00:00,21.237755,81.705301,PM2.5,21,44,31
India,Chhattisgarh,Raipur,"Krishak Nagar, Raipur - CECB",24-09-2025 07:00:00,21.237755,81.705301,SO2,5,10,7
India,Chhattisgarh,Raipur,"Siltara Phase-II, Raipur - CECB",24-09-2025 07:00:00,21.371751,81.664929,NH3,3,3,3
India,Delhi,Delhi,"NSIT Dwarka, Delhi - CPCB",24-09-2025 07:00:00,28.60909,77.0325413,PM2.5,20,41,29
India,Delhi,Delhi,"NSIT Dwarka, Delhi - CPCB",24-09-2025 07:00:00,28.60909,77.0325413,OZONE,6,9,7
India,Delhi,Delhi,"Najafgarh, Delhi - DPCC",24-09-2025 07:00:00,28.570173,76.933762,NO2,56,80,71
India,Delhi,Delhi,"Najafgarh, Delhi - DPCC",24-09-2025 07:00:00,28.570173,76.933762,CO,10,32,28
India,Delhi,Delhi,"Dwarka-Sector 8, Delhi - DPCC ",24-09-2025 07:00:00,28.5710274,77.0719006,OZONE,9,43,10
India,Delhi,Delhi,"IGI Airport (T3), Delhi - IMD",24-09-2025 07:00:00,28.5627763,77.1180053,NO2,36,112,65
India,Chhattisgarh,Bhilai,"32Bungalows, Bhilai - CECB",24-09-2025 07:00:00,21.194815,81.314770,NH3,3,3,3
India,Delhi,Delhi,"Sirifort, Delhi - CPCB",24-09-2025 07:00:00,28.5504249,77.2159377,NH3,8,14,11
India,Delhi,Delhi,"Sirifort, Delhi - CPCB",24-09-2025 07:00:00,28.5504249,77.2159377,OZONE,8,27,13
India,Delhi,Delhi,"Sonia Vihar, Delhi - DPCC",24-09-2025 07:00:00,28.710508,77.249485,PM10,67,119,98
India,Delhi,Delhi,"Sonia Vihar, Delhi - DPCC",24-09-2025 07:00:00,28.710508,77.249485,NH3,6,9,7
India,Delhi,Delhi,"Sri Aurobindo Marg, Delhi - DPCC",24-09-2025 07:00:00,28.531346,77.190156,PM2.5,38,75,55
India,Delhi,Delhi,"Vivek Vihar, Delhi - DPCC",24-09-2025 07:00:00,28.672342,77.315260,PM2.5,33,78,56
India,Delhi,Delhi,"Vivek Vihar, Delhi - DPCC",24-09-2025 07:00:00,28.672342,77.315260,SO2,16,27,20
India,Delhi,Delhi,"Wazirpur, Delhi - DPCC",24-09-2025 07:00:00,28.699793,77.165453,CO,2,36,11
India,Gujarat,Ahmedabad,"Chandkheda, Ahmedabad - IITM",24-09-2025 07:00:00,23.107969,72.574648,NO2,6,28,14
India,Gujarat,Ahmedabad,"Chandkheda, Ahmedabad - IITM",24-09-2025 07:00:00,23.107969,72.574648,SO2,5,16,10
India,Gujarat,Gandhinagar,"Sector-10, Gandhinagar - GPCB",24-09-2025 07:00:00,23.221714,72.654328,CO,15,43,18
India,Gujarat,Vatva,"Phase-4 GIDC, Vatva - GPCB",24-09-2025 07:00:00,22.969611,72.643500,NH3,2,4,2
India,Haryana,Gurugram,"NISE Gwal Pahari, Gurugram - IMD",24-09-2025 07:00:00,28.422681,77.148944,OZONE,12,48,13
India,Haryana,Panchgaon,"Amity University, Panchgaon - IITM",24-09-2025 07:00:00,28.3153,76.9143,PM2.5,32,101,63
India,Haryana,Panchgaon,"Amity University, Panchgaon - IITM",24-09-2025 07:00:00,28.3153,76.9143,PM10,40,118,79
India,Haryana,Panchgaon,"Amity University, Panchgaon - IITM",24-09-2025 07:00:00,28.3153,76.9143,SO2,1,14,3
India,Himachal Pradesh,Baddi,"HIMUDA Complex Phase-1, Baddi - HPPCB",24-09-2025 07:00:00,30.943887,76.801991,PM2.5,75,183,115
India,Karnataka,Chikkaballapur,"Chikkaballapur Rural, Chikkaballapur - KSPCB",24-09-2025 07:00:00,13.428828,77.731418,NH3,2,2,2
India,Karnataka,Chikkamagaluru,"Kalyana Nagara, Chikkamagaluru - KSPCB",24-09-2025 07:00:00,13.328028,75.797056,SO2,1,6,4
India,Karnataka,Davanagere,"Devaraj Urs Badavane, Davanagere - KSPCB",24-09-2025 07:00:00,14.475800,75.905200,OZONE,24,25,24
India,Karnataka,Dharwad,"Kalabhavan, Dharwad - KSPCB",24-09-2025 07:00:00,15.459706,75.008381,PM10,NA,NA,NA
India,Karnataka,Haveri,"Ashwini Nagar, Haveri - KSPCB",24-09-2025 07:00:00,14.791800,75.389600,PM10,30,44,36
India,Karnataka,Haveri,"Ashwini Nagar, Haveri - KSPCB",24-09-2025 07:00:00,14.791800,75.389600,OZONE,11,33,17
India,Delhi,Delhi,"Pusa, Delhi - DPCC",24-09-2025 07:00:00,28.639652,77.146275,PM10,105,245,155
India,Delhi,Delhi,"Pusa, Delhi - DPCC",24-09-2025 07:00:00,28.639652,77.146275,NH3,4,14,8
India,Delhi,Delhi,"Pusa, Delhi - IMD",24-09-2025 07:00:00,28.636110,77.173332,PM10,NA,NA,NA
India,Delhi,Delhi,"Pusa, Delhi - IMD",24-09-2025 07:00:00,28.636110,77.173332,CO,26,36,32
India,Delhi,Delhi,"R K Puram, Delhi - DPCC",24-09-2025 07:00:00,28.563262,77.186937,OZONE,14,77,19
India,Delhi,Delhi,"Rohini, Delhi - DPCC",24-09-2025 07:00:00,28.732528,77.119920,CO,4,14,12
India,Delhi,Delhi,"Rohini, Delhi - DPCC",24-09-2025 07:00:00,28.732528,77.119920,OZONE,4,39,8
India,Delhi,Delhi,"Sirifort, Delhi - CPCB",24-09-2025 07:00:00,28.5504249,77.2159377,PM10,90,252,124
India,Jharkhand,Jorapokhar,"Tata Stadium, Jorapokhar - JSPCB",24-09-2025 07:00:00,23.707909,86.414670,SO2,NA,NA,NA
India,Karnataka,Bagalkot,"Vidayagiri, Bagalkot - KSPCB",24-09-2025 07:00:00,16.172806,75.659694,PM2.5,33,34,33
India,Karnataka,Bagalkot,"Vidayagiri, Bagalkot - KSPCB",24-09-2025 07:00:00,16.172806,75.659694,NH3,1,2,1
India,Karnataka,Bagalkot,"Vidayagiri, Bagalkot - KSPCB",24-09-2025 07:00:00,16.172806,75.659694,SO2,7,7,7
India,Karnataka,Bengaluru,"BTM Layout, Bengaluru - CPCB",24-09-2025 07:00:00,12.9135218,77.5950804,PM2.5,24,67,32
India,Karnataka,Bengaluru,"Bapuji Nagar, Bengaluru - KSPCB",24-09-2025 07:00:00,12.951913,77.539784,CO,20,54,34
India,Gujarat,Ahmedabad,"SAC ISRO Satellite, Ahmedabad - IITM",24-09-2025 07:00:00,23.023389,72.515201,SO2,3,11,6
India,Gujarat,Ahmedabad,"SVPI Airport Hansol, Ahmedabad - IITM",24-09-2025 07:00:00,23.076793,72.627874,NO2,6,51,19
India,Gujarat,Gandhinagar,"GIFT City, Gandhinagar - IITM",24-09-2025 07:00:00,23.163798,72.677768,NO2,6,42,18
India,Gujarat,Gandhinagar,"GIFT City, Gandhinagar - IITM",24-09-2025 07:00:00,23.163798,72.677768,SO2,3,14,6
India,Gujarat,Gandhinagar,"IIPHG Lekawada, Gandhinagar - IITM",24-09-2025 07:00:00,23.243639,72.68994,SO2,1,6,3
India,Gujarat,Gandhinagar,"IIPHG Lekawada, Gandhinagar - IITM",24-09-2025 07:00:00,23.243639,72.68994,CO,8,52,16
India,Karnataka,Bengaluru,"Hombegowda Nagar, Bengaluru - KSPCB",24-09-2025 07:00:00,12.938539,77.590100,NO2,8,22,13
India,Karnataka,Bengaluru,"Jayanagar 5th Block, Bengaluru - KSPCB",24-09-2025 07:00:00,12.920984,77.584908,PM10,NA,NA,NA
India,Karnataka,Bengaluru,"Sanegurava Halli, Bengaluru - KSPCB",24-09-2025 07:00:00,12.990328,77.5431385,PM10,NA,NA,NA
India,Karnataka,Bengaluru,"Sanegurava Halli, Bengaluru - KSPCB",24-09-2025 07:00:00,12.990328,77.5431385,SO2,NA,NA,NA
India,Karnataka,Bengaluru,"Sanegurava Halli, Bengaluru - KSPCB",24-09-2025 07:00:00,12.990328,77.5431385,CO,NA,NA,NA
India,Karnataka,Bengaluru,"Silk Board, Bengaluru - KSPCB",24-09-2025 07:00:00,12.917348,77.622813,SO2,7,11,9
India,Gujarat,Ahmedabad,"Maninagar, Ahmedabad - GPCB",24-09-2025 07:00:00,23.002657,72.591912,NO2,23,24,23
India,Gujarat,Ahmedabad,"Maninagar, Ahmedabad - GPCB",24-09-2025 07:00:00,23.002657,72.591912,CO,26,62,37
India,Gujarat,Ahmedabad,"Rakhial, Ahmedabad - IITM",24-09-2025 07:00:00,23.016834,72.625775,NO2,6,101,28
India,Gujarat,Ahmedabad,"Rakhial, Ahmedabad - IITM",24-09-2025 07:00:00,23.016834,72.625775,CO,6,26,16
India,Gujarat,Ahmedabad,"SAC ISRO Bopal, Ahmedabad - IITM",24-09-2025 07:00:00,23.041137,72.456691,NH3,2,3,3
India,Gujarat,Ahmedabad,"Gyaspur, Ahmedabad - IITM",24-09-2025 07:00:00,22.977134,72.553024,NO2,6,45,32
India,Madhya Pradesh,Satna,"Bandhavgar Colony, Satna - Birla Cement",24-09-2025 07:00:00,24.58434363,80.8549414,OZONE,5,10,7
India,Madhya Pradesh,Singrauli,"Suryakiran Bhawan NCL, Singrauli - MPPCB",24-09-2025 07:00:00,24.108970,82.645580,NO2,NA,NA,NA
India,Madhya Pradesh,Singrauli,"Suryakiran Bhawan NCL, Singrauli - MPPCB",24-09-2025 07:00:00,24.108970,82.645580,NH3,NA,NA,NA
India,Madhya Pradesh,Singrauli,"Suryakiran Bhawan NCL, Singrauli - MPPCB",24-09-2025 07:00:00,24.108970,82.645580,CO,12,14,12
India,Madhya Pradesh,Singrauli,"Suryakiran Bhawan NCL, Singrauli - MPPCB",24-09-2025 07:00:00,24.108970,82.645580,OZONE,10,49,13
India,Maharashtra,Ahmednagar,"Tarakpur, Ahmednagar - MPCB",24-09-2025 07:00:00,19.10122,74.73339,PM2.5,7,47,31
India,Maharashtra,Ahmednagar,"Tarakpur, Ahmednagar - MPCB",24-09-2025 07:00:00,19.10122,74.73339,CO,4,32,11
India,Maharashtra,Akola,"Ramdaspeth, Akola - MPCB",24-09-2025 07:00:00,20.719516,77.000253,NO2,13,36,19
India,Maharashtra,Amravati,"Shivneri Colony, Amravati - MPCB",24-09-2025 07:00:00,20.9402359,77.7895248,NO2,6,28,11
India,Maharashtra,Amravati,"Shivneri Colony, Amravati - MPCB",24-09-2025 07:00:00,20.9402359,77.7895248,SO2,2,6,3
India,Maharashtra,Amravati,"Shri Shivaji Science College, Amravati - MPCB",24-09-2025 07:00:00,20.939198,77.765701,PM2.5,22,84,39
India,Karnataka,Mysuru,"Hebbal 1st Stage, Mysuru - KSPCB",24-09-2025 07:00:00,12.21041,76.37376,PM2.5,11,23,17
India,Karnataka,Mysuru,"Hebbal 1st Stage, Mysuru - KSPCB",24-09-2025 07:00:00,12.21041,76.37376,PM10,21,40,30
India,Karnataka,Mysuru,"Hebbal 1st Stage, Mysuru - KSPCB",24-09-2025 07:00:00,12.21041,76.37376,NH3,2,6,5
India,Karnataka,Mysuru,"Hebbal 1st Stage, Mysuru - KSPCB",24-09-2025 07:00:00,12.21041,76.37376,OZONE,6,48,7
India,Karnataka,Ramanagara,"Vijay Nagar, Ramanagara - KSPCB",24-09-2025 07:00:00,12.733409,77.298051,SO2,NA,NA,NA
India,Karnataka,Shivamogga,"Vinoba Nagara, Shivamogga - KSPCB",24-09-2025 07:00:00,13.940000,75.555917,CO,17,30,26
India,Karnataka,Vijayapura,"Ibrahimpur, Vijayapura - KSPCB",24-09-2025 07:00:00,16.802639,75.722694,CO,9,34,22
India,Karnataka,Yadgir,"Collector Office, Yadgir - KSPCB",24-09-2025 07:00:00,16.7602,77.1428,PM2.5,2,17,10
India,Karnataka,Yadgir,"Collector Office, Yadgir - KSPCB",24-09-2025 07:00:00,16.7602,77.1428,CO,11,18,12
India,Kerala,Kannur,"Thavakkara, Kannur - Kerala PCB",24-09-2025 07:00:00,11.875000,75.373200,NH3,2,2,2
India,Kerala,Kollam,"Polayathode, Kollam - Kerala PCB",24-09-2025 07:00:00,8.8787,76.6073,NO2,8,10,9
India,Kerala,Thiruvananthapuram,"Kariavattom, Thiruvananthapuram - Kerala PCB",24-09-2025 07:00:00,8.563700,76.886500,NO2,6,7,7
India,Kerala,Thiruvananthapuram,"Kariavattom, Thiruvananthapuram - Kerala PCB",24-09-2025 07:00:00,8.563700,76.886500,SO2,1,19,6
India,Kerala,Thiruvananthapuram,"Plammoodu, Thiruvananthapuram - Kerala PCB",24-09-2025 07:00:00,8.5149093,76.9435879,OZONE,12,22,14
India,Kerala,Thrissur,"Corporation Ground, Thrissur - Kerala PCB",24-09-2025 07:00:00,10.532400,76.215900,SO2,1,1,1
India,Kerala,Thrissur,"Corporation Ground, Thrissur - Kerala PCB",24-09-2025 07:00:00,10.532400,76.215900,CO,25,42,38
India,Kerala,Thrissur,"Corporation Ground, Thrissur - Kerala PCB",24-09-2025 07:00:00,10.532400,76.215900,OZONE,29,30,30
India,Madhya Pradesh,Katni,"Gole Bazar, Katni - MPPCB",24-09-2025 07:00:00,23.50016,80.23284,PM2.5,18,55,30
India,Madhya Pradesh,Maihar,"Sahilara, Maihar - KJS Cements",24-09-2025 07:00:00,24.2613009,80.7231783,SO2,6,6,6
India,Madhya Pradesh,Mandideep,"Sector-D Industrial Area, Mandideep - MPPCB",24-09-2025 07:00:00,23.108440,77.511428,PM2.5,32,91,54
India,Madhya Pradesh,Pithampur,"Sector-2 Industrial Area, Pithampur - MPPCB",24-09-2025 07:00:00,22.624758,75.675238,PM2.5,24,124,63
India,Madhya Pradesh,Ratlam,"Shasthri Nagar, Ratlam - IPCA Lab",24-09-2025 07:00:00,23.331731,75.045981,PM2.5,1,70,35
India,Madhya Pradesh,Ratlam,"Shasthri Nagar, Ratlam - IPCA Lab",24-09-2025 07:00:00,23.331731,75.045981,SO2,27,28,27
India,Madhya Pradesh,Indore,"Regional Park, Indore - IMC",24-09-2025 07:00:00,22.6780,75.8559,OZONE,12,34,17
India,Madhya Pradesh,Indore,"Residency Area, Indore - IMC",24-09-2025 07:00:00,22.7084,75.8815,PM2.5,20,52,36
India,Madhya Pradesh,Jabalpur,"Gupteshwar, Jabalpur - JMC",24-09-2025 07:00:00,23.142888,79.916147,SO2,4,27,16
India,Madhya Pradesh,Jabalpur,"Gupteshwar, Jabalpur - JMC",24-09-2025 07:00:00,23.142888,79.916147,CO,37,56,40
India,Madhya Pradesh,Jabalpur,"Gupteshwar, Jabalpur - JMC",24-09-2025 07:00:00,23.142888,79.916147,OZONE,6,52,29
India,Madhya Pradesh,Jabalpur,"Suhagi, Jabalpur - JMC",24-09-2025 07:00:00,23.218135,79.957770,NO2,24,38,29
India,Madhya Pradesh,Jabalpur,"Suhagi, Jabalpur - JMC",24-09-2025 07:00:00,23.218135,79.957770,SO2,3,9,6
India,Madhya Pradesh,Jabalpur,"Suhagi, Jabalpur - JMC",24-09-2025 07:00:00,23.218135,79.957770,CO,22,54,41
India,Madhya Pradesh,Bhopal,"Paryavaran Parisar, Bhopal - MPPCB",24-09-2025 07:00:00,23.210494,77.425409,PM2.5,25,50,34
India,Madhya Pradesh,Bhopal,"Paryavaran Parisar, Bhopal - MPPCB",24-09-2025 07:00:00,23.210494,77.425409,SO2,11,15,13
India,Madhya Pradesh,Bhopal,"Paryavaran Parisar, Bhopal - MPPCB",24-09-2025 07:00:00,23.210494,77.425409,OZONE,30,54,38
India,Madhya Pradesh,Damoh,"Shrivastav Colony, Damoh - MPPCB",24-09-2025 07:00:00,23.81748678,79.446246,PM10,65,111,88
India,Madhya Pradesh,Dewas,"Bhopal Chauraha, Dewas - MPPCB",24-09-2025 07:00:00,22.9682591,76.064118,NO2,4,69,43
India,Madhya Pradesh,Dewas,"Bhopal Chauraha, Dewas - MPPCB",24-09-2025 07:00:00,22.9682591,76.064118,CO,6,42,12
India,Madhya Pradesh,Gwalior,"City Center, Gwalior - MPPCB",24-09-2025 07:00:00,26.203442,78.193251,PM10,50,118,83
India,Maharashtra,Aurangabad,"MIDC Chilkalthana, Aurangabad - MPCB",24-09-2025 07:00:00,19.875620,75.387310,PM10,13,38,23
India,Maharashtra,Aurangabad,"Rachnakar Colony, Aurangabad - MPCB",24-09-2025 07:00:00,19.863756,75.321188,NH3,2,5,3
India,Maharashtra,Aurangabad,"Rachnakar Colony, Aurangabad - MPCB",24-09-2025 07:00:00,19.863756,75.321188,SO2,8,29,17
India,Maharashtra,Badlapur,"Katrap, Badlapur - MPCB",24-09-2025 07:00:00,19.16485,73.23409,SO2,9,23,14
India,Maharashtra,Belapur,"CBD Belapur, Belapur - MPCB",24-09-2025 07:00:00,19.0243902,73.0406721,PM10,31,62,46
India,Karnataka,Hubballi,"Lingaraj Nagar, Hubballi - KSPCB",24-09-2025 07:00:00,15.3714823,75.1160168,PM10,47,51,49
India,Karnataka,Kalaburagi,"Lal Bahadur Shastri Nagar, Kalaburagi - KSPCB",24-09-2025 07:00:00,17.321993,76.822628,PM10,40,75,58
India,Karnataka,Kalaburagi,"Lal Bahadur Shastri Nagar, Kalaburagi - KSPCB",24-09-2025 07:00:00,17.321993,76.822628,NO2,11,12,11
India,Karnataka,Kalaburagi,"Mahatma Basaveswar Colony, Kalaburgi - KSPCB",24-09-2025 07:00:00,17.336318,76.847397,PM10,26,46,38
India,Karnataka,Kalaburagi,"Mahatma Basaveswar Colony, Kalaburgi - KSPCB",24-09-2025 07:00:00,17.336318,76.847397,OZONE,12,14,12
India,Madhya Pradesh,Gwalior,"Deen Dayal Nagar, Gwalior - MPPCB",24-09-2025 07:00:00,26.259242,78.216432,PM2.5,38,147,70
India,Madhya Pradesh,Gwalior,"Deen Dayal Nagar, Gwalior - MPPCB",24-09-2025 07:00:00,26.259242,78.216432,NO2,4,43,16
India,Maharashtra,Kolhapur,"Sinchan Bhavan, Kolhapur - MPCB",24-09-2025 07:00:00,16.7143745,74.2426398,PM10,30,69,46
India,Maharashtra,Kolhapur,"Sinchan Bhavan, Kolhapur - MPCB",24-09-2025 07:00:00,16.7143745,74.2426398,NO2,1,5,3
India,Maharashtra,Kolhapur,"Sinchan Bhavan, Kolhapur - MPCB",24-09-2025 07:00:00,16.7143745,74.2426398,SO2,1,2,1
India,Maharashtra,Kolhapur,"Sinchan Bhavan, Kolhapur - MPCB",24-09-2025 07:00:00,16.7143745,74.2426398,OZONE,NA,NA,NA
India,Maharashtra,Latur,"Sawe Wadi, Latur - MPCB",24-09-2025 07:00:00,18.39963,76.57452,OZONE,4,17,15
India,Maharashtra,Mahad,"Kamble Tarf Birwadi, Mahad - MPCB",24-09-2025 07:00:00,18.1023399,73.4783687,NH3,3,6,4
India,Maharashtra,Mahad,"Kamble Tarf Birwadi, Mahad - MPCB",24-09-2025 07:00:00,18.1023399,73.4783687,SO2,21,38,25
India,Maharashtra,Malegaon,"Mahesh Nagar, Malegaon - MPCB",24-09-2025 07:00:00,20.555712,74.529236,PM2.5,19,36,29
India,Maharashtra,Mira-Bhayandar,"Bhayandar West, Mira-Bhayandar - MPCB",24-09-2025 07:00:00,19.296481,72.840923,NO2,5,60,31
India,Maharashtra,Mira-Bhayandar,"Bhayandar West, Mira-Bhayandar - MPCB",24-09-2025 07:00:00,19.296481,72.840923,CO,28,96,55
India,Maharashtra,Dhule,"Deopur, Dhule - MPCB",24-09-2025 07:00:00,20.918946,74.776388,PM10,14,72,45
