country,state,city,station,last_update,latitude,longitude,pollutant_id,min_value,max_value,avg_value
India,Bihar,Bhagalpur,"Mayaganj, Bhagalpur - BSPCB",25-12-2025 08:00:00,25.265194,87.012947,PM2.5,90,297,134
India,Bihar,Bhagalpur,"Mayaganj, Bhagalpur - BSPCB",25-12-2025 08:00:00,25.265194,87.012947,OZONE,8,10,9
India,Bihar,Bihar Sharif,"D M Colony, Bihar Sharif - BSPCB",25-12-2025 08:00:00,25.204762,85.514960,PM10,79,253,129
India,Bihar,Bihar Sharif,"D M Colony, Bihar Sharif - BSPCB",25-12-2025 08:00:00,25.204762,85.514960,NO2,9,10,9
India,Bihar,Bihar Sharif,"D M Colony, Bihar Sharif - BSPCB",25-12-2025 08:00:00,25.204762,85.514960,CO,4,130,20
India,Bihar,Bihar Sharif,"D M Colony, Bihar Sharif - BSPCB",25-12-2025 08:00:00,25.204762,85.514960,OZONE,1,11,5
India,Bihar,Buxar,"Charitra Van, Buxar - BSPCB",25-12-2025 08:00:00,25.567520,83.966379,PM10,85,117,103
India,Bihar,Buxar,"Charitra Van, Buxar - BSPCB",25-12-2025 08:00:00,25.567520,83.966379,CO,22,28,24
India,Bihar,Chhapra,"Darshan Nagar, Chhapra - BSPCB",25-12-2025 08:00:00,25.7808257,84.7446768,SO2,32,36,34
India,Bihar,Gaya,"Collectorate, Gaya - BSPCB",25-12-2025 08:00:00,24.7955,84.9994,PM2.5,51,341,158
India,Assam,Nalbari,"Bata Chowk, Nalbari - PCBA",25-12-2025 08:00:00,26.446912,91.439057,OZONE,9,16,16
India,Assam,Silchar,"Tarapur, Silchar - PCBA",25-12-2025 08:00:00,24.82827,92.79525,NH3,1,1,1
India,Assam,Silchar,"Tarapur, Silchar - PCBA",25-12-2025 08:00:00,24.82827,92.79525,SO2,5,7,6
India,Assam,Silchar,"Tarapur, Silchar - PCBA",25-12-2025 08:00:00,24.82827,92.79525,CO,4,38,33
India,Assam,Sivasagar,"Girls College, Sivasagar - PCBA",25-12-2025 08:00:00,26.987634,94.636574,PM2.5,52,97,71
India,Assam,Sivasagar,"Girls College, Sivasagar - PCBA",25-12-2025 08:00:00,26.987634,94.636574,NO2,23,38,29
India,Assam,Sivasagar,"Girls College, Sivasagar - PCBA",25-12-2025 08:00:00,26.987634,94.636574,NH3,6,16,10
India,Assam,Sivasagar,"Girls College, Sivasagar - PCBA",25-12-2025 08:00:00,26.987634,94.636574,SO2,5,8,7
India,Assam,Sivasagar,"Girls College, Sivasagar - PCBA",25-12-2025 08:00:00,26.987634,94.636574,OZONE,3,36,4
India,Bihar,Araria,"Kharahiya Basti, Araria - BSPCB",25-12-2025 08:00:00,26.146529,87.454184,CO,26,67,51
India,Andhra_Pradesh,Anantapur,"Gulzarpet, Anantapur - APPCB",25-12-2025 08:00:00,14.675886,77.593027,NO2,20,27,24
India,Andhra_Pradesh,Anantapur,"Gulzarpet, Anantapur - APPCB",25-12-2025 08:00:00,14.675886,77.593027,CO,22,45,35
India,Andhra_Pradesh,Chittoor,"Gangineni Cheruvu, Chittoor - APPCB",25-12-2025 08:00:00,13.204880,79.097889,PM2.5,26,253,127
India,Andhra_Pradesh,Chittoor,"Gangineni Cheruvu, Chittoor - APPCB",25-12-2025 08:00:00,13.204880,79.097889,NO2,40,44,42
India,Andhra_Pradesh,Kadapa,"Yerramukkapalli, Kadapa - APPCB",25-12-2025 08:00:00,14.465052,78.824187,PM10,41,150,106
India,Andhra_Pradesh,Kadapa,"Yerramukkapalli, Kadapa - APPCB",25-12-2025 08:00:00,14.465052,78.824187,NH3,3,4,3
India,Andhra_Pradesh,Kadapa,"Yerramukkapalli, Kadapa - APPCB",25-12-2025 08:00:00,14.465052,78.824187,SO2,11,18,13
India,Andhra_Pradesh,Kadapa,"Yerramukkapalli, Kadapa - APPCB",25-12-2025 08:00:00,14.465052,78.824187,CO,26,52,29
India,Andhra_Pradesh,Kadapa,"Yerramukkapalli, Kadapa - APPCB",25-12-2025 08:00:00,14.465052,78.824187,OZONE,20,22,21
India,Andhra_Pradesh,Rajamahendravaram,"Anand Kala Kshetram, Rajamahendravaram - APPCB",25-12-2025 08:00:00,16.9872867,81.7363176,OZONE,11,47,26
India,Andhra_Pradesh,Tirumala,"Toll Gate, Tirumala - APPCB",25-12-2025 08:00:00,13.67,79.35,PM10,118,150,136
India,Andhra_Pradesh,Tirupati,"Vaikuntapuram, Tirupati - APPCB",25-12-2025 08:00:00,13.615387,79.409230,PM10,16,127,72
India,Andhra_Pradesh,Tirupati,"Vaikuntapuram, Tirupati - APPCB",25-12-2025 08:00:00,13.615387,79.409230,NH3,4,4,4
India,Andhra_Pradesh,Tirupati,"Vaikuntapuram, Tirupati - APPCB",25-12-2025 08:00:00,13.615387,79.409230,SO2,14,24,17
India,Andhra_Pradesh,Tirupati,"Vaikuntapuram, Tirupati - APPCB",25-12-2025 08:00:00,13.615387,79.409230,CO,27,52,31
India,Andhra_Pradesh,Vijayawada,"HB Colony, Vijayawada - APPCB",25-12-2025 08:00:00,16.536107,80.594233,PM2.5,45,190,116
India,Andhra_Pradesh,Vijayawada,"Rajiv Gandhi Park, Vijayawada - APPCB",25-12-2025 08:00:00,16.509717,80.612222,NO2,NA,NA,NA
India,Andhra_Pradesh,Vijayawada,"Rajiv Nagar, Vijayawada - APPCB",25-12-2025 08:00:00,16.554731,80.649110,SO2,13,16,15
India,Andhra_Pradesh,Vijayawada,"Rajiv Nagar, Vijayawada - APPCB",25-12-2025 08:00:00,16.554731,80.649110,OZONE,14,87,14
India,Andhra_Pradesh,Visakhapatnam,"GVM Corporation, Visakhapatnam - APPCB",25-12-2025 08:00:00,17.72,83.3,CO,48,106,68
India,Andhra_Pradesh,Visakhapatnam,"GVM Corporation, Visakhapatnam - APPCB",25-12-2025 08:00:00,17.72,83.3,OZONE,4,83,34
India,Assam,Byrnihat,"Central Academy for SFS, Byrnihat - PCBA",25-12-2025 08:00:00,26.071318,91.87488,PM2.5,97,278,146
India,Bihar,Kishanganj,"SDM Office_Khagra, Kishanganj - BSPCB",25-12-2025 08:00:00,26.0881305,87.93840336,PM10,67,298,174
India,Bihar,Manguraha,"Forest Rest House, Manguraha - BSPCB",25-12-2025 08:00:00,27.308328,84.531742,CO,16,34,33
India,Bihar,Manguraha,"Forest Rest House, Manguraha - BSPCB",25-12-2025 08:00:00,27.308328,84.531742,OZONE,6,12,10
India,Bihar,Motihari,"Gandak Colony, Motihari - BSPCB",25-12-2025 08:00:00,26.63086,84.90051,CO,14,25,15
India,Bihar,Munger,"Town Hall, Munger - BSPCB",25-12-2025 08:00:00,25.376776,86.471523,CO,16,101,33
India,Bihar,Gaya,"SFTI Kusdihra, Gaya - BSPCB",25-12-2025 08:00:00,24.762518,84.982348,PM2.5,NA,NA,NA
India,Bihar,Gaya,"SFTI Kusdihra, Gaya - BSPCB",25-12-2025 08:00:00,24.762518,84.982348,NO2,NA,NA,NA
India,Bihar,Gaya,"SFTI Kusdihra, Gaya - BSPCB",25-12-2025 08:00:00,24.762518,84.982348,SO2,NA,NA,NA
India,Bihar,Hajipur,"Industrial Area, Hajipur - BSPCB",25-12-2025 08:00:00,25.697189,85.245900,SO2,6,9,8
India,Bihar,Katihar,"Mirchaibari, Katihar - BSPCB",25-12-2025 08:00:00,25.560083,87.553265,PM10,72,132,104
India,Bihar,Katihar,"Mirchaibari, Katihar - BSPCB",25-12-2025 08:00:00,25.560083,87.553265,NH3,1,1,1
India,Bihar,Katihar,"Mirchaibari, Katihar - BSPCB",25-12-2025 08:00:00,25.560083,87.553265,SO2,12,27,20
India,Assam,Byrnihat,"Central Academy for SFS, Byrnihat - PCBA",25-12-2025 08:00:00,26.071318,91.87488,NH3,4,4,4
India,Assam,Guwahati,"LGBI Airport, Guwahati - PCBA",25-12-2025 08:00:00,26.10887,91.589544,NH3,5,16,5
India,Assam,Guwahati,"Pan Bazaar, Guwahati - PCBA",25-12-2025 08:00:00,26.187500,91.744194,SO2,20,38,27
India,Assam,Guwahati,"Pan Bazaar, Guwahati - PCBA",25-12-2025 08:00:00,26.187500,91.744194,CO,26,98,40
India,Assam,Nalbari,"Bata Chowk, Nalbari - PCBA",25-12-2025 08:00:00,26.446912,91.439057,NO2,10,16,14
India,Bihar,Aurangabad,"Gurdeo Nagar, Aurangabad - BSPCB",25-12-2025 08:00:00,24.75746,84.366208,PM10,92,226,143
India,Bihar,Bettiah,"Kamalnath Nagar, Bettiah - BSPCB",25-12-2025 08:00:00,26.80365,84.51954,NH3,1,1,1
India,Bihar,Bhagalpur,"DM Office_Kachari Chowk, Bhagalpur - BSPCB",25-12-2025 08:00:00,25.251013,86.989001,NH3,1,1,1
India,Bihar,Bhagalpur,"DM Office_Kachari Chowk, Bhagalpur - BSPCB",25-12-2025 08:00:00,25.251013,86.989001,OZONE,11,25,16
India,Andaman and Nicobar,Sri Vijaya Puram,"Police Line, Sri Vijaya Puram - ANPCC",25-12-2025 08:00:00,11.654054,92.734055,NO2,12,33,18
India,Chhattisgarh,Korba,"Urja Nagar, Korba - CECB",25-12-2025 08:00:00,22.348441,82.549611,OZONE,NA,NA,NA
India,Chhattisgarh,Kunjemura,"OP Jindal School, Kunjemura - CECB",25-12-2025 08:00:00,22.126650,83.483212,PM10,36,126,80
India,Chhattisgarh,Milupara,"Govt. Higher Secondary School, Milupara - CECB",25-12-2025 08:00:00,22.1910172,83.5197009,PM2.5,43,93,64
India,Chhattisgarh,Raipur,"AIIMS, Raipur - CECB",25-12-2025 08:00:00,21.258815,81.578979,PM2.5,26,124,66
India,Chhattisgarh,Raipur,"AIIMS, Raipur - CECB",25-12-2025 08:00:00,21.258815,81.578979,PM10,33,169,92
India,Chhattisgarh,Raipur,"Bhatagaon New ISBT, Raipur - CECB",25-12-2025 08:00:00,21.219665,81.630094,PM2.5,11,104,49
India,Chhattisgarh,Raipur,"Bhatagaon New ISBT, Raipur - CECB",25-12-2025 08:00:00,21.219665,81.630094,NH3,2,2,2
India,Chhattisgarh,Raipur,"Bhatagaon New ISBT, Raipur - CECB",25-12-2025 08:00:00,21.219665,81.630094,SO2,6,14,9
India,Chhattisgarh,Bilaspur,"Mangala, Bilaspur - NTPC",25-12-2025 08:00:00,22.08815,82.13737,PM2.5,21,100,50
India,Chhattisgarh,Bilaspur,"Mangala, Bilaspur - NTPC",25-12-2025 08:00:00,22.08815,82.13737,CO,13,72,48
India,Chhattisgarh,Chhal,"Nawapara SECL Colony, Chhal - CECB",25-12-2025 08:00:00,22.118125,83.140608,PM10,46,108,72
India,Chhattisgarh,Chhal,"Nawapara SECL Colony, Chhal - CECB",25-12-2025 08:00:00,22.118125,83.140608,SO2,4,37,19
India,Chhattisgarh,Chhal,"Nawapara SECL Colony, Chhal - CECB",25-12-2025 08:00:00,22.118125,83.140608,OZONE,4,174,11
India,Chhattisgarh,Korba,"Rampur, Korba - CECB",25-12-2025 08:00:00,22.368195,82.746431,SO2,16,65,43
India,Chhattisgarh,Korba,"Urja Nagar, Korba - CECB",25-12-2025 08:00:00,22.348441,82.549611,CO,NA,NA,NA
India,Chhattisgarh,Bhilai,"32Bungalows, Bhilai - CECB",25-12-2025 08:00:00,21.194815,81.314770,PM10,10,66,34
India,Chhattisgarh,Bhilai,"32Bungalows, Bhilai - CECB",25-12-2025 08:00:00,21.194815,81.314770,NO2,14,85,42
India,Chhattisgarh,Bhilai,"32Bungalows, Bhilai - CECB",25-12-2025 08:00:00,21.194815,81.314770,NH3,4,6,5
India,Chhattisgarh,Bhilai,"32Bungalows, Bhilai - CECB",25-12-2025 08:00:00,21.194815,81.314770,SO2,6,11,8
India,Chhattisgarh,Bhilai,"32Bungalows, Bhilai - CECB",25-12-2025 08:00:00,21.194815,81.314770,OZONE,1,52,1
India,Chhattisgarh,Bhilai,"Civic Center, Bhilai - Bhilai Steel Plant",25-12-2025 08:00:00,21.185571,81.343175,PM2.5,9,119,51
India,Chhattisgarh,Bhilai,"Civic Center, Bhilai - Bhilai Steel Plant",25-12-2025 08:00:00,21.185571,81.343175,NO2,20,20,20
India,Chhattisgarh,Bhilai,"Hathkhoj, Bhilai - CECB",25-12-2025 08:00:00,21.224231,81.408350,NH3,3,11,5
India,Delhi,Delhi,"Alipur, Delhi - DPCC",25-12-2025 08:00:00,28.815329,77.153010,OZONE,7,43,7
India,Delhi,Delhi,"Anand Vihar, Delhi - DPCC",25-12-2025 08:00:00,28.647622,77.3158090,SO2,22,41,33
India,Delhi,Delhi,"Ashok Vihar, Delhi - DPCC",25-12-2025 08:00:00,28.695381,77.181665,SO2,5,24,14
India,Delhi,Delhi,"Ashok Vihar, Delhi - DPCC",25-12-2025 08:00:00,28.695381,77.181665,CO,16,120,56
India,Delhi,Delhi,"Bawana, Delhi - DPCC",25-12-2025 08:00:00,28.776200,77.051074,NH3,8,12,10
India,Delhi,Delhi,"Burari Crossing, Delhi - IMD",25-12-2025 08:00:00,28.7256504,77.2011573,PM2.5,41,369,214
India,Chhattisgarh,Raipur,"Siltara Phase-II, Raipur - CECB",25-12-2025 08:00:00,21.371751,81.664929,PM2.5,28,103,54
India,Chhattisgarh,Raipur,"Siltara Phase-II, Raipur - CECB",25-12-2025 08:00:00,21.371751,81.664929,PM10,50,151,97
India,Chhattisgarh,Tumidih,"OP Jindal Industrial Park, Tumidih - CECB",25-12-2025 08:00:00,22.06631475,83.33820077,NH3,1,3,2
India,Delhi,Delhi,"Alipur, Delhi - DPCC",25-12-2025 08:00:00,28.815329,77.153010,PM2.5,45,388,248
India,Bihar,Patna,"Govt. High School Shikarpur, Patna - BSPCB",25-12-2025 08:00:00,25.592539,85.227158,SO2,11,17,14
India,Bihar,Patna,"Govt. High School Shikarpur, Patna - BSPCB",25-12-2025 08:00:00,25.592539,85.227158,CO,46,110,64
India,Bihar,Patna,"Muradpur, Patna - BSPCB",25-12-2025 08:00:00,25.619651,85.147382,NH3,4,5,5
India,Bihar,Patna,"Samanpura, Patna - BSPCB",25-12-2025 08:00:00,25.596727,85.085624,NH3,5,6,5
India,Bihar,Muzaffarpur,"MIT-Daudpur Kothi, Muzaffarpur - BSPCB",25-12-2025 08:00:00,26.1403345,85.3650192,PM2.5,98,140,121
India,Bihar,Muzaffarpur,"Muzaffarpur Collectorate, Muzaffarpur - BSPCB",25-12-2025 08:00:00,26.1209,85.3647,PM2.5,87,130,115
India,Bihar,Muzaffarpur,"Muzaffarpur Collectorate, Muzaffarpur - BSPCB",25-12-2025 08:00:00,26.1209,85.3647,NO2,10,16,12
India,Bihar,Sasaram,"Dada Peer, Sasaram - BSPCB",25-12-2025 08:00:00,24.952822,84.002396,PM10,83,181,116
India,Bihar,Sasaram,"Dada Peer, Sasaram - BSPCB",25-12-2025 08:00:00,24.952822,84.002396,CO,36,83,52
India,Bihar,Sasaram,"Dada Peer, Sasaram - BSPCB",25-12-2025 08:00:00,24.952822,84.002396,OZONE,4,21,17
India,Bihar,Patna,"Samanpura, Patna - BSPCB",25-12-2025 08:00:00,25.596727,85.085624,CO,68,131,92
India,Bihar,Rajgir,"Dangi Tola, Rajgir - BSPCB",25-12-2025 08:00:00,25.03280,85.41948,CO,81,98,88
India,Delhi,Delhi,"Pusa, Delhi - DPCC",25-12-2025 08:00:00,28.639652,77.146275,PM10,122,320,194
India,Delhi,Delhi,"Pusa, Delhi - DPCC",25-12-2025 08:00:00,28.639652,77.146275,NO2,36,136,75
India,Delhi,Delhi,"Pusa, Delhi - DPCC",25-12-2025 08:00:00,28.639652,77.146275,NH3,8,23,19
India,Delhi,Delhi,"Pusa, Delhi - IMD",25-12-2025 08:00:00,28.636110,77.173332,PM2.5,NA,NA,NA
India,Delhi,Delhi,"R K Puram, Delhi - DPCC",25-12-2025 08:00:00,28.563262,77.186937,SO2,16,29,20
India,Delhi,Delhi,"R K Puram, Delhi - DPCC",25-12-2025 08:00:00,28.563262,77.186937,OZONE,5,87,6
India,Delhi,Delhi,"Rohini, Delhi - DPCC",25-12-2025 08:00:00,28.732528,77.119920,PM2.5,47,392,259
India,Delhi,Delhi,"Rohini, Delhi - DPCC",25-12-2025 08:00:00,28.732528,77.119920,PM10,81,380,193
India,Delhi,Delhi,"Rohini, Delhi - DPCC",25-12-2025 08:00:00,28.732528,77.119920,NH3,9,17,12
India,Delhi,Delhi,"Rohini, Delhi - DPCC",25-12-2025 08:00:00,28.732528,77.119920,CO,22,115,72
India,Delhi,Delhi,"Shadipur, Delhi - CPCB",25-12-2025 08:00:00,28.6514781,77.1473105,NO2,26,69,46
India,Delhi,Delhi,"Shadipur, Delhi - CPCB",25-12-2025 08:00:00,28.6514781,77.1473105,SO2,16,36,26
India,Delhi,Delhi,"Shadipur, Delhi - CPCB",25-12-2025 08:00:00,28.6514781,77.1473105,CO,37,114,77
India,Delhi,Delhi,"Shadipur, Delhi - CPCB",25-12-2025 08:00:00,28.6514781,77.1473105,OZONE,23,43,39
India,Delhi,Delhi,"Sonia Vihar, Delhi - DPCC",25-12-2025 08:00:00,28.710508,77.249485,NO2,16,67,39
India,Delhi,Delhi,"Sri Aurobindo Marg, Delhi - DPCC",25-12-2025 08:00:00,28.531346,77.190156,SO2,3,12,8
India,Delhi,Delhi,"Sri Aurobindo Marg, Delhi - DPCC",25-12-2025 08:00:00,28.531346,77.190156,CO,42,100,80
India,Delhi,Delhi,"Sri Aurobindo Marg, Delhi - DPCC",25-12-2025 08:00:00,28.531346,77.190156,OZONE,1,73,2
India,Delhi,Delhi,"Vivek Vihar, Delhi - DPCC",25-12-2025 08:00:00,28.672342,77.315260,NO2,27,107,64
India,Delhi,Delhi,"Dwarka-Sector 8, Delhi - DPCC ",25-12-2025 08:00:00,28.5710274,77.0719006,PM10,86,283,154
India,Delhi,Delhi,"Dwarka-Sector 8, Delhi - DPCC ",25-12-2025 08:00:00,28.5710274,77.0719006,CO,34,128,64
India,Delhi,Delhi,"Dwarka-Sector 8, Delhi - DPCC ",25-12-2025 08:00:00,28.5710274,77.0719006,OZONE,1,81,4
India,Delhi,Delhi,"IGI Airport (T3), Delhi - IMD",25-12-2025 08:00:00,28.5627763,77.1180053,PM10,67,166,123
India,Delhi,Delhi,"IGI Airport (T3), Delhi - IMD",25-12-2025 08:00:00,28.5627763,77.1180053,CO,5,78,60
India,Delhi,Delhi,"IHBAS, Dilshad Garden, Delhi - CPCB",25-12-2025 08:00:00,28.6811736,77.3025234,PM2.5,36,344,258
India,Delhi,Delhi,"IHBAS, Dilshad Garden, Delhi - CPCB",25-12-2025 08:00:00,28.6811736,77.3025234,NO2,52,141,98
India,Delhi,Delhi,"Wazirpur, Delhi - DPCC",25-12-2025 08:00:00,28.699793,77.165453,NH3,10,17,12
India,Gujarat,Ahmedabad,"Chandkheda, Ahmedabad - IITM",25-12-2025 08:00:00,23.107969,72.574648,NO2,12,124,51
India,Gujarat,Ahmedabad,"Chandkheda, Ahmedabad - IITM",25-12-2025 08:00:00,23.107969,72.574648,NH3,5,16,8
India,Gujarat,Ahmedabad,"Gyaspur, Ahmedabad - IITM",25-12-2025 08:00:00,22.977134,72.553024,PM2.5,68,303,145
India,Gujarat,Ahmedabad,"Gyaspur, Ahmedabad - IITM",25-12-2025 08:00:00,22.977134,72.553024,OZONE,28,84,34
India,Gujarat,Ahmedabad,"Maninagar, Ahmedabad - GPCB",25-12-2025 08:00:00,23.002657,72.591912,CO,20,38,29
India,Delhi,Delhi,"CRRI Mathura Road, Delhi - IMD",25-12-2025 08:00:00,28.5512005,77.2735737,PM2.5,34,314,162
India,Delhi,Delhi,"Chandni Chowk, Delhi - IITM",25-12-2025 08:00:00,28.656756,77.227234,PM10,58,398,189
India,Delhi,Delhi,"Chandni Chowk, Delhi - IITM",25-12-2025 08:00:00,28.656756,77.227234,NH3,5,9,7
India,Delhi,Delhi,"DTU, Delhi - CPCB",25-12-2025 08:00:00,28.7500499,77.1112615,SO2,30,35,32
India,Delhi,Delhi,"Dr. Karni Singh Shooting Range, Delhi - DPCC",25-12-2025 08:00:00,28.498571,77.264840,PM10,70,361,158
India,Delhi,Delhi,"Lodhi Road, Delhi - IITM",25-12-2025 08:00:00,28.588333,77.221667,PM10,66,165,111
India,Delhi,Delhi,"Lodhi Road, Delhi - IMD",25-12-2025 08:00:00,28.5918245,77.2273074,PM10,81,195,123
India,Delhi,Delhi,"Major Dhyan Chand National Stadium, Delhi - DPCC",25-12-2025 08:00:00,28.611281,77.237738,PM10,83,253,154
India,Delhi,Delhi,"Mandir Marg, Delhi - DPCC",25-12-2025 08:00:00,28.636429,77.201067,NO2,56,119,81
India,Delhi,Delhi,"Mandir Marg, Delhi - DPCC",25-12-2025 08:00:00,28.636429,77.201067,OZONE,8,66,10
India,Delhi,Delhi,"North Campus, DU, Delhi - IMD",25-12-2025 08:00:00,28.6573814,77.1585447,OZONE,10,189,12
India,Delhi,Delhi,"Okhla Phase-2, Delhi - DPCC",25-12-2025 08:00:00,28.530785,77.271255,PM2.5,48,383,222
India,Delhi,Delhi,"Patparganj, Delhi - DPCC",25-12-2025 08:00:00,28.623763,77.287209,SO2,9,16,12
India,Delhi,Delhi,"Punjabi Bagh, Delhi - DPCC",25-12-2025 08:00:00,28.674045,77.131023,PM10,99,295,168
India,Delhi,Delhi,"Punjabi Bagh, Delhi - DPCC",25-12-2025 08:00:00,28.674045,77.131023,SO2,1,11,5
India,Delhi,Delhi,"Mundka, Delhi - DPCC",25-12-2025 08:00:00,28.684678,77.076574,SO2,4,18,8
India,Delhi,Delhi,"NSIT Dwarka, Delhi - CPCB",25-12-2025 08:00:00,28.60909,77.0325413,NO2,52,89,66
India,Delhi,Delhi,"NSIT Dwarka, Delhi - CPCB",25-12-2025 08:00:00,28.60909,77.0325413,SO2,13,23,17
India,Delhi,Delhi,"Najafgarh, Delhi - DPCC",25-12-2025 08:00:00,28.570173,76.933762,NO2,89,114,102
India,Delhi,Delhi,"Nehru Nagar, Delhi - DPCC",25-12-2025 08:00:00,28.567890,77.250515,PM2.5,52,500,275
India,Delhi,Delhi,"ITO, Delhi - CPCB",25-12-2025 08:00:00,28.628624,77.241060,NH3,3,5,4
India,Delhi,Delhi,"Jawaharlal Nehru Stadium, Delhi - DPCC",25-12-2025 08:00:00,28.580280,77.233829,PM2.5,45,378,212
India,Delhi,Delhi,"Jawaharlal Nehru Stadium, Delhi - DPCC",25-12-2025 08:00:00,28.580280,77.233829,NH3,12,17,14
India,Delhi,Delhi,"Jawaharlal Nehru Stadium, Delhi - DPCC",25-12-2025 08:00:00,28.580280,77.233829,SO2,9,35,19
India,Haryana,Bahadurgarh,"Arya Nagar, Bahadurgarh - HSPCB",25-12-2025 08:00:00,28.6701,76.9254,CO,44,51,47
India,Haryana,Bahadurgarh,"Arya Nagar, Bahadurgarh - HSPCB",25-12-2025 08:00:00,28.6701,76.9254,OZONE,16,19,17
India,Haryana,Ballabgarh,"Nathu Colony, Ballabgarh - HSPCB",25-12-2025 08:00:00,28.3419248,77.319699,NO2,19,21,20
India,Haryana,Bhiwani,"H.B. Colony, Bhiwani - HSPCB",25-12-2025 08:00:00,28.806223,76.141105,PM2.5,107,228,149
India,Haryana,Bhiwani,"H.B. Colony, Bhiwani - HSPCB",25-12-2025 08:00:00,28.806223,76.141105,PM10,89,127,104
India,Haryana,Charkhi Dadri,"Mini Secretariat, Charkhi Dadri - HSPCB",25-12-2025 08:00:00,28.593883,76.270653,PM2.5,57,302,140
India,Haryana,Charkhi Dadri,"Mini Secretariat, Charkhi Dadri - HSPCB",25-12-2025 08:00:00,28.593883,76.270653,PM10,51,156,97
India,Haryana,Dharuhera,"Municipal Corporation Office, Dharuhera -  HSPCB",25-12-2025 08:00:00,28.206800,76.799700,SO2,2,11,6
India,Haryana,Dharuhera,"Municipal Corporation Office, Dharuhera -  HSPCB",25-12-2025 08:00:00,28.206800,76.799700,OZONE,4,25,5
India,Gujarat,Ahmedabad,"Rakhial, Ahmedabad - IITM",25-12-2025 08:00:00,23.016834,72.625775,NH3,3,6,5
India,Gujarat,Ahmedabad,"Rakhial, Ahmedabad - IITM",25-12-2025 08:00:00,23.016834,72.625775,CO,15,107,38
India,Gujarat,Ahmedabad,"SAC ISRO Bopal, Ahmedabad - IITM",25-12-2025 08:00:00,23.041137,72.456691,PM2.5,72,197,134
India,Gujarat,Ahmedabad,"SAC ISRO Bopal, Ahmedabad - IITM",25-12-2025 08:00:00,23.041137,72.456691,NH3,10,17,14
India,Gujarat,Ahmedabad,"SAC ISRO Bopal, Ahmedabad - IITM",25-12-2025 08:00:00,23.041137,72.456691,OZONE,1,48,4
India,Gujarat,Ahmedabad,"SAC ISRO Satellite, Ahmedabad - IITM",25-12-2025 08:00:00,23.023389,72.515201,PM10,45,114,71
India,Gujarat,Ahmedabad,"SVPI Airport Hansol, Ahmedabad - IITM",25-12-2025 08:00:00,23.076793,72.627874,NO2,23,226,111
India,Haryana,Gurugram,"Sector-51, Gurugram - HSPCB",25-12-2025 08:00:00,28.4227,77.0667,CO,11,18,16
India,Haryana,Gurugram,"Teri Gram, Gurugram - HSPCB",25-12-2025 08:00:00,28.4275,77.1465,PM2.5,50,310,208
India,Haryana,Gurugram,"Teri Gram, Gurugram - HSPCB",25-12-2025 08:00:00,28.4275,77.1465,NO2,13,27,18
India,Haryana,Gurugram,"Teri Gram, Gurugram - HSPCB",25-12-2025 08:00:00,28.4275,77.1465,CO,22,71,68
India,Haryana,Gurugram,"Vikas Sadan, Gurugram - HSPCB",25-12-2025 08:00:00,28.4501238,77.0263051,NO2,9,45,26
India,Haryana,Gurugram,"Vikas Sadan, Gurugram - HSPCB",25-12-2025 08:00:00,28.4501238,77.0263051,OZONE,8,55,14
India,Gujarat,Ankleshwar,"GIDC, Ankleshwar - GPCB",25-12-2025 08:00:00,21.613267,73.010555,OZONE,42,56,43
India,Gujarat,Gandhinagar,"GIFT City, Gandhinagar - IITM",25-12-2025 08:00:00,23.163798,72.677768,NH3,3,18,7
India,Gujarat,Gandhinagar,"GIFT City, Gandhinagar - IITM",25-12-2025 08:00:00,23.163798,72.677768,SO2,5,14,9
India,Gujarat,Gandhinagar,"IIPHG Lekawada, Gandhinagar - IITM",25-12-2025 08:00:00,23.243639,72.68994,SO2,4,11,6
India,Gujarat,Gandhinagar,"Sector-10, Gandhinagar - GPCB",25-12-2025 08:00:00,23.221714,72.654328,NO2,19,36,24
India,Haryana,Faridabad,"New Industrial Town, Faridabad - HSPCB",25-12-2025 08:00:00,28.39072,77.30059,SO2,8,9,8
India,Haryana,Fatehabad,"Huda Sector, Fatehabad - HSPCB",25-12-2025 08:00:00,29.503664,75.467934,NH3,13,15,14
India,Haryana,Gurugram,"NISE Gwal Pahari, Gurugram - IMD",25-12-2025 08:00:00,28.422681,77.148944,PM10,63,386,144
India,Haryana,Karnal,"Sector-12, Karnal - HSPCB",25-12-2025 08:00:00,29.695300,77.002700,PM10,22,289,140
India,Haryana,Karnal,"Sector-12, Karnal - HSPCB",25-12-2025 08:00:00,29.695300,77.002700,NO2,6,6,6
India,Haryana,Karnal,"Sector-12, Karnal - HSPCB",25-12-2025 08:00:00,29.695300,77.002700,SO2,6,7,6
India,Haryana,Karnal,"Sector-12, Karnal - HSPCB",25-12-2025 08:00:00,29.695300,77.002700,OZONE,36,36,36
India,Haryana,Kurukshetra,"Sector-7, Kurukshetra - HSPCB",25-12-2025 08:00:00,29.966942,76.875879,NO2,16,21,19
India,Haryana,Panchkula,"Sector-6, Panchkula - HSPCB ",25-12-2025 08:00:00,30.7057778,76.8531805555555,SO2,9,10,9
India,Haryana,Panipat,"Sector-18, Panipat - HSPCB",25-12-2025 08:00:00,29.432304,76.972765,SO2,18,19,19
India,Haryana,Sirsa,"F-Block, Sirsa - HSPCB",25-12-2025 08:00:00,29.536400,75.015800,PM10,8,159,73
India,Gujarat,Surat,"Science Center, Surat - SMC",25-12-2025 08:00:00,21.170046,72.795405,CO,NA,NA,NA
India,Gujarat,Vatva,"Phase-4 GIDC, Vatva - GPCB",25-12-2025 08:00:00,22.969611,72.643500,PM10,30,297,106
India,Haryana,Manesar,"Sector-2 IMT, Manesar - HSPCB",25-12-2025 08:00:00,28.360699,76.936090,SO2,NA,NA,NA
India,Haryana,Narnaul,"Shastri Nagar, Narnaul - HSPCB",25-12-2025 08:00:00,28.060249,76.113115,SO2,3,5,4
India,Haryana,Sonipat,"Murthal, Sonipat - HSPCB",25-12-2025 08:00:00,29.027200,77.062100,NO2,20,53,41
India,Haryana,Sonipat,"Murthal, Sonipat - HSPCB",25-12-2025 08:00:00,29.027200,77.062100,NH3,15,37,20
India,Himachal Pradesh,Baddi,"HIMUDA Complex Phase-1, Baddi - HPPCB",25-12-2025 08:00:00,30.943887,76.801991,PM2.5,92,340,242
India,Himachal Pradesh,Baddi,"HIMUDA Complex Phase-1, Baddi - HPPCB",25-12-2025 08:00:00,30.943887,76.801991,PM10,132,314,194
India,Himachal Pradesh,Baddi,"HIMUDA Complex Phase-1, Baddi - HPPCB",25-12-2025 08:00:00,30.943887,76.801991,NH3,4,8,6
India,Himachal Pradesh,Baddi,"HIMUDA Complex Phase-1, Baddi - HPPCB",25-12-2025 08:00:00,30.943887,76.801991,CO,45,99,77
India,Jammu_and_Kashmir,Pampore,"Khrew, Pampore - JKPCC",25-12-2025 08:00:00,34.031606,75.009712,SO2,8,10,9
India,Jammu_and_Kashmir,Srinagar,"Khunmoh, Srinagar - JKPCC",25-12-2025 08:00:00,34.06313,74.96017,PM10,31,62,43
India,Jammu_and_Kashmir,Srinagar,"Rajbagh, Srinagar - JKPCC",25-12-2025 08:00:00,34.066206,74.819820,PM10,19,62,34
India,Karnataka,Davanagere,"Devaraj Urs Badavane, Davanagere - KSPCB",25-12-2025 08:00:00,14.475800,75.905200,NO2,15,42,31
India,Karnataka,Hubballi,"Lingaraj Nagar, Hubballi - KSPCB",25-12-2025 08:00:00,15.3714823,75.1160168,PM2.5,39,43,40
India,Karnataka,Hubballi,"Lingaraj Nagar, Hubballi - KSPCB",25-12-2025 08:00:00,15.3714823,75.1160168,SO2,1,5,2
India,Karnataka,Kalaburagi,"Lal Bahadur Shastri Nagar, Kalaburagi - KSPCB",25-12-2025 08:00:00,17.321993,76.822628,OZONE,NA,NA,NA
India,Karnataka,Kalaburagi,"Mahatma Basaveswar Colony, Kalaburgi - KSPCB",25-12-2025 08:00:00,17.336318,76.847397,PM2.5,34,67,52
India,Karnataka,Kalaburagi,"Mahatma Basaveswar Colony, Kalaburgi - KSPCB",25-12-2025 08:00:00,17.336318,76.847397,CO,38,74,52
India,Karnataka,Yadgir,"Collector Office, Yadgir - KSPCB",25-12-2025 08:00:00,16.7602,77.1428,CO,22,48,29
India,Kerala,Eloor,"Udyogamandal, Eloor - Kerala PCB",25-12-2025 08:00:00,10.073232,76.302765,PM2.5,65,140,90
India,Kerala,Kannur,"Thavakkara, Kannur - Kerala PCB",25-12-2025 08:00:00,11.875000,75.373200,PM10,56,72,67
India,Kerala,Kannur,"Thavakkara, Kannur - Kerala PCB",25-12-2025 08:00:00,11.875000,75.373200,CO,14,20,18
India,Kerala,Kollam,"Polayathode, Kollam - Kerala PCB",25-12-2025 08:00:00,8.8787,76.6073,PM10,60,277,148
India,Kerala,Kollam,"Polayathode, Kollam - Kerala PCB",25-12-2025 08:00:00,8.8787,76.6073,NH3,1,1,1
India,Jharkhand,Dhanbad,"Sardar Patel Nagar, Dhanbad - JSPCB",25-12-2025 08:00:00,23.80569,86.44268,NO2,52,53,53
India,Karnataka,Bagalkot,"Vidayagiri, Bagalkot - KSPCB",25-12-2025 08:00:00,16.172806,75.659694,PM10,53,54,53
India,Karnataka,Bagalkot,"Vidayagiri, Bagalkot - KSPCB",25-12-2025 08:00:00,16.172806,75.659694,NO2,11,12,12
India,Karnataka,Bagalkot,"Vidayagiri, Bagalkot - KSPCB",25-12-2025 08:00:00,16.172806,75.659694,NH3,1,2,1
India,Karnataka,Bagalkot,"Vidayagiri, Bagalkot - KSPCB",25-12-2025 08:00:00,16.172806,75.659694,OZONE,12,12,12
India,Karnataka,Bengaluru,"BTM Layout, Bengaluru - CPCB",25-12-2025 08:00:00,12.9135218,77.5950804,PM2.5,80,130,96
India,Karnataka,Bengaluru,"BTM Layout, Bengaluru - CPCB",25-12-2025 08:00:00,12.9135218,77.5950804,SO2,14,20,16
India,Kerala,Thiruvananthapuram,"Plammoodu, Thiruvananthapuram - Kerala PCB",25-12-2025 08:00:00,8.5149093,76.9435879,PM2.5,43,98,60
India,Kerala,Thiruvananthapuram,"Plammoodu, Thiruvananthapuram - Kerala PCB",25-12-2025 08:00:00,8.5149093,76.9435879,PM10,64,131,88
India,Madhya Pradesh,Bhopal,"Idgah Hills, Bhopal - MPPCB",25-12-2025 08:00:00,23.264759,77.381568,NO2,15,49,24
India,Madhya Pradesh,Bhopal,"Idgah Hills, Bhopal - MPPCB",25-12-2025 08:00:00,23.264759,77.381568,SO2,10,14,12
India,Madhya Pradesh,Bhopal,"Idgah Hills, Bhopal - MPPCB",25-12-2025 08:00:00,23.264759,77.381568,CO,16,52,20
India,Madhya Pradesh,Bhopal,"Paryavaran Parisar, Bhopal - MPPCB",25-12-2025 08:00:00,23.210494,77.425409,PM2.5,20,338,124
India,Karnataka,Bengaluru,"BWSSB Kadabesanahalli, Bengaluru - CPCB",25-12-2025 08:00:00,12.9352049,77.6814488,NO2,12,33,21
India,Karnataka,Bengaluru,"BWSSB Kadabesanahalli, Bengaluru - CPCB",25-12-2025 08:00:00,12.9352049,77.6814488,SO2,2,6,4
India,Karnataka,Bengaluru,"Hombegowda Nagar, Bengaluru - KSPCB",25-12-2025 08:00:00,12.938539,77.590100,NO2,16,89,32
India,Karnataka,Bengaluru,"Jayanagar 5th Block, Bengaluru - KSPCB",25-12-2025 08:00:00,12.920984,77.584908,NO2,8,46,23
India,Karnataka,Bengaluru,"Jayanagar 5th Block, Bengaluru - KSPCB",25-12-2025 08:00:00,12.920984,77.584908,SO2,1,38,10
India,Karnataka,Bengaluru,"Jayanagar 5th Block, Bengaluru - KSPCB",25-12-2025 08:00:00,12.920984,77.584908,OZONE,3,55,45
India,Karnataka,Bengaluru,"Jigani, Bengaluru - KSPCB",25-12-2025 08:00:00,12.7816279,77.6299145,CO,33,44,44
India,Karnataka,Bengaluru,"Kasturi Nagar, Bengaluru - KSPCB",25-12-2025 08:00:00,13.003872,77.664217,PM2.5,69,78,71
India,Karnataka,Bengaluru,"RVCE-Mailasandra, Bengaluru - KSPCB",25-12-2025 08:00:00,12.921418,77.502466,PM2.5,NA,NA,NA
India,Karnataka,Bengaluru,"RVCE-Mailasandra, Bengaluru - KSPCB",25-12-2025 08:00:00,12.921418,77.502466,SO2,NA,NA,NA
India,Karnataka,Bengaluru,"Sanegurava Halli, Bengaluru - KSPCB",25-12-2025 08:00:00,12.990328,77.5431385,NO2,17,18,18
India,Karnataka,Bengaluru,"Shivapura_Peenya, Bengaluru - KSPCB",25-12-2025 08:00:00,13.0246342,77.5080115,PM10,98,137,122
India,Karnataka,Bengaluru,"Shivapura_Peenya, Bengaluru - KSPCB",25-12-2025 08:00:00,13.0246342,77.5080115,NO2,31,33,32
India,Karnataka,Bengaluru,"Silk Board, Bengaluru - KSPCB",25-12-2025 08:00:00,12.917348,77.622813,NO2,NA,NA,NA
India,Karnataka,Shivamogga,"Vinoba Nagara, Shivamogga - KSPCB",25-12-2025 08:00:00,13.940000,75.555917,PM2.5,21,31,26
India,Karnataka,Shivamogga,"Vinoba Nagara, Shivamogga - KSPCB",25-12-2025 08:00:00,13.940000,75.555917,PM10,41,51,46
India,Karnataka,Shivamogga,"Vinoba Nagara, Shivamogga - KSPCB",25-12-2025 08:00:00,13.940000,75.555917,NO2,15,18,17
India,Karnataka,Shivamogga,"Vinoba Nagara, Shivamogga - KSPCB",25-12-2025 08:00:00,13.940000,75.555917,CO,10,25,22
India,Madhya Pradesh,Pithampur,"Sector-2 Industrial Area, Pithampur - MPPCB",25-12-2025 08:00:00,22.624758,75.675238,CO,24,50,32
India,Madhya Pradesh,Ratlam,"Shasthri Nagar, Ratlam - IPCA Lab",25-12-2025 08:00:00,23.331731,75.045981,PM2.5,17,135,69
India,Madhya Pradesh,Ratlam,"Shasthri Nagar, Ratlam - IPCA Lab",25-12-2025 08:00:00,23.331731,75.045981,NO2,4,18,8
India,Madhya Pradesh,Sagar,"Civil Lines, Sagar - MPPCB",25-12-2025 08:00:00,23.838586,78.759431,PM10,49,210,103
India,Madhya Pradesh,Sagar,"Deen Dayal Nagar, Sagar - MPPCB",25-12-2025 08:00:00,23.8640158,78.80289321,NO2,5,101,44
India,Madhya Pradesh,Sagar,"Deen Dayal Nagar, Sagar - MPPCB",25-12-2025 08:00:00,23.8640158,78.80289321,SO2,5,8,6
India,Madhya Pradesh,Satna,"Bandhavgar Colony, Satna - Birla Cement",25-12-2025 08:00:00,24.58434363,80.8549414,OZONE,3,34,5
India,Madhya Pradesh,Bhopal,"T T Nagar, Bhopal - MPPCB",25-12-2025 08:00:00,23.233584,77.400574,SO2,9,17,13
India,Madhya Pradesh,Bhopal,"T T Nagar, Bhopal - MPPCB",25-12-2025 08:00:00,23.233584,77.400574,CO,24,113,55
India,Madhya Pradesh,Damoh,"Shrivastav Colony, Damoh - MPPCB",25-12-2025 08:00:00,23.81748678,79.446246,PM10,9,51,22
India,Madhya Pradesh,Damoh,"Shrivastav Colony, Damoh - MPPCB",25-12-2025 08:00:00,23.81748678,79.446246,CO,NA,NA,NA
India,Madhya Pradesh,Dewas,"Bhopal Chauraha, Dewas - MPPCB",25-12-2025 08:00:00,22.9682591,76.064118,NO2,7,8,8
India,Madhya Pradesh,Dewas,"Bhopal Chauraha, Dewas - MPPCB",25-12-2025 08:00:00,22.9682591,76.064118,OZONE,23,27,25
India,Madhya Pradesh,Gwalior,"City Center, Gwalior - MPPCB",25-12-2025 08:00:00,26.203442,78.193251,NO2,15,105,42
India,Madhya Pradesh,Gwalior,"City Center, Gwalior - MPPCB",25-12-2025 08:00:00,26.203442,78.193251,SO2,16,27,18
India,Maharashtra,Belapur,"CBD Belapur, Belapur - MPCB",25-12-2025 08:00:00,19.0243902,73.0406721,CO,3,46,29
India,Maharashtra,Bhiwandi,"Gokul Nagar, Bhiwandi - MPCB",25-12-2025 08:00:00,19.309073,73.057223,PM10,65,163,121
India,Maharashtra,Boisar,"Khaira, Boisar - MPCB",25-12-2025 08:00:00,19.786089,72.757971,OZONE,1,75,17
India,Maharashtra,Chandrapur,"Chauhan Colony, Chandrapur - MPCB",25-12-2025 08:00:00,19.962900,79.298714,PM2.5,12,118,59
India,Maharashtra,Chandrapur,"Chauhan Colony, Chandrapur - MPCB",25-12-2025 08:00:00,19.962900,79.298714,PM10,46,246,137
India,Maharashtra,Chandrapur,"MIDC Khutala, Chandrapur - MPCB",25-12-2025 08:00:00,19.9775302,79.2337086,PM10,23,136,70
India,Madhya Pradesh,Jabalpur,"Marhatal, Jabalpur - MPPCB",25-12-2025 08:00:00,23.168606,79.932247,OZONE,7,115,14
India,Madhya Pradesh,Jabalpur,"Suhagi, Jabalpur - JMC",25-12-2025 08:00:00,23.218135,79.957770,OZONE,24,24,24
India,Madhya Pradesh,Katni,"Gole Bazar, Katni - MPPCB",25-12-2025 08:00:00,23.50016,80.23284,NH3,3,5,4
India,Madhya Pradesh,Mandideep,"Sector-D Industrial Area, Mandideep - MPPCB",25-12-2025 08:00:00,23.108440,77.511428,PM2.5,28,405,211
India,Madhya Pradesh,Mandideep,"Sector-D Industrial Area, Mandideep - MPPCB",25-12-2025 08:00:00,23.108440,77.511428,PM10,86,479,230
India,Madhya Pradesh,Mandideep,"Sector-D Industrial Area, Mandideep - MPPCB",25-12-2025 08:00:00,23.108440,77.511428,CO,8,116,63
India,Maharashtra,Ahmednagar,"Tarakpur, Ahmednagar - MPCB",25-12-2025 08:00:00,19.10122,74.73339,SO2,NA,NA,NA
India,Maharashtra,Akola,"Ramdaspeth, Akola - MPCB",25-12-2025 08:00:00,20.719516,77.000253,OZONE,6,60,8
India,Maharashtra,Amravati,"Shivneri Colony, Amravati - MPCB",25-12-2025 08:00:00,20.9402359,77.7895248,PM10,43,100,63
India,Maharashtra,Amravati,"Shivneri Colony, Amravati - MPCB",25-12-2025 08:00:00,20.9402359,77.7895248,CO,9,44,19
India,Maharashtra,Amravati,"Shivneri Colony, Amravati - MPCB",25-12-2025 08:00:00,20.9402359,77.7895248,OZONE,5,43,18
India,Maharashtra,Amravati,"Shri Shivaji Science College, Amravati - MPCB",25-12-2025 08:00:00,20.939198,77.765701,NO2,5,71,27
India,Maharashtra,Aurangabad,"MIDC Chilkalthana, Aurangabad - MPCB",25-12-2025 08:00:00,19.875620,75.387310,PM2.5,30,138,60
India,Maharashtra,Aurangabad,"MIDC Chilkalthana, Aurangabad - MPCB",25-12-2025 08:00:00,19.875620,75.387310,NH3,1,3,2
India,Maharashtra,Aurangabad,"More Chowk Waluj, Aurangabad - MPCB",25-12-2025 08:00:00,19.8389439,75.244448,NH3,10,11,11
India,Maharashtra,Aurangabad,"Rachnakar Colony, Aurangabad - MPCB",25-12-2025 08:00:00,19.863756,75.321188,CO,28,71,38
India,Maharashtra,Badlapur,"Katrap, Badlapur - MPCB",25-12-2025 08:00:00,19.16485,73.23409,OZONE,13,96,15
India,Madhya Pradesh,Indore,"Regional Park, Indore - IMC",25-12-2025 08:00:00,22.6780,75.8559,NH3,NA,NA,NA
India,Madhya Pradesh,Jabalpur,"Govindh Bhavan Colony, Jabalpur - JMC",25-12-2025 08:00:00,23.163174,79.973061,PM2.5,22,53,34
India,Madhya Pradesh,Jabalpur,"Govindh Bhavan Colony, Jabalpur - JMC",25-12-2025 08:00:00,23.163174,79.973061,NH3,1,1,1
India,Madhya Pradesh,Jabalpur,"Gupteshwar, Jabalpur - JMC",25-12-2025 08:00:00,23.142888,79.916147,OZONE,1,50,4
India,Maharashtra,Chandrapur,"MIDC Khutala, Chandrapur - MPCB",25-12-2025 08:00:00,19.9775302,79.2337086,NO2,NA,NA,NA
India,Maharashtra,Chandrapur,"MIDC Khutala, Chandrapur - MPCB",25-12-2025 08:00:00,19.9775302,79.2337086,CO,36,42,39
India,Maharashtra,Kalyan,"Khadakpada, Kalyan - MPCB",25-12-2025 08:00:00,19.25292,73.142019,PM10,37,161,95
India,Maharashtra,Kalyan,"Khadakpada, Kalyan - MPCB",25-12-2025 08:00:00,19.25292,73.142019,CO,78,105,93
India,Madhya Pradesh,Gwalior,"Maharaj Bada, Gwalior - MPPCB",25-12-2025 08:00:00,26.200388,78.147714,OZONE,12,56,14
India,Madhya Pradesh,Indore,"Chhoti Gwaltoli, Indore - MPPCB",25-12-2025 08:00:00,22.4310,75.5213,PM10,31,389,111
India,Maharashtra,Latur,"Sawe Wadi, Latur - MPCB",25-12-2025 08:00:00,18.39963,76.57452,NH3,5,21,10
India,Maharashtra,Latur,"Sawe Wadi, Latur - MPCB",25-12-2025 08:00:00,18.39963,76.57452,SO2,6,14,9
India,Maharashtra,Latur,"Sawe Wadi, Latur - MPCB",25-12-2025 08:00:00,18.39963,76.57452,CO,20,54,28
India,Maharashtra,Mahad,"Kamble Tarf Birwadi, Mahad - MPCB",25-12-2025 08:00:00,18.1023399,73.4783687,OZONE,NA,NA,NA
India,Maharashtra,Malegaon,"Mahesh Nagar, Malegaon - MPCB",25-12-2025 08:00:00,20.555712,74.529236,NO2,7,87,37
India,Maharashtra,Malegaon,"Mahesh Nagar, Malegaon - MPCB",25-12-2025 08:00:00,20.555712,74.529236,CO,18,101,42
India,Maharashtra,Malegaon,"Mahesh Nagar, Malegaon - MPCB",25-12-2025 08:00:00,20.555712,74.529236,OZONE,14,86,20
India,Maharashtra,Mira-Bhayandar,"Bhayandar West, Mira-Bhayandar - MPCB",25-12-2025 08:00:00,19.296481,72.840923,PM10,49,102,72
India,Maharashtra,Mira-Bhayandar,"Bhayandar West, Mira-Bhayandar - MPCB",25-12-2025 08:00:00,19.296481,72.840923,SO2,4,4,4
India,Maharashtra,Mumbai,"Bandra Kurla Complex, Mumbai - IITM",25-12-2025 08:00:00,19.053536,72.84643,PM2.5,61,188,101
India,Maharashtra,Mumbai,"Bandra Kurla Complex, Mumbai - IITM",25-12-2025 08:00:00,19.053536,72.84643,PM10,93,179,131
India,Maharashtra,Mumbai,"Bandra Kurla Complex, Mumbai - IITM",25-12-2025 08:00:00,19.053536,72.84643,NO2,5,20,13
India,Maharashtra,Mumbai,"Sion, Mumbai - MPCB",25-12-2025 08:00:00,19.047000,72.874600,CO,7,16,15
India,Maharashtra,Mumbai,"Vile Parle West, Mumbai - MPCB",25-12-2025 08:00:00,19.10861,72.83622,SO2,47,52,49
India,Maharashtra,Mumbai,"Vile Parle West, Mumbai - MPCB",25-12-2025 08:00:00,19.10861,72.83622,CO,34,48,42
India,Maharashtra,Nagpur,"Ambazari, Nagpur - MPCB",25-12-2025 08:00:00,21.121801,79.04952,NO2,5,81,31
India,Maharashtra,Nagpur,"Ambazari, Nagpur - MPCB",25-12-2025 08:00:00,21.121801,79.04952,NH3,1,3,2
India,Maharashtra,Nagpur,"Mahal, Nagpur - MPCB",25-12-2025 08:00:00,21.14472,79.107595,PM2.5,47,234,129
India,Maharashtra,Nagpur,"Mahal, Nagpur - MPCB",25-12-2025 08:00:00,21.14472,79.107595,SO2,2,103,42
India,Maharashtra,Nagpur,"Ram Nagar, Nagpur - MPCB",25-12-2025 08:00:00,21.143383,79.048912,PM10,55,154,98
India,Maharashtra,Nagpur,"Ram Nagar, Nagpur - MPCB",25-12-2025 08:00:00,21.143383,79.048912,NH3,5,12,8
India,Maharashtra,Nagpur,"Ram Nagar, Nagpur - MPCB",25-12-2025 08:00:00,21.143383,79.048912,SO2,34,85,45
India,Maharashtra,Nanded,"Sneh Nagar, Nanded - MPCB",25-12-2025 08:00:00,19.173852,77.296291,PM2.5,46,209,92
India,Maharashtra,Nanded,"Sneh Nagar, Nanded - MPCB",25-12-2025 08:00:00,19.173852,77.296291,SO2,2,5,4
India,Maharashtra,Nanded,"Sneh Nagar, Nanded - MPCB",25-12-2025 08:00:00,19.173852,77.296291,OZONE,9,64,20
India,Maharashtra,Nashik,"Gangapur Road, Nashik - MPCB",25-12-2025 08:00:00,20.0073285,73.7762427,NH3,3,3,3
India,Maharashtra,Mumbai,"Bandra Kurla Complex, Mumbai - IITM",25-12-2025 08:00:00,19.053536,72.84643,CO,12,70,35
India,Maharashtra,Mumbai,"Borivali East, Mumbai - IITM",25-12-2025 08:00:00,19.23241,72.86895,PM10,49,111,78
India,Maharashtra,Mumbai,"Borivali East, Mumbai - IITM",25-12-2025 08:00:00,19.23241,72.86895,CO,16,84,35
India,Maharashtra,Mumbai,"Borivali East, Mumbai - MPCB",25-12-2025 08:00:00,19.2243333,72.8658113,SO2,16,20,18
India,Maharashtra,Mumbai,"Byculla, Mumbai - BMC",25-12-2025 08:00:00,18.9767,72.8380,NH3,11,51,23
India,Maharashtra,Mumbai,"Byculla, Mumbai - BMC",25-12-2025 08:00:00,18.9767,72.8380,SO2,NA,NA,NA
India,Maharashtra,Kalyan,"Pimpleshwar Mandir, Kalyan - MPCB",25-12-2025 08:00:00,19.192056,72.9585188,PM10,171,171,171
India,Maharashtra,Kalyan,"Pimpleshwar Mandir, Kalyan - MPCB",25-12-2025 08:00:00,19.192056,72.9585188,OZONE,3,67,7
India,Maharashtra,Kolhapur,"Shivaji University, Kolhapur - MPCB",25-12-2025 08:00:00,16.6870449,74.2505872,PM2.5,49,191,104
India,Maharashtra,Kolhapur,"Shivaji University, Kolhapur - MPCB",25-12-2025 08:00:00,16.6870449,74.2505872,NO2,12,56,29
India,Maharashtra,Kolhapur,"Sinchan Bhavan, Kolhapur - MPCB",25-12-2025 08:00:00,16.7143745,74.2426398,PM10,62,131,90
India,Maharashtra,Mumbai,"Navy Nagar-Colaba, Mumbai - IITM",25-12-2025 08:00:00,18.897756,72.813320,CO,2,84,70
India,Maharashtra,Mumbai,"Shivaji Nagar, Mumbai - BMC",25-12-2025 08:00:00,19.060498,72.923356,SO2,1,20,10
India,Maharashtra,Mumbai,"Shivaji Nagar, Mumbai - BMC",25-12-2025 08:00:00,19.060498,72.923356,CO,8,102,37
India,Maharashtra,Mumbai,"Shivaji Nagar, Mumbai - BMC",25-12-2025 08:00:00,19.060498,72.923356,OZONE,1,47,2
India,Maharashtra,Mumbai,"Siddharth Nagar-Worli, Mumbai - IITM",25-12-2025 08:00:00,19.000083,72.813993,NH3,4,10,7
India,Maharashtra,Mumbai,"Kandivali West, Mumbai - BMC",25-12-2025 08:00:00,19.215859,72.831718,SO2,4,10,6
India,Maharashtra,Mumbai,"Kandivali West, Mumbai - BMC",25-12-2025 08:00:00,19.215859,72.831718,OZONE,2,116,4
India,Maharashtra,Mumbai,"Kherwadi_Bandra East, Mumbai - MPCB",25-12-2025 08:00:00,19.0632143,72.8456324,NH3,13,22,18
India,Maharashtra,Mumbai,"Kurla, Mumbai - MPCB",25-12-2025 08:00:00,19.0863,72.8888,PM10,70,135,107
India,Maharashtra,Mumbai,"Byculla, Mumbai - BMC",25-12-2025 08:00:00,18.9767,72.8380,CO,1,70,60
India,Maharashtra,Mumbai,"Byculla, Mumbai - BMC",25-12-2025 08:00:00,18.9767,72.8380,OZONE,NA,NA,NA
India,Maharashtra,Mumbai,"Ghatkopar, Mumbai - BMC",25-12-2025 08:00:00,19.083694,72.920967,PM10,40,111,79
India,Maharashtra,Mumbai,"Ghatkopar, Mumbai - BMC",25-12-2025 08:00:00,19.083694,72.920967,NH3,1,7,4
India,Maharashtra,Mumbai,"Malad West, Mumbai - IITM",25-12-2025 08:00:00,19.19709,72.82204,NH3,6,32,14
India,Maharashtra,Mumbai,"Mazgaon, Mumbai - IITM",25-12-2025 08:00:00,18.96702,72.84214,PM10,51,111,79
India,Maharashtra,Mumbai,"Mindspace-Malad West, Mumbai - MPCB",25-12-2025 08:00:00,19.1878657,72.8304069,PM10,40,140,77
India,Odisha,Barbil,"Forest Office, Barbil - OSPCB",25-12-2025 08:00:00,22.1166054,85.3945546,PM2.5,85,385,201
India,Odisha,Barbil,"Forest Office, Barbil - OSPCB",25-12-2025 08:00:00,22.1166054,85.3945546,PM10,87,386,146
India,Odisha,Barbil,"Forest Office, Barbil - OSPCB",25-12-2025 08:00:00,22.1166054,85.3945546,NH3,1,3,2
India,Odisha,Baripada,"Meher Colony, Baripada - OSPCB",25-12-2025 08:00:00,21.941841,86.728318,SO2,7,26,14
India,Odisha,Baripada,"Meher Colony, Baripada - OSPCB",25-12-2025 08:00:00,21.941841,86.728318,OZONE,2,84,15
India,Odisha,Bhubaneswar,"Lingraj Mandir, Bhubaneswar - OSPCB",25-12-2025 08:00:00,20.240790,85.836784,PM10,109,304,150
India,Odisha,Bhubaneswar,"Lingraj Mandir, Bhubaneswar - OSPCB",25-12-2025 08:00:00,20.240790,85.836784,OZONE,11,288,56
India,Odisha,Bhubaneswar,"Patia, Bhubaneswar - OSPCB",25-12-2025 08:00:00,20.34652,85.81630,PM10,122,298,161
India,Odisha,Bhubaneswar,"Patia, Bhubaneswar - OSPCB",25-12-2025 08:00:00,20.34652,85.81630,NO2,21,109,47
India,Odisha,Bhubaneswar,"Patia, Bhubaneswar - OSPCB",25-12-2025 08:00:00,20.34652,85.81630,NH3,7,12,8
India,Meghalaya,Shillong,"Lumpyngngad, Shillong - Meghalaya PCB",25-12-2025 08:00:00,25.5586,91.8985,NO2,NA,NA,NA
India,Meghalaya,Shillong,"Lumpyngngad, Shillong - Meghalaya PCB",25-12-2025 08:00:00,25.5586,91.8985,SO2,7,9,7
India,Mizoram,Aizawl,"Sikulpuikawn, Aizawl - Mizoram PCB",25-12-2025 08:00:00,23.7176342,92.7192841,SO2,13,14,13
India,Nagaland,Kohima,"PWD Junction, Kohima - NPCB",25-12-2025 08:00:00,25.6635413,94.0989878,PM2.5,11,94,32
India,Odisha,Angul,"Hakimapada, Angul - OSPCB",25-12-2025 08:00:00,20.832874,85.104082,SO2,8,55,25
India,Odisha,Angul,"Hakimapada, Angul - OSPCB",25-12-2025 08:00:00,20.832874,85.104082,CO,36,103,72
India,Odisha,Balasore,"Kalidaspur, Balasore - OSPCB",25-12-2025 08:00:00,21.51161,86.89088,NH3,1,4,3
India,Maharashtra,Pimpri-Chinchwad,"Thergaon, Pimpri Chinchwad - MPCB",25-12-2025 08:00:00,18.616318,73.765797,CO,24,114,72
India,Maharashtra,Pune,"Bhumkar Nagar, Pune - IITM",25-12-2025 08:00:00,18.605770,73.749976,OZONE,1,65,3
India,Maharashtra,Pune,"Dhankawadi, Pune - IITM",25-12-2025 08:00:00,18.459883,73.852193,PM10,59,210,117
India,Maharashtra,Pune,"Dhankawadi, Pune - IITM",25-12-2025 08:00:00,18.459883,73.852193,NO2,10,10,10
India,Maharashtra,Pune,"Hadapsar, Pune - IITM",25-12-2025 08:00:00,18.501793,73.927532,OZONE,1,97,2
India,Maharashtra,Pune,"Katraj Dairy, Pune - MPCB",25-12-2025 08:00:00,18.454450,73.854155,NO2,10,77,45
India,Maharashtra,Pune,"Mhada Colony, Pune - IITM",25-12-2025 08:00:00,18.573040,73.927715,PM2.5,69,328,212
India,Maharashtra,Navi Mumbai,"Mahape, Navi Mumbai - MPCB",25-12-2025 08:00:00,19.1135051,73.008978,SO2,22,23,23
India,Maharashtra,Navi Mumbai,"Sanpada, Navi Mumbai - MPCB",25-12-2025 08:00:00,19.0575752,73.0151367,NH3,4,40,17
India,Maharashtra,Navi Mumbai,"Sector-2E Kalamboli, Navi Mumbai - MPCB",25-12-2025 08:00:00,19.02579,73.10297,PM2.5,30,85,61
India,Maharashtra,Navi Mumbai,"Sector-2E Kalamboli, Navi Mumbai - MPCB",25-12-2025 08:00:00,19.02579,73.10297,PM10,25,140,91
India,Maharashtra,Navi Mumbai,"Sector-2E Kalamboli, Navi Mumbai - MPCB",25-12-2025 08:00:00,19.02579,73.10297,NH3,4,17,11
India,Maharashtra,Navi Mumbai,"Tondare-Taloja, Navi Mumbai - MPCB",25-12-2025 08:00:00,19.0630,73.1209,PM2.5,32,146,80
India,Maharashtra,Navi Mumbai,"Tondare-Taloja, Navi Mumbai - MPCB",25-12-2025 08:00:00,19.0630,73.1209,NH3,19,39,29
India,Maharashtra,Navi Mumbai,"Tondare-Taloja, Navi Mumbai - MPCB",25-12-2025 08:00:00,19.0630,73.1209,SO2,5,5,5
India,Maharashtra,Thane,"Upvan Fort, Thane - MPCB",25-12-2025 08:00:00,19.222279,72.957979,PM10,59,107,81
India,Maharashtra,Thane,"Upvan Fort, Thane - MPCB",25-12-2025 08:00:00,19.222279,72.957979,NH3,3,3,3
India,Maharashtra,Ulhasnagar,"Sidhi Vinayak Nagar, Ulhasnagar - MPCB",25-12-2025 08:00:00,19.235581,73.159121,NO2,15,32,23
India,Maharashtra,Ulhasnagar,"Sidhi Vinayak Nagar, Ulhasnagar - MPCB",25-12-2025 08:00:00,19.235581,73.159121,NH3,3,6,5
India,Maharashtra,Virar,"Bolinj, Virar - MPCB",25-12-2025 08:00:00,19.4458210,72.7988231,SO2,5,22,11
India,Meghalaya,Shillong,"JN Stadium, Shillong - Meghalaya PCB",25-12-2025 08:00:00,25.5803419,91.8942571,PM10,NA,NA,NA
India,Maharashtra,Pune,"Mhada Colony, Pune - IITM",25-12-2025 08:00:00,18.573040,73.927715,NO2,8,66,32
India,Maharashtra,Pune,"Panchawati_Pashan, Pune - IITM",25-12-2025 08:00:00,18.536457,73.805454,NO2,15,54,26
India,Maharashtra,Pune,"Savitribai Phule Pune University, Pune - MPCB",25-12-2025 08:00:00,18.547056,73.826908,SO2,1,6,3
India,Maharashtra,Pune,"Transport Nagar-Nigdi, Pune - IITM",25-12-2025 08:00:00,18.664282,73.763966,CO,2,113,104
India,Maharashtra,Nashik,"MIDC Ambad, Nashik - MPCB",25-12-2025 08:00:00,19.950220,73.731480,PM10,48,118,97
India,Maharashtra,Nashik,"MIDC Ambad, Nashik - MPCB",25-12-2025 08:00:00,19.950220,73.731480,NO2,15,90,42
India,Maharashtra,Nashik,"Pandav Nagari, Nashik - MPCB",25-12-2025 08:00:00,19.9591346,73.7788008,CO,14,47,26
India,Maharashtra,Navi Mumbai,"Kopripada-Vashi, Navi Mumbai - MPCB",25-12-2025 08:00:00,19.090337,73.014232,PM10,66,197,114
India,Maharashtra,Solapur,"Dnyaneshwar Nagar, Solapur - MPCB",25-12-2025 08:00:00,17.6336264,75.9132495,NO2,6,35,15
India,Maharashtra,Solapur,"Dnyaneshwar Nagar, Solapur - MPCB",25-12-2025 08:00:00,17.6336264,75.9132495,NH3,4,22,8
India,Maharashtra,Thane,"Kasarvadavali, Thane - MPCB",25-12-2025 08:00:00,19.26777,72.97182,PM10,58,142,113
India,Maharashtra,Thane,"Kasarvadavali, Thane - MPCB",25-12-2025 08:00:00,19.26777,72.97182,OZONE,1,69,6
India,Maharashtra,Pimpri-Chinchwad,"Savta Mali Nagar, Pimpri-Chinchwad - IITM",25-12-2025 08:00:00,18.614767,73.799516,OZONE,2,47,3
India,Maharashtra,Pimpri-Chinchwad,"Thergaon, Pimpri Chinchwad - MPCB",25-12-2025 08:00:00,18.616318,73.765797,PM10,69,165,118
India,Odisha,Rourkela,"Raghunathpali, Rourkela - OSPCB",25-12-2025 08:00:00,22.220833,84.809444,OZONE,3,19,4
India,Odisha,Rourkela,"Sector-2, Rourkela - OSPCB",25-12-2025 08:00:00,22.24500000,84.88111111,PM2.5,NA,NA,NA
India,Odisha,Rourkela,"Sector-2, Rourkela - OSPCB",25-12-2025 08:00:00,22.24500000,84.88111111,CO,NA,NA,NA
India,Odisha,Suakati,"OMC Colony, Suakati - OSPCB",25-12-2025 08:00:00,21.606865,85.510538,PM10,86,155,119
India,Odisha,Suakati,"OMC Colony, Suakati - OSPCB",25-12-2025 08:00:00,21.606865,85.510538,SO2,4,17,8
India,Odisha,Talcher,"Talcher Coalfields,Talcher - OSPCB",25-12-2025 08:00:00,20.9360711,85.1707021,SO2,44,113,74
India,Odisha,Tensa,"Barsua Iron Ore Mines, Tensa - OSPCB",25-12-2025 08:00:00,21.869985,85.167016,PM2.5,NA,NA,NA
India,Odisha,Tensa,"Barsua Iron Ore Mines, Tensa - OSPCB",25-12-2025 08:00:00,21.869985,85.167016,CO,48,78,51
India,Puducherry,Puducherry,"Jawahar Nagar, Puducherry - PPCC",25-12-2025 08:00:00,11.9309,79.8027,NO2,22,56,33
India,Rajasthan,Bundi,"New Colony, Bundi - RSPCB",25-12-2025 08:00:00,25.435774,75.644272,OZONE,21,108,46
India,Rajasthan,Chittorgarh,"Shastri Nagar, Chittorgarh - RSPCB",25-12-2025 08:00:00,24.892047,74.623527,PM2.5,97,331,240
India,Rajasthan,Chittorgarh,"Shastri Nagar, Chittorgarh - RSPCB",25-12-2025 08:00:00,24.892047,74.623527,PM10,108,411,165
India,Rajasthan,Chittorgarh,"Shastri Nagar, Chittorgarh - RSPCB",25-12-2025 08:00:00,24.892047,74.623527,CO,21,102,36
India,Rajasthan,Churu,"Subash Chowk, Churu - RSPCB",25-12-2025 08:00:00,28.296139,74.961696,NO2,10,78,40
India,Rajasthan,Dausa,"Khatikan Mohalla, Dausa - RSPCB",25-12-2025 08:00:00,26.895552,76.334753,PM2.5,23,207,67
India,Rajasthan,Dausa,"Khatikan Mohalla, Dausa - RSPCB",25-12-2025 08:00:00,26.895552,76.334753,SO2,1,12,6
India,Rajasthan,Dausa,"Khatikan Mohalla, Dausa - RSPCB",25-12-2025 08:00:00,26.895552,76.334753,CO,11,100,28
India,Rajasthan,Dholpur,"Raja Ganj, Dholpur - RSPCB",25-12-2025 08:00:00,26.699557,77.898881,PM10,46,201,93
India,Rajasthan,Dholpur,"Raja Ganj, Dholpur - RSPCB",25-12-2025 08:00:00,26.699557,77.898881,NH3,9,23,13
India,Punjab,Patiala,"Model Town, Patiala - PPCB",25-12-2025 08:00:00,30.349388,76.366642,PM2.5,NA,NA,NA
India,Punjab,Patiala,"Model Town, Patiala - PPCB",25-12-2025 08:00:00,30.349388,76.366642,PM10,NA,NA,NA
India,Punjab,Patiala,"Model Town, Patiala - PPCB",25-12-2025 08:00:00,30.349388,76.366642,NH3,NA,NA,NA
India,Punjab,Patiala,"Model Town, Patiala - PPCB",25-12-2025 08:00:00,30.349388,76.366642,SO2,NA,NA,NA
India,Punjab,Rupnagar,"Ratanpura, Rupnagar - Ambuja Cements",25-12-2025 08:00:00,31.0325454,76.5623046,SO2,10,18,13
India,Punjab,Rupnagar,"Ratanpura, Rupnagar - Ambuja Cements",25-12-2025 08:00:00,31.0325454,76.5623046,CO,55,72,66
India,Rajasthan,Ajmer,"Civil Lines,  Ajmer - RSPCB",25-12-2025 08:00:00,26.470859,74.646594,SO2,3,21,14
India,Rajasthan,Ajmer,"Civil Lines,  Ajmer - RSPCB",25-12-2025 08:00:00,26.470859,74.646594,OZONE,4,25,6
India,Rajasthan,Alwar,"Moti Doongri, Alwar - RSPCB",25-12-2025 08:00:00,27.554793,76.611536,NO2,8,24,18
India,Rajasthan,Banswara,"Rati Talai, Banswara - RSPCB",25-12-2025 08:00:00,23.555190,74.440010,PM2.5,32,133,63
India,Odisha,Keonjhar,"Jagamohanpur, Keonjhar - OSPCB",25-12-2025 08:00:00,21.643900,85.599355,PM2.5,66,151,95
India,Odisha,Keonjhar,"Jagamohanpur, Keonjhar - OSPCB",25-12-2025 08:00:00,21.643900,85.599355,NO2,25,78,48
India,Odisha,Keonjhar,"Jagamohanpur, Keonjhar - OSPCB",25-12-2025 08:00:00,21.643900,85.599355,NH3,7,31,17
India,Odisha,Keonjhar,"Jagamohanpur, Keonjhar - OSPCB",25-12-2025 08:00:00,21.643900,85.599355,SO2,1,62,12
India,Odisha,Keonjhar,"Jagamohanpur, Keonjhar - OSPCB",25-12-2025 08:00:00,21.643900,85.599355,CO,1,82,19
India,Odisha,Nayagarh,"Dabuna, Nayagarh - OSPCB",25-12-2025 08:00:00,21.847279,85.416905,PM2.5,53,95,71
India,Odisha,Nayagarh,"Dabuna, Nayagarh - OSPCB",25-12-2025 08:00:00,21.847279,85.416905,NO2,9,11,10
India,Odisha,Rourkela,"Fertilizer Township, Rourkela - OSPCB",25-12-2025 08:00:00,22.18972222,84.86277778,PM2.5,91,273,201
India,Odisha,Rourkela,"Fertilizer Township, Rourkela - OSPCB",25-12-2025 08:00:00,22.18972222,84.86277778,SO2,8,10,9
India,Odisha,Rourkela,"Raghunathpali, Rourkela - OSPCB",25-12-2025 08:00:00,22.220833,84.809444,NO2,1,20,10
India,Rajasthan,Bhiwadi,"RIICO Ind. Area III, Bhiwadi - RSPCB",25-12-2025 08:00:00,28.194909,76.862296,SO2,4,20,12
India,Rajasthan,Bhiwadi,"Vasundhara Nagar_UIT, Bhiwadi - RSPCB",25-12-2025 08:00:00,28.207266,76.829265,PM2.5,133,392,242
India,Rajasthan,Bhiwadi,"Vasundhara Nagar_UIT, Bhiwadi - RSPCB",25-12-2025 08:00:00,28.207266,76.829265,CO,29,107,66
India,Rajasthan,Bikaner,"MM Ground, Bikaner - RSPCB",25-12-2025 08:00:00,28.018792,73.292658,PM2.5,25,360,161
India,Rajasthan,Bikaner,"MM Ground, Bikaner - RSPCB",25-12-2025 08:00:00,28.018792,73.292658,NH3,6,13,10
India,Rajasthan,Bikaner,"MM Ground, Bikaner - RSPCB",25-12-2025 08:00:00,28.018792,73.292658,SO2,4,12,8
India,Rajasthan,Bundi,"New Colony, Bundi - RSPCB",25-12-2025 08:00:00,25.435774,75.644272,PM2.5,48,335,109
India,Rajasthan,Bundi,"New Colony, Bundi - RSPCB",25-12-2025 08:00:00,25.435774,75.644272,PM10,36,161,70
India,Odisha,Bileipada,"Tata Township, Bileipada - OSPCB",25-12-2025 08:00:00,22.06156703,85.47409613,CO,2,45,36
India,Odisha,Bileipada,"Tata Township, Bileipada - OSPCB",25-12-2025 08:00:00,22.06156703,85.47409613,OZONE,13,13,13
India,Odisha,Brajrajnagar,"GM Office, Brajrajnagar - OSPCB",25-12-2025 08:00:00,21.8004996,83.8396977,PM2.5,26,287,94
India,Odisha,Byasanagar,"Ferro Chrome Colony, Byasanagar - OSPCB",25-12-2025 08:00:00,20.94185,86.11510,PM10,120,177,144
India,Rajasthan,Banswara,"Rati Talai, Banswara - RSPCB",25-12-2025 08:00:00,23.555190,74.440010,SO2,1,12,4
India,Rajasthan,Baran,"Bamboliya, Baran - RSPCB",25-12-2025 08:00:00,25.106006,76.469948,PM2.5,13,97,45
India,Rajasthan,Barmer,"Railway Colony, Barmer - RSPCB",25-12-2025 08:00:00,25.747299,71.393989,NO2,11,77,25
India,Rajasthan,Bhilwara,"Pratap Nagar, Bhilwara - RSPCB",25-12-2025 08:00:00,25.339605,74.618883,NO2,15,92,46
India,Punjab,Jalandhar,"Civil Line, Jalandhar - PPCB",25-12-2025 08:00:00,31.321907,75.578914,PM2.5,49,210,112
India,Punjab,Jalandhar,"Civil Line, Jalandhar - PPCB",25-12-2025 08:00:00,31.321907,75.578914,OZONE,68,85,74
India,Punjab,Khanna,"Kalal Majra, Khanna - PPCB",25-12-2025 08:00:00,30.736056 ,76.209694,SO2,9,15,11
India,Punjab,Mandi Gobindgarh,"RIMT University, Mandi Gobindgarh - PPCB",25-12-2025 08:00:00,30.649961,76.331442,NO2,23,25,24
India,Punjab,Mandi Gobindgarh,"RIMT University, Mandi Gobindgarh - PPCB",25-12-2025 08:00:00,30.649961,76.331442,NH3,6,6,6
India,Rajasthan,Jaipur,"Police Commissionerate, Jaipur - RSPCB",25-12-2025 08:00:00,26.9164092,75.7994901,NH3,6,47,13
India,Rajasthan,Jaipur,"RIICO Sitapura, Jaipur - RSPCB",25-12-2025 08:00:00,26.786682,75.827928,PM2.5,42,300,114
India,Rajasthan,Jaipur,"Sector-2 Murlipura, Jaipur - RSPCB",25-12-2025 08:00:00,26.960669,75.771817,NO2,25,109,51
India,Rajasthan,Jaipur,"Sector-2 Murlipura, Jaipur - RSPCB",25-12-2025 08:00:00,26.960669,75.771817,OZONE,3,71,27
India,Rajasthan,Jaipur,"Shastri Nagar, Jaipur - RSPCB",25-12-2025 08:00:00,26.9502929,75.730943,PM2.5,46,212,98
India,Rajasthan,Rajsamand,"Dhoinda, Rajsamand - RSPCB",25-12-2025 08:00:00,25.036360,73.883502,NH3,7,20,12
India,Rajasthan,Sawai Madhopur,"Sahu Nagar, Sawai Madhopur - RSPCB",25-12-2025 08:00:00,26.031443,76.359327,SO2,2,11,4
India,Rajasthan,Sikar,"Radhakishan Pura, Sikar - RSPCB",25-12-2025 08:00:00,27.608912,75.153302,NO2,18,121,54
India,Rajasthan,Sikar,"Radhakishan Pura, Sikar - RSPCB",25-12-2025 08:00:00,27.608912,75.153302,SO2,1,6,3
India,Rajasthan,Sirohi,"Vedhaynath Colony, Sirohi - RSPCB",25-12-2025 08:00:00,24.885261,72.857549,OZONE,7,102,25
India,Rajasthan,Dungarpur,"Bhoiwada, Dungarpur - RSPCB",25-12-2025 08:00:00,23.837789,73.714926,PM2.5,45,243,122
India,Rajasthan,Hanumangarh,"Housing Board, Hanumangarh - RSPCB",25-12-2025 08:00:00,29.610750,74.283608,PM2.5,26,81,53
India,Rajasthan,Hanumangarh,"Housing Board, Hanumangarh - RSPCB",25-12-2025 08:00:00,29.610750,74.283608,CO,20,74,34
India,Rajasthan,Jaipur,"Adarsh Nagar, Jaipur - RSPCB",25-12-2025 08:00:00,26.902909,75.836858,NO2,23,86,54
India,Rajasthan,Jaipur,"Mansarovar Sector-12, Jaipur - RSPCB",25-12-2025 08:00:00,26.843698,75.766894,PM2.5,20,230,104
India,Rajasthan,Jodhpur,"Samrat Ashok Udhyan, Jodhpur - RSPCB",25-12-2025 08:00:00,26.253384,72.976571,PM10,40,219,100
India,Rajasthan,Karauli,"Satyawati Vihar, Karauli - RSPCB",25-12-2025 08:00:00,26.506177,77.025989,CO,4,85,29
India,Rajasthan,Kota,"Dhanmandi, Kota - RSPCB",25-12-2025 08:00:00,25.164090,75.858137,CO,24,100,60
India,Rajasthan,Kota,"Nayapura, Kota - RSPCB",25-12-2025 08:00:00,25.196024,75.855668,NO2,26,116,53
India,Rajasthan,Kota,"Nayapura, Kota - RSPCB",25-12-2025 08:00:00,25.196024,75.855668,SO2,3,7,5
India,Rajasthan,Sri Ganganagar,"Old City, Sri Ganganagar - RSPCB",25-12-2025 08:00:00,29.931624,73.864511,NH3,1,12,4
India,Rajasthan,Tonk,"Shastri Nagar, Tonk - RSPCB",25-12-2025 08:00:00,26.159933,75.780517,SO2,2,4,3
India,TamilNadu,Chennai,"Kodungaiyur, Chennai - TNPCB",25-12-2025 08:00:00,13.1278,80.2642,NO2,12,49,25
India,Rajasthan,Jalore,"Mudtra Sili, Jalore - RSPCB",25-12-2025 08:00:00,25.344694,72.626208,NO2,18,110,47
India,Rajasthan,Jhalawar,"Rajlaxmi Nagar, Jhalawar - RSPCB",25-12-2025 08:00:00,24.588397,76.172782,NH3,4,6,5
India,Rajasthan,Jhunjhunu,"Indra Nagar, Jhunjhunu - RSPCB",25-12-2025 08:00:00,28.108988,75.386577,PM10,76,258,137
India,Rajasthan,Nagaur,"Karni Colony, Nagaur - RSPCB",25-12-2025 08:00:00,27.213494,73.734444,PM2.5,8,406,107
India,Rajasthan,Nagaur,"Karni Colony, Nagaur - RSPCB",25-12-2025 08:00:00,27.213494,73.734444,NH3,5,14,8
India,Rajasthan,Nagaur,"Karni Colony, Nagaur - RSPCB",25-12-2025 08:00:00,27.213494,73.734444,OZONE,10,87,28
India,Rajasthan,Jodhpur,"Digari Kalan, Jodhpur - RSPCB",25-12-2025 08:00:00,26.295810,73.082283,PM2.5,NA,NA,NA
India,Rajasthan,Jodhpur,"Mandor, Jodhpur - RSPCB",25-12-2025 08:00:00,26.358805,73.047444,PM2.5,15,193,54
India,Rajasthan,Dholpur,"Raja Ganj, Dholpur - RSPCB",25-12-2025 08:00:00,26.699557,77.898881,CO,6,107,52
India,Uttar_Pradesh,Agra,"Shastripuram, Agra - UPPCB",25-12-2025 08:00:00,27.19862,77.92066,SO2,8,15,12
India,Uttar_Pradesh,Agra,"Shastripuram, Agra - UPPCB",25-12-2025 08:00:00,27.19862,77.92066,OZONE,6,8,7
India,Uttar_Pradesh,Baghpat,"Sardar Patel Inter College, Baghpat - UPPCB",25-12-2025 08:00:00,28.964949,77.278761,NO2,14,66,40
India,Uttar_Pradesh,Baghpat,"Sardar Patel Inter College, Baghpat - UPPCB",25-12-2025 08:00:00,28.964949,77.278761,CO,17,34,25
India,Uttar_Pradesh,Baghpat,"Sardar Patel Inter College, Baghpat - UPPCB",25-12-2025 08:00:00,28.964949,77.278761,OZONE,1,56,4
India,Uttar_Pradesh,Bareilly,"Civil Lines, Bareilly - UPPCB",25-12-2025 08:00:00,28.359581,79.414455,PM2.5,9,52,31
India,Uttar_Pradesh,Bareilly,"Civil Lines, Bareilly - UPPCB",25-12-2025 08:00:00,28.359581,79.414455,PM10,43,82,64
India,Uttar_Pradesh,Bareilly,"Civil Lines, Bareilly - UPPCB",25-12-2025 08:00:00,28.359581,79.414455,CO,59,94,77
India,Uttar_Pradesh,Bulandshahr,"Yamunapuram, Bulandshahr - UPPCB",25-12-2025 08:00:00,28.406963,77.849831,NO2,38,128,81
India,Uttar_Pradesh,Agra,"Manoharpur, Agra - UPPCB",25-12-2025 08:00:00,27.23711,78.01936,NO2,24,24,24
India,Uttar_Pradesh,Agra,"Rohta, Agra - UPPCB",25-12-2025 08:00:00,27.106972,78.000111,PM2.5,25,275,87
India,Uttar_Pradesh,Agra,"Rohta, Agra - UPPCB",25-12-2025 08:00:00,27.106972,78.000111,OZONE,13,15,15
India,Uttar_Pradesh,Agra,"Sanjay Palace, Agra - UPPCB",25-12-2025 08:00:00,27.19865833,78.00598056,PM10,36,365,114
India,Uttar_Pradesh,Agra,"Sanjay Palace, Agra - UPPCB",25-12-2025 08:00:00,27.19865833,78.00598056,OZONE,4,8,4
India,Uttar_Pradesh,Agra,"Sector-3B Avas Vikas Colony, Agra - UPPCB",25-12-2025 08:00:00,27.19412,77.96237,NH3,5,7,6
India,Uttar_Pradesh,Agra,"Shahjahan Garden, Agra - UPPCB",25-12-2025 08:00:00,27.169338,78.03582,CO,9,88,32
India,Telangana,Hyderabad,"Ramachandrapuram, Hyderabad - TSPCB",25-12-2025 08:00:00,17.528544,78.286195,OZONE,19,33,19
India,Telangana,Hyderabad,"Sanathnagar, Hyderabad - TSPCB",25-12-2025 08:00:00,17.4559458,78.4332152,SO2,11,18,13
India,Telangana,Hyderabad,"Somajiguda, Hyderabad - TSPCB",25-12-2025 08:00:00,17.417094,78.457437,PM2.5,59,74,67
India,Telangana,Hyderabad,"Somajiguda, Hyderabad - TSPCB",25-12-2025 08:00:00,17.417094,78.457437,OZONE,26,36,28
India,Telangana,Hyderabad,"Zoo Park, Hyderabad - TSPCB",25-12-2025 08:00:00,17.349694,78.451437,NO2,10,35,22
India,Telangana,Hyderabad,"Zoo Park, Hyderabad - TSPCB",25-12-2025 08:00:00,17.349694,78.451437,SO2,4,35,15
India,Telangana,Hyderabad,"Zoo Park, Hyderabad - TSPCB",25-12-2025 08:00:00,17.349694,78.451437,OZONE,20,24,23
India,Telangana,Hyderabad,"Kompally Municipal Office, Hyderabad - TSPCB",25-12-2025 08:00:00,17.544899,78.486949,PM2.5,28,59,48
India,Telangana,Hyderabad,"Kompally Municipal Office, Hyderabad - TSPCB",25-12-2025 08:00:00,17.544899,78.486949,SO2,10,17,13
India,Telangana,Hyderabad,"Nacharam_TSIIC IALA, Hyderabad - TSPCB",25-12-2025 08:00:00,17.429398,78.569354,SO2,10,16,12
India,Telangana,Hyderabad,"New Malakpet, Hyderabad - TSPCB",25-12-2025 08:00:00,17.37206,78.50864,SO2,13,22,16
India,Telangana,Hyderabad,"Ramachandrapuram, Hyderabad - TSPCB",25-12-2025 08:00:00,17.528544,78.286195,PM10,60,78,66
India,Telangana,Hyderabad,"Ramachandrapuram, Hyderabad - TSPCB",25-12-2025 08:00:00,17.528544,78.286195,NO2,13,16,13
India,Telangana,Hyderabad,"ECIL Kapra, Hyderabad - TSPCB",25-12-2025 08:00:00,17.470431,78.566959,CO,22,40,36
India,Telangana,Hyderabad,"ICRISAT Patancheru, Hyderabad - TSPCB",25-12-2025 08:00:00,17.518400,78.278777,PM10,67,154,108
India,Telangana,Hyderabad,"IDA Pashamylaram, Hyderabad - TSPCB",25-12-2025 08:00:00,17.5316895,78.218939,PM10,62,158,108
India,Telangana,Hyderabad,"IITH Kandi, Hyderabad - TSPCB",25-12-2025 08:00:00,17.585705,78.126199,NO2,9,14,12
India,Telangana,Hyderabad,"Kokapet, Hyderabad - TSPCB",25-12-2025 08:00:00,17.393559,78.339194,PM2.5,56,74,61
India,TamilNadu,Chennai,"Manali Village, Chennai - TNPCB",25-12-2025 08:00:00,13.1662,80.2584,PM2.5,85,261,154
India,TamilNadu,Chennai,"Manali Village, Chennai - TNPCB",25-12-2025 08:00:00,13.1662,80.2584,OZONE,15,31,26
India,TamilNadu,Chennai,"Royapuram, Chennai - TNPCB",25-12-2025 08:00:00,13.1036,80.2909,PM2.5,25,157,78
India,TamilNadu,Chennai,"Royapuram, Chennai - TNPCB",25-12-2025 08:00:00,13.1036,80.2909,OZONE,16,19,17
India,TamilNadu,Coimbatore,"SIDCO Kurichi, Coimbatore - TNPCB",25-12-2025 08:00:00,10.942451,76.978996,SO2,20,21,21
India,TamilNadu,Coimbatore,"SIDCO Kurichi, Coimbatore - TNPCB",25-12-2025 08:00:00,10.942451,76.978996,OZONE,1,78,1
India,TamilNadu,Karur,"Kamadenu Nagar, Karur - TNPCB",25-12-2025 08:00:00,10.967820,78.080882,SO2,13,15,15
India,TamilNadu,Perundurai,"SIPCOT Industrial Park, Perundurai - TNPCB",25-12-2025 08:00:00,11.258242,77.552761,NO2,13,16,14
India,TamilNadu,Perundurai,"SIPCOT Industrial Park, Perundurai - TNPCB",25-12-2025 08:00:00,11.258242,77.552761,SO2,10,13,13
India,Uttar_Pradesh,Firozabad,"Nagla Bhau, Firozabad - UPPCB",25-12-2025 08:00:00,27.168897,78.376960,SO2,3,47,30
India,Uttar_Pradesh,Firozabad,"Nagla Bhau, Firozabad - UPPCB",25-12-2025 08:00:00,27.168897,78.376960,CO,2,42,29
India,Uttar_Pradesh,Ghaziabad,"Sanjay Nagar, Ghaziabad - UPPCB",25-12-2025 08:00:00,28.685382,77.453839,NH3,8,14,12
India,Uttar_Pradesh,Ghaziabad,"Vasundhara, Ghaziabad - UPPCB",25-12-2025 08:00:00,28.6603346,77.3572563,PM10,118,407,212
India,Uttar_Pradesh,Ghaziabad,"Vasundhara, Ghaziabad - UPPCB",25-12-2025 08:00:00,28.6603346,77.3572563,OZONE,8,77,9
India,Uttar_Pradesh,Gorakhpur,"Madan Mohan Malaviya University of Technology, Gorakhpur - UPPCB",25-12-2025 08:00:00,26.730136,83.433859,PM2.5,45,141,61
India,Uttar_Pradesh,Gorakhpur,"Madan Mohan Malaviya University of Technology, Gorakhpur - UPPCB",25-12-2025 08:00:00,26.730136,83.433859,NO2,11,12,11
India,Uttar_Pradesh,Greater Noida,"Knowledge Park - III, Greater Noida - UPPCB",25-12-2025 08:00:00,28.47272,77.482000,PM2.5,34,322,190
India,Uttar_Pradesh,Greater Noida,"Knowledge Park - III, Greater Noida - UPPCB",25-12-2025 08:00:00,28.47272,77.482000,PM10,92,342,174
India,Uttar_Pradesh,Greater Noida,"Knowledge Park - III, Greater Noida - UPPCB",25-12-2025 08:00:00,28.47272,77.482000,CO,4,118,57
India,Uttar_Pradesh,Lucknow,"Gomti Nagar, Lucknow - UPPCB",25-12-2025 08:00:00,26.868120,81.005119,OZONE,21,32,23
India,Uttar_Pradesh,Lucknow,"Kendriya Vidyalaya, Lucknow - CPCB",25-12-2025 08:00:00,26.906111,80.948222,PM10,11,325,195
India,Uttar_Pradesh,Lucknow,"Kendriya Vidyalaya, Lucknow - CPCB",25-12-2025 08:00:00,26.906111,80.948222,NO2,25,33,28
India,Uttar_Pradesh,Lucknow,"Kendriya Vidyalaya, Lucknow - CPCB",25-12-2025 08:00:00,26.906111,80.948222,CO,22,111,72
India,Uttar_Pradesh,Lucknow,"Kukrail Picnic Spot-1, Lucknow - UPPCB",25-12-2025 08:00:00,26.90723,80.98579,CO,8,18,16
India,Uttar_Pradesh,Lucknow,"Lalbagh, Lucknow - CPCB",25-12-2025 08:00:00,26.8458805,80.9365541,NO2,34,41,38
India,Uttar_Pradesh,Lucknow,"Lalbagh, Lucknow - CPCB",25-12-2025 08:00:00,26.8458805,80.9365541,CO,25,114,60
India,Uttar_Pradesh,Lucknow,"Talkatora District Industries Center, Lucknow - CPCB",25-12-2025 08:00:00,26.83399722,80.8917361,SO2,3,21,10
India,Uttar_Pradesh,Varanasi,"Ardhali Bazar, Varanasi - UPPCB",25-12-2025 08:00:00,25.3505986,82.9083074,NO2,89,101,93
India,Uttar_Pradesh,Varanasi,"Bhelupur, Varanasi - UPPCB",25-12-2025 08:00:00,25.301778,82.996789,PM2.5,40,139,89
India,Uttar_Pradesh,Varanasi,"Bhelupur, Varanasi - UPPCB",25-12-2025 08:00:00,25.301778,82.996789,NO2,8,8,8
India,Uttar_Pradesh,Varanasi,"Bhelupur, Varanasi - UPPCB",25-12-2025 08:00:00,25.301778,82.996789,CO,22,42,31
India,Uttar_Pradesh,Varanasi,"Bhelupur, Varanasi - UPPCB",25-12-2025 08:00:00,25.301778,82.996789,OZONE,1,1,1
India,Uttar_Pradesh,Varanasi,"Maldahiya, Varanasi - UPPCB",25-12-2025 08:00:00,25.32393,82.99687,OZONE,2,3,2
India,Uttar_Pradesh,Vrindavan,"Omex Eternity, Vrindavan - UPPCB",25-12-2025 08:00:00,27.5714090,77.6557570,PM2.5,10,57,33
India,Uttar_Pradesh,Greater Noida,"Knowledge Park - V, Greater Noida - UPPCB",25-12-2025 08:00:00,28.557054,77.453663,CO,2,122,34
India,Uttar_Pradesh,Greater Noida,"Knowledge Park - V, Greater Noida - UPPCB",25-12-2025 08:00:00,28.557054,77.453663,OZONE,5,105,6
India,Uttar_Pradesh,Hapur,"Anand Vihar, Hapur - UPPCB",25-12-2025 08:00:00,28.725645,77.749675,NO2,4,82,34
India,Uttar_Pradesh,Hapur,"Anand Vihar, Hapur - UPPCB",25-12-2025 08:00:00,28.725645,77.749675,NH3,1,8,5
India,Uttar_Pradesh,Hapur,"Anand Vihar, Hapur - UPPCB",25-12-2025 08:00:00,28.725645,77.749675,SO2,16,42,28
India,Uttar_Pradesh,Kanpur,"FTI Kidwai Nagar, Kanpur - UPPCB",25-12-2025 08:00:00,26.428282,80.327067,CO,40,57,47
India,Uttar_Pradesh,Muzaffarnagar,"New Mandi, Muzaffarnagar - UPPCB",25-12-2025 08:00:00,29.4723508,77.7194031,PM2.5,65,348,240
India,Uttar_Pradesh,Muzaffarnagar,"New Mandi, Muzaffarnagar - UPPCB",25-12-2025 08:00:00,29.4723508,77.7194031,CO,8,100,61
India,Uttar_Pradesh,Muzaffarnagar,"New Mandi, Muzaffarnagar - UPPCB",25-12-2025 08:00:00,29.4723508,77.7194031,OZONE,1,89,5
India,Uttar_Pradesh,Noida,"Sector - 125, Noida - UPPCB",25-12-2025 08:00:00,28.5447608,77.3231257,PM10,51,500,160
India,Uttar_Pradesh,Noida,"Sector-1, Noida - UPPCB",25-12-2025 08:00:00,28.5898,77.3101,NH3,10,22,16
India,Uttar_Pradesh,Noida,"Sector-1, Noida - UPPCB",25-12-2025 08:00:00,28.5898,77.3101,SO2,9,16,12
India,Uttar_Pradesh,Meerut,"Jai Bhim Nagar, Meerut - UPPCB",25-12-2025 08:00:00,28.9535882,77.7622941,NO2,18,140,57
India,Uttar_Pradesh,Meerut,"Pallavpuram Phase 2, Meerut - UPPCB",25-12-2025 08:00:00,29.063510,77.709723,PM10,NA,NA,NA
India,Uttar_Pradesh,Meerut,"Pallavpuram Phase 2, Meerut - UPPCB",25-12-2025 08:00:00,29.063510,77.709723,NH3,NA,NA,NA
India,Uttar_Pradesh,Moradabad,"Buddhi Vihar, Moradabad - UPPCB",25-12-2025 08:00:00,28.83526,78.74460,NO2,29,29,29
India,Uttar_Pradesh,Moradabad,"Eco Herbal Park, Moradabad - UPPCB",25-12-2025 08:00:00,28.840739,78.697531,PM10,74,160,119
India,Uttar_Pradesh,Kanpur,"NSI Kalyanpur, Kanpur - UPPCB",25-12-2025 08:00:00,26.509954,80.249612,NO2,22,23,22
India,Uttar_Pradesh,Kanpur,"NSI Kalyanpur, Kanpur - UPPCB",25-12-2025 08:00:00,26.509954,80.249612,CO,50,110,86
India,Uttar_Pradesh,Khurja,"Kalindi Kunj, Khurja - UPPCB",25-12-2025 08:00:00,28.2348927,77.8683002,OZONE,4,17,14
India,Uttar_Pradesh,Lucknow,"B R Ambedkar University, Lucknow - UPPCB",25-12-2025 08:00:00,26.766433,80.927299,PM2.5,40,182,86
India,Uttar_Pradesh,Noida,"Sector-1, Noida - UPPCB",25-12-2025 08:00:00,28.5898,77.3101,OZONE,2,89,2
India,Uttar_Pradesh,Prayagraj,"Jhunsi, Prayagraj - UPPCB",25-12-2025 08:00:00,25.425602,81.917152,OZONE,17,21,17
India,Uttar_Pradesh,Prayagraj,"Motilal Nehru NIT, Prayagraj - UPPCB",25-12-2025 08:00:00,25.494,81.863,SO2,NA,NA,NA
India,Uttar_Pradesh,Prayagraj,"Motilal Nehru NIT, Prayagraj - UPPCB",25-12-2025 08:00:00,25.494,81.863,CO,NA,NA,NA
India,Uttar_Pradesh,Moradabad,"Eco Herbal Park, Moradabad - UPPCB",25-12-2025 08:00:00,28.840739,78.697531,CO,3,103,17
India,Uttar_Pradesh,Moradabad,"Eco Herbal Park, Moradabad - UPPCB",25-12-2025 08:00:00,28.840739,78.697531,OZONE,3,47,10
India,Uttar_Pradesh,Vrindavan,"Omex Eternity, Vrindavan - UPPCB",25-12-2025 08:00:00,27.5714090,77.6557570,NH3,1,2,1
India,Uttarakhand,Dehradun,"Doon University, Dehradun - UKPCB",25-12-2025 08:00:00,30.269444,78.044167,PM2.5,64,325,189
India,Uttarakhand,Kashipur,"Govt. Girls Inter College, Kashipur - UKPCB",25-12-2025 08:00:00,29.2124114,78.9611753,CO,42,52,48
India,West_Bengal,Asansol,"Asansol Court Area, Asansol - WBPCB",25-12-2025 08:00:00,23.685297,86.945968,SO2,12,101,23
India,West_Bengal,Asansol,"Evelyn Lodge, Asansol - WBPCB",25-12-2025 08:00:00,23.6979360,86.9443950,NH3,5,6,5
India,West_Bengal,Asansol,"Mahabir Colliery, Asansol - WBPCB",25-12-2025 08:00:00,23.6181830,87.1057180,SO2,8,10,9
India,West_Bengal,Asansol,"Mahabir Colliery, Asansol - WBPCB",25-12-2025 08:00:00,23.6181830,87.1057180,CO,27,111,62
India,West_Bengal,Barrackpore,"SVSPA Campus, Barrackpore - WBPCB",25-12-2025 08:00:00,22.7605581,88.3617589,SO2,10,14,11
India,West_Bengal,Barrackpore,"SVSPA Campus, Barrackpore - WBPCB",25-12-2025 08:00:00,22.7605581,88.3617589,OZONE,NA,NA,NA
India,West_Bengal,Durgapur,"Mahishkapur Road_B-Zone, Durgapur - WBPCB",25-12-2025 08:00:00,23.567923,87.306843,PM2.5,80,275,156
India,West_Bengal,Durgapur,"PCBL Residential Complex, Durgapur - WBPCB",25-12-2025 08:00:00,23.5087640,87.3544400,NO2,19,64,35
India,West_Bengal,Durgapur,"PCBL Residential Complex, Durgapur - WBPCB",25-12-2025 08:00:00,23.5087640,87.3544400,NH3,11,15,14
India,West_Bengal,Durgapur,"Womens College_City Center, Durgapur - WBPCB (Formerly known as Sidhu Kanhu Indoor Stadium)",25-12-2025 08:00:00,23.549395,87.300496,PM10,114,247,158
India,West_Bengal,Durgapur,"Womens College_City Center, Durgapur - WBPCB (Formerly known as Sidhu Kanhu Indoor Stadium)",25-12-2025 08:00:00,23.549395,87.300496,NO2,23,49,31
India,West_Bengal,Durgapur,"Womens College_City Center, Durgapur - WBPCB (Formerly known as Sidhu Kanhu Indoor Stadium)",25-12-2025 08:00:00,23.549395,87.300496,OZONE,2,61,3
India,West_Bengal,Haldia,"Priyambada Housing Estate, Haldia - WBPCB",25-12-2025 08:00:00,22.06047,88.109737,NH3,3,4,4
India,West_Bengal,Haldia,"Priyambada Housing Estate, Haldia - WBPCB",25-12-2025 08:00:00,22.06047,88.109737,OZONE,15,22,16
India,West_Bengal,Howrah,"Belur Math, Howrah - WBPCB",25-12-2025 08:00:00,22.629801,88.352017,SO2,9,21,15
India,West_Bengal,Howrah,"Belur Math, Howrah - WBPCB",25-12-2025 08:00:00,22.629801,88.352017,CO,32,85,44
India,West_Bengal,Howrah,"Botanical Garden, Howrah - WBPCB",25-12-2025 08:00:00,22.554954,88.292568,PM2.5,81,242,170
India,West_Bengal,Howrah,"Dasnagar, Howrah - WBPCB",25-12-2025 08:00:00,22.6025571,88.3105664,SO2,6,44,16
India,West_Bengal,Howrah,"Ghusuri, Howrah - WBPCB",25-12-2025 08:00:00,22.611968,88.347422,NO2,51,53,52
India,West_Bengal,Howrah,"Ghusuri, Howrah - WBPCB",25-12-2025 08:00:00,22.611968,88.347422,SO2,10,15,12
India,West_Bengal,Howrah,"Ghusuri, Howrah - WBPCB",25-12-2025 08:00:00,22.611968,88.347422,CO,46,107,69
India,West_Bengal,Howrah,"Padmapukur, Howrah - WBPCB",25-12-2025 08:00:00,22.5687319,88.2797276,PM2.5,214,323,280
India,West_Bengal,Howrah,"Padmapukur, Howrah - WBPCB",25-12-2025 08:00:00,22.5687319,88.2797276,PM10,198,383,295
India,West_Bengal,Kolkata,"Ballygunge, Kolkata - WBPCB",25-12-2025 08:00:00,22.5367507,88.3638022,NH3,8,10,9
India,West_Bengal,Kolkata,"Ballygunge, Kolkata - WBPCB",25-12-2025 08:00:00,22.5367507,88.3638022,CO,24,102,42
India,West_Bengal,Kolkata,"Ballygunge, Kolkata - WBPCB",25-12-2025 08:00:00,22.5367507,88.3638022,OZONE,5,28,8
India,West_Bengal,Kolkata,"Fort William, Kolkata - WBPCB",25-12-2025 08:00:00,22.556640,88.342674,NO2,16,19,17
India,West_Bengal,Kolkata,"Jadavpur, Kolkata - WBPCB",25-12-2025 08:00:00,22.49929,88.36917,NO2,21,122,53
India,West_Bengal,Kolkata,"Rabindra Bharati University, Kolkata - WBPCB",25-12-2025 08:00:00,22.627847,88.380669,NH3,12,13,12
India,West_Bengal,Kolkata,"Rabindra Sarobar, Kolkata - WBPCB",25-12-2025 08:00:00,22.51106,88.35142,NO2,41,168,82
India,West_Bengal,Siliguri,"Ward-32 Bapupara, Siliguri - WBPCB",25-12-2025 08:00:00,26.6879226,88.4152495,NO2,10,17,14
India,West_Bengal,Siliguri,"Ward-32 Bapupara, Siliguri - WBPCB",25-12-2025 08:00:00,26.6879226,88.4152495,NH3,11,11,11
India,West_Bengal,Siliguri,"Ward-32 Bapupara, Siliguri - WBPCB",25-12-2025 08:00:00,26.6879226,88.4152495,OZONE,51,92,61
India,Bihar,Motihari,"Gandak Colony, Motihari - BSPCB",25-12-2025 08:00:00,26.63086,84.90051,NH3,3,3,3
India,Bihar,Motihari,"Gandak Colony, Motihari - BSPCB",25-12-2025 08:00:00,26.63086,84.90051,OZONE,3,6,3
India,Bihar,Munger,"Town Hall, Munger - BSPCB",25-12-2025 08:00:00,25.376776,86.471523,PM2.5,75,243,163
India,Bihar,Munger,"Town Hall, Munger - BSPCB",25-12-2025 08:00:00,25.376776,86.471523,PM10,60,124,100
India,Bihar,Munger,"Town Hall, Munger - BSPCB",25-12-2025 08:00:00,25.376776,86.471523,SO2,32,62,42
India,Bihar,Munger,"Town Hall, Munger - BSPCB",25-12-2025 08:00:00,25.376776,86.471523,OZONE,11,25,13
India,Bihar,Muzaffarpur,"Buddha Colony, Muzaffarpur - BSPCB",25-12-2025 08:00:00,26.11442,85.39813,PM10,79,155,118
India,Bihar,Muzaffarpur,"Buddha Colony, Muzaffarpur - BSPCB",25-12-2025 08:00:00,26.11442,85.39813,NO2,17,43,27
India,Bihar,Muzaffarpur,"MIT-Daudpur Kothi, Muzaffarpur - BSPCB",25-12-2025 08:00:00,26.1403345,85.3650192,PM10,62,82,74
India,Bihar,Muzaffarpur,"MIT-Daudpur Kothi, Muzaffarpur - BSPCB",25-12-2025 08:00:00,26.1403345,85.3650192,SO2,NA,NA,NA
India,Bihar,Araria,"Kharahiya Basti, Araria - BSPCB",25-12-2025 08:00:00,26.146529,87.454184,NH3,4,5,4
India,Bihar,Arrah,"New DM Office, Arrah - BSPCB",25-12-2025 08:00:00,25.5626095,84.663264,NO2,4,9,7
India,Bihar,Arrah,"New DM Office, Arrah - BSPCB",25-12-2025 08:00:00,25.5626095,84.663264,SO2,9,10,10
India,Bihar,Aurangabad,"Gurdeo Nagar, Aurangabad - BSPCB",25-12-2025 08:00:00,24.75746,84.366208,NH3,1,2,2
India,Bihar,Begusarai,"Lohiyanagar, Begusarai - BSPCB",25-12-2025 08:00:00,25.42742023,86.13886079,PM2.5,97,220,152
India,Bihar,Begusarai,"Lohiyanagar, Begusarai - BSPCB",25-12-2025 08:00:00,25.42742023,86.13886079,CO,31,70,54
India,Bihar,Begusarai,"Lohiyanagar, Begusarai - BSPCB",25-12-2025 08:00:00,25.42742023,86.13886079,OZONE,9,15,11
India,Arunachal_Pradesh,Naharlagun,"Naharlagun, Naharlagun - APSPCB",25-12-2025 08:00:00,27.103358,93.679645,NO2,6,7,7
India,Arunachal_Pradesh,Naharlagun,"Naharlagun, Naharlagun - APSPCB",25-12-2025 08:00:00,27.103358,93.679645,CO,10,50,20
India,Assam,Byrnihat,"Central Academy for SFS, Byrnihat - PCBA",25-12-2025 08:00:00,26.071318,91.87488,NO2,6,9,7
India,Assam,Byrnihat,"Central Academy for SFS, Byrnihat - PCBA",25-12-2025 08:00:00,26.071318,91.87488,OZONE,14,28,16
India,Assam,Guwahati,"LGBI Airport, Guwahati - PCBA",25-12-2025 08:00:00,26.10887,91.589544,NO2,14,151,20
India,Assam,Guwahati,"Railway Colony, Guwahati - PCBA",25-12-2025 08:00:00,26.181742,91.78063,NO2,3,4,3
India,Bihar,Bettiah,"Kamalnath Nagar, Bettiah - BSPCB",25-12-2025 08:00:00,26.80365,84.51954,CO,70,105,82
India,Bihar,Bhagalpur,"DM Office_Kachari Chowk, Bhagalpur - BSPCB",25-12-2025 08:00:00,25.251013,86.989001,PM2.5,83,160,110
India,Bihar,Bhagalpur,"DM Office_Kachari Chowk, Bhagalpur - BSPCB",25-12-2025 08:00:00,25.251013,86.989001,PM10,67,138,117
India,Bihar,Bihar Sharif,"D M Colony, Bihar Sharif - BSPCB",25-12-2025 08:00:00,25.204762,85.514960,PM2.5,97,379,217
India,Bihar,Buxar,"Charitra Van, Buxar - BSPCB",25-12-2025 08:00:00,25.567520,83.966379,NO2,8,10,9
India,Bihar,Chhapra,"Darshan Nagar, Chhapra - BSPCB",25-12-2025 08:00:00,25.7808257,84.7446768,NO2,1,2,1
India,Bihar,Gaya,"Collectorate, Gaya - BSPCB",25-12-2025 08:00:00,24.7955,84.9994,SO2,4,24,12
India,Bihar,Gaya,"Kareemganj, Gaya - BSPCB",25-12-2025 08:00:00,24.792403,84.992416,PM2.5,65,243,119
India,Bihar,Gaya,"Kareemganj, Gaya - BSPCB",25-12-2025 08:00:00,24.792403,84.992416,NO2,2,8,5
India,Bihar,Gaya,"Kareemganj, Gaya - BSPCB",25-12-2025 08:00:00,24.792403,84.992416,OZONE,1,10,4
India,Bihar,Gaya,"SFTI Kusdihra, Gaya - BSPCB",25-12-2025 08:00:00,24.762518,84.982348,NH3,NA,NA,NA
India,Bihar,Hajipur,"Industrial Area, Hajipur - BSPCB",25-12-2025 08:00:00,25.697189,85.245900,PM2.5,167,329,259
India,Bihar,Kishanganj,"SDM Office_Khagra, Kishanganj - BSPCB",25-12-2025 08:00:00,26.0881305,87.93840336,NO2,8,10,9
India,Bihar,Kishanganj,"SDM Office_Khagra, Kishanganj - BSPCB",25-12-2025 08:00:00,26.0881305,87.93840336,CO,15,18,16
India,Bihar,Kishanganj,"SDM Office_Khagra, Kishanganj - BSPCB",25-12-2025 08:00:00,26.0881305,87.93840336,OZONE,16,17,17
India,Bihar,Manguraha,"Forest Rest House, Manguraha - BSPCB",25-12-2025 08:00:00,27.308328,84.531742,SO2,14,17,17
India,Andhra_Pradesh,Kadapa,"Yerramukkapalli, Kadapa - APPCB",25-12-2025 08:00:00,14.465052,78.824187,PM2.5,40,224,118
India,Andhra_Pradesh,Rajamahendravaram,"Anand Kala Kshetram, Rajamahendravaram - APPCB",25-12-2025 08:00:00,16.9872867,81.7363176,PM2.5,164,315,248
India,Andhra_Pradesh,Tirupati,"Vaikuntapuram, Tirupati - APPCB",25-12-2025 08:00:00,13.615387,79.409230,PM2.5,16,171,79
India,Andhra_Pradesh,Vijayawada,"HB Colony, Vijayawada - APPCB",25-12-2025 08:00:00,16.536107,80.594233,SO2,11,19,13
India,Andhra_Pradesh,Vijayawada,"Rajiv Nagar, Vijayawada - APPCB",25-12-2025 08:00:00,16.554731,80.649110,NH3,4,4,2
India,Andhra_Pradesh,Visakhapatnam,"GVM Corporation, Visakhapatnam - APPCB",25-12-2025 08:00:00,17.72,83.3,PM10,155,415,209
India,Andaman and Nicobar,Sri Vijaya Puram,"Police Line, Sri Vijaya Puram - ANPCC",25-12-2025 08:00:00,11.654054,92.734055,NH3,6,10,7
India,Andaman and Nicobar,Sri Vijaya Puram,"Police Line, Sri Vijaya Puram - ANPCC",25-12-2025 08:00:00,11.654054,92.734055,OZONE,11,14,12
India,Andhra_Pradesh,Anantapur,"Gulzarpet, Anantapur - APPCB",25-12-2025 08:00:00,14.675886,77.593027,NH3,5,7,5
India,Assam,Nagaon,"Christianpatty, Nagaon - PCBA",25-12-2025 08:00:00,26.349082,92.68449,NH3,4,4,4
India,Assam,Nagaon,"Christianpatty, Nagaon - PCBA",25-12-2025 08:00:00,26.349082,92.68449,CO,22,25,24
India,Assam,Sivasagar,"Girls College, Sivasagar - PCBA",25-12-2025 08:00:00,26.987634,94.636574,PM10,51,87,68
India,Assam,Sivasagar,"Girls College, Sivasagar - PCBA",25-12-2025 08:00:00,26.987634,94.636574,CO,26,84,57
India,Bihar,Muzaffarpur,"Muzaffarpur Collectorate, Muzaffarpur - BSPCB",25-12-2025 08:00:00,26.1209,85.3647,OZONE,7,27,7
India,Bihar,Patna,"DRM Office Danapur, Patna - BSPCB",25-12-2025 08:00:00,25.586562,85.043586,NO2,29,105,52
India,Bihar,Patna,"Govt. High School Shikarpur, Patna - BSPCB",25-12-2025 08:00:00,25.592539,85.227158,PM10,61,311,104
India,Bihar,Patna,"IGSC Planetarium Complex, Patna - BSPCB",25-12-2025 08:00:00,25.610369,85.132568,OZONE,27,56,42
India,Bihar,Patna,"Muradpur, Patna - BSPCB",25-12-2025 08:00:00,25.619651,85.147382,PM2.5,143,303,218
India,Bihar,Patna,"Muradpur, Patna - BSPCB",25-12-2025 08:00:00,25.619651,85.147382,PM10,104,204,128
India,Bihar,Patna,"Muradpur, Patna - BSPCB",25-12-2025 08:00:00,25.619651,85.147382,NO2,5,7,6
India,Chhattisgarh,Raipur,"AIIMS, Raipur - CECB",25-12-2025 08:00:00,21.258815,81.578979,NO2,66,88,75
India,Chhattisgarh,Raipur,"AIIMS, Raipur - CECB",25-12-2025 08:00:00,21.258815,81.578979,SO2,2,8,5
India,Chhattisgarh,Raipur,"AIIMS, Raipur - CECB",25-12-2025 08:00:00,21.258815,81.578979,OZONE,1,5,1
India,Chhattisgarh,Raipur,"Bhatagaon New ISBT, Raipur - CECB",25-12-2025 08:00:00,21.219665,81.630094,PM10,24,136,68
India,Chhattisgarh,Raipur,"Bhatagaon New ISBT, Raipur - CECB",25-12-2025 08:00:00,21.219665,81.630094,NO2,1,36,16
India,Chhattisgarh,Raipur,"Bhatagaon New ISBT, Raipur - CECB",25-12-2025 08:00:00,21.219665,81.630094,OZONE,2,12,3
India,Chhattisgarh,Tumidih,"OP Jindal Industrial Park, Tumidih - CECB",25-12-2025 08:00:00,22.06631475,83.33820077,PM10,39,416,96
India,Chhattisgarh,Tumidih,"OP Jindal Industrial Park, Tumidih - CECB",25-12-2025 08:00:00,22.06631475,83.33820077,NO2,36,98,63
India,Chandigarh,Chandigarh,"Sector 22, Chandigarh - CPCC",25-12-2025 08:00:00,30.735567,76.775714,NH3,18,26,23
India,Chandigarh,Chandigarh,"Sector 22, Chandigarh - CPCC",25-12-2025 08:00:00,30.735567,76.775714,CO,64,107,88
India,Chandigarh,Chandigarh,"Sector-25, Chandigarh - CPCC",25-12-2025 08:00:00,30.751462,76.762879,PM10,58,122,99
India,Chandigarh,Chandigarh,"Sector-25, Chandigarh - CPCC",25-12-2025 08:00:00,30.751462,76.762879,CO,20,44,39
India,Chandigarh,Chandigarh,"Sector-53, Chandigarh - CPCC",25-12-2025 08:00:00,30.719859,76.738637,CO,38,108,72
India,Chhattisgarh,Bhilai,"32Bungalows, Bhilai - CECB",25-12-2025 08:00:00,21.194815,81.314770,PM2.5,8,23,15
India,Delhi,Delhi,"Aya Nagar, Delhi - IMD",25-12-2025 08:00:00,28.4706914,77.1099364,NO2,12,119,59
India,Delhi,Delhi,"Aya Nagar, Delhi - IMD",25-12-2025 08:00:00,28.4706914,77.1099364,CO,13,90,45
India,Delhi,Delhi,"Burari Crossing, Delhi - IMD",25-12-2025 08:00:00,28.7256504,77.2011573,CO,2,109,61
India,Delhi,Delhi,"Burari Crossing, Delhi - IMD",25-12-2025 08:00:00,28.7256504,77.2011573,OZONE,10,141,11
India,Delhi,Delhi,"CRRI Mathura Road, Delhi - IMD",25-12-2025 08:00:00,28.5512005,77.2735737,CO,4,108,69
India,Delhi,Delhi,"Chandni Chowk, Delhi - IITM",25-12-2025 08:00:00,28.656756,77.227234,OZONE,6,72,8
India,Chhattisgarh,Kunjemura,"OP Jindal School, Kunjemura - CECB",25-12-2025 08:00:00,22.126650,83.483212,PM2.5,29,58,47
India,Chhattisgarh,Kunjemura,"OP Jindal School, Kunjemura - CECB",25-12-2025 08:00:00,22.126650,83.483212,NH3,2,2,2
India,Chhattisgarh,Milupara,"Govt. Higher Secondary School, Milupara - CECB",25-12-2025 08:00:00,22.1910172,83.5197009,PM10,55,139,91
India,Chhattisgarh,Milupara,"Govt. Higher Secondary School, Milupara - CECB",25-12-2025 08:00:00,22.1910172,83.5197009,NH3,1,2,2
India,Chhattisgarh,Milupara,"Govt. Higher Secondary School, Milupara - CECB",25-12-2025 08:00:00,22.1910172,83.5197009,SO2,13,20,15
India,Chhattisgarh,Milupara,"Govt. Higher Secondary School, Milupara - CECB",25-12-2025 08:00:00,22.1910172,83.5197009,OZONE,3,128,10
India,Bihar,Saharsa,"Police Line, Saharsa - BSPCB",25-12-2025 08:00:00,25.892357,86.590325,PM2.5,77,316,149
India,Bihar,Sasaram,"Dada Peer, Sasaram - BSPCB",25-12-2025 08:00:00,24.952822,84.002396,NO2,2,5,2
India,Bihar,Siwan,"Chitragupta Nagar, Siwan - BSPCB",25-12-2025 08:00:00,26.2271665,84.3570427,OZONE,17,18,18
India,Chandigarh,Chandigarh,"Sector 22, Chandigarh - CPCC",25-12-2025 08:00:00,30.735567,76.775714,PM2.5,48,233,121
India,Delhi,Delhi,"Anand Vihar, Delhi - DPCC",25-12-2025 08:00:00,28.647622,77.3158090,PM10,120,500,297
India,Delhi,Delhi,"Anand Vihar, Delhi - DPCC",25-12-2025 08:00:00,28.647622,77.3158090,OZONE,4,12,12
India,Delhi,Delhi,"Ashok Vihar, Delhi - DPCC",25-12-2025 08:00:00,28.695381,77.181665,PM2.5,50,355,246
India,Delhi,Delhi,"Ashok Vihar, Delhi - DPCC",25-12-2025 08:00:00,28.695381,77.181665,PM10,96,296,190
India,Delhi,Delhi,"Ashok Vihar, Delhi - DPCC",25-12-2025 08:00:00,28.695381,77.181665,NO2,19,116,65
India,Delhi,Delhi,"Aya Nagar, Delhi - IMD",25-12-2025 08:00:00,28.4706914,77.1099364,PM2.5,34,278,121
India,Bihar,Patna,"Rajbansi Nagar, Patna - BSPCB",25-12-2025 08:00:00,25.599486,85.113666,PM10,107,174,132
India,Bihar,Patna,"Rajbansi Nagar, Patna - BSPCB",25-12-2025 08:00:00,25.599486,85.113666,CO,46,106,76
India,Bihar,Purnia,"Mariam Nagar, Purnia - BSPCB",25-12-2025 08:00:00,25.366336,87.117468,NO2,5,6,6
India,Bihar,Rajgir,"Dangi Tola, Rajgir - BSPCB",25-12-2025 08:00:00,25.03280,85.41948,NH3,6,7,6
India,Chhattisgarh,Bhilai,"Civic Center, Bhilai - Bhilai Steel Plant",25-12-2025 08:00:00,21.185571,81.343175,NH3,5,5,5
India,Chhattisgarh,Bhilai,"Civic Center, Bhilai - Bhilai Steel Plant",25-12-2025 08:00:00,21.185571,81.343175,OZONE,4,16,10
India,Chhattisgarh,Chhal,"Nawapara SECL Colony, Chhal - CECB",25-12-2025 08:00:00,22.118125,83.140608,NO2,9,21,13
India,Chhattisgarh,Chhal,"Nawapara SECL Colony, Chhal - CECB",25-12-2025 08:00:00,22.118125,83.140608,CO,22,58,38
India,Delhi,Delhi,"Sri Aurobindo Marg, Delhi - DPCC",25-12-2025 08:00:00,28.531346,77.190156,PM10,61,152,111
India,Delhi,Delhi,"Sri Aurobindo Marg, Delhi - DPCC",25-12-2025 08:00:00,28.531346,77.190156,NH3,6,10,8
India,Delhi,Delhi,"Vivek Vihar, Delhi - DPCC",25-12-2025 08:00:00,28.672342,77.315260,SO2,6,17,11
India,Delhi,Delhi,"Wazirpur, Delhi - DPCC",25-12-2025 08:00:00,28.699793,77.165453,OZONE,3,53,13
India,Gujarat,Ahmedabad,"Chandkheda, Ahmedabad - IITM",25-12-2025 08:00:00,23.107969,72.574648,CO,10,104,18
India,Gujarat,Ahmedabad,"Chandkheda, Ahmedabad - IITM",25-12-2025 08:00:00,23.107969,72.574648,OZONE,3,46,10
India,Gujarat,Ahmedabad,"Gyaspur, Ahmedabad - IITM",25-12-2025 08:00:00,22.977134,72.553024,PM10,101,197,149
India,Gujarat,Ahmedabad,"Gyaspur, Ahmedabad - IITM",25-12-2025 08:00:00,22.977134,72.553024,NH3,4,32,12
India,Delhi,Delhi,"Najafgarh, Delhi - DPCC",25-12-2025 08:00:00,28.570173,76.933762,CO,12,111,48
India,Delhi,Delhi,"Narela, Delhi - DPCC",25-12-2025 08:00:00,28.822836,77.101981,PM2.5,54,380,245
India,Delhi,Delhi,"Nehru Nagar, Delhi - DPCC",25-12-2025 08:00:00,28.567890,77.250515,PM10,90,500,198
India,Delhi,Delhi,"Nehru Nagar, Delhi - DPCC",25-12-2025 08:00:00,28.567890,77.250515,NO2,26,106,58
India,Delhi,Delhi,"Nehru Nagar, Delhi - DPCC",25-12-2025 08:00:00,28.567890,77.250515,OZONE,1,166,2
India,Delhi,Delhi,"North Campus, DU, Delhi - IMD",25-12-2025 08:00:00,28.6573814,77.1585447,PM10,102,226,156
India,Delhi,Delhi,"Okhla Phase-2, Delhi - DPCC",25-12-2025 08:00:00,28.530785,77.271255,PM10,90,378,161
India,Delhi,Delhi,"Okhla Phase-2, Delhi - DPCC",25-12-2025 08:00:00,28.530785,77.271255,SO2,5,14,10
India,Delhi,Delhi,"Mandir Marg, Delhi - DPCC",25-12-2025 08:00:00,28.636429,77.201067,PM10,36,234,142
India,Delhi,Delhi,"Mandir Marg, Delhi - DPCC",25-12-2025 08:00:00,28.636429,77.201067,SO2,94,108,103
India,Delhi,Delhi,"Mandir Marg, Delhi - DPCC",25-12-2025 08:00:00,28.636429,77.201067,CO,4,144,56
India,Delhi,Delhi,"Mundka, Delhi - DPCC",25-12-2025 08:00:00,28.684678,77.076574,PM10,100,453,202
India,Delhi,Delhi,"Mundka, Delhi - DPCC",25-12-2025 08:00:00,28.684678,77.076574,CO,35,105,55
India,Delhi,Delhi,"NSIT Dwarka, Delhi - CPCB",25-12-2025 08:00:00,28.60909,77.0325413,PM2.5,9,461,105
India,Delhi,Delhi,"NSIT Dwarka, Delhi - CPCB",25-12-2025 08:00:00,28.60909,77.0325413,NH3,19,53,28
India,Delhi,Delhi,"NSIT Dwarka, Delhi - CPCB",25-12-2025 08:00:00,28.60909,77.0325413,OZONE,21,93,23
India,Delhi,Delhi,"Patparganj, Delhi - DPCC",25-12-2025 08:00:00,28.623763,77.287209,PM10,79,232,148
India,Delhi,Delhi,"Patparganj, Delhi - DPCC",25-12-2025 08:00:00,28.623763,77.287209,NO2,31,135,79
India,Delhi,Delhi,"Punjabi Bagh, Delhi - DPCC",25-12-2025 08:00:00,28.674045,77.131023,NO2,8,53,33
India,Delhi,Delhi,"Punjabi Bagh, Delhi - DPCC",25-12-2025 08:00:00,28.674045,77.131023,NH3,4,7,6
India,Delhi,Delhi,"Pusa, Delhi - IMD",25-12-2025 08:00:00,28.636110,77.173332,CO,NA,NA,NA
India,Delhi,Delhi,"R K Puram, Delhi - DPCC",25-12-2025 08:00:00,28.563262,77.186937,NO2,18,109,64
India,Delhi,Delhi,"DTU, Delhi - CPCB",25-12-2025 08:00:00,28.7500499,77.1112615,PM10,74,422,163
India,Delhi,Delhi,"Dr. Karni Singh Shooting Range, Delhi - DPCC",25-12-2025 08:00:00,28.498571,77.264840,NH3,7,13,10
India,Delhi,Delhi,"Dwarka-Sector 8, Delhi - DPCC ",25-12-2025 08:00:00,28.5710274,77.0719006,SO2,26,34,30
India,Delhi,Delhi,"IGI Airport (T3), Delhi - IMD",25-12-2025 08:00:00,28.5627763,77.1180053,PM2.5,28,223,103
India,Gujarat,Ahmedabad,"Gyaspur, Ahmedabad - IITM",25-12-2025 08:00:00,22.977134,72.553024,CO,17,110,65
India,Gujarat,Ahmedabad,"Maninagar, Ahmedabad - GPCB",25-12-2025 08:00:00,23.002657,72.591912,PM2.5,78,196,137
India,Gujarat,Ahmedabad,"Maninagar, Ahmedabad - GPCB",25-12-2025 08:00:00,23.002657,72.591912,NO2,64,64,64
India,Gujarat,Ahmedabad,"Maninagar, Ahmedabad - GPCB",25-12-2025 08:00:00,23.002657,72.591912,OZONE,36,76,47
India,Gujarat,Ahmedabad,"Rakhial, Ahmedabad - IITM",25-12-2025 08:00:00,23.016834,72.625775,NO2,12,59,30
India,Delhi,Delhi,"Shadipur, Delhi - CPCB",25-12-2025 08:00:00,28.6514781,77.1473105,PM10,134,405,231
India,Delhi,Delhi,"Sirifort, Delhi - CPCB",25-12-2025 08:00:00,28.5504249,77.2159377,PM2.5,66,326,218
India,Delhi,Delhi,"Sirifort, Delhi - CPCB",25-12-2025 08:00:00,28.5504249,77.2159377,NH3,5,28,10
India,Delhi,Delhi,"Sonia Vihar, Delhi - DPCC",25-12-2025 08:00:00,28.710508,77.249485,CO,35,138,120
India,Delhi,Delhi,"Jahangirpuri, Delhi - DPCC",25-12-2025 08:00:00,28.732820,77.170633,NH3,4,7,6
India,Delhi,Delhi,"Jawaharlal Nehru Stadium, Delhi - DPCC",25-12-2025 08:00:00,28.580280,77.233829,OZONE,5,139,5
India,Delhi,Delhi,"Lodhi Road, Delhi - IMD",25-12-2025 08:00:00,28.5918245,77.2273074,OZONE,5,48,9
India,Delhi,Delhi,"IHBAS, Dilshad Garden, Delhi - CPCB",25-12-2025 08:00:00,28.6811736,77.3025234,NH3,11,16,14
India,Delhi,Delhi,"Jahangirpuri, Delhi - DPCC",25-12-2025 08:00:00,28.732820,77.170633,PM10,109,390,203
India,Gujarat,Gandhinagar,"Sector-10, Gandhinagar - GPCB",25-12-2025 08:00:00,23.221714,72.654328,PM2.5,40,137,78
India,Gujarat,Gandhinagar,"Sector-10, Gandhinagar - GPCB",25-12-2025 08:00:00,23.221714,72.654328,PM10,56,132,95
India,Gujarat,Gandhinagar,"Sector-10, Gandhinagar - GPCB",25-12-2025 08:00:00,23.221714,72.654328,NH3,2,5,3
India,Gujarat,Gandhinagar,"Sector-10, Gandhinagar - GPCB",25-12-2025 08:00:00,23.221714,72.654328,CO,26,48,34
India,Gujarat,Surat,"Science Center, Surat - SMC",25-12-2025 08:00:00,21.170046,72.795405,PM10,NA,NA,NA
India,Gujarat,Surat,"Science Center, Surat - SMC",25-12-2025 08:00:00,21.170046,72.795405,NO2,NA,NA,NA
India,Gujarat,Vapi,"Phase-1 GIDC, Vapi - GPCB",25-12-2025 08:00:00,20.362421,72.918013,PM10,39,107,69
India,Gujarat,Vapi,"Phase-1 GIDC, Vapi - GPCB",25-12-2025 08:00:00,20.362421,72.918013,NH3,4,6,5
India,Gujarat,Vapi,"Phase-1 GIDC, Vapi - GPCB",25-12-2025 08:00:00,20.362421,72.918013,OZONE,7,17,7
India,Gujarat,Vatva,"Phase-4 GIDC, Vatva - GPCB",25-12-2025 08:00:00,22.969611,72.643500,SO2,50,60,55
India,Haryana,Narnaul,"Shastri Nagar, Narnaul - HSPCB",25-12-2025 08:00:00,28.060249,76.113115,OZONE,17,82,17
India,Haryana,Palwal,"Shyam Nagar, Palwal - HSPCB",25-12-2025 08:00:00,28.1485564,77.3320667,PM10,22,56,42
India,Haryana,Palwal,"Shyam Nagar, Palwal - HSPCB",25-12-2025 08:00:00,28.1485564,77.3320667,NH3,8,9,9
India,Haryana,Panchgaon,"Amity University, Panchgaon - IITM",25-12-2025 08:00:00,28.3153,76.9143,PM2.5,29,71,44
India,Haryana,Panchkula,"Sector-6, Panchkula - HSPCB ",25-12-2025 08:00:00,30.7057778,76.8531805555555,PM2.5,127,354,260
India,Haryana,Panchkula,"Sector-6, Panchkula - HSPCB ",25-12-2025 08:00:00,30.7057778,76.8531805555555,NO2,23,26,25
India,Haryana,Panchkula,"Sector-6, Panchkula - HSPCB ",25-12-2025 08:00:00,30.7057778,76.8531805555555,OZONE,35,44,40
India,Haryana,Panipat,"Sector-18, Panipat - HSPCB",25-12-2025 08:00:00,29.432304,76.972765,PM2.5,80,500,210
India,Haryana,Faridabad,"Sector 30, Faridabad - HSPCB",25-12-2025 08:00:00,28.4417,77.3217,SO2,6,6,6
India,Haryana,Faridabad,"Sector 30, Faridabad - HSPCB",25-12-2025 08:00:00,28.4417,77.3217,OZONE,17,19,18
India,Haryana,Fatehabad,"Huda Sector, Fatehabad - HSPCB",25-12-2025 08:00:00,29.503664,75.467934,PM2.5,73,167,109
India,Haryana,Fatehabad,"Huda Sector, Fatehabad - HSPCB",25-12-2025 08:00:00,29.503664,75.467934,SO2,10,11,11
India,Haryana,Gurugram,"Sector-51, Gurugram - HSPCB",25-12-2025 08:00:00,28.4227,77.0667,PM10,89,436,194
India,Haryana,Gurugram,"Sector-51, Gurugram - HSPCB",25-12-2025 08:00:00,28.4227,77.0667,NO2,4,10,6
India,Haryana,Gurugram,"Sector-51, Gurugram - HSPCB",25-12-2025 08:00:00,28.4227,77.0667,NH3,6,10,8
India,Haryana,Gurugram,"Teri Gram, Gurugram - HSPCB",25-12-2025 08:00:00,28.4275,77.1465,PM10,50,182,132
India,Haryana,Gurugram,"Teri Gram, Gurugram - HSPCB",25-12-2025 08:00:00,28.4275,77.1465,NH3,11,20,15
India,Haryana,Gurugram,"Teri Gram, Gurugram - HSPCB",25-12-2025 08:00:00,28.4275,77.1465,OZONE,10,43,11
India,Gujarat,Ahmedabad,"SAC ISRO Satellite, Ahmedabad - IITM",25-12-2025 08:00:00,23.023389,72.515201,CO,6,74,28
India,Gujarat,Ahmedabad,"SVPI Airport Hansol, Ahmedabad - IITM",25-12-2025 08:00:00,23.076793,72.627874,NH3,5,12,7
India,Gujarat,Ankleshwar,"GIDC, Ankleshwar - GPCB",25-12-2025 08:00:00,21.613267,73.010555,NO2,14,22,16
India,Gujarat,Gandhinagar,"GIFT City, Gandhinagar - IITM",25-12-2025 08:00:00,23.163798,72.677768,PM2.5,28,67,46
India,Gujarat,Gandhinagar,"GIFT City, Gandhinagar - IITM",25-12-2025 08:00:00,23.163798,72.677768,PM10,83,275,136
India,Gujarat,Gandhinagar,"IIPHG Lekawada, Gandhinagar - IITM",25-12-2025 08:00:00,23.243639,72.68994,PM10,55,135,102
India,Haryana,Ambala,"Patti Mehar, Ambala - HSPCB",25-12-2025 08:00:00,30.379589,76.778328,NH3,9,11,10
India,Haryana,Ambala,"Patti Mehar, Ambala - HSPCB",25-12-2025 08:00:00,30.379589,76.778328,SO2,31,32,31
India,Haryana,Ambala,"Patti Mehar, Ambala - HSPCB",25-12-2025 08:00:00,30.379589,76.778328,CO,74,75,75
India,Haryana,Bahadurgarh,"Arya Nagar, Bahadurgarh - HSPCB",25-12-2025 08:00:00,28.6701,76.9254,PM10,1,396,83
India,Haryana,Bahadurgarh,"Arya Nagar, Bahadurgarh - HSPCB",25-12-2025 08:00:00,28.6701,76.9254,NH3,12,13,13
India,Haryana,Ballabgarh,"Nathu Colony, Ballabgarh - HSPCB",25-12-2025 08:00:00,28.3419248,77.319699,OZONE,15,15,15
India,Haryana,Bhiwani,"H.B. Colony, Bhiwani - HSPCB",25-12-2025 08:00:00,28.806223,76.141105,SO2,12,13,12
India,Haryana,Rohtak,"MD University, Rohtak - HSPCB",25-12-2025 08:00:00,28.52123,76.37138,NO2,11,12,11
India,Haryana,Rohtak,"MD University, Rohtak - HSPCB",25-12-2025 08:00:00,28.52123,76.37138,CO,54,57,56
India,Haryana,Sirsa,"F-Block, Sirsa - HSPCB",25-12-2025 08:00:00,29.536400,75.015800,NO2,14,28,18
India,Haryana,Sonipat,"Murthal, Sonipat - HSPCB",25-12-2025 08:00:00,29.027200,77.062100,PM2.5,114,392,277
India,Haryana,Sonipat,"Murthal, Sonipat - HSPCB",25-12-2025 08:00:00,29.027200,77.062100,CO,8,21,19
India,Himachal Pradesh,Baddi,"HIMUDA Complex Phase-1, Baddi - HPPCB",25-12-2025 08:00:00,30.943887,76.801991,NO2,10,62,29
India,Haryana,Charkhi Dadri,"Mini Secretariat, Charkhi Dadri - HSPCB",25-12-2025 08:00:00,28.593883,76.270653,SO2,10,12,11
India,Haryana,Faridabad,"New Industrial Town, Faridabad - HSPCB",25-12-2025 08:00:00,28.39072,77.30059,PM10,168,178,174
India,Haryana,Faridabad,"New Industrial Town, Faridabad - HSPCB",25-12-2025 08:00:00,28.39072,77.30059,CO,10,13,12
India,Haryana,Faridabad,"Sector 11, Faridabad - HSPCB",25-12-2025 08:00:00,28.376058,77.315741,NH3,10,10,10
India,Haryana,Faridabad,"Sector 30, Faridabad - HSPCB",25-12-2025 08:00:00,28.4417,77.3217,PM10,162,164,163
India,Haryana,Faridabad,"Sector 30, Faridabad - HSPCB",25-12-2025 08:00:00,28.4417,77.3217,NH3,11,12,11
India,Haryana,Gurugram,"Vikas Sadan, Gurugram - HSPCB",25-12-2025 08:00:00,28.4501238,77.0263051,CO,68,114,92
India,Haryana,Hisar,"Urban Estate-II, Hisar - HSPCB",25-12-2025 08:00:00,29.140560,75.744941,PM10,83,148,117
India,Haryana,Jind,"Police Lines, Jind - HSPCB",25-12-2025 08:00:00,29.307814,76.337619,PM10,71,145,105
India,Haryana,Jind,"Police Lines, Jind - HSPCB",25-12-2025 08:00:00,29.307814,76.337619,NH3,1,3,2
India,Haryana,Kaithal,"Rishi Nagar, Kaithal - HSPCB",25-12-2025 08:00:00,29.8006,76.4155,PM2.5,64,105,80
India,Haryana,Manesar,"Sector-2 IMT, Manesar - HSPCB",25-12-2025 08:00:00,28.360699,76.936090,PM2.5,NA,NA,NA
India,Haryana,Manesar,"Sector-2 IMT, Manesar - HSPCB",25-12-2025 08:00:00,28.360699,76.936090,NH3,NA,NA,NA
India,Haryana,Narnaul,"Shastri Nagar, Narnaul - HSPCB",25-12-2025 08:00:00,28.060249,76.113115,NO2,55,131,84
India,Karnataka,Chamarajanagar,"Urban, Chamarajanagar - KSPCB",25-12-2025 08:00:00,11.55358,76.55521,CO,17,121,34
India,Karnataka,Chikkamagaluru,"Kalyana Nagara, Chikkamagaluru - KSPCB",25-12-2025 08:00:00,13.328028,75.797056,NO2,19,26,23
India,Karnataka,Chikkamagaluru,"Kalyana Nagara, Chikkamagaluru - KSPCB",25-12-2025 08:00:00,13.328028,75.797056,CO,11,12,11
India,Karnataka,Davanagere,"Devaraj Urs Badavane, Davanagere - KSPCB",25-12-2025 08:00:00,14.475800,75.905200,SO2,2,5,4
India,Karnataka,Hubballi,"Lingaraj Nagar, Hubballi - KSPCB",25-12-2025 08:00:00,15.3714823,75.1160168,PM10,57,59,57
India,Karnataka,Hubballi,"Lingaraj Nagar, Hubballi - KSPCB",25-12-2025 08:00:00,15.3714823,75.1160168,NH3,1,2,1
India,Karnataka,Kalaburagi,"Lal Bahadur Shastri Nagar, Kalaburagi - KSPCB",25-12-2025 08:00:00,17.321993,76.822628,PM10,NA,NA,NA
India,Karnataka,Kalaburagi,"Mahatma Basaveswar Colony, Kalaburgi - KSPCB",25-12-2025 08:00:00,17.336318,76.847397,NO2,12,18,14
India,Karnataka,Kalaburagi,"Mahatma Basaveswar Colony, Kalaburgi - KSPCB",25-12-2025 08:00:00,17.336318,76.847397,SO2,3,8,5
India,Karnataka,Kalaburagi,"Mahatma Basaveswar Colony, Kalaburgi - KSPCB",25-12-2025 08:00:00,17.336318,76.847397,OZONE,14,56,15
India,Karnataka,Koppal,"Diwator Nagar, Koppal - KSPCB",25-12-2025 08:00:00,15.347630,76.181767,NO2,17,32,30
India,Karnataka,Madikeri,"Stuart Hill, Madikeri - KSPCB",25-12-2025 08:00:00,12.415911,75.735050,PM2.5,34,68,47
India,Karnataka,Mysuru,"Hebbal 1st Stage, Mysuru - KSPCB",25-12-2025 08:00:00,12.21041,76.37376,SO2,1,41,7
India,Karnataka,Mysuru,"Hebbal 1st Stage, Mysuru - KSPCB",25-12-2025 08:00:00,12.21041,76.37376,CO,8,57,29
India,Karnataka,Mysuru,"Hebbal 1st Stage, Mysuru - KSPCB",25-12-2025 08:00:00,12.21041,76.37376,OZONE,5,75,15
India,Jammu_and_Kashmir,Pampore,"Khrew, Pampore - JKPCC",25-12-2025 08:00:00,34.031606,75.009712,PM10,16,58,40
India,Jammu_and_Kashmir,Srinagar,"Rajbagh, Srinagar - JKPCC",25-12-2025 08:00:00,34.066206,74.819820,OZONE,NA,NA,NA
India,Karnataka,Bagalkot,"Vidayagiri, Bagalkot - KSPCB",25-12-2025 08:00:00,16.172806,75.659694,SO2,7,7,7
India,Karnataka,Belgaum,"Ramteerth Nagar, Belgaum - KSPCB",25-12-2025 08:00:00,15.888653,74.541751,PM2.5,40,122,75
India,Karnataka,Belgaum,"Ramteerth Nagar, Belgaum - KSPCB",25-12-2025 08:00:00,15.888653,74.541751,PM10,53,130,94
India,Karnataka,Belgaum,"Ramteerth Nagar, Belgaum - KSPCB",25-12-2025 08:00:00,15.888653,74.541751,NH3,9,10,10
India,Karnataka,Bengaluru,"Hombegowda Nagar, Bengaluru - KSPCB",25-12-2025 08:00:00,12.938539,77.590100,SO2,13,21,16
India,Karnataka,Bengaluru,"Jayanagar 5th Block, Bengaluru - KSPCB",25-12-2025 08:00:00,12.920984,77.584908,PM10,96,163,125
India,Karnataka,Bengaluru,"Jayanagar 5th Block, Bengaluru - KSPCB",25-12-2025 08:00:00,12.920984,77.584908,NH3,1,2,1
India,Karnataka,Bengaluru,"Jayanagar 5th Block, Bengaluru - KSPCB",25-12-2025 08:00:00,12.920984,77.584908,CO,16,62,20
India,Karnataka,Bengaluru,"Kasturi Nagar, Bengaluru - KSPCB",25-12-2025 08:00:00,13.003872,77.664217,NO2,31,33,32
India,Karnataka,Bengaluru,"Peenya, Bengaluru - CPCB",25-12-2025 08:00:00,13.0270199,77.494094,PM2.5,19,51,35
India,Madhya Pradesh,Bhopal,"Paryavaran Parisar, Bhopal - MPPCB",25-12-2025 08:00:00,23.210494,77.425409,PM10,64,267,135
India,Madhya Pradesh,Bhopal,"Paryavaran Parisar, Bhopal - MPPCB",25-12-2025 08:00:00,23.210494,77.425409,OZONE,9,49,20
India,Madhya Pradesh,Bhopal,"T T Nagar, Bhopal - MPPCB",25-12-2025 08:00:00,23.233584,77.400574,PM2.5,32,301,117
India,Madhya Pradesh,Bhopal,"T T Nagar, Bhopal - MPPCB",25-12-2025 08:00:00,23.233584,77.400574,NH3,7,8,7
India,Madhya Pradesh,Dewas,"Bhopal Chauraha, Dewas - MPPCB",25-12-2025 08:00:00,22.9682591,76.064118,PM2.5,25,115,63
India,Karnataka,Belgaum,"Ramteerth Nagar, Belgaum - KSPCB",25-12-2025 08:00:00,15.888653,74.541751,CO,4,8,6
India,Karnataka,Bengaluru,"BTM Layout, Bengaluru - CPCB",25-12-2025 08:00:00,12.9135218,77.5950804,CO,45,51,49
India,Karnataka,Bengaluru,"BWSSB Kadabesanahalli, Bengaluru - CPCB",25-12-2025 08:00:00,12.9352049,77.6814488,PM2.5,NA,NA,NA
India,Karnataka,Bengaluru,"City Railway Station, Bengaluru - KSPCB",25-12-2025 08:00:00,12.9756843,77.5660749,CO,68,76,71
India,Karnataka,Tumakuru,"Thimmalapura, Tumakuru - KSPCB",25-12-2025 08:00:00,13.377516,77.099072,CO,NA,NA,NA
India,Karnataka,Yadgir,"Collector Office, Yadgir - KSPCB",25-12-2025 08:00:00,16.7602,77.1428,PM2.5,81,198,125
India,Kerala,Eloor,"Udyogamandal, Eloor - Kerala PCB",25-12-2025 08:00:00,10.073232,76.302765,NO2,6,7,6
India,Kerala,Eloor,"Udyogamandal, Eloor - Kerala PCB",25-12-2025 08:00:00,10.073232,76.302765,OZONE,10,18,12
India,Kerala,Thiruvananthapuram,"Kariavattom, Thiruvananthapuram - Kerala PCB",25-12-2025 08:00:00,8.563700,76.886500,PM2.5,81,311,203
India,Kerala,Thiruvananthapuram,"Kariavattom, Thiruvananthapuram - Kerala PCB",25-12-2025 08:00:00,8.563700,76.886500,NO2,6,8,7
India,Kerala,Thiruvananthapuram,"Kariavattom, Thiruvananthapuram - Kerala PCB",25-12-2025 08:00:00,8.563700,76.886500,SO2,1,11,4
India,Kerala,Thiruvananthapuram,"Plammoodu, Thiruvananthapuram - Kerala PCB",25-12-2025 08:00:00,8.5149093,76.9435879,SO2,5,24,15
India,Kerala,Thiruvananthapuram,"Plammoodu, Thiruvananthapuram - Kerala PCB",25-12-2025 08:00:00,8.5149093,76.9435879,OZONE,6,28,18
India,Karnataka,Bengaluru,"Peenya, Bengaluru - CPCB",25-12-2025 08:00:00,13.0270199,77.494094,CO,26,78,32
India,Karnataka,Bengaluru,"RVCE-Mailasandra, Bengaluru - KSPCB",25-12-2025 08:00:00,12.921418,77.502466,NH3,NA,NA,NA
India,Karnataka,Bengaluru,"Sanegurava Halli, Bengaluru - KSPCB",25-12-2025 08:00:00,12.990328,77.5431385,SO2,6,6,6
India,Karnataka,Bengaluru,"Silk Board, Bengaluru - KSPCB",25-12-2025 08:00:00,12.917348,77.622813,PM2.5,NA,NA,NA
India,Madhya Pradesh,Sagar,"Deen Dayal Nagar, Sagar - MPPCB",25-12-2025 08:00:00,23.8640158,78.80289321,CO,50,106,97
