country,state,city,station,last_update,latitude,longitude,pollutant_id,min_value,max_value,avg_value
India,Bihar,Hajipur,"Industrial Area, Hajipur - BSPCB",02-11-2025 07:00:00,25.697189,85.245900,OZONE,1,22,4
India,Bihar,Katihar,"Mirchaibari, Katihar - BSPCB",02-11-2025 07:00:00,25.560083,87.553265,NO2,11,18,14
India,Bihar,Kishanganj,"SDM Office_Khagra, Kishanganj - BSPCB",02-11-2025 07:00:00,26.0881305,87.93840336,PM2.5,NA,NA,NA
India,Bihar,Manguraha,"Forest Rest House, Manguraha - BSPCB",02-11-2025 07:00:00,27.308328,84.531742,NH3,2,3,2
India,Bihar,Manguraha,"Forest Rest House, Manguraha - BSPCB",02-11-2025 07:00:00,27.308328,84.531742,OZONE,5,16,7
India,Bihar,Motihari,"Gandak Colony, Motihari - BSPCB",02-11-2025 07:00:00,26.63086,84.90051,PM2.5,20,25,23
India,Bihar,Munger,"Town Hall, Munger - BSPCB",02-11-2025 07:00:00,25.376776,86.471523,PM2.5,NA,NA,NA
India,Bihar,Munger,"Town Hall, Munger - BSPCB",02-11-2025 07:00:00,25.376776,86.471523,PM10,2,20,6
India,Assam,Silchar,"Tarapur, Silchar - PCBA",02-11-2025 07:00:00,24.82827,92.79525,CO,12,72,50
India,Bihar,Araria,"Kharahiya Basti, Araria - BSPCB",02-11-2025 07:00:00,26.146529,87.454184,CO,28,36,33
India,Bihar,Aurangabad,"Gurdeo Nagar, Aurangabad - BSPCB",02-11-2025 07:00:00,24.75746,84.366208,PM10,7,20,14
India,Bihar,Aurangabad,"Gurdeo Nagar, Aurangabad - BSPCB",02-11-2025 07:00:00,24.75746,84.366208,NH3,1,2,2
India,Bihar,Aurangabad,"Gurdeo Nagar, Aurangabad - BSPCB",02-11-2025 07:00:00,24.75746,84.366208,OZONE,3,11,6
India,Bihar,Begusarai,"Lohiyanagar, Begusarai - BSPCB",02-11-2025 07:00:00,25.42742023,86.13886079,NO2,16,25,20
India,Bihar,Begusarai,"Lohiyanagar, Begusarai - BSPCB",02-11-2025 07:00:00,25.42742023,86.13886079,SO2,40,46,42
India,Bihar,Munger,"Town Hall, Munger - BSPCB",02-11-2025 07:00:00,25.376776,86.471523,NH3,5,7,6
India,Bihar,Muzaffarpur,"Buddha Colony, Muzaffarpur - BSPCB",02-11-2025 07:00:00,26.11442,85.39813,PM10,1,10,6
India,Bihar,Muzaffarpur,"MIT-Daudpur Kothi, Muzaffarpur - BSPCB",02-11-2025 07:00:00,26.1403345,85.3650192,OZONE,16,37,21
India,Bihar,Muzaffarpur,"Muzaffarpur Collectorate, Muzaffarpur - BSPCB",02-11-2025 07:00:00,26.1209,85.3647,SO2,4,6,4
India,Bihar,Patna,"DRM Office Danapur, Patna - BSPCB",02-11-2025 07:00:00,25.586562,85.043586,PM2.5,24,54,37
India,Andhra_Pradesh,Chittoor,"Gangineni Cheruvu, Chittoor - APPCB",02-11-2025 07:00:00,13.204880,79.097889,PM2.5,29,125,74
India,Andhra_Pradesh,Chittoor,"Gangineni Cheruvu, Chittoor - APPCB",02-11-2025 07:00:00,13.204880,79.097889,NH3,5,6,5
India,Andhra_Pradesh,Chittoor,"Gangineni Cheruvu, Chittoor - APPCB",02-11-2025 07:00:00,13.204880,79.097889,SO2,7,33,16
India,Andhra_Pradesh,Chittoor,"Gangineni Cheruvu, Chittoor - APPCB",02-11-2025 07:00:00,13.204880,79.097889,OZONE,50,60,56
India,Andhra_Pradesh,Rajamahendravaram,"Anand Kala Kshetram, Rajamahendravaram - APPCB",02-11-2025 07:00:00,16.9872867,81.7363176,PM10,18,102,59
India,Andaman and Nicobar,Sri Vijaya Puram,"Police Line, Sri Vijaya Puram - ANPCC",02-11-2025 07:00:00,11.654054,92.734055,CO,11,28,15
India,Andhra_Pradesh,Amaravati,"Secretariat, Amaravati - APPCB",02-11-2025 07:00:00,16.5150833,80.5181667,OZONE,3,40,12
India,Andhra_Pradesh,Anantapur,"Gulzarpet, Anantapur - APPCB",02-11-2025 07:00:00,14.675886,77.593027,PM2.5,35,58,45
India,Andhra_Pradesh,Anantapur,"Gulzarpet, Anantapur - APPCB",02-11-2025 07:00:00,14.675886,77.593027,SO2,11,15,13
India,Assam,Guwahati,"Pan Bazaar, Guwahati - PCBA",02-11-2025 07:00:00,26.187500,91.744194,PM10,1,23,14
India,Assam,Guwahati,"Pan Bazaar, Guwahati - PCBA",02-11-2025 07:00:00,26.187500,91.744194,CO,14,25,15
India,Assam,Guwahati,"Railway Colony, Guwahati - PCBA",02-11-2025 07:00:00,26.181742,91.78063,PM2.5,5,56,28
India,Assam,Guwahati,"Railway Colony, Guwahati - PCBA",02-11-2025 07:00:00,26.181742,91.78063,PM10,4,53,26
India,Assam,Nalbari,"Bata Chowk, Nalbari - PCBA",02-11-2025 07:00:00,26.446912,91.439057,CO,84,116,103
India,Bihar,Gaya,"Collectorate, Gaya - BSPCB",02-11-2025 07:00:00,24.7955,84.9994,PM2.5,NA,NA,NA
India,Bihar,Gaya,"Collectorate, Gaya - BSPCB",02-11-2025 07:00:00,24.7955,84.9994,OZONE,20,21,20
India,Bihar,Gaya,"Kareemganj, Gaya - BSPCB",02-11-2025 07:00:00,24.792403,84.992416,CO,39,42,41
India,Bihar,Gaya,"SFTI Kusdihra, Gaya - BSPCB",02-11-2025 07:00:00,24.762518,84.982348,NH3,3,4,3
India,Bihar,Bettiah,"Kamalnath Nagar, Bettiah - BSPCB",02-11-2025 07:00:00,26.80365,84.51954,CO,39,78,48
India,Bihar,Bhagalpur,"Mayaganj, Bhagalpur - BSPCB",02-11-2025 07:00:00,25.265194,87.012947,SO2,8,40,27
India,Bihar,Buxar,"Charitra Van, Buxar - BSPCB",02-11-2025 07:00:00,25.567520,83.966379,CO,14,29,26
India,Andhra_Pradesh,Vijayawada,"Rajiv Nagar, Vijayawada - APPCB",02-11-2025 07:00:00,16.554731,80.649110,PM10,28,112,35
India,Andhra_Pradesh,Vijayawada,"Rajiv Nagar, Vijayawada - APPCB",02-11-2025 07:00:00,16.554731,80.649110,SO2,15,35,23
India,Andhra_Pradesh,Vijayawada,"Rajiv Nagar, Vijayawada - APPCB",02-11-2025 07:00:00,16.554731,80.649110,CO,26,48,33
India,Andhra_Pradesh,Vijayawada,"Rajiv Nagar, Vijayawada - APPCB",02-11-2025 07:00:00,16.554731,80.649110,OZONE,46,306,102
India,Andhra_Pradesh,Tirumala,"Toll Gate, Tirumala - APPCB",02-11-2025 07:00:00,13.67,79.35,SO2,7,8,7
India,Andhra_Pradesh,Vijayawada,"Rajiv Gandhi Park, Vijayawada - APPCB",02-11-2025 07:00:00,16.509717,80.612222,CO,31,33,32
India,Chandigarh,Chandigarh,"Sector-53, Chandigarh - CPCC",02-11-2025 07:00:00,30.719859,76.738637,SO2,4,12,7
India,Chhattisgarh,Bhilai,"32Bungalows, Bhilai - CECB",02-11-2025 07:00:00,21.194815,81.314770,PM2.5,6,61,19
India,Chhattisgarh,Bhilai,"32Bungalows, Bhilai - CECB",02-11-2025 07:00:00,21.194815,81.314770,CO,12,26,18
India,Chhattisgarh,Bhilai,"Civic Center, Bhilai - Bhilai Steel Plant",02-11-2025 07:00:00,21.185571,81.343175,PM10,17,155,45
India,Chhattisgarh,Bhilai,"Hathkhoj, Bhilai - CECB",02-11-2025 07:00:00,21.224231,81.408350,PM2.5,14,83,38
India,Chhattisgarh,Bhilai,"Hathkhoj, Bhilai - CECB",02-11-2025 07:00:00,21.224231,81.408350,NH3,3,4,4
India,Chhattisgarh,Raipur,"Siltara Phase-II, Raipur - CECB",02-11-2025 07:00:00,21.371751,81.664929,SO2,4,27,10
India,Delhi,Delhi,"Alipur, Delhi - DPCC",02-11-2025 07:00:00,28.815329,77.153010,CO,54,106,95
India,Delhi,Delhi,"Anand Vihar, Delhi - DPCC",02-11-2025 07:00:00,28.647622,77.3158090,PM10,189,500,354
India,Delhi,Delhi,"Anand Vihar, Delhi - DPCC",02-11-2025 07:00:00,28.647622,77.3158090,SO2,5,95,38
India,Delhi,Delhi,"Anand Vihar, Delhi - DPCC",02-11-2025 07:00:00,28.647622,77.3158090,OZONE,18,51,19
India,Delhi,Delhi,"Ashok Vihar, Delhi - DPCC",02-11-2025 07:00:00,28.695381,77.181665,PM10,187,455,335
India,Bihar,Patna,"DRM Office Danapur, Patna - BSPCB",02-11-2025 07:00:00,25.586562,85.043586,CO,30,45,32
India,Bihar,Patna,"Govt. High School Shikarpur, Patna - BSPCB",02-11-2025 07:00:00,25.592539,85.227158,PM2.5,25,40,30
India,Bihar,Patna,"Govt. High School Shikarpur, Patna - BSPCB",02-11-2025 07:00:00,25.592539,85.227158,NO2,6,11,8
India,Bihar,Patna,"Govt. High School Shikarpur, Patna - BSPCB",02-11-2025 07:00:00,25.592539,85.227158,NH3,4,5,5
India,Bihar,Patna,"Muradpur, Patna - BSPCB",02-11-2025 07:00:00,25.619651,85.147382,NO2,7,9,8
India,Bihar,Patna,"Muradpur, Patna - BSPCB",02-11-2025 07:00:00,25.619651,85.147382,CO,40,76,58
India,Bihar,Patna,"Rajbansi Nagar, Patna - BSPCB",02-11-2025 07:00:00,25.599486,85.113666,NH3,7,9,8
India,Delhi,Delhi,"Ashok Vihar, Delhi - DPCC",02-11-2025 07:00:00,28.695381,77.181665,CO,40,114,77
India,Delhi,Delhi,"Aya Nagar, Delhi - IMD",02-11-2025 07:00:00,28.4706914,77.1099364,NO2,23,73,44
India,Delhi,Delhi,"Aya Nagar, Delhi - IMD",02-11-2025 07:00:00,28.4706914,77.1099364,CO,24,91,51
India,Delhi,Delhi,"Burari Crossing, Delhi - IMD",02-11-2025 07:00:00,28.7256504,77.2011573,OZONE,12,158,15
India,Delhi,Delhi,"CRRI Mathura Road, Delhi - IMD",02-11-2025 07:00:00,28.5512005,77.2735737,PM2.5,300,472,396
India,Delhi,Delhi,"CRRI Mathura Road, Delhi - IMD",02-11-2025 07:00:00,28.5512005,77.2735737,NO2,23,90,49
India,Chhattisgarh,Bilaspur,"Mangala, Bilaspur - NTPC",02-11-2025 07:00:00,22.08815,82.13737,SO2,8,14,10
India,Chhattisgarh,Korba,"Rampur, Korba - CECB",02-11-2025 07:00:00,22.368195,82.746431,NO2,4,9,6
India,Chhattisgarh,Korba,"Rampur, Korba - CECB",02-11-2025 07:00:00,22.368195,82.746431,NH3,2,2,2
India,Chhattisgarh,Korba,"Rampur, Korba - CECB",02-11-2025 07:00:00,22.368195,82.746431,SO2,5,13,9
India,Chhattisgarh,Korba,"Urja Nagar, Korba - CECB",02-11-2025 07:00:00,22.348441,82.549611,NH3,1,2,2
India,Chhattisgarh,Kunjemura,"OP Jindal School, Kunjemura - CECB",02-11-2025 07:00:00,22.126650,83.483212,PM2.5,2,8,4
India,Delhi,Delhi,"Chandni Chowk, Delhi - IITM",02-11-2025 07:00:00,28.656756,77.227234,PM10,245,474,414
India,Delhi,Delhi,"Chandni Chowk, Delhi - IITM",02-11-2025 07:00:00,28.656756,77.227234,NO2,9,20,14
India,Delhi,Delhi,"Chandni Chowk, Delhi - IITM",02-11-2025 07:00:00,28.656756,77.227234,OZONE,1,80,2
India,Delhi,Delhi,"DTU, Delhi - CPCB",02-11-2025 07:00:00,28.7500499,77.1112615,NH3,7,16,13
India,Delhi,Delhi,"DTU, Delhi - CPCB",02-11-2025 07:00:00,28.7500499,77.1112615,CO,62,90,82
India,Delhi,Delhi,"Dwarka-Sector 8, Delhi - DPCC ",02-11-2025 07:00:00,28.5710274,77.0719006,PM2.5,260,472,407
India,Chhattisgarh,Milupara,"Govt. Higher Secondary School, Milupara - CECB",02-11-2025 07:00:00,22.1910172,83.5197009,OZONE,15,45,15
India,Chhattisgarh,Raipur,"AIIMS, Raipur - CECB",02-11-2025 07:00:00,21.258815,81.578979,PM2.5,6,39,20
India,Chhattisgarh,Raipur,"AIIMS, Raipur - CECB",02-11-2025 07:00:00,21.258815,81.578979,NH3,4,5,5
India,Chhattisgarh,Raipur,"Bhatagaon New ISBT, Raipur - CECB",02-11-2025 07:00:00,21.219665,81.630094,CO,21,66,35
India,Bihar,Samastipur,"DM Office_Kasipur, Samastipur - BSPCB",02-11-2025 07:00:00,25.859655,85.77944,NH3,NA,NA,NA
India,Bihar,Sasaram,"Dada Peer, Sasaram - BSPCB",02-11-2025 07:00:00,24.952822,84.002396,NH3,3,6,3
India,Bihar,Sasaram,"Dada Peer, Sasaram - BSPCB",02-11-2025 07:00:00,24.952822,84.002396,CO,48,95,53
India,Chandigarh,Chandigarh,"Sector-25, Chandigarh - CPCC",02-11-2025 07:00:00,30.751462,76.762879,PM2.5,89,280,174
India,Bihar,Patna,"Samanpura, Patna - BSPCB",02-11-2025 07:00:00,25.596727,85.085624,NO2,37,56,45
India,Bihar,Rajgir,"Dangi Tola, Rajgir - BSPCB",02-11-2025 07:00:00,25.03280,85.41948,NH3,6,7,6
India,Bihar,Rajgir,"Dangi Tola, Rajgir - BSPCB",02-11-2025 07:00:00,25.03280,85.41948,OZONE,31,34,32
India,Bihar,Saharsa,"Police Line, Saharsa - BSPCB",02-11-2025 07:00:00,25.892357,86.590325,SO2,15,17,16
India,Delhi,Delhi,"Najafgarh, Delhi - DPCC",02-11-2025 07:00:00,28.570173,76.933762,CO,35,89,68
India,Delhi,Delhi,"Narela, Delhi - DPCC",02-11-2025 07:00:00,28.822836,77.101981,NO2,23,53,38
India,Delhi,Delhi,"Narela, Delhi - DPCC",02-11-2025 07:00:00,28.822836,77.101981,SO2,6,25,13
India,Delhi,Delhi,"Nehru Nagar, Delhi - DPCC",02-11-2025 07:00:00,28.567890,77.250515,PM10,157,452,311
India,Delhi,Delhi,"Nehru Nagar, Delhi - DPCC",02-11-2025 07:00:00,28.567890,77.250515,NO2,36,113,71
India,Delhi,Delhi,"North Campus, DU, Delhi - IMD",02-11-2025 07:00:00,28.6573814,77.1585447,OZONE,31,162,36
India,Delhi,Delhi,"Okhla Phase-2, Delhi - DPCC",02-11-2025 07:00:00,28.530785,77.271255,SO2,11,17,14
India,Delhi,Delhi,"Okhla Phase-2, Delhi - DPCC",02-11-2025 07:00:00,28.530785,77.271255,OZONE,5,141,7
India,Delhi,Delhi,"Patparganj, Delhi - DPCC",02-11-2025 07:00:00,28.623763,77.287209,PM10,181,436,328
India,Delhi,Delhi,"Patparganj, Delhi - DPCC",02-11-2025 07:00:00,28.623763,77.287209,NH3,9,12,11
India,Delhi,Delhi,"Jawaharlal Nehru Stadium, Delhi - DPCC",02-11-2025 07:00:00,28.580280,77.233829,NO2,46,152,100
India,Delhi,Delhi,"Jawaharlal Nehru Stadium, Delhi - DPCC",02-11-2025 07:00:00,28.580280,77.233829,NH3,1,14,3
India,Delhi,Delhi,"Jawaharlal Nehru Stadium, Delhi - DPCC",02-11-2025 07:00:00,28.580280,77.233829,SO2,14,34,20
India,Delhi,Delhi,"Jawaharlal Nehru Stadium, Delhi - DPCC",02-11-2025 07:00:00,28.580280,77.233829,OZONE,5,146,6
India,Delhi,Delhi,"Lodhi Road, Delhi - IITM",02-11-2025 07:00:00,28.588333,77.221667,PM2.5,98,385,313
India,Delhi,Delhi,"Lodhi Road, Delhi - IMD",02-11-2025 07:00:00,28.5918245,77.2273074,OZONE,33,195,40
India,Delhi,Delhi,"Major Dhyan Chand National Stadium, Delhi - DPCC",02-11-2025 07:00:00,28.611281,77.237738,PM10,143,417,280
India,Delhi,Delhi,"Major Dhyan Chand National Stadium, Delhi - DPCC",02-11-2025 07:00:00,28.611281,77.237738,NO2,48,143,94
India,Delhi,Delhi,"Mandir Marg, Delhi - DPCC",02-11-2025 07:00:00,28.636429,77.201067,PM10,124,414,251
India,Delhi,Delhi,"Patparganj, Delhi - DPCC",02-11-2025 07:00:00,28.623763,77.287209,SO2,5,10,8
India,Delhi,Delhi,"Patparganj, Delhi - DPCC",02-11-2025 07:00:00,28.623763,77.287209,OZONE,5,130,6
India,Delhi,Delhi,"Punjabi Bagh, Delhi - DPCC",02-11-2025 07:00:00,28.674045,77.131023,NO2,38,67,52
India,Delhi,Delhi,"Punjabi Bagh, Delhi - DPCC",02-11-2025 07:00:00,28.674045,77.131023,NH3,3,4,4
India,Delhi,Delhi,"Punjabi Bagh, Delhi - DPCC",02-11-2025 07:00:00,28.674045,77.131023,SO2,8,22,14
India,Delhi,Delhi,"Pusa, Delhi - DPCC",02-11-2025 07:00:00,28.639652,77.146275,NH3,10,24,19
India,Delhi,Delhi,"Pusa, Delhi - DPCC",02-11-2025 07:00:00,28.639652,77.146275,CO,65,112,85
India,Delhi,Delhi,"Pusa, Delhi - IMD",02-11-2025 07:00:00,28.636110,77.173332,PM10,97,484,296
India,Delhi,Delhi,"R K Puram, Delhi - DPCC",02-11-2025 07:00:00,28.563262,77.186937,NO2,38,127,83
India,Delhi,Delhi,"Dwarka-Sector 8, Delhi - DPCC ",02-11-2025 07:00:00,28.5710274,77.0719006,CO,74,129,90
India,Delhi,Delhi,"IGI Airport (T3), Delhi - IMD",02-11-2025 07:00:00,28.5627763,77.1180053,PM10,191,433,349
India,Delhi,Delhi,"IHBAS, Dilshad Garden, Delhi - CPCB",02-11-2025 07:00:00,28.6811736,77.3025234,PM2.5,113,320,270
India,Delhi,Delhi,"IHBAS, Dilshad Garden, Delhi - CPCB",02-11-2025 07:00:00,28.6811736,77.3025234,SO2,20,31,25
India,Delhi,Delhi,"ITO, Delhi - CPCB",02-11-2025 07:00:00,28.628624,77.241060,PM10,125,358,192
India,Delhi,Delhi,"ITO, Delhi - CPCB",02-11-2025 07:00:00,28.628624,77.241060,SO2,8,27,17
India,Delhi,Delhi,"Jahangirpuri, Delhi - DPCC",02-11-2025 07:00:00,28.732820,77.170633,NH3,3,7,5
India,Gujarat,Ahmedabad,"SVPI Airport Hansol, Ahmedabad - IITM",02-11-2025 07:00:00,23.076793,72.627874,NH3,2,4,3
India,Gujarat,Ankleshwar,"GIDC, Ankleshwar - GPCB",02-11-2025 07:00:00,21.613267,73.010555,NO2,16,21,19
India,Gujarat,Ankleshwar,"GIDC, Ankleshwar - GPCB",02-11-2025 07:00:00,21.613267,73.010555,NH3,4,4,4
India,Gujarat,Ankleshwar,"GIDC, Ankleshwar - GPCB",02-11-2025 07:00:00,21.613267,73.010555,SO2,51,57,52
India,Gujarat,Ankleshwar,"GIDC, Ankleshwar - GPCB",02-11-2025 07:00:00,21.613267,73.010555,CO,26,52,45
India,Gujarat,Gandhinagar,"GIFT City, Gandhinagar - IITM",02-11-2025 07:00:00,23.163798,72.677768,CO,26,44,41
India,Gujarat,Gandhinagar,"IIPHG Lekawada, Gandhinagar - IITM",02-11-2025 07:00:00,23.243639,72.68994,PM2.5,13,32,22
India,Delhi,Delhi,"Sirifort, Delhi - CPCB",02-11-2025 07:00:00,28.5504249,77.2159377,PM2.5,315,469,403
India,Delhi,Delhi,"Sirifort, Delhi - CPCB",02-11-2025 07:00:00,28.5504249,77.2159377,PM10,168,498,337
India,Delhi,Delhi,"Sirifort, Delhi - CPCB",02-11-2025 07:00:00,28.5504249,77.2159377,NO2,41,57,49
India,Delhi,Delhi,"Sirifort, Delhi - CPCB",02-11-2025 07:00:00,28.5504249,77.2159377,NH3,7,12,10
India,Delhi,Delhi,"Sonia Vihar, Delhi - DPCC",02-11-2025 07:00:00,28.710508,77.249485,PM10,145,429,280
India,Delhi,Delhi,"Sonia Vihar, Delhi - DPCC",02-11-2025 07:00:00,28.710508,77.249485,NO2,23,71,48
India,Delhi,Delhi,"Sonia Vihar, Delhi - DPCC",02-11-2025 07:00:00,28.710508,77.249485,SO2,38,45,40
India,Delhi,Delhi,"Sri Aurobindo Marg, Delhi - DPCC",02-11-2025 07:00:00,28.531346,77.190156,PM10,112,389,244
India,Delhi,Delhi,"Sri Aurobindo Marg, Delhi - DPCC",02-11-2025 07:00:00,28.531346,77.190156,CO,57,96,76
India,Delhi,Delhi,"Vivek Vihar, Delhi - DPCC",02-11-2025 07:00:00,28.672342,77.315260,PM2.5,308,500,407
India,Delhi,Delhi,"Wazirpur, Delhi - DPCC",02-11-2025 07:00:00,28.699793,77.165453,NH3,10,13,12
India,Gujarat,Ahmedabad,"Chandkheda, Ahmedabad - IITM",02-11-2025 07:00:00,23.107969,72.574648,SO2,5,19,12
India,Gujarat,Ahmedabad,"Gyaspur, Ahmedabad - IITM",02-11-2025 07:00:00,22.977134,72.553024,PM10,44,91,67
India,Gujarat,Ahmedabad,"Raikhad, Ahmedabad - IITM",02-11-2025 07:00:00,23.020509,72.579261,SO2,9,13,11
India,Gujarat,Ahmedabad,"Raikhad, Ahmedabad - IITM",02-11-2025 07:00:00,23.020509,72.579261,CO,23,108,73
India,Gujarat,Ahmedabad,"Rakhial, Ahmedabad - IITM",02-11-2025 07:00:00,23.016834,72.625775,PM2.5,4,56,36
India,Gujarat,Ahmedabad,"SAC ISRO Bopal, Ahmedabad - IITM",02-11-2025 07:00:00,23.041137,72.456691,PM2.5,5,65,26
India,Gujarat,Ahmedabad,"SAC ISRO Satellite, Ahmedabad - IITM",02-11-2025 07:00:00,23.023389,72.515201,SO2,3,7,5
India,Delhi,Delhi,"Najafgarh, Delhi - DPCC",02-11-2025 07:00:00,28.570173,76.933762,PM10,94,395,261
India,Haryana,Fatehabad,"Huda Sector, Fatehabad - HSPCB",02-11-2025 07:00:00,29.503664,75.467934,CO,25,32,28
India,Haryana,Gurugram,"NISE Gwal Pahari, Gurugram - IMD",02-11-2025 07:00:00,28.422681,77.148944,OZONE,3,66,4
India,Haryana,Gurugram,"Sector-51, Gurugram - HSPCB",02-11-2025 07:00:00,28.4227,77.0667,PM2.5,68,279,259
India,Haryana,Gurugram,"Sector-51, Gurugram - HSPCB",02-11-2025 07:00:00,28.4227,77.0667,PM10,213,500,411
India,Haryana,Gurugram,"Teri Gram, Gurugram - HSPCB",02-11-2025 07:00:00,28.4275,77.1465,CO,103,119,114
India,Haryana,Gurugram,"Teri Gram, Gurugram - HSPCB",02-11-2025 07:00:00,28.4275,77.1465,OZONE,24,24,24
India,Haryana,Gurugram,"Vikas Sadan, Gurugram - HSPCB",02-11-2025 07:00:00,28.4501238,77.0263051,NO2,9,45,26
India,Haryana,Gurugram,"Vikas Sadan, Gurugram - HSPCB",02-11-2025 07:00:00,28.4501238,77.0263051,CO,102,139,119
India,Haryana,Gurugram,"Vikas Sadan, Gurugram - HSPCB",02-11-2025 07:00:00,28.4501238,77.0263051,OZONE,8,55,17
India,Haryana,Kurukshetra,"Sector-7, Kurukshetra - HSPCB",02-11-2025 07:00:00,29.966942,76.875879,NH3,5,5,5
India,Haryana,Mandikhera,"General Hospital, Mandikhera - HSPCB",02-11-2025 07:00:00,27.9002,76.9938,SO2,30,37,34
India,Haryana,Mandikhera,"General Hospital, Mandikhera - HSPCB",02-11-2025 07:00:00,27.9002,76.9938,CO,76,102,97
India,Haryana,Manesar,"Sector-2 IMT, Manesar - HSPCB",02-11-2025 07:00:00,28.360699,76.936090,PM2.5,73,412,272
India,Haryana,Manesar,"Sector-2 IMT, Manesar - HSPCB",02-11-2025 07:00:00,28.360699,76.936090,NO2,32,36,34
India,Haryana,Narnaul,"Shastri Nagar, Narnaul - HSPCB",02-11-2025 07:00:00,28.060249,76.113115,PM2.5,168,308,216
India,Haryana,Narnaul,"Shastri Nagar, Narnaul - HSPCB",02-11-2025 07:00:00,28.060249,76.113115,NH3,5,18,10
India,Haryana,Narnaul,"Shastri Nagar, Narnaul - HSPCB",02-11-2025 07:00:00,28.060249,76.113115,CO,40,63,52
India,Gujarat,Gandhinagar,"Sector-10, Gandhinagar - GPCB",02-11-2025 07:00:00,23.221714,72.654328,OZONE,6,21,8
India,Gujarat,Surat,"Science Center, Surat - SMC",02-11-2025 07:00:00,21.170046,72.795405,PM10,16,74,46
India,Gujarat,Surat,"Science Center, Surat - SMC",02-11-2025 07:00:00,21.170046,72.795405,NO2,15,28,21
India,Gujarat,Surat,"Science Center, Surat - SMC",02-11-2025 07:00:00,21.170046,72.795405,SO2,31,38,34
India,Gujarat,Surat,"Science Center, Surat - SMC",02-11-2025 07:00:00,21.170046,72.795405,CO,34,36,36
India,Gujarat,Vatva,"Phase-4 GIDC, Vatva - GPCB",02-11-2025 07:00:00,22.969611,72.643500,NH3,1,2,1
India,Haryana,Ambala,"Patti Mehar, Ambala - HSPCB",02-11-2025 07:00:00,30.379589,76.778328,NO2,NA,NA,NA
India,Haryana,Palwal,"Shyam Nagar, Palwal - HSPCB",02-11-2025 07:00:00,28.1485564,77.3320667,NO2,23,24,24
India,Haryana,Panchgaon,"Amity University, Panchgaon - IITM",02-11-2025 07:00:00,28.3153,76.9143,PM10,42,164,107
India,Haryana,Panipat,"Sector-18, Panipat - HSPCB",02-11-2025 07:00:00,29.432304,76.972765,PM10,24,500,242
India,Haryana,Panipat,"Sector-18, Panipat - HSPCB",02-11-2025 07:00:00,29.432304,76.972765,NO2,31,32,31
India,Haryana,Panipat,"Sector-18, Panipat - HSPCB",02-11-2025 07:00:00,29.432304,76.972765,NH3,2,3,3
India,Haryana,Rohtak,"MD University, Rohtak - HSPCB",02-11-2025 07:00:00,28.52123,76.37138,NO2,NA,NA,NA
India,Haryana,Rohtak,"MD University, Rohtak - HSPCB",02-11-2025 07:00:00,28.52123,76.37138,OZONE,NA,NA,NA
India,Haryana,Hisar,"Urban Estate-II, Hisar - HSPCB",02-11-2025 07:00:00,29.140560,75.744941,SO2,11,14,12
India,Haryana,Hisar,"Urban Estate-II, Hisar - HSPCB",02-11-2025 07:00:00,29.140560,75.744941,CO,42,114,57
India,Haryana,Kaithal,"Rishi Nagar, Kaithal - HSPCB",02-11-2025 07:00:00,29.8006,76.4155,PM2.5,96,493,333
India,Haryana,Karnal,"Sector-12, Karnal - HSPCB",02-11-2025 07:00:00,29.695300,77.002700,PM10,2,500,299
India,Haryana,Karnal,"Sector-12, Karnal - HSPCB",02-11-2025 07:00:00,29.695300,77.002700,NO2,9,11,10
India,Haryana,Kurukshetra,"Sector-7, Kurukshetra - HSPCB",02-11-2025 07:00:00,29.966942,76.875879,PM10,163,496,296
India,Haryana,Ballabgarh,"Nathu Colony, Ballabgarh - HSPCB",02-11-2025 07:00:00,28.3419248,77.319699,PM2.5,317,321,319
India,Haryana,Ballabgarh,"Nathu Colony, Ballabgarh - HSPCB",02-11-2025 07:00:00,28.3419248,77.319699,PM10,268,290,281
India,Haryana,Ballabgarh,"Nathu Colony, Ballabgarh - HSPCB",02-11-2025 07:00:00,28.3419248,77.319699,OZONE,15,15,15
India,Haryana,Bhiwani,"H.B. Colony, Bhiwani - HSPCB",02-11-2025 07:00:00,28.806223,76.141105,NH3,1,9,8
India,Haryana,Bhiwani,"H.B. Colony, Bhiwani - HSPCB",02-11-2025 07:00:00,28.806223,76.141105,CO,8,14,13
India,Haryana,Charkhi Dadri,"Mini Secretariat, Charkhi Dadri - HSPCB",02-11-2025 07:00:00,28.593883,76.270653,SO2,10,11,10
India,Haryana,Charkhi Dadri,"Mini Secretariat, Charkhi Dadri - HSPCB",02-11-2025 07:00:00,28.593883,76.270653,CO,7,25,15
India,Haryana,Faridabad,"New Industrial Town, Faridabad - HSPCB",02-11-2025 07:00:00,28.39072,77.30059,NH3,11,12,11
India,Haryana,Faridabad,"New Industrial Town, Faridabad - HSPCB",02-11-2025 07:00:00,28.39072,77.30059,OZONE,26,36,30
India,Karnataka,Belgaum,"Ramteerth Nagar, Belgaum - KSPCB",02-11-2025 07:00:00,15.888653,74.541751,NO2,45,95,70
India,Karnataka,Bengaluru,"BTM Layout, Bengaluru - CPCB",02-11-2025 07:00:00,12.9135218,77.5950804,PM10,56,57,56
India,Karnataka,Bengaluru,"BWSSB Kadabesanahalli, Bengaluru - CPCB",02-11-2025 07:00:00,12.9352049,77.6814488,PM10,44,141,93
India,Haryana,Sirsa,"F-Block, Sirsa - HSPCB",02-11-2025 07:00:00,29.536400,75.015800,NH3,11,18,14
India,Haryana,Sirsa,"F-Block, Sirsa - HSPCB",02-11-2025 07:00:00,29.536400,75.015800,OZONE,48,76,58
India,Himachal Pradesh,Baddi,"HIMUDA Complex Phase-1, Baddi - HPPCB",02-11-2025 07:00:00,30.943887,76.801991,OZONE,13,207,31
India,Karnataka,Haveri,"Ashwini Nagar, Haveri - KSPCB",02-11-2025 07:00:00,14.791800,75.389600,NH3,7,7,7
India,Karnataka,Haveri,"Ashwini Nagar, Haveri - KSPCB",02-11-2025 07:00:00,14.791800,75.389600,CO,26,32,29
India,Karnataka,Hubballi,"Lingaraj Nagar, Hubballi - KSPCB",02-11-2025 07:00:00,15.3714823,75.1160168,PM2.5,37,50,43
India,Karnataka,Hubballi,"Lingaraj Nagar, Hubballi - KSPCB",02-11-2025 07:00:00,15.3714823,75.1160168,NO2,10,10,10
India,Karnataka,Kalaburagi,"Lal Bahadur Shastri Nagar, Kalaburagi - KSPCB",02-11-2025 07:00:00,17.321993,76.822628,PM10,NA,NA,NA
India,Karnataka,Kalaburagi,"Lal Bahadur Shastri Nagar, Kalaburagi - KSPCB",02-11-2025 07:00:00,17.321993,76.822628,NO2,12,12,12
India,Karnataka,Koppal,"Diwator Nagar, Koppal - KSPCB",02-11-2025 07:00:00,15.347630,76.181767,NO2,26,31,30
India,Karnataka,Madikeri,"Stuart Hill, Madikeri - KSPCB",02-11-2025 07:00:00,12.415911,75.735050,PM10,NA,NA,NA
India,Karnataka,Mangalore,"Kadri, Mangalore - KSPCB",02-11-2025 07:00:00,12.889250,74.853000,PM10,41,74,56
India,Karnataka,Vijayapura,"Ibrahimpur, Vijayapura - KSPCB",02-11-2025 07:00:00,16.802639,75.722694,OZONE,14,17,16
India,Karnataka,Yadgir,"Collector Office, Yadgir - KSPCB",02-11-2025 07:00:00,16.7602,77.1428,SO2,12,20,16
India,Karnataka,Yadgir,"Collector Office, Yadgir - KSPCB",02-11-2025 07:00:00,16.7602,77.1428,CO,12,24,13
India,Karnataka,Yadgir,"Collector Office, Yadgir - KSPCB",02-11-2025 07:00:00,16.7602,77.1428,OZONE,17,19,18
India,Kerala,Eloor,"Udyogamandal, Eloor - Kerala PCB",02-11-2025 07:00:00,10.073232,76.302765,PM10,NA,NA,NA
India,Kerala,Kannur,"Thavakkara, Kannur - Kerala PCB",02-11-2025 07:00:00,11.875000,75.373200,PM2.5,45,50,48
India,Kerala,Kannur,"Thavakkara, Kannur - Kerala PCB",02-11-2025 07:00:00,11.875000,75.373200,CO,14,16,14
India,Kerala,Kollam,"Polayathode, Kollam - Kerala PCB",02-11-2025 07:00:00,8.8787,76.6073,CO,14,16,16
India,Karnataka,Bengaluru,"Sanegurava Halli, Bengaluru - KSPCB",02-11-2025 07:00:00,12.990328,77.5431385,NO2,20,23,21
India,Karnataka,Bengaluru,"Sanegurava Halli, Bengaluru - KSPCB",02-11-2025 07:00:00,12.990328,77.5431385,CO,16,56,30
India,Karnataka,Bengaluru,"Shivapura_Peenya, Bengaluru - KSPCB",02-11-2025 07:00:00,13.0246342,77.5080115,OZONE,19,20,20
India,Karnataka,Bengaluru,"Silk Board, Bengaluru - KSPCB",02-11-2025 07:00:00,12.917348,77.622813,SO2,3,13,7
India,Karnataka,Bengaluru,"Silk Board, Bengaluru - KSPCB",02-11-2025 07:00:00,12.917348,77.622813,OZONE,18,19,19
India,Karnataka,Chamarajanagar,"Urban, Chamarajanagar - KSPCB",02-11-2025 07:00:00,11.55358,76.55521,PM10,44,55,47
India,Karnataka,Chamarajanagar,"Urban, Chamarajanagar - KSPCB",02-11-2025 07:00:00,11.55358,76.55521,NO2,24,36,30
India,Karnataka,Chamarajanagar,"Urban, Chamarajanagar - KSPCB",02-11-2025 07:00:00,11.55358,76.55521,CO,22,120,33
India,Karnataka,Mangalore,"Kadri, Mangalore - KSPCB",02-11-2025 07:00:00,12.889250,74.853000,SO2,13,14,14
India,Karnataka,Mysuru,"Hebbal 1st Stage, Mysuru - KSPCB",02-11-2025 07:00:00,12.21041,76.37376,PM2.5,15,31,22
India,Karnataka,Ramanagara,"Vijay Nagar, Ramanagara - KSPCB",02-11-2025 07:00:00,12.733409,77.298051,SO2,14,25,19
India,Karnataka,Udupi,"Brahmagiri, Udupi - KSPCB",02-11-2025 07:00:00,13.34194444,74.74694444,SO2,8,8,8
India,Karnataka,Udupi,"Brahmagiri, Udupi - KSPCB",02-11-2025 07:00:00,13.34194444,74.74694444,CO,54,55,55
India,Karnataka,Vijayapura,"Ibrahimpur, Vijayapura - KSPCB",02-11-2025 07:00:00,16.802639,75.722694,NO2,11,12,11
India,Karnataka,Bengaluru,"BWSSB Kadabesanahalli, Bengaluru - CPCB",02-11-2025 07:00:00,12.9352049,77.6814488,OZONE,29,29,29
India,Karnataka,Bengaluru,"Bapuji Nagar, Bengaluru - KSPCB",02-11-2025 07:00:00,12.951913,77.539784,CO,20,113,58
India,Karnataka,Bengaluru,"Hebbal, Bengaluru - KSPCB",02-11-2025 07:00:00,13.029152,77.585901,PM10,36,128,65
India,Karnataka,Bengaluru,"Hombegowda Nagar, Bengaluru - KSPCB",02-11-2025 07:00:00,12.938539,77.590100,NH3,1,2,2
India,Karnataka,Bengaluru,"Hombegowda Nagar, Bengaluru - KSPCB",02-11-2025 07:00:00,12.938539,77.590100,CO,10,88,36
India,Karnataka,Bengaluru,"Jayanagar 5th Block, Bengaluru - KSPCB",02-11-2025 07:00:00,12.920984,77.584908,PM2.5,23,87,50
India,Karnataka,Chikkamagaluru,"Kalyana Nagara, Chikkamagaluru - KSPCB",02-11-2025 07:00:00,13.328028,75.797056,PM2.5,18,48,32
India,Karnataka,Chikkamagaluru,"Kalyana Nagara, Chikkamagaluru - KSPCB",02-11-2025 07:00:00,13.328028,75.797056,CO,11,11,11
India,Karnataka,Chikkamagaluru,"Kalyana Nagara, Chikkamagaluru - KSPCB",02-11-2025 07:00:00,13.328028,75.797056,OZONE,39,39,39
India,Karnataka,Davanagere,"Devaraj Urs Badavane, Davanagere - KSPCB",02-11-2025 07:00:00,14.475800,75.905200,CO,34,39,36
India,Karnataka,Dharwad,"Kalabhavan, Dharwad - KSPCB",02-11-2025 07:00:00,15.459706,75.008381,SO2,NA,NA,NA
India,Karnataka,Gadag,"Panchal Nagar, Gadag - KSPCB",02-11-2025 07:00:00,15.411456,75.638133,NH3,3,4,3
India,Madhya Pradesh,Bhopal,"Paryavaran Parisar, Bhopal - MPPCB",02-11-2025 07:00:00,23.210494,77.425409,NO2,13,47,28
India,Madhya Pradesh,Bhopal,"Paryavaran Parisar, Bhopal - MPPCB",02-11-2025 07:00:00,23.210494,77.425409,CO,11,58,40
India,Madhya Pradesh,Bhopal,"T T Nagar, Bhopal - MPPCB",02-11-2025 07:00:00,23.233584,77.400574,SO2,5,10,8
India,Madhya Pradesh,Bhopal,"T T Nagar, Bhopal - MPPCB",02-11-2025 07:00:00,23.233584,77.400574,CO,35,102,64
India,Madhya Pradesh,Damoh,"Shrivastav Colony, Damoh - MPPCB",02-11-2025 07:00:00,23.81748678,79.446246,SO2,38,79,51
India,Madhya Pradesh,Gwalior,"City Center, Gwalior - MPPCB",02-11-2025 07:00:00,26.203442,78.193251,CO,12,111,39
India,Kerala,Thiruvananthapuram,"Kariavattom, Thiruvananthapuram - Kerala PCB",02-11-2025 07:00:00,8.563700,76.886500,NO2,6,7,7
India,Kerala,Thrissur,"Corporation Ground, Thrissur - Kerala PCB",02-11-2025 07:00:00,10.532400,76.215900,PM2.5,50,59,54
India,Kerala,Thrissur,"Corporation Ground, Thrissur - Kerala PCB",02-11-2025 07:00:00,10.532400,76.215900,CO,23,38,35
India,Madhya Pradesh,Bhopal,"Idgah Hills, Bhopal - MPPCB",02-11-2025 07:00:00,23.264759,77.381568,OZONE,3,41,10
India,Karnataka,Bengaluru,"Jigani, Bengaluru - KSPCB",02-11-2025 07:00:00,12.7816279,77.6299145,PM2.5,38,427,66
India,Karnataka,Bengaluru,"Jigani, Bengaluru - KSPCB",02-11-2025 07:00:00,12.7816279,77.6299145,SO2,21,21,21
India,Karnataka,Bengaluru,"Kasturi Nagar, Bengaluru - KSPCB",02-11-2025 07:00:00,13.003872,77.664217,NO2,38,39,38
India,Karnataka,Bengaluru,"RVCE-Mailasandra, Bengaluru - KSPCB",02-11-2025 07:00:00,12.921418,77.502466,NO2,18,24,22
India,Karnataka,Bengaluru,"RVCE-Mailasandra, Bengaluru - KSPCB",02-11-2025 07:00:00,12.921418,77.502466,CO,26,48,44
India,Madhya Pradesh,Gwalior,"City Center, Gwalior - MPPCB",02-11-2025 07:00:00,26.203442,78.193251,OZONE,3,53,17
India,Madhya Pradesh,Gwalior,"Deen Dayal Nagar, Gwalior - MPPCB",02-11-2025 07:00:00,26.259242,78.216432,PM10,34,434,188
India,Madhya Pradesh,Gwalior,"Deen Dayal Nagar, Gwalior - MPPCB",02-11-2025 07:00:00,26.259242,78.216432,OZONE,1,155,18
India,Madhya Pradesh,Gwalior,"Maharaj Bada, Gwalior - MPPCB",02-11-2025 07:00:00,26.200388,78.147714,PM2.5,10,474,162
India,Madhya Pradesh,Gwalior,"Maharaj Bada, Gwalior - MPPCB",02-11-2025 07:00:00,26.200388,78.147714,NH3,4,4,4
India,Madhya Pradesh,Gwalior,"Maharaj Bada, Gwalior - MPPCB",02-11-2025 07:00:00,26.200388,78.147714,OZONE,16,87,21
India,Madhya Pradesh,Indore,"Airport Area, Indore - IMC",02-11-2025 07:00:00,22.7289,75.8076,CO,4,6,6
India,Madhya Pradesh,Indore,"Chhoti Gwaltoli, Indore - MPPCB",02-11-2025 07:00:00,22.4310,75.5213,NH3,NA,NA,NA
India,Madhya Pradesh,Indore,"Maguda Nagar, Indore - IMC",02-11-2025 07:00:00,22.7524,75.8872,PM10,4,296,82
India,Madhya Pradesh,Indore,"Maguda Nagar, Indore - IMC",02-11-2025 07:00:00,22.7524,75.8872,NO2,2,2,2
India,Maharashtra,Aurangabad,"MIDC Chilkalthana, Aurangabad - MPCB",02-11-2025 07:00:00,19.875620,75.387310,OZONE,5,63,27
India,Maharashtra,Aurangabad,"More Chowk Waluj, Aurangabad - MPCB",02-11-2025 07:00:00,19.8389439,75.244448,SO2,NA,NA,NA
India,Maharashtra,Aurangabad,"Rachnakar Colony, Aurangabad - MPCB",02-11-2025 07:00:00,19.863756,75.321188,PM10,9,74,43
India,Maharashtra,Aurangabad,"Rachnakar Colony, Aurangabad - MPCB",02-11-2025 07:00:00,19.863756,75.321188,NH3,2,5,4
India,Maharashtra,Aurangabad,"Rachnakar Colony, Aurangabad - MPCB",02-11-2025 07:00:00,19.863756,75.321188,CO,14,26,16
India,Maharashtra,Aurangabad,"Rachnakar Colony, Aurangabad - MPCB",02-11-2025 07:00:00,19.863756,75.321188,OZONE,10,66,12
India,Maharashtra,Badlapur,"Katrap, Badlapur - MPCB",02-11-2025 07:00:00,19.16485,73.23409,PM10,37,130,66
India,Maharashtra,Badlapur,"Katrap, Badlapur - MPCB",02-11-2025 07:00:00,19.16485,73.23409,NO2,16,33,24
India,Maharashtra,Badlapur,"Katrap, Badlapur - MPCB",02-11-2025 07:00:00,19.16485,73.23409,NH3,4,6,5
India,Maharashtra,Badlapur,"Katrap, Badlapur - MPCB",02-11-2025 07:00:00,19.16485,73.23409,SO2,6,18,12
India,Maharashtra,Badlapur,"Katrap, Badlapur - MPCB",02-11-2025 07:00:00,19.16485,73.23409,OZONE,12,39,12
India,Maharashtra,Chandrapur,"MIDC Khutala, Chandrapur - MPCB",02-11-2025 07:00:00,19.9775302,79.2337086,OZONE,17,19,18
India,Maharashtra,Jalgaon,"Prabhat Colony, Jalgaon - MPCB",02-11-2025 07:00:00,21.001264,75.565602,PM2.5,8,221,67
India,Maharashtra,Jalgaon,"Prabhat Colony, Jalgaon - MPCB",02-11-2025 07:00:00,21.001264,75.565602,NH3,2,3,3
India,Maharashtra,Jalgaon,"Prabhat Colony, Jalgaon - MPCB",02-11-2025 07:00:00,21.001264,75.565602,SO2,3,8,7
India,Maharashtra,Jalgaon,"Prabhat Colony, Jalgaon - MPCB",02-11-2025 07:00:00,21.001264,75.565602,OZONE,2,32,17
India,Maharashtra,Jalna,"Old MIDC, Jalna - MPCB",02-11-2025 07:00:00,19.854616,75.905894,NO2,39,48,44
India,Maharashtra,Jalna,"Old MIDC, Jalna - MPCB",02-11-2025 07:00:00,19.854616,75.905894,NH3,2,5,4
India,Maharashtra,Kalyan,"Pimpleshwar Mandir, Kalyan - MPCB",02-11-2025 07:00:00,19.192056,72.9585188,NH3,3,4,3
India,Maharashtra,Kalyan,"Pimpleshwar Mandir, Kalyan - MPCB",02-11-2025 07:00:00,19.192056,72.9585188,SO2,8,9,9
India,Maharashtra,Kalyan,"Pimpleshwar Mandir, Kalyan - MPCB",02-11-2025 07:00:00,19.192056,72.9585188,OZONE,19,20,19
India,Maharashtra,Kolhapur,"Shivaji University, Kolhapur - MPCB",02-11-2025 07:00:00,16.6870449,74.2505872,NO2,6,35,17
India,Maharashtra,Kolhapur,"Shivaji University, Kolhapur - MPCB",02-11-2025 07:00:00,16.6870449,74.2505872,CO,6,36,11
India,Maharashtra,Kolhapur,"Sinchan Bhavan, Kolhapur - MPCB",02-11-2025 07:00:00,16.7143745,74.2426398,PM10,13,54,30
India,Maharashtra,Kolhapur,"Sinchan Bhavan, Kolhapur - MPCB",02-11-2025 07:00:00,16.7143745,74.2426398,NO2,3,12,8
India,Maharashtra,Kolhapur,"Sinchan Bhavan, Kolhapur - MPCB",02-11-2025 07:00:00,16.7143745,74.2426398,NH3,5,12,8
India,Maharashtra,Latur,"Sawe Wadi, Latur - MPCB",02-11-2025 07:00:00,18.39963,76.57452,NO2,4,57,19
India,Maharashtra,Mahad,"Kamble Tarf Birwadi, Mahad - MPCB",02-11-2025 07:00:00,18.1023399,73.4783687,PM2.5,NA,NA,NA
India,Maharashtra,Mahad,"Kamble Tarf Birwadi, Mahad - MPCB",02-11-2025 07:00:00,18.1023399,73.4783687,OZONE,13,54,30
India,Maharashtra,Ahmednagar,"Tarakpur, Ahmednagar - MPCB",02-11-2025 07:00:00,19.10122,74.73339,PM2.5,8,60,27
India,Maharashtra,Ahmednagar,"Tarakpur, Ahmednagar - MPCB",02-11-2025 07:00:00,19.10122,74.73339,NH3,4,7,6
India,Maharashtra,Ahmednagar,"Tarakpur, Ahmednagar - MPCB",02-11-2025 07:00:00,19.10122,74.73339,SO2,4,33,15
India,Maharashtra,Akola,"Ramdaspeth, Akola - MPCB",02-11-2025 07:00:00,20.719516,77.000253,PM2.5,11,219,39
India,Maharashtra,Akola,"Ramdaspeth, Akola - MPCB",02-11-2025 07:00:00,20.719516,77.000253,CO,16,70,18
India,Maharashtra,Amravati,"Shivneri Colony, Amravati - MPCB",02-11-2025 07:00:00,20.9402359,77.7895248,NH3,2,6,3
India,Maharashtra,Amravati,"Shri Shivaji Science College, Amravati - MPCB",02-11-2025 07:00:00,20.939198,77.765701,NO2,2,45,14
India,Maharashtra,Bhiwandi,"Gokul Nagar, Bhiwandi - MPCB",02-11-2025 07:00:00,19.309073,73.057223,PM2.5,30,60,41
India,Maharashtra,Bhiwandi,"Gokul Nagar, Bhiwandi - MPCB",02-11-2025 07:00:00,19.309073,73.057223,NO2,15,25,20
India,Maharashtra,Boisar,"Khaira, Boisar - MPCB",02-11-2025 07:00:00,19.786089,72.757971,SO2,13,31,30
India,Maharashtra,Boisar,"Khaira, Boisar - MPCB",02-11-2025 07:00:00,19.786089,72.757971,CO,9,22,12
India,Maharashtra,Chandrapur,"Chauhan Colony, Chandrapur - MPCB",02-11-2025 07:00:00,19.962900,79.298714,NH3,2,2,2
India,Maharashtra,Chandrapur,"MIDC Khutala, Chandrapur - MPCB",02-11-2025 07:00:00,19.9775302,79.2337086,SO2,8,9,9
India,Madhya Pradesh,Jabalpur,"Suhagi, Jabalpur - JMC",02-11-2025 07:00:00,23.218135,79.957770,PM10,35,208,93
India,Madhya Pradesh,Jabalpur,"Suhagi, Jabalpur - JMC",02-11-2025 07:00:00,23.218135,79.957770,NH3,2,3,2
India,Madhya Pradesh,Katni,"Gole Bazar, Katni - MPPCB",02-11-2025 07:00:00,23.50016,80.23284,PM2.5,9,446,169
India,Madhya Pradesh,Katni,"Gole Bazar, Katni - MPPCB",02-11-2025 07:00:00,23.50016,80.23284,NO2,14,58,33
India,Madhya Pradesh,Katni,"Gole Bazar, Katni - MPPCB",02-11-2025 07:00:00,23.50016,80.23284,OZONE,10,62,11
India,Madhya Pradesh,Maihar,"Sahilara, Maihar - KJS Cements",02-11-2025 07:00:00,24.2613009,80.7231783,SO2,16,17,17
India,Madhya Pradesh,Pithampur,"Sector-2 Industrial Area, Pithampur - MPPCB",02-11-2025 07:00:00,22.624758,75.675238,SO2,8,19,13
India,Madhya Pradesh,Sagar,"Civil Lines, Sagar - MPPCB",02-11-2025 07:00:00,23.838586,78.759431,PM10,11,190,50
India,Madhya Pradesh,Singrauli,"Suryakiran Bhawan NCL, Singrauli - MPPCB",02-11-2025 07:00:00,24.108970,82.645580,PM10,NA,NA,NA
India,Madhya Pradesh,Singrauli,"Suryakiran Bhawan NCL, Singrauli - MPPCB",02-11-2025 07:00:00,24.108970,82.645580,NO2,21,22,22
India,Madhya Pradesh,Indore,"Regional Park, Indore - IMC",02-11-2025 07:00:00,22.6780,75.8559,NH3,NA,NA,NA
India,Madhya Pradesh,Indore,"Regional Park, Indore - IMC",02-11-2025 07:00:00,22.6780,75.8559,OZONE,9,53,40
India,Madhya Pradesh,Jabalpur,"Govindh Bhavan Colony, Jabalpur - JMC",02-11-2025 07:00:00,23.163174,79.973061,NO2,12,19,15
India,Maharashtra,Mumbai,"Kandivali West, Mumbai - BMC",02-11-2025 07:00:00,19.215859,72.831718,PM10,12,463,71
India,Maharashtra,Mumbai,"Kherwadi_Bandra East, Mumbai - MPCB",02-11-2025 07:00:00,19.0632143,72.8456324,NH3,7,12,9
India,Maharashtra,Mumbai,"Kherwadi_Bandra East, Mumbai - MPCB",02-11-2025 07:00:00,19.0632143,72.8456324,CO,17,40,29
India,Maharashtra,Mumbai,"Khindipada-Bhandup West, Mumbai - IITM",02-11-2025 07:00:00,19.1653323,72.922099,NO2,8,21,15
India,Maharashtra,Mumbai,"Khindipada-Bhandup West, Mumbai - IITM",02-11-2025 07:00:00,19.1653323,72.922099,SO2,6,17,11
India,Maharashtra,Mumbai,"Kurla, Mumbai - MPCB",02-11-2025 07:00:00,19.0863,72.8888,PM2.5,42,69,52
India,Maharashtra,Mumbai,"Kurla, Mumbai - MPCB",02-11-2025 07:00:00,19.0863,72.8888,PM10,46,87,62
India,Maharashtra,Mumbai,"Kurla, Mumbai - MPCB",02-11-2025 07:00:00,19.0863,72.8888,NH3,1,2,1
India,Maharashtra,Mumbai,"Kurla, Mumbai - MPCB",02-11-2025 07:00:00,19.0863,72.8888,CO,5,11,9
India,Maharashtra,Mumbai,"Malad West, Mumbai - IITM",02-11-2025 07:00:00,19.19709,72.82204,PM2.5,10,53,26
India,Maharashtra,Malegaon,"Mahesh Nagar, Malegaon - MPCB",02-11-2025 07:00:00,20.555712,74.529236,PM10,NA,NA,NA
India,Maharashtra,Mira-Bhayandar,"Bhayandar West, Mira-Bhayandar - MPCB",02-11-2025 07:00:00,19.296481,72.840923,PM10,18,65,35
India,Maharashtra,Mira-Bhayandar,"Bhayandar West, Mira-Bhayandar - MPCB",02-11-2025 07:00:00,19.296481,72.840923,NO2,6,50,22
India,Maharashtra,Mira-Bhayandar,"Bhayandar West, Mira-Bhayandar - MPCB",02-11-2025 07:00:00,19.296481,72.840923,OZONE,1,35,4
India,Maharashtra,Mumbai,"Bandra Kurla Complex, Mumbai - IITM",02-11-2025 07:00:00,19.053536,72.84643,PM10,50,105,80
India,Maharashtra,Mumbai,"Bandra Kurla Complex, Mumbai - IITM",02-11-2025 07:00:00,19.053536,72.84643,CO,8,53,19
India,Maharashtra,Mumbai,"Bandra Kurla Complex, Mumbai - MPCB",02-11-2025 07:00:00,19.065931,72.862131,PM2.5,23,37,31
India,Maharashtra,Mumbai,"Bandra Kurla Complex, Mumbai - MPCB",02-11-2025 07:00:00,19.065931,72.862131,NO2,13,39,26
India,Maharashtra,Mumbai,"Bandra Kurla Complex, Mumbai - MPCB",02-11-2025 07:00:00,19.065931,72.862131,NH3,1,11,5
India,Maharashtra,Nagpur,"Ambazari, Nagpur - MPCB",02-11-2025 07:00:00,21.121801,79.04952,NH3,2,12,5
India,Maharashtra,Nagpur,"Mahal, Nagpur - MPCB",02-11-2025 07:00:00,21.14472,79.107595,PM2.5,37,76,59
India,Maharashtra,Nagpur,"Mahal, Nagpur - MPCB",02-11-2025 07:00:00,21.14472,79.107595,PM10,36,105,72
India,Maharashtra,Nagpur,"Mahal, Nagpur - MPCB",02-11-2025 07:00:00,21.14472,79.107595,NH3,2,3,2
India,Maharashtra,Nagpur,"Opp GPO Civil Lines, Nagpur - MPCB",02-11-2025 07:00:00,21.152875,79.0517531,SO2,5,36,13
India,Maharashtra,Nagpur,"Opp GPO Civil Lines, Nagpur - MPCB",02-11-2025 07:00:00,21.152875,79.0517531,OZONE,2,31,7
India,Maharashtra,Nagpur,"Ram Nagar, Nagpur - MPCB",02-11-2025 07:00:00,21.143383,79.048912,NH3,2,5,3
India,Maharashtra,Nagpur,"Ram Nagar, Nagpur - MPCB",02-11-2025 07:00:00,21.143383,79.048912,SO2,2,27,9
India,Maharashtra,Mumbai,"Chhatrapati Shivaji Intl. Airport (T2), Mumbai - MPCB",02-11-2025 07:00:00,19.10078,72.87462,OZONE,7,8,7
India,Maharashtra,Mumbai,"Colaba, Mumbai - MPCB",02-11-2025 07:00:00,18.910000,72.820000,PM10,25,47,34
India,Maharashtra,Mumbai,"Colaba, Mumbai - MPCB",02-11-2025 07:00:00,18.910000,72.820000,OZONE,10,11,11
India,Maharashtra,Mumbai,"Deonar, Mumbai - IITM",02-11-2025 07:00:00,19.04946,72.9230,SO2,1,4,3
India,Maharashtra,Mumbai,"Deonar, Mumbai - IITM",02-11-2025 07:00:00,19.04946,72.9230,OZONE,4,17,4
India,Maharashtra,Mumbai,"Kandivali East, Mumbai - MPCB",02-11-2025 07:00:00,19.205800,72.868200,PM10,31,74,52
India,Maharashtra,Mumbai,"Kandivali East, Mumbai - MPCB",02-11-2025 07:00:00,19.205800,72.868200,NH3,1,2,1
India,Maharashtra,Mumbai,"Borivali East, Mumbai - IITM",02-11-2025 07:00:00,19.23241,72.86895,NH3,4,5,4
India,Maharashtra,Mumbai,"Borivali East, Mumbai - IITM",02-11-2025 07:00:00,19.23241,72.86895,CO,38,71,65
India,Maharashtra,Mumbai,"Byculla, Mumbai - BMC",02-11-2025 07:00:00,18.9767,72.8380,PM2.5,12,41,27
India,Maharashtra,Mumbai,"Chakala-Andheri East, Mumbai - IITM",02-11-2025 07:00:00,19.11074,72.86084,PM2.5,9,48,30
India,Maharashtra,Mumbai,"Chakala-Andheri East, Mumbai - IITM",02-11-2025 07:00:00,19.11074,72.86084,NO2,23,60,42
India,Maharashtra,Mumbai,"Navy Nagar-Colaba, Mumbai - IITM",02-11-2025 07:00:00,18.897756,72.813320,OZONE,18,34,20
India,Maharashtra,Mumbai,"Shivaji Nagar, Mumbai - BMC",02-11-2025 07:00:00,19.060498,72.923356,NO2,17,32,23
India,Maharashtra,Mumbai,"Shivaji Nagar, Mumbai - BMC",02-11-2025 07:00:00,19.060498,72.923356,CO,3,43,31
India,Maharashtra,Mumbai,"Siddharth Nagar-Worli, Mumbai - IITM",02-11-2025 07:00:00,19.000083,72.813993,NO2,22,69,38
India,Maharashtra,Mumbai,"Malad West, Mumbai - IITM",02-11-2025 07:00:00,19.19709,72.82204,SO2,1,3,2
India,Maharashtra,Mumbai,"Malad West, Mumbai - IITM",02-11-2025 07:00:00,19.19709,72.82204,OZONE,3,34,4
India,Maharashtra,Mumbai,"Mulund West, Mumbai - MPCB",02-11-2025 07:00:00,19.1750,72.9419,SO2,NA,NA,NA
India,Maharashtra,Mumbai,"Navy Nagar-Colaba, Mumbai - IITM",02-11-2025 07:00:00,18.897756,72.813320,SO2,4,9,6
India,Maharashtra,Mumbai,"Sion, Mumbai - MPCB",02-11-2025 07:00:00,19.047000,72.874600,PM2.5,21,69,34
India,Maharashtra,Mumbai,"Sion, Mumbai - MPCB",02-11-2025 07:00:00,19.047000,72.874600,SO2,9,10,10
India,Maharashtra,Mumbai,"Vile Parle West, Mumbai - MPCB",02-11-2025 07:00:00,19.10861,72.83622,NO2,6,30,22
India,Maharashtra,Mumbai,"Worli, Mumbai - MPCB",02-11-2025 07:00:00,18.9936162,72.8128113,PM2.5,60,68,62
India,Maharashtra,Nanded,"Sneh Nagar, Nanded - MPCB",02-11-2025 07:00:00,19.173852,77.296291,NH3,3,5,4
India,Maharashtra,Nashik,"Gangapur Road, Nashik - MPCB",02-11-2025 07:00:00,20.0073285,73.7762427,PM10,11,45,22
India,Maharashtra,Nashik,"Gangapur Road, Nashik - MPCB",02-11-2025 07:00:00,20.0073285,73.7762427,NO2,7,7,7
India,Maharashtra,Ulhasnagar,"Sidhi Vinayak Nagar, Ulhasnagar - MPCB",02-11-2025 07:00:00,19.235581,73.159121,NH3,4,7,6
India,Maharashtra,Ulhasnagar,"Sidhi Vinayak Nagar, Ulhasnagar - MPCB",02-11-2025 07:00:00,19.235581,73.159121,OZONE,12,35,13
India,Maharashtra,Virar,"Bolinj, Virar - MPCB",02-11-2025 07:00:00,19.4458210,72.7988231,NO2,17,34,25
India,Maharashtra,Virar,"Bolinj, Virar - MPCB",02-11-2025 07:00:00,19.4458210,72.7988231,OZONE,2,15,3
India,Meghalaya,Shillong,"JN Stadium, Shillong - Meghalaya PCB",02-11-2025 07:00:00,25.5803419,91.8942571,PM10,1,22,9
India,Meghalaya,Shillong,"JN Stadium, Shillong - Meghalaya PCB",02-11-2025 07:00:00,25.5803419,91.8942571,NO2,3,9,5
India,Meghalaya,Shillong,"JN Stadium, Shillong - Meghalaya PCB",02-11-2025 07:00:00,25.5803419,91.8942571,OZONE,NA,NA,NA
India,Nagaland,Kohima,"PWD Junction, Kohima - NPCB",02-11-2025 07:00:00,25.6635413,94.0989878,NH3,1,1,1
India,Odisha,Angul,"Hakimapada, Angul - OSPCB",02-11-2025 07:00:00,20.832874,85.104082,PM2.5,20,52,36
India,Maharashtra,Pune,"Katraj Dairy, Pune - MPCB",02-11-2025 07:00:00,18.454450,73.854155,OZONE,4,18,12
India,Maharashtra,Pune,"Savitribai Phule Pune University, Pune - MPCB",02-11-2025 07:00:00,18.547056,73.826908,SO2,1,3,2
India,Maharashtra,Sangli,"Vijay Nagar, Sangli - MPCB",02-11-2025 07:00:00, 16.5038,74.3623,PM2.5,11,47,31
India,Maharashtra,Sangli,"Vijay Nagar, Sangli - MPCB",02-11-2025 07:00:00, 16.5038,74.3623,PM10,26,59,42
India,Maharashtra,Solapur,"Dnyaneshwar Nagar, Solapur - MPCB",02-11-2025 07:00:00,17.6336264,75.9132495,PM2.5,7,26,16
India,Maharashtra,Solapur,"Ratandeep Housing Society, Solapur - MPCB",02-11-2025 07:00:00,17.65439,75.90649,NH3,2,6,3
India,Maharashtra,Thane,"Upvan Fort, Thane - MPCB",02-11-2025 07:00:00,19.222279,72.957979,NO2,4,32,18
India,Maharashtra,Thane,"Upvan Fort, Thane - MPCB",02-11-2025 07:00:00,19.222279,72.957979,SO2,2,6,4
India,Maharashtra,Ulhasnagar,"Sidhi Vinayak Nagar, Ulhasnagar - MPCB",02-11-2025 07:00:00,19.235581,73.159121,PM2.5,40,75,56
India,Maharashtra,Pimpri-Chinchwad,"Park Street Wakad, Pimpri Chinchwad - MPCB",02-11-2025 07:00:00,18.59051,73.77946,CO,12,42,20
India,Maharashtra,Pimpri-Chinchwad,"Savta Mali Nagar, Pimpri-Chinchwad - IITM",02-11-2025 07:00:00,18.614767,73.799516,NO2,22,58,37
India,Maharashtra,Pimpri-Chinchwad,"Savta Mali Nagar, Pimpri-Chinchwad - IITM",02-11-2025 07:00:00,18.614767,73.799516,OZONE,1,19,3
India,Maharashtra,Navi Mumbai,"Sector-2E Kalamboli, Navi Mumbai - MPCB",02-11-2025 07:00:00,19.02579,73.10297,OZONE,1,23,1
India,Maharashtra,Navi Mumbai,"Tondare-Taloja, Navi Mumbai - MPCB",02-11-2025 07:00:00,19.0630,73.1209,SO2,2,6,4
India,Maharashtra,Navi Mumbai,"Tondare-Taloja, Navi Mumbai - MPCB",02-11-2025 07:00:00,19.0630,73.1209,CO,26,32,28
India,Maharashtra,Pune,"Dhankawadi, Pune - IITM",02-11-2025 07:00:00,18.459883,73.852193,PM2.5,NA,NA,NA
India,Maharashtra,Pune,"Hadapsar, Pune - IITM",02-11-2025 07:00:00,18.501793,73.927532,NO2,13,44,24
India,Maharashtra,Pune,"Katraj Dairy, Pune - MPCB",02-11-2025 07:00:00,18.454450,73.854155,PM2.5,8,49,23
India,Maharashtra,Nashik,"Pandav Nagari, Nashik - MPCB",02-11-2025 07:00:00,19.9591346,73.7788008,NO2,1,6,3
India,Maharashtra,Navi Mumbai,"Mahape, Navi Mumbai - MPCB",02-11-2025 07:00:00,19.1135051,73.008978,OZONE,8,12,10
India,Maharashtra,Nashik,"Hirawadi, Nashik - MPCB",02-11-2025 07:00:00,20.021503,73.813844,NO2,4,18,8
India,Maharashtra,Nashik,"Hirawadi, Nashik - MPCB",02-11-2025 07:00:00,20.021503,73.813844,NH3,1,2,1
India,Maharashtra,Nashik,"Hirawadi, Nashik - MPCB",02-11-2025 07:00:00,20.021503,73.813844,SO2,4,7,5
India,Maharashtra,Pimpri-Chinchwad,"Park Street Wakad, Pimpri Chinchwad - MPCB",02-11-2025 07:00:00,18.59051,73.77946,PM2.5,26,46,37
India,Maharashtra,Pimpri-Chinchwad,"Park Street Wakad, Pimpri Chinchwad - MPCB",02-11-2025 07:00:00,18.59051,73.77946,NO2,19,32,26
India,Rajasthan,Bikaner,"MM Ground, Bikaner - RSPCB",02-11-2025 07:00:00,28.018792,73.292658,NO2,49,170,98
India,Rajasthan,Bundi,"New Colony, Bundi - RSPCB",02-11-2025 07:00:00,25.435774,75.644272,NO2,8,50,19
India,Rajasthan,Bundi,"New Colony, Bundi - RSPCB",02-11-2025 07:00:00,25.435774,75.644272,SO2,3,8,6
India,Rajasthan,Chittorgarh,"Shastri Nagar, Chittorgarh - RSPCB",02-11-2025 07:00:00,24.892047,74.623527,NH3,3,5,4
India,Rajasthan,Chittorgarh,"Shastri Nagar, Chittorgarh - RSPCB",02-11-2025 07:00:00,24.892047,74.623527,CO,1,12,6
India,Rajasthan,Churu,"Subash Chowk, Churu - RSPCB",02-11-2025 07:00:00,28.296139,74.961696,PM2.5,88,309,197
India,Rajasthan,Churu,"Subash Chowk, Churu - RSPCB",02-11-2025 07:00:00,28.296139,74.961696,PM10,113,410,188
India,Rajasthan,Churu,"Subash Chowk, Churu - RSPCB",02-11-2025 07:00:00,28.296139,74.961696,NH3,8,10,9
India,Rajasthan,Dausa,"Khatikan Mohalla, Dausa - RSPCB",02-11-2025 07:00:00,26.895552,76.334753,PM2.5,33,127,65
India,Rajasthan,Dausa,"Khatikan Mohalla, Dausa - RSPCB",02-11-2025 07:00:00,26.895552,76.334753,SO2,4,7,5
India,Punjab,Bathinda,"Hardev Nagar, Bathinda - PPCB",02-11-2025 07:00:00,30.233011,74.907758,CO,76,80,78
India,Punjab,Jalandhar,"Civil Line, Jalandhar - PPCB",02-11-2025 07:00:00,31.321907,75.578914,PM2.5,62,319,180
India,Punjab,Jalandhar,"Civil Line, Jalandhar - PPCB",02-11-2025 07:00:00,31.321907,75.578914,OZONE,47,55,50
India,Punjab,Khanna,"Kalal Majra, Khanna - PPCB",02-11-2025 07:00:00,30.736056 ,76.209694,PM2.5,193,458,308
India,Punjab,Khanna,"Kalal Majra, Khanna - PPCB",02-11-2025 07:00:00,30.736056 ,76.209694,NH3,7,8,7
India,Punjab,Ludhiana,"Punjab Agricultural University, Ludhiana - PPCB",02-11-2025 07:00:00,30.9028,75.8086,PM2.5,155,253,190
India,Punjab,Ludhiana,"Punjab Agricultural University, Ludhiana - PPCB",02-11-2025 07:00:00,30.9028,75.8086,SO2,1,20,9
India,Punjab,Ludhiana,"Punjab Agricultural University, Ludhiana - PPCB",02-11-2025 07:00:00,30.9028,75.8086,OZONE,18,33,25
India,Odisha,Rourkela,"Fertilizer Township, Rourkela - OSPCB",02-11-2025 07:00:00,22.18972222,84.86277778,PM2.5,NA,NA,NA
India,Odisha,Rourkela,"Fertilizer Township, Rourkela - OSPCB",02-11-2025 07:00:00,22.18972222,84.86277778,PM10,NA,NA,NA
India,Odisha,Rourkela,"Fertilizer Township, Rourkela - OSPCB",02-11-2025 07:00:00,22.18972222,84.86277778,NO2,NA,NA,NA
India,Odisha,Rourkela,"Raghunathpali, Rourkela - OSPCB",02-11-2025 07:00:00,22.220833,84.809444,PM2.5,8,53,31
India,Odisha,Talcher,"Talcher Coalfields,Talcher - OSPCB",02-11-2025 07:00:00,20.9360711,85.1707021,OZONE,3,24,17
India,Puducherry,Puducherry,"Jawahar Nagar, Puducherry - PPCC",02-11-2025 07:00:00,11.9309,79.8027,PM10,22,70,37
India,Puducherry,Puducherry,"Jawahar Nagar, Puducherry - PPCC",02-11-2025 07:00:00,11.9309,79.8027,NH3,2,53,10
India,Rajasthan,Bhilwara,"Pratap Nagar, Bhilwara - RSPCB",02-11-2025 07:00:00,25.339605,74.618883,PM2.5,23,300,99
India,Rajasthan,Bhiwadi,"RIICO Ind. Area III, Bhiwadi - RSPCB",02-11-2025 07:00:00,28.194909,76.862296,PM2.5,204,487,392
India,Rajasthan,Bhiwadi,"Vasundhara Nagar_UIT, Bhiwadi - RSPCB",02-11-2025 07:00:00,28.207266,76.829265,PM2.5,171,414,346
India,Rajasthan,Bhiwadi,"Vasundhara Nagar_UIT, Bhiwadi - RSPCB",02-11-2025 07:00:00,28.207266,76.829265,OZONE,11,140,13
India,Rajasthan,Bikaner,"MM Ground, Bikaner - RSPCB",02-11-2025 07:00:00,28.018792,73.292658,PM2.5,97,250,157
India,Rajasthan,Bikaner,"MM Ground, Bikaner - RSPCB",02-11-2025 07:00:00,28.018792,73.292658,PM10,116,330,182
India,Rajasthan,Banswara,"Rati Talai, Banswara - RSPCB",02-11-2025 07:00:00,23.555190,74.440010,CO,6,70,26
India,Rajasthan,Banswara,"Rati Talai, Banswara - RSPCB",02-11-2025 07:00:00,23.555190,74.440010,OZONE,5,65,12
India,Rajasthan,Baran,"Bamboliya, Baran - RSPCB",02-11-2025 07:00:00,25.106006,76.469948,PM10,19,146,54
India,Rajasthan,Baran,"Bamboliya, Baran - RSPCB",02-11-2025 07:00:00,25.106006,76.469948,SO2,7,13,10
India,Rajasthan,Barmer,"Railway Colony, Barmer - RSPCB",02-11-2025 07:00:00,25.747299,71.393989,CO,12,86,42
India,Rajasthan,Bharatpur,"Krishna Nagar, Bharatpur - RSPCB",02-11-2025 07:00:00,27.215415,77.50873,NH3,2,15,6
India,Odisha,Byasanagar,"Ferro Chrome Colony, Byasanagar - OSPCB",02-11-2025 07:00:00,20.94185,86.11510,CO,6,56,27
India,Odisha,Cuttack,"CDA Area, Cuttack - OSPCB",02-11-2025 07:00:00,20.48891     ,85.84768     ,SO2,1,8,5
India,Odisha,Keonjhar,"Jagamohanpur, Keonjhar - OSPCB",02-11-2025 07:00:00,21.643900,85.599355,NO2,10,23,16
India,Odisha,Rairangpur,"Divisional Forest Office, Rairangpur - OSPCB",02-11-2025 07:00:00,22.265816,86.174829,NH3,3,3,3
India,Odisha,Rairangpur,"Divisional Forest Office, Rairangpur - OSPCB",02-11-2025 07:00:00,22.265816,86.174829,CO,20,40,28
India,Punjab,Mandi Gobindgarh,"RIMT University, Mandi Gobindgarh - PPCB",02-11-2025 07:00:00,30.649961,76.331442,PM2.5,121,410,274
India,Punjab,Patiala,"Model Town, Patiala - PPCB",02-11-2025 07:00:00,30.349388,76.366642,NH3,6,7,6
India,Punjab,Rupnagar,"Ratanpura, Rupnagar - Ambuja Cements",02-11-2025 07:00:00,31.0325454,76.5623046,CO,20,30,23
India,Odisha,Bhubaneswar,"Lingraj Mandir, Bhubaneswar - OSPCB",02-11-2025 07:00:00,20.240790,85.836784,CO,29,73,43
India,Odisha,Bhubaneswar,"Patia, Bhubaneswar - OSPCB",02-11-2025 07:00:00,20.34652,85.81630,SO2,5,8,6
India,Odisha,Brajrajnagar,"GM Office, Brajrajnagar - OSPCB",02-11-2025 07:00:00,21.8004996,83.8396977,NO2,3,20,9
India,Odisha,Bhubaneswar,"Lingraj Mandir, Bhubaneswar - OSPCB",02-11-2025 07:00:00,20.240790,85.836784,PM10,45,131,94
India,Rajasthan,Dausa,"Khatikan Mohalla, Dausa - RSPCB",02-11-2025 07:00:00,26.895552,76.334753,OZONE,3,106,9
India,Rajasthan,Dungarpur,"Bhoiwada, Dungarpur - RSPCB",02-11-2025 07:00:00,23.837789,73.714926,NO2,6,14,9
India,Rajasthan,Dungarpur,"Bhoiwada, Dungarpur - RSPCB",02-11-2025 07:00:00,23.837789,73.714926,CO,10,35,20
India,Rajasthan,Hanumangarh,"Housing Board, Hanumangarh - RSPCB",02-11-2025 07:00:00,29.610750,74.283608,PM2.5,43,180,116
India,Rajasthan,Jaipur,"Adarsh Nagar, Jaipur - RSPCB",02-11-2025 07:00:00,26.902909,75.836858,PM10,65,122,101
India,Rajasthan,Jaipur,"Adarsh Nagar, Jaipur - RSPCB",02-11-2025 07:00:00,26.902909,75.836858,NO2,13,56,36
India,Rajasthan,Jaipur,"Adarsh Nagar, Jaipur - RSPCB",02-11-2025 07:00:00,26.902909,75.836858,CO,34,72,50
India,Rajasthan,Kota,"Nayapura, Kota - RSPCB",02-11-2025 07:00:00,25.196024,75.855668,NH3,5,11,6
India,Rajasthan,Kota,"Shrinath Puram, Kota - RSPCB",02-11-2025 07:00:00,25.14389,75.821256,PM2.5,35,389,134
India,Rajasthan,Nagaur,"Karni Colony, Nagaur - RSPCB",02-11-2025 07:00:00,27.213494,73.734444,NO2,2,29,10
India,Rajasthan,Nagaur,"Karni Colony, Nagaur - RSPCB",02-11-2025 07:00:00,27.213494,73.734444,NH3,6,14,9
India,Rajasthan,Nagaur,"Karni Colony, Nagaur - RSPCB",02-11-2025 07:00:00,27.213494,73.734444,OZONE,3,70,33
India,Rajasthan,Pali,"Indira Colony Vistar, Pali - RSPCB",02-11-2025 07:00:00,25.771061, 73.340227,NH3,7,18,10
India,Rajasthan,Pali,"Indira Colony Vistar, Pali - RSPCB",02-11-2025 07:00:00,25.771061, 73.340227,CO,22,75,55
India,Sikkim,Gangtok,"Zero Point GICI, Gangtok - SSPCB",02-11-2025 07:00:00,27.338530,88.614099,NH3,1,1,1
India,Sikkim,Gangtok,"Zero Point GICI, Gangtok - SSPCB",02-11-2025 07:00:00,27.338530,88.614099,OZONE,23,47,40
India,TamilNadu,Chengalpattu,"Crescent University, Chengalpattu - TNPCB",02-11-2025 07:00:00,12.8777316,80.0834807,PM2.5,NA,NA,NA
India,TamilNadu,Chengalpattu,"Crescent University, Chengalpattu - TNPCB",02-11-2025 07:00:00,12.8777316,80.0834807,NH3,NA,NA,NA
India,TamilNadu,Chengalpattu,"Crescent University, Chengalpattu - TNPCB",02-11-2025 07:00:00,12.8777316,80.0834807,SO2,NA,NA,NA
India,TamilNadu,Chennai,"Kodungaiyur, Chennai - TNPCB",02-11-2025 07:00:00,13.1278,80.2642,PM10,41,114,75
India,TamilNadu,Chennai,"Kodungaiyur, Chennai - TNPCB",02-11-2025 07:00:00,13.1278,80.2642,CO,12,30,19
India,Rajasthan,Pratapgarh,"Pragati Nagar, Pratapgarh - RSPCB",02-11-2025 07:00:00,24.041198,74.780702,NH3,6,10,7
India,Rajasthan,Pratapgarh,"Pragati Nagar, Pratapgarh - RSPCB",02-11-2025 07:00:00,24.041198,74.780702,SO2,1,3,2
India,Rajasthan,Sawai Madhopur,"Sahu Nagar, Sawai Madhopur - RSPCB",02-11-2025 07:00:00,26.031443,76.359327,NO2,11,29,19
India,Rajasthan,Sikar,"Radhakishan Pura, Sikar - RSPCB",02-11-2025 07:00:00,27.608912,75.153302,PM2.5,113,336,226
India,Rajasthan,Sikar,"Radhakishan Pura, Sikar - RSPCB",02-11-2025 07:00:00,27.608912,75.153302,NO2,15,123,52
India,Rajasthan,Jaipur,"Mansarovar Sector-12, Jaipur - RSPCB",02-11-2025 07:00:00,26.843698,75.766894,OZONE,1,150,10
India,Rajasthan,Jaipur,"Police Commissionerate, Jaipur - RSPCB",02-11-2025 07:00:00,26.9164092,75.7994901,CO,12,76,52
India,Rajasthan,Jaipur,"Sector-2 Murlipura, Jaipur - RSPCB",02-11-2025 07:00:00,26.960669,75.771817,PM10,80,172,130
India,Rajasthan,Jaipur,"Sector-2 Murlipura, Jaipur - RSPCB",02-11-2025 07:00:00,26.960669,75.771817,NO2,26,120,60
India,Rajasthan,Jaipur,"Sector-2 Murlipura, Jaipur - RSPCB",02-11-2025 07:00:00,26.960669,75.771817,CO,34,97,61
India,Rajasthan,Jhunjhunu,"Indra Nagar, Jhunjhunu - RSPCB",02-11-2025 07:00:00,28.108988,75.386577,NO2,11,110,41
India,Rajasthan,Jhunjhunu,"Indra Nagar, Jhunjhunu - RSPCB",02-11-2025 07:00:00,28.108988,75.386577,CO,33,92,51
India,Rajasthan,Jodhpur,"Collectorate, Jodhpur - RSPCB",02-11-2025 07:00:00,26.268249,73.0193853,OZONE,9,49,14
India,Rajasthan,Jodhpur,"Digari Kalan, Jodhpur - RSPCB",02-11-2025 07:00:00,26.295810,73.082283,NH3,6,10,8
India,Rajasthan,Jodhpur,"Digari Kalan, Jodhpur - RSPCB",02-11-2025 07:00:00,26.295810,73.082283,OZONE,1,105,5
India,Rajasthan,Jodhpur,"Samrat Ashok Udhyan, Jodhpur - RSPCB",02-11-2025 07:00:00,26.253384,72.976571,OZONE,8,150,20
India,Rajasthan,Karauli,"Satyawati Vihar, Karauli - RSPCB",02-11-2025 07:00:00,26.506177,77.025989,SO2,6,9,8
India,Rajasthan,Kota,"Dhanmandi, Kota - RSPCB",02-11-2025 07:00:00,25.164090,75.858137,PM2.5,20,349,94
India,Rajasthan,Kota,"Dhanmandi, Kota - RSPCB",02-11-2025 07:00:00,25.164090,75.858137,NH3,1,3,2
India,Rajasthan,Kota,"Dhanmandi, Kota - RSPCB",02-11-2025 07:00:00,25.164090,75.858137,OZONE,2,68,2
India,Rajasthan,Sirohi,"Vedhaynath Colony, Sirohi - RSPCB",02-11-2025 07:00:00,24.885261,72.857549,PM2.5,52,127,77
India,Rajasthan,Sirohi,"Vedhaynath Colony, Sirohi - RSPCB",02-11-2025 07:00:00,24.885261,72.857549,NO2,8,64,26
India,Rajasthan,Udaipur,"Ashok Nagar, Udaipur - RSPCB",02-11-2025 07:00:00,24.5886166,73.6321397,PM10,54,184,109
India,Rajasthan,Jaisalmer,"Sadar Bazar, Jaisalmer - RSPCB",02-11-2025 07:00:00,26.912329,70.909168,NO2,11,144,52
India,Rajasthan,Jhalawar,"Rajlaxmi Nagar, Jhalawar - RSPCB",02-11-2025 07:00:00,24.588397,76.172782,PM10,29,375,89
India,Rajasthan,Jhalawar,"Rajlaxmi Nagar, Jhalawar - RSPCB",02-11-2025 07:00:00,24.588397,76.172782,OZONE,1,65,8
India,TamilNadu,Cuddalore,"Semmandalam, Cuddalore - TNPCB",02-11-2025 07:00:00,11.7637683,79.7499835,NH3,2,3,3
India,TamilNadu,Dindigul,"Mendonsa Colony, Dindigul - TNPCB",02-11-2025 07:00:00,10.358535,77.984321,PM10,36,110,69
India,TamilNadu,Gummidipoondi,"Anthoni Pillai Nagar, Gummidipoondi - TNPCB",02-11-2025 07:00:00,13.4127,80.1081,PM10,67,160,107
India,TamilNadu,Gummidipoondi,"Anthoni Pillai Nagar, Gummidipoondi - TNPCB",02-11-2025 07:00:00,13.4127,80.1081,SO2,21,83,45
India,TamilNadu,Hosur,"SIPCOT Phase-1, Hosur - TNPCB",02-11-2025 07:00:00,12.746998,77.813811,SO2,NA,NA,NA
India,TamilNadu,Kanchipuram,"Kilambi, Kanchipuram - TNPCB",02-11-2025 07:00:00,12.864618,79.659968,NO2,1,9,5
India,TamilNadu,Kanchipuram,"Kilambi, Kanchipuram - TNPCB",02-11-2025 07:00:00,12.864618,79.659968,NH3,4,4,4
India,TamilNadu,Ooty,"Bombay Castel, Ooty - TNPCB",02-11-2025 07:00:00,11.4068288,76.7138973,OZONE,4,73,14
India,TamilNadu,Palkalaiperur,"Bharathidasan University, Palkalaiperur - TNPCB",02-11-2025 07:00:00,10.681158,78.741746,NH3,2,3,2
India,TamilNadu,Perundurai,"SIPCOT Industrial Park, Perundurai - TNPCB",02-11-2025 07:00:00,11.258242,77.552761,PM2.5,24,72,49
India,TamilNadu,Perundurai,"SIPCOT Industrial Park, Perundurai - TNPCB",02-11-2025 07:00:00,11.258242,77.552761,NO2,6,7,7
India,TamilNadu,Pudukottai,"SIPCOT Nathampannai, Pudukottai - TNPCB",02-11-2025 07:00:00,10.423417,78.784889,PM10,31,80,50
India,TamilNadu,Pudukottai,"SIPCOT Nathampannai, Pudukottai - TNPCB",02-11-2025 07:00:00,10.423417,78.784889,NO2,12,24,16
India,TamilNadu,Madurai,"Uchapatti, Madurai - TNPCB",02-11-2025 07:00:00,9.865935,78.022669,PM10,20,104,40
India,TamilNadu,Madurai,"Uchapatti, Madurai - TNPCB",02-11-2025 07:00:00,9.865935,78.022669,NH3,4,4,4
India,TamilNadu,Madurai,"Uchapatti, Madurai - TNPCB",02-11-2025 07:00:00,9.865935,78.022669,OZONE,6,6,6
India,TamilNadu,Nagapattinam,"Velippalayam, Nagapattinam - TNPCB",02-11-2025 07:00:00,10.798548,79.838212,PM2.5,NA,NA,NA
India,TamilNadu,Nagapattinam,"Velippalayam, Nagapattinam - TNPCB",02-11-2025 07:00:00,10.798548,79.838212,OZONE,1,1,1
India,TamilNadu,Namakkal,"Ponnusamy Nagar, Namakkal - TNPCB",02-11-2025 07:00:00,11.273992,78.163545,PM2.5,30,77,51
India,TamilNadu,Namakkal,"Ponnusamy Nagar, Namakkal - TNPCB",02-11-2025 07:00:00,11.273992,78.163545,SO2,8,9,8
India,TamilNadu,Namakkal,"Ponnusamy Nagar, Namakkal - TNPCB",02-11-2025 07:00:00,11.273992,78.163545,OZONE,13,24,17
India,Telangana,Hyderabad,"Central University, Hyderabad - TSPCB",02-11-2025 07:00:00,17.460103,78.334361,PM10,16,72,41
India,Telangana,Hyderabad,"Central University, Hyderabad - TSPCB",02-11-2025 07:00:00,17.460103,78.334361,SO2,1,8,5
India,Telangana,Hyderabad,"Central University, Hyderabad - TSPCB",02-11-2025 07:00:00,17.460103,78.334361,CO,14,26,20
India,Telangana,Hyderabad,"ECIL Kapra, Hyderabad - TSPCB",02-11-2025 07:00:00,17.470431,78.566959,PM2.5,37,41,39
India,Telangana,Hyderabad,"ICRISAT Patancheru, Hyderabad - TSPCB",02-11-2025 07:00:00,17.518400,78.278777,NO2,3,10,6
India,Telangana,Hyderabad,"ICRISAT Patancheru, Hyderabad - TSPCB",02-11-2025 07:00:00,17.518400,78.278777,OZONE,2,39,8
India,Telangana,Hyderabad,"IDA Pashamylaram, Hyderabad - TSPCB",02-11-2025 07:00:00,17.5316895,78.218939,SO2,3,20,8
India,TamilNadu,Ramanathapuram,"Chalai Bazaar, Ramanathapuram - TNPCB",02-11-2025 07:00:00,9.36399,78.831977,SO2,2,9,3
India,TamilNadu,Salem,"Sona College of Technology, Salem - TNPCB",02-11-2025 07:00:00,11.679111,78.125052,OZONE,NA,NA,NA
India,TamilNadu,Thanjavur,"Parisutham Nagar, Thanjavur - TNPCB",02-11-2025 07:00:00,10.7654824,79.1389968,NH3,1,1,1
India,TamilNadu,Tiruchirappalli,"St Joseph College, Tiruchirappalli - TNPCB",02-11-2025 07:00:00,10.830158,78.691849,PM10,31,59,51
India,TamilNadu,Tirunelveli,"Municipal Corporation Office, Tirunelveli - TNPCB",02-11-2025 07:00:00,8.728442,77.6962,NH3,1,2,1
India,TamilNadu,Tirupur,"Kumaran College, Tirupur - TNPCB",02-11-2025 07:00:00,11.0973603,77.3228673,PM2.5,18,82,41
India,TamilNadu,Virudhunagar,"Collectorate Office, Virudhunagar - TNPCB",02-11-2025 07:00:00,9.559382,77.948828,SO2,12,104,25
India,Telangana,Hyderabad,"Kokapet, Hyderabad - TSPCB",02-11-2025 07:00:00,17.393559,78.339194,PM2.5,38,47,41
India,Telangana,Hyderabad,"Kokapet, Hyderabad - TSPCB",02-11-2025 07:00:00,17.393559,78.339194,NO2,12,17,14
India,Telangana,Hyderabad,"Kokapet, Hyderabad - TSPCB",02-11-2025 07:00:00,17.393559,78.339194,NH3,2,3,2
India,Telangana,Hyderabad,"Kompally Municipal Office, Hyderabad - TSPCB",02-11-2025 07:00:00,17.544899,78.486949,PM10,75,91,80
India,Telangana,Hyderabad,"Kompally Municipal Office, Hyderabad - TSPCB",02-11-2025 07:00:00,17.544899,78.486949,NH3,2,4,4
India,TamilNadu,Chennai,"Velachery Res. Area, Chennai - CPCB",02-11-2025 07:00:00,13.0052189,80.2398125,SO2,NA,NA,NA
India,TamilNadu,Coimbatore,"PSG College of Arts and Science, Coimbatore - TNPCB",02-11-2025 07:00:00,11.0328,77.0349,PM10,47,132,90
India,TamilNadu,Cuddalore,"Semmandalam, Cuddalore - TNPCB",02-11-2025 07:00:00,11.7637683,79.7499835,PM10,24,86,39
India,TamilNadu,Chennai,"Manali Village, Chennai - TNPCB",02-11-2025 07:00:00,13.1662,80.2584,CO,32,41,36
India,TamilNadu,Chennai,"Manali, Chennai - CPCB",02-11-2025 07:00:00,13.164544,80.26285,CO,11,24,17
India,TamilNadu,Chennai,"Manali, Chennai - CPCB",02-11-2025 07:00:00,13.164544,80.26285,OZONE,10,11,10
India,TamilNadu,Chennai,"Perungudi, Chennai - TNPCB",02-11-2025 07:00:00,12.9533,80.2357,PM2.5,33,72,54
India,Uttar_Pradesh,Agra,"Shahjahan Garden, Agra - UPPCB",02-11-2025 07:00:00,27.169338,78.03582,OZONE,1,36,2
India,Uttar_Pradesh,Agra,"Shastripuram, Agra - UPPCB",02-11-2025 07:00:00,27.19862,77.92066,SO2,14,26,20
India,Uttar_Pradesh,Agra,"Shastripuram, Agra - UPPCB",02-11-2025 07:00:00,27.19862,77.92066,OZONE,6,7,7
India,Uttar_Pradesh,Baghpat,"Sardar Patel Inter College, Baghpat - UPPCB",02-11-2025 07:00:00,28.964949,77.278761,PM2.5,196,500,368
India,Uttar_Pradesh,Bareilly,"Rajendra Nagar, Bareilly - UPPCB",02-11-2025 07:00:00,28.38910936,79.42963708,PM10,67,176,132
India,Uttar_Pradesh,Bareilly,"Rajendra Nagar, Bareilly - UPPCB",02-11-2025 07:00:00,28.38910936,79.42963708,NO2,9,10,9
India,Telangana,Hyderabad,"New Malakpet, Hyderabad - TSPCB",02-11-2025 07:00:00,17.37206,78.50864,SO2,15,19,17
India,Telangana,Hyderabad,"Sanathnagar, Hyderabad - TSPCB",02-11-2025 07:00:00,17.4559458,78.4332152,CO,2,16,11
India,Telangana,Hyderabad,"Somajiguda, Hyderabad - TSPCB",02-11-2025 07:00:00,17.417094,78.457437,NO2,15,18,17
India,Telangana,Hyderabad,"Zoo Park, Hyderabad - TSPCB",02-11-2025 07:00:00,17.349694,78.451437,PM2.5,3,112,28
India,Telangana,Hyderabad,"Zoo Park, Hyderabad - TSPCB",02-11-2025 07:00:00,17.349694,78.451437,CO,12,14,14
India,Tripura,Agartala,"Bardowali, Agartala - Tripura SPCB",02-11-2025 07:00:00,23.8175497,91.2726974,SO2,27,28,28
India,Uttar_Pradesh,Lucknow,"Gomti Nagar, Lucknow - UPPCB",02-11-2025 07:00:00,26.868120,81.005119,CO,34,39,35
India,Uttar_Pradesh,Lucknow,"Kendriya Vidyalaya, Lucknow - CPCB",02-11-2025 07:00:00,26.906111,80.948222,PM2.5,36,137,65
India,Uttar_Pradesh,Lucknow,"Kendriya Vidyalaya, Lucknow - CPCB",02-11-2025 07:00:00,26.906111,80.948222,PM10,58,95,74
India,Uttar_Pradesh,Lucknow,"Kendriya Vidyalaya, Lucknow - CPCB",02-11-2025 07:00:00,26.906111,80.948222,NO2,23,42,34
India,Uttar_Pradesh,Lucknow,"Kendriya Vidyalaya, Lucknow - CPCB",02-11-2025 07:00:00,26.906111,80.948222,NH3,12,17,15
India,Uttar_Pradesh,Lucknow,"Lalbagh, Lucknow - CPCB",02-11-2025 07:00:00,26.8458805,80.9365541,PM2.5,11,86,52
India,Uttar_Pradesh,Lucknow,"Lalbagh, Lucknow - CPCB",02-11-2025 07:00:00,26.8458805,80.9365541,PM10,51,173,114
India,Uttar_Pradesh,Kanpur,"FTI Kidwai Nagar, Kanpur - UPPCB",02-11-2025 07:00:00,26.428282,80.327067,CO,34,38,36
India,Uttar_Pradesh,Kanpur,"Nehru Nagar, Kanpur - UPPCB",02-11-2025 07:00:00,26.4703136,80.3229863,CO,52,78,73
India,Uttar_Pradesh,Khurja,"Kalindi Kunj, Khurja - UPPCB",02-11-2025 07:00:00,28.2348927,77.8683002,NO2,3,4,3
India,Uttar_Pradesh,Khurja,"Kalindi Kunj, Khurja - UPPCB",02-11-2025 07:00:00,28.2348927,77.8683002,OZONE,4,41,5
India,Uttar_Pradesh,Lucknow,"B R Ambedkar University, Lucknow - UPPCB",02-11-2025 07:00:00,26.766433,80.927299,PM10,59,135,101
India,Uttar_Pradesh,Agra,"Manoharpur, Agra - UPPCB",02-11-2025 07:00:00,27.23711,78.01936,PM10,24,157,102
India,Uttar_Pradesh,Agra,"Manoharpur, Agra - UPPCB",02-11-2025 07:00:00,27.23711,78.01936,SO2,36,48,39
India,Uttar_Pradesh,Agra,"Rohta, Agra - UPPCB",02-11-2025 07:00:00,27.106972,78.000111,NO2,16,18,18
India,Uttar_Pradesh,Agra,"Sector-3B Avas Vikas Colony, Agra - UPPCB",02-11-2025 07:00:00,27.19412,77.96237,NH3,4,6,5
India,Uttar_Pradesh,Agra,"Sector-3B Avas Vikas Colony, Agra - UPPCB",02-11-2025 07:00:00,27.19412,77.96237,CO,4,97,65
India,Uttar_Pradesh,Agra,"Sector-3B Avas Vikas Colony, Agra - UPPCB",02-11-2025 07:00:00,27.19412,77.96237,OZONE,3,29,7
India,Uttar_Pradesh,Ghaziabad,"Loni, Ghaziabad - UPPCB",02-11-2025 07:00:00,28.757294,77.278792,PM2.5,171,471,378
India,Uttar_Pradesh,Ghaziabad,"Sanjay Nagar, Ghaziabad - UPPCB",02-11-2025 07:00:00,28.685382,77.453839,SO2,12,34,21
India,Uttar_Pradesh,Ghaziabad,"Sanjay Nagar, Ghaziabad - UPPCB",02-11-2025 07:00:00,28.685382,77.453839,CO,20,135,79
India,Uttar_Pradesh,Gorakhpur,"Madan Mohan Malaviya University of Technology, Gorakhpur - UPPCB",02-11-2025 07:00:00,26.730136,83.433859,SO2,29,30,29
India,Uttar_Pradesh,Hapur,"Anand Vihar, Hapur - UPPCB",02-11-2025 07:00:00,28.725645,77.749675,SO2,11,45,31
India,Uttar_Pradesh,Kanpur,"FTI Kidwai Nagar, Kanpur - UPPCB",02-11-2025 07:00:00,26.428282,80.327067,PM10,55,124,94
India,Uttar_Pradesh,Greater Noida,"Knowledge Park - III, Greater Noida - UPPCB",02-11-2025 07:00:00,28.47272,77.482000,CO,44,118,82
India,Uttar_Pradesh,Bulandshahr,"Yamunapuram, Bulandshahr - UPPCB",02-11-2025 07:00:00,28.406963,77.849831,PM2.5,90,455,336
India,Uttar_Pradesh,Varanasi,"IESD Banaras Hindu University, Varanasi - UPPCB",02-11-2025 07:00:00,25.262326,82.995408,PM2.5,1,27,17
India,Uttar_Pradesh,Varanasi,"Maldahiya, Varanasi - UPPCB",02-11-2025 07:00:00,25.32393,82.99687,PM10,5,60,27
India,Uttar_Pradesh,Varanasi,"Maldahiya, Varanasi - UPPCB",02-11-2025 07:00:00,25.32393,82.99687,SO2,29,30,29
India,Uttar_Pradesh,Vrindavan,"Omex Eternity, Vrindavan - UPPCB",02-11-2025 07:00:00,27.5714090,77.6557570,PM10,24,278,148
India,Uttar_Pradesh,Vrindavan,"Omex Eternity, Vrindavan - UPPCB",02-11-2025 07:00:00,27.5714090,77.6557570,SO2,10,21,12
India,Uttarakhand,Dehradun,"Doon University, Dehradun - UKPCB",02-11-2025 07:00:00,30.269444,78.044167,PM10,60,101,76
India,Uttarakhand,Dehradun,"Doon University, Dehradun - UKPCB",02-11-2025 07:00:00,30.269444,78.044167,NO2,1,3,2
India,Uttarakhand,Dehradun,"Doon University, Dehradun - UKPCB",02-11-2025 07:00:00,30.269444,78.044167,SO2,2,2,2
India,Uttarakhand,Kashipur,"Govt. Girls Inter College, Kashipur - UKPCB",02-11-2025 07:00:00,29.2124114,78.9611753,PM2.5,131,360,304
India,Uttarakhand,Kashipur,"Govt. Girls Inter College, Kashipur - UKPCB",02-11-2025 07:00:00,29.2124114,78.9611753,PM10,117,312,225
India,Uttarakhand,Kashipur,"Govt. Girls Inter College, Kashipur - UKPCB",02-11-2025 07:00:00,29.2124114,78.9611753,NH3,2,16,5
India,Uttarakhand,Rishikesh,"Shivaji Nagar, Rishikesh - UKPCB",02-11-2025 07:00:00,30.075911,78.2859547,PM10,71,108,87
India,Uttarakhand,Rishikesh,"Shivaji Nagar, Rishikesh - UKPCB",02-11-2025 07:00:00,30.075911,78.2859547,NH3,4,8,6
India,Uttarakhand,Rishikesh,"Shivaji Nagar, Rishikesh - UKPCB",02-11-2025 07:00:00,30.075911,78.2859547,OZONE,8,14,9
India,West_Bengal,Asansol,"Asansol Court Area, Asansol - WBPCB",02-11-2025 07:00:00,23.685297,86.945968,PM2.5,26,52,38
India,West_Bengal,Asansol,"Asansol Court Area, Asansol - WBPCB",02-11-2025 07:00:00,23.685297,86.945968,NO2,15,36,24
India,West_Bengal,Asansol,"Asansol Court Area, Asansol - WBPCB",02-11-2025 07:00:00,23.685297,86.945968,CO,20,64,30
India,West_Bengal,Asansol,"Mahabir Colliery, Asansol - WBPCB",02-11-2025 07:00:00,23.6181830,87.1057180,PM10,14,35,23
India,West_Bengal,Asansol,"Mahabir Colliery, Asansol - WBPCB",02-11-2025 07:00:00,23.6181830,87.1057180,SO2,NA,NA,NA
India,West_Bengal,Asansol,"Trivenidevi Bhalotia College, Asansol - WBPCB",02-11-2025 07:00:00,23.616515,87.119133,NO2,7,17,12
India,Uttar_Pradesh,Moradabad,"Employment Office, Moradabad - UPPCB",02-11-2025 07:00:00,28.88528,78.73880,PM2.5,106,301,194
India,Uttar_Pradesh,Moradabad,"Employment Office, Moradabad - UPPCB",02-11-2025 07:00:00,28.88528,78.73880,NO2,16,16,16
India,Uttar_Pradesh,Moradabad,"Jigar Colony, Moradabad - UPPCB",02-11-2025 07:00:00,28.856664,78.772638,PM2.5,43,208,112
India,Uttar_Pradesh,Moradabad,"Jigar Colony, Moradabad - UPPCB",02-11-2025 07:00:00,28.856664,78.772638,NH3,6,9,6
India,Uttar_Pradesh,Moradabad,"Kashiram Nagar, Moradabad - UPPCB",02-11-2025 07:00:00,28.849399,78.742362,OZONE,22,60,24
India,Uttar_Pradesh,Moradabad,"Transport Nagar, Moradabad - UPPCB",02-11-2025 07:00:00,28.802625,78.753728,PM10,69,152,126
India,Uttar_Pradesh,Moradabad,"Transport Nagar, Moradabad - UPPCB",02-11-2025 07:00:00,28.802625,78.753728,CO,18,26,19
India,Uttar_Pradesh,Moradabad,"Transport Nagar, Moradabad - UPPCB",02-11-2025 07:00:00,28.802625,78.753728,OZONE,25,48,29
India,West_Bengal,Haldia,"Priyambada Housing Estate, Haldia - WBPCB",02-11-2025 07:00:00,22.06047,88.109737,OZONE,21,32,22
India,West_Bengal,Howrah,"Belur Math, Howrah - WBPCB",02-11-2025 07:00:00,22.629801,88.352017,PM2.5,24,75,54
India,West_Bengal,Howrah,"Botanical Garden, Howrah - WBPCB",02-11-2025 07:00:00,22.554954,88.292568,NH3,1,3,2
India,West_Bengal,Howrah,"Botanical Garden, Howrah - WBPCB",02-11-2025 07:00:00,22.554954,88.292568,CO,12,24,15
India,West_Bengal,Howrah,"Dasnagar, Howrah - WBPCB",02-11-2025 07:00:00,22.6025571,88.3105664,SO2,11,11,11
India,West_Bengal,Howrah,"Ghusuri, Howrah - WBPCB",02-11-2025 07:00:00,22.611968,88.347422,PM2.5,17,89,49
India,West_Bengal,Howrah,"Ghusuri, Howrah - WBPCB",02-11-2025 07:00:00,22.611968,88.347422,NO2,21,38,26
India,Uttar_Pradesh,Meerut,"Ganga Nagar, Meerut - UPPCB",02-11-2025 07:00:00,28.999264,77.7590354,SO2,4,20,12
India,Uttar_Pradesh,Meerut,"Ganga Nagar, Meerut - UPPCB",02-11-2025 07:00:00,28.999264,77.7590354,OZONE,20,112,33
India,Uttar_Pradesh,Meerut,"Pallavpuram Phase 2, Meerut - UPPCB",02-11-2025 07:00:00,29.063510,77.709723,OZONE,11,110,27
India,Uttar_Pradesh,Moradabad,"Buddhi Vihar, Moradabad - UPPCB",02-11-2025 07:00:00,28.83526,78.74460,PM2.5,67,251,148
India,Uttar_Pradesh,Moradabad,"Buddhi Vihar, Moradabad - UPPCB",02-11-2025 07:00:00,28.83526,78.74460,NH3,5,5,5
India,Uttar_Pradesh,Moradabad,"Buddhi Vihar, Moradabad - UPPCB",02-11-2025 07:00:00,28.83526,78.74460,CO,46,52,52
India,Uttar_Pradesh,Moradabad,"Eco Herbal Park, Moradabad - UPPCB",02-11-2025 07:00:00,28.840739,78.697531,CO,20,72,35
India,Uttar_Pradesh,Noida,"Sector - 125, Noida - UPPCB",02-11-2025 07:00:00,28.5447608,77.3231257,NO2,37,131,95
India,Uttar_Pradesh,Noida,"Sector - 125, Noida - UPPCB",02-11-2025 07:00:00,28.5447608,77.3231257,OZONE,10,116,12
India,Uttar_Pradesh,Noida,"Sector - 62, Noida - IMD",02-11-2025 07:00:00,28.6245479,77.3577104,PM2.5,205,403,336
India,Uttar_Pradesh,Noida,"Sector - 62, Noida - IMD",02-11-2025 07:00:00,28.6245479,77.3577104,PM10,152,415,249
India,Uttar_Pradesh,Noida,"Sector - 62, Noida - IMD",02-11-2025 07:00:00,28.6245479,77.3577104,CO,22,68,51
India,Uttar_Pradesh,Noida,"Sector-1, Noida - UPPCB",02-11-2025 07:00:00,28.5898,77.3101,SO2,9,18,13
India,Uttar_Pradesh,Noida,"Sector-116, Noida - UPPCB",02-11-2025 07:00:00,28.569230,77.393848,PM2.5,308,405,356
India,Uttar_Pradesh,Prayagraj,"Jhunsi, Prayagraj - UPPCB",02-11-2025 07:00:00,25.425602,81.917152,PM2.5,16,152,48
India,Uttar_Pradesh,Prayagraj,"Jhunsi, Prayagraj - UPPCB",02-11-2025 07:00:00,25.425602,81.917152,OZONE,16,23,17
India,Uttar_Pradesh,Prayagraj,"Motilal Nehru NIT, Prayagraj - UPPCB",02-11-2025 07:00:00,25.494,81.863,SO2,14,54,43
India,Uttar_Pradesh,Prayagraj,"Motilal Nehru NIT, Prayagraj - UPPCB",02-11-2025 07:00:00,25.494,81.863,OZONE,7,47,7
India,Uttar_Pradesh,Prayagraj,"Nagar Nigam, Prayagraj - UPPCB",02-11-2025 07:00:00,25.44919916 ,81.82735986 ,SO2,5,41,22
India,Uttar_Pradesh,Varanasi,"Bhelupur, Varanasi - UPPCB",02-11-2025 07:00:00,25.301778,82.996789,PM2.5,4,35,19
India,West_Bengal,Asansol,"Trivenidevi Bhalotia College, Asansol - WBPCB",02-11-2025 07:00:00,23.616515,87.119133,CO,22,48,25
India,West_Bengal,Durgapur,"Mahishkapur Road_B-Zone, Durgapur - WBPCB",02-11-2025 07:00:00,23.567923,87.306843,PM10,17,61,34
India,West_Bengal,Durgapur,"PCBL Residential Complex, Durgapur - WBPCB",02-11-2025 07:00:00,23.5087640,87.3544400,SO2,2,4,3
India,Uttar_Pradesh,Lucknow,"Talkatora District Industries Center, Lucknow - CPCB",02-11-2025 07:00:00,26.83399722,80.8917361,NH3,9,10,10
India,Uttar_Pradesh,Lucknow,"Talkatora District Industries Center, Lucknow - CPCB",02-11-2025 07:00:00,26.83399722,80.8917361,OZONE,9,54,12
India,West_Bengal,Howrah,"Padmapukur, Howrah - WBPCB",02-11-2025 07:00:00,22.5687319,88.2797276,CO,6,46,23
India,West_Bengal,Kolkata,"Bidhannagar, Kolkata - WBPCB",02-11-2025 07:00:00,22.58157048,88.41002457,PM2.5,16,62,36
India,West_Bengal,Kolkata,"Bidhannagar, Kolkata - WBPCB",02-11-2025 07:00:00,22.58157048,88.41002457,OZONE,18,32,19
India,West_Bengal,Kolkata,"Jadavpur, Kolkata - WBPCB",02-11-2025 07:00:00,22.49929,88.36917,SO2,5,11,7
India,West_Bengal,Kolkata,"Rabindra Sarobar, Kolkata - WBPCB",02-11-2025 07:00:00,22.51106,88.35142,CO,16,43,20
India,West_Bengal,Kolkata,"Victoria, Kolkata - WBPCB",02-11-2025 07:00:00,22.5448082,88.3403691,PM10,36,76,58
India,Andhra_Pradesh,Anantapur,"Gulzarpet, Anantapur - APPCB",02-11-2025 07:00:00,14.675886,77.593027,PM10,32,55,42
India,Andhra_Pradesh,Anantapur,"Gulzarpet, Anantapur - APPCB",02-11-2025 07:00:00,14.675886,77.593027,NO2,18,22,20
India,Andhra_Pradesh,Anantapur,"Gulzarpet, Anantapur - APPCB",02-11-2025 07:00:00,14.675886,77.593027,NH3,4,4,4
India,Andhra_Pradesh,Anantapur,"Gulzarpet, Anantapur - APPCB",02-11-2025 07:00:00,14.675886,77.593027,CO,16,70,23
India,Andhra_Pradesh,Chittoor,"Gangineni Cheruvu, Chittoor - APPCB",02-11-2025 07:00:00,13.204880,79.097889,NO2,17,25,22
India,Andhra_Pradesh,Kadapa,"Yerramukkapalli, Kadapa - APPCB",02-11-2025 07:00:00,14.465052,78.824187,SO2,16,16,16
India,Andhra_Pradesh,Rajamahendravaram,"Anand Kala Kshetram, Rajamahendravaram - APPCB",02-11-2025 07:00:00,16.9872867,81.7363176,SO2,6,10,8
India,Andhra_Pradesh,Tirumala,"Toll Gate, Tirumala - APPCB",02-11-2025 07:00:00,13.67,79.35,PM2.5,28,91,48
India,Assam,Silchar,"Tarapur, Silchar - PCBA",02-11-2025 07:00:00,24.82827,92.79525,PM10,43,70,53
India,Assam,Sivasagar,"Girls College, Sivasagar - PCBA",02-11-2025 07:00:00,26.987634,94.636574,OZONE,1,2,2
India,Bihar,Araria,"Kharahiya Basti, Araria - BSPCB",02-11-2025 07:00:00,26.146529,87.454184,PM2.5,37,93,49
India,Bihar,Araria,"Kharahiya Basti, Araria - BSPCB",02-11-2025 07:00:00,26.146529,87.454184,NO2,2,109,31
India,Bihar,Araria,"Kharahiya Basti, Araria - BSPCB",02-11-2025 07:00:00,26.146529,87.454184,NH3,5,6,5
India,Bihar,Araria,"Kharahiya Basti, Araria - BSPCB",02-11-2025 07:00:00,26.146529,87.454184,SO2,18,23,21
India,Bihar,Aurangabad,"Gurdeo Nagar, Aurangabad - BSPCB",02-11-2025 07:00:00,24.75746,84.366208,NO2,7,8,8
India,Bihar,Aurangabad,"Gurdeo Nagar, Aurangabad - BSPCB",02-11-2025 07:00:00,24.75746,84.366208,CO,100,103,102
India,Bihar,Hajipur,"Industrial Area, Hajipur - BSPCB",02-11-2025 07:00:00,25.697189,85.245900,PM10,9,47,18
India,Bihar,Hajipur,"Industrial Area, Hajipur - BSPCB",02-11-2025 07:00:00,25.697189,85.245900,NH3,3,5,4
India,Bihar,Katihar,"Mirchaibari, Katihar - BSPCB",02-11-2025 07:00:00,25.560083,87.553265,PM2.5,2,7,4
India,Bihar,Katihar,"Mirchaibari, Katihar - BSPCB",02-11-2025 07:00:00,25.560083,87.553265,CO,76,98,85
India,Bihar,Kishanganj,"SDM Office_Khagra, Kishanganj - BSPCB",02-11-2025 07:00:00,26.0881305,87.93840336,PM10,NA,NA,NA
India,Bihar,Manguraha,"Forest Rest House, Manguraha - BSPCB",02-11-2025 07:00:00,27.308328,84.531742,SO2,15,17,16
India,Bihar,Motihari,"Gandak Colony, Motihari - BSPCB",02-11-2025 07:00:00,26.63086,84.90051,NH3,3,3,3
India,Bihar,Chhapra,"Darshan Nagar, Chhapra - BSPCB",02-11-2025 07:00:00,25.7808257,84.7446768,PM2.5,3,43,14
India,Bihar,Gaya,"Collectorate, Gaya - BSPCB",02-11-2025 07:00:00,24.7955,84.9994,NO2,9,9,9
India,Bihar,Gaya,"Kareemganj, Gaya - BSPCB",02-11-2025 07:00:00,24.792403,84.992416,NH3,4,6,5
India,Bihar,Gaya,"Kareemganj, Gaya - BSPCB",02-11-2025 07:00:00,24.792403,84.992416,OZONE,2,59,24
India,Bihar,Gaya,"SFTI Kusdihra, Gaya - BSPCB",02-11-2025 07:00:00,24.762518,84.982348,NO2,19,26,23
India,Andhra_Pradesh,Visakhapatnam,"GVM Corporation, Visakhapatnam - APPCB",02-11-2025 07:00:00,17.72,83.3,PM2.5,60,148,88
India,Arunachal_Pradesh,Naharlagun,"Naharlagun, Naharlagun - APSPCB",02-11-2025 07:00:00,27.103358,93.679645,PM10,10,45,29
India,Assam,Guwahati,"IITG, Guwahati - PCBA",02-11-2025 07:00:00,26.2028636,91.70046436,NO2,1,2,1
India,Assam,Guwahati,"IITG, Guwahati - PCBA",02-11-2025 07:00:00,26.2028636,91.70046436,SO2,22,24,23
India,Bihar,Muzaffarpur,"Buddha Colony, Muzaffarpur - BSPCB",02-11-2025 07:00:00,26.11442,85.39813,SO2,2,5,4
India,Bihar,Muzaffarpur,"Buddha Colony, Muzaffarpur - BSPCB",02-11-2025 07:00:00,26.11442,85.39813,OZONE,11,39,14
India,Bihar,Muzaffarpur,"MIT-Daudpur Kothi, Muzaffarpur - BSPCB",02-11-2025 07:00:00,26.1403345,85.3650192,PM2.5,25,42,31
India,Bihar,Muzaffarpur,"MIT-Daudpur Kothi, Muzaffarpur - BSPCB",02-11-2025 07:00:00,26.1403345,85.3650192,SO2,11,20,15
India,Bihar,Muzaffarpur,"Muzaffarpur Collectorate, Muzaffarpur - BSPCB",02-11-2025 07:00:00,26.1209,85.3647,CO,8,50,9
India,Andaman and Nicobar,Sri Vijaya Puram,"Police Line, Sri Vijaya Puram - ANPCC",02-11-2025 07:00:00,11.654054,92.734055,NH3,NA,NA,NA
India,Andhra_Pradesh,Amaravati,"Secretariat, Amaravati - APPCB",02-11-2025 07:00:00,16.5150833,80.5181667,NO2,13,39,21
India,Andhra_Pradesh,Amaravati,"Secretariat, Amaravati - APPCB",02-11-2025 07:00:00,16.5150833,80.5181667,NH3,3,5,4
India,Andhra_Pradesh,Amaravati,"Secretariat, Amaravati - APPCB",02-11-2025 07:00:00,16.5150833,80.5181667,CO,12,32,25
India,Andhra_Pradesh,Tirupati,"Vaikuntapuram, Tirupati - APPCB",02-11-2025 07:00:00,13.615387,79.409230,PM2.5,NA,NA,NA
India,Andhra_Pradesh,Tirupati,"Vaikuntapuram, Tirupati - APPCB",02-11-2025 07:00:00,13.615387,79.409230,PM10,NA,NA,NA
India,Andhra_Pradesh,Tirupati,"Vaikuntapuram, Tirupati - APPCB",02-11-2025 07:00:00,13.615387,79.409230,NO2,NA,NA,NA
India,Andhra_Pradesh,Tirupati,"Vaikuntapuram, Tirupati - APPCB",02-11-2025 07:00:00,13.615387,79.409230,SO2,NA,NA,NA
India,Andhra_Pradesh,Tirupati,"Vaikuntapuram, Tirupati - APPCB",02-11-2025 07:00:00,13.615387,79.409230,CO,NA,NA,NA
India,Andhra_Pradesh,Vijayawada,"HB Colony, Vijayawada - APPCB",02-11-2025 07:00:00,16.536107,80.594233,PM10,49,87,70
India,Assam,Guwahati,"Pan Bazaar, Guwahati - PCBA",02-11-2025 07:00:00,26.187500,91.744194,OZONE,17,18,18
India,Assam,Nagaon,"Christianpatty, Nagaon - PCBA",02-11-2025 07:00:00,26.349082,92.68449,PM10,35,73,51
India,Bihar,Bhagalpur,"Mayaganj, Bhagalpur - BSPCB",02-11-2025 07:00:00,25.265194,87.012947,NH3,2,8,5
India,Chhattisgarh,Raipur,"Krishak Nagar, Raipur - CECB",02-11-2025 07:00:00,21.237755,81.705301,SO2,5,12,8
India,Chhattisgarh,Raipur,"Siltara Phase-II, Raipur - CECB",02-11-2025 07:00:00,21.371751,81.664929,PM2.5,23,44,33
India,Chhattisgarh,Raipur,"Siltara Phase-II, Raipur - CECB",02-11-2025 07:00:00,21.371751,81.664929,OZONE,7,34,13
India,Chhattisgarh,Tumidih,"OP Jindal Industrial Park, Tumidih - CECB",02-11-2025 07:00:00,22.06631475,83.33820077,CO,15,30,22
India,Chhattisgarh,Tumidih,"OP Jindal Industrial Park, Tumidih - CECB",02-11-2025 07:00:00,22.06631475,83.33820077,OZONE,4,31,5
India,Delhi,Delhi,"Alipur, Delhi - DPCC",02-11-2025 07:00:00,28.815329,77.153010,PM2.5,203,489,381
India,Delhi,Delhi,"Alipur, Delhi - DPCC",02-11-2025 07:00:00,28.815329,77.153010,NH3,3,4,4
India,Delhi,Delhi,"Alipur, Delhi - DPCC",02-11-2025 07:00:00,28.815329,77.153010,OZONE,3,53,7
India,Delhi,Delhi,"Anand Vihar, Delhi - DPCC",02-11-2025 07:00:00,28.647622,77.3158090,PM2.5,302,500,392
India,Delhi,Delhi,"Anand Vihar, Delhi - DPCC",02-11-2025 07:00:00,28.647622,77.3158090,NH3,3,63,15
India,Chhattisgarh,Korba,"Urja Nagar, Korba - CECB",02-11-2025 07:00:00,22.348441,82.549611,OZONE,35,36,35
India,Chhattisgarh,Kunjemura,"OP Jindal School, Kunjemura - CECB",02-11-2025 07:00:00,22.126650,83.483212,SO2,4,11,8
India,Chhattisgarh,Kunjemura,"OP Jindal School, Kunjemura - CECB",02-11-2025 07:00:00,22.126650,83.483212,OZONE,12,15,12
India,Chhattisgarh,Milupara,"Govt. Higher Secondary School, Milupara - CECB",02-11-2025 07:00:00,22.1910172,83.5197009,NO2,NA,NA,NA
India,Chhattisgarh,Raipur,"AIIMS, Raipur - CECB",02-11-2025 07:00:00,21.258815,81.578979,PM10,20,56,32
India,Chhattisgarh,Raipur,"Bhatagaon New ISBT, Raipur - CECB",02-11-2025 07:00:00,21.219665,81.630094,PM2.5,8,58,18
India,Chhattisgarh,Raipur,"Bhatagaon New ISBT, Raipur - CECB",02-11-2025 07:00:00,21.219665,81.630094,PM10,23,161,48
India,Chhattisgarh,Raipur,"Bhatagaon New ISBT, Raipur - CECB",02-11-2025 07:00:00,21.219665,81.630094,NO2,3,19,11
India,Chhattisgarh,Raipur,"Bhatagaon New ISBT, Raipur - CECB",02-11-2025 07:00:00,21.219665,81.630094,NH3,2,2,2
India,Chhattisgarh,Raipur,"Bhatagaon New ISBT, Raipur - CECB",02-11-2025 07:00:00,21.219665,81.630094,SO2,6,10,7
India,Bihar,Saharsa,"Police Line, Saharsa - BSPCB",02-11-2025 07:00:00,25.892357,86.590325,OZONE,8,20,11
India,Bihar,Samastipur,"DM Office_Kasipur, Samastipur - BSPCB",02-11-2025 07:00:00,25.859655,85.77944,NO2,NA,NA,NA
India,Bihar,Samastipur,"DM Office_Kasipur, Samastipur - BSPCB",02-11-2025 07:00:00,25.859655,85.77944,OZONE,NA,NA,NA
India,Bihar,Sasaram,"Dada Peer, Sasaram - BSPCB",02-11-2025 07:00:00,24.952822,84.002396,OZONE,16,34,19
India,Bihar,Siwan,"Chitragupta Nagar, Siwan - BSPCB",02-11-2025 07:00:00,26.2271665,84.3570427,PM10,4,125,28
India,Bihar,Siwan,"Chitragupta Nagar, Siwan - BSPCB",02-11-2025 07:00:00,26.2271665,84.3570427,CO,58,131,83
India,Chandigarh,Chandigarh,"Sector 22, Chandigarh - CPCC",02-11-2025 07:00:00,30.735567,76.775714,NO2,19,77,40
India,Chandigarh,Chandigarh,"Sector 22, Chandigarh - CPCC",02-11-2025 07:00:00,30.735567,76.775714,NH3,8,11,9
India,Chhattisgarh,Bhilai,"Hathkhoj, Bhilai - CECB",02-11-2025 07:00:00,21.224231,81.408350,NO2,14,41,24
India,Chhattisgarh,Bhilai,"Hathkhoj, Bhilai - CECB",02-11-2025 07:00:00,21.224231,81.408350,CO,10,50,33
India,Chhattisgarh,Bilaspur,"Mangala, Bilaspur - NTPC",02-11-2025 07:00:00,22.08815,82.13737,PM2.5,11,90,34
India,Chhattisgarh,Bilaspur,"Mangala, Bilaspur - NTPC",02-11-2025 07:00:00,22.08815,82.13737,PM10,15,114,45
India,Chhattisgarh,Chhal,"Nawapara SECL Colony, Chhal - CECB",02-11-2025 07:00:00,22.118125,83.140608,PM2.5,8,87,33
India,Chhattisgarh,Chhal,"Nawapara SECL Colony, Chhal - CECB",02-11-2025 07:00:00,22.118125,83.140608,NH3,5,6,5
India,Chhattisgarh,Chhal,"Nawapara SECL Colony, Chhal - CECB",02-11-2025 07:00:00,22.118125,83.140608,CO,18,48,28
India,Chhattisgarh,Korba,"Urja Nagar, Korba - CECB",02-11-2025 07:00:00,22.348441,82.549611,SO2,8,13,10
India,Bihar,Patna,"DRM Office Danapur, Patna - BSPCB",02-11-2025 07:00:00,25.586562,85.043586,OZONE,3,14,11
India,Bihar,Patna,"Govt. High School Shikarpur, Patna - BSPCB",02-11-2025 07:00:00,25.592539,85.227158,CO,21,62,28
India,Bihar,Patna,"IGSC Planetarium Complex, Patna - BSPCB",02-11-2025 07:00:00,25.610369,85.132568,NO2,1,12,11
India,Bihar,Patna,"IGSC Planetarium Complex, Patna - BSPCB",02-11-2025 07:00:00,25.610369,85.132568,OZONE,26,32,30
India,Bihar,Patna,"Muradpur, Patna - BSPCB",02-11-2025 07:00:00,25.619651,85.147382,PM2.5,9,49,27
India,Bihar,Patna,"Rajbansi Nagar, Patna - BSPCB",02-11-2025 07:00:00,25.599486,85.113666,PM2.5,12,40,22
India,Delhi,Delhi,"Anand Vihar, Delhi - DPCC",02-11-2025 07:00:00,28.647622,77.3158090,CO,105,164,133
India,Delhi,Delhi,"Aya Nagar, Delhi - IMD",02-11-2025 07:00:00,28.4706914,77.1099364,PM2.5,239,441,374
India,Delhi,Delhi,"Bawana, Delhi - DPCC",02-11-2025 07:00:00,28.776200,77.051074,PM2.5,307,490,413
India,Delhi,Delhi,"Bawana, Delhi - DPCC",02-11-2025 07:00:00,28.776200,77.051074,NH3,6,11,8
India,Delhi,Delhi,"Bawana, Delhi - DPCC",02-11-2025 07:00:00,28.776200,77.051074,SO2,2,81,26
India,Chandigarh,Chandigarh,"Sector 22, Chandigarh - CPCC",02-11-2025 07:00:00,30.735567,76.775714,SO2,5,14,8
India,Chandigarh,Chandigarh,"Sector-53, Chandigarh - CPCC",02-11-2025 07:00:00,30.719859,76.738637,PM10,68,151,110
India,Chandigarh,Chandigarh,"Sector-53, Chandigarh - CPCC",02-11-2025 07:00:00,30.719859,76.738637,CO,47,101,67
India,Chandigarh,Chandigarh,"Sector-53, Chandigarh - CPCC",02-11-2025 07:00:00,30.719859,76.738637,OZONE,2,91,21
India,Delhi,Delhi,"Dr. Karni Singh Shooting Range, Delhi - DPCC",02-11-2025 07:00:00,28.498571,77.264840,NO2,62,112,86
India,Delhi,Delhi,"Dr. Karni Singh Shooting Range, Delhi - DPCC",02-11-2025 07:00:00,28.498571,77.264840,NH3,12,15,13
India,Delhi,Delhi,"Dr. Karni Singh Shooting Range, Delhi - DPCC",02-11-2025 07:00:00,28.498571,77.264840,SO2,17,26,21
India,Bihar,Saharsa,"Police Line, Saharsa - BSPCB",02-11-2025 07:00:00,25.892357,86.590325,PM10,3,121,37
India,Delhi,Delhi,"Sonia Vihar, Delhi - DPCC",02-11-2025 07:00:00,28.710508,77.249485,OZONE,6,91,9
India,Delhi,Delhi,"Sri Aurobindo Marg, Delhi - DPCC",02-11-2025 07:00:00,28.531346,77.190156,NO2,15,59,30
India,Delhi,Delhi,"Vivek Vihar, Delhi - DPCC",02-11-2025 07:00:00,28.672342,77.315260,NO2,41,143,86
India,Delhi,Delhi,"Vivek Vihar, Delhi - DPCC",02-11-2025 07:00:00,28.672342,77.315260,SO2,10,25,15
India,Delhi,Delhi,"Vivek Vihar, Delhi - DPCC",02-11-2025 07:00:00,28.672342,77.315260,CO,59,128,86
India,Delhi,Delhi,"Vivek Vihar, Delhi - DPCC",02-11-2025 07:00:00,28.672342,77.315260,OZONE,3,42,4
India,Gujarat,Ahmedabad,"Chandkheda, Ahmedabad - IITM",02-11-2025 07:00:00,23.107969,72.574648,PM2.5,10,50,26
India,Gujarat,Ahmedabad,"Chandkheda, Ahmedabad - IITM",02-11-2025 07:00:00,23.107969,72.574648,PM10,25,73,48
India,Gujarat,Ahmedabad,"Chandkheda, Ahmedabad - IITM",02-11-2025 07:00:00,23.107969,72.574648,CO,11,104,75
India,Gujarat,Ahmedabad,"Chandkheda, Ahmedabad - IITM",02-11-2025 07:00:00,23.107969,72.574648,OZONE,NA,NA,NA
India,Gujarat,Ahmedabad,"Gyaspur, Ahmedabad - IITM",02-11-2025 07:00:00,22.977134,72.553024,PM2.5,21,65,42
India,Delhi,Delhi,"Najafgarh, Delhi - DPCC",02-11-2025 07:00:00,28.570173,76.933762,OZONE,5,61,8
India,Delhi,Delhi,"Narela, Delhi - DPCC",02-11-2025 07:00:00,28.822836,77.101981,NH3,15,20,17
India,Delhi,Delhi,"Narela, Delhi - DPCC",02-11-2025 07:00:00,28.822836,77.101981,CO,20,80,56
India,Delhi,Delhi,"Nehru Nagar, Delhi - DPCC",02-11-2025 07:00:00,28.567890,77.250515,CO,57,117,92
India,Delhi,Delhi,"North Campus, DU, Delhi - IMD",02-11-2025 07:00:00,28.6573814,77.1585447,NO2,95,156,130
India,Delhi,Delhi,"Okhla Phase-2, Delhi - DPCC",02-11-2025 07:00:00,28.530785,77.271255,PM2.5,302,464,382
India,Delhi,Delhi,"Okhla Phase-2, Delhi - DPCC",02-11-2025 07:00:00,28.530785,77.271255,NO2,73,160,113
India,Delhi,Delhi,"Okhla Phase-2, Delhi - DPCC",02-11-2025 07:00:00,28.530785,77.271255,NH3,6,10,8
India,Gujarat,Ahmedabad,"Gyaspur, Ahmedabad - IITM",02-11-2025 07:00:00,22.977134,72.553024,NO2,39,77,55
India,Gujarat,Ahmedabad,"Maninagar, Ahmedabad - GPCB",02-11-2025 07:00:00,23.002657,72.591912,PM10,37,110,76
India,Gujarat,Ahmedabad,"Maninagar, Ahmedabad - GPCB",02-11-2025 07:00:00,23.002657,72.591912,NO2,26,39,32
India,Gujarat,Ahmedabad,"Maninagar, Ahmedabad - GPCB",02-11-2025 07:00:00,23.002657,72.591912,SO2,16,24,19
India,Gujarat,Ahmedabad,"Raikhad, Ahmedabad - IITM",02-11-2025 07:00:00,23.020509,72.579261,PM2.5,NA,NA,NA
India,Gujarat,Ahmedabad,"Raikhad, Ahmedabad - IITM",02-11-2025 07:00:00,23.020509,72.579261,NH3,12,17,14
India,Gujarat,Ahmedabad,"Rakhial, Ahmedabad - IITM",02-11-2025 07:00:00,23.016834,72.625775,PM10,33,79,60
India,Gujarat,Ahmedabad,"SAC ISRO Bopal, Ahmedabad - IITM",02-11-2025 07:00:00,23.041137,72.456691,NH3,2,3,3
India,Delhi,Delhi,"Dwarka-Sector 8, Delhi - DPCC ",02-11-2025 07:00:00,28.5710274,77.0719006,PM10,152,455,347
India,Delhi,Delhi,"Dwarka-Sector 8, Delhi - DPCC ",02-11-2025 07:00:00,28.5710274,77.0719006,NH3,5,6,6
India,Delhi,Delhi,"IGI Airport (T3), Delhi - IMD",02-11-2025 07:00:00,28.5627763,77.1180053,OZONE,1,5,3
India,Delhi,Delhi,"IHBAS, Dilshad Garden, Delhi - CPCB",02-11-2025 07:00:00,28.6811736,77.3025234,PM10,146,287,223
India,Delhi,Delhi,"IHBAS, Dilshad Garden, Delhi - CPCB",02-11-2025 07:00:00,28.6811736,77.3025234,NO2,50,55,52
India,Delhi,Delhi,"IHBAS, Dilshad Garden, Delhi - CPCB",02-11-2025 07:00:00,28.6811736,77.3025234,CO,62,102,68
India,Delhi,Delhi,"IHBAS, Dilshad Garden, Delhi - CPCB",02-11-2025 07:00:00,28.6811736,77.3025234,OZONE,2,68,5
India,Delhi,Delhi,"Jahangirpuri, Delhi - DPCC",02-11-2025 07:00:00,28.732820,77.170633,CO,49,124,105
India,Delhi,Delhi,"Jahangirpuri, Delhi - DPCC",02-11-2025 07:00:00,28.732820,77.170633,OZONE,10,11,10
India,Delhi,Delhi,"Jawaharlal Nehru Stadium, Delhi - DPCC",02-11-2025 07:00:00,28.580280,77.233829,PM2.5,243,471,392
India,Delhi,Delhi,"Lodhi Road, Delhi - IMD",02-11-2025 07:00:00,28.5918245,77.2273074,PM2.5,174,427,364
India,Delhi,Delhi,"Major Dhyan Chand National Stadium, Delhi - DPCC",02-11-2025 07:00:00,28.611281,77.237738,OZONE,1,142,2
India,Delhi,Delhi,"R K Puram, Delhi - DPCC",02-11-2025 07:00:00,28.563262,77.186937,CO,70,127,90
India,Delhi,Delhi,"R K Puram, Delhi - DPCC",02-11-2025 07:00:00,28.563262,77.186937,OZONE,2,83,5
India,Delhi,Delhi,"Rohini, Delhi - DPCC",02-11-2025 07:00:00,28.732528,77.119920,PM10,156,480,365
India,Delhi,Delhi,"Rohini, Delhi - DPCC",02-11-2025 07:00:00,28.732528,77.119920,SO2,1,6,3
India,Delhi,Delhi,"Shadipur, Delhi - CPCB",02-11-2025 07:00:00,28.6514781,77.1473105,SO2,1,15,9
India,Delhi,Delhi,"Sonia Vihar, Delhi - DPCC",02-11-2025 07:00:00,28.710508,77.249485,NH3,1,2,1
India,Delhi,Delhi,"Patparganj, Delhi - DPCC",02-11-2025 07:00:00,28.623763,77.287209,PM2.5,302,450,378
India,Delhi,Delhi,"Punjabi Bagh, Delhi - DPCC",02-11-2025 07:00:00,28.674045,77.131023,CO,40,110,61
India,Delhi,Delhi,"Pusa, Delhi - DPCC",02-11-2025 07:00:00,28.639652,77.146275,PM2.5,197,500,404
India,Delhi,Delhi,"Pusa, Delhi - DPCC",02-11-2025 07:00:00,28.639652,77.146275,PM10,117,500,355
India,Delhi,Delhi,"Pusa, Delhi - DPCC",02-11-2025 07:00:00,28.639652,77.146275,OZONE,4,29,5
India,Delhi,Delhi,"R K Puram, Delhi - DPCC",02-11-2025 07:00:00,28.563262,77.186937,PM10,173,460,334
India,Gujarat,Ahmedabad,"SVPI Airport Hansol, Ahmedabad - IITM",02-11-2025 07:00:00,23.076793,72.627874,PM2.5,19,42,27
India,Gujarat,Ahmedabad,"SVPI Airport Hansol, Ahmedabad - IITM",02-11-2025 07:00:00,23.076793,72.627874,OZONE,1,12,1
India,Gujarat,Ankleshwar,"GIDC, Ankleshwar - GPCB",02-11-2025 07:00:00,21.613267,73.010555,PM2.5,17,58,39
India,Gujarat,Gandhinagar,"GIFT City, Gandhinagar - IITM",02-11-2025 07:00:00,23.163798,72.677768,SO2,3,16,8
India,Delhi,Delhi,"Mundka, Delhi - DPCC",02-11-2025 07:00:00,28.684678,77.076574,SO2,7,39,21
India,Delhi,Delhi,"NSIT Dwarka, Delhi - CPCB",02-11-2025 07:00:00,28.60909,77.0325413,PM10,181,260,218
India,Delhi,Delhi,"NSIT Dwarka, Delhi - CPCB",02-11-2025 07:00:00,28.60909,77.0325413,NO2,66,109,89
India,Haryana,Palwal,"Shyam Nagar, Palwal - HSPCB",02-11-2025 07:00:00,28.1485564,77.3320667,PM2.5,118,125,120
India,Haryana,Palwal,"Shyam Nagar, Palwal - HSPCB",02-11-2025 07:00:00,28.1485564,77.3320667,PM10,95,99,96
India,Haryana,Palwal,"Shyam Nagar, Palwal - HSPCB",02-11-2025 07:00:00,28.1485564,77.3320667,CO,28,29,28
India,Haryana,Panchgaon,"Amity University, Panchgaon - IITM",02-11-2025 07:00:00,28.3153,76.9143,PM2.5,34,236,98
India,Haryana,Panchkula,"Sector-6, Panchkula - HSPCB ",02-11-2025 07:00:00,30.7057778,76.8531805555555,PM2.5,75,337,236
India,Haryana,Panchkula,"Sector-6, Panchkula - HSPCB ",02-11-2025 07:00:00,30.7057778,76.8531805555555,NO2,24,26,25
India,Haryana,Panchkula,"Sector-6, Panchkula - HSPCB ",02-11-2025 07:00:00,30.7057778,76.8531805555555,SO2,8,9,9
India,Haryana,Panchkula,"Sector-6, Panchkula - HSPCB ",02-11-2025 07:00:00,30.7057778,76.8531805555555,OZONE,30,232,36
India,Haryana,Panipat,"Sector-18, Panipat - HSPCB",02-11-2025 07:00:00,29.432304,76.972765,OZONE,30,30,30
India,Himachal Pradesh,Baddi,"HIMUDA Complex Phase-1, Baddi - HPPCB",02-11-2025 07:00:00,30.943887,76.801991,CO,50,100,81
India,Jammu_and_Kashmir,Srinagar,"Rajbagh, Srinagar - JKSPCB",02-11-2025 07:00:00,34.066206,74.819820,CO,12,17,13
India,Jharkhand,Dhanbad,"Sardar Patel Nagar, Dhanbad - JSPCB",02-11-2025 07:00:00,23.80569,86.44268,SO2,17,65,30
India,Jharkhand,Dhanbad,"Sardar Patel Nagar, Dhanbad - JSPCB",02-11-2025 07:00:00,23.80569,86.44268,CO,1,24,2
India,Karnataka,Belgaum,"Ramteerth Nagar, Belgaum - KSPCB",02-11-2025 07:00:00,15.888653,74.541751,PM10,12,27,19
India,Karnataka,Belgaum,"Ramteerth Nagar, Belgaum - KSPCB",02-11-2025 07:00:00,15.888653,74.541751,CO,27,34,32
India,Karnataka,Belgaum,"Ramteerth Nagar, Belgaum - KSPCB",02-11-2025 07:00:00,15.888653,74.541751,OZONE,18,19,19
India,Haryana,Hisar,"Urban Estate-II, Hisar - HSPCB",02-11-2025 07:00:00,29.140560,75.744941,NO2,11,12,12
India,Haryana,Hisar,"Urban Estate-II, Hisar - HSPCB",02-11-2025 07:00:00,29.140560,75.744941,NH3,4,5,5
India,Haryana,Jind,"Police Lines, Jind - HSPCB",02-11-2025 07:00:00,29.307814,76.337619,SO2,27,29,28
India,Haryana,Kaithal,"Rishi Nagar, Kaithal - HSPCB",02-11-2025 07:00:00,29.8006,76.4155,PM10,111,500,340
India,Haryana,Kaithal,"Rishi Nagar, Kaithal - HSPCB",02-11-2025 07:00:00,29.8006,76.4155,NO2,29,33,31
India,Haryana,Kaithal,"Rishi Nagar, Kaithal - HSPCB",02-11-2025 07:00:00,29.8006,76.4155,SO2,28,34,31
India,Haryana,Karnal,"Sector-12, Karnal - HSPCB",02-11-2025 07:00:00,29.695300,77.002700,NH3,6,7,6
India,Haryana,Karnal,"Sector-12, Karnal - HSPCB",02-11-2025 07:00:00,29.695300,77.002700,SO2,13,17,15
India,Haryana,Sirsa,"F-Block, Sirsa - HSPCB",02-11-2025 07:00:00,29.536400,75.015800,PM2.5,36,84,62
India,Haryana,Sirsa,"F-Block, Sirsa - HSPCB",02-11-2025 07:00:00,29.536400,75.015800,SO2,5,9,7
India,Haryana,Sirsa,"F-Block, Sirsa - HSPCB",02-11-2025 07:00:00,29.536400,75.015800,CO,62,96,82
India,Haryana,Sonipat,"Murthal, Sonipat - HSPCB",02-11-2025 07:00:00,29.027200,77.062100,PM2.5,75,403,246
India,Haryana,Sonipat,"Murthal, Sonipat - HSPCB",02-11-2025 07:00:00,29.027200,77.062100,NO2,12,60,44
India,Haryana,Sonipat,"Murthal, Sonipat - HSPCB",02-11-2025 07:00:00,29.027200,77.062100,SO2,6,12,8
India,Haryana,Sonipat,"Murthal, Sonipat - HSPCB",02-11-2025 07:00:00,29.027200,77.062100,OZONE,25,26,26
India,Haryana,Yamuna Nagar,"Gobind Pura, Yamuna Nagar - HSPCB",02-11-2025 07:00:00,30.1480566,77.2893471,NO2,11,11,11
India,Haryana,Charkhi Dadri,"Mini Secretariat, Charkhi Dadri - HSPCB",02-11-2025 07:00:00,28.593883,76.270653,PM10,153,373,282
India,Haryana,Charkhi Dadri,"Mini Secretariat, Charkhi Dadri - HSPCB",02-11-2025 07:00:00,28.593883,76.270653,NH3,5,8,6
India,Haryana,Faridabad,"New Industrial Town, Faridabad - HSPCB",02-11-2025 07:00:00,28.39072,77.30059,PM10,162,171,166
India,Haryana,Faridabad,"New Industrial Town, Faridabad - HSPCB",02-11-2025 07:00:00,28.39072,77.30059,NO2,24,27,25
India,Haryana,Faridabad,"New Industrial Town, Faridabad - HSPCB",02-11-2025 07:00:00,28.39072,77.30059,CO,10,14,11
India,Haryana,Faridabad,"Sector 11, Faridabad - HSPCB",02-11-2025 07:00:00,28.376058,77.315741,PM10,107,184,139
India,Haryana,Faridabad,"Sector 11, Faridabad - HSPCB",02-11-2025 07:00:00,28.376058,77.315741,SO2,3,101,49
India,Haryana,Faridabad,"Sector 30, Faridabad - HSPCB",02-11-2025 07:00:00,28.4417,77.3217,PM10,165,168,167
India,Haryana,Faridabad,"Sector 30, Faridabad - HSPCB",02-11-2025 07:00:00,28.4417,77.3217,SO2,6,6,6
India,Haryana,Gurugram,"NISE Gwal Pahari, Gurugram - IMD",02-11-2025 07:00:00,28.422681,77.148944,PM10,103,413,311
India,Haryana,Gurugram,"Sector-51, Gurugram - HSPCB",02-11-2025 07:00:00,28.4227,77.0667,NH3,6,22,13
India,Haryana,Gurugram,"Teri Gram, Gurugram - HSPCB",02-11-2025 07:00:00,28.4275,77.1465,PM10,NA,NA,NA
India,Gujarat,Surat,"Science Center, Surat - SMC",02-11-2025 07:00:00,21.170046,72.795405,PM2.5,4,37,23
India,Gujarat,Vapi,"Phase-1 GIDC, Vapi - GPCB",02-11-2025 07:00:00,20.362421,72.918013,PM2.5,15,86,46
India,Gujarat,Vapi,"Phase-1 GIDC, Vapi - GPCB",02-11-2025 07:00:00,20.362421,72.918013,PM10,22,107,52
India,Gujarat,Vatva,"Phase-4 GIDC, Vatva - GPCB",02-11-2025 07:00:00,22.969611,72.643500,NO2,6,15,12
India,Haryana,Kurukshetra,"Sector-7, Kurukshetra - HSPCB",02-11-2025 07:00:00,29.966942,76.875879,PM2.5,225,480,345
India,Haryana,Kurukshetra,"Sector-7, Kurukshetra - HSPCB",02-11-2025 07:00:00,29.966942,76.875879,CO,24,113,103
India,Haryana,Manesar,"Sector-2 IMT, Manesar - HSPCB",02-11-2025 07:00:00,28.360699,76.936090,NH3,13,17,15
India,Haryana,Ambala,"Patti Mehar, Ambala - HSPCB",02-11-2025 07:00:00,30.379589,76.778328,PM2.5,NA,NA,NA
India,Haryana,Bahadurgarh,"Arya Nagar, Bahadurgarh - HSPCB",02-11-2025 07:00:00,28.6701,76.9254,CO,24,50,44
India,Haryana,Bahadurgarh,"Arya Nagar, Bahadurgarh - HSPCB",02-11-2025 07:00:00,28.6701,76.9254,OZONE,15,19,17
India,Karnataka,Madikeri,"Stuart Hill, Madikeri - KSPCB",02-11-2025 07:00:00,12.415911,75.735050,PM2.5,NA,NA,NA
India,Karnataka,Mangalore,"Kadri, Mangalore - KSPCB",02-11-2025 07:00:00,12.889250,74.853000,OZONE,9,43,25
India,Karnataka,Mysuru,"Hebbal 1st Stage, Mysuru - KSPCB",02-11-2025 07:00:00,12.21041,76.37376,OZONE,8,75,13
India,Karnataka,Ramanagara,"Vijay Nagar, Ramanagara - KSPCB",02-11-2025 07:00:00,12.733409,77.298051,PM10,24,61,42
India,Karnataka,Ramanagara,"Vijay Nagar, Ramanagara - KSPCB",02-11-2025 07:00:00,12.733409,77.298051,CO,8,38,24
India,Karnataka,Shivamogga,"Vinoba Nagara, Shivamogga - KSPCB",02-11-2025 07:00:00,13.940000,75.555917,PM2.5,28,31,29
India,Karnataka,Shivamogga,"Vinoba Nagara, Shivamogga - KSPCB",02-11-2025 07:00:00,13.940000,75.555917,CO,16,25,22
India,Madhya Pradesh,Bhopal,"Idgah Hills, Bhopal - MPPCB",02-11-2025 07:00:00,23.264759,77.381568,SO2,6,11,7
India,Madhya Pradesh,Bhopal,"Paryavaran Parisar, Bhopal - MPPCB",02-11-2025 07:00:00,23.210494,77.425409,PM10,27,500,147
India,Madhya Pradesh,Bhopal,"T T Nagar, Bhopal - MPPCB",02-11-2025 07:00:00,23.233584,77.400574,PM10,47,318,99
India,Madhya Pradesh,Damoh,"Shrivastav Colony, Damoh - MPPCB",02-11-2025 07:00:00,23.81748678,79.446246,PM10,4,22,11
India,Madhya Pradesh,Damoh,"Shrivastav Colony, Damoh - MPPCB",02-11-2025 07:00:00,23.81748678,79.446246,CO,10,25,22
India,Madhya Pradesh,Dewas,"Bhopal Chauraha, Dewas - MPPCB",02-11-2025 07:00:00,22.9682591,76.064118,NO2,NA,NA,NA
India,Madhya Pradesh,Dewas,"Bhopal Chauraha, Dewas - MPPCB",02-11-2025 07:00:00,22.9682591,76.064118,SO2,3,83,47
India,Karnataka,Bengaluru,"Jayanagar 5th Block, Bengaluru - KSPCB",02-11-2025 07:00:00,12.920984,77.584908,CO,6,108,43
India,Karnataka,Bengaluru,"Jigani, Bengaluru - KSPCB",02-11-2025 07:00:00,12.7816279,77.6299145,OZONE,21,23,22
India,Karnataka,Bengaluru,"Kasturi Nagar, Bengaluru - KSPCB",02-11-2025 07:00:00,13.003872,77.664217,PM2.5,47,48,48
India,Karnataka,Bengaluru,"Kasturi Nagar, Bengaluru - KSPCB",02-11-2025 07:00:00,13.003872,77.664217,OZONE,23,24,23
