country,state,city,station,last_update,latitude,longitude,pollutant_id,min_value,max_value,avg_value
India,Andhra_Pradesh,Vijayawada,"Kanuru, Vijayawada - APPCB",14-02-2026 08:00:00,16.486692,80.699436,SO2,14,19,17
India,Andhra_Pradesh,Vijayawada,"Kanuru, Vijayawada - APPCB",14-02-2026 08:00:00,16.486692,80.699436,OZONE,29,33,33
India,Andhra_Pradesh,Vijayawada,"Rajiv Gandhi Park, Vijayawada - APPCB",14-02-2026 08:00:00,16.509717,80.612222,NO2,34,70,51
India,Andhra_Pradesh,Vijayawada,"Rajiv Gandhi Park, Vijayawada - APPCB",14-02-2026 08:00:00,16.509717,80.612222,OZONE,5,51,5
India,Andhra_Pradesh,Vijayawada,"Rajiv Nagar, Vijayawada - APPCB",14-02-2026 08:00:00,16.554731,80.649110,PM2.5,50,107,71
India,Andhra_Pradesh,Vijayawada,"Rajiv Nagar, Vijayawada - APPCB",14-02-2026 08:00:00,16.554731,80.649110,SO2,14,25,19
India,Andhra_Pradesh,Vijayawada,"Rajiv Nagar, Vijayawada - APPCB",14-02-2026 08:00:00,16.554731,80.649110,OZONE,NA,NA,NA
India,Andhra_Pradesh,Visakhapatnam,"GVM Corporation, Visakhapatnam - APPCB",14-02-2026 08:00:00,17.72,83.3,NH3,3,4,4
India,Andhra_Pradesh,Visakhapatnam,"GVM Corporation, Visakhapatnam - APPCB",14-02-2026 08:00:00,17.72,83.3,CO,6,72,48
India,Arunachal_Pradesh,Naharlagun,"Naharlagun, Naharlagun - APSPCB",14-02-2026 08:00:00,27.103358,93.679645,PM2.5,2,380,193
India,Assam,Byrnihat,"Central Academy for SFS, Byrnihat - PCBA",14-02-2026 08:00:00,26.071318,91.87488,SO2,32,33,32
India,Bihar,Bihar Sharif,"D M Colony, Bihar Sharif - BSPCB",14-02-2026 08:00:00,25.204762,85.514960,PM10,19,101,47
India,Bihar,Bihar Sharif,"D M Colony, Bihar Sharif - BSPCB",14-02-2026 08:00:00,25.204762,85.514960,NH3,5,5,5
India,Bihar,Bihar Sharif,"D M Colony, Bihar Sharif - BSPCB",14-02-2026 08:00:00,25.204762,85.514960,SO2,10,10,10
India,Bihar,Bihar Sharif,"D M Colony, Bihar Sharif - BSPCB",14-02-2026 08:00:00,25.204762,85.514960,OZONE,NA,NA,NA
India,Bihar,Buxar,"Charitra Van, Buxar - BSPCB",14-02-2026 08:00:00,25.567520,83.966379,NO2,9,10,10
India,Bihar,Buxar,"Charitra Van, Buxar - BSPCB",14-02-2026 08:00:00,25.567520,83.966379,OZONE,2,49,4
India,Bihar,Chhapra,"Darshan Nagar, Chhapra - BSPCB",14-02-2026 08:00:00,25.7808257,84.7446768,CO,40,56,50
India,Bihar,Chhapra,"Darshan Nagar, Chhapra - BSPCB",14-02-2026 08:00:00,25.7808257,84.7446768,OZONE,2,8,3
India,Bihar,Gaya,"Collectorate, Gaya - BSPCB",14-02-2026 08:00:00,24.7955,84.9994,NO2,8,10,9
India,Bihar,Gaya,"Collectorate, Gaya - BSPCB",14-02-2026 08:00:00,24.7955,84.9994,CO,42,100,47
India,Bihar,Gaya,"Collectorate, Gaya - BSPCB",14-02-2026 08:00:00,24.7955,84.9994,OZONE,17,19,18
India,Bihar,Gaya,"Kareemganj, Gaya - BSPCB",14-02-2026 08:00:00,24.792403,84.992416,PM2.5,18,247,83
India,Bihar,Patna,"DRM Office Danapur, Patna - BSPCB",14-02-2026 08:00:00,25.586562,85.043586,OZONE,NA,NA,NA
India,Bihar,Patna,"Govt. High School Shikarpur, Patna - BSPCB",14-02-2026 08:00:00,25.592539,85.227158,PM2.5,75,186,124
India,Bihar,Patna,"Govt. High School Shikarpur, Patna - BSPCB",14-02-2026 08:00:00,25.592539,85.227158,OZONE,9,12,10
India,Bihar,Patna,"IGSC Planetarium Complex, Patna - BSPCB",14-02-2026 08:00:00,25.610369,85.132568,PM2.5,50,187,116
India,Bihar,Patna,"Muradpur, Patna - BSPCB",14-02-2026 08:00:00,25.619651,85.147382,SO2,7,9,9
India,Bihar,Patna,"Rajbansi Nagar, Patna - BSPCB",14-02-2026 08:00:00,25.599486,85.113666,NO2,13,56,26
India,Bihar,Patna,"Rajbansi Nagar, Patna - BSPCB",14-02-2026 08:00:00,25.599486,85.113666,SO2,2,8,4
India,Bihar,Patna,"Rajbansi Nagar, Patna - BSPCB",14-02-2026 08:00:00,25.599486,85.113666,OZONE,24,311,133
India,Bihar,Patna,"Samanpura, Patna - BSPCB",14-02-2026 08:00:00,25.596727,85.085624,PM2.5,43,99,73
India,Bihar,Patna,"Samanpura, Patna - BSPCB",14-02-2026 08:00:00,25.596727,85.085624,SO2,3,5,4
India,Andhra_Pradesh,Kadapa,"Yerramukkapalli, Kadapa - APPCB",14-02-2026 08:00:00,14.465052,78.824187,PM10,38,108,90
India,Andhra_Pradesh,Rajamahendravaram,"Anand Kala Kshetram, Rajamahendravaram - APPCB",14-02-2026 08:00:00,16.9872867,81.7363176,SO2,7,31,17
India,Andhra_Pradesh,Tirumala,"Toll Gate, Tirumala - APPCB",14-02-2026 08:00:00,13.67,79.35,CO,14,35,19
India,Andhra_Pradesh,Tirupati,"Vaikuntapuram, Tirupati - APPCB",14-02-2026 08:00:00,13.615387,79.409230,NO2,NA,NA,NA
India,Andhra_Pradesh,Vijayawada,"HB Colony, Vijayawada - APPCB",14-02-2026 08:00:00,16.536107,80.594233,PM10,48,106,76
India,Andhra_Pradesh,Vijayawada,"HB Colony, Vijayawada - APPCB",14-02-2026 08:00:00,16.536107,80.594233,NO2,14,26,24
India,Andhra_Pradesh,Vijayawada,"HB Colony, Vijayawada - APPCB",14-02-2026 08:00:00,16.536107,80.594233,CO,32,41,40
India,Andhra_Pradesh,Vijayawada,"Kanuru, Vijayawada - APPCB",14-02-2026 08:00:00,16.486692,80.699436,NH3,3,3,3
India,Bihar,Rajgir,"Dangi Tola, Rajgir - BSPCB",14-02-2026 08:00:00,25.03280,85.41948,NH3,6,7,6
India,Bihar,Rajgir,"Dangi Tola, Rajgir - BSPCB",14-02-2026 08:00:00,25.03280,85.41948,SO2,19,23,21
India,Bihar,Saharsa,"Police Line, Saharsa - BSPCB",14-02-2026 08:00:00,25.892357,86.590325,PM10,56,146,93
India,Bihar,Saharsa,"Police Line, Saharsa - BSPCB",14-02-2026 08:00:00,25.892357,86.590325,SO2,15,19,17
India,Bihar,Samastipur,"DM Office_Kasipur, Samastipur - BSPCB",14-02-2026 08:00:00,25.859655,85.77944,NH3,1,1,1
India,Bihar,Samastipur,"DM Office_Kasipur, Samastipur - BSPCB",14-02-2026 08:00:00,25.859655,85.77944,CO,7,10,10
India,Bihar,Sasaram,"Dada Peer, Sasaram - BSPCB",14-02-2026 08:00:00,24.952822,84.002396,NH3,2,8,3
India,Bihar,Sasaram,"Dada Peer, Sasaram - BSPCB",14-02-2026 08:00:00,24.952822,84.002396,SO2,5,5,5
India,Bihar,Siwan,"Chitragupta Nagar, Siwan - BSPCB",14-02-2026 08:00:00,26.2271665,84.3570427,NO2,2,2,2
India,Assam,Sivasagar,"Girls College, Sivasagar - PCBA",14-02-2026 08:00:00,26.987634,94.636574,SO2,11,13,12
India,Bihar,Araria,"Kharahiya Basti, Araria - BSPCB",14-02-2026 08:00:00,26.146529,87.454184,PM10,23,105,65
India,Bihar,Arrah,"New DM Office, Arrah - BSPCB",14-02-2026 08:00:00,25.5626095,84.663264,NO2,5,9,7
India,Bihar,Arrah,"New DM Office, Arrah - BSPCB",14-02-2026 08:00:00,25.5626095,84.663264,NH3,1,2,2
India,Bihar,Aurangabad,"Gurdeo Nagar, Aurangabad - BSPCB",14-02-2026 08:00:00,24.75746,84.366208,NO2,7,8,8
India,Bihar,Aurangabad,"Gurdeo Nagar, Aurangabad - BSPCB",14-02-2026 08:00:00,24.75746,84.366208,CO,96,103,102
India,Bihar,Aurangabad,"Gurdeo Nagar, Aurangabad - BSPCB",14-02-2026 08:00:00,24.75746,84.366208,OZONE,8,65,24
India,Bihar,Bettiah,"Kamalnath Nagar, Bettiah - BSPCB",14-02-2026 08:00:00,26.80365,84.51954,NO2,7,9,8
India,Bihar,Manguraha,"Forest Rest House, Manguraha - BSPCB",14-02-2026 08:00:00,27.308328,84.531742,CO,32,33,32
India,Bihar,Motihari,"Gandak Colony, Motihari - BSPCB",14-02-2026 08:00:00,26.63086,84.90051,PM10,14,122,77
India,Bihar,Muzaffarpur,"Buddha Colony, Muzaffarpur - BSPCB",14-02-2026 08:00:00,26.11442,85.39813,CO,15,44,29
India,Bihar,Muzaffarpur,"MIT-Daudpur Kothi, Muzaffarpur - BSPCB",14-02-2026 08:00:00,26.1403345,85.3650192,PM2.5,86,98,88
India,Bihar,Muzaffarpur,"MIT-Daudpur Kothi, Muzaffarpur - BSPCB",14-02-2026 08:00:00,26.1403345,85.3650192,CO,40,52,42
India,Bihar,Muzaffarpur,"Muzaffarpur Collectorate, Muzaffarpur - BSPCB",14-02-2026 08:00:00,26.1209,85.3647,NO2,7,18,12
India,Bihar,Muzaffarpur,"Muzaffarpur Collectorate, Muzaffarpur - BSPCB",14-02-2026 08:00:00,26.1209,85.3647,OZONE,8,21,8
India,Assam,Guwahati,"LGBI Airport, Guwahati - PCBA",14-02-2026 08:00:00,26.10887,91.589544,SO2,7,15,11
India,Assam,Guwahati,"Pan Bazaar, Guwahati - PCBA",14-02-2026 08:00:00,26.187500,91.744194,PM2.5,107,390,283
India,Assam,Guwahati,"Pan Bazaar, Guwahati - PCBA",14-02-2026 08:00:00,26.187500,91.744194,CO,20,88,40
India,Assam,Nalbari,"Bata Chowk, Nalbari - PCBA",14-02-2026 08:00:00,26.446912,91.439057,SO2,7,8,8
India,Assam,Silchar,"Tarapur, Silchar - PCBA",14-02-2026 08:00:00,24.82827,92.79525,PM2.5,27,89,57
India,Assam,Silchar,"Tarapur, Silchar - PCBA",14-02-2026 08:00:00,24.82827,92.79525,SO2,3,6,5
India,Assam,Sivasagar,"Girls College, Sivasagar - PCBA",14-02-2026 08:00:00,26.987634,94.636574,PM2.5,NA,NA,NA
India,Andaman and Nicobar,Sri Vijaya Puram,"Police Line, Sri Vijaya Puram - ANPCC",14-02-2026 08:00:00,11.654054,92.734055,SO2,NA,NA,NA
India,Andhra_Pradesh,Amaravati,"Secretariat, Amaravati - APPCB",14-02-2026 08:00:00,16.5150833,80.5181667,PM10,82,318,157
India,Andhra_Pradesh,Amaravati,"Secretariat, Amaravati - APPCB",14-02-2026 08:00:00,16.5150833,80.5181667,SO2,13,17,15
India,Andhra_Pradesh,Anantapur,"Gulzarpet, Anantapur - APPCB",14-02-2026 08:00:00,14.675886,77.593027,CO,24,42,30
India,Andhra_Pradesh,Anantapur,"Gulzarpet, Anantapur - APPCB",14-02-2026 08:00:00,14.675886,77.593027,OZONE,17,17,17
India,Andhra_Pradesh,Chittoor,"Gangineni Cheruvu, Chittoor - APPCB",14-02-2026 08:00:00,13.204880,79.097889,PM10,43,59,49
India,Bihar,Gaya,"Kareemganj, Gaya - BSPCB",14-02-2026 08:00:00,24.792403,84.992416,CO,1,11,4
India,Bihar,Gaya,"SFTI Kusdihra, Gaya - BSPCB",14-02-2026 08:00:00,24.762518,84.982348,PM10,51,80,66
India,Bihar,Gaya,"SFTI Kusdihra, Gaya - BSPCB",14-02-2026 08:00:00,24.762518,84.982348,NO2,21,29,23
India,Bihar,Kishanganj,"SDM Office_Khagra, Kishanganj - BSPCB",14-02-2026 08:00:00,26.0881305,87.93840336,PM2.5,58,213,84
India,Bihar,Kishanganj,"SDM Office_Khagra, Kishanganj - BSPCB",14-02-2026 08:00:00,26.0881305,87.93840336,PM10,51,120,68
India,Bihar,Kishanganj,"SDM Office_Khagra, Kishanganj - BSPCB",14-02-2026 08:00:00,26.0881305,87.93840336,SO2,4,6,5
India,Delhi,Delhi,"IGI Airport (T3), Delhi - IMD",14-02-2026 08:00:00,28.5627763,77.1180053,PM2.5,37,333,151
India,Delhi,Delhi,"IGI Airport (T3), Delhi - IMD",14-02-2026 08:00:00,28.5627763,77.1180053,CO,6,135,100
India,Delhi,Delhi,"IHBAS, Dilshad Garden, Delhi - CPCB",14-02-2026 08:00:00,28.6811736,77.3025234,PM2.5,66,240,136
India,Delhi,Delhi,"IHBAS, Dilshad Garden, Delhi - CPCB",14-02-2026 08:00:00,28.6811736,77.3025234,CO,50,100,91
India,Delhi,Delhi,"IIT Delhi, Delhi - IITM",14-02-2026 08:00:00,28.542460,77.191651,PM2.5,43,303,162
India,Delhi,Delhi,"ITO, Delhi - CPCB",14-02-2026 08:00:00,28.628624,77.241060,CO,25,131,81
India,Delhi,Delhi,"ITO, Delhi - CPCB",14-02-2026 08:00:00,28.628624,77.241060,OZONE,18,94,19
India,Delhi,Delhi,"Jahangirpuri, Delhi - DPCC",14-02-2026 08:00:00,28.732820,77.170633,PM10,109,399,217
India,Delhi,Delhi,"Jawaharlal Nehru Stadium, Delhi - DPCC",14-02-2026 08:00:00,28.580280,77.233829,PM2.5,47,328,199
India,Delhi,Delhi,"Jawaharlal Nehru Stadium, Delhi - DPCC",14-02-2026 08:00:00,28.580280,77.233829,NH3,13,17,15
India,Chandigarh,Chandigarh,"Sector 22, Chandigarh - CPCC",14-02-2026 08:00:00,30.735567,76.775714,PM10,38,149,77
India,Chandigarh,Chandigarh,"Sector 22, Chandigarh - CPCC",14-02-2026 08:00:00,30.735567,76.775714,NH3,1,16,12
India,Chandigarh,Chandigarh,"Sector-25, Chandigarh - CPCC",14-02-2026 08:00:00,30.751462,76.762879,NH3,7,9,9
India,Chandigarh,Chandigarh,"Sector-25, Chandigarh - CPCC",14-02-2026 08:00:00,30.751462,76.762879,SO2,1,16,7
India,Chandigarh,Chandigarh,"Sector-53, Chandigarh - CPCC",14-02-2026 08:00:00,30.719859,76.738637,NH3,NA,NA,NA
India,Chandigarh,Chandigarh,"Sector-53, Chandigarh - CPCC",14-02-2026 08:00:00,30.719859,76.738637,CO,NA,NA,NA
India,Chhattisgarh,Bhilai,"32Bungalows, Bhilai - CECB",14-02-2026 08:00:00,21.194815,81.314770,OZONE,3,44,4
India,Chhattisgarh,Bhilai,"Civic Center, Bhilai - Bhilai Steel Plant",14-02-2026 08:00:00,21.185571,81.343175,SO2,6,11,8
India,Chhattisgarh,Bhilai,"Civic Center, Bhilai - Bhilai Steel Plant",14-02-2026 08:00:00,21.185571,81.343175,OZONE,8,12,11
India,Chhattisgarh,Bhilai,"Hathkhoj, Bhilai - CECB",14-02-2026 08:00:00,21.224231,81.408350,PM10,41,182,75
India,Chhattisgarh,Raipur,"AIIMS, Raipur - CECB",14-02-2026 08:00:00,21.258815,81.578979,NO2,30,52,46
India,Chhattisgarh,Raipur,"AIIMS, Raipur - CECB",14-02-2026 08:00:00,21.258815,81.578979,NH3,4,5,4
India,Chhattisgarh,Raipur,"Bhatagaon New ISBT, Raipur - CECB",14-02-2026 08:00:00,21.219665,81.630094,PM2.5,27,60,44
India,Chhattisgarh,Raipur,"Bhatagaon New ISBT, Raipur - CECB",14-02-2026 08:00:00,21.219665,81.630094,OZONE,2,10,3
India,Chhattisgarh,Raipur,"Krishak Nagar, Raipur - CECB",14-02-2026 08:00:00,21.237755,81.705301,PM2.5,52,74,66
India,Chhattisgarh,Raipur,"Krishak Nagar, Raipur - CECB",14-02-2026 08:00:00,21.237755,81.705301,NH3,2,2,2
India,Chhattisgarh,Raipur,"Siltara Phase-II, Raipur - CECB",14-02-2026 08:00:00,21.371751,81.664929,PM10,42,165,99
India,Chhattisgarh,Tumidih,"OP Jindal Industrial Park, Tumidih - CECB",14-02-2026 08:00:00,22.06631475,83.33820077,PM2.5,48,110,78
India,Delhi,Delhi,"Narela, Delhi - DPCC",14-02-2026 08:00:00,28.822836,77.101981,SO2,5,18,12
India,Delhi,Delhi,"Nehru Nagar, Delhi - DPCC",14-02-2026 08:00:00,28.567890,77.250515,PM2.5,63,383,236
India,Delhi,Delhi,"Nehru Nagar, Delhi - DPCC",14-02-2026 08:00:00,28.567890,77.250515,CO,34,121,109
India,Delhi,Delhi,"North Campus, DU, Delhi - IMD",14-02-2026 08:00:00,28.6573814,77.1585447,OZONE,13,286,15
India,Delhi,Delhi,"Okhla Phase-2, Delhi - DPCC",14-02-2026 08:00:00,28.530785,77.271255,NO2,40,148,99
India,Delhi,Delhi,"Punjabi Bagh, Delhi - DPCC",14-02-2026 08:00:00,28.674045,77.131023,PM2.5,42,371,235
India,Delhi,Delhi,"Punjabi Bagh, Delhi - DPCC",14-02-2026 08:00:00,28.674045,77.131023,SO2,13,21,18
India,Delhi,Delhi,"Punjabi Bagh, Delhi - DPCC",14-02-2026 08:00:00,28.674045,77.131023,CO,22,114,62
India,Delhi,Delhi,"Alipur, Delhi - DPCC",14-02-2026 08:00:00,28.815329,77.153010,PM10,77,403,216
India,Delhi,Delhi,"Alipur, Delhi - DPCC",14-02-2026 08:00:00,28.815329,77.153010,CO,43,89,71
India,Delhi,Delhi,"Anand Vihar, Delhi - DPCC",14-02-2026 08:00:00,28.647622,77.3158090,NO2,59,148,102
India,Delhi,Delhi,"Anand Vihar, Delhi - DPCC",14-02-2026 08:00:00,28.647622,77.3158090,SO2,9,31,20
India,Delhi,Delhi,"Ashok Vihar, Delhi - DPCC",14-02-2026 08:00:00,28.695381,77.181665,PM10,101,339,198
India,Delhi,Delhi,"Ashok Vihar, Delhi - DPCC",14-02-2026 08:00:00,28.695381,77.181665,NO2,23,137,79
India,Delhi,Delhi,"Ashok Vihar, Delhi - DPCC",14-02-2026 08:00:00,28.695381,77.181665,NH3,7,9,8
India,Delhi,Delhi,"Ashok Vihar, Delhi - DPCC",14-02-2026 08:00:00,28.695381,77.181665,CO,2,109,44
India,Delhi,Delhi,"Bawana, Delhi - DPCC",14-02-2026 08:00:00,28.776200,77.051074,NH3,6,8,7
India,Delhi,Delhi,"Burari Crossing, Delhi - IMD",14-02-2026 08:00:00,28.7256504,77.2011573,PM10,107,297,188
India,Delhi,Delhi,"Burari Crossing, Delhi - IMD",14-02-2026 08:00:00,28.7256504,77.2011573,NO2,67,153,96
India,Delhi,Delhi,"Burari Crossing, Delhi - IMD",14-02-2026 08:00:00,28.7256504,77.2011573,OZONE,12,171,14
India,Delhi,Delhi,"CRRI Mathura Road, Delhi - IMD",14-02-2026 08:00:00,28.5512005,77.2735737,CO,1,118,107
India,Delhi,Delhi,"DTU, Delhi - CPCB",14-02-2026 08:00:00,28.7500499,77.1112615,PM2.5,46,361,207
India,Delhi,Delhi,"Dwarka-Sector 8, Delhi - DPCC ",14-02-2026 08:00:00,28.5710274,77.0719006,NO2,39,148,83
India,Delhi,Delhi,"Dwarka-Sector 8, Delhi - DPCC ",14-02-2026 08:00:00,28.5710274,77.0719006,CO,42,136,102
India,Chhattisgarh,Bhilai,"Hathkhoj, Bhilai - CECB",14-02-2026 08:00:00,21.224231,81.408350,SO2,33,103,55
India,Chhattisgarh,Bilaspur,"Mangala, Bilaspur - NTPC",14-02-2026 08:00:00,22.08815,82.13737,PM2.5,31,179,84
India,Chhattisgarh,Chhal,"Nawapara SECL Colony, Chhal - CECB",14-02-2026 08:00:00,22.118125,83.140608,PM2.5,41,126,63
India,Chhattisgarh,Korba,"Rampur, Korba - CECB",14-02-2026 08:00:00,22.368195,82.746431,SO2,10,72,23
India,Chhattisgarh,Korba,"Urja Nagar, Korba - CECB",14-02-2026 08:00:00,22.348441,82.549611,CO,11,54,30
India,Delhi,Delhi,"Lodhi Road, Delhi - IMD",14-02-2026 08:00:00,28.5918245,77.2273074,PM2.5,36,303,125
India,Delhi,Delhi,"Lodhi Road, Delhi - IMD",14-02-2026 08:00:00,28.5918245,77.2273074,PM10,101,251,156
India,Delhi,Delhi,"Lodhi Road, Delhi - IMD",14-02-2026 08:00:00,28.5918245,77.2273074,CO,60,107,105
India,Delhi,Delhi,"Lodhi Road, Delhi - IMD",14-02-2026 08:00:00,28.5918245,77.2273074,OZONE,19,138,24
India,Delhi,Delhi,"Mandir Marg, Delhi - DPCC",14-02-2026 08:00:00,28.636429,77.201067,OZONE,16,169,18
India,Delhi,Delhi,"Mundka, Delhi - DPCC",14-02-2026 08:00:00,28.684678,77.076574,CO,28,106,62
India,Delhi,Delhi,"NSIT Dwarka, Delhi - CPCB",14-02-2026 08:00:00,28.60909,77.0325413,OZONE,12,47,29
India,Delhi,Delhi,"Najafgarh, Delhi - DPCC",14-02-2026 08:00:00,28.570173,76.933762,CO,2,107,41
India,Gujarat,Rajkot,"Mavdi, Rajkot - Nexteng Enviro ",14-02-2026 08:00:00,22.248853,70.776774,NH3,3,5,4
India,Gujarat,Rajkot,"Mavdi, Rajkot - Nexteng Enviro ",14-02-2026 08:00:00,22.248853,70.776774,CO,109,123,113
India,Gujarat,Rajkot,"Mavdi, Rajkot - Nexteng Enviro ",14-02-2026 08:00:00,22.248853,70.776774,OZONE,11,53,16
India,Gujarat,Surat,"Katargam, Surat - Nexteng Enviro",14-02-2026 08:00:00,21.217779 ,72.834787 ,PM10,83,302,141
India,Gujarat,Surat,"Katargam, Surat - Nexteng Enviro",14-02-2026 08:00:00,21.217779 ,72.834787 ,OZONE,7,8,8
India,Gujarat,Surat,"Science Center, Surat - SMC",14-02-2026 08:00:00,21.170046,72.795405,PM2.5,175,424,316
India,Gujarat,Surat,"Science Center, Surat - SMC",14-02-2026 08:00:00,21.170046,72.795405,CO,40,48,41
India,Gujarat,Vapi,"Phase-1 GIDC, Vapi - GPCB",14-02-2026 08:00:00,20.362421,72.918013,PM2.5,55,138,94
India,Gujarat,Vapi,"Phase-1 GIDC, Vapi - GPCB",14-02-2026 08:00:00,20.362421,72.918013,PM10,67,103,86
India,Haryana,Charkhi Dadri,"Mini Secretariat, Charkhi Dadri - HSPCB",14-02-2026 08:00:00,28.593883,76.270653,OZONE,13,17,16
India,Haryana,Faridabad,"New Industrial Town, Faridabad - HSPCB",14-02-2026 08:00:00,28.39072,77.30059,PM2.5,184,204,195
India,Haryana,Faridabad,"New Industrial Town, Faridabad - HSPCB",14-02-2026 08:00:00,28.39072,77.30059,PM10,130,137,134
India,Haryana,Faridabad,"Sector 11, Faridabad - HSPCB",14-02-2026 08:00:00,28.376058,77.315741,NO2,29,32,31
India,Haryana,Faridabad,"Sector 30, Faridabad - HSPCB",14-02-2026 08:00:00,28.4417,77.3217,NO2,36,39,37
India,Haryana,Faridabad,"Sector 30, Faridabad - HSPCB",14-02-2026 08:00:00,28.4417,77.3217,CO,60,65,62
India,Haryana,Fatehabad,"Huda Sector, Fatehabad - HSPCB",14-02-2026 08:00:00,29.503664,75.467934,SO2,10,11,11
India,Haryana,Fatehabad,"Huda Sector, Fatehabad - HSPCB",14-02-2026 08:00:00,29.503664,75.467934,CO,25,36,26
India,Delhi,Delhi,"Pusa, Delhi - DPCC",14-02-2026 08:00:00,28.639652,77.146275,PM2.5,75,339,221
India,Delhi,Delhi,"Pusa, Delhi - DPCC",14-02-2026 08:00:00,28.639652,77.146275,CO,50,119,98
India,Delhi,Delhi,"Pusa, Delhi - IMD",14-02-2026 08:00:00,28.636110,77.173332,NO2,42,212,113
India,Delhi,Delhi,"Pusa, Delhi - IMD",14-02-2026 08:00:00,28.636110,77.173332,CO,29,147,122
India,Delhi,Delhi,"Rohini, Delhi - DPCC",14-02-2026 08:00:00,28.732528,77.119920,PM2.5,65,444,261
India,Delhi,Delhi,"Rohini, Delhi - DPCC",14-02-2026 08:00:00,28.732528,77.119920,PM10,102,500,258
India,Delhi,Delhi,"Rohini, Delhi - DPCC",14-02-2026 08:00:00,28.732528,77.119920,CO,4,128,77
India,Delhi,Delhi,"Shadipur, Delhi - CPCB",14-02-2026 08:00:00,28.6514781,77.1473105,CO,22,119,85
India,Gujarat,Vatva,"Phase-4 GIDC, Vatva - GPCB",14-02-2026 08:00:00,22.969611,72.643500,CO,8,24,18
India,Haryana,Bahadurgarh,"Arya Nagar, Bahadurgarh - HSPCB",14-02-2026 08:00:00,28.6701,76.9254,PM2.5,70,337,241
India,Haryana,Bahadurgarh,"Arya Nagar, Bahadurgarh - HSPCB",14-02-2026 08:00:00,28.6701,76.9254,NO2,13,14,13
India,Haryana,Ballabgarh,"Nathu Colony, Ballabgarh - HSPCB",14-02-2026 08:00:00,28.3419248,77.319699,NH3,3,3,3
India,Haryana,Ballabgarh,"Nathu Colony, Ballabgarh - HSPCB",14-02-2026 08:00:00,28.3419248,77.319699,SO2,3,8,5
India,Haryana,Bhiwani,"H.B. Colony, Bhiwani - HSPCB",14-02-2026 08:00:00,28.806223,76.141105,NH3,1,9,8
India,Haryana,Gurugram,"NISE Gwal Pahari, Gurugram - IMD",14-02-2026 08:00:00,28.422681,77.148944,OZONE,6,56,7
India,Haryana,Gurugram,"Sector-51, Gurugram - HSPCB",14-02-2026 08:00:00,28.4227,77.0667,PM10,94,492,267
India,Haryana,Gurugram,"Teri Gram, Gurugram - HSPCB",14-02-2026 08:00:00,28.4275,77.1465,NO2,36,76,52
India,Haryana,Gurugram,"Teri Gram, Gurugram - HSPCB",14-02-2026 08:00:00,28.4275,77.1465,CO,52,102,96
India,Haryana,Gurugram,"Teri Gram, Gurugram - HSPCB",14-02-2026 08:00:00,28.4275,77.1465,OZONE,10,43,11
India,Haryana,Gurugram,"Vikas Sadan, Gurugram - HSPCB",14-02-2026 08:00:00,28.4501238,77.0263051,NO2,9,45,26
India,Delhi,Delhi,"Shadipur, Delhi - CPCB",14-02-2026 08:00:00,28.6514781,77.1473105,OZONE,8,57,11
India,Delhi,Delhi,"Vivek Vihar, Delhi - DPCC",14-02-2026 08:00:00,28.672342,77.315260,PM10,107,331,188
India,Delhi,Delhi,"Vivek Vihar, Delhi - DPCC",14-02-2026 08:00:00,28.672342,77.315260,CO,42,111,63
India,Delhi,Delhi,"Vivek Vihar, Delhi - DPCC",14-02-2026 08:00:00,28.672342,77.315260,OZONE,1,104,2
India,Delhi,Delhi,"Wazirpur, Delhi - DPCC",14-02-2026 08:00:00,28.699793,77.165453,PM10,134,447,250
India,Delhi,Delhi,"Wazirpur, Delhi - DPCC",14-02-2026 08:00:00,28.699793,77.165453,NO2,84,151,130
India,Gujarat,Ahmedabad,"SAC ISRO Bopal, Ahmedabad - IITM",14-02-2026 08:00:00,23.041137,72.456691,SO2,9,49,14
India,Gujarat,Ahmedabad,"SAC ISRO Satellite, Ahmedabad - IITM",14-02-2026 08:00:00,23.023389,72.515201,PM10,108,192,134
India,Gujarat,Ahmedabad,"SAC ISRO Satellite, Ahmedabad - IITM",14-02-2026 08:00:00,23.023389,72.515201,SO2,6,101,18
India,Gujarat,Ahmedabad,"SAC ISRO Satellite, Ahmedabad - IITM",14-02-2026 08:00:00,23.023389,72.515201,CO,10,84,69
India,Gujarat,Ahmedabad,"SVPI Airport Hansol, Ahmedabad - IITM",14-02-2026 08:00:00,23.076793,72.627874,PM10,114,306,157
India,Gujarat,Ankleshwar,"GIDC, Ankleshwar - GPCB",14-02-2026 08:00:00,21.613267,73.010555,SO2,27,28,28
India,Gujarat,Bhavnagar,"Vidhyanagar, Bhavnagar - Nexteng Enviro",14-02-2026 08:00:00,21.755417,72.139056,PM10,112,211,154
India,Gujarat,Bhavnagar,"Vidhyanagar, Bhavnagar - Nexteng Enviro",14-02-2026 08:00:00,21.755417,72.139056,SO2,20,80,34
India,Gujarat,Gandhinagar,"GIFT City, Gandhinagar - IITM",14-02-2026 08:00:00,23.163798,72.677768,OZONE,2,90,21
India,Gujarat,Ahmedabad,"Chandkheda, Ahmedabad - IITM",14-02-2026 08:00:00,23.107969,72.574648,PM2.5,NA,NA,NA
India,Gujarat,Ahmedabad,"Gyaspur, Ahmedabad - IITM",14-02-2026 08:00:00,22.977134,72.553024,NO2,56,168,97
India,Gujarat,Ahmedabad,"Gyaspur, Ahmedabad - IITM",14-02-2026 08:00:00,22.977134,72.553024,CO,12,102,43
India,Gujarat,Ahmedabad,"Rakhial, Ahmedabad - IITM",14-02-2026 08:00:00,23.016834,72.625775,NO2,24,144,66
India,Himachal Pradesh,Baddi,"HIMUDA Complex Phase-1, Baddi - HPPCB",14-02-2026 08:00:00,30.943887,76.801991,PM2.5,68,382,156
India,Himachal Pradesh,Baddi,"HIMUDA Complex Phase-1, Baddi - HPPCB",14-02-2026 08:00:00,30.943887,76.801991,NH3,5,8,6
India,Himachal Pradesh,Baddi,"HIMUDA Complex Phase-1, Baddi - HPPCB",14-02-2026 08:00:00,30.943887,76.801991,CO,48,103,64
India,Jammu_and_Kashmir,Pampore,"Khrew, Pampore - JKPCC",14-02-2026 08:00:00,34.031606,75.009712,PM2.5,37,78,55
India,Jammu_and_Kashmir,Pampore,"Khrew, Pampore - JKPCC",14-02-2026 08:00:00,34.031606,75.009712,NO2,20,62,33
India,Jammu_and_Kashmir,Pampore,"Khrew, Pampore - JKPCC",14-02-2026 08:00:00,34.031606,75.009712,SO2,2,2,2
India,Jammu_and_Kashmir,Srinagar,"Khunmoh, Srinagar - JKPCC",14-02-2026 08:00:00,34.06313,74.96017,NO2,10,32,21
India,Jammu_and_Kashmir,Srinagar,"Khunmoh, Srinagar - JKPCC",14-02-2026 08:00:00,34.06313,74.96017,SO2,2,4,3
India,Jammu_and_Kashmir,Srinagar,"Rajbagh, Srinagar - JKPCC",14-02-2026 08:00:00,34.066206,74.819820,PM2.5,14,28,20
India,Jammu_and_Kashmir,Srinagar,"Rajbagh, Srinagar - JKPCC",14-02-2026 08:00:00,34.066206,74.819820,SO2,3,4,3
India,Jammu_and_Kashmir,Srinagar,"Rajbagh, Srinagar - JKPCC",14-02-2026 08:00:00,34.066206,74.819820,CO,12,20,13
India,Jharkhand,Dhanbad,"Sardar Patel Nagar, Dhanbad - JSPCB",14-02-2026 08:00:00,23.80569,86.44268,PM10,59,185,111
India,Karnataka,Bengaluru,"BTM Layout, Bengaluru - CPCB",14-02-2026 08:00:00,12.9135218,77.5950804,CO,43,55,46
India,Karnataka,Bengaluru,"BTM Layout, Bengaluru - CPCB",14-02-2026 08:00:00,12.9135218,77.5950804,OZONE,22,23,23
India,Karnataka,Bengaluru,"Bapuji Nagar, Bengaluru - KSPCB",14-02-2026 08:00:00,12.951913,77.539784,PM10,65,145,97
India,Karnataka,Bengaluru,"Bapuji Nagar, Bengaluru - KSPCB",14-02-2026 08:00:00,12.951913,77.539784,NO2,58,123,94
India,Karnataka,Bengaluru,"Bapuji Nagar, Bengaluru - KSPCB",14-02-2026 08:00:00,12.951913,77.539784,OZONE,39,125,72
India,Karnataka,Bengaluru,"City Railway Station, Bengaluru - KSPCB",14-02-2026 08:00:00,12.9756843,77.5660749,PM10,100,102,101
India,Karnataka,Bengaluru,"Hebbal, Bengaluru - KSPCB",14-02-2026 08:00:00,13.029152,77.585901,SO2,11,18,14
India,Karnataka,Bengaluru,"Jayanagar 5th Block, Bengaluru - KSPCB",14-02-2026 08:00:00,12.920984,77.584908,PM10,48,110,71
India,Karnataka,Bengaluru,"Jayanagar 5th Block, Bengaluru - KSPCB",14-02-2026 08:00:00,12.920984,77.584908,NH3,1,2,2
India,Karnataka,Bengaluru,"Jayanagar 5th Block, Bengaluru - KSPCB",14-02-2026 08:00:00,12.920984,77.584908,OZONE,6,55,46
India,Karnataka,Bengaluru,"Silk Board, Bengaluru - KSPCB",14-02-2026 08:00:00,12.917348,77.622813,NH3,3,7,5
India,Karnataka,Bengaluru,"Silk Board, Bengaluru - KSPCB",14-02-2026 08:00:00,12.917348,77.622813,SO2,3,14,10
India,Karnataka,Chamarajanagar,"Urban, Chamarajanagar - KSPCB",14-02-2026 08:00:00,11.55358,76.55521,PM2.5,29,52,36
India,Karnataka,Chamarajanagar,"Urban, Chamarajanagar - KSPCB",14-02-2026 08:00:00,11.55358,76.55521,PM10,38,100,52
India,Karnataka,Chikkaballapur,"Chikkaballapur Rural, Chikkaballapur - KSPCB",14-02-2026 08:00:00,13.428828,77.731418,NO2,6,91,47
India,Karnataka,Chikkaballapur,"Chikkaballapur Rural, Chikkaballapur - KSPCB",14-02-2026 08:00:00,13.428828,77.731418,SO2,5,33,20
India,Karnataka,Chikkamagaluru,"Kalyana Nagara, Chikkamagaluru - KSPCB",14-02-2026 08:00:00,13.328028,75.797056,NH3,2,3,2
India,Karnataka,Chikkamagaluru,"Kalyana Nagara, Chikkamagaluru - KSPCB",14-02-2026 08:00:00,13.328028,75.797056,SO2,2,9,6
India,Karnataka,Dharwad,"Kalabhavan, Dharwad - KSPCB",14-02-2026 08:00:00,15.459706,75.008381,NO2,28,28,28
India,Karnataka,Vijayapura,"Ibrahimpur, Vijayapura - KSPCB",14-02-2026 08:00:00,16.802639,75.722694,PM2.5,30,31,30
India,Karnataka,Vijayapura,"Ibrahimpur, Vijayapura - KSPCB",14-02-2026 08:00:00,16.802639,75.722694,SO2,3,6,3
India,Karnataka,Yadgir,"Collector Office, Yadgir - KSPCB",14-02-2026 08:00:00,16.7602,77.1428,PM10,28,128,76
India,Kerala,Eloor,"Udyogamandal, Eloor - Kerala PCB",14-02-2026 08:00:00,10.073232,76.302765,PM2.5,85,213,129
India,Kerala,Kannur,"Thavakkara, Kannur - Kerala PCB",14-02-2026 08:00:00,11.875000,75.373200,PM2.5,79,90,85
India,Kerala,Kollam,"Polayathode, Kollam - Kerala PCB",14-02-2026 08:00:00,8.8787,76.6073,CO,14,18,16
India,Kerala,Thiruvananthapuram,"Kariavattom, Thiruvananthapuram - Kerala PCB",14-02-2026 08:00:00,8.563700,76.886500,PM10,39,105,83
India,Karnataka,Kalaburagi,"Mahatma Basaveswar Colony, Kalaburgi - KSPCB",14-02-2026 08:00:00,17.336318,76.847397,PM2.5,21,61,48
India,Karnataka,Kalaburagi,"Mahatma Basaveswar Colony, Kalaburgi - KSPCB",14-02-2026 08:00:00,17.336318,76.847397,NH3,2,3,3
India,Karnataka,Madikeri,"Stuart Hill, Madikeri - KSPCB",14-02-2026 08:00:00,12.415911,75.735050,SO2,7,7,7
India,Karnataka,Mysuru,"Hebbal 1st Stage, Mysuru - KSPCB",14-02-2026 08:00:00,12.21041,76.37376,PM10,54,93,73
India,Karnataka,Ramanagara,"Vijay Nagar, Ramanagara - KSPCB",14-02-2026 08:00:00,12.733409,77.298051,NH3,2,3,3
India,Karnataka,Shivamogga,"Vinoba Nagara, Shivamogga - KSPCB",14-02-2026 08:00:00,13.940000,75.555917,NO2,21,23,22
India,Karnataka,Shivamogga,"Vinoba Nagara, Shivamogga - KSPCB",14-02-2026 08:00:00,13.940000,75.555917,SO2,1,7,3
India,Karnataka,Shivamogga,"Vinoba Nagara, Shivamogga - KSPCB",14-02-2026 08:00:00,13.940000,75.555917,OZONE,8,59,12
India,Haryana,Karnal,"Sector-12, Karnal - HSPCB",14-02-2026 08:00:00,29.695300,77.002700,NH3,6,7,6
India,Haryana,Karnal,"Sector-12, Karnal - HSPCB",14-02-2026 08:00:00,29.695300,77.002700,CO,30,41,32
India,Haryana,Mandikhera,"General Hospital, Mandikhera(Nuh) - HSPCB",14-02-2026 08:00:00,27.9002,76.9938,PM2.5,48,302,163
India,Haryana,Narnaul,"Shastri Nagar, Narnaul - HSPCB",14-02-2026 08:00:00,28.060249,76.113115,PM10,28,136,74
India,Haryana,Narnaul,"Shastri Nagar, Narnaul - HSPCB",14-02-2026 08:00:00,28.060249,76.113115,OZONE,NA,NA,NA
India,Karnataka,Bengaluru,"RVCE-Mailasandra, Bengaluru - KSPCB",14-02-2026 08:00:00,12.921418,77.502466,NO2,24,31,31
India,Karnataka,Bengaluru,"Shivapura_Peenya, Bengaluru - KSPCB",14-02-2026 08:00:00,13.0246342,77.5080115,PM10,NA,NA,NA
India,Karnataka,Bengaluru,"Silk Board, Bengaluru - KSPCB",14-02-2026 08:00:00,12.917348,77.622813,PM2.5,33,87,51
India,Karnataka,Bengaluru,"Silk Board, Bengaluru - KSPCB",14-02-2026 08:00:00,12.917348,77.622813,NO2,31,96,55
India,Haryana,Panchgaon,"Amity University, Panchgaon - IITM",14-02-2026 08:00:00,28.3153,76.9143,OZONE,1,81,1
India,Haryana,Rohtak,"MD University, Rohtak - HSPCB",14-02-2026 08:00:00,28.52123,76.37138,SO2,10,13,12
India,Haryana,Sirsa,"F-Block, Sirsa - HSPCB",14-02-2026 08:00:00,29.536400,75.015800,NO2,NA,NA,NA
India,Haryana,Hisar,"Urban Estate-II, Hisar - HSPCB",14-02-2026 08:00:00,29.140560,75.744941,SO2,8,13,11
India,Haryana,Jind,"Police Lines, Jind - HSPCB",14-02-2026 08:00:00,29.307814,76.337619,PM10,NA,NA,NA
India,Haryana,Karnal,"Sector-12, Karnal - HSPCB",14-02-2026 08:00:00,29.695300,77.002700,PM10,99,146,127
India,Kerala,Thiruvananthapuram,"Plammoodu, Thiruvananthapuram - Kerala PCB",14-02-2026 08:00:00,8.5149093,76.9435879,OZONE,16,49,37
India,Kerala,Thrissur,"Corporation Ground, Thrissur - Kerala PCB",14-02-2026 08:00:00,10.532400,76.215900,PM2.5,61,95,70
India,Madhya Pradesh,Bhopal,"Idgah Hills, Bhopal - MPPCB",14-02-2026 08:00:00,23.264759,77.381568,PM2.5,92,308,164
India,Madhya Pradesh,Bhopal,"Idgah Hills, Bhopal - MPPCB",14-02-2026 08:00:00,23.264759,77.381568,PM10,113,235,148
India,Madhya Pradesh,Bhopal,"Idgah Hills, Bhopal - MPPCB",14-02-2026 08:00:00,23.264759,77.381568,NO2,17,68,29
India,Madhya Pradesh,Bhopal,"Paryavaran Parisar, Bhopal - MPPCB",14-02-2026 08:00:00,23.210494,77.425409,PM2.5,75,314,150
India,Madhya Pradesh,Bhopal,"Paryavaran Parisar, Bhopal - MPPCB",14-02-2026 08:00:00,23.210494,77.425409,NH3,18,31,25
India,Madhya Pradesh,Bhopal,"Paryavaran Parisar, Bhopal - MPPCB",14-02-2026 08:00:00,23.210494,77.425409,OZONE,9,58,18
India,Madhya Pradesh,Bhopal,"T T Nagar, Bhopal - MPPCB",14-02-2026 08:00:00,23.233584,77.400574,PM10,101,175,123
India,Madhya Pradesh,Damoh,"Shrivastav Colony, Damoh - MPPCB",14-02-2026 08:00:00,23.81748678,79.446246,PM10,8,31,20
India,Madhya Pradesh,Damoh,"Shrivastav Colony, Damoh - MPPCB",14-02-2026 08:00:00,23.81748678,79.446246,CO,14,34,15
India,Maharashtra,Jalna,"Old MIDC, Jalna - MPCB",14-02-2026 08:00:00,19.854616,75.905894,PM10,33,156,81
India,Maharashtra,Kalyan,"Khadakpada, Kalyan - MPCB",14-02-2026 08:00:00,19.25292,73.142019,PM2.5,NA,NA,NA
India,Maharashtra,Kalyan,"Khadakpada, Kalyan - MPCB",14-02-2026 08:00:00,19.25292,73.142019,PM10,NA,NA,NA
India,Maharashtra,Kalyan,"Pimpleshwar Mandir, Kalyan - MPCB",14-02-2026 08:00:00,19.192056,72.9585188,NH3,1,5,3
India,Maharashtra,Kalyan,"Pimpleshwar Mandir, Kalyan - MPCB",14-02-2026 08:00:00,19.192056,72.9585188,SO2,12,36,20
India,Maharashtra,Kalyan,"Pimpleshwar Mandir, Kalyan - MPCB",14-02-2026 08:00:00,19.192056,72.9585188,OZONE,1,84,18
India,Maharashtra,Kolhapur,"Shivaji University, Kolhapur - MPCB",14-02-2026 08:00:00,16.6870449,74.2505872,PM10,37,119,82
India,Maharashtra,Kolhapur,"Shivaji University, Kolhapur - MPCB",14-02-2026 08:00:00,16.6870449,74.2505872,OZONE,2,73,10
India,Maharashtra,Kolhapur,"Sinchan Bhavan, Kolhapur - MPCB",14-02-2026 08:00:00,16.7143745,74.2426398,PM2.5,4,49,20
India,Maharashtra,Latur,"Sawe Wadi, Latur - MPCB",14-02-2026 08:00:00,18.39963,76.57452,PM10,50,100,82
India,Maharashtra,Akola,"Ramdaspeth, Akola - MPCB",14-02-2026 08:00:00,20.719516,77.000253,OZONE,7,79,18
India,Maharashtra,Amravati,"Shivneri Colony, Amravati - MPCB",14-02-2026 08:00:00,20.9402359,77.7895248,PM10,100,126,110
India,Maharashtra,Amravati,"Shivneri Colony, Amravati - MPCB",14-02-2026 08:00:00,20.9402359,77.7895248,OZONE,12,107,38
India,Maharashtra,Aurangabad,"MIDC Chilkalthana, Aurangabad - MPCB",14-02-2026 08:00:00,19.875620,75.387310,PM10,59,166,108
India,Maharashtra,Aurangabad,"More Chowk Waluj, Aurangabad - MPCB",14-02-2026 08:00:00,19.8389439,75.244448,NO2,15,22,19
India,Maharashtra,Aurangabad,"Rachnakar Colony, Aurangabad - MPCB",14-02-2026 08:00:00,19.863756,75.321188,SO2,6,30,20
India,Maharashtra,Badlapur,"Katrap, Badlapur - MPCB",14-02-2026 08:00:00,19.16485,73.23409,PM2.5,63,203,111
India,Maharashtra,Badlapur,"Katrap, Badlapur - MPCB",14-02-2026 08:00:00,19.16485,73.23409,PM10,84,168,124
India,Madhya Pradesh,Jabalpur,"Suhagi, Jabalpur - JMC",14-02-2026 08:00:00,23.218135,79.957770,PM10,56,137,91
India,Madhya Pradesh,Jabalpur,"Suhagi, Jabalpur - JMC",14-02-2026 08:00:00,23.218135,79.957770,CO,30,113,66
India,Madhya Pradesh,Katni,"Gole Bazar, Katni - MPPCB",14-02-2026 08:00:00,23.50016,80.23284,PM2.5,56,200,75
India,Madhya Pradesh,Mandideep,"Sector-D Industrial Area, Mandideep - MPPCB",14-02-2026 08:00:00,23.108440,77.511428,PM10,94,408,199
India,Madhya Pradesh,Mandideep,"Sector-D Industrial Area, Mandideep - MPPCB",14-02-2026 08:00:00,23.108440,77.511428,OZONE,18,84,25
India,Madhya Pradesh,Pithampur,"Sector-2 Industrial Area, Pithampur - MPPCB",14-02-2026 08:00:00,22.624758,75.675238,PM2.5,92,352,243
India,Madhya Pradesh,Pithampur,"Sector-2 Industrial Area, Pithampur - MPPCB",14-02-2026 08:00:00,22.624758,75.675238,PM10,84,398,207
India,Madhya Pradesh,Pithampur,"Sector-2 Industrial Area, Pithampur - MPPCB",14-02-2026 08:00:00,22.624758,75.675238,SO2,27,36,31
India,Madhya Pradesh,Pithampur,"Sector-2 Industrial Area, Pithampur - MPPCB",14-02-2026 08:00:00,22.624758,75.675238,CO,8,60,32
India,Madhya Pradesh,Indore,"Maguda Nagar, Indore - IMC",14-02-2026 08:00:00,22.7524,75.8872,CO,24,88,72
India,Madhya Pradesh,Indore,"Regional Park, Indore - IMC",14-02-2026 08:00:00,22.6780,75.8559,NO2,19,28,23
India,Madhya Pradesh,Indore,"Regional Park, Indore - IMC",14-02-2026 08:00:00,22.6780,75.8559,NH3,1,3,2
India,Madhya Pradesh,Indore,"Residency Area, Indore - IMC",14-02-2026 08:00:00,22.7084,75.8815,PM2.5,48,205,90
India,Madhya Pradesh,Jabalpur,"Govindh Bhavan Colony, Jabalpur - JMC",14-02-2026 08:00:00,23.163174,79.973061,PM10,50,93,72
India,Madhya Pradesh,Jabalpur,"Govindh Bhavan Colony, Jabalpur - JMC",14-02-2026 08:00:00,23.163174,79.973061,CO,17,32,19
India,Madhya Pradesh,Jabalpur,"Gupteshwar, Jabalpur - JMC",14-02-2026 08:00:00,23.142888,79.916147,PM10,NA,NA,NA
India,Madhya Pradesh,Jabalpur,"Gupteshwar, Jabalpur - JMC",14-02-2026 08:00:00,23.142888,79.916147,NH3,2,2,2
India,Madhya Pradesh,Sagar,"Civil Lines, Sagar - MPPCB",14-02-2026 08:00:00,23.838586,78.759431,NH3,6,11,7
India,Madhya Pradesh,Sagar,"Deen Dayal Nagar, Sagar - MPPCB",14-02-2026 08:00:00,23.8640158,78.80289321,NO2,7,53,20
India,Madhya Pradesh,Ujjain,"Mahashweta Nagar, Ujjain - MPPCB",14-02-2026 08:00:00,23.1633321,75.800225,PM2.5,87,210,137
India,Madhya Pradesh,Ujjain,"Mahashweta Nagar, Ujjain - MPPCB",14-02-2026 08:00:00,23.1633321,75.800225,NH3,10,17,13
India,Madhya Pradesh,Ujjain,"Mahashweta Nagar, Ujjain - MPPCB",14-02-2026 08:00:00,23.1633321,75.800225,OZONE,20,97,46
India,Maharashtra,Ahmednagar,"Tarakpur, Ahmednagar - MPCB",14-02-2026 08:00:00,19.10122,74.73339,NH3,5,7,6
India,Maharashtra,Akola,"Ramdaspeth, Akola - MPCB",14-02-2026 08:00:00,20.719516,77.000253,PM2.5,43,115,74
India,Madhya Pradesh,Dewas,"Bhopal Chauraha, Dewas - MPPCB",14-02-2026 08:00:00,22.9682591,76.064118,CO,15,74,23
India,Madhya Pradesh,Gwalior,"Maharaj Bada, Gwalior - MPPCB",14-02-2026 08:00:00,26.200388,78.147714,PM10,85,274,153
India,Madhya Pradesh,Gwalior,"Maharaj Bada, Gwalior - MPPCB",14-02-2026 08:00:00,26.200388,78.147714,NO2,7,40,21
India,Madhya Pradesh,Gwalior,"Maharaj Bada, Gwalior - MPPCB",14-02-2026 08:00:00,26.200388,78.147714,NH3,4,4,4
India,Madhya Pradesh,Indore,"Airport Area, Indore - IMC",14-02-2026 08:00:00,22.7289,75.8076,PM10,71,225,133
India,Madhya Pradesh,Indore,"Chhoti Gwaltoli, Indore - MPPCB",14-02-2026 08:00:00,22.4310,75.5213,SO2,21,31,26
India,Maharashtra,Chandrapur,"MIDC Khutala, Chandrapur - MPCB",14-02-2026 08:00:00,19.9775302,79.2337086,PM2.5,67,313,170
India,Maharashtra,Chandrapur,"MIDC Khutala, Chandrapur - MPCB",14-02-2026 08:00:00,19.9775302,79.2337086,NH3,1,3,2
India,Maharashtra,Chandrapur,"MIDC Khutala, Chandrapur - MPCB",14-02-2026 08:00:00,19.9775302,79.2337086,OZONE,17,19,18
India,Maharashtra,Jalgaon,"Prabhat Colony, Jalgaon - MPCB",14-02-2026 08:00:00,21.001264,75.565602,PM10,69,240,106
India,Maharashtra,Jalgaon,"Prabhat Colony, Jalgaon - MPCB",14-02-2026 08:00:00,21.001264,75.565602,CO,12,64,22
India,Maharashtra,Badlapur,"Katrap, Badlapur - MPCB",14-02-2026 08:00:00,19.16485,73.23409,SO2,6,15,11
India,Maharashtra,Bhiwandi,"Gokul Nagar, Bhiwandi - MPCB",14-02-2026 08:00:00,19.309073,73.057223,OZONE,12,85,14
India,Maharashtra,Chandrapur,"Chauhan Colony, Chandrapur - MPCB",14-02-2026 08:00:00,19.962900,79.298714,PM2.5,51,180,74
India,Maharashtra,Nashik,"Gangapur Road, Nashik - MPCB",14-02-2026 08:00:00,20.0073285,73.7762427,CO,21,22,21
India,Maharashtra,Nashik,"Hirawadi, Nashik - MPCB",14-02-2026 08:00:00,20.021503,73.813844,PM10,68,147,102
India,Maharashtra,Nashik,"Hirawadi, Nashik - MPCB",14-02-2026 08:00:00,20.021503,73.813844,NH3,1,11,3
India,Maharashtra,Nashik,"MIDC Ambad, Nashik - MPCB",14-02-2026 08:00:00,19.950220,73.731480,SO2,17,27,19
India,Maharashtra,Nashik,"Pandav Nagari, Nashik - MPCB",14-02-2026 08:00:00,19.9591346,73.7788008,PM10,67,118,92
India,Maharashtra,Nashik,"Pandav Nagari, Nashik - MPCB",14-02-2026 08:00:00,19.9591346,73.7788008,NH3,3,9,5
India,Maharashtra,Navi Mumbai,"Kopripada-Vashi, Navi Mumbai - MPCB",14-02-2026 08:00:00,19.090337,73.014232,PM2.5,NA,NA,NA
India,Maharashtra,Navi Mumbai,"Kopripada-Vashi, Navi Mumbai - MPCB",14-02-2026 08:00:00,19.090337,73.014232,NH3,NA,NA,NA
India,Maharashtra,Navi Mumbai,"Kopripada-Vashi, Navi Mumbai - MPCB",14-02-2026 08:00:00,19.090337,73.014232,SO2,NA,NA,NA
India,Maharashtra,Navi Mumbai,"Kopripada-Vashi, Navi Mumbai - MPCB",14-02-2026 08:00:00,19.090337,73.014232,OZONE,2,85,2
India,Maharashtra,Navi Mumbai,"Mahape, Navi Mumbai - MPCB",14-02-2026 08:00:00,19.1135051,73.008978,PM2.5,51,77,63
India,Maharashtra,Navi Mumbai,"Mahape, Navi Mumbai - MPCB",14-02-2026 08:00:00,19.1135051,73.008978,SO2,19,21,20
India,Maharashtra,Navi Mumbai,"Nerul, Navi Mumbai - MPCB",14-02-2026 08:00:00,19.008751,73.016620,SO2,NA,NA,NA
India,Maharashtra,Navi Mumbai,"Sanpada, Navi Mumbai - MPCB",14-02-2026 08:00:00,19.0575752,73.0151367,PM2.5,44,295,135
India,Maharashtra,Navi Mumbai,"Sector-2E Kalamboli, Navi Mumbai - MPCB",14-02-2026 08:00:00,19.02579,73.10297,PM2.5,46,101,74
India,Maharashtra,Navi Mumbai,"Sector-2E Kalamboli, Navi Mumbai - MPCB",14-02-2026 08:00:00,19.02579,73.10297,PM10,NA,NA,NA
India,Maharashtra,Navi Mumbai,"Sector-2E Kalamboli, Navi Mumbai - MPCB",14-02-2026 08:00:00,19.02579,73.10297,NO2,5,19,12
India,Maharashtra,Navi Mumbai,"Sector-2E Kalamboli, Navi Mumbai - MPCB",14-02-2026 08:00:00,19.02579,73.10297,OZONE,1,80,1
India,Maharashtra,Navi Mumbai,"Tondare-Taloja, Navi Mumbai - MPCB",14-02-2026 08:00:00,19.0630,73.1209,NO2,19,81,41
India,Maharashtra,Parbhani,"Masoom Colony, Parbhani - MPCB",14-02-2026 08:00:00,19.265594,76.761463,PM2.5,30,129,58
India,Maharashtra,Latur,"Sawe Wadi, Latur - MPCB",14-02-2026 08:00:00,18.39963,76.57452,OZONE,17,52,29
India,Maharashtra,Mahad,"Kamble Tarf Birwadi, Mahad - MPCB",14-02-2026 08:00:00,18.1023399,73.4783687,OZONE,20,72,25
India,Maharashtra,Malegaon,"Mahesh Nagar, Malegaon - MPCB",14-02-2026 08:00:00,20.555712,74.529236,PM10,NA,NA,NA
India,Maharashtra,Malegaon,"Mahesh Nagar, Malegaon - MPCB",14-02-2026 08:00:00,20.555712,74.529236,CO,24,143,39
India,Maharashtra,Mira-Bhayandar,"Bhayandar West, Mira-Bhayandar - MPCB",14-02-2026 08:00:00,19.296481,72.840923,NO2,NA,NA,NA
India,Maharashtra,Mumbai,"Bandra Kurla Complex, Mumbai - IITM",14-02-2026 08:00:00,19.053536,72.84643,CO,25,82,66
India,Maharashtra,Mumbai,"Bandra Kurla Complex, Mumbai - IITM",14-02-2026 08:00:00,19.053536,72.84643,OZONE,2,84,4
India,Maharashtra,Mumbai,"Borivali East, Mumbai - IITM",14-02-2026 08:00:00,19.23241,72.86895,PM2.5,65,185,96
India,Maharashtra,Mumbai,"Borivali East, Mumbai - IITM",14-02-2026 08:00:00,19.23241,72.86895,PM10,79,146,114
India,Maharashtra,Mumbai,"Borivali East, Mumbai - IITM",14-02-2026 08:00:00,19.23241,72.86895,NO2,29,90,52
India,Maharashtra,Mumbai,"Borivali East, Mumbai - IITM",14-02-2026 08:00:00,19.23241,72.86895,NH3,5,13,10
India,Maharashtra,Mumbai,"Byculla, Mumbai - BMC",14-02-2026 08:00:00,18.9767,72.8380,PM10,63,127,101
India,Maharashtra,Mumbai,"Byculla, Mumbai - BMC",14-02-2026 08:00:00,18.9767,72.8380,NO2,43,139,84
India,Maharashtra,Mumbai,"Chembur, Mumbai - MPCB",14-02-2026 08:00:00,19.0364585,72.8954371,PM10,96,124,112
India,Maharashtra,Mumbai,"Chembur, Mumbai - MPCB",14-02-2026 08:00:00,19.0364585,72.8954371,OZONE,6,92,12
India,Maharashtra,Mumbai,"Malad West, Mumbai - IITM",14-02-2026 08:00:00,19.19709,72.82204,CO,7,100,49
India,Maharashtra,Mumbai,"Mazgaon, Mumbai - IITM",14-02-2026 08:00:00,18.96702,72.84214,PM2.5,84,158,118
India,Maharashtra,Mumbai,"Mazgaon, Mumbai - IITM",14-02-2026 08:00:00,18.96702,72.84214,PM10,86,128,111
India,Maharashtra,Mumbai,"Mazgaon, Mumbai - IITM",14-02-2026 08:00:00,18.96702,72.84214,OZONE,4,78,14
India,Maharashtra,Mumbai,"Mindspace-Malad West, Mumbai - MPCB",14-02-2026 08:00:00,19.1878657,72.8304069,NO2,18,103,57
India,Maharashtra,Mumbai,"Mulund West, Mumbai - MPCB",14-02-2026 08:00:00,19.1750,72.9419,NO2,16,19,17
India,Maharashtra,Mumbai,"Mulund West, Mumbai - MPCB",14-02-2026 08:00:00,19.1750,72.9419,NH3,5,5,5
India,Maharashtra,Nagpur,"Mahal, Nagpur - MPCB",14-02-2026 08:00:00,21.14472,79.107595,NH3,7,9,8
India,Maharashtra,Nagpur,"Opp GPO Civil Lines, Nagpur - MPCB",14-02-2026 08:00:00,21.152875,79.0517531,CO,15,124,25
India,Maharashtra,Nagpur,"Ram Nagar, Nagpur - MPCB",14-02-2026 08:00:00,21.143383,79.048912,PM2.5,180,270,218
India,Maharashtra,Nanded,"Sneh Nagar, Nanded - MPCB",14-02-2026 08:00:00,19.173852,77.296291,NO2,14,18,16
India,Maharashtra,Nanded,"Sneh Nagar, Nanded - MPCB",14-02-2026 08:00:00,19.173852,77.296291,OZONE,14,111,33
India,Maharashtra,Mumbai,"Mulund West, Mumbai - MPCB",14-02-2026 08:00:00,19.1750,72.9419,SO2,NA,NA,NA
India,Maharashtra,Mumbai,"Powai, Mumbai - MPCB",14-02-2026 08:00:00,19.137500,72.915056,NO2,2,8,6
India,Maharashtra,Mumbai,"Sewri, Mumbai - BMC",14-02-2026 08:00:00,19.000084,72.856730,CO,20,62,51
India,Maharashtra,Mumbai,"Vile Parle West, Mumbai - MPCB",14-02-2026 08:00:00,19.10861,72.83622,PM2.5,61,93,75
India,Maharashtra,Mumbai,"Colaba, Mumbai - MPCB",14-02-2026 08:00:00,18.910000,72.820000,PM2.5,52,161,94
India,Maharashtra,Mumbai,"Colaba, Mumbai - MPCB",14-02-2026 08:00:00,18.910000,72.820000,PM10,62,138,103
India,Maharashtra,Mumbai,"Colaba, Mumbai - MPCB",14-02-2026 08:00:00,18.910000,72.820000,OZONE,11,11,11
India,Maharashtra,Mumbai,"Ghatkopar, Mumbai - BMC",14-02-2026 08:00:00,19.083694,72.920967,CO,8,60,48
India,Maharashtra,Mumbai,"Kandivali East, Mumbai - MPCB",14-02-2026 08:00:00,19.205800,72.868200,NH3,3,3,3
India,Maharashtra,Mumbai,"Kandivali East, Mumbai - MPCB",14-02-2026 08:00:00,19.205800,72.868200,OZONE,18,18,18
India,Maharashtra,Pune,"Mhada Colony, Pune - IITM",14-02-2026 08:00:00,18.573040,73.927715,CO,30,105,98
India,Maharashtra,Pune,"Revenue Colony-Shivajinagar, Pune - IITM",14-02-2026 08:00:00,18.530085,73.849598,OZONE,4,72,10
India,Maharashtra,Pune,"Savitribai Phule Pune University, Pune - MPCB",14-02-2026 08:00:00,18.547056,73.826908,PM10,61,147,105
India,Maharashtra,Pune,"Transport Nagar-Nigdi, Pune - IITM",14-02-2026 08:00:00,18.664282,73.763966,NO2,24,120,67
India,Maharashtra,Sangli,"Vijay Nagar, Sangli - MPCB",14-02-2026 08:00:00, 16.5038,74.3623,NO2,13,69,33
India,Maharashtra,Sangli,"Vijay Nagar, Sangli - MPCB",14-02-2026 08:00:00, 16.5038,74.3623,SO2,6,30,19
India,Maharashtra,Sangli,"Vijay Nagar, Sangli - MPCB",14-02-2026 08:00:00, 16.5038,74.3623,CO,21,107,40
India,Maharashtra,Sangli,"Vijay Nagar, Sangli - MPCB",14-02-2026 08:00:00, 16.5038,74.3623,OZONE,1,49,8
India,Maharashtra,Solapur,"Dnyaneshwar Nagar, Solapur - MPCB",14-02-2026 08:00:00,17.6336264,75.9132495,PM2.5,62,101,76
India,Odisha,Rourkela,"Sector-2, Rourkela - OSPCB",14-02-2026 08:00:00,22.24500000,84.88111111,PM10,44,86,68
India,Odisha,Suakati,"OMC Colony, Suakati - OSPCB",14-02-2026 08:00:00,21.606865,85.510538,NH3,NA,NA,NA
India,Odisha,Talcher,"Talcher Coalfields,Talcher - OSPCB",14-02-2026 08:00:00,20.9360711,85.1707021,OZONE,NA,NA,NA
India,Puducherry,Puducherry,"Jawahar Nagar, Puducherry - PPCC",14-02-2026 08:00:00,11.9309,79.8027,PM2.5,31,72,44
India,Puducherry,Puducherry,"Jawahar Nagar, Puducherry - PPCC",14-02-2026 08:00:00,11.9309,79.8027,NH3,3,6,4
India,Puducherry,Puducherry,"Jawahar Nagar, Puducherry - PPCC",14-02-2026 08:00:00,11.9309,79.8027,SO2,1,12,7
India,Puducherry,Puducherry,"Jawahar Nagar, Puducherry - PPCC",14-02-2026 08:00:00,11.9309,79.8027,OZONE,16,61,25
India,Punjab,Amritsar,"Golden Temple, Amritsar - PPCB",14-02-2026 08:00:00,31.620000,74.876512,NO2,12,114,40
India,Punjab,Amritsar,"Golden Temple, Amritsar - PPCB",14-02-2026 08:00:00,31.620000,74.876512,OZONE,28,44,36
India,Maharashtra,Solapur,"Dnyaneshwar Nagar, Solapur - MPCB",14-02-2026 08:00:00,17.6336264,75.9132495,NH3,5,26,13
India,Maharashtra,Solapur,"Ratandeep Housing Society, Solapur - MPCB",14-02-2026 08:00:00,17.65439,75.90649,PM2.5,36,99,56
India,Maharashtra,Solapur,"Ratandeep Housing Society, Solapur - MPCB",14-02-2026 08:00:00,17.65439,75.90649,NO2,13,128,49
India,Maharashtra,Thane,"Kasarvadavali, Thane - MPCB",14-02-2026 08:00:00,19.26777,72.97182,OZONE,1,34,10
India,Maharashtra,Thane,"Upvan Fort, Thane - MPCB",14-02-2026 08:00:00,19.222279,72.957979,PM2.5,15,69,39
India,Maharashtra,Thane,"Upvan Fort, Thane - MPCB",14-02-2026 08:00:00,19.222279,72.957979,OZONE,32,120,45
India,Maharashtra,Ulhasnagar,"Sidhi Vinayak Nagar, Ulhasnagar - MPCB",14-02-2026 08:00:00,19.235581,73.159121,OZONE,8,76,10
India,Maharashtra,Virar,"Bolinj, Virar - MPCB",14-02-2026 08:00:00,19.4458210,72.7988231,NH3,1,3,2
India,Punjab,Jalandhar,"Civil Line, Jalandhar - PPCB",14-02-2026 08:00:00,31.321907,75.578914,SO2,17,21,19
India,Punjab,Khanna,"Kalal Majra, Khanna - PPCB",14-02-2026 08:00:00,30.736056 ,76.209694,CO,26,62,34
India,Punjab,Khanna,"Kalal Majra, Khanna - PPCB",14-02-2026 08:00:00,30.736056 ,76.209694,OZONE,20,41,20
India,Punjab,Ludhiana,"Punjab Agricultural University, Ludhiana - PPCB",14-02-2026 08:00:00,30.9028,75.8086,PM2.5,70,115,96
India,Punjab,Ludhiana,"Punjab Agricultural University, Ludhiana - PPCB",14-02-2026 08:00:00,30.9028,75.8086,NO2,20,35,32
India,Punjab,Mandi Gobindgarh,"RIMT University, Mandi Gobindgarh - PPCB",14-02-2026 08:00:00,30.649961,76.331442,NH3,6,6,6
India,Punjab,Patiala,"Model Town, Patiala - PPCB",14-02-2026 08:00:00,30.349388,76.366642,NO2,16,19,18
India,Punjab,Patiala,"Model Town, Patiala - PPCB",14-02-2026 08:00:00,30.349388,76.366642,OZONE,11,42,12
India,Maharashtra,Virar,"Bolinj, Virar - MPCB",14-02-2026 08:00:00,19.4458210,72.7988231,OZONE,1,44,7
India,Nagaland,Kohima,"PWD Junction, Kohima - NPCB",14-02-2026 08:00:00,25.6635413,94.0989878,PM2.5,35,120,56
India,Odisha,Angul,"Hakimapada, Angul - OSPCB",14-02-2026 08:00:00,20.832874,85.104082,PM10,85,223,138
India,Odisha,Balasore,"Kalidaspur, Balasore - OSPCB",14-02-2026 08:00:00,21.51161,86.89088,SO2,11,32,22
India,Odisha,Balasore,"Kalidaspur, Balasore - OSPCB",14-02-2026 08:00:00,21.51161,86.89088,CO,16,50,40
India,Odisha,Barbil,"Forest Office, Barbil - OSPCB",14-02-2026 08:00:00,22.1166054,85.3945546,PM2.5,62,336,152
India,Odisha,Barbil,"Forest Office, Barbil - OSPCB",14-02-2026 08:00:00,22.1166054,85.3945546,NH3,1,3,2
India,Rajasthan,Alwar,"Moti Doongri, Alwar - RSPCB",14-02-2026 08:00:00,27.554793,76.611536,CO,34,102,82
India,Rajasthan,Banswara,"Rati Talai, Banswara - RSPCB",14-02-2026 08:00:00,23.555190,74.440010,NH3,6,13,9
India,Rajasthan,Banswara,"Rati Talai, Banswara - RSPCB",14-02-2026 08:00:00,23.555190,74.440010,SO2,1,9,4
India,Rajasthan,Baran,"Bamboliya, Baran - RSPCB",14-02-2026 08:00:00,25.106006,76.469948,PM10,70,145,107
India,Rajasthan,Baran,"Bamboliya, Baran - RSPCB",14-02-2026 08:00:00,25.106006,76.469948,NH3,1,14,4
India,Rajasthan,Baran,"Bamboliya, Baran - RSPCB",14-02-2026 08:00:00,25.106006,76.469948,SO2,9,20,14
India,Rajasthan,Baran,"Bamboliya, Baran - RSPCB",14-02-2026 08:00:00,25.106006,76.469948,CO,3,42,32
India,Rajasthan,Bharatpur,"Krishna Nagar, Bharatpur - RSPCB",14-02-2026 08:00:00,27.215415,77.50873,SO2,3,13,8
India,Odisha,Byasanagar,"Ferro Chrome Colony, Byasanagar - OSPCB",14-02-2026 08:00:00,20.94185,86.11510,OZONE,36,246,69
India,Odisha,Cuttack,"CDA Area, Cuttack - OSPCB",14-02-2026 08:00:00,20.48891     ,85.84768     ,SO2,5,21,10
India,Odisha,Nayagarh,"Dabuna, Nayagarh - OSPCB",14-02-2026 08:00:00,21.847279,85.416905,CO,12,34,26
India,Odisha,Rourkela,"Raghunathpali, Rourkela - OSPCB",14-02-2026 08:00:00,22.220833,84.809444,NH3,1,2,1
India,Odisha,Rourkela,"Raghunathpali, Rourkela - OSPCB",14-02-2026 08:00:00,22.220833,84.809444,CO,36,108,64
India,Odisha,Baripada,"Meher Colony, Baripada - OSPCB",14-02-2026 08:00:00,21.941841,86.728318,PM10,61,146,100
India,Odisha,Baripada,"Meher Colony, Baripada - OSPCB",14-02-2026 08:00:00,21.941841,86.728318,SO2,12,32,18
India,Odisha,Bhubaneswar,"Lingraj Mandir, Bhubaneswar - OSPCB",14-02-2026 08:00:00,20.240790,85.836784,NO2,11,93,47
India,Odisha,Bhubaneswar,"Lingraj Mandir, Bhubaneswar - OSPCB",14-02-2026 08:00:00,20.240790,85.836784,OZONE,42,201,67
India,Maharashtra,Pimpri-Chinchwad,"Park Street Wakad, Pimpri Chinchwad - MPCB",14-02-2026 08:00:00,18.59051,73.77946,NO2,50,131,81
India,Maharashtra,Pune,"Dhankawadi, Pune - IITM",14-02-2026 08:00:00,18.459883,73.852193,NO2,22,114,81
India,Rajasthan,Jaipur,"Shastri Nagar, Jaipur - RSPCB",14-02-2026 08:00:00,26.9502929,75.730943,NO2,37,121,62
India,Rajasthan,Jaipur,"Shastri Nagar, Jaipur - RSPCB",14-02-2026 08:00:00,26.9502929,75.730943,CO,42,108,78
India,Rajasthan,Jalore,"Mudtra Sili, Jalore - RSPCB",14-02-2026 08:00:00,25.344694,72.626208,PM2.5,42,253,104
India,Rajasthan,Jalore,"Mudtra Sili, Jalore - RSPCB",14-02-2026 08:00:00,25.344694,72.626208,NH3,3,6,5
India,Rajasthan,Jhalawar,"Rajlaxmi Nagar, Jhalawar - RSPCB",14-02-2026 08:00:00,24.588397,76.172782,CO,21,86,42
India,Rajasthan,Jhunjhunu,"Indra Nagar, Jhunjhunu - RSPCB",14-02-2026 08:00:00,28.108988,75.386577,NH3,1,9,6
India,Rajasthan,Kota,"Nayapura, Kota - RSPCB",14-02-2026 08:00:00,25.196024,75.855668,CO,20,104,40
India,Rajasthan,Kota,"Nayapura, Kota - RSPCB",14-02-2026 08:00:00,25.196024,75.855668,OZONE,6,149,20
India,Rajasthan,Kota,"Shrinath Puram, Kota - RSPCB",14-02-2026 08:00:00,25.14389,75.821256,NO2,7,12,9
India,Rajasthan,Nagaur,"Karni Colony, Nagaur - RSPCB",14-02-2026 08:00:00,27.213494,73.734444,PM2.5,NA,NA,NA
India,Rajasthan,Nagaur,"Karni Colony, Nagaur - RSPCB",14-02-2026 08:00:00,27.213494,73.734444,PM10,NA,NA,NA
India,Rajasthan,Nagaur,"Karni Colony, Nagaur - RSPCB",14-02-2026 08:00:00,27.213494,73.734444,OZONE,NA,NA,NA
India,Rajasthan,Bhilwara,"Pratap Nagar, Bhilwara - RSPCB",14-02-2026 08:00:00,25.339605,74.618883,PM2.5,57,293,136
India,Rajasthan,Bhilwara,"Pratap Nagar, Bhilwara - RSPCB",14-02-2026 08:00:00,25.339605,74.618883,PM10,63,196,117
India,Rajasthan,Bhilwara,"Pratap Nagar, Bhilwara - RSPCB",14-02-2026 08:00:00,25.339605,74.618883,OZONE,6,82,16
India,Rajasthan,Bikaner,"MM Ground, Bikaner - RSPCB",14-02-2026 08:00:00,28.018792,73.292658,PM10,45,319,164
India,Rajasthan,Bikaner,"MM Ground, Bikaner - RSPCB",14-02-2026 08:00:00,28.018792,73.292658,NH3,8,12,10
India,Rajasthan,Bikaner,"MM Ground, Bikaner - RSPCB",14-02-2026 08:00:00,28.018792,73.292658,CO,16,140,27
India,Rajasthan,Bundi,"New Colony, Bundi - RSPCB",14-02-2026 08:00:00,25.435774,75.644272,PM10,70,152,115
India,Rajasthan,Bundi,"New Colony, Bundi - RSPCB",14-02-2026 08:00:00,25.435774,75.644272,SO2,7,37,13
India,Rajasthan,Chittorgarh,"Shastri Nagar, Chittorgarh - RSPCB",14-02-2026 08:00:00,24.892047,74.623527,PM2.5,82,305,188
India,Rajasthan,Chittorgarh,"Shastri Nagar, Chittorgarh - RSPCB",14-02-2026 08:00:00,24.892047,74.623527,OZONE,4,138,6
India,Rajasthan,Churu,"Subash Chowk, Churu - RSPCB",14-02-2026 08:00:00,28.296139,74.961696,PM2.5,12,330,108
India,Rajasthan,Jaipur,"Adarsh Nagar, Jaipur - RSPCB",14-02-2026 08:00:00,26.902909,75.836858,OZONE,19,86,46
India,Rajasthan,Jaipur,"Police Commissionerate, Jaipur - RSPCB",14-02-2026 08:00:00,26.9164092,75.7994901,CO,48,69,59
India,Rajasthan,Jaipur,"Police Commissionerate, Jaipur - RSPCB",14-02-2026 08:00:00,26.9164092,75.7994901,OZONE,15,69,26
India,Rajasthan,Jaipur,"RIICO Sitapura, Jaipur - RSPCB",14-02-2026 08:00:00,26.786682,75.827928,PM10,69,322,140
India,Rajasthan,Jaipur,"RIICO Sitapura, Jaipur - RSPCB",14-02-2026 08:00:00,26.786682,75.827928,NH3,4,8,6
India,Rajasthan,Jodhpur,"Collectorate, Jodhpur - RSPCB",14-02-2026 08:00:00,26.268249,73.0193853,SO2,1,13,6
India,Rajasthan,Jodhpur,"Digari Kalan, Jodhpur - RSPCB",14-02-2026 08:00:00,26.295810,73.082283,NH3,4,8,6
India,Rajasthan,Jodhpur,"Samrat Ashok Udhyan, Jodhpur - RSPCB",14-02-2026 08:00:00,26.253384,72.976571,PM10,36,180,106
India,Rajasthan,Karauli,"Satyawati Vihar, Karauli - RSPCB",14-02-2026 08:00:00,26.506177,77.025989,OZONE,6,95,31
India,Rajasthan,Kota,"Dhanmandi, Kota - RSPCB",14-02-2026 08:00:00,25.164090,75.858137,NO2,35,130,68
India,Rajasthan,Kota,"Dhanmandi, Kota - RSPCB",14-02-2026 08:00:00,25.164090,75.858137,SO2,5,21,11
India,Rajasthan,Dausa,"Khatikan Mohalla, Dausa - RSPCB",14-02-2026 08:00:00,26.895552,76.334753,NO2,19,118,50
India,Rajasthan,Dholpur,"Raja Ganj, Dholpur - RSPCB",14-02-2026 08:00:00,26.699557,77.898881,SO2,3,8,6
India,Rajasthan,Jaipur,"Sector-2 Murlipura, Jaipur - RSPCB",14-02-2026 08:00:00,26.960669,75.771817,SO2,5,8,7
India,TamilNadu,Perundurai,"SIPCOT Industrial Park, Perundurai - TNPCB",14-02-2026 08:00:00,11.258242,77.552761,PM2.5,NA,NA,NA
India,TamilNadu,Thoothukudi,"Meelavittan, Thoothukudi - TNPCB",14-02-2026 08:00:00,8.816428 ,78.099039,PM10,29,120,52
India,TamilNadu,Thoothukudi,"Meelavittan, Thoothukudi - TNPCB",14-02-2026 08:00:00,8.816428 ,78.099039,CO,30,40,33
India,Telangana,Hyderabad,"Bollaram Industrial Area, Hyderabad - TSPCB",14-02-2026 08:00:00,17.540891,78.358528,CO,6,51,25
India,Telangana,Hyderabad,"Bollaram Industrial Area, Hyderabad - TSPCB",14-02-2026 08:00:00,17.540891,78.358528,OZONE,37,46,38
India,Telangana,Hyderabad,"Central University, Hyderabad - TSPCB",14-02-2026 08:00:00,17.460103,78.334361,PM10,29,99,50
India,Telangana,Hyderabad,"Central University, Hyderabad - TSPCB",14-02-2026 08:00:00,17.460103,78.334361,NO2,21,42,32
India,Telangana,Hyderabad,"Central University, Hyderabad - TSPCB",14-02-2026 08:00:00,17.460103,78.334361,OZONE,8,23,15
India,Telangana,Hyderabad,"ECIL Kapra, Hyderabad - TSPCB",14-02-2026 08:00:00,17.470431,78.566959,NO2,5,62,21
India,Telangana,Hyderabad,"ECIL Kapra, Hyderabad - TSPCB",14-02-2026 08:00:00,17.470431,78.566959,NH3,1,6,5
India,Telangana,Hyderabad,"ECIL Kapra, Hyderabad - TSPCB",14-02-2026 08:00:00,17.470431,78.566959,SO2,3,77,20
India,Telangana,Hyderabad,"ICRISAT Patancheru, Hyderabad - TSPCB",14-02-2026 08:00:00,17.518400,78.278777,PM2.5,50,97,71
India,TamilNadu,Chennai,"Perungudi, Chennai - TNPCB",14-02-2026 08:00:00,12.9533,80.2357,PM10,51,127,77
India,TamilNadu,Chennai,"Royapuram, Chennai - TNPCB",14-02-2026 08:00:00,13.1036,80.2909,PM2.5,32,130,67
India,TamilNadu,Chennai,"Royapuram, Chennai - TNPCB",14-02-2026 08:00:00,13.1036,80.2909,OZONE,16,18,17
India,TamilNadu,Chennai,"Velachery Res. Area, Chennai - CPCB",14-02-2026 08:00:00,13.0052189,80.2398125,NH3,3,4,3
India,TamilNadu,Chennai,"Velachery Res. Area, Chennai - CPCB",14-02-2026 08:00:00,13.0052189,80.2398125,SO2,4,9,6
India,TamilNadu,Coimbatore,"PSG College of Arts and Science, Coimbatore - TNPCB",14-02-2026 08:00:00,11.0328,77.0349,NO2,10,11,11
India,TamilNadu,Coimbatore,"PSG College of Arts and Science, Coimbatore - TNPCB",14-02-2026 08:00:00,11.0328,77.0349,NH3,1,1,1
India,TamilNadu,Coimbatore,"SIDCO Kurichi, Coimbatore - TNPCB",14-02-2026 08:00:00,10.942451,76.978996,NH3,1,2,2
India,TamilNadu,Coimbatore,"SIDCO Kurichi, Coimbatore - TNPCB",14-02-2026 08:00:00,10.942451,76.978996,OZONE,15,20,20
India,TamilNadu,Madurai,"Uchapatti, Madurai - TNPCB",14-02-2026 08:00:00,9.865935,78.022669,NO2,NA,NA,NA
India,Uttar_Pradesh,Agra,"Sanjay Palace, Agra - UPPCB",14-02-2026 08:00:00,27.19865833,78.00598056,SO2,18,19,18
India,Uttar_Pradesh,Agra,"Sector-3B Avas Vikas Colony, Agra - UPPCB",14-02-2026 08:00:00,27.19412,77.96237,PM2.5,36,112,72
India,Uttar_Pradesh,Agra,"Sector-3B Avas Vikas Colony, Agra - UPPCB",14-02-2026 08:00:00,27.19412,77.96237,NH3,5,12,10
India,Uttar_Pradesh,Agra,"Sector-3B Avas Vikas Colony, Agra - UPPCB",14-02-2026 08:00:00,27.19412,77.96237,SO2,12,18,16
India,Uttar_Pradesh,Agra,"Sector-3B Avas Vikas Colony, Agra - UPPCB",14-02-2026 08:00:00,27.19412,77.96237,CO,2,29,22
India,Uttar_Pradesh,Agra,"Shahjahan Garden, Agra - UPPCB",14-02-2026 08:00:00,27.169338,78.03582,PM10,NA,NA,NA
India,Uttar_Pradesh,Agra,"Shahjahan Garden, Agra - UPPCB",14-02-2026 08:00:00,27.169338,78.03582,OZONE,NA,NA,NA
India,Uttar_Pradesh,Agra,"Shastripuram, Agra - UPPCB",14-02-2026 08:00:00,27.19862,77.92066,PM10,17,109,55
India,Uttar_Pradesh,Agra,"Shastripuram, Agra - UPPCB",14-02-2026 08:00:00,27.19862,77.92066,NH3,3,3,3
India,Uttar_Pradesh,Baghpat,"Sardar Patel Inter College, Baghpat - UPPCB",14-02-2026 08:00:00,28.964949,77.278761,NO2,15,59,36
India,Rajasthan,Rajsamand,"Dhoinda, Rajsamand - RSPCB",14-02-2026 08:00:00,25.036360,73.883502,NH3,10,26,18
India,Rajasthan,Rajsamand,"Dhoinda, Rajsamand - RSPCB",14-02-2026 08:00:00,25.036360,73.883502,CO,24,55,32
India,Rajasthan,Rajsamand,"Dhoinda, Rajsamand - RSPCB",14-02-2026 08:00:00,25.036360,73.883502,OZONE,5,195,24
India,Rajasthan,Sawai Madhopur,"Sahu Nagar, Sawai Madhopur - RSPCB",14-02-2026 08:00:00,26.031443,76.359327,PM10,91,242,132
India,Rajasthan,Sawai Madhopur,"Sahu Nagar, Sawai Madhopur - RSPCB",14-02-2026 08:00:00,26.031443,76.359327,OZONE,2,179,25
India,Rajasthan,Sikar,"Radhakishan Pura, Sikar - RSPCB",14-02-2026 08:00:00,27.608912,75.153302,NO2,14,107,47
India,Rajasthan,Sirohi,"Vedhaynath Colony, Sirohi - RSPCB",14-02-2026 08:00:00,24.885261,72.857549,NO2,10,117,55
India,Rajasthan,Sri Ganganagar,"Old City, Sri Ganganagar - RSPCB",14-02-2026 08:00:00,29.931624,73.864511,NH3,5,8,7
India,Telangana,Hyderabad,"Sanathnagar, Hyderabad - TSPCB",14-02-2026 08:00:00,17.4559458,78.4332152,NO2,20,62,40
India,Telangana,Hyderabad,"Sanathnagar, Hyderabad - TSPCB",14-02-2026 08:00:00,17.4559458,78.4332152,OZONE,14,19,17
India,Telangana,Hyderabad,"Somajiguda, Hyderabad - TSPCB",14-02-2026 08:00:00,17.417094,78.457437,PM2.5,50,67,62
India,Telangana,Hyderabad,"Somajiguda, Hyderabad - TSPCB",14-02-2026 08:00:00,17.417094,78.457437,NO2,12,18,14
India,Telangana,Hyderabad,"Zoo Park, Hyderabad - TSPCB",14-02-2026 08:00:00,17.349694,78.451437,NH3,3,3,3
India,Tripura,Agartala,"Bardowali, Agartala - Tripura SPCB",14-02-2026 08:00:00,23.8175497,91.2726974,PM2.5,20,109,55
India,Uttar_Pradesh,Agra,"Manoharpur, Agra - UPPCB",14-02-2026 08:00:00,27.23711,78.01936,PM10,42,130,82
India,Telangana,Hyderabad,"ICRISAT Patancheru, Hyderabad - TSPCB",14-02-2026 08:00:00,17.518400,78.278777,OZONE,13,62,19
India,Telangana,Hyderabad,"Kompally Municipal Office, Hyderabad - TSPCB",14-02-2026 08:00:00,17.544899,78.486949,PM10,67,89,74
India,Telangana,Hyderabad,"Kompally Municipal Office, Hyderabad - TSPCB",14-02-2026 08:00:00,17.544899,78.486949,SO2,4,13,6
India,Telangana,Hyderabad,"Nacharam_TSIIC IALA, Hyderabad - TSPCB",14-02-2026 08:00:00,17.429398,78.569354,OZONE,19,34,33
India,Telangana,Hyderabad,"New Malakpet, Hyderabad - TSPCB",14-02-2026 08:00:00,17.37206,78.50864,PM10,79,111,92
India,Telangana,Hyderabad,"New Malakpet, Hyderabad - TSPCB",14-02-2026 08:00:00,17.37206,78.50864,SO2,16,23,19
India,Sikkim,Gangtok,"Zero Point GICI, Gangtok - SSPCB",14-02-2026 08:00:00,27.338530,88.614099,PM10,54,80,64
India,Sikkim,Gangtok,"Zero Point GICI, Gangtok - SSPCB",14-02-2026 08:00:00,27.338530,88.614099,NO2,6,7,6
India,TamilNadu,Chennai,"Kodungaiyur, Chennai - TNPCB",14-02-2026 08:00:00,13.1278,80.2642,NH3,1,3,2
India,TamilNadu,Chennai,"Manali Village, Chennai - TNPCB",14-02-2026 08:00:00,13.1662,80.2584,OZONE,14,34,32
India,TamilNadu,Chennai,"Manali, Chennai - CPCB",14-02-2026 08:00:00,13.164544,80.26285,NH3,6,7,7
India,TamilNadu,Chennai,"Manali, Chennai - CPCB",14-02-2026 08:00:00,13.164544,80.26285,OZONE,10,10,10
India,Uttar_Pradesh,Bareilly,"Civil Lines, Bareilly - UPPCB",14-02-2026 08:00:00,28.359581,79.414455,PM10,43,59,51
India,Uttar_Pradesh,Bareilly,"Rajendra Nagar, Bareilly - UPPCB",14-02-2026 08:00:00,28.38910936,79.42963708,SO2,37,40,38
India,Uttar_Pradesh,Bulandshahr,"Yamunapuram, Bulandshahr - UPPCB",14-02-2026 08:00:00,28.406963,77.849831,PM2.5,47,266,133
India,Uttar_Pradesh,Bulandshahr,"Yamunapuram, Bulandshahr - UPPCB",14-02-2026 08:00:00,28.406963,77.849831,NH3,9,13,11
India,Uttar_Pradesh,Firozabad,"Nagla Bhau, Firozabad - UPPCB",14-02-2026 08:00:00,27.168897,78.376960,SO2,1,52,19
India,Rajasthan,Pali,"Indira Colony Vistar, Pali - RSPCB",14-02-2026 08:00:00,25.771061, 73.340227,NH3,4,16,8
India,Rajasthan,Pali,"Indira Colony Vistar, Pali - RSPCB",14-02-2026 08:00:00,25.771061, 73.340227,OZONE,9,75,14
India,Rajasthan,Pratapgarh,"Pragati Nagar, Pratapgarh - RSPCB",14-02-2026 08:00:00,24.041198,74.780702,OZONE,31,142,70
India,Uttar_Pradesh,Greater Noida,"Knowledge Park - V, Greater Noida - UPPCB",14-02-2026 08:00:00,28.557054,77.453663,SO2,8,25,15
India,Uttar_Pradesh,Jhansi,"Shivaji Nagar, Jhansi - UPPCB",14-02-2026 08:00:00,25.4547,78.6039,PM10,44,133,80
India,Uttar_Pradesh,Kanpur,"FTI Kidwai Nagar, Kanpur - UPPCB",14-02-2026 08:00:00,26.428282,80.327067,PM2.5,13,182,70
India,Uttar_Pradesh,Kanpur,"FTI Kidwai Nagar, Kanpur - UPPCB",14-02-2026 08:00:00,26.428282,80.327067,NH3,5,5,5
India,Uttar_Pradesh,Kanpur,"NSI Kalyanpur, Kanpur - UPPCB",14-02-2026 08:00:00,26.509954,80.249612,PM10,49,176,103
India,Uttar_Pradesh,Kanpur,"NSI Kalyanpur, Kanpur - UPPCB",14-02-2026 08:00:00,26.509954,80.249612,NO2,25,25,25
India,Uttar_Pradesh,Kanpur,"NSI Kalyanpur, Kanpur - UPPCB",14-02-2026 08:00:00,26.509954,80.249612,CO,24,70,63
India,Uttar_Pradesh,Kanpur,"NSI Kalyanpur, Kanpur - UPPCB",14-02-2026 08:00:00,26.509954,80.249612,OZONE,16,18,17
India,Uttar_Pradesh,Khurja,"Kalindi Kunj, Khurja - UPPCB",14-02-2026 08:00:00,28.2348927,77.8683002,NO2,6,7,7
India,Uttar_Pradesh,Varanasi,"IESD Banaras Hindu University, Varanasi - UPPCB",14-02-2026 08:00:00,25.262326,82.995408,NH3,2,6,3
India,Uttar_Pradesh,Varanasi,"Maldahiya, Varanasi - UPPCB",14-02-2026 08:00:00,25.32393,82.99687,PM2.5,20,93,50
India,Uttar_Pradesh,Varanasi,"Maldahiya, Varanasi - UPPCB",14-02-2026 08:00:00,25.32393,82.99687,SO2,27,31,30
India,Uttar_Pradesh,Vrindavan,"Omex Eternity, Vrindavan - UPPCB",14-02-2026 08:00:00,27.5714090,77.6557570,SO2,15,29,17
India,Uttar_Pradesh,Vrindavan,"Omex Eternity, Vrindavan - UPPCB",14-02-2026 08:00:00,27.5714090,77.6557570,OZONE,15,16,15
India,Uttarakhand,Dehradun,"Doon University, Dehradun - UKPCB",14-02-2026 08:00:00,30.269444,78.044167,PM2.5,73,293,198
India,Uttarakhand,Kashipur,"Govt. Girls Inter College, Kashipur - UKPCB",14-02-2026 08:00:00,29.2124114,78.9611753,PM2.5,NA,NA,NA
India,Uttarakhand,Kashipur,"Govt. Girls Inter College, Kashipur - UKPCB",14-02-2026 08:00:00,29.2124114,78.9611753,NO2,NA,NA,NA
India,West_Bengal,Durgapur,"Mahishkapur Road_B-Zone, Durgapur - WBPCB",14-02-2026 08:00:00,23.567923,87.306843,PM2.5,29,205,82
India,West_Bengal,Durgapur,"Mahishkapur Road_B-Zone, Durgapur - WBPCB",14-02-2026 08:00:00,23.567923,87.306843,NH3,2,3,2
India,West_Bengal,Durgapur,"PCBL Residential Complex, Durgapur - WBPCB",14-02-2026 08:00:00,23.5087640,87.3544400,PM2.5,40,314,127
India,West_Bengal,Durgapur,"PCBL Residential Complex, Durgapur - WBPCB",14-02-2026 08:00:00,23.5087640,87.3544400,NO2,26,70,46
India,West_Bengal,Durgapur,"PCBL Residential Complex, Durgapur - WBPCB",14-02-2026 08:00:00,23.5087640,87.3544400,SO2,5,9,6
India,West_Bengal,Haldia,"Priyambada Housing Estate, Haldia - WBPCB",14-02-2026 08:00:00,22.06047,88.109737,NH3,6,6,6
India,West_Bengal,Haldia,"Priyambada Housing Estate, Haldia - WBPCB",14-02-2026 08:00:00,22.06047,88.109737,SO2,6,19,14
India,West_Bengal,Howrah,"Belur Math, Howrah - WBPCB",14-02-2026 08:00:00,22.629801,88.352017,PM2.5,71,360,168
India,West_Bengal,Howrah,"Belur Math, Howrah - WBPCB",14-02-2026 08:00:00,22.629801,88.352017,SO2,13,119,25
India,Uttar_Pradesh,Moradabad,"Kashiram Nagar, Moradabad - UPPCB",14-02-2026 08:00:00,28.849399,78.742362,NO2,25,25,25
India,Uttar_Pradesh,Muzaffarnagar,"New Mandi, Muzaffarnagar - UPPCB",14-02-2026 08:00:00,29.4723508,77.7194031,NH3,7,12,10
India,Uttar_Pradesh,Muzaffarnagar,"New Mandi, Muzaffarnagar - UPPCB",14-02-2026 08:00:00,29.4723508,77.7194031,CO,12,80,41
India,Uttar_Pradesh,Muzaffarnagar,"New Mandi, Muzaffarnagar - UPPCB",14-02-2026 08:00:00,29.4723508,77.7194031,OZONE,18,89,32
India,Uttar_Pradesh,Noida,"Sector - 125, Noida - UPPCB",14-02-2026 08:00:00,28.5447608,77.3231257,PM2.5,54,345,222
India,Uttar_Pradesh,Noida,"Sector - 125, Noida - UPPCB",14-02-2026 08:00:00,28.5447608,77.3231257,PM10,46,208,128
India,Uttar_Pradesh,Noida,"Sector - 125, Noida - UPPCB",14-02-2026 08:00:00,28.5447608,77.3231257,SO2,7,16,10
India,Uttar_Pradesh,Noida,"Sector - 125, Noida - UPPCB",14-02-2026 08:00:00,28.5447608,77.3231257,OZONE,8,10,9
India,Uttar_Pradesh,Noida,"Sector-1, Noida - UPPCB",14-02-2026 08:00:00,28.5898,77.3101,PM2.5,52,321,192
India,Uttar_Pradesh,Meerut,"Ganga Nagar, Meerut - UPPCB",14-02-2026 08:00:00,28.999264,77.7590354,CO,78,103,88
India,Uttar_Pradesh,Meerut,"Jai Bhim Nagar, Meerut - UPPCB",14-02-2026 08:00:00,28.9535882,77.7622941,NO2,9,30,16
India,Uttar_Pradesh,Meerut,"Jai Bhim Nagar, Meerut - UPPCB",14-02-2026 08:00:00,28.9535882,77.7622941,CO,24,68,40
India,Uttar_Pradesh,Meerut,"Pallavpuram Phase 2, Meerut - UPPCB",14-02-2026 08:00:00,29.063510,77.709723,NH3,4,8,6
India,Uttar_Pradesh,Meerut,"Pallavpuram Phase 2, Meerut - UPPCB",14-02-2026 08:00:00,29.063510,77.709723,CO,6,56,19
India,Uttar_Pradesh,Meerut,"Pallavpuram Phase 2, Meerut - UPPCB",14-02-2026 08:00:00,29.063510,77.709723,OZONE,9,126,14
India,Uttar_Pradesh,Moradabad,"Eco Herbal Park, Moradabad - UPPCB",14-02-2026 08:00:00,28.840739,78.697531,CO,18,81,58
India,Uttar_Pradesh,Moradabad,"Employment Office, Moradabad - UPPCB",14-02-2026 08:00:00,28.88528,78.73880,PM10,73,175,116
India,Uttarakhand,Kashipur,"Govt. Girls Inter College, Kashipur - UKPCB",14-02-2026 08:00:00,29.2124114,78.9611753,OZONE,NA,NA,NA
India,Uttarakhand,Rishikesh,"Shivaji Nagar, Rishikesh - UKPCB",14-02-2026 08:00:00,30.075911,78.2859547,OZONE,80,92,80
India,West_Bengal,Asansol,"Evelyn Lodge, Asansol - WBPCB",14-02-2026 08:00:00,23.6979360,86.9443950,NO2,8,52,26
India,West_Bengal,Asansol,"Mahabir Colliery, Asansol - WBPCB",14-02-2026 08:00:00,23.6181830,87.1057180,PM2.5,25,295,121
India,West_Bengal,Asansol,"Mahabir Colliery, Asansol - WBPCB",14-02-2026 08:00:00,23.6181830,87.1057180,OZONE,4,32,4
India,West_Bengal,Asansol,"Trivenidevi Bhalotia College, Asansol - WBPCB",14-02-2026 08:00:00,23.616515,87.119133,NH3,8,9,9
India,West_Bengal,Asansol,"Trivenidevi Bhalotia College, Asansol - WBPCB",14-02-2026 08:00:00,23.616515,87.119133,SO2,5,19,10
India,Uttar_Pradesh,Noida,"Sector-1, Noida - UPPCB",14-02-2026 08:00:00,28.5898,77.3101,NH3,6,9,8
India,Uttar_Pradesh,Noida,"Sector-1, Noida - UPPCB",14-02-2026 08:00:00,28.5898,77.3101,CO,42,121,112
India,Uttar_Pradesh,Noida,"Sector-116, Noida - UPPCB",14-02-2026 08:00:00,28.569230,77.393848,NO2,14,50,29
India,Uttar_Pradesh,Noida,"Sector-116, Noida - UPPCB",14-02-2026 08:00:00,28.569230,77.393848,SO2,5,14,10
India,Uttar_Pradesh,Prayagraj,"Jhunsi, Prayagraj - UPPCB",14-02-2026 08:00:00,25.425602,81.917152,NO2,6,6,6
India,Uttar_Pradesh,Prayagraj,"Motilal Nehru NIT, Prayagraj - UPPCB",14-02-2026 08:00:00,25.494,81.863,PM2.5,30,84,60
India,Uttar_Pradesh,Prayagraj,"Nagar Nigam, Prayagraj - UPPCB",14-02-2026 08:00:00,25.44919916 ,81.82735986 ,PM2.5,24,77,52
India,Uttar_Pradesh,Prayagraj,"Nagar Nigam, Prayagraj - UPPCB",14-02-2026 08:00:00,25.44919916 ,81.82735986 ,PM10,NA,NA,NA
India,Uttar_Pradesh,Ghaziabad,"Loni, Ghaziabad - UPPCB",14-02-2026 08:00:00,28.757294,77.278792,SO2,2,33,16
India,Uttar_Pradesh,Ghaziabad,"Sanjay Nagar, Ghaziabad - UPPCB",14-02-2026 08:00:00,28.685382,77.453839,NH3,6,8,7
India,Uttar_Pradesh,Ghaziabad,"Vasundhara, Ghaziabad - UPPCB",14-02-2026 08:00:00,28.6603346,77.3572563,PM2.5,71,422,250
India,Uttar_Pradesh,Ghaziabad,"Vasundhara, Ghaziabad - UPPCB",14-02-2026 08:00:00,28.6603346,77.3572563,PM10,113,441,235
India,Uttar_Pradesh,Greater Noida,"Knowledge Park - III, Greater Noida - UPPCB",14-02-2026 08:00:00,28.47272,77.482000,PM2.5,35,266,158
India,Uttar_Pradesh,Greater Noida,"Knowledge Park - III, Greater Noida - UPPCB",14-02-2026 08:00:00,28.47272,77.482000,NH3,8,12,10
India,Uttar_Pradesh,Khurja,"Kalindi Kunj, Khurja - UPPCB",14-02-2026 08:00:00,28.2348927,77.8683002,NH3,1,1,1
India,Uttar_Pradesh,Lucknow,"B R Ambedkar University, Lucknow - UPPCB",14-02-2026 08:00:00,26.766433,80.927299,PM2.5,19,165,64
India,Uttar_Pradesh,Meerut,"Ganga Nagar, Meerut - UPPCB",14-02-2026 08:00:00,28.999264,77.7590354,PM10,78,172,122
India,West_Bengal,Howrah,"Ghusuri, Howrah - WBPCB",14-02-2026 08:00:00,22.611968,88.347422,NO2,17,31,23
India,West_Bengal,Howrah,"Ghusuri, Howrah - WBPCB",14-02-2026 08:00:00,22.611968,88.347422,SO2,8,14,11
India,West_Bengal,Howrah,"Ghusuri, Howrah - WBPCB",14-02-2026 08:00:00,22.611968,88.347422,OZONE,9,43,10
India,West_Bengal,Howrah,"Padmapukur, Howrah - WBPCB",14-02-2026 08:00:00,22.5687319,88.2797276,PM10,109,267,163
India,West_Bengal,Kolkata,"Ballygunge, Kolkata - WBPCB",14-02-2026 08:00:00,22.5367507,88.3638022,NH3,7,13,9
India,West_Bengal,Kolkata,"Ballygunge, Kolkata - WBPCB",14-02-2026 08:00:00,22.5367507,88.3638022,OZONE,5,34,7
India,West_Bengal,Kolkata,"Jadavpur, Kolkata - WBPCB",14-02-2026 08:00:00,22.49929,88.36917,OZONE,5,81,6
India,West_Bengal,Kolkata,"Rabindra Bharati University, Kolkata - WBPCB",14-02-2026 08:00:00,22.627847,88.380669,SO2,7,13,9
India,West_Bengal,Kolkata,"Rabindra Bharati University, Kolkata - WBPCB",14-02-2026 08:00:00,22.627847,88.380669,CO,34,109,79
India,West_Bengal,Kolkata,"Rabindra Sarobar, Kolkata - WBPCB",14-02-2026 08:00:00,22.51106,88.35142,NO2,31,185,108
India,West_Bengal,Kolkata,"Victoria, Kolkata - WBPCB",14-02-2026 08:00:00,22.5448082,88.3403691,PM2.5,74,294,160
India,West_Bengal,Siliguri,"Ward-32 Bapupara, Siliguri - WBPCB",14-02-2026 08:00:00,26.6879226,88.4152495,SO2,14,19,15
India,West_Bengal,Siliguri,"Ward-32 Bapupara, Siliguri - WBPCB",14-02-2026 08:00:00,26.6879226,88.4152495,OZONE,32,120,58
India,Bihar,Motihari,"Gandak Colony, Motihari - BSPCB",14-02-2026 08:00:00,26.63086,84.90051,SO2,2,3,3
India,Bihar,Motihari,"Gandak Colony, Motihari - BSPCB",14-02-2026 08:00:00,26.63086,84.90051,CO,16,42,18
India,Bihar,Munger,"Town Hall, Munger - BSPCB",14-02-2026 08:00:00,25.376776,86.471523,NH3,1,2,2
India,Bihar,Munger,"Town Hall, Munger - BSPCB",14-02-2026 08:00:00,25.376776,86.471523,OZONE,8,12,11
India,Bihar,Muzaffarpur,"Buddha Colony, Muzaffarpur - BSPCB",14-02-2026 08:00:00,26.11442,85.39813,PM2.5,44,110,87
India,Bihar,Muzaffarpur,"Buddha Colony, Muzaffarpur - BSPCB",14-02-2026 08:00:00,26.11442,85.39813,NO2,18,51,36
India,Bihar,Muzaffarpur,"MIT-Daudpur Kothi, Muzaffarpur - BSPCB",14-02-2026 08:00:00,26.1403345,85.3650192,PM10,61,70,64
India,Bihar,Muzaffarpur,"MIT-Daudpur Kothi, Muzaffarpur - BSPCB",14-02-2026 08:00:00,26.1403345,85.3650192,SO2,7,9,8
India,Bihar,Muzaffarpur,"Muzaffarpur Collectorate, Muzaffarpur - BSPCB",14-02-2026 08:00:00,26.1209,85.3647,SO2,6,10,8
India,Bihar,Muzaffarpur,"Muzaffarpur Collectorate, Muzaffarpur - BSPCB",14-02-2026 08:00:00,26.1209,85.3647,CO,16,44,32
India,Bihar,Patna,"DRM Office Danapur, Patna - BSPCB",14-02-2026 08:00:00,25.586562,85.043586,SO2,NA,NA,NA
India,Andhra_Pradesh,Visakhapatnam,"GVM Corporation, Visakhapatnam - APPCB",14-02-2026 08:00:00,17.72,83.3,PM2.5,87,324,185
India,Andhra_Pradesh,Visakhapatnam,"GVM Corporation, Visakhapatnam - APPCB",14-02-2026 08:00:00,17.72,83.3,PM10,114,448,215
India,Andhra_Pradesh,Visakhapatnam,"GVM Corporation, Visakhapatnam - APPCB",14-02-2026 08:00:00,17.72,83.3,SO2,2,93,21
India,Arunachal_Pradesh,Naharlagun,"Naharlagun, Naharlagun - APSPCB",14-02-2026 08:00:00,27.103358,93.679645,PM10,98,402,174
India,Arunachal_Pradesh,Naharlagun,"Naharlagun, Naharlagun - APSPCB",14-02-2026 08:00:00,27.103358,93.679645,NH3,1,1,1
India,Arunachal_Pradesh,Naharlagun,"Naharlagun, Naharlagun - APSPCB",14-02-2026 08:00:00,27.103358,93.679645,CO,20,68,30
India,Assam,Byrnihat,"Central Academy for SFS, Byrnihat - PCBA",14-02-2026 08:00:00,26.071318,91.87488,NO2,4,11,8
India,Assam,Guwahati,"LGBI Airport, Guwahati - PCBA",14-02-2026 08:00:00,26.10887,91.589544,PM2.5,42,151,79
India,Andhra_Pradesh,Chittoor,"Gangineni Cheruvu, Chittoor - APPCB",14-02-2026 08:00:00,13.204880,79.097889,OZONE,65,69,69
India,Andhra_Pradesh,Kadapa,"Yerramukkapalli, Kadapa - APPCB",14-02-2026 08:00:00,14.465052,78.824187,NH3,3,3,3
India,Andhra_Pradesh,Kadapa,"Yerramukkapalli, Kadapa - APPCB",14-02-2026 08:00:00,14.465052,78.824187,CO,24,49,34
India,Andhra_Pradesh,Tirumala,"Toll Gate, Tirumala - APPCB",14-02-2026 08:00:00,13.67,79.35,NO2,11,44,27
India,Andhra_Pradesh,Tirumala,"Toll Gate, Tirumala - APPCB",14-02-2026 08:00:00,13.67,79.35,NH3,1,2,2
India,Andhra_Pradesh,Tirupati,"Vaikuntapuram, Tirupati - APPCB",14-02-2026 08:00:00,13.615387,79.409230,PM2.5,NA,NA,NA
India,Andhra_Pradesh,Tirupati,"Vaikuntapuram, Tirupati - APPCB",14-02-2026 08:00:00,13.615387,79.409230,PM10,NA,NA,NA
India,Assam,Guwahati,"LGBI Airport, Guwahati - PCBA",14-02-2026 08:00:00,26.10887,91.589544,CO,17,96,37
India,Assam,Guwahati,"Railway Colony, Guwahati - PCBA",14-02-2026 08:00:00,26.181742,91.78063,PM2.5,172,376,311
India,Assam,Nagaon,"Christianpatty, Nagaon - PCBA",14-02-2026 08:00:00,26.349082,92.68449,NH3,4,4,4
India,Assam,Nagaon,"Christianpatty, Nagaon - PCBA",14-02-2026 08:00:00,26.349082,92.68449,SO2,1,13,10
India,Assam,Silchar,"Tarapur, Silchar - PCBA",14-02-2026 08:00:00,24.82827,92.79525,PM10,38,67,52
India,Assam,Silchar,"Tarapur, Silchar - PCBA",14-02-2026 08:00:00,24.82827,92.79525,NO2,21,30,25
India,Assam,Silchar,"Tarapur, Silchar - PCBA",14-02-2026 08:00:00,24.82827,92.79525,CO,32,77,62
India,Bihar,Bhagalpur,"DM Office_Kachari Chowk, Bhagalpur - BSPCB",14-02-2026 08:00:00,25.251013,86.989001,NO2,6,12,9
India,Bihar,Bhagalpur,"DM Office_Kachari Chowk, Bhagalpur - BSPCB",14-02-2026 08:00:00,25.251013,86.989001,NH3,1,1,1
India,Bihar,Bhagalpur,"DM Office_Kachari Chowk, Bhagalpur - BSPCB",14-02-2026 08:00:00,25.251013,86.989001,SO2,33,75,52
India,Bihar,Buxar,"Charitra Van, Buxar - BSPCB",14-02-2026 08:00:00,25.567520,83.966379,PM2.5,47,100,71
India,Bihar,Buxar,"Charitra Van, Buxar - BSPCB",14-02-2026 08:00:00,25.567520,83.966379,SO2,14,40,28
India,Bihar,Chhapra,"Darshan Nagar, Chhapra - BSPCB",14-02-2026 08:00:00,25.7808257,84.7446768,PM2.5,28,325,65
India,Bihar,Chhapra,"Darshan Nagar, Chhapra - BSPCB",14-02-2026 08:00:00,25.7808257,84.7446768,NH3,6,11,8
India,Bihar,Araria,"Kharahiya Basti, Araria - BSPCB",14-02-2026 08:00:00,26.146529,87.454184,NO2,1,13,4
India,Bihar,Arrah,"New DM Office, Arrah - BSPCB",14-02-2026 08:00:00,25.5626095,84.663264,OZONE,7,9,8
India,Bihar,Aurangabad,"Gurdeo Nagar, Aurangabad - BSPCB",14-02-2026 08:00:00,24.75746,84.366208,PM10,NA,NA,NA
India,Bihar,Aurangabad,"Gurdeo Nagar, Aurangabad - BSPCB",14-02-2026 08:00:00,24.75746,84.366208,NH3,1,2,2
India,Bihar,Begusarai,"Lohiyanagar, Begusarai - BSPCB",14-02-2026 08:00:00,25.42742023,86.13886079,NH3,10,11,11
India,Bihar,Begusarai,"Lohiyanagar, Begusarai - BSPCB",14-02-2026 08:00:00,25.42742023,86.13886079,CO,54,60,57
India,Bihar,Purnia,"Mariam Nagar, Purnia - BSPCB",14-02-2026 08:00:00,25.366336,87.117468,SO2,16,17,16
India,Bihar,Purnia,"Mariam Nagar, Purnia - BSPCB",14-02-2026 08:00:00,25.366336,87.117468,CO,55,58,57
India,Bihar,Rajgir,"Dangi Tola, Rajgir - BSPCB",14-02-2026 08:00:00,25.03280,85.41948,OZONE,30,33,33
India,Bihar,Sasaram,"Dada Peer, Sasaram - BSPCB",14-02-2026 08:00:00,24.952822,84.002396,CO,36,101,50
India,Bihar,Siwan,"Chitragupta Nagar, Siwan - BSPCB",14-02-2026 08:00:00,26.2271665,84.3570427,PM10,52,105,72
India,Bihar,Gaya,"Kareemganj, Gaya - BSPCB",14-02-2026 08:00:00,24.792403,84.992416,NH3,1,2,1
India,Bihar,Gaya,"SFTI Kusdihra, Gaya - BSPCB",14-02-2026 08:00:00,24.762518,84.982348,NH3,3,6,3
India,Bihar,Hajipur,"Industrial Area, Hajipur - BSPCB",14-02-2026 08:00:00,25.697189,85.245900,SO2,3,6,5
India,Bihar,Hajipur,"Industrial Area, Hajipur - BSPCB",14-02-2026 08:00:00,25.697189,85.245900,OZONE,12,161,22
India,Andaman and Nicobar,Sri Vijaya Puram,"Police Line, Sri Vijaya Puram - ANPCC",14-02-2026 08:00:00,11.654054,92.734055,OZONE,NA,NA,NA
India,Andhra_Pradesh,Anantapur,"Gulzarpet, Anantapur - APPCB",14-02-2026 08:00:00,14.675886,77.593027,PM2.5,69,99,83
India,Andhra_Pradesh,Anantapur,"Gulzarpet, Anantapur - APPCB",14-02-2026 08:00:00,14.675886,77.593027,NH3,4,7,5
India,Bihar,Patna,"Govt. High School Shikarpur, Patna - BSPCB",14-02-2026 08:00:00,25.592539,85.227158,PM10,102,137,120
India,Bihar,Patna,"Govt. High School Shikarpur, Patna - BSPCB",14-02-2026 08:00:00,25.592539,85.227158,CO,34,100,75
India,Bihar,Patna,"Rajbansi Nagar, Patna - BSPCB",14-02-2026 08:00:00,25.599486,85.113666,CO,29,77,43
India,Delhi,Delhi,"Narela, Delhi - DPCC",14-02-2026 08:00:00,28.822836,77.101981,PM2.5,57,364,230
India,Delhi,Delhi,"Narela, Delhi - DPCC",14-02-2026 08:00:00,28.822836,77.101981,CO,40,77,54
India,Delhi,Delhi,"Narela, Delhi - DPCC",14-02-2026 08:00:00,28.822836,77.101981,OZONE,9,96,12
India,Delhi,Delhi,"Nehru Nagar, Delhi - DPCC",14-02-2026 08:00:00,28.567890,77.250515,PM10,91,355,190
India,Delhi,Delhi,"Nehru Nagar, Delhi - DPCC",14-02-2026 08:00:00,28.567890,77.250515,NH3,5,11,8
India,Delhi,Delhi,"North Campus, DU, Delhi - IMD",14-02-2026 08:00:00,28.6573814,77.1585447,CO,4,141,104
India,Delhi,Delhi,"Patparganj, Delhi - DPCC",14-02-2026 08:00:00,28.623763,77.287209,PM2.5,63,345,218
India,Delhi,Delhi,"Patparganj, Delhi - DPCC",14-02-2026 08:00:00,28.623763,77.287209,PM10,108,369,206
India,Delhi,Delhi,"Patparganj, Delhi - DPCC",14-02-2026 08:00:00,28.623763,77.287209,SO2,17,26,21
India,Delhi,Delhi,"Patparganj, Delhi - DPCC",14-02-2026 08:00:00,28.623763,77.287209,OZONE,1,138,2
India,Delhi,Delhi,"Punjabi Bagh, Delhi - DPCC",14-02-2026 08:00:00,28.674045,77.131023,NO2,26,70,47
India,Bihar,Siwan,"Chitragupta Nagar, Siwan - BSPCB",14-02-2026 08:00:00,26.2271665,84.3570427,CO,50,88,72
India,Chandigarh,Chandigarh,"Sector 22, Chandigarh - CPCC",14-02-2026 08:00:00,30.735567,76.775714,SO2,7,23,13
India,Chandigarh,Chandigarh,"Sector 22, Chandigarh - CPCC",14-02-2026 08:00:00,30.735567,76.775714,OZONE,NA,NA,NA
India,Chandigarh,Chandigarh,"Sector-25, Chandigarh - CPCC",14-02-2026 08:00:00,30.751462,76.762879,PM10,84,147,110
India,Chandigarh,Chandigarh,"Sector-53, Chandigarh - CPCC",14-02-2026 08:00:00,30.719859,76.738637,PM10,NA,NA,NA
India,Chhattisgarh,Bhilai,"32Bungalows, Bhilai - CECB",14-02-2026 08:00:00,21.194815,81.314770,NO2,28,58,42
India,Chhattisgarh,Bhilai,"Hathkhoj, Bhilai - CECB",14-02-2026 08:00:00,21.224231,81.408350,PM2.5,41,230,73
India,Chhattisgarh,Bhilai,"Hathkhoj, Bhilai - CECB",14-02-2026 08:00:00,21.224231,81.408350,NH3,4,6,5
India,Chhattisgarh,Bilaspur,"Mangala, Bilaspur - NTPC",14-02-2026 08:00:00,22.08815,82.13737,NO2,18,53,24
India,Chhattisgarh,Chhal,"Nawapara SECL Colony, Chhal - CECB",14-02-2026 08:00:00,22.118125,83.140608,SO2,2,44,18
India,Chhattisgarh,Korba,"Urja Nagar, Korba - CECB",14-02-2026 08:00:00,22.348441,82.549611,SO2,2,18,11
India,Chhattisgarh,Kunjemura,"OP Jindal School, Kunjemura - CECB",14-02-2026 08:00:00,22.126650,83.483212,NO2,12,77,37
India,Chhattisgarh,Kunjemura,"OP Jindal School, Kunjemura - CECB",14-02-2026 08:00:00,22.126650,83.483212,NH3,2,2,2
India,Chhattisgarh,Kunjemura,"OP Jindal School, Kunjemura - CECB",14-02-2026 08:00:00,22.126650,83.483212,SO2,1,26,14
India,Delhi,Delhi,"Chandni Chowk, Delhi - IITM",14-02-2026 08:00:00,28.656756,77.227234,PM2.5,91,361,225
India,Delhi,Delhi,"Chandni Chowk, Delhi - IITM",14-02-2026 08:00:00,28.656756,77.227234,NO2,15,49,32
India,Delhi,Delhi,"Chandni Chowk, Delhi - IITM",14-02-2026 08:00:00,28.656756,77.227234,OZONE,2,143,6
India,Delhi,Delhi,"DTU, Delhi - CPCB",14-02-2026 08:00:00,28.7500499,77.1112615,SO2,30,33,31
India,Delhi,Delhi,"Dr. Karni Singh Shooting Range, Delhi - DPCC",14-02-2026 08:00:00,28.498571,77.264840,PM2.5,50,324,209
India,Delhi,Delhi,"Dwarka-Sector 8, Delhi - DPCC ",14-02-2026 08:00:00,28.5710274,77.0719006,PM2.5,58,362,227
India,Chhattisgarh,Milupara,"Govt. Higher Secondary School, Milupara - CECB",14-02-2026 08:00:00,22.1910172,83.5197009,NH3,1,2,2
India,Chhattisgarh,Raipur,"Bhatagaon New ISBT, Raipur - CECB",14-02-2026 08:00:00,21.219665,81.630094,NH3,2,2,2
India,Chhattisgarh,Raipur,"Bhatagaon New ISBT, Raipur - CECB",14-02-2026 08:00:00,21.219665,81.630094,CO,32,82,75
India,Chhattisgarh,Raipur,"Krishak Nagar, Raipur - CECB",14-02-2026 08:00:00,21.237755,81.705301,SO2,3,21,8
India,Chhattisgarh,Tumidih,"OP Jindal Industrial Park, Tumidih - CECB",14-02-2026 08:00:00,22.06631475,83.33820077,SO2,5,10,6
India,Delhi,Delhi,"IGI Airport (T3), Delhi - IMD",14-02-2026 08:00:00,28.5627763,77.1180053,OZONE,4,57,5
India,Delhi,Delhi,"IHBAS, Dilshad Garden, Delhi - CPCB",14-02-2026 08:00:00,28.6811736,77.3025234,SO2,2,34,18
India,Delhi,Delhi,"IHBAS, Dilshad Garden, Delhi - CPCB",14-02-2026 08:00:00,28.6811736,77.3025234,OZONE,27,31,27
India,Delhi,Delhi,"IIT Delhi, Delhi - IITM",14-02-2026 08:00:00,28.542460,77.191651,CO,31,108,97
India,Delhi,Delhi,"Jahangirpuri, Delhi - DPCC",14-02-2026 08:00:00,28.732820,77.170633,SO2,45,70,54
India,Delhi,Delhi,"Ashok Vihar, Delhi - DPCC",14-02-2026 08:00:00,28.695381,77.181665,OZONE,2,96,2
India,Delhi,Delhi,"Aya Nagar, Delhi - IMD",14-02-2026 08:00:00,28.4706914,77.1099364,NO2,7,119,59
India,Delhi,Delhi,"Aya Nagar, Delhi - IMD",14-02-2026 08:00:00,28.4706914,77.1099364,OZONE,5,77,6
India,Delhi,Delhi,"Bawana, Delhi - DPCC",14-02-2026 08:00:00,28.776200,77.051074,PM2.5,67,401,244
India,Delhi,Delhi,"Bawana, Delhi - DPCC",14-02-2026 08:00:00,28.776200,77.051074,PM10,72,332,166
India,Delhi,Delhi,"Major Dhyan Chand National Stadium, Delhi - DPCC",14-02-2026 08:00:00,28.611281,77.237738,PM10,86,248,165
India,Delhi,Delhi,"Mandir Marg, Delhi - DPCC",14-02-2026 08:00:00,28.636429,77.201067,SO2,1,20,9
India,Delhi,Delhi,"Mandir Marg, Delhi - DPCC",14-02-2026 08:00:00,28.636429,77.201067,CO,3,115,76
India,Delhi,Delhi,"Mundka, Delhi - DPCC",14-02-2026 08:00:00,28.684678,77.076574,PM10,105,500,272
India,Delhi,Delhi,"NSIT Dwarka, Delhi - CPCB",14-02-2026 08:00:00,28.60909,77.0325413,CO,36,69,42
India,Delhi,Delhi,"Najafgarh, Delhi - DPCC",14-02-2026 08:00:00,28.570173,76.933762,NO2,70,92,78
India,Haryana,Dharuhera,"Municipal Corporation Office, Dharuhera -  HSPCB",14-02-2026 08:00:00,28.206800,76.799700,SO2,6,7,7
India,Haryana,Faridabad,"New Industrial Town, Faridabad - HSPCB",14-02-2026 08:00:00,28.39072,77.30059,SO2,8,8,8
India,Haryana,Faridabad,"New Industrial Town, Faridabad - HSPCB",14-02-2026 08:00:00,28.39072,77.30059,CO,10,12,12
India,Haryana,Faridabad,"Sector 11, Faridabad - HSPCB",14-02-2026 08:00:00,28.376058,77.315741,PM2.5,1,382,223
India,Haryana,Faridabad,"Sector 11, Faridabad - HSPCB",14-02-2026 08:00:00,28.376058,77.315741,NH3,10,10,10
India,Haryana,Faridabad,"Sector 11, Faridabad - HSPCB",14-02-2026 08:00:00,28.376058,77.315741,SO2,4,129,11
India,Haryana,Faridabad,"Sector 11, Faridabad - HSPCB",14-02-2026 08:00:00,28.376058,77.315741,CO,7,63,59
India,Haryana,Faridabad,"Sector 30, Faridabad - HSPCB",14-02-2026 08:00:00,28.4417,77.3217,PM2.5,92,94,93
India,Haryana,Faridabad,"Sector 30, Faridabad - HSPCB",14-02-2026 08:00:00,28.4417,77.3217,PM10,101,102,102
India,Haryana,Fatehabad,"Huda Sector, Fatehabad - HSPCB",14-02-2026 08:00:00,29.503664,75.467934,OZONE,53,73,63
India,Haryana,Gurugram,"NISE Gwal Pahari, Gurugram - IMD",14-02-2026 08:00:00,28.422681,77.148944,PM2.5,35,308,167
India,Haryana,Gurugram,"NISE Gwal Pahari, Gurugram - IMD",14-02-2026 08:00:00,28.422681,77.148944,NO2,23,73,47
India,Gujarat,Vatva,"Phase-4 GIDC, Vatva - GPCB",14-02-2026 08:00:00,22.969611,72.643500,PM2.5,65,319,143
India,Haryana,Ambala,"Patti Mehar, Ambala - HSPCB",14-02-2026 08:00:00,30.379589,76.778328,NH3,9,11,10
India,Haryana,Bahadurgarh,"Arya Nagar, Bahadurgarh - HSPCB",14-02-2026 08:00:00,28.6701,76.9254,SO2,7,7,7
India,Haryana,Ballabgarh,"Nathu Colony, Ballabgarh - HSPCB",14-02-2026 08:00:00,28.3419248,77.319699,CO,18,85,44
India,Haryana,Bhiwani,"H.B. Colony, Bhiwani - HSPCB",14-02-2026 08:00:00,28.806223,76.141105,NO2,1,35,31
India,Haryana,Bhiwani,"H.B. Colony, Bhiwani - HSPCB",14-02-2026 08:00:00,28.806223,76.141105,OZONE,9,17,12
India,Haryana,Charkhi Dadri,"Mini Secretariat, Charkhi Dadri - HSPCB",14-02-2026 08:00:00,28.593883,76.270653,PM2.5,87,146,136
India,Gujarat,Bhavnagar,"Vidhyanagar, Bhavnagar - Nexteng Enviro",14-02-2026 08:00:00,21.755417,72.139056,NO2,50,75,58
India,Gujarat,Gandhinagar,"GIFT City, Gandhinagar - IITM",14-02-2026 08:00:00,23.163798,72.677768,NH3,5,17,9
India,Gujarat,Gandhinagar,"Sector-10, Gandhinagar - GPCB",14-02-2026 08:00:00,23.221714,72.654328,PM2.5,NA,NA,NA
India,Gujarat,Gandhinagar,"Sector-10, Gandhinagar - GPCB",14-02-2026 08:00:00,23.221714,72.654328,PM10,79,256,151
India,Gujarat,Gandhinagar,"Sector-10, Gandhinagar - GPCB",14-02-2026 08:00:00,23.221714,72.654328,CO,54,69,58
India,Gujarat,Gandhinagar,"Sector-10, Gandhinagar - GPCB",14-02-2026 08:00:00,23.221714,72.654328,OZONE,3,110,11
India,Gujarat,Mehsana,"Sadanand Nagar, Mehsana - Nexteng Enviro",14-02-2026 08:00:00,23.593150,72.372792,SO2,6,43,14
India,Delhi,Delhi,"Sirifort, Delhi - CPCB",14-02-2026 08:00:00,28.5504249,77.2159377,PM2.5,58,347,212
India,Delhi,Delhi,"Sonia Vihar, Delhi - DPCC",14-02-2026 08:00:00,28.710508,77.249485,NH3,5,7,6
India,Delhi,Delhi,"Sri Aurobindo Marg, Delhi - DPCC",14-02-2026 08:00:00,28.531346,77.190156,SO2,9,29,14
India,Delhi,Delhi,"Sri Aurobindo Marg, Delhi - DPCC",14-02-2026 08:00:00,28.531346,77.190156,CO,14,100,76
India,Delhi,Delhi,"Vivek Vihar, Delhi - DPCC",14-02-2026 08:00:00,28.672342,77.315260,PM2.5,73,335,232
India,Delhi,Delhi,"Wazirpur, Delhi - DPCC",14-02-2026 08:00:00,28.699793,77.165453,SO2,7,11,10
India,Gujarat,Ahmedabad,"Chandkheda, Ahmedabad - IITM",14-02-2026 08:00:00,23.107969,72.574648,CO,NA,NA,NA
India,Gujarat,Ahmedabad,"Maninagar, Ahmedabad - GPCB",14-02-2026 08:00:00,23.002657,72.591912,SO2,24,40,33
India,Gujarat,Ahmedabad,"Maninagar, Ahmedabad - GPCB",14-02-2026 08:00:00,23.002657,72.591912,CO,10,35,22
India,Gujarat,Ahmedabad,"Raikhad, Ahmedabad - IITM",14-02-2026 08:00:00,23.020509,72.579261,PM10,125,177,153
India,Gujarat,Ahmedabad,"Raikhad, Ahmedabad - IITM",14-02-2026 08:00:00,23.020509,72.579261,SO2,16,87,27
India,Gujarat,Ahmedabad,"Raikhad, Ahmedabad - IITM",14-02-2026 08:00:00,23.020509,72.579261,CO,4,74,32
India,Haryana,Gurugram,"NISE Gwal Pahari, Gurugram - IMD",14-02-2026 08:00:00,28.422681,77.148944,CO,20,102,90
India,Haryana,Gurugram,"Sector-51, Gurugram - HSPCB",14-02-2026 08:00:00,28.4227,77.0667,PM2.5,88,484,295
India,Haryana,Gurugram,"Sector-51, Gurugram - HSPCB",14-02-2026 08:00:00,28.4227,77.0667,NH3,9,14,12
India,Haryana,Gurugram,"Sector-51, Gurugram - HSPCB",14-02-2026 08:00:00,28.4227,77.0667,CO,37,120,109
India,Haryana,Gurugram,"Vikas Sadan, Gurugram - HSPCB",14-02-2026 08:00:00,28.4501238,77.0263051,SO2,2,8,5
India,Gujarat,Surat,"Katargam, Surat - Nexteng Enviro",14-02-2026 08:00:00,21.217779 ,72.834787 ,PM2.5,81,360,181
India,Gujarat,Vadodara,"Bapunagar, Vadodara - Nexteng Enviro",14-02-2026 08:00:00,22.320153,73.216285,PM2.5,90,338,238
India,Gujarat,Vadodara,"Bapunagar, Vadodara - Nexteng Enviro",14-02-2026 08:00:00,22.320153,73.216285,PM10,101,179,138
India,Gujarat,Ahmedabad,"SAC ISRO Bopal, Ahmedabad - IITM",14-02-2026 08:00:00,23.041137,72.456691,CO,8,31,16
India,Gujarat,Ahmedabad,"SVPI Airport Hansol, Ahmedabad - IITM",14-02-2026 08:00:00,23.076793,72.627874,NO2,12,149,74
India,Gujarat,Ahmedabad,"SVPI Airport Hansol, Ahmedabad - IITM",14-02-2026 08:00:00,23.076793,72.627874,OZONE,2,83,12
India,Delhi,Delhi,"Pusa, Delhi - DPCC",14-02-2026 08:00:00,28.639652,77.146275,OZONE,6,90,9
India,Delhi,Delhi,"R K Puram, Delhi - DPCC",14-02-2026 08:00:00,28.563262,77.186937,PM10,85,340,197
India,Delhi,Delhi,"R K Puram, Delhi - DPCC",14-02-2026 08:00:00,28.563262,77.186937,SO2,19,45,33
India,Karnataka,Hubballi,"Lingaraj Nagar, Hubballi - KSPCB",14-02-2026 08:00:00,15.3714823,75.1160168,CO,14,40,22
India,Karnataka,Hubballi,"Lingaraj Nagar, Hubballi - KSPCB",14-02-2026 08:00:00,15.3714823,75.1160168,OZONE,10,32,18
India,Karnataka,Kalaburagi,"Mahatma Basaveswar Colony, Kalaburgi - KSPCB",14-02-2026 08:00:00,17.336318,76.847397,NO2,12,21,16
India,Karnataka,Kalaburagi,"Mahatma Basaveswar Colony, Kalaburgi - KSPCB",14-02-2026 08:00:00,17.336318,76.847397,CO,32,71,43
India,Karnataka,Madikeri,"Stuart Hill, Madikeri - KSPCB",14-02-2026 08:00:00,12.415911,75.735050,PM2.5,27,48,36
India,Karnataka,Madikeri,"Stuart Hill, Madikeri - KSPCB",14-02-2026 08:00:00,12.415911,75.735050,CO,10,20,16
India,Karnataka,Madikeri,"Stuart Hill, Madikeri - KSPCB",14-02-2026 08:00:00,12.415911,75.735050,OZONE,2,5,3
India,Karnataka,Ramanagara,"Vijay Nagar, Ramanagara - KSPCB",14-02-2026 08:00:00,12.733409,77.298051,PM10,10,120,54
India,Karnataka,Ramanagara,"Vijay Nagar, Ramanagara - KSPCB",14-02-2026 08:00:00,12.733409,77.298051,CO,7,36,32
India,Karnataka,Tumakuru,"Thimmalapura, Tumakuru - KSPCB",14-02-2026 08:00:00,13.377516,77.099072,PM2.5,71,500,181
India,Karnataka,Tumakuru,"Thimmalapura, Tumakuru - KSPCB",14-02-2026 08:00:00,13.377516,77.099072,NH3,6,6,6
India,Karnataka,Bengaluru,"BWSSB Kadabesanahalli, Bengaluru - CPCB",14-02-2026 08:00:00,12.9352049,77.6814488,NO2,10,26,18
India,Karnataka,Bengaluru,"BWSSB Kadabesanahalli, Bengaluru - CPCB",14-02-2026 08:00:00,12.9352049,77.6814488,NH3,1,1,1
India,Karnataka,Bengaluru,"BWSSB Kadabesanahalli, Bengaluru - CPCB",14-02-2026 08:00:00,12.9352049,77.6814488,SO2,3,9,5
India,Karnataka,Bengaluru,"BWSSB Kadabesanahalli, Bengaluru - CPCB",14-02-2026 08:00:00,12.9352049,77.6814488,OZONE,12,29,22
India,Karnataka,Bengaluru,"Bapuji Nagar, Bengaluru - KSPCB",14-02-2026 08:00:00,12.951913,77.539784,PM2.5,8,63,29
India,Karnataka,Bengaluru,"Bapuji Nagar, Bengaluru - KSPCB",14-02-2026 08:00:00,12.951913,77.539784,NH3,5,7,6
India,Karnataka,Bengaluru,"City Railway Station, Bengaluru - KSPCB",14-02-2026 08:00:00,12.9756843,77.5660749,SO2,18,19,19
India,Karnataka,Bengaluru,"City Railway Station, Bengaluru - KSPCB",14-02-2026 08:00:00,12.9756843,77.5660749,CO,72,78,74
India,Karnataka,Bengaluru,"Hebbal, Bengaluru - KSPCB",14-02-2026 08:00:00,13.029152,77.585901,OZONE,4,9,6
India,Karnataka,Bengaluru,"Hombegowda Nagar, Bengaluru - KSPCB",14-02-2026 08:00:00,12.938539,77.590100,OZONE,6,33,19
India,Karnataka,Bengaluru,"Jayanagar 5th Block, Bengaluru - KSPCB",14-02-2026 08:00:00,12.920984,77.584908,CO,9,42,12
India,Haryana,Palwal,"Shyam Nagar, Palwal - HSPCB",14-02-2026 08:00:00,28.1485564,77.3320667,CO,12,46,33
India,Haryana,Panchgaon,"Amity University, Panchgaon - IITM",14-02-2026 08:00:00,28.3153,76.9143,PM10,16,163,96
India,Haryana,Panchkula,"Sector-6, Panchkula - HSPCB ",14-02-2026 08:00:00,30.7057778,76.8531805555555,PM2.5,17,68,46
India,Haryana,Panchkula,"Sector-6, Panchkula - HSPCB ",14-02-2026 08:00:00,30.7057778,76.8531805555555,NO2,23,28,25
India,Haryana,Panchkula,"Sector-6, Panchkula - HSPCB ",14-02-2026 08:00:00,30.7057778,76.8531805555555,SO2,14,16,15
India,Haryana,Panchkula,"Sector-6, Panchkula - HSPCB ",14-02-2026 08:00:00,30.7057778,76.8531805555555,CO,8,26,22
India,Haryana,Rohtak,"MD University, Rohtak - HSPCB",14-02-2026 08:00:00,28.52123,76.37138,OZONE,39,40,39
India,Haryana,Sonipat,"Murthal, Sonipat - HSPCB",14-02-2026 08:00:00,29.027200,77.062100,PM10,53,113,85
India,Haryana,Sonipat,"Murthal, Sonipat - HSPCB",14-02-2026 08:00:00,29.027200,77.062100,OZONE,25,26,25
India,Himachal Pradesh,Baddi,"HIMUDA Complex Phase-1, Baddi - HPPCB",14-02-2026 08:00:00,30.943887,76.801991,OZONE,12,121,34
India,Jammu_and_Kashmir,Pampore,"Khrew, Pampore - JKPCC",14-02-2026 08:00:00,34.031606,75.009712,PM10,39,82,58
India,Jammu_and_Kashmir,Srinagar,"Rajbagh, Srinagar - JKPCC",14-02-2026 08:00:00,34.066206,74.819820,PM10,22,44,32
India,Jammu_and_Kashmir,Srinagar,"Rajbagh, Srinagar - JKPCC",14-02-2026 08:00:00,34.066206,74.819820,OZONE,NA,NA,NA
India,Jharkhand,Dhanbad,"Sardar Patel Nagar, Dhanbad - JSPCB",14-02-2026 08:00:00,23.80569,86.44268,SO2,24,32,28
India,Jharkhand,Dhanbad,"Sardar Patel Nagar, Dhanbad - JSPCB",14-02-2026 08:00:00,23.80569,86.44268,CO,2,10,3
India,Karnataka,Bengaluru,"BTM Layout, Bengaluru - CPCB",14-02-2026 08:00:00,12.9135218,77.5950804,NO2,3,14,9
India,Karnataka,Tumakuru,"Thimmalapura, Tumakuru - KSPCB",14-02-2026 08:00:00,13.377516,77.099072,CO,52,54,54
India,Karnataka,Tumakuru,"Thimmalapura, Tumakuru - KSPCB",14-02-2026 08:00:00,13.377516,77.099072,OZONE,23,23,23
India,Karnataka,Vijayapura,"Ibrahimpur, Vijayapura - KSPCB",14-02-2026 08:00:00,16.802639,75.722694,PM10,61,63,62
India,Karnataka,Yadgir,"Collector Office, Yadgir - KSPCB",14-02-2026 08:00:00,16.7602,77.1428,OZONE,18,19,18
India,Kerala,Eloor,"Udyogamandal, Eloor - Kerala PCB",14-02-2026 08:00:00,10.073232,76.302765,PM10,66,106,83
India,Kerala,Kollam,"Polayathode, Kollam - Kerala PCB",14-02-2026 08:00:00,8.8787,76.6073,PM10,69,81,75
India,Kerala,Thiruvananthapuram,"Kariavattom, Thiruvananthapuram - Kerala PCB",14-02-2026 08:00:00,8.563700,76.886500,SO2,1,29,10
India,Haryana,Karnal,"Sector-12, Karnal - HSPCB",14-02-2026 08:00:00,29.695300,77.002700,OZONE,31,31,31
India,Haryana,Kurukshetra,"Sector-7, Kurukshetra - HSPCB",14-02-2026 08:00:00,29.966942,76.875879,PM10,20,157,126
India,Haryana,Mandikhera,"General Hospital, Mandikhera(Nuh) - HSPCB",14-02-2026 08:00:00,27.9002,76.9938,SO2,33,36,34
India,Haryana,Mandikhera,"General Hospital, Mandikhera(Nuh) - HSPCB",14-02-2026 08:00:00,27.9002,76.9938,OZONE,25,30,27
India,Haryana,Manesar,"Sector-2 IMT, Manesar - HSPCB",14-02-2026 08:00:00,28.360699,76.936090,NH3,12,15,14
India,Haryana,Narnaul,"Shastri Nagar, Narnaul - HSPCB",14-02-2026 08:00:00,28.060249,76.113115,NH3,6,20,11
India,Haryana,Palwal,"Shyam Nagar, Palwal - HSPCB",14-02-2026 08:00:00,28.1485564,77.3320667,PM2.5,34,71,52
India,Haryana,Hisar,"Urban Estate-II, Hisar - HSPCB",14-02-2026 08:00:00,29.140560,75.744941,PM2.5,25,85,58
India,Haryana,Hisar,"Urban Estate-II, Hisar - HSPCB",14-02-2026 08:00:00,29.140560,75.744941,PM10,52,113,88
India,Haryana,Hisar,"Urban Estate-II, Hisar - HSPCB",14-02-2026 08:00:00,29.140560,75.744941,NO2,26,27,27
India,Haryana,Jind,"Police Lines, Jind - HSPCB",14-02-2026 08:00:00,29.307814,76.337619,OZONE,NA,NA,NA
India,Haryana,Kaithal,"Rishi Nagar, Kaithal - HSPCB",14-02-2026 08:00:00,29.8006,76.4155,NH3,5,6,6
India,Haryana,Kaithal,"Rishi Nagar, Kaithal - HSPCB",14-02-2026 08:00:00,29.8006,76.4155,SO2,29,36,31
India,Haryana,Kaithal,"Rishi Nagar, Kaithal - HSPCB",14-02-2026 08:00:00,29.8006,76.4155,CO,12,59,28
India,Karnataka,Bengaluru,"Jigani, Bengaluru - KSPCB",14-02-2026 08:00:00,12.7816279,77.6299145,SO2,18,24,22
India,Karnataka,Bengaluru,"Kasturi Nagar, Bengaluru - KSPCB",14-02-2026 08:00:00,13.003872,77.664217,NO2,31,33,32
India,Karnataka,Bengaluru,"Kasturi Nagar, Bengaluru - KSPCB",14-02-2026 08:00:00,13.003872,77.664217,NH3,5,5,5
India,Karnataka,Bengaluru,"Shivapura_Peenya, Bengaluru - KSPCB",14-02-2026 08:00:00,13.0246342,77.5080115,CO,NA,NA,NA
India,Karnataka,Dharwad,"Kalabhavan, Dharwad - KSPCB",14-02-2026 08:00:00,15.459706,75.008381,CO,38,92,56
India,Karnataka,Dharwad,"Kalabhavan, Dharwad - KSPCB",14-02-2026 08:00:00,15.459706,75.008381,OZONE,23,31,31
India,Karnataka,Hubballi,"Lingaraj Nagar, Hubballi - KSPCB",14-02-2026 08:00:00,15.3714823,75.1160168,NO2,7,11,10
India,Maharashtra,Amravati,"Shivneri Colony, Amravati - MPCB",14-02-2026 08:00:00,20.9402359,77.7895248,PM2.5,80,100,90
India,Maharashtra,Amravati,"Shivneri Colony, Amravati - MPCB",14-02-2026 08:00:00,20.9402359,77.7895248,NO2,7,45,21
India,Maharashtra,Amravati,"Shivneri Colony, Amravati - MPCB",14-02-2026 08:00:00,20.9402359,77.7895248,SO2,8,34,13
India,Maharashtra,Amravati,"Shri Shivaji Science College, Amravati - MPCB",14-02-2026 08:00:00,20.939198,77.765701,PM10,104,242,134
India,Maharashtra,Amravati,"Shri Shivaji Science College, Amravati - MPCB",14-02-2026 08:00:00,20.939198,77.765701,OZONE,1,101,49
India,Maharashtra,Aurangabad,"MIDC Chilkalthana, Aurangabad - MPCB",14-02-2026 08:00:00,19.875620,75.387310,CO,12,90,42
India,Maharashtra,Aurangabad,"More Chowk Waluj, Aurangabad - MPCB",14-02-2026 08:00:00,19.8389439,75.244448,PM2.5,87,220,137
India,Maharashtra,Aurangabad,"Rachnakar Colony, Aurangabad - MPCB",14-02-2026 08:00:00,19.863756,75.321188,PM2.5,59,286,125
India,Maharashtra,Aurangabad,"Rachnakar Colony, Aurangabad - MPCB",14-02-2026 08:00:00,19.863756,75.321188,CO,30,94,48
India,Maharashtra,Badlapur,"Katrap, Badlapur - MPCB",14-02-2026 08:00:00,19.16485,73.23409,NO2,16,37,29
India,Maharashtra,Badlapur,"Katrap, Badlapur - MPCB",14-02-2026 08:00:00,19.16485,73.23409,NH3,3,10,7
India,Kerala,Thiruvananthapuram,"Kariavattom, Thiruvananthapuram - Kerala PCB",14-02-2026 08:00:00,8.563700,76.886500,OZONE,36,37,36
India,Kerala,Thiruvananthapuram,"Plammoodu, Thiruvananthapuram - Kerala PCB",14-02-2026 08:00:00,8.5149093,76.9435879,PM10,38,110,72
India,Kerala,Thiruvananthapuram,"Plammoodu, Thiruvananthapuram - Kerala PCB",14-02-2026 08:00:00,8.5149093,76.9435879,SO2,7,27,17
India,Kerala,Thiruvananthapuram,"Plammoodu, Thiruvananthapuram - Kerala PCB",14-02-2026 08:00:00,8.5149093,76.9435879,CO,7,37,10
India,Kerala,Thrissur,"Corporation Ground, Thrissur - Kerala PCB",14-02-2026 08:00:00,10.532400,76.215900,CO,9,28,13
India,Madhya Pradesh,Bhopal,"Idgah Hills, Bhopal - MPPCB",14-02-2026 08:00:00,23.264759,77.381568,SO2,11,20,14
India,Madhya Pradesh,Bhopal,"Idgah Hills, Bhopal - MPPCB",14-02-2026 08:00:00,23.264759,77.381568,CO,24,79,35
India,Madhya Pradesh,Bhopal,"Paryavaran Parisar, Bhopal - MPPCB",14-02-2026 08:00:00,23.210494,77.425409,PM10,96,271,159
India,Madhya Pradesh,Bhopal,"Paryavaran Parisar, Bhopal - MPPCB",14-02-2026 08:00:00,23.210494,77.425409,SO2,3,15,8
India,Madhya Pradesh,Bhopal,"T T Nagar, Bhopal - MPPCB",14-02-2026 08:00:00,23.233584,77.400574,NH3,6,7,6
India,Madhya Pradesh,Bhopal,"T T Nagar, Bhopal - MPPCB",14-02-2026 08:00:00,23.233584,77.400574,CO,33,103,40
India,Madhya Pradesh,Dewas,"Bhopal Chauraha, Dewas - MPPCB",14-02-2026 08:00:00,22.9682591,76.064118,NH3,1,3,2
India,Madhya Pradesh,Dewas,"Bhopal Chauraha, Dewas - MPPCB",14-02-2026 08:00:00,22.9682591,76.064118,OZONE,1,3,1
India,Madhya Pradesh,Gwalior,"City Center, Gwalior - MPPCB",14-02-2026 08:00:00,26.203442,78.193251,PM2.5,33,310,153
India,Madhya Pradesh,Gwalior,"City Center, Gwalior - MPPCB",14-02-2026 08:00:00,26.203442,78.193251,NO2,16,77,36
India,Madhya Pradesh,Gwalior,"City Center, Gwalior - MPPCB",14-02-2026 08:00:00,26.203442,78.193251,NH3,4,5,5
India,Madhya Pradesh,Gwalior,"Maharaj Bada, Gwalior - MPPCB",14-02-2026 08:00:00,26.200388,78.147714,SO2,6,14,10
India,Madhya Pradesh,Gwalior,"Maharaj Bada, Gwalior - MPPCB",14-02-2026 08:00:00,26.200388,78.147714,CO,4,116,7
India,Madhya Pradesh,Indore,"Airport Area, Indore - IMC",14-02-2026 08:00:00,22.7289,75.8076,PM2.5,92,386,245
India,Madhya Pradesh,Indore,"Airport Area, Indore - IMC",14-02-2026 08:00:00,22.7289,75.8076,CO,2,42,37
India,Madhya Pradesh,Indore,"Chhoti Gwaltoli, Indore - MPPCB",14-02-2026 08:00:00,22.4310,75.5213,PM10,102,237,161
India,Madhya Pradesh,Indore,"Chhoti Gwaltoli, Indore - MPPCB",14-02-2026 08:00:00,22.4310,75.5213,CO,33,108,86
