country,state,city,station,last_update,latitude,longitude,pollutant_id,min_value,max_value,avg_value
India,Andhra_Pradesh,Anantapur,"Gulzarpet, Anantapur - APPCB",26-03-2026 08:00:00,14.675886,77.593027,NO2,13,30,19
India,Andhra_Pradesh,Anantapur,"Gulzarpet, Anantapur - APPCB",26-03-2026 08:00:00,14.675886,77.593027,NH3,4,8,5
India,Andhra_Pradesh,Chittoor,"Gangineni Cheruvu, Chittoor - APPCB",26-03-2026 08:00:00,13.204880,79.097889,PM2.5,46,71,59
India,Andhra_Pradesh,Chittoor,"Gangineni Cheruvu, Chittoor - APPCB",26-03-2026 08:00:00,13.204880,79.097889,CO,22,54,49
India,Andhra_Pradesh,Chittoor,"Gangineni Cheruvu, Chittoor - APPCB",26-03-2026 08:00:00,13.204880,79.097889,OZONE,22,29,27
India,Andhra_Pradesh,Eluru,"District Court, Eluru - APPCB",26-03-2026 08:00:00,16.711754,81.092095,SO2,6,14,8
India,Andhra_Pradesh,Guntur,"Rajendra Nagar North, Guntur - APPCB",26-03-2026 08:00:00,16.316553,80.413302,CO,12,24,16
India,Andhra_Pradesh,Kadapa,"Yerramukkapalli, Kadapa - APPCB",26-03-2026 08:00:00,14.465052,78.824187,SO2,9,19,16
India,Andhra_Pradesh,Machilipatnam,"Srinivas Nagar Colony, Machilipatnam - APPCB",26-03-2026 08:00:00,16.186555,81.13219,NO2,7,31,16
India,Assam,Sivasagar,"Girls College, Sivasagar - PCBA",26-03-2026 08:00:00,26.987634,94.636574,OZONE,13,52,19
India,Bihar,Araria,"Kharahiya Basti, Araria - BSPCB",26-03-2026 08:00:00,26.146529,87.454184,PM2.5,53,386,148
India,Bihar,Araria,"Kharahiya Basti, Araria - BSPCB",26-03-2026 08:00:00,26.146529,87.454184,NH3,4,5,5
India,Bihar,Araria,"Kharahiya Basti, Araria - BSPCB",26-03-2026 08:00:00,26.146529,87.454184,SO2,NA,NA,NA
India,Bihar,Arrah,"New DM Office, Arrah - BSPCB",26-03-2026 08:00:00,25.5626095,84.663264,PM2.5,27,330,87
India,Bihar,Aurangabad,"Gurdeo Nagar, Aurangabad - BSPCB",26-03-2026 08:00:00,24.75746,84.366208,SO2,12,16,13
India,Bihar,Begusarai,"Lohiyanagar, Begusarai - BSPCB",26-03-2026 08:00:00,25.42742023,86.13886079,PM2.5,NA,NA,NA
India,Bihar,Bettiah,"Kamalnath Nagar, Bettiah - BSPCB",26-03-2026 08:00:00,26.80365,84.51954,PM2.5,12,87,42
India,Andhra_Pradesh,Vijayawada,"Rajiv Nagar, Vijayawada - APPCB",26-03-2026 08:00:00,16.554731,80.649110,OZONE,NA,NA,NA
India,Andhra_Pradesh,Visakhapatnam,"GVM Corporation, Visakhapatnam - APPCB",26-03-2026 08:00:00,17.72,83.3,PM10,52,162,107
India,Andhra_Pradesh,Visakhapatnam,"GVM Corporation, Visakhapatnam - APPCB",26-03-2026 08:00:00,17.72,83.3,NO2,10,62,36
India,Andhra_Pradesh,Visakhapatnam,"GVM Corporation, Visakhapatnam - APPCB",26-03-2026 08:00:00,17.72,83.3,CO,2,58,25
India,Arunachal_Pradesh,Naharlagun,"Naharlagun, Naharlagun - APSPCB",26-03-2026 08:00:00,27.103358,93.679645,SO2,8,10,9
India,Assam,Guwahati,"Railway Colony, Guwahati - PCBA",26-03-2026 08:00:00,26.181742,91.78063,NH3,1,1,1
India,Assam,Nagaon,"Christianpatty, Nagaon - PCBA",26-03-2026 08:00:00,26.349082,92.68449,OZONE,17,23,18
India,Assam,Nalbari,"Bata Chowk, Nalbari - PCBA",26-03-2026 08:00:00,26.446912,91.439057,NH3,6,6,6
India,Assam,Silchar,"Tarapur, Silchar - PCBA",26-03-2026 08:00:00,24.82827,92.79525,NO2,25,32,29
India,Assam,Silchar,"Tarapur, Silchar - PCBA",26-03-2026 08:00:00,24.82827,92.79525,SO2,4,6,5
India,Andhra_Pradesh,Rajamahendravaram,"Anand Kala Kshetram, Rajamahendravaram - APPCB",26-03-2026 08:00:00,16.9872867,81.7363176,PM2.5,11,39,25
India,Andhra_Pradesh,Rajamahendravaram,"Anand Kala Kshetram, Rajamahendravaram - APPCB",26-03-2026 08:00:00,16.9872867,81.7363176,NO2,6,35,15
India,Andhra_Pradesh,Tirumala,"Toll Gate, Tirumala - APPCB",26-03-2026 08:00:00,13.67,79.35,NO2,46,96,64
India,Andhra_Pradesh,Tirupati,"Vaikuntapuram, Tirupati - APPCB",26-03-2026 08:00:00,13.615387,79.409230,NO2,19,28,26
India,Andhra_Pradesh,Tirupati,"Vaikuntapuram, Tirupati - APPCB",26-03-2026 08:00:00,13.615387,79.409230,OZONE,18,29,28
India,Bihar,Bettiah,"Kamalnath Nagar, Bettiah - BSPCB",26-03-2026 08:00:00,26.80365,84.51954,SO2,30,55,47
India,Bihar,Bettiah,"Kamalnath Nagar, Bettiah - BSPCB",26-03-2026 08:00:00,26.80365,84.51954,CO,24,53,44
India,Bihar,Bhagalpur,"Mayaganj, Bhagalpur - BSPCB",26-03-2026 08:00:00,25.265194,87.012947,NO2,6,20,8
India,Andhra_Pradesh,Amaravati,"Secretariat, Amaravati - APPCB",26-03-2026 08:00:00,16.5150833,80.5181667,SO2,1,5,3
India,Andhra_Pradesh,Anantapur,"Gulzarpet, Anantapur - APPCB",26-03-2026 08:00:00,14.675886,77.593027,PM2.5,47,66,57
India,Andhra_Pradesh,Vijayawada,"Kanuru, Vijayawada - APPCB",26-03-2026 08:00:00,16.486692,80.699436,PM2.5,NA,NA,NA
India,Andhra_Pradesh,Vijayawada,"Kanuru, Vijayawada - APPCB",26-03-2026 08:00:00,16.486692,80.699436,PM10,NA,NA,NA
India,Andhra_Pradesh,Vijayawada,"Rajiv Gandhi Park, Vijayawada - APPCB",26-03-2026 08:00:00,16.509717,80.612222,PM2.5,59,90,74
India,Assam,Guwahati,"IITG, Guwahati - PCBA",26-03-2026 08:00:00,26.2028636,91.70046436,PM10,14,61,31
India,Assam,Guwahati,"LGBI Airport, Guwahati - PCBA",26-03-2026 08:00:00,26.10887,91.589544,NH3,2,83,8
India,Assam,Guwahati,"Pan Bazaar, Guwahati - PCBA",26-03-2026 08:00:00,26.187500,91.744194,NH3,1,1,1
India,Bihar,Manguraha,"Forest Rest House, Manguraha - BSPCB",26-03-2026 08:00:00,27.308328,84.531742,CO,16,33,30
India,Bihar,Motihari,"Gandak Colony, Motihari - BSPCB",26-03-2026 08:00:00,26.63086,84.90051,PM2.5,23,153,89
India,Bihar,Motihari,"Gandak Colony, Motihari - BSPCB",26-03-2026 08:00:00,26.63086,84.90051,NH3,3,3,3
India,Bihar,Munger,"Town Hall, Munger - BSPCB",26-03-2026 08:00:00,25.376776,86.471523,NH3,2,3,3
India,Bihar,Munger,"Town Hall, Munger - BSPCB",26-03-2026 08:00:00,25.376776,86.471523,SO2,NA,NA,NA
India,Bihar,Munger,"Town Hall, Munger - BSPCB",26-03-2026 08:00:00,25.376776,86.471523,OZONE,9,10,10
India,Bihar,Muzaffarpur,"Buddha Colony, Muzaffarpur - BSPCB",26-03-2026 08:00:00,26.11442,85.39813,NO2,26,114,42
India,Bihar,Muzaffarpur,"Buddha Colony, Muzaffarpur - BSPCB",26-03-2026 08:00:00,26.11442,85.39813,NH3,11,23,17
India,Bihar,Muzaffarpur,"Buddha Colony, Muzaffarpur - BSPCB",26-03-2026 08:00:00,26.11442,85.39813,CO,15,106,33
India,Bihar,Muzaffarpur,"MIT-Daudpur Kothi, Muzaffarpur - BSPCB",26-03-2026 08:00:00,26.1403345,85.3650192,PM2.5,85,98,87
India,Bihar,Muzaffarpur,"Muzaffarpur Collectorate, Muzaffarpur - BSPCB",26-03-2026 08:00:00,26.1209,85.3647,PM2.5,87,120,99
India,Bihar,Muzaffarpur,"Muzaffarpur Collectorate, Muzaffarpur - BSPCB",26-03-2026 08:00:00,26.1209,85.3647,NO2,8,21,12
India,Bihar,Patna,"DRM Office Danapur, Patna - BSPCB",26-03-2026 08:00:00,25.586562,85.043586,PM2.5,52,111,80
India,Bihar,Patna,"DRM Office Danapur, Patna - BSPCB",26-03-2026 08:00:00,25.586562,85.043586,PM10,65,414,175
India,Bihar,Patna,"DRM Office Danapur, Patna - BSPCB",26-03-2026 08:00:00,25.586562,85.043586,NH3,10,12,11
India,Bihar,Patna,"DRM Office Danapur, Patna - BSPCB",26-03-2026 08:00:00,25.586562,85.043586,SO2,5,8,6
India,Bihar,Patna,"DRM Office Danapur, Patna - BSPCB",26-03-2026 08:00:00,25.586562,85.043586,CO,32,101,50
India,Bihar,Patna,"Govt. High School Shikarpur, Patna - BSPCB",26-03-2026 08:00:00,25.592539,85.227158,PM10,102,226,129
India,Bihar,Patna,"Govt. High School Shikarpur, Patna - BSPCB",26-03-2026 08:00:00,25.592539,85.227158,NH3,4,5,5
India,Bihar,Patna,"Govt. High School Shikarpur, Patna - BSPCB",26-03-2026 08:00:00,25.592539,85.227158,OZONE,19,92,26
India,Bihar,Patna,"IGSC Planetarium Complex, Patna - BSPCB",26-03-2026 08:00:00,25.610369,85.132568,SO2,NA,NA,NA
India,Bihar,Patna,"Samanpura, Patna - BSPCB",26-03-2026 08:00:00,25.596727,85.085624,NO2,30,63,42
India,Bihar,Saharsa,"Police Line, Saharsa - BSPCB",26-03-2026 08:00:00,25.892357,86.590325,NH3,4,4,4
India,Bihar,Saharsa,"Police Line, Saharsa - BSPCB",26-03-2026 08:00:00,25.892357,86.590325,CO,34,42,37
India,Bihar,Saharsa,"Police Line, Saharsa - BSPCB",26-03-2026 08:00:00,25.892357,86.590325,OZONE,2,53,18
India,Bihar,Samastipur,"DM Office_Kasipur, Samastipur - BSPCB",26-03-2026 08:00:00,25.859655,85.77944,NO2,8,9,8
India,Bihar,Samastipur,"DM Office_Kasipur, Samastipur - BSPCB",26-03-2026 08:00:00,25.859655,85.77944,SO2,NA,NA,NA
India,Bihar,Sasaram,"Dada Peer, Sasaram - BSPCB",26-03-2026 08:00:00,24.952822,84.002396,PM2.5,10,47,24
India,Bihar,Sasaram,"Dada Peer, Sasaram - BSPCB",26-03-2026 08:00:00,24.952822,84.002396,NO2,1,17,3
India,Bihar,Siwan,"Chitragupta Nagar, Siwan - BSPCB",26-03-2026 08:00:00,26.2271665,84.3570427,PM2.5,NA,NA,NA
India,Bihar,Bihar Sharif,"D M Colony, Bihar Sharif - BSPCB",26-03-2026 08:00:00,25.204762,85.514960,PM2.5,13,97,43
India,Bihar,Bihar Sharif,"D M Colony, Bihar Sharif - BSPCB",26-03-2026 08:00:00,25.204762,85.514960,CO,35,95,40
India,Bihar,Buxar,"Charitra Van, Buxar - BSPCB",26-03-2026 08:00:00,25.567520,83.966379,PM2.5,42,90,65
India,Bihar,Buxar,"Charitra Van, Buxar - BSPCB",26-03-2026 08:00:00,25.567520,83.966379,SO2,27,34,31
India,Bihar,Buxar,"Charitra Van, Buxar - BSPCB",26-03-2026 08:00:00,25.567520,83.966379,CO,21,28,25
India,Bihar,Gaya,"Collectorate, Gaya - BSPCB",26-03-2026 08:00:00,24.7955,84.9994,PM2.5,NA,NA,NA
India,Bihar,Gaya,"Kareemganj, Gaya - BSPCB",26-03-2026 08:00:00,24.792403,84.992416,OZONE,20,58,22
India,Chandigarh,Chandigarh,"Sector 22, Chandigarh - CPCC",26-03-2026 08:00:00,30.735567,76.775714,PM10,NA,NA,NA
India,Chandigarh,Chandigarh,"Sector 22, Chandigarh - CPCC",26-03-2026 08:00:00,30.735567,76.775714,OZONE,8,164,65
India,Chandigarh,Chandigarh,"Sector-25, Chandigarh - CPCC",26-03-2026 08:00:00,30.751462,76.762879,PM10,46,101,65
India,Chandigarh,Chandigarh,"Sector-25, Chandigarh - CPCC",26-03-2026 08:00:00,30.751462,76.762879,NH3,11,11,11
India,Chandigarh,Chandigarh,"Sector-25, Chandigarh - CPCC",26-03-2026 08:00:00,30.751462,76.762879,CO,12,28,18
India,Chandigarh,Chandigarh,"Sector-53, Chandigarh - CPCC",26-03-2026 08:00:00,30.719859,76.738637,PM2.5,13,93,44
India,Bihar,Gaya,"SFTI Kusdihra, Gaya - BSPCB",26-03-2026 08:00:00,24.762518,84.982348,NH3,1,6,3
India,Bihar,Gaya,"SFTI Kusdihra, Gaya - BSPCB",26-03-2026 08:00:00,24.762518,84.982348,CO,20,32,26
India,Bihar,Hajipur,"Industrial Area, Hajipur - BSPCB",26-03-2026 08:00:00,25.697189,85.245900,PM10,61,344,152
India,Bihar,Katihar,"Mirchaibari, Katihar - BSPCB",26-03-2026 08:00:00,25.560083,87.553265,PM2.5,23,80,45
India,Chandigarh,Chandigarh,"Sector-53, Chandigarh - CPCC",26-03-2026 08:00:00,30.719859,76.738637,OZONE,5,96,34
India,Bihar,Katihar,"Mirchaibari, Katihar - BSPCB",26-03-2026 08:00:00,25.560083,87.553265,OZONE,5,33,6
India,Bihar,Purnia,"Mariam Nagar, Purnia - BSPCB",26-03-2026 08:00:00,25.366336,87.117468,NO2,5,7,6
India,Delhi,Delhi,"IIT Delhi, Delhi - IITM",26-03-2026 08:00:00,28.542460,77.191651,CO,40,96,64
India,Delhi,Delhi,"IIT Delhi, Delhi - IITM",26-03-2026 08:00:00,28.542460,77.191651,OZONE,8,57,9
India,Delhi,Delhi,"ITO, Delhi - CPCB",26-03-2026 08:00:00,28.628624,77.241060,PM2.5,20,500,384
India,Delhi,Delhi,"JNU, Delhi - DPCC",26-03-2026 08:00:00,28.540721 ,77.168544 ,PM2.5,20,280,89
India,Delhi,Delhi,"JNU, Delhi - DPCC",26-03-2026 08:00:00,28.540721 ,77.168544 ,OZONE,1,40,4
India,Delhi,Delhi,"Jawaharlal Nehru Stadium, Delhi - DPCC",26-03-2026 08:00:00,28.580280,77.233829,PM2.5,32,341,138
India,Delhi,Delhi,"Jawaharlal Nehru Stadium, Delhi - DPCC",26-03-2026 08:00:00,28.580280,77.233829,OZONE,2,157,13
India,Delhi,Delhi,"Lodhi Road, Delhi - IMD",26-03-2026 08:00:00,28.5918245,77.2273074,OZONE,22,116,26
India,Delhi,Delhi,"Major Dhyan Chand National Stadium, Delhi - DPCC",26-03-2026 08:00:00,28.611281,77.237738,PM2.5,2,309,88
India,Delhi,Delhi,"Major Dhyan Chand National Stadium, Delhi - DPCC",26-03-2026 08:00:00,28.611281,77.237738,NH3,15,19,16
India,Chhattisgarh,Korba,"Urja Nagar, Korba - CECB",26-03-2026 08:00:00,22.348441,82.549611,CO,NA,NA,NA
India,Chhattisgarh,Kunjemura,"OP Jindal School, Kunjemura - CECB",26-03-2026 08:00:00,22.126650,83.483212,PM2.5,33,149,79
India,Chhattisgarh,Milupara,"Govt. Higher Secondary School, Milupara - CECB",26-03-2026 08:00:00,22.1910172,83.5197009,NO2,15,74,34
India,Chhattisgarh,Raipur,"AIIMS, Raipur - CECB",26-03-2026 08:00:00,21.258815,81.578979,PM10,45,181,101
India,Chhattisgarh,Raipur,"AIIMS, Raipur - CECB",26-03-2026 08:00:00,21.258815,81.578979,NH3,4,5,4
India,Chhattisgarh,Raipur,"Bhatagaon New ISBT, Raipur - CECB",26-03-2026 08:00:00,21.219665,81.630094,PM10,21,129,84
India,Chhattisgarh,Raipur,"Krishak Nagar, Raipur - CECB",26-03-2026 08:00:00,21.237755,81.705301,PM2.5,40,80,57
India,Chhattisgarh,Raipur,"Krishak Nagar, Raipur - CECB",26-03-2026 08:00:00,21.237755,81.705301,PM10,47,122,72
India,Chhattisgarh,Bhilai,"32Bungalows, Bhilai - CECB",26-03-2026 08:00:00,21.194815,81.314770,PM2.5,19,54,37
India,Chhattisgarh,Bhilai,"32Bungalows, Bhilai - CECB",26-03-2026 08:00:00,21.194815,81.314770,CO,17,59,52
India,Chhattisgarh,Bhilai,"32Bungalows, Bhilai - CECB",26-03-2026 08:00:00,21.194815,81.314770,OZONE,5,25,5
India,Chhattisgarh,Bhilai,"Civic Center, Bhilai - Bhilai Steel Plant",26-03-2026 08:00:00,21.185571,81.343175,OZONE,3,15,10
India,Chhattisgarh,Bhilai,"Hathkhoj, Bhilai - CECB",26-03-2026 08:00:00,21.224231,81.408350,PM2.5,25,79,47
India,Chhattisgarh,Bhilai,"Hathkhoj, Bhilai - CECB",26-03-2026 08:00:00,21.224231,81.408350,CO,24,69,52
India,Chhattisgarh,Chhal,"Nawapara SECL Colony, Chhal - CECB",26-03-2026 08:00:00,22.118125,83.140608,OZONE,143,143,143
India,Delhi,Delhi,"IGI Airport (T3), Delhi - IMD",26-03-2026 08:00:00,28.5627763,77.1180053,NO2,19,47,33
India,Delhi,Delhi,"IGNOU_Maidan Garhi, Delhi - DPCC",26-03-2026 08:00:00,28.493624 ,77.201159 ,NH3,2,8,4
India,Delhi,Delhi,"IGNOU_Maidan Garhi, Delhi - DPCC",26-03-2026 08:00:00,28.493624 ,77.201159 ,OZONE,1,77,6
India,Delhi,Delhi,"IHBAS, Dilshad Garden, Delhi - CPCB",26-03-2026 08:00:00,28.6811736,77.3025234,PM2.5,29,131,74
India,Delhi,Delhi,"IIT Delhi, Delhi - IITM",26-03-2026 08:00:00,28.542460,77.191651,NO2,13,72,41
India,Delhi,Delhi,"Cantonment Area, Delhi - DPCC ",26-03-2026 08:00:00,28.594169 ,77.125100 ,NH3,1,6,3
India,Delhi,Delhi,"Chandni Chowk, Delhi - IITM",26-03-2026 08:00:00,28.656756,77.227234,CO,99,155,118
India,Delhi,Delhi,"Commonwealth Sports Complex, Delhi - DPCC",26-03-2026 08:00:00,28.615828 ,77.271992 ,NO2,22,58,43
India,Delhi,Delhi,"DTU, Delhi - CPCB",26-03-2026 08:00:00,28.7500499,77.1112615,PM2.5,20,392,151
India,Chhattisgarh,Tumidih,"OP Jindal Industrial Park, Tumidih - CECB",26-03-2026 08:00:00,22.06631475,83.33820077,NO2,34,97,68
India,Chhattisgarh,Tumidih,"OP Jindal Industrial Park, Tumidih - CECB",26-03-2026 08:00:00,22.06631475,83.33820077,NH3,1,2,2
India,Chhattisgarh,Tumidih,"OP Jindal Industrial Park, Tumidih - CECB",26-03-2026 08:00:00,22.06631475,83.33820077,OZONE,18,18,18
India,Delhi,Delhi,"Alipur, Delhi - DPCC",26-03-2026 08:00:00,28.815329,77.153010,NO2,12,72,42
India,Chhattisgarh,Raipur,"Siltara Phase-II, Raipur - CECB",26-03-2026 08:00:00,21.371751,81.664929,PM10,29,159,80
India,Chhattisgarh,Raipur,"Siltara Phase-II, Raipur - CECB",26-03-2026 08:00:00,21.371751,81.664929,SO2,3,27,12
India,Chhattisgarh,Tumidih,"OP Jindal Industrial Park, Tumidih - CECB",26-03-2026 08:00:00,22.06631475,83.33820077,PM2.5,37,295,109
India,Delhi,Delhi,"Anand Vihar, Delhi - DPCC",26-03-2026 08:00:00,28.647622,77.3158090,NH3,2,17,10
India,Delhi,Delhi,"Bawana, Delhi - DPCC",26-03-2026 08:00:00,28.776200,77.051074,SO2,10,74,21
India,Delhi,Delhi,"Burari Crossing, Delhi - IMD",26-03-2026 08:00:00,28.7256504,77.2011573,PM10,67,265,145
India,Delhi,Delhi,"Dr. Karni Singh Shooting Range, Delhi - DPCC",26-03-2026 08:00:00,28.498571,77.264840,NO2,6,102,48
India,Delhi,Delhi,"Dr. Karni Singh Shooting Range, Delhi - DPCC",26-03-2026 08:00:00,28.498571,77.264840,NH3,4,6,5
India,Gujarat,Ahmedabad,"Chandkheda, Ahmedabad - IITM",26-03-2026 08:00:00,23.107969,72.574648,SO2,4,33,10
India,Gujarat,Ahmedabad,"Gyaspur, Ahmedabad - IITM",26-03-2026 08:00:00,22.977134,72.553024,PM2.5,27,134,64
India,Gujarat,Ahmedabad,"Gyaspur, Ahmedabad - IITM",26-03-2026 08:00:00,22.977134,72.553024,NO2,34,123,72
India,Gujarat,Ahmedabad,"Maninagar, Ahmedabad - GPCB",26-03-2026 08:00:00,23.002657,72.591912,PM2.5,33,190,76
India,Gujarat,Ahmedabad,"Maninagar, Ahmedabad - GPCB",26-03-2026 08:00:00,23.002657,72.591912,OZONE,43,127,51
India,Gujarat,Ahmedabad,"Raikhad, Ahmedabad - IITM",26-03-2026 08:00:00,23.020509,72.579261,NO2,19,107,48
India,Gujarat,Ahmedabad,"Raikhad, Ahmedabad - IITM",26-03-2026 08:00:00,23.020509,72.579261,NH3,9,25,13
India,Gujarat,Ahmedabad,"Rakhial, Ahmedabad - IITM",26-03-2026 08:00:00,23.016834,72.625775,NH3,10,19,14
India,Delhi,Delhi,"Mandir Marg, Delhi - DPCC",26-03-2026 08:00:00,28.636429,77.201067,NO2,24,86,51
India,Delhi,Delhi,"Mandir Marg, Delhi - DPCC",26-03-2026 08:00:00,28.636429,77.201067,SO2,11,46,26
India,Delhi,Delhi,"Mandir Marg, Delhi - DPCC",26-03-2026 08:00:00,28.636429,77.201067,CO,47,102,76
India,Delhi,Delhi,"Mandir Marg, Delhi - DPCC",26-03-2026 08:00:00,28.636429,77.201067,OZONE,3,121,18
India,Delhi,Delhi,"Mundka, Delhi - DPCC",26-03-2026 08:00:00,28.684678,77.076574,PM10,75,454,207
India,Delhi,Delhi,"Mundka, Delhi - DPCC",26-03-2026 08:00:00,28.684678,77.076574,NH3,5,15,8
India,Delhi,Delhi,"NSIT Dwarka, Delhi - CPCB",26-03-2026 08:00:00,28.60909,77.0325413,NH3,5,33,28
India,Delhi,Delhi,"NSUT Jaffarpur, Delhi - DPCC",26-03-2026 08:00:00,28.594004 ,76.909423 ,NO2,1,104,36
India,Delhi,Delhi,"Patparganj, Delhi - DPCC",26-03-2026 08:00:00,28.623763,77.287209,CO,36,119,54
India,Delhi,Delhi,"Patparganj, Delhi - DPCC",26-03-2026 08:00:00,28.623763,77.287209,OZONE,5,163,21
India,Delhi,Delhi,"Punjabi Bagh, Delhi - DPCC",26-03-2026 08:00:00,28.674045,77.131023,NO2,17,83,46
India,Delhi,Delhi,"Pusa, Delhi - DPCC",26-03-2026 08:00:00,28.639652,77.146275,PM10,94,305,182
India,Delhi,Delhi,"Pusa, Delhi - DPCC",26-03-2026 08:00:00,28.639652,77.146275,NH3,6,20,14
India,Delhi,Delhi,"New Moti Bagh, Delhi - MHUA",26-03-2026 08:00:00,28.57834,77.18400,PM2.5,67,330,175
India,Delhi,Delhi,"New Moti Bagh, Delhi - MHUA",26-03-2026 08:00:00,28.57834,77.18400,NO2,9,9,9
India,Delhi,Delhi,"North Campus, DU, Delhi - IMD",26-03-2026 08:00:00,28.6573814,77.1585447,PM2.5,37,330,124
India,Delhi,Delhi,"Okhla Phase-2, Delhi - DPCC",26-03-2026 08:00:00,28.530785,77.271255,SO2,14,27,20
India,Delhi,Delhi,"Sirifort, Delhi - CPCB",26-03-2026 08:00:00,28.5504249,77.2159377,OZONE,7,26,7
India,Delhi,Delhi,"Talkatora Garden, Delhi - DPCC",26-03-2026 08:00:00,28.621810,77.1944633,PM2.5,32,346,126
India,Delhi,Delhi,"Talkatora Garden, Delhi - DPCC",26-03-2026 08:00:00,28.621810,77.1944633,PM10,53,190,120
India,Delhi,Delhi,"Vivek Vihar, Delhi - DPCC",26-03-2026 08:00:00,28.672342,77.315260,NH3,5,7,6
India,Delhi,Delhi,"Wazirpur, Delhi - DPCC",26-03-2026 08:00:00,28.699793,77.165453,OZONE,16,99,22
India,Gujarat,Ahmedabad,"Chandkheda, Ahmedabad - IITM",26-03-2026 08:00:00,23.107969,72.574648,PM2.5,22,79,44
India,Delhi,Delhi,"Narela, Delhi - DPCC",26-03-2026 08:00:00,28.822836,77.101981,PM2.5,28,366,207
India,Delhi,Delhi,"Narela, Delhi - DPCC",26-03-2026 08:00:00,28.822836,77.101981,CO,16,69,37
India,Delhi,Delhi,"Mandir Marg, Delhi - DPCC",26-03-2026 08:00:00,28.636429,77.201067,PM2.5,120,334,234
India,Delhi,Delhi,"R K Puram, Delhi - DPCC",26-03-2026 08:00:00,28.563262,77.186937,NH3,6,11,8
India,Gujarat,Gandhinagar,"IIPHG Lekawada, Gandhinagar - IITM",26-03-2026 08:00:00,23.243639,72.68994,PM10,53,158,100
India,Gujarat,Gandhinagar,"IIPHG Lekawada, Gandhinagar - IITM",26-03-2026 08:00:00,23.243639,72.68994,NO2,6,25,15
India,Gujarat,Gandhinagar,"IIPHG Lekawada, Gandhinagar - IITM",26-03-2026 08:00:00,23.243639,72.68994,NH3,5,17,8
India,Gujarat,Gandhinagar,"IIPHG Lekawada, Gandhinagar - IITM",26-03-2026 08:00:00,23.243639,72.68994,SO2,2,17,5
India,Gujarat,Gandhinagar,"IIPHG Lekawada, Gandhinagar - IITM",26-03-2026 08:00:00,23.243639,72.68994,CO,1,69,21
India,Gujarat,Gandhinagar,"IIPHG Lekawada, Gandhinagar - IITM",26-03-2026 08:00:00,23.243639,72.68994,OZONE,1,18,1
India,Gujarat,Mehsana,"Sadanand Nagar, Mehsana - Nexteng Enviro",26-03-2026 08:00:00,23.593150,72.372792,PM10,35,130,88
India,Gujarat,Nandesari,"GIDC, Nandesari - Nandesari Ind. Association",26-03-2026 08:00:00,22.410802,73.097923,SO2,3,11,4
India,Gujarat,Rajkot,"Mavdi, Rajkot - Nexteng Enviro ",26-03-2026 08:00:00,22.248853,70.776774,PM2.5,8,73,39
India,Gujarat,Rajkot,"Mavdi, Rajkot - Nexteng Enviro ",26-03-2026 08:00:00,22.248853,70.776774,SO2,8,25,16
India,Gujarat,Ahmedabad,"Rakhial, Ahmedabad - IITM",26-03-2026 08:00:00,23.016834,72.625775,CO,34,151,96
India,Gujarat,Ahmedabad,"SAC ISRO Bopal, Ahmedabad - IITM",26-03-2026 08:00:00,23.041137,72.456691,NO2,5,51,18
India,Gujarat,Ahmedabad,"SAC ISRO Satellite, Ahmedabad - IITM",26-03-2026 08:00:00,23.023389,72.515201,PM10,49,85,65
India,Gujarat,Ahmedabad,"SAC ISRO Satellite, Ahmedabad - IITM",26-03-2026 08:00:00,23.023389,72.515201,CO,3,104,60
India,Gujarat,Ahmedabad,"SVPI Airport Hansol, Ahmedabad - IITM",26-03-2026 08:00:00,23.076793,72.627874,PM2.5,13,73,39
India,Gujarat,Bhavnagar,"Vidhyanagar, Bhavnagar - Nexteng Enviro",26-03-2026 08:00:00,21.755417,72.139056,PM2.5,20,145,55
India,Gujarat,Bhavnagar,"Vidhyanagar, Bhavnagar - Nexteng Enviro",26-03-2026 08:00:00,21.755417,72.139056,NH3,2,2,2
India,Gujarat,Surat,"Katargam, Surat - Nexteng Enviro",26-03-2026 08:00:00,21.217779 ,72.834787 ,PM10,56,125,84
India,Gujarat,Surat,"Katargam, Surat - Nexteng Enviro",26-03-2026 08:00:00,21.217779 ,72.834787 ,NO2,6,35,16
India,Gujarat,Surat,"Science Center, Surat - SMC",26-03-2026 08:00:00,21.170046,72.795405,SO2,21,29,24
India,Gujarat,Vadodara,"Bapunagar, Vadodara - Nexteng Enviro",26-03-2026 08:00:00,22.320153,73.216285,NO2,1,19,10
India,Gujarat,Vadodara,"Bapunagar, Vadodara - Nexteng Enviro",26-03-2026 08:00:00,22.320153,73.216285,CO,58,80,76
India,Gujarat,Vatva,"Phase-4 GIDC, Vatva - GPCB",26-03-2026 08:00:00,22.969611,72.643500,NO2,20,108,74
India,Gujarat,Vatva,"Phase-4 GIDC, Vatva - GPCB",26-03-2026 08:00:00,22.969611,72.643500,CO,13,32,14
India,Haryana,Gurugram,"NISE Gwal Pahari, Gurugram - IMD",26-03-2026 08:00:00,28.422681,77.148944,PM10,79,273,149
India,Haryana,Gurugram,"NISE Gwal Pahari, Gurugram - IMD",26-03-2026 08:00:00,28.422681,77.148944,CO,7,78,49
India,Haryana,Gurugram,"Sector-51, Gurugram - HSPCB",26-03-2026 08:00:00,28.4227,77.0667,SO2,1,11,6
India,Haryana,Gurugram,"Vikas Sadan, Gurugram - HSPCB",26-03-2026 08:00:00,28.4501238,77.0263051,PM2.5,NA,NA,NA
India,Haryana,Gurugram,"Vikas Sadan, Gurugram - HSPCB",26-03-2026 08:00:00,28.4501238,77.0263051,NO2,NA,NA,NA
India,Haryana,Hisar,"Urban Estate-II, Hisar - HSPCB",26-03-2026 08:00:00,29.140560,75.744941,PM10,78,144,102
India,Haryana,Bhiwani,"H.B. Colony, Bhiwani - HSPCB",26-03-2026 08:00:00,28.806223,76.141105,PM10,NA,NA,NA
India,Haryana,Bhiwani,"H.B. Colony, Bhiwani - HSPCB",26-03-2026 08:00:00,28.806223,76.141105,OZONE,NA,NA,NA
India,Haryana,Charkhi Dadri,"Mini Secretariat, Charkhi Dadri - HSPCB",26-03-2026 08:00:00,28.593883,76.270653,PM10,43,171,120
India,Haryana,Charkhi Dadri,"Mini Secretariat, Charkhi Dadri - HSPCB",26-03-2026 08:00:00,28.593883,76.270653,CO,56,122,114
India,Haryana,Faridabad,"New Industrial Town, Faridabad - HSPCB",26-03-2026 08:00:00,28.39072,77.30059,SO2,8,8,8
India,Haryana,Faridabad,"Sector 30, Faridabad - HSPCB",26-03-2026 08:00:00,28.4417,77.3217,NH3,11,12,11
India,Haryana,Faridabad,"Sector 30, Faridabad - HSPCB",26-03-2026 08:00:00,28.4417,77.3217,SO2,4,5,4
India,Haryana,Faridabad,"Sector 30, Faridabad - HSPCB",26-03-2026 08:00:00,28.4417,77.3217,OZONE,10,10,10
India,Haryana,Bahadurgarh,"Arya Nagar, Bahadurgarh - HSPCB",26-03-2026 08:00:00,28.6701,76.9254,NH3,12,13,13
India,Haryana,Bahadurgarh,"Arya Nagar, Bahadurgarh - HSPCB",26-03-2026 08:00:00,28.6701,76.9254,SO2,6,7,6
India,Haryana,Ballabgarh,"Nathu Colony, Ballabgarh - HSPCB",26-03-2026 08:00:00,28.3419248,77.319699,PM2.5,18,213,162
India,Haryana,Ambala,"Patti Mehar, Ambala - HSPCB",26-03-2026 08:00:00,30.379589,76.778328,PM10,56,89,72
India,Haryana,Jind,"Police Lines, Jind - HSPCB",26-03-2026 08:00:00,29.307814,76.337619,PM2.5,49,160,80
India,Karnataka,Bengaluru,"Bapuji Nagar, Bengaluru - KSPCB",26-03-2026 08:00:00,12.951913,77.539784,NO2,13,22,17
India,Karnataka,Bengaluru,"Bapuji Nagar, Bengaluru - KSPCB",26-03-2026 08:00:00,12.951913,77.539784,NH3,2,4,3
India,Karnataka,Bengaluru,"City Railway Station, Bengaluru - KSPCB",26-03-2026 08:00:00,12.9756843,77.5660749,NO2,43,56,50
India,Karnataka,Bengaluru,"Hebbal, Bengaluru - KSPCB",26-03-2026 08:00:00,13.029152,77.585901,PM2.5,55,100,84
India,Karnataka,Bengaluru,"Hebbal, Bengaluru - KSPCB",26-03-2026 08:00:00,13.029152,77.585901,PM10,85,119,102
India,Karnataka,Bengaluru,"Hombegowda Nagar, Bengaluru - KSPCB",26-03-2026 08:00:00,12.938539,77.590100,CO,6,30,16
India,Karnataka,Bengaluru,"Hombegowda Nagar, Bengaluru - KSPCB",26-03-2026 08:00:00,12.938539,77.590100,OZONE,36,140,64
India,Karnataka,Bengaluru,"Jayanagar 5th Block, Bengaluru - KSPCB",26-03-2026 08:00:00,12.920984,77.584908,SO2,10,27,18
India,Karnataka,Bengaluru,"Jigani, Bengaluru - KSPCB",26-03-2026 08:00:00,12.7816279,77.6299145,NH3,3,5,4
India,Haryana,Panchgaon,"Amity University, Panchgaon - IITM",26-03-2026 08:00:00,28.3153,76.9143,SO2,1,41,13
India,Haryana,Panchkula,"Sector-6, Panchkula - HSPCB ",26-03-2026 08:00:00,30.7057778,76.8531805555555,NO2,23,25,24
India,Haryana,Rohtak,"MD University, Rohtak - HSPCB",26-03-2026 08:00:00,28.52123,76.37138,PM2.5,1,481,155
India,Haryana,Rohtak,"MD University, Rohtak - HSPCB",26-03-2026 08:00:00,28.52123,76.37138,PM10,1,418,92
India,Haryana,Rohtak,"MD University, Rohtak - HSPCB",26-03-2026 08:00:00,28.52123,76.37138,NO2,11,12,11
India,Haryana,Rohtak,"MD University, Rohtak - HSPCB",26-03-2026 08:00:00,28.52123,76.37138,CO,24,38,35
India,Haryana,Sirsa,"F-Block, Sirsa - HSPCB",26-03-2026 08:00:00,29.536400,75.015800,NO2,16,36,21
India,Haryana,Sirsa,"F-Block, Sirsa - HSPCB",26-03-2026 08:00:00,29.536400,75.015800,SO2,1,21,10
India,Jammu_and_Kashmir,Srinagar,"Rajbagh, Srinagar - JKPCC",26-03-2026 08:00:00,34.066206,74.819820,PM10,20,60,38
India,Jharkhand,Jorapokhar,"Tata Stadium, Jorapokhar - JSPCB",26-03-2026 08:00:00,23.707909,86.414670,CO,38,40,39
India,Karnataka,Bagalkot,"Vidayagiri, Bagalkot - KSPCB",26-03-2026 08:00:00,16.172806,75.659694,PM2.5,17,36,34
India,Karnataka,Bagalkot,"Vidayagiri, Bagalkot - KSPCB",26-03-2026 08:00:00,16.172806,75.659694,CO,4,60,16
India,Karnataka,Bagalkot,"Vidayagiri, Bagalkot - KSPCB",26-03-2026 08:00:00,16.172806,75.659694,OZONE,6,13,11
India,Karnataka,Bengaluru,"BTM Layout, Bengaluru - CPCB",26-03-2026 08:00:00,12.9135218,77.5950804,CO,45,56,53
India,Haryana,Mandikhera,"General Hospital, Mandikhera(Nuh) - HSPCB",26-03-2026 08:00:00,27.9002,76.9938,SO2,11,51,32
India,Haryana,Mandikhera,"General Hospital, Mandikhera(Nuh) - HSPCB",26-03-2026 08:00:00,27.9002,76.9938,CO,19,70,56
India,Haryana,Manesar,"Sector-2 IMT, Manesar - HSPCB",26-03-2026 08:00:00,28.360699,76.936090,PM2.5,39,389,192
India,Haryana,Manesar,"Sector-2 IMT, Manesar - HSPCB",26-03-2026 08:00:00,28.360699,76.936090,SO2,3,14,8
India,Haryana,Narnaul,"Shastri Nagar, Narnaul - HSPCB",26-03-2026 08:00:00,28.060249,76.113115,NO2,22,28,26
India,Haryana,Palwal,"Shyam Nagar, Palwal - HSPCB",26-03-2026 08:00:00,28.1485564,77.3320667,NH3,8,9,9
India,Haryana,Sirsa,"F-Block, Sirsa - HSPCB",26-03-2026 08:00:00,29.536400,75.015800,CO,26,60,42
India,Haryana,Sirsa,"F-Block, Sirsa - HSPCB",26-03-2026 08:00:00,29.536400,75.015800,OZONE,21,33,28
India,Haryana,Yamuna Nagar,"Gobind Pura, Yamuna Nagar - HSPCB",26-03-2026 08:00:00,30.1480566,77.2893471,NO2,11,20,15
India,Haryana,Yamuna Nagar,"Gobind Pura, Yamuna Nagar - HSPCB",26-03-2026 08:00:00,30.1480566,77.2893471,SO2,10,16,12
India,Haryana,Yamuna Nagar,"Gobind Pura, Yamuna Nagar - HSPCB",26-03-2026 08:00:00,30.1480566,77.2893471,CO,26,52,35
India,Himachal Pradesh,Baddi,"HIMUDA Complex Phase-1, Baddi - HPPCB",26-03-2026 08:00:00,30.943887,76.801991,PM10,61,279,152
India,Himachal Pradesh,Baddi,"HIMUDA Complex Phase-1, Baddi - HPPCB",26-03-2026 08:00:00,30.943887,76.801991,NH3,3,6,4
India,Jammu_and_Kashmir,Pampore,"Khrew, Pampore - JKPCC",26-03-2026 08:00:00,34.031606,75.009712,PM10,29,141,71
India,Karnataka,Bengaluru,"BTM Layout, Bengaluru - CPCB",26-03-2026 08:00:00,12.9135218,77.5950804,OZONE,23,25,24
India,Karnataka,Bengaluru,"BWSSB Kadabesanahalli, Bengaluru - CPCB",26-03-2026 08:00:00,12.9352049,77.6814488,PM10,98,365,149
India,Karnataka,Bengaluru,"BWSSB Kadabesanahalli, Bengaluru - CPCB",26-03-2026 08:00:00,12.9352049,77.6814488,OZONE,14,39,19
India,Haryana,Karnal,"Sector-12, Karnal - HSPCB",26-03-2026 08:00:00,29.695300,77.002700,PM2.5,17,158,64
India,Haryana,Kurukshetra,"Sector-7, Kurukshetra - HSPCB",26-03-2026 08:00:00,29.966942,76.875879,NO2,4,4,4
India,Haryana,Kaithal,"Rishi Nagar, Kaithal - HSPCB",26-03-2026 08:00:00,29.8006,76.4155,CO,3,80,48
India,Haryana,Kaithal,"Rishi Nagar, Kaithal - HSPCB",26-03-2026 08:00:00,29.8006,76.4155,OZONE,4,8,6
India,Karnataka,Yadgir,"Collector Office, Yadgir - KSPCB",26-03-2026 08:00:00,16.7602,77.1428,NH3,1,2,1
India,Kerala,Kannur,"Thavakkara, Kannur - Kerala PCB",26-03-2026 08:00:00,11.875000,75.373200,PM2.5,81,93,86
India,Kerala,Kannur,"Thavakkara, Kannur - Kerala PCB",26-03-2026 08:00:00,11.875000,75.373200,PM10,75,97,80
India,Kerala,Kannur,"Thavakkara, Kannur - Kerala PCB",26-03-2026 08:00:00,11.875000,75.373200,SO2,1,12,3
India,Kerala,Kannur,"Thavakkara, Kannur - Kerala PCB",26-03-2026 08:00:00,11.875000,75.373200,CO,18,22,20
India,Kerala,Thiruvananthapuram,"Plammoodu, Thiruvananthapuram - Kerala PCB",26-03-2026 08:00:00,8.5149093,76.9435879,PM10,38,64,48
India,Kerala,Thiruvananthapuram,"Plammoodu, Thiruvananthapuram - Kerala PCB",26-03-2026 08:00:00,8.5149093,76.9435879,CO,9,20,15
India,Kerala,Thiruvananthapuram,"Plammoodu, Thiruvananthapuram - Kerala PCB",26-03-2026 08:00:00,8.5149093,76.9435879,OZONE,19,43,29
India,Karnataka,Madikeri,"Stuart Hill, Madikeri - KSPCB",26-03-2026 08:00:00,12.415911,75.735050,CO,12,24,16
India,Karnataka,Mangalore,"Kadri, Mangalore - KSPCB",26-03-2026 08:00:00,12.889250,74.853000,NH3,2,3,2
India,Karnataka,Mysuru,"Hebbal 1st Stage, Mysuru - KSPCB",26-03-2026 08:00:00,12.21041,76.37376,PM2.5,15,46,29
India,Karnataka,Mysuru,"Hebbal 1st Stage, Mysuru - KSPCB",26-03-2026 08:00:00,12.21041,76.37376,NO2,6,28,17
India,Karnataka,Mysuru,"Hebbal 1st Stage, Mysuru - KSPCB",26-03-2026 08:00:00,12.21041,76.37376,SO2,2,6,4
India,Karnataka,Ramanagara,"Vijay Nagar, Ramanagara - KSPCB",26-03-2026 08:00:00,12.733409,77.298051,SO2,2,70,26
India,Karnataka,Ramanagara,"Vijay Nagar, Ramanagara - KSPCB",26-03-2026 08:00:00,12.733409,77.298051,OZONE,29,77,40
India,Kerala,Thrissur,"Corporation Ground, Thrissur - Kerala PCB",26-03-2026 08:00:00,10.532400,76.215900,PM10,62,79,71
India,Kerala,Thrissur,"Corporation Ground, Thrissur - Kerala PCB",26-03-2026 08:00:00,10.532400,76.215900,CO,13,23,16
India,Madhya Pradesh,Bhopal,"Paryavaran Parisar, Bhopal - MPPCB",26-03-2026 08:00:00,23.210494,77.425409,NH3,5,7,6
India,Karnataka,Shivamogga,"Vinoba Nagara, Shivamogga - KSPCB",26-03-2026 08:00:00,13.940000,75.555917,OZONE,12,61,22
India,Karnataka,Vijayapura,"Ibrahimpur, Vijayapura - KSPCB",26-03-2026 08:00:00,16.802639,75.722694,SO2,3,6,3
India,Madhya Pradesh,Bhopal,"T T Nagar, Bhopal - MPPCB",26-03-2026 08:00:00,23.233584,77.400574,CO,28,111,44
India,Madhya Pradesh,Dewas,"Bhopal Chauraha, Dewas - MPPCB",26-03-2026 08:00:00,22.9682591,76.064118,NO2,30,90,64
India,Karnataka,Dharwad,"Kalabhavan, Dharwad - KSPCB",26-03-2026 08:00:00,15.459706,75.008381,PM2.5,NA,NA,NA
India,Karnataka,Dharwad,"Kalabhavan, Dharwad - KSPCB",26-03-2026 08:00:00,15.459706,75.008381,NO2,NA,NA,NA
India,Karnataka,Dharwad,"Kalabhavan, Dharwad - KSPCB",26-03-2026 08:00:00,15.459706,75.008381,OZONE,27,37,28
India,Karnataka,Kalaburagi,"Mahatma Basaveswar Colony, Kalaburgi - KSPCB",26-03-2026 08:00:00,17.336318,76.847397,PM2.5,21,36,28
India,Karnataka,Kalaburagi,"Mahatma Basaveswar Colony, Kalaburgi - KSPCB",26-03-2026 08:00:00,17.336318,76.847397,OZONE,13,13,13
India,Karnataka,Bengaluru,"Shivapura_Peenya, Bengaluru - KSPCB",26-03-2026 08:00:00,13.0246342,77.5080115,NO2,NA,NA,NA
India,Karnataka,Bengaluru,"Silk Board, Bengaluru - KSPCB",26-03-2026 08:00:00,12.917348,77.622813,NO2,12,53,30
India,Madhya Pradesh,Pithampur,"Sector-2 Industrial Area, Pithampur - MPPCB",26-03-2026 08:00:00,22.624758,75.675238,SO2,12,21,14
India,Madhya Pradesh,Sagar,"Civil Lines, Sagar - MPPCB",26-03-2026 08:00:00,23.838586,78.759431,PM10,41,105,62
India,Madhya Pradesh,Sagar,"Civil Lines, Sagar - MPPCB",26-03-2026 08:00:00,23.838586,78.759431,CO,9,55,15
India,Madhya Pradesh,Satna,"Bandhavgar Colony, Satna - Birla Cement",26-03-2026 08:00:00,24.58434363,80.8549414,PM2.5,49,51,50
India,Madhya Pradesh,Singrauli,"Suryakiran Bhawan NCL, Singrauli - MPPCB",26-03-2026 08:00:00,24.108970,82.645580,NH3,4,6,5
India,Madhya Pradesh,Singrauli,"Suryakiran Bhawan NCL, Singrauli - MPPCB",26-03-2026 08:00:00,24.108970,82.645580,CO,47,94,67
India,Madhya Pradesh,Gwalior,"Maharaj Bada, Gwalior - MPPCB",26-03-2026 08:00:00,26.200388,78.147714,NO2,30,167,84
India,Madhya Pradesh,Gwalior,"Maharaj Bada, Gwalior - MPPCB",26-03-2026 08:00:00,26.200388,78.147714,NH3,3,9,6
India,Madhya Pradesh,Gwalior,"Maharaj Bada, Gwalior - MPPCB",26-03-2026 08:00:00,26.200388,78.147714,SO2,2,72,18
India,Madhya Pradesh,Gwalior,"Maharaj Bada, Gwalior - MPPCB",26-03-2026 08:00:00,26.200388,78.147714,OZONE,1,159,18
India,Madhya Pradesh,Indore,"Airport Area, Indore - IMC",26-03-2026 08:00:00,22.7289,75.8076,PM10,60,139,97
India,Madhya Pradesh,Indore,"Chhoti Gwaltoli, Indore - MPPCB",26-03-2026 08:00:00,22.4310,75.5213,PM10,52,189,101
India,Madhya Pradesh,Indore,"Chhoti Gwaltoli, Indore - MPPCB",26-03-2026 08:00:00,22.4310,75.5213,NO2,59,145,91
India,Madhya Pradesh,Indore,"Maguda Nagar, Indore - IMC",26-03-2026 08:00:00,22.7524,75.8872,OZONE,11,26,11
India,Madhya Pradesh,Indore,"Regional Park, Indore - IMC",26-03-2026 08:00:00,22.6780,75.8559,NO2,19,30,23
India,Madhya Pradesh,Indore,"Regional Park, Indore - IMC",26-03-2026 08:00:00,22.6780,75.8559,SO2,32,36,34
India,Madhya Pradesh,Jabalpur,"Govindh Bhavan Colony, Jabalpur - JMC",26-03-2026 08:00:00,23.163174,79.973061,CO,12,27,18
India,Maharashtra,Ambernath,"Chinchpada, Ambernath - MPCB",26-03-2026 08:00:00,19.2157840,73.1997810,PM10,31,100,61
India,Maharashtra,Ambernath,"Chinchpada, Ambernath - MPCB",26-03-2026 08:00:00,19.2157840,73.1997810,SO2,9,31,17
India,Maharashtra,Amravati,"Shivneri Colony, Amravati - MPCB",26-03-2026 08:00:00,20.9402359,77.7895248,SO2,9,19,11
India,Maharashtra,Amravati,"Shri Shivaji Science College, Amravati - MPCB",26-03-2026 08:00:00,20.939198,77.765701,PM10,59,118,89
India,Madhya Pradesh,Gwalior,"City Center, Gwalior - MPPCB",26-03-2026 08:00:00,26.203442,78.193251,NO2,30,119,72
India,Madhya Pradesh,Gwalior,"City Center, Gwalior - MPPCB",26-03-2026 08:00:00,26.203442,78.193251,CO,8,113,37
India,Madhya Pradesh,Gwalior,"Deen Dayal Nagar, Gwalior - MPPCB",26-03-2026 08:00:00,26.259242,78.216432,NO2,13,150,76
India,Madhya Pradesh,Gwalior,"Deen Dayal Nagar, Gwalior - MPPCB",26-03-2026 08:00:00,26.259242,78.216432,NH3,2,10,7
India,Madhya Pradesh,Gwalior,"Deen Dayal Nagar, Gwalior - MPPCB",26-03-2026 08:00:00,26.259242,78.216432,SO2,10,58,25
India,Madhya Pradesh,Jabalpur,"Suhagi, Jabalpur - JMC",26-03-2026 08:00:00,23.218135,79.957770,NH3,NA,NA,NA
India,Madhya Pradesh,Jabalpur,"Suhagi, Jabalpur - JMC",26-03-2026 08:00:00,23.218135,79.957770,OZONE,NA,NA,NA
India,Madhya Pradesh,Katni,"Gole Bazar, Katni - MPPCB",26-03-2026 08:00:00,23.50016,80.23284,PM10,38,204,83
India,Madhya Pradesh,Mandideep,"Sector-D Industrial Area, Mandideep - MPPCB",26-03-2026 08:00:00,23.108440,77.511428,CO,10,78,49
India,Madhya Pradesh,Pithampur,"Sector-2 Industrial Area, Pithampur - MPPCB",26-03-2026 08:00:00,22.624758,75.675238,PM10,66,230,132
India,Madhya Pradesh,Mandideep,"Sector-D Industrial Area, Mandideep - MPPCB",26-03-2026 08:00:00,23.108440,77.511428,NO2,25,153,78
India,Madhya Pradesh,Jabalpur,"Marhatal, Jabalpur - MPPCB",26-03-2026 08:00:00,23.168606,79.932247,SO2,3,40,23
India,Maharashtra,Mumbai,"Kandivali East, Mumbai - MPCB",26-03-2026 08:00:00,19.205800,72.868200,NH3,4,4,4
India,Maharashtra,Mumbai,"Kandivali West, Mumbai - BMC",26-03-2026 08:00:00,19.215859,72.831718,PM2.5,33,58,43
India,Maharashtra,Mumbai,"Kandivali West, Mumbai - BMC",26-03-2026 08:00:00,19.215859,72.831718,PM10,38,78,61
India,Maharashtra,Mumbai,"Kandivali West, Mumbai - BMC",26-03-2026 08:00:00,19.215859,72.831718,OZONE,22,78,32
India,Maharashtra,Mumbai,"Kherwadi_Bandra East, Mumbai - MPCB",26-03-2026 08:00:00,19.0632143,72.8456324,OZONE,2,80,22
India,Maharashtra,Mumbai,"Khindipada-Bhandup West, Mumbai - IITM",26-03-2026 08:00:00,19.1653323,72.922099,PM2.5,5,51,25
India,Maharashtra,Mumbai,"Khindipada-Bhandup West, Mumbai - IITM",26-03-2026 08:00:00,19.1653323,72.922099,NO2,13,31,19
India,Maharashtra,Mumbai,"Kurla, Mumbai - MPCB",26-03-2026 08:00:00,19.0863,72.8888,PM10,40,131,81
India,Maharashtra,Mumbai,"Kurla, Mumbai - MPCB",26-03-2026 08:00:00,19.0863,72.8888,SO2,29,29,29
India,Maharashtra,Mumbai,"Malad West, Mumbai - IITM",26-03-2026 08:00:00,19.19709,72.82204,NO2,18,60,35
India,Maharashtra,Kolhapur,"Shivaji University, Kolhapur - MPCB",26-03-2026 08:00:00,16.6870449,74.2505872,PM10,42,76,60
India,Maharashtra,Kolhapur,"Shivaji University, Kolhapur - MPCB",26-03-2026 08:00:00,16.6870449,74.2505872,NO2,13,38,23
India,Maharashtra,Kolhapur,"Sinchan Bhavan, Kolhapur - MPCB",26-03-2026 08:00:00,16.7143745,74.2426398,PM10,NA,NA,NA
India,Maharashtra,Kolhapur,"Sinchan Bhavan, Kolhapur - MPCB",26-03-2026 08:00:00,16.7143745,74.2426398,SO2,NA,NA,NA
India,Maharashtra,Kolhapur,"Sinchan Bhavan, Kolhapur - MPCB",26-03-2026 08:00:00,16.7143745,74.2426398,OZONE,NA,NA,NA
India,Maharashtra,Latur,"Sawe Wadi, Latur - MPCB",26-03-2026 08:00:00,18.39963,76.57452,SO2,2,8,6
India,Maharashtra,Mahad,"Kamble Tarf Birwadi, Mahad - MPCB",26-03-2026 08:00:00,18.1023399,73.4783687,NH3,2,11,7
India,Maharashtra,Malegaon,"Mahesh Nagar, Malegaon - MPCB",26-03-2026 08:00:00,20.555712,74.529236,PM10,66,239,124
India,Maharashtra,Malegaon,"Mahesh Nagar, Malegaon - MPCB",26-03-2026 08:00:00,20.555712,74.529236,NH3,NA,NA,NA
India,Maharashtra,Dombivli,"Kalu Nagar, Dombivli - MPCB",26-03-2026 08:00:00,19.2268427 ,73.0788456 ,SO2,1,37,15
India,Maharashtra,Hingoli,"Ashta Vinayak Nagar, Hingoli - MPCB",26-03-2026 08:00:00,19.710842,77.151824,NO2,12,101,32
India,Maharashtra,Hingoli,"Ashta Vinayak Nagar, Hingoli - MPCB",26-03-2026 08:00:00,19.710842,77.151824,NH3,3,6,4
India,Maharashtra,Hingoli,"Ashta Vinayak Nagar, Hingoli - MPCB",26-03-2026 08:00:00,19.710842,77.151824,OZONE,14,158,31
India,Maharashtra,Jalgaon,"Prabhat Colony, Jalgaon - MPCB",26-03-2026 08:00:00,21.001264,75.565602,CO,16,52,25
India,Maharashtra,Jalgaon,"Prabhat Colony, Jalgaon - MPCB",26-03-2026 08:00:00,21.001264,75.565602,OZONE,1,68,22
India,Maharashtra,Kalyan,"Pimpleshwar Mandir, Kalyan - MPCB",26-03-2026 08:00:00,19.192056,72.9585188,PM10,73,157,93
India,Maharashtra,Malegaon,"Mahesh Nagar, Malegaon - MPCB",26-03-2026 08:00:00,20.555712,74.529236,SO2,1,19,7
India,Maharashtra,Mumbai,"Bandra Kurla Complex, Mumbai - IITM",26-03-2026 08:00:00,19.053536,72.84643,PM2.5,35,70,53
India,Maharashtra,Mumbai,"Bandra Kurla Complex, Mumbai - IITM",26-03-2026 08:00:00,19.053536,72.84643,PM10,51,81,72
India,Maharashtra,Mumbai,"Bandra Kurla Complex, Mumbai - IITM",26-03-2026 08:00:00,19.053536,72.84643,SO2,1,2,1
India,Maharashtra,Mumbai,"Bandra Kurla Complex, Mumbai - MPCB",26-03-2026 08:00:00,19.065931,72.862131,SO2,NA,NA,NA
India,Maharashtra,Mumbai,"Borivali East, Mumbai - IITM",26-03-2026 08:00:00,19.23241,72.86895,NH3,2,17,9
India,Maharashtra,Aurangabad,"Rachnakar Colony, Aurangabad - MPCB",26-03-2026 08:00:00,19.863756,75.321188,CO,18,60,26
India,Maharashtra,Badlapur,"Katrap, Badlapur - MPCB",26-03-2026 08:00:00,19.16485,73.23409,PM2.5,47,130,75
India,Maharashtra,Badlapur,"Katrap, Badlapur - MPCB",26-03-2026 08:00:00,19.16485,73.23409,SO2,7,13,8
India,Maharashtra,Belapur,"CBD Belapur, Belapur - MPCB",26-03-2026 08:00:00,19.0243902,73.0406721,CO,25,68,34
India,Maharashtra,Belapur,"CBD Belapur, Belapur - MPCB",26-03-2026 08:00:00,19.0243902,73.0406721,OZONE,7,75,9
India,Maharashtra,Boisar,"Khaira, Boisar - MPCB",26-03-2026 08:00:00,19.786089,72.757971,SO2,7,99,30
India,Maharashtra,Chandrapur,"Chauhan Colony, Chandrapur - MPCB",26-03-2026 08:00:00,19.962900,79.298714,PM2.5,62,109,82
India,Maharashtra,Chandrapur,"Chauhan Colony, Chandrapur - MPCB",26-03-2026 08:00:00,19.962900,79.298714,NH3,1,2,1
India,Maharashtra,Chandrapur,"Chauhan Colony, Chandrapur - MPCB",26-03-2026 08:00:00,19.962900,79.298714,OZONE,9,25,18
India,Maharashtra,Dhule,"Deopur, Dhule - MPCB",26-03-2026 08:00:00,20.918946,74.776388,PM10,72,92,80
India,Maharashtra,Mumbai,"Chhatrapati Shivaji Intl. Airport (T2), Mumbai - MPCB",26-03-2026 08:00:00,19.10078,72.87462,PM2.5,48,103,72
India,Maharashtra,Mumbai,"Chhatrapati Shivaji Intl. Airport (T2), Mumbai - MPCB",26-03-2026 08:00:00,19.10078,72.87462,SO2,7,8,7
India,Maharashtra,Mumbai,"Deonar, Mumbai - IITM",26-03-2026 08:00:00,19.04946,72.9230,PM10,NA,NA,NA
India,Maharashtra,Mumbai,"Ghatkopar, Mumbai - BMC",26-03-2026 08:00:00,19.083694,72.920967,OZONE,3,83,16
India,Maharashtra,Mumbai,"Byculla, Mumbai - BMC",26-03-2026 08:00:00,18.9767,72.8380,CO,43,59,46
India,Maharashtra,Mumbai,"Chakala-Andheri East, Mumbai - IITM",26-03-2026 08:00:00,19.11074,72.86084,NO2,62,99,79
India,Maharashtra,Mumbai,"Chakala-Andheri East, Mumbai - IITM",26-03-2026 08:00:00,19.11074,72.86084,NH3,17,24,20
India,Maharashtra,Mumbai,"Chembur, Mumbai - MPCB",26-03-2026 08:00:00,19.0364585,72.8954371,NO2,20,59,33
India,Maharashtra,Mumbai,"Borivali East, Mumbai - MPCB",26-03-2026 08:00:00,19.2243333,72.8658113,PM2.5,21,66,36
India,Maharashtra,Mumbai,"Powai, Mumbai - MPCB",26-03-2026 08:00:00,19.137500,72.915056,NO2,7,8,7
India,Maharashtra,Mumbai,"Powai, Mumbai - MPCB",26-03-2026 08:00:00,19.137500,72.915056,NH3,2,2,2
India,Maharashtra,Mumbai,"Powai, Mumbai - MPCB",26-03-2026 08:00:00,19.137500,72.915056,SO2,6,13,10
India,Maharashtra,Mumbai,"Sewri, Mumbai - BMC",26-03-2026 08:00:00,19.000084,72.856730,CO,9,40,14
India,Maharashtra,Mumbai,"Shivaji Nagar, Mumbai - BMC",26-03-2026 08:00:00,19.060498,72.923356,PM2.5,25,70,49
India,Maharashtra,Mumbai,"Shivaji Nagar, Mumbai - BMC",26-03-2026 08:00:00,19.060498,72.923356,NH3,2,6,4
India,Maharashtra,Mumbai,"Shivaji Nagar, Mumbai - BMC",26-03-2026 08:00:00,19.060498,72.923356,SO2,1,20,11
India,Maharashtra,Mumbai,"Siddharth Nagar-Worli, Mumbai - IITM",26-03-2026 08:00:00,19.000083,72.813993,OZONE,23,77,67
India,Maharashtra,Mumbai,"Sion, Mumbai - MPCB",26-03-2026 08:00:00,19.047000,72.874600,PM2.5,28,62,49
India,Maharashtra,Mumbai,"Sion, Mumbai - MPCB",26-03-2026 08:00:00,19.047000,72.874600,PM10,41,89,70
India,Maharashtra,Mumbai,"Sion, Mumbai - MPCB",26-03-2026 08:00:00,19.047000,72.874600,NO2,26,32,29
India,Maharashtra,Mumbai,"Sion, Mumbai - MPCB",26-03-2026 08:00:00,19.047000,72.874600,NH3,7,7,7
India,Maharashtra,Nashik,"MIDC Ambad, Nashik - MPCB",26-03-2026 08:00:00,19.950220,73.731480,NO2,6,20,10
India,Maharashtra,Navi Mumbai,"Kopripada-Vashi, Navi Mumbai - MPCB",26-03-2026 08:00:00,19.090337,73.014232,OZONE,1,76,4
India,Maharashtra,Navi Mumbai,"Mahape, Navi Mumbai - MPCB",26-03-2026 08:00:00,19.1135051,73.008978,NH3,1,1,1
India,Maharashtra,Navi Mumbai,"Mahape, Navi Mumbai - MPCB",26-03-2026 08:00:00,19.1135051,73.008978,OZONE,7,14,10
India,Maharashtra,Navi Mumbai,"Nerul, Navi Mumbai - MPCB",26-03-2026 08:00:00,19.008751,73.016620,PM10,NA,NA,NA
India,Maharashtra,Mumbai,"Worli, Mumbai -MPCB",26-03-2026 08:00:00,18.9942180,72.8158167,PM10,16,418,93
India,Maharashtra,Nagpur,"Ambazari, Nagpur - MPCB",26-03-2026 08:00:00,21.121801,79.04952,NO2,7,75,30
India,Maharashtra,Nagpur,"Ambazari, Nagpur - MPCB",26-03-2026 08:00:00,21.121801,79.04952,CO,5,113,22
India,Maharashtra,Nagpur,"Opp GPO Civil Lines, Nagpur - MPCB",26-03-2026 08:00:00,21.152875,79.0517531,NO2,23,85,43
India,Maharashtra,Nagpur,"Opp GPO Civil Lines, Nagpur - MPCB",26-03-2026 08:00:00,21.152875,79.0517531,NH3,3,19,7
India,Maharashtra,Navi Mumbai,"Tondare-Taloja, Navi Mumbai - MPCB",26-03-2026 08:00:00,19.0630,73.1209,PM10,36,88,52
India,Maharashtra,Navi Mumbai,"Tondare-Taloja, Navi Mumbai - MPCB",26-03-2026 08:00:00,19.0630,73.1209,NH3,4,7,5
India,Maharashtra,Parbhani,"Masoom Colony, Parbhani - MPCB",26-03-2026 08:00:00,19.265594,76.761463,NO2,28,97,60
India,Maharashtra,Navi Mumbai,"Sanpada, Navi Mumbai - MPCB",26-03-2026 08:00:00,19.0575752,73.0151367,CO,8,57,36
India,Maharashtra,Navi Mumbai,"Sector-2E Kalamboli, Navi Mumbai - MPCB",26-03-2026 08:00:00,19.02579,73.10297,PM2.5,48,157,80
India,Maharashtra,Navi Mumbai,"Sector-2E Kalamboli, Navi Mumbai - MPCB",26-03-2026 08:00:00,19.02579,73.10297,PM10,39,151,76
India,Maharashtra,Mumbai,"Malad West, Mumbai - IITM",26-03-2026 08:00:00,19.19709,72.82204,OZONE,10,85,33
India,Maharashtra,Mumbai,"Mazgaon, Mumbai - IITM",26-03-2026 08:00:00,18.96702,72.84214,PM2.5,28,57,42
India,Maharashtra,Mumbai,"Mazgaon, Mumbai - IITM",26-03-2026 08:00:00,18.96702,72.84214,SO2,6,12,9
India,Maharashtra,Nagpur,"Ram Nagar, Nagpur - MPCB",26-03-2026 08:00:00,21.143383,79.048912,SO2,4,33,13
India,Maharashtra,Nagpur,"Ram Nagar, Nagpur - MPCB",26-03-2026 08:00:00,21.143383,79.048912,OZONE,4,64,19
India,Maharashtra,Nanded,"Sneh Nagar, Nanded - MPCB",26-03-2026 08:00:00,19.173852,77.296291,NO2,4,60,17
India,Maharashtra,Nashik,"Gangapur Road, Nashik - MPCB",26-03-2026 08:00:00,20.0073285,73.7762427,NO2,5,5,5
India,Maharashtra,Nashik,"MIDC Ambad, Nashik - MPCB",26-03-2026 08:00:00,19.950220,73.731480,PM10,74,119,95
India,Maharashtra,Mumbai,"Mulund West, Mumbai - MPCB",26-03-2026 08:00:00,19.1750,72.9419,PM2.5,41,82,61
India,Maharashtra,Mumbai,"Mulund West, Mumbai - MPCB",26-03-2026 08:00:00,19.1750,72.9419,NH3,2,4,3
India,Maharashtra,Thane,"Kasarvadavali, Thane - MPCB",26-03-2026 08:00:00,19.26777,72.97182,OZONE,3,63,19
India,Maharashtra,Thane,"Upvan Fort, Thane - MPCB",26-03-2026 08:00:00,19.222279,72.957979,NO2,1,23,9
India,Maharashtra,Ulhasnagar,"Sidhi Vinayak Nagar, Ulhasnagar - MPCB",26-03-2026 08:00:00,19.235581,73.159121,PM10,61,151,108
India,Maharashtra,Ulhasnagar,"Vithalwadi, Ulhasnagar - MPCB",26-03-2026 08:00:00,19.2307571 ,73.1551920,PM2.5,13,75,38
India,Maharashtra,Ulhasnagar,"Vithalwadi, Ulhasnagar - MPCB",26-03-2026 08:00:00,19.2307571 ,73.1551920,NO2,13,59,35
India,Maharashtra,Ulhasnagar,"Vithalwadi, Ulhasnagar - MPCB",26-03-2026 08:00:00,19.2307571 ,73.1551920,CO,NA,NA,NA
India,Maharashtra,Virar,"Bolinj, Virar - MPCB",26-03-2026 08:00:00,19.4458210,72.7988231,PM2.5,NA,NA,NA
India,Meghalaya,Shillong,"JN Stadium, Shillong - Meghalaya PCB",26-03-2026 08:00:00,25.5803419,91.8942571,PM10,NA,NA,NA
India,Maharashtra,Sangli,"Vijay Nagar, Sangli - MPCB",26-03-2026 08:00:00, 16.5038,74.3623,NO2,12,90,39
India,Maharashtra,Sangli,"Vijay Nagar, Sangli - MPCB",26-03-2026 08:00:00, 16.5038,74.3623,SO2,4,25,15
India,Maharashtra,Solapur,"Dnyaneshwar Nagar, Solapur - MPCB",26-03-2026 08:00:00,17.6336264,75.9132495,NH3,9,24,12
India,Maharashtra,Solapur,"Dnyaneshwar Nagar, Solapur - MPCB",26-03-2026 08:00:00,17.6336264,75.9132495,CO,10,45,25
India,Maharashtra,Solapur,"Ratandeep Housing Society, Solapur - MPCB",26-03-2026 08:00:00,17.65439,75.90649,OZONE,5,43,14
India,Maharashtra,Thane,"Kasarvadavali, Thane - MPCB",26-03-2026 08:00:00,19.26777,72.97182,PM10,60,94,74
India,Maharashtra,Thane,"Kasarvadavali, Thane - MPCB",26-03-2026 08:00:00,19.26777,72.97182,NH3,4,10,5
India,Maharashtra,Pune,"Hadapsar, Pune - IITM",26-03-2026 08:00:00,18.501793,73.927532,PM2.5,62,230,119
India,Maharashtra,Pune,"Katraj Dairy, Pune - MPCB",26-03-2026 08:00:00,18.454450,73.854155,NH3,3,10,5
India,Maharashtra,Pune,"Mhada Colony, Pune - IITM",26-03-2026 08:00:00,18.573040,73.927715,OZONE,6,89,10
India,Maharashtra,Pune,"Revenue Colony-Shivajinagar, Pune - IITM",26-03-2026 08:00:00,18.530085,73.849598,SO2,15,52,28
India,Maharashtra,Pune,"Savitribai Phule Pune University, Pune - MPCB",26-03-2026 08:00:00,18.547056,73.826908,NO2,NA,NA,NA
India,Maharashtra,Pune,"Savitribai Phule Pune University, Pune - MPCB",26-03-2026 08:00:00,18.547056,73.826908,NH3,NA,NA,NA
India,Maharashtra,Pimpri-Chinchwad,"Savta Mali Nagar, Pimpri-Chinchwad - IITM",26-03-2026 08:00:00,18.614767,73.799516,PM10,84,175,115
India,Maharashtra,Pimpri-Chinchwad,"Thergaon, Pimpri Chinchwad - MPCB",26-03-2026 08:00:00,18.616318,73.765797,PM2.5,34,181,73
India,Maharashtra,Pimpri-Chinchwad,"Thergaon, Pimpri Chinchwad - MPCB",26-03-2026 08:00:00,18.616318,73.765797,OZONE,21,75,32
India,Maharashtra,Pune,"Bhosari, Pune - IITM",26-03-2026 08:00:00,18.640051,73.848956,PM2.5,35,108,66
India,Maharashtra,Pune,"Bhosari, Pune - IITM",26-03-2026 08:00:00,18.640051,73.848956,PM10,56,104,76
India,Mizoram,Aizawl,"Sikulpuikawn, Aizawl - Mizoram PCB",26-03-2026 08:00:00,23.7176342,92.7192841,PM2.5,36,71,58
India,Odisha,Angul,"Hakimapada, Angul - OSPCB",26-03-2026 08:00:00,20.832874,85.104082,OZONE,2,197,8
India,Odisha,Barbil,"Forest Office, Barbil - OSPCB",26-03-2026 08:00:00,22.1166054,85.3945546,PM10,96,350,157
India,Odisha,Brajrajnagar,"GM Office, Brajrajnagar - OSPCB",26-03-2026 08:00:00,21.8004996,83.8396977,PM10,63,285,121
India,Odisha,Brajrajnagar,"GM Office, Brajrajnagar - OSPCB",26-03-2026 08:00:00,21.8004996,83.8396977,SO2,17,20,18
India,Odisha,Byasanagar,"Ferro Chrome Colony, Byasanagar - OSPCB",26-03-2026 08:00:00,20.94185,86.11510,PM2.5,NA,NA,NA
India,Odisha,Byasanagar,"Ferro Chrome Colony, Byasanagar - OSPCB",26-03-2026 08:00:00,20.94185,86.11510,NO2,4,35,13
India,Odisha,Baripada,"Meher Colony, Baripada - OSPCB",26-03-2026 08:00:00,21.941841,86.728318,NH3,1,3,2
India,Odisha,Baripada,"Meher Colony, Baripada - OSPCB",26-03-2026 08:00:00,21.941841,86.728318,OZONE,5,68,20
India,Odisha,Bhubaneswar,"Patia, Bhubaneswar - OSPCB",26-03-2026 08:00:00,20.34652,85.81630,PM2.5,32,90,50
India,Maharashtra,Parbhani,"Masoom Colony, Parbhani - MPCB",26-03-2026 08:00:00,19.265594,76.761463,CO,8,15,11
India,Maharashtra,Pimpri-Chinchwad,"Gavalinagar, Pimpri Chinchwad - MPCB",26-03-2026 08:00:00,18.63673,73.82487,OZONE,2,74,5
India,Odisha,Cuttack,"CDA Area, Cuttack - OSPCB",26-03-2026 08:00:00,20.48891     ,85.84768     ,NO2,5,8,7
India,Odisha,Cuttack,"CDA Area, Cuttack - OSPCB",26-03-2026 08:00:00,20.48891     ,85.84768     ,OZONE,12,71,22
India,Odisha,Keonjhar,"Jagamohanpur, Keonjhar - OSPCB",26-03-2026 08:00:00,21.643900,85.599355,PM10,54,113,89
India,Odisha,Keonjhar,"Jagamohanpur, Keonjhar - OSPCB",26-03-2026 08:00:00,21.643900,85.599355,NH3,5,5,5
India,Odisha,Nayagarh,"Dabuna, Nayagarh - OSPCB",26-03-2026 08:00:00,21.847279,85.416905,OZONE,12,18,14
India,Odisha,Rairangpur,"Divisional Forest Office, Rairangpur - OSPCB",26-03-2026 08:00:00,22.265816,86.174829,PM2.5,15,79,38
India,Odisha,Rairangpur,"Divisional Forest Office, Rairangpur - OSPCB",26-03-2026 08:00:00,22.265816,86.174829,NH3,1,1,1
India,Odisha,Rourkela,"Raghunathpali, Rourkela - OSPCB",26-03-2026 08:00:00,22.220833,84.809444,PM2.5,76,254,151
India,Odisha,Rourkela,"Raghunathpali, Rourkela - OSPCB",26-03-2026 08:00:00,22.220833,84.809444,SO2,5,7,6
India,Odisha,Rourkela,"Sector-2, Rourkela - OSPCB",26-03-2026 08:00:00,22.24500000,84.88111111,PM2.5,43,86,51
India,Odisha,Rourkela,"Sector-2, Rourkela - OSPCB",26-03-2026 08:00:00,22.24500000,84.88111111,PM10,46,77,64
India,Odisha,Rourkela,"Sector-2, Rourkela - OSPCB",26-03-2026 08:00:00,22.24500000,84.88111111,NO2,17,17,17
India,Odisha,Suakati,"OMC Colony, Suakati - OSPCB",26-03-2026 08:00:00,21.606865,85.510538,PM10,103,135,116
India,Odisha,Suakati,"OMC Colony, Suakati - OSPCB",26-03-2026 08:00:00,21.606865,85.510538,SO2,14,43,23
India,Odisha,Talcher,"Talcher Coalfields,Talcher - OSPCB",26-03-2026 08:00:00,20.9360711,85.1707021,PM2.5,4,162,62
India,Puducherry,Puducherry,"Jawahar Nagar, Puducherry - PPCC",26-03-2026 08:00:00,11.9309,79.8027,PM10,18,82,31
India,Punjab,Ludhiana,"Punjab Agricultural University, Ludhiana - PPCB",26-03-2026 08:00:00,30.9028,75.8086,NH3,7,8,8
India,Punjab,Ludhiana,"Punjab Agricultural University, Ludhiana - PPCB",26-03-2026 08:00:00,30.9028,75.8086,SO2,20,41,28
India,Punjab,Ludhiana,"Punjab Agricultural University, Ludhiana - PPCB",26-03-2026 08:00:00,30.9028,75.8086,OZONE,24,59,29
India,Punjab,Mandi Gobindgarh,"RIMT University, Mandi Gobindgarh - PPCB",26-03-2026 08:00:00,30.649961,76.331442,PM2.5,22,243,90
India,Punjab,Patiala,"Model Town, Patiala - PPCB",26-03-2026 08:00:00,30.349388,76.366642,PM10,48,116,80
India,Punjab,Patiala,"Model Town, Patiala - PPCB",26-03-2026 08:00:00,30.349388,76.366642,OZONE,16,53,17
India,Rajasthan,Ajmer,"Civil Lines,  Ajmer - RSPCB",26-03-2026 08:00:00,26.470859,74.646594,PM2.5,49,91,66
India,Rajasthan,Ajmer,"Civil Lines,  Ajmer - RSPCB",26-03-2026 08:00:00,26.470859,74.646594,SO2,3,4,3
India,Rajasthan,Baran,"Bamboliya, Baran - RSPCB",26-03-2026 08:00:00,25.106006,76.469948,PM2.5,20,77,49
India,Rajasthan,Baran,"Bamboliya, Baran - RSPCB",26-03-2026 08:00:00,25.106006,76.469948,NH3,2,9,5
India,Punjab,Khanna,"Kalal Majra, Khanna - PPCB",26-03-2026 08:00:00,30.736056 ,76.209694,PM10,42,91,59
India,Punjab,Khanna,"Kalal Majra, Khanna - PPCB",26-03-2026 08:00:00,30.736056 ,76.209694,NO2,24,30,28
India,Punjab,Mandi Gobindgarh,"RIMT University, Mandi Gobindgarh - PPCB",26-03-2026 08:00:00,30.649961,76.331442,PM10,25,164,87
India,Punjab,Amritsar,"Golden Temple, Amritsar - PPCB",26-03-2026 08:00:00,31.620000,74.876512,OZONE,31,44,38
India,Punjab,Bathinda,"Hardev Nagar, Bathinda - PPCB",26-03-2026 08:00:00,30.233011,74.907758,CO,46,79,78
India,Rajasthan,Dholpur,"Raja Ganj, Dholpur - RSPCB",26-03-2026 08:00:00,26.699557,77.898881,NO2,18,87,43
India,Rajasthan,Dholpur,"Raja Ganj, Dholpur - RSPCB",26-03-2026 08:00:00,26.699557,77.898881,SO2,7,11,9
India,Rajasthan,Dungarpur,"Bhoiwada, Dungarpur - RSPCB",26-03-2026 08:00:00,23.837789,73.714926,NO2,16,26,20
India,Rajasthan,Hanumangarh,"Housing Board, Hanumangarh - RSPCB",26-03-2026 08:00:00,29.610750,74.283608,SO2,4,14,7
India,Rajasthan,Jaipur,"Adarsh Nagar, Jaipur - RSPCB",26-03-2026 08:00:00,26.902909,75.836858,NO2,13,56,25
India,Rajasthan,Jaipur,"Mansarovar Sector-12, Jaipur - RSPCB",26-03-2026 08:00:00,26.843698,75.766894,NO2,46,69,57
India,Rajasthan,Jaipur,"Mansarovar Sector-12, Jaipur - RSPCB",26-03-2026 08:00:00,26.843698,75.766894,NH3,8,10,9
India,Rajasthan,Jaipur,"Mansarovar Sector-12, Jaipur - RSPCB",26-03-2026 08:00:00,26.843698,75.766894,CO,38,105,45
India,Rajasthan,Jaipur,"Police Commissionerate, Jaipur - RSPCB",26-03-2026 08:00:00,26.9164092,75.7994901,SO2,22,38,28
India,Rajasthan,Jodhpur,"Jhalamand, Jodhpur - RSPCB",26-03-2026 08:00:00,26.215415,73.070156,SO2,2,8,4
India,Rajasthan,Jodhpur,"Mandor, Jodhpur - RSPCB",26-03-2026 08:00:00,26.358805,73.047444,PM10,23,138,54
India,Rajasthan,Jodhpur,"Mandor, Jodhpur - RSPCB",26-03-2026 08:00:00,26.358805,73.047444,NH3,NA,NA,NA
India,Rajasthan,Jodhpur,"Samrat Ashok Udhyan, Jodhpur - RSPCB",26-03-2026 08:00:00,26.253384,72.976571,NH3,6,8,7
India,Rajasthan,Jodhpur,"Samrat Ashok Udhyan, Jodhpur - RSPCB",26-03-2026 08:00:00,26.253384,72.976571,CO,11,27,16
India,Rajasthan,Kota,"Dhanmandi, Kota - RSPCB",26-03-2026 08:00:00,25.164090,75.858137,PM2.5,30,240,111
India,Rajasthan,Kota,"Dhanmandi, Kota - RSPCB",26-03-2026 08:00:00,25.164090,75.858137,SO2,11,110,39
India,Rajasthan,Kota,"Nayapura, Kota - RSPCB",26-03-2026 08:00:00,25.196024,75.855668,PM10,51,242,120
India,Rajasthan,Kota,"Nayapura, Kota - RSPCB",26-03-2026 08:00:00,25.196024,75.855668,NO2,13,120,66
India,Rajasthan,Bundi,"New Colony, Bundi - RSPCB",26-03-2026 08:00:00,25.435774,75.644272,NH3,3,6,5
India,Rajasthan,Bundi,"New Colony, Bundi - RSPCB",26-03-2026 08:00:00,25.435774,75.644272,OZONE,16,132,38
India,Rajasthan,Chittorgarh,"Shastri Nagar, Chittorgarh - RSPCB",26-03-2026 08:00:00,24.892047,74.623527,SO2,1,124,20
India,Rajasthan,Churu,"Subash Chowk, Churu - RSPCB",26-03-2026 08:00:00,28.296139,74.961696,PM10,42,477,145
India,Rajasthan,Churu,"Subash Chowk, Churu - RSPCB",26-03-2026 08:00:00,28.296139,74.961696,CO,15,41,29
India,Rajasthan,Dholpur,"Raja Ganj, Dholpur - RSPCB",26-03-2026 08:00:00,26.699557,77.898881,PM2.5,8,190,59
India,Rajasthan,Baran,"Bamboliya, Baran - RSPCB",26-03-2026 08:00:00,25.106006,76.469948,CO,6,30,20
India,Rajasthan,Barmer,"Railway Colony, Barmer - RSPCB",26-03-2026 08:00:00,25.747299,71.393989,SO2,3,7,4
India,Rajasthan,Bharatpur,"Krishna Nagar, Bharatpur - RSPCB",26-03-2026 08:00:00,27.215415,77.50873,SO2,4,41,10
India,Rajasthan,Bhilwara,"Pratap Nagar, Bhilwara - RSPCB",26-03-2026 08:00:00,25.339605,74.618883,CO,17,104,38
India,Rajasthan,Bhiwadi,"RIICO Ind. Area III, Bhiwadi - RSPCB",26-03-2026 08:00:00,28.194909,76.862296,PM2.5,54,311,172
India,Rajasthan,Jaipur,"Shastri Nagar, Jaipur - RSPCB",26-03-2026 08:00:00,26.9502929,75.730943,NH3,7,16,10
India,Rajasthan,Jaipur,"Shastri Nagar, Jaipur - RSPCB",26-03-2026 08:00:00,26.9502929,75.730943,OZONE,17,55,28
India,Rajasthan,Jaisalmer,"Sadar Bazar, Jaisalmer - RSPCB",26-03-2026 08:00:00,26.912329,70.909168,NO2,13,34,19
India,Rajasthan,Jalore,"Mudtra Sili, Jalore - RSPCB",26-03-2026 08:00:00,25.344694,72.626208,PM10,42,196,67
India,Rajasthan,Jalore,"Mudtra Sili, Jalore - RSPCB",26-03-2026 08:00:00,25.344694,72.626208,NH3,4,6,5
India,Rajasthan,Nagaur,"Karni Colony, Nagaur - RSPCB",26-03-2026 08:00:00,27.213494,73.734444,CO,9,23,13
India,Rajasthan,Nagaur,"Karni Colony, Nagaur - RSPCB",26-03-2026 08:00:00,27.213494,73.734444,OZONE,52,96,65
India,Rajasthan,Pali,"Indira Colony Vistar, Pali - RSPCB",26-03-2026 08:00:00,25.771061, 73.340227,PM2.5,42,170,75
India,Rajasthan,Pratapgarh,"Pragati Nagar, Pratapgarh - RSPCB",26-03-2026 08:00:00,24.041198,74.780702,SO2,3,9,6
India,Rajasthan,Jhalawar,"Rajlaxmi Nagar, Jhalawar - RSPCB",26-03-2026 08:00:00,24.588397,76.172782,SO2,8,26,16
India,Rajasthan,Jodhpur,"Collectorate, Jodhpur - RSPCB",26-03-2026 08:00:00,26.268249,73.0193853,PM2.5,39,81,49
India,Rajasthan,Jodhpur,"Collectorate, Jodhpur - RSPCB",26-03-2026 08:00:00,26.268249,73.0193853,SO2,3,11,7
India,Rajasthan,Jaipur,"Sector-2 Murlipura, Jaipur - RSPCB",26-03-2026 08:00:00,26.960669,75.771817,PM2.5,11,157,85
India,Rajasthan,Jaipur,"Sector-2 Murlipura, Jaipur - RSPCB",26-03-2026 08:00:00,26.960669,75.771817,NO2,15,95,40
India,Rajasthan,Kota,"Shrinath Puram, Kota - RSPCB",26-03-2026 08:00:00,25.14389,75.821256,CO,4,108,27
India,TamilNadu,Coimbatore,"SIDCO Kurichi, Coimbatore - TNPCB",26-03-2026 08:00:00,10.942451,76.978996,OZONE,19,20,20
India,TamilNadu,Perundurai,"SIPCOT Industrial Park, Perundurai - TNPCB",26-03-2026 08:00:00,11.258242,77.552761,CO,36,56,40
India,TamilNadu,Thoothukudi,"Meelavittan, Thoothukudi - TNPCB",26-03-2026 08:00:00,8.816428 ,78.099039,PM10,23,77,38
India,TamilNadu,Thoothukudi,"Meelavittan, Thoothukudi - TNPCB",26-03-2026 08:00:00,8.816428 ,78.099039,NO2,11,22,15
India,TamilNadu,Thoothukudi,"Meelavittan, Thoothukudi - TNPCB",26-03-2026 08:00:00,8.816428 ,78.099039,SO2,2,20,11
India,Telangana,Hyderabad,"Central University, Hyderabad - TSPCB",26-03-2026 08:00:00,17.460103,78.334361,SO2,NA,NA,NA
India,Telangana,Hyderabad,"ICRISAT Patancheru, Hyderabad - TSPCB",26-03-2026 08:00:00,17.518400,78.278777,NO2,2,18,9
India,Telangana,Hyderabad,"ICRISAT Patancheru, Hyderabad - TSPCB",26-03-2026 08:00:00,17.518400,78.278777,CO,10,82,48
India,Telangana,Hyderabad,"ICRISAT Patancheru, Hyderabad - TSPCB",26-03-2026 08:00:00,17.518400,78.278777,OZONE,9,77,25
India,Telangana,Hyderabad,"IITH Kandi, Hyderabad - TSPCB",26-03-2026 08:00:00,17.585705,78.126199,PM2.5,40,80,52
India,Telangana,Hyderabad,"IITH Kandi, Hyderabad - TSPCB",26-03-2026 08:00:00,17.585705,78.126199,PM10,74,80,76
India,Telangana,Hyderabad,"Kokapet, Hyderabad - TSPCB",26-03-2026 08:00:00,17.393559,78.339194,CO,22,36,22
India,Telangana,Hyderabad,"Nacharam_TSIIC IALA, Hyderabad - TSPCB",26-03-2026 08:00:00,17.429398,78.569354,PM10,77,96,89
India,Telangana,Hyderabad,"Nacharam_TSIIC IALA, Hyderabad - TSPCB",26-03-2026 08:00:00,17.429398,78.569354,OZONE,20,34,21
India,Telangana,Hyderabad,"New Malakpet, Hyderabad - TSPCB",26-03-2026 08:00:00,17.37206,78.50864,PM2.5,34,147,60
India,Sikkim,Gangtok,"Zero Point GICI, Gangtok - SSPCB",26-03-2026 08:00:00,27.338530,88.614099,NH3,1,27,2
India,TamilNadu,Chennai,"Kodungaiyur, Chennai - TNPCB",26-03-2026 08:00:00,13.1278,80.2642,NH3,3,5,4
India,TamilNadu,Chennai,"Kodungaiyur, Chennai - TNPCB",26-03-2026 08:00:00,13.1278,80.2642,OZONE,27,33,30
India,TamilNadu,Chennai,"Manali, Chennai - CPCB",26-03-2026 08:00:00,13.164544,80.26285,PM2.5,9,130,43
India,TamilNadu,Chennai,"Manali, Chennai - CPCB",26-03-2026 08:00:00,13.164544,80.26285,NO2,9,20,13
India,Rajasthan,Sri Ganganagar,"Old City, Sri Ganganagar - RSPCB",26-03-2026 08:00:00,29.931624,73.864511,SO2,2,5,3
India,Rajasthan,Tonk,"Shastri Nagar, Tonk - RSPCB",26-03-2026 08:00:00,26.159933,75.780517,NH3,8,12,9
India,Rajasthan,Udaipur,"Ashok Nagar, Udaipur - RSPCB",26-03-2026 08:00:00,24.5886166,73.6321397,PM2.5,42,104,72
India,Telangana,Hyderabad,"Ramachandrapuram, Hyderabad - TSPCB",26-03-2026 08:00:00,17.528544,78.286195,PM2.5,40,55,45
India,Telangana,Hyderabad,"Ramachandrapuram, Hyderabad - TSPCB",26-03-2026 08:00:00,17.528544,78.286195,PM10,78,93,85
India,Telangana,Hyderabad,"Ramachandrapuram, Hyderabad - TSPCB",26-03-2026 08:00:00,17.528544,78.286195,SO2,12,20,15
India,Telangana,Hyderabad,"Sanathnagar, Hyderabad - TSPCB",26-03-2026 08:00:00,17.4559458,78.4332152,PM2.5,37,71,49
India,Rajasthan,Rajsamand,"Dhoinda, Rajsamand - RSPCB",26-03-2026 08:00:00,25.036360,73.883502,NO2,4,45,19
India,Rajasthan,Rajsamand,"Dhoinda, Rajsamand - RSPCB",26-03-2026 08:00:00,25.036360,73.883502,NH3,10,24,16
India,Rajasthan,Sawai Madhopur,"Sahu Nagar, Sawai Madhopur - RSPCB",26-03-2026 08:00:00,26.031443,76.359327,PM2.5,9,123,41
India,TamilNadu,Chennai,"Royapuram, Chennai - TNPCB",26-03-2026 08:00:00,13.1036,80.2909,CO,20,26,24
India,TamilNadu,Chennai,"Velachery Res. Area, Chennai - CPCB",26-03-2026 08:00:00,13.0052189,80.2398125,PM2.5,NA,NA,NA
India,TamilNadu,Chennai,"Perungudi, Chennai - TNPCB",26-03-2026 08:00:00,12.9533,80.2357,PM10,28,103,58
India,TamilNadu,Chennai,"Royapuram, Chennai - TNPCB",26-03-2026 08:00:00,13.1036,80.2909,PM10,20,362,48
India,Rajasthan,Udaipur,"Ashok Nagar, Udaipur - RSPCB",26-03-2026 08:00:00,24.5886166,73.6321397,NH3,1,16,4
India,Uttar_Pradesh,Lucknow,"Talkatora District Industries Center, Lucknow - CPCB",26-03-2026 08:00:00,26.83399722,80.8917361,PM10,86,117,100
India,Uttar_Pradesh,Lucknow,"Talkatora District Industries Center, Lucknow - CPCB",26-03-2026 08:00:00,26.83399722,80.8917361,NO2,44,48,46
India,Uttar_Pradesh,Lucknow,"Talkatora District Industries Center, Lucknow - CPCB",26-03-2026 08:00:00,26.83399722,80.8917361,SO2,1,9,6
India,Uttar_Pradesh,Lucknow,"Talkatora District Industries Center, Lucknow - CPCB",26-03-2026 08:00:00,26.83399722,80.8917361,CO,9,38,18
India,Uttar_Pradesh,Meerut,"Ganga Nagar, Meerut - UPPCB",26-03-2026 08:00:00,28.999264,77.7590354,PM10,81,190,126
India,Uttar_Pradesh,Meerut,"Ganga Nagar, Meerut - UPPCB",26-03-2026 08:00:00,28.999264,77.7590354,SO2,18,23,20
India,Uttar_Pradesh,Meerut,"Jai Bhim Nagar, Meerut - UPPCB",26-03-2026 08:00:00,28.9535882,77.7622941,NO2,18,47,32
India,Uttar_Pradesh,Meerut,"Jai Bhim Nagar, Meerut - UPPCB",26-03-2026 08:00:00,28.9535882,77.7622941,NH3,6,9,7
India,Uttar_Pradesh,Meerut,"Jai Bhim Nagar, Meerut - UPPCB",26-03-2026 08:00:00,28.9535882,77.7622941,SO2,6,9,7
India,Uttar_Pradesh,Meerut,"Pallavpuram Phase 2, Meerut - UPPCB",26-03-2026 08:00:00,29.063510,77.709723,PM2.5,48,314,107
India,Uttar_Pradesh,Meerut,"Pallavpuram Phase 2, Meerut - UPPCB",26-03-2026 08:00:00,29.063510,77.709723,PM10,50,200,126
India,Uttar_Pradesh,Meerut,"Pallavpuram Phase 2, Meerut - UPPCB",26-03-2026 08:00:00,29.063510,77.709723,SO2,2,27,14
India,Uttar_Pradesh,Moradabad,"Buddhi Vihar, Moradabad - UPPCB",26-03-2026 08:00:00,28.83526,78.74460,NO2,28,29,29
India,Uttar_Pradesh,Moradabad,"Eco Herbal Park, Moradabad - UPPCB",26-03-2026 08:00:00,28.840739,78.697531,NH3,3,7,5
India,Uttar_Pradesh,Lucknow,"B R Ambedkar University, Lucknow - UPPCB",26-03-2026 08:00:00,26.766433,80.927299,PM10,22,143,87
India,Uttar_Pradesh,Lucknow,"Gomti Nagar, Lucknow - UPPCB",26-03-2026 08:00:00,26.868120,81.005119,NO2,8,10,9
India,Uttar_Pradesh,Lucknow,"Gomti Nagar, Lucknow - UPPCB",26-03-2026 08:00:00,26.868120,81.005119,CO,35,42,36
India,Uttar_Pradesh,Lucknow,"Gomti Nagar, Lucknow - UPPCB",26-03-2026 08:00:00,26.868120,81.005119,OZONE,34,46,35
India,Uttar_Pradesh,Lucknow,"Kendriya Vidyalaya, Lucknow - CPCB",26-03-2026 08:00:00,26.906111,80.948222,PM2.5,NA,NA,NA
India,Uttar_Pradesh,Lucknow,"Kendriya Vidyalaya, Lucknow - CPCB",26-03-2026 08:00:00,26.906111,80.948222,CO,29,50,29
India,Uttar_Pradesh,Lucknow,"Lalbagh, Lucknow - CPCB",26-03-2026 08:00:00,26.8458805,80.9365541,OZONE,7,36,13
India,Uttar_Pradesh,Lucknow,"Talkatora District Industries Center, Lucknow - CPCB",26-03-2026 08:00:00,26.83399722,80.8917361,PM2.5,76,177,119
India,Uttar_Pradesh,Firozabad,"Nagla Bhau, Firozabad - UPPCB",26-03-2026 08:00:00,27.168897,78.376960,NO2,17,17,17
India,Uttar_Pradesh,Firozabad,"Vibhab Nagar, Firozabad - UPPCB",26-03-2026 08:00:00,27.1594,78.3953,PM10,46,183,93
India,Uttar_Pradesh,Firozabad,"Vibhab Nagar, Firozabad - UPPCB",26-03-2026 08:00:00,27.1594,78.3953,NH3,2,2,2
India,Uttar_Pradesh,Firozabad,"Vibhab Nagar, Firozabad - UPPCB",26-03-2026 08:00:00,27.1594,78.3953,CO,14,18,16
India,Uttar_Pradesh,Ghaziabad,"Indirapuram, Ghaziabad - UPPCB",26-03-2026 08:00:00,28.646233,77.358075,SO2,18,22,21
India,Uttar_Pradesh,Ghaziabad,"Loni, Ghaziabad - UPPCB",26-03-2026 08:00:00,28.757294,77.278792,PM10,114,419,232
India,Uttar_Pradesh,Ghaziabad,"Loni, Ghaziabad - UPPCB",26-03-2026 08:00:00,28.757294,77.278792,SO2,4,28,18
India,Uttar_Pradesh,Ghaziabad,"Vasundhara, Ghaziabad - UPPCB",26-03-2026 08:00:00,28.6603346,77.3572563,PM2.5,60,359,223
India,Uttar_Pradesh,Hapur,"Anand Vihar, Hapur - UPPCB",26-03-2026 08:00:00,28.725645,77.749675,NH3,6,11,8
India,Uttar_Pradesh,Hapur,"Anand Vihar, Hapur - UPPCB",26-03-2026 08:00:00,28.725645,77.749675,SO2,21,89,52
India,Uttar_Pradesh,Kanpur,"FTI Kidwai Nagar, Kanpur - UPPCB",26-03-2026 08:00:00,26.428282,80.327067,PM2.5,21,140,66
India,Uttar_Pradesh,Kanpur,"FTI Kidwai Nagar, Kanpur - UPPCB",26-03-2026 08:00:00,26.428282,80.327067,CO,32,46,41
India,Uttar_Pradesh,Kanpur,"NSI Kalyanpur, Kanpur - UPPCB",26-03-2026 08:00:00,26.509954,80.249612,NH3,2,2,2
India,Uttar_Pradesh,Kanpur,"NSI Kalyanpur, Kanpur - UPPCB",26-03-2026 08:00:00,26.509954,80.249612,SO2,5,13,8
India,Uttar_Pradesh,Kanpur,"NSI Kalyanpur, Kanpur - UPPCB",26-03-2026 08:00:00,26.509954,80.249612,CO,14,62,33
India,Uttar_Pradesh,Kanpur,"Nehru Nagar, Kanpur - UPPCB",26-03-2026 08:00:00,26.4703136,80.3229863,CO,8,109,74
India,Uttar_Pradesh,Agra,"Shahjahan Garden, Agra - UPPCB",26-03-2026 08:00:00,27.169338,78.03582,OZONE,NA,NA,NA
India,Uttar_Pradesh,Agra,"Shastripuram, Agra - UPPCB",26-03-2026 08:00:00,27.19862,77.92066,NO2,24,34,26
India,Uttar_Pradesh,Baghpat,"Sardar Patel Inter College, Baghpat - UPPCB",26-03-2026 08:00:00,28.964949,77.278761,SO2,16,71,36
India,Uttar_Pradesh,Bareilly,"Civil Lines, Bareilly - UPPCB",26-03-2026 08:00:00,28.359581,79.414455,PM10,30,120,46
India,Uttar_Pradesh,Bareilly,"Civil Lines, Bareilly - UPPCB",26-03-2026 08:00:00,28.359581,79.414455,CO,38,55,54
India,Uttar_Pradesh,Bareilly,"Rajendra Nagar, Bareilly - UPPCB",26-03-2026 08:00:00,28.38910936,79.42963708,NH3,1,1,1
India,Uttar_Pradesh,Agra,"Manoharpur, Agra - UPPCB",26-03-2026 08:00:00,27.23711,78.01936,CO,20,20,20
India,Uttar_Pradesh,Agra,"Manoharpur, Agra - UPPCB",26-03-2026 08:00:00,27.23711,78.01936,OZONE,6,6,6
India,Uttar_Pradesh,Agra,"Rohta, Agra - UPPCB",26-03-2026 08:00:00,27.106972,78.000111,PM10,40,458,129
India,Uttar_Pradesh,Agra,"Rohta, Agra - UPPCB",26-03-2026 08:00:00,27.106972,78.000111,NH3,5,6,5
India,Uttar_Pradesh,Greater Noida,"Knowledge Park - III, Greater Noida - UPPCB",26-03-2026 08:00:00,28.47272,77.482000,CO,20,73,37
India,Uttar_Pradesh,Greater Noida,"Knowledge Park - III, Greater Noida - UPPCB",26-03-2026 08:00:00,28.47272,77.482000,OZONE,3,138,10
India,Uttar_Pradesh,Greater Noida,"Knowledge Park - V, Greater Noida - UPPCB",26-03-2026 08:00:00,28.557054,77.453663,SO2,10,51,20
India,Uttar_Pradesh,Agra,"Sector-3B Avas Vikas Colony, Agra - UPPCB",26-03-2026 08:00:00,27.19412,77.96237,CO,2,48,36
India,Uttar_Pradesh,Agra,"Shahjahan Garden, Agra - UPPCB",26-03-2026 08:00:00,27.169338,78.03582,PM2.5,1,88,46
India,Telangana,Hyderabad,"Somajiguda, Hyderabad - TSPCB",26-03-2026 08:00:00,17.417094,78.457437,NO2,12,19,15
India,Telangana,Hyderabad,"Somajiguda, Hyderabad - TSPCB",26-03-2026 08:00:00,17.417094,78.457437,SO2,16,19,17
India,Telangana,Hyderabad,"Zoo Park, Hyderabad - TSPCB",26-03-2026 08:00:00,17.349694,78.451437,SO2,NA,NA,NA
India,Uttar_Pradesh,Moradabad,"Jigar Colony, Moradabad - UPPCB",26-03-2026 08:00:00,28.856664,78.772638,CO,39,40,40
India,Uttar_Pradesh,Moradabad,"Jigar Colony, Moradabad - UPPCB",26-03-2026 08:00:00,28.856664,78.772638,OZONE,17,27,17
India,Uttar_Pradesh,Moradabad,"Kashiram Nagar, Moradabad - UPPCB",26-03-2026 08:00:00,28.849399,78.742362,PM10,26,93,66
India,Uttar_Pradesh,Muzaffarnagar,"New Mandi, Muzaffarnagar - UPPCB",26-03-2026 08:00:00,29.4723508,77.7194031,PM2.5,37,175,101
India,Uttar_Pradesh,Muzaffarnagar,"New Mandi, Muzaffarnagar - UPPCB",26-03-2026 08:00:00,29.4723508,77.7194031,PM10,70,144,113
India,Uttar_Pradesh,Muzaffarnagar,"New Mandi, Muzaffarnagar - UPPCB",26-03-2026 08:00:00,29.4723508,77.7194031,NO2,23,70,35
India,Uttar_Pradesh,Muzaffarnagar,"New Mandi, Muzaffarnagar - UPPCB",26-03-2026 08:00:00,29.4723508,77.7194031,NH3,7,10,9
India,Uttar_Pradesh,Noida,"Sector - 125, Noida - UPPCB",26-03-2026 08:00:00,28.5447608,77.3231257,PM10,86,391,168
India,Uttar_Pradesh,Noida,"Sector-1, Noida - UPPCB",26-03-2026 08:00:00,28.5898,77.3101,NO2,NA,NA,NA
India,Uttar_Pradesh,Noida,"Sector-1, Noida - UPPCB",26-03-2026 08:00:00,28.5898,77.3101,SO2,NA,NA,NA
India,Uttar_Pradesh,Noida,"Sector-1, Noida - UPPCB",26-03-2026 08:00:00,28.5898,77.3101,CO,40,107,84
India,Uttar_Pradesh,Prayagraj,"Jhunsi, Prayagraj - UPPCB",26-03-2026 08:00:00,25.425602,81.917152,PM10,43,117,75
India,Uttar_Pradesh,Prayagraj,"Jhunsi, Prayagraj - UPPCB",26-03-2026 08:00:00,25.425602,81.917152,SO2,16,28,18
India,Uttar_Pradesh,Prayagraj,"Jhunsi, Prayagraj - UPPCB",26-03-2026 08:00:00,25.425602,81.917152,CO,7,45,37
India,Uttar_Pradesh,Prayagraj,"Motilal Nehru NIT, Prayagraj - UPPCB",26-03-2026 08:00:00,25.494,81.863,PM10,22,102,61
India,Uttar_Pradesh,Prayagraj,"Motilal Nehru NIT, Prayagraj - UPPCB",26-03-2026 08:00:00,25.494,81.863,SO2,23,28,27
India,Uttar_Pradesh,Prayagraj,"Motilal Nehru NIT, Prayagraj - UPPCB",26-03-2026 08:00:00,25.494,81.863,CO,10,34,30
India,Uttar_Pradesh,Prayagraj,"Motilal Nehru NIT, Prayagraj - UPPCB",26-03-2026 08:00:00,25.494,81.863,OZONE,6,55,9
India,Uttar_Pradesh,Raebareli," Indira Nagar, Raebareli - NTPC Unchahar",26-03-2026 08:00:00,26.207781,81.245571,NO2,15,23,18
India,Uttar_Pradesh,Raebareli," Indira Nagar, Raebareli - NTPC Unchahar",26-03-2026 08:00:00,26.207781,81.245571,NH3,8,11,9
India,Uttar_Pradesh,Varanasi,"Ardhali Bazar, Varanasi - UPPCB",26-03-2026 08:00:00,25.3505986,82.9083074,OZONE,15,28,24
India,Uttar_Pradesh,Varanasi,"Bhelupur, Varanasi - UPPCB",26-03-2026 08:00:00,25.301778,82.996789,PM2.5,25,95,48
India,Uttar_Pradesh,Varanasi,"Bhelupur, Varanasi - UPPCB",26-03-2026 08:00:00,25.301778,82.996789,PM10,76,236,129
India,Uttar_Pradesh,Varanasi,"Bhelupur, Varanasi - UPPCB",26-03-2026 08:00:00,25.301778,82.996789,NO2,8,8,8
India,Uttar_Pradesh,Varanasi,"Bhelupur, Varanasi - UPPCB",26-03-2026 08:00:00,25.301778,82.996789,OZONE,7,27,9
India,Uttar_Pradesh,Varanasi,"IESD Banaras Hindu University, Varanasi - UPPCB",26-03-2026 08:00:00,25.262326,82.995408,CO,2,20,9
India,Uttar_Pradesh,Varanasi,"Maldahiya, Varanasi - UPPCB",26-03-2026 08:00:00,25.32393,82.99687,PM10,50,228,103
India,Uttar_Pradesh,Vrindavan,"Omex Eternity, Vrindavan - UPPCB",26-03-2026 08:00:00,27.5714090,77.6557570,SO2,13,30,19
India,Uttarakhand,Kashipur,"Govt. Girls Inter College, Kashipur - UKPCB",26-03-2026 08:00:00,29.2124114,78.9611753,PM2.5,NA,NA,NA
India,Uttarakhand,Kashipur,"Govt. Girls Inter College, Kashipur - UKPCB",26-03-2026 08:00:00,29.2124114,78.9611753,NO2,NA,NA,NA
India,Uttarakhand,Kashipur,"Govt. Girls Inter College, Kashipur - UKPCB",26-03-2026 08:00:00,29.2124114,78.9611753,NH3,NA,NA,NA
India,Uttarakhand,Kashipur,"Govt. Girls Inter College, Kashipur - UKPCB",26-03-2026 08:00:00,29.2124114,78.9611753,SO2,NA,NA,NA
India,Uttarakhand,Rishikesh,"Shivaji Nagar, Rishikesh - UKPCB",26-03-2026 08:00:00,30.075911,78.2859547,PM2.5,2,2,2
India,Uttarakhand,Rishikesh,"Shivaji Nagar, Rishikesh - UKPCB",26-03-2026 08:00:00,30.075911,78.2859547,PM10,23,36,24
India,West_Bengal,Asansol,"Asansol Court Area, Asansol - WBPCB",26-03-2026 08:00:00,23.685297,86.945968,PM10,44,124,89
India,West_Bengal,Asansol,"Evelyn Lodge, Asansol - WBPCB",26-03-2026 08:00:00,23.6979360,86.9443950,PM10,35,145,85
India,West_Bengal,Asansol,"Mahabir Colliery, Asansol - WBPCB",26-03-2026 08:00:00,23.6181830,87.1057180,NH3,1,2,1
India,Uttar_Pradesh,Moradabad,"Employment Office, Moradabad - UPPCB",26-03-2026 08:00:00,28.88528,78.73880,PM2.5,17,118,73
India,Uttar_Pradesh,Moradabad,"Employment Office, Moradabad - UPPCB",26-03-2026 08:00:00,28.88528,78.73880,NH3,4,4,4
India,Uttar_Pradesh,Prayagraj,"Nagar Nigam, Prayagraj - UPPCB",26-03-2026 08:00:00,25.44919916 ,81.82735986 ,SO2,38,68,52
India,Uttarakhand,Rishikesh,"Shivaji Nagar, Rishikesh - UKPCB",26-03-2026 08:00:00,30.075911,78.2859547,OZONE,38,60,38
India,West_Bengal,Asansol,"Trivenidevi Bhalotia College, Asansol - WBPCB",26-03-2026 08:00:00,23.616515,87.119133,NO2,7,53,23
India,West_Bengal,Asansol,"Trivenidevi Bhalotia College, Asansol - WBPCB",26-03-2026 08:00:00,23.616515,87.119133,NH3,3,4,3
India,West_Bengal,Asansol,"Trivenidevi Bhalotia College, Asansol - WBPCB",26-03-2026 08:00:00,23.616515,87.119133,OZONE,6,57,7
India,West_Bengal,Barrackpore,"SVSPA Campus, Barrackpore - WBPCB",26-03-2026 08:00:00,22.7605581,88.3617589,PM10,NA,NA,NA
India,West_Bengal,Durgapur,"Mahishkapur Road_B-Zone, Durgapur - WBPCB",26-03-2026 08:00:00,23.567923,87.306843,CO,NA,NA,NA
India,West_Bengal,Durgapur,"Mahishkapur Road_B-Zone, Durgapur - WBPCB",26-03-2026 08:00:00,23.567923,87.306843,OZONE,NA,NA,NA
India,West_Bengal,Durgapur,"PCBL Residential Complex, Durgapur - WBPCB",26-03-2026 08:00:00,23.5087640,87.3544400,PM10,56,124,84
India,West_Bengal,Durgapur,"PCBL Residential Complex, Durgapur - WBPCB",26-03-2026 08:00:00,23.5087640,87.3544400,OZONE,1,50,3
India,West_Bengal,Durgapur,"Womens College_City Center, Durgapur - WBPCB",26-03-2026 08:00:00,23.549395,87.300496,NH3,2,4,3
India,West_Bengal,Haldia,"Priyambada Housing Estate, Haldia - WBPCB",26-03-2026 08:00:00,22.06047,88.109737,NO2,8,29,14
India,West_Bengal,Howrah,"Belur Math, Howrah - WBPCB",26-03-2026 08:00:00,22.629801,88.352017,OZONE,9,29,10
India,West_Bengal,Howrah,"Botanical Garden, Howrah - WBPCB",26-03-2026 08:00:00,22.554954,88.292568,SO2,10,32,15
India,West_Bengal,Howrah,"Botanical Garden, Howrah - WBPCB",26-03-2026 08:00:00,22.554954,88.292568,CO,9,16,12
India,West_Bengal,Howrah,"Dasnagar, Howrah - WBPCB",26-03-2026 08:00:00,22.6025571,88.3105664,NO2,7,39,21
India,West_Bengal,Howrah,"Dasnagar, Howrah - WBPCB",26-03-2026 08:00:00,22.6025571,88.3105664,OZONE,20,113,25
India,West_Bengal,Howrah,"Ghusuri, Howrah - WBPCB",26-03-2026 08:00:00,22.611968,88.347422,PM10,42,84,61
India,West_Bengal,Howrah,"Padmapukur, Howrah - WBPCB",26-03-2026 08:00:00,22.5687319,88.2797276,PM10,43,78,63
India,West_Bengal,Kolkata,"Ballygunge, Kolkata - WBPCB",26-03-2026 08:00:00,22.5367507,88.3638022,PM2.5,38,94,57
India,West_Bengal,Kolkata,"Ballygunge, Kolkata - WBPCB",26-03-2026 08:00:00,22.5367507,88.3638022,PM10,44,85,60
India,West_Bengal,Kolkata,"Ballygunge, Kolkata - WBPCB",26-03-2026 08:00:00,22.5367507,88.3638022,SO2,2,14,8
India,West_Bengal,Kolkata,"Ballygunge, Kolkata - WBPCB",26-03-2026 08:00:00,22.5367507,88.3638022,CO,4,28,8
India,West_Bengal,Kolkata,"Bidhannagar, Kolkata - WBPCB",26-03-2026 08:00:00,22.58157048,88.41002457,PM2.5,16,48,34
India,West_Bengal,Kolkata,"Bidhannagar, Kolkata - WBPCB",26-03-2026 08:00:00,22.58157048,88.41002457,PM10,55,89,71
India,West_Bengal,Kolkata,"Bidhannagar, Kolkata - WBPCB",26-03-2026 08:00:00,22.58157048,88.41002457,NO2,8,14,11
India,West_Bengal,Kolkata,"Bidhannagar, Kolkata - WBPCB",26-03-2026 08:00:00,22.58157048,88.41002457,NH3,5,6,6
India,West_Bengal,Kolkata,"Fort William, Kolkata - WBPCB",26-03-2026 08:00:00,22.556640,88.342674,PM2.5,26,45,34
India,West_Bengal,Kolkata,"Fort William, Kolkata - WBPCB",26-03-2026 08:00:00,22.556640,88.342674,NO2,20,30,25
India,West_Bengal,Kolkata,"Fort William, Kolkata - WBPCB",26-03-2026 08:00:00,22.556640,88.342674,CO,15,21,18
India,West_Bengal,Kolkata,"Jadavpur, Kolkata - WBPCB",26-03-2026 08:00:00,22.49929,88.36917,PM10,31,59,43
India,West_Bengal,Kolkata,"Jadavpur, Kolkata - WBPCB",26-03-2026 08:00:00,22.49929,88.36917,CO,14,20,18
India,West_Bengal,Kolkata,"Rabindra Bharati University, Kolkata - WBPCB",26-03-2026 08:00:00,22.627847,88.380669,PM10,45,82,62
India,West_Bengal,Kolkata,"Rabindra Bharati University, Kolkata - WBPCB",26-03-2026 08:00:00,22.627847,88.380669,NH3,12,12,12
India,West_Bengal,Kolkata,"Victoria, Kolkata - WBPCB",26-03-2026 08:00:00,22.5448082,88.3403691,SO2,10,54,19
India,West_Bengal,Kolkata,"Victoria, Kolkata - WBPCB",26-03-2026 08:00:00,22.5448082,88.3403691,CO,49,104,50
India,West_Bengal,Siliguri,"Ward-32 Bapupara, Siliguri - WBPCB",26-03-2026 08:00:00,26.6879226,88.4152495,NO2,33,96,59
India,West_Bengal,Siliguri,"Ward-32 Bapupara, Siliguri - WBPCB",26-03-2026 08:00:00,26.6879226,88.4152495,OZONE,16,79,38
India,Andhra_Pradesh,Guntur,"Rajendra Nagar North, Guntur - APPCB",26-03-2026 08:00:00,16.316553,80.413302,NO2,14,21,17
India,Andhra_Pradesh,Guntur,"Rajendra Nagar North, Guntur - APPCB",26-03-2026 08:00:00,16.316553,80.413302,NH3,5,7,6
India,Andhra_Pradesh,Kadapa,"Yerramukkapalli, Kadapa - APPCB",26-03-2026 08:00:00,14.465052,78.824187,OZONE,16,27,16
India,Andhra_Pradesh,Machilipatnam,"Srinivas Nagar Colony, Machilipatnam - APPCB",26-03-2026 08:00:00,16.186555,81.13219,SO2,11,17,13
India,Andhra_Pradesh,Nellore,"Ambedkar Nagar, Nellore - APPCB ",26-03-2026 08:00:00,14.438164 ,79.966814 ,NH3,2,3,3
India,Andhra_Pradesh,Rajamahendravaram,"Anand Kala Kshetram, Rajamahendravaram - APPCB",26-03-2026 08:00:00,16.9872867,81.7363176,PM10,16,68,40
India,Andhra_Pradesh,Tirumala,"Toll Gate, Tirumala - APPCB",26-03-2026 08:00:00,13.67,79.35,PM2.5,23,72,49
India,Andhra_Pradesh,Tirumala,"Toll Gate, Tirumala - APPCB",26-03-2026 08:00:00,13.67,79.35,SO2,1,9,3
India,Andhra_Pradesh,Tirupati,"Vaikuntapuram, Tirupati - APPCB",26-03-2026 08:00:00,13.615387,79.409230,NH3,4,7,5
India,Andhra_Pradesh,Tirupati,"Vaikuntapuram, Tirupati - APPCB",26-03-2026 08:00:00,13.615387,79.409230,SO2,11,23,14
India,Andhra_Pradesh,Tirupati,"Vaikuntapuram, Tirupati - APPCB",26-03-2026 08:00:00,13.615387,79.409230,CO,19,34,24
India,Andhra_Pradesh,Vijayawada,"HB Colony, Vijayawada - APPCB",26-03-2026 08:00:00,16.536107,80.594233,SO2,7,18,9
India,Andhra_Pradesh,Vijayawada,"HB Colony, Vijayawada - APPCB",26-03-2026 08:00:00,16.536107,80.594233,OZONE,25,63,25
India,Andhra_Pradesh,Vijayawada,"Kanuru, Vijayawada - APPCB",26-03-2026 08:00:00,16.486692,80.699436,NH3,NA,NA,NA
India,Andhra_Pradesh,Vijayawada,"Kanuru, Vijayawada - APPCB",26-03-2026 08:00:00,16.486692,80.699436,OZONE,NA,NA,NA
India,Andhra_Pradesh,Vijayawada,"Rajiv Nagar, Vijayawada - APPCB",26-03-2026 08:00:00,16.554731,80.649110,PM10,NA,NA,NA
India,Andhra_Pradesh,Vijayawada,"Rajiv Nagar, Vijayawada - APPCB",26-03-2026 08:00:00,16.554731,80.649110,NO2,NA,NA,NA
India,Andhra_Pradesh,Visakhapatnam,"GVM Corporation, Visakhapatnam - APPCB",26-03-2026 08:00:00,17.72,83.3,PM2.5,20,70,46
India,Arunachal_Pradesh,Naharlagun,"Naharlagun, Naharlagun - APSPCB",26-03-2026 08:00:00,27.103358,93.679645,PM10,1,87,41
India,Arunachal_Pradesh,Naharlagun,"Naharlagun, Naharlagun - APSPCB",26-03-2026 08:00:00,27.103358,93.679645,NH3,NA,NA,NA
India,Assam,Byrnihat,"Central Academy for SFS, Byrnihat - PCBA",26-03-2026 08:00:00,26.071318,91.87488,PM10,65,130,89
India,Assam,Sivasagar,"Girls College, Sivasagar - PCBA",26-03-2026 08:00:00,26.987634,94.636574,CO,18,34,27
India,Bihar,Araria,"Kharahiya Basti, Araria - BSPCB",26-03-2026 08:00:00,26.146529,87.454184,OZONE,9,11,10
India,Bihar,Aurangabad,"Gurdeo Nagar, Aurangabad - BSPCB",26-03-2026 08:00:00,24.75746,84.366208,PM10,53,139,86
India,Bihar,Aurangabad,"Gurdeo Nagar, Aurangabad - BSPCB",26-03-2026 08:00:00,24.75746,84.366208,OZONE,8,38,11
India,Bihar,Begusarai,"Lohiyanagar, Begusarai - BSPCB",26-03-2026 08:00:00,25.42742023,86.13886079,CO,24,30,30
India,Assam,Guwahati,"Pan Bazaar, Guwahati - PCBA",26-03-2026 08:00:00,26.187500,91.744194,SO2,8,9,8
India,Assam,Guwahati,"Pan Bazaar, Guwahati - PCBA",26-03-2026 08:00:00,26.187500,91.744194,OZONE,11,22,11
India,Assam,Nagaon,"Christianpatty, Nagaon - PCBA",26-03-2026 08:00:00,26.349082,92.68449,PM2.5,11,50,24
India,Assam,Nagaon,"Christianpatty, Nagaon - PCBA",26-03-2026 08:00:00,26.349082,92.68449,NO2,7,12,9
India,Assam,Nalbari,"Bata Chowk, Nalbari - PCBA",26-03-2026 08:00:00,26.446912,91.439057,SO2,2,8,8
India,Andhra_Pradesh,Anantapur,"Gulzarpet, Anantapur - APPCB",26-03-2026 08:00:00,14.675886,77.593027,SO2,4,9,7
India,Andhra_Pradesh,Chittoor,"Gangineni Cheruvu, Chittoor - APPCB",26-03-2026 08:00:00,13.204880,79.097889,SO2,8,18,16
India,Andhra_Pradesh,Eluru,"District Court, Eluru - APPCB",26-03-2026 08:00:00,16.711754,81.092095,OZONE,1,30,5
India,Assam,Byrnihat,"Central Academy for SFS, Byrnihat - PCBA",26-03-2026 08:00:00,26.071318,91.87488,NH3,3,5,4
India,Assam,Byrnihat,"Central Academy for SFS, Byrnihat - PCBA",26-03-2026 08:00:00,26.071318,91.87488,OZONE,12,43,16
India,Assam,Guwahati,"LGBI Airport, Guwahati - PCBA",26-03-2026 08:00:00,26.10887,91.589544,CO,14,55,29
India,Assam,Guwahati,"LGBI Airport, Guwahati - PCBA",26-03-2026 08:00:00,26.10887,91.589544,OZONE,8,15,10
India,Andaman and Nicobar,Sri Vijaya Puram,"Police Line, Sri Vijaya Puram - ANPCC",26-03-2026 08:00:00,11.654054,92.734055,OZONE,NA,NA,NA
India,Assam,Guwahati,"Pan Bazaar, Guwahati - PCBA",26-03-2026 08:00:00,26.187500,91.744194,NO2,NA,NA,NA
India,Bihar,Bihar Sharif,"D M Colony, Bihar Sharif - BSPCB",26-03-2026 08:00:00,25.204762,85.514960,SO2,10,10,10
India,Bihar,Buxar,"Charitra Van, Buxar - BSPCB",26-03-2026 08:00:00,25.567520,83.966379,PM10,37,91,63
India,Bihar,Chhapra,"Darshan Nagar, Chhapra - BSPCB",26-03-2026 08:00:00,25.7808257,84.7446768,PM2.5,5,147,66
India,Bihar,Chhapra,"Darshan Nagar, Chhapra - BSPCB",26-03-2026 08:00:00,25.7808257,84.7446768,PM10,8,150,87
India,Bihar,Chhapra,"Darshan Nagar, Chhapra - BSPCB",26-03-2026 08:00:00,25.7808257,84.7446768,NO2,3,4,3
India,Bihar,Chhapra,"Darshan Nagar, Chhapra - BSPCB",26-03-2026 08:00:00,25.7808257,84.7446768,CO,7,19,10
India,Bihar,Gaya,"Kareemganj, Gaya - BSPCB",26-03-2026 08:00:00,24.792403,84.992416,PM2.5,22,223,95
India,Bihar,Gaya,"Kareemganj, Gaya - BSPCB",26-03-2026 08:00:00,24.792403,84.992416,CO,2,36,4
India,Bihar,Patna,"Govt. High School Shikarpur, Patna - BSPCB",26-03-2026 08:00:00,25.592539,85.227158,SO2,4,8,6
India,Bihar,Patna,"IGSC Planetarium Complex, Patna - BSPCB",26-03-2026 08:00:00,25.610369,85.132568,PM2.5,NA,NA,NA
India,Bihar,Patna,"Muradpur, Patna - BSPCB",26-03-2026 08:00:00,25.619651,85.147382,NO2,4,11,6
India,Bihar,Patna,"Muradpur, Patna - BSPCB",26-03-2026 08:00:00,25.619651,85.147382,OZONE,15,92,23
India,Bihar,Patna,"Rajbansi Nagar, Patna - BSPCB",26-03-2026 08:00:00,25.599486,85.113666,NO2,10,12,11
India,Bihar,Saharsa,"Police Line, Saharsa - BSPCB",26-03-2026 08:00:00,25.892357,86.590325,NO2,5,8,6
India,Bihar,Samastipur,"DM Office_Kasipur, Samastipur - BSPCB",26-03-2026 08:00:00,25.859655,85.77944,NH3,1,2,1
India,Bihar,Samastipur,"DM Office_Kasipur, Samastipur - BSPCB",26-03-2026 08:00:00,25.859655,85.77944,CO,11,12,12
India,Bihar,Samastipur,"DM Office_Kasipur, Samastipur - BSPCB",26-03-2026 08:00:00,25.859655,85.77944,OZONE,7,8,8
India,Bihar,Sasaram,"Dada Peer, Sasaram - BSPCB",26-03-2026 08:00:00,24.952822,84.002396,PM10,36,94,58
India,Bihar,Bettiah,"Kamalnath Nagar, Bettiah - BSPCB",26-03-2026 08:00:00,26.80365,84.51954,OZONE,19,30,22
India,Bihar,Bhagalpur,"DM Office_Kachari Chowk, Bhagalpur - BSPCB",26-03-2026 08:00:00,25.251013,86.989001,PM10,58,153,97
India,Bihar,Bhagalpur,"Mayaganj, Bhagalpur - BSPCB",26-03-2026 08:00:00,25.265194,87.012947,PM2.5,17,77,40
India,Bihar,Bhagalpur,"Mayaganj, Bhagalpur - BSPCB",26-03-2026 08:00:00,25.265194,87.012947,PM10,45,50,47
India,Bihar,Munger,"Town Hall, Munger - BSPCB",26-03-2026 08:00:00,25.376776,86.471523,CO,24,33,29
India,Bihar,Muzaffarpur,"MIT-Daudpur Kothi, Muzaffarpur - BSPCB",26-03-2026 08:00:00,26.1403345,85.3650192,PM10,NA,NA,NA
India,Bihar,Gaya,"SFTI Kusdihra, Gaya - BSPCB",26-03-2026 08:00:00,24.762518,84.982348,OZONE,8,34,14
India,Bihar,Hajipur,"Industrial Area, Hajipur - BSPCB",26-03-2026 08:00:00,25.697189,85.245900,SO2,2,5,4
India,Bihar,Manguraha,"Forest Rest House, Manguraha - BSPCB",26-03-2026 08:00:00,27.308328,84.531742,PM10,70,137,95
India,Bihar,Manguraha,"Forest Rest House, Manguraha - BSPCB",26-03-2026 08:00:00,27.308328,84.531742,NO2,1,119,34
India,Bihar,Rajgir,"Dangi Tola, Rajgir - BSPCB",26-03-2026 08:00:00,25.03280,85.41948,SO2,2,3,3
India,Bihar,Rajgir,"Dangi Tola, Rajgir - BSPCB",26-03-2026 08:00:00,25.03280,85.41948,OZONE,24,28,26
India,Bihar,Purnia,"Mariam Nagar, Purnia - BSPCB",26-03-2026 08:00:00,25.366336,87.117468,NH3,2,2,2
India,Chhattisgarh,Raipur,"Bhatagaon New ISBT, Raipur - CECB",26-03-2026 08:00:00,21.219665,81.630094,SO2,6,29,12
India,Chhattisgarh,Raipur,"Bhatagaon New ISBT, Raipur - CECB",26-03-2026 08:00:00,21.219665,81.630094,CO,29,111,77
India,Chhattisgarh,Raipur,"Krishak Nagar, Raipur - CECB",26-03-2026 08:00:00,21.237755,81.705301,NH3,2,3,2
India,Chhattisgarh,Raipur,"Krishak Nagar, Raipur - CECB",26-03-2026 08:00:00,21.237755,81.705301,CO,17,48,29
India,Chhattisgarh,Raipur,"Siltara Phase-II, Raipur - CECB",26-03-2026 08:00:00,21.371751,81.664929,PM2.5,27,80,47
India,Chhattisgarh,Raipur,"Siltara Phase-II, Raipur - CECB",26-03-2026 08:00:00,21.371751,81.664929,NH3,2,2,2
India,Delhi,Delhi,"Anand Vihar, Delhi - DPCC",26-03-2026 08:00:00,28.647622,77.3158090,OZONE,1,24,8
India,Delhi,Delhi,"Ashok Vihar, Delhi - DPCC",26-03-2026 08:00:00,28.695381,77.181665,SO2,20,46,27
India,Delhi,Delhi,"Ashok Vihar, Delhi - DPCC",26-03-2026 08:00:00,28.695381,77.181665,CO,12,84,37
India,Delhi,Delhi,"Bawana, Delhi - DPCC",26-03-2026 08:00:00,28.776200,77.051074,PM10,90,420,196
India,Delhi,Delhi,"Bawana, Delhi - DPCC",26-03-2026 08:00:00,28.776200,77.051074,NO2,9,65,28
India,Delhi,Delhi,"Bawana, Delhi - DPCC",26-03-2026 08:00:00,28.776200,77.051074,OZONE,6,93,10
India,Bihar,Sasaram,"Dada Peer, Sasaram - BSPCB",26-03-2026 08:00:00,24.952822,84.002396,CO,4,112,67
India,Bihar,Sasaram,"Dada Peer, Sasaram - BSPCB",26-03-2026 08:00:00,24.952822,84.002396,OZONE,11,40,22
India,Bihar,Siwan,"Chitragupta Nagar, Siwan - BSPCB",26-03-2026 08:00:00,26.2271665,84.3570427,OZONE,NA,NA,NA
India,Chandigarh,Chandigarh,"Sector 22, Chandigarh - CPCC",26-03-2026 08:00:00,30.735567,76.775714,NH3,10,22,16
India,Chhattisgarh,Kunjemura,"OP Jindal School, Kunjemura - CECB",26-03-2026 08:00:00,22.126650,83.483212,NH3,2,2,2
India,Chhattisgarh,Kunjemura,"OP Jindal School, Kunjemura - CECB",26-03-2026 08:00:00,22.126650,83.483212,CO,26,78,53
India,Chhattisgarh,Milupara,"Govt. Higher Secondary School, Milupara - CECB",26-03-2026 08:00:00,22.1910172,83.5197009,CO,6,75,31
India,Chhattisgarh,Raipur,"AIIMS, Raipur - CECB",26-03-2026 08:00:00,21.258815,81.578979,NO2,18,55,41
India,Delhi,Delhi,"CRRI Mathura Road, Delhi - IMD",26-03-2026 08:00:00,28.5512005,77.2735737,NO2,2,68,35
India,Delhi,Delhi,"Chandni Chowk, Delhi - IITM",26-03-2026 08:00:00,28.656756,77.227234,SO2,10,16,13
India,Delhi,Delhi,"Commonwealth Sports Complex, Delhi - DPCC",26-03-2026 08:00:00,28.615828 ,77.271992 ,NH3,5,9,7
India,Delhi,Delhi,"Commonwealth Sports Complex, Delhi - DPCC",26-03-2026 08:00:00,28.615828 ,77.271992 ,OZONE,2,85,3
India,Chhattisgarh,Bhilai,"32Bungalows, Bhilai - CECB",26-03-2026 08:00:00,21.194815,81.314770,NO2,28,42,34
India,Chhattisgarh,Bhilai,"32Bungalows, Bhilai - CECB",26-03-2026 08:00:00,21.194815,81.314770,SO2,5,9,8
India,Chhattisgarh,Bhilai,"Hathkhoj, Bhilai - CECB",26-03-2026 08:00:00,21.224231,81.408350,PM10,33,86,57
India,Chhattisgarh,Chhal,"Nawapara SECL Colony, Chhal - CECB",26-03-2026 08:00:00,22.118125,83.140608,NO2,7,33,16
India,Delhi,Delhi,"Alipur, Delhi - DPCC",26-03-2026 08:00:00,28.815329,77.153010,NH3,12,15,13
India,Delhi,Delhi,"Alipur, Delhi - DPCC",26-03-2026 08:00:00,28.815329,77.153010,SO2,7,27,11
India,Delhi,Delhi,"Anand Vihar, Delhi - DPCC",26-03-2026 08:00:00,28.647622,77.3158090,PM10,85,415,230
India,Chhattisgarh,Korba,"Rampur, Korba - CECB",26-03-2026 08:00:00,22.368195,82.746431,SO2,NA,NA,NA
India,Chhattisgarh,Korba,"Urja Nagar, Korba - CECB",26-03-2026 08:00:00,22.348441,82.549611,PM10,NA,NA,NA
India,Chandigarh,Chandigarh,"Sector-53, Chandigarh - CPCC",26-03-2026 08:00:00,30.719859,76.738637,SO2,6,6,6
India,Delhi,Delhi,"ITO, Delhi - CPCB",26-03-2026 08:00:00,28.628624,77.241060,NO2,16,113,47
India,Delhi,Delhi,"JNU, Delhi - DPCC",26-03-2026 08:00:00,28.540721 ,77.168544 ,PM10,57,161,115
India,Delhi,Delhi,"Jahangirpuri, Delhi - DPCC",26-03-2026 08:00:00,28.732820,77.170633,PM2.5,22,420,222
India,Delhi,Delhi,"Jahangirpuri, Delhi - DPCC",26-03-2026 08:00:00,28.732820,77.170633,PM10,95,411,223
India,Delhi,Delhi,"Jahangirpuri, Delhi - DPCC",26-03-2026 08:00:00,28.732820,77.170633,CO,28,101,64
India,Delhi,Delhi,"Jawaharlal Nehru Stadium, Delhi - DPCC",26-03-2026 08:00:00,28.580280,77.233829,NH3,9,14,11
India,Delhi,Delhi,"Jawaharlal Nehru Stadium, Delhi - DPCC",26-03-2026 08:00:00,28.580280,77.233829,SO2,5,27,15
India,Delhi,Delhi,"Lodhi Road, Delhi - IMD",26-03-2026 08:00:00,28.5918245,77.2273074,PM2.5,49,168,92
India,Delhi,Delhi,"DTU, Delhi - CPCB",26-03-2026 08:00:00,28.7500499,77.1112615,SO2,24,36,32
India,Delhi,Delhi,"DTU, Delhi - CPCB",26-03-2026 08:00:00,28.7500499,77.1112615,CO,8,40,30
India,Delhi,Delhi,"Dr. Karni Singh Shooting Range, Delhi - DPCC",26-03-2026 08:00:00,28.498571,77.264840,PM2.5,28,333,113
India,Delhi,Delhi,"Dwarka-Sector 8, Delhi - DPCC ",26-03-2026 08:00:00,28.5710274,77.0719006,PM2.5,32,323,189
India,Delhi,Delhi,"Dwarka-Sector 8, Delhi - DPCC ",26-03-2026 08:00:00,28.5710274,77.0719006,PM10,103,478,252
India,Delhi,Delhi,"Dwarka-Sector 8, Delhi - DPCC ",26-03-2026 08:00:00,28.5710274,77.0719006,NO2,29,136,73
India,Delhi,Delhi,"Dwarka-Sector 8, Delhi - DPCC ",26-03-2026 08:00:00,28.5710274,77.0719006,NH3,5,45,17
India,Delhi,Delhi,"Dwarka-Sector 8, Delhi - DPCC ",26-03-2026 08:00:00,28.5710274,77.0719006,SO2,16,28,23
India,Delhi,Delhi,"Dwarka-Sector 8, Delhi - DPCC ",26-03-2026 08:00:00,28.5710274,77.0719006,CO,18,128,62
India,Delhi,Delhi,"Okhla Phase-2, Delhi - DPCC",26-03-2026 08:00:00,28.530785,77.271255,OZONE,3,119,7
India,Delhi,Delhi,"Patparganj, Delhi - DPCC",26-03-2026 08:00:00,28.623763,77.287209,NH3,7,10,8
India,Delhi,Delhi,"Punjabi Bagh, Delhi - DPCC",26-03-2026 08:00:00,28.674045,77.131023,PM10,61,287,167
India,Delhi,Delhi,"Pusa, Delhi - IMD",26-03-2026 08:00:00,28.636110,77.173332,OZONE,48,219,62
India,Delhi,Delhi,"North Campus, DU, Delhi - IMD",26-03-2026 08:00:00,28.6573814,77.1585447,CO,2,113,42
India,Delhi,Delhi,"Okhla Phase-2, Delhi - DPCC",26-03-2026 08:00:00,28.530785,77.271255,PM10,94,294,160
India,Delhi,Delhi,"Okhla Phase-2, Delhi - DPCC",26-03-2026 08:00:00,28.530785,77.271255,NO2,38,170,103
India,Delhi,Delhi,"Rohini, Delhi - DPCC",26-03-2026 08:00:00,28.732528,77.119920,SO2,12,77,21
India,Delhi,Delhi,"Shadipur, Delhi - CPCB",26-03-2026 08:00:00,28.6514781,77.1473105,PM2.5,84,338,219
India,Delhi,Delhi,"Shadipur, Delhi - CPCB",26-03-2026 08:00:00,28.6514781,77.1473105,NO2,37,92,59
India,Delhi,Delhi,"Najafgarh, Delhi - DPCC",26-03-2026 08:00:00,28.570173,76.933762,SO2,15,102,25
India,Delhi,Delhi,"Nehru Nagar, Delhi - DPCC",26-03-2026 08:00:00,28.567890,77.250515,PM10,69,250,141
India,Delhi,Delhi,"Nehru Nagar, Delhi - DPCC",26-03-2026 08:00:00,28.567890,77.250515,OZONE,1,247,12
India,Delhi,Delhi,"IHBAS, Dilshad Garden, Delhi - CPCB",26-03-2026 08:00:00,28.6811736,77.3025234,PM10,71,188,133
India,Delhi,Delhi,"IHBAS, Dilshad Garden, Delhi - CPCB",26-03-2026 08:00:00,28.6811736,77.3025234,SO2,8,29,16
India,Delhi,Delhi,"IHBAS, Dilshad Garden, Delhi - CPCB",26-03-2026 08:00:00,28.6811736,77.3025234,OZONE,2,34,5
India,Delhi,Delhi,"Mundka, Delhi - DPCC",26-03-2026 08:00:00,28.684678,77.076574,NO2,60,115,88
India,Delhi,Delhi,"NSUT Jaffarpur, Delhi - DPCC",26-03-2026 08:00:00,28.594004 ,76.909423 ,PM10,16,284,145
India,Delhi,Delhi,"Najafgarh, Delhi - DPCC",26-03-2026 08:00:00,28.570173,76.933762,PM2.5,18,339,145
India,Delhi,Delhi,"Najafgarh, Delhi - DPCC",26-03-2026 08:00:00,28.570173,76.933762,NH3,12,14,13
India,Gujarat,Ahmedabad,"Chandkheda, Ahmedabad - IITM",26-03-2026 08:00:00,23.107969,72.574648,OZONE,15,93,23
India,Gujarat,Ahmedabad,"Gyaspur, Ahmedabad - IITM",26-03-2026 08:00:00,22.977134,72.553024,PM10,74,239,134
India,Gujarat,Ahmedabad,"Gyaspur, Ahmedabad - IITM",26-03-2026 08:00:00,22.977134,72.553024,NH3,2,18,6
India,Gujarat,Ahmedabad,"Gyaspur, Ahmedabad - IITM",26-03-2026 08:00:00,22.977134,72.553024,CO,4,102,73
India,Gujarat,Ahmedabad,"Maninagar, Ahmedabad - GPCB",26-03-2026 08:00:00,23.002657,72.591912,PM10,26,120,84
India,Gujarat,Ahmedabad,"Maninagar, Ahmedabad - GPCB",26-03-2026 08:00:00,23.002657,72.591912,NO2,84,91,88
India,Gujarat,Ahmedabad,"Maninagar, Ahmedabad - GPCB",26-03-2026 08:00:00,23.002657,72.591912,SO2,25,69,50
India,Gujarat,Ahmedabad,"Raikhad, Ahmedabad - IITM",26-03-2026 08:00:00,23.020509,72.579261,PM2.5,33,75,53
India,Gujarat,Ahmedabad,"Rakhial, Ahmedabad - IITM",26-03-2026 08:00:00,23.016834,72.625775,PM2.5,29,207,78
India,Gujarat,Ahmedabad,"Rakhial, Ahmedabad - IITM",26-03-2026 08:00:00,23.016834,72.625775,SO2,4,63,34
India,Gujarat,Ahmedabad,"Rakhial, Ahmedabad - IITM",26-03-2026 08:00:00,23.016834,72.625775,OZONE,1,64,2
India,Gujarat,Ahmedabad,"SAC ISRO Bopal, Ahmedabad - IITM",26-03-2026 08:00:00,23.041137,72.456691,PM2.5,17,112,42
India,Delhi,Delhi,"Sirifort, Delhi - CPCB",26-03-2026 08:00:00,28.5504249,77.2159377,SO2,24,34,29
India,Delhi,Delhi,"Sonia Vihar, Delhi - DPCC",26-03-2026 08:00:00,28.710508,77.249485,CO,28,108,82
India,Delhi,Delhi,"Sri Aurobindo Marg, Delhi - DPCC",26-03-2026 08:00:00,28.531346,77.190156,NH3,5,7,6
India,Delhi,Delhi,"Talkatora Garden, Delhi - DPCC",26-03-2026 08:00:00,28.621810,77.1944633,NO2,8,28,18
India,Delhi,Delhi,"Talkatora Garden, Delhi - DPCC",26-03-2026 08:00:00,28.621810,77.1944633,CO,102,116,112
India,Delhi,Delhi,"Talkatora Garden, Delhi - DPCC",26-03-2026 08:00:00,28.621810,77.1944633,OZONE,1,52,2
India,Delhi,Delhi,"Vivek Vihar, Delhi - DPCC",26-03-2026 08:00:00,28.672342,77.315260,PM10,88,305,165
India,Delhi,Delhi,"Wazirpur, Delhi - DPCC",26-03-2026 08:00:00,28.699793,77.165453,PM2.5,58,376,199
India,Gujarat,Gandhinagar,"Sector-10, Gandhinagar - GPCB",26-03-2026 08:00:00,23.221714,72.654328,PM10,43,173,89
India,Gujarat,Gandhinagar,"Sector-10, Gandhinagar - GPCB",26-03-2026 08:00:00,23.221714,72.654328,SO2,5,49,15
India,Gujarat,Mehsana,"Sadanand Nagar, Mehsana - Nexteng Enviro",26-03-2026 08:00:00,23.593150,72.372792,OZONE,8,9,8
India,Gujarat,Rajkot,"Mavdi, Rajkot - Nexteng Enviro ",26-03-2026 08:00:00,22.248853,70.776774,PM10,29,99,61
India,Gujarat,Rajkot,"Mavdi, Rajkot - Nexteng Enviro ",26-03-2026 08:00:00,22.248853,70.776774,NH3,1,3,2
India,Gujarat,Rajkot,"Mavdi, Rajkot - Nexteng Enviro ",26-03-2026 08:00:00,22.248853,70.776774,CO,46,99,87
India,Gujarat,Surat,"Katargam, Surat - Nexteng Enviro",26-03-2026 08:00:00,21.217779 ,72.834787 ,PM2.5,12,129,66
India,Gujarat,Surat,"Science Center, Surat - SMC",26-03-2026 08:00:00,21.170046,72.795405,PM10,51,104,76
India,Gujarat,Surat,"Science Center, Surat - SMC",26-03-2026 08:00:00,21.170046,72.795405,NO2,18,26,20
India,Gujarat,Vadodara,"Bapunagar, Vadodara - Nexteng Enviro",26-03-2026 08:00:00,22.320153,73.216285,NH3,2,3,3
India,Gujarat,Vapi,"Phase-1 GIDC, Vapi - GPCB",26-03-2026 08:00:00,20.362421,72.918013,NO2,13,21,18
India,Gujarat,Vapi,"Phase-1 GIDC, Vapi - GPCB",26-03-2026 08:00:00,20.362421,72.918013,SO2,13,24,15
India,Gujarat,Vatva,"Phase-4 GIDC, Vatva - GPCB",26-03-2026 08:00:00,22.969611,72.643500,OZONE,30,46,31
India,Gujarat,Ahmedabad,"SAC ISRO Satellite, Ahmedabad - IITM",26-03-2026 08:00:00,23.023389,72.515201,SO2,4,22,11
India,Gujarat,Ankleshwar,"GIDC, Ankleshwar - GPCB",26-03-2026 08:00:00,21.613267,73.010555,NH3,NA,NA,NA
India,Gujarat,Bhavnagar,"Vidhyanagar, Bhavnagar - Nexteng Enviro",26-03-2026 08:00:00,21.755417,72.139056,OZONE,2,8,4
India,Gujarat,Gandhinagar,"GIFT City, Gandhinagar - IITM",26-03-2026 08:00:00,23.163798,72.677768,PM2.5,14,86,51
India,Gujarat,Gandhinagar,"GIFT City, Gandhinagar - IITM",26-03-2026 08:00:00,23.163798,72.677768,PM10,92,224,132
India,Haryana,Ballabgarh,"Nathu Colony, Ballabgarh - HSPCB",26-03-2026 08:00:00,28.3419248,77.319699,CO,15,94,36
India,Haryana,Bhiwani,"H.B. Colony, Bhiwani - HSPCB",26-03-2026 08:00:00,28.806223,76.141105,PM2.5,NA,NA,NA
India,Haryana,Bhiwani,"H.B. Colony, Bhiwani - HSPCB",26-03-2026 08:00:00,28.806223,76.141105,NO2,NA,NA,NA
India,Haryana,Bhiwani,"H.B. Colony, Bhiwani - HSPCB",26-03-2026 08:00:00,28.806223,76.141105,NH3,NA,NA,NA
India,Haryana,Bhiwani,"H.B. Colony, Bhiwani - HSPCB",26-03-2026 08:00:00,28.806223,76.141105,SO2,NA,NA,NA
India,Haryana,Bhiwani,"H.B. Colony, Bhiwani - HSPCB",26-03-2026 08:00:00,28.806223,76.141105,CO,NA,NA,NA
India,Haryana,Charkhi Dadri,"Mini Secretariat, Charkhi Dadri - HSPCB",26-03-2026 08:00:00,28.593883,76.270653,OZONE,13,18,16
India,Haryana,Bahadurgarh,"Arya Nagar, Bahadurgarh - HSPCB",26-03-2026 08:00:00,28.6701,76.9254,OZONE,23,26,25
India,Haryana,Ballabgarh,"Nathu Colony, Ballabgarh - HSPCB",26-03-2026 08:00:00,28.3419248,77.319699,NH3,3,3,3
India,Haryana,Ballabgarh,"Nathu Colony, Ballabgarh - HSPCB",26-03-2026 08:00:00,28.3419248,77.319699,SO2,1,6,4
India,Delhi,Delhi,"Wazirpur, Delhi - DPCC",26-03-2026 08:00:00,28.699793,77.165453,SO2,21,84,32
India,Gujarat,Ahmedabad,"Chandkheda, Ahmedabad - IITM",26-03-2026 08:00:00,23.107969,72.574648,NO2,9,75,28
India,Gujarat,Ahmedabad,"Chandkheda, Ahmedabad - IITM",26-03-2026 08:00:00,23.107969,72.574648,NH3,3,9,7
India,Haryana,Bahadurgarh,"Arya Nagar, Bahadurgarh - HSPCB",26-03-2026 08:00:00,28.6701,76.9254,PM2.5,3,491,174
India,Jammu_and_Kashmir,Srinagar,"Rajbagh, Srinagar - JKPCC",26-03-2026 08:00:00,34.066206,74.819820,SO2,3,4,3
India,Jharkhand,Dhanbad,"Sardar Patel Nagar, Dhanbad - JSPCB",26-03-2026 08:00:00,23.80569,86.44268,PM2.5,5,116,59
India,Jharkhand,Dhanbad,"Sardar Patel Nagar, Dhanbad - JSPCB",26-03-2026 08:00:00,23.80569,86.44268,CO,1,20,10
India,Jharkhand,Jorapokhar,"Tata Stadium, Jorapokhar - JSPCB",26-03-2026 08:00:00,23.707909,86.414670,PM2.5,38,181,63
India,Jharkhand,Jorapokhar,"Tata Stadium, Jorapokhar - JSPCB",26-03-2026 08:00:00,23.707909,86.414670,NH3,3,3,3
India,Karnataka,Bagalkot,"Vidayagiri, Bagalkot - KSPCB",26-03-2026 08:00:00,16.172806,75.659694,SO2,3,7,7
India,Haryana,Gurugram,"Teri Gram, Gurugram - HSPCB",26-03-2026 08:00:00,28.4275,77.1465,PM10,NA,NA,NA
India,Haryana,Gurugram,"Teri Gram, Gurugram - HSPCB",26-03-2026 08:00:00,28.4275,77.1465,CO,30,50,44
India,Haryana,Hisar,"Urban Estate-II, Hisar - HSPCB",26-03-2026 08:00:00,29.140560,75.744941,NO2,26,27,26
India,Haryana,Hisar,"Urban Estate-II, Hisar - HSPCB",26-03-2026 08:00:00,29.140560,75.744941,NH3,10,11,11
India,Haryana,Jind,"Police Lines, Jind - HSPCB",26-03-2026 08:00:00,29.307814,76.337619,OZONE,5,14,10
India,Haryana,Kaithal,"Rishi Nagar, Kaithal - HSPCB",26-03-2026 08:00:00,29.8006,76.4155,PM2.5,44,118,66
India,Haryana,Kaithal,"Rishi Nagar, Kaithal - HSPCB",26-03-2026 08:00:00,29.8006,76.4155,NH3,5,6,6
