country,state,city,station,last_update,latitude,longitude,pollutant_id,min_value,max_value,avg_value
India,Andhra_Pradesh,Anantapur,"Gulzarpet, Anantapur - APPCB",03-09-2025 07:00:00,14.675886,77.593027,NO2,18,19,18
India,Andhra_Pradesh,Anantapur,"Gulzarpet, Anantapur - APPCB",03-09-2025 07:00:00,14.675886,77.593027,CO,16,28,25
India,Andhra_Pradesh,Chittoor,"Gangineni Cheruvu, Chittoor - APPCB",03-09-2025 07:00:00,13.204880,79.097889,CO,29,40,31
India,Andhra_Pradesh,Kadapa,"Yerramukkapalli, Kadapa - APPCB",03-09-2025 07:00:00,14.465052,78.824187,PM10,NA,NA,NA
India,Arunachal_Pradesh,Naharlagun,"Naharlagun, Naharlagun - APSPCB",03-09-2025 07:00:00,27.103358,93.679645,PM10,15,60,34
India,Arunachal_Pradesh,Naharlagun,"Naharlagun, Naharlagun - APSPCB",03-09-2025 07:00:00,27.103358,93.679645,NO2,5,6,6
India,Arunachal_Pradesh,Naharlagun,"Naharlagun, Naharlagun - APSPCB",03-09-2025 07:00:00,27.103358,93.679645,SO2,8,9,8
India,Andhra_Pradesh,Tirupati,"Vaikuntapuram, Tirupati - APPCB",03-09-2025 07:00:00,13.615387,79.409230,PM10,46,68,57
India,Andhra_Pradesh,Vijayawada,"HB Colony, Vijayawada - APPCB",03-09-2025 07:00:00,16.536107,80.594233,PM10,50,83,65
India,Andhra_Pradesh,Tirumala,"Toll Gate, Tirumala - APPCB",03-09-2025 07:00:00,13.67,79.35,NO2,9,20,15
India,Andhra_Pradesh,Tirumala,"Toll Gate, Tirumala - APPCB",03-09-2025 07:00:00,13.67,79.35,CO,10,103,44
India,Assam,Byrnihat,"Central Academy for SFS, Byrnihat - PCBA",03-09-2025 07:00:00,26.071318,91.87488,PM2.5,NA,NA,NA
India,Assam,Byrnihat,"Central Academy for SFS, Byrnihat - PCBA",03-09-2025 07:00:00,26.071318,91.87488,NO2,NA,NA,NA
India,Andhra_Pradesh,Rajamahendravaram,"Anand Kala Kshetram, Rajamahendravaram - APPCB",03-09-2025 07:00:00,16.9872867,81.7363176,SO2,NA,NA,NA
India,Andhra_Pradesh,Amaravati,"Secretariat, Amaravati - APPCB",03-09-2025 07:00:00,16.5150833,80.5181667,PM2.5,6,18,12
India,Andhra_Pradesh,Vijayawada,"Rajiv Nagar, Vijayawada - APPCB",03-09-2025 07:00:00,16.554731,80.649110,CO,14,29,17
India,Assam,Byrnihat,"Central Academy for SFS, Byrnihat - PCBA",03-09-2025 07:00:00,26.071318,91.87488,OZONE,12,28,28
India,Assam,Guwahati,"LGBI Airport, Guwahati - PCBA",03-09-2025 07:00:00,26.10887,91.589544,PM2.5,8,456,75
India,Assam,Nalbari,"Bata Chowk, Nalbari - PCBA",03-09-2025 07:00:00,26.446912,91.439057,SO2,3,8,7
India,Assam,Silchar,"Tarapur, Silchar - PCBA",03-09-2025 07:00:00,24.82827,92.79525,NO2,15,18,16
India,Assam,Silchar,"Tarapur, Silchar - PCBA",03-09-2025 07:00:00,24.82827,92.79525,NH3,1,1,1
India,Assam,Silchar,"Tarapur, Silchar - PCBA",03-09-2025 07:00:00,24.82827,92.79525,CO,18,60,52
India,Assam,Sivasagar,"Girls College, Sivasagar - PCBA",03-09-2025 07:00:00,26.987634,94.636574,PM2.5,26,49,34
India,Bihar,Arrah,"New DM Office, Arrah - BSPCB",03-09-2025 07:00:00,25.5626095,84.663264,PM10,27,28,28
India,Bihar,Arrah,"New DM Office, Arrah - BSPCB",03-09-2025 07:00:00,25.5626095,84.663264,SO2,NA,NA,NA
India,Bihar,Aurangabad,"Gurdeo Nagar, Aurangabad - BSPCB",03-09-2025 07:00:00,24.75746,84.366208,PM10,13,108,43
India,Bihar,Begusarai,"Lohiyanagar, Begusarai - BSPCB",03-09-2025 07:00:00,25.42742023,86.13886079,PM2.5,27,62,42
India,Bihar,Hajipur,"Industrial Area, Hajipur - BSPCB",03-09-2025 07:00:00,25.697189,85.245900,CO,9,20,12
India,Bihar,Katihar,"Mirchaibari, Katihar - BSPCB",03-09-2025 07:00:00,25.560083,87.553265,PM2.5,33,60,40
India,Bihar,Katihar,"Mirchaibari, Katihar - BSPCB",03-09-2025 07:00:00,25.560083,87.553265,PM10,30,37,32
India,Bihar,Katihar,"Mirchaibari, Katihar - BSPCB",03-09-2025 07:00:00,25.560083,87.553265,NO2,12,16,14
India,Bihar,Chhapra,"Darshan Nagar, Chhapra - BSPCB",03-09-2025 07:00:00,25.7808257,84.7446768,NH3,3,4,4
India,Bihar,Chhapra,"Darshan Nagar, Chhapra - BSPCB",03-09-2025 07:00:00,25.7808257,84.7446768,SO2,8,9,8
India,Bihar,Gaya,"Collectorate, Gaya - BSPCB",03-09-2025 07:00:00,24.7955,84.9994,PM2.5,NA,NA,NA
India,Bihar,Gaya,"Collectorate, Gaya - BSPCB",03-09-2025 07:00:00,24.7955,84.9994,CO,NA,NA,NA
India,Bihar,Gaya,"Collectorate, Gaya - BSPCB",03-09-2025 07:00:00,24.7955,84.9994,OZONE,NA,NA,NA
India,Bihar,Gaya,"Kareemganj, Gaya - BSPCB",03-09-2025 07:00:00,24.792403,84.992416,OZONE,1,36,3
India,Bihar,Bettiah,"Kamalnath Nagar, Bettiah - BSPCB",03-09-2025 07:00:00,26.80365,84.51954,PM10,17,66,34
India,Bihar,Bettiah,"Kamalnath Nagar, Bettiah - BSPCB",03-09-2025 07:00:00,26.80365,84.51954,NO2,4,14,8
India,Bihar,Bettiah,"Kamalnath Nagar, Bettiah - BSPCB",03-09-2025 07:00:00,26.80365,84.51954,NH3,1,1,1
India,Assam,Guwahati,"Railway Colony, Guwahati - PCBA",03-09-2025 07:00:00,26.181742,91.78063,SO2,26,28,27
India,Assam,Nalbari,"Bata Chowk, Nalbari - PCBA",03-09-2025 07:00:00,26.446912,91.439057,PM2.5,NA,NA,NA
India,Bihar,Manguraha,"Forest Rest House, Manguraha - BSPCB",03-09-2025 07:00:00,27.308328,84.531742,NH3,1,1,1
India,Bihar,Buxar,"Charitra Van, Buxar - BSPCB",03-09-2025 07:00:00,25.567520,83.966379,NO2,9,10,9
India,Bihar,Purnia,"Mariam Nagar, Purnia - BSPCB",03-09-2025 07:00:00,25.366336,87.117468,PM10,NA,NA,NA
India,Bihar,Purnia,"Mariam Nagar, Purnia - BSPCB",03-09-2025 07:00:00,25.366336,87.117468,NO2,5,6,6
India,Bihar,Purnia,"Mariam Nagar, Purnia - BSPCB",03-09-2025 07:00:00,25.366336,87.117468,CO,1,190,25
India,Bihar,Rajgir,"Dangi Tola, Rajgir - BSPCB",03-09-2025 07:00:00,25.03280,85.41948,PM2.5,NA,NA,NA
India,Bihar,Rajgir,"Dangi Tola, Rajgir - BSPCB",03-09-2025 07:00:00,25.03280,85.41948,OZONE,27,37,32
India,Bihar,Muzaffarpur,"Muzaffarpur Collectorate, Muzaffarpur - BSPCB",03-09-2025 07:00:00,26.1209,85.3647,OZONE,17,64,18
India,Bihar,Patna,"DRM Office Danapur, Patna - BSPCB",03-09-2025 07:00:00,25.586562,85.043586,PM2.5,15,41,26
India,Bihar,Patna,"DRM Office Danapur, Patna - BSPCB",03-09-2025 07:00:00,25.586562,85.043586,NO2,29,35,32
India,Bihar,Motihari,"Gandak Colony, Motihari - BSPCB",03-09-2025 07:00:00,26.63086,84.90051,CO,1,7,2
India,Bihar,Munger,"Town Hall, Munger - BSPCB",03-09-2025 07:00:00,25.376776,86.471523,NO2,4,5,5
India,Bihar,Munger,"Town Hall, Munger - BSPCB",03-09-2025 07:00:00,25.376776,86.471523,SO2,18,20,19
India,Bihar,Muzaffarpur,"Buddha Colony, Muzaffarpur - BSPCB",03-09-2025 07:00:00,26.11442,85.39813,NH3,3,5,4
India,Bihar,Muzaffarpur,"Buddha Colony, Muzaffarpur - BSPCB",03-09-2025 07:00:00,26.11442,85.39813,SO2,2,4,3
India,Bihar,Muzaffarpur,"Muzaffarpur Collectorate, Muzaffarpur - BSPCB",03-09-2025 07:00:00,26.1209,85.3647,NO2,11,19,15
India,Bihar,Patna,"DRM Office Danapur, Patna - BSPCB",03-09-2025 07:00:00,25.586562,85.043586,CO,27,40,29
India,Bihar,Patna,"DRM Office Danapur, Patna - BSPCB",03-09-2025 07:00:00,25.586562,85.043586,OZONE,22,27,23
India,Bihar,Patna,"Govt. High School Shikarpur, Patna - BSPCB",03-09-2025 07:00:00,25.592539,85.227158,PM10,16,298,48
India,Bihar,Patna,"Muradpur, Patna - BSPCB",03-09-2025 07:00:00,25.619651,85.147382,SO2,NA,NA,NA
India,Bihar,Patna,"Rajbansi Nagar, Patna - BSPCB",03-09-2025 07:00:00,25.599486,85.113666,PM2.5,NA,NA,NA
India,Bihar,Patna,"Rajbansi Nagar, Patna - BSPCB",03-09-2025 07:00:00,25.599486,85.113666,NH3,NA,NA,NA
India,Bihar,Patna,"Govt. High School Shikarpur, Patna - BSPCB",03-09-2025 07:00:00,25.592539,85.227158,OZONE,7,13,10
India,Bihar,Patna,"Govt. High School Shikarpur, Patna - BSPCB",03-09-2025 07:00:00,25.592539,85.227158,NH3,3,4,3
India,Bihar,Patna,"Samanpura, Patna - BSPCB",03-09-2025 07:00:00,25.596727,85.085624,PM10,30,107,70
India,Bihar,Saharsa,"Police Line, Saharsa - BSPCB",03-09-2025 07:00:00,25.892357,86.590325,NO2,6,8,7
India,Bihar,Samastipur,"DM Office_Kasipur, Samastipur - BSPCB",03-09-2025 07:00:00,25.859655,85.77944,NO2,1,2,1
India,Bihar,Samastipur,"DM Office_Kasipur, Samastipur - BSPCB",03-09-2025 07:00:00,25.859655,85.77944,CO,1,50,19
India,Bihar,Sasaram,"Dada Peer, Sasaram - BSPCB",03-09-2025 07:00:00,24.952822,84.002396,PM2.5,2,8,5
India,Chhattisgarh,Bhilai,"32Bungalows, Bhilai - CECB",03-09-2025 07:00:00,21.194815,81.314770,PM10,6,34,19
India,Chhattisgarh,Bhilai,"Hathkhoj, Bhilai - CECB",03-09-2025 07:00:00,21.224231,81.408350,PM2.5,8,25,18
India,Chhattisgarh,Bhilai,"Hathkhoj, Bhilai - CECB",03-09-2025 07:00:00,21.224231,81.408350,NH3,3,4,4
India,Chhattisgarh,Bhilai,"Hathkhoj, Bhilai - CECB",03-09-2025 07:00:00,21.224231,81.408350,CO,10,26,16
India,Chhattisgarh,Chhal,"Nawapara SECL Colony, Chhal - CECB",03-09-2025 07:00:00,22.118125,83.140608,CO,NA,NA,NA
India,Chhattisgarh,Chhal,"Nawapara SECL Colony, Chhal - CECB",03-09-2025 07:00:00,22.118125,83.140608,OZONE,NA,NA,NA
India,Chhattisgarh,Korba,"Rampur, Korba - CECB",03-09-2025 07:00:00,22.368195,82.746431,PM10,NA,NA,NA
India,Chhattisgarh,Raipur,"AIIMS, Raipur - CECB",03-09-2025 07:00:00,21.258815,81.578979,CO,25,36,33
India,Chhattisgarh,Raipur,"Bhatagaon New ISBT, Raipur - CECB",03-09-2025 07:00:00,21.219665,81.630094,PM2.5,NA,NA,NA
India,Chhattisgarh,Milupara,"Govt. Higher Secondary School, Milupara - CECB",03-09-2025 07:00:00,22.1910172,83.5197009,NO2,NA,NA,NA
India,Chhattisgarh,Bilaspur,"Mangala, Bilaspur - NTPC",03-09-2025 07:00:00,22.08815,82.13737,NO2,19,69,32
India,Chandigarh,Chandigarh,"Sector-25, Chandigarh - CPCC",03-09-2025 07:00:00,30.751462,76.762879,CO,NA,NA,NA
India,Chhattisgarh,Korba,"Rampur, Korba - CECB",03-09-2025 07:00:00,22.368195,82.746431,OZONE,NA,NA,NA
India,Chhattisgarh,Raipur,"AIIMS, Raipur - CECB",03-09-2025 07:00:00,21.258815,81.578979,NH3,5,5,5
India,Chhattisgarh,Tumidih,"OP Jindal Industrial Park, Tumidih - CECB",03-09-2025 07:00:00,22.06631475,83.33820077,SO2,5,7,6
India,Delhi,Delhi,"Alipur, Delhi - DPCC",03-09-2025 07:00:00,28.815329,77.153010,CO,14,28,21
India,Chhattisgarh,Raipur,"Bhatagaon New ISBT, Raipur - CECB",03-09-2025 07:00:00,21.219665,81.630094,OZONE,4,11,5
India,Chhattisgarh,Raipur,"Krishak Nagar, Raipur - CECB",03-09-2025 07:00:00,21.237755,81.705301,PM2.5,7,29,22
India,Delhi,Delhi,"Ashok Vihar, Delhi - DPCC",03-09-2025 07:00:00,28.695381,77.181665,NO2,16,39,26
India,Delhi,Delhi,"Ashok Vihar, Delhi - DPCC",03-09-2025 07:00:00,28.695381,77.181665,SO2,6,14,11
India,Delhi,Delhi,"Ashok Vihar, Delhi - DPCC",03-09-2025 07:00:00,28.695381,77.181665,CO,10,63,14
India,Chhattisgarh,Raipur,"Krishak Nagar, Raipur - CECB",03-09-2025 07:00:00,21.237755,81.705301,NO2,14,18,16
India,Chhattisgarh,Raipur,"Krishak Nagar, Raipur - CECB",03-09-2025 07:00:00,21.237755,81.705301,NH3,2,2,2
India,Delhi,Delhi,"Ashok Vihar, Delhi - DPCC",03-09-2025 07:00:00,28.695381,77.181665,PM2.5,12,63,38
India,Delhi,Delhi,"Ashok Vihar, Delhi - DPCC",03-09-2025 07:00:00,28.695381,77.181665,PM10,16,46,33
India,Delhi,Delhi,"Aya Nagar, Delhi - IMD",03-09-2025 07:00:00,28.4706914,77.1099364,PM2.5,5,47,23
India,Delhi,Delhi,"Aya Nagar, Delhi - IMD",03-09-2025 07:00:00,28.4706914,77.1099364,NO2,9,20,15
India,Chhattisgarh,Tumidih,"OP Jindal Industrial Park, Tumidih - CECB",03-09-2025 07:00:00,22.06631475,83.33820077,PM2.5,9,56,29
India,Chhattisgarh,Raipur,"Siltara Phase-II, Raipur - CECB",03-09-2025 07:00:00,21.371751,81.664929,SO2,1,8,5
India,Delhi,Delhi,"Anand Vihar, Delhi - DPCC",03-09-2025 07:00:00,28.647622,77.3158090,PM10,14,123,43
India,Delhi,Delhi,"ITO, Delhi - CPCB",03-09-2025 07:00:00,28.628624,77.241060,NH3,4,5,4
India,Delhi,Delhi,"Jahangirpuri, Delhi - DPCC",03-09-2025 07:00:00,28.732820,77.170633,PM2.5,43,270,88
India,Delhi,Delhi,"Jahangirpuri, Delhi - DPCC",03-09-2025 07:00:00,28.732820,77.170633,NO2,13,22,18
India,Delhi,Delhi,"Jahangirpuri, Delhi - DPCC",03-09-2025 07:00:00,28.732820,77.170633,NH3,6,6,6
India,Delhi,Delhi,"Bawana, Delhi - DPCC",03-09-2025 07:00:00,28.776200,77.051074,NH3,1,7,4
India,Delhi,Delhi,"Burari Crossing, Delhi - IMD",03-09-2025 07:00:00,28.7256504,77.2011573,PM2.5,8,47,30
India,Delhi,Delhi,"Burari Crossing, Delhi - IMD",03-09-2025 07:00:00,28.7256504,77.2011573,PM10,12,44,29
India,Delhi,Delhi,"Dr. Karni Singh Shooting Range, Delhi - DPCC",03-09-2025 07:00:00,28.498571,77.264840,PM2.5,8,48,26
India,Delhi,Delhi,"Dr. Karni Singh Shooting Range, Delhi - DPCC",03-09-2025 07:00:00,28.498571,77.264840,PM10,7,38,26
India,Delhi,Delhi,"Dr. Karni Singh Shooting Range, Delhi - DPCC",03-09-2025 07:00:00,28.498571,77.264840,OZONE,18,38,26
India,Delhi,Delhi,"Jawaharlal Nehru Stadium, Delhi - DPCC",03-09-2025 07:00:00,28.580280,77.233829,SO2,9,14,11
India,Delhi,Delhi,"Dwarka-Sector 8, Delhi - DPCC ",03-09-2025 07:00:00,28.5710274,77.0719006,NO2,17,51,33
India,Delhi,Delhi,"CRRI Mathura Road, Delhi - IMD",03-09-2025 07:00:00,28.5512005,77.2735737,NO2,13,52,22
India,Delhi,Delhi,"IGI Airport (T3), Delhi - IMD",03-09-2025 07:00:00,28.5627763,77.1180053,PM10,6,51,28
India,Delhi,Delhi,"Jahangirpuri, Delhi - DPCC",03-09-2025 07:00:00,28.732820,77.170633,OZONE,14,20,17
India,Delhi,Delhi,"ITO, Delhi - CPCB",03-09-2025 07:00:00,28.628624,77.241060,PM10,9,35,23
India,Delhi,Delhi,"Lodhi Road, Delhi - IITM",03-09-2025 07:00:00,28.588333,77.221667,NO2,70,102,81
India,Delhi,Delhi,"Lodhi Road, Delhi - IITM",03-09-2025 07:00:00,28.588333,77.221667,SO2,6,14,10
India,Delhi,Delhi,"Major Dhyan Chand National Stadium, Delhi - DPCC",03-09-2025 07:00:00,28.611281,77.237738,PM2.5,12,50,30
India,Delhi,Delhi,"Major Dhyan Chand National Stadium, Delhi - DPCC",03-09-2025 07:00:00,28.611281,77.237738,OZONE,4,26,8
India,Delhi,Delhi,"Mundka, Delhi - DPCC",03-09-2025 07:00:00,28.684678,77.076574,OZONE,10,43,17
India,Delhi,Delhi,"NSIT Dwarka, Delhi - CPCB",03-09-2025 07:00:00,28.60909,77.0325413,SO2,3,11,6
India,Delhi,Delhi,"Mandir Marg, Delhi - DPCC",03-09-2025 07:00:00,28.636429,77.201067,OZONE,17,49,30
India,Delhi,Delhi,"Mundka, Delhi - DPCC",03-09-2025 07:00:00,28.684678,77.076574,NH3,6,7,6
India,Delhi,Delhi,"North Campus, DU, Delhi - IMD",03-09-2025 07:00:00,28.6573814,77.1585447,CO,1,30,8
India,Delhi,Delhi,"Okhla Phase-2, Delhi - DPCC",03-09-2025 07:00:00,28.530785,77.271255,PM10,8,50,30
India,Delhi,Delhi,"Nehru Nagar, Delhi - DPCC",03-09-2025 07:00:00,28.567890,77.250515,PM2.5,8,45,27
India,Delhi,Delhi,"Nehru Nagar, Delhi - DPCC",03-09-2025 07:00:00,28.567890,77.250515,CO,10,23,16
India,Delhi,Delhi,"Punjabi Bagh, Delhi - DPCC",03-09-2025 07:00:00,28.674045,77.131023,SO2,1,4,2
India,Delhi,Delhi,"Narela, Delhi - DPCC",03-09-2025 07:00:00,28.822836,77.101981,CO,32,55,36
India,Delhi,Delhi,"Vivek Vihar, Delhi - DPCC",03-09-2025 07:00:00,28.672342,77.315260,PM10,12,56,34
India,Delhi,Delhi,"Wazirpur, Delhi - DPCC",03-09-2025 07:00:00,28.699793,77.165453,PM10,22,145,57
India,Delhi,Delhi,"Wazirpur, Delhi - DPCC",03-09-2025 07:00:00,28.699793,77.165453,NO2,14,44,25
India,Gujarat,Ahmedabad,"Chandkheda, Ahmedabad - IITM",03-09-2025 07:00:00,23.107969,72.574648,NH3,1,2,1
India,Gujarat,Ahmedabad,"Chandkheda, Ahmedabad - IITM",03-09-2025 07:00:00,23.107969,72.574648,CO,33,72,47
India,Delhi,Delhi,"Rohini, Delhi - DPCC",03-09-2025 07:00:00,28.732528,77.119920,NH3,2,5,4
India,Delhi,Delhi,"Rohini, Delhi - DPCC",03-09-2025 07:00:00,28.732528,77.119920,OZONE,12,18,16
India,Delhi,Delhi,"Sirifort, Delhi - CPCB",03-09-2025 07:00:00,28.5504249,77.2159377,NO2,45,52,48
India,Delhi,Delhi,"Sirifort, Delhi - CPCB",03-09-2025 07:00:00,28.5504249,77.2159377,SO2,22,28,24
India,Gujarat,Ahmedabad,"Chandkheda, Ahmedabad - IITM",03-09-2025 07:00:00,23.107969,72.574648,PM2.5,16,60,35
India,Delhi,Delhi,"Sri Aurobindo Marg, Delhi - DPCC",03-09-2025 07:00:00,28.531346,77.190156,OZONE,11,24,16
India,Gujarat,Ahmedabad,"Gyaspur, Ahmedabad - IITM",03-09-2025 07:00:00,22.977134,72.553024,SO2,8,13,11
India,Delhi,Delhi,"Sonia Vihar, Delhi - DPCC",03-09-2025 07:00:00,28.710508,77.249485,PM10,17,61,36
India,Delhi,Delhi,"Pusa, Delhi - IMD",03-09-2025 07:00:00,28.636110,77.173332,PM10,2,55,25
India,Gujarat,Ahmedabad,"Rakhial, Ahmedabad - IITM",03-09-2025 07:00:00,23.016834,72.625775,PM2.5,NA,NA,NA
India,Gujarat,Ahmedabad,"Rakhial, Ahmedabad - IITM",03-09-2025 07:00:00,23.016834,72.625775,NH3,6,19,10
India,Gujarat,Ahmedabad,"Rakhial, Ahmedabad - IITM",03-09-2025 07:00:00,23.016834,72.625775,SO2,10,25,14
India,Gujarat,Ahmedabad,"Rakhial, Ahmedabad - IITM",03-09-2025 07:00:00,23.016834,72.625775,OZONE,3,17,5
India,Gujarat,Ankleshwar,"GIDC, Ankleshwar - GPCB",03-09-2025 07:00:00,21.613267,73.010555,CO,1,32,13
India,Gujarat,Gandhinagar,"GIFT City, Gandhinagar - IITM",03-09-2025 07:00:00,23.163798,72.677768,PM2.5,13,74,37
India,Gujarat,Gandhinagar,"IIPHG Lekawada, Gandhinagar - IITM",03-09-2025 07:00:00,23.243639,72.68994,PM2.5,18,85,55
India,Gujarat,Gandhinagar,"IIPHG Lekawada, Gandhinagar - IITM",03-09-2025 07:00:00,23.243639,72.68994,PM10,61,128,103
India,Gujarat,Gandhinagar,"Sector-10, Gandhinagar - GPCB",03-09-2025 07:00:00,23.221714,72.654328,SO2,7,10,9
India,Gujarat,Gandhinagar,"Sector-10, Gandhinagar - GPCB",03-09-2025 07:00:00,23.221714,72.654328,OZONE,7,16,15
India,Gujarat,Ahmedabad,"SAC ISRO Satellite, Ahmedabad - IITM",03-09-2025 07:00:00,23.023389,72.515201,NO2,9,55,26
India,Gujarat,Ahmedabad,"SVPI Airport Hansol, Ahmedabad - IITM",03-09-2025 07:00:00,23.076793,72.627874,SO2,4,35,10
India,Gujarat,Gandhinagar,"IIPHG Lekawada, Gandhinagar - IITM",03-09-2025 07:00:00,23.243639,72.68994,OZONE,1,306,2
India,Gujarat,Ahmedabad,"SAC ISRO Bopal, Ahmedabad - IITM",03-09-2025 07:00:00,23.041137,72.456691,SO2,2,3,3
India,Gujarat,Ahmedabad,"Raikhad, Ahmedabad - IITM",03-09-2025 07:00:00,23.020509,72.579261,PM10,43,136,87
India,Karnataka,Bengaluru,"Jayanagar 5th Block, Bengaluru - KSPCB",03-09-2025 07:00:00,12.920984,77.584908,SO2,4,27,17
India,Karnataka,Bengaluru,"Jayanagar 5th Block, Bengaluru - KSPCB",03-09-2025 07:00:00,12.920984,77.584908,CO,4,39,9
India,Karnataka,Bengaluru,"Jigani, Bengaluru - KSPCB",03-09-2025 07:00:00,12.7816279,77.6299145,PM2.5,32,43,35
India,Jharkhand,Dhanbad,"Sardar Patel Nagar, Dhanbad - JSPCB",03-09-2025 07:00:00,23.80569,86.44268,PM2.5,5,99,35
India,Jharkhand,Jorapokhar,"Tata Stadium, Jorapokhar - JSPCB",03-09-2025 07:00:00,23.707909,86.414670,CO,32,52,40
India,Karnataka,Bengaluru,"Hombegowda Nagar, Bengaluru - KSPCB",03-09-2025 07:00:00,12.938539,77.590100,OZONE,2,15,6
India,Karnataka,Bengaluru,"Jayanagar 5th Block, Bengaluru - KSPCB",03-09-2025 07:00:00,12.920984,77.584908,PM10,15,45,26
India,Gujarat,Surat,"Science Center, Surat - SMC",03-09-2025 07:00:00,21.170046,72.795405,SO2,13,18,15
India,Gujarat,Vapi,"Phase-1 GIDC, Vapi - GPCB",03-09-2025 07:00:00,20.362421,72.918013,PM10,74,159,113
India,Haryana,Gurugram,"NISE Gwal Pahari, Gurugram - IMD",03-09-2025 07:00:00,28.422681,77.148944,NO2,3,11,7
India,Haryana,Gurugram,"NISE Gwal Pahari, Gurugram - IMD",03-09-2025 07:00:00,28.422681,77.148944,CO,16,76,24
India,Haryana,Gurugram,"NISE Gwal Pahari, Gurugram - IMD",03-09-2025 07:00:00,28.422681,77.148944,OZONE,24,43,34
India,Himachal Pradesh,Baddi,"HIMUDA Complex Phase-1, Baddi - HPPCB",03-09-2025 07:00:00,30.943887,76.801991,SO2,24,90,44
India,Karnataka,Bengaluru,"BTM Layout, Bengaluru - CPCB",03-09-2025 07:00:00,12.9135218,77.5950804,OZONE,25,26,26
India,Karnataka,Bagalkot,"Vidayagiri, Bagalkot - KSPCB",03-09-2025 07:00:00,16.172806,75.659694,NH3,1,2,1
India,Karnataka,Bengaluru,"Hebbal, Bengaluru - KSPCB",03-09-2025 07:00:00,13.029152,77.585901,CO,8,45,12
India,Karnataka,Davanagere,"Devaraj Urs Badavane, Davanagere - KSPCB",03-09-2025 07:00:00,14.475800,75.905200,OZONE,24,25,24
India,Karnataka,Hubballi,"Deshpande Nagar, Hubballi - KSPCB",03-09-2025 07:00:00,15.351773,75.140726,PM10,NA,NA,NA
India,Karnataka,Hubballi,"Deshpande Nagar, Hubballi - KSPCB",03-09-2025 07:00:00,15.351773,75.140726,SO2,16,18,17
India,Karnataka,Hubballi,"Deshpande Nagar, Hubballi - KSPCB",03-09-2025 07:00:00,15.351773,75.140726,OZONE,16,18,17
India,Karnataka,Bengaluru,"Sanegurava Halli, Bengaluru - KSPCB",03-09-2025 07:00:00,12.990328,77.5431385,SO2,7,7,7
India,Karnataka,Bengaluru,"Shivapura_Peenya, Bengaluru - KSPCB",03-09-2025 07:00:00,13.0246342,77.5080115,PM2.5,34,61,46
India,Karnataka,Chikkamagaluru,"Kalyana Nagara, Chikkamagaluru - KSPCB",03-09-2025 07:00:00,13.328028,75.797056,NO2,25,35,28
India,Karnataka,Chikkamagaluru,"Kalyana Nagara, Chikkamagaluru - KSPCB",03-09-2025 07:00:00,13.328028,75.797056,SO2,1,5,3
India,Karnataka,Bengaluru,"Jigani, Bengaluru - KSPCB",03-09-2025 07:00:00,12.7816279,77.6299145,SO2,17,17,17
India,Karnataka,Bengaluru,"Jigani, Bengaluru - KSPCB",03-09-2025 07:00:00,12.7816279,77.6299145,OZONE,22,24,23
India,Karnataka,Bengaluru,"Peenya, Bengaluru - CPCB",03-09-2025 07:00:00,13.0270199,77.494094,PM10,58,83,70
India,Karnataka,Bengaluru,"Peenya, Bengaluru - CPCB",03-09-2025 07:00:00,13.0270199,77.494094,NO2,18,24,20
India,Karnataka,Davanagere,"Devaraj Urs Badavane, Davanagere - KSPCB",03-09-2025 07:00:00,14.475800,75.905200,NO2,11,19,14
India,Karnataka,Hubballi,"Lingaraj Nagar, Hubballi - KSPCB",03-09-2025 07:00:00,15.3714823,75.1160168,OZONE,11,13,11
India,Karnataka,Chamarajanagar,"Urban, Chamarajanagar - KSPCB",03-09-2025 07:00:00,11.55358,76.55521,NH3,1,3,2
India,Karnataka,Koppal,"Diwator Nagar, Koppal - KSPCB",03-09-2025 07:00:00,15.347630,76.181767,NO2,NA,NA,NA
India,Kerala,Eloor,"Udyogamandal, Eloor - Kerala PCB",03-09-2025 07:00:00,10.073232,76.302765,PM10,47,66,56
India,Kerala,Eloor,"Udyogamandal, Eloor - Kerala PCB",03-09-2025 07:00:00,10.073232,76.302765,SO2,1,1,1
India,Kerala,Kannur,"Thavakkara, Kannur - Kerala PCB",03-09-2025 07:00:00,11.875000,75.373200,PM10,55,62,58
India,Kerala,Thiruvananthapuram,"Kariavattom, Thiruvananthapuram - Kerala PCB",03-09-2025 07:00:00,8.563700,76.886500,OZONE,36,36,36
India,Karnataka,Mangalore,"Kadri, Mangalore - KSPCB",03-09-2025 07:00:00,12.889250,74.853000,SO2,7,7,7
India,Karnataka,Mysuru,"Hebbal 1st Stage, Mysuru - KSPCB",03-09-2025 07:00:00,12.21041,76.37376,PM2.5,11,61,27
India,Karnataka,Mysuru,"Hebbal 1st Stage, Mysuru - KSPCB",03-09-2025 07:00:00,12.21041,76.37376,PM10,23,57,40
India,Karnataka,Mysuru,"Hebbal 1st Stage, Mysuru - KSPCB",03-09-2025 07:00:00,12.21041,76.37376,NH3,3,8,5
India,Karnataka,Mysuru,"Hebbal 1st Stage, Mysuru - KSPCB",03-09-2025 07:00:00,12.21041,76.37376,SO2,2,21,9
India,Madhya Pradesh,Gwalior,"City Center, Gwalior - MPPCB",03-09-2025 07:00:00,26.203442,78.193251,NO2,7,8,7
India,Madhya Pradesh,Gwalior,"City Center, Gwalior - MPPCB",03-09-2025 07:00:00,26.203442,78.193251,SO2,3,28,15
India,Madhya Pradesh,Gwalior,"City Center, Gwalior - MPPCB",03-09-2025 07:00:00,26.203442,78.193251,OZONE,19,41,31
India,Madhya Pradesh,Gwalior,"Deen Dayal Nagar, Gwalior - MPPCB",03-09-2025 07:00:00,26.259242,78.216432,PM10,17,93,48
India,Madhya Pradesh,Gwalior,"Deen Dayal Nagar, Gwalior - MPPCB",03-09-2025 07:00:00,26.259242,78.216432,SO2,4,12,7
India,Madhya Pradesh,Bhopal,"T T Nagar, Bhopal - MPPCB",03-09-2025 07:00:00,23.233584,77.400574,OZONE,22,33,31
India,Madhya Pradesh,Damoh,"Shrivastav Colony, Damoh - MPPCB",03-09-2025 07:00:00,23.81748678,79.446246,CO,22,28,26
India,Madhya Pradesh,Dewas,"Bhopal Chauraha, Dewas - MPPCB",03-09-2025 07:00:00,22.9682591,76.064118,OZONE,27,31,30
India,Madhya Pradesh,Bhopal,"Idgah Hills, Bhopal - MPPCB",03-09-2025 07:00:00,23.264759,77.381568,SO2,8,10,9
India,Madhya Pradesh,Bhopal,"Paryavaran Parisar, Bhopal - MPPCB",03-09-2025 07:00:00,23.210494,77.425409,PM2.5,17,45,30
India,Madhya Pradesh,Bhopal,"T T Nagar, Bhopal - MPPCB",03-09-2025 07:00:00,23.233584,77.400574,PM2.5,20,48,31
India,Karnataka,Vijayapura,"Ibrahimpur, Vijayapura - KSPCB",03-09-2025 07:00:00,16.802639,75.722694,NH3,1,2,1
India,Karnataka,Vijayapura,"Ibrahimpur, Vijayapura - KSPCB",03-09-2025 07:00:00,16.802639,75.722694,OZONE,14,16,16
India,Karnataka,Yadgir,"Collector Office, Yadgir - KSPCB",03-09-2025 07:00:00,16.7602,77.1428,PM2.5,2,11,6
India,Karnataka,Ramanagara,"Vijay Nagar, Ramanagara - KSPCB",03-09-2025 07:00:00,12.733409,77.298051,CO,16,50,22
India,Karnataka,Shivamogga,"Vinoba Nagara, Shivamogga - KSPCB",03-09-2025 07:00:00,13.940000,75.555917,PM2.5,16,34,29
India,Karnataka,Shivamogga,"Vinoba Nagara, Shivamogga - KSPCB",03-09-2025 07:00:00,13.940000,75.555917,NO2,10,16,13
India,Karnataka,Madikeri,"Stuart Hill, Madikeri - KSPCB",03-09-2025 07:00:00,12.415911,75.735050,SO2,7,7,7
India,Karnataka,Mangalore,"Kadri, Mangalore - KSPCB",03-09-2025 07:00:00,12.889250,74.853000,PM10,26,53,40
India,Madhya Pradesh,Gwalior,"Deen Dayal Nagar, Gwalior - MPPCB",03-09-2025 07:00:00,26.259242,78.216432,OZONE,26,54,34
India,Madhya Pradesh,Gwalior,"Maharaj Bada, Gwalior - MPPCB",03-09-2025 07:00:00,26.200388,78.147714,PM2.5,10,60,28
India,Madhya Pradesh,Pithampur,"Sector-2 Industrial Area, Pithampur - MPPCB",03-09-2025 07:00:00,22.624758,75.675238,NO2,7,23,13
India,Madhya Pradesh,Pithampur,"Sector-2 Industrial Area, Pithampur - MPPCB",03-09-2025 07:00:00,22.624758,75.675238,SO2,11,17,14
India,Madhya Pradesh,Ratlam,"Shasthri Nagar, Ratlam - IPCA Lab",03-09-2025 07:00:00,23.331731,75.045981,SO2,26,27,26
India,Madhya Pradesh,Sagar,"Civil Lines, Sagar - MPPCB",03-09-2025 07:00:00,23.838586,78.759431,NO2,3,5,4
India,Madhya Pradesh,Sagar,"Civil Lines, Sagar - MPPCB",03-09-2025 07:00:00,23.838586,78.759431,SO2,2,20,10
India,Madhya Pradesh,Sagar,"Civil Lines, Sagar - MPPCB",03-09-2025 07:00:00,23.838586,78.759431,OZONE,15,46,23
India,Madhya Pradesh,Satna,"Bandhavgar Colony, Satna - Birla Cement",03-09-2025 07:00:00,24.58434363,80.8549414,PM2.5,47,51,49
India,Madhya Pradesh,Satna,"Bandhavgar Colony, Satna - Birla Cement",03-09-2025 07:00:00,24.58434363,80.8549414,PM10,58,60,59
India,Madhya Pradesh,Gwalior,"Maharaj Bada, Gwalior - MPPCB",03-09-2025 07:00:00,26.200388,78.147714,OZONE,11,24,17
India,Madhya Pradesh,Indore,"Airport Area, Indore - IMC",03-09-2025 07:00:00,22.7289,75.8076,CO,4,6,5
India,Madhya Pradesh,Indore,"Chhoti Gwaltoli, Indore - MPPCB",03-09-2025 07:00:00,22.4310,75.5213,NO2,57,96,71
India,Madhya Pradesh,Indore,"Maguda Nagar, Indore - IMC",03-09-2025 07:00:00,22.7524,75.8872,NO2,1,2,2
India,Madhya Pradesh,Jabalpur,"Gupteshwar, Jabalpur - JMC",03-09-2025 07:00:00,23.142888,79.916147,PM10,4,135,30
India,Madhya Pradesh,Jabalpur,"Gupteshwar, Jabalpur - JMC",03-09-2025 07:00:00,23.142888,79.916147,CO,10,37,31
India,Madhya Pradesh,Katni,"Gole Bazar, Katni - MPPCB",03-09-2025 07:00:00,23.50016,80.23284,PM2.5,8,38,24
India,Madhya Pradesh,Katni,"Gole Bazar, Katni - MPPCB",03-09-2025 07:00:00,23.50016,80.23284,NO2,25,27,26
India,Maharashtra,Ahmednagar,"Tarakpur, Ahmednagar - MPCB",03-09-2025 07:00:00,19.10122,74.73339,PM2.5,6,18,11
India,Maharashtra,Ahmednagar,"Tarakpur, Ahmednagar - MPCB",03-09-2025 07:00:00,19.10122,74.73339,NO2,16,27,22
India,Madhya Pradesh,Indore,"Maguda Nagar, Indore - IMC",03-09-2025 07:00:00,22.7524,75.8872,SO2,27,37,35
India,Madhya Pradesh,Indore,"Maguda Nagar, Indore - IMC",03-09-2025 07:00:00,22.7524,75.8872,CO,20,22,21
India,Madhya Pradesh,Indore,"Regional Park, Indore - IMC",03-09-2025 07:00:00,22.6780,75.8559,NH3,NA,NA,NA
India,Madhya Pradesh,Indore,"Regional Park, Indore - IMC",03-09-2025 07:00:00,22.6780,75.8559,SO2,50,53,52
India,Madhya Pradesh,Jabalpur,"Govindh Bhavan Colony, Jabalpur - JMC",03-09-2025 07:00:00,23.163174,79.973061,NO2,34,37,36
India,Maharashtra,Amravati,"Shri Shivaji Science College, Amravati - MPCB",03-09-2025 07:00:00,20.939198,77.765701,SO2,4,7,6
India,Maharashtra,Amravati,"Shri Shivaji Science College, Amravati - MPCB",03-09-2025 07:00:00,20.939198,77.765701,CO,27,40,30
India,Maharashtra,Aurangabad,"MIDC Chilkalthana, Aurangabad - MPCB",03-09-2025 07:00:00,19.875620,75.387310,NH3,1,3,2
India,Maharashtra,Belapur,"CBD Belapur, Belapur - MPCB",03-09-2025 07:00:00,19.0243902,73.0406721,NO2,8,14,11
India,Maharashtra,Belapur,"CBD Belapur, Belapur - MPCB",03-09-2025 07:00:00,19.0243902,73.0406721,CO,10,20,12
India,Maharashtra,Bhiwandi,"Gokul Nagar, Bhiwandi - MPCB",03-09-2025 07:00:00,19.309073,73.057223,PM10,43,61,52
India,Maharashtra,Boisar,"Khaira, Boisar - MPCB",03-09-2025 07:00:00,19.786089,72.757971,SO2,7,14,11
India,Maharashtra,Chandrapur,"MIDC Khutala, Chandrapur - MPCB",03-09-2025 07:00:00,19.9775302,79.2337086,NO2,4,19,10
India,Maharashtra,Chandrapur,"MIDC Khutala, Chandrapur - MPCB",03-09-2025 07:00:00,19.9775302,79.2337086,NH3,1,5,2
India,Maharashtra,Aurangabad,"More Chowk Waluj, Aurangabad - MPCB",03-09-2025 07:00:00,19.8389439,75.244448,CO,2,116,28
India,Maharashtra,Badlapur,"Katrap, Badlapur - MPCB",03-09-2025 07:00:00,19.16485,73.23409,NH3,6,9,8
India,Maharashtra,Boisar,"Khaira, Boisar - MPCB",03-09-2025 07:00:00,19.786089,72.757971,PM10,38,81,59
India,Maharashtra,Boisar,"Khaira, Boisar - MPCB",03-09-2025 07:00:00,19.786089,72.757971,NO2,NA,NA,NA
India,Maharashtra,Amravati,"Shivneri Colony, Amravati - MPCB",03-09-2025 07:00:00,20.9402359,77.7895248,SO2,9,10,10
India,Maharashtra,Bhiwandi,"Gokul Nagar, Bhiwandi - MPCB",03-09-2025 07:00:00,19.309073,73.057223,SO2,7,19,13
India,Maharashtra,Ahmednagar,"Tarakpur, Ahmednagar - MPCB",03-09-2025 07:00:00,19.10122,74.73339,SO2,3,24,10
India,Maharashtra,Akola,"Ramdaspeth, Akola - MPCB",03-09-2025 07:00:00,20.719516,77.000253,PM2.5,8,33,21
India,Maharashtra,Mumbai,"Colaba, Mumbai - MPCB",03-09-2025 07:00:00,18.910000,72.820000,CO,22,22,22
India,Maharashtra,Mumbai,"Deonar, Mumbai - IITM",03-09-2025 07:00:00,19.04946,72.9230,SO2,5,7,6
India,Maharashtra,Mumbai,"Deonar, Mumbai - IITM",03-09-2025 07:00:00,19.04946,72.9230,OZONE,1,10,3
India,Maharashtra,Mumbai,"Ghatkopar, Mumbai - BMC",03-09-2025 07:00:00,19.083694,72.920967,CO,10,18,12
India,Maharashtra,Mumbai,"Kandivali East, Mumbai - MPCB",03-09-2025 07:00:00,19.205800,72.868200,PM10,41,74,56
India,Maharashtra,Mumbai,"Kandivali East, Mumbai - MPCB",03-09-2025 07:00:00,19.205800,72.868200,CO,12,15,12
India,Maharashtra,Mumbai,"Kandivali West, Mumbai - BMC",03-09-2025 07:00:00,19.215859,72.831718,PM2.5,6,34,17
India,Maharashtra,Mumbai,"Kandivali West, Mumbai - BMC",03-09-2025 07:00:00,19.215859,72.831718,OZONE,2,18,13
India,Maharashtra,Kolhapur,"Sinchan Bhavan, Kolhapur - MPCB",03-09-2025 07:00:00,16.7143745,74.2426398,CO,2,6,5
India,Maharashtra,Latur,"Sawe Wadi, Latur - MPCB",03-09-2025 07:00:00,18.39963,76.57452,OZONE,13,43,23
India,Maharashtra,Mahad,"Kamble Tarf Birwadi, Mahad - MPCB",03-09-2025 07:00:00,18.1023399,73.4783687,NH3,3,6,5
India,Maharashtra,Malegaon,"Mahesh Nagar, Malegaon - MPCB",03-09-2025 07:00:00,20.555712,74.529236,NO2,4,21,10
India,Maharashtra,Malegaon,"Mahesh Nagar, Malegaon - MPCB",03-09-2025 07:00:00,20.555712,74.529236,CO,18,35,27
India,Maharashtra,Mira-Bhayandar,"Bhayandar West, Mira-Bhayandar - MPCB",03-09-2025 07:00:00,19.296481,72.840923,NH3,2,4,2
India,Maharashtra,Mumbai,"Khindipada-Bhandup West, Mumbai - IITM",03-09-2025 07:00:00,19.1653323,72.922099,SO2,1,14,10
India,Maharashtra,Mumbai,"Kurla, Mumbai - MPCB",03-09-2025 07:00:00,19.0863,72.8888,PM2.5,50,90,62
India,Maharashtra,Mumbai,"Kurla, Mumbai - MPCB",03-09-2025 07:00:00,19.0863,72.8888,NO2,3,4,3
India,Maharashtra,Mumbai,"Malad West, Mumbai - IITM",03-09-2025 07:00:00,19.19709,72.82204,PM10,4,81,49
India,Maharashtra,Mumbai,"Malad West, Mumbai - IITM",03-09-2025 07:00:00,19.19709,72.82204,SO2,6,9,6
India,Maharashtra,Mumbai,"Mazgaon, Mumbai - IITM",03-09-2025 07:00:00,18.96702,72.84214,OZONE,5,18,14
India,Maharashtra,Mumbai,"Chakala-Andheri East, Mumbai - IITM",03-09-2025 07:00:00,19.11074,72.86084,CO,12,28,14
India,Maharashtra,Mumbai,"Chembur, Mumbai - MPCB",03-09-2025 07:00:00,19.0364585,72.8954371,PM10,30,60,49
India,Maharashtra,Mumbai,"Chhatrapati Shivaji Intl. Airport (T2), Mumbai - MPCB",03-09-2025 07:00:00,19.10078,72.87462,PM2.5,33,39,35
India,Maharashtra,Mumbai,"Colaba, Mumbai - MPCB",03-09-2025 07:00:00,18.910000,72.820000,PM2.5,17,42,29
India,Maharashtra,Mumbai,"Colaba, Mumbai - MPCB",03-09-2025 07:00:00,18.910000,72.820000,PM10,11,31,20
India,Maharashtra,Dhule,"Deopur, Dhule - MPCB",03-09-2025 07:00:00,20.918946,74.776388,NO2,3,9,5
India,Maharashtra,Dhule,"Deopur, Dhule - MPCB",03-09-2025 07:00:00,20.918946,74.776388,SO2,1,12,6
India,Maharashtra,Jalna,"Old MIDC, Jalna - MPCB",03-09-2025 07:00:00,19.854616,75.905894,NO2,NA,NA,NA
India,Maharashtra,Jalna,"Old MIDC, Jalna - MPCB",03-09-2025 07:00:00,19.854616,75.905894,OZONE,NA,NA,NA
India,Maharashtra,Mumbai,"Bandra Kurla Complex, Mumbai - MPCB",03-09-2025 07:00:00,19.065931,72.862131,SO2,2,24,5
India,Maharashtra,Mumbai,"Bandra Kurla Complex, Mumbai - MPCB",03-09-2025 07:00:00,19.065931,72.862131,CO,6,17,9
India,Maharashtra,Mumbai,"Borivali East, Mumbai - IITM",03-09-2025 07:00:00,19.23241,72.86895,PM2.5,21,45,32
India,Maharashtra,Mumbai,"Borivali East, Mumbai - MPCB",03-09-2025 07:00:00,19.2243333,72.8658113,CO,3,4,3
India,Maharashtra,Mumbai,"Byculla, Mumbai - BMC",03-09-2025 07:00:00,18.9767,72.8380,NO2,6,17,12
India,Maharashtra,Mumbai,"Mindspace-Malad West, Mumbai - MPCB",03-09-2025 07:00:00,19.1878657,72.8304069,PM10,36,37,36
India,Maharashtra,Mumbai,"Mindspace-Malad West, Mumbai - MPCB",03-09-2025 07:00:00,19.1878657,72.8304069,NO2,15,16,15
India,Maharashtra,Mumbai,"Mulund West, Mumbai - MPCB",03-09-2025 07:00:00,19.1750,72.9419,NH3,4,4,4
India,Maharashtra,Mumbai,"Navy Nagar-Colaba, Mumbai - IITM",03-09-2025 07:00:00,18.897756,72.813320,NO2,NA,NA,NA
India,Maharashtra,Mumbai,"Navy Nagar-Colaba, Mumbai - IITM",03-09-2025 07:00:00,18.897756,72.813320,CO,NA,NA,NA
India,Maharashtra,Mumbai,"Navy Nagar-Colaba, Mumbai - IITM",03-09-2025 07:00:00,18.897756,72.813320,OZONE,NA,NA,NA
India,Maharashtra,Mumbai,"Sewri, Mumbai - BMC",03-09-2025 07:00:00,19.000084,72.856730,PM2.5,NA,NA,NA
India,Maharashtra,Mumbai,"Siddharth Nagar-Worli, Mumbai - IITM",03-09-2025 07:00:00,19.000083,72.813993,NH3,5,5,5
India,Maharashtra,Mumbai,"Siddharth Nagar-Worli, Mumbai - IITM",03-09-2025 07:00:00,19.000083,72.813993,CO,34,67,40
India,Maharashtra,Mumbai,"Siddharth Nagar-Worli, Mumbai - IITM",03-09-2025 07:00:00,19.000083,72.813993,OZONE,18,26,22
India,Maharashtra,Mumbai,"Worli, Mumbai - MPCB",03-09-2025 07:00:00,18.9936162,72.8128113,PM10,56,80,68
India,Maharashtra,Nashik,"Pandav Nagari, Nashik - MPCB",03-09-2025 07:00:00,19.9591346,73.7788008,PM10,20,56,36
India,Maharashtra,Nashik,"Pandav Nagari, Nashik - MPCB",03-09-2025 07:00:00,19.9591346,73.7788008,NH3,1,3,2
India,Maharashtra,Navi Mumbai,"Kopripada-Vashi, Navi Mumbai - MPCB",03-09-2025 07:00:00,19.090337,73.014232,PM10,15,35,25
India,Maharashtra,Navi Mumbai,"Kopripada-Vashi, Navi Mumbai - MPCB",03-09-2025 07:00:00,19.090337,73.014232,NH3,3,3,3
India,Maharashtra,Navi Mumbai,"Kopripada-Vashi, Navi Mumbai - MPCB",03-09-2025 07:00:00,19.090337,73.014232,CO,16,86,35
India,Maharashtra,Navi Mumbai,"Mahape, Navi Mumbai - MPCB",03-09-2025 07:00:00,19.1135051,73.008978,PM2.5,8,13,10
India,Maharashtra,Navi Mumbai,"Mahape, Navi Mumbai - MPCB",03-09-2025 07:00:00,19.1135051,73.008978,NO2,33,36,35
India,Maharashtra,Navi Mumbai,"Mahape, Navi Mumbai - MPCB",03-09-2025 07:00:00,19.1135051,73.008978,CO,31,36,33
India,Maharashtra,Navi Mumbai,"Sanpada, Navi Mumbai - MPCB",03-09-2025 07:00:00,19.0575752,73.0151367,PM2.5,9,23,17
India,Maharashtra,Navi Mumbai,"Sanpada, Navi Mumbai - MPCB",03-09-2025 07:00:00,19.0575752,73.0151367,NO2,5,15,9
India,Maharashtra,Navi Mumbai,"Sanpada, Navi Mumbai - MPCB",03-09-2025 07:00:00,19.0575752,73.0151367,SO2,6,11,10
India,Maharashtra,Navi Mumbai,"Sector-2E Kalamboli, Navi Mumbai - MPCB",03-09-2025 07:00:00,19.02579,73.10297,PM2.5,NA,NA,NA
India,Maharashtra,Navi Mumbai,"Sector-2E Kalamboli, Navi Mumbai - MPCB",03-09-2025 07:00:00,19.02579,73.10297,CO,12,18,14
India,Maharashtra,Navi Mumbai,"Sector-2E Kalamboli, Navi Mumbai - MPCB",03-09-2025 07:00:00,19.02579,73.10297,OZONE,17,31,22
India,Maharashtra,Navi Mumbai,"Tondare-Taloja, Navi Mumbai - MPCB",03-09-2025 07:00:00,19.0630,73.1209,NO2,9,70,35
India,Maharashtra,Navi Mumbai,"Tondare-Taloja, Navi Mumbai - MPCB",03-09-2025 07:00:00,19.0630,73.1209,NH3,4,7,5
India,Maharashtra,Navi Mumbai,"Tondare-Taloja, Navi Mumbai - MPCB",03-09-2025 07:00:00,19.0630,73.1209,OZONE,3,17,4
India,Maharashtra,Parbhani,"Masoom Colony, Parbhani - MPCB",03-09-2025 07:00:00,19.265594,76.761463,PM2.5,18,40,26
India,Maharashtra,Parbhani,"Masoom Colony, Parbhani - MPCB",03-09-2025 07:00:00,19.265594,76.761463,SO2,NA,NA,NA
India,Maharashtra,Pune,"Savitribai Phule Pune University, Pune - MPCB",03-09-2025 07:00:00,18.547056,73.826908,OZONE,8,18,10
India,Maharashtra,Sangli,"Vijay Nagar, Sangli - MPCB",03-09-2025 07:00:00, 16.5038,74.3623,SO2,8,13,11
India,Maharashtra,Solapur,"Dnyaneshwar Nagar, Solapur - MPCB",03-09-2025 07:00:00,17.6336264,75.9132495,NO2,1,13,6
India,Maharashtra,Solapur,"Ratandeep Housing Society, Solapur - MPCB",03-09-2025 07:00:00,17.65439,75.90649,NH3,2,8,3
India,Maharashtra,Solapur,"Ratandeep Housing Society, Solapur - MPCB",03-09-2025 07:00:00,17.65439,75.90649,CO,8,74,16
India,Maharashtra,Thane,"Kasarvadavali, Thane - MPCB",03-09-2025 07:00:00,19.26777,72.97182,NH3,1,4,2
India,Maharashtra,Thane,"Upvan Fort, Thane - MPCB",03-09-2025 07:00:00,19.222279,72.957979,PM2.5,19,58,34
India,Maharashtra,Virar,"Bolinj, Virar - MPCB",03-09-2025 07:00:00,19.4458210,72.7988231,PM10,20,38,30
India,Maharashtra,Pune,"Bhumkar Nagar, Pune - IITM",03-09-2025 07:00:00,18.605770,73.749976,NO2,6,9,7
India,Maharashtra,Pune,"Dhankawadi, Pune - IITM",03-09-2025 07:00:00,18.459883,73.852193,OZONE,1,1,1
India,Maharashtra,Pune,"Panchawati_Pashan, Pune - IITM",03-09-2025 07:00:00,18.536457,73.805454,PM2.5,26,42,34
India,Maharashtra,Pune,"Panchawati_Pashan, Pune - IITM",03-09-2025 07:00:00,18.536457,73.805454,NO2,12,44,22
India,Maharashtra,Pimpri-Chinchwad,"Park Street Wakad, Pimpri Chinchwad - MPCB",03-09-2025 07:00:00,18.59051,73.77946,PM10,33,75,51
India,Maharashtra,Pimpri-Chinchwad,"Savta Mali Nagar, Pimpri-Chinchwad - IITM",03-09-2025 07:00:00,18.614767,73.799516,PM2.5,9,52,27
India,Maharashtra,Pimpri-Chinchwad,"Thergaon, Pimpri Chinchwad - MPCB",03-09-2025 07:00:00,18.616318,73.765797,PM2.5,13,42,31
India,Maharashtra,Nashik,"Gangapur Road, Nashik - MPCB",03-09-2025 07:00:00,20.0073285,73.7762427,CO,10,12,11
India,Maharashtra,Nashik,"MIDC Ambad, Nashik - MPCB",03-09-2025 07:00:00,19.950220,73.731480,PM10,46,73,59
India,Maharashtra,Nashik,"MIDC Ambad, Nashik - MPCB",03-09-2025 07:00:00,19.950220,73.731480,NO2,2,16,9
India,Maharashtra,Nashik,"MIDC Ambad, Nashik - MPCB",03-09-2025 07:00:00,19.950220,73.731480,SO2,1,13,3
India,Maharashtra,Nagpur,"Opp GPO Civil Lines, Nagpur - MPCB",03-09-2025 07:00:00,21.152875,79.0517531,CO,12,57,16
India,Maharashtra,Nagpur,"Ram Nagar, Nagpur - MPCB",03-09-2025 07:00:00,21.143383,79.048912,SO2,1,4,2
India,Maharashtra,Nagpur,"Ram Nagar, Nagpur - MPCB",03-09-2025 07:00:00,21.143383,79.048912,CO,6,18,8
India,Punjab,Mandi Gobindgarh,"RIMT University, Mandi Gobindgarh - PPCB",03-09-2025 07:00:00,30.649961,76.331442,OZONE,48,53,48
India,Punjab,Patiala,"Model Town, Patiala - PPCB",03-09-2025 07:00:00,30.349388,76.366642,PM10,5,13,9
India,Punjab,Rupnagar,"Ratanpura, Rupnagar - Ambuja Cements",03-09-2025 07:00:00,31.0325454,76.5623046,PM2.5,6,43,20
India,Punjab,Rupnagar,"Ratanpura, Rupnagar - Ambuja Cements",03-09-2025 07:00:00,31.0325454,76.5623046,PM10,6,48,22
India,Punjab,Rupnagar,"Ratanpura, Rupnagar - Ambuja Cements",03-09-2025 07:00:00,31.0325454,76.5623046,NO2,4,5,5
India,Rajasthan,Ajmer,"Civil Lines,  Ajmer - RSPCB",03-09-2025 07:00:00,26.470859,74.646594,PM10,57,113,93
India,Rajasthan,Ajmer,"Civil Lines,  Ajmer - RSPCB",03-09-2025 07:00:00,26.470859,74.646594,NO2,26,52,41
India,Rajasthan,Alwar,"Moti Doongri, Alwar - RSPCB",03-09-2025 07:00:00,27.554793,76.611536,PM2.5,26,45,30
India,Rajasthan,Alwar,"Moti Doongri, Alwar - RSPCB",03-09-2025 07:00:00,27.554793,76.611536,NO2,72,102,83
India,Punjab,Bathinda,"Hardev Nagar, Bathinda - PPCB",03-09-2025 07:00:00,30.233011,74.907758,PM10,4,31,12
India,Punjab,Jalandhar,"Civil Line, Jalandhar - PPCB",03-09-2025 07:00:00,31.321907,75.578914,NH3,1,1,1
India,Punjab,Jalandhar,"Civil Line, Jalandhar - PPCB",03-09-2025 07:00:00,31.321907,75.578914,SO2,12,14,13
India,Punjab,Khanna,"Kalal Majra, Khanna - PPCB",03-09-2025 07:00:00,30.736056 ,76.209694,NO2,26,32,28
India,Punjab,Khanna,"Kalal Majra, Khanna - PPCB",03-09-2025 07:00:00,30.736056 ,76.209694,NH3,7,7,7
India,Punjab,Ludhiana,"Punjab Agricultural University, Ludhiana - PPCB",03-09-2025 07:00:00,30.9028,75.8086,PM2.5,37,52,42
India,Punjab,Mandi Gobindgarh,"RIMT University, Mandi Gobindgarh - PPCB",03-09-2025 07:00:00,30.649961,76.331442,PM2.5,NA,NA,NA
India,Punjab,Mandi Gobindgarh,"RIMT University, Mandi Gobindgarh - PPCB",03-09-2025 07:00:00,30.649961,76.331442,PM10,NA,NA,NA
India,Punjab,Mandi Gobindgarh,"RIMT University, Mandi Gobindgarh - PPCB",03-09-2025 07:00:00,30.649961,76.331442,NO2,NA,NA,NA
India,Punjab,Mandi Gobindgarh,"RIMT University, Mandi Gobindgarh - PPCB",03-09-2025 07:00:00,30.649961,76.331442,NH3,NA,NA,NA
India,Odisha,Rourkela,"Fertilizer Township, Rourkela - OSPCB",03-09-2025 07:00:00,22.18972222,84.86277778,CO,23,29,26
India,Odisha,Rourkela,"Raghunathpali, Rourkela - OSPCB",03-09-2025 07:00:00,22.220833,84.809444,PM2.5,4,52,19
India,Odisha,Rourkela,"Raghunathpali, Rourkela - OSPCB",03-09-2025 07:00:00,22.220833,84.809444,PM10,8,50,24
India,Odisha,Suakati,"OMC Colony, Suakati - OSPCB",03-09-2025 07:00:00,21.606865,85.510538,OZONE,7,9,8
India,Odisha,Tensa,"Barsua Iron Ore Mines, Tensa - OSPCB",03-09-2025 07:00:00,21.869985,85.167016,PM2.5,17,36,22
India,Punjab,Amritsar,"Golden Temple, Amritsar - PPCB",03-09-2025 07:00:00,31.620000,74.876512,NH3,3,9,4
India,Punjab,Amritsar,"Golden Temple, Amritsar - PPCB",03-09-2025 07:00:00,31.620000,74.876512,SO2,12,16,14
India,Rajasthan,Bhilwara,"Pratap Nagar, Bhilwara - RSPCB",03-09-2025 07:00:00,25.339605,74.618883,NO2,7,26,16
India,Rajasthan,Bhilwara,"Pratap Nagar, Bhilwara - RSPCB",03-09-2025 07:00:00,25.339605,74.618883,OZONE,3,19,7
India,Rajasthan,Bhiwadi,"RIICO Ind. Area III, Bhiwadi - RSPCB",03-09-2025 07:00:00,28.194909,76.862296,PM2.5,23,111,63
India,Rajasthan,Bhiwadi,"Vasundhara Nagar_UIT, Bhiwadi - RSPCB",03-09-2025 07:00:00,28.207266,76.829265,PM10,4,62,28
India,Rajasthan,Bhiwadi,"Vasundhara Nagar_UIT, Bhiwadi - RSPCB",03-09-2025 07:00:00,28.207266,76.829265,NO2,10,57,22
India,Rajasthan,Bhiwadi,"Vasundhara Nagar_UIT, Bhiwadi - RSPCB",03-09-2025 07:00:00,28.207266,76.829265,NH3,3,4,3
India,Rajasthan,Bikaner,"MM Ground, Bikaner - RSPCB",03-09-2025 07:00:00,28.018792,73.292658,PM2.5,12,500,52
India,Rajasthan,Banswara,"Rati Talai, Banswara - RSPCB",03-09-2025 07:00:00,23.555190,74.440010,CO,8,22,19
India,Rajasthan,Baran,"Bamboliya, Baran - RSPCB",03-09-2025 07:00:00,25.106006,76.469948,PM10,3,88,35
India,Rajasthan,Baran,"Bamboliya, Baran - RSPCB",03-09-2025 07:00:00,25.106006,76.469948,NH3,2,3,2
India,Rajasthan,Baran,"Bamboliya, Baran - RSPCB",03-09-2025 07:00:00,25.106006,76.469948,CO,16,24,18
India,Rajasthan,Barmer,"Railway Colony, Barmer - RSPCB",03-09-2025 07:00:00,25.747299,71.393989,NH3,2,6,4
India,Rajasthan,Barmer,"Railway Colony, Barmer - RSPCB",03-09-2025 07:00:00,25.747299,71.393989,SO2,3,6,4
India,Rajasthan,Bharatpur,"Krishna Nagar, Bharatpur - RSPCB",03-09-2025 07:00:00,27.215415,77.50873,NO2,9,22,14
India,Odisha,Angul,"Hakimapada, Angul - OSPCB",03-09-2025 07:00:00,20.832874,85.104082,PM2.5,2,381,67
India,Odisha,Angul,"Hakimapada, Angul - OSPCB",03-09-2025 07:00:00,20.832874,85.104082,CO,38,128,57
India,Odisha,Angul,"Hakimapada, Angul - OSPCB",03-09-2025 07:00:00,20.832874,85.104082,OZONE,2,7,4
India,Odisha,Barbil,"Forest Office, Barbil - OSPCB",03-09-2025 07:00:00,22.1166054,85.3945546,NO2,4,13,8
India,Odisha,Baripada,"Meher Colony, Baripada - OSPCB",03-09-2025 07:00:00,21.941841,86.728318,PM10,23,40,29
India,Odisha,Bhubaneswar,"Lingraj Mandir, Bhubaneswar - OSPCB",03-09-2025 07:00:00,20.240790,85.836784,NO2,NA,NA,NA
India,Odisha,Byasanagar,"Ferro Chrome Colony, Byasanagar - OSPCB",03-09-2025 07:00:00,20.94185,86.11510,NH3,1,1,1
India,Odisha,Keonjhar,"Jagamohanpur, Keonjhar - OSPCB",03-09-2025 07:00:00,21.643900,85.599355,PM2.5,16,43,27
India,Odisha,Keonjhar,"Jagamohanpur, Keonjhar - OSPCB",03-09-2025 07:00:00,21.643900,85.599355,NH3,6,16,9
India,Odisha,Rairangpur,"Divisional Forest Office, Rairangpur - OSPCB",03-09-2025 07:00:00,22.265816,86.174829,PM2.5,26,40,30
India,Odisha,Rairangpur,"Divisional Forest Office, Rairangpur - OSPCB",03-09-2025 07:00:00,22.265816,86.174829,NO2,18,23,21
India,Odisha,Brajrajnagar,"GM Office, Brajrajnagar - OSPCB",03-09-2025 07:00:00,21.8004996,83.8396977,PM2.5,3,78,26
India,Odisha,Brajrajnagar,"GM Office, Brajrajnagar - OSPCB",03-09-2025 07:00:00,21.8004996,83.8396977,SO2,16,17,16
India,Odisha,Byasanagar,"Ferro Chrome Colony, Byasanagar - OSPCB",03-09-2025 07:00:00,20.94185,86.11510,PM10,3,37,22
India,Odisha,Byasanagar,"Ferro Chrome Colony, Byasanagar - OSPCB",03-09-2025 07:00:00,20.94185,86.11510,NO2,16,29,20
India,Odisha,Bhubaneswar,"Lingraj Mandir, Bhubaneswar - OSPCB",03-09-2025 07:00:00,20.240790,85.836784,SO2,NA,NA,NA
India,Odisha,Bhubaneswar,"Patia, Bhubaneswar - OSPCB",03-09-2025 07:00:00,20.34652,85.81630,NO2,NA,NA,NA
India,Odisha,Bhubaneswar,"Patia, Bhubaneswar - OSPCB",03-09-2025 07:00:00,20.34652,85.81630,SO2,NA,NA,NA
India,Rajasthan,Kota,"Nayapura, Kota - RSPCB",03-09-2025 07:00:00,25.196024,75.855668,NH3,4,7,5
India,Rajasthan,Kota,"Nayapura, Kota - RSPCB",03-09-2025 07:00:00,25.196024,75.855668,OZONE,19,45,30
India,Rajasthan,Kota,"Shrinath Puram, Kota - RSPCB",03-09-2025 07:00:00,25.14389,75.821256,PM2.5,42,112,70
India,Rajasthan,Kota,"Shrinath Puram, Kota - RSPCB",03-09-2025 07:00:00,25.14389,75.821256,NO2,13,15,14
India,Rajasthan,Kota,"Shrinath Puram, Kota - RSPCB",03-09-2025 07:00:00,25.14389,75.821256,CO,51,101,78
India,Rajasthan,Nagaur,"Karni Colony, Nagaur - RSPCB",03-09-2025 07:00:00,27.213494,73.734444,PM10,41,129,93
India,Rajasthan,Nagaur,"Karni Colony, Nagaur - RSPCB",03-09-2025 07:00:00,27.213494,73.734444,CO,11,27,15
India,Rajasthan,Pali,"Indira Colony Vistar, Pali - RSPCB",03-09-2025 07:00:00,25.771061, 73.340227,NO2,28,63,45
India,Rajasthan,Pali,"Indira Colony Vistar, Pali - RSPCB",03-09-2025 07:00:00,25.771061, 73.340227,SO2,5,9,7
India,Rajasthan,Pratapgarh,"Pragati Nagar, Pratapgarh - RSPCB",03-09-2025 07:00:00,24.041198,74.780702,PM10,87,140,110
India,Rajasthan,Jodhpur,"Mandor, Jodhpur - RSPCB",03-09-2025 07:00:00,26.358805,73.047444,NO2,5,30,15
India,Rajasthan,Jodhpur,"Mandor, Jodhpur - RSPCB",03-09-2025 07:00:00,26.358805,73.047444,NH3,2,11,4
India,Rajasthan,Jodhpur,"Mandor, Jodhpur - RSPCB",03-09-2025 07:00:00,26.358805,73.047444,CO,4,26,11
India,Rajasthan,Jodhpur,"Samrat Ashok Udhyan, Jodhpur - RSPCB",03-09-2025 07:00:00,26.253384,72.976571,PM2.5,38,83,49
India,Rajasthan,Jodhpur,"Samrat Ashok Udhyan, Jodhpur - RSPCB",03-09-2025 07:00:00,26.253384,72.976571,CO,14,42,18
India,Rajasthan,Kota,"Dhanmandi, Kota - RSPCB",03-09-2025 07:00:00,25.164090,75.858137,PM10,28,127,73
India,Rajasthan,Kota,"Dhanmandi, Kota - RSPCB",03-09-2025 07:00:00,25.164090,75.858137,NO2,12,46,20
India,Rajasthan,Kota,"Dhanmandi, Kota - RSPCB",03-09-2025 07:00:00,25.164090,75.858137,NH3,2,3,2
India,Rajasthan,Kota,"Nayapura, Kota - RSPCB",03-09-2025 07:00:00,25.196024,75.855668,PM2.5,27,67,44
India,Rajasthan,Jaipur,"Mansarovar Sector-12, Jaipur - RSPCB",03-09-2025 07:00:00,26.843698,75.766894,OZONE,9,73,19
India,Rajasthan,Jaipur,"Police Commissionerate, Jaipur - RSPCB",03-09-2025 07:00:00,26.9164092,75.7994901,PM10,33,98,68
India,Rajasthan,Jaipur,"Police Commissionerate, Jaipur - RSPCB",03-09-2025 07:00:00,26.9164092,75.7994901,NH3,7,12,9
India,Rajasthan,Jaipur,"Police Commissionerate, Jaipur - RSPCB",03-09-2025 07:00:00,26.9164092,75.7994901,SO2,10,16,14
India,Rajasthan,Jaipur,"Police Commissionerate, Jaipur - RSPCB",03-09-2025 07:00:00,26.9164092,75.7994901,CO,9,105,38
India,Rajasthan,Jaipur,"RIICO Sitapura, Jaipur - RSPCB",03-09-2025 07:00:00,26.786682,75.827928,OZONE,1,28,2
India,Rajasthan,Jaipur,"Sector-2 Murlipura, Jaipur - RSPCB",03-09-2025 07:00:00,26.960669,75.771817,PM2.5,22,52,35
India,Rajasthan,Dausa,"Khatikan Mohalla, Dausa - RSPCB",03-09-2025 07:00:00,26.895552,76.334753,CO,19,62,22
India,Rajasthan,Dholpur,"Raja Ganj, Dholpur - RSPCB",03-09-2025 07:00:00,26.699557,77.898881,PM2.5,8,31,14
India,Rajasthan,Dungarpur,"Bhoiwada, Dungarpur - RSPCB",03-09-2025 07:00:00,23.837789,73.714926,SO2,4,5,4
India,Rajasthan,Dungarpur,"Bhoiwada, Dungarpur - RSPCB",03-09-2025 07:00:00,23.837789,73.714926,OZONE,6,42,21
India,Rajasthan,Hanumangarh,"Housing Board, Hanumangarh - RSPCB",03-09-2025 07:00:00,29.610750,74.283608,NO2,52,130,72
India,Rajasthan,Hanumangarh,"Housing Board, Hanumangarh - RSPCB",03-09-2025 07:00:00,29.610750,74.283608,SO2,3,5,4
India,Rajasthan,Hanumangarh,"Housing Board, Hanumangarh - RSPCB",03-09-2025 07:00:00,29.610750,74.283608,OZONE,16,27,18
India,Rajasthan,Jaipur,"Shastri Nagar, Jaipur - RSPCB",03-09-2025 07:00:00,26.9502929,75.730943,CO,71,118,98
India,Rajasthan,Jaisalmer,"Sadar Bazar, Jaisalmer - RSPCB",03-09-2025 07:00:00,26.912329,70.909168,SO2,1,3,1
India,Rajasthan,Jalore,"Mudtra Sili, Jalore - RSPCB",03-09-2025 07:00:00,25.344694,72.626208,PM2.5,22,53,37
India,Rajasthan,Jalore,"Mudtra Sili, Jalore - RSPCB",03-09-2025 07:00:00,25.344694,72.626208,NH3,2,4,3
India,Rajasthan,Jalore,"Mudtra Sili, Jalore - RSPCB",03-09-2025 07:00:00,25.344694,72.626208,OZONE,18,40,30
India,Rajasthan,Jhalawar,"Rajlaxmi Nagar, Jhalawar - RSPCB",03-09-2025 07:00:00,24.588397,76.172782,PM10,16,92,45
India,Rajasthan,Pratapgarh,"Pragati Nagar, Pratapgarh - RSPCB",03-09-2025 07:00:00,24.041198,74.780702,NH3,2,3,3
India,Rajasthan,Rajsamand,"Dhoinda, Rajsamand - RSPCB",03-09-2025 07:00:00,25.036360,73.883502,NO2,6,13,8
India,Rajasthan,Rajsamand,"Dhoinda, Rajsamand - RSPCB",03-09-2025 07:00:00,25.036360,73.883502,OZONE,29,100,91
India,Rajasthan,Sawai Madhopur,"Sahu Nagar, Sawai Madhopur - RSPCB",03-09-2025 07:00:00,26.031443,76.359327,NH3,7,8,8
India,Rajasthan,Sawai Madhopur,"Sahu Nagar, Sawai Madhopur - RSPCB",03-09-2025 07:00:00,26.031443,76.359327,SO2,1,9,5
India,Rajasthan,Bundi,"New Colony, Bundi - RSPCB",03-09-2025 07:00:00,25.435774,75.644272,NO2,5,40,9
India,Rajasthan,Chittorgarh,"Shastri Nagar, Chittorgarh - RSPCB",03-09-2025 07:00:00,24.892047,74.623527,PM2.5,17,41,31
India,Rajasthan,Chittorgarh,"Shastri Nagar, Chittorgarh - RSPCB",03-09-2025 07:00:00,24.892047,74.623527,OZONE,9,55,19
India,Rajasthan,Churu,"Subash Chowk, Churu - RSPCB",03-09-2025 07:00:00,28.296139,74.961696,SO2,3,4,3
India,Rajasthan,Churu,"Subash Chowk, Churu - RSPCB",03-09-2025 07:00:00,28.296139,74.961696,OZONE,4,46,13
India,Rajasthan,Jhunjhunu,"Indra Nagar, Jhunjhunu - RSPCB",03-09-2025 07:00:00,28.108988,75.386577,CO,12,24,19
India,Rajasthan,Jodhpur,"Collectorate, Jodhpur - RSPCB",03-09-2025 07:00:00,26.268249,73.0193853,OZONE,5,18,12
India,Rajasthan,Jodhpur,"Digari Kalan, Jodhpur - RSPCB",03-09-2025 07:00:00,26.295810,73.082283,NO2,3,44,15
India,Rajasthan,Jodhpur,"Digari Kalan, Jodhpur - RSPCB",03-09-2025 07:00:00,26.295810,73.082283,NH3,1,4,3
India,Rajasthan,Dausa,"Khatikan Mohalla, Dausa - RSPCB",03-09-2025 07:00:00,26.895552,76.334753,PM2.5,5,34,13
India,TamilNadu,Pudukottai,"SIPCOT Nathampannai, Pudukottai - TNPCB",03-09-2025 07:00:00,10.423417,78.784889,NO2,12,21,13
India,TamilNadu,Pudukottai,"SIPCOT Nathampannai, Pudukottai - TNPCB",03-09-2025 07:00:00,10.423417,78.784889,NH3,2,3,2
India,TamilNadu,Pudukottai,"SIPCOT Nathampannai, Pudukottai - TNPCB",03-09-2025 07:00:00,10.423417,78.784889,SO2,10,13,12
India,TamilNadu,Ramanathapuram,"Chalai Bazaar, Ramanathapuram - TNPCB",03-09-2025 07:00:00,9.36399,78.831977,PM10,19,94,44
India,TamilNadu,Ramanathapuram,"Chalai Bazaar, Ramanathapuram - TNPCB",03-09-2025 07:00:00,9.36399,78.831977,NH3,2,2,2
India,TamilNadu,Salem,"Sona College of Technology, Salem - TNPCB",03-09-2025 07:00:00,11.679111,78.125052,NO2,13,14,13
India,TamilNadu,Salem,"Sona College of Technology, Salem - TNPCB",03-09-2025 07:00:00,11.679111,78.125052,NH3,3,3,3
India,TamilNadu,Salem,"Sona College of Technology, Salem - TNPCB",03-09-2025 07:00:00,11.679111,78.125052,CO,18,18,18
India,TamilNadu,Salem,"Sona College of Technology, Salem - TNPCB",03-09-2025 07:00:00,11.679111,78.125052,OZONE,20,21,20
India,TamilNadu,Thanjavur,"Parisutham Nagar, Thanjavur - TNPCB",03-09-2025 07:00:00,10.7654824,79.1389968,SO2,16,17,16
India,TamilNadu,Chennai,"Royapuram, Chennai - TNPCB",03-09-2025 07:00:00,13.1036,80.2909,PM2.5,16,47,31
India,TamilNadu,Chennai,"Royapuram, Chennai - TNPCB",03-09-2025 07:00:00,13.1036,80.2909,NO2,9,33,20
India,TamilNadu,Chennai,"Royapuram, Chennai - TNPCB",03-09-2025 07:00:00,13.1036,80.2909,NH3,3,5,3
India,TamilNadu,Chennai,"Royapuram, Chennai - TNPCB",03-09-2025 07:00:00,13.1036,80.2909,SO2,NA,NA,NA
India,TamilNadu,Chennai,"Velachery Res. Area, Chennai - CPCB",03-09-2025 07:00:00,13.0052189,80.2398125,PM2.5,28,62,46
India,TamilNadu,Coimbatore,"PSG College of Arts and Science, Coimbatore - TNPCB",03-09-2025 07:00:00,11.0328,77.0349,NO2,8,9,8
India,TamilNadu,Cuddalore,"Kudikadu, Cuddalore - TNPCB",03-09-2025 07:00:00,11.6829898,79.7532099,SO2,17,18,17
India,TamilNadu,Cuddalore,"Kudikadu, Cuddalore - TNPCB",03-09-2025 07:00:00,11.6829898,79.7532099,OZONE,6,9,7
India,TamilNadu,Cuddalore,"Semmandalam, Cuddalore - TNPCB",03-09-2025 07:00:00,11.7637683,79.7499835,PM10,7,84,29
India,TamilNadu,Cuddalore,"Semmandalam, Cuddalore - TNPCB",03-09-2025 07:00:00,11.7637683,79.7499835,OZONE,1,2,2
India,TamilNadu,Gummidipoondi,"Anthoni Pillai Nagar, Gummidipoondi - TNPCB",03-09-2025 07:00:00,13.4127,80.1081,PM10,68,195,108
India,TamilNadu,Hosur,"SIPCOT Phase-1, Hosur - TNPCB",03-09-2025 07:00:00,12.746998,77.813811,PM10,29,98,63
India,TamilNadu,Hosur,"SIPCOT Phase-1, Hosur - TNPCB",03-09-2025 07:00:00,12.746998,77.813811,SO2,41,44,43
India,Sikkim,Gangtok,"Zero Point GICI, Gangtok - SSPCB",03-09-2025 07:00:00,27.338530,88.614099,PM2.5,4,40,16
India,Sikkim,Gangtok,"Zero Point GICI, Gangtok - SSPCB",03-09-2025 07:00:00,27.338530,88.614099,SO2,1,1,1
India,TamilNadu,Ariyalur,"Keelapalur, Ariyalur - TNPCB",03-09-2025 07:00:00,11.06825,79.07033,NO2,9,9,9
India,TamilNadu,Ariyalur,"Keelapalur, Ariyalur - TNPCB",03-09-2025 07:00:00,11.06825,79.07033,OZONE,NA,NA,NA
India,TamilNadu,Chennai,"Alandur Bus Depot, Chennai - CPCB",03-09-2025 07:00:00,12.9099161,80.1076538,PM10,42,112,65
India,TamilNadu,Chennai,"Alandur Bus Depot, Chennai - CPCB",03-09-2025 07:00:00,12.9099161,80.1076538,SO2,15,16,15
India,TamilNadu,Thoothukudi,"Meelavittan, Thoothukudi - TNPCB",03-09-2025 07:00:00,8.816428 ,78.099039,NO2,15,27,20
India,TamilNadu,Tirunelveli,"Municipal Corporation Office, Tirunelveli - TNPCB",03-09-2025 07:00:00,8.728442,77.6962,CO,28,30,29
India,TamilNadu,Tirunelveli,"Municipal Corporation Office, Tirunelveli - TNPCB",03-09-2025 07:00:00,8.728442,77.6962,OZONE,6,7,6
India,TamilNadu,Tirupur,"Kumaran College, Tirupur - TNPCB",03-09-2025 07:00:00,11.0973603,77.3228673,NO2,2,5,3
India,TamilNadu,Vellore,"Vasanthapuram, Vellore - TNPCB",03-09-2025 07:00:00,12.909494,79.131861,NH3,NA,NA,NA
India,TamilNadu,Chennai,"Kodungaiyur, Chennai - TNPCB",03-09-2025 07:00:00,13.1278,80.2642,NO2,5,20,9
India,TamilNadu,Chennai,"Kodungaiyur, Chennai - TNPCB",03-09-2025 07:00:00,13.1278,80.2642,CO,8,84,22
India,TamilNadu,Chennai,"Manali, Chennai - CPCB",03-09-2025 07:00:00,13.164544,80.26285,CO,11,96,32
India,TamilNadu,Chennai,"Perungudi, Chennai - TNPCB",03-09-2025 07:00:00,12.9533,80.2357,NO2,2,7,3
India,TamilNadu,Chennai,"Perungudi, Chennai - TNPCB",03-09-2025 07:00:00,12.9533,80.2357,SO2,1,3,2
India,TamilNadu,Chennai,"Perungudi, Chennai - TNPCB",03-09-2025 07:00:00,12.9533,80.2357,CO,14,33,27
India,Rajasthan,Tonk,"Shastri Nagar, Tonk - RSPCB",03-09-2025 07:00:00,26.159933,75.780517,PM2.5,7,137,44
India,Rajasthan,Tonk,"Shastri Nagar, Tonk - RSPCB",03-09-2025 07:00:00,26.159933,75.780517,NO2,2,68,12
India,Rajasthan,Udaipur,"Ashok Nagar, Udaipur - RSPCB",03-09-2025 07:00:00,24.5886166,73.6321397,NO2,4,40,23
India,Rajasthan,Udaipur,"Ashok Nagar, Udaipur - RSPCB",03-09-2025 07:00:00,24.5886166,73.6321397,OZONE,2,31,5
India,TamilNadu,Kanchipuram,"Kilambi, Kanchipuram - TNPCB",03-09-2025 07:00:00,12.864618,79.659968,PM2.5,13,79,33
India,TamilNadu,Karur,"Kamadenu Nagar, Karur - TNPCB",03-09-2025 07:00:00,10.967820,78.080882,PM10,6,64,31
India,TamilNadu,Madurai,"Uchapatti, Madurai - TNPCB",03-09-2025 07:00:00,9.865935,78.022669,PM10,28,43,36
India,TamilNadu,Palkalaiperur,"Bharathidasan University, Palkalaiperur - TNPCB",03-09-2025 07:00:00,10.681158,78.741746,OZONE,13,14,13
India,TamilNadu,Perundurai,"SIPCOT Industrial Park, Perundurai - TNPCB",03-09-2025 07:00:00,11.258242,77.552761,NH3,2,3,2
India,Uttar_Pradesh,Ghaziabad,"Loni, Ghaziabad - UPPCB",03-09-2025 07:00:00,28.757294,77.278792,PM2.5,12,63,36
India,Uttar_Pradesh,Ghaziabad,"Loni, Ghaziabad - UPPCB",03-09-2025 07:00:00,28.757294,77.278792,PM10,13,69,35
India,Uttar_Pradesh,Ghaziabad,"Loni, Ghaziabad - UPPCB",03-09-2025 07:00:00,28.757294,77.278792,OZONE,17,45,24
India,Uttar_Pradesh,Ghaziabad,"Sanjay Nagar, Ghaziabad - UPPCB",03-09-2025 07:00:00,28.685382,77.453839,SO2,10,24,19
India,Uttar_Pradesh,Ghaziabad,"Vasundhara, Ghaziabad - UPPCB",03-09-2025 07:00:00,28.6603346,77.3572563,NH3,3,7,4
India,Uttar_Pradesh,Ghaziabad,"Vasundhara, Ghaziabad - UPPCB",03-09-2025 07:00:00,28.6603346,77.3572563,CO,26,54,40
India,Uttar_Pradesh,Gorakhpur,"Madan Mohan Malaviya University of Technology, Gorakhpur - UPPCB",03-09-2025 07:00:00,26.730136,83.433859,NH3,1,1,1
India,Tripura,Agartala,"Bardowali, Agartala - Tripura SPCB",03-09-2025 07:00:00,23.8175497,91.2726974,NO2,4,13,7
India,Uttar_Pradesh,Agra,"Sanjay Palace, Agra - UPPCB",03-09-2025 07:00:00,27.19865833,78.00598056,SO2,13,19,16
India,Uttar_Pradesh,Agra,"Sanjay Palace, Agra - UPPCB",03-09-2025 07:00:00,27.19865833,78.00598056,OZONE,16,27,20
India,Uttar_Pradesh,Agra,"Sector-3B Avas Vikas Colony, Agra - UPPCB",03-09-2025 07:00:00,27.19412,77.96237,NO2,16,17,16
India,Uttar_Pradesh,Agra,"Sector-3B Avas Vikas Colony, Agra - UPPCB",03-09-2025 07:00:00,27.19412,77.96237,SO2,11,12,12
India,Telangana,Hyderabad,"IITH Kandi, Hyderabad - TSPCB",03-09-2025 07:00:00,17.585705,78.126199,SO2,12,13,12
India,Telangana,Hyderabad,"IITH Kandi, Hyderabad - TSPCB",03-09-2025 07:00:00,17.585705,78.126199,OZONE,21,25,25
India,Telangana,Hyderabad,"Kokapet, Hyderabad - TSPCB",03-09-2025 07:00:00,17.393559,78.339194,PM10,NA,NA,NA
India,Telangana,Hyderabad,"Nacharam_TSIIC IALA, Hyderabad - TSPCB",03-09-2025 07:00:00,17.429398,78.569354,PM2.5,36,47,40
India,Telangana,Hyderabad,"New Malakpet, Hyderabad - TSPCB",03-09-2025 07:00:00,17.37206,78.50864,PM2.5,42,87,57
India,Uttar_Pradesh,Agra,"Shahjahan Garden, Agra - UPPCB",03-09-2025 07:00:00,27.169338,78.03582,NH3,1,1,1
India,Uttar_Pradesh,Agra,"Shastripuram, Agra - UPPCB",03-09-2025 07:00:00,27.19862,77.92066,NH3,3,3,3
India,Uttar_Pradesh,Baghpat,"Sardar Patel Inter College, Baghpat - UPPCB",03-09-2025 07:00:00,28.964949,77.278761,NH3,NA,NA,NA
India,Uttar_Pradesh,Bareilly,"Civil Lines, Bareilly - UPPCB",03-09-2025 07:00:00,28.359581,79.414455,CO,2,14,8
India,Uttar_Pradesh,Greater Noida,"Knowledge Park - III, Greater Noida - UPPCB",03-09-2025 07:00:00,28.47272,77.482000,CO,16,109,25
India,Uttar_Pradesh,Greater Noida,"Knowledge Park - V, Greater Noida - UPPCB",03-09-2025 07:00:00,28.557054,77.453663,PM2.5,7,35,19
India,Uttar_Pradesh,Greater Noida,"Knowledge Park - V, Greater Noida - UPPCB",03-09-2025 07:00:00,28.557054,77.453663,SO2,5,20,16
India,Uttar_Pradesh,Hapur,"Anand Vihar, Hapur - UPPCB",03-09-2025 07:00:00,28.725645,77.749675,PM10,10,28,22
India,Uttar_Pradesh,Bulandshahr,"Yamunapuram, Bulandshahr - UPPCB",03-09-2025 07:00:00,28.406963,77.849831,CO,30,50,33
India,Uttar_Pradesh,Firozabad,"Vibhab Nagar, Firozabad - UPPCB",03-09-2025 07:00:00,27.1594,78.3953,PM10,11,53,29
India,Uttar_Pradesh,Ghaziabad,"Indirapuram, Ghaziabad - UPPCB",03-09-2025 07:00:00,28.646233,77.358075,CO,17,56,25
India,Telangana,Hyderabad,"New Malakpet, Hyderabad - TSPCB",03-09-2025 07:00:00,17.37206,78.50864,NO2,14,20,20
India,Telangana,Hyderabad,"Ramachandrapuram, Hyderabad - TSPCB",03-09-2025 07:00:00,17.528544,78.286195,CO,29,44,31
India,Telangana,Hyderabad,"Zoo Park, Hyderabad - TSPCB",03-09-2025 07:00:00,17.349694,78.451437,CO,11,29,18
India,Telangana,Hyderabad,"ECIL Kapra, Hyderabad - TSPCB",03-09-2025 07:00:00,17.470431,78.566959,PM2.5,40,41,40
India,Telangana,Hyderabad,"ECIL Kapra, Hyderabad - TSPCB",03-09-2025 07:00:00,17.470431,78.566959,NO2,11,21,17
India,Telangana,Hyderabad,"ICRISAT Patancheru, Hyderabad - TSPCB",03-09-2025 07:00:00,17.518400,78.278777,PM10,30,70,42
India,Uttar_Pradesh,Jhansi,"Shivaji Nagar, Jhansi - UPPCB",03-09-2025 07:00:00,25.4547,78.6039,NO2,6,6,6
India,West_Bengal,Asansol,"Trivenidevi Bhalotia College, Asansol - WBPCB",03-09-2025 07:00:00,23.616515,87.119133,NH3,1,1,1
India,West_Bengal,Asansol,"Trivenidevi Bhalotia College, Asansol - WBPCB",03-09-2025 07:00:00,23.616515,87.119133,CO,44,74,49
India,West_Bengal,Asansol,"Trivenidevi Bhalotia College, Asansol - WBPCB",03-09-2025 07:00:00,23.616515,87.119133,OZONE,18,32,20
India,West_Bengal,Barrackpore,"SVSPA Campus, Barrackpore - WBPCB",03-09-2025 07:00:00,22.7605581,88.3617589,PM2.5,5,20,12
India,West_Bengal,Barrackpore,"SVSPA Campus, Barrackpore - WBPCB",03-09-2025 07:00:00,22.7605581,88.3617589,NO2,9,16,12
India,West_Bengal,Barrackpore,"SVSPA Campus, Barrackpore - WBPCB",03-09-2025 07:00:00,22.7605581,88.3617589,OZONE,5,8,6
India,West_Bengal,Durgapur,"Mahishkapur Road_B-Zone, Durgapur - WBPCB",03-09-2025 07:00:00,23.567923,87.306843,CO,31,40,33
India,West_Bengal,Durgapur,"PCBL Residential Complex, Durgapur - WBPCB",03-09-2025 07:00:00,23.5087640,87.3544400,NO2,1,10,5
India,West_Bengal,Durgapur,"PCBL Residential Complex, Durgapur - WBPCB",03-09-2025 07:00:00,23.5087640,87.3544400,CO,6,22,12
India,Uttar_Pradesh,Varanasi,"Bhelupur, Varanasi - UPPCB",03-09-2025 07:00:00,25.301778,82.996789,SO2,29,30,30
India,Uttar_Pradesh,Varanasi,"Bhelupur, Varanasi - UPPCB",03-09-2025 07:00:00,25.301778,82.996789,CO,6,50,19
India,Uttar_Pradesh,Varanasi,"Bhelupur, Varanasi - UPPCB",03-09-2025 07:00:00,25.301778,82.996789,OZONE,1,4,2
India,Uttar_Pradesh,Varanasi,"IESD Banaras Hindu University, Varanasi - UPPCB",03-09-2025 07:00:00,25.262326,82.995408,OZONE,4,28,10
India,Uttar_Pradesh,Varanasi,"Maldahiya, Varanasi - UPPCB",03-09-2025 07:00:00,25.32393,82.99687,OZONE,2,8,2
India,Uttar_Pradesh,Vrindavan,"Omex Eternity, Vrindavan - UPPCB",03-09-2025 07:00:00,27.5714090,77.6557570,NH3,1,2,2
India,Uttar_Pradesh,Vrindavan,"Omex Eternity, Vrindavan - UPPCB",03-09-2025 07:00:00,27.5714090,77.6557570,CO,17,26,21
India,Uttar_Pradesh,Vrindavan,"Omex Eternity, Vrindavan - UPPCB",03-09-2025 07:00:00,27.5714090,77.6557570,OZONE,15,15,15
India,Uttarakhand,Dehradun,"Doon University, Dehradun - UKPCB",03-09-2025 07:00:00,30.269444,78.044167,CO,1,25,8
India,Uttarakhand,Kashipur,"Govt. Girls Inter College, Kashipur - UKPCB",03-09-2025 07:00:00,29.2124114,78.9611753,PM2.5,6,43,18
India,West_Bengal,Asansol,"Asansol Court Area, Asansol - WBPCB",03-09-2025 07:00:00,23.685297,86.945968,SO2,10,13,12
India,West_Bengal,Asansol,"Evelyn Lodge, Asansol - WBPCB",03-09-2025 07:00:00,23.6979360,86.9443950,SO2,4,5,4
India,West_Bengal,Asansol,"Mahabir Colliery, Asansol - WBPCB",03-09-2025 07:00:00,23.6181830,87.1057180,OZONE,15,27,17
India,Uttar_Pradesh,Moradabad,"Buddhi Vihar, Moradabad - UPPCB",03-09-2025 07:00:00,28.83526,78.74460,OZONE,11,22,14
India,Uttar_Pradesh,Moradabad,"Employment Office, Moradabad - UPPCB",03-09-2025 07:00:00,28.88528,78.73880,PM10,40,74,52
India,Uttar_Pradesh,Moradabad,"Jigar Colony, Moradabad - UPPCB",03-09-2025 07:00:00,28.856664,78.772638,PM10,21,145,39
India,Uttar_Pradesh,Moradabad,"Kashiram Nagar, Moradabad - UPPCB",03-09-2025 07:00:00,28.849399,78.742362,PM10,20,127,40
India,Uttar_Pradesh,Moradabad,"Transport Nagar, Moradabad - UPPCB",03-09-2025 07:00:00,28.802625,78.753728,OZONE,29,42,32
India,Uttar_Pradesh,Lucknow,"Talkatora District Industries Center, Lucknow - CPCB",03-09-2025 07:00:00,26.83399722,80.8917361,NO2,31,48,40
India,Uttar_Pradesh,Lucknow,"Talkatora District Industries Center, Lucknow - CPCB",03-09-2025 07:00:00,26.83399722,80.8917361,NH3,9,17,13
India,Uttar_Pradesh,Lucknow,"Talkatora District Industries Center, Lucknow - CPCB",03-09-2025 07:00:00,26.83399722,80.8917361,CO,10,53,26
India,Uttar_Pradesh,Meerut,"Jai Bhim Nagar, Meerut - UPPCB",03-09-2025 07:00:00,28.9535882,77.7622941,PM10,2,22,13
India,Uttar_Pradesh,Moradabad,"Buddhi Vihar, Moradabad - UPPCB",03-09-2025 07:00:00,28.83526,78.74460,PM10,25,102,47
India,Uttar_Pradesh,Prayagraj,"Jhunsi, Prayagraj - UPPCB",03-09-2025 07:00:00,25.425602,81.917152,CO,4,18,13
India,Uttar_Pradesh,Prayagraj,"Motilal Nehru NIT, Prayagraj - UPPCB",03-09-2025 07:00:00,25.494,81.863,NH3,8,8,8
India,Uttar_Pradesh,Prayagraj,"Motilal Nehru NIT, Prayagraj - UPPCB",03-09-2025 07:00:00,25.494,81.863,OZONE,13,25,15
India,Uttar_Pradesh,Prayagraj,"Nagar Nigam, Prayagraj - UPPCB",03-09-2025 07:00:00,25.44919916 ,81.82735986 ,PM10,16,44,27
India,Uttar_Pradesh,Prayagraj,"Nagar Nigam, Prayagraj - UPPCB",03-09-2025 07:00:00,25.44919916 ,81.82735986 ,CO,12,24,17
India,Uttar_Pradesh,Prayagraj,"Nagar Nigam, Prayagraj - UPPCB",03-09-2025 07:00:00,25.44919916 ,81.82735986 ,OZONE,15,29,22
India,Uttar_Pradesh,Lucknow,"B R Ambedkar University, Lucknow - UPPCB",03-09-2025 07:00:00,26.766433,80.927299,OZONE,26,37,27
India,Uttar_Pradesh,Lucknow,"Gomti Nagar, Lucknow - UPPCB",03-09-2025 07:00:00,26.868120,81.005119,OZONE,37,44,38
India,Uttar_Pradesh,Lucknow,"Kendriya Vidyalaya, Lucknow - CPCB",03-09-2025 07:00:00,26.906111,80.948222,PM10,10,39,30
India,Uttar_Pradesh,Lucknow,"Kendriya Vidyalaya, Lucknow - CPCB",03-09-2025 07:00:00,26.906111,80.948222,SO2,1,25,10
India,Uttar_Pradesh,Lucknow,"Kukrail Picnic Spot-1, Lucknow - UPPCB",03-09-2025 07:00:00,26.90723,80.98579,OZONE,19,50,26
India,Uttar_Pradesh,Kanpur,"FTI Kidwai Nagar, Kanpur - UPPCB",03-09-2025 07:00:00,26.428282,80.327067,SO2,9,16,10
India,Uttar_Pradesh,Kanpur,"FTI Kidwai Nagar, Kanpur - UPPCB",03-09-2025 07:00:00,26.428282,80.327067,CO,24,42,26
India,Uttar_Pradesh,Kanpur,"Nehru Nagar, Kanpur - UPPCB",03-09-2025 07:00:00,26.4703136,80.3229863,OZONE,6,42,6
India,Uttar_Pradesh,Lucknow,"B R Ambedkar University, Lucknow - UPPCB",03-09-2025 07:00:00,26.766433,80.927299,PM10,31,102,47
India,Uttar_Pradesh,Noida,"Sector - 125, Noida - UPPCB",03-09-2025 07:00:00,28.5447608,77.3231257,PM2.5,10,38,19
India,Uttar_Pradesh,Noida,"Sector - 125, Noida - UPPCB",03-09-2025 07:00:00,28.5447608,77.3231257,CO,10,28,19
India,Uttar_Pradesh,Noida,"Sector - 125, Noida - UPPCB",03-09-2025 07:00:00,28.5447608,77.3231257,OZONE,13,75,41
India,Uttar_Pradesh,Noida,"Sector-1, Noida - UPPCB",03-09-2025 07:00:00,28.5898,77.3101,NO2,7,34,23
India,West_Bengal,Howrah,"Botanical Garden, Howrah - WBPCB",03-09-2025 07:00:00,22.554954,88.292568,PM2.5,1,24,15
India,West_Bengal,Howrah,"Botanical Garden, Howrah - WBPCB",03-09-2025 07:00:00,22.554954,88.292568,OZONE,20,23,20
India,West_Bengal,Howrah,"Dasnagar, Howrah - WBPCB",03-09-2025 07:00:00,22.6025571,88.3105664,PM2.5,3,44,16
India,West_Bengal,Howrah,"Dasnagar, Howrah - WBPCB",03-09-2025 07:00:00,22.6025571,88.3105664,PM10,15,43,29
India,West_Bengal,Howrah,"Padmapukur, Howrah - WBPCB",03-09-2025 07:00:00,22.5687319,88.2797276,PM10,31,46,39
India,West_Bengal,Kolkata,"Ballygunge, Kolkata - WBPCB",03-09-2025 07:00:00,22.5367507,88.3638022,PM2.5,26,33,29
India,West_Bengal,Kolkata,"Bidhannagar, Kolkata - WBPCB",03-09-2025 07:00:00,22.58157048,88.41002457,PM10,25,36,28
India,West_Bengal,Kolkata,"Bidhannagar, Kolkata - WBPCB",03-09-2025 07:00:00,22.58157048,88.41002457,NH3,4,6,5
India,West_Bengal,Kolkata,"Fort William, Kolkata - WBPCB",03-09-2025 07:00:00,22.556640,88.342674,NH3,6,6,6
India,West_Bengal,Kolkata,"Jadavpur, Kolkata - WBPCB",03-09-2025 07:00:00,22.49929,88.36917,NH3,5,54,27
India,West_Bengal,Kolkata,"Jadavpur, Kolkata - WBPCB",03-09-2025 07:00:00,22.49929,88.36917,SO2,3,23,5
India,West_Bengal,Kolkata,"Jadavpur, Kolkata - WBPCB",03-09-2025 07:00:00,22.49929,88.36917,CO,14,20,15
India,West_Bengal,Kolkata,"Rabindra Bharati University, Kolkata - WBPCB",03-09-2025 07:00:00,22.627847,88.380669,PM2.5,3,19,8
India,West_Bengal,Kolkata,"Rabindra Sarobar, Kolkata - WBPCB",03-09-2025 07:00:00,22.51106,88.35142,PM2.5,10,23,14
India,West_Bengal,Kolkata,"Victoria, Kolkata - WBPCB",03-09-2025 07:00:00,22.5448082,88.3403691,PM10,19,70,37
India,West_Bengal,Siliguri,"Ward-32 Bapupara, Siliguri - WBPCB",03-09-2025 07:00:00,26.6879226,88.4152495,NO2,22,44,33
India,West_Bengal,Siliguri,"Ward-32 Bapupara, Siliguri - WBPCB",03-09-2025 07:00:00,26.6879226,88.4152495,NH3,12,17,14
India,Andhra_Pradesh,Anantapur,"Gulzarpet, Anantapur - APPCB",03-09-2025 07:00:00,14.675886,77.593027,PM10,45,57,50
India,Andhra_Pradesh,Anantapur,"Gulzarpet, Anantapur - APPCB",03-09-2025 07:00:00,14.675886,77.593027,OZONE,12,17,13
India,Andhra_Pradesh,Chittoor,"Gangineni Cheruvu, Chittoor - APPCB",03-09-2025 07:00:00,13.204880,79.097889,PM10,58,89,69
India,Andhra_Pradesh,Chittoor,"Gangineni Cheruvu, Chittoor - APPCB",03-09-2025 07:00:00,13.204880,79.097889,NH3,9,10,10
India,Andhra_Pradesh,Kadapa,"Yerramukkapalli, Kadapa - APPCB",03-09-2025 07:00:00,14.465052,78.824187,OZONE,NA,NA,NA
India,Andhra_Pradesh,Tirupati,"Vaikuntapuram, Tirupati - APPCB",03-09-2025 07:00:00,13.615387,79.409230,NO2,6,12,10
India,Andhra_Pradesh,Tirupati,"Vaikuntapuram, Tirupati - APPCB",03-09-2025 07:00:00,13.615387,79.409230,CO,6,20,7
India,Andhra_Pradesh,Vijayawada,"HB Colony, Vijayawada - APPCB",03-09-2025 07:00:00,16.536107,80.594233,PM2.5,52,86,67
India,Andhra_Pradesh,Vijayawada,"HB Colony, Vijayawada - APPCB",03-09-2025 07:00:00,16.536107,80.594233,NH3,4,5,4
India,Andhra_Pradesh,Vijayawada,"Rajiv Nagar, Vijayawada - APPCB",03-09-2025 07:00:00,16.554731,80.649110,OZONE,1,2,1
India,Andhra_Pradesh,Visakhapatnam,"GVM Corporation, Visakhapatnam - APPCB",03-09-2025 07:00:00,17.72,83.3,SO2,1,43,13
India,Andhra_Pradesh,Tirumala,"Toll Gate, Tirumala - APPCB",03-09-2025 07:00:00,13.67,79.35,PM2.5,8,41,20
India,Andhra_Pradesh,Tirupati,"Vaikuntapuram, Tirupati - APPCB",03-09-2025 07:00:00,13.615387,79.409230,PM2.5,53,77,65
India,Andhra_Pradesh,Vijayawada,"Rajiv Gandhi Park, Vijayawada - APPCB",03-09-2025 07:00:00,16.509717,80.612222,PM10,32,52,41
India,Andhra_Pradesh,Vijayawada,"Rajiv Gandhi Park, Vijayawada - APPCB",03-09-2025 07:00:00,16.509717,80.612222,NH3,4,5,5
India,Andhra_Pradesh,Rajamahendravaram,"Anand Kala Kshetram, Rajamahendravaram - APPCB",03-09-2025 07:00:00,16.9872867,81.7363176,NH3,2,2,2
India,Andhra_Pradesh,Vijayawada,"Rajiv Gandhi Park, Vijayawada - APPCB",03-09-2025 07:00:00,16.509717,80.612222,PM2.5,32,52,42
India,Andhra_Pradesh,Amaravati,"Secretariat, Amaravati - APPCB",03-09-2025 07:00:00,16.5150833,80.5181667,NH3,3,5,4
India,Andhra_Pradesh,Vijayawada,"Rajiv Nagar, Vijayawada - APPCB",03-09-2025 07:00:00,16.554731,80.649110,NH3,3,5,3
India,Assam,Guwahati,"IITG, Guwahati - PCBA",03-09-2025 07:00:00,26.2028636,91.70046436,NH3,5,5,5
India,Assam,Guwahati,"LGBI Airport, Guwahati - PCBA",03-09-2025 07:00:00,26.10887,91.589544,OZONE,14,19,16
India,Assam,Guwahati,"Pan Bazaar, Guwahati - PCBA",03-09-2025 07:00:00,26.187500,91.744194,PM2.5,3,49,19
India,Assam,Guwahati,"Pan Bazaar, Guwahati - PCBA",03-09-2025 07:00:00,26.187500,91.744194,SO2,33,61,46
India,Assam,Guwahati,"Pan Bazaar, Guwahati - PCBA",03-09-2025 07:00:00,26.187500,91.744194,OZONE,17,26,19
India,Assam,Guwahati,"Railway Colony, Guwahati - PCBA",03-09-2025 07:00:00,26.181742,91.78063,PM2.5,17,67,37
India,Assam,Guwahati,"Railway Colony, Guwahati - PCBA",03-09-2025 07:00:00,26.181742,91.78063,PM10,15,87,45
India,Assam,Nagaon,"Christianpatty, Nagaon - PCBA",03-09-2025 07:00:00,26.349082,92.68449,PM2.5,38,52,43
India,Assam,Nagaon,"Christianpatty, Nagaon - PCBA",03-09-2025 07:00:00,26.349082,92.68449,NH3,4,4,4
India,Assam,Nalbari,"Bata Chowk, Nalbari - PCBA",03-09-2025 07:00:00,26.446912,91.439057,CO,5,42,22
India,Bihar,Bettiah,"Kamalnath Nagar, Bettiah - BSPCB",03-09-2025 07:00:00,26.80365,84.51954,OZONE,23,27,24
India,Bihar,Bhagalpur,"DM Office_Kachari Chowk, Bhagalpur - BSPCB",03-09-2025 07:00:00,25.251013,86.989001,NO2,18,29,25
India,Bihar,Bhagalpur,"DM Office_Kachari Chowk, Bhagalpur - BSPCB",03-09-2025 07:00:00,25.251013,86.989001,NH3,2,3,3
India,Bihar,Bhagalpur,"Mayaganj, Bhagalpur - BSPCB",03-09-2025 07:00:00,25.265194,87.012947,PM2.5,NA,NA,NA
India,Bihar,Bhagalpur,"Mayaganj, Bhagalpur - BSPCB",03-09-2025 07:00:00,25.265194,87.012947,PM10,NA,NA,NA
India,Bihar,Bhagalpur,"Mayaganj, Bhagalpur - BSPCB",03-09-2025 07:00:00,25.265194,87.012947,NO2,NA,NA,NA
India,Bihar,Bhagalpur,"Mayaganj, Bhagalpur - BSPCB",03-09-2025 07:00:00,25.265194,87.012947,OZONE,26,36,32
India,Bihar,Bihar Sharif,"D M Colony, Bihar Sharif - BSPCB",03-09-2025 07:00:00,25.204762,85.514960,SO2,9,10,9
India,Bihar,Arrah,"New DM Office, Arrah - BSPCB",03-09-2025 07:00:00,25.5626095,84.663264,CO,21,78,46
India,Bihar,Arrah,"New DM Office, Arrah - BSPCB",03-09-2025 07:00:00,25.5626095,84.663264,OZONE,7,9,8
India,Bihar,Aurangabad,"Gurdeo Nagar, Aurangabad - BSPCB",03-09-2025 07:00:00,24.75746,84.366208,PM2.5,NA,NA,NA
India,Bihar,Aurangabad,"Gurdeo Nagar, Aurangabad - BSPCB",03-09-2025 07:00:00,24.75746,84.366208,OZONE,1,32,14
India,Bihar,Begusarai,"Lohiyanagar, Begusarai - BSPCB",03-09-2025 07:00:00,25.42742023,86.13886079,NO2,7,147,23
India,Bihar,Begusarai,"Lohiyanagar, Begusarai - BSPCB",03-09-2025 07:00:00,25.42742023,86.13886079,NH3,3,19,4
India,Bihar,Begusarai,"Lohiyanagar, Begusarai - BSPCB",03-09-2025 07:00:00,25.42742023,86.13886079,OZONE,15,63,41
India,Assam,Sivasagar,"Girls College, Sivasagar - PCBA",03-09-2025 07:00:00,26.987634,94.636574,SO2,5,12,9
India,Assam,Sivasagar,"Girls College, Sivasagar - PCBA",03-09-2025 07:00:00,26.987634,94.636574,OZONE,2,5,2
India,Bihar,Arrah,"New DM Office, Arrah - BSPCB",03-09-2025 07:00:00,25.5626095,84.663264,NO2,5,10,7
India,Bihar,Gaya,"Kareemganj, Gaya - BSPCB",03-09-2025 07:00:00,24.792403,84.992416,PM10,NA,NA,NA
India,Bihar,Gaya,"Kareemganj, Gaya - BSPCB",03-09-2025 07:00:00,24.792403,84.992416,CO,32,43,35
India,Bihar,Hajipur,"Industrial Area, Hajipur - BSPCB",03-09-2025 07:00:00,25.697189,85.245900,PM2.5,17,62,36
India,Bihar,Hajipur,"Industrial Area, Hajipur - BSPCB",03-09-2025 07:00:00,25.697189,85.245900,NH3,5,7,6
India,Bihar,Hajipur,"Industrial Area, Hajipur - BSPCB",03-09-2025 07:00:00,25.697189,85.245900,SO2,2,5,4
India,Bihar,Bettiah,"Kamalnath Nagar, Bettiah - BSPCB",03-09-2025 07:00:00,26.80365,84.51954,PM2.5,2,35,13
India,Assam,Guwahati,"LGBI Airport, Guwahati - PCBA",03-09-2025 07:00:00,26.10887,91.589544,NO2,11,19,15
India,Bihar,Buxar,"Charitra Van, Buxar - BSPCB",03-09-2025 07:00:00,25.567520,83.966379,PM2.5,57,64,63
India,Bihar,Munger,"Town Hall, Munger - BSPCB",03-09-2025 07:00:00,25.376776,86.471523,OZONE,8,21,12
India,Bihar,Muzaffarpur,"Buddha Colony, Muzaffarpur - BSPCB",03-09-2025 07:00:00,26.11442,85.39813,PM10,24,74,42
India,Bihar,Muzaffarpur,"MIT-Daudpur Kothi, Muzaffarpur - BSPCB",03-09-2025 07:00:00,26.1403345,85.3650192,NH3,NA,NA,NA
India,Bihar,Purnia,"Mariam Nagar, Purnia - BSPCB",03-09-2025 07:00:00,25.366336,87.117468,PM2.5,NA,NA,NA
India,Bihar,Purnia,"Mariam Nagar, Purnia - BSPCB",03-09-2025 07:00:00,25.366336,87.117468,SO2,NA,NA,NA
India,Bihar,Rajgir,"Dangi Tola, Rajgir - BSPCB",03-09-2025 07:00:00,25.03280,85.41948,NO2,7,10,9
India,Bihar,Rajgir,"Dangi Tola, Rajgir - BSPCB",03-09-2025 07:00:00,25.03280,85.41948,NH3,5,9,6
India,Bihar,Patna,"IGSC Planetarium Complex, Patna - BSPCB",03-09-2025 07:00:00,25.610369,85.132568,PM2.5,8,213,47
India,Bihar,Patna,"IGSC Planetarium Complex, Patna - BSPCB",03-09-2025 07:00:00,25.610369,85.132568,CO,34,95,84
India,Bihar,Patna,"DRM Office Danapur, Patna - BSPCB",03-09-2025 07:00:00,25.586562,85.043586,PM10,17,55,31
India,Bihar,Patna,"DRM Office Danapur, Patna - BSPCB",03-09-2025 07:00:00,25.586562,85.043586,NH3,2,3,3
India,Bihar,Patna,"Muradpur, Patna - BSPCB",03-09-2025 07:00:00,25.619651,85.147382,CO,40,62,50
India,Bihar,Patna,"Rajbansi Nagar, Patna - BSPCB",03-09-2025 07:00:00,25.599486,85.113666,CO,NA,NA,NA
India,Bihar,Patna,"Samanpura, Patna - BSPCB",03-09-2025 07:00:00,25.596727,85.085624,SO2,1,1,1
India,Bihar,Patna,"Samanpura, Patna - BSPCB",03-09-2025 07:00:00,25.596727,85.085624,CO,18,43,37
India,Bihar,Manguraha,"Forest Rest House, Manguraha - BSPCB",03-09-2025 07:00:00,27.308328,84.531742,PM2.5,NA,NA,NA
India,Bihar,Motihari,"Gandak Colony, Motihari - BSPCB",03-09-2025 07:00:00,26.63086,84.90051,NO2,1,2,1
India,Bihar,Katihar,"Mirchaibari, Katihar - BSPCB",03-09-2025 07:00:00,25.560083,87.553265,NH3,1,1,1
India,Bihar,Saharsa,"Police Line, Saharsa - BSPCB",03-09-2025 07:00:00,25.892357,86.590325,CO,36,38,38
India,Bihar,Saharsa,"Police Line, Saharsa - BSPCB",03-09-2025 07:00:00,25.892357,86.590325,OZONE,8,15,11
India,Bihar,Samastipur,"DM Office_Kasipur, Samastipur - BSPCB",03-09-2025 07:00:00,25.859655,85.77944,PM10,41,120,77
India,Bihar,Sasaram,"Dada Peer, Sasaram - BSPCB",03-09-2025 07:00:00,24.952822,84.002396,PM10,10,43,24
India,Bihar,Sasaram,"Dada Peer, Sasaram - BSPCB",03-09-2025 07:00:00,24.952822,84.002396,NO2,1,52,5
India,Chhattisgarh,Bilaspur,"Mangala, Bilaspur - NTPC",03-09-2025 07:00:00,22.08815,82.13737,PM2.5,7,36,22
India,Chhattisgarh,Chhal,"Nawapara SECL Colony, Chhal - CECB",03-09-2025 07:00:00,22.118125,83.140608,PM10,NA,NA,NA
India,Chhattisgarh,Chhal,"Nawapara SECL Colony, Chhal - CECB",03-09-2025 07:00:00,22.118125,83.140608,NO2,NA,NA,NA
India,Chhattisgarh,Kunjemura,"OP Jindal School, Kunjemura - CECB",03-09-2025 07:00:00,22.126650,83.483212,CO,17,32,25
India,Chhattisgarh,Milupara,"Govt. Higher Secondary School, Milupara - CECB",03-09-2025 07:00:00,22.1910172,83.5197009,NH3,NA,NA,NA
India,Chandigarh,Chandigarh,"Sector 22, Chandigarh - CPCC",03-09-2025 07:00:00,30.735567,76.775714,NO2,6,61,22
India,Chandigarh,Chandigarh,"Sector 22, Chandigarh - CPCC",03-09-2025 07:00:00,30.735567,76.775714,NH3,10,13,12
India,Chandigarh,Chandigarh,"Sector-25, Chandigarh - CPCC",03-09-2025 07:00:00,30.751462,76.762879,PM2.5,NA,NA,NA
India,Chandigarh,Chandigarh,"Sector-25, Chandigarh - CPCC",03-09-2025 07:00:00,30.751462,76.762879,NH3,NA,NA,NA
India,Chhattisgarh,Bhilai,"32Bungalows, Bhilai - CECB",03-09-2025 07:00:00,21.194815,81.314770,NO2,5,36,12
India,Chhattisgarh,Bhilai,"32Bungalows, Bhilai - CECB",03-09-2025 07:00:00,21.194815,81.314770,OZONE,12,28,21
India,Chhattisgarh,Bhilai,"Hathkhoj, Bhilai - CECB",03-09-2025 07:00:00,21.224231,81.408350,SO2,7,9,8
India,Chhattisgarh,Chhal,"Nawapara SECL Colony, Chhal - CECB",03-09-2025 07:00:00,22.118125,83.140608,SO2,NA,NA,NA
India,Chhattisgarh,Korba,"Rampur, Korba - CECB",03-09-2025 07:00:00,22.368195,82.746431,NO2,NA,NA,NA
India,Chhattisgarh,Kunjemura,"OP Jindal School, Kunjemura - CECB",03-09-2025 07:00:00,22.126650,83.483212,NO2,2,3,3
India,Chhattisgarh,Kunjemura,"OP Jindal School, Kunjemura - CECB",03-09-2025 07:00:00,22.126650,83.483212,NH3,2,2,2
India,Chhattisgarh,Tumidih,"OP Jindal Industrial Park, Tumidih - CECB",03-09-2025 07:00:00,22.06631475,83.33820077,OZONE,7,26,10
India,Delhi,Delhi,"Alipur, Delhi - DPCC",03-09-2025 07:00:00,28.815329,77.153010,PM10,NA,NA,NA
India,Delhi,Delhi,"Alipur, Delhi - DPCC",03-09-2025 07:00:00,28.815329,77.153010,NH3,11,14,12
India,Delhi,Delhi,"Anand Vihar, Delhi - DPCC",03-09-2025 07:00:00,28.647622,77.3158090,PM2.5,7,130,42
India,Chhattisgarh,Raipur,"AIIMS, Raipur - CECB",03-09-2025 07:00:00,21.258815,81.578979,OZONE,5,12,6
India,Chhattisgarh,Raipur,"Bhatagaon New ISBT, Raipur - CECB",03-09-2025 07:00:00,21.219665,81.630094,PM10,12,43,28
India,Chhattisgarh,Raipur,"Bhatagaon New ISBT, Raipur - CECB",03-09-2025 07:00:00,21.219665,81.630094,NH3,2,2,2
India,Chhattisgarh,Raipur,"Bhatagaon New ISBT, Raipur - CECB",03-09-2025 07:00:00,21.219665,81.630094,SO2,5,7,6
India,Delhi,Delhi,"Bawana, Delhi - DPCC",03-09-2025 07:00:00,28.776200,77.051074,PM2.5,NA,NA,NA
India,Delhi,Delhi,"Bawana, Delhi - DPCC",03-09-2025 07:00:00,28.776200,77.051074,PM10,NA,NA,NA
India,Delhi,Delhi,"Bawana, Delhi - DPCC",03-09-2025 07:00:00,28.776200,77.051074,SO2,1,6,3
India,Delhi,Delhi,"Bawana, Delhi - DPCC",03-09-2025 07:00:00,28.776200,77.051074,CO,NA,NA,NA
India,Chhattisgarh,Milupara,"Govt. Higher Secondary School, Milupara - CECB",03-09-2025 07:00:00,22.1910172,83.5197009,CO,5,34,5
India,Chhattisgarh,Tumidih,"OP Jindal Industrial Park, Tumidih - CECB",03-09-2025 07:00:00,22.06631475,83.33820077,NO2,7,35,16
India,Chhattisgarh,Raipur,"Siltara Phase-II, Raipur - CECB",03-09-2025 07:00:00,21.371751,81.664929,PM2.5,7,36,21
India,Chhattisgarh,Raipur,"Siltara Phase-II, Raipur - CECB",03-09-2025 07:00:00,21.371751,81.664929,CO,12,36,27
India,Delhi,Delhi,"Burari Crossing, Delhi - IMD",03-09-2025 07:00:00,28.7256504,77.2011573,CO,42,52,47
India,Delhi,Delhi,"Anand Vihar, Delhi - DPCC",03-09-2025 07:00:00,28.647622,77.3158090,OZONE,6,14,10
India,Delhi,Delhi,"Major Dhyan Chand National Stadium, Delhi - DPCC",03-09-2025 07:00:00,28.611281,77.237738,CO,19,36,22
India,Delhi,Delhi,"Mandir Marg, Delhi - DPCC",03-09-2025 07:00:00,28.636429,77.201067,NO2,7,29,16
India,Delhi,Delhi,"Mandir Marg, Delhi - DPCC",03-09-2025 07:00:00,28.636429,77.201067,NH3,4,6,5
India,Delhi,Delhi,"Jawaharlal Nehru Stadium, Delhi - DPCC",03-09-2025 07:00:00,28.580280,77.233829,CO,42,70,47
India,Delhi,Delhi,"Jawaharlal Nehru Stadium, Delhi - DPCC",03-09-2025 07:00:00,28.580280,77.233829,OZONE,15,33,22
India,Delhi,Delhi,"Major Dhyan Chand National Stadium, Delhi - DPCC",03-09-2025 07:00:00,28.611281,77.237738,NO2,13,46,30
India,Delhi,Delhi,"Mundka, Delhi - DPCC",03-09-2025 07:00:00,28.684678,77.076574,CO,28,52,33
India,Delhi,Delhi,"NSIT Dwarka, Delhi - CPCB",03-09-2025 07:00:00,28.60909,77.0325413,NO2,7,36,24
India,Delhi,Delhi,"NSIT Dwarka, Delhi - CPCB",03-09-2025 07:00:00,28.60909,77.0325413,CO,13,36,21
India,Delhi,Delhi,"Nehru Nagar, Delhi - DPCC",03-09-2025 07:00:00,28.567890,77.250515,PM10,12,53,30
India,Delhi,Delhi,"Nehru Nagar, Delhi - DPCC",03-09-2025 07:00:00,28.567890,77.250515,NH3,3,6,4
India,Delhi,Delhi,"Nehru Nagar, Delhi - DPCC",03-09-2025 07:00:00,28.567890,77.250515,OZONE,8,79,14
India,Delhi,Delhi,"Dwarka-Sector 8, Delhi - DPCC ",03-09-2025 07:00:00,28.5710274,77.0719006,SO2,6,12,8
India,Delhi,Delhi,"Dwarka-Sector 8, Delhi - DPCC ",03-09-2025 07:00:00,28.5710274,77.0719006,OZONE,9,35,24
India,Delhi,Delhi,"ITO, Delhi - CPCB",03-09-2025 07:00:00,28.628624,77.241060,CO,16,53,22
India,Delhi,Delhi,"ITO, Delhi - CPCB",03-09-2025 07:00:00,28.628624,77.241060,OZONE,7,9,8
India,Delhi,Delhi,"Dr. Karni Singh Shooting Range, Delhi - DPCC",03-09-2025 07:00:00,28.498571,77.264840,CO,50,66,54
India,Delhi,Delhi,"Jawaharlal Nehru Stadium, Delhi - DPCC",03-09-2025 07:00:00,28.580280,77.233829,NH3,11,14,13
India,Delhi,Delhi,"CRRI Mathura Road, Delhi - IMD",03-09-2025 07:00:00,28.5512005,77.2735737,CO,2,24,7
India,Delhi,Delhi,"Okhla Phase-2, Delhi - DPCC",03-09-2025 07:00:00,28.530785,77.271255,SO2,3,8,6
India,Delhi,Delhi,"Okhla Phase-2, Delhi - DPCC",03-09-2025 07:00:00,28.530785,77.271255,CO,21,64,37
India,Delhi,Delhi,"Okhla Phase-2, Delhi - DPCC",03-09-2025 07:00:00,28.530785,77.271255,OZONE,19,44,24
India,Delhi,Delhi,"Patparganj, Delhi - DPCC",03-09-2025 07:00:00,28.623763,77.287209,PM2.5,10,45,25
India,Delhi,Delhi,"Pusa, Delhi - IMD",03-09-2025 07:00:00,28.636110,77.173332,PM2.5,2,52,24
India,Delhi,Delhi,"Pusa, Delhi - IMD",03-09-2025 07:00:00,28.636110,77.173332,CO,80,92,84
India,Delhi,Delhi,"R K Puram, Delhi - DPCC",03-09-2025 07:00:00,28.563262,77.186937,PM2.5,NA,NA,NA
India,Delhi,Delhi,"North Campus, DU, Delhi - IMD",03-09-2025 07:00:00,28.6573814,77.1585447,OZONE,1,34,8
India,Delhi,Delhi,"Okhla Phase-2, Delhi - DPCC",03-09-2025 07:00:00,28.530785,77.271255,NH3,5,8,6
India,Delhi,Delhi,"R K Puram, Delhi - DPCC",03-09-2025 07:00:00,28.563262,77.186937,NO2,13,32,20
India,Delhi,Delhi,"Rohini, Delhi - DPCC",03-09-2025 07:00:00,28.732528,77.119920,NO2,2,14,6
India,Delhi,Delhi,"Punjabi Bagh, Delhi - DPCC",03-09-2025 07:00:00,28.674045,77.131023,PM10,9,62,30
India,Delhi,Delhi,"Punjabi Bagh, Delhi - DPCC",03-09-2025 07:00:00,28.674045,77.131023,CO,42,60,47
India,Delhi,Delhi,"Shadipur, Delhi - CPCB",03-09-2025 07:00:00,28.6514781,77.1473105,PM2.5,26,47,36
India,Delhi,Delhi,"Patparganj, Delhi - DPCC",03-09-2025 07:00:00,28.623763,77.287209,CO,36,52,40
India,Delhi,Delhi,"Shadipur, Delhi - CPCB",03-09-2025 07:00:00,28.6514781,77.1473105,SO2,10,13,11
India,Delhi,Delhi,"Pusa, Delhi - DPCC",03-09-2025 07:00:00,28.639652,77.146275,CO,38,99,47
India,Gujarat,Ahmedabad,"Maninagar, Ahmedabad - GPCB",03-09-2025 07:00:00,23.002657,72.591912,PM2.5,NA,NA,NA
India,Gujarat,Ahmedabad,"Maninagar, Ahmedabad - GPCB",03-09-2025 07:00:00,23.002657,72.591912,SO2,23,33,28
India,Gujarat,Ahmedabad,"Raikhad, Ahmedabad - IITM",03-09-2025 07:00:00,23.020509,72.579261,NO2,6,24,11
India,Gujarat,Ahmedabad,"Raikhad, Ahmedabad - IITM",03-09-2025 07:00:00,23.020509,72.579261,NH3,2,2,2
India,Gujarat,Ahmedabad,"Raikhad, Ahmedabad - IITM",03-09-2025 07:00:00,23.020509,72.579261,SO2,6,16,8
India,Gujarat,Ahmedabad,"SAC ISRO Bopal, Ahmedabad - IITM",03-09-2025 07:00:00,23.041137,72.456691,NH3,3,4,4
India,Gujarat,Ahmedabad,"SAC ISRO Satellite, Ahmedabad - IITM",03-09-2025 07:00:00,23.023389,72.515201,PM10,42,118,83
India,Delhi,Delhi,"Sirifort, Delhi - CPCB",03-09-2025 07:00:00,28.5504249,77.2159377,PM10,21,78,42
India,Delhi,Delhi,"Sonia Vihar, Delhi - DPCC",03-09-2025 07:00:00,28.710508,77.249485,NO2,12,54,42
India,Gujarat,Ahmedabad,"Chandkheda, Ahmedabad - IITM",03-09-2025 07:00:00,23.107969,72.574648,OZONE,3,33,8
India,Gujarat,Ahmedabad,"Gyaspur, Ahmedabad - IITM",03-09-2025 07:00:00,22.977134,72.553024,PM2.5,7,86,36
India,Delhi,Delhi,"Sri Aurobindo Marg, Delhi - DPCC",03-09-2025 07:00:00,28.531346,77.190156,CO,26,48,31
India,Delhi,Delhi,"Vivek Vihar, Delhi - DPCC",03-09-2025 07:00:00,28.672342,77.315260,CO,14,72,45
India,Gujarat,Ahmedabad,"SVPI Airport Hansol, Ahmedabad - IITM",03-09-2025 07:00:00,23.076793,72.627874,CO,18,79,34
India,Delhi,Delhi,"Sri Aurobindo Marg, Delhi - DPCC",03-09-2025 07:00:00,28.531346,77.190156,PM10,12,44,24
India,Delhi,Delhi,"Shadipur, Delhi - CPCB",03-09-2025 07:00:00,28.6514781,77.1473105,OZONE,7,9,8
India,Delhi,Delhi,"Wazirpur, Delhi - DPCC",03-09-2025 07:00:00,28.699793,77.165453,SO2,3,9,5
India,Jammu_and_Kashmir,Srinagar,"Rajbagh, Srinagar - JKSPCB",03-09-2025 07:00:00,34.066206,74.819820,PM2.5,23,29,25
India,Jammu_and_Kashmir,Srinagar,"Rajbagh, Srinagar - JKSPCB",03-09-2025 07:00:00,34.066206,74.819820,PM10,29,37,31
India,Jammu_and_Kashmir,Srinagar,"Rajbagh, Srinagar - JKSPCB",03-09-2025 07:00:00,34.066206,74.819820,SO2,NA,NA,NA
India,Jammu_and_Kashmir,Srinagar,"Rajbagh, Srinagar - JKSPCB",03-09-2025 07:00:00,34.066206,74.819820,CO,12,15,12
India,Jammu_and_Kashmir,Srinagar,"Rajbagh, Srinagar - JKSPCB",03-09-2025 07:00:00,34.066206,74.819820,OZONE,NA,NA,NA
India,Haryana,Panchgaon,"Amity University, Panchgaon - IITM",03-09-2025 07:00:00,28.3153,76.9143,PM2.5,15,23,19
India,Haryana,Panchgaon,"Amity University, Panchgaon - IITM",03-09-2025 07:00:00,28.3153,76.9143,NH3,1,2,1
India,Himachal Pradesh,Baddi,"HIMUDA Complex Phase-1, Baddi - HPPCB",03-09-2025 07:00:00,30.943887,76.801991,PM10,30,116,70
India,Gujarat,Gandhinagar,"GIFT City, Gandhinagar - IITM",03-09-2025 07:00:00,23.163798,72.677768,NO2,6,42,17
India,Haryana,Panchgaon,"Amity University, Panchgaon - IITM",03-09-2025 07:00:00,28.3153,76.9143,SO2,6,8,7
India,Gujarat,Gandhinagar,"Sector-10, Gandhinagar - GPCB",03-09-2025 07:00:00,23.221714,72.654328,NH3,3,7,4
India,Karnataka,Bagalkot,"Vidayagiri, Bagalkot - KSPCB",03-09-2025 07:00:00,16.172806,75.659694,SO2,7,7,7
India,Gujarat,Ankleshwar,"GIDC, Ankleshwar - GPCB",03-09-2025 07:00:00,21.613267,73.010555,SO2,48,60,51
India,Gujarat,Vapi,"Phase-1 GIDC, Vapi - GPCB",03-09-2025 07:00:00,20.362421,72.918013,NO2,13,14,14
India,Karnataka,Bagalkot,"Vidayagiri, Bagalkot - KSPCB",03-09-2025 07:00:00,16.172806,75.659694,OZONE,10,16,15
India,Karnataka,Bengaluru,"BTM Layout, Bengaluru - CPCB",03-09-2025 07:00:00,12.9135218,77.5950804,PM2.5,23,29,26
India,Karnataka,Bengaluru,"Bapuji Nagar, Bengaluru - KSPCB",03-09-2025 07:00:00,12.951913,77.539784,CO,12,50,19
India,Karnataka,Bengaluru,"Jayanagar 5th Block, Bengaluru - KSPCB",03-09-2025 07:00:00,12.920984,77.584908,NH3,1,1,1
India,Karnataka,Bengaluru,"Jigani, Bengaluru - KSPCB",03-09-2025 07:00:00,12.7816279,77.6299145,PM10,39,67,46
India,Karnataka,Bengaluru,"RVCE-Mailasandra, Bengaluru - KSPCB",03-09-2025 07:00:00,12.921418,77.502466,OZONE,20,25,21
India,Karnataka,Bengaluru,"Sanegurava Halli, Bengaluru - KSPCB",03-09-2025 07:00:00,12.990328,77.5431385,PM10,39,40,39
India,Karnataka,Bengaluru,"RVCE-Mailasandra, Bengaluru - KSPCB",03-09-2025 07:00:00,12.921418,77.502466,SO2,6,6,6
India,Karnataka,Bengaluru,"RVCE-Mailasandra, Bengaluru - KSPCB",03-09-2025 07:00:00,12.921418,77.502466,CO,24,42,34
India,Karnataka,Bengaluru,"Peenya, Bengaluru - CPCB",03-09-2025 07:00:00,13.0270199,77.494094,SO2,1,9,5
India,Karnataka,Bengaluru,"Peenya, Bengaluru - CPCB",03-09-2025 07:00:00,13.0270199,77.494094,OZONE,27,28,28
India,Karnataka,Bengaluru,"Jigani, Bengaluru - KSPCB",03-09-2025 07:00:00,12.7816279,77.6299145,NO2,24,25,24
India,Karnataka,Bengaluru,"Jigani, Bengaluru - KSPCB",03-09-2025 07:00:00,12.7816279,77.6299145,NH3,4,5,5
India,Karnataka,Bengaluru,"Sanegurava Halli, Bengaluru - KSPCB",03-09-2025 07:00:00,12.990328,77.5431385,CO,18,38,24
India,Karnataka,Bengaluru,"Hombegowda Nagar, Bengaluru - KSPCB",03-09-2025 07:00:00,12.938539,77.590100,NO2,6,30,13
India,Karnataka,Bengaluru,"Hebbal, Bengaluru - KSPCB",03-09-2025 07:00:00,13.029152,77.585901,NO2,18,21,20
India,Karnataka,Kalaburagi,"Lal Bahadur Shastri Nagar, Kalaburagi - KSPCB",03-09-2025 07:00:00,17.321993,76.822628,PM10,25,79,54
India,Karnataka,Kalaburagi,"Lal Bahadur Shastri Nagar, Kalaburagi - KSPCB",03-09-2025 07:00:00,17.321993,76.822628,OZONE,20,68,26
India,Karnataka,Kalaburagi,"Mahatma Basaveswar Colony, Kalaburgi - KSPCB",03-09-2025 07:00:00,17.336318,76.847397,PM10,26,65,40
India,Karnataka,Chikkaballapur,"Chikkaballapur Rural, Chikkaballapur - KSPCB",03-09-2025 07:00:00,13.428828,77.731418,OZONE,18,23,20
India,Karnataka,Chikkamagaluru,"Kalyana Nagara, Chikkamagaluru - KSPCB",03-09-2025 07:00:00,13.328028,75.797056,PM2.5,8,43,23
India,Karnataka,Chikkamagaluru,"Kalyana Nagara, Chikkamagaluru - KSPCB",03-09-2025 07:00:00,13.328028,75.797056,CO,11,11,11
India,Karnataka,Chikkamagaluru,"Kalyana Nagara, Chikkamagaluru - KSPCB",03-09-2025 07:00:00,13.328028,75.797056,OZONE,21,31,30
India,Karnataka,Bengaluru,"Silk Board, Bengaluru - KSPCB",03-09-2025 07:00:00,12.917348,77.622813,PM2.5,10,39,24
India,Karnataka,Bengaluru,"Silk Board, Bengaluru - KSPCB",03-09-2025 07:00:00,12.917348,77.622813,NO2,5,18,11
India,Karnataka,Madikeri,"Stuart Hill, Madikeri - KSPCB",03-09-2025 07:00:00,12.415911,75.735050,PM2.5,4,19,10
India,Karnataka,Madikeri,"Stuart Hill, Madikeri - KSPCB",03-09-2025 07:00:00,12.415911,75.735050,OZONE,3,6,5
India,Karnataka,Hubballi,"Lingaraj Nagar, Hubballi - KSPCB",03-09-2025 07:00:00,15.3714823,75.1160168,PM10,37,41,39
India,Karnataka,Hubballi,"Lingaraj Nagar, Hubballi - KSPCB",03-09-2025 07:00:00,15.3714823,75.1160168,CO,12,16,13
India,Karnataka,Kalaburagi,"Mahatma Basaveswar Colony, Kalaburgi - KSPCB",03-09-2025 07:00:00,17.336318,76.847397,SO2,3,7,4
India,Karnataka,Davanagere,"Devaraj Urs Badavane, Davanagere - KSPCB",03-09-2025 07:00:00,14.475800,75.905200,SO2,1,4,2
India,Karnataka,Chamarajanagar,"Urban, Chamarajanagar - KSPCB",03-09-2025 07:00:00,11.55358,76.55521,OZONE,14,38,16
India,Kerala,Eloor,"Udyogamandal, Eloor - Kerala PCB",03-09-2025 07:00:00,10.073232,76.302765,OZONE,11,14,12
India,Kerala,Kannur,"Thavakkara, Kannur - Kerala PCB",03-09-2025 07:00:00,11.875000,75.373200,NH3,1,2,2
India,Kerala,Kannur,"Thavakkara, Kannur - Kerala PCB",03-09-2025 07:00:00,11.875000,75.373200,SO2,4,9,7
India,Kerala,Kollam,"Polayathode, Kollam - Kerala PCB",03-09-2025 07:00:00,8.8787,76.6073,PM2.5,20,28,24
India,Kerala,Kollam,"Polayathode, Kollam - Kerala PCB",03-09-2025 07:00:00,8.8787,76.6073,NH3,1,1,1
India,Kerala,Thiruvananthapuram,"Kariavattom, Thiruvananthapuram - Kerala PCB",03-09-2025 07:00:00,8.563700,76.886500,PM10,53,63,58
India,Kerala,Thiruvananthapuram,"Kariavattom, Thiruvananthapuram - Kerala PCB",03-09-2025 07:00:00,8.563700,76.886500,NH3,1,1,1
India,Kerala,Thiruvananthapuram,"Plammoodu, Thiruvananthapuram - Kerala PCB",03-09-2025 07:00:00,8.5149093,76.9435879,PM10,1,73,24
India,Kerala,Thiruvananthapuram,"Plammoodu, Thiruvananthapuram - Kerala PCB",03-09-2025 07:00:00,8.5149093,76.9435879,NO2,60,100,79
India,Kerala,Thiruvananthapuram,"Plammoodu, Thiruvananthapuram - Kerala PCB",03-09-2025 07:00:00,8.5149093,76.9435879,NH3,5,7,6
India,Kerala,Thiruvananthapuram,"Plammoodu, Thiruvananthapuram - Kerala PCB",03-09-2025 07:00:00,8.5149093,76.9435879,CO,5,16,8
India,Kerala,Thrissur,"Corporation Ground, Thrissur - Kerala PCB",03-09-2025 07:00:00,10.532400,76.215900,PM2.5,53,66,58
India,Kerala,Thrissur,"Corporation Ground, Thrissur - Kerala PCB",03-09-2025 07:00:00,10.532400,76.215900,PM10,50,64,56
India,Karnataka,Vijayapura,"Ibrahimpur, Vijayapura - KSPCB",03-09-2025 07:00:00,16.802639,75.722694,NO2,9,10,9
India,Karnataka,Vijayapura,"Ibrahimpur, Vijayapura - KSPCB",03-09-2025 07:00:00,16.802639,75.722694,CO,12,120,32
India,Karnataka,Yadgir,"Collector Office, Yadgir - KSPCB",03-09-2025 07:00:00,16.7602,77.1428,PM10,6,35,18
India,Karnataka,Ramanagara,"Vijay Nagar, Ramanagara - KSPCB",03-09-2025 07:00:00,12.733409,77.298051,OZONE,NA,NA,NA
India,Karnataka,Shivamogga,"Vinoba Nagara, Shivamogga - KSPCB",03-09-2025 07:00:00,13.940000,75.555917,CO,16,46,23
India,Karnataka,Shivamogga,"Vinoba Nagara, Shivamogga - KSPCB",03-09-2025 07:00:00,13.940000,75.555917,OZONE,14,31,20
India,Karnataka,Ramanagara,"Vijay Nagar, Ramanagara - KSPCB",03-09-2025 07:00:00,12.733409,77.298051,NH3,1,2,2
India,Karnataka,Ramanagara,"Vijay Nagar, Ramanagara - KSPCB",03-09-2025 07:00:00,12.733409,77.298051,SO2,21,26,24
India,Kerala,Thrissur,"Corporation Ground, Thrissur - Kerala PCB",03-09-2025 07:00:00,10.532400,76.215900,CO,25,37,32
India,Karnataka,Mysuru,"Hebbal 1st Stage, Mysuru - KSPCB",03-09-2025 07:00:00,12.21041,76.37376,NO2,13,36,22
India,Karnataka,Ramanagara,"Vijay Nagar, Ramanagara - KSPCB",03-09-2025 07:00:00,12.733409,77.298051,PM10,NA,NA,NA
India,Karnataka,Yadgir,"Collector Office, Yadgir - KSPCB",03-09-2025 07:00:00,16.7602,77.1428,CO,14,102,20
India,Madhya Pradesh,Indore,"Residency Area, Indore - IMC",03-09-2025 07:00:00,22.7084,75.8815,PM2.5,13,66,37
India,Madhya Pradesh,Indore,"Residency Area, Indore - IMC",03-09-2025 07:00:00,22.7084,75.8815,PM10,12,64,43
India,Madhya Pradesh,Indore,"Residency Area, Indore - IMC",03-09-2025 07:00:00,22.7084,75.8815,SO2,32,37,34
India,Madhya Pradesh,Indore,"Residency Area, Indore - IMC",03-09-2025 07:00:00,22.7084,75.8815,CO,12,14,13
India,Madhya Pradesh,Indore,"Residency Area, Indore - IMC",03-09-2025 07:00:00,22.7084,75.8815,OZONE,10,11,10
India,Madhya Pradesh,Jabalpur,"Govindh Bhavan Colony, Jabalpur - JMC",03-09-2025 07:00:00,23.163174,79.973061,PM2.5,18,37,28
India,Madhya Pradesh,Gwalior,"City Center, Gwalior - MPPCB",03-09-2025 07:00:00,26.203442,78.193251,NH3,2,2,2
India,Madhya Pradesh,Gwalior,"City Center, Gwalior - MPPCB",03-09-2025 07:00:00,26.203442,78.193251,CO,30,54,34
India,Madhya Pradesh,Gwalior,"Maharaj Bada, Gwalior - MPPCB",03-09-2025 07:00:00,26.200388,78.147714,PM10,9,71,31
India,Madhya Pradesh,Gwalior,"Maharaj Bada, Gwalior - MPPCB",03-09-2025 07:00:00,26.200388,78.147714,CO,6,111,37
India,Madhya Pradesh,Bhopal,"T T Nagar, Bhopal - MPPCB",03-09-2025 07:00:00,23.233584,77.400574,NO2,11,26,16
India,Madhya Pradesh,Bhopal,"T T Nagar, Bhopal - MPPCB",03-09-2025 07:00:00,23.233584,77.400574,SO2,7,34,21
India,Madhya Pradesh,Bhopal,"Paryavaran Parisar, Bhopal - MPPCB",03-09-2025 07:00:00,23.210494,77.425409,PM10,19,78,43
India,Madhya Pradesh,Gwalior,"Deen Dayal Nagar, Gwalior - MPPCB",03-09-2025 07:00:00,26.259242,78.216432,CO,20,56,24
India,Madhya Pradesh,Bhopal,"Idgah Hills, Bhopal - MPPCB",03-09-2025 07:00:00,23.264759,77.381568,CO,14,40,20
India,Madhya Pradesh,Indore,"Chhoti Gwaltoli, Indore - MPPCB",03-09-2025 07:00:00,22.4310,75.5213,SO2,9,10,9
India,Madhya Pradesh,Indore,"Regional Park, Indore - IMC",03-09-2025 07:00:00,22.6780,75.8559,NO2,12,18,15
India,Madhya Pradesh,Jabalpur,"Suhagi, Jabalpur - JMC",03-09-2025 07:00:00,23.218135,79.957770,PM10,16,44,31
India,Madhya Pradesh,Jabalpur,"Suhagi, Jabalpur - JMC",03-09-2025 07:00:00,23.218135,79.957770,NO2,24,42,28
India,Madhya Pradesh,Katni,"Gole Bazar, Katni - MPPCB",03-09-2025 07:00:00,23.50016,80.23284,SO2,9,29,19
India,Madhya Pradesh,Katni,"Gole Bazar, Katni - MPPCB",03-09-2025 07:00:00,23.50016,80.23284,CO,18,38,35
India,Madhya Pradesh,Katni,"Gole Bazar, Katni - MPPCB",03-09-2025 07:00:00,23.50016,80.23284,OZONE,17,57,25
India,Madhya Pradesh,Pithampur,"Sector-2 Industrial Area, Pithampur - MPPCB",03-09-2025 07:00:00,22.624758,75.675238,PM2.5,49,115,70
India,Madhya Pradesh,Pithampur,"Sector-2 Industrial Area, Pithampur - MPPCB",03-09-2025 07:00:00,22.624758,75.675238,PM10,64,132,96
India,Madhya Pradesh,Pithampur,"Sector-2 Industrial Area, Pithampur - MPPCB",03-09-2025 07:00:00,22.624758,75.675238,OZONE,12,35,22
India,Maharashtra,Amravati,"Shivneri Colony, Amravati - MPCB",03-09-2025 07:00:00,20.9402359,77.7895248,OZONE,7,27,21
India,Maharashtra,Aurangabad,"MIDC Chilkalthana, Aurangabad - MPCB",03-09-2025 07:00:00,19.875620,75.387310,PM2.5,8,32,19
India,Maharashtra,Aurangabad,"MIDC Chilkalthana, Aurangabad - MPCB",03-09-2025 07:00:00,19.875620,75.387310,NO2,24,30,27
India,Maharashtra,Belapur,"CBD Belapur, Belapur - MPCB",03-09-2025 07:00:00,19.0243902,73.0406721,PM2.5,20,32,26
India,Maharashtra,Belapur,"CBD Belapur, Belapur - MPCB",03-09-2025 07:00:00,19.0243902,73.0406721,OZONE,13,38,15
India,Maharashtra,Bhiwandi,"Gokul Nagar, Bhiwandi - MPCB",03-09-2025 07:00:00,19.309073,73.057223,PM2.5,29,41,35
India,Madhya Pradesh,Satna,"Bandhavgar Colony, Satna - Birla Cement",03-09-2025 07:00:00,24.58434363,80.8549414,CO,11,24,13
India,Madhya Pradesh,Singrauli,"Suryakiran Bhawan NCL, Singrauli - MPPCB",03-09-2025 07:00:00,24.108970,82.645580,PM2.5,NA,NA,NA
India,Madhya Pradesh,Singrauli,"Suryakiran Bhawan NCL, Singrauli - MPPCB",03-09-2025 07:00:00,24.108970,82.645580,PM10,NA,NA,NA
India,Maharashtra,Ahmednagar,"Tarakpur, Ahmednagar - MPCB",03-09-2025 07:00:00,19.10122,74.73339,PM10,12,55,32
India,Maharashtra,Aurangabad,"More Chowk Waluj, Aurangabad - MPCB",03-09-2025 07:00:00,19.8389439,75.244448,NO2,12,24,19
India,Maharashtra,Aurangabad,"Rachnakar Colony, Aurangabad - MPCB",03-09-2025 07:00:00,19.863756,75.321188,SO2,8,27,18
India,Maharashtra,Akola,"Ramdaspeth, Akola - MPCB",03-09-2025 07:00:00,20.719516,77.000253,PM10,8,44,28
India,Maharashtra,Akola,"Ramdaspeth, Akola - MPCB",03-09-2025 07:00:00,20.719516,77.000253,NO2,16,24,20
India,Maharashtra,Akola,"Ramdaspeth, Akola - MPCB",03-09-2025 07:00:00,20.719516,77.000253,CO,10,50,13
India,Madhya Pradesh,Jabalpur,"Govindh Bhavan Colony, Jabalpur - JMC",03-09-2025 07:00:00,23.163174,79.973061,SO2,26,32,28
India,Madhya Pradesh,Jabalpur,"Govindh Bhavan Colony, Jabalpur - JMC",03-09-2025 07:00:00,23.163174,79.973061,OZONE,5,28,7
India,Maharashtra,Amravati,"Shivneri Colony, Amravati - MPCB",03-09-2025 07:00:00,20.9402359,77.7895248,NO2,2,12,6
India,Maharashtra,Latur,"Sawe Wadi, Latur - MPCB",03-09-2025 07:00:00,18.39963,76.57452,NH3,1,10,4
India,Maharashtra,Latur,"Sawe Wadi, Latur - MPCB",03-09-2025 07:00:00,18.39963,76.57452,CO,1,32,11
India,Maharashtra,Mahad,"Kamble Tarf Birwadi, Mahad - MPCB",03-09-2025 07:00:00,18.1023399,73.4783687,NO2,12,20,14
India,Maharashtra,Mahad,"Kamble Tarf Birwadi, Mahad - MPCB",03-09-2025 07:00:00,18.1023399,73.4783687,SO2,7,21,11
India,Maharashtra,Mahad,"Kamble Tarf Birwadi, Mahad - MPCB",03-09-2025 07:00:00,18.1023399,73.4783687,CO,22,35,30
India,Maharashtra,Malegaon,"Mahesh Nagar, Malegaon - MPCB",03-09-2025 07:00:00,20.555712,74.529236,PM2.5,45,75,62
India,Maharashtra,Malegaon,"Mahesh Nagar, Malegaon - MPCB",03-09-2025 07:00:00,20.555712,74.529236,SO2,1,14,7
India,Maharashtra,Mumbai,"Ghatkopar, Mumbai - BMC",03-09-2025 07:00:00,19.083694,72.920967,OZONE,2,6,3
India,Maharashtra,Mumbai,"Kandivali East, Mumbai - MPCB",03-09-2025 07:00:00,19.205800,72.868200,NO2,7,9,7
India,Maharashtra,Mumbai,"Kandivali West, Mumbai - BMC",03-09-2025 07:00:00,19.215859,72.831718,NO2,2,13,7
