country,state,city,station,last_update,latitude,longitude,pollutant_id,min_value,max_value,avg_value
India,Bihar,Gaya,"Collectorate, Gaya - BSPCB",05-11-2025 07:00:00,24.7955,84.9994,CO,34,77,42
India,Bihar,Gaya,"Kareemganj, Gaya - BSPCB",05-11-2025 07:00:00,24.792403,84.992416,NO2,2,7,5
India,Bihar,Gaya,"Kareemganj, Gaya - BSPCB",05-11-2025 07:00:00,24.792403,84.992416,CO,39,44,40
India,Bihar,Gaya,"SFTI Kusdihra, Gaya - BSPCB",05-11-2025 07:00:00,24.762518,84.982348,PM10,53,82,64
India,Bihar,Gaya,"SFTI Kusdihra, Gaya - BSPCB",05-11-2025 07:00:00,24.762518,84.982348,NO2,19,27,22
India,Bihar,Hajipur,"Industrial Area, Hajipur - BSPCB",05-11-2025 07:00:00,25.697189,85.245900,PM2.5,151,304,257
India,Bihar,Hajipur,"Industrial Area, Hajipur - BSPCB",05-11-2025 07:00:00,25.697189,85.245900,NO2,19,33,23
India,Bihar,Hajipur,"Industrial Area, Hajipur - BSPCB",05-11-2025 07:00:00,25.697189,85.245900,CO,26,60,36
India,Bihar,Katihar,"Mirchaibari, Katihar - BSPCB",05-11-2025 07:00:00,25.560083,87.553265,SO2,13,20,16
India,Andhra_Pradesh,Tirupati,"Vaikuntapuram, Tirupati - APPCB",05-11-2025 07:00:00,13.615387,79.409230,SO2,NA,NA,NA
India,Andhra_Pradesh,Tirupati,"Vaikuntapuram, Tirupati - APPCB",05-11-2025 07:00:00,13.615387,79.409230,OZONE,NA,NA,NA
India,Andhra_Pradesh,Vijayawada,"Rajiv Gandhi Park, Vijayawada - APPCB",05-11-2025 07:00:00,16.509717,80.612222,NO2,25,47,36
India,Andhra_Pradesh,Vijayawada,"Rajiv Gandhi Park, Vijayawada - APPCB",05-11-2025 07:00:00,16.509717,80.612222,CO,27,39,39
India,Andhra_Pradesh,Vijayawada,"Rajiv Nagar, Vijayawada - APPCB",05-11-2025 07:00:00,16.554731,80.649110,CO,25,40,31
India,Andhra_Pradesh,Vijayawada,"Rajiv Nagar, Vijayawada - APPCB",05-11-2025 07:00:00,16.554731,80.649110,OZONE,55,500,67
India,Andhra_Pradesh,Visakhapatnam,"GVM Corporation, Visakhapatnam - APPCB",05-11-2025 07:00:00,17.72,83.3,PM10,77,167,101
India,Andhra_Pradesh,Visakhapatnam,"GVM Corporation, Visakhapatnam - APPCB",05-11-2025 07:00:00,17.72,83.3,NO2,8,87,48
India,Andhra_Pradesh,Visakhapatnam,"GVM Corporation, Visakhapatnam - APPCB",05-11-2025 07:00:00,17.72,83.3,SO2,1,26,11
India,Bihar,Katihar,"Mirchaibari, Katihar - BSPCB",05-11-2025 07:00:00,25.560083,87.553265,OZONE,5,37,14
India,Bihar,Manguraha,"Forest Rest House, Manguraha - BSPCB",05-11-2025 07:00:00,27.308328,84.531742,PM2.5,68,243,118
India,Bihar,Manguraha,"Forest Rest House, Manguraha - BSPCB",05-11-2025 07:00:00,27.308328,84.531742,NH3,1,3,2
India,Bihar,Motihari,"Gandak Colony, Motihari - BSPCB",05-11-2025 07:00:00,26.63086,84.90051,PM2.5,18,28,22
India,Bihar,Motihari,"Gandak Colony, Motihari - BSPCB",05-11-2025 07:00:00,26.63086,84.90051,NH3,3,3,3
India,Bihar,Motihari,"Gandak Colony, Motihari - BSPCB",05-11-2025 07:00:00,26.63086,84.90051,SO2,2,3,2
India,Bihar,Motihari,"Gandak Colony, Motihari - BSPCB",05-11-2025 07:00:00,26.63086,84.90051,CO,18,32,20
India,Bihar,Munger,"Town Hall, Munger - BSPCB",05-11-2025 07:00:00,25.376776,86.471523,NH3,3,8,6
India,Bihar,Bhagalpur,"DM Office_Kachari Chowk, Bhagalpur - BSPCB",05-11-2025 07:00:00,25.251013,86.989001,SO2,3,100,58
India,Bihar,Bhagalpur,"Mayaganj, Bhagalpur - BSPCB",05-11-2025 07:00:00,25.265194,87.012947,PM2.5,NA,NA,NA
India,Bihar,Buxar,"Charitra Van, Buxar - BSPCB",05-11-2025 07:00:00,25.567520,83.966379,CO,22,28,25
India,Bihar,Chhapra,"Darshan Nagar, Chhapra - BSPCB",05-11-2025 07:00:00,25.7808257,84.7446768,PM2.5,10,38,25
India,Bihar,Chhapra,"Darshan Nagar, Chhapra - BSPCB",05-11-2025 07:00:00,25.7808257,84.7446768,PM10,16,57,38
India,Bihar,Chhapra,"Darshan Nagar, Chhapra - BSPCB",05-11-2025 07:00:00,25.7808257,84.7446768,NO2,2,3,2
India,Andhra_Pradesh,Chittoor,"Gangineni Cheruvu, Chittoor - APPCB",05-11-2025 07:00:00,13.204880,79.097889,PM10,27,106,62
India,Andhra_Pradesh,Kadapa,"Yerramukkapalli, Kadapa - APPCB",05-11-2025 07:00:00,14.465052,78.824187,SO2,14,19,17
India,Andhra_Pradesh,Rajamahendravaram,"Anand Kala Kshetram, Rajamahendravaram - APPCB",05-11-2025 07:00:00,16.9872867,81.7363176,SO2,3,10,6
India,Andhra_Pradesh,Tirumala,"Toll Gate, Tirumala - APPCB",05-11-2025 07:00:00,13.67,79.35,CO,14,44,26
India,Andhra_Pradesh,Tirumala,"Toll Gate, Tirumala - APPCB",05-11-2025 07:00:00,13.67,79.35,OZONE,8,25,18
India,Assam,Nalbari,"Bata Chowk, Nalbari - PCBA",05-11-2025 07:00:00,26.446912,91.439057,CO,84,112,104
India,Assam,Nalbari,"Bata Chowk, Nalbari - PCBA",05-11-2025 07:00:00,26.446912,91.439057,OZONE,18,155,38
India,Assam,Silchar,"Tarapur, Silchar - PCBA",05-11-2025 07:00:00,24.82827,92.79525,PM10,49,63,54
India,Assam,Sivasagar,"Girls College, Sivasagar - PCBA",05-11-2025 07:00:00,26.987634,94.636574,SO2,8,12,10
India,Assam,Sivasagar,"Girls College, Sivasagar - PCBA",05-11-2025 07:00:00,26.987634,94.636574,CO,5,38,32
India,Bihar,Patna,"DRM Office Danapur, Patna - BSPCB",05-11-2025 07:00:00,25.586562,85.043586,PM2.5,142,270,213
India,Bihar,Patna,"DRM Office Danapur, Patna - BSPCB",05-11-2025 07:00:00,25.586562,85.043586,SO2,7,10,8
India,Bihar,Patna,"DRM Office Danapur, Patna - BSPCB",05-11-2025 07:00:00,25.586562,85.043586,CO,40,75,52
India,Bihar,Patna,"Govt. High School Shikarpur, Patna - BSPCB",05-11-2025 07:00:00,25.592539,85.227158,NO2,10,17,13
India,Assam,Guwahati,"IITG, Guwahati - PCBA",05-11-2025 07:00:00,26.2028636,91.70046436,CO,4,14,9
India,Assam,Guwahati,"LGBI Airport, Guwahati - PCBA",05-11-2025 07:00:00,26.10887,91.589544,CO,28,58,33
India,Assam,Guwahati,"Railway Colony, Guwahati - PCBA",05-11-2025 07:00:00,26.181742,91.78063,PM2.5,22,115,61
India,Bihar,Arrah,"New DM Office, Arrah - BSPCB",05-11-2025 07:00:00,25.5626095,84.663264,NO2,5,9,7
India,Bihar,Arrah,"New DM Office, Arrah - BSPCB",05-11-2025 07:00:00,25.5626095,84.663264,OZONE,5,24,10
India,Bihar,Bettiah,"Kamalnath Nagar, Bettiah - BSPCB",05-11-2025 07:00:00,26.80365,84.51954,PM10,67,165,106
India,Andhra_Pradesh,Anantapur,"Gulzarpet, Anantapur - APPCB",05-11-2025 07:00:00,14.675886,77.593027,NH3,5,6,5
India,Bihar,Siwan,"Chitragupta Nagar, Siwan - BSPCB",05-11-2025 07:00:00,26.2271665,84.3570427,PM2.5,NA,NA,NA
India,Chandigarh,Chandigarh,"Sector 22, Chandigarh - CPCC",05-11-2025 07:00:00,30.735567,76.775714,PM10,47,182,111
India,Chandigarh,Chandigarh,"Sector-25, Chandigarh - CPCC",05-11-2025 07:00:00,30.751462,76.762879,PM10,56,160,123
India,Chandigarh,Chandigarh,"Sector-25, Chandigarh - CPCC",05-11-2025 07:00:00,30.751462,76.762879,NH3,11,15,13
India,Chandigarh,Chandigarh,"Sector-53, Chandigarh - CPCC",05-11-2025 07:00:00,30.719859,76.738637,NH3,3,9,5
India,Chhattisgarh,Bhilai,"32Bungalows, Bhilai - CECB",05-11-2025 07:00:00,21.194815,81.314770,PM10,17,63,34
India,Chhattisgarh,Bhilai,"32Bungalows, Bhilai - CECB",05-11-2025 07:00:00,21.194815,81.314770,NH3,5,5,5
India,Chhattisgarh,Bhilai,"32Bungalows, Bhilai - CECB",05-11-2025 07:00:00,21.194815,81.314770,CO,10,68,32
India,Chhattisgarh,Bilaspur,"Mangala, Bilaspur - NTPC",05-11-2025 07:00:00,22.08815,82.13737,NO2,17,23,21
India,Chhattisgarh,Chhal,"Nawapara SECL Colony, Chhal - CECB",05-11-2025 07:00:00,22.118125,83.140608,CO,18,34,25
India,Chhattisgarh,Chhal,"Nawapara SECL Colony, Chhal - CECB",05-11-2025 07:00:00,22.118125,83.140608,OZONE,6,150,9
India,Chhattisgarh,Korba,"Rampur, Korba - CECB",05-11-2025 07:00:00,22.368195,82.746431,NO2,1,42,11
India,Chhattisgarh,Korba,"Rampur, Korba - CECB",05-11-2025 07:00:00,22.368195,82.746431,NH3,2,2,2
India,Delhi,Delhi,"Dwarka-Sector 8, Delhi - DPCC ",05-11-2025 07:00:00,28.5710274,77.0719006,PM10,107,444,188
India,Delhi,Delhi,"Dwarka-Sector 8, Delhi - DPCC ",05-11-2025 07:00:00,28.5710274,77.0719006,NO2,59,166,104
India,Delhi,Delhi,"Dwarka-Sector 8, Delhi - DPCC ",05-11-2025 07:00:00,28.5710274,77.0719006,SO2,5,27,16
India,Delhi,Delhi,"IHBAS, Dilshad Garden, Delhi - CPCB",05-11-2025 07:00:00,28.6811736,77.3025234,CO,44,78,63
India,Delhi,Delhi,"ITO, Delhi - CPCB",05-11-2025 07:00:00,28.628624,77.241060,CO,28,112,90
India,Delhi,Delhi,"Jahangirpuri, Delhi - DPCC",05-11-2025 07:00:00,28.732820,77.170633,PM2.5,95,378,237
India,Bihar,Patna,"Govt. High School Shikarpur, Patna - BSPCB",05-11-2025 07:00:00,25.592539,85.227158,CO,74,102,83
India,Bihar,Patna,"Govt. High School Shikarpur, Patna - BSPCB",05-11-2025 07:00:00,25.592539,85.227158,OZONE,8,13,11
India,Bihar,Patna,"IGSC Planetarium Complex, Patna - BSPCB",05-11-2025 07:00:00,25.610369,85.132568,OZONE,28,29,29
India,Bihar,Patna,"Muradpur, Patna - BSPCB",05-11-2025 07:00:00,25.619651,85.147382,PM2.5,146,264,200
India,Bihar,Patna,"Rajbansi Nagar, Patna - BSPCB",05-11-2025 07:00:00,25.599486,85.113666,PM10,118,170,141
India,Bihar,Patna,"Rajbansi Nagar, Patna - BSPCB",05-11-2025 07:00:00,25.599486,85.113666,OZONE,5,9,6
India,Bihar,Purnia,"Mariam Nagar, Purnia - BSPCB",05-11-2025 07:00:00,25.366336,87.117468,PM10,25,65,47
India,Bihar,Purnia,"Mariam Nagar, Purnia - BSPCB",05-11-2025 07:00:00,25.366336,87.117468,NO2,5,7,6
India,Bihar,Rajgir,"Dangi Tola, Rajgir - BSPCB",05-11-2025 07:00:00,25.03280,85.41948,NH3,6,8,7
India,Bihar,Saharsa,"Police Line, Saharsa - BSPCB",05-11-2025 07:00:00,25.892357,86.590325,NO2,6,9,7
India,Bihar,Sasaram,"Dada Peer, Sasaram - BSPCB",05-11-2025 07:00:00,24.952822,84.002396,PM2.5,28,87,43
India,Chhattisgarh,Korba,"Urja Nagar, Korba - CECB",05-11-2025 07:00:00,22.348441,82.549611,PM10,68,72,69
India,Chhattisgarh,Kunjemura,"OP Jindal School, Kunjemura - CECB",05-11-2025 07:00:00,22.126650,83.483212,PM10,2,60,36
India,Chhattisgarh,Kunjemura,"OP Jindal School, Kunjemura - CECB",05-11-2025 07:00:00,22.126650,83.483212,NO2,3,4,3
India,Chhattisgarh,Kunjemura,"OP Jindal School, Kunjemura - CECB",05-11-2025 07:00:00,22.126650,83.483212,OZONE,5,27,7
India,Chhattisgarh,Raipur,"AIIMS, Raipur - CECB",05-11-2025 07:00:00,21.258815,81.578979,NH3,4,5,4
India,Chhattisgarh,Raipur,"AIIMS, Raipur - CECB",05-11-2025 07:00:00,21.258815,81.578979,SO2,11,17,13
India,Chhattisgarh,Raipur,"Bhatagaon New ISBT, Raipur - CECB",05-11-2025 07:00:00,21.219665,81.630094,OZONE,3,18,4
India,Chhattisgarh,Raipur,"Krishak Nagar, Raipur - CECB",05-11-2025 07:00:00,21.237755,81.705301,SO2,8,17,10
India,Chhattisgarh,Raipur,"Krishak Nagar, Raipur - CECB",05-11-2025 07:00:00,21.237755,81.705301,CO,24,37,35
India,Chhattisgarh,Tumidih,"OP Jindal Industrial Park, Tumidih - CECB",05-11-2025 07:00:00,22.06631475,83.33820077,NH3,1,2,1
India,Delhi,Delhi,"Anand Vihar, Delhi - DPCC",05-11-2025 07:00:00,28.647622,77.3158090,PM10,157,500,249
India,Delhi,Delhi,"Anand Vihar, Delhi - DPCC",05-11-2025 07:00:00,28.647622,77.3158090,OZONE,18,25,18
India,Delhi,Delhi,"Ashok Vihar, Delhi - DPCC",05-11-2025 07:00:00,28.695381,77.181665,PM2.5,87,380,236
India,Delhi,Delhi,"Ashok Vihar, Delhi - DPCC",05-11-2025 07:00:00,28.695381,77.181665,CO,11,109,97
India,Delhi,Delhi,"Bawana, Delhi - DPCC",05-11-2025 07:00:00,28.776200,77.051074,PM10,149,427,222
India,Delhi,Delhi,"Dr. Karni Singh Shooting Range, Delhi - DPCC",05-11-2025 07:00:00,28.498571,77.264840,NH3,9,11,10
India,Gujarat,Ahmedabad,"SAC ISRO Satellite, Ahmedabad - IITM",05-11-2025 07:00:00,23.023389,72.515201,NO2,NA,NA,NA
India,Gujarat,Ahmedabad,"SAC ISRO Satellite, Ahmedabad - IITM",05-11-2025 07:00:00,23.023389,72.515201,NH3,NA,NA,NA
India,Gujarat,Ahmedabad,"SVPI Airport Hansol, Ahmedabad - IITM",05-11-2025 07:00:00,23.076793,72.627874,PM2.5,25,96,57
India,Gujarat,Ahmedabad,"SVPI Airport Hansol, Ahmedabad - IITM",05-11-2025 07:00:00,23.076793,72.627874,PM10,70,204,125
India,Gujarat,Ahmedabad,"SVPI Airport Hansol, Ahmedabad - IITM",05-11-2025 07:00:00,23.076793,72.627874,SO2,8,38,13
India,Gujarat,Ahmedabad,"SVPI Airport Hansol, Ahmedabad - IITM",05-11-2025 07:00:00,23.076793,72.627874,CO,5,82,68
India,Gujarat,Ankleshwar,"GIDC, Ankleshwar - GPCB",05-11-2025 07:00:00,21.613267,73.010555,PM10,38,96,69
India,Gujarat,Ankleshwar,"GIDC, Ankleshwar - GPCB",05-11-2025 07:00:00,21.613267,73.010555,SO2,33,40,35
India,Gujarat,Ankleshwar,"GIDC, Ankleshwar - GPCB",05-11-2025 07:00:00,21.613267,73.010555,CO,52,104,87
India,Gujarat,Gandhinagar,"GIFT City, Gandhinagar - IITM",05-11-2025 07:00:00,23.163798,72.677768,OZONE,NA,NA,NA
India,Gujarat,Gandhinagar,"IIPHG Lekawada, Gandhinagar - IITM",05-11-2025 07:00:00,23.243639,72.68994,PM2.5,32,73,51
India,Gujarat,Gandhinagar,"IIPHG Lekawada, Gandhinagar - IITM",05-11-2025 07:00:00,23.243639,72.68994,SO2,1,5,2
India,Gujarat,Gandhinagar,"Sector-10, Gandhinagar - GPCB",05-11-2025 07:00:00,23.221714,72.654328,CO,12,40,32
India,Gujarat,Surat,"Science Center, Surat - SMC",05-11-2025 07:00:00,21.170046,72.795405,PM2.5,10,89,29
India,Gujarat,Surat,"Science Center, Surat - SMC",05-11-2025 07:00:00,21.170046,72.795405,SO2,29,43,32
India,Gujarat,Vatva,"Phase-4 GIDC, Vatva - GPCB",05-11-2025 07:00:00,22.969611,72.643500,PM2.5,NA,NA,NA
India,Gujarat,Vatva,"Phase-4 GIDC, Vatva - GPCB",05-11-2025 07:00:00,22.969611,72.643500,PM10,NA,NA,NA
India,Gujarat,Vatva,"Phase-4 GIDC, Vatva - GPCB",05-11-2025 07:00:00,22.969611,72.643500,NO2,NA,NA,NA
India,Delhi,Delhi,"Mundka, Delhi - DPCC",05-11-2025 07:00:00,28.684678,77.076574,NH3,9,12,11
India,Delhi,Delhi,"Mundka, Delhi - DPCC",05-11-2025 07:00:00,28.684678,77.076574,OZONE,2,122,2
India,Delhi,Delhi,"NSIT Dwarka, Delhi - CPCB",05-11-2025 07:00:00,28.60909,77.0325413,CO,22,66,34
India,Delhi,Delhi,"NSIT Dwarka, Delhi - CPCB",05-11-2025 07:00:00,28.60909,77.0325413,OZONE,12,76,13
India,Delhi,Delhi,"Najafgarh, Delhi - DPCC",05-11-2025 07:00:00,28.570173,76.933762,NH3,3,4,4
India,Delhi,Delhi,"Narela, Delhi - DPCC",05-11-2025 07:00:00,28.822836,77.101981,CO,4,115,110
India,Delhi,Delhi,"Nehru Nagar, Delhi - DPCC",05-11-2025 07:00:00,28.567890,77.250515,NO2,45,108,67
India,Delhi,Delhi,"Lodhi Road, Delhi - IITM",05-11-2025 07:00:00,28.588333,77.221667,PM2.5,44,237,124
India,Delhi,Delhi,"Lodhi Road, Delhi - IITM",05-11-2025 07:00:00,28.588333,77.221667,PM10,108,216,145
India,Delhi,Delhi,"Lodhi Road, Delhi - IMD",05-11-2025 07:00:00,28.5918245,77.2273074,NO2,3,45,26
India,Delhi,Delhi,"Major Dhyan Chand National Stadium, Delhi - DPCC",05-11-2025 07:00:00,28.611281,77.237738,SO2,15,34,22
India,Delhi,Delhi,"Mandir Marg, Delhi - DPCC",05-11-2025 07:00:00,28.636429,77.201067,NO2,7,59,28
India,Delhi,Delhi,"Mandir Marg, Delhi - DPCC",05-11-2025 07:00:00,28.636429,77.201067,SO2,2,58,35
India,Delhi,Delhi,"Sirifort, Delhi - CPCB",05-11-2025 07:00:00,28.5504249,77.2159377,CO,26,101,65
India,Delhi,Delhi,"Sonia Vihar, Delhi - DPCC",05-11-2025 07:00:00,28.710508,77.249485,PM2.5,NA,NA,NA
India,Delhi,Delhi,"Sonia Vihar, Delhi - DPCC",05-11-2025 07:00:00,28.710508,77.249485,PM10,NA,NA,NA
India,Delhi,Delhi,"Sonia Vihar, Delhi - DPCC",05-11-2025 07:00:00,28.710508,77.249485,NH3,NA,NA,NA
India,Delhi,Delhi,"Sri Aurobindo Marg, Delhi - DPCC",05-11-2025 07:00:00,28.531346,77.190156,PM10,86,321,135
India,Delhi,Delhi,"Sri Aurobindo Marg, Delhi - DPCC",05-11-2025 07:00:00,28.531346,77.190156,NO2,2,52,20
India,Gujarat,Ahmedabad,"Maninagar, Ahmedabad - GPCB",05-11-2025 07:00:00,23.002657,72.591912,PM10,59,167,109
India,Gujarat,Ahmedabad,"Maninagar, Ahmedabad - GPCB",05-11-2025 07:00:00,23.002657,72.591912,OZONE,29,76,34
India,Gujarat,Ahmedabad,"Raikhad, Ahmedabad - IITM",05-11-2025 07:00:00,23.020509,72.579261,NH3,7,13,10
India,Gujarat,Ahmedabad,"SAC ISRO Bopal, Ahmedabad - IITM",05-11-2025 07:00:00,23.041137,72.456691,NO2,14,25,20
India,Gujarat,Ahmedabad,"SAC ISRO Bopal, Ahmedabad - IITM",05-11-2025 07:00:00,23.041137,72.456691,CO,6,42,31
India,Delhi,Delhi,"Vivek Vihar, Delhi - DPCC",05-11-2025 07:00:00,28.672342,77.315260,CO,2,92,69
India,Delhi,Delhi,"Wazirpur, Delhi - DPCC",05-11-2025 07:00:00,28.699793,77.165453,NH3,10,14,12
India,Delhi,Delhi,"Wazirpur, Delhi - DPCC",05-11-2025 07:00:00,28.699793,77.165453,SO2,6,17,10
India,Gujarat,Ahmedabad,"Chandkheda, Ahmedabad - IITM",05-11-2025 07:00:00,23.107969,72.574648,NO2,6,77,31
India,Gujarat,Ahmedabad,"Chandkheda, Ahmedabad - IITM",05-11-2025 07:00:00,23.107969,72.574648,NH3,3,18,9
India,Delhi,Delhi,"Nehru Nagar, Delhi - DPCC",05-11-2025 07:00:00,28.567890,77.250515,CO,43,108,71
India,Delhi,Delhi,"Patparganj, Delhi - DPCC",05-11-2025 07:00:00,28.623763,77.287209,PM10,130,394,214
India,Delhi,Delhi,"Patparganj, Delhi - DPCC",05-11-2025 07:00:00,28.623763,77.287209,SO2,1,10,4
India,Delhi,Delhi,"Punjabi Bagh, Delhi - DPCC",05-11-2025 07:00:00,28.674045,77.131023,PM2.5,103,350,224
India,Delhi,Delhi,"Pusa, Delhi - DPCC",05-11-2025 07:00:00,28.639652,77.146275,PM10,114,289,166
India,Delhi,Delhi,"Pusa, Delhi - IMD",05-11-2025 07:00:00,28.636110,77.173332,PM10,70,233,140
India,Delhi,Delhi,"Rohini, Delhi - DPCC",05-11-2025 07:00:00,28.732528,77.119920,NO2,19,87,36
India,Haryana,Manesar,"Sector-2 IMT, Manesar - HSPCB",05-11-2025 07:00:00,28.360699,76.936090,CO,39,62,42
India,Haryana,Narnaul,"Shastri Nagar, Narnaul - HSPCB",05-11-2025 07:00:00,28.060249,76.113115,NH3,6,16,10
India,Haryana,Narnaul,"Shastri Nagar, Narnaul - HSPCB",05-11-2025 07:00:00,28.060249,76.113115,SO2,23,24,24
India,Haryana,Narnaul,"Shastri Nagar, Narnaul - HSPCB",05-11-2025 07:00:00,28.060249,76.113115,CO,28,48,29
India,Haryana,Narnaul,"Shastri Nagar, Narnaul - HSPCB",05-11-2025 07:00:00,28.060249,76.113115,OZONE,17,83,18
India,Haryana,Palwal,"Shyam Nagar, Palwal - HSPCB",05-11-2025 07:00:00,28.1485564,77.3320667,NO2,23,24,24
India,Haryana,Palwal,"Shyam Nagar, Palwal - HSPCB",05-11-2025 07:00:00,28.1485564,77.3320667,SO2,12,13,12
India,Haryana,Palwal,"Shyam Nagar, Palwal - HSPCB",05-11-2025 07:00:00,28.1485564,77.3320667,CO,27,28,28
India,Haryana,Panchgaon,"Amity University, Panchgaon - IITM",05-11-2025 07:00:00,28.3153,76.9143,PM2.5,18,99,48
India,Haryana,Panchgaon,"Amity University, Panchgaon - IITM",05-11-2025 07:00:00,28.3153,76.9143,NO2,25,74,46
India,Haryana,Faridabad,"Sector 11, Faridabad - HSPCB",05-11-2025 07:00:00,28.376058,77.315741,NO2,1,31,13
India,Haryana,Faridabad,"Sector 11, Faridabad - HSPCB",05-11-2025 07:00:00,28.376058,77.315741,SO2,1,59,21
India,Haryana,Faridabad,"Sector 11, Faridabad - HSPCB",05-11-2025 07:00:00,28.376058,77.315741,CO,4,54,22
India,Haryana,Faridabad,"Sector 30, Faridabad - HSPCB",05-11-2025 07:00:00,28.4417,77.3217,NH3,11,12,11
India,Haryana,Faridabad,"Sector 30, Faridabad - HSPCB",05-11-2025 07:00:00,28.4417,77.3217,CO,60,64,62
India,Haryana,Faridabad,"Sector 30, Faridabad - HSPCB",05-11-2025 07:00:00,28.4417,77.3217,OZONE,17,19,18
India,Haryana,Fatehabad,"Huda Sector, Fatehabad - HSPCB",05-11-2025 07:00:00,29.503664,75.467934,PM10,NA,NA,NA
India,Haryana,Fatehabad,"Huda Sector, Fatehabad - HSPCB",05-11-2025 07:00:00,29.503664,75.467934,OZONE,10,39,12
India,Haryana,Gurugram,"Sector-51, Gurugram - HSPCB",05-11-2025 07:00:00,28.4227,77.0667,NO2,2,11,4
India,Haryana,Sonipat,"Murthal, Sonipat - HSPCB",05-11-2025 07:00:00,29.027200,77.062100,NH3,NA,NA,NA
India,Haryana,Sonipat,"Murthal, Sonipat - HSPCB",05-11-2025 07:00:00,29.027200,77.062100,SO2,NA,NA,NA
India,Haryana,Sonipat,"Murthal, Sonipat - HSPCB",05-11-2025 07:00:00,29.027200,77.062100,OZONE,25,26,26
India,Himachal Pradesh,Baddi,"HIMUDA Complex Phase-1, Baddi - HPPCB",05-11-2025 07:00:00,30.943887,76.801991,PM2.5,38,336,158
India,Himachal Pradesh,Baddi,"HIMUDA Complex Phase-1, Baddi - HPPCB",05-11-2025 07:00:00,30.943887,76.801991,PM10,99,332,157
India,Himachal Pradesh,Baddi,"HIMUDA Complex Phase-1, Baddi - HPPCB",05-11-2025 07:00:00,30.943887,76.801991,SO2,19,104,50
India,Himachal Pradesh,Baddi,"HIMUDA Complex Phase-1, Baddi - HPPCB",05-11-2025 07:00:00,30.943887,76.801991,CO,42,78,59
India,Jammu_and_Kashmir,Srinagar,"Rajbagh, Srinagar - JKSPCB",05-11-2025 07:00:00,34.066206,74.819820,OZONE,1,60,8
India,Haryana,Kaithal,"Rishi Nagar, Kaithal - HSPCB",05-11-2025 07:00:00,29.8006,76.4155,OZONE,5,50,12
India,Haryana,Karnal,"Sector-12, Karnal - HSPCB",05-11-2025 07:00:00,29.695300,77.002700,PM10,36,295,159
India,Haryana,Karnal,"Sector-12, Karnal - HSPCB",05-11-2025 07:00:00,29.695300,77.002700,NO2,9,11,10
India,Haryana,Karnal,"Sector-12, Karnal - HSPCB",05-11-2025 07:00:00,29.695300,77.002700,CO,40,58,48
India,Haryana,Mandikhera,"General Hospital, Mandikhera - HSPCB",05-11-2025 07:00:00,27.9002,76.9938,PM10,NA,NA,NA
India,Haryana,Manesar,"Sector-2 IMT, Manesar - HSPCB",05-11-2025 07:00:00,28.360699,76.936090,PM10,27,173,110
India,Haryana,Charkhi Dadri,"Mini Secretariat, Charkhi Dadri - HSPCB",05-11-2025 07:00:00,28.593883,76.270653,NH3,5,8,6
India,Haryana,Charkhi Dadri,"Mini Secretariat, Charkhi Dadri - HSPCB",05-11-2025 07:00:00,28.593883,76.270653,CO,7,25,15
India,Haryana,Dharuhera,"Municipal Corporation Office, Dharuhera -  HSPCB",05-11-2025 07:00:00,28.206800,76.799700,SO2,NA,NA,NA
India,Haryana,Faridabad,"New Industrial Town, Faridabad - HSPCB",05-11-2025 07:00:00,28.39072,77.30059,NH3,11,12,11
India,Haryana,Faridabad,"Sector 11, Faridabad - HSPCB",05-11-2025 07:00:00,28.376058,77.315741,PM2.5,61,236,133
India,Haryana,Gurugram,"Vikas Sadan, Gurugram - HSPCB",05-11-2025 07:00:00,28.4501238,77.0263051,PM2.5,200,329,300
India,Haryana,Hisar,"Urban Estate-II, Hisar - HSPCB",05-11-2025 07:00:00,29.140560,75.744941,PM2.5,4,57,34
India,Haryana,Hisar,"Urban Estate-II, Hisar - HSPCB",05-11-2025 07:00:00,29.140560,75.744941,NO2,11,12,12
India,Haryana,Jind,"Police Lines, Jind - HSPCB",05-11-2025 07:00:00,29.307814,76.337619,PM2.5,221,351,298
India,Haryana,Jind,"Police Lines, Jind - HSPCB",05-11-2025 07:00:00,29.307814,76.337619,PM10,130,229,162
India,Haryana,Jind,"Police Lines, Jind - HSPCB",05-11-2025 07:00:00,29.307814,76.337619,OZONE,1,3,1
India,Haryana,Panchkula,"Sector-6, Panchkula - HSPCB ",05-11-2025 07:00:00,30.7057778,76.8531805555555,PM2.5,65,361,257
India,Haryana,Panchkula,"Sector-6, Panchkula - HSPCB ",05-11-2025 07:00:00,30.7057778,76.8531805555555,SO2,8,9,9
India,Haryana,Rohtak,"MD University, Rohtak - HSPCB",05-11-2025 07:00:00,28.52123,76.37138,PM2.5,95,500,274
India,Haryana,Sonipat,"Murthal, Sonipat - HSPCB",05-11-2025 07:00:00,29.027200,77.062100,PM2.5,NA,NA,NA
India,Haryana,Ambala,"Patti Mehar, Ambala - HSPCB",05-11-2025 07:00:00,30.379589,76.778328,OZONE,48,53,51
India,Haryana,Bahadurgarh,"Arya Nagar, Bahadurgarh - HSPCB",05-11-2025 07:00:00,28.6701,76.9254,NO2,12,14,13
India,Haryana,Bhiwani,"H.B. Colony, Bhiwani - HSPCB",05-11-2025 07:00:00,28.806223,76.141105,PM2.5,224,332,266
India,Karnataka,Bengaluru,"Peenya, Bengaluru - CPCB",05-11-2025 07:00:00,13.0270199,77.494094,NH3,3,4,3
India,Karnataka,Bengaluru,"Peenya, Bengaluru - CPCB",05-11-2025 07:00:00,13.0270199,77.494094,SO2,6,18,10
India,Karnataka,Bengaluru,"Peenya, Bengaluru - CPCB",05-11-2025 07:00:00,13.0270199,77.494094,CO,28,57,32
India,Karnataka,Bengaluru,"Sanegurava Halli, Bengaluru - KSPCB",05-11-2025 07:00:00,12.990328,77.5431385,SO2,7,7,7
India,Karnataka,Bengaluru,"Sanegurava Halli, Bengaluru - KSPCB",05-11-2025 07:00:00,12.990328,77.5431385,CO,18,36,26
India,Karnataka,Bengaluru,"Shivapura_Peenya, Bengaluru - KSPCB",05-11-2025 07:00:00,13.0246342,77.5080115,SO2,8,12,10
India,Karnataka,Bengaluru,"Silk Board, Bengaluru - KSPCB",05-11-2025 07:00:00,12.917348,77.622813,PM10,40,65,51
India,Karnataka,Bengaluru,"Silk Board, Bengaluru - KSPCB",05-11-2025 07:00:00,12.917348,77.622813,OZONE,18,19,19
India,Karnataka,Bidar,"Naubad, Bidar - KSPCB",05-11-2025 07:00:00,17.930306,77.482194,PM10,NA,NA,NA
India,Karnataka,Kalaburagi,"Mahatma Basaveswar Colony, Kalaburgi - KSPCB",05-11-2025 07:00:00,17.336318,76.847397,OZONE,11,15,12
India,Karnataka,Koppal,"Diwator Nagar, Koppal - KSPCB",05-11-2025 07:00:00,15.347630,76.181767,PM10,10,61,27
India,Karnataka,Koppal,"Diwator Nagar, Koppal - KSPCB",05-11-2025 07:00:00,15.347630,76.181767,SO2,12,34,27
India,Karnataka,Madikeri,"Stuart Hill, Madikeri - KSPCB",05-11-2025 07:00:00,12.415911,75.735050,PM2.5,5,29,18
India,Karnataka,Madikeri,"Stuart Hill, Madikeri - KSPCB",05-11-2025 07:00:00,12.415911,75.735050,SO2,7,7,7
India,Karnataka,Mangalore,"Kadri, Mangalore - KSPCB",05-11-2025 07:00:00,12.889250,74.853000,PM2.5,32,88,50
India,Karnataka,Mangalore,"Kadri, Mangalore - KSPCB",05-11-2025 07:00:00,12.889250,74.853000,PM10,33,89,52
India,Karnataka,Mangalore,"Kadri, Mangalore - KSPCB",05-11-2025 07:00:00,12.889250,74.853000,OZONE,4,43,26
India,Karnataka,Chamarajanagar,"Urban, Chamarajanagar - KSPCB",05-11-2025 07:00:00,11.55358,76.55521,SO2,2,8,4
India,Karnataka,Chamarajanagar,"Urban, Chamarajanagar - KSPCB",05-11-2025 07:00:00,11.55358,76.55521,OZONE,14,39,15
India,Karnataka,Chikkamagaluru,"Kalyana Nagara, Chikkamagaluru - KSPCB",05-11-2025 07:00:00,13.328028,75.797056,PM2.5,13,57,30
India,Karnataka,Chikkamagaluru,"Kalyana Nagara, Chikkamagaluru - KSPCB",05-11-2025 07:00:00,13.328028,75.797056,SO2,6,6,6
India,Karnataka,Chikkamagaluru,"Kalyana Nagara, Chikkamagaluru - KSPCB",05-11-2025 07:00:00,13.328028,75.797056,OZONE,10,49,16
India,Karnataka,Davanagere,"Devaraj Urs Badavane, Davanagere - KSPCB",05-11-2025 07:00:00,14.475800,75.905200,PM10,16,45,27
India,Karnataka,Davanagere,"Devaraj Urs Badavane, Davanagere - KSPCB",05-11-2025 07:00:00,14.475800,75.905200,NH3,1,7,2
India,Karnataka,Davanagere,"Devaraj Urs Badavane, Davanagere - KSPCB",05-11-2025 07:00:00,14.475800,75.905200,OZONE,21,23,22
India,Karnataka,Bengaluru,"Bapuji Nagar, Bengaluru - KSPCB",05-11-2025 07:00:00,12.951913,77.539784,NO2,4,17,9
India,Karnataka,Bengaluru,"Bapuji Nagar, Bengaluru - KSPCB",05-11-2025 07:00:00,12.951913,77.539784,SO2,4,17,10
India,Karnataka,Bengaluru,"Bapuji Nagar, Bengaluru - KSPCB",05-11-2025 07:00:00,12.951913,77.539784,CO,14,105,37
India,Karnataka,Bengaluru,"City Railway Station, Bengaluru - KSPCB",05-11-2025 07:00:00,12.9756843,77.5660749,SO2,11,17,14
India,Karnataka,Bengaluru,"Hebbal, Bengaluru - KSPCB",05-11-2025 07:00:00,13.029152,77.585901,NO2,21,24,23
India,Karnataka,Bengaluru,"Hebbal, Bengaluru - KSPCB",05-11-2025 07:00:00,13.029152,77.585901,OZONE,6,9,7
India,Karnataka,Mysuru,"Hebbal 1st Stage, Mysuru - KSPCB",05-11-2025 07:00:00,12.21041,76.37376,OZONE,5,54,5
India,Karnataka,Shivamogga,"Vinoba Nagara, Shivamogga - KSPCB",05-11-2025 07:00:00,13.940000,75.555917,NO2,15,19,16
India,Karnataka,Tumakuru,"Thimmalapura, Tumakuru - KSPCB",05-11-2025 07:00:00,13.377516,77.099072,PM10,NA,NA,NA
India,Karnataka,Udupi,"Brahmagiri, Udupi - KSPCB",05-11-2025 07:00:00,13.34194444,74.74694444,NO2,8,10,8
India,Karnataka,Haveri,"Ashwini Nagar, Haveri - KSPCB",05-11-2025 07:00:00,14.791800,75.389600,NO2,45,48,46
India,Karnataka,Hubballi,"Lingaraj Nagar, Hubballi - KSPCB",05-11-2025 07:00:00,15.3714823,75.1160168,PM10,50,59,56
India,Karnataka,Hubballi,"Lingaraj Nagar, Hubballi - KSPCB",05-11-2025 07:00:00,15.3714823,75.1160168,SO2,1,1,1
India,Karnataka,Kalaburagi,"Lal Bahadur Shastri Nagar, Kalaburagi - KSPCB",05-11-2025 07:00:00,17.321993,76.822628,NH3,1,1,1
India,Karnataka,Belgaum,"Ramteerth Nagar, Belgaum - KSPCB",05-11-2025 07:00:00,15.888653,74.541751,NO2,16,80,39
India,Karnataka,Bengaluru,"BTM Layout, Bengaluru - CPCB",05-11-2025 07:00:00,12.9135218,77.5950804,PM2.5,30,46,35
India,Karnataka,Bengaluru,"BWSSB Kadabesanahalli, Bengaluru - CPCB",05-11-2025 07:00:00,12.9352049,77.6814488,NO2,23,25,25
India,Karnataka,Bengaluru,"Kasturi Nagar, Bengaluru - KSPCB",05-11-2025 07:00:00,13.003872,77.664217,PM10,55,64,58
India,Karnataka,Bengaluru,"Kasturi Nagar, Bengaluru - KSPCB",05-11-2025 07:00:00,13.003872,77.664217,CO,42,57,46
India,Karnataka,Yadgir,"Collector Office, Yadgir - KSPCB",05-11-2025 07:00:00,16.7602,77.1428,PM2.5,NA,NA,NA
India,Karnataka,Yadgir,"Collector Office, Yadgir - KSPCB",05-11-2025 07:00:00,16.7602,77.1428,NO2,5,40,24
India,Madhya Pradesh,Satna,"Bandhavgar Colony, Satna - Birla Cement",05-11-2025 07:00:00,24.58434363,80.8549414,NO2,26,36,31
India,Madhya Pradesh,Singrauli,"Suryakiran Bhawan NCL, Singrauli - MPPCB",05-11-2025 07:00:00,24.108970,82.645580,SO2,36,46,40
India,Maharashtra,Ahmednagar,"Tarakpur, Ahmednagar - MPCB",05-11-2025 07:00:00,19.10122,74.73339,PM10,16,210,54
India,Maharashtra,Ahmednagar,"Tarakpur, Ahmednagar - MPCB",05-11-2025 07:00:00,19.10122,74.73339,NH3,5,7,5
India,Maharashtra,Akola,"Ramdaspeth, Akola - MPCB",05-11-2025 07:00:00,20.719516,77.000253,NO2,10,47,20
India,Maharashtra,Akola,"Ramdaspeth, Akola - MPCB",05-11-2025 07:00:00,20.719516,77.000253,SO2,10,18,13
India,Maharashtra,Amravati,"Shivneri Colony, Amravati - MPCB",05-11-2025 07:00:00,20.9402359,77.7895248,PM2.5,22,63,41
India,Maharashtra,Amravati,"Shivneri Colony, Amravati - MPCB",05-11-2025 07:00:00,20.9402359,77.7895248,NH3,1,1,1
India,Maharashtra,Belapur,"CBD Belapur, Belapur - MPCB",05-11-2025 07:00:00,19.0243902,73.0406721,NH3,1,5,2
India,Maharashtra,Bhiwandi,"Gokul Nagar, Bhiwandi - MPCB",05-11-2025 07:00:00,19.309073,73.057223,NO2,11,29,20
India,Maharashtra,Bhiwandi,"Gokul Nagar, Bhiwandi - MPCB",05-11-2025 07:00:00,19.309073,73.057223,CO,17,41,27
India,Maharashtra,Boisar,"Khaira, Boisar - MPCB",05-11-2025 07:00:00,19.786089,72.757971,SO2,1,21,13
India,Maharashtra,Boisar,"Khaira, Boisar - MPCB",05-11-2025 07:00:00,19.786089,72.757971,OZONE,20,21,21
India,Maharashtra,Chandrapur,"Chauhan Colony, Chandrapur - MPCB",05-11-2025 07:00:00,19.962900,79.298714,PM2.5,15,70,39
India,Maharashtra,Chandrapur,"Chauhan Colony, Chandrapur - MPCB",05-11-2025 07:00:00,19.962900,79.298714,NH3,2,2,2
India,Maharashtra,Chandrapur,"Chauhan Colony, Chandrapur - MPCB",05-11-2025 07:00:00,19.962900,79.298714,SO2,29,29,29
India,Maharashtra,Amravati,"Shivneri Colony, Amravati - MPCB",05-11-2025 07:00:00,20.9402359,77.7895248,OZONE,1,51,4
India,Maharashtra,Amravati,"Shri Shivaji Science College, Amravati - MPCB",05-11-2025 07:00:00,20.939198,77.765701,CO,36,62,50
India,Maharashtra,Aurangabad,"MIDC Chilkalthana, Aurangabad - MPCB",05-11-2025 07:00:00,19.875620,75.387310,PM10,26,94,55
India,Maharashtra,Aurangabad,"Rachnakar Colony, Aurangabad - MPCB",05-11-2025 07:00:00,19.863756,75.321188,PM2.5,28,119,67
India,Maharashtra,Aurangabad,"Rachnakar Colony, Aurangabad - MPCB",05-11-2025 07:00:00,19.863756,75.321188,CO,8,34,16
India,Madhya Pradesh,Maihar,"Sahilara, Maihar - KJS Cements",05-11-2025 07:00:00,24.2613009,80.7231783,SO2,17,17,17
India,Madhya Pradesh,Mandideep,"Sector-D Industrial Area, Mandideep - MPPCB",05-11-2025 07:00:00,23.108440,77.511428,SO2,12,20,14
India,Madhya Pradesh,Pithampur,"Sector-2 Industrial Area, Pithampur - MPPCB",05-11-2025 07:00:00,22.624758,75.675238,NO2,23,258,42
India,Madhya Pradesh,Pithampur,"Sector-2 Industrial Area, Pithampur - MPPCB",05-11-2025 07:00:00,22.624758,75.675238,NH3,2,24,4
India,Madhya Pradesh,Ratlam,"Shasthri Nagar, Ratlam - IPCA Lab",05-11-2025 07:00:00,23.331731,75.045981,SO2,21,24,23
India,Madhya Pradesh,Indore,"Chhoti Gwaltoli, Indore - MPPCB",05-11-2025 07:00:00,22.4310,75.5213,PM2.5,32,62,48
India,Madhya Pradesh,Indore,"Maguda Nagar, Indore - IMC",05-11-2025 07:00:00,22.7524,75.8872,OZONE,8,121,8
India,Madhya Pradesh,Indore,"Regional Park, Indore - IMC",05-11-2025 07:00:00,22.6780,75.8559,PM10,32,81,51
India,Madhya Pradesh,Indore,"Residency Area, Indore - IMC",05-11-2025 07:00:00,22.7084,75.8815,PM2.5,31,63,43
India,Madhya Pradesh,Indore,"Residency Area, Indore - IMC",05-11-2025 07:00:00,22.7084,75.8815,NO2,13,18,16
India,Madhya Pradesh,Indore,"Residency Area, Indore - IMC",05-11-2025 07:00:00,22.7084,75.8815,CO,14,16,15
India,Madhya Pradesh,Jabalpur,"Govindh Bhavan Colony, Jabalpur - JMC",05-11-2025 07:00:00,23.163174,79.973061,NO2,14,19,16
India,Madhya Pradesh,Jabalpur,"Govindh Bhavan Colony, Jabalpur - JMC",05-11-2025 07:00:00,23.163174,79.973061,OZONE,3,152,6
India,Madhya Pradesh,Jabalpur,"Marhatal, Jabalpur - MPPCB",05-11-2025 07:00:00,23.168606,79.932247,PM2.5,73,182,128
India,Madhya Pradesh,Jabalpur,"Marhatal, Jabalpur - MPPCB",05-11-2025 07:00:00,23.168606,79.932247,NH3,2,4,4
India,Madhya Pradesh,Jabalpur,"Suhagi, Jabalpur - JMC",05-11-2025 07:00:00,23.218135,79.957770,CO,18,99,23
India,Madhya Pradesh,Jabalpur,"Suhagi, Jabalpur - JMC",05-11-2025 07:00:00,23.218135,79.957770,OZONE,40,177,50
India,Kerala,Kannur,"Thavakkara, Kannur - Kerala PCB",05-11-2025 07:00:00,11.875000,75.373200,PM2.5,46,54,49
India,Kerala,Kollam,"Polayathode, Kollam - Kerala PCB",05-11-2025 07:00:00,8.8787,76.6073,NO2,8,10,9
India,Kerala,Kollam,"Polayathode, Kollam - Kerala PCB",05-11-2025 07:00:00,8.8787,76.6073,OZONE,30,35,31
India,Kerala,Thiruvananthapuram,"Kariavattom, Thiruvananthapuram - Kerala PCB",05-11-2025 07:00:00,8.563700,76.886500,OZONE,36,37,36
India,Kerala,Thiruvananthapuram,"Plammoodu, Thiruvananthapuram - Kerala PCB",05-11-2025 07:00:00,8.5149093,76.9435879,NH3,6,10,7
India,Madhya Pradesh,Bhopal,"Idgah Hills, Bhopal - MPPCB",05-11-2025 07:00:00,23.264759,77.381568,PM2.5,32,97,57
India,Madhya Pradesh,Bhopal,"Paryavaran Parisar, Bhopal - MPPCB",05-11-2025 07:00:00,23.210494,77.425409,NO2,10,33,15
India,Madhya Pradesh,Gwalior,"City Center, Gwalior - MPPCB",05-11-2025 07:00:00,26.203442,78.193251,PM2.5,32,93,56
India,Madhya Pradesh,Gwalior,"Deen Dayal Nagar, Gwalior - MPPCB",05-11-2025 07:00:00,26.259242,78.216432,PM2.5,47,187,96
India,Madhya Pradesh,Gwalior,"Deen Dayal Nagar, Gwalior - MPPCB",05-11-2025 07:00:00,26.259242,78.216432,CO,16,81,33
India,Maharashtra,Mumbai,"Colaba, Mumbai - MPCB",05-11-2025 07:00:00,18.910000,72.820000,SO2,NA,NA,NA
India,Maharashtra,Mumbai,"Deonar, Mumbai - IITM",05-11-2025 07:00:00,19.04946,72.9230,PM10,61,138,105
India,Maharashtra,Mumbai,"Deonar, Mumbai - IITM",05-11-2025 07:00:00,19.04946,72.9230,CO,12,76,56
India,Maharashtra,Mumbai,"Deonar, Mumbai - IITM",05-11-2025 07:00:00,19.04946,72.9230,OZONE,NA,NA,NA
India,Maharashtra,Mumbai,"Ghatkopar, Mumbai - BMC",05-11-2025 07:00:00,19.083694,72.920967,SO2,2,7,4
India,Maharashtra,Mumbai,"Kandivali East, Mumbai - MPCB",05-11-2025 07:00:00,19.205800,72.868200,PM10,38,71,57
India,Maharashtra,Mumbai,"Mazgaon, Mumbai - IITM",05-11-2025 07:00:00,18.96702,72.84214,SO2,6,14,9
India,Maharashtra,Mumbai,"Mazgaon, Mumbai - IITM",05-11-2025 07:00:00,18.96702,72.84214,CO,2,105,74
India,Maharashtra,Mumbai,"Mazgaon, Mumbai - IITM",05-11-2025 07:00:00,18.96702,72.84214,OZONE,8,54,38
India,Maharashtra,Mumbai,"Mindspace-Malad West, Mumbai - MPCB",05-11-2025 07:00:00,19.1878657,72.8304069,PM2.5,29,30,29
India,Maharashtra,Mumbai,"Mindspace-Malad West, Mumbai - MPCB",05-11-2025 07:00:00,19.1878657,72.8304069,PM10,32,73,48
India,Maharashtra,Mumbai,"Mulund West, Mumbai - MPCB",05-11-2025 07:00:00,19.1750,72.9419,PM2.5,34,65,46
India,Maharashtra,Kalyan,"Pimpleshwar Mandir, Kalyan - MPCB",05-11-2025 07:00:00,19.192056,72.9585188,SO2,9,9,9
India,Maharashtra,Kolhapur,"Sinchan Bhavan, Kolhapur - MPCB",05-11-2025 07:00:00,16.7143745,74.2426398,PM2.5,8,24,16
India,Maharashtra,Kolhapur,"Sinchan Bhavan, Kolhapur - MPCB",05-11-2025 07:00:00,16.7143745,74.2426398,NO2,3,10,6
India,Maharashtra,Kolhapur,"Sinchan Bhavan, Kolhapur - MPCB",05-11-2025 07:00:00,16.7143745,74.2426398,CO,10,20,13
India,Maharashtra,Latur,"Sawe Wadi, Latur - MPCB",05-11-2025 07:00:00,18.39963,76.57452,CO,10,46,22
India,Maharashtra,Mumbai,"Powai, Mumbai - MPCB",05-11-2025 07:00:00,19.137500,72.915056,NH3,1,2,2
India,Maharashtra,Mumbai,"Powai, Mumbai - MPCB",05-11-2025 07:00:00,19.137500,72.915056,SO2,27,29,28
India,Maharashtra,Mumbai,"Sewri, Mumbai - BMC",05-11-2025 07:00:00,19.000084,72.856730,PM10,NA,NA,NA
India,Maharashtra,Mumbai,"Sewri, Mumbai - BMC",05-11-2025 07:00:00,19.000084,72.856730,NH3,NA,NA,NA
India,Maharashtra,Mumbai,"Siddharth Nagar-Worli, Mumbai - IITM",05-11-2025 07:00:00,19.000083,72.813993,NO2,19,32,24
India,Maharashtra,Mumbai,"Siddharth Nagar-Worli, Mumbai - IITM",05-11-2025 07:00:00,19.000083,72.813993,NH3,2,2,2
India,Maharashtra,Mumbai,"Borivali East, Mumbai - MPCB",05-11-2025 07:00:00,19.2243333,72.8658113,CO,6,6,6
India,Maharashtra,Mumbai,"Byculla, Mumbai - BMC",05-11-2025 07:00:00,18.9767,72.8380,NO2,14,41,24
India,Maharashtra,Mumbai,"Byculla, Mumbai - BMC",05-11-2025 07:00:00,18.9767,72.8380,NH3,4,12,6
India,Maharashtra,Mumbai,"Chhatrapati Shivaji Intl. Airport (T2), Mumbai - MPCB",05-11-2025 07:00:00,19.10078,72.87462,CO,12,15,14
India,Maharashtra,Chandrapur,"MIDC Khutala, Chandrapur - MPCB",05-11-2025 07:00:00,19.9775302,79.2337086,PM2.5,21,265,64
India,Maharashtra,Chandrapur,"MIDC Khutala, Chandrapur - MPCB",05-11-2025 07:00:00,19.9775302,79.2337086,PM10,77,224,127
India,Maharashtra,Chandrapur,"MIDC Khutala, Chandrapur - MPCB",05-11-2025 07:00:00,19.9775302,79.2337086,OZONE,17,19,18
India,Maharashtra,Dhule,"Deopur, Dhule - MPCB",05-11-2025 07:00:00,20.918946,74.776388,PM10,45,70,59
India,Maharashtra,Mumbai,"Bandra Kurla Complex, Mumbai - IITM",05-11-2025 07:00:00,19.053536,72.84643,PM10,83,149,112
India,Maharashtra,Mumbai,"Borivali East, Mumbai - IITM",05-11-2025 07:00:00,19.23241,72.86895,NH3,4,5,4
India,Maharashtra,Mumbai,"Borivali East, Mumbai - IITM",05-11-2025 07:00:00,19.23241,72.86895,OZONE,10,61,16
India,Maharashtra,Mumbai,"Kandivali West, Mumbai - BMC",05-11-2025 07:00:00,19.215859,72.831718,PM2.5,14,36,28
India,Maharashtra,Mumbai,"Kurla, Mumbai - MPCB",05-11-2025 07:00:00,19.0863,72.8888,CO,4,11,7
India,Maharashtra,Navi Mumbai,"Mahape, Navi Mumbai - MPCB",05-11-2025 07:00:00,19.1135051,73.008978,PM2.5,7,18,13
India,Maharashtra,Navi Mumbai,"Mahape, Navi Mumbai - MPCB",05-11-2025 07:00:00,19.1135051,73.008978,NO2,34,36,35
India,Maharashtra,Navi Mumbai,"Mahape, Navi Mumbai - MPCB",05-11-2025 07:00:00,19.1135051,73.008978,SO2,25,27,26
India,Maharashtra,Navi Mumbai,"Mahape, Navi Mumbai - MPCB",05-11-2025 07:00:00,19.1135051,73.008978,OZONE,7,15,10
India,Maharashtra,Navi Mumbai,"Nerul, Navi Mumbai - MPCB",05-11-2025 07:00:00,19.008751,73.016620,NO2,32,33,32
India,Maharashtra,Navi Mumbai,"Nerul, Navi Mumbai - MPCB",05-11-2025 07:00:00,19.008751,73.016620,SO2,NA,NA,NA
India,Maharashtra,Navi Mumbai,"Sanpada, Navi Mumbai - MPCB",05-11-2025 07:00:00,19.0575752,73.0151367,NO2,1,6,3
India,Maharashtra,Navi Mumbai,"Sector-2E Kalamboli, Navi Mumbai - MPCB",05-11-2025 07:00:00,19.02579,73.10297,PM2.5,35,127,65
India,Maharashtra,Navi Mumbai,"Sector-2E Kalamboli, Navi Mumbai - MPCB",05-11-2025 07:00:00,19.02579,73.10297,OZONE,1,37,1
India,Maharashtra,Navi Mumbai,"Tondare-Taloja, Navi Mumbai - MPCB",05-11-2025 07:00:00,19.0630,73.1209,PM2.5,49,84,64
India,Maharashtra,Navi Mumbai,"Tondare-Taloja, Navi Mumbai - MPCB",05-11-2025 07:00:00,19.0630,73.1209,NO2,6,16,11
India,Maharashtra,Parbhani,"Masoom Colony, Parbhani - MPCB",05-11-2025 07:00:00,19.265594,76.761463,OZONE,10,10,10
India,Maharashtra,Pimpri-Chinchwad,"Gavalinagar, Pimpri Chinchwad - MPCB",05-11-2025 07:00:00,18.63673,73.82487,NO2,6,25,15
India,Maharashtra,Pimpri-Chinchwad,"Gavalinagar, Pimpri Chinchwad - MPCB",05-11-2025 07:00:00,18.63673,73.82487,CO,11,26,18
India,Maharashtra,Pimpri-Chinchwad,"Park Street Wakad, Pimpri Chinchwad - MPCB",05-11-2025 07:00:00,18.59051,73.77946,SO2,2,4,3
India,Maharashtra,Pimpri-Chinchwad,"Savta Mali Nagar, Pimpri-Chinchwad - IITM",05-11-2025 07:00:00,18.614767,73.799516,CO,52,98,79
India,Maharashtra,Virar,"Bolinj, Virar - MPCB",05-11-2025 07:00:00,19.4458210,72.7988231,PM10,27,121,60
India,Maharashtra,Virar,"Bolinj, Virar - MPCB",05-11-2025 07:00:00,19.4458210,72.7988231,SO2,3,9,5
India,Maharashtra,Virar,"Bolinj, Virar - MPCB",05-11-2025 07:00:00,19.4458210,72.7988231,OZONE,1,23,2
India,Meghalaya,Shillong,"Lumpyngngad, Shillong - Meghalaya PCB",05-11-2025 07:00:00,25.5586,91.8985,PM2.5,NA,NA,NA
India,Meghalaya,Shillong,"Lumpyngngad, Shillong - Meghalaya PCB",05-11-2025 07:00:00,25.5586,91.8985,OZONE,1,3,2
India,Nagaland,Kohima,"PWD Junction, Kohima - NPCB",05-11-2025 07:00:00,25.6635413,94.0989878,NO2,2,4,3
India,Nagaland,Kohima,"PWD Junction, Kohima - NPCB",05-11-2025 07:00:00,25.6635413,94.0989878,OZONE,6,19,8
India,Maharashtra,Nagpur,"Mahal, Nagpur - MPCB",05-11-2025 07:00:00,21.14472,79.107595,NH3,2,4,3
India,Maharashtra,Nagpur,"Mahal, Nagpur - MPCB",05-11-2025 07:00:00,21.14472,79.107595,OZONE,1,30,2
India,Maharashtra,Nagpur,"Opp GPO Civil Lines, Nagpur - MPCB",05-11-2025 07:00:00,21.152875,79.0517531,PM2.5,26,108,65
India,Maharashtra,Nagpur,"Opp GPO Civil Lines, Nagpur - MPCB",05-11-2025 07:00:00,21.152875,79.0517531,PM10,30,110,66
India,Maharashtra,Nagpur,"Ram Nagar, Nagpur - MPCB",05-11-2025 07:00:00,21.143383,79.048912,NO2,3,35,11
India,Maharashtra,Nagpur,"Ram Nagar, Nagpur - MPCB",05-11-2025 07:00:00,21.143383,79.048912,OZONE,4,44,8
India,Maharashtra,Nanded,"Sneh Nagar, Nanded - MPCB",05-11-2025 07:00:00,19.173852,77.296291,PM2.5,22,93,58
India,Maharashtra,Nashik,"Gangapur Road, Nashik - MPCB",05-11-2025 07:00:00,20.0073285,73.7762427,PM10,20,43,31
India,Maharashtra,Nashik,"Gangapur Road, Nashik - MPCB",05-11-2025 07:00:00,20.0073285,73.7762427,NH3,4,4,4
India,Maharashtra,Nashik,"Gangapur Road, Nashik - MPCB",05-11-2025 07:00:00,20.0073285,73.7762427,SO2,3,7,5
India,Maharashtra,Nashik,"Hirawadi, Nashik - MPCB",05-11-2025 07:00:00,20.021503,73.813844,PM10,19,61,47
India,Maharashtra,Nashik,"Hirawadi, Nashik - MPCB",05-11-2025 07:00:00,20.021503,73.813844,NO2,1,10,5
India,Maharashtra,Nashik,"MIDC Ambad, Nashik - MPCB",05-11-2025 07:00:00,19.950220,73.731480,PM2.5,17,78,49
India,Maharashtra,Nashik,"Pandav Nagari, Nashik - MPCB",05-11-2025 07:00:00,19.9591346,73.7788008,OZONE,13,32,19
India,Maharashtra,Solapur,"Dnyaneshwar Nagar, Solapur - MPCB",05-11-2025 07:00:00,17.6336264,75.9132495,NO2,8,36,15
India,Maharashtra,Solapur,"Ratandeep Housing Society, Solapur - MPCB",05-11-2025 07:00:00,17.65439,75.90649,NH3,2,16,6
India,Maharashtra,Thane,"Kasarvadavali, Thane - MPCB",05-11-2025 07:00:00,19.26777,72.97182,NH3,2,7,4
India,Maharashtra,Thane,"Kasarvadavali, Thane - MPCB",05-11-2025 07:00:00,19.26777,72.97182,CO,20,46,29
India,Maharashtra,Thane,"Upvan Fort, Thane - MPCB",05-11-2025 07:00:00,19.222279,72.957979,PM2.5,15,58,31
India,Maharashtra,Pune,"Bhumkar Nagar, Pune - IITM",05-11-2025 07:00:00,18.605770,73.749976,NO2,8,22,13
India,Maharashtra,Pune,"Hadapsar, Pune - IITM",05-11-2025 07:00:00,18.501793,73.927532,PM10,48,220,120
India,Maharashtra,Pune,"Hadapsar, Pune - IITM",05-11-2025 07:00:00,18.501793,73.927532,CO,26,62,58
India,Maharashtra,Pune,"Katraj Dairy, Pune - MPCB",05-11-2025 07:00:00,18.454450,73.854155,PM2.5,1,30,9
India,Maharashtra,Pune,"Katraj Dairy, Pune - MPCB",05-11-2025 07:00:00,18.454450,73.854155,SO2,3,21,4
India,Maharashtra,Pune,"Katraj Dairy, Pune - MPCB",05-11-2025 07:00:00,18.454450,73.854155,CO,11,76,18
India,Maharashtra,Mumbai,"Sion, Mumbai - MPCB",05-11-2025 07:00:00,19.047000,72.874600,SO2,9,10,10
India,Maharashtra,Mumbai,"Vile Parle West, Mumbai - MPCB",05-11-2025 07:00:00,19.10861,72.83622,PM2.5,29,85,53
India,Maharashtra,Mumbai,"Vile Parle West, Mumbai - MPCB",05-11-2025 07:00:00,19.10861,72.83622,NH3,2,5,5
India,Maharashtra,Mumbai,"Vile Parle West, Mumbai - MPCB",05-11-2025 07:00:00,19.10861,72.83622,SO2,17,59,53
India,Maharashtra,Mumbai,"Worli, Mumbai - MPCB",05-11-2025 07:00:00,18.9936162,72.8128113,NO2,3,15,6
India,Maharashtra,Mumbai,"Worli, Mumbai - MPCB",05-11-2025 07:00:00,18.9936162,72.8128113,OZONE,20,20,20
India,Maharashtra,Pune,"Mhada Colony, Pune - IITM",05-11-2025 07:00:00,18.573040,73.927715,PM10,NA,NA,NA
India,Maharashtra,Pune,"Mhada Colony, Pune - IITM",05-11-2025 07:00:00,18.573040,73.927715,CO,NA,NA,NA
India,Maharashtra,Pune,"Savitribai Phule Pune University, Pune - MPCB",05-11-2025 07:00:00,18.547056,73.826908,NH3,NA,NA,NA
India,Maharashtra,Sangli,"Vijay Nagar, Sangli - MPCB",05-11-2025 07:00:00, 16.5038,74.3623,SO2,4,8,6
India,Odisha,Rairangpur,"Divisional Forest Office, Rairangpur - OSPCB",05-11-2025 07:00:00,22.265816,86.174829,OZONE,18,63,18
India,Odisha,Rourkela,"Fertilizer Township, Rourkela - OSPCB",05-11-2025 07:00:00,22.18972222,84.86277778,PM10,82,246,107
India,Odisha,Rourkela,"Fertilizer Township, Rourkela - OSPCB",05-11-2025 07:00:00,22.18972222,84.86277778,CO,4,104,11
India,Odisha,Talcher,"Talcher Coalfields,Talcher - OSPCB",05-11-2025 07:00:00,20.9360711,85.1707021,PM2.5,24,316,144
India,Odisha,Talcher,"Talcher Coalfields,Talcher - OSPCB",05-11-2025 07:00:00,20.9360711,85.1707021,NO2,49,141,102
India,Odisha,Tensa,"Barsua Iron Ore Mines, Tensa - OSPCB",05-11-2025 07:00:00,21.869985,85.167016,NH3,6,7,6
India,Odisha,Tensa,"Barsua Iron Ore Mines, Tensa - OSPCB",05-11-2025 07:00:00,21.869985,85.167016,CO,32,52,37
India,Puducherry,Puducherry,"Jawahar Nagar, Puducherry - PPCC",05-11-2025 07:00:00,11.9309,79.8027,CO,27,66,35
India,Odisha,Angul,"Hakimapada, Angul - OSPCB",05-11-2025 07:00:00,20.832874,85.104082,NH3,4,9,7
India,Odisha,Angul,"Hakimapada, Angul - OSPCB",05-11-2025 07:00:00,20.832874,85.104082,SO2,8,27,13
India,Odisha,Balasore,"Kalidaspur, Balasore - OSPCB",05-11-2025 07:00:00,21.51161,86.89088,NH3,1,2,2
India,Odisha,Balasore,"Kalidaspur, Balasore - OSPCB",05-11-2025 07:00:00,21.51161,86.89088,SO2,6,28,9
India,Odisha,Barbil,"Forest Office, Barbil - OSPCB",05-11-2025 07:00:00,22.1166054,85.3945546,CO,26,60,41
India,Odisha,Baripada,"Meher Colony, Baripada - OSPCB",05-11-2025 07:00:00,21.941841,86.728318,NH3,1,2,1
India,Odisha,Bhubaneswar,"Lingraj Mandir, Bhubaneswar - OSPCB",05-11-2025 07:00:00,20.240790,85.836784,PM10,95,189,127
India,Odisha,Bhubaneswar,"Lingraj Mandir, Bhubaneswar - OSPCB",05-11-2025 07:00:00,20.240790,85.836784,NO2,27,124,63
India,Odisha,Bhubaneswar,"Lingraj Mandir, Bhubaneswar - OSPCB",05-11-2025 07:00:00,20.240790,85.836784,NH3,2,5,3
India,Odisha,Bhubaneswar,"Patia, Bhubaneswar - OSPCB",05-11-2025 07:00:00,20.34652,85.81630,OZONE,NA,NA,NA
India,Odisha,Bileipada,"Tata Township, Bileipada - OSPCB",05-11-2025 07:00:00,22.06156703,85.47409613,PM10,108,172,136
India,Odisha,Bileipada,"Tata Township, Bileipada - OSPCB",05-11-2025 07:00:00,22.06156703,85.47409613,SO2,10,18,14
India,Odisha,Brajrajnagar,"GM Office, Brajrajnagar - OSPCB",05-11-2025 07:00:00,21.8004996,83.8396977,SO2,14,16,15
India,Odisha,Brajrajnagar,"GM Office, Brajrajnagar - OSPCB",05-11-2025 07:00:00,21.8004996,83.8396977,OZONE,24,28,26
India,Odisha,Byasanagar,"Ferro Chrome Colony, Byasanagar - OSPCB",05-11-2025 07:00:00,20.94185,86.11510,SO2,2,5,3
India,Rajasthan,Alwar,"Moti Doongri, Alwar - RSPCB",05-11-2025 07:00:00,27.554793,76.611536,NH3,11,17,14
India,Rajasthan,Alwar,"Moti Doongri, Alwar - RSPCB",05-11-2025 07:00:00,27.554793,76.611536,CO,38,102,49
India,Rajasthan,Banswara,"Rati Talai, Banswara - RSPCB",05-11-2025 07:00:00,23.555190,74.440010,PM10,42,136,98
India,Rajasthan,Banswara,"Rati Talai, Banswara - RSPCB",05-11-2025 07:00:00,23.555190,74.440010,NH3,3,6,4
India,Rajasthan,Banswara,"Rati Talai, Banswara - RSPCB",05-11-2025 07:00:00,23.555190,74.440010,OZONE,14,79,27
India,Rajasthan,Barmer,"Railway Colony, Barmer - RSPCB",05-11-2025 07:00:00,25.747299,71.393989,NO2,6,43,18
India,Punjab,Amritsar,"Golden Temple, Amritsar - PPCB",05-11-2025 07:00:00,31.620000,74.876512,OZONE,29,42,34
India,Punjab,Bathinda,"Hardev Nagar, Bathinda - PPCB",05-11-2025 07:00:00,30.233011,74.907758,PM10,22,191,76
India,Punjab,Khanna,"Kalal Majra, Khanna - PPCB",05-11-2025 07:00:00,30.736056 ,76.209694,OZONE,24,30,25
India,Punjab,Ludhiana,"Punjab Agricultural University, Ludhiana - PPCB",05-11-2025 07:00:00,30.9028,75.8086,PM2.5,119,236,167
India,Punjab,Mandi Gobindgarh,"RIMT University, Mandi Gobindgarh - PPCB",05-11-2025 07:00:00,30.649961,76.331442,SO2,5,21,10
India,Punjab,Patiala,"Model Town, Patiala - PPCB",05-11-2025 07:00:00,30.349388,76.366642,NO2,16,20,18
India,Punjab,Patiala,"Model Town, Patiala - PPCB",05-11-2025 07:00:00,30.349388,76.366642,SO2,15,41,28
India,Rajasthan,Ajmer,"Civil Lines,  Ajmer - RSPCB",05-11-2025 07:00:00,26.470859,74.646594,PM10,38,134,95
India,Rajasthan,Ajmer,"Civil Lines,  Ajmer - RSPCB",05-11-2025 07:00:00,26.470859,74.646594,NO2,24,32,28
India,Odisha,Cuttack,"CDA Area, Cuttack - OSPCB",05-11-2025 07:00:00,20.48891     ,85.84768     ,NH3,2,3,3
India,Odisha,Cuttack,"CDA Area, Cuttack - OSPCB",05-11-2025 07:00:00,20.48891     ,85.84768     ,SO2,4,8,5
India,Odisha,Keonjhar,"Jagamohanpur, Keonjhar - OSPCB",05-11-2025 07:00:00,21.643900,85.599355,PM10,104,197,146
India,Odisha,Keonjhar,"Jagamohanpur, Keonjhar - OSPCB",05-11-2025 07:00:00,21.643900,85.599355,NH3,4,19,8
India,Rajasthan,Chittorgarh,"Shastri Nagar, Chittorgarh - RSPCB",05-11-2025 07:00:00,24.892047,74.623527,NO2,9,49,20
India,Rajasthan,Churu,"Subash Chowk, Churu - RSPCB",05-11-2025 07:00:00,28.296139,74.961696,NO2,13,33,20
India,Rajasthan,Churu,"Subash Chowk, Churu - RSPCB",05-11-2025 07:00:00,28.296139,74.961696,CO,2,26,19
India,Rajasthan,Bhiwadi,"RIICO Ind. Area III, Bhiwadi - RSPCB",05-11-2025 07:00:00,28.194909,76.862296,PM10,45,188,107
India,Rajasthan,Bhiwadi,"Vasundhara Nagar_UIT, Bhiwadi - RSPCB",05-11-2025 07:00:00,28.207266,76.829265,PM10,47,428,138
India,Rajasthan,Pratapgarh,"Pragati Nagar, Pratapgarh - RSPCB",05-11-2025 07:00:00,24.041198,74.780702,PM2.5,37,92,64
India,Rajasthan,Pratapgarh,"Pragati Nagar, Pratapgarh - RSPCB",05-11-2025 07:00:00,24.041198,74.780702,PM10,47,127,95
India,Rajasthan,Pratapgarh,"Pragati Nagar, Pratapgarh - RSPCB",05-11-2025 07:00:00,24.041198,74.780702,NO2,24,42,32
India,Rajasthan,Pratapgarh,"Pragati Nagar, Pratapgarh - RSPCB",05-11-2025 07:00:00,24.041198,74.780702,NH3,5,7,6
India,Rajasthan,Pratapgarh,"Pragati Nagar, Pratapgarh - RSPCB",05-11-2025 07:00:00,24.041198,74.780702,OZONE,38,74,54
India,Rajasthan,Rajsamand,"Dhoinda, Rajsamand - RSPCB",05-11-2025 07:00:00,25.036360,73.883502,PM10,42,119,76
India,Rajasthan,Sawai Madhopur,"Sahu Nagar, Sawai Madhopur - RSPCB",05-11-2025 07:00:00,26.031443,76.359327,NO2,10,18,13
India,Rajasthan,Sikar,"Radhakishan Pura, Sikar - RSPCB",05-11-2025 07:00:00,27.608912,75.153302,PM10,42,135,82
India,Rajasthan,Sikar,"Radhakishan Pura, Sikar - RSPCB",05-11-2025 07:00:00,27.608912,75.153302,NH3,8,19,12
India,Rajasthan,Sikar,"Radhakishan Pura, Sikar - RSPCB",05-11-2025 07:00:00,27.608912,75.153302,SO2,1,5,4
India,Rajasthan,Kota,"Dhanmandi, Kota - RSPCB",05-11-2025 07:00:00,25.164090,75.858137,OZONE,7,80,20
India,Rajasthan,Kota,"Nayapura, Kota - RSPCB",05-11-2025 07:00:00,25.196024,75.855668,SO2,4,9,6
India,Rajasthan,Kota,"Shrinath Puram, Kota - RSPCB",05-11-2025 07:00:00,25.14389,75.821256,PM10,64,127,86
India,Rajasthan,Nagaur,"Karni Colony, Nagaur - RSPCB",05-11-2025 07:00:00,27.213494,73.734444,PM10,52,140,101
India,Rajasthan,Nagaur,"Karni Colony, Nagaur - RSPCB",05-11-2025 07:00:00,27.213494,73.734444,NH3,3,11,6
India,Rajasthan,Nagaur,"Karni Colony, Nagaur - RSPCB",05-11-2025 07:00:00,27.213494,73.734444,SO2,1,7,4
India,Rajasthan,Nagaur,"Karni Colony, Nagaur - RSPCB",05-11-2025 07:00:00,27.213494,73.734444,CO,17,31,23
India,Rajasthan,Pali,"Indira Colony Vistar, Pali - RSPCB",05-11-2025 07:00:00,25.771061, 73.340227,PM10,39,117,88
India,Rajasthan,Jhunjhunu,"Indra Nagar, Jhunjhunu - RSPCB",05-11-2025 07:00:00,28.108988,75.386577,NH3,7,13,11
India,Rajasthan,Jodhpur,"Collectorate, Jodhpur - RSPCB",05-11-2025 07:00:00,26.268249,73.0193853,PM2.5,28,207,68
India,Rajasthan,Jodhpur,"Collectorate, Jodhpur - RSPCB",05-11-2025 07:00:00,26.268249,73.0193853,NO2,2,18,10
India,Rajasthan,Jodhpur,"Digari Kalan, Jodhpur - RSPCB",05-11-2025 07:00:00,26.295810,73.082283,PM10,32,117,81
India,Rajasthan,Jodhpur,"Digari Kalan, Jodhpur - RSPCB",05-11-2025 07:00:00,26.295810,73.082283,CO,9,26,14
India,Rajasthan,Jodhpur,"Jhalamand, Jodhpur - RSPCB",05-11-2025 07:00:00,26.215415,73.070156,NO2,9,44,19
India,Rajasthan,Jodhpur,"Jhalamand, Jodhpur - RSPCB",05-11-2025 07:00:00,26.215415,73.070156,NH3,5,20,9
India,Rajasthan,Dausa,"Khatikan Mohalla, Dausa - RSPCB",05-11-2025 07:00:00,26.895552,76.334753,SO2,4,9,6
India,Rajasthan,Dausa,"Khatikan Mohalla, Dausa - RSPCB",05-11-2025 07:00:00,26.895552,76.334753,CO,1,111,26
India,Rajasthan,Dholpur,"Raja Ganj, Dholpur - RSPCB",05-11-2025 07:00:00,26.699557,77.898881,PM10,58,139,102
India,Rajasthan,Dholpur,"Raja Ganj, Dholpur - RSPCB",05-11-2025 07:00:00,26.699557,77.898881,SO2,2,24,12
India,Rajasthan,Hanumangarh,"Housing Board, Hanumangarh - RSPCB",05-11-2025 07:00:00,29.610750,74.283608,PM2.5,13,78,41
India,Rajasthan,Jaipur,"Adarsh Nagar, Jaipur - RSPCB",05-11-2025 07:00:00,26.902909,75.836858,NO2,14,53,29
India,Rajasthan,Sirohi,"Vedhaynath Colony, Sirohi - RSPCB",05-11-2025 07:00:00,24.885261,72.857549,PM2.5,43,72,54
India,Rajasthan,Sri Ganganagar,"Old City, Sri Ganganagar - RSPCB",05-11-2025 07:00:00,29.931624,73.864511,NO2,25,187,67
India,Rajasthan,Tonk,"Shastri Nagar, Tonk - RSPCB",05-11-2025 07:00:00,26.159933,75.780517,NO2,9,73,27
India,Rajasthan,Udaipur,"Ashok Nagar, Udaipur - RSPCB",05-11-2025 07:00:00,24.5886166,73.6321397,PM10,47,165,111
India,Rajasthan,Udaipur,"Ashok Nagar, Udaipur - RSPCB",05-11-2025 07:00:00,24.5886166,73.6321397,SO2,3,12,8
India,Rajasthan,Jaipur,"Shastri Nagar, Jaipur - RSPCB",05-11-2025 07:00:00,26.9502929,75.730943,PM2.5,43,123,70
India,Rajasthan,Jaipur,"Shastri Nagar, Jaipur - RSPCB",05-11-2025 07:00:00,26.9502929,75.730943,NO2,32,56,44
India,Rajasthan,Jaisalmer,"Sadar Bazar, Jaisalmer - RSPCB",05-11-2025 07:00:00,26.912329,70.909168,NH3,4,11,7
India,Rajasthan,Jalore,"Mudtra Sili, Jalore - RSPCB",05-11-2025 07:00:00,25.344694,72.626208,OZONE,11,71,45
India,Rajasthan,Jhalawar,"Rajlaxmi Nagar, Jhalawar - RSPCB",05-11-2025 07:00:00,24.588397,76.172782,PM10,47,106,74
India,Rajasthan,Jodhpur,"Mandor, Jodhpur - RSPCB",05-11-2025 07:00:00,26.358805,73.047444,CO,8,38,15
India,Rajasthan,Jodhpur,"Samrat Ashok Udhyan, Jodhpur - RSPCB",05-11-2025 07:00:00,26.253384,72.976571,PM2.5,25,97,60
India,Rajasthan,Karauli,"Satyawati Vihar, Karauli - RSPCB",05-11-2025 07:00:00,26.506177,77.025989,PM2.5,14,161,50
India,Rajasthan,Kota,"Dhanmandi, Kota - RSPCB",05-11-2025 07:00:00,25.164090,75.858137,NO2,22,72,39
India,Rajasthan,Jaipur,"Mansarovar Sector-12, Jaipur - RSPCB",05-11-2025 07:00:00,26.843698,75.766894,OZONE,4,101,17
India,Rajasthan,Jaipur,"RIICO Sitapura, Jaipur - RSPCB",05-11-2025 07:00:00,26.786682,75.827928,PM10,23,149,68
India,Rajasthan,Jaipur,"RIICO Sitapura, Jaipur - RSPCB",05-11-2025 07:00:00,26.786682,75.827928,NO2,21,74,45
India,Rajasthan,Jaipur,"Sector-2 Murlipura, Jaipur - RSPCB",05-11-2025 07:00:00,26.960669,75.771817,PM2.5,4,52,33
India,Rajasthan,Kota,"Dhanmandi, Kota - RSPCB",05-11-2025 07:00:00,25.164090,75.858137,SO2,2,7,3
India,Telangana,Hyderabad,"ICRISAT Patancheru, Hyderabad - TSPCB",05-11-2025 07:00:00,17.518400,78.278777,CO,8,32,16
India,Telangana,Hyderabad,"IDA Pashamylaram, Hyderabad - TSPCB",05-11-2025 07:00:00,17.5316895,78.218939,SO2,2,16,8
India,Telangana,Hyderabad,"IDA Pashamylaram, Hyderabad - TSPCB",05-11-2025 07:00:00,17.5316895,78.218939,OZONE,7,10,8
India,Telangana,Hyderabad,"IITH Kandi, Hyderabad - TSPCB",05-11-2025 07:00:00,17.585705,78.126199,PM10,69,70,70
India,Telangana,Hyderabad,"IITH Kandi, Hyderabad - TSPCB",05-11-2025 07:00:00,17.585705,78.126199,NO2,10,18,15
India,Telangana,Hyderabad,"IITH Kandi, Hyderabad - TSPCB",05-11-2025 07:00:00,17.585705,78.126199,NH3,2,3,2
India,Telangana,Hyderabad,"IITH Kandi, Hyderabad - TSPCB",05-11-2025 07:00:00,17.585705,78.126199,SO2,7,9,8
India,Telangana,Hyderabad,"Kokapet, Hyderabad - TSPCB",05-11-2025 07:00:00,17.393559,78.339194,PM10,NA,NA,NA
India,Telangana,Hyderabad,"Kokapet, Hyderabad - TSPCB",05-11-2025 07:00:00,17.393559,78.339194,NO2,11,17,12
India,Telangana,Hyderabad,"Kokapet, Hyderabad - TSPCB",05-11-2025 07:00:00,17.393559,78.339194,CO,20,36,20
India,Telangana,Hyderabad,"Kompally Municipal Office, Hyderabad - TSPCB",05-11-2025 07:00:00,17.544899,78.486949,NO2,14,17,16
India,Telangana,Hyderabad,"Kompally Municipal Office, Hyderabad - TSPCB",05-11-2025 07:00:00,17.544899,78.486949,CO,14,18,14
India,TamilNadu,Perundurai,"SIPCOT Industrial Park, Perundurai - TNPCB",05-11-2025 07:00:00,11.258242,77.552761,NH3,2,3,2
India,TamilNadu,Perundurai,"SIPCOT Industrial Park, Perundurai - TNPCB",05-11-2025 07:00:00,11.258242,77.552761,CO,30,37,35
India,TamilNadu,Perundurai,"SIPCOT Industrial Park, Perundurai - TNPCB",05-11-2025 07:00:00,11.258242,77.552761,OZONE,7,14,14
India,TamilNadu,Pudukottai,"SIPCOT Nathampannai, Pudukottai - TNPCB",05-11-2025 07:00:00,10.423417,78.784889,PM2.5,27,104,47
India,TamilNadu,Pudukottai,"SIPCOT Nathampannai, Pudukottai - TNPCB",05-11-2025 07:00:00,10.423417,78.784889,NH3,2,3,2
India,TamilNadu,Pudukottai,"SIPCOT Nathampannai, Pudukottai - TNPCB",05-11-2025 07:00:00,10.423417,78.784889,SO2,12,14,13
India,TamilNadu,Thanjavur,"Parisutham Nagar, Thanjavur - TNPCB",05-11-2025 07:00:00,10.7654824,79.1389968,NO2,NA,NA,NA
India,TamilNadu,Thanjavur,"Parisutham Nagar, Thanjavur - TNPCB",05-11-2025 07:00:00,10.7654824,79.1389968,NH3,NA,NA,NA
India,TamilNadu,Thanjavur,"Parisutham Nagar, Thanjavur - TNPCB",05-11-2025 07:00:00,10.7654824,79.1389968,OZONE,5,20,15
India,TamilNadu,Thoothukudi,"Meelavittan, Thoothukudi - TNPCB",05-11-2025 07:00:00,8.816428 ,78.099039,NO2,10,80,30
India,TamilNadu,Tiruchirappalli,"St Joseph College, Tiruchirappalli - TNPCB",05-11-2025 07:00:00,10.830158,78.691849,NH3,1,1,1
India,TamilNadu,Tirunelveli,"Municipal Corporation Office, Tirunelveli - TNPCB",05-11-2025 07:00:00,8.728442,77.6962,PM2.5,19,36,26
India,TamilNadu,Tirunelveli,"Municipal Corporation Office, Tirunelveli - TNPCB",05-11-2025 07:00:00,8.728442,77.6962,PM10,16,30,23
India,TamilNadu,Tirupur,"Kumaran College, Tirupur - TNPCB",05-11-2025 07:00:00,11.0973603,77.3228673,PM10,24,93,53
India,TamilNadu,Vellore,"Vasanthapuram, Vellore - TNPCB",05-11-2025 07:00:00,12.909494,79.131861,CO,8,8,8
India,TamilNadu,Vellore,"Vasanthapuram, Vellore - TNPCB",05-11-2025 07:00:00,12.909494,79.131861,OZONE,1,39,4
India,TamilNadu,Virudhunagar,"Collectorate Office, Virudhunagar - TNPCB",05-11-2025 07:00:00,9.559382,77.948828,PM2.5,45,96,62
India,TamilNadu,Virudhunagar,"Collectorate Office, Virudhunagar - TNPCB",05-11-2025 07:00:00,9.559382,77.948828,NO2,20,20,20
India,Sikkim,Gangtok,"Zero Point GICI, Gangtok - SSPCB",05-11-2025 07:00:00,27.338530,88.614099,SO2,1,1,1
India,TamilNadu,Ariyalur,"Keelapalur, Ariyalur - TNPCB",05-11-2025 07:00:00,11.06825,79.07033,PM2.5,28,93,50
India,TamilNadu,Chengalpattu,"Crescent University, Chengalpattu - TNPCB",05-11-2025 07:00:00,12.8777316,80.0834807,PM10,25,69,50
India,TamilNadu,Chengalpattu,"Crescent University, Chengalpattu - TNPCB",05-11-2025 07:00:00,12.8777316,80.0834807,SO2,15,16,16
India,TamilNadu,Chennai,"Arumbakkam, Chennai - TNPCB",05-11-2025 07:00:00,13.0664,80.2112 ,NO2,15,35,23
India,TamilNadu,Chennai,"Arumbakkam, Chennai - TNPCB",05-11-2025 07:00:00,13.0664,80.2112 ,SO2,1,3,2
India,TamilNadu,Chennai,"Gandhi Nagar_Ennore, Chennai - TNPCB",05-11-2025 07:00:00,13.218341,80.32027,NO2,11,13,13
India,TamilNadu,Dindigul,"Mendonsa Colony, Dindigul - TNPCB",05-11-2025 07:00:00,10.358535,77.984321,NH3,2,3,2
India,TamilNadu,Gummidipoondi,"Anthoni Pillai Nagar, Gummidipoondi - TNPCB",05-11-2025 07:00:00,13.4127,80.1081,NO2,4,43,19
India,TamilNadu,Hosur,"SIPCOT Phase-1, Hosur - TNPCB",05-11-2025 07:00:00,12.746998,77.813811,PM10,NA,NA,NA
India,TamilNadu,Hosur,"SIPCOT Phase-1, Hosur - TNPCB",05-11-2025 07:00:00,12.746998,77.813811,NO2,NA,NA,NA
India,TamilNadu,Kanchipuram,"Kilambi, Kanchipuram - TNPCB",05-11-2025 07:00:00,12.864618,79.659968,PM10,28,107,64
India,TamilNadu,Kanchipuram,"Kilambi, Kanchipuram - TNPCB",05-11-2025 07:00:00,12.864618,79.659968,CO,25,32,29
India,TamilNadu,Nagapattinam,"Velippalayam, Nagapattinam - TNPCB",05-11-2025 07:00:00,10.798548,79.838212,OZONE,1,1,1
India,TamilNadu,Namakkal,"Ponnusamy Nagar, Namakkal - TNPCB",05-11-2025 07:00:00,11.273992,78.163545,PM10,13,500,69
India,TamilNadu,Namakkal,"Ponnusamy Nagar, Namakkal - TNPCB",05-11-2025 07:00:00,11.273992,78.163545,CO,10,10,10
India,TamilNadu,Ooty,"Bombay Castel, Ooty - TNPCB",05-11-2025 07:00:00,11.4068288,76.7138973,PM2.5,19,65,40
India,TamilNadu,Palkalaiperur,"Bharathidasan University, Palkalaiperur - TNPCB",05-11-2025 07:00:00,10.681158,78.741746,SO2,9,16,15
India,TamilNadu,Chennai,"Velachery Res. Area, Chennai - CPCB",05-11-2025 07:00:00,13.0052189,80.2398125,PM10,87,109,97
India,TamilNadu,Coimbatore,"PSG College of Arts and Science, Coimbatore - TNPCB",05-11-2025 07:00:00,11.0328,77.0349,PM10,12,49,24
India,TamilNadu,Coimbatore,"SIDCO Kurichi, Coimbatore - TNPCB",05-11-2025 07:00:00,10.942451,76.978996,PM10,43,104,66
India,TamilNadu,Coimbatore,"SIDCO Kurichi, Coimbatore - TNPCB",05-11-2025 07:00:00,10.942451,76.978996,OZONE,1,49,2
India,Telangana,Hyderabad,"Bollaram Industrial Area, Hyderabad - TSPCB",05-11-2025 07:00:00,17.540891,78.358528,NH3,3,5,4
India,Telangana,Hyderabad,"Central University, Hyderabad - TSPCB",05-11-2025 07:00:00,17.460103,78.334361,PM10,30,82,45
India,Telangana,Hyderabad,"ICRISAT Patancheru, Hyderabad - TSPCB",05-11-2025 07:00:00,17.518400,78.278777,NO2,3,13,7
India,Telangana,Hyderabad,"ICRISAT Patancheru, Hyderabad - TSPCB",05-11-2025 07:00:00,17.518400,78.278777,SO2,4,10,7
India,TamilNadu,Chennai,"Kodungaiyur, Chennai - TNPCB",05-11-2025 07:00:00,13.1278,80.2642,PM2.5,22,113,64
India,TamilNadu,Chennai,"Manali Village, Chennai - TNPCB",05-11-2025 07:00:00,13.1662,80.2584,SO2,4,7,5
India,TamilNadu,Chennai,"Manali, Chennai - CPCB",05-11-2025 07:00:00,13.164544,80.26285,PM2.5,19,90,46
India,Uttar_Pradesh,Bareilly,"Civil Lines, Bareilly - UPPCB",05-11-2025 07:00:00,28.359581,79.414455,PM2.5,30,116,60
India,Uttar_Pradesh,Bulandshahr,"Yamunapuram, Bulandshahr - UPPCB",05-11-2025 07:00:00,28.406963,77.849831,NO2,23,115,60
India,Uttar_Pradesh,Bulandshahr,"Yamunapuram, Bulandshahr - UPPCB",05-11-2025 07:00:00,28.406963,77.849831,NH3,9,16,13
India,Uttar_Pradesh,Bulandshahr,"Yamunapuram, Bulandshahr - UPPCB",05-11-2025 07:00:00,28.406963,77.849831,SO2,7,20,13
India,Uttar_Pradesh,Bulandshahr,"Yamunapuram, Bulandshahr - UPPCB",05-11-2025 07:00:00,28.406963,77.849831,CO,18,108,64
India,Uttar_Pradesh,Firozabad,"Nagla Bhau, Firozabad - UPPCB",05-11-2025 07:00:00,27.168897,78.376960,PM10,36,136,90
India,Uttar_Pradesh,Firozabad,"Nagla Bhau, Firozabad - UPPCB",05-11-2025 07:00:00,27.168897,78.376960,NO2,17,17,17
India,Uttar_Pradesh,Firozabad,"Nagla Bhau, Firozabad - UPPCB",05-11-2025 07:00:00,27.168897,78.376960,NH3,2,2,2
India,Uttar_Pradesh,Firozabad,"Nagla Bhau, Firozabad - UPPCB",05-11-2025 07:00:00,27.168897,78.376960,SO2,2,22,8
India,Uttar_Pradesh,Firozabad,"Nagla Bhau, Firozabad - UPPCB",05-11-2025 07:00:00,27.168897,78.376960,CO,2,20,5
India,Uttar_Pradesh,Kanpur,"Nehru Nagar, Kanpur - UPPCB",05-11-2025 07:00:00,26.4703136,80.3229863,OZONE,24,65,26
India,Uttar_Pradesh,Khurja,"Kalindi Kunj, Khurja - UPPCB",05-11-2025 07:00:00,28.2348927,77.8683002,PM2.5,75,291,193
India,Uttar_Pradesh,Lucknow,"B R Ambedkar University, Lucknow - UPPCB",05-11-2025 07:00:00,26.766433,80.927299,CO,54,64,61
India,Uttar_Pradesh,Lucknow,"Gomti Nagar, Lucknow - UPPCB",05-11-2025 07:00:00,26.868120,81.005119,PM2.5,67,345,213
India,Uttar_Pradesh,Lucknow,"Kendriya Vidyalaya, Lucknow - CPCB",05-11-2025 07:00:00,26.906111,80.948222,CO,20,92,56
India,Uttar_Pradesh,Lucknow,"Kukrail Picnic Spot-1, Lucknow - UPPCB",05-11-2025 07:00:00,26.90723,80.98579,PM10,88,286,177
India,Uttar_Pradesh,Lucknow,"Kukrail Picnic Spot-1, Lucknow - UPPCB",05-11-2025 07:00:00,26.90723,80.98579,OZONE,10,37,11
India,Uttar_Pradesh,Lucknow,"Lalbagh, Lucknow - CPCB",05-11-2025 07:00:00,26.8458805,80.9365541,SO2,3,25,10
India,Uttar_Pradesh,Lucknow,"Talkatora District Industries Center, Lucknow - CPCB",05-11-2025 07:00:00,26.83399722,80.8917361,CO,2,70,23
India,Uttar_Pradesh,Lucknow,"Talkatora District Industries Center, Lucknow - CPCB",05-11-2025 07:00:00,26.83399722,80.8917361,OZONE,9,54,12
India,Uttar_Pradesh,Meerut,"Ganga Nagar, Meerut - UPPCB",05-11-2025 07:00:00,28.999264,77.7590354,PM10,98,439,193
India,Uttar_Pradesh,Meerut,"Jai Bhim Nagar, Meerut - UPPCB",05-11-2025 07:00:00,28.9535882,77.7622941,NO2,24,113,53
India,Telangana,Hyderabad,"Somajiguda, Hyderabad - TSPCB",05-11-2025 07:00:00,17.417094,78.457437,CO,12,37,14
India,Telangana,Hyderabad,"Zoo Park, Hyderabad - TSPCB",05-11-2025 07:00:00,17.349694,78.451437,PM2.5,14,112,29
India,Telangana,Hyderabad,"Zoo Park, Hyderabad - TSPCB",05-11-2025 07:00:00,17.349694,78.451437,NH3,3,4,3
India,Uttar_Pradesh,Agra,"Manoharpur, Agra - UPPCB",05-11-2025 07:00:00,27.23711,78.01936,NH3,2,2,2
India,Uttar_Pradesh,Agra,"Manoharpur, Agra - UPPCB",05-11-2025 07:00:00,27.23711,78.01936,OZONE,8,8,8
India,Uttar_Pradesh,Agra,"Rohta, Agra - UPPCB",05-11-2025 07:00:00,27.106972,78.000111,PM2.5,26,116,62
India,Uttar_Pradesh,Agra,"Rohta, Agra - UPPCB",05-11-2025 07:00:00,27.106972,78.000111,PM10,48,256,110
India,Uttar_Pradesh,Firozabad,"Vibhab Nagar, Firozabad - UPPCB",05-11-2025 07:00:00,27.1594,78.3953,CO,2,26,22
India,Uttar_Pradesh,Ghaziabad,"Indirapuram, Ghaziabad - UPPCB",05-11-2025 07:00:00,28.646233,77.358075,PM2.5,79,434,209
India,Uttar_Pradesh,Ghaziabad,"Indirapuram, Ghaziabad - UPPCB",05-11-2025 07:00:00,28.646233,77.358075,NH3,12,15,14
India,Uttar_Pradesh,Ghaziabad,"Indirapuram, Ghaziabad - UPPCB",05-11-2025 07:00:00,28.646233,77.358075,CO,9,110,64
India,Uttar_Pradesh,Ghaziabad,"Indirapuram, Ghaziabad - UPPCB",05-11-2025 07:00:00,28.646233,77.358075,OZONE,13,81,15
India,Uttar_Pradesh,Ghaziabad,"Loni, Ghaziabad - UPPCB",05-11-2025 07:00:00,28.757294,77.278792,OZONE,6,63,6
India,Uttar_Pradesh,Ghaziabad,"Sanjay Nagar, Ghaziabad - UPPCB",05-11-2025 07:00:00,28.685382,77.453839,NH3,6,10,7
India,Telangana,Hyderabad,"Nacharam_TSIIC IALA, Hyderabad - TSPCB",05-11-2025 07:00:00,17.429398,78.569354,PM10,71,100,81
India,Telangana,Hyderabad,"Nacharam_TSIIC IALA, Hyderabad - TSPCB",05-11-2025 07:00:00,17.429398,78.569354,SO2,10,16,12
India,Telangana,Hyderabad,"New Malakpet, Hyderabad - TSPCB",05-11-2025 07:00:00,17.37206,78.50864,NO2,12,16,13
India,Telangana,Hyderabad,"New Malakpet, Hyderabad - TSPCB",05-11-2025 07:00:00,17.37206,78.50864,NH3,2,3,2
India,Telangana,Hyderabad,"New Malakpet, Hyderabad - TSPCB",05-11-2025 07:00:00,17.37206,78.50864,CO,22,44,23
India,Telangana,Hyderabad,"Sanathnagar, Hyderabad - TSPCB",05-11-2025 07:00:00,17.4559458,78.4332152,NO2,25,30,28
India,Telangana,Hyderabad,"Sanathnagar, Hyderabad - TSPCB",05-11-2025 07:00:00,17.4559458,78.4332152,SO2,1,10,5
India,Uttar_Pradesh,Ghaziabad,"Vasundhara, Ghaziabad - UPPCB",05-11-2025 07:00:00,28.6603346,77.3572563,OZONE,2,112,3
India,Uttar_Pradesh,Gorakhpur,"Madan Mohan Malaviya University of Technology, Gorakhpur - UPPCB",05-11-2025 07:00:00,26.730136,83.433859,PM10,14,148,68
India,Uttar_Pradesh,Gorakhpur,"Madan Mohan Malaviya University of Technology, Gorakhpur - UPPCB",05-11-2025 07:00:00,26.730136,83.433859,NO2,11,12,11
India,Uttar_Pradesh,Greater Noida,"Knowledge Park - III, Greater Noida - UPPCB",05-11-2025 07:00:00,28.47272,77.482000,OZONE,14,91,16
India,Uttar_Pradesh,Jhansi,"Shivaji Nagar, Jhansi - UPPCB",05-11-2025 07:00:00,25.4547,78.6039,NO2,6,6,6
India,Uttar_Pradesh,Jhansi,"Shivaji Nagar, Jhansi - UPPCB",05-11-2025 07:00:00,25.4547,78.6039,CO,10,24,15
India,Uttar_Pradesh,Kanpur,"FTI Kidwai Nagar, Kanpur - UPPCB",05-11-2025 07:00:00,26.428282,80.327067,PM10,75,202,139
India,Uttar_Pradesh,Kanpur,"NSI Kalyanpur, Kanpur - UPPCB",05-11-2025 07:00:00,26.509954,80.249612,PM2.5,37,308,151
India,Uttar_Pradesh,Kanpur,"NSI Kalyanpur, Kanpur - UPPCB",05-11-2025 07:00:00,26.509954,80.249612,OZONE,18,21,20
India,Uttar_Pradesh,Agra,"Sector-3B Avas Vikas Colony, Agra - UPPCB",05-11-2025 07:00:00,27.19412,77.96237,CO,10,106,85
India,Uttar_Pradesh,Agra,"Shastripuram, Agra - UPPCB",05-11-2025 07:00:00,27.19862,77.92066,NO2,38,39,38
India,Uttar_Pradesh,Agra,"Shastripuram, Agra - UPPCB",05-11-2025 07:00:00,27.19862,77.92066,SO2,31,41,37
India,West_Bengal,Durgapur,"Womens College_City Center, Durgapur - WBPCB (Formerly known as Sidhu Kanhu Indoor Stadium)",05-11-2025 07:00:00,23.549395,87.300496,OZONE,4,70,6
India,West_Bengal,Haldia,"Priyambada Housing Estate, Haldia - WBPCB",05-11-2025 07:00:00,22.06047,88.109737,PM2.5,207,306,268
India,West_Bengal,Haldia,"Priyambada Housing Estate, Haldia - WBPCB",05-11-2025 07:00:00,22.06047,88.109737,PM10,114,171,144
India,West_Bengal,Haldia,"Priyambada Housing Estate, Haldia - WBPCB",05-11-2025 07:00:00,22.06047,88.109737,NH3,5,7,6
India,West_Bengal,Haldia,"Priyambada Housing Estate, Haldia - WBPCB",05-11-2025 07:00:00,22.06047,88.109737,CO,45,59,50
India,West_Bengal,Howrah,"Botanical Garden, Howrah - WBPCB",05-11-2025 07:00:00,22.554954,88.292568,NH3,1,3,2
India,West_Bengal,Howrah,"Botanical Garden, Howrah - WBPCB",05-11-2025 07:00:00,22.554954,88.292568,OZONE,23,76,26
India,West_Bengal,Howrah,"Dasnagar, Howrah - WBPCB",05-11-2025 07:00:00,22.6025571,88.3105664,NO2,12,39,22
India,West_Bengal,Howrah,"Dasnagar, Howrah - WBPCB",05-11-2025 07:00:00,22.6025571,88.3105664,SO2,13,27,16
India,Uttar_Pradesh,Moradabad,"Jigar Colony, Moradabad - UPPCB",05-11-2025 07:00:00,28.856664,78.772638,CO,40,42,41
India,Uttar_Pradesh,Moradabad,"Kashiram Nagar, Moradabad - UPPCB",05-11-2025 07:00:00,28.849399,78.742362,PM10,127,419,184
India,Uttar_Pradesh,Moradabad,"Kashiram Nagar, Moradabad - UPPCB",05-11-2025 07:00:00,28.849399,78.742362,NH3,4,4,4
India,Uttar_Pradesh,Moradabad,"Transport Nagar, Moradabad - UPPCB",05-11-2025 07:00:00,28.802625,78.753728,NH3,5,6,5
India,Uttar_Pradesh,Moradabad,"Transport Nagar, Moradabad - UPPCB",05-11-2025 07:00:00,28.802625,78.753728,SO2,33,35,34
India,Uttar_Pradesh,Muzaffarnagar,"New Mandi, Muzaffarnagar - UPPCB",05-11-2025 07:00:00,29.4723508,77.7194031,PM2.5,66,331,186
India,Uttar_Pradesh,Muzaffarnagar,"New Mandi, Muzaffarnagar - UPPCB",05-11-2025 07:00:00,29.4723508,77.7194031,PM10,64,196,120
India,Uttar_Pradesh,Noida,"Sector - 125, Noida - UPPCB",05-11-2025 07:00:00,28.5447608,77.3231257,NO2,56,131,88
India,Uttar_Pradesh,Noida,"Sector - 125, Noida - UPPCB",05-11-2025 07:00:00,28.5447608,77.3231257,CO,14,72,53
India,Uttarakhand,Rishikesh,"Shivaji Nagar, Rishikesh - UKPCB",05-11-2025 07:00:00,30.075911,78.2859547,NH3,NA,NA,NA
India,Uttarakhand,Rishikesh,"Shivaji Nagar, Rishikesh - UKPCB",05-11-2025 07:00:00,30.075911,78.2859547,SO2,5,5,5
India,West_Bengal,Asansol,"Asansol Court Area, Asansol - WBPCB",05-11-2025 07:00:00,23.685297,86.945968,PM2.5,232,312,284
India,West_Bengal,Asansol,"Evelyn Lodge, Asansol - WBPCB",05-11-2025 07:00:00,23.6979360,86.9443950,NO2,7,20,13
India,West_Bengal,Asansol,"Evelyn Lodge, Asansol - WBPCB",05-11-2025 07:00:00,23.6979360,86.9443950,SO2,4,5,5
India,West_Bengal,Asansol,"Evelyn Lodge, Asansol - WBPCB",05-11-2025 07:00:00,23.6979360,86.9443950,CO,28,58,48
India,West_Bengal,Asansol,"Evelyn Lodge, Asansol - WBPCB",05-11-2025 07:00:00,23.6979360,86.9443950,OZONE,11,51,17
India,West_Bengal,Asansol,"Mahabir Colliery, Asansol - WBPCB",05-11-2025 07:00:00,23.6181830,87.1057180,PM2.5,NA,NA,NA
India,West_Bengal,Asansol,"Mahabir Colliery, Asansol - WBPCB",05-11-2025 07:00:00,23.6181830,87.1057180,OZONE,14,63,19
India,West_Bengal,Asansol,"Trivenidevi Bhalotia College, Asansol - WBPCB",05-11-2025 07:00:00,23.616515,87.119133,NH3,3,4,4
India,West_Bengal,Asansol,"Trivenidevi Bhalotia College, Asansol - WBPCB",05-11-2025 07:00:00,23.616515,87.119133,SO2,1,10,4
India,West_Bengal,Barrackpore,"SVSPA Campus, Barrackpore - WBPCB",05-11-2025 07:00:00,22.7605581,88.3617589,OZONE,6,68,9
India,West_Bengal,Durgapur,"Mahishkapur Road_B-Zone, Durgapur - WBPCB",05-11-2025 07:00:00,23.567923,87.306843,PM2.5,89,153,125
India,West_Bengal,Durgapur,"Mahishkapur Road_B-Zone, Durgapur - WBPCB",05-11-2025 07:00:00,23.567923,87.306843,CO,26,90,38
India,West_Bengal,Durgapur,"PCBL Residential Complex, Durgapur - WBPCB",05-11-2025 07:00:00,23.5087640,87.3544400,NO2,11,25,15
India,West_Bengal,Durgapur,"PCBL Residential Complex, Durgapur - WBPCB",05-11-2025 07:00:00,23.5087640,87.3544400,NH3,1,59,7
India,Uttar_Pradesh,Varanasi,"IESD Banaras Hindu University, Varanasi - UPPCB",05-11-2025 07:00:00,25.262326,82.995408,OZONE,10,39,16
India,Uttar_Pradesh,Vrindavan,"Omex Eternity, Vrindavan - UPPCB",05-11-2025 07:00:00,27.5714090,77.6557570,SO2,9,24,13
India,Uttar_Pradesh,Vrindavan,"Omex Eternity, Vrindavan - UPPCB",05-11-2025 07:00:00,27.5714090,77.6557570,OZONE,15,16,15
India,Uttarakhand,Dehradun,"Doon University, Dehradun - UKPCB",05-11-2025 07:00:00,30.269444,78.044167,SO2,2,2,2
India,Uttarakhand,Rishikesh,"Shivaji Nagar, Rishikesh - UKPCB",05-11-2025 07:00:00,30.075911,78.2859547,NO2,NA,NA,NA
India,Uttar_Pradesh,Noida,"Sector - 125, Noida - UPPCB",05-11-2025 07:00:00,28.5447608,77.3231257,OZONE,11,66,12
India,Uttar_Pradesh,Noida,"Sector-1, Noida - UPPCB",05-11-2025 07:00:00,28.5898,77.3101,OZONE,7,10,8
India,Uttar_Pradesh,Noida,"Sector-116, Noida - UPPCB",05-11-2025 07:00:00,28.569230,77.393848,CO,6,108,61
India,Uttar_Pradesh,Prayagraj,"Jhunsi, Prayagraj - UPPCB",05-11-2025 07:00:00,25.425602,81.917152,PM10,64,378,129
India,Uttar_Pradesh,Prayagraj,"Jhunsi, Prayagraj - UPPCB",05-11-2025 07:00:00,25.425602,81.917152,NO2,6,6,6
India,Uttar_Pradesh,Prayagraj,"Jhunsi, Prayagraj - UPPCB",05-11-2025 07:00:00,25.425602,81.917152,SO2,8,20,10
India,Uttar_Pradesh,Prayagraj,"Nagar Nigam, Prayagraj - UPPCB",05-11-2025 07:00:00,25.44919916 ,81.82735986 ,PM2.5,51,307,152
India,Uttar_Pradesh,Prayagraj,"Nagar Nigam, Prayagraj - UPPCB",05-11-2025 07:00:00,25.44919916 ,81.82735986 ,NH3,1,7,3
India,Uttar_Pradesh,Varanasi,"Ardhali Bazar, Varanasi - UPPCB",05-11-2025 07:00:00,25.3505986,82.9083074,PM10,63,118,89
India,Uttar_Pradesh,Varanasi,"Ardhali Bazar, Varanasi - UPPCB",05-11-2025 07:00:00,25.3505986,82.9083074,SO2,17,20,18
India,Uttar_Pradesh,Varanasi,"IESD Banaras Hindu University, Varanasi - UPPCB",05-11-2025 07:00:00,25.262326,82.995408,CO,8,44,18
India,Uttar_Pradesh,Meerut,"Pallavpuram Phase 2, Meerut - UPPCB",05-11-2025 07:00:00,29.063510,77.709723,PM2.5,NA,NA,NA
India,Uttar_Pradesh,Moradabad,"Buddhi Vihar, Moradabad - UPPCB",05-11-2025 07:00:00,28.83526,78.74460,PM2.5,104,305,216
India,Uttar_Pradesh,Moradabad,"Employment Office, Moradabad - UPPCB",05-11-2025 07:00:00,28.88528,78.73880,PM10,139,196,162
India,Uttar_Pradesh,Moradabad,"Employment Office, Moradabad - UPPCB",05-11-2025 07:00:00,28.88528,78.73880,NH3,4,4,4
India,West_Bengal,Howrah,"Ghusuri, Howrah - WBPCB",05-11-2025 07:00:00,22.611968,88.347422,PM10,139,403,187
India,West_Bengal,Kolkata,"Ballygunge, Kolkata - WBPCB",05-11-2025 07:00:00,22.5367507,88.3638022,OZONE,10,43,14
India,West_Bengal,Kolkata,"Bidhannagar, Kolkata - WBPCB",05-11-2025 07:00:00,22.58157048,88.41002457,PM2.5,164,245,208
India,West_Bengal,Kolkata,"Rabindra Bharati University, Kolkata - WBPCB",05-11-2025 07:00:00,22.627847,88.380669,PM10,121,154,139
India,West_Bengal,Kolkata,"Rabindra Bharati University, Kolkata - WBPCB",05-11-2025 07:00:00,22.627847,88.380669,SO2,6,15,9
India,West_Bengal,Kolkata,"Rabindra Sarobar, Kolkata - WBPCB",05-11-2025 07:00:00,22.51106,88.35142,PM10,103,136,123
India,West_Bengal,Kolkata,"Rabindra Sarobar, Kolkata - WBPCB",05-11-2025 07:00:00,22.51106,88.35142,NO2,45,166,93
India,West_Bengal,Kolkata,"Rabindra Sarobar, Kolkata - WBPCB",05-11-2025 07:00:00,22.51106,88.35142,CO,45,76,55
India,West_Bengal,Kolkata,"Rabindra Sarobar, Kolkata - WBPCB",05-11-2025 07:00:00,22.51106,88.35142,OZONE,8,106,19
India,West_Bengal,Kolkata,"Victoria, Kolkata - WBPCB",05-11-2025 07:00:00,22.5448082,88.3403691,PM2.5,257,325,312
India,West_Bengal,Siliguri,"Ward-32 Bapupara, Siliguri - WBPCB",05-11-2025 07:00:00,26.6879226,88.4152495,PM10,42,102,61
India,Bihar,Motihari,"Gandak Colony, Motihari - BSPCB",05-11-2025 07:00:00,26.63086,84.90051,OZONE,2,6,2
India,Bihar,Munger,"Town Hall, Munger - BSPCB",05-11-2025 07:00:00,25.376776,86.471523,SO2,15,20,18
India,Bihar,Munger,"Town Hall, Munger - BSPCB",05-11-2025 07:00:00,25.376776,86.471523,CO,4,99,34
India,Bihar,Munger,"Town Hall, Munger - BSPCB",05-11-2025 07:00:00,25.376776,86.471523,OZONE,11,19,13
India,Bihar,Muzaffarpur,"Buddha Colony, Muzaffarpur - BSPCB",05-11-2025 07:00:00,26.11442,85.39813,NH3,7,10,8
India,Bihar,Muzaffarpur,"Buddha Colony, Muzaffarpur - BSPCB",05-11-2025 07:00:00,26.11442,85.39813,SO2,3,5,4
India,Bihar,Muzaffarpur,"MIT-Daudpur Kothi, Muzaffarpur - BSPCB",05-11-2025 07:00:00,26.1403345,85.3650192,PM2.5,47,82,73
India,Bihar,Muzaffarpur,"MIT-Daudpur Kothi, Muzaffarpur - BSPCB",05-11-2025 07:00:00,26.1403345,85.3650192,PM10,42,84,73
India,Bihar,Muzaffarpur,"MIT-Daudpur Kothi, Muzaffarpur - BSPCB",05-11-2025 07:00:00,26.1403345,85.3650192,CO,46,74,58
India,Bihar,Muzaffarpur,"Muzaffarpur Collectorate, Muzaffarpur - BSPCB",05-11-2025 07:00:00,26.1209,85.3647,PM2.5,51,107,83
India,Bihar,Muzaffarpur,"Muzaffarpur Collectorate, Muzaffarpur - BSPCB",05-11-2025 07:00:00,26.1209,85.3647,NO2,9,18,14
India,Andhra_Pradesh,Visakhapatnam,"GVM Corporation, Visakhapatnam - APPCB",05-11-2025 07:00:00,17.72,83.3,OZONE,6,63,12
India,Arunachal_Pradesh,Naharlagun,"Naharlagun, Naharlagun - APSPCB",05-11-2025 07:00:00,27.103358,93.679645,PM2.5,2,182,63
India,Arunachal_Pradesh,Naharlagun,"Naharlagun, Naharlagun - APSPCB",05-11-2025 07:00:00,27.103358,93.679645,PM10,24,137,76
India,Arunachal_Pradesh,Naharlagun,"Naharlagun, Naharlagun - APSPCB",05-11-2025 07:00:00,27.103358,93.679645,SO2,8,8,8
India,Arunachal_Pradesh,Naharlagun,"Naharlagun, Naharlagun - APSPCB",05-11-2025 07:00:00,27.103358,93.679645,OZONE,5,5,5
India,Assam,Byrnihat,"Central Academy for SFS, Byrnihat - PCBA",05-11-2025 07:00:00,26.071318,91.87488,PM10,NA,NA,NA
India,Assam,Byrnihat,"Central Academy for SFS, Byrnihat - PCBA",05-11-2025 07:00:00,26.071318,91.87488,CO,NA,NA,NA
India,Assam,Guwahati,"IITG, Guwahati - PCBA",05-11-2025 07:00:00,26.2028636,91.70046436,PM2.5,11,56,32
India,Assam,Guwahati,"IITG, Guwahati - PCBA",05-11-2025 07:00:00,26.2028636,91.70046436,NH3,5,5,5
India,Assam,Guwahati,"LGBI Airport, Guwahati - PCBA",05-11-2025 07:00:00,26.10887,91.589544,PM10,64,98,85
India,Bihar,Bettiah,"Kamalnath Nagar, Bettiah - BSPCB",05-11-2025 07:00:00,26.80365,84.51954,NH3,1,2,1
India,Bihar,Bettiah,"Kamalnath Nagar, Bettiah - BSPCB",05-11-2025 07:00:00,26.80365,84.51954,SO2,13,30,20
India,Bihar,Bettiah,"Kamalnath Nagar, Bettiah - BSPCB",05-11-2025 07:00:00,26.80365,84.51954,OZONE,22,24,23
India,Bihar,Bhagalpur,"DM Office_Kachari Chowk, Bhagalpur - BSPCB",05-11-2025 07:00:00,25.251013,86.989001,NH3,3,10,6
India,Bihar,Bhagalpur,"Mayaganj, Bhagalpur - BSPCB",05-11-2025 07:00:00,25.265194,87.012947,PM10,NA,NA,NA
India,Bihar,Bhagalpur,"Mayaganj, Bhagalpur - BSPCB",05-11-2025 07:00:00,25.265194,87.012947,SO2,NA,NA,NA
India,Bihar,Bhagalpur,"Mayaganj, Bhagalpur - BSPCB",05-11-2025 07:00:00,25.265194,87.012947,OZONE,27,51,34
India,Bihar,Buxar,"Charitra Van, Buxar - BSPCB",05-11-2025 07:00:00,25.567520,83.966379,NO2,9,10,9
India,Bihar,Buxar,"Charitra Van, Buxar - BSPCB",05-11-2025 07:00:00,25.567520,83.966379,OZONE,1,75,2
India,Andhra_Pradesh,Amaravati,"Secretariat, Amaravati - APPCB",05-11-2025 07:00:00,16.5150833,80.5181667,CO,19,28,22
India,Andhra_Pradesh,Amaravati,"Secretariat, Amaravati - APPCB",05-11-2025 07:00:00,16.5150833,80.5181667,OZONE,2,39,4
India,Andhra_Pradesh,Anantapur,"Gulzarpet, Anantapur - APPCB",05-11-2025 07:00:00,14.675886,77.593027,NO2,13,23,18
India,Andhra_Pradesh,Chittoor,"Gangineni Cheruvu, Chittoor - APPCB",05-11-2025 07:00:00,13.204880,79.097889,PM2.5,29,125,65
India,Andhra_Pradesh,Chittoor,"Gangineni Cheruvu, Chittoor - APPCB",05-11-2025 07:00:00,13.204880,79.097889,CO,18,46,24
India,Andhra_Pradesh,Kadapa,"Yerramukkapalli, Kadapa - APPCB",05-11-2025 07:00:00,14.465052,78.824187,NH3,4,5,5
India,Andhra_Pradesh,Kadapa,"Yerramukkapalli, Kadapa - APPCB",05-11-2025 07:00:00,14.465052,78.824187,OZONE,8,10,9
India,Bihar,Chhapra,"Darshan Nagar, Chhapra - BSPCB",05-11-2025 07:00:00,25.7808257,84.7446768,NH3,5,6,5
India,Bihar,Chhapra,"Darshan Nagar, Chhapra - BSPCB",05-11-2025 07:00:00,25.7808257,84.7446768,SO2,18,21,20
India,Bihar,Chhapra,"Darshan Nagar, Chhapra - BSPCB",05-11-2025 07:00:00,25.7808257,84.7446768,OZONE,12,28,16
India,Bihar,Gaya,"Collectorate, Gaya - BSPCB",05-11-2025 07:00:00,24.7955,84.9994,SO2,8,16,10
India,Bihar,Gaya,"Kareemganj, Gaya - BSPCB",05-11-2025 07:00:00,24.792403,84.992416,PM10,138,341,218
India,Bihar,Gaya,"Kareemganj, Gaya - BSPCB",05-11-2025 07:00:00,24.792403,84.992416,SO2,16,17,17
India,Bihar,Gaya,"SFTI Kusdihra, Gaya - BSPCB",05-11-2025 07:00:00,24.762518,84.982348,NH3,3,4,3
India,Bihar,Katihar,"Mirchaibari, Katihar - BSPCB",05-11-2025 07:00:00,25.560083,87.553265,PM2.5,18,133,49
India,Bihar,Kishanganj,"SDM Office_Khagra, Kishanganj - BSPCB",05-11-2025 07:00:00,26.0881305,87.93840336,CO,12,14,13
India,Bihar,Manguraha,"Forest Rest House, Manguraha - BSPCB",05-11-2025 07:00:00,27.308328,84.531742,PM10,90,191,126
India,Bihar,Manguraha,"Forest Rest House, Manguraha - BSPCB",05-11-2025 07:00:00,27.308328,84.531742,OZONE,8,50,10
India,Assam,Sivasagar,"Girls College, Sivasagar - PCBA",05-11-2025 07:00:00,26.987634,94.636574,PM2.5,18,61,36
India,Bihar,Aurangabad,"Gurdeo Nagar, Aurangabad - BSPCB",05-11-2025 07:00:00,24.75746,84.366208,PM10,45,123,69
India,Bihar,Aurangabad,"Gurdeo Nagar, Aurangabad - BSPCB",05-11-2025 07:00:00,24.75746,84.366208,OZONE,2,33,9
India,Bihar,Begusarai,"Lohiyanagar, Begusarai - BSPCB",05-11-2025 07:00:00,25.42742023,86.13886079,PM10,35,176,126
India,Andhra_Pradesh,Tirupati,"Vaikuntapuram, Tirupati - APPCB",05-11-2025 07:00:00,13.615387,79.409230,PM2.5,NA,NA,NA
India,Andhra_Pradesh,Vijayawada,"HB Colony, Vijayawada - APPCB",05-11-2025 07:00:00,16.536107,80.594233,NO2,14,22,16
India,Andhra_Pradesh,Vijayawada,"HB Colony, Vijayawada - APPCB",05-11-2025 07:00:00,16.536107,80.594233,CO,20,40,20
India,Andhra_Pradesh,Vijayawada,"Rajiv Nagar, Vijayawada - APPCB",05-11-2025 07:00:00,16.554731,80.649110,PM10,30,409,57
India,Assam,Nagaon,"Christianpatty, Nagaon - PCBA",05-11-2025 07:00:00,26.349082,92.68449,SO2,4,14,11
India,Assam,Nalbari,"Bata Chowk, Nalbari - PCBA",05-11-2025 07:00:00,26.446912,91.439057,PM10,36,40,37
India,Assam,Silchar,"Tarapur, Silchar - PCBA",05-11-2025 07:00:00,24.82827,92.79525,NH3,1,1,1
India,Andhra_Pradesh,Amaravati,"Secretariat, Amaravati - APPCB",05-11-2025 07:00:00,16.5150833,80.5181667,PM2.5,21,58,40
India,Chhattisgarh,Tumidih,"OP Jindal Industrial Park, Tumidih - CECB",05-11-2025 07:00:00,22.06631475,83.33820077,NO2,33,79,52
India,Chhattisgarh,Tumidih,"OP Jindal Industrial Park, Tumidih - CECB",05-11-2025 07:00:00,22.06631475,83.33820077,OZONE,4,89,5
India,Delhi,Delhi,"Alipur, Delhi - DPCC",05-11-2025 07:00:00,28.815329,77.153010,NH3,4,4,4
India,Delhi,Delhi,"Alipur, Delhi - DPCC",05-11-2025 07:00:00,28.815329,77.153010,SO2,19,35,24
India,Delhi,Delhi,"Alipur, Delhi - DPCC",05-11-2025 07:00:00,28.815329,77.153010,CO,46,123,95
India,Delhi,Delhi,"Alipur, Delhi - DPCC",05-11-2025 07:00:00,28.815329,77.153010,OZONE,2,78,3
India,Delhi,Delhi,"Anand Vihar, Delhi - DPCC",05-11-2025 07:00:00,28.647622,77.3158090,PM2.5,123,413,280
India,Delhi,Delhi,"Anand Vihar, Delhi - DPCC",05-11-2025 07:00:00,28.647622,77.3158090,SO2,14,54,38
India,Delhi,Delhi,"Ashok Vihar, Delhi - DPCC",05-11-2025 07:00:00,28.695381,77.181665,SO2,13,28,20
India,Bihar,Samastipur,"DM Office_Kasipur, Samastipur - BSPCB",05-11-2025 07:00:00,25.859655,85.77944,PM10,NA,NA,NA
India,Bihar,Samastipur,"DM Office_Kasipur, Samastipur - BSPCB",05-11-2025 07:00:00,25.859655,85.77944,SO2,NA,NA,NA
India,Bihar,Samastipur,"DM Office_Kasipur, Samastipur - BSPCB",05-11-2025 07:00:00,25.859655,85.77944,OZONE,NA,NA,NA
India,Bihar,Sasaram,"Dada Peer, Sasaram - BSPCB",05-11-2025 07:00:00,24.952822,84.002396,PM10,NA,NA,NA
India,Bihar,Sasaram,"Dada Peer, Sasaram - BSPCB",05-11-2025 07:00:00,24.952822,84.002396,NO2,2,6,2
India,Bihar,Sasaram,"Dada Peer, Sasaram - BSPCB",05-11-2025 07:00:00,24.952822,84.002396,SO2,1,68,12
India,Bihar,Siwan,"Chitragupta Nagar, Siwan - BSPCB",05-11-2025 07:00:00,26.2271665,84.3570427,PM10,NA,NA,NA
India,Chandigarh,Chandigarh,"Sector 22, Chandigarh - CPCC",05-11-2025 07:00:00,30.735567,76.775714,CO,28,190,38
India,Chandigarh,Chandigarh,"Sector 22, Chandigarh - CPCC",05-11-2025 07:00:00,30.735567,76.775714,OZONE,14,68,27
India,Chhattisgarh,Chhal,"Nawapara SECL Colony, Chhal - CECB",05-11-2025 07:00:00,22.118125,83.140608,NO2,7,42,20
India,Chhattisgarh,Chhal,"Nawapara SECL Colony, Chhal - CECB",05-11-2025 07:00:00,22.118125,83.140608,SO2,3,42,15
India,Chhattisgarh,Korba,"Rampur, Korba - CECB",05-11-2025 07:00:00,22.368195,82.746431,OZONE,2,24,2
India,Chhattisgarh,Korba,"Urja Nagar, Korba - CECB",05-11-2025 07:00:00,22.348441,82.549611,PM2.5,64,68,64
India,Chhattisgarh,Kunjemura,"OP Jindal School, Kunjemura - CECB",05-11-2025 07:00:00,22.126650,83.483212,NH3,2,2,2
India,Chhattisgarh,Milupara,"Govt. Higher Secondary School, Milupara - CECB",05-11-2025 07:00:00,22.1910172,83.5197009,NH3,1,2,2
India,Bihar,Patna,"Rajbansi Nagar, Patna - BSPCB",05-11-2025 07:00:00,25.599486,85.113666,NH3,6,7,6
India,Bihar,Patna,"Rajbansi Nagar, Patna - BSPCB",05-11-2025 07:00:00,25.599486,85.113666,SO2,6,9,8
India,Bihar,Patna,"Samanpura, Patna - BSPCB",05-11-2025 07:00:00,25.596727,85.085624,OZONE,22,118,26
India,Bihar,Purnia,"Mariam Nagar, Purnia - BSPCB",05-11-2025 07:00:00,25.366336,87.117468,CO,56,60,59
India,Bihar,Rajgir,"Dangi Tola, Rajgir - BSPCB",05-11-2025 07:00:00,25.03280,85.41948,PM10,68,115,89
India,Bihar,Saharsa,"Police Line, Saharsa - BSPCB",05-11-2025 07:00:00,25.892357,86.590325,NH3,4,4,4
India,Delhi,Delhi,"Aya Nagar, Delhi - IMD",05-11-2025 07:00:00,28.4706914,77.1099364,CO,9,50,16
India,Delhi,Delhi,"Bawana, Delhi - DPCC",05-11-2025 07:00:00,28.776200,77.051074,OZONE,4,198,6
India,Delhi,Delhi,"CRRI Mathura Road, Delhi - IMD",05-11-2025 07:00:00,28.5512005,77.2735737,PM2.5,93,403,258
India,Delhi,Delhi,"Chandni Chowk, Delhi - IITM",05-11-2025 07:00:00,28.656756,77.227234,PM2.5,100,340,231
India,Delhi,Delhi,"Chandni Chowk, Delhi - IITM",05-11-2025 07:00:00,28.656756,77.227234,NO2,7,17,11
India,Delhi,Delhi,"Chandni Chowk, Delhi - IITM",05-11-2025 07:00:00,28.656756,77.227234,NH3,5,10,8
India,Delhi,Delhi,"Chandni Chowk, Delhi - IITM",05-11-2025 07:00:00,28.656756,77.227234,CO,29,84,40
India,Chandigarh,Chandigarh,"Sector-53, Chandigarh - CPCC",05-11-2025 07:00:00,30.719859,76.738637,NO2,28,176,77
India,Chandigarh,Chandigarh,"Sector-53, Chandigarh - CPCC",05-11-2025 07:00:00,30.719859,76.738637,SO2,2,46,15
India,Chhattisgarh,Bhilai,"32Bungalows, Bhilai - CECB",05-11-2025 07:00:00,21.194815,81.314770,PM2.5,14,31,21
India,Chhattisgarh,Bhilai,"Hathkhoj, Bhilai - CECB",05-11-2025 07:00:00,21.224231,81.408350,OZONE,6,44,10
India,Chhattisgarh,Bilaspur,"Mangala, Bilaspur - NTPC",05-11-2025 07:00:00,22.08815,82.13737,PM2.5,18,84,41
India,Chhattisgarh,Raipur,"AIIMS, Raipur - CECB",05-11-2025 07:00:00,21.258815,81.578979,PM2.5,26,74,51
India,Chhattisgarh,Raipur,"Bhatagaon New ISBT, Raipur - CECB",05-11-2025 07:00:00,21.219665,81.630094,PM10,26,129,76
India,Chhattisgarh,Raipur,"Bhatagaon New ISBT, Raipur - CECB",05-11-2025 07:00:00,21.219665,81.630094,NH3,2,2,2
India,Chhattisgarh,Raipur,"Bhatagaon New ISBT, Raipur - CECB",05-11-2025 07:00:00,21.219665,81.630094,SO2,5,20,10
India,Chhattisgarh,Raipur,"Siltara Phase-II, Raipur - CECB",05-11-2025 07:00:00,21.371751,81.664929,PM10,9,162,109
India,Chhattisgarh,Raipur,"Siltara Phase-II, Raipur - CECB",05-11-2025 07:00:00,21.371751,81.664929,SO2,2,4,3
India,Delhi,Delhi,"DTU, Delhi - CPCB",05-11-2025 07:00:00,28.7500499,77.1112615,SO2,29,32,30
India,Delhi,Delhi,"IGI Airport (T3), Delhi - IMD",05-11-2025 07:00:00,28.5627763,77.1180053,PM2.5,54,282,134
India,Delhi,Delhi,"IGI Airport (T3), Delhi - IMD",05-11-2025 07:00:00,28.5627763,77.1180053,NO2,72,178,129
India,Delhi,Delhi,"IHBAS, Dilshad Garden, Delhi - CPCB",05-11-2025 07:00:00,28.6811736,77.3025234,PM2.5,151,306,196
India,Bihar,Patna,"Govt. High School Shikarpur, Patna - BSPCB",05-11-2025 07:00:00,25.592539,85.227158,SO2,9,11,10
India,Bihar,Patna,"IGSC Planetarium Complex, Patna - BSPCB",05-11-2025 07:00:00,25.610369,85.132568,CO,58,80,64
India,Bihar,Patna,"Rajbansi Nagar, Patna - BSPCB",05-11-2025 07:00:00,25.599486,85.113666,PM2.5,150,257,216
India,Delhi,Delhi,"ITO, Delhi - CPCB",05-11-2025 07:00:00,28.628624,77.241060,NO2,34,201,92
India,Delhi,Delhi,"ITO, Delhi - CPCB",05-11-2025 07:00:00,28.628624,77.241060,SO2,14,36,21
India,Delhi,Delhi,"Jahangirpuri, Delhi - DPCC",05-11-2025 07:00:00,28.732820,77.170633,NO2,63,152,105
India,Delhi,Delhi,"Jahangirpuri, Delhi - DPCC",05-11-2025 07:00:00,28.732820,77.170633,NH3,6,7,7
India,Delhi,Delhi,"Jawaharlal Nehru Stadium, Delhi - DPCC",05-11-2025 07:00:00,28.580280,77.233829,PM10,95,414,187
India,Delhi,Delhi,"Jawaharlal Nehru Stadium, Delhi - DPCC",05-11-2025 07:00:00,28.580280,77.233829,NH3,4,9,7
India,Delhi,Delhi,"Jawaharlal Nehru Stadium, Delhi - DPCC",05-11-2025 07:00:00,28.580280,77.233829,CO,36,115,87
India,Delhi,Delhi,"Lodhi Road, Delhi - IMD",05-11-2025 07:00:00,28.5918245,77.2273074,PM2.5,58,330,218
India,Delhi,Delhi,"Lodhi Road, Delhi - IMD",05-11-2025 07:00:00,28.5918245,77.2273074,PM10,110,346,171
India,Delhi,Delhi,"Lodhi Road, Delhi - IMD",05-11-2025 07:00:00,28.5918245,77.2273074,CO,12,86,44
India,Delhi,Delhi,"R K Puram, Delhi - DPCC",05-11-2025 07:00:00,28.563262,77.186937,PM2.5,77,355,223
India,Delhi,Delhi,"R K Puram, Delhi - DPCC",05-11-2025 07:00:00,28.563262,77.186937,PM10,77,318,175
India,Delhi,Delhi,"R K Puram, Delhi - DPCC",05-11-2025 07:00:00,28.563262,77.186937,NH3,5,14,7
India,Delhi,Delhi,"R K Puram, Delhi - DPCC",05-11-2025 07:00:00,28.563262,77.186937,SO2,NA,NA,NA
India,Delhi,Delhi,"Rohini, Delhi - DPCC",05-11-2025 07:00:00,28.732528,77.119920,PM2.5,92,380,232
India,Delhi,Delhi,"Shadipur, Delhi - CPCB",05-11-2025 07:00:00,28.6514781,77.1473105,PM2.5,285,357,310
India,Delhi,Delhi,"Shadipur, Delhi - CPCB",05-11-2025 07:00:00,28.6514781,77.1473105,PM10,148,402,210
India,Delhi,Delhi,"Shadipur, Delhi - CPCB",05-11-2025 07:00:00,28.6514781,77.1473105,SO2,8,15,12
India,Delhi,Delhi,"Sirifort, Delhi - CPCB",05-11-2025 07:00:00,28.5504249,77.2159377,PM2.5,100,368,261
India,Delhi,Delhi,"Sirifort, Delhi - CPCB",05-11-2025 07:00:00,28.5504249,77.2159377,PM10,120,372,201
India,Delhi,Delhi,"Narela, Delhi - DPCC",05-11-2025 07:00:00,28.822836,77.101981,PM2.5,95,485,267
India,Delhi,Delhi,"Narela, Delhi - DPCC",05-11-2025 07:00:00,28.822836,77.101981,NH3,15,18,16
India,Delhi,Delhi,"Nehru Nagar, Delhi - DPCC",05-11-2025 07:00:00,28.567890,77.250515,SO2,6,37,15
India,Delhi,Delhi,"Nehru Nagar, Delhi - DPCC",05-11-2025 07:00:00,28.567890,77.250515,OZONE,5,170,6
India,Delhi,Delhi,"Okhla Phase-2, Delhi - DPCC",05-11-2025 07:00:00,28.530785,77.271255,PM10,118,424,224
India,Delhi,Delhi,"Okhla Phase-2, Delhi - DPCC",05-11-2025 07:00:00,28.530785,77.271255,NO2,50,134,89
India,Delhi,Delhi,"Okhla Phase-2, Delhi - DPCC",05-11-2025 07:00:00,28.530785,77.271255,NH3,7,17,11
India,Delhi,Delhi,"Okhla Phase-2, Delhi - DPCC",05-11-2025 07:00:00,28.530785,77.271255,CO,4,101,63
India,Delhi,Delhi,"Sonia Vihar, Delhi - DPCC",05-11-2025 07:00:00,28.710508,77.249485,NO2,NA,NA,NA
India,Delhi,Delhi,"Sonia Vihar, Delhi - DPCC",05-11-2025 07:00:00,28.710508,77.249485,CO,60,111,100
India,Delhi,Delhi,"Sri Aurobindo Marg, Delhi - DPCC",05-11-2025 07:00:00,28.531346,77.190156,CO,33,86,56
India,Delhi,Delhi,"Sri Aurobindo Marg, Delhi - DPCC",05-11-2025 07:00:00,28.531346,77.190156,OZONE,1,92,1
India,Delhi,Delhi,"Vivek Vihar, Delhi - DPCC",05-11-2025 07:00:00,28.672342,77.315260,NO2,39,110,70
India,Delhi,Delhi,"Vivek Vihar, Delhi - DPCC",05-11-2025 07:00:00,28.672342,77.315260,NH3,12,14,13
India,Delhi,Delhi,"Wazirpur, Delhi - DPCC",05-11-2025 07:00:00,28.699793,77.165453,PM2.5,137,401,262
India,Delhi,Delhi,"Major Dhyan Chand National Stadium, Delhi - DPCC",05-11-2025 07:00:00,28.611281,77.237738,CO,8,107,69
India,Delhi,Delhi,"Mandir Marg, Delhi - DPCC",05-11-2025 07:00:00,28.636429,77.201067,PM2.5,8,352,186
India,Delhi,Delhi,"NSIT Dwarka, Delhi - CPCB",05-11-2025 07:00:00,28.60909,77.0325413,PM2.5,158,390,260
India,Delhi,Delhi,"Najafgarh, Delhi - DPCC",05-11-2025 07:00:00,28.570173,76.933762,PM2.5,73,324,159
India,Delhi,Delhi,"Najafgarh, Delhi - DPCC",05-11-2025 07:00:00,28.570173,76.933762,PM10,85,207,142
India,Delhi,Delhi,"Najafgarh, Delhi - DPCC",05-11-2025 07:00:00,28.570173,76.933762,NO2,105,134,122
India,Gujarat,Ankleshwar,"GIDC, Ankleshwar - GPCB",05-11-2025 07:00:00,21.613267,73.010555,OZONE,47,73,48
India,Gujarat,Gandhinagar,"GIFT City, Gandhinagar - IITM",05-11-2025 07:00:00,23.163798,72.677768,NH3,2,13,6
India,Gujarat,Gandhinagar,"GIFT City, Gandhinagar - IITM",05-11-2025 07:00:00,23.163798,72.677768,SO2,2,13,9
India,Gujarat,Gandhinagar,"IIPHG Lekawada, Gandhinagar - IITM",05-11-2025 07:00:00,23.243639,72.68994,CO,38,88,73
India,Gujarat,Surat,"Science Center, Surat - SMC",05-11-2025 07:00:00,21.170046,72.795405,NO2,13,22,18
India,Gujarat,Ahmedabad,"Chandkheda, Ahmedabad - IITM",05-11-2025 07:00:00,23.107969,72.574648,CO,16,110,95
India,Gujarat,Ahmedabad,"Maninagar, Ahmedabad - GPCB",05-11-2025 07:00:00,23.002657,72.591912,PM2.5,44,201,113
India,Gujarat,Ahmedabad,"Maninagar, Ahmedabad - GPCB",05-11-2025 07:00:00,23.002657,72.591912,SO2,15,27,21
India,Gujarat,Ahmedabad,"Raikhad, Ahmedabad - IITM",05-11-2025 07:00:00,23.020509,72.579261,NO2,15,85,40
India,Gujarat,Ahmedabad,"Rakhial, Ahmedabad - IITM",05-11-2025 07:00:00,23.016834,72.625775,SO2,16,31,23
India,Gujarat,Ahmedabad,"Rakhial, Ahmedabad - IITM",05-11-2025 07:00:00,23.016834,72.625775,CO,44,108,58
India,Gujarat,Ahmedabad,"Rakhial, Ahmedabad - IITM",05-11-2025 07:00:00,23.016834,72.625775,OZONE,1,43,2
India,Gujarat,Ahmedabad,"SAC ISRO Bopal, Ahmedabad - IITM",05-11-2025 07:00:00,23.041137,72.456691,PM10,9,223,78
India,Gujarat,Ahmedabad,"SAC ISRO Satellite, Ahmedabad - IITM",05-11-2025 07:00:00,23.023389,72.515201,PM2.5,22,85,49
India,Gujarat,Ahmedabad,"SAC ISRO Satellite, Ahmedabad - IITM",05-11-2025 07:00:00,23.023389,72.515201,SO2,2,5,3
India,Delhi,Delhi,"Patparganj, Delhi - DPCC",05-11-2025 07:00:00,28.623763,77.287209,NO2,35,142,88
India,Delhi,Delhi,"Punjabi Bagh, Delhi - DPCC",05-11-2025 07:00:00,28.674045,77.131023,PM10,109,409,186
India,Delhi,Delhi,"Punjabi Bagh, Delhi - DPCC",05-11-2025 07:00:00,28.674045,77.131023,NH3,3,4,3
India,Delhi,Delhi,"Pusa, Delhi - DPCC",05-11-2025 07:00:00,28.639652,77.146275,NH3,8,27,12
India,Haryana,Sirsa,"F-Block, Sirsa - HSPCB",05-11-2025 07:00:00,29.536400,75.015800,PM2.5,1,139,75
India,Haryana,Sirsa,"F-Block, Sirsa - HSPCB",05-11-2025 07:00:00,29.536400,75.015800,NH3,11,16,13
India,Haryana,Sirsa,"F-Block, Sirsa - HSPCB",05-11-2025 07:00:00,29.536400,75.015800,OZONE,49,95,58
India,Haryana,Sonipat,"Murthal, Sonipat - HSPCB",05-11-2025 07:00:00,29.027200,77.062100,PM10,NA,NA,NA
India,Haryana,Sonipat,"Murthal, Sonipat - HSPCB",05-11-2025 07:00:00,29.027200,77.062100,NO2,NA,NA,NA
India,Haryana,Yamuna Nagar,"Gobind Pura, Yamuna Nagar - HSPCB",05-11-2025 07:00:00,30.1480566,77.2893471,NH3,5,10,9
India,Haryana,Yamuna Nagar,"Gobind Pura, Yamuna Nagar - HSPCB",05-11-2025 07:00:00,30.1480566,77.2893471,OZONE,38,40,38
India,Himachal Pradesh,Baddi,"HIMUDA Complex Phase-1, Baddi - HPPCB",05-11-2025 07:00:00,30.943887,76.801991,NO2,10,96,37
India,Gujarat,Vatva,"Phase-4 GIDC, Vatva - GPCB",05-11-2025 07:00:00,22.969611,72.643500,NH3,NA,NA,NA
India,Gujarat,Vatva,"Phase-4 GIDC, Vatva - GPCB",05-11-2025 07:00:00,22.969611,72.643500,SO2,NA,NA,NA
India,Haryana,Ambala,"Patti Mehar, Ambala - HSPCB",05-11-2025 07:00:00,30.379589,76.778328,SO2,31,32,31
India,Haryana,Bahadurgarh,"Arya Nagar, Bahadurgarh - HSPCB",05-11-2025 07:00:00,28.6701,76.9254,PM2.5,1,135,22
India,Haryana,Bahadurgarh,"Arya Nagar, Bahadurgarh - HSPCB",05-11-2025 07:00:00,28.6701,76.9254,PM10,1,129,25
India,Haryana,Palwal,"Shyam Nagar, Palwal - HSPCB",05-11-2025 07:00:00,28.1485564,77.3320667,OZONE,23,25,25
India,Haryana,Panchgaon,"Amity University, Panchgaon - IITM",05-11-2025 07:00:00,28.3153,76.9143,CO,42,76,52
India,Haryana,Panipat,"Sector-18, Panipat - HSPCB",05-11-2025 07:00:00,29.432304,76.972765,NO2,31,32,31
India,Haryana,Panipat,"Sector-18, Panipat - HSPCB",05-11-2025 07:00:00,29.432304,76.972765,CO,8,26,25
India,Haryana,Gurugram,"NISE Gwal Pahari, Gurugram - IMD",05-11-2025 07:00:00,28.422681,77.148944,CO,4,30,19
India,Haryana,Gurugram,"Teri Gram, Gurugram - HSPCB",05-11-2025 07:00:00,28.4275,77.1465,PM10,50,60,53
India,Haryana,Gurugram,"Vikas Sadan, Gurugram - HSPCB",05-11-2025 07:00:00,28.4501238,77.0263051,SO2,2,8,5
India,Haryana,Gurugram,"Vikas Sadan, Gurugram - HSPCB",05-11-2025 07:00:00,28.4501238,77.0263051,OZONE,8,55,17
India,Haryana,Bhiwani,"H.B. Colony, Bhiwani - HSPCB",05-11-2025 07:00:00,28.806223,76.141105,PM10,123,182,139
India,Haryana,Charkhi Dadri,"Mini Secretariat, Charkhi Dadri - HSPCB",05-11-2025 07:00:00,28.593883,76.270653,SO2,9,12,11
India,Haryana,Dharuhera,"Municipal Corporation Office, Dharuhera -  HSPCB",05-11-2025 07:00:00,28.206800,76.799700,NH3,NA,NA,NA
India,Haryana,Faridabad,"New Industrial Town, Faridabad - HSPCB",05-11-2025 07:00:00,28.39072,77.30059,SO2,7,9,8
India,Haryana,Faridabad,"Sector 30, Faridabad - HSPCB",05-11-2025 07:00:00,28.4417,77.3217,PM2.5,164,169,167
India,Haryana,Faridabad,"Sector 30, Faridabad - HSPCB",05-11-2025 07:00:00,28.4417,77.3217,PM10,165,168,167
India,Haryana,Faridabad,"Sector 30, Faridabad - HSPCB",05-11-2025 07:00:00,28.4417,77.3217,NO2,36,39,37
India,Haryana,Jind,"Police Lines, Jind - HSPCB",05-11-2025 07:00:00,29.307814,76.337619,CO,2,125,29
India,Haryana,Karnal,"Sector-12, Karnal - HSPCB",05-11-2025 07:00:00,29.695300,77.002700,PM2.5,32,349,211
India,Haryana,Kurukshetra,"Sector-7, Kurukshetra - HSPCB",05-11-2025 07:00:00,29.966942,76.875879,NO2,16,21,19
India,Haryana,Ballabgarh,"Nathu Colony, Ballabgarh - HSPCB",05-11-2025 07:00:00,28.3419248,77.319699,PM2.5,109,337,169
India,Haryana,Ballabgarh,"Nathu Colony, Ballabgarh - HSPCB",05-11-2025 07:00:00,28.3419248,77.319699,NH3,3,3,3
India,Haryana,Mandikhera,"General Hospital, Mandikhera - HSPCB",05-11-2025 07:00:00,27.9002,76.9938,PM2.5,NA,NA,NA
India,Haryana,Mandikhera,"General Hospital, Mandikhera - HSPCB",05-11-2025 07:00:00,27.9002,76.9938,NO2,NA,NA,NA
India,Karnataka,Bengaluru,"Jayanagar 5th Block, Bengaluru - KSPCB",05-11-2025 07:00:00,12.920984,77.584908,PM2.5,25,58,40
India,Karnataka,Bengaluru,"Jayanagar 5th Block, Bengaluru - KSPCB",05-11-2025 07:00:00,12.920984,77.584908,NO2,12,51,27
India,Karnataka,Bengaluru,"Jayanagar 5th Block, Bengaluru - KSPCB",05-11-2025 07:00:00,12.920984,77.584908,NH3,1,2,1
India,Karnataka,Bengaluru,"Jayanagar 5th Block, Bengaluru - KSPCB",05-11-2025 07:00:00,12.920984,77.584908,SO2,1,10,4
India,Karnataka,Bengaluru,"Jayanagar 5th Block, Bengaluru - KSPCB",05-11-2025 07:00:00,12.920984,77.584908,OZONE,9,71,29
India,Karnataka,Bengaluru,"Jigani, Bengaluru - KSPCB",05-11-2025 07:00:00,12.7816279,77.6299145,PM10,45,165,75
India,Karnataka,Bengaluru,"Jigani, Bengaluru - KSPCB",05-11-2025 07:00:00,12.7816279,77.6299145,NO2,25,26,25
India,Karnataka,Bengaluru,"Jigani, Bengaluru - KSPCB",05-11-2025 07:00:00,12.7816279,77.6299145,CO,28,29,28
India,Karnataka,Bengaluru,"Jigani, Bengaluru - KSPCB",05-11-2025 07:00:00,12.7816279,77.6299145,OZONE,21,23,22
India,Himachal Pradesh,Baddi,"HIMUDA Complex Phase-1, Baddi - HPPCB",05-11-2025 07:00:00,30.943887,76.801991,OZONE,29,219,71
India,Jammu_and_Kashmir,Srinagar,"Rajbagh, Srinagar - JKSPCB",05-11-2025 07:00:00,34.066206,74.819820,PM10,NA,NA,NA
India,Jammu_and_Kashmir,Srinagar,"Rajbagh, Srinagar - JKSPCB",05-11-2025 07:00:00,34.066206,74.819820,SO2,NA,NA,NA
India,Jammu_and_Kashmir,Srinagar,"Rajbagh, Srinagar - JKSPCB",05-11-2025 07:00:00,34.066206,74.819820,CO,6,16,12
India,Jharkhand,Dhanbad,"Sardar Patel Nagar, Dhanbad - JSPCB",05-11-2025 07:00:00,23.80569,86.44268,PM2.5,52,179,120
India,Jharkhand,Dhanbad,"Sardar Patel Nagar, Dhanbad - JSPCB",05-11-2025 07:00:00,23.80569,86.44268,CO,1,26,14
India,Karnataka,Mangalore,"Kadri, Mangalore - KSPCB",05-11-2025 07:00:00,12.889250,74.853000,NO2,3,6,5
India,Karnataka,Mysuru,"Hebbal 1st Stage, Mysuru - KSPCB",05-11-2025 07:00:00,12.21041,76.37376,CO,6,42,8
India,Karnataka,Shivamogga,"Vinoba Nagara, Shivamogga - KSPCB",05-11-2025 07:00:00,13.940000,75.555917,PM2.5,18,47,28
India,Karnataka,Shivamogga,"Vinoba Nagara, Shivamogga - KSPCB",05-11-2025 07:00:00,13.940000,75.555917,PM10,28,68,41
India,Karnataka,Shivamogga,"Vinoba Nagara, Shivamogga - KSPCB",05-11-2025 07:00:00,13.940000,75.555917,CO,14,34,20
India,Karnataka,Tumakuru,"Thimmalapura, Tumakuru - KSPCB",05-11-2025 07:00:00,13.377516,77.099072,NO2,NA,NA,NA
India,Karnataka,Bengaluru,"Silk Board, Bengaluru - KSPCB",05-11-2025 07:00:00,12.917348,77.622813,PM2.5,45,64,53
India,Karnataka,Bengaluru,"Silk Board, Bengaluru - KSPCB",05-11-2025 07:00:00,12.917348,77.622813,NO2,13,18,15
