country,state,city,station,last_update,latitude,longitude,pollutant_id,min_value,max_value,avg_value
India,Assam,Byrnihat,"Central Academy for SFS, Byrnihat - PCBA",11-09-2025 07:00:00,26.071318,91.87488,PM2.5,83,222,109
India,Assam,Byrnihat,"Central Academy for SFS, Byrnihat - PCBA",11-09-2025 07:00:00,26.071318,91.87488,NO2,2,10,6
India,Assam,Guwahati,"IITG, Guwahati - PCBA",11-09-2025 07:00:00,26.2028636,91.70046436,PM2.5,16,68,42
India,Assam,Guwahati,"IITG, Guwahati - PCBA",11-09-2025 07:00:00,26.2028636,91.70046436,CO,2,14,7
India,Assam,Guwahati,"IITG, Guwahati - PCBA",11-09-2025 07:00:00,26.2028636,91.70046436,OZONE,4,51,11
India,Assam,Guwahati,"LGBI Airport, Guwahati - PCBA",11-09-2025 07:00:00,26.10887,91.589544,PM10,NA,NA,NA
India,Assam,Guwahati,"LGBI Airport, Guwahati - PCBA",11-09-2025 07:00:00,26.10887,91.589544,NH3,NA,NA,NA
India,Assam,Guwahati,"LGBI Airport, Guwahati - PCBA",11-09-2025 07:00:00,26.10887,91.589544,CO,NA,NA,NA
India,Assam,Guwahati,"Pan Bazaar, Guwahati - PCBA",11-09-2025 07:00:00,26.187500,91.744194,PM2.5,10,63,34
India,Assam,Guwahati,"Pan Bazaar, Guwahati - PCBA",11-09-2025 07:00:00,26.187500,91.744194,OZONE,18,19,18
India,Assam,Guwahati,"Railway Colony, Guwahati - PCBA",11-09-2025 07:00:00,26.181742,91.78063,PM2.5,37,85,57
India,Assam,Guwahati,"Railway Colony, Guwahati - PCBA",11-09-2025 07:00:00,26.181742,91.78063,NH3,1,1,1
India,Assam,Guwahati,"Railway Colony, Guwahati - PCBA",11-09-2025 07:00:00,26.181742,91.78063,SO2,27,28,27
India,Bihar,Bihar Sharif,"D M Colony, Bihar Sharif - BSPCB",11-09-2025 07:00:00,25.204762,85.514960,PM2.5,NA,NA,NA
India,Bihar,Bihar Sharif,"D M Colony, Bihar Sharif - BSPCB",11-09-2025 07:00:00,25.204762,85.514960,PM10,NA,NA,NA
India,Bihar,Buxar,"Charitra Van, Buxar - BSPCB",11-09-2025 07:00:00,25.567520,83.966379,NO2,9,10,9
India,Bihar,Buxar,"Charitra Van, Buxar - BSPCB",11-09-2025 07:00:00,25.567520,83.966379,SO2,2,10,5
India,Bihar,Buxar,"Charitra Van, Buxar - BSPCB",11-09-2025 07:00:00,25.567520,83.966379,CO,16,28,25
India,Bihar,Chhapra,"Darshan Nagar, Chhapra - BSPCB",11-09-2025 07:00:00,25.7808257,84.7446768,PM10,NA,NA,NA
India,Bihar,Gaya,"Collectorate, Gaya - BSPCB",11-09-2025 07:00:00,24.7955,84.9994,OZONE,20,21,20
India,Bihar,Gaya,"Kareemganj, Gaya - BSPCB",11-09-2025 07:00:00,24.792403,84.992416,PM2.5,12,67,34
India,Bihar,Gaya,"Kareemganj, Gaya - BSPCB",11-09-2025 07:00:00,24.792403,84.992416,NO2,3,7,5
India,Bihar,Gaya,"Kareemganj, Gaya - BSPCB",11-09-2025 07:00:00,24.792403,84.992416,CO,28,52,36
India,Andhra_Pradesh,Anantapur,"Gulzarpet, Anantapur - APPCB",11-09-2025 07:00:00,14.675886,77.593027,NH3,5,7,6
India,Andhra_Pradesh,Chittoor,"Gangineni Cheruvu, Chittoor - APPCB",11-09-2025 07:00:00,13.204880,79.097889,PM2.5,58,99,79
India,Andhra_Pradesh,Kadapa,"Yerramukkapalli, Kadapa - APPCB",11-09-2025 07:00:00,14.465052,78.824187,NH3,4,4,4
India,Andhra_Pradesh,Kadapa,"Yerramukkapalli, Kadapa - APPCB",11-09-2025 07:00:00,14.465052,78.824187,SO2,19,22,21
India,Andhra_Pradesh,Kadapa,"Yerramukkapalli, Kadapa - APPCB",11-09-2025 07:00:00,14.465052,78.824187,OZONE,30,45,38
India,Andhra_Pradesh,Rajamahendravaram,"Anand Kala Kshetram, Rajamahendravaram - APPCB",11-09-2025 07:00:00,16.9872867,81.7363176,PM2.5,14,54,32
India,Andhra_Pradesh,Rajamahendravaram,"Anand Kala Kshetram, Rajamahendravaram - APPCB",11-09-2025 07:00:00,16.9872867,81.7363176,PM10,13,90,46
India,Andhra_Pradesh,Tirumala,"Toll Gate, Tirumala - APPCB",11-09-2025 07:00:00,13.67,79.35,SO2,1,4,3
India,Assam,Nagaon,"Christianpatty, Nagaon - PCBA",11-09-2025 07:00:00,26.349082,92.68449,CO,2,52,32
India,Assam,Nalbari,"Bata Chowk, Nalbari - PCBA",11-09-2025 07:00:00,26.446912,91.439057,NO2,3,8,5
India,Assam,Nalbari,"Bata Chowk, Nalbari - PCBA",11-09-2025 07:00:00,26.446912,91.439057,SO2,7,8,8
India,Assam,Silchar,"Tarapur, Silchar - PCBA",11-09-2025 07:00:00,24.82827,92.79525,SO2,1,17,8
India,Assam,Sivasagar,"Girls College, Sivasagar - PCBA",11-09-2025 07:00:00,26.987634,94.636574,PM2.5,45,74,56
India,Assam,Sivasagar,"Girls College, Sivasagar - PCBA",11-09-2025 07:00:00,26.987634,94.636574,NH3,3,4,4
India,Bihar,Araria,"Kharahiya Basti, Araria - BSPCB",11-09-2025 07:00:00,26.146529,87.454184,OZONE,6,11,10
India,Bihar,Arrah,"New DM Office, Arrah - BSPCB",11-09-2025 07:00:00,25.5626095,84.663264,NO2,6,9,7
India,Bihar,Aurangabad,"Gurdeo Nagar, Aurangabad - BSPCB",11-09-2025 07:00:00,24.75746,84.366208,NH3,1,2,1
India,Bihar,Begusarai,"Lohiyanagar, Begusarai - BSPCB",11-09-2025 07:00:00,25.42742023,86.13886079,NH3,3,4,4
India,Bihar,Bettiah,"Kamalnath Nagar, Bettiah - BSPCB",11-09-2025 07:00:00,26.80365,84.51954,PM10,2,56,26
India,Bihar,Bettiah,"Kamalnath Nagar, Bettiah - BSPCB",11-09-2025 07:00:00,26.80365,84.51954,NO2,6,16,9
India,Bihar,Bettiah,"Kamalnath Nagar, Bettiah - BSPCB",11-09-2025 07:00:00,26.80365,84.51954,CO,40,82,45
India,Bihar,Bettiah,"Kamalnath Nagar, Bettiah - BSPCB",11-09-2025 07:00:00,26.80365,84.51954,OZONE,21,28,26
India,Bihar,Bhagalpur,"DM Office_Kachari Chowk, Bhagalpur - BSPCB",11-09-2025 07:00:00,25.251013,86.989001,PM2.5,12,153,56
India,Bihar,Bhagalpur,"DM Office_Kachari Chowk, Bhagalpur - BSPCB",11-09-2025 07:00:00,25.251013,86.989001,PM10,24,115,62
India,Bihar,Bhagalpur,"DM Office_Kachari Chowk, Bhagalpur - BSPCB",11-09-2025 07:00:00,25.251013,86.989001,NO2,13,17,14
India,Bihar,Patna,"DRM Office Danapur, Patna - BSPCB",11-09-2025 07:00:00,25.586562,85.043586,OZONE,NA,NA,NA
India,Bihar,Patna,"Govt. High School Shikarpur, Patna - BSPCB",11-09-2025 07:00:00,25.592539,85.227158,NH3,4,5,5
India,Bihar,Patna,"IGSC Planetarium Complex, Patna - BSPCB",11-09-2025 07:00:00,25.610369,85.132568,SO2,1,27,22
India,Bihar,Patna,"Muradpur, Patna - BSPCB",11-09-2025 07:00:00,25.619651,85.147382,PM2.5,29,96,47
India,Bihar,Patna,"Muradpur, Patna - BSPCB",11-09-2025 07:00:00,25.619651,85.147382,CO,34,72,46
India,Bihar,Patna,"Rajbansi Nagar, Patna - BSPCB",11-09-2025 07:00:00,25.599486,85.113666,PM2.5,14,55,28
India,Bihar,Patna,"Rajbansi Nagar, Patna - BSPCB",11-09-2025 07:00:00,25.599486,85.113666,NH3,1,2,2
India,Bihar,Gaya,"SFTI Kusdihra, Gaya - BSPCB",11-09-2025 07:00:00,24.762518,84.982348,CO,12,34,17
India,Bihar,Katihar,"Mirchaibari, Katihar - BSPCB",11-09-2025 07:00:00,25.560083,87.553265,OZONE,1,22,7
India,Bihar,Manguraha,"Forest Rest House, Manguraha - BSPCB",11-09-2025 07:00:00,27.308328,84.531742,PM10,NA,NA,NA
India,Bihar,Manguraha,"Forest Rest House, Manguraha - BSPCB",11-09-2025 07:00:00,27.308328,84.531742,NO2,NA,NA,NA
India,Bihar,Manguraha,"Forest Rest House, Manguraha - BSPCB",11-09-2025 07:00:00,27.308328,84.531742,OZONE,6,18,12
India,Bihar,Motihari,"Gandak Colony, Motihari - BSPCB",11-09-2025 07:00:00,26.63086,84.90051,PM2.5,42,500,182
India,Andhra_Pradesh,Vijayawada,"HB Colony, Vijayawada - APPCB",11-09-2025 07:00:00,16.536107,80.594233,NH3,4,5,5
India,Andhra_Pradesh,Vijayawada,"Rajiv Gandhi Park, Vijayawada - APPCB",11-09-2025 07:00:00,16.509717,80.612222,NH3,4,5,4
India,Andhra_Pradesh,Vijayawada,"Rajiv Nagar, Vijayawada - APPCB",11-09-2025 07:00:00,16.554731,80.649110,SO2,NA,NA,NA
India,Andhra_Pradesh,Visakhapatnam,"GVM Corporation, Visakhapatnam - APPCB",11-09-2025 07:00:00,17.72,83.3,NO2,11,75,48
India,Andaman and Nicobar,Sri Vijaya Puram,"Police Line, Sri Vijaya Puram - ANPCC",11-09-2025 07:00:00,11.654054,92.734055,NO2,NA,NA,NA
India,Andhra_Pradesh,Amaravati,"Secretariat, Amaravati - APPCB",11-09-2025 07:00:00,16.5150833,80.5181667,NO2,11,29,17
India,Andhra_Pradesh,Anantapur,"Gulzarpet, Anantapur - APPCB",11-09-2025 07:00:00,14.675886,77.593027,PM10,48,82,60
India,Bihar,Muzaffarpur,"Buddha Colony, Muzaffarpur - BSPCB",11-09-2025 07:00:00,26.11442,85.39813,PM10,42,76,58
India,Bihar,Muzaffarpur,"Muzaffarpur Collectorate, Muzaffarpur - BSPCB",11-09-2025 07:00:00,26.1209,85.3647,SO2,4,7,6
India,Bihar,Muzaffarpur,"Muzaffarpur Collectorate, Muzaffarpur - BSPCB",11-09-2025 07:00:00,26.1209,85.3647,CO,21,42,21
India,Chhattisgarh,Raipur,"Krishak Nagar, Raipur - CECB",11-09-2025 07:00:00,21.237755,81.705301,NO2,NA,NA,NA
India,Chhattisgarh,Raipur,"Siltara Phase-II, Raipur - CECB",11-09-2025 07:00:00,21.371751,81.664929,PM10,48,159,107
India,Chhattisgarh,Raipur,"Siltara Phase-II, Raipur - CECB",11-09-2025 07:00:00,21.371751,81.664929,NO2,4,38,13
India,Chhattisgarh,Raipur,"Siltara Phase-II, Raipur - CECB",11-09-2025 07:00:00,21.371751,81.664929,CO,12,34,27
India,Chhattisgarh,Tumidih,"OP Jindal Industrial Park, Tumidih - CECB",11-09-2025 07:00:00,22.06631475,83.33820077,PM2.5,NA,NA,NA
India,Chhattisgarh,Tumidih,"OP Jindal Industrial Park, Tumidih - CECB",11-09-2025 07:00:00,22.06631475,83.33820077,SO2,NA,NA,NA
India,Chhattisgarh,Tumidih,"OP Jindal Industrial Park, Tumidih - CECB",11-09-2025 07:00:00,22.06631475,83.33820077,OZONE,NA,NA,NA
India,Delhi,Delhi,"Alipur, Delhi - DPCC",11-09-2025 07:00:00,28.815329,77.153010,CO,28,35,30
India,Delhi,Delhi,"Anand Vihar, Delhi - DPCC",11-09-2025 07:00:00,28.647622,77.3158090,PM10,64,115,95
India,Bihar,Sasaram,"Dada Peer, Sasaram - BSPCB",11-09-2025 07:00:00,24.952822,84.002396,PM10,NA,NA,NA
India,Bihar,Siwan,"Chitragupta Nagar, Siwan - BSPCB",11-09-2025 07:00:00,26.2271665,84.3570427,CO,45,117,74
India,Chandigarh,Chandigarh,"Sector 22, Chandigarh - CPCC",11-09-2025 07:00:00,30.735567,76.775714,OZONE,9,38,16
India,Chandigarh,Chandigarh,"Sector-25, Chandigarh - CPCC",11-09-2025 07:00:00,30.751462,76.762879,PM2.5,29,54,42
India,Chandigarh,Chandigarh,"Sector-25, Chandigarh - CPCC",11-09-2025 07:00:00,30.751462,76.762879,PM10,44,57,50
India,Chandigarh,Chandigarh,"Sector-25, Chandigarh - CPCC",11-09-2025 07:00:00,30.751462,76.762879,CO,18,22,18
India,Chandigarh,Chandigarh,"Sector-25, Chandigarh - CPCC",11-09-2025 07:00:00,30.751462,76.762879,OZONE,22,48,31
India,Chandigarh,Chandigarh,"Sector-53, Chandigarh - CPCC",11-09-2025 07:00:00,30.719859,76.738637,PM10,NA,NA,NA
India,Delhi,Delhi,"Anand Vihar, Delhi - DPCC",11-09-2025 07:00:00,28.647622,77.3158090,NO2,25,56,38
India,Delhi,Delhi,"Ashok Vihar, Delhi - DPCC",11-09-2025 07:00:00,28.695381,77.181665,PM2.5,15,77,42
India,Delhi,Delhi,"Ashok Vihar, Delhi - DPCC",11-09-2025 07:00:00,28.695381,77.181665,PM10,75,104,91
India,Delhi,Delhi,"Ashok Vihar, Delhi - DPCC",11-09-2025 07:00:00,28.695381,77.181665,NH3,4,6,6
India,Delhi,Delhi,"Bawana, Delhi - DPCC",11-09-2025 07:00:00,28.776200,77.051074,PM10,40,91,75
India,Delhi,Delhi,"Bawana, Delhi - DPCC",11-09-2025 07:00:00,28.776200,77.051074,NO2,1,21,4
India,Delhi,Delhi,"CRRI Mathura Road, Delhi - IMD",11-09-2025 07:00:00,28.5512005,77.2735737,PM2.5,21,75,40
India,Chhattisgarh,Bhilai,"32Bungalows, Bhilai - CECB",11-09-2025 07:00:00,21.194815,81.314770,CO,8,48,16
India,Chhattisgarh,Bhilai,"Civic Center, Bhilai - Bhilai Steel Plant",11-09-2025 07:00:00,21.185571,81.343175,NO2,8,10,9
India,Chhattisgarh,Bhilai,"Civic Center, Bhilai - Bhilai Steel Plant",11-09-2025 07:00:00,21.185571,81.343175,NH3,3,3,3
India,Chhattisgarh,Bhilai,"Hathkhoj, Bhilai - CECB",11-09-2025 07:00:00,21.224231,81.408350,OZONE,7,23,8
India,Chhattisgarh,Bilaspur,"Mangala, Bilaspur - NTPC",11-09-2025 07:00:00,22.08815,82.13737,PM2.5,17,89,35
India,Chhattisgarh,Bilaspur,"Mangala, Bilaspur - NTPC",11-09-2025 07:00:00,22.08815,82.13737,CO,20,33,22
India,Delhi,Delhi,"IHBAS, Dilshad Garden, Delhi - CPCB",11-09-2025 07:00:00,28.6811736,77.3025234,PM10,42,76,61
India,Delhi,Delhi,"ITO, Delhi - CPCB",11-09-2025 07:00:00,28.628624,77.241060,OZONE,8,11,8
India,Delhi,Delhi,"Jawaharlal Nehru Stadium, Delhi - DPCC",11-09-2025 07:00:00,28.580280,77.233829,OZONE,1,51,13
India,Delhi,Delhi,"Lodhi Road, Delhi - IITM",11-09-2025 07:00:00,28.588333,77.221667,SO2,NA,NA,NA
India,Delhi,Delhi,"Major Dhyan Chand National Stadium, Delhi - DPCC",11-09-2025 07:00:00,28.611281,77.237738,NH3,NA,NA,NA
India,Delhi,Delhi,"Dr. Karni Singh Shooting Range, Delhi - DPCC",11-09-2025 07:00:00,28.498571,77.264840,PM10,57,102,82
India,Delhi,Delhi,"Dr. Karni Singh Shooting Range, Delhi - DPCC",11-09-2025 07:00:00,28.498571,77.264840,NO2,23,40,30
India,Delhi,Delhi,"Dwarka-Sector 8, Delhi - DPCC ",11-09-2025 07:00:00,28.5710274,77.0719006,OZONE,12,41,16
India,Delhi,Delhi,"IGI Airport (T3), Delhi - IMD",11-09-2025 07:00:00,28.5627763,77.1180053,OZONE,NA,NA,NA
India,Delhi,Delhi,"IHBAS, Dilshad Garden, Delhi - CPCB",11-09-2025 07:00:00,28.6811736,77.3025234,PM2.5,23,76,30
India,Bihar,Patna,"Samanpura, Patna - BSPCB",11-09-2025 07:00:00,25.596727,85.085624,PM10,86,171,144
India,Bihar,Purnia,"Mariam Nagar, Purnia - BSPCB",11-09-2025 07:00:00,25.366336,87.117468,PM2.5,18,137,51
India,Bihar,Rajgir,"Dangi Tola, Rajgir - BSPCB",11-09-2025 07:00:00,25.03280,85.41948,NH3,6,7,7
India,Bihar,Rajgir,"Dangi Tola, Rajgir - BSPCB",11-09-2025 07:00:00,25.03280,85.41948,CO,82,100,91
India,Bihar,Saharsa,"Police Line, Saharsa - BSPCB",11-09-2025 07:00:00,25.892357,86.590325,NO2,6,8,7
India,Chhattisgarh,Korba,"Rampur, Korba - CECB",11-09-2025 07:00:00,22.368195,82.746431,CO,12,20,17
India,Chhattisgarh,Kunjemura,"OP Jindal School, Kunjemura - CECB",11-09-2025 07:00:00,22.126650,83.483212,PM2.5,5,53,22
India,Chhattisgarh,Kunjemura,"OP Jindal School, Kunjemura - CECB",11-09-2025 07:00:00,22.126650,83.483212,NH3,2,2,2
India,Chhattisgarh,Raipur,"AIIMS, Raipur - CECB",11-09-2025 07:00:00,21.258815,81.578979,NO2,1,18,10
India,Chhattisgarh,Raipur,"AIIMS, Raipur - CECB",11-09-2025 07:00:00,21.258815,81.578979,SO2,11,18,13
India,Delhi,Delhi,"Mandir Marg, Delhi - DPCC",11-09-2025 07:00:00,28.636429,77.201067,SO2,1,32,20
India,Delhi,Delhi,"NSIT Dwarka, Delhi - CPCB",11-09-2025 07:00:00,28.60909,77.0325413,PM10,49,84,67
India,Delhi,Delhi,"NSIT Dwarka, Delhi - CPCB",11-09-2025 07:00:00,28.60909,77.0325413,OZONE,9,16,12
India,Delhi,Delhi,"Vivek Vihar, Delhi - DPCC",11-09-2025 07:00:00,28.672342,77.315260,CO,8,108,11
India,Delhi,Delhi,"Wazirpur, Delhi - DPCC",11-09-2025 07:00:00,28.699793,77.165453,PM2.5,22,78,45
India,Delhi,Delhi,"Wazirpur, Delhi - DPCC",11-09-2025 07:00:00,28.699793,77.165453,PM10,95,173,124
India,Delhi,Delhi,"Wazirpur, Delhi - DPCC",11-09-2025 07:00:00,28.699793,77.165453,NO2,13,46,21
India,Delhi,Delhi,"Wazirpur, Delhi - DPCC",11-09-2025 07:00:00,28.699793,77.165453,SO2,4,13,8
India,Gujarat,Ahmedabad,"Chandkheda, Ahmedabad - IITM",11-09-2025 07:00:00,23.107969,72.574648,NH3,NA,NA,NA
India,Gujarat,Ahmedabad,"Gyaspur, Ahmedabad - IITM",11-09-2025 07:00:00,22.977134,72.553024,CO,48,62,52
India,Gujarat,Ahmedabad,"Maninagar, Ahmedabad - GPCB",11-09-2025 07:00:00,23.002657,72.591912,PM10,NA,NA,NA
India,Gujarat,Ahmedabad,"Maninagar, Ahmedabad - GPCB",11-09-2025 07:00:00,23.002657,72.591912,SO2,21,31,27
India,Delhi,Delhi,"Patparganj, Delhi - DPCC",11-09-2025 07:00:00,28.623763,77.287209,NO2,16,39,25
India,Delhi,Delhi,"Patparganj, Delhi - DPCC",11-09-2025 07:00:00,28.623763,77.287209,CO,32,48,37
India,Delhi,Delhi,"Punjabi Bagh, Delhi - DPCC",11-09-2025 07:00:00,28.674045,77.131023,NH3,2,3,2
India,Delhi,Delhi,"Pusa, Delhi - DPCC",11-09-2025 07:00:00,28.639652,77.146275,PM10,58,140,109
India,Delhi,Delhi,"Pusa, Delhi - DPCC",11-09-2025 07:00:00,28.639652,77.146275,SO2,7,8,8
India,Delhi,Delhi,"Pusa, Delhi - DPCC",11-09-2025 07:00:00,28.639652,77.146275,CO,30,88,44
India,Delhi,Delhi,"Pusa, Delhi - IMD",11-09-2025 07:00:00,28.636110,77.173332,CO,86,94,90
India,Delhi,Delhi,"R K Puram, Delhi - DPCC",11-09-2025 07:00:00,28.563262,77.186937,PM2.5,34,66,50
India,Delhi,Delhi,"Rohini, Delhi - DPCC",11-09-2025 07:00:00,28.732528,77.119920,PM2.5,27,60,38
India,Gujarat,Ahmedabad,"SVPI Airport Hansol, Ahmedabad - IITM",11-09-2025 07:00:00,23.076793,72.627874,NH3,1,2,1
India,Gujarat,Ankleshwar,"GIDC, Ankleshwar - GPCB",11-09-2025 07:00:00,21.613267,73.010555,NH3,5,7,5
India,Gujarat,Gandhinagar,"GIFT City, Gandhinagar - IITM",11-09-2025 07:00:00,23.163798,72.677768,OZONE,1,24,1
India,Gujarat,Gandhinagar,"IIPHG Lekawada, Gandhinagar - IITM",11-09-2025 07:00:00,23.243639,72.68994,CO,12,62,35
India,Gujarat,Gandhinagar,"Sector-10, Gandhinagar - GPCB",11-09-2025 07:00:00,23.221714,72.654328,PM2.5,29,77,51
India,Gujarat,Gandhinagar,"Sector-10, Gandhinagar - GPCB",11-09-2025 07:00:00,23.221714,72.654328,NO2,16,23,22
India,Gujarat,Gandhinagar,"Sector-10, Gandhinagar - GPCB",11-09-2025 07:00:00,23.221714,72.654328,SO2,4,9,8
India,Karnataka,Bengaluru,"City Railway Station, Bengaluru - KSPCB",11-09-2025 07:00:00,12.9756843,77.5660749,NO2,44,53,49
India,Karnataka,Bengaluru,"City Railway Station, Bengaluru - KSPCB",11-09-2025 07:00:00,12.9756843,77.5660749,SO2,6,15,9
India,Karnataka,Bengaluru,"Hebbal, Bengaluru - KSPCB",11-09-2025 07:00:00,13.029152,77.585901,OZONE,6,17,8
India,Karnataka,Bengaluru,"Hombegowda Nagar, Bengaluru - KSPCB",11-09-2025 07:00:00,12.938539,77.590100,NH3,2,2,2
India,Karnataka,Bengaluru,"Hombegowda Nagar, Bengaluru - KSPCB",11-09-2025 07:00:00,12.938539,77.590100,OZONE,6,52,12
India,Karnataka,Bengaluru,"Jayanagar 5th Block, Bengaluru - KSPCB",11-09-2025 07:00:00,12.920984,77.584908,NO2,14,84,39
India,Karnataka,Bengaluru,"Jigani, Bengaluru - KSPCB",11-09-2025 07:00:00,12.7816279,77.6299145,NH3,NA,NA,NA
India,Gujarat,Ahmedabad,"Raikhad, Ahmedabad - IITM",11-09-2025 07:00:00,23.020509,72.579261,OZONE,1,22,3
India,Gujarat,Ahmedabad,"Rakhial, Ahmedabad - IITM",11-09-2025 07:00:00,23.016834,72.625775,PM2.5,NA,NA,NA
India,Gujarat,Ahmedabad,"SAC ISRO Bopal, Ahmedabad - IITM",11-09-2025 07:00:00,23.041137,72.456691,PM10,32,109,64
India,Gujarat,Ahmedabad,"SAC ISRO Satellite, Ahmedabad - IITM",11-09-2025 07:00:00,23.023389,72.515201,PM2.5,44,169,63
India,Gujarat,Ahmedabad,"SAC ISRO Satellite, Ahmedabad - IITM",11-09-2025 07:00:00,23.023389,72.515201,NH3,NA,NA,NA
India,Gujarat,Ahmedabad,"SAC ISRO Satellite, Ahmedabad - IITM",11-09-2025 07:00:00,23.023389,72.515201,OZONE,1,24,9
India,Gujarat,Ahmedabad,"SVPI Airport Hansol, Ahmedabad - IITM",11-09-2025 07:00:00,23.076793,72.627874,NO2,7,40,22
India,Delhi,Delhi,"Rohini, Delhi - DPCC",11-09-2025 07:00:00,28.732528,77.119920,OZONE,8,73,14
India,Delhi,Delhi,"Shadipur, Delhi - CPCB",11-09-2025 07:00:00,28.6514781,77.1473105,SO2,5,15,12
India,Delhi,Delhi,"Sirifort, Delhi - CPCB",11-09-2025 07:00:00,28.5504249,77.2159377,NH3,10,13,12
India,Delhi,Delhi,"Sonia Vihar, Delhi - DPCC",11-09-2025 07:00:00,28.710508,77.249485,SO2,14,19,16
India,Delhi,Delhi,"Sonia Vihar, Delhi - DPCC",11-09-2025 07:00:00,28.710508,77.249485,CO,44,60,49
India,Delhi,Delhi,"Sri Aurobindo Marg, Delhi - DPCC",11-09-2025 07:00:00,28.531346,77.190156,PM2.5,13,40,27
India,Delhi,Delhi,"Sri Aurobindo Marg, Delhi - DPCC",11-09-2025 07:00:00,28.531346,77.190156,NH3,4,5,4
India,Gujarat,Gandhinagar,"Sector-10, Gandhinagar - GPCB",11-09-2025 07:00:00,23.221714,72.654328,OZONE,6,18,7
India,Gujarat,Surat,"Science Center, Surat - SMC",11-09-2025 07:00:00,21.170046,72.795405,PM10,NA,NA,NA
India,Gujarat,Surat,"Science Center, Surat - SMC",11-09-2025 07:00:00,21.170046,72.795405,CO,NA,NA,NA
India,Gujarat,Vapi,"Phase-1 GIDC, Vapi - GPCB",11-09-2025 07:00:00,20.362421,72.918013,PM10,70,412,126
India,Gujarat,Vatva,"Phase-4 GIDC, Vatva - GPCB",11-09-2025 07:00:00,22.969611,72.643500,PM2.5,21,54,37
India,Gujarat,Vatva,"Phase-4 GIDC, Vatva - GPCB",11-09-2025 07:00:00,22.969611,72.643500,PM10,66,117,86
India,Gujarat,Vatva,"Phase-4 GIDC, Vatva - GPCB",11-09-2025 07:00:00,22.969611,72.643500,NO2,7,15,11
India,Himachal Pradesh,Baddi,"HIMUDA Complex Phase-1, Baddi - HPPCB",11-09-2025 07:00:00,30.943887,76.801991,NO2,17,99,37
India,Jharkhand,Dhanbad,"Sardar Patel Nagar, Dhanbad - JSPCB",11-09-2025 07:00:00,23.80569,86.44268,PM10,15,161,72
India,Jharkhand,Dhanbad,"Sardar Patel Nagar, Dhanbad - JSPCB",11-09-2025 07:00:00,23.80569,86.44268,CO,2,125,112
India,Karnataka,Bengaluru,"BTM Layout, Bengaluru - CPCB",11-09-2025 07:00:00,12.9135218,77.5950804,PM2.5,23,64,32
India,Karnataka,Bengaluru,"BTM Layout, Bengaluru - CPCB",11-09-2025 07:00:00,12.9135218,77.5950804,CO,20,31,22
India,Delhi,Delhi,"Najafgarh, Delhi - DPCC",11-09-2025 07:00:00,28.570173,76.933762,SO2,40,44,42
India,Delhi,Delhi,"Najafgarh, Delhi - DPCC",11-09-2025 07:00:00,28.570173,76.933762,OZONE,9,25,13
India,Delhi,Delhi,"Nehru Nagar, Delhi - DPCC",11-09-2025 07:00:00,28.567890,77.250515,PM10,47,101,72
India,Delhi,Delhi,"North Campus, DU, Delhi - IMD",11-09-2025 07:00:00,28.6573814,77.1585447,PM10,52,87,75
India,Delhi,Delhi,"Okhla Phase-2, Delhi - DPCC",11-09-2025 07:00:00,28.530785,77.271255,CO,34,76,50
India,Madhya Pradesh,Damoh,"Shrivastav Colony, Damoh - MPPCB",11-09-2025 07:00:00,23.81748678,79.446246,SO2,13,22,15
India,Madhya Pradesh,Damoh,"Shrivastav Colony, Damoh - MPPCB",11-09-2025 07:00:00,23.81748678,79.446246,CO,20,28,26
India,Madhya Pradesh,Dewas,"Bhopal Chauraha, Dewas - MPPCB",11-09-2025 07:00:00,22.9682591,76.064118,PM10,57,101,82
India,Madhya Pradesh,Gwalior,"Deen Dayal Nagar, Gwalior - MPPCB",11-09-2025 07:00:00,26.259242,78.216432,PM10,6,99,61
India,Madhya Pradesh,Gwalior,"Deen Dayal Nagar, Gwalior - MPPCB",11-09-2025 07:00:00,26.259242,78.216432,NO2,3,18,8
India,Madhya Pradesh,Gwalior,"Maharaj Bada, Gwalior - MPPCB",11-09-2025 07:00:00,26.200388,78.147714,NO2,7,15,11
India,Madhya Pradesh,Gwalior,"Maharaj Bada, Gwalior - MPPCB",11-09-2025 07:00:00,26.200388,78.147714,OZONE,12,37,35
India,Madhya Pradesh,Indore,"Airport Area, Indore - IMC",11-09-2025 07:00:00,22.7289,75.8076,PM10,33,57,44
India,Madhya Pradesh,Indore,"Airport Area, Indore - IMC",11-09-2025 07:00:00,22.7289,75.8076,CO,5,5,5
India,Madhya Pradesh,Indore,"Airport Area, Indore - IMC",11-09-2025 07:00:00,22.7289,75.8076,OZONE,1,4,1
India,Karnataka,Haveri,"Ashwini Nagar, Haveri - KSPCB",11-09-2025 07:00:00,14.791800,75.389600,PM10,40,48,43
India,Karnataka,Haveri,"Ashwini Nagar, Haveri - KSPCB",11-09-2025 07:00:00,14.791800,75.389600,CO,24,26,25
India,Karnataka,Hubballi,"Lingaraj Nagar, Hubballi - KSPCB",11-09-2025 07:00:00,15.3714823,75.1160168,NO2,7,8,7
India,Karnataka,Hubballi,"Lingaraj Nagar, Hubballi - KSPCB",11-09-2025 07:00:00,15.3714823,75.1160168,SO2,1,1,1
India,Karnataka,Kalaburagi,"Lal Bahadur Shastri Nagar, Kalaburagi - KSPCB",11-09-2025 07:00:00,17.321993,76.822628,PM10,NA,NA,NA
India,Karnataka,Kalaburagi,"Lal Bahadur Shastri Nagar, Kalaburagi - KSPCB",11-09-2025 07:00:00,17.321993,76.822628,NO2,NA,NA,NA
India,Karnataka,Kalaburagi,"Lal Bahadur Shastri Nagar, Kalaburagi - KSPCB",11-09-2025 07:00:00,17.321993,76.822628,NH3,NA,NA,NA
India,Karnataka,Kalaburagi,"Mahatma Basaveswar Colony, Kalaburgi - KSPCB",11-09-2025 07:00:00,17.336318,76.847397,SO2,3,6,4
India,Karnataka,Karwar,"KHB Colony, Karwar - KSPCB",11-09-2025 07:00:00,14.816666,74.141003,NO2,3,15,6
India,Karnataka,Karwar,"KHB Colony, Karwar - KSPCB",11-09-2025 07:00:00,14.816666,74.141003,SO2,28,51,34
India,Madhya Pradesh,Indore,"Chhoti Gwaltoli, Indore - MPPCB",11-09-2025 07:00:00,22.4310,75.5213,PM10,65,112,94
India,Madhya Pradesh,Indore,"Chhoti Gwaltoli, Indore - MPPCB",11-09-2025 07:00:00,22.4310,75.5213,CO,14,46,22
India,Madhya Pradesh,Indore,"Maguda Nagar, Indore - IMC",11-09-2025 07:00:00,22.7524,75.8872,NO2,2,2,2
India,Madhya Pradesh,Indore,"Maguda Nagar, Indore - IMC",11-09-2025 07:00:00,22.7524,75.8872,NH3,NA,NA,NA
India,Madhya Pradesh,Indore,"Regional Park, Indore - IMC",11-09-2025 07:00:00,22.6780,75.8559,NO2,13,19,16
India,Madhya Pradesh,Indore,"Regional Park, Indore - IMC",11-09-2025 07:00:00,22.6780,75.8559,NH3,1,2,1
India,Madhya Pradesh,Indore,"Regional Park, Indore - IMC",11-09-2025 07:00:00,22.6780,75.8559,CO,16,20,19
India,Madhya Pradesh,Indore,"Residency Area, Indore - IMC",11-09-2025 07:00:00,22.7084,75.8815,SO2,37,135,86
India,Madhya Pradesh,Jabalpur,"Govindh Bhavan Colony, Jabalpur - JMC",11-09-2025 07:00:00,23.163174,79.973061,SO2,26,27,26
India,Madhya Pradesh,Jabalpur,"Govindh Bhavan Colony, Jabalpur - JMC",11-09-2025 07:00:00,23.163174,79.973061,OZONE,5,22,11
India,Karnataka,Koppal,"Diwator Nagar, Koppal - KSPCB",11-09-2025 07:00:00,15.347630,76.181767,NH3,NA,NA,NA
India,Karnataka,Koppal,"Diwator Nagar, Koppal - KSPCB",11-09-2025 07:00:00,15.347630,76.181767,OZONE,NA,NA,NA
India,Karnataka,Madikeri,"Stuart Hill, Madikeri - KSPCB",11-09-2025 07:00:00,12.415911,75.735050,PM10,39,54,48
India,Karnataka,Madikeri,"Stuart Hill, Madikeri - KSPCB",11-09-2025 07:00:00,12.415911,75.735050,SO2,6,8,7
India,Karnataka,Madikeri,"Stuart Hill, Madikeri - KSPCB",11-09-2025 07:00:00,12.415911,75.735050,OZONE,3,17,5
India,Karnataka,Mangalore,"Kadri, Mangalore - KSPCB",11-09-2025 07:00:00,12.889250,74.853000,SO2,6,7,7
India,Karnataka,Mysuru,"Hebbal 1st Stage, Mysuru - KSPCB",11-09-2025 07:00:00,12.21041,76.37376,NH3,2,8,5
India,Karnataka,Ramanagara,"Vijay Nagar, Ramanagara - KSPCB",11-09-2025 07:00:00,12.733409,77.298051,CO,NA,NA,NA
India,Karnataka,Shivamogga,"Vinoba Nagara, Shivamogga - KSPCB",11-09-2025 07:00:00,13.940000,75.555917,SO2,2,5,2
India,Madhya Pradesh,Jabalpur,"Marhatal, Jabalpur - MPPCB",11-09-2025 07:00:00,23.168606,79.932247,OZONE,NA,NA,NA
India,Madhya Pradesh,Jabalpur,"Suhagi, Jabalpur - JMC",11-09-2025 07:00:00,23.218135,79.957770,NO2,22,32,27
India,Madhya Pradesh,Katni,"Gole Bazar, Katni - MPPCB",11-09-2025 07:00:00,23.50016,80.23284,NO2,23,25,24
India,Madhya Pradesh,Katni,"Gole Bazar, Katni - MPPCB",11-09-2025 07:00:00,23.50016,80.23284,NH3,3,3,3
India,Madhya Pradesh,Katni,"Gole Bazar, Katni - MPPCB",11-09-2025 07:00:00,23.50016,80.23284,SO2,16,31,24
India,Madhya Pradesh,Maihar,"Sahilara, Maihar - KJS Cements",11-09-2025 07:00:00,24.2613009,80.7231783,PM2.5,NA,NA,NA
India,Madhya Pradesh,Maihar,"Sahilara, Maihar - KJS Cements",11-09-2025 07:00:00,24.2613009,80.7231783,SO2,NA,NA,NA
India,Madhya Pradesh,Mandideep,"Sector-D Industrial Area, Mandideep - MPPCB",11-09-2025 07:00:00,23.108440,77.511428,NO2,16,41,24
India,Madhya Pradesh,Mandideep,"Sector-D Industrial Area, Mandideep - MPPCB",11-09-2025 07:00:00,23.108440,77.511428,CO,18,46,31
India,Kerala,Thiruvananthapuram,"Plammoodu, Thiruvananthapuram - Kerala PCB",11-09-2025 07:00:00,8.5149093,76.9435879,CO,7,52,9
India,Kerala,Thrissur,"Corporation Ground, Thrissur - Kerala PCB",11-09-2025 07:00:00,10.532400,76.215900,PM2.5,47,57,51
India,Kerala,Thrissur,"Corporation Ground, Thrissur - Kerala PCB",11-09-2025 07:00:00,10.532400,76.215900,PM10,50,60,54
India,Kerala,Thrissur,"Corporation Ground, Thrissur - Kerala PCB",11-09-2025 07:00:00,10.532400,76.215900,NO2,5,6,5
India,Kerala,Thrissur,"Corporation Ground, Thrissur - Kerala PCB",11-09-2025 07:00:00,10.532400,76.215900,CO,16,20,18
India,Madhya Pradesh,Bhopal,"Idgah Hills, Bhopal - MPPCB",11-09-2025 07:00:00,23.264759,77.381568,PM10,35,65,50
India,Madhya Pradesh,Bhopal,"T T Nagar, Bhopal - MPPCB",11-09-2025 07:00:00,23.233584,77.400574,PM2.5,28,71,44
India,Madhya Pradesh,Bhopal,"T T Nagar, Bhopal - MPPCB",11-09-2025 07:00:00,23.233584,77.400574,SO2,1,27,11
India,Karnataka,Tumakuru,"Thimmalapura, Tumakuru - KSPCB",11-09-2025 07:00:00,13.377516,77.099072,CO,20,33,27
India,Karnataka,Vijayapura,"Ibrahimpur, Vijayapura - KSPCB",11-09-2025 07:00:00,16.802639,75.722694,PM10,43,44,44
India,Karnataka,Vijayapura,"Ibrahimpur, Vijayapura - KSPCB",11-09-2025 07:00:00,16.802639,75.722694,CO,10,120,33
India,Kerala,Kollam,"Polayathode, Kollam - Kerala PCB",11-09-2025 07:00:00,8.8787,76.6073,NO2,NA,NA,NA
India,Kerala,Kollam,"Polayathode, Kollam - Kerala PCB",11-09-2025 07:00:00,8.8787,76.6073,OZONE,NA,NA,NA
India,Kerala,Thiruvananthapuram,"Kariavattom, Thiruvananthapuram - Kerala PCB",11-09-2025 07:00:00,8.563700,76.886500,PM2.5,NA,NA,NA
India,Karnataka,Chikkamagaluru,"Kalyana Nagara, Chikkamagaluru - KSPCB",11-09-2025 07:00:00,13.328028,75.797056,NH3,NA,NA,NA
India,Karnataka,Davanagere,"Devaraj Urs Badavane, Davanagere - KSPCB",11-09-2025 07:00:00,14.475800,75.905200,PM2.5,NA,NA,NA
India,Karnataka,Davanagere,"Devaraj Urs Badavane, Davanagere - KSPCB",11-09-2025 07:00:00,14.475800,75.905200,SO2,NA,NA,NA
India,Karnataka,Hassan,"B.Katihalli, Hassan - KSPCB",11-09-2025 07:00:00,13.008556,76.125258,PM2.5,8,29,19
India,Karnataka,Hassan,"B.Katihalli, Hassan - KSPCB",11-09-2025 07:00:00,13.008556,76.125258,PM10,13,43,29
India,Karnataka,Bengaluru,"Shivapura_Peenya, Bengaluru - KSPCB",11-09-2025 07:00:00,13.0246342,77.5080115,SO2,NA,NA,NA
India,Karnataka,Bengaluru,"Silk Board, Bengaluru - KSPCB",11-09-2025 07:00:00,12.917348,77.622813,NO2,3,17,8
India,Karnataka,Bengaluru,"Silk Board, Bengaluru - KSPCB",11-09-2025 07:00:00,12.917348,77.622813,SO2,5,9,7
India,Karnataka,Bidar,"Naubad, Bidar - KSPCB",11-09-2025 07:00:00,17.930306,77.482194,NH3,NA,NA,NA
India,Karnataka,Bidar,"Naubad, Bidar - KSPCB",11-09-2025 07:00:00,17.930306,77.482194,SO2,NA,NA,NA
India,Maharashtra,Ahmednagar,"Tarakpur, Ahmednagar - MPCB",11-09-2025 07:00:00,19.10122,74.73339,SO2,3,7,5
India,Maharashtra,Ahmednagar,"Tarakpur, Ahmednagar - MPCB",11-09-2025 07:00:00,19.10122,74.73339,OZONE,5,33,13
India,Maharashtra,Akola,"Ramdaspeth, Akola - MPCB",11-09-2025 07:00:00,20.719516,77.000253,NO2,13,24,18
India,Maharashtra,Akola,"Ramdaspeth, Akola - MPCB",11-09-2025 07:00:00,20.719516,77.000253,SO2,6,10,8
India,Maharashtra,Amravati,"Shivneri Colony, Amravati - MPCB",11-09-2025 07:00:00,20.9402359,77.7895248,CO,10,34,15
India,Maharashtra,Amravati,"Shri Shivaji Science College, Amravati - MPCB",11-09-2025 07:00:00,20.939198,77.765701,PM10,36,69,58
India,Maharashtra,Aurangabad,"MIDC Chilkalthana, Aurangabad - MPCB",11-09-2025 07:00:00,19.875620,75.387310,PM10,NA,NA,NA
India,Maharashtra,Aurangabad,"MIDC Chilkalthana, Aurangabad - MPCB",11-09-2025 07:00:00,19.875620,75.387310,CO,14,121,25
India,Maharashtra,Chandrapur,"Chauhan Colony, Chandrapur - MPCB",11-09-2025 07:00:00,19.962900,79.298714,PM2.5,2,36,11
India,Maharashtra,Chandrapur,"Chauhan Colony, Chandrapur - MPCB",11-09-2025 07:00:00,19.962900,79.298714,CO,20,34,24
India,Maharashtra,Chandrapur,"MIDC Khutala, Chandrapur - MPCB",11-09-2025 07:00:00,19.9775302,79.2337086,NH3,NA,NA,NA
India,Maharashtra,Chandrapur,"MIDC Khutala, Chandrapur - MPCB",11-09-2025 07:00:00,19.9775302,79.2337086,CO,34,54,36
India,Maharashtra,Chandrapur,"MIDC Khutala, Chandrapur - MPCB",11-09-2025 07:00:00,19.9775302,79.2337086,OZONE,6,38,26
India,Maharashtra,Dhule,"Deopur, Dhule - MPCB",11-09-2025 07:00:00,20.918946,74.776388,PM10,40,94,74
India,Maharashtra,Dhule,"Deopur, Dhule - MPCB",11-09-2025 07:00:00,20.918946,74.776388,NH3,1,3,2
India,Maharashtra,Dhule,"Deopur, Dhule - MPCB",11-09-2025 07:00:00,20.918946,74.776388,CO,8,21,16
India,Maharashtra,Jalgaon,"Prabhat Colony, Jalgaon - MPCB",11-09-2025 07:00:00,21.001264,75.565602,SO2,2,11,8
India,Madhya Pradesh,Pithampur,"Sector-2 Industrial Area, Pithampur - MPPCB",11-09-2025 07:00:00,22.624758,75.675238,CO,15,21,19
India,Madhya Pradesh,Ratlam,"Shasthri Nagar, Ratlam - IPCA Lab",11-09-2025 07:00:00,23.331731,75.045981,PM10,54,98,75
India,Madhya Pradesh,Sagar,"Civil Lines, Sagar - MPPCB",11-09-2025 07:00:00,23.838586,78.759431,OZONE,30,60,31
India,Madhya Pradesh,Satna,"Bandhavgar Colony, Satna - Birla Cement",11-09-2025 07:00:00,24.58434363,80.8549414,NO2,31,36,33
India,Maharashtra,Ahmednagar,"Tarakpur, Ahmednagar - MPCB",11-09-2025 07:00:00,19.10122,74.73339,NO2,14,26,21
India,Maharashtra,Badlapur,"Katrap, Badlapur - MPCB",11-09-2025 07:00:00,19.16485,73.23409,PM2.5,45,181,65
India,Maharashtra,Badlapur,"Katrap, Badlapur - MPCB",11-09-2025 07:00:00,19.16485,73.23409,NO2,28,57,41
India,Maharashtra,Badlapur,"Katrap, Badlapur - MPCB",11-09-2025 07:00:00,19.16485,73.23409,NH3,5,9,7
India,Maharashtra,Badlapur,"Katrap, Badlapur - MPCB",11-09-2025 07:00:00,19.16485,73.23409,CO,25,52,34
India,Maharashtra,Badlapur,"Katrap, Badlapur - MPCB",11-09-2025 07:00:00,19.16485,73.23409,OZONE,12,40,14
India,Maharashtra,Belapur,"CBD Belapur, Belapur - MPCB",11-09-2025 07:00:00,19.0243902,73.0406721,PM10,28,96,62
India,Maharashtra,Belapur,"CBD Belapur, Belapur - MPCB",11-09-2025 07:00:00,19.0243902,73.0406721,CO,12,30,15
India,Maharashtra,Bhiwandi,"Gokul Nagar, Bhiwandi - MPCB",11-09-2025 07:00:00,19.309073,73.057223,PM10,29,92,57
India,Maharashtra,Mumbai,"Chembur, Mumbai - MPCB",11-09-2025 07:00:00,19.0364585,72.8954371,PM2.5,59,89,73
India,Maharashtra,Mumbai,"Chembur, Mumbai - MPCB",11-09-2025 07:00:00,19.0364585,72.8954371,NO2,11,31,21
India,Maharashtra,Mumbai,"Chhatrapati Shivaji Intl. Airport (T2), Mumbai - MPCB",11-09-2025 07:00:00,19.10078,72.87462,NH3,1,2,1
India,Maharashtra,Mumbai,"Chhatrapati Shivaji Intl. Airport (T2), Mumbai - MPCB",11-09-2025 07:00:00,19.10078,72.87462,CO,24,30,28
India,Maharashtra,Mumbai,"Colaba, Mumbai - MPCB",11-09-2025 07:00:00,18.910000,72.820000,NO2,23,24,23
India,Maharashtra,Mumbai,"Deonar, Mumbai - IITM",11-09-2025 07:00:00,19.04946,72.9230,NO2,7,27,15
India,Maharashtra,Latur,"Sawe Wadi, Latur - MPCB",11-09-2025 07:00:00,18.39963,76.57452,NO2,3,44,14
India,Maharashtra,Latur,"Sawe Wadi, Latur - MPCB",11-09-2025 07:00:00,18.39963,76.57452,SO2,2,5,4
India,Maharashtra,Latur,"Sawe Wadi, Latur - MPCB",11-09-2025 07:00:00,18.39963,76.57452,OZONE,8,46,23
India,Maharashtra,Mahad,"Kamble Tarf Birwadi, Mahad - MPCB",11-09-2025 07:00:00,18.1023399,73.4783687,SO2,4,38,12
India,Maharashtra,Malegaon,"Mahesh Nagar, Malegaon - MPCB",11-09-2025 07:00:00,20.555712,74.529236,PM2.5,34,54,42
India,Maharashtra,Malegaon,"Mahesh Nagar, Malegaon - MPCB",11-09-2025 07:00:00,20.555712,74.529236,PM10,45,85,64
India,Maharashtra,Mumbai,"Bandra Kurla Complex, Mumbai - MPCB",11-09-2025 07:00:00,19.065931,72.862131,PM2.5,24,56,39
India,Maharashtra,Mumbai,"Borivali East, Mumbai - IITM",11-09-2025 07:00:00,19.23241,72.86895,OZONE,1,44,2
India,Maharashtra,Mumbai,"Borivali East, Mumbai - MPCB",11-09-2025 07:00:00,19.2243333,72.8658113,PM2.5,17,35,25
India,Maharashtra,Mumbai,"Borivali East, Mumbai - MPCB",11-09-2025 07:00:00,19.2243333,72.8658113,PM10,20,20,20
India,Maharashtra,Mumbai,"Chakala-Andheri East, Mumbai - IITM",11-09-2025 07:00:00,19.11074,72.86084,SO2,1,22,10
India,Maharashtra,Jalna,"Old MIDC, Jalna - MPCB",11-09-2025 07:00:00,19.854616,75.905894,NH3,3,5,4
India,Maharashtra,Kolhapur,"Shivaji University, Kolhapur - MPCB",11-09-2025 07:00:00,16.6870449,74.2505872,PM2.5,6,26,13
India,Maharashtra,Kolhapur,"Sinchan Bhavan, Kolhapur - MPCB",11-09-2025 07:00:00,16.7143745,74.2426398,NO2,1,11,5
India,Maharashtra,Mumbai,"Ghatkopar, Mumbai - BMC",11-09-2025 07:00:00,19.083694,72.920967,NH3,2,14,4
India,Maharashtra,Mumbai,"Kherwadi_Bandra East, Mumbai - MPCB",11-09-2025 07:00:00,19.0632143,72.8456324,OZONE,1,64,8
India,Maharashtra,Mumbai,"Kurla, Mumbai - MPCB",11-09-2025 07:00:00,19.0863,72.8888,PM2.5,59,165,76
India,Maharashtra,Pimpri-Chinchwad,"Thergaon, Pimpri Chinchwad - MPCB",11-09-2025 07:00:00,18.616318,73.765797,CO,18,43,24
India,Maharashtra,Pune,"Bhosari, Pune - IITM",11-09-2025 07:00:00,18.640051,73.848956,OZONE,3,88,15
India,Maharashtra,Pune,"Bhumkar Nagar, Pune - IITM",11-09-2025 07:00:00,18.605770,73.749976,PM2.5,17,62,37
India,Maharashtra,Pune,"Bhumkar Nagar, Pune - IITM",11-09-2025 07:00:00,18.605770,73.749976,PM10,57,107,84
India,Maharashtra,Pune,"Bhumkar Nagar, Pune - IITM",11-09-2025 07:00:00,18.605770,73.749976,CO,10,54,19
India,Maharashtra,Pune,"Dhankawadi, Pune - IITM",11-09-2025 07:00:00,18.459883,73.852193,PM2.5,26,73,48
India,Maharashtra,Pune,"Mhada Colony, Pune - IITM",11-09-2025 07:00:00,18.573040,73.927715,PM2.5,38,116,64
India,Maharashtra,Pune,"Mhada Colony, Pune - IITM",11-09-2025 07:00:00,18.573040,73.927715,PM10,83,130,112
India,Maharashtra,Pune,"Panchawati_Pashan, Pune - IITM",11-09-2025 07:00:00,18.536457,73.805454,PM10,48,96,67
India,Maharashtra,Mumbai,"Kurla, Mumbai - MPCB",11-09-2025 07:00:00,19.0863,72.8888,SO2,36,37,37
India,Maharashtra,Mumbai,"Malad West, Mumbai - IITM",11-09-2025 07:00:00,19.19709,72.82204,NH3,6,13,8
India,Maharashtra,Mumbai,"Malad West, Mumbai - IITM",11-09-2025 07:00:00,19.19709,72.82204,SO2,4,7,5
India,Maharashtra,Mumbai,"Mazgaon, Mumbai - IITM",11-09-2025 07:00:00,18.96702,72.84214,PM10,26,89,55
India,Maharashtra,Mumbai,"Mazgaon, Mumbai - IITM",11-09-2025 07:00:00,18.96702,72.84214,CO,16,50,25
India,Maharashtra,Mumbai,"Mindspace-Malad West, Mumbai - MPCB",11-09-2025 07:00:00,19.1878657,72.8304069,SO2,6,7,6
India,Maharashtra,Mumbai,"Mulund West, Mumbai - MPCB",11-09-2025 07:00:00,19.1750,72.9419,NO2,12,14,13
India,Maharashtra,Mumbai,"Navy Nagar-Colaba, Mumbai - IITM",11-09-2025 07:00:00,18.897756,72.813320,PM10,72,119,89
India,Maharashtra,Mumbai,"Navy Nagar-Colaba, Mumbai - IITM",11-09-2025 07:00:00,18.897756,72.813320,NH3,2,6,3
India,Maharashtra,Solapur,"Ratandeep Housing Society, Solapur - MPCB",11-09-2025 07:00:00,17.65439,75.90649,OZONE,7,168,36
India,Maharashtra,Thane,"Kasarvadavali, Thane - MPCB",11-09-2025 07:00:00,19.26777,72.97182,SO2,1,5,2
India,Maharashtra,Thane,"Upvan Fort, Thane - MPCB",11-09-2025 07:00:00,19.222279,72.957979,CO,5,83,15
India,Maharashtra,Ulhasnagar,"Sidhi Vinayak Nagar, Ulhasnagar - MPCB",11-09-2025 07:00:00,19.235581,73.159121,CO,16,57,44
India,Maharashtra,Virar,"Bolinj, Virar - MPCB",11-09-2025 07:00:00,19.4458210,72.7988231,NO2,5,29,17
India,Maharashtra,Virar,"Bolinj, Virar - MPCB",11-09-2025 07:00:00,19.4458210,72.7988231,NH3,1,1,1
India,Meghalaya,Shillong,"Lumpyngngad, Shillong - Meghalaya PCB",11-09-2025 07:00:00,25.5586,91.8985,SO2,4,5,5
India,Maharashtra,Nashik,"Pandav Nagari, Nashik - MPCB",11-09-2025 07:00:00,19.9591346,73.7788008,NH3,1,4,3
India,Maharashtra,Nashik,"Pandav Nagari, Nashik - MPCB",11-09-2025 07:00:00,19.9591346,73.7788008,OZONE,14,60,17
India,Maharashtra,Navi Mumbai,"Kopripada-Vashi, Navi Mumbai - MPCB",11-09-2025 07:00:00,19.090337,73.014232,CO,21,79,38
India,Maharashtra,Navi Mumbai,"Mahape, Navi Mumbai - MPCB",11-09-2025 07:00:00,19.1135051,73.008978,SO2,26,26,26
India,Maharashtra,Navi Mumbai,"Mahape, Navi Mumbai - MPCB",11-09-2025 07:00:00,19.1135051,73.008978,CO,12,21,20
India,Maharashtra,Navi Mumbai,"Nerul, Navi Mumbai - MPCB",11-09-2025 07:00:00,19.008751,73.016620,PM2.5,37,81,51
India,Maharashtra,Navi Mumbai,"Nerul, Navi Mumbai - MPCB",11-09-2025 07:00:00,19.008751,73.016620,NH3,3,3,3
India,Maharashtra,Navi Mumbai,"Sanpada, Navi Mumbai - MPCB",11-09-2025 07:00:00,19.0575752,73.0151367,SO2,14,22,18
India,Maharashtra,Pune,"Savitribai Phule Pune University, Pune - MPCB",11-09-2025 07:00:00,18.547056,73.826908,CO,12,20,14
India,Maharashtra,Pune,"Savitribai Phule Pune University, Pune - MPCB",11-09-2025 07:00:00,18.547056,73.826908,OZONE,1,31,3
India,Maharashtra,Pune,"Transport Nagar-Nigdi, Pune - IITM",11-09-2025 07:00:00,18.664282,73.763966,PM2.5,13,59,30
India,Maharashtra,Pune,"Transport Nagar-Nigdi, Pune - IITM",11-09-2025 07:00:00,18.664282,73.763966,CO,6,81,48
India,Maharashtra,Sangli,"Vijay Nagar, Sangli - MPCB",11-09-2025 07:00:00, 16.5038,74.3623,PM10,58,101,79
India,Maharashtra,Sangli,"Vijay Nagar, Sangli - MPCB",11-09-2025 07:00:00, 16.5038,74.3623,SO2,4,8,5
India,Maharashtra,Solapur,"Dnyaneshwar Nagar, Solapur - MPCB",11-09-2025 07:00:00,17.6336264,75.9132495,SO2,NA,NA,NA
India,Maharashtra,Solapur,"Dnyaneshwar Nagar, Solapur - MPCB",11-09-2025 07:00:00,17.6336264,75.9132495,OZONE,6,41,24
India,Maharashtra,Nagpur,"Ambazari, Nagpur - MPCB",11-09-2025 07:00:00,21.121801,79.04952,NH3,2,3,2
India,Maharashtra,Nagpur,"Ambazari, Nagpur - MPCB",11-09-2025 07:00:00,21.121801,79.04952,CO,8,36,16
India,Maharashtra,Nagpur,"Mahal, Nagpur - MPCB",11-09-2025 07:00:00,21.14472,79.107595,NO2,11,31,19
India,Maharashtra,Nagpur,"Mahal, Nagpur - MPCB",11-09-2025 07:00:00,21.14472,79.107595,SO2,1,47,19
India,Maharashtra,Nagpur,"Opp GPO Civil Lines, Nagpur - MPCB",11-09-2025 07:00:00,21.152875,79.0517531,NH3,1,2,2
India,Maharashtra,Nagpur,"Opp GPO Civil Lines, Nagpur - MPCB",11-09-2025 07:00:00,21.152875,79.0517531,CO,6,54,21
India,Maharashtra,Nagpur,"Ram Nagar, Nagpur - MPCB",11-09-2025 07:00:00,21.143383,79.048912,PM10,34,65,49
India,Maharashtra,Navi Mumbai,"Tondare-Taloja, Navi Mumbai - MPCB",11-09-2025 07:00:00,19.0630,73.1209,NH3,2,5,4
India,Maharashtra,Pimpri-Chinchwad,"Gavalinagar, Pimpri Chinchwad - MPCB",11-09-2025 07:00:00,18.63673,73.82487,NH3,3,3,3
India,Maharashtra,Pimpri-Chinchwad,"Gavalinagar, Pimpri Chinchwad - MPCB",11-09-2025 07:00:00,18.63673,73.82487,CO,8,17,10
India,Maharashtra,Pimpri-Chinchwad,"Park Street Wakad, Pimpri Chinchwad - MPCB",11-09-2025 07:00:00,18.59051,73.77946,PM10,52,106,86
India,Maharashtra,Pimpri-Chinchwad,"Park Street Wakad, Pimpri Chinchwad - MPCB",11-09-2025 07:00:00,18.59051,73.77946,SO2,2,4,3
India,Maharashtra,Nashik,"Gangapur Road, Nashik - MPCB",11-09-2025 07:00:00,20.0073285,73.7762427,PM10,30,72,53
India,Maharashtra,Nashik,"Hirawadi, Nashik - MPCB",11-09-2025 07:00:00,20.021503,73.813844,NH3,2,3,2
India,Maharashtra,Nashik,"Hirawadi, Nashik - MPCB",11-09-2025 07:00:00,20.021503,73.813844,SO2,1,7,4
India,Maharashtra,Nashik,"MIDC Ambad, Nashik - MPCB",11-09-2025 07:00:00,19.950220,73.731480,NH3,2,3,2
India,Maharashtra,Nashik,"Pandav Nagari, Nashik - MPCB",11-09-2025 07:00:00,19.9591346,73.7788008,NO2,2,10,5
India,Maharashtra,Mumbai,"Siddharth Nagar-Worli, Mumbai - IITM",11-09-2025 07:00:00,19.000083,72.813993,PM2.5,NA,NA,NA
India,Maharashtra,Mumbai,"Siddharth Nagar-Worli, Mumbai - IITM",11-09-2025 07:00:00,19.000083,72.813993,CO,2,78,66
India,Maharashtra,Mumbai,"Vasai West, Mumbai - MPCB",11-09-2025 07:00:00,19.383200,72.820400,NO2,NA,NA,NA
India,Rajasthan,Bhiwadi,"Vasundhara Nagar_UIT, Bhiwadi - RSPCB",11-09-2025 07:00:00,28.207266,76.829265,SO2,5,21,11
India,Rajasthan,Bikaner,"MM Ground, Bikaner - RSPCB",11-09-2025 07:00:00,28.018792,73.292658,PM10,43,107,75
India,Rajasthan,Bikaner,"MM Ground, Bikaner - RSPCB",11-09-2025 07:00:00,28.018792,73.292658,OZONE,14,47,27
India,Rajasthan,Chittorgarh,"Shastri Nagar, Chittorgarh - RSPCB",11-09-2025 07:00:00,24.892047,74.623527,PM2.5,8,85,53
India,Rajasthan,Chittorgarh,"Shastri Nagar, Chittorgarh - RSPCB",11-09-2025 07:00:00,24.892047,74.623527,PM10,51,97,70
India,Rajasthan,Chittorgarh,"Shastri Nagar, Chittorgarh - RSPCB",11-09-2025 07:00:00,24.892047,74.623527,SO2,2,22,9
India,Rajasthan,Churu,"Subash Chowk, Churu - RSPCB",11-09-2025 07:00:00,28.296139,74.961696,NH3,2,3,2
India,Rajasthan,Churu,"Subash Chowk, Churu - RSPCB",11-09-2025 07:00:00,28.296139,74.961696,CO,7,16,12
India,Rajasthan,Dausa,"Khatikan Mohalla, Dausa - RSPCB",11-09-2025 07:00:00,26.895552,76.334753,NH3,7,13,9
India,Rajasthan,Baran,"Bamboliya, Baran - RSPCB",11-09-2025 07:00:00,25.106006,76.469948,NH3,3,4,3
India,Rajasthan,Baran,"Bamboliya, Baran - RSPCB",11-09-2025 07:00:00,25.106006,76.469948,CO,16,28,20
India,Rajasthan,Barmer,"Railway Colony, Barmer - RSPCB",11-09-2025 07:00:00,25.747299,71.393989,NH3,2,4,2
India,Rajasthan,Barmer,"Railway Colony, Barmer - RSPCB",11-09-2025 07:00:00,25.747299,71.393989,OZONE,28,66,39
India,Rajasthan,Bharatpur,"Krishna Nagar, Bharatpur - RSPCB",11-09-2025 07:00:00,27.215415,77.50873,CO,2,68,12
India,Rajasthan,Bhilwara,"Pratap Nagar, Bhilwara - RSPCB",11-09-2025 07:00:00,25.339605,74.618883,NH3,2,4,2
India,Rajasthan,Bhiwadi,"RIICO Ind. Area III, Bhiwadi - RSPCB",11-09-2025 07:00:00,28.194909,76.862296,PM10,71,127,103
India,Rajasthan,Bhiwadi,"RIICO Ind. Area III, Bhiwadi - RSPCB",11-09-2025 07:00:00,28.194909,76.862296,OZONE,6,39,8
India,Odisha,Tensa,"Barsua Iron Ore Mines, Tensa - OSPCB",11-09-2025 07:00:00,21.869985,85.167016,SO2,NA,NA,NA
India,Punjab,Amritsar,"Golden Temple, Amritsar - PPCB",11-09-2025 07:00:00,31.620000,74.876512,NH3,2,14,10
India,Punjab,Amritsar,"Golden Temple, Amritsar - PPCB",11-09-2025 07:00:00,31.620000,74.876512,CO,34,44,38
India,Punjab,Jalandhar,"Civil Line, Jalandhar - PPCB",11-09-2025 07:00:00,31.321907,75.578914,NO2,25,31,28
India,Punjab,Khanna,"Kalal Majra, Khanna - PPCB",11-09-2025 07:00:00,30.736056 ,76.209694,PM2.5,24,54,36
India,Punjab,Khanna,"Kalal Majra, Khanna - PPCB",11-09-2025 07:00:00,30.736056 ,76.209694,NO2,26,30,28
India,Punjab,Ludhiana,"Punjab Agricultural University, Ludhiana - PPCB",11-09-2025 07:00:00,30.9028,75.8086,PM2.5,37,99,56
India,Nagaland,Kohima,"PWD Junction, Kohima - NPCB",11-09-2025 07:00:00,25.6635413,94.0989878,PM10,9,94,36
India,Nagaland,Kohima,"PWD Junction, Kohima - NPCB",11-09-2025 07:00:00,25.6635413,94.0989878,NH3,1,1,1
India,Nagaland,Kohima,"PWD Junction, Kohima - NPCB",11-09-2025 07:00:00,25.6635413,94.0989878,SO2,67,70,69
India,Odisha,Angul,"Hakimapada, Angul - OSPCB",11-09-2025 07:00:00,20.832874,85.104082,NO2,5,15,8
India,Odisha,Balasore,"Kalidaspur, Balasore - OSPCB",11-09-2025 07:00:00,21.51161,86.89088,NH3,3,4,3
India,Odisha,Barbil,"Forest Office, Barbil - OSPCB",11-09-2025 07:00:00,22.1166054,85.3945546,PM10,41,156,69
India,Odisha,Barbil,"Forest Office, Barbil - OSPCB",11-09-2025 07:00:00,22.1166054,85.3945546,NO2,14,51,31
India,Odisha,Barbil,"Forest Office, Barbil - OSPCB",11-09-2025 07:00:00,22.1166054,85.3945546,NH3,1,3,2
India,Punjab,Mandi Gobindgarh,"RIMT University, Mandi Gobindgarh - PPCB",11-09-2025 07:00:00,30.649961,76.331442,OZONE,45,54,49
India,Punjab,Patiala,"Model Town, Patiala - PPCB",11-09-2025 07:00:00,30.349388,76.366642,CO,8,44,16
India,Punjab,Rupnagar,"Ratanpura, Rupnagar - Ambuja Cements",11-09-2025 07:00:00,31.0325454,76.5623046,PM10,15,102,36
India,Rajasthan,Ajmer,"Civil Lines,  Ajmer - RSPCB",11-09-2025 07:00:00,26.470859,74.646594,PM2.5,29,41,34
India,Rajasthan,Alwar,"Moti Doongri, Alwar - RSPCB",11-09-2025 07:00:00,27.554793,76.611536,SO2,6,90,40
India,Odisha,Bhubaneswar,"Lingraj Mandir, Bhubaneswar - OSPCB",11-09-2025 07:00:00,20.240790,85.836784,NO2,3,24,13
India,Odisha,Bhubaneswar,"Lingraj Mandir, Bhubaneswar - OSPCB",11-09-2025 07:00:00,20.240790,85.836784,SO2,1,12,9
India,Odisha,Bhubaneswar,"Lingraj Mandir, Bhubaneswar - OSPCB",11-09-2025 07:00:00,20.240790,85.836784,OZONE,9,87,24
India,Odisha,Bhubaneswar,"Patia, Bhubaneswar - OSPCB",11-09-2025 07:00:00,20.34652,85.81630,PM10,30,114,53
India,Odisha,Bhubaneswar,"Patia, Bhubaneswar - OSPCB",11-09-2025 07:00:00,20.34652,85.81630,NO2,12,24,17
India,Odisha,Bhubaneswar,"Patia, Bhubaneswar - OSPCB",11-09-2025 07:00:00,20.34652,85.81630,CO,31,46,34
India,Odisha,Bileipada,"Tata Township, Bileipada - OSPCB",11-09-2025 07:00:00,22.06156703,85.47409613,OZONE,11,15,12
India,Odisha,Rairangpur,"Divisional Forest Office, Rairangpur - OSPCB",11-09-2025 07:00:00,22.265816,86.174829,SO2,7,9,8
India,Odisha,Rairangpur,"Divisional Forest Office, Rairangpur - OSPCB",11-09-2025 07:00:00,22.265816,86.174829,CO,22,38,26
India,Odisha,Rourkela,"Fertilizer Township, Rourkela - OSPCB",11-09-2025 07:00:00,22.18972222,84.86277778,PM2.5,NA,NA,NA
India,Odisha,Rourkela,"Raghunathpali, Rourkela - OSPCB",11-09-2025 07:00:00,22.220833,84.809444,PM10,49,123,75
India,Odisha,Rourkela,"Raghunathpali, Rourkela - OSPCB",11-09-2025 07:00:00,22.220833,84.809444,SO2,5,10,8
India,Odisha,Byasanagar,"Ferro Chrome Colony, Byasanagar - OSPCB",11-09-2025 07:00:00,20.94185,86.11510,PM10,NA,NA,NA
India,Odisha,Byasanagar,"Ferro Chrome Colony, Byasanagar - OSPCB",11-09-2025 07:00:00,20.94185,86.11510,NO2,NA,NA,NA
India,Odisha,Cuttack,"CDA Area, Cuttack - OSPCB",11-09-2025 07:00:00,20.48891     ,85.84768     ,SO2,3,7,4
India,Odisha,Cuttack,"CDA Area, Cuttack - OSPCB",11-09-2025 07:00:00,20.48891     ,85.84768     ,OZONE,12,42,15
India,Odisha,Rairangpur,"Divisional Forest Office, Rairangpur - OSPCB",11-09-2025 07:00:00,22.265816,86.174829,NO2,15,21,18
India,Sikkim,Gangtok,"Zero Point GICI, Gangtok - SSPCB",11-09-2025 07:00:00,27.338530,88.614099,PM10,15,31,25
India,Sikkim,Gangtok,"Zero Point GICI, Gangtok - SSPCB",11-09-2025 07:00:00,27.338530,88.614099,SO2,1,1,1
India,Sikkim,Gangtok,"Zero Point GICI, Gangtok - SSPCB",11-09-2025 07:00:00,27.338530,88.614099,OZONE,19,42,20
India,TamilNadu,Ariyalur,"Keelapalur, Ariyalur - TNPCB",11-09-2025 07:00:00,11.06825,79.07033,PM2.5,42,140,73
India,TamilNadu,Ariyalur,"Keelapalur, Ariyalur - TNPCB",11-09-2025 07:00:00,11.06825,79.07033,PM10,45,80,58
India,TamilNadu,Chengalpattu,"Crescent University, Chengalpattu - TNPCB",11-09-2025 07:00:00,12.8777316,80.0834807,PM10,30,58,45
India,TamilNadu,Chengalpattu,"Crescent University, Chengalpattu - TNPCB",11-09-2025 07:00:00,12.8777316,80.0834807,NH3,1,4,2
India,TamilNadu,Chennai,"Alandur Bus Depot, Chennai - CPCB",11-09-2025 07:00:00,12.9099161,80.1076538,PM10,49,64,52
India,TamilNadu,Chennai,"Alandur Bus Depot, Chennai - CPCB",11-09-2025 07:00:00,12.9099161,80.1076538,SO2,15,16,15
India,TamilNadu,Chennai,"Alandur Bus Depot, Chennai - CPCB",11-09-2025 07:00:00,12.9099161,80.1076538,OZONE,3,21,7
India,TamilNadu,Chennai,"Arumbakkam, Chennai - TNPCB",11-09-2025 07:00:00,13.0664,80.2112 ,NH3,2,4,3
India,TamilNadu,Chennai,"Kodungaiyur, Chennai - TNPCB",11-09-2025 07:00:00,13.1278,80.2642,SO2,1,5,2
India,TamilNadu,Coimbatore,"PSG College of Arts and Science, Coimbatore - TNPCB",11-09-2025 07:00:00,11.0328,77.0349,NH3,1,2,1
India,TamilNadu,Coimbatore,"PSG College of Arts and Science, Coimbatore - TNPCB",11-09-2025 07:00:00,11.0328,77.0349,SO2,NA,NA,NA
India,TamilNadu,Coimbatore,"SIDCO Kurichi, Coimbatore - TNPCB",11-09-2025 07:00:00,10.942451,76.978996,NO2,7,9,8
India,TamilNadu,Cuddalore,"Kudikadu, Cuddalore - TNPCB",11-09-2025 07:00:00,11.6829898,79.7532099,NO2,19,19,19
India,TamilNadu,Cuddalore,"Semmandalam, Cuddalore - TNPCB",11-09-2025 07:00:00,11.7637683,79.7499835,PM10,1,31,15
India,TamilNadu,Cuddalore,"Semmandalam, Cuddalore - TNPCB",11-09-2025 07:00:00,11.7637683,79.7499835,NO2,1,9,4
India,TamilNadu,Dindigul,"Mendonsa Colony, Dindigul - TNPCB",11-09-2025 07:00:00,10.358535,77.984321,PM10,5,61,35
India,TamilNadu,Dindigul,"Mendonsa Colony, Dindigul - TNPCB",11-09-2025 07:00:00,10.358535,77.984321,OZONE,6,44,26
India,TamilNadu,Gummidipoondi,"Anthoni Pillai Nagar, Gummidipoondi - TNPCB",11-09-2025 07:00:00,13.4127,80.1081,NO2,1,13,4
India,TamilNadu,Gummidipoondi,"Anthoni Pillai Nagar, Gummidipoondi - TNPCB",11-09-2025 07:00:00,13.4127,80.1081,NH3,2,11,5
India,Rajasthan,Jodhpur,"Mandor, Jodhpur - RSPCB",11-09-2025 07:00:00,26.358805,73.047444,PM2.5,30,50,40
India,Rajasthan,Jodhpur,"Mandor, Jodhpur - RSPCB",11-09-2025 07:00:00,26.358805,73.047444,PM10,52,82,67
India,Rajasthan,Jodhpur,"Samrat Ashok Udhyan, Jodhpur - RSPCB",11-09-2025 07:00:00,26.253384,72.976571,NH3,2,4,4
India,Rajasthan,Jodhpur,"Samrat Ashok Udhyan, Jodhpur - RSPCB",11-09-2025 07:00:00,26.253384,72.976571,SO2,2,10,3
India,Rajasthan,Jodhpur,"Samrat Ashok Udhyan, Jodhpur - RSPCB",11-09-2025 07:00:00,26.253384,72.976571,CO,12,34,13
India,Rajasthan,Karauli,"Satyawati Vihar, Karauli - RSPCB",11-09-2025 07:00:00,26.506177,77.025989,PM10,64,110,76
India,Rajasthan,Karauli,"Satyawati Vihar, Karauli - RSPCB",11-09-2025 07:00:00,26.506177,77.025989,OZONE,2,16,5
India,Rajasthan,Kota,"Dhanmandi, Kota - RSPCB",11-09-2025 07:00:00,25.164090,75.858137,PM2.5,NA,NA,NA
India,Rajasthan,Kota,"Dhanmandi, Kota - RSPCB",11-09-2025 07:00:00,25.164090,75.858137,NO2,NA,NA,NA
India,Rajasthan,Kota,"Dhanmandi, Kota - RSPCB",11-09-2025 07:00:00,25.164090,75.858137,CO,NA,NA,NA
India,Rajasthan,Kota,"Nayapura, Kota - RSPCB",11-09-2025 07:00:00,25.196024,75.855668,PM2.5,18,52,34
India,Rajasthan,Kota,"Nayapura, Kota - RSPCB",11-09-2025 07:00:00,25.196024,75.855668,NO2,9,38,17
India,Rajasthan,Sikar,"Radhakishan Pura, Sikar - RSPCB",11-09-2025 07:00:00,27.608912,75.153302,NO2,8,28,13
India,Rajasthan,Sikar,"Radhakishan Pura, Sikar - RSPCB",11-09-2025 07:00:00,27.608912,75.153302,SO2,1,5,3
India,Rajasthan,Sirohi,"Vedhaynath Colony, Sirohi - RSPCB",11-09-2025 07:00:00,24.885261,72.857549,NO2,3,20,9
India,Rajasthan,Sirohi,"Vedhaynath Colony, Sirohi - RSPCB",11-09-2025 07:00:00,24.885261,72.857549,OZONE,15,52,24
India,Rajasthan,Sri Ganganagar,"Old City, Sri Ganganagar - RSPCB",11-09-2025 07:00:00,29.931624,73.864511,PM2.5,20,167,47
India,Rajasthan,Sri Ganganagar,"Old City, Sri Ganganagar - RSPCB",11-09-2025 07:00:00,29.931624,73.864511,PM10,24,153,58
India,Rajasthan,Sri Ganganagar,"Old City, Sri Ganganagar - RSPCB",11-09-2025 07:00:00,29.931624,73.864511,NO2,13,62,33
India,Rajasthan,Sri Ganganagar,"Old City, Sri Ganganagar - RSPCB",11-09-2025 07:00:00,29.931624,73.864511,SO2,1,23,11
India,Rajasthan,Tonk,"Shastri Nagar, Tonk - RSPCB",11-09-2025 07:00:00,26.159933,75.780517,PM2.5,50,98,65
India,Rajasthan,Udaipur,"Ashok Nagar, Udaipur - RSPCB",11-09-2025 07:00:00,24.5886166,73.6321397,NO2,8,55,28
India,Rajasthan,Kota,"Shrinath Puram, Kota - RSPCB",11-09-2025 07:00:00,25.14389,75.821256,NH3,1,2,1
India,Rajasthan,Nagaur,"Karni Colony, Nagaur - RSPCB",11-09-2025 07:00:00,27.213494,73.734444,PM2.5,15,42,28
India,Rajasthan,Nagaur,"Karni Colony, Nagaur - RSPCB",11-09-2025 07:00:00,27.213494,73.734444,PM10,49,121,81
India,Rajasthan,Pali,"Indira Colony Vistar, Pali - RSPCB",11-09-2025 07:00:00,25.771061, 73.340227,PM2.5,4,97,57
India,Rajasthan,Pratapgarh,"Pragati Nagar, Pratapgarh - RSPCB",11-09-2025 07:00:00,24.041198,74.780702,PM10,42,168,103
India,Rajasthan,Pratapgarh,"Pragati Nagar, Pratapgarh - RSPCB",11-09-2025 07:00:00,24.041198,74.780702,CO,10,22,11
India,Rajasthan,Rajsamand,"Dhoinda, Rajsamand - RSPCB",11-09-2025 07:00:00,25.036360,73.883502,NO2,4,26,11
India,Rajasthan,Jalore,"Mudtra Sili, Jalore - RSPCB",11-09-2025 07:00:00,25.344694,72.626208,NO2,2,28,12
India,Rajasthan,Jalore,"Mudtra Sili, Jalore - RSPCB",11-09-2025 07:00:00,25.344694,72.626208,OZONE,26,48,42
India,Rajasthan,Jhalawar,"Rajlaxmi Nagar, Jhalawar - RSPCB",11-09-2025 07:00:00,24.588397,76.172782,NO2,25,43,34
India,Rajasthan,Jhalawar,"Rajlaxmi Nagar, Jhalawar - RSPCB",11-09-2025 07:00:00,24.588397,76.172782,SO2,7,9,8
India,Rajasthan,Jhalawar,"Rajlaxmi Nagar, Jhalawar - RSPCB",11-09-2025 07:00:00,24.588397,76.172782,OZONE,28,88,47
India,Rajasthan,Jhunjhunu,"Indra Nagar, Jhunjhunu - RSPCB",11-09-2025 07:00:00,28.108988,75.386577,SO2,NA,NA,NA
India,Rajasthan,Jodhpur,"Jhalamand, Jodhpur - RSPCB",11-09-2025 07:00:00,26.215415,73.070156,PM10,36,120,85
India,TamilNadu,Chennai,"Manali, Chennai - CPCB",11-09-2025 07:00:00,13.164544,80.26285,SO2,6,20,15
India,TamilNadu,Chennai,"Manali, Chennai - CPCB",11-09-2025 07:00:00,13.164544,80.26285,CO,18,106,30
India,TamilNadu,Chennai,"Manali, Chennai - CPCB",11-09-2025 07:00:00,13.164544,80.26285,OZONE,27,34,28
India,TamilNadu,Chennai,"Perungudi, Chennai - TNPCB",11-09-2025 07:00:00,12.9533,80.2357,NH3,6,7,6
India,TamilNadu,Chennai,"Royapuram, Chennai - TNPCB",11-09-2025 07:00:00,13.1036,80.2909,OZONE,NA,NA,NA
India,TamilNadu,Chennai,"Velachery Res. Area, Chennai - CPCB",11-09-2025 07:00:00,13.0052189,80.2398125,PM10,44,89,62
India,TamilNadu,Chennai,"Velachery Res. Area, Chennai - CPCB",11-09-2025 07:00:00,13.0052189,80.2398125,CO,47,66,62
India,Rajasthan,Dholpur,"Raja Ganj, Dholpur - RSPCB",11-09-2025 07:00:00,26.699557,77.898881,PM2.5,31,59,41
India,Rajasthan,Dungarpur,"Bhoiwada, Dungarpur - RSPCB",11-09-2025 07:00:00,23.837789,73.714926,NH3,2,25,6
India,Rajasthan,Dungarpur,"Bhoiwada, Dungarpur - RSPCB",11-09-2025 07:00:00,23.837789,73.714926,CO,10,16,13
India,Rajasthan,Jaipur,"Adarsh Nagar, Jaipur - RSPCB",11-09-2025 07:00:00,26.902909,75.836858,PM10,NA,NA,NA
India,Rajasthan,Jaipur,"Adarsh Nagar, Jaipur - RSPCB",11-09-2025 07:00:00,26.902909,75.836858,CO,NA,NA,NA
India,Rajasthan,Jaipur,"Adarsh Nagar, Jaipur - RSPCB",11-09-2025 07:00:00,26.902909,75.836858,OZONE,NA,NA,NA
India,Rajasthan,Jaipur,"Mansarovar Sector-12, Jaipur - RSPCB",11-09-2025 07:00:00,26.843698,75.766894,OZONE,36,89,54
India,Rajasthan,Jaipur,"Police Commissionerate, Jaipur - RSPCB",11-09-2025 07:00:00,26.9164092,75.7994901,PM10,64,116,93
India,Rajasthan,Jaipur,"Shastri Nagar, Jaipur - RSPCB",11-09-2025 07:00:00,26.9502929,75.730943,OZONE,18,27,22
India,Rajasthan,Jaisalmer,"Sadar Bazar, Jaisalmer - RSPCB",11-09-2025 07:00:00,26.912329,70.909168,SO2,1,8,2
India,Uttar_Pradesh,Agra,"Shahjahan Garden, Agra - UPPCB",11-09-2025 07:00:00,27.169338,78.03582,NH3,1,1,1
India,Uttar_Pradesh,Agra,"Shahjahan Garden, Agra - UPPCB",11-09-2025 07:00:00,27.169338,78.03582,OZONE,2,27,7
India,Uttar_Pradesh,Agra,"Shastripuram, Agra - UPPCB",11-09-2025 07:00:00,27.19862,77.92066,NH3,3,3,3
India,Uttar_Pradesh,Agra,"Shastripuram, Agra - UPPCB",11-09-2025 07:00:00,27.19862,77.92066,CO,9,16,11
India,Uttar_Pradesh,Baghpat,"Sardar Patel Inter College, Baghpat - UPPCB",11-09-2025 07:00:00,28.964949,77.278761,PM2.5,NA,NA,NA
India,Uttar_Pradesh,Baghpat,"Sardar Patel Inter College, Baghpat - UPPCB",11-09-2025 07:00:00,28.964949,77.278761,SO2,NA,NA,NA
India,Uttar_Pradesh,Baghpat,"Sardar Patel Inter College, Baghpat - UPPCB",11-09-2025 07:00:00,28.964949,77.278761,OZONE,36,93,38
India,Uttar_Pradesh,Bareilly,"Civil Lines, Bareilly - UPPCB",11-09-2025 07:00:00,28.359581,79.414455,PM10,9,17,12
India,Uttar_Pradesh,Bareilly,"Civil Lines, Bareilly - UPPCB",11-09-2025 07:00:00,28.359581,79.414455,SO2,26,50,37
India,Uttar_Pradesh,Bareilly,"Civil Lines, Bareilly - UPPCB",11-09-2025 07:00:00,28.359581,79.414455,CO,4,10,6
India,TamilNadu,Ooty,"Bombay Castel, Ooty - TNPCB",11-09-2025 07:00:00,11.4068288,76.7138973,PM10,23,74,47
India,TamilNadu,Ooty,"Bombay Castel, Ooty - TNPCB",11-09-2025 07:00:00,11.4068288,76.7138973,NO2,2,4,3
India,TamilNadu,Ooty,"Bombay Castel, Ooty - TNPCB",11-09-2025 07:00:00,11.4068288,76.7138973,OZONE,5,6,5
India,TamilNadu,Palkalaiperur,"Bharathidasan University, Palkalaiperur - TNPCB",11-09-2025 07:00:00,10.681158,78.741746,NO2,7,7,7
India,TamilNadu,Perundurai,"SIPCOT Industrial Park, Perundurai - TNPCB",11-09-2025 07:00:00,11.258242,77.552761,NO2,7,8,7
India,TamilNadu,Pudukottai,"SIPCOT Nathampannai, Pudukottai - TNPCB",11-09-2025 07:00:00,10.423417,78.784889,NH3,2,3,3
India,TamilNadu,Ramanathapuram,"Chalai Bazaar, Ramanathapuram - TNPCB",11-09-2025 07:00:00,9.36399,78.831977,PM2.5,18,51,31
India,TamilNadu,Ramanathapuram,"Chalai Bazaar, Ramanathapuram - TNPCB",11-09-2025 07:00:00,9.36399,78.831977,CO,23,26,24
India,TamilNadu,Salem,"Sona College of Technology, Salem - TNPCB",11-09-2025 07:00:00,11.679111,78.125052,NO2,NA,NA,NA
India,TamilNadu,Salem,"Sona College of Technology, Salem - TNPCB",11-09-2025 07:00:00,11.679111,78.125052,SO2,NA,NA,NA
India,TamilNadu,Salem,"Sona College of Technology, Salem - TNPCB",11-09-2025 07:00:00,11.679111,78.125052,CO,NA,NA,NA
India,TamilNadu,Thanjavur,"Parisutham Nagar, Thanjavur - TNPCB",11-09-2025 07:00:00,10.7654824,79.1389968,NO2,3,3,3
India,TamilNadu,Tiruchirappalli,"St Joseph College, Tiruchirappalli - TNPCB",11-09-2025 07:00:00,10.830158,78.691849,PM2.5,47,92,65
India,TamilNadu,Tiruchirappalli,"St Joseph College, Tiruchirappalli - TNPCB",11-09-2025 07:00:00,10.830158,78.691849,SO2,16,16,16
India,TamilNadu,Tirunelveli,"Municipal Corporation Office, Tirunelveli - TNPCB",11-09-2025 07:00:00,8.728442,77.6962,PM10,21,43,31
India,TamilNadu,Tirunelveli,"Municipal Corporation Office, Tirunelveli - TNPCB",11-09-2025 07:00:00,8.728442,77.6962,NH3,1,3,1
India,TamilNadu,Tirunelveli,"Municipal Corporation Office, Tirunelveli - TNPCB",11-09-2025 07:00:00,8.728442,77.6962,SO2,16,20,19
India,Telangana,Hyderabad,"Nacharam_TSIIC IALA, Hyderabad - TSPCB",11-09-2025 07:00:00,17.429398,78.569354,CO,28,44,43
India,Telangana,Hyderabad,"New Malakpet, Hyderabad - TSPCB",11-09-2025 07:00:00,17.37206,78.50864,SO2,13,17,15
India,Telangana,Hyderabad,"New Malakpet, Hyderabad - TSPCB",11-09-2025 07:00:00,17.37206,78.50864,CO,18,336,336
India,Telangana,Hyderabad,"Sanathnagar, Hyderabad - TSPCB",11-09-2025 07:00:00,17.4559458,78.4332152,SO2,2,9,4
India,Telangana,Hyderabad,"Somajiguda, Hyderabad - TSPCB",11-09-2025 07:00:00,17.417094,78.457437,NO2,8,9,9
India,Telangana,Hyderabad,"Somajiguda, Hyderabad - TSPCB",11-09-2025 07:00:00,17.417094,78.457437,SO2,19,39,25
India,Telangana,Hyderabad,"Somajiguda, Hyderabad - TSPCB",11-09-2025 07:00:00,17.417094,78.457437,CO,24,60,31
India,Tripura,Agartala,"Bardowali, Agartala - Tripura SPCB",11-09-2025 07:00:00,23.8175497,91.2726974,PM2.5,4,24,14
India,TamilNadu,Virudhunagar,"Collectorate Office, Virudhunagar - TNPCB",11-09-2025 07:00:00,9.559382,77.948828,PM2.5,32,55,42
India,TamilNadu,Virudhunagar,"Collectorate Office, Virudhunagar - TNPCB",11-09-2025 07:00:00,9.559382,77.948828,PM10,36,63,48
India,Telangana,Hyderabad,"Bollaram Industrial Area, Hyderabad - TSPCB",11-09-2025 07:00:00,17.540891,78.358528,CO,22,48,26
India,Telangana,Hyderabad,"Central University, Hyderabad - TSPCB",11-09-2025 07:00:00,17.460103,78.334361,PM10,NA,NA,NA
India,Telangana,Hyderabad,"ECIL Kapra, Hyderabad - TSPCB",11-09-2025 07:00:00,17.470431,78.566959,SO2,7,24,13
India,Telangana,Hyderabad,"ICRISAT Patancheru, Hyderabad - TSPCB",11-09-2025 07:00:00,17.518400,78.278777,NO2,5,14,8
India,Uttar_Pradesh,Bareilly,"Rajendra Nagar, Bareilly - UPPCB",11-09-2025 07:00:00,28.38910936,79.42963708,SO2,46,47,47
India,Uttar_Pradesh,Bulandshahr,"Yamunapuram, Bulandshahr - UPPCB",11-09-2025 07:00:00,28.406963,77.849831,NO2,13,47,25
India,Uttar_Pradesh,Firozabad,"Nagla Bhau, Firozabad - UPPCB",11-09-2025 07:00:00,27.168897,78.376960,PM10,27,67,43
India,Uttar_Pradesh,Firozabad,"Nagla Bhau, Firozabad - UPPCB",11-09-2025 07:00:00,27.168897,78.376960,NO2,17,17,17
India,Uttar_Pradesh,Firozabad,"Vibhab Nagar, Firozabad - UPPCB",11-09-2025 07:00:00,27.1594,78.3953,PM10,NA,NA,NA
India,Uttar_Pradesh,Ghaziabad,"Indirapuram, Ghaziabad - UPPCB",11-09-2025 07:00:00,28.646233,77.358075,CO,1,186,104
India,Tripura,Agartala,"Bardowali, Agartala - Tripura SPCB",11-09-2025 07:00:00,23.8175497,91.2726974,PM10,8,19,15
India,Tripura,Agartala,"Bardowali, Agartala - Tripura SPCB",11-09-2025 07:00:00,23.8175497,91.2726974,SO2,26,26,26
India,Tripura,Agartala,"Bardowali, Agartala - Tripura SPCB",11-09-2025 07:00:00,23.8175497,91.2726974,OZONE,6,6,6
India,Uttar_Pradesh,Agra,"Manoharpur, Agra - UPPCB",11-09-2025 07:00:00,27.23711,78.01936,NH3,1,2,1
India,Uttar_Pradesh,Agra,"Rohta, Agra - UPPCB",11-09-2025 07:00:00,27.106972,78.000111,CO,20,30,24
India,Uttar_Pradesh,Agra,"Sector-3B Avas Vikas Colony, Agra - UPPCB",11-09-2025 07:00:00,27.19412,77.96237,NO2,20,23,22
India,TamilNadu,Karur,"Kamadenu Nagar, Karur - TNPCB",11-09-2025 07:00:00,10.967820,78.080882,SO2,14,16,15
India,TamilNadu,Madurai,"Uchapatti, Madurai - TNPCB",11-09-2025 07:00:00,9.865935,78.022669,NH3,4,4,4
India,TamilNadu,Madurai,"Uchapatti, Madurai - TNPCB",11-09-2025 07:00:00,9.865935,78.022669,CO,18,24,23
India,TamilNadu,Nagapattinam,"Velippalayam, Nagapattinam - TNPCB",11-09-2025 07:00:00,10.798548,79.838212,NO2,5,5,5
India,TamilNadu,Nagapattinam,"Velippalayam, Nagapattinam - TNPCB",11-09-2025 07:00:00,10.798548,79.838212,SO2,3,10,6
India,Telangana,Hyderabad,"Kokapet, Hyderabad - TSPCB",11-09-2025 07:00:00,17.393559,78.339194,NO2,12,16,14
India,Telangana,Hyderabad,"Nacharam_TSIIC IALA, Hyderabad - TSPCB",11-09-2025 07:00:00,17.429398,78.569354,SO2,15,20,16
India,Uttarakhand,Dehradun,"Doon University, Dehradun - UKPCB",11-09-2025 07:00:00,30.269444,78.044167,CO,10,20,13
India,Uttarakhand,Kashipur,"Govt. Girls Inter College, Kashipur - UKPCB",11-09-2025 07:00:00,29.2124114,78.9611753,PM10,28,54,42
India,Uttarakhand,Rishikesh,"Shivaji Nagar, Rishikesh - UKPCB",11-09-2025 07:00:00,30.075911,78.2859547,PM2.5,21,56,33
India,Uttarakhand,Rishikesh,"Shivaji Nagar, Rishikesh - UKPCB",11-09-2025 07:00:00,30.075911,78.2859547,SO2,3,3,3
India,West_Bengal,Asansol,"Asansol Court Area, Asansol - WBPCB",11-09-2025 07:00:00,23.685297,86.945968,NO2,25,45,33
India,West_Bengal,Asansol,"Asansol Court Area, Asansol - WBPCB",11-09-2025 07:00:00,23.685297,86.945968,SO2,10,17,13
India,West_Bengal,Asansol,"Asansol Court Area, Asansol - WBPCB",11-09-2025 07:00:00,23.685297,86.945968,CO,26,76,50
India,West_Bengal,Asansol,"Evelyn Lodge, Asansol - WBPCB",11-09-2025 07:00:00,23.6979360,86.9443950,PM10,57,103,78
India,Uttar_Pradesh,Moradabad,"Buddhi Vihar, Moradabad - UPPCB",11-09-2025 07:00:00,28.83526,78.74460,SO2,27,101,50
India,Uttar_Pradesh,Moradabad,"Buddhi Vihar, Moradabad - UPPCB",11-09-2025 07:00:00,28.83526,78.74460,OZONE,16,304,21
India,Uttar_Pradesh,Moradabad,"Eco Herbal Park, Moradabad - UPPCB",11-09-2025 07:00:00,28.840739,78.697531,NO2,7,11,10
India,Uttar_Pradesh,Moradabad,"Eco Herbal Park, Moradabad - UPPCB",11-09-2025 07:00:00,28.840739,78.697531,NH3,2,3,3
India,Uttar_Pradesh,Moradabad,"Employment Office, Moradabad - UPPCB",11-09-2025 07:00:00,28.88528,78.73880,CO,13,54,18
India,Uttar_Pradesh,Moradabad,"Employment Office, Moradabad - UPPCB",11-09-2025 07:00:00,28.88528,78.73880,OZONE,19,39,23
India,Uttar_Pradesh,Moradabad,"Jigar Colony, Moradabad - UPPCB",11-09-2025 07:00:00,28.856664,78.772638,PM10,43,81,59
India,Uttar_Pradesh,Moradabad,"Jigar Colony, Moradabad - UPPCB",11-09-2025 07:00:00,28.856664,78.772638,OZONE,18,22,19
India,Uttar_Pradesh,Moradabad,"Kashiram Nagar, Moradabad - UPPCB",11-09-2025 07:00:00,28.849399,78.742362,PM10,43,88,68
India,Uttar_Pradesh,Noida,"Sector-1, Noida - UPPCB",11-09-2025 07:00:00,28.5898,77.3101,OZONE,9,42,17
India,Uttar_Pradesh,Noida,"Sector-116, Noida - UPPCB",11-09-2025 07:00:00,28.569230,77.393848,NO2,NA,NA,NA
India,Uttar_Pradesh,Prayagraj,"Jhunsi, Prayagraj - UPPCB",11-09-2025 07:00:00,25.425602,81.917152,NH3,5,5,5
India,Uttar_Pradesh,Prayagraj,"Jhunsi, Prayagraj - UPPCB",11-09-2025 07:00:00,25.425602,81.917152,CO,6,20,11
India,Uttar_Pradesh,Prayagraj,"Motilal Nehru NIT, Prayagraj - UPPCB",11-09-2025 07:00:00,25.494,81.863,PM10,25,47,37
India,Uttar_Pradesh,Prayagraj,"Motilal Nehru NIT, Prayagraj - UPPCB",11-09-2025 07:00:00,25.494,81.863,NO2,12,12,12
India,Uttar_Pradesh,Prayagraj,"Motilal Nehru NIT, Prayagraj - UPPCB",11-09-2025 07:00:00,25.494,81.863,NH3,8,8,8
India,Uttar_Pradesh,Prayagraj,"Motilal Nehru NIT, Prayagraj - UPPCB",11-09-2025 07:00:00,25.494,81.863,OZONE,12,65,19
India,Uttar_Pradesh,Prayagraj,"Nagar Nigam, Prayagraj - UPPCB",11-09-2025 07:00:00,25.44919916 ,81.82735986 ,PM10,36,100,68
India,Uttar_Pradesh,Moradabad,"Kashiram Nagar, Moradabad - UPPCB",11-09-2025 07:00:00,28.849399,78.742362,NO2,25,25,25
India,Uttar_Pradesh,Moradabad,"Transport Nagar, Moradabad - UPPCB",11-09-2025 07:00:00,28.802625,78.753728,PM10,56,98,75
India,Uttar_Pradesh,Moradabad,"Transport Nagar, Moradabad - UPPCB",11-09-2025 07:00:00,28.802625,78.753728,NH3,5,6,5
India,Uttar_Pradesh,Moradabad,"Transport Nagar, Moradabad - UPPCB",11-09-2025 07:00:00,28.802625,78.753728,CO,22,52,49
India,Uttar_Pradesh,Muzaffarnagar,"New Mandi, Muzaffarnagar - UPPCB",11-09-2025 07:00:00,29.4723508,77.7194031,CO,28,52,33
India,Uttar_Pradesh,Noida,"Sector - 125, Noida - UPPCB",11-09-2025 07:00:00,28.5447608,77.3231257,NH3,9,11,10
India,Uttar_Pradesh,Noida,"Sector - 125, Noida - UPPCB",11-09-2025 07:00:00,28.5447608,77.3231257,SO2,8,19,13
India,Uttar_Pradesh,Noida,"Sector - 62, Noida - IMD",11-09-2025 07:00:00,28.6245479,77.3577104,CO,8,29,21
India,Uttar_Pradesh,Lucknow,"Kukrail Picnic Spot-1, Lucknow - UPPCB",11-09-2025 07:00:00,26.90723,80.98579,CO,16,32,18
India,Uttar_Pradesh,Lucknow,"Lalbagh, Lucknow - CPCB",11-09-2025 07:00:00,26.8458805,80.9365541,SO2,1,72,10
India,Uttar_Pradesh,Lucknow,"Talkatora District Industries Center, Lucknow - CPCB",11-09-2025 07:00:00,26.83399722,80.8917361,PM10,39,59,48
India,Uttar_Pradesh,Lucknow,"Talkatora District Industries Center, Lucknow - CPCB",11-09-2025 07:00:00,26.83399722,80.8917361,SO2,NA,NA,NA
India,Uttar_Pradesh,Lucknow,"Talkatora District Industries Center, Lucknow - CPCB",11-09-2025 07:00:00,26.83399722,80.8917361,CO,NA,NA,NA
India,Uttar_Pradesh,Meerut,"Ganga Nagar, Meerut - UPPCB",11-09-2025 07:00:00,28.999264,77.7590354,OZONE,31,86,42
India,Uttar_Pradesh,Meerut,"Pallavpuram Phase 2, Meerut - UPPCB",11-09-2025 07:00:00,29.063510,77.709723,PM10,56,85,70
India,Uttar_Pradesh,Kanpur,"Nehru Nagar, Kanpur - UPPCB",11-09-2025 07:00:00,26.4703136,80.3229863,PM10,32,60,44
India,Uttar_Pradesh,Khurja,"Kalindi Kunj, Khurja - UPPCB",11-09-2025 07:00:00,28.2348927,77.8683002,PM10,NA,NA,NA
India,Uttar_Pradesh,Khurja,"Kalindi Kunj, Khurja - UPPCB",11-09-2025 07:00:00,28.2348927,77.8683002,NH3,NA,NA,NA
India,Uttar_Pradesh,Khurja,"Kalindi Kunj, Khurja - UPPCB",11-09-2025 07:00:00,28.2348927,77.8683002,CO,NA,NA,NA
India,Uttar_Pradesh,Lucknow,"B R Ambedkar University, Lucknow - UPPCB",11-09-2025 07:00:00,26.766433,80.927299,SO2,5,5,5
India,Uttar_Pradesh,Lucknow,"Gomti Nagar, Lucknow - UPPCB",11-09-2025 07:00:00,26.868120,81.005119,OZONE,40,47,41
India,Uttar_Pradesh,Lucknow,"Kendriya Vidyalaya, Lucknow - CPCB",11-09-2025 07:00:00,26.906111,80.948222,CO,18,61,40
India,Uttar_Pradesh,Ghaziabad,"Sanjay Nagar, Ghaziabad - UPPCB",11-09-2025 07:00:00,28.685382,77.453839,PM10,75,336,125
India,Uttar_Pradesh,Ghaziabad,"Vasundhara, Ghaziabad - UPPCB",11-09-2025 07:00:00,28.6603346,77.3572563,CO,32,54,37
India,Uttar_Pradesh,Gorakhpur,"Madan Mohan Malaviya University of Technology, Gorakhpur - UPPCB",11-09-2025 07:00:00,26.730136,83.433859,NO2,11,12,11
India,Uttar_Pradesh,Gorakhpur,"Madan Mohan Malaviya University of Technology, Gorakhpur - UPPCB",11-09-2025 07:00:00,26.730136,83.433859,SO2,23,24,24
India,Uttar_Pradesh,Gorakhpur,"Madan Mohan Malaviya University of Technology, Gorakhpur - UPPCB",11-09-2025 07:00:00,26.730136,83.433859,CO,5,6,6
India,Uttar_Pradesh,Greater Noida,"Knowledge Park - III, Greater Noida - UPPCB",11-09-2025 07:00:00,28.47272,77.482000,NO2,16,41,26
India,Uttar_Pradesh,Varanasi,"Ardhali Bazar, Varanasi - UPPCB",11-09-2025 07:00:00,25.3505986,82.9083074,SO2,17,19,18
India,Uttar_Pradesh,Varanasi,"Bhelupur, Varanasi - UPPCB",11-09-2025 07:00:00,25.301778,82.996789,PM2.5,22,72,43
India,Uttar_Pradesh,Varanasi,"IESD Banaras Hindu University, Varanasi - UPPCB",11-09-2025 07:00:00,25.262326,82.995408,SO2,48,73,66
India,Uttar_Pradesh,Varanasi,"IESD Banaras Hindu University, Varanasi - UPPCB",11-09-2025 07:00:00,25.262326,82.995408,OZONE,8,22,9
India,Uttar_Pradesh,Varanasi,"Maldahiya, Varanasi - UPPCB",11-09-2025 07:00:00,25.32393,82.99687,NO2,2,2,2
India,Uttar_Pradesh,Vrindavan,"Omex Eternity, Vrindavan - UPPCB",11-09-2025 07:00:00,27.5714090,77.6557570,PM10,28,96,61
India,Uttar_Pradesh,Hapur,"Anand Vihar, Hapur - UPPCB",11-09-2025 07:00:00,28.725645,77.749675,PM10,40,70,58
India,Uttar_Pradesh,Hapur,"Anand Vihar, Hapur - UPPCB",11-09-2025 07:00:00,28.725645,77.749675,NH3,5,12,8
India,Uttar_Pradesh,Hapur,"Anand Vihar, Hapur - UPPCB",11-09-2025 07:00:00,28.725645,77.749675,OZONE,11,151,13
India,Uttar_Pradesh,Kanpur,"FTI Kidwai Nagar, Kanpur - UPPCB",11-09-2025 07:00:00,26.428282,80.327067,SO2,27,33,30
India,Uttar_Pradesh,Kanpur,"Nehru Nagar, Kanpur - UPPCB",11-09-2025 07:00:00,26.4703136,80.3229863,PM2.5,35,67,49
India,West_Bengal,Asansol,"Mahabir Colliery, Asansol - WBPCB",11-09-2025 07:00:00,23.6181830,87.1057180,NH3,1,10,5
India,West_Bengal,Asansol,"Mahabir Colliery, Asansol - WBPCB",11-09-2025 07:00:00,23.6181830,87.1057180,CO,32,74,38
India,West_Bengal,Asansol,"Trivenidevi Bhalotia College, Asansol - WBPCB",11-09-2025 07:00:00,23.616515,87.119133,PM2.5,32,99,62
India,West_Bengal,Asansol,"Trivenidevi Bhalotia College, Asansol - WBPCB",11-09-2025 07:00:00,23.616515,87.119133,PM10,32,104,65
India,West_Bengal,Asansol,"Trivenidevi Bhalotia College, Asansol - WBPCB",11-09-2025 07:00:00,23.616515,87.119133,NO2,11,39,19
India,West_Bengal,Asansol,"Trivenidevi Bhalotia College, Asansol - WBPCB",11-09-2025 07:00:00,23.616515,87.119133,CO,56,100,61
India,West_Bengal,Barrackpore,"SVSPA Campus, Barrackpore - WBPCB",11-09-2025 07:00:00,22.7605581,88.3617589,OZONE,3,32,5
India,West_Bengal,Durgapur,"Mahishkapur Road_B-Zone, Durgapur - WBPCB",11-09-2025 07:00:00,23.567923,87.306843,PM2.5,21,49,39
India,West_Bengal,Durgapur,"Womens College_City Center, Durgapur - WBPCB (Formerly known as Sidhu Kanhu Indoor Stadium)",11-09-2025 07:00:00,23.549395,87.300496,PM10,36,103,78
India,West_Bengal,Durgapur,"Womens College_City Center, Durgapur - WBPCB (Formerly known as Sidhu Kanhu Indoor Stadium)",11-09-2025 07:00:00,23.549395,87.300496,NH3,1,2,2
India,West_Bengal,Durgapur,"Womens College_City Center, Durgapur - WBPCB (Formerly known as Sidhu Kanhu Indoor Stadium)",11-09-2025 07:00:00,23.549395,87.300496,OZONE,7,34,10
India,West_Bengal,Haldia,"Priyambada Housing Estate, Haldia - WBPCB",11-09-2025 07:00:00,22.06047,88.109737,SO2,12,20,14
India,West_Bengal,Howrah,"Belur Math, Howrah - WBPCB",11-09-2025 07:00:00,22.629801,88.352017,PM2.5,13,31,22
India,West_Bengal,Howrah,"Belur Math, Howrah - WBPCB",11-09-2025 07:00:00,22.629801,88.352017,NH3,2,10,4
India,West_Bengal,Howrah,"Dasnagar, Howrah - WBPCB",11-09-2025 07:00:00,22.6025571,88.3105664,PM2.5,6,129,40
India,West_Bengal,Howrah,"Ghusuri, Howrah - WBPCB",11-09-2025 07:00:00,22.611968,88.347422,NH3,9,10,10
India,West_Bengal,Howrah,"Ghusuri, Howrah - WBPCB",11-09-2025 07:00:00,22.611968,88.347422,CO,9,18,10
India,West_Bengal,Kolkata,"Ballygunge, Kolkata - WBPCB",11-09-2025 07:00:00,22.5367507,88.3638022,NO2,27,64,47
India,West_Bengal,Kolkata,"Ballygunge, Kolkata - WBPCB",11-09-2025 07:00:00,22.5367507,88.3638022,NH3,7,8,8
India,West_Bengal,Kolkata,"Ballygunge, Kolkata - WBPCB",11-09-2025 07:00:00,22.5367507,88.3638022,CO,8,14,11
India,West_Bengal,Kolkata,"Fort William, Kolkata - WBPCB",11-09-2025 07:00:00,22.556640,88.342674,PM2.5,28,46,39
India,West_Bengal,Kolkata,"Jadavpur, Kolkata - WBPCB",11-09-2025 07:00:00,22.49929,88.36917,OZONE,10,34,11
India,West_Bengal,Kolkata,"Rabindra Bharati University, Kolkata - WBPCB",11-09-2025 07:00:00,22.627847,88.380669,SO2,12,19,16
India,West_Bengal,Kolkata,"Rabindra Sarobar, Kolkata - WBPCB",11-09-2025 07:00:00,22.51106,88.35142,PM10,27,45,34
India,West_Bengal,Kolkata,"Rabindra Sarobar, Kolkata - WBPCB",11-09-2025 07:00:00,22.51106,88.35142,OZONE,5,7,5
India,West_Bengal,Kolkata,"Victoria, Kolkata - WBPCB",11-09-2025 07:00:00,22.5448082,88.3403691,PM10,48,78,63
India,Assam,Guwahati,"Pan Bazaar, Guwahati - PCBA",11-09-2025 07:00:00,26.187500,91.744194,SO2,32,78,51
India,Assam,Guwahati,"Railway Colony, Guwahati - PCBA",11-09-2025 07:00:00,26.181742,91.78063,CO,24,46,28
India,Assam,Nagaon,"Christianpatty, Nagaon - PCBA",11-09-2025 07:00:00,26.349082,92.68449,NO2,1,1,1
India,Assam,Nalbari,"Bata Chowk, Nalbari - PCBA",11-09-2025 07:00:00,26.446912,91.439057,PM2.5,20,220,68
India,Assam,Nalbari,"Bata Chowk, Nalbari - PCBA",11-09-2025 07:00:00,26.446912,91.439057,PM10,23,137,64
India,Assam,Nalbari,"Bata Chowk, Nalbari - PCBA",11-09-2025 07:00:00,26.446912,91.439057,NH3,1,4,2
India,Assam,Silchar,"Tarapur, Silchar - PCBA",11-09-2025 07:00:00,24.82827,92.79525,NO2,12,15,14
India,Assam,Silchar,"Tarapur, Silchar - PCBA",11-09-2025 07:00:00,24.82827,92.79525,CO,21,34,30
India,Assam,Sivasagar,"Girls College, Sivasagar - PCBA",11-09-2025 07:00:00,26.987634,94.636574,PM10,36,61,46
India,Assam,Sivasagar,"Girls College, Sivasagar - PCBA",11-09-2025 07:00:00,26.987634,94.636574,SO2,7,13,9
India,Assam,Sivasagar,"Girls College, Sivasagar - PCBA",11-09-2025 07:00:00,26.987634,94.636574,OZONE,2,5,3
India,Andhra_Pradesh,Rajamahendravaram,"Anand Kala Kshetram, Rajamahendravaram - APPCB",11-09-2025 07:00:00,16.9872867,81.7363176,OZONE,9,11,10
India,Andhra_Pradesh,Tirumala,"Toll Gate, Tirumala - APPCB",11-09-2025 07:00:00,13.67,79.35,PM2.5,16,51,33
India,Andhra_Pradesh,Tirumala,"Toll Gate, Tirumala - APPCB",11-09-2025 07:00:00,13.67,79.35,NO2,9,19,14
India,Andhra_Pradesh,Tirumala,"Toll Gate, Tirumala - APPCB",11-09-2025 07:00:00,13.67,79.35,OZONE,12,28,20
India,Andhra_Pradesh,Tirupati,"Vaikuntapuram, Tirupati - APPCB",11-09-2025 07:00:00,13.615387,79.409230,PM2.5,49,295,87
India,Andhra_Pradesh,Tirupati,"Vaikuntapuram, Tirupati - APPCB",11-09-2025 07:00:00,13.615387,79.409230,PM10,44,152,71
India,Andhra_Pradesh,Vijayawada,"HB Colony, Vijayawada - APPCB",11-09-2025 07:00:00,16.536107,80.594233,PM2.5,60,83,72
India,Andhra_Pradesh,Vijayawada,"HB Colony, Vijayawada - APPCB",11-09-2025 07:00:00,16.536107,80.594233,SO2,22,23,23
India,Andhra_Pradesh,Vijayawada,"HB Colony, Vijayawada - APPCB",11-09-2025 07:00:00,16.536107,80.594233,CO,34,40,39
India,Andhra_Pradesh,Vijayawada,"Rajiv Gandhi Park, Vijayawada - APPCB",11-09-2025 07:00:00,16.509717,80.612222,PM10,40,76,50
India,Andhra_Pradesh,Visakhapatnam,"GVM Corporation, Visakhapatnam - APPCB",11-09-2025 07:00:00,17.72,83.3,PM2.5,48,220,95
India,Andhra_Pradesh,Visakhapatnam,"GVM Corporation, Visakhapatnam - APPCB",11-09-2025 07:00:00,17.72,83.3,PM10,58,500,203
India,Arunachal_Pradesh,Naharlagun,"Naharlagun, Naharlagun - APSPCB",11-09-2025 07:00:00,27.103358,93.679645,NO2,5,6,6
India,Arunachal_Pradesh,Naharlagun,"Naharlagun, Naharlagun - APSPCB",11-09-2025 07:00:00,27.103358,93.679645,SO2,8,8,8
India,Assam,Byrnihat,"Central Academy for SFS, Byrnihat - PCBA",11-09-2025 07:00:00,26.071318,91.87488,SO2,6,12,8
India,Assam,Guwahati,"IITG, Guwahati - PCBA",11-09-2025 07:00:00,26.2028636,91.70046436,PM10,27,97,52
India,Assam,Guwahati,"IITG, Guwahati - PCBA",11-09-2025 07:00:00,26.2028636,91.70046436,NH3,5,5,5
India,Assam,Guwahati,"LGBI Airport, Guwahati - PCBA",11-09-2025 07:00:00,26.10887,91.589544,PM2.5,NA,NA,NA
India,Assam,Guwahati,"LGBI Airport, Guwahati - PCBA",11-09-2025 07:00:00,26.10887,91.589544,NO2,NA,NA,NA
India,Assam,Guwahati,"LGBI Airport, Guwahati - PCBA",11-09-2025 07:00:00,26.10887,91.589544,OZONE,NA,NA,NA
India,Bihar,Manguraha,"Forest Rest House, Manguraha - BSPCB",11-09-2025 07:00:00,27.308328,84.531742,SO2,6,7,6
India,Bihar,Manguraha,"Forest Rest House, Manguraha - BSPCB",11-09-2025 07:00:00,27.308328,84.531742,CO,NA,NA,NA
India,Bihar,Motihari,"Gandak Colony, Motihari - BSPCB",11-09-2025 07:00:00,26.63086,84.90051,CO,2,9,1
India,Bihar,Motihari,"Gandak Colony, Motihari - BSPCB",11-09-2025 07:00:00,26.63086,84.90051,OZONE,2,4,3
India,Bihar,Munger,"Town Hall, Munger - BSPCB",11-09-2025 07:00:00,25.376776,86.471523,PM2.5,13,110,38
India,Bihar,Munger,"Town Hall, Munger - BSPCB",11-09-2025 07:00:00,25.376776,86.471523,OZONE,10,15,10
India,Bihar,Muzaffarpur,"Buddha Colony, Muzaffarpur - BSPCB",11-09-2025 07:00:00,26.11442,85.39813,NH3,4,6,5
India,Bihar,Muzaffarpur,"Buddha Colony, Muzaffarpur - BSPCB",11-09-2025 07:00:00,26.11442,85.39813,OZONE,22,46,35
India,Bihar,Muzaffarpur,"MIT-Daudpur Kothi, Muzaffarpur - BSPCB",11-09-2025 07:00:00,26.1403345,85.3650192,PM10,35,54,44
India,Bihar,Araria,"Kharahiya Basti, Araria - BSPCB",11-09-2025 07:00:00,26.146529,87.454184,NO2,4,284,67
India,Bihar,Araria,"Kharahiya Basti, Araria - BSPCB",11-09-2025 07:00:00,26.146529,87.454184,NH3,5,5,5
India,Bihar,Arrah,"New DM Office, Arrah - BSPCB",11-09-2025 07:00:00,25.5626095,84.663264,PM2.5,28,30,29
India,Bihar,Arrah,"New DM Office, Arrah - BSPCB",11-09-2025 07:00:00,25.5626095,84.663264,PM10,27,28,27
India,Bihar,Arrah,"New DM Office, Arrah - BSPCB",11-09-2025 07:00:00,25.5626095,84.663264,CO,29,71,53
India,Bihar,Aurangabad,"Gurdeo Nagar, Aurangabad - BSPCB",11-09-2025 07:00:00,24.75746,84.366208,PM2.5,NA,NA,NA
India,Bihar,Aurangabad,"Gurdeo Nagar, Aurangabad - BSPCB",11-09-2025 07:00:00,24.75746,84.366208,NO2,7,8,8
India,Bihar,Aurangabad,"Gurdeo Nagar, Aurangabad - BSPCB",11-09-2025 07:00:00,24.75746,84.366208,CO,11,32,21
India,Bihar,Bhagalpur,"Mayaganj, Bhagalpur - BSPCB",11-09-2025 07:00:00,25.265194,87.012947,SO2,10,89,51
India,Bihar,Bhagalpur,"Mayaganj, Bhagalpur - BSPCB",11-09-2025 07:00:00,25.265194,87.012947,CO,6,84,47
India,Bihar,Bihar Sharif,"D M Colony, Bihar Sharif - BSPCB",11-09-2025 07:00:00,25.204762,85.514960,NH3,NA,NA,NA
India,Bihar,Bihar Sharif,"D M Colony, Bihar Sharif - BSPCB",11-09-2025 07:00:00,25.204762,85.514960,CO,NA,NA,NA
India,Bihar,Buxar,"Charitra Van, Buxar - BSPCB",11-09-2025 07:00:00,25.567520,83.966379,OZONE,1,110,1
India,Bihar,Chhapra,"Darshan Nagar, Chhapra - BSPCB",11-09-2025 07:00:00,25.7808257,84.7446768,PM2.5,NA,NA,NA
India,Bihar,Chhapra,"Darshan Nagar, Chhapra - BSPCB",11-09-2025 07:00:00,25.7808257,84.7446768,OZONE,3,27,8
India,Bihar,Gaya,"Kareemganj, Gaya - BSPCB",11-09-2025 07:00:00,24.792403,84.992416,SO2,15,18,16
India,Bihar,Gaya,"SFTI Kusdihra, Gaya - BSPCB",11-09-2025 07:00:00,24.762518,84.982348,PM2.5,7,32,16
India,Bihar,Hajipur,"Industrial Area, Hajipur - BSPCB",11-09-2025 07:00:00,25.697189,85.245900,NO2,30,41,36
India,Bihar,Hajipur,"Industrial Area, Hajipur - BSPCB",11-09-2025 07:00:00,25.697189,85.245900,SO2,2,5,4
India,Bihar,Hajipur,"Industrial Area, Hajipur - BSPCB",11-09-2025 07:00:00,25.697189,85.245900,CO,37,50,46
India,Bihar,Kishanganj,"SDM Office_Khagra, Kishanganj - BSPCB",11-09-2025 07:00:00,26.0881305,87.93840336,NH3,3,3,3
India,Andaman and Nicobar,Sri Vijaya Puram,"Police Line, Sri Vijaya Puram - ANPCC",11-09-2025 07:00:00,11.654054,92.734055,OZONE,2,7,3
India,Andhra_Pradesh,Amaravati,"Secretariat, Amaravati - APPCB",11-09-2025 07:00:00,16.5150833,80.5181667,PM10,25,129,49
India,Andhra_Pradesh,Chittoor,"Gangineni Cheruvu, Chittoor - APPCB",11-09-2025 07:00:00,13.204880,79.097889,NO2,33,36,35
India,Andhra_Pradesh,Kadapa,"Yerramukkapalli, Kadapa - APPCB",11-09-2025 07:00:00,14.465052,78.824187,CO,26,46,28
India,Bihar,Patna,"DRM Office Danapur, Patna - BSPCB",11-09-2025 07:00:00,25.586562,85.043586,SO2,NA,NA,NA
India,Bihar,Patna,"IGSC Planetarium Complex, Patna - BSPCB",11-09-2025 07:00:00,25.610369,85.132568,NO2,9,16,13
India,Bihar,Patna,"Muradpur, Patna - BSPCB",11-09-2025 07:00:00,25.619651,85.147382,NH3,4,5,5
India,Bihar,Patna,"Muradpur, Patna - BSPCB",11-09-2025 07:00:00,25.619651,85.147382,SO2,7,13,10
India,Andaman and Nicobar,Sri Vijaya Puram,"Police Line, Sri Vijaya Puram - ANPCC",11-09-2025 07:00:00,11.654054,92.734055,PM2.5,NA,NA,NA
India,Delhi,Delhi,"Anand Vihar, Delhi - DPCC",11-09-2025 07:00:00,28.647622,77.3158090,NH3,3,5,4
India,Delhi,Delhi,"Anand Vihar, Delhi - DPCC",11-09-2025 07:00:00,28.647622,77.3158090,CO,65,78,69
India,Delhi,Delhi,"Ashok Vihar, Delhi - DPCC",11-09-2025 07:00:00,28.695381,77.181665,CO,40,60,44
India,Delhi,Delhi,"Ashok Vihar, Delhi - DPCC",11-09-2025 07:00:00,28.695381,77.181665,OZONE,15,41,20
India,Delhi,Delhi,"Aya Nagar, Delhi - IMD",11-09-2025 07:00:00,28.4706914,77.1099364,NO2,1,19,13
India,Delhi,Delhi,"Bawana, Delhi - DPCC",11-09-2025 07:00:00,28.776200,77.051074,SO2,4,8,6
India,Delhi,Delhi,"Burari Crossing, Delhi - IMD",11-09-2025 07:00:00,28.7256504,77.2011573,PM2.5,12,53,36
India,Delhi,Delhi,"Burari Crossing, Delhi - IMD",11-09-2025 07:00:00,28.7256504,77.2011573,PM10,30,86,54
India,Delhi,Delhi,"Burari Crossing, Delhi - IMD",11-09-2025 07:00:00,28.7256504,77.2011573,CO,30,53,33
India,Delhi,Delhi,"CRRI Mathura Road, Delhi - IMD",11-09-2025 07:00:00,28.5512005,77.2735737,PM10,23,419,134
India,Chandigarh,Chandigarh,"Sector-53, Chandigarh - CPCC",11-09-2025 07:00:00,30.719859,76.738637,NO2,3,15,6
India,Chhattisgarh,Bhilai,"32Bungalows, Bhilai - CECB",11-09-2025 07:00:00,21.194815,81.314770,NO2,13,90,33
India,Chhattisgarh,Bhilai,"32Bungalows, Bhilai - CECB",11-09-2025 07:00:00,21.194815,81.314770,SO2,5,8,7
India,Chhattisgarh,Bhilai,"Civic Center, Bhilai - Bhilai Steel Plant",11-09-2025 07:00:00,21.185571,81.343175,SO2,7,9,8
India,Chhattisgarh,Bhilai,"Hathkhoj, Bhilai - CECB",11-09-2025 07:00:00,21.224231,81.408350,PM10,33,85,59
India,Chhattisgarh,Bhilai,"Hathkhoj, Bhilai - CECB",11-09-2025 07:00:00,21.224231,81.408350,NH3,3,5,4
India,Chhattisgarh,Bilaspur,"Mangala, Bilaspur - NTPC",11-09-2025 07:00:00,22.08815,82.13737,PM10,23,140,47
India,Chhattisgarh,Bilaspur,"Mangala, Bilaspur - NTPC",11-09-2025 07:00:00,22.08815,82.13737,SO2,NA,NA,NA
India,Bihar,Patna,"Rajbansi Nagar, Patna - BSPCB",11-09-2025 07:00:00,25.599486,85.113666,NO2,21,25,23
India,Bihar,Patna,"Samanpura, Patna - BSPCB",11-09-2025 07:00:00,25.596727,85.085624,CO,44,65,50
India,Bihar,Purnia,"Mariam Nagar, Purnia - BSPCB",11-09-2025 07:00:00,25.366336,87.117468,NH3,3,3,3
India,Bihar,Rajgir,"Dangi Tola, Rajgir - BSPCB",11-09-2025 07:00:00,25.03280,85.41948,NO2,8,10,9
India,Bihar,Saharsa,"Police Line, Saharsa - BSPCB",11-09-2025 07:00:00,25.892357,86.590325,PM2.5,NA,NA,NA
India,Bihar,Saharsa,"Police Line, Saharsa - BSPCB",11-09-2025 07:00:00,25.892357,86.590325,NH3,4,4,4
India,Bihar,Saharsa,"Police Line, Saharsa - BSPCB",11-09-2025 07:00:00,25.892357,86.590325,OZONE,8,43,16
India,Bihar,Samastipur,"DM Office_Kasipur, Samastipur - BSPCB",11-09-2025 07:00:00,25.859655,85.77944,SO2,15,31,25
India,Bihar,Samastipur,"DM Office_Kasipur, Samastipur - BSPCB",11-09-2025 07:00:00,25.859655,85.77944,OZONE,6,15,12
India,Bihar,Sasaram,"Dada Peer, Sasaram - BSPCB",11-09-2025 07:00:00,24.952822,84.002396,SO2,1,5,3
India,Bihar,Sasaram,"Dada Peer, Sasaram - BSPCB",11-09-2025 07:00:00,24.952822,84.002396,CO,48,70,52
India,Bihar,Siwan,"Chitragupta Nagar, Siwan - BSPCB",11-09-2025 07:00:00,26.2271665,84.3570427,PM2.5,2,55,28
India,Bihar,Siwan,"Chitragupta Nagar, Siwan - BSPCB",11-09-2025 07:00:00,26.2271665,84.3570427,SO2,5,8,7
India,Chhattisgarh,Chhal,"Nawapara SECL Colony, Chhal - CECB",11-09-2025 07:00:00,22.118125,83.140608,PM2.5,NA,NA,NA
India,Chhattisgarh,Chhal,"Nawapara SECL Colony, Chhal - CECB",11-09-2025 07:00:00,22.118125,83.140608,NO2,NA,NA,NA
India,Chhattisgarh,Chhal,"Nawapara SECL Colony, Chhal - CECB",11-09-2025 07:00:00,22.118125,83.140608,NH3,NA,NA,NA
India,Chhattisgarh,Kunjemura,"OP Jindal School, Kunjemura - CECB",11-09-2025 07:00:00,22.126650,83.483212,SO2,2,18,8
India,Chhattisgarh,Kunjemura,"OP Jindal School, Kunjemura - CECB",11-09-2025 07:00:00,22.126650,83.483212,CO,27,47,28
India,Chhattisgarh,Milupara,"Govt. Higher Secondary School, Milupara - CECB",11-09-2025 07:00:00,22.1910172,83.5197009,NO2,NA,NA,NA
India,Chhattisgarh,Raipur,"Krishak Nagar, Raipur - CECB",11-09-2025 07:00:00,21.237755,81.705301,CO,NA,NA,NA
India,Chhattisgarh,Raipur,"Siltara Phase-II, Raipur - CECB",11-09-2025 07:00:00,21.371751,81.664929,PM2.5,27,51,36
India,Chhattisgarh,Raipur,"Siltara Phase-II, Raipur - CECB",11-09-2025 07:00:00,21.371751,81.664929,NH3,3,3,3
India,Chhattisgarh,Tumidih,"OP Jindal Industrial Park, Tumidih - CECB",11-09-2025 07:00:00,22.06631475,83.33820077,PM10,NA,NA,NA
India,Chhattisgarh,Tumidih,"OP Jindal Industrial Park, Tumidih - CECB",11-09-2025 07:00:00,22.06631475,83.33820077,CO,NA,NA,NA
India,Delhi,Delhi,"Chandni Chowk, Delhi - IITM",11-09-2025 07:00:00,28.656756,77.227234,OZONE,4,53,6
India,Delhi,Delhi,"Dwarka-Sector 8, Delhi - DPCC ",11-09-2025 07:00:00,28.5710274,77.0719006,NH3,5,6,5
India,Delhi,Delhi,"Dwarka-Sector 8, Delhi - DPCC ",11-09-2025 07:00:00,28.5710274,77.0719006,CO,32,63,40
India,Delhi,Delhi,"IGI Airport (T3), Delhi - IMD",11-09-2025 07:00:00,28.5627763,77.1180053,PM2.5,18,63,37
India,Delhi,Delhi,"IGI Airport (T3), Delhi - IMD",11-09-2025 07:00:00,28.5627763,77.1180053,NO2,29,73,50
India,Delhi,Delhi,"Major Dhyan Chand National Stadium, Delhi - DPCC",11-09-2025 07:00:00,28.611281,77.237738,SO2,NA,NA,NA
India,Delhi,Delhi,"Mandir Marg, Delhi - DPCC",11-09-2025 07:00:00,28.636429,77.201067,PM10,39,111,84
India,Delhi,Delhi,"NSIT Dwarka, Delhi - CPCB",11-09-2025 07:00:00,28.60909,77.0325413,SO2,2,15,7
India,Delhi,Delhi,"ITO, Delhi - CPCB",11-09-2025 07:00:00,28.628624,77.241060,PM2.5,29,53,42
India,Delhi,Delhi,"Jahangirpuri, Delhi - DPCC",11-09-2025 07:00:00,28.732820,77.170633,PM10,61,166,116
India,Delhi,Delhi,"Jahangirpuri, Delhi - DPCC",11-09-2025 07:00:00,28.732820,77.170633,SO2,1,11,8
India,Delhi,Delhi,"Jahangirpuri, Delhi - DPCC",11-09-2025 07:00:00,28.732820,77.170633,CO,14,48,19
India,Jammu_and_Kashmir,Srinagar,"Rajbagh, Srinagar - JKSPCB",11-09-2025 07:00:00,34.066206,74.819820,PM10,NA,NA,NA
India,Jammu_and_Kashmir,Srinagar,"Rajbagh, Srinagar - JKSPCB",11-09-2025 07:00:00,34.066206,74.819820,OZONE,1,120,1
India,Jharkhand,Dhanbad,"Sardar Patel Nagar, Dhanbad - JSPCB",11-09-2025 07:00:00,23.80569,86.44268,PM2.5,5,92,22
India,Karnataka,Bagalkot,"Vidayagiri, Bagalkot - KSPCB",11-09-2025 07:00:00,16.172806,75.659694,NO2,9,11,9
India,Karnataka,Bengaluru,"Bapuji Nagar, Bengaluru - KSPCB",11-09-2025 07:00:00,12.951913,77.539784,PM2.5,5,57,33
India,Karnataka,Bengaluru,"Bapuji Nagar, Bengaluru - KSPCB",11-09-2025 07:00:00,12.951913,77.539784,SO2,3,11,6
India,Karnataka,Bengaluru,"Bapuji Nagar, Bengaluru - KSPCB",11-09-2025 07:00:00,12.951913,77.539784,CO,14,54,24
India,Karnataka,Bengaluru,"City Railway Station, Bengaluru - KSPCB",11-09-2025 07:00:00,12.9756843,77.5660749,PM10,82,100,90
India,Karnataka,Bengaluru,"RVCE-Mailasandra, Bengaluru - KSPCB",11-09-2025 07:00:00,12.921418,77.502466,OZONE,20,22,21
India,Karnataka,Bengaluru,"Shivapura_Peenya, Bengaluru - KSPCB",11-09-2025 07:00:00,13.0246342,77.5080115,PM10,52,97,72
India,Karnataka,Bengaluru,"Shivapura_Peenya, Bengaluru - KSPCB",11-09-2025 07:00:00,13.0246342,77.5080115,NO2,23,25,24
India,Karnataka,Bengaluru,"Shivapura_Peenya, Bengaluru - KSPCB",11-09-2025 07:00:00,13.0246342,77.5080115,NH3,4,4,4
India,Karnataka,Bengaluru,"Shivapura_Peenya, Bengaluru - KSPCB",11-09-2025 07:00:00,13.0246342,77.5080115,CO,32,44,35
India,Karnataka,Bengaluru,"Silk Board, Bengaluru - KSPCB",11-09-2025 07:00:00,12.917348,77.622813,PM10,17,212,111
India,Karnataka,Bidar,"Naubad, Bidar - KSPCB",11-09-2025 07:00:00,17.930306,77.482194,CO,27,34,33
India,Karnataka,Chamarajanagar,"Urban, Chamarajanagar - KSPCB",11-09-2025 07:00:00,11.55358,76.55521,SO2,2,8,4
India,Gujarat,Ahmedabad,"Chandkheda, Ahmedabad - IITM",11-09-2025 07:00:00,23.107969,72.574648,PM2.5,24,52,34
India,Gujarat,Ahmedabad,"Chandkheda, Ahmedabad - IITM",11-09-2025 07:00:00,23.107969,72.574648,CO,26,86,48
India,Gujarat,Ahmedabad,"Chandkheda, Ahmedabad - IITM",11-09-2025 07:00:00,23.107969,72.574648,OZONE,1,22,3
India,Gujarat,Ahmedabad,"Gyaspur, Ahmedabad - IITM",11-09-2025 07:00:00,22.977134,72.553024,PM2.5,9,38,25
India,Gujarat,Ahmedabad,"Gyaspur, Ahmedabad - IITM",11-09-2025 07:00:00,22.977134,72.553024,SO2,5,10,8
India,Gujarat,Ahmedabad,"Gyaspur, Ahmedabad - IITM",11-09-2025 07:00:00,22.977134,72.553024,OZONE,1,14,2
India,Gujarat,Ahmedabad,"Maninagar, Ahmedabad - GPCB",11-09-2025 07:00:00,23.002657,72.591912,NO2,34,48,43
India,Gujarat,Ahmedabad,"Raikhad, Ahmedabad - IITM",11-09-2025 07:00:00,23.020509,72.579261,PM10,63,114,83
India,Gujarat,Ahmedabad,"Raikhad, Ahmedabad - IITM",11-09-2025 07:00:00,23.020509,72.579261,NO2,9,30,19
India,Gujarat,Ahmedabad,"Rakhial, Ahmedabad - IITM",11-09-2025 07:00:00,23.016834,72.625775,PM10,NA,NA,NA
India,Gujarat,Ahmedabad,"Rakhial, Ahmedabad - IITM",11-09-2025 07:00:00,23.016834,72.625775,CO,52,88,63
India,Gujarat,Ahmedabad,"SAC ISRO Bopal, Ahmedabad - IITM",11-09-2025 07:00:00,23.041137,72.456691,PM2.5,26,131,58
India,Gujarat,Ahmedabad,"SAC ISRO Satellite, Ahmedabad - IITM",11-09-2025 07:00:00,23.023389,72.515201,SO2,1,5,2
India,Gujarat,Ahmedabad,"SVPI Airport Hansol, Ahmedabad - IITM",11-09-2025 07:00:00,23.076793,72.627874,CO,36,84,60
India,Delhi,Delhi,"Punjabi Bagh, Delhi - DPCC",11-09-2025 07:00:00,28.674045,77.131023,PM2.5,10,90,36
India,Delhi,Delhi,"Punjabi Bagh, Delhi - DPCC",11-09-2025 07:00:00,28.674045,77.131023,PM10,64,116,95
India,Delhi,Delhi,"Punjabi Bagh, Delhi - DPCC",11-09-2025 07:00:00,28.674045,77.131023,NO2,5,22,12
India,Delhi,Delhi,"Pusa, Delhi - IMD",11-09-2025 07:00:00,28.636110,77.173332,PM2.5,10,77,34
India,Delhi,Delhi,"Rohini, Delhi - DPCC",11-09-2025 07:00:00,28.732528,77.119920,NH3,2,6,5
India,Gujarat,Ankleshwar,"GIDC, Ankleshwar - GPCB",11-09-2025 07:00:00,21.613267,73.010555,NO2,22,30,24
India,Gujarat,Ankleshwar,"GIDC, Ankleshwar - GPCB",11-09-2025 07:00:00,21.613267,73.010555,SO2,65,76,68
India,Gujarat,Ankleshwar,"GIDC, Ankleshwar - GPCB",11-09-2025 07:00:00,21.613267,73.010555,CO,12,50,41
India,Gujarat,Gandhinagar,"GIFT City, Gandhinagar - IITM",11-09-2025 07:00:00,23.163798,72.677768,NH3,1,11,5
India,Delhi,Delhi,"Narela, Delhi - DPCC",11-09-2025 07:00:00,28.822836,77.101981,NO2,NA,NA,NA
India,Delhi,Delhi,"Narela, Delhi - DPCC",11-09-2025 07:00:00,28.822836,77.101981,NH3,NA,NA,NA
India,Delhi,Delhi,"Nehru Nagar, Delhi - DPCC",11-09-2025 07:00:00,28.567890,77.250515,SO2,4,11,8
India,Delhi,Delhi,"Okhla Phase-2, Delhi - DPCC",11-09-2025 07:00:00,28.530785,77.271255,PM2.5,20,42,30
India,Delhi,Delhi,"Sirifort, Delhi - CPCB",11-09-2025 07:00:00,28.5504249,77.2159377,CO,8,56,22
India,Delhi,Delhi,"Sonia Vihar, Delhi - DPCC",11-09-2025 07:00:00,28.710508,77.249485,NO2,13,31,19
India,Delhi,Delhi,"Vivek Vihar, Delhi - DPCC",11-09-2025 07:00:00,28.672342,77.315260,PM2.5,36,54,44
India,Karnataka,Bengaluru,"Jigani, Bengaluru - KSPCB",11-09-2025 07:00:00,12.7816279,77.6299145,PM10,NA,NA,NA
India,Karnataka,Bengaluru,"Jigani, Bengaluru - KSPCB",11-09-2025 07:00:00,12.7816279,77.6299145,SO2,NA,NA,NA
India,Karnataka,Vijayapura,"Ibrahimpur, Vijayapura - KSPCB",11-09-2025 07:00:00,16.802639,75.722694,OZONE,14,16,16
India,Karnataka,Yadgir,"Collector Office, Yadgir - KSPCB",11-09-2025 07:00:00,16.7602,77.1428,PM2.5,3,25,13
India,Kerala,Eloor,"Udyogamandal, Eloor - Kerala PCB",11-09-2025 07:00:00,10.073232,76.302765,PM2.5,54,179,84
India,Kerala,Eloor,"Udyogamandal, Eloor - Kerala PCB",11-09-2025 07:00:00,10.073232,76.302765,CO,34,108,43
India,Kerala,Eloor,"Udyogamandal, Eloor - Kerala PCB",11-09-2025 07:00:00,10.073232,76.302765,OZONE,10,28,12
India,Kerala,Kollam,"Polayathode, Kollam - Kerala PCB",11-09-2025 07:00:00,8.8787,76.6073,PM2.5,NA,NA,NA
India,Kerala,Kollam,"Polayathode, Kollam - Kerala PCB",11-09-2025 07:00:00,8.8787,76.6073,NH3,NA,NA,NA
India,Kerala,Thiruvananthapuram,"Kariavattom, Thiruvananthapuram - Kerala PCB",11-09-2025 07:00:00,8.563700,76.886500,PM10,NA,NA,NA
India,Kerala,Thiruvananthapuram,"Plammoodu, Thiruvananthapuram - Kerala PCB",11-09-2025 07:00:00,8.5149093,76.9435879,NO2,54,109,75
India,Kerala,Thiruvananthapuram,"Plammoodu, Thiruvananthapuram - Kerala PCB",11-09-2025 07:00:00,8.5149093,76.9435879,SO2,10,25,20
India,Karnataka,Mangalore,"Kadri, Mangalore - KSPCB",11-09-2025 07:00:00,12.889250,74.853000,NO2,25,43,27
India,Karnataka,Mysuru,"Hebbal 1st Stage, Mysuru - KSPCB",11-09-2025 07:00:00,12.21041,76.37376,SO2,1,21,8
India,Karnataka,Mysuru,"Hebbal 1st Stage, Mysuru - KSPCB",11-09-2025 07:00:00,12.21041,76.37376,CO,4,42,12
India,Karnataka,Mysuru,"Hebbal 1st Stage, Mysuru - KSPCB",11-09-2025 07:00:00,12.21041,76.37376,OZONE,NA,NA,NA
India,Karnataka,Ramanagara,"Vijay Nagar, Ramanagara - KSPCB",11-09-2025 07:00:00,12.733409,77.298051,PM10,NA,NA,NA
India,Karnataka,Ramanagara,"Vijay Nagar, Ramanagara - KSPCB",11-09-2025 07:00:00,12.733409,77.298051,NH3,NA,NA,NA
India,Karnataka,Ramanagara,"Vijay Nagar, Ramanagara - KSPCB",11-09-2025 07:00:00,12.733409,77.298051,SO2,NA,NA,NA
India,Karnataka,Shivamogga,"Vinoba Nagara, Shivamogga - KSPCB",11-09-2025 07:00:00,13.940000,75.555917,CO,22,40,36
India,Karnataka,Tumakuru,"Thimmalapura, Tumakuru - KSPCB",11-09-2025 07:00:00,13.377516,77.099072,PM2.5,23,51,30
India,Karnataka,Tumakuru,"Thimmalapura, Tumakuru - KSPCB",11-09-2025 07:00:00,13.377516,77.099072,NO2,23,24,23
India,Karnataka,Tumakuru,"Thimmalapura, Tumakuru - KSPCB",11-09-2025 07:00:00,13.377516,77.099072,NH3,3,3,3
India,Karnataka,Chikkaballapur,"Chikkaballapur Rural, Chikkaballapur - KSPCB",11-09-2025 07:00:00,13.428828,77.731418,NH3,1,2,2
India,Karnataka,Chikkaballapur,"Chikkaballapur Rural, Chikkaballapur - KSPCB",11-09-2025 07:00:00,13.428828,77.731418,SO2,9,16,13
India,Karnataka,Chikkamagaluru,"Kalyana Nagara, Chikkamagaluru - KSPCB",11-09-2025 07:00:00,13.328028,75.797056,PM10,NA,NA,NA
India,Karnataka,Davanagere,"Devaraj Urs Badavane, Davanagere - KSPCB",11-09-2025 07:00:00,14.475800,75.905200,NO2,NA,NA,NA
India,Karnataka,Hassan,"B.Katihalli, Hassan - KSPCB",11-09-2025 07:00:00,13.008556,76.125258,NO2,2,26,12
India,Karnataka,Hassan,"B.Katihalli, Hassan - KSPCB",11-09-2025 07:00:00,13.008556,76.125258,NH3,1,2,1
India,Karnataka,Haveri,"Ashwini Nagar, Haveri - KSPCB",11-09-2025 07:00:00,14.791800,75.389600,OZONE,17,23,18
India,Karnataka,Hubballi,"Lingaraj Nagar, Hubballi - KSPCB",11-09-2025 07:00:00,15.3714823,75.1160168,PM2.5,33,44,37
India,Madhya Pradesh,Indore,"Residency Area, Indore - IMC",11-09-2025 07:00:00,22.7084,75.8815,NO2,14,18,16
India,Madhya Pradesh,Indore,"Residency Area, Indore - IMC",11-09-2025 07:00:00,22.7084,75.8815,OZONE,5,23,10
India,Madhya Pradesh,Jabalpur,"Govindh Bhavan Colony, Jabalpur - JMC",11-09-2025 07:00:00,23.163174,79.973061,PM10,42,101,61
India,Madhya Pradesh,Jabalpur,"Govindh Bhavan Colony, Jabalpur - JMC",11-09-2025 07:00:00,23.163174,79.973061,NO2,36,37,36
India,Madhya Pradesh,Jabalpur,"Govindh Bhavan Colony, Jabalpur - JMC",11-09-2025 07:00:00,23.163174,79.973061,NH3,1,2,2
India,Madhya Pradesh,Jabalpur,"Marhatal, Jabalpur - MPPCB",11-09-2025 07:00:00,23.168606,79.932247,PM2.5,NA,NA,NA
India,Madhya Pradesh,Jabalpur,"Marhatal, Jabalpur - MPPCB",11-09-2025 07:00:00,23.168606,79.932247,PM10,NA,NA,NA
India,Madhya Pradesh,Jabalpur,"Marhatal, Jabalpur - MPPCB",11-09-2025 07:00:00,23.168606,79.932247,NO2,NA,NA,NA
India,Madhya Pradesh,Jabalpur,"Suhagi, Jabalpur - JMC",11-09-2025 07:00:00,23.218135,79.957770,PM10,41,130,54
India,Madhya Pradesh,Gwalior,"City Center, Gwalior - MPPCB",11-09-2025 07:00:00,26.203442,78.193251,SO2,10,16,13
India,Madhya Pradesh,Gwalior,"City Center, Gwalior - MPPCB",11-09-2025 07:00:00,26.203442,78.193251,OZONE,21,53,21
India,Madhya Pradesh,Gwalior,"Maharaj Bada, Gwalior - MPPCB",11-09-2025 07:00:00,26.200388,78.147714,PM2.5,33,55,42
India,Madhya Pradesh,Gwalior,"Maharaj Bada, Gwalior - MPPCB",11-09-2025 07:00:00,26.200388,78.147714,PM10,41,105,72
India,Madhya Pradesh,Indore,"Airport Area, Indore - IMC",11-09-2025 07:00:00,22.7289,75.8076,SO2,22,24,23
India,Madhya Pradesh,Indore,"Chhoti Gwaltoli, Indore - MPPCB",11-09-2025 07:00:00,22.4310,75.5213,SO2,10,12,11
India,Madhya Pradesh,Indore,"Chhoti Gwaltoli, Indore - MPPCB",11-09-2025 07:00:00,22.4310,75.5213,OZONE,22,46,28
India,Madhya Pradesh,Indore,"Maguda Nagar, Indore - IMC",11-09-2025 07:00:00,22.7524,75.8872,CO,20,22,21
India,Madhya Pradesh,Katni,"Gole Bazar, Katni - MPPCB",11-09-2025 07:00:00,23.50016,80.23284,CO,26,39,36
India,Madhya Pradesh,Mandideep,"Sector-D Industrial Area, Mandideep - MPPCB",11-09-2025 07:00:00,23.108440,77.511428,PM2.5,32,71,45
India,Madhya Pradesh,Mandideep,"Sector-D Industrial Area, Mandideep - MPPCB",11-09-2025 07:00:00,23.108440,77.511428,NH3,3,3,3
India,Madhya Pradesh,Mandideep,"Sector-D Industrial Area, Mandideep - MPPCB",11-09-2025 07:00:00,23.108440,77.511428,OZONE,18,45,30
India,Madhya Pradesh,Pithampur,"Sector-2 Industrial Area, Pithampur - MPPCB",11-09-2025 07:00:00,22.624758,75.675238,NO2,6,22,11
India,Madhya Pradesh,Pithampur,"Sector-2 Industrial Area, Pithampur - MPPCB",11-09-2025 07:00:00,22.624758,75.675238,OZONE,18,60,37
India,Madhya Pradesh,Sagar,"Civil Lines, Sagar - MPPCB",11-09-2025 07:00:00,23.838586,78.759431,SO2,3,10,8
India,Madhya Pradesh,Satna,"Bandhavgar Colony, Satna - Birla Cement",11-09-2025 07:00:00,24.58434363,80.8549414,PM2.5,44,49,46
India,Madhya Pradesh,Satna,"Bandhavgar Colony, Satna - Birla Cement",11-09-2025 07:00:00,24.58434363,80.8549414,PM10,54,57,55
India,Madhya Pradesh,Satna,"Bandhavgar Colony, Satna - Birla Cement",11-09-2025 07:00:00,24.58434363,80.8549414,SO2,18,19,19
India,Madhya Pradesh,Singrauli,"Suryakiran Bhawan NCL, Singrauli - MPPCB",11-09-2025 07:00:00,24.108970,82.645580,PM10,31,147,68
India,Madhya Pradesh,Singrauli,"Suryakiran Bhawan NCL, Singrauli - MPPCB",11-09-2025 07:00:00,24.108970,82.645580,NH3,6,6,6
India,Maharashtra,Amravati,"Shivneri Colony, Amravati - MPCB",11-09-2025 07:00:00,20.9402359,77.7895248,PM10,34,93,67
India,Karnataka,Kalaburagi,"Lal Bahadur Shastri Nagar, Kalaburagi - KSPCB",11-09-2025 07:00:00,17.321993,76.822628,SO2,NA,NA,NA
India,Karnataka,Kalaburagi,"Mahatma Basaveswar Colony, Kalaburgi - KSPCB",11-09-2025 07:00:00,17.336318,76.847397,NH3,2,3,3
India,Karnataka,Kalaburagi,"Mahatma Basaveswar Colony, Kalaburgi - KSPCB",11-09-2025 07:00:00,17.336318,76.847397,OZONE,10,23,13
India,Karnataka,Karwar,"KHB Colony, Karwar - KSPCB",11-09-2025 07:00:00,14.816666,74.141003,PM2.5,NA,NA,NA
India,Karnataka,Karwar,"KHB Colony, Karwar - KSPCB",11-09-2025 07:00:00,14.816666,74.141003,CO,11,20,12
India,Karnataka,Koppal,"Diwator Nagar, Koppal - KSPCB",11-09-2025 07:00:00,15.347630,76.181767,PM2.5,NA,NA,NA
India,Karnataka,Koppal,"Diwator Nagar, Koppal - KSPCB",11-09-2025 07:00:00,15.347630,76.181767,NO2,NA,NA,NA
India,Madhya Pradesh,Damoh,"Shrivastav Colony, Damoh - MPPCB",11-09-2025 07:00:00,23.81748678,79.446246,PM10,46,61,54
India,Madhya Pradesh,Dewas,"Bhopal Chauraha, Dewas - MPPCB",11-09-2025 07:00:00,22.9682591,76.064118,NO2,25,53,43
India,Madhya Pradesh,Dewas,"Bhopal Chauraha, Dewas - MPPCB",11-09-2025 07:00:00,22.9682591,76.064118,NH3,2,8,4
India,Maharashtra,Belapur,"CBD Belapur, Belapur - MPCB",11-09-2025 07:00:00,19.0243902,73.0406721,PM2.5,19,66,43
India,Maharashtra,Belapur,"CBD Belapur, Belapur - MPCB",11-09-2025 07:00:00,19.0243902,73.0406721,SO2,1,6,4
