country,state,city,station,last_update,latitude,longitude,pollutant_id,min_value,max_value,avg_value
India,Andhra_Pradesh,Tirupati,"Vaikuntapuram, Tirupati - APPCB",03-12-2025 07:00:00,13.615387,79.409230,PM2.5,49,53,51
India,TamilNadu,Nagapattinam,"Velippalayam, Nagapattinam - TNPCB",03-12-2025 07:00:00,10.798548,79.838212,NH3,NA,NA,NA
India,Andhra_Pradesh,Tirupati,"Vaikuntapuram, Tirupati - APPCB",03-12-2025 07:00:00,13.615387,79.409230,CO,30,44,39
India,Andhra_Pradesh,Vijayawada,"HB Colony, Vijayawada - APPCB",03-12-2025 07:00:00,16.536107,80.594233,PM2.5,52,72,58
India,TamilNadu,Ooty,"Bombay Castel, Ooty - TNPCB",03-12-2025 07:00:00,11.4068288,76.7138973,NO2,2,5,3
India,Andhra_Pradesh,Vijayawada,"HB Colony, Vijayawada - APPCB",03-12-2025 07:00:00,16.536107,80.594233,NO2,16,24,21
India,TamilNadu,Ooty,"Bombay Castel, Ooty - TNPCB",03-12-2025 07:00:00,11.4068288,76.7138973,CO,44,44,44
India,Andhra_Pradesh,Vijayawada,"HB Colony, Vijayawada - APPCB",03-12-2025 07:00:00,16.536107,80.594233,OZONE,26,63,26
India,Andhra_Pradesh,Vijayawada,"Rajiv Gandhi Park, Vijayawada - APPCB",03-12-2025 07:00:00,16.509717,80.612222,PM2.5,65,101,80
India,TamilNadu,Palkalaiperur,"Bharathidasan University, Palkalaiperur - TNPCB",03-12-2025 07:00:00,10.681158,78.741746,PM10,24,46,33
India,Andhra_Pradesh,Vijayawada,"Rajiv Gandhi Park, Vijayawada - APPCB",03-12-2025 07:00:00,16.509717,80.612222,NH3,8,9,8
India,Andhra_Pradesh,Vijayawada,"Rajiv Gandhi Park, Vijayawada - APPCB",03-12-2025 07:00:00,16.509717,80.612222,SO2,13,17,14
India,Andhra_Pradesh,Vijayawada,"Rajiv Gandhi Park, Vijayawada - APPCB",03-12-2025 07:00:00,16.509717,80.612222,CO,26,36,26
India,TamilNadu,Perundurai,"SIPCOT Industrial Park, Perundurai - TNPCB",03-12-2025 07:00:00,11.258242,77.552761,PM10,16,129,50
India,Andhra_Pradesh,Vijayawada,"Rajiv Nagar, Vijayawada - APPCB",03-12-2025 07:00:00,16.554731,80.649110,NO2,7,9,8
India,Andhra_Pradesh,Vijayawada,"Rajiv Nagar, Vijayawada - APPCB",03-12-2025 07:00:00,16.554731,80.649110,SO2,9,27,19
India,TamilNadu,Perundurai,"SIPCOT Industrial Park, Perundurai - TNPCB",03-12-2025 07:00:00,11.258242,77.552761,CO,14,27,26
India,TamilNadu,Pudukottai,"SIPCOT Nathampannai, Pudukottai - TNPCB",03-12-2025 07:00:00,10.423417,78.784889,PM10,19,122,50
India,Andhra_Pradesh,Visakhapatnam,"GVM Corporation, Visakhapatnam - APPCB",03-12-2025 07:00:00,17.72,83.3,NO2,15,61,34
India,TamilNadu,Pudukottai,"SIPCOT Nathampannai, Pudukottai - TNPCB",03-12-2025 07:00:00,10.423417,78.784889,NO2,1,4,2
India,Andhra_Pradesh,Visakhapatnam,"GVM Corporation, Visakhapatnam - APPCB",03-12-2025 07:00:00,17.72,83.3,OZONE,33,56,48
India,Arunachal_Pradesh,Naharlagun,"Naharlagun, Naharlagun - APSPCB",03-12-2025 07:00:00,27.103358,93.679645,PM2.5,51,334,146
India,TamilNadu,Ramanathapuram,"Chalai Bazaar, Ramanathapuram - TNPCB",03-12-2025 07:00:00,9.36399,78.831977,NO2,3,5,4
India,Arunachal_Pradesh,Naharlagun,"Naharlagun, Naharlagun - APSPCB",03-12-2025 07:00:00,27.103358,93.679645,PM10,61,275,123
India,Arunachal_Pradesh,Naharlagun,"Naharlagun, Naharlagun - APSPCB",03-12-2025 07:00:00,27.103358,93.679645,NO2,6,7,6
India,TamilNadu,Ramanathapuram,"Chalai Bazaar, Ramanathapuram - TNPCB",03-12-2025 07:00:00,9.36399,78.831977,CO,6,31,18
India,Assam,Byrnihat,"Central Academy for SFS, Byrnihat - PCBA",03-12-2025 07:00:00,26.071318,91.87488,PM10,70,101,84
India,Assam,Byrnihat,"Central Academy for SFS, Byrnihat - PCBA",03-12-2025 07:00:00,26.071318,91.87488,SO2,5,7,6
India,TamilNadu,Thoothukudi,"Meelavittan, Thoothukudi - TNPCB",03-12-2025 07:00:00,8.816428 ,78.099039,CO,34,183,113
India,Assam,Guwahati,"IITG, Guwahati - PCBA",03-12-2025 07:00:00,26.2028636,91.70046436,NH3,5,5,5
India,TamilNadu,Tirunelveli,"Municipal Corporation Office, Tirunelveli - TNPCB",03-12-2025 07:00:00,8.728442,77.6962,NH3,1,5,2
India,TamilNadu,Tirunelveli,"Municipal Corporation Office, Tirunelveli - TNPCB",03-12-2025 07:00:00,8.728442,77.6962,SO2,3,100,14
India,TamilNadu,Tirupur,"Kumaran College, Tirupur - TNPCB",03-12-2025 07:00:00,11.0973603,77.3228673,NO2,6,8,7
India,Assam,Guwahati,"LGBI Airport, Guwahati - PCBA",03-12-2025 07:00:00,26.10887,91.589544,OZONE,10,14,13
India,Telangana,Hyderabad,"ICRISAT Patancheru, Hyderabad - TSPCB",03-12-2025 07:00:00,17.518400,78.278777,PM2.5,NA,NA,NA
India,Telangana,Hyderabad,"ICRISAT Patancheru, Hyderabad - TSPCB",03-12-2025 07:00:00,17.518400,78.278777,NO2,10,24,15
India,Telangana,Hyderabad,"ICRISAT Patancheru, Hyderabad - TSPCB",03-12-2025 07:00:00,17.518400,78.278777,NH3,2,5,3
India,Bihar,Arrah,"New DM Office, Arrah - BSPCB",03-12-2025 07:00:00,25.5626095,84.663264,PM10,59,164,131
India,Bihar,Arrah,"New DM Office, Arrah - BSPCB",03-12-2025 07:00:00,25.5626095,84.663264,NO2,5,10,7
India,Telangana,Hyderabad,"IDA Pashamylaram, Hyderabad - TSPCB",03-12-2025 07:00:00,17.5316895,78.218939,PM2.5,NA,NA,NA
India,Telangana,Hyderabad,"IDA Pashamylaram, Hyderabad - TSPCB",03-12-2025 07:00:00,17.5316895,78.218939,PM10,NA,NA,NA
India,Telangana,Hyderabad,"IDA Pashamylaram, Hyderabad - TSPCB",03-12-2025 07:00:00,17.5316895,78.218939,NH3,NA,NA,NA
India,Bihar,Arrah,"New DM Office, Arrah - BSPCB",03-12-2025 07:00:00,25.5626095,84.663264,OZONE,6,10,8
India,Bihar,Aurangabad,"Gurdeo Nagar, Aurangabad - BSPCB",03-12-2025 07:00:00,24.75746,84.366208,NO2,7,8,8
India,Bihar,Aurangabad,"Gurdeo Nagar, Aurangabad - BSPCB",03-12-2025 07:00:00,24.75746,84.366208,NH3,1,2,2
India,Bihar,Aurangabad,"Gurdeo Nagar, Aurangabad - BSPCB",03-12-2025 07:00:00,24.75746,84.366208,SO2,8,14,11
India,Bihar,Begusarai,"Lohiyanagar, Begusarai - BSPCB",03-12-2025 07:00:00,25.42742023,86.13886079,NO2,17,23,20
India,Telangana,Hyderabad,"Kokapet, Hyderabad - TSPCB",03-12-2025 07:00:00,17.393559,78.339194,NO2,11,15,13
India,Bihar,Begusarai,"Lohiyanagar, Begusarai - BSPCB",03-12-2025 07:00:00,25.42742023,86.13886079,OZONE,7,34,9
India,Bihar,Bettiah,"Kamalnath Nagar, Bettiah - BSPCB",03-12-2025 07:00:00,26.80365,84.51954,PM10,71,206,134
India,Telangana,Hyderabad,"Sanathnagar, Hyderabad - TSPCB",03-12-2025 07:00:00,17.4559458,78.4332152,SO2,9,16,13
India,Telangana,Hyderabad,"Sanathnagar, Hyderabad - TSPCB",03-12-2025 07:00:00,17.4559458,78.4332152,CO,38,59,50
India,Telangana,Hyderabad,"Somajiguda, Hyderabad - TSPCB",03-12-2025 07:00:00,17.417094,78.457437,NO2,8,19,10
India,Bihar,Chhapra,"Darshan Nagar, Chhapra - BSPCB",03-12-2025 07:00:00,25.7808257,84.7446768,OZONE,24,74,33
India,Bihar,Gaya,"Collectorate, Gaya - BSPCB",03-12-2025 07:00:00,24.7955,84.9994,NO2,9,9,9
India,Bihar,Gaya,"Kareemganj, Gaya - BSPCB",03-12-2025 07:00:00,24.792403,84.992416,PM2.5,42,283,139
India,Telangana,Hyderabad,"Zoo Park, Hyderabad - TSPCB",03-12-2025 07:00:00,17.349694,78.451437,NH3,3,4,3
India,Bihar,Gaya,"Kareemganj, Gaya - BSPCB",03-12-2025 07:00:00,24.792403,84.992416,NH3,4,6,5
India,Bihar,Gaya,"SFTI Kusdihra, Gaya - BSPCB",03-12-2025 07:00:00,24.762518,84.982348,PM10,25,50,36
India,Tripura,Agartala,"Bardowali, Agartala - Tripura SPCB",03-12-2025 07:00:00,23.8175497,91.2726974,PM10,NA,NA,NA
India,Bihar,Gaya,"SFTI Kusdihra, Gaya - BSPCB",03-12-2025 07:00:00,24.762518,84.982348,SO2,6,9,8
India,Bihar,Hajipur,"Industrial Area, Hajipur - BSPCB",03-12-2025 07:00:00,25.697189,85.245900,PM2.5,89,330,220
India,Bihar,Hajipur,"Industrial Area, Hajipur - BSPCB",03-12-2025 07:00:00,25.697189,85.245900,PM10,66,165,116
India,Bihar,Hajipur,"Industrial Area, Hajipur - BSPCB",03-12-2025 07:00:00,25.697189,85.245900,NH3,6,13,9
India,Uttar_Pradesh,Agra,"Manoharpur, Agra - UPPCB",03-12-2025 07:00:00,27.23711,78.01936,NH3,2,3,2
India,Bihar,Hajipur,"Industrial Area, Hajipur - BSPCB",03-12-2025 07:00:00,25.697189,85.245900,OZONE,6,163,10
India,Uttar_Pradesh,Agra,"Manoharpur, Agra - UPPCB",03-12-2025 07:00:00,27.23711,78.01936,OZONE,8,8,8
India,Bihar,Katihar,"Mirchaibari, Katihar - BSPCB",03-12-2025 07:00:00,25.560083,87.553265,PM10,39,107,82
India,Bihar,Katihar,"Mirchaibari, Katihar - BSPCB",03-12-2025 07:00:00,25.560083,87.553265,SO2,15,26,20
India,Uttar_Pradesh,Agra,"Rohta, Agra - UPPCB",03-12-2025 07:00:00,27.106972,78.000111,NH3,6,8,8
India,Bihar,Kishanganj,"SDM Office_Khagra, Kishanganj - BSPCB",03-12-2025 07:00:00,26.0881305,87.93840336,PM2.5,40,50,45
India,Bihar,Kishanganj,"SDM Office_Khagra, Kishanganj - BSPCB",03-12-2025 07:00:00,26.0881305,87.93840336,PM10,35,273,126
India,Bihar,Kishanganj,"SDM Office_Khagra, Kishanganj - BSPCB",03-12-2025 07:00:00,26.0881305,87.93840336,CO,17,26,19
India,Bihar,Manguraha,"Forest Rest House, Manguraha - BSPCB",03-12-2025 07:00:00,27.308328,84.531742,PM10,50,235,128
India,Uttar_Pradesh,Agra,"Sector-3B Avas Vikas Colony, Agra - UPPCB",03-12-2025 07:00:00,27.19412,77.96237,SO2,9,10,9
India,Bihar,Motihari,"Gandak Colony, Motihari - BSPCB",03-12-2025 07:00:00,26.63086,84.90051,PM2.5,43,247,136
India,Bihar,Bhagalpur,"DM Office_Kachari Chowk, Bhagalpur - BSPCB",03-12-2025 07:00:00,25.251013,86.989001,PM10,47,133,92
India,Telangana,Hyderabad,"Nacharam_TSIIC IALA, Hyderabad - TSPCB",03-12-2025 07:00:00,17.429398,78.569354,NH3,5,6,5
India,Bihar,Bhagalpur,"DM Office_Kachari Chowk, Bhagalpur - BSPCB",03-12-2025 07:00:00,25.251013,86.989001,OZONE,12,22,15
India,Telangana,Hyderabad,"Nacharam_TSIIC IALA, Hyderabad - TSPCB",03-12-2025 07:00:00,17.429398,78.569354,SO2,10,16,12
India,Bihar,Bhagalpur,"Mayaganj, Bhagalpur - BSPCB",03-12-2025 07:00:00,25.265194,87.012947,PM2.5,25,117,71
India,Telangana,Hyderabad,"Nacharam_TSIIC IALA, Hyderabad - TSPCB",03-12-2025 07:00:00,17.429398,78.569354,OZONE,15,39,15
India,Telangana,Hyderabad,"New Malakpet, Hyderabad - TSPCB",03-12-2025 07:00:00,17.37206,78.50864,PM10,80,99,88
India,Bihar,Bhagalpur,"Mayaganj, Bhagalpur - BSPCB",03-12-2025 07:00:00,25.265194,87.012947,SO2,51,84,67
India,Telangana,Hyderabad,"New Malakpet, Hyderabad - TSPCB",03-12-2025 07:00:00,17.37206,78.50864,NH3,2,3,2
India,Bihar,Bhagalpur,"Mayaganj, Bhagalpur - BSPCB",03-12-2025 07:00:00,25.265194,87.012947,OZONE,10,93,17
India,Bihar,Bihar Sharif,"D M Colony, Bihar Sharif - BSPCB",03-12-2025 07:00:00,25.204762,85.514960,PM10,34,135,88
India,Telangana,Hyderabad,"Ramachandrapuram, Hyderabad - TSPCB",03-12-2025 07:00:00,17.528544,78.286195,NO2,12,16,13
India,Telangana,Hyderabad,"Ramachandrapuram, Hyderabad - TSPCB",03-12-2025 07:00:00,17.528544,78.286195,NH3,3,3,3
India,Bihar,Buxar,"Charitra Van, Buxar - BSPCB",03-12-2025 07:00:00,25.567520,83.966379,NH3,3,3,3
India,Uttar_Pradesh,Agra,"Shahjahan Garden, Agra - UPPCB",03-12-2025 07:00:00,27.169338,78.03582,NO2,20,21,20
India,Bihar,Munger,"Town Hall, Munger - BSPCB",03-12-2025 07:00:00,25.376776,86.471523,PM2.5,47,283,117
India,Uttar_Pradesh,Agra,"Shahjahan Garden, Agra - UPPCB",03-12-2025 07:00:00,27.169338,78.03582,OZONE,1,2,2
India,Bihar,Munger,"Town Hall, Munger - BSPCB",03-12-2025 07:00:00,25.376776,86.471523,PM10,47,163,97
India,Uttar_Pradesh,Agra,"Shastripuram, Agra - UPPCB",03-12-2025 07:00:00,27.19862,77.92066,PM2.5,42,236,88
India,Uttar_Pradesh,Agra,"Shastripuram, Agra - UPPCB",03-12-2025 07:00:00,27.19862,77.92066,OZONE,6,7,7
India,Uttar_Pradesh,Baghpat,"Sardar Patel Inter College, Baghpat - UPPCB",03-12-2025 07:00:00,28.964949,77.278761,PM10,199,416,290
India,Bihar,Muzaffarpur,"MIT-Daudpur Kothi, Muzaffarpur - BSPCB",03-12-2025 07:00:00,26.1403345,85.3650192,CO,44,70,47
India,Uttar_Pradesh,Bareilly,"Civil Lines, Bareilly - UPPCB",03-12-2025 07:00:00,28.359581,79.414455,NO2,2,3,2
India,Bihar,Muzaffarpur,"Muzaffarpur Collectorate, Muzaffarpur - BSPCB",03-12-2025 07:00:00,26.1209,85.3647,NO2,9,16,12
India,Bihar,Patna,"Govt. High School Shikarpur, Patna - BSPCB",03-12-2025 07:00:00,25.592539,85.227158,PM10,65,93,77
India,TamilNadu,Chennai,"Perungudi, Chennai - TNPCB",03-12-2025 07:00:00,12.9533,80.2357,NH3,3,4,3
India,TamilNadu,Chennai,"Velachery Res. Area, Chennai - CPCB",03-12-2025 07:00:00,13.0052189,80.2398125,PM10,58,71,65
India,TamilNadu,Chennai,"Velachery Res. Area, Chennai - CPCB",03-12-2025 07:00:00,13.0052189,80.2398125,NH3,2,3,3
India,TamilNadu,Chennai,"Velachery Res. Area, Chennai - CPCB",03-12-2025 07:00:00,13.0052189,80.2398125,SO2,15,18,16
India,TamilNadu,Chennai,"Velachery Res. Area, Chennai - CPCB",03-12-2025 07:00:00,13.0052189,80.2398125,CO,40,51,50
India,Andhra_Pradesh,Amaravati,"Secretariat, Amaravati - APPCB",03-12-2025 07:00:00,16.5150833,80.5181667,PM10,42,156,85
India,Andhra_Pradesh,Amaravati,"Secretariat, Amaravati - APPCB",03-12-2025 07:00:00,16.5150833,80.5181667,OZONE,26,55,28
India,TamilNadu,Coimbatore,"SIDCO Kurichi, Coimbatore - TNPCB",03-12-2025 07:00:00,10.942451,76.978996,NO2,10,31,16
India,Andhra_Pradesh,Anantapur,"Gulzarpet, Anantapur - APPCB",03-12-2025 07:00:00,14.675886,77.593027,PM2.5,45,119,74
India,TamilNadu,Coimbatore,"SIDCO Kurichi, Coimbatore - TNPCB",03-12-2025 07:00:00,10.942451,76.978996,NH3,1,2,1
India,TamilNadu,Cuddalore,"Kudikadu, Cuddalore - TNPCB",03-12-2025 07:00:00,11.6829898,79.7532099,PM2.5,2,17,9
India,Andhra_Pradesh,Anantapur,"Gulzarpet, Anantapur - APPCB",03-12-2025 07:00:00,14.675886,77.593027,CO,20,42,23
India,Andhra_Pradesh,Anantapur,"Gulzarpet, Anantapur - APPCB",03-12-2025 07:00:00,14.675886,77.593027,OZONE,24,48,30
India,Andhra_Pradesh,Chittoor,"Gangineni Cheruvu, Chittoor - APPCB",03-12-2025 07:00:00,13.204880,79.097889,PM2.5,39,75,54
India,TamilNadu,Cuddalore,"Kudikadu, Cuddalore - TNPCB",03-12-2025 07:00:00,11.6829898,79.7532099,SO2,19,20,20
India,Andhra_Pradesh,Chittoor,"Gangineni Cheruvu, Chittoor - APPCB",03-12-2025 07:00:00,13.204880,79.097889,CO,24,58,33
India,Andhra_Pradesh,Kadapa,"Yerramukkapalli, Kadapa - APPCB",03-12-2025 07:00:00,14.465052,78.824187,NH3,3,5,4
India,TamilNadu,Dindigul,"Mendonsa Colony, Dindigul - TNPCB",03-12-2025 07:00:00,10.358535,77.984321,CO,NA,NA,NA
India,Andhra_Pradesh,Rajamahendravaram,"Anand Kala Kshetram, Rajamahendravaram - APPCB",03-12-2025 07:00:00,16.9872867,81.7363176,NH3,2,4,3
India,TamilNadu,Karur,"Kamadenu Nagar, Karur - TNPCB",03-12-2025 07:00:00,10.967820,78.080882,NO2,5,6,6
India,TamilNadu,Karur,"Kamadenu Nagar, Karur - TNPCB",03-12-2025 07:00:00,10.967820,78.080882,SO2,14,16,15
India,TamilNadu,Karur,"Kamadenu Nagar, Karur - TNPCB",03-12-2025 07:00:00,10.967820,78.080882,OZONE,6,10,7
India,TamilNadu,Madurai,"Uchapatti, Madurai - TNPCB",03-12-2025 07:00:00,9.865935,78.022669,NH3,9,9,9
India,TamilNadu,Madurai,"Uchapatti, Madurai - TNPCB",03-12-2025 07:00:00,9.865935,78.022669,CO,14,23,22
India,Assam,Guwahati,"Pan Bazaar, Guwahati - PCBA",03-12-2025 07:00:00,26.187500,91.744194,CO,22,98,55
India,Assam,Guwahati,"Pan Bazaar, Guwahati - PCBA",03-12-2025 07:00:00,26.187500,91.744194,OZONE,17,24,18
India,Assam,Nagaon,"Christianpatty, Nagaon - PCBA",03-12-2025 07:00:00,26.349082,92.68449,NH3,4,4,4
India,TamilNadu,Virudhunagar,"Collectorate Office, Virudhunagar - TNPCB",03-12-2025 07:00:00,9.559382,77.948828,NO2,NA,NA,NA
India,Assam,Nalbari,"Bata Chowk, Nalbari - PCBA",03-12-2025 07:00:00,26.446912,91.439057,CO,20,23,21
India,Telangana,Hyderabad,"Bollaram Industrial Area, Hyderabad - TSPCB",03-12-2025 07:00:00,17.540891,78.358528,NH3,3,6,5
India,Assam,Sivasagar,"Girls College, Sivasagar - PCBA",03-12-2025 07:00:00,26.987634,94.636574,NO2,24,42,30
India,Telangana,Hyderabad,"ECIL Kapra, Hyderabad - TSPCB",03-12-2025 07:00:00,17.470431,78.566959,PM10,75,101,87
India,Telangana,Hyderabad,"ECIL Kapra, Hyderabad - TSPCB",03-12-2025 07:00:00,17.470431,78.566959,NO2,8,16,10
India,Telangana,Hyderabad,"ECIL Kapra, Hyderabad - TSPCB",03-12-2025 07:00:00,17.470431,78.566959,NH3,2,4,3
India,Assam,Sivasagar,"Girls College, Sivasagar - PCBA",03-12-2025 07:00:00,26.987634,94.636574,CO,14,70,47
India,Uttar_Pradesh,Lucknow,"Talkatora District Industries Center, Lucknow - CPCB",03-12-2025 07:00:00,26.83399722,80.8917361,PM10,125,223,169
India,Uttar_Pradesh,Lucknow,"Talkatora District Industries Center, Lucknow - CPCB",03-12-2025 07:00:00,26.83399722,80.8917361,NO2,46,70,55
India,Uttar_Pradesh,Lucknow,"Talkatora District Industries Center, Lucknow - CPCB",03-12-2025 07:00:00,26.83399722,80.8917361,SO2,2,23,9
India,Chhattisgarh,Raipur,"Bhatagaon New ISBT, Raipur - CECB",03-12-2025 07:00:00,21.219665,81.630094,PM2.5,15,82,57
India,Uttar_Pradesh,Meerut,"Ganga Nagar, Meerut - UPPCB",03-12-2025 07:00:00,28.999264,77.7590354,PM10,171,438,269
India,Chhattisgarh,Raipur,"Bhatagaon New ISBT, Raipur - CECB",03-12-2025 07:00:00,21.219665,81.630094,NH3,2,2,2
India,Uttar_Pradesh,Meerut,"Ganga Nagar, Meerut - UPPCB",03-12-2025 07:00:00,28.999264,77.7590354,SO2,29,89,44
India,Uttar_Pradesh,Meerut,"Ganga Nagar, Meerut - UPPCB",03-12-2025 07:00:00,28.999264,77.7590354,CO,11,84,47
India,Uttar_Pradesh,Meerut,"Jai Bhim Nagar, Meerut - UPPCB",03-12-2025 07:00:00,28.9535882,77.7622941,PM2.5,222,500,334
India,Uttar_Pradesh,Meerut,"Jai Bhim Nagar, Meerut - UPPCB",03-12-2025 07:00:00,28.9535882,77.7622941,NH3,26,47,32
India,Uttar_Pradesh,Meerut,"Jai Bhim Nagar, Meerut - UPPCB",03-12-2025 07:00:00,28.9535882,77.7622941,CO,43,112,56
India,Chhattisgarh,Raipur,"Krishak Nagar, Raipur - CECB",03-12-2025 07:00:00,21.237755,81.705301,NO2,18,21,20
India,Chhattisgarh,Raipur,"Krishak Nagar, Raipur - CECB",03-12-2025 07:00:00,21.237755,81.705301,NH3,2,2,2
India,Uttar_Pradesh,Meerut,"Pallavpuram Phase 2, Meerut - UPPCB",03-12-2025 07:00:00,29.063510,77.709723,SO2,17,29,22
India,Uttar_Pradesh,Meerut,"Pallavpuram Phase 2, Meerut - UPPCB",03-12-2025 07:00:00,29.063510,77.709723,CO,16,84,34
India,Chhattisgarh,Raipur,"Siltara Phase-II, Raipur - CECB",03-12-2025 07:00:00,21.371751,81.664929,PM2.5,4,138,46
India,Chhattisgarh,Raipur,"Siltara Phase-II, Raipur - CECB",03-12-2025 07:00:00,21.371751,81.664929,NO2,9,65,22
India,Bihar,Patna,"Govt. High School Shikarpur, Patna - BSPCB",03-12-2025 07:00:00,25.592539,85.227158,NH3,4,5,5
India,Uttar_Pradesh,Bareilly,"Rajendra Nagar, Bareilly - UPPCB",03-12-2025 07:00:00,28.38910936,79.42963708,CO,7,24,22
India,Bihar,Patna,"Govt. High School Shikarpur, Patna - BSPCB",03-12-2025 07:00:00,25.592539,85.227158,OZONE,9,13,10
India,Uttar_Pradesh,Bulandshahr,"Yamunapuram, Bulandshahr - UPPCB",03-12-2025 07:00:00,28.406963,77.849831,NH3,15,20,16
India,Uttar_Pradesh,Bulandshahr,"Yamunapuram, Bulandshahr - UPPCB",03-12-2025 07:00:00,28.406963,77.849831,SO2,11,30,20
India,Bihar,Patna,"IGSC Planetarium Complex, Patna - BSPCB",03-12-2025 07:00:00,25.610369,85.132568,OZONE,27,30,29
India,Uttar_Pradesh,Firozabad,"Nagla Bhau, Firozabad - UPPCB",03-12-2025 07:00:00,27.168897,78.376960,SO2,8,25,18
India,Uttar_Pradesh,Firozabad,"Vibhab Nagar, Firozabad - UPPCB",03-12-2025 07:00:00,27.1594,78.3953,PM2.5,68,213,127
India,Bihar,Patna,"Rajbansi Nagar, Patna - BSPCB",03-12-2025 07:00:00,25.599486,85.113666,CO,27,116,71
India,Uttar_Pradesh,Firozabad,"Vibhab Nagar, Firozabad - UPPCB",03-12-2025 07:00:00,27.1594,78.3953,SO2,24,103,29
India,Bihar,Patna,"Samanpura, Patna - BSPCB",03-12-2025 07:00:00,25.596727,85.085624,PM2.5,70,227,165
India,Uttar_Pradesh,Firozabad,"Vibhab Nagar, Firozabad - UPPCB",03-12-2025 07:00:00,27.1594,78.3953,CO,3,24,15
India,Bihar,Patna,"Samanpura, Patna - BSPCB",03-12-2025 07:00:00,25.596727,85.085624,SO2,1,2,2
India,Uttar_Pradesh,Ghaziabad,"Indirapuram, Ghaziabad - UPPCB",03-12-2025 07:00:00,28.646233,77.358075,PM10,291,500,405
India,Uttar_Pradesh,Ghaziabad,"Indirapuram, Ghaziabad - UPPCB",03-12-2025 07:00:00,28.646233,77.358075,SO2,13,53,25
India,Uttar_Pradesh,Ghaziabad,"Loni, Ghaziabad - UPPCB",03-12-2025 07:00:00,28.757294,77.278792,PM2.5,347,500,434
India,Bihar,Rajgir,"Dangi Tola, Rajgir - BSPCB",03-12-2025 07:00:00,25.03280,85.41948,NO2,8,10,9
India,Uttar_Pradesh,Ghaziabad,"Loni, Ghaziabad - UPPCB",03-12-2025 07:00:00,28.757294,77.278792,CO,51,118,85
India,Bihar,Rajgir,"Dangi Tola, Rajgir - BSPCB",03-12-2025 07:00:00,25.03280,85.41948,CO,78,101,90
India,Bihar,Saharsa,"Police Line, Saharsa - BSPCB",03-12-2025 07:00:00,25.892357,86.590325,PM2.5,50,240,107
India,Bihar,Saharsa,"Police Line, Saharsa - BSPCB",03-12-2025 07:00:00,25.892357,86.590325,NH3,4,4,4
India,Bihar,Saharsa,"Police Line, Saharsa - BSPCB",03-12-2025 07:00:00,25.892357,86.590325,SO2,16,18,17
India,Uttar_Pradesh,Ghaziabad,"Vasundhara, Ghaziabad - UPPCB",03-12-2025 07:00:00,28.6603346,77.3572563,PM2.5,NA,NA,NA
India,Bihar,Samastipur,"DM Office_Kasipur, Samastipur - BSPCB",03-12-2025 07:00:00,25.859655,85.77944,PM2.5,28,210,79
India,Uttar_Pradesh,Ghaziabad,"Vasundhara, Ghaziabad - UPPCB",03-12-2025 07:00:00,28.6603346,77.3572563,CO,82,146,98
India,Uttar_Pradesh,Ghaziabad,"Vasundhara, Ghaziabad - UPPCB",03-12-2025 07:00:00,28.6603346,77.3572563,OZONE,6,144,11
India,Uttar_Pradesh,Gorakhpur,"Madan Mohan Malaviya University of Technology, Gorakhpur - UPPCB",03-12-2025 07:00:00,26.730136,83.433859,PM2.5,50,159,85
India,Uttar_Pradesh,Gorakhpur,"Madan Mohan Malaviya University of Technology, Gorakhpur - UPPCB",03-12-2025 07:00:00,26.730136,83.433859,NO2,10,12,11
India,Uttar_Pradesh,Gorakhpur,"Madan Mohan Malaviya University of Technology, Gorakhpur - UPPCB",03-12-2025 07:00:00,26.730136,83.433859,CO,6,8,7
India,Uttar_Pradesh,Lucknow,"B R Ambedkar University, Lucknow - UPPCB",03-12-2025 07:00:00,26.766433,80.927299,NO2,21,22,22
India,Uttar_Pradesh,Lucknow,"B R Ambedkar University, Lucknow - UPPCB",03-12-2025 07:00:00,26.766433,80.927299,NH3,6,13,9
India,Uttar_Pradesh,Lucknow,"B R Ambedkar University, Lucknow - UPPCB",03-12-2025 07:00:00,26.766433,80.927299,SO2,24,24,24
India,Uttar_Pradesh,Lucknow,"B R Ambedkar University, Lucknow - UPPCB",03-12-2025 07:00:00,26.766433,80.927299,CO,57,64,62
India,Uttar_Pradesh,Lucknow,"B R Ambedkar University, Lucknow - UPPCB",03-12-2025 07:00:00,26.766433,80.927299,OZONE,27,28,27
India,Chhattisgarh,Korba,"Urja Nagar, Korba - CECB",03-12-2025 07:00:00,22.348441,82.549611,PM10,92,93,93
India,Uttar_Pradesh,Lucknow,"Gomti Nagar, Lucknow - UPPCB",03-12-2025 07:00:00,26.868120,81.005119,CO,30,36,31
India,Uttar_Pradesh,Lucknow,"Kendriya Vidyalaya, Lucknow - CPCB",03-12-2025 07:00:00,26.906111,80.948222,PM10,109,204,152
India,Uttar_Pradesh,Lucknow,"Kendriya Vidyalaya, Lucknow - CPCB",03-12-2025 07:00:00,26.906111,80.948222,SO2,5,14,10
India,Chhattisgarh,Kunjemura,"OP Jindal School, Kunjemura - CECB",03-12-2025 07:00:00,22.126650,83.483212,PM2.5,26,69,51
India,Chhattisgarh,Kunjemura,"OP Jindal School, Kunjemura - CECB",03-12-2025 07:00:00,22.126650,83.483212,NH3,2,2,2
India,Chhattisgarh,Milupara,"Govt. Higher Secondary School, Milupara - CECB",03-12-2025 07:00:00,22.1910172,83.5197009,NO2,16,58,31
India,Uttar_Pradesh,Lucknow,"Lalbagh, Lucknow - CPCB",03-12-2025 07:00:00,26.8458805,80.9365541,PM10,131,202,171
India,Chhattisgarh,Raipur,"AIIMS, Raipur - CECB",03-12-2025 07:00:00,21.258815,81.578979,PM10,64,167,115
India,Uttar_Pradesh,Greater Noida,"Knowledge Park - III, Greater Noida - UPPCB",03-12-2025 07:00:00,28.47272,77.482000,NO2,60,192,115
India,Uttar_Pradesh,Greater Noida,"Knowledge Park - III, Greater Noida - UPPCB",03-12-2025 07:00:00,28.47272,77.482000,SO2,1,24,8
India,Bihar,Siwan,"Chitragupta Nagar, Siwan - BSPCB",03-12-2025 07:00:00,26.2271665,84.3570427,NO2,1,3,2
India,Uttar_Pradesh,Greater Noida,"Knowledge Park - III, Greater Noida - UPPCB",03-12-2025 07:00:00,28.47272,77.482000,CO,30,142,114
India,Bihar,Siwan,"Chitragupta Nagar, Siwan - BSPCB",03-12-2025 07:00:00,26.2271665,84.3570427,SO2,4,4,4
India,Uttar_Pradesh,Greater Noida,"Knowledge Park - V, Greater Noida - UPPCB",03-12-2025 07:00:00,28.557054,77.453663,NO2,NA,NA,NA
India,Chandigarh,Chandigarh,"Sector 22, Chandigarh - CPCC",03-12-2025 07:00:00,30.735567,76.775714,NH3,2,18,13
India,Uttar_Pradesh,Hapur,"Anand Vihar, Hapur - UPPCB",03-12-2025 07:00:00,28.725645,77.749675,CO,49,105,68
India,Chandigarh,Chandigarh,"Sector-25, Chandigarh - CPCC",03-12-2025 07:00:00,30.751462,76.762879,SO2,NA,NA,NA
India,Uttar_Pradesh,Hapur,"Anand Vihar, Hapur - UPPCB",03-12-2025 07:00:00,28.725645,77.749675,OZONE,5,38,12
India,Chandigarh,Chandigarh,"Sector-25, Chandigarh - CPCC",03-12-2025 07:00:00,30.751462,76.762879,OZONE,NA,NA,NA
India,Uttar_Pradesh,Jhansi,"Shivaji Nagar, Jhansi - UPPCB",03-12-2025 07:00:00,25.4547,78.6039,SO2,12,16,14
India,Uttar_Pradesh,Moradabad,"Kashiram Nagar, Moradabad - UPPCB",03-12-2025 07:00:00,28.849399,78.742362,NH3,4,4,4
India,Uttar_Pradesh,Moradabad,"Kashiram Nagar, Moradabad - UPPCB",03-12-2025 07:00:00,28.849399,78.742362,OZONE,22,51,25
India,Delhi,Delhi,"Aya Nagar, Delhi - IMD",03-12-2025 07:00:00,28.4706914,77.1099364,OZONE,9,186,11
India,Uttar_Pradesh,Moradabad,"Transport Nagar, Moradabad - UPPCB",03-12-2025 07:00:00,28.802625,78.753728,PM10,56,141,99
India,Uttar_Pradesh,Moradabad,"Transport Nagar, Moradabad - UPPCB",03-12-2025 07:00:00,28.802625,78.753728,CO,2,46,17
India,Delhi,Delhi,"Burari Crossing, Delhi - IMD",03-12-2025 07:00:00,28.7256504,77.2011573,NO2,66,176,120
India,Uttar_Pradesh,Noida,"Sector - 125, Noida - UPPCB",03-12-2025 07:00:00,28.5447608,77.3231257,PM2.5,350,500,406
India,Uttar_Pradesh,Noida,"Sector - 125, Noida - UPPCB",03-12-2025 07:00:00,28.5447608,77.3231257,PM10,193,460,292
India,Delhi,Delhi,"Chandni Chowk, Delhi - IITM",03-12-2025 07:00:00,28.656756,77.227234,NO2,46,115,70
India,Delhi,Delhi,"Chandni Chowk, Delhi - IITM",03-12-2025 07:00:00,28.656756,77.227234,NH3,8,15,11
India,Chandigarh,Chandigarh,"Sector-53, Chandigarh - CPCC",03-12-2025 07:00:00,30.719859,76.738637,OZONE,2,90,2
India,Chhattisgarh,Bhilai,"32Bungalows, Bhilai - CECB",03-12-2025 07:00:00,21.194815,81.314770,SO2,7,72,24
India,Chhattisgarh,Bhilai,"32Bungalows, Bhilai - CECB",03-12-2025 07:00:00,21.194815,81.314770,OZONE,4,84,11
India,Uttar_Pradesh,Kanpur,"NSI Kalyanpur, Kanpur - UPPCB",03-12-2025 07:00:00,26.509954,80.249612,NO2,22,22,22
India,Uttar_Pradesh,Kanpur,"NSI Kalyanpur, Kanpur - UPPCB",03-12-2025 07:00:00,26.509954,80.249612,CO,34,107,103
India,Uttar_Pradesh,Khurja,"Kalindi Kunj, Khurja - UPPCB",03-12-2025 07:00:00,28.2348927,77.8683002,PM10,117,443,221
India,Chhattisgarh,Bilaspur,"Mangala, Bilaspur - NTPC",03-12-2025 07:00:00,22.08815,82.13737,CO,28,77,56
India,Chhattisgarh,Chhal,"Nawapara SECL Colony, Chhal - CECB",03-12-2025 07:00:00,22.118125,83.140608,PM10,53,106,75
India,Chhattisgarh,Chhal,"Nawapara SECL Colony, Chhal - CECB",03-12-2025 07:00:00,22.118125,83.140608,NH3,5,5,5
India,Delhi,Delhi,"DTU, Delhi - CPCB",03-12-2025 07:00:00,28.7500499,77.1112615,SO2,34,42,37
India,Uttar_Pradesh,Noida,"Sector-1, Noida - UPPCB",03-12-2025 07:00:00,28.5898,77.3101,SO2,16,47,28
India,Uttar_Pradesh,Noida,"Sector-116, Noida - UPPCB",03-12-2025 07:00:00,28.569230,77.393848,PM2.5,321,500,410
India,Uttar_Pradesh,Noida,"Sector-116, Noida - UPPCB",03-12-2025 07:00:00,28.569230,77.393848,PM10,222,500,380
India,Delhi,Delhi,"Dr. Karni Singh Shooting Range, Delhi - DPCC",03-12-2025 07:00:00,28.498571,77.264840,CO,19,123,77
India,Delhi,Delhi,"Dwarka-Sector 8, Delhi - DPCC ",03-12-2025 07:00:00,28.5710274,77.0719006,PM10,NA,NA,NA
India,Delhi,Delhi,"Dwarka-Sector 8, Delhi - DPCC ",03-12-2025 07:00:00,28.5710274,77.0719006,NH3,12,14,13
India,Delhi,Delhi,"Dwarka-Sector 8, Delhi - DPCC ",03-12-2025 07:00:00,28.5710274,77.0719006,CO,63,161,103
India,Uttar_Pradesh,Moradabad,"Buddhi Vihar, Moradabad - UPPCB",03-12-2025 07:00:00,28.83526,78.74460,NO2,NA,NA,NA
India,Chhattisgarh,Raipur,"Siltara Phase-II, Raipur - CECB",03-12-2025 07:00:00,21.371751,81.664929,CO,34,36,35
India,Uttar_Pradesh,Moradabad,"Eco Herbal Park, Moradabad - UPPCB",03-12-2025 07:00:00,28.840739,78.697531,NO2,23,74,39
India,Uttar_Pradesh,Moradabad,"Employment Office, Moradabad - UPPCB",03-12-2025 07:00:00,28.88528,78.73880,OZONE,14,37,15
India,Delhi,Delhi,"Anand Vihar, Delhi - DPCC",03-12-2025 07:00:00,28.647622,77.3158090,NO2,82,196,126
India,Delhi,Delhi,"Anand Vihar, Delhi - DPCC",03-12-2025 07:00:00,28.647622,77.3158090,NH3,12,19,15
India,Uttarakhand,Kashipur,"Govt. Girls Inter College, Kashipur - UKPCB",03-12-2025 07:00:00,29.2124114,78.9611753,PM2.5,60,245,124
India,Delhi,Delhi,"Major Dhyan Chand National Stadium, Delhi - DPCC",03-12-2025 07:00:00,28.611281,77.237738,CO,98,195,123
India,Delhi,Delhi,"Major Dhyan Chand National Stadium, Delhi - DPCC",03-12-2025 07:00:00,28.611281,77.237738,OZONE,1,301,4
India,Delhi,Delhi,"Mandir Marg, Delhi - DPCC",03-12-2025 07:00:00,28.636429,77.201067,NH3,9,14,11
India,Uttarakhand,Rishikesh,"Shivaji Nagar, Rishikesh - UKPCB",03-12-2025 07:00:00,30.075911,78.2859547,PM2.5,16,77,53
India,Delhi,Delhi,"Mandir Marg, Delhi - DPCC",03-12-2025 07:00:00,28.636429,77.201067,CO,41,104,62
India,Uttarakhand,Rishikesh,"Shivaji Nagar, Rishikesh - UKPCB",03-12-2025 07:00:00,30.075911,78.2859547,NH3,6,16,9
India,Uttarakhand,Rishikesh,"Shivaji Nagar, Rishikesh - UKPCB",03-12-2025 07:00:00,30.075911,78.2859547,SO2,5,5,5
India,Delhi,Delhi,"Mundka, Delhi - DPCC",03-12-2025 07:00:00,28.684678,77.076574,NO2,113,174,138
India,Delhi,Delhi,"Mundka, Delhi - DPCC",03-12-2025 07:00:00,28.684678,77.076574,NH3,12,19,15
India,Uttarakhand,Rishikesh,"Shivaji Nagar, Rishikesh - UKPCB",03-12-2025 07:00:00,30.075911,78.2859547,OZONE,3,76,17
India,Delhi,Delhi,"NSIT Dwarka, Delhi - CPCB",03-12-2025 07:00:00,28.60909,77.0325413,PM2.5,70,470,215
India,Delhi,Delhi,"NSIT Dwarka, Delhi - CPCB",03-12-2025 07:00:00,28.60909,77.0325413,PM10,175,276,202
India,Delhi,Delhi,"NSIT Dwarka, Delhi - CPCB",03-12-2025 07:00:00,28.60909,77.0325413,NH3,8,18,14
India,Delhi,Delhi,"NSIT Dwarka, Delhi - CPCB",03-12-2025 07:00:00,28.60909,77.0325413,CO,48,105,64
India,West_Bengal,Asansol,"Evelyn Lodge, Asansol - WBPCB",03-12-2025 07:00:00,23.6979360,86.9443950,PM10,76,163,121
India,Delhi,Delhi,"Najafgarh, Delhi - DPCC",03-12-2025 07:00:00,28.570173,76.933762,NO2,69,135,95
India,West_Bengal,Asansol,"Evelyn Lodge, Asansol - WBPCB",03-12-2025 07:00:00,23.6979360,86.9443950,CO,26,103,51
India,Delhi,Delhi,"Najafgarh, Delhi - DPCC",03-12-2025 07:00:00,28.570173,76.933762,NH3,9,12,11
India,Delhi,Delhi,"Okhla Phase-2, Delhi - DPCC",03-12-2025 07:00:00,28.530785,77.271255,OZONE,4,301,8
India,West_Bengal,Kolkata,"Rabindra Bharati University, Kolkata - WBPCB",03-12-2025 07:00:00,22.627847,88.380669,PM2.5,157,312,230
India,Delhi,Delhi,"Patparganj, Delhi - DPCC",03-12-2025 07:00:00,28.623763,77.287209,NH3,12,16,14
India,Delhi,Delhi,"Patparganj, Delhi - DPCC",03-12-2025 07:00:00,28.623763,77.287209,CO,48,124,97
India,West_Bengal,Kolkata,"Rabindra Bharati University, Kolkata - WBPCB",03-12-2025 07:00:00,22.627847,88.380669,NO2,34,130,70
India,Delhi,Delhi,"Punjabi Bagh, Delhi - DPCC",03-12-2025 07:00:00,28.674045,77.131023,PM2.5,315,466,381
India,West_Bengal,Kolkata,"Rabindra Bharati University, Kolkata - WBPCB",03-12-2025 07:00:00,22.627847,88.380669,OZONE,14,146,19
India,Delhi,Delhi,"Punjabi Bagh, Delhi - DPCC",03-12-2025 07:00:00,28.674045,77.131023,OZONE,4,184,5
India,West_Bengal,Kolkata,"Rabindra Sarobar, Kolkata - WBPCB",03-12-2025 07:00:00,22.51106,88.35142,SO2,4,58,20
India,Delhi,Delhi,"Pusa, Delhi - DPCC",03-12-2025 07:00:00,28.639652,77.146275,PM10,211,480,333
India,West_Bengal,Kolkata,"Victoria, Kolkata - WBPCB",03-12-2025 07:00:00,22.5448082,88.3403691,PM10,120,203,160
India,West_Bengal,Kolkata,"Victoria, Kolkata - WBPCB",03-12-2025 07:00:00,22.5448082,88.3403691,NO2,12,26,19
India,Delhi,Delhi,"Pusa, Delhi - IMD",03-12-2025 07:00:00,28.636110,77.173332,PM10,169,415,299
India,Delhi,Delhi,"Pusa, Delhi - IMD",03-12-2025 07:00:00,28.636110,77.173332,NO2,60,162,109
India,West_Bengal,Kolkata,"Victoria, Kolkata - WBPCB",03-12-2025 07:00:00,22.5448082,88.3403691,CO,33,100,93
India,West_Bengal,Kolkata,"Victoria, Kolkata - WBPCB",03-12-2025 07:00:00,22.5448082,88.3403691,OZONE,5,72,5
India,West_Bengal,Kolkata,"Ballygunge, Kolkata - WBPCB",03-12-2025 07:00:00,22.5367507,88.3638022,PM10,123,209,162
India,West_Bengal,Kolkata,"Ballygunge, Kolkata - WBPCB",03-12-2025 07:00:00,22.5367507,88.3638022,NO2,27,67,47
India,Delhi,Delhi,"Narela, Delhi - DPCC",03-12-2025 07:00:00,28.822836,77.101981,NO2,26,110,56
India,West_Bengal,Kolkata,"Ballygunge, Kolkata - WBPCB",03-12-2025 07:00:00,22.5367507,88.3638022,CO,10,108,73
India,Delhi,Delhi,"Nehru Nagar, Delhi - DPCC",03-12-2025 07:00:00,28.567890,77.250515,NO2,72,143,97
India,Delhi,Delhi,"Nehru Nagar, Delhi - DPCC",03-12-2025 07:00:00,28.567890,77.250515,SO2,12,58,34
India,Delhi,Delhi,"North Campus, DU, Delhi - IMD",03-12-2025 07:00:00,28.6573814,77.1585447,PM2.5,308,465,376
India,West_Bengal,Kolkata,"Fort William, Kolkata - WBPCB",03-12-2025 07:00:00,22.556640,88.342674,PM10,119,218,168
India,West_Bengal,Kolkata,"Jadavpur, Kolkata - WBPCB",03-12-2025 07:00:00,22.49929,88.36917,PM10,135,240,196
India,Delhi,Delhi,"Jawaharlal Nehru Stadium, Delhi - DPCC",03-12-2025 07:00:00,28.580280,77.233829,NH3,4,19,9
India,Delhi,Delhi,"Jawaharlal Nehru Stadium, Delhi - DPCC",03-12-2025 07:00:00,28.580280,77.233829,OZONE,5,149,6
India,Uttar_Pradesh,Vrindavan,"Omex Eternity, Vrindavan - UPPCB",03-12-2025 07:00:00,27.5714090,77.6557570,PM2.5,50,225,122
India,Delhi,Delhi,"Lodhi Road, Delhi - IITM",03-12-2025 07:00:00,28.588333,77.221667,PM10,168,331,229
India,Delhi,Delhi,"Lodhi Road, Delhi - IITM",03-12-2025 07:00:00,28.588333,77.221667,NO2,2,114,52
India,Uttarakhand,Dehradun,"Doon University, Dehradun - UKPCB",03-12-2025 07:00:00,30.269444,78.044167,PM10,47,125,83
India,Delhi,Delhi,"Major Dhyan Chand National Stadium, Delhi - DPCC",03-12-2025 07:00:00,28.611281,77.237738,NO2,81,226,136
India,Delhi,Delhi,"Major Dhyan Chand National Stadium, Delhi - DPCC",03-12-2025 07:00:00,28.611281,77.237738,NH3,21,28,24
India,West_Bengal,Asansol,"Mahabir Colliery, Asansol - WBPCB",03-12-2025 07:00:00,23.6181830,87.1057180,SO2,6,9,8
India,West_Bengal,Asansol,"Trivenidevi Bhalotia College, Asansol - WBPCB",03-12-2025 07:00:00,23.616515,87.119133,PM2.5,76,314,201
India,West_Bengal,Asansol,"Trivenidevi Bhalotia College, Asansol - WBPCB",03-12-2025 07:00:00,23.616515,87.119133,SO2,2,7,4
India,West_Bengal,Asansol,"Trivenidevi Bhalotia College, Asansol - WBPCB",03-12-2025 07:00:00,23.616515,87.119133,CO,10,117,110
India,West_Bengal,Asansol,"Trivenidevi Bhalotia College, Asansol - WBPCB",03-12-2025 07:00:00,23.616515,87.119133,OZONE,1,67,3
India,West_Bengal,Barrackpore,"SVSPA Campus, Barrackpore - WBPCB",03-12-2025 07:00:00,22.7605581,88.3617589,PM2.5,125,313,242
India,West_Bengal,Barrackpore,"SVSPA Campus, Barrackpore - WBPCB",03-12-2025 07:00:00,22.7605581,88.3617589,NH3,8,11,10
India,West_Bengal,Durgapur,"Mahishkapur Road_B-Zone, Durgapur - WBPCB",03-12-2025 07:00:00,23.567923,87.306843,PM10,83,144,112
India,Delhi,Delhi,"IHBAS, Dilshad Garden, Delhi - CPCB",03-12-2025 07:00:00,28.6811736,77.3025234,PM2.5,129,401,226
India,Uttar_Pradesh,Varanasi,"Bhelupur, Varanasi - UPPCB",03-12-2025 07:00:00,25.301778,82.996789,PM2.5,48,300,118
India,Delhi,Delhi,"ITO, Delhi - CPCB",03-12-2025 07:00:00,28.628624,77.241060,PM10,213,417,313
India,Uttar_Pradesh,Varanasi,"Bhelupur, Varanasi - UPPCB",03-12-2025 07:00:00,25.301778,82.996789,PM10,48,167,92
India,Delhi,Delhi,"ITO, Delhi - CPCB",03-12-2025 07:00:00,28.628624,77.241060,NH3,2,7,4
India,Uttar_Pradesh,Varanasi,"Bhelupur, Varanasi - UPPCB",03-12-2025 07:00:00,25.301778,82.996789,NH3,1,1,1
India,Uttar_Pradesh,Varanasi,"Bhelupur, Varanasi - UPPCB",03-12-2025 07:00:00,25.301778,82.996789,CO,14,105,70
India,Uttar_Pradesh,Varanasi,"Bhelupur, Varanasi - UPPCB",03-12-2025 07:00:00,25.301778,82.996789,OZONE,1,5,1
India,West_Bengal,Howrah,"Ghusuri, Howrah - WBPCB",03-12-2025 07:00:00,22.611968,88.347422,OZONE,10,44,13
India,West_Bengal,Howrah,"Padmapukur, Howrah - WBPCB",03-12-2025 07:00:00,22.5687319,88.2797276,PM2.5,197,404,321
India,West_Bengal,Howrah,"Padmapukur, Howrah - WBPCB",03-12-2025 07:00:00,22.5687319,88.2797276,PM10,138,487,261
India,West_Bengal,Howrah,"Padmapukur, Howrah - WBPCB",03-12-2025 07:00:00,22.5687319,88.2797276,NH3,2,3,2
India,Delhi,Delhi,"Najafgarh, Delhi - DPCC",03-12-2025 07:00:00,28.570173,76.933762,CO,56,123,69
India,West_Bengal,Durgapur,"PCBL Residential Complex, Durgapur - WBPCB",03-12-2025 07:00:00,23.5087640,87.3544400,PM2.5,73,234,113
India,West_Bengal,Haldia,"Priyambada Housing Estate, Haldia - WBPCB",03-12-2025 07:00:00,22.06047,88.109737,SO2,13,24,16
India,West_Bengal,Haldia,"Priyambada Housing Estate, Haldia - WBPCB",03-12-2025 07:00:00,22.06047,88.109737,CO,36,94,62
India,West_Bengal,Siliguri,"Ward-32 Bapupara, Siliguri - WBPCB",03-12-2025 07:00:00,26.6879226,88.4152495,OZONE,11,109,13
India,Gujarat,Ankleshwar,"GIDC, Ankleshwar - GPCB",03-12-2025 07:00:00,21.613267,73.010555,CO,35,104,64
India,Gujarat,Gandhinagar,"IIPHG Lekawada, Gandhinagar - IITM",03-12-2025 07:00:00,23.243639,72.68994,NO2,6,9,8
India,Gujarat,Gandhinagar,"IIPHG Lekawada, Gandhinagar - IITM",03-12-2025 07:00:00,23.243639,72.68994,SO2,1,2,1
India,Gujarat,Gandhinagar,"IIPHG Lekawada, Gandhinagar - IITM",03-12-2025 07:00:00,23.243639,72.68994,OZONE,4,39,5
India,Gujarat,Gandhinagar,"Sector-10, Gandhinagar - GPCB",03-12-2025 07:00:00,23.221714,72.654328,NH3,2,3,2
India,Gujarat,Gandhinagar,"Sector-10, Gandhinagar - GPCB",03-12-2025 07:00:00,23.221714,72.654328,CO,26,52,34
India,Gujarat,Nandesari,"GIDC, Nandesari - Nandesari Ind. Association",03-12-2025 07:00:00,22.410802,73.097923,PM2.5,85,229,157
India,Gujarat,Surat,"Science Center, Surat - SMC",03-12-2025 07:00:00,21.170046,72.795405,NO2,1,12,5
India,Delhi,Delhi,"Sonia Vihar, Delhi - DPCC",03-12-2025 07:00:00,28.710508,77.249485,CO,94,130,112
India,Delhi,Delhi,"Sri Aurobindo Marg, Delhi - DPCC",03-12-2025 07:00:00,28.531346,77.190156,PM2.5,302,402,360
India,Delhi,Delhi,"Sri Aurobindo Marg, Delhi - DPCC",03-12-2025 07:00:00,28.531346,77.190156,OZONE,1,145,1
India,Delhi,Delhi,"Vivek Vihar, Delhi - DPCC",03-12-2025 07:00:00,28.672342,77.315260,PM2.5,353,481,415
India,Delhi,Delhi,"Vivek Vihar, Delhi - DPCC",03-12-2025 07:00:00,28.672342,77.315260,PM10,224,470,385
India,Delhi,Delhi,"Vivek Vihar, Delhi - DPCC",03-12-2025 07:00:00,28.672342,77.315260,NH3,11,14,13
India,Delhi,Delhi,"Wazirpur, Delhi - DPCC",03-12-2025 07:00:00,28.699793,77.165453,NO2,59,111,82
India,Delhi,Delhi,"Wazirpur, Delhi - DPCC",03-12-2025 07:00:00,28.699793,77.165453,NH3,8,13,11
India,Gujarat,Ahmedabad,"Chandkheda, Ahmedabad - IITM",03-12-2025 07:00:00,23.107969,72.574648,SO2,3,16,7
India,Gujarat,Ahmedabad,"Gyaspur, Ahmedabad - IITM",03-12-2025 07:00:00,22.977134,72.553024,PM10,172,193,174
India,Gujarat,Ahmedabad,"Gyaspur, Ahmedabad - IITM",03-12-2025 07:00:00,22.977134,72.553024,NH3,3,19,6
India,Gujarat,Ahmedabad,"Gyaspur, Ahmedabad - IITM",03-12-2025 07:00:00,22.977134,72.553024,SO2,13,28,23
India,Gujarat,Ahmedabad,"Maninagar, Ahmedabad - GPCB",03-12-2025 07:00:00,23.002657,72.591912,NO2,59,60,60
India,Gujarat,Ahmedabad,"Rakhial, Ahmedabad - IITM",03-12-2025 07:00:00,23.016834,72.625775,PM2.5,9,213,100
India,Gujarat,Ahmedabad,"Rakhial, Ahmedabad - IITM",03-12-2025 07:00:00,23.016834,72.625775,NH3,3,9,6
India,Gujarat,Ahmedabad,"Rakhial, Ahmedabad - IITM",03-12-2025 07:00:00,23.016834,72.625775,CO,35,131,83
India,Haryana,Faridabad,"Sector 11, Faridabad - HSPCB",03-12-2025 07:00:00,28.376058,77.315741,CO,10,40,22
India,Haryana,Faridabad,"Sector 30, Faridabad - HSPCB",03-12-2025 07:00:00,28.4417,77.3217,PM10,148,162,154
India,Haryana,Faridabad,"Sector 30, Faridabad - HSPCB",03-12-2025 07:00:00,28.4417,77.3217,SO2,6,7,6
India,Haryana,Fatehabad,"Huda Sector, Fatehabad - HSPCB",03-12-2025 07:00:00,29.503664,75.467934,PM10,102,164,136
India,Haryana,Gurugram,"Sector-51, Gurugram - HSPCB",03-12-2025 07:00:00,28.4227,77.0667,PM10,94,500,283
India,Haryana,Gurugram,"Sector-51, Gurugram - HSPCB",03-12-2025 07:00:00,28.4227,77.0667,NO2,2,5,3
India,Gujarat,Ahmedabad,"Rakhial, Ahmedabad - IITM",03-12-2025 07:00:00,23.016834,72.625775,OZONE,1,68,2
India,Gujarat,Ahmedabad,"SAC ISRO Bopal, Ahmedabad - IITM",03-12-2025 07:00:00,23.041137,72.456691,NO2,19,66,38
India,Gujarat,Ahmedabad,"SAC ISRO Bopal, Ahmedabad - IITM",03-12-2025 07:00:00,23.041137,72.456691,SO2,2,4,2
India,Gujarat,Ahmedabad,"SVPI Airport Hansol, Ahmedabad - IITM",03-12-2025 07:00:00,23.076793,72.627874,OZONE,2,43,3
India,Gujarat,Ankleshwar,"GIDC, Ankleshwar - GPCB",03-12-2025 07:00:00,21.613267,73.010555,PM2.5,67,182,112
India,Gujarat,Ankleshwar,"GIDC, Ankleshwar - GPCB",03-12-2025 07:00:00,21.613267,73.010555,NO2,14,22,19
India,Haryana,Bhiwani,"H.B. Colony, Bhiwani - HSPCB",03-12-2025 07:00:00,28.806223,76.141105,CO,10,14,12
India,Haryana,Charkhi Dadri,"Mini Secretariat, Charkhi Dadri - HSPCB",03-12-2025 07:00:00,28.593883,76.270653,PM2.5,286,359,323
India,Haryana,Charkhi Dadri,"Mini Secretariat, Charkhi Dadri - HSPCB",03-12-2025 07:00:00,28.593883,76.270653,CO,8,25,14
India,Haryana,Dharuhera,"Municipal Corporation Office, Dharuhera -  HSPCB",03-12-2025 07:00:00,28.206800,76.799700,PM2.5,243,405,346
India,Haryana,Dharuhera,"Municipal Corporation Office, Dharuhera -  HSPCB",03-12-2025 07:00:00,28.206800,76.799700,OZONE,6,47,9
India,Gujarat,Vatva,"Phase-4 GIDC, Vatva - GPCB",03-12-2025 07:00:00,22.969611,72.643500,PM2.5,85,156,130
India,Gujarat,Vatva,"Phase-4 GIDC, Vatva - GPCB",03-12-2025 07:00:00,22.969611,72.643500,PM10,96,120,111
India,Gujarat,Vatva,"Phase-4 GIDC, Vatva - GPCB",03-12-2025 07:00:00,22.969611,72.643500,NH3,6,10,8
India,Haryana,Ambala,"Patti Mehar, Ambala - HSPCB",03-12-2025 07:00:00,30.379589,76.778328,PM2.5,99,119,104
India,Haryana,Ambala,"Patti Mehar, Ambala - HSPCB",03-12-2025 07:00:00,30.379589,76.778328,NH3,9,11,10
India,Delhi,Delhi,"Shadipur, Delhi - CPCB",03-12-2025 07:00:00,28.6514781,77.1473105,PM10,161,448,321
India,Delhi,Delhi,"Sirifort, Delhi - CPCB",03-12-2025 07:00:00,28.5504249,77.2159377,NO2,68,95,79
India,Delhi,Delhi,"Sirifort, Delhi - CPCB",03-12-2025 07:00:00,28.5504249,77.2159377,SO2,20,29,23
India,Delhi,Delhi,"Sonia Vihar, Delhi - DPCC",03-12-2025 07:00:00,28.710508,77.249485,NH3,7,10,8
India,Haryana,Gurugram,"Teri Gram, Gurugram - HSPCB",03-12-2025 07:00:00,28.4275,77.1465,NO2,NA,NA,NA
India,Haryana,Gurugram,"Teri Gram, Gurugram - HSPCB",03-12-2025 07:00:00,28.4275,77.1465,NH3,NA,NA,NA
India,Haryana,Gurugram,"Teri Gram, Gurugram - HSPCB",03-12-2025 07:00:00,28.4275,77.1465,SO2,NA,NA,NA
India,Haryana,Gurugram,"Teri Gram, Gurugram - HSPCB",03-12-2025 07:00:00,28.4275,77.1465,OZONE,NA,NA,NA
India,Haryana,Gurugram,"Vikas Sadan, Gurugram - HSPCB",03-12-2025 07:00:00,28.4501238,77.0263051,PM2.5,155,293,210
India,Haryana,Sonipat,"Murthal, Sonipat - HSPCB",03-12-2025 07:00:00,29.027200,77.062100,SO2,7,11,8
India,Haryana,Yamuna Nagar,"Gobind Pura, Yamuna Nagar - HSPCB",03-12-2025 07:00:00,30.1480566,77.2893471,PM2.5,NA,NA,NA
India,Haryana,Yamuna Nagar,"Gobind Pura, Yamuna Nagar - HSPCB",03-12-2025 07:00:00,30.1480566,77.2893471,NH3,NA,NA,NA
India,Haryana,Yamuna Nagar,"Gobind Pura, Yamuna Nagar - HSPCB",03-12-2025 07:00:00,30.1480566,77.2893471,CO,NA,NA,NA
India,Haryana,Yamuna Nagar,"Gobind Pura, Yamuna Nagar - HSPCB",03-12-2025 07:00:00,30.1480566,77.2893471,OZONE,NA,NA,NA
India,Himachal Pradesh,Baddi,"HIMUDA Complex Phase-1, Baddi - HPPCB",03-12-2025 07:00:00,30.943887,76.801991,NH3,6,12,8
India,Himachal Pradesh,Baddi,"HIMUDA Complex Phase-1, Baddi - HPPCB",03-12-2025 07:00:00,30.943887,76.801991,OZONE,12,189,29
India,Jammu_and_Kashmir,Srinagar,"Rajbagh, Srinagar - JKSPCB",03-12-2025 07:00:00,34.066206,74.819820,CO,2,12,7
India,Jharkhand,Dhanbad,"Sardar Patel Nagar, Dhanbad - JSPCB",03-12-2025 07:00:00,23.80569,86.44268,PM10,81,342,155
India,Haryana,Panchgaon,"Amity University, Panchgaon - IITM",03-12-2025 07:00:00,28.3153,76.9143,NO2,4,10,9
India,Haryana,Panchkula,"Sector-6, Panchkula - HSPCB ",03-12-2025 07:00:00,30.7057778,76.8531805555555,PM2.5,91,105,95
India,Haryana,Panchkula,"Sector-6, Panchkula - HSPCB ",03-12-2025 07:00:00,30.7057778,76.8531805555555,SO2,8,9,9
India,Haryana,Panchkula,"Sector-6, Panchkula - HSPCB ",03-12-2025 07:00:00,30.7057778,76.8531805555555,OZONE,18,29,22
India,Haryana,Panipat,"Sector-18, Panipat - HSPCB",03-12-2025 07:00:00,29.432304,76.972765,PM10,NA,NA,NA
India,Haryana,Panipat,"Sector-18, Panipat - HSPCB",03-12-2025 07:00:00,29.432304,76.972765,CO,32,48,48
India,Haryana,Sirsa,"F-Block, Sirsa - HSPCB",03-12-2025 07:00:00,29.536400,75.015800,NO2,13,23,19
India,Haryana,Sirsa,"F-Block, Sirsa - HSPCB",03-12-2025 07:00:00,29.536400,75.015800,CO,28,78,64
India,Haryana,Sonipat,"Murthal, Sonipat - HSPCB",03-12-2025 07:00:00,29.027200,77.062100,PM2.5,151,418,308
India,Karnataka,Bengaluru,"RVCE-Mailasandra, Bengaluru - KSPCB",03-12-2025 07:00:00,12.921418,77.502466,PM2.5,49,54,50
India,Karnataka,Bengaluru,"Shivapura_Peenya, Bengaluru - KSPCB",03-12-2025 07:00:00,13.0246342,77.5080115,NH3,5,5,5
India,Karnataka,Bengaluru,"Silk Board, Bengaluru - KSPCB",03-12-2025 07:00:00,12.917348,77.622813,PM2.5,23,41,31
India,Karnataka,Bengaluru,"Silk Board, Bengaluru - KSPCB",03-12-2025 07:00:00,12.917348,77.622813,PM10,22,59,40
India,Karnataka,Bengaluru,"Silk Board, Bengaluru - KSPCB",03-12-2025 07:00:00,12.917348,77.622813,NO2,10,14,12
India,Karnataka,Bengaluru,"Silk Board, Bengaluru - KSPCB",03-12-2025 07:00:00,12.917348,77.622813,NH3,2,2,2
India,Karnataka,Bengaluru,"Silk Board, Bengaluru - KSPCB",03-12-2025 07:00:00,12.917348,77.622813,CO,NA,NA,NA
India,Karnataka,Chamarajanagar,"Urban, Chamarajanagar - KSPCB",03-12-2025 07:00:00,11.55358,76.55521,NO2,14,35,23
India,Haryana,Karnal,"Sector-12, Karnal - HSPCB",03-12-2025 07:00:00,29.695300,77.002700,NO2,6,7,6
India,Haryana,Karnal,"Sector-12, Karnal - HSPCB",03-12-2025 07:00:00,29.695300,77.002700,NH3,6,7,6
India,Haryana,Kurukshetra,"Sector-7, Kurukshetra - HSPCB",03-12-2025 07:00:00,29.966942,76.875879,PM2.5,129,278,197
India,Haryana,Kurukshetra,"Sector-7, Kurukshetra - HSPCB",03-12-2025 07:00:00,29.966942,76.875879,NH3,NA,NA,NA
India,Haryana,Kurukshetra,"Sector-7, Kurukshetra - HSPCB",03-12-2025 07:00:00,29.966942,76.875879,CO,29,51,36
India,Haryana,Mandikhera,"General Hospital, Mandikhera(Nuh) - HSPCB",03-12-2025 07:00:00,27.9002,76.9938,PM10,NA,NA,NA
India,Haryana,Manesar,"Sector-2 IMT, Manesar - HSPCB",03-12-2025 07:00:00,28.360699,76.936090,PM10,146,434,210
India,Haryana,Manesar,"Sector-2 IMT, Manesar - HSPCB",03-12-2025 07:00:00,28.360699,76.936090,OZONE,9,51,12
India,Haryana,Palwal,"Shyam Nagar, Palwal - HSPCB",03-12-2025 07:00:00,28.1485564,77.3320667,NO2,23,25,24
India,Haryana,Panchgaon,"Amity University, Panchgaon - IITM",03-12-2025 07:00:00,28.3153,76.9143,PM2.5,70,181,114
India,Karnataka,Bagalkot,"Vidayagiri, Bagalkot - KSPCB",03-12-2025 07:00:00,16.172806,75.659694,NH3,1,2,1
India,Karnataka,Belgaum,"Ramteerth Nagar, Belgaum - KSPCB",03-12-2025 07:00:00,15.888653,74.541751,PM10,62,132,96
India,Karnataka,Bengaluru,"BTM Layout, Bengaluru - CPCB",03-12-2025 07:00:00,12.9135218,77.5950804,PM2.5,68,93,77
India,Karnataka,Bengaluru,"BTM Layout, Bengaluru - CPCB",03-12-2025 07:00:00,12.9135218,77.5950804,NH3,5,6,5
India,Karnataka,Bengaluru,"BWSSB Kadabesanahalli, Bengaluru - CPCB",03-12-2025 07:00:00,12.9352049,77.6814488,NH3,1,1,1
India,Karnataka,Bengaluru,"City Railway Station, Bengaluru - KSPCB",03-12-2025 07:00:00,12.9756843,77.5660749,NO2,37,42,39
India,Karnataka,Bengaluru,"Hombegowda Nagar, Bengaluru - KSPCB",03-12-2025 07:00:00,12.938539,77.590100,PM2.5,8,29,18
India,Karnataka,Bengaluru,"Hombegowda Nagar, Bengaluru - KSPCB",03-12-2025 07:00:00,12.938539,77.590100,SO2,5,14,8
India,Karnataka,Bengaluru,"Jayanagar 5th Block, Bengaluru - KSPCB",03-12-2025 07:00:00,12.920984,77.584908,PM2.5,17,50,34
India,Karnataka,Bengaluru,"Kasturi Nagar, Bengaluru - KSPCB",03-12-2025 07:00:00,13.003872,77.664217,PM2.5,59,61,60
India,Karnataka,Bengaluru,"Kasturi Nagar, Bengaluru - KSPCB",03-12-2025 07:00:00,13.003872,77.664217,NO2,29,30,30
India,Karnataka,Bengaluru,"Kasturi Nagar, Bengaluru - KSPCB",03-12-2025 07:00:00,13.003872,77.664217,OZONE,20,21,20
India,Karnataka,Bengaluru,"Peenya, Bengaluru - CPCB",03-12-2025 07:00:00,13.0270199,77.494094,OZONE,25,26,25
India,Karnataka,Chamarajanagar,"Urban, Chamarajanagar - KSPCB",03-12-2025 07:00:00,11.55358,76.55521,SO2,2,8,4
India,Karnataka,Davanagere,"Devaraj Urs Badavane, Davanagere - KSPCB",03-12-2025 07:00:00,14.475800,75.905200,PM2.5,13,221,55
India,Karnataka,Davanagere,"Devaraj Urs Badavane, Davanagere - KSPCB",03-12-2025 07:00:00,14.475800,75.905200,NH3,2,5,3
India,Karnataka,Davanagere,"Devaraj Urs Badavane, Davanagere - KSPCB",03-12-2025 07:00:00,14.475800,75.905200,CO,43,61,45
India,Madhya Pradesh,Gwalior,"Maharaj Bada, Gwalior - MPPCB",03-12-2025 07:00:00,26.200388,78.147714,NO2,22,121,61
India,Madhya Pradesh,Gwalior,"Maharaj Bada, Gwalior - MPPCB",03-12-2025 07:00:00,26.200388,78.147714,NH3,6,6,6
India,Madhya Pradesh,Gwalior,"Maharaj Bada, Gwalior - MPPCB",03-12-2025 07:00:00,26.200388,78.147714,SO2,7,10,8
India,Madhya Pradesh,Indore,"Chhoti Gwaltoli, Indore - MPPCB",03-12-2025 07:00:00,22.4310,75.5213,SO2,6,17,10
India,Madhya Pradesh,Indore,"Chhoti Gwaltoli, Indore - MPPCB",03-12-2025 07:00:00,22.4310,75.5213,OZONE,4,89,4
India,Madhya Pradesh,Indore,"Maguda Nagar, Indore - IMC",03-12-2025 07:00:00,22.7524,75.8872,PM2.5,NA,NA,NA
India,Madhya Pradesh,Indore,"Maguda Nagar, Indore - IMC",03-12-2025 07:00:00,22.7524,75.8872,NO2,2,2,2
India,Madhya Pradesh,Indore,"Regional Park, Indore - IMC",03-12-2025 07:00:00,22.6780,75.8559,PM2.5,35,97,61
India,Madhya Pradesh,Indore,"Regional Park, Indore - IMC",03-12-2025 07:00:00,22.6780,75.8559,PM10,29,81,51
India,Karnataka,Hubballi,"Lingaraj Nagar, Hubballi - KSPCB",03-12-2025 07:00:00,15.3714823,75.1160168,CO,21,36,24
India,Karnataka,Kalaburagi,"Lal Bahadur Shastri Nagar, Kalaburagi - KSPCB",03-12-2025 07:00:00,17.321993,76.822628,PM2.5,16,66,41
India,Karnataka,Kalaburagi,"Lal Bahadur Shastri Nagar, Kalaburagi - KSPCB",03-12-2025 07:00:00,17.321993,76.822628,SO2,73,102,76
India,Karnataka,Kalaburagi,"Mahatma Basaveswar Colony, Kalaburgi - KSPCB",03-12-2025 07:00:00,17.336318,76.847397,SO2,3,5,4
India,Karnataka,Koppal,"Diwator Nagar, Koppal - KSPCB",03-12-2025 07:00:00,15.347630,76.181767,NH3,7,7,7
India,Karnataka,Koppal,"Diwator Nagar, Koppal - KSPCB",03-12-2025 07:00:00,15.347630,76.181767,CO,24,46,39
India,Karnataka,Mangalore,"Kadri, Mangalore - KSPCB",03-12-2025 07:00:00,12.889250,74.853000,PM2.5,48,99,69
India,Karnataka,Mysuru,"Hebbal 1st Stage, Mysuru - KSPCB",03-12-2025 07:00:00,12.21041,76.37376,CO,9,50,18
India,Karnataka,Mysuru,"Hebbal 1st Stage, Mysuru - KSPCB",03-12-2025 07:00:00,12.21041,76.37376,OZONE,6,63,13
India,Karnataka,Shivamogga,"Vinoba Nagara, Shivamogga - KSPCB",03-12-2025 07:00:00,13.940000,75.555917,PM2.5,21,40,33
India,Karnataka,Shivamogga,"Vinoba Nagara, Shivamogga - KSPCB",03-12-2025 07:00:00,13.940000,75.555917,SO2,2,6,4
India,Karnataka,Yadgir,"Collector Office, Yadgir - KSPCB",03-12-2025 07:00:00,16.7602,77.1428,CO,18,25,24
India,Kerala,Eloor,"Udyogamandal, Eloor - Kerala PCB",03-12-2025 07:00:00,10.073232,76.302765,PM10,44,65,52
India,Madhya Pradesh,Jabalpur,"Suhagi, Jabalpur - JMC",03-12-2025 07:00:00,23.218135,79.957770,PM2.5,57,243,98
India,Madhya Pradesh,Jabalpur,"Suhagi, Jabalpur - JMC",03-12-2025 07:00:00,23.218135,79.957770,PM10,62,151,96
India,Madhya Pradesh,Jabalpur,"Suhagi, Jabalpur - JMC",03-12-2025 07:00:00,23.218135,79.957770,NO2,28,131,57
India,Madhya Pradesh,Jabalpur,"Suhagi, Jabalpur - JMC",03-12-2025 07:00:00,23.218135,79.957770,SO2,5,7,7
India,Madhya Pradesh,Mandideep,"Sector-D Industrial Area, Mandideep - MPPCB",03-12-2025 07:00:00,23.108440,77.511428,SO2,17,108,69
India,Madhya Pradesh,Pithampur,"Sector-2 Industrial Area, Pithampur - MPPCB",03-12-2025 07:00:00,22.624758,75.675238,PM2.5,78,305,165
India,Madhya Pradesh,Dewas,"Bhopal Chauraha, Dewas - MPPCB",03-12-2025 07:00:00,22.9682591,76.064118,PM2.5,58,109,86
India,Madhya Pradesh,Dewas,"Bhopal Chauraha, Dewas - MPPCB",03-12-2025 07:00:00,22.9682591,76.064118,NO2,7,8,8
India,Madhya Pradesh,Dewas,"Bhopal Chauraha, Dewas - MPPCB",03-12-2025 07:00:00,22.9682591,76.064118,NH3,2,3,3
India,Madhya Pradesh,Dewas,"Bhopal Chauraha, Dewas - MPPCB",03-12-2025 07:00:00,22.9682591,76.064118,OZONE,24,26,26
India,Madhya Pradesh,Gwalior,"Deen Dayal Nagar, Gwalior - MPPCB",03-12-2025 07:00:00,26.259242,78.216432,SO2,1,52,12
India,Madhya Pradesh,Gwalior,"Deen Dayal Nagar, Gwalior - MPPCB",03-12-2025 07:00:00,26.259242,78.216432,CO,4,146,55
India,Madhya Pradesh,Ratlam,"Shasthri Nagar, Ratlam - IPCA Lab",03-12-2025 07:00:00,23.331731,75.045981,SO2,33,35,34
India,Madhya Pradesh,Sagar,"Civil Lines, Sagar - MPPCB",03-12-2025 07:00:00,23.838586,78.759431,NH3,1,4,1
India,Madhya Pradesh,Satna,"Bandhavgar Colony, Satna - Birla Cement",03-12-2025 07:00:00,24.58434363,80.8549414,PM10,66,68,67
India,Madhya Pradesh,Satna,"Bandhavgar Colony, Satna - Birla Cement",03-12-2025 07:00:00,24.58434363,80.8549414,CO,20,74,48
India,Madhya Pradesh,Bhopal,"Idgah Hills, Bhopal - MPPCB",03-12-2025 07:00:00,23.264759,77.381568,NH3,NA,NA,NA
India,Madhya Pradesh,Bhopal,"Idgah Hills, Bhopal - MPPCB",03-12-2025 07:00:00,23.264759,77.381568,CO,27,70,44
India,Madhya Pradesh,Bhopal,"Paryavaran Parisar, Bhopal - MPPCB",03-12-2025 07:00:00,23.210494,77.425409,PM10,85,296,170
India,Madhya Pradesh,Bhopal,"Paryavaran Parisar, Bhopal - MPPCB",03-12-2025 07:00:00,23.210494,77.425409,NH3,1,10,3
India,Madhya Pradesh,Bhopal,"Paryavaran Parisar, Bhopal - MPPCB",03-12-2025 07:00:00,23.210494,77.425409,SO2,5,11,8
India,Madhya Pradesh,Jabalpur,"Gupteshwar, Jabalpur - JMC",03-12-2025 07:00:00,23.142888,79.916147,SO2,NA,NA,NA
India,Madhya Pradesh,Jabalpur,"Gupteshwar, Jabalpur - JMC",03-12-2025 07:00:00,23.142888,79.916147,OZONE,7,84,14
India,Madhya Pradesh,Jabalpur,"Marhatal, Jabalpur - MPPCB",03-12-2025 07:00:00,23.168606,79.932247,NH3,2,3,2
India,Kerala,Kannur,"Thavakkara, Kannur - Kerala PCB",03-12-2025 07:00:00,11.875000,75.373200,NH3,1,2,2
India,Kerala,Thiruvananthapuram,"Kariavattom, Thiruvananthapuram - Kerala PCB",03-12-2025 07:00:00,8.563700,76.886500,CO,16,94,41
India,Madhya Pradesh,Singrauli,"Suryakiran Bhawan NCL, Singrauli - MPPCB",03-12-2025 07:00:00,24.108970,82.645580,NO2,30,109,90
India,Maharashtra,Akola,"Ramdaspeth, Akola - MPCB",03-12-2025 07:00:00,20.719516,77.000253,SO2,3,23,15
India,Maharashtra,Akola,"Ramdaspeth, Akola - MPCB",03-12-2025 07:00:00,20.719516,77.000253,CO,18,108,64
India,Maharashtra,Amravati,"Shivneri Colony, Amravati - MPCB",03-12-2025 07:00:00,20.9402359,77.7895248,NO2,11,40,20
India,Maharashtra,Amravati,"Shri Shivaji Science College, Amravati - MPCB",03-12-2025 07:00:00,20.939198,77.765701,PM2.5,80,164,101
India,Maharashtra,Chandrapur,"Chauhan Colony, Chandrapur - MPCB",03-12-2025 07:00:00,19.962900,79.298714,CO,24,53,41
India,Maharashtra,Chandrapur,"Chauhan Colony, Chandrapur - MPCB",03-12-2025 07:00:00,19.962900,79.298714,OZONE,20,20,20
India,Maharashtra,Chandrapur,"MIDC Khutala, Chandrapur - MPCB",03-12-2025 07:00:00,19.9775302,79.2337086,NO2,11,47,23
India,Maharashtra,Chandrapur,"MIDC Khutala, Chandrapur - MPCB",03-12-2025 07:00:00,19.9775302,79.2337086,SO2,8,9,9
India,Maharashtra,Dhule,"Deopur, Dhule - MPCB",03-12-2025 07:00:00,20.918946,74.776388,PM2.5,84,319,184
India,Maharashtra,Dhule,"Deopur, Dhule - MPCB",03-12-2025 07:00:00,20.918946,74.776388,PM10,75,460,162
India,Maharashtra,Dhule,"Deopur, Dhule - MPCB",03-12-2025 07:00:00,20.918946,74.776388,NH3,1,16,3
India,Maharashtra,Mahad,"Kamble Tarf Birwadi, Mahad - MPCB",03-12-2025 07:00:00,18.1023399,73.4783687,PM2.5,112,337,191
India,Maharashtra,Mahad,"Kamble Tarf Birwadi, Mahad - MPCB",03-12-2025 07:00:00,18.1023399,73.4783687,OZONE,21,71,35
India,Maharashtra,Malegaon,"Mahesh Nagar, Malegaon - MPCB",03-12-2025 07:00:00,20.555712,74.529236,PM10,52,254,130
India,Maharashtra,Malegaon,"Mahesh Nagar, Malegaon - MPCB",03-12-2025 07:00:00,20.555712,74.529236,NH3,1,26,3
India,Maharashtra,Mira-Bhayandar,"Bhayandar West, Mira-Bhayandar - MPCB",03-12-2025 07:00:00,19.296481,72.840923,PM10,76,370,133
India,Maharashtra,Mira-Bhayandar,"Bhayandar West, Mira-Bhayandar - MPCB",03-12-2025 07:00:00,19.296481,72.840923,NO2,17,102,58
India,Maharashtra,Belapur,"CBD Belapur, Belapur - MPCB",03-12-2025 07:00:00,19.0243902,73.0406721,NO2,18,25,22
India,Maharashtra,Bhiwandi,"Gokul Nagar, Bhiwandi - MPCB",03-12-2025 07:00:00,19.309073,73.057223,PM10,110,186,156
India,Maharashtra,Boisar,"Khaira, Boisar - MPCB",03-12-2025 07:00:00,19.786089,72.757971,PM2.5,35,119,67
India,Maharashtra,Chandrapur,"Chauhan Colony, Chandrapur - MPCB",03-12-2025 07:00:00,19.962900,79.298714,PM2.5,7,260,59
India,Maharashtra,Chandrapur,"Chauhan Colony, Chandrapur - MPCB",03-12-2025 07:00:00,19.962900,79.298714,SO2,30,31,30
India,Maharashtra,Mumbai,"Bandra Kurla Complex, Mumbai - MPCB",03-12-2025 07:00:00,19.065931,72.862131,NH3,NA,NA,NA
India,Maharashtra,Mumbai,"Bandra Kurla Complex, Mumbai - MPCB",03-12-2025 07:00:00,19.065931,72.862131,OZONE,1,58,2
India,Maharashtra,Mumbai,"Borivali East, Mumbai - IITM",03-12-2025 07:00:00,19.23241,72.86895,OZONE,12,53,26
India,Maharashtra,Mumbai,"Byculla, Mumbai - BMC",03-12-2025 07:00:00,18.9767,72.8380,PM2.5,NA,NA,NA
India,Maharashtra,Mumbai,"Byculla, Mumbai - BMC",03-12-2025 07:00:00,18.9767,72.8380,OZONE,NA,NA,NA
India,Maharashtra,Mumbai,"Chakala-Andheri East, Mumbai - IITM",03-12-2025 07:00:00,19.11074,72.86084,CO,2,88,40
India,Maharashtra,Mumbai,"Kandivali West, Mumbai - BMC",03-12-2025 07:00:00,19.215859,72.831718,SO2,5,14,9
India,Maharashtra,Mumbai,"Kandivali West, Mumbai - BMC",03-12-2025 07:00:00,19.215859,72.831718,OZONE,3,79,12
India,Maharashtra,Mumbai,"Kherwadi_Bandra East, Mumbai - MPCB",03-12-2025 07:00:00,19.0632143,72.8456324,CO,17,59,52
India,Maharashtra,Mumbai,"Khindipada-Bhandup West, Mumbai - IITM",03-12-2025 07:00:00,19.1653323,72.922099,SO2,1,16,11
India,Maharashtra,Mumbai,"Kurla, Mumbai - MPCB",03-12-2025 07:00:00,19.0863,72.8888,PM10,89,148,111
India,Maharashtra,Jalna,"Old MIDC, Jalna - MPCB",03-12-2025 07:00:00,19.854616,75.905894,OZONE,8,136,13
India,Maharashtra,Kalyan,"Khadakpada, Kalyan - MPCB",03-12-2025 07:00:00,19.25292,73.142019,PM2.5,36,330,118
India,Maharashtra,Kalyan,"Pimpleshwar Mandir, Kalyan - MPCB",03-12-2025 07:00:00,19.192056,72.9585188,PM10,94,148,128
India,Maharashtra,Kalyan,"Pimpleshwar Mandir, Kalyan - MPCB",03-12-2025 07:00:00,19.192056,72.9585188,CO,44,46,45
India,Maharashtra,Kalyan,"Pimpleshwar Mandir, Kalyan - MPCB",03-12-2025 07:00:00,19.192056,72.9585188,OZONE,3,61,9
India,Maharashtra,Mumbai,"Chembur, Mumbai - MPCB",03-12-2025 07:00:00,19.0364585,72.8954371,SO2,1,16,7
India,Maharashtra,Mumbai,"Chembur, Mumbai - MPCB",03-12-2025 07:00:00,19.0364585,72.8954371,OZONE,1,124,15
India,Maharashtra,Mumbai,"Colaba, Mumbai - MPCB",03-12-2025 07:00:00,18.910000,72.820000,CO,28,32,31
India,Maharashtra,Mumbai,"Deonar, Mumbai - IITM",03-12-2025 07:00:00,19.04946,72.9230,PM10,107,200,148
India,Maharashtra,Mumbai,"Ghatkopar, Mumbai - BMC",03-12-2025 07:00:00,19.083694,72.920967,NO2,25,102,54
India,Maharashtra,Aurangabad,"MIDC Chilkalthana, Aurangabad - MPCB",03-12-2025 07:00:00,19.875620,75.387310,NO2,16,190,77
India,Maharashtra,Badlapur,"Katrap, Badlapur - MPCB",03-12-2025 07:00:00,19.16485,73.23409,NO2,14,32,22
India,Maharashtra,Mumbai,"Siddharth Nagar-Worli, Mumbai - IITM",03-12-2025 07:00:00,19.000083,72.813993,PM2.5,NA,NA,NA
India,Maharashtra,Mumbai,"Siddharth Nagar-Worli, Mumbai - IITM",03-12-2025 07:00:00,19.000083,72.813993,NO2,45,113,75
India,Maharashtra,Mumbai,"Siddharth Nagar-Worli, Mumbai - IITM",03-12-2025 07:00:00,19.000083,72.813993,OZONE,12,65,35
India,Maharashtra,Mumbai,"Sion, Mumbai - MPCB",03-12-2025 07:00:00,19.047000,72.874600,CO,7,16,16
India,Maharashtra,Mumbai,"Vile Parle West, Mumbai - MPCB",03-12-2025 07:00:00,19.10861,72.83622,NO2,13,30,25
India,Maharashtra,Mumbai,"Vile Parle West, Mumbai - MPCB",03-12-2025 07:00:00,19.10861,72.83622,NH3,2,5,4
India,Maharashtra,Mumbai,"Vile Parle West, Mumbai - MPCB",03-12-2025 07:00:00,19.10861,72.83622,SO2,26,59,50
India,Maharashtra,Mumbai,"Vile Parle West, Mumbai - MPCB",03-12-2025 07:00:00,19.10861,72.83622,OZONE,12,27,22
India,Maharashtra,Mumbai,"Navy Nagar-Colaba, Mumbai - IITM",03-12-2025 07:00:00,18.897756,72.813320,PM2.5,106,189,156
India,Maharashtra,Mumbai,"Navy Nagar-Colaba, Mumbai - IITM",03-12-2025 07:00:00,18.897756,72.813320,CO,32,88,71
India,Maharashtra,Mumbai,"Powai, Mumbai - MPCB",03-12-2025 07:00:00,19.137500,72.915056,SO2,28,29,28
India,Maharashtra,Mumbai,"Sewri, Mumbai - BMC",03-12-2025 07:00:00,19.000084,72.856730,PM10,52,232,84
India,Maharashtra,Mumbai,"Shivaji Nagar, Mumbai - BMC",03-12-2025 07:00:00,19.060498,72.923356,PM2.5,49,303,145
India,Maharashtra,Mumbai,"Shivaji Nagar, Mumbai - BMC",03-12-2025 07:00:00,19.060498,72.923356,PM10,115,175,137
India,Maharashtra,Mumbai,"Shivaji Nagar, Mumbai - BMC",03-12-2025 07:00:00,19.060498,72.923356,NO2,25,110,58
India,Maharashtra,Nanded,"Sneh Nagar, Nanded - MPCB",03-12-2025 07:00:00,19.173852,77.296291,NO2,13,34,22
India,Maharashtra,Nashik,"Gangapur Road, Nashik - MPCB",03-12-2025 07:00:00,20.0073285,73.7762427,NO2,5,5,5
India,Maharashtra,Nashik,"Gangapur Road, Nashik - MPCB",03-12-2025 07:00:00,20.0073285,73.7762427,CO,24,34,33
India,Maharashtra,Nashik,"Hirawadi, Nashik - MPCB",03-12-2025 07:00:00,20.021503,73.813844,NO2,7,49,23
India,Maharashtra,Nashik,"Hirawadi, Nashik - MPCB",03-12-2025 07:00:00,20.021503,73.813844,NH3,2,11,5
India,Maharashtra,Nashik,"Hirawadi, Nashik - MPCB",03-12-2025 07:00:00,20.021503,73.813844,OZONE,6,78,20
India,Maharashtra,Nashik,"MIDC Ambad, Nashik - MPCB",03-12-2025 07:00:00,19.950220,73.731480,NO2,25,86,44
India,Maharashtra,Navi Mumbai,"Sanpada, Navi Mumbai - MPCB",03-12-2025 07:00:00,19.0575752,73.0151367,PM2.5,56,205,139
India,Maharashtra,Navi Mumbai,"Sector-2E Kalamboli, Navi Mumbai - MPCB",03-12-2025 07:00:00,19.02579,73.10297,NH3,5,24,11
India,Maharashtra,Navi Mumbai,"Sector-2E Kalamboli, Navi Mumbai - MPCB",03-12-2025 07:00:00,19.02579,73.10297,SO2,1,16,7
India,Maharashtra,Navi Mumbai,"Tondare-Taloja, Navi Mumbai - MPCB",03-12-2025 07:00:00,19.0630,73.1209,PM2.5,60,204,134
India,Maharashtra,Navi Mumbai,"Tondare-Taloja, Navi Mumbai - MPCB",03-12-2025 07:00:00,19.0630,73.1209,NO2,16,44,32
India,Maharashtra,Navi Mumbai,"Tondare-Taloja, Navi Mumbai - MPCB",03-12-2025 07:00:00,19.0630,73.1209,SO2,2,3,2
India,Maharashtra,Navi Mumbai,"Tondare-Taloja, Navi Mumbai - MPCB",03-12-2025 07:00:00,19.0630,73.1209,CO,38,67,51
India,Maharashtra,Mumbai,"Malad West, Mumbai - IITM",03-12-2025 07:00:00,19.19709,72.82204,PM2.5,49,194,120
India,Maharashtra,Mumbai,"Malad West, Mumbai - IITM",03-12-2025 07:00:00,19.19709,72.82204,CO,14,89,64
India,Maharashtra,Mumbai,"Mazgaon, Mumbai - IITM",03-12-2025 07:00:00,18.96702,72.84214,SO2,15,41,19
India,Maharashtra,Mumbai,"Mindspace-Malad West, Mumbai - MPCB",03-12-2025 07:00:00,19.1878657,72.8304069,PM2.5,58,164,95
India,Maharashtra,Mumbai,"Mulund West, Mumbai - MPCB",03-12-2025 07:00:00,19.1750,72.9419,PM10,NA,NA,NA
India,Maharashtra,Mumbai,"Mulund West, Mumbai - MPCB",03-12-2025 07:00:00,19.1750,72.9419,NH3,3,4,3
India,Maharashtra,Mumbai,"Mulund West, Mumbai - MPCB",03-12-2025 07:00:00,19.1750,72.9419,SO2,NA,NA,NA
India,Maharashtra,Pimpri-Chinchwad,"Park Street Wakad, Pimpri Chinchwad - MPCB",03-12-2025 07:00:00,18.59051,73.77946,PM2.5,89,331,237
India,Maharashtra,Pimpri-Chinchwad,"Park Street Wakad, Pimpri Chinchwad - MPCB",03-12-2025 07:00:00,18.59051,73.77946,NH3,1,4,3
India,Maharashtra,Pimpri-Chinchwad,"Park Street Wakad, Pimpri Chinchwad - MPCB",03-12-2025 07:00:00,18.59051,73.77946,CO,23,124,92
India,Maharashtra,Pimpri-Chinchwad,"Park Street Wakad, Pimpri Chinchwad - MPCB",03-12-2025 07:00:00,18.59051,73.77946,OZONE,1,113,3
India,Maharashtra,Pimpri-Chinchwad,"Thergaon, Pimpri Chinchwad - MPCB",03-12-2025 07:00:00,18.616318,73.765797,NO2,22,72,45
India,Maharashtra,Nashik,"Pandav Nagari, Nashik - MPCB",03-12-2025 07:00:00,19.9591346,73.7788008,CO,14,67,35
India,Maharashtra,Navi Mumbai,"Kopripada-Vashi, Navi Mumbai - MPCB",03-12-2025 07:00:00,19.090337,73.014232,PM10,32,325,111
India,Maharashtra,Navi Mumbai,"Mahape, Navi Mumbai - MPCB",03-12-2025 07:00:00,19.1135051,73.008978,PM10,82,219,134
India,Maharashtra,Navi Mumbai,"Mahape, Navi Mumbai - MPCB",03-12-2025 07:00:00,19.1135051,73.008978,CO,18,21,20
India,Maharashtra,Mumbai,"Worli, Mumbai - MPCB",03-12-2025 07:00:00,18.9936162,72.8128113,NO2,3,16,7
India,Maharashtra,Mumbai,"Worli, Mumbai - MPCB",03-12-2025 07:00:00,18.9936162,72.8128113,OZONE,20,20,20
India,Maharashtra,Nagpur,"Ambazari, Nagpur - MPCB",03-12-2025 07:00:00,21.121801,79.04952,PM2.5,82,222,132
India,Maharashtra,Nagpur,"Ambazari, Nagpur - MPCB",03-12-2025 07:00:00,21.121801,79.04952,PM10,80,143,116
India,Maharashtra,Nagpur,"Ambazari, Nagpur - MPCB",03-12-2025 07:00:00,21.121801,79.04952,NH3,1,9,3
India,Maharashtra,Nagpur,"Ram Nagar, Nagpur - MPCB",03-12-2025 07:00:00,21.143383,79.048912,PM10,100,169,122
India,Odisha,Rairangpur,"Divisional Forest Office, Rairangpur - OSPCB",03-12-2025 07:00:00,22.265816,86.174829,PM10,85,116,101
India,Odisha,Rairangpur,"Divisional Forest Office, Rairangpur - OSPCB",03-12-2025 07:00:00,22.265816,86.174829,SO2,1,23,7
India,Odisha,Rourkela,"Fertilizer Township, Rourkela - OSPCB",03-12-2025 07:00:00,22.18972222,84.86277778,SO2,6,17,9
India,Odisha,Rourkela,"Fertilizer Township, Rourkela - OSPCB",03-12-2025 07:00:00,22.18972222,84.86277778,CO,2,50,24
India,Odisha,Rourkela,"Raghunathpali, Rourkela - OSPCB",03-12-2025 07:00:00,22.220833,84.809444,PM10,75,414,146
India,Odisha,Rourkela,"Raghunathpali, Rourkela - OSPCB",03-12-2025 07:00:00,22.220833,84.809444,CO,40,150,76
India,Odisha,Talcher,"Talcher Coalfields,Talcher - OSPCB",03-12-2025 07:00:00,20.9360711,85.1707021,NO2,55,119,89
India,Odisha,Talcher,"Talcher Coalfields,Talcher - OSPCB",03-12-2025 07:00:00,20.9360711,85.1707021,NH3,5,7,6
India,Odisha,Talcher,"Talcher Coalfields,Talcher - OSPCB",03-12-2025 07:00:00,20.9360711,85.1707021,SO2,34,85,56
India,Odisha,Tensa,"Barsua Iron Ore Mines, Tensa - OSPCB",03-12-2025 07:00:00,21.869985,85.167016,PM10,57,103,76
India,Puducherry,Puducherry,"Jawahar Nagar, Puducherry - PPCC",03-12-2025 07:00:00,11.9309,79.8027,PM2.5,2,28,15
India,Puducherry,Puducherry,"Jawahar Nagar, Puducherry - PPCC",03-12-2025 07:00:00,11.9309,79.8027,SO2,6,11,8
India,Punjab,Amritsar,"Golden Temple, Amritsar - PPCB",03-12-2025 07:00:00,31.620000,74.876512,NO2,NA,NA,NA
India,Punjab,Amritsar,"Golden Temple, Amritsar - PPCB",03-12-2025 07:00:00,31.620000,74.876512,NH3,NA,NA,NA
India,Punjab,Amritsar,"Golden Temple, Amritsar - PPCB",03-12-2025 07:00:00,31.620000,74.876512,SO2,NA,NA,NA
India,Punjab,Bathinda,"Hardev Nagar, Bathinda - PPCB",03-12-2025 07:00:00,30.233011,74.907758,PM10,26,90,45
India,Punjab,Bathinda,"Hardev Nagar, Bathinda - PPCB",03-12-2025 07:00:00,30.233011,74.907758,CO,60,79,76
India,Maharashtra,Solapur,"Dnyaneshwar Nagar, Solapur - MPCB",03-12-2025 07:00:00,17.6336264,75.9132495,OZONE,23,111,94
India,Maharashtra,Solapur,"Ratandeep Housing Society, Solapur - MPCB",03-12-2025 07:00:00,17.65439,75.90649,SO2,1,13,5
India,Maharashtra,Thane,"Kasarvadavali, Thane - MPCB",03-12-2025 07:00:00,19.26777,72.97182,PM2.5,38,96,57
India,Maharashtra,Thane,"Kasarvadavali, Thane - MPCB",03-12-2025 07:00:00,19.26777,72.97182,OZONE,1,86,4
India,Maharashtra,Thane,"Upvan Fort, Thane - MPCB",03-12-2025 07:00:00,19.222279,72.957979,NO2,24,99,52
India,Maharashtra,Ulhasnagar,"Sidhi Vinayak Nagar, Ulhasnagar - MPCB",03-12-2025 07:00:00,19.235581,73.159121,SO2,1,51,16
India,Maharashtra,Ulhasnagar,"Sidhi Vinayak Nagar, Ulhasnagar - MPCB",03-12-2025 07:00:00,19.235581,73.159121,OZONE,9,120,11
India,Maharashtra,Pune,"Panchawati_Pashan, Pune - IITM",03-12-2025 07:00:00,18.536457,73.805454,OZONE,NA,NA,NA
India,Maharashtra,Pune,"Transport Nagar-Nigdi, Pune - IITM",03-12-2025 07:00:00,18.664282,73.763966,CO,38,101,66
India,Maharashtra,Sangli,"Vijay Nagar, Sangli - MPCB",03-12-2025 07:00:00, 16.5038,74.3623,NH3,2,5,3
India,Maharashtra,Solapur,"Dnyaneshwar Nagar, Solapur - MPCB",03-12-2025 07:00:00,17.6336264,75.9132495,PM10,97,167,118
India,Maharashtra,Solapur,"Dnyaneshwar Nagar, Solapur - MPCB",03-12-2025 07:00:00,17.6336264,75.9132495,NO2,8,62,22
India,Maharashtra,Pimpri-Chinchwad,"Thergaon, Pimpri Chinchwad - MPCB",03-12-2025 07:00:00,18.616318,73.765797,OZONE,1,82,3
India,Maharashtra,Pune,"Bhumkar Nagar, Pune - IITM",03-12-2025 07:00:00,18.605770,73.749976,OZONE,1,60,1
India,Maharashtra,Pune,"Hadapsar, Pune - IITM",03-12-2025 07:00:00,18.501793,73.927532,PM10,33,144,97
India,Maharashtra,Pune,"Hadapsar, Pune - IITM",03-12-2025 07:00:00,18.501793,73.927532,NO2,31,72,45
India,Maharashtra,Pune,"Panchawati_Pashan, Pune - IITM",03-12-2025 07:00:00,18.536457,73.805454,PM10,102,177,143
India,Odisha,Byasanagar,"Ferro Chrome Colony, Byasanagar - OSPCB",03-12-2025 07:00:00,20.94185,86.11510,PM10,108,182,139
India,Odisha,Cuttack,"CDA Area, Cuttack - OSPCB",03-12-2025 07:00:00,20.48891     ,85.84768     ,CO,50,135,67
India,Odisha,Nayagarh,"Dabuna, Nayagarh - OSPCB",03-12-2025 07:00:00,21.847279,85.416905,PM2.5,35,70,49
India,Odisha,Nayagarh,"Dabuna, Nayagarh - OSPCB",03-12-2025 07:00:00,21.847279,85.416905,PM10,NA,NA,NA
India,Odisha,Nayagarh,"Dabuna, Nayagarh - OSPCB",03-12-2025 07:00:00,21.847279,85.416905,NO2,3,8,6
India,Odisha,Bhubaneswar,"Lingraj Mandir, Bhubaneswar - OSPCB",03-12-2025 07:00:00,20.240790,85.836784,SO2,4,15,7
India,Odisha,Bhubaneswar,"Patia, Bhubaneswar - OSPCB",03-12-2025 07:00:00,20.34652,85.81630,SO2,4,8,6
India,Odisha,Brajrajnagar,"GM Office, Brajrajnagar - OSPCB",03-12-2025 07:00:00,21.8004996,83.8396977,PM2.5,40,306,96
India,Odisha,Brajrajnagar,"GM Office, Brajrajnagar - OSPCB",03-12-2025 07:00:00,21.8004996,83.8396977,PM10,56,249,105
India,Odisha,Brajrajnagar,"GM Office, Brajrajnagar - OSPCB",03-12-2025 07:00:00,21.8004996,83.8396977,NH3,10,13,12
India,Maharashtra,Virar,"Bolinj, Virar - MPCB",03-12-2025 07:00:00,19.4458210,72.7988231,PM10,66,164,107
India,Maharashtra,Virar,"Bolinj, Virar - MPCB",03-12-2025 07:00:00,19.4458210,72.7988231,NO2,16,90,44
India,Maharashtra,Virar,"Bolinj, Virar - MPCB",03-12-2025 07:00:00,19.4458210,72.7988231,OZONE,4,85,16
India,Meghalaya,Shillong,"Lumpyngngad, Shillong - Meghalaya PCB",03-12-2025 07:00:00,25.5586,91.8985,OZONE,1,13,9
India,Odisha,Angul,"Hakimapada, Angul - OSPCB",03-12-2025 07:00:00,20.832874,85.104082,PM10,106,222,154
India,Odisha,Angul,"Hakimapada, Angul - OSPCB",03-12-2025 07:00:00,20.832874,85.104082,NH3,5,9,7
India,Odisha,Barbil,"Forest Office, Barbil - OSPCB",03-12-2025 07:00:00,22.1166054,85.3945546,SO2,6,38,14
India,Punjab,Patiala,"Model Town, Patiala - PPCB",03-12-2025 07:00:00,30.349388,76.366642,CO,37,108,62
India,Punjab,Rupnagar,"Ratanpura, Rupnagar - Ambuja Cements",03-12-2025 07:00:00,31.0325454,76.5623046,NO2,1,6,3
India,Punjab,Rupnagar,"Ratanpura, Rupnagar - Ambuja Cements",03-12-2025 07:00:00,31.0325454,76.5623046,SO2,6,17,13
India,Rajasthan,Ajmer,"Civil Lines,  Ajmer - RSPCB",03-12-2025 07:00:00,26.470859,74.646594,PM10,84,151,107
India,Rajasthan,Alwar,"Moti Doongri, Alwar - RSPCB",03-12-2025 07:00:00,27.554793,76.611536,OZONE,14,37,17
India,Rajasthan,Banswara,"Rati Talai, Banswara - RSPCB",03-12-2025 07:00:00,23.555190,74.440010,PM2.5,33,43,39
India,Rajasthan,Banswara,"Rati Talai, Banswara - RSPCB",03-12-2025 07:00:00,23.555190,74.440010,NO2,13,113,42
India,Rajasthan,Banswara,"Rati Talai, Banswara - RSPCB",03-12-2025 07:00:00,23.555190,74.440010,NH3,4,9,6
India,Rajasthan,Banswara,"Rati Talai, Banswara - RSPCB",03-12-2025 07:00:00,23.555190,74.440010,SO2,4,32,12
India,Punjab,Jalandhar,"Civil Line, Jalandhar - PPCB",03-12-2025 07:00:00,31.321907,75.578914,PM2.5,88,315,173
India,Punjab,Khanna,"Kalal Majra, Khanna - PPCB",03-12-2025 07:00:00,30.736056 ,76.209694,NO2,27,30,28
India,Punjab,Khanna,"Kalal Majra, Khanna - PPCB",03-12-2025 07:00:00,30.736056 ,76.209694,NH3,7,8,7
India,Punjab,Khanna,"Kalal Majra, Khanna - PPCB",03-12-2025 07:00:00,30.736056 ,76.209694,SO2,8,46,21
India,Punjab,Khanna,"Kalal Majra, Khanna - PPCB",03-12-2025 07:00:00,30.736056 ,76.209694,CO,18,56,50
India,Punjab,Ludhiana,"Punjab Agricultural University, Ludhiana - PPCB",03-12-2025 07:00:00,30.9028,75.8086,CO,29,101,71
India,Punjab,Ludhiana,"Punjab Agricultural University, Ludhiana - PPCB",03-12-2025 07:00:00,30.9028,75.8086,OZONE,10,30,15
India,Punjab,Mandi Gobindgarh,"RIMT University, Mandi Gobindgarh - PPCB",03-12-2025 07:00:00,30.649961,76.331442,PM2.5,47,340,159
India,Punjab,Mandi Gobindgarh,"RIMT University, Mandi Gobindgarh - PPCB",03-12-2025 07:00:00,30.649961,76.331442,NO2,23,24,24
India,Rajasthan,Bhiwadi,"RIICO Ind. Area III, Bhiwadi - RSPCB",03-12-2025 07:00:00,28.194909,76.862296,PM2.5,172,473,336
India,Rajasthan,Bhiwadi,"RIICO Ind. Area III, Bhiwadi - RSPCB",03-12-2025 07:00:00,28.194909,76.862296,PM10,125,386,223
India,Rajasthan,Bhiwadi,"Vasundhara Nagar_UIT, Bhiwadi - RSPCB",03-12-2025 07:00:00,28.207266,76.829265,NO2,26,161,85
India,Rajasthan,Bundi,"New Colony, Bundi - RSPCB",03-12-2025 07:00:00,25.435774,75.644272,SO2,3,16,7
India,Rajasthan,Chittorgarh,"Shastri Nagar, Chittorgarh - RSPCB",03-12-2025 07:00:00,24.892047,74.623527,PM10,35,230,103
India,Rajasthan,Jalore,"Mudtra Sili, Jalore - RSPCB",03-12-2025 07:00:00,25.344694,72.626208,NH3,3,8,5
India,Rajasthan,Jalore,"Mudtra Sili, Jalore - RSPCB",03-12-2025 07:00:00,25.344694,72.626208,SO2,2,6,4
India,Rajasthan,Jalore,"Mudtra Sili, Jalore - RSPCB",03-12-2025 07:00:00,25.344694,72.626208,OZONE,5,99,19
India,Rajasthan,Jhalawar,"Rajlaxmi Nagar, Jhalawar - RSPCB",03-12-2025 07:00:00,24.588397,76.172782,PM10,44,147,86
India,Rajasthan,Jhalawar,"Rajlaxmi Nagar, Jhalawar - RSPCB",03-12-2025 07:00:00,24.588397,76.172782,OZONE,6,145,8
India,Rajasthan,Jodhpur,"Collectorate, Jodhpur - RSPCB",03-12-2025 07:00:00,26.268249,73.0193853,PM2.5,35,264,91
India,Rajasthan,Hanumangarh,"Housing Board, Hanumangarh - RSPCB",03-12-2025 07:00:00,29.610750,74.283608,PM2.5,43,303,110
India,Rajasthan,Hanumangarh,"Housing Board, Hanumangarh - RSPCB",03-12-2025 07:00:00,29.610750,74.283608,SO2,2,21,9
India,Rajasthan,Jaipur,"Adarsh Nagar, Jaipur - RSPCB",03-12-2025 07:00:00,26.902909,75.836858,OZONE,18,67,58
India,Rajasthan,Jaipur,"Police Commissionerate, Jaipur - RSPCB",03-12-2025 07:00:00,26.9164092,75.7994901,PM2.5,61,174,84
India,Rajasthan,Chittorgarh,"Shastri Nagar, Chittorgarh - RSPCB",03-12-2025 07:00:00,24.892047,74.623527,SO2,1,7,4
India,Rajasthan,Churu,"Subash Chowk, Churu - RSPCB",03-12-2025 07:00:00,28.296139,74.961696,PM2.5,59,417,204
India,Rajasthan,Dholpur,"Raja Ganj, Dholpur - RSPCB",03-12-2025 07:00:00,26.699557,77.898881,NH3,3,8,5
India,Rajasthan,Baran,"Bamboliya, Baran - RSPCB",03-12-2025 07:00:00,25.106006,76.469948,PM10,39,105,77
India,Rajasthan,Bhilwara,"Pratap Nagar, Bhilwara - RSPCB",03-12-2025 07:00:00,25.339605,74.618883,PM2.5,43,227,92
India,Rajasthan,Bhilwara,"Pratap Nagar, Bhilwara - RSPCB",03-12-2025 07:00:00,25.339605,74.618883,PM10,47,162,95
India,Rajasthan,Jaipur,"RIICO Sitapura, Jaipur - RSPCB",03-12-2025 07:00:00,26.786682,75.827928,OZONE,16,115,45
India,Rajasthan,Jaisalmer,"Sadar Bazar, Jaisalmer - RSPCB",03-12-2025 07:00:00,26.912329,70.909168,NH3,10,19,13
India,Rajasthan,Karauli,"Satyawati Vihar, Karauli - RSPCB",03-12-2025 07:00:00,26.506177,77.025989,PM10,62,178,100
India,Rajasthan,Kota,"Dhanmandi, Kota - RSPCB",03-12-2025 07:00:00,25.164090,75.858137,SO2,3,60,13
India,Rajasthan,Kota,"Dhanmandi, Kota - RSPCB",03-12-2025 07:00:00,25.164090,75.858137,OZONE,6,128,10
India,Rajasthan,Kota,"Nayapura, Kota - RSPCB",03-12-2025 07:00:00,25.196024,75.855668,PM2.5,58,306,147
India,Rajasthan,Kota,"Nayapura, Kota - RSPCB",03-12-2025 07:00:00,25.196024,75.855668,PM10,74,177,114
India,Rajasthan,Kota,"Nayapura, Kota - RSPCB",03-12-2025 07:00:00,25.196024,75.855668,OZONE,6,126,8
India,Rajasthan,Kota,"Shrinath Puram, Kota - RSPCB",03-12-2025 07:00:00,25.14389,75.821256,PM10,91,120,106
India,Rajasthan,Kota,"Shrinath Puram, Kota - RSPCB",03-12-2025 07:00:00,25.14389,75.821256,SO2,11,23,13
India,Rajasthan,Nagaur,"Karni Colony, Nagaur - RSPCB",03-12-2025 07:00:00,27.213494,73.734444,PM10,70,360,141
India,Rajasthan,Nagaur,"Karni Colony, Nagaur - RSPCB",03-12-2025 07:00:00,27.213494,73.734444,NO2,11,88,28
India,Rajasthan,Nagaur,"Karni Colony, Nagaur - RSPCB",03-12-2025 07:00:00,27.213494,73.734444,NH3,4,10,7
India,Rajasthan,Nagaur,"Karni Colony, Nagaur - RSPCB",03-12-2025 07:00:00,27.213494,73.734444,SO2,4,10,6
India,Rajasthan,Nagaur,"Karni Colony, Nagaur - RSPCB",03-12-2025 07:00:00,27.213494,73.734444,OZONE,31,85,77
India,Rajasthan,Pali,"Indira Colony Vistar, Pali - RSPCB",03-12-2025 07:00:00,25.771061, 73.340227,PM10,85,176,120
India,Rajasthan,Pali,"Indira Colony Vistar, Pali - RSPCB",03-12-2025 07:00:00,25.771061, 73.340227,NO2,22,67,36
India,Rajasthan,Pali,"Indira Colony Vistar, Pali - RSPCB",03-12-2025 07:00:00,25.771061, 73.340227,OZONE,6,28,7
India,Rajasthan,Pratapgarh,"Pragati Nagar, Pratapgarh - RSPCB",03-12-2025 07:00:00,24.041198,74.780702,SO2,2,7,4
India,Rajasthan,Tonk,"Shastri Nagar, Tonk - RSPCB",03-12-2025 07:00:00,26.159933,75.780517,NH3,7,12,10
India,Rajasthan,Udaipur,"Ashok Nagar, Udaipur - RSPCB",03-12-2025 07:00:00,24.5886166,73.6321397,OZONE,4,75,9
India,Sikkim,Gangtok,"Zero Point GICI, Gangtok - SSPCB",03-12-2025 07:00:00,27.338530,88.614099,SO2,1,1,1
India,Sikkim,Gangtok,"Zero Point GICI, Gangtok - SSPCB",03-12-2025 07:00:00,27.338530,88.614099,CO,8,30,10
India,Sikkim,Gangtok,"Zero Point GICI, Gangtok - SSPCB",03-12-2025 07:00:00,27.338530,88.614099,OZONE,3,6,4
India,TamilNadu,Ariyalur,"Keelapalur, Ariyalur - TNPCB",03-12-2025 07:00:00,11.06825,79.07033,PM2.5,9,28,16
India,TamilNadu,Chennai,"Alandur Bus Depot, Chennai - CPCB",03-12-2025 07:00:00,12.9099161,80.1076538,OZONE,NA,NA,NA
India,TamilNadu,Chennai,"Arumbakkam, Chennai - TNPCB",03-12-2025 07:00:00,13.0664,80.2112 ,PM10,8,500,102
India,TamilNadu,Chennai,"Kodungaiyur, Chennai - TNPCB",03-12-2025 07:00:00,13.1278,80.2642,NO2,1,2,1
India,TamilNadu,Chennai,"Manali Village, Chennai - TNPCB",03-12-2025 07:00:00,13.1662,80.2584,PM2.5,2,53,30
India,TamilNadu,Chennai,"Manali Village, Chennai - TNPCB",03-12-2025 07:00:00,13.1662,80.2584,SO2,1,14,12
India,TamilNadu,Chennai,"Perungudi, Chennai - TNPCB",03-12-2025 07:00:00,12.9533,80.2357,PM2.5,2,500,59
India,Rajasthan,Sawai Madhopur,"Sahu Nagar, Sawai Madhopur - RSPCB",03-12-2025 07:00:00,26.031443,76.359327,NH3,7,9,8
India,Rajasthan,Sirohi,"Vedhaynath Colony, Sirohi - RSPCB",03-12-2025 07:00:00,24.885261,72.857549,PM10,52,158,94
India,Rajasthan,Sri Ganganagar,"Old City, Sri Ganganagar - RSPCB",03-12-2025 07:00:00,29.931624,73.864511,NO2,70,188,105
India,Rajasthan,Sri Ganganagar,"Old City, Sri Ganganagar - RSPCB",03-12-2025 07:00:00,29.931624,73.864511,SO2,NA,NA,NA
India,Rajasthan,Tonk,"Shastri Nagar, Tonk - RSPCB",03-12-2025 07:00:00,26.159933,75.780517,PM2.5,88,435,210
India,TamilNadu,Cuddalore,"Semmandalam, Cuddalore - TNPCB",03-12-2025 07:00:00,11.7637683,79.7499835,NH3,2,3,3
India,TamilNadu,Gummidipoondi,"Anthoni Pillai Nagar, Gummidipoondi - TNPCB",03-12-2025 07:00:00,13.4127,80.1081,PM10,NA,NA,NA
India,TamilNadu,Karur,"Kamadenu Nagar, Karur - TNPCB",03-12-2025 07:00:00,10.967820,78.080882,OZONE,6,10,7
India,TamilNadu,Madurai,"Uchapatti, Madurai - TNPCB",03-12-2025 07:00:00,9.865935,78.022669,PM10,14,110,44
India,TamilNadu,Madurai,"Uchapatti, Madurai - TNPCB",03-12-2025 07:00:00,9.865935,78.022669,CO,14,23,22
India,TamilNadu,Chennai,"Perungudi, Chennai - TNPCB",03-12-2025 07:00:00,12.9533,80.2357,PM10,8,500,54
India,TamilNadu,Chennai,"Velachery Res. Area, Chennai - CPCB",03-12-2025 07:00:00,13.0052189,80.2398125,PM2.5,22,44,35
India,TamilNadu,Coimbatore,"SIDCO Kurichi, Coimbatore - TNPCB",03-12-2025 07:00:00,10.942451,76.978996,NH3,1,2,1
India,Rajasthan,Jodhpur,"Digari Kalan, Jodhpur - RSPCB",03-12-2025 07:00:00,26.295810,73.082283,NH3,4,9,6
India,Rajasthan,Jodhpur,"Jhalamand, Jodhpur - RSPCB",03-12-2025 07:00:00,26.215415,73.070156,PM2.5,35,173,73
India,Rajasthan,Jodhpur,"Jhalamand, Jodhpur - RSPCB",03-12-2025 07:00:00,26.215415,73.070156,PM10,41,145,72
India,Rajasthan,Jodhpur,"Mandor, Jodhpur - RSPCB",03-12-2025 07:00:00,26.358805,73.047444,NO2,10,86,31
India,Rajasthan,Jodhpur,"Samrat Ashok Udhyan, Jodhpur - RSPCB",03-12-2025 07:00:00,26.253384,72.976571,NO2,8,119,52
India,Rajasthan,Jodhpur,"Samrat Ashok Udhyan, Jodhpur - RSPCB",03-12-2025 07:00:00,26.253384,72.976571,NH3,2,39,6
India,Rajasthan,Jodhpur,"Samrat Ashok Udhyan, Jodhpur - RSPCB",03-12-2025 07:00:00,26.253384,72.976571,OZONE,10,154,67
India,Rajasthan,Karauli,"Satyawati Vihar, Karauli - RSPCB",03-12-2025 07:00:00,26.506177,77.025989,PM2.5,61,308,123
India,TamilNadu,Ramanathapuram,"Chalai Bazaar, Ramanathapuram - TNPCB",03-12-2025 07:00:00,9.36399,78.831977,SO2,2,25,5
India,TamilNadu,Thanjavur,"Parisutham Nagar, Thanjavur - TNPCB",03-12-2025 07:00:00,10.7654824,79.1389968,PM10,NA,NA,NA
India,TamilNadu,Tirunelveli,"Municipal Corporation Office, Tirunelveli - TNPCB",03-12-2025 07:00:00,8.728442,77.6962,NH3,1,5,2
India,TamilNadu,Tirunelveli,"Municipal Corporation Office, Tirunelveli - TNPCB",03-12-2025 07:00:00,8.728442,77.6962,CO,20,30,20
India,TamilNadu,Tirunelveli,"Municipal Corporation Office, Tirunelveli - TNPCB",03-12-2025 07:00:00,8.728442,77.6962,OZONE,6,7,6
India,TamilNadu,Tirupur,"Kumaran College, Tirupur - TNPCB",03-12-2025 07:00:00,11.0973603,77.3228673,PM10,1,147,39
India,TamilNadu,Tirupur,"Kumaran College, Tirupur - TNPCB",03-12-2025 07:00:00,11.0973603,77.3228673,CO,22,30,23
India,TamilNadu,Vellore,"Vasanthapuram, Vellore - TNPCB",03-12-2025 07:00:00,12.909494,79.131861,PM2.5,25,46,36
India,TamilNadu,Vellore,"Vasanthapuram, Vellore - TNPCB",03-12-2025 07:00:00,12.909494,79.131861,NO2,NA,NA,NA
India,TamilNadu,Nagapattinam,"Velippalayam, Nagapattinam - TNPCB",03-12-2025 07:00:00,10.798548,79.838212,NH3,NA,NA,NA
India,TamilNadu,Palkalaiperur,"Bharathidasan University, Palkalaiperur - TNPCB",03-12-2025 07:00:00,10.681158,78.741746,PM2.5,17,55,30
India,TamilNadu,Perundurai,"SIPCOT Industrial Park, Perundurai - TNPCB",03-12-2025 07:00:00,11.258242,77.552761,PM2.5,1,36,22
India,TamilNadu,Perundurai,"SIPCOT Industrial Park, Perundurai - TNPCB",03-12-2025 07:00:00,11.258242,77.552761,OZONE,14,46,45
India,TamilNadu,Pudukottai,"SIPCOT Nathampannai, Pudukottai - TNPCB",03-12-2025 07:00:00,10.423417,78.784889,PM2.5,13,117,40
India,TamilNadu,Pudukottai,"SIPCOT Nathampannai, Pudukottai - TNPCB",03-12-2025 07:00:00,10.423417,78.784889,NH3,1,5,1
India,TamilNadu,Ramanathapuram,"Chalai Bazaar, Ramanathapuram - TNPCB",03-12-2025 07:00:00,9.36399,78.831977,NH3,1,1,1
India,Telangana,Hyderabad,"Somajiguda, Hyderabad - TSPCB",03-12-2025 07:00:00,17.417094,78.457437,PM2.5,7,75,47
India,Telangana,Hyderabad,"Somajiguda, Hyderabad - TSPCB",03-12-2025 07:00:00,17.417094,78.457437,SO2,15,21,17
India,Telangana,Hyderabad,"Somajiguda, Hyderabad - TSPCB",03-12-2025 07:00:00,17.417094,78.457437,OZONE,6,50,24
India,Telangana,Hyderabad,"Zoo Park, Hyderabad - TSPCB",03-12-2025 07:00:00,17.349694,78.451437,PM2.5,93,188,156
India,Tripura,Agartala,"Bardowali, Agartala - Tripura SPCB",03-12-2025 07:00:00,23.8175497,91.2726974,SO2,6,7,6
India,Tripura,Agartala,"Bardowali, Agartala - Tripura SPCB",03-12-2025 07:00:00,23.8175497,91.2726974,CO,18,25,20
India,Uttar_Pradesh,Agra,"Manoharpur, Agra - UPPCB",03-12-2025 07:00:00,27.23711,78.01936,PM10,83,269,140
India,TamilNadu,Virudhunagar,"Collectorate Office, Virudhunagar - TNPCB",03-12-2025 07:00:00,9.559382,77.948828,PM2.5,24,103,59
India,Telangana,Hyderabad,"Bollaram Industrial Area, Hyderabad - TSPCB",03-12-2025 07:00:00,17.540891,78.358528,PM10,108,154,131
India,Telangana,Hyderabad,"Bollaram Industrial Area, Hyderabad - TSPCB",03-12-2025 07:00:00,17.540891,78.358528,CO,19,40,32
India,Telangana,Hyderabad,"Central University, Hyderabad - TSPCB",03-12-2025 07:00:00,17.460103,78.334361,PM2.5,67,190,125
India,Telangana,Hyderabad,"ECIL Kapra, Hyderabad - TSPCB",03-12-2025 07:00:00,17.470431,78.566959,NH3,2,4,3
India,Uttar_Pradesh,Bulandshahr,"Yamunapuram, Bulandshahr - UPPCB",03-12-2025 07:00:00,28.406963,77.849831,CO,57,114,89
India,Uttar_Pradesh,Firozabad,"Nagla Bhau, Firozabad - UPPCB",03-12-2025 07:00:00,27.168897,78.376960,NH3,2,2,2
India,Uttar_Pradesh,Firozabad,"Vibhab Nagar, Firozabad - UPPCB",03-12-2025 07:00:00,27.1594,78.3953,NH3,2,2,2
India,Uttar_Pradesh,Firozabad,"Vibhab Nagar, Firozabad - UPPCB",03-12-2025 07:00:00,27.1594,78.3953,OZONE,NA,NA,NA
India,Uttar_Pradesh,Ghaziabad,"Indirapuram, Ghaziabad - UPPCB",03-12-2025 07:00:00,28.646233,77.358075,CO,18,115,38
India,Uttar_Pradesh,Ghaziabad,"Indirapuram, Ghaziabad - UPPCB",03-12-2025 07:00:00,28.646233,77.358075,OZONE,10,161,12
India,Telangana,Hyderabad,"IDA Pashamylaram, Hyderabad - TSPCB",03-12-2025 07:00:00,17.5316895,78.218939,PM2.5,NA,NA,NA
India,Telangana,Hyderabad,"IDA Pashamylaram, Hyderabad - TSPCB",03-12-2025 07:00:00,17.5316895,78.218939,SO2,NA,NA,NA
India,Telangana,Hyderabad,"IITH Kandi, Hyderabad - TSPCB",03-12-2025 07:00:00,17.585705,78.126199,OZONE,15,33,15
India,Telangana,Hyderabad,"Kokapet, Hyderabad - TSPCB",03-12-2025 07:00:00,17.393559,78.339194,PM10,68,161,105
India,Telangana,Hyderabad,"Kokapet, Hyderabad - TSPCB",03-12-2025 07:00:00,17.393559,78.339194,NO2,11,15,13
India,Telangana,Hyderabad,"Kokapet, Hyderabad - TSPCB",03-12-2025 07:00:00,17.393559,78.339194,CO,24,42,26
India,Uttar_Pradesh,Agra,"Rohta, Agra - UPPCB",03-12-2025 07:00:00,27.106972,78.000111,NO2,16,21,20
India,Uttar_Pradesh,Agra,"Sanjay Palace, Agra - UPPCB",03-12-2025 07:00:00,27.19865833,78.00598056,NO2,4,19,11
India,Uttar_Pradesh,Agra,"Sector-3B Avas Vikas Colony, Agra - UPPCB",03-12-2025 07:00:00,27.19412,77.96237,NH3,8,9,9
India,Uttar_Pradesh,Agra,"Sector-3B Avas Vikas Colony, Agra - UPPCB",03-12-2025 07:00:00,27.19412,77.96237,OZONE,4,46,7
India,Uttar_Pradesh,Agra,"Shahjahan Garden, Agra - UPPCB",03-12-2025 07:00:00,27.169338,78.03582,NO2,20,21,20
India,Telangana,Hyderabad,"Kompally Municipal Office, Hyderabad - TSPCB",03-12-2025 07:00:00,17.544899,78.486949,OZONE,16,36,17
India,Telangana,Hyderabad,"Nacharam_TSIIC IALA, Hyderabad - TSPCB",03-12-2025 07:00:00,17.429398,78.569354,OZONE,15,39,15
India,Telangana,Hyderabad,"New Malakpet, Hyderabad - TSPCB",03-12-2025 07:00:00,17.37206,78.50864,CO,26,41,26
India,Telangana,Hyderabad,"Ramachandrapuram, Hyderabad - TSPCB",03-12-2025 07:00:00,17.528544,78.286195,PM2.5,42,58,47
India,Uttar_Pradesh,Bareilly,"Civil Lines, Bareilly - UPPCB",03-12-2025 07:00:00,28.359581,79.414455,NH3,1,8,3
India,Uttar_Pradesh,Bareilly,"Rajendra Nagar, Bareilly - UPPCB",03-12-2025 07:00:00,28.38910936,79.42963708,PM2.5,42,96,75
India,Uttar_Pradesh,Bareilly,"Rajendra Nagar, Bareilly - UPPCB",03-12-2025 07:00:00,28.38910936,79.42963708,PM10,76,140,118
India,Uttar_Pradesh,Bareilly,"Rajendra Nagar, Bareilly - UPPCB",03-12-2025 07:00:00,28.38910936,79.42963708,CO,7,24,22
India,Uttar_Pradesh,Ghaziabad,"Sanjay Nagar, Ghaziabad - UPPCB",03-12-2025 07:00:00,28.685382,77.453839,PM2.5,301,390,340
India,Uttar_Pradesh,Ghaziabad,"Sanjay Nagar, Ghaziabad - UPPCB",03-12-2025 07:00:00,28.685382,77.453839,PM10,169,402,265
India,Uttar_Pradesh,Ghaziabad,"Vasundhara, Ghaziabad - UPPCB",03-12-2025 07:00:00,28.6603346,77.3572563,PM2.5,NA,NA,NA
India,Uttar_Pradesh,Ghaziabad,"Vasundhara, Ghaziabad - UPPCB",03-12-2025 07:00:00,28.6603346,77.3572563,OZONE,6,144,11
India,Uttar_Pradesh,Gorakhpur,"Madan Mohan Malaviya University of Technology, Gorakhpur - UPPCB",03-12-2025 07:00:00,26.730136,83.433859,NO2,10,12,11
India,Uttar_Pradesh,Gorakhpur,"Madan Mohan Malaviya University of Technology, Gorakhpur - UPPCB",03-12-2025 07:00:00,26.730136,83.433859,SO2,33,34,34
India,Uttar_Pradesh,Greater Noida,"Knowledge Park - III, Greater Noida - UPPCB",03-12-2025 07:00:00,28.47272,77.482000,PM2.5,171,405,326
India,Uttar_Pradesh,Greater Noida,"Knowledge Park - III, Greater Noida - UPPCB",03-12-2025 07:00:00,28.47272,77.482000,NO2,60,192,115
India,Uttar_Pradesh,Greater Noida,"Knowledge Park - III, Greater Noida - UPPCB",03-12-2025 07:00:00,28.47272,77.482000,NH3,13,19,16
India,Uttar_Pradesh,Moradabad,"Kashiram Nagar, Moradabad - UPPCB",03-12-2025 07:00:00,28.849399,78.742362,CO,28,78,47
India,Uttar_Pradesh,Moradabad,"Kashiram Nagar, Moradabad - UPPCB",03-12-2025 07:00:00,28.849399,78.742362,OZONE,22,51,25
India,Uttar_Pradesh,Moradabad,"Transport Nagar, Moradabad - UPPCB",03-12-2025 07:00:00,28.802625,78.753728,NH3,5,6,5
India,Uttar_Pradesh,Moradabad,"Transport Nagar, Moradabad - UPPCB",03-12-2025 07:00:00,28.802625,78.753728,SO2,32,40,33
India,Uttar_Pradesh,Muzaffarnagar,"New Mandi, Muzaffarnagar - UPPCB",03-12-2025 07:00:00,29.4723508,77.7194031,OZONE,14,27,20
India,Uttar_Pradesh,Noida,"Sector - 125, Noida - UPPCB",03-12-2025 07:00:00,28.5447608,77.3231257,PM10,193,460,292
India,Uttar_Pradesh,Noida,"Sector - 125, Noida - UPPCB",03-12-2025 07:00:00,28.5447608,77.3231257,NH3,2,3,3
India,Uttar_Pradesh,Noida,"Sector - 125, Noida - UPPCB",03-12-2025 07:00:00,28.5447608,77.3231257,OZONE,9,12,10
India,Uttar_Pradesh,Noida,"Sector - 62, Noida - IMD",03-12-2025 07:00:00,28.6245479,77.3577104,OZONE,16,187,20
India,Uttar_Pradesh,Greater Noida,"Knowledge Park - V, Greater Noida - UPPCB",03-12-2025 07:00:00,28.557054,77.453663,PM10,208,500,359
India,Uttar_Pradesh,Greater Noida,"Knowledge Park - V, Greater Noida - UPPCB",03-12-2025 07:00:00,28.557054,77.453663,NH3,3,5,4
India,Uttar_Pradesh,Greater Noida,"Knowledge Park - V, Greater Noida - UPPCB",03-12-2025 07:00:00,28.557054,77.453663,SO2,4,27,17
India,Uttar_Pradesh,Hapur,"Anand Vihar, Hapur - UPPCB",03-12-2025 07:00:00,28.725645,77.749675,PM2.5,304,455,385
India,Uttar_Pradesh,Hapur,"Anand Vihar, Hapur - UPPCB",03-12-2025 07:00:00,28.725645,77.749675,OZONE,5,38,12
India,Uttar_Pradesh,Jhansi,"Shivaji Nagar, Jhansi - UPPCB",03-12-2025 07:00:00,25.4547,78.6039,OZONE,1,6,1
India,Uttar_Pradesh,Kanpur,"FTI Kidwai Nagar, Kanpur - UPPCB",03-12-2025 07:00:00,26.428282,80.327067,PM2.5,42,305,178
India,Uttar_Pradesh,Kanpur,"FTI Kidwai Nagar, Kanpur - UPPCB",03-12-2025 07:00:00,26.428282,80.327067,SO2,21,32,26
India,Uttar_Pradesh,Lucknow,"Gomti Nagar, Lucknow - UPPCB",03-12-2025 07:00:00,26.868120,81.005119,NO2,6,9,8
India,Uttar_Pradesh,Lucknow,"Gomti Nagar, Lucknow - UPPCB",03-12-2025 07:00:00,26.868120,81.005119,SO2,9,12,10
India,Uttar_Pradesh,Lucknow,"Gomti Nagar, Lucknow - UPPCB",03-12-2025 07:00:00,26.868120,81.005119,OZONE,26,38,29
India,Uttar_Pradesh,Lucknow,"Kendriya Vidyalaya, Lucknow - CPCB",03-12-2025 07:00:00,26.906111,80.948222,SO2,5,14,10
India,Uttar_Pradesh,Lucknow,"Lalbagh, Lucknow - CPCB",03-12-2025 07:00:00,26.8458805,80.9365541,PM2.5,27,385,209
India,Uttar_Pradesh,Lucknow,"Lalbagh, Lucknow - CPCB",03-12-2025 07:00:00,26.8458805,80.9365541,NO2,36,47,40
India,Uttar_Pradesh,Lucknow,"Talkatora District Industries Center, Lucknow - CPCB",03-12-2025 07:00:00,26.83399722,80.8917361,PM10,125,223,169
India,Uttar_Pradesh,Kanpur,"Nehru Nagar, Kanpur - UPPCB",03-12-2025 07:00:00,26.4703136,80.3229863,CO,33,68,66
India,Uttar_Pradesh,Kanpur,"Nehru Nagar, Kanpur - UPPCB",03-12-2025 07:00:00,26.4703136,80.3229863,OZONE,6,32,6
India,Uttar_Pradesh,Khurja,"Kalindi Kunj, Khurja - UPPCB",03-12-2025 07:00:00,28.2348927,77.8683002,NH3,1,1,1
India,Uttar_Pradesh,Khurja,"Kalindi Kunj, Khurja - UPPCB",03-12-2025 07:00:00,28.2348927,77.8683002,OZONE,12,24,22
India,Uttar_Pradesh,Lucknow,"B R Ambedkar University, Lucknow - UPPCB",03-12-2025 07:00:00,26.766433,80.927299,NH3,6,13,9
India,Uttar_Pradesh,Lucknow,"Talkatora District Industries Center, Lucknow - CPCB",03-12-2025 07:00:00,26.83399722,80.8917361,NH3,9,19,12
India,Uttar_Pradesh,Meerut,"Ganga Nagar, Meerut - UPPCB",03-12-2025 07:00:00,28.999264,77.7590354,PM2.5,131,346,238
India,Uttar_Pradesh,Meerut,"Ganga Nagar, Meerut - UPPCB",03-12-2025 07:00:00,28.999264,77.7590354,PM10,171,438,269
India,Uttar_Pradesh,Moradabad,"Buddhi Vihar, Moradabad - UPPCB",03-12-2025 07:00:00,28.83526,78.74460,NO2,NA,NA,NA
India,Uttar_Pradesh,Prayagraj,"Nagar Nigam, Prayagraj - UPPCB",03-12-2025 07:00:00,25.44919916 ,81.82735986 ,OZONE,11,15,12
India,Uttar_Pradesh,Varanasi,"Bhelupur, Varanasi - UPPCB",03-12-2025 07:00:00,25.301778,82.996789,PM10,48,167,92
India,Uttar_Pradesh,Varanasi,"Bhelupur, Varanasi - UPPCB",03-12-2025 07:00:00,25.301778,82.996789,NO2,8,8,8
India,Uttar_Pradesh,Varanasi,"IESD Banaras Hindu University, Varanasi - UPPCB",03-12-2025 07:00:00,25.262326,82.995408,CO,11,42,31
India,Uttar_Pradesh,Prayagraj,"Jhunsi, Prayagraj - UPPCB",03-12-2025 07:00:00,25.425602,81.917152,NH3,5,5,5
India,Uttar_Pradesh,Prayagraj,"Motilal Nehru NIT, Prayagraj - UPPCB",03-12-2025 07:00:00,25.494,81.863,PM10,45,145,98
India,Uttar_Pradesh,Prayagraj,"Motilal Nehru NIT, Prayagraj - UPPCB",03-12-2025 07:00:00,25.494,81.863,NO2,12,12,12
India,Uttar_Pradesh,Prayagraj,"Motilal Nehru NIT, Prayagraj - UPPCB",03-12-2025 07:00:00,25.494,81.863,NH3,8,8,8
India,Uttar_Pradesh,Prayagraj,"Motilal Nehru NIT, Prayagraj - UPPCB",03-12-2025 07:00:00,25.494,81.863,CO,20,56,47
India,Uttar_Pradesh,Moradabad,"Buddhi Vihar, Moradabad - UPPCB",03-12-2025 07:00:00,28.83526,78.74460,NH3,NA,NA,NA
India,Uttar_Pradesh,Moradabad,"Jigar Colony, Moradabad - UPPCB",03-12-2025 07:00:00,28.856664,78.772638,SO2,12,49,39
India,Uttar_Pradesh,Moradabad,"Jigar Colony, Moradabad - UPPCB",03-12-2025 07:00:00,28.856664,78.772638,CO,26,40,40
India,Uttar_Pradesh,Varanasi,"Maldahiya, Varanasi - UPPCB",03-12-2025 07:00:00,25.32393,82.99687,PM2.5,46,228,96
India,Uttar_Pradesh,Varanasi,"Maldahiya, Varanasi - UPPCB",03-12-2025 07:00:00,25.32393,82.99687,PM10,46,170,94
India,Uttar_Pradesh,Vrindavan,"Omex Eternity, Vrindavan - UPPCB",03-12-2025 07:00:00,27.5714090,77.6557570,PM2.5,50,225,122
India,Uttar_Pradesh,Vrindavan,"Omex Eternity, Vrindavan - UPPCB",03-12-2025 07:00:00,27.5714090,77.6557570,CO,33,89,70
India,Uttarakhand,Dehradun,"Doon University, Dehradun - UKPCB",03-12-2025 07:00:00,30.269444,78.044167,PM10,47,125,83
India,Uttarakhand,Kashipur,"Govt. Girls Inter College, Kashipur - UKPCB",03-12-2025 07:00:00,29.2124114,78.9611753,PM2.5,60,245,124
India,Uttarakhand,Rishikesh,"Shivaji Nagar, Rishikesh - UKPCB",03-12-2025 07:00:00,30.075911,78.2859547,PM10,26,87,63
India,Uttarakhand,Rishikesh,"Shivaji Nagar, Rishikesh - UKPCB",03-12-2025 07:00:00,30.075911,78.2859547,NO2,17,30,22
India,Uttarakhand,Rishikesh,"Shivaji Nagar, Rishikesh - UKPCB",03-12-2025 07:00:00,30.075911,78.2859547,OZONE,3,76,17
India,West_Bengal,Asansol,"Asansol Court Area, Asansol - WBPCB",03-12-2025 07:00:00,23.685297,86.945968,NH3,2,9,5
India,West_Bengal,Asansol,"Asansol Court Area, Asansol - WBPCB",03-12-2025 07:00:00,23.685297,86.945968,SO2,15,32,23
India,West_Bengal,Asansol,"Asansol Court Area, Asansol - WBPCB",03-12-2025 07:00:00,23.685297,86.945968,CO,12,107,39
India,West_Bengal,Asansol,"Evelyn Lodge, Asansol - WBPCB",03-12-2025 07:00:00,23.6979360,86.9443950,CO,26,103,51
India,West_Bengal,Asansol,"Mahabir Colliery, Asansol - WBPCB",03-12-2025 07:00:00,23.6181830,87.1057180,SO2,6,9,8
India,West_Bengal,Asansol,"Mahabir Colliery, Asansol - WBPCB",03-12-2025 07:00:00,23.6181830,87.1057180,OZONE,12,74,12
India,West_Bengal,Asansol,"Trivenidevi Bhalotia College, Asansol - WBPCB",03-12-2025 07:00:00,23.616515,87.119133,PM10,89,240,145
India,West_Bengal,Asansol,"Trivenidevi Bhalotia College, Asansol - WBPCB",03-12-2025 07:00:00,23.616515,87.119133,CO,10,117,110
India,West_Bengal,Asansol,"Trivenidevi Bhalotia College, Asansol - WBPCB",03-12-2025 07:00:00,23.616515,87.119133,OZONE,1,67,3
India,West_Bengal,Barrackpore,"SVSPA Campus, Barrackpore - WBPCB",03-12-2025 07:00:00,22.7605581,88.3617589,PM2.5,125,313,242
India,West_Bengal,Barrackpore,"SVSPA Campus, Barrackpore - WBPCB",03-12-2025 07:00:00,22.7605581,88.3617589,NO2,15,62,29
India,West_Bengal,Durgapur,"PCBL Residential Complex, Durgapur - WBPCB",03-12-2025 07:00:00,23.5087640,87.3544400,PM2.5,73,234,113
India,West_Bengal,Durgapur,"PCBL Residential Complex, Durgapur - WBPCB",03-12-2025 07:00:00,23.5087640,87.3544400,NO2,22,45,32
India,West_Bengal,Durgapur,"Womens College_City Center, Durgapur - WBPCB (Formerly known as Sidhu Kanhu Indoor Stadium)",03-12-2025 07:00:00,23.549395,87.300496,PM2.5,85,230,142
India,West_Bengal,Durgapur,"Womens College_City Center, Durgapur - WBPCB (Formerly known as Sidhu Kanhu Indoor Stadium)",03-12-2025 07:00:00,23.549395,87.300496,PM10,97,173,134
India,West_Bengal,Durgapur,"Womens College_City Center, Durgapur - WBPCB (Formerly known as Sidhu Kanhu Indoor Stadium)",03-12-2025 07:00:00,23.549395,87.300496,NO2,23,34,27
India,West_Bengal,Haldia,"Priyambada Housing Estate, Haldia - WBPCB",03-12-2025 07:00:00,22.06047,88.109737,SO2,13,24,16
India,West_Bengal,Haldia,"Priyambada Housing Estate, Haldia - WBPCB",03-12-2025 07:00:00,22.06047,88.109737,OZONE,18,28,19
India,West_Bengal,Howrah,"Botanical Garden, Howrah - WBPCB",03-12-2025 07:00:00,22.554954,88.292568,NH3,2,3,2
India,West_Bengal,Howrah,"Dasnagar, Howrah - WBPCB",03-12-2025 07:00:00,22.6025571,88.3105664,PM2.5,93,306,197
India,West_Bengal,Howrah,"Dasnagar, Howrah - WBPCB",03-12-2025 07:00:00,22.6025571,88.3105664,OZONE,15,139,22
India,West_Bengal,Howrah,"Padmapukur, Howrah - WBPCB",03-12-2025 07:00:00,22.5687319,88.2797276,NO2,11,33,21
India,West_Bengal,Howrah,"Padmapukur, Howrah - WBPCB",03-12-2025 07:00:00,22.5687319,88.2797276,SO2,4,15,7
India,West_Bengal,Kolkata,"Ballygunge, Kolkata - WBPCB",03-12-2025 07:00:00,22.5367507,88.3638022,NH3,7,13,9
India,West_Bengal,Kolkata,"Bidhannagar, Kolkata - WBPCB",03-12-2025 07:00:00,22.58157048,88.41002457,PM10,125,189,156
India,West_Bengal,Kolkata,"Bidhannagar, Kolkata - WBPCB",03-12-2025 07:00:00,22.58157048,88.41002457,NO2,15,21,18
India,West_Bengal,Kolkata,"Fort William, Kolkata - WBPCB",03-12-2025 07:00:00,22.556640,88.342674,SO2,9,46,21
India,West_Bengal,Kolkata,"Fort William, Kolkata - WBPCB",03-12-2025 07:00:00,22.556640,88.342674,CO,14,85,67
India,West_Bengal,Kolkata,"Fort William, Kolkata - WBPCB",03-12-2025 07:00:00,22.556640,88.342674,OZONE,18,97,39
India,West_Bengal,Kolkata,"Jadavpur, Kolkata - WBPCB",03-12-2025 07:00:00,22.49929,88.36917,NO2,34,103,63
India,West_Bengal,Kolkata,"Rabindra Sarobar, Kolkata - WBPCB",03-12-2025 07:00:00,22.51106,88.35142,PM10,106,148,120
India,West_Bengal,Kolkata,"Victoria, Kolkata - WBPCB",03-12-2025 07:00:00,22.5448082,88.3403691,CO,33,100,93
India,Andhra_Pradesh,Amaravati,"Secretariat, Amaravati - APPCB",03-12-2025 07:00:00,16.5150833,80.5181667,CO,18,40,25
India,Andhra_Pradesh,Anantapur,"Gulzarpet, Anantapur - APPCB",03-12-2025 07:00:00,14.675886,77.593027,NO2,12,20,15
India,TamilNadu,Coimbatore,"SIDCO Kurichi, Coimbatore - TNPCB",03-12-2025 07:00:00,10.942451,76.978996,CO,15,36,23
India,TamilNadu,Cuddalore,"Kudikadu, Cuddalore - TNPCB",03-12-2025 07:00:00,11.6829898,79.7532099,NO2,19,19,19
India,TamilNadu,Cuddalore,"Semmandalam, Cuddalore - TNPCB",03-12-2025 07:00:00,11.7637683,79.7499835,NO2,1,8,4
India,Andhra_Pradesh,Chittoor,"Gangineni Cheruvu, Chittoor - APPCB",03-12-2025 07:00:00,13.204880,79.097889,SO2,7,34,16
India,TamilNadu,Cuddalore,"Semmandalam, Cuddalore - TNPCB",03-12-2025 07:00:00,11.7637683,79.7499835,NH3,2,3,3
India,TamilNadu,Dindigul,"Mendonsa Colony, Dindigul - TNPCB",03-12-2025 07:00:00,10.358535,77.984321,PM10,NA,NA,NA
India,Andhra_Pradesh,Kadapa,"Yerramukkapalli, Kadapa - APPCB",03-12-2025 07:00:00,14.465052,78.824187,PM2.5,61,134,77
India,TamilNadu,Dindigul,"Mendonsa Colony, Dindigul - TNPCB",03-12-2025 07:00:00,10.358535,77.984321,NH3,NA,NA,NA
India,Andhra_Pradesh,Kadapa,"Yerramukkapalli, Kadapa - APPCB",03-12-2025 07:00:00,14.465052,78.824187,NO2,19,25,21
India,Andhra_Pradesh,Kadapa,"Yerramukkapalli, Kadapa - APPCB",03-12-2025 07:00:00,14.465052,78.824187,CO,26,42,32
India,TamilNadu,Gummidipoondi,"Anthoni Pillai Nagar, Gummidipoondi - TNPCB",03-12-2025 07:00:00,13.4127,80.1081,PM2.5,NA,NA,NA
India,Andhra_Pradesh,Kadapa,"Yerramukkapalli, Kadapa - APPCB",03-12-2025 07:00:00,14.465052,78.824187,OZONE,21,24,22
India,Andhra_Pradesh,Rajamahendravaram,"Anand Kala Kshetram, Rajamahendravaram - APPCB",03-12-2025 07:00:00,16.9872867,81.7363176,NO2,21,40,29
India,Andhra_Pradesh,Rajamahendravaram,"Anand Kala Kshetram, Rajamahendravaram - APPCB",03-12-2025 07:00:00,16.9872867,81.7363176,CO,24,40,27
India,TamilNadu,Perundurai,"SIPCOT Industrial Park, Perundurai - TNPCB",03-12-2025 07:00:00,11.258242,77.552761,SO2,12,13,12
India,Andhra_Pradesh,Visakhapatnam,"GVM Corporation, Visakhapatnam - APPCB",03-12-2025 07:00:00,17.72,83.3,PM10,97,136,115
India,Andhra_Pradesh,Visakhapatnam,"GVM Corporation, Visakhapatnam - APPCB",03-12-2025 07:00:00,17.72,83.3,SO2,3,15,11
