country,state,city,station,last_update,latitude,longitude,pollutant_id,min_value,max_value,avg_value
India,Assam,Silchar,"Tarapur, Silchar - PCBA",07-12-2025 08:00:00,24.82827,92.79525,NH3,1,1,1
India,Assam,Sivasagar,"Girls College, Sivasagar - PCBA",07-12-2025 08:00:00,26.987634,94.636574,SO2,7,13,10
India,Bihar,Araria,"Kharahiya Basti, Araria - BSPCB",07-12-2025 08:00:00,26.146529,87.454184,PM10,44,147,109
India,Bihar,Araria,"Kharahiya Basti, Araria - BSPCB",07-12-2025 08:00:00,26.146529,87.454184,CO,15,86,36
India,Bihar,Arrah,"New DM Office, Arrah - BSPCB",07-12-2025 08:00:00,25.5626095,84.663264,NH3,1,1,1
India,Bihar,Arrah,"New DM Office, Arrah - BSPCB",07-12-2025 08:00:00,25.5626095,84.663264,SO2,8,10,10
India,Bihar,Aurangabad,"Gurdeo Nagar, Aurangabad - BSPCB",07-12-2025 08:00:00,24.75746,84.366208,PM2.5,43,143,73
India,Bihar,Aurangabad,"Gurdeo Nagar, Aurangabad - BSPCB",07-12-2025 08:00:00,24.75746,84.366208,NO2,7,8,8
India,Arunachal_Pradesh,Naharlagun,"Naharlagun, Naharlagun - APSPCB",07-12-2025 08:00:00,27.103358,93.679645,PM2.5,26,358,133
India,Arunachal_Pradesh,Naharlagun,"Naharlagun, Naharlagun - APSPCB",07-12-2025 08:00:00,27.103358,93.679645,NH3,1,1,1
India,Arunachal_Pradesh,Naharlagun,"Naharlagun, Naharlagun - APSPCB",07-12-2025 08:00:00,27.103358,93.679645,CO,7,60,15
India,Assam,Byrnihat,"Central Academy for SFS, Byrnihat - PCBA",07-12-2025 08:00:00,26.071318,91.87488,PM10,94,152,127
India,Assam,Byrnihat,"Central Academy for SFS, Byrnihat - PCBA",07-12-2025 08:00:00,26.071318,91.87488,NO2,5,8,7
India,Assam,Byrnihat,"Central Academy for SFS, Byrnihat - PCBA",07-12-2025 08:00:00,26.071318,91.87488,SO2,5,8,6
India,Assam,Guwahati,"IITG, Guwahati - PCBA",07-12-2025 08:00:00,26.2028636,91.70046436,SO2,23,28,24
India,Assam,Guwahati,"LGBI Airport, Guwahati - PCBA",07-12-2025 08:00:00,26.10887,91.589544,PM10,53,187,133
India,Bihar,Bhagalpur,"Mayaganj, Bhagalpur - BSPCB",07-12-2025 08:00:00,25.265194,87.012947,SO2,48,80,63
India,Bihar,Bhagalpur,"Mayaganj, Bhagalpur - BSPCB",07-12-2025 08:00:00,25.265194,87.012947,CO,72,106,89
India,Bihar,Buxar,"Charitra Van, Buxar - BSPCB",07-12-2025 08:00:00,25.567520,83.966379,OZONE,18,144,31
India,Bihar,Chhapra,"Darshan Nagar, Chhapra - BSPCB",07-12-2025 08:00:00,25.7808257,84.7446768,PM2.5,68,243,156
India,Bihar,Chhapra,"Darshan Nagar, Chhapra - BSPCB",07-12-2025 08:00:00,25.7808257,84.7446768,PM10,92,187,147
India,Bihar,Chhapra,"Darshan Nagar, Chhapra - BSPCB",07-12-2025 08:00:00,25.7808257,84.7446768,OZONE,27,55,30
India,Bihar,Gaya,"Collectorate, Gaya - BSPCB",07-12-2025 08:00:00,24.7955,84.9994,SO2,8,21,12
India,Bihar,Gaya,"Collectorate, Gaya - BSPCB",07-12-2025 08:00:00,24.7955,84.9994,CO,36,102,42
India,Andhra_Pradesh,Vijayawada,"Kanuru, Vijayawada - APPCB",07-12-2025 08:00:00,16.486692,80.699436,PM10,34,85,46
India,Andhra_Pradesh,Vijayawada,"Rajiv Gandhi Park, Vijayawada - APPCB",07-12-2025 08:00:00,16.509717,80.612222,PM2.5,72,95,84
India,Andhra_Pradesh,Vijayawada,"Rajiv Gandhi Park, Vijayawada - APPCB",07-12-2025 08:00:00,16.509717,80.612222,SO2,14,16,15
India,Andhra_Pradesh,Visakhapatnam,"GVM Corporation, Visakhapatnam - APPCB",07-12-2025 08:00:00,17.72,83.3,PM2.5,143,237,194
India,Andhra_Pradesh,Visakhapatnam,"GVM Corporation, Visakhapatnam - APPCB",07-12-2025 08:00:00,17.72,83.3,NH3,3,3,3
India,Bihar,Gaya,"Collectorate, Gaya - BSPCB",07-12-2025 08:00:00,24.7955,84.9994,OZONE,18,20,19
India,Bihar,Gaya,"Kareemganj, Gaya - BSPCB",07-12-2025 08:00:00,24.792403,84.992416,PM10,119,334,186
India,Bihar,Gaya,"SFTI Kusdihra, Gaya - BSPCB",07-12-2025 08:00:00,24.762518,84.982348,NO2,16,19,18
India,Bihar,Gaya,"SFTI Kusdihra, Gaya - BSPCB",07-12-2025 08:00:00,24.762518,84.982348,CO,20,46,44
India,Bihar,Katihar,"Mirchaibari, Katihar - BSPCB",07-12-2025 08:00:00,25.560083,87.553265,NH3,1,1,1
India,Andhra_Pradesh,Tirumala,"Toll Gate, Tirumala - APPCB",07-12-2025 08:00:00,13.67,79.35,NO2,15,31,19
India,Andhra_Pradesh,Tirumala,"Toll Gate, Tirumala - APPCB",07-12-2025 08:00:00,13.67,79.35,OZONE,6,29,19
India,Andhra_Pradesh,Vijayawada,"HB Colony, Vijayawada - APPCB",07-12-2025 08:00:00,16.536107,80.594233,PM2.5,47,75,60
India,Andhra_Pradesh,Vijayawada,"HB Colony, Vijayawada - APPCB",07-12-2025 08:00:00,16.536107,80.594233,PM10,49,81,65
India,Andhra_Pradesh,Vijayawada,"HB Colony, Vijayawada - APPCB",07-12-2025 08:00:00,16.536107,80.594233,SO2,13,20,16
India,Andhra_Pradesh,Vijayawada,"HB Colony, Vijayawada - APPCB",07-12-2025 08:00:00,16.536107,80.594233,CO,40,45,43
India,Assam,Guwahati,"Pan Bazaar, Guwahati - PCBA",07-12-2025 08:00:00,26.187500,91.744194,PM10,37,129,87
India,Assam,Guwahati,"Railway Colony, Guwahati - PCBA",07-12-2025 08:00:00,26.181742,91.78063,NO2,3,4,3
India,Assam,Nagaon,"Christianpatty, Nagaon - PCBA",07-12-2025 08:00:00,26.349082,92.68449,PM2.5,64,152,109
India,Assam,Nagaon,"Christianpatty, Nagaon - PCBA",07-12-2025 08:00:00,26.349082,92.68449,SO2,12,13,13
India,Assam,Nagaon,"Christianpatty, Nagaon - PCBA",07-12-2025 08:00:00,26.349082,92.68449,CO,8,24,23
India,Bihar,Bettiah,"Kamalnath Nagar, Bettiah - BSPCB",07-12-2025 08:00:00,26.80365,84.51954,PM2.5,33,200,88
India,Bihar,Bhagalpur,"DM Office_Kachari Chowk, Bhagalpur - BSPCB",07-12-2025 08:00:00,25.251013,86.989001,PM2.5,67,322,143
India,Bihar,Bhagalpur,"DM Office_Kachari Chowk, Bhagalpur - BSPCB",07-12-2025 08:00:00,25.251013,86.989001,SO2,41,63,52
India,Bihar,Bhagalpur,"Mayaganj, Bhagalpur - BSPCB",07-12-2025 08:00:00,25.265194,87.012947,NO2,7,8,7
India,Andhra_Pradesh,Anantapur,"Gulzarpet, Anantapur - APPCB",07-12-2025 08:00:00,14.675886,77.593027,SO2,11,13,12
India,Andhra_Pradesh,Anantapur,"Gulzarpet, Anantapur - APPCB",07-12-2025 08:00:00,14.675886,77.593027,OZONE,38,66,41
India,Andhra_Pradesh,Chittoor,"Gangineni Cheruvu, Chittoor - APPCB",07-12-2025 08:00:00,13.204880,79.097889,SO2,6,34,16
India,Andhra_Pradesh,Kadapa,"Yerramukkapalli, Kadapa - APPCB",07-12-2025 08:00:00,14.465052,78.824187,CO,34,56,39
India,Bihar,Manguraha,"Forest Rest House, Manguraha - BSPCB",07-12-2025 08:00:00,27.308328,84.531742,PM10,36,210,80
India,Bihar,Manguraha,"Forest Rest House, Manguraha - BSPCB",07-12-2025 08:00:00,27.308328,84.531742,NH3,1,2,1
India,Bihar,Manguraha,"Forest Rest House, Manguraha - BSPCB",07-12-2025 08:00:00,27.308328,84.531742,SO2,16,17,16
India,Bihar,Motihari,"Gandak Colony, Motihari - BSPCB",07-12-2025 08:00:00,26.63086,84.90051,OZONE,3,6,4
India,Bihar,Rajgir,"Dangi Tola, Rajgir - BSPCB",07-12-2025 08:00:00,25.03280,85.41948,SO2,20,23,21
India,Bihar,Saharsa,"Police Line, Saharsa - BSPCB",07-12-2025 08:00:00,25.892357,86.590325,PM10,54,161,100
India,Bihar,Saharsa,"Police Line, Saharsa - BSPCB",07-12-2025 08:00:00,25.892357,86.590325,SO2,15,20,17
India,Bihar,Samastipur,"DM Office_Kasipur, Samastipur - BSPCB",07-12-2025 08:00:00,25.859655,85.77944,PM2.5,28,73,56
India,Bihar,Samastipur,"DM Office_Kasipur, Samastipur - BSPCB",07-12-2025 08:00:00,25.859655,85.77944,NO2,7,11,9
India,Bihar,Samastipur,"DM Office_Kasipur, Samastipur - BSPCB",07-12-2025 08:00:00,25.859655,85.77944,NH3,1,2,1
India,Bihar,Sasaram,"Dada Peer, Sasaram - BSPCB",07-12-2025 08:00:00,24.952822,84.002396,OZONE,16,17,17
India,Bihar,Siwan,"Chitragupta Nagar, Siwan - BSPCB",07-12-2025 08:00:00,26.2271665,84.3570427,PM2.5,27,103,68
India,Bihar,Patna,"Muradpur, Patna - BSPCB",07-12-2025 08:00:00,25.619651,85.147382,SO2,7,9,8
India,Bihar,Patna,"Rajbansi Nagar, Patna - BSPCB",07-12-2025 08:00:00,25.599486,85.113666,OZONE,20,29,24
India,Bihar,Purnia,"Mariam Nagar, Purnia - BSPCB",07-12-2025 08:00:00,25.366336,87.117468,PM10,25,99,62
India,Bihar,Purnia,"Mariam Nagar, Purnia - BSPCB",07-12-2025 08:00:00,25.366336,87.117468,NO2,5,7,6
India,Bihar,Purnia,"Mariam Nagar, Purnia - BSPCB",07-12-2025 08:00:00,25.366336,87.117468,NH3,3,3,3
India,Bihar,Rajgir,"Dangi Tola, Rajgir - BSPCB",07-12-2025 08:00:00,25.03280,85.41948,PM10,NA,NA,NA
India,Chhattisgarh,Korba,"Rampur, Korba - CECB",07-12-2025 08:00:00,22.368195,82.746431,SO2,12,65,22
India,Chhattisgarh,Korba,"Rampur, Korba - CECB",07-12-2025 08:00:00,22.368195,82.746431,CO,22,42,26
India,Chhattisgarh,Korba,"Urja Nagar, Korba - CECB",07-12-2025 08:00:00,22.348441,82.549611,PM2.5,70,86,71
India,Chhattisgarh,Korba,"Urja Nagar, Korba - CECB",07-12-2025 08:00:00,22.348441,82.549611,SO2,1,13,8
India,Chhattisgarh,Kunjemura,"OP Jindal School, Kunjemura - CECB",07-12-2025 08:00:00,22.126650,83.483212,PM2.5,22,41,34
India,Chandigarh,Chandigarh,"Sector 22, Chandigarh - CPCC",07-12-2025 08:00:00,30.735567,76.775714,PM10,72,177,124
India,Chandigarh,Chandigarh,"Sector 22, Chandigarh - CPCC",07-12-2025 08:00:00,30.735567,76.775714,SO2,6,36,10
India,Chandigarh,Chandigarh,"Sector-25, Chandigarh - CPCC",07-12-2025 08:00:00,30.751462,76.762879,PM10,99,147,123
India,Chandigarh,Chandigarh,"Sector-25, Chandigarh - CPCC",07-12-2025 08:00:00,30.751462,76.762879,NO2,20,49,28
India,Chandigarh,Chandigarh,"Sector-53, Chandigarh - CPCC",07-12-2025 08:00:00,30.719859,76.738637,PM10,66,170,118
India,Bihar,Munger,"Town Hall, Munger - BSPCB",07-12-2025 08:00:00,25.376776,86.471523,NH3,3,7,6
India,Bihar,Muzaffarpur,"Buddha Colony, Muzaffarpur - BSPCB",07-12-2025 08:00:00,26.11442,85.39813,PM2.5,76,218,149
India,Bihar,Muzaffarpur,"Buddha Colony, Muzaffarpur - BSPCB",07-12-2025 08:00:00,26.11442,85.39813,PM10,59,115,92
India,Bihar,Muzaffarpur,"Buddha Colony, Muzaffarpur - BSPCB",07-12-2025 08:00:00,26.11442,85.39813,NO2,23,62,32
India,Bihar,Patna,"Govt. High School Shikarpur, Patna - BSPCB",07-12-2025 08:00:00,25.592539,85.227158,NH3,4,6,5
India,Bihar,Patna,"Govt. High School Shikarpur, Patna - BSPCB",07-12-2025 08:00:00,25.592539,85.227158,OZONE,8,12,10
India,Bihar,Patna,"IGSC Planetarium Complex, Patna - BSPCB",07-12-2025 08:00:00,25.610369,85.132568,OZONE,28,30,29
India,Bihar,Patna,"Muradpur, Patna - BSPCB",07-12-2025 08:00:00,25.619651,85.147382,NH3,4,5,5
India,Chhattisgarh,Milupara,"Govt. Higher Secondary School, Milupara - CECB",07-12-2025 08:00:00,22.1910172,83.5197009,CO,16,66,31
India,Chhattisgarh,Raipur,"AIIMS, Raipur - CECB",07-12-2025 08:00:00,21.258815,81.578979,SO2,NA,NA,NA
India,Chhattisgarh,Bhilai,"32Bungalows, Bhilai - CECB",07-12-2025 08:00:00,21.194815,81.314770,SO2,5,26,10
India,Chhattisgarh,Bhilai,"32Bungalows, Bhilai - CECB",07-12-2025 08:00:00,21.194815,81.314770,CO,20,102,61
India,Chandigarh,Chandigarh,"Sector 22, Chandigarh - CPCC",07-12-2025 08:00:00,30.735567,76.775714,PM2.5,83,319,221
India,Delhi,Delhi,"Alipur, Delhi - DPCC",07-12-2025 08:00:00,28.815329,77.153010,CO,56,78,66
India,Delhi,Delhi,"Alipur, Delhi - DPCC",07-12-2025 08:00:00,28.815329,77.153010,OZONE,20,55,26
India,Delhi,Delhi,"Anand Vihar, Delhi - DPCC",07-12-2025 08:00:00,28.647622,77.3158090,NH3,10,14,12
India,Delhi,Delhi,"Anand Vihar, Delhi - DPCC",07-12-2025 08:00:00,28.647622,77.3158090,SO2,8,68,53
India,Delhi,Delhi,"Ashok Vihar, Delhi - DPCC",07-12-2025 08:00:00,28.695381,77.181665,PM10,177,315,241
India,Delhi,Delhi,"Ashok Vihar, Delhi - DPCC",07-12-2025 08:00:00,28.695381,77.181665,NO2,39,110,69
India,Delhi,Delhi,"Bawana, Delhi - DPCC",07-12-2025 08:00:00,28.776200,77.051074,PM2.5,167,449,352
India,Delhi,Delhi,"Bawana, Delhi - DPCC",07-12-2025 08:00:00,28.776200,77.051074,SO2,8,32,16
India,Delhi,Delhi,"Bawana, Delhi - DPCC",07-12-2025 08:00:00,28.776200,77.051074,OZONE,11,108,21
India,Delhi,Delhi,"Burari Crossing, Delhi - IMD",07-12-2025 08:00:00,28.7256504,77.2011573,PM10,155,269,205
India,Delhi,Delhi,"Dwarka-Sector 8, Delhi - DPCC ",07-12-2025 08:00:00,28.5710274,77.0719006,SO2,22,35,28
India,Delhi,Delhi,"Dwarka-Sector 8, Delhi - DPCC ",07-12-2025 08:00:00,28.5710274,77.0719006,CO,32,109,54
India,Delhi,Delhi,"IGI Airport (T3), Delhi - IMD",07-12-2025 08:00:00,28.5627763,77.1180053,CO,16,51,41
India,Delhi,Delhi,"IHBAS, Dilshad Garden, Delhi - CPCB",07-12-2025 08:00:00,28.6811736,77.3025234,CO,52,88,74
India,Delhi,Delhi,"IHBAS, Dilshad Garden, Delhi - CPCB",07-12-2025 08:00:00,28.6811736,77.3025234,OZONE,24,30,26
India,Delhi,Delhi,"IIT Delhi, Delhi - IITM",07-12-2025 08:00:00,28.542460,77.191651,PM2.5,148,328,267
India,Delhi,Delhi,"ITO, Delhi - CPCB",07-12-2025 08:00:00,28.628624,77.241060,CO,42,101,66
India,Chhattisgarh,Raipur,"Krishak Nagar, Raipur - CECB",07-12-2025 08:00:00,21.237755,81.705301,NH3,2,2,2
India,Chhattisgarh,Raipur,"Krishak Nagar, Raipur - CECB",07-12-2025 08:00:00,21.237755,81.705301,SO2,5,15,7
India,Chhattisgarh,Raipur,"Krishak Nagar, Raipur - CECB",07-12-2025 08:00:00,21.237755,81.705301,OZONE,NA,NA,NA
India,Chhattisgarh,Raipur,"Siltara Phase-II, Raipur - CECB",07-12-2025 08:00:00,21.371751,81.664929,NO2,8,22,16
India,Chhattisgarh,Tumidih,"OP Jindal Industrial Park, Tumidih - CECB",07-12-2025 08:00:00,22.06631475,83.33820077,NO2,58,95,73
India,Delhi,Delhi,"Alipur, Delhi - DPCC",07-12-2025 08:00:00,28.815329,77.153010,PM2.5,110,345,282
India,Delhi,Delhi,"Jawaharlal Nehru Stadium, Delhi - DPCC",07-12-2025 08:00:00,28.580280,77.233829,PM10,172,344,243
India,Delhi,Delhi,"Lodhi Road, Delhi - IMD",07-12-2025 08:00:00,28.5918245,77.2273074,PM2.5,164,345,278
India,Delhi,Delhi,"Lodhi Road, Delhi - IMD",07-12-2025 08:00:00,28.5918245,77.2273074,NO2,16,45,29
India,Delhi,Delhi,"Major Dhyan Chand National Stadium, Delhi - DPCC",07-12-2025 08:00:00,28.611281,77.237738,PM10,162,286,216
India,Delhi,Delhi,"Major Dhyan Chand National Stadium, Delhi - DPCC",07-12-2025 08:00:00,28.611281,77.237738,NH3,17,24,21
India,Delhi,Delhi,"R K Puram, Delhi - DPCC",07-12-2025 08:00:00,28.563262,77.186937,OZONE,18,133,21
India,Delhi,Delhi,"Rohini, Delhi - DPCC",07-12-2025 08:00:00,28.732528,77.119920,NH3,11,18,15
India,Delhi,Delhi,"Shadipur, Delhi - CPCB",07-12-2025 08:00:00,28.6514781,77.1473105,PM10,154,323,206
India,Delhi,Delhi,"Sirifort, Delhi - CPCB",07-12-2025 08:00:00,28.5504249,77.2159377,NH3,10,13,11
India,Delhi,Delhi,"Sirifort, Delhi - CPCB",07-12-2025 08:00:00,28.5504249,77.2159377,SO2,24,36,33
India,Delhi,Delhi,"Burari Crossing, Delhi - IMD",07-12-2025 08:00:00,28.7256504,77.2011573,OZONE,14,294,31
India,Delhi,Delhi,"CRRI Mathura Road, Delhi - IMD",07-12-2025 08:00:00,28.5512005,77.2735737,NO2,38,77,48
India,Delhi,Delhi,"CRRI Mathura Road, Delhi - IMD",07-12-2025 08:00:00,28.5512005,77.2735737,OZONE,10,70,12
India,Delhi,Delhi,"Dr. Karni Singh Shooting Range, Delhi - DPCC",07-12-2025 08:00:00,28.498571,77.264840,NH3,8,10,9
India,Delhi,Delhi,"Dr. Karni Singh Shooting Range, Delhi - DPCC",07-12-2025 08:00:00,28.498571,77.264840,OZONE,8,48,12
India,Delhi,Delhi,"Punjabi Bagh, Delhi - DPCC",07-12-2025 08:00:00,28.674045,77.131023,NH3,4,6,5
India,Delhi,Delhi,"Pusa, Delhi - DPCC",07-12-2025 08:00:00,28.639652,77.146275,OZONE,18,32,22
India,Delhi,Delhi,"Pusa, Delhi - IMD",07-12-2025 08:00:00,28.636110,77.173332,NO2,18,115,55
India,Delhi,Delhi,"R K Puram, Delhi - DPCC",07-12-2025 08:00:00,28.563262,77.186937,PM2.5,187,416,325
India,Delhi,Delhi,"R K Puram, Delhi - DPCC",07-12-2025 08:00:00,28.563262,77.186937,NH3,5,8,6
India,Delhi,Delhi,"North Campus, DU, Delhi - IMD",07-12-2025 08:00:00,28.6573814,77.1585447,PM10,159,257,205
India,Delhi,Delhi,"Patparganj, Delhi - DPCC",07-12-2025 08:00:00,28.623763,77.287209,PM2.5,177,378,320
India,Delhi,Delhi,"Mundka, Delhi - DPCC",07-12-2025 08:00:00,28.684678,77.076574,SO2,6,23,14
India,Haryana,Fatehabad,"Huda Sector, Fatehabad - HSPCB",07-12-2025 08:00:00,29.503664,75.467934,SO2,10,11,11
India,Haryana,Fatehabad,"Huda Sector, Fatehabad - HSPCB",07-12-2025 08:00:00,29.503664,75.467934,CO,25,37,26
India,Haryana,Gurugram,"NISE Gwal Pahari, Gurugram - IMD",07-12-2025 08:00:00,28.422681,77.148944,PM10,126,397,240
India,Haryana,Gurugram,"NISE Gwal Pahari, Gurugram - IMD",07-12-2025 08:00:00,28.422681,77.148944,OZONE,7,78,12
India,Haryana,Gurugram,"Sector-51, Gurugram - HSPCB",07-12-2025 08:00:00,28.4227,77.0667,NO2,4,10,6
India,Haryana,Gurugram,"Teri Gram, Gurugram - HSPCB",07-12-2025 08:00:00,28.4275,77.1465,PM2.5,273,419,351
India,Haryana,Gurugram,"Teri Gram, Gurugram - HSPCB",07-12-2025 08:00:00,28.4275,77.1465,NO2,NA,NA,NA
India,Haryana,Dharuhera,"Municipal Corporation Office, Dharuhera -  HSPCB",07-12-2025 08:00:00,28.206800,76.799700,CO,2,46,41
India,Haryana,Faridabad,"New Industrial Town, Faridabad - HSPCB",07-12-2025 08:00:00,28.39072,77.30059,NO2,24,26,25
India,Haryana,Faridabad,"New Industrial Town, Faridabad - HSPCB",07-12-2025 08:00:00,28.39072,77.30059,OZONE,25,32,30
India,Haryana,Faridabad,"Sector 11, Faridabad - HSPCB",07-12-2025 08:00:00,28.376058,77.315741,NO2,30,33,31
India,Haryana,Faridabad,"Sector 11, Faridabad - HSPCB",07-12-2025 08:00:00,28.376058,77.315741,NH3,10,10,10
India,Haryana,Faridabad,"Sector 11, Faridabad - HSPCB",07-12-2025 08:00:00,28.376058,77.315741,CO,10,42,30
India,Haryana,Faridabad,"Sector 30, Faridabad - HSPCB",07-12-2025 08:00:00,28.4417,77.3217,PM10,148,154,151
India,Delhi,Delhi,"Sonia Vihar, Delhi - DPCC",07-12-2025 08:00:00,28.710508,77.249485,NH3,6,9,8
India,Delhi,Delhi,"Sonia Vihar, Delhi - DPCC",07-12-2025 08:00:00,28.710508,77.249485,CO,74,112,91
India,Delhi,Delhi,"Sonia Vihar, Delhi - DPCC",07-12-2025 08:00:00,28.710508,77.249485,OZONE,17,160,33
India,Delhi,Delhi,"Sri Aurobindo Marg, Delhi - DPCC",07-12-2025 08:00:00,28.531346,77.190156,PM2.5,167,339,284
India,Delhi,Delhi,"Sri Aurobindo Marg, Delhi - DPCC",07-12-2025 08:00:00,28.531346,77.190156,PM10,145,229,179
India,Delhi,Delhi,"Sri Aurobindo Marg, Delhi - DPCC",07-12-2025 08:00:00,28.531346,77.190156,OZONE,1,99,4
India,Delhi,Delhi,"Wazirpur, Delhi - DPCC",07-12-2025 08:00:00,28.699793,77.165453,NO2,49,118,81
India,Delhi,Delhi,"Wazirpur, Delhi - DPCC",07-12-2025 08:00:00,28.699793,77.165453,SO2,6,21,14
India,Haryana,Bahadurgarh,"Arya Nagar, Bahadurgarh - HSPCB",07-12-2025 08:00:00,28.6701,76.9254,PM10,NA,NA,NA
India,Haryana,Ballabgarh,"Nathu Colony, Ballabgarh - HSPCB",07-12-2025 08:00:00,28.3419248,77.319699,PM10,125,335,219
India,Haryana,Ballabgarh,"Nathu Colony, Ballabgarh - HSPCB",07-12-2025 08:00:00,28.3419248,77.319699,CO,16,111,33
India,Haryana,Bhiwani,"H.B. Colony, Bhiwani - HSPCB",07-12-2025 08:00:00,28.806223,76.141105,SO2,12,13,12
India,Haryana,Bhiwani,"H.B. Colony, Bhiwani - HSPCB",07-12-2025 08:00:00,28.806223,76.141105,CO,8,14,12
India,Haryana,Charkhi Dadri,"Mini Secretariat, Charkhi Dadri - HSPCB",07-12-2025 08:00:00,28.593883,76.270653,CO,10,25,17
India,Gujarat,Nandesari,"GIDC, Nandesari - Nandesari Ind. Association",07-12-2025 08:00:00,22.410802,73.097923,NO2,5,93,48
India,Gujarat,Surat,"Science Center, Surat - SMC",07-12-2025 08:00:00,21.170046,72.795405,CO,38,40,38
India,Gujarat,Vapi,"Phase-1 GIDC, Vapi - GPCB",07-12-2025 08:00:00,20.362421,72.918013,NH3,4,5,5
India,Gujarat,Vatva,"Phase-4 GIDC, Vatva - GPCB",07-12-2025 08:00:00,22.969611,72.643500,NH3,1,5,4
India,Haryana,Ambala,"Patti Mehar, Ambala - HSPCB",07-12-2025 08:00:00,30.379589,76.778328,PM10,87,218,138
India,Gujarat,Ahmedabad,"SAC ISRO Bopal, Ahmedabad - IITM",07-12-2025 08:00:00,23.041137,72.456691,NO2,22,59,34
India,Gujarat,Ahmedabad,"SAC ISRO Bopal, Ahmedabad - IITM",07-12-2025 08:00:00,23.041137,72.456691,NH3,10,15,12
India,Gujarat,Ahmedabad,"SAC ISRO Bopal, Ahmedabad - IITM",07-12-2025 08:00:00,23.041137,72.456691,OZONE,5,64,9
India,Gujarat,Ahmedabad,"SAC ISRO Satellite, Ahmedabad - IITM",07-12-2025 08:00:00,23.023389,72.515201,NO2,11,40,25
India,Gujarat,Ahmedabad,"SAC ISRO Satellite, Ahmedabad - IITM",07-12-2025 08:00:00,23.023389,72.515201,NH3,7,14,10
India,Gujarat,Ahmedabad,"SAC ISRO Satellite, Ahmedabad - IITM",07-12-2025 08:00:00,23.023389,72.515201,SO2,6,45,14
India,Gujarat,Ahmedabad,"Chandkheda, Ahmedabad - IITM",07-12-2025 08:00:00,23.107969,72.574648,NH3,3,7,5
India,Gujarat,Ahmedabad,"Gyaspur, Ahmedabad - IITM",07-12-2025 08:00:00,22.977134,72.553024,NH3,3,8,4
India,Gujarat,Ahmedabad,"Gyaspur, Ahmedabad - IITM",07-12-2025 08:00:00,22.977134,72.553024,OZONE,14,22,21
India,Gujarat,Ahmedabad,"Maninagar, Ahmedabad - GPCB",07-12-2025 08:00:00,23.002657,72.591912,PM2.5,67,157,103
India,Haryana,Gurugram,"Teri Gram, Gurugram - HSPCB",07-12-2025 08:00:00,28.4275,77.1465,SO2,NA,NA,NA
India,Haryana,Gurugram,"Vikas Sadan, Gurugram - HSPCB",07-12-2025 08:00:00,28.4501238,77.0263051,PM10,NA,NA,NA
India,Haryana,Hisar,"Urban Estate-II, Hisar - HSPCB",07-12-2025 08:00:00,29.140560,75.744941,PM10,118,155,130
India,Gujarat,Ankleshwar,"GIDC, Ankleshwar - GPCB",07-12-2025 08:00:00,21.613267,73.010555,PM2.5,65,139,104
India,Gujarat,Ankleshwar,"GIDC, Ankleshwar - GPCB",07-12-2025 08:00:00,21.613267,73.010555,OZONE,38,46,39
India,Gujarat,Gandhinagar,"Sector-10, Gandhinagar - GPCB",07-12-2025 08:00:00,23.221714,72.654328,NO2,14,27,19
India,Himachal Pradesh,Baddi,"HIMUDA Complex Phase-1, Baddi - HPPCB",07-12-2025 08:00:00,30.943887,76.801991,PM10,110,395,184
India,Himachal Pradesh,Baddi,"HIMUDA Complex Phase-1, Baddi - HPPCB",07-12-2025 08:00:00,30.943887,76.801991,NO2,27,115,62
India,Himachal Pradesh,Baddi,"HIMUDA Complex Phase-1, Baddi - HPPCB",07-12-2025 08:00:00,30.943887,76.801991,OZONE,7,140,27
India,Jharkhand,Dhanbad,"Sardar Patel Nagar, Dhanbad - JSPCB",07-12-2025 08:00:00,23.80569,86.44268,CO,2,28,2
India,Jharkhand,Jorapokhar,"Tata Stadium, Jorapokhar - JSPCB",07-12-2025 08:00:00,23.707909,86.414670,PM10,NA,NA,NA
India,Jharkhand,Jorapokhar,"Tata Stadium, Jorapokhar - JSPCB",07-12-2025 08:00:00,23.707909,86.414670,OZONE,NA,NA,NA
India,Karnataka,Bagalkot,"Vidayagiri, Bagalkot - KSPCB",07-12-2025 08:00:00,16.172806,75.659694,PM2.5,35,36,35
India,Karnataka,Bagalkot,"Vidayagiri, Bagalkot - KSPCB",07-12-2025 08:00:00,16.172806,75.659694,NH3,1,2,1
India,Haryana,Rohtak,"MD University, Rohtak - HSPCB",07-12-2025 08:00:00,28.52123,76.37138,PM10,87,136,112
India,Haryana,Rohtak,"MD University, Rohtak - HSPCB",07-12-2025 08:00:00,28.52123,76.37138,NO2,10,13,11
India,Haryana,Sirsa,"F-Block, Sirsa - HSPCB",07-12-2025 08:00:00,29.536400,75.015800,PM2.5,67,123,95
India,Haryana,Sonipat,"Murthal, Sonipat - HSPCB",07-12-2025 08:00:00,29.027200,77.062100,PM2.5,115,392,278
India,Haryana,Sonipat,"Murthal, Sonipat - HSPCB",07-12-2025 08:00:00,29.027200,77.062100,NO2,27,56,41
India,Haryana,Sonipat,"Murthal, Sonipat - HSPCB",07-12-2025 08:00:00,29.027200,77.062100,OZONE,25,26,26
India,Haryana,Yamuna Nagar,"Gobind Pura, Yamuna Nagar - HSPCB",07-12-2025 08:00:00,30.1480566,77.2893471,NH3,1,6,4
India,Haryana,Kaithal,"Rishi Nagar, Kaithal - HSPCB",07-12-2025 08:00:00,29.8006,76.4155,SO2,28,34,32
India,Haryana,Kaithal,"Rishi Nagar, Kaithal - HSPCB",07-12-2025 08:00:00,29.8006,76.4155,OZONE,9,18,11
India,Haryana,Karnal,"Sector-12, Karnal - HSPCB",07-12-2025 08:00:00,29.695300,77.002700,PM2.5,150,273,231
India,Haryana,Karnal,"Sector-12, Karnal - HSPCB",07-12-2025 08:00:00,29.695300,77.002700,PM10,108,145,133
India,Haryana,Karnal,"Sector-12, Karnal - HSPCB",07-12-2025 08:00:00,29.695300,77.002700,NH3,6,7,6
India,Haryana,Kurukshetra,"Sector-7, Kurukshetra - HSPCB",07-12-2025 08:00:00,29.966942,76.875879,PM2.5,123,246,194
India,Karnataka,Bengaluru,"Shivapura_Peenya, Bengaluru - KSPCB",07-12-2025 08:00:00,13.0246342,77.5080115,CO,48,62,55
India,Karnataka,Bengaluru,"Silk Board, Bengaluru - KSPCB",07-12-2025 08:00:00,12.917348,77.622813,OZONE,19,21,21
India,Karnataka,Chamarajanagar,"Urban, Chamarajanagar - KSPCB",07-12-2025 08:00:00,11.55358,76.55521,CO,19,120,33
India,Karnataka,Chamarajanagar,"Urban, Chamarajanagar - KSPCB",07-12-2025 08:00:00,11.55358,76.55521,OZONE,18,37,26
India,Karnataka,Chikkamagaluru,"Kalyana Nagara, Chikkamagaluru - KSPCB",07-12-2025 08:00:00,13.328028,75.797056,PM2.5,20,60,32
India,Karnataka,Bengaluru,"Hombegowda Nagar, Bengaluru - KSPCB",07-12-2025 08:00:00,12.938539,77.590100,PM2.5,50,80,64
India,Karnataka,Bengaluru,"Hombegowda Nagar, Bengaluru - KSPCB",07-12-2025 08:00:00,12.938539,77.590100,OZONE,12,54,28
India,Karnataka,Bengaluru,"Jayanagar 5th Block, Bengaluru - KSPCB",07-12-2025 08:00:00,12.920984,77.584908,PM10,86,126,106
India,Karnataka,Bengaluru,"Jayanagar 5th Block, Bengaluru - KSPCB",07-12-2025 08:00:00,12.920984,77.584908,CO,12,62,17
India,Karnataka,Bengaluru,"Jayanagar 5th Block, Bengaluru - KSPCB",07-12-2025 08:00:00,12.920984,77.584908,OZONE,13,52,41
India,Karnataka,Bengaluru,"Jigani, Bengaluru - KSPCB",07-12-2025 08:00:00,12.7816279,77.6299145,SO2,17,19,18
India,Karnataka,Bengaluru,"Peenya, Bengaluru - CPCB",07-12-2025 08:00:00,13.0270199,77.494094,NO2,21,27,24
India,Karnataka,Bengaluru,"Peenya, Bengaluru - CPCB",07-12-2025 08:00:00,13.0270199,77.494094,OZONE,25,26,25
India,Karnataka,Bengaluru,"RVCE-Mailasandra, Bengaluru - KSPCB",07-12-2025 08:00:00,12.921418,77.502466,NH3,NA,NA,NA
India,Karnataka,Bengaluru,"Sanegurava Halli, Bengaluru - KSPCB",07-12-2025 08:00:00,12.990328,77.5431385,SO2,7,7,7
India,Haryana,Mandikhera,"General Hospital, Mandikhera(Nuh) - HSPCB",07-12-2025 08:00:00,27.9002,76.9938,NH3,13,14,13
India,Haryana,Manesar,"Sector-2 IMT, Manesar - HSPCB",07-12-2025 08:00:00,28.360699,76.936090,NO2,43,53,47
India,Haryana,Manesar,"Sector-2 IMT, Manesar - HSPCB",07-12-2025 08:00:00,28.360699,76.936090,NH3,14,16,15
India,Haryana,Narnaul,"Shastri Nagar, Narnaul - HSPCB",07-12-2025 08:00:00,28.060249,76.113115,NH3,19,41,31
India,Karnataka,Bengaluru,"City Railway Station, Bengaluru - KSPCB",07-12-2025 08:00:00,12.9756843,77.5660749,NO2,36,42,39
India,Karnataka,Bengaluru,"Hebbal, Bengaluru - KSPCB",07-12-2025 08:00:00,13.029152,77.585901,NH3,NA,NA,NA
India,Karnataka,Bengaluru,"Hebbal, Bengaluru - KSPCB",07-12-2025 08:00:00,13.029152,77.585901,CO,4,42,17
India,Haryana,Palwal,"Shyam Nagar, Palwal - HSPCB",07-12-2025 08:00:00,28.1485564,77.3320667,SO2,12,13,12
India,Haryana,Palwal,"Shyam Nagar, Palwal - HSPCB",07-12-2025 08:00:00,28.1485564,77.3320667,OZONE,23,25,24
India,Karnataka,Davanagere,"Devaraj Urs Badavane, Davanagere - KSPCB",07-12-2025 08:00:00,14.475800,75.905200,NO2,17,30,26
India,Karnataka,Davanagere,"Devaraj Urs Badavane, Davanagere - KSPCB",07-12-2025 08:00:00,14.475800,75.905200,OZONE,19,21,20
India,Karnataka,Dharwad,"Kalabhavan, Dharwad - KSPCB",07-12-2025 08:00:00,15.459706,75.008381,CO,60,88,70
India,Karnataka,Hubballi,"Lingaraj Nagar, Hubballi - KSPCB",07-12-2025 08:00:00,15.3714823,75.1160168,PM10,56,77,62
India,Karnataka,Hubballi,"Lingaraj Nagar, Hubballi - KSPCB",07-12-2025 08:00:00,15.3714823,75.1160168,NH3,1,2,2
India,Karnataka,Hubballi,"Lingaraj Nagar, Hubballi - KSPCB",07-12-2025 08:00:00,15.3714823,75.1160168,OZONE,15,25,23
India,Karnataka,Kalaburagi,"Lal Bahadur Shastri Nagar, Kalaburagi - KSPCB",07-12-2025 08:00:00,17.321993,76.822628,NO2,12,12,12
India,Karnataka,Kalaburagi,"Lal Bahadur Shastri Nagar, Kalaburagi - KSPCB",07-12-2025 08:00:00,17.321993,76.822628,NH3,1,1,1
India,Karnataka,Kalaburagi,"Lal Bahadur Shastri Nagar, Kalaburagi - KSPCB",07-12-2025 08:00:00,17.321993,76.822628,SO2,48,55,54
India,Karnataka,Kalaburagi,"Mahatma Basaveswar Colony, Kalaburgi - KSPCB",07-12-2025 08:00:00,17.336318,76.847397,PM10,33,79,54
India,Karnataka,Kalaburagi,"Mahatma Basaveswar Colony, Kalaburgi - KSPCB",07-12-2025 08:00:00,17.336318,76.847397,NO2,12,18,14
India,Madhya Pradesh,Jabalpur,"Marhatal, Jabalpur - MPPCB",07-12-2025 08:00:00,23.168606,79.932247,PM10,90,450,174
India,Madhya Pradesh,Jabalpur,"Marhatal, Jabalpur - MPPCB",07-12-2025 08:00:00,23.168606,79.932247,SO2,23,49,29
India,Madhya Pradesh,Jabalpur,"Marhatal, Jabalpur - MPPCB",07-12-2025 08:00:00,23.168606,79.932247,CO,24,109,48
India,Madhya Pradesh,Jabalpur,"Marhatal, Jabalpur - MPPCB",07-12-2025 08:00:00,23.168606,79.932247,OZONE,4,172,28
India,Madhya Pradesh,Jabalpur,"Suhagi, Jabalpur - JMC",07-12-2025 08:00:00,23.218135,79.957770,NO2,27,153,64
India,Madhya Pradesh,Jabalpur,"Suhagi, Jabalpur - JMC",07-12-2025 08:00:00,23.218135,79.957770,NH3,2,5,4
India,Madhya Pradesh,Katni,"Gole Bazar, Katni - MPPCB",07-12-2025 08:00:00,23.50016,80.23284,PM2.5,40,328,157
India,Madhya Pradesh,Katni,"Gole Bazar, Katni - MPPCB",07-12-2025 08:00:00,23.50016,80.23284,NO2,16,79,48
India,Madhya Pradesh,Katni,"Gole Bazar, Katni - MPPCB",07-12-2025 08:00:00,23.50016,80.23284,NH3,5,6,6
India,Madhya Pradesh,Katni,"Gole Bazar, Katni - MPPCB",07-12-2025 08:00:00,23.50016,80.23284,OZONE,11,151,13
India,Madhya Pradesh,Maihar,"Sahilara, Maihar - KJS Cements",07-12-2025 08:00:00,24.2613009,80.7231783,PM2.5,7,51,24
India,Madhya Pradesh,Maihar,"Sahilara, Maihar - KJS Cements",07-12-2025 08:00:00,24.2613009,80.7231783,NO2,44,117,64
India,Karnataka,Koppal,"Diwator Nagar, Koppal - KSPCB",07-12-2025 08:00:00,15.347630,76.181767,PM10,64,91,73
India,Karnataka,Madikeri,"Stuart Hill, Madikeri - KSPCB",07-12-2025 08:00:00,12.415911,75.735050,PM10,26,71,40
India,Karnataka,Madikeri,"Stuart Hill, Madikeri - KSPCB",07-12-2025 08:00:00,12.415911,75.735050,SO2,7,7,7
India,Karnataka,Madikeri,"Stuart Hill, Madikeri - KSPCB",07-12-2025 08:00:00,12.415911,75.735050,OZONE,3,7,5
India,Karnataka,Mangalore,"Kadri, Mangalore - KSPCB",07-12-2025 08:00:00,12.889250,74.853000,PM2.5,34,74,53
India,Karnataka,Mangalore,"Kadri, Mangalore - KSPCB",07-12-2025 08:00:00,12.889250,74.853000,NO2,6,9,7
India,Karnataka,Mangalore,"Kadri, Mangalore - KSPCB",07-12-2025 08:00:00,12.889250,74.853000,SO2,16,16,16
India,Karnataka,Mysuru,"Hebbal 1st Stage, Mysuru - KSPCB",07-12-2025 08:00:00,12.21041,76.37376,NO2,10,28,20
India,Kerala,Kannur,"Thavakkara, Kannur - Kerala PCB",07-12-2025 08:00:00,11.875000,75.373200,NH3,2,2,2
India,Kerala,Kannur,"Thavakkara, Kannur - Kerala PCB",07-12-2025 08:00:00,11.875000,75.373200,SO2,4,5,5
India,Kerala,Kannur,"Thavakkara, Kannur - Kerala PCB",07-12-2025 08:00:00,11.875000,75.373200,OZONE,28,31,28
India,Kerala,Kollam,"Polayathode, Kollam - Kerala PCB",07-12-2025 08:00:00,8.8787,76.6073,PM2.5,123,261,202
India,Kerala,Thiruvananthapuram,"Plammoodu, Thiruvananthapuram - Kerala PCB",07-12-2025 08:00:00,8.5149093,76.9435879,CO,14,35,19
India,Madhya Pradesh,Indore,"Regional Park, Indore - IMC",07-12-2025 08:00:00,22.6780,75.8559,PM2.5,36,113,68
India,Madhya Pradesh,Indore,"Regional Park, Indore - IMC",07-12-2025 08:00:00,22.6780,75.8559,CO,26,36,31
India,Madhya Pradesh,Jabalpur,"Govindh Bhavan Colony, Jabalpur - JMC",07-12-2025 08:00:00,23.163174,79.973061,NO2,17,20,19
India,Madhya Pradesh,Jabalpur,"Govindh Bhavan Colony, Jabalpur - JMC",07-12-2025 08:00:00,23.163174,79.973061,SO2,12,16,15
India,Madhya Pradesh,Jabalpur,"Gupteshwar, Jabalpur - JMC",07-12-2025 08:00:00,23.142888,79.916147,NH3,8,14,10
India,Madhya Pradesh,Dewas,"Bhopal Chauraha, Dewas - MPPCB",07-12-2025 08:00:00,22.9682591,76.064118,PM10,82,215,120
India,Madhya Pradesh,Gwalior,"City Center, Gwalior - MPPCB",07-12-2025 08:00:00,26.203442,78.193251,PM10,74,186,114
India,Madhya Pradesh,Gwalior,"City Center, Gwalior - MPPCB",07-12-2025 08:00:00,26.203442,78.193251,SO2,8,20,16
India,Madhya Pradesh,Gwalior,"City Center, Gwalior - MPPCB",07-12-2025 08:00:00,26.203442,78.193251,CO,18,114,37
India,Madhya Pradesh,Bhopal,"Paryavaran Parisar, Bhopal - MPPCB",07-12-2025 08:00:00,23.210494,77.425409,PM10,69,379,180
India,Madhya Pradesh,Bhopal,"Paryavaran Parisar, Bhopal - MPPCB",07-12-2025 08:00:00,23.210494,77.425409,NO2,31,119,68
India,Madhya Pradesh,Bhopal,"T T Nagar, Bhopal - MPPCB",07-12-2025 08:00:00,23.233584,77.400574,PM2.5,73,311,181
India,Madhya Pradesh,Bhopal,"T T Nagar, Bhopal - MPPCB",07-12-2025 08:00:00,23.233584,77.400574,NH3,6,7,7
India,Madhya Pradesh,Gwalior,"Maharaj Bada, Gwalior - MPPCB",07-12-2025 08:00:00,26.200388,78.147714,PM2.5,68,334,159
India,Madhya Pradesh,Gwalior,"Maharaj Bada, Gwalior - MPPCB",07-12-2025 08:00:00,26.200388,78.147714,NH3,6,6,6
India,Madhya Pradesh,Gwalior,"Maharaj Bada, Gwalior - MPPCB",07-12-2025 08:00:00,26.200388,78.147714,OZONE,10,50,17
India,Karnataka,Shivamogga,"Vinoba Nagara, Shivamogga - KSPCB",07-12-2025 08:00:00,13.940000,75.555917,OZONE,25,77,51
India,Maharashtra,Amravati,"Shri Shivaji Science College, Amravati - MPCB",07-12-2025 08:00:00,20.939198,77.765701,OZONE,3,85,13
India,Maharashtra,Aurangabad,"MIDC Chilkalthana, Aurangabad - MPCB",07-12-2025 08:00:00,19.875620,75.387310,PM2.5,11,75,38
India,Maharashtra,Aurangabad,"MIDC Chilkalthana, Aurangabad - MPCB",07-12-2025 08:00:00,19.875620,75.387310,OZONE,42,316,223
India,Maharashtra,Aurangabad,"More Chowk Waluj, Aurangabad - MPCB",07-12-2025 08:00:00,19.8389439,75.244448,PM10,47,120,87
India,Maharashtra,Aurangabad,"Rachnakar Colony, Aurangabad - MPCB",07-12-2025 08:00:00,19.863756,75.321188,NO2,14,21,19
India,Maharashtra,Badlapur,"Katrap, Badlapur - MPCB",07-12-2025 08:00:00,19.16485,73.23409,PM10,78,152,116
India,Maharashtra,Badlapur,"Katrap, Badlapur - MPCB",07-12-2025 08:00:00,19.16485,73.23409,NH3,4,8,6
India,Maharashtra,Kalyan,"Pimpleshwar Mandir, Kalyan - MPCB",07-12-2025 08:00:00,19.192056,72.9585188,SO2,25,77,40
India,Maharashtra,Kalyan,"Pimpleshwar Mandir, Kalyan - MPCB",07-12-2025 08:00:00,19.192056,72.9585188,OZONE,7,74,17
India,Maharashtra,Kolhapur,"Shivaji University, Kolhapur - MPCB",07-12-2025 08:00:00,16.6870449,74.2505872,PM2.5,88,264,177
India,Maharashtra,Kolhapur,"Shivaji University, Kolhapur - MPCB",07-12-2025 08:00:00,16.6870449,74.2505872,PM10,74,151,115
India,Maharashtra,Kolhapur,"Sinchan Bhavan, Kolhapur - MPCB",07-12-2025 08:00:00,16.7143745,74.2426398,PM2.5,90,201,120
India,Maharashtra,Latur,"Sawe Wadi, Latur - MPCB",07-12-2025 08:00:00,18.39963,76.57452,NO2,15,76,28
India,Maharashtra,Latur,"Sawe Wadi, Latur - MPCB",07-12-2025 08:00:00,18.39963,76.57452,NH3,4,23,8
India,Maharashtra,Mahad,"Kamble Tarf Birwadi, Mahad - MPCB",07-12-2025 08:00:00,18.1023399,73.4783687,PM2.5,63,150,98
India,Maharashtra,Mahad,"Kamble Tarf Birwadi, Mahad - MPCB",07-12-2025 08:00:00,18.1023399,73.4783687,SO2,13,115,42
India,Maharashtra,Mahad,"Kamble Tarf Birwadi, Mahad - MPCB",07-12-2025 08:00:00,18.1023399,73.4783687,OZONE,32,42,40
India,Maharashtra,Malegaon,"Mahesh Nagar, Malegaon - MPCB",07-12-2025 08:00:00,20.555712,74.529236,PM10,86,189,128
India,Maharashtra,Malegaon,"Mahesh Nagar, Malegaon - MPCB",07-12-2025 08:00:00,20.555712,74.529236,SO2,4,33,13
India,Maharashtra,Malegaon,"Mahesh Nagar, Malegaon - MPCB",07-12-2025 08:00:00,20.555712,74.529236,CO,20,102,45
India,Maharashtra,Mumbai,"Bandra Kurla Complex, Mumbai - IITM",07-12-2025 08:00:00,19.053536,72.84643,CO,NA,NA,NA
India,Madhya Pradesh,Mandideep,"Sector-D Industrial Area, Mandideep - MPPCB",07-12-2025 08:00:00,23.108440,77.511428,PM2.5,38,445,196
India,Madhya Pradesh,Mandideep,"Sector-D Industrial Area, Mandideep - MPPCB",07-12-2025 08:00:00,23.108440,77.511428,NO2,33,155,83
India,Madhya Pradesh,Mandideep,"Sector-D Industrial Area, Mandideep - MPPCB",07-12-2025 08:00:00,23.108440,77.511428,CO,20,107,87
India,Madhya Pradesh,Pithampur,"Sector-2 Industrial Area, Pithampur - MPPCB",07-12-2025 08:00:00,22.624758,75.675238,NH3,2,3,3
India,Madhya Pradesh,Ratlam,"Shasthri Nagar, Ratlam - IPCA Lab",07-12-2025 08:00:00,23.331731,75.045981,PM10,94,162,122
India,Madhya Pradesh,Ratlam,"Shasthri Nagar, Ratlam - IPCA Lab",07-12-2025 08:00:00,23.331731,75.045981,SO2,31,34,33
India,Maharashtra,Chandrapur,"Chauhan Colony, Chandrapur - MPCB",07-12-2025 08:00:00,19.962900,79.298714,NH3,2,2,2
India,Maharashtra,Chandrapur,"Chauhan Colony, Chandrapur - MPCB",07-12-2025 08:00:00,19.962900,79.298714,CO,24,54,46
India,Maharashtra,Chandrapur,"MIDC Khutala, Chandrapur - MPCB",07-12-2025 08:00:00,19.9775302,79.2337086,PM10,113,200,131
India,Maharashtra,Chandrapur,"MIDC Khutala, Chandrapur - MPCB",07-12-2025 08:00:00,19.9775302,79.2337086,NO2,10,63,25
India,Maharashtra,Dhule,"Deopur, Dhule - MPCB",07-12-2025 08:00:00,20.918946,74.776388,CO,23,78,42
India,Maharashtra,Jalgaon,"Prabhat Colony, Jalgaon - MPCB",07-12-2025 08:00:00,21.001264,75.565602,NH3,2,3,3
India,Maharashtra,Badlapur,"Katrap, Badlapur - MPCB",07-12-2025 08:00:00,19.16485,73.23409,SO2,3,65,8
India,Maharashtra,Belapur,"CBD Belapur, Belapur - MPCB",07-12-2025 08:00:00,19.0243902,73.0406721,SO2,15,26,20
India,Maharashtra,Bhiwandi,"Gokul Nagar, Bhiwandi - MPCB",07-12-2025 08:00:00,19.309073,73.057223,NH3,4,6,6
India,Maharashtra,Boisar,"Khaira, Boisar - MPCB",07-12-2025 08:00:00,19.786089,72.757971,PM10,58,107,81
India,Madhya Pradesh,Sagar,"Deen Dayal Nagar, Sagar - MPPCB",07-12-2025 08:00:00,23.8640158,78.80289321,PM10,31,177,106
India,Madhya Pradesh,Sagar,"Deen Dayal Nagar, Sagar - MPPCB",07-12-2025 08:00:00,23.8640158,78.80289321,NO2,9,102,53
India,Madhya Pradesh,Singrauli,"Suryakiran Bhawan NCL, Singrauli - MPPCB",07-12-2025 08:00:00,24.108970,82.645580,PM10,100,196,145
India,Maharashtra,Jalgaon,"Prabhat Colony, Jalgaon - MPCB",07-12-2025 08:00:00,21.001264,75.565602,CO,22,48,23
India,Maharashtra,Jalna,"Old MIDC, Jalna - MPCB",07-12-2025 08:00:00,19.854616,75.905894,PM2.5,34,150,68
India,Maharashtra,Jalna,"Old MIDC, Jalna - MPCB",07-12-2025 08:00:00,19.854616,75.905894,SO2,10,21,13
India,Maharashtra,Ahmednagar,"Tarakpur, Ahmednagar - MPCB",07-12-2025 08:00:00,19.10122,74.73339,NH3,1,16,7
India,Maharashtra,Akola,"Ramdaspeth, Akola - MPCB",07-12-2025 08:00:00,20.719516,77.000253,SO2,11,11,11
India,Maharashtra,Mumbai,"Navy Nagar-Colaba, Mumbai - IITM",07-12-2025 08:00:00,18.897756,72.813320,PM2.5,48,181,95
India,Maharashtra,Mumbai,"Navy Nagar-Colaba, Mumbai - IITM",07-12-2025 08:00:00,18.897756,72.813320,NO2,28,157,95
India,Maharashtra,Mumbai,"Navy Nagar-Colaba, Mumbai - IITM",07-12-2025 08:00:00,18.897756,72.813320,SO2,7,42,21
India,Maharashtra,Mumbai,"Powai, Mumbai - MPCB",07-12-2025 08:00:00,19.137500,72.915056,PM2.5,42,71,56
India,Maharashtra,Mumbai,"Powai, Mumbai - MPCB",07-12-2025 08:00:00,19.137500,72.915056,CO,15,15,15
India,Maharashtra,Mumbai,"Sewri, Mumbai - BMC",07-12-2025 08:00:00,19.000084,72.856730,PM2.5,1,13,4
India,Maharashtra,Mumbai,"Sewri, Mumbai - BMC",07-12-2025 08:00:00,19.000084,72.856730,NO2,2,47,10
India,Maharashtra,Mumbai,"Shivaji Nagar, Mumbai - BMC",07-12-2025 08:00:00,19.060498,72.923356,PM10,109,181,138
India,Maharashtra,Mumbai,"Ghatkopar, Mumbai - BMC",07-12-2025 08:00:00,19.083694,72.920967,OZONE,3,165,7
India,Maharashtra,Mumbai,"Kandivali West, Mumbai - BMC",07-12-2025 08:00:00,19.215859,72.831718,PM2.5,37,87,60
India,Maharashtra,Mumbai,"Kandivali West, Mumbai - BMC",07-12-2025 08:00:00,19.215859,72.831718,NO2,13,29,18
India,Maharashtra,Mumbai,"Kandivali West, Mumbai - BMC",07-12-2025 08:00:00,19.215859,72.831718,OZONE,9,67,29
India,Maharashtra,Mumbai,"Kherwadi_Bandra East, Mumbai - MPCB",07-12-2025 08:00:00,19.0632143,72.8456324,OZONE,3,73,3
India,Maharashtra,Mumbai,"Khindipada-Bhandup West, Mumbai - IITM",07-12-2025 08:00:00,19.1653323,72.922099,SO2,4,21,12
India,Maharashtra,Nanded,"Sneh Nagar, Nanded - MPCB",07-12-2025 08:00:00,19.173852,77.296291,OZONE,20,88,37
India,Maharashtra,Nashik,"Gangapur Road, Nashik - MPCB",07-12-2025 08:00:00,20.0073285,73.7762427,PM10,74,163,119
India,Maharashtra,Nashik,"Gangapur Road, Nashik - MPCB",07-12-2025 08:00:00,20.0073285,73.7762427,NH3,3,3,3
India,Maharashtra,Nashik,"Hirawadi, Nashik - MPCB",07-12-2025 08:00:00,20.021503,73.813844,NO2,7,57,20
India,Maharashtra,Nashik,"Hirawadi, Nashik - MPCB",07-12-2025 08:00:00,20.021503,73.813844,CO,45,90,52
India,Maharashtra,Nashik,"MIDC Ambad, Nashik - MPCB",07-12-2025 08:00:00,19.950220,73.731480,NO2,16,76,31
India,Maharashtra,Mumbai,"Chakala-Andheri East, Mumbai - IITM",07-12-2025 08:00:00,19.11074,72.86084,CO,2,84,17
India,Maharashtra,Mumbai,"Chhatrapati Shivaji Intl. Airport (T2), Mumbai - MPCB",07-12-2025 08:00:00,19.10078,72.87462,PM10,NA,NA,NA
India,Maharashtra,Mumbai,"Chhatrapati Shivaji Intl. Airport (T2), Mumbai - MPCB",07-12-2025 08:00:00,19.10078,72.87462,SO2,NA,NA,NA
India,Maharashtra,Mumbai,"Deonar, Mumbai - IITM",07-12-2025 08:00:00,19.04946,72.9230,PM10,96,168,127
India,Maharashtra,Mumbai,"Ghatkopar, Mumbai - BMC",07-12-2025 08:00:00,19.083694,72.920967,NH3,2,7,5
India,Maharashtra,Mumbai,"Bandra Kurla Complex, Mumbai - MPCB",07-12-2025 08:00:00,19.065931,72.862131,SO2,2,104,13
India,Maharashtra,Mumbai,"Borivali East, Mumbai - IITM",07-12-2025 08:00:00,19.23241,72.86895,PM10,88,136,109
India,Maharashtra,Mumbai,"Borivali East, Mumbai - IITM",07-12-2025 08:00:00,19.23241,72.86895,NH3,6,8,7
India,Maharashtra,Mumbai,"Borivali East, Mumbai - MPCB",07-12-2025 08:00:00,19.2243333,72.8658113,PM10,91,116,106
India,Maharashtra,Mumbai,"Byculla, Mumbai - BMC",07-12-2025 08:00:00,18.9767,72.8380,PM10,121,144,132
India,Maharashtra,Nashik,"Pandav Nagari, Nashik - MPCB",07-12-2025 08:00:00,19.9591346,73.7788008,NO2,19,25,22
India,Maharashtra,Nashik,"Pandav Nagari, Nashik - MPCB",07-12-2025 08:00:00,19.9591346,73.7788008,SO2,1,8,5
India,Maharashtra,Nashik,"Pandav Nagari, Nashik - MPCB",07-12-2025 08:00:00,19.9591346,73.7788008,OZONE,18,73,38
India,Maharashtra,Navi Mumbai,"Mahape, Navi Mumbai - MPCB",07-12-2025 08:00:00,19.1135051,73.008978,NO2,34,36,35
India,Maharashtra,Navi Mumbai,"Nerul, Navi Mumbai - MPCB",07-12-2025 08:00:00,19.008751,73.016620,NH3,4,4,4
India,Maharashtra,Mumbai,"Sion, Mumbai - MPCB",07-12-2025 08:00:00,19.047000,72.874600,NO2,41,55,49
India,Maharashtra,Mumbai,"Sion, Mumbai - MPCB",07-12-2025 08:00:00,19.047000,72.874600,NH3,5,7,6
India,Maharashtra,Mumbai,"Sion, Mumbai - MPCB",07-12-2025 08:00:00,19.047000,72.874600,SO2,17,17,17
India,Maharashtra,Mumbai,"Vile Parle West, Mumbai - MPCB",07-12-2025 08:00:00,19.10861,72.83622,NO2,11,30,22
India,Maharashtra,Mumbai,"Worli, Mumbai - MPCB",07-12-2025 08:00:00,18.9936162,72.8128113,PM2.5,76,105,88
India,Maharashtra,Mumbai,"Kurla, Mumbai - MPCB",07-12-2025 08:00:00,19.0863,72.8888,SO2,36,37,37
India,Maharashtra,Mumbai,"Mindspace-Malad West, Mumbai - MPCB",07-12-2025 08:00:00,19.1878657,72.8304069,PM2.5,44,96,62
India,Maharashtra,Mumbai,"Mindspace-Malad West, Mumbai - MPCB",07-12-2025 08:00:00,19.1878657,72.8304069,PM10,66,128,89
India,Maharashtra,Mumbai,"Mindspace-Malad West, Mumbai - MPCB",07-12-2025 08:00:00,19.1878657,72.8304069,CO,37,98,60
India,Maharashtra,Nagpur,"Mahal, Nagpur - MPCB",07-12-2025 08:00:00,21.14472,79.107595,OZONE,10,157,36
India,Maharashtra,Nagpur,"Opp GPO Civil Lines, Nagpur - MPCB",07-12-2025 08:00:00,21.152875,79.0517531,NH3,1,15,5
India,Odisha,Angul,"Hakimapada, Angul - OSPCB",07-12-2025 08:00:00,20.832874,85.104082,NO2,17,87,31
India,Odisha,Balasore,"Kalidaspur, Balasore - OSPCB",07-12-2025 08:00:00,21.51161,86.89088,PM2.5,98,402,230
India,Odisha,Balasore,"Kalidaspur, Balasore - OSPCB",07-12-2025 08:00:00,21.51161,86.89088,PM10,103,404,160
India,Odisha,Barbil,"Forest Office, Barbil - OSPCB",07-12-2025 08:00:00,22.1166054,85.3945546,PM10,67,256,120
India,Odisha,Barbil,"Forest Office, Barbil - OSPCB",07-12-2025 08:00:00,22.1166054,85.3945546,NH3,1,2,2
India,Odisha,Barbil,"Forest Office, Barbil - OSPCB",07-12-2025 08:00:00,22.1166054,85.3945546,CO,16,80,57
India,Odisha,Barbil,"Forest Office, Barbil - OSPCB",07-12-2025 08:00:00,22.1166054,85.3945546,OZONE,2,58,5
India,Odisha,Bhubaneswar,"Lingraj Mandir, Bhubaneswar - OSPCB",07-12-2025 08:00:00,20.240790,85.836784,PM2.5,87,352,220
India,Odisha,Bhubaneswar,"Lingraj Mandir, Bhubaneswar - OSPCB",07-12-2025 08:00:00,20.240790,85.836784,NO2,20,153,78
India,Maharashtra,Pune,"Bhumkar Nagar, Pune - IITM",07-12-2025 08:00:00,18.605770,73.749976,PM10,121,415,185
India,Maharashtra,Pune,"Hadapsar, Pune - IITM",07-12-2025 08:00:00,18.501793,73.927532,PM2.5,82,366,232
India,Maharashtra,Pune,"Hadapsar, Pune - IITM",07-12-2025 08:00:00,18.501793,73.927532,CO,56,74,71
India,Maharashtra,Pune,"Hadapsar, Pune - IITM",07-12-2025 08:00:00,18.501793,73.927532,OZONE,2,92,3
India,Maharashtra,Pune,"Katraj Dairy, Pune - MPCB",07-12-2025 08:00:00,18.454450,73.854155,NO2,16,87,52
India,Maharashtra,Pune,"Katraj Dairy, Pune - MPCB",07-12-2025 08:00:00,18.454450,73.854155,CO,3,106,54
India,Maharashtra,Pune,"Panchawati_Pashan, Pune - IITM",07-12-2025 08:00:00,18.536457,73.805454,PM2.5,80,215,131
India,Maharashtra,Pune,"Revenue Colony-Shivajinagar, Pune - IITM",07-12-2025 08:00:00,18.530085,73.849598,PM2.5,117,349,263
India,Maharashtra,Pimpri-Chinchwad,"Park Street Wakad, Pimpri Chinchwad - MPCB",07-12-2025 08:00:00,18.59051,73.77946,PM2.5,47,271,150
India,Maharashtra,Pimpri-Chinchwad,"Park Street Wakad, Pimpri Chinchwad - MPCB",07-12-2025 08:00:00,18.59051,73.77946,PM10,91,189,139
India,Maharashtra,Pimpri-Chinchwad,"Park Street Wakad, Pimpri Chinchwad - MPCB",07-12-2025 08:00:00,18.59051,73.77946,NO2,49,111,71
India,Maharashtra,Pimpri-Chinchwad,"Savta Mali Nagar, Pimpri-Chinchwad - IITM",07-12-2025 08:00:00,18.614767,73.799516,PM2.5,96,310,194
India,Maharashtra,Pimpri-Chinchwad,"Savta Mali Nagar, Pimpri-Chinchwad - IITM",07-12-2025 08:00:00,18.614767,73.799516,PM10,107,189,141
India,Maharashtra,Pimpri-Chinchwad,"Thergaon, Pimpri Chinchwad - MPCB",07-12-2025 08:00:00,18.616318,73.765797,NO2,23,65,36
India,Maharashtra,Pimpri-Chinchwad,"Thergaon, Pimpri Chinchwad - MPCB",07-12-2025 08:00:00,18.616318,73.765797,CO,36,125,56
India,Odisha,Bileipada,"Tata Township, Bileipada - OSPCB",07-12-2025 08:00:00,22.06156703,85.47409613,PM10,118,190,146
India,Odisha,Bileipada,"Tata Township, Bileipada - OSPCB",07-12-2025 08:00:00,22.06156703,85.47409613,CO,26,44,35
India,Odisha,Brajrajnagar,"GM Office, Brajrajnagar - OSPCB",07-12-2025 08:00:00,21.8004996,83.8396977,NO2,13,13,13
India,Odisha,Byasanagar,"Ferro Chrome Colony, Byasanagar - OSPCB",07-12-2025 08:00:00,20.94185,86.11510,PM2.5,73,326,147
India,Odisha,Byasanagar,"Ferro Chrome Colony, Byasanagar - OSPCB",07-12-2025 08:00:00,20.94185,86.11510,SO2,13,38,22
India,Maharashtra,Navi Mumbai,"Sanpada, Navi Mumbai - MPCB",07-12-2025 08:00:00,19.0575752,73.0151367,NO2,19,29,23
India,Maharashtra,Navi Mumbai,"Tondare-Taloja, Navi Mumbai - MPCB",07-12-2025 08:00:00,19.0630,73.1209,NH3,6,13,9
India,Maharashtra,Navi Mumbai,"Tondare-Taloja, Navi Mumbai - MPCB",07-12-2025 08:00:00,19.0630,73.1209,SO2,2,3,3
India,Maharashtra,Navi Mumbai,"Tondare-Taloja, Navi Mumbai - MPCB",07-12-2025 08:00:00,19.0630,73.1209,OZONE,18,28,21
India,Maharashtra,Parbhani,"Masoom Colony, Parbhani - MPCB",07-12-2025 08:00:00,19.265594,76.761463,PM10,NA,NA,NA
India,Maharashtra,Solapur,"Dnyaneshwar Nagar, Solapur - MPCB",07-12-2025 08:00:00,17.6336264,75.9132495,SO2,1,15,5
India,Maharashtra,Solapur,"Ratandeep Housing Society, Solapur - MPCB",07-12-2025 08:00:00,17.65439,75.90649,SO2,7,35,19
India,Maharashtra,Thane,"Kasarvadavali, Thane - MPCB",07-12-2025 08:00:00,19.26777,72.97182,SO2,5,20,11
India,Maharashtra,Thane,"Upvan Fort, Thane - MPCB",07-12-2025 08:00:00,19.222279,72.957979,NO2,21,93,36
India,Odisha,Cuttack,"CDA Area, Cuttack - OSPCB",07-12-2025 08:00:00,20.48891     ,85.84768     ,OZONE,3,170,12
India,Odisha,Rairangpur,"Divisional Forest Office, Rairangpur - OSPCB",07-12-2025 08:00:00,22.265816,86.174829,CO,29,69,44
India,Odisha,Rourkela,"Fertilizer Township, Rourkela - OSPCB",07-12-2025 08:00:00,22.18972222,84.86277778,SO2,9,10,10
India,Odisha,Rourkela,"Fertilizer Township, Rourkela - OSPCB",07-12-2025 08:00:00,22.18972222,84.86277778,CO,14,26,20
India,Maharashtra,Pune,"Revenue Colony-Shivajinagar, Pune - IITM",07-12-2025 08:00:00,18.530085,73.849598,OZONE,6,81,13
India,Maharashtra,Pune,"Savitribai Phule Pune University, Pune - MPCB",07-12-2025 08:00:00,18.547056,73.826908,NO2,1,31,13
India,Maharashtra,Sangli,"Vijay Nagar, Sangli - MPCB",07-12-2025 08:00:00, 16.5038,74.3623,NO2,28,105,49
India,Maharashtra,Sangli,"Vijay Nagar, Sangli - MPCB",07-12-2025 08:00:00, 16.5038,74.3623,CO,33,56,39
India,Maharashtra,Virar,"Bolinj, Virar - MPCB",07-12-2025 08:00:00,19.4458210,72.7988231,NH3,9,9,9
India,Meghalaya,Shillong,"JN Stadium, Shillong - Meghalaya PCB",07-12-2025 08:00:00,25.5803419,91.8942571,NH3,9,15,12
India,Nagaland,Kohima,"PWD Junction, Kohima - NPCB",07-12-2025 08:00:00,25.6635413,94.0989878,NO2,3,4,3
India,Nagaland,Kohima,"PWD Junction, Kohima - NPCB",07-12-2025 08:00:00,25.6635413,94.0989878,NH3,1,1,1
India,Rajasthan,Jaipur,"Police Commissionerate, Jaipur - RSPCB",07-12-2025 08:00:00,26.9164092,75.7994901,CO,50,76,54
India,Rajasthan,Jaipur,"Police Commissionerate, Jaipur - RSPCB",07-12-2025 08:00:00,26.9164092,75.7994901,OZONE,NA,NA,NA
India,Rajasthan,Jaipur,"RIICO Sitapura, Jaipur - RSPCB",07-12-2025 08:00:00,26.786682,75.827928,NH3,4,8,6
India,Rajasthan,Jaipur,"RIICO Sitapura, Jaipur - RSPCB",07-12-2025 08:00:00,26.786682,75.827928,SO2,3,6,4
India,Rajasthan,Jaipur,"RIICO Sitapura, Jaipur - RSPCB",07-12-2025 08:00:00,26.786682,75.827928,CO,19,132,91
India,Rajasthan,Jaipur,"Sector-2 Murlipura, Jaipur - RSPCB",07-12-2025 08:00:00,26.960669,75.771817,CO,24,135,43
India,Rajasthan,Jaipur,"Shastri Nagar, Jaipur - RSPCB",07-12-2025 08:00:00,26.9502929,75.730943,NO2,57,131,93
India,Rajasthan,Jaipur,"Shastri Nagar, Jaipur - RSPCB",07-12-2025 08:00:00,26.9502929,75.730943,SO2,2,85,35
India,Rajasthan,Jaisalmer,"Sadar Bazar, Jaisalmer - RSPCB",07-12-2025 08:00:00,26.912329,70.909168,PM2.5,50,260,89
India,Odisha,Rourkela,"Raghunathpali, Rourkela - OSPCB",07-12-2025 08:00:00,22.220833,84.809444,PM2.5,74,301,157
India,Odisha,Rourkela,"Sector-2, Rourkela - OSPCB",07-12-2025 08:00:00,22.24500000,84.88111111,PM2.5,65,108,80
India,Odisha,Rourkela,"Sector-2, Rourkela - OSPCB",07-12-2025 08:00:00,22.24500000,84.88111111,PM10,62,121,77
India,Odisha,Rourkela,"Sector-2, Rourkela - OSPCB",07-12-2025 08:00:00,22.24500000,84.88111111,CO,32,74,36
India,Odisha,Suakati,"OMC Colony, Suakati - OSPCB",07-12-2025 08:00:00,21.606865,85.510538,SO2,4,10,5
India,Odisha,Talcher,"Talcher Coalfields,Talcher - OSPCB",07-12-2025 08:00:00,20.9360711,85.1707021,PM2.5,54,356,205
India,Odisha,Talcher,"Talcher Coalfields,Talcher - OSPCB",07-12-2025 08:00:00,20.9360711,85.1707021,OZONE,8,22,12
India,Odisha,Tensa,"Barsua Iron Ore Mines, Tensa - OSPCB",07-12-2025 08:00:00,21.869985,85.167016,SO2,17,42,23
India,Rajasthan,Ajmer,"Civil Lines,  Ajmer - RSPCB",07-12-2025 08:00:00,26.470859,74.646594,NO2,7,45,18
India,Rajasthan,Ajmer,"Civil Lines,  Ajmer - RSPCB",07-12-2025 08:00:00,26.470859,74.646594,SO2,16,22,19
India,Rajasthan,Alwar,"Moti Doongri, Alwar - RSPCB",07-12-2025 08:00:00,27.554793,76.611536,NH3,11,18,14
India,Rajasthan,Alwar,"Moti Doongri, Alwar - RSPCB",07-12-2025 08:00:00,27.554793,76.611536,SO2,18,54,35
India,Rajasthan,Alwar,"Moti Doongri, Alwar - RSPCB",07-12-2025 08:00:00,27.554793,76.611536,CO,3,106,60
India,Rajasthan,Banswara,"Rati Talai, Banswara - RSPCB",07-12-2025 08:00:00,23.555190,74.440010,PM2.5,50,106,74
India,Rajasthan,Banswara,"Rati Talai, Banswara - RSPCB",07-12-2025 08:00:00,23.555190,74.440010,OZONE,25,98,39
India,Rajasthan,Baran,"Bamboliya, Baran - RSPCB",07-12-2025 08:00:00,25.106006,76.469948,NO2,18,81,47
India,Rajasthan,Baran,"Bamboliya, Baran - RSPCB",07-12-2025 08:00:00,25.106006,76.469948,NH3,7,12,9
India,Rajasthan,Bhiwadi,"RIICO Ind. Area III, Bhiwadi - RSPCB",07-12-2025 08:00:00,28.194909,76.862296,SO2,5,12,9
India,Rajasthan,Bhiwadi,"Vasundhara Nagar_UIT, Bhiwadi - RSPCB",07-12-2025 08:00:00,28.207266,76.829265,PM10,109,362,175
India,Rajasthan,Bhiwadi,"Vasundhara Nagar_UIT, Bhiwadi - RSPCB",07-12-2025 08:00:00,28.207266,76.829265,SO2,3,34,12
India,Rajasthan,Bikaner,"MM Ground, Bikaner - RSPCB",07-12-2025 08:00:00,28.018792,73.292658,PM2.5,130,391,280
India,Rajasthan,Bikaner,"MM Ground, Bikaner - RSPCB",07-12-2025 08:00:00,28.018792,73.292658,NO2,46,148,96
India,Rajasthan,Bundi,"New Colony, Bundi - RSPCB",07-12-2025 08:00:00,25.435774,75.644272,SO2,3,8,5
India,Rajasthan,Bundi,"New Colony, Bundi - RSPCB",07-12-2025 08:00:00,25.435774,75.644272,CO,23,60,28
India,Puducherry,Puducherry,"Jawahar Nagar, Puducherry - PPCC",07-12-2025 08:00:00,11.9309,79.8027,SO2,5,9,8
India,Punjab,Amritsar,"Golden Temple, Amritsar - PPCB",07-12-2025 08:00:00,31.620000,74.876512,NH3,5,6,6
India,Punjab,Amritsar,"Golden Temple, Amritsar - PPCB",07-12-2025 08:00:00,31.620000,74.876512,OZONE,32,44,38
India,Punjab,Bathinda,"Hardev Nagar, Bathinda - PPCB",07-12-2025 08:00:00,30.233011,74.907758,PM10,9,63,44
India,Punjab,Jalandhar,"Civil Line, Jalandhar - PPCB",07-12-2025 08:00:00,31.321907,75.578914,NH3,4,4,4
India,Rajasthan,Baran,"Bamboliya, Baran - RSPCB",07-12-2025 08:00:00,25.106006,76.469948,CO,14,64,33
India,Rajasthan,Barmer,"Railway Colony, Barmer - RSPCB",07-12-2025 08:00:00,25.747299,71.393989,NO2,10,103,32
India,Rajasthan,Bhilwara,"Pratap Nagar, Bhilwara - RSPCB",07-12-2025 08:00:00,25.339605,74.618883,NO2,18,90,50
India,Rajasthan,Bhiwadi,"RIICO Ind. Area III, Bhiwadi - RSPCB",07-12-2025 08:00:00,28.194909,76.862296,NO2,16,49,31
India,Rajasthan,Bhiwadi,"RIICO Ind. Area III, Bhiwadi - RSPCB",07-12-2025 08:00:00,28.194909,76.862296,NH3,4,15,9
India,Rajasthan,Jaisalmer,"Sadar Bazar, Jaisalmer - RSPCB",07-12-2025 08:00:00,26.912329,70.909168,CO,21,60,28
India,Rajasthan,Jalore,"Mudtra Sili, Jalore - RSPCB",07-12-2025 08:00:00,25.344694,72.626208,NH3,1,5,3
India,Rajasthan,Jhalawar,"Rajlaxmi Nagar, Jhalawar - RSPCB",07-12-2025 08:00:00,24.588397,76.172782,CO,30,110,64
India,Rajasthan,Jhunjhunu,"Indra Nagar, Jhunjhunu - RSPCB",07-12-2025 08:00:00,28.108988,75.386577,NH3,9,16,12
India,Rajasthan,Jhunjhunu,"Indra Nagar, Jhunjhunu - RSPCB",07-12-2025 08:00:00,28.108988,75.386577,SO2,3,25,8
India,Punjab,Khanna,"Kalal Majra, Khanna - PPCB",07-12-2025 08:00:00,30.736056 ,76.209694,SO2,18,38,26
India,Punjab,Mandi Gobindgarh,"RIMT University, Mandi Gobindgarh - PPCB",07-12-2025 08:00:00,30.649961,76.331442,PM2.5,144,356,285
India,Punjab,Mandi Gobindgarh,"RIMT University, Mandi Gobindgarh - PPCB",07-12-2025 08:00:00,30.649961,76.331442,NH3,6,6,6
India,Punjab,Patiala,"Model Town, Patiala - PPCB",07-12-2025 08:00:00,30.349388,76.366642,OZONE,10,43,11
India,Rajasthan,Dungarpur,"Bhoiwada, Dungarpur - RSPCB",07-12-2025 08:00:00,23.837789,73.714926,NO2,12,57,26
India,Rajasthan,Dungarpur,"Bhoiwada, Dungarpur - RSPCB",07-12-2025 08:00:00,23.837789,73.714926,NH3,4,7,5
India,Rajasthan,Dungarpur,"Bhoiwada, Dungarpur - RSPCB",07-12-2025 08:00:00,23.837789,73.714926,CO,9,71,25
India,Rajasthan,Jaipur,"Adarsh Nagar, Jaipur - RSPCB",07-12-2025 08:00:00,26.902909,75.836858,PM10,98,207,134
India,Rajasthan,Jaipur,"Adarsh Nagar, Jaipur - RSPCB",07-12-2025 08:00:00,26.902909,75.836858,CO,42,118,69
India,Rajasthan,Tonk,"Shastri Nagar, Tonk - RSPCB",07-12-2025 08:00:00,26.159933,75.780517,PM10,89,500,203
India,Rajasthan,Tonk,"Shastri Nagar, Tonk - RSPCB",07-12-2025 08:00:00,26.159933,75.780517,NO2,17,107,46
India,Rajasthan,Tonk,"Shastri Nagar, Tonk - RSPCB",07-12-2025 08:00:00,26.159933,75.780517,NH3,7,14,11
India,Rajasthan,Tonk,"Shastri Nagar, Tonk - RSPCB",07-12-2025 08:00:00,26.159933,75.780517,CO,16,139,35
India,Rajasthan,Udaipur,"Ashok Nagar, Udaipur - RSPCB",07-12-2025 08:00:00,24.5886166,73.6321397,NO2,8,77,44
India,Rajasthan,Udaipur,"Ashok Nagar, Udaipur - RSPCB",07-12-2025 08:00:00,24.5886166,73.6321397,CO,6,107,24
India,Sikkim,Gangtok,"Zero Point GICI, Gangtok - SSPCB",07-12-2025 08:00:00,27.338530,88.614099,PM2.5,6,58,30
India,Sikkim,Gangtok,"Zero Point GICI, Gangtok - SSPCB",07-12-2025 08:00:00,27.338530,88.614099,CO,2,17,5
India,TamilNadu,Ariyalur,"Keelapalur, Ariyalur - TNPCB",07-12-2025 08:00:00,11.06825,79.07033,NH3,1,1,1
India,TamilNadu,Chennai,"Arumbakkam, Chennai - TNPCB",07-12-2025 08:00:00,13.0664,80.2112 ,PM2.5,NA,NA,NA
India,Rajasthan,Jhunjhunu,"Indra Nagar, Jhunjhunu - RSPCB",07-12-2025 08:00:00,28.108988,75.386577,OZONE,7,132,21
India,Rajasthan,Jodhpur,"Collectorate, Jodhpur - RSPCB",07-12-2025 08:00:00,26.268249,73.0193853,PM2.5,31,350,98
India,Rajasthan,Jodhpur,"Collectorate, Jodhpur - RSPCB",07-12-2025 08:00:00,26.268249,73.0193853,PM10,68,177,125
India,Rajasthan,Jodhpur,"Collectorate, Jodhpur - RSPCB",07-12-2025 08:00:00,26.268249,73.0193853,NO2,5,11,7
India,Rajasthan,Jodhpur,"Collectorate, Jodhpur - RSPCB",07-12-2025 08:00:00,26.268249,73.0193853,NH3,5,14,9
India,Rajasthan,Jodhpur,"Jhalamand, Jodhpur - RSPCB",07-12-2025 08:00:00,26.215415,73.070156,NO2,17,100,41
India,Rajasthan,Jodhpur,"Jhalamand, Jodhpur - RSPCB",07-12-2025 08:00:00,26.215415,73.070156,NH3,2,10,5
India,Rajasthan,Jodhpur,"Mandor, Jodhpur - RSPCB",07-12-2025 08:00:00,26.358805,73.047444,PM2.5,35,157,83
India,Rajasthan,Jodhpur,"Mandor, Jodhpur - RSPCB",07-12-2025 08:00:00,26.358805,73.047444,PM10,53,140,98
India,Rajasthan,Jodhpur,"Mandor, Jodhpur - RSPCB",07-12-2025 08:00:00,26.358805,73.047444,NO2,9,72,26
India,Rajasthan,Jodhpur,"Mandor, Jodhpur - RSPCB",07-12-2025 08:00:00,26.358805,73.047444,NH3,2,6,4
India,TamilNadu,Chennai,"Manali Village, Chennai - TNPCB",07-12-2025 08:00:00,13.1662,80.2584,SO2,11,15,13
India,TamilNadu,Chennai,"Manali, Chennai - CPCB",07-12-2025 08:00:00,13.164544,80.26285,PM2.5,18,50,33
India,TamilNadu,Chennai,"Manali, Chennai - CPCB",07-12-2025 08:00:00,13.164544,80.26285,NH3,7,8,7
India,TamilNadu,Chennai,"Perungudi, Chennai - TNPCB",07-12-2025 08:00:00,12.9533,80.2357,PM2.5,70,235,124
India,TamilNadu,Chennai,"Perungudi, Chennai - TNPCB",07-12-2025 08:00:00,12.9533,80.2357,SO2,2,7,4
India,TamilNadu,Chennai,"Perungudi, Chennai - TNPCB",07-12-2025 08:00:00,12.9533,80.2357,OZONE,4,65,9
India,TamilNadu,Chennai,"Velachery Res. Area, Chennai - CPCB",07-12-2025 08:00:00,13.0052189,80.2398125,SO2,15,17,16
India,TamilNadu,Chennai,"Velachery Res. Area, Chennai - CPCB",07-12-2025 08:00:00,13.0052189,80.2398125,CO,38,50,39
India,TamilNadu,Coimbatore,"PSG College of Arts and Science, Coimbatore - TNPCB",07-12-2025 08:00:00,11.0328,77.0349,PM2.5,147,304,223
India,TamilNadu,Coimbatore,"PSG College of Arts and Science, Coimbatore - TNPCB",07-12-2025 08:00:00,11.0328,77.0349,NO2,10,11,10
India,TamilNadu,Coimbatore,"SIDCO Kurichi, Coimbatore - TNPCB",07-12-2025 08:00:00,10.942451,76.978996,PM10,50,152,108
India,TamilNadu,Coimbatore,"SIDCO Kurichi, Coimbatore - TNPCB",07-12-2025 08:00:00,10.942451,76.978996,OZONE,11,37,14
India,TamilNadu,Cuddalore,"Kudikadu, Cuddalore - TNPCB",07-12-2025 08:00:00,11.6829898,79.7532099,NH3,5,5,5
India,TamilNadu,Dindigul,"Mendonsa Colony, Dindigul - TNPCB",07-12-2025 08:00:00,10.358535,77.984321,PM10,59,83,71
India,TamilNadu,Gummidipoondi,"Anthoni Pillai Nagar, Gummidipoondi - TNPCB",07-12-2025 08:00:00,13.4127,80.1081,SO2,22,50,32
India,Rajasthan,Sawai Madhopur,"Sahu Nagar, Sawai Madhopur - RSPCB",07-12-2025 08:00:00,26.031443,76.359327,PM10,79,425,167
India,Rajasthan,Sawai Madhopur,"Sahu Nagar, Sawai Madhopur - RSPCB",07-12-2025 08:00:00,26.031443,76.359327,CO,23,130,47
India,Rajasthan,Sikar,"Radhakishan Pura, Sikar - RSPCB",07-12-2025 08:00:00,27.608912,75.153302,PM10,114,500,282
India,Rajasthan,Sikar,"Radhakishan Pura, Sikar - RSPCB",07-12-2025 08:00:00,27.608912,75.153302,OZONE,7,127,11
India,Rajasthan,Sri Ganganagar,"Old City, Sri Ganganagar - RSPCB",07-12-2025 08:00:00,29.931624,73.864511,NO2,41,133,61
India,Rajasthan,Sri Ganganagar,"Old City, Sri Ganganagar - RSPCB",07-12-2025 08:00:00,29.931624,73.864511,NH3,2,15,4
India,Rajasthan,Sri Ganganagar,"Old City, Sri Ganganagar - RSPCB",07-12-2025 08:00:00,29.931624,73.864511,SO2,1,8,4
India,TamilNadu,Ramanathapuram,"Chalai Bazaar, Ramanathapuram - TNPCB",07-12-2025 08:00:00,9.36399,78.831977,OZONE,4,6,5
India,TamilNadu,Thoothukudi,"Meelavittan, Thoothukudi - TNPCB",07-12-2025 08:00:00,8.816428 ,78.099039,NO2,8,12,11
India,TamilNadu,Thoothukudi,"Meelavittan, Thoothukudi - TNPCB",07-12-2025 08:00:00,8.816428 ,78.099039,CO,38,60,47
India,TamilNadu,Tirunelveli,"Municipal Corporation Office, Tirunelveli - TNPCB",07-12-2025 08:00:00,8.728442,77.6962,NH3,NA,NA,NA
India,TamilNadu,Madurai,"Uchapatti, Madurai - TNPCB",07-12-2025 08:00:00,9.865935,78.022669,NH3,NA,NA,NA
India,TamilNadu,Madurai,"Uchapatti, Madurai - TNPCB",07-12-2025 08:00:00,9.865935,78.022669,OZONE,1,1,1
India,TamilNadu,Nagapattinam,"Velippalayam, Nagapattinam - TNPCB",07-12-2025 08:00:00,10.798548,79.838212,NO2,6,7,6
India,TamilNadu,Nagapattinam,"Velippalayam, Nagapattinam - TNPCB",07-12-2025 08:00:00,10.798548,79.838212,SO2,1,11,8
India,TamilNadu,Ooty,"Bombay Castel, Ooty - TNPCB",07-12-2025 08:00:00,11.4068288,76.7138973,PM10,NA,NA,NA
India,Rajasthan,Karauli,"Satyawati Vihar, Karauli - RSPCB",07-12-2025 08:00:00,26.506177,77.025989,NH3,4,9,5
India,Rajasthan,Karauli,"Satyawati Vihar, Karauli - RSPCB",07-12-2025 08:00:00,26.506177,77.025989,SO2,6,12,8
India,Rajasthan,Karauli,"Satyawati Vihar, Karauli - RSPCB",07-12-2025 08:00:00,26.506177,77.025989,CO,21,77,50
India,Rajasthan,Kota,"Dhanmandi, Kota - RSPCB",07-12-2025 08:00:00,25.164090,75.858137,PM2.5,47,392,183
India,Rajasthan,Kota,"Dhanmandi, Kota - RSPCB",07-12-2025 08:00:00,25.164090,75.858137,NH3,5,9,6
India,Rajasthan,Nagaur,"Karni Colony, Nagaur - RSPCB",07-12-2025 08:00:00,27.213494,73.734444,NO2,15,112,42
India,Uttar_Pradesh,Ghaziabad,"Loni, Ghaziabad - UPPCB",07-12-2025 08:00:00,28.757294,77.278792,CO,48,108,65
India,Uttar_Pradesh,Ghaziabad,"Loni, Ghaziabad - UPPCB",07-12-2025 08:00:00,28.757294,77.278792,OZONE,9,78,24
India,Uttar_Pradesh,Ghaziabad,"Sanjay Nagar, Ghaziabad - UPPCB",07-12-2025 08:00:00,28.685382,77.453839,PM10,107,307,176
India,Uttar_Pradesh,Ghaziabad,"Sanjay Nagar, Ghaziabad - UPPCB",07-12-2025 08:00:00,28.685382,77.453839,SO2,14,24,18
India,Uttar_Pradesh,Ghaziabad,"Sanjay Nagar, Ghaziabad - UPPCB",07-12-2025 08:00:00,28.685382,77.453839,OZONE,12,50,22
India,Uttar_Pradesh,Ghaziabad,"Vasundhara, Ghaziabad - UPPCB",07-12-2025 08:00:00,28.6603346,77.3572563,PM10,179,360,248
India,Uttar_Pradesh,Ghaziabad,"Vasundhara, Ghaziabad - UPPCB",07-12-2025 08:00:00,28.6603346,77.3572563,SO2,1,30,17
India,Uttar_Pradesh,Gorakhpur,"Madan Mohan Malaviya University of Technology, Gorakhpur - UPPCB",07-12-2025 08:00:00,26.730136,83.433859,NH3,1,1,1
India,Uttar_Pradesh,Bulandshahr,"Yamunapuram, Bulandshahr - UPPCB",07-12-2025 08:00:00,28.406963,77.849831,OZONE,2,159,2
India,Uttar_Pradesh,Firozabad,"Nagla Bhau, Firozabad - UPPCB",07-12-2025 08:00:00,27.168897,78.376960,PM2.5,37,96,64
India,Uttar_Pradesh,Firozabad,"Nagla Bhau, Firozabad - UPPCB",07-12-2025 08:00:00,27.168897,78.376960,PM10,53,124,89
India,Uttar_Pradesh,Firozabad,"Nagla Bhau, Firozabad - UPPCB",07-12-2025 08:00:00,27.168897,78.376960,NH3,2,2,2
India,Uttar_Pradesh,Firozabad,"Vibhab Nagar, Firozabad - UPPCB",07-12-2025 08:00:00,27.1594,78.3953,PM2.5,75,235,136
India,Uttar_Pradesh,Firozabad,"Vibhab Nagar, Firozabad - UPPCB",07-12-2025 08:00:00,27.1594,78.3953,SO2,31,47,37
India,Uttar_Pradesh,Firozabad,"Vibhab Nagar, Firozabad - UPPCB",07-12-2025 08:00:00,27.1594,78.3953,CO,10,20,14
India,Uttar_Pradesh,Ghaziabad,"Indirapuram, Ghaziabad - UPPCB",07-12-2025 08:00:00,28.646233,77.358075,SO2,21,50,38
India,Telangana,Hyderabad,"Sanathnagar, Hyderabad - TSPCB",07-12-2025 08:00:00,17.4559458,78.4332152,SO2,9,16,13
India,Telangana,Hyderabad,"Somajiguda, Hyderabad - TSPCB",07-12-2025 08:00:00,17.417094,78.457437,PM2.5,43,92,69
India,Telangana,Hyderabad,"Zoo Park, Hyderabad - TSPCB",07-12-2025 08:00:00,17.349694,78.451437,PM10,106,157,132
India,Telangana,Hyderabad,"Zoo Park, Hyderabad - TSPCB",07-12-2025 08:00:00,17.349694,78.451437,SO2,3,4,3
India,Telangana,Hyderabad,"Zoo Park, Hyderabad - TSPCB",07-12-2025 08:00:00,17.349694,78.451437,OZONE,21,24,22
India,Tripura,Agartala,"Bardowali, Agartala - Tripura SPCB",07-12-2025 08:00:00,23.8175497,91.2726974,NO2,NA,NA,NA
India,Uttar_Pradesh,Agra,"Shastripuram, Agra - UPPCB",07-12-2025 08:00:00,27.19862,77.92066,NH3,3,3,3
India,Uttar_Pradesh,Agra,"Shastripuram, Agra - UPPCB",07-12-2025 08:00:00,27.19862,77.92066,OZONE,6,7,6
India,Uttar_Pradesh,Bareilly,"Civil Lines, Bareilly - UPPCB",07-12-2025 08:00:00,28.359581,79.414455,PM10,56,136,86
India,Uttar_Pradesh,Bareilly,"Civil Lines, Bareilly - UPPCB",07-12-2025 08:00:00,28.359581,79.414455,SO2,1,17,8
India,Uttar_Pradesh,Bareilly,"Rajendra Nagar, Bareilly - UPPCB",07-12-2025 08:00:00,28.38910936,79.42963708,PM10,114,256,148
India,Uttar_Pradesh,Bareilly,"Rajendra Nagar, Bareilly - UPPCB",07-12-2025 08:00:00,28.38910936,79.42963708,NO2,9,10,9
India,Uttar_Pradesh,Bareilly,"Rajendra Nagar, Bareilly - UPPCB",07-12-2025 08:00:00,28.38910936,79.42963708,CO,12,86,38
India,TamilNadu,Vellore,"Vasanthapuram, Vellore - TNPCB",07-12-2025 08:00:00,12.909494,79.131861,CO,8,8,8
India,TamilNadu,Vellore,"Vasanthapuram, Vellore - TNPCB",07-12-2025 08:00:00,12.909494,79.131861,OZONE,15,104,38
India,TamilNadu,Virudhunagar,"Collectorate Office, Virudhunagar - TNPCB",07-12-2025 08:00:00,9.559382,77.948828,NH3,NA,NA,NA
India,Telangana,Hyderabad,"Central University, Hyderabad - TSPCB",07-12-2025 08:00:00,17.460103,78.334361,NH3,4,22,11
India,Telangana,Hyderabad,"ECIL Kapra, Hyderabad - TSPCB",07-12-2025 08:00:00,17.470431,78.566959,NO2,9,16,10
India,Uttar_Pradesh,Agra,"Rohta, Agra - UPPCB",07-12-2025 08:00:00,27.106972,78.000111,SO2,8,16,12
India,Uttar_Pradesh,Agra,"Sanjay Palace, Agra - UPPCB",07-12-2025 08:00:00,27.19865833,78.00598056,NO2,5,18,10
India,Uttar_Pradesh,Agra,"Sector-3B Avas Vikas Colony, Agra - UPPCB",07-12-2025 08:00:00,27.19412,77.96237,SO2,9,14,12
India,Uttar_Pradesh,Hapur,"Anand Vihar, Hapur - UPPCB",07-12-2025 08:00:00,28.725645,77.749675,NO2,14,89,39
India,Uttar_Pradesh,Hapur,"Anand Vihar, Hapur - UPPCB",07-12-2025 08:00:00,28.725645,77.749675,CO,10,78,15
India,Uttar_Pradesh,Jhansi,"Shivaji Nagar, Jhansi - UPPCB",07-12-2025 08:00:00,25.4547,78.6039,PM2.5,21,58,37
India,Telangana,Hyderabad,"IITH Kandi, Hyderabad - TSPCB",07-12-2025 08:00:00,17.585705,78.126199,PM2.5,32,123,82
India,Telangana,Hyderabad,"Kokapet, Hyderabad - TSPCB",07-12-2025 08:00:00,17.393559,78.339194,OZONE,15,25,15
India,Telangana,Hyderabad,"Kompally Municipal Office, Hyderabad - TSPCB",07-12-2025 08:00:00,17.544899,78.486949,CO,12,18,12
India,Uttar_Pradesh,Varanasi,"Ardhali Bazar, Varanasi - UPPCB",07-12-2025 08:00:00,25.3505986,82.9083074,OZONE,8,21,13
India,Uttar_Pradesh,Varanasi,"Bhelupur, Varanasi - UPPCB",07-12-2025 08:00:00,25.301778,82.996789,SO2,25,27,26
India,Uttar_Pradesh,Varanasi,"IESD Banaras Hindu University, Varanasi - UPPCB",07-12-2025 08:00:00,25.262326,82.995408,SO2,40,46,43
India,Uttar_Pradesh,Varanasi,"IESD Banaras Hindu University, Varanasi - UPPCB",07-12-2025 08:00:00,25.262326,82.995408,OZONE,13,45,26
India,Uttar_Pradesh,Varanasi,"Maldahiya, Varanasi - UPPCB",07-12-2025 08:00:00,25.32393,82.99687,PM2.5,55,187,100
India,Uttar_Pradesh,Varanasi,"Maldahiya, Varanasi - UPPCB",07-12-2025 08:00:00,25.32393,82.99687,NO2,1,2,2
India,Uttar_Pradesh,Vrindavan,"Omex Eternity, Vrindavan - UPPCB",07-12-2025 08:00:00,27.5714090,77.6557570,PM2.5,27,95,52
India,Uttar_Pradesh,Vrindavan,"Omex Eternity, Vrindavan - UPPCB",07-12-2025 08:00:00,27.5714090,77.6557570,NH3,1,4,3
India,Uttarakhand,Dehradun,"Doon University, Dehradun - UKPCB",07-12-2025 08:00:00,30.269444,78.044167,CO,38,40,38
India,Uttarakhand,Kashipur,"Govt. Girls Inter College, Kashipur - UKPCB",07-12-2025 08:00:00,29.2124114,78.9611753,OZONE,1,4,1
India,Uttarakhand,Rishikesh,"Shivaji Nagar, Rishikesh - UKPCB",07-12-2025 08:00:00,30.075911,78.2859547,PM2.5,48,180,102
India,West_Bengal,Asansol,"Asansol Court Area, Asansol - WBPCB",07-12-2025 08:00:00,23.685297,86.945968,PM2.5,87,243,184
India,West_Bengal,Asansol,"Asansol Court Area, Asansol - WBPCB",07-12-2025 08:00:00,23.685297,86.945968,NO2,15,28,22
India,West_Bengal,Asansol,"Asansol Court Area, Asansol - WBPCB",07-12-2025 08:00:00,23.685297,86.945968,SO2,18,36,23
India,Uttar_Pradesh,Meerut,"Jai Bhim Nagar, Meerut - UPPCB",07-12-2025 08:00:00,28.9535882,77.7622941,SO2,8,19,15
India,Uttar_Pradesh,Meerut,"Pallavpuram Phase 2, Meerut - UPPCB",07-12-2025 08:00:00,29.063510,77.709723,NO2,15,40,25
India,Uttar_Pradesh,Meerut,"Pallavpuram Phase 2, Meerut - UPPCB",07-12-2025 08:00:00,29.063510,77.709723,NH3,9,9,9
India,Uttar_Pradesh,Meerut,"Pallavpuram Phase 2, Meerut - UPPCB",07-12-2025 08:00:00,29.063510,77.709723,SO2,10,23,15
India,Uttar_Pradesh,Meerut,"Pallavpuram Phase 2, Meerut - UPPCB",07-12-2025 08:00:00,29.063510,77.709723,CO,20,94,45
India,Uttar_Pradesh,Moradabad,"Buddhi Vihar, Moradabad - UPPCB",07-12-2025 08:00:00,28.83526,78.74460,PM2.5,70,306,128
India,Uttar_Pradesh,Moradabad,"Buddhi Vihar, Moradabad - UPPCB",07-12-2025 08:00:00,28.83526,78.74460,NH3,5,5,5
India,Uttar_Pradesh,Moradabad,"Buddhi Vihar, Moradabad - UPPCB",07-12-2025 08:00:00,28.83526,78.74460,SO2,78,79,78
India,Uttar_Pradesh,Muzaffarnagar,"New Mandi, Muzaffarnagar - UPPCB",07-12-2025 08:00:00,29.4723508,77.7194031,PM10,117,186,141
India,Uttar_Pradesh,Muzaffarnagar,"New Mandi, Muzaffarnagar - UPPCB",07-12-2025 08:00:00,29.4723508,77.7194031,CO,21,72,34
India,Uttar_Pradesh,Muzaffarnagar,"New Mandi, Muzaffarnagar - UPPCB",07-12-2025 08:00:00,29.4723508,77.7194031,OZONE,21,140,40
India,Uttar_Pradesh,Noida,"Sector - 125, Noida - UPPCB",07-12-2025 08:00:00,28.5447608,77.3231257,PM10,192,348,262
India,Uttar_Pradesh,Noida,"Sector - 125, Noida - UPPCB",07-12-2025 08:00:00,28.5447608,77.3231257,OZONE,9,123,11
India,Uttar_Pradesh,Noida,"Sector - 62, Noida - IMD",07-12-2025 08:00:00,28.6245479,77.3577104,PM2.5,94,350,272
India,Uttar_Pradesh,Noida,"Sector-116, Noida - UPPCB",07-12-2025 08:00:00,28.569230,77.393848,PM2.5,237,363,327
India,Uttar_Pradesh,Moradabad,"Eco Herbal Park, Moradabad - UPPCB",07-12-2025 08:00:00,28.840739,78.697531,CO,5,103,20
India,Uttar_Pradesh,Moradabad,"Employment Office, Moradabad - UPPCB",07-12-2025 08:00:00,28.88528,78.73880,NH3,4,4,4
India,Uttar_Pradesh,Moradabad,"Jigar Colony, Moradabad - UPPCB",07-12-2025 08:00:00,28.856664,78.772638,NO2,24,25,25
India,Uttar_Pradesh,Moradabad,"Kashiram Nagar, Moradabad - UPPCB",07-12-2025 08:00:00,28.849399,78.742362,PM2.5,80,377,169
India,Uttar_Pradesh,Moradabad,"Transport Nagar, Moradabad - UPPCB",07-12-2025 08:00:00,28.802625,78.753728,CO,3,30,6
India,Uttar_Pradesh,Moradabad,"Transport Nagar, Moradabad - UPPCB",07-12-2025 08:00:00,28.802625,78.753728,OZONE,25,48,28
India,Uttar_Pradesh,Jhansi,"Shivaji Nagar, Jhansi - UPPCB",07-12-2025 08:00:00,25.4547,78.6039,PM10,31,79,49
India,Uttar_Pradesh,Jhansi,"Shivaji Nagar, Jhansi - UPPCB",07-12-2025 08:00:00,25.4547,78.6039,NO2,6,6,6
India,Uttar_Pradesh,Jhansi,"Shivaji Nagar, Jhansi - UPPCB",07-12-2025 08:00:00,25.4547,78.6039,SO2,12,22,15
India,Uttar_Pradesh,Kanpur,"FTI Kidwai Nagar, Kanpur - UPPCB",07-12-2025 08:00:00,26.428282,80.327067,CO,36,44,40
India,Uttar_Pradesh,Kanpur,"NSI Kalyanpur, Kanpur - UPPCB",07-12-2025 08:00:00,26.509954,80.249612,PM2.5,55,170,95
India,Uttar_Pradesh,Kanpur,"Nehru Nagar, Kanpur - UPPCB",07-12-2025 08:00:00,26.4703136,80.3229863,PM2.5,57,500,129
India,Uttar_Pradesh,Lucknow,"Lalbagh, Lucknow - CPCB",07-12-2025 08:00:00,26.8458805,80.9365541,PM10,86,181,137
India,Uttar_Pradesh,Lucknow,"Talkatora District Industries Center, Lucknow - CPCB",07-12-2025 08:00:00,26.83399722,80.8917361,PM10,133,308,180
India,Uttar_Pradesh,Meerut,"Ganga Nagar, Meerut - UPPCB",07-12-2025 08:00:00,28.999264,77.7590354,SO2,25,36,30
India,Uttar_Pradesh,Lucknow,"B R Ambedkar University, Lucknow - UPPCB",07-12-2025 08:00:00,26.766433,80.927299,NO2,21,22,22
India,Uttar_Pradesh,Lucknow,"B R Ambedkar University, Lucknow - UPPCB",07-12-2025 08:00:00,26.766433,80.927299,OZONE,26,27,27
India,Uttar_Pradesh,Lucknow,"Gomti Nagar, Lucknow - UPPCB",07-12-2025 08:00:00,26.868120,81.005119,CO,29,36,30
India,Uttar_Pradesh,Lucknow,"Kendriya Vidyalaya, Lucknow - CPCB",07-12-2025 08:00:00,26.906111,80.948222,CO,22,113,44
India,Uttar_Pradesh,Prayagraj,"Jhunsi, Prayagraj - UPPCB",07-12-2025 08:00:00,25.425602,81.917152,PM2.5,44,180,94
India,Uttar_Pradesh,Prayagraj,"Motilal Nehru NIT, Prayagraj - UPPCB",07-12-2025 08:00:00,25.494,81.863,PM10,59,110,84
India,Uttar_Pradesh,Prayagraj,"Motilal Nehru NIT, Prayagraj - UPPCB",07-12-2025 08:00:00,25.494,81.863,CO,24,64,38
India,West_Bengal,Asansol,"Asansol Court Area, Asansol - WBPCB",07-12-2025 08:00:00,23.685297,86.945968,OZONE,11,56,24
India,West_Bengal,Asansol,"Trivenidevi Bhalotia College, Asansol - WBPCB",07-12-2025 08:00:00,23.616515,87.119133,PM10,77,149,121
India,West_Bengal,Asansol,"Trivenidevi Bhalotia College, Asansol - WBPCB",07-12-2025 08:00:00,23.616515,87.119133,SO2,3,7,4
India,West_Bengal,Barrackpore,"SVSPA Campus, Barrackpore - WBPCB",07-12-2025 08:00:00,22.7605581,88.3617589,OZONE,3,60,6
India,West_Bengal,Durgapur,"Mahishkapur Road_B-Zone, Durgapur - WBPCB",07-12-2025 08:00:00,23.567923,87.306843,PM10,69,161,110
India,West_Bengal,Durgapur,"Mahishkapur Road_B-Zone, Durgapur - WBPCB",07-12-2025 08:00:00,23.567923,87.306843,NO2,15,78,36
India,West_Bengal,Durgapur,"Mahishkapur Road_B-Zone, Durgapur - WBPCB",07-12-2025 08:00:00,23.567923,87.306843,OZONE,17,97,34
India,West_Bengal,Durgapur,"PCBL Residential Complex, Durgapur - WBPCB",07-12-2025 08:00:00,23.5087640,87.3544400,OZONE,14,32,19
India,West_Bengal,Durgapur,"Womens College_City Center, Durgapur - WBPCB (Formerly known as Sidhu Kanhu Indoor Stadium)",07-12-2025 08:00:00,23.549395,87.300496,NH3,2,3,2
India,West_Bengal,Howrah,"Belur Math, Howrah - WBPCB",07-12-2025 08:00:00,22.629801,88.352017,PM2.5,224,412,322
India,West_Bengal,Howrah,"Belur Math, Howrah - WBPCB",07-12-2025 08:00:00,22.629801,88.352017,SO2,12,55,19
India,West_Bengal,Howrah,"Belur Math, Howrah - WBPCB",07-12-2025 08:00:00,22.629801,88.352017,CO,20,105,43
India,West_Bengal,Howrah,"Dasnagar, Howrah - WBPCB",07-12-2025 08:00:00,22.6025571,88.3105664,PM2.5,54,191,107
India,West_Bengal,Howrah,"Dasnagar, Howrah - WBPCB",07-12-2025 08:00:00,22.6025571,88.3105664,CO,8,101,33
India,West_Bengal,Howrah,"Dasnagar, Howrah - WBPCB",07-12-2025 08:00:00,22.6025571,88.3105664,OZONE,18,110,20
India,West_Bengal,Howrah,"Padmapukur, Howrah - WBPCB",07-12-2025 08:00:00,22.5687319,88.2797276,PM2.5,130,346,252
India,West_Bengal,Howrah,"Padmapukur, Howrah - WBPCB",07-12-2025 08:00:00,22.5687319,88.2797276,NO2,10,25,17
India,West_Bengal,Howrah,"Padmapukur, Howrah - WBPCB",07-12-2025 08:00:00,22.5687319,88.2797276,NH3,2,2,2
India,West_Bengal,Kolkata,"Fort William, Kolkata - WBPCB",07-12-2025 08:00:00,22.556640,88.342674,PM10,124,261,172
India,West_Bengal,Kolkata,"Fort William, Kolkata - WBPCB",07-12-2025 08:00:00,22.556640,88.342674,NO2,16,21,18
India,West_Bengal,Kolkata,"Fort William, Kolkata - WBPCB",07-12-2025 08:00:00,22.556640,88.342674,SO2,9,38,19
India,West_Bengal,Kolkata,"Jadavpur, Kolkata - WBPCB",07-12-2025 08:00:00,22.49929,88.36917,CO,29,116,99
India,West_Bengal,Kolkata,"Rabindra Bharati University, Kolkata - WBPCB",07-12-2025 08:00:00,22.627847,88.380669,PM2.5,99,328,193
India,West_Bengal,Kolkata,"Rabindra Bharati University, Kolkata - WBPCB",07-12-2025 08:00:00,22.627847,88.380669,NH3,12,13,12
India,West_Bengal,Kolkata,"Rabindra Sarobar, Kolkata - WBPCB",07-12-2025 08:00:00,22.51106,88.35142,CO,18,121,57
India,West_Bengal,Kolkata,"Victoria, Kolkata - WBPCB",07-12-2025 08:00:00,22.5448082,88.3403691,PM10,124,304,171
India,West_Bengal,Siliguri,"Ward-32 Bapupara, Siliguri - WBPCB",07-12-2025 08:00:00,26.6879226,88.4152495,NO2,13,31,19
India,Bihar,Aurangabad,"Gurdeo Nagar, Aurangabad - BSPCB",07-12-2025 08:00:00,24.75746,84.366208,NH3,1,2,2
India,Bihar,Begusarai,"Lohiyanagar, Begusarai - BSPCB",07-12-2025 08:00:00,25.42742023,86.13886079,PM2.5,10,317,68
India,Bihar,Begusarai,"Lohiyanagar, Begusarai - BSPCB",07-12-2025 08:00:00,25.42742023,86.13886079,CO,29,31,31
India,Bihar,Bettiah,"Kamalnath Nagar, Bettiah - BSPCB",07-12-2025 08:00:00,26.80365,84.51954,NO2,6,10,8
India,Bihar,Bettiah,"Kamalnath Nagar, Bettiah - BSPCB",07-12-2025 08:00:00,26.80365,84.51954,NH3,1,1,1
India,Bihar,Bhagalpur,"DM Office_Kachari Chowk, Bhagalpur - BSPCB",07-12-2025 08:00:00,25.251013,86.989001,CO,14,19,17
India,Assam,Guwahati,"Pan Bazaar, Guwahati - PCBA",07-12-2025 08:00:00,26.187500,91.744194,CO,12,74,44
India,Assam,Guwahati,"Railway Colony, Guwahati - PCBA",07-12-2025 08:00:00,26.181742,91.78063,PM2.5,44,341,196
India,Assam,Guwahati,"Railway Colony, Guwahati - PCBA",07-12-2025 08:00:00,26.181742,91.78063,PM10,41,198,124
India,Assam,Nalbari,"Bata Chowk, Nalbari - PCBA",07-12-2025 08:00:00,26.446912,91.439057,PM2.5,28,392,225
India,Assam,Nalbari,"Bata Chowk, Nalbari - PCBA",07-12-2025 08:00:00,26.446912,91.439057,PM10,27,315,143
India,Assam,Silchar,"Tarapur, Silchar - PCBA",07-12-2025 08:00:00,24.82827,92.79525,PM10,50,65,56
India,Andhra_Pradesh,Vijayawada,"Kanuru, Vijayawada - APPCB",07-12-2025 08:00:00,16.486692,80.699436,NO2,18,39,22
India,Andhra_Pradesh,Vijayawada,"Kanuru, Vijayawada - APPCB",07-12-2025 08:00:00,16.486692,80.699436,OZONE,28,93,39
India,Andhra_Pradesh,Vijayawada,"Rajiv Gandhi Park, Vijayawada - APPCB",07-12-2025 08:00:00,16.509717,80.612222,PM10,67,94,81
India,Andhra_Pradesh,Vijayawada,"Rajiv Nagar, Vijayawada - APPCB",07-12-2025 08:00:00,16.554731,80.649110,SO2,8,26,16
India,Andhra_Pradesh,Visakhapatnam,"GVM Corporation, Visakhapatnam - APPCB",07-12-2025 08:00:00,17.72,83.3,NO2,25,105,54
India,Bihar,Kishanganj,"SDM Office_Khagra, Kishanganj - BSPCB",07-12-2025 08:00:00,26.0881305,87.93840336,NH3,3,4,3
India,Bihar,Kishanganj,"SDM Office_Khagra, Kishanganj - BSPCB",07-12-2025 08:00:00,26.0881305,87.93840336,CO,17,26,19
India,Bihar,Motihari,"Gandak Colony, Motihari - BSPCB",07-12-2025 08:00:00,26.63086,84.90051,NO2,9,13,11
India,Bihar,Motihari,"Gandak Colony, Motihari - BSPCB",07-12-2025 08:00:00,26.63086,84.90051,SO2,2,2,2
India,Bihar,Munger,"Town Hall, Munger - BSPCB",07-12-2025 08:00:00,25.376776,86.471523,PM2.5,80,220,143
India,Andhra_Pradesh,Rajamahendravaram,"Anand Kala Kshetram, Rajamahendravaram - APPCB",07-12-2025 08:00:00,16.9872867,81.7363176,SO2,7,22,16
India,Andhra_Pradesh,Tirumala,"Toll Gate, Tirumala - APPCB",07-12-2025 08:00:00,13.67,79.35,PM2.5,144,286,213
India,Andhra_Pradesh,Tirupati,"Vaikuntapuram, Tirupati - APPCB",07-12-2025 08:00:00,13.615387,79.409230,PM2.5,43,54,50
India,Andhra_Pradesh,Tirupati,"Vaikuntapuram, Tirupati - APPCB",07-12-2025 08:00:00,13.615387,79.409230,SO2,10,21,12
India,Andhra_Pradesh,Amaravati,"Secretariat, Amaravati - APPCB",07-12-2025 08:00:00,16.5150833,80.5181667,PM2.5,128,304,211
India,Andhra_Pradesh,Amaravati,"Secretariat, Amaravati - APPCB",07-12-2025 08:00:00,16.5150833,80.5181667,CO,26,46,35
India,Andhra_Pradesh,Anantapur,"Gulzarpet, Anantapur - APPCB",07-12-2025 08:00:00,14.675886,77.593027,PM2.5,45,326,142
India,Andhra_Pradesh,Chittoor,"Gangineni Cheruvu, Chittoor - APPCB",07-12-2025 08:00:00,13.204880,79.097889,CO,36,65,43
India,Bihar,Araria,"Kharahiya Basti, Araria - BSPCB",07-12-2025 08:00:00,26.146529,87.454184,PM2.5,50,277,167
India,Bihar,Arrah,"New DM Office, Arrah - BSPCB",07-12-2025 08:00:00,25.5626095,84.663264,NO2,5,8,7
India,Bihar,Arrah,"New DM Office, Arrah - BSPCB",07-12-2025 08:00:00,25.5626095,84.663264,CO,40,62,55
India,Bihar,Buxar,"Charitra Van, Buxar - BSPCB",07-12-2025 08:00:00,25.567520,83.966379,NO2,5,10,9
India,Bihar,Chhapra,"Darshan Nagar, Chhapra - BSPCB",07-12-2025 08:00:00,25.7808257,84.7446768,NO2,2,3,3
India,Bihar,Chhapra,"Darshan Nagar, Chhapra - BSPCB",07-12-2025 08:00:00,25.7808257,84.7446768,NH3,5,6,6
India,Bihar,Gaya,"Kareemganj, Gaya - BSPCB",07-12-2025 08:00:00,24.792403,84.992416,PM2.5,50,310,152
India,Bihar,Gaya,"SFTI Kusdihra, Gaya - BSPCB",07-12-2025 08:00:00,24.762518,84.982348,PM2.5,31,52,40
India,Assam,Guwahati,"LGBI Airport, Guwahati - PCBA",07-12-2025 08:00:00,26.10887,91.589544,NH3,5,5,5
India,Bihar,Rajgir,"Dangi Tola, Rajgir - BSPCB",07-12-2025 08:00:00,25.03280,85.41948,NO2,9,10,9
India,Bihar,Rajgir,"Dangi Tola, Rajgir - BSPCB",07-12-2025 08:00:00,25.03280,85.41948,OZONE,30,35,32
India,Bihar,Saharsa,"Police Line, Saharsa - BSPCB",07-12-2025 08:00:00,25.892357,86.590325,PM2.5,39,226,102
India,Bihar,Samastipur,"DM Office_Kasipur, Samastipur - BSPCB",07-12-2025 08:00:00,25.859655,85.77944,PM10,23,62,47
India,Bihar,Samastipur,"DM Office_Kasipur, Samastipur - BSPCB",07-12-2025 08:00:00,25.859655,85.77944,CO,48,87,56
India,Bihar,Samastipur,"DM Office_Kasipur, Samastipur - BSPCB",07-12-2025 08:00:00,25.859655,85.77944,OZONE,7,8,8
India,Bihar,Sasaram,"Dada Peer, Sasaram - BSPCB",07-12-2025 08:00:00,24.952822,84.002396,NH3,3,3,3
India,Chhattisgarh,Bilaspur,"Mangala, Bilaspur - NTPC",07-12-2025 08:00:00,22.08815,82.13737,NO2,25,93,41
India,Chhattisgarh,Bilaspur,"Mangala, Bilaspur - NTPC",07-12-2025 08:00:00,22.08815,82.13737,SO2,12,24,16
India,Chhattisgarh,Chhal,"Nawapara SECL Colony, Chhal - CECB",07-12-2025 08:00:00,22.118125,83.140608,PM10,41,109,69
India,Chhattisgarh,Chhal,"Nawapara SECL Colony, Chhal - CECB",07-12-2025 08:00:00,22.118125,83.140608,NH3,6,6,6
India,Chhattisgarh,Chhal,"Nawapara SECL Colony, Chhal - CECB",07-12-2025 08:00:00,22.118125,83.140608,SO2,4,86,27
India,Chhattisgarh,Chhal,"Nawapara SECL Colony, Chhal - CECB",07-12-2025 08:00:00,22.118125,83.140608,OZONE,3,135,6
India,Chhattisgarh,Korba,"Rampur, Korba - CECB",07-12-2025 08:00:00,22.368195,82.746431,NO2,17,70,32
India,Chhattisgarh,Korba,"Rampur, Korba - CECB",07-12-2025 08:00:00,22.368195,82.746431,NH3,2,2,2
India,Bihar,Muzaffarpur,"Muzaffarpur Collectorate, Muzaffarpur - BSPCB",07-12-2025 08:00:00,26.1209,85.3647,OZONE,12,50,12
India,Bihar,Patna,"DRM Office Danapur, Patna - BSPCB",07-12-2025 08:00:00,25.586562,85.043586,PM2.5,81,207,130
India,Bihar,Patna,"DRM Office Danapur, Patna - BSPCB",07-12-2025 08:00:00,25.586562,85.043586,PM10,91,168,129
India,Bihar,Patna,"DRM Office Danapur, Patna - BSPCB",07-12-2025 08:00:00,25.586562,85.043586,CO,32,109,62
India,Bihar,Patna,"IGSC Planetarium Complex, Patna - BSPCB",07-12-2025 08:00:00,25.610369,85.132568,PM2.5,57,218,137
India,Bihar,Patna,"IGSC Planetarium Complex, Patna - BSPCB",07-12-2025 08:00:00,25.610369,85.132568,NO2,1,15,14
India,Bihar,Patna,"IGSC Planetarium Complex, Patna - BSPCB",07-12-2025 08:00:00,25.610369,85.132568,CO,34,64,58
India,Chandigarh,Chandigarh,"Sector-53, Chandigarh - CPCC",07-12-2025 08:00:00,30.719859,76.738637,CO,36,105,52
India,Chhattisgarh,Bhilai,"32Bungalows, Bhilai - CECB",07-12-2025 08:00:00,21.194815,81.314770,NO2,19,104,53
India,Chhattisgarh,Bhilai,"32Bungalows, Bhilai - CECB",07-12-2025 08:00:00,21.194815,81.314770,OZONE,3,77,4
India,Chhattisgarh,Bhilai,"Civic Center, Bhilai - Bhilai Steel Plant",07-12-2025 08:00:00,21.185571,81.343175,NH3,5,5,5
India,Chhattisgarh,Bhilai,"Civic Center, Bhilai - Bhilai Steel Plant",07-12-2025 08:00:00,21.185571,81.343175,CO,21,22,22
India,Chhattisgarh,Bhilai,"Hathkhoj, Bhilai - CECB",07-12-2025 08:00:00,21.224231,81.408350,OZONE,2,19,5
India,Chhattisgarh,Kunjemura,"OP Jindal School, Kunjemura - CECB",07-12-2025 08:00:00,22.126650,83.483212,NO2,30,58,40
India,Chhattisgarh,Kunjemura,"OP Jindal School, Kunjemura - CECB",07-12-2025 08:00:00,22.126650,83.483212,NH3,2,2,2
India,Chhattisgarh,Kunjemura,"OP Jindal School, Kunjemura - CECB",07-12-2025 08:00:00,22.126650,83.483212,OZONE,1,47,1
India,Chhattisgarh,Raipur,"AIIMS, Raipur - CECB",07-12-2025 08:00:00,21.258815,81.578979,PM2.5,NA,NA,NA
India,Chhattisgarh,Raipur,"AIIMS, Raipur - CECB",07-12-2025 08:00:00,21.258815,81.578979,NH3,NA,NA,NA
India,Chhattisgarh,Raipur,"AIIMS, Raipur - CECB",07-12-2025 08:00:00,21.258815,81.578979,CO,NA,NA,NA
India,Chhattisgarh,Raipur,"Bhatagaon New ISBT, Raipur - CECB",07-12-2025 08:00:00,21.219665,81.630094,PM2.5,29,192,105
India,Bihar,Munger,"Town Hall, Munger - BSPCB",07-12-2025 08:00:00,25.376776,86.471523,CO,22,42,28
India,Bihar,Muzaffarpur,"Buddha Colony, Muzaffarpur - BSPCB",07-12-2025 08:00:00,26.11442,85.39813,NH3,6,11,9
India,Bihar,Muzaffarpur,"MIT-Daudpur Kothi, Muzaffarpur - BSPCB",07-12-2025 08:00:00,26.1403345,85.3650192,SO2,11,16,13
India,Bihar,Muzaffarpur,"MIT-Daudpur Kothi, Muzaffarpur - BSPCB",07-12-2025 08:00:00,26.1403345,85.3650192,CO,31,64,33
India,Bihar,Patna,"Muradpur, Patna - BSPCB",07-12-2025 08:00:00,25.619651,85.147382,OZONE,4,40,5
India,Bihar,Patna,"Samanpura, Patna - BSPCB",07-12-2025 08:00:00,25.596727,85.085624,SO2,1,6,3
India,Chandigarh,Chandigarh,"Sector 22, Chandigarh - CPCC",07-12-2025 08:00:00,30.735567,76.775714,CO,62,108,80
India,Chandigarh,Chandigarh,"Sector-25, Chandigarh - CPCC",07-12-2025 08:00:00,30.751462,76.762879,CO,36,64,52
India,Bihar,Siwan,"Chitragupta Nagar, Siwan - BSPCB",07-12-2025 08:00:00,26.2271665,84.3570427,PM10,38,90,65
India,Delhi,Delhi,"Najafgarh, Delhi - DPCC",07-12-2025 08:00:00,28.570173,76.933762,CO,34,55,46
India,Delhi,Delhi,"Narela, Delhi - DPCC",07-12-2025 08:00:00,28.822836,77.101981,PM2.5,130,352,299
India,Delhi,Delhi,"Narela, Delhi - DPCC",07-12-2025 08:00:00,28.822836,77.101981,NO2,16,79,32
India,Delhi,Delhi,"Narela, Delhi - DPCC",07-12-2025 08:00:00,28.822836,77.101981,OZONE,18,122,43
India,Delhi,Delhi,"Nehru Nagar, Delhi - DPCC",07-12-2025 08:00:00,28.567890,77.250515,CO,105,118,107
India,Delhi,Delhi,"North Campus, DU, Delhi - IMD",07-12-2025 08:00:00,28.6573814,77.1585447,NO2,36,181,81
India,Delhi,Delhi,"Okhla Phase-2, Delhi - DPCC",07-12-2025 08:00:00,28.530785,77.271255,PM2.5,187,362,310
India,Delhi,Delhi,"Okhla Phase-2, Delhi - DPCC",07-12-2025 08:00:00,28.530785,77.271255,CO,65,112,102
India,Delhi,Delhi,"Okhla Phase-2, Delhi - DPCC",07-12-2025 08:00:00,28.530785,77.271255,OZONE,6,110,7
India,Delhi,Delhi,"CRRI Mathura Road, Delhi - IMD",07-12-2025 08:00:00,28.5512005,77.2735737,CO,21,83,54
India,Delhi,Delhi,"Chandni Chowk, Delhi - IITM",07-12-2025 08:00:00,28.656756,77.227234,NO2,27,46,36
India,Delhi,Delhi,"Chandni Chowk, Delhi - IITM",07-12-2025 08:00:00,28.656756,77.227234,NH3,6,7,6
India,Delhi,Delhi,"DTU, Delhi - CPCB",07-12-2025 08:00:00,28.7500499,77.1112615,PM10,123,261,196
India,Delhi,Delhi,"DTU, Delhi - CPCB",07-12-2025 08:00:00,28.7500499,77.1112615,NH3,6,13,8
India,Delhi,Delhi,"Dr. Karni Singh Shooting Range, Delhi - DPCC",07-12-2025 08:00:00,28.498571,77.264840,PM2.5,163,369,314
India,Delhi,Delhi,"Dr. Karni Singh Shooting Range, Delhi - DPCC",07-12-2025 08:00:00,28.498571,77.264840,NO2,86,128,105
India,Chhattisgarh,Raipur,"Bhatagaon New ISBT, Raipur - CECB",07-12-2025 08:00:00,21.219665,81.630094,OZONE,2,6,3
India,Chhattisgarh,Raipur,"Krishak Nagar, Raipur - CECB",07-12-2025 08:00:00,21.237755,81.705301,PM10,52,124,96
India,Chhattisgarh,Raipur,"Krishak Nagar, Raipur - CECB",07-12-2025 08:00:00,21.237755,81.705301,CO,19,66,61
India,Chhattisgarh,Raipur,"Siltara Phase-II, Raipur - CECB",07-12-2025 08:00:00,21.371751,81.664929,OZONE,3,3,3
India,Chhattisgarh,Tumidih,"OP Jindal Industrial Park, Tumidih - CECB",07-12-2025 08:00:00,22.06631475,83.33820077,OZONE,4,87,7
India,Delhi,Delhi,"Mandir Marg, Delhi - DPCC",07-12-2025 08:00:00,28.636429,77.201067,PM10,129,312,197
India,Delhi,Delhi,"Mandir Marg, Delhi - DPCC",07-12-2025 08:00:00,28.636429,77.201067,OZONE,5,98,22
India,Delhi,Delhi,"Mundka, Delhi - DPCC",07-12-2025 08:00:00,28.684678,77.076574,PM10,175,491,334
India,Delhi,Delhi,"Mundka, Delhi - DPCC",07-12-2025 08:00:00,28.684678,77.076574,NO2,62,136,90
India,Delhi,Delhi,"NSIT Dwarka, Delhi - CPCB",07-12-2025 08:00:00,28.60909,77.0325413,PM10,161,305,223
India,Delhi,Delhi,"Najafgarh, Delhi - DPCC",07-12-2025 08:00:00,28.570173,76.933762,NH3,15,18,16
India,Delhi,Delhi,"Patparganj, Delhi - DPCC",07-12-2025 08:00:00,28.623763,77.287209,NH3,7,16,11
India,Delhi,Delhi,"Patparganj, Delhi - DPCC",07-12-2025 08:00:00,28.623763,77.287209,OZONE,2,220,9
India,Delhi,Delhi,"Pusa, Delhi - DPCC",07-12-2025 08:00:00,28.639652,77.146275,PM2.5,237,442,355
India,Delhi,Delhi,"Pusa, Delhi - DPCC",07-12-2025 08:00:00,28.639652,77.146275,PM10,218,479,317
India,Delhi,Delhi,"Pusa, Delhi - DPCC",07-12-2025 08:00:00,28.639652,77.146275,NH3,4,15,11
India,Delhi,Delhi,"Pusa, Delhi - DPCC",07-12-2025 08:00:00,28.639652,77.146275,CO,42,112,60
India,Delhi,Delhi,"R K Puram, Delhi - DPCC",07-12-2025 08:00:00,28.563262,77.186937,NO2,27,133,82
India,Delhi,Delhi,"Rohini, Delhi - DPCC",07-12-2025 08:00:00,28.732528,77.119920,PM2.5,170,403,340
India,Delhi,Delhi,"Rohini, Delhi - DPCC",07-12-2025 08:00:00,28.732528,77.119920,CO,19,66,44
India,Delhi,Delhi,"Shadipur, Delhi - CPCB",07-12-2025 08:00:00,28.6514781,77.1473105,NH3,9,12,10
India,Delhi,Delhi,"Shadipur, Delhi - CPCB",07-12-2025 08:00:00,28.6514781,77.1473105,CO,24,103,46
India,Delhi,Delhi,"Sirifort, Delhi - CPCB",07-12-2025 08:00:00,28.5504249,77.2159377,PM10,163,411,239
India,Delhi,Delhi,"Jahangirpuri, Delhi - DPCC",07-12-2025 08:00:00,28.732820,77.170633,PM2.5,163,395,334
India,Delhi,Delhi,"Jahangirpuri, Delhi - DPCC",07-12-2025 08:00:00,28.732820,77.170633,SO2,16,75,35
India,Delhi,Delhi,"Jahangirpuri, Delhi - DPCC",07-12-2025 08:00:00,28.732820,77.170633,OZONE,14,159,32
India,Delhi,Delhi,"Lodhi Road, Delhi - IITM",07-12-2025 08:00:00,28.588333,77.221667,PM2.5,158,330,281
India,Delhi,Delhi,"IIT Delhi, Delhi - IITM",07-12-2025 08:00:00,28.542460,77.191651,PM10,151,264,187
India,Delhi,Delhi,"IIT Delhi, Delhi - IITM",07-12-2025 08:00:00,28.542460,77.191651,CO,8,44,28
India,Delhi,Delhi,"ITO, Delhi - CPCB",07-12-2025 08:00:00,28.628624,77.241060,PM2.5,188,363,307
India,Delhi,Delhi,"Alipur, Delhi - DPCC",07-12-2025 08:00:00,28.815329,77.153010,SO2,10,21,13
India,Delhi,Delhi,"Ashok Vihar, Delhi - DPCC",07-12-2025 08:00:00,28.695381,77.181665,OZONE,28,103,36
India,Gujarat,Ahmedabad,"SVPI Airport Hansol, Ahmedabad - IITM",07-12-2025 08:00:00,23.076793,72.627874,PM10,89,152,119
India,Gujarat,Ahmedabad,"SVPI Airport Hansol, Ahmedabad - IITM",07-12-2025 08:00:00,23.076793,72.627874,SO2,5,9,7
India,Gujarat,Ahmedabad,"SVPI Airport Hansol, Ahmedabad - IITM",07-12-2025 08:00:00,23.076793,72.627874,CO,20,84,60
India,Gujarat,Ankleshwar,"GIDC, Ankleshwar - GPCB",07-12-2025 08:00:00,21.613267,73.010555,PM10,94,140,120
India,Gujarat,Ankleshwar,"GIDC, Ankleshwar - GPCB",07-12-2025 08:00:00,21.613267,73.010555,NO2,18,19,19
India,Gujarat,Ankleshwar,"GIDC, Ankleshwar - GPCB",07-12-2025 08:00:00,21.613267,73.010555,CO,30,75,60
India,Gujarat,Gandhinagar,"IIPHG Lekawada, Gandhinagar - IITM",07-12-2025 08:00:00,23.243639,72.68994,NO2,7,8,7
India,Gujarat,Gandhinagar,"IIPHG Lekawada, Gandhinagar - IITM",07-12-2025 08:00:00,23.243639,72.68994,CO,36,95,57
India,Gujarat,Gandhinagar,"IIPHG Lekawada, Gandhinagar - IITM",07-12-2025 08:00:00,23.243639,72.68994,OZONE,2,50,3
India,Gujarat,Gandhinagar,"Sector-10, Gandhinagar - GPCB",07-12-2025 08:00:00,23.221714,72.654328,PM2.5,53,94,68
India,Haryana,Ambala,"Patti Mehar, Ambala - HSPCB",07-12-2025 08:00:00,30.379589,76.778328,OZONE,49,52,50
India,Haryana,Bahadurgarh,"Arya Nagar, Bahadurgarh - HSPCB",07-12-2025 08:00:00,28.6701,76.9254,NH3,NA,NA,NA
India,Haryana,Bahadurgarh,"Arya Nagar, Bahadurgarh - HSPCB",07-12-2025 08:00:00,28.6701,76.9254,SO2,NA,NA,NA
India,Haryana,Ballabgarh,"Nathu Colony, Ballabgarh - HSPCB",07-12-2025 08:00:00,28.3419248,77.319699,NH3,3,3,3
India,Haryana,Bhiwani,"H.B. Colony, Bhiwani - HSPCB",07-12-2025 08:00:00,28.806223,76.141105,PM2.5,218,379,265
India,Haryana,Bhiwani,"H.B. Colony, Bhiwani - HSPCB",07-12-2025 08:00:00,28.806223,76.141105,PM10,115,236,132
India,Haryana,Charkhi Dadri,"Mini Secretariat, Charkhi Dadri - HSPCB",07-12-2025 08:00:00,28.593883,76.270653,NO2,9,20,15
India,Haryana,Faridabad,"Sector 30, Faridabad - HSPCB",07-12-2025 08:00:00,28.4417,77.3217,NH3,11,12,11
India,Haryana,Faridabad,"Sector 30, Faridabad - HSPCB",07-12-2025 08:00:00,28.4417,77.3217,SO2,6,6,6
India,Haryana,Faridabad,"Sector 30, Faridabad - HSPCB",07-12-2025 08:00:00,28.4417,77.3217,CO,59,66,63
India,Haryana,Faridabad,"Sector 30, Faridabad - HSPCB",07-12-2025 08:00:00,28.4417,77.3217,OZONE,17,19,18
India,Haryana,Fatehabad,"Huda Sector, Fatehabad - HSPCB",07-12-2025 08:00:00,29.503664,75.467934,PM2.5,175,267,231
India,Haryana,Fatehabad,"Huda Sector, Fatehabad - HSPCB",07-12-2025 08:00:00,29.503664,75.467934,NO2,18,20,19
India,Haryana,Fatehabad,"Huda Sector, Fatehabad - HSPCB",07-12-2025 08:00:00,29.503664,75.467934,OZONE,15,18,15
India,Haryana,Gurugram,"Sector-51, Gurugram - HSPCB",07-12-2025 08:00:00,28.4227,77.0667,NH3,6,10,8
India,Haryana,Gurugram,"Sector-51, Gurugram - HSPCB",07-12-2025 08:00:00,28.4227,77.0667,SO2,2,17,11
India,Gujarat,Nandesari,"GIDC, Nandesari - Nandesari Ind. Association",07-12-2025 08:00:00,22.410802,73.097923,PM10,106,205,161
India,Gujarat,Surat,"Science Center, Surat - SMC",07-12-2025 08:00:00,21.170046,72.795405,SO2,33,38,35
India,Gujarat,Vapi,"Phase-1 GIDC, Vapi - GPCB",07-12-2025 08:00:00,20.362421,72.918013,PM10,37,115,64
India,Gujarat,Vatva,"Phase-4 GIDC, Vatva - GPCB",07-12-2025 08:00:00,22.969611,72.643500,PM10,79,148,110
India,Gujarat,Vatva,"Phase-4 GIDC, Vatva - GPCB",07-12-2025 08:00:00,22.969611,72.643500,NO2,15,37,32
India,Haryana,Ambala,"Patti Mehar, Ambala - HSPCB",07-12-2025 08:00:00,30.379589,76.778328,NO2,21,25,23
India,Haryana,Dharuhera,"Municipal Corporation Office, Dharuhera -  HSPCB",07-12-2025 08:00:00,28.206800,76.799700,PM10,7,285,197
India,Haryana,Dharuhera,"Municipal Corporation Office, Dharuhera -  HSPCB",07-12-2025 08:00:00,28.206800,76.799700,NO2,15,50,28
India,Haryana,Dharuhera,"Municipal Corporation Office, Dharuhera -  HSPCB",07-12-2025 08:00:00,28.206800,76.799700,NH3,6,26,15
India,Haryana,Dharuhera,"Municipal Corporation Office, Dharuhera -  HSPCB",07-12-2025 08:00:00,28.206800,76.799700,OZONE,2,73,6
India,Haryana,Faridabad,"New Industrial Town, Faridabad - HSPCB",07-12-2025 08:00:00,28.39072,77.30059,CO,10,12,11
India,Haryana,Gurugram,"Teri Gram, Gurugram - HSPCB",07-12-2025 08:00:00,28.4275,77.1465,CO,19,78,55
India,Haryana,Jind,"Police Lines, Jind - HSPCB",07-12-2025 08:00:00,29.307814,76.337619,PM2.5,133,230,176
India,Haryana,Jind,"Police Lines, Jind - HSPCB",07-12-2025 08:00:00,29.307814,76.337619,NO2,36,51,43
India,Haryana,Jind,"Police Lines, Jind - HSPCB",07-12-2025 08:00:00,29.307814,76.337619,SO2,NA,NA,NA
India,Gujarat,Ahmedabad,"Gyaspur, Ahmedabad - IITM",07-12-2025 08:00:00,22.977134,72.553024,NO2,42,81,49
India,Gujarat,Ahmedabad,"Maninagar, Ahmedabad - GPCB",07-12-2025 08:00:00,23.002657,72.591912,OZONE,54,85,61
India,Gujarat,Ahmedabad,"Rakhial, Ahmedabad - IITM",07-12-2025 08:00:00,23.016834,72.625775,CO,26,72,34
India,Delhi,Delhi,"Wazirpur, Delhi - DPCC",07-12-2025 08:00:00,28.699793,77.165453,PM10,208,500,301
India,Haryana,Panipat,"Sector-18, Panipat - HSPCB",07-12-2025 08:00:00,29.432304,76.972765,SO2,11,11,11
India,Haryana,Panipat,"Sector-18, Panipat - HSPCB",07-12-2025 08:00:00,29.432304,76.972765,OZONE,30,31,30
India,Haryana,Sirsa,"F-Block, Sirsa - HSPCB",07-12-2025 08:00:00,29.536400,75.015800,CO,31,50,46
India,Haryana,Sonipat,"Murthal, Sonipat - HSPCB",07-12-2025 08:00:00,29.027200,77.062100,PM10,121,247,180
India,Haryana,Sonipat,"Murthal, Sonipat - HSPCB",07-12-2025 08:00:00,29.027200,77.062100,CO,26,37,35
India,Haryana,Yamuna Nagar,"Gobind Pura, Yamuna Nagar - HSPCB",07-12-2025 08:00:00,30.1480566,77.2893471,PM2.5,146,240,185
India,Karnataka,Bengaluru,"BTM Layout, Bengaluru - CPCB",07-12-2025 08:00:00,12.9135218,77.5950804,PM2.5,85,151,101
India,Karnataka,Bengaluru,"BTM Layout, Bengaluru - CPCB",07-12-2025 08:00:00,12.9135218,77.5950804,NH3,2,6,5
India,Karnataka,Bengaluru,"BTM Layout, Bengaluru - CPCB",07-12-2025 08:00:00,12.9135218,77.5950804,OZONE,21,24,23
India,Karnataka,Bengaluru,"BWSSB Kadabesanahalli, Bengaluru - CPCB",07-12-2025 08:00:00,12.9352049,77.6814488,OZONE,19,56,39
India,Karnataka,Bengaluru,"Hebbal, Bengaluru - KSPCB",07-12-2025 08:00:00,13.029152,77.585901,PM2.5,76,193,113
India,Karnataka,Bengaluru,"Hebbal, Bengaluru - KSPCB",07-12-2025 08:00:00,13.029152,77.585901,PM10,82,134,107
India,Haryana,Panchgaon,"Amity University, Panchgaon - IITM",07-12-2025 08:00:00,28.3153,76.9143,CO,42,84,65
India,Haryana,Panchkula,"Sector-6, Panchkula - HSPCB ",07-12-2025 08:00:00,30.7057778,76.8531805555555,PM2.5,70,215,126
India,Haryana,Panchkula,"Sector-6, Panchkula - HSPCB ",07-12-2025 08:00:00,30.7057778,76.8531805555555,SO2,8,9,9
India,Haryana,Panchkula,"Sector-6, Panchkula - HSPCB ",07-12-2025 08:00:00,30.7057778,76.8531805555555,CO,20,24,20
India,Haryana,Panipat,"Sector-18, Panipat - HSPCB",07-12-2025 08:00:00,29.432304,76.972765,PM10,163,183,173
India,Haryana,Mandikhera,"General Hospital, Mandikhera(Nuh) - HSPCB",07-12-2025 08:00:00,27.9002,76.9938,OZONE,24,30,27
India,Haryana,Manesar,"Sector-2 IMT, Manesar - HSPCB",07-12-2025 08:00:00,28.360699,76.936090,SO2,6,38,12
India,Haryana,Narnaul,"Shastri Nagar, Narnaul - HSPCB",07-12-2025 08:00:00,28.060249,76.113115,PM10,113,164,140
India,Haryana,Narnaul,"Shastri Nagar, Narnaul - HSPCB",07-12-2025 08:00:00,28.060249,76.113115,NO2,100,195,154
India,Haryana,Narnaul,"Shastri Nagar, Narnaul - HSPCB",07-12-2025 08:00:00,28.060249,76.113115,SO2,6,7,6
India,Karnataka,Bengaluru,"Shivapura_Peenya, Bengaluru - KSPCB",07-12-2025 08:00:00,13.0246342,77.5080115,NO2,21,21,21
India,Karnataka,Bengaluru,"Shivapura_Peenya, Bengaluru - KSPCB",07-12-2025 08:00:00,13.0246342,77.5080115,NH3,3,3,3
India,Karnataka,Bengaluru,"Shivapura_Peenya, Bengaluru - KSPCB",07-12-2025 08:00:00,13.0246342,77.5080115,SO2,8,12,10
India,Karnataka,Chikkamagaluru,"Kalyana Nagara, Chikkamagaluru - KSPCB",07-12-2025 08:00:00,13.328028,75.797056,PM10,30,60,41
India,Karnataka,Chikkamagaluru,"Kalyana Nagara, Chikkamagaluru - KSPCB",07-12-2025 08:00:00,13.328028,75.797056,NO2,14,29,19
India,Haryana,Yamuna Nagar,"Gobind Pura, Yamuna Nagar - HSPCB",07-12-2025 08:00:00,30.1480566,77.2893471,NO2,11,20,16
India,Haryana,Yamuna Nagar,"Gobind Pura, Yamuna Nagar - HSPCB",07-12-2025 08:00:00,30.1480566,77.2893471,SO2,10,15,12
India,Haryana,Yamuna Nagar,"Gobind Pura, Yamuna Nagar - HSPCB",07-12-2025 08:00:00,30.1480566,77.2893471,OZONE,8,33,11
India,Himachal Pradesh,Baddi,"HIMUDA Complex Phase-1, Baddi - HPPCB",07-12-2025 08:00:00,30.943887,76.801991,CO,50,109,78
India,Karnataka,Bengaluru,"Kasturi Nagar, Bengaluru - KSPCB",07-12-2025 08:00:00,13.003872,77.664217,NO2,29,30,30
India,Karnataka,Bengaluru,"Kasturi Nagar, Bengaluru - KSPCB",07-12-2025 08:00:00,13.003872,77.664217,NH3,2,3,2
India,Karnataka,Bengaluru,"Kasturi Nagar, Bengaluru - KSPCB",07-12-2025 08:00:00,13.003872,77.664217,CO,43,66,54
India,Karnataka,Bengaluru,"RVCE-Mailasandra, Bengaluru - KSPCB",07-12-2025 08:00:00,12.921418,77.502466,PM10,NA,NA,NA
India,Karnataka,Bengaluru,"RVCE-Mailasandra, Bengaluru - KSPCB",07-12-2025 08:00:00,12.921418,77.502466,SO2,NA,NA,NA
India,Haryana,Jind,"Police Lines, Jind - HSPCB",07-12-2025 08:00:00,29.307814,76.337619,OZONE,27,58,34
India,Haryana,Kurukshetra,"Sector-7, Kurukshetra - HSPCB",07-12-2025 08:00:00,29.966942,76.875879,SO2,3,13,7
India,Karnataka,Bengaluru,"Jigani, Bengaluru - KSPCB",07-12-2025 08:00:00,12.7816279,77.6299145,NH3,4,5,4
India,Karnataka,Bengaluru,"Jigani, Bengaluru - KSPCB",07-12-2025 08:00:00,12.7816279,77.6299145,CO,28,43,43
India,Madhya Pradesh,Gwalior,"Deen Dayal Nagar, Gwalior - MPPCB",07-12-2025 08:00:00,26.259242,78.216432,NO2,16,135,55
India,Madhya Pradesh,Gwalior,"Deen Dayal Nagar, Gwalior - MPPCB",07-12-2025 08:00:00,26.259242,78.216432,NH3,5,11,7
India,Madhya Pradesh,Gwalior,"Deen Dayal Nagar, Gwalior - MPPCB",07-12-2025 08:00:00,26.259242,78.216432,CO,16,130,41
India,Madhya Pradesh,Indore,"Airport Area, Indore - IMC",07-12-2025 08:00:00,22.7289,75.8076,PM10,49,123,82
India,Madhya Pradesh,Indore,"Airport Area, Indore - IMC",07-12-2025 08:00:00,22.7289,75.8076,NO2,2,3,2
India,Madhya Pradesh,Indore,"Chhoti Gwaltoli, Indore - MPPCB",07-12-2025 08:00:00,22.4310,75.5213,PM2.5,62,149,88
India,Madhya Pradesh,Indore,"Chhoti Gwaltoli, Indore - MPPCB",07-12-2025 08:00:00,22.4310,75.5213,NO2,43,148,98
India,Madhya Pradesh,Indore,"Chhoti Gwaltoli, Indore - MPPCB",07-12-2025 08:00:00,22.4310,75.5213,CO,22,106,41
India,Madhya Pradesh,Indore,"Maguda Nagar, Indore - IMC",07-12-2025 08:00:00,22.7524,75.8872,PM2.5,45,100,66
India,Kerala,Kannur,"Thavakkara, Kannur - Kerala PCB",07-12-2025 08:00:00,11.875000,75.373200,PM10,58,60,58
India,Kerala,Kannur,"Thavakkara, Kannur - Kerala PCB",07-12-2025 08:00:00,11.875000,75.373200,NO2,15,17,16
India,Kerala,Kollam,"Polayathode, Kollam - Kerala PCB",07-12-2025 08:00:00,8.8787,76.6073,OZONE,31,35,32
India,Kerala,Thiruvananthapuram,"Kariavattom, Thiruvananthapuram - Kerala PCB",07-12-2025 08:00:00,8.563700,76.886500,NO2,6,13,8
India,Kerala,Thiruvananthapuram,"Kariavattom, Thiruvananthapuram - Kerala PCB",07-12-2025 08:00:00,8.563700,76.886500,OZONE,36,37,36
India,Kerala,Thiruvananthapuram,"Plammoodu, Thiruvananthapuram - Kerala PCB",07-12-2025 08:00:00,8.5149093,76.9435879,PM2.5,29,50,37
India,Kerala,Thiruvananthapuram,"Plammoodu, Thiruvananthapuram - Kerala PCB",07-12-2025 08:00:00,8.5149093,76.9435879,PM10,43,75,55
India,Kerala,Thiruvananthapuram,"Plammoodu, Thiruvananthapuram - Kerala PCB",07-12-2025 08:00:00,8.5149093,76.9435879,SO2,7,22,15
India,Kerala,Thrissur,"Corporation Ground, Thrissur - Kerala PCB",07-12-2025 08:00:00,10.532400,76.215900,PM2.5,NA,NA,NA
