country,state,city,station,last_update,latitude,longitude,pollutant_id,min_value,max_value,avg_value
India,Assam,Sivasagar,"Girls College, Sivasagar - PCBA",07-01-2026 08:00:00,26.987634,94.636574,NO2,22,37,29
India,Bihar,Araria,"Kharahiya Basti, Araria - BSPCB",07-01-2026 08:00:00,26.146529,87.454184,PM2.5,20,408,190
India,Bihar,Arrah,"New DM Office, Arrah - BSPCB",07-01-2026 08:00:00,25.5626095,84.663264,PM2.5,130,310,199
India,Bihar,Arrah,"New DM Office, Arrah - BSPCB",07-01-2026 08:00:00,25.5626095,84.663264,PM10,86,145,108
India,Bihar,Arrah,"New DM Office, Arrah - BSPCB",07-01-2026 08:00:00,25.5626095,84.663264,NO2,5,9,7
India,Bihar,Arrah,"New DM Office, Arrah - BSPCB",07-01-2026 08:00:00,25.5626095,84.663264,NH3,1,1,1
India,Andhra_Pradesh,Visakhapatnam,"GVM Corporation, Visakhapatnam - APPCB",07-01-2026 08:00:00,17.72,83.3,CO,37,75,41
India,Arunachal_Pradesh,Naharlagun,"Naharlagun, Naharlagun - APSPCB",07-01-2026 08:00:00,27.103358,93.679645,PM2.5,37,355,146
India,Assam,Byrnihat,"Central Academy for SFS, Byrnihat - PCBA",07-01-2026 08:00:00,26.071318,91.87488,PM10,75,132,88
India,Assam,Guwahati,"LGBI Airport, Guwahati - PCBA",07-01-2026 08:00:00,26.10887,91.589544,PM2.5,42,144,88
India,Bihar,Bettiah,"Kamalnath Nagar, Bettiah - BSPCB",07-01-2026 08:00:00,26.80365,84.51954,PM10,43,242,134
India,Bihar,Bettiah,"Kamalnath Nagar, Bettiah - BSPCB",07-01-2026 08:00:00,26.80365,84.51954,OZONE,22,24,23
India,Bihar,Bhagalpur,"DM Office_Kachari Chowk, Bhagalpur - BSPCB",07-01-2026 08:00:00,25.251013,86.989001,PM2.5,85,140,105
India,Bihar,Bhagalpur,"DM Office_Kachari Chowk, Bhagalpur - BSPCB",07-01-2026 08:00:00,25.251013,86.989001,NO2,5,12,8
India,Bihar,Bhagalpur,"DM Office_Kachari Chowk, Bhagalpur - BSPCB",07-01-2026 08:00:00,25.251013,86.989001,CO,48,72,51
India,Andhra_Pradesh,Amaravati,"Secretariat, Amaravati - APPCB",07-01-2026 08:00:00,16.5150833,80.5181667,OZONE,21,52,34
India,Andhra_Pradesh,Chittoor,"Gangineni Cheruvu, Chittoor - APPCB",07-01-2026 08:00:00,13.204880,79.097889,PM10,35,126,63
India,Andhra_Pradesh,Chittoor,"Gangineni Cheruvu, Chittoor - APPCB",07-01-2026 08:00:00,13.204880,79.097889,NO2,39,42,41
India,Andhra_Pradesh,Kadapa,"Yerramukkapalli, Kadapa - APPCB",07-01-2026 08:00:00,14.465052,78.824187,PM2.5,56,242,136
India,Andhra_Pradesh,Rajamahendravaram,"Anand Kala Kshetram, Rajamahendravaram - APPCB",07-01-2026 08:00:00,16.9872867,81.7363176,PM10,116,169,147
India,Andhra_Pradesh,Rajamahendravaram,"Anand Kala Kshetram, Rajamahendravaram - APPCB",07-01-2026 08:00:00,16.9872867,81.7363176,NH3,3,5,4
India,Andhra_Pradesh,Tirumala,"Toll Gate, Tirumala - APPCB",07-01-2026 08:00:00,13.67,79.35,PM10,102,131,113
India,Andhra_Pradesh,Tirumala,"Toll Gate, Tirumala - APPCB",07-01-2026 08:00:00,13.67,79.35,NO2,9,20,14
India,Andhra_Pradesh,Vijayawada,"Rajiv Nagar, Vijayawada - APPCB",07-01-2026 08:00:00,16.554731,80.649110,NO2,19,32,25
India,Andhra_Pradesh,Vijayawada,"Rajiv Nagar, Vijayawada - APPCB",07-01-2026 08:00:00,16.554731,80.649110,NH3,4,5,4
India,Andhra_Pradesh,Visakhapatnam,"GVM Corporation, Visakhapatnam - APPCB",07-01-2026 08:00:00,17.72,83.3,PM10,135,175,155
India,Andaman and Nicobar,Sri Vijaya Puram,"Police Line, Sri Vijaya Puram - ANPCC",07-01-2026 08:00:00,11.654054,92.734055,NH3,NA,NA,NA
India,Andaman and Nicobar,Sri Vijaya Puram,"Police Line, Sri Vijaya Puram - ANPCC",07-01-2026 08:00:00,11.654054,92.734055,SO2,NA,NA,NA
India,Andhra_Pradesh,Amaravati,"Secretariat, Amaravati - APPCB",07-01-2026 08:00:00,16.5150833,80.5181667,SO2,4,24,16
India,Assam,Nagaon,"Christianpatty, Nagaon - PCBA",07-01-2026 08:00:00,26.349082,92.68449,NH3,4,4,4
India,Assam,Nalbari,"Bata Chowk, Nalbari - PCBA",07-01-2026 08:00:00,26.446912,91.439057,NO2,14,15,14
India,Assam,Nalbari,"Bata Chowk, Nalbari - PCBA",07-01-2026 08:00:00,26.446912,91.439057,CO,20,22,21
India,Andhra_Pradesh,Vijayawada,"Kanuru, Vijayawada - APPCB",07-01-2026 08:00:00,16.486692,80.699436,CO,44,57,53
India,Andhra_Pradesh,Vijayawada,"Kanuru, Vijayawada - APPCB",07-01-2026 08:00:00,16.486692,80.699436,OZONE,23,39,23
India,Assam,Guwahati,"LGBI Airport, Guwahati - PCBA",07-01-2026 08:00:00,26.10887,91.589544,SO2,6,17,12
India,Bihar,Gaya,"SFTI Kusdihra, Gaya - BSPCB",07-01-2026 08:00:00,24.762518,84.982348,OZONE,10,52,12
India,Bihar,Hajipur,"Industrial Area, Hajipur - BSPCB",07-01-2026 08:00:00,25.697189,85.245900,PM10,76,139,110
India,Bihar,Hajipur,"Industrial Area, Hajipur - BSPCB",07-01-2026 08:00:00,25.697189,85.245900,SO2,6,9,8
India,Bihar,Katihar,"Mirchaibari, Katihar - BSPCB",07-01-2026 08:00:00,25.560083,87.553265,OZONE,NA,NA,NA
India,Bihar,Kishanganj,"SDM Office_Khagra, Kishanganj - BSPCB",07-01-2026 08:00:00,26.0881305,87.93840336,PM2.5,27,80,58
India,Bihar,Kishanganj,"SDM Office_Khagra, Kishanganj - BSPCB",07-01-2026 08:00:00,26.0881305,87.93840336,NH3,3,3,3
India,Bihar,Kishanganj,"SDM Office_Khagra, Kishanganj - BSPCB",07-01-2026 08:00:00,26.0881305,87.93840336,SO2,6,9,7
India,Bihar,Muzaffarpur,"Muzaffarpur Collectorate, Muzaffarpur - BSPCB",07-01-2026 08:00:00,26.1209,85.3647,OZONE,8,19,8
India,Bihar,Patna,"DRM Office Danapur, Patna - BSPCB",07-01-2026 08:00:00,25.586562,85.043586,PM10,115,328,152
India,Bihar,Patna,"DRM Office Danapur, Patna - BSPCB",07-01-2026 08:00:00,25.586562,85.043586,OZONE,23,53,41
India,Bihar,Patna,"Govt. High School Shikarpur, Patna - BSPCB",07-01-2026 08:00:00,25.592539,85.227158,PM2.5,96,97,97
India,Bihar,Patna,"Govt. High School Shikarpur, Patna - BSPCB",07-01-2026 08:00:00,25.592539,85.227158,OZONE,8,13,10
India,Bihar,Patna,"IGSC Planetarium Complex, Patna - BSPCB",07-01-2026 08:00:00,25.610369,85.132568,NO2,NA,NA,NA
India,Bihar,Bhagalpur,"DM Office_Kachari Chowk, Bhagalpur - BSPCB",07-01-2026 08:00:00,25.251013,86.989001,OZONE,13,24,18
India,Bihar,Bhagalpur,"Mayaganj, Bhagalpur - BSPCB",07-01-2026 08:00:00,25.265194,87.012947,SO2,49,59,54
India,Bihar,Bhagalpur,"Mayaganj, Bhagalpur - BSPCB",07-01-2026 08:00:00,25.265194,87.012947,OZONE,23,67,36
India,Bihar,Buxar,"Charitra Van, Buxar - BSPCB",07-01-2026 08:00:00,25.567520,83.966379,PM10,80,119,99
India,Bihar,Buxar,"Charitra Van, Buxar - BSPCB",07-01-2026 08:00:00,25.567520,83.966379,NH3,3,3,3
India,Bihar,Buxar,"Charitra Van, Buxar - BSPCB",07-01-2026 08:00:00,25.567520,83.966379,SO2,1,20,12
India,Bihar,Chhapra,"Darshan Nagar, Chhapra - BSPCB",07-01-2026 08:00:00,25.7808257,84.7446768,SO2,27,32,30
India,Bihar,Chhapra,"Darshan Nagar, Chhapra - BSPCB",07-01-2026 08:00:00,25.7808257,84.7446768,OZONE,14,23,16
India,Bihar,Gaya,"Collectorate, Gaya - BSPCB",07-01-2026 08:00:00,24.7955,84.9994,NO2,9,9,9
India,Bihar,Gaya,"Collectorate, Gaya - BSPCB",07-01-2026 08:00:00,24.7955,84.9994,SO2,6,8,7
India,Bihar,Gaya,"SFTI Kusdihra, Gaya - BSPCB",07-01-2026 08:00:00,24.762518,84.982348,NH3,3,5,4
India,Bihar,Rajgir,"Dangi Tola, Rajgir - BSPCB",07-01-2026 08:00:00,25.03280,85.41948,NH3,NA,NA,NA
India,Bihar,Rajgir,"Dangi Tola, Rajgir - BSPCB",07-01-2026 08:00:00,25.03280,85.41948,OZONE,NA,NA,NA
India,Bihar,Saharsa,"Police Line, Saharsa - BSPCB",07-01-2026 08:00:00,25.892357,86.590325,OZONE,9,13,10
India,Bihar,Samastipur,"DM Office_Kasipur, Samastipur - BSPCB",07-01-2026 08:00:00,25.859655,85.77944,PM10,38,210,121
India,Bihar,Motihari,"Gandak Colony, Motihari - BSPCB",07-01-2026 08:00:00,26.63086,84.90051,PM10,36,176,107
India,Bihar,Munger,"Town Hall, Munger - BSPCB",07-01-2026 08:00:00,25.376776,86.471523,NH3,4,9,6
India,Bihar,Muzaffarpur,"Buddha Colony, Muzaffarpur - BSPCB",07-01-2026 08:00:00,26.11442,85.39813,SO2,3,13,7
India,Bihar,Patna,"Muradpur, Patna - BSPCB",07-01-2026 08:00:00,25.619651,85.147382,PM10,93,152,117
India,Bihar,Patna,"Muradpur, Patna - BSPCB",07-01-2026 08:00:00,25.619651,85.147382,NH3,4,5,4
India,Bihar,Patna,"Muradpur, Patna - BSPCB",07-01-2026 08:00:00,25.619651,85.147382,SO2,8,9,8
India,Bihar,Patna,"Rajbansi Nagar, Patna - BSPCB",07-01-2026 08:00:00,25.599486,85.113666,NO2,6,178,70
India,Bihar,Purnia,"Mariam Nagar, Purnia - BSPCB",07-01-2026 08:00:00,25.366336,87.117468,SO2,15,21,17
India,Bihar,Purnia,"Mariam Nagar, Purnia - BSPCB",07-01-2026 08:00:00,25.366336,87.117468,OZONE,20,42,22
India,Bihar,Rajgir,"Dangi Tola, Rajgir - BSPCB",07-01-2026 08:00:00,25.03280,85.41948,NO2,NA,NA,NA
India,Bihar,Sasaram,"Dada Peer, Sasaram - BSPCB",07-01-2026 08:00:00,24.952822,84.002396,SO2,2,5,4
India,Chhattisgarh,Bhilai,"Civic Center, Bhilai - Bhilai Steel Plant",07-01-2026 08:00:00,21.185571,81.343175,PM10,25,108,60
India,Chhattisgarh,Bhilai,"Civic Center, Bhilai - Bhilai Steel Plant",07-01-2026 08:00:00,21.185571,81.343175,SO2,6,11,8
India,Chhattisgarh,Bhilai,"Civic Center, Bhilai - Bhilai Steel Plant",07-01-2026 08:00:00,21.185571,81.343175,CO,28,30,29
India,Chhattisgarh,Bhilai,"Civic Center, Bhilai - Bhilai Steel Plant",07-01-2026 08:00:00,21.185571,81.343175,OZONE,2,13,11
India,Chhattisgarh,Bhilai,"Hathkhoj, Bhilai - CECB",07-01-2026 08:00:00,21.224231,81.408350,PM2.5,25,70,52
India,Chhattisgarh,Bhilai,"Hathkhoj, Bhilai - CECB",07-01-2026 08:00:00,21.224231,81.408350,PM10,26,78,60
India,Chhattisgarh,Bilaspur,"Mangala, Bilaspur - NTPC",07-01-2026 08:00:00,22.08815,82.13737,PM2.5,44,137,75
India,Chhattisgarh,Chhal,"Nawapara SECL Colony, Chhal - CECB",07-01-2026 08:00:00,22.118125,83.140608,PM10,26,198,75
India,Chhattisgarh,Chhal,"Nawapara SECL Colony, Chhal - CECB",07-01-2026 08:00:00,22.118125,83.140608,NO2,13,27,18
India,Delhi,Delhi,"Alipur, Delhi - DPCC",07-01-2026 08:00:00,28.815329,77.153010,PM2.5,213,321,283
India,Delhi,Delhi,"Alipur, Delhi - DPCC",07-01-2026 08:00:00,28.815329,77.153010,PM10,135,241,171
India,Delhi,Delhi,"Alipur, Delhi - DPCC",07-01-2026 08:00:00,28.815329,77.153010,SO2,1,10,5
India,Delhi,Delhi,"Anand Vihar, Delhi - DPCC",07-01-2026 08:00:00,28.647622,77.3158090,PM10,164,430,266
India,Delhi,Delhi,"Anand Vihar, Delhi - DPCC",07-01-2026 08:00:00,28.647622,77.3158090,NH3,6,9,7
India,Delhi,Delhi,"Anand Vihar, Delhi - DPCC",07-01-2026 08:00:00,28.647622,77.3158090,CO,25,76,32
India,Delhi,Delhi,"Ashok Vihar, Delhi - DPCC",07-01-2026 08:00:00,28.695381,77.181665,PM10,144,251,203
India,Chhattisgarh,Chhal,"Nawapara SECL Colony, Chhal - CECB",07-01-2026 08:00:00,22.118125,83.140608,OZONE,3,91,6
India,Chhattisgarh,Korba,"Urja Nagar, Korba - CECB",07-01-2026 08:00:00,22.348441,82.549611,CO,26,58,29
India,Chhattisgarh,Korba,"Urja Nagar, Korba - CECB",07-01-2026 08:00:00,22.348441,82.549611,OZONE,28,29,29
India,Chhattisgarh,Kunjemura,"OP Jindal School, Kunjemura - CECB",07-01-2026 08:00:00,22.126650,83.483212,PM2.5,25,54,40
India,Chhattisgarh,Kunjemura,"OP Jindal School, Kunjemura - CECB",07-01-2026 08:00:00,22.126650,83.483212,NO2,15,75,38
India,Chhattisgarh,Kunjemura,"OP Jindal School, Kunjemura - CECB",07-01-2026 08:00:00,22.126650,83.483212,CO,16,44,41
India,Chhattisgarh,Kunjemura,"OP Jindal School, Kunjemura - CECB",07-01-2026 08:00:00,22.126650,83.483212,OZONE,1,56,1
India,Chhattisgarh,Milupara,"Govt. Higher Secondary School, Milupara - CECB",07-01-2026 08:00:00,22.1910172,83.5197009,NO2,20,53,31
India,Chhattisgarh,Milupara,"Govt. Higher Secondary School, Milupara - CECB",07-01-2026 08:00:00,22.1910172,83.5197009,SO2,13,20,15
India,Chhattisgarh,Milupara,"Govt. Higher Secondary School, Milupara - CECB",07-01-2026 08:00:00,22.1910172,83.5197009,CO,12,67,33
India,Chhattisgarh,Raipur,"AIIMS, Raipur - CECB",07-01-2026 08:00:00,21.258815,81.578979,NH3,3,4,4
India,Chandigarh,Chandigarh,"Sector 22, Chandigarh - CPCC",07-01-2026 08:00:00,30.735567,76.775714,NH3,17,20,18
India,Chandigarh,Chandigarh,"Sector-25, Chandigarh - CPCC",07-01-2026 08:00:00,30.751462,76.762879,CO,22,30,24
India,Chandigarh,Chandigarh,"Sector-53, Chandigarh - CPCC",07-01-2026 08:00:00,30.719859,76.738637,CO,47,59,50
India,Chandigarh,Chandigarh,"Sector-53, Chandigarh - CPCC",07-01-2026 08:00:00,30.719859,76.738637,OZONE,4,24,14
India,Chhattisgarh,Bhilai,"32Bungalows, Bhilai - CECB",07-01-2026 08:00:00,21.194815,81.314770,NO2,24,87,50
India,Chhattisgarh,Raipur,"AIIMS, Raipur - CECB",07-01-2026 08:00:00,21.258815,81.578979,SO2,3,14,7
India,Chhattisgarh,Raipur,"Bhatagaon New ISBT, Raipur - CECB",07-01-2026 08:00:00,21.219665,81.630094,SO2,5,16,8
India,Chhattisgarh,Raipur,"Krishak Nagar, Raipur - CECB",07-01-2026 08:00:00,21.237755,81.705301,PM10,43,111,62
India,Chhattisgarh,Raipur,"Siltara Phase-II, Raipur - CECB",07-01-2026 08:00:00,21.371751,81.664929,PM10,42,161,100
India,Chhattisgarh,Raipur,"Siltara Phase-II, Raipur - CECB",07-01-2026 08:00:00,21.371751,81.664929,NH3,2,2,2
India,Delhi,Delhi,"CRRI Mathura Road, Delhi - IMD",07-01-2026 08:00:00,28.5512005,77.2735737,OZONE,10,32,14
India,Delhi,Delhi,"Chandni Chowk, Delhi - IITM",07-01-2026 08:00:00,28.656756,77.227234,SO2,20,46,36
India,Delhi,Delhi,"DTU, Delhi - CPCB",07-01-2026 08:00:00,28.7500499,77.1112615,NO2,46,61,58
India,Delhi,Delhi,"DTU, Delhi - CPCB",07-01-2026 08:00:00,28.7500499,77.1112615,NH3,5,11,5
India,Bihar,Siwan,"Chitragupta Nagar, Siwan - BSPCB",07-01-2026 08:00:00,26.2271665,84.3570427,NO2,1,6,2
India,Bihar,Siwan,"Chitragupta Nagar, Siwan - BSPCB",07-01-2026 08:00:00,26.2271665,84.3570427,NH3,1,2,1
India,Bihar,Siwan,"Chitragupta Nagar, Siwan - BSPCB",07-01-2026 08:00:00,26.2271665,84.3570427,CO,72,116,78
India,Delhi,Delhi,"Ashok Vihar, Delhi - DPCC",07-01-2026 08:00:00,28.695381,77.181665,NO2,18,58,38
India,Delhi,Delhi,"Aya Nagar, Delhi - IMD",07-01-2026 08:00:00,28.4706914,77.1099364,OZONE,9,27,21
India,Delhi,Delhi,"Shadipur, Delhi - CPCB",07-01-2026 08:00:00,28.6514781,77.1473105,NH3,6,19,12
India,Delhi,Delhi,"Shadipur, Delhi - CPCB",07-01-2026 08:00:00,28.6514781,77.1473105,SO2,8,15,11
India,Delhi,Delhi,"Sirifort, Delhi - CPCB",07-01-2026 08:00:00,28.5504249,77.2159377,PM10,155,295,224
India,Delhi,Delhi,"Sirifort, Delhi - CPCB",07-01-2026 08:00:00,28.5504249,77.2159377,NH3,2,42,16
India,Delhi,Delhi,"Sonia Vihar, Delhi - DPCC",07-01-2026 08:00:00,28.710508,77.249485,NO2,22,44,32
India,Delhi,Delhi,"Sonia Vihar, Delhi - DPCC",07-01-2026 08:00:00,28.710508,77.249485,NH3,9,12,10
India,Delhi,Delhi,"Dwarka-Sector 8, Delhi - DPCC ",07-01-2026 08:00:00,28.5710274,77.0719006,PM2.5,260,388,331
India,Delhi,Delhi,"IHBAS, Dilshad Garden, Delhi - CPCB",07-01-2026 08:00:00,28.6811736,77.3025234,PM2.5,217,408,308
India,Delhi,Delhi,"IHBAS, Dilshad Garden, Delhi - CPCB",07-01-2026 08:00:00,28.6811736,77.3025234,PM10,156,224,196
India,Delhi,Delhi,"IHBAS, Dilshad Garden, Delhi - CPCB",07-01-2026 08:00:00,28.6811736,77.3025234,NH3,14,18,16
India,Delhi,Delhi,"IIT Delhi, Delhi - IITM",07-01-2026 08:00:00,28.542460,77.191651,NO2,38,77,58
India,Delhi,Delhi,"Mundka, Delhi - DPCC",07-01-2026 08:00:00,28.684678,77.076574,PM10,142,257,198
India,Delhi,Delhi,"Mundka, Delhi - DPCC",07-01-2026 08:00:00,28.684678,77.076574,SO2,8,11,9
India,Delhi,Delhi,"NSIT Dwarka, Delhi - CPCB",07-01-2026 08:00:00,28.60909,77.0325413,NO2,32,77,54
India,Delhi,Delhi,"Najafgarh, Delhi - DPCC",07-01-2026 08:00:00,28.570173,76.933762,NO2,91,106,98
India,Delhi,Delhi,"Najafgarh, Delhi - DPCC",07-01-2026 08:00:00,28.570173,76.933762,CO,28,108,42
India,Delhi,Delhi,"Sri Aurobindo Marg, Delhi - DPCC",07-01-2026 08:00:00,28.531346,77.190156,NH3,3,10,7
India,Delhi,Delhi,"Sri Aurobindo Marg, Delhi - DPCC",07-01-2026 08:00:00,28.531346,77.190156,CO,20,76,25
India,Delhi,Delhi,"Vivek Vihar, Delhi - DPCC",07-01-2026 08:00:00,28.672342,77.315260,SO2,4,11,7
India,Delhi,Delhi,"Wazirpur, Delhi - DPCC",07-01-2026 08:00:00,28.699793,77.165453,NO2,84,125,107
India,Delhi,Delhi,"Wazirpur, Delhi - DPCC",07-01-2026 08:00:00,28.699793,77.165453,NH3,9,11,10
India,Delhi,Delhi,"ITO, Delhi - CPCB",07-01-2026 08:00:00,28.628624,77.241060,PM10,125,229,178
India,Delhi,Delhi,"Jahangirpuri, Delhi - DPCC",07-01-2026 08:00:00,28.732820,77.170633,NH3,8,10,9
India,Delhi,Delhi,"Jahangirpuri, Delhi - DPCC",07-01-2026 08:00:00,28.732820,77.170633,SO2,2,23,13
India,Delhi,Delhi,"Jawaharlal Nehru Stadium, Delhi - DPCC",07-01-2026 08:00:00,28.580280,77.233829,NH3,15,18,16
India,Delhi,Delhi,"Patparganj, Delhi - DPCC",07-01-2026 08:00:00,28.623763,77.287209,SO2,8,13,11
India,Delhi,Delhi,"Patparganj, Delhi - DPCC",07-01-2026 08:00:00,28.623763,77.287209,CO,36,74,40
India,Delhi,Delhi,"R K Puram, Delhi - DPCC",07-01-2026 08:00:00,28.563262,77.186937,PM10,138,265,195
India,Delhi,Delhi,"Jawaharlal Nehru Stadium, Delhi - DPCC",07-01-2026 08:00:00,28.580280,77.233829,SO2,6,13,10
India,Delhi,Delhi,"Lodhi Road, Delhi - IMD",07-01-2026 08:00:00,28.5918245,77.2273074,PM2.5,135,351,252
India,Delhi,Delhi,"Rohini, Delhi - DPCC",07-01-2026 08:00:00,28.732528,77.119920,PM10,134,285,180
India,Delhi,Delhi,"Shadipur, Delhi - CPCB",07-01-2026 08:00:00,28.6514781,77.1473105,PM2.5,82,306,153
India,Delhi,Delhi,"Nehru Nagar, Delhi - DPCC",07-01-2026 08:00:00,28.567890,77.250515,CO,77,126,110
India,Gujarat,Vatva,"Phase-4 GIDC, Vatva - GPCB",07-01-2026 08:00:00,22.969611,72.643500,PM10,106,275,154
India,Gujarat,Vatva,"Phase-4 GIDC, Vatva - GPCB",07-01-2026 08:00:00,22.969611,72.643500,OZONE,18,44,23
India,Haryana,Ambala,"Patti Mehar, Ambala - HSPCB",07-01-2026 08:00:00,30.379589,76.778328,OZONE,12,39,12
India,Haryana,Bahadurgarh,"Arya Nagar, Bahadurgarh - HSPCB",07-01-2026 08:00:00,28.6701,76.9254,NO2,12,14,13
India,Haryana,Bahadurgarh,"Arya Nagar, Bahadurgarh - HSPCB",07-01-2026 08:00:00,28.6701,76.9254,NH3,12,13,13
India,Haryana,Ballabgarh,"Nathu Colony, Ballabgarh - HSPCB",07-01-2026 08:00:00,28.3419248,77.319699,PM10,140,211,176
India,Haryana,Dharuhera,"Municipal Corporation Office, Dharuhera -  HSPCB",07-01-2026 08:00:00,28.206800,76.799700,NO2,11,40,29
India,Haryana,Dharuhera,"Municipal Corporation Office, Dharuhera -  HSPCB",07-01-2026 08:00:00,28.206800,76.799700,SO2,NA,NA,NA
India,Haryana,Faridabad,"New Industrial Town, Faridabad - HSPCB",07-01-2026 08:00:00,28.39072,77.30059,OZONE,23,34,29
India,Haryana,Faridabad,"Sector 11, Faridabad - HSPCB",07-01-2026 08:00:00,28.376058,77.315741,PM10,113,179,140
India,Gujarat,Gandhinagar,"IIPHG Lekawada, Gandhinagar - IITM",07-01-2026 08:00:00,23.243639,72.68994,NH3,1,1,1
India,Gujarat,Gandhinagar,"Sector-10, Gandhinagar - GPCB",07-01-2026 08:00:00,23.221714,72.654328,SO2,7,17,12
India,Gujarat,Surat,"Science Center, Surat - SMC",07-01-2026 08:00:00,21.170046,72.795405,NO2,16,16,16
India,Gujarat,Surat,"Science Center, Surat - SMC",07-01-2026 08:00:00,21.170046,72.795405,SO2,30,34,32
India,Gujarat,Ahmedabad,"Rakhial, Ahmedabad - IITM",07-01-2026 08:00:00,23.016834,72.625775,PM10,70,177,122
India,Gujarat,Ahmedabad,"Rakhial, Ahmedabad - IITM",07-01-2026 08:00:00,23.016834,72.625775,NH3,4,16,7
India,Gujarat,Ahmedabad,"SAC ISRO Bopal, Ahmedabad - IITM",07-01-2026 08:00:00,23.041137,72.456691,PM10,60,187,125
India,Gujarat,Ahmedabad,"SAC ISRO Satellite, Ahmedabad - IITM",07-01-2026 08:00:00,23.023389,72.515201,PM2.5,57,159,79
India,Haryana,Fatehabad,"Huda Sector, Fatehabad - HSPCB",07-01-2026 08:00:00,29.503664,75.467934,CO,25,36,28
India,Haryana,Gurugram,"Sector-51, Gurugram - HSPCB",07-01-2026 08:00:00,28.4227,77.0667,PM2.5,307,465,353
India,Haryana,Gurugram,"Sector-51, Gurugram - HSPCB",07-01-2026 08:00:00,28.4227,77.0667,PM10,161,436,235
India,Haryana,Gurugram,"Sector-51, Gurugram - HSPCB",07-01-2026 08:00:00,28.4227,77.0667,NO2,6,15,9
India,Haryana,Ballabgarh,"Nathu Colony, Ballabgarh - HSPCB",07-01-2026 08:00:00,28.3419248,77.319699,NH3,3,3,3
India,Haryana,Charkhi Dadri,"Mini Secretariat, Charkhi Dadri - HSPCB",07-01-2026 08:00:00,28.593883,76.270653,NH3,5,8,6
India,Gujarat,Ahmedabad,"Gyaspur, Ahmedabad - IITM",07-01-2026 08:00:00,22.977134,72.553024,NH3,3,51,15
India,Gujarat,Ahmedabad,"Raikhad, Ahmedabad - IITM",07-01-2026 08:00:00,23.020509,72.579261,NO2,11,77,36
India,Gujarat,Ahmedabad,"Chandkheda, Ahmedabad - IITM",07-01-2026 08:00:00,23.107969,72.574648,PM2.5,49,297,113
India,Gujarat,Ahmedabad,"Chandkheda, Ahmedabad - IITM",07-01-2026 08:00:00,23.107969,72.574648,NO2,14,88,38
India,Gujarat,Vapi,"Phase-1 GIDC, Vapi - GPCB",07-01-2026 08:00:00,20.362421,72.918013,SO2,13,31,19
India,Haryana,Rohtak,"MD University, Rohtak - HSPCB",07-01-2026 08:00:00,28.52123,76.37138,NO2,11,13,11
India,Haryana,Rohtak,"MD University, Rohtak - HSPCB",07-01-2026 08:00:00,28.52123,76.37138,CO,31,38,34
India,Haryana,Rohtak,"MD University, Rohtak - HSPCB",07-01-2026 08:00:00,28.52123,76.37138,OZONE,39,40,39
India,Haryana,Sirsa,"F-Block, Sirsa - HSPCB",07-01-2026 08:00:00,29.536400,75.015800,PM10,58,111,91
India,Haryana,Sonipat,"Murthal, Sonipat - HSPCB",07-01-2026 08:00:00,29.027200,77.062100,PM2.5,53,293,148
India,Haryana,Sonipat,"Murthal, Sonipat - HSPCB",07-01-2026 08:00:00,29.027200,77.062100,NH3,29,60,43
India,Haryana,Jind,"Police Lines, Jind - HSPCB",07-01-2026 08:00:00,29.307814,76.337619,NO2,36,54,42
India,Haryana,Jind,"Police Lines, Jind - HSPCB",07-01-2026 08:00:00,29.307814,76.337619,NH3,1,2,2
India,Haryana,Jind,"Police Lines, Jind - HSPCB",07-01-2026 08:00:00,29.307814,76.337619,SO2,1,1,1
India,Haryana,Kaithal,"Rishi Nagar, Kaithal - HSPCB",07-01-2026 08:00:00,29.8006,76.4155,NO2,30,33,31
India,Haryana,Karnal,"Sector-12, Karnal - HSPCB",07-01-2026 08:00:00,29.695300,77.002700,NO2,6,7,6
India,Haryana,Karnal,"Sector-12, Karnal - HSPCB",07-01-2026 08:00:00,29.695300,77.002700,NH3,6,7,6
India,Haryana,Palwal,"Shyam Nagar, Palwal - HSPCB",07-01-2026 08:00:00,28.1485564,77.3320667,OZONE,15,16,16
India,Haryana,Panchkula,"Sector-6, Panchkula - HSPCB ",07-01-2026 08:00:00,30.7057778,76.8531805555555,NO2,24,27,25
India,Haryana,Panipat,"Sector-18, Panipat - HSPCB",07-01-2026 08:00:00,29.432304,76.972765,PM10,149,241,176
India,Haryana,Panipat,"Sector-18, Panipat - HSPCB",07-01-2026 08:00:00,29.432304,76.972765,NH3,2,3,3
India,Haryana,Kurukshetra,"Sector-7, Kurukshetra - HSPCB",07-01-2026 08:00:00,29.966942,76.875879,NH3,5,5,5
India,Haryana,Mandikhera,"General Hospital, Mandikhera(Nuh) - HSPCB",07-01-2026 08:00:00,27.9002,76.9938,NH3,12,14,13
India,Haryana,Mandikhera,"General Hospital, Mandikhera(Nuh) - HSPCB",07-01-2026 08:00:00,27.9002,76.9938,SO2,31,38,34
India,Haryana,Manesar,"Sector-2 IMT, Manesar - HSPCB",07-01-2026 08:00:00,28.360699,76.936090,NO2,28,35,32
India,Haryana,Gurugram,"Teri Gram, Gurugram - HSPCB",07-01-2026 08:00:00,28.4275,77.1465,SO2,NA,NA,NA
India,Haryana,Gurugram,"Vikas Sadan, Gurugram - HSPCB",07-01-2026 08:00:00,28.4501238,77.0263051,PM2.5,196,320,287
India,Haryana,Gurugram,"Vikas Sadan, Gurugram - HSPCB",07-01-2026 08:00:00,28.4501238,77.0263051,OZONE,3,24,8
India,Haryana,Hisar,"Urban Estate-II, Hisar - HSPCB",07-01-2026 08:00:00,29.140560,75.744941,NO2,NA,NA,NA
India,Jharkhand,Dhanbad,"Sardar Patel Nagar, Dhanbad - JSPCB",07-01-2026 08:00:00,23.80569,86.44268,NO2,50,65,51
India,Jharkhand,Dhanbad,"Sardar Patel Nagar, Dhanbad - JSPCB",07-01-2026 08:00:00,23.80569,86.44268,OZONE,1,29,2
India,Karnataka,Bagalkot,"Vidayagiri, Bagalkot - KSPCB",07-01-2026 08:00:00,16.172806,75.659694,PM10,53,54,54
India,Haryana,Palwal,"Shyam Nagar, Palwal - HSPCB",07-01-2026 08:00:00,28.1485564,77.3320667,NO2,23,24,24
India,Haryana,Palwal,"Shyam Nagar, Palwal - HSPCB",07-01-2026 08:00:00,28.1485564,77.3320667,NH3,8,9,9
India,Jammu_and_Kashmir,Srinagar,"Rajbagh, Srinagar - JKPCC",07-01-2026 08:00:00,34.066206,74.819820,PM2.5,14,27,21
India,Haryana,Palwal,"Shyam Nagar, Palwal - HSPCB",07-01-2026 08:00:00,28.1485564,77.3320667,PM10,73,97,86
India,Karnataka,Bengaluru,"Kasturi Nagar, Bengaluru - KSPCB",07-01-2026 08:00:00,13.003872,77.664217,NH3,5,5,5
India,Karnataka,Bengaluru,"Kasturi Nagar, Bengaluru - KSPCB",07-01-2026 08:00:00,13.003872,77.664217,SO2,11,15,12
India,Karnataka,Bengaluru,"Peenya, Bengaluru - CPCB",07-01-2026 08:00:00,13.0270199,77.494094,PM2.5,18,70,36
India,Karnataka,Bengaluru,"Peenya, Bengaluru - CPCB",07-01-2026 08:00:00,13.0270199,77.494094,PM10,96,118,109
India,Karnataka,Bengaluru,"Peenya, Bengaluru - CPCB",07-01-2026 08:00:00,13.0270199,77.494094,SO2,5,18,10
India,Karnataka,Bengaluru,"Peenya, Bengaluru - CPCB",07-01-2026 08:00:00,13.0270199,77.494094,OZONE,21,21,21
India,Karnataka,Bengaluru,"RVCE-Mailasandra, Bengaluru - KSPCB",07-01-2026 08:00:00,12.921418,77.502466,NH3,2,3,3
India,Karnataka,Bengaluru,"RVCE-Mailasandra, Bengaluru - KSPCB",07-01-2026 08:00:00,12.921418,77.502466,OZONE,NA,NA,NA
India,Karnataka,Bengaluru,"Sanegurava Halli, Bengaluru - KSPCB",07-01-2026 08:00:00,12.990328,77.5431385,PM10,53,71,60
India,Karnataka,Bengaluru,"BTM Layout, Bengaluru - CPCB",07-01-2026 08:00:00,12.9135218,77.5950804,PM10,109,110,109
India,Karnataka,Bengaluru,"BTM Layout, Bengaluru - CPCB",07-01-2026 08:00:00,12.9135218,77.5950804,NO2,20,27,23
India,Karnataka,Bengaluru,"BWSSB Kadabesanahalli, Bengaluru - CPCB",07-01-2026 08:00:00,12.9352049,77.6814488,CO,27,39,37
India,Karnataka,Bengaluru,"Bapuji Nagar, Bengaluru - KSPCB",07-01-2026 08:00:00,12.951913,77.539784,PM10,113,147,128
India,Karnataka,Bengaluru,"Bapuji Nagar, Bengaluru - KSPCB",07-01-2026 08:00:00,12.951913,77.539784,NH3,2,3,2
India,Karnataka,Bengaluru,"Bapuji Nagar, Bengaluru - KSPCB",07-01-2026 08:00:00,12.951913,77.539784,OZONE,NA,NA,NA
India,Karnataka,Bengaluru,"City Railway Station, Bengaluru - KSPCB",07-01-2026 08:00:00,12.9756843,77.5660749,NO2,30,34,32
India,Karnataka,Bengaluru,"City Railway Station, Bengaluru - KSPCB",07-01-2026 08:00:00,12.9756843,77.5660749,CO,71,86,76
India,Karnataka,Bengaluru,"Hebbal, Bengaluru - KSPCB",07-01-2026 08:00:00,13.029152,77.585901,PM10,94,131,113
India,Karnataka,Bengaluru,"Hombegowda Nagar, Bengaluru - KSPCB",07-01-2026 08:00:00,12.938539,77.590100,NH3,4,5,4
India,Karnataka,Bengaluru,"Jayanagar 5th Block, Bengaluru - KSPCB",07-01-2026 08:00:00,12.920984,77.584908,NH3,1,1,1
India,Karnataka,Bengaluru,"Jayanagar 5th Block, Bengaluru - KSPCB",07-01-2026 08:00:00,12.920984,77.584908,SO2,2,27,15
India,Karnataka,Bengaluru,"Jigani, Bengaluru - KSPCB",07-01-2026 08:00:00,12.7816279,77.6299145,PM2.5,49,68,60
India,Karnataka,Tumakuru,"Thimmalapura, Tumakuru - KSPCB",07-01-2026 08:00:00,13.377516,77.099072,SO2,26,27,26
India,Karnataka,Yadgir,"Collector Office, Yadgir - KSPCB",07-01-2026 08:00:00,16.7602,77.1428,PM2.5,88,142,105
India,Karnataka,Yadgir,"Collector Office, Yadgir - KSPCB",07-01-2026 08:00:00,16.7602,77.1428,NO2,9,47,20
India,Kerala,Eloor,"Udyogamandal, Eloor - Kerala PCB",07-01-2026 08:00:00,10.073232,76.302765,NO2,6,7,7
India,Kerala,Kannur,"Thavakkara, Kannur - Kerala PCB",07-01-2026 08:00:00,11.875000,75.373200,PM2.5,43,59,54
India,Karnataka,Chikkamagaluru,"Kalyana Nagara, Chikkamagaluru - KSPCB",07-01-2026 08:00:00,13.328028,75.797056,PM10,31,70,42
India,Karnataka,Chikkamagaluru,"Kalyana Nagara, Chikkamagaluru - KSPCB",07-01-2026 08:00:00,13.328028,75.797056,NO2,19,28,24
India,Karnataka,Davanagere,"Devaraj Urs Badavane, Davanagere - KSPCB",07-01-2026 08:00:00,14.475800,75.905200,PM2.5,85,204,125
India,Karnataka,Davanagere,"Devaraj Urs Badavane, Davanagere - KSPCB",07-01-2026 08:00:00,14.475800,75.905200,PM10,NA,NA,NA
India,Karnataka,Dharwad,"Kalabhavan, Dharwad - KSPCB",07-01-2026 08:00:00,15.459706,75.008381,NH3,5,5,5
India,Karnataka,Kalaburagi,"Mahatma Basaveswar Colony, Kalaburgi - KSPCB",07-01-2026 08:00:00,17.336318,76.847397,PM2.5,28,66,45
India,Karnataka,Madikeri,"Stuart Hill, Madikeri - KSPCB",07-01-2026 08:00:00,12.415911,75.735050,PM2.5,48,70,58
India,Karnataka,Mysuru,"Hebbal 1st Stage, Mysuru - KSPCB",07-01-2026 08:00:00,12.21041,76.37376,SO2,3,9,6
India,Karnataka,Ramanagara,"Vijay Nagar, Ramanagara - KSPCB",07-01-2026 08:00:00,12.733409,77.298051,CO,27,38,31
India,Karnataka,Shivamogga,"Vinoba Nagara, Shivamogga - KSPCB",07-01-2026 08:00:00,13.940000,75.555917,NH3,3,4,4
India,Karnataka,Bengaluru,"Shivapura_Peenya, Bengaluru - KSPCB",07-01-2026 08:00:00,13.0246342,77.5080115,PM10,NA,NA,NA
India,Karnataka,Bengaluru,"Shivapura_Peenya, Bengaluru - KSPCB",07-01-2026 08:00:00,13.0246342,77.5080115,NO2,28,32,32
India,Karnataka,Bengaluru,"Shivapura_Peenya, Bengaluru - KSPCB",07-01-2026 08:00:00,13.0246342,77.5080115,SO2,7,11,9
India,Karnataka,Chamarajanagar,"Urban, Chamarajanagar - KSPCB",07-01-2026 08:00:00,11.55358,76.55521,PM2.5,17,58,34
India,Madhya Pradesh,Bhopal,"T T Nagar, Bhopal - MPPCB",07-01-2026 08:00:00,23.233584,77.400574,OZONE,26,227,60
India,Madhya Pradesh,Damoh,"Shrivastav Colony, Damoh - MPPCB",07-01-2026 08:00:00,23.81748678,79.446246,PM10,8,41,19
India,Madhya Pradesh,Dewas,"Bhopal Chauraha, Dewas - MPPCB",07-01-2026 08:00:00,22.9682591,76.064118,NO2,3,210,122
India,Madhya Pradesh,Dewas,"Bhopal Chauraha, Dewas - MPPCB",07-01-2026 08:00:00,22.9682591,76.064118,OZONE,22,32,26
India,Madhya Pradesh,Gwalior,"City Center, Gwalior - MPPCB",07-01-2026 08:00:00,26.203442,78.193251,PM10,79,162,126
India,Madhya Pradesh,Gwalior,"City Center, Gwalior - MPPCB",07-01-2026 08:00:00,26.203442,78.193251,OZONE,20,66,23
India,Madhya Pradesh,Gwalior,"Deen Dayal Nagar, Gwalior - MPPCB",07-01-2026 08:00:00,26.259242,78.216432,PM2.5,79,329,225
India,Madhya Pradesh,Gwalior,"Deen Dayal Nagar, Gwalior - MPPCB",07-01-2026 08:00:00,26.259242,78.216432,PM10,74,194,138
India,Madhya Pradesh,Mandideep,"Sector-D Industrial Area, Mandideep - MPPCB",07-01-2026 08:00:00,23.108440,77.511428,PM2.5,60,324,144
India,Madhya Pradesh,Mandideep,"Sector-D Industrial Area, Mandideep - MPPCB",07-01-2026 08:00:00,23.108440,77.511428,PM10,109,384,158
India,Madhya Pradesh,Mandideep,"Sector-D Industrial Area, Mandideep - MPPCB",07-01-2026 08:00:00,23.108440,77.511428,OZONE,4,55,9
India,Madhya Pradesh,Pithampur,"Sector-2 Industrial Area, Pithampur - MPPCB",07-01-2026 08:00:00,22.624758,75.675238,SO2,11,20,14
India,Madhya Pradesh,Ratlam,"Shasthri Nagar, Ratlam - IPCA Lab",07-01-2026 08:00:00,23.331731,75.045981,PM10,104,158,124
India,Madhya Pradesh,Indore,"Regional Park, Indore - IMC",07-01-2026 08:00:00,22.6780,75.8559,NH3,NA,NA,NA
India,Madhya Pradesh,Indore,"Regional Park, Indore - IMC",07-01-2026 08:00:00,22.6780,75.8559,CO,NA,NA,NA
India,Madhya Pradesh,Indore,"Regional Park, Indore - IMC",07-01-2026 08:00:00,22.6780,75.8559,OZONE,NA,NA,NA
India,Madhya Pradesh,Indore,"Residency Area, Indore - IMC",07-01-2026 08:00:00,22.7084,75.8815,PM2.5,NA,NA,NA
India,Madhya Pradesh,Jabalpur,"Govindh Bhavan Colony, Jabalpur - JMC",07-01-2026 08:00:00,23.163174,79.973061,PM10,30,85,51
India,Madhya Pradesh,Jabalpur,"Govindh Bhavan Colony, Jabalpur - JMC",07-01-2026 08:00:00,23.163174,79.973061,SO2,9,13,11
India,Madhya Pradesh,Gwalior,"Deen Dayal Nagar, Gwalior - MPPCB",07-01-2026 08:00:00,26.259242,78.216432,SO2,8,11,10
India,Madhya Pradesh,Gwalior,"Maharaj Bada, Gwalior - MPPCB",07-01-2026 08:00:00,26.200388,78.147714,PM10,94,226,151
India,Madhya Pradesh,Gwalior,"Maharaj Bada, Gwalior - MPPCB",07-01-2026 08:00:00,26.200388,78.147714,SO2,6,12,9
India,Madhya Pradesh,Gwalior,"Maharaj Bada, Gwalior - MPPCB",07-01-2026 08:00:00,26.200388,78.147714,CO,10,58,29
India,Madhya Pradesh,Indore,"Airport Area, Indore - IMC",07-01-2026 08:00:00,22.7289,75.8076,PM10,64,122,87
India,Kerala,Kannur,"Thavakkara, Kannur - Kerala PCB",07-01-2026 08:00:00,11.875000,75.373200,NO2,15,18,16
India,Kerala,Kollam,"Polayathode, Kollam - Kerala PCB",07-01-2026 08:00:00,8.8787,76.6073,PM2.5,NA,NA,NA
India,Kerala,Kollam,"Polayathode, Kollam - Kerala PCB",07-01-2026 08:00:00,8.8787,76.6073,SO2,NA,NA,NA
India,Kerala,Thiruvananthapuram,"Kariavattom, Thiruvananthapuram - Kerala PCB",07-01-2026 08:00:00,8.563700,76.886500,PM2.5,125,303,191
India,Madhya Pradesh,Jabalpur,"Gupteshwar, Jabalpur - JMC",07-01-2026 08:00:00,23.142888,79.916147,NO2,20,101,42
India,Madhya Pradesh,Jabalpur,"Gupteshwar, Jabalpur - JMC",07-01-2026 08:00:00,23.142888,79.916147,SO2,14,19,17
India,Madhya Pradesh,Jabalpur,"Suhagi, Jabalpur - JMC",07-01-2026 08:00:00,23.218135,79.957770,SO2,10,11,11
India,Madhya Pradesh,Katni,"Gole Bazar, Katni - MPPCB",07-01-2026 08:00:00,23.50016,80.23284,SO2,12,40,27
India,Kerala,Thrissur,"Corporation Ground, Thrissur - Kerala PCB",07-01-2026 08:00:00,10.532400,76.215900,OZONE,NA,NA,NA
India,Madhya Pradesh,Bhopal,"Idgah Hills, Bhopal - MPPCB",07-01-2026 08:00:00,23.264759,77.381568,SO2,9,12,10
India,Madhya Pradesh,Bhopal,"Idgah Hills, Bhopal - MPPCB",07-01-2026 08:00:00,23.264759,77.381568,OZONE,21,74,33
India,Madhya Pradesh,Bhopal,"Paryavaran Parisar, Bhopal - MPPCB",07-01-2026 08:00:00,23.210494,77.425409,SO2,2,11,7
India,Madhya Pradesh,Bhopal,"Paryavaran Parisar, Bhopal - MPPCB",07-01-2026 08:00:00,23.210494,77.425409,CO,16,70,25
India,Madhya Pradesh,Satna,"Bandhavgar Colony, Satna - Birla Cement",07-01-2026 08:00:00,24.58434363,80.8549414,CO,24,48,35
India,Maharashtra,Amravati,"Shri Shivaji Science College, Amravati - MPCB",07-01-2026 08:00:00,20.939198,77.765701,PM10,43,198,90
India,Maharashtra,Amravati,"Shri Shivaji Science College, Amravati - MPCB",07-01-2026 08:00:00,20.939198,77.765701,CO,31,106,42
India,Maharashtra,Amravati,"Shri Shivaji Science College, Amravati - MPCB",07-01-2026 08:00:00,20.939198,77.765701,OZONE,1,85,30
India,Maharashtra,Aurangabad,"MIDC Chilkalthana, Aurangabad - MPCB",07-01-2026 08:00:00,19.875620,75.387310,NO2,23,83,49
India,Maharashtra,Aurangabad,"MIDC Chilkalthana, Aurangabad - MPCB",07-01-2026 08:00:00,19.875620,75.387310,CO,9,50,27
India,Maharashtra,Aurangabad,"More Chowk Waluj, Aurangabad - MPCB",07-01-2026 08:00:00,19.8389439,75.244448,PM2.5,54,92,73
India,Maharashtra,Aurangabad,"More Chowk Waluj, Aurangabad - MPCB",07-01-2026 08:00:00,19.8389439,75.244448,NO2,15,25,19
India,Maharashtra,Aurangabad,"More Chowk Waluj, Aurangabad - MPCB",07-01-2026 08:00:00,19.8389439,75.244448,SO2,10,27,16
India,Maharashtra,Mumbai,"Bandra Kurla Complex, Mumbai - IITM",07-01-2026 08:00:00,19.053536,72.84643,NO2,NA,NA,NA
India,Maharashtra,Mumbai,"Bandra Kurla Complex, Mumbai - IITM",07-01-2026 08:00:00,19.053536,72.84643,NH3,NA,NA,NA
India,Maharashtra,Mumbai,"Bandra Kurla Complex, Mumbai - IITM",07-01-2026 08:00:00,19.053536,72.84643,CO,NA,NA,NA
India,Maharashtra,Mumbai,"Bandra Kurla Complex, Mumbai - MPCB",07-01-2026 08:00:00,19.065931,72.862131,PM10,94,191,137
India,Maharashtra,Mumbai,"Borivali East, Mumbai - IITM",07-01-2026 08:00:00,19.23241,72.86895,NO2,NA,NA,NA
India,Maharashtra,Mumbai,"Borivali East, Mumbai - IITM",07-01-2026 08:00:00,19.23241,72.86895,OZONE,11,54,35
India,Maharashtra,Mumbai,"Borivali East, Mumbai - MPCB",07-01-2026 08:00:00,19.2243333,72.8658113,PM10,82,122,95
India,Maharashtra,Malegaon,"Mahesh Nagar, Malegaon - MPCB",07-01-2026 08:00:00,20.555712,74.529236,PM10,NA,NA,NA
India,Maharashtra,Malegaon,"Mahesh Nagar, Malegaon - MPCB",07-01-2026 08:00:00,20.555712,74.529236,NO2,38,48,44
India,Maharashtra,Mira-Bhayandar,"Bhayandar West, Mira-Bhayandar - MPCB",07-01-2026 08:00:00,19.296481,72.840923,PM10,77,222,125
India,Maharashtra,Mira-Bhayandar,"Bhayandar West, Mira-Bhayandar - MPCB",07-01-2026 08:00:00,19.296481,72.840923,NO2,26,86,55
India,Maharashtra,Mira-Bhayandar,"Bhayandar West, Mira-Bhayandar - MPCB",07-01-2026 08:00:00,19.296481,72.840923,NH3,1,14,3
India,Maharashtra,Mira-Bhayandar,"Bhayandar West, Mira-Bhayandar - MPCB",07-01-2026 08:00:00,19.296481,72.840923,SO2,12,15,14
India,Maharashtra,Mira-Bhayandar,"Bhayandar West, Mira-Bhayandar - MPCB",07-01-2026 08:00:00,19.296481,72.840923,CO,21,72,54
India,Maharashtra,Aurangabad,"Rachnakar Colony, Aurangabad - MPCB",07-01-2026 08:00:00,19.863756,75.321188,NH3,2,5,3
India,Maharashtra,Badlapur,"Katrap, Badlapur - MPCB",07-01-2026 08:00:00,19.16485,73.23409,NO2,14,33,25
India,Maharashtra,Badlapur,"Katrap, Badlapur - MPCB",07-01-2026 08:00:00,19.16485,73.23409,NH3,4,7,4
India,Maharashtra,Badlapur,"Katrap, Badlapur - MPCB",07-01-2026 08:00:00,19.16485,73.23409,CO,14,56,31
India,Maharashtra,Badlapur,"Katrap, Badlapur - MPCB",07-01-2026 08:00:00,19.16485,73.23409,OZONE,13,94,15
India,Maharashtra,Belapur,"CBD Belapur, Belapur - MPCB",07-01-2026 08:00:00,19.0243902,73.0406721,SO2,9,20,13
India,Maharashtra,Kalyan,"Pimpleshwar Mandir, Kalyan - MPCB",07-01-2026 08:00:00,19.192056,72.9585188,SO2,10,57,23
India,Maharashtra,Kalyan,"Pimpleshwar Mandir, Kalyan - MPCB",07-01-2026 08:00:00,19.192056,72.9585188,CO,8,34,19
India,Maharashtra,Kalyan,"Pimpleshwar Mandir, Kalyan - MPCB",07-01-2026 08:00:00,19.192056,72.9585188,OZONE,2,86,6
India,Maharashtra,Kolhapur,"Sinchan Bhavan, Kolhapur - MPCB",07-01-2026 08:00:00,16.7143745,74.2426398,PM2.5,73,121,89
India,Maharashtra,Bhiwandi,"Gokul Nagar, Bhiwandi - MPCB",07-01-2026 08:00:00,19.309073,73.057223,SO2,5,10,8
India,Maharashtra,Bhiwandi,"Gokul Nagar, Bhiwandi - MPCB",07-01-2026 08:00:00,19.309073,73.057223,CO,21,52,42
India,Maharashtra,Bhiwandi,"Gokul Nagar, Bhiwandi - MPCB",07-01-2026 08:00:00,19.309073,73.057223,OZONE,13,100,15
India,Maharashtra,Boisar,"Khaira, Boisar - MPCB",07-01-2026 08:00:00,19.786089,72.757971,NO2,9,43,20
India,Maharashtra,Boisar,"Khaira, Boisar - MPCB",07-01-2026 08:00:00,19.786089,72.757971,SO2,6,18,10
India,Maharashtra,Chandrapur,"Chauhan Colony, Chandrapur - MPCB",07-01-2026 08:00:00,19.962900,79.298714,NO2,32,43,34
India,Maharashtra,Dhule,"Deopur, Dhule - MPCB",07-01-2026 08:00:00,20.918946,74.776388,OZONE,17,63,20
India,Maharashtra,Ahmednagar,"Tarakpur, Ahmednagar - MPCB",07-01-2026 08:00:00,19.10122,74.73339,PM10,80,210,129
India,Maharashtra,Akola,"Ramdaspeth, Akola - MPCB",07-01-2026 08:00:00,20.719516,77.000253,NO2,11,109,33
India,Maharashtra,Akola,"Ramdaspeth, Akola - MPCB",07-01-2026 08:00:00,20.719516,77.000253,NH3,3,6,5
India,Maharashtra,Jalgaon,"Prabhat Colony, Jalgaon - MPCB",07-01-2026 08:00:00,21.001264,75.565602,NH3,2,3,3
India,Maharashtra,Kalyan,"Khadakpada, Kalyan - MPCB",07-01-2026 08:00:00,19.25292,73.142019,NO2,36,36,36
India,Maharashtra,Kalyan,"Khadakpada, Kalyan - MPCB",07-01-2026 08:00:00,19.25292,73.142019,CO,81,104,97
India,Maharashtra,Mumbai,"Kherwadi_Bandra East, Mumbai - MPCB",07-01-2026 08:00:00,19.0632143,72.8456324,PM2.5,85,211,137
India,Maharashtra,Mumbai,"Kherwadi_Bandra East, Mumbai - MPCB",07-01-2026 08:00:00,19.0632143,72.8456324,NH3,9,16,13
India,Maharashtra,Mumbai,"Kherwadi_Bandra East, Mumbai - MPCB",07-01-2026 08:00:00,19.0632143,72.8456324,SO2,3,4,3
India,Maharashtra,Mumbai,"Khindipada-Bhandup West, Mumbai - IITM",07-01-2026 08:00:00,19.1653323,72.922099,NH3,NA,NA,NA
India,Maharashtra,Mumbai,"Kurla, Mumbai - MPCB",07-01-2026 08:00:00,19.0863,72.8888,PM10,89,147,121
India,Maharashtra,Mumbai,"Kurla, Mumbai - MPCB",07-01-2026 08:00:00,19.0863,72.8888,NO2,6,9,7
India,Maharashtra,Mumbai,"Kurla, Mumbai - MPCB",07-01-2026 08:00:00,19.0863,72.8888,SO2,36,37,37
India,Maharashtra,Mumbai,"Malad West, Mumbai - IITM",07-01-2026 08:00:00,19.19709,72.82204,NH3,8,25,14
India,Maharashtra,Mumbai,"Mazgaon, Mumbai - IITM",07-01-2026 08:00:00,18.96702,72.84214,PM10,83,128,110
India,Maharashtra,Mumbai,"Mazgaon, Mumbai - IITM",07-01-2026 08:00:00,18.96702,72.84214,NO2,35,115,89
India,Maharashtra,Mumbai,"Mazgaon, Mumbai - IITM",07-01-2026 08:00:00,18.96702,72.84214,SO2,9,17,11
India,Maharashtra,Mumbai,"Mindspace-Malad West, Mumbai - MPCB",07-01-2026 08:00:00,19.1878657,72.8304069,CO,36,115,93
India,Maharashtra,Mumbai,"Navy Nagar-Colaba, Mumbai - IITM",07-01-2026 08:00:00,18.897756,72.813320,NO2,11,184,88
India,Maharashtra,Nagpur,"Mahal, Nagpur - MPCB",07-01-2026 08:00:00,21.14472,79.107595,CO,38,120,59
India,Maharashtra,Nagpur,"Mahal, Nagpur - MPCB",07-01-2026 08:00:00,21.14472,79.107595,OZONE,7,58,20
India,Maharashtra,Nagpur,"Opp GPO Civil Lines, Nagpur - MPCB",07-01-2026 08:00:00,21.152875,79.0517531,NO2,24,63,39
India,Maharashtra,Nagpur,"Opp GPO Civil Lines, Nagpur - MPCB",07-01-2026 08:00:00,21.152875,79.0517531,OZONE,3,62,4
India,Maharashtra,Nagpur,"Ram Nagar, Nagpur - MPCB",07-01-2026 08:00:00,21.143383,79.048912,PM10,70,218,124
India,Maharashtra,Mumbai,"Powai, Mumbai - MPCB",07-01-2026 08:00:00,19.137500,72.915056,PM10,57,109,78
India,Maharashtra,Mumbai,"Powai, Mumbai - MPCB",07-01-2026 08:00:00,19.137500,72.915056,NO2,7,8,8
India,Maharashtra,Mumbai,"Powai, Mumbai - MPCB",07-01-2026 08:00:00,19.137500,72.915056,NH3,1,2,2
India,Maharashtra,Mumbai,"Sewri, Mumbai - BMC",07-01-2026 08:00:00,19.000084,72.856730,SO2,2,10,5
India,Maharashtra,Mumbai,"Shivaji Nagar, Mumbai - BMC",07-01-2026 08:00:00,19.060498,72.923356,PM10,NA,NA,NA
India,Maharashtra,Mumbai,"Shivaji Nagar, Mumbai - BMC",07-01-2026 08:00:00,19.060498,72.923356,NH3,3,6,4
India,Maharashtra,Mumbai,"Chembur, Mumbai - MPCB",07-01-2026 08:00:00,19.0364585,72.8954371,SO2,1,137,10
India,Maharashtra,Mumbai,"Chhatrapati Shivaji Intl. Airport (T2), Mumbai - MPCB",07-01-2026 08:00:00,19.10078,72.87462,NO2,1,1,1
India,Maharashtra,Mumbai,"Chhatrapati Shivaji Intl. Airport (T2), Mumbai - MPCB",07-01-2026 08:00:00,19.10078,72.87462,OZONE,7,8,7
India,Maharashtra,Mumbai,"Colaba, Mumbai - MPCB",07-01-2026 08:00:00,18.910000,72.820000,SO2,NA,NA,NA
India,Maharashtra,Mumbai,"Ghatkopar, Mumbai - BMC",07-01-2026 08:00:00,19.083694,72.920967,PM10,118,118,118
India,Maharashtra,Mumbai,"Kandivali West, Mumbai - BMC",07-01-2026 08:00:00,19.215859,72.831718,PM2.5,81,161,121
India,Maharashtra,Mumbai,"Kandivali West, Mumbai - BMC",07-01-2026 08:00:00,19.215859,72.831718,NH3,1,5,4
India,Maharashtra,Mumbai,"Vile Parle West, Mumbai - MPCB",07-01-2026 08:00:00,19.10861,72.83622,NH3,6,6,6
India,Maharashtra,Mumbai,"Vile Parle West, Mumbai - MPCB",07-01-2026 08:00:00,19.10861,72.83622,SO2,48,52,50
India,Maharashtra,Nagpur,"Ambazari, Nagpur - MPCB",07-01-2026 08:00:00,21.121801,79.04952,NH3,2,27,8
India,Maharashtra,Nagpur,"Ram Nagar, Nagpur - MPCB",07-01-2026 08:00:00,21.143383,79.048912,CO,22,104,57
India,Maharashtra,Nanded,"Sneh Nagar, Nanded - MPCB",07-01-2026 08:00:00,19.173852,77.296291,PM2.5,63,130,88
India,Maharashtra,Mumbai,"Byculla, Mumbai - BMC",07-01-2026 08:00:00,18.9767,72.8380,PM2.5,110,242,171
India,Maharashtra,Mumbai,"Byculla, Mumbai - BMC",07-01-2026 08:00:00,18.9767,72.8380,NO2,51,127,90
India,Maharashtra,Pimpri-Chinchwad,"Savta Mali Nagar, Pimpri-Chinchwad - IITM",07-01-2026 08:00:00,18.614767,73.799516,NO2,NA,NA,NA
India,Maharashtra,Pimpri-Chinchwad,"Savta Mali Nagar, Pimpri-Chinchwad - IITM",07-01-2026 08:00:00,18.614767,73.799516,OZONE,NA,NA,NA
India,Maharashtra,Pune,"Bhumkar Nagar, Pune - IITM",07-01-2026 08:00:00,18.605770,73.749976,PM10,149,238,202
India,Maharashtra,Pune,"Dhankawadi, Pune - IITM",07-01-2026 08:00:00,18.459883,73.852193,NO2,10,10,10
India,Maharashtra,Pune,"Hadapsar, Pune - IITM",07-01-2026 08:00:00,18.501793,73.927532,PM10,140,245,188
India,Maharashtra,Pune,"Hadapsar, Pune - IITM",07-01-2026 08:00:00,18.501793,73.927532,NO2,28,52,39
India,Maharashtra,Pune,"Hadapsar, Pune - IITM",07-01-2026 08:00:00,18.501793,73.927532,OZONE,2,79,3
India,Maharashtra,Pune,"Katraj Dairy, Pune - MPCB",07-01-2026 08:00:00,18.454450,73.854155,PM2.5,69,137,99
India,Maharashtra,Pune,"Katraj Dairy, Pune - MPCB",07-01-2026 08:00:00,18.454450,73.854155,NO2,13,82,44
India,Maharashtra,Pune,"Panchawati_Pashan, Pune - IITM",07-01-2026 08:00:00,18.536457,73.805454,PM2.5,95,278,189
India,Maharashtra,Pune,"Panchawati_Pashan, Pune - IITM",07-01-2026 08:00:00,18.536457,73.805454,PM10,102,150,120
India,Maharashtra,Pune,"Panchawati_Pashan, Pune - IITM",07-01-2026 08:00:00,18.536457,73.805454,CO,22,54,38
India,Maharashtra,Pune,"Revenue Colony-Shivajinagar, Pune - IITM",07-01-2026 08:00:00,18.530085,73.849598,PM10,118,269,180
India,Maharashtra,Pune,"Transport Nagar-Nigdi, Pune - IITM",07-01-2026 08:00:00,18.664282,73.763966,PM10,NA,NA,NA
India,Maharashtra,Pune,"Transport Nagar-Nigdi, Pune - IITM",07-01-2026 08:00:00,18.664282,73.763966,CO,NA,NA,NA
India,Maharashtra,Sangli,"Vijay Nagar, Sangli - MPCB",07-01-2026 08:00:00, 16.5038,74.3623,PM10,105,130,117
India,Maharashtra,Sangli,"Vijay Nagar, Sangli - MPCB",07-01-2026 08:00:00, 16.5038,74.3623,NH3,NA,NA,NA
India,Maharashtra,Solapur,"Dnyaneshwar Nagar, Solapur - MPCB",07-01-2026 08:00:00,17.6336264,75.9132495,PM10,87,147,111
India,Maharashtra,Nashik,"Pandav Nagari, Nashik - MPCB",07-01-2026 08:00:00,19.9591346,73.7788008,NO2,9,58,24
India,Maharashtra,Nashik,"Pandav Nagari, Nashik - MPCB",07-01-2026 08:00:00,19.9591346,73.7788008,SO2,3,11,6
India,Maharashtra,Nashik,"Pandav Nagari, Nashik - MPCB",07-01-2026 08:00:00,19.9591346,73.7788008,CO,20,107,42
India,Maharashtra,Nashik,"Pandav Nagari, Nashik - MPCB",07-01-2026 08:00:00,19.9591346,73.7788008,OZONE,2,64,18
India,Maharashtra,Navi Mumbai,"Kopripada-Vashi, Navi Mumbai - MPCB",07-01-2026 08:00:00,19.090337,73.014232,PM10,46,193,101
India,Maharashtra,Parbhani,"Masoom Colony, Parbhani - MPCB",07-01-2026 08:00:00,19.265594,76.761463,PM10,79,137,108
India,Maharashtra,Parbhani,"Masoom Colony, Parbhani - MPCB",07-01-2026 08:00:00,19.265594,76.761463,CO,8,14,12
India,Maharashtra,Pimpri-Chinchwad,"Gavalinagar, Pimpri Chinchwad - MPCB",07-01-2026 08:00:00,18.63673,73.82487,PM10,107,180,132
India,Maharashtra,Pimpri-Chinchwad,"Park Street Wakad, Pimpri Chinchwad - MPCB",07-01-2026 08:00:00,18.59051,73.77946,PM10,84,176,136
India,Maharashtra,Nashik,"Gangapur Road, Nashik - MPCB",07-01-2026 08:00:00,20.0073285,73.7762427,SO2,5,13,10
India,Maharashtra,Nashik,"Hirawadi, Nashik - MPCB",07-01-2026 08:00:00,20.021503,73.813844,SO2,11,51,23
India,Maharashtra,Nashik,"MIDC Ambad, Nashik - MPCB",07-01-2026 08:00:00,19.950220,73.731480,NO2,21,105,55
India,Maharashtra,Nashik,"MIDC Ambad, Nashik - MPCB",07-01-2026 08:00:00,19.950220,73.731480,SO2,14,20,17
India,Maharashtra,Navi Mumbai,"Mahape, Navi Mumbai - MPCB",07-01-2026 08:00:00,19.1135051,73.008978,CO,19,21,20
India,Maharashtra,Navi Mumbai,"Nerul, Navi Mumbai - MPCB",07-01-2026 08:00:00,19.008751,73.016620,PM2.5,73,272,165
India,Maharashtra,Navi Mumbai,"Kopripada-Vashi, Navi Mumbai - MPCB",07-01-2026 08:00:00,19.090337,73.014232,CO,16,78,46
India,Maharashtra,Navi Mumbai,"Tondare-Taloja, Navi Mumbai - MPCB",07-01-2026 08:00:00,19.0630,73.1209,NO2,9,49,22
India,Maharashtra,Solapur,"Dnyaneshwar Nagar, Solapur - MPCB",07-01-2026 08:00:00,17.6336264,75.9132495,OZONE,7,51,30
India,Maharashtra,Solapur,"Ratandeep Housing Society, Solapur - MPCB",07-01-2026 08:00:00,17.65439,75.90649,OZONE,7,49,21
India,Maharashtra,Thane,"Kasarvadavali, Thane - MPCB",07-01-2026 08:00:00,19.26777,72.97182,NH3,2,3,2
India,Maharashtra,Thane,"Kasarvadavali, Thane - MPCB",07-01-2026 08:00:00,19.26777,72.97182,CO,8,54,39
India,Maharashtra,Thane,"Upvan Fort, Thane - MPCB",07-01-2026 08:00:00,19.222279,72.957979,PM2.5,69,177,129
India,Maharashtra,Thane,"Upvan Fort, Thane - MPCB",07-01-2026 08:00:00,19.222279,72.957979,SO2,6,25,12
India,Maharashtra,Ulhasnagar,"Sidhi Vinayak Nagar, Ulhasnagar - MPCB",07-01-2026 08:00:00,19.235581,73.159121,PM10,103,189,148
India,Odisha,Brajrajnagar,"GM Office, Brajrajnagar - OSPCB",07-01-2026 08:00:00,21.8004996,83.8396977,PM2.5,4,189,70
India,Odisha,Brajrajnagar,"GM Office, Brajrajnagar - OSPCB",07-01-2026 08:00:00,21.8004996,83.8396977,NO2,20,89,30
India,Odisha,Brajrajnagar,"GM Office, Brajrajnagar - OSPCB",07-01-2026 08:00:00,21.8004996,83.8396977,NH3,8,13,10
India,Odisha,Byasanagar,"Ferro Chrome Colony, Byasanagar - OSPCB",07-01-2026 08:00:00,20.94185,86.11510,PM2.5,65,240,137
India,Odisha,Byasanagar,"Ferro Chrome Colony, Byasanagar - OSPCB",07-01-2026 08:00:00,20.94185,86.11510,PM10,59,143,99
India,Odisha,Byasanagar,"Ferro Chrome Colony, Byasanagar - OSPCB",07-01-2026 08:00:00,20.94185,86.11510,NH3,2,4,2
India,Odisha,Byasanagar,"Ferro Chrome Colony, Byasanagar - OSPCB",07-01-2026 08:00:00,20.94185,86.11510,CO,24,111,79
India,Odisha,Cuttack,"CDA Area, Cuttack - OSPCB",07-01-2026 08:00:00,20.48891     ,85.84768     ,PM2.5,117,328,205
India,Mizoram,Aizawl,"Sikulpuikawn, Aizawl - Mizoram PCB",07-01-2026 08:00:00,23.7176342,92.7192841,PM10,65,71,68
India,Mizoram,Aizawl,"Sikulpuikawn, Aizawl - Mizoram PCB",07-01-2026 08:00:00,23.7176342,92.7192841,CO,3,3,3
India,Nagaland,Kohima,"PWD Junction, Kohima - NPCB",07-01-2026 08:00:00,25.6635413,94.0989878,NH3,1,1,1
India,Nagaland,Kohima,"PWD Junction, Kohima - NPCB",07-01-2026 08:00:00,25.6635413,94.0989878,CO,2,16,4
India,Nagaland,Kohima,"PWD Junction, Kohima - NPCB",07-01-2026 08:00:00,25.6635413,94.0989878,OZONE,1,6,2
India,Odisha,Angul,"Hakimapada, Angul - OSPCB",07-01-2026 08:00:00,20.832874,85.104082,PM2.5,96,288,168
India,Odisha,Baripada,"Meher Colony, Baripada - OSPCB",07-01-2026 08:00:00,21.941841,86.728318,SO2,NA,NA,NA
India,Odisha,Baripada,"Meher Colony, Baripada - OSPCB",07-01-2026 08:00:00,21.941841,86.728318,CO,111,140,113
India,Odisha,Bhubaneswar,"Lingraj Mandir, Bhubaneswar - OSPCB",07-01-2026 08:00:00,20.240790,85.836784,PM10,132,261,154
India,Odisha,Bhubaneswar,"Lingraj Mandir, Bhubaneswar - OSPCB",07-01-2026 08:00:00,20.240790,85.836784,CO,14,75,23
India,Odisha,Bhubaneswar,"Patia, Bhubaneswar - OSPCB",07-01-2026 08:00:00,20.34652,85.81630,PM2.5,150,336,246
India,Odisha,Bhubaneswar,"Patia, Bhubaneswar - OSPCB",07-01-2026 08:00:00,20.34652,85.81630,NO2,21,95,40
India,Odisha,Keonjhar,"Jagamohanpur, Keonjhar - OSPCB",07-01-2026 08:00:00,21.643900,85.599355,OZONE,16,18,18
India,Odisha,Nayagarh,"Dabuna, Nayagarh - OSPCB",07-01-2026 08:00:00,21.847279,85.416905,CO,10,28,15
India,Odisha,Rairangpur,"Divisional Forest Office, Rairangpur - OSPCB",07-01-2026 08:00:00,22.265816,86.174829,PM2.5,41,171,83
India,Odisha,Rairangpur,"Divisional Forest Office, Rairangpur - OSPCB",07-01-2026 08:00:00,22.265816,86.174829,SO2,NA,NA,NA
India,Odisha,Rairangpur,"Divisional Forest Office, Rairangpur - OSPCB",07-01-2026 08:00:00,22.265816,86.174829,CO,15,52,28
India,Odisha,Angul,"Hakimapada, Angul - OSPCB",07-01-2026 08:00:00,20.832874,85.104082,CO,19,82,46
India,Odisha,Balasore,"Kalidaspur, Balasore - OSPCB",07-01-2026 08:00:00,21.51161,86.89088,PM10,76,210,139
India,Odisha,Barbil,"Forest Office, Barbil - OSPCB",07-01-2026 08:00:00,22.1166054,85.3945546,PM2.5,37,297,101
India,Odisha,Tensa,"Barsua Iron Ore Mines, Tensa - OSPCB",07-01-2026 08:00:00,21.869985,85.167016,PM10,NA,NA,NA
India,Odisha,Tensa,"Barsua Iron Ore Mines, Tensa - OSPCB",07-01-2026 08:00:00,21.869985,85.167016,NH3,NA,NA,NA
India,Odisha,Tensa,"Barsua Iron Ore Mines, Tensa - OSPCB",07-01-2026 08:00:00,21.869985,85.167016,CO,NA,NA,NA
India,Punjab,Amritsar,"Golden Temple, Amritsar - PPCB",07-01-2026 08:00:00,31.620000,74.876512,PM10,42,117,86
India,Odisha,Rourkela,"Raghunathpali, Rourkela - OSPCB",07-01-2026 08:00:00,22.220833,84.809444,PM10,51,366,130
India,Odisha,Rourkela,"Raghunathpali, Rourkela - OSPCB",07-01-2026 08:00:00,22.220833,84.809444,OZONE,3,15,4
India,Punjab,Amritsar,"Golden Temple, Amritsar - PPCB",07-01-2026 08:00:00,31.620000,74.876512,OZONE,30,44,39
India,Rajasthan,Jaipur,"Adarsh Nagar, Jaipur - RSPCB",07-01-2026 08:00:00,26.902909,75.836858,SO2,7,21,14
India,Rajasthan,Jaipur,"Adarsh Nagar, Jaipur - RSPCB",07-01-2026 08:00:00,26.902909,75.836858,CO,46,109,70
India,Rajasthan,Jaipur,"Adarsh Nagar, Jaipur - RSPCB",07-01-2026 08:00:00,26.902909,75.836858,OZONE,10,108,25
India,Rajasthan,Jaipur,"Mansarovar Sector-12, Jaipur - RSPCB",07-01-2026 08:00:00,26.843698,75.766894,CO,36,114,58
India,Rajasthan,Jaipur,"Mansarovar Sector-12, Jaipur - RSPCB",07-01-2026 08:00:00,26.843698,75.766894,OZONE,2,79,9
India,Rajasthan,Jaipur,"Police Commissionerate, Jaipur - RSPCB",07-01-2026 08:00:00,26.9164092,75.7994901,PM2.5,51,228,109
India,Punjab,Ludhiana,"Punjab Agricultural University, Ludhiana - PPCB",07-01-2026 08:00:00,30.9028,75.8086,OZONE,11,31,13
India,Punjab,Patiala,"Model Town, Patiala - PPCB",07-01-2026 08:00:00,30.349388,76.366642,NO2,16,20,18
India,Punjab,Patiala,"Model Town, Patiala - PPCB",07-01-2026 08:00:00,30.349388,76.366642,NH3,6,7,6
India,Punjab,Patiala,"Model Town, Patiala - PPCB",07-01-2026 08:00:00,30.349388,76.366642,CO,9,90,25
India,Punjab,Rupnagar,"Ratanpura, Rupnagar - Ambuja Cements",07-01-2026 08:00:00,31.0325454,76.5623046,CO,64,86,70
India,Rajasthan,Baran,"Bamboliya, Baran - RSPCB",07-01-2026 08:00:00,25.106006,76.469948,OZONE,10,62,21
India,Rajasthan,Barmer,"Railway Colony, Barmer - RSPCB",07-01-2026 08:00:00,25.747299,71.393989,PM2.5,25,210,111
India,Rajasthan,Barmer,"Railway Colony, Barmer - RSPCB",07-01-2026 08:00:00,25.747299,71.393989,CO,1,32,25
India,Rajasthan,Bharatpur,"Krishna Nagar, Bharatpur - RSPCB",07-01-2026 08:00:00,27.215415,77.50873,PM10,66,148,116
India,Rajasthan,Bharatpur,"Krishna Nagar, Bharatpur - RSPCB",07-01-2026 08:00:00,27.215415,77.50873,NO2,19,36,27
India,Rajasthan,Jaipur,"Police Commissionerate, Jaipur - RSPCB",07-01-2026 08:00:00,26.9164092,75.7994901,NH3,4,23,13
India,Rajasthan,Jaipur,"Sector-2 Murlipura, Jaipur - RSPCB",07-01-2026 08:00:00,26.960669,75.771817,PM2.5,270,500,377
India,Rajasthan,Jaipur,"Sector-2 Murlipura, Jaipur - RSPCB",07-01-2026 08:00:00,26.960669,75.771817,CO,44,114,75
India,Rajasthan,Jaipur,"Shastri Nagar, Jaipur - RSPCB",07-01-2026 08:00:00,26.9502929,75.730943,PM10,101,234,145
India,Rajasthan,Bhilwara,"Pratap Nagar, Bhilwara - RSPCB",07-01-2026 08:00:00,25.339605,74.618883,PM10,35,123,77
India,Rajasthan,Bhilwara,"Pratap Nagar, Bhilwara - RSPCB",07-01-2026 08:00:00,25.339605,74.618883,NH3,3,7,5
India,Rajasthan,Bhilwara,"Pratap Nagar, Bhilwara - RSPCB",07-01-2026 08:00:00,25.339605,74.618883,OZONE,8,33,22
India,Rajasthan,Bhiwadi,"Vasundhara Nagar_UIT, Bhiwadi - RSPCB",07-01-2026 08:00:00,28.207266,76.829265,NO2,12,48,26
India,Rajasthan,Chittorgarh,"Shastri Nagar, Chittorgarh - RSPCB",07-01-2026 08:00:00,24.892047,74.623527,NH3,5,8,6
India,Rajasthan,Churu,"Subash Chowk, Churu - RSPCB",07-01-2026 08:00:00,28.296139,74.961696,NO2,12,60,24
India,Rajasthan,Churu,"Subash Chowk, Churu - RSPCB",07-01-2026 08:00:00,28.296139,74.961696,SO2,5,6,5
India,Rajasthan,Churu,"Subash Chowk, Churu - RSPCB",07-01-2026 08:00:00,28.296139,74.961696,CO,26,92,27
India,Rajasthan,Dholpur,"Raja Ganj, Dholpur - RSPCB",07-01-2026 08:00:00,26.699557,77.898881,PM10,47,168,124
India,Rajasthan,Dholpur,"Raja Ganj, Dholpur - RSPCB",07-01-2026 08:00:00,26.699557,77.898881,CO,56,79,68
India,Rajasthan,Ajmer,"Civil Lines,  Ajmer - RSPCB",07-01-2026 08:00:00,26.470859,74.646594,OZONE,4,18,5
India,Rajasthan,Baran,"Bamboliya, Baran - RSPCB",07-01-2026 08:00:00,25.106006,76.469948,PM10,32,133,82
India,Rajasthan,Baran,"Bamboliya, Baran - RSPCB",07-01-2026 08:00:00,25.106006,76.469948,NH3,7,9,8
India,Rajasthan,Bhiwadi,"Vasundhara Nagar_UIT, Bhiwadi - RSPCB",07-01-2026 08:00:00,28.207266,76.829265,SO2,1,3,2
India,Rajasthan,Bikaner,"MM Ground, Bikaner - RSPCB",07-01-2026 08:00:00,28.018792,73.292658,NH3,2,10,6
India,Rajasthan,Kota,"Dhanmandi, Kota - RSPCB",07-01-2026 08:00:00,25.164090,75.858137,PM10,56,227,123
India,Rajasthan,Kota,"Dhanmandi, Kota - RSPCB",07-01-2026 08:00:00,25.164090,75.858137,NO2,19,64,37
India,Rajasthan,Kota,"Dhanmandi, Kota - RSPCB",07-01-2026 08:00:00,25.164090,75.858137,NH3,6,8,7
India,Rajasthan,Kota,"Nayapura, Kota - RSPCB",07-01-2026 08:00:00,25.196024,75.855668,PM2.5,43,410,172
India,Rajasthan,Kota,"Nayapura, Kota - RSPCB",07-01-2026 08:00:00,25.196024,75.855668,PM10,38,368,141
India,Rajasthan,Kota,"Nayapura, Kota - RSPCB",07-01-2026 08:00:00,25.196024,75.855668,NH3,7,12,9
India,Rajasthan,Kota,"Shrinath Puram, Kota - RSPCB",07-01-2026 08:00:00,25.14389,75.821256,SO2,3,14,8
India,Rajasthan,Jaipur,"Shastri Nagar, Jaipur - RSPCB",07-01-2026 08:00:00,26.9502929,75.730943,NH3,9,25,17
India,Rajasthan,Jaipur,"Shastri Nagar, Jaipur - RSPCB",07-01-2026 08:00:00,26.9502929,75.730943,SO2,8,47,27
India,Rajasthan,Jaisalmer,"Sadar Bazar, Jaisalmer - RSPCB",07-01-2026 08:00:00,26.912329,70.909168,SO2,3,5,4
India,Rajasthan,Jaisalmer,"Sadar Bazar, Jaisalmer - RSPCB",07-01-2026 08:00:00,26.912329,70.909168,CO,20,46,27
India,Rajasthan,Jaisalmer,"Sadar Bazar, Jaisalmer - RSPCB",07-01-2026 08:00:00,26.912329,70.909168,OZONE,15,77,49
India,Rajasthan,Jalore,"Mudtra Sili, Jalore - RSPCB",07-01-2026 08:00:00,25.344694,72.626208,PM2.5,55,203,104
India,Rajasthan,Tonk,"Shastri Nagar, Tonk - RSPCB",07-01-2026 08:00:00,26.159933,75.780517,NO2,11,56,24
India,Rajasthan,Udaipur,"Ashok Nagar, Udaipur - RSPCB",07-01-2026 08:00:00,24.5886166,73.6321397,PM10,82,139,110
India,Rajasthan,Udaipur,"Ashok Nagar, Udaipur - RSPCB",07-01-2026 08:00:00,24.5886166,73.6321397,CO,16,100,28
India,TamilNadu,Chennai,"Gandhi Nagar_Ennore, Chennai - TNPCB",07-01-2026 08:00:00,13.218341,80.32027,PM2.5,5,53,23
India,TamilNadu,Chennai,"Gandhi Nagar_Ennore, Chennai - TNPCB",07-01-2026 08:00:00,13.218341,80.32027,PM10,3,89,28
India,Rajasthan,Jodhpur,"Collectorate, Jodhpur - RSPCB",07-01-2026 08:00:00,26.268249,73.0193853,OZONE,15,60,35
India,Rajasthan,Jodhpur,"Digari Kalan, Jodhpur - RSPCB",07-01-2026 08:00:00,26.295810,73.082283,PM2.5,40,240,130
India,Rajasthan,Jodhpur,"Jhalamand, Jodhpur - RSPCB",07-01-2026 08:00:00,26.215415,73.070156,PM10,68,204,125
India,Rajasthan,Jodhpur,"Jhalamand, Jodhpur - RSPCB",07-01-2026 08:00:00,26.215415,73.070156,NO2,7,59,18
India,Rajasthan,Pali,"Indira Colony Vistar, Pali - RSPCB",07-01-2026 08:00:00,25.771061, 73.340227,SO2,5,13,9
India,Rajasthan,Pali,"Indira Colony Vistar, Pali - RSPCB",07-01-2026 08:00:00,25.771061, 73.340227,CO,18,72,48
India,Rajasthan,Rajsamand,"Dhoinda, Rajsamand - RSPCB",07-01-2026 08:00:00,25.036360,73.883502,PM10,60,157,107
India,Rajasthan,Rajsamand,"Dhoinda, Rajsamand - RSPCB",07-01-2026 08:00:00,25.036360,73.883502,NO2,12,51,25
India,Rajasthan,Jodhpur,"Jhalamand, Jodhpur - RSPCB",07-01-2026 08:00:00,26.215415,73.070156,OZONE,26,86,33
India,Rajasthan,Jodhpur,"Mandor, Jodhpur - RSPCB",07-01-2026 08:00:00,26.358805,73.047444,NO2,13,26,20
India,Rajasthan,Jodhpur,"Mandor, Jodhpur - RSPCB",07-01-2026 08:00:00,26.358805,73.047444,NH3,3,6,5
India,Rajasthan,Jhunjhunu,"Indra Nagar, Jhunjhunu - RSPCB",07-01-2026 08:00:00,28.108988,75.386577,PM2.5,69,264,157
India,Rajasthan,Jhunjhunu,"Indra Nagar, Jhunjhunu - RSPCB",07-01-2026 08:00:00,28.108988,75.386577,SO2,4,4,4
India,Rajasthan,Jhunjhunu,"Indra Nagar, Jhunjhunu - RSPCB",07-01-2026 08:00:00,28.108988,75.386577,CO,20,60,24
India,Rajasthan,Nagaur,"Karni Colony, Nagaur - RSPCB",07-01-2026 08:00:00,27.213494,73.734444,OZONE,29,98,39
India,Rajasthan,Pali,"Indira Colony Vistar, Pali - RSPCB",07-01-2026 08:00:00,25.771061, 73.340227,NO2,37,56,47
India,Rajasthan,Sikar,"Radhakishan Pura, Sikar - RSPCB",07-01-2026 08:00:00,27.608912,75.153302,NO2,16,35,26
India,Rajasthan,Sri Ganganagar,"Old City, Sri Ganganagar - RSPCB",07-01-2026 08:00:00,29.931624,73.864511,PM2.5,43,88,68
India,TamilNadu,Thoothukudi,"Meelavittan, Thoothukudi - TNPCB",07-01-2026 08:00:00,8.816428 ,78.099039,CO,11,39,24
India,Telangana,Hyderabad,"Bollaram Industrial Area, Hyderabad - TSPCB",07-01-2026 08:00:00,17.540891,78.358528,NH3,1,6,4
India,Telangana,Hyderabad,"Central University, Hyderabad - TSPCB",07-01-2026 08:00:00,17.460103,78.334361,NO2,24,41,31
India,Telangana,Hyderabad,"Central University, Hyderabad - TSPCB",07-01-2026 08:00:00,17.460103,78.334361,NH3,4,6,5
India,Telangana,Hyderabad,"Central University, Hyderabad - TSPCB",07-01-2026 08:00:00,17.460103,78.334361,SO2,8,14,11
India,Telangana,Hyderabad,"ECIL Kapra, Hyderabad - TSPCB",07-01-2026 08:00:00,17.470431,78.566959,PM10,62,81,69
India,Telangana,Hyderabad,"ECIL Kapra, Hyderabad - TSPCB",07-01-2026 08:00:00,17.470431,78.566959,NH3,2,7,5
India,Telangana,Hyderabad,"ECIL Kapra, Hyderabad - TSPCB",07-01-2026 08:00:00,17.470431,78.566959,OZONE,7,53,7
India,Telangana,Hyderabad,"IDA Pashamylaram, Hyderabad - TSPCB",07-01-2026 08:00:00,17.5316895,78.218939,PM10,44,123,90
India,Telangana,Hyderabad,"IDA Pashamylaram, Hyderabad - TSPCB",07-01-2026 08:00:00,17.5316895,78.218939,NO2,58,61,59
India,Telangana,Hyderabad,"IDA Pashamylaram, Hyderabad - TSPCB",07-01-2026 08:00:00,17.5316895,78.218939,NH3,6,6,6
India,Telangana,Hyderabad,"IDA Pashamylaram, Hyderabad - TSPCB",07-01-2026 08:00:00,17.5316895,78.218939,CO,24,112,77
India,Telangana,Hyderabad,"IITH Kandi, Hyderabad - TSPCB",07-01-2026 08:00:00,17.585705,78.126199,PM10,69,85,75
India,Telangana,Hyderabad,"Kokapet, Hyderabad - TSPCB",07-01-2026 08:00:00,17.393559,78.339194,PM2.5,59,75,69
India,Telangana,Hyderabad,"Kokapet, Hyderabad - TSPCB",07-01-2026 08:00:00,17.393559,78.339194,NO2,11,15,13
India,Telangana,Hyderabad,"Kokapet, Hyderabad - TSPCB",07-01-2026 08:00:00,17.393559,78.339194,SO2,11,17,14
India,Telangana,Hyderabad,"Kompally Municipal Office, Hyderabad - TSPCB",07-01-2026 08:00:00,17.544899,78.486949,PM2.5,43,61,54
India,TamilNadu,Ooty,"Bombay Castel, Ooty - TNPCB",07-01-2026 08:00:00,11.4068288,76.7138973,PM10,15,111,37
India,TamilNadu,Perundurai,"SIPCOT Industrial Park, Perundurai - TNPCB",07-01-2026 08:00:00,11.258242,77.552761,NO2,12,14,13
India,TamilNadu,Perundurai,"SIPCOT Industrial Park, Perundurai - TNPCB",07-01-2026 08:00:00,11.258242,77.552761,NH3,2,2,2
India,TamilNadu,Thoothukudi,"Meelavittan, Thoothukudi - TNPCB",07-01-2026 08:00:00,8.816428 ,78.099039,PM10,73,119,92
India,TamilNadu,Thoothukudi,"Meelavittan, Thoothukudi - TNPCB",07-01-2026 08:00:00,8.816428 ,78.099039,NO2,8,21,15
India,TamilNadu,Chennai,"Gandhi Nagar_Ennore, Chennai - TNPCB",07-01-2026 08:00:00,13.218341,80.32027,OZONE,1,4,2
India,TamilNadu,Chennai,"Kodungaiyur, Chennai - TNPCB",07-01-2026 08:00:00,13.1278,80.2642,PM2.5,142,207,180
India,TamilNadu,Chennai,"Kodungaiyur, Chennai - TNPCB",07-01-2026 08:00:00,13.1278,80.2642,PM10,101,178,135
India,TamilNadu,Chennai,"Manali, Chennai - CPCB",07-01-2026 08:00:00,13.164544,80.26285,PM10,98,111,104
India,TamilNadu,Chennai,"Manali, Chennai - CPCB",07-01-2026 08:00:00,13.164544,80.26285,NH3,7,7,7
India,TamilNadu,Dindigul,"Mendonsa Colony, Dindigul - TNPCB",07-01-2026 08:00:00,10.358535,77.984321,CO,34,37,35
India,TamilNadu,Gummidipoondi,"Anthoni Pillai Nagar, Gummidipoondi - TNPCB",07-01-2026 08:00:00,13.4127,80.1081,NO2,1,7,3
India,TamilNadu,Karur,"Kamadenu Nagar, Karur - TNPCB",07-01-2026 08:00:00,10.967820,78.080882,PM2.5,90,160,120
India,TamilNadu,Karur,"Kamadenu Nagar, Karur - TNPCB",07-01-2026 08:00:00,10.967820,78.080882,NH3,3,3,3
India,TamilNadu,Chennai,"Manali, Chennai - CPCB",07-01-2026 08:00:00,13.164544,80.26285,CO,13,50,22
India,TamilNadu,Chennai,"Perungudi, Chennai - TNPCB",07-01-2026 08:00:00,12.9533,80.2357,PM2.5,100,168,132
India,TamilNadu,Chennai,"Perungudi, Chennai - TNPCB",07-01-2026 08:00:00,12.9533,80.2357,PM10,101,123,110
India,TamilNadu,Chennai,"Perungudi, Chennai - TNPCB",07-01-2026 08:00:00,12.9533,80.2357,NH3,3,4,3
India,TamilNadu,Chennai,"Perungudi, Chennai - TNPCB",07-01-2026 08:00:00,12.9533,80.2357,OZONE,8,18,10
India,TamilNadu,Coimbatore,"SIDCO Kurichi, Coimbatore - TNPCB",07-01-2026 08:00:00,10.942451,76.978996,PM2.5,91,126,105
India,TamilNadu,Coimbatore,"SIDCO Kurichi, Coimbatore - TNPCB",07-01-2026 08:00:00,10.942451,76.978996,NO2,2,27,14
India,TamilNadu,Cuddalore,"Kudikadu, Cuddalore - TNPCB",07-01-2026 08:00:00,11.6829898,79.7532099,PM2.5,71,161,92
India,TamilNadu,Chennai,"Velachery Res. Area, Chennai - CPCB",07-01-2026 08:00:00,13.0052189,80.2398125,OZONE,4,8,4
India,TamilNadu,Coimbatore,"PSG College of Arts and Science, Coimbatore - TNPCB",07-01-2026 08:00:00,11.0328,77.0349,OZONE,4,7,5
India,TamilNadu,Chennai,"Royapuram, Chennai - TNPCB",07-01-2026 08:00:00,13.1036,80.2909,NO2,1,4,1
India,TamilNadu,Chennai,"Royapuram, Chennai - TNPCB",07-01-2026 08:00:00,13.1036,80.2909,CO,46,62,51
India,Telangana,Hyderabad,"Kompally Municipal Office, Hyderabad - TSPCB",07-01-2026 08:00:00,17.544899,78.486949,NH3,2,4,3
India,Telangana,Hyderabad,"Nacharam_TSIIC IALA, Hyderabad - TSPCB",07-01-2026 08:00:00,17.429398,78.569354,OZONE,15,35,15
India,Telangana,Hyderabad,"New Malakpet, Hyderabad - TSPCB",07-01-2026 08:00:00,17.37206,78.50864,NO2,13,15,14
India,Telangana,Hyderabad,"New Malakpet, Hyderabad - TSPCB",07-01-2026 08:00:00,17.37206,78.50864,NH3,2,3,3
India,Telangana,Hyderabad,"Ramachandrapuram, Hyderabad - TSPCB",07-01-2026 08:00:00,17.528544,78.286195,PM2.5,42,65,48
India,Telangana,Hyderabad,"Ramachandrapuram, Hyderabad - TSPCB",07-01-2026 08:00:00,17.528544,78.286195,OZONE,21,30,22
India,Uttar_Pradesh,Ghaziabad,"Sanjay Nagar, Ghaziabad - UPPCB",07-01-2026 08:00:00,28.685382,77.453839,SO2,5,16,10
India,Uttar_Pradesh,Ghaziabad,"Vasundhara, Ghaziabad - UPPCB",07-01-2026 08:00:00,28.6603346,77.3572563,PM2.5,275,385,344
India,Uttar_Pradesh,Ghaziabad,"Vasundhara, Ghaziabad - UPPCB",07-01-2026 08:00:00,28.6603346,77.3572563,PM10,150,298,235
India,Uttar_Pradesh,Gorakhpur,"Madan Mohan Malaviya University of Technology, Gorakhpur - UPPCB",07-01-2026 08:00:00,26.730136,83.433859,PM2.5,63,88,73
India,Uttar_Pradesh,Gorakhpur,"Madan Mohan Malaviya University of Technology, Gorakhpur - UPPCB",07-01-2026 08:00:00,26.730136,83.433859,PM10,20,105,73
India,Uttar_Pradesh,Bareilly,"Rajendra Nagar, Bareilly - UPPCB",07-01-2026 08:00:00,28.38910936,79.42963708,PM10,84,134,109
India,Uttar_Pradesh,Firozabad,"Nagla Bhau, Firozabad - UPPCB",07-01-2026 08:00:00,27.168897,78.376960,CO,2,62,62
India,Uttar_Pradesh,Firozabad,"Nagla Bhau, Firozabad - UPPCB",07-01-2026 08:00:00,27.168897,78.376960,OZONE,5,7,6
India,Uttar_Pradesh,Firozabad,"Vibhab Nagar, Firozabad - UPPCB",07-01-2026 08:00:00,27.1594,78.3953,PM2.5,53,147,87
India,Uttar_Pradesh,Firozabad,"Vibhab Nagar, Firozabad - UPPCB",07-01-2026 08:00:00,27.1594,78.3953,PM10,46,106,75
India,Uttar_Pradesh,Agra,"Rohta, Agra - UPPCB",07-01-2026 08:00:00,27.106972,78.000111,NH3,7,7,7
India,Uttar_Pradesh,Agra,"Sector-3B Avas Vikas Colony, Agra - UPPCB",07-01-2026 08:00:00,27.19412,77.96237,NO2,33,34,34
India,Uttar_Pradesh,Agra,"Sector-3B Avas Vikas Colony, Agra - UPPCB",07-01-2026 08:00:00,27.19412,77.96237,CO,14,26,15
India,Uttar_Pradesh,Agra,"Shahjahan Garden, Agra - UPPCB",07-01-2026 08:00:00,27.169338,78.03582,PM2.5,11,175,93
India,Uttar_Pradesh,Agra,"Shahjahan Garden, Agra - UPPCB",07-01-2026 08:00:00,27.169338,78.03582,PM10,88,451,178
India,Telangana,Hyderabad,"Sanathnagar, Hyderabad - TSPCB",07-01-2026 08:00:00,17.4559458,78.4332152,CO,38,62,58
India,Telangana,Hyderabad,"Somajiguda, Hyderabad - TSPCB",07-01-2026 08:00:00,17.417094,78.457437,NO2,12,16,14
India,Telangana,Hyderabad,"Somajiguda, Hyderabad - TSPCB",07-01-2026 08:00:00,17.417094,78.457437,NH3,3,4,4
India,Telangana,Hyderabad,"Somajiguda, Hyderabad - TSPCB",07-01-2026 08:00:00,17.417094,78.457437,OZONE,16,42,17
India,Telangana,Hyderabad,"Zoo Park, Hyderabad - TSPCB",07-01-2026 08:00:00,17.349694,78.451437,CO,1,106,4
India,Uttar_Pradesh,Firozabad,"Vibhab Nagar, Firozabad - UPPCB",07-01-2026 08:00:00,27.1594,78.3953,OZONE,1,1,1
India,Uttar_Pradesh,Ghaziabad,"Indirapuram, Ghaziabad - UPPCB",07-01-2026 08:00:00,28.646233,77.358075,NH3,7,26,18
India,Uttar_Pradesh,Ghaziabad,"Loni, Ghaziabad - UPPCB",07-01-2026 08:00:00,28.757294,77.278792,NO2,27,70,44
India,Uttar_Pradesh,Ghaziabad,"Sanjay Nagar, Ghaziabad - UPPCB",07-01-2026 08:00:00,28.685382,77.453839,NH3,8,43,12
India,Uttar_Pradesh,Gorakhpur,"Madan Mohan Malaviya University of Technology, Gorakhpur - UPPCB",07-01-2026 08:00:00,26.730136,83.433859,OZONE,3,18,5
India,Uttar_Pradesh,Greater Noida,"Knowledge Park - III, Greater Noida - UPPCB",07-01-2026 08:00:00,28.47272,77.482000,CO,4,24,10
India,Uttar_Pradesh,Greater Noida,"Knowledge Park - V, Greater Noida - UPPCB",07-01-2026 08:00:00,28.557054,77.453663,NO2,54,105,79
India,Uttar_Pradesh,Baghpat,"Sardar Patel Inter College, Baghpat - UPPCB",07-01-2026 08:00:00,28.964949,77.278761,NH3,1,7,3
India,Uttar_Pradesh,Agra,"Manoharpur, Agra - UPPCB",07-01-2026 08:00:00,27.23711,78.01936,NO2,32,32,32
India,Uttar_Pradesh,Meerut,"Ganga Nagar, Meerut - UPPCB",07-01-2026 08:00:00,28.999264,77.7590354,CO,24,54,27
India,Uttar_Pradesh,Meerut,"Jai Bhim Nagar, Meerut - UPPCB",07-01-2026 08:00:00,28.9535882,77.7622941,PM2.5,202,338,284
India,Uttar_Pradesh,Meerut,"Pallavpuram Phase 2, Meerut - UPPCB",07-01-2026 08:00:00,29.063510,77.709723,NH3,1,2,2
India,Uttar_Pradesh,Moradabad,"Eco Herbal Park, Moradabad - UPPCB",07-01-2026 08:00:00,28.840739,78.697531,PM2.5,87,271,142
India,Uttar_Pradesh,Varanasi,"Ardhali Bazar, Varanasi - UPPCB",07-01-2026 08:00:00,25.3505986,82.9083074,SO2,11,11,11
India,Uttar_Pradesh,Varanasi,"Ardhali Bazar, Varanasi - UPPCB",07-01-2026 08:00:00,25.3505986,82.9083074,CO,11,18,13
India,Uttar_Pradesh,Varanasi,"Bhelupur, Varanasi - UPPCB",07-01-2026 08:00:00,25.301778,82.996789,SO2,28,32,29
India,Uttar_Pradesh,Varanasi,"IESD Banaras Hindu University, Varanasi - UPPCB",07-01-2026 08:00:00,25.262326,82.995408,PM10,70,173,127
India,Uttar_Pradesh,Moradabad,"Employment Office, Moradabad - UPPCB",07-01-2026 08:00:00,28.88528,78.73880,SO2,21,25,22
India,Uttar_Pradesh,Moradabad,"Jigar Colony, Moradabad - UPPCB",07-01-2026 08:00:00,28.856664,78.772638,SO2,13,31,27
India,Uttar_Pradesh,Moradabad,"Jigar Colony, Moradabad - UPPCB",07-01-2026 08:00:00,28.856664,78.772638,OZONE,17,18,17
India,Uttar_Pradesh,Moradabad,"Kashiram Nagar, Moradabad - UPPCB",07-01-2026 08:00:00,28.849399,78.742362,SO2,19,82,54
India,Uttar_Pradesh,Jhansi,"Shivaji Nagar, Jhansi - UPPCB",07-01-2026 08:00:00,25.4547,78.6039,NO2,6,6,6
India,Uttar_Pradesh,Kanpur,"NSI Kalyanpur, Kanpur - UPPCB",07-01-2026 08:00:00,26.509954,80.249612,PM10,76,133,118
India,Uttar_Pradesh,Kanpur,"NSI Kalyanpur, Kanpur - UPPCB",07-01-2026 08:00:00,26.509954,80.249612,SO2,20,21,21
India,Uttar_Pradesh,Kanpur,"NSI Kalyanpur, Kanpur - UPPCB",07-01-2026 08:00:00,26.509954,80.249612,CO,43,51,45
India,Uttar_Pradesh,Moradabad,"Transport Nagar, Moradabad - UPPCB",07-01-2026 08:00:00,28.802625,78.753728,CO,37,85,76
India,Uttar_Pradesh,Noida,"Sector - 125, Noida - UPPCB",07-01-2026 08:00:00,28.5447608,77.3231257,PM2.5,228,351,309
India,Uttar_Pradesh,Noida,"Sector - 125, Noida - UPPCB",07-01-2026 08:00:00,28.5447608,77.3231257,SO2,10,12,11
India,Uttar_Pradesh,Lucknow,"Talkatora District Industries Center, Lucknow - CPCB",07-01-2026 08:00:00,26.83399722,80.8917361,NH3,6,10,8
India,Uttar_Pradesh,Meerut,"Ganga Nagar, Meerut - UPPCB",07-01-2026 08:00:00,28.999264,77.7590354,PM10,NA,NA,NA
India,Uttar_Pradesh,Meerut,"Ganga Nagar, Meerut - UPPCB",07-01-2026 08:00:00,28.999264,77.7590354,SO2,16,22,19
India,Uttar_Pradesh,Lucknow,"Kendriya Vidyalaya, Lucknow - CPCB",07-01-2026 08:00:00,26.906111,80.948222,NH3,12,18,15
India,Uttar_Pradesh,Lucknow,"Kukrail Picnic Spot-1, Lucknow - UPPCB",07-01-2026 08:00:00,26.90723,80.98579,NH3,6,6,6
India,Uttar_Pradesh,Lucknow,"B R Ambedkar University, Lucknow - UPPCB",07-01-2026 08:00:00,26.766433,80.927299,PM10,65,111,85
India,Uttar_Pradesh,Lucknow,"B R Ambedkar University, Lucknow - UPPCB",07-01-2026 08:00:00,26.766433,80.927299,NO2,4,5,5
India,Uttar_Pradesh,Lucknow,"B R Ambedkar University, Lucknow - UPPCB",07-01-2026 08:00:00,26.766433,80.927299,NH3,4,4,4
India,Uttar_Pradesh,Noida,"Sector-116, Noida - UPPCB",07-01-2026 08:00:00,28.569230,77.393848,NO2,53,130,93
India,Uttar_Pradesh,Prayagraj,"Jhunsi, Prayagraj - UPPCB",07-01-2026 08:00:00,25.425602,81.917152,NH3,5,5,5
India,West_Bengal,Durgapur,"Mahishkapur Road_B-Zone, Durgapur - WBPCB",07-01-2026 08:00:00,23.567923,87.306843,NO2,18,75,38
India,West_Bengal,Durgapur,"Mahishkapur Road_B-Zone, Durgapur - WBPCB",07-01-2026 08:00:00,23.567923,87.306843,CO,52,111,74
India,West_Bengal,Durgapur,"PCBL Residential Complex, Durgapur - WBPCB",07-01-2026 08:00:00,23.5087640,87.3544400,NO2,25,62,35
India,West_Bengal,Durgapur,"Womens College_City Center, Durgapur - WBPCB (Formerly known as Sidhu Kanhu Indoor Stadium)",07-01-2026 08:00:00,23.549395,87.300496,PM10,109,188,140
India,West_Bengal,Durgapur,"Womens College_City Center, Durgapur - WBPCB (Formerly known as Sidhu Kanhu Indoor Stadium)",07-01-2026 08:00:00,23.549395,87.300496,NH3,4,4,4
India,West_Bengal,Haldia,"Priyambada Housing Estate, Haldia - WBPCB",07-01-2026 08:00:00,22.06047,88.109737,PM2.5,114,239,193
India,West_Bengal,Haldia,"Priyambada Housing Estate, Haldia - WBPCB",07-01-2026 08:00:00,22.06047,88.109737,PM10,97,139,117
India,West_Bengal,Asansol,"Evelyn Lodge, Asansol - WBPCB",07-01-2026 08:00:00,23.6979360,86.9443950,OZONE,6,47,7
India,West_Bengal,Asansol,"Mahabir Colliery, Asansol - WBPCB",07-01-2026 08:00:00,23.6181830,87.1057180,PM2.5,98,354,289
India,West_Bengal,Asansol,"Mahabir Colliery, Asansol - WBPCB",07-01-2026 08:00:00,23.6181830,87.1057180,PM10,67,189,146
India,West_Bengal,Asansol,"Trivenidevi Bhalotia College, Asansol - WBPCB",07-01-2026 08:00:00,23.616515,87.119133,PM10,59,142,112
India,West_Bengal,Asansol,"Trivenidevi Bhalotia College, Asansol - WBPCB",07-01-2026 08:00:00,23.616515,87.119133,NH3,6,7,7
India,West_Bengal,Barrackpore,"SVSPA Campus, Barrackpore - WBPCB",07-01-2026 08:00:00,22.7605581,88.3617589,SO2,9,12,10
India,West_Bengal,Durgapur,"Mahishkapur Road_B-Zone, Durgapur - WBPCB",07-01-2026 08:00:00,23.567923,87.306843,PM2.5,102,308,169
India,Uttar_Pradesh,Varanasi,"IESD Banaras Hindu University, Varanasi - UPPCB",07-01-2026 08:00:00,25.262326,82.995408,OZONE,2,33,10
India,Uttar_Pradesh,Varanasi,"Maldahiya, Varanasi - UPPCB",07-01-2026 08:00:00,25.32393,82.99687,PM2.5,99,241,166
India,Uttar_Pradesh,Vrindavan,"Omex Eternity, Vrindavan - UPPCB",07-01-2026 08:00:00,27.5714090,77.6557570,PM2.5,18,89,43
India,Uttar_Pradesh,Vrindavan,"Omex Eternity, Vrindavan - UPPCB",07-01-2026 08:00:00,27.5714090,77.6557570,SO2,14,21,17
India,West_Bengal,Kolkata,"Rabindra Bharati University, Kolkata - WBPCB",07-01-2026 08:00:00,22.627847,88.380669,PM2.5,230,324,295
India,West_Bengal,Kolkata,"Rabindra Bharati University, Kolkata - WBPCB",07-01-2026 08:00:00,22.627847,88.380669,CO,29,102,46
India,West_Bengal,Kolkata,"Rabindra Sarobar, Kolkata - WBPCB",07-01-2026 08:00:00,22.51106,88.35142,PM2.5,92,302,200
India,West_Bengal,Kolkata,"Rabindra Sarobar, Kolkata - WBPCB",07-01-2026 08:00:00,22.51106,88.35142,PM10,97,173,134
India,West_Bengal,Kolkata,"Rabindra Sarobar, Kolkata - WBPCB",07-01-2026 08:00:00,22.51106,88.35142,NO2,51,142,93
India,West_Bengal,Kolkata,"Bidhannagar, Kolkata - WBPCB",07-01-2026 08:00:00,22.58157048,88.41002457,PM10,98,164,137
India,West_Bengal,Kolkata,"Bidhannagar, Kolkata - WBPCB",07-01-2026 08:00:00,22.58157048,88.41002457,NO2,25,116,53
India,West_Bengal,Kolkata,"Bidhannagar, Kolkata - WBPCB",07-01-2026 08:00:00,22.58157048,88.41002457,NH3,5,10,7
India,West_Bengal,Kolkata,"Bidhannagar, Kolkata - WBPCB",07-01-2026 08:00:00,22.58157048,88.41002457,SO2,12,50,20
India,West_Bengal,Howrah,"Ghusuri, Howrah - WBPCB",07-01-2026 08:00:00,22.611968,88.347422,PM10,121,319,197
India,West_Bengal,Howrah,"Padmapukur, Howrah - WBPCB",07-01-2026 08:00:00,22.5687319,88.2797276,NO2,15,51,33
India,West_Bengal,Howrah,"Padmapukur, Howrah - WBPCB",07-01-2026 08:00:00,22.5687319,88.2797276,NH3,3,9,6
India,West_Bengal,Howrah,"Belur Math, Howrah - WBPCB",07-01-2026 08:00:00,22.629801,88.352017,SO2,7,12,9
India,West_Bengal,Howrah,"Botanical Garden, Howrah - WBPCB",07-01-2026 08:00:00,22.554954,88.292568,PM2.5,66,343,211
India,West_Bengal,Howrah,"Botanical Garden, Howrah - WBPCB",07-01-2026 08:00:00,22.554954,88.292568,PM10,98,293,166
India,Uttarakhand,Kashipur,"Govt. Girls Inter College, Kashipur - UKPCB",07-01-2026 08:00:00,29.2124114,78.9611753,OZONE,3,4,4
India,West_Bengal,Kolkata,"Fort William, Kolkata - WBPCB",07-01-2026 08:00:00,22.556640,88.342674,OZONE,12,71,17
India,West_Bengal,Kolkata,"Victoria, Kolkata - WBPCB",07-01-2026 08:00:00,22.5448082,88.3403691,PM10,114,222,177
India,West_Bengal,Siliguri,"Ward-32 Bapupara, Siliguri - WBPCB",07-01-2026 08:00:00,26.6879226,88.4152495,SO2,13,17,15
India,Assam,Byrnihat,"Central Academy for SFS, Byrnihat - PCBA",07-01-2026 08:00:00,26.071318,91.87488,NO2,4,9,7
India,Assam,Byrnihat,"Central Academy for SFS, Byrnihat - PCBA",07-01-2026 08:00:00,26.071318,91.87488,OZONE,15,29,16
India,Assam,Guwahati,"LGBI Airport, Guwahati - PCBA",07-01-2026 08:00:00,26.10887,91.589544,NO2,8,160,22
India,Assam,Guwahati,"LGBI Airport, Guwahati - PCBA",07-01-2026 08:00:00,26.10887,91.589544,NH3,5,17,6
India,Assam,Guwahati,"LGBI Airport, Guwahati - PCBA",07-01-2026 08:00:00,26.10887,91.589544,CO,20,71,37
India,Assam,Guwahati,"Pan Bazaar, Guwahati - PCBA",07-01-2026 08:00:00,26.187500,91.744194,PM2.5,1,1,1
India,Assam,Guwahati,"Pan Bazaar, Guwahati - PCBA",07-01-2026 08:00:00,26.187500,91.744194,SO2,13,23,18
India,Bihar,Aurangabad,"Gurdeo Nagar, Aurangabad - BSPCB",07-01-2026 08:00:00,24.75746,84.366208,NO2,7,8,8
India,Bihar,Begusarai,"Lohiyanagar, Begusarai - BSPCB",07-01-2026 08:00:00,25.42742023,86.13886079,NO2,10,47,15
India,Bihar,Begusarai,"Lohiyanagar, Begusarai - BSPCB",07-01-2026 08:00:00,25.42742023,86.13886079,SO2,97,106,102
India,Bihar,Bettiah,"Kamalnath Nagar, Bettiah - BSPCB",07-01-2026 08:00:00,26.80365,84.51954,NH3,1,1,1
India,Bihar,Bhagalpur,"DM Office_Kachari Chowk, Bhagalpur - BSPCB",07-01-2026 08:00:00,25.251013,86.989001,NH3,1,1,1
India,Bihar,Bhagalpur,"DM Office_Kachari Chowk, Bhagalpur - BSPCB",07-01-2026 08:00:00,25.251013,86.989001,SO2,34,77,55
India,Andhra_Pradesh,Anantapur,"Gulzarpet, Anantapur - APPCB",07-01-2026 08:00:00,14.675886,77.593027,OZONE,30,80,35
India,Andhra_Pradesh,Kadapa,"Yerramukkapalli, Kadapa - APPCB",07-01-2026 08:00:00,14.465052,78.824187,NO2,20,26,23
India,Andhra_Pradesh,Kadapa,"Yerramukkapalli, Kadapa - APPCB",07-01-2026 08:00:00,14.465052,78.824187,CO,23,39,33
India,Andhra_Pradesh,Kadapa,"Yerramukkapalli, Kadapa - APPCB",07-01-2026 08:00:00,14.465052,78.824187,OZONE,25,27,27
India,Andhra_Pradesh,Tirumala,"Toll Gate, Tirumala - APPCB",07-01-2026 08:00:00,13.67,79.35,PM2.5,155,268,205
India,Andaman and Nicobar,Sri Vijaya Puram,"Police Line, Sri Vijaya Puram - ANPCC",07-01-2026 08:00:00,11.654054,92.734055,PM10,NA,NA,NA
India,Andhra_Pradesh,Amaravati,"Secretariat, Amaravati - APPCB",07-01-2026 08:00:00,16.5150833,80.5181667,PM2.5,50,223,137
India,Andhra_Pradesh,Anantapur,"Gulzarpet, Anantapur - APPCB",07-01-2026 08:00:00,14.675886,77.593027,NO2,15,29,18
India,Assam,Sivasagar,"Girls College, Sivasagar - PCBA",07-01-2026 08:00:00,26.987634,94.636574,NH3,4,11,7
India,Assam,Sivasagar,"Girls College, Sivasagar - PCBA",07-01-2026 08:00:00,26.987634,94.636574,OZONE,4,61,10
India,Bihar,Arrah,"New DM Office, Arrah - BSPCB",07-01-2026 08:00:00,25.5626095,84.663264,SO2,9,10,10
India,Bihar,Arrah,"New DM Office, Arrah - BSPCB",07-01-2026 08:00:00,25.5626095,84.663264,CO,37,66,55
India,Assam,Nagaon,"Christianpatty, Nagaon - PCBA",07-01-2026 08:00:00,26.349082,92.68449,PM2.5,52,220,127
India,Assam,Nagaon,"Christianpatty, Nagaon - PCBA",07-01-2026 08:00:00,26.349082,92.68449,PM10,58,140,108
India,Assam,Nagaon,"Christianpatty, Nagaon - PCBA",07-01-2026 08:00:00,26.349082,92.68449,CO,18,24,23
India,Assam,Nalbari,"Bata Chowk, Nalbari - PCBA",07-01-2026 08:00:00,26.446912,91.439057,SO2,7,8,8
India,Andhra_Pradesh,Vijayawada,"Kanuru, Vijayawada - APPCB",07-01-2026 08:00:00,16.486692,80.699436,NO2,24,33,27
India,Andhra_Pradesh,Vijayawada,"Kanuru, Vijayawada - APPCB",07-01-2026 08:00:00,16.486692,80.699436,SO2,15,25,18
India,Andhra_Pradesh,Vijayawada,"Rajiv Gandhi Park, Vijayawada - APPCB",07-01-2026 08:00:00,16.509717,80.612222,NH3,3,5,4
India,Andhra_Pradesh,Vijayawada,"Rajiv Gandhi Park, Vijayawada - APPCB",07-01-2026 08:00:00,16.509717,80.612222,CO,26,40,38
India,Andhra_Pradesh,Tirumala,"Toll Gate, Tirumala - APPCB",07-01-2026 08:00:00,13.67,79.35,SO2,2,11,6
India,Andhra_Pradesh,Vijayawada,"HB Colony, Vijayawada - APPCB",07-01-2026 08:00:00,16.536107,80.594233,OZONE,9,34,23
India,Andhra_Pradesh,Vijayawada,"Rajiv Nagar, Vijayawada - APPCB",07-01-2026 08:00:00,16.554731,80.649110,PM2.5,95,153,123
India,Andhra_Pradesh,Vijayawada,"Rajiv Nagar, Vijayawada - APPCB",07-01-2026 08:00:00,16.554731,80.649110,CO,28,46,30
India,Andhra_Pradesh,Vijayawada,"Rajiv Nagar, Vijayawada - APPCB",07-01-2026 08:00:00,16.554731,80.649110,OZONE,16,29,24
India,Assam,Guwahati,"Pan Bazaar, Guwahati - PCBA",07-01-2026 08:00:00,26.187500,91.744194,OZONE,17,18,17
India,Assam,Guwahati,"Railway Colony, Guwahati - PCBA",07-01-2026 08:00:00,26.181742,91.78063,NO2,3,4,3
India,Bihar,Manguraha,"Forest Rest House, Manguraha - BSPCB",07-01-2026 08:00:00,27.308328,84.531742,OZONE,9,10,10
India,Bihar,Motihari,"Gandak Colony, Motihari - BSPCB",07-01-2026 08:00:00,26.63086,84.90051,PM2.5,32,310,141
India,Bihar,Motihari,"Gandak Colony, Motihari - BSPCB",07-01-2026 08:00:00,26.63086,84.90051,SO2,2,3,3
India,Bihar,Munger,"Town Hall, Munger - BSPCB",07-01-2026 08:00:00,25.376776,86.471523,OZONE,15,37,18
India,Bihar,Muzaffarpur,"Buddha Colony, Muzaffarpur - BSPCB",07-01-2026 08:00:00,26.11442,85.39813,OZONE,18,95,30
India,Bihar,Muzaffarpur,"MIT-Daudpur Kothi, Muzaffarpur - BSPCB",07-01-2026 08:00:00,26.1403345,85.3650192,PM2.5,92,123,113
India,Bihar,Muzaffarpur,"Muzaffarpur Collectorate, Muzaffarpur - BSPCB",07-01-2026 08:00:00,26.1209,85.3647,PM2.5,103,153,134
India,Bihar,Patna,"DRM Office Danapur, Patna - BSPCB",07-01-2026 08:00:00,25.586562,85.043586,NO2,28,93,49
India,Bihar,Patna,"DRM Office Danapur, Patna - BSPCB",07-01-2026 08:00:00,25.586562,85.043586,NH3,5,12,7
India,Bihar,Patna,"Govt. High School Shikarpur, Patna - BSPCB",07-01-2026 08:00:00,25.592539,85.227158,NO2,13,18,16
India,Bihar,Patna,"Govt. High School Shikarpur, Patna - BSPCB",07-01-2026 08:00:00,25.592539,85.227158,NH3,4,5,5
India,Bihar,Patna,"IGSC Planetarium Complex, Patna - BSPCB",07-01-2026 08:00:00,25.610369,85.132568,PM2.5,NA,NA,NA
India,Chandigarh,Chandigarh,"Sector 22, Chandigarh - CPCC",07-01-2026 08:00:00,30.735567,76.775714,CO,73,90,75
India,Chandigarh,Chandigarh,"Sector-25, Chandigarh - CPCC",07-01-2026 08:00:00,30.751462,76.762879,PM2.5,118,188,155
India,Chandigarh,Chandigarh,"Sector-25, Chandigarh - CPCC",07-01-2026 08:00:00,30.751462,76.762879,OZONE,3,17,6
India,Chandigarh,Chandigarh,"Sector-53, Chandigarh - CPCC",07-01-2026 08:00:00,30.719859,76.738637,PM10,98,151,118
India,Chhattisgarh,Bhilai,"32Bungalows, Bhilai - CECB",07-01-2026 08:00:00,21.194815,81.314770,PM2.5,5,43,25
India,Bihar,Patna,"Muradpur, Patna - BSPCB",07-01-2026 08:00:00,25.619651,85.147382,PM2.5,162,295,209
India,Bihar,Patna,"Rajbansi Nagar, Patna - BSPCB",07-01-2026 08:00:00,25.599486,85.113666,PM2.5,98,193,142
India,Bihar,Patna,"Samanpura, Patna - BSPCB",07-01-2026 08:00:00,25.596727,85.085624,NO2,21,23,22
India,Bihar,Patna,"Samanpura, Patna - BSPCB",07-01-2026 08:00:00,25.596727,85.085624,OZONE,1,59,26
India,Bihar,Purnia,"Mariam Nagar, Purnia - BSPCB",07-01-2026 08:00:00,25.366336,87.117468,PM10,81,173,111
India,Bihar,Chhapra,"Darshan Nagar, Chhapra - BSPCB",07-01-2026 08:00:00,25.7808257,84.7446768,NO2,1,2,1
India,Bihar,Gaya,"Collectorate, Gaya - BSPCB",07-01-2026 08:00:00,24.7955,84.9994,CO,32,44,35
India,Bihar,Gaya,"Kareemganj, Gaya - BSPCB",07-01-2026 08:00:00,24.792403,84.992416,NH3,4,6,5
India,Bihar,Gaya,"SFTI Kusdihra, Gaya - BSPCB",07-01-2026 08:00:00,24.762518,84.982348,PM10,66,106,86
India,Bihar,Hajipur,"Industrial Area, Hajipur - BSPCB",07-01-2026 08:00:00,25.697189,85.245900,NH3,7,10,9
India,Bihar,Katihar,"Mirchaibari, Katihar - BSPCB",07-01-2026 08:00:00,25.560083,87.553265,NO2,7,12,9
India,Bihar,Kishanganj,"SDM Office_Khagra, Kishanganj - BSPCB",07-01-2026 08:00:00,26.0881305,87.93840336,OZONE,16,18,17
India,Bihar,Saharsa,"Police Line, Saharsa - BSPCB",07-01-2026 08:00:00,25.892357,86.590325,NH3,4,4,4
India,Bihar,Saharsa,"Police Line, Saharsa - BSPCB",07-01-2026 08:00:00,25.892357,86.590325,CO,34,40,37
India,Bihar,Samastipur,"DM Office_Kasipur, Samastipur - BSPCB",07-01-2026 08:00:00,25.859655,85.77944,CO,8,12,9
India,Bihar,Purnia,"Mariam Nagar, Purnia - BSPCB",07-01-2026 08:00:00,25.366336,87.117468,NH3,3,3,3
India,Bihar,Rajgir,"Dangi Tola, Rajgir - BSPCB",07-01-2026 08:00:00,25.03280,85.41948,PM2.5,NA,NA,NA
India,Bihar,Bihar Sharif,"D M Colony, Bihar Sharif - BSPCB",07-01-2026 08:00:00,25.204762,85.514960,SO2,9,10,10
India,Bihar,Buxar,"Charitra Van, Buxar - BSPCB",07-01-2026 08:00:00,25.567520,83.966379,CO,21,28,25
India,Delhi,Delhi,"Burari Crossing, Delhi - IMD",07-01-2026 08:00:00,28.7256504,77.2011573,CO,7,44,13
India,Delhi,Delhi,"Burari Crossing, Delhi - IMD",07-01-2026 08:00:00,28.7256504,77.2011573,OZONE,11,32,23
India,Delhi,Delhi,"CRRI Mathura Road, Delhi - IMD",07-01-2026 08:00:00,28.5512005,77.2735737,CO,10,70,19
India,Delhi,Delhi,"Chandni Chowk, Delhi - IITM",07-01-2026 08:00:00,28.656756,77.227234,NO2,38,69,55
India,Delhi,Delhi,"Chandni Chowk, Delhi - IITM",07-01-2026 08:00:00,28.656756,77.227234,NH3,7,10,9
India,Delhi,Delhi,"Dr. Karni Singh Shooting Range, Delhi - DPCC",07-01-2026 08:00:00,28.498571,77.264840,PM2.5,293,391,340
India,Delhi,Delhi,"Dr. Karni Singh Shooting Range, Delhi - DPCC",07-01-2026 08:00:00,28.498571,77.264840,SO2,7,12,10
India,Delhi,Delhi,"Dr. Karni Singh Shooting Range, Delhi - DPCC",07-01-2026 08:00:00,28.498571,77.264840,OZONE,3,40,20
India,Delhi,Delhi,"Dwarka-Sector 8, Delhi - DPCC ",07-01-2026 08:00:00,28.5710274,77.0719006,NH3,23,26,24
India,Delhi,Delhi,"Dwarka-Sector 8, Delhi - DPCC ",07-01-2026 08:00:00,28.5710274,77.0719006,OZONE,6,33,28
India,Delhi,Delhi,"IHBAS, Dilshad Garden, Delhi - CPCB",07-01-2026 08:00:00,28.6811736,77.3025234,NO2,36,77,51
India,Delhi,Delhi,"IHBAS, Dilshad Garden, Delhi - CPCB",07-01-2026 08:00:00,28.6811736,77.3025234,OZONE,2,34,4
India,Chhattisgarh,Tumidih,"OP Jindal Industrial Park, Tumidih - CECB",07-01-2026 08:00:00,22.06631475,83.33820077,NH3,1,3,2
India,Delhi,Delhi,"Alipur, Delhi - DPCC",07-01-2026 08:00:00,28.815329,77.153010,NO2,25,40,32
India,Delhi,Delhi,"Anand Vihar, Delhi - DPCC",07-01-2026 08:00:00,28.647622,77.3158090,OZONE,3,7,4
India,Delhi,Delhi,"Ashok Vihar, Delhi - DPCC",07-01-2026 08:00:00,28.695381,77.181665,PM2.5,230,349,317
India,Chhattisgarh,Bhilai,"Civic Center, Bhilai - Bhilai Steel Plant",07-01-2026 08:00:00,21.185571,81.343175,NH3,3,4,3
India,Chhattisgarh,Bhilai,"Hathkhoj, Bhilai - CECB",07-01-2026 08:00:00,21.224231,81.408350,SO2,4,69,26
India,Chhattisgarh,Bhilai,"Hathkhoj, Bhilai - CECB",07-01-2026 08:00:00,21.224231,81.408350,OZONE,4,12,6
India,Chhattisgarh,Chhal,"Nawapara SECL Colony, Chhal - CECB",07-01-2026 08:00:00,22.118125,83.140608,PM2.5,39,88,59
India,Chhattisgarh,Raipur,"Bhatagaon New ISBT, Raipur - CECB",07-01-2026 08:00:00,21.219665,81.630094,PM2.5,12,44,28
India,Chhattisgarh,Raipur,"Krishak Nagar, Raipur - CECB",07-01-2026 08:00:00,21.237755,81.705301,SO2,3,5,4
India,Chhattisgarh,Korba,"Rampur, Korba - CECB",07-01-2026 08:00:00,22.368195,82.746431,CO,20,38,25
India,Chhattisgarh,Korba,"Urja Nagar, Korba - CECB",07-01-2026 08:00:00,22.348441,82.549611,PM2.5,10,304,102
India,Delhi,Delhi,"Aya Nagar, Delhi - IMD",07-01-2026 08:00:00,28.4706914,77.1099364,NO2,10,38,23
India,Delhi,Delhi,"Aya Nagar, Delhi - IMD",07-01-2026 08:00:00,28.4706914,77.1099364,CO,28,51,31
India,Chhattisgarh,Milupara,"Govt. Higher Secondary School, Milupara - CECB",07-01-2026 08:00:00,22.1910172,83.5197009,PM2.5,40,72,53
India,Chhattisgarh,Raipur,"Siltara Phase-II, Raipur - CECB",07-01-2026 08:00:00,21.371751,81.664929,CO,34,36,35
India,Delhi,Delhi,"Jawaharlal Nehru Stadium, Delhi - DPCC",07-01-2026 08:00:00,28.580280,77.233829,OZONE,2,54,28
India,Delhi,Delhi,"Lodhi Road, Delhi - IMD",07-01-2026 08:00:00,28.5918245,77.2273074,OZONE,16,58,35
India,Delhi,Delhi,"Major Dhyan Chand National Stadium, Delhi - DPCC",07-01-2026 08:00:00,28.611281,77.237738,CO,48,86,52
India,Delhi,Delhi,"Mandir Marg, Delhi - DPCC",07-01-2026 08:00:00,28.636429,77.201067,PM2.5,103,349,260
India,Delhi,Delhi,"Mandir Marg, Delhi - DPCC",07-01-2026 08:00:00,28.636429,77.201067,SO2,6,40,24
India,Delhi,Delhi,"Patparganj, Delhi - DPCC",07-01-2026 08:00:00,28.623763,77.287209,PM10,123,237,173
India,Delhi,Delhi,"Patparganj, Delhi - DPCC",07-01-2026 08:00:00,28.623763,77.287209,NH3,9,12,11
India,Delhi,Delhi,"Pusa, Delhi - DPCC",07-01-2026 08:00:00,28.639652,77.146275,PM2.5,273,392,345
India,Delhi,Delhi,"R K Puram, Delhi - DPCC",07-01-2026 08:00:00,28.563262,77.186937,NO2,6,24,15
India,Delhi,Delhi,"Mundka, Delhi - DPCC",07-01-2026 08:00:00,28.684678,77.076574,PM2.5,253,382,331
India,Delhi,Delhi,"NSIT Dwarka, Delhi - CPCB",07-01-2026 08:00:00,28.60909,77.0325413,CO,41,103,55
India,Delhi,Delhi,"Najafgarh, Delhi - DPCC",07-01-2026 08:00:00,28.570173,76.933762,NH3,13,16,14
India,Delhi,Delhi,"R K Puram, Delhi - DPCC",07-01-2026 08:00:00,28.563262,77.186937,SO2,25,31,27
India,Delhi,Delhi,"Rohini, Delhi - DPCC",07-01-2026 08:00:00,28.732528,77.119920,NH3,8,12,9
India,Delhi,Delhi,"Rohini, Delhi - DPCC",07-01-2026 08:00:00,28.732528,77.119920,SO2,4,6,6
India,Delhi,Delhi,"Rohini, Delhi - DPCC",07-01-2026 08:00:00,28.732528,77.119920,OZONE,21,196,85
India,Delhi,Delhi,"ITO, Delhi - CPCB",07-01-2026 08:00:00,28.628624,77.241060,PM2.5,171,358,291
India,Delhi,Delhi,"ITO, Delhi - CPCB",07-01-2026 08:00:00,28.628624,77.241060,OZONE,29,44,32
India,Delhi,Delhi,"Jawaharlal Nehru Stadium, Delhi - DPCC",07-01-2026 08:00:00,28.580280,77.233829,PM2.5,297,379,339
India,Delhi,Delhi,"Narela, Delhi - DPCC",07-01-2026 08:00:00,28.822836,77.101981,NO2,10,25,17
India,Delhi,Delhi,"Narela, Delhi - DPCC",07-01-2026 08:00:00,28.822836,77.101981,OZONE,4,31,28
India,Delhi,Delhi,"North Campus, DU, Delhi - IMD",07-01-2026 08:00:00,28.6573814,77.1585447,OZONE,11,58,45
India,Gujarat,Ahmedabad,"Raikhad, Ahmedabad - IITM",07-01-2026 08:00:00,23.020509,72.579261,NH3,NA,NA,NA
India,Gujarat,Ahmedabad,"Raikhad, Ahmedabad - IITM",07-01-2026 08:00:00,23.020509,72.579261,OZONE,3,69,15
India,Gujarat,Ahmedabad,"Rakhial, Ahmedabad - IITM",07-01-2026 08:00:00,23.016834,72.625775,CO,27,147,48
India,Delhi,Delhi,"Vivek Vihar, Delhi - DPCC",07-01-2026 08:00:00,28.672342,77.315260,NO2,26,66,43
India,Delhi,Delhi,"Wazirpur, Delhi - DPCC",07-01-2026 08:00:00,28.699793,77.165453,CO,26,64,34
India,Delhi,Delhi,"Sonia Vihar, Delhi - DPCC",07-01-2026 08:00:00,28.710508,77.249485,OZONE,2,27,24
India,Haryana,Bhiwani,"H.B. Colony, Bhiwani - HSPCB",07-01-2026 08:00:00,28.806223,76.141105,PM10,124,139,129
India,Haryana,Charkhi Dadri,"Mini Secretariat, Charkhi Dadri - HSPCB",07-01-2026 08:00:00,28.593883,76.270653,PM2.5,249,323,307
India,Haryana,Charkhi Dadri,"Mini Secretariat, Charkhi Dadri - HSPCB",07-01-2026 08:00:00,28.593883,76.270653,PM10,138,184,165
India,Haryana,Charkhi Dadri,"Mini Secretariat, Charkhi Dadri - HSPCB",07-01-2026 08:00:00,28.593883,76.270653,SO2,10,12,11
India,Haryana,Charkhi Dadri,"Mini Secretariat, Charkhi Dadri - HSPCB",07-01-2026 08:00:00,28.593883,76.270653,CO,8,25,16
India,Haryana,Dharuhera,"Municipal Corporation Office, Dharuhera -  HSPCB",07-01-2026 08:00:00,28.206800,76.799700,PM10,106,270,192
India,Haryana,Dharuhera,"Municipal Corporation Office, Dharuhera -  HSPCB",07-01-2026 08:00:00,28.206800,76.799700,CO,49,56,52
India,Haryana,Dharuhera,"Municipal Corporation Office, Dharuhera -  HSPCB",07-01-2026 08:00:00,28.206800,76.799700,OZONE,3,25,4
India,Gujarat,Gandhinagar,"IIPHG Lekawada, Gandhinagar - IITM",07-01-2026 08:00:00,23.243639,72.68994,OZONE,2,45,2
India,Gujarat,Gandhinagar,"Sector-10, Gandhinagar - GPCB",07-01-2026 08:00:00,23.221714,72.654328,PM10,78,192,119
India,Gujarat,Gandhinagar,"Sector-10, Gandhinagar - GPCB",07-01-2026 08:00:00,23.221714,72.654328,CO,16,46,24
India,Gujarat,Gandhinagar,"Sector-10, Gandhinagar - GPCB",07-01-2026 08:00:00,23.221714,72.654328,OZONE,4,84,13
India,Gujarat,Surat,"Science Center, Surat - SMC",07-01-2026 08:00:00,21.170046,72.795405,PM2.5,71,181,123
India,Gujarat,Vapi,"Phase-1 GIDC, Vapi - GPCB",07-01-2026 08:00:00,20.362421,72.918013,PM10,79,500,134
India,Gujarat,Ahmedabad,"SVPI Airport Hansol, Ahmedabad - IITM",07-01-2026 08:00:00,23.076793,72.627874,CO,5,88,13
India,Gujarat,Ankleshwar,"GIDC, Ankleshwar - GPCB",07-01-2026 08:00:00,21.613267,73.010555,OZONE,12,82,16
India,Gujarat,Gandhinagar,"GIFT City, Gandhinagar - IITM",07-01-2026 08:00:00,23.163798,72.677768,PM2.5,7,35,17
India,Gujarat,Gandhinagar,"GIFT City, Gandhinagar - IITM",07-01-2026 08:00:00,23.163798,72.677768,CO,16,76,26
India,Gujarat,Gandhinagar,"IIPHG Lekawada, Gandhinagar - IITM",07-01-2026 08:00:00,23.243639,72.68994,PM10,74,151,107
India,Haryana,Ambala,"Patti Mehar, Ambala - HSPCB",07-01-2026 08:00:00,30.379589,76.778328,NO2,21,25,23
India,Haryana,Ambala,"Patti Mehar, Ambala - HSPCB",07-01-2026 08:00:00,30.379589,76.778328,SO2,15,31,22
India,Haryana,Bahadurgarh,"Arya Nagar, Bahadurgarh - HSPCB",07-01-2026 08:00:00,28.6701,76.9254,PM2.5,54,308,187
India,Haryana,Ballabgarh,"Nathu Colony, Ballabgarh - HSPCB",07-01-2026 08:00:00,28.3419248,77.319699,NO2,19,21,20
India,Haryana,Bhiwani,"H.B. Colony, Bhiwani - HSPCB",07-01-2026 08:00:00,28.806223,76.141105,PM2.5,223,270,240
India,Haryana,Gurugram,"Vikas Sadan, Gurugram - HSPCB",07-01-2026 08:00:00,28.4501238,77.0263051,NO2,7,35,20
India,Haryana,Gurugram,"Vikas Sadan, Gurugram - HSPCB",07-01-2026 08:00:00,28.4501238,77.0263051,SO2,2,8,5
India,Haryana,Hisar,"Urban Estate-II, Hisar - HSPCB",07-01-2026 08:00:00,29.140560,75.744941,PM10,NA,NA,NA
India,Haryana,Hisar,"Urban Estate-II, Hisar - HSPCB",07-01-2026 08:00:00,29.140560,75.744941,CO,NA,NA,NA
India,Haryana,Hisar,"Urban Estate-II, Hisar - HSPCB",07-01-2026 08:00:00,29.140560,75.744941,OZONE,NA,NA,NA
India,Haryana,Gurugram,"NISE Gwal Pahari, Gurugram - IMD",07-01-2026 08:00:00,28.422681,77.148944,PM10,27,249,165
India,Haryana,Gurugram,"Sector-51, Gurugram - HSPCB",07-01-2026 08:00:00,28.4227,77.0667,NH3,9,14,12
India,Haryana,Gurugram,"Sector-51, Gurugram - HSPCB",07-01-2026 08:00:00,28.4227,77.0667,SO2,7,9,8
India,Haryana,Gurugram,"Teri Gram, Gurugram - HSPCB",07-01-2026 08:00:00,28.4275,77.1465,NH3,NA,NA,NA
India,Haryana,Faridabad,"Sector 11, Faridabad - HSPCB",07-01-2026 08:00:00,28.376058,77.315741,NO2,29,33,31
India,Haryana,Faridabad,"Sector 11, Faridabad - HSPCB",07-01-2026 08:00:00,28.376058,77.315741,NH3,10,10,10
India,Haryana,Faridabad,"Sector 11, Faridabad - HSPCB",07-01-2026 08:00:00,28.376058,77.315741,SO2,4,5,5
India,Haryana,Faridabad,"Sector 30, Faridabad - HSPCB",07-01-2026 08:00:00,28.4417,77.3217,PM2.5,224,232,226
India,Gujarat,Vapi,"Phase-1 GIDC, Vapi - GPCB",07-01-2026 08:00:00,20.362421,72.918013,NH3,4,6,5
India,Gujarat,Vatva,"Phase-4 GIDC, Vatva - GPCB",07-01-2026 08:00:00,22.969611,72.643500,PM2.5,50,341,182
India,Gujarat,Ahmedabad,"SAC ISRO Bopal, Ahmedabad - IITM",07-01-2026 08:00:00,23.041137,72.456691,NO2,20,48,33
India,Gujarat,Ahmedabad,"SAC ISRO Satellite, Ahmedabad - IITM",07-01-2026 08:00:00,23.023389,72.515201,OZONE,2,58,13
India,Haryana,Sirsa,"F-Block, Sirsa - HSPCB",07-01-2026 08:00:00,29.536400,75.015800,PM2.5,56,125,90
India,Haryana,Yamuna Nagar,"Gobind Pura, Yamuna Nagar - HSPCB",07-01-2026 08:00:00,30.1480566,77.2893471,PM10,117,166,140
India,Haryana,Yamuna Nagar,"Gobind Pura, Yamuna Nagar - HSPCB",07-01-2026 08:00:00,30.1480566,77.2893471,OZONE,8,33,12
India,Himachal Pradesh,Baddi,"HIMUDA Complex Phase-1, Baddi - HPPCB",07-01-2026 08:00:00,30.943887,76.801991,PM2.5,62,347,165
India,Himachal Pradesh,Baddi,"HIMUDA Complex Phase-1, Baddi - HPPCB",07-01-2026 08:00:00,30.943887,76.801991,SO2,20,106,36
India,Himachal Pradesh,Baddi,"HIMUDA Complex Phase-1, Baddi - HPPCB",07-01-2026 08:00:00,30.943887,76.801991,CO,58,88,63
India,Karnataka,Bengaluru,"Hombegowda Nagar, Bengaluru - KSPCB",07-01-2026 08:00:00,12.938539,77.590100,OZONE,26,50,36
India,Karnataka,Bengaluru,"Jayanagar 5th Block, Bengaluru - KSPCB",07-01-2026 08:00:00,12.920984,77.584908,OZONE,44,80,71
India,Karnataka,Bengaluru,"Jigani, Bengaluru - KSPCB",07-01-2026 08:00:00,12.7816279,77.6299145,CO,34,44,44
India,Karnataka,Bengaluru,"Kasturi Nagar, Bengaluru - KSPCB",07-01-2026 08:00:00,13.003872,77.664217,NO2,29,48,33
India,Karnataka,Bengaluru,"Kasturi Nagar, Bengaluru - KSPCB",07-01-2026 08:00:00,13.003872,77.664217,OZONE,23,24,23
India,Jammu_and_Kashmir,Srinagar,"Khunmoh, Srinagar - JKPCC",07-01-2026 08:00:00,34.06313,74.96017,SO2,3,5,4
India,Jammu_and_Kashmir,Srinagar,"Rajbagh, Srinagar - JKPCC",07-01-2026 08:00:00,34.066206,74.819820,OZONE,NA,NA,NA
India,Jharkhand,Dhanbad,"Sardar Patel Nagar, Dhanbad - JSPCB",07-01-2026 08:00:00,23.80569,86.44268,PM10,78,319,166
India,Jharkhand,Dhanbad,"Sardar Patel Nagar, Dhanbad - JSPCB",07-01-2026 08:00:00,23.80569,86.44268,SO2,21,28,27
India,Karnataka,Bagalkot,"Vidayagiri, Bagalkot - KSPCB",07-01-2026 08:00:00,16.172806,75.659694,NO2,11,12,12
India,Karnataka,Belgaum,"Ramteerth Nagar, Belgaum - KSPCB",07-01-2026 08:00:00,15.888653,74.541751,PM10,47,133,87
India,Karnataka,Belgaum,"Ramteerth Nagar, Belgaum - KSPCB",07-01-2026 08:00:00,15.888653,74.541751,NO2,32,130,57
India,Karnataka,Bengaluru,"BWSSB Kadabesanahalli, Bengaluru - CPCB",07-01-2026 08:00:00,12.9352049,77.6814488,PM2.5,99,332,246
India,Haryana,Kaithal,"Rishi Nagar, Kaithal - HSPCB",07-01-2026 08:00:00,29.8006,76.4155,CO,6,43,18
India,Haryana,Kurukshetra,"Sector-7, Kurukshetra - HSPCB",07-01-2026 08:00:00,29.966942,76.875879,PM2.5,140,192,172
India,Haryana,Kurukshetra,"Sector-7, Kurukshetra - HSPCB",07-01-2026 08:00:00,29.966942,76.875879,CO,15,32,27
India,Haryana,Mandikhera,"General Hospital, Mandikhera(Nuh) - HSPCB",07-01-2026 08:00:00,27.9002,76.9938,PM2.5,69,158,100
India,Karnataka,Bengaluru,"BWSSB Kadabesanahalli, Bengaluru - CPCB",07-01-2026 08:00:00,12.9352049,77.6814488,SO2,2,9,4
India,Karnataka,Bengaluru,"Bapuji Nagar, Bengaluru - KSPCB",07-01-2026 08:00:00,12.951913,77.539784,NO2,1,21,12
India,Karnataka,Bengaluru,"Bapuji Nagar, Bengaluru - KSPCB",07-01-2026 08:00:00,12.951913,77.539784,SO2,12,29,20
India,Karnataka,Bengaluru,"City Railway Station, Bengaluru - KSPCB",07-01-2026 08:00:00,12.9756843,77.5660749,SO2,21,23,22
India,Haryana,Narnaul,"Shastri Nagar, Narnaul - HSPCB",07-01-2026 08:00:00,28.060249,76.113115,PM2.5,190,352,286
India,Haryana,Panchgaon,"Amity University, Panchgaon - IITM",07-01-2026 08:00:00,28.3153,76.9143,NO2,12,24,17
India,Haryana,Rohtak,"MD University, Rohtak - HSPCB",07-01-2026 08:00:00,28.52123,76.37138,SO2,10,13,12
India,Karnataka,Ramanagara,"Vijay Nagar, Ramanagara - KSPCB",07-01-2026 08:00:00,12.733409,77.298051,OZONE,NA,NA,NA
India,Karnataka,Shivamogga,"Vinoba Nagara, Shivamogga - KSPCB",07-01-2026 08:00:00,13.940000,75.555917,NO2,16,17,17
India,Karnataka,Shivamogga,"Vinoba Nagara, Shivamogga - KSPCB",07-01-2026 08:00:00,13.940000,75.555917,OZONE,27,83,45
India,Karnataka,Tumakuru,"Thimmalapura, Tumakuru - KSPCB",07-01-2026 08:00:00,13.377516,77.099072,NH3,6,6,6
India,Karnataka,Vijayapura,"Ibrahimpur, Vijayapura - KSPCB",07-01-2026 08:00:00,16.802639,75.722694,NO2,11,12,11
India,Karnataka,Vijayapura,"Ibrahimpur, Vijayapura - KSPCB",07-01-2026 08:00:00,16.802639,75.722694,SO2,8,8,8
India,Karnataka,Vijayapura,"Ibrahimpur, Vijayapura - KSPCB",07-01-2026 08:00:00,16.802639,75.722694,CO,15,138,36
India,Karnataka,Chikkamagaluru,"Kalyana Nagara, Chikkamagaluru - KSPCB",07-01-2026 08:00:00,13.328028,75.797056,NH3,2,4,3
India,Karnataka,Davanagere,"Devaraj Urs Badavane, Davanagere - KSPCB",07-01-2026 08:00:00,14.475800,75.905200,NO2,25,32,28
India,Karnataka,Davanagere,"Devaraj Urs Badavane, Davanagere - KSPCB",07-01-2026 08:00:00,14.475800,75.905200,SO2,2,4,3
India,Karnataka,Davanagere,"Devaraj Urs Badavane, Davanagere - KSPCB",07-01-2026 08:00:00,14.475800,75.905200,CO,4,10,6
India,Karnataka,Hubballi,"Lingaraj Nagar, Hubballi - KSPCB",07-01-2026 08:00:00,15.3714823,75.1160168,PM10,56,112,59
India,Karnataka,Hubballi,"Lingaraj Nagar, Hubballi - KSPCB",07-01-2026 08:00:00,15.3714823,75.1160168,NO2,7,7,7
India,Karnataka,Hubballi,"Lingaraj Nagar, Hubballi - KSPCB",07-01-2026 08:00:00,15.3714823,75.1160168,OZONE,10,11,11
India,Karnataka,Yadgir,"Collector Office, Yadgir - KSPCB",07-01-2026 08:00:00,16.7602,77.1428,NH3,2,3,2
India,Karnataka,Yadgir,"Collector Office, Yadgir - KSPCB",07-01-2026 08:00:00,16.7602,77.1428,SO2,4,15,11
India,Karnataka,Yadgir,"Collector Office, Yadgir - KSPCB",07-01-2026 08:00:00,16.7602,77.1428,CO,18,29,21
India,Kerala,Eloor,"Udyogamandal, Eloor - Kerala PCB",07-01-2026 08:00:00,10.073232,76.302765,SO2,1,1,1
India,Kerala,Kannur,"Thavakkara, Kannur - Kerala PCB",07-01-2026 08:00:00,11.875000,75.373200,CO,15,19,18
India,Kerala,Kannur,"Thavakkara, Kannur - Kerala PCB",07-01-2026 08:00:00,11.875000,75.373200,OZONE,28,32,28
India,Karnataka,Chamarajanagar,"Urban, Chamarajanagar - KSPCB",07-01-2026 08:00:00,11.55358,76.55521,PM10,29,62,46
India,Karnataka,Chamarajanagar,"Urban, Chamarajanagar - KSPCB",07-01-2026 08:00:00,11.55358,76.55521,NO2,14,36,20
India,Karnataka,Chamarajanagar,"Urban, Chamarajanagar - KSPCB",07-01-2026 08:00:00,11.55358,76.55521,OZONE,14,38,18
India,Karnataka,Chikkaballapur,"Chikkaballapur Rural, Chikkaballapur - KSPCB",07-01-2026 08:00:00,13.428828,77.731418,NH3,3,11,6
India,Karnataka,Chikkamagaluru,"Kalyana Nagara, Chikkamagaluru - KSPCB",07-01-2026 08:00:00,13.328028,75.797056,PM2.5,20,50,38
