country,state,city,station,last_update,latitude,longitude,pollutant_id,min_value,max_value,avg_value
India,Andhra_Pradesh,Vijayawada,"HB Colony, Vijayawada - APPCB",01-04-2026 08:00:00,16.536107,80.594233,OZONE,26,61,27
India,Andhra_Pradesh,Vijayawada,"Kanuru, Vijayawada - APPCB",01-04-2026 08:00:00,16.486692,80.699436,SO2,NA,NA,NA
India,Andhra_Pradesh,Vijayawada,"Kanuru, Vijayawada - APPCB",01-04-2026 08:00:00,16.486692,80.699436,OZONE,NA,NA,NA
India,Andhra_Pradesh,Vijayawada,"Rajiv Gandhi Park, Vijayawada - APPCB",01-04-2026 08:00:00,16.509717,80.612222,PM2.5,65,89,73
India,Andhra_Pradesh,Vijayawada,"Rajiv Gandhi Park, Vijayawada - APPCB",01-04-2026 08:00:00,16.509717,80.612222,SO2,9,24,20
India,Andhra_Pradesh,Vijayawada,"Rajiv Gandhi Park, Vijayawada - APPCB",01-04-2026 08:00:00,16.509717,80.612222,CO,26,44,26
India,Andhra_Pradesh,Vijayawada,"Rajiv Nagar, Vijayawada - APPCB",01-04-2026 08:00:00,16.554731,80.649110,NO2,20,26,25
India,Andhra_Pradesh,Vijayawada,"Rajiv Nagar, Vijayawada - APPCB",01-04-2026 08:00:00,16.554731,80.649110,OZONE,26,28,28
India,Andhra_Pradesh,Visakhapatnam,"GVM Corporation, Visakhapatnam - APPCB",01-04-2026 08:00:00,17.72,83.3,NO2,14,78,41
India,Andhra_Pradesh,Visakhapatnam,"GVM Corporation, Visakhapatnam - APPCB",01-04-2026 08:00:00,17.72,83.3,NH3,3,3,3
India,Andhra_Pradesh,Rajamahendravaram,"Anand Kala Kshetram, Rajamahendravaram - APPCB",01-04-2026 08:00:00,16.9872867,81.7363176,NH3,2,4,3
India,Andhra_Pradesh,Rajamahendravaram,"Anand Kala Kshetram, Rajamahendravaram - APPCB",01-04-2026 08:00:00,16.9872867,81.7363176,CO,21,48,28
India,Andhra_Pradesh,Tirumala,"Toll Gate, Tirumala - APPCB",01-04-2026 08:00:00,13.67,79.35,CO,16,29,19
India,Andhra_Pradesh,Tirupati,"Vaikuntapuram, Tirupati - APPCB",01-04-2026 08:00:00,13.615387,79.409230,OZONE,15,25,15
India,Andhra_Pradesh,Vijayawada,"HB Colony, Vijayawada - APPCB",01-04-2026 08:00:00,16.536107,80.594233,NH3,3,7,4
India,Andhra_Pradesh,Vijayawada,"HB Colony, Vijayawada - APPCB",01-04-2026 08:00:00,16.536107,80.594233,SO2,6,25,12
India,Assam,Guwahati,"Pan Bazaar, Guwahati - PCBA",01-04-2026 08:00:00,26.187500,91.744194,NH3,1,1,1
India,Assam,Guwahati,"Pan Bazaar, Guwahati - PCBA",01-04-2026 08:00:00,26.187500,91.744194,CO,18,42,20
India,Assam,Guwahati,"Railway Colony, Guwahati - PCBA",01-04-2026 08:00:00,26.181742,91.78063,NO2,3,4,3
India,Assam,Nagaon,"Christianpatty, Nagaon - PCBA",01-04-2026 08:00:00,26.349082,92.68449,OZONE,12,33,23
India,Assam,Nalbari,"Bata Chowk, Nalbari - PCBA",01-04-2026 08:00:00,26.446912,91.439057,NO2,14,15,14
India,Assam,Nalbari,"Bata Chowk, Nalbari - PCBA",01-04-2026 08:00:00,26.446912,91.439057,SO2,6,8,8
India,Andhra_Pradesh,Machilipatnam,"Srinivas Nagar Colony, Machilipatnam - APPCB",01-04-2026 08:00:00,16.186555,81.13219,PM2.5,47,73,64
India,Andhra_Pradesh,Nellore,"Ambedkar Nagar, Nellore - APPCB ",01-04-2026 08:00:00,14.438164 ,79.966814 ,NO2,14,19,16
India,Andhra_Pradesh,Nellore,"Ambedkar Nagar, Nellore - APPCB ",01-04-2026 08:00:00,14.438164 ,79.966814 ,SO2,5,31,11
India,Andhra_Pradesh,Rajamahendravaram,"Anand Kala Kshetram, Rajamahendravaram - APPCB",01-04-2026 08:00:00,16.9872867,81.7363176,PM2.5,14,60,37
India,Assam,Guwahati,"IITG, Guwahati - PCBA",01-04-2026 08:00:00,26.2028636,91.70046436,NH3,5,5,5
India,Assam,Guwahati,"IITG, Guwahati - PCBA",01-04-2026 08:00:00,26.2028636,91.70046436,OZONE,8,49,25
India,Assam,Guwahati,"LGBI Airport, Guwahati - PCBA",01-04-2026 08:00:00,26.10887,91.589544,PM10,14,48,37
India,Assam,Guwahati,"LGBI Airport, Guwahati - PCBA",01-04-2026 08:00:00,26.10887,91.589544,CO,12,62,46
India,Andhra_Pradesh,Guntur,"Rajendra Nagar North, Guntur - APPCB",01-04-2026 08:00:00,16.316553,80.413302,NH3,NA,NA,NA
India,Andhra_Pradesh,Guntur,"Rajendra Nagar North, Guntur - APPCB",01-04-2026 08:00:00,16.316553,80.413302,CO,NA,NA,NA
India,Andhra_Pradesh,Kadapa,"Yerramukkapalli, Kadapa - APPCB",01-04-2026 08:00:00,14.465052,78.824187,NO2,19,26,24
India,Andhra_Pradesh,Kadapa,"Yerramukkapalli, Kadapa - APPCB",01-04-2026 08:00:00,14.465052,78.824187,OZONE,15,24,22
India,Andhra_Pradesh,Chittoor,"Gangineni Cheruvu, Chittoor - APPCB",01-04-2026 08:00:00,13.204880,79.097889,PM2.5,NA,NA,NA
India,Andhra_Pradesh,Guntur,"Rajendra Nagar North, Guntur - APPCB",01-04-2026 08:00:00,16.316553,80.413302,NO2,NA,NA,NA
India,Andhra_Pradesh,Visakhapatnam,"GVM Corporation, Visakhapatnam - APPCB",01-04-2026 08:00:00,17.72,83.3,SO2,1,34,18
India,Andhra_Pradesh,Visakhapatnam,"GVM Corporation, Visakhapatnam - APPCB",01-04-2026 08:00:00,17.72,83.3,OZONE,3,42,6
India,Arunachal_Pradesh,Naharlagun,"Naharlagun, Naharlagun - APSPCB",01-04-2026 08:00:00,27.103358,93.679645,SO2,9,11,10
India,Arunachal_Pradesh,Naharlagun,"Naharlagun, Naharlagun - APSPCB",01-04-2026 08:00:00,27.103358,93.679645,CO,9,23,12
India,Andhra_Pradesh,Amaravati,"Secretariat, Amaravati - APPCB",01-04-2026 08:00:00,16.5150833,80.5181667,NH3,2,2,2
India,Bihar,Muzaffarpur,"Muzaffarpur Collectorate, Muzaffarpur - BSPCB",01-04-2026 08:00:00,26.1209,85.3647,SO2,3,8,4
India,Bihar,Patna,"DRM Office Danapur, Patna - BSPCB",01-04-2026 08:00:00,25.586562,85.043586,NO2,47,55,50
India,Bihar,Patna,"DRM Office Danapur, Patna - BSPCB",01-04-2026 08:00:00,25.586562,85.043586,NH3,10,12,11
India,Bihar,Patna,"Govt. High School Shikarpur, Patna - BSPCB",01-04-2026 08:00:00,25.592539,85.227158,PM2.5,70,81,76
India,Bihar,Patna,"Govt. High School Shikarpur, Patna - BSPCB",01-04-2026 08:00:00,25.592539,85.227158,OZONE,1,5,3
India,Bihar,Patna,"IGSC Planetarium Complex, Patna - BSPCB",01-04-2026 08:00:00,25.610369,85.132568,CO,32,38,36
India,Bihar,Patna,"Muradpur, Patna - BSPCB",01-04-2026 08:00:00,25.619651,85.147382,PM10,112,158,135
India,Chhattisgarh,Bhilai,"32Bungalows, Bhilai - CECB",01-04-2026 08:00:00,21.194815,81.314770,OZONE,3,33,9
India,Chhattisgarh,Bhilai,"Civic Center, Bhilai - Bhilai Steel Plant",01-04-2026 08:00:00,21.185571,81.343175,PM2.5,5,56,27
India,Chhattisgarh,Bhilai,"Civic Center, Bhilai - Bhilai Steel Plant",01-04-2026 08:00:00,21.185571,81.343175,OZONE,9,12,11
India,Chhattisgarh,Bhilai,"Hathkhoj, Bhilai - CECB",01-04-2026 08:00:00,21.224231,81.408350,PM10,22,81,46
India,Chhattisgarh,Bhilai,"Hathkhoj, Bhilai - CECB",01-04-2026 08:00:00,21.224231,81.408350,SO2,10,86,22
India,Chhattisgarh,Bhilai,"Hathkhoj, Bhilai - CECB",01-04-2026 08:00:00,21.224231,81.408350,CO,24,77,58
India,Chhattisgarh,Bilaspur,"Mangala, Bilaspur - NTPC",01-04-2026 08:00:00,22.08815,82.13737,CO,24,96,41
India,Chhattisgarh,Korba,"Rampur, Korba - CECB",01-04-2026 08:00:00,22.368195,82.746431,OZONE,2,28,10
India,Chhattisgarh,Korba,"Urja Nagar, Korba - CECB",01-04-2026 08:00:00,22.348441,82.549611,PM10,45,124,83
India,Chhattisgarh,Korba,"Urja Nagar, Korba - CECB",01-04-2026 08:00:00,22.348441,82.549611,NH3,1,1,1
India,Chhattisgarh,Korba,"Urja Nagar, Korba - CECB",01-04-2026 08:00:00,22.348441,82.549611,SO2,6,18,13
India,Chhattisgarh,Korba,"Urja Nagar, Korba - CECB",01-04-2026 08:00:00,22.348441,82.549611,OZONE,2,4,2
India,Chhattisgarh,Milupara,"Govt. Higher Secondary School, Milupara - CECB",01-04-2026 08:00:00,22.1910172,83.5197009,CO,18,69,33
India,Chhattisgarh,Raipur,"AIIMS, Raipur - CECB",01-04-2026 08:00:00,21.258815,81.578979,NH3,3,4,3
India,Chhattisgarh,Raipur,"AIIMS, Raipur - CECB",01-04-2026 08:00:00,21.258815,81.578979,CO,22,48,39
India,Chhattisgarh,Raipur,"Krishak Nagar, Raipur - CECB",01-04-2026 08:00:00,21.237755,81.705301,NH3,2,2,2
India,Bihar,Hajipur,"Industrial Area, Hajipur - BSPCB",01-04-2026 08:00:00,25.697189,85.245900,NO2,14,40,24
India,Bihar,Katihar,"Mirchaibari, Katihar - BSPCB",01-04-2026 08:00:00,25.560083,87.553265,PM2.5,18,57,37
India,Bihar,Katihar,"Mirchaibari, Katihar - BSPCB",01-04-2026 08:00:00,25.560083,87.553265,PM10,18,139,98
India,Bihar,Katihar,"Mirchaibari, Katihar - BSPCB",01-04-2026 08:00:00,25.560083,87.553265,CO,76,104,99
India,Bihar,Manguraha,"Forest Rest House, Manguraha - BSPCB",01-04-2026 08:00:00,27.308328,84.531742,PM2.5,42,117,66
India,Bihar,Manguraha,"Forest Rest House, Manguraha - BSPCB",01-04-2026 08:00:00,27.308328,84.531742,NO2,1,59,13
India,Bihar,Munger,"Town Hall, Munger - BSPCB",01-04-2026 08:00:00,25.376776,86.471523,SO2,57,121,91
India,Bihar,Bihar Sharif,"D M Colony, Bihar Sharif - BSPCB",01-04-2026 08:00:00,25.204762,85.514960,CO,46,103,53
India,Bihar,Buxar,"Charitra Van, Buxar - BSPCB",01-04-2026 08:00:00,25.567520,83.966379,SO2,23,38,31
India,Bihar,Gaya,"Kareemganj, Gaya - BSPCB",01-04-2026 08:00:00,24.792403,84.992416,PM10,81,254,138
India,Bihar,Gaya,"Kareemganj, Gaya - BSPCB",01-04-2026 08:00:00,24.792403,84.992416,NO2,11,13,12
India,Bihar,Gaya,"SFTI Kusdihra, Gaya - BSPCB",01-04-2026 08:00:00,24.762518,84.982348,NH3,2,16,8
India,Bihar,Gaya,"SFTI Kusdihra, Gaya - BSPCB",01-04-2026 08:00:00,24.762518,84.982348,SO2,6,8,7
India,Bihar,Gaya,"SFTI Kusdihra, Gaya - BSPCB",01-04-2026 08:00:00,24.762518,84.982348,OZONE,11,33,17
India,Assam,Sivasagar,"Girls College, Sivasagar - PCBA",01-04-2026 08:00:00,26.987634,94.636574,OZONE,13,72,30
India,Bihar,Araria,"Kharahiya Basti, Araria - BSPCB",01-04-2026 08:00:00,26.146529,87.454184,OZONE,9,11,10
India,Bihar,Arrah,"New DM Office, Arrah - BSPCB",01-04-2026 08:00:00,25.5626095,84.663264,PM10,50,104,74
India,Bihar,Aurangabad,"Gurdeo Nagar, Aurangabad - BSPCB",01-04-2026 08:00:00,24.75746,84.366208,PM2.5,NA,NA,NA
India,Bihar,Aurangabad,"Gurdeo Nagar, Aurangabad - BSPCB",01-04-2026 08:00:00,24.75746,84.366208,NH3,1,2,1
India,Bihar,Aurangabad,"Gurdeo Nagar, Aurangabad - BSPCB",01-04-2026 08:00:00,24.75746,84.366208,CO,101,103,102
India,Bihar,Siwan,"Chitragupta Nagar, Siwan - BSPCB",01-04-2026 08:00:00,26.2271665,84.3570427,NH3,1,1,1
India,Chandigarh,Chandigarh,"Sector 22, Chandigarh - CPCC",01-04-2026 08:00:00,30.735567,76.775714,PM2.5,8,67,31
India,Chandigarh,Chandigarh,"Sector-25, Chandigarh - CPCC",01-04-2026 08:00:00,30.751462,76.762879,OZONE,2,58,22
India,Chandigarh,Chandigarh,"Sector-53, Chandigarh - CPCC",01-04-2026 08:00:00,30.719859,76.738637,SO2,6,6,6
India,Chandigarh,Chandigarh,"Sector-53, Chandigarh - CPCC",01-04-2026 08:00:00,30.719859,76.738637,CO,27,92,38
India,Bihar,Patna,"Rajbansi Nagar, Patna - BSPCB",01-04-2026 08:00:00,25.599486,85.113666,PM2.5,46,75,63
India,Bihar,Patna,"Rajbansi Nagar, Patna - BSPCB",01-04-2026 08:00:00,25.599486,85.113666,CO,16,104,46
India,Bihar,Purnia,"Mariam Nagar, Purnia - BSPCB",01-04-2026 08:00:00,25.366336,87.117468,CO,56,58,58
India,Bihar,Rajgir,"Dangi Tola, Rajgir - BSPCB",01-04-2026 08:00:00,25.03280,85.41948,PM10,39,102,57
India,Bihar,Bhagalpur,"DM Office_Kachari Chowk, Bhagalpur - BSPCB",01-04-2026 08:00:00,25.251013,86.989001,SO2,8,91,41
India,Bihar,Bhagalpur,"DM Office_Kachari Chowk, Bhagalpur - BSPCB",01-04-2026 08:00:00,25.251013,86.989001,CO,2,32,18
India,Delhi,Delhi,"Sri Aurobindo Marg, Delhi - DPCC",01-04-2026 08:00:00,28.531346,77.190156,SO2,3,12,8
India,Delhi,Delhi,"Sri Aurobindo Marg, Delhi - DPCC",01-04-2026 08:00:00,28.531346,77.190156,CO,10,72,28
India,Delhi,Delhi,"Sri Aurobindo Marg, Delhi - DPCC",01-04-2026 08:00:00,28.531346,77.190156,OZONE,2,83,3
India,Delhi,Delhi,"Talkatora Garden, Delhi - DPCC",01-04-2026 08:00:00,28.621810,77.1944633,PM10,26,134,80
India,Delhi,Delhi,"Talkatora Garden, Delhi - DPCC",01-04-2026 08:00:00,28.621810,77.1944633,CO,106,114,108
India,Delhi,Delhi,"Vivek Vihar, Delhi - DPCC",01-04-2026 08:00:00,28.672342,77.315260,NO2,15,53,31
India,Delhi,Delhi,"Vivek Vihar, Delhi - DPCC",01-04-2026 08:00:00,28.672342,77.315260,NH3,5,6,6
India,Delhi,Delhi,"Vivek Vihar, Delhi - DPCC",01-04-2026 08:00:00,28.672342,77.315260,SO2,7,34,14
India,Delhi,Delhi,"Wazirpur, Delhi - DPCC",01-04-2026 08:00:00,28.699793,77.165453,NO2,38,83,56
India,Delhi,Delhi,"Wazirpur, Delhi - DPCC",01-04-2026 08:00:00,28.699793,77.165453,NH3,8,10,9
India,Gujarat,Ahmedabad,"Gyaspur, Ahmedabad - IITM",01-04-2026 08:00:00,22.977134,72.553024,NO2,21,111,49
India,Delhi,Delhi,"CRRI Mathura Road, Delhi - IMD",01-04-2026 08:00:00,28.5512005,77.2735737,CO,26,84,56
India,Delhi,Delhi,"Cantonment Area, Delhi - DPCC ",01-04-2026 08:00:00,28.594169 ,77.125100 ,SO2,53,58,55
India,Delhi,Delhi,"Chandni Chowk, Delhi - IITM",01-04-2026 08:00:00,28.656756,77.227234,CO,101,118,104
India,Delhi,Delhi,"Commonwealth Sports Complex, Delhi - DPCC",01-04-2026 08:00:00,28.615828 ,77.271992 ,NH3,4,9,7
India,Delhi,Delhi,"Commonwealth Sports Complex, Delhi - DPCC",01-04-2026 08:00:00,28.615828 ,77.271992 ,OZONE,2,66,5
India,Delhi,Delhi,"DTU, Delhi - CPCB",01-04-2026 08:00:00,28.7500499,77.1112615,SO2,24,33,26
India,Delhi,Delhi,"DTU, Delhi - CPCB",01-04-2026 08:00:00,28.7500499,77.1112615,OZONE,15,28,18
India,Delhi,Delhi,"Dr. Karni Singh Shooting Range, Delhi - DPCC",01-04-2026 08:00:00,28.498571,77.264840,PM2.5,18,267,55
India,Delhi,Delhi,"Dr. Karni Singh Shooting Range, Delhi - DPCC",01-04-2026 08:00:00,28.498571,77.264840,NO2,4,49,25
India,Chhattisgarh,Raipur,"Siltara Phase-II, Raipur - CECB",01-04-2026 08:00:00,21.371751,81.664929,PM2.5,18,69,31
India,Chhattisgarh,Raipur,"Siltara Phase-II, Raipur - CECB",01-04-2026 08:00:00,21.371751,81.664929,SO2,1,63,8
India,Chhattisgarh,Raipur,"Siltara Phase-II, Raipur - CECB",01-04-2026 08:00:00,21.371751,81.664929,CO,10,16,10
India,Chhattisgarh,Tumidih,"OP Jindal Industrial Park, Tumidih - CECB",01-04-2026 08:00:00,22.06631475,83.33820077,NO2,NA,NA,NA
India,Delhi,Delhi,"Alipur, Delhi - DPCC",01-04-2026 08:00:00,28.815329,77.153010,NH3,12,16,13
India,Delhi,Delhi,"Alipur, Delhi - DPCC",01-04-2026 08:00:00,28.815329,77.153010,OZONE,1,49,7
India,Delhi,Delhi,"Anand Vihar, Delhi - DPCC",01-04-2026 08:00:00,28.647622,77.3158090,PM2.5,42,310,123
India,Delhi,Delhi,"Anand Vihar, Delhi - DPCC",01-04-2026 08:00:00,28.647622,77.3158090,SO2,15,45,28
India,Delhi,Delhi,"Ashok Vihar, Delhi - DPCC",01-04-2026 08:00:00,28.695381,77.181665,NH3,6,7,7
India,Delhi,Delhi,"North Campus, DU, Delhi - IMD",01-04-2026 08:00:00,28.6573814,77.1585447,OZONE,4,28,4
India,Delhi,Delhi,"Patparganj, Delhi - DPCC",01-04-2026 08:00:00,28.623763,77.287209,PM10,46,178,104
India,Delhi,Delhi,"Punjabi Bagh, Delhi - DPCC",01-04-2026 08:00:00,28.674045,77.131023,PM10,18,186,101
India,Delhi,Delhi,"Pusa, Delhi - DPCC",01-04-2026 08:00:00,28.639652,77.146275,PM10,23,202,105
India,Delhi,Delhi,"Pusa, Delhi - DPCC",01-04-2026 08:00:00,28.639652,77.146275,SO2,8,28,18
India,Delhi,Delhi,"Pusa, Delhi - DPCC",01-04-2026 08:00:00,28.639652,77.146275,CO,40,104,56
India,Delhi,Delhi,"Pusa, Delhi - DPCC",01-04-2026 08:00:00,28.639652,77.146275,OZONE,3,110,9
India,Delhi,Delhi,"Pusa, Delhi - IMD",01-04-2026 08:00:00,28.636110,77.173332,PM2.5,2,145,42
India,Delhi,Delhi,"Pusa, Delhi - IMD",01-04-2026 08:00:00,28.636110,77.173332,NO2,47,152,102
India,Delhi,Delhi,"JNU, Delhi - DPCC",01-04-2026 08:00:00,28.540721 ,77.168544 ,OZONE,1,25,1
India,Delhi,Delhi,"Jahangirpuri, Delhi - DPCC",01-04-2026 08:00:00,28.732820,77.170633,PM10,56,193,110
India,Delhi,Delhi,"Jahangirpuri, Delhi - DPCC",01-04-2026 08:00:00,28.732820,77.170633,OZONE,9,103,17
India,Delhi,Delhi,"Jawaharlal Nehru Stadium, Delhi - DPCC",01-04-2026 08:00:00,28.580280,77.233829,PM10,30,218,93
India,Delhi,Delhi,"Jawaharlal Nehru Stadium, Delhi - DPCC",01-04-2026 08:00:00,28.580280,77.233829,NO2,30,99,58
India,Delhi,Delhi,"Lodhi Road, Delhi - IMD",01-04-2026 08:00:00,28.5918245,77.2273074,PM2.5,6,220,53
India,Delhi,Delhi,"Lodhi Road, Delhi - IMD",01-04-2026 08:00:00,28.5918245,77.2273074,CO,10,38,20
India,Delhi,Delhi,"Major Dhyan Chand National Stadium, Delhi - DPCC",01-04-2026 08:00:00,28.611281,77.237738,PM10,31,249,89
India,Delhi,Delhi,"IGI Airport (T3), Delhi - IMD",01-04-2026 08:00:00,28.5627763,77.1180053,NO2,19,33,25
India,Delhi,Delhi,"IGI Airport (T3), Delhi - IMD",01-04-2026 08:00:00,28.5627763,77.1180053,CO,22,50,42
India,Delhi,Delhi,"IGNOU_Maidan Garhi, Delhi - DPCC",01-04-2026 08:00:00,28.493624 ,77.201159 ,PM2.5,31,269,63
India,Delhi,Delhi,"IGNOU_Maidan Garhi, Delhi - DPCC",01-04-2026 08:00:00,28.493624 ,77.201159 ,NO2,9,24,13
India,Delhi,Delhi,"IGNOU_Maidan Garhi, Delhi - DPCC",01-04-2026 08:00:00,28.493624 ,77.201159 ,NH3,2,6,4
India,Delhi,Delhi,"IHBAS, Dilshad Garden, Delhi - CPCB",01-04-2026 08:00:00,28.6811736,77.3025234,NO2,11,84,41
India,Delhi,Delhi,"ITO, Delhi - CPCB",01-04-2026 08:00:00,28.628624,77.241060,PM10,36,194,95
India,Delhi,Delhi,"ITO, Delhi - CPCB",01-04-2026 08:00:00,28.628624,77.241060,CO,24,91,49
India,Delhi,Delhi,"R K Puram, Delhi - DPCC",01-04-2026 08:00:00,28.563262,77.186937,PM10,27,229,94
India,Delhi,Delhi,"Rohini, Delhi - DPCC",01-04-2026 08:00:00,28.732528,77.119920,CO,9,52,31
India,Delhi,Delhi,"Rohini, Delhi - DPCC",01-04-2026 08:00:00,28.732528,77.119920,OZONE,11,86,21
India,Delhi,Delhi,"Shadipur, Delhi - CPCB",01-04-2026 08:00:00,28.6514781,77.1473105,NH3,7,11,9
India,Delhi,Delhi,"Sirifort, Delhi - CPCB",01-04-2026 08:00:00,28.5504249,77.2159377,PM10,43,201,93
India,Delhi,Delhi,"Sri Aurobindo Marg, Delhi - DPCC",01-04-2026 08:00:00,28.531346,77.190156,PM2.5,18,207,54
India,Delhi,Delhi,"NSIT Dwarka, Delhi - CPCB",01-04-2026 08:00:00,28.60909,77.0325413,OZONE,25,73,26
India,Delhi,Delhi,"Najafgarh, Delhi - DPCC",01-04-2026 08:00:00,28.570173,76.933762,NO2,62,90,70
India,Delhi,Delhi,"Narela, Delhi - DPCC",01-04-2026 08:00:00,28.822836,77.101981,CO,26,66,48
India,Delhi,Delhi,"New Moti Bagh, Delhi - MHUA",01-04-2026 08:00:00,28.57834,77.18400,NO2,8,9,9
India,Delhi,Delhi,"Bawana, Delhi - DPCC",01-04-2026 08:00:00,28.776200,77.051074,PM10,64,356,130
India,Haryana,Gurugram,"Teri Gram, Gurugram - HSPCB",01-04-2026 08:00:00,28.4275,77.1465,PM10,NA,NA,NA
India,Haryana,Gurugram,"Teri Gram, Gurugram - HSPCB",01-04-2026 08:00:00,28.4275,77.1465,SO2,NA,NA,NA
India,Haryana,Gurugram,"Teri Gram, Gurugram - HSPCB",01-04-2026 08:00:00,28.4275,77.1465,CO,14,29,26
India,Haryana,Gurugram,"Teri Gram, Gurugram - HSPCB",01-04-2026 08:00:00,28.4275,77.1465,OZONE,10,37,12
India,Haryana,Hisar,"Urban Estate-II, Hisar - HSPCB",01-04-2026 08:00:00,29.140560,75.744941,PM2.5,4,190,44
India,Haryana,Hisar,"Urban Estate-II, Hisar - HSPCB",01-04-2026 08:00:00,29.140560,75.744941,PM10,53,246,91
India,Haryana,Kaithal,"Rishi Nagar, Kaithal - HSPCB",01-04-2026 08:00:00,29.8006,76.4155,PM10,NA,NA,NA
India,Haryana,Kaithal,"Rishi Nagar, Kaithal - HSPCB",01-04-2026 08:00:00,29.8006,76.4155,NO2,NA,NA,NA
India,Haryana,Kaithal,"Rishi Nagar, Kaithal - HSPCB",01-04-2026 08:00:00,29.8006,76.4155,NH3,NA,NA,NA
India,Haryana,Kaithal,"Rishi Nagar, Kaithal - HSPCB",01-04-2026 08:00:00,29.8006,76.4155,SO2,NA,NA,NA
India,Haryana,Kaithal,"Rishi Nagar, Kaithal - HSPCB",01-04-2026 08:00:00,29.8006,76.4155,CO,NA,NA,NA
India,Haryana,Karnal,"Sector-12, Karnal - HSPCB",01-04-2026 08:00:00,29.695300,77.002700,PM2.5,30,234,76
India,Haryana,Dharuhera,"Municipal Corporation Office, Dharuhera -  HSPCB",01-04-2026 08:00:00,28.206800,76.799700,PM10,42,100,66
India,Haryana,Dharuhera,"Municipal Corporation Office, Dharuhera -  HSPCB",01-04-2026 08:00:00,28.206800,76.799700,OZONE,23,37,27
India,Haryana,Faridabad,"New Industrial Town, Faridabad - HSPCB",01-04-2026 08:00:00,28.39072,77.30059,OZONE,12,18,14
India,Haryana,Faridabad,"Sector 11, Faridabad - HSPCB",01-04-2026 08:00:00,28.376058,77.315741,PM2.5,26,396,154
India,Haryana,Faridabad,"Sector 11, Faridabad - HSPCB",01-04-2026 08:00:00,28.376058,77.315741,SO2,2,103,7
India,Haryana,Faridabad,"Sector 11, Faridabad - HSPCB",01-04-2026 08:00:00,28.376058,77.315741,CO,13,40,40
India,Haryana,Faridabad,"Sector 30, Faridabad - HSPCB",01-04-2026 08:00:00,28.4417,77.3217,PM10,118,120,119
India,Haryana,Faridabad,"Sector 30, Faridabad - HSPCB",01-04-2026 08:00:00,28.4417,77.3217,NO2,36,38,37
India,Haryana,Faridabad,"Sector 30, Faridabad - HSPCB",01-04-2026 08:00:00,28.4417,77.3217,CO,60,64,62
India,Haryana,Faridabad,"Sector 30, Faridabad - HSPCB",01-04-2026 08:00:00,28.4417,77.3217,OZONE,10,10,10
India,Gujarat,Ankleshwar,"GIDC, Ankleshwar - GPCB",01-04-2026 08:00:00,21.613267,73.010555,PM10,71,99,86
India,Gujarat,Ankleshwar,"GIDC, Ankleshwar - GPCB",01-04-2026 08:00:00,21.613267,73.010555,OZONE,11,23,14
India,Gujarat,Bhavnagar,"Vidhyanagar, Bhavnagar - Nexteng Enviro",01-04-2026 08:00:00,21.755417,72.139056,CO,35,55,36
India,Gujarat,Bhavnagar,"Vidhyanagar, Bhavnagar - Nexteng Enviro",01-04-2026 08:00:00,21.755417,72.139056,OZONE,1,5,2
India,Gujarat,Gandhinagar,"GIFT City, Gandhinagar - IITM",01-04-2026 08:00:00,23.163798,72.677768,PM10,112,180,138
India,Gujarat,Gandhinagar,"GIFT City, Gandhinagar - IITM",01-04-2026 08:00:00,23.163798,72.677768,CO,52,82,65
India,Gujarat,Gandhinagar,"IIPHG Lekawada, Gandhinagar - IITM",01-04-2026 08:00:00,23.243639,72.68994,NO2,8,21,11
India,Gujarat,Vapi,"Phase-1 GIDC, Vapi - GPCB",01-04-2026 08:00:00,20.362421,72.918013,OZONE,5,26,5
India,Haryana,Ambala,"Patti Mehar, Ambala - HSPCB",01-04-2026 08:00:00,30.379589,76.778328,SO2,15,31,22
India,Haryana,Ballabgarh,"Nathu Colony, Ballabgarh - HSPCB",01-04-2026 08:00:00,28.3419248,77.319699,PM2.5,188,210,200
India,Haryana,Ballabgarh,"Nathu Colony, Ballabgarh - HSPCB",01-04-2026 08:00:00,28.3419248,77.319699,NO2,19,21,20
India,Haryana,Ballabgarh,"Nathu Colony, Ballabgarh - HSPCB",01-04-2026 08:00:00,28.3419248,77.319699,OZONE,1,1,1
India,Haryana,Bhiwani,"H.B. Colony, Bhiwani - HSPCB",01-04-2026 08:00:00,28.806223,76.141105,PM10,35,439,144
India,Haryana,Bhiwani,"H.B. Colony, Bhiwani - HSPCB",01-04-2026 08:00:00,28.806223,76.141105,SO2,1,9,5
India,Gujarat,Nandesari,"GIDC, Nandesari - Nandesari Ind. Association",01-04-2026 08:00:00,22.410802,73.097923,PM2.5,40,161,82
India,Gujarat,Nandesari,"GIDC, Nandesari - Nandesari Ind. Association",01-04-2026 08:00:00,22.410802,73.097923,SO2,3,31,6
India,Gujarat,Surat,"Katargam, Surat - Nexteng Enviro",01-04-2026 08:00:00,21.217779 ,72.834787 ,CO,34,44,34
India,Gujarat,Surat,"Science Center, Surat - SMC",01-04-2026 08:00:00,21.170046,72.795405,NO2,15,16,16
India,Gujarat,Vapi,"Phase-1 GIDC, Vapi - GPCB",01-04-2026 08:00:00,20.362421,72.918013,PM10,33,70,42
India,Gujarat,Vapi,"Phase-1 GIDC, Vapi - GPCB",01-04-2026 08:00:00,20.362421,72.918013,NO2,13,16,14
India,Haryana,Panchkula,"Sector-6, Panchkula - HSPCB ",01-04-2026 08:00:00,30.7057778,76.8531805555555,NO2,23,25,24
India,Haryana,Rohtak,"MD University, Rohtak - HSPCB",01-04-2026 08:00:00,28.52123,76.37138,OZONE,39,40,39
India,Haryana,Sonipat,"Murthal, Sonipat - HSPCB",01-04-2026 08:00:00,29.027200,77.062100,PM10,107,199,154
India,Haryana,Yamuna Nagar,"Gobind Pura, Yamuna Nagar - HSPCB",01-04-2026 08:00:00,30.1480566,77.2893471,NH3,1,6,4
India,Haryana,Yamuna Nagar,"Gobind Pura, Yamuna Nagar - HSPCB",01-04-2026 08:00:00,30.1480566,77.2893471,OZONE,8,34,12
India,Gujarat,Ahmedabad,"Maninagar, Ahmedabad - GPCB",01-04-2026 08:00:00,23.002657,72.591912,PM10,61,106,77
India,Gujarat,Ahmedabad,"Raikhad, Ahmedabad - IITM",01-04-2026 08:00:00,23.020509,72.579261,PM10,63,129,92
India,Gujarat,Ahmedabad,"Rakhial, Ahmedabad - IITM",01-04-2026 08:00:00,23.016834,72.625775,NO2,34,285,83
India,Gujarat,Ahmedabad,"SAC ISRO Bopal, Ahmedabad - IITM",01-04-2026 08:00:00,23.041137,72.456691,OZONE,15,63,21
India,Gujarat,Ahmedabad,"SVPI Airport Hansol, Ahmedabad - IITM",01-04-2026 08:00:00,23.076793,72.627874,NH3,3,5,3
India,Haryana,Mandikhera,"General Hospital, Mandikhera(Nuh) - HSPCB",01-04-2026 08:00:00,27.9002,76.9938,PM2.5,19,123,57
India,Haryana,Mandikhera,"General Hospital, Mandikhera(Nuh) - HSPCB",01-04-2026 08:00:00,27.9002,76.9938,SO2,32,62,38
India,Haryana,Manesar,"Sector-2 IMT, Manesar - HSPCB",01-04-2026 08:00:00,28.360699,76.936090,NH3,6,10,8
India,Haryana,Palwal,"Shyam Nagar, Palwal - HSPCB",01-04-2026 08:00:00,28.1485564,77.3320667,PM10,NA,NA,NA
India,Haryana,Panchgaon,"Amity University, Panchgaon - IITM",01-04-2026 08:00:00,28.3153,76.9143,PM10,13,103,54
India,Karnataka,Madikeri,"Stuart Hill, Madikeri - KSPCB",01-04-2026 08:00:00,12.415911,75.735050,PM2.5,8,36,19
India,Karnataka,Madikeri,"Stuart Hill, Madikeri - KSPCB",01-04-2026 08:00:00,12.415911,75.735050,SO2,7,7,7
India,Karnataka,Madikeri,"Stuart Hill, Madikeri - KSPCB",01-04-2026 08:00:00,12.415911,75.735050,CO,8,24,16
India,Karnataka,Mangalore,"Kadri, Mangalore - KSPCB",01-04-2026 08:00:00,12.889250,74.853000,PM2.5,NA,NA,NA
India,Karnataka,Mangalore,"Kadri, Mangalore - KSPCB",01-04-2026 08:00:00,12.889250,74.853000,NO2,7,25,10
India,Karnataka,Mangalore,"Kadri, Mangalore - KSPCB",01-04-2026 08:00:00,12.889250,74.853000,NH3,2,8,3
India,Karnataka,Mangalore,"Kadri, Mangalore - KSPCB",01-04-2026 08:00:00,12.889250,74.853000,OZONE,6,68,38
India,Karnataka,Mysuru,"Hebbal 1st Stage, Mysuru - KSPCB",01-04-2026 08:00:00,12.21041,76.37376,PM2.5,18,38,28
India,Karnataka,Mysuru,"Hebbal 1st Stage, Mysuru - KSPCB",01-04-2026 08:00:00,12.21041,76.37376,OZONE,14,125,18
India,Karnataka,Ramanagara,"Vijay Nagar, Ramanagara - KSPCB",01-04-2026 08:00:00,12.733409,77.298051,OZONE,24,85,41
India,Karnataka,Shivamogga,"Vinoba Nagara, Shivamogga - KSPCB",01-04-2026 08:00:00,13.940000,75.555917,PM2.5,27,48,39
India,Karnataka,Shivamogga,"Vinoba Nagara, Shivamogga - KSPCB",01-04-2026 08:00:00,13.940000,75.555917,SO2,2,5,5
India,Karnataka,Udupi,"Brahmagiri, Udupi - KSPCB",01-04-2026 08:00:00,13.34194444,74.74694444,NO2,1,20,12
India,Karnataka,Udupi,"Brahmagiri, Udupi - KSPCB",01-04-2026 08:00:00,13.34194444,74.74694444,NH3,1,3,2
India,Madhya Pradesh,Indore,"Maguda Nagar, Indore - IMC",01-04-2026 08:00:00,22.7524,75.8872,SO2,22,24,23
India,Madhya Pradesh,Indore,"Maguda Nagar, Indore - IMC",01-04-2026 08:00:00,22.7524,75.8872,CO,31,61,56
India,Madhya Pradesh,Indore,"Regional Park, Indore - IMC",01-04-2026 08:00:00,22.6780,75.8559,PM2.5,18,129,59
India,Madhya Pradesh,Indore,"Regional Park, Indore - IMC",01-04-2026 08:00:00,22.6780,75.8559,CO,2,28,26
India,Madhya Pradesh,Indore,"Residency Area, Indore - IMC",01-04-2026 08:00:00,22.7084,75.8815,NO2,12,27,19
India,Madhya Pradesh,Indore,"Residency Area, Indore - IMC",01-04-2026 08:00:00,22.7084,75.8815,OZONE,6,13,6
India,Madhya Pradesh,Jabalpur,"Gupteshwar, Jabalpur - JMC",01-04-2026 08:00:00,23.142888,79.916147,NO2,10,72,22
India,Madhya Pradesh,Jabalpur,"Gupteshwar, Jabalpur - JMC",01-04-2026 08:00:00,23.142888,79.916147,SO2,8,16,11
India,Madhya Pradesh,Jabalpur,"Marhatal, Jabalpur - MPPCB",01-04-2026 08:00:00,23.168606,79.932247,NO2,24,34,26
India,Madhya Pradesh,Jabalpur,"Marhatal, Jabalpur - MPPCB",01-04-2026 08:00:00,23.168606,79.932247,NH3,2,2,2
India,Madhya Pradesh,Jabalpur,"Marhatal, Jabalpur - MPPCB",01-04-2026 08:00:00,23.168606,79.932247,CO,14,77,45
India,Madhya Pradesh,Gwalior,"City Center, Gwalior - MPPCB",01-04-2026 08:00:00,26.203442,78.193251,PM2.5,6,42,20
India,Madhya Pradesh,Gwalior,"Deen Dayal Nagar, Gwalior - MPPCB",01-04-2026 08:00:00,26.259242,78.216432,PM2.5,32,173,63
India,Madhya Pradesh,Gwalior,"Maharaj Bada, Gwalior - MPPCB",01-04-2026 08:00:00,26.200388,78.147714,CO,2,101,2
India,Madhya Pradesh,Indore,"Airport Area, Indore - IMC",01-04-2026 08:00:00,22.7289,75.8076,PM10,59,188,103
India,Madhya Pradesh,Indore,"Airport Area, Indore - IMC",01-04-2026 08:00:00,22.7289,75.8076,CO,1,12,6
India,Madhya Pradesh,Indore,"Chhoti Gwaltoli, Indore - MPPCB",01-04-2026 08:00:00,22.4310,75.5213,PM10,64,161,109
India,Madhya Pradesh,Indore,"Chhoti Gwaltoli, Indore - MPPCB",01-04-2026 08:00:00,22.4310,75.5213,NO2,29,114,76
India,Madhya Pradesh,Indore,"Chhoti Gwaltoli, Indore - MPPCB",01-04-2026 08:00:00,22.4310,75.5213,OZONE,9,58,24
India,Madhya Pradesh,Indore,"Maguda Nagar, Indore - IMC",01-04-2026 08:00:00,22.7524,75.8872,PM2.5,23,146,65
India,Karnataka,Chamarajanagar,"Urban, Chamarajanagar - KSPCB",01-04-2026 08:00:00,11.55358,76.55521,SO2,3,8,4
India,Karnataka,Chikkaballapur,"Chikkaballapur Rural, Chikkaballapur - KSPCB",01-04-2026 08:00:00,13.428828,77.731418,PM2.5,50,99,66
India,Karnataka,Chikkaballapur,"Chikkaballapur Rural, Chikkaballapur - KSPCB",01-04-2026 08:00:00,13.428828,77.731418,PM10,40,101,57
India,Karnataka,Chikkaballapur,"Chikkaballapur Rural, Chikkaballapur - KSPCB",01-04-2026 08:00:00,13.428828,77.731418,OZONE,6,19,16
India,Karnataka,Chikkamagaluru,"Kalyana Nagara, Chikkamagaluru - KSPCB",01-04-2026 08:00:00,13.328028,75.797056,CO,11,114,11
India,Karnataka,Hubballi,"Lingaraj Nagar, Hubballi - KSPCB",01-04-2026 08:00:00,15.3714823,75.1160168,CO,20,32,24
India,Karnataka,Kalaburagi,"Mahatma Basaveswar Colony, Kalaburgi - KSPCB",01-04-2026 08:00:00,17.336318,76.847397,SO2,2,6,3
India,Kerala,Thrissur,"Corporation Ground, Thrissur - Kerala PCB",01-04-2026 08:00:00,10.532400,76.215900,PM2.5,48,64,57
India,Madhya Pradesh,Bhopal,"Paryavaran Parisar, Bhopal - MPPCB",01-04-2026 08:00:00,23.210494,77.425409,CO,12,72,21
India,Madhya Pradesh,Bhopal,"T T Nagar, Bhopal - MPPCB",01-04-2026 08:00:00,23.233584,77.400574,PM10,54,112,85
India,Madhya Pradesh,Bhopal,"T T Nagar, Bhopal - MPPCB",01-04-2026 08:00:00,23.233584,77.400574,NO2,14,44,22
India,Madhya Pradesh,Damoh,"Shrivastav Colony, Damoh - MPPCB",01-04-2026 08:00:00,23.81748678,79.446246,PM2.5,5,82,36
India,Madhya Pradesh,Dewas,"Bhopal Chauraha, Dewas - MPPCB",01-04-2026 08:00:00,22.9682591,76.064118,SO2,24,107,58
India,Madhya Pradesh,Dewas,"Bhopal Chauraha, Dewas - MPPCB",01-04-2026 08:00:00,22.9682591,76.064118,CO,78,109,93
India,Karnataka,Bengaluru,"BTM Layout, Bengaluru - CPCB",01-04-2026 08:00:00,12.9135218,77.5950804,CO,47,59,54
India,Karnataka,Bengaluru,"BTM Layout, Bengaluru - CPCB",01-04-2026 08:00:00,12.9135218,77.5950804,OZONE,23,25,24
India,Karnataka,Bengaluru,"Bapuji Nagar, Bengaluru - KSPCB",01-04-2026 08:00:00,12.951913,77.539784,PM2.5,25,95,58
India,Karnataka,Bengaluru,"Bapuji Nagar, Bengaluru - KSPCB",01-04-2026 08:00:00,12.951913,77.539784,NO2,26,33,29
India,Karnataka,Bengaluru,"Hebbal, Bengaluru - KSPCB",01-04-2026 08:00:00,13.029152,77.585901,NO2,30,130,62
India,Karnataka,Bengaluru,"Hebbal, Bengaluru - KSPCB",01-04-2026 08:00:00,13.029152,77.585901,NH3,2,4,3
India,Karnataka,Bengaluru,"Jayanagar 5th Block, Bengaluru - KSPCB",01-04-2026 08:00:00,12.920984,77.584908,NH3,3,3,3
India,Karnataka,Bengaluru,"Jayanagar 5th Block, Bengaluru - KSPCB",01-04-2026 08:00:00,12.920984,77.584908,SO2,2,32,14
India,Karnataka,Bengaluru,"Jayanagar 5th Block, Bengaluru - KSPCB",01-04-2026 08:00:00,12.920984,77.584908,CO,3,46,15
India,Himachal Pradesh,Baddi,"HIMUDA Complex Phase-1, Baddi - HPPCB",01-04-2026 08:00:00,30.943887,76.801991,PM2.5,35,369,110
India,Himachal Pradesh,Baddi,"HIMUDA Complex Phase-1, Baddi - HPPCB",01-04-2026 08:00:00,30.943887,76.801991,CO,34,96,37
India,Jammu_and_Kashmir,Pampore,"Khrew, Pampore - JKPCC",01-04-2026 08:00:00,34.031606,75.009712,SO2,2,3,3
India,Jammu_and_Kashmir,Srinagar,"Khunmoh, Srinagar - JKPCC",01-04-2026 08:00:00,34.06313,74.96017,PM2.5,2,17,11
India,Jharkhand,Dhanbad,"Sardar Patel Nagar, Dhanbad - JSPCB",01-04-2026 08:00:00,23.80569,86.44268,SO2,15,106,52
India,Jharkhand,Jorapokhar,"Tata Stadium, Jorapokhar - JSPCB",01-04-2026 08:00:00,23.707909,86.414670,CO,38,40,39
India,Karnataka,Udupi,"Brahmagiri, Udupi - KSPCB",01-04-2026 08:00:00,13.34194444,74.74694444,OZONE,1,9,5
India,Karnataka,Vijayapura,"Ibrahimpur, Vijayapura - KSPCB",01-04-2026 08:00:00,16.802639,75.722694,PM10,26,39,38
India,Karnataka,Yadgir,"Collector Office, Yadgir - KSPCB",01-04-2026 08:00:00,16.7602,77.1428,PM10,52,93,73
India,Karnataka,Yadgir,"Collector Office, Yadgir - KSPCB",01-04-2026 08:00:00,16.7602,77.1428,NO2,8,12,10
India,Kerala,Kollam,"Polayathode, Kollam - Kerala PCB",01-04-2026 08:00:00,8.8787,76.6073,CO,14,17,16
India,Kerala,Thiruvananthapuram,"Plammoodu, Thiruvananthapuram - Kerala PCB",01-04-2026 08:00:00,8.5149093,76.9435879,NO2,NA,NA,NA
India,Karnataka,Bengaluru,"Jigani, Bengaluru - KSPCB",01-04-2026 08:00:00,12.7816279,77.6299145,PM2.5,25,93,61
India,Karnataka,Bengaluru,"Peenya, Bengaluru - CPCB",01-04-2026 08:00:00,13.0270199,77.494094,PM10,47,75,53
India,Karnataka,Bengaluru,"Peenya, Bengaluru - CPCB",01-04-2026 08:00:00,13.0270199,77.494094,SO2,6,18,11
India,Karnataka,Bengaluru,"Peenya, Bengaluru - CPCB",01-04-2026 08:00:00,13.0270199,77.494094,OZONE,24,25,24
India,Karnataka,Bengaluru,"RVCE-Mailasandra, Bengaluru - KSPCB",01-04-2026 08:00:00,12.921418,77.502466,SO2,NA,NA,NA
India,Karnataka,Bengaluru,"RVCE-Mailasandra, Bengaluru - KSPCB",01-04-2026 08:00:00,12.921418,77.502466,OZONE,22,26,25
India,Maharashtra,Beed,"Bir, Beed - MPCB",01-04-2026 08:00:00,18.988474,75.753873,SO2,2,42,11
India,Maharashtra,Beed,"Bir, Beed - MPCB",01-04-2026 08:00:00,18.988474,75.753873,OZONE,2,48,10
India,Maharashtra,Belapur,"CBD Belapur, Belapur - MPCB",01-04-2026 08:00:00,19.0243902,73.0406721,NO2,1,22,10
India,Maharashtra,Belapur,"CBD Belapur, Belapur - MPCB",01-04-2026 08:00:00,19.0243902,73.0406721,CO,16,30,19
India,Maharashtra,Bhiwandi,"Gokul Nagar, Bhiwandi - MPCB",01-04-2026 08:00:00,19.309073,73.057223,NO2,13,28,20
India,Maharashtra,Boisar,"Khaira, Boisar - MPCB",01-04-2026 08:00:00,19.786089,72.757971,SO2,3,18,8
India,Maharashtra,Boisar,"Khaira, Boisar - MPCB",01-04-2026 08:00:00,19.786089,72.757971,OZONE,3,302,4
India,Maharashtra,Chandrapur,"Chauhan Colony, Chandrapur - MPCB",01-04-2026 08:00:00,19.962900,79.298714,SO2,20,33,27
India,Maharashtra,Chandrapur,"Chauhan Colony, Chandrapur - MPCB",01-04-2026 08:00:00,19.962900,79.298714,CO,24,38,26
India,Maharashtra,Chandrapur,"MIDC Khutala, Chandrapur - MPCB",01-04-2026 08:00:00,19.9775302,79.2337086,NO2,9,29,17
India,Maharashtra,Chandrapur,"MIDC Khutala, Chandrapur - MPCB",01-04-2026 08:00:00,19.9775302,79.2337086,NH3,2,9,4
India,Maharashtra,Chandrapur,"MIDC Khutala, Chandrapur - MPCB",01-04-2026 08:00:00,19.9775302,79.2337086,CO,36,41,37
India,Madhya Pradesh,Jabalpur,"Suhagi, Jabalpur - JMC",01-04-2026 08:00:00,23.218135,79.957770,NO2,29,84,47
India,Madhya Pradesh,Jabalpur,"Suhagi, Jabalpur - JMC",01-04-2026 08:00:00,23.218135,79.957770,CO,43,114,48
India,Madhya Pradesh,Jabalpur,"Suhagi, Jabalpur - JMC",01-04-2026 08:00:00,23.218135,79.957770,OZONE,8,100,53
India,Madhya Pradesh,Katni,"Gole Bazar, Katni - MPPCB",01-04-2026 08:00:00,23.50016,80.23284,PM2.5,35,375,72
India,Madhya Pradesh,Katni,"Gole Bazar, Katni - MPPCB",01-04-2026 08:00:00,23.50016,80.23284,NH3,3,7,6
India,Madhya Pradesh,Katni,"Gole Bazar, Katni - MPPCB",01-04-2026 08:00:00,23.50016,80.23284,SO2,12,80,42
India,Madhya Pradesh,Katni,"Gole Bazar, Katni - MPPCB",01-04-2026 08:00:00,23.50016,80.23284,CO,18,134,30
India,Madhya Pradesh,Maihar,"Sahilara, Maihar - KJS Cements",01-04-2026 08:00:00,24.2613009,80.7231783,SO2,15,18,17
India,Madhya Pradesh,Mandideep,"Sector-D Industrial Area, Mandideep - MPPCB",01-04-2026 08:00:00,23.108440,77.511428,CO,2,60,39
India,Madhya Pradesh,Pithampur,"Sector-2 Industrial Area, Pithampur - MPPCB",01-04-2026 08:00:00,22.624758,75.675238,PM2.5,27,339,168
India,Maharashtra,Dhule,"Deopur, Dhule - MPCB",01-04-2026 08:00:00,20.918946,74.776388,CO,4,64,22
India,Maharashtra,Dombivli,"Kalu Nagar, Dombivli - MPCB",01-04-2026 08:00:00,19.2268427 ,73.0788456 ,CO,8,32,18
India,Maharashtra,Jalgaon,"Prabhat Colony, Jalgaon - MPCB",01-04-2026 08:00:00,21.001264,75.565602,PM2.5,45,232,75
India,Maharashtra,Jalgaon,"Prabhat Colony, Jalgaon - MPCB",01-04-2026 08:00:00,21.001264,75.565602,PM10,54,414,124
India,Maharashtra,Jalgaon,"Prabhat Colony, Jalgaon - MPCB",01-04-2026 08:00:00,21.001264,75.565602,SO2,1,11,4
India,Maharashtra,Jalna,"Old MIDC, Jalna - MPCB",01-04-2026 08:00:00,19.854616,75.905894,CO,6,36,16
India,Maharashtra,Jalna,"Old MIDC, Jalna - MPCB",01-04-2026 08:00:00,19.854616,75.905894,OZONE,4,60,9
India,Maharashtra,Kalyan,"Khadakpada, Kalyan - MPCB",01-04-2026 08:00:00,19.25292,73.142019,PM2.5,NA,NA,NA
India,Maharashtra,Kalyan,"Khadakpada, Kalyan - MPCB",01-04-2026 08:00:00,19.25292,73.142019,PM10,NA,NA,NA
India,Maharashtra,Kalyan,"Pimpleshwar Mandir, Kalyan - MPCB",01-04-2026 08:00:00,19.192056,72.9585188,OZONE,2,29,3
India,Maharashtra,Kolhapur,"Shivaji University, Kolhapur - MPCB",01-04-2026 08:00:00,16.6870449,74.2505872,PM10,48,109,65
India,Maharashtra,Kolhapur,"Shivaji University, Kolhapur - MPCB",01-04-2026 08:00:00,16.6870449,74.2505872,NO2,NA,NA,NA
India,Maharashtra,Kolhapur,"Sinchan Bhavan, Kolhapur - MPCB",01-04-2026 08:00:00,16.7143745,74.2426398,PM2.5,NA,NA,NA
India,Maharashtra,Latur,"Sawe Wadi, Latur - MPCB",01-04-2026 08:00:00,18.39963,76.57452,PM10,50,93,70
India,Maharashtra,Latur,"Sawe Wadi, Latur - MPCB",01-04-2026 08:00:00,18.39963,76.57452,NO2,17,88,36
India,Maharashtra,Latur,"Sawe Wadi, Latur - MPCB",01-04-2026 08:00:00,18.39963,76.57452,CO,14,76,34
India,Maharashtra,Malegaon,"Mahesh Nagar, Malegaon - MPCB",01-04-2026 08:00:00,20.555712,74.529236,NO2,NA,NA,NA
India,Maharashtra,Mumbai,"Byculla, Mumbai - BMC",01-04-2026 08:00:00,18.9767,72.8380,OZONE,5,13,8
India,Maharashtra,Mumbai,"Chakala-Andheri East, Mumbai - IITM",01-04-2026 08:00:00,19.11074,72.86084,NH3,NA,NA,NA
India,Maharashtra,Mumbai,"Chembur, Mumbai - MPCB",01-04-2026 08:00:00,19.0364585,72.8954371,PM2.5,5,24,13
India,Maharashtra,Mumbai,"Chembur, Mumbai - MPCB",01-04-2026 08:00:00,19.0364585,72.8954371,PM10,15,39,28
India,Maharashtra,Mumbai,"Deonar, Mumbai - IITM",01-04-2026 08:00:00,19.04946,72.9230,PM10,32,70,49
India,Maharashtra,Mumbai,"Deonar, Mumbai - IITM",01-04-2026 08:00:00,19.04946,72.9230,NO2,4,19,8
India,Maharashtra,Mumbai,"Deonar, Mumbai - IITM",01-04-2026 08:00:00,19.04946,72.9230,CO,20,54,25
India,Maharashtra,Mumbai,"Ghatkopar, Mumbai - BMC",01-04-2026 08:00:00,19.083694,72.920967,PM2.5,5,18,11
India,Maharashtra,Mumbai,"Ghatkopar, Mumbai - BMC",01-04-2026 08:00:00,19.083694,72.920967,NH3,5,18,9
India,Madhya Pradesh,Ratlam,"Shasthri Nagar, Ratlam - IPCA Lab",01-04-2026 08:00:00,23.331731,75.045981,PM10,59,150,90
India,Madhya Pradesh,Sagar,"Civil Lines, Sagar - MPPCB",01-04-2026 08:00:00,23.838586,78.759431,NH3,1,5,3
India,Madhya Pradesh,Sagar,"Deen Dayal Nagar, Sagar - MPPCB",01-04-2026 08:00:00,23.8640158,78.80289321,CO,58,88,85
India,Madhya Pradesh,Satna,"Bandhavgar Colony, Satna - Birla Cement",01-04-2026 08:00:00,24.58434363,80.8549414,PM10,69,71,70
India,Madhya Pradesh,Singrauli,"Suryakiran Bhawan NCL, Singrauli - MPPCB",01-04-2026 08:00:00,24.108970,82.645580,CO,52,105,61
India,Madhya Pradesh,Singrauli,"Suryakiran Bhawan NCL, Singrauli - MPPCB",01-04-2026 08:00:00,24.108970,82.645580,OZONE,2,42,6
India,Madhya Pradesh,Ujjain,"Mahashweta Nagar, Ujjain - MPPCB",01-04-2026 08:00:00,23.1633321,75.800225,OZONE,25,82,29
India,Maharashtra,Ahmednagar,"Tarakpur, Ahmednagar - MPCB",01-04-2026 08:00:00,19.10122,74.73339,NH3,5,6,6
India,Maharashtra,Ahmednagar,"Tarakpur, Ahmednagar - MPCB",01-04-2026 08:00:00,19.10122,74.73339,SO2,NA,NA,NA
India,Maharashtra,Akola,"Ramdaspeth, Akola - MPCB",01-04-2026 08:00:00,20.719516,77.000253,PM10,18,133,67
India,Maharashtra,Akola,"Ramdaspeth, Akola - MPCB",01-04-2026 08:00:00,20.719516,77.000253,OZONE,4,94,9
India,Maharashtra,Ambernath,"Chinchpada, Ambernath - MPCB",01-04-2026 08:00:00,19.2157840,73.1997810,PM10,18,46,34
India,Maharashtra,Mira-Bhayandar,"Bhayandar West, Mira-Bhayandar - MPCB",01-04-2026 08:00:00,19.296481,72.840923,CO,40,41,40
India,Maharashtra,Mumbai,"Bandra Kurla Complex, Mumbai - IITM",01-04-2026 08:00:00,19.053536,72.84643,NH3,14,32,19
India,Maharashtra,Mumbai,"Bandra Kurla Complex, Mumbai - IITM",01-04-2026 08:00:00,19.053536,72.84643,CO,8,66,22
India,Maharashtra,Mumbai,"Bandra Kurla Complex, Mumbai - MPCB",01-04-2026 08:00:00,19.065931,72.862131,PM10,17,93,87
India,Maharashtra,Mumbai,"Borivali East, Mumbai - IITM",01-04-2026 08:00:00,19.23241,72.86895,CO,29,77,58
India,Maharashtra,Mumbai,"Byculla, Mumbai - BMC",01-04-2026 08:00:00,18.9767,72.8380,PM10,10,29,20
India,Maharashtra,Amravati,"Shri Shivaji Science College, Amravati - MPCB",01-04-2026 08:00:00,20.939198,77.765701,PM10,21,173,69
India,Maharashtra,Amravati,"Shri Shivaji Science College, Amravati - MPCB",01-04-2026 08:00:00,20.939198,77.765701,OZONE,1,77,15
India,Maharashtra,Aurangabad,"Rachnakar Colony, Aurangabad - MPCB",01-04-2026 08:00:00,19.863756,75.321188,NH3,2,6,4
India,Maharashtra,Aurangabad,"Rachnakar Colony, Aurangabad - MPCB",01-04-2026 08:00:00,19.863756,75.321188,OZONE,15,65,17
India,Maharashtra,Mumbai,"Ghatkopar, Mumbai - BMC",01-04-2026 08:00:00,19.083694,72.920967,CO,4,20,5
India,Maharashtra,Mumbai,"Kandivali East, Mumbai - MPCB",01-04-2026 08:00:00,19.205800,72.868200,PM10,3,20,12
India,Maharashtra,Mumbai,"Kandivali East, Mumbai - MPCB",01-04-2026 08:00:00,19.205800,72.868200,CO,40,40,40
India,Maharashtra,Mumbai,"Kandivali East, Mumbai - MPCB",01-04-2026 08:00:00,19.205800,72.868200,OZONE,14,15,15
India,Maharashtra,Mumbai,"Kandivali West, Mumbai - BMC",01-04-2026 08:00:00,19.215859,72.831718,OZONE,12,31,13
India,Maharashtra,Mumbai,"Kherwadi_Bandra East, Mumbai - MPCB",01-04-2026 08:00:00,19.0632143,72.8456324,CO,1,10,6
India,Maharashtra,Mumbai,"Khindipada-Bhandup West, Mumbai - IITM",01-04-2026 08:00:00,19.1653323,72.922099,PM2.5,5,33,11
India,Maharashtra,Mumbai,"Khindipada-Bhandup West, Mumbai - IITM",01-04-2026 08:00:00,19.1653323,72.922099,NO2,8,17,12
India,Maharashtra,Mumbai,"Kurla, Mumbai - MPCB",01-04-2026 08:00:00,19.0863,72.8888,NO2,4,6,5
India,Maharashtra,Mumbai,"Kurla, Mumbai - MPCB",01-04-2026 08:00:00,19.0863,72.8888,NH3,1,2,1
India,Maharashtra,Mumbai,"Kurla, Mumbai - MPCB",01-04-2026 08:00:00,19.0863,72.8888,SO2,29,29,29
India,Maharashtra,Pimpri-Chinchwad,"Savta Mali Nagar, Pimpri-Chinchwad - IITM",01-04-2026 08:00:00,18.614767,73.799516,CO,14,77,52
India,Maharashtra,Pimpri-Chinchwad,"Savta Mali Nagar, Pimpri-Chinchwad - IITM",01-04-2026 08:00:00,18.614767,73.799516,OZONE,1,34,3
India,Maharashtra,Pimpri-Chinchwad,"Thergaon, Pimpri Chinchwad - MPCB",01-04-2026 08:00:00,18.616318,73.765797,NH3,13,17,14
India,Maharashtra,Pimpri-Chinchwad,"Thergaon, Pimpri Chinchwad - MPCB",01-04-2026 08:00:00,18.616318,73.765797,SO2,1,3,1
India,Maharashtra,Pimpri-Chinchwad,"Thergaon, Pimpri Chinchwad - MPCB",01-04-2026 08:00:00,18.616318,73.765797,CO,22,72,33
India,Maharashtra,Pune,"Bhosari, Pune - IITM",01-04-2026 08:00:00,18.640051,73.848956,PM2.5,34,141,61
India,Maharashtra,Pune,"Bhosari, Pune - IITM",01-04-2026 08:00:00,18.640051,73.848956,NO2,8,15,12
India,Maharashtra,Pune,"Bhumkar Nagar, Pune - IITM",01-04-2026 08:00:00,18.605770,73.749976,PM2.5,36,305,138
India,Maharashtra,Pune,"Bhumkar Nagar, Pune - IITM",01-04-2026 08:00:00,18.605770,73.749976,NO2,NA,NA,NA
India,Maharashtra,Pune,"Dhankawadi, Pune - IITM",01-04-2026 08:00:00,18.459883,73.852193,PM10,60,136,91
India,Maharashtra,Pune,"Dhankawadi, Pune - IITM",01-04-2026 08:00:00,18.459883,73.852193,CO,16,114,86
India,Maharashtra,Mumbai,"Malad West, Mumbai - IITM",01-04-2026 08:00:00,19.19709,72.82204,SO2,6,9,8
India,Maharashtra,Mumbai,"Mazgaon, Mumbai - IITM",01-04-2026 08:00:00,18.96702,72.84214,NH3,11,13,12
India,Maharashtra,Mumbai,"Mindspace-Malad West, Mumbai - MPCB",01-04-2026 08:00:00,19.1878657,72.8304069,PM10,14,26,19
India,Maharashtra,Mumbai,"Mindspace-Malad West, Mumbai - MPCB",01-04-2026 08:00:00,19.1878657,72.8304069,SO2,4,13,8
India,Maharashtra,Mumbai,"Mulund West, Mumbai - MPCB",01-04-2026 08:00:00,19.1750,72.9419,PM10,16,52,30
India,Maharashtra,Mumbai,"Mulund West, Mumbai - MPCB",01-04-2026 08:00:00,19.1750,72.9419,NH3,2,3,2
India,Maharashtra,Mumbai,"Mulund West, Mumbai - MPCB",01-04-2026 08:00:00,19.1750,72.9419,SO2,NA,NA,NA
India,Maharashtra,Mumbai,"Navy Nagar-Colaba, Mumbai - IITM",01-04-2026 08:00:00,18.897756,72.813320,PM2.5,12,43,25
India,Maharashtra,Mumbai,"Navy Nagar-Colaba, Mumbai - IITM",01-04-2026 08:00:00,18.897756,72.813320,NO2,17,29,21
India,Maharashtra,Mumbai,"Navy Nagar-Colaba, Mumbai - IITM",01-04-2026 08:00:00,18.897756,72.813320,CO,12,20,18
India,Maharashtra,Nagpur,"Mahal, Nagpur - MPCB",01-04-2026 08:00:00,21.14472,79.107595,NH3,9,11,10
India,Maharashtra,Nagpur,"Mahal, Nagpur - MPCB",01-04-2026 08:00:00,21.14472,79.107595,SO2,15,75,30
India,Maharashtra,Nagpur,"Opp GPO Civil Lines, Nagpur - MPCB",01-04-2026 08:00:00,21.152875,79.0517531,NO2,17,70,36
India,Maharashtra,Nagpur,"Opp GPO Civil Lines, Nagpur - MPCB",01-04-2026 08:00:00,21.152875,79.0517531,OZONE,8,78,11
India,Maharashtra,Nagpur,"Ram Nagar, Nagpur - MPCB",01-04-2026 08:00:00,21.143383,79.048912,NO2,8,26,17
India,Maharashtra,Nanded,"Sneh Nagar, Nanded - MPCB",01-04-2026 08:00:00,19.173852,77.296291,NH3,3,5,4
India,Maharashtra,Nashik,"Gangapur Road, Nashik - MPCB",01-04-2026 08:00:00,20.0073285,73.7762427,PM10,55,149,93
India,Maharashtra,Nashik,"Gangapur Road, Nashik - MPCB",01-04-2026 08:00:00,20.0073285,73.7762427,NH3,3,3,3
India,Maharashtra,Nashik,"Gangapur Road, Nashik - MPCB",01-04-2026 08:00:00,20.0073285,73.7762427,SO2,1,6,2
India,Maharashtra,Pune,"Katraj Dairy, Pune - MPCB",01-04-2026 08:00:00,18.454450,73.854155,NO2,NA,NA,NA
India,Maharashtra,Pune,"Katraj Dairy, Pune - MPCB",01-04-2026 08:00:00,18.454450,73.854155,NH3,NA,NA,NA
India,Maharashtra,Pune,"Katraj Dairy, Pune - MPCB",01-04-2026 08:00:00,18.454450,73.854155,SO2,1,3,2
India,Maharashtra,Pune,"Katraj Dairy, Pune - MPCB",01-04-2026 08:00:00,18.454450,73.854155,OZONE,14,46,16
India,Maharashtra,Pune,"Revenue Colony-Shivajinagar, Pune - IITM",01-04-2026 08:00:00,18.530085,73.849598,NO2,31,135,69
India,Maharashtra,Pune,"Transport Nagar-Nigdi, Pune - IITM",01-04-2026 08:00:00,18.664282,73.763966,PM10,44,99,68
India,Maharashtra,Pune,"Transport Nagar-Nigdi, Pune - IITM",01-04-2026 08:00:00,18.664282,73.763966,OZONE,NA,NA,NA
India,Maharashtra,Solapur,"Dnyaneshwar Nagar, Solapur - MPCB",01-04-2026 08:00:00,17.6336264,75.9132495,PM2.5,NA,NA,NA
India,Maharashtra,Solapur,"Dnyaneshwar Nagar, Solapur - MPCB",01-04-2026 08:00:00,17.6336264,75.9132495,NO2,3,48,18
India,Maharashtra,Mumbai,"Sewri, Mumbai - BMC",01-04-2026 08:00:00,19.000084,72.856730,CO,8,40,16
India,Maharashtra,Mumbai,"Shivaji Nagar, Mumbai - BMC",01-04-2026 08:00:00,19.060498,72.923356,PM10,26,66,43
India,Maharashtra,Mumbai,"Siddharth Nagar-Worli, Mumbai - IITM",01-04-2026 08:00:00,19.000083,72.813993,NO2,14,23,18
India,Maharashtra,Mumbai,"Siddharth Nagar-Worli, Mumbai - IITM",01-04-2026 08:00:00,19.000083,72.813993,NH3,3,4,3
India,Maharashtra,Mumbai,"Sion, Mumbai - MPCB",01-04-2026 08:00:00,19.047000,72.874600,CO,12,18,18
India,Maharashtra,Mumbai,"Vile Parle West, Mumbai - MPCB",01-04-2026 08:00:00,19.10861,72.83622,NO2,11,11,11
India,Maharashtra,Mumbai,"Vile Parle West, Mumbai - MPCB",01-04-2026 08:00:00,19.10861,72.83622,CO,28,29,29
India,Maharashtra,Mumbai,"Worli, Mumbai -MPCB",01-04-2026 08:00:00,18.9942180,72.8158167,PM2.5,NA,NA,NA
India,Maharashtra,Navi Mumbai,"Sanpada, Navi Mumbai - MPCB",01-04-2026 08:00:00,19.0575752,73.0151367,PM10,29,61,45
India,Maharashtra,Navi Mumbai,"Sanpada, Navi Mumbai - MPCB",01-04-2026 08:00:00,19.0575752,73.0151367,NH3,2,9,4
India,Maharashtra,Navi Mumbai,"Sector-2E Kalamboli, Navi Mumbai - MPCB",01-04-2026 08:00:00,19.02579,73.10297,CO,12,20,16
India,Maharashtra,Navi Mumbai,"Tondare-Taloja, Navi Mumbai - MPCB",01-04-2026 08:00:00,19.0630,73.1209,NO2,5,13,9
India,Maharashtra,Parbhani,"Masoom Colony, Parbhani - MPCB",01-04-2026 08:00:00,19.265594,76.761463,SO2,1,22,13
India,Maharashtra,Pimpri-Chinchwad,"Gavalinagar, Pimpri Chinchwad - MPCB",01-04-2026 08:00:00,18.63673,73.82487,CO,17,32,21
India,Maharashtra,Nashik,"MIDC Ambad, Nashik - MPCB",01-04-2026 08:00:00,19.950220,73.731480,NH3,2,3,3
India,Maharashtra,Nashik,"Pandav Nagari, Nashik - MPCB",01-04-2026 08:00:00,19.9591346,73.7788008,PM10,49,122,86
India,Maharashtra,Nashik,"Pandav Nagari, Nashik - MPCB",01-04-2026 08:00:00,19.9591346,73.7788008,SO2,1,7,2
India,Maharashtra,Navi Mumbai,"Kopripada-Vashi, Navi Mumbai - MPCB",01-04-2026 08:00:00,19.090337,73.014232,OZONE,3,26,5
India,Maharashtra,Navi Mumbai,"Mahape, Navi Mumbai - MPCB",01-04-2026 08:00:00,19.1135051,73.008978,PM10,17,132,66
India,Maharashtra,Solapur,"Ratandeep Housing Society, Solapur - MPCB",01-04-2026 08:00:00,17.65439,75.90649,PM2.5,27,128,74
India,Maharashtra,Thane,"Kasarvadavali, Thane - MPCB",01-04-2026 08:00:00,19.26777,72.97182,SO2,1,3,2
India,Maharashtra,Thane,"Upvan Fort, Thane - MPCB",01-04-2026 08:00:00,19.222279,72.957979,OZONE,19,51,23
India,Maharashtra,Ulhasnagar,"Vithalwadi, Ulhasnagar - MPCB",01-04-2026 08:00:00,19.2307571 ,73.1551920,NO2,10,30,19
India,Odisha,Balasore,"Kalidaspur, Balasore - OSPCB",01-04-2026 08:00:00,21.51161,86.89088,PM10,45,131,79
India,Odisha,Balasore,"Kalidaspur, Balasore - OSPCB",01-04-2026 08:00:00,21.51161,86.89088,NH3,1,2,1
India,Odisha,Balasore,"Kalidaspur, Balasore - OSPCB",01-04-2026 08:00:00,21.51161,86.89088,SO2,6,11,8
India,Odisha,Balasore,"Kalidaspur, Balasore - OSPCB",01-04-2026 08:00:00,21.51161,86.89088,CO,39,70,43
India,Odisha,Barbil,"Forest Office, Barbil - OSPCB",01-04-2026 08:00:00,22.1166054,85.3945546,PM10,71,220,111
India,Odisha,Barbil,"Forest Office, Barbil - OSPCB",01-04-2026 08:00:00,22.1166054,85.3945546,NO2,14,34,20
India,Odisha,Barbil,"Forest Office, Barbil - OSPCB",01-04-2026 08:00:00,22.1166054,85.3945546,CO,16,191,113
India,Odisha,Baripada,"Meher Colony, Baripada - OSPCB",01-04-2026 08:00:00,21.941841,86.728318,OZONE,5,39,13
India,Odisha,Bhubaneswar,"Lingraj Mandir, Bhubaneswar - OSPCB",01-04-2026 08:00:00,20.240790,85.836784,NO2,8,68,35
India,Odisha,Bhubaneswar,"Lingraj Mandir, Bhubaneswar - OSPCB",01-04-2026 08:00:00,20.240790,85.836784,NH3,5,12,7
India,Odisha,Bhubaneswar,"Lingraj Mandir, Bhubaneswar - OSPCB",01-04-2026 08:00:00,20.240790,85.836784,SO2,1,21,9
India,Odisha,Rourkela,"Fertilizer Township, Rourkela - OSPCB",01-04-2026 08:00:00,22.18972222,84.86277778,PM10,84,95,88
India,Odisha,Rourkela,"Fertilizer Township, Rourkela - OSPCB",01-04-2026 08:00:00,22.18972222,84.86277778,CO,10,21,12
India,Odisha,Rourkela,"Sector-2, Rourkela - OSPCB",01-04-2026 08:00:00,22.24500000,84.88111111,PM2.5,42,62,49
India,Odisha,Rourkela,"Sector-2, Rourkela - OSPCB",01-04-2026 08:00:00,22.24500000,84.88111111,PM10,46,73,61
India,Odisha,Suakati,"OMC Colony, Suakati - OSPCB",01-04-2026 08:00:00,21.606865,85.510538,PM2.5,63,84,74
India,Odisha,Suakati,"OMC Colony, Suakati - OSPCB",01-04-2026 08:00:00,21.606865,85.510538,PM10,53,76,65
India,Odisha,Suakati,"OMC Colony, Suakati - OSPCB",01-04-2026 08:00:00,21.606865,85.510538,NH3,7,7,7
India,Odisha,Talcher,"Talcher Coalfields,Talcher - OSPCB",01-04-2026 08:00:00,20.9360711,85.1707021,CO,12,62,33
India,Odisha,Tensa,"Barsua Iron Ore Mines, Tensa - OSPCB",01-04-2026 08:00:00,21.869985,85.167016,PM2.5,5,85,45
India,Rajasthan,Baran,"Bamboliya, Baran - RSPCB",01-04-2026 08:00:00,25.106006,76.469948,PM10,20,136,88
India,Rajasthan,Baran,"Bamboliya, Baran - RSPCB",01-04-2026 08:00:00,25.106006,76.469948,NO2,9,78,20
India,Rajasthan,Barmer,"Railway Colony, Barmer - RSPCB",01-04-2026 08:00:00,25.747299,71.393989,OZONE,47,74,68
India,Rajasthan,Bharatpur,"Krishna Nagar, Bharatpur - RSPCB",01-04-2026 08:00:00,27.215415,77.50873,SO2,2,7,4
India,Rajasthan,Bhilwara,"Pratap Nagar, Bhilwara - RSPCB",01-04-2026 08:00:00,25.339605,74.618883,PM2.5,3,227,41
India,Rajasthan,Bhilwara,"Pratap Nagar, Bhilwara - RSPCB",01-04-2026 08:00:00,25.339605,74.618883,PM10,36,225,82
India,Rajasthan,Bhiwadi,"RIICO Ind. Area III, Bhiwadi - RSPCB",01-04-2026 08:00:00,28.194909,76.862296,PM2.5,46,308,95
India,Rajasthan,Bhiwadi,"RIICO Ind. Area III, Bhiwadi - RSPCB",01-04-2026 08:00:00,28.194909,76.862296,SO2,9,18,14
India,Odisha,Cuttack,"CDA Area, Cuttack - OSPCB",01-04-2026 08:00:00,20.48891     ,85.84768     ,NO2,5,27,10
India,Odisha,Cuttack,"CDA Area, Cuttack - OSPCB",01-04-2026 08:00:00,20.48891     ,85.84768     ,SO2,5,28,10
India,Odisha,Keonjhar,"Jagamohanpur, Keonjhar - OSPCB",01-04-2026 08:00:00,21.643900,85.599355,NO2,8,10,8
India,Odisha,Keonjhar,"Jagamohanpur, Keonjhar - OSPCB",01-04-2026 08:00:00,21.643900,85.599355,SO2,10,37,21
India,Odisha,Keonjhar,"Jagamohanpur, Keonjhar - OSPCB",01-04-2026 08:00:00,21.643900,85.599355,CO,24,39,30
India,Odisha,Nayagarh,"Dabuna, Nayagarh - OSPCB",01-04-2026 08:00:00,21.847279,85.416905,PM2.5,9,99,58
India,Odisha,Rairangpur,"Divisional Forest Office, Rairangpur - OSPCB",01-04-2026 08:00:00,22.265816,86.174829,NO2,11,12,11
India,Puducherry,Puducherry,"Jawahar Nagar, Puducherry - PPCC",01-04-2026 08:00:00,11.9309,79.8027,PM2.5,10,169,34
India,Punjab,Amritsar,"Golden Temple, Amritsar - PPCB",01-04-2026 08:00:00,31.620000,74.876512,NH3,5,13,8
India,Punjab,Amritsar,"Golden Temple, Amritsar - PPCB",01-04-2026 08:00:00,31.620000,74.876512,SO2,13,25,17
India,Punjab,Khanna,"Kalal Majra, Khanna - PPCB",01-04-2026 08:00:00,30.736056 ,76.209694,PM2.5,NA,NA,NA
India,Punjab,Khanna,"Kalal Majra, Khanna - PPCB",01-04-2026 08:00:00,30.736056 ,76.209694,OZONE,NA,NA,NA
India,Punjab,Ludhiana,"Punjab Agricultural University, Ludhiana - PPCB",01-04-2026 08:00:00,30.9028,75.8086,NO2,30,35,33
India,Punjab,Mandi Gobindgarh,"RIMT University, Mandi Gobindgarh - PPCB",01-04-2026 08:00:00,30.649961,76.331442,NH3,6,6,6
India,Punjab,Patiala,"Model Town, Patiala - PPCB",01-04-2026 08:00:00,30.349388,76.366642,PM2.5,13,85,48
India,Punjab,Rupnagar,"Ratanpura, Rupnagar - Ambuja Cements",01-04-2026 08:00:00,31.0325454,76.5623046,CO,41,51,44
India,Rajasthan,Ajmer,"Civil Lines,  Ajmer - RSPCB",01-04-2026 08:00:00,26.470859,74.646594,PM2.5,48,72,58
India,Rajasthan,Ajmer,"Civil Lines,  Ajmer - RSPCB",01-04-2026 08:00:00,26.470859,74.646594,NH3,3,4,4
India,Meghalaya,Shillong,"Lumpyngngad, Shillong - Meghalaya PCB",01-04-2026 08:00:00,25.5586,91.8985,OZONE,2,52,44
India,Mizoram,Aizawl,"Sikulpuikawn, Aizawl - Mizoram PCB",01-04-2026 08:00:00,23.7176342,92.7192841,CO,3,3,3
India,Nagaland,Kohima,"PWD Junction, Kohima - NPCB",01-04-2026 08:00:00,25.6635413,94.0989878,NH3,1,1,1
India,Odisha,Angul,"Hakimapada, Angul - OSPCB",01-04-2026 08:00:00,20.832874,85.104082,OZONE,8,71,22
India,Rajasthan,Bhiwadi,"Vasundhara Nagar_UIT, Bhiwadi - RSPCB",01-04-2026 08:00:00,28.207266,76.829265,NO2,16,75,43
India,Rajasthan,Bundi,"New Colony, Bundi - RSPCB",01-04-2026 08:00:00,25.435774,75.644272,PM10,45,109,72
India,Rajasthan,Bundi,"New Colony, Bundi - RSPCB",01-04-2026 08:00:00,25.435774,75.644272,NH3,2,4,3
India,Rajasthan,Bundi,"New Colony, Bundi - RSPCB",01-04-2026 08:00:00,25.435774,75.644272,CO,14,62,16
India,Rajasthan,Dausa,"Khatikan Mohalla, Dausa - RSPCB",01-04-2026 08:00:00,26.895552,76.334753,NO2,8,54,24
India,Meghalaya,Byrnihat,"15th Mile-Nongthymmai, Byrnihat - Meghalaya PCB",01-04-2026 08:00:00,26.079047,91.875185,NO2,1,3,2
India,Meghalaya,Shillong,"JN Stadium, Shillong - Meghalaya PCB",01-04-2026 08:00:00,25.5803419,91.8942571,NH3,1,5,2
India,Rajasthan,Jodhpur,"Jhalamand, Jodhpur - RSPCB",01-04-2026 08:00:00,26.215415,73.070156,OZONE,16,59,22
India,Rajasthan,Jodhpur,"Mandor, Jodhpur - RSPCB",01-04-2026 08:00:00,26.358805,73.047444,PM2.5,13,42,24
India,Rajasthan,Jodhpur,"Mandor, Jodhpur - RSPCB",01-04-2026 08:00:00,26.358805,73.047444,NO2,4,30,12
India,Rajasthan,Jodhpur,"Mandor, Jodhpur - RSPCB",01-04-2026 08:00:00,26.358805,73.047444,NH3,3,7,5
India,Rajasthan,Jodhpur,"Samrat Ashok Udhyan, Jodhpur - RSPCB",01-04-2026 08:00:00,26.253384,72.976571,PM10,55,119,78
India,Rajasthan,Jodhpur,"Samrat Ashok Udhyan, Jodhpur - RSPCB",01-04-2026 08:00:00,26.253384,72.976571,NH3,5,7,6
India,Rajasthan,Jodhpur,"Samrat Ashok Udhyan, Jodhpur - RSPCB",01-04-2026 08:00:00,26.253384,72.976571,OZONE,16,97,52
India,Rajasthan,Karauli,"Satyawati Vihar, Karauli - RSPCB",01-04-2026 08:00:00,26.506177,77.025989,PM2.5,2,52,15
India,Rajasthan,Karauli,"Satyawati Vihar, Karauli - RSPCB",01-04-2026 08:00:00,26.506177,77.025989,NH3,8,17,11
India,Rajasthan,Karauli,"Satyawati Vihar, Karauli - RSPCB",01-04-2026 08:00:00,26.506177,77.025989,CO,5,42,9
India,Rajasthan,Kota,"Nayapura, Kota - RSPCB",01-04-2026 08:00:00,25.196024,75.855668,SO2,12,41,26
India,TamilNadu,Coimbatore,"PSG College of Arts and Science, Coimbatore - TNPCB",01-04-2026 08:00:00,11.0328,77.0349,PM10,32,101,53
India,TamilNadu,Coimbatore,"PSG College of Arts and Science, Coimbatore - TNPCB",01-04-2026 08:00:00,11.0328,77.0349,OZONE,3,7,5
India,TamilNadu,Coimbatore,"SIDCO Kurichi, Coimbatore - TNPCB",01-04-2026 08:00:00,10.942451,76.978996,PM2.5,26,86,47
India,TamilNadu,Gummidipoondi,"Anthoni Pillai Nagar, Gummidipoondi - TNPCB",01-04-2026 08:00:00,13.4127,80.1081,SO2,6,79,24
India,TamilNadu,Perundurai,"SIPCOT Industrial Park, Perundurai - TNPCB",01-04-2026 08:00:00,11.258242,77.552761,NH3,3,4,4
India,TamilNadu,Perundurai,"SIPCOT Industrial Park, Perundurai - TNPCB",01-04-2026 08:00:00,11.258242,77.552761,CO,45,51,47
India,Telangana,Hyderabad,"Central University, Hyderabad - TSPCB",01-04-2026 08:00:00,17.460103,78.334361,PM2.5,NA,NA,NA
India,Telangana,Hyderabad,"Central University, Hyderabad - TSPCB",01-04-2026 08:00:00,17.460103,78.334361,NO2,12,36,20
India,TamilNadu,Chennai,"Kodungaiyur, Chennai - TNPCB",01-04-2026 08:00:00,13.1278,80.2642,NO2,12,16,14
India,TamilNadu,Chennai,"Manali Village, Chennai - TNPCB",01-04-2026 08:00:00,13.1662,80.2584,OZONE,33,91,85
India,TamilNadu,Chennai,"Manali, Chennai - CPCB",01-04-2026 08:00:00,13.164544,80.26285,PM2.5,13,54,27
India,TamilNadu,Chennai,"Manali, Chennai - CPCB",01-04-2026 08:00:00,13.164544,80.26285,PM10,26,88,46
India,TamilNadu,Chennai,"Manali, Chennai - CPCB",01-04-2026 08:00:00,13.164544,80.26285,NO2,8,15,11
India,TamilNadu,Chennai,"Manali, Chennai - CPCB",01-04-2026 08:00:00,13.164544,80.26285,NH3,6,7,7
India,TamilNadu,Chennai,"Manali, Chennai - CPCB",01-04-2026 08:00:00,13.164544,80.26285,CO,11,111,101
India,TamilNadu,Chennai,"Perungudi, Chennai - TNPCB",01-04-2026 08:00:00,12.9533,80.2357,SO2,1,6,4
India,TamilNadu,Chennai,"Royapuram, Chennai - TNPCB",01-04-2026 08:00:00,13.1036,80.2909,NO2,10,16,14
India,TamilNadu,Chennai,"Velachery Res. Area, Chennai - CPCB",01-04-2026 08:00:00,13.0052189,80.2398125,PM2.5,29,29,29
India,Rajasthan,Kota,"Shrinath Puram, Kota - RSPCB",01-04-2026 08:00:00,25.14389,75.821256,OZONE,13,54,25
India,Rajasthan,Nagaur,"Karni Colony, Nagaur - RSPCB",01-04-2026 08:00:00,27.213494,73.734444,PM10,45,129,78
India,Rajasthan,Nagaur,"Karni Colony, Nagaur - RSPCB",01-04-2026 08:00:00,27.213494,73.734444,NH3,NA,NA,NA
India,Rajasthan,Pali,"Indira Colony Vistar, Pali - RSPCB",01-04-2026 08:00:00,25.771061, 73.340227,NO2,2,23,18
India,Rajasthan,Pali,"Indira Colony Vistar, Pali - RSPCB",01-04-2026 08:00:00,25.771061, 73.340227,NH3,1,101,13
India,Rajasthan,Pratapgarh,"Pragati Nagar, Pratapgarh - RSPCB",01-04-2026 08:00:00,24.041198,74.780702,PM2.5,32,307,111
India,Rajasthan,Rajsamand,"Dhoinda, Rajsamand - RSPCB",01-04-2026 08:00:00,25.036360,73.883502,PM10,42,145,69
India,Rajasthan,Rajsamand,"Dhoinda, Rajsamand - RSPCB",01-04-2026 08:00:00,25.036360,73.883502,CO,7,40,15
India,Rajasthan,Dausa,"Khatikan Mohalla, Dausa - RSPCB",01-04-2026 08:00:00,26.895552,76.334753,OZONE,43,79,55
India,Rajasthan,Dholpur,"Raja Ganj, Dholpur - RSPCB",01-04-2026 08:00:00,26.699557,77.898881,NH3,8,36,13
India,Rajasthan,Dholpur,"Raja Ganj, Dholpur - RSPCB",01-04-2026 08:00:00,26.699557,77.898881,SO2,6,31,18
India,Rajasthan,Dungarpur,"Bhoiwada, Dungarpur - RSPCB",01-04-2026 08:00:00,23.837789,73.714926,SO2,1,5,3
India,Rajasthan,Jaipur,"Adarsh Nagar, Jaipur - RSPCB",01-04-2026 08:00:00,26.902909,75.836858,OZONE,38,70,47
India,Rajasthan,Jaipur,"Mansarovar Sector-12, Jaipur - RSPCB",01-04-2026 08:00:00,26.843698,75.766894,NO2,8,42,22
India,Rajasthan,Jaipur,"Police Commissionerate, Jaipur - RSPCB",01-04-2026 08:00:00,26.9164092,75.7994901,PM2.5,46,80,60
India,Rajasthan,Jaipur,"Police Commissionerate, Jaipur - RSPCB",01-04-2026 08:00:00,26.9164092,75.7994901,NH3,1,4,2
India,Rajasthan,Jaipur,"RIICO Sitapura, Jaipur - RSPCB",01-04-2026 08:00:00,26.786682,75.827928,NH3,4,12,6
India,Rajasthan,Jaipur,"Shastri Nagar, Jaipur - RSPCB",01-04-2026 08:00:00,26.9502929,75.730943,PM10,32,106,66
India,Rajasthan,Jaipur,"Shastri Nagar, Jaipur - RSPCB",01-04-2026 08:00:00,26.9502929,75.730943,SO2,2,43,28
India,Rajasthan,Jaipur,"Shastri Nagar, Jaipur - RSPCB",01-04-2026 08:00:00,26.9502929,75.730943,CO,17,107,25
India,Rajasthan,Jaisalmer,"Sadar Bazar, Jaisalmer - RSPCB",01-04-2026 08:00:00,26.912329,70.909168,PM10,45,126,78
India,Rajasthan,Jaisalmer,"Sadar Bazar, Jaisalmer - RSPCB",01-04-2026 08:00:00,26.912329,70.909168,OZONE,48,85,65
India,Rajasthan,Jalore,"Mudtra Sili, Jalore - RSPCB",01-04-2026 08:00:00,25.344694,72.626208,SO2,3,15,5
India,Rajasthan,Jhalawar,"Rajlaxmi Nagar, Jhalawar - RSPCB",01-04-2026 08:00:00,24.588397,76.172782,NO2,21,43,31
India,Rajasthan,Jhunjhunu,"Indra Nagar, Jhunjhunu - RSPCB",01-04-2026 08:00:00,28.108988,75.386577,NH3,9,18,12
India,Rajasthan,Jodhpur,"Collectorate, Jodhpur - RSPCB",01-04-2026 08:00:00,26.268249,73.0193853,OZONE,8,53,31
India,Rajasthan,Jodhpur,"Digari Kalan, Jodhpur - RSPCB",01-04-2026 08:00:00,26.295810,73.082283,PM2.5,10,58,22
India,Rajasthan,Jodhpur,"Digari Kalan, Jodhpur - RSPCB",01-04-2026 08:00:00,26.295810,73.082283,SO2,2,3,3
India,Rajasthan,Jodhpur,"Jhalamand, Jodhpur - RSPCB",01-04-2026 08:00:00,26.215415,73.070156,PM10,45,115,70
India,Rajasthan,Jodhpur,"Jhalamand, Jodhpur - RSPCB",01-04-2026 08:00:00,26.215415,73.070156,NH3,6,10,8
India,Rajasthan,Sri Ganganagar,"Old City, Sri Ganganagar - RSPCB",01-04-2026 08:00:00,29.931624,73.864511,NO2,3,10,5
India,Rajasthan,Tonk,"Shastri Nagar, Tonk - RSPCB",01-04-2026 08:00:00,26.159933,75.780517,PM2.5,19,58,35
India,Rajasthan,Tonk,"Shastri Nagar, Tonk - RSPCB",01-04-2026 08:00:00,26.159933,75.780517,PM10,35,138,80
India,Rajasthan,Udaipur,"Ashok Nagar, Udaipur - RSPCB",01-04-2026 08:00:00,24.5886166,73.6321397,OZONE,4,62,6
India,TamilNadu,Chennai,"Arumbakkam, Chennai - TNPCB",01-04-2026 08:00:00,13.0664,80.2112 ,NO2,11,17,14
India,Rajasthan,Sawai Madhopur,"Sahu Nagar, Sawai Madhopur - RSPCB",01-04-2026 08:00:00,26.031443,76.359327,OZONE,26,170,46
India,Rajasthan,Sikar,"Radhakishan Pura, Sikar - RSPCB",01-04-2026 08:00:00,27.608912,75.153302,OZONE,32,79,60
India,Telangana,Hyderabad,"Kompally Municipal Office, Hyderabad - TSPCB",01-04-2026 08:00:00,17.544899,78.486949,PM10,69,84,77
India,Telangana,Hyderabad,"Nacharam_TSIIC IALA, Hyderabad - TSPCB",01-04-2026 08:00:00,17.429398,78.569354,NH3,3,6,4
India,Telangana,Hyderabad,"Nacharam_TSIIC IALA, Hyderabad - TSPCB",01-04-2026 08:00:00,17.429398,78.569354,SO2,12,16,13
India,Telangana,Hyderabad,"Nacharam_TSIIC IALA, Hyderabad - TSPCB",01-04-2026 08:00:00,17.429398,78.569354,OZONE,16,36,16
India,Telangana,Hyderabad,"New Malakpet, Hyderabad - TSPCB",01-04-2026 08:00:00,17.37206,78.50864,PM2.5,32,125,69
India,Telangana,Hyderabad,"New Malakpet, Hyderabad - TSPCB",01-04-2026 08:00:00,17.37206,78.50864,CO,22,46,25
India,Telangana,Hyderabad,"Ramachandrapuram, Hyderabad - TSPCB",01-04-2026 08:00:00,17.528544,78.286195,PM10,75,91,89
India,Telangana,Hyderabad,"Ramachandrapuram, Hyderabad - TSPCB",01-04-2026 08:00:00,17.528544,78.286195,NH3,5,6,6
India,Telangana,Hyderabad,"Ramachandrapuram, Hyderabad - TSPCB",01-04-2026 08:00:00,17.528544,78.286195,OZONE,24,33,32
India,Telangana,Hyderabad,"Sanathnagar, Hyderabad - TSPCB",01-04-2026 08:00:00,17.4559458,78.4332152,PM2.5,16,44,31
India,Telangana,Hyderabad,"Sanathnagar, Hyderabad - TSPCB",01-04-2026 08:00:00,17.4559458,78.4332152,NO2,7,65,25
India,Telangana,Hyderabad,"Sanathnagar, Hyderabad - TSPCB",01-04-2026 08:00:00,17.4559458,78.4332152,SO2,4,41,13
India,Telangana,Hyderabad,"Sanathnagar, Hyderabad - TSPCB",01-04-2026 08:00:00,17.4559458,78.4332152,CO,37,58,46
India,Telangana,Hyderabad,"Sanathnagar, Hyderabad - TSPCB",01-04-2026 08:00:00,17.4559458,78.4332152,OZONE,14,18,16
India,Telangana,Hyderabad,"Zoo Park, Hyderabad - TSPCB",01-04-2026 08:00:00,17.349694,78.451437,PM2.5,27,93,60
India,Telangana,Hyderabad,"Zoo Park, Hyderabad - TSPCB",01-04-2026 08:00:00,17.349694,78.451437,PM10,38,120,83
India,Uttar_Pradesh,Moradabad,"Buddhi Vihar, Moradabad - UPPCB",01-04-2026 08:00:00,28.83526,78.74460,OZONE,11,54,12
India,Uttar_Pradesh,Moradabad,"Eco Herbal Park, Moradabad - UPPCB",01-04-2026 08:00:00,28.840739,78.697531,NH3,4,7,5
India,Uttar_Pradesh,Moradabad,"Eco Herbal Park, Moradabad - UPPCB",01-04-2026 08:00:00,28.840739,78.697531,SO2,7,35,17
India,Uttar_Pradesh,Moradabad,"Eco Herbal Park, Moradabad - UPPCB",01-04-2026 08:00:00,28.840739,78.697531,OZONE,18,68,26
India,Uttar_Pradesh,Moradabad,"Employment Office, Moradabad - UPPCB",01-04-2026 08:00:00,28.88528,78.73880,NH3,4,4,4
India,Uttar_Pradesh,Moradabad,"Employment Office, Moradabad - UPPCB",01-04-2026 08:00:00,28.88528,78.73880,SO2,25,29,27
India,Uttar_Pradesh,Moradabad,"Employment Office, Moradabad - UPPCB",01-04-2026 08:00:00,28.88528,78.73880,OZONE,17,40,17
India,Uttar_Pradesh,Moradabad,"Jigar Colony, Moradabad - UPPCB",01-04-2026 08:00:00,28.856664,78.772638,PM10,36,130,78
India,Uttar_Pradesh,Moradabad,"Jigar Colony, Moradabad - UPPCB",01-04-2026 08:00:00,28.856664,78.772638,NO2,24,25,25
India,Uttar_Pradesh,Moradabad,"Kashiram Nagar, Moradabad - UPPCB",01-04-2026 08:00:00,28.849399,78.742362,SO2,104,121,111
India,Uttar_Pradesh,Moradabad,"Transport Nagar, Moradabad - UPPCB",01-04-2026 08:00:00,28.802625,78.753728,PM2.5,6,52,23
India,Uttar_Pradesh,Gorakhpur,"Madan Mohan Malaviya University of Technology, Gorakhpur - UPPCB",01-04-2026 08:00:00,26.730136,83.433859,PM2.5,52,83,68
India,Uttar_Pradesh,Gorakhpur,"Madan Mohan Malaviya University of Technology, Gorakhpur - UPPCB",01-04-2026 08:00:00,26.730136,83.433859,NH3,1,1,1
India,Uttar_Pradesh,Gorakhpur,"Madan Mohan Malaviya University of Technology, Gorakhpur - UPPCB",01-04-2026 08:00:00,26.730136,83.433859,CO,3,4,3
India,Uttar_Pradesh,Greater Noida,"Knowledge Park - III, Greater Noida - UPPCB",01-04-2026 08:00:00,28.47272,77.482000,PM2.5,15,221,56
India,Uttar_Pradesh,Greater Noida,"Knowledge Park - III, Greater Noida - UPPCB",01-04-2026 08:00:00,28.47272,77.482000,PM10,26,193,102
India,Uttar_Pradesh,Hapur,"Anand Vihar, Hapur - UPPCB",01-04-2026 08:00:00,28.725645,77.749675,NH3,1,2,2
India,Uttar_Pradesh,Hapur,"Anand Vihar, Hapur - UPPCB",01-04-2026 08:00:00,28.725645,77.749675,CO,8,58,50
India,Uttar_Pradesh,Jhansi,"Shivaji Nagar, Jhansi - UPPCB",01-04-2026 08:00:00,25.4547,78.6039,PM10,18,125,54
India,Uttar_Pradesh,Kanpur,"FTI Kidwai Nagar, Kanpur - UPPCB",01-04-2026 08:00:00,26.428282,80.327067,NH3,8,8,8
India,Uttar_Pradesh,Kanpur,"FTI Kidwai Nagar, Kanpur - UPPCB",01-04-2026 08:00:00,26.428282,80.327067,CO,32,40,33
India,Uttar_Pradesh,Kanpur,"NSI Kalyanpur, Kanpur - UPPCB",01-04-2026 08:00:00,26.509954,80.249612,SO2,12,26,18
India,Uttar_Pradesh,Kanpur,"NSI Kalyanpur, Kanpur - UPPCB",01-04-2026 08:00:00,26.509954,80.249612,OZONE,15,19,17
India,Uttar_Pradesh,Kanpur,"Nehru Nagar, Kanpur - UPPCB",01-04-2026 08:00:00,26.4703136,80.3229863,OZONE,6,28,6
India,Uttar_Pradesh,Khurja,"Kalindi Kunj, Khurja - UPPCB",01-04-2026 08:00:00,28.2348927,77.8683002,NH3,1,1,1
India,Uttar_Pradesh,Lucknow,"B R Ambedkar University, Lucknow - UPPCB",01-04-2026 08:00:00,26.766433,80.927299,PM10,28,119,61
India,Uttar_Pradesh,Lucknow,"B R Ambedkar University, Lucknow - UPPCB",01-04-2026 08:00:00,26.766433,80.927299,NO2,11,12,12
India,Uttar_Pradesh,Lucknow,"Gomti Nagar, Lucknow - UPPCB",01-04-2026 08:00:00,26.868120,81.005119,OZONE,33,50,36
India,Uttar_Pradesh,Lucknow,"Kendriya Vidyalaya, Lucknow - CPCB",01-04-2026 08:00:00,26.906111,80.948222,PM2.5,9,94,46
India,Uttar_Pradesh,Lucknow,"Kendriya Vidyalaya, Lucknow - CPCB",01-04-2026 08:00:00,26.906111,80.948222,PM10,40,188,123
India,Telangana,Hyderabad,"Zoo Park, Hyderabad - TSPCB",01-04-2026 08:00:00,17.349694,78.451437,NH3,3,3,3
India,Telangana,Hyderabad,"Zoo Park, Hyderabad - TSPCB",01-04-2026 08:00:00,17.349694,78.451437,OZONE,22,26,24
India,Tripura,Agartala,"Bardowali, Agartala - Tripura SPCB",01-04-2026 08:00:00,23.8175497,91.2726974,NO2,17,21,18
India,Uttar_Pradesh,Agra,"Manoharpur, Agra - UPPCB",01-04-2026 08:00:00,27.23711,78.01936,NO2,20,20,20
India,Uttar_Pradesh,Agra,"Manoharpur, Agra - UPPCB",01-04-2026 08:00:00,27.23711,78.01936,OZONE,5,6,6
India,Uttar_Pradesh,Agra,"Rohta, Agra - UPPCB",01-04-2026 08:00:00,27.106972,78.000111,NH3,5,5,5
India,Uttar_Pradesh,Agra,"Sector-3B Avas Vikas Colony, Agra - UPPCB",01-04-2026 08:00:00,27.19412,77.96237,NH3,7,8,8
India,Uttar_Pradesh,Agra,"Sector-3B Avas Vikas Colony, Agra - UPPCB",01-04-2026 08:00:00,27.19412,77.96237,OZONE,NA,NA,NA
India,Uttar_Pradesh,Agra,"Shahjahan Garden, Agra - UPPCB",01-04-2026 08:00:00,27.169338,78.03582,PM2.5,1,61,17
India,Uttar_Pradesh,Lucknow,"Kukrail Picnic Spot-1, Lucknow - UPPCB",01-04-2026 08:00:00,26.90723,80.98579,PM10,28,185,72
India,Uttar_Pradesh,Lucknow,"Kukrail Picnic Spot-1, Lucknow - UPPCB",01-04-2026 08:00:00,26.90723,80.98579,CO,2,22,8
India,Uttar_Pradesh,Meerut,"Ganga Nagar, Meerut - UPPCB",01-04-2026 08:00:00,28.999264,77.7590354,NO2,73,100,88
India,Uttar_Pradesh,Meerut,"Ganga Nagar, Meerut - UPPCB",01-04-2026 08:00:00,28.999264,77.7590354,CO,40,57,50
India,Uttar_Pradesh,Meerut,"Jai Bhim Nagar, Meerut - UPPCB",01-04-2026 08:00:00,28.9535882,77.7622941,PM10,42,222,105
India,Uttar_Pradesh,Meerut,"Pallavpuram Phase 2, Meerut - UPPCB",01-04-2026 08:00:00,29.063510,77.709723,NH3,6,10,7
India,Uttar_Pradesh,Ghaziabad,"Loni, Ghaziabad - UPPCB",01-04-2026 08:00:00,28.757294,77.278792,PM10,61,394,141
India,Uttar_Pradesh,Ghaziabad,"Loni, Ghaziabad - UPPCB",01-04-2026 08:00:00,28.757294,77.278792,NO2,2,51,24
India,Uttar_Pradesh,Ghaziabad,"Vasundhara, Ghaziabad - UPPCB",01-04-2026 08:00:00,28.6603346,77.3572563,NO2,27,87,54
India,Uttar_Pradesh,Ghaziabad,"Vasundhara, Ghaziabad - UPPCB",01-04-2026 08:00:00,28.6603346,77.3572563,NH3,6,14,10
India,Uttar_Pradesh,Ghaziabad,"Vasundhara, Ghaziabad - UPPCB",01-04-2026 08:00:00,28.6603346,77.3572563,CO,20,73,48
India,Uttar_Pradesh,Ghaziabad,"Vasundhara, Ghaziabad - UPPCB",01-04-2026 08:00:00,28.6603346,77.3572563,OZONE,3,94,17
India,Telangana,Hyderabad,"Central University, Hyderabad - TSPCB",01-04-2026 08:00:00,17.460103,78.334361,SO2,5,12,7
India,Telangana,Hyderabad,"ICRISAT Patancheru, Hyderabad - TSPCB",01-04-2026 08:00:00,17.518400,78.278777,NO2,4,20,12
India,Telangana,Hyderabad,"IDA Pashamylaram, Hyderabad - TSPCB",01-04-2026 08:00:00,17.5316895,78.218939,SO2,2,24,9
India,Telangana,Hyderabad,"IITH Kandi, Hyderabad - TSPCB",01-04-2026 08:00:00,17.585705,78.126199,CO,24,41,27
India,Uttar_Pradesh,Bareilly,"Rajendra Nagar, Bareilly - UPPCB",01-04-2026 08:00:00,28.38910936,79.42963708,PM2.5,12,26,18
India,Uttar_Pradesh,Bareilly,"Rajendra Nagar, Bareilly - UPPCB",01-04-2026 08:00:00,28.38910936,79.42963708,SO2,40,47,42
India,Uttar_Pradesh,Bulandshahr,"Yamunapuram, Bulandshahr - UPPCB",01-04-2026 08:00:00,28.406963,77.849831,PM2.5,8,100,32
India,West_Bengal,Durgapur,"PCBL Residential Complex, Durgapur - WBPCB",01-04-2026 08:00:00,23.5087640,87.3544400,SO2,5,6,5
India,West_Bengal,Durgapur,"Womens College_City Center, Durgapur - WBPCB",01-04-2026 08:00:00,23.549395,87.300496,PM2.5,29,62,44
India,West_Bengal,Durgapur,"Womens College_City Center, Durgapur - WBPCB",01-04-2026 08:00:00,23.549395,87.300496,NO2,17,35,26
India,West_Bengal,Durgapur,"Womens College_City Center, Durgapur - WBPCB",01-04-2026 08:00:00,23.549395,87.300496,NH3,2,7,4
India,West_Bengal,Durgapur,"Womens College_City Center, Durgapur - WBPCB",01-04-2026 08:00:00,23.549395,87.300496,SO2,27,28,28
India,West_Bengal,Durgapur,"Womens College_City Center, Durgapur - WBPCB",01-04-2026 08:00:00,23.549395,87.300496,OZONE,2,53,4
India,West_Bengal,Haldia,"Priyambada Housing Estate, Haldia - WBPCB",01-04-2026 08:00:00,22.06047,88.109737,PM2.5,25,84,51
India,West_Bengal,Haldia,"Priyambada Housing Estate, Haldia - WBPCB",01-04-2026 08:00:00,22.06047,88.109737,NO2,22,41,34
India,West_Bengal,Haldia,"Priyambada Housing Estate, Haldia - WBPCB",01-04-2026 08:00:00,22.06047,88.109737,NH3,3,5,5
India,West_Bengal,Howrah,"Belur Math, Howrah - WBPCB",01-04-2026 08:00:00,22.629801,88.352017,PM2.5,38,85,62
India,West_Bengal,Howrah,"Belur Math, Howrah - WBPCB",01-04-2026 08:00:00,22.629801,88.352017,OZONE,10,23,12
India,West_Bengal,Howrah,"Botanical Garden, Howrah - WBPCB",01-04-2026 08:00:00,22.554954,88.292568,PM10,29,66,47
India,West_Bengal,Howrah,"Botanical Garden, Howrah - WBPCB",01-04-2026 08:00:00,22.554954,88.292568,NH3,1,2,1
India,West_Bengal,Howrah,"Botanical Garden, Howrah - WBPCB",01-04-2026 08:00:00,22.554954,88.292568,CO,10,40,12
India,West_Bengal,Howrah,"Botanical Garden, Howrah - WBPCB",01-04-2026 08:00:00,22.554954,88.292568,OZONE,11,31,15
India,West_Bengal,Asansol,"Asansol Court Area, Asansol - WBPCB",01-04-2026 08:00:00,23.685297,86.945968,OZONE,20,47,20
India,West_Bengal,Asansol,"Mahabir Colliery, Asansol - WBPCB",01-04-2026 08:00:00,23.6181830,87.1057180,NO2,10,24,13
India,West_Bengal,Asansol,"Trivenidevi Bhalotia College, Asansol - WBPCB",01-04-2026 08:00:00,23.616515,87.119133,PM2.5,30,57,43
India,West_Bengal,Barrackpore,"SVSPA Campus, Barrackpore - WBPCB",01-04-2026 08:00:00,22.7605581,88.3617589,PM2.5,8,77,45
India,West_Bengal,Barrackpore,"SVSPA Campus, Barrackpore - WBPCB",01-04-2026 08:00:00,22.7605581,88.3617589,CO,8,40,15
India,West_Bengal,Durgapur,"Mahishkapur Road_B-Zone, Durgapur - WBPCB",01-04-2026 08:00:00,23.567923,87.306843,PM2.5,30,74,49
India,West_Bengal,Durgapur,"Mahishkapur Road_B-Zone, Durgapur - WBPCB",01-04-2026 08:00:00,23.567923,87.306843,NO2,7,25,17
India,West_Bengal,Durgapur,"Mahishkapur Road_B-Zone, Durgapur - WBPCB",01-04-2026 08:00:00,23.567923,87.306843,SO2,4,39,11
India,West_Bengal,Durgapur,"PCBL Residential Complex, Durgapur - WBPCB",01-04-2026 08:00:00,23.5087640,87.3544400,NO2,32,46,40
India,Uttar_Pradesh,Varanasi,"Maldahiya, Varanasi - UPPCB",01-04-2026 08:00:00,25.32393,82.99687,PM2.5,30,305,89
India,Uttar_Pradesh,Vrindavan,"Omex Eternity, Vrindavan - UPPCB",01-04-2026 08:00:00,27.5714090,77.6557570,PM2.5,6,72,24
India,Uttar_Pradesh,Vrindavan,"Omex Eternity, Vrindavan - UPPCB",01-04-2026 08:00:00,27.5714090,77.6557570,CO,16,43,29
India,Uttarakhand,Dehradun,"Doon University, Dehradun - UKPCB",01-04-2026 08:00:00,30.269444,78.044167,NO2,1,4,1
India,Uttarakhand,Kashipur,"Govt. Girls Inter College, Kashipur - UKPCB",01-04-2026 08:00:00,29.2124114,78.9611753,NH3,NA,NA,NA
India,Uttarakhand,Rishikesh,"Shivaji Nagar, Rishikesh - UKPCB",01-04-2026 08:00:00,30.075911,78.2859547,PM10,23,23,23
India,Uttarakhand,Rishikesh,"Shivaji Nagar, Rishikesh - UKPCB",01-04-2026 08:00:00,30.075911,78.2859547,SO2,1,1,1
India,Uttar_Pradesh,Moradabad,"Transport Nagar, Moradabad - UPPCB",01-04-2026 08:00:00,28.802625,78.753728,OZONE,27,62,30
India,Uttar_Pradesh,Muzaffarnagar,"New Mandi, Muzaffarnagar - UPPCB",01-04-2026 08:00:00,29.4723508,77.7194031,NH3,7,9,8
India,Uttar_Pradesh,Muzaffarnagar,"New Mandi, Muzaffarnagar - UPPCB",01-04-2026 08:00:00,29.4723508,77.7194031,SO2,18,73,34
India,Uttar_Pradesh,Muzaffarnagar,"New Mandi, Muzaffarnagar - UPPCB",01-04-2026 08:00:00,29.4723508,77.7194031,OZONE,17,104,36
India,Uttar_Pradesh,Noida,"Sector-116, Noida - UPPCB",01-04-2026 08:00:00,28.569230,77.393848,PM2.5,22,254,68
India,Uttar_Pradesh,Prayagraj,"Jhunsi, Prayagraj - UPPCB",01-04-2026 08:00:00,25.425602,81.917152,PM2.5,26,311,70
India,Uttar_Pradesh,Prayagraj,"Jhunsi, Prayagraj - UPPCB",01-04-2026 08:00:00,25.425602,81.917152,PM10,32,389,100
India,Uttar_Pradesh,Prayagraj,"Motilal Nehru NIT, Prayagraj - UPPCB",01-04-2026 08:00:00,25.494,81.863,NO2,11,12,12
India,Uttar_Pradesh,Raebareli," Indira Nagar, Raebareli - NTPC Unchahar",01-04-2026 08:00:00,26.207781,81.245571,PM10,NA,NA,NA
India,Uttar_Pradesh,Raebareli," Indira Nagar, Raebareli - NTPC Unchahar",01-04-2026 08:00:00,26.207781,81.245571,SO2,NA,NA,NA
India,Uttar_Pradesh,Varanasi,"Ardhali Bazar, Varanasi - UPPCB",01-04-2026 08:00:00,25.3505986,82.9083074,OZONE,16,30,25
India,Uttar_Pradesh,Varanasi,"Bhelupur, Varanasi - UPPCB",01-04-2026 08:00:00,25.301778,82.996789,PM2.5,33,255,92
India,Uttar_Pradesh,Varanasi,"Bhelupur, Varanasi - UPPCB",01-04-2026 08:00:00,25.301778,82.996789,SO2,21,29,24
India,West_Bengal,Howrah,"Padmapukur, Howrah - WBPCB",01-04-2026 08:00:00,22.5687319,88.2797276,CO,84,105,94
India,West_Bengal,Kolkata,"Ballygunge, Kolkata - WBPCB",01-04-2026 08:00:00,22.5367507,88.3638022,CO,4,62,7
India,West_Bengal,Kolkata,"Fort William, Kolkata - WBPCB",01-04-2026 08:00:00,22.556640,88.342674,NH3,9,10,9
India,West_Bengal,Kolkata,"Rabindra Sarobar, Kolkata - WBPCB",01-04-2026 08:00:00,22.51106,88.35142,CO,2,36,5
India,West_Bengal,Siliguri,"Ward-32 Bapupara, Siliguri - WBPCB",01-04-2026 08:00:00,26.6879226,88.4152495,PM2.5,30,79,51
India,West_Bengal,Siliguri,"Ward-32 Bapupara, Siliguri - WBPCB",01-04-2026 08:00:00,26.6879226,88.4152495,OZONE,12,57,17
India,West_Bengal,Kolkata,"Fort William, Kolkata - WBPCB",01-04-2026 08:00:00,22.556640,88.342674,SO2,4,29,8
India,West_Bengal,Kolkata,"Rabindra Bharati University, Kolkata - WBPCB",01-04-2026 08:00:00,22.627847,88.380669,PM2.5,45,120,76
India,West_Bengal,Howrah,"Ghusuri, Howrah - WBPCB",01-04-2026 08:00:00,22.611968,88.347422,PM10,60,128,87
India,West_Bengal,Howrah,"Ghusuri, Howrah - WBPCB",01-04-2026 08:00:00,22.611968,88.347422,NH3,8,23,17
India,Assam,Guwahati,"Pan Bazaar, Guwahati - PCBA",01-04-2026 08:00:00,26.187500,91.744194,PM10,10,55,33
India,Assam,Guwahati,"Pan Bazaar, Guwahati - PCBA",01-04-2026 08:00:00,26.187500,91.744194,SO2,9,10,10
India,Assam,Guwahati,"Railway Colony, Guwahati - PCBA",01-04-2026 08:00:00,26.181742,91.78063,SO2,1,9,4
India,Assam,Nagaon,"Christianpatty, Nagaon - PCBA",01-04-2026 08:00:00,26.349082,92.68449,NO2,3,20,15
India,Assam,Silchar,"Tarapur, Silchar - PCBA",01-04-2026 08:00:00,24.82827,92.79525,PM2.5,28,71,46
India,Assam,Silchar,"Tarapur, Silchar - PCBA",01-04-2026 08:00:00,24.82827,92.79525,CO,22,37,28
India,Andhra_Pradesh,Rajamahendravaram,"Anand Kala Kshetram, Rajamahendravaram - APPCB",01-04-2026 08:00:00,16.9872867,81.7363176,NO2,8,29,16
India,Andhra_Pradesh,Tirumala,"Toll Gate, Tirumala - APPCB",01-04-2026 08:00:00,13.67,79.35,PM2.5,29,78,62
India,Andhra_Pradesh,Tirupati,"Vaikuntapuram, Tirupati - APPCB",01-04-2026 08:00:00,13.615387,79.409230,PM10,41,61,49
India,Andhra_Pradesh,Vijayawada,"HB Colony, Vijayawada - APPCB",01-04-2026 08:00:00,16.536107,80.594233,PM10,41,68,55
India,Andhra_Pradesh,Machilipatnam,"Srinivas Nagar Colony, Machilipatnam - APPCB",01-04-2026 08:00:00,16.186555,81.13219,OZONE,NA,NA,NA
India,Andhra_Pradesh,Nellore,"Ambedkar Nagar, Nellore - APPCB ",01-04-2026 08:00:00,14.438164 ,79.966814 ,PM2.5,32,68,46
India,Andhra_Pradesh,Nellore,"Ambedkar Nagar, Nellore - APPCB ",01-04-2026 08:00:00,14.438164 ,79.966814 ,PM10,26,78,44
India,Andhra_Pradesh,Nellore,"Ambedkar Nagar, Nellore - APPCB ",01-04-2026 08:00:00,14.438164 ,79.966814 ,NH3,2,5,3
India,Andhra_Pradesh,Vijayawada,"Kanuru, Vijayawada - APPCB",01-04-2026 08:00:00,16.486692,80.699436,NO2,NA,NA,NA
India,Andhra_Pradesh,Vijayawada,"Rajiv Gandhi Park, Vijayawada - APPCB",01-04-2026 08:00:00,16.509717,80.612222,PM10,64,85,72
India,Andhra_Pradesh,Vijayawada,"Rajiv Gandhi Park, Vijayawada - APPCB",01-04-2026 08:00:00,16.509717,80.612222,NO2,25,33,29
India,Andhra_Pradesh,Vijayawada,"Rajiv Nagar, Vijayawada - APPCB",01-04-2026 08:00:00,16.554731,80.649110,CO,22,36,22
India,Arunachal_Pradesh,Naharlagun,"Naharlagun, Naharlagun - APSPCB",01-04-2026 08:00:00,27.103358,93.679645,NH3,1,1,1
India,Assam,Byrnihat,"Central Academy for SFS, Byrnihat - PCBA",01-04-2026 08:00:00,26.071318,91.87488,SO2,28,32,32
India,Assam,Byrnihat,"Central Academy for SFS, Byrnihat - PCBA",01-04-2026 08:00:00,26.071318,91.87488,OZONE,13,41,18
India,Andhra_Pradesh,Visakhapatnam,"GVM Corporation, Visakhapatnam - APPCB",01-04-2026 08:00:00,17.72,83.3,CO,8,45,29
India,Arunachal_Pradesh,Naharlagun,"Naharlagun, Naharlagun - APSPCB",01-04-2026 08:00:00,27.103358,93.679645,PM10,28,113,72
India,Andhra_Pradesh,Eluru,"District Court, Eluru - APPCB",01-04-2026 08:00:00,16.711754,81.092095,NH3,7,12,9
India,Andhra_Pradesh,Guntur,"Rajendra Nagar North, Guntur - APPCB",01-04-2026 08:00:00,16.316553,80.413302,PM2.5,NA,NA,NA
India,Andhra_Pradesh,Amaravati,"Secretariat, Amaravati - APPCB",01-04-2026 08:00:00,16.5150833,80.5181667,PM10,42,159,84
India,Andhra_Pradesh,Amaravati,"Secretariat, Amaravati - APPCB",01-04-2026 08:00:00,16.5150833,80.5181667,SO2,6,52,15
India,Assam,Guwahati,"LGBI Airport, Guwahati - PCBA",01-04-2026 08:00:00,26.10887,91.589544,NO2,11,21,16
India,Assam,Guwahati,"LGBI Airport, Guwahati - PCBA",01-04-2026 08:00:00,26.10887,91.589544,OZONE,10,15,13
India,Andhra_Pradesh,Kadapa,"Yerramukkapalli, Kadapa - APPCB",01-04-2026 08:00:00,14.465052,78.824187,CO,5,16,8
India,Bihar,Saharsa,"Police Line, Saharsa - BSPCB",01-04-2026 08:00:00,25.892357,86.590325,OZONE,NA,NA,NA
India,Bihar,Samastipur,"DM Office_Kasipur, Samastipur - BSPCB",01-04-2026 08:00:00,25.859655,85.77944,PM10,44,189,94
India,Bihar,Samastipur,"DM Office_Kasipur, Samastipur - BSPCB",01-04-2026 08:00:00,25.859655,85.77944,SO2,NA,NA,NA
India,Bihar,Samastipur,"DM Office_Kasipur, Samastipur - BSPCB",01-04-2026 08:00:00,25.859655,85.77944,CO,4,12,12
India,Bihar,Siwan,"Chitragupta Nagar, Siwan - BSPCB",01-04-2026 08:00:00,26.2271665,84.3570427,PM10,38,151,73
India,Chandigarh,Chandigarh,"Sector-25, Chandigarh - CPCC",01-04-2026 08:00:00,30.751462,76.762879,NO2,4,30,11
India,Chandigarh,Chandigarh,"Sector-53, Chandigarh - CPCC",01-04-2026 08:00:00,30.719859,76.738637,PM10,17,144,46
India,Chandigarh,Chandigarh,"Sector-53, Chandigarh - CPCC",01-04-2026 08:00:00,30.719859,76.738637,NO2,14,124,43
India,Chandigarh,Chandigarh,"Sector-53, Chandigarh - CPCC",01-04-2026 08:00:00,30.719859,76.738637,NH3,15,18,17
India,Chhattisgarh,Bhilai,"32Bungalows, Bhilai - CECB",01-04-2026 08:00:00,21.194815,81.314770,PM10,16,55,33
India,Chhattisgarh,Bhilai,"32Bungalows, Bhilai - CECB",01-04-2026 08:00:00,21.194815,81.314770,NO2,6,55,25
India,Bihar,Patna,"Muradpur, Patna - BSPCB",01-04-2026 08:00:00,25.619651,85.147382,NH3,5,6,6
India,Bihar,Patna,"Muradpur, Patna - BSPCB",01-04-2026 08:00:00,25.619651,85.147382,CO,25,162,138
India,Bihar,Patna,"Rajbansi Nagar, Patna - BSPCB",01-04-2026 08:00:00,25.599486,85.113666,PM10,58,98,82
India,Bihar,Patna,"Rajbansi Nagar, Patna - BSPCB",01-04-2026 08:00:00,25.599486,85.113666,NH3,1,1,1
India,Bihar,Patna,"Samanpura, Patna - BSPCB",01-04-2026 08:00:00,25.596727,85.085624,PM10,79,136,109
India,Bihar,Patna,"Samanpura, Patna - BSPCB",01-04-2026 08:00:00,25.596727,85.085624,OZONE,27,34,30
India,Bihar,Purnia,"Mariam Nagar, Purnia - BSPCB",01-04-2026 08:00:00,25.366336,87.117468,PM10,48,64,57
India,Bihar,Purnia,"Mariam Nagar, Purnia - BSPCB",01-04-2026 08:00:00,25.366336,87.117468,NH3,2,2,2
India,Bihar,Rajgir,"Dangi Tola, Rajgir - BSPCB",01-04-2026 08:00:00,25.03280,85.41948,SO2,2,3,3
India,Bihar,Saharsa,"Police Line, Saharsa - BSPCB",01-04-2026 08:00:00,25.892357,86.590325,PM10,NA,NA,NA
India,Bihar,Saharsa,"Police Line, Saharsa - BSPCB",01-04-2026 08:00:00,25.892357,86.590325,NO2,NA,NA,NA
India,Chhattisgarh,Bhilai,"32Bungalows, Bhilai - CECB",01-04-2026 08:00:00,21.194815,81.314770,NH3,1,1,1
India,Chhattisgarh,Bhilai,"Civic Center, Bhilai - Bhilai Steel Plant",01-04-2026 08:00:00,21.185571,81.343175,NO2,13,14,13
India,Chhattisgarh,Bhilai,"Civic Center, Bhilai - Bhilai Steel Plant",01-04-2026 08:00:00,21.185571,81.343175,NH3,3,3,3
India,Chhattisgarh,Bhilai,"Civic Center, Bhilai - Bhilai Steel Plant",01-04-2026 08:00:00,21.185571,81.343175,SO2,8,10,9
India,Chhattisgarh,Bhilai,"Hathkhoj, Bhilai - CECB",01-04-2026 08:00:00,21.224231,81.408350,NH3,4,6,5
India,Chhattisgarh,Chhal,"Nawapara SECL Colony, Chhal - CECB",01-04-2026 08:00:00,22.118125,83.140608,PM10,24,120,83
India,Chhattisgarh,Chhal,"Nawapara SECL Colony, Chhal - CECB",01-04-2026 08:00:00,22.118125,83.140608,CO,17,80,54
India,Chhattisgarh,Korba,"Rampur, Korba - CECB",01-04-2026 08:00:00,22.368195,82.746431,PM2.5,10,37,24
India,Chhattisgarh,Korba,"Rampur, Korba - CECB",01-04-2026 08:00:00,22.368195,82.746431,PM10,48,108,72
India,Bihar,Buxar,"Charitra Van, Buxar - BSPCB",01-04-2026 08:00:00,25.567520,83.966379,PM10,48,89,71
India,Bihar,Buxar,"Charitra Van, Buxar - BSPCB",01-04-2026 08:00:00,25.567520,83.966379,NH3,3,3,3
India,Bihar,Buxar,"Charitra Van, Buxar - BSPCB",01-04-2026 08:00:00,25.567520,83.966379,CO,20,30,25
India,Bihar,Chhapra,"Darshan Nagar, Chhapra - BSPCB",01-04-2026 08:00:00,25.7808257,84.7446768,SO2,19,23,21
India,Bihar,Gaya,"Kareemganj, Gaya - BSPCB",01-04-2026 08:00:00,24.792403,84.992416,NH3,1,3,1
India,Bihar,Gaya,"Kareemganj, Gaya - BSPCB",01-04-2026 08:00:00,24.792403,84.992416,CO,4,80,7
India,Bihar,Gaya,"SFTI Kusdihra, Gaya - BSPCB",01-04-2026 08:00:00,24.762518,84.982348,PM10,34,63,52
India,Bihar,Hajipur,"Industrial Area, Hajipur - BSPCB",01-04-2026 08:00:00,25.697189,85.245900,PM2.5,77,284,188
India,Bihar,Muzaffarpur,"Buddha Colony, Muzaffarpur - BSPCB",01-04-2026 08:00:00,26.11442,85.39813,PM10,52,136,98
India,Bihar,Muzaffarpur,"MIT-Daudpur Kothi, Muzaffarpur - BSPCB",01-04-2026 08:00:00,26.1403345,85.3650192,NO2,2,3,2
India,Bihar,Muzaffarpur,"MIT-Daudpur Kothi, Muzaffarpur - BSPCB",01-04-2026 08:00:00,26.1403345,85.3650192,SO2,8,24,15
India,Bihar,Muzaffarpur,"MIT-Daudpur Kothi, Muzaffarpur - BSPCB",01-04-2026 08:00:00,26.1403345,85.3650192,OZONE,6,66,6
India,Bihar,Muzaffarpur,"Muzaffarpur Collectorate, Muzaffarpur - BSPCB",01-04-2026 08:00:00,26.1209,85.3647,PM2.5,62,107,74
India,Bihar,Muzaffarpur,"Muzaffarpur Collectorate, Muzaffarpur - BSPCB",01-04-2026 08:00:00,26.1209,85.3647,NO2,10,14,12
India,Bihar,Muzaffarpur,"Muzaffarpur Collectorate, Muzaffarpur - BSPCB",01-04-2026 08:00:00,26.1209,85.3647,CO,9,43,9
India,Bihar,Patna,"IGSC Planetarium Complex, Patna - BSPCB",01-04-2026 08:00:00,25.610369,85.132568,SO2,17,20,19
India,Bihar,Hajipur,"Industrial Area, Hajipur - BSPCB",01-04-2026 08:00:00,25.697189,85.245900,CO,28,50,32
India,Bihar,Hajipur,"Industrial Area, Hajipur - BSPCB",01-04-2026 08:00:00,25.697189,85.245900,OZONE,12,107,18
India,Bihar,Kishanganj,"SDM Office_Khagra, Kishanganj - BSPCB",01-04-2026 08:00:00,26.0881305,87.93840336,PM2.5,28,68,47
India,Bihar,Kishanganj,"SDM Office_Khagra, Kishanganj - BSPCB",01-04-2026 08:00:00,26.0881305,87.93840336,PM10,26,60,41
India,Bihar,Motihari,"Gandak Colony, Motihari - BSPCB",01-04-2026 08:00:00,26.63086,84.90051,CO,14,20,16
India,Bihar,Munger,"Town Hall, Munger - BSPCB",01-04-2026 08:00:00,25.376776,86.471523,PM10,9,147,40
India,Bihar,Munger,"Town Hall, Munger - BSPCB",01-04-2026 08:00:00,25.376776,86.471523,CO,26,31,29
India,Assam,Sivasagar,"Girls College, Sivasagar - PCBA",01-04-2026 08:00:00,26.987634,94.636574,CO,14,55,34
India,Bihar,Araria,"Kharahiya Basti, Araria - BSPCB",01-04-2026 08:00:00,26.146529,87.454184,NH3,6,6,6
India,Bihar,Arrah,"New DM Office, Arrah - BSPCB",01-04-2026 08:00:00,25.5626095,84.663264,PM2.5,57,140,86
India,Bihar,Arrah,"New DM Office, Arrah - BSPCB",01-04-2026 08:00:00,25.5626095,84.663264,NH3,2,2,2
India,Bihar,Begusarai,"Lohiyanagar, Begusarai - BSPCB",01-04-2026 08:00:00,25.42742023,86.13886079,NO2,10,39,18
India,Bihar,Begusarai,"Lohiyanagar, Begusarai - BSPCB",01-04-2026 08:00:00,25.42742023,86.13886079,NH3,3,4,4
India,Bihar,Begusarai,"Lohiyanagar, Begusarai - BSPCB",01-04-2026 08:00:00,25.42742023,86.13886079,CO,16,20,17
India,Bihar,Bettiah,"Kamalnath Nagar, Bettiah - BSPCB",01-04-2026 08:00:00,26.80365,84.51954,PM2.5,7,38,20
India,Bihar,Bhagalpur,"DM Office_Kachari Chowk, Bhagalpur - BSPCB",01-04-2026 08:00:00,25.251013,86.989001,PM10,39,113,62
India,Bihar,Bhagalpur,"Mayaganj, Bhagalpur - BSPCB",01-04-2026 08:00:00,25.265194,87.012947,PM10,3,91,50
India,Bihar,Bhagalpur,"Mayaganj, Bhagalpur - BSPCB",01-04-2026 08:00:00,25.265194,87.012947,CO,65,82,73
India,Delhi,Delhi,"Dwarka-Sector 8, Delhi - DPCC ",01-04-2026 08:00:00,28.5710274,77.0719006,NO2,32,92,57
India,Delhi,Delhi,"Dwarka-Sector 8, Delhi - DPCC ",01-04-2026 08:00:00,28.5710274,77.0719006,CO,36,96,48
India,Delhi,Delhi,"Dwarka-Sector 8, Delhi - DPCC ",01-04-2026 08:00:00,28.5710274,77.0719006,OZONE,4,131,15
India,Delhi,Delhi,"IGI Airport (T3), Delhi - IMD",01-04-2026 08:00:00,28.5627763,77.1180053,PM2.5,1,121,44
India,Delhi,Delhi,"IGI Airport (T3), Delhi - IMD",01-04-2026 08:00:00,28.5627763,77.1180053,OZONE,18,71,19
India,Delhi,Delhi,"IGNOU_Maidan Garhi, Delhi - DPCC",01-04-2026 08:00:00,28.493624 ,77.201159 ,CO,119,125,123
India,Delhi,Delhi,"IHBAS, Dilshad Garden, Delhi - CPCB",01-04-2026 08:00:00,28.6811736,77.3025234,OZONE,8,53,12
India,Delhi,Delhi,"ITO, Delhi - CPCB",01-04-2026 08:00:00,28.628624,77.241060,NH3,3,5,4
India,Delhi,Delhi,"ITO, Delhi - CPCB",01-04-2026 08:00:00,28.628624,77.241060,SO2,26,41,33
India,Delhi,Delhi,"JNU, Delhi - DPCC",01-04-2026 08:00:00,28.540721 ,77.168544 ,NO2,7,30,18
India,Delhi,Delhi,"NSIT Dwarka, Delhi - CPCB",01-04-2026 08:00:00,28.60909,77.0325413,PM10,100,429,167
India,Delhi,Delhi,"NSIT Dwarka, Delhi - CPCB",01-04-2026 08:00:00,28.60909,77.0325413,NH3,17,40,30
India,Delhi,Delhi,"NSIT Dwarka, Delhi - CPCB",01-04-2026 08:00:00,28.60909,77.0325413,SO2,11,22,15
India,Delhi,Delhi,"NSUT Jaffarpur, Delhi - DPCC",01-04-2026 08:00:00,28.594004 ,76.909423 ,PM10,18,402,112
India,Delhi,Delhi,"NSUT Jaffarpur, Delhi - DPCC",01-04-2026 08:00:00,28.594004 ,76.909423 ,NH3,11,16,14
India,Delhi,Delhi,"Najafgarh, Delhi - DPCC",01-04-2026 08:00:00,28.570173,76.933762,PM10,17,292,78
India,Delhi,Delhi,"Narela, Delhi - DPCC",01-04-2026 08:00:00,28.822836,77.101981,PM2.5,19,366,84
India,Delhi,Delhi,"Narela, Delhi - DPCC",01-04-2026 08:00:00,28.822836,77.101981,NH3,5,7,6
India,Delhi,Delhi,"Narela, Delhi - DPCC",01-04-2026 08:00:00,28.822836,77.101981,OZONE,1,51,12
India,Delhi,Delhi,"Nehru Nagar, Delhi - DPCC",01-04-2026 08:00:00,28.567890,77.250515,OZONE,2,146,6
India,Chhattisgarh,Kunjemura,"OP Jindal School, Kunjemura - CECB",01-04-2026 08:00:00,22.126650,83.483212,CO,23,64,54
India,Chhattisgarh,Kunjemura,"OP Jindal School, Kunjemura - CECB",01-04-2026 08:00:00,22.126650,83.483212,OZONE,2,18,2
India,Chhattisgarh,Raipur,"AIIMS, Raipur - CECB",01-04-2026 08:00:00,21.258815,81.578979,NO2,37,43,40
India,Chhattisgarh,Raipur,"AIIMS, Raipur - CECB",01-04-2026 08:00:00,21.258815,81.578979,OZONE,5,7,6
India,Chhattisgarh,Raipur,"Bhatagaon New ISBT, Raipur - CECB",01-04-2026 08:00:00,21.219665,81.630094,NO2,21,40,30
India,Chhattisgarh,Raipur,"Bhatagaon New ISBT, Raipur - CECB",01-04-2026 08:00:00,21.219665,81.630094,SO2,1,6,2
India,Chhattisgarh,Raipur,"Bhatagaon New ISBT, Raipur - CECB",01-04-2026 08:00:00,21.219665,81.630094,CO,16,42,32
India,Chhattisgarh,Raipur,"Bhatagaon New ISBT, Raipur - CECB",01-04-2026 08:00:00,21.219665,81.630094,OZONE,1,6,1
India,Chhattisgarh,Raipur,"Krishak Nagar, Raipur - CECB",01-04-2026 08:00:00,21.237755,81.705301,PM2.5,20,40,25
India,Chhattisgarh,Raipur,"Krishak Nagar, Raipur - CECB",01-04-2026 08:00:00,21.237755,81.705301,NO2,13,15,14
India,Delhi,Delhi,"North Campus, DU, Delhi - IMD",01-04-2026 08:00:00,28.6573814,77.1585447,PM2.5,1,92,47
India,Delhi,Delhi,"North Campus, DU, Delhi - IMD",01-04-2026 08:00:00,28.6573814,77.1585447,CO,31,86,48
India,Delhi,Delhi,"Okhla Phase-2, Delhi - DPCC",01-04-2026 08:00:00,28.530785,77.271255,CO,7,80,40
India,Delhi,Delhi,"Patparganj, Delhi - DPCC",01-04-2026 08:00:00,28.623763,77.287209,SO2,10,37,20
India,Delhi,Delhi,"Punjabi Bagh, Delhi - DPCC",01-04-2026 08:00:00,28.674045,77.131023,OZONE,6,94,13
India,Delhi,Delhi,"Chandni Chowk, Delhi - IITM",01-04-2026 08:00:00,28.656756,77.227234,SO2,6,19,13
India,Delhi,Delhi,"Chandni Chowk, Delhi - IITM",01-04-2026 08:00:00,28.656756,77.227234,OZONE,4,92,9
India,Delhi,Delhi,"Commonwealth Sports Complex, Delhi - DPCC",01-04-2026 08:00:00,28.615828 ,77.271992 ,SO2,50,56,52
India,Delhi,Delhi,"DTU, Delhi - CPCB",01-04-2026 08:00:00,28.7500499,77.1112615,PM2.5,12,292,65
India,Delhi,Delhi,"DTU, Delhi - CPCB",01-04-2026 08:00:00,28.7500499,77.1112615,NO2,35,71,49
India,Chhattisgarh,Raipur,"Krishak Nagar, Raipur - CECB",01-04-2026 08:00:00,21.237755,81.705301,CO,12,26,19
India,Chhattisgarh,Raipur,"Krishak Nagar, Raipur - CECB",01-04-2026 08:00:00,21.237755,81.705301,OZONE,1,40,1
India,Delhi,Delhi,"Anand Vihar, Delhi - DPCC",01-04-2026 08:00:00,28.647622,77.3158090,PM10,64,450,180
India,Delhi,Delhi,"Anand Vihar, Delhi - DPCC",01-04-2026 08:00:00,28.647622,77.3158090,NO2,8,74,22
India,Delhi,Delhi,"Anand Vihar, Delhi - DPCC",01-04-2026 08:00:00,28.647622,77.3158090,CO,12,118,32
India,Delhi,Delhi,"Pusa, Delhi - IMD",01-04-2026 08:00:00,28.636110,77.173332,CO,18,48,30
India,Delhi,Delhi,"R K Puram, Delhi - DPCC",01-04-2026 08:00:00,28.563262,77.186937,PM2.5,12,345,64
India,Delhi,Delhi,"Shadipur, Delhi - CPCB",01-04-2026 08:00:00,28.6514781,77.1473105,NO2,38,66,52
India,Delhi,Delhi,"Sonia Vihar, Delhi - DPCC",01-04-2026 08:00:00,28.710508,77.249485,CO,18,80,36
India,Delhi,Delhi,"Major Dhyan Chand National Stadium, Delhi - DPCC",01-04-2026 08:00:00,28.611281,77.237738,CO,8,88,60
India,Delhi,Delhi,"Mandir Marg, Delhi - DPCC",01-04-2026 08:00:00,28.636429,77.201067,PM2.5,NA,NA,NA
India,Delhi,Delhi,"Mundka, Delhi - DPCC",01-04-2026 08:00:00,28.684678,77.076574,CO,37,81,44
India,Delhi,Delhi,"CRRI Mathura Road, Delhi - IMD",01-04-2026 08:00:00,28.5512005,77.2735737,PM2.5,13,95,50
India,Haryana,Panchkula,"Sector-6, Panchkula - HSPCB ",01-04-2026 08:00:00,30.7057778,76.8531805555555,CO,11,52,27
India,Haryana,Panchkula,"Sector-6, Panchkula - HSPCB ",01-04-2026 08:00:00,30.7057778,76.8531805555555,OZONE,2,29,3
India,Haryana,Panipat,"Sector-18, Panipat - HSPCB",01-04-2026 08:00:00,29.432304,76.972765,NO2,31,32,31
India,Haryana,Rohtak,"MD University, Rohtak - HSPCB",01-04-2026 08:00:00,28.52123,76.37138,PM2.5,15,370,106
India,Haryana,Rohtak,"MD University, Rohtak - HSPCB",01-04-2026 08:00:00,28.52123,76.37138,PM10,11,213,69
India,Haryana,Sirsa,"F-Block, Sirsa - HSPCB",01-04-2026 08:00:00,29.536400,75.015800,PM10,48,160,102
India,Haryana,Sirsa,"F-Block, Sirsa - HSPCB",01-04-2026 08:00:00,29.536400,75.015800,OZONE,18,32,24
India,Haryana,Sonipat,"Murthal, Sonipat - HSPCB",01-04-2026 08:00:00,29.027200,77.062100,NO2,12,13,12
India,Haryana,Yamuna Nagar,"Gobind Pura, Yamuna Nagar - HSPCB",01-04-2026 08:00:00,30.1480566,77.2893471,PM2.5,99,244,158
India,Haryana,Yamuna Nagar,"Gobind Pura, Yamuna Nagar - HSPCB",01-04-2026 08:00:00,30.1480566,77.2893471,NO2,11,22,16
India,Haryana,Yamuna Nagar,"Gobind Pura, Yamuna Nagar - HSPCB",01-04-2026 08:00:00,30.1480566,77.2893471,SO2,10,16,12
India,Haryana,Dharuhera,"Municipal Corporation Office, Dharuhera -  HSPCB",01-04-2026 08:00:00,28.206800,76.799700,PM2.5,42,103,67
India,Haryana,Dharuhera,"Municipal Corporation Office, Dharuhera -  HSPCB",01-04-2026 08:00:00,28.206800,76.799700,NH3,9,26,20
India,Haryana,Faridabad,"New Industrial Town, Faridabad - HSPCB",01-04-2026 08:00:00,28.39072,77.30059,NO2,24,26,25
India,Haryana,Faridabad,"Sector 11, Faridabad - HSPCB",01-04-2026 08:00:00,28.376058,77.315741,PM10,40,443,153
India,Haryana,Faridabad,"Sector 11, Faridabad - HSPCB",01-04-2026 08:00:00,28.376058,77.315741,OZONE,14,15,15
India,Haryana,Faridabad,"Sector 30, Faridabad - HSPCB",01-04-2026 08:00:00,28.4417,77.3217,NH3,10,12,11
India,Haryana,Gurugram,"NISE Gwal Pahari, Gurugram - IMD",01-04-2026 08:00:00,28.422681,77.148944,CO,39,83,56
India,Haryana,Gurugram,"Sector-51, Gurugram - HSPCB",01-04-2026 08:00:00,28.4227,77.0667,PM10,50,170,100
India,Haryana,Gurugram,"Sector-51, Gurugram - HSPCB",01-04-2026 08:00:00,28.4227,77.0667,NO2,4,10,6
India,Haryana,Gurugram,"Sector-51, Gurugram - HSPCB",01-04-2026 08:00:00,28.4227,77.0667,OZONE,10,45,11
India,Gujarat,Mehsana,"Sadanand Nagar, Mehsana - Nexteng Enviro",01-04-2026 08:00:00,23.593150,72.372792,OZONE,8,15,11
India,Gujarat,Nandesari,"GIDC, Nandesari - Nandesari Ind. Association",01-04-2026 08:00:00,22.410802,73.097923,CO,1,59,39
India,Gujarat,Rajkot,"Mavdi, Rajkot - Nexteng Enviro ",01-04-2026 08:00:00,22.248853,70.776774,OZONE,8,14,11
India,Gujarat,Surat,"Katargam, Surat - Nexteng Enviro",01-04-2026 08:00:00,21.217779 ,72.834787 ,SO2,3,4,3
India,Gujarat,Surat,"Science Center, Surat - SMC",01-04-2026 08:00:00,21.170046,72.795405,PM10,24,101,62
India,Gujarat,Vadodara,"Bapunagar, Vadodara - Nexteng Enviro",01-04-2026 08:00:00,22.320153,73.216285,PM2.5,32,98,63
India,Gujarat,Vadodara,"Bapunagar, Vadodara - Nexteng Enviro",01-04-2026 08:00:00,22.320153,73.216285,NH3,3,3,3
India,Gujarat,Vadodara,"Bapunagar, Vadodara - Nexteng Enviro",01-04-2026 08:00:00,22.320153,73.216285,SO2,4,6,5
India,Gujarat,Ahmedabad,"Maninagar, Ahmedabad - GPCB",01-04-2026 08:00:00,23.002657,72.591912,NO2,82,92,87
India,Gujarat,Ahmedabad,"Maninagar, Ahmedabad - GPCB",01-04-2026 08:00:00,23.002657,72.591912,CO,NA,NA,NA
India,Gujarat,Ahmedabad,"Rakhial, Ahmedabad - IITM",01-04-2026 08:00:00,23.016834,72.625775,PM2.5,18,73,38
India,Gujarat,Ahmedabad,"Rakhial, Ahmedabad - IITM",01-04-2026 08:00:00,23.016834,72.625775,CO,64,108,72
India,Gujarat,Ahmedabad,"SAC ISRO Bopal, Ahmedabad - IITM",01-04-2026 08:00:00,23.041137,72.456691,PM10,37,92,62
India,Gujarat,Ahmedabad,"SAC ISRO Satellite, Ahmedabad - IITM",01-04-2026 08:00:00,23.023389,72.515201,PM2.5,41,90,60
India,Gujarat,Ahmedabad,"SAC ISRO Satellite, Ahmedabad - IITM",01-04-2026 08:00:00,23.023389,72.515201,CO,53,107,70
India,Gujarat,Ahmedabad,"SVPI Airport Hansol, Ahmedabad - IITM",01-04-2026 08:00:00,23.076793,72.627874,PM10,68,104,83
India,Gujarat,Ankleshwar,"GIDC, Ankleshwar - GPCB",01-04-2026 08:00:00,21.613267,73.010555,PM2.5,22,66,41
India,Gujarat,Ankleshwar,"GIDC, Ankleshwar - GPCB",01-04-2026 08:00:00,21.613267,73.010555,NO2,27,32,31
India,Gujarat,Ankleshwar,"GIDC, Ankleshwar - GPCB",01-04-2026 08:00:00,21.613267,73.010555,NH3,5,7,7
India,Gujarat,Bhavnagar,"Vidhyanagar, Bhavnagar - Nexteng Enviro",01-04-2026 08:00:00,21.755417,72.139056,NO2,31,39,35
India,Gujarat,Bhavnagar,"Vidhyanagar, Bhavnagar - Nexteng Enviro",01-04-2026 08:00:00,21.755417,72.139056,SO2,2,9,4
India,Gujarat,Gandhinagar,"GIFT City, Gandhinagar - IITM",01-04-2026 08:00:00,23.163798,72.677768,NO2,15,44,23
India,Gujarat,Gandhinagar,"IIPHG Lekawada, Gandhinagar - IITM",01-04-2026 08:00:00,23.243639,72.68994,NH3,5,7,5
India,Gujarat,Gandhinagar,"Sector-10, Gandhinagar - GPCB",01-04-2026 08:00:00,23.221714,72.654328,PM10,55,82,68
India,Gujarat,Gandhinagar,"Sector-10, Gandhinagar - GPCB",01-04-2026 08:00:00,23.221714,72.654328,OZONE,36,46,43
India,Gujarat,Vatva,"Phase-4 GIDC, Vatva - GPCB",01-04-2026 08:00:00,22.969611,72.643500,PM2.5,42,146,81
India,Gujarat,Vatva,"Phase-4 GIDC, Vatva - GPCB",01-04-2026 08:00:00,22.969611,72.643500,NO2,24,104,75
India,Gujarat,Vatva,"Phase-4 GIDC, Vatva - GPCB",01-04-2026 08:00:00,22.969611,72.643500,SO2,44,64,53
India,Gujarat,Vatva,"Phase-4 GIDC, Vatva - GPCB",01-04-2026 08:00:00,22.969611,72.643500,OZONE,30,47,31
India,Haryana,Ambala,"Patti Mehar, Ambala - HSPCB",01-04-2026 08:00:00,30.379589,76.778328,PM2.5,32,121,68
India,Haryana,Ambala,"Patti Mehar, Ambala - HSPCB",01-04-2026 08:00:00,30.379589,76.778328,NO2,7,12,10
India,Haryana,Ambala,"Patti Mehar, Ambala - HSPCB",01-04-2026 08:00:00,30.379589,76.778328,CO,22,48,22
India,Haryana,Charkhi Dadri,"Mini Secretariat, Charkhi Dadri - HSPCB",01-04-2026 08:00:00,28.593883,76.270653,PM10,44,150,96
India,Haryana,Charkhi Dadri,"Mini Secretariat, Charkhi Dadri - HSPCB",01-04-2026 08:00:00,28.593883,76.270653,CO,10,40,17
India,Haryana,Karnal,"Sector-12, Karnal - HSPCB",01-04-2026 08:00:00,29.695300,77.002700,CO,12,17,13
India,Haryana,Kurukshetra,"Sector-7, Kurukshetra - HSPCB",01-04-2026 08:00:00,29.966942,76.875879,OZONE,14,61,21
India,Haryana,Manesar,"Sector-2 IMT, Manesar - HSPCB",01-04-2026 08:00:00,28.360699,76.936090,PM10,33,156,78
India,Haryana,Manesar,"Sector-2 IMT, Manesar - HSPCB",01-04-2026 08:00:00,28.360699,76.936090,CO,2,28,13
India,Haryana,Narnaul,"Shastri Nagar, Narnaul - HSPCB",01-04-2026 08:00:00,28.060249,76.113115,PM10,41,102,62
India,Haryana,Narnaul,"Shastri Nagar, Narnaul - HSPCB",01-04-2026 08:00:00,28.060249,76.113115,NH3,4,6,5
India,Haryana,Palwal,"Shyam Nagar, Palwal - HSPCB",01-04-2026 08:00:00,28.1485564,77.3320667,NO2,NA,NA,NA
India,Haryana,Gurugram,"Vikas Sadan, Gurugram - HSPCB",01-04-2026 08:00:00,28.4501238,77.0263051,PM2.5,2,326,97
India,Haryana,Hisar,"Urban Estate-II, Hisar - HSPCB",01-04-2026 08:00:00,29.140560,75.744941,NO2,17,28,27
India,Haryana,Hisar,"Urban Estate-II, Hisar - HSPCB",01-04-2026 08:00:00,29.140560,75.744941,NH3,7,11,11
India,Haryana,Jind,"Police Lines, Jind - HSPCB",01-04-2026 08:00:00,29.307814,76.337619,OZONE,8,13,11
India,Haryana,Kaithal,"Rishi Nagar, Kaithal - HSPCB",01-04-2026 08:00:00,29.8006,76.4155,PM2.5,NA,NA,NA
India,Haryana,Kaithal,"Rishi Nagar, Kaithal - HSPCB",01-04-2026 08:00:00,29.8006,76.4155,OZONE,NA,NA,NA
