country,state,city,station,last_update,latitude,longitude,pollutant_id,min_value,max_value,avg_value
India,Bihar,Manguraha,"Forest Rest House, Manguraha - BSPCB",06-12-2025 07:00:00,27.308328,84.531742,NH3,1,2,1
India,Bihar,Manguraha,"Forest Rest House, Manguraha - BSPCB",06-12-2025 07:00:00,27.308328,84.531742,SO2,15,16,16
India,Bihar,Motihari,"Gandak Colony, Motihari - BSPCB",06-12-2025 07:00:00,26.63086,84.90051,PM2.5,22,130,70
India,Bihar,Motihari,"Gandak Colony, Motihari - BSPCB",06-12-2025 07:00:00,26.63086,84.90051,PM10,26,126,79
India,Bihar,Motihari,"Gandak Colony, Motihari - BSPCB",06-12-2025 07:00:00,26.63086,84.90051,CO,40,59,43
India,Bihar,Munger,"Town Hall, Munger - BSPCB",06-12-2025 07:00:00,25.376776,86.471523,PM2.5,53,227,134
India,Bihar,Munger,"Town Hall, Munger - BSPCB",06-12-2025 07:00:00,25.376776,86.471523,NH3,4,8,6
India,Bihar,Munger,"Town Hall, Munger - BSPCB",06-12-2025 07:00:00,25.376776,86.471523,CO,16,44,23
India,Bihar,Munger,"Town Hall, Munger - BSPCB",06-12-2025 07:00:00,25.376776,86.471523,OZONE,13,25,19
India,Bihar,Aurangabad,"Gurdeo Nagar, Aurangabad - BSPCB",06-12-2025 07:00:00,24.75746,84.366208,SO2,12,23,15
India,Bihar,Aurangabad,"Gurdeo Nagar, Aurangabad - BSPCB",06-12-2025 07:00:00,24.75746,84.366208,CO,101,103,102
India,Bihar,Aurangabad,"Gurdeo Nagar, Aurangabad - BSPCB",06-12-2025 07:00:00,24.75746,84.366208,OZONE,13,34,22
India,Bihar,Begusarai,"Lohiyanagar, Begusarai - BSPCB",06-12-2025 07:00:00,25.42742023,86.13886079,PM10,14,184,121
India,Bihar,Begusarai,"Lohiyanagar, Begusarai - BSPCB",06-12-2025 07:00:00,25.42742023,86.13886079,SO2,5,65,32
India,Bihar,Bettiah,"Kamalnath Nagar, Bettiah - BSPCB",06-12-2025 07:00:00,26.80365,84.51954,PM2.5,32,143,87
India,Bihar,Bhagalpur,"Mayaganj, Bhagalpur - BSPCB",06-12-2025 07:00:00,25.265194,87.012947,SO2,NA,NA,NA
India,Assam,Sivasagar,"Girls College, Sivasagar - PCBA",06-12-2025 07:00:00,26.987634,94.636574,PM2.5,18,94,63
India,Assam,Sivasagar,"Girls College, Sivasagar - PCBA",06-12-2025 07:00:00,26.987634,94.636574,NH3,4,21,11
India,Bihar,Araria,"Kharahiya Basti, Araria - BSPCB",06-12-2025 07:00:00,26.146529,87.454184,NH3,4,5,5
India,Bihar,Araria,"Kharahiya Basti, Araria - BSPCB",06-12-2025 07:00:00,26.146529,87.454184,CO,20,35,31
India,Bihar,Arrah,"New DM Office, Arrah - BSPCB",06-12-2025 07:00:00,25.5626095,84.663264,PM2.5,58,210,142
India,Bihar,Arrah,"New DM Office, Arrah - BSPCB",06-12-2025 07:00:00,25.5626095,84.663264,SO2,9,10,10
India,Bihar,Aurangabad,"Gurdeo Nagar, Aurangabad - BSPCB",06-12-2025 07:00:00,24.75746,84.366208,NO2,7,8,8
India,Bihar,Bihar Sharif,"D M Colony, Bihar Sharif - BSPCB",06-12-2025 07:00:00,25.204762,85.514960,PM2.5,57,193,126
India,Bihar,Buxar,"Charitra Van, Buxar - BSPCB",06-12-2025 07:00:00,25.567520,83.966379,NO2,9,10,10
India,Bihar,Buxar,"Charitra Van, Buxar - BSPCB",06-12-2025 07:00:00,25.567520,83.966379,SO2,2,7,4
India,Bihar,Chhapra,"Darshan Nagar, Chhapra - BSPCB",06-12-2025 07:00:00,25.7808257,84.7446768,OZONE,25,54,30
India,Bihar,Gaya,"Collectorate, Gaya - BSPCB",06-12-2025 07:00:00,24.7955,84.9994,NO2,9,9,9
India,Bihar,Gaya,"Kareemganj, Gaya - BSPCB",06-12-2025 07:00:00,24.792403,84.992416,PM10,102,330,179
India,Assam,Guwahati,"LGBI Airport, Guwahati - PCBA",06-12-2025 07:00:00,26.10887,91.589544,SO2,1,21,12
India,Assam,Guwahati,"Pan Bazaar, Guwahati - PCBA",06-12-2025 07:00:00,26.187500,91.744194,PM2.5,41,151,86
India,Assam,Guwahati,"Pan Bazaar, Guwahati - PCBA",06-12-2025 07:00:00,26.187500,91.744194,CO,14,84,42
India,Assam,Guwahati,"Railway Colony, Guwahati - PCBA",06-12-2025 07:00:00,26.181742,91.78063,PM2.5,53,340,208
India,Assam,Guwahati,"Railway Colony, Guwahati - PCBA",06-12-2025 07:00:00,26.181742,91.78063,PM10,50,203,126
India,Assam,Nagaon,"Christianpatty, Nagaon - PCBA",06-12-2025 07:00:00,26.349082,92.68449,NH3,4,4,4
India,Andhra_Pradesh,Kadapa,"Yerramukkapalli, Kadapa - APPCB",06-12-2025 07:00:00,14.465052,78.824187,NO2,21,21,21
India,Andhra_Pradesh,Kadapa,"Yerramukkapalli, Kadapa - APPCB",06-12-2025 07:00:00,14.465052,78.824187,OZONE,24,33,25
India,Andhra_Pradesh,Tirumala,"Toll Gate, Tirumala - APPCB",06-12-2025 07:00:00,13.67,79.35,PM10,91,111,103
India,Andhra_Pradesh,Tirumala,"Toll Gate, Tirumala - APPCB",06-12-2025 07:00:00,13.67,79.35,SO2,6,7,6
India,Andhra_Pradesh,Tirumala,"Toll Gate, Tirumala - APPCB",06-12-2025 07:00:00,13.67,79.35,OZONE,13,238,49
India,Andhra_Pradesh,Vijayawada,"HB Colony, Vijayawada - APPCB",06-12-2025 07:00:00,16.536107,80.594233,NO2,19,19,19
India,Arunachal_Pradesh,Naharlagun,"Naharlagun, Naharlagun - APSPCB",06-12-2025 07:00:00,27.103358,93.679645,CO,7,62,16
India,Assam,Byrnihat,"Central Academy for SFS, Byrnihat - PCBA",06-12-2025 07:00:00,26.071318,91.87488,NO2,6,8,7
India,Assam,Byrnihat,"Central Academy for SFS, Byrnihat - PCBA",06-12-2025 07:00:00,26.071318,91.87488,SO2,5,8,6
India,Assam,Byrnihat,"Central Academy for SFS, Byrnihat - PCBA",06-12-2025 07:00:00,26.071318,91.87488,CO,46,62,53
India,Assam,Guwahati,"LGBI Airport, Guwahati - PCBA",06-12-2025 07:00:00,26.10887,91.589544,PM10,37,90,64
India,Bihar,Gaya,"SFTI Kusdihra, Gaya - BSPCB",06-12-2025 07:00:00,24.762518,84.982348,PM2.5,33,52,39
India,Bihar,Gaya,"SFTI Kusdihra, Gaya - BSPCB",06-12-2025 07:00:00,24.762518,84.982348,PM10,28,68,46
India,Bihar,Hajipur,"Industrial Area, Hajipur - BSPCB",06-12-2025 07:00:00,25.697189,85.245900,PM2.5,99,198,151
India,Bihar,Hajipur,"Industrial Area, Hajipur - BSPCB",06-12-2025 07:00:00,25.697189,85.245900,NH3,6,10,9
India,Bihar,Katihar,"Mirchaibari, Katihar - BSPCB",06-12-2025 07:00:00,25.560083,87.553265,NO2,13,19,16
India,Andhra_Pradesh,Amaravati,"Secretariat, Amaravati - APPCB",06-12-2025 07:00:00,16.5150833,80.5181667,CO,23,74,40
India,Andhra_Pradesh,Anantapur,"Gulzarpet, Anantapur - APPCB",06-12-2025 07:00:00,14.675886,77.593027,SO2,11,13,12
India,Andhra_Pradesh,Chittoor,"Gangineni Cheruvu, Chittoor - APPCB",06-12-2025 07:00:00,13.204880,79.097889,NH3,5,6,6
India,Andhra_Pradesh,Chittoor,"Gangineni Cheruvu, Chittoor - APPCB",06-12-2025 07:00:00,13.204880,79.097889,OZONE,54,61,56
India,Andhra_Pradesh,Vijayawada,"Rajiv Gandhi Park, Vijayawada - APPCB",06-12-2025 07:00:00,16.509717,80.612222,NO2,48,100,63
India,Andhra_Pradesh,Vijayawada,"Rajiv Gandhi Park, Vijayawada - APPCB",06-12-2025 07:00:00,16.509717,80.612222,SO2,13,16,15
India,Andhra_Pradesh,Vijayawada,"Rajiv Nagar, Vijayawada - APPCB",06-12-2025 07:00:00,16.554731,80.649110,CO,38,72,49
India,Andhra_Pradesh,Visakhapatnam,"GVM Corporation, Visakhapatnam - APPCB",06-12-2025 07:00:00,17.72,83.3,NH3,3,4,3
India,Bihar,Purnia,"Mariam Nagar, Purnia - BSPCB",06-12-2025 07:00:00,25.366336,87.117468,OZONE,24,52,27
India,Bihar,Rajgir,"Dangi Tola, Rajgir - BSPCB",06-12-2025 07:00:00,25.03280,85.41948,PM10,50,119,84
India,Bihar,Rajgir,"Dangi Tola, Rajgir - BSPCB",06-12-2025 07:00:00,25.03280,85.41948,CO,80,96,88
India,Bihar,Saharsa,"Police Line, Saharsa - BSPCB",06-12-2025 07:00:00,25.892357,86.590325,PM2.5,38,162,87
India,Bihar,Saharsa,"Police Line, Saharsa - BSPCB",06-12-2025 07:00:00,25.892357,86.590325,PM10,52,143,93
India,Bihar,Saharsa,"Police Line, Saharsa - BSPCB",06-12-2025 07:00:00,25.892357,86.590325,CO,35,46,42
India,Bihar,Sasaram,"Dada Peer, Sasaram - BSPCB",06-12-2025 07:00:00,24.952822,84.002396,PM10,97,418,168
India,Delhi,Delhi,"Ashok Vihar, Delhi - DPCC",06-12-2025 07:00:00,28.695381,77.181665,SO2,4,38,17
India,Delhi,Delhi,"Ashok Vihar, Delhi - DPCC",06-12-2025 07:00:00,28.695381,77.181665,OZONE,4,143,12
India,Delhi,Delhi,"Aya Nagar, Delhi - IMD",06-12-2025 07:00:00,28.4706914,77.1099364,OZONE,11,169,22
India,Delhi,Delhi,"Bawana, Delhi - DPCC",06-12-2025 07:00:00,28.776200,77.051074,NO2,11,94,45
India,Delhi,Delhi,"Bawana, Delhi - DPCC",06-12-2025 07:00:00,28.776200,77.051074,SO2,8,28,14
India,Delhi,Delhi,"CRRI Mathura Road, Delhi - IMD",06-12-2025 07:00:00,28.5512005,77.2735737,CO,26,114,85
India,Delhi,Delhi,"Chandni Chowk, Delhi - IITM",06-12-2025 07:00:00,28.656756,77.227234,NO2,31,65,46
India,Bihar,Muzaffarpur,"Muzaffarpur Collectorate, Muzaffarpur - BSPCB",06-12-2025 07:00:00,26.1209,85.3647,PM2.5,87,127,105
India,Bihar,Muzaffarpur,"Muzaffarpur Collectorate, Muzaffarpur - BSPCB",06-12-2025 07:00:00,26.1209,85.3647,NO2,8,14,12
India,Bihar,Patna,"DRM Office Danapur, Patna - BSPCB",06-12-2025 07:00:00,25.586562,85.043586,PM2.5,70,209,140
India,Bihar,Patna,"DRM Office Danapur, Patna - BSPCB",06-12-2025 07:00:00,25.586562,85.043586,CO,38,110,65
India,Bihar,Patna,"IGSC Planetarium Complex, Patna - BSPCB",06-12-2025 07:00:00,25.610369,85.132568,PM2.5,65,208,136
India,Bihar,Patna,"IGSC Planetarium Complex, Patna - BSPCB",06-12-2025 07:00:00,25.610369,85.132568,NO2,13,17,15
India,Chhattisgarh,Bhilai,"32Bungalows, Bhilai - CECB",06-12-2025 07:00:00,21.194815,81.314770,SO2,5,30,14
India,Chhattisgarh,Bhilai,"Civic Center, Bhilai - Bhilai Steel Plant",06-12-2025 07:00:00,21.185571,81.343175,PM2.5,29,117,58
India,Chhattisgarh,Bhilai,"Hathkhoj, Bhilai - CECB",06-12-2025 07:00:00,21.224231,81.408350,NO2,20,82,41
India,Chhattisgarh,Bilaspur,"Mangala, Bilaspur - NTPC",06-12-2025 07:00:00,22.08815,82.13737,PM10,58,134,87
India,Chhattisgarh,Raipur,"AIIMS, Raipur - CECB",06-12-2025 07:00:00,21.258815,81.578979,PM2.5,60,245,126
India,Chhattisgarh,Raipur,"AIIMS, Raipur - CECB",06-12-2025 07:00:00,21.258815,81.578979,NH3,1,1,1
India,Chhattisgarh,Raipur,"Bhatagaon New ISBT, Raipur - CECB",06-12-2025 07:00:00,21.219665,81.630094,PM2.5,35,57,48
India,Chhattisgarh,Raipur,"Bhatagaon New ISBT, Raipur - CECB",06-12-2025 07:00:00,21.219665,81.630094,PM10,50,80,67
India,Chhattisgarh,Raipur,"Bhatagaon New ISBT, Raipur - CECB",06-12-2025 07:00:00,21.219665,81.630094,SO2,5,19,8
India,Chhattisgarh,Raipur,"Bhatagaon New ISBT, Raipur - CECB",06-12-2025 07:00:00,21.219665,81.630094,OZONE,2,11,3
India,Bihar,Patna,"Muradpur, Patna - BSPCB",06-12-2025 07:00:00,25.619651,85.147382,NH3,4,5,5
India,Bihar,Patna,"Muradpur, Patna - BSPCB",06-12-2025 07:00:00,25.619651,85.147382,OZONE,4,40,5
India,Bihar,Patna,"Samanpura, Patna - BSPCB",06-12-2025 07:00:00,25.596727,85.085624,PM10,108,178,148
India,Bihar,Patna,"Samanpura, Patna - BSPCB",06-12-2025 07:00:00,25.596727,85.085624,OZONE,16,80,20
India,Bihar,Purnia,"Mariam Nagar, Purnia - BSPCB",06-12-2025 07:00:00,25.366336,87.117468,PM2.5,40,123,74
India,Chandigarh,Chandigarh,"Sector 22, Chandigarh - CPCC",06-12-2025 07:00:00,30.735567,76.775714,OZONE,3,122,20
India,Chandigarh,Chandigarh,"Sector-25, Chandigarh - CPCC",06-12-2025 07:00:00,30.751462,76.762879,PM10,101,155,131
India,Chhattisgarh,Bhilai,"32Bungalows, Bhilai - CECB",06-12-2025 07:00:00,21.194815,81.314770,PM10,40,130,71
India,Chhattisgarh,Raipur,"Siltara Phase-II, Raipur - CECB",06-12-2025 07:00:00,21.371751,81.664929,CO,34,36,35
India,Chhattisgarh,Raipur,"Siltara Phase-II, Raipur - CECB",06-12-2025 07:00:00,21.371751,81.664929,OZONE,3,3,3
India,Delhi,Delhi,"Ashok Vihar, Delhi - DPCC",06-12-2025 07:00:00,28.695381,77.181665,NO2,38,154,98
India,Chhattisgarh,Korba,"Rampur, Korba - CECB",06-12-2025 07:00:00,22.368195,82.746431,CO,20,42,27
India,Chhattisgarh,Kunjemura,"OP Jindal School, Kunjemura - CECB",06-12-2025 07:00:00,22.126650,83.483212,PM2.5,33,58,44
India,Delhi,Delhi,"IIT Delhi, Delhi - IITM",06-12-2025 07:00:00,28.542460,77.191651,PM2.5,176,376,302
India,Delhi,Delhi,"ITO, Delhi - CPCB",06-12-2025 07:00:00,28.628624,77.241060,OZONE,10,94,11
India,Delhi,Delhi,"Jahangirpuri, Delhi - DPCC",06-12-2025 07:00:00,28.732820,77.170633,PM2.5,287,435,365
India,Delhi,Delhi,"Jahangirpuri, Delhi - DPCC",06-12-2025 07:00:00,28.732820,77.170633,PM10,183,426,288
India,Delhi,Delhi,"Jahangirpuri, Delhi - DPCC",06-12-2025 07:00:00,28.732820,77.170633,OZONE,3,203,6
India,Delhi,Delhi,"Lodhi Road, Delhi - IITM",06-12-2025 07:00:00,28.588333,77.221667,PM2.5,248,346,305
India,Delhi,Delhi,"Dwarka-Sector 8, Delhi - DPCC ",06-12-2025 07:00:00,28.5710274,77.0719006,NH3,17,24,20
India,Delhi,Delhi,"Dwarka-Sector 8, Delhi - DPCC ",06-12-2025 07:00:00,28.5710274,77.0719006,SO2,25,35,29
India,Delhi,Delhi,"Dwarka-Sector 8, Delhi - DPCC ",06-12-2025 07:00:00,28.5710274,77.0719006,CO,40,154,78
India,Delhi,Delhi,"IHBAS, Dilshad Garden, Delhi - CPCB",06-12-2025 07:00:00,28.6811736,77.3025234,PM10,292,360,319
India,Delhi,Delhi,"IHBAS, Dilshad Garden, Delhi - CPCB",06-12-2025 07:00:00,28.6811736,77.3025234,NO2,47,120,86
India,Delhi,Delhi,"Lodhi Road, Delhi - IMD",06-12-2025 07:00:00,28.5918245,77.2273074,PM10,164,290,217
India,Delhi,Delhi,"Mandir Marg, Delhi - DPCC",06-12-2025 07:00:00,28.636429,77.201067,PM10,135,355,228
India,Delhi,Delhi,"Mandir Marg, Delhi - DPCC",06-12-2025 07:00:00,28.636429,77.201067,NH3,6,12,8
India,Delhi,Delhi,"NSIT Dwarka, Delhi - CPCB",06-12-2025 07:00:00,28.60909,77.0325413,SO2,12,28,17
India,Delhi,Delhi,"Najafgarh, Delhi - DPCC",06-12-2025 07:00:00,28.570173,76.933762,NO2,65,88,77
India,Delhi,Delhi,"Najafgarh, Delhi - DPCC",06-12-2025 07:00:00,28.570173,76.933762,NH3,14,17,16
India,Delhi,Delhi,"Narela, Delhi - DPCC",06-12-2025 07:00:00,28.822836,77.101981,PM10,157,339,241
India,Delhi,Delhi,"Narela, Delhi - DPCC",06-12-2025 07:00:00,28.822836,77.101981,NH3,5,8,6
India,Delhi,Delhi,"Okhla Phase-2, Delhi - DPCC",06-12-2025 07:00:00,28.530785,77.271255,NO2,87,235,172
India,Delhi,Delhi,"Punjabi Bagh, Delhi - DPCC",06-12-2025 07:00:00,28.674045,77.131023,CO,36,124,62
India,Delhi,Delhi,"Nehru Nagar, Delhi - DPCC",06-12-2025 07:00:00,28.567890,77.250515,OZONE,2,312,4
India,Delhi,Delhi,"Patparganj, Delhi - DPCC",06-12-2025 07:00:00,28.623763,77.287209,SO2,7,13,10
India,Delhi,Delhi,"Pusa, Delhi - IMD",06-12-2025 07:00:00,28.636110,77.173332,CO,21,132,89
India,Delhi,Delhi,"R K Puram, Delhi - DPCC",06-12-2025 07:00:00,28.563262,77.186937,SO2,1,12,7
India,Delhi,Delhi,"Sirifort, Delhi - CPCB",06-12-2025 07:00:00,28.5504249,77.2159377,OZONE,15,26,18
India,Delhi,Delhi,"Sirifort, Delhi - CPCB",06-12-2025 07:00:00,28.5504249,77.2159377,NO2,58,95,68
India,Delhi,Delhi,"Sirifort, Delhi - CPCB",06-12-2025 07:00:00,28.5504249,77.2159377,CO,30,120,78
India,Delhi,Delhi,"R K Puram, Delhi - DPCC",06-12-2025 07:00:00,28.563262,77.186937,CO,6,132,75
India,Delhi,Delhi,"Rohini, Delhi - DPCC",06-12-2025 07:00:00,28.732528,77.119920,OZONE,5,175,14
India,Delhi,Delhi,"Shadipur, Delhi - CPCB",06-12-2025 07:00:00,28.6514781,77.1473105,SO2,8,17,12
India,Delhi,Delhi,"Rohini, Delhi - DPCC",06-12-2025 07:00:00,28.732528,77.119920,NH3,13,19,17
India,Delhi,Delhi,"Pusa, Delhi - DPCC",06-12-2025 07:00:00,28.639652,77.146275,NH3,6,15,11
India,Haryana,Ballabgarh,"Nathu Colony, Ballabgarh - HSPCB",06-12-2025 07:00:00,28.3419248,77.319699,PM2.5,81,307,197
India,Haryana,Ballabgarh,"Nathu Colony, Ballabgarh - HSPCB",06-12-2025 07:00:00,28.3419248,77.319699,PM10,86,184,137
India,Haryana,Ballabgarh,"Nathu Colony, Ballabgarh - HSPCB",06-12-2025 07:00:00,28.3419248,77.319699,OZONE,15,15,15
India,Haryana,Bhiwani,"H.B. Colony, Bhiwani - HSPCB",06-12-2025 07:00:00,28.806223,76.141105,SO2,12,13,12
India,Haryana,Bhiwani,"H.B. Colony, Bhiwani - HSPCB",06-12-2025 07:00:00,28.806223,76.141105,OZONE,7,16,13
India,Haryana,Charkhi Dadri,"Mini Secretariat, Charkhi Dadri - HSPCB",06-12-2025 07:00:00,28.593883,76.270653,NH3,5,8,6
India,Haryana,Charkhi Dadri,"Mini Secretariat, Charkhi Dadri - HSPCB",06-12-2025 07:00:00,28.593883,76.270653,SO2,10,11,10
India,Haryana,Dharuhera,"Municipal Corporation Office, Dharuhera -  HSPCB",06-12-2025 07:00:00,28.206800,76.799700,PM2.5,193,387,322
India,Haryana,Dharuhera,"Municipal Corporation Office, Dharuhera -  HSPCB",06-12-2025 07:00:00,28.206800,76.799700,CO,4,6,6
India,Haryana,Dharuhera,"Municipal Corporation Office, Dharuhera -  HSPCB",06-12-2025 07:00:00,28.206800,76.799700,OZONE,9,73,13
India,Haryana,Faridabad,"New Industrial Town, Faridabad - HSPCB",06-12-2025 07:00:00,28.39072,77.30059,PM2.5,224,234,230
India,Haryana,Faridabad,"New Industrial Town, Faridabad - HSPCB",06-12-2025 07:00:00,28.39072,77.30059,PM10,164,168,166
India,Haryana,Faridabad,"Sector 11, Faridabad - HSPCB",06-12-2025 07:00:00,28.376058,77.315741,PM2.5,64,374,217
India,Haryana,Faridabad,"Sector 11, Faridabad - HSPCB",06-12-2025 07:00:00,28.376058,77.315741,PM10,77,401,196
India,Haryana,Faridabad,"Sector 11, Faridabad - HSPCB",06-12-2025 07:00:00,28.376058,77.315741,CO,10,42,25
India,Haryana,Fatehabad,"Huda Sector, Fatehabad - HSPCB",06-12-2025 07:00:00,29.503664,75.467934,NH3,13,15,14
India,Haryana,Fatehabad,"Huda Sector, Fatehabad - HSPCB",06-12-2025 07:00:00,29.503664,75.467934,CO,25,38,27
India,Haryana,Gurugram,"NISE Gwal Pahari, Gurugram - IMD",06-12-2025 07:00:00,28.422681,77.148944,PM2.5,150,393,316
India,Haryana,Gurugram,"NISE Gwal Pahari, Gurugram - IMD",06-12-2025 07:00:00,28.422681,77.148944,CO,30,91,73
India,Gujarat,Nandesari,"GIDC, Nandesari - Nandesari Ind. Association",06-12-2025 07:00:00,22.410802,73.097923,NO2,31,199,45
India,Gujarat,Vapi,"Phase-1 GIDC, Vapi - GPCB",06-12-2025 07:00:00,20.362421,72.918013,NH3,3,5,4
India,Gujarat,Vatva,"Phase-4 GIDC, Vatva - GPCB",06-12-2025 07:00:00,22.969611,72.643500,SO2,18,28,24
India,Haryana,Ambala,"Patti Mehar, Ambala - HSPCB",06-12-2025 07:00:00,30.379589,76.778328,PM2.5,92,227,164
India,Haryana,Bahadurgarh,"Arya Nagar, Bahadurgarh - HSPCB",06-12-2025 07:00:00,28.6701,76.9254,PM2.5,86,500,318
India,Haryana,Bahadurgarh,"Arya Nagar, Bahadurgarh - HSPCB",06-12-2025 07:00:00,28.6701,76.9254,PM10,68,454,201
India,Gujarat,Ahmedabad,"SAC ISRO Bopal, Ahmedabad - IITM",06-12-2025 07:00:00,23.041137,72.456691,NH3,10,14,12
India,Gujarat,Ahmedabad,"SAC ISRO Bopal, Ahmedabad - IITM",06-12-2025 07:00:00,23.041137,72.456691,OZONE,7,74,17
India,Gujarat,Ahmedabad,"SAC ISRO Satellite, Ahmedabad - IITM",06-12-2025 07:00:00,23.023389,72.515201,PM10,64,116,83
India,Gujarat,Ahmedabad,"SAC ISRO Satellite, Ahmedabad - IITM",06-12-2025 07:00:00,23.023389,72.515201,NO2,12,42,20
India,Gujarat,Ahmedabad,"SAC ISRO Satellite, Ahmedabad - IITM",06-12-2025 07:00:00,23.023389,72.515201,NH3,8,15,10
India,Gujarat,Gandhinagar,"IIPHG Lekawada, Gandhinagar - IITM",06-12-2025 07:00:00,23.243639,72.68994,NO2,7,8,8
India,Gujarat,Gandhinagar,"IIPHG Lekawada, Gandhinagar - IITM",06-12-2025 07:00:00,23.243639,72.68994,CO,7,102,56
India,Gujarat,Gandhinagar,"Sector-10, Gandhinagar - GPCB",06-12-2025 07:00:00,23.221714,72.654328,NO2,14,19,16
India,Gujarat,Gandhinagar,"Sector-10, Gandhinagar - GPCB",06-12-2025 07:00:00,23.221714,72.654328,SO2,6,14,11
India,Gujarat,Ahmedabad,"SVPI Airport Hansol, Ahmedabad - IITM",06-12-2025 07:00:00,23.076793,72.627874,NO2,22,99,48
India,Delhi,Delhi,"Sri Aurobindo Marg, Delhi - DPCC",06-12-2025 07:00:00,28.531346,77.190156,CO,58,100,81
India,Delhi,Delhi,"Sonia Vihar, Delhi - DPCC",06-12-2025 07:00:00,28.710508,77.249485,CO,64,162,121
India,Delhi,Delhi,"Wazirpur, Delhi - DPCC",06-12-2025 07:00:00,28.699793,77.165453,CO,40,113,63
India,Karnataka,Bengaluru,"Silk Board, Bengaluru - KSPCB",06-12-2025 07:00:00,12.917348,77.622813,OZONE,20,21,21
India,Karnataka,Chamarajanagar,"Urban, Chamarajanagar - KSPCB",06-12-2025 07:00:00,11.55358,76.55521,PM10,29,68,44
India,Karnataka,Chamarajanagar,"Urban, Chamarajanagar - KSPCB",06-12-2025 07:00:00,11.55358,76.55521,NO2,14,40,25
India,Karnataka,Chamarajanagar,"Urban, Chamarajanagar - KSPCB",06-12-2025 07:00:00,11.55358,76.55521,SO2,2,7,4
India,Karnataka,Chikkamagaluru,"Kalyana Nagara, Chikkamagaluru - KSPCB",06-12-2025 07:00:00,13.328028,75.797056,PM2.5,1,45,16
India,Karnataka,Chikkamagaluru,"Kalyana Nagara, Chikkamagaluru - KSPCB",06-12-2025 07:00:00,13.328028,75.797056,PM10,35,35,35
India,Karnataka,Chikkamagaluru,"Kalyana Nagara, Chikkamagaluru - KSPCB",06-12-2025 07:00:00,13.328028,75.797056,NH3,2,2,2
India,Karnataka,Chikkamagaluru,"Kalyana Nagara, Chikkamagaluru - KSPCB",06-12-2025 07:00:00,13.328028,75.797056,SO2,6,6,6
India,Karnataka,Davanagere,"Devaraj Urs Badavane, Davanagere - KSPCB",06-12-2025 07:00:00,14.475800,75.905200,PM2.5,60,173,97
India,Karnataka,Davanagere,"Devaraj Urs Badavane, Davanagere - KSPCB",06-12-2025 07:00:00,14.475800,75.905200,NO2,21,30,26
India,Karnataka,Davanagere,"Devaraj Urs Badavane, Davanagere - KSPCB",06-12-2025 07:00:00,14.475800,75.905200,NH3,2,10,3
India,Karnataka,Davanagere,"Devaraj Urs Badavane, Davanagere - KSPCB",06-12-2025 07:00:00,14.475800,75.905200,SO2,4,6,5
India,Karnataka,Davanagere,"Devaraj Urs Badavane, Davanagere - KSPCB",06-12-2025 07:00:00,14.475800,75.905200,CO,NA,NA,NA
India,Haryana,Jind,"Police Lines, Jind - HSPCB",06-12-2025 07:00:00,29.307814,76.337619,NH3,2,3,2
India,Haryana,Jind,"Police Lines, Jind - HSPCB",06-12-2025 07:00:00,29.307814,76.337619,CO,16,156,89
India,Haryana,Jind,"Police Lines, Jind - HSPCB",06-12-2025 07:00:00,29.307814,76.337619,OZONE,10,65,33
India,Haryana,Kaithal,"Rishi Nagar, Kaithal - HSPCB",06-12-2025 07:00:00,29.8006,76.4155,NO2,28,33,31
India,Haryana,Karnal,"Sector-12, Karnal - HSPCB",06-12-2025 07:00:00,29.695300,77.002700,PM2.5,201,342,262
India,Haryana,Karnal,"Sector-12, Karnal - HSPCB",06-12-2025 07:00:00,29.695300,77.002700,CO,38,62,47
India,Haryana,Kurukshetra,"Sector-7, Kurukshetra - HSPCB",06-12-2025 07:00:00,29.966942,76.875879,NO2,17,21,19
India,Haryana,Kurukshetra,"Sector-7, Kurukshetra - HSPCB",06-12-2025 07:00:00,29.966942,76.875879,SO2,5,16,9
India,Haryana,Kurukshetra,"Sector-7, Kurukshetra - HSPCB",06-12-2025 07:00:00,29.966942,76.875879,OZONE,19,81,34
India,Haryana,Mandikhera,"General Hospital, Mandikhera(Nuh) - HSPCB",06-12-2025 07:00:00,27.9002,76.9938,OZONE,22,29,27
India,Haryana,Panchkula,"Sector-6, Panchkula - HSPCB ",06-12-2025 07:00:00,30.7057778,76.8531805555555,CO,21,24,23
India,Haryana,Panipat,"Sector-18, Panipat - HSPCB",06-12-2025 07:00:00,29.432304,76.972765,PM2.5,NA,NA,NA
India,Haryana,Panipat,"Sector-18, Panipat - HSPCB",06-12-2025 07:00:00,29.432304,76.972765,PM10,NA,NA,NA
India,Haryana,Panipat,"Sector-18, Panipat - HSPCB",06-12-2025 07:00:00,29.432304,76.972765,SO2,NA,NA,NA
India,Haryana,Rohtak,"MD University, Rohtak - HSPCB",06-12-2025 07:00:00,28.52123,76.37138,PM2.5,NA,NA,NA
India,Haryana,Rohtak,"MD University, Rohtak - HSPCB",06-12-2025 07:00:00,28.52123,76.37138,SO2,NA,NA,NA
India,Haryana,Sirsa,"F-Block, Sirsa - HSPCB",06-12-2025 07:00:00,29.536400,75.015800,NO2,13,23,18
India,Haryana,Sonipat,"Murthal, Sonipat - HSPCB",06-12-2025 07:00:00,29.027200,77.062100,OZONE,25,26,26
India,Haryana,Manesar,"Sector-2 IMT, Manesar - HSPCB",06-12-2025 07:00:00,28.360699,76.936090,PM10,112,235,174
India,Haryana,Narnaul,"Shastri Nagar, Narnaul - HSPCB",06-12-2025 07:00:00,28.060249,76.113115,SO2,6,7,6
India,Haryana,Palwal,"Shyam Nagar, Palwal - HSPCB",06-12-2025 07:00:00,28.1485564,77.3320667,NO2,23,24,24
India,Haryana,Palwal,"Shyam Nagar, Palwal - HSPCB",06-12-2025 07:00:00,28.1485564,77.3320667,CO,22,49,33
India,Haryana,Panchgaon,"Amity University, Panchgaon - IITM",06-12-2025 07:00:00,28.3153,76.9143,PM2.5,70,294,115
India,Himachal Pradesh,Baddi,"HIMUDA Complex Phase-1, Baddi - HPPCB",06-12-2025 07:00:00,30.943887,76.801991,PM10,136,404,207
India,Himachal Pradesh,Baddi,"HIMUDA Complex Phase-1, Baddi - HPPCB",06-12-2025 07:00:00,30.943887,76.801991,NH3,7,11,10
India,Himachal Pradesh,Baddi,"HIMUDA Complex Phase-1, Baddi - HPPCB",06-12-2025 07:00:00,30.943887,76.801991,SO2,34,138,77
India,Jammu_and_Kashmir,Srinagar,"Rajbagh, Srinagar - JKSPCB",06-12-2025 07:00:00,34.066206,74.819820,OZONE,NA,NA,NA
India,Jharkhand,Jorapokhar,"Tata Stadium, Jorapokhar - JSPCB",06-12-2025 07:00:00,23.707909,86.414670,SO2,NA,NA,NA
India,Haryana,Gurugram,"Sector-51, Gurugram - HSPCB",06-12-2025 07:00:00,28.4227,77.0667,NO2,4,10,6
India,Haryana,Gurugram,"Teri Gram, Gurugram - HSPCB",06-12-2025 07:00:00,28.4275,77.1465,PM10,129,298,212
India,Haryana,Gurugram,"Teri Gram, Gurugram - HSPCB",06-12-2025 07:00:00,28.4275,77.1465,CO,23,88,75
India,Haryana,Gurugram,"Vikas Sadan, Gurugram - HSPCB",06-12-2025 07:00:00,28.4501238,77.0263051,CO,82,125,108
India,Haryana,Hisar,"Urban Estate-II, Hisar - HSPCB",06-12-2025 07:00:00,29.140560,75.744941,OZONE,32,96,55
India,Karnataka,Bengaluru,"Peenya, Bengaluru - CPCB",06-12-2025 07:00:00,13.0270199,77.494094,NO2,20,29,24
India,Karnataka,Bengaluru,"RVCE-Mailasandra, Bengaluru - KSPCB",06-12-2025 07:00:00,12.921418,77.502466,NH3,4,5,4
India,Karnataka,Bengaluru,"RVCE-Mailasandra, Bengaluru - KSPCB",06-12-2025 07:00:00,12.921418,77.502466,OZONE,NA,NA,NA
India,Karnataka,Bengaluru,"Sanegurava Halli, Bengaluru - KSPCB",06-12-2025 07:00:00,12.990328,77.5431385,CO,22,32,26
India,Karnataka,Bengaluru,"Silk Board, Bengaluru - KSPCB",06-12-2025 07:00:00,12.917348,77.622813,PM2.5,56,96,79
India,Karnataka,Bengaluru,"BTM Layout, Bengaluru - CPCB",06-12-2025 07:00:00,12.9135218,77.5950804,CO,41,52,50
India,Karnataka,Bengaluru,"BWSSB Kadabesanahalli, Bengaluru - CPCB",06-12-2025 07:00:00,12.9352049,77.6814488,SO2,4,7,5
India,Karnataka,Bengaluru,"City Railway Station, Bengaluru - KSPCB",06-12-2025 07:00:00,12.9756843,77.5660749,CO,84,88,86
India,Karnataka,Bengaluru,"Hombegowda Nagar, Bengaluru - KSPCB",06-12-2025 07:00:00,12.938539,77.590100,NO2,9,30,19
India,Karnataka,Bengaluru,"Jayanagar 5th Block, Bengaluru - KSPCB",06-12-2025 07:00:00,12.920984,77.584908,PM10,69,110,98
India,Karnataka,Bengaluru,"Peenya, Bengaluru - CPCB",06-12-2025 07:00:00,13.0270199,77.494094,PM10,47,53,50
India,Madhya Pradesh,Katni,"Gole Bazar, Katni - MPPCB",06-12-2025 07:00:00,23.50016,80.23284,PM2.5,28,178,90
India,Madhya Pradesh,Katni,"Gole Bazar, Katni - MPPCB",06-12-2025 07:00:00,23.50016,80.23284,NH3,5,6,5
India,Madhya Pradesh,Katni,"Gole Bazar, Katni - MPPCB",06-12-2025 07:00:00,23.50016,80.23284,CO,22,101,67
India,Madhya Pradesh,Maihar,"Sahilara, Maihar - KJS Cements",06-12-2025 07:00:00,24.2613009,80.7231783,PM10,NA,NA,NA
India,Madhya Pradesh,Maihar,"Sahilara, Maihar - KJS Cements",06-12-2025 07:00:00,24.2613009,80.7231783,NO2,NA,NA,NA
India,Madhya Pradesh,Mandideep,"Sector-D Industrial Area, Mandideep - MPPCB",06-12-2025 07:00:00,23.108440,77.511428,NH3,3,9,8
India,Madhya Pradesh,Mandideep,"Sector-D Industrial Area, Mandideep - MPPCB",06-12-2025 07:00:00,23.108440,77.511428,OZONE,5,82,13
India,Madhya Pradesh,Pithampur,"Sector-2 Industrial Area, Pithampur - MPPCB",06-12-2025 07:00:00,22.624758,75.675238,PM10,82,201,137
India,Madhya Pradesh,Pithampur,"Sector-2 Industrial Area, Pithampur - MPPCB",06-12-2025 07:00:00,22.624758,75.675238,OZONE,28,45,36
India,Kerala,Kannur,"Thavakkara, Kannur - Kerala PCB",06-12-2025 07:00:00,11.875000,75.373200,PM10,51,60,57
India,Kerala,Kannur,"Thavakkara, Kannur - Kerala PCB",06-12-2025 07:00:00,11.875000,75.373200,NO2,12,16,15
India,Kerala,Kollam,"Polayathode, Kollam - Kerala PCB",06-12-2025 07:00:00,8.8787,76.6073,PM10,44,500,105
India,Kerala,Thiruvananthapuram,"Kariavattom, Thiruvananthapuram - Kerala PCB",06-12-2025 07:00:00,8.563700,76.886500,NH3,1,1,1
India,Kerala,Thiruvananthapuram,"Kariavattom, Thiruvananthapuram - Kerala PCB",06-12-2025 07:00:00,8.563700,76.886500,SO2,2,23,8
India,Kerala,Thiruvananthapuram,"Kariavattom, Thiruvananthapuram - Kerala PCB",06-12-2025 07:00:00,8.563700,76.886500,OZONE,36,37,36
India,Kerala,Thiruvananthapuram,"Plammoodu, Thiruvananthapuram - Kerala PCB",06-12-2025 07:00:00,8.5149093,76.9435879,CO,11,27,13
India,Kerala,Thrissur,"Corporation Ground, Thrissur - Kerala PCB",06-12-2025 07:00:00,10.532400,76.215900,SO2,NA,NA,NA
India,Madhya Pradesh,Indore,"Residency Area, Indore - IMC",06-12-2025 07:00:00,22.7084,75.8815,OZONE,11,17,14
India,Madhya Pradesh,Jabalpur,"Govindh Bhavan Colony, Jabalpur - JMC",06-12-2025 07:00:00,23.163174,79.973061,PM10,39,80,55
India,Madhya Pradesh,Jabalpur,"Govindh Bhavan Colony, Jabalpur - JMC",06-12-2025 07:00:00,23.163174,79.973061,CO,36,72,41
India,Madhya Pradesh,Jabalpur,"Govindh Bhavan Colony, Jabalpur - JMC",06-12-2025 07:00:00,23.163174,79.973061,OZONE,8,23,9
India,Madhya Pradesh,Jabalpur,"Gupteshwar, Jabalpur - JMC",06-12-2025 07:00:00,23.142888,79.916147,OZONE,3,102,8
India,Madhya Pradesh,Jabalpur,"Marhatal, Jabalpur - MPPCB",06-12-2025 07:00:00,23.168606,79.932247,OZONE,11,181,42
India,Madhya Pradesh,Jabalpur,"Suhagi, Jabalpur - JMC",06-12-2025 07:00:00,23.218135,79.957770,SO2,7,8,7
India,Karnataka,Kalaburagi,"Lal Bahadur Shastri Nagar, Kalaburagi - KSPCB",06-12-2025 07:00:00,17.321993,76.822628,PM2.5,22,80,47
India,Karnataka,Kalaburagi,"Lal Bahadur Shastri Nagar, Kalaburagi - KSPCB",06-12-2025 07:00:00,17.321993,76.822628,SO2,54,63,59
India,Karnataka,Kalaburagi,"Mahatma Basaveswar Colony, Kalaburgi - KSPCB",06-12-2025 07:00:00,17.336318,76.847397,CO,40,50,44
India,Karnataka,Koppal,"Diwator Nagar, Koppal - KSPCB",06-12-2025 07:00:00,15.347630,76.181767,NO2,29,37,32
India,Karnataka,Koppal,"Diwator Nagar, Koppal - KSPCB",06-12-2025 07:00:00,15.347630,76.181767,NH3,7,7,7
India,Karnataka,Madikeri,"Stuart Hill, Madikeri - KSPCB",06-12-2025 07:00:00,12.415911,75.735050,PM2.5,18,51,35
India,Karnataka,Madikeri,"Stuart Hill, Madikeri - KSPCB",06-12-2025 07:00:00,12.415911,75.735050,PM10,16,65,40
India,Madhya Pradesh,Dewas,"Bhopal Chauraha, Dewas - MPPCB",06-12-2025 07:00:00,22.9682591,76.064118,NH3,2,3,2
India,Madhya Pradesh,Gwalior,"Deen Dayal Nagar, Gwalior - MPPCB",06-12-2025 07:00:00,26.259242,78.216432,PM10,81,308,160
India,Madhya Pradesh,Gwalior,"Maharaj Bada, Gwalior - MPPCB",06-12-2025 07:00:00,26.200388,78.147714,PM2.5,65,352,168
India,Madhya Pradesh,Gwalior,"Maharaj Bada, Gwalior - MPPCB",06-12-2025 07:00:00,26.200388,78.147714,PM10,91,278,142
India,Madhya Pradesh,Gwalior,"Maharaj Bada, Gwalior - MPPCB",06-12-2025 07:00:00,26.200388,78.147714,NO2,27,135,68
India,Madhya Pradesh,Gwalior,"Maharaj Bada, Gwalior - MPPCB",06-12-2025 07:00:00,26.200388,78.147714,CO,1,124,9
India,Karnataka,Mangalore,"Kadri, Mangalore - KSPCB",06-12-2025 07:00:00,12.889250,74.853000,NH3,2,2,2
India,Karnataka,Mysuru,"Hebbal 1st Stage, Mysuru - KSPCB",06-12-2025 07:00:00,12.21041,76.37376,NO2,16,23,20
India,Karnataka,Shivamogga,"Vinoba Nagara, Shivamogga - KSPCB",06-12-2025 07:00:00,13.940000,75.555917,PM2.5,24,26,24
India,Karnataka,Shivamogga,"Vinoba Nagara, Shivamogga - KSPCB",06-12-2025 07:00:00,13.940000,75.555917,NH3,3,3,3
India,Karnataka,Yadgir,"Collector Office, Yadgir - KSPCB",06-12-2025 07:00:00,16.7602,77.1428,SO2,2,99,17
India,Madhya Pradesh,Indore,"Chhoti Gwaltoli, Indore - MPPCB",06-12-2025 07:00:00,22.4310,75.5213,OZONE,27,84,47
India,Madhya Pradesh,Indore,"Maguda Nagar, Indore - IMC",06-12-2025 07:00:00,22.7524,75.8872,PM2.5,52,88,72
India,Madhya Pradesh,Indore,"Maguda Nagar, Indore - IMC",06-12-2025 07:00:00,22.7524,75.8872,CO,24,29,27
India,Madhya Pradesh,Indore,"Regional Park, Indore - IMC",06-12-2025 07:00:00,22.6780,75.8559,SO2,26,34,30
India,Madhya Pradesh,Indore,"Residency Area, Indore - IMC",06-12-2025 07:00:00,22.7084,75.8815,PM10,39,72,54
India,Madhya Pradesh,Sagar,"Civil Lines, Sagar - MPPCB",06-12-2025 07:00:00,23.838586,78.759431,SO2,6,28,11
India,Madhya Pradesh,Sagar,"Deen Dayal Nagar, Sagar - MPPCB",06-12-2025 07:00:00,23.8640158,78.80289321,PM2.5,14,123,68
India,Madhya Pradesh,Sagar,"Deen Dayal Nagar, Sagar - MPPCB",06-12-2025 07:00:00,23.8640158,78.80289321,CO,46,69,63
India,Madhya Pradesh,Satna,"Bandhavgar Colony, Satna - Birla Cement",06-12-2025 07:00:00,24.58434363,80.8549414,NO2,12,13,12
India,Madhya Pradesh,Bhopal,"Idgah Hills, Bhopal - MPPCB",06-12-2025 07:00:00,23.264759,77.381568,NO2,14,49,27
India,Madhya Pradesh,Bhopal,"Paryavaran Parisar, Bhopal - MPPCB",06-12-2025 07:00:00,23.210494,77.425409,PM2.5,62,327,166
India,Madhya Pradesh,Dewas,"Bhopal Chauraha, Dewas - MPPCB",06-12-2025 07:00:00,22.9682591,76.064118,NO2,7,8,7
India,Madhya Pradesh,Singrauli,"Suryakiran Bhawan NCL, Singrauli - MPPCB",06-12-2025 07:00:00,24.108970,82.645580,SO2,18,26,23
India,Madhya Pradesh,Singrauli,"Suryakiran Bhawan NCL, Singrauli - MPPCB",06-12-2025 07:00:00,24.108970,82.645580,OZONE,1,31,2
India,Maharashtra,Ahmednagar,"Tarakpur, Ahmednagar - MPCB",06-12-2025 07:00:00,19.10122,74.73339,NH3,2,38,11
India,Maharashtra,Ahmednagar,"Tarakpur, Ahmednagar - MPCB",06-12-2025 07:00:00,19.10122,74.73339,OZONE,7,129,61
India,Maharashtra,Akola,"Ramdaspeth, Akola - MPCB",06-12-2025 07:00:00,20.719516,77.000253,PM10,NA,NA,NA
India,Maharashtra,Akola,"Ramdaspeth, Akola - MPCB",06-12-2025 07:00:00,20.719516,77.000253,OZONE,5,65,11
India,Maharashtra,Amravati,"Shri Shivaji Science College, Amravati - MPCB",06-12-2025 07:00:00,20.939198,77.765701,NO2,9,85,27
India,Maharashtra,Amravati,"Shri Shivaji Science College, Amravati - MPCB",06-12-2025 07:00:00,20.939198,77.765701,NH3,1,14,4
India,Maharashtra,Kalyan,"Pimpleshwar Mandir, Kalyan - MPCB",06-12-2025 07:00:00,19.192056,72.9585188,CO,44,46,45
India,Maharashtra,Kolhapur,"Shivaji University, Kolhapur - MPCB",06-12-2025 07:00:00,16.6870449,74.2505872,NO2,10,55,31
India,Maharashtra,Kolhapur,"Shivaji University, Kolhapur - MPCB",06-12-2025 07:00:00,16.6870449,74.2505872,NH3,3,4,3
India,Maharashtra,Kolhapur,"Sinchan Bhavan, Kolhapur - MPCB",06-12-2025 07:00:00,16.7143745,74.2426398,SO2,1,4,2
India,Maharashtra,Latur,"Sawe Wadi, Latur - MPCB",06-12-2025 07:00:00,18.39963,76.57452,PM10,71,101,84
India,Maharashtra,Latur,"Sawe Wadi, Latur - MPCB",06-12-2025 07:00:00,18.39963,76.57452,NO2,14,36,23
India,Maharashtra,Mumbai,"Ghatkopar, Mumbai - BMC",06-12-2025 07:00:00,19.083694,72.920967,NO2,24,81,48
India,Maharashtra,Mumbai,"Ghatkopar, Mumbai - BMC",06-12-2025 07:00:00,19.083694,72.920967,OZONE,3,173,16
India,Maharashtra,Mumbai,"Kandivali West, Mumbai - BMC",06-12-2025 07:00:00,19.215859,72.831718,SO2,7,18,14
India,Maharashtra,Mumbai,"Kherwadi_Bandra East, Mumbai - MPCB",06-12-2025 07:00:00,19.0632143,72.8456324,SO2,3,4,4
India,Maharashtra,Mumbai,"Khindipada-Bhandup West, Mumbai - IITM",06-12-2025 07:00:00,19.1653323,72.922099,PM10,82,162,114
India,Maharashtra,Mumbai,"Khindipada-Bhandup West, Mumbai - IITM",06-12-2025 07:00:00,19.1653323,72.922099,SO2,7,19,13
India,Maharashtra,Belapur,"CBD Belapur, Belapur - MPCB",06-12-2025 07:00:00,19.0243902,73.0406721,SO2,18,29,23
India,Maharashtra,Bhiwandi,"Gokul Nagar, Bhiwandi - MPCB",06-12-2025 07:00:00,19.309073,73.057223,PM10,90,150,126
India,Maharashtra,Bhiwandi,"Gokul Nagar, Bhiwandi - MPCB",06-12-2025 07:00:00,19.309073,73.057223,OZONE,13,128,15
India,Maharashtra,Chandrapur,"Chauhan Colony, Chandrapur - MPCB",06-12-2025 07:00:00,19.962900,79.298714,PM2.5,21,57,36
India,Maharashtra,Chandrapur,"Chauhan Colony, Chandrapur - MPCB",06-12-2025 07:00:00,19.962900,79.298714,OZONE,22,22,22
India,Maharashtra,Mumbai,"Chakala-Andheri East, Mumbai - IITM",06-12-2025 07:00:00,19.11074,72.86084,PM2.5,94,136,110
India,Maharashtra,Mumbai,"Chembur, Mumbai - MPCB",06-12-2025 07:00:00,19.0364585,72.8954371,NH3,1,3,1
India,Maharashtra,Mumbai,"Chembur, Mumbai - MPCB",06-12-2025 07:00:00,19.0364585,72.8954371,CO,32,66,47
India,Maharashtra,Mumbai,"Chhatrapati Shivaji Intl. Airport (T2), Mumbai - MPCB",06-12-2025 07:00:00,19.10078,72.87462,NH3,NA,NA,NA
India,Maharashtra,Mumbai,"Chhatrapati Shivaji Intl. Airport (T2), Mumbai - MPCB",06-12-2025 07:00:00,19.10078,72.87462,SO2,NA,NA,NA
India,Maharashtra,Aurangabad,"MIDC Chilkalthana, Aurangabad - MPCB",06-12-2025 07:00:00,19.875620,75.387310,OZONE,NA,NA,NA
India,Maharashtra,Aurangabad,"More Chowk Waluj, Aurangabad - MPCB",06-12-2025 07:00:00,19.8389439,75.244448,PM2.5,62,160,102
India,Maharashtra,Aurangabad,"More Chowk Waluj, Aurangabad - MPCB",06-12-2025 07:00:00,19.8389439,75.244448,OZONE,26,29,27
India,Maharashtra,Aurangabad,"Rachnakar Colony, Aurangabad - MPCB",06-12-2025 07:00:00,19.863756,75.321188,NH3,1,5,3
India,Maharashtra,Mumbai,"Bandra Kurla Complex, Mumbai - IITM",06-12-2025 07:00:00,19.053536,72.84643,CO,16,16,16
India,Maharashtra,Mumbai,"Bandra Kurla Complex, Mumbai - MPCB",06-12-2025 07:00:00,19.065931,72.862131,PM2.5,72,243,126
India,Maharashtra,Mumbai,"Byculla, Mumbai - BMC",06-12-2025 07:00:00,18.9767,72.8380,PM2.5,101,162,126
India,Maharashtra,Mumbai,"Byculla, Mumbai - BMC",06-12-2025 07:00:00,18.9767,72.8380,CO,35,111,61
India,Maharashtra,Dhule,"Deopur, Dhule - MPCB",06-12-2025 07:00:00,20.918946,74.776388,PM10,99,184,131
India,Maharashtra,Jalna,"Old MIDC, Jalna - MPCB",06-12-2025 07:00:00,19.854616,75.905894,PM10,61,96,79
India,Maharashtra,Kalyan,"Khadakpada, Kalyan - MPCB",06-12-2025 07:00:00,19.25292,73.142019,PM10,80,140,113
India,Maharashtra,Kalyan,"Khadakpada, Kalyan - MPCB",06-12-2025 07:00:00,19.25292,73.142019,NH3,1,1,1
India,Maharashtra,Malegaon,"Mahesh Nagar, Malegaon - MPCB",06-12-2025 07:00:00,20.555712,74.529236,NH3,1,7,1
India,Maharashtra,Malegaon,"Mahesh Nagar, Malegaon - MPCB",06-12-2025 07:00:00,20.555712,74.529236,OZONE,3,72,22
India,Maharashtra,Mira-Bhayandar,"Bhayandar West, Mira-Bhayandar - MPCB",06-12-2025 07:00:00,19.296481,72.840923,NO2,19,86,47
India,Maharashtra,Mira-Bhayandar,"Bhayandar West, Mira-Bhayandar - MPCB",06-12-2025 07:00:00,19.296481,72.840923,SO2,2,5,3
India,Maharashtra,Nagpur,"Ram Nagar, Nagpur - MPCB",06-12-2025 07:00:00,21.143383,79.048912,NH3,2,8,4
India,Maharashtra,Nagpur,"Ram Nagar, Nagpur - MPCB",06-12-2025 07:00:00,21.143383,79.048912,CO,16,56,27
India,Maharashtra,Nagpur,"Ram Nagar, Nagpur - MPCB",06-12-2025 07:00:00,21.143383,79.048912,OZONE,6,69,19
India,Maharashtra,Nanded,"Sneh Nagar, Nanded - MPCB",06-12-2025 07:00:00,19.173852,77.296291,PM2.5,66,95,80
India,Maharashtra,Nanded,"Sneh Nagar, Nanded - MPCB",06-12-2025 07:00:00,19.173852,77.296291,NO2,NA,NA,NA
India,Maharashtra,Nanded,"Sneh Nagar, Nanded - MPCB",06-12-2025 07:00:00,19.173852,77.296291,NH3,3,5,4
India,Maharashtra,Nanded,"Sneh Nagar, Nanded - MPCB",06-12-2025 07:00:00,19.173852,77.296291,SO2,1,2,2
India,Maharashtra,Nashik,"Gangapur Road, Nashik - MPCB",06-12-2025 07:00:00,20.0073285,73.7762427,PM2.5,53,257,114
India,Maharashtra,Nashik,"Hirawadi, Nashik - MPCB",06-12-2025 07:00:00,20.021503,73.813844,PM2.5,92,130,105
India,Maharashtra,Mumbai,"Siddharth Nagar-Worli, Mumbai - IITM",06-12-2025 07:00:00,19.000083,72.813993,PM2.5,156,199,174
India,Maharashtra,Mumbai,"Siddharth Nagar-Worli, Mumbai - IITM",06-12-2025 07:00:00,19.000083,72.813993,NO2,44,111,81
India,Maharashtra,Mumbai,"Sion, Mumbai - MPCB",06-12-2025 07:00:00,19.047000,72.874600,CO,9,15,14
India,Maharashtra,Mumbai,"Sion, Mumbai - MPCB",06-12-2025 07:00:00,19.047000,72.874600,OZONE,7,12,11
India,Maharashtra,Mumbai,"Vile Parle West, Mumbai - MPCB",06-12-2025 07:00:00,19.10861,72.83622,OZONE,6,27,26
India,Maharashtra,Mumbai,"Worli, Mumbai - MPCB",06-12-2025 07:00:00,18.9936162,72.8128113,PM2.5,53,103,84
India,Maharashtra,Mumbai,"Worli, Mumbai - MPCB",06-12-2025 07:00:00,18.9936162,72.8128113,PM10,NA,NA,NA
India,Maharashtra,Mumbai,"Worli, Mumbai - MPCB",06-12-2025 07:00:00,18.9936162,72.8128113,SO2,17,25,21
India,Maharashtra,Mumbai,"Worli, Mumbai - MPCB",06-12-2025 07:00:00,18.9936162,72.8128113,OZONE,20,20,20
India,Maharashtra,Nagpur,"Ambazari, Nagpur - MPCB",06-12-2025 07:00:00,21.121801,79.04952,PM10,96,128,110
India,Maharashtra,Nagpur,"Ambazari, Nagpur - MPCB",06-12-2025 07:00:00,21.121801,79.04952,NO2,16,92,36
India,Maharashtra,Nagpur,"Ambazari, Nagpur - MPCB",06-12-2025 07:00:00,21.121801,79.04952,SO2,16,95,36
India,Maharashtra,Nagpur,"Mahal, Nagpur - MPCB",06-12-2025 07:00:00,21.14472,79.107595,PM2.5,80,138,103
India,Maharashtra,Nagpur,"Mahal, Nagpur - MPCB",06-12-2025 07:00:00,21.14472,79.107595,SO2,2,15,8
India,Maharashtra,Nagpur,"Opp GPO Civil Lines, Nagpur - MPCB",06-12-2025 07:00:00,21.152875,79.0517531,OZONE,2,57,10
India,Maharashtra,Nagpur,"Ram Nagar, Nagpur - MPCB",06-12-2025 07:00:00,21.143383,79.048912,PM10,101,142,112
India,Maharashtra,Mumbai,"Mulund West, Mumbai - MPCB",06-12-2025 07:00:00,19.1750,72.9419,NH3,3,4,4
India,Maharashtra,Mumbai,"Navy Nagar-Colaba, Mumbai - IITM",06-12-2025 07:00:00,18.897756,72.813320,PM10,86,142,119
India,Maharashtra,Mumbai,"Powai, Mumbai - MPCB",06-12-2025 07:00:00,19.137500,72.915056,PM10,55,98,76
India,Maharashtra,Mumbai,"Sewri, Mumbai - BMC",06-12-2025 07:00:00,19.000084,72.856730,PM10,57,73,63
India,Maharashtra,Mumbai,"Sewri, Mumbai - BMC",06-12-2025 07:00:00,19.000084,72.856730,OZONE,84,180,146
India,Maharashtra,Mumbai,"Shivaji Nagar, Mumbai - BMC",06-12-2025 07:00:00,19.060498,72.923356,SO2,5,34,20
India,Maharashtra,Navi Mumbai,"Tondare-Taloja, Navi Mumbai - MPCB",06-12-2025 07:00:00,19.0630,73.1209,OZONE,21,25,21
India,Maharashtra,Parbhani,"Masoom Colony, Parbhani - MPCB",06-12-2025 07:00:00,19.265594,76.761463,PM2.5,61,99,80
India,Maharashtra,Parbhani,"Masoom Colony, Parbhani - MPCB",06-12-2025 07:00:00,19.265594,76.761463,OZONE,10,10,10
India,Maharashtra,Pimpri-Chinchwad,"Gavalinagar, Pimpri Chinchwad - MPCB",06-12-2025 07:00:00,18.63673,73.82487,NO2,30,116,61
India,Maharashtra,Pimpri-Chinchwad,"Park Street Wakad, Pimpri Chinchwad - MPCB",06-12-2025 07:00:00,18.59051,73.77946,PM10,108,168,137
India,Maharashtra,Pune,"Bhumkar Nagar, Pune - IITM",06-12-2025 07:00:00,18.605770,73.749976,PM2.5,132,430,225
India,Maharashtra,Pune,"Bhumkar Nagar, Pune - IITM",06-12-2025 07:00:00,18.605770,73.749976,CO,38,114,61
India,Maharashtra,Pune,"Hadapsar, Pune - IITM",06-12-2025 07:00:00,18.501793,73.927532,PM10,97,232,148
India,Maharashtra,Pune,"Katraj Dairy, Pune - MPCB",06-12-2025 07:00:00,18.454450,73.854155,NO2,23,66,42
India,Maharashtra,Pune,"Mhada Colony, Pune - IITM",06-12-2025 07:00:00,18.573040,73.927715,PM2.5,199,330,285
India,Maharashtra,Pune,"Mhada Colony, Pune - IITM",06-12-2025 07:00:00,18.573040,73.927715,CO,24,103,58
India,Maharashtra,Nashik,"Hirawadi, Nashik - MPCB",06-12-2025 07:00:00,20.021503,73.813844,OZONE,10,80,40
India,Maharashtra,Nashik,"MIDC Ambad, Nashik - MPCB",06-12-2025 07:00:00,19.950220,73.731480,OZONE,21,93,41
India,Maharashtra,Nashik,"Pandav Nagari, Nashik - MPCB",06-12-2025 07:00:00,19.9591346,73.7788008,NO2,14,22,19
India,Maharashtra,Nashik,"Pandav Nagari, Nashik - MPCB",06-12-2025 07:00:00,19.9591346,73.7788008,OZONE,31,80,38
India,Maharashtra,Navi Mumbai,"Mahape, Navi Mumbai - MPCB",06-12-2025 07:00:00,19.1135051,73.008978,PM2.5,NA,NA,NA
India,Maharashtra,Navi Mumbai,"Mahape, Navi Mumbai - MPCB",06-12-2025 07:00:00,19.1135051,73.008978,SO2,NA,NA,NA
India,Maharashtra,Navi Mumbai,"Sector-2E Kalamboli, Navi Mumbai - MPCB",06-12-2025 07:00:00,19.02579,73.10297,NH3,6,17,10
India,Maharashtra,Navi Mumbai,"Tondare-Taloja, Navi Mumbai - MPCB",06-12-2025 07:00:00,19.0630,73.1209,NO2,18,28,25
India,Maharashtra,Mumbai,"Mindspace-Malad West, Mumbai - MPCB",06-12-2025 07:00:00,19.1878657,72.8304069,PM10,78,111,97
India,Maharashtra,Mumbai,"Mulund West, Mumbai - MPCB",06-12-2025 07:00:00,19.1750,72.9419,NO2,16,18,17
India,Maharashtra,Solapur,"Dnyaneshwar Nagar, Solapur - MPCB",06-12-2025 07:00:00,17.6336264,75.9132495,OZONE,26,115,94
India,Maharashtra,Solapur,"Ratandeep Housing Society, Solapur - MPCB",06-12-2025 07:00:00,17.65439,75.90649,OZONE,2,61,52
India,Maharashtra,Thane,"Kasarvadavali, Thane - MPCB",06-12-2025 07:00:00,19.26777,72.97182,PM2.5,74,184,119
India,Maharashtra,Thane,"Kasarvadavali, Thane - MPCB",06-12-2025 07:00:00,19.26777,72.97182,NH3,2,30,7
India,Maharashtra,Thane,"Upvan Fort, Thane - MPCB",06-12-2025 07:00:00,19.222279,72.957979,PM2.5,52,116,75
India,Maharashtra,Thane,"Upvan Fort, Thane - MPCB",06-12-2025 07:00:00,19.222279,72.957979,PM10,66,108,84
India,Maharashtra,Thane,"Upvan Fort, Thane - MPCB",06-12-2025 07:00:00,19.222279,72.957979,NO2,17,102,34
India,Maharashtra,Thane,"Upvan Fort, Thane - MPCB",06-12-2025 07:00:00,19.222279,72.957979,NH3,3,3,3
India,Maharashtra,Thane,"Upvan Fort, Thane - MPCB",06-12-2025 07:00:00,19.222279,72.957979,CO,7,26,15
India,Maharashtra,Ulhasnagar,"Sidhi Vinayak Nagar, Ulhasnagar - MPCB",06-12-2025 07:00:00,19.235581,73.159121,PM2.5,70,127,91
India,Maharashtra,Ulhasnagar,"Sidhi Vinayak Nagar, Ulhasnagar - MPCB",06-12-2025 07:00:00,19.235581,73.159121,SO2,3,41,10
India,Maharashtra,Ulhasnagar,"Sidhi Vinayak Nagar, Ulhasnagar - MPCB",06-12-2025 07:00:00,19.235581,73.159121,CO,16,58,24
India,Maharashtra,Ulhasnagar,"Sidhi Vinayak Nagar, Ulhasnagar - MPCB",06-12-2025 07:00:00,19.235581,73.159121,OZONE,10,100,12
India,Maharashtra,Virar,"Bolinj, Virar - MPCB",06-12-2025 07:00:00,19.4458210,72.7988231,NH3,9,9,9
India,Maharashtra,Virar,"Bolinj, Virar - MPCB",06-12-2025 07:00:00,19.4458210,72.7988231,SO2,NA,NA,NA
India,Meghalaya,Shillong,"JN Stadium, Shillong - Meghalaya PCB",06-12-2025 07:00:00,25.5803419,91.8942571,SO2,10,24,17
India,Meghalaya,Shillong,"JN Stadium, Shillong - Meghalaya PCB",06-12-2025 07:00:00,25.5803419,91.8942571,CO,11,84,39
India,Mizoram,Aizawl,"Sikulpuikawn, Aizawl - Mizoram PCB",06-12-2025 07:00:00,23.7176342,92.7192841,PM2.5,36,40,38
India,Odisha,Talcher,"Talcher Coalfields,Talcher - OSPCB",06-12-2025 07:00:00,20.9360711,85.1707021,OZONE,10,22,12
India,Puducherry,Puducherry,"Jawahar Nagar, Puducherry - PPCC",06-12-2025 07:00:00,11.9309,79.8027,PM10,27,113,88
India,Puducherry,Puducherry,"Jawahar Nagar, Puducherry - PPCC",06-12-2025 07:00:00,11.9309,79.8027,NO2,7,46,18
India,Punjab,Amritsar,"Golden Temple, Amritsar - PPCB",06-12-2025 07:00:00,31.620000,74.876512,PM10,34,152,83
India,Punjab,Amritsar,"Golden Temple, Amritsar - PPCB",06-12-2025 07:00:00,31.620000,74.876512,NO2,6,10,8
India,Punjab,Amritsar,"Golden Temple, Amritsar - PPCB",06-12-2025 07:00:00,31.620000,74.876512,NH3,5,6,6
India,Punjab,Amritsar,"Golden Temple, Amritsar - PPCB",06-12-2025 07:00:00,31.620000,74.876512,CO,30,106,35
India,Punjab,Bathinda,"Hardev Nagar, Bathinda - PPCB",06-12-2025 07:00:00,30.233011,74.907758,PM2.5,27,89,51
India,Odisha,Baripada,"Meher Colony, Baripada - OSPCB",06-12-2025 07:00:00,21.941841,86.728318,PM10,91,155,129
India,Odisha,Baripada,"Meher Colony, Baripada - OSPCB",06-12-2025 07:00:00,21.941841,86.728318,CO,100,113,102
India,Odisha,Bhubaneswar,"Lingraj Mandir, Bhubaneswar - OSPCB",06-12-2025 07:00:00,20.240790,85.836784,CO,NA,NA,NA
India,Odisha,Bhubaneswar,"Patia, Bhubaneswar - OSPCB",06-12-2025 07:00:00,20.34652,85.81630,NO2,19,110,44
India,Odisha,Bhubaneswar,"Patia, Bhubaneswar - OSPCB",06-12-2025 07:00:00,20.34652,85.81630,OZONE,4,154,22
India,Odisha,Brajrajnagar,"GM Office, Brajrajnagar - OSPCB",06-12-2025 07:00:00,21.8004996,83.8396977,PM10,53,430,122
India,Odisha,Brajrajnagar,"GM Office, Brajrajnagar - OSPCB",06-12-2025 07:00:00,21.8004996,83.8396977,NO2,13,168,67
India,Odisha,Brajrajnagar,"GM Office, Brajrajnagar - OSPCB",06-12-2025 07:00:00,21.8004996,83.8396977,NH3,10,11,11
India,Odisha,Brajrajnagar,"GM Office, Brajrajnagar - OSPCB",06-12-2025 07:00:00,21.8004996,83.8396977,SO2,17,25,18
India,Odisha,Byasanagar,"Ferro Chrome Colony, Byasanagar - OSPCB",06-12-2025 07:00:00,20.94185,86.11510,PM2.5,92,273,166
India,Odisha,Byasanagar,"Ferro Chrome Colony, Byasanagar - OSPCB",06-12-2025 07:00:00,20.94185,86.11510,NH3,2,3,2
India,Odisha,Cuttack,"CDA Area, Cuttack - OSPCB",06-12-2025 07:00:00,20.48891     ,85.84768     ,PM10,98,262,166
India,Odisha,Keonjhar,"Jagamohanpur, Keonjhar - OSPCB",06-12-2025 07:00:00,21.643900,85.599355,SO2,14,41,21
India,Odisha,Nayagarh,"Dabuna, Nayagarh - OSPCB",06-12-2025 07:00:00,21.847279,85.416905,PM10,65,98,86
India,Odisha,Nayagarh,"Dabuna, Nayagarh - OSPCB",06-12-2025 07:00:00,21.847279,85.416905,NH3,6,7,6
India,Punjab,Jalandhar,"Civil Line, Jalandhar - PPCB",06-12-2025 07:00:00,31.321907,75.578914,NO2,32,36,34
India,Punjab,Jalandhar,"Civil Line, Jalandhar - PPCB",06-12-2025 07:00:00,31.321907,75.578914,NH3,1,4,3
India,Punjab,Jalandhar,"Civil Line, Jalandhar - PPCB",06-12-2025 07:00:00,31.321907,75.578914,CO,50,60,52
India,Punjab,Khanna,"Kalal Majra, Khanna - PPCB",06-12-2025 07:00:00,30.736056 ,76.209694,PM2.5,92,235,164
India,Punjab,Khanna,"Kalal Majra, Khanna - PPCB",06-12-2025 07:00:00,30.736056 ,76.209694,NO2,26,30,28
India,Punjab,Ludhiana,"Punjab Agricultural University, Ludhiana - PPCB",06-12-2025 07:00:00,30.9028,75.8086,PM10,128,147,133
India,Punjab,Mandi Gobindgarh,"RIMT University, Mandi Gobindgarh - PPCB",06-12-2025 07:00:00,30.649961,76.331442,PM2.5,94,324,209
India,Nagaland,Kohima,"PWD Junction, Kohima - NPCB",06-12-2025 07:00:00,25.6635413,94.0989878,NO2,3,4,3
India,Nagaland,Kohima,"PWD Junction, Kohima - NPCB",06-12-2025 07:00:00,25.6635413,94.0989878,CO,4,18,5
India,Odisha,Angul,"Hakimapada, Angul - OSPCB",06-12-2025 07:00:00,20.832874,85.104082,SO2,6,45,14
India,Odisha,Balasore,"Kalidaspur, Balasore - OSPCB",06-12-2025 07:00:00,21.51161,86.89088,PM10,111,380,147
India,Odisha,Balasore,"Kalidaspur, Balasore - OSPCB",06-12-2025 07:00:00,21.51161,86.89088,NH3,1,3,2
India,Odisha,Barbil,"Forest Office, Barbil - OSPCB",06-12-2025 07:00:00,22.1166054,85.3945546,NH3,1,2,2
India,Odisha,Barbil,"Forest Office, Barbil - OSPCB",06-12-2025 07:00:00,22.1166054,85.3945546,SO2,4,39,11
India,Odisha,Rairangpur,"Divisional Forest Office, Rairangpur - OSPCB",06-12-2025 07:00:00,22.265816,86.174829,NH3,1,1,1
India,Odisha,Rourkela,"Sector-2, Rourkela - OSPCB",06-12-2025 07:00:00,22.24500000,84.88111111,CO,33,67,38
India,Odisha,Suakati,"OMC Colony, Suakati - OSPCB",06-12-2025 07:00:00,21.606865,85.510538,PM2.5,NA,NA,NA
India,Odisha,Talcher,"Talcher Coalfields,Talcher - OSPCB",06-12-2025 07:00:00,20.9360711,85.1707021,NO2,66,102,81
India,Maharashtra,Pune,"Savitribai Phule Pune University, Pune - MPCB",06-12-2025 07:00:00,18.547056,73.826908,PM10,69,135,108
India,Maharashtra,Pune,"Transport Nagar-Nigdi, Pune - IITM",06-12-2025 07:00:00,18.664282,73.763966,PM10,128,207,160
India,Maharashtra,Sangli,"Vijay Nagar, Sangli - MPCB",06-12-2025 07:00:00, 16.5038,74.3623,PM10,142,183,160
India,Maharashtra,Sangli,"Vijay Nagar, Sangli - MPCB",06-12-2025 07:00:00, 16.5038,74.3623,OZONE,10,46,32
India,Rajasthan,Jhunjhunu,"Indra Nagar, Jhunjhunu - RSPCB",06-12-2025 07:00:00,28.108988,75.386577,NO2,19,154,71
India,Rajasthan,Jodhpur,"Collectorate, Jodhpur - RSPCB",06-12-2025 07:00:00,26.268249,73.0193853,NH3,5,18,10
India,Rajasthan,Jodhpur,"Digari Kalan, Jodhpur - RSPCB",06-12-2025 07:00:00,26.295810,73.082283,NH3,4,8,6
India,Rajasthan,Jodhpur,"Jhalamand, Jodhpur - RSPCB",06-12-2025 07:00:00,26.215415,73.070156,NO2,11,94,37
India,Rajasthan,Jodhpur,"Jhalamand, Jodhpur - RSPCB",06-12-2025 07:00:00,26.215415,73.070156,NH3,4,10,7
India,Rajasthan,Jodhpur,"Jhalamand, Jodhpur - RSPCB",06-12-2025 07:00:00,26.215415,73.070156,SO2,4,15,7
India,Rajasthan,Jodhpur,"Jhalamand, Jodhpur - RSPCB",06-12-2025 07:00:00,26.215415,73.070156,CO,17,50,23
India,Rajasthan,Jodhpur,"Mandor, Jodhpur - RSPCB",06-12-2025 07:00:00,26.358805,73.047444,PM2.5,47,78,58
India,Rajasthan,Jodhpur,"Mandor, Jodhpur - RSPCB",06-12-2025 07:00:00,26.358805,73.047444,NO2,11,48,21
India,Rajasthan,Jodhpur,"Samrat Ashok Udhyan, Jodhpur - RSPCB",06-12-2025 07:00:00,26.253384,72.976571,PM10,65,388,142
India,Rajasthan,Jodhpur,"Samrat Ashok Udhyan, Jodhpur - RSPCB",06-12-2025 07:00:00,26.253384,72.976571,NO2,16,137,49
India,Rajasthan,Jodhpur,"Samrat Ashok Udhyan, Jodhpur - RSPCB",06-12-2025 07:00:00,26.253384,72.976571,CO,28,90,38
India,Rajasthan,Karauli,"Satyawati Vihar, Karauli - RSPCB",06-12-2025 07:00:00,26.506177,77.025989,NO2,19,97,39
India,Rajasthan,Karauli,"Satyawati Vihar, Karauli - RSPCB",06-12-2025 07:00:00,26.506177,77.025989,OZONE,4,87,8
India,Rajasthan,Kota,"Dhanmandi, Kota - RSPCB",06-12-2025 07:00:00,25.164090,75.858137,NO2,21,116,61
India,Rajasthan,Kota,"Dhanmandi, Kota - RSPCB",06-12-2025 07:00:00,25.164090,75.858137,SO2,1,124,17
India,Rajasthan,Kota,"Dhanmandi, Kota - RSPCB",06-12-2025 07:00:00,25.164090,75.858137,OZONE,8,157,8
India,Rajasthan,Kota,"Nayapura, Kota - RSPCB",06-12-2025 07:00:00,25.196024,75.855668,PM2.5,48,311,152
India,Rajasthan,Bhilwara,"Pratap Nagar, Bhilwara - RSPCB",06-12-2025 07:00:00,25.339605,74.618883,PM2.5,60,287,140
India,Rajasthan,Bhilwara,"Pratap Nagar, Bhilwara - RSPCB",06-12-2025 07:00:00,25.339605,74.618883,PM10,68,176,117
India,Rajasthan,Bhilwara,"Pratap Nagar, Bhilwara - RSPCB",06-12-2025 07:00:00,25.339605,74.618883,NH3,8,16,11
India,Rajasthan,Bhilwara,"Pratap Nagar, Bhilwara - RSPCB",06-12-2025 07:00:00,25.339605,74.618883,OZONE,2,45,5
India,Rajasthan,Bhiwadi,"RIICO Ind. Area III, Bhiwadi - RSPCB",06-12-2025 07:00:00,28.194909,76.862296,PM2.5,63,367,276
India,Rajasthan,Bhiwadi,"RIICO Ind. Area III, Bhiwadi - RSPCB",06-12-2025 07:00:00,28.194909,76.862296,NO2,18,76,48
India,Rajasthan,Bhiwadi,"RIICO Ind. Area III, Bhiwadi - RSPCB",06-12-2025 07:00:00,28.194909,76.862296,CO,6,82,69
India,Rajasthan,Bhiwadi,"RIICO Ind. Area III, Bhiwadi - RSPCB",06-12-2025 07:00:00,28.194909,76.862296,OZONE,5,46,7
India,Rajasthan,Bhiwadi,"Vasundhara Nagar_UIT, Bhiwadi - RSPCB",06-12-2025 07:00:00,28.207266,76.829265,PM2.5,183,429,334
India,Rajasthan,Bikaner,"MM Ground, Bikaner - RSPCB",06-12-2025 07:00:00,28.018792,73.292658,CO,22,176,40
India,Rajasthan,Bundi,"New Colony, Bundi - RSPCB",06-12-2025 07:00:00,25.435774,75.644272,PM10,75,239,120
India,Rajasthan,Bundi,"New Colony, Bundi - RSPCB",06-12-2025 07:00:00,25.435774,75.644272,NO2,10,61,25
India,Rajasthan,Churu,"Subash Chowk, Churu - RSPCB",06-12-2025 07:00:00,28.296139,74.961696,NO2,14,113,57
India,Rajasthan,Churu,"Subash Chowk, Churu - RSPCB",06-12-2025 07:00:00,28.296139,74.961696,CO,2,115,40
India,Rajasthan,Churu,"Subash Chowk, Churu - RSPCB",06-12-2025 07:00:00,28.296139,74.961696,OZONE,5,187,9
India,Rajasthan,Dausa,"Khatikan Mohalla, Dausa - RSPCB",06-12-2025 07:00:00,26.895552,76.334753,PM2.5,35,277,89
India,Rajasthan,Alwar,"Moti Doongri, Alwar - RSPCB",06-12-2025 07:00:00,27.554793,76.611536,OZONE,15,51,18
India,Rajasthan,Banswara,"Rati Talai, Banswara - RSPCB",06-12-2025 07:00:00,23.555190,74.440010,OZONE,33,142,66
India,Rajasthan,Baran,"Bamboliya, Baran - RSPCB",06-12-2025 07:00:00,25.106006,76.469948,PM2.5,8,98,68
India,Rajasthan,Baran,"Bamboliya, Baran - RSPCB",06-12-2025 07:00:00,25.106006,76.469948,PM10,89,143,113
India,Rajasthan,Barmer,"Railway Colony, Barmer - RSPCB",06-12-2025 07:00:00,25.747299,71.393989,OZONE,5,89,58
India,Rajasthan,Bharatpur,"Krishna Nagar, Bharatpur - RSPCB",06-12-2025 07:00:00,27.215415,77.50873,NH3,10,18,13
India,Punjab,Patiala,"Model Town, Patiala - PPCB",06-12-2025 07:00:00,30.349388,76.366642,PM10,104,411,144
India,Punjab,Patiala,"Model Town, Patiala - PPCB",06-12-2025 07:00:00,30.349388,76.366642,NO2,15,19,17
India,Punjab,Patiala,"Model Town, Patiala - PPCB",06-12-2025 07:00:00,30.349388,76.366642,SO2,8,75,27
India,Rajasthan,Ajmer,"Civil Lines,  Ajmer - RSPCB",06-12-2025 07:00:00,26.470859,74.646594,NO2,15,52,22
India,Rajasthan,Alwar,"Moti Doongri, Alwar - RSPCB",06-12-2025 07:00:00,27.554793,76.611536,PM10,70,124,101
India,Rajasthan,Alwar,"Moti Doongri, Alwar - RSPCB",06-12-2025 07:00:00,27.554793,76.611536,NO2,46,74,63
India,Rajasthan,Jaisalmer,"Sadar Bazar, Jaisalmer - RSPCB",06-12-2025 07:00:00,26.912329,70.909168,CO,20,93,27
India,Rajasthan,Jaisalmer,"Sadar Bazar, Jaisalmer - RSPCB",06-12-2025 07:00:00,26.912329,70.909168,OZONE,4,89,53
India,Rajasthan,Jalore,"Mudtra Sili, Jalore - RSPCB",06-12-2025 07:00:00,25.344694,72.626208,SO2,2,9,6
India,Rajasthan,Jhalawar,"Rajlaxmi Nagar, Jhalawar - RSPCB",06-12-2025 07:00:00,24.588397,76.172782,PM10,92,211,128
India,Rajasthan,Dholpur,"Raja Ganj, Dholpur - RSPCB",06-12-2025 07:00:00,26.699557,77.898881,SO2,1,9,5
India,Rajasthan,Hanumangarh,"Housing Board, Hanumangarh - RSPCB",06-12-2025 07:00:00,29.610750,74.283608,OZONE,1,100,23
India,Rajasthan,Jaipur,"Adarsh Nagar, Jaipur - RSPCB",06-12-2025 07:00:00,26.902909,75.836858,NH3,16,53,29
India,Rajasthan,Jaipur,"Police Commissionerate, Jaipur - RSPCB",06-12-2025 07:00:00,26.9164092,75.7994901,NH3,5,39,13
India,Rajasthan,Jaipur,"Sector-2 Murlipura, Jaipur - RSPCB",06-12-2025 07:00:00,26.960669,75.771817,PM2.5,38,315,151
India,Telangana,Hyderabad,"ECIL Kapra, Hyderabad - TSPCB",06-12-2025 07:00:00,17.470431,78.566959,NH3,4,4,4
India,Telangana,Hyderabad,"ECIL Kapra, Hyderabad - TSPCB",06-12-2025 07:00:00,17.470431,78.566959,SO2,8,15,10
India,Telangana,Hyderabad,"ECIL Kapra, Hyderabad - TSPCB",06-12-2025 07:00:00,17.470431,78.566959,OZONE,21,30,23
India,Telangana,Hyderabad,"ICRISAT Patancheru, Hyderabad - TSPCB",06-12-2025 07:00:00,17.518400,78.278777,PM2.5,67,177,132
India,Telangana,Hyderabad,"ICRISAT Patancheru, Hyderabad - TSPCB",06-12-2025 07:00:00,17.518400,78.278777,SO2,14,91,41
India,Telangana,Hyderabad,"ICRISAT Patancheru, Hyderabad - TSPCB",06-12-2025 07:00:00,17.518400,78.278777,CO,19,46,38
India,Telangana,Hyderabad,"IITH Kandi, Hyderabad - TSPCB",06-12-2025 07:00:00,17.585705,78.126199,NO2,10,18,13
India,Telangana,Hyderabad,"IITH Kandi, Hyderabad - TSPCB",06-12-2025 07:00:00,17.585705,78.126199,NH3,3,6,5
India,Telangana,Hyderabad,"IITH Kandi, Hyderabad - TSPCB",06-12-2025 07:00:00,17.585705,78.126199,OZONE,15,27,15
India,Telangana,Hyderabad,"Kompally Municipal Office, Hyderabad - TSPCB",06-12-2025 07:00:00,17.544899,78.486949,PM2.5,47,63,58
India,Telangana,Hyderabad,"Kompally Municipal Office, Hyderabad - TSPCB",06-12-2025 07:00:00,17.544899,78.486949,NO2,11,15,14
India,Telangana,Hyderabad,"Kompally Municipal Office, Hyderabad - TSPCB",06-12-2025 07:00:00,17.544899,78.486949,CO,15,20,18
India,TamilNadu,Madurai,"Uchapatti, Madurai - TNPCB",06-12-2025 07:00:00,9.865935,78.022669,NO2,NA,NA,NA
India,TamilNadu,Madurai,"Uchapatti, Madurai - TNPCB",06-12-2025 07:00:00,9.865935,78.022669,NH3,NA,NA,NA
India,TamilNadu,Madurai,"Uchapatti, Madurai - TNPCB",06-12-2025 07:00:00,9.865935,78.022669,SO2,NA,NA,NA
India,TamilNadu,Madurai,"Uchapatti, Madurai - TNPCB",06-12-2025 07:00:00,9.865935,78.022669,OZONE,NA,NA,NA
India,TamilNadu,Nagapattinam,"Velippalayam, Nagapattinam - TNPCB",06-12-2025 07:00:00,10.798548,79.838212,PM2.5,NA,NA,NA
India,TamilNadu,Nagapattinam,"Velippalayam, Nagapattinam - TNPCB",06-12-2025 07:00:00,10.798548,79.838212,PM10,NA,NA,NA
India,TamilNadu,Nagapattinam,"Velippalayam, Nagapattinam - TNPCB",06-12-2025 07:00:00,10.798548,79.838212,NO2,NA,NA,NA
India,TamilNadu,Ooty,"Bombay Castel, Ooty - TNPCB",06-12-2025 07:00:00,11.4068288,76.7138973,NO2,2,4,3
India,TamilNadu,Ooty,"Bombay Castel, Ooty - TNPCB",06-12-2025 07:00:00,11.4068288,76.7138973,SO2,15,15,15
India,TamilNadu,Perundurai,"SIPCOT Industrial Park, Perundurai - TNPCB",06-12-2025 07:00:00,11.258242,77.552761,NO2,12,14,13
India,Rajasthan,Tonk,"Shastri Nagar, Tonk - RSPCB",06-12-2025 07:00:00,26.159933,75.780517,PM2.5,78,431,216
India,Rajasthan,Tonk,"Shastri Nagar, Tonk - RSPCB",06-12-2025 07:00:00,26.159933,75.780517,NH3,6,13,10
India,Rajasthan,Udaipur,"Ashok Nagar, Udaipur - RSPCB",06-12-2025 07:00:00,24.5886166,73.6321397,PM2.5,81,286,140
India,Sikkim,Gangtok,"Zero Point GICI, Gangtok - SSPCB",06-12-2025 07:00:00,27.338530,88.614099,CO,3,20,5
India,TamilNadu,Ariyalur,"Keelapalur, Ariyalur - TNPCB",06-12-2025 07:00:00,11.06825,79.07033,PM2.5,34,100,68
India,TamilNadu,Ariyalur,"Keelapalur, Ariyalur - TNPCB",06-12-2025 07:00:00,11.06825,79.07033,SO2,13,13,13
India,TamilNadu,Chennai,"Kodungaiyur, Chennai - TNPCB",06-12-2025 07:00:00,13.1278,80.2642,PM2.5,NA,NA,NA
India,TamilNadu,Chennai,"Kodungaiyur, Chennai - TNPCB",06-12-2025 07:00:00,13.1278,80.2642,PM10,NA,NA,NA
India,TamilNadu,Chennai,"Manali, Chennai - CPCB",06-12-2025 07:00:00,13.164544,80.26285,PM10,NA,NA,NA
India,TamilNadu,Chennai,"Perungudi, Chennai - TNPCB",06-12-2025 07:00:00,12.9533,80.2357,NO2,3,10,5
India,TamilNadu,Chennai,"Perungudi, Chennai - TNPCB",06-12-2025 07:00:00,12.9533,80.2357,SO2,2,8,4
India,TamilNadu,Chennai,"Velachery Res. Area, Chennai - CPCB",06-12-2025 07:00:00,13.0052189,80.2398125,PM10,108,135,122
India,TamilNadu,Chennai,"Velachery Res. Area, Chennai - CPCB",06-12-2025 07:00:00,13.0052189,80.2398125,NO2,14,15,14
India,TamilNadu,Coimbatore,"PSG College of Arts and Science, Coimbatore - TNPCB",06-12-2025 07:00:00,11.0328,77.0349,PM2.5,73,209,135
India,Rajasthan,Kota,"Shrinath Puram, Kota - RSPCB",06-12-2025 07:00:00,25.14389,75.821256,NH3,NA,NA,NA
India,Rajasthan,Kota,"Shrinath Puram, Kota - RSPCB",06-12-2025 07:00:00,25.14389,75.821256,OZONE,9,24,17
India,Rajasthan,Nagaur,"Karni Colony, Nagaur - RSPCB",06-12-2025 07:00:00,27.213494,73.734444,NO2,14,69,30
India,Rajasthan,Nagaur,"Karni Colony, Nagaur - RSPCB",06-12-2025 07:00:00,27.213494,73.734444,OZONE,25,77,56
India,Rajasthan,Pali,"Indira Colony Vistar, Pali - RSPCB",06-12-2025 07:00:00,25.771061, 73.340227,OZONE,6,29,7
India,Rajasthan,Pratapgarh,"Pragati Nagar, Pratapgarh - RSPCB",06-12-2025 07:00:00,24.041198,74.780702,NH3,4,14,6
India,Rajasthan,Pratapgarh,"Pragati Nagar, Pratapgarh - RSPCB",06-12-2025 07:00:00,24.041198,74.780702,OZONE,37,158,48
India,TamilNadu,Perundurai,"SIPCOT Industrial Park, Perundurai - TNPCB",06-12-2025 07:00:00,11.258242,77.552761,OZONE,15,18,16
India,TamilNadu,Thanjavur,"Parisutham Nagar, Thanjavur - TNPCB",06-12-2025 07:00:00,10.7654824,79.1389968,NH3,1,1,1
India,TamilNadu,Thoothukudi,"Meelavittan, Thoothukudi - TNPCB",06-12-2025 07:00:00,8.816428 ,78.099039,NO2,8,14,11
India,TamilNadu,Tirunelveli,"Municipal Corporation Office, Tirunelveli - TNPCB",06-12-2025 07:00:00,8.728442,77.6962,OZONE,6,7,6
India,TamilNadu,Tirupur,"Kumaran College, Tirupur - TNPCB",06-12-2025 07:00:00,11.0973603,77.3228673,PM2.5,NA,NA,NA
India,TamilNadu,Coimbatore,"PSG College of Arts and Science, Coimbatore - TNPCB",06-12-2025 07:00:00,11.0328,77.0349,PM10,56,111,87
India,TamilNadu,Coimbatore,"PSG College of Arts and Science, Coimbatore - TNPCB",06-12-2025 07:00:00,11.0328,77.0349,OZONE,4,6,5
India,TamilNadu,Coimbatore,"SIDCO Kurichi, Coimbatore - TNPCB",06-12-2025 07:00:00,10.942451,76.978996,OZONE,16,50,20
India,TamilNadu,Gummidipoondi,"Anthoni Pillai Nagar, Gummidipoondi - TNPCB",06-12-2025 07:00:00,13.4127,80.1081,PM2.5,131,500,242
India,TamilNadu,Karur,"Kamadenu Nagar, Karur - TNPCB",06-12-2025 07:00:00,10.967820,78.080882,PM2.5,27,152,82
India,TamilNadu,Tirupur,"Kumaran College, Tirupur - TNPCB",06-12-2025 07:00:00,11.0973603,77.3228673,SO2,NA,NA,NA
India,TamilNadu,Vellore,"Vasanthapuram, Vellore - TNPCB",06-12-2025 07:00:00,12.909494,79.131861,NO2,NA,NA,NA
India,TamilNadu,Vellore,"Vasanthapuram, Vellore - TNPCB",06-12-2025 07:00:00,12.909494,79.131861,SO2,20,20,20
India,Telangana,Hyderabad,"Bollaram Industrial Area, Hyderabad - TSPCB",06-12-2025 07:00:00,17.540891,78.358528,CO,7,74,21
India,Telangana,Hyderabad,"ECIL Kapra, Hyderabad - TSPCB",06-12-2025 07:00:00,17.470431,78.566959,NO2,16,17,16
India,Rajasthan,Sawai Madhopur,"Sahu Nagar, Sawai Madhopur - RSPCB",06-12-2025 07:00:00,26.031443,76.359327,PM10,60,397,134
India,Rajasthan,Sikar,"Radhakishan Pura, Sikar - RSPCB",06-12-2025 07:00:00,27.608912,75.153302,PM10,86,368,189
India,Rajasthan,Sikar,"Radhakishan Pura, Sikar - RSPCB",06-12-2025 07:00:00,27.608912,75.153302,NH3,6,14,10
India,Rajasthan,Sirohi,"Vedhaynath Colony, Sirohi - RSPCB",06-12-2025 07:00:00,24.885261,72.857549,NH3,1,4,3
India,Uttar_Pradesh,Jhansi,"Shivaji Nagar, Jhansi - UPPCB",06-12-2025 07:00:00,25.4547,78.6039,SO2,13,23,15
India,Uttar_Pradesh,Jhansi,"Shivaji Nagar, Jhansi - UPPCB",06-12-2025 07:00:00,25.4547,78.6039,OZONE,1,5,1
India,Uttar_Pradesh,Kanpur,"FTI Kidwai Nagar, Kanpur - UPPCB",06-12-2025 07:00:00,26.428282,80.327067,PM2.5,32,305,124
India,Uttar_Pradesh,Kanpur,"FTI Kidwai Nagar, Kanpur - UPPCB",06-12-2025 07:00:00,26.428282,80.327067,PM10,58,212,119
India,Uttar_Pradesh,Kanpur,"FTI Kidwai Nagar, Kanpur - UPPCB",06-12-2025 07:00:00,26.428282,80.327067,SO2,15,20,18
India,Uttar_Pradesh,Kanpur,"FTI Kidwai Nagar, Kanpur - UPPCB",06-12-2025 07:00:00,26.428282,80.327067,CO,35,61,52
India,Uttar_Pradesh,Kanpur,"NSI Kalyanpur, Kanpur - UPPCB",06-12-2025 07:00:00,26.509954,80.249612,PM2.5,38,244,116
India,Uttar_Pradesh,Kanpur,"NSI Kalyanpur, Kanpur - UPPCB",06-12-2025 07:00:00,26.509954,80.249612,PM10,68,139,110
India,Uttar_Pradesh,Kanpur,"NSI Kalyanpur, Kanpur - UPPCB",06-12-2025 07:00:00,26.509954,80.249612,NH3,3,3,3
India,Uttar_Pradesh,Kanpur,"NSI Kalyanpur, Kanpur - UPPCB",06-12-2025 07:00:00,26.509954,80.249612,SO2,18,24,20
India,Uttar_Pradesh,Kanpur,"Nehru Nagar, Kanpur - UPPCB",06-12-2025 07:00:00,26.4703136,80.3229863,CO,28,57,55
India,Uttar_Pradesh,Kanpur,"Nehru Nagar, Kanpur - UPPCB",06-12-2025 07:00:00,26.4703136,80.3229863,OZONE,6,31,6
India,Uttar_Pradesh,Khurja,"Kalindi Kunj, Khurja - UPPCB",06-12-2025 07:00:00,28.2348927,77.8683002,PM2.5,95,336,260
India,Uttar_Pradesh,Khurja,"Kalindi Kunj, Khurja - UPPCB",06-12-2025 07:00:00,28.2348927,77.8683002,NO2,6,7,7
India,Uttar_Pradesh,Gorakhpur,"Madan Mohan Malaviya University of Technology, Gorakhpur - UPPCB",06-12-2025 07:00:00,26.730136,83.433859,SO2,33,36,34
India,Uttar_Pradesh,Gorakhpur,"Madan Mohan Malaviya University of Technology, Gorakhpur - UPPCB",06-12-2025 07:00:00,26.730136,83.433859,CO,6,8,7
India,Uttar_Pradesh,Greater Noida,"Knowledge Park - V, Greater Noida - UPPCB",06-12-2025 07:00:00,28.557054,77.453663,CO,17,118,52
India,Uttar_Pradesh,Greater Noida,"Knowledge Park - V, Greater Noida - UPPCB",06-12-2025 07:00:00,28.557054,77.453663,OZONE,3,185,10
India,Uttar_Pradesh,Hapur,"Anand Vihar, Hapur - UPPCB",06-12-2025 07:00:00,28.725645,77.749675,PM2.5,303,447,378
India,Uttar_Pradesh,Hapur,"Anand Vihar, Hapur - UPPCB",06-12-2025 07:00:00,28.725645,77.749675,NO2,12,65,31
India,Uttar_Pradesh,Hapur,"Anand Vihar, Hapur - UPPCB",06-12-2025 07:00:00,28.725645,77.749675,SO2,32,78,52
India,Uttar_Pradesh,Hapur,"Anand Vihar, Hapur - UPPCB",06-12-2025 07:00:00,28.725645,77.749675,CO,42,100,74
India,Uttar_Pradesh,Hapur,"Anand Vihar, Hapur - UPPCB",06-12-2025 07:00:00,28.725645,77.749675,OZONE,5,38,8
India,Uttar_Pradesh,Jhansi,"Shivaji Nagar, Jhansi - UPPCB",06-12-2025 07:00:00,25.4547,78.6039,PM10,25,83,54
India,Telangana,Hyderabad,"Somajiguda, Hyderabad - TSPCB",06-12-2025 07:00:00,17.417094,78.457437,SO2,15,20,18
India,Telangana,Hyderabad,"Somajiguda, Hyderabad - TSPCB",06-12-2025 07:00:00,17.417094,78.457437,CO,23,53,30
India,Telangana,Hyderabad,"Somajiguda, Hyderabad - TSPCB",06-12-2025 07:00:00,17.417094,78.457437,OZONE,9,63,27
India,Telangana,Hyderabad,"Zoo Park, Hyderabad - TSPCB",06-12-2025 07:00:00,17.349694,78.451437,NH3,3,5,4
India,Telangana,Hyderabad,"Zoo Park, Hyderabad - TSPCB",06-12-2025 07:00:00,17.349694,78.451437,SO2,3,4,3
India,Telangana,Hyderabad,"Zoo Park, Hyderabad - TSPCB",06-12-2025 07:00:00,17.349694,78.451437,OZONE,21,25,22
India,Tripura,Agartala,"Bardowali, Agartala - Tripura SPCB",06-12-2025 07:00:00,23.8175497,91.2726974,OZONE,1,8,2
India,Uttar_Pradesh,Agra,"Manoharpur, Agra - UPPCB",06-12-2025 07:00:00,27.23711,78.01936,CO,19,28,21
India,Uttar_Pradesh,Agra,"Rohta, Agra - UPPCB",06-12-2025 07:00:00,27.106972,78.000111,PM2.5,54,312,125
India,Uttar_Pradesh,Agra,"Rohta, Agra - UPPCB",06-12-2025 07:00:00,27.106972,78.000111,PM10,95,274,141
India,Uttar_Pradesh,Firozabad,"Vibhab Nagar, Firozabad - UPPCB",06-12-2025 07:00:00,27.1594,78.3953,NH3,2,2,2
India,Uttar_Pradesh,Ghaziabad,"Indirapuram, Ghaziabad - UPPCB",06-12-2025 07:00:00,28.646233,77.358075,PM10,200,476,309
India,Uttar_Pradesh,Ghaziabad,"Indirapuram, Ghaziabad - UPPCB",06-12-2025 07:00:00,28.646233,77.358075,OZONE,7,85,7
India,Uttar_Pradesh,Ghaziabad,"Loni, Ghaziabad - UPPCB",06-12-2025 07:00:00,28.757294,77.278792,NO2,32,171,95
India,Uttar_Pradesh,Ghaziabad,"Loni, Ghaziabad - UPPCB",06-12-2025 07:00:00,28.757294,77.278792,NH3,3,19,9
India,Uttar_Pradesh,Ghaziabad,"Sanjay Nagar, Ghaziabad - UPPCB",06-12-2025 07:00:00,28.685382,77.453839,SO2,9,38,17
India,Uttar_Pradesh,Ghaziabad,"Sanjay Nagar, Ghaziabad - UPPCB",06-12-2025 07:00:00,28.685382,77.453839,CO,5,121,35
India,Uttar_Pradesh,Ghaziabad,"Vasundhara, Ghaziabad - UPPCB",06-12-2025 07:00:00,28.6603346,77.3572563,PM2.5,NA,NA,NA
India,Uttar_Pradesh,Ghaziabad,"Vasundhara, Ghaziabad - UPPCB",06-12-2025 07:00:00,28.6603346,77.3572563,NO2,NA,NA,NA
India,Uttar_Pradesh,Ghaziabad,"Vasundhara, Ghaziabad - UPPCB",06-12-2025 07:00:00,28.6603346,77.3572563,SO2,NA,NA,NA
India,Uttar_Pradesh,Khurja,"Kalindi Kunj, Khurja - UPPCB",06-12-2025 07:00:00,28.2348927,77.8683002,OZONE,7,23,22
India,Uttar_Pradesh,Lucknow,"B R Ambedkar University, Lucknow - UPPCB",06-12-2025 07:00:00,26.766433,80.927299,SO2,23,25,24
India,Uttar_Pradesh,Lucknow,"B R Ambedkar University, Lucknow - UPPCB",06-12-2025 07:00:00,26.766433,80.927299,CO,36,38,38
India,Uttar_Pradesh,Lucknow,"Kendriya Vidyalaya, Lucknow - CPCB",06-12-2025 07:00:00,26.906111,80.948222,PM2.5,55,245,147
India,Uttar_Pradesh,Lucknow,"Kendriya Vidyalaya, Lucknow - CPCB",06-12-2025 07:00:00,26.906111,80.948222,PM10,106,227,147
India,Uttar_Pradesh,Lucknow,"Kendriya Vidyalaya, Lucknow - CPCB",06-12-2025 07:00:00,26.906111,80.948222,SO2,6,13,9
India,Uttar_Pradesh,Lucknow,"Kendriya Vidyalaya, Lucknow - CPCB",06-12-2025 07:00:00,26.906111,80.948222,OZONE,10,78,14
India,Uttar_Pradesh,Lucknow,"Kukrail Picnic Spot-1, Lucknow - UPPCB",06-12-2025 07:00:00,26.90723,80.98579,PM10,76,144,122
India,Uttar_Pradesh,Lucknow,"Kukrail Picnic Spot-1, Lucknow - UPPCB",06-12-2025 07:00:00,26.90723,80.98579,CO,8,14,14
India,Telangana,Hyderabad,"Nacharam_TSIIC IALA, Hyderabad - TSPCB",06-12-2025 07:00:00,17.429398,78.569354,NH3,4,7,6
India,Telangana,Hyderabad,"Nacharam_TSIIC IALA, Hyderabad - TSPCB",06-12-2025 07:00:00,17.429398,78.569354,CO,24,40,37
India,Telangana,Hyderabad,"New Malakpet, Hyderabad - TSPCB",06-12-2025 07:00:00,17.37206,78.50864,NO2,15,21,18
India,Telangana,Hyderabad,"New Malakpet, Hyderabad - TSPCB",06-12-2025 07:00:00,17.37206,78.50864,NH3,2,3,2
India,Telangana,Hyderabad,"New Malakpet, Hyderabad - TSPCB",06-12-2025 07:00:00,17.37206,78.50864,OZONE,10,43,16
India,Telangana,Hyderabad,"Ramachandrapuram, Hyderabad - TSPCB",06-12-2025 07:00:00,17.528544,78.286195,PM10,62,75,67
India,Telangana,Hyderabad,"Sanathnagar, Hyderabad - TSPCB",06-12-2025 07:00:00,17.4559458,78.4332152,PM2.5,56,177,122
India,Telangana,Hyderabad,"Somajiguda, Hyderabad - TSPCB",06-12-2025 07:00:00,17.417094,78.457437,PM10,40,100,74
India,Uttar_Pradesh,Lucknow,"Talkatora District Industries Center, Lucknow - CPCB",06-12-2025 07:00:00,26.83399722,80.8917361,NH3,9,11,10
India,Uttar_Pradesh,Meerut,"Ganga Nagar, Meerut - UPPCB",06-12-2025 07:00:00,28.999264,77.7590354,SO2,25,46,34
India,Uttar_Pradesh,Meerut,"Jai Bhim Nagar, Meerut - UPPCB",06-12-2025 07:00:00,28.9535882,77.7622941,SO2,9,33,19
India,Uttar_Pradesh,Meerut,"Jai Bhim Nagar, Meerut - UPPCB",06-12-2025 07:00:00,28.9535882,77.7622941,OZONE,7,186,69
India,Uttar_Pradesh,Meerut,"Pallavpuram Phase 2, Meerut - UPPCB",06-12-2025 07:00:00,29.063510,77.709723,PM10,176,404,272
India,Uttar_Pradesh,Agra,"Sanjay Palace, Agra - UPPCB",06-12-2025 07:00:00,27.19865833,78.00598056,NO2,5,25,13
India,Uttar_Pradesh,Agra,"Sector-3B Avas Vikas Colony, Agra - UPPCB",06-12-2025 07:00:00,27.19412,77.96237,PM10,NA,NA,NA
India,Uttar_Pradesh,Agra,"Shastripuram, Agra - UPPCB",06-12-2025 07:00:00,27.19862,77.92066,SO2,7,14,11
India,Uttar_Pradesh,Baghpat,"Sardar Patel Inter College, Baghpat - UPPCB",06-12-2025 07:00:00,28.964949,77.278761,PM2.5,162,381,276
India,Uttar_Pradesh,Baghpat,"Sardar Patel Inter College, Baghpat - UPPCB",06-12-2025 07:00:00,28.964949,77.278761,PM10,136,300,185
India,Uttar_Pradesh,Bareilly,"Civil Lines, Bareilly - UPPCB",06-12-2025 07:00:00,28.359581,79.414455,PM10,49,99,74
India,Uttar_Pradesh,Bareilly,"Civil Lines, Bareilly - UPPCB",06-12-2025 07:00:00,28.359581,79.414455,NO2,2,3,2
India,Uttar_Pradesh,Bareilly,"Civil Lines, Bareilly - UPPCB",06-12-2025 07:00:00,28.359581,79.414455,OZONE,17,47,27
India,Uttar_Pradesh,Bulandshahr,"Yamunapuram, Bulandshahr - UPPCB",06-12-2025 07:00:00,28.406963,77.849831,CO,47,108,104
India,Uttar_Pradesh,Firozabad,"Vibhab Nagar, Firozabad - UPPCB",06-12-2025 07:00:00,27.1594,78.3953,PM10,56,122,88
India,West_Bengal,Durgapur,"PCBL Residential Complex, Durgapur - WBPCB",06-12-2025 07:00:00,23.5087640,87.3544400,NO2,NA,NA,NA
India,West_Bengal,Durgapur,"PCBL Residential Complex, Durgapur - WBPCB",06-12-2025 07:00:00,23.5087640,87.3544400,NH3,NA,NA,NA
India,West_Bengal,Durgapur,"PCBL Residential Complex, Durgapur - WBPCB",06-12-2025 07:00:00,23.5087640,87.3544400,CO,37,77,68
India,West_Bengal,Durgapur,"Womens College_City Center, Durgapur - WBPCB (Formerly known as Sidhu Kanhu Indoor Stadium)",06-12-2025 07:00:00,23.549395,87.300496,CO,30,58,44
India,West_Bengal,Haldia,"Priyambada Housing Estate, Haldia - WBPCB",06-12-2025 07:00:00,22.06047,88.109737,NH3,4,5,4
India,West_Bengal,Howrah,"Belur Math, Howrah - WBPCB",06-12-2025 07:00:00,22.629801,88.352017,CO,21,88,33
India,West_Bengal,Howrah,"Belur Math, Howrah - WBPCB",06-12-2025 07:00:00,22.629801,88.352017,OZONE,14,62,22
India,Uttar_Pradesh,Noida,"Sector-1, Noida - UPPCB",06-12-2025 07:00:00,28.5898,77.3101,PM2.5,NA,NA,NA
India,Uttar_Pradesh,Noida,"Sector-1, Noida - UPPCB",06-12-2025 07:00:00,28.5898,77.3101,NH3,NA,NA,NA
India,Uttar_Pradesh,Noida,"Sector-1, Noida - UPPCB",06-12-2025 07:00:00,28.5898,77.3101,SO2,NA,NA,NA
India,Uttar_Pradesh,Noida,"Sector-1, Noida - UPPCB",06-12-2025 07:00:00,28.5898,77.3101,CO,NA,NA,NA
India,Uttar_Pradesh,Noida,"Sector-1, Noida - UPPCB",06-12-2025 07:00:00,28.5898,77.3101,OZONE,NA,NA,NA
India,Uttar_Pradesh,Noida,"Sector-116, Noida - UPPCB",06-12-2025 07:00:00,28.569230,77.393848,NH3,4,26,17
India,Uttar_Pradesh,Prayagraj,"Jhunsi, Prayagraj - UPPCB",06-12-2025 07:00:00,25.425602,81.917152,PM2.5,48,108,82
India,Uttar_Pradesh,Prayagraj,"Motilal Nehru NIT, Prayagraj - UPPCB",06-12-2025 07:00:00,25.494,81.863,CO,20,44,38
India,Uttar_Pradesh,Prayagraj,"Nagar Nigam, Prayagraj - UPPCB",06-12-2025 07:00:00,25.44919916 ,81.82735986 ,PM2.5,58,204,126
India,Uttar_Pradesh,Moradabad,"Kashiram Nagar, Moradabad - UPPCB",06-12-2025 07:00:00,28.849399,78.742362,PM10,88,186,141
India,Uttar_Pradesh,Moradabad,"Transport Nagar, Moradabad - UPPCB",06-12-2025 07:00:00,28.802625,78.753728,PM10,71,158,112
India,Uttar_Pradesh,Muzaffarnagar,"New Mandi, Muzaffarnagar - UPPCB",06-12-2025 07:00:00,29.4723508,77.7194031,NH3,13,20,16
India,Uttar_Pradesh,Noida,"Sector - 125, Noida - UPPCB",06-12-2025 07:00:00,28.5447608,77.3231257,PM10,179,436,318
India,Uttar_Pradesh,Noida,"Sector - 125, Noida - UPPCB",06-12-2025 07:00:00,28.5447608,77.3231257,OZONE,9,150,10
India,Uttar_Pradesh,Noida,"Sector - 62, Noida - IMD",06-12-2025 07:00:00,28.6245479,77.3577104,PM10,155,411,252
India,Uttar_Pradesh,Prayagraj,"Nagar Nigam, Prayagraj - UPPCB",06-12-2025 07:00:00,25.44919916 ,81.82735986 ,NO2,5,5,5
India,Uttar_Pradesh,Prayagraj,"Nagar Nigam, Prayagraj - UPPCB",06-12-2025 07:00:00,25.44919916 ,81.82735986 ,SO2,20,45,32
India,Uttar_Pradesh,Prayagraj,"Nagar Nigam, Prayagraj - UPPCB",06-12-2025 07:00:00,25.44919916 ,81.82735986 ,OZONE,11,23,11
India,Uttar_Pradesh,Varanasi,"Ardhali Bazar, Varanasi - UPPCB",06-12-2025 07:00:00,25.3505986,82.9083074,PM10,69,171,122
India,Uttar_Pradesh,Varanasi,"Bhelupur, Varanasi - UPPCB",06-12-2025 07:00:00,25.301778,82.996789,NO2,8,8,8
India,Uttar_Pradesh,Varanasi,"Bhelupur, Varanasi - UPPCB",06-12-2025 07:00:00,25.301778,82.996789,NH3,1,1,1
India,Uttar_Pradesh,Varanasi,"IESD Banaras Hindu University, Varanasi - UPPCB",06-12-2025 07:00:00,25.262326,82.995408,SO2,39,44,42
India,Uttar_Pradesh,Moradabad,"Buddhi Vihar, Moradabad - UPPCB",06-12-2025 07:00:00,28.83526,78.74460,NO2,29,29,29
India,Uttar_Pradesh,Moradabad,"Buddhi Vihar, Moradabad - UPPCB",06-12-2025 07:00:00,28.83526,78.74460,SO2,78,101,81
India,Uttar_Pradesh,Moradabad,"Eco Herbal Park, Moradabad - UPPCB",06-12-2025 07:00:00,28.840739,78.697531,SO2,9,50,20
India,Uttar_Pradesh,Moradabad,"Employment Office, Moradabad - UPPCB",06-12-2025 07:00:00,28.88528,78.73880,PM2.5,81,280,199
India,Uttar_Pradesh,Moradabad,"Jigar Colony, Moradabad - UPPCB",06-12-2025 07:00:00,28.856664,78.772638,PM2.5,NA,NA,NA
India,Uttar_Pradesh,Moradabad,"Jigar Colony, Moradabad - UPPCB",06-12-2025 07:00:00,28.856664,78.772638,NH3,6,15,7
India,Uttar_Pradesh,Moradabad,"Jigar Colony, Moradabad - UPPCB",06-12-2025 07:00:00,28.856664,78.772638,SO2,7,89,67
India,Uttarakhand,Dehradun,"Doon University, Dehradun - UKPCB",06-12-2025 07:00:00,30.269444,78.044167,CO,36,42,39
India,Uttarakhand,Kashipur,"Govt. Girls Inter College, Kashipur - UKPCB",06-12-2025 07:00:00,29.2124114,78.9611753,PM2.5,76,302,175
India,Uttarakhand,Kashipur,"Govt. Girls Inter College, Kashipur - UKPCB",06-12-2025 07:00:00,29.2124114,78.9611753,PM10,73,166,121
India,Uttarakhand,Kashipur,"Govt. Girls Inter College, Kashipur - UKPCB",06-12-2025 07:00:00,29.2124114,78.9611753,NH3,2,14,5
India,Uttarakhand,Kashipur,"Govt. Girls Inter College, Kashipur - UKPCB",06-12-2025 07:00:00,29.2124114,78.9611753,CO,32,47,45
India,West_Bengal,Asansol,"Asansol Court Area, Asansol - WBPCB",06-12-2025 07:00:00,23.685297,86.945968,PM2.5,64,280,142
India,West_Bengal,Howrah,"Botanical Garden, Howrah - WBPCB",06-12-2025 07:00:00,22.554954,88.292568,SO2,9,28,14
India,West_Bengal,Howrah,"Dasnagar, Howrah - WBPCB",06-12-2025 07:00:00,22.6025571,88.3105664,NO2,21,111,67
India,West_Bengal,Howrah,"Dasnagar, Howrah - WBPCB",06-12-2025 07:00:00,22.6025571,88.3105664,NH3,1,2,1
India,West_Bengal,Howrah,"Dasnagar, Howrah - WBPCB",06-12-2025 07:00:00,22.6025571,88.3105664,SO2,6,38,17
India,West_Bengal,Howrah,"Ghusuri, Howrah - WBPCB",06-12-2025 07:00:00,22.611968,88.347422,SO2,5,15,11
India,West_Bengal,Howrah,"Padmapukur, Howrah - WBPCB",06-12-2025 07:00:00,22.5687319,88.2797276,NH3,2,2,2
India,West_Bengal,Howrah,"Padmapukur, Howrah - WBPCB",06-12-2025 07:00:00,22.5687319,88.2797276,CO,1,36,25
India,West_Bengal,Kolkata,"Ballygunge, Kolkata - WBPCB",06-12-2025 07:00:00,22.5367507,88.3638022,OZONE,6,33,14
India,West_Bengal,Kolkata,"Bidhannagar, Kolkata - WBPCB",06-12-2025 07:00:00,22.58157048,88.41002457,PM10,104,184,129
India,West_Bengal,Kolkata,"Bidhannagar, Kolkata - WBPCB",06-12-2025 07:00:00,22.58157048,88.41002457,SO2,NA,NA,NA
India,West_Bengal,Kolkata,"Jadavpur, Kolkata - WBPCB",06-12-2025 07:00:00,22.49929,88.36917,NO2,33,177,54
India,West_Bengal,Asansol,"Evelyn Lodge, Asansol - WBPCB",06-12-2025 07:00:00,23.6979360,86.9443950,PM10,55,159,103
India,West_Bengal,Asansol,"Mahabir Colliery, Asansol - WBPCB",06-12-2025 07:00:00,23.6181830,87.1057180,OZONE,6,57,9
India,West_Bengal,Durgapur,"Mahishkapur Road_B-Zone, Durgapur - WBPCB",06-12-2025 07:00:00,23.567923,87.306843,SO2,13,28,18
India,West_Bengal,Kolkata,"Rabindra Bharati University, Kolkata - WBPCB",06-12-2025 07:00:00,22.627847,88.380669,CO,36,104,51
India,West_Bengal,Kolkata,"Rabindra Sarobar, Kolkata - WBPCB",06-12-2025 07:00:00,22.51106,88.35142,PM10,96,133,110
India,West_Bengal,Kolkata,"Rabindra Sarobar, Kolkata - WBPCB",06-12-2025 07:00:00,22.51106,88.35142,OZONE,2,95,25
India,West_Bengal,Kolkata,"Victoria, Kolkata - WBPCB",06-12-2025 07:00:00,22.5448082,88.3403691,PM2.5,162,355,254
India,West_Bengal,Siliguri,"Ward-32 Bapupara, Siliguri - WBPCB",06-12-2025 07:00:00,26.6879226,88.4152495,PM10,64,238,114
India,Bihar,Bihar Sharif,"D M Colony, Bihar Sharif - BSPCB",06-12-2025 07:00:00,25.204762,85.514960,SO2,10,10,10
India,Bihar,Buxar,"Charitra Van, Buxar - BSPCB",06-12-2025 07:00:00,25.567520,83.966379,PM2.5,73,223,145
India,Bihar,Buxar,"Charitra Van, Buxar - BSPCB",06-12-2025 07:00:00,25.567520,83.966379,PM10,72,146,116
India,Bihar,Buxar,"Charitra Van, Buxar - BSPCB",06-12-2025 07:00:00,25.567520,83.966379,NH3,3,3,3
India,Bihar,Chhapra,"Darshan Nagar, Chhapra - BSPCB",06-12-2025 07:00:00,25.7808257,84.7446768,PM2.5,17,83,54
India,Bihar,Chhapra,"Darshan Nagar, Chhapra - BSPCB",06-12-2025 07:00:00,25.7808257,84.7446768,SO2,20,21,20
India,Bihar,Chhapra,"Darshan Nagar, Chhapra - BSPCB",06-12-2025 07:00:00,25.7808257,84.7446768,CO,8,16,9
India,Bihar,Gaya,"Collectorate, Gaya - BSPCB",06-12-2025 07:00:00,24.7955,84.9994,OZONE,19,21,20
India,Bihar,Gaya,"Kareemganj, Gaya - BSPCB",06-12-2025 07:00:00,24.792403,84.992416,NO2,2,7,4
India,Andhra_Pradesh,Rajamahendravaram,"Anand Kala Kshetram, Rajamahendravaram - APPCB",06-12-2025 07:00:00,16.9872867,81.7363176,PM10,127,166,147
India,Andhra_Pradesh,Tirumala,"Toll Gate, Tirumala - APPCB",06-12-2025 07:00:00,13.67,79.35,NO2,12,18,15
India,Andhra_Pradesh,Tirupati,"Vaikuntapuram, Tirupati - APPCB",06-12-2025 07:00:00,13.615387,79.409230,PM10,50,62,55
India,Andhra_Pradesh,Tirupati,"Vaikuntapuram, Tirupati - APPCB",06-12-2025 07:00:00,13.615387,79.409230,NO2,13,17,15
India,Andhra_Pradesh,Tirupati,"Vaikuntapuram, Tirupati - APPCB",06-12-2025 07:00:00,13.615387,79.409230,SO2,10,15,11
India,Andhra_Pradesh,Vijayawada,"HB Colony, Vijayawada - APPCB",06-12-2025 07:00:00,16.536107,80.594233,NH3,3,4,4
India,Bihar,Manguraha,"Forest Rest House, Manguraha - BSPCB",06-12-2025 07:00:00,27.308328,84.531742,NO2,4,12,6
India,Bihar,Motihari,"Gandak Colony, Motihari - BSPCB",06-12-2025 07:00:00,26.63086,84.90051,NO2,9,13,10
India,Bihar,Motihari,"Gandak Colony, Motihari - BSPCB",06-12-2025 07:00:00,26.63086,84.90051,OZONE,3,5,3
India,Bihar,Muzaffarpur,"Buddha Colony, Muzaffarpur - BSPCB",06-12-2025 07:00:00,26.11442,85.39813,NO2,20,56,34
India,Bihar,Muzaffarpur,"Buddha Colony, Muzaffarpur - BSPCB",06-12-2025 07:00:00,26.11442,85.39813,SO2,2,8,5
India,Bihar,Muzaffarpur,"Buddha Colony, Muzaffarpur - BSPCB",06-12-2025 07:00:00,26.11442,85.39813,CO,35,76,51
India,Assam,Sivasagar,"Girls College, Sivasagar - PCBA",06-12-2025 07:00:00,26.987634,94.636574,CO,13,92,48
India,Bihar,Arrah,"New DM Office, Arrah - BSPCB",06-12-2025 07:00:00,25.5626095,84.663264,NO2,5,9,7
India,Bihar,Arrah,"New DM Office, Arrah - BSPCB",06-12-2025 07:00:00,25.5626095,84.663264,NH3,1,1,1
India,Bihar,Arrah,"New DM Office, Arrah - BSPCB",06-12-2025 07:00:00,25.5626095,84.663264,CO,40,64,52
India,Bihar,Aurangabad,"Gurdeo Nagar, Aurangabad - BSPCB",06-12-2025 07:00:00,24.75746,84.366208,PM10,55,142,89
India,Arunachal_Pradesh,Naharlagun,"Naharlagun, Naharlagun - APSPCB",06-12-2025 07:00:00,27.103358,93.679645,PM10,36,301,107
India,Assam,Byrnihat,"Central Academy for SFS, Byrnihat - PCBA",06-12-2025 07:00:00,26.071318,91.87488,PM10,71,106,85
India,Assam,Guwahati,"IITG, Guwahati - PCBA",06-12-2025 07:00:00,26.2028636,91.70046436,NH3,5,5,5
India,Assam,Guwahati,"IITG, Guwahati - PCBA",06-12-2025 07:00:00,26.2028636,91.70046436,OZONE,NA,NA,NA
India,Andhra_Pradesh,Amaravati,"Secretariat, Amaravati - APPCB",06-12-2025 07:00:00,16.5150833,80.5181667,SO2,2,6,4
India,Andhra_Pradesh,Anantapur,"Gulzarpet, Anantapur - APPCB",06-12-2025 07:00:00,14.675886,77.593027,NO2,14,15,14
India,Andhra_Pradesh,Anantapur,"Gulzarpet, Anantapur - APPCB",06-12-2025 07:00:00,14.675886,77.593027,CO,28,37,29
India,Andhra_Pradesh,Kadapa,"Yerramukkapalli, Kadapa - APPCB",06-12-2025 07:00:00,14.465052,78.824187,PM2.5,50,208,123
India,Assam,Guwahati,"Pan Bazaar, Guwahati - PCBA",06-12-2025 07:00:00,26.187500,91.744194,PM10,35,109,71
India,Assam,Guwahati,"Railway Colony, Guwahati - PCBA",06-12-2025 07:00:00,26.181742,91.78063,CO,26,95,70
India,Assam,Nagaon,"Christianpatty, Nagaon - PCBA",06-12-2025 07:00:00,26.349082,92.68449,SO2,12,14,13
India,Assam,Nalbari,"Bata Chowk, Nalbari - PCBA",06-12-2025 07:00:00,26.446912,91.439057,CO,20,22,21
India,Bihar,Hajipur,"Industrial Area, Hajipur - BSPCB",06-12-2025 07:00:00,25.697189,85.245900,OZONE,16,148,50
India,Bihar,Katihar,"Mirchaibari, Katihar - BSPCB",06-12-2025 07:00:00,25.560083,87.553265,PM10,56,111,83
India,Bihar,Katihar,"Mirchaibari, Katihar - BSPCB",06-12-2025 07:00:00,25.560083,87.553265,CO,76,103,96
India,Bihar,Kishanganj,"SDM Office_Khagra, Kishanganj - BSPCB",06-12-2025 07:00:00,26.0881305,87.93840336,CO,16,26,19
India,Bihar,Begusarai,"Lohiyanagar, Begusarai - BSPCB",06-12-2025 07:00:00,25.42742023,86.13886079,PM2.5,9,305,128
India,Bihar,Bhagalpur,"DM Office_Kachari Chowk, Bhagalpur - BSPCB",06-12-2025 07:00:00,25.251013,86.989001,NH3,1,1,1
India,Bihar,Bhagalpur,"Mayaganj, Bhagalpur - BSPCB",06-12-2025 07:00:00,25.265194,87.012947,NH3,NA,NA,NA
India,Bihar,Bhagalpur,"Mayaganj, Bhagalpur - BSPCB",06-12-2025 07:00:00,25.265194,87.012947,OZONE,30,82,53
India,Andhra_Pradesh,Vijayawada,"Kanuru, Vijayawada - APPCB",06-12-2025 07:00:00,16.486692,80.699436,CO,32,57,48
India,Andhra_Pradesh,Vijayawada,"Rajiv Nagar, Vijayawada - APPCB",06-12-2025 07:00:00,16.554731,80.649110,PM10,43,79,56
India,Chhattisgarh,Bhilai,"32Bungalows, Bhilai - CECB",06-12-2025 07:00:00,21.194815,81.314770,OZONE,2,78,3
India,Chhattisgarh,Bhilai,"Civic Center, Bhilai - Bhilai Steel Plant",06-12-2025 07:00:00,21.185571,81.343175,PM10,41,120,63
India,Chhattisgarh,Bhilai,"Civic Center, Bhilai - Bhilai Steel Plant",06-12-2025 07:00:00,21.185571,81.343175,NO2,13,18,17
India,Chhattisgarh,Bhilai,"Civic Center, Bhilai - Bhilai Steel Plant",06-12-2025 07:00:00,21.185571,81.343175,CO,21,22,22
India,Chhattisgarh,Bhilai,"Civic Center, Bhilai - Bhilai Steel Plant",06-12-2025 07:00:00,21.185571,81.343175,OZONE,4,15,12
India,Chhattisgarh,Bhilai,"Hathkhoj, Bhilai - CECB",06-12-2025 07:00:00,21.224231,81.408350,SO2,8,67,27
India,Chhattisgarh,Bhilai,"Hathkhoj, Bhilai - CECB",06-12-2025 07:00:00,21.224231,81.408350,CO,21,79,48
India,Chhattisgarh,Bilaspur,"Mangala, Bilaspur - NTPC",06-12-2025 07:00:00,22.08815,82.13737,PM2.5,46,155,75
India,Chhattisgarh,Bilaspur,"Mangala, Bilaspur - NTPC",06-12-2025 07:00:00,22.08815,82.13737,NO2,18,121,32
India,Chhattisgarh,Bilaspur,"Mangala, Bilaspur - NTPC",06-12-2025 07:00:00,22.08815,82.13737,SO2,7,18,13
India,Chhattisgarh,Chhal,"Nawapara SECL Colony, Chhal - CECB",06-12-2025 07:00:00,22.118125,83.140608,PM2.5,46,258,74
India,Chhattisgarh,Chhal,"Nawapara SECL Colony, Chhal - CECB",06-12-2025 07:00:00,22.118125,83.140608,NH3,6,6,6
India,Chhattisgarh,Korba,"Rampur, Korba - CECB",06-12-2025 07:00:00,22.368195,82.746431,OZONE,2,14,2
India,Chhattisgarh,Korba,"Urja Nagar, Korba - CECB",06-12-2025 07:00:00,22.348441,82.549611,PM2.5,70,86,71
India,Chhattisgarh,Korba,"Urja Nagar, Korba - CECB",06-12-2025 07:00:00,22.348441,82.549611,PM10,92,93,92
India,Chhattisgarh,Korba,"Urja Nagar, Korba - CECB",06-12-2025 07:00:00,22.348441,82.549611,NH3,1,2,2
India,Chhattisgarh,Korba,"Urja Nagar, Korba - CECB",06-12-2025 07:00:00,22.348441,82.549611,CO,19,39,25
India,Chhattisgarh,Korba,"Urja Nagar, Korba - CECB",06-12-2025 07:00:00,22.348441,82.549611,OZONE,35,36,35
India,Chhattisgarh,Kunjemura,"OP Jindal School, Kunjemura - CECB",06-12-2025 07:00:00,22.126650,83.483212,OZONE,1,67,2
India,Chhattisgarh,Milupara,"Govt. Higher Secondary School, Milupara - CECB",06-12-2025 07:00:00,22.1910172,83.5197009,PM2.5,52,84,70
India,Bihar,Rajgir,"Dangi Tola, Rajgir - BSPCB",06-12-2025 07:00:00,25.03280,85.41948,SO2,19,23,21
India,Bihar,Samastipur,"DM Office_Kasipur, Samastipur - BSPCB",06-12-2025 07:00:00,25.859655,85.77944,NO2,NA,NA,NA
India,Bihar,Samastipur,"DM Office_Kasipur, Samastipur - BSPCB",06-12-2025 07:00:00,25.859655,85.77944,CO,NA,NA,NA
India,Bihar,Samastipur,"DM Office_Kasipur, Samastipur - BSPCB",06-12-2025 07:00:00,25.859655,85.77944,OZONE,NA,NA,NA
India,Bihar,Sasaram,"Dada Peer, Sasaram - BSPCB",06-12-2025 07:00:00,24.952822,84.002396,NO2,2,3,2
India,Bihar,Sasaram,"Dada Peer, Sasaram - BSPCB",06-12-2025 07:00:00,24.952822,84.002396,NH3,3,3,3
India,Bihar,Siwan,"Chitragupta Nagar, Siwan - BSPCB",06-12-2025 07:00:00,26.2271665,84.3570427,PM2.5,NA,NA,NA
India,Bihar,Siwan,"Chitragupta Nagar, Siwan - BSPCB",06-12-2025 07:00:00,26.2271665,84.3570427,PM10,NA,NA,NA
India,Bihar,Siwan,"Chitragupta Nagar, Siwan - BSPCB",06-12-2025 07:00:00,26.2271665,84.3570427,SO2,NA,NA,NA
India,Bihar,Muzaffarpur,"Muzaffarpur Collectorate, Muzaffarpur - BSPCB",06-12-2025 07:00:00,26.1209,85.3647,CO,7,49,7
India,Bihar,Patna,"DRM Office Danapur, Patna - BSPCB",06-12-2025 07:00:00,25.586562,85.043586,NH3,7,16,9
India,Bihar,Patna,"DRM Office Danapur, Patna - BSPCB",06-12-2025 07:00:00,25.586562,85.043586,SO2,8,11,10
India,Bihar,Patna,"DRM Office Danapur, Patna - BSPCB",06-12-2025 07:00:00,25.586562,85.043586,OZONE,7,71,10
India,Bihar,Patna,"Govt. High School Shikarpur, Patna - BSPCB",06-12-2025 07:00:00,25.592539,85.227158,NH3,4,5,5
India,Bihar,Patna,"IGSC Planetarium Complex, Patna - BSPCB",06-12-2025 07:00:00,25.610369,85.132568,SO2,21,27,24
India,Delhi,Delhi,"Aya Nagar, Delhi - IMD",06-12-2025 07:00:00,28.4706914,77.1099364,PM10,161,384,275
India,Delhi,Delhi,"Bawana, Delhi - DPCC",06-12-2025 07:00:00,28.776200,77.051074,NH3,5,6,5
India,Delhi,Delhi,"Bawana, Delhi - DPCC",06-12-2025 07:00:00,28.776200,77.051074,OZONE,4,143,7
India,Delhi,Delhi,"Chandni Chowk, Delhi - IITM",06-12-2025 07:00:00,28.656756,77.227234,NH3,6,10,8
India,Delhi,Delhi,"Chandni Chowk, Delhi - IITM",06-12-2025 07:00:00,28.656756,77.227234,CO,48,92,60
India,Delhi,Delhi,"DTU, Delhi - CPCB",06-12-2025 07:00:00,28.7500499,77.1112615,PM10,141,406,239
India,Chhattisgarh,Tumidih,"OP Jindal Industrial Park, Tumidih - CECB",06-12-2025 07:00:00,22.06631475,83.33820077,NO2,30,93,56
India,Chhattisgarh,Tumidih,"OP Jindal Industrial Park, Tumidih - CECB",06-12-2025 07:00:00,22.06631475,83.33820077,OZONE,4,111,8
India,Delhi,Delhi,"Alipur, Delhi - DPCC",06-12-2025 07:00:00,28.815329,77.153010,SO2,7,25,14
India,Delhi,Delhi,"Alipur, Delhi - DPCC",06-12-2025 07:00:00,28.815329,77.153010,OZONE,7,62,13
India,Delhi,Delhi,"Anand Vihar, Delhi - DPCC",06-12-2025 07:00:00,28.647622,77.3158090,CO,84,161,126
India,Chhattisgarh,Raipur,"AIIMS, Raipur - CECB",06-12-2025 07:00:00,21.258815,81.578979,NO2,62,77,71
India,Chhattisgarh,Raipur,"AIIMS, Raipur - CECB",06-12-2025 07:00:00,21.258815,81.578979,SO2,4,7,6
India,Chhattisgarh,Raipur,"Bhatagaon New ISBT, Raipur - CECB",06-12-2025 07:00:00,21.219665,81.630094,NO2,18,38,26
India,Chhattisgarh,Raipur,"Bhatagaon New ISBT, Raipur - CECB",06-12-2025 07:00:00,21.219665,81.630094,CO,40,76,61
India,Chhattisgarh,Raipur,"Krishak Nagar, Raipur - CECB",06-12-2025 07:00:00,21.237755,81.705301,NO2,20,27,23
India,Chandigarh,Chandigarh,"Sector 22, Chandigarh - CPCC",06-12-2025 07:00:00,30.735567,76.775714,NO2,30,157,74
India,Chandigarh,Chandigarh,"Sector 22, Chandigarh - CPCC",06-12-2025 07:00:00,30.735567,76.775714,SO2,5,34,11
India,Chandigarh,Chandigarh,"Sector-25, Chandigarh - CPCC",06-12-2025 07:00:00,30.751462,76.762879,PM2.5,144,287,212
India,Chandigarh,Chandigarh,"Sector-25, Chandigarh - CPCC",06-12-2025 07:00:00,30.751462,76.762879,NO2,18,76,38
India,Chandigarh,Chandigarh,"Sector-53, Chandigarh - CPCC",06-12-2025 07:00:00,30.719859,76.738637,OZONE,2,72,18
India,Bihar,Patna,"Samanpura, Patna - BSPCB",06-12-2025 07:00:00,25.596727,85.085624,SO2,2,6,4
India,Bihar,Rajgir,"Dangi Tola, Rajgir - BSPCB",06-12-2025 07:00:00,25.03280,85.41948,PM2.5,48,190,100
India,Bihar,Rajgir,"Dangi Tola, Rajgir - BSPCB",06-12-2025 07:00:00,25.03280,85.41948,NO2,9,10,9
India,Delhi,Delhi,"DTU, Delhi - CPCB",06-12-2025 07:00:00,28.7500499,77.1112615,NO2,35,94,48
India,Delhi,Delhi,"DTU, Delhi - CPCB",06-12-2025 07:00:00,28.7500499,77.1112615,OZONE,12,35,13
India,Delhi,Delhi,"Dr. Karni Singh Shooting Range, Delhi - DPCC",06-12-2025 07:00:00,28.498571,77.264840,PM2.5,257,434,353
India,Delhi,Delhi,"Dr. Karni Singh Shooting Range, Delhi - DPCC",06-12-2025 07:00:00,28.498571,77.264840,OZONE,3,46,10
India,Delhi,Delhi,"Dwarka-Sector 8, Delhi - DPCC ",06-12-2025 07:00:00,28.5710274,77.0719006,NO2,53,144,97
India,Delhi,Delhi,"IGI Airport (T3), Delhi - IMD",06-12-2025 07:00:00,28.5627763,77.1180053,PM2.5,123,322,263
India,Delhi,Delhi,"IGI Airport (T3), Delhi - IMD",06-12-2025 07:00:00,28.5627763,77.1180053,PM10,151,279,212
India,Delhi,Delhi,"IGI Airport (T3), Delhi - IMD",06-12-2025 07:00:00,28.5627763,77.1180053,NO2,63,149,106
India,Delhi,Delhi,"IGI Airport (T3), Delhi - IMD",06-12-2025 07:00:00,28.5627763,77.1180053,OZONE,4,81,5
India,Delhi,Delhi,"IHBAS, Dilshad Garden, Delhi - CPCB",06-12-2025 07:00:00,28.6811736,77.3025234,NH3,10,12,11
India,Delhi,Delhi,"IHBAS, Dilshad Garden, Delhi - CPCB",06-12-2025 07:00:00,28.6811736,77.3025234,CO,55,95,65
India,Delhi,Delhi,"IIT Delhi, Delhi - IITM",06-12-2025 07:00:00,28.542460,77.191651,NO2,47,81,65
India,Delhi,Delhi,"ITO, Delhi - CPCB",06-12-2025 07:00:00,28.628624,77.241060,NH3,2,5,3
India,Delhi,Delhi,"Jahangirpuri, Delhi - DPCC",06-12-2025 07:00:00,28.732820,77.170633,SO2,24,57,41
India,Delhi,Delhi,"Jawaharlal Nehru Stadium, Delhi - DPCC",06-12-2025 07:00:00,28.580280,77.233829,PM2.5,280,423,343
India,Delhi,Delhi,"Jawaharlal Nehru Stadium, Delhi - DPCC",06-12-2025 07:00:00,28.580280,77.233829,PM10,179,497,284
India,Delhi,Delhi,"Lodhi Road, Delhi - IITM",06-12-2025 07:00:00,28.588333,77.221667,PM10,158,221,179
India,Delhi,Delhi,"Lodhi Road, Delhi - IITM",06-12-2025 07:00:00,28.588333,77.221667,SO2,9,21,15
India,Delhi,Delhi,"Major Dhyan Chand National Stadium, Delhi - DPCC",06-12-2025 07:00:00,28.611281,77.237738,PM10,170,403,263
India,Delhi,Delhi,"Major Dhyan Chand National Stadium, Delhi - DPCC",06-12-2025 07:00:00,28.611281,77.237738,NO2,53,166,108
India,Delhi,Delhi,"Major Dhyan Chand National Stadium, Delhi - DPCC",06-12-2025 07:00:00,28.611281,77.237738,SO2,12,34,23
India,Delhi,Delhi,"Major Dhyan Chand National Stadium, Delhi - DPCC",06-12-2025 07:00:00,28.611281,77.237738,CO,41,125,101
India,Delhi,Delhi,"Mundka, Delhi - DPCC",06-12-2025 07:00:00,28.684678,77.076574,NH3,9,14,12
India,Delhi,Delhi,"Mundka, Delhi - DPCC",06-12-2025 07:00:00,28.684678,77.076574,SO2,10,22,15
India,Delhi,Delhi,"Mundka, Delhi - DPCC",06-12-2025 07:00:00,28.684678,77.076574,CO,54,114,92
India,Delhi,Delhi,"Mundka, Delhi - DPCC",06-12-2025 07:00:00,28.684678,77.076574,OZONE,2,120,6
India,Delhi,Delhi,"North Campus, DU, Delhi - IMD",06-12-2025 07:00:00,28.6573814,77.1585447,OZONE,14,325,29
India,Delhi,Delhi,"Okhla Phase-2, Delhi - DPCC",06-12-2025 07:00:00,28.530785,77.271255,PM2.5,301,435,345
India,Delhi,Delhi,"Najafgarh, Delhi - DPCC",06-12-2025 07:00:00,28.570173,76.933762,PM2.5,230,342,309
India,Delhi,Delhi,"Najafgarh, Delhi - DPCC",06-12-2025 07:00:00,28.570173,76.933762,PM10,145,200,169
India,Delhi,Delhi,"Najafgarh, Delhi - DPCC",06-12-2025 07:00:00,28.570173,76.933762,CO,38,82,54
India,Delhi,Delhi,"Narela, Delhi - DPCC",06-12-2025 07:00:00,28.822836,77.101981,OZONE,2,146,24
India,Delhi,Delhi,"Nehru Nagar, Delhi - DPCC",06-12-2025 07:00:00,28.567890,77.250515,PM2.5,293,500,376
India,Delhi,Delhi,"Narela, Delhi - DPCC",06-12-2025 07:00:00,28.822836,77.101981,NO2,15,88,46
India,Delhi,Delhi,"Narela, Delhi - DPCC",06-12-2025 07:00:00,28.822836,77.101981,SO2,10,28,16
India,Delhi,Delhi,"North Campus, DU, Delhi - IMD",06-12-2025 07:00:00,28.6573814,77.1585447,PM2.5,283,376,328
India,Delhi,Delhi,"Nehru Nagar, Delhi - DPCC",06-12-2025 07:00:00,28.567890,77.250515,PM10,175,467,290
India,Delhi,Delhi,"Pusa, Delhi - DPCC",06-12-2025 07:00:00,28.639652,77.146275,CO,57,104,81
India,Delhi,Delhi,"Pusa, Delhi - DPCC",06-12-2025 07:00:00,28.639652,77.146275,OZONE,18,31,28
India,Delhi,Delhi,"Pusa, Delhi - IMD",06-12-2025 07:00:00,28.636110,77.173332,PM10,139,418,259
India,Delhi,Delhi,"R K Puram, Delhi - DPCC",06-12-2025 07:00:00,28.563262,77.186937,PM2.5,273,447,364
India,Delhi,Delhi,"R K Puram, Delhi - DPCC",06-12-2025 07:00:00,28.563262,77.186937,PM10,167,447,309
India,Delhi,Delhi,"R K Puram, Delhi - DPCC",06-12-2025 07:00:00,28.563262,77.186937,NO2,34,134,95
India,Delhi,Delhi,"Okhla Phase-2, Delhi - DPCC",06-12-2025 07:00:00,28.530785,77.271255,NH3,11,16,14
India,Delhi,Delhi,"Patparganj, Delhi - DPCC",06-12-2025 07:00:00,28.623763,77.287209,PM2.5,293,406,354
India,Delhi,Delhi,"Patparganj, Delhi - DPCC",06-12-2025 07:00:00,28.623763,77.287209,PM10,188,401,274
India,Delhi,Delhi,"Shadipur, Delhi - CPCB",06-12-2025 07:00:00,28.6514781,77.1473105,NO2,56,127,84
India,Delhi,Delhi,"Shadipur, Delhi - CPCB",06-12-2025 07:00:00,28.6514781,77.1473105,CO,25,115,77
India,Delhi,Delhi,"Rohini, Delhi - DPCC",06-12-2025 07:00:00,28.732528,77.119920,PM10,165,431,308
India,Delhi,Delhi,"Pusa, Delhi - DPCC",06-12-2025 07:00:00,28.639652,77.146275,PM10,179,446,282
India,Delhi,Delhi,"Vivek Vihar, Delhi - DPCC",06-12-2025 07:00:00,28.672342,77.315260,PM2.5,245,356,309
India,Delhi,Delhi,"Vivek Vihar, Delhi - DPCC",06-12-2025 07:00:00,28.672342,77.315260,PM10,195,408,282
India,Delhi,Delhi,"Vivek Vihar, Delhi - DPCC",06-12-2025 07:00:00,28.672342,77.315260,NH3,10,12,11
India,Delhi,Delhi,"Wazirpur, Delhi - DPCC",06-12-2025 07:00:00,28.699793,77.165453,PM2.5,301,395,359
India,Gujarat,Ahmedabad,"Maninagar, Ahmedabad - GPCB",06-12-2025 07:00:00,23.002657,72.591912,OZONE,58,80,64
India,Gujarat,Ahmedabad,"Raikhad, Ahmedabad - IITM",06-12-2025 07:00:00,23.020509,72.579261,PM2.5,89,154,125
India,Delhi,Delhi,"Sri Aurobindo Marg, Delhi - DPCC",06-12-2025 07:00:00,28.531346,77.190156,PM2.5,223,340,301
India,Delhi,Delhi,"Sri Aurobindo Marg, Delhi - DPCC",06-12-2025 07:00:00,28.531346,77.190156,PM10,146,226,185
India,Gujarat,Ahmedabad,"Chandkheda, Ahmedabad - IITM",06-12-2025 07:00:00,23.107969,72.574648,NO2,15,98,35
India,Gujarat,Ahmedabad,"Gyaspur, Ahmedabad - IITM",06-12-2025 07:00:00,22.977134,72.553024,NO2,40,133,78
India,Gujarat,Ahmedabad,"Chandkheda, Ahmedabad - IITM",06-12-2025 07:00:00,23.107969,72.574648,SO2,2,6,4
India,Delhi,Delhi,"Sri Aurobindo Marg, Delhi - DPCC",06-12-2025 07:00:00,28.531346,77.190156,SO2,2,17,8
India,Delhi,Delhi,"Shadipur, Delhi - CPCB",06-12-2025 07:00:00,28.6514781,77.1473105,OZONE,8,28,9
India,Delhi,Delhi,"Wazirpur, Delhi - DPCC",06-12-2025 07:00:00,28.699793,77.165453,SO2,5,20,11
India,Gujarat,Gandhinagar,"IIPHG Lekawada, Gandhinagar - IITM",06-12-2025 07:00:00,23.243639,72.68994,PM10,12,106,58
India,Gujarat,Nandesari,"GIDC, Nandesari - Nandesari Ind. Association",06-12-2025 07:00:00,22.410802,73.097923,SO2,NA,NA,NA
India,Gujarat,Surat,"Science Center, Surat - SMC",06-12-2025 07:00:00,21.170046,72.795405,PM10,NA,NA,NA
India,Gujarat,Surat,"Science Center, Surat - SMC",06-12-2025 07:00:00,21.170046,72.795405,NO2,7,19,13
India,Gujarat,Surat,"Science Center, Surat - SMC",06-12-2025 07:00:00,21.170046,72.795405,SO2,28,38,34
India,Gujarat,Vapi,"Phase-1 GIDC, Vapi - GPCB",06-12-2025 07:00:00,20.362421,72.918013,PM2.5,43,260,88
India,Gujarat,Vapi,"Phase-1 GIDC, Vapi - GPCB",06-12-2025 07:00:00,20.362421,72.918013,PM10,45,151,74
India,Gujarat,Vapi,"Phase-1 GIDC, Vapi - GPCB",06-12-2025 07:00:00,20.362421,72.918013,SO2,14,32,21
India,Haryana,Mandikhera,"General Hospital, Mandikhera(Nuh) - HSPCB",06-12-2025 07:00:00,27.9002,76.9938,PM2.5,102,315,203
India,Haryana,Manesar,"Sector-2 IMT, Manesar - HSPCB",06-12-2025 07:00:00,28.360699,76.936090,PM2.5,156,350,293
India,Haryana,Manesar,"Sector-2 IMT, Manesar - HSPCB",06-12-2025 07:00:00,28.360699,76.936090,NO2,45,60,49
India,Haryana,Manesar,"Sector-2 IMT, Manesar - HSPCB",06-12-2025 07:00:00,28.360699,76.936090,NH3,13,18,15
India,Haryana,Manesar,"Sector-2 IMT, Manesar - HSPCB",06-12-2025 07:00:00,28.360699,76.936090,SO2,6,38,12
India,Haryana,Manesar,"Sector-2 IMT, Manesar - HSPCB",06-12-2025 07:00:00,28.360699,76.936090,CO,22,70,46
India,Haryana,Manesar,"Sector-2 IMT, Manesar - HSPCB",06-12-2025 07:00:00,28.360699,76.936090,OZONE,5,48,7
India,Haryana,Narnaul,"Shastri Nagar, Narnaul - HSPCB",06-12-2025 07:00:00,28.060249,76.113115,NO2,55,184,137
India,Haryana,Faridabad,"Sector 30, Faridabad - HSPCB",06-12-2025 07:00:00,28.4417,77.3217,NH3,11,12,11
India,Haryana,Fatehabad,"Huda Sector, Fatehabad - HSPCB",06-12-2025 07:00:00,29.503664,75.467934,OZONE,15,18,16
India,Haryana,Gurugram,"NISE Gwal Pahari, Gurugram - IMD",06-12-2025 07:00:00,28.422681,77.148944,NO2,16,65,34
India,Haryana,Gurugram,"NISE Gwal Pahari, Gurugram - IMD",06-12-2025 07:00:00,28.422681,77.148944,OZONE,7,91,9
India,Haryana,Gurugram,"Teri Gram, Gurugram - HSPCB",06-12-2025 07:00:00,28.4275,77.1465,NH3,11,20,14
India,Haryana,Gurugram,"Vikas Sadan, Gurugram - HSPCB",06-12-2025 07:00:00,28.4501238,77.0263051,SO2,3,8,5
India,Haryana,Hisar,"Urban Estate-II, Hisar - HSPCB",06-12-2025 07:00:00,29.140560,75.744941,PM2.5,49,95,74
India,Haryana,Hisar,"Urban Estate-II, Hisar - HSPCB",06-12-2025 07:00:00,29.140560,75.744941,NH3,7,8,8
India,Haryana,Hisar,"Urban Estate-II, Hisar - HSPCB",06-12-2025 07:00:00,29.140560,75.744941,SO2,7,13,11
India,Haryana,Kaithal,"Rishi Nagar, Kaithal - HSPCB",06-12-2025 07:00:00,29.8006,76.4155,SO2,27,36,31
India,Haryana,Ambala,"Patti Mehar, Ambala - HSPCB",06-12-2025 07:00:00,30.379589,76.778328,CO,98,100,100
India,Haryana,Bahadurgarh,"Arya Nagar, Bahadurgarh - HSPCB",06-12-2025 07:00:00,28.6701,76.9254,NH3,12,13,13
India,Haryana,Bahadurgarh,"Arya Nagar, Bahadurgarh - HSPCB",06-12-2025 07:00:00,28.6701,76.9254,CO,44,50,48
India,Haryana,Bhiwani,"H.B. Colony, Bhiwani - HSPCB",06-12-2025 07:00:00,28.806223,76.141105,PM10,117,258,130
India,Haryana,Charkhi Dadri,"Mini Secretariat, Charkhi Dadri - HSPCB",06-12-2025 07:00:00,28.593883,76.270653,NO2,9,22,15
