country,state,city,station,last_update,latitude,longitude,pollutant_id,min_value,max_value,avg_value
India,Andhra_Pradesh,Eluru,"District Court, Eluru - APPCB",21-03-2026 08:00:00,16.711754,81.092095,NH3,3,4,3
India,Andhra_Pradesh,Eluru,"District Court, Eluru - APPCB",21-03-2026 08:00:00,16.711754,81.092095,SO2,8,101,13
India,Andhra_Pradesh,Guntur,"Rajendra Nagar North, Guntur - APPCB",21-03-2026 08:00:00,16.316553,80.413302,PM2.5,43,75,55
India,Andhra_Pradesh,Guntur,"Rajendra Nagar North, Guntur - APPCB",21-03-2026 08:00:00,16.316553,80.413302,SO2,10,21,13
India,Andhra_Pradesh,Guntur,"Rajendra Nagar North, Guntur - APPCB",21-03-2026 08:00:00,16.316553,80.413302,OZONE,20,37,20
India,Andhra_Pradesh,Kadapa,"Yerramukkapalli, Kadapa - APPCB",21-03-2026 08:00:00,14.465052,78.824187,PM10,29,72,60
India,Andhra_Pradesh,Kadapa,"Yerramukkapalli, Kadapa - APPCB",21-03-2026 08:00:00,14.465052,78.824187,SO2,9,19,12
India,Andhra_Pradesh,Machilipatnam,"Srinivas Nagar Colony, Machilipatnam - APPCB",21-03-2026 08:00:00,16.186555,81.13219,PM2.5,46,500,84
India,Andhra_Pradesh,Machilipatnam,"Srinivas Nagar Colony, Machilipatnam - APPCB",21-03-2026 08:00:00,16.186555,81.13219,NO2,10,25,16
India,Andhra_Pradesh,Machilipatnam,"Srinivas Nagar Colony, Machilipatnam - APPCB",21-03-2026 08:00:00,16.186555,81.13219,SO2,14,23,20
India,Andhra_Pradesh,Machilipatnam,"Srinivas Nagar Colony, Machilipatnam - APPCB",21-03-2026 08:00:00,16.186555,81.13219,OZONE,24,31,24
India,Andhra_Pradesh,Nellore,"Ambedkar Nagar, Nellore - APPCB ",21-03-2026 08:00:00,14.438164 ,79.966814 ,NO2,14,19,16
India,Andhra_Pradesh,Nellore,"Ambedkar Nagar, Nellore - APPCB ",21-03-2026 08:00:00,14.438164 ,79.966814 ,SO2,11,22,13
India,Andhra_Pradesh,Nellore,"Ambedkar Nagar, Nellore - APPCB ",21-03-2026 08:00:00,14.438164 ,79.966814 ,OZONE,5,41,12
India,Andhra_Pradesh,Vijayawada,"Kanuru, Vijayawada - APPCB",21-03-2026 08:00:00,16.486692,80.699436,SO2,10,19,15
India,Andhra_Pradesh,Vijayawada,"Rajiv Gandhi Park, Vijayawada - APPCB",21-03-2026 08:00:00,16.509717,80.612222,NO2,24,33,29
India,Andhra_Pradesh,Vijayawada,"Rajiv Gandhi Park, Vijayawada - APPCB",21-03-2026 08:00:00,16.509717,80.612222,SO2,13,22,16
India,Andhra_Pradesh,Vijayawada,"Rajiv Gandhi Park, Vijayawada - APPCB",21-03-2026 08:00:00,16.509717,80.612222,CO,24,46,24
India,Andhra_Pradesh,Vijayawada,"Rajiv Nagar, Vijayawada - APPCB",21-03-2026 08:00:00,16.554731,80.649110,SO2,11,15,14
India,Andhra_Pradesh,Visakhapatnam,"GVM Corporation, Visakhapatnam - APPCB",21-03-2026 08:00:00,17.72,83.3,PM2.5,14,62,30
India,Andhra_Pradesh,Visakhapatnam,"GVM Corporation, Visakhapatnam - APPCB",21-03-2026 08:00:00,17.72,83.3,SO2,1,101,16
India,Andhra_Pradesh,Visakhapatnam,"GVM Corporation, Visakhapatnam - APPCB",21-03-2026 08:00:00,17.72,83.3,CO,8,50,26
India,Arunachal_Pradesh,Naharlagun,"Naharlagun, Naharlagun - APSPCB",21-03-2026 08:00:00,27.103358,93.679645,NH3,NA,NA,NA
India,Andhra_Pradesh,Rajamahendravaram,"Anand Kala Kshetram, Rajamahendravaram - APPCB",21-03-2026 08:00:00,16.9872867,81.7363176,PM10,19,70,30
India,Andhra_Pradesh,Rajamahendravaram,"Anand Kala Kshetram, Rajamahendravaram - APPCB",21-03-2026 08:00:00,16.9872867,81.7363176,NH3,3,4,3
India,Andhra_Pradesh,Tirumala,"Toll Gate, Tirumala - APPCB",21-03-2026 08:00:00,13.67,79.35,OZONE,3,71,44
India,Andhra_Pradesh,Tirupati,"Vaikuntapuram, Tirupati - APPCB",21-03-2026 08:00:00,13.615387,79.409230,CO,20,31,21
India,Andhra_Pradesh,Vijayawada,"HB Colony, Vijayawada - APPCB",21-03-2026 08:00:00,16.536107,80.594233,NO2,15,27,17
India,Andhra_Pradesh,Vijayawada,"HB Colony, Vijayawada - APPCB",21-03-2026 08:00:00,16.536107,80.594233,CO,21,46,21
India,Andhra_Pradesh,Vijayawada,"Kanuru, Vijayawada - APPCB",21-03-2026 08:00:00,16.486692,80.699436,PM10,43,77,54
India,Bihar,Muzaffarpur,"Buddha Colony, Muzaffarpur - BSPCB",21-03-2026 08:00:00,26.11442,85.39813,NO2,6,27,20
India,Bihar,Muzaffarpur,"Buddha Colony, Muzaffarpur - BSPCB",21-03-2026 08:00:00,26.11442,85.39813,OZONE,22,311,88
India,Bihar,Muzaffarpur,"MIT-Daudpur Kothi, Muzaffarpur - BSPCB",21-03-2026 08:00:00,26.1403345,85.3650192,PM10,NA,NA,NA
India,Bihar,Muzaffarpur,"Muzaffarpur Collectorate, Muzaffarpur - BSPCB",21-03-2026 08:00:00,26.1209,85.3647,SO2,NA,NA,NA
India,Bihar,Patna,"DRM Office Danapur, Patna - BSPCB",21-03-2026 08:00:00,25.586562,85.043586,PM2.5,45,96,76
India,Bihar,Patna,"DRM Office Danapur, Patna - BSPCB",21-03-2026 08:00:00,25.586562,85.043586,SO2,5,9,7
India,Bihar,Patna,"Govt. High School Shikarpur, Patna - BSPCB",21-03-2026 08:00:00,25.592539,85.227158,NO2,13,18,15
India,Bihar,Hajipur,"Industrial Area, Hajipur - BSPCB",21-03-2026 08:00:00,25.697189,85.245900,NH3,9,13,11
India,Bihar,Hajipur,"Industrial Area, Hajipur - BSPCB",21-03-2026 08:00:00,25.697189,85.245900,OZONE,24,173,43
India,Bihar,Katihar,"Mirchaibari, Katihar - BSPCB",21-03-2026 08:00:00,25.560083,87.553265,PM2.5,2,45,27
India,Bihar,Katihar,"Mirchaibari, Katihar - BSPCB",21-03-2026 08:00:00,25.560083,87.553265,SO2,15,22,19
India,Bihar,Kishanganj,"SDM Office_Khagra, Kishanganj - BSPCB",21-03-2026 08:00:00,26.0881305,87.93840336,CO,9,18,12
India,Bihar,Motihari,"Gandak Colony, Motihari - BSPCB",21-03-2026 08:00:00,26.63086,84.90051,PM10,12,155,46
India,Bihar,Arrah,"New DM Office, Arrah - BSPCB",21-03-2026 08:00:00,25.5626095,84.663264,OZONE,4,14,8
India,Bihar,Aurangabad,"Gurdeo Nagar, Aurangabad - BSPCB",21-03-2026 08:00:00,24.75746,84.366208,PM2.5,NA,NA,NA
India,Bihar,Aurangabad,"Gurdeo Nagar, Aurangabad - BSPCB",21-03-2026 08:00:00,24.75746,84.366208,NO2,7,8,8
India,Bihar,Aurangabad,"Gurdeo Nagar, Aurangabad - BSPCB",21-03-2026 08:00:00,24.75746,84.366208,OZONE,1,60,10
India,Bihar,Begusarai,"Lohiyanagar, Begusarai - BSPCB",21-03-2026 08:00:00,25.42742023,86.13886079,NO2,11,17,14
India,Bihar,Bhagalpur,"Mayaganj, Bhagalpur - BSPCB",21-03-2026 08:00:00,25.265194,87.012947,NO2,6,8,7
India,Assam,Guwahati,"LGBI Airport, Guwahati - PCBA",21-03-2026 08:00:00,26.10887,91.589544,NH3,5,6,5
India,Assam,Guwahati,"LGBI Airport, Guwahati - PCBA",21-03-2026 08:00:00,26.10887,91.589544,SO2,6,19,11
India,Assam,Guwahati,"LGBI Airport, Guwahati - PCBA",21-03-2026 08:00:00,26.10887,91.589544,CO,14,86,36
India,Assam,Guwahati,"Pan Bazaar, Guwahati - PCBA",21-03-2026 08:00:00,26.187500,91.744194,SO2,7,8,7
India,Assam,Guwahati,"Railway Colony, Guwahati - PCBA",21-03-2026 08:00:00,26.181742,91.78063,CO,1,21,6
India,Assam,Nagaon,"Christianpatty, Nagaon - PCBA",21-03-2026 08:00:00,26.349082,92.68449,PM2.5,34,138,64
India,Bihar,Bihar Sharif,"D M Colony, Bihar Sharif - BSPCB",21-03-2026 08:00:00,25.204762,85.514960,SO2,7,10,10
India,Bihar,Bihar Sharif,"D M Colony, Bihar Sharif - BSPCB",21-03-2026 08:00:00,25.204762,85.514960,OZONE,1,2,2
India,Bihar,Gaya,"Collectorate, Gaya - BSPCB",21-03-2026 08:00:00,24.7955,84.9994,PM2.5,NA,NA,NA
India,Bihar,Gaya,"Kareemganj, Gaya - BSPCB",21-03-2026 08:00:00,24.792403,84.992416,NH3,1,2,1
India,Bihar,Gaya,"Kareemganj, Gaya - BSPCB",21-03-2026 08:00:00,24.792403,84.992416,CO,1,12,4
India,Bihar,Gaya,"SFTI Kusdihra, Gaya - BSPCB",21-03-2026 08:00:00,24.762518,84.982348,PM2.5,29,74,53
India,Assam,Nagaon,"Christianpatty, Nagaon - PCBA",21-03-2026 08:00:00,26.349082,92.68449,OZONE,11,27,17
India,Assam,Silchar,"Tarapur, Silchar - PCBA",21-03-2026 08:00:00,24.82827,92.79525,CO,35,57,40
India,Assam,Sivasagar,"Girls College, Sivasagar - PCBA",21-03-2026 08:00:00,26.987634,94.636574,CO,12,40,31
India,Bihar,Araria,"Kharahiya Basti, Araria - BSPCB",21-03-2026 08:00:00,26.146529,87.454184,NH3,4,5,4
India,Andhra_Pradesh,Anantapur,"Gulzarpet, Anantapur - APPCB",21-03-2026 08:00:00,14.675886,77.593027,NH3,4,7,5
India,Andhra_Pradesh,Chittoor,"Gangineni Cheruvu, Chittoor - APPCB",21-03-2026 08:00:00,13.204880,79.097889,PM2.5,39,76,50
India,Andhra_Pradesh,Chittoor,"Gangineni Cheruvu, Chittoor - APPCB",21-03-2026 08:00:00,13.204880,79.097889,PM10,40,73,50
India,Delhi,Delhi,"DTU, Delhi - CPCB",21-03-2026 08:00:00,28.7500499,77.1112615,NO2,47,68,56
India,Delhi,Delhi,"DTU, Delhi - CPCB",21-03-2026 08:00:00,28.7500499,77.1112615,NH3,7,9,8
India,Delhi,Delhi,"DTU, Delhi - CPCB",21-03-2026 08:00:00,28.7500499,77.1112615,SO2,28,38,34
India,Delhi,Delhi,"Dr. Karni Singh Shooting Range, Delhi - DPCC",21-03-2026 08:00:00,28.498571,77.264840,PM10,46,107,79
India,Delhi,Delhi,"Dr. Karni Singh Shooting Range, Delhi - DPCC",21-03-2026 08:00:00,28.498571,77.264840,NO2,22,47,30
India,Delhi,Delhi,"Dr. Karni Singh Shooting Range, Delhi - DPCC",21-03-2026 08:00:00,28.498571,77.264840,SO2,11,14,13
India,Delhi,Delhi,"Dr. Karni Singh Shooting Range, Delhi - DPCC",21-03-2026 08:00:00,28.498571,77.264840,CO,62,94,73
India,Delhi,Delhi,"Dwarka-Sector 8, Delhi - DPCC ",21-03-2026 08:00:00,28.5710274,77.0719006,PM2.5,40,163,87
India,Delhi,Delhi,"Dwarka-Sector 8, Delhi - DPCC ",21-03-2026 08:00:00,28.5710274,77.0719006,NO2,18,77,42
India,Delhi,Delhi,"Dwarka-Sector 8, Delhi - DPCC ",21-03-2026 08:00:00,28.5710274,77.0719006,CO,38,77,65
India,Delhi,Delhi,"IGI Airport (T3), Delhi - IMD",21-03-2026 08:00:00,28.5627763,77.1180053,CO,28,62,54
India,Delhi,Delhi,"IGNOU_Maidan Garhi, Delhi - DPCC",21-03-2026 08:00:00,28.493624 ,77.201159 ,PM10,19,132,85
India,Delhi,Delhi,"IGNOU_Maidan Garhi, Delhi - DPCC",21-03-2026 08:00:00,28.493624 ,77.201159 ,NO2,8,23,12
India,Delhi,Delhi,"IGNOU_Maidan Garhi, Delhi - DPCC",21-03-2026 08:00:00,28.493624 ,77.201159 ,SO2,55,59,57
India,Delhi,Delhi,"IHBAS, Dilshad Garden, Delhi - CPCB",21-03-2026 08:00:00,28.6811736,77.3025234,PM2.5,17,87,30
India,Chhattisgarh,Raipur,"Siltara Phase-II, Raipur - CECB",21-03-2026 08:00:00,21.371751,81.664929,OZONE,3,38,10
India,Chhattisgarh,Tumidih,"OP Jindal Industrial Park, Tumidih - CECB",21-03-2026 08:00:00,22.06631475,83.33820077,CO,22,42,24
India,Delhi,Delhi,"Alipur, Delhi - DPCC",21-03-2026 08:00:00,28.815329,77.153010,NO2,16,33,23
India,Delhi,Delhi,"Alipur, Delhi - DPCC",21-03-2026 08:00:00,28.815329,77.153010,SO2,7,11,8
India,Delhi,Delhi,"Anand Vihar, Delhi - DPCC",21-03-2026 08:00:00,28.647622,77.3158090,CO,64,107,94
India,Delhi,Delhi,"Anand Vihar, Delhi - DPCC",21-03-2026 08:00:00,28.647622,77.3158090,OZONE,7,23,11
India,Delhi,Delhi,"Ashok Vihar, Delhi - DPCC",21-03-2026 08:00:00,28.695381,77.181665,PM2.5,45,160,82
India,Delhi,Delhi,"Ashok Vihar, Delhi - DPCC",21-03-2026 08:00:00,28.695381,77.181665,CO,26,54,50
India,Delhi,Delhi,"Ashok Vihar, Delhi - DPCC",21-03-2026 08:00:00,28.695381,77.181665,OZONE,2,48,6
India,Chhattisgarh,Bilaspur,"Mangala, Bilaspur - NTPC",21-03-2026 08:00:00,22.08815,82.13737,CO,16,76,19
India,Chhattisgarh,Chhal,"Nawapara SECL Colony, Chhal - CECB",21-03-2026 08:00:00,22.118125,83.140608,OZONE,81,81,81
India,Chhattisgarh,Korba,"Rampur, Korba - CECB",21-03-2026 08:00:00,22.368195,82.746431,CO,10,60,10
India,Chhattisgarh,Korba,"Urja Nagar, Korba - CECB",21-03-2026 08:00:00,22.348441,82.549611,PM2.5,12,211,66
India,Chhattisgarh,Korba,"Urja Nagar, Korba - CECB",21-03-2026 08:00:00,22.348441,82.549611,NO2,21,32,25
India,Chhattisgarh,Korba,"Urja Nagar, Korba - CECB",21-03-2026 08:00:00,22.348441,82.549611,NH3,1,1,1
India,Chhattisgarh,Korba,"Urja Nagar, Korba - CECB",21-03-2026 08:00:00,22.348441,82.549611,SO2,1,22,13
India,Chhattisgarh,Kunjemura,"OP Jindal School, Kunjemura - CECB",21-03-2026 08:00:00,22.126650,83.483212,SO2,13,42,23
India,Bihar,Purnia,"Mariam Nagar, Purnia - BSPCB",21-03-2026 08:00:00,25.366336,87.117468,OZONE,19,42,25
India,Bihar,Rajgir,"Dangi Tola, Rajgir - BSPCB",21-03-2026 08:00:00,25.03280,85.41948,NH3,3,3,3
India,Bihar,Saharsa,"Police Line, Saharsa - BSPCB",21-03-2026 08:00:00,25.892357,86.590325,CO,NA,NA,NA
India,Bihar,Samastipur,"DM Office_Kasipur, Samastipur - BSPCB",21-03-2026 08:00:00,25.859655,85.77944,NH3,NA,NA,NA
India,Bihar,Sasaram,"Dada Peer, Sasaram - BSPCB",21-03-2026 08:00:00,24.952822,84.002396,PM10,NA,NA,NA
India,Bihar,Sasaram,"Dada Peer, Sasaram - BSPCB",21-03-2026 08:00:00,24.952822,84.002396,CO,41,108,62
India,Chhattisgarh,Milupara,"Govt. Higher Secondary School, Milupara - CECB",21-03-2026 08:00:00,22.1910172,83.5197009,PM10,NA,NA,NA
India,Chhattisgarh,Milupara,"Govt. Higher Secondary School, Milupara - CECB",21-03-2026 08:00:00,22.1910172,83.5197009,NH3,NA,NA,NA
India,Chhattisgarh,Raipur,"AIIMS, Raipur - CECB",21-03-2026 08:00:00,21.258815,81.578979,OZONE,5,12,6
India,Chhattisgarh,Raipur,"Krishak Nagar, Raipur - CECB",21-03-2026 08:00:00,21.237755,81.705301,PM2.5,19,36,26
India,Chhattisgarh,Raipur,"Krishak Nagar, Raipur - CECB",21-03-2026 08:00:00,21.237755,81.705301,SO2,2,8,4
India,Chhattisgarh,Raipur,"Krishak Nagar, Raipur - CECB",21-03-2026 08:00:00,21.237755,81.705301,OZONE,1,29,2
India,Chandigarh,Chandigarh,"Sector 22, Chandigarh - CPCC",21-03-2026 08:00:00,30.735567,76.775714,PM2.5,20,88,46
India,Chandigarh,Chandigarh,"Sector-53, Chandigarh - CPCC",21-03-2026 08:00:00,30.719859,76.738637,PM2.5,NA,NA,NA
India,Chhattisgarh,Bhilai,"32Bungalows, Bhilai - CECB",21-03-2026 08:00:00,21.194815,81.314770,PM10,11,25,17
India,Chhattisgarh,Bhilai,"Civic Center, Bhilai - Bhilai Steel Plant",21-03-2026 08:00:00,21.185571,81.343175,PM10,13,34,20
India,Chhattisgarh,Bhilai,"Civic Center, Bhilai - Bhilai Steel Plant",21-03-2026 08:00:00,21.185571,81.343175,NO2,10,11,11
India,Delhi,Delhi,"Bawana, Delhi - DPCC",21-03-2026 08:00:00,28.776200,77.051074,NO2,7,30,15
India,Delhi,Delhi,"Bawana, Delhi - DPCC",21-03-2026 08:00:00,28.776200,77.051074,NH3,6,8,7
India,Delhi,Delhi,"Cantonment Area, Delhi - DPCC ",21-03-2026 08:00:00,28.594169 ,77.125100 ,PM2.5,11,37,23
India,Delhi,Delhi,"Chandni Chowk, Delhi - IITM",21-03-2026 08:00:00,28.656756,77.227234,NH3,7,14,9
India,Delhi,Delhi,"Chandni Chowk, Delhi - IITM",21-03-2026 08:00:00,28.656756,77.227234,CO,104,120,115
India,Bihar,Patna,"IGSC Planetarium Complex, Patna - BSPCB",21-03-2026 08:00:00,25.610369,85.132568,SO2,8,27,16
India,Bihar,Patna,"IGSC Planetarium Complex, Patna - BSPCB",21-03-2026 08:00:00,25.610369,85.132568,CO,17,48,40
India,Bihar,Patna,"Rajbansi Nagar, Patna - BSPCB",21-03-2026 08:00:00,25.599486,85.113666,NH3,4,4,4
India,Bihar,Patna,"Samanpura, Patna - BSPCB",21-03-2026 08:00:00,25.596727,85.085624,CO,86,100,89
India,Delhi,Delhi,"IHBAS, Dilshad Garden, Delhi - CPCB",21-03-2026 08:00:00,28.6811736,77.3025234,NO2,25,83,64
India,Delhi,Delhi,"IIT Delhi, Delhi - IITM",21-03-2026 08:00:00,28.542460,77.191651,CO,45,76,69
India,Delhi,Delhi,"ITO, Delhi - CPCB",21-03-2026 08:00:00,28.628624,77.241060,PM2.5,48,87,66
India,Delhi,Delhi,"ITO, Delhi - CPCB",21-03-2026 08:00:00,28.628624,77.241060,SO2,12,43,27
India,Gujarat,Ahmedabad,"SAC ISRO Bopal, Ahmedabad - IITM",21-03-2026 08:00:00,23.041137,72.456691,OZONE,1,50,4
India,Gujarat,Ahmedabad,"SVPI Airport Hansol, Ahmedabad - IITM",21-03-2026 08:00:00,23.076793,72.627874,OZONE,4,66,12
India,Gujarat,Ankleshwar,"GIDC, Ankleshwar - GPCB",21-03-2026 08:00:00,21.613267,73.010555,NO2,NA,NA,NA
India,Gujarat,Bhavnagar,"Vidhyanagar, Bhavnagar - Nexteng Enviro",21-03-2026 08:00:00,21.755417,72.139056,NO2,39,56,42
India,Gujarat,Bhavnagar,"Vidhyanagar, Bhavnagar - Nexteng Enviro",21-03-2026 08:00:00,21.755417,72.139056,SO2,5,19,8
India,Gujarat,Bhavnagar,"Vidhyanagar, Bhavnagar - Nexteng Enviro",21-03-2026 08:00:00,21.755417,72.139056,OZONE,3,11,7
India,Gujarat,Gandhinagar,"GIFT City, Gandhinagar - IITM",21-03-2026 08:00:00,23.163798,72.677768,SO2,7,15,11
India,Delhi,Delhi,"Jawaharlal Nehru Stadium, Delhi - DPCC",21-03-2026 08:00:00,28.580280,77.233829,PM10,34,129,82
India,Delhi,Delhi,"Jawaharlal Nehru Stadium, Delhi - DPCC",21-03-2026 08:00:00,28.580280,77.233829,CO,40,86,76
India,Delhi,Delhi,"Lodhi Road, Delhi - IMD",21-03-2026 08:00:00,28.5918245,77.2273074,NO2,14,27,19
India,Delhi,Delhi,"Major Dhyan Chand National Stadium, Delhi - DPCC",21-03-2026 08:00:00,28.611281,77.237738,OZONE,1,57,2
India,Delhi,Delhi,"Mandir Marg, Delhi - DPCC",21-03-2026 08:00:00,28.636429,77.201067,NH3,6,8,7
India,Delhi,Delhi,"Mundka, Delhi - DPCC",21-03-2026 08:00:00,28.684678,77.076574,SO2,24,33,27
India,Delhi,Delhi,"Okhla Phase-2, Delhi - DPCC",21-03-2026 08:00:00,28.530785,77.271255,PM10,NA,NA,NA
India,Delhi,Delhi,"Okhla Phase-2, Delhi - DPCC",21-03-2026 08:00:00,28.530785,77.271255,NH3,NA,NA,NA
India,Delhi,Delhi,"Patparganj, Delhi - DPCC",21-03-2026 08:00:00,28.623763,77.287209,NH3,7,16,10
India,Delhi,Delhi,"Patparganj, Delhi - DPCC",21-03-2026 08:00:00,28.623763,77.287209,CO,43,86,81
India,Delhi,Delhi,"Punjabi Bagh, Delhi - DPCC",21-03-2026 08:00:00,28.674045,77.131023,SO2,43,52,48
India,Delhi,Delhi,"Punjabi Bagh, Delhi - DPCC",21-03-2026 08:00:00,28.674045,77.131023,OZONE,4,44,6
India,Delhi,Delhi,"R K Puram, Delhi - DPCC",21-03-2026 08:00:00,28.563262,77.186937,PM2.5,50,187,102
India,Delhi,Delhi,"R K Puram, Delhi - DPCC",21-03-2026 08:00:00,28.563262,77.186937,SO2,2,18,11
India,Gujarat,Gandhinagar,"GIFT City, Gandhinagar - IITM",21-03-2026 08:00:00,23.163798,72.677768,CO,45,91,65
India,Gujarat,Gandhinagar,"IIPHG Lekawada, Gandhinagar - IITM",21-03-2026 08:00:00,23.243639,72.68994,CO,6,34,24
India,Gujarat,Mehsana,"Sadanand Nagar, Mehsana - Nexteng Enviro",21-03-2026 08:00:00,23.593150,72.372792,PM2.5,34,130,67
India,Gujarat,Mehsana,"Sadanand Nagar, Mehsana - Nexteng Enviro",21-03-2026 08:00:00,23.593150,72.372792,PM10,39,137,91
India,Gujarat,Nandesari,"GIDC, Nandesari - Nandesari Ind. Association",21-03-2026 08:00:00,22.410802,73.097923,PM10,60,251,115
India,Delhi,Delhi,"Talkatora Garden, Delhi - DPCC",21-03-2026 08:00:00,28.621810,77.1944633,PM2.5,38,111,76
India,Delhi,Delhi,"Vivek Vihar, Delhi - DPCC",21-03-2026 08:00:00,28.672342,77.315260,CO,62,88,73
India,Delhi,Delhi,"Wazirpur, Delhi - DPCC",21-03-2026 08:00:00,28.699793,77.165453,PM10,44,152,99
India,Delhi,Delhi,"Wazirpur, Delhi - DPCC",21-03-2026 08:00:00,28.699793,77.165453,NH3,8,10,9
India,Gujarat,Ahmedabad,"Chandkheda, Ahmedabad - IITM",21-03-2026 08:00:00,23.107969,72.574648,CO,4,52,33
India,Delhi,Delhi,"R K Puram, Delhi - DPCC",21-03-2026 08:00:00,28.563262,77.186937,CO,38,96,81
India,Delhi,Delhi,"Rohini, Delhi - DPCC",21-03-2026 08:00:00,28.732528,77.119920,NH3,12,14,14
India,Delhi,Delhi,"Rohini, Delhi - DPCC",21-03-2026 08:00:00,28.732528,77.119920,CO,13,54,36
India,Delhi,Delhi,"Sirifort, Delhi - CPCB",21-03-2026 08:00:00,28.5504249,77.2159377,PM10,54,125,98
India,Delhi,Delhi,"Sirifort, Delhi - CPCB",21-03-2026 08:00:00,28.5504249,77.2159377,NO2,38,50,43
India,Delhi,Delhi,"Sri Aurobindo Marg, Delhi - DPCC",21-03-2026 08:00:00,28.531346,77.190156,PM2.5,42,88,66
India,Delhi,Delhi,"NSIT Dwarka, Delhi - CPCB",21-03-2026 08:00:00,28.60909,77.0325413,OZONE,30,48,40
India,Delhi,Delhi,"NSUT Jaffarpur, Delhi - DPCC",21-03-2026 08:00:00,28.594004 ,76.909423 ,OZONE,NA,NA,NA
India,Delhi,Delhi,"Najafgarh, Delhi - DPCC",21-03-2026 08:00:00,28.570173,76.933762,PM10,13,73,46
India,Delhi,Delhi,"Nehru Nagar, Delhi - DPCC",21-03-2026 08:00:00,28.567890,77.250515,NO2,29,49,36
India,Delhi,Delhi,"Nehru Nagar, Delhi - DPCC",21-03-2026 08:00:00,28.567890,77.250515,OZONE,1,64,3
India,Gujarat,Ahmedabad,"Gyaspur, Ahmedabad - IITM",21-03-2026 08:00:00,22.977134,72.553024,PM10,46,222,92
India,Gujarat,Ahmedabad,"Gyaspur, Ahmedabad - IITM",21-03-2026 08:00:00,22.977134,72.553024,SO2,2,134,54
India,Gujarat,Ahmedabad,"Maninagar, Ahmedabad - GPCB",21-03-2026 08:00:00,23.002657,72.591912,SO2,34,100,79
India,Gujarat,Ahmedabad,"Raikhad, Ahmedabad - IITM",21-03-2026 08:00:00,23.020509,72.579261,NH3,15,26,20
India,Gujarat,Ahmedabad,"Raikhad, Ahmedabad - IITM",21-03-2026 08:00:00,23.020509,72.579261,CO,2,103,60
India,Delhi,Delhi,"New Moti Bagh, Delhi - MHUA",21-03-2026 08:00:00,28.57834,77.18400,CO,22,56,51
India,Delhi,Delhi,"North Campus, DU, Delhi - IMD",21-03-2026 08:00:00,28.6573814,77.1585447,OZONE,6,22,9
India,Haryana,Faridabad,"New Industrial Town, Faridabad - HSPCB",21-03-2026 08:00:00,28.39072,77.30059,SO2,8,8,8
India,Haryana,Faridabad,"New Industrial Town, Faridabad - HSPCB",21-03-2026 08:00:00,28.39072,77.30059,OZONE,25,34,30
India,Haryana,Faridabad,"Sector 11, Faridabad - HSPCB",21-03-2026 08:00:00,28.376058,77.315741,PM10,41,458,188
India,Haryana,Faridabad,"Sector 11, Faridabad - HSPCB",21-03-2026 08:00:00,28.376058,77.315741,NH3,10,10,10
India,Haryana,Faridabad,"Sector 11, Faridabad - HSPCB",21-03-2026 08:00:00,28.376058,77.315741,SO2,3,3,3
India,Haryana,Faridabad,"Sector 11, Faridabad - HSPCB",21-03-2026 08:00:00,28.376058,77.315741,CO,27,51,47
India,Haryana,Faridabad,"Sector 30, Faridabad - HSPCB",21-03-2026 08:00:00,28.4417,77.3217,OZONE,5,22,5
India,Haryana,Fatehabad,"Huda Sector, Fatehabad - HSPCB",21-03-2026 08:00:00,29.503664,75.467934,PM2.5,19,228,57
India,Haryana,Fatehabad,"Huda Sector, Fatehabad - HSPCB",21-03-2026 08:00:00,29.503664,75.467934,NH3,13,15,14
India,Haryana,Fatehabad,"Huda Sector, Fatehabad - HSPCB",21-03-2026 08:00:00,29.503664,75.467934,SO2,10,11,10
India,Haryana,Hisar,"Urban Estate-II, Hisar - HSPCB",21-03-2026 08:00:00,29.140560,75.744941,SO2,7,14,11
India,Haryana,Hisar,"Urban Estate-II, Hisar - HSPCB",21-03-2026 08:00:00,29.140560,75.744941,CO,14,55,30
India,Haryana,Jind,"Police Lines, Jind - HSPCB",21-03-2026 08:00:00,29.307814,76.337619,NO2,25,42,35
India,Haryana,Jind,"Police Lines, Jind - HSPCB",21-03-2026 08:00:00,29.307814,76.337619,NH3,5,7,5
India,Haryana,Kaithal,"Rishi Nagar, Kaithal - HSPCB",21-03-2026 08:00:00,29.8006,76.4155,PM10,26,47,39
India,Haryana,Kaithal,"Rishi Nagar, Kaithal - HSPCB",21-03-2026 08:00:00,29.8006,76.4155,OZONE,1,16,2
India,Haryana,Karnal,"Sector-12, Karnal - HSPCB",21-03-2026 08:00:00,29.695300,77.002700,SO2,7,11,9
India,Haryana,Gurugram,"NISE Gwal Pahari, Gurugram - IMD",21-03-2026 08:00:00,28.422681,77.148944,PM2.5,3,95,48
India,Haryana,Gurugram,"NISE Gwal Pahari, Gurugram - IMD",21-03-2026 08:00:00,28.422681,77.148944,CO,9,38,33
India,Haryana,Gurugram,"Sector-51, Gurugram - HSPCB",21-03-2026 08:00:00,28.4227,77.0667,CO,10,36,26
India,Haryana,Gurugram,"Teri Gram, Gurugram - HSPCB",21-03-2026 08:00:00,28.4275,77.1465,PM10,NA,NA,NA
India,Haryana,Gurugram,"Teri Gram, Gurugram - HSPCB",21-03-2026 08:00:00,28.4275,77.1465,OZONE,NA,NA,NA
India,Haryana,Gurugram,"Vikas Sadan, Gurugram - HSPCB",21-03-2026 08:00:00,28.4501238,77.0263051,PM2.5,21,186,71
India,Haryana,Ballabgarh,"Nathu Colony, Ballabgarh - HSPCB",21-03-2026 08:00:00,28.3419248,77.319699,NO2,19,20,20
India,Haryana,Bhiwani,"H.B. Colony, Bhiwani - HSPCB",21-03-2026 08:00:00,28.806223,76.141105,NO2,2,17,10
India,Haryana,Charkhi Dadri,"Mini Secretariat, Charkhi Dadri - HSPCB",21-03-2026 08:00:00,28.593883,76.270653,PM10,11,125,66
India,Gujarat,Surat,"Science Center, Surat - SMC",21-03-2026 08:00:00,21.170046,72.795405,NO2,19,24,22
India,Gujarat,Vapi,"Phase-1 GIDC, Vapi - GPCB",21-03-2026 08:00:00,20.362421,72.918013,NO2,NA,NA,NA
India,Gujarat,Vapi,"Phase-1 GIDC, Vapi - GPCB",21-03-2026 08:00:00,20.362421,72.918013,NH3,NA,NA,NA
India,Gujarat,Vatva,"Phase-4 GIDC, Vatva - GPCB",21-03-2026 08:00:00,22.969611,72.643500,OZONE,30,44,31
India,Haryana,Ambala,"Patti Mehar, Ambala - HSPCB",21-03-2026 08:00:00,30.379589,76.778328,NO2,9,11,10
India,Haryana,Mandikhera,"General Hospital, Mandikhera(Nuh) - HSPCB",21-03-2026 08:00:00,27.9002,76.9938,NO2,19,23,21
India,Haryana,Kurukshetra,"Sector-7, Kurukshetra - HSPCB",21-03-2026 08:00:00,29.966942,76.875879,SO2,1,14,6
India,Haryana,Bahadurgarh,"Arya Nagar, Bahadurgarh - HSPCB",21-03-2026 08:00:00,28.6701,76.9254,NO2,13,14,13
India,Karnataka,Chamarajanagar,"Urban, Chamarajanagar - KSPCB",21-03-2026 08:00:00,11.55358,76.55521,NO2,20,36,32
India,Karnataka,Chamarajanagar,"Urban, Chamarajanagar - KSPCB",21-03-2026 08:00:00,11.55358,76.55521,CO,15,32,20
India,Karnataka,Chikkaballapur,"Chikkaballapur Rural, Chikkaballapur - KSPCB",21-03-2026 08:00:00,13.428828,77.731418,PM2.5,29,93,50
India,Karnataka,Chikkaballapur,"Chikkaballapur Rural, Chikkaballapur - KSPCB",21-03-2026 08:00:00,13.428828,77.731418,OZONE,14,18,18
India,Karnataka,Chikkamagaluru,"Kalyana Nagara, Chikkamagaluru - KSPCB",21-03-2026 08:00:00,13.328028,75.797056,NH3,2,3,3
India,Karnataka,Chikkamagaluru,"Kalyana Nagara, Chikkamagaluru - KSPCB",21-03-2026 08:00:00,13.328028,75.797056,OZONE,25,58,25
India,Karnataka,Dharwad,"Kalabhavan, Dharwad - KSPCB",21-03-2026 08:00:00,15.459706,75.008381,NO2,16,18,16
India,Karnataka,Dharwad,"Kalabhavan, Dharwad - KSPCB",21-03-2026 08:00:00,15.459706,75.008381,SO2,6,8,7
India,Karnataka,Dharwad,"Kalabhavan, Dharwad - KSPCB",21-03-2026 08:00:00,15.459706,75.008381,CO,40,115,52
India,Karnataka,Hubballi,"Lingaraj Nagar, Hubballi - KSPCB",21-03-2026 08:00:00,15.3714823,75.1160168,NH3,1,2,2
India,Jharkhand,Jorapokhar,"Tata Stadium, Jorapokhar - JSPCB",21-03-2026 08:00:00,23.707909,86.414670,CO,NA,NA,NA
India,Jharkhand,Jorapokhar,"Tata Stadium, Jorapokhar - JSPCB",21-03-2026 08:00:00,23.707909,86.414670,OZONE,NA,NA,NA
India,Karnataka,Bagalkot,"Vidayagiri, Bagalkot - KSPCB",21-03-2026 08:00:00,16.172806,75.659694,CO,8,58,22
India,Karnataka,Bagalkot,"Vidayagiri, Bagalkot - KSPCB",21-03-2026 08:00:00,16.172806,75.659694,OZONE,12,13,12
India,Karnataka,Bengaluru,"BWSSB Kadabesanahalli, Bengaluru - CPCB",21-03-2026 08:00:00,12.9352049,77.6814488,PM2.5,26,193,92
India,Karnataka,Bengaluru,"BWSSB Kadabesanahalli, Bengaluru - CPCB",21-03-2026 08:00:00,12.9352049,77.6814488,PM10,18,372,127
India,Karnataka,Bengaluru,"Bapuji Nagar, Bengaluru - KSPCB",21-03-2026 08:00:00,12.951913,77.539784,SO2,8,27,19
India,Karnataka,Bengaluru,"Hebbal, Bengaluru - KSPCB",21-03-2026 08:00:00,13.029152,77.585901,NH3,1,7,3
India,Karnataka,Bengaluru,"Hebbal, Bengaluru - KSPCB",21-03-2026 08:00:00,13.029152,77.585901,SO2,8,15,12
India,Karnataka,Bengaluru,"Hebbal, Bengaluru - KSPCB",21-03-2026 08:00:00,13.029152,77.585901,CO,6,95,27
India,Himachal Pradesh,Baddi,"HIMUDA Complex Phase-1, Baddi - HPPCB",21-03-2026 08:00:00,30.943887,76.801991,NO2,11,34,20
India,Himachal Pradesh,Baddi,"HIMUDA Complex Phase-1, Baddi - HPPCB",21-03-2026 08:00:00,30.943887,76.801991,NH3,3,8,5
India,Himachal Pradesh,Baddi,"HIMUDA Complex Phase-1, Baddi - HPPCB",21-03-2026 08:00:00,30.943887,76.801991,SO2,25,96,42
India,Jammu_and_Kashmir,Srinagar,"Khunmoh, Srinagar - JKPCC",21-03-2026 08:00:00,34.06313,74.96017,NO2,4,27,11
India,Jammu_and_Kashmir,Srinagar,"Rajbagh, Srinagar - JKPCC",21-03-2026 08:00:00,34.066206,74.819820,CO,10,56,22
India,Jharkhand,Dhanbad,"Sardar Patel Nagar, Dhanbad - JSPCB",21-03-2026 08:00:00,23.80569,86.44268,NO2,81,264,95
India,Jharkhand,Dhanbad,"Sardar Patel Nagar, Dhanbad - JSPCB",21-03-2026 08:00:00,23.80569,86.44268,SO2,2,122,29
India,Jharkhand,Dhanbad,"Sardar Patel Nagar, Dhanbad - JSPCB",21-03-2026 08:00:00,23.80569,86.44268,CO,2,35,17
India,Haryana,Palwal,"Shyam Nagar, Palwal - HSPCB",21-03-2026 08:00:00,28.1485564,77.3320667,OZONE,8,8,8
India,Haryana,Panchgaon,"Amity University, Panchgaon - IITM",21-03-2026 08:00:00,28.3153,76.9143,PM10,14,125,31
India,Haryana,Panchgaon,"Amity University, Panchgaon - IITM",21-03-2026 08:00:00,28.3153,76.9143,NH3,1,3,1
India,Haryana,Panchgaon,"Amity University, Panchgaon - IITM",21-03-2026 08:00:00,28.3153,76.9143,SO2,2,13,8
India,Haryana,Panchgaon,"Amity University, Panchgaon - IITM",21-03-2026 08:00:00,28.3153,76.9143,CO,19,39,36
India,Haryana,Panchgaon,"Amity University, Panchgaon - IITM",21-03-2026 08:00:00,28.3153,76.9143,OZONE,1,55,1
India,Haryana,Panchkula,"Sector-6, Panchkula - HSPCB ",21-03-2026 08:00:00,30.7057778,76.8531805555555,NO2,22,25,23
India,Karnataka,Bengaluru,"Jayanagar 5th Block, Bengaluru - KSPCB",21-03-2026 08:00:00,12.920984,77.584908,PM10,46,114,76
India,Karnataka,Bengaluru,"Shivapura_Peenya, Bengaluru - KSPCB",21-03-2026 08:00:00,13.0246342,77.5080115,NH3,4,4,4
India,Karnataka,Bengaluru,"Shivapura_Peenya, Bengaluru - KSPCB",21-03-2026 08:00:00,13.0246342,77.5080115,CO,26,53,40
India,Karnataka,Bengaluru,"Silk Board, Bengaluru - KSPCB",21-03-2026 08:00:00,12.917348,77.622813,PM10,66,263,136
India,Haryana,Panchkula,"Sector-6, Panchkula - HSPCB ",21-03-2026 08:00:00,30.7057778,76.8531805555555,SO2,13,14,14
India,Haryana,Panipat,"Sector-18, Panipat - HSPCB",21-03-2026 08:00:00,29.432304,76.972765,PM2.5,8,37,18
India,Haryana,Panipat,"Sector-18, Panipat - HSPCB",21-03-2026 08:00:00,29.432304,76.972765,SO2,11,11,11
India,Haryana,Rohtak,"MD University, Rohtak - HSPCB",21-03-2026 08:00:00,28.52123,76.37138,SO2,11,13,12
India,Karnataka,Hubballi,"Lingaraj Nagar, Hubballi - KSPCB",21-03-2026 08:00:00,15.3714823,75.1160168,CO,NA,NA,NA
India,Karnataka,Hubballi,"Lingaraj Nagar, Hubballi - KSPCB",21-03-2026 08:00:00,15.3714823,75.1160168,OZONE,29,35,34
India,Karnataka,Kalaburagi,"Mahatma Basaveswar Colony, Kalaburgi - KSPCB",21-03-2026 08:00:00,17.336318,76.847397,NH3,NA,NA,NA
India,Haryana,Narnaul,"Shastri Nagar, Narnaul - HSPCB",21-03-2026 08:00:00,28.060249,76.113115,NO2,11,63,29
India,Haryana,Sonipat,"Murthal, Sonipat - HSPCB",21-03-2026 08:00:00,29.027200,77.062100,NO2,12,13,12
India,Karnataka,Yadgir,"Collector Office, Yadgir - KSPCB",21-03-2026 08:00:00,16.7602,77.1428,OZONE,16,18,17
India,Kerala,Eloor,"Udyogamandal, Eloor - Kerala PCB",21-03-2026 08:00:00,10.073232,76.302765,PM10,67,77,72
India,Kerala,Eloor,"Udyogamandal, Eloor - Kerala PCB",21-03-2026 08:00:00,10.073232,76.302765,SO2,1,1,1
India,Kerala,Kannur,"Thavakkara, Kannur - Kerala PCB",21-03-2026 08:00:00,11.875000,75.373200,PM10,86,107,90
India,Kerala,Kannur,"Thavakkara, Kannur - Kerala PCB",21-03-2026 08:00:00,11.875000,75.373200,CO,19,22,21
India,Kerala,Thiruvananthapuram,"Kariavattom, Thiruvananthapuram - Kerala PCB",21-03-2026 08:00:00,8.563700,76.886500,PM2.5,NA,NA,NA
India,Kerala,Thiruvananthapuram,"Kariavattom, Thiruvananthapuram - Kerala PCB",21-03-2026 08:00:00,8.563700,76.886500,CO,NA,NA,NA
India,Kerala,Thiruvananthapuram,"Plammoodu, Thiruvananthapuram - Kerala PCB",21-03-2026 08:00:00,8.5149093,76.9435879,PM10,33,52,42
India,Kerala,Thiruvananthapuram,"Plammoodu, Thiruvananthapuram - Kerala PCB",21-03-2026 08:00:00,8.5149093,76.9435879,NO2,NA,NA,NA
India,Madhya Pradesh,Katni,"Gole Bazar, Katni - MPPCB",21-03-2026 08:00:00,23.50016,80.23284,NO2,21,40,27
India,Madhya Pradesh,Maihar,"Sahilara, Maihar - KJS Cements",21-03-2026 08:00:00,24.2613009,80.7231783,PM2.5,5,30,15
India,Madhya Pradesh,Mandideep,"Sector-D Industrial Area, Mandideep - MPPCB",21-03-2026 08:00:00,23.108440,77.511428,NO2,15,80,47
India,Madhya Pradesh,Mandideep,"Sector-D Industrial Area, Mandideep - MPPCB",21-03-2026 08:00:00,23.108440,77.511428,NH3,12,15,13
India,Madhya Pradesh,Mandideep,"Sector-D Industrial Area, Mandideep - MPPCB",21-03-2026 08:00:00,23.108440,77.511428,OZONE,29,44,32
India,Madhya Pradesh,Ratlam,"Shasthri Nagar, Ratlam - IPCA Lab",21-03-2026 08:00:00,23.331731,75.045981,PM10,30,105,62
India,Madhya Pradesh,Ratlam,"Shasthri Nagar, Ratlam - IPCA Lab",21-03-2026 08:00:00,23.331731,75.045981,NO2,12,24,16
India,Madhya Pradesh,Sagar,"Civil Lines, Sagar - MPPCB",21-03-2026 08:00:00,23.838586,78.759431,PM10,22,100,43
India,Karnataka,Mysuru,"Hebbal 1st Stage, Mysuru - KSPCB",21-03-2026 08:00:00,12.21041,76.37376,NH3,2,6,4
India,Karnataka,Mysuru,"Hebbal 1st Stage, Mysuru - KSPCB",21-03-2026 08:00:00,12.21041,76.37376,SO2,2,6,3
India,Karnataka,Ramanagara,"Vijay Nagar, Ramanagara - KSPCB",21-03-2026 08:00:00,12.733409,77.298051,NH3,3,5,4
India,Karnataka,Shivamogga,"Vinoba Nagara, Shivamogga - KSPCB",21-03-2026 08:00:00,13.940000,75.555917,NO2,17,25,18
India,Karnataka,Shivamogga,"Vinoba Nagara, Shivamogga - KSPCB",21-03-2026 08:00:00,13.940000,75.555917,NH3,2,3,2
India,Karnataka,Udupi,"Brahmagiri, Udupi - KSPCB",21-03-2026 08:00:00,13.34194444,74.74694444,PM10,37,66,49
India,Karnataka,Yadgir,"Collector Office, Yadgir - KSPCB",21-03-2026 08:00:00,16.7602,77.1428,NO2,NA,NA,NA
India,Karnataka,Yadgir,"Collector Office, Yadgir - KSPCB",21-03-2026 08:00:00,16.7602,77.1428,SO2,8,18,14
India,Kerala,Thrissur,"Corporation Ground, Thrissur - Kerala PCB",21-03-2026 08:00:00,10.532400,76.215900,CO,8,18,16
India,Madhya Pradesh,Bhopal,"Paryavaran Parisar, Bhopal - MPPCB",21-03-2026 08:00:00,23.210494,77.425409,PM10,26,97,56
India,Madhya Pradesh,Bhopal,"Paryavaran Parisar, Bhopal - MPPCB",21-03-2026 08:00:00,23.210494,77.425409,SO2,18,31,26
India,Madhya Pradesh,Bhopal,"T T Nagar, Bhopal - MPPCB",21-03-2026 08:00:00,23.233584,77.400574,CO,32,56,38
India,Madhya Pradesh,Bhopal,"T T Nagar, Bhopal - MPPCB",21-03-2026 08:00:00,23.233584,77.400574,OZONE,42,120,57
India,Madhya Pradesh,Dewas,"Bhopal Chauraha, Dewas - MPPCB",21-03-2026 08:00:00,22.9682591,76.064118,PM2.5,12,50,29
India,Madhya Pradesh,Dewas,"Bhopal Chauraha, Dewas - MPPCB",21-03-2026 08:00:00,22.9682591,76.064118,NH3,1,19,11
India,Madhya Pradesh,Dewas,"Bhopal Chauraha, Dewas - MPPCB",21-03-2026 08:00:00,22.9682591,76.064118,CO,18,94,83
India,Madhya Pradesh,Gwalior,"City Center, Gwalior - MPPCB",21-03-2026 08:00:00,26.203442,78.193251,PM2.5,NA,NA,NA
India,Madhya Pradesh,Gwalior,"Deen Dayal Nagar, Gwalior - MPPCB",21-03-2026 08:00:00,26.259242,78.216432,PM10,27,94,49
India,Madhya Pradesh,Gwalior,"Deen Dayal Nagar, Gwalior - MPPCB",21-03-2026 08:00:00,26.259242,78.216432,SO2,1,6,4
India,Madhya Pradesh,Gwalior,"Deen Dayal Nagar, Gwalior - MPPCB",21-03-2026 08:00:00,26.259242,78.216432,CO,42,84,62
India,Madhya Pradesh,Gwalior,"Maharaj Bada, Gwalior - MPPCB",21-03-2026 08:00:00,26.200388,78.147714,PM2.5,NA,NA,NA
India,Madhya Pradesh,Gwalior,"Maharaj Bada, Gwalior - MPPCB",21-03-2026 08:00:00,26.200388,78.147714,NO2,42,81,62
India,Madhya Pradesh,Gwalior,"Maharaj Bada, Gwalior - MPPCB",21-03-2026 08:00:00,26.200388,78.147714,SO2,3,35,17
India,Madhya Pradesh,Indore,"Regional Park, Indore - IMC",21-03-2026 08:00:00,22.6780,75.8559,OZONE,5,8,6
India,Madhya Pradesh,Jabalpur,"Govindh Bhavan Colony, Jabalpur - JMC",21-03-2026 08:00:00,23.163174,79.973061,SO2,6,24,15
India,Madhya Pradesh,Jabalpur,"Govindh Bhavan Colony, Jabalpur - JMC",21-03-2026 08:00:00,23.163174,79.973061,CO,7,38,16
India,Madhya Pradesh,Jabalpur,"Gupteshwar, Jabalpur - JMC",21-03-2026 08:00:00,23.142888,79.916147,OZONE,NA,NA,NA
India,Madhya Pradesh,Jabalpur,"Marhatal, Jabalpur - MPPCB",21-03-2026 08:00:00,23.168606,79.932247,PM2.5,7,32,18
India,Madhya Pradesh,Jabalpur,"Suhagi, Jabalpur - JMC",21-03-2026 08:00:00,23.218135,79.957770,PM10,NA,NA,NA
India,Madhya Pradesh,Sagar,"Deen Dayal Nagar, Sagar - MPPCB",21-03-2026 08:00:00,23.8640158,78.80289321,PM2.5,9,38,23
India,Madhya Pradesh,Sagar,"Deen Dayal Nagar, Sagar - MPPCB",21-03-2026 08:00:00,23.8640158,78.80289321,SO2,1,3,2
India,Madhya Pradesh,Satna,"Bandhavgar Colony, Satna - Birla Cement",21-03-2026 08:00:00,24.58434363,80.8549414,CO,16,20,18
India,Madhya Pradesh,Singrauli,"Suryakiran Bhawan NCL, Singrauli - MPPCB",21-03-2026 08:00:00,24.108970,82.645580,PM10,64,149,109
India,Madhya Pradesh,Singrauli,"Suryakiran Bhawan NCL, Singrauli - MPPCB",21-03-2026 08:00:00,24.108970,82.645580,OZONE,4,34,7
India,Madhya Pradesh,Indore,"Airport Area, Indore - IMC",21-03-2026 08:00:00,22.7289,75.8076,NO2,31,45,37
India,Madhya Pradesh,Indore,"Chhoti Gwaltoli, Indore - MPPCB",21-03-2026 08:00:00,22.4310,75.5213,PM10,43,163,84
India,Madhya Pradesh,Indore,"Chhoti Gwaltoli, Indore - MPPCB",21-03-2026 08:00:00,22.4310,75.5213,NO2,32,145,91
India,Madhya Pradesh,Indore,"Regional Park, Indore - IMC",21-03-2026 08:00:00,22.6780,75.8559,PM2.5,21,61,35
India,Karnataka,Madikeri,"Stuart Hill, Madikeri - KSPCB",21-03-2026 08:00:00,12.415911,75.735050,SO2,7,7,7
India,Karnataka,Madikeri,"Stuart Hill, Madikeri - KSPCB",21-03-2026 08:00:00,12.415911,75.735050,OZONE,2,6,3
India,Karnataka,Mangalore,"Kadri, Mangalore - KSPCB",21-03-2026 08:00:00,12.889250,74.853000,OZONE,37,80,52
India,Maharashtra,Amravati,"Shivneri Colony, Amravati - MPCB",21-03-2026 08:00:00,20.9402359,77.7895248,SO2,7,10,8
India,Maharashtra,Amravati,"Shri Shivaji Science College, Amravati - MPCB",21-03-2026 08:00:00,20.939198,77.765701,PM2.5,26,58,42
India,Maharashtra,Amravati,"Shri Shivaji Science College, Amravati - MPCB",21-03-2026 08:00:00,20.939198,77.765701,PM10,46,116,72
India,Maharashtra,Aurangabad,"MIDC Chilkalthana, Aurangabad - MPCB",21-03-2026 08:00:00,19.875620,75.387310,SO2,1,2,1
India,Maharashtra,Aurangabad,"More Chowk Waluj, Aurangabad - MPCB",21-03-2026 08:00:00,19.8389439,75.244448,PM10,12,64,35
India,Maharashtra,Aurangabad,"More Chowk Waluj, Aurangabad - MPCB",21-03-2026 08:00:00,19.8389439,75.244448,CO,8,64,25
India,Maharashtra,Aurangabad,"More Chowk Waluj, Aurangabad - MPCB",21-03-2026 08:00:00,19.8389439,75.244448,OZONE,12,64,46
India,Maharashtra,Aurangabad,"Rachnakar Colony, Aurangabad - MPCB",21-03-2026 08:00:00,19.863756,75.321188,PM10,26,91,61
India,Maharashtra,Aurangabad,"Rachnakar Colony, Aurangabad - MPCB",21-03-2026 08:00:00,19.863756,75.321188,NO2,10,69,25
India,Maharashtra,Aurangabad,"Rachnakar Colony, Aurangabad - MPCB",21-03-2026 08:00:00,19.863756,75.321188,NH3,2,6,4
India,Maharashtra,Jalna,"Old MIDC, Jalna - MPCB",21-03-2026 08:00:00,19.854616,75.905894,CO,7,27,10
India,Maharashtra,Jalna,"Old MIDC, Jalna - MPCB",21-03-2026 08:00:00,19.854616,75.905894,OZONE,10,49,23
India,Maharashtra,Kalyan,"Pimpleshwar Mandir, Kalyan - MPCB",21-03-2026 08:00:00,19.192056,72.9585188,NH3,3,6,5
India,Maharashtra,Kalyan,"Pimpleshwar Mandir, Kalyan - MPCB",21-03-2026 08:00:00,19.192056,72.9585188,CO,NA,NA,NA
India,Maharashtra,Kalyan,"Pimpleshwar Mandir, Kalyan - MPCB",21-03-2026 08:00:00,19.192056,72.9585188,OZONE,1,31,4
India,Maharashtra,Kolhapur,"Shivaji University, Kolhapur - MPCB",21-03-2026 08:00:00,16.6870449,74.2505872,PM2.5,33,91,46
India,Maharashtra,Kolhapur,"Shivaji University, Kolhapur - MPCB",21-03-2026 08:00:00,16.6870449,74.2505872,PM10,29,73,47
India,Maharashtra,Kolhapur,"Shivaji University, Kolhapur - MPCB",21-03-2026 08:00:00,16.6870449,74.2505872,NO2,12,41,25
India,Maharashtra,Kolhapur,"Shivaji University, Kolhapur - MPCB",21-03-2026 08:00:00,16.6870449,74.2505872,NH3,3,4,4
India,Maharashtra,Kolhapur,"Shivaji University, Kolhapur - MPCB",21-03-2026 08:00:00,16.6870449,74.2505872,SO2,NA,NA,NA
India,Maharashtra,Chandrapur,"Chauhan Colony, Chandrapur - MPCB",21-03-2026 08:00:00,19.962900,79.298714,NH3,1,2,1
India,Maharashtra,Chandrapur,"Chauhan Colony, Chandrapur - MPCB",21-03-2026 08:00:00,19.962900,79.298714,SO2,19,38,27
India,Maharashtra,Chandrapur,"MIDC Khutala, Chandrapur - MPCB",21-03-2026 08:00:00,19.9775302,79.2337086,PM10,34,137,82
India,Maharashtra,Dhule,"Deopur, Dhule - MPCB",21-03-2026 08:00:00,20.918946,74.776388,PM2.5,NA,NA,NA
India,Maharashtra,Hingoli,"Ashta Vinayak Nagar, Hingoli - MPCB",21-03-2026 08:00:00,19.710842,77.151824,PM10,20,93,44
India,Maharashtra,Jalgaon,"Prabhat Colony, Jalgaon - MPCB",21-03-2026 08:00:00,21.001264,75.565602,NH3,2,3,2
India,Maharashtra,Badlapur,"Katrap, Badlapur - MPCB",21-03-2026 08:00:00,19.16485,73.23409,OZONE,12,97,13
India,Maharashtra,Beed,"Bir, Beed - MPCB",21-03-2026 08:00:00,18.988474,75.753873,PM10,NA,NA,NA
India,Maharashtra,Beed,"Bir, Beed - MPCB",21-03-2026 08:00:00,18.988474,75.753873,CO,20,110,49
India,Maharashtra,Boisar,"Khaira, Boisar - MPCB",21-03-2026 08:00:00,19.786089,72.757971,PM10,57,109,78
India,Maharashtra,Kolhapur,"Shivaji University, Kolhapur - MPCB",21-03-2026 08:00:00,16.6870449,74.2505872,OZONE,4,61,14
India,Maharashtra,Kolhapur,"Sinchan Bhavan, Kolhapur - MPCB",21-03-2026 08:00:00,16.7143745,74.2426398,PM10,31,72,42
India,Maharashtra,Kolhapur,"Sinchan Bhavan, Kolhapur - MPCB",21-03-2026 08:00:00,16.7143745,74.2426398,NO2,8,16,12
India,Maharashtra,Kolhapur,"Sinchan Bhavan, Kolhapur - MPCB",21-03-2026 08:00:00,16.7143745,74.2426398,CO,8,24,11
India,Maharashtra,Amravati,"Shivneri Colony, Amravati - MPCB",21-03-2026 08:00:00,20.9402359,77.7895248,PM2.5,28,64,44
India,Maharashtra,Amravati,"Shivneri Colony, Amravati - MPCB",21-03-2026 08:00:00,20.9402359,77.7895248,PM10,28,81,54
India,Maharashtra,Amravati,"Shivneri Colony, Amravati - MPCB",21-03-2026 08:00:00,20.9402359,77.7895248,NO2,8,48,20
India,Maharashtra,Latur,"Sawe Wadi, Latur - MPCB",21-03-2026 08:00:00,18.39963,76.57452,PM10,26,98,62
India,Maharashtra,Latur,"Sawe Wadi, Latur - MPCB",21-03-2026 08:00:00,18.39963,76.57452,NH3,4,28,9
India,Madhya Pradesh,Ujjain,"Mahashweta Nagar, Ujjain - MPPCB",21-03-2026 08:00:00,23.1633321,75.800225,NO2,24,56,38
India,Maharashtra,Ahmednagar,"Tarakpur, Ahmednagar - MPCB",21-03-2026 08:00:00,19.10122,74.73339,SO2,1,19,9
India,Maharashtra,Mira-Bhayandar,"Bhayandar West, Mira-Bhayandar - MPCB",21-03-2026 08:00:00,19.296481,72.840923,SO2,NA,NA,NA
India,Maharashtra,Mumbai,"Bandra Kurla Complex, Mumbai - IITM",21-03-2026 08:00:00,19.053536,72.84643,NO2,30,52,41
India,Maharashtra,Mumbai,"Bandra Kurla Complex, Mumbai - MPCB",21-03-2026 08:00:00,19.065931,72.862131,NO2,NA,NA,NA
India,Maharashtra,Mumbai,"Bandra Kurla Complex, Mumbai - MPCB",21-03-2026 08:00:00,19.065931,72.862131,CO,15,15,15
India,Maharashtra,Mumbai,"Borivali East, Mumbai - IITM",21-03-2026 08:00:00,19.23241,72.86895,PM10,NA,NA,NA
India,Maharashtra,Mumbai,"Borivali East, Mumbai - IITM",21-03-2026 08:00:00,19.23241,72.86895,NO2,18,42,27
India,Maharashtra,Mumbai,"Borivali East, Mumbai - MPCB",21-03-2026 08:00:00,19.2243333,72.8658113,NH3,1,8,4
India,Maharashtra,Mumbai,"Powai, Mumbai - MPCB",21-03-2026 08:00:00,19.137500,72.915056,PM2.5,25,49,35
India,Maharashtra,Mumbai,"Powai, Mumbai - MPCB",21-03-2026 08:00:00,19.137500,72.915056,OZONE,9,9,9
India,Maharashtra,Mumbai,"Sewri, Mumbai - BMC",21-03-2026 08:00:00,19.000084,72.856730,PM2.5,24,40,30
India,Maharashtra,Mumbai,"Sewri, Mumbai - BMC",21-03-2026 08:00:00,19.000084,72.856730,NH3,1,14,6
India,Maharashtra,Mumbai,"Shivaji Nagar, Mumbai - BMC",21-03-2026 08:00:00,19.060498,72.923356,NO2,11,23,16
India,Maharashtra,Mumbai,"Siddharth Nagar-Worli, Mumbai - IITM",21-03-2026 08:00:00,19.000083,72.813993,NO2,23,64,36
India,Maharashtra,Mumbai,"Worli, Mumbai -MPCB",21-03-2026 08:00:00,18.9942180,72.8158167,NO2,12,12,12
India,Maharashtra,Mumbai,"Mazgaon, Mumbai - IITM",21-03-2026 08:00:00,18.96702,72.84214,NO2,38,114,81
India,Maharashtra,Mumbai,"Mazgaon, Mumbai - IITM",21-03-2026 08:00:00,18.96702,72.84214,SO2,8,14,11
India,Maharashtra,Mumbai,"Mazgaon, Mumbai - IITM",21-03-2026 08:00:00,18.96702,72.84214,CO,48,76,62
India,Maharashtra,Mumbai,"Mulund West, Mumbai - MPCB",21-03-2026 08:00:00,19.1750,72.9419,PM2.5,22,53,33
India,Maharashtra,Mumbai,"Navy Nagar-Colaba, Mumbai - IITM",21-03-2026 08:00:00,18.897756,72.813320,PM2.5,19,51,35
India,Maharashtra,Mumbai,"Navy Nagar-Colaba, Mumbai - IITM",21-03-2026 08:00:00,18.897756,72.813320,SO2,4,21,11
India,Maharashtra,Mumbai,"Deonar, Mumbai - IITM",21-03-2026 08:00:00,19.04946,72.9230,SO2,1,58,6
India,Maharashtra,Mumbai,"Deonar, Mumbai - IITM",21-03-2026 08:00:00,19.04946,72.9230,OZONE,5,48,6
India,Maharashtra,Mumbai,"Ghatkopar, Mumbai - BMC",21-03-2026 08:00:00,19.083694,72.920967,PM10,73,106,89
India,Maharashtra,Mumbai,"Ghatkopar, Mumbai - BMC",21-03-2026 08:00:00,19.083694,72.920967,NH3,8,8,8
India,Maharashtra,Mumbai,"Kandivali East, Mumbai - MPCB",21-03-2026 08:00:00,19.205800,72.868200,NH3,4,4,4
India,Maharashtra,Mumbai,"Kandivali East, Mumbai - MPCB",21-03-2026 08:00:00,19.205800,72.868200,SO2,21,24,22
India,Maharashtra,Mumbai,"Borivali East, Mumbai - MPCB",21-03-2026 08:00:00,19.2243333,72.8658113,SO2,11,18,15
India,Maharashtra,Mumbai,"Borivali East, Mumbai - MPCB",21-03-2026 08:00:00,19.2243333,72.8658113,OZONE,10,28,16
India,Maharashtra,Mumbai,"Byculla, Mumbai - BMC",21-03-2026 08:00:00,18.9767,72.8380,NO2,31,51,34
India,Maharashtra,Mumbai,"Chakala-Andheri East, Mumbai - IITM",21-03-2026 08:00:00,19.11074,72.86084,PM2.5,NA,NA,NA
India,Maharashtra,Mumbai,"Chakala-Andheri East, Mumbai - IITM",21-03-2026 08:00:00,19.11074,72.86084,CO,8,51,33
India,Maharashtra,Mumbai,"Chembur, Mumbai - MPCB",21-03-2026 08:00:00,19.0364585,72.8954371,OZONE,1,30,1
India,Maharashtra,Mumbai,"Colaba, Mumbai - MPCB",21-03-2026 08:00:00,18.910000,72.820000,NH3,4,4,4
India,Maharashtra,Mumbai,"Kherwadi_Bandra East, Mumbai - MPCB",21-03-2026 08:00:00,19.0632143,72.8456324,NO2,3,34,17
India,Maharashtra,Mumbai,"Khindipada-Bhandup West, Mumbai - IITM",21-03-2026 08:00:00,19.1653323,72.922099,PM2.5,17,67,40
India,Maharashtra,Mumbai,"Khindipada-Bhandup West, Mumbai - IITM",21-03-2026 08:00:00,19.1653323,72.922099,SO2,1,14,4
India,Maharashtra,Mumbai,"Khindipada-Bhandup West, Mumbai - IITM",21-03-2026 08:00:00,19.1653323,72.922099,CO,2,20,14
India,Maharashtra,Mumbai,"Kurla, Mumbai - MPCB",21-03-2026 08:00:00,19.0863,72.8888,CO,8,19,16
India,Maharashtra,Pune,"Panchawati_Pashan, Pune - IITM",21-03-2026 08:00:00,18.536457,73.805454,NO2,7,36,17
India,Maharashtra,Pune,"Revenue Colony-Shivajinagar, Pune - IITM",21-03-2026 08:00:00,18.530085,73.849598,PM10,56,111,83
India,Maharashtra,Pune,"Savitribai Phule Pune University, Pune - MPCB",21-03-2026 08:00:00,18.547056,73.826908,PM2.5,21,43,33
India,Maharashtra,Pune,"Savitribai Phule Pune University, Pune - MPCB",21-03-2026 08:00:00,18.547056,73.826908,SO2,2,7,4
India,Maharashtra,Pune,"Transport Nagar-Nigdi, Pune - IITM",21-03-2026 08:00:00,18.664282,73.763966,PM2.5,NA,NA,NA
India,Maharashtra,Pune,"Transport Nagar-Nigdi, Pune - IITM",21-03-2026 08:00:00,18.664282,73.763966,NO2,NA,NA,NA
India,Maharashtra,Pune,"Transport Nagar-Nigdi, Pune - IITM",21-03-2026 08:00:00,18.664282,73.763966,OZONE,2,32,3
India,Maharashtra,Sangli,"Vijay Nagar, Sangli - MPCB",21-03-2026 08:00:00, 16.5038,74.3623,NH3,4,7,5
India,Maharashtra,Sangli,"Vijay Nagar, Sangli - MPCB",21-03-2026 08:00:00, 16.5038,74.3623,SO2,5,26,16
India,Maharashtra,Sangli,"Vijay Nagar, Sangli - MPCB",21-03-2026 08:00:00, 16.5038,74.3623,OZONE,4,66,10
India,Maharashtra,Solapur,"Dnyaneshwar Nagar, Solapur - MPCB",21-03-2026 08:00:00,17.6336264,75.9132495,NO2,11,121,42
India,Maharashtra,Pune,"Bhosari, Pune - IITM",21-03-2026 08:00:00,18.640051,73.848956,PM2.5,NA,NA,NA
India,Maharashtra,Pune,"Bhosari, Pune - IITM",21-03-2026 08:00:00,18.640051,73.848956,CO,NA,NA,NA
India,Maharashtra,Pune,"Bhosari, Pune - IITM",21-03-2026 08:00:00,18.640051,73.848956,OZONE,NA,NA,NA
India,Maharashtra,Pune,"Bhumkar Nagar, Pune - IITM",21-03-2026 08:00:00,18.605770,73.749976,PM10,57,132,106
India,Maharashtra,Pune,"Dhankawadi, Pune - IITM",21-03-2026 08:00:00,18.459883,73.852193,CO,23,70,57
India,Maharashtra,Pune,"Hadapsar, Pune - IITM",21-03-2026 08:00:00,18.501793,73.927532,OZONE,1,55,14
India,Maharashtra,Pune,"Katraj Dairy, Pune - MPCB",21-03-2026 08:00:00,18.454450,73.854155,NO2,12,28,19
India,Maharashtra,Pune,"Katraj Dairy, Pune - MPCB",21-03-2026 08:00:00,18.454450,73.854155,CO,14,54,34
India,Maharashtra,Ulhasnagar,"Vithalwadi, Ulhasnagar - MPCB",21-03-2026 08:00:00,19.2307571 ,73.1551920,NH3,2,3,3
India,Maharashtra,Ulhasnagar,"Vithalwadi, Ulhasnagar - MPCB",21-03-2026 08:00:00,19.2307571 ,73.1551920,SO2,4,34,11
India,Meghalaya,Shillong,"JN Stadium, Shillong - Meghalaya PCB",21-03-2026 08:00:00,25.5803419,91.8942571,NO2,7,40,22
India,Meghalaya,Shillong,"JN Stadium, Shillong - Meghalaya PCB",21-03-2026 08:00:00,25.5803419,91.8942571,NH3,NA,NA,NA
India,Meghalaya,Shillong,"Lumpyngngad, Shillong - Meghalaya PCB",21-03-2026 08:00:00,25.5586,91.8985,CO,4,39,5
India,Mizoram,Aizawl,"Sikulpuikawn, Aizawl - Mizoram PCB",21-03-2026 08:00:00,23.7176342,92.7192841,PM2.5,10,59,26
India,Maharashtra,Parbhani,"Masoom Colony, Parbhani - MPCB",21-03-2026 08:00:00,19.265594,76.761463,NO2,NA,NA,NA
India,Maharashtra,Parbhani,"Masoom Colony, Parbhani - MPCB",21-03-2026 08:00:00,19.265594,76.761463,CO,7,14,11
India,Maharashtra,Pimpri-Chinchwad,"Gavalinagar, Pimpri Chinchwad - MPCB",21-03-2026 08:00:00,18.63673,73.82487,SO2,NA,NA,NA
India,Maharashtra,Pimpri-Chinchwad,"Gavalinagar, Pimpri Chinchwad - MPCB",21-03-2026 08:00:00,18.63673,73.82487,OZONE,1,78,15
India,Maharashtra,Pimpri-Chinchwad,"Park Street Wakad, Pimpri Chinchwad - MPCB",21-03-2026 08:00:00,18.59051,73.77946,PM2.5,52,90,65
India,Maharashtra,Pimpri-Chinchwad,"Savta Mali Nagar, Pimpri-Chinchwad - IITM",21-03-2026 08:00:00,18.614767,73.799516,OZONE,6,36,11
India,Maharashtra,Nanded,"Sneh Nagar, Nanded - MPCB",21-03-2026 08:00:00,19.173852,77.296291,SO2,8,8,8
India,Maharashtra,Nanded,"Sneh Nagar, Nanded - MPCB",21-03-2026 08:00:00,19.173852,77.296291,CO,18,26,23
India,Maharashtra,Nashik,"Gangapur Road, Nashik - MPCB",21-03-2026 08:00:00,20.0073285,73.7762427,PM10,59,235,127
India,Maharashtra,Nashik,"Gangapur Road, Nashik - MPCB",21-03-2026 08:00:00,20.0073285,73.7762427,NH3,3,3,3
India,Maharashtra,Nashik,"Hirawadi, Nashik - MPCB",21-03-2026 08:00:00,20.021503,73.813844,NH3,2,3,2
India,Maharashtra,Navi Mumbai,"Kopripada-Vashi, Navi Mumbai - MPCB",21-03-2026 08:00:00,19.090337,73.014232,NO2,NA,NA,NA
India,Maharashtra,Mumbai,"Worli, Mumbai -MPCB",21-03-2026 08:00:00,18.9942180,72.8158167,SO2,31,35,33
India,Maharashtra,Mumbai,"Worli, Mumbai -MPCB",21-03-2026 08:00:00,18.9942180,72.8158167,CO,14,26,19
India,Maharashtra,Nagpur,"Ambazari, Nagpur - MPCB",21-03-2026 08:00:00,21.121801,79.04952,NO2,1,16,4
India,Maharashtra,Nagpur,"Opp GPO Civil Lines, Nagpur - MPCB",21-03-2026 08:00:00,21.152875,79.0517531,NH3,2,12,8
India,Maharashtra,Nagpur,"Opp GPO Civil Lines, Nagpur - MPCB",21-03-2026 08:00:00,21.152875,79.0517531,CO,8,108,16
India,Maharashtra,Nagpur,"Opp GPO Civil Lines, Nagpur - MPCB",21-03-2026 08:00:00,21.152875,79.0517531,OZONE,2,28,13
India,Mizoram,Aizawl,"Sikulpuikawn, Aizawl - Mizoram PCB",21-03-2026 08:00:00,23.7176342,92.7192841,NO2,1,1,1
India,Nagaland,Kohima,"PWD Junction, Kohima - NPCB",21-03-2026 08:00:00,25.6635413,94.0989878,PM2.5,15,65,40
India,Nagaland,Kohima,"PWD Junction, Kohima - NPCB",21-03-2026 08:00:00,25.6635413,94.0989878,NO2,3,4,4
India,Odisha,Barbil,"Forest Office, Barbil - OSPCB",21-03-2026 08:00:00,22.1166054,85.3945546,SO2,8,86,29
India,Odisha,Barbil,"Forest Office, Barbil - OSPCB",21-03-2026 08:00:00,22.1166054,85.3945546,OZONE,50,192,82
India,Maharashtra,Navi Mumbai,"Nerul, Navi Mumbai - MPCB",21-03-2026 08:00:00,19.008751,73.016620,SO2,NA,NA,NA
India,Maharashtra,Navi Mumbai,"Sanpada, Navi Mumbai - MPCB",21-03-2026 08:00:00,19.0575752,73.0151367,OZONE,1,51,1
India,Maharashtra,Navi Mumbai,"Sector-2E Kalamboli, Navi Mumbai - MPCB",21-03-2026 08:00:00,19.02579,73.10297,PM2.5,58,168,108
India,Maharashtra,Navi Mumbai,"Tondare-Taloja, Navi Mumbai - MPCB",21-03-2026 08:00:00,19.0630,73.1209,PM10,54,133,93
India,Maharashtra,Solapur,"Ratandeep Housing Society, Solapur - MPCB",21-03-2026 08:00:00,17.65439,75.90649,NH3,4,38,13
India,Maharashtra,Thane,"Upvan Fort, Thane - MPCB",21-03-2026 08:00:00,19.222279,72.957979,OZONE,4,31,14
India,Maharashtra,Ulhasnagar,"Sidhi Vinayak Nagar, Ulhasnagar - MPCB",21-03-2026 08:00:00,19.235581,73.159121,PM2.5,54,98,68
India,Odisha,Cuttack,"CDA Area, Cuttack - OSPCB",21-03-2026 08:00:00,20.48891     ,85.84768     ,PM10,36,105,66
India,Odisha,Cuttack,"CDA Area, Cuttack - OSPCB",21-03-2026 08:00:00,20.48891     ,85.84768     ,NO2,8,20,12
India,Odisha,Cuttack,"CDA Area, Cuttack - OSPCB",21-03-2026 08:00:00,20.48891     ,85.84768     ,NH3,3,5,4
India,Odisha,Keonjhar,"Jagamohanpur, Keonjhar - OSPCB",21-03-2026 08:00:00,21.643900,85.599355,PM10,NA,NA,NA
India,Odisha,Keonjhar,"Jagamohanpur, Keonjhar - OSPCB",21-03-2026 08:00:00,21.643900,85.599355,NH3,NA,NA,NA
India,Odisha,Nayagarh,"Dabuna, Nayagarh - OSPCB",21-03-2026 08:00:00,21.847279,85.416905,PM10,24,122,67
India,Odisha,Nayagarh,"Dabuna, Nayagarh - OSPCB",21-03-2026 08:00:00,21.847279,85.416905,OZONE,11,27,14
India,Odisha,Rairangpur,"Divisional Forest Office, Rairangpur - OSPCB",21-03-2026 08:00:00,22.265816,86.174829,NO2,11,11,11
India,Odisha,Rairangpur,"Divisional Forest Office, Rairangpur - OSPCB",21-03-2026 08:00:00,22.265816,86.174829,CO,6,22,10
India,Odisha,Rourkela,"Fertilizer Township, Rourkela - OSPCB",21-03-2026 08:00:00,22.18972222,84.86277778,NO2,11,11,11
India,Odisha,Rourkela,"Fertilizer Township, Rourkela - OSPCB",21-03-2026 08:00:00,22.18972222,84.86277778,CO,10,66,17
India,Punjab,Ludhiana,"Punjab Agricultural University, Ludhiana - PPCB",21-03-2026 08:00:00,30.9028,75.8086,CO,28,76,52
India,Punjab,Mandi Gobindgarh,"RIMT University, Mandi Gobindgarh - PPCB",21-03-2026 08:00:00,30.649961,76.331442,PM10,7,191,72
India,Punjab,Patiala,"Model Town, Patiala - PPCB",21-03-2026 08:00:00,30.349388,76.366642,NH3,6,6,6
India,Rajasthan,Ajmer,"Civil Lines,  Ajmer - RSPCB",21-03-2026 08:00:00,26.470859,74.646594,PM2.5,37,88,57
India,Rajasthan,Ajmer,"Civil Lines,  Ajmer - RSPCB",21-03-2026 08:00:00,26.470859,74.646594,PM10,39,107,69
India,Rajasthan,Ajmer,"Civil Lines,  Ajmer - RSPCB",21-03-2026 08:00:00,26.470859,74.646594,SO2,3,8,5
India,Rajasthan,Alwar,"Moti Doongri, Alwar - RSPCB",21-03-2026 08:00:00,27.554793,76.611536,PM10,76,125,91
India,Rajasthan,Alwar,"Moti Doongri, Alwar - RSPCB",21-03-2026 08:00:00,27.554793,76.611536,NH3,4,12,10
India,Rajasthan,Dausa,"Khatikan Mohalla, Dausa - RSPCB",21-03-2026 08:00:00,26.895552,76.334753,PM2.5,10,327,98
India,Rajasthan,Dholpur,"Raja Ganj, Dholpur - RSPCB",21-03-2026 08:00:00,26.699557,77.898881,PM2.5,5,163,54
India,Rajasthan,Dholpur,"Raja Ganj, Dholpur - RSPCB",21-03-2026 08:00:00,26.699557,77.898881,CO,6,34,21
India,Rajasthan,Dholpur,"Raja Ganj, Dholpur - RSPCB",21-03-2026 08:00:00,26.699557,77.898881,OZONE,7,51,14
India,Rajasthan,Dungarpur,"Bhoiwada, Dungarpur - RSPCB",21-03-2026 08:00:00,23.837789,73.714926,NH3,12,18,15
India,Rajasthan,Dungarpur,"Bhoiwada, Dungarpur - RSPCB",21-03-2026 08:00:00,23.837789,73.714926,SO2,1,5,4
India,Rajasthan,Dungarpur,"Bhoiwada, Dungarpur - RSPCB",21-03-2026 08:00:00,23.837789,73.714926,CO,26,40,35
India,Rajasthan,Hanumangarh,"Housing Board, Hanumangarh - RSPCB",21-03-2026 08:00:00,29.610750,74.283608,PM10,84,174,110
India,Rajasthan,Banswara,"Rati Talai, Banswara - RSPCB",21-03-2026 08:00:00,23.555190,74.440010,PM10,34,149,71
India,Rajasthan,Baran,"Bamboliya, Baran - RSPCB",21-03-2026 08:00:00,25.106006,76.469948,SO2,1,12,4
India,Rajasthan,Baran,"Bamboliya, Baran - RSPCB",21-03-2026 08:00:00,25.106006,76.469948,CO,8,32,20
India,Rajasthan,Barmer,"Railway Colony, Barmer - RSPCB",21-03-2026 08:00:00,25.747299,71.393989,SO2,3,13,6
India,Rajasthan,Bharatpur,"Krishna Nagar, Bharatpur - RSPCB",21-03-2026 08:00:00,27.215415,77.50873,PM10,4,86,52
India,Rajasthan,Bharatpur,"Krishna Nagar, Bharatpur - RSPCB",21-03-2026 08:00:00,27.215415,77.50873,NO2,4,29,16
India,Rajasthan,Bhilwara,"Pratap Nagar, Bhilwara - RSPCB",21-03-2026 08:00:00,25.339605,74.618883,SO2,6,14,8
India,Rajasthan,Bikaner,"MM Ground, Bikaner - RSPCB",21-03-2026 08:00:00,28.018792,73.292658,NO2,10,104,38
India,Rajasthan,Bikaner,"MM Ground, Bikaner - RSPCB",21-03-2026 08:00:00,28.018792,73.292658,SO2,4,11,8
India,Rajasthan,Bundi,"New Colony, Bundi - RSPCB",21-03-2026 08:00:00,25.435774,75.644272,SO2,2,5,3
India,Rajasthan,Bundi,"New Colony, Bundi - RSPCB",21-03-2026 08:00:00,25.435774,75.644272,OZONE,17,78,33
India,Rajasthan,Chittorgarh,"Shastri Nagar, Chittorgarh - RSPCB",21-03-2026 08:00:00,24.892047,74.623527,SO2,1,35,7
India,Odisha,Talcher,"Talcher Coalfields,Talcher - OSPCB",21-03-2026 08:00:00,20.9360711,85.1707021,NO2,25,60,40
India,Puducherry,Puducherry,"Jawahar Nagar, Puducherry - PPCC",21-03-2026 08:00:00,11.9309,79.8027,PM2.5,3,59,27
India,Puducherry,Puducherry,"Jawahar Nagar, Puducherry - PPCC",21-03-2026 08:00:00,11.9309,79.8027,OZONE,7,71,18
India,Punjab,Amritsar,"Golden Temple, Amritsar - PPCB",21-03-2026 08:00:00,31.620000,74.876512,PM10,34,84,50
India,Odisha,Bhubaneswar,"Lingraj Mandir, Bhubaneswar - OSPCB",21-03-2026 08:00:00,20.240790,85.836784,PM10,12,71,41
India,Odisha,Bileipada,"Tata Township, Bileipada - OSPCB",21-03-2026 08:00:00,22.06156703,85.47409613,PM2.5,26,158,81
India,Odisha,Brajrajnagar,"GM Office, Brajrajnagar - OSPCB",21-03-2026 08:00:00,21.8004996,83.8396977,OZONE,36,66,41
India,Punjab,Jalandhar,"Civil Line, Jalandhar - PPCB",21-03-2026 08:00:00,31.321907,75.578914,PM2.5,4,54,24
India,Punjab,Khanna,"Kalal Majra, Khanna - PPCB",21-03-2026 08:00:00,30.736056 ,76.209694,CO,2,55,22
India,Punjab,Ludhiana,"Punjab Agricultural University, Ludhiana - PPCB",21-03-2026 08:00:00,30.9028,75.8086,SO2,14,24,19
India,Odisha,Rourkela,"Sector-2, Rourkela - OSPCB",21-03-2026 08:00:00,22.24500000,84.88111111,CO,34,40,36
India,Rajasthan,Kota,"Dhanmandi, Kota - RSPCB",21-03-2026 08:00:00,25.164090,75.858137,OZONE,16,83,26
India,Rajasthan,Kota,"Nayapura, Kota - RSPCB",21-03-2026 08:00:00,25.196024,75.855668,PM2.5,2,48,20
India,Rajasthan,Kota,"Nayapura, Kota - RSPCB",21-03-2026 08:00:00,25.196024,75.855668,NH3,2,3,2
India,Rajasthan,Kota,"Shrinath Puram, Kota - RSPCB",21-03-2026 08:00:00,25.14389,75.821256,PM2.5,19,95,63
India,Rajasthan,Kota,"Shrinath Puram, Kota - RSPCB",21-03-2026 08:00:00,25.14389,75.821256,NO2,9,16,11
India,Rajasthan,Kota,"Shrinath Puram, Kota - RSPCB",21-03-2026 08:00:00,25.14389,75.821256,NH3,3,7,5
India,Rajasthan,Kota,"Shrinath Puram, Kota - RSPCB",21-03-2026 08:00:00,25.14389,75.821256,SO2,6,38,13
India,Rajasthan,Nagaur,"Karni Colony, Nagaur - RSPCB",21-03-2026 08:00:00,27.213494,73.734444,PM10,30,202,78
India,Rajasthan,Nagaur,"Karni Colony, Nagaur - RSPCB",21-03-2026 08:00:00,27.213494,73.734444,SO2,2,4,3
India,Rajasthan,Jalore,"Mudtra Sili, Jalore - RSPCB",21-03-2026 08:00:00,25.344694,72.626208,PM2.5,22,73,40
India,Rajasthan,Jhalawar,"Rajlaxmi Nagar, Jhalawar - RSPCB",21-03-2026 08:00:00,24.588397,76.172782,PM10,29,88,49
India,Rajasthan,Jhalawar,"Rajlaxmi Nagar, Jhalawar - RSPCB",21-03-2026 08:00:00,24.588397,76.172782,SO2,6,14,8
India,Rajasthan,Jhalawar,"Rajlaxmi Nagar, Jhalawar - RSPCB",21-03-2026 08:00:00,24.588397,76.172782,CO,10,32,17
India,Rajasthan,Jhunjhunu,"Indra Nagar, Jhunjhunu - RSPCB",21-03-2026 08:00:00,28.108988,75.386577,PM2.5,5,63,27
India,Rajasthan,Jodhpur,"Collectorate, Jodhpur - RSPCB",21-03-2026 08:00:00,26.268249,73.0193853,PM2.5,36,69,46
India,Rajasthan,Jodhpur,"Digari Kalan, Jodhpur - RSPCB",21-03-2026 08:00:00,26.295810,73.082283,PM2.5,15,309,53
India,Rajasthan,Tonk,"Shastri Nagar, Tonk - RSPCB",21-03-2026 08:00:00,26.159933,75.780517,NH3,NA,NA,NA
India,Rajasthan,Udaipur,"Ashok Nagar, Udaipur - RSPCB",21-03-2026 08:00:00,24.5886166,73.6321397,NO2,6,118,53
India,Sikkim,Gangtok,"Zero Point GICI, Gangtok - SSPCB",21-03-2026 08:00:00,27.338530,88.614099,PM2.5,NA,NA,NA
India,Sikkim,Gangtok,"Zero Point GICI, Gangtok - SSPCB",21-03-2026 08:00:00,27.338530,88.614099,CO,2,13,2
India,TamilNadu,Chennai,"Kodungaiyur, Chennai - TNPCB",21-03-2026 08:00:00,13.1278,80.2642,SO2,5,7,6
India,Rajasthan,Sawai Madhopur,"Sahu Nagar, Sawai Madhopur - RSPCB",21-03-2026 08:00:00,26.031443,76.359327,NO2,3,54,21
India,Rajasthan,Sawai Madhopur,"Sahu Nagar, Sawai Madhopur - RSPCB",21-03-2026 08:00:00,26.031443,76.359327,NH3,8,11,9
India,Rajasthan,Sikar,"Radhakishan Pura, Sikar - RSPCB",21-03-2026 08:00:00,27.608912,75.153302,PM10,14,161,65
India,Rajasthan,Sirohi,"Vedhaynath Colony, Sirohi - RSPCB",21-03-2026 08:00:00,24.885261,72.857549,NH3,2,10,6
India,Rajasthan,Sri Ganganagar,"Old City, Sri Ganganagar - RSPCB",21-03-2026 08:00:00,29.931624,73.864511,PM10,62,133,103
India,Rajasthan,Jaipur,"Police Commissionerate, Jaipur - RSPCB",21-03-2026 08:00:00,26.9164092,75.7994901,SO2,23,26,24
India,Rajasthan,Jaipur,"Sector-2 Murlipura, Jaipur - RSPCB",21-03-2026 08:00:00,26.960669,75.771817,NH3,5,7,7
India,Rajasthan,Jaipur,"Sector-2 Murlipura, Jaipur - RSPCB",21-03-2026 08:00:00,26.960669,75.771817,CO,16,38,22
India,Rajasthan,Jaipur,"Shastri Nagar, Jaipur - RSPCB",21-03-2026 08:00:00,26.9502929,75.730943,NO2,33,58,42
India,Rajasthan,Jaipur,"Shastri Nagar, Jaipur - RSPCB",21-03-2026 08:00:00,26.9502929,75.730943,NH3,6,10,8
India,Rajasthan,Jodhpur,"Jhalamand, Jodhpur - RSPCB",21-03-2026 08:00:00,26.215415,73.070156,NH3,8,18,12
India,Rajasthan,Jodhpur,"Mandor, Jodhpur - RSPCB",21-03-2026 08:00:00,26.358805,73.047444,NO2,6,52,18
India,Rajasthan,Karauli,"Satyawati Vihar, Karauli - RSPCB",21-03-2026 08:00:00,26.506177,77.025989,OZONE,1,72,17
India,TamilNadu,Chennai,"Manali Village, Chennai - TNPCB",21-03-2026 08:00:00,13.1662,80.2584,PM10,23,86,42
India,TamilNadu,Chennai,"Manali Village, Chennai - TNPCB",21-03-2026 08:00:00,13.1662,80.2584,NH3,NA,NA,NA
India,Rajasthan,Kota,"Dhanmandi, Kota - RSPCB",21-03-2026 08:00:00,25.164090,75.858137,NO2,22,69,41
India,Rajasthan,Kota,"Dhanmandi, Kota - RSPCB",21-03-2026 08:00:00,25.164090,75.858137,CO,4,92,46
India,Rajasthan,Pratapgarh,"Pragati Nagar, Pratapgarh - RSPCB",21-03-2026 08:00:00,24.041198,74.780702,CO,11,27,16
India,TamilNadu,Chennai,"Velachery Res. Area, Chennai - CPCB",21-03-2026 08:00:00,13.0052189,80.2398125,OZONE,6,11,7
India,TamilNadu,Coimbatore,"PSG College of Arts and Science, Coimbatore - TNPCB",21-03-2026 08:00:00,11.0328,77.0349,NH3,1,1,1
India,TamilNadu,Coimbatore,"PSG College of Arts and Science, Coimbatore - TNPCB",21-03-2026 08:00:00,11.0328,77.0349,SO2,3,6,4
India,TamilNadu,Coimbatore,"SIDCO Kurichi, Coimbatore - TNPCB",21-03-2026 08:00:00,10.942451,76.978996,PM10,41,64,51
India,TamilNadu,Gummidipoondi,"Anthoni Pillai Nagar, Gummidipoondi - TNPCB",21-03-2026 08:00:00,13.4127,80.1081,SO2,16,23,19
India,TamilNadu,Perundurai,"SIPCOT Industrial Park, Perundurai - TNPCB",21-03-2026 08:00:00,11.258242,77.552761,NH3,2,2,2
India,TamilNadu,Thoothukudi,"Meelavittan, Thoothukudi - TNPCB",21-03-2026 08:00:00,8.816428 ,78.099039,PM10,32,87,61
India,TamilNadu,Thoothukudi,"Meelavittan, Thoothukudi - TNPCB",21-03-2026 08:00:00,8.816428 ,78.099039,SO2,1,18,10
India,Telangana,Hyderabad,"Central University, Hyderabad - TSPCB",21-03-2026 08:00:00,17.460103,78.334361,CO,17,101,40
India,Telangana,Hyderabad,"ECIL Kapra, Hyderabad - TSPCB",21-03-2026 08:00:00,17.470431,78.566959,PM2.5,48,69,57
India,Telangana,Hyderabad,"ECIL Kapra, Hyderabad - TSPCB",21-03-2026 08:00:00,17.470431,78.566959,NO2,19,38,28
India,Telangana,Hyderabad,"ECIL Kapra, Hyderabad - TSPCB",21-03-2026 08:00:00,17.470431,78.566959,SO2,3,15,9
India,Telangana,Hyderabad,"ECIL Kapra, Hyderabad - TSPCB",21-03-2026 08:00:00,17.470431,78.566959,OZONE,6,35,12
India,Telangana,Hyderabad,"ICRISAT Patancheru, Hyderabad - TSPCB",21-03-2026 08:00:00,17.518400,78.278777,SO2,8,21,12
India,Tripura,Agartala,"Bardowali, Agartala - Tripura SPCB",21-03-2026 08:00:00,23.8175497,91.2726974,PM10,NA,NA,NA
India,Tripura,Agartala,"Bardowali, Agartala - Tripura SPCB",21-03-2026 08:00:00,23.8175497,91.2726974,SO2,NA,NA,NA
India,Tripura,Agartala,"Bardowali, Agartala - Tripura SPCB",21-03-2026 08:00:00,23.8175497,91.2726974,CO,NA,NA,NA
India,Uttar_Pradesh,Agra,"Manoharpur, Agra - UPPCB",21-03-2026 08:00:00,27.23711,78.01936,PM10,12,131,60
India,Uttar_Pradesh,Agra,"Rohta, Agra - UPPCB",21-03-2026 08:00:00,27.106972,78.000111,PM10,47,108,65
India,Uttar_Pradesh,Agra,"Rohta, Agra - UPPCB",21-03-2026 08:00:00,27.106972,78.000111,SO2,6,10,7
India,Telangana,Hyderabad,"Kokapet, Hyderabad - TSPCB",21-03-2026 08:00:00,17.393559,78.339194,PM2.5,45,61,57
India,Telangana,Hyderabad,"Kompally Municipal Office, Hyderabad - TSPCB",21-03-2026 08:00:00,17.544899,78.486949,PM10,75,84,78
India,Telangana,Hyderabad,"Kompally Municipal Office, Hyderabad - TSPCB",21-03-2026 08:00:00,17.544899,78.486949,CO,10,36,20
India,Telangana,Hyderabad,"Nacharam_TSIIC IALA, Hyderabad - TSPCB",21-03-2026 08:00:00,17.429398,78.569354,PM10,73,86,81
India,Telangana,Hyderabad,"Nacharam_TSIIC IALA, Hyderabad - TSPCB",21-03-2026 08:00:00,17.429398,78.569354,NH3,5,7,6
India,Uttar_Pradesh,Agra,"Sector-3B Avas Vikas Colony, Agra - UPPCB",21-03-2026 08:00:00,27.19412,77.96237,OZONE,NA,NA,NA
India,Uttar_Pradesh,Agra,"Shastripuram, Agra - UPPCB",21-03-2026 08:00:00,27.19862,77.92066,PM10,16,110,44
India,Uttar_Pradesh,Agra,"Shastripuram, Agra - UPPCB",21-03-2026 08:00:00,27.19862,77.92066,OZONE,12,13,13
India,Uttar_Pradesh,Baghpat,"Sardar Patel Inter College, Baghpat - UPPCB",21-03-2026 08:00:00,28.964949,77.278761,PM2.5,NA,NA,NA
India,TamilNadu,Chennai,"Manali, Chennai - CPCB",21-03-2026 08:00:00,13.164544,80.26285,OZONE,23,97,31
India,TamilNadu,Chennai,"Perungudi, Chennai - TNPCB",21-03-2026 08:00:00,12.9533,80.2357,NO2,4,13,6
India,TamilNadu,Chennai,"Perungudi, Chennai - TNPCB",21-03-2026 08:00:00,12.9533,80.2357,SO2,3,9,5
India,TamilNadu,Chennai,"Perungudi, Chennai - TNPCB",21-03-2026 08:00:00,12.9533,80.2357,OZONE,1,5,1
India,Telangana,Hyderabad,"Ramachandrapuram, Hyderabad - TSPCB",21-03-2026 08:00:00,17.528544,78.286195,PM10,67,79,74
India,Telangana,Hyderabad,"Somajiguda, Hyderabad - TSPCB",21-03-2026 08:00:00,17.417094,78.457437,PM10,58,72,63
India,Telangana,Hyderabad,"Somajiguda, Hyderabad - TSPCB",21-03-2026 08:00:00,17.417094,78.457437,NH3,4,5,5
India,Telangana,Hyderabad,"IITH Kandi, Hyderabad - TSPCB",21-03-2026 08:00:00,17.585705,78.126199,PM2.5,29,60,44
India,Telangana,Hyderabad,"IITH Kandi, Hyderabad - TSPCB",21-03-2026 08:00:00,17.585705,78.126199,NH3,5,7,6
India,TamilNadu,Chennai,"Royapuram, Chennai - TNPCB",21-03-2026 08:00:00,13.1036,80.2909,PM10,8,108,35
India,TamilNadu,Chennai,"Royapuram, Chennai - TNPCB",21-03-2026 08:00:00,13.1036,80.2909,NO2,12,15,14
India,Uttar_Pradesh,Jhansi,"Shivaji Nagar, Jhansi - UPPCB",21-03-2026 08:00:00,25.4547,78.6039,OZONE,2,38,2
India,Uttar_Pradesh,Kanpur,"FTI Kidwai Nagar, Kanpur - UPPCB",21-03-2026 08:00:00,26.428282,80.327067,PM2.5,36,78,59
India,Uttar_Pradesh,Kanpur,"FTI Kidwai Nagar, Kanpur - UPPCB",21-03-2026 08:00:00,26.428282,80.327067,NH3,5,5,5
India,Uttar_Pradesh,Kanpur,"FTI Kidwai Nagar, Kanpur - UPPCB",21-03-2026 08:00:00,26.428282,80.327067,SO2,25,27,26
India,Uttar_Pradesh,Kanpur,"NSI Kalyanpur, Kanpur - UPPCB",21-03-2026 08:00:00,26.509954,80.249612,PM2.5,44,86,67
India,Uttar_Pradesh,Kanpur,"Nehru Nagar, Kanpur - UPPCB",21-03-2026 08:00:00,26.4703136,80.3229863,NO2,51,54,52
India,Uttar_Pradesh,Kanpur,"Nehru Nagar, Kanpur - UPPCB",21-03-2026 08:00:00,26.4703136,80.3229863,CO,35,73,57
India,Uttar_Pradesh,Khurja,"Kalindi Kunj, Khurja - UPPCB",21-03-2026 08:00:00,28.2348927,77.8683002,PM2.5,NA,NA,NA
India,Uttar_Pradesh,Khurja,"Kalindi Kunj, Khurja - UPPCB",21-03-2026 08:00:00,28.2348927,77.8683002,PM10,NA,NA,NA
India,Uttar_Pradesh,Khurja,"Kalindi Kunj, Khurja - UPPCB",21-03-2026 08:00:00,28.2348927,77.8683002,CO,9,42,36
India,Uttar_Pradesh,Greater Noida,"Knowledge Park - III, Greater Noida - UPPCB",21-03-2026 08:00:00,28.47272,77.482000,SO2,1,21,8
India,Uttar_Pradesh,Greater Noida,"Knowledge Park - V, Greater Noida - UPPCB",21-03-2026 08:00:00,28.557054,77.453663,PM2.5,57,232,113
India,Uttar_Pradesh,Greater Noida,"Knowledge Park - V, Greater Noida - UPPCB",21-03-2026 08:00:00,28.557054,77.453663,CO,24,68,46
India,Uttar_Pradesh,Greater Noida,"Knowledge Park - V, Greater Noida - UPPCB",21-03-2026 08:00:00,28.557054,77.453663,OZONE,3,34,4
India,Uttar_Pradesh,Hapur,"Anand Vihar, Hapur - UPPCB",21-03-2026 08:00:00,28.725645,77.749675,NO2,5,37,14
India,Uttar_Pradesh,Ghaziabad,"Indirapuram, Ghaziabad - UPPCB",21-03-2026 08:00:00,28.646233,77.358075,OZONE,4,6,5
India,Uttar_Pradesh,Ghaziabad,"Loni, Ghaziabad - UPPCB",21-03-2026 08:00:00,28.757294,77.278792,CO,12,76,65
India,Uttar_Pradesh,Ghaziabad,"Loni, Ghaziabad - UPPCB",21-03-2026 08:00:00,28.757294,77.278792,OZONE,1,23,3
India,Uttar_Pradesh,Ghaziabad,"Sanjay Nagar, Ghaziabad - UPPCB",21-03-2026 08:00:00,28.685382,77.453839,PM10,33,118,73
India,Uttar_Pradesh,Lucknow,"B R Ambedkar University, Lucknow - UPPCB",21-03-2026 08:00:00,26.766433,80.927299,NO2,12,12,12
India,Uttar_Pradesh,Lucknow,"Gomti Nagar, Lucknow - UPPCB",21-03-2026 08:00:00,26.868120,81.005119,OZONE,30,36,30
India,Uttar_Pradesh,Lucknow,"Kukrail Picnic Spot-1, Lucknow - UPPCB",21-03-2026 08:00:00,26.90723,80.98579,PM2.5,32,264,106
India,Uttar_Pradesh,Bulandshahr,"Yamunapuram, Bulandshahr - UPPCB",21-03-2026 08:00:00,28.406963,77.849831,CO,24,66,52
India,Uttar_Pradesh,Firozabad,"Nagla Bhau, Firozabad - UPPCB",21-03-2026 08:00:00,27.168897,78.376960,PM10,24,79,46
India,Uttar_Pradesh,Bulandshahr,"Yamunapuram, Bulandshahr - UPPCB",21-03-2026 08:00:00,28.406963,77.849831,NO2,5,45,23
India,Uttar_Pradesh,Bulandshahr,"Yamunapuram, Bulandshahr - UPPCB",21-03-2026 08:00:00,28.406963,77.849831,SO2,4,18,12
India,Uttar_Pradesh,Gorakhpur,"Madan Mohan Malaviya University of Technology, Gorakhpur - UPPCB",21-03-2026 08:00:00,26.730136,83.433859,PM2.5,41,97,75
India,Uttar_Pradesh,Bareilly,"Rajendra Nagar, Bareilly - UPPCB",21-03-2026 08:00:00,28.38910936,79.42963708,OZONE,1,17,4
India,Uttar_Pradesh,Firozabad,"Vibhab Nagar, Firozabad - UPPCB",21-03-2026 08:00:00,27.1594,78.3953,NO2,15,15,15
India,Uttar_Pradesh,Prayagraj,"Motilal Nehru NIT, Prayagraj - UPPCB",21-03-2026 08:00:00,25.494,81.863,NH3,6,8,8
India,Uttar_Pradesh,Prayagraj,"Nagar Nigam, Prayagraj - UPPCB",21-03-2026 08:00:00,25.44919916 ,81.82735986 ,NH3,9,12,10
India,Uttar_Pradesh,Prayagraj,"Nagar Nigam, Prayagraj - UPPCB",21-03-2026 08:00:00,25.44919916 ,81.82735986 ,SO2,46,78,55
India,Uttar_Pradesh,Varanasi,"Ardhali Bazar, Varanasi - UPPCB",21-03-2026 08:00:00,25.3505986,82.9083074,PM10,30,101,72
India,Uttar_Pradesh,Varanasi,"Bhelupur, Varanasi - UPPCB",21-03-2026 08:00:00,25.301778,82.996789,PM10,20,53,40
India,Uttar_Pradesh,Moradabad,"Jigar Colony, Moradabad - UPPCB",21-03-2026 08:00:00,28.856664,78.772638,PM2.5,19,38,27
India,Uttar_Pradesh,Moradabad,"Jigar Colony, Moradabad - UPPCB",21-03-2026 08:00:00,28.856664,78.772638,NO2,25,25,25
India,Uttar_Pradesh,Moradabad,"Jigar Colony, Moradabad - UPPCB",21-03-2026 08:00:00,28.856664,78.772638,NH3,6,6,6
India,Uttar_Pradesh,Moradabad,"Kashiram Nagar, Moradabad - UPPCB",21-03-2026 08:00:00,28.849399,78.742362,PM2.5,11,43,25
India,Uttar_Pradesh,Moradabad,"Kashiram Nagar, Moradabad - UPPCB",21-03-2026 08:00:00,28.849399,78.742362,NO2,25,25,25
India,Uttar_Pradesh,Moradabad,"Kashiram Nagar, Moradabad - UPPCB",21-03-2026 08:00:00,28.849399,78.742362,NH3,4,4,4
India,Uttar_Pradesh,Moradabad,"Kashiram Nagar, Moradabad - UPPCB",21-03-2026 08:00:00,28.849399,78.742362,SO2,106,124,112
India,Uttar_Pradesh,Noida,"Sector - 62, Noida - IMD",21-03-2026 08:00:00,28.6245479,77.3577104,CO,13,26,23
India,Uttar_Pradesh,Noida,"Sector - 62, Noida - IMD",21-03-2026 08:00:00,28.6245479,77.3577104,OZONE,10,34,11
India,Uttar_Pradesh,Noida,"Sector-1, Noida - UPPCB",21-03-2026 08:00:00,28.5898,77.3101,NH3,7,14,10
India,Uttar_Pradesh,Noida,"Sector-1, Noida - UPPCB",21-03-2026 08:00:00,28.5898,77.3101,CO,38,61,55
India,Uttar_Pradesh,Prayagraj,"Jhunsi, Prayagraj - UPPCB",21-03-2026 08:00:00,25.425602,81.917152,PM10,15,75,50
India,Uttar_Pradesh,Lucknow,"Lalbagh, Lucknow - CPCB",21-03-2026 08:00:00,26.8458805,80.9365541,NO2,34,39,36
India,Uttar_Pradesh,Lucknow,"Lalbagh, Lucknow - CPCB",21-03-2026 08:00:00,26.8458805,80.9365541,NH3,13,21,17
India,Uttar_Pradesh,Lucknow,"Talkatora District Industries Center, Lucknow - CPCB",21-03-2026 08:00:00,26.83399722,80.8917361,NH3,8,9,9
India,Uttar_Pradesh,Lucknow,"Talkatora District Industries Center, Lucknow - CPCB",21-03-2026 08:00:00,26.83399722,80.8917361,SO2,2,11,6
India,Uttar_Pradesh,Moradabad,"Buddhi Vihar, Moradabad - UPPCB",21-03-2026 08:00:00,28.83526,78.74460,PM10,17,33,25
India,Uttar_Pradesh,Moradabad,"Buddhi Vihar, Moradabad - UPPCB",21-03-2026 08:00:00,28.83526,78.74460,OZONE,10,12,11
India,Uttar_Pradesh,Moradabad,"Eco Herbal Park, Moradabad - UPPCB",21-03-2026 08:00:00,28.840739,78.697531,PM10,15,36,25
India,Uttar_Pradesh,Moradabad,"Eco Herbal Park, Moradabad - UPPCB",21-03-2026 08:00:00,28.840739,78.697531,OZONE,11,26,18
India,Uttar_Pradesh,Moradabad,"Transport Nagar, Moradabad - UPPCB",21-03-2026 08:00:00,28.802625,78.753728,SO2,NA,NA,NA
India,Uttar_Pradesh,Muzaffarnagar,"New Mandi, Muzaffarnagar - UPPCB",21-03-2026 08:00:00,29.4723508,77.7194031,PM2.5,46,117,67
India,Uttar_Pradesh,Meerut,"Pallavpuram Phase 2, Meerut - UPPCB",21-03-2026 08:00:00,29.063510,77.709723,CO,16,57,36
India,Uttar_Pradesh,Meerut,"Ganga Nagar, Meerut - UPPCB",21-03-2026 08:00:00,28.999264,77.7590354,OZONE,NA,NA,NA
India,Uttar_Pradesh,Meerut,"Ganga Nagar, Meerut - UPPCB",21-03-2026 08:00:00,28.999264,77.7590354,NH3,3,4,3
India,Uttar_Pradesh,Varanasi,"IESD Banaras Hindu University, Varanasi - UPPCB",21-03-2026 08:00:00,25.262326,82.995408,PM10,13,71,45
India,Uttar_Pradesh,Varanasi,"Maldahiya, Varanasi - UPPCB",21-03-2026 08:00:00,25.32393,82.99687,PM10,18,61,40
India,Uttar_Pradesh,Varanasi,"Maldahiya, Varanasi - UPPCB",21-03-2026 08:00:00,25.32393,82.99687,NO2,2,4,3
India,Uttar_Pradesh,Varanasi,"Maldahiya, Varanasi - UPPCB",21-03-2026 08:00:00,25.32393,82.99687,SO2,30,33,30
India,Uttar_Pradesh,Vrindavan,"Omex Eternity, Vrindavan - UPPCB",21-03-2026 08:00:00,27.5714090,77.6557570,NO2,27,27,27
India,Uttarakhand,Dehradun,"Doon University, Dehradun - UKPCB",21-03-2026 08:00:00,30.269444,78.044167,CO,3,4,3
India,Uttarakhand,Rishikesh,"Shivaji Nagar, Rishikesh - UKPCB",21-03-2026 08:00:00,30.075911,78.2859547,OZONE,12,30,18
India,West_Bengal,Asansol,"Evelyn Lodge, Asansol - WBPCB",21-03-2026 08:00:00,23.6979360,86.9443950,NO2,7,33,15
India,West_Bengal,Asansol,"Evelyn Lodge, Asansol - WBPCB",21-03-2026 08:00:00,23.6979360,86.9443950,NH3,8,8,8
India,West_Bengal,Asansol,"Evelyn Lodge, Asansol - WBPCB",21-03-2026 08:00:00,23.6979360,86.9443950,CO,8,60,12
India,West_Bengal,Asansol,"Mahabir Colliery, Asansol - WBPCB",21-03-2026 08:00:00,23.6181830,87.1057180,NO2,9,15,11
India,West_Bengal,Asansol,"Trivenidevi Bhalotia College, Asansol - WBPCB",21-03-2026 08:00:00,23.616515,87.119133,NO2,8,23,14
India,West_Bengal,Barrackpore,"SVSPA Campus, Barrackpore - WBPCB",21-03-2026 08:00:00,22.7605581,88.3617589,PM10,16,74,47
India,West_Bengal,Durgapur,"Mahishkapur Road_B-Zone, Durgapur - WBPCB",21-03-2026 08:00:00,23.567923,87.306843,NO2,4,54,14
India,West_Bengal,Durgapur,"PCBL Residential Complex, Durgapur - WBPCB",21-03-2026 08:00:00,23.5087640,87.3544400,PM10,17,137,63
India,West_Bengal,Durgapur,"PCBL Residential Complex, Durgapur - WBPCB",21-03-2026 08:00:00,23.5087640,87.3544400,NH3,5,6,6
India,West_Bengal,Durgapur,"PCBL Residential Complex, Durgapur - WBPCB",21-03-2026 08:00:00,23.5087640,87.3544400,SO2,4,11,6
India,West_Bengal,Durgapur,"Womens College_City Center, Durgapur - WBPCB",21-03-2026 08:00:00,23.549395,87.300496,NO2,22,41,27
India,West_Bengal,Durgapur,"Womens College_City Center, Durgapur - WBPCB",21-03-2026 08:00:00,23.549395,87.300496,NH3,2,3,3
India,West_Bengal,Howrah,"Belur Math, Howrah - WBPCB",21-03-2026 08:00:00,22.629801,88.352017,PM10,25,75,58
India,West_Bengal,Howrah,"Belur Math, Howrah - WBPCB",21-03-2026 08:00:00,22.629801,88.352017,CO,7,27,13
India,West_Bengal,Howrah,"Botanical Garden, Howrah - WBPCB",21-03-2026 08:00:00,22.554954,88.292568,PM10,9,38,29
India,West_Bengal,Howrah,"Botanical Garden, Howrah - WBPCB",21-03-2026 08:00:00,22.554954,88.292568,CO,2,18,7
India,West_Bengal,Howrah,"Ghusuri, Howrah - WBPCB",21-03-2026 08:00:00,22.611968,88.347422,PM10,35,130,66
India,West_Bengal,Howrah,"Padmapukur, Howrah - WBPCB",21-03-2026 08:00:00,22.5687319,88.2797276,CO,48,94,63
India,West_Bengal,Howrah,"Padmapukur, Howrah - WBPCB",21-03-2026 08:00:00,22.5687319,88.2797276,OZONE,15,34,20
India,West_Bengal,Kolkata,"Ballygunge, Kolkata - WBPCB",21-03-2026 08:00:00,22.5367507,88.3638022,PM2.5,27,76,49
India,West_Bengal,Kolkata,"Fort William, Kolkata - WBPCB",21-03-2026 08:00:00,22.556640,88.342674,PM2.5,17,39,30
India,West_Bengal,Kolkata,"Fort William, Kolkata - WBPCB",21-03-2026 08:00:00,22.556640,88.342674,OZONE,10,25,17
India,West_Bengal,Kolkata,"Jadavpur, Kolkata - WBPCB",21-03-2026 08:00:00,22.49929,88.36917,SO2,4,6,5
India,West_Bengal,Kolkata,"Jadavpur, Kolkata - WBPCB",21-03-2026 08:00:00,22.49929,88.36917,CO,18,35,22
India,West_Bengal,Kolkata,"Rabindra Bharati University, Kolkata - WBPCB",21-03-2026 08:00:00,22.627847,88.380669,OZONE,43,76,54
India,West_Bengal,Kolkata,"Rabindra Sarobar, Kolkata - WBPCB",21-03-2026 08:00:00,22.51106,88.35142,OZONE,15,29,22
India,West_Bengal,Kolkata,"Victoria, Kolkata - WBPCB",21-03-2026 08:00:00,22.5448082,88.3403691,NO2,31,37,34
India,West_Bengal,Kolkata,"Victoria, Kolkata - WBPCB",21-03-2026 08:00:00,22.5448082,88.3403691,OZONE,24,49,32
India,West_Bengal,Siliguri,"Ward-32 Bapupara, Siliguri - WBPCB",21-03-2026 08:00:00,26.6879226,88.4152495,PM2.5,23,44,35
India,West_Bengal,Siliguri,"Ward-32 Bapupara, Siliguri - WBPCB",21-03-2026 08:00:00,26.6879226,88.4152495,OZONE,39,62,52
India,Bihar,Arrah,"New DM Office, Arrah - BSPCB",21-03-2026 08:00:00,25.5626095,84.663264,SO2,NA,NA,NA
India,Bihar,Aurangabad,"Gurdeo Nagar, Aurangabad - BSPCB",21-03-2026 08:00:00,24.75746,84.366208,PM10,5,500,109
India,Bihar,Aurangabad,"Gurdeo Nagar, Aurangabad - BSPCB",21-03-2026 08:00:00,24.75746,84.366208,NH3,1,2,1
India,Bihar,Begusarai,"Lohiyanagar, Begusarai - BSPCB",21-03-2026 08:00:00,25.42742023,86.13886079,NH3,3,4,4
India,Bihar,Bettiah,"Kamalnath Nagar, Bettiah - BSPCB",21-03-2026 08:00:00,26.80365,84.51954,PM10,11,107,28
India,Bihar,Bhagalpur,"DM Office_Kachari Chowk, Bhagalpur - BSPCB",21-03-2026 08:00:00,25.251013,86.989001,NH3,1,1,1
India,Bihar,Bhagalpur,"DM Office_Kachari Chowk, Bhagalpur - BSPCB",21-03-2026 08:00:00,25.251013,86.989001,CO,8,12,10
India,Bihar,Bhagalpur,"DM Office_Kachari Chowk, Bhagalpur - BSPCB",21-03-2026 08:00:00,25.251013,86.989001,OZONE,9,30,16
India,Bihar,Bhagalpur,"Mayaganj, Bhagalpur - BSPCB",21-03-2026 08:00:00,25.265194,87.012947,NH3,5,8,7
India,Bihar,Bhagalpur,"Mayaganj, Bhagalpur - BSPCB",21-03-2026 08:00:00,25.265194,87.012947,SO2,4,62,53
India,Bihar,Bihar Sharif,"D M Colony, Bihar Sharif - BSPCB",21-03-2026 08:00:00,25.204762,85.514960,PM2.5,NA,NA,NA
India,Andhra_Pradesh,Eluru,"District Court, Eluru - APPCB",21-03-2026 08:00:00,16.711754,81.092095,PM10,28,75,46
India,Andhra_Pradesh,Eluru,"District Court, Eluru - APPCB",21-03-2026 08:00:00,16.711754,81.092095,OZONE,4,44,10
India,Andhra_Pradesh,Guntur,"Rajendra Nagar North, Guntur - APPCB",21-03-2026 08:00:00,16.316553,80.413302,NO2,14,20,17
India,Andhra_Pradesh,Guntur,"Rajendra Nagar North, Guntur - APPCB",21-03-2026 08:00:00,16.316553,80.413302,NH3,5,7,6
India,Andhra_Pradesh,Kadapa,"Yerramukkapalli, Kadapa - APPCB",21-03-2026 08:00:00,14.465052,78.824187,NO2,20,26,22
India,Andhra_Pradesh,Kadapa,"Yerramukkapalli, Kadapa - APPCB",21-03-2026 08:00:00,14.465052,78.824187,NH3,4,5,5
India,Andhra_Pradesh,Kadapa,"Yerramukkapalli, Kadapa - APPCB",21-03-2026 08:00:00,14.465052,78.824187,CO,12,24,14
India,Andhra_Pradesh,Kadapa,"Yerramukkapalli, Kadapa - APPCB",21-03-2026 08:00:00,14.465052,78.824187,OZONE,15,22,21
India,Andhra_Pradesh,Machilipatnam,"Srinivas Nagar Colony, Machilipatnam - APPCB",21-03-2026 08:00:00,16.186555,81.13219,NH3,3,6,4
India,Andhra_Pradesh,Machilipatnam,"Srinivas Nagar Colony, Machilipatnam - APPCB",21-03-2026 08:00:00,16.186555,81.13219,CO,5,71,17
India,Andhra_Pradesh,Nellore,"Ambedkar Nagar, Nellore - APPCB ",21-03-2026 08:00:00,14.438164 ,79.966814 ,CO,5,24,10
India,Andhra_Pradesh,Vijayawada,"Rajiv Gandhi Park, Vijayawada - APPCB",21-03-2026 08:00:00,16.509717,80.612222,NH3,8,9,9
India,Andhra_Pradesh,Vijayawada,"Rajiv Gandhi Park, Vijayawada - APPCB",21-03-2026 08:00:00,16.509717,80.612222,OZONE,42,71,43
India,Andhra_Pradesh,Vijayawada,"Rajiv Nagar, Vijayawada - APPCB",21-03-2026 08:00:00,16.554731,80.649110,NO2,20,26,21
India,Andhra_Pradesh,Vijayawada,"Rajiv Nagar, Vijayawada - APPCB",21-03-2026 08:00:00,16.554731,80.649110,NH3,3,4,4
India,Andhra_Pradesh,Visakhapatnam,"GVM Corporation, Visakhapatnam - APPCB",21-03-2026 08:00:00,17.72,83.3,PM10,35,168,72
India,Andhra_Pradesh,Visakhapatnam,"GVM Corporation, Visakhapatnam - APPCB",21-03-2026 08:00:00,17.72,83.3,NH3,3,4,3
India,Arunachal_Pradesh,Naharlagun,"Naharlagun, Naharlagun - APSPCB",21-03-2026 08:00:00,27.103358,93.679645,PM2.5,2,61,40
India,Arunachal_Pradesh,Naharlagun,"Naharlagun, Naharlagun - APSPCB",21-03-2026 08:00:00,27.103358,93.679645,NO2,7,7,7
India,Arunachal_Pradesh,Naharlagun,"Naharlagun, Naharlagun - APSPCB",21-03-2026 08:00:00,27.103358,93.679645,OZONE,6,6,6
India,Assam,Nalbari,"Bata Chowk, Nalbari - PCBA",21-03-2026 08:00:00,26.446912,91.439057,CO,16,28,21
India,Assam,Silchar,"Tarapur, Silchar - PCBA",21-03-2026 08:00:00,24.82827,92.79525,PM2.5,21,53,36
India,Assam,Silchar,"Tarapur, Silchar - PCBA",21-03-2026 08:00:00,24.82827,92.79525,SO2,6,7,6
India,Assam,Silchar,"Tarapur, Silchar - PCBA",21-03-2026 08:00:00,24.82827,92.79525,OZONE,2,4,2
India,Assam,Sivasagar,"Girls College, Sivasagar - PCBA",21-03-2026 08:00:00,26.987634,94.636574,NO2,15,36,28
India,Bihar,Araria,"Kharahiya Basti, Araria - BSPCB",21-03-2026 08:00:00,26.146529,87.454184,PM10,20,182,58
India,Bihar,Araria,"Kharahiya Basti, Araria - BSPCB",21-03-2026 08:00:00,26.146529,87.454184,SO2,NA,NA,NA
India,Bihar,Arrah,"New DM Office, Arrah - BSPCB",21-03-2026 08:00:00,25.5626095,84.663264,PM10,10,102,54
India,Bihar,Gaya,"SFTI Kusdihra, Gaya - BSPCB",21-03-2026 08:00:00,24.762518,84.982348,OZONE,10,70,14
India,Bihar,Hajipur,"Industrial Area, Hajipur - BSPCB",21-03-2026 08:00:00,25.697189,85.245900,PM10,NA,NA,NA
India,Bihar,Katihar,"Mirchaibari, Katihar - BSPCB",21-03-2026 08:00:00,25.560083,87.553265,OZONE,7,15,8
India,Bihar,Manguraha,"Forest Rest House, Manguraha - BSPCB",21-03-2026 08:00:00,27.308328,84.531742,PM2.5,NA,NA,NA
India,Bihar,Manguraha,"Forest Rest House, Manguraha - BSPCB",21-03-2026 08:00:00,27.308328,84.531742,NO2,NA,NA,NA
India,Bihar,Manguraha,"Forest Rest House, Manguraha - BSPCB",21-03-2026 08:00:00,27.308328,84.531742,OZONE,4,11,10
India,Bihar,Motihari,"Gandak Colony, Motihari - BSPCB",21-03-2026 08:00:00,26.63086,84.90051,PM2.5,10,230,45
India,Bihar,Bihar Sharif,"D M Colony, Bihar Sharif - BSPCB",21-03-2026 08:00:00,25.204762,85.514960,NO2,8,10,9
India,Bihar,Buxar,"Charitra Van, Buxar - BSPCB",21-03-2026 08:00:00,25.567520,83.966379,PM10,NA,NA,NA
India,Bihar,Buxar,"Charitra Van, Buxar - BSPCB",21-03-2026 08:00:00,25.567520,83.966379,SO2,29,42,34
India,Bihar,Chhapra,"Darshan Nagar, Chhapra - BSPCB",21-03-2026 08:00:00,25.7808257,84.7446768,PM2.5,NA,NA,NA
India,Bihar,Chhapra,"Darshan Nagar, Chhapra - BSPCB",21-03-2026 08:00:00,25.7808257,84.7446768,PM10,NA,NA,NA
India,Bihar,Gaya,"Collectorate, Gaya - BSPCB",21-03-2026 08:00:00,24.7955,84.9994,OZONE,NA,NA,NA
India,Bihar,Gaya,"Kareemganj, Gaya - BSPCB",21-03-2026 08:00:00,24.792403,84.992416,PM2.5,17,87,52
India,Assam,Byrnihat,"Central Academy for SFS, Byrnihat - PCBA",21-03-2026 08:00:00,26.071318,91.87488,NH3,4,4,4
India,Assam,Byrnihat,"Central Academy for SFS, Byrnihat - PCBA",21-03-2026 08:00:00,26.071318,91.87488,SO2,3,32,32
India,Assam,Guwahati,"IITG, Guwahati - PCBA",21-03-2026 08:00:00,26.2028636,91.70046436,SO2,31,32,31
India,Assam,Guwahati,"IITG, Guwahati - PCBA",21-03-2026 08:00:00,26.2028636,91.70046436,CO,6,10,9
India,Assam,Guwahati,"Pan Bazaar, Guwahati - PCBA",21-03-2026 08:00:00,26.187500,91.744194,PM10,19,96,33
India,Assam,Guwahati,"Pan Bazaar, Guwahati - PCBA",21-03-2026 08:00:00,26.187500,91.744194,NH3,1,1,1
India,Assam,Guwahati,"Railway Colony, Guwahati - PCBA",21-03-2026 08:00:00,26.181742,91.78063,PM10,30,79,48
India,Andhra_Pradesh,Amaravati,"Secretariat, Amaravati - APPCB",21-03-2026 08:00:00,16.5150833,80.5181667,OZONE,10,68,14
India,Andhra_Pradesh,Anantapur,"Gulzarpet, Anantapur - APPCB",21-03-2026 08:00:00,14.675886,77.593027,PM10,51,113,76
India,Andhra_Pradesh,Chittoor,"Gangineni Cheruvu, Chittoor - APPCB",21-03-2026 08:00:00,13.204880,79.097889,SO2,10,20,12
India,Andhra_Pradesh,Chittoor,"Gangineni Cheruvu, Chittoor - APPCB",21-03-2026 08:00:00,13.204880,79.097889,OZONE,21,38,24
India,Andhra_Pradesh,Eluru,"District Court, Eluru - APPCB",21-03-2026 08:00:00,16.711754,81.092095,PM2.5,46,87,62
India,Andhra_Pradesh,Rajamahendravaram,"Anand Kala Kshetram, Rajamahendravaram - APPCB",21-03-2026 08:00:00,16.9872867,81.7363176,OZONE,7,34,12
India,Andhra_Pradesh,Tirupati,"Vaikuntapuram, Tirupati - APPCB",21-03-2026 08:00:00,13.615387,79.409230,OZONE,16,32,17
India,Andhra_Pradesh,Vijayawada,"HB Colony, Vijayawada - APPCB",21-03-2026 08:00:00,16.536107,80.594233,NH3,3,6,4
India,Andhra_Pradesh,Vijayawada,"Kanuru, Vijayawada - APPCB",21-03-2026 08:00:00,16.486692,80.699436,NO2,14,24,16
India,Andhra_Pradesh,Amaravati,"Secretariat, Amaravati - APPCB",21-03-2026 08:00:00,16.5150833,80.5181667,SO2,4,23,8
India,Chhattisgarh,Bilaspur,"Mangala, Bilaspur - NTPC",21-03-2026 08:00:00,22.08815,82.13737,PM10,36,94,57
India,Chhattisgarh,Bilaspur,"Mangala, Bilaspur - NTPC",21-03-2026 08:00:00,22.08815,82.13737,NO2,20,31,25
India,Chhattisgarh,Bilaspur,"Mangala, Bilaspur - NTPC",21-03-2026 08:00:00,22.08815,82.13737,SO2,6,20,12
India,Chhattisgarh,Chhal,"Nawapara SECL Colony, Chhal - CECB",21-03-2026 08:00:00,22.118125,83.140608,NH3,4,4,4
India,Chhattisgarh,Korba,"Rampur, Korba - CECB",21-03-2026 08:00:00,22.368195,82.746431,PM2.5,8,81,40
India,Chhattisgarh,Korba,"Rampur, Korba - CECB",21-03-2026 08:00:00,22.368195,82.746431,PM10,11,168,62
India,Chhattisgarh,Korba,"Rampur, Korba - CECB",21-03-2026 08:00:00,22.368195,82.746431,NH3,1,1,1
India,Chhattisgarh,Korba,"Rampur, Korba - CECB",21-03-2026 08:00:00,22.368195,82.746431,SO2,6,96,45
India,Chhattisgarh,Korba,"Urja Nagar, Korba - CECB",21-03-2026 08:00:00,22.348441,82.549611,PM10,15,127,54
India,Chhattisgarh,Korba,"Urja Nagar, Korba - CECB",21-03-2026 08:00:00,22.348441,82.549611,OZONE,2,5,2
India,Chhattisgarh,Kunjemura,"OP Jindal School, Kunjemura - CECB",21-03-2026 08:00:00,22.126650,83.483212,PM2.5,14,81,38
India,Chhattisgarh,Kunjemura,"OP Jindal School, Kunjemura - CECB",21-03-2026 08:00:00,22.126650,83.483212,NH3,2,2,2
India,Chhattisgarh,Kunjemura,"OP Jindal School, Kunjemura - CECB",21-03-2026 08:00:00,22.126650,83.483212,CO,24,42,26
India,Bihar,Siwan,"Chitragupta Nagar, Siwan - BSPCB",21-03-2026 08:00:00,26.2271665,84.3570427,OZONE,13,14,13
India,Chandigarh,Chandigarh,"Sector 22, Chandigarh - CPCC",21-03-2026 08:00:00,30.735567,76.775714,CO,59,101,69
India,Chandigarh,Chandigarh,"Sector-53, Chandigarh - CPCC",21-03-2026 08:00:00,30.719859,76.738637,PM10,NA,NA,NA
India,Chandigarh,Chandigarh,"Sector-53, Chandigarh - CPCC",21-03-2026 08:00:00,30.719859,76.738637,SO2,6,6,6
India,Chhattisgarh,Bhilai,"32Bungalows, Bhilai - CECB",21-03-2026 08:00:00,21.194815,81.314770,PM2.5,12,36,20
India,Chhattisgarh,Bhilai,"32Bungalows, Bhilai - CECB",21-03-2026 08:00:00,21.194815,81.314770,CO,13,22,18
India,Chhattisgarh,Bhilai,"32Bungalows, Bhilai - CECB",21-03-2026 08:00:00,21.194815,81.314770,OZONE,2,20,5
India,Chhattisgarh,Bhilai,"Hathkhoj, Bhilai - CECB",21-03-2026 08:00:00,21.224231,81.408350,PM2.5,15,36,25
India,Chhattisgarh,Bhilai,"Hathkhoj, Bhilai - CECB",21-03-2026 08:00:00,21.224231,81.408350,NO2,22,92,42
India,Chhattisgarh,Raipur,"Siltara Phase-II, Raipur - CECB",21-03-2026 08:00:00,21.371751,81.664929,NO2,8,29,13
India,Chhattisgarh,Raipur,"Siltara Phase-II, Raipur - CECB",21-03-2026 08:00:00,21.371751,81.664929,SO2,2,77,19
India,Chhattisgarh,Tumidih,"OP Jindal Industrial Park, Tumidih - CECB",21-03-2026 08:00:00,22.06631475,83.33820077,PM2.5,NA,NA,NA
India,Chhattisgarh,Tumidih,"OP Jindal Industrial Park, Tumidih - CECB",21-03-2026 08:00:00,22.06631475,83.33820077,PM10,NA,NA,NA
India,Delhi,Delhi,"Anand Vihar, Delhi - DPCC",21-03-2026 08:00:00,28.647622,77.3158090,NO2,32,81,54
India,Delhi,Delhi,"Anand Vihar, Delhi - DPCC",21-03-2026 08:00:00,28.647622,77.3158090,NH3,4,8,6
India,Delhi,Delhi,"Ashok Vihar, Delhi - DPCC",21-03-2026 08:00:00,28.695381,77.181665,NH3,7,7,7
India,Delhi,Delhi,"Aya Nagar, Delhi - IMD",21-03-2026 08:00:00,28.4706914,77.1099364,PM2.5,25,88,57
India,Bihar,Purnia,"Mariam Nagar, Purnia - BSPCB",21-03-2026 08:00:00,25.366336,87.117468,CO,34,58,52
India,Bihar,Rajgir,"Dangi Tola, Rajgir - BSPCB",21-03-2026 08:00:00,25.03280,85.41948,PM10,26,92,47
India,Bihar,Rajgir,"Dangi Tola, Rajgir - BSPCB",21-03-2026 08:00:00,25.03280,85.41948,NO2,13,14,14
India,Bihar,Saharsa,"Police Line, Saharsa - BSPCB",21-03-2026 08:00:00,25.892357,86.590325,SO2,NA,NA,NA
India,Bihar,Saharsa,"Police Line, Saharsa - BSPCB",21-03-2026 08:00:00,25.892357,86.590325,OZONE,NA,NA,NA
India,Bihar,Sasaram,"Dada Peer, Sasaram - BSPCB",21-03-2026 08:00:00,24.952822,84.002396,OZONE,9,37,20
India,Bihar,Siwan,"Chitragupta Nagar, Siwan - BSPCB",21-03-2026 08:00:00,26.2271665,84.3570427,PM10,10,149,59
India,Bihar,Siwan,"Chitragupta Nagar, Siwan - BSPCB",21-03-2026 08:00:00,26.2271665,84.3570427,NH3,1,1,1
India,Delhi,Delhi,"Commonwealth Sports Complex, Delhi - DPCC",21-03-2026 08:00:00,28.615828 ,77.271992 ,OZONE,2,29,2
India,Delhi,Delhi,"Dr. Karni Singh Shooting Range, Delhi - DPCC",21-03-2026 08:00:00,28.498571,77.264840,OZONE,3,64,5
India,Delhi,Delhi,"Dwarka-Sector 8, Delhi - DPCC ",21-03-2026 08:00:00,28.5710274,77.0719006,PM10,29,177,88
India,Delhi,Delhi,"Dwarka-Sector 8, Delhi - DPCC ",21-03-2026 08:00:00,28.5710274,77.0719006,OZONE,4,72,8
India,Delhi,Delhi,"IGI Airport (T3), Delhi - IMD",21-03-2026 08:00:00,28.5627763,77.1180053,PM2.5,1,88,50
India,Delhi,Delhi,"IGNOU_Maidan Garhi, Delhi - DPCC",21-03-2026 08:00:00,28.493624 ,77.201159 ,NH3,2,5,3
India,Bihar,Patna,"Muradpur, Patna - BSPCB",21-03-2026 08:00:00,25.619651,85.147382,OZONE,16,91,22
India,Bihar,Patna,"Rajbansi Nagar, Patna - BSPCB",21-03-2026 08:00:00,25.599486,85.113666,PM10,28,120,89
India,Bihar,Patna,"Samanpura, Patna - BSPCB",21-03-2026 08:00:00,25.596727,85.085624,NH3,15,18,16
India,Bihar,Patna,"Samanpura, Patna - BSPCB",21-03-2026 08:00:00,25.596727,85.085624,SO2,3,5,4
India,Bihar,Patna,"Samanpura, Patna - BSPCB",21-03-2026 08:00:00,25.596727,85.085624,OZONE,7,192,192
India,Bihar,Purnia,"Mariam Nagar, Purnia - BSPCB",21-03-2026 08:00:00,25.366336,87.117468,NH3,2,3,2
India,Chhattisgarh,Milupara,"Govt. Higher Secondary School, Milupara - CECB",21-03-2026 08:00:00,22.1910172,83.5197009,PM2.5,NA,NA,NA
India,Chhattisgarh,Raipur,"AIIMS, Raipur - CECB",21-03-2026 08:00:00,21.258815,81.578979,CO,18,33,20
India,Chhattisgarh,Raipur,"Bhatagaon New ISBT, Raipur - CECB",21-03-2026 08:00:00,21.219665,81.630094,NH3,2,2,2
India,Chhattisgarh,Raipur,"Siltara Phase-II, Raipur - CECB",21-03-2026 08:00:00,21.371751,81.664929,PM2.5,14,46,29
India,Bihar,Muzaffarpur,"Muzaffarpur Collectorate, Muzaffarpur - BSPCB",21-03-2026 08:00:00,26.1209,85.3647,OZONE,NA,NA,NA
India,Bihar,Patna,"Govt. High School Shikarpur, Patna - BSPCB",21-03-2026 08:00:00,25.592539,85.227158,NH3,4,5,5
India,Bihar,Patna,"Govt. High School Shikarpur, Patna - BSPCB",21-03-2026 08:00:00,25.592539,85.227158,SO2,1,5,4
India,Delhi,Delhi,"Burari Crossing, Delhi - IMD",21-03-2026 08:00:00,28.7256504,77.2011573,CO,12,48,38
India,Delhi,Delhi,"Mundka, Delhi - DPCC",21-03-2026 08:00:00,28.684678,77.076574,OZONE,1,28,3
India,Delhi,Delhi,"NSIT Dwarka, Delhi - CPCB",21-03-2026 08:00:00,28.60909,77.0325413,PM2.5,157,157,157
India,Delhi,Delhi,"NSIT Dwarka, Delhi - CPCB",21-03-2026 08:00:00,28.60909,77.0325413,PM10,122,229,161
India,Delhi,Delhi,"NSIT Dwarka, Delhi - CPCB",21-03-2026 08:00:00,28.60909,77.0325413,NH3,6,9,7
India,Delhi,Delhi,"NSIT Dwarka, Delhi - CPCB",21-03-2026 08:00:00,28.60909,77.0325413,SO2,11,19,14
India,Delhi,Delhi,"NSIT Dwarka, Delhi - CPCB",21-03-2026 08:00:00,28.60909,77.0325413,CO,34,74,53
India,Delhi,Delhi,"NSUT Jaffarpur, Delhi - DPCC",21-03-2026 08:00:00,28.594004 ,76.909423 ,CO,NA,NA,NA
India,Delhi,Delhi,"Najafgarh, Delhi - DPCC",21-03-2026 08:00:00,28.570173,76.933762,NO2,11,68,49
India,Delhi,Delhi,"Najafgarh, Delhi - DPCC",21-03-2026 08:00:00,28.570173,76.933762,SO2,12,83,18
India,Delhi,Delhi,"Najafgarh, Delhi - DPCC",21-03-2026 08:00:00,28.570173,76.933762,OZONE,2,31,4
India,Delhi,Delhi,"Narela, Delhi - DPCC",21-03-2026 08:00:00,28.822836,77.101981,PM2.5,30,240,94
India,Delhi,Delhi,"Narela, Delhi - DPCC",21-03-2026 08:00:00,28.822836,77.101981,NH3,6,8,7
India,Delhi,Delhi,"Narela, Delhi - DPCC",21-03-2026 08:00:00,28.822836,77.101981,SO2,8,17,12
India,Delhi,Delhi,"Narela, Delhi - DPCC",21-03-2026 08:00:00,28.822836,77.101981,CO,44,62,55
India,Delhi,Delhi,"Nehru Nagar, Delhi - DPCC",21-03-2026 08:00:00,28.567890,77.250515,PM2.5,48,257,101
India,Delhi,Delhi,"Nehru Nagar, Delhi - DPCC",21-03-2026 08:00:00,28.567890,77.250515,SO2,6,108,14
India,Delhi,Delhi,"R K Puram, Delhi - DPCC",21-03-2026 08:00:00,28.563262,77.186937,OZONE,2,41,3
India,Delhi,Delhi,"Rohini, Delhi - DPCC",21-03-2026 08:00:00,28.732528,77.119920,OZONE,8,78,14
India,Delhi,Delhi,"Shadipur, Delhi - CPCB",21-03-2026 08:00:00,28.6514781,77.1473105,NH3,11,21,13
India,Delhi,Delhi,"Shadipur, Delhi - CPCB",21-03-2026 08:00:00,28.6514781,77.1473105,OZONE,1,22,4
India,Delhi,Delhi,"Sirifort, Delhi - CPCB",21-03-2026 08:00:00,28.5504249,77.2159377,NH3,6,15,11
India,Delhi,Delhi,"Sirifort, Delhi - CPCB",21-03-2026 08:00:00,28.5504249,77.2159377,CO,8,40,36
India,Delhi,Delhi,"Sirifort, Delhi - CPCB",21-03-2026 08:00:00,28.5504249,77.2159377,OZONE,6,19,7
India,Delhi,Delhi,"Sonia Vihar, Delhi - DPCC",21-03-2026 08:00:00,28.710508,77.249485,PM10,28,130,72
India,Delhi,Delhi,"Sonia Vihar, Delhi - DPCC",21-03-2026 08:00:00,28.710508,77.249485,SO2,2,43,28
India,Delhi,Delhi,"Sri Aurobindo Marg, Delhi - DPCC",21-03-2026 08:00:00,28.531346,77.190156,NH3,6,11,8
India,Delhi,Delhi,"Jawaharlal Nehru Stadium, Delhi - DPCC",21-03-2026 08:00:00,28.580280,77.233829,NO2,31,70,46
India,Delhi,Delhi,"Lodhi Road, Delhi - IMD",21-03-2026 08:00:00,28.5918245,77.2273074,PM2.5,31,86,60
India,Delhi,Delhi,"Lodhi Road, Delhi - IMD",21-03-2026 08:00:00,28.5918245,77.2273074,OZONE,19,68,21
India,Delhi,Delhi,"Major Dhyan Chand National Stadium, Delhi - DPCC",21-03-2026 08:00:00,28.611281,77.237738,PM10,42,125,85
India,Delhi,Delhi,"Major Dhyan Chand National Stadium, Delhi - DPCC",21-03-2026 08:00:00,28.611281,77.237738,SO2,19,29,25
India,Delhi,Delhi,"Mandir Marg, Delhi - DPCC",21-03-2026 08:00:00,28.636429,77.201067,PM2.5,NA,NA,NA
India,Delhi,Delhi,"Mandir Marg, Delhi - DPCC",21-03-2026 08:00:00,28.636429,77.201067,SO2,5,31,24
India,Delhi,Delhi,"Mundka, Delhi - DPCC",21-03-2026 08:00:00,28.684678,77.076574,PM2.5,13,213,86
India,Delhi,Delhi,"Mundka, Delhi - DPCC",21-03-2026 08:00:00,28.684678,77.076574,NH3,7,10,8
India,Gujarat,Ahmedabad,"SAC ISRO Bopal, Ahmedabad - IITM",21-03-2026 08:00:00,23.041137,72.456691,NO2,14,46,27
India,Gujarat,Ahmedabad,"SAC ISRO Satellite, Ahmedabad - IITM",21-03-2026 08:00:00,23.023389,72.515201,NO2,2,17,6
India,Gujarat,Ahmedabad,"SAC ISRO Satellite, Ahmedabad - IITM",21-03-2026 08:00:00,23.023389,72.515201,SO2,7,40,12
India,Gujarat,Ahmedabad,"SAC ISRO Satellite, Ahmedabad - IITM",21-03-2026 08:00:00,23.023389,72.515201,CO,36,102,88
India,Gujarat,Ankleshwar,"GIDC, Ankleshwar - GPCB",21-03-2026 08:00:00,21.613267,73.010555,SO2,32,33,32
India,Gujarat,Ankleshwar,"GIDC, Ankleshwar - GPCB",21-03-2026 08:00:00,21.613267,73.010555,OZONE,9,40,10
India,Gujarat,Bhavnagar,"Vidhyanagar, Bhavnagar - Nexteng Enviro",21-03-2026 08:00:00,21.755417,72.139056,CO,52,62,58
India,Gujarat,Gandhinagar,"GIFT City, Gandhinagar - IITM",21-03-2026 08:00:00,23.163798,72.677768,NO2,17,49,29
India,Delhi,Delhi,"Okhla Phase-2, Delhi - DPCC",21-03-2026 08:00:00,28.530785,77.271255,NO2,NA,NA,NA
India,Delhi,Delhi,"Okhla Phase-2, Delhi - DPCC",21-03-2026 08:00:00,28.530785,77.271255,CO,NA,NA,NA
India,Delhi,Delhi,"Patparganj, Delhi - DPCC",21-03-2026 08:00:00,28.623763,77.287209,PM2.5,37,147,93
India,Delhi,Delhi,"Patparganj, Delhi - DPCC",21-03-2026 08:00:00,28.623763,77.287209,PM10,42,119,87
India,Delhi,Delhi,"Punjabi Bagh, Delhi - DPCC",21-03-2026 08:00:00,28.674045,77.131023,PM10,34,131,84
India,Delhi,Delhi,"Pusa, Delhi - DPCC",21-03-2026 08:00:00,28.639652,77.146275,PM2.5,42,237,78
India,Delhi,Delhi,"Pusa, Delhi - IMD",21-03-2026 08:00:00,28.636110,77.173332,PM2.5,18,86,49
India,Delhi,Delhi,"Pusa, Delhi - IMD",21-03-2026 08:00:00,28.636110,77.173332,CO,6,101,82
India,Delhi,Delhi,"Sri Aurobindo Marg, Delhi - DPCC",21-03-2026 08:00:00,28.531346,77.190156,OZONE,2,38,2
India,Delhi,Delhi,"Talkatora Garden, Delhi - DPCC",21-03-2026 08:00:00,28.621810,77.1944633,PM10,31,103,67
India,Delhi,Delhi,"Talkatora Garden, Delhi - DPCC",21-03-2026 08:00:00,28.621810,77.1944633,NH3,5,9,7
India,Delhi,Delhi,"Vivek Vihar, Delhi - DPCC",21-03-2026 08:00:00,28.672342,77.315260,NH3,5,7,6
India,Delhi,Delhi,"Vivek Vihar, Delhi - DPCC",21-03-2026 08:00:00,28.672342,77.315260,SO2,6,12,9
India,Delhi,Delhi,"Vivek Vihar, Delhi - DPCC",21-03-2026 08:00:00,28.672342,77.315260,OZONE,5,19,7
India,Delhi,Delhi,"Wazirpur, Delhi - DPCC",21-03-2026 08:00:00,28.699793,77.165453,PM2.5,38,223,89
India,Gujarat,Ahmedabad,"Gyaspur, Ahmedabad - IITM",21-03-2026 08:00:00,22.977134,72.553024,CO,2,54,28
India,Gujarat,Ahmedabad,"Maninagar, Ahmedabad - GPCB",21-03-2026 08:00:00,23.002657,72.591912,PM2.5,27,328,91
India,Gujarat,Ahmedabad,"Raikhad, Ahmedabad - IITM",21-03-2026 08:00:00,23.020509,72.579261,PM2.5,25,99,58
India,Gujarat,Ahmedabad,"Raikhad, Ahmedabad - IITM",21-03-2026 08:00:00,23.020509,72.579261,OZONE,2,42,7
India,Gujarat,Ahmedabad,"SAC ISRO Bopal, Ahmedabad - IITM",21-03-2026 08:00:00,23.041137,72.456691,PM2.5,14,263,71
India,Delhi,Delhi,"IHBAS, Dilshad Garden, Delhi - CPCB",21-03-2026 08:00:00,28.6811736,77.3025234,PM10,47,128,70
India,Delhi,Delhi,"IHBAS, Dilshad Garden, Delhi - CPCB",21-03-2026 08:00:00,28.6811736,77.3025234,NH3,4,13,9
India,Delhi,Delhi,"ITO, Delhi - CPCB",21-03-2026 08:00:00,28.628624,77.241060,NO2,20,77,51
India,Delhi,Delhi,"JNU, Delhi - DPCC",21-03-2026 08:00:00,28.540721 ,77.168544 ,PM2.5,4,99,57
India,Delhi,Delhi,"North Campus, DU, Delhi - IMD",21-03-2026 08:00:00,28.6573814,77.1585447,CO,60,111,105
India,Gujarat,Gandhinagar,"GIFT City, Gandhinagar - IITM",21-03-2026 08:00:00,23.163798,72.677768,OZONE,1,58,8
India,Gujarat,Gandhinagar,"IIPHG Lekawada, Gandhinagar - IITM",21-03-2026 08:00:00,23.243639,72.68994,PM2.5,25,115,44
India,Gujarat,Gandhinagar,"IIPHG Lekawada, Gandhinagar - IITM",21-03-2026 08:00:00,23.243639,72.68994,NH3,5,9,7
India,Gujarat,Gandhinagar,"Sector-10, Gandhinagar - GPCB",21-03-2026 08:00:00,23.221714,72.654328,NH3,NA,NA,NA
India,Gujarat,Gandhinagar,"Sector-10, Gandhinagar - GPCB",21-03-2026 08:00:00,23.221714,72.654328,OZONE,4,32,10
India,Gujarat,Mehsana,"Sadanand Nagar, Mehsana - Nexteng Enviro",21-03-2026 08:00:00,23.593150,72.372792,NO2,37,55,45
India,Gujarat,Mehsana,"Sadanand Nagar, Mehsana - Nexteng Enviro",21-03-2026 08:00:00,23.593150,72.372792,NH3,3,7,5
India,Gujarat,Nandesari,"GIDC, Nandesari - Nandesari Ind. Association",21-03-2026 08:00:00,22.410802,73.097923,SO2,3,44,6
India,Haryana,Dharuhera,"Municipal Corporation Office, Dharuhera -  HSPCB",21-03-2026 08:00:00,28.206800,76.799700,PM10,38,151,88
India,Haryana,Dharuhera,"Municipal Corporation Office, Dharuhera -  HSPCB",21-03-2026 08:00:00,28.206800,76.799700,NH3,9,25,19
India,Haryana,Dharuhera,"Municipal Corporation Office, Dharuhera -  HSPCB",21-03-2026 08:00:00,28.206800,76.799700,OZONE,23,30,26
India,Haryana,Faridabad,"New Industrial Town, Faridabad - HSPCB",21-03-2026 08:00:00,28.39072,77.30059,PM2.5,180,204,193
India,Haryana,Faridabad,"Sector 11, Faridabad - HSPCB",21-03-2026 08:00:00,28.376058,77.315741,PM2.5,26,430,190
India,Haryana,Faridabad,"Sector 30, Faridabad - HSPCB",21-03-2026 08:00:00,28.4417,77.3217,SO2,4,5,4
India,Haryana,Fatehabad,"Huda Sector, Fatehabad - HSPCB",21-03-2026 08:00:00,29.503664,75.467934,NO2,18,21,19
India,Gujarat,Surat,"Katargam, Surat - Nexteng Enviro",21-03-2026 08:00:00,21.217779 ,72.834787 ,NO2,5,40,18
India,Gujarat,Surat,"Katargam, Surat - Nexteng Enviro",21-03-2026 08:00:00,21.217779 ,72.834787 ,NH3,2,3,3
India,Gujarat,Surat,"Katargam, Surat - Nexteng Enviro",21-03-2026 08:00:00,21.217779 ,72.834787 ,CO,45,52,49
India,Gujarat,Surat,"Science Center, Surat - SMC",21-03-2026 08:00:00,21.170046,72.795405,SO2,23,31,27
India,Gujarat,Vadodara,"Bapunagar, Vadodara - Nexteng Enviro",21-03-2026 08:00:00,22.320153,73.216285,NH3,2,4,3
India,Gujarat,Vapi,"Phase-1 GIDC, Vapi - GPCB",21-03-2026 08:00:00,20.362421,72.918013,PM2.5,NA,NA,NA
India,Gujarat,Vatva,"Phase-4 GIDC, Vatva - GPCB",21-03-2026 08:00:00,22.969611,72.643500,PM2.5,21,234,126
India,Haryana,Gurugram,"Vikas Sadan, Gurugram - HSPCB",21-03-2026 08:00:00,28.4501238,77.0263051,OZONE,4,31,10
India,Haryana,Jind,"Police Lines, Jind - HSPCB",21-03-2026 08:00:00,29.307814,76.337619,PM2.5,24,53,39
India,Haryana,Kaithal,"Rishi Nagar, Kaithal - HSPCB",21-03-2026 08:00:00,29.8006,76.4155,PM2.5,21,39,32
India,Haryana,Kaithal,"Rishi Nagar, Kaithal - HSPCB",21-03-2026 08:00:00,29.8006,76.4155,NO2,19,34,31
India,Haryana,Bhiwani,"H.B. Colony, Bhiwani - HSPCB",21-03-2026 08:00:00,28.806223,76.141105,PM10,37,97,51
India,Haryana,Bhiwani,"H.B. Colony, Bhiwani - HSPCB",21-03-2026 08:00:00,28.806223,76.141105,OZONE,2,13,7
