country,state,city,station,last_update,latitude,longitude,pollutant_id,min_value,max_value,avg_value
India,Bihar,Gaya,"SFTI Kusdihra, Gaya - BSPCB",05-10-2025 07:00:00,24.762518,84.982348,CO,8,26,24
India,Bihar,Hajipur,"Industrial Area, Hajipur - BSPCB",05-10-2025 07:00:00,25.697189,85.245900,PM2.5,16,50,32
India,Bihar,Hajipur,"Industrial Area, Hajipur - BSPCB",05-10-2025 07:00:00,25.697189,85.245900,NO2,4,6,5
India,Bihar,Katihar,"Mirchaibari, Katihar - BSPCB",05-10-2025 07:00:00,25.560083,87.553265,NO2,9,18,14
India,Bihar,Katihar,"Mirchaibari, Katihar - BSPCB",05-10-2025 07:00:00,25.560083,87.553265,SO2,17,27,23
India,Bihar,Kishanganj,"SDM Office_Khagra, Kishanganj - BSPCB",05-10-2025 07:00:00,26.0881305,87.93840336,PM2.5,NA,NA,NA
India,Bihar,Kishanganj,"SDM Office_Khagra, Kishanganj - BSPCB",05-10-2025 07:00:00,26.0881305,87.93840336,SO2,7,8,8
India,Bihar,Motihari,"Gandak Colony, Motihari - BSPCB",05-10-2025 07:00:00,26.63086,84.90051,NO2,NA,NA,NA
India,Bihar,Motihari,"Gandak Colony, Motihari - BSPCB",05-10-2025 07:00:00,26.63086,84.90051,CO,NA,NA,NA
India,Bihar,Patna,"IGSC Planetarium Complex, Patna - BSPCB",05-10-2025 07:00:00,25.610369,85.132568,SO2,1,25,20
India,Bihar,Patna,"Muradpur, Patna - BSPCB",05-10-2025 07:00:00,25.619651,85.147382,SO2,8,10,9
India,Bihar,Patna,"Muradpur, Patna - BSPCB",05-10-2025 07:00:00,25.619651,85.147382,OZONE,5,40,5
India,Bihar,Patna,"Rajbansi Nagar, Patna - BSPCB",05-10-2025 07:00:00,25.599486,85.113666,NO2,32,40,36
India,Bihar,Patna,"Rajbansi Nagar, Patna - BSPCB",05-10-2025 07:00:00,25.599486,85.113666,SO2,5,7,6
India,Bihar,Patna,"Rajbansi Nagar, Patna - BSPCB",05-10-2025 07:00:00,25.599486,85.113666,CO,20,62,20
India,Bihar,Purnia,"Mariam Nagar, Purnia - BSPCB",05-10-2025 07:00:00,25.366336,87.117468,PM2.5,NA,NA,NA
India,Bihar,Rajgir,"Dangi Tola, Rajgir - BSPCB",05-10-2025 07:00:00,25.03280,85.41948,CO,76,98,89
India,Bihar,Rajgir,"Dangi Tola, Rajgir - BSPCB",05-10-2025 07:00:00,25.03280,85.41948,OZONE,26,37,32
India,Andhra_Pradesh,Rajamahendravaram,"Anand Kala Kshetram, Rajamahendravaram - APPCB",05-10-2025 07:00:00,16.9872867,81.7363176,SO2,4,21,7
India,Andhra_Pradesh,Rajamahendravaram,"Anand Kala Kshetram, Rajamahendravaram - APPCB",05-10-2025 07:00:00,16.9872867,81.7363176,OZONE,9,11,10
India,Andhra_Pradesh,Tirumala,"Toll Gate, Tirumala - APPCB",05-10-2025 07:00:00,13.67,79.35,NO2,11,17,14
India,Andhra_Pradesh,Tirupati,"Vaikuntapuram, Tirupati - APPCB",05-10-2025 07:00:00,13.615387,79.409230,PM2.5,51,72,61
India,Andhra_Pradesh,Tirupati,"Vaikuntapuram, Tirupati - APPCB",05-10-2025 07:00:00,13.615387,79.409230,OZONE,33,36,34
India,Andhra_Pradesh,Vijayawada,"HB Colony, Vijayawada - APPCB",05-10-2025 07:00:00,16.536107,80.594233,PM2.5,60,68,63
India,Andhra_Pradesh,Vijayawada,"Rajiv Gandhi Park, Vijayawada - APPCB",05-10-2025 07:00:00,16.509717,80.612222,PM10,43,68,52
India,Assam,Guwahati,"Pan Bazaar, Guwahati - PCBA",05-10-2025 07:00:00,26.187500,91.744194,PM10,4,22,14
India,Assam,Guwahati,"Pan Bazaar, Guwahati - PCBA",05-10-2025 07:00:00,26.187500,91.744194,CO,8,24,17
India,Assam,Guwahati,"Pan Bazaar, Guwahati - PCBA",05-10-2025 07:00:00,26.187500,91.744194,OZONE,18,18,18
India,Assam,Guwahati,"Railway Colony, Guwahati - PCBA",05-10-2025 07:00:00,26.181742,91.78063,NO2,3,4,3
India,Assam,Nagaon,"Christianpatty, Nagaon - PCBA",05-10-2025 07:00:00,26.349082,92.68449,NO2,1,1,1
India,Assam,Nalbari,"Bata Chowk, Nalbari - PCBA",05-10-2025 07:00:00,26.446912,91.439057,PM10,34,106,49
India,Assam,Nalbari,"Bata Chowk, Nalbari - PCBA",05-10-2025 07:00:00,26.446912,91.439057,NH3,1,5,2
India,Assam,Sivasagar,"Girls College, Sivasagar - PCBA",05-10-2025 07:00:00,26.987634,94.636574,SO2,8,12,10
India,Bihar,Araria,"Kharahiya Basti, Araria - BSPCB",05-10-2025 07:00:00,26.146529,87.454184,PM2.5,42,61,45
India,Bihar,Araria,"Kharahiya Basti, Araria - BSPCB",05-10-2025 07:00:00,26.146529,87.454184,PM10,30,53,34
India,Bihar,Araria,"Kharahiya Basti, Araria - BSPCB",05-10-2025 07:00:00,26.146529,87.454184,NO2,8,152,38
India,Bihar,Araria,"Kharahiya Basti, Araria - BSPCB",05-10-2025 07:00:00,26.146529,87.454184,CO,14,34,31
India,Bihar,Aurangabad,"Gurdeo Nagar, Aurangabad - BSPCB",05-10-2025 07:00:00,24.75746,84.366208,NO2,7,8,8
India,Bihar,Aurangabad,"Gurdeo Nagar, Aurangabad - BSPCB",05-10-2025 07:00:00,24.75746,84.366208,NH3,1,2,2
India,Bihar,Munger,"Town Hall, Munger - BSPCB",05-10-2025 07:00:00,25.376776,86.471523,PM10,NA,NA,NA
India,Bihar,Muzaffarpur,"MIT-Daudpur Kothi, Muzaffarpur - BSPCB",05-10-2025 07:00:00,26.1403345,85.3650192,SO2,11,32,13
India,Bihar,Muzaffarpur,"Muzaffarpur Collectorate, Muzaffarpur - BSPCB",05-10-2025 07:00:00,26.1209,85.3647,CO,6,15,6
India,Bihar,Muzaffarpur,"Muzaffarpur Collectorate, Muzaffarpur - BSPCB",05-10-2025 07:00:00,26.1209,85.3647,OZONE,7,9,8
India,Bihar,Patna,"DRM Office Danapur, Patna - BSPCB",05-10-2025 07:00:00,25.586562,85.043586,NO2,22,28,25
India,Bihar,Patna,"DRM Office Danapur, Patna - BSPCB",05-10-2025 07:00:00,25.586562,85.043586,NH3,4,6,5
India,Andhra_Pradesh,Vijayawada,"Rajiv Nagar, Vijayawada - APPCB",05-10-2025 07:00:00,16.554731,80.649110,NO2,6,6,6
India,Andhra_Pradesh,Vijayawada,"Rajiv Nagar, Vijayawada - APPCB",05-10-2025 07:00:00,16.554731,80.649110,SO2,10,17,13
India,Andhra_Pradesh,Visakhapatnam,"GVM Corporation, Visakhapatnam - APPCB",05-10-2025 07:00:00,17.72,83.3,PM2.5,49,133,84
India,Andhra_Pradesh,Visakhapatnam,"GVM Corporation, Visakhapatnam - APPCB",05-10-2025 07:00:00,17.72,83.3,PM10,92,129,109
India,Assam,Guwahati,"IITG, Guwahati - PCBA",05-10-2025 07:00:00,26.2028636,91.70046436,PM10,14,41,28
India,Assam,Guwahati,"IITG, Guwahati - PCBA",05-10-2025 07:00:00,26.2028636,91.70046436,CO,1,10,5
India,Bihar,Begusarai,"Lohiyanagar, Begusarai - BSPCB",05-10-2025 07:00:00,25.42742023,86.13886079,SO2,28,46,37
India,Bihar,Bettiah,"Kamalnath Nagar, Bettiah - BSPCB",05-10-2025 07:00:00,26.80365,84.51954,CO,29,109,75
India,Bihar,Bhagalpur,"DM Office_Kachari Chowk, Bhagalpur - BSPCB",05-10-2025 07:00:00,25.251013,86.989001,SO2,37,70,55
India,Bihar,Gaya,"Collectorate, Gaya - BSPCB",05-10-2025 07:00:00,24.7955,84.9994,SO2,NA,NA,NA
India,Bihar,Gaya,"Kareemganj, Gaya - BSPCB",05-10-2025 07:00:00,24.792403,84.992416,SO2,15,17,16
India,Bihar,Gaya,"Kareemganj, Gaya - BSPCB",05-10-2025 07:00:00,24.792403,84.992416,OZONE,2,22,4
India,Bihar,Gaya,"SFTI Kusdihra, Gaya - BSPCB",05-10-2025 07:00:00,24.762518,84.982348,NH3,3,4,3
India,Andhra_Pradesh,Amaravati,"Secretariat, Amaravati - APPCB",05-10-2025 07:00:00,16.5150833,80.5181667,NO2,NA,NA,NA
India,Andhra_Pradesh,Amaravati,"Secretariat, Amaravati - APPCB",05-10-2025 07:00:00,16.5150833,80.5181667,SO2,NA,NA,NA
India,Andhra_Pradesh,Chittoor,"Gangineni Cheruvu, Chittoor - APPCB",05-10-2025 07:00:00,13.204880,79.097889,PM10,NA,NA,NA
India,Andhra_Pradesh,Chittoor,"Gangineni Cheruvu, Chittoor - APPCB",05-10-2025 07:00:00,13.204880,79.097889,NO2,NA,NA,NA
India,Chhattisgarh,Raipur,"Krishak Nagar, Raipur - CECB",05-10-2025 07:00:00,21.237755,81.705301,PM2.5,5,12,9
India,Chhattisgarh,Raipur,"Krishak Nagar, Raipur - CECB",05-10-2025 07:00:00,21.237755,81.705301,PM10,13,20,16
India,Chhattisgarh,Raipur,"Krishak Nagar, Raipur - CECB",05-10-2025 07:00:00,21.237755,81.705301,NH3,2,3,2
India,Chhattisgarh,Raipur,"Krishak Nagar, Raipur - CECB",05-10-2025 07:00:00,21.237755,81.705301,OZONE,2,4,2
India,Chhattisgarh,Raipur,"Siltara Phase-II, Raipur - CECB",05-10-2025 07:00:00,21.371751,81.664929,PM2.5,15,40,28
India,Chhattisgarh,Raipur,"Siltara Phase-II, Raipur - CECB",05-10-2025 07:00:00,21.371751,81.664929,NH3,3,3,3
India,Chhattisgarh,Tumidih,"OP Jindal Industrial Park, Tumidih - CECB",05-10-2025 07:00:00,22.06631475,83.33820077,SO2,5,7,6
India,Delhi,Delhi,"Alipur, Delhi - DPCC",05-10-2025 07:00:00,28.815329,77.153010,PM10,84,228,150
India,Delhi,Delhi,"CRRI Mathura Road, Delhi - IMD",05-10-2025 07:00:00,28.5512005,77.2735737,PM10,80,191,138
India,Delhi,Delhi,"CRRI Mathura Road, Delhi - IMD",05-10-2025 07:00:00,28.5512005,77.2735737,NO2,13,87,59
India,Delhi,Delhi,"DTU, Delhi - CPCB",05-10-2025 07:00:00,28.7500499,77.1112615,PM2.5,38,92,55
India,Delhi,Delhi,"DTU, Delhi - CPCB",05-10-2025 07:00:00,28.7500499,77.1112615,NO2,23,71,43
India,Delhi,Delhi,"Dwarka-Sector 8, Delhi - DPCC ",05-10-2025 07:00:00,28.5710274,77.0719006,PM10,111,382,203
India,Delhi,Delhi,"Dwarka-Sector 8, Delhi - DPCC ",05-10-2025 07:00:00,28.5710274,77.0719006,SO2,14,19,16
India,Delhi,Delhi,"IGI Airport (T3), Delhi - IMD",05-10-2025 07:00:00,28.5627763,77.1180053,NO2,45,138,84
India,Delhi,Delhi,"IHBAS, Dilshad Garden, Delhi - CPCB",05-10-2025 07:00:00,28.6811736,77.3025234,NH3,2,3,2
India,Chandigarh,Chandigarh,"Sector-53, Chandigarh - CPCC",05-10-2025 07:00:00,30.719859,76.738637,OZONE,3,60,11
India,Chhattisgarh,Bhilai,"Civic Center, Bhilai - Bhilai Steel Plant",05-10-2025 07:00:00,21.185571,81.343175,PM10,20,32,25
India,Chhattisgarh,Bilaspur,"Mangala, Bilaspur - NTPC",05-10-2025 07:00:00,22.08815,82.13737,NO2,18,23,21
India,Chhattisgarh,Bilaspur,"Mangala, Bilaspur - NTPC",05-10-2025 07:00:00,22.08815,82.13737,SO2,10,16,13
India,Chhattisgarh,Chhal,"Nawapara SECL Colony, Chhal - CECB",05-10-2025 07:00:00,22.118125,83.140608,SO2,7,24,11
India,Chhattisgarh,Korba,"Rampur, Korba - CECB",05-10-2025 07:00:00,22.368195,82.746431,PM2.5,11,11,11
India,Delhi,Delhi,"Anand Vihar, Delhi - DPCC",05-10-2025 07:00:00,28.647622,77.3158090,NH3,1,3,2
India,Delhi,Delhi,"Anand Vihar, Delhi - DPCC",05-10-2025 07:00:00,28.647622,77.3158090,CO,42,105,75
India,Delhi,Delhi,"Ashok Vihar, Delhi - DPCC",05-10-2025 07:00:00,28.695381,77.181665,PM2.5,73,341,185
India,Delhi,Delhi,"Ashok Vihar, Delhi - DPCC",05-10-2025 07:00:00,28.695381,77.181665,NO2,15,84,46
India,Delhi,Delhi,"Ashok Vihar, Delhi - DPCC",05-10-2025 07:00:00,28.695381,77.181665,SO2,13,21,17
India,Delhi,Delhi,"Ashok Vihar, Delhi - DPCC",05-10-2025 07:00:00,28.695381,77.181665,CO,24,75,60
India,Delhi,Delhi,"Aya Nagar, Delhi - IMD",05-10-2025 07:00:00,28.4706914,77.1099364,NO2,27,65,42
India,Delhi,Delhi,"Bawana, Delhi - DPCC",05-10-2025 07:00:00,28.776200,77.051074,NO2,6,30,16
India,Chhattisgarh,Korba,"Rampur, Korba - CECB",05-10-2025 07:00:00,22.368195,82.746431,SO2,7,22,10
India,Chhattisgarh,Kunjemura,"OP Jindal School, Kunjemura - CECB",05-10-2025 07:00:00,22.126650,83.483212,NO2,3,3,3
India,Chhattisgarh,Milupara,"Govt. Higher Secondary School, Milupara - CECB",05-10-2025 07:00:00,22.1910172,83.5197009,NO2,NA,NA,NA
India,Chhattisgarh,Milupara,"Govt. Higher Secondary School, Milupara - CECB",05-10-2025 07:00:00,22.1910172,83.5197009,SO2,NA,NA,NA
India,Chhattisgarh,Raipur,"AIIMS, Raipur - CECB",05-10-2025 07:00:00,21.258815,81.578979,PM2.5,4,14,9
India,Chhattisgarh,Raipur,"AIIMS, Raipur - CECB",05-10-2025 07:00:00,21.258815,81.578979,SO2,10,12,11
India,Chhattisgarh,Raipur,"AIIMS, Raipur - CECB",05-10-2025 07:00:00,21.258815,81.578979,OZONE,5,8,6
India,Delhi,Delhi,"Major Dhyan Chand National Stadium, Delhi - DPCC",05-10-2025 07:00:00,28.611281,77.237738,PM10,88,177,130
India,Delhi,Delhi,"Major Dhyan Chand National Stadium, Delhi - DPCC",05-10-2025 07:00:00,28.611281,77.237738,NO2,16,119,65
India,Delhi,Delhi,"Major Dhyan Chand National Stadium, Delhi - DPCC",05-10-2025 07:00:00,28.611281,77.237738,SO2,4,14,8
India,Delhi,Delhi,"Major Dhyan Chand National Stadium, Delhi - DPCC",05-10-2025 07:00:00,28.611281,77.237738,OZONE,3,97,4
India,Delhi,Delhi,"Mundka, Delhi - DPCC",05-10-2025 07:00:00,28.684678,77.076574,OZONE,4,77,12
India,Delhi,Delhi,"NSIT Dwarka, Delhi - CPCB",05-10-2025 07:00:00,28.60909,77.0325413,PM10,99,159,131
India,Delhi,Delhi,"Najafgarh, Delhi - DPCC",05-10-2025 07:00:00,28.570173,76.933762,PM10,72,144,107
India,Delhi,Delhi,"IHBAS, Dilshad Garden, Delhi - CPCB",05-10-2025 07:00:00,28.6811736,77.3025234,SO2,19,34,26
India,Delhi,Delhi,"ITO, Delhi - CPCB",05-10-2025 07:00:00,28.628624,77.241060,CO,29,102,60
India,Delhi,Delhi,"Jahangirpuri, Delhi - DPCC",05-10-2025 07:00:00,28.732820,77.170633,NH3,5,7,6
India,Delhi,Delhi,"Jahangirpuri, Delhi - DPCC",05-10-2025 07:00:00,28.732820,77.170633,CO,47,106,75
India,Delhi,Delhi,"Lodhi Road, Delhi - IITM",05-10-2025 07:00:00,28.588333,77.221667,PM2.5,50,107,80
India,Delhi,Delhi,"Lodhi Road, Delhi - IITM",05-10-2025 07:00:00,28.588333,77.221667,NO2,32,89,51
India,Delhi,Delhi,"Narela, Delhi - DPCC",05-10-2025 07:00:00,28.822836,77.101981,SO2,1,14,5
India,Delhi,Delhi,"Nehru Nagar, Delhi - DPCC",05-10-2025 07:00:00,28.567890,77.250515,CO,2,71,28
India,Delhi,Delhi,"North Campus, DU, Delhi - IMD",05-10-2025 07:00:00,28.6573814,77.1585447,NO2,23,107,50
India,Delhi,Delhi,"Okhla Phase-2, Delhi - DPCC",05-10-2025 07:00:00,28.530785,77.271255,CO,14,101,61
India,Chandigarh,Chandigarh,"Sector 22, Chandigarh - CPCC",05-10-2025 07:00:00,30.735567,76.775714,NO2,10,40,27
India,Chandigarh,Chandigarh,"Sector 22, Chandigarh - CPCC",05-10-2025 07:00:00,30.735567,76.775714,NH3,9,15,12
India,Chandigarh,Chandigarh,"Sector 22, Chandigarh - CPCC",05-10-2025 07:00:00,30.735567,76.775714,SO2,1,7,5
India,Chandigarh,Chandigarh,"Sector-25, Chandigarh - CPCC",05-10-2025 07:00:00,30.751462,76.762879,NH3,5,9,7
India,Gujarat,Ahmedabad,"Raikhad, Ahmedabad - IITM",05-10-2025 07:00:00,23.020509,72.579261,NH3,10,15,13
India,Gujarat,Ahmedabad,"Raikhad, Ahmedabad - IITM",05-10-2025 07:00:00,23.020509,72.579261,SO2,9,111,29
India,Gujarat,Ahmedabad,"Rakhial, Ahmedabad - IITM",05-10-2025 07:00:00,23.016834,72.625775,PM10,33,70,45
India,Gujarat,Ahmedabad,"Rakhial, Ahmedabad - IITM",05-10-2025 07:00:00,23.016834,72.625775,NO2,9,110,28
India,Gujarat,Ahmedabad,"Rakhial, Ahmedabad - IITM",05-10-2025 07:00:00,23.016834,72.625775,CO,20,24,23
India,Gujarat,Ahmedabad,"SAC ISRO Bopal, Ahmedabad - IITM",05-10-2025 07:00:00,23.041137,72.456691,PM10,6,48,28
India,Gujarat,Ahmedabad,"SAC ISRO Bopal, Ahmedabad - IITM",05-10-2025 07:00:00,23.041137,72.456691,NO2,17,26,22
India,Gujarat,Ahmedabad,"SAC ISRO Satellite, Ahmedabad - IITM",05-10-2025 07:00:00,23.023389,72.515201,PM10,31,71,50
India,Gujarat,Ahmedabad,"SAC ISRO Satellite, Ahmedabad - IITM",05-10-2025 07:00:00,23.023389,72.515201,CO,1,57,31
India,Gujarat,Ahmedabad,"SAC ISRO Satellite, Ahmedabad - IITM",05-10-2025 07:00:00,23.023389,72.515201,OZONE,1,25,2
India,Gujarat,Ahmedabad,"SVPI Airport Hansol, Ahmedabad - IITM",05-10-2025 07:00:00,23.076793,72.627874,PM2.5,10,36,21
India,Gujarat,Ahmedabad,"SVPI Airport Hansol, Ahmedabad - IITM",05-10-2025 07:00:00,23.076793,72.627874,SO2,2,38,13
India,Gujarat,Gandhinagar,"GIFT City, Gandhinagar - IITM",05-10-2025 07:00:00,23.163798,72.677768,NO2,7,32,16
India,Gujarat,Gandhinagar,"GIFT City, Gandhinagar - IITM",05-10-2025 07:00:00,23.163798,72.677768,NH3,1,6,3
India,Haryana,Karnal,"Sector-12, Karnal - HSPCB",05-10-2025 07:00:00,29.695300,77.002700,NO2,12,12,12
India,Haryana,Karnal,"Sector-12, Karnal - HSPCB",05-10-2025 07:00:00,29.695300,77.002700,SO2,7,9,8
India,Haryana,Mandikhera,"General Hospital, Mandikhera - HSPCB",05-10-2025 07:00:00,27.9002,76.9938,PM10,46,83,61
India,Haryana,Manesar,"Sector-2 IMT, Manesar - HSPCB",05-10-2025 07:00:00,28.360699,76.936090,PM2.5,44,154,97
India,Haryana,Manesar,"Sector-2 IMT, Manesar - HSPCB",05-10-2025 07:00:00,28.360699,76.936090,OZONE,30,32,30
India,Haryana,Narnaul,"Shastri Nagar, Narnaul - HSPCB",05-10-2025 07:00:00,28.060249,76.113115,PM2.5,120,316,192
India,Haryana,Narnaul,"Shastri Nagar, Narnaul - HSPCB",05-10-2025 07:00:00,28.060249,76.113115,SO2,10,12,11
India,Haryana,Narnaul,"Shastri Nagar, Narnaul - HSPCB",05-10-2025 07:00:00,28.060249,76.113115,CO,28,39,37
India,Haryana,Palwal,"Shyam Nagar, Palwal - HSPCB",05-10-2025 07:00:00,28.1485564,77.3320667,SO2,12,13,12
India,Haryana,Palwal,"Shyam Nagar, Palwal - HSPCB",05-10-2025 07:00:00,28.1485564,77.3320667,OZONE,23,25,24
India,Delhi,Delhi,"Patparganj, Delhi - DPCC",05-10-2025 07:00:00,28.623763,77.287209,NH3,5,7,6
India,Delhi,Delhi,"Patparganj, Delhi - DPCC",05-10-2025 07:00:00,28.623763,77.287209,CO,16,84,48
India,Delhi,Delhi,"Patparganj, Delhi - DPCC",05-10-2025 07:00:00,28.623763,77.287209,OZONE,2,112,6
India,Delhi,Delhi,"Punjabi Bagh, Delhi - DPCC",05-10-2025 07:00:00,28.674045,77.131023,PM2.5,60,317,164
India,Delhi,Delhi,"Punjabi Bagh, Delhi - DPCC",05-10-2025 07:00:00,28.674045,77.131023,CO,32,87,57
India,Delhi,Delhi,"Punjabi Bagh, Delhi - DPCC",05-10-2025 07:00:00,28.674045,77.131023,OZONE,4,74,18
India,Delhi,Delhi,"Pusa, Delhi - DPCC",05-10-2025 07:00:00,28.639652,77.146275,NH3,4,51,21
India,Delhi,Delhi,"Pusa, Delhi - DPCC",05-10-2025 07:00:00,28.639652,77.146275,SO2,6,21,13
India,Delhi,Delhi,"Pusa, Delhi - DPCC",05-10-2025 07:00:00,28.639652,77.146275,CO,28,117,57
India,Delhi,Delhi,"Pusa, Delhi - IMD",05-10-2025 07:00:00,28.636110,77.173332,PM10,72,183,125
India,Delhi,Delhi,"Pusa, Delhi - IMD",05-10-2025 07:00:00,28.636110,77.173332,CO,1,110,48
India,Delhi,Delhi,"R K Puram, Delhi - DPCC",05-10-2025 07:00:00,28.563262,77.186937,CO,2,84,41
India,Delhi,Delhi,"Rohini, Delhi - DPCC",05-10-2025 07:00:00,28.732528,77.119920,NO2,5,27,15
India,Delhi,Delhi,"Rohini, Delhi - DPCC",05-10-2025 07:00:00,28.732528,77.119920,SO2,4,9,5
India,Delhi,Delhi,"Shadipur, Delhi - CPCB",05-10-2025 07:00:00,28.6514781,77.1473105,NH3,6,9,8
India,Delhi,Delhi,"Sirifort, Delhi - CPCB",05-10-2025 07:00:00,28.5504249,77.2159377,CO,10,76,59
India,Delhi,Delhi,"Sonia Vihar, Delhi - DPCC",05-10-2025 07:00:00,28.710508,77.249485,PM10,72,179,119
India,Delhi,Delhi,"Sri Aurobindo Marg, Delhi - DPCC",05-10-2025 07:00:00,28.531346,77.190156,CO,14,66,43
India,Delhi,Delhi,"Vivek Vihar, Delhi - DPCC",05-10-2025 07:00:00,28.672342,77.315260,PM2.5,61,316,141
India,Gujarat,Vatva,"Phase-4 GIDC, Vatva - GPCB",05-10-2025 07:00:00,22.969611,72.643500,OZONE,NA,NA,NA
India,Haryana,Bahadurgarh,"Arya Nagar, Bahadurgarh - HSPCB",05-10-2025 07:00:00,28.6701,76.9254,PM10,48,307,153
India,Haryana,Bahadurgarh,"Arya Nagar, Bahadurgarh - HSPCB",05-10-2025 07:00:00,28.6701,76.9254,SO2,6,7,6
India,Haryana,Ballabgarh,"Nathu Colony, Ballabgarh - HSPCB",05-10-2025 07:00:00,28.3419248,77.319699,PM10,NA,NA,NA
India,Haryana,Ballabgarh,"Nathu Colony, Ballabgarh - HSPCB",05-10-2025 07:00:00,28.3419248,77.319699,CO,NA,NA,NA
India,Haryana,Bhiwani,"H.B. Colony, Bhiwani - HSPCB",05-10-2025 07:00:00,28.806223,76.141105,PM2.5,16,35,25
India,Haryana,Gurugram,"NISE Gwal Pahari, Gurugram - IMD",05-10-2025 07:00:00,28.422681,77.148944,PM2.5,NA,NA,NA
India,Haryana,Gurugram,"NISE Gwal Pahari, Gurugram - IMD",05-10-2025 07:00:00,28.422681,77.148944,CO,72,104,90
India,Haryana,Gurugram,"Sector-51, Gurugram - HSPCB",05-10-2025 07:00:00,28.4227,77.0667,SO2,10,25,18
India,Haryana,Gurugram,"Sector-51, Gurugram - HSPCB",05-10-2025 07:00:00,28.4227,77.0667,CO,18,64,36
India,Haryana,Gurugram,"Vikas Sadan, Gurugram - HSPCB",05-10-2025 07:00:00,28.4501238,77.0263051,CO,5,5,5
India,Haryana,Karnal,"Sector-12, Karnal - HSPCB",05-10-2025 07:00:00,29.695300,77.002700,PM2.5,64,120,87
India,Gujarat,Gandhinagar,"IIPHG Lekawada, Gandhinagar - IITM",05-10-2025 07:00:00,23.243639,72.68994,PM2.5,18,62,33
India,Gujarat,Gandhinagar,"IIPHG Lekawada, Gandhinagar - IITM",05-10-2025 07:00:00,23.243639,72.68994,OZONE,2,24,3
India,Gujarat,Gandhinagar,"Sector-10, Gandhinagar - GPCB",05-10-2025 07:00:00,23.221714,72.654328,PM2.5,22,57,34
India,Gujarat,Vapi,"Phase-1 GIDC, Vapi - GPCB",05-10-2025 07:00:00,20.362421,72.918013,PM2.5,29,116,60
India,Gujarat,Vapi,"Phase-1 GIDC, Vapi - GPCB",05-10-2025 07:00:00,20.362421,72.918013,NO2,13,14,14
India,Gujarat,Vapi,"Phase-1 GIDC, Vapi - GPCB",05-10-2025 07:00:00,20.362421,72.918013,SO2,40,46,42
India,Delhi,Delhi,"Wazirpur, Delhi - DPCC",05-10-2025 07:00:00,28.699793,77.165453,PM10,144,295,197
India,Delhi,Delhi,"Wazirpur, Delhi - DPCC",05-10-2025 07:00:00,28.699793,77.165453,NO2,8,107,72
India,Delhi,Delhi,"Wazirpur, Delhi - DPCC",05-10-2025 07:00:00,28.699793,77.165453,CO,10,140,50
India,Gujarat,Ahmedabad,"Chandkheda, Ahmedabad - IITM",05-10-2025 07:00:00,23.107969,72.574648,PM10,17,53,38
India,Gujarat,Ahmedabad,"Maninagar, Ahmedabad - GPCB",05-10-2025 07:00:00,23.002657,72.591912,PM2.5,NA,NA,NA
India,Gujarat,Ahmedabad,"Maninagar, Ahmedabad - GPCB",05-10-2025 07:00:00,23.002657,72.591912,SO2,1,25,12
India,Haryana,Faridabad,"New Industrial Town, Faridabad - HSPCB",05-10-2025 07:00:00,28.39072,77.30059,PM2.5,126,145,134
India,Haryana,Faridabad,"New Industrial Town, Faridabad - HSPCB",05-10-2025 07:00:00,28.39072,77.30059,CO,10,13,12
India,Haryana,Panchgaon,"Amity University, Panchgaon - IITM",05-10-2025 07:00:00,28.3153,76.9143,OZONE,6,84,16
India,Haryana,Panipat,"Sector-18, Panipat - HSPCB",05-10-2025 07:00:00,29.432304,76.972765,NH3,NA,NA,NA
India,Haryana,Panipat,"Sector-18, Panipat - HSPCB",05-10-2025 07:00:00,29.432304,76.972765,SO2,5,19,7
India,Haryana,Panipat,"Sector-18, Panipat - HSPCB",05-10-2025 07:00:00,29.432304,76.972765,OZONE,NA,NA,NA
India,Haryana,Rohtak,"MD University, Rohtak - HSPCB",05-10-2025 07:00:00,28.52123,76.37138,PM10,68,116,100
India,Haryana,Sirsa,"F-Block, Sirsa - HSPCB",05-10-2025 07:00:00,29.536400,75.015800,SO2,4,8,6
India,Himachal Pradesh,Baddi,"HIMUDA Complex Phase-1, Baddi - HPPCB",05-10-2025 07:00:00,30.943887,76.801991,CO,42,66,51
India,Himachal Pradesh,Baddi,"HIMUDA Complex Phase-1, Baddi - HPPCB",05-10-2025 07:00:00,30.943887,76.801991,OZONE,23,133,41
India,Karnataka,Chamarajanagar,"Urban, Chamarajanagar - KSPCB",05-10-2025 07:00:00,11.55358,76.55521,SO2,5,5,5
India,Karnataka,Chikkaballapur,"Chikkaballapur Rural, Chikkaballapur - KSPCB",05-10-2025 07:00:00,13.428828,77.731418,NH3,NA,NA,NA
India,Karnataka,Chikkaballapur,"Chikkaballapur Rural, Chikkaballapur - KSPCB",05-10-2025 07:00:00,13.428828,77.731418,OZONE,NA,NA,NA
India,Karnataka,Chikkamagaluru,"Kalyana Nagara, Chikkamagaluru - KSPCB",05-10-2025 07:00:00,13.328028,75.797056,PM2.5,NA,NA,NA
India,Karnataka,Chikkamagaluru,"Kalyana Nagara, Chikkamagaluru - KSPCB",05-10-2025 07:00:00,13.328028,75.797056,PM10,NA,NA,NA
India,Karnataka,Chikkamagaluru,"Kalyana Nagara, Chikkamagaluru - KSPCB",05-10-2025 07:00:00,13.328028,75.797056,OZONE,NA,NA,NA
India,Karnataka,Davanagere,"Devaraj Urs Badavane, Davanagere - KSPCB",05-10-2025 07:00:00,14.475800,75.905200,PM10,NA,NA,NA
India,Karnataka,Davanagere,"Devaraj Urs Badavane, Davanagere - KSPCB",05-10-2025 07:00:00,14.475800,75.905200,CO,10,23,14
India,Karnataka,Hubballi,"Lingaraj Nagar, Hubballi - KSPCB",05-10-2025 07:00:00,15.3714823,75.1160168,PM2.5,32,37,36
India,Kerala,Eloor,"Udyogamandal, Eloor - Kerala PCB",05-10-2025 07:00:00,10.073232,76.302765,OZONE,9,14,11
India,Kerala,Kannur,"Thavakkara, Kannur - Kerala PCB",05-10-2025 07:00:00,11.875000,75.373200,PM10,56,65,59
India,Kerala,Kannur,"Thavakkara, Kannur - Kerala PCB",05-10-2025 07:00:00,11.875000,75.373200,NH3,2,2,2
India,Kerala,Kannur,"Thavakkara, Kannur - Kerala PCB",05-10-2025 07:00:00,11.875000,75.373200,SO2,3,6,4
India,Kerala,Kollam,"Polayathode, Kollam - Kerala PCB",05-10-2025 07:00:00,8.8787,76.6073,CO,NA,NA,NA
India,Kerala,Thiruvananthapuram,"Kariavattom, Thiruvananthapuram - Kerala PCB",05-10-2025 07:00:00,8.563700,76.886500,NO2,6,8,7
India,Karnataka,Mysuru,"Hebbal 1st Stage, Mysuru - KSPCB",05-10-2025 07:00:00,12.21041,76.37376,PM2.5,10,26,17
India,Karnataka,Mysuru,"Hebbal 1st Stage, Mysuru - KSPCB",05-10-2025 07:00:00,12.21041,76.37376,OZONE,6,58,10
India,Karnataka,Vijayapura,"Ibrahimpur, Vijayapura - KSPCB",05-10-2025 07:00:00,16.802639,75.722694,PM10,43,45,44
India,Karnataka,Vijayapura,"Ibrahimpur, Vijayapura - KSPCB",05-10-2025 07:00:00,16.802639,75.722694,NH3,1,2,1
India,Karnataka,Vijayapura,"Ibrahimpur, Vijayapura - KSPCB",05-10-2025 07:00:00,16.802639,75.722694,CO,14,140,36
India,Karnataka,Vijayapura,"Ibrahimpur, Vijayapura - KSPCB",05-10-2025 07:00:00,16.802639,75.722694,OZONE,13,17,16
India,Karnataka,Yadgir,"Collector Office, Yadgir - KSPCB",05-10-2025 07:00:00,16.7602,77.1428,NH3,NA,NA,NA
India,Karnataka,Bengaluru,"Jayanagar 5th Block, Bengaluru - KSPCB",05-10-2025 07:00:00,12.920984,77.584908,OZONE,8,38,15
India,Karnataka,Bengaluru,"Peenya, Bengaluru - CPCB",05-10-2025 07:00:00,13.0270199,77.494094,PM2.5,18,43,29
India,Karnataka,Bengaluru,"RVCE-Mailasandra, Bengaluru - KSPCB",05-10-2025 07:00:00,12.921418,77.502466,NH3,5,6,5
India,Karnataka,Bengaluru,"Shivapura_Peenya, Bengaluru - KSPCB",05-10-2025 07:00:00,13.0246342,77.5080115,SO2,5,9,7
India,Karnataka,Bengaluru,"Silk Board, Bengaluru - KSPCB",05-10-2025 07:00:00,12.917348,77.622813,CO,NA,NA,NA
India,Madhya Pradesh,Gwalior,"City Center, Gwalior - MPPCB",05-10-2025 07:00:00,26.203442,78.193251,NH3,1,2,2
India,Madhya Pradesh,Gwalior,"City Center, Gwalior - MPPCB",05-10-2025 07:00:00,26.203442,78.193251,SO2,2,38,26
India,Madhya Pradesh,Gwalior,"City Center, Gwalior - MPPCB",05-10-2025 07:00:00,26.203442,78.193251,OZONE,21,59,24
India,Madhya Pradesh,Gwalior,"Deen Dayal Nagar, Gwalior - MPPCB",05-10-2025 07:00:00,26.259242,78.216432,CO,14,101,29
India,Madhya Pradesh,Indore,"Chhoti Gwaltoli, Indore - MPPCB",05-10-2025 07:00:00,22.4310,75.5213,PM10,45,101,73
India,Jharkhand,Dhanbad,"Sardar Patel Nagar, Dhanbad - JSPCB",05-10-2025 07:00:00,23.80569,86.44268,OZONE,1,26,1
India,Karnataka,Bagalkot,"Vidayagiri, Bagalkot - KSPCB",05-10-2025 07:00:00,16.172806,75.659694,NH3,1,2,1
India,Karnataka,Bengaluru,"Hebbal, Bengaluru - KSPCB",05-10-2025 07:00:00,13.029152,77.585901,PM10,18,107,34
India,Karnataka,Bengaluru,"Hombegowda Nagar, Bengaluru - KSPCB",05-10-2025 07:00:00,12.938539,77.590100,PM10,24,106,42
India,Karnataka,Kalaburagi,"Mahatma Basaveswar Colony, Kalaburgi - KSPCB",05-10-2025 07:00:00,17.336318,76.847397,PM2.5,28,51,36
India,Karnataka,Kalaburagi,"Mahatma Basaveswar Colony, Kalaburgi - KSPCB",05-10-2025 07:00:00,17.336318,76.847397,SO2,2,6,3
India,Karnataka,Karwar,"KHB Colony, Karwar - KSPCB",05-10-2025 07:00:00,14.816666,74.141003,SO2,27,28,28
India,Karnataka,Koppal,"Diwator Nagar, Koppal - KSPCB",05-10-2025 07:00:00,15.347630,76.181767,NO2,NA,NA,NA
India,Madhya Pradesh,Bhopal,"Idgah Hills, Bhopal - MPPCB",05-10-2025 07:00:00,23.264759,77.381568,PM2.5,37,65,48
India,Madhya Pradesh,Bhopal,"Paryavaran Parisar, Bhopal - MPPCB",05-10-2025 07:00:00,23.210494,77.425409,SO2,8,17,13
India,Madhya Pradesh,Dewas,"Bhopal Chauraha, Dewas - MPPCB",05-10-2025 07:00:00,22.9682591,76.064118,NH3,2,10,3
India,Maharashtra,Malegaon,"Mahesh Nagar, Malegaon - MPCB",05-10-2025 07:00:00,20.555712,74.529236,NO2,5,22,11
India,Maharashtra,Malegaon,"Mahesh Nagar, Malegaon - MPCB",05-10-2025 07:00:00,20.555712,74.529236,SO2,14,83,21
India,Maharashtra,Mira-Bhayandar,"Bhayandar West, Mira-Bhayandar - MPCB",05-10-2025 07:00:00,19.296481,72.840923,PM10,18,53,37
India,Maharashtra,Mira-Bhayandar,"Bhayandar West, Mira-Bhayandar - MPCB",05-10-2025 07:00:00,19.296481,72.840923,NH3,1,4,2
India,Maharashtra,Mira-Bhayandar,"Bhayandar West, Mira-Bhayandar - MPCB",05-10-2025 07:00:00,19.296481,72.840923,SO2,1,2,1
India,Maharashtra,Mira-Bhayandar,"Bhayandar West, Mira-Bhayandar - MPCB",05-10-2025 07:00:00,19.296481,72.840923,CO,15,66,48
India,Maharashtra,Mumbai,"Bandra Kurla Complex, Mumbai - MPCB",05-10-2025 07:00:00,19.065931,72.862131,NO2,9,25,16
India,Maharashtra,Mumbai,"Bandra Kurla Complex, Mumbai - MPCB",05-10-2025 07:00:00,19.065931,72.862131,CO,5,48,27
India,Maharashtra,Mumbai,"Borivali East, Mumbai - MPCB",05-10-2025 07:00:00,19.2243333,72.8658113,PM2.5,12,43,21
India,Maharashtra,Mumbai,"Borivali East, Mumbai - MPCB",05-10-2025 07:00:00,19.2243333,72.8658113,NO2,1,7,3
India,Maharashtra,Mumbai,"Byculla, Mumbai - BMC",05-10-2025 07:00:00,18.9767,72.8380,PM2.5,10,42,23
India,Maharashtra,Mumbai,"Byculla, Mumbai - BMC",05-10-2025 07:00:00,18.9767,72.8380,SO2,10,11,11
India,Madhya Pradesh,Indore,"Regional Park, Indore - IMC",05-10-2025 07:00:00,22.6780,75.8559,NO2,9,14,12
India,Madhya Pradesh,Indore,"Residency Area, Indore - IMC",05-10-2025 07:00:00,22.7084,75.8815,SO2,NA,NA,NA
India,Madhya Pradesh,Indore,"Residency Area, Indore - IMC",05-10-2025 07:00:00,22.7084,75.8815,OZONE,NA,NA,NA
India,Madhya Pradesh,Jabalpur,"Govindh Bhavan Colony, Jabalpur - JMC",05-10-2025 07:00:00,23.163174,79.973061,NO2,19,20,20
India,Madhya Pradesh,Jabalpur,"Gupteshwar, Jabalpur - JMC",05-10-2025 07:00:00,23.142888,79.916147,NH3,3,5,4
India,Madhya Pradesh,Jabalpur,"Gupteshwar, Jabalpur - JMC",05-10-2025 07:00:00,23.142888,79.916147,OZONE,8,39,31
India,Madhya Pradesh,Jabalpur,"Marhatal, Jabalpur - MPPCB",05-10-2025 07:00:00,23.168606,79.932247,PM10,6,52,30
India,Madhya Pradesh,Jabalpur,"Marhatal, Jabalpur - MPPCB",05-10-2025 07:00:00,23.168606,79.932247,NO2,7,38,19
India,Madhya Pradesh,Jabalpur,"Marhatal, Jabalpur - MPPCB",05-10-2025 07:00:00,23.168606,79.932247,SO2,5,19,12
India,Madhya Pradesh,Jabalpur,"Marhatal, Jabalpur - MPPCB",05-10-2025 07:00:00,23.168606,79.932247,CO,4,70,26
India,Madhya Pradesh,Jabalpur,"Suhagi, Jabalpur - JMC",05-10-2025 07:00:00,23.218135,79.957770,NO2,23,53,31
India,Maharashtra,Amravati,"Shivneri Colony, Amravati - MPCB",05-10-2025 07:00:00,20.9402359,77.7895248,PM2.5,19,59,37
India,Maharashtra,Amravati,"Shivneri Colony, Amravati - MPCB",05-10-2025 07:00:00,20.9402359,77.7895248,NO2,6,18,11
India,Maharashtra,Amravati,"Shivneri Colony, Amravati - MPCB",05-10-2025 07:00:00,20.9402359,77.7895248,SO2,1,3,1
India,Maharashtra,Amravati,"Shri Shivaji Science College, Amravati - MPCB",05-10-2025 07:00:00,20.939198,77.765701,PM2.5,19,57,37
India,Maharashtra,Amravati,"Shri Shivaji Science College, Amravati - MPCB",05-10-2025 07:00:00,20.939198,77.765701,PM10,35,72,53
India,Maharashtra,Amravati,"Shri Shivaji Science College, Amravati - MPCB",05-10-2025 07:00:00,20.939198,77.765701,NO2,4,13,6
India,Maharashtra,Amravati,"Shri Shivaji Science College, Amravati - MPCB",05-10-2025 07:00:00,20.939198,77.765701,CO,32,46,36
India,Maharashtra,Amravati,"Shri Shivaji Science College, Amravati - MPCB",05-10-2025 07:00:00,20.939198,77.765701,OZONE,10,39,15
India,Maharashtra,Aurangabad,"More Chowk Waluj, Aurangabad - MPCB",05-10-2025 07:00:00,19.8389439,75.244448,NH3,10,11,11
India,Maharashtra,Aurangabad,"More Chowk Waluj, Aurangabad - MPCB",05-10-2025 07:00:00,19.8389439,75.244448,OZONE,26,29,27
India,Maharashtra,Chandrapur,"Chauhan Colony, Chandrapur - MPCB",05-10-2025 07:00:00,19.962900,79.298714,NO2,19,24,22
India,Maharashtra,Chandrapur,"Chauhan Colony, Chandrapur - MPCB",05-10-2025 07:00:00,19.962900,79.298714,SO2,34,34,34
India,Maharashtra,Chandrapur,"MIDC Khutala, Chandrapur - MPCB",05-10-2025 07:00:00,19.9775302,79.2337086,PM2.5,NA,NA,NA
India,Maharashtra,Chandrapur,"MIDC Khutala, Chandrapur - MPCB",05-10-2025 07:00:00,19.9775302,79.2337086,OZONE,17,19,18
India,Maharashtra,Jalgaon,"Prabhat Colony, Jalgaon - MPCB",05-10-2025 07:00:00,21.001264,75.565602,CO,16,22,17
India,Maharashtra,Jalna,"Old MIDC, Jalna - MPCB",05-10-2025 07:00:00,19.854616,75.905894,NO2,NA,NA,NA
India,Maharashtra,Jalna,"Old MIDC, Jalna - MPCB",05-10-2025 07:00:00,19.854616,75.905894,NH3,NA,NA,NA
India,Maharashtra,Kalyan,"Pimpleshwar Mandir, Kalyan - MPCB",05-10-2025 07:00:00,19.192056,72.9585188,PM2.5,NA,NA,NA
India,Madhya Pradesh,Sagar,"Civil Lines, Sagar - MPPCB",05-10-2025 07:00:00,23.838586,78.759431,CO,29,42,35
India,Madhya Pradesh,Sagar,"Civil Lines, Sagar - MPPCB",05-10-2025 07:00:00,23.838586,78.759431,OZONE,14,38,19
India,Madhya Pradesh,Satna,"Bandhavgar Colony, Satna - Birla Cement",05-10-2025 07:00:00,24.58434363,80.8549414,SO2,18,20,19
India,Maharashtra,Ahmednagar,"Tarakpur, Ahmednagar - MPCB",05-10-2025 07:00:00,19.10122,74.73339,PM2.5,NA,NA,NA
India,Maharashtra,Akola,"Ramdaspeth, Akola - MPCB",05-10-2025 07:00:00,20.719516,77.000253,SO2,9,11,10
India,Madhya Pradesh,Katni,"Gole Bazar, Katni - MPPCB",05-10-2025 07:00:00,23.50016,80.23284,PM2.5,2,40,22
India,Madhya Pradesh,Mandideep,"Sector-D Industrial Area, Mandideep - MPPCB",05-10-2025 07:00:00,23.108440,77.511428,PM2.5,46,88,63
India,Madhya Pradesh,Mandideep,"Sector-D Industrial Area, Mandideep - MPPCB",05-10-2025 07:00:00,23.108440,77.511428,CO,22,78,33
India,Madhya Pradesh,Pithampur,"Sector-2 Industrial Area, Pithampur - MPPCB",05-10-2025 07:00:00,22.624758,75.675238,PM2.5,61,156,92
India,Madhya Pradesh,Pithampur,"Sector-2 Industrial Area, Pithampur - MPPCB",05-10-2025 07:00:00,22.624758,75.675238,CO,28,52,37
India,Maharashtra,Kalyan,"Pimpleshwar Mandir, Kalyan - MPCB",05-10-2025 07:00:00,19.192056,72.9585188,PM10,NA,NA,NA
India,Maharashtra,Kalyan,"Pimpleshwar Mandir, Kalyan - MPCB",05-10-2025 07:00:00,19.192056,72.9585188,NH3,NA,NA,NA
India,Maharashtra,Kalyan,"Pimpleshwar Mandir, Kalyan - MPCB",05-10-2025 07:00:00,19.192056,72.9585188,CO,44,46,45
India,Maharashtra,Kolhapur,"Sinchan Bhavan, Kolhapur - MPCB",05-10-2025 07:00:00,16.7143745,74.2426398,PM10,NA,NA,NA
India,Maharashtra,Latur,"Sawe Wadi, Latur - MPCB",05-10-2025 07:00:00,18.39963,76.57452,PM10,19,45,29
India,Maharashtra,Latur,"Sawe Wadi, Latur - MPCB",05-10-2025 07:00:00,18.39963,76.57452,OZONE,1,37,17
India,Maharashtra,Aurangabad,"Rachnakar Colony, Aurangabad - MPCB",05-10-2025 07:00:00,19.863756,75.321188,CO,7,18,8
India,Maharashtra,Badlapur,"Katrap, Badlapur - MPCB",05-10-2025 07:00:00,19.16485,73.23409,CO,26,44,28
India,Maharashtra,Badlapur,"Katrap, Badlapur - MPCB",05-10-2025 07:00:00,19.16485,73.23409,OZONE,8,27,9
India,Maharashtra,Belapur,"CBD Belapur, Belapur - MPCB",05-10-2025 07:00:00,19.0243902,73.0406721,PM2.5,22,43,33
India,Maharashtra,Boisar,"Khaira, Boisar - MPCB",05-10-2025 07:00:00,19.786089,72.757971,PM10,NA,NA,NA
India,Maharashtra,Chandrapur,"Chauhan Colony, Chandrapur - MPCB",05-10-2025 07:00:00,19.962900,79.298714,PM2.5,6,18,10
India,Maharashtra,Mumbai,"Malad West, Mumbai - IITM",05-10-2025 07:00:00,19.19709,72.82204,OZONE,3,24,4
India,Maharashtra,Mumbai,"Mazgaon, Mumbai - IITM",05-10-2025 07:00:00,18.96702,72.84214,SO2,8,10,9
India,Maharashtra,Mumbai,"Mazgaon, Mumbai - IITM",05-10-2025 07:00:00,18.96702,72.84214,CO,1,50,16
India,Maharashtra,Mumbai,"Mindspace-Malad West, Mumbai - MPCB",05-10-2025 07:00:00,19.1878657,72.8304069,PM2.5,34,37,36
India,Maharashtra,Mumbai,"Mindspace-Malad West, Mumbai - MPCB",05-10-2025 07:00:00,19.1878657,72.8304069,SO2,14,15,15
India,Maharashtra,Mumbai,"Navy Nagar-Colaba, Mumbai - IITM",05-10-2025 07:00:00,18.897756,72.813320,PM2.5,29,108,52
India,Maharashtra,Mumbai,"Navy Nagar-Colaba, Mumbai - IITM",05-10-2025 07:00:00,18.897756,72.813320,CO,9,34,18
India,Maharashtra,Mumbai,"Powai, Mumbai - MPCB",05-10-2025 07:00:00,19.137500,72.915056,PM2.5,15,37,24
India,Maharashtra,Mumbai,"Sewri, Mumbai - BMC",05-10-2025 07:00:00,19.000084,72.856730,PM2.5,4,40,14
India,Maharashtra,Mumbai,"Sewri, Mumbai - BMC",05-10-2025 07:00:00,19.000084,72.856730,PM10,4,20,12
India,Maharashtra,Parbhani,"Masoom Colony, Parbhani - MPCB",05-10-2025 07:00:00,19.265594,76.761463,PM2.5,13,66,38
India,Maharashtra,Parbhani,"Masoom Colony, Parbhani - MPCB",05-10-2025 07:00:00,19.265594,76.761463,CO,8,14,11
India,Maharashtra,Parbhani,"Masoom Colony, Parbhani - MPCB",05-10-2025 07:00:00,19.265594,76.761463,OZONE,1,19,2
India,Maharashtra,Pimpri-Chinchwad,"Gavalinagar, Pimpri Chinchwad - MPCB",05-10-2025 07:00:00,18.63673,73.82487,NO2,18,28,22
India,Maharashtra,Pimpri-Chinchwad,"Park Street Wakad, Pimpri Chinchwad - MPCB",05-10-2025 07:00:00,18.59051,73.77946,PM10,45,81,64
India,Maharashtra,Pimpri-Chinchwad,"Park Street Wakad, Pimpri Chinchwad - MPCB",05-10-2025 07:00:00,18.59051,73.77946,NH3,1,2,1
India,Maharashtra,Pimpri-Chinchwad,"Thergaon, Pimpri Chinchwad - MPCB",05-10-2025 07:00:00,18.616318,73.765797,PM10,33,96,58
India,Maharashtra,Pune,"Bhumkar Nagar, Pune - IITM",05-10-2025 07:00:00,18.605770,73.749976,PM2.5,11,75,25
India,Maharashtra,Navi Mumbai,"Kopripada-Vashi, Navi Mumbai - MPCB",05-10-2025 07:00:00,19.090337,73.014232,NH3,4,7,5
India,Maharashtra,Navi Mumbai,"Kopripada-Vashi, Navi Mumbai - MPCB",05-10-2025 07:00:00,19.090337,73.014232,SO2,29,41,33
India,Maharashtra,Navi Mumbai,"Mahape, Navi Mumbai - MPCB",05-10-2025 07:00:00,19.1135051,73.008978,OZONE,5,12,10
India,Maharashtra,Navi Mumbai,"Nerul, Navi Mumbai - MPCB",05-10-2025 07:00:00,19.008751,73.016620,PM2.5,17,71,34
India,Maharashtra,Navi Mumbai,"Nerul, Navi Mumbai - MPCB",05-10-2025 07:00:00,19.008751,73.016620,PM10,NA,NA,NA
India,Maharashtra,Navi Mumbai,"Nerul, Navi Mumbai - MPCB",05-10-2025 07:00:00,19.008751,73.016620,SO2,NA,NA,NA
India,Maharashtra,Navi Mumbai,"Sanpada, Navi Mumbai - MPCB",05-10-2025 07:00:00,19.0575752,73.0151367,OZONE,35,35,35
India,Maharashtra,Navi Mumbai,"Sector-2E Kalamboli, Navi Mumbai - MPCB",05-10-2025 07:00:00,19.02579,73.10297,PM2.5,20,55,39
India,Maharashtra,Navi Mumbai,"Sector-2E Kalamboli, Navi Mumbai - MPCB",05-10-2025 07:00:00,19.02579,73.10297,SO2,1,6,3
India,Maharashtra,Nanded,"Sneh Nagar, Nanded - MPCB",05-10-2025 07:00:00,19.173852,77.296291,CO,26,74,38
India,Maharashtra,Nashik,"Gangapur Road, Nashik - MPCB",05-10-2025 07:00:00,20.0073285,73.7762427,SO2,1,6,3
India,Maharashtra,Nashik,"Hirawadi, Nashik - MPCB",05-10-2025 07:00:00,20.021503,73.813844,CO,29,40,31
India,Maharashtra,Nashik,"Pandav Nagari, Nashik - MPCB",05-10-2025 07:00:00,19.9591346,73.7788008,PM10,22,44,34
India,Maharashtra,Nashik,"Pandav Nagari, Nashik - MPCB",05-10-2025 07:00:00,19.9591346,73.7788008,NO2,1,5,3
India,Maharashtra,Nashik,"Pandav Nagari, Nashik - MPCB",05-10-2025 07:00:00,19.9591346,73.7788008,NH3,1,2,1
India,Maharashtra,Navi Mumbai,"Kopripada-Vashi, Navi Mumbai - MPCB",05-10-2025 07:00:00,19.090337,73.014232,PM2.5,14,162,47
India,Maharashtra,Mumbai,"Chakala-Andheri East, Mumbai - IITM",05-10-2025 07:00:00,19.11074,72.86084,PM10,26,89,52
India,Maharashtra,Mumbai,"Chakala-Andheri East, Mumbai - IITM",05-10-2025 07:00:00,19.11074,72.86084,SO2,1,15,5
India,Maharashtra,Mumbai,"Chembur, Mumbai - MPCB",05-10-2025 07:00:00,19.0364585,72.8954371,PM2.5,17,40,27
India,Maharashtra,Mumbai,"Chembur, Mumbai - MPCB",05-10-2025 07:00:00,19.0364585,72.8954371,NO2,7,18,12
India,Maharashtra,Mumbai,"Colaba, Mumbai - MPCB",05-10-2025 07:00:00,18.910000,72.820000,SO2,NA,NA,NA
India,Maharashtra,Mumbai,"Deonar, Mumbai - IITM",05-10-2025 07:00:00,19.04946,72.9230,PM10,20,107,68
India,Maharashtra,Mumbai,"Deonar, Mumbai - IITM",05-10-2025 07:00:00,19.04946,72.9230,CO,NA,NA,NA
India,Maharashtra,Mumbai,"Ghatkopar, Mumbai - BMC",05-10-2025 07:00:00,19.083694,72.920967,PM10,31,66,51
India,Maharashtra,Mumbai,"Kandivali East, Mumbai - MPCB",05-10-2025 07:00:00,19.205800,72.868200,NO2,6,17,9
India,Maharashtra,Mumbai,"Kandivali West, Mumbai - BMC",05-10-2025 07:00:00,19.215859,72.831718,NH3,1,3,2
India,Maharashtra,Mumbai,"Kherwadi_Bandra East, Mumbai - MPCB",05-10-2025 07:00:00,19.0632143,72.8456324,PM2.5,14,61,33
India,Maharashtra,Mumbai,"Khindipada-Bhandup West, Mumbai - IITM",05-10-2025 07:00:00,19.1653323,72.922099,OZONE,2,32,3
India,Maharashtra,Mumbai,"Kurla, Mumbai - MPCB",05-10-2025 07:00:00,19.0863,72.8888,PM10,52,98,68
India,Maharashtra,Mumbai,"Kurla, Mumbai - MPCB",05-10-2025 07:00:00,19.0863,72.8888,NH3,1,2,1
India,Maharashtra,Mumbai,"Siddharth Nagar-Worli, Mumbai - IITM",05-10-2025 07:00:00,19.000083,72.813993,PM2.5,7,31,19
India,Maharashtra,Mumbai,"Siddharth Nagar-Worli, Mumbai - IITM",05-10-2025 07:00:00,19.000083,72.813993,CO,2,2,2
India,Maharashtra,Mumbai,"Sion, Mumbai - MPCB",05-10-2025 07:00:00,19.047000,72.874600,PM2.5,41,52,51
India,Maharashtra,Mumbai,"Vasai West, Mumbai - MPCB",05-10-2025 07:00:00,19.383200,72.820400,PM2.5,14,76,33
India,Maharashtra,Mumbai,"Vile Parle West, Mumbai - MPCB",05-10-2025 07:00:00,19.10861,72.83622,PM2.5,NA,NA,NA
India,Maharashtra,Mumbai,"Vile Parle West, Mumbai - MPCB",05-10-2025 07:00:00,19.10861,72.83622,CO,19,26,25
India,Maharashtra,Pune,"Hadapsar, Pune - IITM",05-10-2025 07:00:00,18.501793,73.927532,OZONE,9,18,10
India,Maharashtra,Pune,"Mhada Colony, Pune - IITM",05-10-2025 07:00:00,18.573040,73.927715,PM2.5,13,53,30
India,Maharashtra,Pune,"Mhada Colony, Pune - IITM",05-10-2025 07:00:00,18.573040,73.927715,OZONE,10,47,15
India,Maharashtra,Pune,"Transport Nagar-Nigdi, Pune - IITM",05-10-2025 07:00:00,18.664282,73.763966,PM2.5,1,52,20
India,Maharashtra,Nagpur,"Opp GPO Civil Lines, Nagpur - MPCB",05-10-2025 07:00:00,21.152875,79.0517531,NH3,2,2,2
India,Maharashtra,Nagpur,"Opp GPO Civil Lines, Nagpur - MPCB",05-10-2025 07:00:00,21.152875,79.0517531,SO2,3,11,7
India,Maharashtra,Nagpur,"Ram Nagar, Nagpur - MPCB",05-10-2025 07:00:00,21.143383,79.048912,SO2,19,22,20
India,Rajasthan,Barmer,"Railway Colony, Barmer - RSPCB",05-10-2025 07:00:00,25.747299,71.393989,SO2,3,6,5
India,Rajasthan,Barmer,"Railway Colony, Barmer - RSPCB",05-10-2025 07:00:00,25.747299,71.393989,CO,12,30,13
India,Rajasthan,Barmer,"Railway Colony, Barmer - RSPCB",05-10-2025 07:00:00,25.747299,71.393989,OZONE,35,87,49
India,Rajasthan,Bharatpur,"Krishna Nagar, Bharatpur - RSPCB",05-10-2025 07:00:00,27.215415,77.50873,PM10,38,175,90
India,Rajasthan,Bharatpur,"Krishna Nagar, Bharatpur - RSPCB",05-10-2025 07:00:00,27.215415,77.50873,NH3,3,12,6
India,Rajasthan,Bhilwara,"Pratap Nagar, Bhilwara - RSPCB",05-10-2025 07:00:00,25.339605,74.618883,NH3,1,1,1
India,Rajasthan,Bhilwara,"Pratap Nagar, Bhilwara - RSPCB",05-10-2025 07:00:00,25.339605,74.618883,CO,10,25,13
India,Rajasthan,Bhiwadi,"RIICO Ind. Area III, Bhiwadi - RSPCB",05-10-2025 07:00:00,28.194909,76.862296,NH3,8,19,11
India,Rajasthan,Bhiwadi,"Vasundhara Nagar_UIT, Bhiwadi - RSPCB",05-10-2025 07:00:00,28.207266,76.829265,PM2.5,44,327,166
India,Rajasthan,Bhiwadi,"Vasundhara Nagar_UIT, Bhiwadi - RSPCB",05-10-2025 07:00:00,28.207266,76.829265,OZONE,10,63,14
India,Rajasthan,Bikaner,"MM Ground, Bikaner - RSPCB",05-10-2025 07:00:00,28.018792,73.292658,PM10,34,165,78
India,Odisha,Rairangpur,"Divisional Forest Office, Rairangpur - OSPCB",05-10-2025 07:00:00,22.265816,86.174829,CO,24,49,28
India,Odisha,Rourkela,"Fertilizer Township, Rourkela - OSPCB",05-10-2025 07:00:00,22.18972222,84.86277778,PM2.5,58,86,65
India,Odisha,Rourkela,"Fertilizer Township, Rourkela - OSPCB",05-10-2025 07:00:00,22.18972222,84.86277778,PM10,57,66,59
India,Odisha,Rourkela,"Fertilizer Township, Rourkela - OSPCB",05-10-2025 07:00:00,22.18972222,84.86277778,NO2,11,11,11
India,Odisha,Rourkela,"Raghunathpali, Rourkela - OSPCB",05-10-2025 07:00:00,22.220833,84.809444,CO,16,44,31
India,Punjab,Amritsar,"Golden Temple, Amritsar - PPCB",05-10-2025 07:00:00,31.620000,74.876512,PM10,56,104,95
India,Punjab,Amritsar,"Golden Temple, Amritsar - PPCB",05-10-2025 07:00:00,31.620000,74.876512,NH3,8,9,8
India,Punjab,Bathinda,"Hardev Nagar, Bathinda - PPCB",05-10-2025 07:00:00,30.233011,74.907758,NO2,17,24,19
India,Punjab,Bathinda,"Hardev Nagar, Bathinda - PPCB",05-10-2025 07:00:00,30.233011,74.907758,SO2,1,23,11
India,Punjab,Jalandhar,"Civil Line, Jalandhar - PPCB",05-10-2025 07:00:00,31.321907,75.578914,PM2.5,53,120,82
India,Odisha,Bileipada,"Tata Township, Bileipada - OSPCB",05-10-2025 07:00:00,22.06156703,85.47409613,CO,63,82,79
India,Odisha,Brajrajnagar,"GM Office, Brajrajnagar - OSPCB",05-10-2025 07:00:00,21.8004996,83.8396977,SO2,15,16,16
India,Odisha,Brajrajnagar,"GM Office, Brajrajnagar - OSPCB",05-10-2025 07:00:00,21.8004996,83.8396977,CO,12,18,17
India,Odisha,Brajrajnagar,"GM Office, Brajrajnagar - OSPCB",05-10-2025 07:00:00,21.8004996,83.8396977,OZONE,24,26,25
India,Odisha,Byasanagar,"Ferro Chrome Colony, Byasanagar - OSPCB",05-10-2025 07:00:00,20.94185,86.11510,NO2,1,5,3
India,Odisha,Byasanagar,"Ferro Chrome Colony, Byasanagar - OSPCB",05-10-2025 07:00:00,20.94185,86.11510,CO,16,30,21
India,Odisha,Cuttack,"CDA Area, Cuttack - OSPCB",05-10-2025 07:00:00,20.48891     ,85.84768     ,PM2.5,15,107,53
India,Odisha,Cuttack,"CDA Area, Cuttack - OSPCB",05-10-2025 07:00:00,20.48891     ,85.84768     ,PM10,34,121,62
India,Odisha,Keonjhar,"Jagamohanpur, Keonjhar - OSPCB",05-10-2025 07:00:00,21.643900,85.599355,NH3,4,9,7
India,Odisha,Keonjhar,"Jagamohanpur, Keonjhar - OSPCB",05-10-2025 07:00:00,21.643900,85.599355,SO2,10,16,12
India,Maharashtra,Ulhasnagar,"Sidhi Vinayak Nagar, Ulhasnagar - MPCB",05-10-2025 07:00:00,19.235581,73.159121,SO2,8,42,14
India,Maharashtra,Virar,"Bolinj, Virar - MPCB",05-10-2025 07:00:00,19.4458210,72.7988231,CO,17,103,42
India,Meghalaya,Shillong,"JN Stadium, Shillong - Meghalaya PCB",05-10-2025 07:00:00,25.5803419,91.8942571,PM10,NA,NA,NA
India,Nagaland,Kohima,"PWD Junction, Kohima - NPCB",05-10-2025 07:00:00,25.6635413,94.0989878,SO2,69,72,70
India,Odisha,Angul,"Hakimapada, Angul - OSPCB",05-10-2025 07:00:00,20.832874,85.104082,SO2,4,9,7
India,Odisha,Angul,"Hakimapada, Angul - OSPCB",05-10-2025 07:00:00,20.832874,85.104082,CO,42,78,50
India,Odisha,Balasore,"Kalidaspur, Balasore - OSPCB",05-10-2025 07:00:00,21.51161,86.89088,PM2.5,20,42,33
India,Rajasthan,Bikaner,"MM Ground, Bikaner - RSPCB",05-10-2025 07:00:00,28.018792,73.292658,CO,8,56,13
India,Rajasthan,Bundi,"New Colony, Bundi - RSPCB",05-10-2025 07:00:00,25.435774,75.644272,PM10,9,96,39
India,Rajasthan,Bundi,"New Colony, Bundi - RSPCB",05-10-2025 07:00:00,25.435774,75.644272,NH3,1,2,1
India,Rajasthan,Bundi,"New Colony, Bundi - RSPCB",05-10-2025 07:00:00,25.435774,75.644272,CO,18,52,20
India,Rajasthan,Chittorgarh,"Shastri Nagar, Chittorgarh - RSPCB",05-10-2025 07:00:00,24.892047,74.623527,NH3,2,2,2
India,Rajasthan,Chittorgarh,"Shastri Nagar, Chittorgarh - RSPCB",05-10-2025 07:00:00,24.892047,74.623527,SO2,1,7,4
India,Rajasthan,Chittorgarh,"Shastri Nagar, Chittorgarh - RSPCB",05-10-2025 07:00:00,24.892047,74.623527,CO,12,26,14
India,Rajasthan,Churu,"Subash Chowk, Churu - RSPCB",05-10-2025 07:00:00,28.296139,74.961696,NH3,3,9,5
India,Rajasthan,Dholpur,"Raja Ganj, Dholpur - RSPCB",05-10-2025 07:00:00,26.699557,77.898881,NH3,2,7,4
India,Odisha,Balasore,"Kalidaspur, Balasore - OSPCB",05-10-2025 07:00:00,21.51161,86.89088,SO2,5,6,6
India,Odisha,Barbil,"Forest Office, Barbil - OSPCB",05-10-2025 07:00:00,22.1166054,85.3945546,SO2,8,20,12
India,Odisha,Baripada,"Meher Colony, Baripada - OSPCB",05-10-2025 07:00:00,21.941841,86.728318,NO2,4,21,11
India,Odisha,Baripada,"Meher Colony, Baripada - OSPCB",05-10-2025 07:00:00,21.941841,86.728318,NH3,1,1,1
India,Odisha,Bhubaneswar,"Lingraj Mandir, Bhubaneswar - OSPCB",05-10-2025 07:00:00,20.240790,85.836784,SO2,6,7,6
India,Odisha,Bileipada,"Tata Township, Bileipada - OSPCB",05-10-2025 07:00:00,22.06156703,85.47409613,NH3,4,4,4
India,Punjab,Jalandhar,"Civil Line, Jalandhar - PPCB",05-10-2025 07:00:00,31.321907,75.578914,CO,44,48,45
India,Punjab,Khanna,"Kalal Majra, Khanna - PPCB",05-10-2025 07:00:00,30.736056 ,76.209694,PM2.5,35,202,101
India,Punjab,Khanna,"Kalal Majra, Khanna - PPCB",05-10-2025 07:00:00,30.736056 ,76.209694,OZONE,24,26,25
India,Punjab,Ludhiana,"Punjab Agricultural University, Ludhiana - PPCB",05-10-2025 07:00:00,30.9028,75.8086,SO2,9,19,13
India,Punjab,Mandi Gobindgarh,"RIMT University, Mandi Gobindgarh - PPCB",05-10-2025 07:00:00,30.649961,76.331442,NO2,23,24,24
India,Maharashtra,Sangli,"Vijay Nagar, Sangli - MPCB",05-10-2025 07:00:00, 16.5038,74.3623,SO2,2,7,5
India,Maharashtra,Solapur,"Ratandeep Housing Society, Solapur - MPCB",05-10-2025 07:00:00,17.65439,75.90649,PM2.5,16,90,36
India,Maharashtra,Solapur,"Ratandeep Housing Society, Solapur - MPCB",05-10-2025 07:00:00,17.65439,75.90649,SO2,1,4,1
India,Maharashtra,Thane,"Kasarvadavali, Thane - MPCB",05-10-2025 07:00:00,19.26777,72.97182,SO2,NA,NA,NA
India,Maharashtra,Ulhasnagar,"Sidhi Vinayak Nagar, Ulhasnagar - MPCB",05-10-2025 07:00:00,19.235581,73.159121,NO2,14,30,26
India,Rajasthan,Alwar,"Moti Doongri, Alwar - RSPCB",05-10-2025 07:00:00,27.554793,76.611536,PM2.5,38,92,53
India,Rajasthan,Alwar,"Moti Doongri, Alwar - RSPCB",05-10-2025 07:00:00,27.554793,76.611536,NO2,33,76,46
India,Rajasthan,Banswara,"Rati Talai, Banswara - RSPCB",05-10-2025 07:00:00,23.555190,74.440010,CO,NA,NA,NA
India,Rajasthan,Baran,"Bamboliya, Baran - RSPCB",05-10-2025 07:00:00,25.106006,76.469948,PM10,23,55,37
India,Rajasthan,Baran,"Bamboliya, Baran - RSPCB",05-10-2025 07:00:00,25.106006,76.469948,SO2,1,4,2
India,Rajasthan,Rajsamand,"Dhoinda, Rajsamand - RSPCB",05-10-2025 07:00:00,25.036360,73.883502,NH3,8,13,10
India,Rajasthan,Sawai Madhopur,"Sahu Nagar, Sawai Madhopur - RSPCB",05-10-2025 07:00:00,26.031443,76.359327,PM2.5,13,84,37
India,Rajasthan,Sawai Madhopur,"Sahu Nagar, Sawai Madhopur - RSPCB",05-10-2025 07:00:00,26.031443,76.359327,NO2,8,22,13
India,Rajasthan,Sikar,"Radhakishan Pura, Sikar - RSPCB",05-10-2025 07:00:00,27.608912,75.153302,PM2.5,18,80,41
India,Rajasthan,Sikar,"Radhakishan Pura, Sikar - RSPCB",05-10-2025 07:00:00,27.608912,75.153302,PM10,30,124,60
India,Rajasthan,Sikar,"Radhakishan Pura, Sikar - RSPCB",05-10-2025 07:00:00,27.608912,75.153302,SO2,2,4,3
India,Rajasthan,Sirohi,"Vedhaynath Colony, Sirohi - RSPCB",05-10-2025 07:00:00,24.885261,72.857549,CO,28,52,44
India,Rajasthan,Sri Ganganagar,"Old City, Sri Ganganagar - RSPCB",05-10-2025 07:00:00,29.931624,73.864511,PM10,21,340,120
India,Rajasthan,Sri Ganganagar,"Old City, Sri Ganganagar - RSPCB",05-10-2025 07:00:00,29.931624,73.864511,CO,46,135,60
India,Rajasthan,Tonk,"Shastri Nagar, Tonk - RSPCB",05-10-2025 07:00:00,26.159933,75.780517,PM2.5,37,187,79
India,Rajasthan,Jalore,"Mudtra Sili, Jalore - RSPCB",05-10-2025 07:00:00,25.344694,72.626208,OZONE,16,60,48
India,Rajasthan,Jhalawar,"Rajlaxmi Nagar, Jhalawar - RSPCB",05-10-2025 07:00:00,24.588397,76.172782,NH3,3,4,3
India,Rajasthan,Jhalawar,"Rajlaxmi Nagar, Jhalawar - RSPCB",05-10-2025 07:00:00,24.588397,76.172782,OZONE,27,113,43
India,Rajasthan,Jhunjhunu,"Indra Nagar, Jhunjhunu - RSPCB",05-10-2025 07:00:00,28.108988,75.386577,PM2.5,21,73,40
India,Rajasthan,Jhunjhunu,"Indra Nagar, Jhunjhunu - RSPCB",05-10-2025 07:00:00,28.108988,75.386577,PM10,17,112,54
India,Rajasthan,Jodhpur,"Collectorate, Jodhpur - RSPCB",05-10-2025 07:00:00,26.268249,73.0193853,NH3,8,15,12
India,Rajasthan,Jodhpur,"Digari Kalan, Jodhpur - RSPCB",05-10-2025 07:00:00,26.295810,73.082283,CO,13,38,21
India,Rajasthan,Jodhpur,"Jhalamand, Jodhpur - RSPCB",05-10-2025 07:00:00,26.215415,73.070156,PM10,24,123,54
India,Rajasthan,Jodhpur,"Jhalamand, Jodhpur - RSPCB",05-10-2025 07:00:00,26.215415,73.070156,NH3,5,18,9
India,TamilNadu,Cuddalore,"Kudikadu, Cuddalore - TNPCB",05-10-2025 07:00:00,11.6829898,79.7532099,PM10,6,100,44
India,TamilNadu,Cuddalore,"Kudikadu, Cuddalore - TNPCB",05-10-2025 07:00:00,11.6829898,79.7532099,NH3,4,4,4
India,TamilNadu,Cuddalore,"Kudikadu, Cuddalore - TNPCB",05-10-2025 07:00:00,11.6829898,79.7532099,SO2,19,19,19
India,TamilNadu,Cuddalore,"Kudikadu, Cuddalore - TNPCB",05-10-2025 07:00:00,11.6829898,79.7532099,OZONE,6,9,7
India,TamilNadu,Dindigul,"Mendonsa Colony, Dindigul - TNPCB",05-10-2025 07:00:00,10.358535,77.984321,CO,12,138,91
India,TamilNadu,Gummidipoondi,"Anthoni Pillai Nagar, Gummidipoondi - TNPCB",05-10-2025 07:00:00,13.4127,80.1081,SO2,8,30,14
India,TamilNadu,Hosur,"SIPCOT Phase-1, Hosur - TNPCB",05-10-2025 07:00:00,12.746998,77.813811,PM2.5,22,58,39
India,TamilNadu,Hosur,"SIPCOT Phase-1, Hosur - TNPCB",05-10-2025 07:00:00,12.746998,77.813811,PM10,24,67,44
India,TamilNadu,Kanchipuram,"Kilambi, Kanchipuram - TNPCB",05-10-2025 07:00:00,12.864618,79.659968,PM10,54,108,75
India,Rajasthan,Tonk,"Shastri Nagar, Tonk - RSPCB",05-10-2025 07:00:00,26.159933,75.780517,OZONE,15,54,23
India,Sikkim,Gangtok,"Zero Point GICI, Gangtok - SSPCB",05-10-2025 07:00:00,27.338530,88.614099,PM10,5,21,13
India,TamilNadu,Ariyalur,"Keelapalur, Ariyalur - TNPCB",05-10-2025 07:00:00,11.06825,79.07033,PM10,54,78,68
India,TamilNadu,Chengalpattu,"Crescent University, Chengalpattu - TNPCB",05-10-2025 07:00:00,12.8777316,80.0834807,CO,4,6,5
India,TamilNadu,Chennai,"Alandur Bus Depot, Chennai - CPCB",05-10-2025 07:00:00,12.9099161,80.1076538,CO,27,114,74
India,TamilNadu,Chennai,"Alandur Bus Depot, Chennai - CPCB",05-10-2025 07:00:00,12.9099161,80.1076538,OZONE,6,43,18
India,TamilNadu,Chennai,"Arumbakkam, Chennai - TNPCB",05-10-2025 07:00:00,13.0664,80.2112 ,NH3,3,4,3
India,TamilNadu,Chennai,"Manali, Chennai - CPCB",05-10-2025 07:00:00,13.164544,80.26285,PM10,11,75,34
India,TamilNadu,Chennai,"Manali, Chennai - CPCB",05-10-2025 07:00:00,13.164544,80.26285,SO2,9,22,16
India,TamilNadu,Chennai,"Perungudi, Chennai - TNPCB",05-10-2025 07:00:00,12.9533,80.2357,NH3,4,6,5
India,TamilNadu,Chennai,"Perungudi, Chennai - TNPCB",05-10-2025 07:00:00,12.9533,80.2357,SO2,1,3,2
India,TamilNadu,Chennai,"Velachery Res. Area, Chennai - CPCB",05-10-2025 07:00:00,13.0052189,80.2398125,PM10,27,65,45
India,TamilNadu,Chennai,"Velachery Res. Area, Chennai - CPCB",05-10-2025 07:00:00,13.0052189,80.2398125,NO2,15,17,16
India,TamilNadu,Chennai,"Velachery Res. Area, Chennai - CPCB",05-10-2025 07:00:00,13.0052189,80.2398125,NH3,3,4,4
India,TamilNadu,Coimbatore,"PSG College of Arts and Science, Coimbatore - TNPCB",05-10-2025 07:00:00,11.0328,77.0349,NO2,10,10,10
India,Rajasthan,Jaipur,"RIICO Sitapura, Jaipur - RSPCB",05-10-2025 07:00:00,26.786682,75.827928,PM10,48,226,93
India,Rajasthan,Jaipur,"RIICO Sitapura, Jaipur - RSPCB",05-10-2025 07:00:00,26.786682,75.827928,CO,12,132,18
India,Rajasthan,Jaipur,"Sector-2 Murlipura, Jaipur - RSPCB",05-10-2025 07:00:00,26.960669,75.771817,CO,1,159,29
India,Rajasthan,Jaipur,"Shastri Nagar, Jaipur - RSPCB",05-10-2025 07:00:00,26.9502929,75.730943,PM10,55,153,90
India,Rajasthan,Jaisalmer,"Sadar Bazar, Jaisalmer - RSPCB",05-10-2025 07:00:00,26.912329,70.909168,PM10,28,116,55
India,Rajasthan,Jaisalmer,"Sadar Bazar, Jaisalmer - RSPCB",05-10-2025 07:00:00,26.912329,70.909168,SO2,3,7,4
India,Rajasthan,Jalore,"Mudtra Sili, Jalore - RSPCB",05-10-2025 07:00:00,25.344694,72.626208,NH3,3,8,4
India,Rajasthan,Kota,"Shrinath Puram, Kota - RSPCB",05-10-2025 07:00:00,25.14389,75.821256,PM10,35,106,53
India,Rajasthan,Kota,"Shrinath Puram, Kota - RSPCB",05-10-2025 07:00:00,25.14389,75.821256,NO2,12,15,14
India,Rajasthan,Kota,"Shrinath Puram, Kota - RSPCB",05-10-2025 07:00:00,25.14389,75.821256,CO,14,60,35
India,Rajasthan,Nagaur,"Karni Colony, Nagaur - RSPCB",05-10-2025 07:00:00,27.213494,73.734444,OZONE,26,107,41
India,Rajasthan,Pratapgarh,"Pragati Nagar, Pratapgarh - RSPCB",05-10-2025 07:00:00,24.041198,74.780702,PM10,NA,NA,NA
India,Rajasthan,Pratapgarh,"Pragati Nagar, Pratapgarh - RSPCB",05-10-2025 07:00:00,24.041198,74.780702,OZONE,NA,NA,NA
India,Rajasthan,Rajsamand,"Dhoinda, Rajsamand - RSPCB",05-10-2025 07:00:00,25.036360,73.883502,PM2.5,7,43,27
India,Rajasthan,Dholpur,"Raja Ganj, Dholpur - RSPCB",05-10-2025 07:00:00,26.699557,77.898881,SO2,4,5,5
India,Rajasthan,Dholpur,"Raja Ganj, Dholpur - RSPCB",05-10-2025 07:00:00,26.699557,77.898881,CO,25,44,29
India,Rajasthan,Dungarpur,"Bhoiwada, Dungarpur - RSPCB",05-10-2025 07:00:00,23.837789,73.714926,OZONE,15,63,20
India,Rajasthan,Hanumangarh,"Housing Board, Hanumangarh - RSPCB",05-10-2025 07:00:00,29.610750,74.283608,PM10,75,210,113
India,Rajasthan,Hanumangarh,"Housing Board, Hanumangarh - RSPCB",05-10-2025 07:00:00,29.610750,74.283608,CO,8,46,16
India,Rajasthan,Jaipur,"Adarsh Nagar, Jaipur - RSPCB",05-10-2025 07:00:00,26.902909,75.836858,NH3,7,21,11
India,Rajasthan,Jodhpur,"Mandor, Jodhpur - RSPCB",05-10-2025 07:00:00,26.358805,73.047444,CO,11,56,16
India,Rajasthan,Karauli,"Satyawati Vihar, Karauli - RSPCB",05-10-2025 07:00:00,26.506177,77.025989,NH3,6,7,6
India,Rajasthan,Kota,"Dhanmandi, Kota - RSPCB",05-10-2025 07:00:00,25.164090,75.858137,PM2.5,10,47,21
India,Rajasthan,Kota,"Dhanmandi, Kota - RSPCB",05-10-2025 07:00:00,25.164090,75.858137,NO2,14,208,27
India,Uttar_Pradesh,Ghaziabad,"Sanjay Nagar, Ghaziabad - UPPCB",05-10-2025 07:00:00,28.685382,77.453839,SO2,8,15,11
India,Uttar_Pradesh,Ghaziabad,"Vasundhara, Ghaziabad - UPPCB",05-10-2025 07:00:00,28.6603346,77.3572563,PM2.5,72,313,158
India,Uttar_Pradesh,Ghaziabad,"Vasundhara, Ghaziabad - UPPCB",05-10-2025 07:00:00,28.6603346,77.3572563,SO2,10,16,13
India,Uttar_Pradesh,Ghaziabad,"Vasundhara, Ghaziabad - UPPCB",05-10-2025 07:00:00,28.6603346,77.3572563,CO,17,76,48
India,Uttar_Pradesh,Gorakhpur,"Madan Mohan Malaviya University of Technology, Gorakhpur - UPPCB",05-10-2025 07:00:00,26.730136,83.433859,NO2,10,12,11
India,Uttar_Pradesh,Gorakhpur,"Madan Mohan Malaviya University of Technology, Gorakhpur - UPPCB",05-10-2025 07:00:00,26.730136,83.433859,SO2,26,27,26
India,Uttar_Pradesh,Gorakhpur,"Madan Mohan Malaviya University of Technology, Gorakhpur - UPPCB",05-10-2025 07:00:00,26.730136,83.433859,CO,2,4,3
India,Uttar_Pradesh,Greater Noida,"Knowledge Park - III, Greater Noida - UPPCB",05-10-2025 07:00:00,28.47272,77.482000,CO,28,90,69
India,Uttar_Pradesh,Greater Noida,"Knowledge Park - V, Greater Noida - UPPCB",05-10-2025 07:00:00,28.557054,77.453663,PM2.5,68,230,133
India,Uttar_Pradesh,Greater Noida,"Knowledge Park - V, Greater Noida - UPPCB",05-10-2025 07:00:00,28.557054,77.453663,NO2,28,83,55
India,Uttar_Pradesh,Bulandshahr,"Yamunapuram, Bulandshahr - UPPCB",05-10-2025 07:00:00,28.406963,77.849831,CO,28,64,62
India,Uttar_Pradesh,Firozabad,"Nagla Bhau, Firozabad - UPPCB",05-10-2025 07:00:00,27.168897,78.376960,PM10,14,58,32
India,Uttar_Pradesh,Firozabad,"Vibhab Nagar, Firozabad - UPPCB",05-10-2025 07:00:00,27.1594,78.3953,PM10,16,75,38
India,Uttar_Pradesh,Firozabad,"Vibhab Nagar, Firozabad - UPPCB",05-10-2025 07:00:00,27.1594,78.3953,SO2,12,36,19
India,Uttar_Pradesh,Ghaziabad,"Indirapuram, Ghaziabad - UPPCB",05-10-2025 07:00:00,28.646233,77.358075,NH3,14,19,16
India,Uttar_Pradesh,Ghaziabad,"Loni, Ghaziabad - UPPCB",05-10-2025 07:00:00,28.757294,77.278792,NH3,2,5,3
India,Uttar_Pradesh,Ghaziabad,"Loni, Ghaziabad - UPPCB",05-10-2025 07:00:00,28.757294,77.278792,CO,48,100,68
India,Uttar_Pradesh,Ghaziabad,"Loni, Ghaziabad - UPPCB",05-10-2025 07:00:00,28.757294,77.278792,OZONE,18,79,31
India,Uttar_Pradesh,Ghaziabad,"Sanjay Nagar, Ghaziabad - UPPCB",05-10-2025 07:00:00,28.685382,77.453839,PM2.5,57,317,144
India,Uttar_Pradesh,Ghaziabad,"Sanjay Nagar, Ghaziabad - UPPCB",05-10-2025 07:00:00,28.685382,77.453839,NO2,26,72,47
India,Telangana,Hyderabad,"New Malakpet, Hyderabad - TSPCB",05-10-2025 07:00:00,17.37206,78.50864,NH3,2,3,2
India,Telangana,Hyderabad,"New Malakpet, Hyderabad - TSPCB",05-10-2025 07:00:00,17.37206,78.50864,OZONE,6,40,25
India,Telangana,Hyderabad,"Ramachandrapuram, Hyderabad - TSPCB",05-10-2025 07:00:00,17.528544,78.286195,NO2,NA,NA,NA
India,Telangana,Hyderabad,"Ramachandrapuram, Hyderabad - TSPCB",05-10-2025 07:00:00,17.528544,78.286195,NH3,NA,NA,NA
India,Telangana,Hyderabad,"Ramachandrapuram, Hyderabad - TSPCB",05-10-2025 07:00:00,17.528544,78.286195,OZONE,29,67,47
India,Telangana,Hyderabad,"Sanathnagar, Hyderabad - TSPCB",05-10-2025 07:00:00,17.4559458,78.4332152,CO,2,16,9
India,Telangana,Hyderabad,"Sanathnagar, Hyderabad - TSPCB",05-10-2025 07:00:00,17.4559458,78.4332152,OZONE,11,15,13
India,Telangana,Hyderabad,"Somajiguda, Hyderabad - TSPCB",05-10-2025 07:00:00,17.417094,78.457437,NO2,12,16,14
India,Telangana,Hyderabad,"Somajiguda, Hyderabad - TSPCB",05-10-2025 07:00:00,17.417094,78.457437,SO2,17,55,41
India,Telangana,Hyderabad,"Somajiguda, Hyderabad - TSPCB",05-10-2025 07:00:00,17.417094,78.457437,CO,8,51,22
India,Telangana,Hyderabad,"Central University, Hyderabad - TSPCB",05-10-2025 07:00:00,17.460103,78.334361,SO2,1,9,6
India,Telangana,Hyderabad,"Central University, Hyderabad - TSPCB",05-10-2025 07:00:00,17.460103,78.334361,CO,1,21,8
India,Telangana,Hyderabad,"ECIL Kapra, Hyderabad - TSPCB",05-10-2025 07:00:00,17.470431,78.566959,PM2.5,36,44,41
India,Telangana,Hyderabad,"ECIL Kapra, Hyderabad - TSPCB",05-10-2025 07:00:00,17.470431,78.566959,PM10,66,79,76
India,Telangana,Hyderabad,"ECIL Kapra, Hyderabad - TSPCB",05-10-2025 07:00:00,17.470431,78.566959,NH3,2,5,4
India,Telangana,Hyderabad,"ICRISAT Patancheru, Hyderabad - TSPCB",05-10-2025 07:00:00,17.518400,78.278777,OZONE,1,31,13
India,Telangana,Hyderabad,"IDA Pashamylaram, Hyderabad - TSPCB",05-10-2025 07:00:00,17.5316895,78.218939,NH3,1,7,3
India,Telangana,Hyderabad,"Kokapet, Hyderabad - TSPCB",05-10-2025 07:00:00,17.393559,78.339194,PM10,63,290,89
India,TamilNadu,Pudukottai,"SIPCOT Nathampannai, Pudukottai - TNPCB",05-10-2025 07:00:00,10.423417,78.784889,PM10,NA,NA,NA
India,TamilNadu,Pudukottai,"SIPCOT Nathampannai, Pudukottai - TNPCB",05-10-2025 07:00:00,10.423417,78.784889,SO2,11,13,12
India,TamilNadu,Salem,"Sona College of Technology, Salem - TNPCB",05-10-2025 07:00:00,11.679111,78.125052,NO2,12,12,12
India,TamilNadu,Thoothukudi,"Meelavittan, Thoothukudi - TNPCB",05-10-2025 07:00:00,8.816428 ,78.099039,NO2,11,27,16
India,TamilNadu,Thoothukudi,"Meelavittan, Thoothukudi - TNPCB",05-10-2025 07:00:00,8.816428 ,78.099039,CO,29,57,35
India,TamilNadu,Tiruchirappalli,"St Joseph College, Tiruchirappalli - TNPCB",05-10-2025 07:00:00,10.830158,78.691849,PM2.5,34,51,44
India,Uttar_Pradesh,Agra,"Shahjahan Garden, Agra - UPPCB",05-10-2025 07:00:00,27.169338,78.03582,SO2,31,40,36
India,Uttar_Pradesh,Baghpat,"Sardar Patel Inter College, Baghpat - UPPCB",05-10-2025 07:00:00,28.964949,77.278761,PM10,81,186,128
India,Uttar_Pradesh,Bareilly,"Rajendra Nagar, Bareilly - UPPCB",05-10-2025 07:00:00,28.38910936,79.42963708,PM2.5,38,196,98
India,Uttar_Pradesh,Bareilly,"Rajendra Nagar, Bareilly - UPPCB",05-10-2025 07:00:00,28.38910936,79.42963708,SO2,38,39,39
India,Uttar_Pradesh,Bulandshahr,"Yamunapuram, Bulandshahr - UPPCB",05-10-2025 07:00:00,28.406963,77.849831,PM2.5,NA,NA,NA
India,Telangana,Hyderabad,"Zoo Park, Hyderabad - TSPCB",05-10-2025 07:00:00,17.349694,78.451437,SO2,4,5,4
India,Tripura,Agartala,"Bardowali, Agartala - Tripura SPCB",05-10-2025 07:00:00,23.8175497,91.2726974,SO2,26,27,26
India,Uttar_Pradesh,Agra,"Rohta, Agra - UPPCB",05-10-2025 07:00:00,27.106972,78.000111,NH3,6,6,6
India,Uttar_Pradesh,Agra,"Rohta, Agra - UPPCB",05-10-2025 07:00:00,27.106972,78.000111,OZONE,11,13,11
India,Uttar_Pradesh,Agra,"Sanjay Palace, Agra - UPPCB",05-10-2025 07:00:00,27.19865833,78.00598056,SO2,15,18,16
India,TamilNadu,Tiruchirappalli,"St Joseph College, Tiruchirappalli - TNPCB",05-10-2025 07:00:00,10.830158,78.691849,SO2,5,17,13
India,TamilNadu,Virudhunagar,"Collectorate Office, Virudhunagar - TNPCB",05-10-2025 07:00:00,9.559382,77.948828,OZONE,NA,NA,NA
India,Telangana,Hyderabad,"Bollaram Industrial Area, Hyderabad - TSPCB",05-10-2025 07:00:00,17.540891,78.358528,NH3,3,7,5
India,Telangana,Hyderabad,"Bollaram Industrial Area, Hyderabad - TSPCB",05-10-2025 07:00:00,17.540891,78.358528,CO,21,48,36
India,TamilNadu,Karur,"Kamadenu Nagar, Karur - TNPCB",05-10-2025 07:00:00,10.967820,78.080882,NO2,5,6,6
India,TamilNadu,Karur,"Kamadenu Nagar, Karur - TNPCB",05-10-2025 07:00:00,10.967820,78.080882,OZONE,6,9,7
India,TamilNadu,Madurai,"Uchapatti, Madurai - TNPCB",05-10-2025 07:00:00,9.865935,78.022669,CO,17,20,18
India,TamilNadu,Nagapattinam,"Velippalayam, Nagapattinam - TNPCB",05-10-2025 07:00:00,10.798548,79.838212,PM10,19,76,44
India,TamilNadu,Nagapattinam,"Velippalayam, Nagapattinam - TNPCB",05-10-2025 07:00:00,10.798548,79.838212,OZONE,19,39,27
India,West_Bengal,Barrackpore,"SVSPA Campus, Barrackpore - WBPCB",05-10-2025 07:00:00,22.7605581,88.3617589,NO2,10,17,14
India,West_Bengal,Barrackpore,"SVSPA Campus, Barrackpore - WBPCB",05-10-2025 07:00:00,22.7605581,88.3617589,NH3,3,6,5
India,West_Bengal,Durgapur,"Mahishkapur Road_B-Zone, Durgapur - WBPCB",05-10-2025 07:00:00,23.567923,87.306843,OZONE,15,37,20
India,West_Bengal,Durgapur,"PCBL Residential Complex, Durgapur - WBPCB",05-10-2025 07:00:00,23.5087640,87.3544400,PM10,NA,NA,NA
India,West_Bengal,Durgapur,"PCBL Residential Complex, Durgapur - WBPCB",05-10-2025 07:00:00,23.5087640,87.3544400,NO2,NA,NA,NA
India,West_Bengal,Durgapur,"PCBL Residential Complex, Durgapur - WBPCB",05-10-2025 07:00:00,23.5087640,87.3544400,NH3,NA,NA,NA
India,West_Bengal,Durgapur,"PCBL Residential Complex, Durgapur - WBPCB",05-10-2025 07:00:00,23.5087640,87.3544400,SO2,NA,NA,NA
India,West_Bengal,Durgapur,"PCBL Residential Complex, Durgapur - WBPCB",05-10-2025 07:00:00,23.5087640,87.3544400,CO,49,62,53
India,West_Bengal,Durgapur,"Womens College_City Center, Durgapur - WBPCB (Formerly known as Sidhu Kanhu Indoor Stadium)",05-10-2025 07:00:00,23.549395,87.300496,OZONE,12,28,18
India,West_Bengal,Haldia,"Priyambada Housing Estate, Haldia - WBPCB",05-10-2025 07:00:00,22.06047,88.109737,PM10,25,59,40
India,Uttar_Pradesh,Jhansi,"Shivaji Nagar, Jhansi - UPPCB",05-10-2025 07:00:00,25.4547,78.6039,PM10,19,92,45
India,Uttar_Pradesh,Jhansi,"Shivaji Nagar, Jhansi - UPPCB",05-10-2025 07:00:00,25.4547,78.6039,SO2,6,16,10
India,Uttar_Pradesh,Kanpur,"FTI Kidwai Nagar, Kanpur - UPPCB",05-10-2025 07:00:00,26.428282,80.327067,NH3,2,2,2
India,Uttar_Pradesh,Kanpur,"FTI Kidwai Nagar, Kanpur - UPPCB",05-10-2025 07:00:00,26.428282,80.327067,SO2,16,19,18
India,Uttar_Pradesh,Kanpur,"NSI Kalyanpur, Kanpur - UPPCB",05-10-2025 07:00:00,26.509954,80.249612,PM10,8,66,26
India,Uttar_Pradesh,Kanpur,"NSI Kalyanpur, Kanpur - UPPCB",05-10-2025 07:00:00,26.509954,80.249612,NO2,16,17,17
India,Uttar_Pradesh,Kanpur,"NSI Kalyanpur, Kanpur - UPPCB",05-10-2025 07:00:00,26.509954,80.249612,OZONE,22,27,24
India,Uttar_Pradesh,Kanpur,"Nehru Nagar, Kanpur - UPPCB",05-10-2025 07:00:00,26.4703136,80.3229863,PM2.5,7,97,24
India,Uttar_Pradesh,Kanpur,"Nehru Nagar, Kanpur - UPPCB",05-10-2025 07:00:00,26.4703136,80.3229863,OZONE,6,50,6
India,Uttar_Pradesh,Khurja,"Kalindi Kunj, Khurja - UPPCB",05-10-2025 07:00:00,28.2348927,77.8683002,CO,20,72,36
India,Uttar_Pradesh,Prayagraj,"Jhunsi, Prayagraj - UPPCB",05-10-2025 07:00:00,25.425602,81.917152,PM10,12,62,28
India,Uttar_Pradesh,Prayagraj,"Jhunsi, Prayagraj - UPPCB",05-10-2025 07:00:00,25.425602,81.917152,NH3,5,5,5
India,Uttar_Pradesh,Prayagraj,"Jhunsi, Prayagraj - UPPCB",05-10-2025 07:00:00,25.425602,81.917152,CO,4,22,12
India,Uttar_Pradesh,Prayagraj,"Nagar Nigam, Prayagraj - UPPCB",05-10-2025 07:00:00,25.44919916 ,81.82735986 ,PM10,8,104,29
India,Uttar_Pradesh,Prayagraj,"Nagar Nigam, Prayagraj - UPPCB",05-10-2025 07:00:00,25.44919916 ,81.82735986 ,NH3,1,3,2
India,Uttar_Pradesh,Prayagraj,"Nagar Nigam, Prayagraj - UPPCB",05-10-2025 07:00:00,25.44919916 ,81.82735986 ,SO2,4,31,17
India,Uttar_Pradesh,Prayagraj,"Nagar Nigam, Prayagraj - UPPCB",05-10-2025 07:00:00,25.44919916 ,81.82735986 ,OZONE,13,32,24
India,Uttar_Pradesh,Varanasi,"Ardhali Bazar, Varanasi - UPPCB",05-10-2025 07:00:00,25.3505986,82.9083074,PM10,3,29,13
India,Uttar_Pradesh,Varanasi,"Bhelupur, Varanasi - UPPCB",05-10-2025 07:00:00,25.301778,82.996789,NO2,7,8,8
India,Uttar_Pradesh,Varanasi,"Bhelupur, Varanasi - UPPCB",05-10-2025 07:00:00,25.301778,82.996789,SO2,26,33,28
India,Uttar_Pradesh,Varanasi,"Bhelupur, Varanasi - UPPCB",05-10-2025 07:00:00,25.301778,82.996789,OZONE,1,39,2
India,Uttar_Pradesh,Moradabad,"Transport Nagar, Moradabad - UPPCB",05-10-2025 07:00:00,28.802625,78.753728,OZONE,29,56,34
India,Uttar_Pradesh,Muzaffarnagar,"New Mandi, Muzaffarnagar - UPPCB",05-10-2025 07:00:00,29.4723508,77.7194031,CO,36,65,47
India,Uttar_Pradesh,Noida,"Sector - 125, Noida - UPPCB",05-10-2025 07:00:00,28.5447608,77.3231257,NH3,8,12,10
India,Uttar_Pradesh,Noida,"Sector-1, Noida - UPPCB",05-10-2025 07:00:00,28.5898,77.3101,PM2.5,65,272,155
India,Uttar_Pradesh,Noida,"Sector-1, Noida - UPPCB",05-10-2025 07:00:00,28.5898,77.3101,SO2,7,11,8
India,Uttar_Pradesh,Noida,"Sector-116, Noida - UPPCB",05-10-2025 07:00:00,28.569230,77.393848,PM2.5,61,315,146
India,Uttar_Pradesh,Noida,"Sector-116, Noida - UPPCB",05-10-2025 07:00:00,28.569230,77.393848,NO2,3,119,72
India,Uttar_Pradesh,Noida,"Sector-116, Noida - UPPCB",05-10-2025 07:00:00,28.569230,77.393848,SO2,4,32,14
India,Uttar_Pradesh,Noida,"Sector-116, Noida - UPPCB",05-10-2025 07:00:00,28.569230,77.393848,CO,20,103,53
India,Uttar_Pradesh,Lucknow,"B R Ambedkar University, Lucknow - UPPCB",05-10-2025 07:00:00,26.766433,80.927299,SO2,38,41,40
India,Uttar_Pradesh,Lucknow,"Gomti Nagar, Lucknow - UPPCB",05-10-2025 07:00:00,26.868120,81.005119,PM2.5,2,191,49
India,Uttar_Pradesh,Lucknow,"Gomti Nagar, Lucknow - UPPCB",05-10-2025 07:00:00,26.868120,81.005119,OZONE,36,43,38
India,Uttar_Pradesh,Lucknow,"Kendriya Vidyalaya, Lucknow - CPCB",05-10-2025 07:00:00,26.906111,80.948222,NH3,8,14,12
India,Uttar_Pradesh,Lucknow,"Kendriya Vidyalaya, Lucknow - CPCB",05-10-2025 07:00:00,26.906111,80.948222,SO2,2,20,11
India,Uttar_Pradesh,Lucknow,"Kendriya Vidyalaya, Lucknow - CPCB",05-10-2025 07:00:00,26.906111,80.948222,CO,37,88,48
India,Uttar_Pradesh,Lucknow,"Kukrail Picnic Spot-1, Lucknow - UPPCB",05-10-2025 07:00:00,26.90723,80.98579,PM10,14,38,27
India,Uttar_Pradesh,Lucknow,"Kukrail Picnic Spot-1, Lucknow - UPPCB",05-10-2025 07:00:00,26.90723,80.98579,NO2,22,96,26
India,Uttar_Pradesh,Lucknow,"Kukrail Picnic Spot-1, Lucknow - UPPCB",05-10-2025 07:00:00,26.90723,80.98579,SO2,23,25,24
India,Uttar_Pradesh,Lucknow,"Talkatora District Industries Center, Lucknow - CPCB",05-10-2025 07:00:00,26.83399722,80.8917361,PM2.5,15,49,31
India,Uttar_Pradesh,Meerut,"Ganga Nagar, Meerut - UPPCB",05-10-2025 07:00:00,28.999264,77.7590354,NO2,31,59,40
India,Uttar_Pradesh,Meerut,"Ganga Nagar, Meerut - UPPCB",05-10-2025 07:00:00,28.999264,77.7590354,NH3,4,4,4
India,Uttar_Pradesh,Meerut,"Ganga Nagar, Meerut - UPPCB",05-10-2025 07:00:00,28.999264,77.7590354,CO,36,61,43
India,Uttar_Pradesh,Meerut,"Jai Bhim Nagar, Meerut - UPPCB",05-10-2025 07:00:00,28.9535882,77.7622941,NO2,9,36,21
India,Uttar_Pradesh,Meerut,"Jai Bhim Nagar, Meerut - UPPCB",05-10-2025 07:00:00,28.9535882,77.7622941,OZONE,19,166,80
India,Uttar_Pradesh,Meerut,"Pallavpuram Phase 2, Meerut - UPPCB",05-10-2025 07:00:00,29.063510,77.709723,PM2.5,71,180,120
India,Uttar_Pradesh,Meerut,"Pallavpuram Phase 2, Meerut - UPPCB",05-10-2025 07:00:00,29.063510,77.709723,OZONE,13,89,49
India,Uttar_Pradesh,Moradabad,"Buddhi Vihar, Moradabad - UPPCB",05-10-2025 07:00:00,28.83526,78.74460,OZONE,11,55,29
India,Uttar_Pradesh,Moradabad,"Eco Herbal Park, Moradabad - UPPCB",05-10-2025 07:00:00,28.840739,78.697531,NH3,2,4,3
India,Uttar_Pradesh,Moradabad,"Eco Herbal Park, Moradabad - UPPCB",05-10-2025 07:00:00,28.840739,78.697531,CO,30,56,35
India,Uttar_Pradesh,Moradabad,"Employment Office, Moradabad - UPPCB",05-10-2025 07:00:00,28.88528,78.73880,PM10,62,131,103
India,Uttar_Pradesh,Moradabad,"Employment Office, Moradabad - UPPCB",05-10-2025 07:00:00,28.88528,78.73880,NO2,15,16,16
India,Uttar_Pradesh,Moradabad,"Jigar Colony, Moradabad - UPPCB",05-10-2025 07:00:00,28.856664,78.772638,NO2,24,25,25
India,Uttar_Pradesh,Moradabad,"Transport Nagar, Moradabad - UPPCB",05-10-2025 07:00:00,28.802625,78.753728,PM2.5,30,151,73
India,Uttar_Pradesh,Varanasi,"IESD Banaras Hindu University, Varanasi - UPPCB",05-10-2025 07:00:00,25.262326,82.995408,NO2,2,2,2
India,Uttar_Pradesh,Varanasi,"IESD Banaras Hindu University, Varanasi - UPPCB",05-10-2025 07:00:00,25.262326,82.995408,SO2,29,42,33
India,Uttarakhand,Dehradun,"Doon University, Dehradun - UKPCB",05-10-2025 07:00:00,30.269444,78.044167,SO2,NA,NA,NA
India,Uttarakhand,Kashipur,"Govt. Girls Inter College, Kashipur - UKPCB",05-10-2025 07:00:00,29.2124114,78.9611753,PM2.5,5,325,156
India,Uttarakhand,Kashipur,"Govt. Girls Inter College, Kashipur - UKPCB",05-10-2025 07:00:00,29.2124114,78.9611753,NH3,3,15,6
India,West_Bengal,Asansol,"Asansol Court Area, Asansol - WBPCB",05-10-2025 07:00:00,23.685297,86.945968,NH3,3,9,5
India,West_Bengal,Asansol,"Evelyn Lodge, Asansol - WBPCB",05-10-2025 07:00:00,23.6979360,86.9443950,PM10,22,47,32
India,West_Bengal,Asansol,"Mahabir Colliery, Asansol - WBPCB",05-10-2025 07:00:00,23.6181830,87.1057180,OZONE,13,32,20
India,West_Bengal,Howrah,"Belur Math, Howrah - WBPCB",05-10-2025 07:00:00,22.629801,88.352017,PM10,32,86,52
India,West_Bengal,Howrah,"Belur Math, Howrah - WBPCB",05-10-2025 07:00:00,22.629801,88.352017,OZONE,13,41,35
India,West_Bengal,Howrah,"Botanical Garden, Howrah - WBPCB",05-10-2025 07:00:00,22.554954,88.292568,PM2.5,30,48,40
India,West_Bengal,Howrah,"Ghusuri, Howrah - WBPCB",05-10-2025 07:00:00,22.611968,88.347422,PM10,24,36,30
India,West_Bengal,Howrah,"Ghusuri, Howrah - WBPCB",05-10-2025 07:00:00,22.611968,88.347422,SO2,5,9,7
India,West_Bengal,Howrah,"Ghusuri, Howrah - WBPCB",05-10-2025 07:00:00,22.611968,88.347422,OZONE,22,94,37
India,West_Bengal,Howrah,"Padmapukur, Howrah - WBPCB",05-10-2025 07:00:00,22.5687319,88.2797276,PM2.5,30,57,39
India,West_Bengal,Howrah,"Padmapukur, Howrah - WBPCB",05-10-2025 07:00:00,22.5687319,88.2797276,NO2,11,23,16
India,West_Bengal,Kolkata,"Ballygunge, Kolkata - WBPCB",05-10-2025 07:00:00,22.5367507,88.3638022,PM10,18,41,31
India,West_Bengal,Kolkata,"Ballygunge, Kolkata - WBPCB",05-10-2025 07:00:00,22.5367507,88.3638022,CO,8,12,9
India,West_Bengal,Kolkata,"Jadavpur, Kolkata - WBPCB",05-10-2025 07:00:00,22.49929,88.36917,PM10,51,76,64
India,West_Bengal,Kolkata,"Jadavpur, Kolkata - WBPCB",05-10-2025 07:00:00,22.49929,88.36917,SO2,5,6,6
India,West_Bengal,Kolkata,"Rabindra Bharati University, Kolkata - WBPCB",05-10-2025 07:00:00,22.627847,88.380669,NO2,21,45,28
India,West_Bengal,Kolkata,"Rabindra Sarobar, Kolkata - WBPCB",05-10-2025 07:00:00,22.51106,88.35142,SO2,2,4,3
India,West_Bengal,Kolkata,"Rabindra Sarobar, Kolkata - WBPCB",05-10-2025 07:00:00,22.51106,88.35142,CO,10,15,12
India,West_Bengal,Kolkata,"Victoria, Kolkata - WBPCB",05-10-2025 07:00:00,22.5448082,88.3403691,SO2,2,13,8
India,Bihar,Patna,"IGSC Planetarium Complex, Patna - BSPCB",05-10-2025 07:00:00,25.610369,85.132568,OZONE,45,48,46
India,Bihar,Patna,"Muradpur, Patna - BSPCB",05-10-2025 07:00:00,25.619651,85.147382,PM10,NA,NA,NA
India,Bihar,Patna,"Muradpur, Patna - BSPCB",05-10-2025 07:00:00,25.619651,85.147382,NO2,NA,NA,NA
India,Bihar,Patna,"Rajbansi Nagar, Patna - BSPCB",05-10-2025 07:00:00,25.599486,85.113666,OZONE,7,10,8
India,Bihar,Purnia,"Mariam Nagar, Purnia - BSPCB",05-10-2025 07:00:00,25.366336,87.117468,OZONE,8,42,22
India,Bihar,Rajgir,"Dangi Tola, Rajgir - BSPCB",05-10-2025 07:00:00,25.03280,85.41948,PM2.5,57,70,63
India,Bihar,Rajgir,"Dangi Tola, Rajgir - BSPCB",05-10-2025 07:00:00,25.03280,85.41948,PM10,80,97,88
India,Bihar,Rajgir,"Dangi Tola, Rajgir - BSPCB",05-10-2025 07:00:00,25.03280,85.41948,NO2,8,10,9
India,Bihar,Rajgir,"Dangi Tola, Rajgir - BSPCB",05-10-2025 07:00:00,25.03280,85.41948,NH3,6,7,6
India,Bihar,Rajgir,"Dangi Tola, Rajgir - BSPCB",05-10-2025 07:00:00,25.03280,85.41948,SO2,18,23,21
India,Bihar,Samastipur,"DM Office_Kasipur, Samastipur - BSPCB",05-10-2025 07:00:00,25.859655,85.77944,NO2,6,9,7
India,Bihar,Begusarai,"Lohiyanagar, Begusarai - BSPCB",05-10-2025 07:00:00,25.42742023,86.13886079,NH3,3,4,4
India,Bihar,Bettiah,"Kamalnath Nagar, Bettiah - BSPCB",05-10-2025 07:00:00,26.80365,84.51954,NO2,4,9,7
India,Bihar,Bhagalpur,"DM Office_Kachari Chowk, Bhagalpur - BSPCB",05-10-2025 07:00:00,25.251013,86.989001,PM2.5,20,117,51
India,Bihar,Bhagalpur,"DM Office_Kachari Chowk, Bhagalpur - BSPCB",05-10-2025 07:00:00,25.251013,86.989001,NH3,3,8,5
India,Bihar,Bhagalpur,"DM Office_Kachari Chowk, Bhagalpur - BSPCB",05-10-2025 07:00:00,25.251013,86.989001,OZONE,6,23,17
India,Bihar,Bhagalpur,"Mayaganj, Bhagalpur - BSPCB",05-10-2025 07:00:00,25.265194,87.012947,SO2,NA,NA,NA
India,Bihar,Bihar Sharif,"D M Colony, Bihar Sharif - BSPCB",05-10-2025 07:00:00,25.204762,85.514960,PM2.5,46,62,54
India,Bihar,Hajipur,"Industrial Area, Hajipur - BSPCB",05-10-2025 07:00:00,25.697189,85.245900,PM10,14,42,27
India,Bihar,Hajipur,"Industrial Area, Hajipur - BSPCB",05-10-2025 07:00:00,25.697189,85.245900,SO2,2,5,3
India,Bihar,Hajipur,"Industrial Area, Hajipur - BSPCB",05-10-2025 07:00:00,25.697189,85.245900,CO,37,48,42
India,Bihar,Hajipur,"Industrial Area, Hajipur - BSPCB",05-10-2025 07:00:00,25.697189,85.245900,OZONE,17,47,26
India,Bihar,Kishanganj,"SDM Office_Khagra, Kishanganj - BSPCB",05-10-2025 07:00:00,26.0881305,87.93840336,NO2,6,8,7
India,Bihar,Kishanganj,"SDM Office_Khagra, Kishanganj - BSPCB",05-10-2025 07:00:00,26.0881305,87.93840336,NH3,3,3,3
India,Bihar,Motihari,"Gandak Colony, Motihari - BSPCB",05-10-2025 07:00:00,26.63086,84.90051,OZONE,NA,NA,NA
India,Bihar,Munger,"Town Hall, Munger - BSPCB",05-10-2025 07:00:00,25.376776,86.471523,SO2,NA,NA,NA
India,Bihar,Munger,"Town Hall, Munger - BSPCB",05-10-2025 07:00:00,25.376776,86.471523,CO,23,58,56
India,Bihar,Muzaffarpur,"MIT-Daudpur Kothi, Muzaffarpur - BSPCB",05-10-2025 07:00:00,26.1403345,85.3650192,NO2,4,10,5
India,Bihar,Muzaffarpur,"MIT-Daudpur Kothi, Muzaffarpur - BSPCB",05-10-2025 07:00:00,26.1403345,85.3650192,OZONE,8,41,15
India,Bihar,Patna,"DRM Office Danapur, Patna - BSPCB",05-10-2025 07:00:00,25.586562,85.043586,OZONE,NA,NA,NA
India,Bihar,Patna,"Govt. High School Shikarpur, Patna - BSPCB",05-10-2025 07:00:00,25.592539,85.227158,PM2.5,20,40,29
India,Andhra_Pradesh,Visakhapatnam,"GVM Corporation, Visakhapatnam - APPCB",05-10-2025 07:00:00,17.72,83.3,CO,16,50,27
India,Arunachal_Pradesh,Naharlagun,"Naharlagun, Naharlagun - APSPCB",05-10-2025 07:00:00,27.103358,93.679645,PM2.5,2,36,13
India,Arunachal_Pradesh,Naharlagun,"Naharlagun, Naharlagun - APSPCB",05-10-2025 07:00:00,27.103358,93.679645,OZONE,4,5,5
India,Assam,Byrnihat,"Central Academy for SFS, Byrnihat - PCBA",05-10-2025 07:00:00,26.071318,91.87488,PM2.5,NA,NA,NA
India,Assam,Guwahati,"IITG, Guwahati - PCBA",05-10-2025 07:00:00,26.2028636,91.70046436,PM2.5,4,39,23
India,Andhra_Pradesh,Rajamahendravaram,"Anand Kala Kshetram, Rajamahendravaram - APPCB",05-10-2025 07:00:00,16.9872867,81.7363176,PM10,25,83,47
India,Andhra_Pradesh,Rajamahendravaram,"Anand Kala Kshetram, Rajamahendravaram - APPCB",05-10-2025 07:00:00,16.9872867,81.7363176,NO2,9,41,21
India,Andhra_Pradesh,Rajamahendravaram,"Anand Kala Kshetram, Rajamahendravaram - APPCB",05-10-2025 07:00:00,16.9872867,81.7363176,NH3,2,3,2
India,Andhra_Pradesh,Tirumala,"Toll Gate, Tirumala - APPCB",05-10-2025 07:00:00,13.67,79.35,PM2.5,5,36,22
India,Andhra_Pradesh,Tirumala,"Toll Gate, Tirumala - APPCB",05-10-2025 07:00:00,13.67,79.35,OZONE,6,14,12
India,Andhra_Pradesh,Tirupati,"Vaikuntapuram, Tirupati - APPCB",05-10-2025 07:00:00,13.615387,79.409230,SO2,21,21,21
India,Assam,Guwahati,"LGBI Airport, Guwahati - PCBA",05-10-2025 07:00:00,26.10887,91.589544,PM10,28,157,38
India,Assam,Guwahati,"LGBI Airport, Guwahati - PCBA",05-10-2025 07:00:00,26.10887,91.589544,NO2,12,15,14
India,Assam,Guwahati,"LGBI Airport, Guwahati - PCBA",05-10-2025 07:00:00,26.10887,91.589544,SO2,11,13,12
India,Assam,Nagaon,"Christianpatty, Nagaon - PCBA",05-10-2025 07:00:00,26.349082,92.68449,SO2,11,15,13
India,Assam,Nagaon,"Christianpatty, Nagaon - PCBA",05-10-2025 07:00:00,26.349082,92.68449,CO,22,48,37
India,Assam,Nalbari,"Bata Chowk, Nalbari - PCBA",05-10-2025 07:00:00,26.446912,91.439057,SO2,16,21,20
India,Assam,Sivasagar,"Girls College, Sivasagar - PCBA",05-10-2025 07:00:00,26.987634,94.636574,NO2,11,17,15
India,Bihar,Araria,"Kharahiya Basti, Araria - BSPCB",05-10-2025 07:00:00,26.146529,87.454184,NH3,5,5,5
India,Bihar,Arrah,"New DM Office, Arrah - BSPCB",05-10-2025 07:00:00,25.5626095,84.663264,SO2,9,10,10
India,Andhra_Pradesh,Amaravati,"Secretariat, Amaravati - APPCB",05-10-2025 07:00:00,16.5150833,80.5181667,NH3,NA,NA,NA
India,Andhra_Pradesh,Chittoor,"Gangineni Cheruvu, Chittoor - APPCB",05-10-2025 07:00:00,13.204880,79.097889,PM2.5,NA,NA,NA
India,Andhra_Pradesh,Chittoor,"Gangineni Cheruvu, Chittoor - APPCB",05-10-2025 07:00:00,13.204880,79.097889,SO2,NA,NA,NA
India,Andhra_Pradesh,Chittoor,"Gangineni Cheruvu, Chittoor - APPCB",05-10-2025 07:00:00,13.204880,79.097889,CO,NA,NA,NA
India,Bihar,Buxar,"Charitra Van, Buxar - BSPCB",05-10-2025 07:00:00,25.567520,83.966379,NH3,NA,NA,NA
India,Bihar,Gaya,"Collectorate, Gaya - BSPCB",05-10-2025 07:00:00,24.7955,84.9994,NO2,NA,NA,NA
India,Bihar,Gaya,"Collectorate, Gaya - BSPCB",05-10-2025 07:00:00,24.7955,84.9994,OZONE,NA,NA,NA
India,Chhattisgarh,Korba,"Urja Nagar, Korba - CECB",05-10-2025 07:00:00,22.348441,82.549611,SO2,8,14,9
India,Chhattisgarh,Kunjemura,"OP Jindal School, Kunjemura - CECB",05-10-2025 07:00:00,22.126650,83.483212,PM2.5,2,13,6
India,Chhattisgarh,Kunjemura,"OP Jindal School, Kunjemura - CECB",05-10-2025 07:00:00,22.126650,83.483212,PM10,7,36,17
India,Chhattisgarh,Kunjemura,"OP Jindal School, Kunjemura - CECB",05-10-2025 07:00:00,22.126650,83.483212,SO2,1,11,4
India,Chhattisgarh,Kunjemura,"OP Jindal School, Kunjemura - CECB",05-10-2025 07:00:00,22.126650,83.483212,CO,22,30,27
India,Chhattisgarh,Kunjemura,"OP Jindal School, Kunjemura - CECB",05-10-2025 07:00:00,22.126650,83.483212,OZONE,7,11,10
India,Chhattisgarh,Milupara,"Govt. Higher Secondary School, Milupara - CECB",05-10-2025 07:00:00,22.1910172,83.5197009,OZONE,21,46,37
India,Chhattisgarh,Raipur,"AIIMS, Raipur - CECB",05-10-2025 07:00:00,21.258815,81.578979,PM10,10,24,15
India,Chhattisgarh,Raipur,"AIIMS, Raipur - CECB",05-10-2025 07:00:00,21.258815,81.578979,NO2,6,8,7
India,Chhattisgarh,Raipur,"Bhatagaon New ISBT, Raipur - CECB",05-10-2025 07:00:00,21.219665,81.630094,PM2.5,9,19,13
India,Chhattisgarh,Raipur,"Bhatagaon New ISBT, Raipur - CECB",05-10-2025 07:00:00,21.219665,81.630094,PM10,13,37,25
India,Chhattisgarh,Raipur,"Bhatagaon New ISBT, Raipur - CECB",05-10-2025 07:00:00,21.219665,81.630094,NH3,2,2,2
India,Delhi,Delhi,"Mandir Marg, Delhi - DPCC",05-10-2025 07:00:00,28.636429,77.201067,NH3,5,24,9
India,Delhi,Delhi,"Mandir Marg, Delhi - DPCC",05-10-2025 07:00:00,28.636429,77.201067,OZONE,9,191,15
India,Delhi,Delhi,"Mundka, Delhi - DPCC",05-10-2025 07:00:00,28.684678,77.076574,PM10,78,320,165
India,Delhi,Delhi,"Mundka, Delhi - DPCC",05-10-2025 07:00:00,28.684678,77.076574,NO2,20,81,43
India,Delhi,Delhi,"Mundka, Delhi - DPCC",05-10-2025 07:00:00,28.684678,77.076574,SO2,2,36,14
India,Delhi,Delhi,"NSIT Dwarka, Delhi - CPCB",05-10-2025 07:00:00,28.60909,77.0325413,PM2.5,26,84,51
India,Delhi,Delhi,"Narela, Delhi - DPCC",05-10-2025 07:00:00,28.822836,77.101981,PM2.5,65,342,179
India,Delhi,Delhi,"Narela, Delhi - DPCC",05-10-2025 07:00:00,28.822836,77.101981,PM10,97,207,138
India,Delhi,Delhi,"Narela, Delhi - DPCC",05-10-2025 07:00:00,28.822836,77.101981,NO2,13,35,24
India,Delhi,Delhi,"Nehru Nagar, Delhi - DPCC",05-10-2025 07:00:00,28.567890,77.250515,PM2.5,48,243,139
India,Delhi,Delhi,"DTU, Delhi - CPCB",05-10-2025 07:00:00,28.7500499,77.1112615,NH3,6,16,9
India,Delhi,Delhi,"DTU, Delhi - CPCB",05-10-2025 07:00:00,28.7500499,77.1112615,SO2,15,24,18
India,Delhi,Delhi,"DTU, Delhi - CPCB",05-10-2025 07:00:00,28.7500499,77.1112615,OZONE,7,32,16
India,Delhi,Delhi,"Dr. Karni Singh Shooting Range, Delhi - DPCC",05-10-2025 07:00:00,28.498571,77.264840,PM2.5,50,200,127
India,Delhi,Delhi,"Dr. Karni Singh Shooting Range, Delhi - DPCC",05-10-2025 07:00:00,28.498571,77.264840,PM10,69,193,130
India,Delhi,Delhi,"Dr. Karni Singh Shooting Range, Delhi - DPCC",05-10-2025 07:00:00,28.498571,77.264840,NH3,4,6,5
India,Delhi,Delhi,"Dwarka-Sector 8, Delhi - DPCC ",05-10-2025 07:00:00,28.5710274,77.0719006,CO,8,115,72
India,Delhi,Delhi,"IHBAS, Dilshad Garden, Delhi - CPCB",05-10-2025 07:00:00,28.6811736,77.3025234,PM10,125,169,147
India,Delhi,Delhi,"IHBAS, Dilshad Garden, Delhi - CPCB",05-10-2025 07:00:00,28.6811736,77.3025234,NO2,45,50,47
India,Chhattisgarh,Raipur,"Siltara Phase-II, Raipur - CECB",05-10-2025 07:00:00,21.371751,81.664929,CO,12,36,31
India,Chhattisgarh,Tumidih,"OP Jindal Industrial Park, Tumidih - CECB",05-10-2025 07:00:00,22.06631475,83.33820077,PM2.5,12,73,37
India,Chhattisgarh,Tumidih,"OP Jindal Industrial Park, Tumidih - CECB",05-10-2025 07:00:00,22.06631475,83.33820077,NH3,1,2,2
India,Chhattisgarh,Tumidih,"OP Jindal Industrial Park, Tumidih - CECB",05-10-2025 07:00:00,22.06631475,83.33820077,CO,12,30,13
India,Chhattisgarh,Tumidih,"OP Jindal Industrial Park, Tumidih - CECB",05-10-2025 07:00:00,22.06631475,83.33820077,OZONE,5,20,9
India,Delhi,Delhi,"Alipur, Delhi - DPCC",05-10-2025 07:00:00,28.815329,77.153010,PM2.5,60,302,154
India,Delhi,Delhi,"Alipur, Delhi - DPCC",05-10-2025 07:00:00,28.815329,77.153010,NO2,11,51,28
India,Delhi,Delhi,"Anand Vihar, Delhi - DPCC",05-10-2025 07:00:00,28.647622,77.3158090,SO2,7,50,24
India,Chhattisgarh,Bhilai,"32Bungalows, Bhilai - CECB",05-10-2025 07:00:00,21.194815,81.314770,CO,10,18,11
India,Chhattisgarh,Bhilai,"32Bungalows, Bhilai - CECB",05-10-2025 07:00:00,21.194815,81.314770,OZONE,9,20,14
India,Chhattisgarh,Bhilai,"Civic Center, Bhilai - Bhilai Steel Plant",05-10-2025 07:00:00,21.185571,81.343175,NO2,7,11,9
India,Chhattisgarh,Bhilai,"Civic Center, Bhilai - Bhilai Steel Plant",05-10-2025 07:00:00,21.185571,81.343175,OZONE,7,13,11
India,Chhattisgarh,Bhilai,"Hathkhoj, Bhilai - CECB",05-10-2025 07:00:00,21.224231,81.408350,PM2.5,7,22,15
India,Chhattisgarh,Bhilai,"Hathkhoj, Bhilai - CECB",05-10-2025 07:00:00,21.224231,81.408350,CO,6,34,10
India,Chhattisgarh,Bhilai,"Hathkhoj, Bhilai - CECB",05-10-2025 07:00:00,21.224231,81.408350,OZONE,11,20,14
India,Chhattisgarh,Bilaspur,"Mangala, Bilaspur - NTPC",05-10-2025 07:00:00,22.08815,82.13737,CO,28,42,30
India,Delhi,Delhi,"Jahangirpuri, Delhi - DPCC",05-10-2025 07:00:00,28.732820,77.170633,PM10,103,271,167
India,Delhi,Delhi,"Jawaharlal Nehru Stadium, Delhi - DPCC",05-10-2025 07:00:00,28.580280,77.233829,CO,26,102,71
India,Delhi,Delhi,"Lodhi Road, Delhi - IITM",05-10-2025 07:00:00,28.588333,77.221667,PM10,53,108,86
India,Delhi,Delhi,"Lodhi Road, Delhi - IMD",05-10-2025 07:00:00,28.5918245,77.2273074,PM10,90,158,114
India,Delhi,Delhi,"Mandir Marg, Delhi - DPCC",05-10-2025 07:00:00,28.636429,77.201067,PM2.5,45,324,136
India,Delhi,Delhi,"Mandir Marg, Delhi - DPCC",05-10-2025 07:00:00,28.636429,77.201067,PM10,58,222,115
India,Delhi,Delhi,"Ashok Vihar, Delhi - DPCC",05-10-2025 07:00:00,28.695381,77.181665,OZONE,3,82,17
India,Delhi,Delhi,"Aya Nagar, Delhi - IMD",05-10-2025 07:00:00,28.4706914,77.1099364,PM10,71,164,124
India,Delhi,Delhi,"Bawana, Delhi - DPCC",05-10-2025 07:00:00,28.776200,77.051074,NH3,5,9,6
India,Delhi,Delhi,"Bawana, Delhi - DPCC",05-10-2025 07:00:00,28.776200,77.051074,OZONE,7,77,18
India,Delhi,Delhi,"Burari Crossing, Delhi - IMD",05-10-2025 07:00:00,28.7256504,77.2011573,NO2,5,32,21
India,Delhi,Delhi,"Nehru Nagar, Delhi - DPCC",05-10-2025 07:00:00,28.567890,77.250515,NO2,17,102,55
India,Delhi,Delhi,"North Campus, DU, Delhi - IMD",05-10-2025 07:00:00,28.6573814,77.1585447,PM2.5,69,318,142
India,Delhi,Delhi,"North Campus, DU, Delhi - IMD",05-10-2025 07:00:00,28.6573814,77.1585447,OZONE,16,226,55
India,Delhi,Delhi,"Okhla Phase-2, Delhi - DPCC",05-10-2025 07:00:00,28.530785,77.271255,NH3,6,9,7
India,Bihar,Samastipur,"DM Office_Kasipur, Samastipur - BSPCB",05-10-2025 07:00:00,25.859655,85.77944,SO2,19,30,24
India,Chandigarh,Chandigarh,"Sector 22, Chandigarh - CPCC",05-10-2025 07:00:00,30.735567,76.775714,OZONE,12,127,34
India,Chandigarh,Chandigarh,"Sector-53, Chandigarh - CPCC",05-10-2025 07:00:00,30.719859,76.738637,SO2,11,18,14
India,Haryana,Charkhi Dadri,"Mini Secretariat, Charkhi Dadri - HSPCB",05-10-2025 07:00:00,28.593883,76.270653,PM10,30,152,96
India,Haryana,Charkhi Dadri,"Mini Secretariat, Charkhi Dadri - HSPCB",05-10-2025 07:00:00,28.593883,76.270653,NO2,9,22,15
India,Haryana,Charkhi Dadri,"Mini Secretariat, Charkhi Dadri - HSPCB",05-10-2025 07:00:00,28.593883,76.270653,NH3,5,8,6
India,Haryana,Charkhi Dadri,"Mini Secretariat, Charkhi Dadri - HSPCB",05-10-2025 07:00:00,28.593883,76.270653,CO,10,25,15
India,Haryana,Faridabad,"New Industrial Town, Faridabad - HSPCB",05-10-2025 07:00:00,28.39072,77.30059,NH3,11,12,11
India,Haryana,Faridabad,"New Industrial Town, Faridabad - HSPCB",05-10-2025 07:00:00,28.39072,77.30059,SO2,8,8,8
India,Haryana,Faridabad,"Sector 11, Faridabad - HSPCB",05-10-2025 07:00:00,28.376058,77.315741,PM10,86,92,89
India,Haryana,Faridabad,"Sector 11, Faridabad - HSPCB",05-10-2025 07:00:00,28.376058,77.315741,NO2,30,32,31
India,Haryana,Faridabad,"Sector 11, Faridabad - HSPCB",05-10-2025 07:00:00,28.376058,77.315741,CO,48,51,49
India,Haryana,Faridabad,"Sector 30, Faridabad - HSPCB",05-10-2025 07:00:00,28.4417,77.3217,NO2,36,40,38
India,Haryana,Gurugram,"NISE Gwal Pahari, Gurugram - IMD",05-10-2025 07:00:00,28.422681,77.148944,PM10,NA,NA,NA
India,Delhi,Delhi,"Pusa, Delhi - DPCC",05-10-2025 07:00:00,28.639652,77.146275,PM2.5,78,327,158
India,Delhi,Delhi,"Pusa, Delhi - DPCC",05-10-2025 07:00:00,28.639652,77.146275,PM10,114,344,194
India,Delhi,Delhi,"Pusa, Delhi - DPCC",05-10-2025 07:00:00,28.639652,77.146275,OZONE,6,62,7
India,Delhi,Delhi,"R K Puram, Delhi - DPCC",05-10-2025 07:00:00,28.563262,77.186937,NO2,16,92,53
India,Delhi,Delhi,"R K Puram, Delhi - DPCC",05-10-2025 07:00:00,28.563262,77.186937,SO2,9,39,23
India,Delhi,Delhi,"R K Puram, Delhi - DPCC",05-10-2025 07:00:00,28.563262,77.186937,OZONE,17,122,19
India,Delhi,Delhi,"Rohini, Delhi - DPCC",05-10-2025 07:00:00,28.732528,77.119920,PM10,80,189,140
India,Delhi,Delhi,"Rohini, Delhi - DPCC",05-10-2025 07:00:00,28.732528,77.119920,CO,8,26,17
India,Delhi,Delhi,"Shadipur, Delhi - CPCB",05-10-2025 07:00:00,28.6514781,77.1473105,NO2,76,145,106
India,Delhi,Delhi,"Shadipur, Delhi - CPCB",05-10-2025 07:00:00,28.6514781,77.1473105,CO,34,103,56
India,Delhi,Delhi,"Shadipur, Delhi - CPCB",05-10-2025 07:00:00,28.6514781,77.1473105,OZONE,18,49,29
India,Haryana,Gurugram,"NISE Gwal Pahari, Gurugram - IMD",05-10-2025 07:00:00,28.422681,77.148944,OZONE,14,18,15
India,Haryana,Gurugram,"Sector-51, Gurugram - HSPCB",05-10-2025 07:00:00,28.4227,77.0667,OZONE,2,33,4
India,Haryana,Jind,"Police Lines, Jind - HSPCB",05-10-2025 07:00:00,29.307814,76.337619,CO,4,104,29
India,Haryana,Karnal,"Sector-12, Karnal - HSPCB",05-10-2025 07:00:00,29.695300,77.002700,PM10,NA,NA,NA
India,Haryana,Mandikhera,"General Hospital, Mandikhera - HSPCB",05-10-2025 07:00:00,27.9002,76.9938,CO,100,103,102
India,Haryana,Manesar,"Sector-2 IMT, Manesar - HSPCB",05-10-2025 07:00:00,28.360699,76.936090,PM10,40,111,82
India,Haryana,Manesar,"Sector-2 IMT, Manesar - HSPCB",05-10-2025 07:00:00,28.360699,76.936090,NH3,3,7,5
India,Haryana,Narnaul,"Shastri Nagar, Narnaul - HSPCB",05-10-2025 07:00:00,28.060249,76.113115,PM10,99,174,122
India,Haryana,Palwal,"Shyam Nagar, Palwal - HSPCB",05-10-2025 07:00:00,28.1485564,77.3320667,NO2,23,25,24
India,Haryana,Panchgaon,"Amity University, Panchgaon - IITM",05-10-2025 07:00:00,28.3153,76.9143,NO2,4,72,21
India,Haryana,Panchgaon,"Amity University, Panchgaon - IITM",05-10-2025 07:00:00,28.3153,76.9143,SO2,2,18,7
India,Haryana,Panchgaon,"Amity University, Panchgaon - IITM",05-10-2025 07:00:00,28.3153,76.9143,CO,6,47,28
India,Haryana,Rohtak,"MD University, Rohtak - HSPCB",05-10-2025 07:00:00,28.52123,76.37138,PM2.5,79,188,139
India,Delhi,Delhi,"Sirifort, Delhi - CPCB",05-10-2025 07:00:00,28.5504249,77.2159377,PM10,103,434,172
India,Delhi,Delhi,"Sonia Vihar, Delhi - DPCC",05-10-2025 07:00:00,28.710508,77.249485,NO2,14,47,30
India,Delhi,Delhi,"Sri Aurobindo Marg, Delhi - DPCC",05-10-2025 07:00:00,28.531346,77.190156,NO2,9,48,17
India,Delhi,Delhi,"Sri Aurobindo Marg, Delhi - DPCC",05-10-2025 07:00:00,28.531346,77.190156,SO2,4,18,11
India,Delhi,Delhi,"Sri Aurobindo Marg, Delhi - DPCC",05-10-2025 07:00:00,28.531346,77.190156,OZONE,5,64,6
India,Delhi,Delhi,"Vivek Vihar, Delhi - DPCC",05-10-2025 07:00:00,28.672342,77.315260,PM10,92,171,130
India,Gujarat,Ahmedabad,"Maninagar, Ahmedabad - GPCB",05-10-2025 07:00:00,23.002657,72.591912,PM10,NA,NA,NA
India,Gujarat,Ahmedabad,"Raikhad, Ahmedabad - IITM",05-10-2025 07:00:00,23.020509,72.579261,OZONE,1,19,1
India,Gujarat,Ahmedabad,"Rakhial, Ahmedabad - IITM",05-10-2025 07:00:00,23.016834,72.625775,PM2.5,25,50,35
India,Gujarat,Ahmedabad,"Rakhial, Ahmedabad - IITM",05-10-2025 07:00:00,23.016834,72.625775,SO2,12,104,31
India,Gujarat,Ahmedabad,"Rakhial, Ahmedabad - IITM",05-10-2025 07:00:00,23.016834,72.625775,OZONE,2,17,5
India,Gujarat,Ahmedabad,"SAC ISRO Bopal, Ahmedabad - IITM",05-10-2025 07:00:00,23.041137,72.456691,PM2.5,6,42,26
India,Gujarat,Surat,"Science Center, Surat - SMC",05-10-2025 07:00:00,21.170046,72.795405,NO2,13,24,18
India,Gujarat,Vatva,"Phase-4 GIDC, Vatva - GPCB",05-10-2025 07:00:00,22.969611,72.643500,SO2,NA,NA,NA
India,Haryana,Bahadurgarh,"Arya Nagar, Bahadurgarh - HSPCB",05-10-2025 07:00:00,28.6701,76.9254,CO,20,53,45
India,Haryana,Bahadurgarh,"Arya Nagar, Bahadurgarh - HSPCB",05-10-2025 07:00:00,28.6701,76.9254,OZONE,13,21,17
India,Haryana,Ballabgarh,"Nathu Colony, Ballabgarh - HSPCB",05-10-2025 07:00:00,28.3419248,77.319699,NO2,NA,NA,NA
India,Gujarat,Gandhinagar,"GIFT City, Gandhinagar - IITM",05-10-2025 07:00:00,23.163798,72.677768,PM10,41,71,56
India,Gujarat,Gandhinagar,"GIFT City, Gandhinagar - IITM",05-10-2025 07:00:00,23.163798,72.677768,CO,51,78,65
India,Gujarat,Gandhinagar,"IIPHG Lekawada, Gandhinagar - IITM",05-10-2025 07:00:00,23.243639,72.68994,NH3,1,2,2
India,Gujarat,Gandhinagar,"Sector-10, Gandhinagar - GPCB",05-10-2025 07:00:00,23.221714,72.654328,NO2,18,19,18
India,Gujarat,Gandhinagar,"Sector-10, Gandhinagar - GPCB",05-10-2025 07:00:00,23.221714,72.654328,NH3,1,2,1
India,Haryana,Bhiwani,"H.B. Colony, Bhiwani - HSPCB",05-10-2025 07:00:00,28.806223,76.141105,NH3,8,9,8
India,Kerala,Thiruvananthapuram,"Plammoodu, Thiruvananthapuram - Kerala PCB",05-10-2025 07:00:00,8.5149093,76.9435879,PM2.5,8,307,74
India,Kerala,Thiruvananthapuram,"Plammoodu, Thiruvananthapuram - Kerala PCB",05-10-2025 07:00:00,8.5149093,76.9435879,PM10,1,171,24
India,Kerala,Thrissur,"Corporation Ground, Thrissur - Kerala PCB",05-10-2025 07:00:00,10.532400,76.215900,PM2.5,43,52,48
India,Madhya Pradesh,Bhopal,"Idgah Hills, Bhopal - MPPCB",05-10-2025 07:00:00,23.264759,77.381568,PM10,41,187,92
India,Madhya Pradesh,Bhopal,"Idgah Hills, Bhopal - MPPCB",05-10-2025 07:00:00,23.264759,77.381568,NO2,10,39,19
India,Madhya Pradesh,Bhopal,"Idgah Hills, Bhopal - MPPCB",05-10-2025 07:00:00,23.264759,77.381568,CO,20,66,34
India,Madhya Pradesh,Bhopal,"Paryavaran Parisar, Bhopal - MPPCB",05-10-2025 07:00:00,23.210494,77.425409,PM2.5,25,52,36
India,Madhya Pradesh,Bhopal,"Paryavaran Parisar, Bhopal - MPPCB",05-10-2025 07:00:00,23.210494,77.425409,NO2,7,23,11
India,Madhya Pradesh,Bhopal,"T T Nagar, Bhopal - MPPCB",05-10-2025 07:00:00,23.233584,77.400574,SO2,9,18,14
India,Madhya Pradesh,Damoh,"Shrivastav Colony, Damoh - MPPCB",05-10-2025 07:00:00,23.81748678,79.446246,PM2.5,NA,NA,NA
India,Karnataka,Davanagere,"Devaraj Urs Badavane, Davanagere - KSPCB",05-10-2025 07:00:00,14.475800,75.905200,OZONE,23,24,24
India,Karnataka,Dharwad,"Kalabhavan, Dharwad - KSPCB",05-10-2025 07:00:00,15.459706,75.008381,PM10,43,68,54
India,Karnataka,Dharwad,"Kalabhavan, Dharwad - KSPCB",05-10-2025 07:00:00,15.459706,75.008381,NH3,3,3,3
India,Karnataka,Dharwad,"Kalabhavan, Dharwad - KSPCB",05-10-2025 07:00:00,15.459706,75.008381,CO,20,56,29
India,Karnataka,Dharwad,"Kalabhavan, Dharwad - KSPCB",05-10-2025 07:00:00,15.459706,75.008381,OZONE,13,19,15
India,Karnataka,Hubballi,"Lingaraj Nagar, Hubballi - KSPCB",05-10-2025 07:00:00,15.3714823,75.1160168,SO2,1,1,1
India,Karnataka,Kalaburagi,"Mahatma Basaveswar Colony, Kalaburgi - KSPCB",05-10-2025 07:00:00,17.336318,76.847397,NO2,10,22,14
India,Karnataka,Kalaburagi,"Mahatma Basaveswar Colony, Kalaburgi - KSPCB",05-10-2025 07:00:00,17.336318,76.847397,NH3,2,4,3
India,Karnataka,Kalaburagi,"Mahatma Basaveswar Colony, Kalaburgi - KSPCB",05-10-2025 07:00:00,17.336318,76.847397,CO,30,64,37
India,Karnataka,Karwar,"KHB Colony, Karwar - KSPCB",05-10-2025 07:00:00,14.816666,74.141003,NO2,6,9,7
India,Karnataka,Karwar,"KHB Colony, Karwar - KSPCB",05-10-2025 07:00:00,14.816666,74.141003,NH3,1,1,1
India,Karnataka,Bengaluru,"Bapuji Nagar, Bengaluru - KSPCB",05-10-2025 07:00:00,12.951913,77.539784,CO,22,152,37
India,Karnataka,Bengaluru,"Hombegowda Nagar, Bengaluru - KSPCB",05-10-2025 07:00:00,12.938539,77.590100,CO,11,133,27
India,Karnataka,Bengaluru,"Jayanagar 5th Block, Bengaluru - KSPCB",05-10-2025 07:00:00,12.920984,77.584908,PM10,18,124,43
India,Karnataka,Bengaluru,"Jayanagar 5th Block, Bengaluru - KSPCB",05-10-2025 07:00:00,12.920984,77.584908,NO2,18,85,42
India,Karnataka,Bengaluru,"Jayanagar 5th Block, Bengaluru - KSPCB",05-10-2025 07:00:00,12.920984,77.584908,SO2,3,23,11
India,Karnataka,Bengaluru,"Peenya, Bengaluru - CPCB",05-10-2025 07:00:00,13.0270199,77.494094,CO,17,82,23
India,Karnataka,Bengaluru,"Peenya, Bengaluru - CPCB",05-10-2025 07:00:00,13.0270199,77.494094,OZONE,27,28,28
India,Karnataka,Bengaluru,"RVCE-Mailasandra, Bengaluru - KSPCB",05-10-2025 07:00:00,12.921418,77.502466,PM2.5,NA,NA,NA
India,Karnataka,Bengaluru,"RVCE-Mailasandra, Bengaluru - KSPCB",05-10-2025 07:00:00,12.921418,77.502466,SO2,6,6,6
India,Karnataka,Bengaluru,"Sanegurava Halli, Bengaluru - KSPCB",05-10-2025 07:00:00,12.990328,77.5431385,CO,8,100,19
India,Jammu_and_Kashmir,Srinagar,"Rajbagh, Srinagar - JKSPCB",05-10-2025 07:00:00,34.066206,74.819820,PM2.5,28,53,38
India,Jammu_and_Kashmir,Srinagar,"Rajbagh, Srinagar - JKSPCB",05-10-2025 07:00:00,34.066206,74.819820,PM10,35,67,48
India,Jammu_and_Kashmir,Srinagar,"Rajbagh, Srinagar - JKSPCB",05-10-2025 07:00:00,34.066206,74.819820,OZONE,1,28,3
India,Jharkhand,Dhanbad,"Sardar Patel Nagar, Dhanbad - JSPCB",05-10-2025 07:00:00,23.80569,86.44268,NO2,91,155,96
India,Jharkhand,Jorapokhar,"Tata Stadium, Jorapokhar - JSPCB",05-10-2025 07:00:00,23.707909,86.414670,PM10,NA,NA,NA
India,Karnataka,Bagalkot,"Vidayagiri, Bagalkot - KSPCB",05-10-2025 07:00:00,16.172806,75.659694,PM2.5,33,35,34
India,Karnataka,Bagalkot,"Vidayagiri, Bagalkot - KSPCB",05-10-2025 07:00:00,16.172806,75.659694,PM10,42,43,42
India,Karnataka,Bengaluru,"Bapuji Nagar, Bengaluru - KSPCB",05-10-2025 07:00:00,12.951913,77.539784,PM2.5,20,155,52
India,Karnataka,Bengaluru,"Bapuji Nagar, Bengaluru - KSPCB",05-10-2025 07:00:00,12.951913,77.539784,PM10,30,160,71
India,Karnataka,Yadgir,"Collector Office, Yadgir - KSPCB",05-10-2025 07:00:00,16.7602,77.1428,PM2.5,NA,NA,NA
India,Karnataka,Yadgir,"Collector Office, Yadgir - KSPCB",05-10-2025 07:00:00,16.7602,77.1428,PM10,NA,NA,NA
India,Kerala,Eloor,"Udyogamandal, Eloor - Kerala PCB",05-10-2025 07:00:00,10.073232,76.302765,PM2.5,44,82,54
India,Kerala,Eloor,"Udyogamandal, Eloor - Kerala PCB",05-10-2025 07:00:00,10.073232,76.302765,PM10,42,65,48
India,Kerala,Kannur,"Thavakkara, Kannur - Kerala PCB",05-10-2025 07:00:00,11.875000,75.373200,PM2.5,47,60,51
India,Kerala,Kannur,"Thavakkara, Kannur - Kerala PCB",05-10-2025 07:00:00,11.875000,75.373200,NO2,12,17,14
India,Kerala,Kollam,"Polayathode, Kollam - Kerala PCB",05-10-2025 07:00:00,8.8787,76.6073,NH3,NA,NA,NA
India,Kerala,Thiruvananthapuram,"Kariavattom, Thiruvananthapuram - Kerala PCB",05-10-2025 07:00:00,8.563700,76.886500,PM10,46,74,55
India,Madhya Pradesh,Damoh,"Shrivastav Colony, Damoh - MPPCB",05-10-2025 07:00:00,23.81748678,79.446246,CO,19,27,24
India,Madhya Pradesh,Dewas,"Bhopal Chauraha, Dewas - MPPCB",05-10-2025 07:00:00,22.9682591,76.064118,OZONE,13,32,24
India,Madhya Pradesh,Gwalior,"Deen Dayal Nagar, Gwalior - MPPCB",05-10-2025 07:00:00,26.259242,78.216432,PM10,14,175,63
India,Madhya Pradesh,Gwalior,"Deen Dayal Nagar, Gwalior - MPPCB",05-10-2025 07:00:00,26.259242,78.216432,OZONE,37,94,53
India,Madhya Pradesh,Gwalior,"Maharaj Bada, Gwalior - MPPCB",05-10-2025 07:00:00,26.200388,78.147714,NH3,2,2,2
India,Madhya Pradesh,Gwalior,"Maharaj Bada, Gwalior - MPPCB",05-10-2025 07:00:00,26.200388,78.147714,OZONE,18,36,21
India,Madhya Pradesh,Indore,"Chhoti Gwaltoli, Indore - MPPCB",05-10-2025 07:00:00,22.4310,75.5213,PM2.5,38,66,51
India,Karnataka,Bengaluru,"Shivapura_Peenya, Bengaluru - KSPCB",05-10-2025 07:00:00,13.0246342,77.5080115,CO,26,86,55
India,Karnataka,Bengaluru,"Silk Board, Bengaluru - KSPCB",05-10-2025 07:00:00,12.917348,77.622813,PM2.5,NA,NA,NA
India,Karnataka,Bengaluru,"Silk Board, Bengaluru - KSPCB",05-10-2025 07:00:00,12.917348,77.622813,NH3,NA,NA,NA
India,Karnataka,Chamarajanagar,"Urban, Chamarajanagar - KSPCB",05-10-2025 07:00:00,11.55358,76.55521,PM2.5,37,39,38
India,Karnataka,Chamarajanagar,"Urban, Chamarajanagar - KSPCB",05-10-2025 07:00:00,11.55358,76.55521,NO2,24,30,28
India,Karnataka,Chikkaballapur,"Chikkaballapur Rural, Chikkaballapur - KSPCB",05-10-2025 07:00:00,13.428828,77.731418,PM2.5,NA,NA,NA
India,Karnataka,Chikkaballapur,"Chikkaballapur Rural, Chikkaballapur - KSPCB",05-10-2025 07:00:00,13.428828,77.731418,NO2,NA,NA,NA
India,Karnataka,Davanagere,"Devaraj Urs Badavane, Davanagere - KSPCB",05-10-2025 07:00:00,14.475800,75.905200,PM2.5,11,42,24
India,Karnataka,Koppal,"Diwator Nagar, Koppal - KSPCB",05-10-2025 07:00:00,15.347630,76.181767,OZONE,11,15,14
India,Karnataka,Madikeri,"Stuart Hill, Madikeri - KSPCB",05-10-2025 07:00:00,12.415911,75.735050,CO,NA,NA,NA
India,Karnataka,Mysuru,"Hebbal 1st Stage, Mysuru - KSPCB",05-10-2025 07:00:00,12.21041,76.37376,PM10,23,47,33
India,Karnataka,Mysuru,"Hebbal 1st Stage, Mysuru - KSPCB",05-10-2025 07:00:00,12.21041,76.37376,CO,3,35,8
