country,state,city,station,last_update,latitude,longitude,pollutant_id,min_value,max_value,avg_value
India,Bihar,Muzaffarpur,"Muzaffarpur Collectorate, Muzaffarpur - BSPCB",21-04-2026 09:00:00,26.1209,85.3647,OZONE,7,22,8
India,Bihar,Patna,"DRM Office Danapur, Patna - BSPCB",21-04-2026 09:00:00,25.586562,85.043586,OZONE,13,335,31
India,Bihar,Patna,"Govt. High School Shikarpur, Patna - BSPCB",21-04-2026 09:00:00,25.592539,85.227158,PM2.5,87,357,237
India,Bihar,Patna,"Govt. High School Shikarpur, Patna - BSPCB",21-04-2026 09:00:00,25.592539,85.227158,OZONE,20,89,29
India,Bihar,Patna,"IGSC Planetarium Complex, Patna - BSPCB",21-04-2026 09:00:00,25.610369,85.132568,PM2.5,55,300,171
India,Bihar,Patna,"IGSC Planetarium Complex, Patna - BSPCB",21-04-2026 09:00:00,25.610369,85.132568,CO,6,39,26
India,Bihar,Patna,"Muradpur, Patna - BSPCB",21-04-2026 09:00:00,25.619651,85.147382,PM10,101,323,177
India,Bihar,Patna,"Muradpur, Patna - BSPCB",21-04-2026 09:00:00,25.619651,85.147382,NO2,10,11,11
India,Bihar,Patna,"Rajbansi Nagar, Patna - BSPCB",21-04-2026 09:00:00,25.599486,85.113666,CO,58,107,75
India,Bihar,Patna,"Rajbansi Nagar, Patna - BSPCB",21-04-2026 09:00:00,25.599486,85.113666,OZONE,28,34,31
India,Assam,Guwahati,"Railway Colony, Guwahati - PCBA",21-04-2026 09:00:00,26.181742,91.78063,NH3,1,1,1
India,Assam,Guwahati,"Railway Colony, Guwahati - PCBA",21-04-2026 09:00:00,26.181742,91.78063,OZONE,1,4,2
India,Assam,Nagaon,"Christianpatty, Nagaon - PCBA",21-04-2026 09:00:00,26.349082,92.68449,NO2,1,313,40
India,Assam,Nagaon,"Christianpatty, Nagaon - PCBA",21-04-2026 09:00:00,26.349082,92.68449,NH3,1,4,4
India,Assam,Nalbari,"Bata Chowk, Nalbari - PCBA",21-04-2026 09:00:00,26.446912,91.439057,OZONE,11,149,129
India,Assam,Silchar,"Tarapur, Silchar - PCBA",21-04-2026 09:00:00,24.82827,92.79525,PM2.5,13,46,30
India,Assam,Silchar,"Tarapur, Silchar - PCBA",21-04-2026 09:00:00,24.82827,92.79525,PM10,41,58,47
India,Assam,Sivasagar,"Girls College, Sivasagar - PCBA",21-04-2026 09:00:00,26.987634,94.636574,NO2,23,33,29
India,Bihar,Araria,"Kharahiya Basti, Araria - BSPCB",21-04-2026 09:00:00,26.146529,87.454184,PM10,51,129,91
India,Bihar,Araria,"Kharahiya Basti, Araria - BSPCB",21-04-2026 09:00:00,26.146529,87.454184,NH3,5,6,6
India,Andhra_Pradesh,Visakhapatnam,"GVM Corporation, Visakhapatnam - APPCB",21-04-2026 09:00:00,17.72,83.3,OZONE,4,32,7
India,Arunachal_Pradesh,Naharlagun,"Naharlagun, Naharlagun - APSPCB",21-04-2026 09:00:00,27.103358,93.679645,PM2.5,5,142,35
India,Assam,Byrnihat,"Central Academy for SFS, Byrnihat - PCBA",21-04-2026 09:00:00,26.071318,91.87488,PM2.5,49,302,114
India,Assam,Byrnihat,"Central Academy for SFS, Byrnihat - PCBA",21-04-2026 09:00:00,26.071318,91.87488,PM10,44,164,82
India,Assam,Guwahati,"IITG, Guwahati - PCBA",21-04-2026 09:00:00,26.2028636,91.70046436,SO2,33,37,34
India,Assam,Guwahati,"IITG, Guwahati - PCBA",21-04-2026 09:00:00,26.2028636,91.70046436,OZONE,2,36,15
India,Assam,Guwahati,"LGBI Airport, Guwahati - PCBA",21-04-2026 09:00:00,26.10887,91.589544,NO2,12,27,17
India,Assam,Guwahati,"LGBI Airport, Guwahati - PCBA",21-04-2026 09:00:00,26.10887,91.589544,OZONE,9,13,11
India,Andhra_Pradesh,Kadapa,"Yerramukkapalli, Kadapa - APPCB",21-04-2026 09:00:00,14.465052,78.824187,PM2.5,47,82,57
India,Andhra_Pradesh,Machilipatnam,"Srinivas Nagar Colony, Machilipatnam - APPCB",21-04-2026 09:00:00,16.186555,81.13219,CO,8,44,10
India,Andhra_Pradesh,Nellore,"Ambedkar Nagar, Nellore - APPCB ",21-04-2026 09:00:00,14.438164 ,79.966814 ,PM2.5,27,72,39
India,Andhra_Pradesh,Nellore,"Ambedkar Nagar, Nellore - APPCB ",21-04-2026 09:00:00,14.438164 ,79.966814 ,OZONE,4,39,6
India,Andhra_Pradesh,Rajamahendravaram,"Anand Kala Kshetram, Rajamahendravaram - APPCB",21-04-2026 09:00:00,16.9872867,81.7363176,NH3,1,3,2
India,Andhra_Pradesh,Tirumala,"Toll Gate, Tirumala - APPCB",21-04-2026 09:00:00,13.67,79.35,OZONE,19,79,27
India,Andhra_Pradesh,Tirupati,"Vaikuntapuram, Tirupati - APPCB",21-04-2026 09:00:00,13.615387,79.409230,NH3,4,7,5
India,Bihar,Arrah,"New DM Office, Arrah - BSPCB",21-04-2026 09:00:00,25.5626095,84.663264,PM10,32,153,79
India,Bihar,Arrah,"New DM Office, Arrah - BSPCB",21-04-2026 09:00:00,25.5626095,84.663264,NH3,1,2,2
India,Bihar,Aurangabad,"Gurdeo Nagar, Aurangabad - BSPCB",21-04-2026 09:00:00,24.75746,84.366208,NO2,7,8,8
India,Bihar,Begusarai,"Lohiyanagar, Begusarai - BSPCB",21-04-2026 09:00:00,25.42742023,86.13886079,PM10,49,140,89
India,Bihar,Begusarai,"Lohiyanagar, Begusarai - BSPCB",21-04-2026 09:00:00,25.42742023,86.13886079,CO,4,19,14
India,Bihar,Bettiah,"Kamalnath Nagar, Bettiah - BSPCB",21-04-2026 09:00:00,26.80365,84.51954,NO2,NA,NA,NA
India,Bihar,Bettiah,"Kamalnath Nagar, Bettiah - BSPCB",21-04-2026 09:00:00,26.80365,84.51954,OZONE,18,23,22
India,Bihar,Bhagalpur,"Mayaganj, Bhagalpur - BSPCB",21-04-2026 09:00:00,25.265194,87.012947,PM2.5,38,328,220
India,Bihar,Manguraha,"Forest Rest House, Manguraha - BSPCB",21-04-2026 09:00:00,27.308328,84.531742,NO2,1,36,9
India,Bihar,Manguraha,"Forest Rest House, Manguraha - BSPCB",21-04-2026 09:00:00,27.308328,84.531742,NH3,1,1,1
India,Bihar,Motihari,"Gandak Colony, Motihari - BSPCB",21-04-2026 09:00:00,26.63086,84.90051,PM10,51,217,102
India,Bihar,Munger,"Town Hall, Munger - BSPCB",21-04-2026 09:00:00,25.376776,86.471523,NH3,3,3,3
India,Bihar,Muzaffarpur,"Buddha Colony, Muzaffarpur - BSPCB",21-04-2026 09:00:00,26.11442,85.39813,PM10,68,246,129
India,Bihar,Muzaffarpur,"MIT-Daudpur Kothi, Muzaffarpur - BSPCB",21-04-2026 09:00:00,26.1403345,85.3650192,PM2.5,62,82,71
India,Bihar,Muzaffarpur,"MIT-Daudpur Kothi, Muzaffarpur - BSPCB",21-04-2026 09:00:00,26.1403345,85.3650192,NO2,2,10,5
India,Bihar,Muzaffarpur,"MIT-Daudpur Kothi, Muzaffarpur - BSPCB",21-04-2026 09:00:00,26.1403345,85.3650192,SO2,4,20,11
India,Andhra_Pradesh,Vijayawada,"HB Colony, Vijayawada - APPCB",21-04-2026 09:00:00,16.536107,80.594233,NH3,3,6,4
India,Andhra_Pradesh,Vijayawada,"Kanuru, Vijayawada - APPCB",21-04-2026 09:00:00,16.486692,80.699436,NO2,NA,NA,NA
India,Andhra_Pradesh,Vijayawada,"Rajiv Gandhi Park, Vijayawada - APPCB",21-04-2026 09:00:00,16.509717,80.612222,PM2.5,40,44,41
India,Andhra_Pradesh,Vijayawada,"Rajiv Gandhi Park, Vijayawada - APPCB",21-04-2026 09:00:00,16.509717,80.612222,PM10,38,41,39
India,Andhra_Pradesh,Vijayawada,"Rajiv Gandhi Park, Vijayawada - APPCB",21-04-2026 09:00:00,16.509717,80.612222,NH3,8,9,9
India,Andhra_Pradesh,Vijayawada,"Rajiv Gandhi Park, Vijayawada - APPCB",21-04-2026 09:00:00,16.509717,80.612222,CO,32,57,35
India,Andhra_Pradesh,Vijayawada,"Rajiv Nagar, Vijayawada - APPCB",21-04-2026 09:00:00,16.554731,80.649110,PM10,NA,NA,NA
India,Andhra_Pradesh,Vijayawada,"Rajiv Nagar, Vijayawada - APPCB",21-04-2026 09:00:00,16.554731,80.649110,SO2,NA,NA,NA
India,Bihar,Bihar Sharif,"D M Colony, Bihar Sharif - BSPCB",21-04-2026 09:00:00,25.204762,85.514960,SO2,9,10,10
India,Bihar,Buxar,"Charitra Van, Buxar - BSPCB",21-04-2026 09:00:00,25.567520,83.966379,NH3,3,3,3
India,Bihar,Buxar,"Charitra Van, Buxar - BSPCB",21-04-2026 09:00:00,25.567520,83.966379,CO,22,28,23
India,Bihar,Chhapra,"Darshan Nagar, Chhapra - BSPCB",21-04-2026 09:00:00,25.7808257,84.7446768,NH3,NA,NA,NA
India,Bihar,Chhapra,"Darshan Nagar, Chhapra - BSPCB",21-04-2026 09:00:00,25.7808257,84.7446768,SO2,NA,NA,NA
India,Bihar,Gaya,"Kareemganj, Gaya - BSPCB",21-04-2026 09:00:00,24.792403,84.992416,NO2,8,13,11
India,Bihar,Gaya,"Kareemganj, Gaya - BSPCB",21-04-2026 09:00:00,24.792403,84.992416,SO2,31,48,39
India,Bihar,Gaya,"SFTI Kusdihra, Gaya - BSPCB",21-04-2026 09:00:00,24.762518,84.982348,PM2.5,50,74,63
India,Bihar,Hajipur,"Industrial Area, Hajipur - BSPCB",21-04-2026 09:00:00,25.697189,85.245900,OZONE,10,169,30
India,Bihar,Katihar,"Mirchaibari, Katihar - BSPCB",21-04-2026 09:00:00,25.560083,87.553265,PM10,39,64,48
India,Bihar,Katihar,"Mirchaibari, Katihar - BSPCB",21-04-2026 09:00:00,25.560083,87.553265,OZONE,5,57,11
India,Bihar,Kishanganj,"SDM Office_Khagra, Kishanganj - BSPCB",21-04-2026 09:00:00,26.0881305,87.93840336,PM2.5,40,73,50
India,Bihar,Kishanganj,"SDM Office_Khagra, Kishanganj - BSPCB",21-04-2026 09:00:00,26.0881305,87.93840336,NO2,7,8,8
India,Andhra_Pradesh,Amaravati,"Secretariat, Amaravati - APPCB",21-04-2026 09:00:00,16.5150833,80.5181667,PM2.5,8,58,30
India,Andhra_Pradesh,Amaravati,"Secretariat, Amaravati - APPCB",21-04-2026 09:00:00,16.5150833,80.5181667,NO2,13,21,16
India,Andhra_Pradesh,Amaravati,"Secretariat, Amaravati - APPCB",21-04-2026 09:00:00,16.5150833,80.5181667,OZONE,10,72,16
India,Andhra_Pradesh,Eluru,"District Court, Eluru - APPCB",21-04-2026 09:00:00,16.711754,81.092095,PM10,33,71,53
India,Andhra_Pradesh,Guntur,"Rajendra Nagar North, Guntur - APPCB",21-04-2026 09:00:00,16.316553,80.413302,PM10,70,103,85
India,Delhi,Delhi,"Bawana, Delhi - DPCC",21-04-2026 09:00:00,28.776200,77.051074,NH3,5,6,5
India,Delhi,Delhi,"Bawana, Delhi - DPCC",21-04-2026 09:00:00,28.776200,77.051074,SO2,9,64,24
India,Delhi,Delhi,"Bawana, Delhi - DPCC",21-04-2026 09:00:00,28.776200,77.051074,CO,30,59,42
India,Delhi,Delhi,"Burari Crossing, Delhi - IMD",21-04-2026 09:00:00,28.7256504,77.2011573,PM10,101,232,155
India,Delhi,Delhi,"CRRI Mathura Road, Delhi - IMD",21-04-2026 09:00:00,28.5512005,77.2735737,PM2.5,18,202,103
India,Delhi,Delhi,"Cantonment Area, Delhi - DPCC ",21-04-2026 09:00:00,28.594169 ,77.125100 ,PM2.5,19,62,36
India,Delhi,Delhi,"Cantonment Area, Delhi - DPCC ",21-04-2026 09:00:00,28.594169 ,77.125100 ,NH3,1,4,2
India,Delhi,Delhi,"Chandni Chowk, Delhi - IITM",21-04-2026 09:00:00,28.656756,77.227234,NO2,38,158,92
India,Delhi,Delhi,"Chandni Chowk, Delhi - IITM",21-04-2026 09:00:00,28.656756,77.227234,NH3,8,11,10
India,Delhi,Delhi,"Commonwealth Sports Complex, Delhi - DPCC",21-04-2026 09:00:00,28.615828 ,77.271992 ,PM10,103,231,158
India,Delhi,Delhi,"Commonwealth Sports Complex, Delhi - DPCC",21-04-2026 09:00:00,28.615828 ,77.271992 ,CO,30,76,53
India,Bihar,Sasaram,"Dada Peer, Sasaram - BSPCB",21-04-2026 09:00:00,24.952822,84.002396,OZONE,12,24,19
India,Bihar,Siwan,"Chitragupta Nagar, Siwan - BSPCB",21-04-2026 09:00:00,26.2271665,84.3570427,PM2.5,16,93,51
India,Chandigarh,Chandigarh,"Sector 22, Chandigarh - CPCC",21-04-2026 09:00:00,30.735567,76.775714,PM2.5,18,133,59
India,Chandigarh,Chandigarh,"Sector 22, Chandigarh - CPCC",21-04-2026 09:00:00,30.735567,76.775714,NH3,14,26,19
India,Chandigarh,Chandigarh,"Sector 22, Chandigarh - CPCC",21-04-2026 09:00:00,30.735567,76.775714,SO2,5,21,11
India,Chandigarh,Chandigarh,"Sector-25, Chandigarh - CPCC",21-04-2026 09:00:00,30.751462,76.762879,OZONE,NA,NA,NA
India,Chandigarh,Chandigarh,"Sector-53, Chandigarh - CPCC",21-04-2026 09:00:00,30.719859,76.738637,PM2.5,15,55,34
India,Chhattisgarh,Bhilai,"32Bungalows, Bhilai - CECB",21-04-2026 09:00:00,21.194815,81.314770,NO2,7,35,16
India,Chhattisgarh,Bhilai,"32Bungalows, Bhilai - CECB",21-04-2026 09:00:00,21.194815,81.314770,NH3,3,4,4
India,Chhattisgarh,Bhilai,"32Bungalows, Bhilai - CECB",21-04-2026 09:00:00,21.194815,81.314770,SO2,6,36,16
India,Delhi,Delhi,"Dr. Karni Singh Shooting Range, Delhi - DPCC",21-04-2026 09:00:00,28.498571,77.264840,SO2,16,58,30
India,Delhi,Delhi,"Dwarka-Sector 8, Delhi - DPCC ",21-04-2026 09:00:00,28.5710274,77.0719006,NO2,NA,NA,NA
India,Delhi,Delhi,"Dwarka-Sector 8, Delhi - DPCC ",21-04-2026 09:00:00,28.5710274,77.0719006,NH3,3,26,5
India,Delhi,Delhi,"IGI Airport (T3), Delhi - IMD",21-04-2026 09:00:00,28.5627763,77.1180053,PM2.5,30,300,110
India,Delhi,Delhi,"IGI Airport (T3), Delhi - IMD",21-04-2026 09:00:00,28.5627763,77.1180053,PM10,88,271,166
India,Delhi,Delhi,"IGNOU_Maidan Garhi, Delhi - DPCC",21-04-2026 09:00:00,28.493624 ,77.201159 ,PM2.5,10,313,134
India,Delhi,Delhi,"IGNOU_Maidan Garhi, Delhi - DPCC",21-04-2026 09:00:00,28.493624 ,77.201159 ,NO2,8,117,52
India,Delhi,Delhi,"IHBAS, Dilshad Garden, Delhi - CPCB",21-04-2026 09:00:00,28.6811736,77.3025234,OZONE,18,69,24
India,Delhi,Delhi,"IIT Delhi, Delhi - IITM",21-04-2026 09:00:00,28.542460,77.191651,PM2.5,NA,NA,NA
India,Bihar,Patna,"Samanpura, Patna - BSPCB",21-04-2026 09:00:00,25.596727,85.085624,OZONE,10,131,34
India,Bihar,Rajgir,"Dangi Tola, Rajgir - BSPCB",21-04-2026 09:00:00,25.03280,85.41948,NO2,13,15,14
India,Bihar,Saharsa,"Police Line, Saharsa - BSPCB",21-04-2026 09:00:00,25.892357,86.590325,NO2,6,9,7
India,Bihar,Saharsa,"Police Line, Saharsa - BSPCB",21-04-2026 09:00:00,25.892357,86.590325,SO2,16,20,18
India,Bihar,Saharsa,"Police Line, Saharsa - BSPCB",21-04-2026 09:00:00,25.892357,86.590325,OZONE,7,35,20
India,Bihar,Samastipur,"DM Office_Kasipur, Samastipur - BSPCB",21-04-2026 09:00:00,25.859655,85.77944,OZONE,NA,NA,NA
India,Bihar,Sasaram,"Dada Peer, Sasaram - BSPCB",21-04-2026 09:00:00,24.952822,84.002396,PM2.5,15,64,34
India,Bihar,Sasaram,"Dada Peer, Sasaram - BSPCB",21-04-2026 09:00:00,24.952822,84.002396,PM10,68,146,101
India,Bihar,Sasaram,"Dada Peer, Sasaram - BSPCB",21-04-2026 09:00:00,24.952822,84.002396,NO2,1,8,3
India,Chhattisgarh,Bhilai,"32Bungalows, Bhilai - CECB",21-04-2026 09:00:00,21.194815,81.314770,OZONE,14,37,17
India,Chhattisgarh,Bhilai,"Hathkhoj, Bhilai - CECB",21-04-2026 09:00:00,21.224231,81.408350,PM2.5,23,39,29
India,Chhattisgarh,Bhilai,"Hathkhoj, Bhilai - CECB",21-04-2026 09:00:00,21.224231,81.408350,CO,10,40,25
India,Chhattisgarh,Chhal,"Nawapara SECL Colony, Chhal - CECB",21-04-2026 09:00:00,22.118125,83.140608,SO2,NA,NA,NA
India,Chhattisgarh,Chhal,"Nawapara SECL Colony, Chhal - CECB",21-04-2026 09:00:00,22.118125,83.140608,CO,NA,NA,NA
India,Chhattisgarh,Chhal,"Nawapara SECL Colony, Chhal - CECB",21-04-2026 09:00:00,22.118125,83.140608,OZONE,NA,NA,NA
India,Chhattisgarh,Korba,"Rampur, Korba - CECB",21-04-2026 09:00:00,22.368195,82.746431,PM10,43,171,75
India,Chhattisgarh,Korba,"Rampur, Korba - CECB",21-04-2026 09:00:00,22.368195,82.746431,CO,8,38,24
India,Delhi,Delhi,"Major Dhyan Chand National Stadium, Delhi - DPCC",21-04-2026 09:00:00,28.611281,77.237738,NO2,17,132,71
India,Delhi,Delhi,"Major Dhyan Chand National Stadium, Delhi - DPCC",21-04-2026 09:00:00,28.611281,77.237738,NH3,14,18,15
India,Delhi,Delhi,"Mandir Marg, Delhi - DPCC",21-04-2026 09:00:00,28.636429,77.201067,OZONE,2,50,6
India,Delhi,Delhi,"NSIT Dwarka, Delhi - CPCB",21-04-2026 09:00:00,28.60909,77.0325413,NO2,68,134,100
India,Delhi,Delhi,"NSIT Dwarka, Delhi - CPCB",21-04-2026 09:00:00,28.60909,77.0325413,SO2,8,19,17
India,Delhi,Delhi,"Najafgarh, Delhi - DPCC",21-04-2026 09:00:00,28.570173,76.933762,PM10,86,389,186
India,Delhi,Delhi,"ITO, Delhi - CPCB",21-04-2026 09:00:00,28.628624,77.241060,PM10,77,224,129
India,Delhi,Delhi,"ITO, Delhi - CPCB",21-04-2026 09:00:00,28.628624,77.241060,NO2,16,85,44
India,Delhi,Delhi,"ITO, Delhi - CPCB",21-04-2026 09:00:00,28.628624,77.241060,CO,26,80,43
India,Delhi,Delhi,"ITO, Delhi - CPCB",21-04-2026 09:00:00,28.628624,77.241060,OZONE,19,62,29
India,Delhi,Delhi,"Jawaharlal Nehru Stadium, Delhi - DPCC",21-04-2026 09:00:00,28.580280,77.233829,NH3,11,14,12
India,Delhi,Delhi,"Lodhi Road, Delhi - IMD",21-04-2026 09:00:00,28.5918245,77.2273074,CO,9,38,26
India,Chhattisgarh,Kunjemura,"OP Jindal School, Kunjemura - CECB",21-04-2026 09:00:00,22.126650,83.483212,PM10,61,122,94
India,Chhattisgarh,Kunjemura,"OP Jindal School, Kunjemura - CECB",21-04-2026 09:00:00,22.126650,83.483212,SO2,13,24,19
India,Chhattisgarh,Raipur,"AIIMS, Raipur - CECB",21-04-2026 09:00:00,21.258815,81.578979,PM10,33,160,60
India,Chhattisgarh,Raipur,"AIIMS, Raipur - CECB",21-04-2026 09:00:00,21.258815,81.578979,NH3,3,4,4
India,Chhattisgarh,Raipur,"Bhatagaon New ISBT, Raipur - CECB",21-04-2026 09:00:00,21.219665,81.630094,NH3,2,2,2
India,Delhi,Delhi,"Alipur, Delhi - DPCC",21-04-2026 09:00:00,28.815329,77.153010,OZONE,10,34,13
India,Delhi,Delhi,"Anand Vihar, Delhi - DPCC",21-04-2026 09:00:00,28.647622,77.3158090,CO,13,74,38
India,Delhi,Delhi,"Anand Vihar, Delhi - DPCC",21-04-2026 09:00:00,28.647622,77.3158090,OZONE,1,28,12
India,Delhi,Delhi,"Ashok Vihar, Delhi - DPCC",21-04-2026 09:00:00,28.695381,77.181665,NH3,6,7,7
India,Delhi,Delhi,"Wazirpur, Delhi - DPCC",21-04-2026 09:00:00,28.699793,77.165453,NH3,7,12,9
India,Delhi,Delhi,"Wazirpur, Delhi - DPCC",21-04-2026 09:00:00,28.699793,77.165453,OZONE,7,69,25
India,Gujarat,Ahmedabad,"Chandkheda, Ahmedabad - IITM",21-04-2026 09:00:00,23.107969,72.574648,PM2.5,33,66,47
India,Gujarat,Ahmedabad,"Gyaspur, Ahmedabad - IITM",21-04-2026 09:00:00,22.977134,72.553024,CO,2,46,2
India,Gujarat,Ahmedabad,"Gyaspur, Ahmedabad - IITM",21-04-2026 09:00:00,22.977134,72.553024,OZONE,1,36,2
India,Gujarat,Ahmedabad,"Maninagar, Ahmedabad - GPCB",21-04-2026 09:00:00,23.002657,72.591912,PM2.5,49,256,95
India,Gujarat,Ahmedabad,"Maninagar, Ahmedabad - GPCB",21-04-2026 09:00:00,23.002657,72.591912,CO,10,107,26
India,Gujarat,Ahmedabad,"Maninagar, Ahmedabad - GPCB",21-04-2026 09:00:00,23.002657,72.591912,OZONE,34,96,44
India,Gujarat,Ahmedabad,"Raikhad, Ahmedabad - IITM",21-04-2026 09:00:00,23.020509,72.579261,NO2,21,173,60
India,Gujarat,Ahmedabad,"Rakhial, Ahmedabad - IITM",21-04-2026 09:00:00,23.016834,72.625775,PM10,67,295,127
India,Gujarat,Ahmedabad,"Rakhial, Ahmedabad - IITM",21-04-2026 09:00:00,23.016834,72.625775,OZONE,2,72,8
India,Gujarat,Ahmedabad,"SAC ISRO Bopal, Ahmedabad - IITM",21-04-2026 09:00:00,23.041137,72.456691,PM10,66,113,80
India,Gujarat,Ahmedabad,"SVPI Airport Hansol, Ahmedabad - IITM",21-04-2026 09:00:00,23.076793,72.627874,NO2,12,100,33
India,Gujarat,Ahmedabad,"SVPI Airport Hansol, Ahmedabad - IITM",21-04-2026 09:00:00,23.076793,72.627874,NH3,2,6,2
India,Gujarat,Ahmedabad,"SVPI Airport Hansol, Ahmedabad - IITM",21-04-2026 09:00:00,23.076793,72.627874,OZONE,4,115,19
India,Gujarat,Ankleshwar,"GIDC, Ankleshwar - GPCB",21-04-2026 09:00:00,21.613267,73.010555,OZONE,8,42,16
India,Gujarat,Bhavnagar,"Vidhyanagar, Bhavnagar - Nexteng Enviro",21-04-2026 09:00:00,21.755417,72.139056,NO2,61,83,71
India,Gujarat,Bhavnagar,"Vidhyanagar, Bhavnagar - Nexteng Enviro",21-04-2026 09:00:00,21.755417,72.139056,CO,106,111,108
India,Gujarat,Bhavnagar,"Vidhyanagar, Bhavnagar - Nexteng Enviro",21-04-2026 09:00:00,21.755417,72.139056,OZONE,3,34,4
India,Delhi,Delhi,"Pusa, Delhi - DPCC",21-04-2026 09:00:00,28.639652,77.146275,SO2,17,67,35
India,Delhi,Delhi,"Pusa, Delhi - IMD",21-04-2026 09:00:00,28.636110,77.173332,PM10,72,283,146
India,Delhi,Delhi,"Pusa, Delhi - IMD",21-04-2026 09:00:00,28.636110,77.173332,NO2,1,54,24
India,Delhi,Delhi,"Pusa, Delhi - IMD",21-04-2026 09:00:00,28.636110,77.173332,CO,6,116,109
India,Delhi,Delhi,"R K Puram, Delhi - DPCC",21-04-2026 09:00:00,28.563262,77.186937,NO2,11,120,66
India,Delhi,Delhi,"R K Puram, Delhi - DPCC",21-04-2026 09:00:00,28.563262,77.186937,SO2,27,112,43
India,Delhi,Delhi,"R K Puram, Delhi - DPCC",21-04-2026 09:00:00,28.563262,77.186937,OZONE,8,60,11
India,Delhi,Delhi,"Rohini, Delhi - DPCC",21-04-2026 09:00:00,28.732528,77.119920,PM10,113,405,197
India,Delhi,Delhi,"Rohini, Delhi - DPCC",21-04-2026 09:00:00,28.732528,77.119920,NO2,8,65,33
India,Delhi,Delhi,"Rohini, Delhi - DPCC",21-04-2026 09:00:00,28.732528,77.119920,SO2,9,60,25
India,Gujarat,Gandhinagar,"GIFT City, Gandhinagar - IITM",21-04-2026 09:00:00,23.163798,72.677768,PM2.5,56,56,56
India,Gujarat,Gandhinagar,"GIFT City, Gandhinagar - IITM",21-04-2026 09:00:00,23.163798,72.677768,NO2,19,68,33
India,Gujarat,Gandhinagar,"GIFT City, Gandhinagar - IITM",21-04-2026 09:00:00,23.163798,72.677768,OZONE,4,103,13
India,Gujarat,Gandhinagar,"IIPHG Lekawada, Gandhinagar - IITM",21-04-2026 09:00:00,23.243639,72.68994,NO2,7,27,14
India,Gujarat,Gandhinagar,"Sector-10, Gandhinagar - GPCB",21-04-2026 09:00:00,23.221714,72.654328,PM10,76,127,99
India,Gujarat,Nandesari,"GIDC, Nandesari - Nandesari Ind. Association",21-04-2026 09:00:00,22.410802,73.097923,PM2.5,44,323,155
India,Gujarat,Nandesari,"GIDC, Nandesari - Nandesari Ind. Association",21-04-2026 09:00:00,22.410802,73.097923,PM10,56,225,126
India,Gujarat,Nandesari,"GIDC, Nandesari - Nandesari Ind. Association",21-04-2026 09:00:00,22.410802,73.097923,NO2,16,312,90
India,Delhi,Delhi,"Shadipur, Delhi - CPCB",21-04-2026 09:00:00,28.6514781,77.1473105,OZONE,9,42,18
India,Delhi,Delhi,"Sirifort, Delhi - CPCB",21-04-2026 09:00:00,28.5504249,77.2159377,SO2,27,34,31
India,Delhi,Delhi,"Sonia Vihar, Delhi - DPCC",21-04-2026 09:00:00,28.710508,77.249485,PM2.5,22,187,90
India,Delhi,Delhi,"Sonia Vihar, Delhi - DPCC",21-04-2026 09:00:00,28.710508,77.249485,PM10,46,156,110
India,Delhi,Delhi,"Sonia Vihar, Delhi - DPCC",21-04-2026 09:00:00,28.710508,77.249485,OZONE,2,66,13
India,Delhi,Delhi,"Sri Aurobindo Marg, Delhi - DPCC",21-04-2026 09:00:00,28.531346,77.190156,NH3,NA,NA,NA
India,Delhi,Delhi,"Vivek Vihar, Delhi - DPCC",21-04-2026 09:00:00,28.672342,77.315260,NH3,7,11,9
India,Delhi,Delhi,"Vivek Vihar, Delhi - DPCC",21-04-2026 09:00:00,28.672342,77.315260,CO,44,100,60
India,Haryana,Ambala,"Patti Mehar, Ambala - HSPCB",21-04-2026 09:00:00,30.379589,76.778328,SO2,15,31,22
India,Haryana,Bahadurgarh,"Arya Nagar, Bahadurgarh - HSPCB",21-04-2026 09:00:00,28.6701,76.9254,NO2,12,14,13
India,Haryana,Bahadurgarh,"Arya Nagar, Bahadurgarh - HSPCB",21-04-2026 09:00:00,28.6701,76.9254,NH3,12,13,13
India,Haryana,Ballabgarh,"Nathu Colony, Ballabgarh - HSPCB",21-04-2026 09:00:00,28.3419248,77.319699,PM2.5,44,214,90
India,Haryana,Ballabgarh,"Nathu Colony, Ballabgarh - HSPCB",21-04-2026 09:00:00,28.3419248,77.319699,NH3,3,3,3
India,Haryana,Ballabgarh,"Nathu Colony, Ballabgarh - HSPCB",21-04-2026 09:00:00,28.3419248,77.319699,CO,40,102,64
India,Delhi,Delhi,"Narela, Delhi - DPCC",21-04-2026 09:00:00,28.822836,77.101981,PM2.5,40,337,124
India,Delhi,Delhi,"Nehru Nagar, Delhi - DPCC",21-04-2026 09:00:00,28.567890,77.250515,NO2,32,76,49
India,Delhi,Delhi,"North Campus, DU, Delhi - IMD",21-04-2026 09:00:00,28.6573814,77.1585447,CO,12,63,35
India,Delhi,Delhi,"Okhla Phase-2, Delhi - DPCC",21-04-2026 09:00:00,28.530785,77.271255,SO2,15,80,36
India,Delhi,Delhi,"Patparganj, Delhi - DPCC",21-04-2026 09:00:00,28.623763,77.287209,NH3,6,11,8
India,Gujarat,Rajkot,"Mavdi, Rajkot - Nexteng Enviro ",21-04-2026 09:00:00,22.248853,70.776774,OZONE,8,17,9
India,Gujarat,Vapi,"Phase-1 GIDC, Vapi - GPCB",21-04-2026 09:00:00,20.362421,72.918013,PM10,77,113,92
India,Gujarat,Vapi,"Phase-1 GIDC, Vapi - GPCB",21-04-2026 09:00:00,20.362421,72.918013,NH3,2,4,2
India,Gujarat,Vapi,"Phase-1 GIDC, Vapi - GPCB",21-04-2026 09:00:00,20.362421,72.918013,SO2,21,26,23
India,Gujarat,Vatva,"Phase-4 GIDC, Vatva - GPCB",21-04-2026 09:00:00,22.969611,72.643500,PM2.5,52,254,113
India,Gujarat,Vatva,"Phase-4 GIDC, Vatva - GPCB",21-04-2026 09:00:00,22.969611,72.643500,CO,4,58,8
India,Delhi,Delhi,"Punjabi Bagh, Delhi - DPCC",21-04-2026 09:00:00,28.674045,77.131023,NH3,4,6,5
India,Haryana,Jind,"Police Lines, Jind - HSPCB",21-04-2026 09:00:00,29.307814,76.337619,OZONE,17,41,23
India,Haryana,Karnal,"Sector-12, Karnal - HSPCB",21-04-2026 09:00:00,29.695300,77.002700,SO2,1,11,8
India,Haryana,Karnal,"Sector-12, Karnal - HSPCB",21-04-2026 09:00:00,29.695300,77.002700,OZONE,16,46,22
India,Haryana,Kurukshetra,"Sector-7, Kurukshetra - HSPCB",21-04-2026 09:00:00,29.966942,76.875879,NH3,6,7,6
India,Haryana,Mandikhera,"General Hospital, Mandikhera(Nuh) - HSPCB",21-04-2026 09:00:00,27.9002,76.9938,PM2.5,31,69,50
India,Haryana,Mandikhera,"General Hospital, Mandikhera(Nuh) - HSPCB",21-04-2026 09:00:00,27.9002,76.9938,NO2,20,23,22
India,Haryana,Manesar,"Sector-2 IMT, Manesar - HSPCB",21-04-2026 09:00:00,28.360699,76.936090,NO2,19,83,35
India,Haryana,Manesar,"Sector-2 IMT, Manesar - HSPCB",21-04-2026 09:00:00,28.360699,76.936090,SO2,2,6,4
India,Haryana,Narnaul,"Shastri Nagar, Narnaul - HSPCB",21-04-2026 09:00:00,28.060249,76.113115,PM10,77,116,99
India,Haryana,Rohtak,"MD University, Rohtak - HSPCB",21-04-2026 09:00:00,28.52123,76.37138,OZONE,39,40,39
India,Haryana,Sonipat,"Murthal, Sonipat - HSPCB",21-04-2026 09:00:00,29.027200,77.062100,CO,42,54,51
India,Haryana,Yamuna Nagar,"Gobind Pura, Yamuna Nagar - HSPCB",21-04-2026 09:00:00,30.1480566,77.2893471,NH3,1,6,4
India,Haryana,Yamuna Nagar,"Gobind Pura, Yamuna Nagar - HSPCB",21-04-2026 09:00:00,30.1480566,77.2893471,SO2,10,15,11
India,Jammu_and_Kashmir,Pampore,"Khrew, Pampore - JKPCC",21-04-2026 09:00:00,34.031606,75.009712,PM2.5,36,116,68
India,Jammu_and_Kashmir,Srinagar,"Khunmoh, Srinagar - JKPCC",21-04-2026 09:00:00,34.06313,74.96017,PM2.5,6,44,22
India,Jammu_and_Kashmir,Srinagar,"Rajbagh, Srinagar - JKPCC",21-04-2026 09:00:00,34.066206,74.819820,PM2.5,15,36,23
India,Haryana,Palwal,"Shyam Nagar, Palwal - HSPCB",21-04-2026 09:00:00,28.1485564,77.3320667,PM2.5,59,318,116
India,Haryana,Panchgaon,"Amity University, Panchgaon - IITM",21-04-2026 09:00:00,28.3153,76.9143,NO2,1,16,6
India,Haryana,Panchgaon,"Amity University, Panchgaon - IITM",21-04-2026 09:00:00,28.3153,76.9143,SO2,9,47,25
India,Haryana,Panchgaon,"Amity University, Panchgaon - IITM",21-04-2026 09:00:00,28.3153,76.9143,CO,16,64,52
India,Haryana,Panchkula,"Sector-6, Panchkula - HSPCB ",21-04-2026 09:00:00,30.7057778,76.8531805555555,SO2,13,14,14
India,Haryana,Panipat,"Sector-18, Panipat - HSPCB",21-04-2026 09:00:00,29.432304,76.972765,NH3,2,3,3
India,Haryana,Panipat,"Sector-18, Panipat - HSPCB",21-04-2026 09:00:00,29.432304,76.972765,OZONE,25,30,30
India,Haryana,Rohtak,"MD University, Rohtak - HSPCB",21-04-2026 09:00:00,28.52123,76.37138,PM10,79,147,110
India,Karnataka,Bengaluru,"Jigani, Bengaluru - KSPCB",21-04-2026 09:00:00,12.7816279,77.6299145,OZONE,28,29,28
India,Karnataka,Bengaluru,"Kasturi Nagar, Bengaluru - KSPCB",21-04-2026 09:00:00,13.003872,77.664217,NO2,38,39,38
India,Karnataka,Bengaluru,"Kasturi Nagar, Bengaluru - KSPCB",21-04-2026 09:00:00,13.003872,77.664217,NH3,4,4,4
India,Karnataka,Bengaluru,"Kasturi Nagar, Bengaluru - KSPCB",21-04-2026 09:00:00,13.003872,77.664217,SO2,8,9,9
India,Karnataka,Bengaluru,"Kasturi Nagar, Bengaluru - KSPCB",21-04-2026 09:00:00,13.003872,77.664217,CO,44,54,50
India,Karnataka,Bengaluru,"RVCE-Mailasandra, Bengaluru - KSPCB",21-04-2026 09:00:00,12.921418,77.502466,OZONE,24,29,29
India,Karnataka,Bengaluru,"Shivapura_Peenya, Bengaluru - KSPCB",21-04-2026 09:00:00,13.0246342,77.5080115,PM2.5,28,40,33
India,Karnataka,Bengaluru,"Shivapura_Peenya, Bengaluru - KSPCB",21-04-2026 09:00:00,13.0246342,77.5080115,NH3,4,4,4
India,Karnataka,Chamarajanagar,"Urban, Chamarajanagar - KSPCB",21-04-2026 09:00:00,11.55358,76.55521,PM2.5,26,52,36
India,Haryana,Gurugram,"Sector-51, Gurugram - HSPCB",21-04-2026 09:00:00,28.4227,77.0667,PM2.5,166,402,280
India,Haryana,Gurugram,"Sector-51, Gurugram - HSPCB",21-04-2026 09:00:00,28.4227,77.0667,OZONE,7,34,10
India,Haryana,Gurugram,"Vikas Sadan, Gurugram - HSPCB",21-04-2026 09:00:00,28.4501238,77.0263051,NO2,9,45,26
India,Haryana,Gurugram,"Vikas Sadan, Gurugram - HSPCB",21-04-2026 09:00:00,28.4501238,77.0263051,SO2,2,8,5
India,Haryana,Hisar,"Urban Estate-II, Hisar - HSPCB",21-04-2026 09:00:00,29.140560,75.744941,CO,25,42,28
India,Haryana,Jind,"Police Lines, Jind - HSPCB",21-04-2026 09:00:00,29.307814,76.337619,PM2.5,84,266,156
India,Haryana,Jind,"Police Lines, Jind - HSPCB",21-04-2026 09:00:00,29.307814,76.337619,PM10,72,138,102
India,Haryana,Jind,"Police Lines, Jind - HSPCB",21-04-2026 09:00:00,29.307814,76.337619,CO,5,27,12
India,Haryana,Dharuhera,"Municipal Corporation Office, Dharuhera -  HSPCB",21-04-2026 09:00:00,28.206800,76.799700,SO2,6,8,7
India,Haryana,Faridabad,"New Industrial Town, Faridabad - HSPCB",21-04-2026 09:00:00,28.39072,77.30059,PM10,86,94,91
India,Haryana,Faridabad,"New Industrial Town, Faridabad - HSPCB",21-04-2026 09:00:00,28.39072,77.30059,NO2,24,26,25
India,Haryana,Faridabad,"Sector 11, Faridabad - HSPCB",21-04-2026 09:00:00,28.376058,77.315741,SO2,3,3,3
India,Haryana,Faridabad,"Sector 11, Faridabad - HSPCB",21-04-2026 09:00:00,28.376058,77.315741,CO,40,40,40
India,Haryana,Faridabad,"Sector 30, Faridabad - HSPCB",21-04-2026 09:00:00,28.4417,77.3217,NO2,35,39,38
India,Haryana,Faridabad,"Sector 30, Faridabad - HSPCB",21-04-2026 09:00:00,28.4417,77.3217,SO2,6,6,6
India,Jammu_and_Kashmir,Srinagar,"Rajbagh, Srinagar - JKPCC",21-04-2026 09:00:00,34.066206,74.819820,OZONE,NA,NA,NA
India,Jharkhand,Dhanbad,"Sardar Patel Nagar, Dhanbad - JSPCB",21-04-2026 09:00:00,23.80569,86.44268,SO2,NA,NA,NA
India,Jharkhand,Jorapokhar,"Tata Stadium, Jorapokhar - JSPCB",21-04-2026 09:00:00,23.707909,86.414670,NH3,3,3,3
India,Jharkhand,Jorapokhar,"Tata Stadium, Jorapokhar - JSPCB",21-04-2026 09:00:00,23.707909,86.414670,SO2,NA,NA,NA
India,Karnataka,Bengaluru,"BTM Layout, Bengaluru - CPCB",21-04-2026 09:00:00,12.9135218,77.5950804,CO,44,57,45
India,Karnataka,Bengaluru,"BWSSB Kadabesanahalli, Bengaluru - CPCB",21-04-2026 09:00:00,12.9352049,77.6814488,OZONE,13,43,16
India,Karnataka,Bengaluru,"Bapuji Nagar, Bengaluru - KSPCB",21-04-2026 09:00:00,12.951913,77.539784,PM2.5,23,83,48
India,Karnataka,Bengaluru,"Bapuji Nagar, Bengaluru - KSPCB",21-04-2026 09:00:00,12.951913,77.539784,SO2,11,32,23
India,Karnataka,Bengaluru,"Hombegowda Nagar, Bengaluru - KSPCB",21-04-2026 09:00:00,12.938539,77.590100,CO,6,30,12
India,Karnataka,Bengaluru,"Jayanagar 5th Block, Bengaluru - KSPCB",21-04-2026 09:00:00,12.920984,77.584908,NH3,NA,NA,NA
India,Haryana,Bhiwani,"H.B. Colony, Bhiwani - HSPCB",21-04-2026 09:00:00,28.806223,76.141105,CO,3,9,8
India,Haryana,Charkhi Dadri,"Mini Secretariat, Charkhi Dadri - HSPCB",21-04-2026 09:00:00,28.593883,76.270653,PM2.5,118,325,251
India,Haryana,Dharuhera,"Municipal Corporation Office, Dharuhera -  HSPCB",21-04-2026 09:00:00,28.206800,76.799700,PM2.5,61,210,109
India,Karnataka,Koppal,"Diwator Nagar, Koppal - KSPCB",21-04-2026 09:00:00,15.347630,76.181767,NH3,7,8,8
India,Karnataka,Madikeri,"Stuart Hill, Madikeri - KSPCB",21-04-2026 09:00:00,12.415911,75.735050,PM2.5,12,36,26
India,Karnataka,Madikeri,"Stuart Hill, Madikeri - KSPCB",21-04-2026 09:00:00,12.415911,75.735050,CO,8,23,15
India,Karnataka,Mangalore,"Kadri, Mangalore - KSPCB",21-04-2026 09:00:00,12.889250,74.853000,NH3,1,2,2
India,Karnataka,Mysuru,"Hebbal 1st Stage, Mysuru - KSPCB",21-04-2026 09:00:00,12.21041,76.37376,NH3,3,5,4
India,Karnataka,Ramanagara,"Vijay Nagar, Ramanagara - KSPCB",21-04-2026 09:00:00,12.733409,77.298051,PM10,59,106,85
India,Karnataka,Ramanagara,"Vijay Nagar, Ramanagara - KSPCB",21-04-2026 09:00:00,12.733409,77.298051,NO2,8,49,17
India,Karnataka,Ramanagara,"Vijay Nagar, Ramanagara - KSPCB",21-04-2026 09:00:00,12.733409,77.298051,NH3,3,5,4
India,Karnataka,Shivamogga,"Vinoba Nagara, Shivamogga - KSPCB",21-04-2026 09:00:00,13.940000,75.555917,SO2,1,4,3
India,Karnataka,Shivamogga,"Vinoba Nagara, Shivamogga - KSPCB",21-04-2026 09:00:00,13.940000,75.555917,OZONE,38,85,43
India,Karnataka,Vijayapura,"Ibrahimpur, Vijayapura - KSPCB",21-04-2026 09:00:00,16.802639,75.722694,PM2.5,30,31,30
India,Karnataka,Vijayapura,"Ibrahimpur, Vijayapura - KSPCB",21-04-2026 09:00:00,16.802639,75.722694,NO2,11,12,11
India,Karnataka,Chikkaballapur,"Chikkaballapur Rural, Chikkaballapur - KSPCB",21-04-2026 09:00:00,13.428828,77.731418,PM2.5,43,83,60
India,Karnataka,Chikkamagaluru,"Kalyana Nagara, Chikkamagaluru - KSPCB",21-04-2026 09:00:00,13.328028,75.797056,PM2.5,NA,NA,NA
India,Karnataka,Chikkamagaluru,"Kalyana Nagara, Chikkamagaluru - KSPCB",21-04-2026 09:00:00,13.328028,75.797056,SO2,NA,NA,NA
India,Karnataka,Dharwad,"Kalabhavan, Dharwad - KSPCB",21-04-2026 09:00:00,15.459706,75.008381,PM10,63,143,96
India,Karnataka,Dharwad,"Kalabhavan, Dharwad - KSPCB",21-04-2026 09:00:00,15.459706,75.008381,NO2,28,28,28
India,Karnataka,Dharwad,"Kalabhavan, Dharwad - KSPCB",21-04-2026 09:00:00,15.459706,75.008381,NH3,7,7,7
India,Karnataka,Dharwad,"Kalabhavan, Dharwad - KSPCB",21-04-2026 09:00:00,15.459706,75.008381,SO2,6,8,7
India,Karnataka,Dharwad,"Kalabhavan, Dharwad - KSPCB",21-04-2026 09:00:00,15.459706,75.008381,CO,36,71,44
India,Karnataka,Hubballi,"Lingaraj Nagar, Hubballi - KSPCB",21-04-2026 09:00:00,15.3714823,75.1160168,NO2,7,7,7
India,Karnataka,Hubballi,"Lingaraj Nagar, Hubballi - KSPCB",21-04-2026 09:00:00,15.3714823,75.1160168,NH3,1,1,1
India,Karnataka,Kalaburagi,"Mahatma Basaveswar Colony, Kalaburgi - KSPCB",21-04-2026 09:00:00,17.336318,76.847397,SO2,2,6,4
India,Karnataka,Vijayapura,"Ibrahimpur, Vijayapura - KSPCB",21-04-2026 09:00:00,16.802639,75.722694,SO2,3,6,3
India,Karnataka,Yadgir,"Collector Office, Yadgir - KSPCB",21-04-2026 09:00:00,16.7602,77.1428,NH3,1,2,1
India,Karnataka,Yadgir,"Collector Office, Yadgir - KSPCB",21-04-2026 09:00:00,16.7602,77.1428,CO,22,62,27
India,Kerala,Kannur,"Thavakkara, Kannur - Kerala PCB",21-04-2026 09:00:00,11.875000,75.373200,SO2,1,8,2
India,Kerala,Kollam,"Polayathode, Kollam - Kerala PCB",21-04-2026 09:00:00,8.8787,76.6073,PM10,71,79,75
India,Kerala,Thiruvananthapuram,"Plammoodu, Thiruvananthapuram - Kerala PCB",21-04-2026 09:00:00,8.5149093,76.9435879,PM10,34,66,49
India,Kerala,Thiruvananthapuram,"Plammoodu, Thiruvananthapuram - Kerala PCB",21-04-2026 09:00:00,8.5149093,76.9435879,NO2,NA,NA,NA
India,Kerala,Thiruvananthapuram,"Plammoodu, Thiruvananthapuram - Kerala PCB",21-04-2026 09:00:00,8.5149093,76.9435879,OZONE,17,255,23
India,Kerala,Thrissur,"Corporation Ground, Thrissur - Kerala PCB",21-04-2026 09:00:00,10.532400,76.215900,PM10,66,83,74
India,Kerala,Thrissur,"Corporation Ground, Thrissur - Kerala PCB",21-04-2026 09:00:00,10.532400,76.215900,SO2,NA,NA,NA
India,Kerala,Thrissur,"Corporation Ground, Thrissur - Kerala PCB",21-04-2026 09:00:00,10.532400,76.215900,CO,14,22,18
India,Madhya Pradesh,Bhopal,"Idgah Hills, Bhopal - MPPCB",21-04-2026 09:00:00,23.264759,77.381568,NH3,5,6,5
India,Madhya Pradesh,Bhopal,"Paryavaran Parisar, Bhopal - MPPCB",21-04-2026 09:00:00,23.210494,77.425409,CO,16,64,20
India,Madhya Pradesh,Bhopal,"T T Nagar, Bhopal - MPPCB",21-04-2026 09:00:00,23.233584,77.400574,PM2.5,27,87,60
India,Madhya Pradesh,Damoh,"Shrivastav Colony, Damoh - MPPCB",21-04-2026 09:00:00,23.81748678,79.446246,SO2,44,59,50
India,Madhya Pradesh,Dewas,"Bhopal Chauraha, Dewas - MPPCB",21-04-2026 09:00:00,22.9682591,76.064118,NO2,90,110,101
India,Madhya Pradesh,Gwalior,"City Center, Gwalior - MPPCB",21-04-2026 09:00:00,26.203442,78.193251,PM10,NA,NA,NA
India,Madhya Pradesh,Sagar,"Civil Lines, Sagar - MPPCB",21-04-2026 09:00:00,23.838586,78.759431,CO,18,46,26
India,Madhya Pradesh,Sagar,"Civil Lines, Sagar - MPPCB",21-04-2026 09:00:00,23.838586,78.759431,OZONE,50,120,59
India,Madhya Pradesh,Sagar,"Deen Dayal Nagar, Sagar - MPPCB",21-04-2026 09:00:00,23.8640158,78.80289321,SO2,NA,NA,NA
India,Madhya Pradesh,Satna,"Bandhavgar Colony, Satna - Birla Cement",21-04-2026 09:00:00,24.58434363,80.8549414,PM10,69,71,70
India,Madhya Pradesh,Singrauli,"Suryakiran Bhawan NCL, Singrauli - MPPCB",21-04-2026 09:00:00,24.108970,82.645580,OZONE,4,20,14
India,Madhya Pradesh,Ujjain,"Mahashweta Nagar, Ujjain - MPPCB",21-04-2026 09:00:00,23.1633321,75.800225,NH3,6,11,9
India,Maharashtra,Ahmednagar,"Tarakpur, Ahmednagar - MPCB",21-04-2026 09:00:00,19.10122,74.73339,PM2.5,51,111,74
India,Madhya Pradesh,Gwalior,"Deen Dayal Nagar, Gwalior - MPPCB",21-04-2026 09:00:00,26.259242,78.216432,PM10,56,244,113
India,Madhya Pradesh,Gwalior,"Maharaj Bada, Gwalior - MPPCB",21-04-2026 09:00:00,26.200388,78.147714,CO,1,102,40
India,Madhya Pradesh,Indore,"Airport Area, Indore - IMC",21-04-2026 09:00:00,22.7289,75.8076,PM10,41,106,67
India,Madhya Pradesh,Indore,"Chhoti Gwaltoli, Indore - MPPCB",21-04-2026 09:00:00,22.4310,75.5213,PM2.5,30,67,50
India,Madhya Pradesh,Indore,"Chhoti Gwaltoli, Indore - MPPCB",21-04-2026 09:00:00,22.4310,75.5213,PM10,60,113,89
India,Madhya Pradesh,Indore,"Chhoti Gwaltoli, Indore - MPPCB",21-04-2026 09:00:00,22.4310,75.5213,OZONE,3,21,16
India,Madhya Pradesh,Indore,"Maguda Nagar, Indore - IMC",21-04-2026 09:00:00,22.7524,75.8872,PM2.5,25,112,51
India,Madhya Pradesh,Jabalpur,"Suhagi, Jabalpur - JMC",21-04-2026 09:00:00,23.218135,79.957770,OZONE,2,98,25
India,Madhya Pradesh,Katni,"Gole Bazar, Katni - MPPCB",21-04-2026 09:00:00,23.50016,80.23284,PM10,60,163,111
India,Madhya Pradesh,Katni,"Gole Bazar, Katni - MPPCB",21-04-2026 09:00:00,23.50016,80.23284,NH3,3,9,5
India,Madhya Pradesh,Mandideep,"Sector-D Industrial Area, Mandideep - MPPCB",21-04-2026 09:00:00,23.108440,77.511428,PM2.5,35,139,76
India,Madhya Pradesh,Mandideep,"Sector-D Industrial Area, Mandideep - MPPCB",21-04-2026 09:00:00,23.108440,77.511428,CO,14,47,21
India,Madhya Pradesh,Pithampur,"Sector-2 Industrial Area, Pithampur - MPPCB",21-04-2026 09:00:00,22.624758,75.675238,NH3,13,16,14
India,Madhya Pradesh,Indore,"Residency Area, Indore - IMC",21-04-2026 09:00:00,22.7084,75.8815,CO,28,54,34
India,Madhya Pradesh,Jabalpur,"Govindh Bhavan Colony, Jabalpur - JMC",21-04-2026 09:00:00,23.163174,79.973061,PM2.5,32,150,54
India,Madhya Pradesh,Jabalpur,"Govindh Bhavan Colony, Jabalpur - JMC",21-04-2026 09:00:00,23.163174,79.973061,PM10,34,106,50
India,Madhya Pradesh,Jabalpur,"Gupteshwar, Jabalpur - JMC",21-04-2026 09:00:00,23.142888,79.916147,PM10,50,127,87
India,Madhya Pradesh,Jabalpur,"Gupteshwar, Jabalpur - JMC",21-04-2026 09:00:00,23.142888,79.916147,SO2,9,14,11
India,Madhya Pradesh,Indore,"Residency Area, Indore - IMC",21-04-2026 09:00:00,22.7084,75.8815,PM2.5,21,65,43
India,Maharashtra,Mumbai,"Chhatrapati Shivaji Intl. Airport (T2), Mumbai - MPCB",21-04-2026 09:00:00,19.10078,72.87462,PM2.5,NA,NA,NA
India,Maharashtra,Mumbai,"Deonar, Mumbai - IITM",21-04-2026 09:00:00,19.04946,72.9230,NH3,NA,NA,NA
India,Maharashtra,Mumbai,"Ghatkopar, Mumbai - BMC",21-04-2026 09:00:00,19.083694,72.920967,PM10,81,113,94
India,Maharashtra,Mumbai,"Kandivali West, Mumbai - BMC",21-04-2026 09:00:00,19.215859,72.831718,PM10,53,98,71
India,Maharashtra,Mumbai,"Kandivali West, Mumbai - BMC",21-04-2026 09:00:00,19.215859,72.831718,NO2,13,14,14
India,Maharashtra,Mumbai,"Kherwadi_Bandra East, Mumbai - MPCB",21-04-2026 09:00:00,19.0632143,72.8456324,SO2,2,5,4
India,Maharashtra,Badlapur,"Katrap, Badlapur - MPCB",21-04-2026 09:00:00,19.16485,73.23409,PM2.5,39,80,52
India,Maharashtra,Badlapur,"Katrap, Badlapur - MPCB",21-04-2026 09:00:00,19.16485,73.23409,OZONE,11,88,13
India,Maharashtra,Belapur,"CBD Belapur, Belapur - MPCB",21-04-2026 09:00:00,19.0243902,73.0406721,PM2.5,NA,NA,NA
India,Maharashtra,Bhiwandi,"Gokul Nagar, Bhiwandi - MPCB",21-04-2026 09:00:00,19.309073,73.057223,PM10,57,103,79
India,Maharashtra,Bhiwandi,"Gokul Nagar, Bhiwandi - MPCB",21-04-2026 09:00:00,19.309073,73.057223,SO2,5,16,9
India,Maharashtra,Bhiwandi,"Gokul Nagar, Bhiwandi - MPCB",21-04-2026 09:00:00,19.309073,73.057223,OZONE,11,88,15
India,Maharashtra,Boisar,"Khaira, Boisar - MPCB",21-04-2026 09:00:00,19.786089,72.757971,PM10,57,59,58
India,Maharashtra,Mumbai,"Borivali East, Mumbai - IITM",21-04-2026 09:00:00,19.23241,72.86895,CO,32,82,65
India,Maharashtra,Mumbai,"Borivali East, Mumbai - MPCB",21-04-2026 09:00:00,19.2243333,72.8658113,SO2,10,18,14
India,Maharashtra,Mumbai,"Borivali East, Mumbai - MPCB",21-04-2026 09:00:00,19.2243333,72.8658113,CO,10,16,14
India,Maharashtra,Mumbai,"Byculla, Mumbai - BMC",21-04-2026 09:00:00,18.9767,72.8380,NO2,10,55,24
India,Maharashtra,Mumbai,"Chakala-Andheri East, Mumbai - IITM",21-04-2026 09:00:00,19.11074,72.86084,CO,11,52,30
India,Maharashtra,Mumbai,"Chembur, Mumbai - MPCB",21-04-2026 09:00:00,19.0364585,72.8954371,PM10,62,105,74
India,Maharashtra,Mumbai,"Chembur, Mumbai - MPCB",21-04-2026 09:00:00,19.0364585,72.8954371,CO,18,32,23
India,Maharashtra,Mahad,"Kamble Tarf Birwadi, Mahad - MPCB",21-04-2026 09:00:00,18.1023399,73.4783687,CO,26,52,42
India,Maharashtra,Malegaon,"Mahesh Nagar, Malegaon - MPCB",21-04-2026 09:00:00,20.555712,74.529236,PM2.5,26,141,78
India,Maharashtra,Malegaon,"Mahesh Nagar, Malegaon - MPCB",21-04-2026 09:00:00,20.555712,74.529236,CO,11,58,32
India,Maharashtra,Mumbai,"Bandra Kurla Complex, Mumbai - IITM",21-04-2026 09:00:00,19.053536,72.84643,SO2,1,1,1
India,Maharashtra,Mumbai,"Bandra Kurla Complex, Mumbai - IITM",21-04-2026 09:00:00,19.053536,72.84643,CO,5,64,25
India,Maharashtra,Mumbai,"Bandra Kurla Complex, Mumbai - MPCB",21-04-2026 09:00:00,19.065931,72.862131,PM10,69,109,83
India,Maharashtra,Jalna,"Old MIDC, Jalna - MPCB",21-04-2026 09:00:00,19.854616,75.905894,PM10,40,123,69
India,Maharashtra,Jalna,"Old MIDC, Jalna - MPCB",21-04-2026 09:00:00,19.854616,75.905894,OZONE,10,71,35
India,Maharashtra,Kalyan,"Khadakpada, Kalyan - MPCB",21-04-2026 09:00:00,19.25292,73.142019,NO2,36,38,36
India,Maharashtra,Kalyan,"Khadakpada, Kalyan - MPCB",21-04-2026 09:00:00,19.25292,73.142019,OZONE,8,8,8
India,Maharashtra,Kolhapur,"Sinchan Bhavan, Kolhapur - MPCB",21-04-2026 09:00:00,16.7143745,74.2426398,SO2,NA,NA,NA
India,Maharashtra,Latur,"Sawe Wadi, Latur - MPCB",21-04-2026 09:00:00,18.39963,76.57452,PM2.5,41,164,66
India,Maharashtra,Akola,"Ramdaspeth, Akola - MPCB",21-04-2026 09:00:00,20.719516,77.000253,PM10,42,228,87
India,Maharashtra,Amravati,"Shivneri Colony, Amravati - MPCB",21-04-2026 09:00:00,20.9402359,77.7895248,PM2.5,34,68,50
India,Maharashtra,Amravati,"Shivneri Colony, Amravati - MPCB",21-04-2026 09:00:00,20.9402359,77.7895248,NH3,2,4,3
India,Maharashtra,Amravati,"Shivneri Colony, Amravati - MPCB",21-04-2026 09:00:00,20.9402359,77.7895248,CO,12,27,16
India,Maharashtra,Amravati,"Shri Shivaji Science College, Amravati - MPCB",21-04-2026 09:00:00,20.939198,77.765701,NH3,2,11,4
India,Maharashtra,Amravati,"Shri Shivaji Science College, Amravati - MPCB",21-04-2026 09:00:00,20.939198,77.765701,SO2,19,25,21
India,Maharashtra,Chandrapur,"Chauhan Colony, Chandrapur - MPCB",21-04-2026 09:00:00,19.962900,79.298714,NH3,NA,NA,NA
India,Maharashtra,Chandrapur,"MIDC Khutala, Chandrapur - MPCB",21-04-2026 09:00:00,19.9775302,79.2337086,CO,37,41,40
India,Maharashtra,Hingoli,"Ashta Vinayak Nagar, Hingoli - MPCB",21-04-2026 09:00:00,19.710842,77.151824,OZONE,81,215,123
India,Maharashtra,Aurangabad,"More Chowk Waluj, Aurangabad - MPCB",21-04-2026 09:00:00,19.8389439,75.244448,PM10,34,113,65
India,Maharashtra,Aurangabad,"More Chowk Waluj, Aurangabad - MPCB",21-04-2026 09:00:00,19.8389439,75.244448,NO2,14,23,18
India,Maharashtra,Latur,"Sawe Wadi, Latur - MPCB",21-04-2026 09:00:00,18.39963,76.57452,OZONE,4,46,26
India,Maharashtra,Nashik,"MIDC Ambad, Nashik - MPCB",21-04-2026 09:00:00,19.950220,73.731480,PM2.5,46,98,71
India,Maharashtra,Nashik,"MIDC Ambad, Nashik - MPCB",21-04-2026 09:00:00,19.950220,73.731480,NH3,3,3,3
India,Maharashtra,Nashik,"MIDC Ambad, Nashik - MPCB",21-04-2026 09:00:00,19.950220,73.731480,OZONE,30,90,35
India,Maharashtra,Nashik,"Pandav Nagari, Nashik - MPCB",21-04-2026 09:00:00,19.9591346,73.7788008,PM2.5,29,81,50
India,Maharashtra,Nashik,"Pandav Nagari, Nashik - MPCB",21-04-2026 09:00:00,19.9591346,73.7788008,OZONE,23,85,32
India,Maharashtra,Navi Mumbai,"Kopripada-Vashi, Navi Mumbai - MPCB",21-04-2026 09:00:00,19.090337,73.014232,NH3,7,7,7
India,Maharashtra,Navi Mumbai,"Kopripada-Vashi, Navi Mumbai - MPCB",21-04-2026 09:00:00,19.090337,73.014232,CO,16,58,45
India,Maharashtra,Navi Mumbai,"Mahape, Navi Mumbai - MPCB",21-04-2026 09:00:00,19.1135051,73.008978,NH3,1,1,1
India,Maharashtra,Navi Mumbai,"Sanpada, Navi Mumbai - MPCB",21-04-2026 09:00:00,19.0575752,73.0151367,NO2,8,21,13
India,Maharashtra,Navi Mumbai,"Sanpada, Navi Mumbai - MPCB",21-04-2026 09:00:00,19.0575752,73.0151367,SO2,15,22,18
India,Maharashtra,Navi Mumbai,"Sanpada, Navi Mumbai - MPCB",21-04-2026 09:00:00,19.0575752,73.0151367,CO,10,45,45
India,Maharashtra,Navi Mumbai,"Sector-2E Kalamboli, Navi Mumbai - MPCB",21-04-2026 09:00:00,19.02579,73.10297,SO2,2,13,4
India,Maharashtra,Navi Mumbai,"Sector-2E Kalamboli, Navi Mumbai - MPCB",21-04-2026 09:00:00,19.02579,73.10297,CO,12,24,19
India,Maharashtra,Navi Mumbai,"Tondare-Taloja, Navi Mumbai - MPCB",21-04-2026 09:00:00,19.0630,73.1209,NO2,16,46,24
India,Maharashtra,Navi Mumbai,"Tondare-Taloja, Navi Mumbai - MPCB",21-04-2026 09:00:00,19.0630,73.1209,SO2,3,4,4
India,Maharashtra,Parbhani,"Masoom Colony, Parbhani - MPCB",21-04-2026 09:00:00,19.265594,76.761463,PM2.5,41,115,80
India,Maharashtra,Parbhani,"Masoom Colony, Parbhani - MPCB",21-04-2026 09:00:00,19.265594,76.761463,OZONE,22,106,43
India,Maharashtra,Pimpri-Chinchwad,"Bhosari,Pimpri-Chinchwad - IITM",21-04-2026 09:00:00,18.640051,73.848956,PM2.5,31,84,49
India,Maharashtra,Pimpri-Chinchwad,"Bhosari,Pimpri-Chinchwad - IITM",21-04-2026 09:00:00,18.640051,73.848956,OZONE,2,60,8
India,Maharashtra,Mumbai,"Kherwadi_Bandra East, Mumbai - MPCB",21-04-2026 09:00:00,19.0632143,72.8456324,OZONE,1,56,16
India,Maharashtra,Mumbai,"Khindipada-Bhandup West, Mumbai - IITM",21-04-2026 09:00:00,19.1653323,72.922099,NO2,11,39,19
India,Maharashtra,Mumbai,"Khindipada-Bhandup West, Mumbai - IITM",21-04-2026 09:00:00,19.1653323,72.922099,OZONE,13,75,28
India,Maharashtra,Mumbai,"Kurla, Mumbai - MPCB",21-04-2026 09:00:00,19.0863,72.8888,NO2,NA,NA,NA
India,Maharashtra,Mumbai,"Kurla, Mumbai - MPCB",21-04-2026 09:00:00,19.0863,72.8888,OZONE,28,29,28
India,Maharashtra,Mumbai,"Mazgaon, Mumbai - IITM",21-04-2026 09:00:00,18.96702,72.84214,SO2,4,11,8
India,Maharashtra,Mumbai,"Mindspace-Malad West, Mumbai - MPCB",21-04-2026 09:00:00,19.1878657,72.8304069,NO2,5,33,13
India,Maharashtra,Mumbai,"Mulund West, Mumbai - MPCB",21-04-2026 09:00:00,19.1750,72.9419,PM2.5,9,34,17
India,Maharashtra,Mumbai,"Mulund West, Mumbai - MPCB",21-04-2026 09:00:00,19.1750,72.9419,PM10,NA,NA,NA
India,Maharashtra,Mumbai,"Navy Nagar-Colaba, Mumbai - IITM",21-04-2026 09:00:00,18.897756,72.813320,PM10,77,114,95
India,Maharashtra,Mumbai,"Navy Nagar-Colaba, Mumbai - IITM",21-04-2026 09:00:00,18.897756,72.813320,OZONE,32,74,45
India,Maharashtra,Mumbai,"Powai, Mumbai - MPCB",21-04-2026 09:00:00,19.137500,72.915056,SO2,1,11,4
India,Maharashtra,Mumbai,"Sewri, Mumbai - BMC",21-04-2026 09:00:00,19.000084,72.856730,NH3,6,14,8
India,Maharashtra,Mumbai,"Sion, Mumbai - MPCB",21-04-2026 09:00:00,19.047000,72.874600,NH3,7,7,7
India,Maharashtra,Mumbai,"Vile Parle West, Mumbai - MPCB",21-04-2026 09:00:00,19.10861,72.83622,NO2,11,11,11
India,Maharashtra,Mumbai,"Worli, Mumbai -MPCB",21-04-2026 09:00:00,18.9942180,72.8158167,PM10,41,107,61
India,Maharashtra,Mumbai,"Worli, Mumbai -MPCB",21-04-2026 09:00:00,18.9942180,72.8158167,OZONE,7,50,27
India,Maharashtra,Nagpur,"Ambazari, Nagpur - MPCB",21-04-2026 09:00:00,21.121801,79.04952,NH3,2,25,6
India,Maharashtra,Nagpur,"Ambazari, Nagpur - MPCB",21-04-2026 09:00:00,21.121801,79.04952,OZONE,1,81,43
India,Maharashtra,Nagpur,"Opp GPO Civil Lines, Nagpur - MPCB",21-04-2026 09:00:00,21.152875,79.0517531,PM2.5,NA,NA,NA
India,Maharashtra,Pune,"Mhada Colony, Pune - IITM",21-04-2026 09:00:00,18.573040,73.927715,CO,55,88,70
India,Maharashtra,Pune,"Revenue Colony-Shivajinagar, Pune - IITM",21-04-2026 09:00:00,18.530085,73.849598,PM2.5,NA,NA,NA
India,Maharashtra,Pune,"Revenue Colony-Shivajinagar, Pune - IITM",21-04-2026 09:00:00,18.530085,73.849598,CO,NA,NA,NA
India,Maharashtra,Pune,"Savitribai Phule Pune University, Pune - MPCB",21-04-2026 09:00:00,18.547056,73.826908,NO2,7,39,21
India,Maharashtra,Satara,"Koyana Nagar, Satara - MPCB",21-04-2026 09:00:00,17.696651,74.003387,PM10,NA,NA,NA
India,Maharashtra,Pimpri-Chinchwad,"Thergaon, Pimpri Chinchwad - MPCB",21-04-2026 09:00:00,18.616318,73.765797,CO,14,51,31
India,Maharashtra,Pune,"Dhankawadi, Pune - IITM",21-04-2026 09:00:00,18.459883,73.852193,PM2.5,41,145,62
India,Maharashtra,Pune,"Dhankawadi, Pune - IITM",21-04-2026 09:00:00,18.459883,73.852193,CO,2,86,43
India,Maharashtra,Pune,"Hadapsar, Pune - IITM",21-04-2026 09:00:00,18.501793,73.927532,PM2.5,41,152,70
India,Maharashtra,Pune,"Hadapsar, Pune - IITM",21-04-2026 09:00:00,18.501793,73.927532,OZONE,6,125,29
India,Maharashtra,Nagpur,"Ram Nagar, Nagpur - MPCB",21-04-2026 09:00:00,21.143383,79.048912,NH3,4,4,4
India,Maharashtra,Nanded,"Sneh Nagar, Nanded - MPCB",21-04-2026 09:00:00,19.173852,77.296291,NO2,22,94,45
India,Maharashtra,Nanded,"Sneh Nagar, Nanded - MPCB",21-04-2026 09:00:00,19.173852,77.296291,NH3,4,5,4
India,Maharashtra,Nashik,"Gangapur Road, Nashik - MPCB",21-04-2026 09:00:00,20.0073285,73.7762427,NH3,3,3,3
India,Maharashtra,Nagpur,"Opp GPO Civil Lines, Nagpur - MPCB",21-04-2026 09:00:00,21.152875,79.0517531,OZONE,7,70,34
India,Odisha,Suakati,"OMC Colony, Suakati - OSPCB",21-04-2026 09:00:00,21.606865,85.510538,PM2.5,75,319,156
India,Odisha,Suakati,"OMC Colony, Suakati - OSPCB",21-04-2026 09:00:00,21.606865,85.510538,NO2,10,10,10
India,Odisha,Suakati,"OMC Colony, Suakati - OSPCB",21-04-2026 09:00:00,21.606865,85.510538,CO,12,32,20
India,Odisha,Talcher,"Talcher Coalfields,Talcher - OSPCB",21-04-2026 09:00:00,20.9360711,85.1707021,PM2.5,3,208,77
India,Puducherry,Puducherry,"Jawahar Nagar, Puducherry - PPCC",21-04-2026 09:00:00,11.9309,79.8027,CO,13,31,20
India,Puducherry,Puducherry,"Jawahar Nagar, Puducherry - PPCC",21-04-2026 09:00:00,11.9309,79.8027,OZONE,6,35,13
India,Punjab,Amritsar,"Golden Temple, Amritsar - PPCB",21-04-2026 09:00:00,31.620000,74.876512,NO2,22,386,160
India,Punjab,Amritsar,"Golden Temple, Amritsar - PPCB",21-04-2026 09:00:00,31.620000,74.876512,SO2,4,26,15
India,Punjab,Amritsar,"Golden Temple, Amritsar - PPCB",21-04-2026 09:00:00,31.620000,74.876512,OZONE,38,59,49
India,Odisha,Angul,"Hakimapada, Angul - OSPCB",21-04-2026 09:00:00,20.832874,85.104082,PM2.5,22,193,68
India,Odisha,Balasore,"Kalidaspur, Balasore - OSPCB",21-04-2026 09:00:00,21.51161,86.89088,SO2,7,35,18
India,Odisha,Barbil,"Forest Office, Barbil - OSPCB",21-04-2026 09:00:00,22.1166054,85.3945546,PM2.5,28,193,106
India,Odisha,Barbil,"Forest Office, Barbil - OSPCB",21-04-2026 09:00:00,22.1166054,85.3945546,CO,4,75,4
India,Odisha,Baripada,"Meher Colony, Baripada - OSPCB",21-04-2026 09:00:00,21.941841,86.728318,OZONE,23,70,48
India,Odisha,Bhubaneswar,"Lingraj Mandir, Bhubaneswar - OSPCB",21-04-2026 09:00:00,20.240790,85.836784,NH3,4,7,5
India,Odisha,Bhubaneswar,"Lingraj Mandir, Bhubaneswar - OSPCB",21-04-2026 09:00:00,20.240790,85.836784,SO2,3,6,4
India,Odisha,Keonjhar,"Jagamohanpur, Keonjhar - OSPCB",21-04-2026 09:00:00,21.643900,85.599355,OZONE,16,51,36
India,Odisha,Rairangpur,"Divisional Forest Office, Rairangpur - OSPCB",21-04-2026 09:00:00,22.265816,86.174829,PM2.5,19,68,45
India,Odisha,Rairangpur,"Divisional Forest Office, Rairangpur - OSPCB",21-04-2026 09:00:00,22.265816,86.174829,PM10,40,104,72
India,Odisha,Rourkela,"Fertilizer Township, Rourkela - OSPCB",21-04-2026 09:00:00,22.18972222,84.86277778,PM2.5,74,122,84
India,Odisha,Rourkela,"Raghunathpali, Rourkela - OSPCB",21-04-2026 09:00:00,22.220833,84.809444,PM10,72,125,98
India,Odisha,Rourkela,"Raghunathpali, Rourkela - OSPCB",21-04-2026 09:00:00,22.220833,84.809444,NO2,15,15,15
India,Maharashtra,Solapur,"Ratandeep Housing Society, Solapur - MPCB",21-04-2026 09:00:00,17.65439,75.90649,SO2,4,12,6
India,Maharashtra,Thane,"Kasarvadavali, Thane - MPCB",21-04-2026 09:00:00,19.26777,72.97182,PM2.5,NA,NA,NA
India,Maharashtra,Thane,"Kasarvadavali, Thane - MPCB",21-04-2026 09:00:00,19.26777,72.97182,SO2,NA,NA,NA
India,Maharashtra,Ulhasnagar,"Sidhi Vinayak Nagar, Ulhasnagar - MPCB",21-04-2026 09:00:00,19.235581,73.159121,NH3,3,7,5
India,Maharashtra,Ulhasnagar,"Vithalwadi, Ulhasnagar - MPCB",21-04-2026 09:00:00,19.2307571 ,73.1551920,NO2,19,36,25
India,Meghalaya,Byrnihat,"15th Mile-Nongthymmai, Byrnihat - Meghalaya PCB",21-04-2026 09:00:00,26.05374,91.86796,PM2.5,7,70,28
India,Meghalaya,Byrnihat,"15th Mile-Nongthymmai, Byrnihat - Meghalaya PCB",21-04-2026 09:00:00,26.05374,91.86796,PM10,53,201,95
India,Meghalaya,Byrnihat,"15th Mile-Nongthymmai, Byrnihat - Meghalaya PCB",21-04-2026 09:00:00,26.05374,91.86796,SO2,NA,NA,NA
India,Meghalaya,Byrnihat,"15th Mile-Nongthymmai, Byrnihat - Meghalaya PCB",21-04-2026 09:00:00,26.05374,91.86796,CO,6,80,11
India,Meghalaya,Shillong,"Lumpyngngad, Shillong - Meghalaya PCB",21-04-2026 09:00:00,25.5586,91.8985,PM2.5,7,202,23
India,Meghalaya,Shillong,"Lumpyngngad, Shillong - Meghalaya PCB",21-04-2026 09:00:00,25.5586,91.8985,CO,5,10,6
India,Punjab,Jalandhar,"Civil Line, Jalandhar - PPCB",21-04-2026 09:00:00,31.321907,75.578914,NO2,30,38,34
India,Punjab,Jalandhar,"Civil Line, Jalandhar - PPCB",21-04-2026 09:00:00,31.321907,75.578914,NH3,5,7,6
India,Punjab,Khanna,"Kalal Majra, Khanna - PPCB",21-04-2026 09:00:00,30.736056 ,76.209694,NO2,26,31,28
India,Punjab,Khanna,"Kalal Majra, Khanna - PPCB",21-04-2026 09:00:00,30.736056 ,76.209694,CO,12,63,28
India,Punjab,Ludhiana,"Punjab Agricultural University, Ludhiana - PPCB",21-04-2026 09:00:00,30.9028,75.8086,NO2,33,53,45
India,Punjab,Rupnagar,"Ratanpura, Rupnagar - Ambuja Cements",21-04-2026 09:00:00,31.0325454,76.5623046,NO2,9,46,27
India,Rajasthan,Ajmer,"Civil Lines,  Ajmer - RSPCB",21-04-2026 09:00:00,26.470859,74.646594,PM2.5,45,84,61
India,Rajasthan,Alwar,"Moti Doongri, Alwar - RSPCB",21-04-2026 09:00:00,27.554793,76.611536,SO2,1,36,19
India,Punjab,Mandi Gobindgarh,"RIMT University, Mandi Gobindgarh - PPCB",21-04-2026 09:00:00,30.649961,76.331442,NO2,23,24,24
India,Punjab,Mandi Gobindgarh,"RIMT University, Mandi Gobindgarh - PPCB",21-04-2026 09:00:00,30.649961,76.331442,SO2,3,114,29
India,Odisha,Brajrajnagar,"GM Office, Brajrajnagar - OSPCB",21-04-2026 09:00:00,21.8004996,83.8396977,PM2.5,3,149,40
India,Odisha,Brajrajnagar,"GM Office, Brajrajnagar - OSPCB",21-04-2026 09:00:00,21.8004996,83.8396977,CO,13,40,35
India,Rajasthan,Chittorgarh,"Shastri Nagar, Chittorgarh - RSPCB",21-04-2026 09:00:00,24.892047,74.623527,NO2,4,60,22
India,Rajasthan,Chittorgarh,"Shastri Nagar, Chittorgarh - RSPCB",21-04-2026 09:00:00,24.892047,74.623527,NH3,11,19,16
India,Rajasthan,Chittorgarh,"Shastri Nagar, Chittorgarh - RSPCB",21-04-2026 09:00:00,24.892047,74.623527,SO2,6,14,8
India,Rajasthan,Churu,"Subash Chowk, Churu - RSPCB",21-04-2026 09:00:00,28.296139,74.961696,PM2.5,32,141,64
India,Rajasthan,Churu,"Subash Chowk, Churu - RSPCB",21-04-2026 09:00:00,28.296139,74.961696,PM10,89,240,124
India,Rajasthan,Churu,"Subash Chowk, Churu - RSPCB",21-04-2026 09:00:00,28.296139,74.961696,NH3,4,8,6
India,Rajasthan,Dausa,"Khatikan Mohalla, Dausa - RSPCB",21-04-2026 09:00:00,26.895552,76.334753,NH3,4,17,11
India,Rajasthan,Dausa,"Khatikan Mohalla, Dausa - RSPCB",21-04-2026 09:00:00,26.895552,76.334753,OZONE,22,152,40
India,Rajasthan,Dholpur,"Raja Ganj, Dholpur - RSPCB",21-04-2026 09:00:00,26.699557,77.898881,NH3,NA,NA,NA
India,Rajasthan,Dholpur,"Raja Ganj, Dholpur - RSPCB",21-04-2026 09:00:00,26.699557,77.898881,SO2,2,21,8
India,Rajasthan,Dungarpur,"Bhoiwada, Dungarpur - RSPCB",21-04-2026 09:00:00,23.837789,73.714926,PM10,NA,NA,NA
India,Rajasthan,Dungarpur,"Bhoiwada, Dungarpur - RSPCB",21-04-2026 09:00:00,23.837789,73.714926,SO2,4,7,5
India,Rajasthan,Dungarpur,"Bhoiwada, Dungarpur - RSPCB",21-04-2026 09:00:00,23.837789,73.714926,CO,9,40,30
India,Rajasthan,Jodhpur,"Collectorate, Jodhpur - RSPCB",21-04-2026 09:00:00,26.268249,73.0193853,NO2,17,27,21
India,Rajasthan,Jodhpur,"Collectorate, Jodhpur - RSPCB",21-04-2026 09:00:00,26.268249,73.0193853,CO,5,64,25
India,Rajasthan,Jodhpur,"Digari Kalan, Jodhpur - RSPCB",21-04-2026 09:00:00,26.295810,73.082283,PM2.5,12,57,34
India,Rajasthan,Jodhpur,"Digari Kalan, Jodhpur - RSPCB",21-04-2026 09:00:00,26.295810,73.082283,OZONE,38,103,46
India,Rajasthan,Jodhpur,"Jhalamand, Jodhpur - RSPCB",21-04-2026 09:00:00,26.215415,73.070156,CO,6,22,14
India,Rajasthan,Jodhpur,"Mandor, Jodhpur - RSPCB",21-04-2026 09:00:00,26.358805,73.047444,PM10,58,147,101
India,Rajasthan,Jodhpur,"Mandor, Jodhpur - RSPCB",21-04-2026 09:00:00,26.358805,73.047444,SO2,5,12,8
India,Rajasthan,Jodhpur,"Samrat Ashok Udhyan, Jodhpur - RSPCB",21-04-2026 09:00:00,26.253384,72.976571,PM10,61,165,100
India,Rajasthan,Jodhpur,"Samrat Ashok Udhyan, Jodhpur - RSPCB",21-04-2026 09:00:00,26.253384,72.976571,NH3,3,5,4
India,Rajasthan,Jodhpur,"Samrat Ashok Udhyan, Jodhpur - RSPCB",21-04-2026 09:00:00,26.253384,72.976571,CO,12,24,17
India,Rajasthan,Karauli,"Satyawati Vihar, Karauli - RSPCB",21-04-2026 09:00:00,26.506177,77.025989,PM10,61,140,94
India,Rajasthan,Tonk,"Shastri Nagar, Tonk - RSPCB",21-04-2026 09:00:00,26.159933,75.780517,PM10,87,183,129
India,Rajasthan,Udaipur,"Ashok Nagar, Udaipur - RSPCB",21-04-2026 09:00:00,24.5886166,73.6321397,SO2,1,22,7
India,Rajasthan,Udaipur,"Ashok Nagar, Udaipur - RSPCB",21-04-2026 09:00:00,24.5886166,73.6321397,OZONE,3,52,6
India,Sikkim,Gangtok,"Zero Point GICI, Gangtok - SSPCB",21-04-2026 09:00:00,27.338530,88.614099,PM2.5,35,60,48
India,Sikkim,Gangtok,"Zero Point GICI, Gangtok - SSPCB",21-04-2026 09:00:00,27.338530,88.614099,CO,3,10,6
India,TamilNadu,Chennai,"Arumbakkam, Chennai - TNPCB",21-04-2026 09:00:00,13.0664,80.2112 ,NO2,9,16,12
India,TamilNadu,Chennai,"Kodungaiyur, Chennai - TNPCB",21-04-2026 09:00:00,13.1278,80.2642,CO,24,34,31
India,TamilNadu,Chennai,"Kodungaiyur, Chennai - TNPCB",21-04-2026 09:00:00,13.1278,80.2642,OZONE,25,33,28
India,TamilNadu,Chennai,"Manali Village, Chennai - TNPCB",21-04-2026 09:00:00,13.1662,80.2584,PM2.5,1,35,13
India,Rajasthan,Bharatpur,"Krishna Nagar, Bharatpur - RSPCB",21-04-2026 09:00:00,27.215415,77.50873,NO2,10,42,24
India,Rajasthan,Bharatpur,"Krishna Nagar, Bharatpur - RSPCB",21-04-2026 09:00:00,27.215415,77.50873,SO2,5,22,12
India,Rajasthan,Bhilwara,"Pratap Nagar, Bhilwara - RSPCB",21-04-2026 09:00:00,25.339605,74.618883,NH3,3,11,5
India,Rajasthan,Bhiwadi,"RIICO Ind. Area III, Bhiwadi - RSPCB",21-04-2026 09:00:00,28.194909,76.862296,PM2.5,78,268,163
India,Rajasthan,Bhiwadi,"Vasundhara Nagar_UIT, Bhiwadi - RSPCB",21-04-2026 09:00:00,28.207266,76.829265,PM2.5,20,122,52
India,Rajasthan,Bhiwadi,"Vasundhara Nagar_UIT, Bhiwadi - RSPCB",21-04-2026 09:00:00,28.207266,76.829265,NO2,9,70,35
India,Rajasthan,Bikaner,"MM Ground, Bikaner - RSPCB",21-04-2026 09:00:00,28.018792,73.292658,SO2,NA,NA,NA
India,Rajasthan,Bundi,"New Colony, Bundi - RSPCB",21-04-2026 09:00:00,25.435774,75.644272,PM2.5,10,123,36
India,Rajasthan,Bundi,"New Colony, Bundi - RSPCB",21-04-2026 09:00:00,25.435774,75.644272,SO2,8,19,12
India,Rajasthan,Hanumangarh,"Housing Board, Hanumangarh - RSPCB",21-04-2026 09:00:00,29.610750,74.283608,CO,28,83,52
India,Rajasthan,Jaipur,"Adarsh Nagar, Jaipur - RSPCB",21-04-2026 09:00:00,26.902909,75.836858,PM2.5,44,194,117
India,Rajasthan,Jaipur,"Adarsh Nagar, Jaipur - RSPCB",21-04-2026 09:00:00,26.902909,75.836858,CO,4,70,22
India,Rajasthan,Jaipur,"Mansarovar Sector-12, Jaipur - RSPCB",21-04-2026 09:00:00,26.843698,75.766894,NH3,NA,NA,NA
India,Rajasthan,Jaipur,"Police Commissionerate, Jaipur - RSPCB",21-04-2026 09:00:00,26.9164092,75.7994901,PM10,49,152,122
India,Rajasthan,Jaipur,"Police Commissionerate, Jaipur - RSPCB",21-04-2026 09:00:00,26.9164092,75.7994901,CO,22,68,26
India,Rajasthan,Jaipur,"RIICO Sitapura, Jaipur - RSPCB",21-04-2026 09:00:00,26.786682,75.827928,PM2.5,23,317,120
India,Rajasthan,Jaipur,"RIICO Sitapura, Jaipur - RSPCB",21-04-2026 09:00:00,26.786682,75.827928,NO2,18,137,74
India,Rajasthan,Jaipur,"RIICO Sitapura, Jaipur - RSPCB",21-04-2026 09:00:00,26.786682,75.827928,SO2,9,19,14
India,Rajasthan,Pratapgarh,"Pragati Nagar, Pratapgarh - RSPCB",21-04-2026 09:00:00,24.041198,74.780702,NH3,5,10,8
India,Rajasthan,Rajsamand,"Dhoinda, Rajsamand - RSPCB",21-04-2026 09:00:00,25.036360,73.883502,NO2,9,35,15
India,Rajasthan,Rajsamand,"Dhoinda, Rajsamand - RSPCB",21-04-2026 09:00:00,25.036360,73.883502,NH3,7,14,9
India,Rajasthan,Sawai Madhopur,"Sahu Nagar, Sawai Madhopur - RSPCB",21-04-2026 09:00:00,26.031443,76.359327,PM2.5,9,78,39
India,Rajasthan,Sawai Madhopur,"Sahu Nagar, Sawai Madhopur - RSPCB",21-04-2026 09:00:00,26.031443,76.359327,NH3,3,5,4
India,Rajasthan,Sawai Madhopur,"Sahu Nagar, Sawai Madhopur - RSPCB",21-04-2026 09:00:00,26.031443,76.359327,CO,20,76,53
India,Rajasthan,Sikar,"Radhakishan Pura, Sikar - RSPCB",21-04-2026 09:00:00,27.608912,75.153302,NO2,6,101,30
India,Rajasthan,Sirohi,"Vedhaynath Colony, Sirohi - RSPCB",21-04-2026 09:00:00,24.885261,72.857549,NH3,3,6,4
India,Rajasthan,Jaipur,"Shastri Nagar, Jaipur - RSPCB",21-04-2026 09:00:00,26.9502929,75.730943,NH3,7,15,11
India,Rajasthan,Jaisalmer,"Sadar Bazar, Jaisalmer - RSPCB",21-04-2026 09:00:00,26.912329,70.909168,PM2.5,NA,NA,NA
India,Rajasthan,Jaisalmer,"Sadar Bazar, Jaisalmer - RSPCB",21-04-2026 09:00:00,26.912329,70.909168,PM10,64,218,124
India,Rajasthan,Jalore,"Mudtra Sili, Jalore - RSPCB",21-04-2026 09:00:00,25.344694,72.626208,PM2.5,20,57,36
India,Rajasthan,Jhalawar,"Rajlaxmi Nagar, Jhalawar - RSPCB",21-04-2026 09:00:00,24.588397,76.172782,PM2.5,18,93,46
India,Rajasthan,Jhalawar,"Rajlaxmi Nagar, Jhalawar - RSPCB",21-04-2026 09:00:00,24.588397,76.172782,PM10,31,169,91
India,Rajasthan,Jhunjhunu,"Indra Nagar, Jhunjhunu - RSPCB",21-04-2026 09:00:00,28.108988,75.386577,NO2,8,61,25
India,Rajasthan,Kota,"Nayapura, Kota - RSPCB",21-04-2026 09:00:00,25.196024,75.855668,SO2,2,36,22
India,Rajasthan,Kota,"Nayapura, Kota - RSPCB",21-04-2026 09:00:00,25.196024,75.855668,OZONE,4,125,50
India,Rajasthan,Kota,"Shrinath Puram, Kota - RSPCB",21-04-2026 09:00:00,25.14389,75.821256,PM10,40,75,60
India,Rajasthan,Kota,"Shrinath Puram, Kota - RSPCB",21-04-2026 09:00:00,25.14389,75.821256,NH3,5,21,10
India,Rajasthan,Nagaur,"Karni Colony, Nagaur - RSPCB",21-04-2026 09:00:00,27.213494,73.734444,NH3,7,12,9
India,Rajasthan,Nagaur,"Karni Colony, Nagaur - RSPCB",21-04-2026 09:00:00,27.213494,73.734444,CO,8,48,17
India,Rajasthan,Banswara,"Rati Talai, Banswara - RSPCB",21-04-2026 09:00:00,23.555190,74.440010,NO2,10,71,34
India,Rajasthan,Banswara,"Rati Talai, Banswara - RSPCB",21-04-2026 09:00:00,23.555190,74.440010,SO2,1,13,6
India,Rajasthan,Baran,"Bamboliya, Baran - RSPCB",21-04-2026 09:00:00,25.106006,76.469948,NO2,14,104,35
India,Rajasthan,Barmer,"Railway Colony, Barmer - RSPCB",21-04-2026 09:00:00,25.747299,71.393989,SO2,1,8,4
India,Rajasthan,Barmer,"Railway Colony, Barmer - RSPCB",21-04-2026 09:00:00,25.747299,71.393989,OZONE,41,87,46
India,TamilNadu,Coimbatore,"SIDCO Kurichi, Coimbatore - TNPCB",21-04-2026 09:00:00,10.942451,76.978996,SO2,23,24,24
India,TamilNadu,Gummidipoondi,"Anthoni Pillai Nagar, Gummidipoondi - TNPCB",21-04-2026 09:00:00,13.4127,80.1081,PM2.5,12,430,86
India,TamilNadu,Gummidipoondi,"Anthoni Pillai Nagar, Gummidipoondi - TNPCB",21-04-2026 09:00:00,13.4127,80.1081,SO2,17,25,20
India,TamilNadu,Madurai,"Uchapatti, Madurai - TNPCB",21-04-2026 09:00:00,9.865935,78.022669,PM10,38,85,54
India,TamilNadu,Ooty,"Bombay Castel, Ooty - TNPCB",21-04-2026 09:00:00,11.4068288,76.7138973,PM10,NA,NA,NA
India,TamilNadu,Perundurai,"SIPCOT Industrial Park, Perundurai - TNPCB",21-04-2026 09:00:00,11.258242,77.552761,SO2,16,17,17
India,TamilNadu,Ramanathapuram,"Chalai Bazaar, Ramanathapuram - TNPCB",21-04-2026 09:00:00,9.36399,78.831977,OZONE,3,4,4
India,Telangana,Hyderabad,"Central University, Hyderabad - TSPCB",21-04-2026 09:00:00,17.460103,78.334361,PM2.5,2,29,19
India,Telangana,Hyderabad,"ECIL Kapra, Hyderabad - TSPCB",21-04-2026 09:00:00,17.470431,78.566959,NO2,4,41,25
India,Telangana,Hyderabad,"ICRISAT Patancheru, Hyderabad - TSPCB",21-04-2026 09:00:00,17.518400,78.278777,PM2.5,14,64,38
India,Telangana,Hyderabad,"ICRISAT Patancheru, Hyderabad - TSPCB",21-04-2026 09:00:00,17.518400,78.278777,NO2,4,19,11
India,Telangana,Hyderabad,"ICRISAT Patancheru, Hyderabad - TSPCB",21-04-2026 09:00:00,17.518400,78.278777,NH3,1,5,3
India,Telangana,Hyderabad,"ICRISAT Patancheru, Hyderabad - TSPCB",21-04-2026 09:00:00,17.518400,78.278777,CO,22,121,54
India,Telangana,Hyderabad,"IDA Pashamylaram, Hyderabad - TSPCB",21-04-2026 09:00:00,17.5316895,78.218939,NO2,7,10,8
India,Telangana,Hyderabad,"IDA Pashamylaram, Hyderabad - TSPCB",21-04-2026 09:00:00,17.5316895,78.218939,OZONE,18,23,19
India,Telangana,Hyderabad,"IITH Kandi, Hyderabad - TSPCB",21-04-2026 09:00:00,17.585705,78.126199,SO2,12,15,13
India,Telangana,Hyderabad,"Kokapet, Hyderabad - TSPCB",21-04-2026 09:00:00,17.393559,78.339194,PM2.5,51,84,62
India,Telangana,Hyderabad,"Kokapet, Hyderabad - TSPCB",21-04-2026 09:00:00,17.393559,78.339194,OZONE,19,41,20
India,Uttar_Pradesh,Ghaziabad,"Vasundhara, Ghaziabad - UPPCB",21-04-2026 09:00:00,28.6603346,77.3572563,PM2.5,28,224,113
India,Uttar_Pradesh,Ghaziabad,"Vasundhara, Ghaziabad - UPPCB",21-04-2026 09:00:00,28.6603346,77.3572563,NO2,42,145,86
India,Uttar_Pradesh,Ghaziabad,"Vasundhara, Ghaziabad - UPPCB",21-04-2026 09:00:00,28.6603346,77.3572563,NH3,9,16,12
India,Uttar_Pradesh,Ghaziabad,"Vasundhara, Ghaziabad - UPPCB",21-04-2026 09:00:00,28.6603346,77.3572563,CO,32,115,41
India,Uttar_Pradesh,Ghaziabad,"Vasundhara, Ghaziabad - UPPCB",21-04-2026 09:00:00,28.6603346,77.3572563,OZONE,10,105,30
India,Uttar_Pradesh,Ghaziabad,"Ved Vihar-Loni, Ghaziabad - UPPCB",21-04-2026 09:00:00,28.739153 ,77.273668 ,PM10,142,431,271
India,Uttar_Pradesh,Ghaziabad,"Ved Vihar-Loni, Ghaziabad - UPPCB",21-04-2026 09:00:00,28.739153 ,77.273668 ,NH3,17,29,21
India,Uttar_Pradesh,Ghaziabad,"Ved Vihar-Loni, Ghaziabad - UPPCB",21-04-2026 09:00:00,28.739153 ,77.273668 ,CO,40,64,52
India,Uttar_Pradesh,Gorakhpur,"Madan Mohan Malaviya University of Technology, Gorakhpur - UPPCB",21-04-2026 09:00:00,26.730136,83.433859,PM2.5,47,187,96
India,Telangana,Hyderabad,"Kompally Municipal Office, Hyderabad - TSPCB",21-04-2026 09:00:00,17.544899,78.486949,CO,15,50,24
India,Telangana,Hyderabad,"Kompally Municipal Office, Hyderabad - TSPCB",21-04-2026 09:00:00,17.544899,78.486949,OZONE,14,36,16
India,Telangana,Hyderabad,"New Malakpet, Hyderabad - TSPCB",21-04-2026 09:00:00,17.37206,78.50864,PM2.5,37,86,58
India,Telangana,Hyderabad,"Ramachandrapuram, Hyderabad - TSPCB",21-04-2026 09:00:00,17.528544,78.286195,PM2.5,43,55,47
India,Telangana,Hyderabad,"Ramachandrapuram, Hyderabad - TSPCB",21-04-2026 09:00:00,17.528544,78.286195,NH3,3,5,4
India,Telangana,Hyderabad,"Ramachandrapuram, Hyderabad - TSPCB",21-04-2026 09:00:00,17.528544,78.286195,SO2,8,13,11
India,Telangana,Hyderabad,"Sanathnagar, Hyderabad - TSPCB",21-04-2026 09:00:00,17.4559458,78.4332152,NO2,NA,NA,NA
India,Telangana,Hyderabad,"Somajiguda, Hyderabad - TSPCB",21-04-2026 09:00:00,17.417094,78.457437,SO2,17,24,18
India,TamilNadu,Chennai,"Manali, Chennai - CPCB",21-04-2026 09:00:00,13.164544,80.26285,PM10,24,64,41
India,TamilNadu,Chennai,"Manali, Chennai - CPCB",21-04-2026 09:00:00,13.164544,80.26285,NH3,6,7,6
India,TamilNadu,Chennai,"Perungudi, Chennai - TNPCB",21-04-2026 09:00:00,12.9533,80.2357,SO2,2,8,5
India,TamilNadu,Chennai,"Perungudi, Chennai - TNPCB",21-04-2026 09:00:00,12.9533,80.2357,OZONE,1,8,2
India,TamilNadu,Chennai,"Royapuram, Chennai - TNPCB",21-04-2026 09:00:00,13.1036,80.2909,NO2,11,15,13
India,TamilNadu,Chennai,"Royapuram, Chennai - TNPCB",21-04-2026 09:00:00,13.1036,80.2909,OZONE,16,18,17
India,TamilNadu,Chennai,"Velachery Res. Area, Chennai - CPCB",21-04-2026 09:00:00,13.0052189,80.2398125,SO2,4,7,6
India,TamilNadu,Coimbatore,"SIDCO Kurichi, Coimbatore - TNPCB",21-04-2026 09:00:00,10.942451,76.978996,PM10,39,58,50
India,Uttar_Pradesh,Baghpat,"Sardar Patel Inter College, Baghpat - UPPCB",21-04-2026 09:00:00,28.964949,77.278761,PM2.5,34,219,126
India,Uttar_Pradesh,Baghpat,"Sardar Patel Inter College, Baghpat - UPPCB",21-04-2026 09:00:00,28.964949,77.278761,NH3,1,4,2
India,Uttar_Pradesh,Baghpat,"Sardar Patel Inter College, Baghpat - UPPCB",21-04-2026 09:00:00,28.964949,77.278761,SO2,3,76,40
India,Uttar_Pradesh,Baghpat,"Sardar Patel Inter College, Baghpat - UPPCB",21-04-2026 09:00:00,28.964949,77.278761,CO,4,102,74
India,Uttar_Pradesh,Bareilly,"Civil Lines, Bareilly - UPPCB",21-04-2026 09:00:00,28.359581,79.414455,PM10,46,98,58
India,Uttar_Pradesh,Bulandshahr,"Yamunapuram, Bulandshahr - UPPCB",21-04-2026 09:00:00,28.406963,77.849831,PM10,127,311,185
India,Uttar_Pradesh,Bulandshahr,"Yamunapuram, Bulandshahr - UPPCB",21-04-2026 09:00:00,28.406963,77.849831,SO2,8,66,28
India,Uttar_Pradesh,Firozabad,"Vibhab Nagar, Firozabad - UPPCB",21-04-2026 09:00:00,27.1594,78.3953,PM2.5,55,181,96
India,Uttar_Pradesh,Firozabad,"Vibhab Nagar, Firozabad - UPPCB",21-04-2026 09:00:00,27.1594,78.3953,PM10,80,169,120
India,Uttar_Pradesh,Firozabad,"Vibhab Nagar, Firozabad - UPPCB",21-04-2026 09:00:00,27.1594,78.3953,NO2,15,15,15
India,Uttar_Pradesh,Firozabad,"Vibhab Nagar, Firozabad - UPPCB",21-04-2026 09:00:00,27.1594,78.3953,SO2,2,4,3
India,Uttar_Pradesh,Ghaziabad,"Govindpuram, Ghaziabad - UPPCB",21-04-2026 09:00:00,28.694528 ,77.494705 ,SO2,6,88,34
India,Uttar_Pradesh,Ghaziabad,"Govindpuram, Ghaziabad - UPPCB",21-04-2026 09:00:00,28.694528 ,77.494705 ,OZONE,44,223,60
India,Tripura,Agartala,"Bardowali, Agartala - Tripura SPCB",21-04-2026 09:00:00,23.8175497,91.2726974,CO,6,24,10
India,Uttar_Pradesh,Agra,"Sanjay Palace, Agra - UPPCB",21-04-2026 09:00:00,27.19865833,78.00598056,SO2,17,18,18
India,Uttar_Pradesh,Ghaziabad,"Loni, Ghaziabad - UPPCB",21-04-2026 09:00:00,28.757294,77.278792,PM2.5,47,318,190
India,Uttar_Pradesh,Ghaziabad,"Loni, Ghaziabad - UPPCB",21-04-2026 09:00:00,28.757294,77.278792,NH3,1,6,3
India,West_Bengal,Durgapur,"Mahishkapur Road_B-Zone, Durgapur - WBPCB",21-04-2026 09:00:00,23.567923,87.306843,SO2,5,35,10
India,West_Bengal,Durgapur,"PCBL Residential Complex, Durgapur - WBPCB",21-04-2026 09:00:00,23.5087640,87.3544400,NH3,5,8,7
India,West_Bengal,Durgapur,"Womens College_City Center, Durgapur - WBPCB",21-04-2026 09:00:00,23.549395,87.300496,NH3,2,5,3
India,West_Bengal,Haldia,"Priyambada Housing Estate, Haldia - WBPCB",21-04-2026 09:00:00,22.06047,88.109737,NH3,3,4,4
India,West_Bengal,Haldia,"Priyambada Housing Estate, Haldia - WBPCB",21-04-2026 09:00:00,22.06047,88.109737,OZONE,12,46,15
India,West_Bengal,Howrah,"Belur Math, Howrah - WBPCB",21-04-2026 09:00:00,22.629801,88.352017,PM10,55,83,66
India,West_Bengal,Howrah,"Belur Math, Howrah - WBPCB",21-04-2026 09:00:00,22.629801,88.352017,CO,4,28,18
India,West_Bengal,Howrah,"Botanical Garden, Howrah - WBPCB",21-04-2026 09:00:00,22.554954,88.292568,NO2,5,43,17
India,West_Bengal,Howrah,"Botanical Garden, Howrah - WBPCB",21-04-2026 09:00:00,22.554954,88.292568,CO,8,22,16
India,West_Bengal,Howrah,"Botanical Garden, Howrah - WBPCB",21-04-2026 09:00:00,22.554954,88.292568,OZONE,7,39,20
India,Uttar_Pradesh,Khurja,"Kalindi Kunj, Khurja - UPPCB",21-04-2026 09:00:00,28.2348927,77.8683002,PM2.5,41,178,78
India,Uttar_Pradesh,Khurja,"Kalindi Kunj, Khurja - UPPCB",21-04-2026 09:00:00,28.2348927,77.8683002,SO2,9,11,10
India,Uttar_Pradesh,Khurja,"Kalindi Kunj, Khurja - UPPCB",21-04-2026 09:00:00,28.2348927,77.8683002,OZONE,11,23,12
India,Uttar_Pradesh,Lucknow,"B R Ambedkar University, Lucknow - UPPCB",21-04-2026 09:00:00,26.766433,80.927299,PM2.5,32,227,110
India,Uttar_Pradesh,Lucknow,"B R Ambedkar University, Lucknow - UPPCB",21-04-2026 09:00:00,26.766433,80.927299,PM10,98,176,145
India,Uttar_Pradesh,Lucknow,"Gomti Nagar, Lucknow - UPPCB",21-04-2026 09:00:00,26.868120,81.005119,PM10,62,128,91
India,Uttar_Pradesh,Lucknow,"Kendriya Vidyalaya, Lucknow - CPCB",21-04-2026 09:00:00,26.906111,80.948222,OZONE,28,38,35
India,Uttar_Pradesh,Lucknow,"Kukrail Picnic Spot-1, Lucknow - UPPCB",21-04-2026 09:00:00,26.90723,80.98579,PM10,91,187,123
India,Uttar_Pradesh,Moradabad,"Transport Nagar, Moradabad - UPPCB",21-04-2026 09:00:00,28.802625,78.753728,NO2,29,30,29
India,Uttar_Pradesh,Muzaffarnagar,"New Mandi, Muzaffarnagar - UPPCB",21-04-2026 09:00:00,29.4723508,77.7194031,SO2,7,56,32
India,Uttar_Pradesh,Noida,"Sector - 125, Noida - UPPCB",21-04-2026 09:00:00,28.5447608,77.3231257,NH3,13,19,16
India,Uttar_Pradesh,Noida,"Sector - 125, Noida - UPPCB",21-04-2026 09:00:00,28.5447608,77.3231257,SO2,8,18,12
India,Uttar_Pradesh,Noida,"Sector - 125, Noida - UPPCB",21-04-2026 09:00:00,28.5447608,77.3231257,OZONE,8,149,16
India,Uttar_Pradesh,Noida,"Sector - 62, Noida - IMD",21-04-2026 09:00:00,28.6245479,77.3577104,CO,46,66,57
India,Uttar_Pradesh,Noida,"Sector-1, Noida - UPPCB",21-04-2026 09:00:00,28.5898,77.3101,PM10,130,313,199
India,Uttar_Pradesh,Noida,"Sector-116, Noida - UPPCB",21-04-2026 09:00:00,28.569230,77.393848,NO2,1,19,17
India,Uttar_Pradesh,Prayagraj,"Motilal Nehru NIT, Prayagraj - UPPCB",21-04-2026 09:00:00,25.494,81.863,OZONE,1,39,2
India,Uttar_Pradesh,Prayagraj,"Nagar Nigam, Prayagraj - UPPCB",21-04-2026 09:00:00,25.44919916 ,81.82735986 ,PM2.5,20,57,33
India,Uttar_Pradesh,Prayagraj,"Nagar Nigam, Prayagraj - UPPCB",21-04-2026 09:00:00,25.44919916 ,81.82735986 ,CO,20,38,27
India,Uttar_Pradesh,Varanasi,"Ardhali Bazar, Varanasi - UPPCB",21-04-2026 09:00:00,25.3505986,82.9083074,PM10,75,151,109
India,Uttar_Pradesh,Varanasi,"Ardhali Bazar, Varanasi - UPPCB",21-04-2026 09:00:00,25.3505986,82.9083074,SO2,10,11,11
India,Uttar_Pradesh,Varanasi,"Bhelupur, Varanasi - UPPCB",21-04-2026 09:00:00,25.301778,82.996789,NH3,1,1,1
India,Uttar_Pradesh,Varanasi,"Bhelupur, Varanasi - UPPCB",21-04-2026 09:00:00,25.301778,82.996789,CO,5,26,13
India,Uttar_Pradesh,Varanasi,"IESD Banaras Hindu University, Varanasi - UPPCB",21-04-2026 09:00:00,25.262326,82.995408,NH3,1,3,1
India,Uttar_Pradesh,Lucknow,"Talkatora District Industries Center, Lucknow - CPCB",21-04-2026 09:00:00,26.83399722,80.8917361,SO2,3,22,7
India,Uttar_Pradesh,Lucknow,"Talkatora District Industries Center, Lucknow - CPCB",21-04-2026 09:00:00,26.83399722,80.8917361,OZONE,NA,NA,NA
India,Uttar_Pradesh,Meerut,"Ganga Nagar, Meerut - UPPCB",21-04-2026 09:00:00,28.999264,77.7590354,NO2,81,119,107
India,Uttar_Pradesh,Meerut,"Ganga Nagar, Meerut - UPPCB",21-04-2026 09:00:00,28.999264,77.7590354,NH3,5,24,9
India,Uttar_Pradesh,Meerut,"Jai Bhim Nagar, Meerut - UPPCB",21-04-2026 09:00:00,28.9535882,77.7622941,NO2,6,59,24
India,Uttar_Pradesh,Meerut,"Jai Bhim Nagar, Meerut - UPPCB",21-04-2026 09:00:00,28.9535882,77.7622941,SO2,7,12,9
India,Uttar_Pradesh,Meerut,"Pallavpuram Phase 2, Meerut - UPPCB",21-04-2026 09:00:00,29.063510,77.709723,NO2,21,83,47
India,West_Bengal,Asansol,"Asansol Court Area, Asansol - WBPCB",21-04-2026 09:00:00,23.685297,86.945968,NH3,3,14,6
India,West_Bengal,Asansol,"Evelyn Lodge, Asansol - WBPCB",21-04-2026 09:00:00,23.6979360,86.9443950,PM10,50,101,73
India,West_Bengal,Asansol,"Evelyn Lodge, Asansol - WBPCB",21-04-2026 09:00:00,23.6979360,86.9443950,SO2,68,75,70
India,West_Bengal,Asansol,"Evelyn Lodge, Asansol - WBPCB",21-04-2026 09:00:00,23.6979360,86.9443950,OZONE,24,59,32
India,West_Bengal,Barrackpore,"SVSPA Campus, Barrackpore - WBPCB",21-04-2026 09:00:00,22.7605581,88.3617589,PM10,36,89,61
India,West_Bengal,Barrackpore,"SVSPA Campus, Barrackpore - WBPCB",21-04-2026 09:00:00,22.7605581,88.3617589,NH3,4,6,5
India,West_Bengal,Durgapur,"Mahishkapur Road_B-Zone, Durgapur - WBPCB",21-04-2026 09:00:00,23.567923,87.306843,NH3,2,5,3
India,Uttar_Pradesh,Varanasi,"IESD Banaras Hindu University, Varanasi - UPPCB",21-04-2026 09:00:00,25.262326,82.995408,SO2,22,29,24
India,Uttar_Pradesh,Varanasi,"Maldahiya, Varanasi - UPPCB",21-04-2026 09:00:00,25.32393,82.99687,SO2,33,37,35
India,Uttar_Pradesh,Varanasi,"Maldahiya, Varanasi - UPPCB",21-04-2026 09:00:00,25.32393,82.99687,CO,15,43,28
India,Uttar_Pradesh,Vrindavan,"Omex Eternity, Vrindavan - UPPCB",21-04-2026 09:00:00,27.5714090,77.6557570,NO2,27,27,27
India,Uttarakhand,Dehradun,"Doon University, Dehradun - UKPCB",21-04-2026 09:00:00,30.269444,78.044167,PM2.5,11,65,44
India,Uttar_Pradesh,Moradabad,"Eco Herbal Park, Moradabad - UPPCB",21-04-2026 09:00:00,28.840739,78.697531,PM10,74,174,126
India,Uttar_Pradesh,Moradabad,"Employment Office, Moradabad - UPPCB",21-04-2026 09:00:00,28.88528,78.73880,NH3,4,4,4
India,Uttar_Pradesh,Moradabad,"Employment Office, Moradabad - UPPCB",21-04-2026 09:00:00,28.88528,78.73880,CO,5,56,12
India,Uttar_Pradesh,Moradabad,"Jigar Colony, Moradabad - UPPCB",21-04-2026 09:00:00,28.856664,78.772638,SO2,NA,NA,NA
India,Uttar_Pradesh,Moradabad,"Kashiram Nagar, Moradabad - UPPCB",21-04-2026 09:00:00,28.849399,78.742362,PM10,42,139,93
India,Uttar_Pradesh,Hapur,"Anand Vihar, Hapur - UPPCB",21-04-2026 09:00:00,28.725645,77.749675,PM2.5,30,213,103
India,Uttar_Pradesh,Kanpur,"Nehru Nagar, Kanpur - UPPCB",21-04-2026 09:00:00,26.4703136,80.3229863,NO2,39,47,43
India,West_Bengal,Howrah,"Dasnagar, Howrah - WBPCB",21-04-2026 09:00:00,22.6025571,88.3105664,CO,18,36,27
India,West_Bengal,Howrah,"Ghusuri, Howrah - WBPCB",21-04-2026 09:00:00,22.611968,88.347422,CO,64,102,86
India,West_Bengal,Howrah,"Padmapukur, Howrah - WBPCB",21-04-2026 09:00:00,22.5687319,88.2797276,SO2,5,67,19
India,West_Bengal,Howrah,"Padmapukur, Howrah - WBPCB",21-04-2026 09:00:00,22.5687319,88.2797276,CO,4,27,14
India,West_Bengal,Kolkata,"Ballygunge, Kolkata - WBPCB",21-04-2026 09:00:00,22.5367507,88.3638022,NH3,6,7,6
India,West_Bengal,Kolkata,"Bidhannagar, Kolkata - WBPCB",21-04-2026 09:00:00,22.58157048,88.41002457,NO2,12,15,14
India,West_Bengal,Kolkata,"Bidhannagar, Kolkata - WBPCB",21-04-2026 09:00:00,22.58157048,88.41002457,SO2,7,12,9
India,West_Bengal,Kolkata,"Fort William, Kolkata - WBPCB",21-04-2026 09:00:00,22.556640,88.342674,NH3,9,10,9
India,West_Bengal,Kolkata,"Fort William, Kolkata - WBPCB",21-04-2026 09:00:00,22.556640,88.342674,OZONE,5,27,16
India,West_Bengal,Kolkata,"Jadavpur, Kolkata - WBPCB",21-04-2026 09:00:00,22.49929,88.36917,PM10,34,67,49
India,West_Bengal,Kolkata,"Rabindra Bharati University, Kolkata - WBPCB",21-04-2026 09:00:00,22.627847,88.380669,NO2,32,76,48
India,West_Bengal,Kolkata,"Rabindra Sarobar, Kolkata - WBPCB",21-04-2026 09:00:00,22.51106,88.35142,PM2.5,19,70,37
India,West_Bengal,Kolkata,"Rabindra Sarobar, Kolkata - WBPCB",21-04-2026 09:00:00,22.51106,88.35142,PM10,39,82,48
India,West_Bengal,Siliguri,"Ward-32 Bapupara, Siliguri - WBPCB",21-04-2026 09:00:00,26.6879226,88.4152495,NO2,53,112,75
India,West_Bengal,Siliguri,"Ward-32 Bapupara, Siliguri - WBPCB",21-04-2026 09:00:00,26.6879226,88.4152495,OZONE,12,57,21
India,Bihar,Araria,"Kharahiya Basti, Araria - BSPCB",21-04-2026 09:00:00,26.146529,87.454184,NO2,12,18,14
India,Bihar,Araria,"Kharahiya Basti, Araria - BSPCB",21-04-2026 09:00:00,26.146529,87.454184,SO2,37,64,52
India,Bihar,Araria,"Kharahiya Basti, Araria - BSPCB",21-04-2026 09:00:00,26.146529,87.454184,CO,8,31,26
India,Bihar,Arrah,"New DM Office, Arrah - BSPCB",21-04-2026 09:00:00,25.5626095,84.663264,NO2,6,9,7
India,Bihar,Aurangabad,"Gurdeo Nagar, Aurangabad - BSPCB",21-04-2026 09:00:00,24.75746,84.366208,PM10,21,82,51
India,Bihar,Aurangabad,"Gurdeo Nagar, Aurangabad - BSPCB",21-04-2026 09:00:00,24.75746,84.366208,OZONE,15,65,29
India,Bihar,Begusarai,"Lohiyanagar, Begusarai - BSPCB",21-04-2026 09:00:00,25.42742023,86.13886079,NO2,9,16,13
India,Bihar,Begusarai,"Lohiyanagar, Begusarai - BSPCB",21-04-2026 09:00:00,25.42742023,86.13886079,NH3,3,4,4
India,Bihar,Bettiah,"Kamalnath Nagar, Bettiah - BSPCB",21-04-2026 09:00:00,26.80365,84.51954,PM2.5,8,63,31
India,Bihar,Bettiah,"Kamalnath Nagar, Bettiah - BSPCB",21-04-2026 09:00:00,26.80365,84.51954,PM10,11,76,37
India,Bihar,Bettiah,"Kamalnath Nagar, Bettiah - BSPCB",21-04-2026 09:00:00,26.80365,84.51954,SO2,16,32,24
India,Bihar,Bhagalpur,"DM Office_Kachari Chowk, Bhagalpur - BSPCB",21-04-2026 09:00:00,25.251013,86.989001,PM10,65,127,87
India,Bihar,Bhagalpur,"DM Office_Kachari Chowk, Bhagalpur - BSPCB",21-04-2026 09:00:00,25.251013,86.989001,NO2,11,14,12
India,Andhra_Pradesh,Machilipatnam,"Srinivas Nagar Colony, Machilipatnam - APPCB",21-04-2026 09:00:00,16.186555,81.13219,PM2.5,36,65,43
India,Andhra_Pradesh,Machilipatnam,"Srinivas Nagar Colony, Machilipatnam - APPCB",21-04-2026 09:00:00,16.186555,81.13219,NO2,4,15,10
India,Andhra_Pradesh,Machilipatnam,"Srinivas Nagar Colony, Machilipatnam - APPCB",21-04-2026 09:00:00,16.186555,81.13219,NH3,3,5,5
India,Andhra_Pradesh,Nellore,"Ambedkar Nagar, Nellore - APPCB ",21-04-2026 09:00:00,14.438164 ,79.966814 ,NO2,18,27,22
India,Andhra_Pradesh,Nellore,"Ambedkar Nagar, Nellore - APPCB ",21-04-2026 09:00:00,14.438164 ,79.966814 ,SO2,7,17,10
India,Andhra_Pradesh,Nellore,"Ambedkar Nagar, Nellore - APPCB ",21-04-2026 09:00:00,14.438164 ,79.966814 ,CO,33,40,40
India,Andhra_Pradesh,Rajamahendravaram,"Anand Kala Kshetram, Rajamahendravaram - APPCB",21-04-2026 09:00:00,16.9872867,81.7363176,PM2.5,3,35,18
India,Andhra_Pradesh,Tirumala,"Toll Gate, Tirumala - APPCB",21-04-2026 09:00:00,13.67,79.35,PM10,24,100,55
India,Andhra_Pradesh,Tirupati,"Vaikuntapuram, Tirupati - APPCB",21-04-2026 09:00:00,13.615387,79.409230,PM10,37,481,117
India,Bihar,Bhagalpur,"DM Office_Kachari Chowk, Bhagalpur - BSPCB",21-04-2026 09:00:00,25.251013,86.989001,SO2,27,101,63
India,Bihar,Bhagalpur,"Mayaganj, Bhagalpur - BSPCB",21-04-2026 09:00:00,25.265194,87.012947,CO,79,98,85
India,Bihar,Bihar Sharif,"D M Colony, Bihar Sharif - BSPCB",21-04-2026 09:00:00,25.204762,85.514960,CO,26,118,45
India,Bihar,Bihar Sharif,"D M Colony, Bihar Sharif - BSPCB",21-04-2026 09:00:00,25.204762,85.514960,OZONE,1,2,2
India,Bihar,Buxar,"Charitra Van, Buxar - BSPCB",21-04-2026 09:00:00,25.567520,83.966379,PM10,41,100,61
India,Bihar,Buxar,"Charitra Van, Buxar - BSPCB",21-04-2026 09:00:00,25.567520,83.966379,SO2,25,32,28
India,Bihar,Chhapra,"Darshan Nagar, Chhapra - BSPCB",21-04-2026 09:00:00,25.7808257,84.7446768,NO2,NA,NA,NA
India,Bihar,Chhapra,"Darshan Nagar, Chhapra - BSPCB",21-04-2026 09:00:00,25.7808257,84.7446768,CO,NA,NA,NA
India,Bihar,Gaya,"Collectorate, Gaya - BSPCB",21-04-2026 09:00:00,24.7955,84.9994,PM2.5,52,317,146
India,Andhra_Pradesh,Amaravati,"Secretariat, Amaravati - APPCB",21-04-2026 09:00:00,16.5150833,80.5181667,SO2,1,26,13
India,Andhra_Pradesh,Amaravati,"Secretariat, Amaravati - APPCB",21-04-2026 09:00:00,16.5150833,80.5181667,CO,8,16,12
India,Andhra_Pradesh,Anantapur,"Gulzarpet, Anantapur - APPCB",21-04-2026 09:00:00,14.675886,77.593027,NO2,20,25,24
India,Andhra_Pradesh,Anantapur,"Gulzarpet, Anantapur - APPCB",21-04-2026 09:00:00,14.675886,77.593027,CO,16,68,21
India,Andhra_Pradesh,Chittoor,"Gangineni Cheruvu, Chittoor - APPCB",21-04-2026 09:00:00,13.204880,79.097889,PM2.5,45,70,54
India,Andhra_Pradesh,Chittoor,"Gangineni Cheruvu, Chittoor - APPCB",21-04-2026 09:00:00,13.204880,79.097889,SO2,7,18,9
India,Andhra_Pradesh,Chittoor,"Gangineni Cheruvu, Chittoor - APPCB",21-04-2026 09:00:00,13.204880,79.097889,CO,7,18,8
India,Andhra_Pradesh,Chittoor,"Gangineni Cheruvu, Chittoor - APPCB",21-04-2026 09:00:00,13.204880,79.097889,OZONE,15,37,17
India,Andhra_Pradesh,Eluru,"District Court, Eluru - APPCB",21-04-2026 09:00:00,16.711754,81.092095,NO2,6,24,13
India,Andhra_Pradesh,Guntur,"Rajendra Nagar North, Guntur - APPCB",21-04-2026 09:00:00,16.316553,80.413302,NO2,13,25,18
India,Bihar,Muzaffarpur,"MIT-Daudpur Kothi, Muzaffarpur - BSPCB",21-04-2026 09:00:00,26.1403345,85.3650192,CO,28,45,36
India,Bihar,Muzaffarpur,"Muzaffarpur Collectorate, Muzaffarpur - BSPCB",21-04-2026 09:00:00,26.1209,85.3647,SO2,4,10,6
India,Bihar,Patna,"DRM Office Danapur, Patna - BSPCB",21-04-2026 09:00:00,25.586562,85.043586,PM10,90,402,169
India,Bihar,Patna,"Govt. High School Shikarpur, Patna - BSPCB",21-04-2026 09:00:00,25.592539,85.227158,PM10,86,306,169
India,Bihar,Patna,"Govt. High School Shikarpur, Patna - BSPCB",21-04-2026 09:00:00,25.592539,85.227158,SO2,8,9,9
India,Bihar,Patna,"Muradpur, Patna - BSPCB",21-04-2026 09:00:00,25.619651,85.147382,SO2,6,11,9
India,Bihar,Patna,"Muradpur, Patna - BSPCB",21-04-2026 09:00:00,25.619651,85.147382,CO,22,113,44
India,Bihar,Patna,"Rajbansi Nagar, Patna - BSPCB",21-04-2026 09:00:00,25.599486,85.113666,NO2,30,34,31
India,Bihar,Patna,"Rajbansi Nagar, Patna - BSPCB",21-04-2026 09:00:00,25.599486,85.113666,NH3,2,3,3
India,Andhra_Pradesh,Visakhapatnam,"GVM Corporation, Visakhapatnam - APPCB",21-04-2026 09:00:00,17.72,83.3,PM10,69,292,128
India,Andhra_Pradesh,Visakhapatnam,"GVM Corporation, Visakhapatnam - APPCB",21-04-2026 09:00:00,17.72,83.3,CO,3,60,22
India,Arunachal_Pradesh,Naharlagun,"Naharlagun, Naharlagun - APSPCB",21-04-2026 09:00:00,27.103358,93.679645,NO2,7,8,8
India,Arunachal_Pradesh,Naharlagun,"Naharlagun, Naharlagun - APSPCB",21-04-2026 09:00:00,27.103358,93.679645,OZONE,6,7,6
India,Assam,Byrnihat,"Central Academy for SFS, Byrnihat - PCBA",21-04-2026 09:00:00,26.071318,91.87488,NO2,4,13,8
India,Assam,Byrnihat,"Central Academy for SFS, Byrnihat - PCBA",21-04-2026 09:00:00,26.071318,91.87488,SO2,20,32,31
India,Assam,Byrnihat,"Central Academy for SFS, Byrnihat - PCBA",21-04-2026 09:00:00,26.071318,91.87488,CO,30,97,69
India,Assam,Guwahati,"LGBI Airport, Guwahati - PCBA",21-04-2026 09:00:00,26.10887,91.589544,PM2.5,12,54,40
India,Assam,Guwahati,"LGBI Airport, Guwahati - PCBA",21-04-2026 09:00:00,26.10887,91.589544,SO2,4,14,11
India,Assam,Nagaon,"Christianpatty, Nagaon - PCBA",21-04-2026 09:00:00,26.349082,92.68449,SO2,5,13,12
India,Assam,Nagaon,"Christianpatty, Nagaon - PCBA",21-04-2026 09:00:00,26.349082,92.68449,CO,4,23,22
India,Assam,Nalbari,"Bata Chowk, Nalbari - PCBA",21-04-2026 09:00:00,26.446912,91.439057,PM2.5,18,54,37
India,Assam,Nalbari,"Bata Chowk, Nalbari - PCBA",21-04-2026 09:00:00,26.446912,91.439057,SO2,5,56,26
India,Assam,Nalbari,"Bata Chowk, Nalbari - PCBA",21-04-2026 09:00:00,26.446912,91.439057,CO,8,22,19
India,Assam,Silchar,"Tarapur, Silchar - PCBA",21-04-2026 09:00:00,24.82827,92.79525,NO2,27,33,32
India,Assam,Sivasagar,"Girls College, Sivasagar - PCBA",21-04-2026 09:00:00,26.987634,94.636574,NH3,5,7,6
India,Assam,Sivasagar,"Girls College, Sivasagar - PCBA",21-04-2026 09:00:00,26.987634,94.636574,CO,16,26,22
India,Bihar,Araria,"Kharahiya Basti, Araria - BSPCB",21-04-2026 09:00:00,26.146529,87.454184,PM2.5,25,77,47
India,Bihar,Kishanganj,"SDM Office_Khagra, Kishanganj - BSPCB",21-04-2026 09:00:00,26.0881305,87.93840336,CO,14,16,15
India,Bihar,Manguraha,"Forest Rest House, Manguraha - BSPCB",21-04-2026 09:00:00,27.308328,84.531742,SO2,15,17,16
India,Bihar,Manguraha,"Forest Rest House, Manguraha - BSPCB",21-04-2026 09:00:00,27.308328,84.531742,OZONE,1,13,9
India,Bihar,Motihari,"Gandak Colony, Motihari - BSPCB",21-04-2026 09:00:00,26.63086,84.90051,PM2.5,45,318,114
India,Bihar,Munger,"Town Hall, Munger - BSPCB",21-04-2026 09:00:00,25.376776,86.471523,PM2.5,40,133,61
India,Bihar,Muzaffarpur,"Buddha Colony, Muzaffarpur - BSPCB",21-04-2026 09:00:00,26.11442,85.39813,NO2,19,48,32
India,Bihar,Gaya,"Kareemganj, Gaya - BSPCB",21-04-2026 09:00:00,24.792403,84.992416,OZONE,5,119,34
India,Bihar,Gaya,"SFTI Kusdihra, Gaya - BSPCB",21-04-2026 09:00:00,24.762518,84.982348,PM10,55,85,71
India,Bihar,Gaya,"SFTI Kusdihra, Gaya - BSPCB",21-04-2026 09:00:00,24.762518,84.982348,CO,6,57,30
India,Bihar,Katihar,"Mirchaibari, Katihar - BSPCB",21-04-2026 09:00:00,25.560083,87.553265,NO2,7,11,9
India,Bihar,Katihar,"Mirchaibari, Katihar - BSPCB",21-04-2026 09:00:00,25.560083,87.553265,NH3,1,1,1
India,Bihar,Katihar,"Mirchaibari, Katihar - BSPCB",21-04-2026 09:00:00,25.560083,87.553265,SO2,15,24,18
India,Bihar,Katihar,"Mirchaibari, Katihar - BSPCB",21-04-2026 09:00:00,25.560083,87.553265,CO,62,98,94
India,Andhra_Pradesh,Tirupati,"Vaikuntapuram, Tirupati - APPCB",21-04-2026 09:00:00,13.615387,79.409230,NO2,24,39,29
India,Andhra_Pradesh,Tirupati,"Vaikuntapuram, Tirupati - APPCB",21-04-2026 09:00:00,13.615387,79.409230,SO2,6,19,9
India,Andhra_Pradesh,Tirupati,"Vaikuntapuram, Tirupati - APPCB",21-04-2026 09:00:00,13.615387,79.409230,OZONE,19,39,20
India,Andhra_Pradesh,Vijayawada,"Rajiv Gandhi Park, Vijayawada - APPCB",21-04-2026 09:00:00,16.509717,80.612222,OZONE,16,75,16
India,Andhra_Pradesh,Vijayawada,"Rajiv Nagar, Vijayawada - APPCB",21-04-2026 09:00:00,16.554731,80.649110,NO2,NA,NA,NA
India,Chhattisgarh,Korba,"Rampur, Korba - CECB",21-04-2026 09:00:00,22.368195,82.746431,NH3,NA,NA,NA
India,Chhattisgarh,Korba,"Rampur, Korba - CECB",21-04-2026 09:00:00,22.368195,82.746431,SO2,6,118,51
India,Chhattisgarh,Korba,"Urja Nagar, Korba - CECB",21-04-2026 09:00:00,22.348441,82.549611,PM2.5,13,18,15
India,Chhattisgarh,Korba,"Urja Nagar, Korba - CECB",21-04-2026 09:00:00,22.348441,82.549611,SO2,7,17,12
India,Chhattisgarh,Kunjemura,"OP Jindal School, Kunjemura - CECB",21-04-2026 09:00:00,22.126650,83.483212,CO,20,70,44
India,Chhattisgarh,Kunjemura,"OP Jindal School, Kunjemura - CECB",21-04-2026 09:00:00,22.126650,83.483212,OZONE,3,41,7
India,Chhattisgarh,Raipur,"AIIMS, Raipur - CECB",21-04-2026 09:00:00,21.258815,81.578979,OZONE,7,54,7
India,Chhattisgarh,Raipur,"Bhatagaon New ISBT, Raipur - CECB",21-04-2026 09:00:00,21.219665,81.630094,PM2.5,22,52,33
India,Chhattisgarh,Raipur,"Bhatagaon New ISBT, Raipur - CECB",21-04-2026 09:00:00,21.219665,81.630094,PM10,31,164,61
India,Chhattisgarh,Raipur,"Bhatagaon New ISBT, Raipur - CECB",21-04-2026 09:00:00,21.219665,81.630094,NO2,25,33,29
India,Chhattisgarh,Raipur,"Bhatagaon New ISBT, Raipur - CECB",21-04-2026 09:00:00,21.219665,81.630094,OZONE,1,9,2
India,Chhattisgarh,Raipur,"Siltara Phase-II, Raipur - CECB",21-04-2026 09:00:00,21.371751,81.664929,PM2.5,34,74,56
India,Chhattisgarh,Bhilai,"32Bungalows, Bhilai - CECB",21-04-2026 09:00:00,21.194815,81.314770,PM10,17,45,31
India,Chhattisgarh,Bhilai,"32Bungalows, Bhilai - CECB",21-04-2026 09:00:00,21.194815,81.314770,CO,14,28,24
India,Chhattisgarh,Bhilai,"Civic Center, Bhilai - Bhilai Steel Plant",21-04-2026 09:00:00,21.185571,81.343175,NO2,13,14,13
India,Chhattisgarh,Bhilai,"Hathkhoj, Bhilai - CECB",21-04-2026 09:00:00,21.224231,81.408350,NH3,4,6,5
India,Chhattisgarh,Bhilai,"Hathkhoj, Bhilai - CECB",21-04-2026 09:00:00,21.224231,81.408350,SO2,5,60,16
India,Chhattisgarh,Bhilai,"Hathkhoj, Bhilai - CECB",21-04-2026 09:00:00,21.224231,81.408350,OZONE,8,21,10
India,Chhattisgarh,Bilaspur,"Mangala, Bilaspur - NTPC",21-04-2026 09:00:00,22.08815,82.13737,NO2,11,154,32
India,Chhattisgarh,Chhal,"Nawapara SECL Colony, Chhal - CECB",21-04-2026 09:00:00,22.118125,83.140608,PM2.5,NA,NA,NA
India,Delhi,Delhi,"DTU, Delhi - CPCB",21-04-2026 09:00:00,28.7500499,77.1112615,NH3,7,15,11
India,Delhi,Delhi,"Dr. Karni Singh Shooting Range, Delhi - DPCC",21-04-2026 09:00:00,28.498571,77.264840,PM10,119,384,203
India,Delhi,Delhi,"Dr. Karni Singh Shooting Range, Delhi - DPCC",21-04-2026 09:00:00,28.498571,77.264840,NO2,15,137,64
India,Delhi,Delhi,"Dr. Karni Singh Shooting Range, Delhi - DPCC",21-04-2026 09:00:00,28.498571,77.264840,CO,16,101,54
India,Delhi,Delhi,"Dwarka-Sector 8, Delhi - DPCC ",21-04-2026 09:00:00,28.5710274,77.0719006,CO,32,116,58
India,Delhi,Delhi,"Dwarka-Sector 8, Delhi - DPCC ",21-04-2026 09:00:00,28.5710274,77.0719006,OZONE,11,56,18
India,Delhi,Delhi,"IGNOU_Maidan Garhi, Delhi - DPCC",21-04-2026 09:00:00,28.493624 ,77.201159 ,SO2,8,26,15
India,Delhi,Delhi,"IHBAS, Dilshad Garden, Delhi - CPCB",21-04-2026 09:00:00,28.6811736,77.3025234,NH3,NA,NA,NA
India,Delhi,Delhi,"Major Dhyan Chand National Stadium, Delhi - DPCC",21-04-2026 09:00:00,28.611281,77.237738,SO2,9,51,21
India,Delhi,Delhi,"Mandir Marg, Delhi - DPCC",21-04-2026 09:00:00,28.636429,77.201067,PM10,95,273,137
India,Delhi,Delhi,"Mandir Marg, Delhi - DPCC",21-04-2026 09:00:00,28.636429,77.201067,NO2,31,81,55
India,Delhi,Delhi,"Mundka, Delhi - DPCC",21-04-2026 09:00:00,28.684678,77.076574,PM2.5,22,358,175
India,Delhi,Delhi,"Mundka, Delhi - DPCC",21-04-2026 09:00:00,28.684678,77.076574,NH3,4,10,6
India,Delhi,Delhi,"Mundka, Delhi - DPCC",21-04-2026 09:00:00,28.684678,77.076574,CO,46,87,72
India,Delhi,Delhi,"NSUT Jaffarpur, Delhi - DPCC",21-04-2026 09:00:00,28.594004 ,76.909423 ,PM10,79,281,172
India,Delhi,Delhi,"NSUT Jaffarpur, Delhi - DPCC",21-04-2026 09:00:00,28.594004 ,76.909423 ,SO2,31,76,48
India,Delhi,Delhi,"NSUT Jaffarpur, Delhi - DPCC",21-04-2026 09:00:00,28.594004 ,76.909423 ,CO,38,71,66
India,Chhattisgarh,Raipur,"Siltara Phase-II, Raipur - CECB",21-04-2026 09:00:00,21.371751,81.664929,SO2,14,91,51
India,Chhattisgarh,Raipur,"Siltara Phase-II, Raipur - CECB",21-04-2026 09:00:00,21.371751,81.664929,CO,17,24,19
India,Chhattisgarh,Tumidih,"OP Jindal Industrial Park, Tumidih - CECB",21-04-2026 09:00:00,22.06631475,83.33820077,NO2,36,99,65
India,Chhattisgarh,Tumidih,"OP Jindal Industrial Park, Tumidih - CECB",21-04-2026 09:00:00,22.06631475,83.33820077,NH3,1,3,2
India,Delhi,Delhi,"Anand Vihar, Delhi - DPCC",21-04-2026 09:00:00,28.647622,77.3158090,PM10,131,416,228
India,Delhi,Delhi,"Anand Vihar, Delhi - DPCC",21-04-2026 09:00:00,28.647622,77.3158090,SO2,2,39,19
India,Delhi,Delhi,"Aya Nagar, Delhi - IMD",21-04-2026 09:00:00,28.4706914,77.1099364,PM2.5,35,168,88
India,Delhi,Delhi,"Burari Crossing, Delhi - IMD",21-04-2026 09:00:00,28.7256504,77.2011573,OZONE,7,120,20
India,Delhi,Delhi,"CRRI Mathura Road, Delhi - IMD",21-04-2026 09:00:00,28.5512005,77.2735737,OZONE,18,83,22
India,Delhi,Delhi,"Cantonment Area, Delhi - DPCC ",21-04-2026 09:00:00,28.594169 ,77.125100 ,PM10,96,294,164
India,Delhi,Delhi,"Cantonment Area, Delhi - DPCC ",21-04-2026 09:00:00,28.594169 ,77.125100 ,CO,26,73,62
India,Delhi,Delhi,"Chandni Chowk, Delhi - IITM",21-04-2026 09:00:00,28.656756,77.227234,SO2,13,42,23
India,Delhi,Delhi,"Commonwealth Sports Complex, Delhi - DPCC",21-04-2026 09:00:00,28.615828 ,77.271992 ,NH3,3,8,5
India,Bihar,Patna,"Samanpura, Patna - BSPCB",21-04-2026 09:00:00,25.596727,85.085624,NH3,4,5,5
India,Bihar,Patna,"Samanpura, Patna - BSPCB",21-04-2026 09:00:00,25.596727,85.085624,CO,38,124,64
India,Bihar,Rajgir,"Dangi Tola, Rajgir - BSPCB",21-04-2026 09:00:00,25.03280,85.41948,OZONE,22,29,25
India,Bihar,Saharsa,"Police Line, Saharsa - BSPCB",21-04-2026 09:00:00,25.892357,86.590325,PM10,11,258,130
India,Bihar,Samastipur,"DM Office_Kasipur, Samastipur - BSPCB",21-04-2026 09:00:00,25.859655,85.77944,PM10,NA,NA,NA
India,Bihar,Sasaram,"Dada Peer, Sasaram - BSPCB",21-04-2026 09:00:00,24.952822,84.002396,NH3,2,4,3
India,Bihar,Siwan,"Chitragupta Nagar, Siwan - BSPCB",21-04-2026 09:00:00,26.2271665,84.3570427,OZONE,7,15,14
India,Chandigarh,Chandigarh,"Sector-25, Chandigarh - CPCC",21-04-2026 09:00:00,30.751462,76.762879,NH3,NA,NA,NA
India,Chhattisgarh,Bhilai,"32Bungalows, Bhilai - CECB",21-04-2026 09:00:00,21.194815,81.314770,PM2.5,21,32,27
India,Delhi,Delhi,"IIT Delhi, Delhi - IITM",21-04-2026 09:00:00,28.542460,77.191651,CO,5,57,37
India,Delhi,Delhi,"JNU, Delhi - DPCC",21-04-2026 09:00:00,28.540721 ,77.168544 ,NH3,1,4,2
India,Delhi,Delhi,"Jawaharlal Nehru Stadium, Delhi - DPCC",21-04-2026 09:00:00,28.580280,77.233829,PM2.5,28,312,111
India,Delhi,Delhi,"Jawaharlal Nehru Stadium, Delhi - DPCC",21-04-2026 09:00:00,28.580280,77.233829,NO2,24,131,76
India,Delhi,Delhi,"Jawaharlal Nehru Stadium, Delhi - DPCC",21-04-2026 09:00:00,28.580280,77.233829,SO2,14,61,26
India,Gujarat,Rajkot,"Mavdi, Rajkot - Nexteng Enviro ",21-04-2026 09:00:00,22.248853,70.776774,PM2.5,29,135,62
India,Gujarat,Rajkot,"Mavdi, Rajkot - Nexteng Enviro ",21-04-2026 09:00:00,22.248853,70.776774,NH3,1,2,1
India,Gujarat,Rajkot,"Mavdi, Rajkot - Nexteng Enviro ",21-04-2026 09:00:00,22.248853,70.776774,CO,88,98,93
India,Gujarat,Surat,"Katargam, Surat - Nexteng Enviro",21-04-2026 09:00:00,21.217779 ,72.834787 ,PM2.5,15,90,59
India,Gujarat,Surat,"Katargam, Surat - Nexteng Enviro",21-04-2026 09:00:00,21.217779 ,72.834787 ,SO2,6,22,7
India,Gujarat,Surat,"Science Center, Surat - SMC",21-04-2026 09:00:00,21.170046,72.795405,PM10,57,131,85
India,Gujarat,Surat,"Science Center, Surat - SMC",21-04-2026 09:00:00,21.170046,72.795405,NO2,15,16,15
India,Gujarat,Vadodara,"Bapunagar, Vadodara - Nexteng Enviro",21-04-2026 09:00:00,22.320153,73.216285,PM10,100,189,129
India,Gujarat,Vadodara,"Bapunagar, Vadodara - Nexteng Enviro",21-04-2026 09:00:00,22.320153,73.216285,NO2,10,22,16
India,Gujarat,Vadodara,"Bapunagar, Vadodara - Nexteng Enviro",21-04-2026 09:00:00,22.320153,73.216285,NH3,2,3,3
India,Gujarat,Vadodara,"Bapunagar, Vadodara - Nexteng Enviro",21-04-2026 09:00:00,22.320153,73.216285,CO,75,103,96
India,Gujarat,Vadodara,"Bapunagar, Vadodara - Nexteng Enviro",21-04-2026 09:00:00,22.320153,73.216285,OZONE,2,10,2
India,Gujarat,Vapi,"Phase-1 GIDC, Vapi - GPCB",21-04-2026 09:00:00,20.362421,72.918013,OZONE,7,27,7
India,Gujarat,Ahmedabad,"Raikhad, Ahmedabad - IITM",21-04-2026 09:00:00,23.020509,72.579261,CO,13,110,20
India,Gujarat,Ahmedabad,"Rakhial, Ahmedabad - IITM",21-04-2026 09:00:00,23.016834,72.625775,NH3,2,12,3
India,Gujarat,Ahmedabad,"Rakhial, Ahmedabad - IITM",21-04-2026 09:00:00,23.016834,72.625775,SO2,19,121,58
India,Gujarat,Ahmedabad,"Rakhial, Ahmedabad - IITM",21-04-2026 09:00:00,23.016834,72.625775,CO,2,129,9
India,Gujarat,Ahmedabad,"SAC ISRO Bopal, Ahmedabad - IITM",21-04-2026 09:00:00,23.041137,72.456691,NH3,2,7,4
India,Gujarat,Ahmedabad,"SAC ISRO Satellite, Ahmedabad - IITM",21-04-2026 09:00:00,23.023389,72.515201,PM2.5,61,153,85
India,Gujarat,Ahmedabad,"SAC ISRO Satellite, Ahmedabad - IITM",21-04-2026 09:00:00,23.023389,72.515201,SO2,11,36,19
India,Gujarat,Ahmedabad,"SVPI Airport Hansol, Ahmedabad - IITM",21-04-2026 09:00:00,23.076793,72.627874,PM2.5,40,89,61
India,Gujarat,Ahmedabad,"SVPI Airport Hansol, Ahmedabad - IITM",21-04-2026 09:00:00,23.076793,72.627874,PM10,87,171,115
India,Gujarat,Ankleshwar,"GIDC, Ankleshwar - GPCB",21-04-2026 09:00:00,21.613267,73.010555,PM2.5,58,192,101
India,Gujarat,Ankleshwar,"GIDC, Ankleshwar - GPCB",21-04-2026 09:00:00,21.613267,73.010555,PM10,89,174,114
India,Gujarat,Ankleshwar,"GIDC, Ankleshwar - GPCB",21-04-2026 09:00:00,21.613267,73.010555,NO2,27,32,31
India,Delhi,Delhi,"NSUT Jaffarpur, Delhi - DPCC",21-04-2026 09:00:00,28.594004 ,76.909423 ,OZONE,3,186,61
India,Delhi,Delhi,"Najafgarh, Delhi - DPCC",21-04-2026 09:00:00,28.570173,76.933762,PM2.5,23,325,174
India,Delhi,Delhi,"Najafgarh, Delhi - DPCC",21-04-2026 09:00:00,28.570173,76.933762,NH3,11,13,12
India,Delhi,Delhi,"Narela, Delhi - DPCC",21-04-2026 09:00:00,28.822836,77.101981,OZONE,22,64,33
India,Delhi,Delhi,"Nehru Nagar, Delhi - DPCC",21-04-2026 09:00:00,28.567890,77.250515,SO2,15,112,33
India,Delhi,Delhi,"New Moti Bagh, Delhi - MHUA",21-04-2026 09:00:00,28.57834,77.18400,NO2,8,9,9
India,Delhi,Delhi,"North Campus, DU, Delhi - IMD",21-04-2026 09:00:00,28.6573814,77.1585447,NO2,5,77,41
India,Delhi,Delhi,"Okhla Phase-2, Delhi - DPCC",21-04-2026 09:00:00,28.530785,77.271255,NO2,43,151,100
India,Delhi,Delhi,"Okhla Phase-2, Delhi - DPCC",21-04-2026 09:00:00,28.530785,77.271255,NH3,9,23,15
India,Delhi,Delhi,"Patparganj, Delhi - DPCC",21-04-2026 09:00:00,28.623763,77.287209,PM2.5,22,273,83
India,Gujarat,Bhavnagar,"Vidhyanagar, Bhavnagar - Nexteng Enviro",21-04-2026 09:00:00,21.755417,72.139056,PM10,100,187,134
India,Gujarat,Bhavnagar,"Vidhyanagar, Bhavnagar - Nexteng Enviro",21-04-2026 09:00:00,21.755417,72.139056,NH3,3,4,4
India,Gujarat,Bhavnagar,"Vidhyanagar, Bhavnagar - Nexteng Enviro",21-04-2026 09:00:00,21.755417,72.139056,SO2,6,8,7
India,Gujarat,Gandhinagar,"GIFT City, Gandhinagar - IITM",21-04-2026 09:00:00,23.163798,72.677768,SO2,4,20,11
India,Gujarat,Gandhinagar,"IIPHG Lekawada, Gandhinagar - IITM",21-04-2026 09:00:00,23.243639,72.68994,CO,19,74,45
India,Gujarat,Gandhinagar,"Sector-10, Gandhinagar - GPCB",21-04-2026 09:00:00,23.221714,72.654328,SO2,6,38,18
India,Gujarat,Gandhinagar,"Sector-10, Gandhinagar - GPCB",21-04-2026 09:00:00,23.221714,72.654328,CO,18,44,24
India,Gujarat,Mehsana,"Sadanand Nagar, Mehsana - Nexteng Enviro",21-04-2026 09:00:00,23.593150,72.372792,PM2.5,31,210,78
India,Gujarat,Mehsana,"Sadanand Nagar, Mehsana - Nexteng Enviro",21-04-2026 09:00:00,23.593150,72.372792,CO,54,61,55
India,Delhi,Delhi,"Vivek Vihar, Delhi - DPCC",21-04-2026 09:00:00,28.672342,77.315260,PM10,112,207,157
India,Delhi,Delhi,"Vivek Vihar, Delhi - DPCC",21-04-2026 09:00:00,28.672342,77.315260,SO2,12,50,23
India,Delhi,Delhi,"Wazirpur, Delhi - DPCC",21-04-2026 09:00:00,28.699793,77.165453,CO,28,59,46
India,Gujarat,Ahmedabad,"Chandkheda, Ahmedabad - IITM",21-04-2026 09:00:00,23.107969,72.574648,OZONE,3,96,21
India,Gujarat,Ahmedabad,"Gyaspur, Ahmedabad - IITM",21-04-2026 09:00:00,22.977134,72.553024,PM2.5,34,176,73
India,Gujarat,Ahmedabad,"Gyaspur, Ahmedabad - IITM",21-04-2026 09:00:00,22.977134,72.553024,PM10,87,269,131
India,Gujarat,Ahmedabad,"Maninagar, Ahmedabad - GPCB",21-04-2026 09:00:00,23.002657,72.591912,PM10,58,169,102
India,Gujarat,Ahmedabad,"Raikhad, Ahmedabad - IITM",21-04-2026 09:00:00,23.020509,72.579261,NH3,6,22,10
India,Delhi,Delhi,"Shadipur, Delhi - CPCB",21-04-2026 09:00:00,28.6514781,77.1473105,SO2,14,16,15
India,Delhi,Delhi,"Sirifort, Delhi - CPCB",21-04-2026 09:00:00,28.5504249,77.2159377,CO,6,42,33
India,Delhi,Delhi,"Sonia Vihar, Delhi - DPCC",21-04-2026 09:00:00,28.710508,77.249485,NH3,6,10,8
India,Delhi,Delhi,"Sri Aurobindo Marg, Delhi - DPCC",21-04-2026 09:00:00,28.531346,77.190156,PM2.5,NA,NA,NA
India,Delhi,Delhi,"Sri Aurobindo Marg, Delhi - DPCC",21-04-2026 09:00:00,28.531346,77.190156,SO2,NA,NA,NA
India,Delhi,Delhi,"Talkatora Garden, Delhi - DPCC",21-04-2026 09:00:00,28.621810,77.1944633,NH3,1,9,4
India,Delhi,Delhi,"Talkatora Garden, Delhi - DPCC",21-04-2026 09:00:00,28.621810,77.1944633,SO2,24,32,28
India,Haryana,Ambala,"Patti Mehar, Ambala - HSPCB",21-04-2026 09:00:00,30.379589,76.778328,NH3,7,8,8
