country,state,city,station,last_update,latitude,longitude,pollutant_id,min_value,max_value,avg_value
India,Andhra_Pradesh,Tirumala,"Toll Gate, Tirumala - APPCB",19-02-2026 08:00:00,13.67,79.35,PM10,78,108,87
India,Andhra_Pradesh,Tirumala,"Toll Gate, Tirumala - APPCB",19-02-2026 08:00:00,13.67,79.35,OZONE,28,303,214
India,Andhra_Pradesh,Tirupati,"Vaikuntapuram, Tirupati - APPCB",19-02-2026 08:00:00,13.615387,79.409230,SO2,11,16,14
India,Andhra_Pradesh,Tirupati,"Vaikuntapuram, Tirupati - APPCB",19-02-2026 08:00:00,13.615387,79.409230,CO,24,34,31
India,Andhra_Pradesh,Vijayawada,"HB Colony, Vijayawada - APPCB",19-02-2026 08:00:00,16.536107,80.594233,NH3,3,5,3
India,Andhra_Pradesh,Vijayawada,"HB Colony, Vijayawada - APPCB",19-02-2026 08:00:00,16.536107,80.594233,OZONE,26,26,26
India,Andhra_Pradesh,Vijayawada,"Kanuru, Vijayawada - APPCB",19-02-2026 08:00:00,16.486692,80.699436,PM2.5,47,220,68
India,Andhra_Pradesh,Vijayawada,"Kanuru, Vijayawada - APPCB",19-02-2026 08:00:00,16.486692,80.699436,PM10,44,134,59
India,Andhra_Pradesh,Vijayawada,"Rajiv Gandhi Park, Vijayawada - APPCB",19-02-2026 08:00:00,16.509717,80.612222,OZONE,7,34,9
India,Bihar,Bhagalpur,"DM Office_Kachari Chowk, Bhagalpur - BSPCB",19-02-2026 08:00:00,25.251013,86.989001,PM10,72,151,108
India,Bihar,Bhagalpur,"DM Office_Kachari Chowk, Bhagalpur - BSPCB",19-02-2026 08:00:00,25.251013,86.989001,NO2,5,12,10
India,Bihar,Bhagalpur,"DM Office_Kachari Chowk, Bhagalpur - BSPCB",19-02-2026 08:00:00,25.251013,86.989001,SO2,27,75,48
India,Bihar,Bhagalpur,"Mayaganj, Bhagalpur - BSPCB",19-02-2026 08:00:00,25.265194,87.012947,NH3,6,8,7
India,Bihar,Bihar Sharif,"D M Colony, Bihar Sharif - BSPCB",19-02-2026 08:00:00,25.204762,85.514960,NO2,9,10,9
India,Bihar,Buxar,"Charitra Van, Buxar - BSPCB",19-02-2026 08:00:00,25.567520,83.966379,PM2.5,40,88,69
India,Bihar,Buxar,"Charitra Van, Buxar - BSPCB",19-02-2026 08:00:00,25.567520,83.966379,SO2,2,48,20
India,Bihar,Chhapra,"Darshan Nagar, Chhapra - BSPCB",19-02-2026 08:00:00,25.7808257,84.7446768,NH3,NA,NA,NA
India,Assam,Guwahati,"Pan Bazaar, Guwahati - PCBA",19-02-2026 08:00:00,26.187500,91.744194,SO2,28,69,48
India,Assam,Guwahati,"Railway Colony, Guwahati - PCBA",19-02-2026 08:00:00,26.181742,91.78063,NO2,3,4,3
India,Assam,Guwahati,"Railway Colony, Guwahati - PCBA",19-02-2026 08:00:00,26.181742,91.78063,CO,3,26,16
India,Assam,Nagaon,"Christianpatty, Nagaon - PCBA",19-02-2026 08:00:00,26.349082,92.68449,PM10,89,127,111
India,Assam,Nagaon,"Christianpatty, Nagaon - PCBA",19-02-2026 08:00:00,26.349082,92.68449,CO,4,26,20
India,Assam,Nalbari,"Bata Chowk, Nalbari - PCBA",19-02-2026 08:00:00,26.446912,91.439057,SO2,6,8,8
India,Assam,Silchar,"Tarapur, Silchar - PCBA",19-02-2026 08:00:00,24.82827,92.79525,PM2.5,13,94,49
India,Assam,Silchar,"Tarapur, Silchar - PCBA",19-02-2026 08:00:00,24.82827,92.79525,NH3,1,2,1
India,Bihar,Kishanganj,"SDM Office_Khagra, Kishanganj - BSPCB",19-02-2026 08:00:00,26.0881305,87.93840336,CO,16,26,17
India,Bihar,Motihari,"Gandak Colony, Motihari - BSPCB",19-02-2026 08:00:00,26.63086,84.90051,PM10,53,137,98
India,Bihar,Motihari,"Gandak Colony, Motihari - BSPCB",19-02-2026 08:00:00,26.63086,84.90051,SO2,3,3,3
India,Bihar,Munger,"Town Hall, Munger - BSPCB",19-02-2026 08:00:00,25.376776,86.471523,PM10,13,77,42
India,Bihar,Munger,"Town Hall, Munger - BSPCB",19-02-2026 08:00:00,25.376776,86.471523,NH3,3,11,6
India,Bihar,Muzaffarpur,"Buddha Colony, Muzaffarpur - BSPCB",19-02-2026 08:00:00,26.11442,85.39813,PM10,97,195,131
India,Bihar,Muzaffarpur,"MIT-Daudpur Kothi, Muzaffarpur - BSPCB",19-02-2026 08:00:00,26.1403345,85.3650192,PM2.5,87,110,97
India,Andhra_Pradesh,Vijayawada,"Rajiv Nagar, Vijayawada - APPCB",19-02-2026 08:00:00,16.554731,80.649110,NH3,3,5,4
India,Andhra_Pradesh,Visakhapatnam,"GVM Corporation, Visakhapatnam - APPCB",19-02-2026 08:00:00,17.72,83.3,PM10,105,296,148
India,Arunachal_Pradesh,Naharlagun,"Naharlagun, Naharlagun - APSPCB",19-02-2026 08:00:00,27.103358,93.679645,PM2.5,59,500,205
India,Arunachal_Pradesh,Naharlagun,"Naharlagun, Naharlagun - APSPCB",19-02-2026 08:00:00,27.103358,93.679645,NO2,7,8,7
India,Arunachal_Pradesh,Naharlagun,"Naharlagun, Naharlagun - APSPCB",19-02-2026 08:00:00,27.103358,93.679645,CO,12,46,19
India,Assam,Byrnihat,"Central Academy for SFS, Byrnihat - PCBA",19-02-2026 08:00:00,26.071318,91.87488,NH3,3,4,4
India,Assam,Sivasagar,"Girls College, Sivasagar - PCBA",19-02-2026 08:00:00,26.987634,94.636574,NH3,NA,NA,NA
India,Bihar,Araria,"Kharahiya Basti, Araria - BSPCB",19-02-2026 08:00:00,26.146529,87.454184,NH3,4,4,4
India,Bihar,Araria,"Kharahiya Basti, Araria - BSPCB",19-02-2026 08:00:00,26.146529,87.454184,SO2,3,41,20
India,Bihar,Arrah,"New DM Office, Arrah - BSPCB",19-02-2026 08:00:00,25.5626095,84.663264,PM10,NA,NA,NA
India,Bihar,Arrah,"New DM Office, Arrah - BSPCB",19-02-2026 08:00:00,25.5626095,84.663264,NO2,NA,NA,NA
India,Bihar,Begusarai,"Lohiyanagar, Begusarai - BSPCB",19-02-2026 08:00:00,25.42742023,86.13886079,NH3,6,11,11
India,Bihar,Muzaffarpur,"MIT-Daudpur Kothi, Muzaffarpur - BSPCB",19-02-2026 08:00:00,26.1403345,85.3650192,NO2,3,5,4
India,Bihar,Patna,"DRM Office Danapur, Patna - BSPCB",19-02-2026 08:00:00,25.586562,85.043586,NO2,46,58,50
India,Bihar,Patna,"Govt. High School Shikarpur, Patna - BSPCB",19-02-2026 08:00:00,25.592539,85.227158,CO,42,138,61
India,Bihar,Purnia,"Mariam Nagar, Purnia - BSPCB",19-02-2026 08:00:00,25.366336,87.117468,NH3,3,3,3
India,Bihar,Purnia,"Mariam Nagar, Purnia - BSPCB",19-02-2026 08:00:00,25.366336,87.117468,SO2,16,26,21
India,Bihar,Rajgir,"Dangi Tola, Rajgir - BSPCB",19-02-2026 08:00:00,25.03280,85.41948,SO2,2,3,3
India,Bihar,Saharsa,"Police Line, Saharsa - BSPCB",19-02-2026 08:00:00,25.892357,86.590325,NO2,6,8,7
India,Andhra_Pradesh,Chittoor,"Gangineni Cheruvu, Chittoor - APPCB",19-02-2026 08:00:00,13.204880,79.097889,PM10,31,61,41
India,Andhra_Pradesh,Chittoor,"Gangineni Cheruvu, Chittoor - APPCB",19-02-2026 08:00:00,13.204880,79.097889,NH3,3,5,4
India,Andhra_Pradesh,Rajamahendravaram,"Anand Kala Kshetram, Rajamahendravaram - APPCB",19-02-2026 08:00:00,16.9872867,81.7363176,NO2,15,44,29
India,Bihar,Chhapra,"Darshan Nagar, Chhapra - BSPCB",19-02-2026 08:00:00,25.7808257,84.7446768,CO,NA,NA,NA
India,Bihar,Chhapra,"Darshan Nagar, Chhapra - BSPCB",19-02-2026 08:00:00,25.7808257,84.7446768,OZONE,NA,NA,NA
India,Bihar,Gaya,"Kareemganj, Gaya - BSPCB",19-02-2026 08:00:00,24.792403,84.992416,OZONE,10,30,21
India,Chhattisgarh,Kunjemura,"OP Jindal School, Kunjemura - CECB",19-02-2026 08:00:00,22.126650,83.483212,OZONE,1,80,6
India,Chhattisgarh,Milupara,"Govt. Higher Secondary School, Milupara - CECB",19-02-2026 08:00:00,22.1910172,83.5197009,NO2,15,57,28
India,Chhattisgarh,Milupara,"Govt. Higher Secondary School, Milupara - CECB",19-02-2026 08:00:00,22.1910172,83.5197009,SO2,13,19,15
India,Chhattisgarh,Raipur,"AIIMS, Raipur - CECB",19-02-2026 08:00:00,21.258815,81.578979,NH3,4,5,4
India,Chhattisgarh,Raipur,"Bhatagaon New ISBT, Raipur - CECB",19-02-2026 08:00:00,21.219665,81.630094,CO,17,88,72
India,Chhattisgarh,Raipur,"Krishak Nagar, Raipur - CECB",19-02-2026 08:00:00,21.237755,81.705301,PM2.5,35,74,51
India,Chhattisgarh,Raipur,"Krishak Nagar, Raipur - CECB",19-02-2026 08:00:00,21.237755,81.705301,CO,16,34,30
India,Chhattisgarh,Raipur,"Krishak Nagar, Raipur - CECB",19-02-2026 08:00:00,21.237755,81.705301,OZONE,6,38,6
India,Chhattisgarh,Raipur,"Siltara Phase-II, Raipur - CECB",19-02-2026 08:00:00,21.371751,81.664929,PM2.5,59,247,149
India,Chhattisgarh,Raipur,"Siltara Phase-II, Raipur - CECB",19-02-2026 08:00:00,21.371751,81.664929,CO,14,26,24
India,Chhattisgarh,Raipur,"Siltara Phase-II, Raipur - CECB",19-02-2026 08:00:00,21.371751,81.664929,OZONE,NA,NA,NA
India,Delhi,Delhi,"Alipur, Delhi - DPCC",19-02-2026 08:00:00,28.815329,77.153010,PM10,29,224,117
India,Delhi,Delhi,"Alipur, Delhi - DPCC",19-02-2026 08:00:00,28.815329,77.153010,NO2,29,93,49
India,Delhi,Delhi,"Anand Vihar, Delhi - DPCC",19-02-2026 08:00:00,28.647622,77.3158090,PM2.5,2,402,249
India,Delhi,Delhi,"Anand Vihar, Delhi - DPCC",19-02-2026 08:00:00,28.647622,77.3158090,OZONE,11,24,17
India,Delhi,Delhi,"Ashok Vihar, Delhi - DPCC",19-02-2026 08:00:00,28.695381,77.181665,PM2.5,33,328,181
India,Delhi,Delhi,"Ashok Vihar, Delhi - DPCC",19-02-2026 08:00:00,28.695381,77.181665,NO2,39,105,72
India,Delhi,Delhi,"Ashok Vihar, Delhi - DPCC",19-02-2026 08:00:00,28.695381,77.181665,SO2,10,32,19
India,Delhi,Delhi,"Ashok Vihar, Delhi - DPCC",19-02-2026 08:00:00,28.695381,77.181665,CO,3,88,46
India,Delhi,Delhi,"Ashok Vihar, Delhi - DPCC",19-02-2026 08:00:00,28.695381,77.181665,OZONE,2,38,4
India,Chhattisgarh,Bilaspur,"Mangala, Bilaspur - NTPC",19-02-2026 08:00:00,22.08815,82.13737,NO2,21,89,38
India,Chhattisgarh,Chhal,"Nawapara SECL Colony, Chhal - CECB",19-02-2026 08:00:00,22.118125,83.140608,NO2,NA,NA,NA
India,Chhattisgarh,Chhal,"Nawapara SECL Colony, Chhal - CECB",19-02-2026 08:00:00,22.118125,83.140608,SO2,NA,NA,NA
India,Chhattisgarh,Korba,"Rampur, Korba - CECB",19-02-2026 08:00:00,22.368195,82.746431,SO2,8,34,17
India,Chhattisgarh,Korba,"Urja Nagar, Korba - CECB",19-02-2026 08:00:00,22.348441,82.549611,PM10,46,460,137
India,Chhattisgarh,Korba,"Urja Nagar, Korba - CECB",19-02-2026 08:00:00,22.348441,82.549611,NH3,1,1,1
India,Chhattisgarh,Kunjemura,"OP Jindal School, Kunjemura - CECB",19-02-2026 08:00:00,22.126650,83.483212,PM10,64,241,132
India,Chhattisgarh,Kunjemura,"OP Jindal School, Kunjemura - CECB",19-02-2026 08:00:00,22.126650,83.483212,CO,23,76,59
India,Delhi,Delhi,"Bawana, Delhi - DPCC",19-02-2026 08:00:00,28.776200,77.051074,NO2,12,52,27
India,Delhi,Delhi,"Bawana, Delhi - DPCC",19-02-2026 08:00:00,28.776200,77.051074,OZONE,3,28,4
India,Delhi,Delhi,"Burari Crossing, Delhi - IMD",19-02-2026 08:00:00,28.7256504,77.2011573,NO2,49,128,98
India,Delhi,Delhi,"CRRI Mathura Road, Delhi - IMD",19-02-2026 08:00:00,28.5512005,77.2735737,CO,42,96,70
India,Delhi,Delhi,"Chandni Chowk, Delhi - IITM",19-02-2026 08:00:00,28.656756,77.227234,CO,96,120,108
India,Delhi,Delhi,"Chandni Chowk, Delhi - IITM",19-02-2026 08:00:00,28.656756,77.227234,OZONE,1,48,2
India,Delhi,Delhi,"Dr. Karni Singh Shooting Range, Delhi - DPCC",19-02-2026 08:00:00,28.498571,77.264840,PM2.5,52,339,177
India,Chandigarh,Chandigarh,"Sector-25, Chandigarh - CPCC",19-02-2026 08:00:00,30.751462,76.762879,PM10,50,126,96
India,Chandigarh,Chandigarh,"Sector-25, Chandigarh - CPCC",19-02-2026 08:00:00,30.751462,76.762879,NO2,7,19,13
India,Chhattisgarh,Bhilai,"32Bungalows, Bhilai - CECB",19-02-2026 08:00:00,21.194815,81.314770,PM2.5,17,49,26
India,Chhattisgarh,Bhilai,"32Bungalows, Bhilai - CECB",19-02-2026 08:00:00,21.194815,81.314770,NH3,1,2,2
India,Chhattisgarh,Bhilai,"Civic Center, Bhilai - Bhilai Steel Plant",19-02-2026 08:00:00,21.185571,81.343175,PM10,30,104,49
India,Chhattisgarh,Bhilai,"Civic Center, Bhilai - Bhilai Steel Plant",19-02-2026 08:00:00,21.185571,81.343175,NH3,3,3,3
India,Chhattisgarh,Bhilai,"Civic Center, Bhilai - Bhilai Steel Plant",19-02-2026 08:00:00,21.185571,81.343175,SO2,6,10,8
India,Chhattisgarh,Bhilai,"Civic Center, Bhilai - Bhilai Steel Plant",19-02-2026 08:00:00,21.185571,81.343175,CO,27,34,33
India,Delhi,Delhi,"Mundka, Delhi - DPCC",19-02-2026 08:00:00,28.684678,77.076574,SO2,3,34,21
India,Delhi,Delhi,"NSIT Dwarka, Delhi - CPCB",19-02-2026 08:00:00,28.60909,77.0325413,NH3,6,8,7
India,Delhi,Delhi,"Narela, Delhi - DPCC",19-02-2026 08:00:00,28.822836,77.101981,NH3,7,9,8
India,Delhi,Delhi,"Nehru Nagar, Delhi - DPCC",19-02-2026 08:00:00,28.567890,77.250515,PM10,70,250,146
India,Delhi,Delhi,"Nehru Nagar, Delhi - DPCC",19-02-2026 08:00:00,28.567890,77.250515,NO2,55,109,86
India,Delhi,Delhi,"Nehru Nagar, Delhi - DPCC",19-02-2026 08:00:00,28.567890,77.250515,SO2,14,111,27
India,Delhi,Delhi,"Nehru Nagar, Delhi - DPCC",19-02-2026 08:00:00,28.567890,77.250515,OZONE,1,46,3
India,Delhi,Delhi,"Jawaharlal Nehru Stadium, Delhi - DPCC",19-02-2026 08:00:00,28.580280,77.233829,SO2,4,15,10
India,Delhi,Delhi,"Lodhi Road, Delhi - IMD",19-02-2026 08:00:00,28.5918245,77.2273074,PM10,76,210,130
India,Delhi,Delhi,"Major Dhyan Chand National Stadium, Delhi - DPCC",19-02-2026 08:00:00,28.611281,77.237738,NH3,17,23,21
India,Delhi,Delhi,"Mandir Marg, Delhi - DPCC",19-02-2026 08:00:00,28.636429,77.201067,PM2.5,NA,NA,NA
India,Delhi,Delhi,"Dwarka-Sector 8, Delhi - DPCC ",19-02-2026 08:00:00,28.5710274,77.0719006,SO2,13,20,16
India,Delhi,Delhi,"IGI Airport (T3), Delhi - IMD",19-02-2026 08:00:00,28.5627763,77.1180053,CO,32,100,76
India,Delhi,Delhi,"Jahangirpuri, Delhi - DPCC",19-02-2026 08:00:00,28.732820,77.170633,PM10,86,197,142
India,Delhi,Delhi,"Jahangirpuri, Delhi - DPCC",19-02-2026 08:00:00,28.732820,77.170633,NO2,65,111,89
India,Bihar,Samastipur,"DM Office_Kasipur, Samastipur - BSPCB",19-02-2026 08:00:00,25.859655,85.77944,NH3,1,1,1
India,Bihar,Sasaram,"Dada Peer, Sasaram - BSPCB",19-02-2026 08:00:00,24.952822,84.002396,PM2.5,13,58,28
India,Bihar,Siwan,"Chitragupta Nagar, Siwan - BSPCB",19-02-2026 08:00:00,26.2271665,84.3570427,NH3,1,1,1
India,Gujarat,Vapi,"Phase-1 GIDC, Vapi - GPCB",19-02-2026 08:00:00,20.362421,72.918013,NH3,4,4,4
India,Gujarat,Vatva,"Phase-4 GIDC, Vatva - GPCB",19-02-2026 08:00:00,22.969611,72.643500,PM2.5,32,349,155
India,Gujarat,Vatva,"Phase-4 GIDC, Vatva - GPCB",19-02-2026 08:00:00,22.969611,72.643500,PM10,67,233,139
India,Gujarat,Vatva,"Phase-4 GIDC, Vatva - GPCB",19-02-2026 08:00:00,22.969611,72.643500,CO,16,52,26
India,Gujarat,Vatva,"Phase-4 GIDC, Vatva - GPCB",19-02-2026 08:00:00,22.969611,72.643500,OZONE,5,50,7
India,Haryana,Ambala,"Patti Mehar, Ambala - HSPCB",19-02-2026 08:00:00,30.379589,76.778328,NH3,9,12,10
India,Haryana,Ambala,"Patti Mehar, Ambala - HSPCB",19-02-2026 08:00:00,30.379589,76.778328,CO,26,44,30
India,Haryana,Ballabgarh,"Nathu Colony, Ballabgarh - HSPCB",19-02-2026 08:00:00,28.3419248,77.319699,NO2,19,21,20
India,Haryana,Bhiwani,"H.B. Colony, Bhiwani - HSPCB",19-02-2026 08:00:00,28.806223,76.141105,SO2,1,9,4
India,Delhi,Delhi,"R K Puram, Delhi - DPCC",19-02-2026 08:00:00,28.563262,77.186937,PM2.5,45,388,175
India,Delhi,Delhi,"R K Puram, Delhi - DPCC",19-02-2026 08:00:00,28.563262,77.186937,SO2,8,45,21
India,Delhi,Delhi,"Rohini, Delhi - DPCC",19-02-2026 08:00:00,28.732528,77.119920,PM2.5,52,318,191
India,Delhi,Delhi,"Shadipur, Delhi - CPCB",19-02-2026 08:00:00,28.6514781,77.1473105,OZONE,8,55,17
India,Delhi,Delhi,"Sirifort, Delhi - CPCB",19-02-2026 08:00:00,28.5504249,77.2159377,PM10,81,396,180
India,Delhi,Delhi,"Sonia Vihar, Delhi - DPCC",19-02-2026 08:00:00,28.710508,77.249485,PM10,55,222,144
India,Delhi,Delhi,"Sonia Vihar, Delhi - DPCC",19-02-2026 08:00:00,28.710508,77.249485,NO2,22,78,46
India,Delhi,Delhi,"Sonia Vihar, Delhi - DPCC",19-02-2026 08:00:00,28.710508,77.249485,NH3,6,8,8
India,Delhi,Delhi,"Sonia Vihar, Delhi - DPCC",19-02-2026 08:00:00,28.710508,77.249485,CO,NA,NA,NA
India,Gujarat,Gandhinagar,"Sector-10, Gandhinagar - GPCB",19-02-2026 08:00:00,23.221714,72.654328,NH3,2,6,3
India,Gujarat,Mehsana,"Sadanand Nagar, Mehsana - Nexteng Enviro",19-02-2026 08:00:00,23.593150,72.372792,PM2.5,35,192,94
India,Gujarat,Surat,"Science Center, Surat - SMC",19-02-2026 08:00:00,21.170046,72.795405,PM10,103,190,143
India,Gujarat,Vadodara,"Bapunagar, Vadodara - Nexteng Enviro",19-02-2026 08:00:00,22.320153,73.216285,NO2,19,123,57
India,Gujarat,Vadodara,"Bapunagar, Vadodara - Nexteng Enviro",19-02-2026 08:00:00,22.320153,73.216285,SO2,1,22,7
India,Gujarat,Vapi,"Phase-1 GIDC, Vapi - GPCB",19-02-2026 08:00:00,20.362421,72.918013,PM2.5,34,103,63
India,Delhi,Delhi,"Okhla Phase-2, Delhi - DPCC",19-02-2026 08:00:00,28.530785,77.271255,PM10,78,465,169
India,Delhi,Delhi,"Okhla Phase-2, Delhi - DPCC",19-02-2026 08:00:00,28.530785,77.271255,NH3,9,15,11
India,Delhi,Delhi,"Patparganj, Delhi - DPCC",19-02-2026 08:00:00,28.623763,77.287209,OZONE,1,38,1
India,Delhi,Delhi,"Punjabi Bagh, Delhi - DPCC",19-02-2026 08:00:00,28.674045,77.131023,NH3,5,6,6
India,Delhi,Delhi,"Pusa, Delhi - DPCC",19-02-2026 08:00:00,28.639652,77.146275,CO,50,111,87
India,Delhi,Delhi,"Pusa, Delhi - DPCC",19-02-2026 08:00:00,28.639652,77.146275,OZONE,4,48,5
India,Delhi,Delhi,"Pusa, Delhi - IMD",19-02-2026 08:00:00,28.636110,77.173332,PM10,52,185,115
India,Delhi,Delhi,"Pusa, Delhi - IMD",19-02-2026 08:00:00,28.636110,77.173332,NO2,47,163,108
India,Gujarat,Ahmedabad,"SVPI Airport Hansol, Ahmedabad - IITM",19-02-2026 08:00:00,23.076793,72.627874,NH3,1,4,2
India,Gujarat,Gandhinagar,"GIFT City, Gandhinagar - IITM",19-02-2026 08:00:00,23.163798,72.677768,PM10,84,339,159
India,Gujarat,Gandhinagar,"GIFT City, Gandhinagar - IITM",19-02-2026 08:00:00,23.163798,72.677768,NH3,5,13,8
India,Gujarat,Gandhinagar,"IIPHG Lekawada, Gandhinagar - IITM",19-02-2026 08:00:00,23.243639,72.68994,PM2.5,48,248,117
India,Gujarat,Gandhinagar,"IIPHG Lekawada, Gandhinagar - IITM",19-02-2026 08:00:00,23.243639,72.68994,NH3,5,13,7
India,Delhi,Delhi,"Sri Aurobindo Marg, Delhi - DPCC",19-02-2026 08:00:00,28.531346,77.190156,PM10,53,244,113
India,Delhi,Delhi,"Wazirpur, Delhi - DPCC",19-02-2026 08:00:00,28.699793,77.165453,NO2,91,162,118
India,Gujarat,Ahmedabad,"Gyaspur, Ahmedabad - IITM",19-02-2026 08:00:00,22.977134,72.553024,NO2,39,153,92
India,Gujarat,Ahmedabad,"Maninagar, Ahmedabad - GPCB",19-02-2026 08:00:00,23.002657,72.591912,PM2.5,41,221,109
India,Haryana,Fatehabad,"Huda Sector, Fatehabad - HSPCB",19-02-2026 08:00:00,29.503664,75.467934,NH3,13,15,14
India,Haryana,Fatehabad,"Huda Sector, Fatehabad - HSPCB",19-02-2026 08:00:00,29.503664,75.467934,CO,25,36,28
India,Haryana,Fatehabad,"Huda Sector, Fatehabad - HSPCB",19-02-2026 08:00:00,29.503664,75.467934,OZONE,66,112,104
India,Haryana,Gurugram,"NISE Gwal Pahari, Gurugram - IMD",19-02-2026 08:00:00,28.422681,77.148944,NO2,18,68,36
India,Haryana,Gurugram,"NISE Gwal Pahari, Gurugram - IMD",19-02-2026 08:00:00,28.422681,77.148944,OZONE,5,26,6
India,Haryana,Dharuhera,"Municipal Corporation Office, Dharuhera -  HSPCB",19-02-2026 08:00:00,28.206800,76.799700,NO2,20,67,50
India,Haryana,Faridabad,"Sector 11, Faridabad - HSPCB",19-02-2026 08:00:00,28.376058,77.315741,OZONE,15,16,15
India,Haryana,Faridabad,"Sector 30, Faridabad - HSPCB",19-02-2026 08:00:00,28.4417,77.3217,NH3,NA,NA,NA
India,Gujarat,Ahmedabad,"Maninagar, Ahmedabad - GPCB",19-02-2026 08:00:00,23.002657,72.591912,PM10,50,187,108
India,Gujarat,Ahmedabad,"Rakhial, Ahmedabad - IITM",19-02-2026 08:00:00,23.016834,72.625775,NH3,3,5,4
India,Himachal Pradesh,Baddi,"HIMUDA Complex Phase-1, Baddi - HPPCB",19-02-2026 08:00:00,30.943887,76.801991,OZONE,17,97,35
India,Jammu_and_Kashmir,Pampore,"Khrew, Pampore - JKPCC",19-02-2026 08:00:00,34.031606,75.009712,SO2,2,3,2
India,Jammu_and_Kashmir,Srinagar,"Khunmoh, Srinagar - JKPCC",19-02-2026 08:00:00,34.06313,74.96017,PM2.5,20,44,30
India,Jammu_and_Kashmir,Srinagar,"Khunmoh, Srinagar - JKPCC",19-02-2026 08:00:00,34.06313,74.96017,SO2,2,5,3
India,Jharkhand,Dhanbad,"Sardar Patel Nagar, Dhanbad - JSPCB",19-02-2026 08:00:00,23.80569,86.44268,PM10,21,409,158
India,Karnataka,Bagalkot,"Vidayagiri, Bagalkot - KSPCB",19-02-2026 08:00:00,16.172806,75.659694,PM10,45,46,46
India,Karnataka,Bagalkot,"Vidayagiri, Bagalkot - KSPCB",19-02-2026 08:00:00,16.172806,75.659694,NO2,11,12,12
India,Karnataka,Bagalkot,"Vidayagiri, Bagalkot - KSPCB",19-02-2026 08:00:00,16.172806,75.659694,OZONE,11,12,12
India,Karnataka,Bengaluru,"BTM Layout, Bengaluru - CPCB",19-02-2026 08:00:00,12.9135218,77.5950804,NO2,2,16,8
India,Karnataka,Bengaluru,"BTM Layout, Bengaluru - CPCB",19-02-2026 08:00:00,12.9135218,77.5950804,CO,47,57,54
India,Karnataka,Bengaluru,"BWSSB Kadabesanahalli, Bengaluru - CPCB",19-02-2026 08:00:00,12.9352049,77.6814488,PM10,27,412,156
India,Haryana,Panipat,"Sector-18, Panipat - HSPCB",19-02-2026 08:00:00,29.432304,76.972765,CO,24,26,26
India,Haryana,Panipat,"Sector-18, Panipat - HSPCB",19-02-2026 08:00:00,29.432304,76.972765,OZONE,30,30,30
India,Haryana,Rohtak,"MD University, Rohtak - HSPCB",19-02-2026 08:00:00,28.52123,76.37138,PM10,18,76,41
India,Haryana,Sirsa,"F-Block, Sirsa - HSPCB",19-02-2026 08:00:00,29.536400,75.015800,PM2.5,25,340,112
India,Haryana,Sirsa,"F-Block, Sirsa - HSPCB",19-02-2026 08:00:00,29.536400,75.015800,NO2,18,25,21
India,Haryana,Sonipat,"Murthal, Sonipat - HSPCB",19-02-2026 08:00:00,29.027200,77.062100,PM2.5,55,265,136
India,Haryana,Sonipat,"Murthal, Sonipat - HSPCB",19-02-2026 08:00:00,29.027200,77.062100,OZONE,25,26,26
India,Haryana,Yamuna Nagar,"Gobind Pura, Yamuna Nagar - HSPCB",19-02-2026 08:00:00,30.1480566,77.2893471,NH3,4,4,4
India,Haryana,Yamuna Nagar,"Gobind Pura, Yamuna Nagar - HSPCB",19-02-2026 08:00:00,30.1480566,77.2893471,SO2,10,15,12
India,Haryana,Yamuna Nagar,"Gobind Pura, Yamuna Nagar - HSPCB",19-02-2026 08:00:00,30.1480566,77.2893471,OZONE,8,33,9
India,Himachal Pradesh,Baddi,"HIMUDA Complex Phase-1, Baddi - HPPCB",19-02-2026 08:00:00,30.943887,76.801991,PM10,65,284,164
India,Karnataka,Bengaluru,"Jigani, Bengaluru - KSPCB",19-02-2026 08:00:00,12.7816279,77.6299145,NH3,3,4,3
India,Karnataka,Bengaluru,"Jigani, Bengaluru - KSPCB",19-02-2026 08:00:00,12.7816279,77.6299145,OZONE,21,23,22
India,Karnataka,Bengaluru,"Kasturi Nagar, Bengaluru - KSPCB",19-02-2026 08:00:00,13.003872,77.664217,CO,28,52,46
India,Karnataka,Bengaluru,"Peenya, Bengaluru - CPCB",19-02-2026 08:00:00,13.0270199,77.494094,OZONE,20,26,26
India,Karnataka,Bengaluru,"RVCE-Mailasandra, Bengaluru - KSPCB",19-02-2026 08:00:00,12.921418,77.502466,PM2.5,NA,NA,NA
India,Karnataka,Bengaluru,"RVCE-Mailasandra, Bengaluru - KSPCB",19-02-2026 08:00:00,12.921418,77.502466,SO2,5,6,6
India,Karnataka,Bengaluru,"Sanegurava Halli, Bengaluru - KSPCB",19-02-2026 08:00:00,12.990328,77.5431385,PM10,50,57,54
India,Karnataka,Bengaluru,"Shivapura_Peenya, Bengaluru - KSPCB",19-02-2026 08:00:00,13.0246342,77.5080115,OZONE,26,27,27
India,Karnataka,Bengaluru,"Silk Board, Bengaluru - KSPCB",19-02-2026 08:00:00,12.917348,77.622813,PM10,88,164,114
India,Karnataka,Bengaluru,"Silk Board, Bengaluru - KSPCB",19-02-2026 08:00:00,12.917348,77.622813,SO2,1,29,8
India,Karnataka,Chikkaballapur,"Chikkaballapur Rural, Chikkaballapur - KSPCB",19-02-2026 08:00:00,13.428828,77.731418,NH3,NA,NA,NA
India,Karnataka,Chikkamagaluru,"Kalyana Nagara, Chikkamagaluru - KSPCB",19-02-2026 08:00:00,13.328028,75.797056,NH3,3,4,3
India,Karnataka,Dharwad,"Kalabhavan, Dharwad - KSPCB",19-02-2026 08:00:00,15.459706,75.008381,PM10,95,115,105
India,Karnataka,Dharwad,"Kalabhavan, Dharwad - KSPCB",19-02-2026 08:00:00,15.459706,75.008381,OZONE,25,26,25
India,Karnataka,Hubballi,"Lingaraj Nagar, Hubballi - KSPCB",19-02-2026 08:00:00,15.3714823,75.1160168,PM2.5,41,97,50
India,Karnataka,Bengaluru,"BWSSB Kadabesanahalli, Bengaluru - CPCB",19-02-2026 08:00:00,12.9352049,77.6814488,CO,37,40,38
India,Karnataka,Bengaluru,"Bapuji Nagar, Bengaluru - KSPCB",19-02-2026 08:00:00,12.951913,77.539784,SO2,5,69,29
India,Karnataka,Bengaluru,"Hebbal, Bengaluru - KSPCB",19-02-2026 08:00:00,13.029152,77.585901,PM2.5,50,115,78
India,Karnataka,Bengaluru,"Hebbal, Bengaluru - KSPCB",19-02-2026 08:00:00,13.029152,77.585901,OZONE,6,15,8
India,Karnataka,Bengaluru,"Hombegowda Nagar, Bengaluru - KSPCB",19-02-2026 08:00:00,12.938539,77.590100,PM2.5,38,77,57
India,Karnataka,Bengaluru,"Jayanagar 5th Block, Bengaluru - KSPCB",19-02-2026 08:00:00,12.920984,77.584908,PM2.5,66,114,84
India,Karnataka,Bengaluru,"Jigani, Bengaluru - KSPCB",19-02-2026 08:00:00,12.7816279,77.6299145,PM2.5,42,436,90
India,Karnataka,Kalaburagi,"Mahatma Basaveswar Colony, Kalaburgi - KSPCB",19-02-2026 08:00:00,17.336318,76.847397,NH3,2,3,3
India,Karnataka,Kalaburagi,"Mahatma Basaveswar Colony, Kalaburgi - KSPCB",19-02-2026 08:00:00,17.336318,76.847397,SO2,3,7,4
India,Karnataka,Kalaburagi,"Mahatma Basaveswar Colony, Kalaburgi - KSPCB",19-02-2026 08:00:00,17.336318,76.847397,CO,40,56,45
India,Karnataka,Madikeri,"Stuart Hill, Madikeri - KSPCB",19-02-2026 08:00:00,12.415911,75.735050,SO2,7,7,7
India,Karnataka,Madikeri,"Stuart Hill, Madikeri - KSPCB",19-02-2026 08:00:00,12.415911,75.735050,OZONE,2,5,3
India,Karnataka,Mysuru,"Hebbal 1st Stage, Mysuru - KSPCB",19-02-2026 08:00:00,12.21041,76.37376,OZONE,13,89,16
India,Karnataka,Ramanagara,"Vijay Nagar, Ramanagara - KSPCB",19-02-2026 08:00:00,12.733409,77.298051,NH3,3,3,3
India,Karnataka,Ramanagara,"Vijay Nagar, Ramanagara - KSPCB",19-02-2026 08:00:00,12.733409,77.298051,CO,20,38,30
India,Haryana,Mandikhera,"General Hospital, Mandikhera(Nuh) - HSPCB",19-02-2026 08:00:00,27.9002,76.9938,SO2,30,36,34
India,Haryana,Manesar,"Sector-2 IMT, Manesar - HSPCB",19-02-2026 08:00:00,28.360699,76.936090,PM2.5,54,273,123
India,Haryana,Palwal,"Shyam Nagar, Palwal - HSPCB",19-02-2026 08:00:00,28.1485564,77.3320667,SO2,14,15,14
India,Haryana,Panchgaon,"Amity University, Panchgaon - IITM",19-02-2026 08:00:00,28.3153,76.9143,PM2.5,45,277,123
India,Haryana,Panchgaon,"Amity University, Panchgaon - IITM",19-02-2026 08:00:00,28.3153,76.9143,NO2,5,48,26
India,Haryana,Panchgaon,"Amity University, Panchgaon - IITM",19-02-2026 08:00:00,28.3153,76.9143,NH3,5,12,8
India,Karnataka,Yadgir,"Collector Office, Yadgir - KSPCB",19-02-2026 08:00:00,16.7602,77.1428,PM2.5,72,127,96
India,Karnataka,Yadgir,"Collector Office, Yadgir - KSPCB",19-02-2026 08:00:00,16.7602,77.1428,SO2,8,15,12
India,Kerala,Eloor,"Udyogamandal, Eloor - Kerala PCB",19-02-2026 08:00:00,10.073232,76.302765,PM10,64,116,85
India,Haryana,Jind,"Police Lines, Jind - HSPCB",19-02-2026 08:00:00,29.307814,76.337619,NO2,37,52,45
India,Haryana,Karnal,"Sector-12, Karnal - HSPCB",19-02-2026 08:00:00,29.695300,77.002700,CO,1,6,3
India,Madhya Pradesh,Mandideep,"Sector-D Industrial Area, Mandideep - MPPCB",19-02-2026 08:00:00,23.108440,77.511428,OZONE,15,33,18
India,Madhya Pradesh,Pithampur,"Sector-2 Industrial Area, Pithampur - MPPCB",19-02-2026 08:00:00,22.624758,75.675238,PM2.5,55,312,151
India,Madhya Pradesh,Ratlam,"Shasthri Nagar, Ratlam - IPCA Lab",19-02-2026 08:00:00,23.331731,75.045981,PM2.5,2,167,72
India,Madhya Pradesh,Ratlam,"Shasthri Nagar, Ratlam - IPCA Lab",19-02-2026 08:00:00,23.331731,75.045981,SO2,33,37,35
India,Madhya Pradesh,Sagar,"Civil Lines, Sagar - MPPCB",19-02-2026 08:00:00,23.838586,78.759431,NO2,8,31,13
India,Madhya Pradesh,Sagar,"Civil Lines, Sagar - MPPCB",19-02-2026 08:00:00,23.838586,78.759431,NH3,2,10,5
India,Madhya Pradesh,Sagar,"Civil Lines, Sagar - MPPCB",19-02-2026 08:00:00,23.838586,78.759431,CO,23,40,33
India,Madhya Pradesh,Sagar,"Civil Lines, Sagar - MPPCB",19-02-2026 08:00:00,23.838586,78.759431,OZONE,46,121,61
India,Madhya Pradesh,Sagar,"Deen Dayal Nagar, Sagar - MPPCB",19-02-2026 08:00:00,23.8640158,78.80289321,PM2.5,19,74,44
India,Madhya Pradesh,Sagar,"Deen Dayal Nagar, Sagar - MPPCB",19-02-2026 08:00:00,23.8640158,78.80289321,PM10,32,111,74
India,Madhya Pradesh,Satna,"Bandhavgar Colony, Satna - Birla Cement",19-02-2026 08:00:00,24.58434363,80.8549414,PM10,69,71,70
India,Madhya Pradesh,Satna,"Bandhavgar Colony, Satna - Birla Cement",19-02-2026 08:00:00,24.58434363,80.8549414,CO,14,38,27
India,Madhya Pradesh,Singrauli,"Suryakiran Bhawan NCL, Singrauli - MPPCB",19-02-2026 08:00:00,24.108970,82.645580,PM10,122,423,220
India,Kerala,Kollam,"Polayathode, Kollam - Kerala PCB",19-02-2026 08:00:00,8.8787,76.6073,CO,14,18,16
India,Kerala,Thiruvananthapuram,"Kariavattom, Thiruvananthapuram - Kerala PCB",19-02-2026 08:00:00,8.563700,76.886500,SO2,1,40,13
India,Kerala,Thiruvananthapuram,"Kariavattom, Thiruvananthapuram - Kerala PCB",19-02-2026 08:00:00,8.563700,76.886500,OZONE,36,37,36
India,Kerala,Thiruvananthapuram,"Plammoodu, Thiruvananthapuram - Kerala PCB",19-02-2026 08:00:00,8.5149093,76.9435879,NO2,NA,NA,NA
India,Kerala,Thiruvananthapuram,"Plammoodu, Thiruvananthapuram - Kerala PCB",19-02-2026 08:00:00,8.5149093,76.9435879,OZONE,NA,NA,NA
India,Madhya Pradesh,Bhopal,"Idgah Hills, Bhopal - MPPCB",19-02-2026 08:00:00,23.264759,77.381568,OZONE,35,79,44
India,Madhya Pradesh,Bhopal,"Paryavaran Parisar, Bhopal - MPPCB",19-02-2026 08:00:00,23.210494,77.425409,PM2.5,37,98,61
India,Madhya Pradesh,Bhopal,"Paryavaran Parisar, Bhopal - MPPCB",19-02-2026 08:00:00,23.210494,77.425409,PM10,67,140,96
India,Maharashtra,Aurangabad,"MIDC Chilkalthana, Aurangabad - MPCB",19-02-2026 08:00:00,19.875620,75.387310,NH3,3,5,4
India,Maharashtra,Aurangabad,"More Chowk Waluj, Aurangabad - MPCB",19-02-2026 08:00:00,19.8389439,75.244448,PM10,44,122,73
India,Maharashtra,Aurangabad,"More Chowk Waluj, Aurangabad - MPCB",19-02-2026 08:00:00,19.8389439,75.244448,SO2,12,29,16
India,Maharashtra,Aurangabad,"Rachnakar Colony, Aurangabad - MPCB",19-02-2026 08:00:00,19.863756,75.321188,PM2.5,77,313,124
India,Maharashtra,Aurangabad,"Rachnakar Colony, Aurangabad - MPCB",19-02-2026 08:00:00,19.863756,75.321188,NH3,2,5,3
India,Maharashtra,Badlapur,"Katrap, Badlapur - MPCB",19-02-2026 08:00:00,19.16485,73.23409,PM2.5,60,172,91
India,Maharashtra,Badlapur,"Katrap, Badlapur - MPCB",19-02-2026 08:00:00,19.16485,73.23409,PM10,101,156,117
India,Maharashtra,Badlapur,"Katrap, Badlapur - MPCB",19-02-2026 08:00:00,19.16485,73.23409,NO2,12,43,25
India,Maharashtra,Badlapur,"Katrap, Badlapur - MPCB",19-02-2026 08:00:00,19.16485,73.23409,NH3,3,7,5
India,Madhya Pradesh,Jabalpur,"Govindh Bhavan Colony, Jabalpur - JMC",19-02-2026 08:00:00,23.163174,79.973061,NO2,7,13,10
India,Madhya Pradesh,Jabalpur,"Gupteshwar, Jabalpur - JMC",19-02-2026 08:00:00,23.142888,79.916147,PM10,29,56,40
India,Madhya Pradesh,Jabalpur,"Gupteshwar, Jabalpur - JMC",19-02-2026 08:00:00,23.142888,79.916147,SO2,10,20,14
India,Madhya Pradesh,Jabalpur,"Gupteshwar, Jabalpur - JMC",19-02-2026 08:00:00,23.142888,79.916147,OZONE,33,94,48
India,Madhya Pradesh,Katni,"Gole Bazar, Katni - MPPCB",19-02-2026 08:00:00,23.50016,80.23284,NH3,4,7,6
India,Madhya Pradesh,Katni,"Gole Bazar, Katni - MPPCB",19-02-2026 08:00:00,23.50016,80.23284,CO,15,50,27
India,Madhya Pradesh,Mandideep,"Sector-D Industrial Area, Mandideep - MPPCB",19-02-2026 08:00:00,23.108440,77.511428,NO2,60,104,81
India,Madhya Pradesh,Mandideep,"Sector-D Industrial Area, Mandideep - MPPCB",19-02-2026 08:00:00,23.108440,77.511428,SO2,26,134,80
India,Madhya Pradesh,Indore,"Airport Area, Indore - IMC",19-02-2026 08:00:00,22.7289,75.8076,SO2,1,2,2
India,Madhya Pradesh,Indore,"Chhoti Gwaltoli, Indore - MPPCB",19-02-2026 08:00:00,22.4310,75.5213,PM2.5,42,348,130
India,Madhya Pradesh,Indore,"Chhoti Gwaltoli, Indore - MPPCB",19-02-2026 08:00:00,22.4310,75.5213,OZONE,1,76,17
India,Madhya Pradesh,Indore,"Maguda Nagar, Indore - IMC",19-02-2026 08:00:00,22.7524,75.8872,PM2.5,6,296,92
India,Madhya Pradesh,Indore,"Maguda Nagar, Indore - IMC",19-02-2026 08:00:00,22.7524,75.8872,NO2,10,18,13
India,Madhya Pradesh,Indore,"Regional Park, Indore - IMC",19-02-2026 08:00:00,22.6780,75.8559,PM2.5,NA,NA,NA
India,Madhya Pradesh,Indore,"Regional Park, Indore - IMC",19-02-2026 08:00:00,22.6780,75.8559,OZONE,6,12,6
India,Madhya Pradesh,Indore,"Residency Area, Indore - IMC",19-02-2026 08:00:00,22.7084,75.8815,SO2,1,3,2
India,Madhya Pradesh,Indore,"Residency Area, Indore - IMC",19-02-2026 08:00:00,22.7084,75.8815,CO,24,82,37
India,Maharashtra,Dhule,"Deopur, Dhule - MPCB",19-02-2026 08:00:00,20.918946,74.776388,PM10,81,149,109
India,Maharashtra,Dhule,"Deopur, Dhule - MPCB",19-02-2026 08:00:00,20.918946,74.776388,NH3,2,2,2
India,Maharashtra,Jalgaon,"Prabhat Colony, Jalgaon - MPCB",19-02-2026 08:00:00,21.001264,75.565602,PM2.5,71,233,151
India,Maharashtra,Jalgaon,"Prabhat Colony, Jalgaon - MPCB",19-02-2026 08:00:00,21.001264,75.565602,NH3,2,3,3
India,Maharashtra,Jalgaon,"Prabhat Colony, Jalgaon - MPCB",19-02-2026 08:00:00,21.001264,75.565602,SO2,2,10,5
India,Maharashtra,Kalyan,"Khadakpada, Kalyan - MPCB",19-02-2026 08:00:00,19.25292,73.142019,PM2.5,NA,NA,NA
India,Madhya Pradesh,Dewas,"Bhopal Chauraha, Dewas - MPPCB",19-02-2026 08:00:00,22.9682591,76.064118,NH3,NA,NA,NA
India,Madhya Pradesh,Dewas,"Bhopal Chauraha, Dewas - MPPCB",19-02-2026 08:00:00,22.9682591,76.064118,CO,NA,NA,NA
India,Madhya Pradesh,Gwalior,"City Center, Gwalior - MPPCB",19-02-2026 08:00:00,26.203442,78.193251,SO2,NA,NA,NA
India,Madhya Pradesh,Gwalior,"Maharaj Bada, Gwalior - MPPCB",19-02-2026 08:00:00,26.200388,78.147714,NO2,7,22,13
India,Madhya Pradesh,Gwalior,"Maharaj Bada, Gwalior - MPPCB",19-02-2026 08:00:00,26.200388,78.147714,NH3,3,3,3
India,Maharashtra,Bhiwandi,"Gokul Nagar, Bhiwandi - MPCB",19-02-2026 08:00:00,19.309073,73.057223,PM10,83,149,105
India,Maharashtra,Chandrapur,"Chauhan Colony, Chandrapur - MPCB",19-02-2026 08:00:00,19.962900,79.298714,PM2.5,32,85,54
India,Maharashtra,Chandrapur,"Chauhan Colony, Chandrapur - MPCB",19-02-2026 08:00:00,19.962900,79.298714,NO2,29,30,30
India,Maharashtra,Akola,"Ramdaspeth, Akola - MPCB",19-02-2026 08:00:00,20.719516,77.000253,OZONE,14,72,18
India,Maharashtra,Amravati,"Shivneri Colony, Amravati - MPCB",19-02-2026 08:00:00,20.9402359,77.7895248,PM10,65,102,77
India,Maharashtra,Nashik,"Hirawadi, Nashik - MPCB",19-02-2026 08:00:00,20.021503,73.813844,PM10,73,119,94
India,Maharashtra,Nashik,"Hirawadi, Nashik - MPCB",19-02-2026 08:00:00,20.021503,73.813844,CO,56,70,59
India,Maharashtra,Nashik,"Hirawadi, Nashik - MPCB",19-02-2026 08:00:00,20.021503,73.813844,OZONE,23,101,57
India,Maharashtra,Nashik,"MIDC Ambad, Nashik - MPCB",19-02-2026 08:00:00,19.950220,73.731480,NO2,11,51,20
India,Maharashtra,Nashik,"MIDC Ambad, Nashik - MPCB",19-02-2026 08:00:00,19.950220,73.731480,NH3,2,5,4
India,Maharashtra,Nashik,"Pandav Nagari, Nashik - MPCB",19-02-2026 08:00:00,19.9591346,73.7788008,PM10,76,134,103
India,Maharashtra,Nashik,"Pandav Nagari, Nashik - MPCB",19-02-2026 08:00:00,19.9591346,73.7788008,NO2,7,27,12
India,Maharashtra,Nashik,"Pandav Nagari, Nashik - MPCB",19-02-2026 08:00:00,19.9591346,73.7788008,SO2,4,16,8
India,Maharashtra,Nashik,"Pandav Nagari, Nashik - MPCB",19-02-2026 08:00:00,19.9591346,73.7788008,CO,19,73,26
India,Maharashtra,Navi Mumbai,"Kopripada-Vashi, Navi Mumbai - MPCB",19-02-2026 08:00:00,19.090337,73.014232,PM10,111,146,122
India,Maharashtra,Navi Mumbai,"Kopripada-Vashi, Navi Mumbai - MPCB",19-02-2026 08:00:00,19.090337,73.014232,NO2,16,49,34
India,Maharashtra,Navi Mumbai,"Kopripada-Vashi, Navi Mumbai - MPCB",19-02-2026 08:00:00,19.090337,73.014232,SO2,4,6,5
India,Maharashtra,Latur,"Sawe Wadi, Latur - MPCB",19-02-2026 08:00:00,18.39963,76.57452,SO2,3,8,5
India,Maharashtra,Latur,"Sawe Wadi, Latur - MPCB",19-02-2026 08:00:00,18.39963,76.57452,CO,19,142,32
India,Maharashtra,Mahad,"Kamble Tarf Birwadi, Mahad - MPCB",19-02-2026 08:00:00,18.1023399,73.4783687,PM2.5,49,153,97
India,Maharashtra,Mahad,"Kamble Tarf Birwadi, Mahad - MPCB",19-02-2026 08:00:00,18.1023399,73.4783687,PM10,61,191,124
India,Maharashtra,Mahad,"Kamble Tarf Birwadi, Mahad - MPCB",19-02-2026 08:00:00,18.1023399,73.4783687,CO,1,32,4
India,Maharashtra,Malegaon,"Mahesh Nagar, Malegaon - MPCB",19-02-2026 08:00:00,20.555712,74.529236,CO,22,93,44
India,Maharashtra,Malegaon,"Mahesh Nagar, Malegaon - MPCB",19-02-2026 08:00:00,20.555712,74.529236,OZONE,10,92,42
India,Maharashtra,Mira-Bhayandar,"Bhayandar West, Mira-Bhayandar - MPCB",19-02-2026 08:00:00,19.296481,72.840923,NH3,4,7,6
India,Maharashtra,Mira-Bhayandar,"Bhayandar West, Mira-Bhayandar - MPCB",19-02-2026 08:00:00,19.296481,72.840923,OZONE,NA,NA,NA
India,Maharashtra,Mumbai,"Kandivali East, Mumbai - MPCB",19-02-2026 08:00:00,19.205800,72.868200,SO2,24,27,25
India,Maharashtra,Mumbai,"Kandivali East, Mumbai - MPCB",19-02-2026 08:00:00,19.205800,72.868200,CO,18,20,20
India,Maharashtra,Mumbai,"Kandivali West, Mumbai - BMC",19-02-2026 08:00:00,19.215859,72.831718,PM10,61,90,76
India,Maharashtra,Mumbai,"Kherwadi_Bandra East, Mumbai - MPCB",19-02-2026 08:00:00,19.0632143,72.8456324,NO2,12,42,21
India,Maharashtra,Mumbai,"Kherwadi_Bandra East, Mumbai - MPCB",19-02-2026 08:00:00,19.0632143,72.8456324,SO2,3,4,3
India,Maharashtra,Mumbai,"Khindipada-Bhandup West, Mumbai - IITM",19-02-2026 08:00:00,19.1653323,72.922099,NO2,15,24,18
India,Maharashtra,Mumbai,"Khindipada-Bhandup West, Mumbai - IITM",19-02-2026 08:00:00,19.1653323,72.922099,CO,2,10,6
India,Maharashtra,Mumbai,"Khindipada-Bhandup West, Mumbai - IITM",19-02-2026 08:00:00,19.1653323,72.922099,OZONE,36,82,48
India,Maharashtra,Mumbai,"Kurla, Mumbai - MPCB",19-02-2026 08:00:00,19.0863,72.8888,CO,9,47,33
India,Maharashtra,Mumbai,"Sewri, Mumbai - BMC",19-02-2026 08:00:00,19.000084,72.856730,OZONE,3,13,5
India,Maharashtra,Mumbai,"Shivaji Nagar, Mumbai - BMC",19-02-2026 08:00:00,19.060498,72.923356,PM2.5,21,40,30
India,Maharashtra,Mumbai,"Shivaji Nagar, Mumbai - BMC",19-02-2026 08:00:00,19.060498,72.923356,PM10,68,119,96
India,Maharashtra,Mumbai,"Siddharth Nagar-Worli, Mumbai - IITM",19-02-2026 08:00:00,19.000083,72.813993,NO2,34,84,48
India,Maharashtra,Mumbai,"Worli, Mumbai -MPCB",19-02-2026 08:00:00,18.9942180,72.8158167,PM2.5,17,80,46
India,Maharashtra,Mumbai,"Worli, Mumbai -MPCB",19-02-2026 08:00:00,18.9942180,72.8158167,PM10,66,110,82
India,Maharashtra,Mumbai,"Worli, Mumbai -MPCB",19-02-2026 08:00:00,18.9942180,72.8158167,CO,1,22,6
India,Maharashtra,Nagpur,"Ambazari, Nagpur - MPCB",19-02-2026 08:00:00,21.121801,79.04952,NO2,11,90,38
India,Maharashtra,Nagpur,"Ambazari, Nagpur - MPCB",19-02-2026 08:00:00,21.121801,79.04952,NH3,1,19,7
India,Maharashtra,Nagpur,"Mahal, Nagpur - MPCB",19-02-2026 08:00:00,21.14472,79.107595,NO2,21,116,61
India,Maharashtra,Nagpur,"Mahal, Nagpur - MPCB",19-02-2026 08:00:00,21.14472,79.107595,CO,28,131,51
India,Maharashtra,Nagpur,"Opp GPO Civil Lines, Nagpur - MPCB",19-02-2026 08:00:00,21.152875,79.0517531,SO2,3,39,15
India,Maharashtra,Nagpur,"Ram Nagar, Nagpur - MPCB",19-02-2026 08:00:00,21.143383,79.048912,NO2,8,91,35
India,Maharashtra,Nagpur,"Ram Nagar, Nagpur - MPCB",19-02-2026 08:00:00,21.143383,79.048912,NH3,4,4,4
India,Maharashtra,Nanded,"Sneh Nagar, Nanded - MPCB",19-02-2026 08:00:00,19.173852,77.296291,NH3,3,5,4
India,Maharashtra,Nanded,"Sneh Nagar, Nanded - MPCB",19-02-2026 08:00:00,19.173852,77.296291,OZONE,43,92,56
India,Maharashtra,Nashik,"Gangapur Road, Nashik - MPCB",19-02-2026 08:00:00,20.0073285,73.7762427,NO2,5,5,5
India,Maharashtra,Mumbai,"Colaba, Mumbai - MPCB",19-02-2026 08:00:00,18.910000,72.820000,CO,58,60,59
India,Maharashtra,Mumbai,"Colaba, Mumbai - MPCB",19-02-2026 08:00:00,18.910000,72.820000,OZONE,11,11,11
India,Maharashtra,Mumbai,"Deonar, Mumbai - IITM",19-02-2026 08:00:00,19.04946,72.9230,PM10,61,111,84
India,Maharashtra,Mumbai,"Ghatkopar, Mumbai - BMC",19-02-2026 08:00:00,19.083694,72.920967,NH3,1,5,3
India,Maharashtra,Mumbai,"Ghatkopar, Mumbai - BMC",19-02-2026 08:00:00,19.083694,72.920967,SO2,1,5,2
India,Maharashtra,Mumbai,"Ghatkopar, Mumbai - BMC",19-02-2026 08:00:00,19.083694,72.920967,OZONE,2,40,3
India,Maharashtra,Mumbai,"Kandivali East, Mumbai - MPCB",19-02-2026 08:00:00,19.205800,72.868200,PM10,39,101,54
India,Maharashtra,Mumbai,"Malad West, Mumbai - IITM",19-02-2026 08:00:00,19.19709,72.82204,SO2,5,17,9
India,Maharashtra,Mumbai,"Malad West, Mumbai - IITM",19-02-2026 08:00:00,19.19709,72.82204,CO,2,30,11
India,Maharashtra,Mumbai,"Mazgaon, Mumbai - IITM",19-02-2026 08:00:00,18.96702,72.84214,NH3,9,12,10
India,Maharashtra,Mumbai,"Mulund West, Mumbai - MPCB",19-02-2026 08:00:00,19.1750,72.9419,PM10,NA,NA,NA
India,Maharashtra,Mumbai,"Navy Nagar-Colaba, Mumbai - IITM",19-02-2026 08:00:00,18.897756,72.813320,PM10,36,70,50
India,Maharashtra,Mumbai,"Sewri, Mumbai - BMC",19-02-2026 08:00:00,19.000084,72.856730,NH3,1,15,4
India,Maharashtra,Mumbai,"Bandra Kurla Complex, Mumbai - MPCB",19-02-2026 08:00:00,19.065931,72.862131,NH3,10,10,10
India,Maharashtra,Mumbai,"Bandra Kurla Complex, Mumbai - MPCB",19-02-2026 08:00:00,19.065931,72.862131,CO,7,14,11
India,Maharashtra,Mumbai,"Borivali East, Mumbai - MPCB",19-02-2026 08:00:00,19.2243333,72.8658113,SO2,15,18,17
India,Maharashtra,Mumbai,"Borivali East, Mumbai - MPCB",19-02-2026 08:00:00,19.2243333,72.8658113,CO,16,18,17
India,Maharashtra,Mumbai,"Byculla, Mumbai - BMC",19-02-2026 08:00:00,18.9767,72.8380,PM2.5,2,23,9
India,Maharashtra,Mumbai,"Chakala-Andheri East, Mumbai - IITM",19-02-2026 08:00:00,19.11074,72.86084,NH3,14,20,16
India,Maharashtra,Kalyan,"Khadakpada, Kalyan - MPCB",19-02-2026 08:00:00,19.25292,73.142019,NO2,NA,NA,NA
India,Maharashtra,Kalyan,"Khadakpada, Kalyan - MPCB",19-02-2026 08:00:00,19.25292,73.142019,NH3,NA,NA,NA
India,Maharashtra,Kolhapur,"Sinchan Bhavan, Kolhapur - MPCB",19-02-2026 08:00:00,16.7143745,74.2426398,NH3,NA,NA,NA
India,Maharashtra,Kolhapur,"Sinchan Bhavan, Kolhapur - MPCB",19-02-2026 08:00:00,16.7143745,74.2426398,SO2,1,10,5
India,Odisha,Byasanagar,"Ferro Chrome Colony, Byasanagar - OSPCB",19-02-2026 08:00:00,20.94185,86.11510,NH3,2,4,3
India,Odisha,Byasanagar,"Ferro Chrome Colony, Byasanagar - OSPCB",19-02-2026 08:00:00,20.94185,86.11510,OZONE,42,263,69
India,Odisha,Cuttack,"CDA Area, Cuttack - OSPCB",19-02-2026 08:00:00,20.48891     ,85.84768     ,NO2,21,100,43
India,Odisha,Cuttack,"CDA Area, Cuttack - OSPCB",19-02-2026 08:00:00,20.48891     ,85.84768     ,NH3,4,6,6
India,Odisha,Cuttack,"CDA Area, Cuttack - OSPCB",19-02-2026 08:00:00,20.48891     ,85.84768     ,CO,60,92,69
India,Odisha,Cuttack,"CDA Area, Cuttack - OSPCB",19-02-2026 08:00:00,20.48891     ,85.84768     ,OZONE,12,268,68
India,Odisha,Nayagarh,"Dabuna, Nayagarh - OSPCB",19-02-2026 08:00:00,21.847279,85.416905,PM2.5,36,73,57
India,Odisha,Nayagarh,"Dabuna, Nayagarh - OSPCB",19-02-2026 08:00:00,21.847279,85.416905,NO2,9,10,10
India,Maharashtra,Pune,"Revenue Colony-Shivajinagar, Pune - IITM",19-02-2026 08:00:00,18.530085,73.849598,OZONE,5,80,28
India,Maharashtra,Pune,"Transport Nagar-Nigdi, Pune - IITM",19-02-2026 08:00:00,18.664282,73.763966,OZONE,8,43,17
India,Maharashtra,Solapur,"Dnyaneshwar Nagar, Solapur - MPCB",19-02-2026 08:00:00,17.6336264,75.9132495,PM2.5,79,122,92
India,Maharashtra,Solapur,"Dnyaneshwar Nagar, Solapur - MPCB",19-02-2026 08:00:00,17.6336264,75.9132495,CO,11,30,22
India,Maharashtra,Solapur,"Ratandeep Housing Society, Solapur - MPCB",19-02-2026 08:00:00,17.65439,75.90649,PM2.5,26,38,33
India,Maharashtra,Solapur,"Ratandeep Housing Society, Solapur - MPCB",19-02-2026 08:00:00,17.65439,75.90649,PM10,88,127,105
India,Maharashtra,Pune,"Bhosari, Pune - IITM",19-02-2026 08:00:00,18.640051,73.848956,OZONE,2,73,22
India,Maharashtra,Pune,"Dhankawadi, Pune - IITM",19-02-2026 08:00:00,18.459883,73.852193,PM2.5,34,236,110
India,Maharashtra,Pune,"Katraj Dairy, Pune - MPCB",19-02-2026 08:00:00,18.454450,73.854155,PM2.5,NA,NA,NA
India,Maharashtra,Pune,"Mhada Colony, Pune - IITM",19-02-2026 08:00:00,18.573040,73.927715,PM2.5,202,311,274
India,Maharashtra,Pune,"Panchawati_Pashan, Pune - IITM",19-02-2026 08:00:00,18.536457,73.805454,OZONE,1,43,7
India,Maharashtra,Pune,"Revenue Colony-Shivajinagar, Pune - IITM",19-02-2026 08:00:00,18.530085,73.849598,PM2.5,72,287,124
India,Odisha,Rairangpur,"Divisional Forest Office, Rairangpur - OSPCB",19-02-2026 08:00:00,22.265816,86.174829,PM10,79,116,96
India,Odisha,Rourkela,"Fertilizer Township, Rourkela - OSPCB",19-02-2026 08:00:00,22.18972222,84.86277778,CO,4,28,14
India,Odisha,Rourkela,"Sector-2, Rourkela - OSPCB",19-02-2026 08:00:00,22.24500000,84.88111111,PM2.5,27,97,48
India,Odisha,Rourkela,"Sector-2, Rourkela - OSPCB",19-02-2026 08:00:00,22.24500000,84.88111111,PM10,52,94,66
India,Odisha,Suakati,"OMC Colony, Suakati - OSPCB",19-02-2026 08:00:00,21.606865,85.510538,PM2.5,NA,NA,NA
India,Maharashtra,Navi Mumbai,"Nerul, Navi Mumbai - MPCB",19-02-2026 08:00:00,19.008751,73.016620,SO2,NA,NA,NA
India,Maharashtra,Navi Mumbai,"Sanpada, Navi Mumbai - MPCB",19-02-2026 08:00:00,19.0575752,73.0151367,NH3,4,36,13
India,Maharashtra,Navi Mumbai,"Tondare-Taloja, Navi Mumbai - MPCB",19-02-2026 08:00:00,19.0630,73.1209,NH3,7,9,8
India,Maharashtra,Navi Mumbai,"Tondare-Taloja, Navi Mumbai - MPCB",19-02-2026 08:00:00,19.0630,73.1209,CO,9,24,15
India,Maharashtra,Parbhani,"Masoom Colony, Parbhani - MPCB",19-02-2026 08:00:00,19.265594,76.761463,NH3,3,5,4
India,Maharashtra,Solapur,"Ratandeep Housing Society, Solapur - MPCB",19-02-2026 08:00:00,17.65439,75.90649,SO2,2,22,10
India,Maharashtra,Thane,"Upvan Fort, Thane - MPCB",19-02-2026 08:00:00,19.222279,72.957979,PM2.5,23,63,37
India,Maharashtra,Virar,"Bolinj, Virar - MPCB",19-02-2026 08:00:00,19.4458210,72.7988231,PM2.5,NA,NA,NA
India,Maharashtra,Virar,"Bolinj, Virar - MPCB",19-02-2026 08:00:00,19.4458210,72.7988231,NH3,1,3,2
India,Odisha,Balasore,"Kalidaspur, Balasore - OSPCB",19-02-2026 08:00:00,21.51161,86.89088,OZONE,3,195,24
India,Odisha,Baripada,"Meher Colony, Baripada - OSPCB",19-02-2026 08:00:00,21.941841,86.728318,NH3,1,6,4
India,Odisha,Baripada,"Meher Colony, Baripada - OSPCB",19-02-2026 08:00:00,21.941841,86.728318,OZONE,6,114,26
India,Odisha,Bhubaneswar,"Patia, Bhubaneswar - OSPCB",19-02-2026 08:00:00,20.34652,85.81630,NH3,4,7,5
India,Meghalaya,Shillong,"Lumpyngngad, Shillong - Meghalaya PCB",19-02-2026 08:00:00,25.5586,91.8985,OZONE,30,55,51
India,Odisha,Angul,"Hakimapada, Angul - OSPCB",19-02-2026 08:00:00,20.832874,85.104082,PM2.5,60,373,172
India,Odisha,Balasore,"Kalidaspur, Balasore - OSPCB",19-02-2026 08:00:00,21.51161,86.89088,NO2,8,59,26
India,Maharashtra,Pimpri-Chinchwad,"Savta Mali Nagar, Pimpri-Chinchwad - IITM",19-02-2026 08:00:00,18.614767,73.799516,NO2,NA,NA,NA
India,Maharashtra,Pimpri-Chinchwad,"Thergaon, Pimpri Chinchwad - MPCB",19-02-2026 08:00:00,18.616318,73.765797,NO2,37,79,60
India,Maharashtra,Pune,"Bhosari, Pune - IITM",19-02-2026 08:00:00,18.640051,73.848956,PM2.5,80,252,136
India,Rajasthan,Jhunjhunu,"Indra Nagar, Jhunjhunu - RSPCB",19-02-2026 08:00:00,28.108988,75.386577,SO2,3,6,4
India,Rajasthan,Jhunjhunu,"Indra Nagar, Jhunjhunu - RSPCB",19-02-2026 08:00:00,28.108988,75.386577,CO,23,48,28
India,Rajasthan,Jhunjhunu,"Indra Nagar, Jhunjhunu - RSPCB",19-02-2026 08:00:00,28.108988,75.386577,OZONE,8,70,29
India,Rajasthan,Jodhpur,"Collectorate, Jodhpur - RSPCB",19-02-2026 08:00:00,26.268249,73.0193853,NH3,5,15,11
India,Rajasthan,Jodhpur,"Digari Kalan, Jodhpur - RSPCB",19-02-2026 08:00:00,26.295810,73.082283,PM2.5,32,85,55
India,Rajasthan,Jodhpur,"Digari Kalan, Jodhpur - RSPCB",19-02-2026 08:00:00,26.295810,73.082283,NO2,11,26,17
India,Rajasthan,Jodhpur,"Digari Kalan, Jodhpur - RSPCB",19-02-2026 08:00:00,26.295810,73.082283,OZONE,33,122,57
India,Rajasthan,Jodhpur,"Jhalamand, Jodhpur - RSPCB",19-02-2026 08:00:00,26.215415,73.070156,PM10,38,102,60
India,Rajasthan,Jodhpur,"Jhalamand, Jodhpur - RSPCB",19-02-2026 08:00:00,26.215415,73.070156,OZONE,26,85,41
India,Rajasthan,Jodhpur,"Mandor, Jodhpur - RSPCB",19-02-2026 08:00:00,26.358805,73.047444,PM10,52,82,64
India,Rajasthan,Jodhpur,"Mandor, Jodhpur - RSPCB",19-02-2026 08:00:00,26.358805,73.047444,NH3,5,7,6
India,Rajasthan,Jodhpur,"Samrat Ashok Udhyan, Jodhpur - RSPCB",19-02-2026 08:00:00,26.253384,72.976571,PM10,49,121,83
India,Rajasthan,Jaipur,"Adarsh Nagar, Jaipur - RSPCB",19-02-2026 08:00:00,26.902909,75.836858,PM10,NA,NA,NA
India,Rajasthan,Jaipur,"Adarsh Nagar, Jaipur - RSPCB",19-02-2026 08:00:00,26.902909,75.836858,SO2,2,43,22
India,Rajasthan,Jaipur,"Adarsh Nagar, Jaipur - RSPCB",19-02-2026 08:00:00,26.902909,75.836858,CO,32,61,45
India,Rajasthan,Jaipur,"Mansarovar Sector-12, Jaipur - RSPCB",19-02-2026 08:00:00,26.843698,75.766894,PM10,29,105,60
India,Rajasthan,Jaipur,"Mansarovar Sector-12, Jaipur - RSPCB",19-02-2026 08:00:00,26.843698,75.766894,CO,56,72,62
India,Rajasthan,Jaipur,"Police Commissionerate, Jaipur - RSPCB",19-02-2026 08:00:00,26.9164092,75.7994901,CO,1,96,45
India,Rajasthan,Jaipur,"Police Commissionerate, Jaipur - RSPCB",19-02-2026 08:00:00,26.9164092,75.7994901,OZONE,15,33,18
India,Rajasthan,Jaipur,"RIICO Sitapura, Jaipur - RSPCB",19-02-2026 08:00:00,26.786682,75.827928,PM2.5,33,77,56
India,Rajasthan,Jaipur,"RIICO Sitapura, Jaipur - RSPCB",19-02-2026 08:00:00,26.786682,75.827928,NO2,52,74,61
India,Rajasthan,Jaipur,"RIICO Sitapura, Jaipur - RSPCB",19-02-2026 08:00:00,26.786682,75.827928,CO,16,38,27
India,Rajasthan,Jaipur,"Sector-2 Murlipura, Jaipur - RSPCB",19-02-2026 08:00:00,26.960669,75.771817,PM2.5,18,95,39
India,Rajasthan,Bundi,"New Colony, Bundi - RSPCB",19-02-2026 08:00:00,25.435774,75.644272,NH3,2,3,3
India,Rajasthan,Bundi,"New Colony, Bundi - RSPCB",19-02-2026 08:00:00,25.435774,75.644272,SO2,2,9,4
India,Rajasthan,Bundi,"New Colony, Bundi - RSPCB",19-02-2026 08:00:00,25.435774,75.644272,CO,16,24,18
India,Rajasthan,Chittorgarh,"Shastri Nagar, Chittorgarh - RSPCB",19-02-2026 08:00:00,24.892047,74.623527,PM2.5,58,150,99
India,Rajasthan,Chittorgarh,"Shastri Nagar, Chittorgarh - RSPCB",19-02-2026 08:00:00,24.892047,74.623527,PM10,53,500,121
India,Rajasthan,Churu,"Subash Chowk, Churu - RSPCB",19-02-2026 08:00:00,28.296139,74.961696,SO2,1,5,3
India,Rajasthan,Churu,"Subash Chowk, Churu - RSPCB",19-02-2026 08:00:00,28.296139,74.961696,CO,28,56,32
India,Rajasthan,Dausa,"Khatikan Mohalla, Dausa - RSPCB",19-02-2026 08:00:00,26.895552,76.334753,PM2.5,12,95,28
India,Rajasthan,Dausa,"Khatikan Mohalla, Dausa - RSPCB",19-02-2026 08:00:00,26.895552,76.334753,NO2,4,38,17
India,Rajasthan,Dausa,"Khatikan Mohalla, Dausa - RSPCB",19-02-2026 08:00:00,26.895552,76.334753,CO,34,72,40
India,Rajasthan,Dausa,"Khatikan Mohalla, Dausa - RSPCB",19-02-2026 08:00:00,26.895552,76.334753,OZONE,24,97,38
India,Rajasthan,Ajmer,"Civil Lines,  Ajmer - RSPCB",19-02-2026 08:00:00,26.470859,74.646594,PM10,47,77,63
India,Rajasthan,Alwar,"Moti Doongri, Alwar - RSPCB",19-02-2026 08:00:00,27.554793,76.611536,PM10,96,125,102
India,Rajasthan,Alwar,"Moti Doongri, Alwar - RSPCB",19-02-2026 08:00:00,27.554793,76.611536,NH3,5,12,10
India,Rajasthan,Banswara,"Rati Talai, Banswara - RSPCB",19-02-2026 08:00:00,23.555190,74.440010,PM10,43,192,99
India,Rajasthan,Banswara,"Rati Talai, Banswara - RSPCB",19-02-2026 08:00:00,23.555190,74.440010,CO,8,94,18
India,Rajasthan,Baran,"Bamboliya, Baran - RSPCB",19-02-2026 08:00:00,25.106006,76.469948,PM10,39,87,59
India,Rajasthan,Barmer,"Railway Colony, Barmer - RSPCB",19-02-2026 08:00:00,25.747299,71.393989,NH3,NA,NA,NA
India,Rajasthan,Barmer,"Railway Colony, Barmer - RSPCB",19-02-2026 08:00:00,25.747299,71.393989,CO,17,105,72
India,Odisha,Talcher,"Talcher Coalfields,Talcher - OSPCB",19-02-2026 08:00:00,20.9360711,85.1707021,PM2.5,22,448,142
India,Puducherry,Puducherry,"Jawahar Nagar, Puducherry - PPCC",19-02-2026 08:00:00,11.9309,79.8027,NO2,9,37,23
India,Puducherry,Puducherry,"Jawahar Nagar, Puducherry - PPCC",19-02-2026 08:00:00,11.9309,79.8027,NH3,2,5,3
India,Punjab,Amritsar,"Golden Temple, Amritsar - PPCB",19-02-2026 08:00:00,31.620000,74.876512,PM2.5,43,72,60
India,Punjab,Amritsar,"Golden Temple, Amritsar - PPCB",19-02-2026 08:00:00,31.620000,74.876512,NH3,5,14,7
India,Punjab,Amritsar,"Golden Temple, Amritsar - PPCB",19-02-2026 08:00:00,31.620000,74.876512,CO,49,102,58
India,Punjab,Bathinda,"Hardev Nagar, Bathinda - PPCB",19-02-2026 08:00:00,30.233011,74.907758,CO,76,80,78
India,Rajasthan,Bharatpur,"Krishna Nagar, Bharatpur - RSPCB",19-02-2026 08:00:00,27.215415,77.50873,PM10,16,100,49
India,Rajasthan,Bhilwara,"Pratap Nagar, Bhilwara - RSPCB",19-02-2026 08:00:00,25.339605,74.618883,NO2,8,39,14
India,Rajasthan,Bhilwara,"Pratap Nagar, Bhilwara - RSPCB",19-02-2026 08:00:00,25.339605,74.618883,SO2,6,22,10
India,Rajasthan,Bhiwadi,"RIICO Ind. Area III, Bhiwadi - RSPCB",19-02-2026 08:00:00,28.194909,76.862296,PM2.5,105,376,253
India,Rajasthan,Bhiwadi,"RIICO Ind. Area III, Bhiwadi - RSPCB",19-02-2026 08:00:00,28.194909,76.862296,PM10,76,265,155
India,Rajasthan,Bhiwadi,"Vasundhara Nagar_UIT, Bhiwadi - RSPCB",19-02-2026 08:00:00,28.207266,76.829265,PM2.5,50,313,181
India,Punjab,Jalandhar,"Civil Line, Jalandhar - PPCB",19-02-2026 08:00:00,31.321907,75.578914,SO2,14,17,15
India,Punjab,Jalandhar,"Civil Line, Jalandhar - PPCB",19-02-2026 08:00:00,31.321907,75.578914,OZONE,12,47,40
India,Punjab,Khanna,"Kalal Majra, Khanna - PPCB",19-02-2026 08:00:00,30.736056 ,76.209694,CO,8,46,30
India,Punjab,Patiala,"Model Town, Patiala - PPCB",19-02-2026 08:00:00,30.349388,76.366642,NH3,6,7,6
India,Punjab,Patiala,"Model Town, Patiala - PPCB",19-02-2026 08:00:00,30.349388,76.366642,CO,46,104,102
India,Punjab,Rupnagar,"Ratanpura, Rupnagar - Ambuja Cements",19-02-2026 08:00:00,31.0325454,76.5623046,SO2,11,17,14
India,Rajasthan,Jaipur,"Shastri Nagar, Jaipur - RSPCB",19-02-2026 08:00:00,26.9502929,75.730943,PM2.5,44,99,64
India,Rajasthan,Jaisalmer,"Sadar Bazar, Jaisalmer - RSPCB",19-02-2026 08:00:00,26.912329,70.909168,CO,4,28,7
India,Rajasthan,Jaisalmer,"Sadar Bazar, Jaisalmer - RSPCB",19-02-2026 08:00:00,26.912329,70.909168,OZONE,51,93,79
India,Rajasthan,Jhalawar,"Rajlaxmi Nagar, Jhalawar - RSPCB",19-02-2026 08:00:00,24.588397,76.172782,PM2.5,38,100,66
India,Rajasthan,Dholpur,"Raja Ganj, Dholpur - RSPCB",19-02-2026 08:00:00,26.699557,77.898881,OZONE,7,52,20
India,Rajasthan,Dungarpur,"Bhoiwada, Dungarpur - RSPCB",19-02-2026 08:00:00,23.837789,73.714926,CO,28,56,30
India,TamilNadu,Chennai,"Royapuram, Chennai - TNPCB",19-02-2026 08:00:00,13.1036,80.2909,CO,45,61,51
India,TamilNadu,Chennai,"Royapuram, Chennai - TNPCB",19-02-2026 08:00:00,13.1036,80.2909,OZONE,16,18,17
India,TamilNadu,Chennai,"Velachery Res. Area, Chennai - CPCB",19-02-2026 08:00:00,13.0052189,80.2398125,NO2,12,15,13
India,TamilNadu,Chennai,"Velachery Res. Area, Chennai - CPCB",19-02-2026 08:00:00,13.0052189,80.2398125,NH3,3,3,3
India,TamilNadu,Coimbatore,"PSG College of Arts and Science, Coimbatore - TNPCB",19-02-2026 08:00:00,11.0328,77.0349,PM10,58,106,75
India,TamilNadu,Coimbatore,"PSG College of Arts and Science, Coimbatore - TNPCB",19-02-2026 08:00:00,11.0328,77.0349,OZONE,3,7,5
India,TamilNadu,Gummidipoondi,"Anthoni Pillai Nagar, Gummidipoondi - TNPCB",19-02-2026 08:00:00,13.4127,80.1081,NH3,1,1,1
India,TamilNadu,Gummidipoondi,"Anthoni Pillai Nagar, Gummidipoondi - TNPCB",19-02-2026 08:00:00,13.4127,80.1081,SO2,2,104,30
India,TamilNadu,Madurai,"Uchapatti, Madurai - TNPCB",19-02-2026 08:00:00,9.865935,78.022669,PM10,NA,NA,NA
India,TamilNadu,Madurai,"Uchapatti, Madurai - TNPCB",19-02-2026 08:00:00,9.865935,78.022669,SO2,NA,NA,NA
India,TamilNadu,Madurai,"Uchapatti, Madurai - TNPCB",19-02-2026 08:00:00,9.865935,78.022669,CO,NA,NA,NA
India,TamilNadu,Perundurai,"SIPCOT Industrial Park, Perundurai - TNPCB",19-02-2026 08:00:00,11.258242,77.552761,SO2,9,16,14
India,TamilNadu,Perundurai,"SIPCOT Industrial Park, Perundurai - TNPCB",19-02-2026 08:00:00,11.258242,77.552761,CO,38,50,41
India,Uttar_Pradesh,Agra,"Manoharpur, Agra - UPPCB",19-02-2026 08:00:00,27.23711,78.01936,OZONE,7,7,7
India,Uttar_Pradesh,Agra,"Rohta, Agra - UPPCB",19-02-2026 08:00:00,27.106972,78.000111,PM2.5,25,131,52
India,Uttar_Pradesh,Agra,"Rohta, Agra - UPPCB",19-02-2026 08:00:00,27.106972,78.000111,OZONE,12,13,13
India,Uttar_Pradesh,Agra,"Sanjay Palace, Agra - UPPCB",19-02-2026 08:00:00,27.19865833,78.00598056,NO2,3,5,4
India,Uttar_Pradesh,Agra,"Sector-3B Avas Vikas Colony, Agra - UPPCB",19-02-2026 08:00:00,27.19412,77.96237,PM10,36,133,82
India,Uttar_Pradesh,Agra,"Shastripuram, Agra - UPPCB",19-02-2026 08:00:00,27.19862,77.92066,PM2.5,21,76,40
India,Uttar_Pradesh,Agra,"Shastripuram, Agra - UPPCB",19-02-2026 08:00:00,27.19862,77.92066,NH3,3,3,3
India,Uttar_Pradesh,Agra,"Shastripuram, Agra - UPPCB",19-02-2026 08:00:00,27.19862,77.92066,SO2,7,21,14
India,TamilNadu,Thoothukudi,"Meelavittan, Thoothukudi - TNPCB",19-02-2026 08:00:00,8.816428 ,78.099039,PM10,34,119,69
India,Telangana,Hyderabad,"Bollaram Industrial Area, Hyderabad - TSPCB",19-02-2026 08:00:00,17.540891,78.358528,NO2,20,42,31
India,Telangana,Hyderabad,"Bollaram Industrial Area, Hyderabad - TSPCB",19-02-2026 08:00:00,17.540891,78.358528,NH3,3,6,4
India,Telangana,Hyderabad,"Central University, Hyderabad - TSPCB",19-02-2026 08:00:00,17.460103,78.334361,PM2.5,51,84,67
India,Telangana,Hyderabad,"Central University, Hyderabad - TSPCB",19-02-2026 08:00:00,17.460103,78.334361,NO2,15,26,21
India,Telangana,Hyderabad,"Central University, Hyderabad - TSPCB",19-02-2026 08:00:00,17.460103,78.334361,CO,20,42,31
India,Telangana,Hyderabad,"ICRISAT Patancheru, Hyderabad - TSPCB",19-02-2026 08:00:00,17.518400,78.278777,NO2,11,20,15
India,Telangana,Hyderabad,"New Malakpet, Hyderabad - TSPCB",19-02-2026 08:00:00,17.37206,78.50864,OZONE,16,28,21
India,Telangana,Hyderabad,"Ramachandrapuram, Hyderabad - TSPCB",19-02-2026 08:00:00,17.528544,78.286195,PM2.5,50,67,58
India,Telangana,Hyderabad,"Ramachandrapuram, Hyderabad - TSPCB",19-02-2026 08:00:00,17.528544,78.286195,CO,20,26,24
India,Telangana,Hyderabad,"Sanathnagar, Hyderabad - TSPCB",19-02-2026 08:00:00,17.4559458,78.4332152,CO,40,54,44
India,Telangana,Hyderabad,"Somajiguda, Hyderabad - TSPCB",19-02-2026 08:00:00,17.417094,78.457437,NH3,3,4,4
India,Telangana,Hyderabad,"Zoo Park, Hyderabad - TSPCB",19-02-2026 08:00:00,17.349694,78.451437,PM10,87,157,126
India,Telangana,Hyderabad,"Zoo Park, Hyderabad - TSPCB",19-02-2026 08:00:00,17.349694,78.451437,SO2,2,6,4
India,Rajasthan,Pali,"Indira Colony Vistar, Pali - RSPCB",19-02-2026 08:00:00,25.771061, 73.340227,PM10,45,135,82
India,Rajasthan,Pali,"Indira Colony Vistar, Pali - RSPCB",19-02-2026 08:00:00,25.771061, 73.340227,CO,2,48,22
India,Rajasthan,Pali,"Indira Colony Vistar, Pali - RSPCB",19-02-2026 08:00:00,25.771061, 73.340227,OZONE,6,58,7
India,Rajasthan,Rajsamand,"Dhoinda, Rajsamand - RSPCB",19-02-2026 08:00:00,25.036360,73.883502,NO2,13,26,17
India,Rajasthan,Rajsamand,"Dhoinda, Rajsamand - RSPCB",19-02-2026 08:00:00,25.036360,73.883502,SO2,7,23,11
India,Rajasthan,Rajsamand,"Dhoinda, Rajsamand - RSPCB",19-02-2026 08:00:00,25.036360,73.883502,CO,2,30,19
India,Rajasthan,Sawai Madhopur,"Sahu Nagar, Sawai Madhopur - RSPCB",19-02-2026 08:00:00,26.031443,76.359327,PM10,46,128,65
India,Telangana,Hyderabad,"Kokapet, Hyderabad - TSPCB",19-02-2026 08:00:00,17.393559,78.339194,PM2.5,51,76,61
India,Telangana,Hyderabad,"Kokapet, Hyderabad - TSPCB",19-02-2026 08:00:00,17.393559,78.339194,NH3,2,3,2
India,Telangana,Hyderabad,"Kokapet, Hyderabad - TSPCB",19-02-2026 08:00:00,17.393559,78.339194,OZONE,18,32,19
India,Telangana,Hyderabad,"Kompally Municipal Office, Hyderabad - TSPCB",19-02-2026 08:00:00,17.544899,78.486949,CO,12,26,15
India,Telangana,Hyderabad,"Nacharam_TSIIC IALA, Hyderabad - TSPCB",19-02-2026 08:00:00,17.429398,78.569354,PM10,80,96,85
India,Telangana,Hyderabad,"Nacharam_TSIIC IALA, Hyderabad - TSPCB",19-02-2026 08:00:00,17.429398,78.569354,CO,24,30,29
India,Telangana,Hyderabad,"Nacharam_TSIIC IALA, Hyderabad - TSPCB",19-02-2026 08:00:00,17.429398,78.569354,OZONE,15,32,16
India,TamilNadu,Chennai,"Arumbakkam, Chennai - TNPCB",19-02-2026 08:00:00,13.0664,80.2112 ,PM2.5,50,167,82
India,TamilNadu,Chennai,"Arumbakkam, Chennai - TNPCB",19-02-2026 08:00:00,13.0664,80.2112 ,SO2,2,8,3
India,TamilNadu,Chennai,"Manali Village, Chennai - TNPCB",19-02-2026 08:00:00,13.1662,80.2584,NO2,5,9,6
India,TamilNadu,Chennai,"Manali Village, Chennai - TNPCB",19-02-2026 08:00:00,13.1662,80.2584,CO,29,56,31
India,TamilNadu,Chennai,"Perungudi, Chennai - TNPCB",19-02-2026 08:00:00,12.9533,80.2357,NO2,4,10,6
India,TamilNadu,Chennai,"Royapuram, Chennai - TNPCB",19-02-2026 08:00:00,13.1036,80.2909,PM2.5,48,257,84
India,Rajasthan,Karauli,"Satyawati Vihar, Karauli - RSPCB",19-02-2026 08:00:00,26.506177,77.025989,PM2.5,31,84,54
India,Rajasthan,Karauli,"Satyawati Vihar, Karauli - RSPCB",19-02-2026 08:00:00,26.506177,77.025989,PM10,28,103,56
India,Rajasthan,Kota,"Dhanmandi, Kota - RSPCB",19-02-2026 08:00:00,25.164090,75.858137,NO2,21,81,45
India,Rajasthan,Kota,"Shrinath Puram, Kota - RSPCB",19-02-2026 08:00:00,25.14389,75.821256,OZONE,10,16,14
India,Rajasthan,Nagaur,"Karni Colony, Nagaur - RSPCB",19-02-2026 08:00:00,27.213494,73.734444,NO2,10,20,14
India,Rajasthan,Sirohi,"Vedhaynath Colony, Sirohi - RSPCB",19-02-2026 08:00:00,24.885261,72.857549,SO2,7,45,14
India,Rajasthan,Sri Ganganagar,"Old City, Sri Ganganagar - RSPCB",19-02-2026 08:00:00,29.931624,73.864511,PM10,59,157,100
India,Rajasthan,Sri Ganganagar,"Old City, Sri Ganganagar - RSPCB",19-02-2026 08:00:00,29.931624,73.864511,OZONE,1,231,19
India,Rajasthan,Udaipur,"Ashok Nagar, Udaipur - RSPCB",19-02-2026 08:00:00,24.5886166,73.6321397,OZONE,8,63,44
India,Uttar_Pradesh,Varanasi,"Bhelupur, Varanasi - UPPCB",19-02-2026 08:00:00,25.301778,82.996789,OZONE,5,18,6
India,Uttar_Pradesh,Varanasi,"IESD Banaras Hindu University, Varanasi - UPPCB",19-02-2026 08:00:00,25.262326,82.995408,PM2.5,1,84,31
India,Uttar_Pradesh,Varanasi,"IESD Banaras Hindu University, Varanasi - UPPCB",19-02-2026 08:00:00,25.262326,82.995408,NO2,2,2,2
India,Uttar_Pradesh,Varanasi,"IESD Banaras Hindu University, Varanasi - UPPCB",19-02-2026 08:00:00,25.262326,82.995408,NH3,1,5,3
India,Uttar_Pradesh,Varanasi,"IESD Banaras Hindu University, Varanasi - UPPCB",19-02-2026 08:00:00,25.262326,82.995408,SO2,29,32,30
India,Uttar_Pradesh,Varanasi,"IESD Banaras Hindu University, Varanasi - UPPCB",19-02-2026 08:00:00,25.262326,82.995408,OZONE,1,26,18
India,Uttar_Pradesh,Varanasi,"Maldahiya, Varanasi - UPPCB",19-02-2026 08:00:00,25.32393,82.99687,PM10,27,108,65
India,Uttar_Pradesh,Vrindavan,"Omex Eternity, Vrindavan - UPPCB",19-02-2026 08:00:00,27.5714090,77.6557570,PM2.5,26,62,37
India,Uttar_Pradesh,Vrindavan,"Omex Eternity, Vrindavan - UPPCB",19-02-2026 08:00:00,27.5714090,77.6557570,NO2,27,27,27
India,Uttar_Pradesh,Vrindavan,"Omex Eternity, Vrindavan - UPPCB",19-02-2026 08:00:00,27.5714090,77.6557570,NH3,1,8,6
India,Uttar_Pradesh,Vrindavan,"Omex Eternity, Vrindavan - UPPCB",19-02-2026 08:00:00,27.5714090,77.6557570,OZONE,15,16,15
India,Uttarakhand,Dehradun,"Doon University, Dehradun - UKPCB",19-02-2026 08:00:00,30.269444,78.044167,PM2.5,73,192,117
India,Uttar_Pradesh,Lucknow,"Gomti Nagar, Lucknow - UPPCB",19-02-2026 08:00:00,26.868120,81.005119,OZONE,30,41,31
India,Uttar_Pradesh,Lucknow,"Kendriya Vidyalaya, Lucknow - CPCB",19-02-2026 08:00:00,26.906111,80.948222,PM2.5,71,294,170
India,Uttar_Pradesh,Lucknow,"Kendriya Vidyalaya, Lucknow - CPCB",19-02-2026 08:00:00,26.906111,80.948222,SO2,5,16,11
India,Uttar_Pradesh,Lucknow,"Kendriya Vidyalaya, Lucknow - CPCB",19-02-2026 08:00:00,26.906111,80.948222,OZONE,10,41,13
India,Uttar_Pradesh,Lucknow,"Kukrail Picnic Spot-1, Lucknow - UPPCB",19-02-2026 08:00:00,26.90723,80.98579,PM10,36,122,82
India,Uttar_Pradesh,Lucknow,"Talkatora District Industries Center, Lucknow - CPCB",19-02-2026 08:00:00,26.83399722,80.8917361,OZONE,8,44,13
India,Uttar_Pradesh,Meerut,"Ganga Nagar, Meerut - UPPCB",19-02-2026 08:00:00,28.999264,77.7590354,PM10,97,230,153
India,Uttar_Pradesh,Meerut,"Ganga Nagar, Meerut - UPPCB",19-02-2026 08:00:00,28.999264,77.7590354,NO2,36,118,83
India,Uttar_Pradesh,Meerut,"Ganga Nagar, Meerut - UPPCB",19-02-2026 08:00:00,28.999264,77.7590354,OZONE,7,44,8
India,Uttar_Pradesh,Jhansi,"Shivaji Nagar, Jhansi - UPPCB",19-02-2026 08:00:00,25.4547,78.6039,OZONE,1,11,2
India,Uttar_Pradesh,Kanpur,"NSI Kalyanpur, Kanpur - UPPCB",19-02-2026 08:00:00,26.509954,80.249612,OZONE,15,18,17
India,Uttar_Pradesh,Kanpur,"Nehru Nagar, Kanpur - UPPCB",19-02-2026 08:00:00,26.4703136,80.3229863,NO2,47,53,51
India,Uttar_Pradesh,Khurja,"Kalindi Kunj, Khurja - UPPCB",19-02-2026 08:00:00,28.2348927,77.8683002,CO,16,47,35
India,Uttar_Pradesh,Khurja,"Kalindi Kunj, Khurja - UPPCB",19-02-2026 08:00:00,28.2348927,77.8683002,OZONE,5,15,11
India,Uttar_Pradesh,Lucknow,"B R Ambedkar University, Lucknow - UPPCB",19-02-2026 08:00:00,26.766433,80.927299,NO2,11,12,12
India,Uttar_Pradesh,Lucknow,"B R Ambedkar University, Lucknow - UPPCB",19-02-2026 08:00:00,26.766433,80.927299,OZONE,20,89,40
India,Uttar_Pradesh,Lucknow,"Gomti Nagar, Lucknow - UPPCB",19-02-2026 08:00:00,26.868120,81.005119,SO2,10,13,12
India,Uttar_Pradesh,Baghpat,"Sardar Patel Inter College, Baghpat - UPPCB",19-02-2026 08:00:00,28.964949,77.278761,CO,24,70,29
India,Uttar_Pradesh,Baghpat,"Sardar Patel Inter College, Baghpat - UPPCB",19-02-2026 08:00:00,28.964949,77.278761,OZONE,2,37,3
India,Uttar_Pradesh,Bareilly,"Civil Lines, Bareilly - UPPCB",19-02-2026 08:00:00,28.359581,79.414455,NO2,2,3,2
India,Uttar_Pradesh,Bareilly,"Civil Lines, Bareilly - UPPCB",19-02-2026 08:00:00,28.359581,79.414455,SO2,44,66,55
India,Uttar_Pradesh,Bulandshahr,"Yamunapuram, Bulandshahr - UPPCB",19-02-2026 08:00:00,28.406963,77.849831,PM10,63,146,92
India,Uttar_Pradesh,Bulandshahr,"Yamunapuram, Bulandshahr - UPPCB",19-02-2026 08:00:00,28.406963,77.849831,NO2,21,75,42
India,Uttar_Pradesh,Bulandshahr,"Yamunapuram, Bulandshahr - UPPCB",19-02-2026 08:00:00,28.406963,77.849831,SO2,13,51,22
India,Uttar_Pradesh,Bulandshahr,"Yamunapuram, Bulandshahr - UPPCB",19-02-2026 08:00:00,28.406963,77.849831,CO,35,102,44
India,Uttar_Pradesh,Bulandshahr,"Yamunapuram, Bulandshahr - UPPCB",19-02-2026 08:00:00,28.406963,77.849831,OZONE,2,31,7
India,Uttar_Pradesh,Noida,"Sector-116, Noida - UPPCB",19-02-2026 08:00:00,28.569230,77.393848,PM10,71,206,130
India,Uttar_Pradesh,Prayagraj,"Motilal Nehru NIT, Prayagraj - UPPCB",19-02-2026 08:00:00,25.494,81.863,NO2,12,12,12
India,Uttar_Pradesh,Prayagraj,"Motilal Nehru NIT, Prayagraj - UPPCB",19-02-2026 08:00:00,25.494,81.863,NH3,8,10,9
India,Uttar_Pradesh,Prayagraj,"Motilal Nehru NIT, Prayagraj - UPPCB",19-02-2026 08:00:00,25.494,81.863,SO2,9,58,32
India,Uttar_Pradesh,Prayagraj,"Nagar Nigam, Prayagraj - UPPCB",19-02-2026 08:00:00,25.44919916 ,81.82735986 ,NO2,5,5,5
India,Uttar_Pradesh,Varanasi,"Ardhali Bazar, Varanasi - UPPCB",19-02-2026 08:00:00,25.3505986,82.9083074,NO2,40,43,42
India,Uttar_Pradesh,Moradabad,"Kashiram Nagar, Moradabad - UPPCB",19-02-2026 08:00:00,28.849399,78.742362,CO,22,43,25
India,Uttar_Pradesh,Moradabad,"Transport Nagar, Moradabad - UPPCB",19-02-2026 08:00:00,28.802625,78.753728,PM2.5,31,91,56
India,Uttar_Pradesh,Muzaffarnagar,"New Mandi, Muzaffarnagar - UPPCB",19-02-2026 08:00:00,29.4723508,77.7194031,PM10,58,250,128
India,Uttar_Pradesh,Muzaffarnagar,"New Mandi, Muzaffarnagar - UPPCB",19-02-2026 08:00:00,29.4723508,77.7194031,NH3,10,13,12
India,Uttar_Pradesh,Noida,"Sector - 62, Noida - IMD",19-02-2026 08:00:00,28.6245479,77.3577104,NO2,1,27,8
India,Uttar_Pradesh,Meerut,"Jai Bhim Nagar, Meerut - UPPCB",19-02-2026 08:00:00,28.9535882,77.7622941,SO2,7,9,8
India,Uttar_Pradesh,Meerut,"Pallavpuram Phase 2, Meerut - UPPCB",19-02-2026 08:00:00,29.063510,77.709723,PM2.5,35,351,147
India,Uttar_Pradesh,Meerut,"Pallavpuram Phase 2, Meerut - UPPCB",19-02-2026 08:00:00,29.063510,77.709723,SO2,8,40,28
India,Uttar_Pradesh,Moradabad,"Employment Office, Moradabad - UPPCB",19-02-2026 08:00:00,28.88528,78.73880,SO2,24,28,25
India,Uttar_Pradesh,Moradabad,"Employment Office, Moradabad - UPPCB",19-02-2026 08:00:00,28.88528,78.73880,CO,7,49,26
India,Uttar_Pradesh,Ghaziabad,"Indirapuram, Ghaziabad - UPPCB",19-02-2026 08:00:00,28.646233,77.358075,PM2.5,68,355,209
India,Uttar_Pradesh,Ghaziabad,"Indirapuram, Ghaziabad - UPPCB",19-02-2026 08:00:00,28.646233,77.358075,PM10,92,296,168
India,Uttar_Pradesh,Ghaziabad,"Indirapuram, Ghaziabad - UPPCB",19-02-2026 08:00:00,28.646233,77.358075,SO2,10,33,21
India,Uttar_Pradesh,Ghaziabad,"Sanjay Nagar, Ghaziabad - UPPCB",19-02-2026 08:00:00,28.685382,77.453839,PM2.5,50,304,146
India,Uttar_Pradesh,Ghaziabad,"Sanjay Nagar, Ghaziabad - UPPCB",19-02-2026 08:00:00,28.685382,77.453839,NO2,56,120,82
India,Uttar_Pradesh,Ghaziabad,"Vasundhara, Ghaziabad - UPPCB",19-02-2026 08:00:00,28.6603346,77.3572563,OZONE,2,23,5
India,Uttar_Pradesh,Hapur,"Anand Vihar, Hapur - UPPCB",19-02-2026 08:00:00,28.725645,77.749675,NH3,5,11,9
India,Uttar_Pradesh,Jhansi,"Shivaji Nagar, Jhansi - UPPCB",19-02-2026 08:00:00,25.4547,78.6039,PM2.5,4,97,48
India,Uttarakhand,Rishikesh,"Shivaji Nagar, Rishikesh - UKPCB",19-02-2026 08:00:00,30.075911,78.2859547,PM10,48,48,48
India,Uttarakhand,Rishikesh,"Shivaji Nagar, Rishikesh - UKPCB",19-02-2026 08:00:00,30.075911,78.2859547,OZONE,80,80,80
India,West_Bengal,Asansol,"Asansol Court Area, Asansol - WBPCB",19-02-2026 08:00:00,23.685297,86.945968,PM2.5,66,277,167
India,West_Bengal,Asansol,"Asansol Court Area, Asansol - WBPCB",19-02-2026 08:00:00,23.685297,86.945968,PM10,49,166,119
India,West_Bengal,Asansol,"Asansol Court Area, Asansol - WBPCB",19-02-2026 08:00:00,23.685297,86.945968,NO2,15,276,33
India,West_Bengal,Asansol,"Asansol Court Area, Asansol - WBPCB",19-02-2026 08:00:00,23.685297,86.945968,NH3,2,9,5
India,West_Bengal,Asansol,"Asansol Court Area, Asansol - WBPCB",19-02-2026 08:00:00,23.685297,86.945968,OZONE,10,48,19
India,West_Bengal,Asansol,"Evelyn Lodge, Asansol - WBPCB",19-02-2026 08:00:00,23.6979360,86.9443950,NO2,10,79,42
India,West_Bengal,Asansol,"Mahabir Colliery, Asansol - WBPCB",19-02-2026 08:00:00,23.6181830,87.1057180,SO2,7,14,11
India,West_Bengal,Asansol,"Trivenidevi Bhalotia College, Asansol - WBPCB",19-02-2026 08:00:00,23.616515,87.119133,PM2.5,45,248,148
India,West_Bengal,Asansol,"Trivenidevi Bhalotia College, Asansol - WBPCB",19-02-2026 08:00:00,23.616515,87.119133,SO2,9,21,11
India,West_Bengal,Asansol,"Trivenidevi Bhalotia College, Asansol - WBPCB",19-02-2026 08:00:00,23.616515,87.119133,CO,38,104,100
India,West_Bengal,Barrackpore,"SVSPA Campus, Barrackpore - WBPCB",19-02-2026 08:00:00,22.7605581,88.3617589,PM2.5,31,138,82
India,West_Bengal,Barrackpore,"SVSPA Campus, Barrackpore - WBPCB",19-02-2026 08:00:00,22.7605581,88.3617589,PM10,35,123,83
India,West_Bengal,Durgapur,"Womens College_City Center, Durgapur - WBPCB",19-02-2026 08:00:00,23.549395,87.300496,PM10,67,180,130
India,West_Bengal,Durgapur,"Womens College_City Center, Durgapur - WBPCB",19-02-2026 08:00:00,23.549395,87.300496,OZONE,2,86,2
India,West_Bengal,Haldia,"Priyambada Housing Estate, Haldia - WBPCB",19-02-2026 08:00:00,22.06047,88.109737,PM2.5,55,193,121
India,West_Bengal,Howrah,"Belur Math, Howrah - WBPCB",19-02-2026 08:00:00,22.629801,88.352017,OZONE,7,25,10
India,West_Bengal,Howrah,"Botanical Garden, Howrah - WBPCB",19-02-2026 08:00:00,22.554954,88.292568,CO,28,116,105
India,West_Bengal,Howrah,"Dasnagar, Howrah - WBPCB",19-02-2026 08:00:00,22.6025571,88.3105664,PM10,48,232,134
India,West_Bengal,Howrah,"Ghusuri, Howrah - WBPCB",19-02-2026 08:00:00,22.611968,88.347422,NO2,17,37,24
India,West_Bengal,Howrah,"Padmapukur, Howrah - WBPCB",19-02-2026 08:00:00,22.5687319,88.2797276,OZONE,11,54,12
India,West_Bengal,Kolkata,"Ballygunge, Kolkata - WBPCB",19-02-2026 08:00:00,22.5367507,88.3638022,SO2,10,32,16
India,West_Bengal,Kolkata,"Ballygunge, Kolkata - WBPCB",19-02-2026 08:00:00,22.5367507,88.3638022,CO,24,131,113
India,West_Bengal,Kolkata,"Ballygunge, Kolkata - WBPCB",19-02-2026 08:00:00,22.5367507,88.3638022,OZONE,5,30,6
India,West_Bengal,Kolkata,"Bidhannagar, Kolkata - WBPCB",19-02-2026 08:00:00,22.58157048,88.41002457,OZONE,13,60,14
India,West_Bengal,Kolkata,"Fort William, Kolkata - WBPCB",19-02-2026 08:00:00,22.556640,88.342674,PM10,46,163,108
India,West_Bengal,Kolkata,"Fort William, Kolkata - WBPCB",19-02-2026 08:00:00,22.556640,88.342674,NO2,29,110,69
India,West_Bengal,Kolkata,"Fort William, Kolkata - WBPCB",19-02-2026 08:00:00,22.556640,88.342674,OZONE,2,43,2
India,West_Bengal,Kolkata,"Rabindra Bharati University, Kolkata - WBPCB",19-02-2026 08:00:00,22.627847,88.380669,OZONE,8,44,9
India,West_Bengal,Kolkata,"Victoria, Kolkata - WBPCB",19-02-2026 08:00:00,22.5448082,88.3403691,NH3,8,9,8
India,West_Bengal,Kolkata,"Victoria, Kolkata - WBPCB",19-02-2026 08:00:00,22.5448082,88.3403691,CO,30,117,103
India,West_Bengal,Siliguri,"Ward-32 Bapupara, Siliguri - WBPCB",19-02-2026 08:00:00,26.6879226,88.4152495,PM2.5,59,149,91
India,West_Bengal,Siliguri,"Ward-32 Bapupara, Siliguri - WBPCB",19-02-2026 08:00:00,26.6879226,88.4152495,CO,34,96,62
India,West_Bengal,Siliguri,"Ward-32 Bapupara, Siliguri - WBPCB",19-02-2026 08:00:00,26.6879226,88.4152495,OZONE,28,127,49
India,Andhra_Pradesh,Amaravati,"Secretariat, Amaravati - APPCB",19-02-2026 08:00:00,16.5150833,80.5181667,PM2.5,66,201,100
India,Andhra_Pradesh,Amaravati,"Secretariat, Amaravati - APPCB",19-02-2026 08:00:00,16.5150833,80.5181667,CO,16,66,29
India,Andhra_Pradesh,Amaravati,"Secretariat, Amaravati - APPCB",19-02-2026 08:00:00,16.5150833,80.5181667,OZONE,12,51,14
India,Andhra_Pradesh,Anantapur,"Gulzarpet, Anantapur - APPCB",19-02-2026 08:00:00,14.675886,77.593027,PM2.5,57,72,64
India,Andhra_Pradesh,Anantapur,"Gulzarpet, Anantapur - APPCB",19-02-2026 08:00:00,14.675886,77.593027,PM10,49,62,55
India,Andhra_Pradesh,Anantapur,"Gulzarpet, Anantapur - APPCB",19-02-2026 08:00:00,14.675886,77.593027,NO2,14,23,17
India,Andhra_Pradesh,Anantapur,"Gulzarpet, Anantapur - APPCB",19-02-2026 08:00:00,14.675886,77.593027,OZONE,17,17,17
India,Andhra_Pradesh,Chittoor,"Gangineni Cheruvu, Chittoor - APPCB",19-02-2026 08:00:00,13.204880,79.097889,OZONE,34,46,44
India,Andhra_Pradesh,Kadapa,"Yerramukkapalli, Kadapa - APPCB",19-02-2026 08:00:00,14.465052,78.824187,PM2.5,47,72,61
India,Assam,Byrnihat,"Central Academy for SFS, Byrnihat - PCBA",19-02-2026 08:00:00,26.071318,91.87488,PM2.5,86,306,144
India,Assam,Byrnihat,"Central Academy for SFS, Byrnihat - PCBA",19-02-2026 08:00:00,26.071318,91.87488,NO2,5,10,8
India,Assam,Guwahati,"LGBI Airport, Guwahati - PCBA",19-02-2026 08:00:00,26.10887,91.589544,PM2.5,58,147,95
India,Assam,Guwahati,"LGBI Airport, Guwahati - PCBA",19-02-2026 08:00:00,26.10887,91.589544,NO2,9,40,16
India,Assam,Guwahati,"Pan Bazaar, Guwahati - PCBA",19-02-2026 08:00:00,26.187500,91.744194,PM10,57,129,92
India,Assam,Guwahati,"Pan Bazaar, Guwahati - PCBA",19-02-2026 08:00:00,26.187500,91.744194,OZONE,12,21,12
India,Assam,Guwahati,"Railway Colony, Guwahati - PCBA",19-02-2026 08:00:00,26.181742,91.78063,SO2,23,26,25
India,Assam,Nagaon,"Christianpatty, Nagaon - PCBA",19-02-2026 08:00:00,26.349082,92.68449,PM2.5,84,179,130
India,Andhra_Pradesh,Kadapa,"Yerramukkapalli, Kadapa - APPCB",19-02-2026 08:00:00,14.465052,78.824187,PM10,48,76,64
India,Andhra_Pradesh,Kadapa,"Yerramukkapalli, Kadapa - APPCB",19-02-2026 08:00:00,14.465052,78.824187,CO,20,30,20
India,Andhra_Pradesh,Kadapa,"Yerramukkapalli, Kadapa - APPCB",19-02-2026 08:00:00,14.465052,78.824187,OZONE,13,15,14
India,Andhra_Pradesh,Rajamahendravaram,"Anand Kala Kshetram, Rajamahendravaram - APPCB",19-02-2026 08:00:00,16.9872867,81.7363176,NH3,5,6,5
India,Andhra_Pradesh,Rajamahendravaram,"Anand Kala Kshetram, Rajamahendravaram - APPCB",19-02-2026 08:00:00,16.9872867,81.7363176,SO2,5,17,10
India,Andhra_Pradesh,Tirupati,"Vaikuntapuram, Tirupati - APPCB",19-02-2026 08:00:00,13.615387,79.409230,PM2.5,42,128,76
India,Andhra_Pradesh,Vijayawada,"HB Colony, Vijayawada - APPCB",19-02-2026 08:00:00,16.536107,80.594233,PM10,44,114,69
India,Bihar,Bihar Sharif,"D M Colony, Bihar Sharif - BSPCB",19-02-2026 08:00:00,25.204762,85.514960,NH3,3,4,3
India,Bihar,Bihar Sharif,"D M Colony, Bihar Sharif - BSPCB",19-02-2026 08:00:00,25.204762,85.514960,SO2,9,10,10
India,Bihar,Buxar,"Charitra Van, Buxar - BSPCB",19-02-2026 08:00:00,25.567520,83.966379,PM10,35,89,67
India,Bihar,Buxar,"Charitra Van, Buxar - BSPCB",19-02-2026 08:00:00,25.567520,83.966379,CO,20,28,25
India,Bihar,Buxar,"Charitra Van, Buxar - BSPCB",19-02-2026 08:00:00,25.567520,83.966379,OZONE,6,38,10
India,Bihar,Chhapra,"Darshan Nagar, Chhapra - BSPCB",19-02-2026 08:00:00,25.7808257,84.7446768,PM10,NA,NA,NA
India,Bihar,Chhapra,"Darshan Nagar, Chhapra - BSPCB",19-02-2026 08:00:00,25.7808257,84.7446768,NO2,NA,NA,NA
India,Bihar,Gaya,"SFTI Kusdihra, Gaya - BSPCB",19-02-2026 08:00:00,24.762518,84.982348,NO2,28,62,38
India,Bihar,Muzaffarpur,"MIT-Daudpur Kothi, Muzaffarpur - BSPCB",19-02-2026 08:00:00,26.1403345,85.3650192,PM10,65,77,71
India,Bihar,Muzaffarpur,"Muzaffarpur Collectorate, Muzaffarpur - BSPCB",19-02-2026 08:00:00,26.1209,85.3647,PM2.5,85,103,93
India,Bihar,Muzaffarpur,"Muzaffarpur Collectorate, Muzaffarpur - BSPCB",19-02-2026 08:00:00,26.1209,85.3647,SO2,5,9,6
India,Bihar,Muzaffarpur,"Muzaffarpur Collectorate, Muzaffarpur - BSPCB",19-02-2026 08:00:00,26.1209,85.3647,CO,18,74,24
India,Bihar,Patna,"DRM Office Danapur, Patna - BSPCB",19-02-2026 08:00:00,25.586562,85.043586,OZONE,8,42,8
India,Bihar,Patna,"Govt. High School Shikarpur, Patna - BSPCB",19-02-2026 08:00:00,25.592539,85.227158,PM2.5,200,375,291
India,Bihar,Patna,"Govt. High School Shikarpur, Patna - BSPCB",19-02-2026 08:00:00,25.592539,85.227158,PM10,94,260,141
India,Andhra_Pradesh,Vijayawada,"HB Colony, Vijayawada - APPCB",19-02-2026 08:00:00,16.536107,80.594233,CO,16,46,36
India,Andhra_Pradesh,Vijayawada,"Kanuru, Vijayawada - APPCB",19-02-2026 08:00:00,16.486692,80.699436,NO2,16,19,19
India,Andhra_Pradesh,Vijayawada,"Rajiv Gandhi Park, Vijayawada - APPCB",19-02-2026 08:00:00,16.509717,80.612222,SO2,15,18,16
India,Andhra_Pradesh,Vijayawada,"Rajiv Nagar, Vijayawada - APPCB",19-02-2026 08:00:00,16.554731,80.649110,PM10,49,68,57
India,Andhra_Pradesh,Vijayawada,"Rajiv Nagar, Vijayawada - APPCB",19-02-2026 08:00:00,16.554731,80.649110,NO2,16,22,18
India,Andhra_Pradesh,Vijayawada,"Rajiv Nagar, Vijayawada - APPCB",19-02-2026 08:00:00,16.554731,80.649110,CO,24,42,29
India,Arunachal_Pradesh,Naharlagun,"Naharlagun, Naharlagun - APSPCB",19-02-2026 08:00:00,27.103358,93.679645,PM10,65,500,180
India,Bihar,Hajipur,"Industrial Area, Hajipur - BSPCB",19-02-2026 08:00:00,25.697189,85.245900,SO2,NA,NA,NA
India,Bihar,Hajipur,"Industrial Area, Hajipur - BSPCB",19-02-2026 08:00:00,25.697189,85.245900,OZONE,14,291,23
India,Bihar,Katihar,"Mirchaibari, Katihar - BSPCB",19-02-2026 08:00:00,25.560083,87.553265,NO2,9,10,9
India,Bihar,Kishanganj,"SDM Office_Khagra, Kishanganj - BSPCB",19-02-2026 08:00:00,26.0881305,87.93840336,SO2,5,8,6
India,Bihar,Manguraha,"Forest Rest House, Manguraha - BSPCB",19-02-2026 08:00:00,27.308328,84.531742,NH3,1,2,1
India,Bihar,Manguraha,"Forest Rest House, Manguraha - BSPCB",19-02-2026 08:00:00,27.308328,84.531742,CO,32,33,32
India,Bihar,Patna,"Govt. High School Shikarpur, Patna - BSPCB",19-02-2026 08:00:00,25.592539,85.227158,OZONE,7,12,10
India,Bihar,Patna,"IGSC Planetarium Complex, Patna - BSPCB",19-02-2026 08:00:00,25.610369,85.132568,NO2,2,2,2
India,Bihar,Patna,"Samanpura, Patna - BSPCB",19-02-2026 08:00:00,25.596727,85.085624,PM2.5,56,129,84
India,Bihar,Patna,"Samanpura, Patna - BSPCB",19-02-2026 08:00:00,25.596727,85.085624,SO2,3,5,4
India,Bihar,Purnia,"Mariam Nagar, Purnia - BSPCB",19-02-2026 08:00:00,25.366336,87.117468,NO2,5,7,6
India,Assam,Nalbari,"Bata Chowk, Nalbari - PCBA",19-02-2026 08:00:00,26.446912,91.439057,NO2,13,15,14
India,Assam,Nalbari,"Bata Chowk, Nalbari - PCBA",19-02-2026 08:00:00,26.446912,91.439057,CO,19,22,21
India,Assam,Sivasagar,"Girls College, Sivasagar - PCBA",19-02-2026 08:00:00,26.987634,94.636574,OZONE,NA,NA,NA
India,Bihar,Araria,"Kharahiya Basti, Araria - BSPCB",19-02-2026 08:00:00,26.146529,87.454184,PM2.5,27,267,107
India,Bihar,Araria,"Kharahiya Basti, Araria - BSPCB",19-02-2026 08:00:00,26.146529,87.454184,NO2,1,12,4
India,Bihar,Arrah,"New DM Office, Arrah - BSPCB",19-02-2026 08:00:00,25.5626095,84.663264,OZONE,NA,NA,NA
India,Bihar,Aurangabad,"Gurdeo Nagar, Aurangabad - BSPCB",19-02-2026 08:00:00,24.75746,84.366208,OZONE,14,60,16
India,Bihar,Begusarai,"Lohiyanagar, Begusarai - BSPCB",19-02-2026 08:00:00,25.42742023,86.13886079,SO2,21,28,24
India,Bihar,Bhagalpur,"Mayaganj, Bhagalpur - BSPCB",19-02-2026 08:00:00,25.265194,87.012947,PM10,65,128,103
India,Delhi,Delhi,"DTU, Delhi - CPCB",19-02-2026 08:00:00,28.7500499,77.1112615,PM10,32,139,94
India,Delhi,Delhi,"DTU, Delhi - CPCB",19-02-2026 08:00:00,28.7500499,77.1112615,NH3,7,14,10
India,Delhi,Delhi,"Dr. Karni Singh Shooting Range, Delhi - DPCC",19-02-2026 08:00:00,28.498571,77.264840,PM10,58,240,131
India,Delhi,Delhi,"Dr. Karni Singh Shooting Range, Delhi - DPCC",19-02-2026 08:00:00,28.498571,77.264840,CO,6,66,28
India,Delhi,Delhi,"Dr. Karni Singh Shooting Range, Delhi - DPCC",19-02-2026 08:00:00,28.498571,77.264840,OZONE,5,62,12
India,Delhi,Delhi,"Dwarka-Sector 8, Delhi - DPCC ",19-02-2026 08:00:00,28.5710274,77.0719006,NO2,50,105,80
India,Delhi,Delhi,"IGI Airport (T3), Delhi - IMD",19-02-2026 08:00:00,28.5627763,77.1180053,PM2.5,24,190,85
India,Delhi,Delhi,"IGI Airport (T3), Delhi - IMD",19-02-2026 08:00:00,28.5627763,77.1180053,PM10,44,230,120
India,Delhi,Delhi,"IGI Airport (T3), Delhi - IMD",19-02-2026 08:00:00,28.5627763,77.1180053,OZONE,2,21,4
India,Delhi,Delhi,"IHBAS, Dilshad Garden, Delhi - CPCB",19-02-2026 08:00:00,28.6811736,77.3025234,PM2.5,64,302,171
India,Delhi,Delhi,"IHBAS, Dilshad Garden, Delhi - CPCB",19-02-2026 08:00:00,28.6811736,77.3025234,NO2,32,98,60
India,Chhattisgarh,Bhilai,"Civic Center, Bhilai - Bhilai Steel Plant",19-02-2026 08:00:00,21.185571,81.343175,OZONE,9,16,11
India,Chhattisgarh,Bhilai,"Hathkhoj, Bhilai - CECB",19-02-2026 08:00:00,21.224231,81.408350,NH3,3,7,5
India,Chhattisgarh,Bhilai,"Hathkhoj, Bhilai - CECB",19-02-2026 08:00:00,21.224231,81.408350,OZONE,6,16,8
India,Chhattisgarh,Bilaspur,"Mangala, Bilaspur - NTPC",19-02-2026 08:00:00,22.08815,82.13737,PM2.5,35,186,76
India,Chhattisgarh,Bilaspur,"Mangala, Bilaspur - NTPC",19-02-2026 08:00:00,22.08815,82.13737,SO2,7,33,18
India,Chhattisgarh,Chhal,"Nawapara SECL Colony, Chhal - CECB",19-02-2026 08:00:00,22.118125,83.140608,NH3,NA,NA,NA
India,Chhattisgarh,Chhal,"Nawapara SECL Colony, Chhal - CECB",19-02-2026 08:00:00,22.118125,83.140608,OZONE,9,58,20
India,Chhattisgarh,Korba,"Rampur, Korba - CECB",19-02-2026 08:00:00,22.368195,82.746431,NH3,1,1,1
India,Bihar,Purnia,"Mariam Nagar, Purnia - BSPCB",19-02-2026 08:00:00,25.366336,87.117468,CO,56,90,67
India,Bihar,Rajgir,"Dangi Tola, Rajgir - BSPCB",19-02-2026 08:00:00,25.03280,85.41948,PM2.5,NA,NA,NA
India,Bihar,Rajgir,"Dangi Tola, Rajgir - BSPCB",19-02-2026 08:00:00,25.03280,85.41948,OZONE,25,29,26
India,Bihar,Saharsa,"Police Line, Saharsa - BSPCB",19-02-2026 08:00:00,25.892357,86.590325,PM10,91,189,142
India,Bihar,Saharsa,"Police Line, Saharsa - BSPCB",19-02-2026 08:00:00,25.892357,86.590325,OZONE,7,11,10
India,Bihar,Samastipur,"DM Office_Kasipur, Samastipur - BSPCB",19-02-2026 08:00:00,25.859655,85.77944,PM2.5,67,332,168
India,Delhi,Delhi,"IIT Delhi, Delhi - IITM",19-02-2026 08:00:00,28.542460,77.191651,NO2,10,65,38
India,Delhi,Delhi,"ITO, Delhi - CPCB",19-02-2026 08:00:00,28.628624,77.241060,SO2,7,22,16
India,Delhi,Delhi,"ITO, Delhi - CPCB",19-02-2026 08:00:00,28.628624,77.241060,CO,35,105,84
India,Delhi,Delhi,"Jawaharlal Nehru Stadium, Delhi - DPCC",19-02-2026 08:00:00,28.580280,77.233829,CO,37,74,64
India,Delhi,Delhi,"Jawaharlal Nehru Stadium, Delhi - DPCC",19-02-2026 08:00:00,28.580280,77.233829,OZONE,1,57,2
India,Delhi,Delhi,"Major Dhyan Chand National Stadium, Delhi - DPCC",19-02-2026 08:00:00,28.611281,77.237738,SO2,18,33,22
India,Delhi,Delhi,"Mandir Marg, Delhi - DPCC",19-02-2026 08:00:00,28.636429,77.201067,PM10,38,159,124
India,Delhi,Delhi,"Mandir Marg, Delhi - DPCC",19-02-2026 08:00:00,28.636429,77.201067,CO,1,78,69
India,Delhi,Delhi,"Mundka, Delhi - DPCC",19-02-2026 08:00:00,28.684678,77.076574,PM10,69,193,137
India,Delhi,Delhi,"Mundka, Delhi - DPCC",19-02-2026 08:00:00,28.684678,77.076574,CO,32,103,96
India,Delhi,Delhi,"Najafgarh, Delhi - DPCC",19-02-2026 08:00:00,28.570173,76.933762,PM2.5,45,230,108
India,Delhi,Delhi,"Najafgarh, Delhi - DPCC",19-02-2026 08:00:00,28.570173,76.933762,NH3,11,14,13
India,Delhi,Delhi,"Najafgarh, Delhi - DPCC",19-02-2026 08:00:00,28.570173,76.933762,OZONE,4,77,5
India,Chhattisgarh,Kunjemura,"OP Jindal School, Kunjemura - CECB",19-02-2026 08:00:00,22.126650,83.483212,NO2,15,97,44
India,Chhattisgarh,Raipur,"AIIMS, Raipur - CECB",19-02-2026 08:00:00,21.258815,81.578979,PM2.5,38,103,68
India,Chhattisgarh,Raipur,"AIIMS, Raipur - CECB",19-02-2026 08:00:00,21.258815,81.578979,OZONE,1,15,2
India,Chhattisgarh,Raipur,"Bhatagaon New ISBT, Raipur - CECB",19-02-2026 08:00:00,21.219665,81.630094,PM2.5,21,76,45
India,Chhattisgarh,Raipur,"Bhatagaon New ISBT, Raipur - CECB",19-02-2026 08:00:00,21.219665,81.630094,NH3,2,2,2
India,Chhattisgarh,Tumidih,"OP Jindal Industrial Park, Tumidih - CECB",19-02-2026 08:00:00,22.06631475,83.33820077,NH3,NA,NA,NA
India,Chhattisgarh,Tumidih,"OP Jindal Industrial Park, Tumidih - CECB",19-02-2026 08:00:00,22.06631475,83.33820077,OZONE,6,107,16
India,Delhi,Delhi,"Alipur, Delhi - DPCC",19-02-2026 08:00:00,28.815329,77.153010,CO,33,72,67
India,Delhi,Delhi,"Anand Vihar, Delhi - DPCC",19-02-2026 08:00:00,28.647622,77.3158090,PM10,42,305,194
India,Bihar,Siwan,"Chitragupta Nagar, Siwan - BSPCB",19-02-2026 08:00:00,26.2271665,84.3570427,SO2,8,8,8
India,Chandigarh,Chandigarh,"Sector 22, Chandigarh - CPCC",19-02-2026 08:00:00,30.735567,76.775714,NH3,11,22,15
India,Chandigarh,Chandigarh,"Sector-25, Chandigarh - CPCC",19-02-2026 08:00:00,30.751462,76.762879,OZONE,1,39,3
India,Chandigarh,Chandigarh,"Sector-53, Chandigarh - CPCC",19-02-2026 08:00:00,30.719859,76.738637,OZONE,NA,NA,NA
India,Delhi,Delhi,"Bawana, Delhi - DPCC",19-02-2026 08:00:00,28.776200,77.051074,PM10,47,183,117
India,Delhi,Delhi,"Bawana, Delhi - DPCC",19-02-2026 08:00:00,28.776200,77.051074,NH3,8,11,9
India,Delhi,Delhi,"Burari Crossing, Delhi - IMD",19-02-2026 08:00:00,28.7256504,77.2011573,PM2.5,22,304,144
India,Delhi,Delhi,"Chandni Chowk, Delhi - IITM",19-02-2026 08:00:00,28.656756,77.227234,SO2,3,39,20
India,Delhi,Delhi,"Sirifort, Delhi - CPCB",19-02-2026 08:00:00,28.5504249,77.2159377,NO2,32,35,33
India,Delhi,Delhi,"Sirifort, Delhi - CPCB",19-02-2026 08:00:00,28.5504249,77.2159377,NH3,7,9,7
India,Delhi,Delhi,"Sirifort, Delhi - CPCB",19-02-2026 08:00:00,28.5504249,77.2159377,OZONE,8,12,9
India,Delhi,Delhi,"Sri Aurobindo Marg, Delhi - DPCC",19-02-2026 08:00:00,28.531346,77.190156,NH3,4,10,6
India,Delhi,Delhi,"Sri Aurobindo Marg, Delhi - DPCC",19-02-2026 08:00:00,28.531346,77.190156,OZONE,2,40,2
India,Delhi,Delhi,"Vivek Vihar, Delhi - DPCC",19-02-2026 08:00:00,28.672342,77.315260,NH3,4,25,12
India,Delhi,Delhi,"Vivek Vihar, Delhi - DPCC",19-02-2026 08:00:00,28.672342,77.315260,CO,39,100,74
India,Delhi,Delhi,"Vivek Vihar, Delhi - DPCC",19-02-2026 08:00:00,28.672342,77.315260,OZONE,2,13,6
India,Delhi,Delhi,"Wazirpur, Delhi - DPCC",19-02-2026 08:00:00,28.699793,77.165453,PM2.5,73,365,193
India,Delhi,Delhi,"Wazirpur, Delhi - DPCC",19-02-2026 08:00:00,28.699793,77.165453,SO2,2,14,8
India,Gujarat,Ahmedabad,"Chandkheda, Ahmedabad - IITM",19-02-2026 08:00:00,23.107969,72.574648,PM2.5,46,144,92
India,Delhi,Delhi,"Nehru Nagar, Delhi - DPCC",19-02-2026 08:00:00,28.567890,77.250515,PM2.5,67,361,203
India,Delhi,Delhi,"Nehru Nagar, Delhi - DPCC",19-02-2026 08:00:00,28.567890,77.250515,NH3,6,10,8
India,Delhi,Delhi,"North Campus, DU, Delhi - IMD",19-02-2026 08:00:00,28.6573814,77.1585447,PM10,60,177,120
India,Delhi,Delhi,"North Campus, DU, Delhi - IMD",19-02-2026 08:00:00,28.6573814,77.1585447,NO2,41,122,81
India,Delhi,Delhi,"North Campus, DU, Delhi - IMD",19-02-2026 08:00:00,28.6573814,77.1585447,OZONE,11,28,14
India,Delhi,Delhi,"Okhla Phase-2, Delhi - DPCC",19-02-2026 08:00:00,28.530785,77.271255,SO2,4,22,11
India,Delhi,Delhi,"Patparganj, Delhi - DPCC",19-02-2026 08:00:00,28.623763,77.287209,PM2.5,58,365,218
India,Delhi,Delhi,"Patparganj, Delhi - DPCC",19-02-2026 08:00:00,28.623763,77.287209,PM10,66,245,170
India,Delhi,Delhi,"Punjabi Bagh, Delhi - DPCC",19-02-2026 08:00:00,28.674045,77.131023,PM2.5,5,310,166
India,Delhi,Delhi,"Punjabi Bagh, Delhi - DPCC",19-02-2026 08:00:00,28.674045,77.131023,PM10,38,179,127
India,Delhi,Delhi,"Punjabi Bagh, Delhi - DPCC",19-02-2026 08:00:00,28.674045,77.131023,OZONE,4,30,5
India,Haryana,Bahadurgarh,"Arya Nagar, Bahadurgarh - HSPCB",19-02-2026 08:00:00,28.6701,76.9254,CO,42,52,48
India,Haryana,Bhiwani,"H.B. Colony, Bhiwani - HSPCB",19-02-2026 08:00:00,28.806223,76.141105,NH3,3,4,3
India,Haryana,Charkhi Dadri,"Mini Secretariat, Charkhi Dadri - HSPCB",19-02-2026 08:00:00,28.593883,76.270653,NO2,9,24,15
India,Haryana,Charkhi Dadri,"Mini Secretariat, Charkhi Dadri - HSPCB",19-02-2026 08:00:00,28.593883,76.270653,NH3,5,8,6
India,Haryana,Charkhi Dadri,"Mini Secretariat, Charkhi Dadri - HSPCB",19-02-2026 08:00:00,28.593883,76.270653,CO,8,25,14
India,Haryana,Dharuhera,"Municipal Corporation Office, Dharuhera -  HSPCB",19-02-2026 08:00:00,28.206800,76.799700,PM2.5,142,330,242
India,Haryana,Dharuhera,"Municipal Corporation Office, Dharuhera -  HSPCB",19-02-2026 08:00:00,28.206800,76.799700,CO,192,195,194
India,Haryana,Faridabad,"New Industrial Town, Faridabad - HSPCB",19-02-2026 08:00:00,28.39072,77.30059,PM10,130,139,134
India,Gujarat,Gandhinagar,"IIPHG Lekawada, Gandhinagar - IITM",19-02-2026 08:00:00,23.243639,72.68994,SO2,4,7,6
India,Gujarat,Gandhinagar,"IIPHG Lekawada, Gandhinagar - IITM",19-02-2026 08:00:00,23.243639,72.68994,OZONE,1,27,9
India,Gujarat,Gandhinagar,"Sector-10, Gandhinagar - GPCB",19-02-2026 08:00:00,23.221714,72.654328,SO2,5,12,10
India,Gujarat,Gandhinagar,"Sector-10, Gandhinagar - GPCB",19-02-2026 08:00:00,23.221714,72.654328,CO,32,48,36
India,Gujarat,Gandhinagar,"Sector-10, Gandhinagar - GPCB",19-02-2026 08:00:00,23.221714,72.654328,OZONE,4,96,26
India,Gujarat,Mehsana,"Sadanand Nagar, Mehsana - Nexteng Enviro",19-02-2026 08:00:00,23.593150,72.372792,CO,110,116,111
India,Gujarat,Mehsana,"Sadanand Nagar, Mehsana - Nexteng Enviro",19-02-2026 08:00:00,23.593150,72.372792,OZONE,9,20,12
India,Gujarat,Surat,"Katargam, Surat - Nexteng Enviro",19-02-2026 08:00:00,21.217779 ,72.834787 ,PM2.5,69,305,166
India,Gujarat,Surat,"Katargam, Surat - Nexteng Enviro",19-02-2026 08:00:00,21.217779 ,72.834787 ,SO2,18,104,50
India,Gujarat,Ahmedabad,"SAC ISRO Satellite, Ahmedabad - IITM",19-02-2026 08:00:00,23.023389,72.515201,PM2.5,62,182,116
India,Gujarat,Ahmedabad,"SAC ISRO Satellite, Ahmedabad - IITM",19-02-2026 08:00:00,23.023389,72.515201,NO2,4,39,17
India,Gujarat,Ahmedabad,"SAC ISRO Satellite, Ahmedabad - IITM",19-02-2026 08:00:00,23.023389,72.515201,SO2,5,103,16
India,Gujarat,Ahmedabad,"SAC ISRO Satellite, Ahmedabad - IITM",19-02-2026 08:00:00,23.023389,72.515201,CO,23,83,61
India,Gujarat,Ankleshwar,"GIDC, Ankleshwar - GPCB",19-02-2026 08:00:00,21.613267,73.010555,NH3,6,8,7
India,Gujarat,Bhavnagar,"Vidhyanagar, Bhavnagar - Nexteng Enviro",19-02-2026 08:00:00,21.755417,72.139056,PM10,87,174,131
India,Haryana,Faridabad,"Sector 11, Faridabad - HSPCB",19-02-2026 08:00:00,28.376058,77.315741,NH3,10,11,10
India,Haryana,Faridabad,"Sector 11, Faridabad - HSPCB",19-02-2026 08:00:00,28.376058,77.315741,SO2,9,10,9
India,Haryana,Faridabad,"Sector 30, Faridabad - HSPCB",19-02-2026 08:00:00,28.4417,77.3217,PM2.5,NA,NA,NA
India,Haryana,Faridabad,"Sector 30, Faridabad - HSPCB",19-02-2026 08:00:00,28.4417,77.3217,CO,NA,NA,NA
India,Haryana,Gurugram,"NISE Gwal Pahari, Gurugram - IMD",19-02-2026 08:00:00,28.422681,77.148944,CO,34,82,51
India,Haryana,Gurugram,"Sector-51, Gurugram - HSPCB",19-02-2026 08:00:00,28.4227,77.0667,OZONE,3,16,4
India,Gujarat,Ahmedabad,"Chandkheda, Ahmedabad - IITM",19-02-2026 08:00:00,23.107969,72.574648,CO,13,64,28
India,Gujarat,Ahmedabad,"Maninagar, Ahmedabad - GPCB",19-02-2026 08:00:00,23.002657,72.591912,SO2,25,43,36
India,Gujarat,Ahmedabad,"Raikhad, Ahmedabad - IITM",19-02-2026 08:00:00,23.020509,72.579261,PM10,112,199,158
India,Gujarat,Ahmedabad,"Raikhad, Ahmedabad - IITM",19-02-2026 08:00:00,23.020509,72.579261,NH3,14,40,22
India,Gujarat,Ahmedabad,"Rakhial, Ahmedabad - IITM",19-02-2026 08:00:00,23.016834,72.625775,NO2,10,93,42
India,Gujarat,Ahmedabad,"Rakhial, Ahmedabad - IITM",19-02-2026 08:00:00,23.016834,72.625775,SO2,18,46,32
India,Gujarat,Surat,"Science Center, Surat - SMC",19-02-2026 08:00:00,21.170046,72.795405,PM2.5,79,305,184
India,Gujarat,Surat,"Science Center, Surat - SMC",19-02-2026 08:00:00,21.170046,72.795405,SO2,23,25,24
India,Gujarat,Vatva,"Phase-4 GIDC, Vatva - GPCB",19-02-2026 08:00:00,22.969611,72.643500,NO2,14,106,57
India,Haryana,Ambala,"Patti Mehar, Ambala - HSPCB",19-02-2026 08:00:00,30.379589,76.778328,PM2.5,61,115,90
India,Haryana,Ambala,"Patti Mehar, Ambala - HSPCB",19-02-2026 08:00:00,30.379589,76.778328,NO2,20,24,22
India,Haryana,Ambala,"Patti Mehar, Ambala - HSPCB",19-02-2026 08:00:00,30.379589,76.778328,OZONE,14,17,15
India,Delhi,Delhi,"R K Puram, Delhi - DPCC",19-02-2026 08:00:00,28.563262,77.186937,NO2,16,85,56
India,Delhi,Delhi,"R K Puram, Delhi - DPCC",19-02-2026 08:00:00,28.563262,77.186937,NH3,8,14,10
India,Delhi,Delhi,"R K Puram, Delhi - DPCC",19-02-2026 08:00:00,28.563262,77.186937,OZONE,7,35,9
India,Delhi,Delhi,"Rohini, Delhi - DPCC",19-02-2026 08:00:00,28.732528,77.119920,OZONE,2,26,8
India,Delhi,Delhi,"Shadipur, Delhi - CPCB",19-02-2026 08:00:00,28.6514781,77.1473105,NH3,12,14,13
India,Haryana,Palwal,"Shyam Nagar, Palwal - HSPCB",19-02-2026 08:00:00,28.1485564,77.3320667,OZONE,16,18,17
India,Haryana,Panchkula,"Sector-6, Panchkula - HSPCB ",19-02-2026 08:00:00,30.7057778,76.8531805555555,PM2.5,31,176,85
India,Haryana,Panchkula,"Sector-6, Panchkula - HSPCB ",19-02-2026 08:00:00,30.7057778,76.8531805555555,CO,8,24,19
India,Haryana,Panipat,"Sector-18, Panipat - HSPCB",19-02-2026 08:00:00,29.432304,76.972765,NH3,2,3,2
India,Haryana,Panipat,"Sector-18, Panipat - HSPCB",19-02-2026 08:00:00,29.432304,76.972765,SO2,18,19,19
India,Haryana,Rohtak,"MD University, Rohtak - HSPCB",19-02-2026 08:00:00,28.52123,76.37138,PM2.5,22,89,50
India,Haryana,Rohtak,"MD University, Rohtak - HSPCB",19-02-2026 08:00:00,28.52123,76.37138,NO2,10,12,11
India,Haryana,Rohtak,"MD University, Rohtak - HSPCB",19-02-2026 08:00:00,28.52123,76.37138,SO2,10,13,12
India,Haryana,Rohtak,"MD University, Rohtak - HSPCB",19-02-2026 08:00:00,28.52123,76.37138,CO,30,38,36
India,Haryana,Sirsa,"F-Block, Sirsa - HSPCB",19-02-2026 08:00:00,29.536400,75.015800,OZONE,50,74,58
India,Haryana,Sonipat,"Murthal, Sonipat - HSPCB",19-02-2026 08:00:00,29.027200,77.062100,NO2,12,13,12
India,Haryana,Sonipat,"Murthal, Sonipat - HSPCB",19-02-2026 08:00:00,29.027200,77.062100,SO2,8,10,9
India,Karnataka,Bengaluru,"Hombegowda Nagar, Bengaluru - KSPCB",19-02-2026 08:00:00,12.938539,77.590100,SO2,12,50,20
India,Karnataka,Bengaluru,"Hombegowda Nagar, Bengaluru - KSPCB",19-02-2026 08:00:00,12.938539,77.590100,CO,9,38,16
India,Karnataka,Bengaluru,"Jayanagar 5th Block, Bengaluru - KSPCB",19-02-2026 08:00:00,12.920984,77.584908,NO2,9,54,28
India,Karnataka,Bengaluru,"Jayanagar 5th Block, Bengaluru - KSPCB",19-02-2026 08:00:00,12.920984,77.584908,CO,6,78,11
India,Karnataka,Bengaluru,"Jayanagar 5th Block, Bengaluru - KSPCB",19-02-2026 08:00:00,12.920984,77.584908,OZONE,18,98,73
India,Karnataka,Bengaluru,"Kasturi Nagar, Bengaluru - KSPCB",19-02-2026 08:00:00,13.003872,77.664217,NH3,2,3,3
India,Karnataka,Bengaluru,"Kasturi Nagar, Bengaluru - KSPCB",19-02-2026 08:00:00,13.003872,77.664217,SO2,13,14,14
India,Karnataka,Bengaluru,"Peenya, Bengaluru - CPCB",19-02-2026 08:00:00,13.0270199,77.494094,PM2.5,23,46,32
India,Karnataka,Bengaluru,"Peenya, Bengaluru - CPCB",19-02-2026 08:00:00,13.0270199,77.494094,PM10,81,111,98
India,Karnataka,Bengaluru,"Peenya, Bengaluru - CPCB",19-02-2026 08:00:00,13.0270199,77.494094,NO2,22,32,25
India,Karnataka,Bengaluru,"RVCE-Mailasandra, Bengaluru - KSPCB",19-02-2026 08:00:00,12.921418,77.502466,PM10,105,124,112
India,Haryana,Yamuna Nagar,"Gobind Pura, Yamuna Nagar - HSPCB",19-02-2026 08:00:00,30.1480566,77.2893471,PM2.5,10,330,245
India,Himachal Pradesh,Baddi,"HIMUDA Complex Phase-1, Baddi - HPPCB",19-02-2026 08:00:00,30.943887,76.801991,NH3,4,7,5
India,Himachal Pradesh,Baddi,"HIMUDA Complex Phase-1, Baddi - HPPCB",19-02-2026 08:00:00,30.943887,76.801991,SO2,27,134,87
India,Himachal Pradesh,Baddi,"HIMUDA Complex Phase-1, Baddi - HPPCB",19-02-2026 08:00:00,30.943887,76.801991,CO,36,78,55
India,Jammu_and_Kashmir,Srinagar,"Khunmoh, Srinagar - JKPCC",19-02-2026 08:00:00,34.06313,74.96017,PM10,NA,NA,NA
India,Jharkhand,Dhanbad,"Sardar Patel Nagar, Dhanbad - JSPCB",19-02-2026 08:00:00,23.80569,86.44268,PM2.5,9,332,149
India,Haryana,Gurugram,"Vikas Sadan, Gurugram - HSPCB",19-02-2026 08:00:00,28.4501238,77.0263051,NO2,9,45,26
India,Haryana,Gurugram,"Vikas Sadan, Gurugram - HSPCB",19-02-2026 08:00:00,28.4501238,77.0263051,CO,58,114,94
India,Haryana,Hisar,"Urban Estate-II, Hisar - HSPCB",19-02-2026 08:00:00,29.140560,75.744941,PM2.5,NA,NA,NA
India,Haryana,Hisar,"Urban Estate-II, Hisar - HSPCB",19-02-2026 08:00:00,29.140560,75.744941,CO,NA,NA,NA
India,Haryana,Hisar,"Urban Estate-II, Hisar - HSPCB",19-02-2026 08:00:00,29.140560,75.744941,OZONE,NA,NA,NA
India,Haryana,Kaithal,"Rishi Nagar, Kaithal - HSPCB",19-02-2026 08:00:00,29.8006,76.4155,SO2,17,21,19
India,Haryana,Karnal,"Sector-12, Karnal - HSPCB",19-02-2026 08:00:00,29.695300,77.002700,PM10,31,110,73
India,Haryana,Karnal,"Sector-12, Karnal - HSPCB",19-02-2026 08:00:00,29.695300,77.002700,NH3,6,6,6
India,Karnataka,Dharwad,"Kalabhavan, Dharwad - KSPCB",19-02-2026 08:00:00,15.459706,75.008381,CO,56,95,64
India,Karnataka,Hubballi,"Lingaraj Nagar, Hubballi - KSPCB",19-02-2026 08:00:00,15.3714823,75.1160168,SO2,2,4,3
India,Karnataka,Kalaburagi,"Mahatma Basaveswar Colony, Kalaburgi - KSPCB",19-02-2026 08:00:00,17.336318,76.847397,NO2,11,19,15
India,Karnataka,Madikeri,"Stuart Hill, Madikeri - KSPCB",19-02-2026 08:00:00,12.415911,75.735050,PM2.5,42,53,46
India,Karnataka,Mysuru,"Hebbal 1st Stage, Mysuru - KSPCB",19-02-2026 08:00:00,12.21041,76.37376,CO,6,82,21
India,Haryana,Kurukshetra,"Sector-7, Kurukshetra - HSPCB",19-02-2026 08:00:00,29.966942,76.875879,OZONE,1,35,1
India,Haryana,Mandikhera,"General Hospital, Mandikhera(Nuh) - HSPCB",19-02-2026 08:00:00,27.9002,76.9938,PM10,38,77,56
India,Haryana,Manesar,"Sector-2 IMT, Manesar - HSPCB",19-02-2026 08:00:00,28.360699,76.936090,NH3,10,11,11
India,Haryana,Narnaul,"Shastri Nagar, Narnaul - HSPCB",19-02-2026 08:00:00,28.060249,76.113115,NO2,53,72,62
India,Haryana,Narnaul,"Shastri Nagar, Narnaul - HSPCB",19-02-2026 08:00:00,28.060249,76.113115,NH3,7,15,11
India,Karnataka,Ramanagara,"Vijay Nagar, Ramanagara - KSPCB",19-02-2026 08:00:00,12.733409,77.298051,PM2.5,42,95,61
India,Karnataka,Shivamogga,"Vinoba Nagara, Shivamogga - KSPCB",19-02-2026 08:00:00,13.940000,75.555917,NO2,6,24,21
India,Karnataka,Shivamogga,"Vinoba Nagara, Shivamogga - KSPCB",19-02-2026 08:00:00,13.940000,75.555917,SO2,2,9,7
India,Karnataka,Tumakuru,"Thimmalapura, Tumakuru - KSPCB",19-02-2026 08:00:00,13.377516,77.099072,CO,52,54,53
India,Karnataka,Tumakuru,"Thimmalapura, Tumakuru - KSPCB",19-02-2026 08:00:00,13.377516,77.099072,OZONE,23,23,23
India,Karnataka,Bagalkot,"Vidayagiri, Bagalkot - KSPCB",19-02-2026 08:00:00,16.172806,75.659694,NH3,1,2,1
India,Karnataka,Bengaluru,"BTM Layout, Bengaluru - CPCB",19-02-2026 08:00:00,12.9135218,77.5950804,NH3,11,18,13
India,Karnataka,Bengaluru,"Bapuji Nagar, Bengaluru - KSPCB",19-02-2026 08:00:00,12.951913,77.539784,NO2,62,134,97
India,Karnataka,Bengaluru,"Hombegowda Nagar, Bengaluru - KSPCB",19-02-2026 08:00:00,12.938539,77.590100,PM10,74,116,94
India,Karnataka,Bengaluru,"Shivapura_Peenya, Bengaluru - KSPCB",19-02-2026 08:00:00,13.0246342,77.5080115,NH3,2,3,3
India,Karnataka,Chamarajanagar,"Urban, Chamarajanagar - KSPCB",19-02-2026 08:00:00,11.55358,76.55521,CO,12,24,17
India,Madhya Pradesh,Mandideep,"Sector-D Industrial Area, Mandideep - MPPCB",19-02-2026 08:00:00,23.108440,77.511428,PM2.5,68,344,166
India,Madhya Pradesh,Pithampur,"Sector-2 Industrial Area, Pithampur - MPPCB",19-02-2026 08:00:00,22.624758,75.675238,NO2,14,31,25
India,Madhya Pradesh,Pithampur,"Sector-2 Industrial Area, Pithampur - MPPCB",19-02-2026 08:00:00,22.624758,75.675238,NH3,9,13,10
India,Madhya Pradesh,Pithampur,"Sector-2 Industrial Area, Pithampur - MPPCB",19-02-2026 08:00:00,22.624758,75.675238,SO2,32,51,37
India,Madhya Pradesh,Pithampur,"Sector-2 Industrial Area, Pithampur - MPPCB",19-02-2026 08:00:00,22.624758,75.675238,CO,7,57,18
India,Madhya Pradesh,Pithampur,"Sector-2 Industrial Area, Pithampur - MPPCB",19-02-2026 08:00:00,22.624758,75.675238,OZONE,50,167,63
India,Madhya Pradesh,Ratlam,"Shasthri Nagar, Ratlam - IPCA Lab",19-02-2026 08:00:00,23.331731,75.045981,NO2,13,28,19
India,Madhya Pradesh,Sagar,"Civil Lines, Sagar - MPPCB",19-02-2026 08:00:00,23.838586,78.759431,SO2,4,15,8
India,Madhya Pradesh,Sagar,"Deen Dayal Nagar, Sagar - MPPCB",19-02-2026 08:00:00,23.8640158,78.80289321,NO2,4,23,12
India,Madhya Pradesh,Indore,"Regional Park, Indore - IMC",19-02-2026 08:00:00,22.6780,75.8559,CO,1,22,15
India,Madhya Pradesh,Indore,"Residency Area, Indore - IMC",19-02-2026 08:00:00,22.7084,75.8815,PM2.5,32,244,76
India,Madhya Pradesh,Indore,"Residency Area, Indore - IMC",19-02-2026 08:00:00,22.7084,75.8815,OZONE,6,18,9
India,Madhya Pradesh,Jabalpur,"Govindh Bhavan Colony, Jabalpur - JMC",19-02-2026 08:00:00,23.163174,79.973061,NH3,2,2,2
India,Madhya Pradesh,Jabalpur,"Gupteshwar, Jabalpur - JMC",19-02-2026 08:00:00,23.142888,79.916147,NH3,2,2,2
