country,state,city,station,last_update,latitude,longitude,pollutant_id,min_value,max_value,avg_value
India,Andhra_Pradesh,Vijayawada,"Rajiv Gandhi Park, Vijayawada - APPCB",22-01-2026 08:00:00,16.509717,80.612222,NO2,43,83,58
India,Andhra_Pradesh,Vijayawada,"Rajiv Nagar, Vijayawada - APPCB",22-01-2026 08:00:00,16.554731,80.649110,NO2,16,31,19
India,Andhra_Pradesh,Vijayawada,"Rajiv Nagar, Vijayawada - APPCB",22-01-2026 08:00:00,16.554731,80.649110,CO,6,44,7
India,Andhra_Pradesh,Visakhapatnam,"GVM Corporation, Visakhapatnam - APPCB",22-01-2026 08:00:00,17.72,83.3,PM2.5,57,332,185
India,Andhra_Pradesh,Visakhapatnam,"GVM Corporation, Visakhapatnam - APPCB",22-01-2026 08:00:00,17.72,83.3,SO2,1,15,6
India,Arunachal_Pradesh,Naharlagun,"Naharlagun, Naharlagun - APSPCB",22-01-2026 08:00:00,27.103358,93.679645,NO2,6,7,7
India,Assam,Byrnihat,"Central Academy for SFS, Byrnihat - PCBA",22-01-2026 08:00:00,26.071318,91.87488,PM2.5,91,354,183
India,Assam,Byrnihat,"Central Academy for SFS, Byrnihat - PCBA",22-01-2026 08:00:00,26.071318,91.87488,NO2,3,10,7
India,Assam,Byrnihat,"Central Academy for SFS, Byrnihat - PCBA",22-01-2026 08:00:00,26.071318,91.87488,SO2,24,33,32
India,Assam,Guwahati,"LGBI Airport, Guwahati - PCBA",22-01-2026 08:00:00,26.10887,91.589544,PM10,59,148,110
India,Bihar,Katihar,"Mirchaibari, Katihar - BSPCB",22-01-2026 08:00:00,25.560083,87.553265,SO2,18,26,22
India,Bihar,Manguraha,"Forest Rest House, Manguraha - BSPCB",22-01-2026 08:00:00,27.308328,84.531742,NH3,1,2,1
India,Bihar,Motihari,"Gandak Colony, Motihari - BSPCB",22-01-2026 08:00:00,26.63086,84.90051,NO2,NA,NA,NA
India,Bihar,Motihari,"Gandak Colony, Motihari - BSPCB",22-01-2026 08:00:00,26.63086,84.90051,CO,NA,NA,NA
India,Bihar,Munger,"Town Hall, Munger - BSPCB",22-01-2026 08:00:00,25.376776,86.471523,PM10,42,78,60
India,Bihar,Munger,"Town Hall, Munger - BSPCB",22-01-2026 08:00:00,25.376776,86.471523,NO2,4,5,5
India,Bihar,Munger,"Town Hall, Munger - BSPCB",22-01-2026 08:00:00,25.376776,86.471523,OZONE,7,18,9
India,Bihar,Muzaffarpur,"Buddha Colony, Muzaffarpur - BSPCB",22-01-2026 08:00:00,26.11442,85.39813,CO,18,105,100
India,Bihar,Muzaffarpur,"MIT-Daudpur Kothi, Muzaffarpur - BSPCB",22-01-2026 08:00:00,26.1403345,85.3650192,PM10,61,71,67
India,Andhra_Pradesh,Tirumala,"Toll Gate, Tirumala - APPCB",22-01-2026 08:00:00,13.67,79.35,PM10,46,113,74
India,Andhra_Pradesh,Tirumala,"Toll Gate, Tirumala - APPCB",22-01-2026 08:00:00,13.67,79.35,CO,2,29,18
India,Andhra_Pradesh,Tirumala,"Toll Gate, Tirumala - APPCB",22-01-2026 08:00:00,13.67,79.35,OZONE,37,80,43
India,Andhra_Pradesh,Tirupati,"Vaikuntapuram, Tirupati - APPCB",22-01-2026 08:00:00,13.615387,79.409230,CO,23,35,25
India,Andhra_Pradesh,Vijayawada,"HB Colony, Vijayawada - APPCB",22-01-2026 08:00:00,16.536107,80.594233,NO2,21,28,24
India,Andhra_Pradesh,Vijayawada,"HB Colony, Vijayawada - APPCB",22-01-2026 08:00:00,16.536107,80.594233,SO2,11,17,13
India,Andhra_Pradesh,Vijayawada,"Kanuru, Vijayawada - APPCB",22-01-2026 08:00:00,16.486692,80.699436,PM2.5,NA,NA,NA
India,Andhra_Pradesh,Vijayawada,"Kanuru, Vijayawada - APPCB",22-01-2026 08:00:00,16.486692,80.699436,NH3,NA,NA,NA
India,Andhra_Pradesh,Vijayawada,"Kanuru, Vijayawada - APPCB",22-01-2026 08:00:00,16.486692,80.699436,CO,NA,NA,NA
India,Andhra_Pradesh,Vijayawada,"Kanuru, Vijayawada - APPCB",22-01-2026 08:00:00,16.486692,80.699436,OZONE,NA,NA,NA
India,Andaman and Nicobar,Sri Vijaya Puram,"Police Line, Sri Vijaya Puram - ANPCC",22-01-2026 08:00:00,11.654054,92.734055,NO2,NA,NA,NA
India,Andaman and Nicobar,Sri Vijaya Puram,"Police Line, Sri Vijaya Puram - ANPCC",22-01-2026 08:00:00,11.654054,92.734055,SO2,NA,NA,NA
India,Andaman and Nicobar,Sri Vijaya Puram,"Police Line, Sri Vijaya Puram - ANPCC",22-01-2026 08:00:00,11.654054,92.734055,OZONE,NA,NA,NA
India,Andhra_Pradesh,Anantapur,"Gulzarpet, Anantapur - APPCB",22-01-2026 08:00:00,14.675886,77.593027,NH3,5,5,5
India,Andhra_Pradesh,Anantapur,"Gulzarpet, Anantapur - APPCB",22-01-2026 08:00:00,14.675886,77.593027,CO,22,46,42
India,Andhra_Pradesh,Chittoor,"Gangineni Cheruvu, Chittoor - APPCB",22-01-2026 08:00:00,13.204880,79.097889,SO2,NA,NA,NA
India,Andhra_Pradesh,Chittoor,"Gangineni Cheruvu, Chittoor - APPCB",22-01-2026 08:00:00,13.204880,79.097889,CO,NA,NA,NA
India,Andhra_Pradesh,Kadapa,"Yerramukkapalli, Kadapa - APPCB",22-01-2026 08:00:00,14.465052,78.824187,PM10,31,114,83
India,Andhra_Pradesh,Kadapa,"Yerramukkapalli, Kadapa - APPCB",22-01-2026 08:00:00,14.465052,78.824187,NO2,18,29,23
India,Bihar,Begusarai,"Lohiyanagar, Begusarai - BSPCB",22-01-2026 08:00:00,25.42742023,86.13886079,OZONE,5,24,8
India,Bihar,Bettiah,"Kamalnath Nagar, Bettiah - BSPCB",22-01-2026 08:00:00,26.80365,84.51954,OZONE,22,24,23
India,Bihar,Bhagalpur,"Mayaganj, Bhagalpur - BSPCB",22-01-2026 08:00:00,25.265194,87.012947,CO,78,99,90
India,Bihar,Buxar,"Charitra Van, Buxar - BSPCB",22-01-2026 08:00:00,25.567520,83.966379,NO2,9,10,9
India,Bihar,Buxar,"Charitra Van, Buxar - BSPCB",22-01-2026 08:00:00,25.567520,83.966379,SO2,10,122,77
India,Bihar,Chhapra,"Darshan Nagar, Chhapra - BSPCB",22-01-2026 08:00:00,25.7808257,84.7446768,PM2.5,38,306,113
India,Assam,Sivasagar,"Girls College, Sivasagar - PCBA",22-01-2026 08:00:00,26.987634,94.636574,SO2,12,16,14
India,Assam,Sivasagar,"Girls College, Sivasagar - PCBA",22-01-2026 08:00:00,26.987634,94.636574,OZONE,4,91,10
India,Bihar,Aurangabad,"Gurdeo Nagar, Aurangabad - BSPCB",22-01-2026 08:00:00,24.75746,84.366208,CO,101,104,102
India,Bihar,Aurangabad,"Gurdeo Nagar, Aurangabad - BSPCB",22-01-2026 08:00:00,24.75746,84.366208,OZONE,10,52,16
India,Bihar,Begusarai,"Lohiyanagar, Begusarai - BSPCB",22-01-2026 08:00:00,25.42742023,86.13886079,PM2.5,20,120,53
India,Bihar,Begusarai,"Lohiyanagar, Begusarai - BSPCB",22-01-2026 08:00:00,25.42742023,86.13886079,NO2,11,20,14
India,Bihar,Chhapra,"Darshan Nagar, Chhapra - BSPCB",22-01-2026 08:00:00,25.7808257,84.7446768,NH3,5,10,8
India,Bihar,Chhapra,"Darshan Nagar, Chhapra - BSPCB",22-01-2026 08:00:00,25.7808257,84.7446768,OZONE,15,22,19
India,Bihar,Gaya,"Collectorate, Gaya - BSPCB",22-01-2026 08:00:00,24.7955,84.9994,PM2.5,45,217,106
India,Bihar,Gaya,"Collectorate, Gaya - BSPCB",22-01-2026 08:00:00,24.7955,84.9994,NO2,9,10,9
India,Bihar,Gaya,"Collectorate, Gaya - BSPCB",22-01-2026 08:00:00,24.7955,84.9994,SO2,NA,NA,NA
India,Bihar,Gaya,"Kareemganj, Gaya - BSPCB",22-01-2026 08:00:00,24.792403,84.992416,PM10,93,264,148
India,Bihar,Gaya,"Kareemganj, Gaya - BSPCB",22-01-2026 08:00:00,24.792403,84.992416,NH3,4,6,5
India,Bihar,Gaya,"SFTI Kusdihra, Gaya - BSPCB",22-01-2026 08:00:00,24.762518,84.982348,PM10,34,85,52
India,Bihar,Gaya,"SFTI Kusdihra, Gaya - BSPCB",22-01-2026 08:00:00,24.762518,84.982348,NH3,3,5,4
India,Bihar,Gaya,"SFTI Kusdihra, Gaya - BSPCB",22-01-2026 08:00:00,24.762518,84.982348,SO2,3,11,7
India,Bihar,Gaya,"SFTI Kusdihra, Gaya - BSPCB",22-01-2026 08:00:00,24.762518,84.982348,CO,34,56,44
India,Bihar,Katihar,"Mirchaibari, Katihar - BSPCB",22-01-2026 08:00:00,25.560083,87.553265,PM10,45,128,92
India,Assam,Guwahati,"LGBI Airport, Guwahati - PCBA",22-01-2026 08:00:00,26.10887,91.589544,OZONE,12,14,13
India,Assam,Guwahati,"Pan Bazaar, Guwahati - PCBA",22-01-2026 08:00:00,26.187500,91.744194,OZONE,17,18,18
India,Assam,Nalbari,"Bata Chowk, Nalbari - PCBA",22-01-2026 08:00:00,26.446912,91.439057,PM2.5,107,170,145
India,Assam,Silchar,"Tarapur, Silchar - PCBA",22-01-2026 08:00:00,24.82827,92.79525,PM2.5,15,89,44
India,Bihar,Patna,"DRM Office Danapur, Patna - BSPCB",22-01-2026 08:00:00,25.586562,85.043586,PM2.5,62,176,104
India,Bihar,Patna,"DRM Office Danapur, Patna - BSPCB",22-01-2026 08:00:00,25.586562,85.043586,OZONE,14,35,18
India,Bihar,Patna,"Govt. High School Shikarpur, Patna - BSPCB",22-01-2026 08:00:00,25.592539,85.227158,PM2.5,71,84,77
India,Bihar,Patna,"IGSC Planetarium Complex, Patna - BSPCB",22-01-2026 08:00:00,25.610369,85.132568,PM2.5,30,161,73
India,Delhi,Delhi,"IIT Delhi, Delhi - IITM",22-01-2026 08:00:00,28.542460,77.191651,NO2,22,111,49
India,Delhi,Delhi,"ITO, Delhi - CPCB",22-01-2026 08:00:00,28.628624,77.241060,PM10,111,265,187
India,Delhi,Delhi,"Jahangirpuri, Delhi - DPCC",22-01-2026 08:00:00,28.732820,77.170633,CO,25,149,128
India,Delhi,Delhi,"Lodhi Road, Delhi - IMD",22-01-2026 08:00:00,28.5918245,77.2273074,PM10,NA,NA,NA
India,Delhi,Delhi,"Lodhi Road, Delhi - IMD",22-01-2026 08:00:00,28.5918245,77.2273074,CO,44,104,102
India,Delhi,Delhi,"Lodhi Road, Delhi - IMD",22-01-2026 08:00:00,28.5918245,77.2273074,OZONE,8,56,10
India,Delhi,Delhi,"Major Dhyan Chand National Stadium, Delhi - DPCC",22-01-2026 08:00:00,28.611281,77.237738,NH3,17,22,19
India,Delhi,Delhi,"Major Dhyan Chand National Stadium, Delhi - DPCC",22-01-2026 08:00:00,28.611281,77.237738,SO2,5,19,9
India,Delhi,Delhi,"Major Dhyan Chand National Stadium, Delhi - DPCC",22-01-2026 08:00:00,28.611281,77.237738,OZONE,1,145,2
India,Chhattisgarh,Raipur,"Krishak Nagar, Raipur - CECB",22-01-2026 08:00:00,21.237755,81.705301,PM10,NA,NA,NA
India,Chhattisgarh,Raipur,"Krishak Nagar, Raipur - CECB",22-01-2026 08:00:00,21.237755,81.705301,CO,NA,NA,NA
India,Chhattisgarh,Raipur,"Krishak Nagar, Raipur - CECB",22-01-2026 08:00:00,21.237755,81.705301,OZONE,NA,NA,NA
India,Chhattisgarh,Raipur,"Siltara Phase-II, Raipur - CECB",22-01-2026 08:00:00,21.371751,81.664929,PM2.5,31,316,114
India,Chhattisgarh,Raipur,"Siltara Phase-II, Raipur - CECB",22-01-2026 08:00:00,21.371751,81.664929,NH3,2,2,2
India,Chhattisgarh,Tumidih,"OP Jindal Industrial Park, Tumidih - CECB",22-01-2026 08:00:00,22.06631475,83.33820077,PM10,51,151,100
India,Chhattisgarh,Tumidih,"OP Jindal Industrial Park, Tumidih - CECB",22-01-2026 08:00:00,22.06631475,83.33820077,NO2,27,95,60
India,Chhattisgarh,Tumidih,"OP Jindal Industrial Park, Tumidih - CECB",22-01-2026 08:00:00,22.06631475,83.33820077,NH3,1,2,2
India,Chhattisgarh,Tumidih,"OP Jindal Industrial Park, Tumidih - CECB",22-01-2026 08:00:00,22.06631475,83.33820077,CO,20,49,35
India,Delhi,Delhi,"Chandni Chowk, Delhi - IITM",22-01-2026 08:00:00,28.656756,77.227234,SO2,13,39,25
India,Delhi,Delhi,"DTU, Delhi - CPCB",22-01-2026 08:00:00,28.7500499,77.1112615,PM2.5,67,443,283
India,Delhi,Delhi,"DTU, Delhi - CPCB",22-01-2026 08:00:00,28.7500499,77.1112615,CO,16,74,66
India,Delhi,Delhi,"Dr. Karni Singh Shooting Range, Delhi - DPCC",22-01-2026 08:00:00,28.498571,77.264840,NO2,17,96,58
India,Delhi,Delhi,"Dr. Karni Singh Shooting Range, Delhi - DPCC",22-01-2026 08:00:00,28.498571,77.264840,CO,1,112,70
India,Delhi,Delhi,"Dr. Karni Singh Shooting Range, Delhi - DPCC",22-01-2026 08:00:00,28.498571,77.264840,OZONE,2,130,2
India,Delhi,Delhi,"Dwarka-Sector 8, Delhi - DPCC ",22-01-2026 08:00:00,28.5710274,77.0719006,SO2,19,31,26
India,Delhi,Delhi,"Dwarka-Sector 8, Delhi - DPCC ",22-01-2026 08:00:00,28.5710274,77.0719006,OZONE,8,72,10
India,Delhi,Delhi,"Ashok Vihar, Delhi - DPCC",22-01-2026 08:00:00,28.695381,77.181665,PM10,147,447,308
India,Delhi,Delhi,"Bawana, Delhi - DPCC",22-01-2026 08:00:00,28.776200,77.051074,PM2.5,93,438,324
India,Delhi,Delhi,"Bawana, Delhi - DPCC",22-01-2026 08:00:00,28.776200,77.051074,PM10,103,424,225
India,Delhi,Delhi,"Bawana, Delhi - DPCC",22-01-2026 08:00:00,28.776200,77.051074,NO2,5,89,38
India,Delhi,Delhi,"Burari Crossing, Delhi - IMD",22-01-2026 08:00:00,28.7256504,77.2011573,PM2.5,87,410,312
India,Delhi,Delhi,"CRRI Mathura Road, Delhi - IMD",22-01-2026 08:00:00,28.5512005,77.2735737,PM10,117,421,294
India,Delhi,Delhi,"Chandni Chowk, Delhi - IITM",22-01-2026 08:00:00,28.656756,77.227234,PM2.5,205,500,363
India,Bihar,Samastipur,"DM Office_Kasipur, Samastipur - BSPCB",22-01-2026 08:00:00,25.859655,85.77944,SO2,16,35,29
India,Bihar,Samastipur,"DM Office_Kasipur, Samastipur - BSPCB",22-01-2026 08:00:00,25.859655,85.77944,OZONE,7,9,8
India,Bihar,Siwan,"Chitragupta Nagar, Siwan - BSPCB",22-01-2026 08:00:00,26.2271665,84.3570427,NH3,1,1,1
India,Chandigarh,Chandigarh,"Sector 22, Chandigarh - CPCC",22-01-2026 08:00:00,30.735567,76.775714,PM2.5,53,324,191
India,Chandigarh,Chandigarh,"Sector 22, Chandigarh - CPCC",22-01-2026 08:00:00,30.735567,76.775714,SO2,4,80,13
India,Chandigarh,Chandigarh,"Sector-25, Chandigarh - CPCC",22-01-2026 08:00:00,30.751462,76.762879,NO2,8,26,14
India,Chhattisgarh,Bhilai,"32Bungalows, Bhilai - CECB",22-01-2026 08:00:00,21.194815,81.314770,PM10,42,116,71
India,Chhattisgarh,Bhilai,"Civic Center, Bhilai - Bhilai Steel Plant",22-01-2026 08:00:00,21.185571,81.343175,NO2,10,17,16
India,Chhattisgarh,Bilaspur,"Mangala, Bilaspur - NTPC",22-01-2026 08:00:00,22.08815,82.13737,PM2.5,34,99,72
India,Chhattisgarh,Bilaspur,"Mangala, Bilaspur - NTPC",22-01-2026 08:00:00,22.08815,82.13737,PM10,40,113,81
India,Chhattisgarh,Bilaspur,"Mangala, Bilaspur - NTPC",22-01-2026 08:00:00,22.08815,82.13737,SO2,9,20,14
India,Chhattisgarh,Chhal,"Nawapara SECL Colony, Chhal - CECB",22-01-2026 08:00:00,22.118125,83.140608,NO2,6,20,10
India,Bihar,Patna,"Samanpura, Patna - BSPCB",22-01-2026 08:00:00,25.596727,85.085624,OZONE,9,127,16
India,Bihar,Rajgir,"Dangi Tola, Rajgir - BSPCB",22-01-2026 08:00:00,25.03280,85.41948,PM10,10,161,80
India,Bihar,Rajgir,"Dangi Tola, Rajgir - BSPCB",22-01-2026 08:00:00,25.03280,85.41948,NH3,5,8,7
India,Bihar,Rajgir,"Dangi Tola, Rajgir - BSPCB",22-01-2026 08:00:00,25.03280,85.41948,SO2,18,27,22
India,Bihar,Rajgir,"Dangi Tola, Rajgir - BSPCB",22-01-2026 08:00:00,25.03280,85.41948,CO,76,104,88
India,Bihar,Rajgir,"Dangi Tola, Rajgir - BSPCB",22-01-2026 08:00:00,25.03280,85.41948,OZONE,30,35,32
India,Bihar,Saharsa,"Police Line, Saharsa - BSPCB",22-01-2026 08:00:00,25.892357,86.590325,NH3,4,4,4
India,Chhattisgarh,Chhal,"Nawapara SECL Colony, Chhal - CECB",22-01-2026 08:00:00,22.118125,83.140608,CO,22,56,32
India,Chhattisgarh,Korba,"Urja Nagar, Korba - CECB",22-01-2026 08:00:00,22.348441,82.549611,NO2,16,28,20
India,Chhattisgarh,Kunjemura,"OP Jindal School, Kunjemura - CECB",22-01-2026 08:00:00,22.126650,83.483212,NH3,2,2,2
India,Chhattisgarh,Raipur,"AIIMS, Raipur - CECB",22-01-2026 08:00:00,21.258815,81.578979,CO,38,105,74
India,Chhattisgarh,Raipur,"AIIMS, Raipur - CECB",22-01-2026 08:00:00,21.258815,81.578979,OZONE,1,10,1
India,Chhattisgarh,Raipur,"Bhatagaon New ISBT, Raipur - CECB",22-01-2026 08:00:00,21.219665,81.630094,NO2,1,65,29
India,Chhattisgarh,Raipur,"Bhatagaon New ISBT, Raipur - CECB",22-01-2026 08:00:00,21.219665,81.630094,NH3,2,2,2
India,Haryana,Dharuhera,"Municipal Corporation Office, Dharuhera -  HSPCB",22-01-2026 08:00:00,28.206800,76.799700,NH3,9,26,20
India,Haryana,Dharuhera,"Municipal Corporation Office, Dharuhera -  HSPCB",22-01-2026 08:00:00,28.206800,76.799700,OZONE,5,40,7
India,Haryana,Faridabad,"Sector 11, Faridabad - HSPCB",22-01-2026 08:00:00,28.376058,77.315741,PM10,69,335,186
India,Haryana,Faridabad,"Sector 11, Faridabad - HSPCB",22-01-2026 08:00:00,28.376058,77.315741,OZONE,14,16,15
India,Haryana,Faridabad,"Sector 30, Faridabad - HSPCB",22-01-2026 08:00:00,28.4417,77.3217,NH3,10,12,11
India,Haryana,Faridabad,"Sector 30, Faridabad - HSPCB",22-01-2026 08:00:00,28.4417,77.3217,SO2,6,6,6
India,Haryana,Fatehabad,"Huda Sector, Fatehabad - HSPCB",22-01-2026 08:00:00,29.503664,75.467934,PM10,110,236,154
India,Haryana,Gurugram,"NISE Gwal Pahari, Gurugram - IMD",22-01-2026 08:00:00,28.422681,77.148944,PM2.5,150,399,303
India,Haryana,Gurugram,"NISE Gwal Pahari, Gurugram - IMD",22-01-2026 08:00:00,28.422681,77.148944,PM10,139,409,235
India,Haryana,Gurugram,"NISE Gwal Pahari, Gurugram - IMD",22-01-2026 08:00:00,28.422681,77.148944,NO2,19,81,46
India,Gujarat,Vatva,"Phase-4 GIDC, Vatva - GPCB",22-01-2026 08:00:00,22.969611,72.643500,NO2,53,62,58
India,Haryana,Bahadurgarh,"Arya Nagar, Bahadurgarh - HSPCB",22-01-2026 08:00:00,28.6701,76.9254,SO2,7,7,7
India,Haryana,Ballabgarh,"Nathu Colony, Ballabgarh - HSPCB",22-01-2026 08:00:00,28.3419248,77.319699,NH3,3,3,3
India,Haryana,Ballabgarh,"Nathu Colony, Ballabgarh - HSPCB",22-01-2026 08:00:00,28.3419248,77.319699,SO2,1,7,4
India,Haryana,Bhiwani,"H.B. Colony, Bhiwani - HSPCB",22-01-2026 08:00:00,28.806223,76.141105,PM2.5,159,315,208
India,Haryana,Charkhi Dadri,"Mini Secretariat, Charkhi Dadri - HSPCB",22-01-2026 08:00:00,28.593883,76.270653,NH3,5,8,6
India,Haryana,Dharuhera,"Municipal Corporation Office, Dharuhera -  HSPCB",22-01-2026 08:00:00,28.206800,76.799700,PM2.5,276,403,341
India,Haryana,Gurugram,"Sector-51, Gurugram - HSPCB",22-01-2026 08:00:00,28.4227,77.0667,PM2.5,237,500,394
India,Haryana,Gurugram,"Vikas Sadan, Gurugram - HSPCB",22-01-2026 08:00:00,28.4501238,77.0263051,PM2.5,326,500,394
India,Haryana,Hisar,"Urban Estate-II, Hisar - HSPCB",22-01-2026 08:00:00,29.140560,75.744941,CO,28,108,32
India,Haryana,Hisar,"Urban Estate-II, Hisar - HSPCB",22-01-2026 08:00:00,29.140560,75.744941,OZONE,13,134,19
India,Haryana,Jind,"Police Lines, Jind - HSPCB",22-01-2026 08:00:00,29.307814,76.337619,PM10,NA,NA,NA
India,Haryana,Kaithal,"Rishi Nagar, Kaithal - HSPCB",22-01-2026 08:00:00,29.8006,76.4155,SO2,29,33,31
India,Haryana,Karnal,"Sector-12, Karnal - HSPCB",22-01-2026 08:00:00,29.695300,77.002700,PM10,81,156,122
India,Gujarat,Ahmedabad,"Rakhial, Ahmedabad - IITM",22-01-2026 08:00:00,23.016834,72.625775,OZONE,4,72,14
India,Gujarat,Ahmedabad,"SAC ISRO Bopal, Ahmedabad - IITM",22-01-2026 08:00:00,23.041137,72.456691,PM2.5,113,197,167
India,Gujarat,Ahmedabad,"SAC ISRO Bopal, Ahmedabad - IITM",22-01-2026 08:00:00,23.041137,72.456691,PM10,104,185,136
India,Gujarat,Ahmedabad,"SAC ISRO Satellite, Ahmedabad - IITM",22-01-2026 08:00:00,23.023389,72.515201,NO2,10,38,18
India,Gujarat,Ahmedabad,"SAC ISRO Satellite, Ahmedabad - IITM",22-01-2026 08:00:00,23.023389,72.515201,OZONE,2,54,5
India,Gujarat,Ahmedabad,"SVPI Airport Hansol, Ahmedabad - IITM",22-01-2026 08:00:00,23.076793,72.627874,PM2.5,58,107,80
India,Gujarat,Ahmedabad,"SVPI Airport Hansol, Ahmedabad - IITM",22-01-2026 08:00:00,23.076793,72.627874,SO2,6,12,8
India,Gujarat,Ahmedabad,"SVPI Airport Hansol, Ahmedabad - IITM",22-01-2026 08:00:00,23.076793,72.627874,CO,9,46,19
India,Delhi,Delhi,"R K Puram, Delhi - DPCC",22-01-2026 08:00:00,28.563262,77.186937,NO2,69,152,99
India,Delhi,Delhi,"R K Puram, Delhi - DPCC",22-01-2026 08:00:00,28.563262,77.186937,SO2,4,55,30
India,Delhi,Delhi,"Sirifort, Delhi - CPCB",22-01-2026 08:00:00,28.5504249,77.2159377,PM2.5,187,392,334
India,Delhi,Delhi,"Sirifort, Delhi - CPCB",22-01-2026 08:00:00,28.5504249,77.2159377,SO2,24,38,33
India,Delhi,Delhi,"Sirifort, Delhi - CPCB",22-01-2026 08:00:00,28.5504249,77.2159377,OZONE,14,25,25
India,Delhi,Delhi,"Sonia Vihar, Delhi - DPCC",22-01-2026 08:00:00,28.710508,77.249485,SO2,8,19,12
India,Delhi,Delhi,"Sonia Vihar, Delhi - DPCC",22-01-2026 08:00:00,28.710508,77.249485,CO,68,196,44
India,Delhi,Delhi,"Sri Aurobindo Marg, Delhi - DPCC",22-01-2026 08:00:00,28.531346,77.190156,PM2.5,107,328,236
India,Delhi,Delhi,"NSIT Dwarka, Delhi - CPCB",22-01-2026 08:00:00,28.60909,77.0325413,NH3,6,9,7
India,Delhi,Delhi,"NSIT Dwarka, Delhi - CPCB",22-01-2026 08:00:00,28.60909,77.0325413,CO,44,89,56
India,Delhi,Delhi,"NSIT Dwarka, Delhi - CPCB",22-01-2026 08:00:00,28.60909,77.0325413,OZONE,22,40,24
India,Delhi,Delhi,"Najafgarh, Delhi - DPCC",22-01-2026 08:00:00,28.570173,76.933762,PM2.5,92,305,217
India,Delhi,Delhi,"Najafgarh, Delhi - DPCC",22-01-2026 08:00:00,28.570173,76.933762,NO2,24,144,86
India,Delhi,Delhi,"Najafgarh, Delhi - DPCC",22-01-2026 08:00:00,28.570173,76.933762,OZONE,3,123,4
India,Delhi,Delhi,"Narela, Delhi - DPCC",22-01-2026 08:00:00,28.822836,77.101981,SO2,1,13,7
India,Delhi,Delhi,"Nehru Nagar, Delhi - DPCC",22-01-2026 08:00:00,28.567890,77.250515,NO2,31,102,58
India,Delhi,Delhi,"Okhla Phase-2, Delhi - DPCC",22-01-2026 08:00:00,28.530785,77.271255,NH3,14,22,18
India,Delhi,Delhi,"Okhla Phase-2, Delhi - DPCC",22-01-2026 08:00:00,28.530785,77.271255,SO2,14,72,24
India,Delhi,Delhi,"Okhla Phase-2, Delhi - DPCC",22-01-2026 08:00:00,28.530785,77.271255,CO,NA,NA,NA
India,Delhi,Delhi,"Patparganj, Delhi - DPCC",22-01-2026 08:00:00,28.623763,77.287209,OZONE,2,237,2
India,Delhi,Delhi,"Pusa, Delhi - DPCC",22-01-2026 08:00:00,28.639652,77.146275,PM2.5,230,414,345
India,Delhi,Delhi,"Pusa, Delhi - IMD",22-01-2026 08:00:00,28.636110,77.173332,OZONE,NA,NA,NA
India,Gujarat,Ahmedabad,"Chandkheda, Ahmedabad - IITM",22-01-2026 08:00:00,23.107969,72.574648,PM2.5,52,107,77
India,Gujarat,Ahmedabad,"Maninagar, Ahmedabad - GPCB",22-01-2026 08:00:00,23.002657,72.591912,NO2,102,124,115
India,Gujarat,Ahmedabad,"Maninagar, Ahmedabad - GPCB",22-01-2026 08:00:00,23.002657,72.591912,CO,18,46,33
India,Gujarat,Ahmedabad,"Raikhad, Ahmedabad - IITM",22-01-2026 08:00:00,23.020509,72.579261,PM2.5,87,197,136
India,Gujarat,Surat,"Science Center, Surat - SMC",22-01-2026 08:00:00,21.170046,72.795405,PM2.5,NA,NA,NA
India,Gujarat,Surat,"Science Center, Surat - SMC",22-01-2026 08:00:00,21.170046,72.795405,SO2,24,32,27
India,Gujarat,Vapi,"Phase-1 GIDC, Vapi - GPCB",22-01-2026 08:00:00,20.362421,72.918013,PM10,NA,NA,NA
India,Gujarat,Vapi,"Phase-1 GIDC, Vapi - GPCB",22-01-2026 08:00:00,20.362421,72.918013,SO2,NA,NA,NA
India,Gujarat,Vapi,"Phase-1 GIDC, Vapi - GPCB",22-01-2026 08:00:00,20.362421,72.918013,OZONE,NA,NA,NA
India,Karnataka,Bengaluru,"Hebbal, Bengaluru - KSPCB",22-01-2026 08:00:00,13.029152,77.585901,PM2.5,42,204,80
India,Karnataka,Bengaluru,"Hebbal, Bengaluru - KSPCB",22-01-2026 08:00:00,13.029152,77.585901,NO2,NA,NA,NA
India,Karnataka,Bengaluru,"Hebbal, Bengaluru - KSPCB",22-01-2026 08:00:00,13.029152,77.585901,CO,9,94,16
India,Karnataka,Bengaluru,"Hebbal, Bengaluru - KSPCB",22-01-2026 08:00:00,13.029152,77.585901,OZONE,7,12,8
India,Karnataka,Bengaluru,"Hombegowda Nagar, Bengaluru - KSPCB",22-01-2026 08:00:00,12.938539,77.590100,CO,9,44,13
India,Karnataka,Bengaluru,"Jayanagar 5th Block, Bengaluru - KSPCB",22-01-2026 08:00:00,12.920984,77.584908,NO2,12,49,27
India,Karnataka,Bengaluru,"Jigani, Bengaluru - KSPCB",22-01-2026 08:00:00,12.7816279,77.6299145,PM2.5,43,67,54
India,Karnataka,Bengaluru,"Peenya, Bengaluru - CPCB",22-01-2026 08:00:00,13.0270199,77.494094,PM10,71,102,89
India,Karnataka,Kalaburagi,"Mahatma Basaveswar Colony, Kalaburgi - KSPCB",22-01-2026 08:00:00,17.336318,76.847397,SO2,2,8,4
India,Karnataka,Kalaburagi,"Mahatma Basaveswar Colony, Kalaburgi - KSPCB",22-01-2026 08:00:00,17.336318,76.847397,OZONE,13,19,19
India,Karnataka,Mysuru,"Hebbal 1st Stage, Mysuru - KSPCB",22-01-2026 08:00:00,12.21041,76.37376,NO2,8,29,18
India,Karnataka,Mysuru,"Hebbal 1st Stage, Mysuru - KSPCB",22-01-2026 08:00:00,12.21041,76.37376,NH3,2,6,4
India,Karnataka,Ramanagara,"Vijay Nagar, Ramanagara - KSPCB",22-01-2026 08:00:00,12.733409,77.298051,NH3,1,2,1
India,Karnataka,Shivamogga,"Vinoba Nagara, Shivamogga - KSPCB",22-01-2026 08:00:00,13.940000,75.555917,PM10,35,66,44
India,Karnataka,Shivamogga,"Vinoba Nagara, Shivamogga - KSPCB",22-01-2026 08:00:00,13.940000,75.555917,CO,10,30,13
India,Haryana,Yamuna Nagar,"Gobind Pura, Yamuna Nagar - HSPCB",22-01-2026 08:00:00,30.1480566,77.2893471,NO2,11,21,16
India,Haryana,Yamuna Nagar,"Gobind Pura, Yamuna Nagar - HSPCB",22-01-2026 08:00:00,30.1480566,77.2893471,SO2,10,15,12
India,Jammu_and_Kashmir,Srinagar,"Khunmoh, Srinagar - JKPCC",22-01-2026 08:00:00,34.06313,74.96017,SO2,3,5,4
India,Jammu_and_Kashmir,Srinagar,"Rajbagh, Srinagar - JKPCC",22-01-2026 08:00:00,34.066206,74.819820,PM10,27,45,33
India,Jharkhand,Dhanbad,"Sardar Patel Nagar, Dhanbad - JSPCB",22-01-2026 08:00:00,23.80569,86.44268,CO,4,178,172
India,Haryana,Palwal,"Shyam Nagar, Palwal - HSPCB",22-01-2026 08:00:00,28.1485564,77.3320667,CO,17,56,42
India,Haryana,Panchgaon,"Amity University, Panchgaon - IITM",22-01-2026 08:00:00,28.3153,76.9143,PM2.5,23,384,91
India,Haryana,Panchkula,"Sector-6, Panchkula - HSPCB ",22-01-2026 08:00:00,30.7057778,76.8531805555555,CO,6,20,12
India,Haryana,Sirsa,"F-Block, Sirsa - HSPCB",22-01-2026 08:00:00,29.536400,75.015800,PM10,95,164,120
India,Karnataka,Davanagere,"Devaraj Urs Badavane, Davanagere - KSPCB",22-01-2026 08:00:00,14.475800,75.905200,NO2,23,41,30
India,Karnataka,Dharwad,"Kalabhavan, Dharwad - KSPCB",22-01-2026 08:00:00,15.459706,75.008381,PM10,NA,NA,NA
India,Karnataka,Hubballi,"Lingaraj Nagar, Hubballi - KSPCB",22-01-2026 08:00:00,15.3714823,75.1160168,PM10,57,130,66
India,Karnataka,Hubballi,"Lingaraj Nagar, Hubballi - KSPCB",22-01-2026 08:00:00,15.3714823,75.1160168,NH3,1,2,2
India,Karnataka,Bengaluru,"RVCE-Mailasandra, Bengaluru - KSPCB",22-01-2026 08:00:00,12.921418,77.502466,PM10,68,157,116
India,Karnataka,Bengaluru,"Shivapura_Peenya, Bengaluru - KSPCB",22-01-2026 08:00:00,13.0246342,77.5080115,PM2.5,23,53,32
India,Karnataka,Bengaluru,"Silk Board, Bengaluru - KSPCB",22-01-2026 08:00:00,12.917348,77.622813,PM2.5,50,158,74
India,Karnataka,Bengaluru,"Silk Board, Bengaluru - KSPCB",22-01-2026 08:00:00,12.917348,77.622813,CO,16,100,25
India,Haryana,Kurukshetra,"Sector-7, Kurukshetra - HSPCB",22-01-2026 08:00:00,29.966942,76.875879,SO2,2,17,8
India,Haryana,Manesar,"Sector-2 IMT, Manesar - HSPCB",22-01-2026 08:00:00,28.360699,76.936090,CO,24,106,49
India,Haryana,Palwal,"Shyam Nagar, Palwal - HSPCB",22-01-2026 08:00:00,28.1485564,77.3320667,SO2,9,16,12
India,Karnataka,Bengaluru,"BTM Layout, Bengaluru - CPCB",22-01-2026 08:00:00,12.9135218,77.5950804,PM2.5,69,304,130
India,Karnataka,Bengaluru,"BWSSB Kadabesanahalli, Bengaluru - CPCB",22-01-2026 08:00:00,12.9352049,77.6814488,PM2.5,96,303,150
India,Karnataka,Bengaluru,"Bapuji Nagar, Bengaluru - KSPCB",22-01-2026 08:00:00,12.951913,77.539784,PM10,92,150,120
India,Karnataka,Bagalkot,"Vidayagiri, Bagalkot - KSPCB",22-01-2026 08:00:00,16.172806,75.659694,NH3,1,2,1
India,Karnataka,Bagalkot,"Vidayagiri, Bagalkot - KSPCB",22-01-2026 08:00:00,16.172806,75.659694,OZONE,12,12,12
India,Karnataka,Belgaum,"Ramteerth Nagar, Belgaum - KSPCB",22-01-2026 08:00:00,15.888653,74.541751,NO2,33,132,59
India,Maharashtra,Amravati,"Shivneri Colony, Amravati - MPCB",22-01-2026 08:00:00,20.9402359,77.7895248,SO2,28,36,30
India,Maharashtra,Amravati,"Shivneri Colony, Amravati - MPCB",22-01-2026 08:00:00,20.9402359,77.7895248,OZONE,7,76,28
India,Maharashtra,Amravati,"Shri Shivaji Science College, Amravati - MPCB",22-01-2026 08:00:00,20.939198,77.765701,OZONE,1,75,37
India,Maharashtra,Aurangabad,"MIDC Chilkalthana, Aurangabad - MPCB",22-01-2026 08:00:00,19.875620,75.387310,NO2,19,84,48
India,Maharashtra,Aurangabad,"MIDC Chilkalthana, Aurangabad - MPCB",22-01-2026 08:00:00,19.875620,75.387310,SO2,1,3,1
India,Maharashtra,Aurangabad,"MIDC Chilkalthana, Aurangabad - MPCB",22-01-2026 08:00:00,19.875620,75.387310,OZONE,14,79,32
India,Maharashtra,Aurangabad,"More Chowk Waluj, Aurangabad - MPCB",22-01-2026 08:00:00,19.8389439,75.244448,SO2,3,24,14
India,Maharashtra,Aurangabad,"More Chowk Waluj, Aurangabad - MPCB",22-01-2026 08:00:00,19.8389439,75.244448,OZONE,9,92,41
India,Maharashtra,Aurangabad,"Rachnakar Colony, Aurangabad - MPCB",22-01-2026 08:00:00,19.863756,75.321188,NO2,NA,NA,NA
India,Maharashtra,Aurangabad,"Rachnakar Colony, Aurangabad - MPCB",22-01-2026 08:00:00,19.863756,75.321188,NH3,NA,NA,NA
India,Maharashtra,Badlapur,"Katrap, Badlapur - MPCB",22-01-2026 08:00:00,19.16485,73.23409,PM2.5,37,222,113
India,Karnataka,Vijayapura,"Ibrahimpur, Vijayapura - KSPCB",22-01-2026 08:00:00,16.802639,75.722694,PM10,61,63,62
India,Karnataka,Yadgir,"Collector Office, Yadgir - KSPCB",22-01-2026 08:00:00,16.7602,77.1428,PM2.5,59,126,85
India,Karnataka,Yadgir,"Collector Office, Yadgir - KSPCB",22-01-2026 08:00:00,16.7602,77.1428,NO2,6,41,16
India,Kerala,Eloor,"Udyogamandal, Eloor - Kerala PCB",22-01-2026 08:00:00,10.073232,76.302765,PM2.5,106,245,162
India,Kerala,Kannur,"Thavakkara, Kannur - Kerala PCB",22-01-2026 08:00:00,11.875000,75.373200,PM2.5,75,110,82
India,Kerala,Kannur,"Thavakkara, Kannur - Kerala PCB",22-01-2026 08:00:00,11.875000,75.373200,OZONE,27,31,28
India,Kerala,Kollam,"Polayathode, Kollam - Kerala PCB",22-01-2026 08:00:00,8.8787,76.6073,CO,14,18,15
India,Kerala,Thiruvananthapuram,"Kariavattom, Thiruvananthapuram - Kerala PCB",22-01-2026 08:00:00,8.563700,76.886500,NO2,NA,NA,NA
India,Madhya Pradesh,Indore,"Chhoti Gwaltoli, Indore - MPPCB",22-01-2026 08:00:00,22.4310,75.5213,NH3,1,5,3
India,Madhya Pradesh,Indore,"Chhoti Gwaltoli, Indore - MPPCB",22-01-2026 08:00:00,22.4310,75.5213,OZONE,9,57,29
India,Madhya Pradesh,Indore,"Maguda Nagar, Indore - IMC",22-01-2026 08:00:00,22.7524,75.8872,OZONE,18,65,19
India,Madhya Pradesh,Indore,"Regional Park, Indore - IMC",22-01-2026 08:00:00,22.6780,75.8559,NO2,16,26,21
India,Madhya Pradesh,Indore,"Regional Park, Indore - IMC",22-01-2026 08:00:00,22.6780,75.8559,NH3,NA,NA,NA
India,Madhya Pradesh,Indore,"Regional Park, Indore - IMC",22-01-2026 08:00:00,22.6780,75.8559,SO2,7,16,11
India,Madhya Pradesh,Indore,"Residency Area, Indore - IMC",22-01-2026 08:00:00,22.7084,75.8815,SO2,3,60,9
India,Madhya Pradesh,Jabalpur,"Govindh Bhavan Colony, Jabalpur - JMC",22-01-2026 08:00:00,23.163174,79.973061,PM2.5,45,107,60
India,Madhya Pradesh,Singrauli,"Suryakiran Bhawan NCL, Singrauli - MPPCB",22-01-2026 08:00:00,24.108970,82.645580,NH3,1,1,1
India,Madhya Pradesh,Ujjain,"Mahashweta Nagar, Ujjain - MPPCB",22-01-2026 08:00:00,23.1633321,75.800225,NH3,4,15,11
India,Madhya Pradesh,Ujjain,"Mahashweta Nagar, Ujjain - MPPCB",22-01-2026 08:00:00,23.1633321,75.800225,OZONE,26,119,74
India,Maharashtra,Ahmednagar,"Tarakpur, Ahmednagar - MPCB",22-01-2026 08:00:00,19.10122,74.73339,NO2,NA,NA,NA
India,Maharashtra,Ahmednagar,"Tarakpur, Ahmednagar - MPCB",22-01-2026 08:00:00,19.10122,74.73339,SO2,NA,NA,NA
India,Maharashtra,Ahmednagar,"Tarakpur, Ahmednagar - MPCB",22-01-2026 08:00:00,19.10122,74.73339,CO,NA,NA,NA
India,Maharashtra,Akola,"Ramdaspeth, Akola - MPCB",22-01-2026 08:00:00,20.719516,77.000253,PM10,51,192,106
India,Maharashtra,Akola,"Ramdaspeth, Akola - MPCB",22-01-2026 08:00:00,20.719516,77.000253,SO2,10,33,19
India,Maharashtra,Belapur,"CBD Belapur, Belapur - MPCB",22-01-2026 08:00:00,19.0243902,73.0406721,NH3,2,2,2
India,Maharashtra,Belapur,"CBD Belapur, Belapur - MPCB",22-01-2026 08:00:00,19.0243902,73.0406721,SO2,13,34,20
India,Maharashtra,Belapur,"CBD Belapur, Belapur - MPCB",22-01-2026 08:00:00,19.0243902,73.0406721,OZONE,NA,NA,NA
India,Maharashtra,Bhiwandi,"Gokul Nagar, Bhiwandi - MPCB",22-01-2026 08:00:00,19.309073,73.057223,PM2.5,84,187,143
India,Maharashtra,Bhiwandi,"Gokul Nagar, Bhiwandi - MPCB",22-01-2026 08:00:00,19.309073,73.057223,PM10,101,191,155
India,Maharashtra,Boisar,"Khaira, Boisar - MPCB",22-01-2026 08:00:00,19.786089,72.757971,PM2.5,45,121,76
India,Maharashtra,Chandrapur,"Chauhan Colony, Chandrapur - MPCB",22-01-2026 08:00:00,19.962900,79.298714,NO2,31,43,33
India,Maharashtra,Chandrapur,"Chauhan Colony, Chandrapur - MPCB",22-01-2026 08:00:00,19.962900,79.298714,CO,20,142,89
India,Kerala,Thiruvananthapuram,"Kariavattom, Thiruvananthapuram - Kerala PCB",22-01-2026 08:00:00,8.563700,76.886500,OZONE,NA,NA,NA
India,Kerala,Thrissur,"Corporation Ground, Thrissur - Kerala PCB",22-01-2026 08:00:00,10.532400,76.215900,NO2,7,8,8
India,Madhya Pradesh,Bhopal,"Idgah Hills, Bhopal - MPPCB",22-01-2026 08:00:00,23.264759,77.381568,PM2.5,58,170,98
India,Madhya Pradesh,Bhopal,"Idgah Hills, Bhopal - MPPCB",22-01-2026 08:00:00,23.264759,77.381568,NH3,4,6,5
India,Madhya Pradesh,Bhopal,"Idgah Hills, Bhopal - MPPCB",22-01-2026 08:00:00,23.264759,77.381568,CO,18,63,27
India,Madhya Pradesh,Bhopal,"T T Nagar, Bhopal - MPPCB",22-01-2026 08:00:00,23.233584,77.400574,PM2.5,58,111,85
India,Madhya Pradesh,Bhopal,"T T Nagar, Bhopal - MPPCB",22-01-2026 08:00:00,23.233584,77.400574,CO,33,94,38
India,Madhya Pradesh,Mandideep,"Sector-D Industrial Area, Mandideep - MPPCB",22-01-2026 08:00:00,23.108440,77.511428,PM10,93,284,160
India,Madhya Pradesh,Mandideep,"Sector-D Industrial Area, Mandideep - MPPCB",22-01-2026 08:00:00,23.108440,77.511428,NH3,5,5,5
India,Madhya Pradesh,Mandideep,"Sector-D Industrial Area, Mandideep - MPPCB",22-01-2026 08:00:00,23.108440,77.511428,CO,28,70,54
India,Madhya Pradesh,Pithampur,"Sector-2 Industrial Area, Pithampur - MPPCB",22-01-2026 08:00:00,22.624758,75.675238,PM10,88,148,119
India,Madhya Pradesh,Pithampur,"Sector-2 Industrial Area, Pithampur - MPPCB",22-01-2026 08:00:00,22.624758,75.675238,NH3,2,3,2
India,Madhya Pradesh,Sagar,"Civil Lines, Sagar - MPPCB",22-01-2026 08:00:00,23.838586,78.759431,NO2,16,66,31
India,Madhya Pradesh,Sagar,"Deen Dayal Nagar, Sagar - MPPCB",22-01-2026 08:00:00,23.8640158,78.80289321,CO,8,32,12
India,Madhya Pradesh,Gwalior,"City Center, Gwalior - MPPCB",22-01-2026 08:00:00,26.203442,78.193251,CO,35,133,54
India,Madhya Pradesh,Gwalior,"Deen Dayal Nagar, Gwalior - MPPCB",22-01-2026 08:00:00,26.259242,78.216432,NO2,21,116,66
India,Madhya Pradesh,Gwalior,"Deen Dayal Nagar, Gwalior - MPPCB",22-01-2026 08:00:00,26.259242,78.216432,SO2,2,27,8
India,Madhya Pradesh,Gwalior,"Maharaj Bada, Gwalior - MPPCB",22-01-2026 08:00:00,26.200388,78.147714,PM2.5,85,362,209
India,Madhya Pradesh,Gwalior,"Maharaj Bada, Gwalior - MPPCB",22-01-2026 08:00:00,26.200388,78.147714,NO2,37,143,76
India,Madhya Pradesh,Jabalpur,"Gupteshwar, Jabalpur - JMC",22-01-2026 08:00:00,23.142888,79.916147,CO,NA,NA,NA
India,Madhya Pradesh,Jabalpur,"Suhagi, Jabalpur - JMC",22-01-2026 08:00:00,23.218135,79.957770,CO,34,128,52
India,Madhya Pradesh,Katni,"Gole Bazar, Katni - MPPCB",22-01-2026 08:00:00,23.50016,80.23284,NH3,3,5,4
India,Madhya Pradesh,Katni,"Gole Bazar, Katni - MPPCB",22-01-2026 08:00:00,23.50016,80.23284,SO2,11,107,45
India,Maharashtra,Mumbai,"Shivaji Nagar, Mumbai - BMC",22-01-2026 08:00:00,19.060498,72.923356,NH3,3,12,5
India,Maharashtra,Mumbai,"Shivaji Nagar, Mumbai - BMC",22-01-2026 08:00:00,19.060498,72.923356,CO,30,115,31
India,Maharashtra,Mumbai,"Shivaji Nagar, Mumbai - BMC",22-01-2026 08:00:00,19.060498,72.923356,OZONE,1,59,2
India,Maharashtra,Mumbai,"Sion, Mumbai - MPCB",22-01-2026 08:00:00,19.047000,72.874600,NO2,35,39,37
India,Maharashtra,Mumbai,"Sion, Mumbai - MPCB",22-01-2026 08:00:00,19.047000,72.874600,CO,8,17,16
India,Maharashtra,Mumbai,"Vile Parle West, Mumbai - MPCB",22-01-2026 08:00:00,19.10861,72.83622,NH3,6,6,6
India,Maharashtra,Mumbai,"Vile Parle West, Mumbai - MPCB",22-01-2026 08:00:00,19.10861,72.83622,CO,88,103,102
India,Maharashtra,Nagpur,"Ambazari, Nagpur - MPCB",22-01-2026 08:00:00,21.121801,79.04952,OZONE,1,75,11
India,Maharashtra,Nagpur,"Mahal, Nagpur - MPCB",22-01-2026 08:00:00,21.14472,79.107595,PM2.5,99,305,190
India,Maharashtra,Nagpur,"Mahal, Nagpur - MPCB",22-01-2026 08:00:00,21.14472,79.107595,NH3,7,9,8
India,Maharashtra,Mumbai,"Mindspace-Malad West, Mumbai - MPCB",22-01-2026 08:00:00,19.1878657,72.8304069,NO2,21,122,69
India,Maharashtra,Mumbai,"Mulund West, Mumbai - MPCB",22-01-2026 08:00:00,19.1750,72.9419,NH3,NA,NA,NA
India,Maharashtra,Mumbai,"Mulund West, Mumbai - MPCB",22-01-2026 08:00:00,19.1750,72.9419,SO2,NA,NA,NA
India,Maharashtra,Mumbai,"Navy Nagar-Colaba, Mumbai - IITM",22-01-2026 08:00:00,18.897756,72.813320,NO2,44,199,99
India,Maharashtra,Mumbai,"Navy Nagar-Colaba, Mumbai - IITM",22-01-2026 08:00:00,18.897756,72.813320,NH3,5,12,8
India,Maharashtra,Mumbai,"Powai, Mumbai - MPCB",22-01-2026 08:00:00,19.137500,72.915056,NO2,7,8,8
India,Maharashtra,Mumbai,"Sewri, Mumbai - BMC",22-01-2026 08:00:00,19.000084,72.856730,CO,19,102,71
India,Maharashtra,Mumbai,"Shivaji Nagar, Mumbai - BMC",22-01-2026 08:00:00,19.060498,72.923356,PM2.5,56,102,78
India,Maharashtra,Mahad,"Kamble Tarf Birwadi, Mahad - MPCB",22-01-2026 08:00:00,18.1023399,73.4783687,CO,1,55,3
India,Maharashtra,Malegaon,"Mahesh Nagar, Malegaon - MPCB",22-01-2026 08:00:00,20.555712,74.529236,CO,24,117,35
India,Maharashtra,Mira-Bhayandar,"Bhayandar West, Mira-Bhayandar - MPCB",22-01-2026 08:00:00,19.296481,72.840923,PM10,90,192,127
India,Maharashtra,Mumbai,"Bandra Kurla Complex, Mumbai - IITM",22-01-2026 08:00:00,19.053536,72.84643,CO,22,76,57
India,Maharashtra,Mumbai,"Bandra Kurla Complex, Mumbai - MPCB",22-01-2026 08:00:00,19.065931,72.862131,SO2,5,10,7
India,Maharashtra,Mumbai,"Borivali East, Mumbai - IITM",22-01-2026 08:00:00,19.23241,72.86895,PM2.5,64,142,93
India,Maharashtra,Mumbai,"Chhatrapati Shivaji Intl. Airport (T2), Mumbai - MPCB",22-01-2026 08:00:00,19.10078,72.87462,SO2,20,21,21
India,Maharashtra,Mumbai,"Chhatrapati Shivaji Intl. Airport (T2), Mumbai - MPCB",22-01-2026 08:00:00,19.10078,72.87462,OZONE,7,8,7
India,Maharashtra,Mumbai,"Colaba, Mumbai - MPCB",22-01-2026 08:00:00,18.910000,72.820000,PM2.5,46,91,67
India,Maharashtra,Mumbai,"Deonar, Mumbai - IITM",22-01-2026 08:00:00,19.04946,72.9230,PM2.5,53,188,124
India,Maharashtra,Mumbai,"Deonar, Mumbai - IITM",22-01-2026 08:00:00,19.04946,72.9230,NO2,21,78,36
India,Maharashtra,Mumbai,"Deonar, Mumbai - IITM",22-01-2026 08:00:00,19.04946,72.9230,CO,38,83,65
India,Maharashtra,Mumbai,"Kandivali East, Mumbai - MPCB",22-01-2026 08:00:00,19.205800,72.868200,SO2,23,27,25
India,Maharashtra,Mumbai,"Kandivali East, Mumbai - MPCB",22-01-2026 08:00:00,19.205800,72.868200,OZONE,17,18,18
India,Maharashtra,Kalyan,"Pimpleshwar Mandir, Kalyan - MPCB",22-01-2026 08:00:00,19.192056,72.9585188,CO,26,26,26
India,Maharashtra,Kolhapur,"Shivaji University, Kolhapur - MPCB",22-01-2026 08:00:00,16.6870449,74.2505872,CO,10,59,42
India,Maharashtra,Latur,"Sawe Wadi, Latur - MPCB",22-01-2026 08:00:00,18.39963,76.57452,PM2.5,70,90,80
India,Maharashtra,Latur,"Sawe Wadi, Latur - MPCB",22-01-2026 08:00:00,18.39963,76.57452,NO2,16,82,31
India,Maharashtra,Latur,"Sawe Wadi, Latur - MPCB",22-01-2026 08:00:00,18.39963,76.57452,SO2,4,11,7
India,Maharashtra,Mahad,"Kamble Tarf Birwadi, Mahad - MPCB",22-01-2026 08:00:00,18.1023399,73.4783687,PM2.5,62,104,79
India,Maharashtra,Mahad,"Kamble Tarf Birwadi, Mahad - MPCB",22-01-2026 08:00:00,18.1023399,73.4783687,NO2,15,91,35
India,Maharashtra,Nagpur,"Opp GPO Civil Lines, Nagpur - MPCB",22-01-2026 08:00:00,21.152875,79.0517531,SO2,4,44,18
India,Maharashtra,Nagpur,"Opp GPO Civil Lines, Nagpur - MPCB",22-01-2026 08:00:00,21.152875,79.0517531,CO,22,128,58
India,Maharashtra,Nashik,"Gangapur Road, Nashik - MPCB",22-01-2026 08:00:00,20.0073285,73.7762427,NO2,5,5,5
India,Maharashtra,Nashik,"Gangapur Road, Nashik - MPCB",22-01-2026 08:00:00,20.0073285,73.7762427,NH3,3,3,3
India,Maharashtra,Nashik,"Gangapur Road, Nashik - MPCB",22-01-2026 08:00:00,20.0073285,73.7762427,OZONE,9,47,47
India,Maharashtra,Nashik,"Hirawadi, Nashik - MPCB",22-01-2026 08:00:00,20.021503,73.813844,PM2.5,1,127,67
India,Maharashtra,Chandrapur,"MIDC Khutala, Chandrapur - MPCB",22-01-2026 08:00:00,19.9775302,79.2337086,SO2,8,9,9
India,Maharashtra,Jalgaon,"Prabhat Colony, Jalgaon - MPCB",22-01-2026 08:00:00,21.001264,75.565602,PM10,78,422,121
India,Maharashtra,Jalgaon,"Prabhat Colony, Jalgaon - MPCB",22-01-2026 08:00:00,21.001264,75.565602,SO2,3,20,8
India,Maharashtra,Jalgaon,"Prabhat Colony, Jalgaon - MPCB",22-01-2026 08:00:00,21.001264,75.565602,CO,18,62,18
India,Maharashtra,Kalyan,"Khadakpada, Kalyan - MPCB",22-01-2026 08:00:00,19.25292,73.142019,PM2.5,69,286,149
India,Maharashtra,Mumbai,"Kherwadi_Bandra East, Mumbai - MPCB",22-01-2026 08:00:00,19.0632143,72.8456324,NO2,1,91,42
India,Maharashtra,Mumbai,"Khindipada-Bhandup West, Mumbai - IITM",22-01-2026 08:00:00,19.1653323,72.922099,SO2,2,25,10
India,Maharashtra,Mumbai,"Kurla, Mumbai - MPCB",22-01-2026 08:00:00,19.0863,72.8888,OZONE,28,29,28
India,Maharashtra,Mumbai,"Mazgaon, Mumbai - IITM",22-01-2026 08:00:00,18.96702,72.84214,PM2.5,76,198,125
India,Maharashtra,Mumbai,"Chakala-Andheri East, Mumbai - IITM",22-01-2026 08:00:00,19.11074,72.86084,PM10,107,185,136
India,Maharashtra,Mumbai,"Chakala-Andheri East, Mumbai - IITM",22-01-2026 08:00:00,19.11074,72.86084,OZONE,4,95,24
India,Maharashtra,Mumbai,"Chembur, Mumbai - MPCB",22-01-2026 08:00:00,19.0364585,72.8954371,PM10,82,128,110
India,Maharashtra,Pune,"Dhankawadi, Pune - IITM",22-01-2026 08:00:00,18.459883,73.852193,CO,4,119,33
India,Maharashtra,Pune,"Dhankawadi, Pune - IITM",22-01-2026 08:00:00,18.459883,73.852193,OZONE,4,28,11
India,Maharashtra,Pune,"Hadapsar, Pune - IITM",22-01-2026 08:00:00,18.501793,73.927532,PM2.5,114,314,223
India,Maharashtra,Pune,"Hadapsar, Pune - IITM",22-01-2026 08:00:00,18.501793,73.927532,NO2,24,60,43
India,Maharashtra,Pune,"Katraj Dairy, Pune - MPCB",22-01-2026 08:00:00,18.454450,73.854155,PM2.5,43,55,49
India,Maharashtra,Pune,"Katraj Dairy, Pune - MPCB",22-01-2026 08:00:00,18.454450,73.854155,NH3,2,7,4
India,Maharashtra,Pune,"Katraj Dairy, Pune - MPCB",22-01-2026 08:00:00,18.454450,73.854155,SO2,3,5,4
India,Maharashtra,Pune,"Panchawati_Pashan, Pune - IITM",22-01-2026 08:00:00,18.536457,73.805454,PM2.5,58,252,132
India,Maharashtra,Pune,"Panchawati_Pashan, Pune - IITM",22-01-2026 08:00:00,18.536457,73.805454,CO,20,45,30
India,Maharashtra,Pune,"Revenue Colony-Shivajinagar, Pune - IITM",22-01-2026 08:00:00,18.530085,73.849598,NO2,45,142,93
India,Maharashtra,Pune,"Transport Nagar-Nigdi, Pune - IITM",22-01-2026 08:00:00,18.664282,73.763966,CO,39,66,58
India,Maharashtra,Sangli,"Vijay Nagar, Sangli - MPCB",22-01-2026 08:00:00, 16.5038,74.3623,PM2.5,12,182,85
India,Maharashtra,Sangli,"Vijay Nagar, Sangli - MPCB",22-01-2026 08:00:00, 16.5038,74.3623,SO2,3,32,18
India,Maharashtra,Sangli,"Vijay Nagar, Sangli - MPCB",22-01-2026 08:00:00, 16.5038,74.3623,OZONE,6,77,29
India,Maharashtra,Solapur,"Dnyaneshwar Nagar, Solapur - MPCB",22-01-2026 08:00:00,17.6336264,75.9132495,NO2,9,64,25
India,Maharashtra,Solapur,"Dnyaneshwar Nagar, Solapur - MPCB",22-01-2026 08:00:00,17.6336264,75.9132495,CO,8,104,19
India,Maharashtra,Solapur,"Dnyaneshwar Nagar, Solapur - MPCB",22-01-2026 08:00:00,17.6336264,75.9132495,OZONE,10,83,53
India,Maharashtra,Solapur,"Ratandeep Housing Society, Solapur - MPCB",22-01-2026 08:00:00,17.65439,75.90649,NO2,NA,NA,NA
India,Maharashtra,Solapur,"Ratandeep Housing Society, Solapur - MPCB",22-01-2026 08:00:00,17.65439,75.90649,SO2,NA,NA,NA
India,Maharashtra,Solapur,"Ratandeep Housing Society, Solapur - MPCB",22-01-2026 08:00:00,17.65439,75.90649,OZONE,NA,NA,NA
India,Odisha,Byasanagar,"Ferro Chrome Colony, Byasanagar - OSPCB",22-01-2026 08:00:00,20.94185,86.11510,OZONE,38,202,60
India,Odisha,Cuttack,"CDA Area, Cuttack - OSPCB",22-01-2026 08:00:00,20.48891     ,85.84768     ,OZONE,4,230,16
India,Odisha,Keonjhar,"Jagamohanpur, Keonjhar - OSPCB",22-01-2026 08:00:00,21.643900,85.599355,NO2,NA,NA,NA
India,Odisha,Nayagarh,"Dabuna, Nayagarh - OSPCB",22-01-2026 08:00:00,21.847279,85.416905,OZONE,NA,NA,NA
India,Odisha,Rairangpur,"Divisional Forest Office, Rairangpur - OSPCB",22-01-2026 08:00:00,22.265816,86.174829,SO2,1,99,18
India,Odisha,Rourkela,"Fertilizer Township, Rourkela - OSPCB",22-01-2026 08:00:00,22.18972222,84.86277778,PM10,106,117,108
India,Nagaland,Kohima,"PWD Junction, Kohima - NPCB",22-01-2026 08:00:00,25.6635413,94.0989878,PM2.5,28,83,44
India,Odisha,Angul,"Hakimapada, Angul - OSPCB",22-01-2026 08:00:00,20.832874,85.104082,NO2,13,94,57
India,Odisha,Angul,"Hakimapada, Angul - OSPCB",22-01-2026 08:00:00,20.832874,85.104082,SO2,5,99,23
India,Odisha,Balasore,"Kalidaspur, Balasore - OSPCB",22-01-2026 08:00:00,21.51161,86.89088,PM2.5,127,328,218
India,Odisha,Balasore,"Kalidaspur, Balasore - OSPCB",22-01-2026 08:00:00,21.51161,86.89088,NH3,2,6,4
India,Odisha,Balasore,"Kalidaspur, Balasore - OSPCB",22-01-2026 08:00:00,21.51161,86.89088,CO,26,105,48
India,Odisha,Bhubaneswar,"Lingraj Mandir, Bhubaneswar - OSPCB",22-01-2026 08:00:00,20.240790,85.836784,PM2.5,53,307,171
India,Maharashtra,Thane,"Kasarvadavali, Thane - MPCB",22-01-2026 08:00:00,19.26777,72.97182,CO,14,64,41
India,Maharashtra,Thane,"Upvan Fort, Thane - MPCB",22-01-2026 08:00:00,19.222279,72.957979,PM2.5,46,136,80
India,Maharashtra,Thane,"Upvan Fort, Thane - MPCB",22-01-2026 08:00:00,19.222279,72.957979,NO2,45,51,48
India,Maharashtra,Thane,"Upvan Fort, Thane - MPCB",22-01-2026 08:00:00,19.222279,72.957979,OZONE,7,83,32
India,Maharashtra,Ulhasnagar,"Sidhi Vinayak Nagar, Ulhasnagar - MPCB",22-01-2026 08:00:00,19.235581,73.159121,PM2.5,91,296,178
India,Maharashtra,Ulhasnagar,"Sidhi Vinayak Nagar, Ulhasnagar - MPCB",22-01-2026 08:00:00,19.235581,73.159121,SO2,10,29,15
India,Maharashtra,Virar,"Bolinj, Virar - MPCB",22-01-2026 08:00:00,19.4458210,72.7988231,NO2,40,168,83
India,Odisha,Bhubaneswar,"Lingraj Mandir, Bhubaneswar - OSPCB",22-01-2026 08:00:00,20.240790,85.836784,CO,59,122,98
India,Odisha,Bhubaneswar,"Patia, Bhubaneswar - OSPCB",22-01-2026 08:00:00,20.34652,85.81630,PM10,74,264,152
India,Odisha,Bhubaneswar,"Patia, Bhubaneswar - OSPCB",22-01-2026 08:00:00,20.34652,85.81630,CO,6,115,106
India,Odisha,Brajrajnagar,"GM Office, Brajrajnagar - OSPCB",22-01-2026 08:00:00,21.8004996,83.8396977,OZONE,28,33,29
India,Odisha,Byasanagar,"Ferro Chrome Colony, Byasanagar - OSPCB",22-01-2026 08:00:00,20.94185,86.11510,CO,15,106,65
India,Maharashtra,Pimpri-Chinchwad,"Gavalinagar, Pimpri Chinchwad - MPCB",22-01-2026 08:00:00,18.63673,73.82487,OZONE,12,62,12
India,Maharashtra,Pimpri-Chinchwad,"Savta Mali Nagar, Pimpri-Chinchwad - IITM",22-01-2026 08:00:00,18.614767,73.799516,CO,NA,NA,NA
India,Maharashtra,Pimpri-Chinchwad,"Thergaon, Pimpri Chinchwad - MPCB",22-01-2026 08:00:00,18.616318,73.765797,PM10,86,152,120
India,Maharashtra,Pimpri-Chinchwad,"Thergaon, Pimpri Chinchwad - MPCB",22-01-2026 08:00:00,18.616318,73.765797,CO,23,103,58
India,Maharashtra,Nashik,"Pandav Nagari, Nashik - MPCB",22-01-2026 08:00:00,19.9591346,73.7788008,PM2.5,77,164,116
India,Maharashtra,Navi Mumbai,"Kopripada-Vashi, Navi Mumbai - MPCB",22-01-2026 08:00:00,19.090337,73.014232,NO2,20,83,51
India,Maharashtra,Navi Mumbai,"Mahape, Navi Mumbai - MPCB",22-01-2026 08:00:00,19.1135051,73.008978,NO2,33,36,35
India,Maharashtra,Navi Mumbai,"Sanpada, Navi Mumbai - MPCB",22-01-2026 08:00:00,19.0575752,73.0151367,PM2.5,35,325,153
India,Maharashtra,Navi Mumbai,"Sector-2E Kalamboli, Navi Mumbai - MPCB",22-01-2026 08:00:00,19.02579,73.10297,PM10,46,165,95
India,Maharashtra,Navi Mumbai,"Sector-2E Kalamboli, Navi Mumbai - MPCB",22-01-2026 08:00:00,19.02579,73.10297,NO2,17,78,43
India,Rajasthan,Jalore,"Mudtra Sili, Jalore - RSPCB",22-01-2026 08:00:00,25.344694,72.626208,NH3,NA,NA,NA
India,Rajasthan,Jalore,"Mudtra Sili, Jalore - RSPCB",22-01-2026 08:00:00,25.344694,72.626208,OZONE,1,101,9
India,Rajasthan,Jhalawar,"Rajlaxmi Nagar, Jhalawar - RSPCB",22-01-2026 08:00:00,24.588397,76.172782,OZONE,13,108,18
India,Rajasthan,Jhunjhunu,"Indra Nagar, Jhunjhunu - RSPCB",22-01-2026 08:00:00,28.108988,75.386577,PM10,NA,NA,NA
India,Rajasthan,Jhunjhunu,"Indra Nagar, Jhunjhunu - RSPCB",22-01-2026 08:00:00,28.108988,75.386577,CO,NA,NA,NA
India,Rajasthan,Jhunjhunu,"Indra Nagar, Jhunjhunu - RSPCB",22-01-2026 08:00:00,28.108988,75.386577,OZONE,NA,NA,NA
India,Rajasthan,Jodhpur,"Collectorate, Jodhpur - RSPCB",22-01-2026 08:00:00,26.268249,73.0193853,PM2.5,48,239,74
India,Rajasthan,Jodhpur,"Digari Kalan, Jodhpur - RSPCB",22-01-2026 08:00:00,26.295810,73.082283,PM2.5,47,277,117
India,Rajasthan,Jodhpur,"Jhalamand, Jodhpur - RSPCB",22-01-2026 08:00:00,26.215415,73.070156,PM2.5,35,322,130
India,Rajasthan,Dausa,"Khatikan Mohalla, Dausa - RSPCB",22-01-2026 08:00:00,26.895552,76.334753,NH3,8,11,9
India,Rajasthan,Dausa,"Khatikan Mohalla, Dausa - RSPCB",22-01-2026 08:00:00,26.895552,76.334753,SO2,1,26,7
India,Rajasthan,Dausa,"Khatikan Mohalla, Dausa - RSPCB",22-01-2026 08:00:00,26.895552,76.334753,OZONE,4,100,63
India,Rajasthan,Dholpur,"Raja Ganj, Dholpur - RSPCB",22-01-2026 08:00:00,26.699557,77.898881,SO2,2,19,9
India,Rajasthan,Hanumangarh,"Housing Board, Hanumangarh - RSPCB",22-01-2026 08:00:00,29.610750,74.283608,PM10,129,389,203
India,Rajasthan,Hanumangarh,"Housing Board, Hanumangarh - RSPCB",22-01-2026 08:00:00,29.610750,74.283608,NO2,29,133,61
India,Rajasthan,Jaipur,"Adarsh Nagar, Jaipur - RSPCB",22-01-2026 08:00:00,26.902909,75.836858,PM10,108,161,125
India,Rajasthan,Jaipur,"Adarsh Nagar, Jaipur - RSPCB",22-01-2026 08:00:00,26.902909,75.836858,NH3,11,30,17
India,Rajasthan,Jaipur,"Mansarovar Sector-12, Jaipur - RSPCB",22-01-2026 08:00:00,26.843698,75.766894,NH3,12,20,15
India,Rajasthan,Bhiwadi,"Vasundhara Nagar_UIT, Bhiwadi - RSPCB",22-01-2026 08:00:00,28.207266,76.829265,CO,50,138,89
India,Rajasthan,Bikaner,"MM Ground, Bikaner - RSPCB",22-01-2026 08:00:00,28.018792,73.292658,NH3,3,12,8
India,Rajasthan,Bikaner,"MM Ground, Bikaner - RSPCB",22-01-2026 08:00:00,28.018792,73.292658,OZONE,6,102,71
India,Rajasthan,Bundi,"New Colony, Bundi - RSPCB",22-01-2026 08:00:00,25.435774,75.644272,PM2.5,96,320,190
India,Rajasthan,Chittorgarh,"Shastri Nagar, Chittorgarh - RSPCB",22-01-2026 08:00:00,24.892047,74.623527,PM10,78,257,149
India,Rajasthan,Chittorgarh,"Shastri Nagar, Chittorgarh - RSPCB",22-01-2026 08:00:00,24.892047,74.623527,NO2,21,86,49
India,Rajasthan,Churu,"Subash Chowk, Churu - RSPCB",22-01-2026 08:00:00,28.296139,74.961696,PM10,118,312,179
India,Rajasthan,Churu,"Subash Chowk, Churu - RSPCB",22-01-2026 08:00:00,28.296139,74.961696,SO2,4,6,5
India,Rajasthan,Jodhpur,"Jhalamand, Jodhpur - RSPCB",22-01-2026 08:00:00,26.215415,73.070156,NO2,7,92,37
India,Rajasthan,Jodhpur,"Jhalamand, Jodhpur - RSPCB",22-01-2026 08:00:00,26.215415,73.070156,SO2,2,16,6
India,Rajasthan,Jodhpur,"Mandor, Jodhpur - RSPCB",22-01-2026 08:00:00,26.358805,73.047444,NH3,4,6,4
India,Rajasthan,Jodhpur,"Mandor, Jodhpur - RSPCB",22-01-2026 08:00:00,26.358805,73.047444,CO,3,36,11
India,Rajasthan,Jodhpur,"Samrat Ashok Udhyan, Jodhpur - RSPCB",22-01-2026 08:00:00,26.253384,72.976571,PM2.5,48,401,115
India,Rajasthan,Jodhpur,"Samrat Ashok Udhyan, Jodhpur - RSPCB",22-01-2026 08:00:00,26.253384,72.976571,CO,24,119,46
India,Rajasthan,Karauli,"Satyawati Vihar, Karauli - RSPCB",22-01-2026 08:00:00,26.506177,77.025989,NO2,30,103,44
India,Rajasthan,Karauli,"Satyawati Vihar, Karauli - RSPCB",22-01-2026 08:00:00,26.506177,77.025989,SO2,2,7,4
India,Rajasthan,Kota,"Dhanmandi, Kota - RSPCB",22-01-2026 08:00:00,25.164090,75.858137,CO,16,113,64
India,Rajasthan,Baran,"Bamboliya, Baran - RSPCB",22-01-2026 08:00:00,25.106006,76.469948,NH3,9,13,10
India,Rajasthan,Baran,"Bamboliya, Baran - RSPCB",22-01-2026 08:00:00,25.106006,76.469948,OZONE,2,122,19
India,Rajasthan,Barmer,"Railway Colony, Barmer - RSPCB",22-01-2026 08:00:00,25.747299,71.393989,NH3,6,8,7
India,Rajasthan,Barmer,"Railway Colony, Barmer - RSPCB",22-01-2026 08:00:00,25.747299,71.393989,CO,16,93,28
India,Rajasthan,Bharatpur,"Krishna Nagar, Bharatpur - RSPCB",22-01-2026 08:00:00,27.215415,77.50873,SO2,4,15,8
India,Rajasthan,Bhilwara,"Pratap Nagar, Bhilwara - RSPCB",22-01-2026 08:00:00,25.339605,74.618883,NO2,16,73,27
India,Rajasthan,Bhiwadi,"Vasundhara Nagar_UIT, Bhiwadi - RSPCB",22-01-2026 08:00:00,28.207266,76.829265,PM2.5,103,471,299
India,Rajasthan,Jaipur,"Police Commissionerate, Jaipur - RSPCB",22-01-2026 08:00:00,26.9164092,75.7994901,PM2.5,55,263,137
India,Rajasthan,Jaipur,"Police Commissionerate, Jaipur - RSPCB",22-01-2026 08:00:00,26.9164092,75.7994901,NH3,5,32,13
India,Rajasthan,Jaipur,"Police Commissionerate, Jaipur - RSPCB",22-01-2026 08:00:00,26.9164092,75.7994901,CO,70,76,72
India,Rajasthan,Jaipur,"RIICO Sitapura, Jaipur - RSPCB",22-01-2026 08:00:00,26.786682,75.827928,NH3,4,7,6
India,Rajasthan,Jaipur,"RIICO Sitapura, Jaipur - RSPCB",22-01-2026 08:00:00,26.786682,75.827928,OZONE,26,139,58
India,Rajasthan,Jaipur,"Shastri Nagar, Jaipur - RSPCB",22-01-2026 08:00:00,26.9502929,75.730943,PM2.5,92,313,229
India,Rajasthan,Jaipur,"Shastri Nagar, Jaipur - RSPCB",22-01-2026 08:00:00,26.9502929,75.730943,OZONE,17,68,32
India,Rajasthan,Jalore,"Mudtra Sili, Jalore - RSPCB",22-01-2026 08:00:00,25.344694,72.626208,PM2.5,63,283,135
India,Punjab,Amritsar,"Golden Temple, Amritsar - PPCB",22-01-2026 08:00:00,31.620000,74.876512,OZONE,32,44,37
India,Punjab,Bathinda,"Hardev Nagar, Bathinda - PPCB",22-01-2026 08:00:00,30.233011,74.907758,CO,58,80,76
India,Punjab,Ludhiana,"Punjab Agricultural University, Ludhiana - PPCB",22-01-2026 08:00:00,30.9028,75.8086,PM2.5,78,273,159
India,Punjab,Ludhiana,"Punjab Agricultural University, Ludhiana - PPCB",22-01-2026 08:00:00,30.9028,75.8086,PM10,94,183,136
India,Punjab,Ludhiana,"Punjab Agricultural University, Ludhiana - PPCB",22-01-2026 08:00:00,30.9028,75.8086,CO,18,74,57
India,Punjab,Mandi Gobindgarh,"RIMT University, Mandi Gobindgarh - PPCB",22-01-2026 08:00:00,30.649961,76.331442,NH3,6,6,6
India,Punjab,Mandi Gobindgarh,"RIMT University, Mandi Gobindgarh - PPCB",22-01-2026 08:00:00,30.649961,76.331442,CO,2,127,38
India,Odisha,Rourkela,"Sector-2, Rourkela - OSPCB",22-01-2026 08:00:00,22.24500000,84.88111111,PM2.5,84,222,114
India,Odisha,Rourkela,"Sector-2, Rourkela - OSPCB",22-01-2026 08:00:00,22.24500000,84.88111111,PM10,105,138,117
India,Odisha,Suakati,"OMC Colony, Suakati - OSPCB",22-01-2026 08:00:00,21.606865,85.510538,NH3,6,6,6
India,Odisha,Talcher,"Talcher Coalfields,Talcher - OSPCB",22-01-2026 08:00:00,20.9360711,85.1707021,SO2,1,52,20
India,Puducherry,Puducherry,"Jawahar Nagar, Puducherry - PPCC",22-01-2026 08:00:00,11.9309,79.8027,PM2.5,28,165,63
India,Puducherry,Puducherry,"Jawahar Nagar, Puducherry - PPCC",22-01-2026 08:00:00,11.9309,79.8027,OZONE,29,69,32
India,Rajasthan,Ajmer,"Civil Lines,  Ajmer - RSPCB",22-01-2026 08:00:00,26.470859,74.646594,PM2.5,70,149,97
India,Rajasthan,Alwar,"Moti Doongri, Alwar - RSPCB",22-01-2026 08:00:00,27.554793,76.611536,NO2,39,46,42
India,Rajasthan,Alwar,"Moti Doongri, Alwar - RSPCB",22-01-2026 08:00:00,27.554793,76.611536,SO2,11,47,27
India,Rajasthan,Banswara,"Rati Talai, Banswara - RSPCB",22-01-2026 08:00:00,23.555190,74.440010,PM10,50,230,92
India,Uttar_Pradesh,Agra,"Manoharpur, Agra - UPPCB",22-01-2026 08:00:00,27.23711,78.01936,PM2.5,92,226,166
India,Uttar_Pradesh,Agra,"Manoharpur, Agra - UPPCB",22-01-2026 08:00:00,27.23711,78.01936,NO2,37,37,37
India,Uttar_Pradesh,Agra,"Manoharpur, Agra - UPPCB",22-01-2026 08:00:00,27.23711,78.01936,CO,22,24,22
India,Uttar_Pradesh,Agra,"Manoharpur, Agra - UPPCB",22-01-2026 08:00:00,27.23711,78.01936,OZONE,6,6,6
India,Uttar_Pradesh,Agra,"Rohta, Agra - UPPCB",22-01-2026 08:00:00,27.106972,78.000111,NO2,13,13,13
India,Uttar_Pradesh,Agra,"Rohta, Agra - UPPCB",22-01-2026 08:00:00,27.106972,78.000111,CO,16,48,37
India,Uttar_Pradesh,Agra,"Sanjay Palace, Agra - UPPCB",22-01-2026 08:00:00,27.19865833,78.00598056,CO,NA,NA,NA
India,Uttar_Pradesh,Agra,"Sanjay Palace, Agra - UPPCB",22-01-2026 08:00:00,27.19865833,78.00598056,OZONE,NA,NA,NA
India,Uttar_Pradesh,Agra,"Sector-3B Avas Vikas Colony, Agra - UPPCB",22-01-2026 08:00:00,27.19412,77.96237,PM2.5,103,351,250
India,Uttar_Pradesh,Agra,"Sector-3B Avas Vikas Colony, Agra - UPPCB",22-01-2026 08:00:00,27.19412,77.96237,NH3,7,14,12
India,Uttar_Pradesh,Agra,"Sector-3B Avas Vikas Colony, Agra - UPPCB",22-01-2026 08:00:00,27.19412,77.96237,SO2,10,17,15
India,Uttar_Pradesh,Agra,"Shahjahan Garden, Agra - UPPCB",22-01-2026 08:00:00,27.169338,78.03582,NO2,8,11,10
India,Uttar_Pradesh,Agra,"Shahjahan Garden, Agra - UPPCB",22-01-2026 08:00:00,27.169338,78.03582,SO2,25,33,29
India,Rajasthan,Rajsamand,"Dhoinda, Rajsamand - RSPCB",22-01-2026 08:00:00,25.036360,73.883502,OZONE,2,111,7
India,Rajasthan,Sawai Madhopur,"Sahu Nagar, Sawai Madhopur - RSPCB",22-01-2026 08:00:00,26.031443,76.359327,NH3,2,7,5
India,Rajasthan,Sikar,"Radhakishan Pura, Sikar - RSPCB",22-01-2026 08:00:00,27.608912,75.153302,PM2.5,82,413,264
India,Rajasthan,Sikar,"Radhakishan Pura, Sikar - RSPCB",22-01-2026 08:00:00,27.608912,75.153302,NO2,9,111,31
India,Rajasthan,Sirohi,"Vedhaynath Colony, Sirohi - RSPCB",22-01-2026 08:00:00,24.885261,72.857549,PM10,40,120,65
India,Rajasthan,Sirohi,"Vedhaynath Colony, Sirohi - RSPCB",22-01-2026 08:00:00,24.885261,72.857549,NH3,NA,NA,NA
India,Rajasthan,Sri Ganganagar,"Old City, Sri Ganganagar - RSPCB",22-01-2026 08:00:00,29.931624,73.864511,PM10,102,445,168
India,Rajasthan,Sri Ganganagar,"Old City, Sri Ganganagar - RSPCB",22-01-2026 08:00:00,29.931624,73.864511,NH3,4,43,13
India,Rajasthan,Sri Ganganagar,"Old City, Sri Ganganagar - RSPCB",22-01-2026 08:00:00,29.931624,73.864511,CO,23,172,41
India,Rajasthan,Tonk,"Shastri Nagar, Tonk - RSPCB",22-01-2026 08:00:00,26.159933,75.780517,PM10,118,500,230
India,TamilNadu,Gummidipoondi,"Anthoni Pillai Nagar, Gummidipoondi - TNPCB",22-01-2026 08:00:00,13.4127,80.1081,PM10,82,226,137
India,TamilNadu,Gummidipoondi,"Anthoni Pillai Nagar, Gummidipoondi - TNPCB",22-01-2026 08:00:00,13.4127,80.1081,NH3,1,1,1
India,TamilNadu,Madurai,"Uchapatti, Madurai - TNPCB",22-01-2026 08:00:00,9.865935,78.022669,PM10,NA,NA,NA
India,TamilNadu,Madurai,"Uchapatti, Madurai - TNPCB",22-01-2026 08:00:00,9.865935,78.022669,SO2,NA,NA,NA
India,TamilNadu,Nagapattinam,"Velippalayam, Nagapattinam - TNPCB",22-01-2026 08:00:00,10.798548,79.838212,PM10,23,116,52
India,TamilNadu,Nagapattinam,"Velippalayam, Nagapattinam - TNPCB",22-01-2026 08:00:00,10.798548,79.838212,NH3,2,2,2
India,TamilNadu,Ooty,"Bombay Castel, Ooty - TNPCB",22-01-2026 08:00:00,11.4068288,76.7138973,SO2,13,14,14
India,TamilNadu,Perundurai,"SIPCOT Industrial Park, Perundurai - TNPCB",22-01-2026 08:00:00,11.258242,77.552761,NO2,13,15,14
India,TamilNadu,Pudukottai,"SIPCOT Nathampannai, Pudukottai - TNPCB",22-01-2026 08:00:00,10.423417,78.784889,PM10,49,140,72
India,TamilNadu,Pudukottai,"SIPCOT Nathampannai, Pudukottai - TNPCB",22-01-2026 08:00:00,10.423417,78.784889,NO2,4,14,7
India,Telangana,Hyderabad,"ICRISAT Patancheru, Hyderabad - TSPCB",22-01-2026 08:00:00,17.518400,78.278777,NO2,1,48,22
India,Telangana,Hyderabad,"ICRISAT Patancheru, Hyderabad - TSPCB",22-01-2026 08:00:00,17.518400,78.278777,SO2,3,15,7
India,Telangana,Hyderabad,"IDA Pashamylaram, Hyderabad - TSPCB",22-01-2026 08:00:00,17.5316895,78.218939,NH3,NA,NA,NA
India,Telangana,Hyderabad,"IDA Pashamylaram, Hyderabad - TSPCB",22-01-2026 08:00:00,17.5316895,78.218939,CO,29,72,47
India,Telangana,Hyderabad,"IITH Kandi, Hyderabad - TSPCB",22-01-2026 08:00:00,17.585705,78.126199,PM2.5,31,73,52
India,Telangana,Hyderabad,"IITH Kandi, Hyderabad - TSPCB",22-01-2026 08:00:00,17.585705,78.126199,PM10,64,67,65
India,Telangana,Hyderabad,"IITH Kandi, Hyderabad - TSPCB",22-01-2026 08:00:00,17.585705,78.126199,NO2,17,17,17
India,Telangana,Hyderabad,"IITH Kandi, Hyderabad - TSPCB",22-01-2026 08:00:00,17.585705,78.126199,OZONE,21,34,21
India,Telangana,Hyderabad,"Kokapet, Hyderabad - TSPCB",22-01-2026 08:00:00,17.393559,78.339194,OZONE,16,34,17
India,Telangana,Hyderabad,"Kompally Municipal Office, Hyderabad - TSPCB",22-01-2026 08:00:00,17.544899,78.486949,PM10,61,99,74
India,Telangana,Hyderabad,"Nacharam_TSIIC IALA, Hyderabad - TSPCB",22-01-2026 08:00:00,17.429398,78.569354,SO2,10,18,12
India,Telangana,Hyderabad,"Nacharam_TSIIC IALA, Hyderabad - TSPCB",22-01-2026 08:00:00,17.429398,78.569354,CO,20,38,34
India,Telangana,Hyderabad,"New Malakpet, Hyderabad - TSPCB",22-01-2026 08:00:00,17.37206,78.50864,NH3,2,3,2
India,Telangana,Hyderabad,"Ramachandrapuram, Hyderabad - TSPCB",22-01-2026 08:00:00,17.528544,78.286195,OZONE,24,33,30
India,Telangana,Hyderabad,"Sanathnagar, Hyderabad - TSPCB",22-01-2026 08:00:00,17.4559458,78.4332152,NO2,24,105,32
India,Telangana,Hyderabad,"Sanathnagar, Hyderabad - TSPCB",22-01-2026 08:00:00,17.4559458,78.4332152,SO2,8,15,11
India,Telangana,Hyderabad,"Somajiguda, Hyderabad - TSPCB",22-01-2026 08:00:00,17.417094,78.457437,PM2.5,44,75,50
India,Telangana,Hyderabad,"Somajiguda, Hyderabad - TSPCB",22-01-2026 08:00:00,17.417094,78.457437,OZONE,9,32,12
India,Telangana,Hyderabad,"Zoo Park, Hyderabad - TSPCB",22-01-2026 08:00:00,17.349694,78.451437,NH3,3,3,3
India,Telangana,Hyderabad,"Zoo Park, Hyderabad - TSPCB",22-01-2026 08:00:00,17.349694,78.451437,SO2,3,13,7
India,Telangana,Hyderabad,"Zoo Park, Hyderabad - TSPCB",22-01-2026 08:00:00,17.349694,78.451437,OZONE,22,25,24
India,TamilNadu,Chennai,"Velachery Res. Area, Chennai - CPCB",22-01-2026 08:00:00,13.0052189,80.2398125,PM2.5,39,262,88
India,TamilNadu,Chennai,"Velachery Res. Area, Chennai - CPCB",22-01-2026 08:00:00,13.0052189,80.2398125,PM10,35,151,69
India,TamilNadu,Chennai,"Velachery Res. Area, Chennai - CPCB",22-01-2026 08:00:00,13.0052189,80.2398125,NO2,12,17,14
India,TamilNadu,Chennai,"Velachery Res. Area, Chennai - CPCB",22-01-2026 08:00:00,13.0052189,80.2398125,SO2,5,10,7
India,TamilNadu,Chennai,"Velachery Res. Area, Chennai - CPCB",22-01-2026 08:00:00,13.0052189,80.2398125,OZONE,2,8,2
India,TamilNadu,Coimbatore,"PSG College of Arts and Science, Coimbatore - TNPCB",22-01-2026 08:00:00,11.0328,77.0349,NO2,10,11,11
India,TamilNadu,Coimbatore,"SIDCO Kurichi, Coimbatore - TNPCB",22-01-2026 08:00:00,10.942451,76.978996,PM10,40,101,72
India,TamilNadu,Coimbatore,"SIDCO Kurichi, Coimbatore - TNPCB",22-01-2026 08:00:00,10.942451,76.978996,NO2,1,23,7
India,TamilNadu,Coimbatore,"SIDCO Kurichi, Coimbatore - TNPCB",22-01-2026 08:00:00,10.942451,76.978996,SO2,20,22,21
India,TamilNadu,Cuddalore,"Kudikadu, Cuddalore - TNPCB",22-01-2026 08:00:00,11.6829898,79.7532099,SO2,19,20,20
India,Rajasthan,Udaipur,"Ashok Nagar, Udaipur - RSPCB",22-01-2026 08:00:00,24.5886166,73.6321397,CO,14,116,32
India,Sikkim,Gangtok,"Zero Point GICI, Gangtok - SSPCB",22-01-2026 08:00:00,27.338530,88.614099,CO,8,24,13
India,Sikkim,Gangtok,"Zero Point GICI, Gangtok - SSPCB",22-01-2026 08:00:00,27.338530,88.614099,OZONE,16,20,18
India,TamilNadu,Chennai,"Kodungaiyur, Chennai - TNPCB",22-01-2026 08:00:00,13.1278,80.2642,NO2,10,31,17
India,TamilNadu,Chennai,"Manali Village, Chennai - TNPCB",22-01-2026 08:00:00,13.1662,80.2584,PM10,32,143,92
India,TamilNadu,Chennai,"Manali Village, Chennai - TNPCB",22-01-2026 08:00:00,13.1662,80.2584,NH3,1,2,2
India,TamilNadu,Chennai,"Manali Village, Chennai - TNPCB",22-01-2026 08:00:00,13.1662,80.2584,OZONE,15,27,20
India,Rajasthan,Kota,"Nayapura, Kota - RSPCB",22-01-2026 08:00:00,25.196024,75.855668,NH3,10,15,12
India,Rajasthan,Kota,"Shrinath Puram, Kota - RSPCB",22-01-2026 08:00:00,25.14389,75.821256,CO,10,105,45
India,Rajasthan,Nagaur,"Karni Colony, Nagaur - RSPCB",22-01-2026 08:00:00,27.213494,73.734444,PM10,NA,NA,NA
India,Rajasthan,Pali,"Indira Colony Vistar, Pali - RSPCB",22-01-2026 08:00:00,25.771061, 73.340227,OZONE,5,87,18
India,Rajasthan,Pratapgarh,"Pragati Nagar, Pratapgarh - RSPCB",22-01-2026 08:00:00,24.041198,74.780702,CO,18,38,21
India,Rajasthan,Pratapgarh,"Pragati Nagar, Pratapgarh - RSPCB",22-01-2026 08:00:00,24.041198,74.780702,OZONE,37,106,44
India,Telangana,Hyderabad,"Bollaram Industrial Area, Hyderabad - TSPCB",22-01-2026 08:00:00,17.540891,78.358528,NO2,NA,NA,NA
India,Telangana,Hyderabad,"Central University, Hyderabad - TSPCB",22-01-2026 08:00:00,17.460103,78.334361,NH3,1,5,3
India,Telangana,Hyderabad,"ECIL Kapra, Hyderabad - TSPCB",22-01-2026 08:00:00,17.470431,78.566959,CO,8,31,24
India,Telangana,Hyderabad,"ECIL Kapra, Hyderabad - TSPCB",22-01-2026 08:00:00,17.470431,78.566959,OZONE,15,56,15
India,Uttar_Pradesh,Kanpur,"FTI Kidwai Nagar, Kanpur - UPPCB",22-01-2026 08:00:00,26.428282,80.327067,OZONE,9,13,10
India,Uttar_Pradesh,Kanpur,"NSI Kalyanpur, Kanpur - UPPCB",22-01-2026 08:00:00,26.509954,80.249612,PM10,81,168,121
India,Uttar_Pradesh,Kanpur,"Nehru Nagar, Kanpur - UPPCB",22-01-2026 08:00:00,26.4703136,80.3229863,PM2.5,40,306,136
India,Uttar_Pradesh,Kanpur,"Nehru Nagar, Kanpur - UPPCB",22-01-2026 08:00:00,26.4703136,80.3229863,PM10,36,162,94
India,Uttar_Pradesh,Kanpur,"Nehru Nagar, Kanpur - UPPCB",22-01-2026 08:00:00,26.4703136,80.3229863,NO2,49,56,53
India,Uttar_Pradesh,Khurja,"Kalindi Kunj, Khurja - UPPCB",22-01-2026 08:00:00,28.2348927,77.8683002,NO2,8,11,9
India,Uttar_Pradesh,Khurja,"Kalindi Kunj, Khurja - UPPCB",22-01-2026 08:00:00,28.2348927,77.8683002,CO,32,72,61
India,Uttar_Pradesh,Lucknow,"B R Ambedkar University, Lucknow - UPPCB",22-01-2026 08:00:00,26.766433,80.927299,NO2,4,5,5
India,Uttar_Pradesh,Lucknow,"Gomti Nagar, Lucknow - UPPCB",22-01-2026 08:00:00,26.868120,81.005119,PM10,42,138,86
India,Uttar_Pradesh,Lucknow,"Gomti Nagar, Lucknow - UPPCB",22-01-2026 08:00:00,26.868120,81.005119,CO,28,36,29
India,Uttar_Pradesh,Lucknow,"Kendriya Vidyalaya, Lucknow - CPCB",22-01-2026 08:00:00,26.906111,80.948222,PM10,107,174,143
India,Uttar_Pradesh,Varanasi,"Bhelupur, Varanasi - UPPCB",22-01-2026 08:00:00,25.301778,82.996789,CO,2,55,18
India,Uttar_Pradesh,Varanasi,"IESD Banaras Hindu University, Varanasi - UPPCB",22-01-2026 08:00:00,25.262326,82.995408,NO2,2,2,2
India,Uttar_Pradesh,Varanasi,"Maldahiya, Varanasi - UPPCB",22-01-2026 08:00:00,25.32393,82.99687,PM2.5,27,121,71
India,Uttar_Pradesh,Varanasi,"Maldahiya, Varanasi - UPPCB",22-01-2026 08:00:00,25.32393,82.99687,NO2,2,2,2
India,Uttar_Pradesh,Vrindavan,"Omex Eternity, Vrindavan - UPPCB",22-01-2026 08:00:00,27.5714090,77.6557570,CO,NA,NA,NA
India,Uttar_Pradesh,Vrindavan,"Omex Eternity, Vrindavan - UPPCB",22-01-2026 08:00:00,27.5714090,77.6557570,OZONE,NA,NA,NA
India,Uttarakhand,Dehradun,"Doon University, Dehradun - UKPCB",22-01-2026 08:00:00,30.269444,78.044167,CO,10,12,10
India,Uttarakhand,Dehradun,"Doon University, Dehradun - UKPCB",22-01-2026 08:00:00,30.269444,78.044167,OZONE,31,83,36
India,Uttarakhand,Kashipur,"Govt. Girls Inter College, Kashipur - UKPCB",22-01-2026 08:00:00,29.2124114,78.9611753,PM2.5,60,209,121
India,Uttarakhand,Kashipur,"Govt. Girls Inter College, Kashipur - UKPCB",22-01-2026 08:00:00,29.2124114,78.9611753,PM10,54,127,93
India,Uttar_Pradesh,Meerut,"Pallavpuram Phase 2, Meerut - UPPCB",22-01-2026 08:00:00,29.063510,77.709723,NH3,1,12,6
India,Uttar_Pradesh,Meerut,"Pallavpuram Phase 2, Meerut - UPPCB",22-01-2026 08:00:00,29.063510,77.709723,CO,18,70,46
India,Uttar_Pradesh,Meerut,"Pallavpuram Phase 2, Meerut - UPPCB",22-01-2026 08:00:00,29.063510,77.709723,OZONE,6,114,10
India,Uttar_Pradesh,Moradabad,"Buddhi Vihar, Moradabad - UPPCB",22-01-2026 08:00:00,28.83526,78.74460,PM2.5,NA,NA,NA
India,Uttar_Pradesh,Moradabad,"Eco Herbal Park, Moradabad - UPPCB",22-01-2026 08:00:00,28.840739,78.697531,NH3,5,9,6
India,Uttar_Pradesh,Moradabad,"Eco Herbal Park, Moradabad - UPPCB",22-01-2026 08:00:00,28.840739,78.697531,CO,32,92,70
India,Uttar_Pradesh,Moradabad,"Jigar Colony, Moradabad - UPPCB",22-01-2026 08:00:00,28.856664,78.772638,PM2.5,46,244,124
India,Uttar_Pradesh,Moradabad,"Jigar Colony, Moradabad - UPPCB",22-01-2026 08:00:00,28.856664,78.772638,PM10,81,189,131
India,Uttar_Pradesh,Moradabad,"Jigar Colony, Moradabad - UPPCB",22-01-2026 08:00:00,28.856664,78.772638,OZONE,16,27,17
India,Uttar_Pradesh,Moradabad,"Kashiram Nagar, Moradabad - UPPCB",22-01-2026 08:00:00,28.849399,78.742362,PM10,65,137,101
India,Uttar_Pradesh,Lucknow,"Kendriya Vidyalaya, Lucknow - CPCB",22-01-2026 08:00:00,26.906111,80.948222,OZONE,10,78,14
India,Uttar_Pradesh,Lucknow,"Lalbagh, Lucknow - CPCB",22-01-2026 08:00:00,26.8458805,80.9365541,PM2.5,46,311,166
India,Uttar_Pradesh,Lucknow,"Lalbagh, Lucknow - CPCB",22-01-2026 08:00:00,26.8458805,80.9365541,SO2,3,28,8
India,Uttar_Pradesh,Lucknow,"Talkatora District Industries Center, Lucknow - CPCB",22-01-2026 08:00:00,26.83399722,80.8917361,CO,30,76,36
India,Uttar_Pradesh,Meerut,"Jai Bhim Nagar, Meerut - UPPCB",22-01-2026 08:00:00,28.9535882,77.7622941,PM2.5,70,345,238
India,Uttar_Pradesh,Meerut,"Jai Bhim Nagar, Meerut - UPPCB",22-01-2026 08:00:00,28.9535882,77.7622941,PM10,106,275,179
India,Uttar_Pradesh,Meerut,"Jai Bhim Nagar, Meerut - UPPCB",22-01-2026 08:00:00,28.9535882,77.7622941,NO2,7,34,20
India,Uttar_Pradesh,Meerut,"Jai Bhim Nagar, Meerut - UPPCB",22-01-2026 08:00:00,28.9535882,77.7622941,NH3,12,21,15
India,Uttar_Pradesh,Moradabad,"Kashiram Nagar, Moradabad - UPPCB",22-01-2026 08:00:00,28.849399,78.742362,NO2,25,25,25
India,Uttar_Pradesh,Moradabad,"Kashiram Nagar, Moradabad - UPPCB",22-01-2026 08:00:00,28.849399,78.742362,SO2,2,114,46
India,Uttar_Pradesh,Muzaffarnagar,"New Mandi, Muzaffarnagar - UPPCB",22-01-2026 08:00:00,29.4723508,77.7194031,NO2,27,103,54
India,Uttar_Pradesh,Noida,"Sector - 62, Noida - IMD",22-01-2026 08:00:00,28.6245479,77.3577104,PM2.5,102,452,300
India,Uttar_Pradesh,Noida,"Sector - 62, Noida - IMD",22-01-2026 08:00:00,28.6245479,77.3577104,PM10,111,441,250
India,Uttar_Pradesh,Noida,"Sector-1, Noida - UPPCB",22-01-2026 08:00:00,28.5898,77.3101,PM10,126,312,229
India,Uttar_Pradesh,Noida,"Sector-1, Noida - UPPCB",22-01-2026 08:00:00,28.5898,77.3101,SO2,6,27,13
India,Uttar_Pradesh,Noida,"Sector-1, Noida - UPPCB",22-01-2026 08:00:00,28.5898,77.3101,CO,26,130,122
India,Uttar_Pradesh,Prayagraj,"Jhunsi, Prayagraj - UPPCB",22-01-2026 08:00:00,25.425602,81.917152,OZONE,16,61,17
India,Uttar_Pradesh,Prayagraj,"Motilal Nehru NIT, Prayagraj - UPPCB",22-01-2026 08:00:00,25.494,81.863,CO,17,42,31
India,Uttar_Pradesh,Prayagraj,"Nagar Nigam, Prayagraj - UPPCB",22-01-2026 08:00:00,25.44919916 ,81.82735986 ,PM10,38,109,72
India,Uttar_Pradesh,Prayagraj,"Nagar Nigam, Prayagraj - UPPCB",22-01-2026 08:00:00,25.44919916 ,81.82735986 ,NO2,5,5,5
India,Uttar_Pradesh,Prayagraj,"Nagar Nigam, Prayagraj - UPPCB",22-01-2026 08:00:00,25.44919916 ,81.82735986 ,SO2,20,45,35
India,Uttar_Pradesh,Prayagraj,"Nagar Nigam, Prayagraj - UPPCB",22-01-2026 08:00:00,25.44919916 ,81.82735986 ,CO,24,96,53
India,Uttar_Pradesh,Varanasi,"Ardhali Bazar, Varanasi - UPPCB",22-01-2026 08:00:00,25.3505986,82.9083074,NO2,54,78,69
India,Uttar_Pradesh,Varanasi,"Ardhali Bazar, Varanasi - UPPCB",22-01-2026 08:00:00,25.3505986,82.9083074,OZONE,11,27,17
India,Uttar_Pradesh,Baghpat,"Sardar Patel Inter College, Baghpat - UPPCB",22-01-2026 08:00:00,28.964949,77.278761,PM2.5,47,319,205
India,Uttar_Pradesh,Baghpat,"Sardar Patel Inter College, Baghpat - UPPCB",22-01-2026 08:00:00,28.964949,77.278761,PM10,68,215,158
India,Uttar_Pradesh,Baghpat,"Sardar Patel Inter College, Baghpat - UPPCB",22-01-2026 08:00:00,28.964949,77.278761,OZONE,3,71,4
India,Uttar_Pradesh,Bareilly,"Civil Lines, Bareilly - UPPCB",22-01-2026 08:00:00,28.359581,79.414455,NO2,2,3,2
India,Uttar_Pradesh,Bareilly,"Rajendra Nagar, Bareilly - UPPCB",22-01-2026 08:00:00,28.38910936,79.42963708,OZONE,NA,NA,NA
India,Uttar_Pradesh,Hapur,"Anand Vihar, Hapur - UPPCB",22-01-2026 08:00:00,28.725645,77.749675,SO2,22,48,31
India,Uttar_Pradesh,Jhansi,"Shivaji Nagar, Jhansi - UPPCB",22-01-2026 08:00:00,25.4547,78.6039,PM10,48,144,74
India,Uttar_Pradesh,Kanpur,"FTI Kidwai Nagar, Kanpur - UPPCB",22-01-2026 08:00:00,26.428282,80.327067,PM2.5,21,306,114
India,Uttar_Pradesh,Kanpur,"FTI Kidwai Nagar, Kanpur - UPPCB",22-01-2026 08:00:00,26.428282,80.327067,NH3,5,5,5
India,Uttar_Pradesh,Kanpur,"FTI Kidwai Nagar, Kanpur - UPPCB",22-01-2026 08:00:00,26.428282,80.327067,CO,34,50,47
India,Uttar_Pradesh,Firozabad,"Vibhab Nagar, Firozabad - UPPCB",22-01-2026 08:00:00,27.1594,78.3953,PM2.5,54,176,90
India,Uttar_Pradesh,Firozabad,"Vibhab Nagar, Firozabad - UPPCB",22-01-2026 08:00:00,27.1594,78.3953,SO2,17,22,20
India,Uttar_Pradesh,Ghaziabad,"Loni, Ghaziabad - UPPCB",22-01-2026 08:00:00,28.757294,77.278792,NO2,4,43,24
India,Uttar_Pradesh,Ghaziabad,"Sanjay Nagar, Ghaziabad - UPPCB",22-01-2026 08:00:00,28.685382,77.453839,PM2.5,92,384,266
India,Uttar_Pradesh,Ghaziabad,"Sanjay Nagar, Ghaziabad - UPPCB",22-01-2026 08:00:00,28.685382,77.453839,SO2,7,16,10
India,Uttarakhand,Rishikesh,"Shivaji Nagar, Rishikesh - UKPCB",22-01-2026 08:00:00,30.075911,78.2859547,NO2,18,30,23
India,West_Bengal,Asansol,"Trivenidevi Bhalotia College, Asansol - WBPCB",22-01-2026 08:00:00,23.616515,87.119133,CO,35,99,69
India,West_Bengal,Barrackpore,"SVSPA Campus, Barrackpore - WBPCB",22-01-2026 08:00:00,22.7605581,88.3617589,NH3,7,10,8
India,West_Bengal,Durgapur,"Mahishkapur Road_B-Zone, Durgapur - WBPCB",22-01-2026 08:00:00,23.567923,87.306843,NO2,17,69,39
India,West_Bengal,Durgapur,"Mahishkapur Road_B-Zone, Durgapur - WBPCB",22-01-2026 08:00:00,23.567923,87.306843,CO,23,90,47
India,West_Bengal,Durgapur,"Mahishkapur Road_B-Zone, Durgapur - WBPCB",22-01-2026 08:00:00,23.567923,87.306843,OZONE,NA,NA,NA
India,West_Bengal,Durgapur,"PCBL Residential Complex, Durgapur - WBPCB",22-01-2026 08:00:00,23.5087640,87.3544400,PM2.5,65,165,90
India,West_Bengal,Durgapur,"PCBL Residential Complex, Durgapur - WBPCB",22-01-2026 08:00:00,23.5087640,87.3544400,NH3,16,19,18
India,West_Bengal,Durgapur,"PCBL Residential Complex, Durgapur - WBPCB",22-01-2026 08:00:00,23.5087640,87.3544400,SO2,5,6,5
India,West_Bengal,Haldia,"Priyambada Housing Estate, Haldia - WBPCB",22-01-2026 08:00:00,22.06047,88.109737,NO2,14,56,33
India,West_Bengal,Haldia,"Priyambada Housing Estate, Haldia - WBPCB",22-01-2026 08:00:00,22.06047,88.109737,OZONE,14,21,20
India,West_Bengal,Howrah,"Belur Math, Howrah - WBPCB",22-01-2026 08:00:00,22.629801,88.352017,NH3,11,19,15
India,West_Bengal,Howrah,"Botanical Garden, Howrah - WBPCB",22-01-2026 08:00:00,22.554954,88.292568,OZONE,5,21,5
India,West_Bengal,Howrah,"Dasnagar, Howrah - WBPCB",22-01-2026 08:00:00,22.6025571,88.3105664,PM2.5,81,313,175
India,West_Bengal,Howrah,"Dasnagar, Howrah - WBPCB",22-01-2026 08:00:00,22.6025571,88.3105664,NO2,18,161,83
India,West_Bengal,Howrah,"Ghusuri, Howrah - WBPCB",22-01-2026 08:00:00,22.611968,88.347422,PM2.5,148,381,256
India,West_Bengal,Howrah,"Ghusuri, Howrah - WBPCB",22-01-2026 08:00:00,22.611968,88.347422,NO2,14,32,23
India,West_Bengal,Howrah,"Padmapukur, Howrah - WBPCB",22-01-2026 08:00:00,22.5687319,88.2797276,NO2,39,173,110
India,West_Bengal,Howrah,"Padmapukur, Howrah - WBPCB",22-01-2026 08:00:00,22.5687319,88.2797276,NH3,4,30,10
India,West_Bengal,Kolkata,"Ballygunge, Kolkata - WBPCB",22-01-2026 08:00:00,22.5367507,88.3638022,OZONE,6,24,7
India,West_Bengal,Kolkata,"Bidhannagar, Kolkata - WBPCB",22-01-2026 08:00:00,22.58157048,88.41002457,PM10,66,161,102
India,West_Bengal,Kolkata,"Bidhannagar, Kolkata - WBPCB",22-01-2026 08:00:00,22.58157048,88.41002457,CO,16,84,46
India,West_Bengal,Kolkata,"Bidhannagar, Kolkata - WBPCB",22-01-2026 08:00:00,22.58157048,88.41002457,OZONE,14,56,16
India,West_Bengal,Kolkata,"Fort William, Kolkata - WBPCB",22-01-2026 08:00:00,22.556640,88.342674,NH3,9,11,10
India,West_Bengal,Kolkata,"Fort William, Kolkata - WBPCB",22-01-2026 08:00:00,22.556640,88.342674,CO,24,121,55
India,West_Bengal,Kolkata,"Rabindra Bharati University, Kolkata - WBPCB",22-01-2026 08:00:00,22.627847,88.380669,CO,46,123,74
India,West_Bengal,Kolkata,"Rabindra Sarobar, Kolkata - WBPCB",22-01-2026 08:00:00,22.51106,88.35142,NO2,35,152,89
India,West_Bengal,Kolkata,"Rabindra Sarobar, Kolkata - WBPCB",22-01-2026 08:00:00,22.51106,88.35142,SO2,7,45,20
India,West_Bengal,Siliguri,"Ward-32 Bapupara, Siliguri - WBPCB",22-01-2026 08:00:00,26.6879226,88.4152495,PM10,106,162,127
India,Bihar,Katihar,"Mirchaibari, Katihar - BSPCB",22-01-2026 08:00:00,25.560083,87.553265,CO,72,102,85
India,Bihar,Katihar,"Mirchaibari, Katihar - BSPCB",22-01-2026 08:00:00,25.560083,87.553265,OZONE,25,32,28
India,Bihar,Kishanganj,"SDM Office_Khagra, Kishanganj - BSPCB",22-01-2026 08:00:00,26.0881305,87.93840336,NO2,9,13,11
India,Bihar,Kishanganj,"SDM Office_Khagra, Kishanganj - BSPCB",22-01-2026 08:00:00,26.0881305,87.93840336,SO2,6,8,7
India,Bihar,Kishanganj,"SDM Office_Khagra, Kishanganj - BSPCB",22-01-2026 08:00:00,26.0881305,87.93840336,CO,16,24,16
India,Bihar,Manguraha,"Forest Rest House, Manguraha - BSPCB",22-01-2026 08:00:00,27.308328,84.531742,PM2.5,40,290,107
India,Bihar,Manguraha,"Forest Rest House, Manguraha - BSPCB",22-01-2026 08:00:00,27.308328,84.531742,SO2,16,17,16
India,Bihar,Motihari,"Gandak Colony, Motihari - BSPCB",22-01-2026 08:00:00,26.63086,84.90051,OZONE,NA,NA,NA
India,Bihar,Munger,"Town Hall, Munger - BSPCB",22-01-2026 08:00:00,25.376776,86.471523,PM2.5,53,98,75
India,Bihar,Munger,"Town Hall, Munger - BSPCB",22-01-2026 08:00:00,25.376776,86.471523,SO2,21,47,28
India,Bihar,Munger,"Town Hall, Munger - BSPCB",22-01-2026 08:00:00,25.376776,86.471523,CO,17,60,21
India,Bihar,Muzaffarpur,"Buddha Colony, Muzaffarpur - BSPCB",22-01-2026 08:00:00,26.11442,85.39813,PM10,80,117,99
India,Bihar,Muzaffarpur,"MIT-Daudpur Kothi, Muzaffarpur - BSPCB",22-01-2026 08:00:00,26.1403345,85.3650192,NO2,1,3,2
India,Bihar,Muzaffarpur,"MIT-Daudpur Kothi, Muzaffarpur - BSPCB",22-01-2026 08:00:00,26.1403345,85.3650192,SO2,10,13,11
India,Bihar,Muzaffarpur,"MIT-Daudpur Kothi, Muzaffarpur - BSPCB",22-01-2026 08:00:00,26.1403345,85.3650192,CO,45,62,46
India,Bihar,Muzaffarpur,"Muzaffarpur Collectorate, Muzaffarpur - BSPCB",22-01-2026 08:00:00,26.1209,85.3647,SO2,5,7,6
India,Bihar,Patna,"DRM Office Danapur, Patna - BSPCB",22-01-2026 08:00:00,25.586562,85.043586,NH3,6,13,8
India,Bihar,Patna,"Govt. High School Shikarpur, Patna - BSPCB",22-01-2026 08:00:00,25.592539,85.227158,PM10,97,111,104
India,Bihar,Patna,"Govt. High School Shikarpur, Patna - BSPCB",22-01-2026 08:00:00,25.592539,85.227158,CO,60,107,89
India,Bihar,Patna,"IGSC Planetarium Complex, Patna - BSPCB",22-01-2026 08:00:00,25.610369,85.132568,CO,34,82,74
India,Bihar,Patna,"IGSC Planetarium Complex, Patna - BSPCB",22-01-2026 08:00:00,25.610369,85.132568,OZONE,28,29,28
India,Bihar,Patna,"Muradpur, Patna - BSPCB",22-01-2026 08:00:00,25.619651,85.147382,NH3,4,5,5
India,Bihar,Patna,"Muradpur, Patna - BSPCB",22-01-2026 08:00:00,25.619651,85.147382,SO2,7,10,9
India,Bihar,Patna,"Muradpur, Patna - BSPCB",22-01-2026 08:00:00,25.619651,85.147382,CO,40,60,59
India,Bihar,Bettiah,"Kamalnath Nagar, Bettiah - BSPCB",22-01-2026 08:00:00,26.80365,84.51954,PM2.5,47,253,120
India,Bihar,Bettiah,"Kamalnath Nagar, Bettiah - BSPCB",22-01-2026 08:00:00,26.80365,84.51954,NH3,1,1,1
India,Bihar,Bhagalpur,"DM Office_Kachari Chowk, Bhagalpur - BSPCB",22-01-2026 08:00:00,25.251013,86.989001,PM10,46,133,82
India,Bihar,Bhagalpur,"Mayaganj, Bhagalpur - BSPCB",22-01-2026 08:00:00,25.265194,87.012947,PM2.5,35,150,64
India,Bihar,Bhagalpur,"Mayaganj, Bhagalpur - BSPCB",22-01-2026 08:00:00,25.265194,87.012947,PM10,57,174,101
India,Bihar,Bhagalpur,"Mayaganj, Bhagalpur - BSPCB",22-01-2026 08:00:00,25.265194,87.012947,NO2,6,8,7
India,Bihar,Bhagalpur,"Mayaganj, Bhagalpur - BSPCB",22-01-2026 08:00:00,25.265194,87.012947,SO2,52,65,58
India,Bihar,Bihar Sharif,"D M Colony, Bihar Sharif - BSPCB",22-01-2026 08:00:00,25.204762,85.514960,PM2.5,30,240,84
India,Bihar,Bihar Sharif,"D M Colony, Bihar Sharif - BSPCB",22-01-2026 08:00:00,25.204762,85.514960,SO2,9,10,10
India,Bihar,Buxar,"Charitra Van, Buxar - BSPCB",22-01-2026 08:00:00,25.567520,83.966379,PM2.5,77,137,91
India,Bihar,Chhapra,"Darshan Nagar, Chhapra - BSPCB",22-01-2026 08:00:00,25.7808257,84.7446768,NO2,1,2,1
India,Andhra_Pradesh,Vijayawada,"Rajiv Gandhi Park, Vijayawada - APPCB",22-01-2026 08:00:00,16.509717,80.612222,CO,30,40,34
India,Andhra_Pradesh,Vijayawada,"Rajiv Nagar, Vijayawada - APPCB",22-01-2026 08:00:00,16.554731,80.649110,PM2.5,68,125,92
India,Andhra_Pradesh,Vijayawada,"Rajiv Nagar, Vijayawada - APPCB",22-01-2026 08:00:00,16.554731,80.649110,PM10,76,97,87
India,Andhra_Pradesh,Visakhapatnam,"GVM Corporation, Visakhapatnam - APPCB",22-01-2026 08:00:00,17.72,83.3,CO,2,105,45
India,Arunachal_Pradesh,Naharlagun,"Naharlagun, Naharlagun - APSPCB",22-01-2026 08:00:00,27.103358,93.679645,PM10,48,294,144
India,Arunachal_Pradesh,Naharlagun,"Naharlagun, Naharlagun - APSPCB",22-01-2026 08:00:00,27.103358,93.679645,SO2,9,10,9
India,Assam,Byrnihat,"Central Academy for SFS, Byrnihat - PCBA",22-01-2026 08:00:00,26.071318,91.87488,NH3,4,4,4
India,Assam,Byrnihat,"Central Academy for SFS, Byrnihat - PCBA",22-01-2026 08:00:00,26.071318,91.87488,OZONE,13,47,16
India,Assam,Guwahati,"LGBI Airport, Guwahati - PCBA",22-01-2026 08:00:00,26.10887,91.589544,SO2,7,15,12
India,Assam,Guwahati,"Pan Bazaar, Guwahati - PCBA",22-01-2026 08:00:00,26.187500,91.744194,PM2.5,89,285,180
India,Assam,Guwahati,"Pan Bazaar, Guwahati - PCBA",22-01-2026 08:00:00,26.187500,91.744194,PM10,82,137,110
India,Assam,Guwahati,"Pan Bazaar, Guwahati - PCBA",22-01-2026 08:00:00,26.187500,91.744194,SO2,24,46,33
India,Assam,Guwahati,"Railway Colony, Guwahati - PCBA",22-01-2026 08:00:00,26.181742,91.78063,CO,42,104,88
India,Assam,Nagaon,"Christianpatty, Nagaon - PCBA",22-01-2026 08:00:00,26.349082,92.68449,NO2,1,7,1
India,Assam,Nagaon,"Christianpatty, Nagaon - PCBA",22-01-2026 08:00:00,26.349082,92.68449,CO,2,25,22
India,Assam,Nalbari,"Bata Chowk, Nalbari - PCBA",22-01-2026 08:00:00,26.446912,91.439057,OZONE,11,17,16
India,Assam,Silchar,"Tarapur, Silchar - PCBA",22-01-2026 08:00:00,24.82827,92.79525,NO2,19,30,25
India,Andaman and Nicobar,Sri Vijaya Puram,"Police Line, Sri Vijaya Puram - ANPCC",22-01-2026 08:00:00,11.654054,92.734055,PM10,NA,NA,NA
India,Andaman and Nicobar,Sri Vijaya Puram,"Police Line, Sri Vijaya Puram - ANPCC",22-01-2026 08:00:00,11.654054,92.734055,CO,NA,NA,NA
India,Andhra_Pradesh,Amaravati,"Secretariat, Amaravati - APPCB",22-01-2026 08:00:00,16.5150833,80.5181667,NO2,21,92,46
India,Andhra_Pradesh,Amaravati,"Secretariat, Amaravati - APPCB",22-01-2026 08:00:00,16.5150833,80.5181667,NH3,4,7,5
India,Andhra_Pradesh,Chittoor,"Gangineni Cheruvu, Chittoor - APPCB",22-01-2026 08:00:00,13.204880,79.097889,OZONE,NA,NA,NA
India,Andhra_Pradesh,Kadapa,"Yerramukkapalli, Kadapa - APPCB",22-01-2026 08:00:00,14.465052,78.824187,CO,4,18,4
India,Andhra_Pradesh,Kadapa,"Yerramukkapalli, Kadapa - APPCB",22-01-2026 08:00:00,14.465052,78.824187,OZONE,24,27,25
India,Assam,Sivasagar,"Girls College, Sivasagar - PCBA",22-01-2026 08:00:00,26.987634,94.636574,PM2.5,NA,NA,NA
India,Bihar,Araria,"Kharahiya Basti, Araria - BSPCB",22-01-2026 08:00:00,26.146529,87.454184,NH3,4,5,4
India,Bihar,Araria,"Kharahiya Basti, Araria - BSPCB",22-01-2026 08:00:00,26.146529,87.454184,OZONE,9,11,10
India,Bihar,Arrah,"New DM Office, Arrah - BSPCB",22-01-2026 08:00:00,25.5626095,84.663264,PM2.5,23,72,42
India,Bihar,Arrah,"New DM Office, Arrah - BSPCB",22-01-2026 08:00:00,25.5626095,84.663264,NO2,6,10,8
India,Bihar,Arrah,"New DM Office, Arrah - BSPCB",22-01-2026 08:00:00,25.5626095,84.663264,SO2,10,10,10
India,Bihar,Begusarai,"Lohiyanagar, Begusarai - BSPCB",22-01-2026 08:00:00,25.42742023,86.13886079,PM10,81,160,110
India,Andhra_Pradesh,Rajamahendravaram,"Anand Kala Kshetram, Rajamahendravaram - APPCB",22-01-2026 08:00:00,16.9872867,81.7363176,NO2,16,71,37
India,Andhra_Pradesh,Tirumala,"Toll Gate, Tirumala - APPCB",22-01-2026 08:00:00,13.67,79.35,NO2,25,46,34
India,Andhra_Pradesh,Tirupati,"Vaikuntapuram, Tirupati - APPCB",22-01-2026 08:00:00,13.615387,79.409230,NO2,38,44,42
India,Andhra_Pradesh,Vijayawada,"HB Colony, Vijayawada - APPCB",22-01-2026 08:00:00,16.536107,80.594233,OZONE,NA,NA,NA
India,Bihar,Gaya,"Kareemganj, Gaya - BSPCB",22-01-2026 08:00:00,24.792403,84.992416,SO2,15,17,16
India,Bihar,Hajipur,"Industrial Area, Hajipur - BSPCB",22-01-2026 08:00:00,25.697189,85.245900,PM10,84,121,102
India,Bihar,Hajipur,"Industrial Area, Hajipur - BSPCB",22-01-2026 08:00:00,25.697189,85.245900,NO2,36,65,46
India,Bihar,Hajipur,"Industrial Area, Hajipur - BSPCB",22-01-2026 08:00:00,25.697189,85.245900,NH3,12,17,14
India,Bihar,Gaya,"Collectorate, Gaya - BSPCB",22-01-2026 08:00:00,24.7955,84.9994,CO,48,48,48
India,Bihar,Gaya,"Kareemganj, Gaya - BSPCB",22-01-2026 08:00:00,24.792403,84.992416,PM2.5,30,197,76
India,Delhi,Delhi,"ITO, Delhi - CPCB",22-01-2026 08:00:00,28.628624,77.241060,NO2,36,113,78
India,Delhi,Delhi,"ITO, Delhi - CPCB",22-01-2026 08:00:00,28.628624,77.241060,OZONE,3,34,3
India,Delhi,Delhi,"Jahangirpuri, Delhi - DPCC",22-01-2026 08:00:00,28.732820,77.170633,PM10,133,441,289
India,Delhi,Delhi,"Jawaharlal Nehru Stadium, Delhi - DPCC",22-01-2026 08:00:00,28.580280,77.233829,PM2.5,150,386,318
India,Delhi,Delhi,"Jawaharlal Nehru Stadium, Delhi - DPCC",22-01-2026 08:00:00,28.580280,77.233829,NO2,33,143,79
India,Delhi,Delhi,"Jawaharlal Nehru Stadium, Delhi - DPCC",22-01-2026 08:00:00,28.580280,77.233829,NH3,19,26,21
India,Delhi,Delhi,"Jawaharlal Nehru Stadium, Delhi - DPCC",22-01-2026 08:00:00,28.580280,77.233829,CO,36,134,125
India,Delhi,Delhi,"Lodhi Road, Delhi - IMD",22-01-2026 08:00:00,28.5918245,77.2273074,PM2.5,113,344,258
India,Delhi,Delhi,"Major Dhyan Chand National Stadium, Delhi - DPCC",22-01-2026 08:00:00,28.611281,77.237738,PM2.5,95,378,280
India,Delhi,Delhi,"Major Dhyan Chand National Stadium, Delhi - DPCC",22-01-2026 08:00:00,28.611281,77.237738,NO2,40,152,81
India,Delhi,Delhi,"Major Dhyan Chand National Stadium, Delhi - DPCC",22-01-2026 08:00:00,28.611281,77.237738,CO,11,128,84
India,Delhi,Delhi,"Mandir Marg, Delhi - DPCC",22-01-2026 08:00:00,28.636429,77.201067,NO2,25,132,83
India,Delhi,Delhi,"Mandir Marg, Delhi - DPCC",22-01-2026 08:00:00,28.636429,77.201067,SO2,2,42,22
India,Delhi,Delhi,"Alipur, Delhi - DPCC",22-01-2026 08:00:00,28.815329,77.153010,OZONE,4,41,4
India,Delhi,Delhi,"Anand Vihar, Delhi - DPCC",22-01-2026 08:00:00,28.647622,77.3158090,PM2.5,217,444,366
India,Delhi,Delhi,"Anand Vihar, Delhi - DPCC",22-01-2026 08:00:00,28.647622,77.3158090,OZONE,6,36,14
India,Delhi,Delhi,"Ashok Vihar, Delhi - DPCC",22-01-2026 08:00:00,28.695381,77.181665,PM2.5,107,438,333
India,Delhi,Delhi,"Ashok Vihar, Delhi - DPCC",22-01-2026 08:00:00,28.695381,77.181665,OZONE,2,94,3
India,Delhi,Delhi,"Aya Nagar, Delhi - IMD",22-01-2026 08:00:00,28.4706914,77.1099364,PM2.5,100,354,255
India,Delhi,Delhi,"Aya Nagar, Delhi - IMD",22-01-2026 08:00:00,28.4706914,77.1099364,PM10,126,432,244
India,Delhi,Delhi,"Aya Nagar, Delhi - IMD",22-01-2026 08:00:00,28.4706914,77.1099364,OZONE,8,67,8
India,Delhi,Delhi,"Bawana, Delhi - DPCC",22-01-2026 08:00:00,28.776200,77.051074,SO2,4,15,8
India,Delhi,Delhi,"Burari Crossing, Delhi - IMD",22-01-2026 08:00:00,28.7256504,77.2011573,PM10,132,415,281
India,Delhi,Delhi,"Burari Crossing, Delhi - IMD",22-01-2026 08:00:00,28.7256504,77.2011573,NO2,3,133,74
India,Delhi,Delhi,"CRRI Mathura Road, Delhi - IMD",22-01-2026 08:00:00,28.5512005,77.2735737,PM2.5,92,369,294
India,Chhattisgarh,Bhilai,"32Bungalows, Bhilai - CECB",22-01-2026 08:00:00,21.194815,81.314770,SO2,6,9,7
India,Chhattisgarh,Bhilai,"Civic Center, Bhilai - Bhilai Steel Plant",22-01-2026 08:00:00,21.185571,81.343175,PM10,32,121,62
India,Chhattisgarh,Bhilai,"Civic Center, Bhilai - Bhilai Steel Plant",22-01-2026 08:00:00,21.185571,81.343175,NH3,1,2,2
India,Chhattisgarh,Bhilai,"Civic Center, Bhilai - Bhilai Steel Plant",22-01-2026 08:00:00,21.185571,81.343175,CO,26,34,34
India,Chhattisgarh,Bhilai,"Hathkhoj, Bhilai - CECB",22-01-2026 08:00:00,21.224231,81.408350,SO2,16,105,41
India,Chhattisgarh,Bhilai,"Hathkhoj, Bhilai - CECB",22-01-2026 08:00:00,21.224231,81.408350,OZONE,3,17,7
India,Chhattisgarh,Bilaspur,"Mangala, Bilaspur - NTPC",22-01-2026 08:00:00,22.08815,82.13737,NO2,16,105,32
India,Chhattisgarh,Bilaspur,"Mangala, Bilaspur - NTPC",22-01-2026 08:00:00,22.08815,82.13737,CO,40,106,55
India,Chhattisgarh,Chhal,"Nawapara SECL Colony, Chhal - CECB",22-01-2026 08:00:00,22.118125,83.140608,PM2.5,38,90,66
India,Chhattisgarh,Chhal,"Nawapara SECL Colony, Chhal - CECB",22-01-2026 08:00:00,22.118125,83.140608,SO2,2,75,17
India,Chhattisgarh,Korba,"Rampur, Korba - CECB",22-01-2026 08:00:00,22.368195,82.746431,PM2.5,53,153,77
India,Chhattisgarh,Korba,"Urja Nagar, Korba - CECB",22-01-2026 08:00:00,22.348441,82.549611,PM2.5,2,312,89
India,Chhattisgarh,Korba,"Urja Nagar, Korba - CECB",22-01-2026 08:00:00,22.348441,82.549611,PM10,3,196,98
India,Chhattisgarh,Kunjemura,"OP Jindal School, Kunjemura - CECB",22-01-2026 08:00:00,22.126650,83.483212,NO2,19,51,36
India,Chhattisgarh,Milupara,"Govt. Higher Secondary School, Milupara - CECB",22-01-2026 08:00:00,22.1910172,83.5197009,PM2.5,47,96,69
India,Delhi,Delhi,"Chandni Chowk, Delhi - IITM",22-01-2026 08:00:00,28.656756,77.227234,CO,103,154,127
India,Delhi,Delhi,"DTU, Delhi - CPCB",22-01-2026 08:00:00,28.7500499,77.1112615,NO2,30,60,52
India,Delhi,Delhi,"DTU, Delhi - CPCB",22-01-2026 08:00:00,28.7500499,77.1112615,SO2,34,42,36
India,Delhi,Delhi,"DTU, Delhi - CPCB",22-01-2026 08:00:00,28.7500499,77.1112615,OZONE,17,34,18
India,Delhi,Delhi,"Dwarka-Sector 8, Delhi - DPCC ",22-01-2026 08:00:00,28.5710274,77.0719006,CO,16,159,106
India,Delhi,Delhi,"IHBAS, Dilshad Garden, Delhi - CPCB",22-01-2026 08:00:00,28.6811736,77.3025234,PM2.5,152,343,291
India,Delhi,Delhi,"IHBAS, Dilshad Garden, Delhi - CPCB",22-01-2026 08:00:00,28.6811736,77.3025234,NO2,30,102,65
India,Bihar,Samastipur,"DM Office_Kasipur, Samastipur - BSPCB",22-01-2026 08:00:00,25.859655,85.77944,PM10,45,125,77
India,Bihar,Sasaram,"Dada Peer, Sasaram - BSPCB",22-01-2026 08:00:00,24.952822,84.002396,NH3,3,3,3
India,Bihar,Siwan,"Chitragupta Nagar, Siwan - BSPCB",22-01-2026 08:00:00,26.2271665,84.3570427,PM2.5,32,302,128
India,Bihar,Siwan,"Chitragupta Nagar, Siwan - BSPCB",22-01-2026 08:00:00,26.2271665,84.3570427,SO2,6,7,7
India,Chandigarh,Chandigarh,"Sector-25, Chandigarh - CPCC",22-01-2026 08:00:00,30.751462,76.762879,PM10,60,137,107
India,Chandigarh,Chandigarh,"Sector-25, Chandigarh - CPCC",22-01-2026 08:00:00,30.751462,76.762879,SO2,5,29,10
India,Bihar,Patna,"Rajbansi Nagar, Patna - BSPCB",22-01-2026 08:00:00,25.599486,85.113666,CO,7,68,28
India,Bihar,Patna,"Rajbansi Nagar, Patna - BSPCB",22-01-2026 08:00:00,25.599486,85.113666,OZONE,22,29,25
India,Bihar,Patna,"Samanpura, Patna - BSPCB",22-01-2026 08:00:00,25.596727,85.085624,PM10,125,186,153
India,Bihar,Patna,"Samanpura, Patna - BSPCB",22-01-2026 08:00:00,25.596727,85.085624,NO2,20,23,22
India,Bihar,Patna,"Samanpura, Patna - BSPCB",22-01-2026 08:00:00,25.596727,85.085624,SO2,1,2,2
India,Bihar,Purnia,"Mariam Nagar, Purnia - BSPCB",22-01-2026 08:00:00,25.366336,87.117468,CO,NA,NA,NA
India,Bihar,Saharsa,"Police Line, Saharsa - BSPCB",22-01-2026 08:00:00,25.892357,86.590325,NO2,4,10,7
India,Chhattisgarh,Raipur,"Krishak Nagar, Raipur - CECB",22-01-2026 08:00:00,21.237755,81.705301,NH3,NA,NA,NA
India,Chhattisgarh,Raipur,"Krishak Nagar, Raipur - CECB",22-01-2026 08:00:00,21.237755,81.705301,SO2,NA,NA,NA
India,Chhattisgarh,Raipur,"Siltara Phase-II, Raipur - CECB",22-01-2026 08:00:00,21.371751,81.664929,CO,34,36,36
India,Chhattisgarh,Raipur,"Siltara Phase-II, Raipur - CECB",22-01-2026 08:00:00,21.371751,81.664929,OZONE,3,3,3
India,Delhi,Delhi,"Alipur, Delhi - DPCC",22-01-2026 08:00:00,28.815329,77.153010,NO2,27,106,59
India,Delhi,Delhi,"Alipur, Delhi - DPCC",22-01-2026 08:00:00,28.815329,77.153010,NH3,16,23,19
India,Delhi,Delhi,"NSIT Dwarka, Delhi - CPCB",22-01-2026 08:00:00,28.60909,77.0325413,PM2.5,68,425,137
India,Delhi,Delhi,"Najafgarh, Delhi - DPCC",22-01-2026 08:00:00,28.570173,76.933762,NH3,10,15,12
India,Delhi,Delhi,"Narela, Delhi - DPCC",22-01-2026 08:00:00,28.822836,77.101981,PM2.5,74,418,304
India,Delhi,Delhi,"Nehru Nagar, Delhi - DPCC",22-01-2026 08:00:00,28.567890,77.250515,SO2,5,27,16
India,Delhi,Delhi,"Nehru Nagar, Delhi - DPCC",22-01-2026 08:00:00,28.567890,77.250515,OZONE,2,249,4
India,Gujarat,Vatva,"Phase-4 GIDC, Vatva - GPCB",22-01-2026 08:00:00,22.969611,72.643500,NH3,7,9,8
India,Haryana,Ambala,"Patti Mehar, Ambala - HSPCB",22-01-2026 08:00:00,30.379589,76.778328,PM2.5,63,157,108
India,Haryana,Ambala,"Patti Mehar, Ambala - HSPCB",22-01-2026 08:00:00,30.379589,76.778328,NO2,20,25,22
India,Haryana,Ambala,"Patti Mehar, Ambala - HSPCB",22-01-2026 08:00:00,30.379589,76.778328,OZONE,10,18,14
India,Haryana,Bahadurgarh,"Arya Nagar, Bahadurgarh - HSPCB",22-01-2026 08:00:00,28.6701,76.9254,CO,45,51,48
India,Haryana,Ballabgarh,"Nathu Colony, Ballabgarh - HSPCB",22-01-2026 08:00:00,28.3419248,77.319699,PM10,133,237,168
India,Haryana,Ballabgarh,"Nathu Colony, Ballabgarh - HSPCB",22-01-2026 08:00:00,28.3419248,77.319699,OZONE,14,15,15
India,Haryana,Bhiwani,"H.B. Colony, Bhiwani - HSPCB",22-01-2026 08:00:00,28.806223,76.141105,NO2,1,35,31
India,Haryana,Bhiwani,"H.B. Colony, Bhiwani - HSPCB",22-01-2026 08:00:00,28.806223,76.141105,SO2,12,13,13
India,Haryana,Charkhi Dadri,"Mini Secretariat, Charkhi Dadri - HSPCB",22-01-2026 08:00:00,28.593883,76.270653,NO2,9,25,16
India,Haryana,Charkhi Dadri,"Mini Secretariat, Charkhi Dadri - HSPCB",22-01-2026 08:00:00,28.593883,76.270653,SO2,9,11,10
India,Haryana,Charkhi Dadri,"Mini Secretariat, Charkhi Dadri - HSPCB",22-01-2026 08:00:00,28.593883,76.270653,CO,5,25,14
India,Haryana,Charkhi Dadri,"Mini Secretariat, Charkhi Dadri - HSPCB",22-01-2026 08:00:00,28.593883,76.270653,OZONE,13,17,15
India,Haryana,Dharuhera,"Municipal Corporation Office, Dharuhera -  HSPCB",22-01-2026 08:00:00,28.206800,76.799700,NO2,14,59,39
India,Delhi,Delhi,"R K Puram, Delhi - DPCC",22-01-2026 08:00:00,28.563262,77.186937,NH3,2,33,15
India,Delhi,Delhi,"Rohini, Delhi - DPCC",22-01-2026 08:00:00,28.732528,77.119920,PM2.5,87,440,331
India,Delhi,Delhi,"Rohini, Delhi - DPCC",22-01-2026 08:00:00,28.732528,77.119920,NH3,24,28,26
India,Delhi,Delhi,"Shadipur, Delhi - CPCB",22-01-2026 08:00:00,28.6514781,77.1473105,PM2.5,233,348,311
India,Delhi,Delhi,"Shadipur, Delhi - CPCB",22-01-2026 08:00:00,28.6514781,77.1473105,OZONE,13,41,23
India,Delhi,Delhi,"Sirifort, Delhi - CPCB",22-01-2026 08:00:00,28.5504249,77.2159377,PM10,154,500,310
India,Delhi,Delhi,"Sirifort, Delhi - CPCB",22-01-2026 08:00:00,28.5504249,77.2159377,NO2,27,42,33
India,Delhi,Delhi,"Sirifort, Delhi - CPCB",22-01-2026 08:00:00,28.5504249,77.2159377,NH3,3,9,5
India,Delhi,Delhi,"Sirifort, Delhi - CPCB",22-01-2026 08:00:00,28.5504249,77.2159377,CO,28,149,125
India,Delhi,Delhi,"Sonia Vihar, Delhi - DPCC",22-01-2026 08:00:00,28.710508,77.249485,PM2.5,98,427,317
India,Delhi,Delhi,"Sri Aurobindo Marg, Delhi - DPCC",22-01-2026 08:00:00,28.531346,77.190156,PM10,119,221,166
India,Haryana,Gurugram,"Sector-51, Gurugram - HSPCB",22-01-2026 08:00:00,28.4227,77.0667,NH3,NA,NA,NA
India,Haryana,Gurugram,"Sector-51, Gurugram - HSPCB",22-01-2026 08:00:00,28.4227,77.0667,CO,18,102,83
India,Haryana,Gurugram,"Vikas Sadan, Gurugram - HSPCB",22-01-2026 08:00:00,28.4501238,77.0263051,NO2,9,45,26
India,Haryana,Gurugram,"Vikas Sadan, Gurugram - HSPCB",22-01-2026 08:00:00,28.4501238,77.0263051,SO2,2,8,5
India,Haryana,Hisar,"Urban Estate-II, Hisar - HSPCB",22-01-2026 08:00:00,29.140560,75.744941,NH3,10,11,11
India,Haryana,Jind,"Police Lines, Jind - HSPCB",22-01-2026 08:00:00,29.307814,76.337619,CO,NA,NA,NA
India,Haryana,Kaithal,"Rishi Nagar, Kaithal - HSPCB",22-01-2026 08:00:00,29.8006,76.4155,CO,18,98,44
India,Haryana,Kaithal,"Rishi Nagar, Kaithal - HSPCB",22-01-2026 08:00:00,29.8006,76.4155,OZONE,6,24,10
India,Haryana,Karnal,"Sector-12, Karnal - HSPCB",22-01-2026 08:00:00,29.695300,77.002700,NO2,6,7,6
India,Delhi,Delhi,"Vivek Vihar, Delhi - DPCC",22-01-2026 08:00:00,28.672342,77.315260,PM2.5,184,409,342
India,Delhi,Delhi,"Vivek Vihar, Delhi - DPCC",22-01-2026 08:00:00,28.672342,77.315260,PM10,152,425,285
India,Delhi,Delhi,"Wazirpur, Delhi - DPCC",22-01-2026 08:00:00,28.699793,77.165453,PM10,149,491,333
India,Gujarat,Ahmedabad,"Chandkheda, Ahmedabad - IITM",22-01-2026 08:00:00,23.107969,72.574648,NO2,15,67,32
India,Gujarat,Ahmedabad,"Chandkheda, Ahmedabad - IITM",22-01-2026 08:00:00,23.107969,72.574648,SO2,10,17,13
India,Gujarat,Ahmedabad,"Gyaspur, Ahmedabad - IITM",22-01-2026 08:00:00,22.977134,72.553024,CO,25,113,59
India,Gujarat,Ahmedabad,"Gyaspur, Ahmedabad - IITM",22-01-2026 08:00:00,22.977134,72.553024,OZONE,1,163,2
India,Gujarat,Ahmedabad,"Maninagar, Ahmedabad - GPCB",22-01-2026 08:00:00,23.002657,72.591912,PM2.5,82,240,145
India,Gujarat,Ahmedabad,"Maninagar, Ahmedabad - GPCB",22-01-2026 08:00:00,23.002657,72.591912,SO2,27,41,35
India,Gujarat,Ahmedabad,"Raikhad, Ahmedabad - IITM",22-01-2026 08:00:00,23.020509,72.579261,SO2,11,26,16
India,Gujarat,Ahmedabad,"Raikhad, Ahmedabad - IITM",22-01-2026 08:00:00,23.020509,72.579261,CO,18,68,27
India,Gujarat,Ahmedabad,"Rakhial, Ahmedabad - IITM",22-01-2026 08:00:00,23.016834,72.625775,PM2.5,75,208,114
India,Gujarat,Ahmedabad,"SAC ISRO Bopal, Ahmedabad - IITM",22-01-2026 08:00:00,23.041137,72.456691,NO2,29,64,40
India,Gujarat,Ahmedabad,"SAC ISRO Bopal, Ahmedabad - IITM",22-01-2026 08:00:00,23.041137,72.456691,CO,21,54,43
India,Gujarat,Ahmedabad,"SAC ISRO Bopal, Ahmedabad - IITM",22-01-2026 08:00:00,23.041137,72.456691,OZONE,1,82,3
India,Gujarat,Ahmedabad,"SAC ISRO Satellite, Ahmedabad - IITM",22-01-2026 08:00:00,23.023389,72.515201,PM2.5,58,100,81
India,Gujarat,Ankleshwar,"GIDC, Ankleshwar - GPCB",22-01-2026 08:00:00,21.613267,73.010555,NH3,7,9,8
India,Delhi,Delhi,"Okhla Phase-2, Delhi - DPCC",22-01-2026 08:00:00,28.530785,77.271255,OZONE,1,209,9
India,Delhi,Delhi,"Patparganj, Delhi - DPCC",22-01-2026 08:00:00,28.623763,77.287209,PM2.5,193,427,337
India,Delhi,Delhi,"Patparganj, Delhi - DPCC",22-01-2026 08:00:00,28.623763,77.287209,NH3,9,22,14
India,Delhi,Delhi,"Patparganj, Delhi - DPCC",22-01-2026 08:00:00,28.623763,77.287209,SO2,1,13,4
India,Delhi,Delhi,"Punjabi Bagh, Delhi - DPCC",22-01-2026 08:00:00,28.674045,77.131023,PM10,130,414,300
India,Delhi,Delhi,"Punjabi Bagh, Delhi - DPCC",22-01-2026 08:00:00,28.674045,77.131023,NO2,26,72,48
India,Delhi,Delhi,"Punjabi Bagh, Delhi - DPCC",22-01-2026 08:00:00,28.674045,77.131023,SO2,5,18,11
India,Delhi,Delhi,"Pusa, Delhi - DPCC",22-01-2026 08:00:00,28.639652,77.146275,SO2,4,10,7
India,Delhi,Delhi,"Pusa, Delhi - DPCC",22-01-2026 08:00:00,28.639652,77.146275,OZONE,2,27,2
India,Haryana,Kurukshetra,"Sector-7, Kurukshetra - HSPCB",22-01-2026 08:00:00,29.966942,76.875879,PM2.5,89,197,147
India,Haryana,Kurukshetra,"Sector-7, Kurukshetra - HSPCB",22-01-2026 08:00:00,29.966942,76.875879,NH3,5,5,5
India,Haryana,Kurukshetra,"Sector-7, Kurukshetra - HSPCB",22-01-2026 08:00:00,29.966942,76.875879,CO,18,40,30
India,Haryana,Mandikhera,"General Hospital, Mandikhera(Nuh) - HSPCB",22-01-2026 08:00:00,27.9002,76.9938,PM2.5,92,284,166
India,Haryana,Mandikhera,"General Hospital, Mandikhera(Nuh) - HSPCB",22-01-2026 08:00:00,27.9002,76.9938,SO2,31,37,34
India,Haryana,Narnaul,"Shastri Nagar, Narnaul - HSPCB",22-01-2026 08:00:00,28.060249,76.113115,PM2.5,303,417,352
India,Haryana,Narnaul,"Shastri Nagar, Narnaul - HSPCB",22-01-2026 08:00:00,28.060249,76.113115,SO2,6,8,6
India,Gujarat,Gandhinagar,"IIPHG Lekawada, Gandhinagar - IITM",22-01-2026 08:00:00,23.243639,72.68994,SO2,7,12,10
India,Gujarat,Gandhinagar,"IIPHG Lekawada, Gandhinagar - IITM",22-01-2026 08:00:00,23.243639,72.68994,OZONE,2,42,3
India,Gujarat,Gandhinagar,"Sector-10, Gandhinagar - GPCB",22-01-2026 08:00:00,23.221714,72.654328,OZONE,3,71,15
India,Gujarat,Surat,"Science Center, Surat - SMC",22-01-2026 08:00:00,21.170046,72.795405,PM10,NA,NA,NA
India,Gujarat,Surat,"Science Center, Surat - SMC",22-01-2026 08:00:00,21.170046,72.795405,CO,38,48,46
India,Haryana,Faridabad,"New Industrial Town, Faridabad - HSPCB",22-01-2026 08:00:00,28.39072,77.30059,CO,10,13,11
India,Haryana,Faridabad,"Sector 11, Faridabad - HSPCB",22-01-2026 08:00:00,28.376058,77.315741,NH3,10,10,10
India,Haryana,Fatehabad,"Huda Sector, Fatehabad - HSPCB",22-01-2026 08:00:00,29.503664,75.467934,NO2,18,20,19
India,Karnataka,Kalaburagi,"Mahatma Basaveswar Colony, Kalaburgi - KSPCB",22-01-2026 08:00:00,17.336318,76.847397,NH3,2,4,3
India,Karnataka,Kalaburagi,"Mahatma Basaveswar Colony, Kalaburgi - KSPCB",22-01-2026 08:00:00,17.336318,76.847397,CO,36,58,43
India,Karnataka,Koppal,"Diwator Nagar, Koppal - KSPCB",22-01-2026 08:00:00,15.347630,76.181767,OZONE,40,99,46
India,Karnataka,Madikeri,"Stuart Hill, Madikeri - KSPCB",22-01-2026 08:00:00,12.415911,75.735050,OZONE,1,5,2
India,Karnataka,Mysuru,"Hebbal 1st Stage, Mysuru - KSPCB",22-01-2026 08:00:00,12.21041,76.37376,CO,10,104,11
India,Karnataka,Mysuru,"Hebbal 1st Stage, Mysuru - KSPCB",22-01-2026 08:00:00,12.21041,76.37376,OZONE,5,113,18
India,Karnataka,Ramanagara,"Vijay Nagar, Ramanagara - KSPCB",22-01-2026 08:00:00,12.733409,77.298051,OZONE,34,67,44
India,Karnataka,Shivamogga,"Vinoba Nagara, Shivamogga - KSPCB",22-01-2026 08:00:00,13.940000,75.555917,PM2.5,21,49,31
India,Karnataka,Tumakuru,"Thimmalapura, Tumakuru - KSPCB",22-01-2026 08:00:00,13.377516,77.099072,PM2.5,79,500,171
India,Karnataka,Tumakuru,"Thimmalapura, Tumakuru - KSPCB",22-01-2026 08:00:00,13.377516,77.099072,PM10,93,405,148
India,Karnataka,Tumakuru,"Thimmalapura, Tumakuru - KSPCB",22-01-2026 08:00:00,13.377516,77.099072,CO,53,54,54
India,Haryana,Panchgaon,"Amity University, Panchgaon - IITM",22-01-2026 08:00:00,28.3153,76.9143,PM10,24,304,86
India,Haryana,Panipat,"Sector-18, Panipat - HSPCB",22-01-2026 08:00:00,29.432304,76.972765,SO2,18,19,19
India,Haryana,Panipat,"Sector-18, Panipat - HSPCB",22-01-2026 08:00:00,29.432304,76.972765,OZONE,30,30,30
India,Haryana,Rohtak,"MD University, Rohtak - HSPCB",22-01-2026 08:00:00,28.52123,76.37138,PM2.5,102,308,194
India,Haryana,Rohtak,"MD University, Rohtak - HSPCB",22-01-2026 08:00:00,28.52123,76.37138,OZONE,38,40,39
India,Haryana,Sirsa,"F-Block, Sirsa - HSPCB",22-01-2026 08:00:00,29.536400,75.015800,PM2.5,92,278,153
India,Haryana,Sirsa,"F-Block, Sirsa - HSPCB",22-01-2026 08:00:00,29.536400,75.015800,NO2,12,27,19
India,Haryana,Sirsa,"F-Block, Sirsa - HSPCB",22-01-2026 08:00:00,29.536400,75.015800,NH3,10,16,14
