country,state,city,station,last_update,latitude,longitude,pollutant_id,min_value,max_value,avg_value
India,Bihar,Kishanganj,"SDM Office_Khagra, Kishanganj - BSPCB",14-09-2025 07:00:00,26.0881305,87.93840336,PM10,18,81,55
India,Bihar,Kishanganj,"SDM Office_Khagra, Kishanganj - BSPCB",14-09-2025 07:00:00,26.0881305,87.93840336,NO2,7,9,8
India,Bihar,Kishanganj,"SDM Office_Khagra, Kishanganj - BSPCB",14-09-2025 07:00:00,26.0881305,87.93840336,NH3,3,3,3
India,Bihar,Manguraha,"Forest Rest House, Manguraha - BSPCB",14-09-2025 07:00:00,27.308328,84.531742,PM10,28,91,39
India,Bihar,Manguraha,"Forest Rest House, Manguraha - BSPCB",14-09-2025 07:00:00,27.308328,84.531742,NO2,3,6,4
India,Bihar,Motihari,"Gandak Colony, Motihari - BSPCB",14-09-2025 07:00:00,26.63086,84.90051,NO2,NA,NA,NA
India,Bihar,Muzaffarpur,"Buddha Colony, Muzaffarpur - BSPCB",14-09-2025 07:00:00,26.11442,85.39813,PM2.5,18,61,37
India,Bihar,Muzaffarpur,"Buddha Colony, Muzaffarpur - BSPCB",14-09-2025 07:00:00,26.11442,85.39813,NO2,7,19,12
India,Bihar,Gaya,"Collectorate, Gaya - BSPCB",14-09-2025 07:00:00,24.7955,84.9994,PM2.5,3,168,68
India,Bihar,Gaya,"Collectorate, Gaya - BSPCB",14-09-2025 07:00:00,24.7955,84.9994,NO2,6,46,11
India,Bihar,Gaya,"Kareemganj, Gaya - BSPCB",14-09-2025 07:00:00,24.792403,84.992416,NH3,3,7,5
India,Bihar,Gaya,"SFTI Kusdihra, Gaya - BSPCB",14-09-2025 07:00:00,24.762518,84.982348,OZONE,9,19,10
India,Bihar,Hajipur,"Industrial Area, Hajipur - BSPCB",14-09-2025 07:00:00,25.697189,85.245900,NO2,7,27,11
India,Bihar,Hajipur,"Industrial Area, Hajipur - BSPCB",14-09-2025 07:00:00,25.697189,85.245900,OZONE,9,75,20
India,Bihar,Katihar,"Mirchaibari, Katihar - BSPCB",14-09-2025 07:00:00,25.560083,87.553265,NH3,1,1,1
India,Bihar,Katihar,"Mirchaibari, Katihar - BSPCB",14-09-2025 07:00:00,25.560083,87.553265,SO2,20,25,23
India,Assam,Guwahati,"IITG, Guwahati - PCBA",14-09-2025 07:00:00,26.2028636,91.70046436,PM10,11,76,38
India,Assam,Guwahati,"IITG, Guwahati - PCBA",14-09-2025 07:00:00,26.2028636,91.70046436,NO2,1,5,2
India,Assam,Guwahati,"LGBI Airport, Guwahati - PCBA",14-09-2025 07:00:00,26.10887,91.589544,NO2,12,45,16
India,Assam,Guwahati,"LGBI Airport, Guwahati - PCBA",14-09-2025 07:00:00,26.10887,91.589544,SO2,8,17,12
India,Assam,Guwahati,"Pan Bazaar, Guwahati - PCBA",14-09-2025 07:00:00,26.187500,91.744194,SO2,38,78,54
India,Assam,Guwahati,"Railway Colony, Guwahati - PCBA",14-09-2025 07:00:00,26.181742,91.78063,PM10,10,67,35
India,Assam,Guwahati,"Railway Colony, Guwahati - PCBA",14-09-2025 07:00:00,26.181742,91.78063,CO,24,56,33
India,Assam,Nagaon,"Christianpatty, Nagaon - PCBA",14-09-2025 07:00:00,26.349082,92.68449,PM10,42,51,49
India,Andhra_Pradesh,Vijayawada,"Rajiv Nagar, Vijayawada - APPCB",14-09-2025 07:00:00,16.554731,80.649110,SO2,20,29,25
India,Andhra_Pradesh,Vijayawada,"Rajiv Nagar, Vijayawada - APPCB",14-09-2025 07:00:00,16.554731,80.649110,OZONE,61,92,69
India,Andhra_Pradesh,Visakhapatnam,"GVM Corporation, Visakhapatnam - APPCB",14-09-2025 07:00:00,17.72,83.3,SO2,7,14,10
India,Arunachal_Pradesh,Naharlagun,"Naharlagun, Naharlagun - APSPCB",14-09-2025 07:00:00,27.103358,93.679645,PM10,NA,NA,NA
India,Arunachal_Pradesh,Naharlagun,"Naharlagun, Naharlagun - APSPCB",14-09-2025 07:00:00,27.103358,93.679645,NO2,5,5,5
India,Arunachal_Pradesh,Naharlagun,"Naharlagun, Naharlagun - APSPCB",14-09-2025 07:00:00,27.103358,93.679645,SO2,7,8,8
India,Assam,Byrnihat,"Central Academy for SFS, Byrnihat - PCBA",14-09-2025 07:00:00,26.071318,91.87488,NO2,NA,NA,NA
India,Assam,Nalbari,"Bata Chowk, Nalbari - PCBA",14-09-2025 07:00:00,26.446912,91.439057,NO2,2,9,5
India,Assam,Nalbari,"Bata Chowk, Nalbari - PCBA",14-09-2025 07:00:00,26.446912,91.439057,SO2,5,8,8
India,Assam,Silchar,"Tarapur, Silchar - PCBA",14-09-2025 07:00:00,24.82827,92.79525,PM10,44,45,44
India,Assam,Silchar,"Tarapur, Silchar - PCBA",14-09-2025 07:00:00,24.82827,92.79525,SO2,1,5,2
India,Assam,Sivasagar,"Girls College, Sivasagar - PCBA",14-09-2025 07:00:00,26.987634,94.636574,PM2.5,28,43,34
India,Assam,Sivasagar,"Girls College, Sivasagar - PCBA",14-09-2025 07:00:00,26.987634,94.636574,OZONE,2,8,4
India,Bihar,Araria,"Kharahiya Basti, Araria - BSPCB",14-09-2025 07:00:00,26.146529,87.454184,PM2.5,NA,NA,NA
India,Bihar,Araria,"Kharahiya Basti, Araria - BSPCB",14-09-2025 07:00:00,26.146529,87.454184,NO2,NA,NA,NA
India,Bihar,Araria,"Kharahiya Basti, Araria - BSPCB",14-09-2025 07:00:00,26.146529,87.454184,OZONE,9,11,10
India,Bihar,Aurangabad,"Gurdeo Nagar, Aurangabad - BSPCB",14-09-2025 07:00:00,24.75746,84.366208,NO2,7,8,8
India,Bihar,Bettiah,"Kamalnath Nagar, Bettiah - BSPCB",14-09-2025 07:00:00,26.80365,84.51954,OZONE,21,27,24
India,Bihar,Bhagalpur,"DM Office_Kachari Chowk, Bhagalpur - BSPCB",14-09-2025 07:00:00,25.251013,86.989001,PM2.5,17,60,31
India,Bihar,Bhagalpur,"DM Office_Kachari Chowk, Bhagalpur - BSPCB",14-09-2025 07:00:00,25.251013,86.989001,NO2,14,20,15
India,Andhra_Pradesh,Amaravati,"Secretariat, Amaravati - APPCB",14-09-2025 07:00:00,16.5150833,80.5181667,PM2.5,10,60,24
India,Andhra_Pradesh,Amaravati,"Secretariat, Amaravati - APPCB",14-09-2025 07:00:00,16.5150833,80.5181667,NO2,13,26,18
India,Andhra_Pradesh,Amaravati,"Secretariat, Amaravati - APPCB",14-09-2025 07:00:00,16.5150833,80.5181667,NH3,4,5,5
India,Andhra_Pradesh,Anantapur,"Gulzarpet, Anantapur - APPCB",14-09-2025 07:00:00,14.675886,77.593027,PM10,NA,NA,NA
India,Andhra_Pradesh,Chittoor,"Gangineni Cheruvu, Chittoor - APPCB",14-09-2025 07:00:00,13.204880,79.097889,NH3,6,13,8
India,Andhra_Pradesh,Chittoor,"Gangineni Cheruvu, Chittoor - APPCB",14-09-2025 07:00:00,13.204880,79.097889,SO2,21,22,22
India,Bihar,Bhagalpur,"DM Office_Kachari Chowk, Bhagalpur - BSPCB",14-09-2025 07:00:00,25.251013,86.989001,SO2,39,58,49
India,Bihar,Bhagalpur,"Mayaganj, Bhagalpur - BSPCB",14-09-2025 07:00:00,25.265194,87.012947,CO,22,76,58
India,Bihar,Bhagalpur,"Mayaganj, Bhagalpur - BSPCB",14-09-2025 07:00:00,25.265194,87.012947,OZONE,13,46,36
India,Bihar,Bihar Sharif,"D M Colony, Bihar Sharif - BSPCB",14-09-2025 07:00:00,25.204762,85.514960,PM10,89,110,99
India,Bihar,Chhapra,"Darshan Nagar, Chhapra - BSPCB",14-09-2025 07:00:00,25.7808257,84.7446768,PM10,NA,NA,NA
India,Andhra_Pradesh,Tirupati,"Vaikuntapuram, Tirupati - APPCB",14-09-2025 07:00:00,13.615387,79.409230,OZONE,NA,NA,NA
India,Andhra_Pradesh,Vijayawada,"HB Colony, Vijayawada - APPCB",14-09-2025 07:00:00,16.536107,80.594233,PM2.5,59,98,73
India,Andhra_Pradesh,Vijayawada,"HB Colony, Vijayawada - APPCB",14-09-2025 07:00:00,16.536107,80.594233,NH3,5,5,5
India,Andhra_Pradesh,Vijayawada,"HB Colony, Vijayawada - APPCB",14-09-2025 07:00:00,16.536107,80.594233,SO2,13,28,15
India,Andhra_Pradesh,Kadapa,"Yerramukkapalli, Kadapa - APPCB",14-09-2025 07:00:00,14.465052,78.824187,SO2,19,22,20
India,Andhra_Pradesh,Kadapa,"Yerramukkapalli, Kadapa - APPCB",14-09-2025 07:00:00,14.465052,78.824187,OZONE,32,43,38
India,Andhra_Pradesh,Tirumala,"Toll Gate, Tirumala - APPCB",14-09-2025 07:00:00,13.67,79.35,CO,10,78,26
India,Chhattisgarh,Chhal,"Nawapara SECL Colony, Chhal - CECB",14-09-2025 07:00:00,22.118125,83.140608,CO,NA,NA,NA
India,Chhattisgarh,Korba,"Rampur, Korba - CECB",14-09-2025 07:00:00,22.368195,82.746431,NH3,1,1,1
India,Chhattisgarh,Korba,"Rampur, Korba - CECB",14-09-2025 07:00:00,22.368195,82.746431,CO,10,16,16
India,Chhattisgarh,Korba,"Rampur, Korba - CECB",14-09-2025 07:00:00,22.368195,82.746431,OZONE,2,5,2
India,Chhattisgarh,Kunjemura,"OP Jindal School, Kunjemura - CECB",14-09-2025 07:00:00,22.126650,83.483212,NO2,3,3,3
India,Chhattisgarh,Raipur,"AIIMS, Raipur - CECB",14-09-2025 07:00:00,21.258815,81.578979,CO,26,52,32
India,Chhattisgarh,Raipur,"Bhatagaon New ISBT, Raipur - CECB",14-09-2025 07:00:00,21.219665,81.630094,NO2,NA,NA,NA
India,Chhattisgarh,Raipur,"Bhatagaon New ISBT, Raipur - CECB",14-09-2025 07:00:00,21.219665,81.630094,NH3,NA,NA,NA
India,Chhattisgarh,Raipur,"Bhatagaon New ISBT, Raipur - CECB",14-09-2025 07:00:00,21.219665,81.630094,CO,8,18,9
India,Chhattisgarh,Raipur,"Bhatagaon New ISBT, Raipur - CECB",14-09-2025 07:00:00,21.219665,81.630094,OZONE,5,14,7
India,Chhattisgarh,Raipur,"Krishak Nagar, Raipur - CECB",14-09-2025 07:00:00,21.237755,81.705301,NO2,9,12,10
India,Chhattisgarh,Raipur,"Krishak Nagar, Raipur - CECB",14-09-2025 07:00:00,21.237755,81.705301,OZONE,2,7,2
India,Bihar,Muzaffarpur,"MIT-Daudpur Kothi, Muzaffarpur - BSPCB",14-09-2025 07:00:00,26.1403345,85.3650192,NH3,1,3,2
India,Bihar,Muzaffarpur,"MIT-Daudpur Kothi, Muzaffarpur - BSPCB",14-09-2025 07:00:00,26.1403345,85.3650192,CO,31,92,66
India,Bihar,Muzaffarpur,"MIT-Daudpur Kothi, Muzaffarpur - BSPCB",14-09-2025 07:00:00,26.1403345,85.3650192,OZONE,20,48,34
India,Bihar,Muzaffarpur,"Muzaffarpur Collectorate, Muzaffarpur - BSPCB",14-09-2025 07:00:00,26.1209,85.3647,PM2.5,33,70,49
India,Bihar,Muzaffarpur,"Muzaffarpur Collectorate, Muzaffarpur - BSPCB",14-09-2025 07:00:00,26.1209,85.3647,OZONE,12,58,22
India,Bihar,Patna,"DRM Office Danapur, Patna - BSPCB",14-09-2025 07:00:00,25.586562,85.043586,NH3,2,3,3
India,Bihar,Patna,"Govt. High School Shikarpur, Patna - BSPCB",14-09-2025 07:00:00,25.592539,85.227158,SO2,NA,NA,NA
India,Bihar,Patna,"Muradpur, Patna - BSPCB",14-09-2025 07:00:00,25.619651,85.147382,PM10,87,354,150
India,Bihar,Patna,"Muradpur, Patna - BSPCB",14-09-2025 07:00:00,25.619651,85.147382,NO2,8,10,9
India,Bihar,Patna,"Muradpur, Patna - BSPCB",14-09-2025 07:00:00,25.619651,85.147382,NH3,4,5,5
India,Bihar,Patna,"Rajbansi Nagar, Patna - BSPCB",14-09-2025 07:00:00,25.599486,85.113666,CO,20,66,42
India,Bihar,Patna,"Samanpura, Patna - BSPCB",14-09-2025 07:00:00,25.596727,85.085624,PM10,123,220,152
India,Bihar,Purnia,"Mariam Nagar, Purnia - BSPCB",14-09-2025 07:00:00,25.366336,87.117468,PM10,34,81,52
India,Bihar,Purnia,"Mariam Nagar, Purnia - BSPCB",14-09-2025 07:00:00,25.366336,87.117468,NO2,4,6,6
India,Bihar,Purnia,"Mariam Nagar, Purnia - BSPCB",14-09-2025 07:00:00,25.366336,87.117468,SO2,NA,NA,NA
India,Bihar,Rajgir,"Dangi Tola, Rajgir - BSPCB",14-09-2025 07:00:00,25.03280,85.41948,SO2,17,24,21
India,Bihar,Rajgir,"Dangi Tola, Rajgir - BSPCB",14-09-2025 07:00:00,25.03280,85.41948,CO,74,100,87
India,Bihar,Saharsa,"Police Line, Saharsa - BSPCB",14-09-2025 07:00:00,25.892357,86.590325,NO2,4,8,7
India,Bihar,Saharsa,"Police Line, Saharsa - BSPCB",14-09-2025 07:00:00,25.892357,86.590325,SO2,16,17,17
India,Chhattisgarh,Raipur,"Siltara Phase-II, Raipur - CECB",14-09-2025 07:00:00,21.371751,81.664929,OZONE,5,54,23
India,Chhattisgarh,Tumidih,"OP Jindal Industrial Park, Tumidih - CECB",14-09-2025 07:00:00,22.06631475,83.33820077,PM10,22,164,66
India,Chhattisgarh,Tumidih,"OP Jindal Industrial Park, Tumidih - CECB",14-09-2025 07:00:00,22.06631475,83.33820077,CO,16,54,30
India,Delhi,Delhi,"Alipur, Delhi - DPCC",14-09-2025 07:00:00,28.815329,77.153010,PM2.5,18,163,63
India,Delhi,Delhi,"Alipur, Delhi - DPCC",14-09-2025 07:00:00,28.815329,77.153010,NO2,11,39,21
India,Delhi,Delhi,"Alipur, Delhi - DPCC",14-09-2025 07:00:00,28.815329,77.153010,OZONE,3,16,3
India,Delhi,Delhi,"Anand Vihar, Delhi - DPCC",14-09-2025 07:00:00,28.647622,77.3158090,SO2,8,36,26
India,Delhi,Delhi,"Ashok Vihar, Delhi - DPCC",14-09-2025 07:00:00,28.695381,77.181665,NO2,8,64,29
India,Chandigarh,Chandigarh,"Sector-53, Chandigarh - CPCC",14-09-2025 07:00:00,30.719859,76.738637,PM10,13,35,23
India,Chandigarh,Chandigarh,"Sector-53, Chandigarh - CPCC",14-09-2025 07:00:00,30.719859,76.738637,NO2,5,43,18
India,Chhattisgarh,Bhilai,"32Bungalows, Bhilai - CECB",14-09-2025 07:00:00,21.194815,81.314770,PM2.5,15,57,30
India,Chhattisgarh,Bhilai,"32Bungalows, Bhilai - CECB",14-09-2025 07:00:00,21.194815,81.314770,OZONE,2,32,5
India,Chhattisgarh,Bhilai,"Hathkhoj, Bhilai - CECB",14-09-2025 07:00:00,21.224231,81.408350,PM10,27,72,53
India,Chhattisgarh,Bhilai,"Hathkhoj, Bhilai - CECB",14-09-2025 07:00:00,21.224231,81.408350,CO,10,57,16
India,Chhattisgarh,Chhal,"Nawapara SECL Colony, Chhal - CECB",14-09-2025 07:00:00,22.118125,83.140608,PM2.5,NA,NA,NA
India,Delhi,Delhi,"Dr. Karni Singh Shooting Range, Delhi - DPCC",14-09-2025 07:00:00,28.498571,77.264840,NO2,26,61,37
India,Delhi,Delhi,"Dwarka-Sector 8, Delhi - DPCC ",14-09-2025 07:00:00,28.5710274,77.0719006,SO2,1,7,4
India,Delhi,Delhi,"IHBAS, Dilshad Garden, Delhi - CPCB",14-09-2025 07:00:00,28.6811736,77.3025234,CO,8,23,18
India,Delhi,Delhi,"ITO, Delhi - CPCB",14-09-2025 07:00:00,28.628624,77.241060,PM2.5,12,307,69
India,Delhi,Delhi,"Jahangirpuri, Delhi - DPCC",14-09-2025 07:00:00,28.732820,77.170633,PM10,83,147,114
India,Delhi,Delhi,"Jahangirpuri, Delhi - DPCC",14-09-2025 07:00:00,28.732820,77.170633,CO,12,70,58
India,Delhi,Delhi,"Bawana, Delhi - DPCC",14-09-2025 07:00:00,28.776200,77.051074,PM10,62,111,78
India,Delhi,Delhi,"Bawana, Delhi - DPCC",14-09-2025 07:00:00,28.776200,77.051074,SO2,5,9,6
India,Delhi,Delhi,"Burari Crossing, Delhi - IMD",14-09-2025 07:00:00,28.7256504,77.2011573,NO2,7,58,37
India,Delhi,Delhi,"Burari Crossing, Delhi - IMD",14-09-2025 07:00:00,28.7256504,77.2011573,CO,29,66,56
India,Delhi,Delhi,"Chandni Chowk, Delhi - IITM",14-09-2025 07:00:00,28.656756,77.227234,SO2,11,17,14
India,Delhi,Delhi,"Chandni Chowk, Delhi - IITM",14-09-2025 07:00:00,28.656756,77.227234,CO,63,104,94
India,Bihar,Sasaram,"Dada Peer, Sasaram - BSPCB",14-09-2025 07:00:00,24.952822,84.002396,SO2,1,5,2
India,Chandigarh,Chandigarh,"Sector 22, Chandigarh - CPCC",14-09-2025 07:00:00,30.735567,76.775714,PM2.5,5,35,19
India,Chandigarh,Chandigarh,"Sector 22, Chandigarh - CPCC",14-09-2025 07:00:00,30.735567,76.775714,NH3,7,13,11
India,Chandigarh,Chandigarh,"Sector-25, Chandigarh - CPCC",14-09-2025 07:00:00,30.751462,76.762879,NO2,3,18,7
India,Chandigarh,Chandigarh,"Sector-53, Chandigarh - CPCC",14-09-2025 07:00:00,30.719859,76.738637,PM2.5,7,47,28
India,Delhi,Delhi,"Jawaharlal Nehru Stadium, Delhi - DPCC",14-09-2025 07:00:00,28.580280,77.233829,NO2,29,185,72
India,Delhi,Delhi,"Mandir Marg, Delhi - DPCC",14-09-2025 07:00:00,28.636429,77.201067,NO2,1,4,2
India,Delhi,Delhi,"Sri Aurobindo Marg, Delhi - DPCC",14-09-2025 07:00:00,28.531346,77.190156,OZONE,9,57,10
India,Delhi,Delhi,"Vivek Vihar, Delhi - DPCC",14-09-2025 07:00:00,28.672342,77.315260,NO2,NA,NA,NA
India,Delhi,Delhi,"Vivek Vihar, Delhi - DPCC",14-09-2025 07:00:00,28.672342,77.315260,SO2,NA,NA,NA
India,Delhi,Delhi,"Vivek Vihar, Delhi - DPCC",14-09-2025 07:00:00,28.672342,77.315260,CO,NA,NA,NA
India,Gujarat,Ahmedabad,"Chandkheda, Ahmedabad - IITM",14-09-2025 07:00:00,23.107969,72.574648,NO2,NA,NA,NA
India,Gujarat,Ahmedabad,"Chandkheda, Ahmedabad - IITM",14-09-2025 07:00:00,23.107969,72.574648,NH3,NA,NA,NA
India,Gujarat,Ahmedabad,"Gyaspur, Ahmedabad - IITM",14-09-2025 07:00:00,22.977134,72.553024,SO2,1,30,15
India,Gujarat,Ahmedabad,"Maninagar, Ahmedabad - GPCB",14-09-2025 07:00:00,23.002657,72.591912,PM2.5,19,73,44
India,Gujarat,Ahmedabad,"Maninagar, Ahmedabad - GPCB",14-09-2025 07:00:00,23.002657,72.591912,CO,24,74,51
India,Gujarat,Ahmedabad,"Maninagar, Ahmedabad - GPCB",14-09-2025 07:00:00,23.002657,72.591912,OZONE,20,36,26
India,Gujarat,Ahmedabad,"Raikhad, Ahmedabad - IITM",14-09-2025 07:00:00,23.020509,72.579261,PM2.5,32,56,43
India,Gujarat,Ahmedabad,"Raikhad, Ahmedabad - IITM",14-09-2025 07:00:00,23.020509,72.579261,PM10,54,70,63
India,Gujarat,Ahmedabad,"Rakhial, Ahmedabad - IITM",14-09-2025 07:00:00,23.016834,72.625775,PM2.5,6,85,45
India,Gujarat,Ahmedabad,"Rakhial, Ahmedabad - IITM",14-09-2025 07:00:00,23.016834,72.625775,OZONE,2,27,4
India,Gujarat,Ahmedabad,"SAC ISRO Bopal, Ahmedabad - IITM",14-09-2025 07:00:00,23.041137,72.456691,PM2.5,34,59,44
India,Gujarat,Ahmedabad,"SAC ISRO Bopal, Ahmedabad - IITM",14-09-2025 07:00:00,23.041137,72.456691,OZONE,1,28,3
India,Gujarat,Ahmedabad,"SAC ISRO Satellite, Ahmedabad - IITM",14-09-2025 07:00:00,23.023389,72.515201,PM2.5,38,64,48
India,Gujarat,Ahmedabad,"SAC ISRO Satellite, Ahmedabad - IITM",14-09-2025 07:00:00,23.023389,72.515201,PM10,47,76,60
India,Gujarat,Ahmedabad,"SVPI Airport Hansol, Ahmedabad - IITM",14-09-2025 07:00:00,23.076793,72.627874,PM2.5,24,50,31
India,Gujarat,Ankleshwar,"GIDC, Ankleshwar - GPCB",14-09-2025 07:00:00,21.613267,73.010555,PM2.5,50,100,75
India,Gujarat,Gandhinagar,"IIPHG Lekawada, Gandhinagar - IITM",14-09-2025 07:00:00,23.243639,72.68994,NO2,2,8,5
India,Gujarat,Gandhinagar,"Sector-10, Gandhinagar - GPCB",14-09-2025 07:00:00,23.221714,72.654328,OZONE,5,25,10
India,Gujarat,Nandesari,"GIDC, Nandesari - Nandesari Ind. Association",14-09-2025 07:00:00,22.410802,73.097923,SO2,2,23,9
India,Gujarat,Surat,"Science Center, Surat - SMC",14-09-2025 07:00:00,21.170046,72.795405,PM2.5,10,85,41
India,Gujarat,Surat,"Science Center, Surat - SMC",14-09-2025 07:00:00,21.170046,72.795405,SO2,16,20,18
India,Gujarat,Surat,"Science Center, Surat - SMC",14-09-2025 07:00:00,21.170046,72.795405,CO,32,39,37
India,Gujarat,Vapi,"Phase-1 GIDC, Vapi - GPCB",14-09-2025 07:00:00,20.362421,72.918013,PM2.5,41,152,82
India,Gujarat,Vatva,"Phase-4 GIDC, Vatva - GPCB",14-09-2025 07:00:00,22.969611,72.643500,NH3,1,3,2
India,Gujarat,Vatva,"Phase-4 GIDC, Vatva - GPCB",14-09-2025 07:00:00,22.969611,72.643500,SO2,12,15,14
India,Haryana,Panchgaon,"Amity University, Panchgaon - IITM",14-09-2025 07:00:00,28.3153,76.9143,PM10,34,106,56
India,Haryana,Panchgaon,"Amity University, Panchgaon - IITM",14-09-2025 07:00:00,28.3153,76.9143,NO2,14,50,27
India,Haryana,Panchgaon,"Amity University, Panchgaon - IITM",14-09-2025 07:00:00,28.3153,76.9143,NH3,1,3,1
India,Himachal Pradesh,Baddi,"HIMUDA Complex Phase-1, Baddi - HPPCB",14-09-2025 07:00:00,30.943887,76.801991,NH3,6,8,7
India,Himachal Pradesh,Baddi,"HIMUDA Complex Phase-1, Baddi - HPPCB",14-09-2025 07:00:00,30.943887,76.801991,CO,41,72,60
India,Delhi,Delhi,"Rohini, Delhi - DPCC",14-09-2025 07:00:00,28.732528,77.119920,PM2.5,18,60,37
India,Delhi,Delhi,"Rohini, Delhi - DPCC",14-09-2025 07:00:00,28.732528,77.119920,CO,6,31,24
India,Delhi,Delhi,"Shadipur, Delhi - CPCB",14-09-2025 07:00:00,28.6514781,77.1473105,CO,27,57,45
India,Delhi,Delhi,"Shadipur, Delhi - CPCB",14-09-2025 07:00:00,28.6514781,77.1473105,OZONE,6,8,7
India,Delhi,Delhi,"Sri Aurobindo Marg, Delhi - DPCC",14-09-2025 07:00:00,28.531346,77.190156,PM10,46,80,62
India,Delhi,Delhi,"Sri Aurobindo Marg, Delhi - DPCC",14-09-2025 07:00:00,28.531346,77.190156,NH3,4,5,4
India,Delhi,Delhi,"Nehru Nagar, Delhi - DPCC",14-09-2025 07:00:00,28.567890,77.250515,NH3,3,5,4
India,Delhi,Delhi,"North Campus, DU, Delhi - IMD",14-09-2025 07:00:00,28.6573814,77.1585447,PM2.5,22,73,45
India,Delhi,Delhi,"Okhla Phase-2, Delhi - DPCC",14-09-2025 07:00:00,28.530785,77.271255,NO2,23,64,41
India,Delhi,Delhi,"Okhla Phase-2, Delhi - DPCC",14-09-2025 07:00:00,28.530785,77.271255,NH3,5,8,5
India,Delhi,Delhi,"Punjabi Bagh, Delhi - DPCC",14-09-2025 07:00:00,28.674045,77.131023,PM2.5,3,143,37
India,Delhi,Delhi,"Punjabi Bagh, Delhi - DPCC",14-09-2025 07:00:00,28.674045,77.131023,PM10,63,138,90
India,Delhi,Delhi,"Pusa, Delhi - DPCC",14-09-2025 07:00:00,28.639652,77.146275,NO2,31,72,45
India,Delhi,Delhi,"Pusa, Delhi - DPCC",14-09-2025 07:00:00,28.639652,77.146275,CO,40,74,54
India,Delhi,Delhi,"Mandir Marg, Delhi - DPCC",14-09-2025 07:00:00,28.636429,77.201067,OZONE,3,78,15
India,Delhi,Delhi,"Mundka, Delhi - DPCC",14-09-2025 07:00:00,28.684678,77.076574,NO2,27,69,42
India,Delhi,Delhi,"Pusa, Delhi - IMD",14-09-2025 07:00:00,28.636110,77.173332,NO2,1,44,15
India,Karnataka,Ramanagara,"Vijay Nagar, Ramanagara - KSPCB",14-09-2025 07:00:00,12.733409,77.298051,CO,NA,NA,NA
India,Karnataka,Shivamogga,"Vinoba Nagara, Shivamogga - KSPCB",14-09-2025 07:00:00,13.940000,75.555917,PM2.5,24,41,31
India,Karnataka,Tumakuru,"Thimmalapura, Tumakuru - KSPCB",14-09-2025 07:00:00,13.377516,77.099072,NH3,NA,NA,NA
India,Karnataka,Tumakuru,"Thimmalapura, Tumakuru - KSPCB",14-09-2025 07:00:00,13.377516,77.099072,CO,NA,NA,NA
India,Karnataka,Vijayapura,"Ibrahimpur, Vijayapura - KSPCB",14-09-2025 07:00:00,16.802639,75.722694,CO,10,121,36
India,Karnataka,Yadgir,"Collector Office, Yadgir - KSPCB",14-09-2025 07:00:00,16.7602,77.1428,CO,18,50,34
India,Kerala,Eloor,"Udyogamandal, Eloor - Kerala PCB",14-09-2025 07:00:00,10.073232,76.302765,PM10,48,95,66
India,Kerala,Eloor,"Udyogamandal, Eloor - Kerala PCB",14-09-2025 07:00:00,10.073232,76.302765,NO2,7,8,8
India,Karnataka,Kalaburagi,"Lal Bahadur Shastri Nagar, Kalaburagi - KSPCB",14-09-2025 07:00:00,17.321993,76.822628,CO,36,42,38
India,Karnataka,Karwar,"KHB Colony, Karwar - KSPCB",14-09-2025 07:00:00,14.816666,74.141003,NO2,2,8,6
India,Karnataka,Karwar,"KHB Colony, Karwar - KSPCB",14-09-2025 07:00:00,14.816666,74.141003,CO,10,16,10
India,Karnataka,Koppal,"Diwator Nagar, Koppal - KSPCB",14-09-2025 07:00:00,15.347630,76.181767,NH3,5,8,7
India,Karnataka,Madikeri,"Stuart Hill, Madikeri - KSPCB",14-09-2025 07:00:00,12.415911,75.735050,PM2.5,2,19,11
India,Karnataka,Madikeri,"Stuart Hill, Madikeri - KSPCB",14-09-2025 07:00:00,12.415911,75.735050,PM10,2,28,16
India,Karnataka,Mysuru,"Hebbal 1st Stage, Mysuru - KSPCB",14-09-2025 07:00:00,12.21041,76.37376,NH3,3,7,5
India,Karnataka,Ramanagara,"Vijay Nagar, Ramanagara - KSPCB",14-09-2025 07:00:00,12.733409,77.298051,PM2.5,NA,NA,NA
India,Karnataka,Bengaluru,"Sanegurava Halli, Bengaluru - KSPCB",14-09-2025 07:00:00,12.990328,77.5431385,SO2,7,7,7
India,Karnataka,Bengaluru,"Silk Board, Bengaluru - KSPCB",14-09-2025 07:00:00,12.917348,77.622813,PM2.5,27,78,43
India,Karnataka,Bengaluru,"Silk Board, Bengaluru - KSPCB",14-09-2025 07:00:00,12.917348,77.622813,NO2,7,26,13
India,Karnataka,Bengaluru,"Silk Board, Bengaluru - KSPCB",14-09-2025 07:00:00,12.917348,77.622813,SO2,9,11,10
India,Karnataka,Chamarajanagar,"Urban, Chamarajanagar - KSPCB",14-09-2025 07:00:00,11.55358,76.55521,NH3,2,2,2
India,Karnataka,Chamarajanagar,"Urban, Chamarajanagar - KSPCB",14-09-2025 07:00:00,11.55358,76.55521,CO,22,120,34
India,Karnataka,Chikkaballapur,"Chikkaballapur Rural, Chikkaballapur - KSPCB",14-09-2025 07:00:00,13.428828,77.731418,PM10,9,70,41
India,Karnataka,Chikkamagaluru,"Kalyana Nagara, Chikkamagaluru - KSPCB",14-09-2025 07:00:00,13.328028,75.797056,NO2,18,24,19
India,Karnataka,Chikkamagaluru,"Kalyana Nagara, Chikkamagaluru - KSPCB",14-09-2025 07:00:00,13.328028,75.797056,SO2,2,5,3
India,Karnataka,Davanagere,"Devaraj Urs Badavane, Davanagere - KSPCB",14-09-2025 07:00:00,14.475800,75.905200,NH3,NA,NA,NA
India,Karnataka,Davanagere,"Devaraj Urs Badavane, Davanagere - KSPCB",14-09-2025 07:00:00,14.475800,75.905200,OZONE,24,25,25
India,Karnataka,Dharwad,"Kalabhavan, Dharwad - KSPCB",14-09-2025 07:00:00,15.459706,75.008381,CO,NA,NA,NA
India,Karnataka,Dharwad,"Kalabhavan, Dharwad - KSPCB",14-09-2025 07:00:00,15.459706,75.008381,OZONE,13,20,15
India,Karnataka,Haveri,"Ashwini Nagar, Haveri - KSPCB",14-09-2025 07:00:00,14.791800,75.389600,CO,NA,NA,NA
India,Karnataka,Hubballi,"Lingaraj Nagar, Hubballi - KSPCB",14-09-2025 07:00:00,15.3714823,75.1160168,PM10,34,34,34
India,Karnataka,Hubballi,"Lingaraj Nagar, Hubballi - KSPCB",14-09-2025 07:00:00,15.3714823,75.1160168,CO,11,19,12
India,Kerala,Kollam,"Polayathode, Kollam - Kerala PCB",14-09-2025 07:00:00,8.8787,76.6073,PM2.5,20,28,24
India,Kerala,Kollam,"Polayathode, Kollam - Kerala PCB",14-09-2025 07:00:00,8.8787,76.6073,NO2,8,10,9
India,Kerala,Kollam,"Polayathode, Kollam - Kerala PCB",14-09-2025 07:00:00,8.8787,76.6073,CO,14,18,15
India,Kerala,Thiruvananthapuram,"Kariavattom, Thiruvananthapuram - Kerala PCB",14-09-2025 07:00:00,8.563700,76.886500,PM10,64,76,70
India,Kerala,Thiruvananthapuram,"Kariavattom, Thiruvananthapuram - Kerala PCB",14-09-2025 07:00:00,8.563700,76.886500,SO2,1,14,5
India,Kerala,Thiruvananthapuram,"Plammoodu, Thiruvananthapuram - Kerala PCB",14-09-2025 07:00:00,8.5149093,76.9435879,PM2.5,5,92,34
India,Kerala,Thiruvananthapuram,"Plammoodu, Thiruvananthapuram - Kerala PCB",14-09-2025 07:00:00,8.5149093,76.9435879,SO2,6,25,15
India,Kerala,Thrissur,"Corporation Ground, Thrissur - Kerala PCB",14-09-2025 07:00:00,10.532400,76.215900,PM2.5,46,54,50
India,Karnataka,Bengaluru,"City Railway Station, Bengaluru - KSPCB",14-09-2025 07:00:00,12.9756843,77.5660749,SO2,6,13,9
India,Karnataka,Bengaluru,"City Railway Station, Bengaluru - KSPCB",14-09-2025 07:00:00,12.9756843,77.5660749,CO,59,62,60
India,Karnataka,Bengaluru,"Hombegowda Nagar, Bengaluru - KSPCB",14-09-2025 07:00:00,12.938539,77.590100,PM10,34,101,59
India,Karnataka,Bengaluru,"Jayanagar 5th Block, Bengaluru - KSPCB",14-09-2025 07:00:00,12.920984,77.584908,PM10,39,112,62
India,Karnataka,Bengaluru,"RVCE-Mailasandra, Bengaluru - KSPCB",14-09-2025 07:00:00,12.921418,77.502466,NH3,NA,NA,NA
India,Jharkhand,Jorapokhar,"Tata Stadium, Jorapokhar - JSPCB",14-09-2025 07:00:00,23.707909,86.414670,SO2,NA,NA,NA
India,Karnataka,Bagalkot,"Vidayagiri, Bagalkot - KSPCB",14-09-2025 07:00:00,16.172806,75.659694,SO2,NA,NA,NA
India,Karnataka,Bengaluru,"Bapuji Nagar, Bengaluru - KSPCB",14-09-2025 07:00:00,12.951913,77.539784,PM10,50,120,73
India,Karnataka,Bengaluru,"Bapuji Nagar, Bengaluru - KSPCB",14-09-2025 07:00:00,12.951913,77.539784,NO2,4,16,8
India,Karnataka,Bengaluru,"Bapuji Nagar, Bengaluru - KSPCB",14-09-2025 07:00:00,12.951913,77.539784,NH3,1,2,1
India,Madhya Pradesh,Bhopal,"Idgah Hills, Bhopal - MPPCB",14-09-2025 07:00:00,23.264759,77.381568,NO2,9,38,18
India,Madhya Pradesh,Bhopal,"Idgah Hills, Bhopal - MPPCB",14-09-2025 07:00:00,23.264759,77.381568,OZONE,9,47,18
India,Madhya Pradesh,Bhopal,"Paryavaran Parisar, Bhopal - MPPCB",14-09-2025 07:00:00,23.210494,77.425409,NH3,3,5,3
India,Madhya Pradesh,Bhopal,"Paryavaran Parisar, Bhopal - MPPCB",14-09-2025 07:00:00,23.210494,77.425409,SO2,13,17,14
India,Madhya Pradesh,Bhopal,"Paryavaran Parisar, Bhopal - MPPCB",14-09-2025 07:00:00,23.210494,77.425409,CO,16,41,28
India,Madhya Pradesh,Gwalior,"Maharaj Bada, Gwalior - MPPCB",14-09-2025 07:00:00,26.200388,78.147714,NO2,8,25,13
India,Madhya Pradesh,Gwalior,"Maharaj Bada, Gwalior - MPPCB",14-09-2025 07:00:00,26.200388,78.147714,SO2,4,9,6
India,Madhya Pradesh,Gwalior,"Maharaj Bada, Gwalior - MPPCB",14-09-2025 07:00:00,26.200388,78.147714,OZONE,17,38,20
India,Maharashtra,Mumbai,"Borivali East, Mumbai - MPCB",14-09-2025 07:00:00,19.2243333,72.8658113,SO2,4,5,4
India,Maharashtra,Mumbai,"Byculla, Mumbai - BMC",14-09-2025 07:00:00,18.9767,72.8380,NH3,2,22,9
India,Maharashtra,Mumbai,"Byculla, Mumbai - BMC",14-09-2025 07:00:00,18.9767,72.8380,CO,2,20,6
India,Maharashtra,Mumbai,"Chakala-Andheri East, Mumbai - IITM",14-09-2025 07:00:00,19.11074,72.86084,NH3,1,2,1
India,Maharashtra,Mumbai,"Chakala-Andheri East, Mumbai - IITM",14-09-2025 07:00:00,19.11074,72.86084,SO2,1,17,4
India,Maharashtra,Mumbai,"Chembur, Mumbai - MPCB",14-09-2025 07:00:00,19.0364585,72.8954371,PM10,34,90,58
India,Maharashtra,Mumbai,"Chembur, Mumbai - MPCB",14-09-2025 07:00:00,19.0364585,72.8954371,CO,20,56,37
India,Maharashtra,Mumbai,"Chembur, Mumbai - MPCB",14-09-2025 07:00:00,19.0364585,72.8954371,OZONE,5,38,5
India,Maharashtra,Mumbai,"Chhatrapati Shivaji Intl. Airport (T2), Mumbai - MPCB",14-09-2025 07:00:00,19.10078,72.87462,NH3,1,2,1
India,Maharashtra,Mumbai,"Chhatrapati Shivaji Intl. Airport (T2), Mumbai - MPCB",14-09-2025 07:00:00,19.10078,72.87462,SO2,20,21,20
India,Maharashtra,Mumbai,"Chhatrapati Shivaji Intl. Airport (T2), Mumbai - MPCB",14-09-2025 07:00:00,19.10078,72.87462,OZONE,7,8,7
India,Maharashtra,Mumbai,"Colaba, Mumbai - MPCB",14-09-2025 07:00:00,18.910000,72.820000,NO2,23,24,23
India,Madhya Pradesh,Sagar,"Civil Lines, Sagar - MPPCB",14-09-2025 07:00:00,23.838586,78.759431,SO2,6,8,7
India,Madhya Pradesh,Sagar,"Civil Lines, Sagar - MPPCB",14-09-2025 07:00:00,23.838586,78.759431,OZONE,15,53,23
India,Madhya Pradesh,Satna,"Bandhavgar Colony, Satna - Birla Cement",14-09-2025 07:00:00,24.58434363,80.8549414,SO2,18,19,19
India,Madhya Pradesh,Satna,"Bandhavgar Colony, Satna - Birla Cement",14-09-2025 07:00:00,24.58434363,80.8549414,CO,18,34,23
India,Madhya Pradesh,Singrauli,"Suryakiran Bhawan NCL, Singrauli - MPPCB",14-09-2025 07:00:00,24.108970,82.645580,NH3,6,6,6
India,Maharashtra,Ahmednagar,"Tarakpur, Ahmednagar - MPCB",14-09-2025 07:00:00,19.10122,74.73339,PM10,10,293,98
India,Maharashtra,Ahmednagar,"Tarakpur, Ahmednagar - MPCB",14-09-2025 07:00:00,19.10122,74.73339,NO2,16,25,20
India,Maharashtra,Akola,"Ramdaspeth, Akola - MPCB",14-09-2025 07:00:00,20.719516,77.000253,NO2,10,36,19
India,Maharashtra,Chandrapur,"Chauhan Colony, Chandrapur - MPCB",14-09-2025 07:00:00,19.962900,79.298714,CO,21,32,24
India,Maharashtra,Chandrapur,"Chauhan Colony, Chandrapur - MPCB",14-09-2025 07:00:00,19.962900,79.298714,OZONE,19,19,19
India,Maharashtra,Dhule,"Deopur, Dhule - MPCB",14-09-2025 07:00:00,20.918946,74.776388,PM2.5,45,76,57
India,Maharashtra,Dhule,"Deopur, Dhule - MPCB",14-09-2025 07:00:00,20.918946,74.776388,PM10,64,91,80
India,Maharashtra,Jalgaon,"Prabhat Colony, Jalgaon - MPCB",14-09-2025 07:00:00,21.001264,75.565602,NO2,3,10,5
India,Maharashtra,Jalgaon,"Prabhat Colony, Jalgaon - MPCB",14-09-2025 07:00:00,21.001264,75.565602,NH3,2,3,2
India,Maharashtra,Jalna,"Old MIDC, Jalna - MPCB",14-09-2025 07:00:00,19.854616,75.905894,PM2.5,34,77,49
India,Maharashtra,Kalyan,"Khadakpada, Kalyan - MPCB",14-09-2025 07:00:00,19.25292,73.142019,PM10,46,138,86
India,Maharashtra,Kalyan,"Khadakpada, Kalyan - MPCB",14-09-2025 07:00:00,19.25292,73.142019,NO2,7,9,8
India,Madhya Pradesh,Jabalpur,"Marhatal, Jabalpur - MPPCB",14-09-2025 07:00:00,23.168606,79.932247,NO2,19,51,31
India,Madhya Pradesh,Jabalpur,"Suhagi, Jabalpur - JMC",14-09-2025 07:00:00,23.218135,79.957770,CO,18,74,34
India,Madhya Pradesh,Katni,"Gole Bazar, Katni - MPPCB",14-09-2025 07:00:00,23.50016,80.23284,NH3,3,3,3
India,Madhya Pradesh,Mandideep,"Sector-D Industrial Area, Mandideep - MPPCB",14-09-2025 07:00:00,23.108440,77.511428,PM10,75,390,136
India,Madhya Pradesh,Mandideep,"Sector-D Industrial Area, Mandideep - MPPCB",14-09-2025 07:00:00,23.108440,77.511428,NO2,32,73,49
India,Madhya Pradesh,Pithampur,"Sector-2 Industrial Area, Pithampur - MPPCB",14-09-2025 07:00:00,22.624758,75.675238,PM2.5,47,133,79
India,Madhya Pradesh,Pithampur,"Sector-2 Industrial Area, Pithampur - MPPCB",14-09-2025 07:00:00,22.624758,75.675238,NH3,3,4,3
India,Maharashtra,Malegaon,"Mahesh Nagar, Malegaon - MPCB",14-09-2025 07:00:00,20.555712,74.529236,SO2,1,11,4
India,Maharashtra,Mira-Bhayandar,"Bhayandar West, Mira-Bhayandar - MPCB",14-09-2025 07:00:00,19.296481,72.840923,SO2,1,3,2
India,Maharashtra,Mira-Bhayandar,"Bhayandar West, Mira-Bhayandar - MPCB",14-09-2025 07:00:00,19.296481,72.840923,CO,26,60,38
India,Maharashtra,Mira-Bhayandar,"Bhayandar West, Mira-Bhayandar - MPCB",14-09-2025 07:00:00,19.296481,72.840923,OZONE,1,57,39
India,Maharashtra,Mumbai,"Bandra Kurla Complex, Mumbai - IITM",14-09-2025 07:00:00,19.053536,72.84643,NO2,NA,NA,NA
India,Maharashtra,Mumbai,"Bandra Kurla Complex, Mumbai - IITM",14-09-2025 07:00:00,19.053536,72.84643,SO2,1,6,3
India,Maharashtra,Mumbai,"Borivali East, Mumbai - MPCB",14-09-2025 07:00:00,19.2243333,72.8658113,NO2,1,6,4
India,Maharashtra,Badlapur,"Katrap, Badlapur - MPCB",14-09-2025 07:00:00,19.16485,73.23409,PM2.5,17,162,48
India,Maharashtra,Badlapur,"Katrap, Badlapur - MPCB",14-09-2025 07:00:00,19.16485,73.23409,CO,24,79,44
India,Maharashtra,Belapur,"CBD Belapur, Belapur - MPCB",14-09-2025 07:00:00,19.0243902,73.0406721,NH3,4,6,5
India,Maharashtra,Belapur,"CBD Belapur, Belapur - MPCB",14-09-2025 07:00:00,19.0243902,73.0406721,SO2,NA,NA,NA
India,Maharashtra,Belapur,"CBD Belapur, Belapur - MPCB",14-09-2025 07:00:00,19.0243902,73.0406721,OZONE,2,48,18
India,Maharashtra,Bhiwandi,"Gokul Nagar, Bhiwandi - MPCB",14-09-2025 07:00:00,19.309073,73.057223,PM10,36,77,48
India,Maharashtra,Boisar,"Khaira, Boisar - MPCB",14-09-2025 07:00:00,19.786089,72.757971,PM2.5,28,56,41
India,Madhya Pradesh,Indore,"Regional Park, Indore - IMC",14-09-2025 07:00:00,22.6780,75.8559,CO,16,28,23
India,Madhya Pradesh,Indore,"Residency Area, Indore - IMC",14-09-2025 07:00:00,22.7084,75.8815,PM10,39,88,55
India,Madhya Pradesh,Jabalpur,"Govindh Bhavan Colony, Jabalpur - JMC",14-09-2025 07:00:00,23.163174,79.973061,PM2.5,25,62,42
India,Madhya Pradesh,Jabalpur,"Govindh Bhavan Colony, Jabalpur - JMC",14-09-2025 07:00:00,23.163174,79.973061,NO2,36,36,36
India,Madhya Pradesh,Jabalpur,"Govindh Bhavan Colony, Jabalpur - JMC",14-09-2025 07:00:00,23.163174,79.973061,CO,26,29,27
India,Madhya Pradesh,Jabalpur,"Marhatal, Jabalpur - MPPCB",14-09-2025 07:00:00,23.168606,79.932247,PM10,24,104,64
India,Maharashtra,Kolhapur,"Shivaji University, Kolhapur - MPCB",14-09-2025 07:00:00,16.6870449,74.2505872,CO,7,38,10
India,Maharashtra,Kolhapur,"Sinchan Bhavan, Kolhapur - MPCB",14-09-2025 07:00:00,16.7143745,74.2426398,PM2.5,NA,NA,NA
India,Maharashtra,Kolhapur,"Sinchan Bhavan, Kolhapur - MPCB",14-09-2025 07:00:00,16.7143745,74.2426398,NH3,NA,NA,NA
India,Maharashtra,Latur,"Sawe Wadi, Latur - MPCB",14-09-2025 07:00:00,18.39963,76.57452,PM10,9,41,25
India,Maharashtra,Latur,"Sawe Wadi, Latur - MPCB",14-09-2025 07:00:00,18.39963,76.57452,NH3,1,11,3
India,Maharashtra,Latur,"Sawe Wadi, Latur - MPCB",14-09-2025 07:00:00,18.39963,76.57452,CO,6,35,10
India,Maharashtra,Amravati,"Shivneri Colony, Amravati - MPCB",14-09-2025 07:00:00,20.9402359,77.7895248,PM2.5,15,68,42
India,Maharashtra,Amravati,"Shri Shivaji Science College, Amravati - MPCB",14-09-2025 07:00:00,20.939198,77.765701,NO2,2,20,8
India,Maharashtra,Amravati,"Shri Shivaji Science College, Amravati - MPCB",14-09-2025 07:00:00,20.939198,77.765701,CO,18,49,23
India,Maharashtra,Aurangabad,"More Chowk Waluj, Aurangabad - MPCB",14-09-2025 07:00:00,19.8389439,75.244448,CO,9,120,39
India,Maharashtra,Navi Mumbai,"Kopripada-Vashi, Navi Mumbai - MPCB",14-09-2025 07:00:00,19.090337,73.014232,CO,16,54,29
India,Maharashtra,Navi Mumbai,"Mahape, Navi Mumbai - MPCB",14-09-2025 07:00:00,19.1135051,73.008978,NO2,NA,NA,NA
India,Maharashtra,Navi Mumbai,"Mahape, Navi Mumbai - MPCB",14-09-2025 07:00:00,19.1135051,73.008978,SO2,NA,NA,NA
India,Maharashtra,Navi Mumbai,"Nerul, Navi Mumbai - MPCB",14-09-2025 07:00:00,19.008751,73.016620,PM2.5,24,71,48
India,Maharashtra,Navi Mumbai,"Nerul, Navi Mumbai - MPCB",14-09-2025 07:00:00,19.008751,73.016620,PM10,NA,NA,NA
India,Maharashtra,Navi Mumbai,"Nerul, Navi Mumbai - MPCB",14-09-2025 07:00:00,19.008751,73.016620,SO2,NA,NA,NA
India,Maharashtra,Navi Mumbai,"Sanpada, Navi Mumbai - MPCB",14-09-2025 07:00:00,19.0575752,73.0151367,PM2.5,28,128,56
India,Maharashtra,Navi Mumbai,"Sanpada, Navi Mumbai - MPCB",14-09-2025 07:00:00,19.0575752,73.0151367,NO2,8,32,17
India,Maharashtra,Navi Mumbai,"Sanpada, Navi Mumbai - MPCB",14-09-2025 07:00:00,19.0575752,73.0151367,NH3,5,20,10
India,Maharashtra,Navi Mumbai,"Tondare-Taloja, Navi Mumbai - MPCB",14-09-2025 07:00:00,19.0630,73.1209,PM10,NA,NA,NA
India,Maharashtra,Mumbai,"Ghatkopar, Mumbai - BMC",14-09-2025 07:00:00,19.083694,72.920967,PM10,23,62,38
India,Maharashtra,Mumbai,"Ghatkopar, Mumbai - BMC",14-09-2025 07:00:00,19.083694,72.920967,NO2,13,34,22
India,Maharashtra,Mumbai,"Ghatkopar, Mumbai - BMC",14-09-2025 07:00:00,19.083694,72.920967,SO2,8,17,11
India,Maharashtra,Mumbai,"Kandivali East, Mumbai - MPCB",14-09-2025 07:00:00,19.205800,72.868200,PM2.5,30,30,30
India,Maharashtra,Mumbai,"Kandivali East, Mumbai - MPCB",14-09-2025 07:00:00,19.205800,72.868200,PM10,32,74,43
India,Maharashtra,Mumbai,"Kandivali East, Mumbai - MPCB",14-09-2025 07:00:00,19.205800,72.868200,SO2,NA,NA,NA
India,Maharashtra,Mumbai,"Kandivali West, Mumbai - BMC",14-09-2025 07:00:00,19.215859,72.831718,NO2,3,17,9
India,Maharashtra,Mumbai,"Kandivali West, Mumbai - BMC",14-09-2025 07:00:00,19.215859,72.831718,NH3,1,3,2
India,Maharashtra,Mumbai,"Kherwadi_Bandra East, Mumbai - MPCB",14-09-2025 07:00:00,19.0632143,72.8456324,PM10,22,133,58
India,Maharashtra,Mumbai,"Kherwadi_Bandra East, Mumbai - MPCB",14-09-2025 07:00:00,19.0632143,72.8456324,NH3,1,27,12
India,Maharashtra,Navi Mumbai,"Tondare-Taloja, Navi Mumbai - MPCB",14-09-2025 07:00:00,19.0630,73.1209,OZONE,9,17,11
India,Maharashtra,Pimpri-Chinchwad,"Gavalinagar, Pimpri Chinchwad - MPCB",14-09-2025 07:00:00,18.63673,73.82487,PM2.5,19,42,27
India,Maharashtra,Pimpri-Chinchwad,"Gavalinagar, Pimpri Chinchwad - MPCB",14-09-2025 07:00:00,18.63673,73.82487,NO2,21,48,30
India,Maharashtra,Pimpri-Chinchwad,"Park Street Wakad, Pimpri Chinchwad - MPCB",14-09-2025 07:00:00,18.59051,73.77946,NH3,2,9,4
India,Maharashtra,Pimpri-Chinchwad,"Park Street Wakad, Pimpri Chinchwad - MPCB",14-09-2025 07:00:00,18.59051,73.77946,SO2,1,4,3
India,Maharashtra,Pimpri-Chinchwad,"Park Street Wakad, Pimpri Chinchwad - MPCB",14-09-2025 07:00:00,18.59051,73.77946,CO,7,36,16
India,Maharashtra,Nanded,"Sneh Nagar, Nanded - MPCB",14-09-2025 07:00:00,19.173852,77.296291,CO,28,64,45
India,Maharashtra,Nashik,"Hirawadi, Nashik - MPCB",14-09-2025 07:00:00,20.021503,73.813844,PM2.5,14,49,40
India,Maharashtra,Nashik,"Hirawadi, Nashik - MPCB",14-09-2025 07:00:00,20.021503,73.813844,SO2,1,6,2
India,Maharashtra,Nashik,"MIDC Ambad, Nashik - MPCB",14-09-2025 07:00:00,19.950220,73.731480,NO2,3,16,7
India,Maharashtra,Nashik,"Pandav Nagari, Nashik - MPCB",14-09-2025 07:00:00,19.9591346,73.7788008,NH3,2,6,3
India,Maharashtra,Nashik,"Pandav Nagari, Nashik - MPCB",14-09-2025 07:00:00,19.9591346,73.7788008,CO,12,30,14
India,Maharashtra,Mumbai,"Khindipada-Bhandup West, Mumbai - IITM",14-09-2025 07:00:00,19.1653323,72.922099,NO2,4,22,9
India,Maharashtra,Mumbai,"Khindipada-Bhandup West, Mumbai - IITM",14-09-2025 07:00:00,19.1653323,72.922099,NH3,6,10,7
India,Maharashtra,Mumbai,"Khindipada-Bhandup West, Mumbai - IITM",14-09-2025 07:00:00,19.1653323,72.922099,OZONE,2,46,27
India,Maharashtra,Mumbai,"Kurla, Mumbai - MPCB",14-09-2025 07:00:00,19.0863,72.8888,NO2,4,6,5
India,Maharashtra,Mumbai,"Malad West, Mumbai - IITM",14-09-2025 07:00:00,19.19709,72.82204,NH3,6,12,9
India,Maharashtra,Mumbai,"Mindspace-Malad West, Mumbai - MPCB",14-09-2025 07:00:00,19.1878657,72.8304069,NO2,14,16,15
India,Maharashtra,Pune,"Bhumkar Nagar, Pune - IITM",14-09-2025 07:00:00,18.605770,73.749976,NO2,4,21,12
India,Maharashtra,Pune,"Dhankawadi, Pune - IITM",14-09-2025 07:00:00,18.459883,73.852193,PM2.5,16,49,31
India,Maharashtra,Pune,"Dhankawadi, Pune - IITM",14-09-2025 07:00:00,18.459883,73.852193,PM10,NA,NA,NA
India,Maharashtra,Pune,"Katraj Dairy, Pune - MPCB",14-09-2025 07:00:00,18.454450,73.854155,NO2,3,31,13
India,Maharashtra,Pune,"Katraj Dairy, Pune - MPCB",14-09-2025 07:00:00,18.454450,73.854155,NH3,1,4,2
India,Maharashtra,Pune,"Katraj Dairy, Pune - MPCB",14-09-2025 07:00:00,18.454450,73.854155,CO,8,70,19
India,Maharashtra,Nagpur,"Mahal, Nagpur - MPCB",14-09-2025 07:00:00,21.14472,79.107595,PM10,35,65,48
India,Maharashtra,Nagpur,"Opp GPO Civil Lines, Nagpur - MPCB",14-09-2025 07:00:00,21.152875,79.0517531,PM2.5,15,50,33
India,Maharashtra,Nagpur,"Opp GPO Civil Lines, Nagpur - MPCB",14-09-2025 07:00:00,21.152875,79.0517531,NH3,2,2,2
India,Maharashtra,Nagpur,"Ram Nagar, Nagpur - MPCB",14-09-2025 07:00:00,21.143383,79.048912,PM10,30,50,42
India,Maharashtra,Nagpur,"Ram Nagar, Nagpur - MPCB",14-09-2025 07:00:00,21.143383,79.048912,SO2,5,9,6
India,Maharashtra,Mumbai,"Mindspace-Malad West, Mumbai - MPCB",14-09-2025 07:00:00,19.1878657,72.8304069,NH3,5,6,6
India,Maharashtra,Mumbai,"Mindspace-Malad West, Mumbai - MPCB",14-09-2025 07:00:00,19.1878657,72.8304069,OZONE,29,31,30
India,Maharashtra,Mumbai,"Mulund West, Mumbai - MPCB",14-09-2025 07:00:00,19.1750,72.9419,PM2.5,NA,NA,NA
India,Maharashtra,Mumbai,"Shivaji Nagar, Mumbai - BMC",14-09-2025 07:00:00,19.060498,72.923356,OZONE,1,48,22
India,Maharashtra,Pimpri-Chinchwad,"Thergaon, Pimpri Chinchwad - MPCB",14-09-2025 07:00:00,18.616318,73.765797,PM2.5,27,70,50
India,Maharashtra,Pimpri-Chinchwad,"Thergaon, Pimpri Chinchwad - MPCB",14-09-2025 07:00:00,18.616318,73.765797,NH3,1,11,3
India,Odisha,Bhubaneswar,"Patia, Bhubaneswar - OSPCB",14-09-2025 07:00:00,20.34652,85.81630,NO2,12,23,16
India,Odisha,Bhubaneswar,"Patia, Bhubaneswar - OSPCB",14-09-2025 07:00:00,20.34652,85.81630,SO2,1,4,3
India,Odisha,Bhubaneswar,"Patia, Bhubaneswar - OSPCB",14-09-2025 07:00:00,20.34652,85.81630,OZONE,5,302,8
India,Odisha,Brajrajnagar,"GM Office, Brajrajnagar - OSPCB",14-09-2025 07:00:00,21.8004996,83.8396977,PM2.5,10,40,20
India,Odisha,Brajrajnagar,"GM Office, Brajrajnagar - OSPCB",14-09-2025 07:00:00,21.8004996,83.8396977,PM10,14,56,28
India,Odisha,Byasanagar,"Ferro Chrome Colony, Byasanagar - OSPCB",14-09-2025 07:00:00,20.94185,86.11510,NO2,3,19,10
India,Odisha,Byasanagar,"Ferro Chrome Colony, Byasanagar - OSPCB",14-09-2025 07:00:00,20.94185,86.11510,NH3,1,2,2
India,Odisha,Cuttack,"CDA Area, Cuttack - OSPCB",14-09-2025 07:00:00,20.48891     ,85.84768     ,PM10,1,65,20
India,Odisha,Cuttack,"CDA Area, Cuttack - OSPCB",14-09-2025 07:00:00,20.48891     ,85.84768     ,CO,4,124,22
India,Rajasthan,Alwar,"Moti Doongri, Alwar - RSPCB",14-09-2025 07:00:00,27.554793,76.611536,PM10,32,70,46
India,Rajasthan,Alwar,"Moti Doongri, Alwar - RSPCB",14-09-2025 07:00:00,27.554793,76.611536,NH3,6,15,8
India,Rajasthan,Banswara,"Rati Talai, Banswara - RSPCB",14-09-2025 07:00:00,23.555190,74.440010,PM10,71,138,101
India,Rajasthan,Baran,"Bamboliya, Baran - RSPCB",14-09-2025 07:00:00,25.106006,76.469948,NH3,3,5,4
India,Rajasthan,Barmer,"Railway Colony, Barmer - RSPCB",14-09-2025 07:00:00,25.747299,71.393989,PM10,24,77,54
India,Rajasthan,Barmer,"Railway Colony, Barmer - RSPCB",14-09-2025 07:00:00,25.747299,71.393989,NH3,2,4,3
India,Rajasthan,Barmer,"Railway Colony, Barmer - RSPCB",14-09-2025 07:00:00,25.747299,71.393989,OZONE,25,55,37
India,Rajasthan,Bharatpur,"Krishna Nagar, Bharatpur - RSPCB",14-09-2025 07:00:00,27.215415,77.50873,NH3,4,14,7
India,Odisha,Suakati,"OMC Colony, Suakati - OSPCB",14-09-2025 07:00:00,21.606865,85.510538,OZONE,8,9,8
India,Odisha,Tensa,"Barsua Iron Ore Mines, Tensa - OSPCB",14-09-2025 07:00:00,21.869985,85.167016,PM10,26,54,40
India,Odisha,Tensa,"Barsua Iron Ore Mines, Tensa - OSPCB",14-09-2025 07:00:00,21.869985,85.167016,CO,22,32,28
India,Punjab,Bathinda,"Hardev Nagar, Bathinda - PPCB",14-09-2025 07:00:00,30.233011,74.907758,SO2,3,27,15
India,Punjab,Jalandhar,"Civil Line, Jalandhar - PPCB",14-09-2025 07:00:00,31.321907,75.578914,PM2.5,35,57,43
India,Punjab,Jalandhar,"Civil Line, Jalandhar - PPCB",14-09-2025 07:00:00,31.321907,75.578914,NO2,31,34,32
India,Punjab,Jalandhar,"Civil Line, Jalandhar - PPCB",14-09-2025 07:00:00,31.321907,75.578914,NH3,4,4,4
India,Odisha,Cuttack,"CDA Area, Cuttack - OSPCB",14-09-2025 07:00:00,20.48891     ,85.84768     ,OZONE,4,21,8
India,Odisha,Keonjhar,"Jagamohanpur, Keonjhar - OSPCB",14-09-2025 07:00:00,21.643900,85.599355,OZONE,15,20,18
India,Odisha,Nayagarh,"Dabuna, Nayagarh - OSPCB",14-09-2025 07:00:00,21.847279,85.416905,NH3,5,9,7
India,Odisha,Rairangpur,"Divisional Forest Office, Rairangpur - OSPCB",14-09-2025 07:00:00,22.265816,86.174829,PM10,NA,NA,NA
India,Odisha,Rourkela,"Raghunathpali, Rourkela - OSPCB",14-09-2025 07:00:00,22.220833,84.809444,PM10,23,69,43
India,Maharashtra,Virar,"Bolinj, Virar - MPCB",14-09-2025 07:00:00,19.4458210,72.7988231,NO2,4,25,11
India,Maharashtra,Virar,"Bolinj, Virar - MPCB",14-09-2025 07:00:00,19.4458210,72.7988231,NH3,9,9,9
India,Maharashtra,Virar,"Bolinj, Virar - MPCB",14-09-2025 07:00:00,19.4458210,72.7988231,OZONE,4,56,46
India,Meghalaya,Shillong,"Lumpyngngad, Shillong - Meghalaya PCB",14-09-2025 07:00:00,25.5586,91.8985,OZONE,1,22,6
India,Nagaland,Kohima,"PWD Junction, Kohima - NPCB",14-09-2025 07:00:00,25.6635413,94.0989878,PM2.5,4,70,30
India,Nagaland,Kohima,"PWD Junction, Kohima - NPCB",14-09-2025 07:00:00,25.6635413,94.0989878,NO2,3,4,3
India,Punjab,Khanna,"Kalal Majra, Khanna - PPCB",14-09-2025 07:00:00,30.736056 ,76.209694,CO,14,19,16
India,Punjab,Mandi Gobindgarh,"RIMT University, Mandi Gobindgarh - PPCB",14-09-2025 07:00:00,30.649961,76.331442,NH3,6,6,6
India,Rajasthan,Ajmer,"Civil Lines,  Ajmer - RSPCB",14-09-2025 07:00:00,26.470859,74.646594,PM2.5,37,57,43
India,Rajasthan,Ajmer,"Civil Lines,  Ajmer - RSPCB",14-09-2025 07:00:00,26.470859,74.646594,NH3,2,3,2
India,Rajasthan,Ajmer,"Civil Lines,  Ajmer - RSPCB",14-09-2025 07:00:00,26.470859,74.646594,SO2,3,41,16
India,Maharashtra,Sangli,"Vijay Nagar, Sangli - MPCB",14-09-2025 07:00:00, 16.5038,74.3623,NH3,1,3,2
India,Maharashtra,Sangli,"Vijay Nagar, Sangli - MPCB",14-09-2025 07:00:00, 16.5038,74.3623,SO2,3,11,6
India,Maharashtra,Solapur,"Dnyaneshwar Nagar, Solapur - MPCB",14-09-2025 07:00:00,17.6336264,75.9132495,NO2,1,24,9
India,Maharashtra,Thane,"Kasarvadavali, Thane - MPCB",14-09-2025 07:00:00,19.26777,72.97182,PM2.5,15,41,24
India,Maharashtra,Thane,"Kasarvadavali, Thane - MPCB",14-09-2025 07:00:00,19.26777,72.97182,NH3,1,4,2
India,Odisha,Angul,"Hakimapada, Angul - OSPCB",14-09-2025 07:00:00,20.832874,85.104082,OZONE,3,10,3
India,Odisha,Balasore,"Kalidaspur, Balasore - OSPCB",14-09-2025 07:00:00,21.51161,86.89088,PM2.5,5,53,18
India,Odisha,Barbil,"Forest Office, Barbil - OSPCB",14-09-2025 07:00:00,22.1166054,85.3945546,SO2,6,19,9
India,Odisha,Baripada,"Meher Colony, Baripada - OSPCB",14-09-2025 07:00:00,21.941841,86.728318,OZONE,3,21,6
India,Maharashtra,Thane,"Upvan Fort, Thane - MPCB",14-09-2025 07:00:00,19.222279,72.957979,NH3,NA,NA,NA
India,Rajasthan,Hanumangarh,"Housing Board, Hanumangarh - RSPCB",14-09-2025 07:00:00,29.610750,74.283608,NO2,46,292,90
India,Rajasthan,Hanumangarh,"Housing Board, Hanumangarh - RSPCB",14-09-2025 07:00:00,29.610750,74.283608,CO,8,75,68
India,Rajasthan,Jaipur,"Adarsh Nagar, Jaipur - RSPCB",14-09-2025 07:00:00,26.902909,75.836858,NO2,16,67,34
India,Rajasthan,Jaipur,"Adarsh Nagar, Jaipur - RSPCB",14-09-2025 07:00:00,26.902909,75.836858,CO,40,64,48
India,Rajasthan,Jaipur,"Mansarovar Sector-12, Jaipur - RSPCB",14-09-2025 07:00:00,26.843698,75.766894,PM2.5,10,42,23
India,Rajasthan,Jaipur,"Mansarovar Sector-12, Jaipur - RSPCB",14-09-2025 07:00:00,26.843698,75.766894,CO,13,36,20
India,Rajasthan,Jaipur,"Police Commissionerate, Jaipur - RSPCB",14-09-2025 07:00:00,26.9164092,75.7994901,PM2.5,45,94,64
India,Rajasthan,Jaipur,"Police Commissionerate, Jaipur - RSPCB",14-09-2025 07:00:00,26.9164092,75.7994901,PM10,74,137,99
India,Rajasthan,Jaipur,"Police Commissionerate, Jaipur - RSPCB",14-09-2025 07:00:00,26.9164092,75.7994901,OZONE,12,39,14
India,Rajasthan,Bhiwadi,"RIICO Ind. Area III, Bhiwadi - RSPCB",14-09-2025 07:00:00,28.194909,76.862296,PM10,34,101,69
India,Rajasthan,Bhiwadi,"RIICO Ind. Area III, Bhiwadi - RSPCB",14-09-2025 07:00:00,28.194909,76.862296,NH3,3,12,8
India,Rajasthan,Bhiwadi,"Vasundhara Nagar_UIT, Bhiwadi - RSPCB",14-09-2025 07:00:00,28.207266,76.829265,PM10,44,162,90
India,Rajasthan,Bhiwadi,"Vasundhara Nagar_UIT, Bhiwadi - RSPCB",14-09-2025 07:00:00,28.207266,76.829265,NH3,4,6,5
India,Rajasthan,Bhiwadi,"Vasundhara Nagar_UIT, Bhiwadi - RSPCB",14-09-2025 07:00:00,28.207266,76.829265,CO,6,40,30
India,Rajasthan,Bikaner,"MM Ground, Bikaner - RSPCB",14-09-2025 07:00:00,28.018792,73.292658,NO2,5,24,11
India,Rajasthan,Bikaner,"MM Ground, Bikaner - RSPCB",14-09-2025 07:00:00,28.018792,73.292658,CO,8,38,10
India,Rajasthan,Bundi,"New Colony, Bundi - RSPCB",14-09-2025 07:00:00,25.435774,75.644272,NO2,4,39,10
India,Rajasthan,Bundi,"New Colony, Bundi - RSPCB",14-09-2025 07:00:00,25.435774,75.644272,OZONE,8,66,25
India,Rajasthan,Jalore,"Mudtra Sili, Jalore - RSPCB",14-09-2025 07:00:00,25.344694,72.626208,CO,13,42,20
India,Rajasthan,Jhalawar,"Rajlaxmi Nagar, Jhalawar - RSPCB",14-09-2025 07:00:00,24.588397,76.172782,SO2,6,10,7
India,Rajasthan,Jhalawar,"Rajlaxmi Nagar, Jhalawar - RSPCB",14-09-2025 07:00:00,24.588397,76.172782,CO,8,80,33
India,Rajasthan,Jhunjhunu,"Indra Nagar, Jhunjhunu - RSPCB",14-09-2025 07:00:00,28.108988,75.386577,PM2.5,18,106,31
India,Rajasthan,Jhunjhunu,"Indra Nagar, Jhunjhunu - RSPCB",14-09-2025 07:00:00,28.108988,75.386577,PM10,36,118,56
India,Rajasthan,Jhunjhunu,"Indra Nagar, Jhunjhunu - RSPCB",14-09-2025 07:00:00,28.108988,75.386577,CO,10,28,24
India,Rajasthan,Jodhpur,"Collectorate, Jodhpur - RSPCB",14-09-2025 07:00:00,26.268249,73.0193853,NH3,1,6,3
India,Rajasthan,Chittorgarh,"Shastri Nagar, Chittorgarh - RSPCB",14-09-2025 07:00:00,24.892047,74.623527,NO2,6,49,23
India,Rajasthan,Churu,"Subash Chowk, Churu - RSPCB",14-09-2025 07:00:00,28.296139,74.961696,PM10,39,78,54
India,Rajasthan,Churu,"Subash Chowk, Churu - RSPCB",14-09-2025 07:00:00,28.296139,74.961696,NH3,2,4,3
India,Rajasthan,Dausa,"Khatikan Mohalla, Dausa - RSPCB",14-09-2025 07:00:00,26.895552,76.334753,PM2.5,7,69,33
India,Rajasthan,Dholpur,"Raja Ganj, Dholpur - RSPCB",14-09-2025 07:00:00,26.699557,77.898881,NH3,2,3,2
India,Rajasthan,Dungarpur,"Bhoiwada, Dungarpur - RSPCB",14-09-2025 07:00:00,23.837789,73.714926,PM2.5,20,35,30
India,Rajasthan,Kota,"Shrinath Puram, Kota - RSPCB",14-09-2025 07:00:00,25.14389,75.821256,PM2.5,31,101,68
India,Rajasthan,Kota,"Shrinath Puram, Kota - RSPCB",14-09-2025 07:00:00,25.14389,75.821256,SO2,7,10,9
India,Rajasthan,Kota,"Shrinath Puram, Kota - RSPCB",14-09-2025 07:00:00,25.14389,75.821256,CO,48,101,66
India,Rajasthan,Pali,"Indira Colony Vistar, Pali - RSPCB",14-09-2025 07:00:00,25.771061, 73.340227,PM2.5,42,80,61
India,Rajasthan,Pali,"Indira Colony Vistar, Pali - RSPCB",14-09-2025 07:00:00,25.771061, 73.340227,SO2,4,9,8
India,Rajasthan,Pratapgarh,"Pragati Nagar, Pratapgarh - RSPCB",14-09-2025 07:00:00,24.041198,74.780702,PM2.5,23,70,41
India,Rajasthan,Pratapgarh,"Pragati Nagar, Pratapgarh - RSPCB",14-09-2025 07:00:00,24.041198,74.780702,CO,9,20,12
India,Rajasthan,Jodhpur,"Mandor, Jodhpur - RSPCB",14-09-2025 07:00:00,26.358805,73.047444,PM2.5,12,57,28
India,Rajasthan,Jodhpur,"Mandor, Jodhpur - RSPCB",14-09-2025 07:00:00,26.358805,73.047444,SO2,2,4,3
India,Rajasthan,Jodhpur,"Mandor, Jodhpur - RSPCB",14-09-2025 07:00:00,26.358805,73.047444,OZONE,12,46,26
India,Rajasthan,Jodhpur,"Samrat Ashok Udhyan, Jodhpur - RSPCB",14-09-2025 07:00:00,26.253384,72.976571,NH3,1,2,2
India,Rajasthan,Jodhpur,"Samrat Ashok Udhyan, Jodhpur - RSPCB",14-09-2025 07:00:00,26.253384,72.976571,CO,16,26,19
India,Rajasthan,Karauli,"Satyawati Vihar, Karauli - RSPCB",14-09-2025 07:00:00,26.506177,77.025989,PM2.5,12,166,43
India,Rajasthan,Jaipur,"Sector-2 Murlipura, Jaipur - RSPCB",14-09-2025 07:00:00,26.960669,75.771817,PM10,34,90,56
India,Rajasthan,Jaipur,"Sector-2 Murlipura, Jaipur - RSPCB",14-09-2025 07:00:00,26.960669,75.771817,NO2,14,65,29
India,Rajasthan,Jaipur,"Sector-2 Murlipura, Jaipur - RSPCB",14-09-2025 07:00:00,26.960669,75.771817,CO,7,46,14
India,Rajasthan,Jaipur,"Shastri Nagar, Jaipur - RSPCB",14-09-2025 07:00:00,26.9502929,75.730943,PM2.5,38,85,65
India,Rajasthan,Jaisalmer,"Sadar Bazar, Jaisalmer - RSPCB",14-09-2025 07:00:00,26.912329,70.909168,CO,2,10,5
India,Rajasthan,Rajsamand,"Dhoinda, Rajsamand - RSPCB",14-09-2025 07:00:00,25.036360,73.883502,OZONE,23,161,52
India,Rajasthan,Kota,"Nayapura, Kota - RSPCB",14-09-2025 07:00:00,25.196024,75.855668,NH3,4,10,6
India,TamilNadu,Ramanathapuram,"Chalai Bazaar, Ramanathapuram - TNPCB",14-09-2025 07:00:00,9.36399,78.831977,SO2,12,16,14
India,TamilNadu,Salem,"Sona College of Technology, Salem - TNPCB",14-09-2025 07:00:00,11.679111,78.125052,CO,18,18,18
India,TamilNadu,Thanjavur,"Parisutham Nagar, Thanjavur - TNPCB",14-09-2025 07:00:00,10.7654824,79.1389968,PM10,27,103,46
India,TamilNadu,Thanjavur,"Parisutham Nagar, Thanjavur - TNPCB",14-09-2025 07:00:00,10.7654824,79.1389968,NH3,1,1,1
India,TamilNadu,Thoothukudi,"Meelavittan, Thoothukudi - TNPCB",14-09-2025 07:00:00,8.816428 ,78.099039,SO2,2,7,4
India,TamilNadu,Thoothukudi,"Meelavittan, Thoothukudi - TNPCB",14-09-2025 07:00:00,8.816428 ,78.099039,OZONE,1,5,2
India,TamilNadu,Tiruchirappalli,"St Joseph College, Tiruchirappalli - TNPCB",14-09-2025 07:00:00,10.830158,78.691849,NO2,5,18,10
India,TamilNadu,Tiruchirappalli,"St Joseph College, Tiruchirappalli - TNPCB",14-09-2025 07:00:00,10.830158,78.691849,NH3,1,2,2
India,Telangana,Hyderabad,"ECIL Kapra, Hyderabad - TSPCB",14-09-2025 07:00:00,17.470431,78.566959,PM2.5,NA,NA,NA
India,Telangana,Hyderabad,"ICRISAT Patancheru, Hyderabad - TSPCB",14-09-2025 07:00:00,17.518400,78.278777,OZONE,6,28,13
India,Telangana,Hyderabad,"Kokapet, Hyderabad - TSPCB",14-09-2025 07:00:00,17.393559,78.339194,PM2.5,41,50,44
India,Telangana,Hyderabad,"Kokapet, Hyderabad - TSPCB",14-09-2025 07:00:00,17.393559,78.339194,PM10,63,414,93
India,Telangana,Hyderabad,"Kokapet, Hyderabad - TSPCB",14-09-2025 07:00:00,17.393559,78.339194,NH3,2,2,2
India,Telangana,Hyderabad,"Kokapet, Hyderabad - TSPCB",14-09-2025 07:00:00,17.393559,78.339194,SO2,8,14,10
India,Telangana,Hyderabad,"Kompally Municipal Office, Hyderabad - TSPCB",14-09-2025 07:00:00,17.544899,78.486949,NH3,5,6,5
India,Telangana,Hyderabad,"New Malakpet, Hyderabad - TSPCB",14-09-2025 07:00:00,17.37206,78.50864,PM2.5,42,71,52
India,TamilNadu,Tirupur,"Kumaran College, Tirupur - TNPCB",14-09-2025 07:00:00,11.0973603,77.3228673,PM2.5,4,18,12
India,TamilNadu,Tirupur,"Kumaran College, Tirupur - TNPCB",14-09-2025 07:00:00,11.0973603,77.3228673,NO2,2,6,4
India,TamilNadu,Tirupur,"Kumaran College, Tirupur - TNPCB",14-09-2025 07:00:00,11.0973603,77.3228673,OZONE,3,3,3
India,TamilNadu,Vellore,"Vasanthapuram, Vellore - TNPCB",14-09-2025 07:00:00,12.909494,79.131861,SO2,19,20,20
India,TamilNadu,Vellore,"Vasanthapuram, Vellore - TNPCB",14-09-2025 07:00:00,12.909494,79.131861,OZONE,1,24,8
India,Telangana,Hyderabad,"Bollaram Industrial Area, Hyderabad - TSPCB",14-09-2025 07:00:00,17.540891,78.358528,NH3,3,6,5
India,Telangana,Hyderabad,"Central University, Hyderabad - TSPCB",14-09-2025 07:00:00,17.460103,78.334361,PM10,NA,NA,NA
India,TamilNadu,Dindigul,"Mendonsa Colony, Dindigul - TNPCB",14-09-2025 07:00:00,10.358535,77.984321,PM2.5,20,78,36
India,TamilNadu,Dindigul,"Mendonsa Colony, Dindigul - TNPCB",14-09-2025 07:00:00,10.358535,77.984321,NH3,2,3,2
India,TamilNadu,Gummidipoondi,"Anthoni Pillai Nagar, Gummidipoondi - TNPCB",14-09-2025 07:00:00,13.4127,80.1081,PM2.5,60,326,143
India,TamilNadu,Gummidipoondi,"Anthoni Pillai Nagar, Gummidipoondi - TNPCB",14-09-2025 07:00:00,13.4127,80.1081,NO2,2,13,7
India,TamilNadu,Hosur,"SIPCOT Phase-1, Hosur - TNPCB",14-09-2025 07:00:00,12.746998,77.813811,PM2.5,28,50,40
India,TamilNadu,Hosur,"SIPCOT Phase-1, Hosur - TNPCB",14-09-2025 07:00:00,12.746998,77.813811,NH3,1,1,1
India,TamilNadu,Karur,"Kamadenu Nagar, Karur - TNPCB",14-09-2025 07:00:00,10.967820,78.080882,NH3,3,3,3
India,TamilNadu,Chennai,"Arumbakkam, Chennai - TNPCB",14-09-2025 07:00:00,13.0664,80.2112 ,NO2,13,29,18
India,TamilNadu,Chennai,"Manali Village, Chennai - TNPCB",14-09-2025 07:00:00,13.1662,80.2584,CO,12,48,32
India,TamilNadu,Chennai,"Manali, Chennai - CPCB",14-09-2025 07:00:00,13.164544,80.26285,SO2,12,20,16
India,TamilNadu,Chennai,"Perungudi, Chennai - TNPCB",14-09-2025 07:00:00,12.9533,80.2357,PM2.5,24,72,49
India,TamilNadu,Chennai,"Perungudi, Chennai - TNPCB",14-09-2025 07:00:00,12.9533,80.2357,SO2,1,3,2
India,TamilNadu,Chennai,"Perungudi, Chennai - TNPCB",14-09-2025 07:00:00,12.9533,80.2357,OZONE,1,5,3
India,TamilNadu,Chennai,"Royapuram, Chennai - TNPCB",14-09-2025 07:00:00,13.1036,80.2909,PM2.5,16,75,52
India,Rajasthan,Tonk,"Shastri Nagar, Tonk - RSPCB",14-09-2025 07:00:00,26.159933,75.780517,CO,1,30,14
India,Rajasthan,Udaipur,"Ashok Nagar, Udaipur - RSPCB",14-09-2025 07:00:00,24.5886166,73.6321397,NO2,4,58,30
India,Sikkim,Gangtok,"Zero Point GICI, Gangtok - SSPCB",14-09-2025 07:00:00,27.338530,88.614099,NH3,1,22,3
India,TamilNadu,Chengalpattu,"Crescent University, Chengalpattu - TNPCB",14-09-2025 07:00:00,12.8777316,80.0834807,SO2,6,20,12
India,TamilNadu,Chennai,"Velachery Res. Area, Chennai - CPCB",14-09-2025 07:00:00,13.0052189,80.2398125,NH3,3,5,4
India,TamilNadu,Chennai,"Velachery Res. Area, Chennai - CPCB",14-09-2025 07:00:00,13.0052189,80.2398125,OZONE,6,9,7
India,TamilNadu,Coimbatore,"SIDCO Kurichi, Coimbatore - TNPCB",14-09-2025 07:00:00,10.942451,76.978996,OZONE,1,8,1
India,TamilNadu,Nagapattinam,"Velippalayam, Nagapattinam - TNPCB",14-09-2025 07:00:00,10.798548,79.838212,PM10,NA,NA,NA
India,TamilNadu,Ooty,"Bombay Castel, Ooty - TNPCB",14-09-2025 07:00:00,11.4068288,76.7138973,OZONE,5,8,5
India,TamilNadu,Pudukottai,"SIPCOT Nathampannai, Pudukottai - TNPCB",14-09-2025 07:00:00,10.423417,78.784889,NO2,13,21,17
India,Telangana,Hyderabad,"New Malakpet, Hyderabad - TSPCB",14-09-2025 07:00:00,17.37206,78.50864,PM10,63,73,68
India,Telangana,Hyderabad,"Ramachandrapuram, Hyderabad - TSPCB",14-09-2025 07:00:00,17.528544,78.286195,NH3,5,7,6
India,Telangana,Hyderabad,"Sanathnagar, Hyderabad - TSPCB",14-09-2025 07:00:00,17.4559458,78.4332152,PM2.5,37,75,52
India,Telangana,Hyderabad,"Somajiguda, Hyderabad - TSPCB",14-09-2025 07:00:00,17.417094,78.457437,PM2.5,74,231,136
India,Telangana,Hyderabad,"Somajiguda, Hyderabad - TSPCB",14-09-2025 07:00:00,17.417094,78.457437,NO2,10,11,10
India,Telangana,Hyderabad,"Somajiguda, Hyderabad - TSPCB",14-09-2025 07:00:00,17.417094,78.457437,NH3,2,3,3
India,Telangana,Hyderabad,"Somajiguda, Hyderabad - TSPCB",14-09-2025 07:00:00,17.417094,78.457437,CO,8,46,15
India,Telangana,Hyderabad,"Zoo Park, Hyderabad - TSPCB",14-09-2025 07:00:00,17.349694,78.451437,PM2.5,NA,NA,NA
India,Tripura,Agartala,"Bardowali, Agartala - Tripura SPCB",14-09-2025 07:00:00,23.8175497,91.2726974,NH3,2,2,2
India,Uttar_Pradesh,Gorakhpur,"Madan Mohan Malaviya University of Technology, Gorakhpur - UPPCB",14-09-2025 07:00:00,26.730136,83.433859,SO2,23,24,24
India,Uttar_Pradesh,Greater Noida,"Knowledge Park - III, Greater Noida - UPPCB",14-09-2025 07:00:00,28.47272,77.482000,PM2.5,NA,NA,NA
India,Uttar_Pradesh,Hapur,"Anand Vihar, Hapur - UPPCB",14-09-2025 07:00:00,28.725645,77.749675,PM2.5,17,125,59
India,Uttar_Pradesh,Hapur,"Anand Vihar, Hapur - UPPCB",14-09-2025 07:00:00,28.725645,77.749675,SO2,16,43,25
India,Uttar_Pradesh,Hapur,"Anand Vihar, Hapur - UPPCB",14-09-2025 07:00:00,28.725645,77.749675,CO,37,86,61
India,Uttar_Pradesh,Jhansi,"Shivaji Nagar, Jhansi - UPPCB",14-09-2025 07:00:00,25.4547,78.6039,NH3,4,4,4
India,Uttar_Pradesh,Kanpur,"FTI Kidwai Nagar, Kanpur - UPPCB",14-09-2025 07:00:00,26.428282,80.327067,PM2.5,23,78,42
India,Uttar_Pradesh,Bareilly,"Civil Lines, Bareilly - UPPCB",14-09-2025 07:00:00,28.359581,79.414455,PM2.5,2,19,10
India,Uttar_Pradesh,Bareilly,"Civil Lines, Bareilly - UPPCB",14-09-2025 07:00:00,28.359581,79.414455,NH3,2,4,2
India,Uttar_Pradesh,Bareilly,"Rajendra Nagar, Bareilly - UPPCB",14-09-2025 07:00:00,28.38910936,79.42963708,PM2.5,50,97,70
India,Uttar_Pradesh,Bareilly,"Rajendra Nagar, Bareilly - UPPCB",14-09-2025 07:00:00,28.38910936,79.42963708,NO2,9,10,9
India,Uttar_Pradesh,Bareilly,"Rajendra Nagar, Bareilly - UPPCB",14-09-2025 07:00:00,28.38910936,79.42963708,CO,53,97,65
India,Uttar_Pradesh,Bulandshahr,"Yamunapuram, Bulandshahr - UPPCB",14-09-2025 07:00:00,28.406963,77.849831,CO,14,43,28
India,Uttar_Pradesh,Firozabad,"Nagla Bhau, Firozabad - UPPCB",14-09-2025 07:00:00,27.168897,78.376960,PM10,26,73,39
India,Uttar_Pradesh,Firozabad,"Nagla Bhau, Firozabad - UPPCB",14-09-2025 07:00:00,27.168897,78.376960,OZONE,10,15,13
India,Uttar_Pradesh,Kanpur,"FTI Kidwai Nagar, Kanpur - UPPCB",14-09-2025 07:00:00,26.428282,80.327067,CO,46,66,55
India,Uttar_Pradesh,Kanpur,"Nehru Nagar, Kanpur - UPPCB",14-09-2025 07:00:00,26.4703136,80.3229863,PM10,NA,NA,NA
India,Uttar_Pradesh,Kanpur,"Nehru Nagar, Kanpur - UPPCB",14-09-2025 07:00:00,26.4703136,80.3229863,NO2,NA,NA,NA
India,Uttar_Pradesh,Khurja,"Kalindi Kunj, Khurja - UPPCB",14-09-2025 07:00:00,28.2348927,77.8683002,PM10,NA,NA,NA
India,Uttar_Pradesh,Khurja,"Kalindi Kunj, Khurja - UPPCB",14-09-2025 07:00:00,28.2348927,77.8683002,SO2,NA,NA,NA
India,Uttar_Pradesh,Lucknow,"B R Ambedkar University, Lucknow - UPPCB",14-09-2025 07:00:00,26.766433,80.927299,PM2.5,58,190,111
India,Uttar_Pradesh,Lucknow,"B R Ambedkar University, Lucknow - UPPCB",14-09-2025 07:00:00,26.766433,80.927299,PM10,85,190,111
India,Uttar_Pradesh,Lucknow,"Gomti Nagar, Lucknow - UPPCB",14-09-2025 07:00:00,26.868120,81.005119,CO,39,42,39
India,Uttar_Pradesh,Lucknow,"Kukrail Picnic Spot-1, Lucknow - UPPCB",14-09-2025 07:00:00,26.90723,80.98579,NH3,4,4,4
India,Uttar_Pradesh,Lucknow,"Lalbagh, Lucknow - CPCB",14-09-2025 07:00:00,26.8458805,80.9365541,NH3,13,21,17
India,Uttar_Pradesh,Lucknow,"Talkatora District Industries Center, Lucknow - CPCB",14-09-2025 07:00:00,26.83399722,80.8917361,PM10,37,86,60
India,Uttar_Pradesh,Lucknow,"Talkatora District Industries Center, Lucknow - CPCB",14-09-2025 07:00:00,26.83399722,80.8917361,SO2,2,25,9
India,Uttar_Pradesh,Meerut,"Ganga Nagar, Meerut - UPPCB",14-09-2025 07:00:00,28.999264,77.7590354,NO2,31,46,37
India,Uttar_Pradesh,Ghaziabad,"Indirapuram, Ghaziabad - UPPCB",14-09-2025 07:00:00,28.646233,77.358075,SO2,2,30,15
India,Uttar_Pradesh,Ghaziabad,"Loni, Ghaziabad - UPPCB",14-09-2025 07:00:00,28.757294,77.278792,PM2.5,12,131,57
India,Uttar_Pradesh,Ghaziabad,"Loni, Ghaziabad - UPPCB",14-09-2025 07:00:00,28.757294,77.278792,NO2,18,83,38
India,Uttar_Pradesh,Ghaziabad,"Loni, Ghaziabad - UPPCB",14-09-2025 07:00:00,28.757294,77.278792,NH3,2,16,4
India,Uttar_Pradesh,Ghaziabad,"Sanjay Nagar, Ghaziabad - UPPCB",14-09-2025 07:00:00,28.685382,77.453839,NO2,25,56,38
India,Uttar_Pradesh,Agra,"Manoharpur, Agra - UPPCB",14-09-2025 07:00:00,27.23711,78.01936,PM10,19,69,47
India,Uttar_Pradesh,Agra,"Rohta, Agra - UPPCB",14-09-2025 07:00:00,27.106972,78.000111,NO2,14,14,14
India,Uttar_Pradesh,Agra,"Shahjahan Garden, Agra - UPPCB",14-09-2025 07:00:00,27.169338,78.03582,PM2.5,23,76,56
India,Uttar_Pradesh,Agra,"Shahjahan Garden, Agra - UPPCB",14-09-2025 07:00:00,27.169338,78.03582,CO,6,46,20
India,Uttar_Pradesh,Lucknow,"Kendriya Vidyalaya, Lucknow - CPCB",14-09-2025 07:00:00,26.906111,80.948222,NO2,22,51,34
India,Uttar_Pradesh,Lucknow,"Kendriya Vidyalaya, Lucknow - CPCB",14-09-2025 07:00:00,26.906111,80.948222,CO,24,72,36
India,Uttar_Pradesh,Lucknow,"Kukrail Picnic Spot-1, Lucknow - UPPCB",14-09-2025 07:00:00,26.90723,80.98579,PM10,NA,NA,NA
India,Uttar_Pradesh,Lucknow,"Kukrail Picnic Spot-1, Lucknow - UPPCB",14-09-2025 07:00:00,26.90723,80.98579,NO2,22,28,23
India,Uttar_Pradesh,Ghaziabad,"Vasundhara, Ghaziabad - UPPCB",14-09-2025 07:00:00,28.6603346,77.3572563,PM10,96,173,127
India,Uttar_Pradesh,Gorakhpur,"Madan Mohan Malaviya University of Technology, Gorakhpur - UPPCB",14-09-2025 07:00:00,26.730136,83.433859,NH3,1,1,1
India,Uttar_Pradesh,Moradabad,"Employment Office, Moradabad - UPPCB",14-09-2025 07:00:00,28.88528,78.73880,OZONE,16,47,27
India,Uttar_Pradesh,Moradabad,"Jigar Colony, Moradabad - UPPCB",14-09-2025 07:00:00,28.856664,78.772638,NH3,6,9,6
India,Uttar_Pradesh,Moradabad,"Jigar Colony, Moradabad - UPPCB",14-09-2025 07:00:00,28.856664,78.772638,CO,40,40,40
India,Uttar_Pradesh,Moradabad,"Kashiram Nagar, Moradabad - UPPCB",14-09-2025 07:00:00,28.849399,78.742362,NH3,4,4,4
India,Uttar_Pradesh,Moradabad,"Transport Nagar, Moradabad - UPPCB",14-09-2025 07:00:00,28.802625,78.753728,PM2.5,NA,NA,NA
India,Uttar_Pradesh,Moradabad,"Transport Nagar, Moradabad - UPPCB",14-09-2025 07:00:00,28.802625,78.753728,NO2,23,28,27
India,Uttar_Pradesh,Muzaffarnagar,"New Mandi, Muzaffarnagar - UPPCB",14-09-2025 07:00:00,29.4723508,77.7194031,PM2.5,35,107,56
India,Uttar_Pradesh,Muzaffarnagar,"New Mandi, Muzaffarnagar - UPPCB",14-09-2025 07:00:00,29.4723508,77.7194031,PM10,49,109,76
India,Uttar_Pradesh,Muzaffarnagar,"New Mandi, Muzaffarnagar - UPPCB",14-09-2025 07:00:00,29.4723508,77.7194031,NH3,4,6,5
India,Uttar_Pradesh,Noida,"Sector - 125, Noida - UPPCB",14-09-2025 07:00:00,28.5447608,77.3231257,PM10,90,487,203
India,Uttar_Pradesh,Noida,"Sector - 125, Noida - UPPCB",14-09-2025 07:00:00,28.5447608,77.3231257,NO2,18,74,41
India,West_Bengal,Asansol,"Trivenidevi Bhalotia College, Asansol - WBPCB",14-09-2025 07:00:00,23.616515,87.119133,PM2.5,29,65,47
India,West_Bengal,Asansol,"Trivenidevi Bhalotia College, Asansol - WBPCB",14-09-2025 07:00:00,23.616515,87.119133,PM10,25,52,40
India,West_Bengal,Asansol,"Trivenidevi Bhalotia College, Asansol - WBPCB",14-09-2025 07:00:00,23.616515,87.119133,OZONE,12,31,14
India,West_Bengal,Barrackpore,"SVSPA Campus, Barrackpore - WBPCB",14-09-2025 07:00:00,22.7605581,88.3617589,NH3,6,13,9
India,West_Bengal,Durgapur,"Mahishkapur Road_B-Zone, Durgapur - WBPCB",14-09-2025 07:00:00,23.567923,87.306843,PM2.5,14,35,23
India,West_Bengal,Durgapur,"Mahishkapur Road_B-Zone, Durgapur - WBPCB",14-09-2025 07:00:00,23.567923,87.306843,CO,32,46,40
India,West_Bengal,Durgapur,"PCBL Residential Complex, Durgapur - WBPCB",14-09-2025 07:00:00,23.5087640,87.3544400,NO2,5,16,10
India,West_Bengal,Durgapur,"PCBL Residential Complex, Durgapur - WBPCB",14-09-2025 07:00:00,23.5087640,87.3544400,NH3,3,4,4
India,West_Bengal,Durgapur,"Womens College_City Center, Durgapur - WBPCB (Formerly known as Sidhu Kanhu Indoor Stadium)",14-09-2025 07:00:00,23.549395,87.300496,NH3,3,3,3
India,Uttar_Pradesh,Prayagraj,"Nagar Nigam, Prayagraj - UPPCB",14-09-2025 07:00:00,25.44919916 ,81.82735986 ,OZONE,12,25,19
India,Uttar_Pradesh,Varanasi,"Ardhali Bazar, Varanasi - UPPCB",14-09-2025 07:00:00,25.3505986,82.9083074,PM10,27,134,55
India,Uttar_Pradesh,Varanasi,"Ardhali Bazar, Varanasi - UPPCB",14-09-2025 07:00:00,25.3505986,82.9083074,CO,4,14,10
India,Uttar_Pradesh,Varanasi,"IESD Banaras Hindu University, Varanasi - UPPCB",14-09-2025 07:00:00,25.262326,82.995408,SO2,21,26,25
India,Uttar_Pradesh,Varanasi,"IESD Banaras Hindu University, Varanasi - UPPCB",14-09-2025 07:00:00,25.262326,82.995408,CO,4,19,10
India,Uttar_Pradesh,Varanasi,"IESD Banaras Hindu University, Varanasi - UPPCB",14-09-2025 07:00:00,25.262326,82.995408,OZONE,6,29,13
India,Uttar_Pradesh,Varanasi,"Maldahiya, Varanasi - UPPCB",14-09-2025 07:00:00,25.32393,82.99687,PM2.5,8,28,19
India,Uttar_Pradesh,Varanasi,"Maldahiya, Varanasi - UPPCB",14-09-2025 07:00:00,25.32393,82.99687,NO2,2,2,2
India,Uttar_Pradesh,Varanasi,"Maldahiya, Varanasi - UPPCB",14-09-2025 07:00:00,25.32393,82.99687,SO2,28,30,29
India,Uttar_Pradesh,Vrindavan,"Omex Eternity, Vrindavan - UPPCB",14-09-2025 07:00:00,27.5714090,77.6557570,NO2,12,12,12
India,Uttar_Pradesh,Vrindavan,"Omex Eternity, Vrindavan - UPPCB",14-09-2025 07:00:00,27.5714090,77.6557570,NH3,2,2,2
India,Uttarakhand,Dehradun,"Doon University, Dehradun - UKPCB",14-09-2025 07:00:00,30.269444,78.044167,PM10,8,43,29
India,Uttarakhand,Dehradun,"Doon University, Dehradun - UKPCB",14-09-2025 07:00:00,30.269444,78.044167,CO,8,20,17
India,Uttarakhand,Dehradun,"Doon University, Dehradun - UKPCB",14-09-2025 07:00:00,30.269444,78.044167,OZONE,14,24,14
India,Uttarakhand,Kashipur,"Govt. Girls Inter College, Kashipur - UKPCB",14-09-2025 07:00:00,29.2124114,78.9611753,PM10,21,75,41
India,Uttarakhand,Kashipur,"Govt. Girls Inter College, Kashipur - UKPCB",14-09-2025 07:00:00,29.2124114,78.9611753,SO2,2,5,4
India,Uttarakhand,Rishikesh,"Shivaji Nagar, Rishikesh - UKPCB",14-09-2025 07:00:00,30.075911,78.2859547,NH3,4,9,7
India,West_Bengal,Asansol,"Asansol Court Area, Asansol - WBPCB",14-09-2025 07:00:00,23.685297,86.945968,OZONE,10,17,12
India,West_Bengal,Asansol,"Evelyn Lodge, Asansol - WBPCB",14-09-2025 07:00:00,23.6979360,86.9443950,CO,6,15,12
India,West_Bengal,Asansol,"Mahabir Colliery, Asansol - WBPCB",14-09-2025 07:00:00,23.6181830,87.1057180,PM10,15,40,26
India,West_Bengal,Kolkata,"Jadavpur, Kolkata - WBPCB",14-09-2025 07:00:00,22.49929,88.36917,OZONE,10,17,12
India,West_Bengal,Kolkata,"Rabindra Bharati University, Kolkata - WBPCB",14-09-2025 07:00:00,22.627847,88.380669,PM10,19,68,36
India,West_Bengal,Kolkata,"Rabindra Bharati University, Kolkata - WBPCB",14-09-2025 07:00:00,22.627847,88.380669,CO,19,25,21
India,West_Bengal,Kolkata,"Rabindra Sarobar, Kolkata - WBPCB",14-09-2025 07:00:00,22.51106,88.35142,NO2,16,63,32
India,West_Bengal,Kolkata,"Rabindra Sarobar, Kolkata - WBPCB",14-09-2025 07:00:00,22.51106,88.35142,SO2,4,6,5
India,West_Bengal,Kolkata,"Rabindra Sarobar, Kolkata - WBPCB",14-09-2025 07:00:00,22.51106,88.35142,CO,13,24,16
India,West_Bengal,Kolkata,"Victoria, Kolkata - WBPCB",14-09-2025 07:00:00,22.5448082,88.3403691,SO2,1,14,9
India,West_Bengal,Siliguri,"Ward-32 Bapupara, Siliguri - WBPCB",14-09-2025 07:00:00,26.6879226,88.4152495,PM2.5,25,52,36
India,West_Bengal,Siliguri,"Ward-32 Bapupara, Siliguri - WBPCB",14-09-2025 07:00:00,26.6879226,88.4152495,NH3,12,12,12
India,Uttar_Pradesh,Noida,"Sector - 125, Noida - UPPCB",14-09-2025 07:00:00,28.5447608,77.3231257,NH3,5,14,10
India,Uttar_Pradesh,Noida,"Sector - 62, Noida - IMD",14-09-2025 07:00:00,28.6245479,77.3577104,PM2.5,30,91,52
India,Uttar_Pradesh,Noida,"Sector - 62, Noida - IMD",14-09-2025 07:00:00,28.6245479,77.3577104,CO,26,44,41
India,Uttar_Pradesh,Noida,"Sector - 62, Noida - IMD",14-09-2025 07:00:00,28.6245479,77.3577104,OZONE,7,91,15
India,Uttar_Pradesh,Noida,"Sector-1, Noida - UPPCB",14-09-2025 07:00:00,28.5898,77.3101,NH3,7,8,8
India,Uttar_Pradesh,Noida,"Sector-1, Noida - UPPCB",14-09-2025 07:00:00,28.5898,77.3101,CO,20,66,52
India,Uttar_Pradesh,Noida,"Sector-116, Noida - UPPCB",14-09-2025 07:00:00,28.569230,77.393848,PM10,78,221,127
India,Uttar_Pradesh,Noida,"Sector-116, Noida - UPPCB",14-09-2025 07:00:00,28.569230,77.393848,NO2,44,124,79
India,Uttar_Pradesh,Prayagraj,"Motilal Nehru NIT, Prayagraj - UPPCB",14-09-2025 07:00:00,25.494,81.863,OZONE,7,18,8
India,West_Bengal,Howrah,"Ghusuri, Howrah - WBPCB",14-09-2025 07:00:00,22.611968,88.347422,CO,9,16,11
India,West_Bengal,Howrah,"Ghusuri, Howrah - WBPCB",14-09-2025 07:00:00,22.611968,88.347422,OZONE,13,31,19
India,West_Bengal,Kolkata,"Ballygunge, Kolkata - WBPCB",14-09-2025 07:00:00,22.5367507,88.3638022,OZONE,18,28,21
India,West_Bengal,Kolkata,"Bidhannagar, Kolkata - WBPCB",14-09-2025 07:00:00,22.58157048,88.41002457,SO2,5,8,7
India,West_Bengal,Kolkata,"Bidhannagar, Kolkata - WBPCB",14-09-2025 07:00:00,22.58157048,88.41002457,CO,30,38,34
India,West_Bengal,Kolkata,"Fort William, Kolkata - WBPCB",14-09-2025 07:00:00,22.556640,88.342674,PM10,21,37,29
India,West_Bengal,Kolkata,"Fort William, Kolkata - WBPCB",14-09-2025 07:00:00,22.556640,88.342674,NO2,7,118,36
India,West_Bengal,Kolkata,"Jadavpur, Kolkata - WBPCB",14-09-2025 07:00:00,22.49929,88.36917,PM10,36,77,48
India,Uttar_Pradesh,Meerut,"Pallavpuram Phase 2, Meerut - UPPCB",14-09-2025 07:00:00,29.063510,77.709723,NO2,13,38,23
India,Uttar_Pradesh,Meerut,"Pallavpuram Phase 2, Meerut - UPPCB",14-09-2025 07:00:00,29.063510,77.709723,OZONE,24,54,26
India,Uttar_Pradesh,Moradabad,"Buddhi Vihar, Moradabad - UPPCB",14-09-2025 07:00:00,28.83526,78.74460,NH3,5,5,5
India,Uttar_Pradesh,Moradabad,"Eco Herbal Park, Moradabad - UPPCB",14-09-2025 07:00:00,28.840739,78.697531,PM10,58,97,71
India,Uttar_Pradesh,Moradabad,"Eco Herbal Park, Moradabad - UPPCB",14-09-2025 07:00:00,28.840739,78.697531,CO,20,48,36
India,West_Bengal,Howrah,"Belur Math, Howrah - WBPCB",14-09-2025 07:00:00,22.629801,88.352017,PM2.5,28,90,53
India,West_Bengal,Howrah,"Belur Math, Howrah - WBPCB",14-09-2025 07:00:00,22.629801,88.352017,PM10,36,102,63
India,West_Bengal,Howrah,"Botanical Garden, Howrah - WBPCB",14-09-2025 07:00:00,22.554954,88.292568,NO2,12,95,40
India,West_Bengal,Howrah,"Dasnagar, Howrah - WBPCB",14-09-2025 07:00:00,22.6025571,88.3105664,NH3,1,1,1
India,West_Bengal,Howrah,"Dasnagar, Howrah - WBPCB",14-09-2025 07:00:00,22.6025571,88.3105664,OZONE,3,34,7
India,Bihar,Arrah,"New DM Office, Arrah - BSPCB",14-09-2025 07:00:00,25.5626095,84.663264,PM10,26,28,27
India,Bihar,Arrah,"New DM Office, Arrah - BSPCB",14-09-2025 07:00:00,25.5626095,84.663264,NO2,4,9,7
India,Bihar,Aurangabad,"Gurdeo Nagar, Aurangabad - BSPCB",14-09-2025 07:00:00,24.75746,84.366208,PM10,NA,NA,NA
India,Bihar,Begusarai,"Lohiyanagar, Begusarai - BSPCB",14-09-2025 07:00:00,25.42742023,86.13886079,PM10,13,37,25
India,Bihar,Begusarai,"Lohiyanagar, Begusarai - BSPCB",14-09-2025 07:00:00,25.42742023,86.13886079,NO2,10,23,16
India,Bihar,Begusarai,"Lohiyanagar, Begusarai - BSPCB",14-09-2025 07:00:00,25.42742023,86.13886079,OZONE,12,34,20
India,Bihar,Bettiah,"Kamalnath Nagar, Bettiah - BSPCB",14-09-2025 07:00:00,26.80365,84.51954,PM2.5,NA,NA,NA
India,Bihar,Bettiah,"Kamalnath Nagar, Bettiah - BSPCB",14-09-2025 07:00:00,26.80365,84.51954,PM10,3,42,18
India,Bihar,Bettiah,"Kamalnath Nagar, Bettiah - BSPCB",14-09-2025 07:00:00,26.80365,84.51954,NO2,5,14,8
India,Bihar,Bhagalpur,"DM Office_Kachari Chowk, Bhagalpur - BSPCB",14-09-2025 07:00:00,25.251013,86.989001,PM10,18,61,35
India,Andhra_Pradesh,Vijayawada,"Rajiv Gandhi Park, Vijayawada - APPCB",14-09-2025 07:00:00,16.509717,80.612222,NH3,3,5,4
India,Andhra_Pradesh,Vijayawada,"Rajiv Gandhi Park, Vijayawada - APPCB",14-09-2025 07:00:00,16.509717,80.612222,OZONE,24,31,25
India,Andhra_Pradesh,Vijayawada,"Rajiv Nagar, Vijayawada - APPCB",14-09-2025 07:00:00,16.554731,80.649110,PM2.5,NA,NA,NA
India,Andhra_Pradesh,Vijayawada,"Rajiv Nagar, Vijayawada - APPCB",14-09-2025 07:00:00,16.554731,80.649110,CO,20,42,26
India,Arunachal_Pradesh,Naharlagun,"Naharlagun, Naharlagun - APSPCB",14-09-2025 07:00:00,27.103358,93.679645,OZONE,4,5,4
India,Assam,Byrnihat,"Central Academy for SFS, Byrnihat - PCBA",14-09-2025 07:00:00,26.071318,91.87488,PM2.5,NA,NA,NA
India,Assam,Byrnihat,"Central Academy for SFS, Byrnihat - PCBA",14-09-2025 07:00:00,26.071318,91.87488,NH3,NA,NA,NA
India,Assam,Byrnihat,"Central Academy for SFS, Byrnihat - PCBA",14-09-2025 07:00:00,26.071318,91.87488,SO2,NA,NA,NA
India,Assam,Byrnihat,"Central Academy for SFS, Byrnihat - PCBA",14-09-2025 07:00:00,26.071318,91.87488,CO,24,64,54
India,Bihar,Bhagalpur,"Mayaganj, Bhagalpur - BSPCB",14-09-2025 07:00:00,25.265194,87.012947,PM2.5,12,80,45
India,Bihar,Bhagalpur,"Mayaganj, Bhagalpur - BSPCB",14-09-2025 07:00:00,25.265194,87.012947,PM10,10,123,70
India,Bihar,Bhagalpur,"Mayaganj, Bhagalpur - BSPCB",14-09-2025 07:00:00,25.265194,87.012947,NH3,4,5,5
India,Bihar,Bihar Sharif,"D M Colony, Bihar Sharif - BSPCB",14-09-2025 07:00:00,25.204762,85.514960,CO,1,8,2
India,Bihar,Bihar Sharif,"D M Colony, Bihar Sharif - BSPCB",14-09-2025 07:00:00,25.204762,85.514960,OZONE,15,58,36
India,Bihar,Buxar,"Charitra Van, Buxar - BSPCB",14-09-2025 07:00:00,25.567520,83.966379,PM2.5,58,63,63
India,Bihar,Buxar,"Charitra Van, Buxar - BSPCB",14-09-2025 07:00:00,25.567520,83.966379,PM10,65,71,70
India,Bihar,Buxar,"Charitra Van, Buxar - BSPCB",14-09-2025 07:00:00,25.567520,83.966379,NO2,5,10,9
India,Bihar,Chhapra,"Darshan Nagar, Chhapra - BSPCB",14-09-2025 07:00:00,25.7808257,84.7446768,OZONE,1,41,2
India,Bihar,Kishanganj,"SDM Office_Khagra, Kishanganj - BSPCB",14-09-2025 07:00:00,26.0881305,87.93840336,PM2.5,23,147,84
India,Bihar,Motihari,"Gandak Colony, Motihari - BSPCB",14-09-2025 07:00:00,26.63086,84.90051,NH3,3,3,3
India,Bihar,Munger,"Town Hall, Munger - BSPCB",14-09-2025 07:00:00,25.376776,86.471523,PM10,8,96,34
India,Bihar,Munger,"Town Hall, Munger - BSPCB",14-09-2025 07:00:00,25.376776,86.471523,OZONE,5,13,9
India,Bihar,Muzaffarpur,"Buddha Colony, Muzaffarpur - BSPCB",14-09-2025 07:00:00,26.11442,85.39813,SO2,3,5,4
India,Bihar,Muzaffarpur,"MIT-Daudpur Kothi, Muzaffarpur - BSPCB",14-09-2025 07:00:00,26.1403345,85.3650192,NO2,4,12,9
India,Assam,Nagaon,"Christianpatty, Nagaon - PCBA",14-09-2025 07:00:00,26.349082,92.68449,NO2,1,1,1
India,Assam,Nagaon,"Christianpatty, Nagaon - PCBA",14-09-2025 07:00:00,26.349082,92.68449,NH3,4,4,4
India,Assam,Nalbari,"Bata Chowk, Nalbari - PCBA",14-09-2025 07:00:00,26.446912,91.439057,PM10,31,41,38
India,Assam,Silchar,"Tarapur, Silchar - PCBA",14-09-2025 07:00:00,24.82827,92.79525,PM2.5,30,31,30
India,Assam,Sivasagar,"Girls College, Sivasagar - PCBA",14-09-2025 07:00:00,26.987634,94.636574,NH3,3,4,4
India,Bihar,Araria,"Kharahiya Basti, Araria - BSPCB",14-09-2025 07:00:00,26.146529,87.454184,SO2,6,24,16
India,Andhra_Pradesh,Amaravati,"Secretariat, Amaravati - APPCB",14-09-2025 07:00:00,16.5150833,80.5181667,PM10,11,72,32
India,Andhra_Pradesh,Anantapur,"Gulzarpet, Anantapur - APPCB",14-09-2025 07:00:00,14.675886,77.593027,NH3,NA,NA,NA
India,Andhra_Pradesh,Anantapur,"Gulzarpet, Anantapur - APPCB",14-09-2025 07:00:00,14.675886,77.593027,CO,18,51,28
India,Andhra_Pradesh,Kadapa,"Yerramukkapalli, Kadapa - APPCB",14-09-2025 07:00:00,14.465052,78.824187,PM2.5,55,185,88
India,Andhra_Pradesh,Kadapa,"Yerramukkapalli, Kadapa - APPCB",14-09-2025 07:00:00,14.465052,78.824187,NO2,10,16,11
India,Andhra_Pradesh,Kadapa,"Yerramukkapalli, Kadapa - APPCB",14-09-2025 07:00:00,14.465052,78.824187,NH3,4,5,4
India,Andhra_Pradesh,Rajamahendravaram,"Anand Kala Kshetram, Rajamahendravaram - APPCB",14-09-2025 07:00:00,16.9872867,81.7363176,PM10,14,33,24
India,Andhra_Pradesh,Rajamahendravaram,"Anand Kala Kshetram, Rajamahendravaram - APPCB",14-09-2025 07:00:00,16.9872867,81.7363176,OZONE,9,12,10
India,Andhra_Pradesh,Tirumala,"Toll Gate, Tirumala - APPCB",14-09-2025 07:00:00,13.67,79.35,SO2,1,4,3
India,Andhra_Pradesh,Tirupati,"Vaikuntapuram, Tirupati - APPCB",14-09-2025 07:00:00,13.615387,79.409230,PM10,NA,NA,NA
India,Andhra_Pradesh,Tirupati,"Vaikuntapuram, Tirupati - APPCB",14-09-2025 07:00:00,13.615387,79.409230,NO2,NA,NA,NA
India,Bihar,Gaya,"Kareemganj, Gaya - BSPCB",14-09-2025 07:00:00,24.792403,84.992416,PM10,52,143,90
India,Bihar,Hajipur,"Industrial Area, Hajipur - BSPCB",14-09-2025 07:00:00,25.697189,85.245900,CO,38,82,44
India,Bihar,Katihar,"Mirchaibari, Katihar - BSPCB",14-09-2025 07:00:00,25.560083,87.553265,NO2,10,17,14
India,Bihar,Katihar,"Mirchaibari, Katihar - BSPCB",14-09-2025 07:00:00,25.560083,87.553265,OZONE,1,36,4
India,Assam,Guwahati,"IITG, Guwahati - PCBA",14-09-2025 07:00:00,26.2028636,91.70046436,CO,2,10,6
India,Assam,Guwahati,"Pan Bazaar, Guwahati - PCBA",14-09-2025 07:00:00,26.187500,91.744194,PM10,8,40,21
India,Assam,Guwahati,"Railway Colony, Guwahati - PCBA",14-09-2025 07:00:00,26.181742,91.78063,NH3,1,1,1
India,Andhra_Pradesh,Vijayawada,"Rajiv Gandhi Park, Vijayawada - APPCB",14-09-2025 07:00:00,16.509717,80.612222,PM2.5,17,87,49
India,Andhra_Pradesh,Vijayawada,"Rajiv Gandhi Park, Vijayawada - APPCB",14-09-2025 07:00:00,16.509717,80.612222,NO2,29,51,37
India,Bihar,Muzaffarpur,"MIT-Daudpur Kothi, Muzaffarpur - BSPCB",14-09-2025 07:00:00,26.1403345,85.3650192,SO2,7,14,12
India,Bihar,Muzaffarpur,"Muzaffarpur Collectorate, Muzaffarpur - BSPCB",14-09-2025 07:00:00,26.1209,85.3647,NO2,10,17,13
India,Bihar,Patna,"DRM Office Danapur, Patna - BSPCB",14-09-2025 07:00:00,25.586562,85.043586,NO2,28,35,32
India,Bihar,Patna,"DRM Office Danapur, Patna - BSPCB",14-09-2025 07:00:00,25.586562,85.043586,SO2,1,13,9
India,Bihar,Patna,"DRM Office Danapur, Patna - BSPCB",14-09-2025 07:00:00,25.586562,85.043586,CO,12,70,37
India,Bihar,Patna,"Govt. High School Shikarpur, Patna - BSPCB",14-09-2025 07:00:00,25.592539,85.227158,OZONE,NA,NA,NA
India,Bihar,Patna,"IGSC Planetarium Complex, Patna - BSPCB",14-09-2025 07:00:00,25.610369,85.132568,PM2.5,57,176,98
India,Bihar,Patna,"IGSC Planetarium Complex, Patna - BSPCB",14-09-2025 07:00:00,25.610369,85.132568,NO2,10,14,13
India,Bihar,Patna,"IGSC Planetarium Complex, Patna - BSPCB",14-09-2025 07:00:00,25.610369,85.132568,OZONE,46,48,47
India,Bihar,Patna,"Muradpur, Patna - BSPCB",14-09-2025 07:00:00,25.619651,85.147382,SO2,8,10,9
India,Chhattisgarh,Bhilai,"32Bungalows, Bhilai - CECB",14-09-2025 07:00:00,21.194815,81.314770,NO2,8,72,33
India,Chhattisgarh,Bhilai,"Civic Center, Bhilai - Bhilai Steel Plant",14-09-2025 07:00:00,21.185571,81.343175,PM10,34,85,62
India,Chhattisgarh,Bhilai,"Civic Center, Bhilai - Bhilai Steel Plant",14-09-2025 07:00:00,21.185571,81.343175,SO2,7,9,8
India,Chhattisgarh,Bhilai,"Hathkhoj, Bhilai - CECB",14-09-2025 07:00:00,21.224231,81.408350,PM2.5,18,63,40
India,Chhattisgarh,Bhilai,"Hathkhoj, Bhilai - CECB",14-09-2025 07:00:00,21.224231,81.408350,NO2,11,37,19
India,Chhattisgarh,Bilaspur,"Mangala, Bilaspur - NTPC",14-09-2025 07:00:00,22.08815,82.13737,PM10,22,115,64
India,Chhattisgarh,Chhal,"Nawapara SECL Colony, Chhal - CECB",14-09-2025 07:00:00,22.118125,83.140608,NH3,NA,NA,NA
India,Delhi,Delhi,"Dr. Karni Singh Shooting Range, Delhi - DPCC",14-09-2025 07:00:00,28.498571,77.264840,NH3,3,5,4
India,Delhi,Delhi,"Dr. Karni Singh Shooting Range, Delhi - DPCC",14-09-2025 07:00:00,28.498571,77.264840,CO,8,86,30
India,Delhi,Delhi,"Dr. Karni Singh Shooting Range, Delhi - DPCC",14-09-2025 07:00:00,28.498571,77.264840,OZONE,6,52,12
India,Delhi,Delhi,"Dwarka-Sector 8, Delhi - DPCC ",14-09-2025 07:00:00,28.5710274,77.0719006,PM2.5,12,120,43
India,Delhi,Delhi,"Dwarka-Sector 8, Delhi - DPCC ",14-09-2025 07:00:00,28.5710274,77.0719006,OZONE,8,28,12
India,Delhi,Delhi,"IHBAS, Dilshad Garden, Delhi - CPCB",14-09-2025 07:00:00,28.6811736,77.3025234,OZONE,10,39,18
India,Delhi,Delhi,"ITO, Delhi - CPCB",14-09-2025 07:00:00,28.628624,77.241060,NO2,73,100,82
India,Delhi,Delhi,"Aya Nagar, Delhi - IMD",14-09-2025 07:00:00,28.4706914,77.1099364,CO,23,70,42
India,Delhi,Delhi,"Bawana, Delhi - DPCC",14-09-2025 07:00:00,28.776200,77.051074,NO2,1,26,9
India,Delhi,Delhi,"Burari Crossing, Delhi - IMD",14-09-2025 07:00:00,28.7256504,77.2011573,OZONE,18,41,20
India,Delhi,Delhi,"Chandni Chowk, Delhi - IITM",14-09-2025 07:00:00,28.656756,77.227234,NH3,3,16,9
India,Delhi,Delhi,"DTU, Delhi - CPCB",14-09-2025 07:00:00,28.7500499,77.1112615,SO2,26,39,31
India,Delhi,Delhi,"DTU, Delhi - CPCB",14-09-2025 07:00:00,28.7500499,77.1112615,OZONE,32,37,32
India,Bihar,Patna,"Rajbansi Nagar, Patna - BSPCB",14-09-2025 07:00:00,25.599486,85.113666,OZONE,16,23,17
India,Bihar,Purnia,"Mariam Nagar, Purnia - BSPCB",14-09-2025 07:00:00,25.366336,87.117468,PM2.5,17,77,40
India,Bihar,Purnia,"Mariam Nagar, Purnia - BSPCB",14-09-2025 07:00:00,25.366336,87.117468,OZONE,18,31,23
India,Bihar,Rajgir,"Dangi Tola, Rajgir - BSPCB",14-09-2025 07:00:00,25.03280,85.41948,OZONE,26,37,32
India,Bihar,Samastipur,"DM Office_Kasipur, Samastipur - BSPCB",14-09-2025 07:00:00,25.859655,85.77944,PM2.5,3,130,45
India,Delhi,Delhi,"Alipur, Delhi - DPCC",14-09-2025 07:00:00,28.815329,77.153010,NH3,10,12,11
India,Delhi,Delhi,"Alipur, Delhi - DPCC",14-09-2025 07:00:00,28.815329,77.153010,SO2,5,9,6
India,Delhi,Delhi,"Anand Vihar, Delhi - DPCC",14-09-2025 07:00:00,28.647622,77.3158090,NH3,3,5,4
India,Delhi,Delhi,"Ashok Vihar, Delhi - DPCC",14-09-2025 07:00:00,28.695381,77.181665,PM2.5,10,103,51
India,Delhi,Delhi,"Ashok Vihar, Delhi - DPCC",14-09-2025 07:00:00,28.695381,77.181665,PM10,56,159,93
India,Delhi,Delhi,"Ashok Vihar, Delhi - DPCC",14-09-2025 07:00:00,28.695381,77.181665,CO,40,82,73
India,Chhattisgarh,Korba,"Rampur, Korba - CECB",14-09-2025 07:00:00,22.368195,82.746431,PM2.5,25,39,26
India,Chhattisgarh,Kunjemura,"OP Jindal School, Kunjemura - CECB",14-09-2025 07:00:00,22.126650,83.483212,CO,20,44,39
India,Chhattisgarh,Raipur,"Bhatagaon New ISBT, Raipur - CECB",14-09-2025 07:00:00,21.219665,81.630094,SO2,NA,NA,NA
India,Chhattisgarh,Raipur,"Siltara Phase-II, Raipur - CECB",14-09-2025 07:00:00,21.371751,81.664929,PM2.5,4,23,13
India,Bihar,Samastipur,"DM Office_Kasipur, Samastipur - BSPCB",14-09-2025 07:00:00,25.859655,85.77944,NH3,2,2,2
India,Bihar,Samastipur,"DM Office_Kasipur, Samastipur - BSPCB",14-09-2025 07:00:00,25.859655,85.77944,CO,1,6,2
India,Chandigarh,Chandigarh,"Sector 22, Chandigarh - CPCC",14-09-2025 07:00:00,30.735567,76.775714,OZONE,2,35,9
India,Chandigarh,Chandigarh,"Sector-25, Chandigarh - CPCC",14-09-2025 07:00:00,30.751462,76.762879,PM10,42,86,58
India,Delhi,Delhi,"Major Dhyan Chand National Stadium, Delhi - DPCC",14-09-2025 07:00:00,28.611281,77.237738,NH3,13,14,13
India,Delhi,Delhi,"Major Dhyan Chand National Stadium, Delhi - DPCC",14-09-2025 07:00:00,28.611281,77.237738,SO2,4,11,7
India,Delhi,Delhi,"Major Dhyan Chand National Stadium, Delhi - DPCC",14-09-2025 07:00:00,28.611281,77.237738,OZONE,1,65,4
India,Gujarat,Ankleshwar,"GIDC, Ankleshwar - GPCB",14-09-2025 07:00:00,21.613267,73.010555,CO,35,76,44
India,Gujarat,Gandhinagar,"GIFT City, Gandhinagar - IITM",14-09-2025 07:00:00,23.163798,72.677768,NH3,1,6,3
India,Gujarat,Gandhinagar,"IIPHG Lekawada, Gandhinagar - IITM",14-09-2025 07:00:00,23.243639,72.68994,SO2,1,2,1
India,Gujarat,Gandhinagar,"Sector-10, Gandhinagar - GPCB",14-09-2025 07:00:00,23.221714,72.654328,PM2.5,31,61,43
India,Gujarat,Gandhinagar,"Sector-10, Gandhinagar - GPCB",14-09-2025 07:00:00,23.221714,72.654328,NH3,1,2,1
India,Gujarat,Nandesari,"GIDC, Nandesari - Nandesari Ind. Association",14-09-2025 07:00:00,22.410802,73.097923,PM10,60,289,118
India,Gujarat,Surat,"Science Center, Surat - SMC",14-09-2025 07:00:00,21.170046,72.795405,PM10,25,107,59
India,Gujarat,Vapi,"Phase-1 GIDC, Vapi - GPCB",14-09-2025 07:00:00,20.362421,72.918013,NO2,14,14,14
India,Gujarat,Vapi,"Phase-1 GIDC, Vapi - GPCB",14-09-2025 07:00:00,20.362421,72.918013,NH3,10,10,10
India,Gujarat,Vatva,"Phase-4 GIDC, Vatva - GPCB",14-09-2025 07:00:00,22.969611,72.643500,PM2.5,16,36,27
India,Gujarat,Vatva,"Phase-4 GIDC, Vatva - GPCB",14-09-2025 07:00:00,22.969611,72.643500,PM10,45,77,55
India,Haryana,Gurugram,"NISE Gwal Pahari, Gurugram - IMD",14-09-2025 07:00:00,28.422681,77.148944,PM10,46,107,69
India,Haryana,Gurugram,"NISE Gwal Pahari, Gurugram - IMD",14-09-2025 07:00:00,28.422681,77.148944,NO2,7,13,10
India,Haryana,Gurugram,"NISE Gwal Pahari, Gurugram - IMD",14-09-2025 07:00:00,28.422681,77.148944,CO,46,62,60
India,Himachal Pradesh,Baddi,"HIMUDA Complex Phase-1, Baddi - HPPCB",14-09-2025 07:00:00,30.943887,76.801991,SO2,25,113,47
India,Delhi,Delhi,"NSIT Dwarka, Delhi - CPCB",14-09-2025 07:00:00,28.60909,77.0325413,NH3,5,7,6
India,Delhi,Delhi,"NSIT Dwarka, Delhi - CPCB",14-09-2025 07:00:00,28.60909,77.0325413,CO,12,60,37
India,Delhi,Delhi,"NSIT Dwarka, Delhi - CPCB",14-09-2025 07:00:00,28.60909,77.0325413,OZONE,6,88,8
India,Delhi,Delhi,"Narela, Delhi - DPCC",14-09-2025 07:00:00,28.822836,77.101981,PM2.5,16,70,41
India,Delhi,Delhi,"Narela, Delhi - DPCC",14-09-2025 07:00:00,28.822836,77.101981,OZONE,1,15,5
India,Delhi,Delhi,"North Campus, DU, Delhi - IMD",14-09-2025 07:00:00,28.6573814,77.1585447,PM10,52,131,91
India,Delhi,Delhi,"Okhla Phase-2, Delhi - DPCC",14-09-2025 07:00:00,28.530785,77.271255,SO2,2,8,4
India,Delhi,Delhi,"Rohini, Delhi - DPCC",14-09-2025 07:00:00,28.732528,77.119920,PM10,45,159,85
India,Delhi,Delhi,"Rohini, Delhi - DPCC",14-09-2025 07:00:00,28.732528,77.119920,NH3,3,13,9
India,Delhi,Delhi,"Shadipur, Delhi - CPCB",14-09-2025 07:00:00,28.6514781,77.1473105,PM2.5,89,260,149
India,Delhi,Delhi,"Sirifort, Delhi - CPCB",14-09-2025 07:00:00,28.5504249,77.2159377,PM2.5,25,144,46
India,Delhi,Delhi,"Sonia Vihar, Delhi - DPCC",14-09-2025 07:00:00,28.710508,77.249485,NO2,11,32,20
India,Delhi,Delhi,"Sri Aurobindo Marg, Delhi - DPCC",14-09-2025 07:00:00,28.531346,77.190156,SO2,10,16,13
India,Delhi,Delhi,"Vivek Vihar, Delhi - DPCC",14-09-2025 07:00:00,28.672342,77.315260,OZONE,NA,NA,NA
India,Delhi,Delhi,"Wazirpur, Delhi - DPCC",14-09-2025 07:00:00,28.699793,77.165453,NH3,7,8,7
India,Gujarat,Ahmedabad,"Gyaspur, Ahmedabad - IITM",14-09-2025 07:00:00,22.977134,72.553024,NH3,1,1,1
India,Gujarat,Ahmedabad,"Gyaspur, Ahmedabad - IITM",14-09-2025 07:00:00,22.977134,72.553024,CO,22,52,26
India,Gujarat,Ahmedabad,"Maninagar, Ahmedabad - GPCB",14-09-2025 07:00:00,23.002657,72.591912,PM10,23,87,51
India,Gujarat,Ahmedabad,"Maninagar, Ahmedabad - GPCB",14-09-2025 07:00:00,23.002657,72.591912,SO2,12,25,20
India,Gujarat,Ahmedabad,"Raikhad, Ahmedabad - IITM",14-09-2025 07:00:00,23.020509,72.579261,NO2,9,14,11
India,Gujarat,Ahmedabad,"SAC ISRO Bopal, Ahmedabad - IITM",14-09-2025 07:00:00,23.041137,72.456691,NO2,17,26,22
India,Gujarat,Ahmedabad,"SAC ISRO Bopal, Ahmedabad - IITM",14-09-2025 07:00:00,23.041137,72.456691,NH3,2,3,3
India,Gujarat,Ahmedabad,"SAC ISRO Satellite, Ahmedabad - IITM",14-09-2025 07:00:00,23.023389,72.515201,NH3,3,5,4
India,Gujarat,Ahmedabad,"SVPI Airport Hansol, Ahmedabad - IITM",14-09-2025 07:00:00,23.076793,72.627874,CO,28,54,36
India,Delhi,Delhi,"Okhla Phase-2, Delhi - DPCC",14-09-2025 07:00:00,28.530785,77.271255,CO,3,70,55
India,Delhi,Delhi,"Okhla Phase-2, Delhi - DPCC",14-09-2025 07:00:00,28.530785,77.271255,OZONE,4,98,5
India,Delhi,Delhi,"Patparganj, Delhi - DPCC",14-09-2025 07:00:00,28.623763,77.287209,NH3,5,7,5
India,Delhi,Delhi,"Pusa, Delhi - DPCC",14-09-2025 07:00:00,28.639652,77.146275,PM10,59,188,112
India,Delhi,Delhi,"Pusa, Delhi - IMD",14-09-2025 07:00:00,28.636110,77.173332,PM2.5,2,169,47
India,Delhi,Delhi,"Pusa, Delhi - IMD",14-09-2025 07:00:00,28.636110,77.173332,CO,4,76,59
India,Delhi,Delhi,"R K Puram, Delhi - DPCC",14-09-2025 07:00:00,28.563262,77.186937,CO,2,112,64
India,Delhi,Delhi,"NSIT Dwarka, Delhi - CPCB",14-09-2025 07:00:00,28.60909,77.0325413,PM2.5,16,52,28
India,Kerala,Kannur,"Thavakkara, Kannur - Kerala PCB",14-09-2025 07:00:00,11.875000,75.373200,PM10,55,59,56
India,Kerala,Kannur,"Thavakkara, Kannur - Kerala PCB",14-09-2025 07:00:00,11.875000,75.373200,NO2,15,18,16
India,Kerala,Kannur,"Thavakkara, Kannur - Kerala PCB",14-09-2025 07:00:00,11.875000,75.373200,NH3,2,2,2
India,Kerala,Kannur,"Thavakkara, Kannur - Kerala PCB",14-09-2025 07:00:00,11.875000,75.373200,SO2,4,5,5
India,Kerala,Kannur,"Thavakkara, Kannur - Kerala PCB",14-09-2025 07:00:00,11.875000,75.373200,CO,13,16,14
India,Kerala,Kollam,"Polayathode, Kollam - Kerala PCB",14-09-2025 07:00:00,8.8787,76.6073,OZONE,29,35,30
India,Kerala,Thiruvananthapuram,"Kariavattom, Thiruvananthapuram - Kerala PCB",14-09-2025 07:00:00,8.563700,76.886500,PM2.5,37,44,40
India,Kerala,Thiruvananthapuram,"Kariavattom, Thiruvananthapuram - Kerala PCB",14-09-2025 07:00:00,8.563700,76.886500,CO,28,50,36
India,Kerala,Thiruvananthapuram,"Kariavattom, Thiruvananthapuram - Kerala PCB",14-09-2025 07:00:00,8.563700,76.886500,OZONE,36,37,36
India,Kerala,Thiruvananthapuram,"Plammoodu, Thiruvananthapuram - Kerala PCB",14-09-2025 07:00:00,8.5149093,76.9435879,CO,5,44,8
India,Kerala,Thrissur,"Corporation Ground, Thrissur - Kerala PCB",14-09-2025 07:00:00,10.532400,76.215900,NO2,6,7,7
India,Karnataka,Chikkamagaluru,"Kalyana Nagara, Chikkamagaluru - KSPCB",14-09-2025 07:00:00,13.328028,75.797056,OZONE,18,30,22
India,Karnataka,Davanagere,"Devaraj Urs Badavane, Davanagere - KSPCB",14-09-2025 07:00:00,14.475800,75.905200,PM10,NA,NA,NA
India,Karnataka,Davanagere,"Devaraj Urs Badavane, Davanagere - KSPCB",14-09-2025 07:00:00,14.475800,75.905200,NO2,NA,NA,NA
India,Karnataka,Dharwad,"Kalabhavan, Dharwad - KSPCB",14-09-2025 07:00:00,15.459706,75.008381,NO2,12,12,12
India,Karnataka,Haveri,"Ashwini Nagar, Haveri - KSPCB",14-09-2025 07:00:00,14.791800,75.389600,NO2,NA,NA,NA
India,Karnataka,Haveri,"Ashwini Nagar, Haveri - KSPCB",14-09-2025 07:00:00,14.791800,75.389600,SO2,NA,NA,NA
India,Karnataka,Hubballi,"Lingaraj Nagar, Hubballi - KSPCB",14-09-2025 07:00:00,15.3714823,75.1160168,PM2.5,27,27,27
India,Karnataka,Hubballi,"Lingaraj Nagar, Hubballi - KSPCB",14-09-2025 07:00:00,15.3714823,75.1160168,NH3,1,1,1
India,Karnataka,Hubballi,"Lingaraj Nagar, Hubballi - KSPCB",14-09-2025 07:00:00,15.3714823,75.1160168,SO2,1,1,1
India,Karnataka,Kalaburagi,"Lal Bahadur Shastri Nagar, Kalaburagi - KSPCB",14-09-2025 07:00:00,17.321993,76.822628,PM10,35,69,55
India,Karnataka,Shivamogga,"Vinoba Nagara, Shivamogga - KSPCB",14-09-2025 07:00:00,13.940000,75.555917,NH3,2,14,4
India,Karnataka,Shivamogga,"Vinoba Nagara, Shivamogga - KSPCB",14-09-2025 07:00:00,13.940000,75.555917,SO2,2,5,3
India,Karnataka,Tumakuru,"Thimmalapura, Tumakuru - KSPCB",14-09-2025 07:00:00,13.377516,77.099072,NO2,NA,NA,NA
India,Karnataka,Vijayapura,"Ibrahimpur, Vijayapura - KSPCB",14-09-2025 07:00:00,16.802639,75.722694,PM2.5,30,38,37
India,Karnataka,Vijayapura,"Ibrahimpur, Vijayapura - KSPCB",14-09-2025 07:00:00,16.802639,75.722694,PM10,43,44,44
India,Karnataka,Vijayapura,"Ibrahimpur, Vijayapura - KSPCB",14-09-2025 07:00:00,16.802639,75.722694,NO2,9,10,9
India,Karnataka,Yadgir,"Collector Office, Yadgir - KSPCB",14-09-2025 07:00:00,16.7602,77.1428,NH3,2,2,2
India,Kerala,Eloor,"Udyogamandal, Eloor - Kerala PCB",14-09-2025 07:00:00,10.073232,76.302765,SO2,1,1,1
India,Kerala,Eloor,"Udyogamandal, Eloor - Kerala PCB",14-09-2025 07:00:00,10.073232,76.302765,OZONE,11,29,14
India,Madhya Pradesh,Gwalior,"City Center, Gwalior - MPPCB",14-09-2025 07:00:00,26.203442,78.193251,NO2,8,8,8
India,Madhya Pradesh,Gwalior,"City Center, Gwalior - MPPCB",14-09-2025 07:00:00,26.203442,78.193251,SO2,4,30,20
India,Madhya Pradesh,Gwalior,"Deen Dayal Nagar, Gwalior - MPPCB",14-09-2025 07:00:00,26.259242,78.216432,PM2.5,62,197,89
India,Madhya Pradesh,Gwalior,"Deen Dayal Nagar, Gwalior - MPPCB",14-09-2025 07:00:00,26.259242,78.216432,NO2,3,27,13
India,Madhya Pradesh,Gwalior,"Deen Dayal Nagar, Gwalior - MPPCB",14-09-2025 07:00:00,26.259242,78.216432,CO,18,42,27
India,Madhya Pradesh,Indore,"Airport Area, Indore - IMC",14-09-2025 07:00:00,22.7289,75.8076,OZONE,1,3,2
India,Madhya Pradesh,Indore,"Chhoti Gwaltoli, Indore - MPPCB",14-09-2025 07:00:00,22.4310,75.5213,PM10,80,198,114
India,Madhya Pradesh,Indore,"Maguda Nagar, Indore - IMC",14-09-2025 07:00:00,22.7524,75.8872,NH3,NA,NA,NA
India,Madhya Pradesh,Bhopal,"Paryavaran Parisar, Bhopal - MPPCB",14-09-2025 07:00:00,23.210494,77.425409,OZONE,31,58,33
India,Madhya Pradesh,Bhopal,"T T Nagar, Bhopal - MPPCB",14-09-2025 07:00:00,23.233584,77.400574,PM2.5,36,65,51
India,Madhya Pradesh,Bhopal,"T T Nagar, Bhopal - MPPCB",14-09-2025 07:00:00,23.233584,77.400574,PM10,58,109,85
India,Madhya Pradesh,Bhopal,"T T Nagar, Bhopal - MPPCB",14-09-2025 07:00:00,23.233584,77.400574,SO2,7,38,17
India,Madhya Pradesh,Damoh,"Shrivastav Colony, Damoh - MPPCB",14-09-2025 07:00:00,23.81748678,79.446246,PM2.5,9,58,36
India,Madhya Pradesh,Damoh,"Shrivastav Colony, Damoh - MPPCB",14-09-2025 07:00:00,23.81748678,79.446246,PM10,35,74,50
India,Madhya Pradesh,Dewas,"Bhopal Chauraha, Dewas - MPPCB",14-09-2025 07:00:00,22.9682591,76.064118,PM2.5,24,82,44
India,Madhya Pradesh,Dewas,"Bhopal Chauraha, Dewas - MPPCB",14-09-2025 07:00:00,22.9682591,76.064118,NH3,3,4,4
India,Karnataka,Bengaluru,"Shivapura_Peenya, Bengaluru - KSPCB",14-09-2025 07:00:00,13.0246342,77.5080115,PM10,73,105,85
India,Karnataka,Bengaluru,"Shivapura_Peenya, Bengaluru - KSPCB",14-09-2025 07:00:00,13.0246342,77.5080115,NO2,23,26,25
India,Karnataka,Bengaluru,"Silk Board, Bengaluru - KSPCB",14-09-2025 07:00:00,12.917348,77.622813,PM10,61,180,125
India,Karnataka,Bengaluru,"Silk Board, Bengaluru - KSPCB",14-09-2025 07:00:00,12.917348,77.622813,CO,29,50,33
India,Karnataka,Chikkaballapur,"Chikkaballapur Rural, Chikkaballapur - KSPCB",14-09-2025 07:00:00,13.428828,77.731418,NH3,1,1,1
India,Karnataka,Chikkaballapur,"Chikkaballapur Rural, Chikkaballapur - KSPCB",14-09-2025 07:00:00,13.428828,77.731418,OZONE,18,22,20
India,Karnataka,Chikkamagaluru,"Kalyana Nagara, Chikkamagaluru - KSPCB",14-09-2025 07:00:00,13.328028,75.797056,PM2.5,13,46,25
India,Karnataka,Kalaburagi,"Lal Bahadur Shastri Nagar, Kalaburagi - KSPCB",14-09-2025 07:00:00,17.321993,76.822628,SO2,47,56,51
India,Karnataka,Mangalore,"Kadri, Mangalore - KSPCB",14-09-2025 07:00:00,12.889250,74.853000,NO2,2,6,4
India,Karnataka,Mangalore,"Kadri, Mangalore - KSPCB",14-09-2025 07:00:00,12.889250,74.853000,OZONE,4,41,26
India,Karnataka,Mysuru,"Hebbal 1st Stage, Mysuru - KSPCB",14-09-2025 07:00:00,12.21041,76.37376,PM10,32,74,50
India,Karnataka,Mysuru,"Hebbal 1st Stage, Mysuru - KSPCB",14-09-2025 07:00:00,12.21041,76.37376,SO2,1,18,7
India,Jharkhand,Dhanbad,"Sardar Patel Nagar, Dhanbad - JSPCB",14-09-2025 07:00:00,23.80569,86.44268,NO2,77,82,80
India,Jharkhand,Dhanbad,"Sardar Patel Nagar, Dhanbad - JSPCB",14-09-2025 07:00:00,23.80569,86.44268,SO2,NA,NA,NA
India,Jharkhand,Dhanbad,"Sardar Patel Nagar, Dhanbad - JSPCB",14-09-2025 07:00:00,23.80569,86.44268,CO,4,109,104
India,Jharkhand,Jorapokhar,"Tata Stadium, Jorapokhar - JSPCB",14-09-2025 07:00:00,23.707909,86.414670,PM10,NA,NA,NA
India,Karnataka,Bagalkot,"Vidayagiri, Bagalkot - KSPCB",14-09-2025 07:00:00,16.172806,75.659694,PM10,NA,NA,NA
India,Karnataka,Bengaluru,"Hebbal, Bengaluru - KSPCB",14-09-2025 07:00:00,13.029152,77.585901,PM10,27,68,44
India,Madhya Pradesh,Jabalpur,"Marhatal, Jabalpur - MPPCB",14-09-2025 07:00:00,23.168606,79.932247,NH3,1,2,1
India,Madhya Pradesh,Jabalpur,"Marhatal, Jabalpur - MPPCB",14-09-2025 07:00:00,23.168606,79.932247,OZONE,31,34,31
India,Madhya Pradesh,Jabalpur,"Suhagi, Jabalpur - JMC",14-09-2025 07:00:00,23.218135,79.957770,OZONE,5,43,11
India,Madhya Pradesh,Katni,"Gole Bazar, Katni - MPPCB",14-09-2025 07:00:00,23.50016,80.23284,PM10,45,139,80
India,Madhya Pradesh,Katni,"Gole Bazar, Katni - MPPCB",14-09-2025 07:00:00,23.50016,80.23284,OZONE,10,68,13
India,Madhya Pradesh,Mandideep,"Sector-D Industrial Area, Mandideep - MPPCB",14-09-2025 07:00:00,23.108440,77.511428,NH3,2,3,2
India,Madhya Pradesh,Mandideep,"Sector-D Industrial Area, Mandideep - MPPCB",14-09-2025 07:00:00,23.108440,77.511428,SO2,18,118,56
India,Madhya Pradesh,Mandideep,"Sector-D Industrial Area, Mandideep - MPPCB",14-09-2025 07:00:00,23.108440,77.511428,CO,11,51,14
India,Madhya Pradesh,Pithampur,"Sector-2 Industrial Area, Pithampur - MPPCB",14-09-2025 07:00:00,22.624758,75.675238,SO2,14,29,22
India,Madhya Pradesh,Pithampur,"Sector-2 Industrial Area, Pithampur - MPPCB",14-09-2025 07:00:00,22.624758,75.675238,CO,5,38,13
India,Maharashtra,Mumbai,"Borivali East, Mumbai - MPCB",14-09-2025 07:00:00,19.2243333,72.8658113,CO,2,3,2
India,Maharashtra,Mumbai,"Byculla, Mumbai - BMC",14-09-2025 07:00:00,18.9767,72.8380,PM2.5,31,82,49
India,Maharashtra,Mumbai,"Byculla, Mumbai - BMC",14-09-2025 07:00:00,18.9767,72.8380,NO2,2,36,18
India,Maharashtra,Mumbai,"Chakala-Andheri East, Mumbai - IITM",14-09-2025 07:00:00,19.11074,72.86084,NO2,16,32,26
India,Maharashtra,Mumbai,"Chakala-Andheri East, Mumbai - IITM",14-09-2025 07:00:00,19.11074,72.86084,OZONE,2,32,16
India,Maharashtra,Mumbai,"Chembur, Mumbai - MPCB",14-09-2025 07:00:00,19.0364585,72.8954371,PM2.5,29,76,49
India,Maharashtra,Mumbai,"Chembur, Mumbai - MPCB",14-09-2025 07:00:00,19.0364585,72.8954371,SO2,2,4,3
India,Maharashtra,Mumbai,"Chhatrapati Shivaji Intl. Airport (T2), Mumbai - MPCB",14-09-2025 07:00:00,19.10078,72.87462,PM2.5,33,50,38
India,Maharashtra,Mumbai,"Chhatrapati Shivaji Intl. Airport (T2), Mumbai - MPCB",14-09-2025 07:00:00,19.10078,72.87462,CO,24,31,27
India,Maharashtra,Malegaon,"Mahesh Nagar, Malegaon - MPCB",14-09-2025 07:00:00,20.555712,74.529236,CO,8,42,16
India,Maharashtra,Mira-Bhayandar,"Bhayandar West, Mira-Bhayandar - MPCB",14-09-2025 07:00:00,19.296481,72.840923,PM2.5,8,48,23
India,Maharashtra,Mumbai,"Bandra Kurla Complex, Mumbai - MPCB",14-09-2025 07:00:00,19.065931,72.862131,NO2,9,39,22
India,Maharashtra,Mumbai,"Bandra Kurla Complex, Mumbai - MPCB",14-09-2025 07:00:00,19.065931,72.862131,NH3,4,22,9
India,Maharashtra,Mumbai,"Bandra Kurla Complex, Mumbai - MPCB",14-09-2025 07:00:00,19.065931,72.862131,CO,1,40,11
India,Maharashtra,Mumbai,"Borivali East, Mumbai - IITM",14-09-2025 07:00:00,19.23241,72.86895,PM2.5,26,48,37
India,Maharashtra,Mumbai,"Borivali East, Mumbai - IITM",14-09-2025 07:00:00,19.23241,72.86895,CO,12,26,17
India,Maharashtra,Mumbai,"Borivali East, Mumbai - MPCB",14-09-2025 07:00:00,19.2243333,72.8658113,NH3,1,1,1
India,Madhya Pradesh,Indore,"Regional Park, Indore - IMC",14-09-2025 07:00:00,22.6780,75.8559,NH3,1,3,1
India,Madhya Pradesh,Indore,"Residency Area, Indore - IMC",14-09-2025 07:00:00,22.7084,75.8815,PM2.5,34,73,46
India,Madhya Pradesh,Indore,"Residency Area, Indore - IMC",14-09-2025 07:00:00,22.7084,75.8815,NO2,12,18,16
India,Madhya Pradesh,Indore,"Residency Area, Indore - IMC",14-09-2025 07:00:00,22.7084,75.8815,CO,13,16,15
India,Madhya Pradesh,Indore,"Residency Area, Indore - IMC",14-09-2025 07:00:00,22.7084,75.8815,OZONE,8,13,10
India,Madhya Pradesh,Jabalpur,"Govindh Bhavan Colony, Jabalpur - JMC",14-09-2025 07:00:00,23.163174,79.973061,NH3,1,1,1
India,Madhya Pradesh,Jabalpur,"Govindh Bhavan Colony, Jabalpur - JMC",14-09-2025 07:00:00,23.163174,79.973061,SO2,26,27,27
India,Madhya Pradesh,Jabalpur,"Gupteshwar, Jabalpur - JMC",14-09-2025 07:00:00,23.142888,79.916147,NH3,5,7,6
India,Maharashtra,Akola,"Ramdaspeth, Akola - MPCB",14-09-2025 07:00:00,20.719516,77.000253,OZONE,6,41,8
India,Maharashtra,Amravati,"Shivneri Colony, Amravati - MPCB",14-09-2025 07:00:00,20.9402359,77.7895248,NO2,3,15,9
India,Maharashtra,Amravati,"Shivneri Colony, Amravati - MPCB",14-09-2025 07:00:00,20.9402359,77.7895248,NH3,2,2,2
India,Maharashtra,Amravati,"Shri Shivaji Science College, Amravati - MPCB",14-09-2025 07:00:00,20.939198,77.765701,OZONE,6,44,15
India,Maharashtra,Aurangabad,"MIDC Chilkalthana, Aurangabad - MPCB",14-09-2025 07:00:00,19.875620,75.387310,PM2.5,NA,NA,NA
India,Maharashtra,Aurangabad,"MIDC Chilkalthana, Aurangabad - MPCB",14-09-2025 07:00:00,19.875620,75.387310,SO2,NA,NA,NA
