country,state,city,station,last_update,latitude,longitude,pollutant_id,min_value,max_value,avg_value
India,Assam,Guwahati,"Railway Colony, Guwahati - PCBA",29-03-2026 08:00:00,26.181742,91.78063,NH3,1,1,1
India,Assam,Guwahati,"Railway Colony, Guwahati - PCBA",29-03-2026 08:00:00,26.181742,91.78063,SO2,1,5,2
India,Assam,Nagaon,"Christianpatty, Nagaon - PCBA",29-03-2026 08:00:00,26.349082,92.68449,CO,10,24,22
India,Assam,Nagaon,"Christianpatty, Nagaon - PCBA",29-03-2026 08:00:00,26.349082,92.68449,OZONE,3,29,20
India,Assam,Nalbari,"Bata Chowk, Nalbari - PCBA",29-03-2026 08:00:00,26.446912,91.439057,PM2.5,39,53,45
India,Assam,Nalbari,"Bata Chowk, Nalbari - PCBA",29-03-2026 08:00:00,26.446912,91.439057,PM10,40,53,45
India,Assam,Silchar,"Tarapur, Silchar - PCBA",29-03-2026 08:00:00,24.82827,92.79525,PM10,45,57,49
India,Assam,Silchar,"Tarapur, Silchar - PCBA",29-03-2026 08:00:00,24.82827,92.79525,CO,28,50,44
India,Assam,Silchar,"Tarapur, Silchar - PCBA",29-03-2026 08:00:00,24.82827,92.79525,OZONE,2,4,2
India,Assam,Sivasagar,"Girls College, Sivasagar - PCBA",29-03-2026 08:00:00,26.987634,94.636574,PM10,20,32,26
India,Andhra_Pradesh,Rajamahendravaram,"Anand Kala Kshetram, Rajamahendravaram - APPCB",29-03-2026 08:00:00,16.9872867,81.7363176,SO2,5,9,6
India,Andhra_Pradesh,Rajamahendravaram,"Anand Kala Kshetram, Rajamahendravaram - APPCB",29-03-2026 08:00:00,16.9872867,81.7363176,CO,23,42,24
India,Andhra_Pradesh,Rajamahendravaram,"Anand Kala Kshetram, Rajamahendravaram - APPCB",29-03-2026 08:00:00,16.9872867,81.7363176,OZONE,5,27,9
India,Andhra_Pradesh,Tirumala,"Toll Gate, Tirumala - APPCB",29-03-2026 08:00:00,13.67,79.35,NH3,2,3,3
India,Andhra_Pradesh,Tirumala,"Toll Gate, Tirumala - APPCB",29-03-2026 08:00:00,13.67,79.35,SO2,1,35,12
India,Andhra_Pradesh,Tirupati,"Vaikuntapuram, Tirupati - APPCB",29-03-2026 08:00:00,13.615387,79.409230,PM10,59,78,63
India,Andhra_Pradesh,Tirupati,"Vaikuntapuram, Tirupati - APPCB",29-03-2026 08:00:00,13.615387,79.409230,NH3,6,7,7
India,Andhra_Pradesh,Tirupati,"Vaikuntapuram, Tirupati - APPCB",29-03-2026 08:00:00,13.615387,79.409230,CO,28,34,32
India,Andhra_Pradesh,Vijayawada,"HB Colony, Vijayawada - APPCB",29-03-2026 08:00:00,16.536107,80.594233,PM10,49,66,58
India,Bihar,Araria,"Kharahiya Basti, Araria - BSPCB",29-03-2026 08:00:00,26.146529,87.454184,NH3,6,6,6
India,Bihar,Aurangabad,"Gurdeo Nagar, Aurangabad - BSPCB",29-03-2026 08:00:00,24.75746,84.366208,PM2.5,NA,NA,NA
India,Bihar,Aurangabad,"Gurdeo Nagar, Aurangabad - BSPCB",29-03-2026 08:00:00,24.75746,84.366208,NO2,7,8,8
India,Bihar,Begusarai,"Lohiyanagar, Begusarai - BSPCB",29-03-2026 08:00:00,25.42742023,86.13886079,PM2.5,3,52,24
India,Bihar,Begusarai,"Lohiyanagar, Begusarai - BSPCB",29-03-2026 08:00:00,25.42742023,86.13886079,SO2,17,40,34
India,Bihar,Begusarai,"Lohiyanagar, Begusarai - BSPCB",29-03-2026 08:00:00,25.42742023,86.13886079,OZONE,37,50,40
India,Bihar,Bettiah,"Kamalnath Nagar, Bettiah - BSPCB",29-03-2026 08:00:00,26.80365,84.51954,NO2,7,10,9
India,Bihar,Bhagalpur,"DM Office_Kachari Chowk, Bhagalpur - BSPCB",29-03-2026 08:00:00,25.251013,86.989001,PM10,18,111,37
India,Bihar,Bhagalpur,"Mayaganj, Bhagalpur - BSPCB",29-03-2026 08:00:00,25.265194,87.012947,NO2,7,8,7
India,Bihar,Bhagalpur,"Mayaganj, Bhagalpur - BSPCB",29-03-2026 08:00:00,25.265194,87.012947,CO,1,84,76
India,Bihar,Bihar Sharif,"D M Colony, Bihar Sharif - BSPCB",29-03-2026 08:00:00,25.204762,85.514960,PM10,11,50,28
India,Bihar,Bihar Sharif,"D M Colony, Bihar Sharif - BSPCB",29-03-2026 08:00:00,25.204762,85.514960,NH3,3,4,3
India,Bihar,Bihar Sharif,"D M Colony, Bihar Sharif - BSPCB",29-03-2026 08:00:00,25.204762,85.514960,SO2,10,10,10
India,Bihar,Buxar,"Charitra Van, Buxar - BSPCB",29-03-2026 08:00:00,25.567520,83.966379,PM2.5,40,87,52
India,Bihar,Buxar,"Charitra Van, Buxar - BSPCB",29-03-2026 08:00:00,25.567520,83.966379,NO2,9,10,9
India,Bihar,Chhapra,"Darshan Nagar, Chhapra - BSPCB",29-03-2026 08:00:00,25.7808257,84.7446768,PM2.5,2,98,22
India,Bihar,Chhapra,"Darshan Nagar, Chhapra - BSPCB",29-03-2026 08:00:00,25.7808257,84.7446768,NH3,9,17,15
India,Bihar,Manguraha,"Forest Rest House, Manguraha - BSPCB",29-03-2026 08:00:00,27.308328,84.531742,CO,32,33,32
India,Bihar,Manguraha,"Forest Rest House, Manguraha - BSPCB",29-03-2026 08:00:00,27.308328,84.531742,OZONE,5,11,10
India,Bihar,Motihari,"Gandak Colony, Motihari - BSPCB",29-03-2026 08:00:00,26.63086,84.90051,PM10,8,64,36
India,Bihar,Muzaffarpur,"Buddha Colony, Muzaffarpur - BSPCB",29-03-2026 08:00:00,26.11442,85.39813,PM10,30,47,40
India,Bihar,Muzaffarpur,"Buddha Colony, Muzaffarpur - BSPCB",29-03-2026 08:00:00,26.11442,85.39813,NO2,18,33,24
India,Bihar,Muzaffarpur,"Buddha Colony, Muzaffarpur - BSPCB",29-03-2026 08:00:00,26.11442,85.39813,OZONE,17,64,22
India,Bihar,Muzaffarpur,"Muzaffarpur Collectorate, Muzaffarpur - BSPCB",29-03-2026 08:00:00,26.1209,85.3647,PM2.5,68,98,88
India,Bihar,Gaya,"Kareemganj, Gaya - BSPCB",29-03-2026 08:00:00,24.792403,84.992416,PM2.5,18,120,57
India,Bihar,Gaya,"Kareemganj, Gaya - BSPCB",29-03-2026 08:00:00,24.792403,84.992416,NO2,11,13,12
India,Bihar,Gaya,"Kareemganj, Gaya - BSPCB",29-03-2026 08:00:00,24.792403,84.992416,CO,6,101,24
India,Bihar,Gaya,"SFTI Kusdihra, Gaya - BSPCB",29-03-2026 08:00:00,24.762518,84.982348,OZONE,10,42,11
India,Bihar,Hajipur,"Industrial Area, Hajipur - BSPCB",29-03-2026 08:00:00,25.697189,85.245900,NO2,12,25,17
India,Bihar,Katihar,"Mirchaibari, Katihar - BSPCB",29-03-2026 08:00:00,25.560083,87.553265,PM2.5,7,27,17
India,Bihar,Katihar,"Mirchaibari, Katihar - BSPCB",29-03-2026 08:00:00,25.560083,87.553265,OZONE,4,14,7
India,Andhra_Pradesh,Anantapur,"Gulzarpet, Anantapur - APPCB",29-03-2026 08:00:00,14.675886,77.593027,NO2,17,34,26
India,Andhra_Pradesh,Anantapur,"Gulzarpet, Anantapur - APPCB",29-03-2026 08:00:00,14.675886,77.593027,OZONE,40,49,49
India,Andhra_Pradesh,Chittoor,"Gangineni Cheruvu, Chittoor - APPCB",29-03-2026 08:00:00,13.204880,79.097889,NO2,31,38,35
India,Andhra_Pradesh,Chittoor,"Gangineni Cheruvu, Chittoor - APPCB",29-03-2026 08:00:00,13.204880,79.097889,SO2,9,10,10
India,Andhra_Pradesh,Chittoor,"Gangineni Cheruvu, Chittoor - APPCB",29-03-2026 08:00:00,13.204880,79.097889,CO,36,68,42
India,Andhra_Pradesh,Eluru,"District Court, Eluru - APPCB",29-03-2026 08:00:00,16.711754,81.092095,NO2,6,27,15
India,Andhra_Pradesh,Eluru,"District Court, Eluru - APPCB",29-03-2026 08:00:00,16.711754,81.092095,NH3,2,5,3
India,Arunachal_Pradesh,Naharlagun,"Naharlagun, Naharlagun - APSPCB",29-03-2026 08:00:00,27.103358,93.679645,SO2,NA,NA,NA
India,Assam,Byrnihat,"Central Academy for SFS, Byrnihat - PCBA",29-03-2026 08:00:00,26.071318,91.87488,OZONE,13,32,15
India,Assam,Guwahati,"LGBI Airport, Guwahati - PCBA",29-03-2026 08:00:00,26.10887,91.589544,CO,23,68,47
India,Assam,Guwahati,"Pan Bazaar, Guwahati - PCBA",29-03-2026 08:00:00,26.187500,91.744194,NH3,1,1,1
India,Assam,Guwahati,"Pan Bazaar, Guwahati - PCBA",29-03-2026 08:00:00,26.187500,91.744194,OZONE,10,15,10
India,Andhra_Pradesh,Vijayawada,"Kanuru, Vijayawada - APPCB",29-03-2026 08:00:00,16.486692,80.699436,SO2,14,22,16
India,Andhra_Pradesh,Vijayawada,"Rajiv Gandhi Park, Vijayawada - APPCB",29-03-2026 08:00:00,16.509717,80.612222,PM2.5,64,99,82
India,Andhra_Pradesh,Vijayawada,"Rajiv Gandhi Park, Vijayawada - APPCB",29-03-2026 08:00:00,16.509717,80.612222,NO2,17,31,24
India,Andhra_Pradesh,Vijayawada,"Rajiv Nagar, Vijayawada - APPCB",29-03-2026 08:00:00,16.554731,80.649110,NH3,NA,NA,NA
India,Andhra_Pradesh,Visakhapatnam,"GVM Corporation, Visakhapatnam - APPCB",29-03-2026 08:00:00,17.72,83.3,SO2,1,111,44
India,Andhra_Pradesh,Amaravati,"Secretariat, Amaravati - APPCB",29-03-2026 08:00:00,16.5150833,80.5181667,PM2.5,35,55,45
India,Andhra_Pradesh,Amaravati,"Secretariat, Amaravati - APPCB",29-03-2026 08:00:00,16.5150833,80.5181667,NH3,2,2,2
India,Andhra_Pradesh,Amaravati,"Secretariat, Amaravati - APPCB",29-03-2026 08:00:00,16.5150833,80.5181667,CO,2,32,16
India,Bihar,Siwan,"Chitragupta Nagar, Siwan - BSPCB",29-03-2026 08:00:00,26.2271665,84.3570427,NO2,2,2,2
India,Bihar,Siwan,"Chitragupta Nagar, Siwan - BSPCB",29-03-2026 08:00:00,26.2271665,84.3570427,OZONE,14,15,14
India,Chandigarh,Chandigarh,"Sector 22, Chandigarh - CPCC",29-03-2026 08:00:00,30.735567,76.775714,PM10,20,104,41
India,Chandigarh,Chandigarh,"Sector 22, Chandigarh - CPCC",29-03-2026 08:00:00,30.735567,76.775714,NO2,5,35,14
India,Chandigarh,Chandigarh,"Sector-25, Chandigarh - CPCC",29-03-2026 08:00:00,30.751462,76.762879,PM10,39,104,62
India,Chandigarh,Chandigarh,"Sector-25, Chandigarh - CPCC",29-03-2026 08:00:00,30.751462,76.762879,SO2,4,10,6
India,Chandigarh,Chandigarh,"Sector-25, Chandigarh - CPCC",29-03-2026 08:00:00,30.751462,76.762879,OZONE,2,62,16
India,Chandigarh,Chandigarh,"Sector-53, Chandigarh - CPCC",29-03-2026 08:00:00,30.719859,76.738637,PM10,19,90,44
India,Chhattisgarh,Bhilai,"32Bungalows, Bhilai - CECB",29-03-2026 08:00:00,21.194815,81.314770,NO2,5,58,21
India,Chhattisgarh,Bhilai,"32Bungalows, Bhilai - CECB",29-03-2026 08:00:00,21.194815,81.314770,NH3,1,1,1
India,Chhattisgarh,Bhilai,"32Bungalows, Bhilai - CECB",29-03-2026 08:00:00,21.194815,81.314770,SO2,9,54,18
India,Chhattisgarh,Bhilai,"32Bungalows, Bhilai - CECB",29-03-2026 08:00:00,21.194815,81.314770,OZONE,2,35,5
India,Chhattisgarh,Bhilai,"Civic Center, Bhilai - Bhilai Steel Plant",29-03-2026 08:00:00,21.185571,81.343175,PM2.5,10,77,37
India,Delhi,Delhi,"CRRI Mathura Road, Delhi - IMD",29-03-2026 08:00:00,28.5512005,77.2735737,PM2.5,5,314,128
India,Delhi,Delhi,"CRRI Mathura Road, Delhi - IMD",29-03-2026 08:00:00,28.5512005,77.2735737,NO2,39,66,56
India,Delhi,Delhi,"Cantonment Area, Delhi - DPCC ",29-03-2026 08:00:00,28.594169 ,77.125100 ,SO2,56,69,57
India,Delhi,Delhi,"Chandni Chowk, Delhi - IITM",29-03-2026 08:00:00,28.656756,77.227234,CO,102,145,118
India,Delhi,Delhi,"Commonwealth Sports Complex, Delhi - DPCC",29-03-2026 08:00:00,28.615828 ,77.271992 ,PM10,187,332,252
India,Delhi,Delhi,"Commonwealth Sports Complex, Delhi - DPCC",29-03-2026 08:00:00,28.615828 ,77.271992 ,SO2,51,56,53
India,Delhi,Delhi,"Commonwealth Sports Complex, Delhi - DPCC",29-03-2026 08:00:00,28.615828 ,77.271992 ,OZONE,3,89,9
India,Delhi,Delhi,"DTU, Delhi - CPCB",29-03-2026 08:00:00,28.7500499,77.1112615,NH3,5,12,7
India,Delhi,Delhi,"DTU, Delhi - CPCB",29-03-2026 08:00:00,28.7500499,77.1112615,CO,6,75,64
India,Delhi,Delhi,"Dr. Karni Singh Shooting Range, Delhi - DPCC",29-03-2026 08:00:00,28.498571,77.264840,NH3,5,7,6
India,Chhattisgarh,Kunjemura,"OP Jindal School, Kunjemura - CECB",29-03-2026 08:00:00,22.126650,83.483212,NH3,2,2,2
India,Chhattisgarh,Kunjemura,"OP Jindal School, Kunjemura - CECB",29-03-2026 08:00:00,22.126650,83.483212,OZONE,2,37,3
India,Chhattisgarh,Milupara,"Govt. Higher Secondary School, Milupara - CECB",29-03-2026 08:00:00,22.1910172,83.5197009,PM10,NA,NA,NA
India,Chhattisgarh,Milupara,"Govt. Higher Secondary School, Milupara - CECB",29-03-2026 08:00:00,22.1910172,83.5197009,NO2,NA,NA,NA
India,Chhattisgarh,Milupara,"Govt. Higher Secondary School, Milupara - CECB",29-03-2026 08:00:00,22.1910172,83.5197009,OZONE,NA,NA,NA
India,Chhattisgarh,Raipur,"AIIMS, Raipur - CECB",29-03-2026 08:00:00,21.258815,81.578979,CO,18,46,35
India,Chhattisgarh,Raipur,"Bhatagaon New ISBT, Raipur - CECB",29-03-2026 08:00:00,21.219665,81.630094,PM2.5,12,42,27
India,Chhattisgarh,Raipur,"Krishak Nagar, Raipur - CECB",29-03-2026 08:00:00,21.237755,81.705301,NH3,2,2,2
India,Chhattisgarh,Raipur,"Krishak Nagar, Raipur - CECB",29-03-2026 08:00:00,21.237755,81.705301,SO2,3,7,5
India,Chhattisgarh,Raipur,"Siltara Phase-II, Raipur - CECB",29-03-2026 08:00:00,21.371751,81.664929,NO2,NA,NA,NA
India,Chhattisgarh,Bhilai,"Civic Center, Bhilai - Bhilai Steel Plant",29-03-2026 08:00:00,21.185571,81.343175,SO2,7,10,8
India,Chhattisgarh,Bhilai,"Hathkhoj, Bhilai - CECB",29-03-2026 08:00:00,21.224231,81.408350,NO2,16,81,43
India,Chhattisgarh,Bhilai,"Hathkhoj, Bhilai - CECB",29-03-2026 08:00:00,21.224231,81.408350,CO,14,62,37
India,Chhattisgarh,Bilaspur,"Mangala, Bilaspur - NTPC",29-03-2026 08:00:00,22.08815,82.13737,PM2.5,33,84,58
India,Chhattisgarh,Chhal,"Nawapara SECL Colony, Chhal - CECB",29-03-2026 08:00:00,22.118125,83.140608,NH3,4,4,4
India,Chhattisgarh,Korba,"Urja Nagar, Korba - CECB",29-03-2026 08:00:00,22.348441,82.549611,NH3,1,1,1
India,Chhattisgarh,Kunjemura,"OP Jindal School, Kunjemura - CECB",29-03-2026 08:00:00,22.126650,83.483212,NO2,20,164,58
India,Chhattisgarh,Tumidih,"OP Jindal Industrial Park, Tumidih - CECB",29-03-2026 08:00:00,22.06631475,83.33820077,NH3,1,2,2
India,Chhattisgarh,Tumidih,"OP Jindal Industrial Park, Tumidih - CECB",29-03-2026 08:00:00,22.06631475,83.33820077,OZONE,18,18,18
India,Delhi,Delhi,"Alipur, Delhi - DPCC",29-03-2026 08:00:00,28.815329,77.153010,PM10,56,376,186
India,Delhi,Delhi,"Anand Vihar, Delhi - DPCC",29-03-2026 08:00:00,28.647622,77.3158090,SO2,35,61,49
India,Delhi,Delhi,"Ashok Vihar, Delhi - DPCC",29-03-2026 08:00:00,28.695381,77.181665,OZONE,3,98,9
India,Delhi,Delhi,"Bawana, Delhi - DPCC",29-03-2026 08:00:00,28.776200,77.051074,SO2,10,103,22
India,Delhi,Delhi,"Burari Crossing, Delhi - IMD",29-03-2026 08:00:00,28.7256504,77.2011573,NO2,12,57,36
India,Bihar,Patna,"Samanpura, Patna - BSPCB",29-03-2026 08:00:00,25.596727,85.085624,CO,36,50,45
India,Bihar,Purnia,"Mariam Nagar, Purnia - BSPCB",29-03-2026 08:00:00,25.366336,87.117468,NH3,2,2,2
India,Bihar,Rajgir,"Dangi Tola, Rajgir - BSPCB",29-03-2026 08:00:00,25.03280,85.41948,NO2,13,15,14
India,Bihar,Rajgir,"Dangi Tola, Rajgir - BSPCB",29-03-2026 08:00:00,25.03280,85.41948,CO,28,52,42
India,Bihar,Saharsa,"Police Line, Saharsa - BSPCB",29-03-2026 08:00:00,25.892357,86.590325,PM2.5,3,86,34
India,Bihar,Saharsa,"Police Line, Saharsa - BSPCB",29-03-2026 08:00:00,25.892357,86.590325,CO,34,46,37
India,Bihar,Samastipur,"DM Office_Kasipur, Samastipur - BSPCB",29-03-2026 08:00:00,25.859655,85.77944,CO,10,12,12
India,Delhi,Delhi,"JNU, Delhi - DPCC",29-03-2026 08:00:00,28.540721 ,77.168544 ,PM2.5,2,318,138
India,Delhi,Delhi,"JNU, Delhi - DPCC",29-03-2026 08:00:00,28.540721 ,77.168544 ,NO2,7,70,30
India,Delhi,Delhi,"JNU, Delhi - DPCC",29-03-2026 08:00:00,28.540721 ,77.168544 ,SO2,18,20,19
India,Delhi,Delhi,"Jahangirpuri, Delhi - DPCC",29-03-2026 08:00:00,28.732820,77.170633,PM10,91,395,199
India,Delhi,Delhi,"Jawaharlal Nehru Stadium, Delhi - DPCC",29-03-2026 08:00:00,28.580280,77.233829,NO2,26,120,79
India,Delhi,Delhi,"Lodhi Road, Delhi - IMD",29-03-2026 08:00:00,28.5918245,77.2273074,NO2,12,47,30
India,Delhi,Delhi,"Major Dhyan Chand National Stadium, Delhi - DPCC",29-03-2026 08:00:00,28.611281,77.237738,NO2,27,123,80
India,Bihar,Patna,"Govt. High School Shikarpur, Patna - BSPCB",29-03-2026 08:00:00,25.592539,85.227158,PM10,50,91,66
India,Bihar,Patna,"Govt. High School Shikarpur, Patna - BSPCB",29-03-2026 08:00:00,25.592539,85.227158,OZONE,17,89,27
India,Bihar,Patna,"IGSC Planetarium Complex, Patna - BSPCB",29-03-2026 08:00:00,25.610369,85.132568,PM2.5,NA,NA,NA
India,Bihar,Patna,"IGSC Planetarium Complex, Patna - BSPCB",29-03-2026 08:00:00,25.610369,85.132568,OZONE,NA,NA,NA
India,Bihar,Patna,"Muradpur, Patna - BSPCB",29-03-2026 08:00:00,25.619651,85.147382,PM10,57,120,90
India,Bihar,Patna,"Muradpur, Patna - BSPCB",29-03-2026 08:00:00,25.619651,85.147382,OZONE,16,94,24
India,Bihar,Patna,"Rajbansi Nagar, Patna - BSPCB",29-03-2026 08:00:00,25.599486,85.113666,SO2,8,13,11
India,Delhi,Delhi,"IGNOU_Maidan Garhi, Delhi - DPCC",29-03-2026 08:00:00,28.493624 ,77.201159 ,PM10,51,313,158
India,Delhi,Delhi,"IHBAS, Dilshad Garden, Delhi - CPCB",29-03-2026 08:00:00,28.6811736,77.3025234,CO,34,110,73
India,Delhi,Delhi,"IHBAS, Dilshad Garden, Delhi - CPCB",29-03-2026 08:00:00,28.6811736,77.3025234,OZONE,16,120,32
India,Delhi,Delhi,"IIT Delhi, Delhi - IITM",29-03-2026 08:00:00,28.542460,77.191651,PM2.5,23,154,73
India,Delhi,Delhi,"ITO, Delhi - CPCB",29-03-2026 08:00:00,28.628624,77.241060,NH3,3,7,5
India,Gujarat,Gandhinagar,"Sector-10, Gandhinagar - GPCB",29-03-2026 08:00:00,23.221714,72.654328,NH3,2,4,3
India,Gujarat,Gandhinagar,"Sector-10, Gandhinagar - GPCB",29-03-2026 08:00:00,23.221714,72.654328,CO,18,30,26
India,Gujarat,Mehsana,"Sadanand Nagar, Mehsana - Nexteng Enviro",29-03-2026 08:00:00,23.593150,72.372792,NO2,33,50,41
India,Gujarat,Mehsana,"Sadanand Nagar, Mehsana - Nexteng Enviro",29-03-2026 08:00:00,23.593150,72.372792,CO,54,58,56
India,Gujarat,Nandesari,"GIDC, Nandesari - Nandesari Ind. Association",29-03-2026 08:00:00,22.410802,73.097923,PM2.5,48,172,105
India,Gujarat,Nandesari,"GIDC, Nandesari - Nandesari Ind. Association",29-03-2026 08:00:00,22.410802,73.097923,SO2,3,27,7
India,Gujarat,Rajkot,"Mavdi, Rajkot - Nexteng Enviro ",29-03-2026 08:00:00,22.248853,70.776774,PM10,23,100,57
India,Gujarat,Rajkot,"Mavdi, Rajkot - Nexteng Enviro ",29-03-2026 08:00:00,22.248853,70.776774,CO,84,90,87
India,Gujarat,Rajkot,"Mavdi, Rajkot - Nexteng Enviro ",29-03-2026 08:00:00,22.248853,70.776774,OZONE,3,10,4
India,Gujarat,Surat,"Katargam, Surat - Nexteng Enviro",29-03-2026 08:00:00,21.217779 ,72.834787 ,CO,32,43,33
India,Gujarat,Surat,"Science Center, Surat - SMC",29-03-2026 08:00:00,21.170046,72.795405,PM2.5,15,303,60
India,Gujarat,Surat,"Science Center, Surat - SMC",29-03-2026 08:00:00,21.170046,72.795405,NO2,16,19,18
India,Gujarat,Surat,"Science Center, Surat - SMC",29-03-2026 08:00:00,21.170046,72.795405,SO2,20,31,23
India,Gujarat,Surat,"Science Center, Surat - SMC",29-03-2026 08:00:00,21.170046,72.795405,CO,85,101,88
India,Delhi,Delhi,"Punjabi Bagh, Delhi - DPCC",29-03-2026 08:00:00,28.674045,77.131023,OZONE,5,123,13
India,Delhi,Delhi,"Pusa, Delhi - DPCC",29-03-2026 08:00:00,28.639652,77.146275,PM2.5,33,351,137
India,Delhi,Delhi,"Rohini, Delhi - DPCC",29-03-2026 08:00:00,28.732528,77.119920,NO2,9,92,54
India,Delhi,Delhi,"Rohini, Delhi - DPCC",29-03-2026 08:00:00,28.732528,77.119920,NH3,7,9,8
India,Delhi,Delhi,"Rohini, Delhi - DPCC",29-03-2026 08:00:00,28.732528,77.119920,SO2,16,67,29
India,Delhi,Delhi,"Rohini, Delhi - DPCC",29-03-2026 08:00:00,28.732528,77.119920,OZONE,7,118,10
India,Delhi,Delhi,"Shadipur, Delhi - CPCB",29-03-2026 08:00:00,28.6514781,77.1473105,PM2.5,105,325,235
India,Delhi,Delhi,"Shadipur, Delhi - CPCB",29-03-2026 08:00:00,28.6514781,77.1473105,CO,1,105,68
India,Delhi,Delhi,"Sirifort, Delhi - CPCB",29-03-2026 08:00:00,28.5504249,77.2159377,PM2.5,43,333,173
India,Delhi,Delhi,"Sirifort, Delhi - CPCB",29-03-2026 08:00:00,28.5504249,77.2159377,NO2,26,50,36
India,Delhi,Delhi,"Sirifort, Delhi - CPCB",29-03-2026 08:00:00,28.5504249,77.2159377,NH3,7,13,11
India,Delhi,Delhi,"Sirifort, Delhi - CPCB",29-03-2026 08:00:00,28.5504249,77.2159377,SO2,31,34,32
India,Delhi,Delhi,"Sonia Vihar, Delhi - DPCC",29-03-2026 08:00:00,28.710508,77.249485,OZONE,2,159,5
India,Delhi,Delhi,"Sri Aurobindo Marg, Delhi - DPCC",29-03-2026 08:00:00,28.531346,77.190156,OZONE,2,70,4
India,Delhi,Delhi,"Talkatora Garden, Delhi - DPCC",29-03-2026 08:00:00,28.621810,77.1944633,PM2.5,17,347,148
India,Delhi,Delhi,"Talkatora Garden, Delhi - DPCC",29-03-2026 08:00:00,28.621810,77.1944633,OZONE,1,21,2
India,Delhi,Delhi,"Vivek Vihar, Delhi - DPCC",29-03-2026 08:00:00,28.672342,77.315260,CO,48,105,61
India,Delhi,Delhi,"Wazirpur, Delhi - DPCC",29-03-2026 08:00:00,28.699793,77.165453,PM10,130,413,215
India,Delhi,Delhi,"Wazirpur, Delhi - DPCC",29-03-2026 08:00:00,28.699793,77.165453,NO2,36,104,75
India,Delhi,Delhi,"Wazirpur, Delhi - DPCC",29-03-2026 08:00:00,28.699793,77.165453,SO2,13,40,23
India,Gujarat,Ahmedabad,"SAC ISRO Satellite, Ahmedabad - IITM",29-03-2026 08:00:00,23.023389,72.515201,SO2,4,29,14
India,Gujarat,Bhavnagar,"Vidhyanagar, Bhavnagar - Nexteng Enviro",29-03-2026 08:00:00,21.755417,72.139056,PM10,56,105,81
India,Gujarat,Bhavnagar,"Vidhyanagar, Bhavnagar - Nexteng Enviro",29-03-2026 08:00:00,21.755417,72.139056,NO2,34,46,39
India,Gujarat,Gandhinagar,"GIFT City, Gandhinagar - IITM",29-03-2026 08:00:00,23.163798,72.677768,OZONE,1,37,1
India,Gujarat,Gandhinagar,"Sector-10, Gandhinagar - GPCB",29-03-2026 08:00:00,23.221714,72.654328,PM2.5,28,70,43
India,Gujarat,Gandhinagar,"Sector-10, Gandhinagar - GPCB",29-03-2026 08:00:00,23.221714,72.654328,PM10,46,80,62
India,Gujarat,Ahmedabad,"Chandkheda, Ahmedabad - IITM",29-03-2026 08:00:00,23.107969,72.574648,SO2,2,7,4
India,Gujarat,Ahmedabad,"Chandkheda, Ahmedabad - IITM",29-03-2026 08:00:00,23.107969,72.574648,CO,12,24,20
India,Gujarat,Ahmedabad,"Raikhad, Ahmedabad - IITM",29-03-2026 08:00:00,23.020509,72.579261,CO,5,96,52
India,Gujarat,Ahmedabad,"Rakhial, Ahmedabad - IITM",29-03-2026 08:00:00,23.016834,72.625775,CO,84,104,92
India,Gujarat,Ahmedabad,"SAC ISRO Bopal, Ahmedabad - IITM",29-03-2026 08:00:00,23.041137,72.456691,SO2,5,9,7
India,Delhi,Delhi,"Mundka, Delhi - DPCC",29-03-2026 08:00:00,28.684678,77.076574,CO,41,106,89
India,Delhi,Delhi,"NSIT Dwarka, Delhi - CPCB",29-03-2026 08:00:00,28.60909,77.0325413,PM10,100,270,153
India,Delhi,Delhi,"NSUT Jaffarpur, Delhi - DPCC",29-03-2026 08:00:00,28.594004 ,76.909423 ,PM10,42,273,142
India,Delhi,Delhi,"Narela, Delhi - DPCC",29-03-2026 08:00:00,28.822836,77.101981,SO2,9,46,21
India,Gujarat,Vadodara,"Bapunagar, Vadodara - Nexteng Enviro",29-03-2026 08:00:00,22.320153,73.216285,OZONE,3,8,3
India,Haryana,Ambala,"Patti Mehar, Ambala - HSPCB",29-03-2026 08:00:00,30.379589,76.778328,PM2.5,61,134,84
India,Haryana,Ambala,"Patti Mehar, Ambala - HSPCB",29-03-2026 08:00:00,30.379589,76.778328,NH3,8,8,8
India,Delhi,Delhi,"Narela, Delhi - DPCC",29-03-2026 08:00:00,28.822836,77.101981,OZONE,1,68,2
India,Delhi,Delhi,"Nehru Nagar, Delhi - DPCC",29-03-2026 08:00:00,28.567890,77.250515,OZONE,1,138,5
India,Delhi,Delhi,"Okhla Phase-2, Delhi - DPCC",29-03-2026 08:00:00,28.530785,77.271255,NO2,28,142,89
India,Delhi,Delhi,"Punjabi Bagh, Delhi - DPCC",29-03-2026 08:00:00,28.674045,77.131023,PM10,53,319,167
India,Delhi,Delhi,"Punjabi Bagh, Delhi - DPCC",29-03-2026 08:00:00,28.674045,77.131023,NO2,18,75,48
India,Delhi,Delhi,"Punjabi Bagh, Delhi - DPCC",29-03-2026 08:00:00,28.674045,77.131023,SO2,30,52,36
India,Haryana,Jind,"Police Lines, Jind - HSPCB",29-03-2026 08:00:00,29.307814,76.337619,OZONE,6,13,10
India,Haryana,Kaithal,"Rishi Nagar, Kaithal - HSPCB",29-03-2026 08:00:00,29.8006,76.4155,SO2,43,45,44
India,Haryana,Kaithal,"Rishi Nagar, Kaithal - HSPCB",29-03-2026 08:00:00,29.8006,76.4155,CO,2,90,41
India,Haryana,Kaithal,"Rishi Nagar, Kaithal - HSPCB",29-03-2026 08:00:00,29.8006,76.4155,OZONE,8,16,11
India,Haryana,Karnal,"Sector-12, Karnal - HSPCB",29-03-2026 08:00:00,29.695300,77.002700,PM10,27,126,77
India,Haryana,Kurukshetra,"Sector-7, Kurukshetra - HSPCB",29-03-2026 08:00:00,29.966942,76.875879,PM10,71,140,107
India,Haryana,Mandikhera,"General Hospital, Mandikhera(Nuh) - HSPCB",29-03-2026 08:00:00,27.9002,76.9938,OZONE,24,31,28
India,Haryana,Manesar,"Sector-2 IMT, Manesar - HSPCB",29-03-2026 08:00:00,28.360699,76.936090,PM10,27,176,109
India,Haryana,Manesar,"Sector-2 IMT, Manesar - HSPCB",29-03-2026 08:00:00,28.360699,76.936090,NH3,8,11,9
India,Jammu_and_Kashmir,Pampore,"Khrew, Pampore - JKPCC",29-03-2026 08:00:00,34.031606,75.009712,SO2,3,4,4
India,Jammu_and_Kashmir,Srinagar,"Khunmoh, Srinagar - JKPCC",29-03-2026 08:00:00,34.06313,74.96017,NO2,4,30,12
India,Jharkhand,Dhanbad,"Sardar Patel Nagar, Dhanbad - JSPCB",29-03-2026 08:00:00,23.80569,86.44268,PM2.5,NA,NA,NA
India,Jharkhand,Dhanbad,"Sardar Patel Nagar, Dhanbad - JSPCB",29-03-2026 08:00:00,23.80569,86.44268,PM10,NA,NA,NA
India,Jharkhand,Jorapokhar,"Tata Stadium, Jorapokhar - JSPCB",29-03-2026 08:00:00,23.707909,86.414670,PM2.5,38,156,58
India,Jharkhand,Jorapokhar,"Tata Stadium, Jorapokhar - JSPCB",29-03-2026 08:00:00,23.707909,86.414670,OZONE,NA,NA,NA
India,Karnataka,Bagalkot,"Vidayagiri, Bagalkot - KSPCB",29-03-2026 08:00:00,16.172806,75.659694,NO2,6,12,11
India,Karnataka,Bagalkot,"Vidayagiri, Bagalkot - KSPCB",29-03-2026 08:00:00,16.172806,75.659694,NH3,1,1,1
India,Haryana,Gurugram,"NISE Gwal Pahari, Gurugram - IMD",29-03-2026 08:00:00,28.422681,77.148944,PM2.5,16,374,235
India,Haryana,Gurugram,"NISE Gwal Pahari, Gurugram - IMD",29-03-2026 08:00:00,28.422681,77.148944,PM10,7,400,183
India,Haryana,Gurugram,"Sector-51, Gurugram - HSPCB",29-03-2026 08:00:00,28.4227,77.0667,PM10,52,442,191
India,Haryana,Gurugram,"Sector-51, Gurugram - HSPCB",29-03-2026 08:00:00,28.4227,77.0667,NH3,6,10,8
India,Haryana,Gurugram,"Teri Gram, Gurugram - HSPCB",29-03-2026 08:00:00,28.4275,77.1465,OZONE,9,27,11
India,Haryana,Gurugram,"Vikas Sadan, Gurugram - HSPCB",29-03-2026 08:00:00,28.4501238,77.0263051,SO2,2,8,5
India,Haryana,Hisar,"Urban Estate-II, Hisar - HSPCB",29-03-2026 08:00:00,29.140560,75.744941,PM10,73,179,115
India,Haryana,Hisar,"Urban Estate-II, Hisar - HSPCB",29-03-2026 08:00:00,29.140560,75.744941,NO2,26,28,27
India,Haryana,Narnaul,"Shastri Nagar, Narnaul - HSPCB",29-03-2026 08:00:00,28.060249,76.113115,NH3,4,6,5
India,Haryana,Palwal,"Shyam Nagar, Palwal - HSPCB",29-03-2026 08:00:00,28.1485564,77.3320667,CO,26,184,92
India,Haryana,Panchgaon,"Amity University, Panchgaon - IITM",29-03-2026 08:00:00,28.3153,76.9143,CO,18,65,50
India,Haryana,Panchkula,"Sector-6, Panchkula - HSPCB ",29-03-2026 08:00:00,30.7057778,76.8531805555555,SO2,13,14,14
India,Haryana,Panchkula,"Sector-6, Panchkula - HSPCB ",29-03-2026 08:00:00,30.7057778,76.8531805555555,CO,4,42,38
India,Haryana,Panchkula,"Sector-6, Panchkula - HSPCB ",29-03-2026 08:00:00,30.7057778,76.8531805555555,OZONE,2,35,3
India,Haryana,Rohtak,"MD University, Rohtak - HSPCB",29-03-2026 08:00:00,28.52123,76.37138,CO,31,38,35
India,Haryana,Charkhi Dadri,"Mini Secretariat, Charkhi Dadri - HSPCB",29-03-2026 08:00:00,28.593883,76.270653,PM10,37,156,98
India,Haryana,Charkhi Dadri,"Mini Secretariat, Charkhi Dadri - HSPCB",29-03-2026 08:00:00,28.593883,76.270653,NO2,9,23,15
India,Haryana,Charkhi Dadri,"Mini Secretariat, Charkhi Dadri - HSPCB",29-03-2026 08:00:00,28.593883,76.270653,NH3,5,8,6
India,Haryana,Faridabad,"New Industrial Town, Faridabad - HSPCB",29-03-2026 08:00:00,28.39072,77.30059,NO2,24,27,25
India,Haryana,Faridabad,"New Industrial Town, Faridabad - HSPCB",29-03-2026 08:00:00,28.39072,77.30059,CO,10,12,12
India,Haryana,Faridabad,"Sector 11, Faridabad - HSPCB",29-03-2026 08:00:00,28.376058,77.315741,OZONE,14,16,15
India,Haryana,Faridabad,"Sector 30, Faridabad - HSPCB",29-03-2026 08:00:00,28.4417,77.3217,NH3,10,12,11
India,Haryana,Faridabad,"Sector 30, Faridabad - HSPCB",29-03-2026 08:00:00,28.4417,77.3217,SO2,4,6,5
India,Karnataka,Bengaluru,"Bapuji Nagar, Bengaluru - KSPCB",29-03-2026 08:00:00,12.951913,77.539784,CO,13,47,26
India,Karnataka,Bengaluru,"City Railway Station, Bengaluru - KSPCB",29-03-2026 08:00:00,12.9756843,77.5660749,SO2,NA,NA,NA
India,Karnataka,Bengaluru,"Hombegowda Nagar, Bengaluru - KSPCB",29-03-2026 08:00:00,12.938539,77.590100,PM10,50,129,93
India,Karnataka,Bengaluru,"Jigani, Bengaluru - KSPCB",29-03-2026 08:00:00,12.7816279,77.6299145,NO2,26,27,27
India,Karnataka,Bengaluru,"Peenya, Bengaluru - CPCB",29-03-2026 08:00:00,13.0270199,77.494094,PM2.5,18,107,50
India,Karnataka,Bengaluru,"Peenya, Bengaluru - CPCB",29-03-2026 08:00:00,13.0270199,77.494094,NO2,20,35,26
India,Haryana,Sirsa,"F-Block, Sirsa - HSPCB",29-03-2026 08:00:00,29.536400,75.015800,OZONE,19,29,24
India,Haryana,Yamuna Nagar,"Gobind Pura, Yamuna Nagar - HSPCB",29-03-2026 08:00:00,30.1480566,77.2893471,OZONE,8,34,11
India,Himachal Pradesh,Baddi,"HIMUDA Complex Phase-1, Baddi - HPPCB",29-03-2026 08:00:00,30.943887,76.801991,PM10,75,300,140
India,Karnataka,Bengaluru,"Peenya, Bengaluru - CPCB",29-03-2026 08:00:00,13.0270199,77.494094,SO2,6,19,10
India,Karnataka,Bengaluru,"Shivapura_Peenya, Bengaluru - KSPCB",29-03-2026 08:00:00,13.0246342,77.5080115,PM2.5,NA,NA,NA
India,Karnataka,Bengaluru,"Silk Board, Bengaluru - KSPCB",29-03-2026 08:00:00,12.917348,77.622813,SO2,1,6,2
India,Karnataka,Dharwad,"Kalabhavan, Dharwad - KSPCB",29-03-2026 08:00:00,15.459706,75.008381,NH3,7,8,8
India,Karnataka,Dharwad,"Kalabhavan, Dharwad - KSPCB",29-03-2026 08:00:00,15.459706,75.008381,CO,26,87,29
India,Karnataka,Hubballi,"Lingaraj Nagar, Hubballi - KSPCB",29-03-2026 08:00:00,15.3714823,75.1160168,NH3,1,1,1
India,Maharashtra,Akola,"Ramdaspeth, Akola - MPCB",29-03-2026 08:00:00,20.719516,77.000253,CO,18,34,18
India,Maharashtra,Ambernath,"Chinchpada, Ambernath - MPCB",29-03-2026 08:00:00,19.2157840,73.1997810,PM2.5,15,55,31
India,Maharashtra,Ambernath,"Chinchpada, Ambernath - MPCB",29-03-2026 08:00:00,19.2157840,73.1997810,NO2,20,56,36
India,Maharashtra,Amravati,"Shivneri Colony, Amravati - MPCB",29-03-2026 08:00:00,20.9402359,77.7895248,PM2.5,27,55,45
India,Maharashtra,Amravati,"Shivneri Colony, Amravati - MPCB",29-03-2026 08:00:00,20.9402359,77.7895248,PM10,64,100,78
India,Maharashtra,Amravati,"Shivneri Colony, Amravati - MPCB",29-03-2026 08:00:00,20.9402359,77.7895248,NH3,NA,NA,NA
India,Maharashtra,Amravati,"Shri Shivaji Science College, Amravati - MPCB",29-03-2026 08:00:00,20.939198,77.765701,NO2,3,41,8
India,Maharashtra,Amravati,"Shri Shivaji Science College, Amravati - MPCB",29-03-2026 08:00:00,20.939198,77.765701,OZONE,2,57,27
India,Maharashtra,Aurangabad,"More Chowk Waluj, Aurangabad - MPCB",29-03-2026 08:00:00,19.8389439,75.244448,NO2,NA,NA,NA
India,Maharashtra,Aurangabad,"Rachnakar Colony, Aurangabad - MPCB",29-03-2026 08:00:00,19.863756,75.321188,PM10,51,88,64
India,Maharashtra,Aurangabad,"Rachnakar Colony, Aurangabad - MPCB",29-03-2026 08:00:00,19.863756,75.321188,CO,18,28,23
India,Madhya Pradesh,Indore,"Maguda Nagar, Indore - IMC",29-03-2026 08:00:00,22.7524,75.8872,CO,28,39,34
India,Madhya Pradesh,Indore,"Regional Park, Indore - IMC",29-03-2026 08:00:00,22.6780,75.8559,PM2.5,27,86,50
India,Madhya Pradesh,Indore,"Regional Park, Indore - IMC",29-03-2026 08:00:00,22.6780,75.8559,NO2,18,22,20
India,Madhya Pradesh,Indore,"Regional Park, Indore - IMC",29-03-2026 08:00:00,22.6780,75.8559,OZONE,5,9,7
India,Madhya Pradesh,Jabalpur,"Govindh Bhavan Colony, Jabalpur - JMC",29-03-2026 08:00:00,23.163174,79.973061,PM10,20,60,35
India,Madhya Pradesh,Jabalpur,"Govindh Bhavan Colony, Jabalpur - JMC",29-03-2026 08:00:00,23.163174,79.973061,SO2,5,7,6
India,Madhya Pradesh,Jabalpur,"Gupteshwar, Jabalpur - JMC",29-03-2026 08:00:00,23.142888,79.916147,PM10,39,144,84
India,Madhya Pradesh,Jabalpur,"Gupteshwar, Jabalpur - JMC",29-03-2026 08:00:00,23.142888,79.916147,SO2,13,25,16
India,Madhya Pradesh,Jabalpur,"Marhatal, Jabalpur - MPPCB",29-03-2026 08:00:00,23.168606,79.932247,PM2.5,16,289,76
India,Madhya Pradesh,Jabalpur,"Marhatal, Jabalpur - MPPCB",29-03-2026 08:00:00,23.168606,79.932247,NO2,26,42,32
India,Madhya Pradesh,Jabalpur,"Marhatal, Jabalpur - MPPCB",29-03-2026 08:00:00,23.168606,79.932247,SO2,14,22,17
India,Madhya Pradesh,Jabalpur,"Marhatal, Jabalpur - MPPCB",29-03-2026 08:00:00,23.168606,79.932247,CO,20,156,102
India,Kerala,Thiruvananthapuram,"Plammoodu, Thiruvananthapuram - Kerala PCB",29-03-2026 08:00:00,8.5149093,76.9435879,NO2,NA,NA,NA
India,Kerala,Thiruvananthapuram,"Plammoodu, Thiruvananthapuram - Kerala PCB",29-03-2026 08:00:00,8.5149093,76.9435879,CO,9,35,13
India,Madhya Pradesh,Bhopal,"Idgah Hills, Bhopal - MPPCB",29-03-2026 08:00:00,23.264759,77.381568,NH3,6,10,7
India,Madhya Pradesh,Bhopal,"Idgah Hills, Bhopal - MPPCB",29-03-2026 08:00:00,23.264759,77.381568,CO,14,98,20
India,Madhya Pradesh,Bhopal,"Paryavaran Parisar, Bhopal - MPPCB",29-03-2026 08:00:00,23.210494,77.425409,NH3,6,7,7
India,Madhya Pradesh,Bhopal,"T T Nagar, Bhopal - MPPCB",29-03-2026 08:00:00,23.233584,77.400574,NH3,5,6,6
India,Madhya Pradesh,Bhopal,"T T Nagar, Bhopal - MPPCB",29-03-2026 08:00:00,23.233584,77.400574,SO2,13,21,16
India,Madhya Pradesh,Damoh,"Shrivastav Colony, Damoh - MPPCB",29-03-2026 08:00:00,23.81748678,79.446246,PM10,47,159,96
India,Madhya Pradesh,Damoh,"Shrivastav Colony, Damoh - MPPCB",29-03-2026 08:00:00,23.81748678,79.446246,CO,14,22,21
India,Madhya Pradesh,Dewas,"Bhopal Chauraha, Dewas - MPPCB",29-03-2026 08:00:00,22.9682591,76.064118,PM10,73,184,103
India,Madhya Pradesh,Dewas,"Bhopal Chauraha, Dewas - MPPCB",29-03-2026 08:00:00,22.9682591,76.064118,SO2,6,104,54
India,Madhya Pradesh,Dewas,"Bhopal Chauraha, Dewas - MPPCB",29-03-2026 08:00:00,22.9682591,76.064118,OZONE,11,129,13
India,Madhya Pradesh,Gwalior,"City Center, Gwalior - MPPCB",29-03-2026 08:00:00,26.203442,78.193251,CO,24,114,30
India,Madhya Pradesh,Gwalior,"City Center, Gwalior - MPPCB",29-03-2026 08:00:00,26.203442,78.193251,OZONE,59,149,110
India,Madhya Pradesh,Gwalior,"Maharaj Bada, Gwalior - MPPCB",29-03-2026 08:00:00,26.200388,78.147714,PM2.5,12,113,59
India,Madhya Pradesh,Gwalior,"Maharaj Bada, Gwalior - MPPCB",29-03-2026 08:00:00,26.200388,78.147714,PM10,52,167,106
India,Madhya Pradesh,Gwalior,"Maharaj Bada, Gwalior - MPPCB",29-03-2026 08:00:00,26.200388,78.147714,SO2,NA,NA,NA
India,Madhya Pradesh,Gwalior,"Maharaj Bada, Gwalior - MPPCB",29-03-2026 08:00:00,26.200388,78.147714,CO,1,163,2
India,Madhya Pradesh,Indore,"Airport Area, Indore - IMC",29-03-2026 08:00:00,22.7289,75.8076,PM2.5,63,182,109
India,Madhya Pradesh,Indore,"Airport Area, Indore - IMC",29-03-2026 08:00:00,22.7289,75.8076,PM10,66,145,110
India,Madhya Pradesh,Indore,"Airport Area, Indore - IMC",29-03-2026 08:00:00,22.7289,75.8076,SO2,2,4,3
India,Madhya Pradesh,Indore,"Airport Area, Indore - IMC",29-03-2026 08:00:00,22.7289,75.8076,OZONE,7,18,8
India,Madhya Pradesh,Jabalpur,"Suhagi, Jabalpur - JMC",29-03-2026 08:00:00,23.218135,79.957770,PM2.5,13,94,50
India,Madhya Pradesh,Katni,"Gole Bazar, Katni - MPPCB",29-03-2026 08:00:00,23.50016,80.23284,PM2.5,32,113,60
India,Madhya Pradesh,Maihar,"Sahilara, Maihar - KJS Cements",29-03-2026 08:00:00,24.2613009,80.7231783,NO2,26,65,41
India,Madhya Pradesh,Mandideep,"Sector-D Industrial Area, Mandideep - MPPCB",29-03-2026 08:00:00,23.108440,77.511428,NH3,6,10,8
India,Madhya Pradesh,Pithampur,"Sector-2 Industrial Area, Pithampur - MPPCB",29-03-2026 08:00:00,22.624758,75.675238,PM2.5,27,314,113
India,Madhya Pradesh,Pithampur,"Sector-2 Industrial Area, Pithampur - MPPCB",29-03-2026 08:00:00,22.624758,75.675238,PM10,79,216,144
India,Madhya Pradesh,Pithampur,"Sector-2 Industrial Area, Pithampur - MPPCB",29-03-2026 08:00:00,22.624758,75.675238,NH3,14,17,16
India,Madhya Pradesh,Ratlam,"Shasthri Nagar, Ratlam - IPCA Lab",29-03-2026 08:00:00,23.331731,75.045981,SO2,37,40,39
India,Madhya Pradesh,Sagar,"Deen Dayal Nagar, Sagar - MPPCB",29-03-2026 08:00:00,23.8640158,78.80289321,PM2.5,4,69,33
India,Madhya Pradesh,Satna,"Bandhavgar Colony, Satna - Birla Cement",29-03-2026 08:00:00,24.58434363,80.8549414,PM2.5,48,51,50
India,Madhya Pradesh,Satna,"Bandhavgar Colony, Satna - Birla Cement",29-03-2026 08:00:00,24.58434363,80.8549414,PM10,69,71,70
India,Madhya Pradesh,Satna,"Bandhavgar Colony, Satna - Birla Cement",29-03-2026 08:00:00,24.58434363,80.8549414,SO2,19,21,20
India,Madhya Pradesh,Singrauli,"Suryakiran Bhawan NCL, Singrauli - MPPCB",29-03-2026 08:00:00,24.108970,82.645580,SO2,60,102,73
India,Maharashtra,Ahmednagar,"Tarakpur, Ahmednagar - MPCB",29-03-2026 08:00:00,19.10122,74.73339,PM10,34,118,63
India,Maharashtra,Ahmednagar,"Tarakpur, Ahmednagar - MPCB",29-03-2026 08:00:00,19.10122,74.73339,NO2,15,27,21
India,Maharashtra,Beed,"Bir, Beed - MPCB",29-03-2026 08:00:00,18.988474,75.753873,NO2,16,110,33
India,Maharashtra,Beed,"Bir, Beed - MPCB",29-03-2026 08:00:00,18.988474,75.753873,SO2,4,31,11
India,Maharashtra,Beed,"Bir, Beed - MPCB",29-03-2026 08:00:00,18.988474,75.753873,OZONE,6,50,17
India,Maharashtra,Belapur,"CBD Belapur, Belapur - MPCB",29-03-2026 08:00:00,19.0243902,73.0406721,PM2.5,4,74,36
India,Maharashtra,Belapur,"CBD Belapur, Belapur - MPCB",29-03-2026 08:00:00,19.0243902,73.0406721,NH3,NA,NA,NA
India,Maharashtra,Belapur,"CBD Belapur, Belapur - MPCB",29-03-2026 08:00:00,19.0243902,73.0406721,SO2,1,3,1
India,Maharashtra,Bhiwandi,"Gokul Nagar, Bhiwandi - MPCB",29-03-2026 08:00:00,19.309073,73.057223,PM2.5,14,41,28
India,Maharashtra,Bhiwandi,"Gokul Nagar, Bhiwandi - MPCB",29-03-2026 08:00:00,19.309073,73.057223,CO,15,46,29
India,Karnataka,Vijayapura,"Ibrahimpur, Vijayapura - KSPCB",29-03-2026 08:00:00,16.802639,75.722694,OZONE,11,17,15
India,Karnataka,Yadgir,"Collector Office, Yadgir - KSPCB",29-03-2026 08:00:00,16.7602,77.1428,NH3,1,2,1
India,Karnataka,Yadgir,"Collector Office, Yadgir - KSPCB",29-03-2026 08:00:00,16.7602,77.1428,CO,19,43,29
India,Kerala,Kannur,"Thavakkara, Kannur - Kerala PCB",29-03-2026 08:00:00,11.875000,75.373200,PM2.5,82,103,94
India,Kerala,Kannur,"Thavakkara, Kannur - Kerala PCB",29-03-2026 08:00:00,11.875000,75.373200,NH3,2,4,2
India,Kerala,Kollam,"Polayathode, Kollam - Kerala PCB",29-03-2026 08:00:00,8.8787,76.6073,PM2.5,NA,NA,NA
India,Karnataka,Mangalore,"Kadri, Mangalore - KSPCB",29-03-2026 08:00:00,12.889250,74.853000,PM10,4,78,39
India,Karnataka,Mysuru,"Hebbal 1st Stage, Mysuru - KSPCB",29-03-2026 08:00:00,12.21041,76.37376,OZONE,4,150,8
India,Karnataka,Shivamogga,"Vinoba Nagara, Shivamogga - KSPCB",29-03-2026 08:00:00,13.940000,75.555917,SO2,2,4,3
India,Karnataka,Vijayapura,"Ibrahimpur, Vijayapura - KSPCB",29-03-2026 08:00:00,16.802639,75.722694,PM10,26,39,38
India,Maharashtra,Mumbai,"Kandivali West, Mumbai - BMC",29-03-2026 08:00:00,19.215859,72.831718,NH3,3,4,4
India,Maharashtra,Mumbai,"Kandivali West, Mumbai - BMC",29-03-2026 08:00:00,19.215859,72.831718,OZONE,8,48,12
India,Maharashtra,Mumbai,"Kherwadi_Bandra East, Mumbai - MPCB",29-03-2026 08:00:00,19.0632143,72.8456324,PM2.5,8,54,30
India,Maharashtra,Mumbai,"Kherwadi_Bandra East, Mumbai - MPCB",29-03-2026 08:00:00,19.0632143,72.8456324,PM10,22,72,45
India,Maharashtra,Mumbai,"Khindipada-Bhandup West, Mumbai - IITM",29-03-2026 08:00:00,19.1653323,72.922099,NH3,3,3,3
India,Maharashtra,Mumbai,"Kurla, Mumbai - MPCB",29-03-2026 08:00:00,19.0863,72.8888,PM2.5,18,107,58
India,Maharashtra,Mumbai,"Kurla, Mumbai - MPCB",29-03-2026 08:00:00,19.0863,72.8888,SO2,29,29,29
India,Maharashtra,Mumbai,"Malad West, Mumbai - IITM",29-03-2026 08:00:00,19.19709,72.82204,NO2,19,41,29
India,Maharashtra,Mumbai,"Malad West, Mumbai - IITM",29-03-2026 08:00:00,19.19709,72.82204,SO2,NA,NA,NA
India,Maharashtra,Mumbai,"Malad West, Mumbai - IITM",29-03-2026 08:00:00,19.19709,72.82204,CO,25,54,28
India,Maharashtra,Mumbai,"Mazgaon, Mumbai - IITM",29-03-2026 08:00:00,18.96702,72.84214,NO2,25,90,54
India,Maharashtra,Mumbai,"Mazgaon, Mumbai - IITM",29-03-2026 08:00:00,18.96702,72.84214,NH3,13,20,16
India,Maharashtra,Kalyan,"Khadakpada, Kalyan - MPCB",29-03-2026 08:00:00,19.25292,73.142019,PM2.5,19,351,85
India,Maharashtra,Kalyan,"Khadakpada, Kalyan - MPCB",29-03-2026 08:00:00,19.25292,73.142019,NO2,36,36,36
India,Maharashtra,Kalyan,"Pimpleshwar Mandir, Kalyan - MPCB",29-03-2026 08:00:00,19.192056,72.9585188,PM2.5,49,49,49
India,Maharashtra,Kalyan,"Pimpleshwar Mandir, Kalyan - MPCB",29-03-2026 08:00:00,19.192056,72.9585188,NH3,3,3,3
India,Maharashtra,Kolhapur,"Shivaji University, Kolhapur - MPCB",29-03-2026 08:00:00,16.6870449,74.2505872,OZONE,8,65,14
India,Maharashtra,Kolhapur,"Sinchan Bhavan, Kolhapur - MPCB",29-03-2026 08:00:00,16.7143745,74.2426398,PM2.5,NA,NA,NA
India,Maharashtra,Latur,"Sawe Wadi, Latur - MPCB",29-03-2026 08:00:00,18.39963,76.57452,PM10,56,100,76
India,Maharashtra,Latur,"Sawe Wadi, Latur - MPCB",29-03-2026 08:00:00,18.39963,76.57452,SO2,NA,NA,NA
India,Maharashtra,Mahad,"Kamble Tarf Birwadi, Mahad - MPCB",29-03-2026 08:00:00,18.1023399,73.4783687,CO,38,41,39
India,Maharashtra,Dhule,"Deopur, Dhule - MPCB",29-03-2026 08:00:00,20.918946,74.776388,PM2.5,34,172,97
India,Maharashtra,Dhule,"Deopur, Dhule - MPCB",29-03-2026 08:00:00,20.918946,74.776388,NH3,1,1,1
India,Maharashtra,Dombivli,"Kalu Nagar, Dombivli - MPCB",29-03-2026 08:00:00,19.2268427 ,73.0788456 ,PM2.5,2,47,13
India,Maharashtra,Hingoli,"Ashta Vinayak Nagar, Hingoli - MPCB",29-03-2026 08:00:00,19.710842,77.151824,PM2.5,5,116,44
India,Maharashtra,Hingoli,"Ashta Vinayak Nagar, Hingoli - MPCB",29-03-2026 08:00:00,19.710842,77.151824,CO,10,66,25
India,Maharashtra,Jalgaon,"Prabhat Colony, Jalgaon - MPCB",29-03-2026 08:00:00,21.001264,75.565602,SO2,6,21,13
India,Maharashtra,Jalgaon,"Prabhat Colony, Jalgaon - MPCB",29-03-2026 08:00:00,21.001264,75.565602,OZONE,18,65,29
India,Maharashtra,Jalna,"Old MIDC, Jalna - MPCB",29-03-2026 08:00:00,19.854616,75.905894,PM10,61,163,87
India,Maharashtra,Jalna,"Old MIDC, Jalna - MPCB",29-03-2026 08:00:00,19.854616,75.905894,CO,6,35,12
India,Maharashtra,Mumbai,"Chembur, Mumbai - MPCB",29-03-2026 08:00:00,19.0364585,72.8954371,PM10,14,64,40
India,Maharashtra,Mumbai,"Chembur, Mumbai - MPCB",29-03-2026 08:00:00,19.0364585,72.8954371,NO2,15,37,23
India,Maharashtra,Mumbai,"Colaba, Mumbai - MPCB",29-03-2026 08:00:00,18.910000,72.820000,NH3,4,4,4
India,Maharashtra,Mumbai,"Deonar, Mumbai - IITM",29-03-2026 08:00:00,19.04946,72.9230,OZONE,3,47,8
India,Maharashtra,Mumbai,"Ghatkopar, Mumbai - BMC",29-03-2026 08:00:00,19.083694,72.920967,SO2,1,2,1
India,Maharashtra,Mumbai,"Kandivali East, Mumbai - MPCB",29-03-2026 08:00:00,19.205800,72.868200,PM2.5,1,19,8
India,Maharashtra,Mumbai,"Kandivali East, Mumbai - MPCB",29-03-2026 08:00:00,19.205800,72.868200,SO2,18,28,23
India,Maharashtra,Mumbai,"Kandivali East, Mumbai - MPCB",29-03-2026 08:00:00,19.205800,72.868200,OZONE,14,15,15
India,Maharashtra,Mumbai,"Mindspace-Malad West, Mumbai - MPCB",29-03-2026 08:00:00,19.1878657,72.8304069,PM2.5,6,33,16
India,Maharashtra,Mumbai,"Mindspace-Malad West, Mumbai - MPCB",29-03-2026 08:00:00,19.1878657,72.8304069,CO,6,25,8
India,Maharashtra,Mumbai,"Mulund West, Mumbai - MPCB",29-03-2026 08:00:00,19.1750,72.9419,PM2.5,NA,NA,NA
India,Maharashtra,Mumbai,"Mulund West, Mumbai - MPCB",29-03-2026 08:00:00,19.1750,72.9419,NH3,NA,NA,NA
India,Maharashtra,Mumbai,"Navy Nagar-Colaba, Mumbai - IITM",29-03-2026 08:00:00,18.897756,72.813320,CO,15,41,22
India,Maharashtra,Mumbai,"Powai, Mumbai - MPCB",29-03-2026 08:00:00,19.137500,72.915056,SO2,NA,NA,NA
India,Maharashtra,Mumbai,"Shivaji Nagar, Mumbai - BMC",29-03-2026 08:00:00,19.060498,72.923356,PM2.5,7,42,22
India,Maharashtra,Mumbai,"Siddharth Nagar-Worli, Mumbai - IITM",29-03-2026 08:00:00,19.000083,72.813993,NO2,17,60,23
India,Maharashtra,Mumbai,"Sion, Mumbai - MPCB",29-03-2026 08:00:00,19.047000,72.874600,PM10,11,111,33
India,Maharashtra,Mumbai,"Sion, Mumbai - MPCB",29-03-2026 08:00:00,19.047000,72.874600,CO,14,18,18
India,Maharashtra,Mumbai,"Vile Parle West, Mumbai - MPCB",29-03-2026 08:00:00,19.10861,72.83622,PM2.5,2,19,9
India,Maharashtra,Nagpur,"Ambazari, Nagpur - MPCB",29-03-2026 08:00:00,21.121801,79.04952,OZONE,3,84,27
India,Maharashtra,Nagpur,"Mahal, Nagpur - MPCB",29-03-2026 08:00:00,21.14472,79.107595,PM2.5,16,92,62
India,Maharashtra,Mumbai,"Bandra Kurla Complex, Mumbai - MPCB",29-03-2026 08:00:00,19.065931,72.862131,OZONE,1,25,2
India,Maharashtra,Mumbai,"Borivali East, Mumbai - MPCB",29-03-2026 08:00:00,19.2243333,72.8658113,PM10,12,49,28
India,Maharashtra,Mumbai,"Borivali East, Mumbai - MPCB",29-03-2026 08:00:00,19.2243333,72.8658113,NO2,NA,NA,NA
India,Maharashtra,Mumbai,"Byculla, Mumbai - BMC",29-03-2026 08:00:00,18.9767,72.8380,PM2.5,6,34,18
India,Maharashtra,Mumbai,"Chembur, Mumbai - MPCB",29-03-2026 08:00:00,19.0364585,72.8954371,PM2.5,9,38,23
India,Maharashtra,Mira-Bhayandar,"Bhayandar West, Mira-Bhayandar - MPCB",29-03-2026 08:00:00,19.296481,72.840923,PM2.5,NA,NA,NA
India,Maharashtra,Mira-Bhayandar,"Bhayandar West, Mira-Bhayandar - MPCB",29-03-2026 08:00:00,19.296481,72.840923,CO,40,40,40
India,Maharashtra,Navi Mumbai,"Sector-2E Kalamboli, Navi Mumbai - MPCB",29-03-2026 08:00:00,19.02579,73.10297,CO,15,22,18
India,Maharashtra,Parbhani,"Masoom Colony, Parbhani - MPCB",29-03-2026 08:00:00,19.265594,76.761463,CO,10,16,12
India,Maharashtra,Pimpri-Chinchwad,"Gavalinagar, Pimpri Chinchwad - MPCB",29-03-2026 08:00:00,18.63673,73.82487,PM2.5,13,82,49
India,Maharashtra,Pimpri-Chinchwad,"Gavalinagar, Pimpri Chinchwad - MPCB",29-03-2026 08:00:00,18.63673,73.82487,NO2,1,45,17
India,Maharashtra,Pimpri-Chinchwad,"Park Street Wakad, Pimpri Chinchwad - MPCB",29-03-2026 08:00:00,18.59051,73.77946,PM10,66,110,90
India,Maharashtra,Pimpri-Chinchwad,"Savta Mali Nagar, Pimpri-Chinchwad - IITM",29-03-2026 08:00:00,18.614767,73.799516,PM2.5,18,122,53
India,Maharashtra,Pimpri-Chinchwad,"Savta Mali Nagar, Pimpri-Chinchwad - IITM",29-03-2026 08:00:00,18.614767,73.799516,OZONE,5,30,7
India,Maharashtra,Pimpri-Chinchwad,"Thergaon, Pimpri Chinchwad - MPCB",29-03-2026 08:00:00,18.616318,73.765797,PM10,66,106,90
India,Odisha,Baripada,"Meher Colony, Baripada - OSPCB",29-03-2026 08:00:00,21.941841,86.728318,NH3,NA,NA,NA
India,Odisha,Bhubaneswar,"Lingraj Mandir, Bhubaneswar - OSPCB",29-03-2026 08:00:00,20.240790,85.836784,PM2.5,NA,NA,NA
India,Odisha,Bhubaneswar,"Patia, Bhubaneswar - OSPCB",29-03-2026 08:00:00,20.34652,85.81630,NO2,4,18,9
India,Odisha,Bileipada,"Tata Township, Bileipada - OSPCB",29-03-2026 08:00:00,22.06156703,85.47409613,PM10,51,500,139
India,Odisha,Bileipada,"Tata Township, Bileipada - OSPCB",29-03-2026 08:00:00,22.06156703,85.47409613,NH3,6,6,6
India,Odisha,Brajrajnagar,"GM Office, Brajrajnagar - OSPCB",29-03-2026 08:00:00,21.8004996,83.8396977,PM2.5,36,201,76
India,Odisha,Byasanagar,"Ferro Chrome Colony, Byasanagar - OSPCB",29-03-2026 08:00:00,20.94185,86.11510,PM10,NA,NA,NA
India,Odisha,Byasanagar,"Ferro Chrome Colony, Byasanagar - OSPCB",29-03-2026 08:00:00,20.94185,86.11510,SO2,NA,NA,NA
India,Maharashtra,Nashik,"MIDC Ambad, Nashik - MPCB",29-03-2026 08:00:00,19.950220,73.731480,NH3,2,3,2
India,Maharashtra,Nashik,"Pandav Nagari, Nashik - MPCB",29-03-2026 08:00:00,19.9591346,73.7788008,SO2,1,10,5
India,Maharashtra,Nashik,"Pandav Nagari, Nashik - MPCB",29-03-2026 08:00:00,19.9591346,73.7788008,CO,16,46,18
India,Maharashtra,Navi Mumbai,"Kopripada-Vashi, Navi Mumbai - MPCB",29-03-2026 08:00:00,19.090337,73.014232,SO2,1,4,2
India,Maharashtra,Navi Mumbai,"Kopripada-Vashi, Navi Mumbai - MPCB",29-03-2026 08:00:00,19.090337,73.014232,OZONE,3,33,6
India,Maharashtra,Navi Mumbai,"Nerul, Navi Mumbai - MPCB",29-03-2026 08:00:00,19.008751,73.016620,PM2.5,NA,NA,NA
India,Maharashtra,Navi Mumbai,"Nerul, Navi Mumbai - MPCB",29-03-2026 08:00:00,19.008751,73.016620,NH3,NA,NA,NA
India,Maharashtra,Navi Mumbai,"Sanpada, Navi Mumbai - MPCB",29-03-2026 08:00:00,19.0575752,73.0151367,PM2.5,9,51,26
India,Maharashtra,Navi Mumbai,"Sanpada, Navi Mumbai - MPCB",29-03-2026 08:00:00,19.0575752,73.0151367,NH3,2,12,4
India,Meghalaya,Shillong,"Lumpyngngad, Shillong - Meghalaya PCB",29-03-2026 08:00:00,25.5586,91.8985,SO2,9,11,10
India,Mizoram,Aizawl,"Sikulpuikawn, Aizawl - Mizoram PCB",29-03-2026 08:00:00,23.7176342,92.7192841,PM2.5,17,65,49
India,Mizoram,Aizawl,"Sikulpuikawn, Aizawl - Mizoram PCB",29-03-2026 08:00:00,23.7176342,92.7192841,PM10,23,77,59
India,Mizoram,Aizawl,"Sikulpuikawn, Aizawl - Mizoram PCB",29-03-2026 08:00:00,23.7176342,92.7192841,NO2,1,1,1
India,Nagaland,Kohima,"PWD Junction, Kohima - NPCB",29-03-2026 08:00:00,25.6635413,94.0989878,NO2,NA,NA,NA
India,Odisha,Angul,"Hakimapada, Angul - OSPCB",29-03-2026 08:00:00,20.832874,85.104082,NH3,3,7,5
India,Odisha,Balasore,"Kalidaspur, Balasore - OSPCB",29-03-2026 08:00:00,21.51161,86.89088,OZONE,20,108,23
India,Maharashtra,Ulhasnagar,"Sidhi Vinayak Nagar, Ulhasnagar - MPCB",29-03-2026 08:00:00,19.235581,73.159121,PM2.5,28,77,42
India,Maharashtra,Ulhasnagar,"Sidhi Vinayak Nagar, Ulhasnagar - MPCB",29-03-2026 08:00:00,19.235581,73.159121,PM10,38,102,57
India,Maharashtra,Ulhasnagar,"Sidhi Vinayak Nagar, Ulhasnagar - MPCB",29-03-2026 08:00:00,19.235581,73.159121,NO2,10,23,16
India,Maharashtra,Ulhasnagar,"Vithalwadi, Ulhasnagar - MPCB",29-03-2026 08:00:00,19.2307571 ,73.1551920,PM10,31,114,59
India,Maharashtra,Ulhasnagar,"Vithalwadi, Ulhasnagar - MPCB",29-03-2026 08:00:00,19.2307571 ,73.1551920,NO2,16,40,23
India,Maharashtra,Virar,"Bolinj, Virar - MPCB",29-03-2026 08:00:00,19.4458210,72.7988231,OZONE,8,77,20
India,Meghalaya,Shillong,"JN Stadium, Shillong - Meghalaya PCB",29-03-2026 08:00:00,25.5803419,91.8942571,PM2.5,3,47,18
India,Meghalaya,Shillong,"JN Stadium, Shillong - Meghalaya PCB",29-03-2026 08:00:00,25.5803419,91.8942571,NH3,1,11,4
India,Maharashtra,Pune,"Revenue Colony-Shivajinagar, Pune - IITM",29-03-2026 08:00:00,18.530085,73.849598,CO,18,64,38
India,Maharashtra,Pune,"Savitribai Phule Pune University, Pune - MPCB",29-03-2026 08:00:00,18.547056,73.826908,OZONE,1,60,2
India,Maharashtra,Pune,"Transport Nagar-Nigdi, Pune - IITM",29-03-2026 08:00:00,18.664282,73.763966,PM10,40,86,57
India,Maharashtra,Solapur,"Dnyaneshwar Nagar, Solapur - MPCB",29-03-2026 08:00:00,17.6336264,75.9132495,NO2,8,39,19
India,Maharashtra,Solapur,"Ratandeep Housing Society, Solapur - MPCB",29-03-2026 08:00:00,17.65439,75.90649,PM10,22,117,95
India,Maharashtra,Nagpur,"Opp GPO Civil Lines, Nagpur - MPCB",29-03-2026 08:00:00,21.152875,79.0517531,PM2.5,24,97,62
India,Maharashtra,Nanded,"Sneh Nagar, Nanded - MPCB",29-03-2026 08:00:00,19.173852,77.296291,PM10,51,107,84
India,Maharashtra,Nanded,"Sneh Nagar, Nanded - MPCB",29-03-2026 08:00:00,19.173852,77.296291,CO,18,28,24
India,Maharashtra,Nashik,"Gangapur Road, Nashik - MPCB",29-03-2026 08:00:00,20.0073285,73.7762427,PM10,42,183,98
India,Maharashtra,Nashik,"Hirawadi, Nashik - MPCB",29-03-2026 08:00:00,20.021503,73.813844,CO,2,20,6
India,Maharashtra,Nashik,"MIDC Ambad, Nashik - MPCB",29-03-2026 08:00:00,19.950220,73.731480,PM10,73,133,94
India,Odisha,Keonjhar,"Jagamohanpur, Keonjhar - OSPCB",29-03-2026 08:00:00,21.643900,85.599355,NH3,5,5,5
India,Odisha,Keonjhar,"Jagamohanpur, Keonjhar - OSPCB",29-03-2026 08:00:00,21.643900,85.599355,OZONE,12,47,14
India,Odisha,Nayagarh,"Dabuna, Nayagarh - OSPCB",29-03-2026 08:00:00,21.847279,85.416905,OZONE,11,18,12
India,Odisha,Rairangpur,"Divisional Forest Office, Rairangpur - OSPCB",29-03-2026 08:00:00,22.265816,86.174829,OZONE,5,36,7
India,Odisha,Rourkela,"Fertilizer Township, Rourkela - OSPCB",29-03-2026 08:00:00,22.18972222,84.86277778,SO2,11,12,12
India,Maharashtra,Pune,"Bhosari, Pune - IITM",29-03-2026 08:00:00,18.640051,73.848956,CO,2,70,57
India,Maharashtra,Pune,"Bhumkar Nagar, Pune - IITM",29-03-2026 08:00:00,18.605770,73.749976,PM2.5,29,318,84
India,Maharashtra,Pune,"Dhankawadi, Pune - IITM",29-03-2026 08:00:00,18.459883,73.852193,CO,2,104,90
India,Maharashtra,Pune,"Dhankawadi, Pune - IITM",29-03-2026 08:00:00,18.459883,73.852193,OZONE,1,43,3
India,Odisha,Rourkela,"Sector-2, Rourkela - OSPCB",29-03-2026 08:00:00,22.24500000,84.88111111,PM10,41,114,73
India,Odisha,Suakati,"OMC Colony, Suakati - OSPCB",29-03-2026 08:00:00,21.606865,85.510538,PM2.5,34,500,109
India,Odisha,Suakati,"OMC Colony, Suakati - OSPCB",29-03-2026 08:00:00,21.606865,85.510538,NO2,15,15,15
India,Odisha,Suakati,"OMC Colony, Suakati - OSPCB",29-03-2026 08:00:00,21.606865,85.510538,CO,9,24,18
India,Odisha,Suakati,"OMC Colony, Suakati - OSPCB",29-03-2026 08:00:00,21.606865,85.510538,OZONE,15,112,36
India,Odisha,Talcher,"Talcher Coalfields,Talcher - OSPCB",29-03-2026 08:00:00,20.9360711,85.1707021,SO2,19,54,31
India,Odisha,Tensa,"Barsua Iron Ore Mines, Tensa - OSPCB",29-03-2026 08:00:00,21.869985,85.167016,OZONE,5,11,7
India,Puducherry,Puducherry,"Jawahar Nagar, Puducherry - PPCC",29-03-2026 08:00:00,11.9309,79.8027,NH3,1,5,3
India,Puducherry,Puducherry,"Jawahar Nagar, Puducherry - PPCC",29-03-2026 08:00:00,11.9309,79.8027,CO,6,29,16
India,Punjab,Amritsar,"Golden Temple, Amritsar - PPCB",29-03-2026 08:00:00,31.620000,74.876512,CO,24,70,48
India,Rajasthan,Baran,"Bamboliya, Baran - RSPCB",29-03-2026 08:00:00,25.106006,76.469948,PM2.5,13,77,46
India,Rajasthan,Baran,"Bamboliya, Baran - RSPCB",29-03-2026 08:00:00,25.106006,76.469948,OZONE,14,153,37
India,Rajasthan,Bharatpur,"Krishna Nagar, Bharatpur - RSPCB",29-03-2026 08:00:00,27.215415,77.50873,CO,14,48,37
India,Rajasthan,Bharatpur,"Krishna Nagar, Bharatpur - RSPCB",29-03-2026 08:00:00,27.215415,77.50873,OZONE,23,136,36
India,Rajasthan,Bhilwara,"Pratap Nagar, Bhilwara - RSPCB",29-03-2026 08:00:00,25.339605,74.618883,PM2.5,10,77,27
India,Rajasthan,Bhilwara,"Pratap Nagar, Bhilwara - RSPCB",29-03-2026 08:00:00,25.339605,74.618883,NO2,9,31,17
India,Rajasthan,Bhiwadi,"RIICO Ind. Area III, Bhiwadi - RSPCB",29-03-2026 08:00:00,28.194909,76.862296,PM10,22,196,135
India,Rajasthan,Bhiwadi,"Vasundhara Nagar_UIT, Bhiwadi - RSPCB",29-03-2026 08:00:00,28.207266,76.829265,NO2,13,121,52
India,Rajasthan,Jodhpur,"Samrat Ashok Udhyan, Jodhpur - RSPCB",29-03-2026 08:00:00,26.253384,72.976571,SO2,2,7,4
India,Rajasthan,Jodhpur,"Samrat Ashok Udhyan, Jodhpur - RSPCB",29-03-2026 08:00:00,26.253384,72.976571,OZONE,36,76,54
India,Rajasthan,Karauli,"Satyawati Vihar, Karauli - RSPCB",29-03-2026 08:00:00,26.506177,77.025989,SO2,1,8,5
India,Rajasthan,Karauli,"Satyawati Vihar, Karauli - RSPCB",29-03-2026 08:00:00,26.506177,77.025989,OZONE,6,94,44
India,Rajasthan,Kota,"Dhanmandi, Kota - RSPCB",29-03-2026 08:00:00,25.164090,75.858137,SO2,7,44,19
India,Rajasthan,Kota,"Shrinath Puram, Kota - RSPCB",29-03-2026 08:00:00,25.14389,75.821256,SO2,3,35,11
India,Rajasthan,Nagaur,"Karni Colony, Nagaur - RSPCB",29-03-2026 08:00:00,27.213494,73.734444,PM10,52,188,95
India,Rajasthan,Nagaur,"Karni Colony, Nagaur - RSPCB",29-03-2026 08:00:00,27.213494,73.734444,NH3,5,10,8
India,Rajasthan,Bhiwadi,"Vasundhara Nagar_UIT, Bhiwadi - RSPCB",29-03-2026 08:00:00,28.207266,76.829265,OZONE,8,93,30
India,Rajasthan,Bikaner,"MM Ground, Bikaner - RSPCB",29-03-2026 08:00:00,28.018792,73.292658,OZONE,22,100,58
India,Rajasthan,Bundi,"New Colony, Bundi - RSPCB",29-03-2026 08:00:00,25.435774,75.644272,NO2,11,77,31
India,Rajasthan,Chittorgarh,"Shastri Nagar, Chittorgarh - RSPCB",29-03-2026 08:00:00,24.892047,74.623527,OZONE,NA,NA,NA
India,Rajasthan,Churu,"Subash Chowk, Churu - RSPCB",29-03-2026 08:00:00,28.296139,74.961696,NH3,6,9,7
India,Rajasthan,Dausa,"Khatikan Mohalla, Dausa - RSPCB",29-03-2026 08:00:00,26.895552,76.334753,PM2.5,7,72,29
India,Rajasthan,Dausa,"Khatikan Mohalla, Dausa - RSPCB",29-03-2026 08:00:00,26.895552,76.334753,OZONE,NA,NA,NA
India,Punjab,Khanna,"Kalal Majra, Khanna - PPCB",29-03-2026 08:00:00,30.736056 ,76.209694,OZONE,19,41,20
India,Punjab,Ludhiana,"Punjab Agricultural University, Ludhiana - PPCB",29-03-2026 08:00:00,30.9028,75.8086,PM10,95,109,101
India,Punjab,Patiala,"Model Town, Patiala - PPCB",29-03-2026 08:00:00,30.349388,76.366642,CO,3,72,15
India,Punjab,Rupnagar,"Ratanpura, Rupnagar - Ambuja Cements",29-03-2026 08:00:00,31.0325454,76.5623046,CO,42,50,48
India,Rajasthan,Jaipur,"RIICO Sitapura, Jaipur - RSPCB",29-03-2026 08:00:00,26.786682,75.827928,NO2,90,195,146
India,Rajasthan,Jaipur,"RIICO Sitapura, Jaipur - RSPCB",29-03-2026 08:00:00,26.786682,75.827928,OZONE,6,90,22
India,Rajasthan,Jaipur,"Sector-2 Murlipura, Jaipur - RSPCB",29-03-2026 08:00:00,26.960669,75.771817,NH3,4,7,5
India,Rajasthan,Jalore,"Mudtra Sili, Jalore - RSPCB",29-03-2026 08:00:00,25.344694,72.626208,PM10,22,157,70
India,Rajasthan,Jalore,"Mudtra Sili, Jalore - RSPCB",29-03-2026 08:00:00,25.344694,72.626208,NO2,1,12,5
India,Rajasthan,Alwar,"Moti Doongri, Alwar - RSPCB",29-03-2026 08:00:00,27.554793,76.611536,PM2.5,53,85,64
India,Rajasthan,Alwar,"Moti Doongri, Alwar - RSPCB",29-03-2026 08:00:00,27.554793,76.611536,OZONE,8,87,9
India,Rajasthan,Banswara,"Rati Talai, Banswara - RSPCB",29-03-2026 08:00:00,23.555190,74.440010,PM2.5,20,58,37
India,Rajasthan,Banswara,"Rati Talai, Banswara - RSPCB",29-03-2026 08:00:00,23.555190,74.440010,OZONE,24,86,38
India,Rajasthan,Jhunjhunu,"Indra Nagar, Jhunjhunu - RSPCB",29-03-2026 08:00:00,28.108988,75.386577,PM10,39,188,87
India,Rajasthan,Jhunjhunu,"Indra Nagar, Jhunjhunu - RSPCB",29-03-2026 08:00:00,28.108988,75.386577,NH3,6,13,9
India,Rajasthan,Jodhpur,"Mandor, Jodhpur - RSPCB",29-03-2026 08:00:00,26.358805,73.047444,SO2,2,11,4
India,Rajasthan,Jaipur,"Adarsh Nagar, Jaipur - RSPCB",29-03-2026 08:00:00,26.902909,75.836858,CO,12,86,29
India,TamilNadu,Gummidipoondi,"Anthoni Pillai Nagar, Gummidipoondi - TNPCB",29-03-2026 08:00:00,13.4127,80.1081,NO2,15,27,21
India,TamilNadu,Gummidipoondi,"Anthoni Pillai Nagar, Gummidipoondi - TNPCB",29-03-2026 08:00:00,13.4127,80.1081,NH3,1,1,1
India,TamilNadu,Thoothukudi,"Meelavittan, Thoothukudi - TNPCB",29-03-2026 08:00:00,8.816428 ,78.099039,SO2,2,20,13
India,TamilNadu,Thoothukudi,"Meelavittan, Thoothukudi - TNPCB",29-03-2026 08:00:00,8.816428 ,78.099039,CO,4,36,33
India,TamilNadu,Thoothukudi,"Meelavittan, Thoothukudi - TNPCB",29-03-2026 08:00:00,8.816428 ,78.099039,OZONE,25,38,32
India,Telangana,Hyderabad,"Central University, Hyderabad - TSPCB",29-03-2026 08:00:00,17.460103,78.334361,CO,6,66,43
India,Telangana,Hyderabad,"Central University, Hyderabad - TSPCB",29-03-2026 08:00:00,17.460103,78.334361,OZONE,5,23,16
India,Telangana,Hyderabad,"ECIL Kapra, Hyderabad - TSPCB",29-03-2026 08:00:00,17.470431,78.566959,NO2,11,55,28
India,Telangana,Hyderabad,"ECIL Kapra, Hyderabad - TSPCB",29-03-2026 08:00:00,17.470431,78.566959,SO2,8,18,10
India,Telangana,Hyderabad,"ECIL Kapra, Hyderabad - TSPCB",29-03-2026 08:00:00,17.470431,78.566959,CO,22,42,28
India,TamilNadu,Chennai,"Kodungaiyur, Chennai - TNPCB",29-03-2026 08:00:00,13.1278,80.2642,CO,27,38,31
India,TamilNadu,Chennai,"Manali Village, Chennai - TNPCB",29-03-2026 08:00:00,13.1662,80.2584,PM10,9,84,40
India,TamilNadu,Chennai,"Manali Village, Chennai - TNPCB",29-03-2026 08:00:00,13.1662,80.2584,NO2,4,10,6
India,TamilNadu,Chennai,"Manali Village, Chennai - TNPCB",29-03-2026 08:00:00,13.1662,80.2584,NH3,1,5,2
India,TamilNadu,Chennai,"Manali Village, Chennai - TNPCB",29-03-2026 08:00:00,13.1662,80.2584,SO2,14,17,16
India,TamilNadu,Chennai,"Manali Village, Chennai - TNPCB",29-03-2026 08:00:00,13.1662,80.2584,OZONE,31,75,71
India,TamilNadu,Chennai,"Manali, Chennai - CPCB",29-03-2026 08:00:00,13.164544,80.26285,PM2.5,23,56,35
India,TamilNadu,Chennai,"Manali, Chennai - CPCB",29-03-2026 08:00:00,13.164544,80.26285,NO2,10,14,12
India,TamilNadu,Chennai,"Royapuram, Chennai - TNPCB",29-03-2026 08:00:00,13.1036,80.2909,PM10,27,72,48
India,TamilNadu,Chennai,"Velachery Res. Area, Chennai - CPCB",29-03-2026 08:00:00,13.0052189,80.2398125,PM2.5,64,161,103
India,Rajasthan,Sirohi,"Vedhaynath Colony, Sirohi - RSPCB",29-03-2026 08:00:00,24.885261,72.857549,CO,8,23,16
India,Rajasthan,Tonk,"Shastri Nagar, Tonk - RSPCB",29-03-2026 08:00:00,26.159933,75.780517,PM2.5,NA,NA,NA
India,Rajasthan,Tonk,"Shastri Nagar, Tonk - RSPCB",29-03-2026 08:00:00,26.159933,75.780517,NO2,2,163,33
India,Sikkim,Gangtok,"Zero Point GICI, Gangtok - SSPCB",29-03-2026 08:00:00,27.338530,88.614099,PM2.5,NA,NA,NA
India,Sikkim,Gangtok,"Zero Point GICI, Gangtok - SSPCB",29-03-2026 08:00:00,27.338530,88.614099,PM10,NA,NA,NA
India,Sikkim,Gangtok,"Zero Point GICI, Gangtok - SSPCB",29-03-2026 08:00:00,27.338530,88.614099,NO2,6,7,6
India,Sikkim,Gangtok,"Zero Point GICI, Gangtok - SSPCB",29-03-2026 08:00:00,27.338530,88.614099,SO2,1,1,1
India,TamilNadu,Chennai,"Arumbakkam, Chennai - TNPCB",29-03-2026 08:00:00,13.0664,80.2112 ,PM10,46,121,73
India,TamilNadu,Chennai,"Arumbakkam, Chennai - TNPCB",29-03-2026 08:00:00,13.0664,80.2112 ,SO2,2,6,3
India,Telangana,Hyderabad,"ICRISAT Patancheru, Hyderabad - TSPCB",29-03-2026 08:00:00,17.518400,78.278777,NO2,6,17,10
India,Telangana,Hyderabad,"IDA Pashamylaram, Hyderabad - TSPCB",29-03-2026 08:00:00,17.5316895,78.218939,PM2.5,25,130,72
India,Telangana,Hyderabad,"IDA Pashamylaram, Hyderabad - TSPCB",29-03-2026 08:00:00,17.5316895,78.218939,NO2,5,7,6
India,Telangana,Hyderabad,"IDA Pashamylaram, Hyderabad - TSPCB",29-03-2026 08:00:00,17.5316895,78.218939,OZONE,13,19,18
India,Telangana,Hyderabad,"IITH Kandi, Hyderabad - TSPCB",29-03-2026 08:00:00,17.585705,78.126199,CO,23,39,24
India,Telangana,Hyderabad,"Kokapet, Hyderabad - TSPCB",29-03-2026 08:00:00,17.393559,78.339194,OZONE,19,38,20
India,Telangana,Hyderabad,"Kompally Municipal Office, Hyderabad - TSPCB",29-03-2026 08:00:00,17.544899,78.486949,NH3,3,4,3
India,Telangana,Hyderabad,"Kompally Municipal Office, Hyderabad - TSPCB",29-03-2026 08:00:00,17.544899,78.486949,SO2,1,10,6
India,Rajasthan,Nagaur,"Karni Colony, Nagaur - RSPCB",29-03-2026 08:00:00,27.213494,73.734444,OZONE,28,77,33
India,Rajasthan,Pali,"Indira Colony Vistar, Pali - RSPCB",29-03-2026 08:00:00,25.771061, 73.340227,PM10,94,144,114
India,Rajasthan,Pali,"Indira Colony Vistar, Pali - RSPCB",29-03-2026 08:00:00,25.771061, 73.340227,NO2,20,22,21
India,Rajasthan,Pali,"Indira Colony Vistar, Pali - RSPCB",29-03-2026 08:00:00,25.771061, 73.340227,NH3,4,7,5
India,Rajasthan,Sawai Madhopur,"Sahu Nagar, Sawai Madhopur - RSPCB",29-03-2026 08:00:00,26.031443,76.359327,OZONE,4,135,34
India,Rajasthan,Sikar,"Radhakishan Pura, Sikar - RSPCB",29-03-2026 08:00:00,27.608912,75.153302,PM2.5,2,103,24
India,Rajasthan,Sikar,"Radhakishan Pura, Sikar - RSPCB",29-03-2026 08:00:00,27.608912,75.153302,PM10,51,193,91
India,Rajasthan,Sikar,"Radhakishan Pura, Sikar - RSPCB",29-03-2026 08:00:00,27.608912,75.153302,NO2,10,84,24
India,Telangana,Hyderabad,"New Malakpet, Hyderabad - TSPCB",29-03-2026 08:00:00,17.37206,78.50864,PM10,76,86,81
India,Telangana,Hyderabad,"New Malakpet, Hyderabad - TSPCB",29-03-2026 08:00:00,17.37206,78.50864,NH3,3,4,4
India,Telangana,Hyderabad,"Ramachandrapuram, Hyderabad - TSPCB",29-03-2026 08:00:00,17.528544,78.286195,PM10,73,88,80
India,Telangana,Hyderabad,"Ramachandrapuram, Hyderabad - TSPCB",29-03-2026 08:00:00,17.528544,78.286195,NO2,12,18,15
India,Telangana,Hyderabad,"Sanathnagar, Hyderabad - TSPCB",29-03-2026 08:00:00,17.4559458,78.4332152,OZONE,14,35,16
India,Telangana,Hyderabad,"Somajiguda, Hyderabad - TSPCB",29-03-2026 08:00:00,17.417094,78.457437,PM10,73,132,98
India,Telangana,Hyderabad,"Somajiguda, Hyderabad - TSPCB",29-03-2026 08:00:00,17.417094,78.457437,OZONE,24,33,26
India,Uttar_Pradesh,Baghpat,"Sardar Patel Inter College, Baghpat - UPPCB",29-03-2026 08:00:00,28.964949,77.278761,PM2.5,25,317,160
India,Uttar_Pradesh,Baghpat,"Sardar Patel Inter College, Baghpat - UPPCB",29-03-2026 08:00:00,28.964949,77.278761,NH3,1,4,3
India,Uttar_Pradesh,Bareilly,"Rajendra Nagar, Bareilly - UPPCB",29-03-2026 08:00:00,28.38910936,79.42963708,SO2,35,43,40
India,Uttar_Pradesh,Bulandshahr,"Yamunapuram, Bulandshahr - UPPCB",29-03-2026 08:00:00,28.406963,77.849831,PM10,78,332,156
India,Uttar_Pradesh,Firozabad,"Nagla Bhau, Firozabad - UPPCB",29-03-2026 08:00:00,27.168897,78.376960,PM10,36,129,68
India,Tripura,Agartala,"Bardowali, Agartala - Tripura SPCB",29-03-2026 08:00:00,23.8175497,91.2726974,OZONE,2,12,2
India,Uttar_Pradesh,Agra,"Manoharpur, Agra - UPPCB",29-03-2026 08:00:00,27.23711,78.01936,CO,19,20,20
India,Uttar_Pradesh,Agra,"Rohta, Agra - UPPCB",29-03-2026 08:00:00,27.106972,78.000111,CO,15,28,23
India,Uttar_Pradesh,Agra,"Sanjay Palace, Agra - UPPCB",29-03-2026 08:00:00,27.19865833,78.00598056,SO2,17,18,18
India,Uttar_Pradesh,Agra,"Shahjahan Garden, Agra - UPPCB",29-03-2026 08:00:00,27.169338,78.03582,PM2.5,1,77,33
India,Uttar_Pradesh,Firozabad,"Vibhab Nagar, Firozabad - UPPCB",29-03-2026 08:00:00,27.1594,78.3953,PM2.5,33,134,66
India,Uttar_Pradesh,Meerut,"Jai Bhim Nagar, Meerut - UPPCB",29-03-2026 08:00:00,28.9535882,77.7622941,NH3,6,20,12
India,Uttar_Pradesh,Meerut,"Jai Bhim Nagar, Meerut - UPPCB",29-03-2026 08:00:00,28.9535882,77.7622941,SO2,6,10,7
India,Uttar_Pradesh,Meerut,"Jai Bhim Nagar, Meerut - UPPCB",29-03-2026 08:00:00,28.9535882,77.7622941,CO,24,89,48
India,Uttar_Pradesh,Moradabad,"Buddhi Vihar, Moradabad - UPPCB",29-03-2026 08:00:00,28.83526,78.74460,CO,30,49,46
India,Uttar_Pradesh,Moradabad,"Eco Herbal Park, Moradabad - UPPCB",29-03-2026 08:00:00,28.840739,78.697531,PM2.5,29,175,91
India,Uttar_Pradesh,Moradabad,"Eco Herbal Park, Moradabad - UPPCB",29-03-2026 08:00:00,28.840739,78.697531,SO2,13,39,22
India,Uttar_Pradesh,Moradabad,"Eco Herbal Park, Moradabad - UPPCB",29-03-2026 08:00:00,28.840739,78.697531,CO,21,72,63
India,Uttar_Pradesh,Moradabad,"Eco Herbal Park, Moradabad - UPPCB",29-03-2026 08:00:00,28.840739,78.697531,OZONE,5,72,8
India,Uttar_Pradesh,Moradabad,"Employment Office, Moradabad - UPPCB",29-03-2026 08:00:00,28.88528,78.73880,NO2,15,16,16
India,Uttar_Pradesh,Moradabad,"Employment Office, Moradabad - UPPCB",29-03-2026 08:00:00,28.88528,78.73880,NH3,4,4,4
India,Uttar_Pradesh,Moradabad,"Employment Office, Moradabad - UPPCB",29-03-2026 08:00:00,28.88528,78.73880,SO2,26,27,26
India,Uttar_Pradesh,Moradabad,"Jigar Colony, Moradabad - UPPCB",29-03-2026 08:00:00,28.856664,78.772638,PM2.5,29,88,58
India,Uttar_Pradesh,Moradabad,"Kashiram Nagar, Moradabad - UPPCB",29-03-2026 08:00:00,28.849399,78.742362,NH3,4,4,4
India,Uttar_Pradesh,Moradabad,"Kashiram Nagar, Moradabad - UPPCB",29-03-2026 08:00:00,28.849399,78.742362,OZONE,7,34,10
India,Uttar_Pradesh,Muzaffarnagar,"New Mandi, Muzaffarnagar - UPPCB",29-03-2026 08:00:00,29.4723508,77.7194031,NH3,NA,NA,NA
India,Uttar_Pradesh,Muzaffarnagar,"New Mandi, Muzaffarnagar - UPPCB",29-03-2026 08:00:00,29.4723508,77.7194031,SO2,10,70,34
India,Uttar_Pradesh,Noida,"Sector - 125, Noida - UPPCB",29-03-2026 08:00:00,28.5447608,77.3231257,PM2.5,41,375,201
India,Uttar_Pradesh,Noida,"Sector - 125, Noida - UPPCB",29-03-2026 08:00:00,28.5447608,77.3231257,NO2,14,125,61
India,Uttar_Pradesh,Noida,"Sector - 125, Noida - UPPCB",29-03-2026 08:00:00,28.5447608,77.3231257,NH3,2,14,11
India,Uttar_Pradesh,Noida,"Sector - 62, Noida - IMD",29-03-2026 08:00:00,28.6245479,77.3577104,CO,8,33,31
India,Uttar_Pradesh,Noida,"Sector - 62, Noida - IMD",29-03-2026 08:00:00,28.6245479,77.3577104,OZONE,11,98,15
India,Uttar_Pradesh,Noida,"Sector-1, Noida - UPPCB",29-03-2026 08:00:00,28.5898,77.3101,NH3,9,11,10
India,Uttar_Pradesh,Ghaziabad,"Vasundhara, Ghaziabad - UPPCB",29-03-2026 08:00:00,28.6603346,77.3572563,NH3,8,15,12
India,Uttar_Pradesh,Gorakhpur,"Madan Mohan Malaviya University of Technology, Gorakhpur - UPPCB",29-03-2026 08:00:00,26.730136,83.433859,PM10,40,131,85
India,Uttar_Pradesh,Greater Noida,"Knowledge Park - III, Greater Noida - UPPCB",29-03-2026 08:00:00,28.47272,77.482000,SO2,13,24,18
India,Uttar_Pradesh,Greater Noida,"Knowledge Park - V, Greater Noida - UPPCB",29-03-2026 08:00:00,28.557054,77.453663,CO,16,166,34
India,Uttar_Pradesh,Hapur,"Anand Vihar, Hapur - UPPCB",29-03-2026 08:00:00,28.725645,77.749675,SO2,29,92,51
India,Uttar_Pradesh,Hapur,"Anand Vihar, Hapur - UPPCB",29-03-2026 08:00:00,28.725645,77.749675,CO,12,79,66
India,Uttar_Pradesh,Jhansi,"Shivaji Nagar, Jhansi - UPPCB",29-03-2026 08:00:00,25.4547,78.6039,PM10,24,113,67
India,Uttar_Pradesh,Prayagraj,"Motilal Nehru NIT, Prayagraj - UPPCB",29-03-2026 08:00:00,25.494,81.863,CO,9,40,34
India,Uttar_Pradesh,Prayagraj,"Nagar Nigam, Prayagraj - UPPCB",29-03-2026 08:00:00,25.44919916 ,81.82735986 ,PM10,25,102,58
India,Uttar_Pradesh,Prayagraj,"Nagar Nigam, Prayagraj - UPPCB",29-03-2026 08:00:00,25.44919916 ,81.82735986 ,NO2,5,5,5
India,Uttar_Pradesh,Prayagraj,"Nagar Nigam, Prayagraj - UPPCB",29-03-2026 08:00:00,25.44919916 ,81.82735986 ,NH3,9,19,12
India,Uttar_Pradesh,Prayagraj,"Nagar Nigam, Prayagraj - UPPCB",29-03-2026 08:00:00,25.44919916 ,81.82735986 ,CO,18,104,65
India,Uttar_Pradesh,Varanasi,"Ardhali Bazar, Varanasi - UPPCB",29-03-2026 08:00:00,25.3505986,82.9083074,PM2.5,26,87,55
India,Uttar_Pradesh,Varanasi,"Bhelupur, Varanasi - UPPCB",29-03-2026 08:00:00,25.301778,82.996789,PM10,44,166,93
India,Uttar_Pradesh,Jhansi,"Shivaji Nagar, Jhansi - UPPCB",29-03-2026 08:00:00,25.4547,78.6039,SO2,10,16,12
India,Uttar_Pradesh,Kanpur,"FTI Kidwai Nagar, Kanpur - UPPCB",29-03-2026 08:00:00,26.428282,80.327067,NH3,8,8,8
India,Uttar_Pradesh,Kanpur,"FTI Kidwai Nagar, Kanpur - UPPCB",29-03-2026 08:00:00,26.428282,80.327067,CO,32,43,37
India,Uttar_Pradesh,Kanpur,"NSI Kalyanpur, Kanpur - UPPCB",29-03-2026 08:00:00,26.509954,80.249612,SO2,7,21,11
India,Uttar_Pradesh,Lucknow,"B R Ambedkar University, Lucknow - UPPCB",29-03-2026 08:00:00,26.766433,80.927299,CO,24,36,33
India,Uttar_Pradesh,Lucknow,"Gomti Nagar, Lucknow - UPPCB",29-03-2026 08:00:00,26.868120,81.005119,PM2.5,48,189,99
India,Uttar_Pradesh,Lucknow,"Gomti Nagar, Lucknow - UPPCB",29-03-2026 08:00:00,26.868120,81.005119,CO,35,42,36
India,Uttar_Pradesh,Lucknow,"Kendriya Vidyalaya, Lucknow - CPCB",29-03-2026 08:00:00,26.906111,80.948222,NO2,22,27,25
India,Uttar_Pradesh,Lucknow,"Lalbagh, Lucknow - CPCB",29-03-2026 08:00:00,26.8458805,80.9365541,SO2,2,21,9
India,Uttar_Pradesh,Meerut,"Ganga Nagar, Meerut - UPPCB",29-03-2026 08:00:00,28.999264,77.7590354,PM2.5,NA,NA,NA
India,Uttar_Pradesh,Meerut,"Ganga Nagar, Meerut - UPPCB",29-03-2026 08:00:00,28.999264,77.7590354,SO2,NA,NA,NA
India,Uttar_Pradesh,Meerut,"Jai Bhim Nagar, Meerut - UPPCB",29-03-2026 08:00:00,28.9535882,77.7622941,PM10,79,323,143
India,Uttar_Pradesh,Noida,"Sector-116, Noida - UPPCB",29-03-2026 08:00:00,28.569230,77.393848,NO2,62,194,113
India,Uttar_Pradesh,Noida,"Sector-116, Noida - UPPCB",29-03-2026 08:00:00,28.569230,77.393848,NH3,11,30,17
India,Uttar_Pradesh,Prayagraj,"Jhunsi, Prayagraj - UPPCB",29-03-2026 08:00:00,25.425602,81.917152,NO2,6,6,6
India,Uttar_Pradesh,Prayagraj,"Jhunsi, Prayagraj - UPPCB",29-03-2026 08:00:00,25.425602,81.917152,NH3,5,5,5
India,Uttar_Pradesh,Prayagraj,"Jhunsi, Prayagraj - UPPCB",29-03-2026 08:00:00,25.425602,81.917152,CO,10,51,44
India,Uttar_Pradesh,Ghaziabad,"Indirapuram, Ghaziabad - UPPCB",29-03-2026 08:00:00,28.646233,77.358075,NH3,13,18,15
India,Uttar_Pradesh,Ghaziabad,"Loni, Ghaziabad - UPPCB",29-03-2026 08:00:00,28.757294,77.278792,PM2.5,42,380,232
India,Uttar_Pradesh,Ghaziabad,"Sanjay Nagar, Ghaziabad - UPPCB",29-03-2026 08:00:00,28.685382,77.453839,SO2,10,82,26
India,Uttar_Pradesh,Ghaziabad,"Sanjay Nagar, Ghaziabad - UPPCB",29-03-2026 08:00:00,28.685382,77.453839,CO,10,109,36
India,Uttar_Pradesh,Varanasi,"Maldahiya, Varanasi - UPPCB",29-03-2026 08:00:00,25.32393,82.99687,PM2.5,12,86,35
India,Uttar_Pradesh,Varanasi,"Maldahiya, Varanasi - UPPCB",29-03-2026 08:00:00,25.32393,82.99687,PM10,35,194,86
India,Uttarakhand,Dehradun,"Doon University, Dehradun - UKPCB",29-03-2026 08:00:00,30.269444,78.044167,OZONE,18,61,22
India,Uttarakhand,Rishikesh,"Shivaji Nagar, Rishikesh - UKPCB",29-03-2026 08:00:00,30.075911,78.2859547,SO2,1,1,1
India,West_Bengal,Asansol,"Asansol Court Area, Asansol - WBPCB",29-03-2026 08:00:00,23.685297,86.945968,PM2.5,43,91,65
India,West_Bengal,Asansol,"Asansol Court Area, Asansol - WBPCB",29-03-2026 08:00:00,23.685297,86.945968,OZONE,13,45,17
India,West_Bengal,Asansol,"Mahabir Colliery, Asansol - WBPCB",29-03-2026 08:00:00,23.6181830,87.1057180,PM2.5,7,75,40
India,West_Bengal,Asansol,"Mahabir Colliery, Asansol - WBPCB",29-03-2026 08:00:00,23.6181830,87.1057180,SO2,5,8,6
India,West_Bengal,Asansol,"Trivenidevi Bhalotia College, Asansol - WBPCB",29-03-2026 08:00:00,23.616515,87.119133,PM2.5,23,69,46
India,West_Bengal,Durgapur,"Mahishkapur Road_B-Zone, Durgapur - WBPCB",29-03-2026 08:00:00,23.567923,87.306843,SO2,5,89,19
India,West_Bengal,Durgapur,"PCBL Residential Complex, Durgapur - WBPCB",29-03-2026 08:00:00,23.5087640,87.3544400,PM2.5,32,84,46
India,West_Bengal,Durgapur,"PCBL Residential Complex, Durgapur - WBPCB",29-03-2026 08:00:00,23.5087640,87.3544400,NO2,22,52,32
India,West_Bengal,Durgapur,"PCBL Residential Complex, Durgapur - WBPCB",29-03-2026 08:00:00,23.5087640,87.3544400,NH3,5,8,7
India,West_Bengal,Durgapur,"PCBL Residential Complex, Durgapur - WBPCB",29-03-2026 08:00:00,23.5087640,87.3544400,SO2,5,6,5
India,West_Bengal,Durgapur,"PCBL Residential Complex, Durgapur - WBPCB",29-03-2026 08:00:00,23.5087640,87.3544400,OZONE,3,48,6
India,West_Bengal,Durgapur,"Womens College_City Center, Durgapur - WBPCB",29-03-2026 08:00:00,23.549395,87.300496,PM2.5,32,63,45
India,West_Bengal,Durgapur,"Womens College_City Center, Durgapur - WBPCB",29-03-2026 08:00:00,23.549395,87.300496,CO,24,62,30
India,West_Bengal,Durgapur,"Womens College_City Center, Durgapur - WBPCB",29-03-2026 08:00:00,23.549395,87.300496,OZONE,3,51,5
India,West_Bengal,Haldia,"Priyambada Housing Estate, Haldia - WBPCB",29-03-2026 08:00:00,22.06047,88.109737,PM2.5,25,51,37
India,West_Bengal,Haldia,"Priyambada Housing Estate, Haldia - WBPCB",29-03-2026 08:00:00,22.06047,88.109737,PM10,27,64,49
India,West_Bengal,Haldia,"Priyambada Housing Estate, Haldia - WBPCB",29-03-2026 08:00:00,22.06047,88.109737,SO2,10,19,13
India,West_Bengal,Howrah,"Belur Math, Howrah - WBPCB",29-03-2026 08:00:00,22.629801,88.352017,PM2.5,25,104,58
India,West_Bengal,Howrah,"Botanical Garden, Howrah - WBPCB",29-03-2026 08:00:00,22.554954,88.292568,PM10,31,74,45
India,West_Bengal,Howrah,"Botanical Garden, Howrah - WBPCB",29-03-2026 08:00:00,22.554954,88.292568,NH3,1,1,1
India,West_Bengal,Howrah,"Ghusuri, Howrah - WBPCB",29-03-2026 08:00:00,22.611968,88.347422,NH3,13,33,16
India,West_Bengal,Howrah,"Padmapukur, Howrah - WBPCB",29-03-2026 08:00:00,22.5687319,88.2797276,PM2.5,23,50,33
India,West_Bengal,Howrah,"Padmapukur, Howrah - WBPCB",29-03-2026 08:00:00,22.5687319,88.2797276,NH3,NA,NA,NA
India,West_Bengal,Kolkata,"Bidhannagar, Kolkata - WBPCB",29-03-2026 08:00:00,22.58157048,88.41002457,PM2.5,9,31,21
India,West_Bengal,Kolkata,"Bidhannagar, Kolkata - WBPCB",29-03-2026 08:00:00,22.58157048,88.41002457,PM10,46,71,58
India,West_Bengal,Kolkata,"Bidhannagar, Kolkata - WBPCB",29-03-2026 08:00:00,22.58157048,88.41002457,CO,12,30,18
India,West_Bengal,Kolkata,"Fort William, Kolkata - WBPCB",29-03-2026 08:00:00,22.556640,88.342674,PM2.5,25,34,29
India,West_Bengal,Kolkata,"Jadavpur, Kolkata - WBPCB",29-03-2026 08:00:00,22.49929,88.36917,SO2,3,5,4
India,West_Bengal,Kolkata,"Rabindra Bharati University, Kolkata - WBPCB",29-03-2026 08:00:00,22.627847,88.380669,PM2.5,23,43,31
India,West_Bengal,Kolkata,"Rabindra Bharati University, Kolkata - WBPCB",29-03-2026 08:00:00,22.627847,88.380669,PM10,25,50,38
India,West_Bengal,Kolkata,"Rabindra Bharati University, Kolkata - WBPCB",29-03-2026 08:00:00,22.627847,88.380669,CO,18,55,22
India,West_Bengal,Kolkata,"Victoria, Kolkata - WBPCB",29-03-2026 08:00:00,22.5448082,88.3403691,OZONE,25,80,34
India,West_Bengal,Siliguri,"Ward-32 Bapupara, Siliguri - WBPCB",29-03-2026 08:00:00,26.6879226,88.4152495,PM10,27,53,38
India,Assam,Byrnihat,"Central Academy for SFS, Byrnihat - PCBA",29-03-2026 08:00:00,26.071318,91.87488,SO2,31,32,32
India,Assam,Guwahati,"IITG, Guwahati - PCBA",29-03-2026 08:00:00,26.2028636,91.70046436,PM10,10,55,28
India,Assam,Guwahati,"IITG, Guwahati - PCBA",29-03-2026 08:00:00,26.2028636,91.70046436,SO2,31,32,32
India,Assam,Guwahati,"IITG, Guwahati - PCBA",29-03-2026 08:00:00,26.2028636,91.70046436,OZONE,3,25,5
India,Assam,Guwahati,"LGBI Airport, Guwahati - PCBA",29-03-2026 08:00:00,26.10887,91.589544,PM10,15,47,40
India,Assam,Guwahati,"Pan Bazaar, Guwahati - PCBA",29-03-2026 08:00:00,26.187500,91.744194,PM2.5,1,1,1
India,Assam,Guwahati,"Railway Colony, Guwahati - PCBA",29-03-2026 08:00:00,26.181742,91.78063,PM10,11,60,36
India,Assam,Nagaon,"Christianpatty, Nagaon - PCBA",29-03-2026 08:00:00,26.349082,92.68449,PM2.5,9,50,26
India,Assam,Nagaon,"Christianpatty, Nagaon - PCBA",29-03-2026 08:00:00,26.349082,92.68449,SO2,9,14,11
India,Assam,Nalbari,"Bata Chowk, Nalbari - PCBA",29-03-2026 08:00:00,26.446912,91.439057,OZONE,13,16,14
India,Assam,Silchar,"Tarapur, Silchar - PCBA",29-03-2026 08:00:00,24.82827,92.79525,PM2.5,19,68,35
India,Assam,Silchar,"Tarapur, Silchar - PCBA",29-03-2026 08:00:00,24.82827,92.79525,NH3,1,1,1
India,Assam,Sivasagar,"Girls College, Sivasagar - PCBA",29-03-2026 08:00:00,26.987634,94.636574,NH3,3,7,5
India,Bihar,Araria,"Kharahiya Basti, Araria - BSPCB",29-03-2026 08:00:00,26.146529,87.454184,OZONE,9,10,10
India,Bihar,Bhagalpur,"Mayaganj, Bhagalpur - BSPCB",29-03-2026 08:00:00,25.265194,87.012947,NH3,5,7,5
India,Bihar,Bhagalpur,"Mayaganj, Bhagalpur - BSPCB",29-03-2026 08:00:00,25.265194,87.012947,OZONE,5,15,8
India,Bihar,Bihar Sharif,"D M Colony, Bihar Sharif - BSPCB",29-03-2026 08:00:00,25.204762,85.514960,PM2.5,15,63,36
India,Bihar,Bihar Sharif,"D M Colony, Bihar Sharif - BSPCB",29-03-2026 08:00:00,25.204762,85.514960,CO,49,81,53
India,Bihar,Buxar,"Charitra Van, Buxar - BSPCB",29-03-2026 08:00:00,25.567520,83.966379,NH3,3,3,3
India,Bihar,Buxar,"Charitra Van, Buxar - BSPCB",29-03-2026 08:00:00,25.567520,83.966379,OZONE,1,16,3
India,Bihar,Gaya,"Collectorate, Gaya - BSPCB",29-03-2026 08:00:00,24.7955,84.9994,PM2.5,24,268,93
India,Bihar,Arrah,"New DM Office, Arrah - BSPCB",29-03-2026 08:00:00,25.5626095,84.663264,PM2.5,18,62,37
India,Bihar,Arrah,"New DM Office, Arrah - BSPCB",29-03-2026 08:00:00,25.5626095,84.663264,PM10,16,55,33
India,Bihar,Aurangabad,"Gurdeo Nagar, Aurangabad - BSPCB",29-03-2026 08:00:00,24.75746,84.366208,SO2,5,18,12
India,Bihar,Begusarai,"Lohiyanagar, Begusarai - BSPCB",29-03-2026 08:00:00,25.42742023,86.13886079,NO2,10,38,28
India,Bihar,Begusarai,"Lohiyanagar, Begusarai - BSPCB",29-03-2026 08:00:00,25.42742023,86.13886079,NH3,3,4,4
India,Bihar,Bhagalpur,"DM Office_Kachari Chowk, Bhagalpur - BSPCB",29-03-2026 08:00:00,25.251013,86.989001,NO2,6,10,8
India,Andhra_Pradesh,Anantapur,"Gulzarpet, Anantapur - APPCB",29-03-2026 08:00:00,14.675886,77.593027,SO2,7,16,11
India,Andhra_Pradesh,Chittoor,"Gangineni Cheruvu, Chittoor - APPCB",29-03-2026 08:00:00,13.204880,79.097889,NH3,5,5,5
India,Andhra_Pradesh,Chittoor,"Gangineni Cheruvu, Chittoor - APPCB",29-03-2026 08:00:00,13.204880,79.097889,OZONE,39,48,46
India,Andhra_Pradesh,Guntur,"Rajendra Nagar North, Guntur - APPCB",29-03-2026 08:00:00,16.316553,80.413302,PM2.5,39,58,48
India,Andhra_Pradesh,Machilipatnam,"Srinivas Nagar Colony, Machilipatnam - APPCB",29-03-2026 08:00:00,16.186555,81.13219,PM2.5,47,48,48
India,Andhra_Pradesh,Rajamahendravaram,"Anand Kala Kshetram, Rajamahendravaram - APPCB",29-03-2026 08:00:00,16.9872867,81.7363176,PM10,18,62,44
India,Andhra_Pradesh,Tirumala,"Toll Gate, Tirumala - APPCB",29-03-2026 08:00:00,13.67,79.35,PM10,52,117,88
India,Andhra_Pradesh,Tirumala,"Toll Gate, Tirumala - APPCB",29-03-2026 08:00:00,13.67,79.35,CO,18,36,22
India,Andhra_Pradesh,Vijayawada,"HB Colony, Vijayawada - APPCB",29-03-2026 08:00:00,16.536107,80.594233,NO2,18,18,18
India,Andhra_Pradesh,Vijayawada,"Kanuru, Vijayawada - APPCB",29-03-2026 08:00:00,16.486692,80.699436,NO2,23,27,24
India,Andhra_Pradesh,Vijayawada,"Kanuru, Vijayawada - APPCB",29-03-2026 08:00:00,16.486692,80.699436,CO,27,30,28
India,Andhra_Pradesh,Vijayawada,"Rajiv Gandhi Park, Vijayawada - APPCB",29-03-2026 08:00:00,16.509717,80.612222,OZONE,42,72,45
India,Andhra_Pradesh,Visakhapatnam,"GVM Corporation, Visakhapatnam - APPCB",29-03-2026 08:00:00,17.72,83.3,PM10,66,236,126
India,Andhra_Pradesh,Visakhapatnam,"GVM Corporation, Visakhapatnam - APPCB",29-03-2026 08:00:00,17.72,83.3,OZONE,4,29,7
India,Andhra_Pradesh,Machilipatnam,"Srinivas Nagar Colony, Machilipatnam - APPCB",29-03-2026 08:00:00,16.186555,81.13219,NO2,NA,NA,NA
India,Andhra_Pradesh,Machilipatnam,"Srinivas Nagar Colony, Machilipatnam - APPCB",29-03-2026 08:00:00,16.186555,81.13219,SO2,12,17,13
India,Andhra_Pradesh,Machilipatnam,"Srinivas Nagar Colony, Machilipatnam - APPCB",29-03-2026 08:00:00,16.186555,81.13219,CO,5,44,8
India,Andhra_Pradesh,Nellore,"Ambedkar Nagar, Nellore - APPCB ",29-03-2026 08:00:00,14.438164 ,79.966814 ,NO2,15,21,17
India,Andhra_Pradesh,Nellore,"Ambedkar Nagar, Nellore - APPCB ",29-03-2026 08:00:00,14.438164 ,79.966814 ,CO,10,32,16
India,Andhra_Pradesh,Anantapur,"Gulzarpet, Anantapur - APPCB",29-03-2026 08:00:00,14.675886,77.593027,PM2.5,53,87,71
India,Andhra_Pradesh,Anantapur,"Gulzarpet, Anantapur - APPCB",29-03-2026 08:00:00,14.675886,77.593027,PM10,54,86,71
India,Bihar,Siwan,"Chitragupta Nagar, Siwan - BSPCB",29-03-2026 08:00:00,26.2271665,84.3570427,SO2,8,9,8
India,Bihar,Siwan,"Chitragupta Nagar, Siwan - BSPCB",29-03-2026 08:00:00,26.2271665,84.3570427,CO,63,113,66
India,Chandigarh,Chandigarh,"Sector-25, Chandigarh - CPCC",29-03-2026 08:00:00,30.751462,76.762879,PM2.5,27,79,52
India,Chandigarh,Chandigarh,"Sector-25, Chandigarh - CPCC",29-03-2026 08:00:00,30.751462,76.762879,NO2,2,38,14
India,Chandigarh,Chandigarh,"Sector-25, Chandigarh - CPCC",29-03-2026 08:00:00,30.751462,76.762879,NH3,5,12,10
India,Chandigarh,Chandigarh,"Sector-53, Chandigarh - CPCC",29-03-2026 08:00:00,30.719859,76.738637,CO,18,110,28
India,Chhattisgarh,Bhilai,"32Bungalows, Bhilai - CECB",29-03-2026 08:00:00,21.194815,81.314770,PM2.5,21,38,30
India,Chhattisgarh,Bhilai,"Civic Center, Bhilai - Bhilai Steel Plant",29-03-2026 08:00:00,21.185571,81.343175,NO2,13,14,13
India,Chhattisgarh,Bhilai,"Civic Center, Bhilai - Bhilai Steel Plant",29-03-2026 08:00:00,21.185571,81.343175,NH3,3,3,3
India,Chhattisgarh,Bhilai,"Hathkhoj, Bhilai - CECB",29-03-2026 08:00:00,21.224231,81.408350,PM2.5,12,46,29
India,Bihar,Motihari,"Gandak Colony, Motihari - BSPCB",29-03-2026 08:00:00,26.63086,84.90051,NO2,3,5,4
India,Bihar,Munger,"Town Hall, Munger - BSPCB",29-03-2026 08:00:00,25.376776,86.471523,PM10,2,22,12
India,Bihar,Munger,"Town Hall, Munger - BSPCB",29-03-2026 08:00:00,25.376776,86.471523,CO,24,32,28
India,Bihar,Muzaffarpur,"Buddha Colony, Muzaffarpur - BSPCB",29-03-2026 08:00:00,26.11442,85.39813,PM2.5,44,74,60
India,Bihar,Muzaffarpur,"Buddha Colony, Muzaffarpur - BSPCB",29-03-2026 08:00:00,26.11442,85.39813,NH3,13,23,18
India,Bihar,Muzaffarpur,"MIT-Daudpur Kothi, Muzaffarpur - BSPCB",29-03-2026 08:00:00,26.1403345,85.3650192,CO,36,52,36
India,Bihar,Muzaffarpur,"Muzaffarpur Collectorate, Muzaffarpur - BSPCB",29-03-2026 08:00:00,26.1209,85.3647,OZONE,7,15,8
India,Bihar,Patna,"DRM Office Danapur, Patna - BSPCB",29-03-2026 08:00:00,25.586562,85.043586,PM2.5,28,83,51
India,Bihar,Patna,"DRM Office Danapur, Patna - BSPCB",29-03-2026 08:00:00,25.586562,85.043586,PM10,35,89,68
India,Chhattisgarh,Bhilai,"Hathkhoj, Bhilai - CECB",29-03-2026 08:00:00,21.224231,81.408350,PM10,29,104,47
India,Chhattisgarh,Bhilai,"Hathkhoj, Bhilai - CECB",29-03-2026 08:00:00,21.224231,81.408350,NH3,4,7,5
India,Chhattisgarh,Bilaspur,"Mangala, Bilaspur - NTPC",29-03-2026 08:00:00,22.08815,82.13737,CO,20,107,34
India,Chhattisgarh,Chhal,"Nawapara SECL Colony, Chhal - CECB",29-03-2026 08:00:00,22.118125,83.140608,NO2,8,20,13
India,Chhattisgarh,Korba,"Rampur, Korba - CECB",29-03-2026 08:00:00,22.368195,82.746431,NO2,13,32,22
India,Chhattisgarh,Korba,"Rampur, Korba - CECB",29-03-2026 08:00:00,22.368195,82.746431,NH3,1,1,1
India,Chhattisgarh,Korba,"Rampur, Korba - CECB",29-03-2026 08:00:00,22.368195,82.746431,SO2,18,95,50
India,Chhattisgarh,Korba,"Urja Nagar, Korba - CECB",29-03-2026 08:00:00,22.348441,82.549611,NO2,22,29,25
India,Chhattisgarh,Kunjemura,"OP Jindal School, Kunjemura - CECB",29-03-2026 08:00:00,22.126650,83.483212,PM2.5,33,84,58
India,Chhattisgarh,Milupara,"Govt. Higher Secondary School, Milupara - CECB",29-03-2026 08:00:00,22.1910172,83.5197009,SO2,NA,NA,NA
India,Chhattisgarh,Raipur,"AIIMS, Raipur - CECB",29-03-2026 08:00:00,21.258815,81.578979,NO2,13,39,32
India,Chhattisgarh,Raipur,"Bhatagaon New ISBT, Raipur - CECB",29-03-2026 08:00:00,21.219665,81.630094,SO2,1,45,8
India,Chhattisgarh,Raipur,"Bhatagaon New ISBT, Raipur - CECB",29-03-2026 08:00:00,21.219665,81.630094,OZONE,1,5,1
India,Chhattisgarh,Raipur,"Krishak Nagar, Raipur - CECB",29-03-2026 08:00:00,21.237755,81.705301,OZONE,1,43,1
India,Chhattisgarh,Raipur,"Siltara Phase-II, Raipur - CECB",29-03-2026 08:00:00,21.371751,81.664929,PM2.5,21,55,36
India,Chhattisgarh,Raipur,"Siltara Phase-II, Raipur - CECB",29-03-2026 08:00:00,21.371751,81.664929,OZONE,3,21,4
India,Chhattisgarh,Tumidih,"OP Jindal Industrial Park, Tumidih - CECB",29-03-2026 08:00:00,22.06631475,83.33820077,PM10,31,181,77
India,Bihar,Patna,"DRM Office Danapur, Patna - BSPCB",29-03-2026 08:00:00,25.586562,85.043586,NO2,46,54,50
India,Bihar,Patna,"Govt. High School Shikarpur, Patna - BSPCB",29-03-2026 08:00:00,25.592539,85.227158,NO2,13,18,15
India,Bihar,Patna,"IGSC Planetarium Complex, Patna - BSPCB",29-03-2026 08:00:00,25.610369,85.132568,NO2,NA,NA,NA
India,Bihar,Patna,"Muradpur, Patna - BSPCB",29-03-2026 08:00:00,25.619651,85.147382,NH3,4,7,6
India,Bihar,Patna,"Muradpur, Patna - BSPCB",29-03-2026 08:00:00,25.619651,85.147382,CO,31,82,71
India,Bihar,Patna,"Samanpura, Patna - BSPCB",29-03-2026 08:00:00,25.596727,85.085624,PM2.5,83,201,124
India,Bihar,Patna,"Samanpura, Patna - BSPCB",29-03-2026 08:00:00,25.596727,85.085624,PM10,81,134,108
India,Bihar,Purnia,"Mariam Nagar, Purnia - BSPCB",29-03-2026 08:00:00,25.366336,87.117468,OZONE,15,30,20
India,Bihar,Rajgir,"Dangi Tola, Rajgir - BSPCB",29-03-2026 08:00:00,25.03280,85.41948,PM10,23,87,47
India,Bihar,Rajgir,"Dangi Tola, Rajgir - BSPCB",29-03-2026 08:00:00,25.03280,85.41948,SO2,2,3,3
India,Bihar,Saharsa,"Police Line, Saharsa - BSPCB",29-03-2026 08:00:00,25.892357,86.590325,NH3,4,4,4
India,Bihar,Sasaram,"Dada Peer, Sasaram - BSPCB",29-03-2026 08:00:00,24.952822,84.002396,PM2.5,6,36,19
India,Bihar,Sasaram,"Dada Peer, Sasaram - BSPCB",29-03-2026 08:00:00,24.952822,84.002396,PM10,18,72,46
India,Bihar,Sasaram,"Dada Peer, Sasaram - BSPCB",29-03-2026 08:00:00,24.952822,84.002396,OZONE,11,22,17
India,Delhi,Delhi,"Alipur, Delhi - DPCC",29-03-2026 08:00:00,28.815329,77.153010,SO2,7,29,12
India,Delhi,Delhi,"Alipur, Delhi - DPCC",29-03-2026 08:00:00,28.815329,77.153010,CO,14,64,59
India,Delhi,Delhi,"Ashok Vihar, Delhi - DPCC",29-03-2026 08:00:00,28.695381,77.181665,CO,15,112,53
India,Delhi,Delhi,"Bawana, Delhi - DPCC",29-03-2026 08:00:00,28.776200,77.051074,PM10,92,404,220
India,Delhi,Delhi,"Bawana, Delhi - DPCC",29-03-2026 08:00:00,28.776200,77.051074,CO,4,105,97
India,Delhi,Delhi,"Burari Crossing, Delhi - IMD",29-03-2026 08:00:00,28.7256504,77.2011573,PM10,60,313,152
India,Bihar,Hajipur,"Industrial Area, Hajipur - BSPCB",29-03-2026 08:00:00,25.697189,85.245900,SO2,9,17,13
India,Bihar,Hajipur,"Industrial Area, Hajipur - BSPCB",29-03-2026 08:00:00,25.697189,85.245900,OZONE,9,80,19
India,Bihar,Kishanganj,"SDM Office_Khagra, Kishanganj - BSPCB",29-03-2026 08:00:00,26.0881305,87.93840336,NH3,3,3,3
India,Bihar,Kishanganj,"SDM Office_Khagra, Kishanganj - BSPCB",29-03-2026 08:00:00,26.0881305,87.93840336,OZONE,31,35,33
India,Bihar,Manguraha,"Forest Rest House, Manguraha - BSPCB",29-03-2026 08:00:00,27.308328,84.531742,NO2,4,38,19
India,Delhi,Delhi,"Cantonment Area, Delhi - DPCC ",29-03-2026 08:00:00,28.594169 ,77.125100 ,PM10,56,236,134
India,Delhi,Delhi,"Chandni Chowk, Delhi - IITM",29-03-2026 08:00:00,28.656756,77.227234,PM2.5,55,228,138
India,Delhi,Delhi,"Chandni Chowk, Delhi - IITM",29-03-2026 08:00:00,28.656756,77.227234,NO2,25,168,88
India,Delhi,Delhi,"DTU, Delhi - CPCB",29-03-2026 08:00:00,28.7500499,77.1112615,PM10,40,222,121
India,Delhi,Delhi,"DTU, Delhi - CPCB",29-03-2026 08:00:00,28.7500499,77.1112615,NO2,24,72,46
India,Delhi,Delhi,"DTU, Delhi - CPCB",29-03-2026 08:00:00,28.7500499,77.1112615,OZONE,15,28,17
India,Delhi,Delhi,"Sonia Vihar, Delhi - DPCC",29-03-2026 08:00:00,28.710508,77.249485,NH3,6,9,7
India,Delhi,Delhi,"Sri Aurobindo Marg, Delhi - DPCC",29-03-2026 08:00:00,28.531346,77.190156,PM10,57,189,116
India,Delhi,Delhi,"Talkatora Garden, Delhi - DPCC",29-03-2026 08:00:00,28.621810,77.1944633,PM10,57,227,133
India,Delhi,Delhi,"Talkatora Garden, Delhi - DPCC",29-03-2026 08:00:00,28.621810,77.1944633,NH3,1,8,4
India,Delhi,Delhi,"Vivek Vihar, Delhi - DPCC",29-03-2026 08:00:00,28.672342,77.315260,NO2,17,84,48
India,Delhi,Delhi,"Vivek Vihar, Delhi - DPCC",29-03-2026 08:00:00,28.672342,77.315260,OZONE,7,135,11
India,Delhi,Delhi,"Wazirpur, Delhi - DPCC",29-03-2026 08:00:00,28.699793,77.165453,PM2.5,37,333,196
India,Gujarat,Ahmedabad,"Chandkheda, Ahmedabad - IITM",29-03-2026 08:00:00,23.107969,72.574648,NO2,6,23,12
India,Gujarat,Ahmedabad,"SVPI Airport Hansol, Ahmedabad - IITM",29-03-2026 08:00:00,23.076793,72.627874,SO2,5,113,31
India,Gujarat,Ankleshwar,"GIDC, Ankleshwar - GPCB",29-03-2026 08:00:00,21.613267,73.010555,PM2.5,38,119,70
India,Gujarat,Ankleshwar,"GIDC, Ankleshwar - GPCB",29-03-2026 08:00:00,21.613267,73.010555,OZONE,8,35,9
India,Gujarat,Bhavnagar,"Vidhyanagar, Bhavnagar - Nexteng Enviro",29-03-2026 08:00:00,21.755417,72.139056,PM2.5,12,119,49
India,Gujarat,Bhavnagar,"Vidhyanagar, Bhavnagar - Nexteng Enviro",29-03-2026 08:00:00,21.755417,72.139056,NH3,1,2,2
India,Gujarat,Gandhinagar,"GIFT City, Gandhinagar - IITM",29-03-2026 08:00:00,23.163798,72.677768,PM10,80,135,109
India,Gujarat,Gandhinagar,"GIFT City, Gandhinagar - IITM",29-03-2026 08:00:00,23.163798,72.677768,NO2,15,46,20
India,Gujarat,Gandhinagar,"GIFT City, Gandhinagar - IITM",29-03-2026 08:00:00,23.163798,72.677768,SO2,8,21,13
India,Delhi,Delhi,"Mandir Marg, Delhi - DPCC",29-03-2026 08:00:00,28.636429,77.201067,OZONE,2,132,5
India,Delhi,Delhi,"Mundka, Delhi - DPCC",29-03-2026 08:00:00,28.684678,77.076574,NO2,56,134,97
India,Delhi,Delhi,"Mundka, Delhi - DPCC",29-03-2026 08:00:00,28.684678,77.076574,SO2,14,97,32
India,Delhi,Delhi,"Mundka, Delhi - DPCC",29-03-2026 08:00:00,28.684678,77.076574,OZONE,2,81,6
India,Delhi,Delhi,"NSIT Dwarka, Delhi - CPCB",29-03-2026 08:00:00,28.60909,77.0325413,PM2.5,49,63,52
India,Delhi,Delhi,"NSIT Dwarka, Delhi - CPCB",29-03-2026 08:00:00,28.60909,77.0325413,NH3,16,39,29
India,Delhi,Delhi,"Najafgarh, Delhi - DPCC",29-03-2026 08:00:00,28.570173,76.933762,NO2,24,123,76
India,Delhi,Delhi,"IGI Airport (T3), Delhi - IMD",29-03-2026 08:00:00,28.5627763,77.1180053,NO2,18,44,30
India,Delhi,Delhi,"IGI Airport (T3), Delhi - IMD",29-03-2026 08:00:00,28.5627763,77.1180053,OZONE,20,72,33
India,Delhi,Delhi,"IGNOU_Maidan Garhi, Delhi - DPCC",29-03-2026 08:00:00,28.493624 ,77.201159 ,SO2,56,63,59
India,Delhi,Delhi,"IHBAS, Dilshad Garden, Delhi - CPCB",29-03-2026 08:00:00,28.6811736,77.3025234,SO2,3,57,22
India,Delhi,Delhi,"IIT Delhi, Delhi - IITM",29-03-2026 08:00:00,28.542460,77.191651,NO2,1,32,8
India,Delhi,Delhi,"IIT Delhi, Delhi - IITM",29-03-2026 08:00:00,28.542460,77.191651,CO,6,105,77
India,Gujarat,Ahmedabad,"Raikhad, Ahmedabad - IITM",29-03-2026 08:00:00,23.020509,72.579261,PM2.5,15,93,45
India,Gujarat,Ahmedabad,"Raikhad, Ahmedabad - IITM",29-03-2026 08:00:00,23.020509,72.579261,OZONE,3,30,8
India,Gujarat,Ahmedabad,"Rakhial, Ahmedabad - IITM",29-03-2026 08:00:00,23.016834,72.625775,PM10,55,105,79
India,Gujarat,Ahmedabad,"Rakhial, Ahmedabad - IITM",29-03-2026 08:00:00,23.016834,72.625775,OZONE,1,29,2
India,Gujarat,Ahmedabad,"SAC ISRO Bopal, Ahmedabad - IITM",29-03-2026 08:00:00,23.041137,72.456691,CO,22,40,29
India,Gujarat,Ahmedabad,"SAC ISRO Satellite, Ahmedabad - IITM",29-03-2026 08:00:00,23.023389,72.515201,PM10,43,88,67
India,Delhi,Delhi,"Pusa, Delhi - DPCC",29-03-2026 08:00:00,28.639652,77.146275,NH3,2,11,7
India,Delhi,Delhi,"Pusa, Delhi - DPCC",29-03-2026 08:00:00,28.639652,77.146275,SO2,12,50,24
India,Delhi,Delhi,"R K Puram, Delhi - DPCC",29-03-2026 08:00:00,28.563262,77.186937,PM2.5,27,332,179
India,Delhi,Delhi,"Rohini, Delhi - DPCC",29-03-2026 08:00:00,28.732528,77.119920,PM10,55,408,196
India,Delhi,Delhi,"Sirifort, Delhi - CPCB",29-03-2026 08:00:00,28.5504249,77.2159377,PM10,75,288,170
India,Delhi,Delhi,"Sirifort, Delhi - CPCB",29-03-2026 08:00:00,28.5504249,77.2159377,OZONE,9,30,12
India,Delhi,Delhi,"Jawaharlal Nehru Stadium, Delhi - DPCC",29-03-2026 08:00:00,28.580280,77.233829,SO2,9,47,20
India,Delhi,Delhi,"Lodhi Road, Delhi - IMD",29-03-2026 08:00:00,28.5918245,77.2273074,OZONE,20,104,25
India,Delhi,Delhi,"Major Dhyan Chand National Stadium, Delhi - DPCC",29-03-2026 08:00:00,28.611281,77.237738,PM2.5,13,346,136
India,Delhi,Delhi,"New Moti Bagh, Delhi - MHUA",29-03-2026 08:00:00,28.57834,77.18400,CO,NA,NA,NA
India,Delhi,Delhi,"Okhla Phase-2, Delhi - DPCC",29-03-2026 08:00:00,28.530785,77.271255,PM2.5,37,328,167
India,Delhi,Delhi,"Okhla Phase-2, Delhi - DPCC",29-03-2026 08:00:00,28.530785,77.271255,NH3,8,10,9
India,Delhi,Delhi,"Okhla Phase-2, Delhi - DPCC",29-03-2026 08:00:00,28.530785,77.271255,SO2,16,34,23
India,Delhi,Delhi,"Okhla Phase-2, Delhi - DPCC",29-03-2026 08:00:00,28.530785,77.271255,OZONE,5,199,13
India,Delhi,Delhi,"Patparganj, Delhi - DPCC",29-03-2026 08:00:00,28.623763,77.287209,NO2,18,122,71
India,Delhi,Delhi,"Punjabi Bagh, Delhi - DPCC",29-03-2026 08:00:00,28.674045,77.131023,CO,33,99,50
India,Jammu_and_Kashmir,Srinagar,"Khunmoh, Srinagar - JKPCC",29-03-2026 08:00:00,34.06313,74.96017,PM10,12,52,34
India,Jammu_and_Kashmir,Srinagar,"Rajbagh, Srinagar - JKPCC",29-03-2026 08:00:00,34.066206,74.819820,OZONE,1,2,1
India,Jharkhand,Dhanbad,"Sardar Patel Nagar, Dhanbad - JSPCB",29-03-2026 08:00:00,23.80569,86.44268,CO,NA,NA,NA
India,Karnataka,Bagalkot,"Vidayagiri, Bagalkot - KSPCB",29-03-2026 08:00:00,16.172806,75.659694,SO2,3,7,7
India,Karnataka,Bagalkot,"Vidayagiri, Bagalkot - KSPCB",29-03-2026 08:00:00,16.172806,75.659694,CO,2,62,34
India,Karnataka,Bengaluru,"BTM Layout, Bengaluru - CPCB",29-03-2026 08:00:00,12.9135218,77.5950804,NH3,4,7,5
India,Karnataka,Bengaluru,"BTM Layout, Bengaluru - CPCB",29-03-2026 08:00:00,12.9135218,77.5950804,SO2,22,22,22
India,Karnataka,Bengaluru,"Bapuji Nagar, Bengaluru - KSPCB",29-03-2026 08:00:00,12.951913,77.539784,NO2,26,31,28
India,Karnataka,Bengaluru,"Bapuji Nagar, Bengaluru - KSPCB",29-03-2026 08:00:00,12.951913,77.539784,NH3,2,3,3
India,Karnataka,Bengaluru,"City Railway Station, Bengaluru - KSPCB",29-03-2026 08:00:00,12.9756843,77.5660749,CO,NA,NA,NA
India,Karnataka,Bengaluru,"Hebbal, Bengaluru - KSPCB",29-03-2026 08:00:00,13.029152,77.585901,PM2.5,NA,NA,NA
India,Karnataka,Bengaluru,"Hebbal, Bengaluru - KSPCB",29-03-2026 08:00:00,13.029152,77.585901,PM10,29,137,90
India,Karnataka,Bengaluru,"Hebbal, Bengaluru - KSPCB",29-03-2026 08:00:00,13.029152,77.585901,NH3,3,4,4
India,Karnataka,Bengaluru,"Hombegowda Nagar, Bengaluru - KSPCB",29-03-2026 08:00:00,12.938539,77.590100,PM2.5,63,182,104
India,Karnataka,Bengaluru,"Hombegowda Nagar, Bengaluru - KSPCB",29-03-2026 08:00:00,12.938539,77.590100,NH3,4,6,4
India,Karnataka,Bengaluru,"Jayanagar 5th Block, Bengaluru - KSPCB",29-03-2026 08:00:00,12.920984,77.584908,NO2,13,23,16
India,Karnataka,Bengaluru,"Jigani, Bengaluru - KSPCB",29-03-2026 08:00:00,12.7816279,77.6299145,CO,27,29,28
India,Karnataka,Bengaluru,"Jigani, Bengaluru - KSPCB",29-03-2026 08:00:00,12.7816279,77.6299145,OZONE,24,26,25
India,Haryana,Palwal,"Shyam Nagar, Palwal - HSPCB",29-03-2026 08:00:00,28.1485564,77.3320667,PM2.5,69,88,78
India,Haryana,Palwal,"Shyam Nagar, Palwal - HSPCB",29-03-2026 08:00:00,28.1485564,77.3320667,OZONE,8,9,8
India,Haryana,Panchgaon,"Amity University, Panchgaon - IITM",29-03-2026 08:00:00,28.3153,76.9143,PM2.5,32,302,87
India,Haryana,Panchgaon,"Amity University, Panchgaon - IITM",29-03-2026 08:00:00,28.3153,76.9143,NO2,6,22,11
India,Haryana,Panipat,"Sector-18, Panipat - HSPCB",29-03-2026 08:00:00,29.432304,76.972765,PM10,92,344,142
India,Haryana,Rohtak,"MD University, Rohtak - HSPCB",29-03-2026 08:00:00,28.52123,76.37138,SO2,10,13,12
India,Haryana,Sirsa,"F-Block, Sirsa - HSPCB",29-03-2026 08:00:00,29.536400,75.015800,PM2.5,53,159,80
India,Gujarat,Vapi,"Phase-1 GIDC, Vapi - GPCB",29-03-2026 08:00:00,20.362421,72.918013,PM10,34,68,51
India,Gujarat,Vatva,"Phase-4 GIDC, Vatva - GPCB",29-03-2026 08:00:00,22.969611,72.643500,NO2,39,112,73
India,Gujarat,Vatva,"Phase-4 GIDC, Vatva - GPCB",29-03-2026 08:00:00,22.969611,72.643500,CO,10,50,27
India,Haryana,Ballabgarh,"Nathu Colony, Ballabgarh - HSPCB",29-03-2026 08:00:00,28.3419248,77.319699,NH3,3,3,3
India,Haryana,Ballabgarh,"Nathu Colony, Ballabgarh - HSPCB",29-03-2026 08:00:00,28.3419248,77.319699,CO,15,76,46
India,Haryana,Bhiwani,"H.B. Colony, Bhiwani - HSPCB",29-03-2026 08:00:00,28.806223,76.141105,PM2.5,54,280,94
India,Haryana,Bhiwani,"H.B. Colony, Bhiwani - HSPCB",29-03-2026 08:00:00,28.806223,76.141105,SO2,1,11,5
India,Gujarat,Gandhinagar,"Sector-10, Gandhinagar - GPCB",29-03-2026 08:00:00,23.221714,72.654328,OZONE,23,47,30
India,Gujarat,Mehsana,"Sadanand Nagar, Mehsana - Nexteng Enviro",29-03-2026 08:00:00,23.593150,72.372792,PM10,19,127,89
India,Gujarat,Mehsana,"Sadanand Nagar, Mehsana - Nexteng Enviro",29-03-2026 08:00:00,23.593150,72.372792,NH3,2,3,2
India,Gujarat,Nandesari,"GIDC, Nandesari - Nandesari Ind. Association",29-03-2026 08:00:00,22.410802,73.097923,PM10,71,153,110
India,Gujarat,Rajkot,"Mavdi, Rajkot - Nexteng Enviro ",29-03-2026 08:00:00,22.248853,70.776774,NO2,6,19,10
India,Gujarat,Rajkot,"Mavdi, Rajkot - Nexteng Enviro ",29-03-2026 08:00:00,22.248853,70.776774,NH3,1,4,2
India,Haryana,Kaithal,"Rishi Nagar, Kaithal - HSPCB",29-03-2026 08:00:00,29.8006,76.4155,PM2.5,25,217,114
India,Haryana,Karnal,"Sector-12, Karnal - HSPCB",29-03-2026 08:00:00,29.695300,77.002700,CO,12,18,13
India,Haryana,Karnal,"Sector-12, Karnal - HSPCB",29-03-2026 08:00:00,29.695300,77.002700,OZONE,10,58,13
India,Haryana,Kurukshetra,"Sector-7, Kurukshetra - HSPCB",29-03-2026 08:00:00,29.966942,76.875879,PM2.5,43,156,83
India,Haryana,Kurukshetra,"Sector-7, Kurukshetra - HSPCB",29-03-2026 08:00:00,29.966942,76.875879,CO,6,32,25
India,Haryana,Manesar,"Sector-2 IMT, Manesar - HSPCB",29-03-2026 08:00:00,28.360699,76.936090,SO2,4,13,9
India,Haryana,Gurugram,"NISE Gwal Pahari, Gurugram - IMD",29-03-2026 08:00:00,28.422681,77.148944,NO2,3,263,46
India,Haryana,Gurugram,"Sector-51, Gurugram - HSPCB",29-03-2026 08:00:00,28.4227,77.0667,PM2.5,61,481,271
India,Haryana,Gurugram,"Sector-51, Gurugram - HSPCB",29-03-2026 08:00:00,28.4227,77.0667,NO2,4,10,6
India,Haryana,Gurugram,"Teri Gram, Gurugram - HSPCB",29-03-2026 08:00:00,28.4275,77.1465,PM2.5,NA,NA,NA
India,Haryana,Gurugram,"Teri Gram, Gurugram - HSPCB",29-03-2026 08:00:00,28.4275,77.1465,NH3,11,21,15
India,Haryana,Gurugram,"Vikas Sadan, Gurugram - HSPCB",29-03-2026 08:00:00,28.4501238,77.0263051,CO,66,114,97
India,Haryana,Sirsa,"F-Block, Sirsa - HSPCB",29-03-2026 08:00:00,29.536400,75.015800,NH3,13,14,13
India,Haryana,Sirsa,"F-Block, Sirsa - HSPCB",29-03-2026 08:00:00,29.536400,75.015800,SO2,2,24,11
India,Himachal Pradesh,Baddi,"HIMUDA Complex Phase-1, Baddi - HPPCB",29-03-2026 08:00:00,30.943887,76.801991,SO2,19,110,48
India,Jammu_and_Kashmir,Pampore,"Khrew, Pampore - JKPCC",29-03-2026 08:00:00,34.031606,75.009712,NO2,11,65,22
India,Haryana,Faridabad,"New Industrial Town, Faridabad - HSPCB",29-03-2026 08:00:00,28.39072,77.30059,PM10,107,117,113
India,Haryana,Faridabad,"Sector 30, Faridabad - HSPCB",29-03-2026 08:00:00,28.4417,77.3217,CO,60,66,61
India,Haryana,Fatehabad,"Huda Sector, Fatehabad - HSPCB",29-03-2026 08:00:00,29.503664,75.467934,NO2,18,20,19
India,Madhya Pradesh,Jabalpur,"Suhagi, Jabalpur - JMC",29-03-2026 08:00:00,23.218135,79.957770,NO2,29,69,44
India,Madhya Pradesh,Jabalpur,"Suhagi, Jabalpur - JMC",29-03-2026 08:00:00,23.218135,79.957770,NH3,5,6,5
India,Madhya Pradesh,Jabalpur,"Suhagi, Jabalpur - JMC",29-03-2026 08:00:00,23.218135,79.957770,SO2,14,20,16
India,Madhya Pradesh,Jabalpur,"Suhagi, Jabalpur - JMC",29-03-2026 08:00:00,23.218135,79.957770,OZONE,51,52,51
India,Madhya Pradesh,Katni,"Gole Bazar, Katni - MPPCB",29-03-2026 08:00:00,23.50016,80.23284,PM10,40,140,83
India,Madhya Pradesh,Katni,"Gole Bazar, Katni - MPPCB",29-03-2026 08:00:00,23.50016,80.23284,NH3,5,9,7
India,Madhya Pradesh,Katni,"Gole Bazar, Katni - MPPCB",29-03-2026 08:00:00,23.50016,80.23284,OZONE,31,117,70
India,Madhya Pradesh,Mandideep,"Sector-D Industrial Area, Mandideep - MPPCB",29-03-2026 08:00:00,23.108440,77.511428,NO2,13,78,32
India,Madhya Pradesh,Pithampur,"Sector-2 Industrial Area, Pithampur - MPPCB",29-03-2026 08:00:00,22.624758,75.675238,SO2,NA,NA,NA
India,Madhya Pradesh,Ratlam,"Shasthri Nagar, Ratlam - IPCA Lab",29-03-2026 08:00:00,23.331731,75.045981,PM2.5,2,76,37
India,Madhya Pradesh,Ratlam,"Shasthri Nagar, Ratlam - IPCA Lab",29-03-2026 08:00:00,23.331731,75.045981,PM10,56,100,75
India,Madhya Pradesh,Sagar,"Civil Lines, Sagar - MPPCB",29-03-2026 08:00:00,23.838586,78.759431,PM10,51,98,72
India,Karnataka,Koppal,"Diwator Nagar, Koppal - KSPCB",29-03-2026 08:00:00,15.347630,76.181767,NO2,NA,NA,NA
India,Karnataka,Koppal,"Diwator Nagar, Koppal - KSPCB",29-03-2026 08:00:00,15.347630,76.181767,NH3,NA,NA,NA
India,Karnataka,Mangalore,"Kadri, Mangalore - KSPCB",29-03-2026 08:00:00,12.889250,74.853000,PM2.5,NA,NA,NA
India,Karnataka,Mangalore,"Kadri, Mangalore - KSPCB",29-03-2026 08:00:00,12.889250,74.853000,NH3,1,4,2
India,Karnataka,Mysuru,"Hebbal 1st Stage, Mysuru - KSPCB",29-03-2026 08:00:00,12.21041,76.37376,PM2.5,17,33,26
India,Karnataka,Mysuru,"Hebbal 1st Stage, Mysuru - KSPCB",29-03-2026 08:00:00,12.21041,76.37376,SO2,2,5,3
India,Karnataka,Ramanagara,"Vijay Nagar, Ramanagara - KSPCB",29-03-2026 08:00:00,12.733409,77.298051,PM2.5,43,80,64
India,Karnataka,Ramanagara,"Vijay Nagar, Ramanagara - KSPCB",29-03-2026 08:00:00,12.733409,77.298051,PM10,42,87,69
