country,state,city,station,last_update,latitude,longitude,pollutant_id,min_value,max_value,avg_value
India,Andhra_Pradesh,Amaravati,"Secretariat, Amaravati - APPCB",15-11-2025 07:00:00,16.5150833,80.5181667,PM2.5,85,240,144
India,Andhra_Pradesh,Anantapur,"Gulzarpet, Anantapur - APPCB",15-11-2025 07:00:00,14.675886,77.593027,CO,36,46,42
India,Andhra_Pradesh,Chittoor,"Gangineni Cheruvu, Chittoor - APPCB",15-11-2025 07:00:00,13.204880,79.097889,PM10,15,129,81
India,Andhra_Pradesh,Chittoor,"Gangineni Cheruvu, Chittoor - APPCB",15-11-2025 07:00:00,13.204880,79.097889,OZONE,50,59,55
India,Andhra_Pradesh,Kadapa,"Yerramukkapalli, Kadapa - APPCB",15-11-2025 07:00:00,14.465052,78.824187,PM10,62,73,66
India,Andhra_Pradesh,Kadapa,"Yerramukkapalli, Kadapa - APPCB",15-11-2025 07:00:00,14.465052,78.824187,SO2,12,18,14
India,Andhra_Pradesh,Rajamahendravaram,"Anand Kala Kshetram, Rajamahendravaram - APPCB",15-11-2025 07:00:00,16.9872867,81.7363176,PM2.5,80,232,131
India,Bihar,Gaya,"Kareemganj, Gaya - BSPCB",15-11-2025 07:00:00,24.792403,84.992416,SO2,15,18,16
India,Bihar,Hajipur,"Industrial Area, Hajipur - BSPCB",15-11-2025 07:00:00,25.697189,85.245900,PM10,35,129,91
India,Bihar,Hajipur,"Industrial Area, Hajipur - BSPCB",15-11-2025 07:00:00,25.697189,85.245900,NH3,4,12,9
India,Bihar,Hajipur,"Industrial Area, Hajipur - BSPCB",15-11-2025 07:00:00,25.697189,85.245900,SO2,2,16,5
India,Bihar,Hajipur,"Industrial Area, Hajipur - BSPCB",15-11-2025 07:00:00,25.697189,85.245900,CO,20,91,68
India,Bihar,Hajipur,"Industrial Area, Hajipur - BSPCB",15-11-2025 07:00:00,25.697189,85.245900,OZONE,12,155,26
India,Bihar,Katihar,"Mirchaibari, Katihar - BSPCB",15-11-2025 07:00:00,25.560083,87.553265,OZONE,5,14,5
India,Bihar,Kishanganj,"SDM Office_Khagra, Kishanganj - BSPCB",15-11-2025 07:00:00,26.0881305,87.93840336,NO2,7,10,8
India,Andhra_Pradesh,Rajamahendravaram,"Anand Kala Kshetram, Rajamahendravaram - APPCB",15-11-2025 07:00:00,16.9872867,81.7363176,CO,23,60,38
India,Andhra_Pradesh,Tirupati,"Vaikuntapuram, Tirupati - APPCB",15-11-2025 07:00:00,13.615387,79.409230,SO2,9,23,13
India,Andhra_Pradesh,Vijayawada,"HB Colony, Vijayawada - APPCB",15-11-2025 07:00:00,16.536107,80.594233,PM10,37,86,68
India,Andhra_Pradesh,Vijayawada,"HB Colony, Vijayawada - APPCB",15-11-2025 07:00:00,16.536107,80.594233,NO2,16,22,20
India,Andhra_Pradesh,Vijayawada,"HB Colony, Vijayawada - APPCB",15-11-2025 07:00:00,16.536107,80.594233,NH3,4,5,5
India,Andhra_Pradesh,Vijayawada,"Rajiv Gandhi Park, Vijayawada - APPCB",15-11-2025 07:00:00,16.509717,80.612222,PM10,70,92,78
India,Andhra_Pradesh,Vijayawada,"Rajiv Gandhi Park, Vijayawada - APPCB",15-11-2025 07:00:00,16.509717,80.612222,NO2,46,123,80
India,Bihar,Muzaffarpur,"MIT-Daudpur Kothi, Muzaffarpur - BSPCB",15-11-2025 07:00:00,26.1403345,85.3650192,PM10,62,77,71
India,Bihar,Muzaffarpur,"MIT-Daudpur Kothi, Muzaffarpur - BSPCB",15-11-2025 07:00:00,26.1403345,85.3650192,CO,50,63,52
India,Bihar,Muzaffarpur,"Muzaffarpur Collectorate, Muzaffarpur - BSPCB",15-11-2025 07:00:00,26.1209,85.3647,NO2,6,13,11
India,Bihar,Patna,"DRM Office Danapur, Patna - BSPCB",15-11-2025 07:00:00,25.586562,85.043586,SO2,8,11,9
India,Bihar,Patna,"Govt. High School Shikarpur, Patna - BSPCB",15-11-2025 07:00:00,25.592539,85.227158,PM2.5,82,92,85
India,Bihar,Patna,"Govt. High School Shikarpur, Patna - BSPCB",15-11-2025 07:00:00,25.592539,85.227158,PM10,103,160,126
India,Bihar,Bihar Sharif,"D M Colony, Bihar Sharif - BSPCB",15-11-2025 07:00:00,25.204762,85.514960,PM10,52,143,82
India,Bihar,Bihar Sharif,"D M Colony, Bihar Sharif - BSPCB",15-11-2025 07:00:00,25.204762,85.514960,NO2,9,10,9
India,Bihar,Buxar,"Charitra Van, Buxar - BSPCB",15-11-2025 07:00:00,25.567520,83.966379,NO2,9,10,9
India,Bihar,Chhapra,"Darshan Nagar, Chhapra - BSPCB",15-11-2025 07:00:00,25.7808257,84.7446768,PM2.5,8,304,125
India,Bihar,Chhapra,"Darshan Nagar, Chhapra - BSPCB",15-11-2025 07:00:00,25.7808257,84.7446768,PM10,15,298,144
India,Bihar,Gaya,"Collectorate, Gaya - BSPCB",15-11-2025 07:00:00,24.7955,84.9994,NO2,9,9,9
India,Assam,Guwahati,"IITG, Guwahati - PCBA",15-11-2025 07:00:00,26.2028636,91.70046436,PM10,49,146,103
India,Assam,Guwahati,"Pan Bazaar, Guwahati - PCBA",15-11-2025 07:00:00,26.187500,91.744194,CO,14,90,50
India,Assam,Guwahati,"Railway Colony, Guwahati - PCBA",15-11-2025 07:00:00,26.181742,91.78063,NO2,3,3,3
India,Assam,Nagaon,"Christianpatty, Nagaon - PCBA",15-11-2025 07:00:00,26.349082,92.68449,NH3,4,4,4
India,Assam,Nalbari,"Bata Chowk, Nalbari - PCBA",15-11-2025 07:00:00,26.446912,91.439057,PM10,42,109,72
India,Assam,Nalbari,"Bata Chowk, Nalbari - PCBA",15-11-2025 07:00:00,26.446912,91.439057,NH3,5,8,6
India,Assam,Sivasagar,"Girls College, Sivasagar - PCBA",15-11-2025 07:00:00,26.987634,94.636574,CO,2,52,43
India,Bihar,Araria,"Kharahiya Basti, Araria - BSPCB",15-11-2025 07:00:00,26.146529,87.454184,OZONE,10,10,10
India,Bihar,Arrah,"New DM Office, Arrah - BSPCB",15-11-2025 07:00:00,25.5626095,84.663264,NO2,5,12,7
India,Bihar,Motihari,"Gandak Colony, Motihari - BSPCB",15-11-2025 07:00:00,26.63086,84.90051,PM2.5,38,243,101
India,Bihar,Motihari,"Gandak Colony, Motihari - BSPCB",15-11-2025 07:00:00,26.63086,84.90051,CO,28,47,31
India,Bihar,Munger,"Town Hall, Munger - BSPCB",15-11-2025 07:00:00,25.376776,86.471523,PM2.5,70,173,101
India,Bihar,Munger,"Town Hall, Munger - BSPCB",15-11-2025 07:00:00,25.376776,86.471523,PM10,70,126,93
India,Bihar,Munger,"Town Hall, Munger - BSPCB",15-11-2025 07:00:00,25.376776,86.471523,OZONE,12,29,15
India,Andhra_Pradesh,Visakhapatnam,"GVM Corporation, Visakhapatnam - APPCB",15-11-2025 07:00:00,17.72,83.3,NH3,3,4,4
India,Andhra_Pradesh,Visakhapatnam,"GVM Corporation, Visakhapatnam - APPCB",15-11-2025 07:00:00,17.72,83.3,SO2,14,35,24
India,Assam,Byrnihat,"Central Academy for SFS, Byrnihat - PCBA",15-11-2025 07:00:00,26.071318,91.87488,PM2.5,81,303,129
India,Bihar,Begusarai,"Lohiyanagar, Begusarai - BSPCB",15-11-2025 07:00:00,25.42742023,86.13886079,PM10,57,120,81
India,Bihar,Bettiah,"Kamalnath Nagar, Bettiah - BSPCB",15-11-2025 07:00:00,26.80365,84.51954,NH3,1,2,1
India,Bihar,Bettiah,"Kamalnath Nagar, Bettiah - BSPCB",15-11-2025 07:00:00,26.80365,84.51954,SO2,7,25,17
India,Chandigarh,Chandigarh,"Sector 22, Chandigarh - CPCC",15-11-2025 07:00:00,30.735567,76.775714,NO2,4,42,17
India,Chandigarh,Chandigarh,"Sector 22, Chandigarh - CPCC",15-11-2025 07:00:00,30.735567,76.775714,CO,56,100,77
India,Chandigarh,Chandigarh,"Sector-25, Chandigarh - CPCC",15-11-2025 07:00:00,30.751462,76.762879,PM10,57,115,95
India,Chandigarh,Chandigarh,"Sector-25, Chandigarh - CPCC",15-11-2025 07:00:00,30.751462,76.762879,NO2,14,48,26
India,Chandigarh,Chandigarh,"Sector-25, Chandigarh - CPCC",15-11-2025 07:00:00,30.751462,76.762879,SO2,6,10,8
India,Chandigarh,Chandigarh,"Sector-53, Chandigarh - CPCC",15-11-2025 07:00:00,30.719859,76.738637,PM2.5,48,257,129
India,Chandigarh,Chandigarh,"Sector-53, Chandigarh - CPCC",15-11-2025 07:00:00,30.719859,76.738637,OZONE,2,88,2
India,Chhattisgarh,Bhilai,"32Bungalows, Bhilai - CECB",15-11-2025 07:00:00,21.194815,81.314770,PM10,59,117,82
India,Chhattisgarh,Bhilai,"32Bungalows, Bhilai - CECB",15-11-2025 07:00:00,21.194815,81.314770,NO2,16,122,51
India,Chhattisgarh,Bhilai,"32Bungalows, Bhilai - CECB",15-11-2025 07:00:00,21.194815,81.314770,NH3,1,19,6
India,Chhattisgarh,Bhilai,"32Bungalows, Bhilai - CECB",15-11-2025 07:00:00,21.194815,81.314770,OZONE,3,82,7
India,Delhi,Delhi,"Burari Crossing, Delhi - IMD",15-11-2025 07:00:00,28.7256504,77.2011573,CO,29,108,88
India,Delhi,Delhi,"Burari Crossing, Delhi - IMD",15-11-2025 07:00:00,28.7256504,77.2011573,OZONE,12,203,15
India,Delhi,Delhi,"Chandni Chowk, Delhi - IITM",15-11-2025 07:00:00,28.656756,77.227234,OZONE,5,102,8
India,Delhi,Delhi,"DTU, Delhi - CPCB",15-11-2025 07:00:00,28.7500499,77.1112615,NO2,23,73,47
India,Delhi,Delhi,"DTU, Delhi - CPCB",15-11-2025 07:00:00,28.7500499,77.1112615,CO,38,91,79
India,Delhi,Delhi,"Dr. Karni Singh Shooting Range, Delhi - DPCC",15-11-2025 07:00:00,28.498571,77.264840,PM2.5,328,447,386
India,Delhi,Delhi,"Dr. Karni Singh Shooting Range, Delhi - DPCC",15-11-2025 07:00:00,28.498571,77.264840,PM10,209,423,340
India,Delhi,Delhi,"Dr. Karni Singh Shooting Range, Delhi - DPCC",15-11-2025 07:00:00,28.498571,77.264840,SO2,22,39,29
India,Chhattisgarh,Bhilai,"Civic Center, Bhilai - Bhilai Steel Plant",15-11-2025 07:00:00,21.185571,81.343175,PM10,NA,NA,NA
India,Chhattisgarh,Bhilai,"Civic Center, Bhilai - Bhilai Steel Plant",15-11-2025 07:00:00,21.185571,81.343175,OZONE,7,22,11
India,Chhattisgarh,Bilaspur,"Mangala, Bilaspur - NTPC",15-11-2025 07:00:00,22.08815,82.13737,NO2,17,31,20
India,Chhattisgarh,Bilaspur,"Mangala, Bilaspur - NTPC",15-11-2025 07:00:00,22.08815,82.13737,SO2,7,20,12
India,Chhattisgarh,Chhal,"Nawapara SECL Colony, Chhal - CECB",15-11-2025 07:00:00,22.118125,83.140608,NO2,9,30,14
India,Chhattisgarh,Korba,"Rampur, Korba - CECB",15-11-2025 07:00:00,22.368195,82.746431,PM2.5,37,58,49
India,Chhattisgarh,Korba,"Rampur, Korba - CECB",15-11-2025 07:00:00,22.368195,82.746431,PM10,49,63,61
India,Bihar,Patna,"IGSC Planetarium Complex, Patna - BSPCB",15-11-2025 07:00:00,25.610369,85.132568,OZONE,29,30,29
India,Bihar,Patna,"Rajbansi Nagar, Patna - BSPCB",15-11-2025 07:00:00,25.599486,85.113666,SO2,6,8,7
India,Bihar,Patna,"Samanpura, Patna - BSPCB",15-11-2025 07:00:00,25.596727,85.085624,NO2,38,49,44
India,Bihar,Patna,"Samanpura, Patna - BSPCB",15-11-2025 07:00:00,25.596727,85.085624,OZONE,8,219,17
India,Bihar,Purnia,"Mariam Nagar, Purnia - BSPCB",15-11-2025 07:00:00,25.366336,87.117468,NO2,5,6,6
India,Bihar,Purnia,"Mariam Nagar, Purnia - BSPCB",15-11-2025 07:00:00,25.366336,87.117468,NH3,3,3,3
India,Bihar,Purnia,"Mariam Nagar, Purnia - BSPCB",15-11-2025 07:00:00,25.366336,87.117468,SO2,8,25,18
India,Chhattisgarh,Kunjemura,"OP Jindal School, Kunjemura - CECB",15-11-2025 07:00:00,22.126650,83.483212,PM10,39,157,79
India,Chhattisgarh,Kunjemura,"OP Jindal School, Kunjemura - CECB",15-11-2025 07:00:00,22.126650,83.483212,SO2,4,15,10
India,Chhattisgarh,Milupara,"Govt. Higher Secondary School, Milupara - CECB",15-11-2025 07:00:00,22.1910172,83.5197009,NO2,20,73,38
India,Chhattisgarh,Milupara,"Govt. Higher Secondary School, Milupara - CECB",15-11-2025 07:00:00,22.1910172,83.5197009,OZONE,20,177,25
India,Chhattisgarh,Raipur,"Krishak Nagar, Raipur - CECB",15-11-2025 07:00:00,21.237755,81.705301,NO2,19,38,25
India,Bihar,Rajgir,"Dangi Tola, Rajgir - BSPCB",15-11-2025 07:00:00,25.03280,85.41948,NH3,6,8,7
India,Bihar,Samastipur,"DM Office_Kasipur, Samastipur - BSPCB",15-11-2025 07:00:00,25.859655,85.77944,NH3,NA,NA,NA
India,Bihar,Samastipur,"DM Office_Kasipur, Samastipur - BSPCB",15-11-2025 07:00:00,25.859655,85.77944,OZONE,NA,NA,NA
India,Bihar,Sasaram,"Dada Peer, Sasaram - BSPCB",15-11-2025 07:00:00,24.952822,84.002396,NO2,2,3,2
India,Chhattisgarh,Tumidih,"OP Jindal Industrial Park, Tumidih - CECB",15-11-2025 07:00:00,22.06631475,83.33820077,PM10,48,238,96
India,Delhi,Delhi,"Alipur, Delhi - DPCC",15-11-2025 07:00:00,28.815329,77.153010,OZONE,3,76,8
India,Delhi,Delhi,"Anand Vihar, Delhi - DPCC",15-11-2025 07:00:00,28.647622,77.3158090,NH3,11,17,14
India,Delhi,Delhi,"Bawana, Delhi - DPCC",15-11-2025 07:00:00,28.776200,77.051074,PM10,188,476,363
India,Delhi,Delhi,"Bawana, Delhi - DPCC",15-11-2025 07:00:00,28.776200,77.051074,OZONE,5,162,11
India,Chhattisgarh,Raipur,"Siltara Phase-II, Raipur - CECB",15-11-2025 07:00:00,21.371751,81.664929,PM10,60,157,115
India,Chhattisgarh,Raipur,"Siltara Phase-II, Raipur - CECB",15-11-2025 07:00:00,21.371751,81.664929,CO,34,36,35
India,Delhi,Delhi,"Narela, Delhi - DPCC",15-11-2025 07:00:00,28.822836,77.101981,CO,30,94,74
India,Delhi,Delhi,"Narela, Delhi - DPCC",15-11-2025 07:00:00,28.822836,77.101981,OZONE,2,167,13
India,Delhi,Delhi,"Nehru Nagar, Delhi - DPCC",15-11-2025 07:00:00,28.567890,77.250515,SO2,17,40,26
India,Delhi,Delhi,"Nehru Nagar, Delhi - DPCC",15-11-2025 07:00:00,28.567890,77.250515,CO,101,131,118
India,Delhi,Delhi,"North Campus, DU, Delhi - IMD",15-11-2025 07:00:00,28.6573814,77.1585447,CO,46,143,115
India,Delhi,Delhi,"North Campus, DU, Delhi - IMD",15-11-2025 07:00:00,28.6573814,77.1585447,OZONE,16,325,21
India,Delhi,Delhi,"Patparganj, Delhi - DPCC",15-11-2025 07:00:00,28.623763,77.287209,CO,40,114,101
India,Delhi,Delhi,"Vivek Vihar, Delhi - DPCC",15-11-2025 07:00:00,28.672342,77.315260,PM2.5,324,492,416
India,Delhi,Delhi,"Vivek Vihar, Delhi - DPCC",15-11-2025 07:00:00,28.672342,77.315260,NO2,33,151,88
India,Delhi,Delhi,"Wazirpur, Delhi - DPCC",15-11-2025 07:00:00,28.699793,77.165453,PM10,320,500,445
India,Delhi,Delhi,"Wazirpur, Delhi - DPCC",15-11-2025 07:00:00,28.699793,77.165453,NO2,62,152,102
India,Gujarat,Ahmedabad,"Chandkheda, Ahmedabad - IITM",15-11-2025 07:00:00,23.107969,72.574648,PM2.5,43,91,61
India,Gujarat,Ahmedabad,"Gyaspur, Ahmedabad - IITM",15-11-2025 07:00:00,22.977134,72.553024,PM10,120,418,193
India,Delhi,Delhi,"Rohini, Delhi - DPCC",15-11-2025 07:00:00,28.732528,77.119920,OZONE,5,249,6
India,Delhi,Delhi,"Sirifort, Delhi - CPCB",15-11-2025 07:00:00,28.5504249,77.2159377,PM10,269,429,352
India,Delhi,Delhi,"Sirifort, Delhi - CPCB",15-11-2025 07:00:00,28.5504249,77.2159377,NO2,39,68,48
India,Delhi,Delhi,"Sonia Vihar, Delhi - DPCC",15-11-2025 07:00:00,28.710508,77.249485,SO2,6,27,16
India,Delhi,Delhi,"Sonia Vihar, Delhi - DPCC",15-11-2025 07:00:00,28.710508,77.249485,CO,42,120,110
India,Delhi,Delhi,"Sri Aurobindo Marg, Delhi - DPCC",15-11-2025 07:00:00,28.531346,77.190156,PM10,175,341,253
India,Delhi,Delhi,"Punjabi Bagh, Delhi - DPCC",15-11-2025 07:00:00,28.674045,77.131023,NO2,37,84,56
India,Delhi,Delhi,"Pusa, Delhi - DPCC",15-11-2025 07:00:00,28.639652,77.146275,SO2,4,31,15
India,Delhi,Delhi,"Pusa, Delhi - DPCC",15-11-2025 07:00:00,28.639652,77.146275,CO,78,110,94
India,Delhi,Delhi,"Pusa, Delhi - IMD",15-11-2025 07:00:00,28.636110,77.173332,PM2.5,311,422,372
India,Delhi,Delhi,"Pusa, Delhi - IMD",15-11-2025 07:00:00,28.636110,77.173332,CO,6,113,80
India,Delhi,Delhi,"R K Puram, Delhi - DPCC",15-11-2025 07:00:00,28.563262,77.186937,PM10,250,443,350
India,Delhi,Delhi,"IGI Airport (T3), Delhi - IMD",15-11-2025 07:00:00,28.5627763,77.1180053,OZONE,1,4,3
India,Delhi,Delhi,"IHBAS, Dilshad Garden, Delhi - CPCB",15-11-2025 07:00:00,28.6811736,77.3025234,PM2.5,197,442,317
India,Delhi,Delhi,"IHBAS, Dilshad Garden, Delhi - CPCB",15-11-2025 07:00:00,28.6811736,77.3025234,NO2,50,55,53
India,Delhi,Delhi,"IHBAS, Dilshad Garden, Delhi - CPCB",15-11-2025 07:00:00,28.6811736,77.3025234,CO,52,91,68
India,Delhi,Delhi,"ITO, Delhi - CPCB",15-11-2025 07:00:00,28.628624,77.241060,PM2.5,333,485,416
India,Delhi,Delhi,"Jawaharlal Nehru Stadium, Delhi - DPCC",15-11-2025 07:00:00,28.580280,77.233829,NO2,37,167,115
India,Delhi,Delhi,"Jawaharlal Nehru Stadium, Delhi - DPCC",15-11-2025 07:00:00,28.580280,77.233829,NH3,5,6,5
India,Delhi,Delhi,"Lodhi Road, Delhi - IMD",15-11-2025 07:00:00,28.5918245,77.2273074,PM2.5,319,419,363
India,Delhi,Delhi,"Major Dhyan Chand National Stadium, Delhi - DPCC",15-11-2025 07:00:00,28.611281,77.237738,PM2.5,306,437,369
India,Delhi,Delhi,"Mundka, Delhi - DPCC",15-11-2025 07:00:00,28.684678,77.076574,NH3,10,16,13
India,Delhi,Delhi,"Mundka, Delhi - DPCC",15-11-2025 07:00:00,28.684678,77.076574,CO,36,103,87
India,Delhi,Delhi,"NSIT Dwarka, Delhi - CPCB",15-11-2025 07:00:00,28.60909,77.0325413,CO,28,56,35
India,Delhi,Delhi,"NSIT Dwarka, Delhi - CPCB",15-11-2025 07:00:00,28.60909,77.0325413,OZONE,12,86,12
India,Delhi,Delhi,"Najafgarh, Delhi - DPCC",15-11-2025 07:00:00,28.570173,76.933762,NH3,8,9,9
India,Gujarat,Ahmedabad,"Maninagar, Ahmedabad - GPCB",15-11-2025 07:00:00,23.002657,72.591912,SO2,28,45,38
India,Gujarat,Ahmedabad,"Rakhial, Ahmedabad - IITM",15-11-2025 07:00:00,23.016834,72.625775,PM2.5,66,273,123
India,Gujarat,Ahmedabad,"SAC ISRO Bopal, Ahmedabad - IITM",15-11-2025 07:00:00,23.041137,72.456691,PM10,84,184,125
India,Gujarat,Ahmedabad,"SAC ISRO Bopal, Ahmedabad - IITM",15-11-2025 07:00:00,23.041137,72.456691,NO2,20,24,22
India,Delhi,Delhi,"Jahangirpuri, Delhi - DPCC",15-11-2025 07:00:00,28.732820,77.170633,PM10,243,486,406
India,Haryana,Kurukshetra,"Sector-7, Kurukshetra - HSPCB",15-11-2025 07:00:00,29.966942,76.875879,PM2.5,185,341,261
India,Haryana,Kurukshetra,"Sector-7, Kurukshetra - HSPCB",15-11-2025 07:00:00,29.966942,76.875879,PM10,124,254,174
India,Haryana,Kurukshetra,"Sector-7, Kurukshetra - HSPCB",15-11-2025 07:00:00,29.966942,76.875879,NO2,17,23,19
India,Haryana,Kurukshetra,"Sector-7, Kurukshetra - HSPCB",15-11-2025 07:00:00,29.966942,76.875879,NH3,5,5,5
India,Haryana,Kurukshetra,"Sector-7, Kurukshetra - HSPCB",15-11-2025 07:00:00,29.966942,76.875879,SO2,2,16,8
India,Haryana,Kurukshetra,"Sector-7, Kurukshetra - HSPCB",15-11-2025 07:00:00,29.966942,76.875879,CO,34,84,50
India,Haryana,Mandikhera,"General Hospital, Mandikhera - HSPCB",15-11-2025 07:00:00,27.9002,76.9938,PM2.5,76,181,110
India,Haryana,Mandikhera,"General Hospital, Mandikhera - HSPCB",15-11-2025 07:00:00,27.9002,76.9938,OZONE,24,32,27
India,Haryana,Manesar,"Sector-2 IMT, Manesar - HSPCB",15-11-2025 07:00:00,28.360699,76.936090,OZONE,7,36,9
India,Haryana,Narnaul,"Shastri Nagar, Narnaul - HSPCB",15-11-2025 07:00:00,28.060249,76.113115,PM2.5,146,315,229
India,Haryana,Narnaul,"Shastri Nagar, Narnaul - HSPCB",15-11-2025 07:00:00,28.060249,76.113115,SO2,10,12,11
India,Gujarat,Ahmedabad,"SAC ISRO Bopal, Ahmedabad - IITM",15-11-2025 07:00:00,23.041137,72.456691,CO,2,43,37
India,Gujarat,Ahmedabad,"SAC ISRO Bopal, Ahmedabad - IITM",15-11-2025 07:00:00,23.041137,72.456691,OZONE,1,66,5
India,Gujarat,Ahmedabad,"SAC ISRO Satellite, Ahmedabad - IITM",15-11-2025 07:00:00,23.023389,72.515201,NH3,3,13,6
India,Gujarat,Ahmedabad,"SAC ISRO Satellite, Ahmedabad - IITM",15-11-2025 07:00:00,23.023389,72.515201,CO,43,118,78
India,Gujarat,Ahmedabad,"SVPI Airport Hansol, Ahmedabad - IITM",15-11-2025 07:00:00,23.076793,72.627874,NO2,34,64,47
India,Gujarat,Ahmedabad,"SVPI Airport Hansol, Ahmedabad - IITM",15-11-2025 07:00:00,23.076793,72.627874,NH3,2,6,4
India,Gujarat,Ankleshwar,"GIDC, Ankleshwar - GPCB",15-11-2025 07:00:00,21.613267,73.010555,CO,NA,NA,NA
India,Gujarat,Gandhinagar,"GIFT City, Gandhinagar - IITM",15-11-2025 07:00:00,23.163798,72.677768,OZONE,1,87,7
India,Haryana,Sirsa,"F-Block, Sirsa - HSPCB",15-11-2025 07:00:00,29.536400,75.015800,PM10,NA,NA,NA
India,Haryana,Sirsa,"F-Block, Sirsa - HSPCB",15-11-2025 07:00:00,29.536400,75.015800,NH3,10,15,14
India,Haryana,Sonipat,"Murthal, Sonipat - HSPCB",15-11-2025 07:00:00,29.027200,77.062100,SO2,6,12,8
India,Haryana,Sonipat,"Murthal, Sonipat - HSPCB",15-11-2025 07:00:00,29.027200,77.062100,CO,36,38,37
India,Haryana,Yamuna Nagar,"Gobind Pura, Yamuna Nagar - HSPCB",15-11-2025 07:00:00,30.1480566,77.2893471,NO2,11,11,11
India,Himachal Pradesh,Baddi,"HIMUDA Complex Phase-1, Baddi - HPPCB",15-11-2025 07:00:00,30.943887,76.801991,NO2,19,110,63
India,Haryana,Dharuhera,"Municipal Corporation Office, Dharuhera -  HSPCB",15-11-2025 07:00:00,28.206800,76.799700,PM10,179,414,287
India,Haryana,Dharuhera,"Municipal Corporation Office, Dharuhera -  HSPCB",15-11-2025 07:00:00,28.206800,76.799700,SO2,10,22,15
India,Haryana,Faridabad,"New Industrial Town, Faridabad - HSPCB",15-11-2025 07:00:00,28.39072,77.30059,PM2.5,288,301,296
India,Haryana,Faridabad,"New Industrial Town, Faridabad - HSPCB",15-11-2025 07:00:00,28.39072,77.30059,PM10,189,197,193
India,Haryana,Faridabad,"New Industrial Town, Faridabad - HSPCB",15-11-2025 07:00:00,28.39072,77.30059,NH3,11,12,11
India,Haryana,Faridabad,"Sector 11, Faridabad - HSPCB",15-11-2025 07:00:00,28.376058,77.315741,CO,14,72,53
India,Haryana,Gurugram,"Vikas Sadan, Gurugram - HSPCB",15-11-2025 07:00:00,28.4501238,77.0263051,PM10,NA,NA,NA
India,Haryana,Gurugram,"Vikas Sadan, Gurugram - HSPCB",15-11-2025 07:00:00,28.4501238,77.0263051,CO,NA,NA,NA
India,Haryana,Hisar,"Urban Estate-II, Hisar - HSPCB",15-11-2025 07:00:00,29.140560,75.744941,CO,42,103,65
India,Haryana,Jind,"Police Lines, Jind - HSPCB",15-11-2025 07:00:00,29.307814,76.337619,PM2.5,NA,NA,NA
India,Haryana,Karnal,"Sector-12, Karnal - HSPCB",15-11-2025 07:00:00,29.695300,77.002700,PM2.5,117,336,253
India,Haryana,Karnal,"Sector-12, Karnal - HSPCB",15-11-2025 07:00:00,29.695300,77.002700,NO2,9,11,10
India,Gujarat,Gandhinagar,"Sector-10, Gandhinagar - GPCB",15-11-2025 07:00:00,23.221714,72.654328,PM2.5,44,201,85
India,Gujarat,Gandhinagar,"Sector-10, Gandhinagar - GPCB",15-11-2025 07:00:00,23.221714,72.654328,NO2,16,36,21
India,Gujarat,Gandhinagar,"Sector-10, Gandhinagar - GPCB",15-11-2025 07:00:00,23.221714,72.654328,NH3,1,3,2
India,Gujarat,Vapi,"Phase-1 GIDC, Vapi - GPCB",15-11-2025 07:00:00,20.362421,72.918013,PM10,78,222,128
India,Gujarat,Vapi,"Phase-1 GIDC, Vapi - GPCB",15-11-2025 07:00:00,20.362421,72.918013,NO2,1,2,1
India,Gujarat,Vatva,"Phase-4 GIDC, Vatva - GPCB",15-11-2025 07:00:00,22.969611,72.643500,PM10,59,404,130
India,Haryana,Ambala,"Patti Mehar, Ambala - HSPCB",15-11-2025 07:00:00,30.379589,76.778328,OZONE,48,52,50
India,Haryana,Bahadurgarh,"Arya Nagar, Bahadurgarh - HSPCB",15-11-2025 07:00:00,28.6701,76.9254,NO2,12,14,13
India,Haryana,Bahadurgarh,"Arya Nagar, Bahadurgarh - HSPCB",15-11-2025 07:00:00,28.6701,76.9254,NH3,12,13,13
India,Haryana,Bahadurgarh,"Arya Nagar, Bahadurgarh - HSPCB",15-11-2025 07:00:00,28.6701,76.9254,OZONE,16,20,17
India,Haryana,Ballabgarh,"Nathu Colony, Ballabgarh - HSPCB",15-11-2025 07:00:00,28.3419248,77.319699,NH3,3,3,3
India,Haryana,Palwal,"Shyam Nagar, Palwal - HSPCB",15-11-2025 07:00:00,28.1485564,77.3320667,PM2.5,51,98,81
India,Haryana,Palwal,"Shyam Nagar, Palwal - HSPCB",15-11-2025 07:00:00,28.1485564,77.3320667,CO,27,29,28
India,Haryana,Panchgaon,"Amity University, Panchgaon - IITM",15-11-2025 07:00:00,28.3153,76.9143,SO2,NA,NA,NA
India,Haryana,Panipat,"Sector-18, Panipat - HSPCB",15-11-2025 07:00:00,29.432304,76.972765,PM10,49,450,182
India,Haryana,Faridabad,"Sector 30, Faridabad - HSPCB",15-11-2025 07:00:00,28.4417,77.3217,SO2,6,6,6
India,Haryana,Gurugram,"NISE Gwal Pahari, Gurugram - IMD",15-11-2025 07:00:00,28.422681,77.148944,PM2.5,327,414,373
India,Haryana,Gurugram,"Sector-51, Gurugram - HSPCB",15-11-2025 07:00:00,28.4227,77.0667,PM2.5,194,416,289
India,Haryana,Gurugram,"Sector-51, Gurugram - HSPCB",15-11-2025 07:00:00,28.4227,77.0667,NO2,4,10,6
India,Karnataka,Madikeri,"Stuart Hill, Madikeri - KSPCB",15-11-2025 07:00:00,12.415911,75.735050,OZONE,3,6,5
India,Karnataka,Mangalore,"Kadri, Mangalore - KSPCB",15-11-2025 07:00:00,12.889250,74.853000,SO2,14,15,15
India,Karnataka,Mysuru,"Hebbal 1st Stage, Mysuru - KSPCB",15-11-2025 07:00:00,12.21041,76.37376,PM2.5,34,89,60
India,Karnataka,Shivamogga,"Vinoba Nagara, Shivamogga - KSPCB",15-11-2025 07:00:00,13.940000,75.555917,NH3,3,4,3
India,Karnataka,Shivamogga,"Vinoba Nagara, Shivamogga - KSPCB",15-11-2025 07:00:00,13.940000,75.555917,SO2,2,6,4
India,Karnataka,Tumakuru,"Thimmalapura, Tumakuru - KSPCB",15-11-2025 07:00:00,13.377516,77.099072,PM10,NA,NA,NA
India,Karnataka,Tumakuru,"Thimmalapura, Tumakuru - KSPCB",15-11-2025 07:00:00,13.377516,77.099072,NO2,NA,NA,NA
India,Jammu_and_Kashmir,Srinagar,"Rajbagh, Srinagar - JKSPCB",15-11-2025 07:00:00,34.066206,74.819820,PM2.5,31,385,125
India,Jharkhand,Dhanbad,"Sardar Patel Nagar, Dhanbad - JSPCB",15-11-2025 07:00:00,23.80569,86.44268,OZONE,1,31,4
India,Karnataka,Bagalkot,"Vidayagiri, Bagalkot - KSPCB",15-11-2025 07:00:00,16.172806,75.659694,PM10,53,54,53
India,Karnataka,Bagalkot,"Vidayagiri, Bagalkot - KSPCB",15-11-2025 07:00:00,16.172806,75.659694,OZONE,12,16,16
India,Karnataka,Belgaum,"Ramteerth Nagar, Belgaum - KSPCB",15-11-2025 07:00:00,15.888653,74.541751,CO,8,18,12
India,Karnataka,Belgaum,"Ramteerth Nagar, Belgaum - KSPCB",15-11-2025 07:00:00,15.888653,74.541751,OZONE,19,20,19
India,Karnataka,Chikkamagaluru,"Kalyana Nagara, Chikkamagaluru - KSPCB",15-11-2025 07:00:00,13.328028,75.797056,NH3,2,3,2
India,Karnataka,Davanagere,"Devaraj Urs Badavane, Davanagere - KSPCB",15-11-2025 07:00:00,14.475800,75.905200,SO2,4,8,5
India,Karnataka,Dharwad,"Kalabhavan, Dharwad - KSPCB",15-11-2025 07:00:00,15.459706,75.008381,NH3,5,6,6
India,Karnataka,Dharwad,"Kalabhavan, Dharwad - KSPCB",15-11-2025 07:00:00,15.459706,75.008381,SO2,1,5,3
India,Karnataka,Gadag,"Panchal Nagar, Gadag - KSPCB",15-11-2025 07:00:00,15.411456,75.638133,PM10,11,205,47
India,Karnataka,Gadag,"Panchal Nagar, Gadag - KSPCB",15-11-2025 07:00:00,15.411456,75.638133,NO2,1,48,8
India,Karnataka,Gadag,"Panchal Nagar, Gadag - KSPCB",15-11-2025 07:00:00,15.411456,75.638133,CO,12,26,18
India,Karnataka,Bengaluru,"BTM Layout, Bengaluru - CPCB",15-11-2025 07:00:00,12.9135218,77.5950804,SO2,16,20,17
India,Karnataka,Bengaluru,"BWSSB Kadabesanahalli, Bengaluru - CPCB",15-11-2025 07:00:00,12.9352049,77.6814488,SO2,1,8,3
India,Karnataka,Bengaluru,"City Railway Station, Bengaluru - KSPCB",15-11-2025 07:00:00,12.9756843,77.5660749,CO,86,88,87
India,Karnataka,Bengaluru,"Hebbal, Bengaluru - KSPCB",15-11-2025 07:00:00,13.029152,77.585901,PM10,69,110,89
India,Karnataka,Bengaluru,"Hombegowda Nagar, Bengaluru - KSPCB",15-11-2025 07:00:00,12.938539,77.590100,PM10,76,115,100
India,Karnataka,Kalaburagi,"Lal Bahadur Shastri Nagar, Kalaburagi - KSPCB",15-11-2025 07:00:00,17.321993,76.822628,PM10,19,61,49
India,Karnataka,Kalaburagi,"Lal Bahadur Shastri Nagar, Kalaburagi - KSPCB",15-11-2025 07:00:00,17.321993,76.822628,NO2,12,12,12
India,Karnataka,Kalaburagi,"Mahatma Basaveswar Colony, Kalaburgi - KSPCB",15-11-2025 07:00:00,17.336318,76.847397,PM10,24,71,37
India,Karnataka,Kalaburagi,"Mahatma Basaveswar Colony, Kalaburgi - KSPCB",15-11-2025 07:00:00,17.336318,76.847397,OZONE,14,28,15
India,Karnataka,Madikeri,"Stuart Hill, Madikeri - KSPCB",15-11-2025 07:00:00,12.415911,75.735050,PM10,32,44,38
India,Karnataka,Madikeri,"Stuart Hill, Madikeri - KSPCB",15-11-2025 07:00:00,12.415911,75.735050,SO2,6,7,7
India,Karnataka,Bengaluru,"RVCE-Mailasandra, Bengaluru - KSPCB",15-11-2025 07:00:00,12.921418,77.502466,NH3,3,3,3
India,Karnataka,Bengaluru,"RVCE-Mailasandra, Bengaluru - KSPCB",15-11-2025 07:00:00,12.921418,77.502466,SO2,5,6,6
India,Karnataka,Bengaluru,"Shivapura_Peenya, Bengaluru - KSPCB",15-11-2025 07:00:00,13.0246342,77.5080115,NH3,4,5,5
India,Karnataka,Bengaluru,"Silk Board, Bengaluru - KSPCB",15-11-2025 07:00:00,12.917348,77.622813,OZONE,12,13,12
India,Karnataka,Chamarajanagar,"Urban, Chamarajanagar - KSPCB",15-11-2025 07:00:00,11.55358,76.55521,NH3,1,3,2
India,Karnataka,Udupi,"Brahmagiri, Udupi - KSPCB",15-11-2025 07:00:00,13.34194444,74.74694444,NH3,1,1,1
India,Karnataka,Vijayapura,"Ibrahimpur, Vijayapura - KSPCB",15-11-2025 07:00:00,16.802639,75.722694,PM10,42,43,43
India,Karnataka,Vijayapura,"Ibrahimpur, Vijayapura - KSPCB",15-11-2025 07:00:00,16.802639,75.722694,NH3,1,2,1
India,Karnataka,Yadgir,"Collector Office, Yadgir - KSPCB",15-11-2025 07:00:00,16.7602,77.1428,PM10,65,160,93
India,Karnataka,Yadgir,"Collector Office, Yadgir - KSPCB",15-11-2025 07:00:00,16.7602,77.1428,SO2,7,18,14
India,Karnataka,Bengaluru,"Jayanagar 5th Block, Bengaluru - KSPCB",15-11-2025 07:00:00,12.920984,77.584908,PM10,99,137,120
India,Karnataka,Bengaluru,"Jayanagar 5th Block, Bengaluru - KSPCB",15-11-2025 07:00:00,12.920984,77.584908,SO2,2,65,23
India,Karnataka,Bengaluru,"Peenya, Bengaluru - CPCB",15-11-2025 07:00:00,13.0270199,77.494094,CO,NA,NA,NA
India,Karnataka,Bengaluru,"RVCE-Mailasandra, Bengaluru - KSPCB",15-11-2025 07:00:00,12.921418,77.502466,PM10,69,145,122
India,Kerala,Kannur,"Thavakkara, Kannur - Kerala PCB",15-11-2025 07:00:00,11.875000,75.373200,PM2.5,42,49,46
India,Kerala,Kannur,"Thavakkara, Kannur - Kerala PCB",15-11-2025 07:00:00,11.875000,75.373200,NH3,2,2,2
India,Kerala,Kollam,"Polayathode, Kollam - Kerala PCB",15-11-2025 07:00:00,8.8787,76.6073,PM2.5,NA,NA,NA
India,Kerala,Kollam,"Polayathode, Kollam - Kerala PCB",15-11-2025 07:00:00,8.8787,76.6073,NO2,NA,NA,NA
India,Kerala,Kollam,"Polayathode, Kollam - Kerala PCB",15-11-2025 07:00:00,8.8787,76.6073,NH3,NA,NA,NA
India,Kerala,Kollam,"Polayathode, Kollam - Kerala PCB",15-11-2025 07:00:00,8.8787,76.6073,OZONE,NA,NA,NA
India,Kerala,Thiruvananthapuram,"Kariavattom, Thiruvananthapuram - Kerala PCB",15-11-2025 07:00:00,8.563700,76.886500,OZONE,36,36,36
India,Kerala,Thiruvananthapuram,"Plammoodu, Thiruvananthapuram - Kerala PCB",15-11-2025 07:00:00,8.5149093,76.9435879,PM2.5,15,50,33
India,Kerala,Thiruvananthapuram,"Plammoodu, Thiruvananthapuram - Kerala PCB",15-11-2025 07:00:00,8.5149093,76.9435879,SO2,6,22,17
India,Kerala,Thiruvananthapuram,"Plammoodu, Thiruvananthapuram - Kerala PCB",15-11-2025 07:00:00,8.5149093,76.9435879,CO,15,36,17
India,Kerala,Thrissur,"Corporation Ground, Thrissur - Kerala PCB",15-11-2025 07:00:00,10.532400,76.215900,NO2,7,8,8
India,Madhya Pradesh,Bhopal,"Idgah Hills, Bhopal - MPPCB",15-11-2025 07:00:00,23.264759,77.381568,PM2.5,80,335,179
India,Madhya Pradesh,Bhopal,"Idgah Hills, Bhopal - MPPCB",15-11-2025 07:00:00,23.264759,77.381568,NO2,15,82,28
India,Madhya Pradesh,Jabalpur,"Govindh Bhavan Colony, Jabalpur - JMC",15-11-2025 07:00:00,23.163174,79.973061,NH3,1,2,2
India,Madhya Pradesh,Jabalpur,"Govindh Bhavan Colony, Jabalpur - JMC",15-11-2025 07:00:00,23.163174,79.973061,CO,35,64,49
India,Madhya Pradesh,Jabalpur,"Govindh Bhavan Colony, Jabalpur - JMC",15-11-2025 07:00:00,23.163174,79.973061,OZONE,9,126,12
India,Madhya Pradesh,Jabalpur,"Gupteshwar, Jabalpur - JMC",15-11-2025 07:00:00,23.142888,79.916147,PM2.5,42,205,102
India,Madhya Pradesh,Jabalpur,"Gupteshwar, Jabalpur - JMC",15-11-2025 07:00:00,23.142888,79.916147,CO,22,127,76
India,Madhya Pradesh,Jabalpur,"Marhatal, Jabalpur - MPPCB",15-11-2025 07:00:00,23.168606,79.932247,NO2,22,175,80
India,Madhya Pradesh,Jabalpur,"Suhagi, Jabalpur - JMC",15-11-2025 07:00:00,23.218135,79.957770,PM10,86,196,130
India,Madhya Pradesh,Jabalpur,"Suhagi, Jabalpur - JMC",15-11-2025 07:00:00,23.218135,79.957770,SO2,5,7,6
India,Maharashtra,Amravati,"Shivneri Colony, Amravati - MPCB",15-11-2025 07:00:00,20.9402359,77.7895248,PM2.5,63,137,97
India,Maharashtra,Amravati,"Shri Shivaji Science College, Amravati - MPCB",15-11-2025 07:00:00,20.939198,77.765701,SO2,1,23,7
India,Maharashtra,Aurangabad,"MIDC Chilkalthana, Aurangabad - MPCB",15-11-2025 07:00:00,19.875620,75.387310,CO,5,81,62
India,Maharashtra,Aurangabad,"Rachnakar Colony, Aurangabad - MPCB",15-11-2025 07:00:00,19.863756,75.321188,NO2,17,24,19
India,Maharashtra,Aurangabad,"Rachnakar Colony, Aurangabad - MPCB",15-11-2025 07:00:00,19.863756,75.321188,OZONE,9,88,11
India,Madhya Pradesh,Gwalior,"Deen Dayal Nagar, Gwalior - MPPCB",15-11-2025 07:00:00,26.259242,78.216432,PM10,106,428,206
India,Madhya Pradesh,Gwalior,"Maharaj Bada, Gwalior - MPPCB",15-11-2025 07:00:00,26.200388,78.147714,CO,2,116,13
India,Madhya Pradesh,Indore,"Airport Area, Indore - IMC",15-11-2025 07:00:00,22.7289,75.8076,PM10,61,180,112
India,Madhya Pradesh,Indore,"Airport Area, Indore - IMC",15-11-2025 07:00:00,22.7289,75.8076,NO2,2,2,2
India,Madhya Pradesh,Indore,"Chhoti Gwaltoli, Indore - MPPCB",15-11-2025 07:00:00,22.4310,75.5213,PM10,72,282,126
India,Madhya Pradesh,Pithampur,"Sector-2 Industrial Area, Pithampur - MPPCB",15-11-2025 07:00:00,22.624758,75.675238,PM10,125,322,222
India,Madhya Pradesh,Pithampur,"Sector-2 Industrial Area, Pithampur - MPPCB",15-11-2025 07:00:00,22.624758,75.675238,OZONE,28,67,47
India,Madhya Pradesh,Sagar,"Civil Lines, Sagar - MPPCB",15-11-2025 07:00:00,23.838586,78.759431,PM2.5,42,201,118
India,Madhya Pradesh,Sagar,"Civil Lines, Sagar - MPPCB",15-11-2025 07:00:00,23.838586,78.759431,PM10,61,169,108
India,Madhya Pradesh,Sagar,"Civil Lines, Sagar - MPPCB",15-11-2025 07:00:00,23.838586,78.759431,NO2,8,80,24
India,Madhya Pradesh,Bhopal,"Paryavaran Parisar, Bhopal - MPPCB",15-11-2025 07:00:00,23.210494,77.425409,PM10,109,412,214
India,Madhya Pradesh,Bhopal,"T T Nagar, Bhopal - MPPCB",15-11-2025 07:00:00,23.233584,77.400574,NH3,5,6,6
India,Madhya Pradesh,Gwalior,"City Center, Gwalior - MPPCB",15-11-2025 07:00:00,26.203442,78.193251,CO,NA,NA,NA
India,Madhya Pradesh,Gwalior,"City Center, Gwalior - MPPCB",15-11-2025 07:00:00,26.203442,78.193251,OZONE,NA,NA,NA
India,Madhya Pradesh,Singrauli,"Suryakiran Bhawan NCL, Singrauli - MPPCB",15-11-2025 07:00:00,24.108970,82.645580,CO,NA,NA,NA
India,Maharashtra,Akola,"Ramdaspeth, Akola - MPCB",15-11-2025 07:00:00,20.719516,77.000253,PM10,40,223,83
India,Maharashtra,Akola,"Ramdaspeth, Akola - MPCB",15-11-2025 07:00:00,20.719516,77.000253,CO,14,110,51
India,Maharashtra,Badlapur,"Katrap, Badlapur - MPCB",15-11-2025 07:00:00,19.16485,73.23409,CO,22,73,35
India,Maharashtra,Bhiwandi,"Gokul Nagar, Bhiwandi - MPCB",15-11-2025 07:00:00,19.309073,73.057223,PM2.5,55,211,120
India,Maharashtra,Bhiwandi,"Gokul Nagar, Bhiwandi - MPCB",15-11-2025 07:00:00,19.309073,73.057223,OZONE,14,116,16
India,Madhya Pradesh,Sagar,"Civil Lines, Sagar - MPPCB",15-11-2025 07:00:00,23.838586,78.759431,CO,26,79,40
India,Madhya Pradesh,Satna,"Bandhavgar Colony, Satna - Birla Cement",15-11-2025 07:00:00,24.58434363,80.8549414,PM2.5,44,48,46
India,Maharashtra,Mumbai,"Borivali East, Mumbai - MPCB",15-11-2025 07:00:00,19.2243333,72.8658113,PM2.5,NA,NA,NA
India,Maharashtra,Mumbai,"Borivali East, Mumbai - MPCB",15-11-2025 07:00:00,19.2243333,72.8658113,PM10,NA,NA,NA
India,Maharashtra,Mumbai,"Byculla, Mumbai - BMC",15-11-2025 07:00:00,18.9767,72.8380,CO,32,107,68
India,Maharashtra,Mumbai,"Chakala-Andheri East, Mumbai - IITM",15-11-2025 07:00:00,19.11074,72.86084,PM10,115,179,141
India,Maharashtra,Mumbai,"Chakala-Andheri East, Mumbai - IITM",15-11-2025 07:00:00,19.11074,72.86084,CO,10,103,51
India,Maharashtra,Mumbai,"Chembur, Mumbai - MPCB",15-11-2025 07:00:00,19.0364585,72.8954371,SO2,2,14,7
India,Maharashtra,Mumbai,"Chembur, Mumbai - MPCB",15-11-2025 07:00:00,19.0364585,72.8954371,OZONE,1,176,2
India,Maharashtra,Mumbai,"Chhatrapati Shivaji Intl. Airport (T2), Mumbai - MPCB",15-11-2025 07:00:00,19.10078,72.87462,PM2.5,59,145,91
India,Maharashtra,Mumbai,"Chhatrapati Shivaji Intl. Airport (T2), Mumbai - MPCB",15-11-2025 07:00:00,19.10078,72.87462,NH3,1,1,1
India,Maharashtra,Mumbai,"Chhatrapati Shivaji Intl. Airport (T2), Mumbai - MPCB",15-11-2025 07:00:00,19.10078,72.87462,CO,14,21,19
India,Maharashtra,Mumbai,"Colaba, Mumbai - MPCB",15-11-2025 07:00:00,18.910000,72.820000,SO2,NA,NA,NA
India,Maharashtra,Mumbai,"Colaba, Mumbai - MPCB",15-11-2025 07:00:00,18.910000,72.820000,OZONE,11,11,11
India,Maharashtra,Mumbai,"Deonar, Mumbai - IITM",15-11-2025 07:00:00,19.04946,72.9230,PM2.5,71,263,182
India,Maharashtra,Mumbai,"Ghatkopar, Mumbai - BMC",15-11-2025 07:00:00,19.083694,72.920967,NH3,NA,NA,NA
India,Maharashtra,Mumbai,"Kandivali East, Mumbai - MPCB",15-11-2025 07:00:00,19.205800,72.868200,PM2.5,71,434,152
India,Maharashtra,Mira-Bhayandar,"Bhayandar West, Mira-Bhayandar - MPCB",15-11-2025 07:00:00,19.296481,72.840923,PM10,88,129,110
India,Maharashtra,Mumbai,"Bandra Kurla Complex, Mumbai - IITM",15-11-2025 07:00:00,19.053536,72.84643,NO2,22,53,41
India,Maharashtra,Mumbai,"Bandra Kurla Complex, Mumbai - IITM",15-11-2025 07:00:00,19.053536,72.84643,NH3,16,70,36
India,Maharashtra,Mumbai,"Bandra Kurla Complex, Mumbai - IITM",15-11-2025 07:00:00,19.053536,72.84643,SO2,4,8,6
India,Maharashtra,Mumbai,"Bandra Kurla Complex, Mumbai - MPCB",15-11-2025 07:00:00,19.065931,72.862131,SO2,2,9,6
India,Maharashtra,Mumbai,"Borivali East, Mumbai - IITM",15-11-2025 07:00:00,19.23241,72.86895,NO2,27,101,57
India,Maharashtra,Mumbai,"Borivali East, Mumbai - IITM",15-11-2025 07:00:00,19.23241,72.86895,CO,16,60,40
India,Maharashtra,Chandrapur,"Chauhan Colony, Chandrapur - MPCB",15-11-2025 07:00:00,19.962900,79.298714,NH3,2,2,2
India,Maharashtra,Chandrapur,"MIDC Khutala, Chandrapur - MPCB",15-11-2025 07:00:00,19.9775302,79.2337086,CO,34,42,37
India,Maharashtra,Dhule,"Deopur, Dhule - MPCB",15-11-2025 07:00:00,20.918946,74.776388,PM10,122,500,225
India,Maharashtra,Dhule,"Deopur, Dhule - MPCB",15-11-2025 07:00:00,20.918946,74.776388,OZONE,16,33,18
India,Maharashtra,Jalgaon,"Prabhat Colony, Jalgaon - MPCB",15-11-2025 07:00:00,21.001264,75.565602,PM10,69,254,116
India,Maharashtra,Mumbai,"Kandivali West, Mumbai - BMC",15-11-2025 07:00:00,19.215859,72.831718,PM10,65,125,87
India,Maharashtra,Mumbai,"Kandivali West, Mumbai - BMC",15-11-2025 07:00:00,19.215859,72.831718,SO2,4,14,7
India,Maharashtra,Mumbai,"Kandivali West, Mumbai - BMC",15-11-2025 07:00:00,19.215859,72.831718,CO,10,88,44
India,Maharashtra,Mumbai,"Kandivali West, Mumbai - BMC",15-11-2025 07:00:00,19.215859,72.831718,OZONE,3,74,11
India,Maharashtra,Mumbai,"Khindipada-Bhandup West, Mumbai - IITM",15-11-2025 07:00:00,19.1653323,72.922099,NO2,14,70,27
India,Maharashtra,Mumbai,"Kurla, Mumbai - MPCB",15-11-2025 07:00:00,19.0863,72.8888,CO,9,27,23
India,Maharashtra,Mumbai,"Powai, Mumbai - MPCB",15-11-2025 07:00:00,19.137500,72.915056,SO2,28,29,28
India,Maharashtra,Mumbai,"Sewri, Mumbai - BMC",15-11-2025 07:00:00,19.000084,72.856730,NO2,NA,NA,NA
India,Maharashtra,Mumbai,"Siddharth Nagar-Worli, Mumbai - IITM",15-11-2025 07:00:00,19.000083,72.813993,PM2.5,117,199,159
India,Maharashtra,Mumbai,"Siddharth Nagar-Worli, Mumbai - IITM",15-11-2025 07:00:00,19.000083,72.813993,NO2,55,173,101
India,Maharashtra,Mumbai,"Sion, Mumbai - MPCB",15-11-2025 07:00:00,19.047000,72.874600,SO2,10,10,10
India,Maharashtra,Mumbai,"Sion, Mumbai - MPCB",15-11-2025 07:00:00,19.047000,72.874600,CO,8,16,16
India,Maharashtra,Kolhapur,"Sinchan Bhavan, Kolhapur - MPCB",15-11-2025 07:00:00,16.7143745,74.2426398,NH3,6,32,13
India,Maharashtra,Kolhapur,"Sinchan Bhavan, Kolhapur - MPCB",15-11-2025 07:00:00,16.7143745,74.2426398,OZONE,5,63,16
India,Maharashtra,Latur,"Sawe Wadi, Latur - MPCB",15-11-2025 07:00:00,18.39963,76.57452,PM2.5,78,118,99
India,Maharashtra,Jalgaon,"Prabhat Colony, Jalgaon - MPCB",15-11-2025 07:00:00,21.001264,75.565602,NO2,5,41,13
India,Maharashtra,Jalgaon,"Prabhat Colony, Jalgaon - MPCB",15-11-2025 07:00:00,21.001264,75.565602,NH3,2,3,2
India,Maharashtra,Kalyan,"Pimpleshwar Mandir, Kalyan - MPCB",15-11-2025 07:00:00,19.192056,72.9585188,NO2,NA,NA,NA
India,Maharashtra,Mumbai,"Mulund West, Mumbai - MPCB",15-11-2025 07:00:00,19.1750,72.9419,PM10,108,151,127
India,Maharashtra,Pune,"Katraj Dairy, Pune - MPCB",15-11-2025 07:00:00,18.454450,73.854155,NH3,NA,NA,NA
India,Maharashtra,Pune,"Mhada Colony, Pune - IITM",15-11-2025 07:00:00,18.573040,73.927715,PM2.5,32,123,78
India,Maharashtra,Pune,"Mhada Colony, Pune - IITM",15-11-2025 07:00:00,18.573040,73.927715,PM10,119,186,152
India,Maharashtra,Pune,"Mhada Colony, Pune - IITM",15-11-2025 07:00:00,18.573040,73.927715,OZONE,10,138,20
India,Maharashtra,Pune,"Panchawati_Pashan, Pune - IITM",15-11-2025 07:00:00,18.536457,73.805454,PM10,64,113,85
India,Maharashtra,Pune,"Revenue Colony-Shivajinagar, Pune - IITM",15-11-2025 07:00:00,18.530085,73.849598,PM2.5,101,302,198
India,Maharashtra,Pune,"Revenue Colony-Shivajinagar, Pune - IITM",15-11-2025 07:00:00,18.530085,73.849598,CO,61,160,109
India,Maharashtra,Pune,"Savitribai Phule Pune University, Pune - MPCB",15-11-2025 07:00:00,18.547056,73.826908,PM2.5,25,78,51
India,Maharashtra,Navi Mumbai,"Sector-2E Kalamboli, Navi Mumbai - MPCB",15-11-2025 07:00:00,19.02579,73.10297,SO2,1,7,3
India,Maharashtra,Navi Mumbai,"Tondare-Taloja, Navi Mumbai - MPCB",15-11-2025 07:00:00,19.0630,73.1209,PM2.5,55,161,90
India,Maharashtra,Pimpri-Chinchwad,"Gavalinagar, Pimpri Chinchwad - MPCB",15-11-2025 07:00:00,18.63673,73.82487,PM2.5,84,241,152
India,Maharashtra,Pimpri-Chinchwad,"Gavalinagar, Pimpri Chinchwad - MPCB",15-11-2025 07:00:00,18.63673,73.82487,PM10,115,325,161
India,Maharashtra,Pimpri-Chinchwad,"Gavalinagar, Pimpri Chinchwad - MPCB",15-11-2025 07:00:00,18.63673,73.82487,NH3,9,39,14
India,Maharashtra,Pimpri-Chinchwad,"Gavalinagar, Pimpri Chinchwad - MPCB",15-11-2025 07:00:00,18.63673,73.82487,OZONE,1,108,16
India,Maharashtra,Pimpri-Chinchwad,"Park Street Wakad, Pimpri Chinchwad - MPCB",15-11-2025 07:00:00,18.59051,73.77946,NO2,39,102,61
India,Maharashtra,Nagpur,"Mahal, Nagpur - MPCB",15-11-2025 07:00:00,21.14472,79.107595,NO2,22,113,56
India,Maharashtra,Nagpur,"Mahal, Nagpur - MPCB",15-11-2025 07:00:00,21.14472,79.107595,SO2,1,69,39
India,Maharashtra,Nagpur,"Opp GPO Civil Lines, Nagpur - MPCB",15-11-2025 07:00:00,21.152875,79.0517531,PM10,109,167,131
India,Maharashtra,Nagpur,"Opp GPO Civil Lines, Nagpur - MPCB",15-11-2025 07:00:00,21.152875,79.0517531,SO2,1,46,17
India,Maharashtra,Nagpur,"Opp GPO Civil Lines, Nagpur - MPCB",15-11-2025 07:00:00,21.152875,79.0517531,CO,17,118,65
India,Maharashtra,Nanded,"Sneh Nagar, Nanded - MPCB",15-11-2025 07:00:00,19.173852,77.296291,PM2.5,2,191,113
India,Maharashtra,Nanded,"Sneh Nagar, Nanded - MPCB",15-11-2025 07:00:00,19.173852,77.296291,NO2,10,36,21
India,Maharashtra,Nanded,"Sneh Nagar, Nanded - MPCB",15-11-2025 07:00:00,19.173852,77.296291,OZONE,12,100,38
India,Maharashtra,Mumbai,"Vile Parle West, Mumbai - MPCB",15-11-2025 07:00:00,19.10861,72.83622,PM10,100,133,115
India,Maharashtra,Mumbai,"Vile Parle West, Mumbai - MPCB",15-11-2025 07:00:00,19.10861,72.83622,CO,24,26,24
India,Maharashtra,Mumbai,"Worli, Mumbai - MPCB",15-11-2025 07:00:00,18.9936162,72.8128113,SO2,17,25,20
India,Maharashtra,Mumbai,"Worli, Mumbai - MPCB",15-11-2025 07:00:00,18.9936162,72.8128113,CO,5,20,11
India,Maharashtra,Nagpur,"Ambazari, Nagpur - MPCB",15-11-2025 07:00:00,21.121801,79.04952,PM2.5,98,248,167
India,Maharashtra,Nagpur,"Ambazari, Nagpur - MPCB",15-11-2025 07:00:00,21.121801,79.04952,PM10,106,137,120
India,Maharashtra,Nagpur,"Ambazari, Nagpur - MPCB",15-11-2025 07:00:00,21.121801,79.04952,CO,17,90,43
India,Maharashtra,Pimpri-Chinchwad,"Park Street Wakad, Pimpri Chinchwad - MPCB",15-11-2025 07:00:00,18.59051,73.77946,CO,23,127,112
India,Maharashtra,Pimpri-Chinchwad,"Savta Mali Nagar, Pimpri-Chinchwad - IITM",15-11-2025 07:00:00,18.614767,73.799516,CO,52,108,88
India,Maharashtra,Pune,"Bhumkar Nagar, Pune - IITM",15-11-2025 07:00:00,18.605770,73.749976,OZONE,2,34,11
India,Maharashtra,Pune,"Dhankawadi, Pune - IITM",15-11-2025 07:00:00,18.459883,73.852193,PM2.5,65,221,118
India,Maharashtra,Pune,"Dhankawadi, Pune - IITM",15-11-2025 07:00:00,18.459883,73.852193,NO2,1,3,2
India,Maharashtra,Navi Mumbai,"Kopripada-Vashi, Navi Mumbai - MPCB",15-11-2025 07:00:00,19.090337,73.014232,SO2,14,36,20
India,Maharashtra,Navi Mumbai,"Mahape, Navi Mumbai - MPCB",15-11-2025 07:00:00,19.1135051,73.008978,NH3,3,3,3
India,Maharashtra,Navi Mumbai,"Mahape, Navi Mumbai - MPCB",15-11-2025 07:00:00,19.1135051,73.008978,CO,22,159,159
India,Maharashtra,Navi Mumbai,"Sector-2E Kalamboli, Navi Mumbai - MPCB",15-11-2025 07:00:00,19.02579,73.10297,PM2.5,17,271,124
India,Maharashtra,Navi Mumbai,"Sector-2E Kalamboli, Navi Mumbai - MPCB",15-11-2025 07:00:00,19.02579,73.10297,PM10,15,253,119
India,Maharashtra,Navi Mumbai,"Sector-2E Kalamboli, Navi Mumbai - MPCB",15-11-2025 07:00:00,19.02579,73.10297,NO2,9,207,58
India,Maharashtra,Nashik,"Gangapur Road, Nashik - MPCB",15-11-2025 07:00:00,20.0073285,73.7762427,NH3,4,4,4
India,Maharashtra,Nashik,"Gangapur Road, Nashik - MPCB",15-11-2025 07:00:00,20.0073285,73.7762427,CO,31,34,32
India,Maharashtra,Nashik,"Hirawadi, Nashik - MPCB",15-11-2025 07:00:00,20.021503,73.813844,CO,30,78,45
India,Maharashtra,Nashik,"Hirawadi, Nashik - MPCB",15-11-2025 07:00:00,20.021503,73.813844,OZONE,4,77,34
India,Maharashtra,Nashik,"Pandav Nagari, Nashik - MPCB",15-11-2025 07:00:00,19.9591346,73.7788008,PM10,89,153,116
India,Maharashtra,Nashik,"Pandav Nagari, Nashik - MPCB",15-11-2025 07:00:00,19.9591346,73.7788008,SO2,1,7,4
India,Maharashtra,Sangli,"Vijay Nagar, Sangli - MPCB",15-11-2025 07:00:00, 16.5038,74.3623,PM10,113,195,157
India,Maharashtra,Sangli,"Vijay Nagar, Sangli - MPCB",15-11-2025 07:00:00, 16.5038,74.3623,SO2,5,10,7
India,Maharashtra,Solapur,"Dnyaneshwar Nagar, Solapur - MPCB",15-11-2025 07:00:00,17.6336264,75.9132495,CO,16,43,26
India,Maharashtra,Solapur,"Dnyaneshwar Nagar, Solapur - MPCB",15-11-2025 07:00:00,17.6336264,75.9132495,OZONE,39,86,65
India,Maharashtra,Solapur,"Ratandeep Housing Society, Solapur - MPCB",15-11-2025 07:00:00,17.65439,75.90649,NH3,2,17,4
India,Maharashtra,Mumbai,"Vasai West, Mumbai - MPCB",15-11-2025 07:00:00,19.383200,72.820400,NO2,16,30,24
India,Maharashtra,Mumbai,"Vasai West, Mumbai - MPCB",15-11-2025 07:00:00,19.383200,72.820400,NH3,2,5,4
India,Punjab,Ludhiana,"Punjab Agricultural University, Ludhiana - PPCB",15-11-2025 07:00:00,30.9028,75.8086,SO2,11,30,21
India,Punjab,Ludhiana,"Punjab Agricultural University, Ludhiana - PPCB",15-11-2025 07:00:00,30.9028,75.8086,OZONE,12,23,15
India,Punjab,Mandi Gobindgarh,"RIMT University, Mandi Gobindgarh - PPCB",15-11-2025 07:00:00,30.649961,76.331442,PM2.5,159,367,260
India,Punjab,Mandi Gobindgarh,"RIMT University, Mandi Gobindgarh - PPCB",15-11-2025 07:00:00,30.649961,76.331442,NO2,23,24,24
India,Punjab,Patiala,"Model Town, Patiala - PPCB",15-11-2025 07:00:00,30.349388,76.366642,SO2,20,74,37
India,Punjab,Patiala,"Model Town, Patiala - PPCB",15-11-2025 07:00:00,30.349388,76.366642,CO,26,98,50
India,Punjab,Rupnagar,"Ratanpura, Rupnagar - Ambuja Cements",15-11-2025 07:00:00,31.0325454,76.5623046,PM2.5,24,132,56
India,Rajasthan,Ajmer,"Civil Lines,  Ajmer - RSPCB",15-11-2025 07:00:00,26.470859,74.646594,PM10,50,134,92
India,Rajasthan,Ajmer,"Civil Lines,  Ajmer - RSPCB",15-11-2025 07:00:00,26.470859,74.646594,CO,12,60,42
India,Maharashtra,Solapur,"Ratandeep Housing Society, Solapur - MPCB",15-11-2025 07:00:00,17.65439,75.90649,SO2,1,15,5
India,Maharashtra,Solapur,"Ratandeep Housing Society, Solapur - MPCB",15-11-2025 07:00:00,17.65439,75.90649,OZONE,2,85,57
India,Maharashtra,Thane,"Kasarvadavali, Thane - MPCB",15-11-2025 07:00:00,19.26777,72.97182,NO2,14,93,45
India,Maharashtra,Thane,"Kasarvadavali, Thane - MPCB",15-11-2025 07:00:00,19.26777,72.97182,SO2,2,4,3
India,Maharashtra,Thane,"Kasarvadavali, Thane - MPCB",15-11-2025 07:00:00,19.26777,72.97182,OZONE,1,91,2
India,Maharashtra,Thane,"Upvan Fort, Thane - MPCB",15-11-2025 07:00:00,19.222279,72.957979,OZONE,21,88,43
India,Maharashtra,Ulhasnagar,"Sidhi Vinayak Nagar, Ulhasnagar - MPCB",15-11-2025 07:00:00,19.235581,73.159121,PM10,104,356,138
India,Maharashtra,Ulhasnagar,"Sidhi Vinayak Nagar, Ulhasnagar - MPCB",15-11-2025 07:00:00,19.235581,73.159121,CO,18,48,39
India,Maharashtra,Ulhasnagar,"Sidhi Vinayak Nagar, Ulhasnagar - MPCB",15-11-2025 07:00:00,19.235581,73.159121,OZONE,13,95,15
India,Odisha,Bhubaneswar,"Patia, Bhubaneswar - OSPCB",15-11-2025 07:00:00,20.34652,85.81630,OZONE,3,192,33
India,Odisha,Bileipada,"Tata Township, Bileipada - OSPCB",15-11-2025 07:00:00,22.06156703,85.47409613,CO,28,43,32
India,Odisha,Bileipada,"Tata Township, Bileipada - OSPCB",15-11-2025 07:00:00,22.06156703,85.47409613,OZONE,10,13,12
India,Odisha,Brajrajnagar,"GM Office, Brajrajnagar - OSPCB",15-11-2025 07:00:00,21.8004996,83.8396977,PM2.5,34,210,74
India,Odisha,Byasanagar,"Ferro Chrome Colony, Byasanagar - OSPCB",15-11-2025 07:00:00,20.94185,86.11510,PM2.5,92,308,180
India,Odisha,Byasanagar,"Ferro Chrome Colony, Byasanagar - OSPCB",15-11-2025 07:00:00,20.94185,86.11510,NO2,9,36,17
India,Odisha,Byasanagar,"Ferro Chrome Colony, Byasanagar - OSPCB",15-11-2025 07:00:00,20.94185,86.11510,CO,16,171,91
India,Odisha,Angul,"Hakimapada, Angul - OSPCB",15-11-2025 07:00:00,20.832874,85.104082,CO,22,82,42
India,Odisha,Balasore,"Kalidaspur, Balasore - OSPCB",15-11-2025 07:00:00,21.51161,86.89088,NH3,2,3,2
India,Odisha,Barbil,"Forest Office, Barbil - OSPCB",15-11-2025 07:00:00,22.1166054,85.3945546,NH3,3,4,3
India,Odisha,Bhubaneswar,"Lingraj Mandir, Bhubaneswar - OSPCB",15-11-2025 07:00:00,20.240790,85.836784,PM2.5,190,391,289
India,Odisha,Bhubaneswar,"Lingraj Mandir, Bhubaneswar - OSPCB",15-11-2025 07:00:00,20.240790,85.836784,PM10,113,416,196
India,Odisha,Bhubaneswar,"Lingraj Mandir, Bhubaneswar - OSPCB",15-11-2025 07:00:00,20.240790,85.836784,NO2,24,180,84
India,Odisha,Bhubaneswar,"Lingraj Mandir, Bhubaneswar - OSPCB",15-11-2025 07:00:00,20.240790,85.836784,SO2,10,89,25
India,Odisha,Talcher,"Talcher Coalfields,Talcher - OSPCB",15-11-2025 07:00:00,20.9360711,85.1707021,PM2.5,45,322,191
India,Odisha,Talcher,"Talcher Coalfields,Talcher - OSPCB",15-11-2025 07:00:00,20.9360711,85.1707021,NH3,5,7,5
India,Odisha,Talcher,"Talcher Coalfields,Talcher - OSPCB",15-11-2025 07:00:00,20.9360711,85.1707021,CO,46,104,98
India,Odisha,Tensa,"Barsua Iron Ore Mines, Tensa - OSPCB",15-11-2025 07:00:00,21.869985,85.167016,PM2.5,NA,NA,NA
India,Odisha,Tensa,"Barsua Iron Ore Mines, Tensa - OSPCB",15-11-2025 07:00:00,21.869985,85.167016,OZONE,14,56,19
India,Puducherry,Puducherry,"Jawahar Nagar, Puducherry - PPCC",15-11-2025 07:00:00,11.9309,79.8027,SO2,1,10,8
India,Maharashtra,Virar,"Bolinj, Virar - MPCB",15-11-2025 07:00:00,19.4458210,72.7988231,SO2,NA,NA,NA
India,Meghalaya,Shillong,"Lumpyngngad, Shillong - Meghalaya PCB",15-11-2025 07:00:00,25.5586,91.8985,PM10,4,29,12
India,Meghalaya,Shillong,"Lumpyngngad, Shillong - Meghalaya PCB",15-11-2025 07:00:00,25.5586,91.8985,SO2,6,7,6
India,Nagaland,Kohima,"PWD Junction, Kohima - NPCB",15-11-2025 07:00:00,25.6635413,94.0989878,NH3,1,1,1
India,Punjab,Amritsar,"Golden Temple, Amritsar - PPCB",15-11-2025 07:00:00,31.620000,74.876512,CO,25,121,43
India,Punjab,Khanna,"Kalal Majra, Khanna - PPCB",15-11-2025 07:00:00,30.736056 ,76.209694,NH3,7,8,7
India,Punjab,Khanna,"Kalal Majra, Khanna - PPCB",15-11-2025 07:00:00,30.736056 ,76.209694,SO2,13,75,28
India,Punjab,Khanna,"Kalal Majra, Khanna - PPCB",15-11-2025 07:00:00,30.736056 ,76.209694,CO,14,59,32
India,Rajasthan,Ajmer,"Civil Lines,  Ajmer - RSPCB",15-11-2025 07:00:00,26.470859,74.646594,OZONE,13,151,54
India,Rajasthan,Alwar,"Moti Doongri, Alwar - RSPCB",15-11-2025 07:00:00,27.554793,76.611536,SO2,15,63,29
India,Rajasthan,Banswara,"Rati Talai, Banswara - RSPCB",15-11-2025 07:00:00,23.555190,74.440010,CO,20,76,24
India,Odisha,Nayagarh,"Dabuna, Nayagarh - OSPCB",15-11-2025 07:00:00,21.847279,85.416905,OZONE,9,44,10
India,Odisha,Rairangpur,"Divisional Forest Office, Rairangpur - OSPCB",15-11-2025 07:00:00,22.265816,86.174829,NO2,8,8,8
India,Rajasthan,Jaipur,"Shastri Nagar, Jaipur - RSPCB",15-11-2025 07:00:00,26.9502929,75.730943,CO,36,136,61
India,Rajasthan,Jaipur,"Shastri Nagar, Jaipur - RSPCB",15-11-2025 07:00:00,26.9502929,75.730943,OZONE,12,50,19
India,Rajasthan,Jaisalmer,"Sadar Bazar, Jaisalmer - RSPCB",15-11-2025 07:00:00,26.912329,70.909168,PM2.5,13,311,65
India,Rajasthan,Jalore,"Mudtra Sili, Jalore - RSPCB",15-11-2025 07:00:00,25.344694,72.626208,NH3,3,7,5
India,Rajasthan,Jalore,"Mudtra Sili, Jalore - RSPCB",15-11-2025 07:00:00,25.344694,72.626208,SO2,3,6,4
India,Rajasthan,Jalore,"Mudtra Sili, Jalore - RSPCB",15-11-2025 07:00:00,25.344694,72.626208,OZONE,4,106,25
India,Rajasthan,Jhalawar,"Rajlaxmi Nagar, Jhalawar - RSPCB",15-11-2025 07:00:00,24.588397,76.172782,NH3,3,5,4
India,Rajasthan,Pratapgarh,"Pragati Nagar, Pratapgarh - RSPCB",15-11-2025 07:00:00,24.041198,74.780702,OZONE,23,145,65
India,Rajasthan,Rajsamand,"Dhoinda, Rajsamand - RSPCB",15-11-2025 07:00:00,25.036360,73.883502,PM2.5,13,153,48
India,Rajasthan,Rajsamand,"Dhoinda, Rajsamand - RSPCB",15-11-2025 07:00:00,25.036360,73.883502,NO2,7,50,22
India,Rajasthan,Sikar,"Radhakishan Pura, Sikar - RSPCB",15-11-2025 07:00:00,27.608912,75.153302,PM10,84,462,220
India,Rajasthan,Sikar,"Radhakishan Pura, Sikar - RSPCB",15-11-2025 07:00:00,27.608912,75.153302,CO,22,119,60
India,Rajasthan,Sirohi,"Vedhaynath Colony, Sirohi - RSPCB",15-11-2025 07:00:00,24.885261,72.857549,NH3,1,3,2
India,Rajasthan,Dungarpur,"Bhoiwada, Dungarpur - RSPCB",15-11-2025 07:00:00,23.837789,73.714926,PM10,50,161,97
India,Rajasthan,Hanumangarh,"Housing Board, Hanumangarh - RSPCB",15-11-2025 07:00:00,29.610750,74.283608,PM10,21,128,84
India,Rajasthan,Hanumangarh,"Housing Board, Hanumangarh - RSPCB",15-11-2025 07:00:00,29.610750,74.283608,NO2,9,68,30
India,Rajasthan,Jaipur,"Adarsh Nagar, Jaipur - RSPCB",15-11-2025 07:00:00,26.902909,75.836858,PM10,83,212,133
India,Rajasthan,Jaipur,"Adarsh Nagar, Jaipur - RSPCB",15-11-2025 07:00:00,26.902909,75.836858,SO2,12,35,23
India,Rajasthan,Jaipur,"Mansarovar Sector-12, Jaipur - RSPCB",15-11-2025 07:00:00,26.843698,75.766894,PM2.5,28,358,181
India,Rajasthan,Chittorgarh,"Shastri Nagar, Chittorgarh - RSPCB",15-11-2025 07:00:00,24.892047,74.623527,PM10,39,178,104
India,Rajasthan,Chittorgarh,"Shastri Nagar, Chittorgarh - RSPCB",15-11-2025 07:00:00,24.892047,74.623527,NH3,1,4,3
India,Rajasthan,Chittorgarh,"Shastri Nagar, Chittorgarh - RSPCB",15-11-2025 07:00:00,24.892047,74.623527,CO,3,183,12
India,Rajasthan,Chittorgarh,"Shastri Nagar, Chittorgarh - RSPCB",15-11-2025 07:00:00,24.892047,74.623527,OZONE,1,93,1
India,Rajasthan,Churu,"Subash Chowk, Churu - RSPCB",15-11-2025 07:00:00,28.296139,74.961696,PM10,91,468,222
India,Rajasthan,Churu,"Subash Chowk, Churu - RSPCB",15-11-2025 07:00:00,28.296139,74.961696,NH3,3,9,5
India,Rajasthan,Churu,"Subash Chowk, Churu - RSPCB",15-11-2025 07:00:00,28.296139,74.961696,SO2,4,25,11
India,Rajasthan,Churu,"Subash Chowk, Churu - RSPCB",15-11-2025 07:00:00,28.296139,74.961696,CO,1,119,73
India,Rajasthan,Jodhpur,"Mandor, Jodhpur - RSPCB",15-11-2025 07:00:00,26.358805,73.047444,PM2.5,17,120,65
India,Rajasthan,Jodhpur,"Mandor, Jodhpur - RSPCB",15-11-2025 07:00:00,26.358805,73.047444,PM10,54,194,107
India,Rajasthan,Jodhpur,"Mandor, Jodhpur - RSPCB",15-11-2025 07:00:00,26.358805,73.047444,NH3,3,15,6
India,Rajasthan,Jodhpur,"Mandor, Jodhpur - RSPCB",15-11-2025 07:00:00,26.358805,73.047444,SO2,3,18,6
India,Rajasthan,Jodhpur,"Mandor, Jodhpur - RSPCB",15-11-2025 07:00:00,26.358805,73.047444,OZONE,4,112,19
India,Rajasthan,Karauli,"Satyawati Vihar, Karauli - RSPCB",15-11-2025 07:00:00,26.506177,77.025989,SO2,5,9,7
India,Rajasthan,Kota,"Dhanmandi, Kota - RSPCB",15-11-2025 07:00:00,25.164090,75.858137,NO2,24,115,72
India,Rajasthan,Jaipur,"Mansarovar Sector-12, Jaipur - RSPCB",15-11-2025 07:00:00,26.843698,75.766894,NO2,9,139,78
India,Rajasthan,Jaipur,"Mansarovar Sector-12, Jaipur - RSPCB",15-11-2025 07:00:00,26.843698,75.766894,NH3,7,12,9
India,Rajasthan,Jaipur,"Mansarovar Sector-12, Jaipur - RSPCB",15-11-2025 07:00:00,26.843698,75.766894,OZONE,1,151,3
India,Rajasthan,Jaipur,"RIICO Sitapura, Jaipur - RSPCB",15-11-2025 07:00:00,26.786682,75.827928,PM10,87,434,192
India,Rajasthan,Jaipur,"RIICO Sitapura, Jaipur - RSPCB",15-11-2025 07:00:00,26.786682,75.827928,SO2,4,6,5
India,Rajasthan,Jaipur,"Sector-2 Murlipura, Jaipur - RSPCB",15-11-2025 07:00:00,26.960669,75.771817,CO,24,82,44
India,Rajasthan,Bharatpur,"Krishna Nagar, Bharatpur - RSPCB",15-11-2025 07:00:00,27.215415,77.50873,NO2,25,133,64
India,Rajasthan,Bharatpur,"Krishna Nagar, Bharatpur - RSPCB",15-11-2025 07:00:00,27.215415,77.50873,SO2,4,16,10
India,Rajasthan,Bhiwadi,"RIICO Ind. Area III, Bhiwadi - RSPCB",15-11-2025 07:00:00,28.194909,76.862296,PM10,151,401,229
India,Rajasthan,Bhiwadi,"RIICO Ind. Area III, Bhiwadi - RSPCB",15-11-2025 07:00:00,28.194909,76.862296,NO2,18,91,51
India,Rajasthan,Pali,"Indira Colony Vistar, Pali - RSPCB",15-11-2025 07:00:00,25.771061, 73.340227,PM10,73,169,103
India,Rajasthan,Pali,"Indira Colony Vistar, Pali - RSPCB",15-11-2025 07:00:00,25.771061, 73.340227,OZONE,8,66,9
India,Rajasthan,Pratapgarh,"Pragati Nagar, Pratapgarh - RSPCB",15-11-2025 07:00:00,24.041198,74.780702,PM2.5,32,92,57
India,Rajasthan,Jodhpur,"Collectorate, Jodhpur - RSPCB",15-11-2025 07:00:00,26.268249,73.0193853,CO,14,133,83
India,Rajasthan,Jodhpur,"Digari Kalan, Jodhpur - RSPCB",15-11-2025 07:00:00,26.295810,73.082283,PM2.5,13,133,64
India,Rajasthan,Jodhpur,"Digari Kalan, Jodhpur - RSPCB",15-11-2025 07:00:00,26.295810,73.082283,NH3,5,14,8
India,TamilNadu,Cuddalore,"Semmandalam, Cuddalore - TNPCB",15-11-2025 07:00:00,11.7637683,79.7499835,NH3,1,3,2
India,TamilNadu,Cuddalore,"Semmandalam, Cuddalore - TNPCB",15-11-2025 07:00:00,11.7637683,79.7499835,OZONE,1,2,2
India,TamilNadu,Dindigul,"Mendonsa Colony, Dindigul - TNPCB",15-11-2025 07:00:00,10.358535,77.984321,PM10,55,83,70
India,TamilNadu,Gummidipoondi,"Anthoni Pillai Nagar, Gummidipoondi - TNPCB",15-11-2025 07:00:00,13.4127,80.1081,NO2,4,46,20
India,TamilNadu,Gummidipoondi,"Anthoni Pillai Nagar, Gummidipoondi - TNPCB",15-11-2025 07:00:00,13.4127,80.1081,NH3,1,3,2
India,TamilNadu,Gummidipoondi,"Anthoni Pillai Nagar, Gummidipoondi - TNPCB",15-11-2025 07:00:00,13.4127,80.1081,SO2,28,111,53
India,TamilNadu,Kanchipuram,"Kilambi, Kanchipuram - TNPCB",15-11-2025 07:00:00,12.864618,79.659968,PM10,10,47,31
India,TamilNadu,Kanchipuram,"Kilambi, Kanchipuram - TNPCB",15-11-2025 07:00:00,12.864618,79.659968,SO2,9,12,10
India,Telangana,Hyderabad,"ECIL Kapra, Hyderabad - TSPCB",15-11-2025 07:00:00,17.470431,78.566959,PM2.5,46,47,46
India,Telangana,Hyderabad,"ECIL Kapra, Hyderabad - TSPCB",15-11-2025 07:00:00,17.470431,78.566959,NH3,3,4,3
India,Telangana,Hyderabad,"ECIL Kapra, Hyderabad - TSPCB",15-11-2025 07:00:00,17.470431,78.566959,SO2,7,18,10
India,Telangana,Hyderabad,"ICRISAT Patancheru, Hyderabad - TSPCB",15-11-2025 07:00:00,17.518400,78.278777,PM10,86,159,136
India,Telangana,Hyderabad,"ICRISAT Patancheru, Hyderabad - TSPCB",15-11-2025 07:00:00,17.518400,78.278777,NO2,8,22,13
India,Telangana,Hyderabad,"ICRISAT Patancheru, Hyderabad - TSPCB",15-11-2025 07:00:00,17.518400,78.278777,SO2,7,49,16
India,Telangana,Hyderabad,"IDA Pashamylaram, Hyderabad - TSPCB",15-11-2025 07:00:00,17.5316895,78.218939,NH3,1,10,3
India,Telangana,Hyderabad,"IDA Pashamylaram, Hyderabad - TSPCB",15-11-2025 07:00:00,17.5316895,78.218939,SO2,1,19,6
India,Telangana,Hyderabad,"IITH Kandi, Hyderabad - TSPCB",15-11-2025 07:00:00,17.585705,78.126199,PM2.5,NA,NA,NA
India,TamilNadu,Palkalaiperur,"Bharathidasan University, Palkalaiperur - TNPCB",15-11-2025 07:00:00,10.681158,78.741746,OZONE,1,15,1
India,TamilNadu,Perundurai,"SIPCOT Industrial Park, Perundurai - TNPCB",15-11-2025 07:00:00,11.258242,77.552761,OZONE,1,14,9
India,TamilNadu,Ramanathapuram,"Chalai Bazaar, Ramanathapuram - TNPCB",15-11-2025 07:00:00,9.36399,78.831977,NO2,10,10,10
India,TamilNadu,Ramanathapuram,"Chalai Bazaar, Ramanathapuram - TNPCB",15-11-2025 07:00:00,9.36399,78.831977,NH3,3,3,3
India,TamilNadu,Thanjavur,"Parisutham Nagar, Thanjavur - TNPCB",15-11-2025 07:00:00,10.7654824,79.1389968,PM2.5,52,75,66
India,TamilNadu,Thanjavur,"Parisutham Nagar, Thanjavur - TNPCB",15-11-2025 07:00:00,10.7654824,79.1389968,PM10,68,98,86
India,TamilNadu,Thanjavur,"Parisutham Nagar, Thanjavur - TNPCB",15-11-2025 07:00:00,10.7654824,79.1389968,NH3,1,1,1
India,TamilNadu,Thanjavur,"Parisutham Nagar, Thanjavur - TNPCB",15-11-2025 07:00:00,10.7654824,79.1389968,SO2,16,17,17
India,TamilNadu,Thoothukudi,"Meelavittan, Thoothukudi - TNPCB",15-11-2025 07:00:00,8.816428 ,78.099039,PM10,47,116,73
India,TamilNadu,Tiruchirappalli,"St Joseph College, Tiruchirappalli - TNPCB",15-11-2025 07:00:00,10.830158,78.691849,NO2,3,6,4
India,TamilNadu,Tirupur,"Kumaran College, Tirupur - TNPCB",15-11-2025 07:00:00,11.0973603,77.3228673,PM2.5,78,217,115
India,TamilNadu,Vellore,"Vasanthapuram, Vellore - TNPCB",15-11-2025 07:00:00,12.909494,79.131861,CO,8,8,8
India,TamilNadu,Ariyalur,"Keelapalur, Ariyalur - TNPCB",15-11-2025 07:00:00,11.06825,79.07033,SO2,13,13,13
India,TamilNadu,Chennai,"Alandur Bus Depot, Chennai - CPCB",15-11-2025 07:00:00,12.9099161,80.1076538,NO2,25,41,31
India,TamilNadu,Chennai,"Alandur Bus Depot, Chennai - CPCB",15-11-2025 07:00:00,12.9099161,80.1076538,SO2,15,16,15
India,TamilNadu,Chennai,"Alandur Bus Depot, Chennai - CPCB",15-11-2025 07:00:00,12.9099161,80.1076538,CO,11,22,18
India,TamilNadu,Chennai,"Kodungaiyur, Chennai - TNPCB",15-11-2025 07:00:00,13.1278,80.2642,PM2.5,76,260,139
India,TamilNadu,Chennai,"Manali Village, Chennai - TNPCB",15-11-2025 07:00:00,13.1662,80.2584,PM10,4,130,102
India,TamilNadu,Chennai,"Manali Village, Chennai - TNPCB",15-11-2025 07:00:00,13.1662,80.2584,CO,38,49,48
India,TamilNadu,Chennai,"Manali, Chennai - CPCB",15-11-2025 07:00:00,13.164544,80.26285,CO,12,36,25
India,TamilNadu,Chennai,"Perungudi, Chennai - TNPCB",15-11-2025 07:00:00,12.9533,80.2357,PM2.5,75,167,114
India,TamilNadu,Chennai,"Velachery Res. Area, Chennai - CPCB",15-11-2025 07:00:00,13.0052189,80.2398125,SO2,12,16,14
India,TamilNadu,Coimbatore,"PSG College of Arts and Science, Coimbatore - TNPCB",15-11-2025 07:00:00,11.0328,77.0349,NO2,10,11,11
India,Rajasthan,Sri Ganganagar,"Old City, Sri Ganganagar - RSPCB",15-11-2025 07:00:00,29.931624,73.864511,PM2.5,35,326,144
India,Rajasthan,Sri Ganganagar,"Old City, Sri Ganganagar - RSPCB",15-11-2025 07:00:00,29.931624,73.864511,OZONE,1,169,1
India,Rajasthan,Tonk,"Shastri Nagar, Tonk - RSPCB",15-11-2025 07:00:00,26.159933,75.780517,CO,6,126,19
India,Rajasthan,Udaipur,"Ashok Nagar, Udaipur - RSPCB",15-11-2025 07:00:00,24.5886166,73.6321397,OZONE,3,65,7
India,Sikkim,Gangtok,"Zero Point GICI, Gangtok - SSPCB",15-11-2025 07:00:00,27.338530,88.614099,NO2,6,7,6
India,TamilNadu,Karur,"Kamadenu Nagar, Karur - TNPCB",15-11-2025 07:00:00,10.967820,78.080882,SO2,14,16,15
India,TamilNadu,Karur,"Kamadenu Nagar, Karur - TNPCB",15-11-2025 07:00:00,10.967820,78.080882,OZONE,5,10,8
India,TamilNadu,Ooty,"Bombay Castel, Ooty - TNPCB",15-11-2025 07:00:00,11.4068288,76.7138973,CO,20,26,24
India,TamilNadu,Palkalaiperur,"Bharathidasan University, Palkalaiperur - TNPCB",15-11-2025 07:00:00,10.681158,78.741746,PM10,27,56,42
India,Telangana,Hyderabad,"IITH Kandi, Hyderabad - TSPCB",15-11-2025 07:00:00,17.585705,78.126199,SO2,NA,NA,NA
India,Telangana,Hyderabad,"IITH Kandi, Hyderabad - TSPCB",15-11-2025 07:00:00,17.585705,78.126199,OZONE,NA,NA,NA
India,Uttar_Pradesh,Jhansi,"Shivaji Nagar, Jhansi - UPPCB",15-11-2025 07:00:00,25.4547,78.6039,NH3,4,4,4
India,Uttar_Pradesh,Jhansi,"Shivaji Nagar, Jhansi - UPPCB",15-11-2025 07:00:00,25.4547,78.6039,CO,17,80,59
India,Uttar_Pradesh,Kanpur,"FTI Kidwai Nagar, Kanpur - UPPCB",15-11-2025 07:00:00,26.428282,80.327067,NH3,2,2,2
India,Uttar_Pradesh,Kanpur,"FTI Kidwai Nagar, Kanpur - UPPCB",15-11-2025 07:00:00,26.428282,80.327067,CO,40,66,64
India,Uttar_Pradesh,Kanpur,"NSI Kalyanpur, Kanpur - UPPCB",15-11-2025 07:00:00,26.509954,80.249612,CO,50,97,89
India,Uttar_Pradesh,Kanpur,"Nehru Nagar, Kanpur - UPPCB",15-11-2025 07:00:00,26.4703136,80.3229863,PM2.5,66,325,216
India,Uttar_Pradesh,Kanpur,"Nehru Nagar, Kanpur - UPPCB",15-11-2025 07:00:00,26.4703136,80.3229863,SO2,1,15,10
India,Uttar_Pradesh,Khurja,"Kalindi Kunj, Khurja - UPPCB",15-11-2025 07:00:00,28.2348927,77.8683002,PM2.5,265,356,324
India,Telangana,Hyderabad,"Zoo Park, Hyderabad - TSPCB",15-11-2025 07:00:00,17.349694,78.451437,NH3,3,4,3
India,Tripura,Agartala,"Bardowali, Agartala - Tripura SPCB",15-11-2025 07:00:00,23.8175497,91.2726974,PM2.5,13,62,28
India,Tripura,Agartala,"Bardowali, Agartala - Tripura SPCB",15-11-2025 07:00:00,23.8175497,91.2726974,NH3,2,3,2
India,Tripura,Agartala,"Bardowali, Agartala - Tripura SPCB",15-11-2025 07:00:00,23.8175497,91.2726974,SO2,27,28,27
India,Tripura,Agartala,"Bardowali, Agartala - Tripura SPCB",15-11-2025 07:00:00,23.8175497,91.2726974,OZONE,1,8,1
India,Uttar_Pradesh,Agra,"Manoharpur, Agra - UPPCB",15-11-2025 07:00:00,27.23711,78.01936,PM10,88,181,136
India,Uttar_Pradesh,Agra,"Manoharpur, Agra - UPPCB",15-11-2025 07:00:00,27.23711,78.01936,NO2,40,45,43
India,Uttar_Pradesh,Agra,"Manoharpur, Agra - UPPCB",15-11-2025 07:00:00,27.23711,78.01936,NH3,2,2,2
India,Uttar_Pradesh,Khurja,"Kalindi Kunj, Khurja - UPPCB",15-11-2025 07:00:00,28.2348927,77.8683002,NO2,3,7,5
India,Uttar_Pradesh,Khurja,"Kalindi Kunj, Khurja - UPPCB",15-11-2025 07:00:00,28.2348927,77.8683002,OZONE,10,313,181
India,Uttar_Pradesh,Lucknow,"B R Ambedkar University, Lucknow - UPPCB",15-11-2025 07:00:00,26.766433,80.927299,PM2.5,41,245,125
India,Uttar_Pradesh,Lucknow,"Gomti Nagar, Lucknow - UPPCB",15-11-2025 07:00:00,26.868120,81.005119,PM10,64,154,107
India,Uttar_Pradesh,Lucknow,"Gomti Nagar, Lucknow - UPPCB",15-11-2025 07:00:00,26.868120,81.005119,CO,31,38,32
India,Uttar_Pradesh,Lucknow,"Gomti Nagar, Lucknow - UPPCB",15-11-2025 07:00:00,26.868120,81.005119,OZONE,27,39,30
India,Uttar_Pradesh,Lucknow,"Kendriya Vidyalaya, Lucknow - CPCB",15-11-2025 07:00:00,26.906111,80.948222,NO2,37,43,41
India,Uttar_Pradesh,Gorakhpur,"Madan Mohan Malaviya University of Technology, Gorakhpur - UPPCB",15-11-2025 07:00:00,26.730136,83.433859,PM10,10,118,76
India,Uttar_Pradesh,Greater Noida,"Knowledge Park - III, Greater Noida - UPPCB",15-11-2025 07:00:00,28.47272,77.482000,PM2.5,323,436,391
India,Uttar_Pradesh,Greater Noida,"Knowledge Park - III, Greater Noida - UPPCB",15-11-2025 07:00:00,28.47272,77.482000,SO2,24,39,30
India,Uttar_Pradesh,Greater Noida,"Knowledge Park - V, Greater Noida - UPPCB",15-11-2025 07:00:00,28.557054,77.453663,NH3,4,14,8
India,Uttar_Pradesh,Greater Noida,"Knowledge Park - V, Greater Noida - UPPCB",15-11-2025 07:00:00,28.557054,77.453663,SO2,5,29,13
India,Uttar_Pradesh,Hapur,"Anand Vihar, Hapur - UPPCB",15-11-2025 07:00:00,28.725645,77.749675,NH3,26,53,39
India,Uttar_Pradesh,Baghpat,"Sardar Patel Inter College, Baghpat - UPPCB",15-11-2025 07:00:00,28.964949,77.278761,NO2,47,120,87
India,Uttar_Pradesh,Bareilly,"Civil Lines, Bareilly - UPPCB",15-11-2025 07:00:00,28.359581,79.414455,NH3,1,3,1
India,Uttar_Pradesh,Bareilly,"Civil Lines, Bareilly - UPPCB",15-11-2025 07:00:00,28.359581,79.414455,CO,56,125,95
India,Uttar_Pradesh,Bareilly,"Rajendra Nagar, Bareilly - UPPCB",15-11-2025 07:00:00,28.38910936,79.42963708,PM2.5,37,126,78
India,Uttar_Pradesh,Bareilly,"Rajendra Nagar, Bareilly - UPPCB",15-11-2025 07:00:00,28.38910936,79.42963708,CO,26,79,57
India,Uttar_Pradesh,Bulandshahr,"Yamunapuram, Bulandshahr - UPPCB",15-11-2025 07:00:00,28.406963,77.849831,OZONE,1,132,4
India,Uttar_Pradesh,Firozabad,"Nagla Bhau, Firozabad - UPPCB",15-11-2025 07:00:00,27.168897,78.376960,NH3,2,2,2
India,Uttar_Pradesh,Firozabad,"Nagla Bhau, Firozabad - UPPCB",15-11-2025 07:00:00,27.168897,78.376960,CO,14,20,18
India,Uttar_Pradesh,Ghaziabad,"Indirapuram, Ghaziabad - UPPCB",15-11-2025 07:00:00,28.646233,77.358075,OZONE,1,11,7
India,Uttar_Pradesh,Ghaziabad,"Sanjay Nagar, Ghaziabad - UPPCB",15-11-2025 07:00:00,28.685382,77.453839,PM2.5,208,500,404
India,Uttar_Pradesh,Ghaziabad,"Sanjay Nagar, Ghaziabad - UPPCB",15-11-2025 07:00:00,28.685382,77.453839,NH3,9,17,12
India,Uttar_Pradesh,Agra,"Sanjay Palace, Agra - UPPCB",15-11-2025 07:00:00,27.19865833,78.00598056,NO2,7,36,17
India,Uttar_Pradesh,Agra,"Shahjahan Garden, Agra - UPPCB",15-11-2025 07:00:00,27.169338,78.03582,PM10,130,354,203
India,Uttar_Pradesh,Agra,"Shastripuram, Agra - UPPCB",15-11-2025 07:00:00,27.19862,77.92066,SO2,5,7,6
India,Telangana,Hyderabad,"Kompally Municipal Office, Hyderabad - TSPCB",15-11-2025 07:00:00,17.544899,78.486949,OZONE,18,41,39
India,Telangana,Hyderabad,"New Malakpet, Hyderabad - TSPCB",15-11-2025 07:00:00,17.37206,78.50864,OZONE,10,41,14
India,Uttar_Pradesh,Agra,"Rohta, Agra - UPPCB",15-11-2025 07:00:00,27.106972,78.000111,PM10,105,254,161
India,Uttar_Pradesh,Agra,"Rohta, Agra - UPPCB",15-11-2025 07:00:00,27.106972,78.000111,NO2,18,21,19
India,West_Bengal,Durgapur,"Womens College_City Center, Durgapur - WBPCB (Formerly known as Sidhu Kanhu Indoor Stadium)",15-11-2025 07:00:00,23.549395,87.300496,NO2,27,41,31
India,West_Bengal,Durgapur,"Womens College_City Center, Durgapur - WBPCB (Formerly known as Sidhu Kanhu Indoor Stadium)",15-11-2025 07:00:00,23.549395,87.300496,SO2,3,49,24
India,West_Bengal,Haldia,"Priyambada Housing Estate, Haldia - WBPCB",15-11-2025 07:00:00,22.06047,88.109737,PM10,77,355,148
India,West_Bengal,Howrah,"Belur Math, Howrah - WBPCB",15-11-2025 07:00:00,22.629801,88.352017,SO2,10,92,20
India,West_Bengal,Howrah,"Belur Math, Howrah - WBPCB",15-11-2025 07:00:00,22.629801,88.352017,CO,19,88,49
India,West_Bengal,Howrah,"Botanical Garden, Howrah - WBPCB",15-11-2025 07:00:00,22.554954,88.292568,PM2.5,50,153,94
India,West_Bengal,Howrah,"Botanical Garden, Howrah - WBPCB",15-11-2025 07:00:00,22.554954,88.292568,NH3,1,3,2
India,West_Bengal,Howrah,"Dasnagar, Howrah - WBPCB",15-11-2025 07:00:00,22.6025571,88.3105664,PM2.5,84,314,164
India,West_Bengal,Howrah,"Dasnagar, Howrah - WBPCB",15-11-2025 07:00:00,22.6025571,88.3105664,PM10,91,182,131
India,Uttar_Pradesh,Noida,"Sector - 125, Noida - UPPCB",15-11-2025 07:00:00,28.5447608,77.3231257,SO2,8,30,17
India,Uttar_Pradesh,Noida,"Sector - 62, Noida - IMD",15-11-2025 07:00:00,28.6245479,77.3577104,NO2,27,154,58
India,Uttar_Pradesh,Noida,"Sector-1, Noida - UPPCB",15-11-2025 07:00:00,28.5898,77.3101,PM2.5,323,391,365
India,Uttar_Pradesh,Noida,"Sector-1, Noida - UPPCB",15-11-2025 07:00:00,28.5898,77.3101,PM10,292,434,381
India,Uttar_Pradesh,Noida,"Sector-1, Noida - UPPCB",15-11-2025 07:00:00,28.5898,77.3101,CO,27,111,78
India,Uttar_Pradesh,Noida,"Sector-1, Noida - UPPCB",15-11-2025 07:00:00,28.5898,77.3101,OZONE,6,150,7
India,Uttar_Pradesh,Noida,"Sector-116, Noida - UPPCB",15-11-2025 07:00:00,28.569230,77.393848,PM2.5,350,476,410
India,Uttar_Pradesh,Prayagraj,"Jhunsi, Prayagraj - UPPCB",15-11-2025 07:00:00,25.425602,81.917152,PM2.5,74,151,115
India,Uttar_Pradesh,Prayagraj,"Jhunsi, Prayagraj - UPPCB",15-11-2025 07:00:00,25.425602,81.917152,NO2,6,6,6
India,Uttar_Pradesh,Prayagraj,"Motilal Nehru NIT, Prayagraj - UPPCB",15-11-2025 07:00:00,25.494,81.863,PM2.5,94,342,252
India,Uttar_Pradesh,Prayagraj,"Motilal Nehru NIT, Prayagraj - UPPCB",15-11-2025 07:00:00,25.494,81.863,CO,24,50,47
India,Uttar_Pradesh,Prayagraj,"Nagar Nigam, Prayagraj - UPPCB",15-11-2025 07:00:00,25.44919916 ,81.82735986 ,SO2,65,104,90
India,Uttar_Pradesh,Varanasi,"Ardhali Bazar, Varanasi - UPPCB",15-11-2025 07:00:00,25.3505986,82.9083074,SO2,NA,NA,NA
India,Uttar_Pradesh,Varanasi,"Bhelupur, Varanasi - UPPCB",15-11-2025 07:00:00,25.301778,82.996789,NO2,7,8,8
India,Uttar_Pradesh,Varanasi,"Bhelupur, Varanasi - UPPCB",15-11-2025 07:00:00,25.301778,82.996789,CO,22,102,72
India,Uttar_Pradesh,Varanasi,"IESD Banaras Hindu University, Varanasi - UPPCB",15-11-2025 07:00:00,25.262326,82.995408,NH3,1,5,2
India,West_Bengal,Asansol,"Mahabir Colliery, Asansol - WBPCB",15-11-2025 07:00:00,23.6181830,87.1057180,NH3,1,1,1
India,West_Bengal,Asansol,"Mahabir Colliery, Asansol - WBPCB",15-11-2025 07:00:00,23.6181830,87.1057180,OZONE,12,68,14
India,West_Bengal,Asansol,"Trivenidevi Bhalotia College, Asansol - WBPCB",15-11-2025 07:00:00,23.616515,87.119133,PM10,71,137,115
India,West_Bengal,Barrackpore,"SVSPA Campus, Barrackpore - WBPCB",15-11-2025 07:00:00,22.7605581,88.3617589,CO,36,72,57
India,West_Bengal,Durgapur,"Mahishkapur Road_B-Zone, Durgapur - WBPCB",15-11-2025 07:00:00,23.567923,87.306843,PM2.5,57,209,107
India,Uttar_Pradesh,Meerut,"Jai Bhim Nagar, Meerut - UPPCB",15-11-2025 07:00:00,28.9535882,77.7622941,CO,35,122,98
India,Uttar_Pradesh,Moradabad,"Buddhi Vihar, Moradabad - UPPCB",15-11-2025 07:00:00,28.83526,78.74460,NO2,28,29,29
India,Uttar_Pradesh,Moradabad,"Eco Herbal Park, Moradabad - UPPCB",15-11-2025 07:00:00,28.840739,78.697531,NO2,7,18,13
India,Uttar_Pradesh,Moradabad,"Eco Herbal Park, Moradabad - UPPCB",15-11-2025 07:00:00,28.840739,78.697531,OZONE,4,95,6
India,Uttar_Pradesh,Moradabad,"Employment Office, Moradabad - UPPCB",15-11-2025 07:00:00,28.88528,78.73880,SO2,19,21,20
India,Uttarakhand,Kashipur,"Govt. Girls Inter College, Kashipur - UKPCB",15-11-2025 07:00:00,29.2124114,78.9611753,SO2,2,9,6
India,Uttarakhand,Rishikesh,"Shivaji Nagar, Rishikesh - UKPCB",15-11-2025 07:00:00,30.075911,78.2859547,PM2.5,38,80,54
India,Uttarakhand,Rishikesh,"Shivaji Nagar, Rishikesh - UKPCB",15-11-2025 07:00:00,30.075911,78.2859547,SO2,5,5,5
India,West_Bengal,Asansol,"Mahabir Colliery, Asansol - WBPCB",15-11-2025 07:00:00,23.6181830,87.1057180,PM2.5,58,323,210
India,Uttar_Pradesh,Varanasi,"Maldahiya, Varanasi - UPPCB",15-11-2025 07:00:00,25.32393,82.99687,NO2,2,2,2
India,Uttar_Pradesh,Varanasi,"Maldahiya, Varanasi - UPPCB",15-11-2025 07:00:00,25.32393,82.99687,CO,22,74,64
India,Uttarakhand,Dehradun,"Doon University, Dehradun - UKPCB",15-11-2025 07:00:00,30.269444,78.044167,OZONE,28,69,33
India,Uttarakhand,Kashipur,"Govt. Girls Inter College, Kashipur - UKPCB",15-11-2025 07:00:00,29.2124114,78.9611753,NO2,9,44,17
India,Uttar_Pradesh,Moradabad,"Jigar Colony, Moradabad - UPPCB",15-11-2025 07:00:00,28.856664,78.772638,NO2,24,25,25
India,Uttar_Pradesh,Moradabad,"Kashiram Nagar, Moradabad - UPPCB",15-11-2025 07:00:00,28.849399,78.742362,PM2.5,51,271,161
India,Uttar_Pradesh,Muzaffarnagar,"New Mandi, Muzaffarnagar - UPPCB",15-11-2025 07:00:00,29.4723508,77.7194031,PM2.5,302,425,342
India,Uttar_Pradesh,Muzaffarnagar,"New Mandi, Muzaffarnagar - UPPCB",15-11-2025 07:00:00,29.4723508,77.7194031,OZONE,5,105,23
India,Uttar_Pradesh,Lucknow,"Kukrail Picnic Spot-1, Lucknow - UPPCB",15-11-2025 07:00:00,26.90723,80.98579,OZONE,7,37,8
India,Uttar_Pradesh,Meerut,"Ganga Nagar, Meerut - UPPCB",15-11-2025 07:00:00,28.999264,77.7590354,NH3,2,8,5
India,Uttar_Pradesh,Meerut,"Ganga Nagar, Meerut - UPPCB",15-11-2025 07:00:00,28.999264,77.7590354,SO2,14,40,23
India,Uttar_Pradesh,Meerut,"Ganga Nagar, Meerut - UPPCB",15-11-2025 07:00:00,28.999264,77.7590354,CO,18,110,70
India,West_Bengal,Howrah,"Padmapukur, Howrah - WBPCB",15-11-2025 07:00:00,22.5687319,88.2797276,NO2,15,52,30
India,West_Bengal,Kolkata,"Ballygunge, Kolkata - WBPCB",15-11-2025 07:00:00,22.5367507,88.3638022,NH3,7,13,9
India,West_Bengal,Kolkata,"Ballygunge, Kolkata - WBPCB",15-11-2025 07:00:00,22.5367507,88.3638022,SO2,7,20,14
India,West_Bengal,Kolkata,"Ballygunge, Kolkata - WBPCB",15-11-2025 07:00:00,22.5367507,88.3638022,OZONE,4,35,5
India,West_Bengal,Kolkata,"Bidhannagar, Kolkata - WBPCB",15-11-2025 07:00:00,22.58157048,88.41002457,PM2.5,77,182,118
India,West_Bengal,Kolkata,"Bidhannagar, Kolkata - WBPCB",15-11-2025 07:00:00,22.58157048,88.41002457,NO2,1,32,19
India,West_Bengal,Kolkata,"Bidhannagar, Kolkata - WBPCB",15-11-2025 07:00:00,22.58157048,88.41002457,OZONE,11,44,12
India,West_Bengal,Kolkata,"Fort William, Kolkata - WBPCB",15-11-2025 07:00:00,22.556640,88.342674,PM2.5,NA,NA,NA
India,West_Bengal,Kolkata,"Fort William, Kolkata - WBPCB",15-11-2025 07:00:00,22.556640,88.342674,NO2,NA,NA,NA
India,West_Bengal,Kolkata,"Jadavpur, Kolkata - WBPCB",15-11-2025 07:00:00,22.49929,88.36917,PM10,133,374,232
India,West_Bengal,Kolkata,"Jadavpur, Kolkata - WBPCB",15-11-2025 07:00:00,22.49929,88.36917,OZONE,11,30,12
India,West_Bengal,Kolkata,"Rabindra Bharati University, Kolkata - WBPCB",15-11-2025 07:00:00,22.627847,88.380669,PM10,84,155,121
India,West_Bengal,Kolkata,"Rabindra Bharati University, Kolkata - WBPCB",15-11-2025 07:00:00,22.627847,88.380669,NO2,35,115,76
India,West_Bengal,Kolkata,"Rabindra Sarobar, Kolkata - WBPCB",15-11-2025 07:00:00,22.51106,88.35142,OZONE,2,140,2
India,West_Bengal,Siliguri,"Ward-32 Bapupara, Siliguri - WBPCB",15-11-2025 07:00:00,26.6879226,88.4152495,NO2,17,24,21
India,West_Bengal,Siliguri,"Ward-32 Bapupara, Siliguri - WBPCB",15-11-2025 07:00:00,26.6879226,88.4152495,SO2,12,24,15
India,Bihar,Chhapra,"Darshan Nagar, Chhapra - BSPCB",15-11-2025 07:00:00,25.7808257,84.7446768,OZONE,16,46,22
India,Bihar,Gaya,"Collectorate, Gaya - BSPCB",15-11-2025 07:00:00,24.7955,84.9994,SO2,7,19,10
India,Bihar,Gaya,"Collectorate, Gaya - BSPCB",15-11-2025 07:00:00,24.7955,84.9994,OZONE,18,20,20
India,Bihar,Gaya,"Kareemganj, Gaya - BSPCB",15-11-2025 07:00:00,24.792403,84.992416,NO2,2,9,5
India,Bihar,Gaya,"Kareemganj, Gaya - BSPCB",15-11-2025 07:00:00,24.792403,84.992416,OZONE,2,45,3
India,Bihar,Gaya,"SFTI Kusdihra, Gaya - BSPCB",15-11-2025 07:00:00,24.762518,84.982348,NO2,18,19,19
India,Bihar,Gaya,"SFTI Kusdihra, Gaya - BSPCB",15-11-2025 07:00:00,24.762518,84.982348,SO2,8,10,9
India,Bihar,Gaya,"SFTI Kusdihra, Gaya - BSPCB",15-11-2025 07:00:00,24.762518,84.982348,OZONE,12,37,14
India,Bihar,Katihar,"Mirchaibari, Katihar - BSPCB",15-11-2025 07:00:00,25.560083,87.553265,NO2,15,19,16
India,Bihar,Katihar,"Mirchaibari, Katihar - BSPCB",15-11-2025 07:00:00,25.560083,87.553265,NH3,1,1,1
India,Bihar,Araria,"Kharahiya Basti, Araria - BSPCB",15-11-2025 07:00:00,26.146529,87.454184,SO2,15,21,19
India,Bihar,Arrah,"New DM Office, Arrah - BSPCB",15-11-2025 07:00:00,25.5626095,84.663264,NH3,1,1,1
India,Bihar,Arrah,"New DM Office, Arrah - BSPCB",15-11-2025 07:00:00,25.5626095,84.663264,CO,34,90,51
India,Bihar,Aurangabad,"Gurdeo Nagar, Aurangabad - BSPCB",15-11-2025 07:00:00,24.75746,84.366208,NO2,7,8,8
India,Bihar,Aurangabad,"Gurdeo Nagar, Aurangabad - BSPCB",15-11-2025 07:00:00,24.75746,84.366208,SO2,11,17,13
India,Bihar,Aurangabad,"Gurdeo Nagar, Aurangabad - BSPCB",15-11-2025 07:00:00,24.75746,84.366208,CO,18,36,26
India,Bihar,Begusarai,"Lohiyanagar, Begusarai - BSPCB",15-11-2025 07:00:00,25.42742023,86.13886079,PM2.5,50,127,72
India,Bihar,Begusarai,"Lohiyanagar, Begusarai - BSPCB",15-11-2025 07:00:00,25.42742023,86.13886079,NO2,18,24,20
India,Bihar,Begusarai,"Lohiyanagar, Begusarai - BSPCB",15-11-2025 07:00:00,25.42742023,86.13886079,NH3,4,5,5
India,Andhra_Pradesh,Amaravati,"Secretariat, Amaravati - APPCB",15-11-2025 07:00:00,16.5150833,80.5181667,PM10,106,212,140
India,Andhra_Pradesh,Amaravati,"Secretariat, Amaravati - APPCB",15-11-2025 07:00:00,16.5150833,80.5181667,NH3,1,5,4
India,Andhra_Pradesh,Anantapur,"Gulzarpet, Anantapur - APPCB",15-11-2025 07:00:00,14.675886,77.593027,PM10,NA,NA,NA
India,Andhra_Pradesh,Anantapur,"Gulzarpet, Anantapur - APPCB",15-11-2025 07:00:00,14.675886,77.593027,NH3,4,4,4
India,Andhra_Pradesh,Anantapur,"Gulzarpet, Anantapur - APPCB",15-11-2025 07:00:00,14.675886,77.593027,SO2,17,17,17
India,Andhra_Pradesh,Chittoor,"Gangineni Cheruvu, Chittoor - APPCB",15-11-2025 07:00:00,13.204880,79.097889,NO2,20,23,21
India,Andhra_Pradesh,Chittoor,"Gangineni Cheruvu, Chittoor - APPCB",15-11-2025 07:00:00,13.204880,79.097889,CO,12,41,21
India,Andhra_Pradesh,Kadapa,"Yerramukkapalli, Kadapa - APPCB",15-11-2025 07:00:00,14.465052,78.824187,PM2.5,56,67,59
India,Bihar,Bhagalpur,"DM Office_Kachari Chowk, Bhagalpur - BSPCB",15-11-2025 07:00:00,25.251013,86.989001,PM10,55,142,102
India,Bihar,Bhagalpur,"DM Office_Kachari Chowk, Bhagalpur - BSPCB",15-11-2025 07:00:00,25.251013,86.989001,CO,9,18,14
India,Bihar,Bhagalpur,"Mayaganj, Bhagalpur - BSPCB",15-11-2025 07:00:00,25.265194,87.012947,PM2.5,55,160,86
India,Bihar,Buxar,"Charitra Van, Buxar - BSPCB",15-11-2025 07:00:00,25.567520,83.966379,PM2.5,77,213,140
India,Bihar,Buxar,"Charitra Van, Buxar - BSPCB",15-11-2025 07:00:00,25.567520,83.966379,PM10,NA,NA,NA
India,Bihar,Buxar,"Charitra Van, Buxar - BSPCB",15-11-2025 07:00:00,25.567520,83.966379,CO,22,28,24
India,Bihar,Buxar,"Charitra Van, Buxar - BSPCB",15-11-2025 07:00:00,25.567520,83.966379,OZONE,7,170,31
India,Bihar,Chhapra,"Darshan Nagar, Chhapra - BSPCB",15-11-2025 07:00:00,25.7808257,84.7446768,SO2,20,22,20
India,Bihar,Katihar,"Mirchaibari, Katihar - BSPCB",15-11-2025 07:00:00,25.560083,87.553265,SO2,16,24,20
India,Bihar,Katihar,"Mirchaibari, Katihar - BSPCB",15-11-2025 07:00:00,25.560083,87.553265,CO,66,96,79
India,Bihar,Kishanganj,"SDM Office_Khagra, Kishanganj - BSPCB",15-11-2025 07:00:00,26.0881305,87.93840336,PM2.5,40,50,45
India,Bihar,Kishanganj,"SDM Office_Khagra, Kishanganj - BSPCB",15-11-2025 07:00:00,26.0881305,87.93840336,NH3,2,3,3
India,Bihar,Kishanganj,"SDM Office_Khagra, Kishanganj - BSPCB",15-11-2025 07:00:00,26.0881305,87.93840336,SO2,6,9,7
India,Bihar,Manguraha,"Forest Rest House, Manguraha - BSPCB",15-11-2025 07:00:00,27.308328,84.531742,SO2,16,17,16
India,Bihar,Munger,"Town Hall, Munger - BSPCB",15-11-2025 07:00:00,25.376776,86.471523,NH3,6,8,6
India,Bihar,Munger,"Town Hall, Munger - BSPCB",15-11-2025 07:00:00,25.376776,86.471523,CO,20,43,30
India,Assam,Byrnihat,"Central Academy for SFS, Byrnihat - PCBA",15-11-2025 07:00:00,26.071318,91.87488,PM10,73,158,96
India,Assam,Byrnihat,"Central Academy for SFS, Byrnihat - PCBA",15-11-2025 07:00:00,26.071318,91.87488,SO2,5,14,7
India,Assam,Byrnihat,"Central Academy for SFS, Byrnihat - PCBA",15-11-2025 07:00:00,26.071318,91.87488,CO,43,61,55
India,Assam,Guwahati,"IITG, Guwahati - PCBA",15-11-2025 07:00:00,26.2028636,91.70046436,OZONE,NA,NA,NA
India,Assam,Guwahati,"LGBI Airport, Guwahati - PCBA",15-11-2025 07:00:00,26.10887,91.589544,PM10,46,90,68
India,Assam,Guwahati,"Pan Bazaar, Guwahati - PCBA",15-11-2025 07:00:00,26.187500,91.744194,PM10,22,86,57
India,Assam,Guwahati,"Pan Bazaar, Guwahati - PCBA",15-11-2025 07:00:00,26.187500,91.744194,OZONE,17,18,18
India,Andhra_Pradesh,Kadapa,"Yerramukkapalli, Kadapa - APPCB",15-11-2025 07:00:00,14.465052,78.824187,CO,24,42,31
India,Andhra_Pradesh,Rajamahendravaram,"Anand Kala Kshetram, Rajamahendravaram - APPCB",15-11-2025 07:00:00,16.9872867,81.7363176,SO2,4,22,13
India,Andhra_Pradesh,Rajamahendravaram,"Anand Kala Kshetram, Rajamahendravaram - APPCB",15-11-2025 07:00:00,16.9872867,81.7363176,OZONE,1,52,15
India,Andhra_Pradesh,Tirumala,"Toll Gate, Tirumala - APPCB",15-11-2025 07:00:00,13.67,79.35,SO2,5,7,6
India,Andhra_Pradesh,Tirumala,"Toll Gate, Tirumala - APPCB",15-11-2025 07:00:00,13.67,79.35,CO,24,43,31
India,Andhra_Pradesh,Tirupati,"Vaikuntapuram, Tirupati - APPCB",15-11-2025 07:00:00,13.615387,79.409230,CO,16,29,18
India,Assam,Nalbari,"Bata Chowk, Nalbari - PCBA",15-11-2025 07:00:00,26.446912,91.439057,OZONE,7,20,20
India,Assam,Silchar,"Tarapur, Silchar - PCBA",15-11-2025 07:00:00,24.82827,92.79525,PM10,48,71,55
India,Assam,Silchar,"Tarapur, Silchar - PCBA",15-11-2025 07:00:00,24.82827,92.79525,NO2,16,23,19
India,Assam,Sivasagar,"Girls College, Sivasagar - PCBA",15-11-2025 07:00:00,26.987634,94.636574,SO2,8,11,10
India,Assam,Sivasagar,"Girls College, Sivasagar - PCBA",15-11-2025 07:00:00,26.987634,94.636574,OZONE,3,77,6
India,Bihar,Araria,"Kharahiya Basti, Araria - BSPCB",15-11-2025 07:00:00,26.146529,87.454184,PM10,30,134,99
India,Andhra_Pradesh,Vijayawada,"Rajiv Nagar, Vijayawada - APPCB",15-11-2025 07:00:00,16.554731,80.649110,OZONE,57,203,90
India,Bihar,Muzaffarpur,"Buddha Colony, Muzaffarpur - BSPCB",15-11-2025 07:00:00,26.11442,85.39813,NH3,7,10,9
India,Bihar,Siwan,"Chitragupta Nagar, Siwan - BSPCB",15-11-2025 07:00:00,26.2271665,84.3570427,PM2.5,23,190,99
India,Bihar,Siwan,"Chitragupta Nagar, Siwan - BSPCB",15-11-2025 07:00:00,26.2271665,84.3570427,PM10,32,93,65
India,Bihar,Siwan,"Chitragupta Nagar, Siwan - BSPCB",15-11-2025 07:00:00,26.2271665,84.3570427,NO2,1,2,1
India,Bihar,Siwan,"Chitragupta Nagar, Siwan - BSPCB",15-11-2025 07:00:00,26.2271665,84.3570427,CO,65,133,110
India,Chandigarh,Chandigarh,"Sector 22, Chandigarh - CPCC",15-11-2025 07:00:00,30.735567,76.775714,SO2,3,73,13
India,Chandigarh,Chandigarh,"Sector-25, Chandigarh - CPCC",15-11-2025 07:00:00,30.751462,76.762879,PM2.5,64,129,99
India,Chandigarh,Chandigarh,"Sector-53, Chandigarh - CPCC",15-11-2025 07:00:00,30.719859,76.738637,PM10,55,164,108
India,Chandigarh,Chandigarh,"Sector-53, Chandigarh - CPCC",15-11-2025 07:00:00,30.719859,76.738637,SO2,6,52,12
India,Chhattisgarh,Korba,"Urja Nagar, Korba - CECB",15-11-2025 07:00:00,22.348441,82.549611,PM10,72,73,73
India,Chhattisgarh,Korba,"Urja Nagar, Korba - CECB",15-11-2025 07:00:00,22.348441,82.549611,NO2,32,53,39
India,Chhattisgarh,Korba,"Urja Nagar, Korba - CECB",15-11-2025 07:00:00,22.348441,82.549611,NH3,1,2,2
India,Chhattisgarh,Korba,"Urja Nagar, Korba - CECB",15-11-2025 07:00:00,22.348441,82.549611,CO,20,34,27
India,Chhattisgarh,Kunjemura,"OP Jindal School, Kunjemura - CECB",15-11-2025 07:00:00,22.126650,83.483212,PM2.5,33,62,45
India,Chhattisgarh,Kunjemura,"OP Jindal School, Kunjemura - CECB",15-11-2025 07:00:00,22.126650,83.483212,OZONE,5,78,12
India,Chhattisgarh,Raipur,"AIIMS, Raipur - CECB",15-11-2025 07:00:00,21.258815,81.578979,NO2,48,64,56
India,Chhattisgarh,Raipur,"AIIMS, Raipur - CECB",15-11-2025 07:00:00,21.258815,81.578979,NH3,4,5,4
India,Chhattisgarh,Raipur,"AIIMS, Raipur - CECB",15-11-2025 07:00:00,21.258815,81.578979,SO2,5,14,8
India,Chhattisgarh,Bhilai,"32Bungalows, Bhilai - CECB",15-11-2025 07:00:00,21.194815,81.314770,SO2,5,35,13
India,Chhattisgarh,Bhilai,"Civic Center, Bhilai - Bhilai Steel Plant",15-11-2025 07:00:00,21.185571,81.343175,NO2,19,180,74
India,Chhattisgarh,Bhilai,"Civic Center, Bhilai - Bhilai Steel Plant",15-11-2025 07:00:00,21.185571,81.343175,CO,21,22,22
India,Chhattisgarh,Bilaspur,"Mangala, Bilaspur - NTPC",15-11-2025 07:00:00,22.08815,82.13737,PM10,67,118,89
India,Chhattisgarh,Chhal,"Nawapara SECL Colony, Chhal - CECB",15-11-2025 07:00:00,22.118125,83.140608,SO2,4,57,18
India,Chhattisgarh,Korba,"Rampur, Korba - CECB",15-11-2025 07:00:00,22.368195,82.746431,SO2,7,10,9
India,Delhi,Delhi,"Alipur, Delhi - DPCC",15-11-2025 07:00:00,28.815329,77.153010,CO,50,92,89
India,Delhi,Delhi,"Anand Vihar, Delhi - DPCC",15-11-2025 07:00:00,28.647622,77.3158090,PM2.5,325,489,419
India,Delhi,Delhi,"Anand Vihar, Delhi - DPCC",15-11-2025 07:00:00,28.647622,77.3158090,CO,102,145,124
India,Delhi,Delhi,"Aya Nagar, Delhi - IMD",15-11-2025 07:00:00,28.4706914,77.1099364,PM10,274,435,382
India,Delhi,Delhi,"Aya Nagar, Delhi - IMD",15-11-2025 07:00:00,28.4706914,77.1099364,NO2,26,84,48
India,Delhi,Delhi,"Aya Nagar, Delhi - IMD",15-11-2025 07:00:00,28.4706914,77.1099364,CO,32,86,60
India,Delhi,Delhi,"Aya Nagar, Delhi - IMD",15-11-2025 07:00:00,28.4706914,77.1099364,OZONE,9,147,34
India,Bihar,Purnia,"Mariam Nagar, Purnia - BSPCB",15-11-2025 07:00:00,25.366336,87.117468,CO,27,86,58
India,Bihar,Rajgir,"Dangi Tola, Rajgir - BSPCB",15-11-2025 07:00:00,25.03280,85.41948,PM10,44,111,83
India,Bihar,Rajgir,"Dangi Tola, Rajgir - BSPCB",15-11-2025 07:00:00,25.03280,85.41948,CO,79,101,89
India,Bihar,Samastipur,"DM Office_Kasipur, Samastipur - BSPCB",15-11-2025 07:00:00,25.859655,85.77944,PM10,NA,NA,NA
India,Bihar,Sasaram,"Dada Peer, Sasaram - BSPCB",15-11-2025 07:00:00,24.952822,84.002396,CO,48,57,50
India,Chhattisgarh,Raipur,"Siltara Phase-II, Raipur - CECB",15-11-2025 07:00:00,21.371751,81.664929,OZONE,3,24,4
India,Chhattisgarh,Tumidih,"OP Jindal Industrial Park, Tumidih - CECB",15-11-2025 07:00:00,22.06631475,83.33820077,PM2.5,57,131,79
India,Chhattisgarh,Tumidih,"OP Jindal Industrial Park, Tumidih - CECB",15-11-2025 07:00:00,22.06631475,83.33820077,SO2,5,21,7
India,Delhi,Delhi,"Alipur, Delhi - DPCC",15-11-2025 07:00:00,28.815329,77.153010,PM10,177,473,376
India,Delhi,Delhi,"Bawana, Delhi - DPCC",15-11-2025 07:00:00,28.776200,77.051074,NO2,13,90,47
India,Delhi,Delhi,"CRRI Mathura Road, Delhi - IMD",15-11-2025 07:00:00,28.5512005,77.2735737,PM2.5,336,406,366
India,Delhi,Delhi,"Chandni Chowk, Delhi - IITM",15-11-2025 07:00:00,28.656756,77.227234,PM10,173,479,418
India,Delhi,Delhi,"Chandni Chowk, Delhi - IITM",15-11-2025 07:00:00,28.656756,77.227234,NO2,11,84,49
India,Delhi,Delhi,"Chandni Chowk, Delhi - IITM",15-11-2025 07:00:00,28.656756,77.227234,NH3,3,70,38
India,Bihar,Patna,"Muradpur, Patna - BSPCB",15-11-2025 07:00:00,25.619651,85.147382,PM2.5,76,277,164
India,Bihar,Patna,"Muradpur, Patna - BSPCB",15-11-2025 07:00:00,25.619651,85.147382,NH3,4,5,5
India,Bihar,Patna,"Muradpur, Patna - BSPCB",15-11-2025 07:00:00,25.619651,85.147382,SO2,7,10,8
India,Bihar,Patna,"Muradpur, Patna - BSPCB",15-11-2025 07:00:00,25.619651,85.147382,OZONE,4,40,5
India,Bihar,Patna,"Rajbansi Nagar, Patna - BSPCB",15-11-2025 07:00:00,25.599486,85.113666,OZONE,5,51,28
India,Chhattisgarh,Raipur,"Krishak Nagar, Raipur - CECB",15-11-2025 07:00:00,21.237755,81.705301,PM2.5,8,110,36
India,Chhattisgarh,Raipur,"Krishak Nagar, Raipur - CECB",15-11-2025 07:00:00,21.237755,81.705301,OZONE,NA,NA,NA
India,Delhi,Delhi,"DTU, Delhi - CPCB",15-11-2025 07:00:00,28.7500499,77.1112615,OZONE,15,44,22
India,Delhi,Delhi,"Dr. Karni Singh Shooting Range, Delhi - DPCC",15-11-2025 07:00:00,28.498571,77.264840,NH3,7,10,9
India,Delhi,Delhi,"Dr. Karni Singh Shooting Range, Delhi - DPCC",15-11-2025 07:00:00,28.498571,77.264840,OZONE,6,124,17
India,Delhi,Delhi,"IGI Airport (T3), Delhi - IMD",15-11-2025 07:00:00,28.5627763,77.1180053,PM2.5,311,386,349
India,Delhi,Delhi,"IGI Airport (T3), Delhi - IMD",15-11-2025 07:00:00,28.5627763,77.1180053,NO2,89,244,166
India,Delhi,Delhi,"IHBAS, Dilshad Garden, Delhi - CPCB",15-11-2025 07:00:00,28.6811736,77.3025234,PM10,206,357,301
India,Delhi,Delhi,"IHBAS, Dilshad Garden, Delhi - CPCB",15-11-2025 07:00:00,28.6811736,77.3025234,OZONE,23,85,24
India,Delhi,Delhi,"Major Dhyan Chand National Stadium, Delhi - DPCC",15-11-2025 07:00:00,28.611281,77.237738,NH3,17,20,18
India,Delhi,Delhi,"Mandir Marg, Delhi - DPCC",15-11-2025 07:00:00,28.636429,77.201067,NO2,5,83,39
India,Delhi,Delhi,"Mandir Marg, Delhi - DPCC",15-11-2025 07:00:00,28.636429,77.201067,NH3,13,27,19
India,Delhi,Delhi,"Mandir Marg, Delhi - DPCC",15-11-2025 07:00:00,28.636429,77.201067,OZONE,5,138,5
India,Delhi,Delhi,"NSIT Dwarka, Delhi - CPCB",15-11-2025 07:00:00,28.60909,77.0325413,SO2,10,14,12
India,Delhi,Delhi,"Najafgarh, Delhi - DPCC",15-11-2025 07:00:00,28.570173,76.933762,PM10,179,360,264
India,Delhi,Delhi,"Okhla Phase-2, Delhi - DPCC",15-11-2025 07:00:00,28.530785,77.271255,OZONE,9,199,11
India,Delhi,Delhi,"Patparganj, Delhi - DPCC",15-11-2025 07:00:00,28.623763,77.287209,PM10,263,424,374
India,Delhi,Delhi,"Punjabi Bagh, Delhi - DPCC",15-11-2025 07:00:00,28.674045,77.131023,SO2,5,20,13
India,Delhi,Delhi,"Punjabi Bagh, Delhi - DPCC",15-11-2025 07:00:00,28.674045,77.131023,CO,30,106,71
India,Delhi,Delhi,"Pusa, Delhi - DPCC",15-11-2025 07:00:00,28.639652,77.146275,PM2.5,336,423,391
India,Delhi,Delhi,"Pusa, Delhi - DPCC",15-11-2025 07:00:00,28.639652,77.146275,NH3,3,20,12
India,Delhi,Delhi,"Sonia Vihar, Delhi - DPCC",15-11-2025 07:00:00,28.710508,77.249485,NO2,30,113,64
India,Delhi,Delhi,"Sonia Vihar, Delhi - DPCC",15-11-2025 07:00:00,28.710508,77.249485,OZONE,5,274,9
India,Delhi,Delhi,"Sri Aurobindo Marg, Delhi - DPCC",15-11-2025 07:00:00,28.531346,77.190156,NH3,4,6,5
India,Delhi,Delhi,"Wazirpur, Delhi - DPCC",15-11-2025 07:00:00,28.699793,77.165453,CO,54,110,93
India,Gujarat,Ahmedabad,"Chandkheda, Ahmedabad - IITM",15-11-2025 07:00:00,23.107969,72.574648,PM10,NA,NA,NA
India,Delhi,Delhi,"Narela, Delhi - DPCC",15-11-2025 07:00:00,28.822836,77.101981,NO2,17,73,43
India,Delhi,Delhi,"Nehru Nagar, Delhi - DPCC",15-11-2025 07:00:00,28.567890,77.250515,PM10,279,440,363
India,Delhi,Delhi,"North Campus, DU, Delhi - IMD",15-11-2025 07:00:00,28.6573814,77.1585447,PM2.5,307,463,391
India,Delhi,Delhi,"Okhla Phase-2, Delhi - DPCC",15-11-2025 07:00:00,28.530785,77.271255,PM2.5,333,438,381
India,Delhi,Delhi,"Lodhi Road, Delhi - IITM",15-11-2025 07:00:00,28.588333,77.221667,NO2,28,197,100
India,Delhi,Delhi,"Lodhi Road, Delhi - IMD",15-11-2025 07:00:00,28.5918245,77.2273074,PM10,176,342,275
India,Delhi,Delhi,"Lodhi Road, Delhi - IMD",15-11-2025 07:00:00,28.5918245,77.2273074,NO2,25,77,45
India,Delhi,Delhi,"Lodhi Road, Delhi - IMD",15-11-2025 07:00:00,28.5918245,77.2273074,CO,45,92,78
India,Gujarat,Ahmedabad,"Raikhad, Ahmedabad - IITM",15-11-2025 07:00:00,23.020509,72.579261,NO2,27,170,78
India,Gujarat,Ahmedabad,"Raikhad, Ahmedabad - IITM",15-11-2025 07:00:00,23.020509,72.579261,OZONE,2,92,11
India,Gujarat,Ahmedabad,"Rakhial, Ahmedabad - IITM",15-11-2025 07:00:00,23.016834,72.625775,NO2,7,191,37
India,Gujarat,Ahmedabad,"Rakhial, Ahmedabad - IITM",15-11-2025 07:00:00,23.016834,72.625775,NH3,1,20,4
India,Delhi,Delhi,"Rohini, Delhi - DPCC",15-11-2025 07:00:00,28.732528,77.119920,PM2.5,293,500,417
India,Delhi,Delhi,"ITO, Delhi - CPCB",15-11-2025 07:00:00,28.628624,77.241060,CO,56,108,93
India,Haryana,Panipat,"Sector-18, Panipat - HSPCB",15-11-2025 07:00:00,29.432304,76.972765,NO2,31,32,31
India,Haryana,Panipat,"Sector-18, Panipat - HSPCB",15-11-2025 07:00:00,29.432304,76.972765,CO,24,26,25
India,Haryana,Rohtak,"MD University, Rohtak - HSPCB",15-11-2025 07:00:00,28.52123,76.37138,PM2.5,2,500,131
India,Haryana,Rohtak,"MD University, Rohtak - HSPCB",15-11-2025 07:00:00,28.52123,76.37138,SO2,3,6,5
India,Haryana,Sirsa,"F-Block, Sirsa - HSPCB",15-11-2025 07:00:00,29.536400,75.015800,NO2,6,28,19
India,Haryana,Sonipat,"Murthal, Sonipat - HSPCB",15-11-2025 07:00:00,29.027200,77.062100,PM2.5,211,476,363
India,Haryana,Sonipat,"Murthal, Sonipat - HSPCB",15-11-2025 07:00:00,29.027200,77.062100,OZONE,25,26,26
India,Haryana,Yamuna Nagar,"Gobind Pura, Yamuna Nagar - HSPCB",15-11-2025 07:00:00,30.1480566,77.2893471,PM10,100,184,145
India,Haryana,Yamuna Nagar,"Gobind Pura, Yamuna Nagar - HSPCB",15-11-2025 07:00:00,30.1480566,77.2893471,NH3,10,10,10
India,Gujarat,Gandhinagar,"GIFT City, Gandhinagar - IITM",15-11-2025 07:00:00,23.163798,72.677768,NO2,11,88,37
India,Gujarat,Gandhinagar,"GIFT City, Gandhinagar - IITM",15-11-2025 07:00:00,23.163798,72.677768,CO,32,64,47
India,Gujarat,Gandhinagar,"IIPHG Lekawada, Gandhinagar - IITM",15-11-2025 07:00:00,23.243639,72.68994,CO,4,98,54
India,Gujarat,Gandhinagar,"Sector-10, Gandhinagar - GPCB",15-11-2025 07:00:00,23.221714,72.654328,PM10,46,156,94
India,Gujarat,Gandhinagar,"Sector-10, Gandhinagar - GPCB",15-11-2025 07:00:00,23.221714,72.654328,SO2,4,11,8
India,Gujarat,Surat,"Science Center, Surat - SMC",15-11-2025 07:00:00,21.170046,72.795405,PM2.5,59,190,124
India,Gujarat,Surat,"Science Center, Surat - SMC",15-11-2025 07:00:00,21.170046,72.795405,CO,34,42,40
India,Gujarat,Vapi,"Phase-1 GIDC, Vapi - GPCB",15-11-2025 07:00:00,20.362421,72.918013,SO2,27,30,29
India,Gujarat,Vapi,"Phase-1 GIDC, Vapi - GPCB",15-11-2025 07:00:00,20.362421,72.918013,OZONE,2,2,2
India,Gujarat,Ahmedabad,"SAC ISRO Bopal, Ahmedabad - IITM",15-11-2025 07:00:00,23.041137,72.456691,PM2.5,65,304,139
India,Gujarat,Ahmedabad,"SAC ISRO Bopal, Ahmedabad - IITM",15-11-2025 07:00:00,23.041137,72.456691,NH3,2,3,3
India,Gujarat,Ahmedabad,"SAC ISRO Bopal, Ahmedabad - IITM",15-11-2025 07:00:00,23.041137,72.456691,SO2,2,9,3
India,Gujarat,Ahmedabad,"SVPI Airport Hansol, Ahmedabad - IITM",15-11-2025 07:00:00,23.076793,72.627874,CO,4,102,46
India,Gujarat,Ahmedabad,"SVPI Airport Hansol, Ahmedabad - IITM",15-11-2025 07:00:00,23.076793,72.627874,OZONE,2,55,8
India,Gujarat,Ankleshwar,"GIDC, Ankleshwar - GPCB",15-11-2025 07:00:00,21.613267,73.010555,NO2,NA,NA,NA
India,Gujarat,Ankleshwar,"GIDC, Ankleshwar - GPCB",15-11-2025 07:00:00,21.613267,73.010555,NH3,NA,NA,NA
India,Gujarat,Ankleshwar,"GIDC, Ankleshwar - GPCB",15-11-2025 07:00:00,21.613267,73.010555,SO2,NA,NA,NA
India,Haryana,Gurugram,"Sector-51, Gurugram - HSPCB",15-11-2025 07:00:00,28.4227,77.0667,CO,24,35,32
India,Haryana,Gurugram,"Teri Gram, Gurugram - HSPCB",15-11-2025 07:00:00,28.4275,77.1465,SO2,NA,NA,NA
India,Haryana,Hisar,"Urban Estate-II, Hisar - HSPCB",15-11-2025 07:00:00,29.140560,75.744941,PM10,141,242,182
India,Haryana,Jind,"Police Lines, Jind - HSPCB",15-11-2025 07:00:00,29.307814,76.337619,PM10,NA,NA,NA
India,Haryana,Jind,"Police Lines, Jind - HSPCB",15-11-2025 07:00:00,29.307814,76.337619,NO2,NA,NA,NA
India,Haryana,Jind,"Police Lines, Jind - HSPCB",15-11-2025 07:00:00,29.307814,76.337619,NH3,NA,NA,NA
India,Haryana,Narnaul,"Shastri Nagar, Narnaul - HSPCB",15-11-2025 07:00:00,28.060249,76.113115,NO2,13,40,24
India,Haryana,Narnaul,"Shastri Nagar, Narnaul - HSPCB",15-11-2025 07:00:00,28.060249,76.113115,OZONE,16,82,18
India,Haryana,Palwal,"Shyam Nagar, Palwal - HSPCB",15-11-2025 07:00:00,28.1485564,77.3320667,NO2,23,24,24
India,Haryana,Panchgaon,"Amity University, Panchgaon - IITM",15-11-2025 07:00:00,28.3153,76.9143,PM2.5,NA,NA,NA
India,Haryana,Panchgaon,"Amity University, Panchgaon - IITM",15-11-2025 07:00:00,28.3153,76.9143,PM10,NA,NA,NA
India,Haryana,Panchgaon,"Amity University, Panchgaon - IITM",15-11-2025 07:00:00,28.3153,76.9143,NH3,NA,NA,NA
India,Haryana,Panchgaon,"Amity University, Panchgaon - IITM",15-11-2025 07:00:00,28.3153,76.9143,CO,NA,NA,NA
India,Haryana,Faridabad,"Sector 11, Faridabad - HSPCB",15-11-2025 07:00:00,28.376058,77.315741,OZONE,4,127,15
India,Haryana,Fatehabad,"Huda Sector, Fatehabad - HSPCB",15-11-2025 07:00:00,29.503664,75.467934,PM10,159,427,317
India,Haryana,Gurugram,"NISE Gwal Pahari, Gurugram - IMD",15-11-2025 07:00:00,28.422681,77.148944,PM10,174,432,324
India,Haryana,Gurugram,"Sector-51, Gurugram - HSPCB",15-11-2025 07:00:00,28.4227,77.0667,NH3,6,9,8
India,Haryana,Gurugram,"Sector-51, Gurugram - HSPCB",15-11-2025 07:00:00,28.4227,77.0667,SO2,20,33,27
India,Haryana,Kaithal,"Rishi Nagar, Kaithal - HSPCB",15-11-2025 07:00:00,29.8006,76.4155,SO2,28,34,31
India,Haryana,Karnal,"Sector-12, Karnal - HSPCB",15-11-2025 07:00:00,29.695300,77.002700,SO2,13,17,15
India,Haryana,Mandikhera,"General Hospital, Mandikhera - HSPCB",15-11-2025 07:00:00,27.9002,76.9938,SO2,32,39,35
India,Haryana,Mandikhera,"General Hospital, Mandikhera - HSPCB",15-11-2025 07:00:00,27.9002,76.9938,CO,80,104,100
India,Haryana,Manesar,"Sector-2 IMT, Manesar - HSPCB",15-11-2025 07:00:00,28.360699,76.936090,NO2,66,79,73
India,Gujarat,Vatva,"Phase-4 GIDC, Vatva - GPCB",15-11-2025 07:00:00,22.969611,72.643500,OZONE,7,53,20
India,Haryana,Ambala,"Patti Mehar, Ambala - HSPCB",15-11-2025 07:00:00,30.379589,76.778328,NO2,20,24,22
India,Haryana,Ambala,"Patti Mehar, Ambala - HSPCB",15-11-2025 07:00:00,30.379589,76.778328,NH3,9,12,10
India,Haryana,Ballabgarh,"Nathu Colony, Ballabgarh - HSPCB",15-11-2025 07:00:00,28.3419248,77.319699,PM10,154,178,161
India,Haryana,Charkhi Dadri,"Mini Secretariat, Charkhi Dadri - HSPCB",15-11-2025 07:00:00,28.593883,76.270653,PM2.5,234,351,309
India,Haryana,Charkhi Dadri,"Mini Secretariat, Charkhi Dadri - HSPCB",15-11-2025 07:00:00,28.593883,76.270653,NO2,9,23,15
India,Haryana,Charkhi Dadri,"Mini Secretariat, Charkhi Dadri - HSPCB",15-11-2025 07:00:00,28.593883,76.270653,OZONE,14,18,16
India,Haryana,Dharuhera,"Municipal Corporation Office, Dharuhera -  HSPCB",15-11-2025 07:00:00,28.206800,76.799700,NO2,18,66,47
India,Karnataka,Bengaluru,"Peenya, Bengaluru - CPCB",15-11-2025 07:00:00,13.0270199,77.494094,NH3,NA,NA,NA
India,Karnataka,Bengaluru,"Peenya, Bengaluru - CPCB",15-11-2025 07:00:00,13.0270199,77.494094,SO2,NA,NA,NA
India,Karnataka,Bengaluru,"RVCE-Mailasandra, Bengaluru - KSPCB",15-11-2025 07:00:00,12.921418,77.502466,CO,26,47,35
India,Karnataka,Bengaluru,"Sanegurava Halli, Bengaluru - KSPCB",15-11-2025 07:00:00,12.990328,77.5431385,CO,20,61,29
India,Karnataka,Bengaluru,"Shivapura_Peenya, Bengaluru - KSPCB",15-11-2025 07:00:00,13.0246342,77.5080115,CO,44,54,51
India,Karnataka,Bengaluru,"Shivapura_Peenya, Bengaluru - KSPCB",15-11-2025 07:00:00,13.0246342,77.5080115,OZONE,19,20,19
India,Karnataka,Bengaluru,"Silk Board, Bengaluru - KSPCB",15-11-2025 07:00:00,12.917348,77.622813,PM2.5,71,98,88
India,Karnataka,Bengaluru,"Silk Board, Bengaluru - KSPCB",15-11-2025 07:00:00,12.917348,77.622813,PM10,110,203,143
India,Karnataka,Bengaluru,"Silk Board, Bengaluru - KSPCB",15-11-2025 07:00:00,12.917348,77.622813,NH3,2,2,2
India,Karnataka,Bengaluru,"Silk Board, Bengaluru - KSPCB",15-11-2025 07:00:00,12.917348,77.622813,SO2,7,10,9
India,Karnataka,Koppal,"Diwator Nagar, Koppal - KSPCB",15-11-2025 07:00:00,15.347630,76.181767,NO2,33,39,36
India,Karnataka,Mangalore,"Kadri, Mangalore - KSPCB",15-11-2025 07:00:00,12.889250,74.853000,NO2,3,6,5
India,Karnataka,Mangalore,"Kadri, Mangalore - KSPCB",15-11-2025 07:00:00,12.889250,74.853000,NH3,1,2,1
India,Karnataka,Mysuru,"Hebbal 1st Stage, Mysuru - KSPCB",15-11-2025 07:00:00,12.21041,76.37376,PM10,67,128,94
India,Karnataka,Mysuru,"Hebbal 1st Stage, Mysuru - KSPCB",15-11-2025 07:00:00,12.21041,76.37376,NO2,10,35,20
India,Karnataka,Mysuru,"Hebbal 1st Stage, Mysuru - KSPCB",15-11-2025 07:00:00,12.21041,76.37376,SO2,1,16,6
India,Karnataka,Mysuru,"Hebbal 1st Stage, Mysuru - KSPCB",15-11-2025 07:00:00,12.21041,76.37376,CO,10,38,18
India,Karnataka,Shivamogga,"Vinoba Nagara, Shivamogga - KSPCB",15-11-2025 07:00:00,13.940000,75.555917,NO2,16,18,16
India,Karnataka,Shivamogga,"Vinoba Nagara, Shivamogga - KSPCB",15-11-2025 07:00:00,13.940000,75.555917,OZONE,21,74,37
India,Karnataka,Bengaluru,"Hombegowda Nagar, Bengaluru - KSPCB",15-11-2025 07:00:00,12.938539,77.590100,NH3,2,3,3
India,Karnataka,Bengaluru,"Hombegowda Nagar, Bengaluru - KSPCB",15-11-2025 07:00:00,12.938539,77.590100,SO2,9,15,11
India,Karnataka,Bengaluru,"Hombegowda Nagar, Bengaluru - KSPCB",15-11-2025 07:00:00,12.938539,77.590100,OZONE,21,50,32
India,Karnataka,Bengaluru,"Jayanagar 5th Block, Bengaluru - KSPCB",15-11-2025 07:00:00,12.920984,77.584908,PM2.5,71,126,95
India,Karnataka,Bengaluru,"Jayanagar 5th Block, Bengaluru - KSPCB",15-11-2025 07:00:00,12.920984,77.584908,NH3,1,2,1
India,Karnataka,Bengaluru,"Jayanagar 5th Block, Bengaluru - KSPCB",15-11-2025 07:00:00,12.920984,77.584908,CO,8,95,15
India,Karnataka,Bengaluru,"Jigani, Bengaluru - KSPCB",15-11-2025 07:00:00,12.7816279,77.6299145,NO2,20,21,20
