country,state,city,station,last_update,latitude,longitude,pollutant_id,min_value,max_value,avg_value
India,Andhra_Pradesh,Nellore,"Ambedkar Nagar, Nellore - APPCB ",31-03-2026 08:00:00,14.438164 ,79.966814 ,PM10,22,95,52
India,Andhra_Pradesh,Nellore,"Ambedkar Nagar, Nellore - APPCB ",31-03-2026 08:00:00,14.438164 ,79.966814 ,NH3,1,4,3
India,Andhra_Pradesh,Nellore,"Ambedkar Nagar, Nellore - APPCB ",31-03-2026 08:00:00,14.438164 ,79.966814 ,CO,8,26,15
India,Andhra_Pradesh,Rajamahendravaram,"Anand Kala Kshetram, Rajamahendravaram - APPCB",31-03-2026 08:00:00,16.9872867,81.7363176,NH3,2,4,3
India,Andhra_Pradesh,Tirumala,"Toll Gate, Tirumala - APPCB",31-03-2026 08:00:00,13.67,79.35,CO,16,30,18
India,Andhra_Pradesh,Tirumala,"Toll Gate, Tirumala - APPCB",31-03-2026 08:00:00,13.67,79.35,OZONE,26,78,47
India,Andhra_Pradesh,Tirupati,"Vaikuntapuram, Tirupati - APPCB",31-03-2026 08:00:00,13.615387,79.409230,NO2,18,33,22
India,Andhra_Pradesh,Tirupati,"Vaikuntapuram, Tirupati - APPCB",31-03-2026 08:00:00,13.615387,79.409230,SO2,9,17,12
India,Andhra_Pradesh,Vijayawada,"HB Colony, Vijayawada - APPCB",31-03-2026 08:00:00,16.536107,80.594233,PM10,36,67,50
India,Andhra_Pradesh,Vijayawada,"HB Colony, Vijayawada - APPCB",31-03-2026 08:00:00,16.536107,80.594233,NH3,3,4,4
India,Andhra_Pradesh,Vijayawada,"Rajiv Gandhi Park, Vijayawada - APPCB",31-03-2026 08:00:00,16.509717,80.612222,CO,30,41,33
India,Andhra_Pradesh,Guntur,"Rajendra Nagar North, Guntur - APPCB",31-03-2026 08:00:00,16.316553,80.413302,PM2.5,40,68,51
India,Andhra_Pradesh,Amaravati,"Secretariat, Amaravati - APPCB",31-03-2026 08:00:00,16.5150833,80.5181667,PM2.5,20,62,36
India,Andhra_Pradesh,Chittoor,"Gangineni Cheruvu, Chittoor - APPCB",31-03-2026 08:00:00,13.204880,79.097889,NO2,23,37,26
India,Andhra_Pradesh,Kadapa,"Yerramukkapalli, Kadapa - APPCB",31-03-2026 08:00:00,14.465052,78.824187,PM2.5,32,318,88
India,Andhra_Pradesh,Kadapa,"Yerramukkapalli, Kadapa - APPCB",31-03-2026 08:00:00,14.465052,78.824187,OZONE,14,20,15
India,Andhra_Pradesh,Eluru,"District Court, Eluru - APPCB",31-03-2026 08:00:00,16.711754,81.092095,CO,13,34,19
India,Andhra_Pradesh,Visakhapatnam,"GVM Corporation, Visakhapatnam - APPCB",31-03-2026 08:00:00,17.72,83.3,CO,1,86,53
India,Arunachal_Pradesh,Naharlagun,"Naharlagun, Naharlagun - APSPCB",31-03-2026 08:00:00,27.103358,93.679645,PM10,18,91,56
India,Assam,Guwahati,"Pan Bazaar, Guwahati - PCBA",31-03-2026 08:00:00,26.187500,91.744194,OZONE,10,16,10
India,Assam,Guwahati,"Railway Colony, Guwahati - PCBA",31-03-2026 08:00:00,26.181742,91.78063,PM2.5,31,58,48
India,Andhra_Pradesh,Visakhapatnam,"GVM Corporation, Visakhapatnam - APPCB",31-03-2026 08:00:00,17.72,83.3,PM10,46,219,98
India,Andhra_Pradesh,Visakhapatnam,"GVM Corporation, Visakhapatnam - APPCB",31-03-2026 08:00:00,17.72,83.3,SO2,3,96,37
India,Assam,Guwahati,"Pan Bazaar, Guwahati - PCBA",31-03-2026 08:00:00,26.187500,91.744194,PM2.5,1,259,29
India,Assam,Guwahati,"Pan Bazaar, Guwahati - PCBA",31-03-2026 08:00:00,26.187500,91.744194,NH3,1,1,1
India,Andhra_Pradesh,Visakhapatnam,"GVM Corporation, Visakhapatnam - APPCB",31-03-2026 08:00:00,17.72,83.3,PM2.5,11,77,34
India,Arunachal_Pradesh,Naharlagun,"Naharlagun, Naharlagun - APSPCB",31-03-2026 08:00:00,27.103358,93.679645,OZONE,6,6,6
India,Assam,Guwahati,"Railway Colony, Guwahati - PCBA",31-03-2026 08:00:00,26.181742,91.78063,NO2,2,4,3
India,Assam,Guwahati,"LGBI Airport, Guwahati - PCBA",31-03-2026 08:00:00,26.10887,91.589544,CO,17,79,46
India,Assam,Guwahati,"IITG, Guwahati - PCBA",31-03-2026 08:00:00,26.2028636,91.70046436,NO2,1,2,1
India,Bihar,Bihar Sharif,"D M Colony, Bihar Sharif - BSPCB",31-03-2026 08:00:00,25.204762,85.514960,NH3,3,4,3
India,Bihar,Bihar Sharif,"D M Colony, Bihar Sharif - BSPCB",31-03-2026 08:00:00,25.204762,85.514960,CO,54,67,59
India,Bihar,Bihar Sharif,"D M Colony, Bihar Sharif - BSPCB",31-03-2026 08:00:00,25.204762,85.514960,OZONE,1,2,2
India,Bihar,Buxar,"Charitra Van, Buxar - BSPCB",31-03-2026 08:00:00,25.567520,83.966379,NO2,9,10,10
India,Bihar,Araria,"Kharahiya Basti, Araria - BSPCB",31-03-2026 08:00:00,26.146529,87.454184,PM2.5,27,203,73
India,Bihar,Araria,"Kharahiya Basti, Araria - BSPCB",31-03-2026 08:00:00,26.146529,87.454184,PM10,26,116,60
India,Bihar,Araria,"Kharahiya Basti, Araria - BSPCB",31-03-2026 08:00:00,26.146529,87.454184,NO2,1,6,2
India,Bihar,Bhagalpur,"DM Office_Kachari Chowk, Bhagalpur - BSPCB",31-03-2026 08:00:00,25.251013,86.989001,NO2,6,10,9
India,Assam,Sivasagar,"Girls College, Sivasagar - PCBA",31-03-2026 08:00:00,26.987634,94.636574,PM2.5,19,36,28
India,Bihar,Arrah,"New DM Office, Arrah - BSPCB",31-03-2026 08:00:00,25.5626095,84.663264,OZONE,4,11,8
India,Bihar,Bhagalpur,"Mayaganj, Bhagalpur - BSPCB",31-03-2026 08:00:00,25.265194,87.012947,PM10,6,49,27
India,Assam,Nagaon,"Christianpatty, Nagaon - PCBA",31-03-2026 08:00:00,26.349082,92.68449,PM10,18,74,38
India,Assam,Nalbari,"Bata Chowk, Nalbari - PCBA",31-03-2026 08:00:00,26.446912,91.439057,PM10,39,51,46
India,Assam,Silchar,"Tarapur, Silchar - PCBA",31-03-2026 08:00:00,24.82827,92.79525,SO2,6,7,6
India,Bihar,Manguraha,"Forest Rest House, Manguraha - BSPCB",31-03-2026 08:00:00,27.308328,84.531742,NO2,3,40,14
India,Bihar,Manguraha,"Forest Rest House, Manguraha - BSPCB",31-03-2026 08:00:00,27.308328,84.531742,SO2,16,17,16
India,Bihar,Manguraha,"Forest Rest House, Manguraha - BSPCB",31-03-2026 08:00:00,27.308328,84.531742,CO,32,33,33
India,Bihar,Munger,"Town Hall, Munger - BSPCB",31-03-2026 08:00:00,25.376776,86.471523,PM2.5,22,97,44
India,Bihar,Muzaffarpur,"Buddha Colony, Muzaffarpur - BSPCB",31-03-2026 08:00:00,26.11442,85.39813,NO2,17,30,22
India,Bihar,Muzaffarpur,"MIT-Daudpur Kothi, Muzaffarpur - BSPCB",31-03-2026 08:00:00,26.1403345,85.3650192,OZONE,11,44,11
India,Bihar,Hajipur,"Industrial Area, Hajipur - BSPCB",31-03-2026 08:00:00,25.697189,85.245900,PM10,52,120,91
India,Bihar,Hajipur,"Industrial Area, Hajipur - BSPCB",31-03-2026 08:00:00,25.697189,85.245900,OZONE,12,109,18
India,Bihar,Katihar,"Mirchaibari, Katihar - BSPCB",31-03-2026 08:00:00,25.560083,87.553265,NH3,1,1,1
India,Bihar,Katihar,"Mirchaibari, Katihar - BSPCB",31-03-2026 08:00:00,25.560083,87.553265,SO2,12,25,18
India,Bihar,Katihar,"Mirchaibari, Katihar - BSPCB",31-03-2026 08:00:00,25.560083,87.553265,OZONE,4,12,7
India,Bihar,Kishanganj,"SDM Office_Khagra, Kishanganj - BSPCB",31-03-2026 08:00:00,26.0881305,87.93840336,NO2,10,11,10
India,Bihar,Patna,"Govt. High School Shikarpur, Patna - BSPCB",31-03-2026 08:00:00,25.592539,85.227158,OZONE,2,92,3
India,Bihar,Patna,"IGSC Planetarium Complex, Patna - BSPCB",31-03-2026 08:00:00,25.610369,85.132568,PM2.5,61,143,90
India,Bihar,Patna,"IGSC Planetarium Complex, Patna - BSPCB",31-03-2026 08:00:00,25.610369,85.132568,NO2,1,2,1
India,Bihar,Patna,"IGSC Planetarium Complex, Patna - BSPCB",31-03-2026 08:00:00,25.610369,85.132568,SO2,1,17,6
India,Bihar,Patna,"IGSC Planetarium Complex, Patna - BSPCB",31-03-2026 08:00:00,25.610369,85.132568,OZONE,47,49,48
India,Bihar,Patna,"Muradpur, Patna - BSPCB",31-03-2026 08:00:00,25.619651,85.147382,PM10,90,155,126
India,Bihar,Siwan,"Chitragupta Nagar, Siwan - BSPCB",31-03-2026 08:00:00,26.2271665,84.3570427,PM2.5,NA,NA,NA
India,Bihar,Siwan,"Chitragupta Nagar, Siwan - BSPCB",31-03-2026 08:00:00,26.2271665,84.3570427,PM10,NA,NA,NA
India,Chandigarh,Chandigarh,"Sector 22, Chandigarh - CPCC",31-03-2026 08:00:00,30.735567,76.775714,PM10,40,112,65
India,Chandigarh,Chandigarh,"Sector-25, Chandigarh - CPCC",31-03-2026 08:00:00,30.751462,76.762879,CO,14,56,28
India,Bihar,Chhapra,"Darshan Nagar, Chhapra - BSPCB",31-03-2026 08:00:00,25.7808257,84.7446768,NH3,10,22,17
India,Bihar,Gaya,"Collectorate, Gaya - BSPCB",31-03-2026 08:00:00,24.7955,84.9994,NO2,NA,NA,NA
India,Bihar,Gaya,"Kareemganj, Gaya - BSPCB",31-03-2026 08:00:00,24.792403,84.992416,PM2.5,50,300,151
India,Bihar,Patna,"Muradpur, Patna - BSPCB",31-03-2026 08:00:00,25.619651,85.147382,CO,1,25,25
India,Bihar,Patna,"Samanpura, Patna - BSPCB",31-03-2026 08:00:00,25.596727,85.085624,NH3,2,3,3
India,Bihar,Rajgir,"Dangi Tola, Rajgir - BSPCB",31-03-2026 08:00:00,25.03280,85.41948,NO2,12,14,14
India,Bihar,Muzaffarpur,"Muzaffarpur Collectorate, Muzaffarpur - BSPCB",31-03-2026 08:00:00,26.1209,85.3647,PM2.5,67,93,78
India,Chhattisgarh,Bhilai,"32Bungalows, Bhilai - CECB",31-03-2026 08:00:00,21.194815,81.314770,OZONE,6,32,18
India,Bihar,Gaya,"Kareemganj, Gaya - BSPCB",31-03-2026 08:00:00,24.792403,84.992416,PM10,101,315,174
India,Delhi,Delhi,"Bawana, Delhi - DPCC",31-03-2026 08:00:00,28.776200,77.051074,SO2,10,52,23
India,Delhi,Delhi,"Burari Crossing, Delhi - IMD",31-03-2026 08:00:00,28.7256504,77.2011573,NO2,13,41,29
India,Delhi,Delhi,"CRRI Mathura Road, Delhi - IMD",31-03-2026 08:00:00,28.5512005,77.2735737,PM2.5,39,303,101
India,Delhi,Delhi,"CRRI Mathura Road, Delhi - IMD",31-03-2026 08:00:00,28.5512005,77.2735737,CO,32,110,95
India,Delhi,Delhi,"Cantonment Area, Delhi - DPCC ",31-03-2026 08:00:00,28.594169 ,77.125100 ,PM2.5,22,49,31
India,Delhi,Delhi,"Cantonment Area, Delhi - DPCC ",31-03-2026 08:00:00,28.594169 ,77.125100 ,PM10,111,171,148
India,Delhi,Delhi,"Chandni Chowk, Delhi - IITM",31-03-2026 08:00:00,28.656756,77.227234,PM10,110,406,215
India,Delhi,Delhi,"Chandni Chowk, Delhi - IITM",31-03-2026 08:00:00,28.656756,77.227234,SO2,7,16,11
India,Delhi,Delhi,"Commonwealth Sports Complex, Delhi - DPCC",31-03-2026 08:00:00,28.615828 ,77.271992 ,PM10,114,225,178
India,Delhi,Delhi,"Commonwealth Sports Complex, Delhi - DPCC",31-03-2026 08:00:00,28.615828 ,77.271992 ,NO2,29,76,52
India,Delhi,Delhi,"Commonwealth Sports Complex, Delhi - DPCC",31-03-2026 08:00:00,28.615828 ,77.271992 ,CO,96,122,117
India,Chhattisgarh,Kunjemura,"OP Jindal School, Kunjemura - CECB",31-03-2026 08:00:00,22.126650,83.483212,CO,14,74,36
India,Chhattisgarh,Raipur,"AIIMS, Raipur - CECB",31-03-2026 08:00:00,21.258815,81.578979,NO2,25,42,37
India,Chhattisgarh,Raipur,"Bhatagaon New ISBT, Raipur - CECB",31-03-2026 08:00:00,21.219665,81.630094,PM10,24,83,50
India,Chhattisgarh,Raipur,"Bhatagaon New ISBT, Raipur - CECB",31-03-2026 08:00:00,21.219665,81.630094,CO,16,108,32
India,Chhattisgarh,Raipur,"Bhatagaon New ISBT, Raipur - CECB",31-03-2026 08:00:00,21.219665,81.630094,OZONE,1,9,1
India,Chhattisgarh,Raipur,"Krishak Nagar, Raipur - CECB",31-03-2026 08:00:00,21.237755,81.705301,NO2,14,27,18
India,Chhattisgarh,Raipur,"Krishak Nagar, Raipur - CECB",31-03-2026 08:00:00,21.237755,81.705301,SO2,3,20,8
India,Chhattisgarh,Raipur,"Krishak Nagar, Raipur - CECB",31-03-2026 08:00:00,21.237755,81.705301,CO,16,31,18
India,Chhattisgarh,Tumidih,"OP Jindal Industrial Park, Tumidih - CECB",31-03-2026 08:00:00,22.06631475,83.33820077,NH3,1,3,2
India,Delhi,Delhi,"Alipur, Delhi - DPCC",31-03-2026 08:00:00,28.815329,77.153010,NH3,12,15,13
India,Delhi,Delhi,"Alipur, Delhi - DPCC",31-03-2026 08:00:00,28.815329,77.153010,SO2,8,19,10
India,Delhi,Delhi,"Anand Vihar, Delhi - DPCC",31-03-2026 08:00:00,28.647622,77.3158090,PM10,118,421,299
India,Delhi,Delhi,"Anand Vihar, Delhi - DPCC",31-03-2026 08:00:00,28.647622,77.3158090,OZONE,4,62,5
India,Delhi,Delhi,"Dr. Karni Singh Shooting Range, Delhi - DPCC",31-03-2026 08:00:00,28.498571,77.264840,CO,33,88,60
India,Delhi,Delhi,"Dwarka-Sector 8, Delhi - DPCC ",31-03-2026 08:00:00,28.5710274,77.0719006,NO2,30,105,60
India,Delhi,Delhi,"IGI Airport (T3), Delhi - IMD",31-03-2026 08:00:00,28.5627763,77.1180053,CO,24,70,54
India,Delhi,Delhi,"IGNOU_Maidan Garhi, Delhi - DPCC",31-03-2026 08:00:00,28.493624 ,77.201159 ,SO2,56,59,57
India,Delhi,Delhi,"Major Dhyan Chand National Stadium, Delhi - DPCC",31-03-2026 08:00:00,28.611281,77.237738,NO2,29,108,67
India,Delhi,Delhi,"Major Dhyan Chand National Stadium, Delhi - DPCC",31-03-2026 08:00:00,28.611281,77.237738,SO2,9,21,13
India,Delhi,Delhi,"Mundka, Delhi - DPCC",31-03-2026 08:00:00,28.684678,77.076574,NO2,28,88,50
India,Delhi,Delhi,"NSIT Dwarka, Delhi - CPCB",31-03-2026 08:00:00,28.60909,77.0325413,PM10,103,408,219
India,Delhi,Delhi,"IIT Delhi, Delhi - IITM",31-03-2026 08:00:00,28.542460,77.191651,OZONE,NA,NA,NA
India,Delhi,Delhi,"Jahangirpuri, Delhi - DPCC",31-03-2026 08:00:00,28.732820,77.170633,NH3,6,12,9
India,Delhi,Delhi,"Jahangirpuri, Delhi - DPCC",31-03-2026 08:00:00,28.732820,77.170633,SO2,50,82,63
India,Delhi,Delhi,"Jawaharlal Nehru Stadium, Delhi - DPCC",31-03-2026 08:00:00,28.580280,77.233829,CO,32,103,55
India,Chhattisgarh,Bhilai,"Civic Center, Bhilai - Bhilai Steel Plant",31-03-2026 08:00:00,21.185571,81.343175,CO,25,31,26
India,Chhattisgarh,Bhilai,"Hathkhoj, Bhilai - CECB",31-03-2026 08:00:00,21.224231,81.408350,PM10,31,70,53
India,Chhattisgarh,Bilaspur,"Mangala, Bilaspur - NTPC",31-03-2026 08:00:00,22.08815,82.13737,PM2.5,23,122,59
India,Chhattisgarh,Korba,"Rampur, Korba - CECB",31-03-2026 08:00:00,22.368195,82.746431,OZONE,1,18,2
India,Chhattisgarh,Korba,"Urja Nagar, Korba - CECB",31-03-2026 08:00:00,22.348441,82.549611,NH3,1,1,1
India,Chhattisgarh,Chhal,"Nawapara SECL Colony, Chhal - CECB",31-03-2026 08:00:00,22.118125,83.140608,PM10,34,116,84
India,Chhattisgarh,Chhal,"Nawapara SECL Colony, Chhal - CECB",31-03-2026 08:00:00,22.118125,83.140608,OZONE,34,134,34
India,Gujarat,Ahmedabad,"Maninagar, Ahmedabad - GPCB",31-03-2026 08:00:00,23.002657,72.591912,PM10,45,89,66
India,Gujarat,Ahmedabad,"Maninagar, Ahmedabad - GPCB",31-03-2026 08:00:00,23.002657,72.591912,NO2,85,93,88
India,Gujarat,Ahmedabad,"Maninagar, Ahmedabad - GPCB",31-03-2026 08:00:00,23.002657,72.591912,CO,1,78,15
India,Gujarat,Ahmedabad,"Raikhad, Ahmedabad - IITM",31-03-2026 08:00:00,23.020509,72.579261,PM2.5,26,41,35
India,Gujarat,Ahmedabad,"Raikhad, Ahmedabad - IITM",31-03-2026 08:00:00,23.020509,72.579261,NH3,7,11,8
India,Gujarat,Ahmedabad,"Rakhial, Ahmedabad - IITM",31-03-2026 08:00:00,23.016834,72.625775,SO2,4,19,10
India,Gujarat,Ahmedabad,"SAC ISRO Bopal, Ahmedabad - IITM",31-03-2026 08:00:00,23.041137,72.456691,PM2.5,21,48,37
India,Gujarat,Ahmedabad,"SAC ISRO Bopal, Ahmedabad - IITM",31-03-2026 08:00:00,23.041137,72.456691,PM10,25,57,42
India,Gujarat,Ahmedabad,"SAC ISRO Satellite, Ahmedabad - IITM",31-03-2026 08:00:00,23.023389,72.515201,PM2.5,23,81,47
India,Gujarat,Ahmedabad,"SAC ISRO Satellite, Ahmedabad - IITM",31-03-2026 08:00:00,23.023389,72.515201,SO2,4,13,9
India,Gujarat,Surat,"Katargam, Surat - Nexteng Enviro",31-03-2026 08:00:00,21.217779 ,72.834787 ,PM2.5,19,135,56
India,Gujarat,Surat,"Katargam, Surat - Nexteng Enviro",31-03-2026 08:00:00,21.217779 ,72.834787 ,NH3,1,1,1
India,Gujarat,Surat,"Science Center, Surat - SMC",31-03-2026 08:00:00,21.170046,72.795405,PM10,NA,NA,NA
India,Gujarat,Vadodara,"Bapunagar, Vadodara - Nexteng Enviro",31-03-2026 08:00:00,22.320153,73.216285,SO2,3,5,4
India,Gujarat,Vapi,"Phase-1 GIDC, Vapi - GPCB",31-03-2026 08:00:00,20.362421,72.918013,PM10,NA,NA,NA
India,Gujarat,Vapi,"Phase-1 GIDC, Vapi - GPCB",31-03-2026 08:00:00,20.362421,72.918013,NO2,NA,NA,NA
India,Gujarat,Vapi,"Phase-1 GIDC, Vapi - GPCB",31-03-2026 08:00:00,20.362421,72.918013,SO2,NA,NA,NA
India,Gujarat,Vatva,"Phase-4 GIDC, Vatva - GPCB",31-03-2026 08:00:00,22.969611,72.643500,PM10,74,115,100
India,Gujarat,Vatva,"Phase-4 GIDC, Vatva - GPCB",31-03-2026 08:00:00,22.969611,72.643500,NH3,30,41,35
India,Delhi,Delhi,"North Campus, DU, Delhi - IMD",31-03-2026 08:00:00,28.6573814,77.1585447,PM2.5,11,343,141
India,Delhi,Delhi,"North Campus, DU, Delhi - IMD",31-03-2026 08:00:00,28.6573814,77.1585447,NO2,13,64,39
India,Delhi,Delhi,"Okhla Phase-2, Delhi - DPCC",31-03-2026 08:00:00,28.530785,77.271255,PM10,127,369,193
India,Delhi,Delhi,"Okhla Phase-2, Delhi - DPCC",31-03-2026 08:00:00,28.530785,77.271255,OZONE,4,98,8
India,Delhi,Delhi,"Patparganj, Delhi - DPCC",31-03-2026 08:00:00,28.623763,77.287209,PM2.5,45,382,143
India,Delhi,Delhi,"Patparganj, Delhi - DPCC",31-03-2026 08:00:00,28.623763,77.287209,CO,47,110,79
India,Delhi,Delhi,"Punjabi Bagh, Delhi - DPCC",31-03-2026 08:00:00,28.674045,77.131023,PM10,122,318,194
India,Delhi,Delhi,"Pusa, Delhi - DPCC",31-03-2026 08:00:00,28.639652,77.146275,NH3,2,11,7
India,Delhi,Delhi,"Pusa, Delhi - DPCC",31-03-2026 08:00:00,28.639652,77.146275,CO,48,113,63
India,Gujarat,Ankleshwar,"GIDC, Ankleshwar - GPCB",31-03-2026 08:00:00,21.613267,73.010555,CO,34,54,43
India,Gujarat,Bhavnagar,"Vidhyanagar, Bhavnagar - Nexteng Enviro",31-03-2026 08:00:00,21.755417,72.139056,PM2.5,23,200,71
India,Gujarat,Bhavnagar,"Vidhyanagar, Bhavnagar - Nexteng Enviro",31-03-2026 08:00:00,21.755417,72.139056,PM10,56,122,88
India,Gujarat,Bhavnagar,"Vidhyanagar, Bhavnagar - Nexteng Enviro",31-03-2026 08:00:00,21.755417,72.139056,NH3,1,2,2
India,Gujarat,Bhavnagar,"Vidhyanagar, Bhavnagar - Nexteng Enviro",31-03-2026 08:00:00,21.755417,72.139056,OZONE,2,11,3
India,Gujarat,Gandhinagar,"GIFT City, Gandhinagar - IITM",31-03-2026 08:00:00,23.163798,72.677768,SO2,8,16,12
India,Gujarat,Gandhinagar,"IIPHG Lekawada, Gandhinagar - IITM",31-03-2026 08:00:00,23.243639,72.68994,PM10,61,124,90
India,Gujarat,Gandhinagar,"IIPHG Lekawada, Gandhinagar - IITM",31-03-2026 08:00:00,23.243639,72.68994,CO,2,22,8
India,Gujarat,Gandhinagar,"Sector-10, Gandhinagar - GPCB",31-03-2026 08:00:00,23.221714,72.654328,PM2.5,33,76,53
India,Gujarat,Mehsana,"Sadanand Nagar, Mehsana - Nexteng Enviro",31-03-2026 08:00:00,23.593150,72.372792,SO2,2,4,3
India,Gujarat,Mehsana,"Sadanand Nagar, Mehsana - Nexteng Enviro",31-03-2026 08:00:00,23.593150,72.372792,CO,56,58,58
India,Gujarat,Nandesari,"GIDC, Nandesari - Nandesari Ind. Association",31-03-2026 08:00:00,22.410802,73.097923,PM2.5,NA,NA,NA
India,Gujarat,Nandesari,"GIDC, Nandesari - Nandesari Ind. Association",31-03-2026 08:00:00,22.410802,73.097923,NO2,NA,NA,NA
India,Gujarat,Rajkot,"Mavdi, Rajkot - Nexteng Enviro ",31-03-2026 08:00:00,22.248853,70.776774,PM2.5,2,103,69
India,Gujarat,Rajkot,"Mavdi, Rajkot - Nexteng Enviro ",31-03-2026 08:00:00,22.248853,70.776774,SO2,10,34,16
India,Delhi,Delhi,"Sri Aurobindo Marg, Delhi - DPCC",31-03-2026 08:00:00,28.531346,77.190156,SO2,4,10,7
India,Delhi,Delhi,"Talkatora Garden, Delhi - DPCC",31-03-2026 08:00:00,28.621810,77.1944633,CO,104,119,116
India,Delhi,Delhi,"Vivek Vihar, Delhi - DPCC",31-03-2026 08:00:00,28.672342,77.315260,PM2.5,46,337,169
India,Delhi,Delhi,"Vivek Vihar, Delhi - DPCC",31-03-2026 08:00:00,28.672342,77.315260,PM10,134,288,183
India,Delhi,Delhi,"Wazirpur, Delhi - DPCC",31-03-2026 08:00:00,28.699793,77.165453,CO,60,119,96
India,Gujarat,Ahmedabad,"Chandkheda, Ahmedabad - IITM",31-03-2026 08:00:00,23.107969,72.574648,CO,2,27,8
India,Delhi,Delhi,"Rohini, Delhi - DPCC",31-03-2026 08:00:00,28.732528,77.119920,CO,11,73,50
India,Delhi,Delhi,"Shadipur, Delhi - CPCB",31-03-2026 08:00:00,28.6514781,77.1473105,PM2.5,109,324,234
India,Delhi,Delhi,"Shadipur, Delhi - CPCB",31-03-2026 08:00:00,28.6514781,77.1473105,NH3,7,11,9
India,Delhi,Delhi,"Shadipur, Delhi - CPCB",31-03-2026 08:00:00,28.6514781,77.1473105,SO2,10,20,15
India,Delhi,Delhi,"Shadipur, Delhi - CPCB",31-03-2026 08:00:00,28.6514781,77.1473105,OZONE,7,31,8
India,Delhi,Delhi,"Sirifort, Delhi - CPCB",31-03-2026 08:00:00,28.5504249,77.2159377,PM10,123,208,165
India,Delhi,Delhi,"Sirifort, Delhi - CPCB",31-03-2026 08:00:00,28.5504249,77.2159377,NH3,6,16,11
India,Delhi,Delhi,"Sirifort, Delhi - CPCB",31-03-2026 08:00:00,28.5504249,77.2159377,CO,2,62,47
India,Delhi,Delhi,"NSIT Dwarka, Delhi - CPCB",31-03-2026 08:00:00,28.60909,77.0325413,OZONE,24,69,27
India,Delhi,Delhi,"Najafgarh, Delhi - DPCC",31-03-2026 08:00:00,28.570173,76.933762,NO2,9,113,78
India,Delhi,Delhi,"Najafgarh, Delhi - DPCC",31-03-2026 08:00:00,28.570173,76.933762,OZONE,2,106,5
India,Delhi,Delhi,"R K Puram, Delhi - DPCC",31-03-2026 08:00:00,28.563262,77.186937,NO2,24,88,53
India,Haryana,Gurugram,"NISE Gwal Pahari, Gurugram - IMD",31-03-2026 08:00:00,28.422681,77.148944,PM10,118,353,187
India,Haryana,Gurugram,"NISE Gwal Pahari, Gurugram - IMD",31-03-2026 08:00:00,28.422681,77.148944,OZONE,11,63,12
India,Haryana,Gurugram,"Teri Gram, Gurugram - HSPCB",31-03-2026 08:00:00,28.4275,77.1465,PM2.5,NA,NA,NA
India,Haryana,Gurugram,"Teri Gram, Gurugram - HSPCB",31-03-2026 08:00:00,28.4275,77.1465,NO2,NA,NA,NA
India,Haryana,Gurugram,"Vikas Sadan, Gurugram - HSPCB",31-03-2026 08:00:00,28.4501238,77.0263051,OZONE,4,31,11
India,Haryana,Hisar,"Urban Estate-II, Hisar - HSPCB",31-03-2026 08:00:00,29.140560,75.744941,NH3,11,11,11
India,Haryana,Hisar,"Urban Estate-II, Hisar - HSPCB",31-03-2026 08:00:00,29.140560,75.744941,CO,22,60,35
India,Haryana,Jind,"Police Lines, Jind - HSPCB",31-03-2026 08:00:00,29.307814,76.337619,NH3,4,6,5
India,Karnataka,Bengaluru,"Bapuji Nagar, Bengaluru - KSPCB",31-03-2026 08:00:00,12.951913,77.539784,PM2.5,29,72,52
India,Karnataka,Bengaluru,"Bapuji Nagar, Bengaluru - KSPCB",31-03-2026 08:00:00,12.951913,77.539784,OZONE,27,96,42
India,Karnataka,Bengaluru,"Hebbal, Bengaluru - KSPCB",31-03-2026 08:00:00,13.029152,77.585901,PM2.5,58,107,84
India,Karnataka,Bengaluru,"Hebbal, Bengaluru - KSPCB",31-03-2026 08:00:00,13.029152,77.585901,NH3,3,4,3
India,Karnataka,Bengaluru,"Hebbal, Bengaluru - KSPCB",31-03-2026 08:00:00,13.029152,77.585901,CO,9,52,19
India,Karnataka,Bengaluru,"Jayanagar 5th Block, Bengaluru - KSPCB",31-03-2026 08:00:00,12.920984,77.584908,NO2,14,21,17
India,Karnataka,Bengaluru,"Jigani, Bengaluru - KSPCB",31-03-2026 08:00:00,12.7816279,77.6299145,PM2.5,40,97,58
India,Haryana,Panchgaon,"Amity University, Panchgaon - IITM",31-03-2026 08:00:00,28.3153,76.9143,OZONE,NA,NA,NA
India,Haryana,Panchkula,"Sector-6, Panchkula - HSPCB ",31-03-2026 08:00:00,30.7057778,76.8531805555555,PM2.5,36,153,82
India,Haryana,Rohtak,"MD University, Rohtak - HSPCB",31-03-2026 08:00:00,28.52123,76.37138,PM2.5,2,500,158
India,Haryana,Rohtak,"MD University, Rohtak - HSPCB",31-03-2026 08:00:00,28.52123,76.37138,CO,31,38,34
India,Haryana,Sirsa,"F-Block, Sirsa - HSPCB",31-03-2026 08:00:00,29.536400,75.015800,NH3,13,14,13
India,Haryana,Yamuna Nagar,"Gobind Pura, Yamuna Nagar - HSPCB",31-03-2026 08:00:00,30.1480566,77.2893471,OZONE,8,33,12
India,Jammu_and_Kashmir,Pampore,"Khrew, Pampore - JKPCC",31-03-2026 08:00:00,34.031606,75.009712,PM10,3,58,20
India,Jharkhand,Dhanbad,"Sardar Patel Nagar, Dhanbad - JSPCB",31-03-2026 08:00:00,23.80569,86.44268,OZONE,2,64,14
India,Jharkhand,Jorapokhar,"Tata Stadium, Jorapokhar - JSPCB",31-03-2026 08:00:00,23.707909,86.414670,SO2,4,4,4
India,Haryana,Mandikhera,"General Hospital, Mandikhera(Nuh) - HSPCB",31-03-2026 08:00:00,27.9002,76.9938,NH3,13,14,14
India,Haryana,Manesar,"Sector-2 IMT, Manesar - HSPCB",31-03-2026 08:00:00,28.360699,76.936090,PM10,102,152,125
India,Haryana,Manesar,"Sector-2 IMT, Manesar - HSPCB",31-03-2026 08:00:00,28.360699,76.936090,CO,2,24,18
India,Haryana,Narnaul,"Shastri Nagar, Narnaul - HSPCB",31-03-2026 08:00:00,28.060249,76.113115,SO2,7,8,8
India,Haryana,Faridabad,"New Industrial Town, Faridabad - HSPCB",31-03-2026 08:00:00,28.39072,77.30059,OZONE,11,16,14
India,Haryana,Faridabad,"Sector 30, Faridabad - HSPCB",31-03-2026 08:00:00,28.4417,77.3217,NO2,36,40,37
India,Haryana,Faridabad,"Sector 30, Faridabad - HSPCB",31-03-2026 08:00:00,28.4417,77.3217,CO,20,64,60
India,Haryana,Fatehabad,"Huda Sector, Fatehabad - HSPCB",31-03-2026 08:00:00,29.503664,75.467934,PM2.5,NA,NA,NA
India,Haryana,Ambala,"Patti Mehar, Ambala - HSPCB",31-03-2026 08:00:00,30.379589,76.778328,NH3,6,8,8
India,Haryana,Ballabgarh,"Nathu Colony, Ballabgarh - HSPCB",31-03-2026 08:00:00,28.3419248,77.319699,PM2.5,193,215,202
India,Haryana,Bhiwani,"H.B. Colony, Bhiwani - HSPCB",31-03-2026 08:00:00,28.806223,76.141105,SO2,2,14,5
India,Karnataka,Bagalkot,"Vidayagiri, Bagalkot - KSPCB",31-03-2026 08:00:00,16.172806,75.659694,NO2,6,12,11
India,Karnataka,Bengaluru,"BTM Layout, Bengaluru - CPCB",31-03-2026 08:00:00,12.9135218,77.5950804,PM10,NA,NA,NA
India,Karnataka,Bengaluru,"BTM Layout, Bengaluru - CPCB",31-03-2026 08:00:00,12.9135218,77.5950804,NO2,NA,NA,NA
India,Haryana,Kaithal,"Rishi Nagar, Kaithal - HSPCB",31-03-2026 08:00:00,29.8006,76.4155,NO2,10,36,30
India,Haryana,Kaithal,"Rishi Nagar, Kaithal - HSPCB",31-03-2026 08:00:00,29.8006,76.4155,SO2,43,45,44
India,Haryana,Karnal,"Sector-12, Karnal - HSPCB",31-03-2026 08:00:00,29.695300,77.002700,CO,12,16,12
India,Madhya Pradesh,Dewas,"Bhopal Chauraha, Dewas - MPPCB",31-03-2026 08:00:00,22.9682591,76.064118,NO2,26,63,47
India,Madhya Pradesh,Dewas,"Bhopal Chauraha, Dewas - MPPCB",31-03-2026 08:00:00,22.9682591,76.064118,NH3,5,7,6
India,Madhya Pradesh,Dewas,"Bhopal Chauraha, Dewas - MPPCB",31-03-2026 08:00:00,22.9682591,76.064118,SO2,11,126,68
India,Madhya Pradesh,Gwalior,"City Center, Gwalior - MPPCB",31-03-2026 08:00:00,26.203442,78.193251,PM2.5,4,83,24
India,Madhya Pradesh,Gwalior,"Deen Dayal Nagar, Gwalior - MPPCB",31-03-2026 08:00:00,26.259242,78.216432,PM2.5,41,301,121
India,Madhya Pradesh,Gwalior,"Maharaj Bada, Gwalior - MPPCB",31-03-2026 08:00:00,26.200388,78.147714,PM10,62,291,139
India,Madhya Pradesh,Gwalior,"Maharaj Bada, Gwalior - MPPCB",31-03-2026 08:00:00,26.200388,78.147714,NO2,20,67,33
India,Madhya Pradesh,Indore,"Airport Area, Indore - IMC",31-03-2026 08:00:00,22.7289,75.8076,SO2,3,4,3
India,Madhya Pradesh,Indore,"Airport Area, Indore - IMC",31-03-2026 08:00:00,22.7289,75.8076,CO,2,11,4
India,Madhya Pradesh,Indore,"Chhoti Gwaltoli, Indore - MPPCB",31-03-2026 08:00:00,22.4310,75.5213,PM2.5,14,311,77
India,Madhya Pradesh,Indore,"Chhoti Gwaltoli, Indore - MPPCB",31-03-2026 08:00:00,22.4310,75.5213,SO2,8,23,12
India,Madhya Pradesh,Indore,"Chhoti Gwaltoli, Indore - MPPCB",31-03-2026 08:00:00,22.4310,75.5213,CO,22,98,26
India,Karnataka,Vijayapura,"Ibrahimpur, Vijayapura - KSPCB",31-03-2026 08:00:00,16.802639,75.722694,PM2.5,21,31,30
India,Karnataka,Vijayapura,"Ibrahimpur, Vijayapura - KSPCB",31-03-2026 08:00:00,16.802639,75.722694,PM10,26,39,38
India,Karnataka,Vijayapura,"Ibrahimpur, Vijayapura - KSPCB",31-03-2026 08:00:00,16.802639,75.722694,NH3,4,4,4
India,Karnataka,Vijayapura,"Ibrahimpur, Vijayapura - KSPCB",31-03-2026 08:00:00,16.802639,75.722694,SO2,3,6,3
India,Karnataka,Yadgir,"Collector Office, Yadgir - KSPCB",31-03-2026 08:00:00,16.7602,77.1428,PM2.5,40,98,67
India,Karnataka,Yadgir,"Collector Office, Yadgir - KSPCB",31-03-2026 08:00:00,16.7602,77.1428,NH3,1,2,1
India,Karnataka,Yadgir,"Collector Office, Yadgir - KSPCB",31-03-2026 08:00:00,16.7602,77.1428,SO2,4,17,12
India,Karnataka,Yadgir,"Collector Office, Yadgir - KSPCB",31-03-2026 08:00:00,16.7602,77.1428,OZONE,4,13,12
India,Kerala,Kannur,"Thavakkara, Kannur - Kerala PCB",31-03-2026 08:00:00,11.875000,75.373200,NO2,NA,NA,NA
India,Kerala,Kannur,"Thavakkara, Kannur - Kerala PCB",31-03-2026 08:00:00,11.875000,75.373200,OZONE,NA,NA,NA
India,Kerala,Kollam,"Polayathode, Kollam - Kerala PCB",31-03-2026 08:00:00,8.8787,76.6073,PM10,NA,NA,NA
India,Kerala,Kollam,"Polayathode, Kollam - Kerala PCB",31-03-2026 08:00:00,8.8787,76.6073,CO,NA,NA,NA
India,Madhya Pradesh,Jabalpur,"Suhagi, Jabalpur - JMC",31-03-2026 08:00:00,23.218135,79.957770,PM2.5,NA,NA,NA
India,Madhya Pradesh,Jabalpur,"Suhagi, Jabalpur - JMC",31-03-2026 08:00:00,23.218135,79.957770,CO,NA,NA,NA
India,Madhya Pradesh,Katni,"Gole Bazar, Katni - MPPCB",31-03-2026 08:00:00,23.50016,80.23284,SO2,16,95,47
India,Madhya Pradesh,Maihar,"Sahilara, Maihar - KJS Cements",31-03-2026 08:00:00,24.2613009,80.7231783,PM10,NA,NA,NA
India,Madhya Pradesh,Maihar,"Sahilara, Maihar - KJS Cements",31-03-2026 08:00:00,24.2613009,80.7231783,SO2,NA,NA,NA
India,Madhya Pradesh,Mandideep,"Sector-D Industrial Area, Mandideep - MPPCB",31-03-2026 08:00:00,23.108440,77.511428,SO2,15,112,50
India,Madhya Pradesh,Pithampur,"Sector-2 Industrial Area, Pithampur - MPPCB",31-03-2026 08:00:00,22.624758,75.675238,PM2.5,31,351,126
India,Madhya Pradesh,Pithampur,"Sector-2 Industrial Area, Pithampur - MPPCB",31-03-2026 08:00:00,22.624758,75.675238,NH3,14,18,16
India,Madhya Pradesh,Indore,"Maguda Nagar, Indore - IMC",31-03-2026 08:00:00,22.7524,75.8872,PM2.5,36,232,63
India,Madhya Pradesh,Indore,"Maguda Nagar, Indore - IMC",31-03-2026 08:00:00,22.7524,75.8872,OZONE,11,17,11
India,Madhya Pradesh,Indore,"Regional Park, Indore - IMC",31-03-2026 08:00:00,22.6780,75.8559,PM2.5,26,194,62
India,Madhya Pradesh,Indore,"Regional Park, Indore - IMC",31-03-2026 08:00:00,22.6780,75.8559,NH3,1,4,2
India,Madhya Pradesh,Jabalpur,"Govindh Bhavan Colony, Jabalpur - JMC",31-03-2026 08:00:00,23.163174,79.973061,NH3,2,2,2
India,Madhya Pradesh,Jabalpur,"Gupteshwar, Jabalpur - JMC",31-03-2026 08:00:00,23.142888,79.916147,CO,18,90,22
India,Madhya Pradesh,Jabalpur,"Marhatal, Jabalpur - MPPCB",31-03-2026 08:00:00,23.168606,79.932247,PM2.5,10,119,42
India,Madhya Pradesh,Jabalpur,"Marhatal, Jabalpur - MPPCB",31-03-2026 08:00:00,23.168606,79.932247,NH3,2,3,2
India,Karnataka,Mangalore,"Kadri, Mangalore - KSPCB",31-03-2026 08:00:00,12.889250,74.853000,NO2,6,17,10
India,Karnataka,Mysuru,"Hebbal 1st Stage, Mysuru - KSPCB",31-03-2026 08:00:00,12.21041,76.37376,PM10,47,72,59
India,Karnataka,Mysuru,"Hebbal 1st Stage, Mysuru - KSPCB",31-03-2026 08:00:00,12.21041,76.37376,NH3,4,5,4
India,Karnataka,Ramanagara,"Vijay Nagar, Ramanagara - KSPCB",31-03-2026 08:00:00,12.733409,77.298051,NO2,7,48,17
India,Karnataka,Shivamogga,"Vinoba Nagara, Shivamogga - KSPCB",31-03-2026 08:00:00,13.940000,75.555917,PM2.5,NA,NA,NA
India,Karnataka,Shivamogga,"Vinoba Nagara, Shivamogga - KSPCB",31-03-2026 08:00:00,13.940000,75.555917,NH3,3,4,3
India,Karnataka,Udupi,"Brahmagiri, Udupi - KSPCB",31-03-2026 08:00:00,13.34194444,74.74694444,PM2.5,7,39,24
India,Karnataka,Bengaluru,"Peenya, Bengaluru - CPCB",31-03-2026 08:00:00,13.0270199,77.494094,PM10,71,94,83
India,Karnataka,Bengaluru,"Peenya, Bengaluru - CPCB",31-03-2026 08:00:00,13.0270199,77.494094,OZONE,24,25,25
India,Karnataka,Bengaluru,"Shivapura_Peenya, Bengaluru - KSPCB",31-03-2026 08:00:00,13.0246342,77.5080115,NO2,NA,NA,NA
India,Karnataka,Bengaluru,"Silk Board, Bengaluru - KSPCB",31-03-2026 08:00:00,12.917348,77.622813,NO2,19,61,37
India,Karnataka,Bengaluru,"Silk Board, Bengaluru - KSPCB",31-03-2026 08:00:00,12.917348,77.622813,NH3,4,6,5
India,Karnataka,Bengaluru,"Silk Board, Bengaluru - KSPCB",31-03-2026 08:00:00,12.917348,77.622813,CO,14,68,19
India,Karnataka,Chamarajanagar,"Urban, Chamarajanagar - KSPCB",31-03-2026 08:00:00,11.55358,76.55521,CO,12,24,16
India,Karnataka,Chikkaballapur,"Chikkaballapur Rural, Chikkaballapur - KSPCB",31-03-2026 08:00:00,13.428828,77.731418,NO2,3,61,21
India,Karnataka,Chikkaballapur,"Chikkaballapur Rural, Chikkaballapur - KSPCB",31-03-2026 08:00:00,13.428828,77.731418,SO2,3,22,12
India,Karnataka,Dharwad,"Kalabhavan, Dharwad - KSPCB",31-03-2026 08:00:00,15.459706,75.008381,PM10,NA,NA,NA
India,Karnataka,Dharwad,"Kalabhavan, Dharwad - KSPCB",31-03-2026 08:00:00,15.459706,75.008381,NH3,NA,NA,NA
India,Karnataka,Dharwad,"Kalabhavan, Dharwad - KSPCB",31-03-2026 08:00:00,15.459706,75.008381,OZONE,NA,NA,NA
India,Karnataka,Kalaburagi,"Mahatma Basaveswar Colony, Kalaburgi - KSPCB",31-03-2026 08:00:00,17.336318,76.847397,PM10,21,68,49
India,Madhya Pradesh,Bhopal,"Idgah Hills, Bhopal - MPPCB",31-03-2026 08:00:00,23.264759,77.381568,SO2,8,14,11
India,Madhya Pradesh,Bhopal,"Idgah Hills, Bhopal - MPPCB",31-03-2026 08:00:00,23.264759,77.381568,CO,10,38,18
India,Madhya Pradesh,Bhopal,"Idgah Hills, Bhopal - MPPCB",31-03-2026 08:00:00,23.264759,77.381568,OZONE,26,50,29
India,Madhya Pradesh,Damoh,"Shrivastav Colony, Damoh - MPPCB",31-03-2026 08:00:00,23.81748678,79.446246,PM10,20,149,76
India,Madhya Pradesh,Damoh,"Shrivastav Colony, Damoh - MPPCB",31-03-2026 08:00:00,23.81748678,79.446246,CO,14,28,24
India,Kerala,Kollam,"Polayathode, Kollam - Kerala PCB",31-03-2026 08:00:00,8.8787,76.6073,OZONE,NA,NA,NA
India,Kerala,Thiruvananthapuram,"Kariavattom, Thiruvananthapuram - Kerala PCB",31-03-2026 08:00:00,8.563700,76.886500,NO2,6,7,6
India,Kerala,Thrissur,"Corporation Ground, Thrissur - Kerala PCB",31-03-2026 08:00:00,10.532400,76.215900,NO2,8,9,8
India,Kerala,Thrissur,"Corporation Ground, Thrissur - Kerala PCB",31-03-2026 08:00:00,10.532400,76.215900,SO2,1,1,1
India,Madhya Pradesh,Sagar,"Deen Dayal Nagar, Sagar - MPPCB",31-03-2026 08:00:00,23.8640158,78.80289321,PM10,11,221,80
India,Madhya Pradesh,Sagar,"Deen Dayal Nagar, Sagar - MPPCB",31-03-2026 08:00:00,23.8640158,78.80289321,SO2,1,16,3
India,Madhya Pradesh,Satna,"Bandhavgar Colony, Satna - Birla Cement",31-03-2026 08:00:00,24.58434363,80.8549414,PM2.5,49,52,50
India,Madhya Pradesh,Satna,"Bandhavgar Colony, Satna - Birla Cement",31-03-2026 08:00:00,24.58434363,80.8549414,NO2,12,13,12
India,Madhya Pradesh,Satna,"Bandhavgar Colony, Satna - Birla Cement",31-03-2026 08:00:00,24.58434363,80.8549414,SO2,20,24,21
India,Madhya Pradesh,Singrauli,"Suryakiran Bhawan NCL, Singrauli - MPPCB",31-03-2026 08:00:00,24.108970,82.645580,OZONE,3,42,6
India,Madhya Pradesh,Ujjain,"Mahashweta Nagar, Ujjain - MPPCB",31-03-2026 08:00:00,23.1633321,75.800225,NO2,37,86,56
India,Maharashtra,Ahmednagar,"Tarakpur, Ahmednagar - MPCB",31-03-2026 08:00:00,19.10122,74.73339,NO2,10,25,20
India,Maharashtra,Ahmednagar,"Tarakpur, Ahmednagar - MPCB",31-03-2026 08:00:00,19.10122,74.73339,NH3,5,6,6
India,Maharashtra,Ahmednagar,"Tarakpur, Ahmednagar - MPCB",31-03-2026 08:00:00,19.10122,74.73339,CO,9,48,32
India,Maharashtra,Mumbai,"Bandra Kurla Complex, Mumbai - IITM",31-03-2026 08:00:00,19.053536,72.84643,OZONE,1,32,5
India,Maharashtra,Mumbai,"Bandra Kurla Complex, Mumbai - MPCB",31-03-2026 08:00:00,19.065931,72.862131,PM10,16,64,34
India,Maharashtra,Mumbai,"Bandra Kurla Complex, Mumbai - MPCB",31-03-2026 08:00:00,19.065931,72.862131,NH3,2,4,3
India,Maharashtra,Mumbai,"Bandra Kurla Complex, Mumbai - MPCB",31-03-2026 08:00:00,19.065931,72.862131,CO,8,13,11
India,Maharashtra,Mumbai,"Bandra Kurla Complex, Mumbai - MPCB",31-03-2026 08:00:00,19.065931,72.862131,OZONE,1,48,7
India,Maharashtra,Mumbai,"Borivali East, Mumbai - MPCB",31-03-2026 08:00:00,19.2243333,72.8658113,NO2,NA,NA,NA
India,Maharashtra,Mumbai,"Borivali East, Mumbai - MPCB",31-03-2026 08:00:00,19.2243333,72.8658113,SO2,13,19,15
India,Maharashtra,Mumbai,"Byculla, Mumbai - BMC",31-03-2026 08:00:00,18.9767,72.8380,PM10,8,52,30
India,Maharashtra,Mumbai,"Byculla, Mumbai - BMC",31-03-2026 08:00:00,18.9767,72.8380,NH3,3,6,4
India,Maharashtra,Mumbai,"Chakala-Andheri East, Mumbai - IITM",31-03-2026 08:00:00,19.11074,72.86084,PM10,NA,NA,NA
India,Maharashtra,Mumbai,"Chembur, Mumbai - MPCB",31-03-2026 08:00:00,19.0364585,72.8954371,PM10,10,55,32
India,Maharashtra,Kolhapur,"Sinchan Bhavan, Kolhapur - MPCB",31-03-2026 08:00:00,16.7143745,74.2426398,OZONE,11,52,14
India,Maharashtra,Latur,"Sawe Wadi, Latur - MPCB",31-03-2026 08:00:00,18.39963,76.57452,SO2,2,123,17
India,Maharashtra,Mahad,"Kamble Tarf Birwadi, Mahad - MPCB",31-03-2026 08:00:00,18.1023399,73.4783687,PM10,26,174,68
India,Maharashtra,Mahad,"Kamble Tarf Birwadi, Mahad - MPCB",31-03-2026 08:00:00,18.1023399,73.4783687,SO2,1,42,22
India,Maharashtra,Mahad,"Kamble Tarf Birwadi, Mahad - MPCB",31-03-2026 08:00:00,18.1023399,73.4783687,OZONE,29,63,31
India,Maharashtra,Mira-Bhayandar,"Bhayandar West, Mira-Bhayandar - MPCB",31-03-2026 08:00:00,19.296481,72.840923,PM2.5,2,15,8
India,Maharashtra,Mira-Bhayandar,"Bhayandar West, Mira-Bhayandar - MPCB",31-03-2026 08:00:00,19.296481,72.840923,CO,39,40,40
India,Maharashtra,Mira-Bhayandar,"Bhayandar West, Mira-Bhayandar - MPCB",31-03-2026 08:00:00,19.296481,72.840923,OZONE,52,56,55
India,Maharashtra,Jalna,"Old MIDC, Jalna - MPCB",31-03-2026 08:00:00,19.854616,75.905894,CO,NA,NA,NA
India,Maharashtra,Kalyan,"Khadakpada, Kalyan - MPCB",31-03-2026 08:00:00,19.25292,73.142019,PM10,26,490,128
India,Maharashtra,Kalyan,"Khadakpada, Kalyan - MPCB",31-03-2026 08:00:00,19.25292,73.142019,NO2,36,37,36
India,Maharashtra,Kalyan,"Khadakpada, Kalyan - MPCB",31-03-2026 08:00:00,19.25292,73.142019,NH3,1,1,1
India,Maharashtra,Kalyan,"Khadakpada, Kalyan - MPCB",31-03-2026 08:00:00,19.25292,73.142019,OZONE,8,8,8
India,Maharashtra,Kalyan,"Pimpleshwar Mandir, Kalyan - MPCB",31-03-2026 08:00:00,19.192056,72.9585188,PM2.5,8,49,28
India,Maharashtra,Kolhapur,"Shivaji University, Kolhapur - MPCB",31-03-2026 08:00:00,16.6870449,74.2505872,PM2.5,31,57,40
India,Maharashtra,Kolhapur,"Shivaji University, Kolhapur - MPCB",31-03-2026 08:00:00,16.6870449,74.2505872,NH3,3,4,3
India,Maharashtra,Mumbai,"Colaba, Mumbai - MPCB",31-03-2026 08:00:00,18.910000,72.820000,NH3,4,4,4
India,Maharashtra,Mumbai,"Colaba, Mumbai - MPCB",31-03-2026 08:00:00,18.910000,72.820000,SO2,NA,NA,NA
India,Maharashtra,Mumbai,"Colaba, Mumbai - MPCB",31-03-2026 08:00:00,18.910000,72.820000,CO,60,75,61
India,Maharashtra,Mumbai,"Deonar, Mumbai - IITM",31-03-2026 08:00:00,19.04946,72.9230,NH3,10,22,13
India,Maharashtra,Mumbai,"Ghatkopar, Mumbai - BMC",31-03-2026 08:00:00,19.083694,72.920967,OZONE,5,38,9
India,Maharashtra,Mumbai,"Kandivali East, Mumbai - MPCB",31-03-2026 08:00:00,19.205800,72.868200,NO2,36,36,36
India,Maharashtra,Mumbai,"Kandivali East, Mumbai - MPCB",31-03-2026 08:00:00,19.205800,72.868200,NH3,4,4,4
India,Maharashtra,Mumbai,"Kandivali West, Mumbai - BMC",31-03-2026 08:00:00,19.215859,72.831718,PM10,15,52,34
India,Maharashtra,Ambernath,"Chinchpada, Ambernath - MPCB",31-03-2026 08:00:00,19.2157840,73.1997810,CO,7,14,9
India,Maharashtra,Amravati,"Shivneri Colony, Amravati - MPCB",31-03-2026 08:00:00,20.9402359,77.7895248,NO2,8,20,14
India,Maharashtra,Amravati,"Shivneri Colony, Amravati - MPCB",31-03-2026 08:00:00,20.9402359,77.7895248,CO,10,20,12
India,Maharashtra,Amravati,"Shri Shivaji Science College, Amravati - MPCB",31-03-2026 08:00:00,20.939198,77.765701,CO,38,51,41
India,Maharashtra,Aurangabad,"More Chowk Waluj, Aurangabad - MPCB",31-03-2026 08:00:00,19.8389439,75.244448,SO2,15,33,20
India,Maharashtra,Aurangabad,"Rachnakar Colony, Aurangabad - MPCB",31-03-2026 08:00:00,19.863756,75.321188,SO2,8,41,20
India,Maharashtra,Aurangabad,"Rachnakar Colony, Aurangabad - MPCB",31-03-2026 08:00:00,19.863756,75.321188,CO,20,28,22
India,Maharashtra,Badlapur,"Katrap, Badlapur - MPCB",31-03-2026 08:00:00,19.16485,73.23409,NH3,3,9,6
India,Maharashtra,Bhiwandi,"Gokul Nagar, Bhiwandi - MPCB",31-03-2026 08:00:00,19.309073,73.057223,OZONE,13,92,14
India,Maharashtra,Boisar,"Khaira, Boisar - MPCB",31-03-2026 08:00:00,19.786089,72.757971,CO,11,36,22
India,Maharashtra,Chandrapur,"Chauhan Colony, Chandrapur - MPCB",31-03-2026 08:00:00,19.962900,79.298714,OZONE,13,23,17
India,Maharashtra,Dhule,"Deopur, Dhule - MPCB",31-03-2026 08:00:00,20.918946,74.776388,NO2,NA,NA,NA
India,Maharashtra,Dhule,"Deopur, Dhule - MPCB",31-03-2026 08:00:00,20.918946,74.776388,SO2,NA,NA,NA
India,Maharashtra,Dombivli,"Kalu Nagar, Dombivli - MPCB",31-03-2026 08:00:00,19.2268427 ,73.0788456 ,PM2.5,3,42,12
India,Maharashtra,Hingoli,"Ashta Vinayak Nagar, Hingoli - MPCB",31-03-2026 08:00:00,19.710842,77.151824,OZONE,35,172,54
India,Maharashtra,Mumbai,"Chembur, Mumbai - MPCB",31-03-2026 08:00:00,19.0364585,72.8954371,NH3,7,8,7
India,Maharashtra,Mumbai,"Chembur, Mumbai - MPCB",31-03-2026 08:00:00,19.0364585,72.8954371,CO,34,44,35
India,Maharashtra,Navi Mumbai,"Sanpada, Navi Mumbai - MPCB",31-03-2026 08:00:00,19.0575752,73.0151367,NO2,4,15,9
India,Maharashtra,Navi Mumbai,"Sanpada, Navi Mumbai - MPCB",31-03-2026 08:00:00,19.0575752,73.0151367,CO,4,34,14
India,Maharashtra,Navi Mumbai,"Sector-2E Kalamboli, Navi Mumbai - MPCB",31-03-2026 08:00:00,19.02579,73.10297,SO2,5,10,6
India,Maharashtra,Navi Mumbai,"Sector-2E Kalamboli, Navi Mumbai - MPCB",31-03-2026 08:00:00,19.02579,73.10297,CO,12,21,15
India,Maharashtra,Navi Mumbai,"Sector-2E Kalamboli, Navi Mumbai - MPCB",31-03-2026 08:00:00,19.02579,73.10297,OZONE,1,47,4
India,Maharashtra,Navi Mumbai,"Tondare-Taloja, Navi Mumbai - MPCB",31-03-2026 08:00:00,19.0630,73.1209,PM2.5,24,46,31
India,Maharashtra,Navi Mumbai,"Tondare-Taloja, Navi Mumbai - MPCB",31-03-2026 08:00:00,19.0630,73.1209,CO,12,36,31
India,Maharashtra,Navi Mumbai,"Tondare-Taloja, Navi Mumbai - MPCB",31-03-2026 08:00:00,19.0630,73.1209,OZONE,1,108,6
India,Maharashtra,Parbhani,"Masoom Colony, Parbhani - MPCB",31-03-2026 08:00:00,19.265594,76.761463,PM2.5,NA,NA,NA
India,Maharashtra,Parbhani,"Masoom Colony, Parbhani - MPCB",31-03-2026 08:00:00,19.265594,76.761463,SO2,NA,NA,NA
India,Maharashtra,Pimpri-Chinchwad,"Gavalinagar, Pimpri Chinchwad - MPCB",31-03-2026 08:00:00,18.63673,73.82487,PM2.5,41,76,58
India,Maharashtra,Pimpri-Chinchwad,"Gavalinagar, Pimpri Chinchwad - MPCB",31-03-2026 08:00:00,18.63673,73.82487,NO2,NA,NA,NA
India,Maharashtra,Pimpri-Chinchwad,"Gavalinagar, Pimpri Chinchwad - MPCB",31-03-2026 08:00:00,18.63673,73.82487,NH3,10,25,16
India,Maharashtra,Sangli,"Vijay Nagar, Sangli - MPCB",31-03-2026 08:00:00, 16.5038,74.3623,NH3,3,7,5
India,Maharashtra,Sangli,"Vijay Nagar, Sangli - MPCB",31-03-2026 08:00:00, 16.5038,74.3623,SO2,1,17,10
India,Maharashtra,Solapur,"Dnyaneshwar Nagar, Solapur - MPCB",31-03-2026 08:00:00,17.6336264,75.9132495,NH3,7,34,13
India,Maharashtra,Solapur,"Dnyaneshwar Nagar, Solapur - MPCB",31-03-2026 08:00:00,17.6336264,75.9132495,SO2,3,10,5
India,Maharashtra,Solapur,"Ratandeep Housing Society, Solapur - MPCB",31-03-2026 08:00:00,17.65439,75.90649,PM2.5,22,262,82
India,Maharashtra,Solapur,"Ratandeep Housing Society, Solapur - MPCB",31-03-2026 08:00:00,17.65439,75.90649,CO,12,79,15
India,Maharashtra,Thane,"Upvan Fort, Thane - MPCB",31-03-2026 08:00:00,19.222279,72.957979,PM2.5,26,47,32
India,Maharashtra,Thane,"Upvan Fort, Thane - MPCB",31-03-2026 08:00:00,19.222279,72.957979,NO2,7,10,9
India,Maharashtra,Thane,"Upvan Fort, Thane - MPCB",31-03-2026 08:00:00,19.222279,72.957979,SO2,1,15,7
India,Maharashtra,Pune,"Hadapsar, Pune - IITM",31-03-2026 08:00:00,18.501793,73.927532,PM10,56,124,92
India,Maharashtra,Pune,"Katraj Dairy, Pune - MPCB",31-03-2026 08:00:00,18.454450,73.854155,NH3,1,4,2
India,Maharashtra,Pune,"Mhada Colony, Pune - IITM",31-03-2026 08:00:00,18.573040,73.927715,PM2.5,50,113,76
India,Maharashtra,Pune,"Revenue Colony-Shivajinagar, Pune - IITM",31-03-2026 08:00:00,18.530085,73.849598,PM2.5,31,143,73
India,Maharashtra,Pune,"Revenue Colony-Shivajinagar, Pune - IITM",31-03-2026 08:00:00,18.530085,73.849598,PM10,46,156,101
India,Maharashtra,Pune,"Savitribai Phule Pune University, Pune - MPCB",31-03-2026 08:00:00,18.547056,73.826908,OZONE,NA,NA,NA
India,Maharashtra,Mumbai,"Kandivali West, Mumbai - BMC",31-03-2026 08:00:00,19.215859,72.831718,SO2,NA,NA,NA
India,Maharashtra,Mumbai,"Khindipada-Bhandup West, Mumbai - IITM",31-03-2026 08:00:00,19.1653323,72.922099,NH3,3,3,3
India,Maharashtra,Mumbai,"Kurla, Mumbai - MPCB",31-03-2026 08:00:00,19.0863,72.8888,NO2,4,7,5
India,Maharashtra,Mumbai,"Kurla, Mumbai - MPCB",31-03-2026 08:00:00,19.0863,72.8888,SO2,29,29,29
India,Maharashtra,Mumbai,"Kurla, Mumbai - MPCB",31-03-2026 08:00:00,19.0863,72.8888,CO,6,16,9
India,Maharashtra,Mumbai,"Malad West, Mumbai - IITM",31-03-2026 08:00:00,19.19709,72.82204,NH3,7,12,8
India,Maharashtra,Mumbai,"Malad West, Mumbai - IITM",31-03-2026 08:00:00,19.19709,72.82204,CO,18,45,22
India,Maharashtra,Mumbai,"Siddharth Nagar-Worli, Mumbai - IITM",31-03-2026 08:00:00,19.000083,72.813993,OZONE,28,70,34
India,Maharashtra,Mumbai,"Sion, Mumbai - MPCB",31-03-2026 08:00:00,19.047000,72.874600,PM2.5,8,413,50
India,Maharashtra,Mumbai,"Vile Parle West, Mumbai - MPCB",31-03-2026 08:00:00,19.10861,72.83622,NH3,6,6,6
India,Maharashtra,Mumbai,"Worli, Mumbai -MPCB",31-03-2026 08:00:00,18.9942180,72.8158167,NH3,3,3,3
India,Maharashtra,Nagpur,"Ambazari, Nagpur - MPCB",31-03-2026 08:00:00,21.121801,79.04952,PM2.5,39,80,56
India,Maharashtra,Nagpur,"Ambazari, Nagpur - MPCB",31-03-2026 08:00:00,21.121801,79.04952,NH3,1,6,2
India,Maharashtra,Pimpri-Chinchwad,"Savta Mali Nagar, Pimpri-Chinchwad - IITM",31-03-2026 08:00:00,18.614767,73.799516,PM10,53,97,78
India,Maharashtra,Pimpri-Chinchwad,"Thergaon, Pimpri Chinchwad - MPCB",31-03-2026 08:00:00,18.616318,73.765797,CO,9,103,50
India,Maharashtra,Pune,"Bhosari, Pune - IITM",31-03-2026 08:00:00,18.640051,73.848956,PM2.5,20,124,66
India,Maharashtra,Pune,"Bhosari, Pune - IITM",31-03-2026 08:00:00,18.640051,73.848956,CO,2,90,59
India,Maharashtra,Pune,"Bhosari, Pune - IITM",31-03-2026 08:00:00,18.640051,73.848956,OZONE,NA,NA,NA
India,Maharashtra,Pune,"Bhumkar Nagar, Pune - IITM",31-03-2026 08:00:00,18.605770,73.749976,OZONE,2,63,2
India,Maharashtra,Nashik,"Hirawadi, Nashik - MPCB",31-03-2026 08:00:00,20.021503,73.813844,PM10,53,166,94
India,Maharashtra,Nashik,"Hirawadi, Nashik - MPCB",31-03-2026 08:00:00,20.021503,73.813844,SO2,7,58,23
India,Maharashtra,Nashik,"Pandav Nagari, Nashik - MPCB",31-03-2026 08:00:00,19.9591346,73.7788008,NO2,5,14,8
India,Maharashtra,Nashik,"Pandav Nagari, Nashik - MPCB",31-03-2026 08:00:00,19.9591346,73.7788008,CO,12,32,19
India,Maharashtra,Nashik,"Pandav Nagari, Nashik - MPCB",31-03-2026 08:00:00,19.9591346,73.7788008,OZONE,14,53,29
India,Maharashtra,Navi Mumbai,"Mahape, Navi Mumbai - MPCB",31-03-2026 08:00:00,19.1135051,73.008978,NH3,1,1,1
India,Maharashtra,Mumbai,"Mindspace-Malad West, Mumbai - MPCB",31-03-2026 08:00:00,19.1878657,72.8304069,PM10,13,39,25
India,Maharashtra,Mumbai,"Mindspace-Malad West, Mumbai - MPCB",31-03-2026 08:00:00,19.1878657,72.8304069,NO2,5,12,7
India,Maharashtra,Mumbai,"Mulund West, Mumbai - MPCB",31-03-2026 08:00:00,19.1750,72.9419,PM2.5,10,50,27
India,Maharashtra,Mumbai,"Mulund West, Mumbai - MPCB",31-03-2026 08:00:00,19.1750,72.9419,PM10,12,69,38
India,Maharashtra,Mumbai,"Sewri, Mumbai - BMC",31-03-2026 08:00:00,19.000084,72.856730,PM10,11,55,35
India,Maharashtra,Mumbai,"Sewri, Mumbai - BMC",31-03-2026 08:00:00,19.000084,72.856730,NH3,11,12,12
India,Maharashtra,Nagpur,"Mahal, Nagpur - MPCB",31-03-2026 08:00:00,21.14472,79.107595,OZONE,25,55,27
India,Maharashtra,Nagpur,"Ram Nagar, Nagpur - MPCB",31-03-2026 08:00:00,21.143383,79.048912,NO2,5,54,12
India,Maharashtra,Nanded,"Sneh Nagar, Nanded - MPCB",31-03-2026 08:00:00,19.173852,77.296291,SO2,1,7,2
India,Maharashtra,Nashik,"Gangapur Road, Nashik - MPCB",31-03-2026 08:00:00,20.0073285,73.7762427,OZONE,10,29,29
India,Maharashtra,Ulhasnagar,"Vithalwadi, Ulhasnagar - MPCB",31-03-2026 08:00:00,19.2307571 ,73.1551920,NH3,3,5,4
India,Maharashtra,Ulhasnagar,"Vithalwadi, Ulhasnagar - MPCB",31-03-2026 08:00:00,19.2307571 ,73.1551920,OZONE,20,64,23
India,Maharashtra,Virar,"Bolinj, Virar - MPCB",31-03-2026 08:00:00,19.4458210,72.7988231,NO2,5,17,9
India,Meghalaya,Byrnihat,"15th Mile-Nongthymmai, Byrnihat - Meghalaya PCB",31-03-2026 08:00:00,26.079047,91.875185,PM10,NA,NA,NA
India,Meghalaya,Byrnihat,"15th Mile-Nongthymmai, Byrnihat - Meghalaya PCB",31-03-2026 08:00:00,26.079047,91.875185,NO2,2,4,2
India,Meghalaya,Byrnihat,"15th Mile-Nongthymmai, Byrnihat - Meghalaya PCB",31-03-2026 08:00:00,26.079047,91.875185,CO,13,139,26
India,Meghalaya,Shillong,"JN Stadium, Shillong - Meghalaya PCB",31-03-2026 08:00:00,25.5803419,91.8942571,PM10,NA,NA,NA
India,Meghalaya,Shillong,"Lumpyngngad, Shillong - Meghalaya PCB",31-03-2026 08:00:00,25.5586,91.8985,CO,5,30,5
India,Mizoram,Aizawl,"Sikulpuikawn, Aizawl - Mizoram PCB",31-03-2026 08:00:00,23.7176342,92.7192841,NO2,1,1,1
India,Mizoram,Aizawl,"Sikulpuikawn, Aizawl - Mizoram PCB",31-03-2026 08:00:00,23.7176342,92.7192841,CO,3,4,3
India,Nagaland,Kohima,"PWD Junction, Kohima - NPCB",31-03-2026 08:00:00,25.6635413,94.0989878,CO,4,12,5
India,Odisha,Balasore,"Kalidaspur, Balasore - OSPCB",31-03-2026 08:00:00,21.51161,86.89088,PM2.5,15,46,31
India,Odisha,Balasore,"Kalidaspur, Balasore - OSPCB",31-03-2026 08:00:00,21.51161,86.89088,PM10,20,75,51
India,Odisha,Balasore,"Kalidaspur, Balasore - OSPCB",31-03-2026 08:00:00,21.51161,86.89088,NH3,1,3,2
India,Odisha,Balasore,"Kalidaspur, Balasore - OSPCB",31-03-2026 08:00:00,21.51161,86.89088,SO2,5,7,6
India,Odisha,Barbil,"Forest Office, Barbil - OSPCB",31-03-2026 08:00:00,22.1166054,85.3945546,SO2,14,44,27
India,Odisha,Rourkela,"Raghunathpali, Rourkela - OSPCB",31-03-2026 08:00:00,22.220833,84.809444,PM2.5,50,133,70
India,Odisha,Rourkela,"Raghunathpali, Rourkela - OSPCB",31-03-2026 08:00:00,22.220833,84.809444,PM10,59,112,75
India,Odisha,Rourkela,"Raghunathpali, Rourkela - OSPCB",31-03-2026 08:00:00,22.220833,84.809444,SO2,5,6,6
India,Odisha,Suakati,"OMC Colony, Suakati - OSPCB",31-03-2026 08:00:00,21.606865,85.510538,NO2,15,15,15
India,Odisha,Suakati,"OMC Colony, Suakati - OSPCB",31-03-2026 08:00:00,21.606865,85.510538,SO2,14,40,19
India,Odisha,Suakati,"OMC Colony, Suakati - OSPCB",31-03-2026 08:00:00,21.606865,85.510538,OZONE,11,88,35
India,Odisha,Talcher,"Talcher Coalfields,Talcher - OSPCB",31-03-2026 08:00:00,20.9360711,85.1707021,SO2,19,50,27
India,Odisha,Talcher,"Talcher Coalfields,Talcher - OSPCB",31-03-2026 08:00:00,20.9360711,85.1707021,CO,54,74,68
India,Odisha,Keonjhar,"Jagamohanpur, Keonjhar - OSPCB",31-03-2026 08:00:00,21.643900,85.599355,OZONE,13,45,21
India,Odisha,Nayagarh,"Dabuna, Nayagarh - OSPCB",31-03-2026 08:00:00,21.847279,85.416905,PM2.5,47,96,72
India,Odisha,Rairangpur,"Divisional Forest Office, Rairangpur - OSPCB",31-03-2026 08:00:00,22.265816,86.174829,PM2.5,10,52,22
India,Odisha,Rairangpur,"Divisional Forest Office, Rairangpur - OSPCB",31-03-2026 08:00:00,22.265816,86.174829,CO,6,28,15
India,Odisha,Rourkela,"Fertilizer Township, Rourkela - OSPCB",31-03-2026 08:00:00,22.18972222,84.86277778,PM2.5,78,98,85
India,Odisha,Rourkela,"Fertilizer Township, Rourkela - OSPCB",31-03-2026 08:00:00,22.18972222,84.86277778,PM10,84,89,86
India,Odisha,Bhubaneswar,"Patia, Bhubaneswar - OSPCB",31-03-2026 08:00:00,20.34652,85.81630,PM2.5,15,58,34
India,Odisha,Bhubaneswar,"Patia, Bhubaneswar - OSPCB",31-03-2026 08:00:00,20.34652,85.81630,PM10,42,83,61
India,Odisha,Bhubaneswar,"Patia, Bhubaneswar - OSPCB",31-03-2026 08:00:00,20.34652,85.81630,CO,71,88,76
India,Odisha,Bileipada,"Tata Township, Bileipada - OSPCB",31-03-2026 08:00:00,22.06156703,85.47409613,CO,18,26,21
India,Odisha,Brajrajnagar,"GM Office, Brajrajnagar - OSPCB",31-03-2026 08:00:00,21.8004996,83.8396977,PM10,21,173,76
India,Odisha,Brajrajnagar,"GM Office, Brajrajnagar - OSPCB",31-03-2026 08:00:00,21.8004996,83.8396977,NH3,4,6,6
India,Punjab,Ludhiana,"Punjab Agricultural University, Ludhiana - PPCB",31-03-2026 08:00:00,30.9028,75.8086,NO2,29,35,33
India,Punjab,Ludhiana,"Punjab Agricultural University, Ludhiana - PPCB",31-03-2026 08:00:00,30.9028,75.8086,OZONE,23,30,25
India,Punjab,Mandi Gobindgarh,"RIMT University, Mandi Gobindgarh - PPCB",31-03-2026 08:00:00,30.649961,76.331442,CO,16,86,30
India,Punjab,Patiala,"Model Town, Patiala - PPCB",31-03-2026 08:00:00,30.349388,76.366642,PM10,56,118,97
India,Punjab,Patiala,"Model Town, Patiala - PPCB",31-03-2026 08:00:00,30.349388,76.366642,SO2,7,35,15
India,Punjab,Amritsar,"Golden Temple, Amritsar - PPCB",31-03-2026 08:00:00,31.620000,74.876512,NO2,27,113,57
India,Punjab,Amritsar,"Golden Temple, Amritsar - PPCB",31-03-2026 08:00:00,31.620000,74.876512,OZONE,33,42,37
India,Punjab,Jalandhar,"Civil Line, Jalandhar - PPCB",31-03-2026 08:00:00,31.321907,75.578914,PM10,23,107,81
India,Punjab,Khanna,"Kalal Majra, Khanna - PPCB",31-03-2026 08:00:00,30.736056 ,76.209694,NO2,26,31,28
India,Odisha,Byasanagar,"Ferro Chrome Colony, Byasanagar - OSPCB",31-03-2026 08:00:00,20.94185,86.11510,NH3,3,6,4
India,Odisha,Keonjhar,"Jagamohanpur, Keonjhar - OSPCB",31-03-2026 08:00:00,21.643900,85.599355,PM10,43,91,69
India,Odisha,Tensa,"Barsua Iron Ore Mines, Tensa - OSPCB",31-03-2026 08:00:00,21.869985,85.167016,OZONE,5,10,7
India,Rajasthan,Alwar,"Moti Doongri, Alwar - RSPCB",31-03-2026 08:00:00,27.554793,76.611536,PM10,93,133,113
India,Rajasthan,Alwar,"Moti Doongri, Alwar - RSPCB",31-03-2026 08:00:00,27.554793,76.611536,OZONE,8,84,9
India,Rajasthan,Baran,"Bamboliya, Baran - RSPCB",31-03-2026 08:00:00,25.106006,76.469948,NH3,2,6,4
India,Rajasthan,Baran,"Bamboliya, Baran - RSPCB",31-03-2026 08:00:00,25.106006,76.469948,CO,4,17,11
India,Rajasthan,Baran,"Bamboliya, Baran - RSPCB",31-03-2026 08:00:00,25.106006,76.469948,OZONE,8,95,16
India,Rajasthan,Barmer,"Railway Colony, Barmer - RSPCB",31-03-2026 08:00:00,25.747299,71.393989,NO2,5,19,11
India,Rajasthan,Barmer,"Railway Colony, Barmer - RSPCB",31-03-2026 08:00:00,25.747299,71.393989,SO2,2,6,4
India,Rajasthan,Bharatpur,"Krishna Nagar, Bharatpur - RSPCB",31-03-2026 08:00:00,27.215415,77.50873,NH3,NA,NA,NA
India,Rajasthan,Bharatpur,"Krishna Nagar, Bharatpur - RSPCB",31-03-2026 08:00:00,27.215415,77.50873,SO2,1,30,7
India,Rajasthan,Hanumangarh,"Housing Board, Hanumangarh - RSPCB",31-03-2026 08:00:00,29.610750,74.283608,NH3,4,7,5
India,Rajasthan,Jaipur,"Adarsh Nagar, Jaipur - RSPCB",31-03-2026 08:00:00,26.902909,75.836858,SO2,11,36,22
India,Rajasthan,Jaipur,"Mansarovar Sector-12, Jaipur - RSPCB",31-03-2026 08:00:00,26.843698,75.766894,NH3,13,46,21
India,Rajasthan,Jaipur,"Police Commissionerate, Jaipur - RSPCB",31-03-2026 08:00:00,26.9164092,75.7994901,CO,44,66,63
India,Rajasthan,Jaipur,"RIICO Sitapura, Jaipur - RSPCB",31-03-2026 08:00:00,26.786682,75.827928,NO2,89,168,123
India,Rajasthan,Jaipur,"RIICO Sitapura, Jaipur - RSPCB",31-03-2026 08:00:00,26.786682,75.827928,SO2,NA,NA,NA
India,Rajasthan,Jodhpur,"Samrat Ashok Udhyan, Jodhpur - RSPCB",31-03-2026 08:00:00,26.253384,72.976571,NH3,5,6,5
India,Rajasthan,Jodhpur,"Samrat Ashok Udhyan, Jodhpur - RSPCB",31-03-2026 08:00:00,26.253384,72.976571,SO2,1,6,4
India,Rajasthan,Karauli,"Satyawati Vihar, Karauli - RSPCB",31-03-2026 08:00:00,26.506177,77.025989,NO2,6,46,17
India,Rajasthan,Kota,"Dhanmandi, Kota - RSPCB",31-03-2026 08:00:00,25.164090,75.858137,NO2,27,76,49
India,Rajasthan,Kota,"Nayapura, Kota - RSPCB",31-03-2026 08:00:00,25.196024,75.855668,PM2.5,10,250,43
India,Rajasthan,Kota,"Nayapura, Kota - RSPCB",31-03-2026 08:00:00,25.196024,75.855668,PM10,41,220,86
India,Rajasthan,Kota,"Nayapura, Kota - RSPCB",31-03-2026 08:00:00,25.196024,75.855668,NO2,13,60,40
India,Rajasthan,Rajsamand,"Dhoinda, Rajsamand - RSPCB",31-03-2026 08:00:00,25.036360,73.883502,PM2.5,2,70,31
India,Rajasthan,Rajsamand,"Dhoinda, Rajsamand - RSPCB",31-03-2026 08:00:00,25.036360,73.883502,CO,10,44,15
India,Rajasthan,Sawai Madhopur,"Sahu Nagar, Sawai Madhopur - RSPCB",31-03-2026 08:00:00,26.031443,76.359327,OZONE,4,98,20
India,Rajasthan,Sikar,"Radhakishan Pura, Sikar - RSPCB",31-03-2026 08:00:00,27.608912,75.153302,NO2,12,48,20
India,Rajasthan,Sikar,"Radhakishan Pura, Sikar - RSPCB",31-03-2026 08:00:00,27.608912,75.153302,OZONE,28,68,40
India,Rajasthan,Sirohi,"Vedhaynath Colony, Sirohi - RSPCB",31-03-2026 08:00:00,24.885261,72.857549,PM10,33,99,65
India,Rajasthan,Bhiwadi,"RIICO Ind. Area III, Bhiwadi - RSPCB",31-03-2026 08:00:00,28.194909,76.862296,NH3,4,20,10
India,Rajasthan,Bhiwadi,"Vasundhara Nagar_UIT, Bhiwadi - RSPCB",31-03-2026 08:00:00,28.207266,76.829265,PM2.5,63,330,142
India,Rajasthan,Bhiwadi,"Vasundhara Nagar_UIT, Bhiwadi - RSPCB",31-03-2026 08:00:00,28.207266,76.829265,OZONE,2,80,2
India,Rajasthan,Bikaner,"MM Ground, Bikaner - RSPCB",31-03-2026 08:00:00,28.018792,73.292658,PM10,63,251,138
India,Rajasthan,Bundi,"New Colony, Bundi - RSPCB",31-03-2026 08:00:00,25.435774,75.644272,PM2.5,13,55,27
India,Rajasthan,Jaipur,"Sector-2 Murlipura, Jaipur - RSPCB",31-03-2026 08:00:00,26.960669,75.771817,NH3,4,6,5
India,Rajasthan,Jaisalmer,"Sadar Bazar, Jaisalmer - RSPCB",31-03-2026 08:00:00,26.912329,70.909168,NH3,6,10,9
India,Rajasthan,Jalore,"Mudtra Sili, Jalore - RSPCB",31-03-2026 08:00:00,25.344694,72.626208,SO2,3,31,6
India,Rajasthan,Jalore,"Mudtra Sili, Jalore - RSPCB",31-03-2026 08:00:00,25.344694,72.626208,CO,10,34,17
India,Rajasthan,Jodhpur,"Digari Kalan, Jodhpur - RSPCB",31-03-2026 08:00:00,26.295810,73.082283,NH3,6,39,12
India,Rajasthan,Jodhpur,"Digari Kalan, Jodhpur - RSPCB",31-03-2026 08:00:00,26.295810,73.082283,SO2,1,9,4
India,Rajasthan,Jodhpur,"Digari Kalan, Jodhpur - RSPCB",31-03-2026 08:00:00,26.295810,73.082283,OZONE,13,76,28
India,Rajasthan,Jodhpur,"Jhalamand, Jodhpur - RSPCB",31-03-2026 08:00:00,26.215415,73.070156,PM2.5,15,52,26
India,Rajasthan,Dholpur,"Raja Ganj, Dholpur - RSPCB",31-03-2026 08:00:00,26.699557,77.898881,NH3,12,31,18
India,Rajasthan,Dholpur,"Raja Ganj, Dholpur - RSPCB",31-03-2026 08:00:00,26.699557,77.898881,OZONE,24,54,30
India,Rajasthan,Dungarpur,"Bhoiwada, Dungarpur - RSPCB",31-03-2026 08:00:00,23.837789,73.714926,PM2.5,15,58,28
India,Rajasthan,Dungarpur,"Bhoiwada, Dungarpur - RSPCB",31-03-2026 08:00:00,23.837789,73.714926,PM10,45,97,70
India,Rajasthan,Kota,"Shrinath Puram, Kota - RSPCB",31-03-2026 08:00:00,25.14389,75.821256,CO,2,29,12
India,Rajasthan,Pali,"Indira Colony Vistar, Pali - RSPCB",31-03-2026 08:00:00,25.771061, 73.340227,PM10,94,162,119
India,Telangana,Hyderabad,"IDA Pashamylaram, Hyderabad - TSPCB",31-03-2026 08:00:00,17.5316895,78.218939,SO2,1,26,11
India,Telangana,Hyderabad,"IITH Kandi, Hyderabad - TSPCB",31-03-2026 08:00:00,17.585705,78.126199,PM2.5,25,169,87
India,Telangana,Hyderabad,"IITH Kandi, Hyderabad - TSPCB",31-03-2026 08:00:00,17.585705,78.126199,NO2,12,17,13
India,Telangana,Hyderabad,"IITH Kandi, Hyderabad - TSPCB",31-03-2026 08:00:00,17.585705,78.126199,OZONE,15,34,16
India,Telangana,Hyderabad,"Kokapet, Hyderabad - TSPCB",31-03-2026 08:00:00,17.393559,78.339194,SO2,11,20,14
India,Telangana,Hyderabad,"Kokapet, Hyderabad - TSPCB",31-03-2026 08:00:00,17.393559,78.339194,OZONE,17,43,17
India,Telangana,Hyderabad,"Kompally Municipal Office, Hyderabad - TSPCB",31-03-2026 08:00:00,17.544899,78.486949,NO2,11,16,15
India,Telangana,Hyderabad,"Kompally Municipal Office, Hyderabad - TSPCB",31-03-2026 08:00:00,17.544899,78.486949,CO,10,31,12
India,Telangana,Hyderabad,"Kompally Municipal Office, Hyderabad - TSPCB",31-03-2026 08:00:00,17.544899,78.486949,OZONE,15,39,15
India,Telangana,Hyderabad,"Nacharam_TSIIC IALA, Hyderabad - TSPCB",31-03-2026 08:00:00,17.429398,78.569354,PM2.5,46,71,56
India,Telangana,Hyderabad,"Nacharam_TSIIC IALA, Hyderabad - TSPCB",31-03-2026 08:00:00,17.429398,78.569354,SO2,11,16,13
India,Telangana,Hyderabad,"New Malakpet, Hyderabad - TSPCB",31-03-2026 08:00:00,17.37206,78.50864,NO2,13,17,15
India,TamilNadu,Thoothukudi,"Meelavittan, Thoothukudi - TNPCB",31-03-2026 08:00:00,8.816428 ,78.099039,PM10,60,113,82
India,Telangana,Hyderabad,"Central University, Hyderabad - TSPCB",31-03-2026 08:00:00,17.460103,78.334361,PM2.5,4,31,19
India,Telangana,Hyderabad,"Central University, Hyderabad - TSPCB",31-03-2026 08:00:00,17.460103,78.334361,PM10,5,34,21
India,Telangana,Hyderabad,"Central University, Hyderabad - TSPCB",31-03-2026 08:00:00,17.460103,78.334361,NH3,1,7,4
India,Telangana,Hyderabad,"Central University, Hyderabad - TSPCB",31-03-2026 08:00:00,17.460103,78.334361,SO2,1,16,8
India,Telangana,Hyderabad,"ECIL Kapra, Hyderabad - TSPCB",31-03-2026 08:00:00,17.470431,78.566959,OZONE,16,36,16
India,Telangana,Hyderabad,"ICRISAT Patancheru, Hyderabad - TSPCB",31-03-2026 08:00:00,17.518400,78.278777,PM10,22,158,69
India,Telangana,Hyderabad,"ICRISAT Patancheru, Hyderabad - TSPCB",31-03-2026 08:00:00,17.518400,78.278777,SO2,7,28,12
India,Telangana,Hyderabad,"ICRISAT Patancheru, Hyderabad - TSPCB",31-03-2026 08:00:00,17.518400,78.278777,OZONE,17,76,44
India,TamilNadu,Chennai,"Velachery Res. Area, Chennai - CPCB",31-03-2026 08:00:00,13.0052189,80.2398125,NO2,12,14,13
India,TamilNadu,Chennai,"Velachery Res. Area, Chennai - CPCB",31-03-2026 08:00:00,13.0052189,80.2398125,OZONE,7,11,8
India,TamilNadu,Coimbatore,"PSG College of Arts and Science, Coimbatore - TNPCB",31-03-2026 08:00:00,11.0328,77.0349,NO2,10,11,10
India,TamilNadu,Coimbatore,"SIDCO Kurichi, Coimbatore - TNPCB",31-03-2026 08:00:00,10.942451,76.978996,NO2,9,20,13
India,TamilNadu,Gummidipoondi,"Anthoni Pillai Nagar, Gummidipoondi - TNPCB",31-03-2026 08:00:00,13.4127,80.1081,NH3,1,1,1
India,Rajasthan,Sirohi,"Vedhaynath Colony, Sirohi - RSPCB",31-03-2026 08:00:00,24.885261,72.857549,SO2,4,6,5
India,Rajasthan,Sri Ganganagar,"Old City, Sri Ganganagar - RSPCB",31-03-2026 08:00:00,29.931624,73.864511,NH3,7,12,9
India,Rajasthan,Sri Ganganagar,"Old City, Sri Ganganagar - RSPCB",31-03-2026 08:00:00,29.931624,73.864511,OZONE,2,162,23
India,Rajasthan,Tonk,"Shastri Nagar, Tonk - RSPCB",31-03-2026 08:00:00,26.159933,75.780517,SO2,1,9,6
India,Rajasthan,Udaipur,"Ashok Nagar, Udaipur - RSPCB",31-03-2026 08:00:00,24.5886166,73.6321397,NH3,2,9,5
India,Telangana,Hyderabad,"New Malakpet, Hyderabad - TSPCB",31-03-2026 08:00:00,17.37206,78.50864,OZONE,13,42,18
India,Telangana,Hyderabad,"Ramachandrapuram, Hyderabad - TSPCB",31-03-2026 08:00:00,17.528544,78.286195,SO2,11,22,12
India,Telangana,Hyderabad,"Ramachandrapuram, Hyderabad - TSPCB",31-03-2026 08:00:00,17.528544,78.286195,OZONE,26,30,30
India,Telangana,Hyderabad,"Sanathnagar, Hyderabad - TSPCB",31-03-2026 08:00:00,17.4559458,78.4332152,PM2.5,13,66,43
India,Telangana,Hyderabad,"Somajiguda, Hyderabad - TSPCB",31-03-2026 08:00:00,17.417094,78.457437,CO,2,36,32
India,Tripura,Agartala,"Bardowali, Agartala - Tripura SPCB",31-03-2026 08:00:00,23.8175497,91.2726974,PM10,57,126,92
India,Tripura,Agartala,"Bardowali, Agartala - Tripura SPCB",31-03-2026 08:00:00,23.8175497,91.2726974,NH3,2,5,3
India,Uttar_Pradesh,Agra,"Manoharpur, Agra - UPPCB",31-03-2026 08:00:00,27.23711,78.01936,NH3,5,8,5
India,Uttar_Pradesh,Agra,"Rohta, Agra - UPPCB",31-03-2026 08:00:00,27.106972,78.000111,PM2.5,21,61,40
India,Sikkim,Gangtok,"Zero Point GICI, Gangtok - SSPCB",31-03-2026 08:00:00,27.338530,88.614099,PM10,16,45,29
India,TamilNadu,Chennai,"Arumbakkam, Chennai - TNPCB",31-03-2026 08:00:00,13.0664,80.2112 ,PM2.5,8,26,19
India,TamilNadu,Chennai,"Perungudi, Chennai - TNPCB",31-03-2026 08:00:00,12.9533,80.2357,CO,18,46,25
India,Uttar_Pradesh,Greater Noida,"Knowledge Park - III, Greater Noida - UPPCB",31-03-2026 08:00:00,28.47272,77.482000,NH3,6,19,10
India,Uttar_Pradesh,Greater Noida,"Knowledge Park - V, Greater Noida - UPPCB",31-03-2026 08:00:00,28.557054,77.453663,PM2.5,111,375,235
India,Uttar_Pradesh,Hapur,"Anand Vihar, Hapur - UPPCB",31-03-2026 08:00:00,28.725645,77.749675,NO2,NA,NA,NA
India,Uttar_Pradesh,Hapur,"Anand Vihar, Hapur - UPPCB",31-03-2026 08:00:00,28.725645,77.749675,NH3,NA,NA,NA
India,Uttar_Pradesh,Hapur,"Anand Vihar, Hapur - UPPCB",31-03-2026 08:00:00,28.725645,77.749675,SO2,NA,NA,NA
India,Uttar_Pradesh,Hapur,"Anand Vihar, Hapur - UPPCB",31-03-2026 08:00:00,28.725645,77.749675,CO,NA,NA,NA
India,Uttar_Pradesh,Jhansi,"Shivaji Nagar, Jhansi - UPPCB",31-03-2026 08:00:00,25.4547,78.6039,OZONE,2,14,3
India,Uttar_Pradesh,Kanpur,"FTI Kidwai Nagar, Kanpur - UPPCB",31-03-2026 08:00:00,26.428282,80.327067,PM2.5,22,79,49
India,Uttar_Pradesh,Kanpur,"NSI Kalyanpur, Kanpur - UPPCB",31-03-2026 08:00:00,26.509954,80.249612,PM2.5,26,93,54
India,Uttar_Pradesh,Lucknow,"Lalbagh, Lucknow - CPCB",31-03-2026 08:00:00,26.8458805,80.9365541,OZONE,14,49,17
India,Uttar_Pradesh,Lucknow,"Talkatora District Industries Center, Lucknow - CPCB",31-03-2026 08:00:00,26.83399722,80.8917361,NO2,44,50,46
India,Uttar_Pradesh,Lucknow,"Talkatora District Industries Center, Lucknow - CPCB",31-03-2026 08:00:00,26.83399722,80.8917361,CO,16,57,23
India,Uttar_Pradesh,Meerut,"Jai Bhim Nagar, Meerut - UPPCB",31-03-2026 08:00:00,28.9535882,77.7622941,NO2,20,49,35
India,Uttar_Pradesh,Meerut,"Pallavpuram Phase 2, Meerut - UPPCB",31-03-2026 08:00:00,29.063510,77.709723,PM2.5,91,302,153
India,Uttar_Pradesh,Bulandshahr,"Yamunapuram, Bulandshahr - UPPCB",31-03-2026 08:00:00,28.406963,77.849831,PM10,126,298,166
India,Uttar_Pradesh,Bulandshahr,"Yamunapuram, Bulandshahr - UPPCB",31-03-2026 08:00:00,28.406963,77.849831,NO2,22,78,44
India,Uttar_Pradesh,Bulandshahr,"Yamunapuram, Bulandshahr - UPPCB",31-03-2026 08:00:00,28.406963,77.849831,NH3,8,13,11
India,Uttar_Pradesh,Firozabad,"Nagla Bhau, Firozabad - UPPCB",31-03-2026 08:00:00,27.168897,78.376960,PM2.5,30,90,49
India,Uttar_Pradesh,Firozabad,"Nagla Bhau, Firozabad - UPPCB",31-03-2026 08:00:00,27.168897,78.376960,NH3,2,2,2
India,Uttar_Pradesh,Firozabad,"Nagla Bhau, Firozabad - UPPCB",31-03-2026 08:00:00,27.168897,78.376960,SO2,9,68,29
India,Uttar_Pradesh,Lucknow,"B R Ambedkar University, Lucknow - UPPCB",31-03-2026 08:00:00,26.766433,80.927299,PM2.5,17,154,63
India,Uttar_Pradesh,Lucknow,"B R Ambedkar University, Lucknow - UPPCB",31-03-2026 08:00:00,26.766433,80.927299,OZONE,8,96,19
India,Uttar_Pradesh,Lucknow,"Gomti Nagar, Lucknow - UPPCB",31-03-2026 08:00:00,26.868120,81.005119,SO2,10,14,11
India,Uttar_Pradesh,Lucknow,"Kendriya Vidyalaya, Lucknow - CPCB",31-03-2026 08:00:00,26.906111,80.948222,PM2.5,23,242,115
India,Uttar_Pradesh,Lucknow,"Kendriya Vidyalaya, Lucknow - CPCB",31-03-2026 08:00:00,26.906111,80.948222,NH3,6,20,11
India,Uttar_Pradesh,Agra,"Rohta, Agra - UPPCB",31-03-2026 08:00:00,27.106972,78.000111,NH3,5,5,5
India,Uttar_Pradesh,Agra,"Rohta, Agra - UPPCB",31-03-2026 08:00:00,27.106972,78.000111,OZONE,12,15,15
India,Uttar_Pradesh,Agra,"Sanjay Palace, Agra - UPPCB",31-03-2026 08:00:00,27.19865833,78.00598056,OZONE,11,83,22
India,Uttar_Pradesh,Agra,"Sector-3B Avas Vikas Colony, Agra - UPPCB",31-03-2026 08:00:00,27.19412,77.96237,PM10,77,280,143
India,Uttar_Pradesh,Agra,"Sector-3B Avas Vikas Colony, Agra - UPPCB",31-03-2026 08:00:00,27.19412,77.96237,NO2,36,36,36
India,Uttar_Pradesh,Agra,"Shahjahan Garden, Agra - UPPCB",31-03-2026 08:00:00,27.169338,78.03582,CO,4,10,4
India,Uttar_Pradesh,Baghpat,"Sardar Patel Inter College, Baghpat - UPPCB",31-03-2026 08:00:00,28.964949,77.278761,PM2.5,38,311,90
India,Uttar_Pradesh,Baghpat,"Sardar Patel Inter College, Baghpat - UPPCB",31-03-2026 08:00:00,28.964949,77.278761,SO2,11,66,35
India,Uttar_Pradesh,Kanpur,"NSI Kalyanpur, Kanpur - UPPCB",31-03-2026 08:00:00,26.509954,80.249612,OZONE,15,18,15
India,Uttar_Pradesh,Khurja,"Kalindi Kunj, Khurja - UPPCB",31-03-2026 08:00:00,28.2348927,77.8683002,PM10,71,222,127
India,Uttar_Pradesh,Khurja,"Kalindi Kunj, Khurja - UPPCB",31-03-2026 08:00:00,28.2348927,77.8683002,NH3,1,1,1
India,Uttar_Pradesh,Firozabad,"Vibhab Nagar, Firozabad - UPPCB",31-03-2026 08:00:00,27.1594,78.3953,CO,4,14,14
India,Uttar_Pradesh,Ghaziabad,"Loni, Ghaziabad - UPPCB",31-03-2026 08:00:00,28.757294,77.278792,PM2.5,63,418,199
India,Uttar_Pradesh,Ghaziabad,"Loni, Ghaziabad - UPPCB",31-03-2026 08:00:00,28.757294,77.278792,SO2,12,23,16
India,Uttar_Pradesh,Bareilly,"Civil Lines, Bareilly - UPPCB",31-03-2026 08:00:00,28.359581,79.414455,PM10,32,98,51
India,Uttar_Pradesh,Bareilly,"Civil Lines, Bareilly - UPPCB",31-03-2026 08:00:00,28.359581,79.414455,CO,38,67,40
India,Uttar_Pradesh,Bareilly,"Rajendra Nagar, Bareilly - UPPCB",31-03-2026 08:00:00,28.38910936,79.42963708,PM2.5,16,64,30
India,West_Bengal,Asansol,"Asansol Court Area, Asansol - WBPCB",31-03-2026 08:00:00,23.685297,86.945968,NH3,3,9,5
India,West_Bengal,Asansol,"Asansol Court Area, Asansol - WBPCB",31-03-2026 08:00:00,23.685297,86.945968,OZONE,19,44,30
India,West_Bengal,Asansol,"Evelyn Lodge, Asansol - WBPCB",31-03-2026 08:00:00,23.6979360,86.9443950,CO,12,40,21
India,West_Bengal,Asansol,"Evelyn Lodge, Asansol - WBPCB",31-03-2026 08:00:00,23.6979360,86.9443950,OZONE,12,45,23
India,West_Bengal,Asansol,"Mahabir Colliery, Asansol - WBPCB",31-03-2026 08:00:00,23.6181830,87.1057180,SO2,5,9,6
India,West_Bengal,Asansol,"Trivenidevi Bhalotia College, Asansol - WBPCB",31-03-2026 08:00:00,23.616515,87.119133,PM2.5,29,73,46
India,West_Bengal,Asansol,"Trivenidevi Bhalotia College, Asansol - WBPCB",31-03-2026 08:00:00,23.616515,87.119133,SO2,12,17,14
India,West_Bengal,Durgapur,"Mahishkapur Road_B-Zone, Durgapur - WBPCB",31-03-2026 08:00:00,23.567923,87.306843,OZONE,12,54,19
India,West_Bengal,Durgapur,"PCBL Residential Complex, Durgapur - WBPCB",31-03-2026 08:00:00,23.5087640,87.3544400,PM10,37,96,60
India,West_Bengal,Durgapur,"PCBL Residential Complex, Durgapur - WBPCB",31-03-2026 08:00:00,23.5087640,87.3544400,SO2,5,6,5
India,West_Bengal,Durgapur,"Womens College_City Center, Durgapur - WBPCB",31-03-2026 08:00:00,23.549395,87.300496,CO,18,84,33
India,West_Bengal,Haldia,"Priyambada Housing Estate, Haldia - WBPCB",31-03-2026 08:00:00,22.06047,88.109737,PM10,NA,NA,NA
India,West_Bengal,Haldia,"Priyambada Housing Estate, Haldia - WBPCB",31-03-2026 08:00:00,22.06047,88.109737,NH3,1,4,3
India,West_Bengal,Howrah,"Belur Math, Howrah - WBPCB",31-03-2026 08:00:00,22.629801,88.352017,PM2.5,39,55,46
India,West_Bengal,Howrah,"Botanical Garden, Howrah - WBPCB",31-03-2026 08:00:00,22.554954,88.292568,OZONE,11,38,16
India,West_Bengal,Howrah,"Dasnagar, Howrah - WBPCB",31-03-2026 08:00:00,22.6025571,88.3105664,CO,20,40,29
India,Uttar_Pradesh,Vrindavan,"Omex Eternity, Vrindavan - UPPCB",31-03-2026 08:00:00,27.5714090,77.6557570,SO2,13,30,20
India,Uttar_Pradesh,Vrindavan,"Omex Eternity, Vrindavan - UPPCB",31-03-2026 08:00:00,27.5714090,77.6557570,OZONE,15,16,15
India,Uttarakhand,Dehradun,"Doon University, Dehradun - UKPCB",31-03-2026 08:00:00,30.269444,78.044167,PM10,58,140,101
India,Uttarakhand,Kashipur,"Govt. Girls Inter College, Kashipur - UKPCB",31-03-2026 08:00:00,29.2124114,78.9611753,PM2.5,NA,NA,NA
India,Uttarakhand,Kashipur,"Govt. Girls Inter College, Kashipur - UKPCB",31-03-2026 08:00:00,29.2124114,78.9611753,NH3,NA,NA,NA
India,Uttarakhand,Rishikesh,"Shivaji Nagar, Rishikesh - UKPCB",31-03-2026 08:00:00,30.075911,78.2859547,NO2,18,18,18
India,West_Bengal,Asansol,"Asansol Court Area, Asansol - WBPCB",31-03-2026 08:00:00,23.685297,86.945968,PM10,31,110,73
India,Uttar_Pradesh,Muzaffarnagar,"New Mandi, Muzaffarnagar - UPPCB",31-03-2026 08:00:00,29.4723508,77.7194031,PM2.5,43,273,110
India,Uttar_Pradesh,Muzaffarnagar,"New Mandi, Muzaffarnagar - UPPCB",31-03-2026 08:00:00,29.4723508,77.7194031,PM10,110,286,141
India,Uttar_Pradesh,Muzaffarnagar,"New Mandi, Muzaffarnagar - UPPCB",31-03-2026 08:00:00,29.4723508,77.7194031,OZONE,14,155,22
India,Uttar_Pradesh,Noida,"Sector - 125, Noida - UPPCB",31-03-2026 08:00:00,28.5447608,77.3231257,OZONE,9,83,10
India,Uttar_Pradesh,Noida,"Sector-1, Noida - UPPCB",31-03-2026 08:00:00,28.5898,77.3101,CO,40,102,85
India,Uttar_Pradesh,Noida,"Sector-116, Noida - UPPCB",31-03-2026 08:00:00,28.569230,77.393848,PM2.5,32,328,137
India,Uttar_Pradesh,Varanasi,"Ardhali Bazar, Varanasi - UPPCB",31-03-2026 08:00:00,25.3505986,82.9083074,CO,2,59,14
India,Uttar_Pradesh,Varanasi,"Bhelupur, Varanasi - UPPCB",31-03-2026 08:00:00,25.301778,82.996789,PM2.5,31,70,46
India,Uttar_Pradesh,Varanasi,"Bhelupur, Varanasi - UPPCB",31-03-2026 08:00:00,25.301778,82.996789,OZONE,5,16,10
India,Uttar_Pradesh,Varanasi,"IESD Banaras Hindu University, Varanasi - UPPCB",31-03-2026 08:00:00,25.262326,82.995408,SO2,32,48,36
India,Uttar_Pradesh,Varanasi,"IESD Banaras Hindu University, Varanasi - UPPCB",31-03-2026 08:00:00,25.262326,82.995408,CO,3,10,7
India,Uttar_Pradesh,Varanasi,"IESD Banaras Hindu University, Varanasi - UPPCB",31-03-2026 08:00:00,25.262326,82.995408,OZONE,NA,NA,NA
India,Uttar_Pradesh,Moradabad,"Jigar Colony, Moradabad - UPPCB",31-03-2026 08:00:00,28.856664,78.772638,NH3,6,6,6
India,Uttar_Pradesh,Moradabad,"Jigar Colony, Moradabad - UPPCB",31-03-2026 08:00:00,28.856664,78.772638,OZONE,17,23,17
India,Uttar_Pradesh,Moradabad,"Kashiram Nagar, Moradabad - UPPCB",31-03-2026 08:00:00,28.849399,78.742362,PM2.5,26,80,44
India,Uttar_Pradesh,Moradabad,"Kashiram Nagar, Moradabad - UPPCB",31-03-2026 08:00:00,28.849399,78.742362,PM10,49,143,80
India,Uttar_Pradesh,Moradabad,"Kashiram Nagar, Moradabad - UPPCB",31-03-2026 08:00:00,28.849399,78.742362,NO2,24,25,25
India,Uttar_Pradesh,Moradabad,"Transport Nagar, Moradabad - UPPCB",31-03-2026 08:00:00,28.802625,78.753728,PM2.5,19,87,36
India,Uttar_Pradesh,Prayagraj,"Motilal Nehru NIT, Prayagraj - UPPCB",31-03-2026 08:00:00,25.494,81.863,PM2.5,25,92,49
India,Uttar_Pradesh,Prayagraj,"Motilal Nehru NIT, Prayagraj - UPPCB",31-03-2026 08:00:00,25.494,81.863,PM10,23,231,131
India,Uttar_Pradesh,Raebareli," Indira Nagar, Raebareli - NTPC Unchahar",31-03-2026 08:00:00,26.207781,81.245571,OZONE,NA,NA,NA
India,Uttar_Pradesh,Varanasi,"Ardhali Bazar, Varanasi - UPPCB",31-03-2026 08:00:00,25.3505986,82.9083074,PM2.5,40,86,57
India,West_Bengal,Howrah,"Ghusuri, Howrah - WBPCB",31-03-2026 08:00:00,22.611968,88.347422,PM2.5,39,80,58
India,West_Bengal,Howrah,"Ghusuri, Howrah - WBPCB",31-03-2026 08:00:00,22.611968,88.347422,NH3,14,24,19
India,West_Bengal,Kolkata,"Ballygunge, Kolkata - WBPCB",31-03-2026 08:00:00,22.5367507,88.3638022,NH3,7,11,8
India,West_Bengal,Kolkata,"Bidhannagar, Kolkata - WBPCB",31-03-2026 08:00:00,22.58157048,88.41002457,SO2,3,11,5
India,Uttar_Pradesh,Moradabad,"Employment Office, Moradabad - UPPCB",31-03-2026 08:00:00,28.88528,78.73880,NH3,4,4,4
India,West_Bengal,Kolkata,"Jadavpur, Kolkata - WBPCB",31-03-2026 08:00:00,22.49929,88.36917,OZONE,7,44,9
India,West_Bengal,Kolkata,"Rabindra Bharati University, Kolkata - WBPCB",31-03-2026 08:00:00,22.627847,88.380669,NH3,12,12,12
India,West_Bengal,Kolkata,"Rabindra Bharati University, Kolkata - WBPCB",31-03-2026 08:00:00,22.627847,88.380669,SO2,6,11,8
India,West_Bengal,Kolkata,"Rabindra Sarobar, Kolkata - WBPCB",31-03-2026 08:00:00,22.51106,88.35142,NO2,22,102,46
India,West_Bengal,Siliguri,"Ward-32 Bapupara, Siliguri - WBPCB",31-03-2026 08:00:00,26.6879226,88.4152495,PM2.5,32,44,38
India,West_Bengal,Siliguri,"Ward-32 Bapupara, Siliguri - WBPCB",31-03-2026 08:00:00,26.6879226,88.4152495,OZONE,11,45,17
India,Andhra_Pradesh,Chittoor,"Gangineni Cheruvu, Chittoor - APPCB",31-03-2026 08:00:00,13.204880,79.097889,CO,7,79,7
India,Andhra_Pradesh,Chittoor,"Gangineni Cheruvu, Chittoor - APPCB",31-03-2026 08:00:00,13.204880,79.097889,OZONE,23,52,27
India,Andhra_Pradesh,Eluru,"District Court, Eluru - APPCB",31-03-2026 08:00:00,16.711754,81.092095,PM10,22,68,45
India,Andhra_Pradesh,Eluru,"District Court, Eluru - APPCB",31-03-2026 08:00:00,16.711754,81.092095,NO2,9,24,16
India,Andhra_Pradesh,Eluru,"District Court, Eluru - APPCB",31-03-2026 08:00:00,16.711754,81.092095,SO2,16,18,17
India,Andhra_Pradesh,Guntur,"Rajendra Nagar North, Guntur - APPCB",31-03-2026 08:00:00,16.316553,80.413302,SO2,7,16,11
India,Andhra_Pradesh,Guntur,"Rajendra Nagar North, Guntur - APPCB",31-03-2026 08:00:00,16.316553,80.413302,CO,12,26,13
India,Andhra_Pradesh,Guntur,"Rajendra Nagar North, Guntur - APPCB",31-03-2026 08:00:00,16.316553,80.413302,OZONE,20,40,24
India,Andhra_Pradesh,Kadapa,"Yerramukkapalli, Kadapa - APPCB",31-03-2026 08:00:00,14.465052,78.824187,PM10,34,179,76
India,Andhra_Pradesh,Nellore,"Ambedkar Nagar, Nellore - APPCB ",31-03-2026 08:00:00,14.438164 ,79.966814 ,OZONE,4,35,8
India,Andhra_Pradesh,Rajamahendravaram,"Anand Kala Kshetram, Rajamahendravaram - APPCB",31-03-2026 08:00:00,16.9872867,81.7363176,SO2,4,9,6
India,Andhra_Pradesh,Amaravati,"Secretariat, Amaravati - APPCB",31-03-2026 08:00:00,16.5150833,80.5181667,SO2,4,11,6
India,Andhra_Pradesh,Chittoor,"Gangineni Cheruvu, Chittoor - APPCB",31-03-2026 08:00:00,13.204880,79.097889,SO2,10,20,12
India,Andhra_Pradesh,Vijayawada,"HB Colony, Vijayawada - APPCB",31-03-2026 08:00:00,16.536107,80.594233,CO,36,42,36
India,Andhra_Pradesh,Vijayawada,"Kanuru, Vijayawada - APPCB",31-03-2026 08:00:00,16.486692,80.699436,SO2,13,21,18
India,Andhra_Pradesh,Vijayawada,"Kanuru, Vijayawada - APPCB",31-03-2026 08:00:00,16.486692,80.699436,CO,24,34,26
India,Andhra_Pradesh,Tirupati,"Vaikuntapuram, Tirupati - APPCB",31-03-2026 08:00:00,13.615387,79.409230,PM2.5,38,56,45
India,Andhra_Pradesh,Tirupati,"Vaikuntapuram, Tirupati - APPCB",31-03-2026 08:00:00,13.615387,79.409230,NH3,4,5,4
India,Andhra_Pradesh,Tirupati,"Vaikuntapuram, Tirupati - APPCB",31-03-2026 08:00:00,13.615387,79.409230,CO,17,24,20
India,Andhra_Pradesh,Machilipatnam,"Srinivas Nagar Colony, Machilipatnam - APPCB",31-03-2026 08:00:00,16.186555,81.13219,NH3,NA,NA,NA
India,Andhra_Pradesh,Machilipatnam,"Srinivas Nagar Colony, Machilipatnam - APPCB",31-03-2026 08:00:00,16.186555,81.13219,CO,1,42,2
India,Andhra_Pradesh,Guntur,"Rajendra Nagar North, Guntur - APPCB",31-03-2026 08:00:00,16.316553,80.413302,NH3,4,6,5
India,Andhra_Pradesh,Tirupati,"Vaikuntapuram, Tirupati - APPCB",31-03-2026 08:00:00,13.615387,79.409230,OZONE,17,33,18
India,Andhra_Pradesh,Amaravati,"Secretariat, Amaravati - APPCB",31-03-2026 08:00:00,16.5150833,80.5181667,NO2,7,10,8
India,Assam,Guwahati,"IITG, Guwahati - PCBA",31-03-2026 08:00:00,26.2028636,91.70046436,PM2.5,NA,NA,NA
India,Assam,Guwahati,"IITG, Guwahati - PCBA",31-03-2026 08:00:00,26.2028636,91.70046436,PM10,16,45,32
India,Assam,Byrnihat,"Central Academy for SFS, Byrnihat - PCBA",31-03-2026 08:00:00,26.071318,91.87488,PM10,59,127,85
India,Andhra_Pradesh,Vijayawada,"Rajiv Nagar, Vijayawada - APPCB",31-03-2026 08:00:00,16.554731,80.649110,OZONE,NA,NA,NA
India,Andhra_Pradesh,Vijayawada,"Rajiv Nagar, Vijayawada - APPCB",31-03-2026 08:00:00,16.554731,80.649110,NH3,NA,NA,NA
India,Andhra_Pradesh,Vijayawada,"Rajiv Nagar, Vijayawada - APPCB",31-03-2026 08:00:00,16.554731,80.649110,SO2,NA,NA,NA
India,Andhra_Pradesh,Visakhapatnam,"GVM Corporation, Visakhapatnam - APPCB",31-03-2026 08:00:00,17.72,83.3,NH3,3,3,3
India,Assam,Guwahati,"LGBI Airport, Guwahati - PCBA",31-03-2026 08:00:00,26.10887,91.589544,PM10,39,48,42
India,Assam,Guwahati,"LGBI Airport, Guwahati - PCBA",31-03-2026 08:00:00,26.10887,91.589544,NO2,10,23,16
India,Assam,Guwahati,"IITG, Guwahati - PCBA",31-03-2026 08:00:00,26.2028636,91.70046436,SO2,30,32,31
India,Assam,Nagaon,"Christianpatty, Nagaon - PCBA",31-03-2026 08:00:00,26.349082,92.68449,PM2.5,12,49,25
India,Assam,Nagaon,"Christianpatty, Nagaon - PCBA",31-03-2026 08:00:00,26.349082,92.68449,NO2,4,21,12
India,Assam,Nagaon,"Christianpatty, Nagaon - PCBA",31-03-2026 08:00:00,26.349082,92.68449,NH3,4,4,4
India,Assam,Nagaon,"Christianpatty, Nagaon - PCBA",31-03-2026 08:00:00,26.349082,92.68449,OZONE,13,34,21
India,Assam,Nalbari,"Bata Chowk, Nalbari - PCBA",31-03-2026 08:00:00,26.446912,91.439057,OZONE,12,16,15
India,Assam,Guwahati,"Railway Colony, Guwahati - PCBA",31-03-2026 08:00:00,26.181742,91.78063,SO2,2,9,4
India,Assam,Guwahati,"LGBI Airport, Guwahati - PCBA",31-03-2026 08:00:00,26.10887,91.589544,SO2,9,16,12
India,Assam,Sivasagar,"Girls College, Sivasagar - PCBA",31-03-2026 08:00:00,26.987634,94.636574,SO2,8,9,9
India,Bihar,Araria,"Kharahiya Basti, Araria - BSPCB",31-03-2026 08:00:00,26.146529,87.454184,SO2,NA,NA,NA
India,Assam,Nalbari,"Bata Chowk, Nalbari - PCBA",31-03-2026 08:00:00,26.446912,91.439057,SO2,6,8,8
India,Assam,Silchar,"Tarapur, Silchar - PCBA",31-03-2026 08:00:00,24.82827,92.79525,CO,22,47,26
India,Bihar,Arrah,"New DM Office, Arrah - BSPCB",31-03-2026 08:00:00,25.5626095,84.663264,CO,42,62,49
India,Bihar,Aurangabad,"Gurdeo Nagar, Aurangabad - BSPCB",31-03-2026 08:00:00,24.75746,84.366208,NO2,7,8,8
India,Bihar,Aurangabad,"Gurdeo Nagar, Aurangabad - BSPCB",31-03-2026 08:00:00,24.75746,84.366208,NH3,1,2,1
India,Bihar,Bettiah,"Kamalnath Nagar, Bettiah - BSPCB",31-03-2026 08:00:00,26.80365,84.51954,PM10,15,102,36
India,Bihar,Bettiah,"Kamalnath Nagar, Bettiah - BSPCB",31-03-2026 08:00:00,26.80365,84.51954,NH3,1,1,1
India,Bihar,Bettiah,"Kamalnath Nagar, Bettiah - BSPCB",31-03-2026 08:00:00,26.80365,84.51954,SO2,8,29,16
India,Bihar,Bihar Sharif,"D M Colony, Bihar Sharif - BSPCB",31-03-2026 08:00:00,25.204762,85.514960,PM10,24,59,38
India,Bihar,Buxar,"Charitra Van, Buxar - BSPCB",31-03-2026 08:00:00,25.567520,83.966379,PM2.5,53,77,67
India,Bihar,Chhapra,"Darshan Nagar, Chhapra - BSPCB",31-03-2026 08:00:00,25.7808257,84.7446768,NO2,3,4,4
India,Bihar,Chhapra,"Darshan Nagar, Chhapra - BSPCB",31-03-2026 08:00:00,25.7808257,84.7446768,SO2,20,23,22
India,Bihar,Bhagalpur,"DM Office_Kachari Chowk, Bhagalpur - BSPCB",31-03-2026 08:00:00,25.251013,86.989001,PM10,39,127,67
India,Bihar,Begusarai,"Lohiyanagar, Begusarai - BSPCB",31-03-2026 08:00:00,25.42742023,86.13886079,OZONE,37,51,42
India,Bihar,Arrah,"New DM Office, Arrah - BSPCB",31-03-2026 08:00:00,25.5626095,84.663264,PM2.5,52,95,69
India,Bihar,Begusarai,"Lohiyanagar, Begusarai - BSPCB",31-03-2026 08:00:00,25.42742023,86.13886079,NH3,3,4,4
India,Bihar,Bhagalpur,"Mayaganj, Bhagalpur - BSPCB",31-03-2026 08:00:00,25.265194,87.012947,SO2,44,54,49
India,Bihar,Saharsa,"Police Line, Saharsa - BSPCB",31-03-2026 08:00:00,25.892357,86.590325,SO2,14,20,16
India,Bihar,Samastipur,"DM Office_Kasipur, Samastipur - BSPCB",31-03-2026 08:00:00,25.859655,85.77944,PM10,37,98,61
India,Bihar,Samastipur,"DM Office_Kasipur, Samastipur - BSPCB",31-03-2026 08:00:00,25.859655,85.77944,CO,10,12,12
India,Bihar,Samastipur,"DM Office_Kasipur, Samastipur - BSPCB",31-03-2026 08:00:00,25.859655,85.77944,OZONE,6,26,16
India,Bihar,Siwan,"Chitragupta Nagar, Siwan - BSPCB",31-03-2026 08:00:00,26.2271665,84.3570427,NO2,NA,NA,NA
India,Bihar,Siwan,"Chitragupta Nagar, Siwan - BSPCB",31-03-2026 08:00:00,26.2271665,84.3570427,CO,NA,NA,NA
India,Chandigarh,Chandigarh,"Sector 22, Chandigarh - CPCC",31-03-2026 08:00:00,30.735567,76.775714,SO2,7,41,18
India,Chandigarh,Chandigarh,"Sector-25, Chandigarh - CPCC",31-03-2026 08:00:00,30.751462,76.762879,NH3,6,12,10
India,Chandigarh,Chandigarh,"Sector-53, Chandigarh - CPCC",31-03-2026 08:00:00,30.719859,76.738637,PM2.5,NA,NA,NA
India,Bihar,Gaya,"SFTI Kusdihra, Gaya - BSPCB",31-03-2026 08:00:00,24.762518,84.982348,CO,4,35,28
India,Bihar,Gaya,"SFTI Kusdihra, Gaya - BSPCB",31-03-2026 08:00:00,24.762518,84.982348,OZONE,4,62,8
India,Bihar,Hajipur,"Industrial Area, Hajipur - BSPCB",31-03-2026 08:00:00,25.697189,85.245900,PM2.5,60,203,106
India,Bihar,Katihar,"Mirchaibari, Katihar - BSPCB",31-03-2026 08:00:00,25.560083,87.553265,PM10,NA,NA,NA
India,Bihar,Kishanganj,"SDM Office_Khagra, Kishanganj - BSPCB",31-03-2026 08:00:00,26.0881305,87.93840336,PM10,22,37,30
India,Bihar,Manguraha,"Forest Rest House, Manguraha - BSPCB",31-03-2026 08:00:00,27.308328,84.531742,PM10,45,167,90
India,Bihar,Manguraha,"Forest Rest House, Manguraha - BSPCB",31-03-2026 08:00:00,27.308328,84.531742,OZONE,8,12,10
India,Bihar,Motihari,"Gandak Colony, Motihari - BSPCB",31-03-2026 08:00:00,26.63086,84.90051,SO2,3,3,3
India,Bihar,Munger,"Town Hall, Munger - BSPCB",31-03-2026 08:00:00,25.376776,86.471523,NO2,4,5,5
India,Bihar,Muzaffarpur,"Buddha Colony, Muzaffarpur - BSPCB",31-03-2026 08:00:00,26.11442,85.39813,PM2.5,64,115,88
India,Bihar,Muzaffarpur,"MIT-Daudpur Kothi, Muzaffarpur - BSPCB",31-03-2026 08:00:00,26.1403345,85.3650192,CO,32,56,32
India,Bihar,Patna,"Rajbansi Nagar, Patna - BSPCB",31-03-2026 08:00:00,25.599486,85.113666,NH3,1,1,1
India,Bihar,Patna,"Samanpura, Patna - BSPCB",31-03-2026 08:00:00,25.596727,85.085624,SO2,4,6,5
India,Bihar,Patna,"Samanpura, Patna - BSPCB",31-03-2026 08:00:00,25.596727,85.085624,OZONE,24,36,30
India,Bihar,Purnia,"Mariam Nagar, Purnia - BSPCB",31-03-2026 08:00:00,25.366336,87.117468,NH3,2,2,2
India,Bihar,Purnia,"Mariam Nagar, Purnia - BSPCB",31-03-2026 08:00:00,25.366336,87.117468,CO,56,58,57
India,Bihar,Rajgir,"Dangi Tola, Rajgir - BSPCB",31-03-2026 08:00:00,25.03280,85.41948,CO,38,46,42
India,Bihar,Patna,"DRM Office Danapur, Patna - BSPCB",31-03-2026 08:00:00,25.586562,85.043586,CO,36,53,39
India,Bihar,Patna,"DRM Office Danapur, Patna - BSPCB",31-03-2026 08:00:00,25.586562,85.043586,OZONE,27,34,31
India,Bihar,Patna,"Govt. High School Shikarpur, Patna - BSPCB",31-03-2026 08:00:00,25.592539,85.227158,NO2,10,17,12
India,Bihar,Patna,"Govt. High School Shikarpur, Patna - BSPCB",31-03-2026 08:00:00,25.592539,85.227158,NH3,4,5,5
India,Bihar,Patna,"IGSC Planetarium Complex, Patna - BSPCB",31-03-2026 08:00:00,25.610369,85.132568,CO,6,32,24
India,Bihar,Gaya,"Kareemganj, Gaya - BSPCB",31-03-2026 08:00:00,24.792403,84.992416,NH3,1,1,1
India,Bihar,Gaya,"Kareemganj, Gaya - BSPCB",31-03-2026 08:00:00,24.792403,84.992416,OZONE,19,87,30
India,Bihar,Gaya,"SFTI Kusdihra, Gaya - BSPCB",31-03-2026 08:00:00,24.762518,84.982348,PM10,34,71,53
India,Bihar,Gaya,"SFTI Kusdihra, Gaya - BSPCB",31-03-2026 08:00:00,24.762518,84.982348,NO2,18,24,21
India,Chhattisgarh,Bhilai,"Civic Center, Bhilai - Bhilai Steel Plant",31-03-2026 08:00:00,21.185571,81.343175,NH3,3,3,3
India,Chhattisgarh,Bhilai,"Hathkhoj, Bhilai - CECB",31-03-2026 08:00:00,21.224231,81.408350,PM2.5,19,45,34
India,Chhattisgarh,Bhilai,"32Bungalows, Bhilai - CECB",31-03-2026 08:00:00,21.194815,81.314770,SO2,8,35,20
India,Chhattisgarh,Bhilai,"32Bungalows, Bhilai - CECB",31-03-2026 08:00:00,21.194815,81.314770,CO,7,47,14
India,Bihar,Patna,"DRM Office Danapur, Patna - BSPCB",31-03-2026 08:00:00,25.586562,85.043586,PM10,80,118,98
India,Delhi,Delhi,"ITO, Delhi - CPCB",31-03-2026 08:00:00,28.628624,77.241060,PM10,103,202,159
India,Delhi,Delhi,"ITO, Delhi - CPCB",31-03-2026 08:00:00,28.628624,77.241060,NH3,2,6,5
India,Delhi,Delhi,"ITO, Delhi - CPCB",31-03-2026 08:00:00,28.628624,77.241060,SO2,19,34,28
India,Delhi,Delhi,"ITO, Delhi - CPCB",31-03-2026 08:00:00,28.628624,77.241060,CO,22,104,70
India,Delhi,Delhi,"JNU, Delhi - DPCC",31-03-2026 08:00:00,28.540721 ,77.168544 ,PM2.5,45,214,90
India,Delhi,Delhi,"JNU, Delhi - DPCC",31-03-2026 08:00:00,28.540721 ,77.168544 ,CO,110,126,122
India,Delhi,Delhi,"Jahangirpuri, Delhi - DPCC",31-03-2026 08:00:00,28.732820,77.170633,PM10,135,389,248
India,Delhi,Delhi,"Jahangirpuri, Delhi - DPCC",31-03-2026 08:00:00,28.732820,77.170633,NO2,35,92,61
India,Delhi,Delhi,"Jahangirpuri, Delhi - DPCC",31-03-2026 08:00:00,28.732820,77.170633,OZONE,8,107,11
India,Delhi,Delhi,"Jawaharlal Nehru Stadium, Delhi - DPCC",31-03-2026 08:00:00,28.580280,77.233829,PM10,125,241,178
India,Delhi,Delhi,"Lodhi Road, Delhi - IMD",31-03-2026 08:00:00,28.5918245,77.2273074,PM2.5,21,374,111
India,Delhi,Delhi,"Lodhi Road, Delhi - IMD",31-03-2026 08:00:00,28.5918245,77.2273074,PM10,79,275,162
India,Delhi,Delhi,"DTU, Delhi - CPCB",31-03-2026 08:00:00,28.7500499,77.1112615,OZONE,14,34,16
India,Delhi,Delhi,"Dr. Karni Singh Shooting Range, Delhi - DPCC",31-03-2026 08:00:00,28.498571,77.264840,NH3,5,7,6
India,Delhi,Delhi,"Dwarka-Sector 8, Delhi - DPCC ",31-03-2026 08:00:00,28.5710274,77.0719006,CO,36,117,63
India,Delhi,Delhi,"IGI Airport (T3), Delhi - IMD",31-03-2026 08:00:00,28.5627763,77.1180053,PM10,102,256,164
India,Delhi,Delhi,"IGI Airport (T3), Delhi - IMD",31-03-2026 08:00:00,28.5627763,77.1180053,NO2,20,43,26
India,Delhi,Delhi,"IGNOU_Maidan Garhi, Delhi - DPCC",31-03-2026 08:00:00,28.493624 ,77.201159 ,CO,118,136,130
India,Delhi,Delhi,"IHBAS, Dilshad Garden, Delhi - CPCB",31-03-2026 08:00:00,28.6811736,77.3025234,NH3,6,14,10
India,Delhi,Delhi,"IHBAS, Dilshad Garden, Delhi - CPCB",31-03-2026 08:00:00,28.6811736,77.3025234,SO2,8,34,20
India,Delhi,Delhi,"Bawana, Delhi - DPCC",31-03-2026 08:00:00,28.776200,77.051074,NH3,6,9,8
India,Delhi,Delhi,"CRRI Mathura Road, Delhi - IMD",31-03-2026 08:00:00,28.5512005,77.2735737,PM10,111,235,171
India,Delhi,Delhi,"CRRI Mathura Road, Delhi - IMD",31-03-2026 08:00:00,28.5512005,77.2735737,NO2,22,61,45
India,Delhi,Delhi,"Chandni Chowk, Delhi - IITM",31-03-2026 08:00:00,28.656756,77.227234,CO,97,128,116
India,Delhi,Delhi,"Commonwealth Sports Complex, Delhi - DPCC",31-03-2026 08:00:00,28.615828 ,77.271992 ,PM2.5,98,306,155
India,Delhi,Delhi,"Commonwealth Sports Complex, Delhi - DPCC",31-03-2026 08:00:00,28.615828 ,77.271992 ,NH3,5,9,7
India,Delhi,Delhi,"Commonwealth Sports Complex, Delhi - DPCC",31-03-2026 08:00:00,28.615828 ,77.271992 ,OZONE,2,80,4
India,Delhi,Delhi,"DTU, Delhi - CPCB",31-03-2026 08:00:00,28.7500499,77.1112615,NO2,28,83,48
India,Chhattisgarh,Raipur,"Siltara Phase-II, Raipur - CECB",31-03-2026 08:00:00,21.371751,81.664929,PM10,19,135,90
India,Chhattisgarh,Tumidih,"OP Jindal Industrial Park, Tumidih - CECB",31-03-2026 08:00:00,22.06631475,83.33820077,PM10,26,220,78
India,Delhi,Delhi,"Alipur, Delhi - DPCC",31-03-2026 08:00:00,28.815329,77.153010,PM2.5,45,323,150
India,Delhi,Delhi,"Alipur, Delhi - DPCC",31-03-2026 08:00:00,28.815329,77.153010,PM10,119,299,200
India,Delhi,Delhi,"Alipur, Delhi - DPCC",31-03-2026 08:00:00,28.815329,77.153010,OZONE,1,49,1
India,Delhi,Delhi,"Anand Vihar, Delhi - DPCC",31-03-2026 08:00:00,28.647622,77.3158090,PM2.5,47,338,198
India,Delhi,Delhi,"Ashok Vihar, Delhi - DPCC",31-03-2026 08:00:00,28.695381,77.181665,NH3,6,7,7
India,Chhattisgarh,Kunjemura,"OP Jindal School, Kunjemura - CECB",31-03-2026 08:00:00,22.126650,83.483212,NO2,16,70,40
India,Chhattisgarh,Kunjemura,"OP Jindal School, Kunjemura - CECB",31-03-2026 08:00:00,22.126650,83.483212,OZONE,2,45,4
India,Chhattisgarh,Milupara,"Govt. Higher Secondary School, Milupara - CECB",31-03-2026 08:00:00,22.1910172,83.5197009,OZONE,10,189,23
India,Chhattisgarh,Raipur,"AIIMS, Raipur - CECB",31-03-2026 08:00:00,21.258815,81.578979,PM2.5,21,55,41
India,Chhattisgarh,Raipur,"AIIMS, Raipur - CECB",31-03-2026 08:00:00,21.258815,81.578979,OZONE,5,52,7
India,Chhattisgarh,Raipur,"Krishak Nagar, Raipur - CECB",31-03-2026 08:00:00,21.237755,81.705301,PM10,41,59,49
India,Delhi,Delhi,"Major Dhyan Chand National Stadium, Delhi - DPCC",31-03-2026 08:00:00,28.611281,77.237738,PM2.5,22,301,86
India,Delhi,Delhi,"Mandir Marg, Delhi - DPCC",31-03-2026 08:00:00,28.636429,77.201067,NH3,8,9,8
India,Delhi,Delhi,"Mandir Marg, Delhi - DPCC",31-03-2026 08:00:00,28.636429,77.201067,CO,42,88,88
India,Delhi,Delhi,"Mundka, Delhi - DPCC",31-03-2026 08:00:00,28.684678,77.076574,PM10,144,450,272
India,Delhi,Delhi,"Mundka, Delhi - DPCC",31-03-2026 08:00:00,28.684678,77.076574,NH3,4,16,8
India,Delhi,Delhi,"NSIT Dwarka, Delhi - CPCB",31-03-2026 08:00:00,28.60909,77.0325413,CO,28,95,34
India,Delhi,Delhi,"NSUT Jaffarpur, Delhi - DPCC",31-03-2026 08:00:00,28.594004 ,76.909423 ,NO2,2,103,35
India,Delhi,Delhi,"Najafgarh, Delhi - DPCC",31-03-2026 08:00:00,28.570173,76.933762,PM10,52,160,123
India,Delhi,Delhi,"Najafgarh, Delhi - DPCC",31-03-2026 08:00:00,28.570173,76.933762,SO2,13,83,21
India,Delhi,Delhi,"Narela, Delhi - DPCC",31-03-2026 08:00:00,28.822836,77.101981,PM10,145,253,190
India,Delhi,Delhi,"Narela, Delhi - DPCC",31-03-2026 08:00:00,28.822836,77.101981,CO,16,84,56
India,Delhi,Delhi,"New Moti Bagh, Delhi - MHUA",31-03-2026 08:00:00,28.57834,77.18400,PM2.5,73,299,125
India,Chhattisgarh,Korba,"Rampur, Korba - CECB",31-03-2026 08:00:00,22.368195,82.746431,CO,3,45,28
India,Chhattisgarh,Korba,"Urja Nagar, Korba - CECB",31-03-2026 08:00:00,22.348441,82.549611,SO2,6,19,13
India,Chhattisgarh,Korba,"Rampur, Korba - CECB",31-03-2026 08:00:00,22.368195,82.746431,PM2.5,NA,NA,NA
India,Gujarat,Rajkot,"Mavdi, Rajkot - Nexteng Enviro ",31-03-2026 08:00:00,22.248853,70.776774,OZONE,3,10,5
India,Gujarat,Surat,"Katargam, Surat - Nexteng Enviro",31-03-2026 08:00:00,21.217779 ,72.834787 ,PM10,17,116,71
India,Gujarat,Surat,"Katargam, Surat - Nexteng Enviro",31-03-2026 08:00:00,21.217779 ,72.834787 ,SO2,3,5,4
India,Gujarat,Surat,"Science Center, Surat - SMC",31-03-2026 08:00:00,21.170046,72.795405,NO2,NA,NA,NA
India,Gujarat,Vapi,"Phase-1 GIDC, Vapi - GPCB",31-03-2026 08:00:00,20.362421,72.918013,NH3,NA,NA,NA
India,Gujarat,Vatva,"Phase-4 GIDC, Vatva - GPCB",31-03-2026 08:00:00,22.969611,72.643500,PM2.5,42,118,83
India,Gujarat,Vatva,"Phase-4 GIDC, Vatva - GPCB",31-03-2026 08:00:00,22.969611,72.643500,NO2,86,113,97
India,Gujarat,Vatva,"Phase-4 GIDC, Vatva - GPCB",31-03-2026 08:00:00,22.969611,72.643500,CO,2,51,7
India,Haryana,Ambala,"Patti Mehar, Ambala - HSPCB",31-03-2026 08:00:00,30.379589,76.778328,PM10,65,106,86
India,Delhi,Delhi,"Sri Aurobindo Marg, Delhi - DPCC",31-03-2026 08:00:00,28.531346,77.190156,NH3,6,7,6
India,Delhi,Delhi,"Talkatora Garden, Delhi - DPCC",31-03-2026 08:00:00,28.621810,77.1944633,NH3,2,5,2
India,Delhi,Delhi,"Talkatora Garden, Delhi - DPCC",31-03-2026 08:00:00,28.621810,77.1944633,SO2,58,88,75
India,Delhi,Delhi,"Vivek Vihar, Delhi - DPCC",31-03-2026 08:00:00,28.672342,77.315260,NO2,17,63,41
India,Delhi,Delhi,"Wazirpur, Delhi - DPCC",31-03-2026 08:00:00,28.699793,77.165453,NO2,40,86,61
India,Gujarat,Ahmedabad,"Chandkheda, Ahmedabad - IITM",31-03-2026 08:00:00,23.107969,72.574648,PM2.5,20,46,31
India,Gujarat,Ahmedabad,"Chandkheda, Ahmedabad - IITM",31-03-2026 08:00:00,23.107969,72.574648,NO2,6,35,15
India,Gujarat,Ahmedabad,"SVPI Airport Hansol, Ahmedabad - IITM",31-03-2026 08:00:00,23.076793,72.627874,NH3,2,6,4
India,Gujarat,Ahmedabad,"SVPI Airport Hansol, Ahmedabad - IITM",31-03-2026 08:00:00,23.076793,72.627874,OZONE,7,53,16
India,Gujarat,Ankleshwar,"GIDC, Ankleshwar - GPCB",31-03-2026 08:00:00,21.613267,73.010555,SO2,15,26,18
India,Gujarat,Gandhinagar,"GIFT City, Gandhinagar - IITM",31-03-2026 08:00:00,23.163798,72.677768,NO2,15,50,29
India,Gujarat,Gandhinagar,"IIPHG Lekawada, Gandhinagar - IITM",31-03-2026 08:00:00,23.243639,72.68994,NH3,5,9,6
India,Gujarat,Gandhinagar,"IIPHG Lekawada, Gandhinagar - IITM",31-03-2026 08:00:00,23.243639,72.68994,SO2,3,7,4
India,Gujarat,Gandhinagar,"IIPHG Lekawada, Gandhinagar - IITM",31-03-2026 08:00:00,23.243639,72.68994,OZONE,1,19,2
India,Haryana,Ambala,"Patti Mehar, Ambala - HSPCB",31-03-2026 08:00:00,30.379589,76.778328,SO2,15,31,22
India,Haryana,Ambala,"Patti Mehar, Ambala - HSPCB",31-03-2026 08:00:00,30.379589,76.778328,OZONE,16,27,22
India,Haryana,Ballabgarh,"Nathu Colony, Ballabgarh - HSPCB",31-03-2026 08:00:00,28.3419248,77.319699,SO2,1,5,3
India,Haryana,Bhiwani,"H.B. Colony, Bhiwani - HSPCB",31-03-2026 08:00:00,28.806223,76.141105,OZONE,9,19,15
India,Haryana,Charkhi Dadri,"Mini Secretariat, Charkhi Dadri - HSPCB",31-03-2026 08:00:00,28.593883,76.270653,PM2.5,120,309,203
India,Gujarat,Ahmedabad,"Gyaspur, Ahmedabad - IITM",31-03-2026 08:00:00,22.977134,72.553024,NO2,38,96,56
India,Gujarat,Ahmedabad,"Gyaspur, Ahmedabad - IITM",31-03-2026 08:00:00,22.977134,72.553024,CO,2,86,41
India,Gujarat,Ahmedabad,"Maninagar, Ahmedabad - GPCB",31-03-2026 08:00:00,23.002657,72.591912,PM2.5,28,87,58
India,Gujarat,Ahmedabad,"Raikhad, Ahmedabad - IITM",31-03-2026 08:00:00,23.020509,72.579261,SO2,3,13,6
India,Gujarat,Ahmedabad,"Rakhial, Ahmedabad - IITM",31-03-2026 08:00:00,23.016834,72.625775,CO,78,121,81
India,Delhi,Delhi,"New Moti Bagh, Delhi - MHUA",31-03-2026 08:00:00,28.57834,77.18400,CO,16,81,49
India,Delhi,Delhi,"North Campus, DU, Delhi - IMD",31-03-2026 08:00:00,28.6573814,77.1585447,CO,33,118,87
India,Delhi,Delhi,"Pusa, Delhi - DPCC",31-03-2026 08:00:00,28.639652,77.146275,NO2,34,89,62
India,Delhi,Delhi,"Pusa, Delhi - IMD",31-03-2026 08:00:00,28.636110,77.173332,NO2,43,187,115
India,Gujarat,Gandhinagar,"Sector-10, Gandhinagar - GPCB",31-03-2026 08:00:00,23.221714,72.654328,NH3,1,3,2
India,Gujarat,Mehsana,"Sadanand Nagar, Mehsana - Nexteng Enviro",31-03-2026 08:00:00,23.593150,72.372792,NH3,2,2,2
India,Gujarat,Rajkot,"Mavdi, Rajkot - Nexteng Enviro ",31-03-2026 08:00:00,22.248853,70.776774,NO2,6,25,14
India,Delhi,Delhi,"Rohini, Delhi - DPCC",31-03-2026 08:00:00,28.732528,77.119920,PM10,145,292,221
India,Delhi,Delhi,"Rohini, Delhi - DPCC",31-03-2026 08:00:00,28.732528,77.119920,SO2,15,87,32
India,Delhi,Delhi,"Sonia Vihar, Delhi - DPCC",31-03-2026 08:00:00,28.710508,77.249485,PM2.5,47,338,153
India,Delhi,Delhi,"Sonia Vihar, Delhi - DPCC",31-03-2026 08:00:00,28.710508,77.249485,SO2,32,62,45
India,Delhi,Delhi,"R K Puram, Delhi - DPCC",31-03-2026 08:00:00,28.563262,77.186937,SO2,3,45,14
India,Delhi,Delhi,"Rohini, Delhi - DPCC",31-03-2026 08:00:00,28.732528,77.119920,PM2.5,47,378,178
India,Haryana,Panchkula,"Sector-6, Panchkula - HSPCB ",31-03-2026 08:00:00,30.7057778,76.8531805555555,NO2,22,25,24
India,Haryana,Panchkula,"Sector-6, Panchkula - HSPCB ",31-03-2026 08:00:00,30.7057778,76.8531805555555,CO,3,50,45
India,Haryana,Panipat,"Sector-18, Panipat - HSPCB",31-03-2026 08:00:00,29.432304,76.972765,OZONE,30,30,30
India,Haryana,Sirsa,"F-Block, Sirsa - HSPCB",31-03-2026 08:00:00,29.536400,75.015800,PM2.5,89,220,130
India,Haryana,Sirsa,"F-Block, Sirsa - HSPCB",31-03-2026 08:00:00,29.536400,75.015800,PM10,135,224,164
India,Haryana,Sirsa,"F-Block, Sirsa - HSPCB",31-03-2026 08:00:00,29.536400,75.015800,OZONE,15,30,23
India,Haryana,Sonipat,"Murthal, Sonipat - HSPCB",31-03-2026 08:00:00,29.027200,77.062100,CO,4,36,19
India,Haryana,Yamuna Nagar,"Gobind Pura, Yamuna Nagar - HSPCB",31-03-2026 08:00:00,30.1480566,77.2893471,PM10,85,133,110
India,Karnataka,Bengaluru,"Peenya, Bengaluru - CPCB",31-03-2026 08:00:00,13.0270199,77.494094,NH3,3,5,4
India,Karnataka,Bengaluru,"Sanegurava Halli, Bengaluru - KSPCB",31-03-2026 08:00:00,12.990328,77.5431385,NO2,17,19,18
India,Karnataka,Bengaluru,"Shivapura_Peenya, Bengaluru - KSPCB",31-03-2026 08:00:00,13.0246342,77.5080115,CO,37,43,39
India,Karnataka,Chamarajanagar,"Urban, Chamarajanagar - KSPCB",31-03-2026 08:00:00,11.55358,76.55521,PM10,35,54,43
India,Karnataka,Chamarajanagar,"Urban, Chamarajanagar - KSPCB",31-03-2026 08:00:00,11.55358,76.55521,OZONE,13,38,19
India,Karnataka,Chikkaballapur,"Chikkaballapur Rural, Chikkaballapur - KSPCB",31-03-2026 08:00:00,13.428828,77.731418,PM10,30,82,54
India,Haryana,Gurugram,"NISE Gwal Pahari, Gurugram - IMD",31-03-2026 08:00:00,28.422681,77.148944,NO2,3,93,43
India,Haryana,Gurugram,"Teri Gram, Gurugram - HSPCB",31-03-2026 08:00:00,28.4275,77.1465,CO,29,36,31
India,Haryana,Gurugram,"Vikas Sadan, Gurugram - HSPCB",31-03-2026 08:00:00,28.4501238,77.0263051,PM10,144,296,194
India,Haryana,Gurugram,"Vikas Sadan, Gurugram - HSPCB",31-03-2026 08:00:00,28.4501238,77.0263051,NO2,9,45,26
India,Haryana,Hisar,"Urban Estate-II, Hisar - HSPCB",31-03-2026 08:00:00,29.140560,75.744941,PM10,75,156,113
India,Haryana,Jind,"Police Lines, Jind - HSPCB",31-03-2026 08:00:00,29.307814,76.337619,PM10,40,124,79
India,Haryana,Manesar,"Sector-2 IMT, Manesar - HSPCB",31-03-2026 08:00:00,28.360699,76.936090,PM2.5,124,286,197
India,Haryana,Manesar,"Sector-2 IMT, Manesar - HSPCB",31-03-2026 08:00:00,28.360699,76.936090,NH3,8,10,9
India,Haryana,Narnaul,"Shastri Nagar, Narnaul - HSPCB",31-03-2026 08:00:00,28.060249,76.113115,NH3,5,6,5
India,Haryana,Narnaul,"Shastri Nagar, Narnaul - HSPCB",31-03-2026 08:00:00,28.060249,76.113115,CO,24,40,30
India,Haryana,Palwal,"Shyam Nagar, Palwal - HSPCB",31-03-2026 08:00:00,28.1485564,77.3320667,CO,12,148,27
India,Haryana,Panchgaon,"Amity University, Panchgaon - IITM",31-03-2026 08:00:00,28.3153,76.9143,NO2,6,34,14
India,Haryana,Jind,"Police Lines, Jind - HSPCB",31-03-2026 08:00:00,29.307814,76.337619,OZONE,6,14,11
India,Haryana,Kaithal,"Rishi Nagar, Kaithal - HSPCB",31-03-2026 08:00:00,29.8006,76.4155,NH3,1,7,5
India,Haryana,Karnal,"Sector-12, Karnal - HSPCB",31-03-2026 08:00:00,29.695300,77.002700,PM10,36,119,73
India,Haryana,Karnal,"Sector-12, Karnal - HSPCB",31-03-2026 08:00:00,29.695300,77.002700,NH3,6,7,6
India,Haryana,Kurukshetra,"Sector-7, Kurukshetra - HSPCB",31-03-2026 08:00:00,29.966942,76.875879,PM2.5,41,86,71
India,Haryana,Kurukshetra,"Sector-7, Kurukshetra - HSPCB",31-03-2026 08:00:00,29.966942,76.875879,NO2,4,4,4
India,Haryana,Faridabad,"New Industrial Town, Faridabad - HSPCB",31-03-2026 08:00:00,28.39072,77.30059,CO,11,12,12
India,Haryana,Faridabad,"Sector 11, Faridabad - HSPCB",31-03-2026 08:00:00,28.376058,77.315741,PM2.5,243,406,317
India,Haryana,Faridabad,"Sector 11, Faridabad - HSPCB",31-03-2026 08:00:00,28.376058,77.315741,SO2,3,58,5
India,Haryana,Faridabad,"Sector 30, Faridabad - HSPCB",31-03-2026 08:00:00,28.4417,77.3217,PM10,116,120,118
India,Haryana,Fatehabad,"Huda Sector, Fatehabad - HSPCB",31-03-2026 08:00:00,29.503664,75.467934,NO2,NA,NA,NA
India,Haryana,Fatehabad,"Huda Sector, Fatehabad - HSPCB",31-03-2026 08:00:00,29.503664,75.467934,SO2,NA,NA,NA
India,Haryana,Yamuna Nagar,"Gobind Pura, Yamuna Nagar - HSPCB",31-03-2026 08:00:00,30.1480566,77.2893471,NH3,1,6,3
India,Jammu_and_Kashmir,Srinagar,"Rajbagh, Srinagar - JKPCC",31-03-2026 08:00:00,34.066206,74.819820,OZONE,1,2,2
India,Jharkhand,Jorapokhar,"Tata Stadium, Jorapokhar - JSPCB",31-03-2026 08:00:00,23.707909,86.414670,PM2.5,38,171,65
India,Jharkhand,Jorapokhar,"Tata Stadium, Jorapokhar - JSPCB",31-03-2026 08:00:00,23.707909,86.414670,OZONE,1,3,2
India,Karnataka,Bagalkot,"Vidayagiri, Bagalkot - KSPCB",31-03-2026 08:00:00,16.172806,75.659694,SO2,3,7,7
India,Karnataka,Bagalkot,"Vidayagiri, Bagalkot - KSPCB",31-03-2026 08:00:00,16.172806,75.659694,CO,1,64,20
India,Karnataka,Bengaluru,"BTM Layout, Bengaluru - CPCB",31-03-2026 08:00:00,12.9135218,77.5950804,CO,NA,NA,NA
India,Karnataka,Bengaluru,"Hebbal, Bengaluru - KSPCB",31-03-2026 08:00:00,13.029152,77.585901,NO2,35,121,73
India,Karnataka,Bengaluru,"Jayanagar 5th Block, Bengaluru - KSPCB",31-03-2026 08:00:00,12.920984,77.584908,NH3,3,3,3
India,Madhya Pradesh,Indore,"Maguda Nagar, Indore - IMC",31-03-2026 08:00:00,22.7524,75.8872,NO2,4,16,9
India,Madhya Pradesh,Indore,"Maguda Nagar, Indore - IMC",31-03-2026 08:00:00,22.7524,75.8872,SO2,24,33,26
India,Madhya Pradesh,Indore,"Regional Park, Indore - IMC",31-03-2026 08:00:00,22.6780,75.8559,PM10,25,118,51
India,Madhya Pradesh,Indore,"Regional Park, Indore - IMC",31-03-2026 08:00:00,22.6780,75.8559,CO,14,37,20
