country,state,city,station,last_update,latitude,longitude,pollutant_id,min_value,max_value,avg_value
India,Assam,Sivasagar,"Girls College, Sivasagar - PCBA",29-12-2025 08:00:00,26.987634,94.636574,CO,24,105,45
India,Bihar,Araria,"Kharahiya Basti, Araria - BSPCB",29-12-2025 08:00:00,26.146529,87.454184,PM2.5,10,247,123
India,Bihar,Araria,"Kharahiya Basti, Araria - BSPCB",29-12-2025 08:00:00,26.146529,87.454184,NH3,4,5,4
India,Bihar,Araria,"Kharahiya Basti, Araria - BSPCB",29-12-2025 08:00:00,26.146529,87.454184,OZONE,10,10,10
India,Bihar,Arrah,"New DM Office, Arrah - BSPCB",29-12-2025 08:00:00,25.5626095,84.663264,NO2,4,8,7
India,Bihar,Arrah,"New DM Office, Arrah - BSPCB",29-12-2025 08:00:00,25.5626095,84.663264,NH3,1,1,1
India,Bihar,Arrah,"New DM Office, Arrah - BSPCB",29-12-2025 08:00:00,25.5626095,84.663264,CO,33,64,55
India,Bihar,Aurangabad,"Gurdeo Nagar, Aurangabad - BSPCB",29-12-2025 08:00:00,24.75746,84.366208,PM2.5,47,85,65
India,Bihar,Aurangabad,"Gurdeo Nagar, Aurangabad - BSPCB",29-12-2025 08:00:00,24.75746,84.366208,SO2,3,13,8
India,Bihar,Begusarai,"Lohiyanagar, Begusarai - BSPCB",29-12-2025 08:00:00,25.42742023,86.13886079,PM10,134,236,173
India,Bihar,Hajipur,"Industrial Area, Hajipur - BSPCB",29-12-2025 08:00:00,25.697189,85.245900,PM2.5,86,205,139
India,Bihar,Hajipur,"Industrial Area, Hajipur - BSPCB",29-12-2025 08:00:00,25.697189,85.245900,PM10,66,111,90
India,Bihar,Hajipur,"Industrial Area, Hajipur - BSPCB",29-12-2025 08:00:00,25.697189,85.245900,NH3,4,5,5
India,Bihar,Katihar,"Mirchaibari, Katihar - BSPCB",29-12-2025 08:00:00,25.560083,87.553265,PM10,28,72,56
India,Bihar,Katihar,"Mirchaibari, Katihar - BSPCB",29-12-2025 08:00:00,25.560083,87.553265,NH3,1,1,1
India,Bihar,Katihar,"Mirchaibari, Katihar - BSPCB",29-12-2025 08:00:00,25.560083,87.553265,SO2,15,24,20
India,Bihar,Kishanganj,"SDM Office_Khagra, Kishanganj - BSPCB",29-12-2025 08:00:00,26.0881305,87.93840336,PM10,48,359,118
India,Bihar,Kishanganj,"SDM Office_Khagra, Kishanganj - BSPCB",29-12-2025 08:00:00,26.0881305,87.93840336,NO2,8,9,8
India,Bihar,Kishanganj,"SDM Office_Khagra, Kishanganj - BSPCB",29-12-2025 08:00:00,26.0881305,87.93840336,CO,14,16,15
India,Bihar,Bhagalpur,"Mayaganj, Bhagalpur - BSPCB",29-12-2025 08:00:00,25.265194,87.012947,OZONE,9,10,9
India,Bihar,Bihar Sharif,"D M Colony, Bihar Sharif - BSPCB",29-12-2025 08:00:00,25.204762,85.514960,PM10,NA,NA,NA
India,Bihar,Buxar,"Charitra Van, Buxar - BSPCB",29-12-2025 08:00:00,25.567520,83.966379,PM2.5,63,87,72
India,Bihar,Buxar,"Charitra Van, Buxar - BSPCB",29-12-2025 08:00:00,25.567520,83.966379,CO,19,28,24
India,Bihar,Gaya,"Kareemganj, Gaya - BSPCB",29-12-2025 08:00:00,24.792403,84.992416,PM2.5,50,85,65
India,Bihar,Gaya,"SFTI Kusdihra, Gaya - BSPCB",29-12-2025 08:00:00,24.762518,84.982348,NH3,3,5,4
India,Bihar,Begusarai,"Lohiyanagar, Begusarai - BSPCB",29-12-2025 08:00:00,25.42742023,86.13886079,CO,42,72,63
India,Bihar,Bettiah,"Kamalnath Nagar, Bettiah - BSPCB",29-12-2025 08:00:00,26.80365,84.51954,OZONE,22,24,23
India,Bihar,Bhagalpur,"DM Office_Kachari Chowk, Bhagalpur - BSPCB",29-12-2025 08:00:00,25.251013,86.989001,PM2.5,33,130,73
India,Bihar,Bhagalpur,"DM Office_Kachari Chowk, Bhagalpur - BSPCB",29-12-2025 08:00:00,25.251013,86.989001,OZONE,8,26,16
India,Bihar,Bhagalpur,"Mayaganj, Bhagalpur - BSPCB",29-12-2025 08:00:00,25.265194,87.012947,NH3,10,12,11
India,Assam,Byrnihat,"Central Academy for SFS, Byrnihat - PCBA",29-12-2025 08:00:00,26.071318,91.87488,NO2,5,8,7
India,Assam,Byrnihat,"Central Academy for SFS, Byrnihat - PCBA",29-12-2025 08:00:00,26.071318,91.87488,NH3,4,4,4
India,Assam,Byrnihat,"Central Academy for SFS, Byrnihat - PCBA",29-12-2025 08:00:00,26.071318,91.87488,SO2,25,32,32
India,Assam,Guwahati,"Pan Bazaar, Guwahati - PCBA",29-12-2025 08:00:00,26.187500,91.744194,PM2.5,1,1,1
India,Assam,Guwahati,"Pan Bazaar, Guwahati - PCBA",29-12-2025 08:00:00,26.187500,91.744194,CO,30,53,32
India,Assam,Guwahati,"Pan Bazaar, Guwahati - PCBA",29-12-2025 08:00:00,26.187500,91.744194,OZONE,17,18,17
India,Assam,Nagaon,"Christianpatty, Nagaon - PCBA",29-12-2025 08:00:00,26.349082,92.68449,NH3,4,4,4
India,Assam,Nalbari,"Bata Chowk, Nalbari - PCBA",29-12-2025 08:00:00,26.446912,91.439057,PM2.5,93,189,104
India,Assam,Silchar,"Tarapur, Silchar - PCBA",29-12-2025 08:00:00,24.82827,92.79525,OZONE,NA,NA,NA
India,Assam,Sivasagar,"Girls College, Sivasagar - PCBA",29-12-2025 08:00:00,26.987634,94.636574,PM2.5,36,95,56
India,Andhra_Pradesh,Kadapa,"Yerramukkapalli, Kadapa - APPCB",29-12-2025 08:00:00,14.465052,78.824187,PM2.5,44,123,63
India,Andhra_Pradesh,Kadapa,"Yerramukkapalli, Kadapa - APPCB",29-12-2025 08:00:00,14.465052,78.824187,NH3,3,4,4
India,Andhra_Pradesh,Rajamahendravaram,"Anand Kala Kshetram, Rajamahendravaram - APPCB",29-12-2025 08:00:00,16.9872867,81.7363176,OZONE,10,26,13
India,Andhra_Pradesh,Tirupati,"Vaikuntapuram, Tirupati - APPCB",29-12-2025 08:00:00,13.615387,79.409230,PM2.5,19,336,130
India,Andhra_Pradesh,Vijayawada,"Rajiv Gandhi Park, Vijayawada - APPCB",29-12-2025 08:00:00,16.509717,80.612222,PM10,64,106,88
India,Andhra_Pradesh,Vijayawada,"Rajiv Nagar, Vijayawada - APPCB",29-12-2025 08:00:00,16.554731,80.649110,NH3,NA,NA,NA
India,Arunachal_Pradesh,Naharlagun,"Naharlagun, Naharlagun - APSPCB",29-12-2025 08:00:00,27.103358,93.679645,PM10,37,272,109
India,Arunachal_Pradesh,Naharlagun,"Naharlagun, Naharlagun - APSPCB",29-12-2025 08:00:00,27.103358,93.679645,SO2,9,10,9
India,Andhra_Pradesh,Amaravati,"Secretariat, Amaravati - APPCB",29-12-2025 08:00:00,16.5150833,80.5181667,PM10,102,495,183
India,Bihar,Purnia,"Mariam Nagar, Purnia - BSPCB",29-12-2025 08:00:00,25.366336,87.117468,PM2.5,53,306,172
India,Bihar,Purnia,"Mariam Nagar, Purnia - BSPCB",29-12-2025 08:00:00,25.366336,87.117468,PM10,75,143,106
India,Bihar,Purnia,"Mariam Nagar, Purnia - BSPCB",29-12-2025 08:00:00,25.366336,87.117468,NO2,5,6,6
India,Bihar,Rajgir,"Dangi Tola, Rajgir - BSPCB",29-12-2025 08:00:00,25.03280,85.41948,SO2,8,25,21
India,Bihar,Saharsa,"Police Line, Saharsa - BSPCB",29-12-2025 08:00:00,25.892357,86.590325,PM2.5,15,72,44
India,Bihar,Saharsa,"Police Line, Saharsa - BSPCB",29-12-2025 08:00:00,25.892357,86.590325,NO2,4,8,7
India,Bihar,Saharsa,"Police Line, Saharsa - BSPCB",29-12-2025 08:00:00,25.892357,86.590325,NH3,4,4,4
India,Bihar,Saharsa,"Police Line, Saharsa - BSPCB",29-12-2025 08:00:00,25.892357,86.590325,CO,34,47,44
India,Bihar,Samastipur,"DM Office_Kasipur, Samastipur - BSPCB",29-12-2025 08:00:00,25.859655,85.77944,PM10,24,80,60
India,Bihar,Manguraha,"Forest Rest House, Manguraha - BSPCB",29-12-2025 08:00:00,27.308328,84.531742,CO,32,34,32
India,Bihar,Motihari,"Gandak Colony, Motihari - BSPCB",29-12-2025 08:00:00,26.63086,84.90051,PM10,23,83,59
India,Bihar,Motihari,"Gandak Colony, Motihari - BSPCB",29-12-2025 08:00:00,26.63086,84.90051,NO2,3,4,4
India,Bihar,Motihari,"Gandak Colony, Motihari - BSPCB",29-12-2025 08:00:00,26.63086,84.90051,CO,14,19,16
India,Bihar,Munger,"Town Hall, Munger - BSPCB",29-12-2025 08:00:00,25.376776,86.471523,PM10,37,99,69
India,Bihar,Munger,"Town Hall, Munger - BSPCB",29-12-2025 08:00:00,25.376776,86.471523,OZONE,14,38,16
India,Bihar,Muzaffarpur,"Buddha Colony, Muzaffarpur - BSPCB",29-12-2025 08:00:00,26.11442,85.39813,SO2,1,5,3
India,Bihar,Muzaffarpur,"Buddha Colony, Muzaffarpur - BSPCB",29-12-2025 08:00:00,26.11442,85.39813,CO,34,52,37
India,Chhattisgarh,Korba,"Urja Nagar, Korba - CECB",29-12-2025 08:00:00,22.348441,82.549611,OZONE,28,35,29
India,Chhattisgarh,Kunjemura,"OP Jindal School, Kunjemura - CECB",29-12-2025 08:00:00,22.126650,83.483212,NH3,2,2,2
India,Chhattisgarh,Kunjemura,"OP Jindal School, Kunjemura - CECB",29-12-2025 08:00:00,22.126650,83.483212,CO,24,56,53
India,Chhattisgarh,Raipur,"AIIMS, Raipur - CECB",29-12-2025 08:00:00,21.258815,81.578979,NO2,67,77,72
India,Chhattisgarh,Raipur,"AIIMS, Raipur - CECB",29-12-2025 08:00:00,21.258815,81.578979,NH3,4,4,4
India,Chhattisgarh,Raipur,"Bhatagaon New ISBT, Raipur - CECB",29-12-2025 08:00:00,21.219665,81.630094,PM2.5,NA,NA,NA
India,Chhattisgarh,Bhilai,"Civic Center, Bhilai - Bhilai Steel Plant",29-12-2025 08:00:00,21.185571,81.343175,CO,28,31,30
India,Chhattisgarh,Bhilai,"Hathkhoj, Bhilai - CECB",29-12-2025 08:00:00,21.224231,81.408350,PM2.5,12,150,44
India,Chhattisgarh,Bhilai,"Hathkhoj, Bhilai - CECB",29-12-2025 08:00:00,21.224231,81.408350,OZONE,2,10,2
India,Chhattisgarh,Korba,"Rampur, Korba - CECB",29-12-2025 08:00:00,22.368195,82.746431,PM2.5,62,95,75
India,Chhattisgarh,Korba,"Rampur, Korba - CECB",29-12-2025 08:00:00,22.368195,82.746431,PM10,69,104,83
India,Chhattisgarh,Korba,"Urja Nagar, Korba - CECB",29-12-2025 08:00:00,22.348441,82.549611,PM2.5,10,90,47
India,Chhattisgarh,Raipur,"Krishak Nagar, Raipur - CECB",29-12-2025 08:00:00,21.237755,81.705301,CO,26,54,49
India,Chhattisgarh,Raipur,"Siltara Phase-II, Raipur - CECB",29-12-2025 08:00:00,21.371751,81.664929,PM10,77,166,109
India,Chhattisgarh,Raipur,"Siltara Phase-II, Raipur - CECB",29-12-2025 08:00:00,21.371751,81.664929,OZONE,3,4,3
India,Chhattisgarh,Tumidih,"OP Jindal Industrial Park, Tumidih - CECB",29-12-2025 08:00:00,22.06631475,83.33820077,SO2,5,10,7
India,Chhattisgarh,Tumidih,"OP Jindal Industrial Park, Tumidih - CECB",29-12-2025 08:00:00,22.06631475,83.33820077,OZONE,3,130,7
India,Bihar,Muzaffarpur,"Muzaffarpur Collectorate, Muzaffarpur - BSPCB",29-12-2025 08:00:00,26.1209,85.3647,CO,9,26,9
India,Bihar,Patna,"DRM Office Danapur, Patna - BSPCB",29-12-2025 08:00:00,25.586562,85.043586,NO2,29,66,43
India,Bihar,Patna,"Govt. High School Shikarpur, Patna - BSPCB",29-12-2025 08:00:00,25.592539,85.227158,PM10,86,115,102
India,Bihar,Patna,"Govt. High School Shikarpur, Patna - BSPCB",29-12-2025 08:00:00,25.592539,85.227158,SO2,8,15,12
India,Bihar,Patna,"Muradpur, Patna - BSPCB",29-12-2025 08:00:00,25.619651,85.147382,CO,34,81,54
India,Bihar,Patna,"Rajbansi Nagar, Patna - BSPCB",29-12-2025 08:00:00,25.599486,85.113666,PM10,40,85,67
India,Bihar,Patna,"Rajbansi Nagar, Patna - BSPCB",29-12-2025 08:00:00,25.599486,85.113666,NO2,1,47,22
India,Bihar,Patna,"Rajbansi Nagar, Patna - BSPCB",29-12-2025 08:00:00,25.599486,85.113666,NH3,4,6,5
India,Bihar,Patna,"Samanpura, Patna - BSPCB",29-12-2025 08:00:00,25.596727,85.085624,PM10,60,83,67
India,Chandigarh,Chandigarh,"Sector-53, Chandigarh - CPCC",29-12-2025 08:00:00,30.719859,76.738637,PM10,62,153,115
India,Chandigarh,Chandigarh,"Sector-53, Chandigarh - CPCC",29-12-2025 08:00:00,30.719859,76.738637,SO2,5,14,11
India,Chandigarh,Chandigarh,"Sector-53, Chandigarh - CPCC",29-12-2025 08:00:00,30.719859,76.738637,CO,32,122,72
India,Chhattisgarh,Bhilai,"32Bungalows, Bhilai - CECB",29-12-2025 08:00:00,21.194815,81.314770,SO2,6,52,13
India,Chandigarh,Chandigarh,"Sector 22, Chandigarh - CPCC",29-12-2025 08:00:00,30.735567,76.775714,SO2,4,14,8
India,Delhi,Delhi,"Jahangirpuri, Delhi - DPCC",29-12-2025 08:00:00,28.732820,77.170633,NO2,94,128,113
India,Delhi,Delhi,"Jahangirpuri, Delhi - DPCC",29-12-2025 08:00:00,28.732820,77.170633,NH3,1,4,2
India,Delhi,Delhi,"Jawaharlal Nehru Stadium, Delhi - DPCC",29-12-2025 08:00:00,28.580280,77.233829,PM10,179,500,353
India,Delhi,Delhi,"Jawaharlal Nehru Stadium, Delhi - DPCC",29-12-2025 08:00:00,28.580280,77.233829,SO2,2,27,11
India,Delhi,Delhi,"Lodhi Road, Delhi - IMD",29-12-2025 08:00:00,28.5918245,77.2273074,PM10,150,432,278
India,Delhi,Delhi,"Lodhi Road, Delhi - IMD",29-12-2025 08:00:00,28.5918245,77.2273074,NO2,3,51,22
India,Delhi,Delhi,"Lodhi Road, Delhi - IMD",29-12-2025 08:00:00,28.5918245,77.2273074,CO,27,94,74
India,Delhi,Delhi,"Major Dhyan Chand National Stadium, Delhi - DPCC",29-12-2025 08:00:00,28.611281,77.237738,NO2,46,119,73
India,Delhi,Delhi,"Najafgarh, Delhi - DPCC",29-12-2025 08:00:00,28.570173,76.933762,NO2,86,141,111
India,Delhi,Delhi,"Narela, Delhi - DPCC",29-12-2025 08:00:00,28.822836,77.101981,PM2.5,331,500,394
India,Delhi,Delhi,"Narela, Delhi - DPCC",29-12-2025 08:00:00,28.822836,77.101981,NO2,18,56,35
India,Delhi,Delhi,"Nehru Nagar, Delhi - DPCC",29-12-2025 08:00:00,28.567890,77.250515,NH3,6,10,8
India,Delhi,Delhi,"Nehru Nagar, Delhi - DPCC",29-12-2025 08:00:00,28.567890,77.250515,CO,92,136,116
India,Delhi,Delhi,"North Campus, DU, Delhi - IMD",29-12-2025 08:00:00,28.6573814,77.1585447,PM2.5,321,500,405
India,Delhi,Delhi,"Alipur, Delhi - DPCC",29-12-2025 08:00:00,28.815329,77.153010,CO,65,105,100
India,Delhi,Delhi,"Anand Vihar, Delhi - DPCC",29-12-2025 08:00:00,28.647622,77.3158090,PM2.5,389,500,455
India,Delhi,Delhi,"Ashok Vihar, Delhi - DPCC",29-12-2025 08:00:00,28.695381,77.181665,PM10,197,482,384
India,Delhi,Delhi,"Ashok Vihar, Delhi - DPCC",29-12-2025 08:00:00,28.695381,77.181665,SO2,4,20,10
India,Delhi,Delhi,"Aya Nagar, Delhi - IMD",29-12-2025 08:00:00,28.4706914,77.1099364,PM2.5,173,500,316
India,Delhi,Delhi,"Aya Nagar, Delhi - IMD",29-12-2025 08:00:00,28.4706914,77.1099364,NO2,20,85,40
India,Delhi,Delhi,"IGI Airport (T3), Delhi - IMD",29-12-2025 08:00:00,28.5627763,77.1180053,PM10,131,500,264
India,Delhi,Delhi,"IGI Airport (T3), Delhi - IMD",29-12-2025 08:00:00,28.5627763,77.1180053,CO,34,115,96
India,Delhi,Delhi,"IHBAS, Dilshad Garden, Delhi - CPCB",29-12-2025 08:00:00,28.6811736,77.3025234,PM10,270,414,320
India,Delhi,Delhi,"ITO, Delhi - CPCB",29-12-2025 08:00:00,28.628624,77.241060,NH3,3,6,4
India,Delhi,Delhi,"ITO, Delhi - CPCB",29-12-2025 08:00:00,28.628624,77.241060,SO2,9,35,21
India,Delhi,Delhi,"Dr. Karni Singh Shooting Range, Delhi - DPCC",29-12-2025 08:00:00,28.498571,77.264840,PM10,170,500,342
India,Delhi,Delhi,"Dr. Karni Singh Shooting Range, Delhi - DPCC",29-12-2025 08:00:00,28.498571,77.264840,SO2,6,20,10
India,Delhi,Delhi,"Dr. Karni Singh Shooting Range, Delhi - DPCC",29-12-2025 08:00:00,28.498571,77.264840,OZONE,18,42,18
India,Delhi,Delhi,"Dwarka-Sector 8, Delhi - DPCC ",29-12-2025 08:00:00,28.5710274,77.0719006,PM2.5,315,500,400
India,Delhi,Delhi,"Dwarka-Sector 8, Delhi - DPCC ",29-12-2025 08:00:00,28.5710274,77.0719006,CO,55,137,110
India,Delhi,Delhi,"Major Dhyan Chand National Stadium, Delhi - DPCC",29-12-2025 08:00:00,28.611281,77.237738,CO,101,140,121
India,Delhi,Delhi,"Mandir Marg, Delhi - DPCC",29-12-2025 08:00:00,28.636429,77.201067,PM2.5,233,500,383
India,Delhi,Delhi,"Mandir Marg, Delhi - DPCC",29-12-2025 08:00:00,28.636429,77.201067,CO,3,133,68
India,Delhi,Delhi,"NSIT Dwarka, Delhi - CPCB",29-12-2025 08:00:00,28.60909,77.0325413,PM2.5,197,322,248
India,Delhi,Delhi,"Burari Crossing, Delhi - IMD",29-12-2025 08:00:00,28.7256504,77.2011573,CO,50,119,112
India,Delhi,Delhi,"CRRI Mathura Road, Delhi - IMD",29-12-2025 08:00:00,28.5512005,77.2735737,CO,45,109,98
India,Delhi,Delhi,"CRRI Mathura Road, Delhi - IMD",29-12-2025 08:00:00,28.5512005,77.2735737,OZONE,8,79,10
India,Delhi,Delhi,"Chandni Chowk, Delhi - IITM",29-12-2025 08:00:00,28.656756,77.227234,PM10,194,500,379
India,Delhi,Delhi,"Okhla Phase-2, Delhi - DPCC",29-12-2025 08:00:00,28.530785,77.271255,OZONE,4,299,9
India,Delhi,Delhi,"Patparganj, Delhi - DPCC",29-12-2025 08:00:00,28.623763,77.287209,SO2,7,13,10
India,Delhi,Delhi,"Punjabi Bagh, Delhi - DPCC",29-12-2025 08:00:00,28.674045,77.131023,SO2,3,13,8
India,Delhi,Delhi,"Chandni Chowk, Delhi - IITM",29-12-2025 08:00:00,28.656756,77.227234,CO,145,172,151
India,Gujarat,Vatva,"Phase-4 GIDC, Vatva - GPCB",29-12-2025 08:00:00,22.969611,72.643500,SO2,46,51,48
India,Gujarat,Vatva,"Phase-4 GIDC, Vatva - GPCB",29-12-2025 08:00:00,22.969611,72.643500,OZONE,19,40,21
India,Haryana,Ambala,"Patti Mehar, Ambala - HSPCB",29-12-2025 08:00:00,30.379589,76.778328,PM2.5,69,309,151
India,Haryana,Ambala,"Patti Mehar, Ambala - HSPCB",29-12-2025 08:00:00,30.379589,76.778328,SO2,31,32,31
India,Haryana,Ballabgarh,"Nathu Colony, Ballabgarh - HSPCB",29-12-2025 08:00:00,28.3419248,77.319699,NH3,3,3,3
India,Haryana,Ballabgarh,"Nathu Colony, Ballabgarh - HSPCB",29-12-2025 08:00:00,28.3419248,77.319699,SO2,1,7,4
India,Haryana,Bhiwani,"H.B. Colony, Bhiwani - HSPCB",29-12-2025 08:00:00,28.806223,76.141105,NH3,1,9,8
India,Haryana,Charkhi Dadri,"Mini Secretariat, Charkhi Dadri - HSPCB",29-12-2025 08:00:00,28.593883,76.270653,NO2,9,23,15
India,Haryana,Charkhi Dadri,"Mini Secretariat, Charkhi Dadri - HSPCB",29-12-2025 08:00:00,28.593883,76.270653,NH3,5,8,6
India,Haryana,Dharuhera,"Municipal Corporation Office, Dharuhera -  HSPCB",29-12-2025 08:00:00,28.206800,76.799700,CO,54,100,95
India,Haryana,Faridabad,"New Industrial Town, Faridabad - HSPCB",29-12-2025 08:00:00,28.39072,77.30059,PM2.5,206,220,214
India,Haryana,Faridabad,"New Industrial Town, Faridabad - HSPCB",29-12-2025 08:00:00,28.39072,77.30059,NO2,24,26,25
India,Haryana,Faridabad,"Sector 11, Faridabad - HSPCB",29-12-2025 08:00:00,28.376058,77.315741,NO2,30,32,31
India,Gujarat,Gandhinagar,"Sector-10, Gandhinagar - GPCB",29-12-2025 08:00:00,23.221714,72.654328,PM10,53,106,79
India,Gujarat,Surat,"Science Center, Surat - SMC",29-12-2025 08:00:00,21.170046,72.795405,PM10,NA,NA,NA
India,Gujarat,Surat,"Science Center, Surat - SMC",29-12-2025 08:00:00,21.170046,72.795405,NO2,NA,NA,NA
India,Gujarat,Surat,"Science Center, Surat - SMC",29-12-2025 08:00:00,21.170046,72.795405,CO,NA,NA,NA
India,Gujarat,Vapi,"Phase-1 GIDC, Vapi - GPCB",29-12-2025 08:00:00,20.362421,72.918013,PM10,42,137,86
India,Gujarat,Vatva,"Phase-4 GIDC, Vatva - GPCB",29-12-2025 08:00:00,22.969611,72.643500,PM2.5,86,336,164
India,Gujarat,Vatva,"Phase-4 GIDC, Vatva - GPCB",29-12-2025 08:00:00,22.969611,72.643500,PM10,87,336,129
India,Delhi,Delhi,"Sri Aurobindo Marg, Delhi - DPCC",29-12-2025 08:00:00,28.531346,77.190156,PM2.5,302,500,378
India,Delhi,Delhi,"Vivek Vihar, Delhi - DPCC",29-12-2025 08:00:00,28.672342,77.315260,CO,1,189,76
India,Delhi,Delhi,"Wazirpur, Delhi - DPCC",29-12-2025 08:00:00,28.699793,77.165453,PM10,227,500,399
India,Delhi,Delhi,"Wazirpur, Delhi - DPCC",29-12-2025 08:00:00,28.699793,77.165453,NO2,36,274,78
India,Delhi,Delhi,"Wazirpur, Delhi - DPCC",29-12-2025 08:00:00,28.699793,77.165453,NH3,9,13,11
India,Delhi,Delhi,"Wazirpur, Delhi - DPCC",29-12-2025 08:00:00,28.699793,77.165453,SO2,3,8,5
India,Delhi,Delhi,"Pusa, Delhi - DPCC",29-12-2025 08:00:00,28.639652,77.146275,CO,47,102,87
India,Delhi,Delhi,"Pusa, Delhi - IMD",29-12-2025 08:00:00,28.636110,77.173332,PM2.5,301,480,373
India,Delhi,Delhi,"Pusa, Delhi - IMD",29-12-2025 08:00:00,28.636110,77.173332,PM10,158,436,285
India,Delhi,Delhi,"Pusa, Delhi - IMD",29-12-2025 08:00:00,28.636110,77.173332,OZONE,11,32,12
India,Delhi,Delhi,"R K Puram, Delhi - DPCC",29-12-2025 08:00:00,28.563262,77.186937,NO2,NA,NA,NA
India,Delhi,Delhi,"R K Puram, Delhi - DPCC",29-12-2025 08:00:00,28.563262,77.186937,NH3,NA,NA,NA
India,Gujarat,Ahmedabad,"SAC ISRO Satellite, Ahmedabad - IITM",29-12-2025 08:00:00,23.023389,72.515201,PM10,75,107,90
India,Gujarat,Gandhinagar,"GIFT City, Gandhinagar - IITM",29-12-2025 08:00:00,23.163798,72.677768,PM2.5,14,44,21
India,Gujarat,Gandhinagar,"GIFT City, Gandhinagar - IITM",29-12-2025 08:00:00,23.163798,72.677768,SO2,4,10,8
India,Gujarat,Ahmedabad,"Raikhad, Ahmedabad - IITM",29-12-2025 08:00:00,23.020509,72.579261,SO2,12,26,18
India,Gujarat,Ahmedabad,"SAC ISRO Bopal, Ahmedabad - IITM",29-12-2025 08:00:00,23.041137,72.456691,NH3,11,17,13
India,Gujarat,Ahmedabad,"SAC ISRO Satellite, Ahmedabad - IITM",29-12-2025 08:00:00,23.023389,72.515201,PM2.5,63,92,76
India,Delhi,Delhi,"Shadipur, Delhi - CPCB",29-12-2025 08:00:00,28.6514781,77.1473105,SO2,9,26,19
India,Delhi,Delhi,"Sonia Vihar, Delhi - DPCC",29-12-2025 08:00:00,28.710508,77.249485,NH3,8,14,10
India,Haryana,Faridabad,"Sector 30, Faridabad - HSPCB",29-12-2025 08:00:00,28.4417,77.3217,NH3,10,12,11
India,Haryana,Faridabad,"Sector 30, Faridabad - HSPCB",29-12-2025 08:00:00,28.4417,77.3217,SO2,6,6,6
India,Jammu_and_Kashmir,Srinagar,"Rajbagh, Srinagar - JKPCC",29-12-2025 08:00:00,34.066206,74.819820,PM10,38,72,56
India,Jharkhand,Dhanbad,"Sardar Patel Nagar, Dhanbad - JSPCB",29-12-2025 08:00:00,23.80569,86.44268,PM10,107,204,153
India,Karnataka,Bagalkot,"Vidayagiri, Bagalkot - KSPCB",29-12-2025 08:00:00,16.172806,75.659694,NH3,1,2,1
India,Karnataka,Bagalkot,"Vidayagiri, Bagalkot - KSPCB",29-12-2025 08:00:00,16.172806,75.659694,SO2,7,7,7
India,Karnataka,Belgaum,"Ramteerth Nagar, Belgaum - KSPCB",29-12-2025 08:00:00,15.888653,74.541751,NO2,37,110,57
India,Haryana,Sirsa,"F-Block, Sirsa - HSPCB",29-12-2025 08:00:00,29.536400,75.015800,PM2.5,91,200,138
India,Haryana,Sirsa,"F-Block, Sirsa - HSPCB",29-12-2025 08:00:00,29.536400,75.015800,SO2,1,22,12
India,Haryana,Sonipat,"Murthal, Sonipat - HSPCB",29-12-2025 08:00:00,29.027200,77.062100,PM2.5,80,345,213
India,Haryana,Sonipat,"Murthal, Sonipat - HSPCB",29-12-2025 08:00:00,29.027200,77.062100,NO2,28,51,42
India,Himachal Pradesh,Baddi,"HIMUDA Complex Phase-1, Baddi - HPPCB",29-12-2025 08:00:00,30.943887,76.801991,NO2,9,50,27
India,Himachal Pradesh,Baddi,"HIMUDA Complex Phase-1, Baddi - HPPCB",29-12-2025 08:00:00,30.943887,76.801991,NH3,3,7,4
India,Haryana,Manesar,"Sector-2 IMT, Manesar - HSPCB",29-12-2025 08:00:00,28.360699,76.936090,OZONE,NA,NA,NA
India,Haryana,Narnaul,"Shastri Nagar, Narnaul - HSPCB",29-12-2025 08:00:00,28.060249,76.113115,PM10,95,253,175
India,Haryana,Narnaul,"Shastri Nagar, Narnaul - HSPCB",29-12-2025 08:00:00,28.060249,76.113115,NH3,8,27,14
India,Haryana,Narnaul,"Shastri Nagar, Narnaul - HSPCB",29-12-2025 08:00:00,28.060249,76.113115,SO2,6,7,7
India,Haryana,Palwal,"Shyam Nagar, Palwal - HSPCB",29-12-2025 08:00:00,28.1485564,77.3320667,PM2.5,77,115,91
India,Karnataka,Bengaluru,"Hebbal, Bengaluru - KSPCB",29-12-2025 08:00:00,13.029152,77.585901,OZONE,7,14,9
India,Karnataka,Bengaluru,"Hombegowda Nagar, Bengaluru - KSPCB",29-12-2025 08:00:00,12.938539,77.590100,NH3,2,4,3
India,Karnataka,Bengaluru,"Hombegowda Nagar, Bengaluru - KSPCB",29-12-2025 08:00:00,12.938539,77.590100,OZONE,5,60,33
India,Karnataka,Bengaluru,"Jigani, Bengaluru - KSPCB",29-12-2025 08:00:00,12.7816279,77.6299145,SO2,17,17,17
India,Karnataka,Bengaluru,"Jigani, Bengaluru - KSPCB",29-12-2025 08:00:00,12.7816279,77.6299145,CO,43,44,44
India,Haryana,Palwal,"Shyam Nagar, Palwal - HSPCB",29-12-2025 08:00:00,28.1485564,77.3320667,SO2,13,16,14
India,Haryana,Palwal,"Shyam Nagar, Palwal - HSPCB",29-12-2025 08:00:00,28.1485564,77.3320667,CO,27,50,40
India,Haryana,Panchgaon,"Amity University, Panchgaon - IITM",29-12-2025 08:00:00,28.3153,76.9143,CO,20,72,62
India,Haryana,Rohtak,"MD University, Rohtak - HSPCB",29-12-2025 08:00:00,28.52123,76.37138,PM2.5,76,309,206
India,Karnataka,Bengaluru,"BTM Layout, Bengaluru - CPCB",29-12-2025 08:00:00,12.9135218,77.5950804,OZONE,18,19,18
India,Karnataka,Bengaluru,"BWSSB Kadabesanahalli, Bengaluru - CPCB",29-12-2025 08:00:00,12.9352049,77.6814488,PM2.5,87,236,140
India,Karnataka,Bengaluru,"BWSSB Kadabesanahalli, Bengaluru - CPCB",29-12-2025 08:00:00,12.9352049,77.6814488,PM10,78,211,142
India,Karnataka,Bengaluru,"Hebbal, Bengaluru - KSPCB",29-12-2025 08:00:00,13.029152,77.585901,NO2,5,8,7
India,Haryana,Karnal,"Sector-12, Karnal - HSPCB",29-12-2025 08:00:00,29.695300,77.002700,PM10,111,146,122
India,Haryana,Kurukshetra,"Sector-7, Kurukshetra - HSPCB",29-12-2025 08:00:00,29.966942,76.875879,PM2.5,101,328,205
India,Haryana,Kurukshetra,"Sector-7, Kurukshetra - HSPCB",29-12-2025 08:00:00,29.966942,76.875879,NH3,5,5,5
India,Haryana,Kurukshetra,"Sector-7, Kurukshetra - HSPCB",29-12-2025 08:00:00,29.966942,76.875879,CO,28,69,43
India,Haryana,Faridabad,"Sector 30, Faridabad - HSPCB",29-12-2025 08:00:00,28.4417,77.3217,OZONE,17,19,18
India,Haryana,Fatehabad,"Huda Sector, Fatehabad - HSPCB",29-12-2025 08:00:00,29.503664,75.467934,PM10,105,253,168
India,Haryana,Gurugram,"Sector-51, Gurugram - HSPCB",29-12-2025 08:00:00,28.4227,77.0667,NH3,6,10,8
India,Haryana,Gurugram,"Vikas Sadan, Gurugram - HSPCB",29-12-2025 08:00:00,28.4501238,77.0263051,OZONE,7,56,18
India,Kerala,Eloor,"Udyogamandal, Eloor - Kerala PCB",29-12-2025 08:00:00,10.073232,76.302765,SO2,1,1,1
India,Kerala,Kannur,"Thavakkara, Kannur - Kerala PCB",29-12-2025 08:00:00,11.875000,75.373200,SO2,5,6,6
India,Kerala,Kannur,"Thavakkara, Kannur - Kerala PCB",29-12-2025 08:00:00,11.875000,75.373200,CO,14,18,16
India,Kerala,Thiruvananthapuram,"Kariavattom, Thiruvananthapuram - Kerala PCB",29-12-2025 08:00:00,8.563700,76.886500,PM2.5,89,189,126
India,Kerala,Thiruvananthapuram,"Kariavattom, Thiruvananthapuram - Kerala PCB",29-12-2025 08:00:00,8.563700,76.886500,NH3,1,1,1
India,Kerala,Thiruvananthapuram,"Kariavattom, Thiruvananthapuram - Kerala PCB",29-12-2025 08:00:00,8.563700,76.886500,CO,45,55,49
India,Kerala,Thiruvananthapuram,"Plammoodu, Thiruvananthapuram - Kerala PCB",29-12-2025 08:00:00,8.5149093,76.9435879,NO2,NA,NA,NA
India,Karnataka,Bengaluru,"Silk Board, Bengaluru - KSPCB",29-12-2025 08:00:00,12.917348,77.622813,PM10,103,144,119
India,Karnataka,Chamarajanagar,"Urban, Chamarajanagar - KSPCB",29-12-2025 08:00:00,11.55358,76.55521,PM10,34,59,42
India,Karnataka,Chamarajanagar,"Urban, Chamarajanagar - KSPCB",29-12-2025 08:00:00,11.55358,76.55521,SO2,2,8,4
India,Karnataka,Chikkamagaluru,"Kalyana Nagara, Chikkamagaluru - KSPCB",29-12-2025 08:00:00,13.328028,75.797056,NO2,NA,NA,NA
India,Karnataka,Hubballi,"Lingaraj Nagar, Hubballi - KSPCB",29-12-2025 08:00:00,15.3714823,75.1160168,NO2,7,11,9
India,Karnataka,Hubballi,"Lingaraj Nagar, Hubballi - KSPCB",29-12-2025 08:00:00,15.3714823,75.1160168,SO2,1,3,1
India,Madhya Pradesh,Bhopal,"T T Nagar, Bhopal - MPPCB",29-12-2025 08:00:00,23.233584,77.400574,CO,18,101,44
India,Madhya Pradesh,Damoh,"Shrivastav Colony, Damoh - MPPCB",29-12-2025 08:00:00,23.81748678,79.446246,PM10,5,102,26
India,Madhya Pradesh,Dewas,"Bhopal Chauraha, Dewas - MPPCB",29-12-2025 08:00:00,22.9682591,76.064118,PM2.5,32,178,63
India,Madhya Pradesh,Dewas,"Bhopal Chauraha, Dewas - MPPCB",29-12-2025 08:00:00,22.9682591,76.064118,NH3,1,11,3
India,Madhya Pradesh,Dewas,"Bhopal Chauraha, Dewas - MPPCB",29-12-2025 08:00:00,22.9682591,76.064118,OZONE,11,122,34
India,Madhya Pradesh,Bhopal,"Idgah Hills, Bhopal - MPPCB",29-12-2025 08:00:00,23.264759,77.381568,SO2,8,25,12
India,Madhya Pradesh,Bhopal,"Idgah Hills, Bhopal - MPPCB",29-12-2025 08:00:00,23.264759,77.381568,CO,26,63,34
India,Madhya Pradesh,Bhopal,"Paryavaran Parisar, Bhopal - MPPCB",29-12-2025 08:00:00,23.210494,77.425409,NO2,30,104,60
India,Madhya Pradesh,Bhopal,"Paryavaran Parisar, Bhopal - MPPCB",29-12-2025 08:00:00,23.210494,77.425409,SO2,5,13,9
India,Madhya Pradesh,Bhopal,"Paryavaran Parisar, Bhopal - MPPCB",29-12-2025 08:00:00,23.210494,77.425409,OZONE,9,83,28
India,Karnataka,Kalaburagi,"Mahatma Basaveswar Colony, Kalaburgi - KSPCB",29-12-2025 08:00:00,17.336318,76.847397,SO2,2,6,3
India,Karnataka,Mangalore,"Kadri, Mangalore - KSPCB",29-12-2025 08:00:00,12.889250,74.853000,NH3,2,2,2
India,Karnataka,Mysuru,"Hebbal 1st Stage, Mysuru - KSPCB",29-12-2025 08:00:00,12.21041,76.37376,PM2.5,43,92,60
India,Karnataka,Bengaluru,"Peenya, Bengaluru - CPCB",29-12-2025 08:00:00,13.0270199,77.494094,SO2,5,13,9
India,Karnataka,Bengaluru,"Peenya, Bengaluru - CPCB",29-12-2025 08:00:00,13.0270199,77.494094,OZONE,24,24,24
India,Karnataka,Bengaluru,"Sanegurava Halli, Bengaluru - KSPCB",29-12-2025 08:00:00,12.990328,77.5431385,NO2,17,18,18
India,Karnataka,Bengaluru,"Sanegurava Halli, Bengaluru - KSPCB",29-12-2025 08:00:00,12.990328,77.5431385,CO,8,32,15
India,Madhya Pradesh,Gwalior,"Maharaj Bada, Gwalior - MPPCB",29-12-2025 08:00:00,26.200388,78.147714,NO2,24,123,58
India,Madhya Pradesh,Gwalior,"Maharaj Bada, Gwalior - MPPCB",29-12-2025 08:00:00,26.200388,78.147714,CO,8,106,23
India,Madhya Pradesh,Indore,"Airport Area, Indore - IMC",29-12-2025 08:00:00,22.7289,75.8076,PM2.5,30,132,52
India,Madhya Pradesh,Jabalpur,"Gupteshwar, Jabalpur - JMC",29-12-2025 08:00:00,23.142888,79.916147,PM2.5,33,272,94
India,Madhya Pradesh,Jabalpur,"Marhatal, Jabalpur - MPPCB",29-12-2025 08:00:00,23.168606,79.932247,PM2.5,47,383,147
India,Madhya Pradesh,Jabalpur,"Marhatal, Jabalpur - MPPCB",29-12-2025 08:00:00,23.168606,79.932247,SO2,12,19,15
India,Karnataka,Tumakuru,"Thimmalapura, Tumakuru - KSPCB",29-12-2025 08:00:00,13.377516,77.099072,PM2.5,67,285,120
India,Karnataka,Tumakuru,"Thimmalapura, Tumakuru - KSPCB",29-12-2025 08:00:00,13.377516,77.099072,SO2,26,27,26
India,Madhya Pradesh,Jabalpur,"Suhagi, Jabalpur - JMC",29-12-2025 08:00:00,23.218135,79.957770,NH3,2,6,4
India,Madhya Pradesh,Jabalpur,"Suhagi, Jabalpur - JMC",29-12-2025 08:00:00,23.218135,79.957770,OZONE,26,39,31
India,Madhya Pradesh,Katni,"Gole Bazar, Katni - MPPCB",29-12-2025 08:00:00,23.50016,80.23284,NO2,28,53,37
India,Madhya Pradesh,Katni,"Gole Bazar, Katni - MPPCB",29-12-2025 08:00:00,23.50016,80.23284,OZONE,15,29,21
India,Madhya Pradesh,Mandideep,"Sector-D Industrial Area, Mandideep - MPPCB",29-12-2025 08:00:00,23.108440,77.511428,PM2.5,37,430,190
India,Madhya Pradesh,Mandideep,"Sector-D Industrial Area, Mandideep - MPPCB",29-12-2025 08:00:00,23.108440,77.511428,SO2,12,122,53
India,Madhya Pradesh,Pithampur,"Sector-2 Industrial Area, Pithampur - MPPCB",29-12-2025 08:00:00,22.624758,75.675238,PM2.5,48,249,98
India,Madhya Pradesh,Pithampur,"Sector-2 Industrial Area, Pithampur - MPPCB",29-12-2025 08:00:00,22.624758,75.675238,PM10,48,157,86
India,Madhya Pradesh,Pithampur,"Sector-2 Industrial Area, Pithampur - MPPCB",29-12-2025 08:00:00,22.624758,75.675238,NH3,3,3,3
India,Madhya Pradesh,Pithampur,"Sector-2 Industrial Area, Pithampur - MPPCB",29-12-2025 08:00:00,22.624758,75.675238,OZONE,24,51,30
India,Madhya Pradesh,Sagar,"Civil Lines, Sagar - MPPCB",29-12-2025 08:00:00,23.838586,78.759431,NO2,11,74,23
India,Madhya Pradesh,Sagar,"Civil Lines, Sagar - MPPCB",29-12-2025 08:00:00,23.838586,78.759431,NH3,1,4,2
India,Madhya Pradesh,Sagar,"Civil Lines, Sagar - MPPCB",29-12-2025 08:00:00,23.838586,78.759431,CO,21,68,38
India,Madhya Pradesh,Satna,"Bandhavgar Colony, Satna - Birla Cement",29-12-2025 08:00:00,24.58434363,80.8549414,PM2.5,51,55,53
India,Madhya Pradesh,Satna,"Bandhavgar Colony, Satna - Birla Cement",29-12-2025 08:00:00,24.58434363,80.8549414,PM10,73,75,74
India,Madhya Pradesh,Satna,"Bandhavgar Colony, Satna - Birla Cement",29-12-2025 08:00:00,24.58434363,80.8549414,NO2,12,13,12
India,Madhya Pradesh,Satna,"Bandhavgar Colony, Satna - Birla Cement",29-12-2025 08:00:00,24.58434363,80.8549414,CO,29,46,33
India,Madhya Pradesh,Singrauli,"Suryakiran Bhawan NCL, Singrauli - MPPCB",29-12-2025 08:00:00,24.108970,82.645580,NO2,NA,NA,NA
India,Madhya Pradesh,Singrauli,"Suryakiran Bhawan NCL, Singrauli - MPPCB",29-12-2025 08:00:00,24.108970,82.645580,SO2,NA,NA,NA
India,Maharashtra,Amravati,"Shri Shivaji Science College, Amravati - MPCB",29-12-2025 08:00:00,20.939198,77.765701,OZONE,4,132,31
India,Maharashtra,Aurangabad,"More Chowk Waluj, Aurangabad - MPCB",29-12-2025 08:00:00,19.8389439,75.244448,PM2.5,41,158,71
India,Maharashtra,Aurangabad,"More Chowk Waluj, Aurangabad - MPCB",29-12-2025 08:00:00,19.8389439,75.244448,NH3,10,11,11
India,Maharashtra,Aurangabad,"More Chowk Waluj, Aurangabad - MPCB",29-12-2025 08:00:00,19.8389439,75.244448,CO,2,129,106
India,Maharashtra,Badlapur,"Katrap, Badlapur - MPCB",29-12-2025 08:00:00,19.16485,73.23409,NO2,12,34,25
India,Maharashtra,Belapur,"CBD Belapur, Belapur - MPCB",29-12-2025 08:00:00,19.0243902,73.0406721,NO2,10,33,23
India,Maharashtra,Ahmednagar,"Tarakpur, Ahmednagar - MPCB",29-12-2025 08:00:00,19.10122,74.73339,PM10,58,144,101
India,Maharashtra,Akola,"Ramdaspeth, Akola - MPCB",29-12-2025 08:00:00,20.719516,77.000253,NO2,11,103,41
India,Maharashtra,Akola,"Ramdaspeth, Akola - MPCB",29-12-2025 08:00:00,20.719516,77.000253,CO,14,62,23
India,Maharashtra,Amravati,"Shivneri Colony, Amravati - MPCB",29-12-2025 08:00:00,20.9402359,77.7895248,OZONE,2,95,16
India,Maharashtra,Amravati,"Shri Shivaji Science College, Amravati - MPCB",29-12-2025 08:00:00,20.939198,77.765701,SO2,23,67,35
India,Maharashtra,Mira-Bhayandar,"Bhayandar West, Mira-Bhayandar - MPCB",29-12-2025 08:00:00,19.296481,72.840923,NH3,1,13,3
India,Maharashtra,Mumbai,"Bandra Kurla Complex, Mumbai - IITM",29-12-2025 08:00:00,19.053536,72.84643,NH3,1,23,8
India,Maharashtra,Mumbai,"Bandra Kurla Complex, Mumbai - IITM",29-12-2025 08:00:00,19.053536,72.84643,OZONE,4,88,6
India,Maharashtra,Mumbai,"Bandra Kurla Complex, Mumbai - MPCB",29-12-2025 08:00:00,19.065931,72.862131,PM2.5,7,297,117
India,Maharashtra,Mumbai,"Borivali East, Mumbai - MPCB",29-12-2025 08:00:00,19.2243333,72.8658113,NO2,NA,NA,NA
India,Maharashtra,Latur,"Sawe Wadi, Latur - MPCB",29-12-2025 08:00:00,18.39963,76.57452,PM10,64,110,90
India,Maharashtra,Latur,"Sawe Wadi, Latur - MPCB",29-12-2025 08:00:00,18.39963,76.57452,OZONE,6,90,31
India,Maharashtra,Malegaon,"Mahesh Nagar, Malegaon - MPCB",29-12-2025 08:00:00,20.555712,74.529236,SO2,2,4,4
India,Maharashtra,Malegaon,"Mahesh Nagar, Malegaon - MPCB",29-12-2025 08:00:00,20.555712,74.529236,OZONE,18,78,21
India,Maharashtra,Mira-Bhayandar,"Bhayandar West, Mira-Bhayandar - MPCB",29-12-2025 08:00:00,19.296481,72.840923,PM2.5,71,153,117
India,Maharashtra,Kalyan,"Pimpleshwar Mandir, Kalyan - MPCB",29-12-2025 08:00:00,19.192056,72.9585188,PM10,116,264,181
India,Maharashtra,Kalyan,"Pimpleshwar Mandir, Kalyan - MPCB",29-12-2025 08:00:00,19.192056,72.9585188,NO2,16,34,24
India,Maharashtra,Kalyan,"Pimpleshwar Mandir, Kalyan - MPCB",29-12-2025 08:00:00,19.192056,72.9585188,NH3,2,8,5
India,Maharashtra,Kolhapur,"Sinchan Bhavan, Kolhapur - MPCB",29-12-2025 08:00:00,16.7143745,74.2426398,PM2.5,96,196,141
India,Maharashtra,Jalgaon,"Prabhat Colony, Jalgaon - MPCB",29-12-2025 08:00:00,21.001264,75.565602,SO2,5,22,13
India,Maharashtra,Jalgaon,"Prabhat Colony, Jalgaon - MPCB",29-12-2025 08:00:00,21.001264,75.565602,OZONE,16,102,53
India,Maharashtra,Jalna,"Old MIDC, Jalna - MPCB",29-12-2025 08:00:00,19.854616,75.905894,PM2.5,43,197,96
India,Maharashtra,Belapur,"CBD Belapur, Belapur - MPCB",29-12-2025 08:00:00,19.0243902,73.0406721,SO2,1,21,8
India,Maharashtra,Bhiwandi,"Gokul Nagar, Bhiwandi - MPCB",29-12-2025 08:00:00,19.309073,73.057223,PM10,74,179,131
India,Maharashtra,Nashik,"Gangapur Road, Nashik - MPCB",29-12-2025 08:00:00,20.0073285,73.7762427,OZONE,NA,NA,NA
India,Maharashtra,Nashik,"Hirawadi, Nashik - MPCB",29-12-2025 08:00:00,20.021503,73.813844,PM10,90,148,120
India,Maharashtra,Nashik,"Hirawadi, Nashik - MPCB",29-12-2025 08:00:00,20.021503,73.813844,NO2,8,45,19
India,Maharashtra,Nashik,"MIDC Ambad, Nashik - MPCB",29-12-2025 08:00:00,19.950220,73.731480,OZONE,29,81,36
India,Maharashtra,Nashik,"Pandav Nagari, Nashik - MPCB",29-12-2025 08:00:00,19.9591346,73.7788008,PM2.5,73,191,114
India,Maharashtra,Nashik,"Pandav Nagari, Nashik - MPCB",29-12-2025 08:00:00,19.9591346,73.7788008,PM10,78,140,111
India,Maharashtra,Nashik,"Pandav Nagari, Nashik - MPCB",29-12-2025 08:00:00,19.9591346,73.7788008,NH3,4,8,5
India,Maharashtra,Nashik,"Pandav Nagari, Nashik - MPCB",29-12-2025 08:00:00,19.9591346,73.7788008,CO,20,81,37
India,Maharashtra,Nashik,"Pandav Nagari, Nashik - MPCB",29-12-2025 08:00:00,19.9591346,73.7788008,OZONE,18,74,29
India,Maharashtra,Mumbai,"Sion, Mumbai - MPCB",29-12-2025 08:00:00,19.047000,72.874600,NO2,8,157,74
India,Maharashtra,Mumbai,"Sion, Mumbai - MPCB",29-12-2025 08:00:00,19.047000,72.874600,NH3,1,6,3
India,Maharashtra,Mumbai,"Sion, Mumbai - MPCB",29-12-2025 08:00:00,19.047000,72.874600,SO2,16,20,18
India,Maharashtra,Mumbai,"Sion, Mumbai - MPCB",29-12-2025 08:00:00,19.047000,72.874600,OZONE,6,13,12
India,Maharashtra,Mumbai,"Vile Parle West, Mumbai - MPCB",29-12-2025 08:00:00,19.10861,72.83622,PM10,NA,NA,NA
India,Maharashtra,Mumbai,"Vile Parle West, Mumbai - MPCB",29-12-2025 08:00:00,19.10861,72.83622,NO2,11,11,11
India,Maharashtra,Mumbai,"Vile Parle West, Mumbai - MPCB",29-12-2025 08:00:00,19.10861,72.83622,NH3,6,6,6
India,Maharashtra,Nagpur,"Ambazari, Nagpur - MPCB",29-12-2025 08:00:00,21.121801,79.04952,PM2.5,96,315,194
India,Maharashtra,Nagpur,"Mahal, Nagpur - MPCB",29-12-2025 08:00:00,21.14472,79.107595,PM10,87,192,132
India,Maharashtra,Nagpur,"Opp GPO Civil Lines, Nagpur - MPCB",29-12-2025 08:00:00,21.152875,79.0517531,PM2.5,63,308,163
India,Maharashtra,Nagpur,"Opp GPO Civil Lines, Nagpur - MPCB",29-12-2025 08:00:00,21.152875,79.0517531,PM10,87,199,129
India,Maharashtra,Nagpur,"Opp GPO Civil Lines, Nagpur - MPCB",29-12-2025 08:00:00,21.152875,79.0517531,SO2,7,103,23
India,Maharashtra,Nagpur,"Opp GPO Civil Lines, Nagpur - MPCB",29-12-2025 08:00:00,21.152875,79.0517531,CO,6,114,53
India,Maharashtra,Nagpur,"Ram Nagar, Nagpur - MPCB",29-12-2025 08:00:00,21.143383,79.048912,SO2,4,105,23
India,Maharashtra,Nanded,"Sneh Nagar, Nanded - MPCB",29-12-2025 08:00:00,19.173852,77.296291,PM10,85,158,119
India,Maharashtra,Nanded,"Sneh Nagar, Nanded - MPCB",29-12-2025 08:00:00,19.173852,77.296291,SO2,5,6,6
India,Maharashtra,Nashik,"Gangapur Road, Nashik - MPCB",29-12-2025 08:00:00,20.0073285,73.7762427,NO2,NA,NA,NA
India,Maharashtra,Mumbai,"Borivali East, Mumbai - MPCB",29-12-2025 08:00:00,19.2243333,72.8658113,SO2,15,18,17
India,Maharashtra,Mumbai,"Byculla, Mumbai - BMC",29-12-2025 08:00:00,18.9767,72.8380,NH3,10,41,20
India,Maharashtra,Mumbai,"Byculla, Mumbai - BMC",29-12-2025 08:00:00,18.9767,72.8380,SO2,23,29,26
India,Maharashtra,Mumbai,"Byculla, Mumbai - BMC",29-12-2025 08:00:00,18.9767,72.8380,CO,15,82,47
India,Maharashtra,Mumbai,"Chakala-Andheri East, Mumbai - IITM",29-12-2025 08:00:00,19.11074,72.86084,CO,22,100,53
India,Maharashtra,Mumbai,"Chembur, Mumbai - MPCB",29-12-2025 08:00:00,19.0364585,72.8954371,NO2,22,89,60
India,Maharashtra,Mumbai,"Chembur, Mumbai - MPCB",29-12-2025 08:00:00,19.0364585,72.8954371,CO,41,86,75
India,Maharashtra,Mumbai,"Powai, Mumbai - MPCB",29-12-2025 08:00:00,19.137500,72.915056,SO2,29,29,29
India,Maharashtra,Mumbai,"Powai, Mumbai - MPCB",29-12-2025 08:00:00,19.137500,72.915056,OZONE,9,9,9
India,Maharashtra,Mumbai,"Sewri, Mumbai - BMC",29-12-2025 08:00:00,19.000084,72.856730,NO2,3,18,7
India,Maharashtra,Mumbai,"Shivaji Nagar, Mumbai - BMC",29-12-2025 08:00:00,19.060498,72.923356,CO,4,52,52
India,Maharashtra,Mumbai,"Shivaji Nagar, Mumbai - BMC",29-12-2025 08:00:00,19.060498,72.923356,OZONE,1,71,3
India,Maharashtra,Mumbai,"Siddharth Nagar-Worli, Mumbai - IITM",29-12-2025 08:00:00,19.000083,72.813993,CO,18,64,53
India,Maharashtra,Navi Mumbai,"Kopripada-Vashi, Navi Mumbai - MPCB",29-12-2025 08:00:00,19.090337,73.014232,NO2,14,88,47
India,Maharashtra,Navi Mumbai,"Kopripada-Vashi, Navi Mumbai - MPCB",29-12-2025 08:00:00,19.090337,73.014232,OZONE,6,105,8
India,Maharashtra,Navi Mumbai,"Mahape, Navi Mumbai - MPCB",29-12-2025 08:00:00,19.1135051,73.008978,PM2.5,74,117,89
India,Maharashtra,Navi Mumbai,"Mahape, Navi Mumbai - MPCB",29-12-2025 08:00:00,19.1135051,73.008978,PM10,111,247,143
India,Maharashtra,Navi Mumbai,"Mahape, Navi Mumbai - MPCB",29-12-2025 08:00:00,19.1135051,73.008978,NO2,34,36,35
India,Maharashtra,Navi Mumbai,"Mahape, Navi Mumbai - MPCB",29-12-2025 08:00:00,19.1135051,73.008978,CO,19,20,19
India,Maharashtra,Mumbai,"Kandivali West, Mumbai - BMC",29-12-2025 08:00:00,19.215859,72.831718,OZONE,1,221,2
India,Maharashtra,Mumbai,"Khindipada-Bhandup West, Mumbai - IITM",29-12-2025 08:00:00,19.1653323,72.922099,PM10,75,120,94
India,Maharashtra,Mumbai,"Kurla, Mumbai - MPCB",29-12-2025 08:00:00,19.0863,72.8888,PM10,NA,NA,NA
India,Maharashtra,Mumbai,"Malad West, Mumbai - IITM",29-12-2025 08:00:00,19.19709,72.82204,NO2,46,85,66
India,Maharashtra,Mumbai,"Mazgaon, Mumbai - IITM",29-12-2025 08:00:00,18.96702,72.84214,PM2.5,73,179,123
India,Maharashtra,Mumbai,"Mindspace-Malad West, Mumbai - MPCB",29-12-2025 08:00:00,19.1878657,72.8304069,PM10,101,160,120
India,Maharashtra,Mumbai,"Mindspace-Malad West, Mumbai - MPCB",29-12-2025 08:00:00,19.1878657,72.8304069,NO2,23,107,53
India,Maharashtra,Mumbai,"Mindspace-Malad West, Mumbai - MPCB",29-12-2025 08:00:00,19.1878657,72.8304069,CO,42,101,94
India,Maharashtra,Mumbai,"Chhatrapati Shivaji Intl. Airport (T2), Mumbai - MPCB",29-12-2025 08:00:00,19.10078,72.87462,PM10,100,183,146
India,Maharashtra,Mumbai,"Deonar, Mumbai - IITM",29-12-2025 08:00:00,19.04946,72.9230,NO2,12,110,51
India,Maharashtra,Mumbai,"Deonar, Mumbai - IITM",29-12-2025 08:00:00,19.04946,72.9230,OZONE,1,28,1
India,Maharashtra,Sangli,"Vijay Nagar, Sangli - MPCB",29-12-2025 08:00:00, 16.5038,74.3623,NO2,16,99,46
India,Maharashtra,Solapur,"Dnyaneshwar Nagar, Solapur - MPCB",29-12-2025 08:00:00,17.6336264,75.9132495,NH3,6,58,14
India,Maharashtra,Solapur,"Dnyaneshwar Nagar, Solapur - MPCB",29-12-2025 08:00:00,17.6336264,75.9132495,OZONE,4,74,42
India,Maharashtra,Solapur,"Ratandeep Housing Society, Solapur - MPCB",29-12-2025 08:00:00,17.65439,75.90649,SO2,NA,NA,NA
India,Maharashtra,Solapur,"Ratandeep Housing Society, Solapur - MPCB",29-12-2025 08:00:00,17.65439,75.90649,CO,24,114,33
India,Maharashtra,Thane,"Kasarvadavali, Thane - MPCB",29-12-2025 08:00:00,19.26777,72.97182,NO2,18,71,43
India,Maharashtra,Thane,"Kasarvadavali, Thane - MPCB",29-12-2025 08:00:00,19.26777,72.97182,SO2,4,19,9
India,Maharashtra,Thane,"Upvan Fort, Thane - MPCB",29-12-2025 08:00:00,19.222279,72.957979,PM10,95,122,107
India,Maharashtra,Thane,"Upvan Fort, Thane - MPCB",29-12-2025 08:00:00,19.222279,72.957979,NH3,3,3,3
India,Maharashtra,Thane,"Upvan Fort, Thane - MPCB",29-12-2025 08:00:00,19.222279,72.957979,SO2,9,30,17
India,Maharashtra,Ulhasnagar,"Sidhi Vinayak Nagar, Ulhasnagar - MPCB",29-12-2025 08:00:00,19.235581,73.159121,NO2,15,31,24
India,Maharashtra,Virar,"Bolinj, Virar - MPCB",29-12-2025 08:00:00,19.4458210,72.7988231,PM10,74,195,119
India,Meghalaya,Shillong,"JN Stadium, Shillong - Meghalaya PCB",29-12-2025 08:00:00,25.5803419,91.8942571,PM10,NA,NA,NA
India,Odisha,Bhubaneswar,"Lingraj Mandir, Bhubaneswar - OSPCB",29-12-2025 08:00:00,20.240790,85.836784,PM2.5,290,396,329
India,Odisha,Bhubaneswar,"Lingraj Mandir, Bhubaneswar - OSPCB",29-12-2025 08:00:00,20.240790,85.836784,SO2,5,40,15
India,Odisha,Bhubaneswar,"Patia, Bhubaneswar - OSPCB",29-12-2025 08:00:00,20.34652,85.81630,PM2.5,150,318,217
India,Odisha,Bileipada,"Tata Township, Bileipada - OSPCB",29-12-2025 08:00:00,22.06156703,85.47409613,PM10,103,175,138
India,Odisha,Bileipada,"Tata Township, Bileipada - OSPCB",29-12-2025 08:00:00,22.06156703,85.47409613,OZONE,13,13,13
India,Odisha,Brajrajnagar,"GM Office, Brajrajnagar - OSPCB",29-12-2025 08:00:00,21.8004996,83.8396977,PM10,60,197,118
India,Maharashtra,Pune,"Revenue Colony-Shivajinagar, Pune - IITM",29-12-2025 08:00:00,18.530085,73.849598,CO,65,146,120
India,Maharashtra,Pune,"Revenue Colony-Shivajinagar, Pune - IITM",29-12-2025 08:00:00,18.530085,73.849598,OZONE,4,102,9
India,Maharashtra,Pune,"Savitribai Phule Pune University, Pune - MPCB",29-12-2025 08:00:00,18.547056,73.826908,SO2,1,5,3
India,Maharashtra,Pune,"Savitribai Phule Pune University, Pune - MPCB",29-12-2025 08:00:00,18.547056,73.826908,CO,17,107,93
India,Maharashtra,Pune,"Transport Nagar-Nigdi, Pune - IITM",29-12-2025 08:00:00,18.664282,73.763966,PM10,109,221,165
India,Maharashtra,Pune,"Transport Nagar-Nigdi, Pune - IITM",29-12-2025 08:00:00,18.664282,73.763966,NO2,36,163,89
India,Odisha,Angul,"Hakimapada, Angul - OSPCB",29-12-2025 08:00:00,20.832874,85.104082,NO2,24,58,40
India,Odisha,Angul,"Hakimapada, Angul - OSPCB",29-12-2025 08:00:00,20.832874,85.104082,NH3,10,12,11
India,Odisha,Angul,"Hakimapada, Angul - OSPCB",29-12-2025 08:00:00,20.832874,85.104082,OZONE,12,305,26
India,Odisha,Balasore,"Kalidaspur, Balasore - OSPCB",29-12-2025 08:00:00,21.51161,86.89088,OZONE,5,65,16
India,Odisha,Barbil,"Forest Office, Barbil - OSPCB",29-12-2025 08:00:00,22.1166054,85.3945546,NH3,1,2,1
India,Odisha,Barbil,"Forest Office, Barbil - OSPCB",29-12-2025 08:00:00,22.1166054,85.3945546,CO,32,77,54
India,Meghalaya,Shillong,"JN Stadium, Shillong - Meghalaya PCB",29-12-2025 08:00:00,25.5803419,91.8942571,NO2,5,22,13
India,Meghalaya,Shillong,"Lumpyngngad, Shillong - Meghalaya PCB",29-12-2025 08:00:00,25.5586,91.8985,SO2,6,9,8
India,Mizoram,Aizawl,"Sikulpuikawn, Aizawl - Mizoram PCB",29-12-2025 08:00:00,23.7176342,92.7192841,OZONE,1,3,2
India,Nagaland,Kohima,"PWD Junction, Kohima - NPCB",29-12-2025 08:00:00,25.6635413,94.0989878,NH3,1,1,1
India,Maharashtra,Navi Mumbai,"Sector-2E Kalamboli, Navi Mumbai - MPCB",29-12-2025 08:00:00,19.02579,73.10297,PM10,40,230,113
India,Maharashtra,Navi Mumbai,"Sector-2E Kalamboli, Navi Mumbai - MPCB",29-12-2025 08:00:00,19.02579,73.10297,SO2,2,15,6
India,Maharashtra,Parbhani,"Masoom Colony, Parbhani - MPCB",29-12-2025 08:00:00,19.265594,76.761463,NO2,25,96,47
India,Maharashtra,Pimpri-Chinchwad,"Gavalinagar, Pimpri Chinchwad - MPCB",29-12-2025 08:00:00,18.63673,73.82487,NH3,7,19,11
India,Maharashtra,Pimpri-Chinchwad,"Park Street Wakad, Pimpri Chinchwad - MPCB",29-12-2025 08:00:00,18.59051,73.77946,CO,26,122,109
India,Maharashtra,Pimpri-Chinchwad,"Savta Mali Nagar, Pimpri-Chinchwad - IITM",29-12-2025 08:00:00,18.614767,73.799516,OZONE,2,63,5
India,Maharashtra,Pimpri-Chinchwad,"Thergaon, Pimpri Chinchwad - MPCB",29-12-2025 08:00:00,18.616318,73.765797,NH3,NA,NA,NA
India,Maharashtra,Pimpri-Chinchwad,"Thergaon, Pimpri Chinchwad - MPCB",29-12-2025 08:00:00,18.616318,73.765797,SO2,1,6,4
India,Maharashtra,Pune,"Bhumkar Nagar, Pune - IITM",29-12-2025 08:00:00,18.605770,73.749976,OZONE,1,135,3
India,Rajasthan,Bhilwara,"Pratap Nagar, Bhilwara - RSPCB",29-12-2025 08:00:00,25.339605,74.618883,CO,10,101,43
India,Rajasthan,Bhiwadi,"RIICO Ind. Area III, Bhiwadi - RSPCB",29-12-2025 08:00:00,28.194909,76.862296,NH3,7,25,14
India,Rajasthan,Bhiwadi,"RIICO Ind. Area III, Bhiwadi - RSPCB",29-12-2025 08:00:00,28.194909,76.862296,SO2,3,11,7
India,Rajasthan,Bhiwadi,"Vasundhara Nagar_UIT, Bhiwadi - RSPCB",29-12-2025 08:00:00,28.207266,76.829265,NO2,NA,NA,NA
India,Rajasthan,Bhiwadi,"Vasundhara Nagar_UIT, Bhiwadi - RSPCB",29-12-2025 08:00:00,28.207266,76.829265,SO2,1,24,10
India,Rajasthan,Bhiwadi,"Vasundhara Nagar_UIT, Bhiwadi - RSPCB",29-12-2025 08:00:00,28.207266,76.829265,CO,42,134,98
India,Rajasthan,Bikaner,"MM Ground, Bikaner - RSPCB",29-12-2025 08:00:00,28.018792,73.292658,PM2.5,35,216,117
India,Rajasthan,Dausa,"Khatikan Mohalla, Dausa - RSPCB",29-12-2025 08:00:00,26.895552,76.334753,OZONE,3,97,23
India,Rajasthan,Dholpur,"Raja Ganj, Dholpur - RSPCB",29-12-2025 08:00:00,26.699557,77.898881,PM2.5,28,307,139
India,Rajasthan,Dholpur,"Raja Ganj, Dholpur - RSPCB",29-12-2025 08:00:00,26.699557,77.898881,PM10,69,179,124
India,Rajasthan,Dungarpur,"Bhoiwada, Dungarpur - RSPCB",29-12-2025 08:00:00,23.837789,73.714926,PM2.5,52,287,118
India,Rajasthan,Dungarpur,"Bhoiwada, Dungarpur - RSPCB",29-12-2025 08:00:00,23.837789,73.714926,SO2,2,12,6
India,Rajasthan,Jaipur,"Adarsh Nagar, Jaipur - RSPCB",29-12-2025 08:00:00,26.902909,75.836858,NO2,24,89,62
India,Rajasthan,Jaipur,"Adarsh Nagar, Jaipur - RSPCB",29-12-2025 08:00:00,26.902909,75.836858,NH3,11,51,29
India,Punjab,Bathinda,"Hardev Nagar, Bathinda - PPCB",29-12-2025 08:00:00,30.233011,74.907758,PM10,42,102,67
India,Punjab,Bathinda,"Hardev Nagar, Bathinda - PPCB",29-12-2025 08:00:00,30.233011,74.907758,NO2,14,28,20
India,Punjab,Khanna,"Kalal Majra, Khanna - PPCB",29-12-2025 08:00:00,30.736056 ,76.209694,PM10,NA,NA,NA
India,Punjab,Khanna,"Kalal Majra, Khanna - PPCB",29-12-2025 08:00:00,30.736056 ,76.209694,NO2,NA,NA,NA
India,Punjab,Ludhiana,"Punjab Agricultural University, Ludhiana - PPCB",29-12-2025 08:00:00,30.9028,75.8086,PM2.5,109,149,119
India,Punjab,Ludhiana,"Punjab Agricultural University, Ludhiana - PPCB",29-12-2025 08:00:00,30.9028,75.8086,PM10,117,133,121
India,Punjab,Ludhiana,"Punjab Agricultural University, Ludhiana - PPCB",29-12-2025 08:00:00,30.9028,75.8086,CO,36,70,49
India,Rajasthan,Alwar,"Moti Doongri, Alwar - RSPCB",29-12-2025 08:00:00,27.554793,76.611536,NH3,6,8,7
India,Rajasthan,Alwar,"Moti Doongri, Alwar - RSPCB",29-12-2025 08:00:00,27.554793,76.611536,CO,22,109,74
India,Rajasthan,Banswara,"Rati Talai, Banswara - RSPCB",29-12-2025 08:00:00,23.555190,74.440010,NO2,15,117,41
India,Rajasthan,Baran,"Bamboliya, Baran - RSPCB",29-12-2025 08:00:00,25.106006,76.469948,PM2.5,37,130,74
India,Rajasthan,Baran,"Bamboliya, Baran - RSPCB",29-12-2025 08:00:00,25.106006,76.469948,CO,14,41,33
India,Rajasthan,Barmer,"Railway Colony, Barmer - RSPCB",29-12-2025 08:00:00,25.747299,71.393989,CO,8,105,24
India,Odisha,Keonjhar,"Jagamohanpur, Keonjhar - OSPCB",29-12-2025 08:00:00,21.643900,85.599355,PM2.5,59,79,70
India,Odisha,Keonjhar,"Jagamohanpur, Keonjhar - OSPCB",29-12-2025 08:00:00,21.643900,85.599355,NO2,22,66,43
India,Odisha,Rairangpur,"Divisional Forest Office, Rairangpur - OSPCB",29-12-2025 08:00:00,22.265816,86.174829,CO,24,59,38
India,Odisha,Rourkela,"Fertilizer Township, Rourkela - OSPCB",29-12-2025 08:00:00,22.18972222,84.86277778,PM2.5,109,170,127
India,Odisha,Rourkela,"Fertilizer Township, Rourkela - OSPCB",29-12-2025 08:00:00,22.18972222,84.86277778,NO2,11,11,11
India,Punjab,Mandi Gobindgarh,"RIMT University, Mandi Gobindgarh - PPCB",29-12-2025 08:00:00,30.649961,76.331442,PM2.5,40,300,104
India,Punjab,Mandi Gobindgarh,"RIMT University, Mandi Gobindgarh - PPCB",29-12-2025 08:00:00,30.649961,76.331442,PM10,54,195,108
India,Punjab,Patiala,"Model Town, Patiala - PPCB",29-12-2025 08:00:00,30.349388,76.366642,PM10,80,190,140
India,Punjab,Patiala,"Model Town, Patiala - PPCB",29-12-2025 08:00:00,30.349388,76.366642,NH3,6,6,6
India,Punjab,Rupnagar,"Ratanpura, Rupnagar - Ambuja Cements",29-12-2025 08:00:00,31.0325454,76.5623046,NO2,3,5,5
India,Rajasthan,Bikaner,"MM Ground, Bikaner - RSPCB",29-12-2025 08:00:00,28.018792,73.292658,NO2,23,138,64
India,Rajasthan,Bundi,"New Colony, Bundi - RSPCB",29-12-2025 08:00:00,25.435774,75.644272,NO2,16,106,42
India,Rajasthan,Bundi,"New Colony, Bundi - RSPCB",29-12-2025 08:00:00,25.435774,75.644272,CO,18,82,27
India,Rajasthan,Bundi,"New Colony, Bundi - RSPCB",29-12-2025 08:00:00,25.435774,75.644272,OZONE,7,129,36
India,Rajasthan,Churu,"Subash Chowk, Churu - RSPCB",29-12-2025 08:00:00,28.296139,74.961696,PM10,82,345,158
India,Odisha,Brajrajnagar,"GM Office, Brajrajnagar - OSPCB",29-12-2025 08:00:00,21.8004996,83.8396977,SO2,19,22,20
India,Odisha,Byasanagar,"Ferro Chrome Colony, Byasanagar - OSPCB",29-12-2025 08:00:00,20.94185,86.11510,NH3,1,2,2
India,Odisha,Cuttack,"CDA Area, Cuttack - OSPCB",29-12-2025 08:00:00,20.48891     ,85.84768     ,PM2.5,163,327,253
India,Odisha,Cuttack,"CDA Area, Cuttack - OSPCB",29-12-2025 08:00:00,20.48891     ,85.84768     ,PM10,125,201,156
India,Odisha,Suakati,"OMC Colony, Suakati - OSPCB",29-12-2025 08:00:00,21.606865,85.510538,SO2,4,23,10
India,Odisha,Talcher,"Talcher Coalfields,Talcher - OSPCB",29-12-2025 08:00:00,20.9360711,85.1707021,NO2,42,95,70
India,Odisha,Talcher,"Talcher Coalfields,Talcher - OSPCB",29-12-2025 08:00:00,20.9360711,85.1707021,OZONE,4,19,11
India,Odisha,Tensa,"Barsua Iron Ore Mines, Tensa - OSPCB",29-12-2025 08:00:00,21.869985,85.167016,SO2,26,62,38
India,Rajasthan,Tonk,"Shastri Nagar, Tonk - RSPCB",29-12-2025 08:00:00,26.159933,75.780517,SO2,3,6,4
India,Rajasthan,Udaipur,"Ashok Nagar, Udaipur - RSPCB",29-12-2025 08:00:00,24.5886166,73.6321397,NO2,2,97,40
India,Rajasthan,Udaipur,"Ashok Nagar, Udaipur - RSPCB",29-12-2025 08:00:00,24.5886166,73.6321397,SO2,6,12,9
India,TamilNadu,Chennai,"Kodungaiyur, Chennai - TNPCB",29-12-2025 08:00:00,13.1278,80.2642,NO2,5,28,14
India,TamilNadu,Chennai,"Kodungaiyur, Chennai - TNPCB",29-12-2025 08:00:00,13.1278,80.2642,SO2,4,18,9
India,TamilNadu,Chennai,"Manali Village, Chennai - TNPCB",29-12-2025 08:00:00,13.1662,80.2584,PM2.5,69,196,129
India,Rajasthan,Sawai Madhopur,"Sahu Nagar, Sawai Madhopur - RSPCB",29-12-2025 08:00:00,26.031443,76.359327,OZONE,1,95,5
India,Rajasthan,Sirohi,"Vedhaynath Colony, Sirohi - RSPCB",29-12-2025 08:00:00,24.885261,72.857549,PM10,59,126,89
India,Rajasthan,Sirohi,"Vedhaynath Colony, Sirohi - RSPCB",29-12-2025 08:00:00,24.885261,72.857549,SO2,6,14,9
India,Rajasthan,Sri Ganganagar,"Old City, Sri Ganganagar - RSPCB",29-12-2025 08:00:00,29.931624,73.864511,PM10,74,382,162
India,Rajasthan,Tonk,"Shastri Nagar, Tonk - RSPCB",29-12-2025 08:00:00,26.159933,75.780517,PM10,78,471,219
India,Rajasthan,Jaipur,"Mansarovar Sector-12, Jaipur - RSPCB",29-12-2025 08:00:00,26.843698,75.766894,SO2,4,12,7
India,Rajasthan,Jaipur,"Mansarovar Sector-12, Jaipur - RSPCB",29-12-2025 08:00:00,26.843698,75.766894,OZONE,7,115,7
India,Rajasthan,Jaipur,"Police Commissionerate, Jaipur - RSPCB",29-12-2025 08:00:00,26.9164092,75.7994901,NO2,102,144,121
India,Rajasthan,Jaipur,"Police Commissionerate, Jaipur - RSPCB",29-12-2025 08:00:00,26.9164092,75.7994901,NH3,7,69,23
India,Rajasthan,Jaipur,"Police Commissionerate, Jaipur - RSPCB",29-12-2025 08:00:00,26.9164092,75.7994901,OZONE,14,76,17
India,Rajasthan,Jaipur,"RIICO Sitapura, Jaipur - RSPCB",29-12-2025 08:00:00,26.786682,75.827928,NO2,26,133,71
India,Rajasthan,Kota,"Dhanmandi, Kota - RSPCB",29-12-2025 08:00:00,25.164090,75.858137,NO2,30,114,62
India,Rajasthan,Kota,"Dhanmandi, Kota - RSPCB",29-12-2025 08:00:00,25.164090,75.858137,SO2,1,115,20
India,Rajasthan,Kota,"Dhanmandi, Kota - RSPCB",29-12-2025 08:00:00,25.164090,75.858137,OZONE,3,118,3
India,Rajasthan,Kota,"Nayapura, Kota - RSPCB",29-12-2025 08:00:00,25.196024,75.855668,NO2,18,104,58
India,Rajasthan,Kota,"Shrinath Puram, Kota - RSPCB",29-12-2025 08:00:00,25.14389,75.821256,PM10,NA,NA,NA
India,Rajasthan,Kota,"Shrinath Puram, Kota - RSPCB",29-12-2025 08:00:00,25.14389,75.821256,OZONE,5,15,8
India,Rajasthan,Jodhpur,"Jhalamand, Jodhpur - RSPCB",29-12-2025 08:00:00,26.215415,73.070156,SO2,3,14,6
India,Rajasthan,Jodhpur,"Mandor, Jodhpur - RSPCB",29-12-2025 08:00:00,26.358805,73.047444,NO2,17,69,32
India,Rajasthan,Jodhpur,"Mandor, Jodhpur - RSPCB",29-12-2025 08:00:00,26.358805,73.047444,CO,15,64,31
India,Rajasthan,Jodhpur,"Samrat Ashok Udhyan, Jodhpur - RSPCB",29-12-2025 08:00:00,26.253384,72.976571,PM10,69,455,163
India,Rajasthan,Jodhpur,"Samrat Ashok Udhyan, Jodhpur - RSPCB",29-12-2025 08:00:00,26.253384,72.976571,SO2,4,36,11
India,Rajasthan,Jodhpur,"Collectorate, Jodhpur - RSPCB",29-12-2025 08:00:00,26.268249,73.0193853,PM2.5,44,292,122
India,Rajasthan,Jodhpur,"Collectorate, Jodhpur - RSPCB",29-12-2025 08:00:00,26.268249,73.0193853,OZONE,10,129,17
India,Rajasthan,Jodhpur,"Digari Kalan, Jodhpur - RSPCB",29-12-2025 08:00:00,26.295810,73.082283,PM2.5,38,341,114
India,Rajasthan,Jodhpur,"Digari Kalan, Jodhpur - RSPCB",29-12-2025 08:00:00,26.295810,73.082283,NH3,6,14,8
India,TamilNadu,Chennai,"Manali, Chennai - CPCB",29-12-2025 08:00:00,13.164544,80.26285,PM2.5,17,279,115
India,TamilNadu,Chennai,"Manali, Chennai - CPCB",29-12-2025 08:00:00,13.164544,80.26285,PM10,93,204,138
India,TamilNadu,Chennai,"Manali, Chennai - CPCB",29-12-2025 08:00:00,13.164544,80.26285,NH3,7,8,7
India,TamilNadu,Chennai,"Royapuram, Chennai - TNPCB",29-12-2025 08:00:00,13.1036,80.2909,NO2,1,39,4
India,Rajasthan,Jaipur,"Sector-2 Murlipura, Jaipur - RSPCB",29-12-2025 08:00:00,26.960669,75.771817,OZONE,3,94,21
India,Rajasthan,Jalore,"Mudtra Sili, Jalore - RSPCB",29-12-2025 08:00:00,25.344694,72.626208,OZONE,8,115,25
India,Rajasthan,Pratapgarh,"Pragati Nagar, Pratapgarh - RSPCB",29-12-2025 08:00:00,24.041198,74.780702,NH3,6,8,7
India,TamilNadu,Gummidipoondi,"Anthoni Pillai Nagar, Gummidipoondi - TNPCB",29-12-2025 08:00:00,13.4127,80.1081,NH3,2,3,2
India,TamilNadu,Karur,"Kamadenu Nagar, Karur - TNPCB",29-12-2025 08:00:00,10.967820,78.080882,NO2,5,6,6
India,TamilNadu,Karur,"Kamadenu Nagar, Karur - TNPCB",29-12-2025 08:00:00,10.967820,78.080882,SO2,14,15,15
India,TamilNadu,Madurai,"Uchapatti, Madurai - TNPCB",29-12-2025 08:00:00,9.865935,78.022669,NO2,NA,NA,NA
India,TamilNadu,Madurai,"Uchapatti, Madurai - TNPCB",29-12-2025 08:00:00,9.865935,78.022669,SO2,NA,NA,NA
India,TamilNadu,Madurai,"Uchapatti, Madurai - TNPCB",29-12-2025 08:00:00,9.865935,78.022669,OZONE,1,1,1
India,TamilNadu,Perundurai,"SIPCOT Industrial Park, Perundurai - TNPCB",29-12-2025 08:00:00,11.258242,77.552761,NO2,12,13,12
India,TamilNadu,Chennai,"Velachery Res. Area, Chennai - CPCB",29-12-2025 08:00:00,13.0052189,80.2398125,PM10,118,131,123
India,TamilNadu,Coimbatore,"PSG College of Arts and Science, Coimbatore - TNPCB",29-12-2025 08:00:00,11.0328,77.0349,NO2,NA,NA,NA
India,TamilNadu,Coimbatore,"PSG College of Arts and Science, Coimbatore - TNPCB",29-12-2025 08:00:00,11.0328,77.0349,NH3,NA,NA,NA
India,TamilNadu,Coimbatore,"SIDCO Kurichi, Coimbatore - TNPCB",29-12-2025 08:00:00,10.942451,76.978996,PM10,51,64,57
India,TamilNadu,Coimbatore,"SIDCO Kurichi, Coimbatore - TNPCB",29-12-2025 08:00:00,10.942451,76.978996,NH3,2,2,2
India,TamilNadu,Cuddalore,"Kudikadu, Cuddalore - TNPCB",29-12-2025 08:00:00,11.6829898,79.7532099,OZONE,12,14,13
India,Uttar_Pradesh,Agra,"Rohta, Agra - UPPCB",29-12-2025 08:00:00,27.106972,78.000111,NO2,13,13,13
India,Uttar_Pradesh,Agra,"Rohta, Agra - UPPCB",29-12-2025 08:00:00,27.106972,78.000111,SO2,15,23,19
India,Uttar_Pradesh,Agra,"Sanjay Palace, Agra - UPPCB",29-12-2025 08:00:00,27.19865833,78.00598056,NO2,3,10,6
India,Uttar_Pradesh,Agra,"Sanjay Palace, Agra - UPPCB",29-12-2025 08:00:00,27.19865833,78.00598056,OZONE,3,4,3
India,Uttar_Pradesh,Agra,"Sector-3B Avas Vikas Colony, Agra - UPPCB",29-12-2025 08:00:00,27.19412,77.96237,NH3,7,8,8
India,Uttar_Pradesh,Agra,"Sector-3B Avas Vikas Colony, Agra - UPPCB",29-12-2025 08:00:00,27.19412,77.96237,CO,16,46,24
India,Uttar_Pradesh,Agra,"Shahjahan Garden, Agra - UPPCB",29-12-2025 08:00:00,27.169338,78.03582,SO2,16,21,18
India,Telangana,Hyderabad,"Kompally Municipal Office, Hyderabad - TSPCB",29-12-2025 08:00:00,17.544899,78.486949,PM10,66,92,76
India,Telangana,Hyderabad,"Kompally Municipal Office, Hyderabad - TSPCB",29-12-2025 08:00:00,17.544899,78.486949,CO,7,12,8
India,Telangana,Hyderabad,"New Malakpet, Hyderabad - TSPCB",29-12-2025 08:00:00,17.37206,78.50864,NO2,12,17,14
India,Telangana,Hyderabad,"New Malakpet, Hyderabad - TSPCB",29-12-2025 08:00:00,17.37206,78.50864,OZONE,10,38,10
India,Telangana,Hyderabad,"Sanathnagar, Hyderabad - TSPCB",29-12-2025 08:00:00,17.4559458,78.4332152,SO2,7,19,14
India,Telangana,Hyderabad,"IITH Kandi, Hyderabad - TSPCB",29-12-2025 08:00:00,17.585705,78.126199,SO2,9,13,10
India,Telangana,Hyderabad,"IITH Kandi, Hyderabad - TSPCB",29-12-2025 08:00:00,17.585705,78.126199,CO,9,37,30
India,Telangana,Hyderabad,"Kokapet, Hyderabad - TSPCB",29-12-2025 08:00:00,17.393559,78.339194,PM10,85,102,93
India,Telangana,Hyderabad,"Kokapet, Hyderabad - TSPCB",29-12-2025 08:00:00,17.393559,78.339194,NH3,2,2,2
India,Telangana,Hyderabad,"Kompally Municipal Office, Hyderabad - TSPCB",29-12-2025 08:00:00,17.544899,78.486949,PM2.5,42,56,49
India,Telangana,Hyderabad,"Sanathnagar, Hyderabad - TSPCB",29-12-2025 08:00:00,17.4559458,78.4332152,OZONE,12,15,14
India,Telangana,Hyderabad,"Zoo Park, Hyderabad - TSPCB",29-12-2025 08:00:00,17.349694,78.451437,PM10,110,155,136
India,Telangana,Hyderabad,"Zoo Park, Hyderabad - TSPCB",29-12-2025 08:00:00,17.349694,78.451437,NH3,3,3,3
India,Uttar_Pradesh,Agra,"Rohta, Agra - UPPCB",29-12-2025 08:00:00,27.106972,78.000111,PM2.5,63,281,136
India,Uttar_Pradesh,Bareilly,"Rajendra Nagar, Bareilly - UPPCB",29-12-2025 08:00:00,28.38910936,79.42963708,NO2,9,10,10
India,Uttar_Pradesh,Bareilly,"Rajendra Nagar, Bareilly - UPPCB",29-12-2025 08:00:00,28.38910936,79.42963708,SO2,36,36,36
India,Uttar_Pradesh,Bulandshahr,"Yamunapuram, Bulandshahr - UPPCB",29-12-2025 08:00:00,28.406963,77.849831,NH3,18,25,21
India,Uttar_Pradesh,Bulandshahr,"Yamunapuram, Bulandshahr - UPPCB",29-12-2025 08:00:00,28.406963,77.849831,CO,82,113,89
India,Telangana,Hyderabad,"Bollaram Industrial Area, Hyderabad - TSPCB",29-12-2025 08:00:00,17.540891,78.358528,NH3,2,6,4
India,Telangana,Hyderabad,"Bollaram Industrial Area, Hyderabad - TSPCB",29-12-2025 08:00:00,17.540891,78.358528,CO,16,42,22
India,Telangana,Hyderabad,"Central University, Hyderabad - TSPCB",29-12-2025 08:00:00,17.460103,78.334361,NH3,3,6,4
India,Telangana,Hyderabad,"Central University, Hyderabad - TSPCB",29-12-2025 08:00:00,17.460103,78.334361,SO2,7,13,10
India,Uttar_Pradesh,Baghpat,"Sardar Patel Inter College, Baghpat - UPPCB",29-12-2025 08:00:00,28.964949,77.278761,CO,10,27,15
India,Uttar_Pradesh,Bareilly,"Civil Lines, Bareilly - UPPCB",29-12-2025 08:00:00,28.359581,79.414455,PM2.5,29,57,43
India,Uttar_Pradesh,Meerut,"Pallavpuram Phase 2, Meerut - UPPCB",29-12-2025 08:00:00,29.063510,77.709723,NO2,21,65,32
India,Uttar_Pradesh,Meerut,"Pallavpuram Phase 2, Meerut - UPPCB",29-12-2025 08:00:00,29.063510,77.709723,NH3,2,3,2
India,Uttar_Pradesh,Meerut,"Pallavpuram Phase 2, Meerut - UPPCB",29-12-2025 08:00:00,29.063510,77.709723,CO,17,107,29
India,Uttar_Pradesh,Moradabad,"Buddhi Vihar, Moradabad - UPPCB",29-12-2025 08:00:00,28.83526,78.74460,PM2.5,90,180,132
India,Uttar_Pradesh,Moradabad,"Buddhi Vihar, Moradabad - UPPCB",29-12-2025 08:00:00,28.83526,78.74460,NH3,5,5,5
India,Uttar_Pradesh,Moradabad,"Eco Herbal Park, Moradabad - UPPCB",29-12-2025 08:00:00,28.840739,78.697531,PM2.5,135,231,180
India,Uttar_Pradesh,Moradabad,"Eco Herbal Park, Moradabad - UPPCB",29-12-2025 08:00:00,28.840739,78.697531,NH3,11,13,12
India,Uttar_Pradesh,Moradabad,"Eco Herbal Park, Moradabad - UPPCB",29-12-2025 08:00:00,28.840739,78.697531,CO,10,102,24
India,Uttar_Pradesh,Moradabad,"Eco Herbal Park, Moradabad - UPPCB",29-12-2025 08:00:00,28.840739,78.697531,OZONE,3,34,20
India,Uttar_Pradesh,Moradabad,"Employment Office, Moradabad - UPPCB",29-12-2025 08:00:00,28.88528,78.73880,PM2.5,104,196,152
India,Uttar_Pradesh,Greater Noida,"Knowledge Park - III, Greater Noida - UPPCB",29-12-2025 08:00:00,28.47272,77.482000,OZONE,2,59,9
India,Uttar_Pradesh,Greater Noida,"Knowledge Park - V, Greater Noida - UPPCB",29-12-2025 08:00:00,28.557054,77.453663,NO2,18,110,54
India,Uttar_Pradesh,Greater Noida,"Knowledge Park - V, Greater Noida - UPPCB",29-12-2025 08:00:00,28.557054,77.453663,NH3,4,15,8
India,Uttar_Pradesh,Hapur,"Anand Vihar, Hapur - UPPCB",29-12-2025 08:00:00,28.725645,77.749675,NH3,1,4,3
India,Uttar_Pradesh,Hapur,"Anand Vihar, Hapur - UPPCB",29-12-2025 08:00:00,28.725645,77.749675,CO,101,113,103
India,Uttar_Pradesh,Jhansi,"Shivaji Nagar, Jhansi - UPPCB",29-12-2025 08:00:00,25.4547,78.6039,SO2,12,15,13
India,Uttar_Pradesh,Jhansi,"Shivaji Nagar, Jhansi - UPPCB",29-12-2025 08:00:00,25.4547,78.6039,OZONE,1,4,2
India,Uttar_Pradesh,Kanpur,"FTI Kidwai Nagar, Kanpur - UPPCB",29-12-2025 08:00:00,26.428282,80.327067,PM10,87,133,106
India,Uttar_Pradesh,Ghaziabad,"Sanjay Nagar, Ghaziabad - UPPCB",29-12-2025 08:00:00,28.685382,77.453839,PM10,182,457,298
India,Uttar_Pradesh,Ghaziabad,"Sanjay Nagar, Ghaziabad - UPPCB",29-12-2025 08:00:00,28.685382,77.453839,SO2,8,16,12
India,Uttar_Pradesh,Ghaziabad,"Vasundhara, Ghaziabad - UPPCB",29-12-2025 08:00:00,28.6603346,77.3572563,PM10,284,500,400
India,Uttar_Pradesh,Gorakhpur,"Madan Mohan Malaviya University of Technology, Gorakhpur - UPPCB",29-12-2025 08:00:00,26.730136,83.433859,NH3,1,1,1
India,Uttar_Pradesh,Greater Noida,"Knowledge Park - III, Greater Noida - UPPCB",29-12-2025 08:00:00,28.47272,77.482000,PM2.5,205,479,375
India,Uttar_Pradesh,Greater Noida,"Knowledge Park - III, Greater Noida - UPPCB",29-12-2025 08:00:00,28.47272,77.482000,PM10,122,441,313
India,Uttar_Pradesh,Firozabad,"Nagla Bhau, Firozabad - UPPCB",29-12-2025 08:00:00,27.168897,78.376960,SO2,NA,NA,NA
India,Uttar_Pradesh,Firozabad,"Nagla Bhau, Firozabad - UPPCB",29-12-2025 08:00:00,27.168897,78.376960,CO,8,98,17
India,Uttar_Pradesh,Firozabad,"Vibhab Nagar, Firozabad - UPPCB",29-12-2025 08:00:00,27.1594,78.3953,PM10,76,117,89
India,Uttar_Pradesh,Firozabad,"Vibhab Nagar, Firozabad - UPPCB",29-12-2025 08:00:00,27.1594,78.3953,OZONE,1,1,1
India,Uttar_Pradesh,Ghaziabad,"Loni, Ghaziabad - UPPCB",29-12-2025 08:00:00,28.757294,77.278792,PM2.5,330,428,382
India,Uttar_Pradesh,Ghaziabad,"Loni, Ghaziabad - UPPCB",29-12-2025 08:00:00,28.757294,77.278792,NO2,44,114,75
India,Uttar_Pradesh,Ghaziabad,"Loni, Ghaziabad - UPPCB",29-12-2025 08:00:00,28.757294,77.278792,SO2,11,17,14
India,Uttar_Pradesh,Ghaziabad,"Loni, Ghaziabad - UPPCB",29-12-2025 08:00:00,28.757294,77.278792,OZONE,1,39,1
India,Uttar_Pradesh,Lucknow,"Gomti Nagar, Lucknow - UPPCB",29-12-2025 08:00:00,26.868120,81.005119,PM2.5,64,99,83
India,Uttar_Pradesh,Lucknow,"Gomti Nagar, Lucknow - UPPCB",29-12-2025 08:00:00,26.868120,81.005119,CO,28,31,28
India,Uttar_Pradesh,Lucknow,"Kendriya Vidyalaya, Lucknow - CPCB",29-12-2025 08:00:00,26.906111,80.948222,PM10,141,170,157
India,Uttar_Pradesh,Lucknow,"Kukrail Picnic Spot-1, Lucknow - UPPCB",29-12-2025 08:00:00,26.90723,80.98579,PM2.5,31,89,66
India,Uttar_Pradesh,Lucknow,"Kukrail Picnic Spot-1, Lucknow - UPPCB",29-12-2025 08:00:00,26.90723,80.98579,NO2,29,80,34
India,Uttar_Pradesh,Lucknow,"Kukrail Picnic Spot-1, Lucknow - UPPCB",29-12-2025 08:00:00,26.90723,80.98579,NH3,6,7,6
India,Uttar_Pradesh,Lucknow,"Kukrail Picnic Spot-1, Lucknow - UPPCB",29-12-2025 08:00:00,26.90723,80.98579,CO,10,12,11
India,Uttar_Pradesh,Moradabad,"Employment Office, Moradabad - UPPCB",29-12-2025 08:00:00,28.88528,78.73880,OZONE,15,18,16
India,Uttar_Pradesh,Moradabad,"Jigar Colony, Moradabad - UPPCB",29-12-2025 08:00:00,28.856664,78.772638,SO2,23,51,42
India,Uttar_Pradesh,Moradabad,"Kashiram Nagar, Moradabad - UPPCB",29-12-2025 08:00:00,28.849399,78.742362,OZONE,10,13,12
India,Uttar_Pradesh,Moradabad,"Transport Nagar, Moradabad - UPPCB",29-12-2025 08:00:00,28.802625,78.753728,CO,37,68,67
India,Uttar_Pradesh,Muzaffarnagar,"New Mandi, Muzaffarnagar - UPPCB",29-12-2025 08:00:00,29.4723508,77.7194031,PM2.5,88,392,213
India,Uttar_Pradesh,Kanpur,"NSI Kalyanpur, Kanpur - UPPCB",29-12-2025 08:00:00,26.509954,80.249612,NO2,22,23,22
India,Uttar_Pradesh,Kanpur,"NSI Kalyanpur, Kanpur - UPPCB",29-12-2025 08:00:00,26.509954,80.249612,NH3,3,3,3
India,Uttar_Pradesh,Kanpur,"NSI Kalyanpur, Kanpur - UPPCB",29-12-2025 08:00:00,26.509954,80.249612,OZONE,16,17,16
India,Uttar_Pradesh,Kanpur,"Nehru Nagar, Kanpur - UPPCB",29-12-2025 08:00:00,26.4703136,80.3229863,NO2,34,40,37
India,Uttar_Pradesh,Khurja,"Kalindi Kunj, Khurja - UPPCB",29-12-2025 08:00:00,28.2348927,77.8683002,PM2.5,89,366,219
India,Uttar_Pradesh,Khurja,"Kalindi Kunj, Khurja - UPPCB",29-12-2025 08:00:00,28.2348927,77.8683002,NO2,6,7,6
India,Uttar_Pradesh,Muzaffarnagar,"New Mandi, Muzaffarnagar - UPPCB",29-12-2025 08:00:00,29.4723508,77.7194031,PM10,92,414,179
India,Uttar_Pradesh,Muzaffarnagar,"New Mandi, Muzaffarnagar - UPPCB",29-12-2025 08:00:00,29.4723508,77.7194031,NH3,15,27,19
India,Uttar_Pradesh,Noida,"Sector - 125, Noida - UPPCB",29-12-2025 08:00:00,28.5447608,77.3231257,PM10,196,500,336
India,Uttar_Pradesh,Noida,"Sector-1, Noida - UPPCB",29-12-2025 08:00:00,28.5898,77.3101,PM2.5,349,500,444
India,Uttar_Pradesh,Meerut,"Ganga Nagar, Meerut - UPPCB",29-12-2025 08:00:00,28.999264,77.7590354,NH3,NA,NA,NA
India,Uttar_Pradesh,Meerut,"Ganga Nagar, Meerut - UPPCB",29-12-2025 08:00:00,28.999264,77.7590354,OZONE,NA,NA,NA
India,West_Bengal,Durgapur,"PCBL Residential Complex, Durgapur - WBPCB",29-12-2025 08:00:00,23.5087640,87.3544400,PM2.5,69,170,124
India,West_Bengal,Durgapur,"PCBL Residential Complex, Durgapur - WBPCB",29-12-2025 08:00:00,23.5087640,87.3544400,CO,56,91,68
India,West_Bengal,Durgapur,"Womens College_City Center, Durgapur - WBPCB (Formerly known as Sidhu Kanhu Indoor Stadium)",29-12-2025 08:00:00,23.549395,87.300496,PM10,NA,NA,NA
India,West_Bengal,Durgapur,"Womens College_City Center, Durgapur - WBPCB (Formerly known as Sidhu Kanhu Indoor Stadium)",29-12-2025 08:00:00,23.549395,87.300496,NO2,NA,NA,NA
India,West_Bengal,Durgapur,"Womens College_City Center, Durgapur - WBPCB (Formerly known as Sidhu Kanhu Indoor Stadium)",29-12-2025 08:00:00,23.549395,87.300496,CO,NA,NA,NA
India,West_Bengal,Durgapur,"Womens College_City Center, Durgapur - WBPCB (Formerly known as Sidhu Kanhu Indoor Stadium)",29-12-2025 08:00:00,23.549395,87.300496,OZONE,NA,NA,NA
India,West_Bengal,Haldia,"Priyambada Housing Estate, Haldia - WBPCB",29-12-2025 08:00:00,22.06047,88.109737,PM2.5,230,315,275
India,West_Bengal,Haldia,"Priyambada Housing Estate, Haldia - WBPCB",29-12-2025 08:00:00,22.06047,88.109737,PM10,129,197,156
India,West_Bengal,Haldia,"Priyambada Housing Estate, Haldia - WBPCB",29-12-2025 08:00:00,22.06047,88.109737,NH3,4,5,5
India,Uttar_Pradesh,Prayagraj,"Nagar Nigam, Prayagraj - UPPCB",29-12-2025 08:00:00,25.44919916 ,81.82735986 ,CO,35,46,39
India,Uttar_Pradesh,Prayagraj,"Nagar Nigam, Prayagraj - UPPCB",29-12-2025 08:00:00,25.44919916 ,81.82735986 ,OZONE,10,29,18
India,Uttar_Pradesh,Varanasi,"Ardhali Bazar, Varanasi - UPPCB",29-12-2025 08:00:00,25.3505986,82.9083074,PM10,47,123,82
India,Uttar_Pradesh,Varanasi,"Ardhali Bazar, Varanasi - UPPCB",29-12-2025 08:00:00,25.3505986,82.9083074,SO2,11,12,11
India,Uttar_Pradesh,Varanasi,"Bhelupur, Varanasi - UPPCB",29-12-2025 08:00:00,25.301778,82.996789,PM2.5,35,88,64
India,Uttar_Pradesh,Varanasi,"IESD Banaras Hindu University, Varanasi - UPPCB",29-12-2025 08:00:00,25.262326,82.995408,PM10,32,118,78
India,West_Bengal,Asansol,"Mahabir Colliery, Asansol - WBPCB",29-12-2025 08:00:00,23.6181830,87.1057180,OZONE,6,50,12
India,West_Bengal,Asansol,"Trivenidevi Bhalotia College, Asansol - WBPCB",29-12-2025 08:00:00,23.616515,87.119133,PM2.5,74,237,158
India,West_Bengal,Asansol,"Trivenidevi Bhalotia College, Asansol - WBPCB",29-12-2025 08:00:00,23.616515,87.119133,PM10,71,132,103
India,West_Bengal,Barrackpore,"SVSPA Campus, Barrackpore - WBPCB",29-12-2025 08:00:00,22.7605581,88.3617589,SO2,9,11,9
India,West_Bengal,Durgapur,"Mahishkapur Road_B-Zone, Durgapur - WBPCB",29-12-2025 08:00:00,23.567923,87.306843,OZONE,18,78,30
India,West_Bengal,Kolkata,"Fort William, Kolkata - WBPCB",29-12-2025 08:00:00,22.556640,88.342674,NO2,15,17,16
India,West_Bengal,Kolkata,"Fort William, Kolkata - WBPCB",29-12-2025 08:00:00,22.556640,88.342674,CO,28,60,36
India,West_Bengal,Kolkata,"Fort William, Kolkata - WBPCB",29-12-2025 08:00:00,22.556640,88.342674,OZONE,33,73,44
India,West_Bengal,Kolkata,"Rabindra Bharati University, Kolkata - WBPCB",29-12-2025 08:00:00,22.627847,88.380669,NH3,12,12,12
India,West_Bengal,Kolkata,"Rabindra Bharati University, Kolkata - WBPCB",29-12-2025 08:00:00,22.627847,88.380669,SO2,8,11,9
India,West_Bengal,Kolkata,"Rabindra Sarobar, Kolkata - WBPCB",29-12-2025 08:00:00,22.51106,88.35142,PM2.5,74,132,91
India,Uttar_Pradesh,Noida,"Sector-116, Noida - UPPCB",29-12-2025 08:00:00,28.569230,77.393848,OZONE,7,109,13
India,Uttar_Pradesh,Prayagraj,"Jhunsi, Prayagraj - UPPCB",29-12-2025 08:00:00,25.425602,81.917152,PM2.5,49,157,105
India,Uttar_Pradesh,Prayagraj,"Motilal Nehru NIT, Prayagraj - UPPCB",29-12-2025 08:00:00,25.494,81.863,SO2,20,28,23
India,Uttar_Pradesh,Prayagraj,"Nagar Nigam, Prayagraj - UPPCB",29-12-2025 08:00:00,25.44919916 ,81.82735986 ,NH3,9,12,11
India,West_Bengal,Howrah,"Padmapukur, Howrah - WBPCB",29-12-2025 08:00:00,22.5687319,88.2797276,SO2,4,14,8
India,West_Bengal,Howrah,"Padmapukur, Howrah - WBPCB",29-12-2025 08:00:00,22.5687319,88.2797276,OZONE,4,86,19
India,West_Bengal,Kolkata,"Ballygunge, Kolkata - WBPCB",29-12-2025 08:00:00,22.5367507,88.3638022,NO2,34,82,49
India,West_Bengal,Kolkata,"Bidhannagar, Kolkata - WBPCB",29-12-2025 08:00:00,22.58157048,88.41002457,PM2.5,175,258,219
India,West_Bengal,Kolkata,"Bidhannagar, Kolkata - WBPCB",29-12-2025 08:00:00,22.58157048,88.41002457,NO2,NA,NA,NA
India,Uttar_Pradesh,Varanasi,"Maldahiya, Varanasi - UPPCB",29-12-2025 08:00:00,25.32393,82.99687,SO2,32,33,33
India,Uttar_Pradesh,Vrindavan,"Omex Eternity, Vrindavan - UPPCB",29-12-2025 08:00:00,27.5714090,77.6557570,OZONE,15,15,15
India,Uttarakhand,Kashipur,"Govt. Girls Inter College, Kashipur - UKPCB",29-12-2025 08:00:00,29.2124114,78.9611753,SO2,NA,NA,NA
India,Uttarakhand,Kashipur,"Govt. Girls Inter College, Kashipur - UKPCB",29-12-2025 08:00:00,29.2124114,78.9611753,CO,42,50,47
India,West_Bengal,Howrah,"Belur Math, Howrah - WBPCB",29-12-2025 08:00:00,22.629801,88.352017,NH3,9,11,10
India,West_Bengal,Howrah,"Belur Math, Howrah - WBPCB",29-12-2025 08:00:00,22.629801,88.352017,SO2,8,14,10
India,West_Bengal,Howrah,"Belur Math, Howrah - WBPCB",29-12-2025 08:00:00,22.629801,88.352017,CO,28,64,36
India,West_Bengal,Howrah,"Ghusuri, Howrah - WBPCB",29-12-2025 08:00:00,22.611968,88.347422,PM2.5,176,320,227
India,West_Bengal,Asansol,"Asansol Court Area, Asansol - WBPCB",29-12-2025 08:00:00,23.685297,86.945968,PM2.5,100,204,161
India,West_Bengal,Asansol,"Asansol Court Area, Asansol - WBPCB",29-12-2025 08:00:00,23.685297,86.945968,PM10,100,141,121
India,West_Bengal,Kolkata,"Victoria, Kolkata - WBPCB",29-12-2025 08:00:00,22.5448082,88.3403691,CO,50,100,59
India,West_Bengal,Siliguri,"Ward-32 Bapupara, Siliguri - WBPCB",29-12-2025 08:00:00,26.6879226,88.4152495,NH3,11,11,11
India,Assam,Guwahati,"Pan Bazaar, Guwahati - PCBA",29-12-2025 08:00:00,26.187500,91.744194,SO2,14,20,17
India,Assam,Guwahati,"Railway Colony, Guwahati - PCBA",29-12-2025 08:00:00,26.181742,91.78063,PM2.5,2,2,2
India,Assam,Nagaon,"Christianpatty, Nagaon - PCBA",29-12-2025 08:00:00,26.349082,92.68449,NO2,1,1,1
India,Assam,Nalbari,"Bata Chowk, Nalbari - PCBA",29-12-2025 08:00:00,26.446912,91.439057,PM10,91,128,97
India,Assam,Nalbari,"Bata Chowk, Nalbari - PCBA",29-12-2025 08:00:00,26.446912,91.439057,CO,20,23,21
India,Assam,Silchar,"Tarapur, Silchar - PCBA",29-12-2025 08:00:00,24.82827,92.79525,PM2.5,14,91,51
India,Bihar,Bhagalpur,"DM Office_Kachari Chowk, Bhagalpur - BSPCB",29-12-2025 08:00:00,25.251013,86.989001,NH3,1,1,1
India,Bihar,Bhagalpur,"DM Office_Kachari Chowk, Bhagalpur - BSPCB",29-12-2025 08:00:00,25.251013,86.989001,SO2,19,72,48
India,Bihar,Bhagalpur,"DM Office_Kachari Chowk, Bhagalpur - BSPCB",29-12-2025 08:00:00,25.251013,86.989001,CO,1,5,2
India,Bihar,Bhagalpur,"Mayaganj, Bhagalpur - BSPCB",29-12-2025 08:00:00,25.265194,87.012947,NO2,6,8,7
India,Bihar,Bihar Sharif,"D M Colony, Bihar Sharif - BSPCB",29-12-2025 08:00:00,25.204762,85.514960,SO2,NA,NA,NA
India,Bihar,Buxar,"Charitra Van, Buxar - BSPCB",29-12-2025 08:00:00,25.567520,83.966379,SO2,1,14,4
India,Arunachal_Pradesh,Naharlagun,"Naharlagun, Naharlagun - APSPCB",29-12-2025 08:00:00,27.103358,93.679645,NO2,6,7,7
India,Assam,Byrnihat,"Central Academy for SFS, Byrnihat - PCBA",29-12-2025 08:00:00,26.071318,91.87488,PM2.5,22,177,117
India,Assam,Byrnihat,"Central Academy for SFS, Byrnihat - PCBA",29-12-2025 08:00:00,26.071318,91.87488,OZONE,3,20,15
India,Assam,Guwahati,"LGBI Airport, Guwahati - PCBA",29-12-2025 08:00:00,26.10887,91.589544,NH3,4,6,5
India,Assam,Guwahati,"LGBI Airport, Guwahati - PCBA",29-12-2025 08:00:00,26.10887,91.589544,SO2,5,20,11
India,Andhra_Pradesh,Kadapa,"Yerramukkapalli, Kadapa - APPCB",29-12-2025 08:00:00,14.465052,78.824187,CO,34,48,35
India,Andhra_Pradesh,Rajamahendravaram,"Anand Kala Kshetram, Rajamahendravaram - APPCB",29-12-2025 08:00:00,16.9872867,81.7363176,NO2,18,90,38
India,Andhra_Pradesh,Tirumala,"Toll Gate, Tirumala - APPCB",29-12-2025 08:00:00,13.67,79.35,PM2.5,137,277,217
India,Andhra_Pradesh,Tirupati,"Vaikuntapuram, Tirupati - APPCB",29-12-2025 08:00:00,13.615387,79.409230,NH3,4,4,4
India,Andhra_Pradesh,Amaravati,"Secretariat, Amaravati - APPCB",29-12-2025 08:00:00,16.5150833,80.5181667,NO2,24,91,44
India,Andhra_Pradesh,Chittoor,"Gangineni Cheruvu, Chittoor - APPCB",29-12-2025 08:00:00,13.204880,79.097889,PM2.5,96,323,227
India,Andhra_Pradesh,Chittoor,"Gangineni Cheruvu, Chittoor - APPCB",29-12-2025 08:00:00,13.204880,79.097889,OZONE,49,56,53
India,Andhra_Pradesh,Kadapa,"Yerramukkapalli, Kadapa - APPCB",29-12-2025 08:00:00,14.465052,78.824187,NO2,20,20,20
India,Bihar,Begusarai,"Lohiyanagar, Begusarai - BSPCB",29-12-2025 08:00:00,25.42742023,86.13886079,NH3,10,11,11
India,Bihar,Begusarai,"Lohiyanagar, Begusarai - BSPCB",29-12-2025 08:00:00,25.42742023,86.13886079,SO2,99,105,102
India,Bihar,Bettiah,"Kamalnath Nagar, Bettiah - BSPCB",29-12-2025 08:00:00,26.80365,84.51954,PM10,14,194,74
India,Bihar,Bettiah,"Kamalnath Nagar, Bettiah - BSPCB",29-12-2025 08:00:00,26.80365,84.51954,NH3,1,1,1
India,Andhra_Pradesh,Visakhapatnam,"GVM Corporation, Visakhapatnam - APPCB",29-12-2025 08:00:00,17.72,83.3,PM2.5,263,353,316
India,Andhra_Pradesh,Visakhapatnam,"GVM Corporation, Visakhapatnam - APPCB",29-12-2025 08:00:00,17.72,83.3,NH3,4,4,4
India,Andhra_Pradesh,Visakhapatnam,"GVM Corporation, Visakhapatnam - APPCB",29-12-2025 08:00:00,17.72,83.3,SO2,8,29,19
India,Andhra_Pradesh,Visakhapatnam,"GVM Corporation, Visakhapatnam - APPCB",29-12-2025 08:00:00,17.72,83.3,OZONE,4,86,6
India,Andhra_Pradesh,Vijayawada,"Rajiv Gandhi Park, Vijayawada - APPCB",29-12-2025 08:00:00,16.509717,80.612222,NH3,1,6,3
India,Andhra_Pradesh,Vijayawada,"Rajiv Gandhi Park, Vijayawada - APPCB",29-12-2025 08:00:00,16.509717,80.612222,CO,16,40,40
India,Andhra_Pradesh,Vijayawada,"Rajiv Nagar, Vijayawada - APPCB",29-12-2025 08:00:00,16.554731,80.649110,SO2,12,15,14
India,Assam,Silchar,"Tarapur, Silchar - PCBA",29-12-2025 08:00:00,24.82827,92.79525,SO2,4,8,6
India,Bihar,Arrah,"New DM Office, Arrah - BSPCB",29-12-2025 08:00:00,25.5626095,84.663264,SO2,10,10,10
India,Bihar,Hajipur,"Industrial Area, Hajipur - BSPCB",29-12-2025 08:00:00,25.697189,85.245900,CO,10,39,15
India,Bihar,Katihar,"Mirchaibari, Katihar - BSPCB",29-12-2025 08:00:00,25.560083,87.553265,NO2,8,11,9
India,Chhattisgarh,Raipur,"AIIMS, Raipur - CECB",29-12-2025 08:00:00,21.258815,81.578979,CO,35,95,79
India,Chhattisgarh,Raipur,"Bhatagaon New ISBT, Raipur - CECB",29-12-2025 08:00:00,21.219665,81.630094,PM10,NA,NA,NA
India,Chhattisgarh,Raipur,"Bhatagaon New ISBT, Raipur - CECB",29-12-2025 08:00:00,21.219665,81.630094,SO2,NA,NA,NA
India,Chhattisgarh,Raipur,"Krishak Nagar, Raipur - CECB",29-12-2025 08:00:00,21.237755,81.705301,PM2.5,45,75,59
India,Chhattisgarh,Raipur,"Siltara Phase-II, Raipur - CECB",29-12-2025 08:00:00,21.371751,81.664929,CO,34,36,35
India,Chhattisgarh,Tumidih,"OP Jindal Industrial Park, Tumidih - CECB",29-12-2025 08:00:00,22.06631475,83.33820077,PM2.5,39,131,79
India,Bihar,Rajgir,"Dangi Tola, Rajgir - BSPCB",29-12-2025 08:00:00,25.03280,85.41948,OZONE,31,37,32
India,Bihar,Samastipur,"DM Office_Kasipur, Samastipur - BSPCB",29-12-2025 08:00:00,25.859655,85.77944,NO2,7,9,8
India,Bihar,Samastipur,"DM Office_Kasipur, Samastipur - BSPCB",29-12-2025 08:00:00,25.859655,85.77944,NH3,1,2,1
India,Bihar,Samastipur,"DM Office_Kasipur, Samastipur - BSPCB",29-12-2025 08:00:00,25.859655,85.77944,CO,48,66,60
India,Bihar,Sasaram,"Dada Peer, Sasaram - BSPCB",29-12-2025 08:00:00,24.952822,84.002396,PM10,71,113,92
India,Bihar,Sasaram,"Dada Peer, Sasaram - BSPCB",29-12-2025 08:00:00,24.952822,84.002396,NO2,2,3,2
India,Chhattisgarh,Korba,"Rampur, Korba - CECB",29-12-2025 08:00:00,22.368195,82.746431,SO2,10,23,15
India,Chhattisgarh,Korba,"Urja Nagar, Korba - CECB",29-12-2025 08:00:00,22.348441,82.549611,PM10,10,97,50
India,Chhattisgarh,Korba,"Urja Nagar, Korba - CECB",29-12-2025 08:00:00,22.348441,82.549611,NH3,1,1,1
India,Chhattisgarh,Korba,"Urja Nagar, Korba - CECB",29-12-2025 08:00:00,22.348441,82.549611,SO2,1,8,4
India,Chhattisgarh,Korba,"Urja Nagar, Korba - CECB",29-12-2025 08:00:00,22.348441,82.549611,CO,22,28,24
India,Chhattisgarh,Kunjemura,"OP Jindal School, Kunjemura - CECB",29-12-2025 08:00:00,22.126650,83.483212,OZONE,2,71,3
India,Chandigarh,Chandigarh,"Sector-25, Chandigarh - CPCC",29-12-2025 08:00:00,30.751462,76.762879,PM2.5,178,339,260
India,Chandigarh,Chandigarh,"Sector-25, Chandigarh - CPCC",29-12-2025 08:00:00,30.751462,76.762879,CO,32,94,58
India,Chandigarh,Chandigarh,"Sector-53, Chandigarh - CPCC",29-12-2025 08:00:00,30.719859,76.738637,NH3,11,17,14
India,Chhattisgarh,Bhilai,"32Bungalows, Bhilai - CECB",29-12-2025 08:00:00,21.194815,81.314770,PM2.5,12,46,26
India,Chhattisgarh,Bhilai,"32Bungalows, Bhilai - CECB",29-12-2025 08:00:00,21.194815,81.314770,NO2,17,87,49
India,Bihar,Patna,"Rajbansi Nagar, Patna - BSPCB",29-12-2025 08:00:00,25.599486,85.113666,SO2,5,7,6
India,Bihar,Patna,"Samanpura, Patna - BSPCB",29-12-2025 08:00:00,25.596727,85.085624,NH3,5,6,5
India,Bihar,Patna,"Samanpura, Patna - BSPCB",29-12-2025 08:00:00,25.596727,85.085624,SO2,1,11,4
India,Bihar,Rajgir,"Dangi Tola, Rajgir - BSPCB",29-12-2025 08:00:00,25.03280,85.41948,PM10,19,170,98
India,Bihar,Rajgir,"Dangi Tola, Rajgir - BSPCB",29-12-2025 08:00:00,25.03280,85.41948,NO2,8,10,9
India,Chhattisgarh,Bhilai,"32Bungalows, Bhilai - CECB",29-12-2025 08:00:00,21.194815,81.314770,CO,14,96,62
India,Chhattisgarh,Bhilai,"Civic Center, Bhilai - Bhilai Steel Plant",29-12-2025 08:00:00,21.185571,81.343175,NH3,6,8,7
India,Chhattisgarh,Bhilai,"Hathkhoj, Bhilai - CECB",29-12-2025 08:00:00,21.224231,81.408350,NH3,4,10,5
India,Chhattisgarh,Korba,"Rampur, Korba - CECB",29-12-2025 08:00:00,22.368195,82.746431,NO2,24,43,31
India,Bihar,Kishanganj,"SDM Office_Khagra, Kishanganj - BSPCB",29-12-2025 08:00:00,26.0881305,87.93840336,PM2.5,67,80,74
India,Bihar,Kishanganj,"SDM Office_Khagra, Kishanganj - BSPCB",29-12-2025 08:00:00,26.0881305,87.93840336,OZONE,16,17,16
India,Bihar,Munger,"Town Hall, Munger - BSPCB",29-12-2025 08:00:00,25.376776,86.471523,NH3,3,12,7
India,Bihar,Muzaffarpur,"Buddha Colony, Muzaffarpur - BSPCB",29-12-2025 08:00:00,26.11442,85.39813,NH3,6,8,7
India,Bihar,Muzaffarpur,"MIT-Daudpur Kothi, Muzaffarpur - BSPCB",29-12-2025 08:00:00,26.1403345,85.3650192,NO2,2,3,2
India,Bihar,Muzaffarpur,"MIT-Daudpur Kothi, Muzaffarpur - BSPCB",29-12-2025 08:00:00,26.1403345,85.3650192,OZONE,14,35,15
India,Bihar,Patna,"Govt. High School Shikarpur, Patna - BSPCB",29-12-2025 08:00:00,25.592539,85.227158,PM2.5,97,183,118
India,Bihar,Patna,"Govt. High School Shikarpur, Patna - BSPCB",29-12-2025 08:00:00,25.592539,85.227158,NO2,9,13,11
India,Chhattisgarh,Tumidih,"OP Jindal Industrial Park, Tumidih - CECB",29-12-2025 08:00:00,22.06631475,83.33820077,PM10,43,198,108
India,Chhattisgarh,Tumidih,"OP Jindal Industrial Park, Tumidih - CECB",29-12-2025 08:00:00,22.06631475,83.33820077,NO2,40,94,58
India,Delhi,Delhi,"Alipur, Delhi - DPCC",29-12-2025 08:00:00,28.815329,77.153010,PM2.5,345,469,382
India,Delhi,Delhi,"Alipur, Delhi - DPCC",29-12-2025 08:00:00,28.815329,77.153010,OZONE,7,30,7
India,Delhi,Delhi,"Anand Vihar, Delhi - DPCC",29-12-2025 08:00:00,28.647622,77.3158090,NO2,53,108,75
India,Delhi,Delhi,"Anand Vihar, Delhi - DPCC",29-12-2025 08:00:00,28.647622,77.3158090,SO2,22,35,28
India,Delhi,Delhi,"Anand Vihar, Delhi - DPCC",29-12-2025 08:00:00,28.647622,77.3158090,CO,90,137,120
India,Delhi,Delhi,"Anand Vihar, Delhi - DPCC",29-12-2025 08:00:00,28.647622,77.3158090,OZONE,2,20,12
India,Delhi,Delhi,"Ashok Vihar, Delhi - DPCC",29-12-2025 08:00:00,28.695381,77.181665,NO2,33,119,69
India,Delhi,Delhi,"IIT Delhi, Delhi - IITM",29-12-2025 08:00:00,28.542460,77.191651,CO,20,109,74
India,Delhi,Delhi,"ITO, Delhi - CPCB",29-12-2025 08:00:00,28.628624,77.241060,NO2,46,137,81
India,Delhi,Delhi,"Jahangirpuri, Delhi - DPCC",29-12-2025 08:00:00,28.732820,77.170633,PM10,195,459,355
India,Delhi,Delhi,"Jahangirpuri, Delhi - DPCC",29-12-2025 08:00:00,28.732820,77.170633,SO2,1,24,11
India,Delhi,Delhi,"Lodhi Road, Delhi - IMD",29-12-2025 08:00:00,28.5918245,77.2273074,PM2.5,245,460,356
India,Delhi,Delhi,"North Campus, DU, Delhi - IMD",29-12-2025 08:00:00,28.6573814,77.1585447,CO,56,162,139
India,Delhi,Delhi,"North Campus, DU, Delhi - IMD",29-12-2025 08:00:00,28.6573814,77.1585447,OZONE,7,114,11
India,Delhi,Delhi,"Okhla Phase-2, Delhi - DPCC",29-12-2025 08:00:00,28.530785,77.271255,PM10,157,500,347
India,Delhi,Delhi,"Okhla Phase-2, Delhi - DPCC",29-12-2025 08:00:00,28.530785,77.271255,NO2,84,238,134
India,Delhi,Delhi,"Okhla Phase-2, Delhi - DPCC",29-12-2025 08:00:00,28.530785,77.271255,CO,4,139,126
India,Delhi,Delhi,"Ashok Vihar, Delhi - DPCC",29-12-2025 08:00:00,28.695381,77.181665,CO,34,129,97
India,Delhi,Delhi,"Aya Nagar, Delhi - IMD",29-12-2025 08:00:00,28.4706914,77.1099364,OZONE,8,84,11
India,Delhi,Delhi,"Burari Crossing, Delhi - IMD",29-12-2025 08:00:00,28.7256504,77.2011573,NO2,51,201,97
India,Delhi,Delhi,"Burari Crossing, Delhi - IMD",29-12-2025 08:00:00,28.7256504,77.2011573,OZONE,11,67,13
India,Delhi,Delhi,"DTU, Delhi - CPCB",29-12-2025 08:00:00,28.7500499,77.1112615,CO,38,106,102
India,Delhi,Delhi,"DTU, Delhi - CPCB",29-12-2025 08:00:00,28.7500499,77.1112615,OZONE,19,31,22
India,Delhi,Delhi,"Dr. Karni Singh Shooting Range, Delhi - DPCC",29-12-2025 08:00:00,28.498571,77.264840,NH3,11,15,13
India,Delhi,Delhi,"NSIT Dwarka, Delhi - CPCB",29-12-2025 08:00:00,28.60909,77.0325413,CO,55,105,69
India,Delhi,Delhi,"Nehru Nagar, Delhi - DPCC",29-12-2025 08:00:00,28.567890,77.250515,PM2.5,318,500,440
India,Delhi,Delhi,"Nehru Nagar, Delhi - DPCC",29-12-2025 08:00:00,28.567890,77.250515,PM10,174,500,366
India,Delhi,Delhi,"Dwarka-Sector 8, Delhi - DPCC ",29-12-2025 08:00:00,28.5710274,77.0719006,SO2,7,31,25
India,Delhi,Delhi,"IHBAS, Dilshad Garden, Delhi - CPCB",29-12-2025 08:00:00,28.6811736,77.3025234,NH3,10,19,14
India,Delhi,Delhi,"CRRI Mathura Road, Delhi - IMD",29-12-2025 08:00:00,28.5512005,77.2735737,PM2.5,241,500,388
India,Delhi,Delhi,"Mandir Marg, Delhi - DPCC",29-12-2025 08:00:00,28.636429,77.201067,OZONE,11,130,13
India,Gujarat,Vapi,"Phase-1 GIDC, Vapi - GPCB",29-12-2025 08:00:00,20.362421,72.918013,PM2.5,38,308,132
India,Gujarat,Vapi,"Phase-1 GIDC, Vapi - GPCB",29-12-2025 08:00:00,20.362421,72.918013,NO2,1,7,4
India,Gujarat,Vapi,"Phase-1 GIDC, Vapi - GPCB",29-12-2025 08:00:00,20.362421,72.918013,SO2,29,32,31
India,Gujarat,Vatva,"Phase-4 GIDC, Vatva - GPCB",29-12-2025 08:00:00,22.969611,72.643500,NO2,47,52,49
India,Gujarat,Vatva,"Phase-4 GIDC, Vatva - GPCB",29-12-2025 08:00:00,22.969611,72.643500,NH3,6,8,7
India,Gujarat,Vatva,"Phase-4 GIDC, Vatva - GPCB",29-12-2025 08:00:00,22.969611,72.643500,CO,10,26,16
India,Haryana,Ambala,"Patti Mehar, Ambala - HSPCB",29-12-2025 08:00:00,30.379589,76.778328,NH3,9,11,10
India,Haryana,Bhiwani,"H.B. Colony, Bhiwani - HSPCB",29-12-2025 08:00:00,28.806223,76.141105,PM10,95,131,111
India,Haryana,Bhiwani,"H.B. Colony, Bhiwani - HSPCB",29-12-2025 08:00:00,28.806223,76.141105,NO2,1,34,31
India,Haryana,Charkhi Dadri,"Mini Secretariat, Charkhi Dadri - HSPCB",29-12-2025 08:00:00,28.593883,76.270653,PM2.5,157,375,293
India,Haryana,Dharuhera,"Municipal Corporation Office, Dharuhera -  HSPCB",29-12-2025 08:00:00,28.206800,76.799700,NO2,9,34,25
India,Haryana,Dharuhera,"Municipal Corporation Office, Dharuhera -  HSPCB",29-12-2025 08:00:00,28.206800,76.799700,OZONE,3,25,4
India,Gujarat,Ahmedabad,"Maninagar, Ahmedabad - GPCB",29-12-2025 08:00:00,23.002657,72.591912,NO2,64,64,64
India,Gujarat,Ahmedabad,"Raikhad, Ahmedabad - IITM",29-12-2025 08:00:00,23.020509,72.579261,NH3,11,20,14
India,Gujarat,Ahmedabad,"Raikhad, Ahmedabad - IITM",29-12-2025 08:00:00,23.020509,72.579261,OZONE,7,71,24
India,Gujarat,Ahmedabad,"Rakhial, Ahmedabad - IITM",29-12-2025 08:00:00,23.016834,72.625775,NH3,3,6,5
India,Gujarat,Ahmedabad,"Rakhial, Ahmedabad - IITM",29-12-2025 08:00:00,23.016834,72.625775,SO2,18,49,27
India,Gujarat,Ankleshwar,"GIDC, Ankleshwar - GPCB",29-12-2025 08:00:00,21.613267,73.010555,CO,33,106,82
India,Gujarat,Gandhinagar,"IIPHG Lekawada, Gandhinagar - IITM",29-12-2025 08:00:00,23.243639,72.68994,PM2.5,68,149,109
India,Gujarat,Gandhinagar,"Sector-10, Gandhinagar - GPCB",29-12-2025 08:00:00,23.221714,72.654328,PM2.5,46,84,68
India,Gujarat,Gandhinagar,"Sector-10, Gandhinagar - GPCB",29-12-2025 08:00:00,23.221714,72.654328,SO2,7,15,12
India,Delhi,Delhi,"Rohini, Delhi - DPCC",29-12-2025 08:00:00,28.732528,77.119920,NH3,16,20,18
India,Delhi,Delhi,"Rohini, Delhi - DPCC",29-12-2025 08:00:00,28.732528,77.119920,CO,34,132,115
India,Delhi,Delhi,"Shadipur, Delhi - CPCB",29-12-2025 08:00:00,28.6514781,77.1473105,PM10,228,462,353
India,Delhi,Delhi,"Shadipur, Delhi - CPCB",29-12-2025 08:00:00,28.6514781,77.1473105,NH3,8,12,10
India,Delhi,Delhi,"Shadipur, Delhi - CPCB",29-12-2025 08:00:00,28.6514781,77.1473105,OZONE,17,55,36
India,Gujarat,Ahmedabad,"Rakhial, Ahmedabad - IITM",29-12-2025 08:00:00,23.016834,72.625775,CO,11,71,25
India,Gujarat,Ahmedabad,"SAC ISRO Satellite, Ahmedabad - IITM",29-12-2025 08:00:00,23.023389,72.515201,CO,1,38,12
India,Gujarat,Ahmedabad,"SVPI Airport Hansol, Ahmedabad - IITM",29-12-2025 08:00:00,23.076793,72.627874,PM10,95,153,117
India,Gujarat,Ahmedabad,"SVPI Airport Hansol, Ahmedabad - IITM",29-12-2025 08:00:00,23.076793,72.627874,SO2,6,15,9
India,Delhi,Delhi,"Sonia Vihar, Delhi - DPCC",29-12-2025 08:00:00,28.710508,77.249485,PM10,254,500,374
India,Delhi,Delhi,"Sonia Vihar, Delhi - DPCC",29-12-2025 08:00:00,28.710508,77.249485,NO2,31,79,47
India,Delhi,Delhi,"Sri Aurobindo Marg, Delhi - DPCC",29-12-2025 08:00:00,28.531346,77.190156,PM10,156,474,273
India,Delhi,Delhi,"Vivek Vihar, Delhi - DPCC",29-12-2025 08:00:00,28.672342,77.315260,PM2.5,380,500,456
India,Delhi,Delhi,"Vivek Vihar, Delhi - DPCC",29-12-2025 08:00:00,28.672342,77.315260,OZONE,2,121,3
India,Gujarat,Ahmedabad,"Chandkheda, Ahmedabad - IITM",29-12-2025 08:00:00,23.107969,72.574648,PM10,89,174,122
India,Gujarat,Ahmedabad,"Gyaspur, Ahmedabad - IITM",29-12-2025 08:00:00,22.977134,72.553024,NO2,40,125,81
India,Delhi,Delhi,"Pusa, Delhi - DPCC",29-12-2025 08:00:00,28.639652,77.146275,PM2.5,342,433,391
India,Delhi,Delhi,"Pusa, Delhi - DPCC",29-12-2025 08:00:00,28.639652,77.146275,SO2,3,10,6
India,Delhi,Delhi,"R K Puram, Delhi - DPCC",29-12-2025 08:00:00,28.563262,77.186937,PM2.5,NA,NA,NA
India,Haryana,Panipat,"Sector-18, Panipat - HSPCB",29-12-2025 08:00:00,29.432304,76.972765,SO2,NA,NA,NA
India,Haryana,Rohtak,"MD University, Rohtak - HSPCB",29-12-2025 08:00:00,28.52123,76.37138,NO2,10,12,11
India,Haryana,Rohtak,"MD University, Rohtak - HSPCB",29-12-2025 08:00:00,28.52123,76.37138,SO2,11,13,12
India,Haryana,Rohtak,"MD University, Rohtak - HSPCB",29-12-2025 08:00:00,28.52123,76.37138,CO,53,58,56
India,Haryana,Sonipat,"Murthal, Sonipat - HSPCB",29-12-2025 08:00:00,29.027200,77.062100,CO,31,73,65
India,Himachal Pradesh,Baddi,"HIMUDA Complex Phase-1, Baddi - HPPCB",29-12-2025 08:00:00,30.943887,76.801991,PM2.5,67,385,288
India,Himachal Pradesh,Baddi,"HIMUDA Complex Phase-1, Baddi - HPPCB",29-12-2025 08:00:00,30.943887,76.801991,PM10,107,329,216
India,Jammu_and_Kashmir,Srinagar,"Khunmoh, Srinagar - JKPCC",29-12-2025 08:00:00,34.06313,74.96017,PM2.5,98,205,140
India,Jammu_and_Kashmir,Srinagar,"Khunmoh, Srinagar - JKPCC",29-12-2025 08:00:00,34.06313,74.96017,PM10,91,135,118
India,Jammu_and_Kashmir,Srinagar,"Khunmoh, Srinagar - JKPCC",29-12-2025 08:00:00,34.06313,74.96017,NO2,4,16,7
India,Jammu_and_Kashmir,Srinagar,"Rajbagh, Srinagar - JKPCC",29-12-2025 08:00:00,34.066206,74.819820,PM2.5,24,45,36
India,Jharkhand,Dhanbad,"Sardar Patel Nagar, Dhanbad - JSPCB",29-12-2025 08:00:00,23.80569,86.44268,NO2,51,53,51
India,Jharkhand,Dhanbad,"Sardar Patel Nagar, Dhanbad - JSPCB",29-12-2025 08:00:00,23.80569,86.44268,CO,1,14,7
India,Jharkhand,Dhanbad,"Sardar Patel Nagar, Dhanbad - JSPCB",29-12-2025 08:00:00,23.80569,86.44268,OZONE,NA,NA,NA
India,Haryana,Fatehabad,"Huda Sector, Fatehabad - HSPCB",29-12-2025 08:00:00,29.503664,75.467934,NH3,13,15,14
India,Haryana,Gurugram,"NISE Gwal Pahari, Gurugram - IMD",29-12-2025 08:00:00,28.422681,77.148944,PM2.5,186,500,343
India,Haryana,Gurugram,"Sector-51, Gurugram - HSPCB",29-12-2025 08:00:00,28.4227,77.0667,OZONE,10,46,12
India,Haryana,Gurugram,"Teri Gram, Gurugram - HSPCB",29-12-2025 08:00:00,28.4275,77.1465,PM10,110,463,230
India,Haryana,Gurugram,"Teri Gram, Gurugram - HSPCB",29-12-2025 08:00:00,28.4275,77.1465,SO2,2,35,24
India,Haryana,Karnal,"Sector-12, Karnal - HSPCB",29-12-2025 08:00:00,29.695300,77.002700,OZONE,36,36,36
India,Haryana,Mandikhera,"General Hospital, Mandikhera(Nuh) - HSPCB",29-12-2025 08:00:00,27.9002,76.9938,NH3,13,14,14
India,Haryana,Mandikhera,"General Hospital, Mandikhera(Nuh) - HSPCB",29-12-2025 08:00:00,27.9002,76.9938,SO2,32,36,34
India,Haryana,Mandikhera,"General Hospital, Mandikhera(Nuh) - HSPCB",29-12-2025 08:00:00,27.9002,76.9938,OZONE,24,30,27
India,Haryana,Manesar,"Sector-2 IMT, Manesar - HSPCB",29-12-2025 08:00:00,28.360699,76.936090,PM10,NA,NA,NA
India,Haryana,Manesar,"Sector-2 IMT, Manesar - HSPCB",29-12-2025 08:00:00,28.360699,76.936090,CO,NA,NA,NA
India,Haryana,Gurugram,"Teri Gram, Gurugram - HSPCB",29-12-2025 08:00:00,28.4275,77.1465,OZONE,9,43,11
India,Haryana,Kaithal,"Rishi Nagar, Kaithal - HSPCB",29-12-2025 08:00:00,29.8006,76.4155,NO2,29,33,31
India,Haryana,Kaithal,"Rishi Nagar, Kaithal - HSPCB",29-12-2025 08:00:00,29.8006,76.4155,SO2,27,35,31
India,Haryana,Karnal,"Sector-12, Karnal - HSPCB",29-12-2025 08:00:00,29.695300,77.002700,PM2.5,151,312,220
India,Haryana,Karnal,"Sector-12, Karnal - HSPCB",29-12-2025 08:00:00,29.695300,77.002700,NH3,6,7,6
India,Karnataka,Belgaum,"Ramteerth Nagar, Belgaum - KSPCB",29-12-2025 08:00:00,15.888653,74.541751,PM2.5,40,154,66
India,Karnataka,Belgaum,"Ramteerth Nagar, Belgaum - KSPCB",29-12-2025 08:00:00,15.888653,74.541751,CO,4,7,5
India,Karnataka,Bengaluru,"BTM Layout, Bengaluru - CPCB",29-12-2025 08:00:00,12.9135218,77.5950804,PM10,109,110,109
India,Karnataka,Bengaluru,"BTM Layout, Bengaluru - CPCB",29-12-2025 08:00:00,12.9135218,77.5950804,NH3,NA,NA,NA
India,Haryana,Narnaul,"Shastri Nagar, Narnaul - HSPCB",29-12-2025 08:00:00,28.060249,76.113115,NO2,88,160,108
India,Haryana,Palwal,"Shyam Nagar, Palwal - HSPCB",29-12-2025 08:00:00,28.1485564,77.3320667,PM10,97,125,110
India,Haryana,Panchgaon,"Amity University, Panchgaon - IITM",29-12-2025 08:00:00,28.3153,76.9143,PM2.5,14,225,76
India,Karnataka,Bengaluru,"BTM Layout, Bengaluru - CPCB",29-12-2025 08:00:00,12.9135218,77.5950804,CO,45,58,52
India,Karnataka,Bengaluru,"BWSSB Kadabesanahalli, Bengaluru - CPCB",29-12-2025 08:00:00,12.9352049,77.6814488,SO2,3,6,5
India,Haryana,Faridabad,"New Industrial Town, Faridabad - HSPCB",29-12-2025 08:00:00,28.39072,77.30059,NH3,11,12,11
India,Karnataka,Tumakuru,"Thimmalapura, Tumakuru - KSPCB",29-12-2025 08:00:00,13.377516,77.099072,PM10,78,186,116
India,Karnataka,Tumakuru,"Thimmalapura, Tumakuru - KSPCB",29-12-2025 08:00:00,13.377516,77.099072,NO2,31,32,32
India,Karnataka,Tumakuru,"Thimmalapura, Tumakuru - KSPCB",29-12-2025 08:00:00,13.377516,77.099072,CO,53,54,54
India,Karnataka,Tumakuru,"Thimmalapura, Tumakuru - KSPCB",29-12-2025 08:00:00,13.377516,77.099072,OZONE,23,23,23
India,Karnataka,Yadgir,"Collector Office, Yadgir - KSPCB",29-12-2025 08:00:00,16.7602,77.1428,PM2.5,97,249,139
India,Karnataka,Yadgir,"Collector Office, Yadgir - KSPCB",29-12-2025 08:00:00,16.7602,77.1428,PM10,90,163,110
India,Karnataka,Yadgir,"Collector Office, Yadgir - KSPCB",29-12-2025 08:00:00,16.7602,77.1428,NO2,4,17,7
India,Kerala,Eloor,"Udyogamandal, Eloor - Kerala PCB",29-12-2025 08:00:00,10.073232,76.302765,PM2.5,81,191,124
India,Kerala,Thiruvananthapuram,"Kariavattom, Thiruvananthapuram - Kerala PCB",29-12-2025 08:00:00,8.563700,76.886500,SO2,1,34,10
India,Kerala,Thiruvananthapuram,"Kariavattom, Thiruvananthapuram - Kerala PCB",29-12-2025 08:00:00,8.563700,76.886500,OZONE,36,37,36
India,Kerala,Thiruvananthapuram,"Plammoodu, Thiruvananthapuram - Kerala PCB",29-12-2025 08:00:00,8.5149093,76.9435879,PM2.5,31,72,43
India,Kerala,Thiruvananthapuram,"Plammoodu, Thiruvananthapuram - Kerala PCB",29-12-2025 08:00:00,8.5149093,76.9435879,PM10,47,105,65
India,Kerala,Thrissur,"Corporation Ground, Thrissur - Kerala PCB",29-12-2025 08:00:00,10.532400,76.215900,SO2,1,1,1
India,Madhya Pradesh,Bhopal,"Idgah Hills, Bhopal - MPPCB",29-12-2025 08:00:00,23.264759,77.381568,PM10,101,191,137
India,Karnataka,Bengaluru,"Jigani, Bengaluru - KSPCB",29-12-2025 08:00:00,12.7816279,77.6299145,OZONE,20,21,21
India,Karnataka,Bengaluru,"Kasturi Nagar, Bengaluru - KSPCB",29-12-2025 08:00:00,13.003872,77.664217,PM2.5,62,63,63
India,Karnataka,Bengaluru,"Kasturi Nagar, Bengaluru - KSPCB",29-12-2025 08:00:00,13.003872,77.664217,NH3,1,1,1
India,Karnataka,Bengaluru,"Peenya, Bengaluru - CPCB",29-12-2025 08:00:00,13.0270199,77.494094,PM2.5,18,97,40
India,Karnataka,Bengaluru,"Peenya, Bengaluru - CPCB",29-12-2025 08:00:00,13.0270199,77.494094,NH3,3,5,4
India,Karnataka,Bengaluru,"Peenya, Bengaluru - CPCB",29-12-2025 08:00:00,13.0270199,77.494094,CO,20,55,30
India,Karnataka,Bengaluru,"RVCE-Mailasandra, Bengaluru - KSPCB",29-12-2025 08:00:00,12.921418,77.502466,NO2,NA,NA,NA
India,Karnataka,Bengaluru,"RVCE-Mailasandra, Bengaluru - KSPCB",29-12-2025 08:00:00,12.921418,77.502466,NH3,NA,NA,NA
India,Karnataka,Bengaluru,"Sanegurava Halli, Bengaluru - KSPCB",29-12-2025 08:00:00,12.990328,77.5431385,PM10,46,50,48
India,Karnataka,Bengaluru,"Shivapura_Peenya, Bengaluru - KSPCB",29-12-2025 08:00:00,13.0246342,77.5080115,PM2.5,67,301,165
India,Karnataka,Bengaluru,"Shivapura_Peenya, Bengaluru - KSPCB",29-12-2025 08:00:00,13.0246342,77.5080115,PM10,104,146,120
India,Karnataka,Bengaluru,"Shivapura_Peenya, Bengaluru - KSPCB",29-12-2025 08:00:00,13.0246342,77.5080115,SO2,8,12,11
India,Karnataka,Bengaluru,"Silk Board, Bengaluru - KSPCB",29-12-2025 08:00:00,12.917348,77.622813,PM2.5,74,158,92
India,Karnataka,Chikkamagaluru,"Kalyana Nagara, Chikkamagaluru - KSPCB",29-12-2025 08:00:00,13.328028,75.797056,PM2.5,NA,NA,NA
India,Karnataka,Madikeri,"Stuart Hill, Madikeri - KSPCB",29-12-2025 08:00:00,12.415911,75.735050,SO2,7,7,7
India,Karnataka,Mangalore,"Kadri, Mangalore - KSPCB",29-12-2025 08:00:00,12.889250,74.853000,PM10,59,110,79
India,Karnataka,Mysuru,"Hebbal 1st Stage, Mysuru - KSPCB",29-12-2025 08:00:00,12.21041,76.37376,OZONE,5,90,10
India,Karnataka,Shivamogga,"Vinoba Nagara, Shivamogga - KSPCB",29-12-2025 08:00:00,13.940000,75.555917,PM10,38,65,48
India,Karnataka,Shivamogga,"Vinoba Nagara, Shivamogga - KSPCB",29-12-2025 08:00:00,13.940000,75.555917,NH3,3,4,3
India,Karnataka,Shivamogga,"Vinoba Nagara, Shivamogga - KSPCB",29-12-2025 08:00:00,13.940000,75.555917,OZONE,14,75,25
India,Madhya Pradesh,Bhopal,"Paryavaran Parisar, Bhopal - MPPCB",29-12-2025 08:00:00,23.210494,77.425409,PM2.5,23,356,146
India,Madhya Pradesh,Bhopal,"T T Nagar, Bhopal - MPPCB",29-12-2025 08:00:00,23.233584,77.400574,NO2,55,103,73
India,Madhya Pradesh,Bhopal,"T T Nagar, Bhopal - MPPCB",29-12-2025 08:00:00,23.233584,77.400574,NH3,6,7,7
India,Madhya Pradesh,Damoh,"Shrivastav Colony, Damoh - MPPCB",29-12-2025 08:00:00,23.81748678,79.446246,SO2,1,27,7
India,Karnataka,Chikkamagaluru,"Kalyana Nagara, Chikkamagaluru - KSPCB",29-12-2025 08:00:00,13.328028,75.797056,SO2,NA,NA,NA
India,Karnataka,Hubballi,"Lingaraj Nagar, Hubballi - KSPCB",29-12-2025 08:00:00,15.3714823,75.1160168,PM10,57,81,60
India,Karnataka,Hubballi,"Lingaraj Nagar, Hubballi - KSPCB",29-12-2025 08:00:00,15.3714823,75.1160168,OZONE,10,16,11
India,Karnataka,Koppal,"Diwator Nagar, Koppal - KSPCB",29-12-2025 08:00:00,15.347630,76.181767,PM10,NA,NA,NA
India,Karnataka,Bengaluru,"Hebbal, Bengaluru - KSPCB",29-12-2025 08:00:00,13.029152,77.585901,PM2.5,78,187,127
India,Karnataka,Bengaluru,"Hombegowda Nagar, Bengaluru - KSPCB",29-12-2025 08:00:00,12.938539,77.590100,PM2.5,32,70,44
India,Karnataka,Bengaluru,"Jayanagar 5th Block, Bengaluru - KSPCB",29-12-2025 08:00:00,12.920984,77.584908,CO,5,80,13
India,Madhya Pradesh,Gwalior,"City Center, Gwalior - MPPCB",29-12-2025 08:00:00,26.203442,78.193251,NO2,16,78,34
India,Madhya Pradesh,Gwalior,"City Center, Gwalior - MPPCB",29-12-2025 08:00:00,26.203442,78.193251,NH3,3,6,5
India,Madhya Pradesh,Gwalior,"City Center, Gwalior - MPPCB",29-12-2025 08:00:00,26.203442,78.193251,SO2,3,29,23
India,Madhya Pradesh,Gwalior,"City Center, Gwalior - MPPCB",29-12-2025 08:00:00,26.203442,78.193251,OZONE,12,76,22
India,Madhya Pradesh,Pithampur,"Sector-2 Industrial Area, Pithampur - MPPCB",29-12-2025 08:00:00,22.624758,75.675238,NO2,17,23,20
India,Madhya Pradesh,Ratlam,"Shasthri Nagar, Ratlam - IPCA Lab",29-12-2025 08:00:00,23.331731,75.045981,PM10,66,140,106
India,Madhya Pradesh,Sagar,"Civil Lines, Sagar - MPPCB",29-12-2025 08:00:00,23.838586,78.759431,PM10,53,156,113
India,Madhya Pradesh,Sagar,"Civil Lines, Sagar - MPPCB",29-12-2025 08:00:00,23.838586,78.759431,OZONE,37,68,53
India,Madhya Pradesh,Sagar,"Deen Dayal Nagar, Sagar - MPPCB",29-12-2025 08:00:00,23.8640158,78.80289321,PM2.5,20,167,82
India,Madhya Pradesh,Sagar,"Deen Dayal Nagar, Sagar - MPPCB",29-12-2025 08:00:00,23.8640158,78.80289321,PM10,72,157,103
India,Maharashtra,Chandrapur,"Chauhan Colony, Chandrapur - MPCB",29-12-2025 08:00:00,19.962900,79.298714,NO2,30,33,32
India,Maharashtra,Chandrapur,"MIDC Khutala, Chandrapur - MPCB",29-12-2025 08:00:00,19.9775302,79.2337086,CO,37,42,38
India,Maharashtra,Dhule,"Deopur, Dhule - MPCB",29-12-2025 08:00:00,20.918946,74.776388,PM2.5,74,196,110
India,Maharashtra,Dhule,"Deopur, Dhule - MPCB",29-12-2025 08:00:00,20.918946,74.776388,OZONE,15,55,18
India,Maharashtra,Jalgaon,"Prabhat Colony, Jalgaon - MPCB",29-12-2025 08:00:00,21.001264,75.565602,PM2.5,62,187,110
