country,state,city,station,last_update,latitude,longitude,pollutant_id,min_value,max_value,avg_value
India,Arunachal_Pradesh,Naharlagun,"Naharlagun, Naharlagun - APSPCB",16-10-2025 07:00:00,27.103358,93.679645,PM10,13,131,57
India,Arunachal_Pradesh,Naharlagun,"Naharlagun, Naharlagun - APSPCB",16-10-2025 07:00:00,27.103358,93.679645,SO2,8,8,8
India,Arunachal_Pradesh,Naharlagun,"Naharlagun, Naharlagun - APSPCB",16-10-2025 07:00:00,27.103358,93.679645,CO,6,18,10
India,Assam,Byrnihat,"Central Academy for SFS, Byrnihat - PCBA",16-10-2025 07:00:00,26.071318,91.87488,SO2,NA,NA,NA
India,Assam,Byrnihat,"Central Academy for SFS, Byrnihat - PCBA",16-10-2025 07:00:00,26.071318,91.87488,CO,35,60,52
India,Assam,Guwahati,"IITG, Guwahati - PCBA",16-10-2025 07:00:00,26.2028636,91.70046436,NO2,1,5,3
India,Assam,Guwahati,"LGBI Airport, Guwahati - PCBA",16-10-2025 07:00:00,26.10887,91.589544,PM10,46,49,48
India,Assam,Guwahati,"LGBI Airport, Guwahati - PCBA",16-10-2025 07:00:00,26.10887,91.589544,NO2,4,59,17
India,Assam,Guwahati,"LGBI Airport, Guwahati - PCBA",16-10-2025 07:00:00,26.10887,91.589544,OZONE,13,18,14
India,Assam,Guwahati,"Pan Bazaar, Guwahati - PCBA",16-10-2025 07:00:00,26.187500,91.744194,PM2.5,20,64,40
India,Andhra_Pradesh,Vijayawada,"HB Colony, Vijayawada - APPCB",16-10-2025 07:00:00,16.536107,80.594233,PM2.5,72,87,79
India,Andhra_Pradesh,Vijayawada,"HB Colony, Vijayawada - APPCB",16-10-2025 07:00:00,16.536107,80.594233,PM10,69,83,76
India,Andhra_Pradesh,Vijayawada,"HB Colony, Vijayawada - APPCB",16-10-2025 07:00:00,16.536107,80.594233,CO,28,40,34
India,Andhra_Pradesh,Vijayawada,"HB Colony, Vijayawada - APPCB",16-10-2025 07:00:00,16.536107,80.594233,OZONE,NA,NA,NA
India,Andhra_Pradesh,Vijayawada,"Rajiv Gandhi Park, Vijayawada - APPCB",16-10-2025 07:00:00,16.509717,80.612222,PM10,71,104,92
India,Andhra_Pradesh,Vijayawada,"Rajiv Gandhi Park, Vijayawada - APPCB",16-10-2025 07:00:00,16.509717,80.612222,NH3,2,4,3
India,Andhra_Pradesh,Vijayawada,"Rajiv Nagar, Vijayawada - APPCB",16-10-2025 07:00:00,16.554731,80.649110,NO2,6,15,12
India,Andhra_Pradesh,Visakhapatnam,"GVM Corporation, Visakhapatnam - APPCB",16-10-2025 07:00:00,17.72,83.3,SO2,8,16,11
India,Bihar,Buxar,"Charitra Van, Buxar - BSPCB",16-10-2025 07:00:00,25.567520,83.966379,PM10,68,71,71
India,Bihar,Buxar,"Charitra Van, Buxar - BSPCB",16-10-2025 07:00:00,25.567520,83.966379,OZONE,2,116,3
India,Bihar,Chhapra,"Darshan Nagar, Chhapra - BSPCB",16-10-2025 07:00:00,25.7808257,84.7446768,OZONE,15,32,19
India,Bihar,Gaya,"Collectorate, Gaya - BSPCB",16-10-2025 07:00:00,24.7955,84.9994,CO,41,60,44
India,Bihar,Gaya,"Kareemganj, Gaya - BSPCB",16-10-2025 07:00:00,24.792403,84.992416,PM2.5,52,180,102
India,Bihar,Gaya,"Kareemganj, Gaya - BSPCB",16-10-2025 07:00:00,24.792403,84.992416,OZONE,3,25,11
India,Andhra_Pradesh,Amaravati,"Secretariat, Amaravati - APPCB",16-10-2025 07:00:00,16.5150833,80.5181667,OZONE,15,36,19
India,Andhra_Pradesh,Anantapur,"Gulzarpet, Anantapur - APPCB",16-10-2025 07:00:00,14.675886,77.593027,CO,10,22,17
India,Andhra_Pradesh,Anantapur,"Gulzarpet, Anantapur - APPCB",16-10-2025 07:00:00,14.675886,77.593027,OZONE,8,13,11
India,Andhra_Pradesh,Chittoor,"Gangineni Cheruvu, Chittoor - APPCB",16-10-2025 07:00:00,13.204880,79.097889,NO2,10,17,14
India,Andhra_Pradesh,Chittoor,"Gangineni Cheruvu, Chittoor - APPCB",16-10-2025 07:00:00,13.204880,79.097889,SO2,2,18,10
India,Bihar,Bettiah,"Kamalnath Nagar, Bettiah - BSPCB",16-10-2025 07:00:00,26.80365,84.51954,CO,47,68,60
India,Bihar,Bettiah,"Kamalnath Nagar, Bettiah - BSPCB",16-10-2025 07:00:00,26.80365,84.51954,OZONE,24,31,25
India,Bihar,Bhagalpur,"Mayaganj, Bhagalpur - BSPCB",16-10-2025 07:00:00,25.265194,87.012947,OZONE,17,106,25
India,Bihar,Bihar Sharif,"D M Colony, Bihar Sharif - BSPCB",16-10-2025 07:00:00,25.204762,85.514960,PM2.5,29,62,50
India,Andhra_Pradesh,Chittoor,"Gangineni Cheruvu, Chittoor - APPCB",16-10-2025 07:00:00,13.204880,79.097889,CO,28,58,48
India,Andhra_Pradesh,Kadapa,"Yerramukkapalli, Kadapa - APPCB",16-10-2025 07:00:00,14.465052,78.824187,PM2.5,44,186,65
India,Andhra_Pradesh,Rajamahendravaram,"Anand Kala Kshetram, Rajamahendravaram - APPCB",16-10-2025 07:00:00,16.9872867,81.7363176,CO,11,38,19
India,Bihar,Muzaffarpur,"Buddha Colony, Muzaffarpur - BSPCB",16-10-2025 07:00:00,26.11442,85.39813,PM2.5,67,157,107
India,Bihar,Muzaffarpur,"Buddha Colony, Muzaffarpur - BSPCB",16-10-2025 07:00:00,26.11442,85.39813,NO2,2,10,6
India,Bihar,Muzaffarpur,"Buddha Colony, Muzaffarpur - BSPCB",16-10-2025 07:00:00,26.11442,85.39813,SO2,3,5,4
India,Bihar,Muzaffarpur,"MIT-Daudpur Kothi, Muzaffarpur - BSPCB",16-10-2025 07:00:00,26.1403345,85.3650192,PM2.5,37,63,49
India,Assam,Nagaon,"Christianpatty, Nagaon - PCBA",16-10-2025 07:00:00,26.349082,92.68449,PM2.5,28,60,54
India,Assam,Nagaon,"Christianpatty, Nagaon - PCBA",16-10-2025 07:00:00,26.349082,92.68449,PM10,32,51,47
India,Assam,Nalbari,"Bata Chowk, Nalbari - PCBA",16-10-2025 07:00:00,26.446912,91.439057,SO2,20,21,21
India,Bihar,Hajipur,"Industrial Area, Hajipur - BSPCB",16-10-2025 07:00:00,25.697189,85.245900,CO,NA,NA,NA
India,Bihar,Manguraha,"Forest Rest House, Manguraha - BSPCB",16-10-2025 07:00:00,27.308328,84.531742,PM2.5,37,208,54
India,Bihar,Arrah,"New DM Office, Arrah - BSPCB",16-10-2025 07:00:00,25.5626095,84.663264,NO2,5,8,7
India,Bihar,Arrah,"New DM Office, Arrah - BSPCB",16-10-2025 07:00:00,25.5626095,84.663264,CO,40,60,55
India,Bihar,Samastipur,"DM Office_Kasipur, Samastipur - BSPCB",16-10-2025 07:00:00,25.859655,85.77944,PM10,33,70,45
India,Bihar,Siwan,"Chitragupta Nagar, Siwan - BSPCB",16-10-2025 07:00:00,26.2271665,84.3570427,PM10,79,155,116
India,Bihar,Siwan,"Chitragupta Nagar, Siwan - BSPCB",16-10-2025 07:00:00,26.2271665,84.3570427,NO2,1,1,1
India,Bihar,Siwan,"Chitragupta Nagar, Siwan - BSPCB",16-10-2025 07:00:00,26.2271665,84.3570427,NH3,1,1,1
India,Bihar,Siwan,"Chitragupta Nagar, Siwan - BSPCB",16-10-2025 07:00:00,26.2271665,84.3570427,CO,88,109,94
India,Bihar,Siwan,"Chitragupta Nagar, Siwan - BSPCB",16-10-2025 07:00:00,26.2271665,84.3570427,OZONE,3,4,4
India,Chandigarh,Chandigarh,"Sector 22, Chandigarh - CPCC",16-10-2025 07:00:00,30.735567,76.775714,NH3,12,29,20
India,Chandigarh,Chandigarh,"Sector 22, Chandigarh - CPCC",16-10-2025 07:00:00,30.735567,76.775714,SO2,4,13,7
India,Chandigarh,Chandigarh,"Sector 22, Chandigarh - CPCC",16-10-2025 07:00:00,30.735567,76.775714,OZONE,5,180,10
India,Chhattisgarh,Raipur,"Siltara Phase-II, Raipur - CECB",16-10-2025 07:00:00,21.371751,81.664929,CO,12,32,21
India,Chhattisgarh,Tumidih,"OP Jindal Industrial Park, Tumidih - CECB",16-10-2025 07:00:00,22.06631475,83.33820077,PM10,45,113,67
India,Chhattisgarh,Tumidih,"OP Jindal Industrial Park, Tumidih - CECB",16-10-2025 07:00:00,22.06631475,83.33820077,NO2,11,45,21
India,Chhattisgarh,Tumidih,"OP Jindal Industrial Park, Tumidih - CECB",16-10-2025 07:00:00,22.06631475,83.33820077,CO,15,28,19
India,Delhi,Delhi,"Ashok Vihar, Delhi - DPCC",16-10-2025 07:00:00,28.695381,77.181665,PM2.5,80,376,242
India,Delhi,Delhi,"Ashok Vihar, Delhi - DPCC",16-10-2025 07:00:00,28.695381,77.181665,CO,6,137,88
India,Delhi,Delhi,"Bawana, Delhi - DPCC",16-10-2025 07:00:00,28.776200,77.051074,NO2,10,83,45
India,Delhi,Delhi,"Bawana, Delhi - DPCC",16-10-2025 07:00:00,28.776200,77.051074,NH3,4,7,6
India,Delhi,Delhi,"Bawana, Delhi - DPCC",16-10-2025 07:00:00,28.776200,77.051074,OZONE,2,154,6
India,Delhi,Delhi,"Burari Crossing, Delhi - IMD",16-10-2025 07:00:00,28.7256504,77.2011573,PM2.5,9,337,221
India,Delhi,Delhi,"Burari Crossing, Delhi - IMD",16-10-2025 07:00:00,28.7256504,77.2011573,NO2,16,35,23
India,Delhi,Delhi,"Chandni Chowk, Delhi - IITM",16-10-2025 07:00:00,28.656756,77.227234,PM10,147,466,285
India,Delhi,Delhi,"Chandni Chowk, Delhi - IITM",16-10-2025 07:00:00,28.656756,77.227234,SO2,10,35,21
India,Chhattisgarh,Bilaspur,"Mangala, Bilaspur - NTPC",16-10-2025 07:00:00,22.08815,82.13737,NO2,NA,NA,NA
India,Chhattisgarh,Bilaspur,"Mangala, Bilaspur - NTPC",16-10-2025 07:00:00,22.08815,82.13737,CO,NA,NA,NA
India,Chhattisgarh,Chhal,"Nawapara SECL Colony, Chhal - CECB",16-10-2025 07:00:00,22.118125,83.140608,CO,10,28,10
India,Chhattisgarh,Chhal,"Nawapara SECL Colony, Chhal - CECB",16-10-2025 07:00:00,22.118125,83.140608,OZONE,32,74,34
India,Chhattisgarh,Kunjemura,"OP Jindal School, Kunjemura - CECB",16-10-2025 07:00:00,22.126650,83.483212,NH3,2,2,2
India,Delhi,Delhi,"Dwarka-Sector 8, Delhi - DPCC ",16-10-2025 07:00:00,28.5710274,77.0719006,PM2.5,83,345,253
India,Delhi,Delhi,"Dwarka-Sector 8, Delhi - DPCC ",16-10-2025 07:00:00,28.5710274,77.0719006,NO2,31,164,94
India,Delhi,Delhi,"IGI Airport (T3), Delhi - IMD",16-10-2025 07:00:00,28.5627763,77.1180053,PM10,120,442,277
India,Delhi,Delhi,"IHBAS, Dilshad Garden, Delhi - CPCB",16-10-2025 07:00:00,28.6811736,77.3025234,PM2.5,98,421,247
India,Delhi,Delhi,"IHBAS, Dilshad Garden, Delhi - CPCB",16-10-2025 07:00:00,28.6811736,77.3025234,NH3,4,5,4
India,Chhattisgarh,Milupara,"Govt. Higher Secondary School, Milupara - CECB",16-10-2025 07:00:00,22.1910172,83.5197009,NH3,NA,NA,NA
India,Chhattisgarh,Raipur,"Bhatagaon New ISBT, Raipur - CECB",16-10-2025 07:00:00,21.219665,81.630094,NH3,2,2,2
India,Chhattisgarh,Raipur,"Bhatagaon New ISBT, Raipur - CECB",16-10-2025 07:00:00,21.219665,81.630094,CO,16,57,32
India,Chhattisgarh,Raipur,"Siltara Phase-II, Raipur - CECB",16-10-2025 07:00:00,21.371751,81.664929,NO2,NA,NA,NA
India,Chhattisgarh,Raipur,"Siltara Phase-II, Raipur - CECB",16-10-2025 07:00:00,21.371751,81.664929,SO2,NA,NA,NA
India,Bihar,Patna,"DRM Office Danapur, Patna - BSPCB",16-10-2025 07:00:00,25.586562,85.043586,PM2.5,50,81,63
India,Bihar,Patna,"DRM Office Danapur, Patna - BSPCB",16-10-2025 07:00:00,25.586562,85.043586,NO2,48,55,51
India,Bihar,Patna,"DRM Office Danapur, Patna - BSPCB",16-10-2025 07:00:00,25.586562,85.043586,CO,32,60,44
India,Bihar,Patna,"Govt. High School Shikarpur, Patna - BSPCB",16-10-2025 07:00:00,25.592539,85.227158,CO,12,30,24
India,Bihar,Patna,"IGSC Planetarium Complex, Patna - BSPCB",16-10-2025 07:00:00,25.610369,85.132568,NO2,15,18,17
India,Chandigarh,Chandigarh,"Sector-25, Chandigarh - CPCC",16-10-2025 07:00:00,30.751462,76.762879,PM2.5,75,140,102
India,Chandigarh,Chandigarh,"Sector-25, Chandigarh - CPCC",16-10-2025 07:00:00,30.751462,76.762879,NO2,8,43,19
India,Chandigarh,Chandigarh,"Sector-53, Chandigarh - CPCC",16-10-2025 07:00:00,30.719859,76.738637,NH3,4,7,6
India,Chandigarh,Chandigarh,"Sector-53, Chandigarh - CPCC",16-10-2025 07:00:00,30.719859,76.738637,CO,22,126,62
India,Bihar,Patna,"Rajbansi Nagar, Patna - BSPCB",16-10-2025 07:00:00,25.599486,85.113666,SO2,5,8,7
India,Bihar,Patna,"Rajbansi Nagar, Patna - BSPCB",16-10-2025 07:00:00,25.599486,85.113666,OZONE,7,32,7
India,Gujarat,Ahmedabad,"SAC ISRO Bopal, Ahmedabad - IITM",16-10-2025 07:00:00,23.041137,72.456691,PM2.5,60,301,161
India,Gujarat,Ahmedabad,"SAC ISRO Bopal, Ahmedabad - IITM",16-10-2025 07:00:00,23.041137,72.456691,PM10,63,177,123
India,Gujarat,Ahmedabad,"SAC ISRO Bopal, Ahmedabad - IITM",16-10-2025 07:00:00,23.041137,72.456691,SO2,1,8,2
India,Gujarat,Ahmedabad,"SAC ISRO Satellite, Ahmedabad - IITM",16-10-2025 07:00:00,23.023389,72.515201,PM2.5,NA,NA,NA
India,Gujarat,Ahmedabad,"SAC ISRO Satellite, Ahmedabad - IITM",16-10-2025 07:00:00,23.023389,72.515201,NH3,5,11,7
India,Gujarat,Ahmedabad,"SAC ISRO Satellite, Ahmedabad - IITM",16-10-2025 07:00:00,23.023389,72.515201,SO2,3,17,9
India,Gujarat,Ahmedabad,"SAC ISRO Satellite, Ahmedabad - IITM",16-10-2025 07:00:00,23.023389,72.515201,CO,2,105,65
India,Gujarat,Ankleshwar,"GIDC, Ankleshwar - GPCB",16-10-2025 07:00:00,21.613267,73.010555,PM2.5,81,92,89
India,Gujarat,Ankleshwar,"GIDC, Ankleshwar - GPCB",16-10-2025 07:00:00,21.613267,73.010555,PM10,85,97,94
India,Gujarat,Ankleshwar,"GIDC, Ankleshwar - GPCB",16-10-2025 07:00:00,21.613267,73.010555,OZONE,43,75,44
India,Delhi,Delhi,"Sonia Vihar, Delhi - DPCC",16-10-2025 07:00:00,28.710508,77.249485,SO2,33,48,40
India,Delhi,Delhi,"Sonia Vihar, Delhi - DPCC",16-10-2025 07:00:00,28.710508,77.249485,CO,40,129,114
India,Delhi,Delhi,"Sri Aurobindo Marg, Delhi - DPCC",16-10-2025 07:00:00,28.531346,77.190156,NO2,17,95,32
India,Delhi,Delhi,"Wazirpur, Delhi - DPCC",16-10-2025 07:00:00,28.699793,77.165453,NO2,47,145,98
India,Delhi,Delhi,"Wazirpur, Delhi - DPCC",16-10-2025 07:00:00,28.699793,77.165453,OZONE,8,313,14
India,Gujarat,Ahmedabad,"Chandkheda, Ahmedabad - IITM",16-10-2025 07:00:00,23.107969,72.574648,PM2.5,52,237,116
India,Delhi,Delhi,"NSIT Dwarka, Delhi - CPCB",16-10-2025 07:00:00,28.60909,77.0325413,NH3,6,15,11
India,Delhi,Delhi,"NSIT Dwarka, Delhi - CPCB",16-10-2025 07:00:00,28.60909,77.0325413,CO,30,107,52
India,Delhi,Delhi,"Najafgarh, Delhi - DPCC",16-10-2025 07:00:00,28.570173,76.933762,PM2.5,67,315,192
India,Delhi,Delhi,"Najafgarh, Delhi - DPCC",16-10-2025 07:00:00,28.570173,76.933762,OZONE,4,70,7
India,Delhi,Delhi,"Narela, Delhi - DPCC",16-10-2025 07:00:00,28.822836,77.101981,PM10,99,392,236
India,Delhi,Delhi,"North Campus, DU, Delhi - IMD",16-10-2025 07:00:00,28.6573814,77.1585447,PM10,113,255,181
India,Gujarat,Ahmedabad,"Gyaspur, Ahmedabad - IITM",16-10-2025 07:00:00,22.977134,72.553024,NO2,22,71,48
India,Gujarat,Ahmedabad,"Maninagar, Ahmedabad - GPCB",16-10-2025 07:00:00,23.002657,72.591912,NO2,30,79,40
India,Gujarat,Ahmedabad,"Maninagar, Ahmedabad - GPCB",16-10-2025 07:00:00,23.002657,72.591912,OZONE,24,95,34
India,Gujarat,Ahmedabad,"Raikhad, Ahmedabad - IITM",16-10-2025 07:00:00,23.020509,72.579261,NO2,20,136,74
India,Gujarat,Ahmedabad,"Rakhial, Ahmedabad - IITM",16-10-2025 07:00:00,23.016834,72.625775,PM2.5,53,305,147
India,Gujarat,Ahmedabad,"Rakhial, Ahmedabad - IITM",16-10-2025 07:00:00,23.016834,72.625775,NH3,1,31,10
India,Delhi,Delhi,"Major Dhyan Chand National Stadium, Delhi - DPCC",16-10-2025 07:00:00,28.611281,77.237738,PM10,120,401,197
India,Delhi,Delhi,"Mandir Marg, Delhi - DPCC",16-10-2025 07:00:00,28.636429,77.201067,PM2.5,72,308,192
India,Delhi,Delhi,"Mandir Marg, Delhi - DPCC",16-10-2025 07:00:00,28.636429,77.201067,PM10,87,226,150
India,Delhi,Delhi,"Mandir Marg, Delhi - DPCC",16-10-2025 07:00:00,28.636429,77.201067,NO2,27,48,36
India,Delhi,Delhi,"Mandir Marg, Delhi - DPCC",16-10-2025 07:00:00,28.636429,77.201067,OZONE,8,191,9
India,Delhi,Delhi,"Mundka, Delhi - DPCC",16-10-2025 07:00:00,28.684678,77.076574,NO2,26,107,73
India,Delhi,Delhi,"Okhla Phase-2, Delhi - DPCC",16-10-2025 07:00:00,28.530785,77.271255,PM10,141,382,251
India,Delhi,Delhi,"Okhla Phase-2, Delhi - DPCC",16-10-2025 07:00:00,28.530785,77.271255,SO2,3,15,10
India,Delhi,Delhi,"Patparganj, Delhi - DPCC",16-10-2025 07:00:00,28.623763,77.287209,PM2.5,85,370,234
India,Delhi,Delhi,"Patparganj, Delhi - DPCC",16-10-2025 07:00:00,28.623763,77.287209,NH3,8,15,10
India,Delhi,Delhi,"R K Puram, Delhi - DPCC",16-10-2025 07:00:00,28.563262,77.186937,PM10,72,208,135
India,Gujarat,Gandhinagar,"Sector-10, Gandhinagar - GPCB",16-10-2025 07:00:00,23.221714,72.654328,PM2.5,37,92,61
India,Gujarat,Gandhinagar,"Sector-10, Gandhinagar - GPCB",16-10-2025 07:00:00,23.221714,72.654328,SO2,3,11,8
India,Gujarat,Nandesari,"GIDC, Nandesari - Nandesari Ind. Association",16-10-2025 07:00:00,22.410802,73.097923,PM2.5,52,315,168
India,Gujarat,Nandesari,"GIDC, Nandesari - Nandesari Ind. Association",16-10-2025 07:00:00,22.410802,73.097923,PM10,69,230,144
India,Delhi,Delhi,"Jahangirpuri, Delhi - DPCC",16-10-2025 07:00:00,28.732820,77.170633,NO2,43,108,83
India,Delhi,Delhi,"Jahangirpuri, Delhi - DPCC",16-10-2025 07:00:00,28.732820,77.170633,NH3,1,7,5
India,Delhi,Delhi,"Jahangirpuri, Delhi - DPCC",16-10-2025 07:00:00,28.732820,77.170633,OZONE,6,256,8
India,Delhi,Delhi,"Jawaharlal Nehru Stadium, Delhi - DPCC",16-10-2025 07:00:00,28.580280,77.233829,PM10,128,353,215
India,Delhi,Delhi,"Rohini, Delhi - DPCC",16-10-2025 07:00:00,28.732528,77.119920,CO,4,68,45
India,Delhi,Delhi,"Shadipur, Delhi - CPCB",16-10-2025 07:00:00,28.6514781,77.1473105,SO2,1,114,30
India,Delhi,Delhi,"Sirifort, Delhi - CPCB",16-10-2025 07:00:00,28.5504249,77.2159377,CO,18,119,112
India,Haryana,Mandikhera,"General Hospital, Mandikhera - HSPCB",16-10-2025 07:00:00,27.9002,76.9938,CO,68,92,75
India,Haryana,Manesar,"Sector-2 IMT, Manesar - HSPCB",16-10-2025 07:00:00,28.360699,76.936090,NH3,NA,NA,NA
India,Haryana,Manesar,"Sector-2 IMT, Manesar - HSPCB",16-10-2025 07:00:00,28.360699,76.936090,OZONE,NA,NA,NA
India,Haryana,Palwal,"Shyam Nagar, Palwal - HSPCB",16-10-2025 07:00:00,28.1485564,77.3320667,PM2.5,58,62,60
India,Haryana,Palwal,"Shyam Nagar, Palwal - HSPCB",16-10-2025 07:00:00,28.1485564,77.3320667,NH3,8,9,9
India,Haryana,Panchgaon,"Amity University, Panchgaon - IITM",16-10-2025 07:00:00,28.3153,76.9143,SO2,1,8,5
India,Haryana,Panchkula,"Sector-6, Panchkula - HSPCB ",16-10-2025 07:00:00,30.7057778,76.8531805555555,NO2,25,29,27
India,Haryana,Panchkula,"Sector-6, Panchkula - HSPCB ",16-10-2025 07:00:00,30.7057778,76.8531805555555,OZONE,30,134,102
India,Karnataka,Bengaluru,"Shivapura_Peenya, Bengaluru - KSPCB",16-10-2025 07:00:00,13.0246342,77.5080115,PM10,58,89,70
India,Karnataka,Bengaluru,"Shivapura_Peenya, Bengaluru - KSPCB",16-10-2025 07:00:00,13.0246342,77.5080115,SO2,3,9,6
India,Karnataka,Bengaluru,"Silk Board, Bengaluru - KSPCB",16-10-2025 07:00:00,12.917348,77.622813,PM2.5,10,52,22
India,Karnataka,Bengaluru,"Silk Board, Bengaluru - KSPCB",16-10-2025 07:00:00,12.917348,77.622813,NH3,1,2,2
India,Karnataka,Bengaluru,"Silk Board, Bengaluru - KSPCB",16-10-2025 07:00:00,12.917348,77.622813,SO2,5,11,8
India,Karnataka,Chamarajanagar,"Urban, Chamarajanagar - KSPCB",16-10-2025 07:00:00,11.55358,76.55521,PM2.5,19,49,29
India,Karnataka,Chamarajanagar,"Urban, Chamarajanagar - KSPCB",16-10-2025 07:00:00,11.55358,76.55521,PM10,29,55,39
India,Karnataka,Chamarajanagar,"Urban, Chamarajanagar - KSPCB",16-10-2025 07:00:00,11.55358,76.55521,NO2,14,35,22
India,Karnataka,Davanagere,"Devaraj Urs Badavane, Davanagere - KSPCB",16-10-2025 07:00:00,14.475800,75.905200,NO2,15,24,19
India,Haryana,Jind,"Police Lines, Jind - HSPCB",16-10-2025 07:00:00,29.307814,76.337619,OZONE,1,4,1
India,Haryana,Kaithal,"Rishi Nagar, Kaithal - HSPCB",16-10-2025 07:00:00,29.8006,76.4155,NO2,29,33,31
India,Haryana,Kaithal,"Rishi Nagar, Kaithal - HSPCB",16-10-2025 07:00:00,29.8006,76.4155,SO2,24,26,25
India,Haryana,Karnal,"Sector-12, Karnal - HSPCB",16-10-2025 07:00:00,29.695300,77.002700,PM10,85,217,108
India,Haryana,Karnal,"Sector-12, Karnal - HSPCB",16-10-2025 07:00:00,29.695300,77.002700,NH3,2,7,5
India,Haryana,Kurukshetra,"Sector-7, Kurukshetra - HSPCB",16-10-2025 07:00:00,29.966942,76.875879,SO2,5,11,8
India,Haryana,Kurukshetra,"Sector-7, Kurukshetra - HSPCB",16-10-2025 07:00:00,29.966942,76.875879,OZONE,13,17,14
India,Haryana,Mandikhera,"General Hospital, Mandikhera - HSPCB",16-10-2025 07:00:00,27.9002,76.9938,NH3,1,4,2
India,Karnataka,Bengaluru,"Hebbal, Bengaluru - KSPCB",16-10-2025 07:00:00,13.029152,77.585901,PM2.5,11,41,23
India,Karnataka,Bengaluru,"Hombegowda Nagar, Bengaluru - KSPCB",16-10-2025 07:00:00,12.938539,77.590100,NO2,9,35,18
India,Karnataka,Bengaluru,"Jayanagar 5th Block, Bengaluru - KSPCB",16-10-2025 07:00:00,12.920984,77.584908,CO,2,28,4
India,Karnataka,Bengaluru,"Kasturi Nagar, Bengaluru - KSPCB",16-10-2025 07:00:00,13.003872,77.664217,PM2.5,58,60,59
India,Karnataka,Bengaluru,"Kasturi Nagar, Bengaluru - KSPCB",16-10-2025 07:00:00,13.003872,77.664217,NH3,6,6,6
India,Karnataka,Bengaluru,"Kasturi Nagar, Bengaluru - KSPCB",16-10-2025 07:00:00,13.003872,77.664217,CO,16,42,33
India,Karnataka,Bengaluru,"Peenya, Bengaluru - CPCB",16-10-2025 07:00:00,13.0270199,77.494094,PM2.5,18,39,27
India,Haryana,Fatehabad,"Huda Sector, Fatehabad - HSPCB",16-10-2025 07:00:00,29.503664,75.467934,NO2,18,20,19
India,Haryana,Fatehabad,"Huda Sector, Fatehabad - HSPCB",16-10-2025 07:00:00,29.503664,75.467934,NH3,13,15,14
India,Haryana,Gurugram,"NISE Gwal Pahari, Gurugram - IMD",16-10-2025 07:00:00,28.422681,77.148944,PM10,84,192,143
India,Haryana,Gurugram,"Sector-51, Gurugram - HSPCB",16-10-2025 07:00:00,28.4227,77.0667,OZONE,6,41,8
India,Haryana,Jind,"Police Lines, Jind - HSPCB",16-10-2025 07:00:00,29.307814,76.337619,PM10,59,123,94
India,Haryana,Jind,"Police Lines, Jind - HSPCB",16-10-2025 07:00:00,29.307814,76.337619,NO2,12,13,13
India,Haryana,Jind,"Police Lines, Jind - HSPCB",16-10-2025 07:00:00,29.307814,76.337619,NH3,4,6,5
India,Jharkhand,Jorapokhar,"Tata Stadium, Jorapokhar - JSPCB",16-10-2025 07:00:00,23.707909,86.414670,PM10,NA,NA,NA
India,Karnataka,Bagalkot,"Vidayagiri, Bagalkot - KSPCB",16-10-2025 07:00:00,16.172806,75.659694,PM2.5,33,34,33
India,Karnataka,Bagalkot,"Vidayagiri, Bagalkot - KSPCB",16-10-2025 07:00:00,16.172806,75.659694,NH3,1,2,1
India,Karnataka,Bengaluru,"BTM Layout, Bengaluru - CPCB",16-10-2025 07:00:00,12.9135218,77.5950804,PM10,52,54,53
India,Karnataka,Bengaluru,"Bapuji Nagar, Bengaluru - KSPCB",16-10-2025 07:00:00,12.951913,77.539784,NO2,5,14,9
India,Karnataka,Bengaluru,"Bapuji Nagar, Bengaluru - KSPCB",16-10-2025 07:00:00,12.951913,77.539784,CO,24,92,36
India,Gujarat,Vapi,"Phase-1 GIDC, Vapi - GPCB",16-10-2025 07:00:00,20.362421,72.918013,NH3,NA,NA,NA
India,Gujarat,Vatva,"Phase-4 GIDC, Vatva - GPCB",16-10-2025 07:00:00,22.969611,72.643500,CO,12,40,19
India,Haryana,Ambala,"Patti Mehar, Ambala - HSPCB",16-10-2025 07:00:00,30.379589,76.778328,PM10,44,154,102
India,Haryana,Bahadurgarh,"Arya Nagar, Bahadurgarh - HSPCB",16-10-2025 07:00:00,28.6701,76.9254,NH3,12,13,13
India,Haryana,Ballabgarh,"Nathu Colony, Ballabgarh - HSPCB",16-10-2025 07:00:00,28.3419248,77.319699,PM2.5,67,493,301
India,Haryana,Rohtak,"MD University, Rohtak - HSPCB",16-10-2025 07:00:00,28.52123,76.37138,SO2,6,8,7
India,Himachal Pradesh,Baddi,"HIMUDA Complex Phase-1, Baddi - HPPCB",16-10-2025 07:00:00,30.943887,76.801991,PM2.5,70,320,177
India,Himachal Pradesh,Baddi,"HIMUDA Complex Phase-1, Baddi - HPPCB",16-10-2025 07:00:00,30.943887,76.801991,CO,46,90,71
India,Jammu_and_Kashmir,Srinagar,"Rajbagh, Srinagar - JKSPCB",16-10-2025 07:00:00,34.066206,74.819820,SO2,3,4,3
India,Jammu_and_Kashmir,Srinagar,"Rajbagh, Srinagar - JKSPCB",16-10-2025 07:00:00,34.066206,74.819820,CO,12,16,14
India,Haryana,Charkhi Dadri,"Mini Secretariat, Charkhi Dadri - HSPCB",16-10-2025 07:00:00,28.593883,76.270653,CO,5,25,15
India,Haryana,Faridabad,"New Industrial Town, Faridabad - HSPCB",16-10-2025 07:00:00,28.39072,77.30059,NH3,11,12,11
India,Haryana,Faridabad,"New Industrial Town, Faridabad - HSPCB",16-10-2025 07:00:00,28.39072,77.30059,CO,6,12,12
India,Haryana,Faridabad,"Sector 11, Faridabad - HSPCB",16-10-2025 07:00:00,28.376058,77.315741,PM2.5,17,489,95
India,Haryana,Faridabad,"Sector 11, Faridabad - HSPCB",16-10-2025 07:00:00,28.376058,77.315741,NO2,NA,NA,NA
India,Haryana,Faridabad,"Sector 11, Faridabad - HSPCB",16-10-2025 07:00:00,28.376058,77.315741,OZONE,NA,NA,NA
India,Karnataka,Ramanagara,"Vijay Nagar, Ramanagara - KSPCB",16-10-2025 07:00:00,12.733409,77.298051,CO,6,34,21
India,Karnataka,Shivamogga,"Vinoba Nagara, Shivamogga - KSPCB",16-10-2025 07:00:00,13.940000,75.555917,NO2,14,18,16
India,Karnataka,Vijayapura,"Ibrahimpur, Vijayapura - KSPCB",16-10-2025 07:00:00,16.802639,75.722694,PM2.5,30,37,37
India,Karnataka,Yadgir,"Collector Office, Yadgir - KSPCB",16-10-2025 07:00:00,16.7602,77.1428,CO,12,105,74
India,Kerala,Eloor,"Udyogamandal, Eloor - Kerala PCB",16-10-2025 07:00:00,10.073232,76.302765,PM10,42,162,54
India,Kerala,Eloor,"Udyogamandal, Eloor - Kerala PCB",16-10-2025 07:00:00,10.073232,76.302765,SO2,1,1,1
India,Kerala,Kannur,"Thavakkara, Kannur - Kerala PCB",16-10-2025 07:00:00,11.875000,75.373200,PM10,56,61,57
India,Madhya Pradesh,Pithampur,"Sector-2 Industrial Area, Pithampur - MPPCB",16-10-2025 07:00:00,22.624758,75.675238,PM2.5,63,379,178
India,Madhya Pradesh,Sagar,"Civil Lines, Sagar - MPPCB",16-10-2025 07:00:00,23.838586,78.759431,SO2,18,74,38
India,Madhya Pradesh,Satna,"Bandhavgar Colony, Satna - Birla Cement",16-10-2025 07:00:00,24.58434363,80.8549414,PM10,52,54,53
India,Madhya Pradesh,Satna,"Bandhavgar Colony, Satna - Birla Cement",16-10-2025 07:00:00,24.58434363,80.8549414,SO2,19,22,20
India,Madhya Pradesh,Singrauli,"Suryakiran Bhawan NCL, Singrauli - MPPCB",16-10-2025 07:00:00,24.108970,82.645580,PM10,93,155,125
India,Madhya Pradesh,Singrauli,"Suryakiran Bhawan NCL, Singrauli - MPPCB",16-10-2025 07:00:00,24.108970,82.645580,NO2,22,29,24
India,Madhya Pradesh,Singrauli,"Suryakiran Bhawan NCL, Singrauli - MPPCB",16-10-2025 07:00:00,24.108970,82.645580,CO,12,15,12
India,Madhya Pradesh,Singrauli,"Suryakiran Bhawan NCL, Singrauli - MPPCB",16-10-2025 07:00:00,24.108970,82.645580,OZONE,15,60,17
India,Madhya Pradesh,Gwalior,"Deen Dayal Nagar, Gwalior - MPPCB",16-10-2025 07:00:00,26.259242,78.216432,PM2.5,52,304,160
India,Madhya Pradesh,Gwalior,"Deen Dayal Nagar, Gwalior - MPPCB",16-10-2025 07:00:00,26.259242,78.216432,CO,17,110,47
India,Madhya Pradesh,Gwalior,"Maharaj Bada, Gwalior - MPPCB",16-10-2025 07:00:00,26.200388,78.147714,SO2,3,10,6
India,Madhya Pradesh,Indore,"Airport Area, Indore - IMC",16-10-2025 07:00:00,22.7289,75.8076,PM2.5,48,136,68
India,Madhya Pradesh,Indore,"Airport Area, Indore - IMC",16-10-2025 07:00:00,22.7289,75.8076,OZONE,1,4,1
India,Madhya Pradesh,Indore,"Chhoti Gwaltoli, Indore - MPPCB",16-10-2025 07:00:00,22.4310,75.5213,OZONE,10,77,12
India,Madhya Pradesh,Indore,"Maguda Nagar, Indore - IMC",16-10-2025 07:00:00,22.7524,75.8872,PM10,25,122,76
India,Madhya Pradesh,Bhopal,"Paryavaran Parisar, Bhopal - MPPCB",16-10-2025 07:00:00,23.210494,77.425409,NO2,19,88,38
India,Madhya Pradesh,Bhopal,"Paryavaran Parisar, Bhopal - MPPCB",16-10-2025 07:00:00,23.210494,77.425409,NH3,2,3,2
India,Madhya Pradesh,Bhopal,"Paryavaran Parisar, Bhopal - MPPCB",16-10-2025 07:00:00,23.210494,77.425409,CO,5,88,27
India,Madhya Pradesh,Bhopal,"Paryavaran Parisar, Bhopal - MPPCB",16-10-2025 07:00:00,23.210494,77.425409,OZONE,15,56,26
India,Madhya Pradesh,Bhopal,"T T Nagar, Bhopal - MPPCB",16-10-2025 07:00:00,23.233584,77.400574,NH3,5,6,6
India,Madhya Pradesh,Damoh,"Shrivastav Colony, Damoh - MPPCB",16-10-2025 07:00:00,23.81748678,79.446246,PM10,47,115,90
India,Kerala,Thiruvananthapuram,"Kariavattom, Thiruvananthapuram - Kerala PCB",16-10-2025 07:00:00,8.563700,76.886500,PM10,36,41,39
India,Kerala,Thrissur,"Corporation Ground, Thrissur - Kerala PCB",16-10-2025 07:00:00,10.532400,76.215900,PM2.5,47,55,51
India,Kerala,Thrissur,"Corporation Ground, Thrissur - Kerala PCB",16-10-2025 07:00:00,10.532400,76.215900,NO2,8,10,9
India,Madhya Pradesh,Bhopal,"Idgah Hills, Bhopal - MPPCB",16-10-2025 07:00:00,23.264759,77.381568,PM2.5,73,325,191
India,Karnataka,Dharwad,"Kalabhavan, Dharwad - KSPCB",16-10-2025 07:00:00,15.459706,75.008381,NH3,NA,NA,NA
India,Karnataka,Dharwad,"Kalabhavan, Dharwad - KSPCB",16-10-2025 07:00:00,15.459706,75.008381,CO,NA,NA,NA
India,Karnataka,Haveri,"Ashwini Nagar, Haveri - KSPCB",16-10-2025 07:00:00,14.791800,75.389600,PM10,NA,NA,NA
India,Karnataka,Kalaburagi,"Mahatma Basaveswar Colony, Kalaburgi - KSPCB",16-10-2025 07:00:00,17.336318,76.847397,PM10,16,46,29
India,Karnataka,Kalaburagi,"Mahatma Basaveswar Colony, Kalaburgi - KSPCB",16-10-2025 07:00:00,17.336318,76.847397,OZONE,8,10,10
India,Madhya Pradesh,Indore,"Regional Park, Indore - IMC",16-10-2025 07:00:00,22.6780,75.8559,PM10,NA,NA,NA
India,Madhya Pradesh,Indore,"Regional Park, Indore - IMC",16-10-2025 07:00:00,22.6780,75.8559,OZONE,NA,NA,NA
India,Madhya Pradesh,Indore,"Residency Area, Indore - IMC",16-10-2025 07:00:00,22.7084,75.8815,PM10,56,134,92
India,Madhya Pradesh,Jabalpur,"Gupteshwar, Jabalpur - JMC",16-10-2025 07:00:00,23.142888,79.916147,NH3,2,5,3
India,Karnataka,Karwar,"KHB Colony, Karwar - KSPCB",16-10-2025 07:00:00,14.816666,74.141003,NO2,6,14,7
India,Karnataka,Koppal,"Diwator Nagar, Koppal - KSPCB",16-10-2025 07:00:00,15.347630,76.181767,NO2,NA,NA,NA
India,Karnataka,Mangalore,"Kadri, Mangalore - KSPCB",16-10-2025 07:00:00,12.889250,74.853000,PM10,NA,NA,NA
India,Madhya Pradesh,Damoh,"Shrivastav Colony, Damoh - MPPCB",16-10-2025 07:00:00,23.81748678,79.446246,CO,20,29,25
India,Maharashtra,Mumbai,"Chembur, Mumbai - MPCB",16-10-2025 07:00:00,19.0364585,72.8954371,NO2,7,81,37
India,Maharashtra,Mumbai,"Chhatrapati Shivaji Intl. Airport (T2), Mumbai - MPCB",16-10-2025 07:00:00,19.10078,72.87462,PM2.5,NA,NA,NA
India,Maharashtra,Mumbai,"Chhatrapati Shivaji Intl. Airport (T2), Mumbai - MPCB",16-10-2025 07:00:00,19.10078,72.87462,PM10,NA,NA,NA
India,Maharashtra,Mumbai,"Chhatrapati Shivaji Intl. Airport (T2), Mumbai - MPCB",16-10-2025 07:00:00,19.10078,72.87462,CO,14,34,16
India,Maharashtra,Mumbai,"Colaba, Mumbai - MPCB",16-10-2025 07:00:00,18.910000,72.820000,NO2,25,28,26
India,Maharashtra,Mumbai,"Colaba, Mumbai - MPCB",16-10-2025 07:00:00,18.910000,72.820000,NH3,3,3,3
India,Maharashtra,Mumbai,"Colaba, Mumbai - MPCB",16-10-2025 07:00:00,18.910000,72.820000,SO2,NA,NA,NA
India,Maharashtra,Mumbai,"Colaba, Mumbai - MPCB",16-10-2025 07:00:00,18.910000,72.820000,OZONE,10,11,11
India,Maharashtra,Mumbai,"Deonar, Mumbai - IITM",16-10-2025 07:00:00,19.04946,72.9230,PM2.5,59,177,106
India,Maharashtra,Mumbai,"Deonar, Mumbai - IITM",16-10-2025 07:00:00,19.04946,72.9230,OZONE,2,50,7
India,Maharashtra,Ahmednagar,"Tarakpur, Ahmednagar - MPCB",16-10-2025 07:00:00,19.10122,74.73339,NH3,5,7,6
India,Maharashtra,Ahmednagar,"Tarakpur, Ahmednagar - MPCB",16-10-2025 07:00:00,19.10122,74.73339,CO,10,92,15
India,Maharashtra,Ahmednagar,"Tarakpur, Ahmednagar - MPCB",16-10-2025 07:00:00,19.10122,74.73339,OZONE,8,45,24
India,Maharashtra,Akola,"Ramdaspeth, Akola - MPCB",16-10-2025 07:00:00,20.719516,77.000253,NH3,7,10,8
India,Maharashtra,Amravati,"Shivneri Colony, Amravati - MPCB",16-10-2025 07:00:00,20.9402359,77.7895248,NO2,5,19,11
India,Maharashtra,Amravati,"Shivneri Colony, Amravati - MPCB",16-10-2025 07:00:00,20.9402359,77.7895248,NH3,2,3,3
India,Maharashtra,Amravati,"Shivneri Colony, Amravati - MPCB",16-10-2025 07:00:00,20.9402359,77.7895248,CO,14,38,20
India,Maharashtra,Amravati,"Shivneri Colony, Amravati - MPCB",16-10-2025 07:00:00,20.9402359,77.7895248,OZONE,9,62,14
India,Maharashtra,Aurangabad,"MIDC Chilkalthana, Aurangabad - MPCB",16-10-2025 07:00:00,19.875620,75.387310,CO,8,52,34
India,Maharashtra,Mahad,"Kamble Tarf Birwadi, Mahad - MPCB",16-10-2025 07:00:00,18.1023399,73.4783687,CO,42,47,45
India,Maharashtra,Malegaon,"Mahesh Nagar, Malegaon - MPCB",16-10-2025 07:00:00,20.555712,74.529236,PM2.5,39,211,109
India,Maharashtra,Mira-Bhayandar,"Bhayandar West, Mira-Bhayandar - MPCB",16-10-2025 07:00:00,19.296481,72.840923,PM10,108,155,126
India,Maharashtra,Mira-Bhayandar,"Bhayandar West, Mira-Bhayandar - MPCB",16-10-2025 07:00:00,19.296481,72.840923,NO2,15,82,41
India,Maharashtra,Mira-Bhayandar,"Bhayandar West, Mira-Bhayandar - MPCB",16-10-2025 07:00:00,19.296481,72.840923,SO2,1,4,2
India,Maharashtra,Mumbai,"Bandra Kurla Complex, Mumbai - IITM",16-10-2025 07:00:00,19.053536,72.84643,PM10,NA,NA,NA
India,Maharashtra,Mumbai,"Bandra Kurla Complex, Mumbai - IITM",16-10-2025 07:00:00,19.053536,72.84643,NH3,NA,NA,NA
India,Maharashtra,Mumbai,"Bandra Kurla Complex, Mumbai - MPCB",16-10-2025 07:00:00,19.065931,72.862131,NO2,34,83,54
India,Maharashtra,Mumbai,"Bandra Kurla Complex, Mumbai - MPCB",16-10-2025 07:00:00,19.065931,72.862131,NH3,3,4,4
India,Maharashtra,Mumbai,"Borivali East, Mumbai - IITM",16-10-2025 07:00:00,19.23241,72.86895,PM2.5,73,138,108
India,Maharashtra,Mumbai,"Borivali East, Mumbai - IITM",16-10-2025 07:00:00,19.23241,72.86895,PM10,115,189,158
India,Maharashtra,Mumbai,"Borivali East, Mumbai - IITM",16-10-2025 07:00:00,19.23241,72.86895,NO2,49,132,76
India,Maharashtra,Mumbai,"Byculla, Mumbai - BMC",16-10-2025 07:00:00,18.9767,72.8380,NH3,7,23,13
India,Maharashtra,Mumbai,"Byculla, Mumbai - BMC",16-10-2025 07:00:00,18.9767,72.8380,OZONE,7,92,11
India,Maharashtra,Mumbai,"Chakala-Andheri East, Mumbai - IITM",16-10-2025 07:00:00,19.11074,72.86084,NH3,8,18,13
India,Maharashtra,Mumbai,"Malad West, Mumbai - IITM",16-10-2025 07:00:00,19.19709,72.82204,SO2,1,5,3
India,Maharashtra,Mumbai,"Malad West, Mumbai - IITM",16-10-2025 07:00:00,19.19709,72.82204,OZONE,6,182,10
India,Maharashtra,Mumbai,"Mazgaon, Mumbai - IITM",16-10-2025 07:00:00,18.96702,72.84214,PM10,96,182,138
India,Maharashtra,Mumbai,"Mazgaon, Mumbai - IITM",16-10-2025 07:00:00,18.96702,72.84214,SO2,8,12,10
India,Maharashtra,Mumbai,"Mindspace-Malad West, Mumbai - MPCB",16-10-2025 07:00:00,19.1878657,72.8304069,PM2.5,66,146,114
India,Maharashtra,Mumbai,"Mindspace-Malad West, Mumbai - MPCB",16-10-2025 07:00:00,19.1878657,72.8304069,NH3,7,35,15
India,Maharashtra,Mumbai,"Mindspace-Malad West, Mumbai - MPCB",16-10-2025 07:00:00,19.1878657,72.8304069,CO,28,75,56
India,Maharashtra,Mumbai,"Mulund West, Mumbai - MPCB",16-10-2025 07:00:00,19.1750,72.9419,PM2.5,90,241,137
India,Maharashtra,Mumbai,"Kandivali East, Mumbai - MPCB",16-10-2025 07:00:00,19.205800,72.868200,NH3,1,1,1
India,Maharashtra,Mumbai,"Kandivali West, Mumbai - BMC",16-10-2025 07:00:00,19.215859,72.831718,CO,16,77,35
India,Maharashtra,Mumbai,"Kherwadi_Bandra East, Mumbai - MPCB",16-10-2025 07:00:00,19.0632143,72.8456324,PM2.5,98,186,138
India,Maharashtra,Mumbai,"Kherwadi_Bandra East, Mumbai - MPCB",16-10-2025 07:00:00,19.0632143,72.8456324,NO2,4,56,23
India,Maharashtra,Mumbai,"Khindipada-Bhandup West, Mumbai - IITM",16-10-2025 07:00:00,19.1653323,72.922099,NH3,NA,NA,NA
India,Maharashtra,Mumbai,"Khindipada-Bhandup West, Mumbai - IITM",16-10-2025 07:00:00,19.1653323,72.922099,OZONE,NA,NA,NA
India,Maharashtra,Mumbai,"Kurla, Mumbai - MPCB",16-10-2025 07:00:00,19.0863,72.8888,PM10,NA,NA,NA
India,Maharashtra,Jalna,"Old MIDC, Jalna - MPCB",16-10-2025 07:00:00,19.854616,75.905894,NO2,NA,NA,NA
India,Maharashtra,Jalna,"Old MIDC, Jalna - MPCB",16-10-2025 07:00:00,19.854616,75.905894,SO2,NA,NA,NA
India,Maharashtra,Jalna,"Old MIDC, Jalna - MPCB",16-10-2025 07:00:00,19.854616,75.905894,CO,NA,NA,NA
India,Maharashtra,Kolhapur,"Shivaji University, Kolhapur - MPCB",16-10-2025 07:00:00,16.6870449,74.2505872,SO2,8,9,8
India,Maharashtra,Kolhapur,"Shivaji University, Kolhapur - MPCB",16-10-2025 07:00:00,16.6870449,74.2505872,CO,5,24,12
India,Maharashtra,Latur,"Sawe Wadi, Latur - MPCB",16-10-2025 07:00:00,18.39963,76.57452,PM2.5,24,52,37
India,Maharashtra,Chandrapur,"Chauhan Colony, Chandrapur - MPCB",16-10-2025 07:00:00,19.962900,79.298714,PM2.5,6,43,20
India,Maharashtra,Chandrapur,"MIDC Khutala, Chandrapur - MPCB",16-10-2025 07:00:00,19.9775302,79.2337086,PM2.5,16,95,47
India,Maharashtra,Chandrapur,"MIDC Khutala, Chandrapur - MPCB",16-10-2025 07:00:00,19.9775302,79.2337086,SO2,8,9,9
India,Maharashtra,Badlapur,"Katrap, Badlapur - MPCB",16-10-2025 07:00:00,19.16485,73.23409,CO,16,32,26
India,Maharashtra,Pune,"Katraj Dairy, Pune - MPCB",16-10-2025 07:00:00,18.454450,73.854155,SO2,3,127,31
India,Maharashtra,Pune,"Mhada Colony, Pune - IITM",16-10-2025 07:00:00,18.573040,73.927715,CO,18,106,53
India,Maharashtra,Pune,"Panchawati_Pashan, Pune - IITM",16-10-2025 07:00:00,18.536457,73.805454,PM2.5,30,133,62
India,Maharashtra,Pune,"Panchawati_Pashan, Pune - IITM",16-10-2025 07:00:00,18.536457,73.805454,NO2,19,64,30
India,Maharashtra,Pune,"Revenue Colony-Shivajinagar, Pune - IITM",16-10-2025 07:00:00,18.530085,73.849598,PM2.5,NA,NA,NA
India,Maharashtra,Pune,"Revenue Colony-Shivajinagar, Pune - IITM",16-10-2025 07:00:00,18.530085,73.849598,CO,22,154,72
India,Maharashtra,Pune,"Revenue Colony-Shivajinagar, Pune - IITM",16-10-2025 07:00:00,18.530085,73.849598,OZONE,29,173,115
India,Maharashtra,Pune,"Savitribai Phule Pune University, Pune - MPCB",16-10-2025 07:00:00,18.547056,73.826908,PM2.5,NA,NA,NA
India,Maharashtra,Pune,"Savitribai Phule Pune University, Pune - MPCB",16-10-2025 07:00:00,18.547056,73.826908,SO2,NA,NA,NA
India,Maharashtra,Pune,"Savitribai Phule Pune University, Pune - MPCB",16-10-2025 07:00:00,18.547056,73.826908,OZONE,NA,NA,NA
India,Maharashtra,Pune,"Transport Nagar-Nigdi, Pune - IITM",16-10-2025 07:00:00,18.664282,73.763966,PM2.5,NA,NA,NA
India,Maharashtra,Nagpur,"Mahal, Nagpur - MPCB",16-10-2025 07:00:00,21.14472,79.107595,PM2.5,8,205,116
India,Maharashtra,Nagpur,"Mahal, Nagpur - MPCB",16-10-2025 07:00:00,21.14472,79.107595,NH3,2,3,3
India,Maharashtra,Nagpur,"Opp GPO Civil Lines, Nagpur - MPCB",16-10-2025 07:00:00,21.152875,79.0517531,SO2,6,20,11
India,Maharashtra,Nagpur,"Opp GPO Civil Lines, Nagpur - MPCB",16-10-2025 07:00:00,21.152875,79.0517531,CO,22,110,57
India,Maharashtra,Nagpur,"Ram Nagar, Nagpur - MPCB",16-10-2025 07:00:00,21.143383,79.048912,NO2,10,33,18
India,Maharashtra,Nagpur,"Ram Nagar, Nagpur - MPCB",16-10-2025 07:00:00,21.143383,79.048912,NH3,2,5,3
India,Maharashtra,Nagpur,"Ram Nagar, Nagpur - MPCB",16-10-2025 07:00:00,21.143383,79.048912,SO2,23,33,27
India,Maharashtra,Nagpur,"Ram Nagar, Nagpur - MPCB",16-10-2025 07:00:00,21.143383,79.048912,CO,18,65,44
India,Maharashtra,Nagpur,"Ram Nagar, Nagpur - MPCB",16-10-2025 07:00:00,21.143383,79.048912,OZONE,5,53,7
India,Maharashtra,Nanded,"Sneh Nagar, Nanded - MPCB",16-10-2025 07:00:00,19.173852,77.296291,PM2.5,30,97,51
India,Maharashtra,Nanded,"Sneh Nagar, Nanded - MPCB",16-10-2025 07:00:00,19.173852,77.296291,NH3,3,5,4
India,Maharashtra,Navi Mumbai,"Kopripada-Vashi, Navi Mumbai - MPCB",16-10-2025 07:00:00,19.090337,73.014232,PM10,53,133,85
India,Maharashtra,Navi Mumbai,"Mahape, Navi Mumbai - MPCB",16-10-2025 07:00:00,19.1135051,73.008978,PM10,84,239,119
India,Maharashtra,Navi Mumbai,"Mahape, Navi Mumbai - MPCB",16-10-2025 07:00:00,19.1135051,73.008978,NO2,34,36,35
India,Maharashtra,Navi Mumbai,"Nerul, Navi Mumbai - MPCB",16-10-2025 07:00:00,19.008751,73.016620,PM10,117,308,207
India,Maharashtra,Navi Mumbai,"Nerul, Navi Mumbai - MPCB",16-10-2025 07:00:00,19.008751,73.016620,NO2,31,33,32
India,Maharashtra,Navi Mumbai,"Nerul, Navi Mumbai - MPCB",16-10-2025 07:00:00,19.008751,73.016620,NH3,4,4,4
India,Maharashtra,Navi Mumbai,"Sanpada, Navi Mumbai - MPCB",16-10-2025 07:00:00,19.0575752,73.0151367,PM2.5,76,243,124
India,Maharashtra,Navi Mumbai,"Sanpada, Navi Mumbai - MPCB",16-10-2025 07:00:00,19.0575752,73.0151367,NO2,2,17,7
India,Maharashtra,Sangli,"Vijay Nagar, Sangli - MPCB",16-10-2025 07:00:00, 16.5038,74.3623,SO2,3,8,5
India,Maharashtra,Solapur,"Dnyaneshwar Nagar, Solapur - MPCB",16-10-2025 07:00:00,17.6336264,75.9132495,PM10,27,74,47
India,Maharashtra,Solapur,"Dnyaneshwar Nagar, Solapur - MPCB",16-10-2025 07:00:00,17.6336264,75.9132495,NH3,6,23,10
India,Maharashtra,Solapur,"Ratandeep Housing Society, Solapur - MPCB",16-10-2025 07:00:00,17.65439,75.90649,PM10,29,77,53
India,Maharashtra,Solapur,"Ratandeep Housing Society, Solapur - MPCB",16-10-2025 07:00:00,17.65439,75.90649,SO2,1,4,1
India,Maharashtra,Thane,"Kasarvadavali, Thane - MPCB",16-10-2025 07:00:00,19.26777,72.97182,PM2.5,NA,NA,NA
India,Maharashtra,Thane,"Kasarvadavali, Thane - MPCB",16-10-2025 07:00:00,19.26777,72.97182,NH3,NA,NA,NA
India,Maharashtra,Navi Mumbai,"Tondare-Taloja, Navi Mumbai - MPCB",16-10-2025 07:00:00,19.0630,73.1209,NH3,4,15,10
India,Maharashtra,Parbhani,"Masoom Colony, Parbhani - MPCB",16-10-2025 07:00:00,19.265594,76.761463,PM2.5,37,93,56
India,Maharashtra,Parbhani,"Masoom Colony, Parbhani - MPCB",16-10-2025 07:00:00,19.265594,76.761463,CO,8,14,12
India,Maharashtra,Pimpri-Chinchwad,"Gavalinagar, Pimpri Chinchwad - MPCB",16-10-2025 07:00:00,18.63673,73.82487,OZONE,10,10,10
India,Maharashtra,Pimpri-Chinchwad,"Park Street Wakad, Pimpri Chinchwad - MPCB",16-10-2025 07:00:00,18.59051,73.77946,NH3,1,2,2
India,Maharashtra,Pimpri-Chinchwad,"Savta Mali Nagar, Pimpri-Chinchwad - IITM",16-10-2025 07:00:00,18.614767,73.799516,PM10,43,120,74
India,Maharashtra,Pimpri-Chinchwad,"Thergaon, Pimpri Chinchwad - MPCB",16-10-2025 07:00:00,18.616318,73.765797,SO2,1,4,3
India,Maharashtra,Pune,"Dhankawadi, Pune - IITM",16-10-2025 07:00:00,18.459883,73.852193,OZONE,1,1,1
India,Maharashtra,Pune,"Hadapsar, Pune - IITM",16-10-2025 07:00:00,18.501793,73.927532,CO,10,10,10
India,Maharashtra,Pune,"Katraj Dairy, Pune - MPCB",16-10-2025 07:00:00,18.454450,73.854155,PM2.5,3,83,38
India,Maharashtra,Nanded,"Sneh Nagar, Nanded - MPCB",16-10-2025 07:00:00,19.173852,77.296291,CO,3,84,40
India,Maharashtra,Nashik,"Hirawadi, Nashik - MPCB",16-10-2025 07:00:00,20.021503,73.813844,NO2,2,26,9
India,Maharashtra,Nashik,"MIDC Ambad, Nashik - MPCB",16-10-2025 07:00:00,19.950220,73.731480,PM10,60,249,100
India,Maharashtra,Nashik,"MIDC Ambad, Nashik - MPCB",16-10-2025 07:00:00,19.950220,73.731480,NH3,2,4,3
India,Maharashtra,Mumbai,"Powai, Mumbai - MPCB",16-10-2025 07:00:00,19.137500,72.915056,NH3,2,2,2
India,Maharashtra,Mumbai,"Powai, Mumbai - MPCB",16-10-2025 07:00:00,19.137500,72.915056,SO2,27,28,27
India,Maharashtra,Mumbai,"Sewri, Mumbai - BMC",16-10-2025 07:00:00,19.000084,72.856730,NO2,1,9,4
India,Maharashtra,Mumbai,"Siddharth Nagar-Worli, Mumbai - IITM",16-10-2025 07:00:00,19.000083,72.813993,CO,10,78,67
India,Maharashtra,Mumbai,"Vasai West, Mumbai - MPCB",16-10-2025 07:00:00,19.383200,72.820400,NO2,16,20,17
India,Maharashtra,Mumbai,"Vasai West, Mumbai - MPCB",16-10-2025 07:00:00,19.383200,72.820400,NH3,2,2,2
India,Maharashtra,Mumbai,"Vasai West, Mumbai - MPCB",16-10-2025 07:00:00,19.383200,72.820400,SO2,8,9,8
India,Maharashtra,Mumbai,"Vasai West, Mumbai - MPCB",16-10-2025 07:00:00,19.383200,72.820400,OZONE,11,20,12
India,Odisha,Barbil,"Forest Office, Barbil - OSPCB",16-10-2025 07:00:00,22.1166054,85.3945546,SO2,5,27,12
India,Odisha,Baripada,"Meher Colony, Baripada - OSPCB",16-10-2025 07:00:00,21.941841,86.728318,PM2.5,82,233,140
India,Odisha,Baripada,"Meher Colony, Baripada - OSPCB",16-10-2025 07:00:00,21.941841,86.728318,SO2,4,8,6
India,Odisha,Bhubaneswar,"Lingraj Mandir, Bhubaneswar - OSPCB",16-10-2025 07:00:00,20.240790,85.836784,PM10,94,134,111
India,Odisha,Bhubaneswar,"Lingraj Mandir, Bhubaneswar - OSPCB",16-10-2025 07:00:00,20.240790,85.836784,NH3,5,6,5
India,Odisha,Bhubaneswar,"Patia, Bhubaneswar - OSPCB",16-10-2025 07:00:00,20.34652,85.81630,PM2.5,95,247,162
India,Odisha,Bhubaneswar,"Patia, Bhubaneswar - OSPCB",16-10-2025 07:00:00,20.34652,85.81630,PM10,106,161,132
India,Odisha,Bileipada,"Tata Township, Bileipada - OSPCB",16-10-2025 07:00:00,22.06156703,85.47409613,PM10,13,403,176
India,Odisha,Bileipada,"Tata Township, Bileipada - OSPCB",16-10-2025 07:00:00,22.06156703,85.47409613,NO2,6,7,7
India,Rajasthan,Alwar,"Moti Doongri, Alwar - RSPCB",16-10-2025 07:00:00,27.554793,76.611536,PM10,58,144,99
India,Rajasthan,Alwar,"Moti Doongri, Alwar - RSPCB",16-10-2025 07:00:00,27.554793,76.611536,NH3,3,11,8
India,Rajasthan,Banswara,"Rati Talai, Banswara - RSPCB",16-10-2025 07:00:00,23.555190,74.440010,PM2.5,15,85,47
India,Rajasthan,Banswara,"Rati Talai, Banswara - RSPCB",16-10-2025 07:00:00,23.555190,74.440010,NH3,3,6,5
India,Rajasthan,Banswara,"Rati Talai, Banswara - RSPCB",16-10-2025 07:00:00,23.555190,74.440010,SO2,2,43,22
India,Rajasthan,Banswara,"Rati Talai, Banswara - RSPCB",16-10-2025 07:00:00,23.555190,74.440010,CO,8,64,20
India,Rajasthan,Baran,"Bamboliya, Baran - RSPCB",16-10-2025 07:00:00,25.106006,76.469948,PM2.5,22,88,57
India,Rajasthan,Barmer,"Railway Colony, Barmer - RSPCB",16-10-2025 07:00:00,25.747299,71.393989,PM2.5,24,67,47
India,Rajasthan,Barmer,"Railway Colony, Barmer - RSPCB",16-10-2025 07:00:00,25.747299,71.393989,PM10,79,166,113
India,Rajasthan,Barmer,"Railway Colony, Barmer - RSPCB",16-10-2025 07:00:00,25.747299,71.393989,SO2,3,10,6
India,Maharashtra,Thane,"Upvan Fort, Thane - MPCB",16-10-2025 07:00:00,19.222279,72.957979,NH3,1,2,1
India,Maharashtra,Thane,"Upvan Fort, Thane - MPCB",16-10-2025 07:00:00,19.222279,72.957979,OZONE,1,63,3
India,Maharashtra,Ulhasnagar,"Sidhi Vinayak Nagar, Ulhasnagar - MPCB",16-10-2025 07:00:00,19.235581,73.159121,PM10,76,118,95
India,Maharashtra,Ulhasnagar,"Sidhi Vinayak Nagar, Ulhasnagar - MPCB",16-10-2025 07:00:00,19.235581,73.159121,NH3,3,7,5
India,Maharashtra,Virar,"Bolinj, Virar - MPCB",16-10-2025 07:00:00,19.4458210,72.7988231,PM10,73,148,104
India,Maharashtra,Virar,"Bolinj, Virar - MPCB",16-10-2025 07:00:00,19.4458210,72.7988231,NO2,7,89,37
India,Meghalaya,Shillong,"JN Stadium, Shillong - Meghalaya PCB",16-10-2025 07:00:00,25.5803419,91.8942571,PM10,NA,NA,NA
India,Meghalaya,Shillong,"JN Stadium, Shillong - Meghalaya PCB",16-10-2025 07:00:00,25.5803419,91.8942571,CO,12,65,29
India,Rajasthan,Barmer,"Railway Colony, Barmer - RSPCB",16-10-2025 07:00:00,25.747299,71.393989,OZONE,49,142,97
India,Rajasthan,Bharatpur,"Krishna Nagar, Bharatpur - RSPCB",16-10-2025 07:00:00,27.215415,77.50873,PM2.5,62,304,183
India,Rajasthan,Bhilwara,"Pratap Nagar, Bhilwara - RSPCB",16-10-2025 07:00:00,25.339605,74.618883,PM2.5,32,97,70
India,Rajasthan,Bhiwadi,"Vasundhara Nagar_UIT, Bhiwadi - RSPCB",16-10-2025 07:00:00,28.207266,76.829265,PM10,93,453,249
India,Rajasthan,Bhiwadi,"Vasundhara Nagar_UIT, Bhiwadi - RSPCB",16-10-2025 07:00:00,28.207266,76.829265,NH3,4,7,6
India,Rajasthan,Bikaner,"MM Ground, Bikaner - RSPCB",16-10-2025 07:00:00,28.018792,73.292658,PM2.5,NA,NA,NA
India,Odisha,Rairangpur,"Divisional Forest Office, Rairangpur - OSPCB",16-10-2025 07:00:00,22.265816,86.174829,NO2,16,20,19
India,Odisha,Rourkela,"Fertilizer Township, Rourkela - OSPCB",16-10-2025 07:00:00,22.18972222,84.86277778,PM2.5,53,75,58
India,Odisha,Rourkela,"Raghunathpali, Rourkela - OSPCB",16-10-2025 07:00:00,22.220833,84.809444,NH3,1,3,1
India,Odisha,Rourkela,"Raghunathpali, Rourkela - OSPCB",16-10-2025 07:00:00,22.220833,84.809444,CO,35,74,42
India,Odisha,Talcher,"Talcher Coalfields,Talcher - OSPCB",16-10-2025 07:00:00,20.9360711,85.1707021,OZONE,1,24,20
India,Odisha,Brajrajnagar,"GM Office, Brajrajnagar - OSPCB",16-10-2025 07:00:00,21.8004996,83.8396977,NO2,NA,NA,NA
India,Odisha,Byasanagar,"Ferro Chrome Colony, Byasanagar - OSPCB",16-10-2025 07:00:00,20.94185,86.11510,PM10,57,111,92
India,Odisha,Byasanagar,"Ferro Chrome Colony, Byasanagar - OSPCB",16-10-2025 07:00:00,20.94185,86.11510,CO,14,94,36
India,Odisha,Keonjhar,"Jagamohanpur, Keonjhar - OSPCB",16-10-2025 07:00:00,21.643900,85.599355,PM10,103,161,124
India,Odisha,Keonjhar,"Jagamohanpur, Keonjhar - OSPCB",16-10-2025 07:00:00,21.643900,85.599355,NH3,NA,NA,NA
India,Punjab,Amritsar,"Golden Temple, Amritsar - PPCB",16-10-2025 07:00:00,31.620000,74.876512,NO2,16,41,20
India,Punjab,Jalandhar,"Civil Line, Jalandhar - PPCB",16-10-2025 07:00:00,31.321907,75.578914,CO,38,47,40
India,Punjab,Khanna,"Kalal Majra, Khanna - PPCB",16-10-2025 07:00:00,30.736056 ,76.209694,PM2.5,61,280,174
India,Punjab,Khanna,"Kalal Majra, Khanna - PPCB",16-10-2025 07:00:00,30.736056 ,76.209694,NH3,7,8,7
India,Punjab,Khanna,"Kalal Majra, Khanna - PPCB",16-10-2025 07:00:00,30.736056 ,76.209694,CO,40,84,69
India,Punjab,Patiala,"Model Town, Patiala - PPCB",16-10-2025 07:00:00,30.349388,76.366642,PM2.5,51,83,68
India,Punjab,Rupnagar,"Ratanpura, Rupnagar - Ambuja Cements",16-10-2025 07:00:00,31.0325454,76.5623046,PM10,47,190,80
India,Nagaland,Kohima,"PWD Junction, Kohima - NPCB",16-10-2025 07:00:00,25.6635413,94.0989878,NO2,3,4,3
India,Odisha,Angul,"Hakimapada, Angul - OSPCB",16-10-2025 07:00:00,20.832874,85.104082,OZONE,2,19,3
India,Rajasthan,Dausa,"Khatikan Mohalla, Dausa - RSPCB",16-10-2025 07:00:00,26.895552,76.334753,SO2,1,3,2
India,Rajasthan,Dholpur,"Raja Ganj, Dholpur - RSPCB",16-10-2025 07:00:00,26.699557,77.898881,PM2.5,NA,NA,NA
India,Rajasthan,Dholpur,"Raja Ganj, Dholpur - RSPCB",16-10-2025 07:00:00,26.699557,77.898881,SO2,2,11,9
India,Rajasthan,Dungarpur,"Bhoiwada, Dungarpur - RSPCB",16-10-2025 07:00:00,23.837789,73.714926,OZONE,10,157,24
India,Rajasthan,Hanumangarh,"Housing Board, Hanumangarh - RSPCB",16-10-2025 07:00:00,29.610750,74.283608,NO2,12,72,35
India,Rajasthan,Jaipur,"Adarsh Nagar, Jaipur - RSPCB",16-10-2025 07:00:00,26.902909,75.836858,PM2.5,56,157,99
India,Rajasthan,Bundi,"New Colony, Bundi - RSPCB",16-10-2025 07:00:00,25.435774,75.644272,NH3,NA,NA,NA
India,Rajasthan,Chittorgarh,"Shastri Nagar, Chittorgarh - RSPCB",16-10-2025 07:00:00,24.892047,74.623527,NH3,2,4,3
India,Rajasthan,Churu,"Subash Chowk, Churu - RSPCB",16-10-2025 07:00:00,28.296139,74.961696,PM10,67,475,159
India,Rajasthan,Churu,"Subash Chowk, Churu - RSPCB",16-10-2025 07:00:00,28.296139,74.961696,SO2,2,9,4
India,Rajasthan,Dausa,"Khatikan Mohalla, Dausa - RSPCB",16-10-2025 07:00:00,26.895552,76.334753,PM2.5,24,92,55
India,Rajasthan,Dausa,"Khatikan Mohalla, Dausa - RSPCB",16-10-2025 07:00:00,26.895552,76.334753,PM10,59,184,106
India,Rajasthan,Jhunjhunu,"Indra Nagar, Jhunjhunu - RSPCB",16-10-2025 07:00:00,28.108988,75.386577,NH3,1,16,10
India,Rajasthan,Jhunjhunu,"Indra Nagar, Jhunjhunu - RSPCB",16-10-2025 07:00:00,28.108988,75.386577,SO2,2,7,3
India,Rajasthan,Jodhpur,"Collectorate, Jodhpur - RSPCB",16-10-2025 07:00:00,26.268249,73.0193853,CO,5,90,28
India,Rajasthan,Jodhpur,"Digari Kalan, Jodhpur - RSPCB",16-10-2025 07:00:00,26.295810,73.082283,CO,7,79,28
India,Rajasthan,Jodhpur,"Jhalamand, Jodhpur - RSPCB",16-10-2025 07:00:00,26.215415,73.070156,PM2.5,23,157,69
India,Rajasthan,Rajsamand,"Dhoinda, Rajsamand - RSPCB",16-10-2025 07:00:00,25.036360,73.883502,NH3,6,17,11
India,Rajasthan,Sawai Madhopur,"Sahu Nagar, Sawai Madhopur - RSPCB",16-10-2025 07:00:00,26.031443,76.359327,PM10,51,97,66
India,Rajasthan,Sikar,"Radhakishan Pura, Sikar - RSPCB",16-10-2025 07:00:00,27.608912,75.153302,PM2.5,36,305,109
India,Rajasthan,Sirohi,"Vedhaynath Colony, Sirohi - RSPCB",16-10-2025 07:00:00,24.885261,72.857549,PM10,59,127,85
India,Rajasthan,Jaipur,"Mansarovar Sector-12, Jaipur - RSPCB",16-10-2025 07:00:00,26.843698,75.766894,CO,21,104,89
India,Rajasthan,Jaipur,"Police Commissionerate, Jaipur - RSPCB",16-10-2025 07:00:00,26.9164092,75.7994901,PM10,2,175,133
India,Rajasthan,Jaipur,"Police Commissionerate, Jaipur - RSPCB",16-10-2025 07:00:00,26.9164092,75.7994901,NH3,7,13,9
India,Rajasthan,Jaipur,"Police Commissionerate, Jaipur - RSPCB",16-10-2025 07:00:00,26.9164092,75.7994901,SO2,6,9,7
India,Rajasthan,Jaipur,"Sector-2 Murlipura, Jaipur - RSPCB",16-10-2025 07:00:00,26.960669,75.771817,PM2.5,28,220,76
India,Rajasthan,Jaipur,"Shastri Nagar, Jaipur - RSPCB",16-10-2025 07:00:00,26.9502929,75.730943,SO2,1,44,19
India,Rajasthan,Jaipur,"Shastri Nagar, Jaipur - RSPCB",16-10-2025 07:00:00,26.9502929,75.730943,OZONE,12,69,27
India,Rajasthan,Jaisalmer,"Sadar Bazar, Jaisalmer - RSPCB",16-10-2025 07:00:00,26.912329,70.909168,NH3,6,13,8
India,Rajasthan,Jaisalmer,"Sadar Bazar, Jaisalmer - RSPCB",16-10-2025 07:00:00,26.912329,70.909168,CO,14,84,19
India,Rajasthan,Jalore,"Mudtra Sili, Jalore - RSPCB",16-10-2025 07:00:00,25.344694,72.626208,CO,24,113,36
India,Rajasthan,Jodhpur,"Samrat Ashok Udhyan, Jodhpur - RSPCB",16-10-2025 07:00:00,26.253384,72.976571,PM10,53,180,87
India,Rajasthan,Karauli,"Satyawati Vihar, Karauli - RSPCB",16-10-2025 07:00:00,26.506177,77.025989,NH3,4,6,5
India,Rajasthan,Kota,"Nayapura, Kota - RSPCB",16-10-2025 07:00:00,25.196024,75.855668,PM2.5,50,160,87
India,Rajasthan,Kota,"Nayapura, Kota - RSPCB",16-10-2025 07:00:00,25.196024,75.855668,NO2,11,100,45
India,Rajasthan,Pali,"Indira Colony Vistar, Pali - RSPCB",16-10-2025 07:00:00,25.771061, 73.340227,OZONE,8,65,10
India,Rajasthan,Pratapgarh,"Pragati Nagar, Pratapgarh - RSPCB",16-10-2025 07:00:00,24.041198,74.780702,PM10,61,144,96
India,Rajasthan,Pratapgarh,"Pragati Nagar, Pratapgarh - RSPCB",16-10-2025 07:00:00,24.041198,74.780702,NH3,6,9,7
India,Rajasthan,Nagaur,"Karni Colony, Nagaur - RSPCB",16-10-2025 07:00:00,27.213494,73.734444,SO2,3,14,7
India,Rajasthan,Nagaur,"Karni Colony, Nagaur - RSPCB",16-10-2025 07:00:00,27.213494,73.734444,OZONE,13,125,41
India,Rajasthan,Pali,"Indira Colony Vistar, Pali - RSPCB",16-10-2025 07:00:00,25.771061, 73.340227,PM10,74,144,104
India,TamilNadu,Karur,"Kamadenu Nagar, Karur - TNPCB",16-10-2025 07:00:00,10.967820,78.080882,SO2,NA,NA,NA
India,TamilNadu,Karur,"Kamadenu Nagar, Karur - TNPCB",16-10-2025 07:00:00,10.967820,78.080882,CO,2,10,6
India,TamilNadu,Madurai,"Uchapatti, Madurai - TNPCB",16-10-2025 07:00:00,9.865935,78.022669,NO2,14,15,15
India,TamilNadu,Madurai,"Uchapatti, Madurai - TNPCB",16-10-2025 07:00:00,9.865935,78.022669,SO2,11,39,13
India,TamilNadu,Madurai,"Uchapatti, Madurai - TNPCB",16-10-2025 07:00:00,9.865935,78.022669,CO,23,30,26
India,TamilNadu,Nagapattinam,"Velippalayam, Nagapattinam - TNPCB",16-10-2025 07:00:00,10.798548,79.838212,PM2.5,NA,NA,NA
India,TamilNadu,Nagapattinam,"Velippalayam, Nagapattinam - TNPCB",16-10-2025 07:00:00,10.798548,79.838212,NO2,5,5,5
India,TamilNadu,Nagapattinam,"Velippalayam, Nagapattinam - TNPCB",16-10-2025 07:00:00,10.798548,79.838212,OZONE,22,72,35
India,TamilNadu,Namakkal,"Ponnusamy Nagar, Namakkal - TNPCB",16-10-2025 07:00:00,11.273992,78.163545,PM2.5,38,500,66
India,TamilNadu,Namakkal,"Ponnusamy Nagar, Namakkal - TNPCB",16-10-2025 07:00:00,11.273992,78.163545,NH3,1,1,1
India,TamilNadu,Ooty,"Bombay Castel, Ooty - TNPCB",16-10-2025 07:00:00,11.4068288,76.7138973,SO2,NA,NA,NA
India,TamilNadu,Ooty,"Bombay Castel, Ooty - TNPCB",16-10-2025 07:00:00,11.4068288,76.7138973,CO,NA,NA,NA
India,TamilNadu,Tirunelveli,"Municipal Corporation Office, Tirunelveli - TNPCB",16-10-2025 07:00:00,8.728442,77.6962,NH3,1,4,2
India,TamilNadu,Tirunelveli,"Municipal Corporation Office, Tirunelveli - TNPCB",16-10-2025 07:00:00,8.728442,77.6962,SO2,15,21,19
India,TamilNadu,Tirupur,"Kumaran College, Tirupur - TNPCB",16-10-2025 07:00:00,11.0973603,77.3228673,PM10,28,96,57
India,TamilNadu,Virudhunagar,"Collectorate Office, Virudhunagar - TNPCB",16-10-2025 07:00:00,9.559382,77.948828,PM2.5,32,55,40
India,TamilNadu,Virudhunagar,"Collectorate Office, Virudhunagar - TNPCB",16-10-2025 07:00:00,9.559382,77.948828,SO2,19,20,19
India,Telangana,Hyderabad,"Bollaram Industrial Area, Hyderabad - TSPCB",16-10-2025 07:00:00,17.540891,78.358528,OZONE,49,58,50
India,Telangana,Hyderabad,"Central University, Hyderabad - TSPCB",16-10-2025 07:00:00,17.460103,78.334361,NH3,3,7,5
India,Telangana,Hyderabad,"Central University, Hyderabad - TSPCB",16-10-2025 07:00:00,17.460103,78.334361,OZONE,8,25,17
India,Rajasthan,Sirohi,"Vedhaynath Colony, Sirohi - RSPCB",16-10-2025 07:00:00,24.885261,72.857549,OZONE,31,116,53
India,Rajasthan,Sri Ganganagar,"Old City, Sri Ganganagar - RSPCB",16-10-2025 07:00:00,29.931624,73.864511,PM2.5,37,305,154
India,Rajasthan,Sri Ganganagar,"Old City, Sri Ganganagar - RSPCB",16-10-2025 07:00:00,29.931624,73.864511,NO2,30,173,86
India,Rajasthan,Sri Ganganagar,"Old City, Sri Ganganagar - RSPCB",16-10-2025 07:00:00,29.931624,73.864511,NH3,3,3,3
India,Rajasthan,Sri Ganganagar,"Old City, Sri Ganganagar - RSPCB",16-10-2025 07:00:00,29.931624,73.864511,OZONE,12,123,30
India,Rajasthan,Udaipur,"Ashok Nagar, Udaipur - RSPCB",16-10-2025 07:00:00,24.5886166,73.6321397,NO2,25,125,58
India,Rajasthan,Udaipur,"Ashok Nagar, Udaipur - RSPCB",16-10-2025 07:00:00,24.5886166,73.6321397,NH3,4,10,7
India,Rajasthan,Udaipur,"Ashok Nagar, Udaipur - RSPCB",16-10-2025 07:00:00,24.5886166,73.6321397,SO2,1,24,9
India,TamilNadu,Ariyalur,"Keelapalur, Ariyalur - TNPCB",16-10-2025 07:00:00,11.06825,79.07033,PM10,31,53,40
India,TamilNadu,Dindigul,"Mendonsa Colony, Dindigul - TNPCB",16-10-2025 07:00:00,10.358535,77.984321,PM2.5,17,55,33
India,TamilNadu,Dindigul,"Mendonsa Colony, Dindigul - TNPCB",16-10-2025 07:00:00,10.358535,77.984321,CO,14,43,35
India,TamilNadu,Gummidipoondi,"Anthoni Pillai Nagar, Gummidipoondi - TNPCB",16-10-2025 07:00:00,13.4127,80.1081,PM2.5,26,330,120
India,TamilNadu,Gummidipoondi,"Anthoni Pillai Nagar, Gummidipoondi - TNPCB",16-10-2025 07:00:00,13.4127,80.1081,SO2,5,52,14
India,TamilNadu,Hosur,"SIPCOT Phase-1, Hosur - TNPCB",16-10-2025 07:00:00,12.746998,77.813811,SO2,46,50,47
India,TamilNadu,Kanchipuram,"Kilambi, Kanchipuram - TNPCB",16-10-2025 07:00:00,12.864618,79.659968,PM2.5,NA,NA,NA
India,TamilNadu,Karur,"Kamadenu Nagar, Karur - TNPCB",16-10-2025 07:00:00,10.967820,78.080882,PM2.5,NA,NA,NA
India,TamilNadu,Karur,"Kamadenu Nagar, Karur - TNPCB",16-10-2025 07:00:00,10.967820,78.080882,NO2,NA,NA,NA
India,TamilNadu,Ariyalur,"Keelapalur, Ariyalur - TNPCB",16-10-2025 07:00:00,11.06825,79.07033,NH3,1,1,1
India,TamilNadu,Chennai,"Alandur Bus Depot, Chennai - CPCB",16-10-2025 07:00:00,12.9099161,80.1076538,NO2,12,19,14
India,TamilNadu,Chennai,"Alandur Bus Depot, Chennai - CPCB",16-10-2025 07:00:00,12.9099161,80.1076538,NH3,2,5,3
India,TamilNadu,Chennai,"Alandur Bus Depot, Chennai - CPCB",16-10-2025 07:00:00,12.9099161,80.1076538,SO2,15,16,15
India,TamilNadu,Chennai,"Arumbakkam, Chennai - TNPCB",16-10-2025 07:00:00,13.0664,80.2112 ,PM2.5,13,65,32
India,TamilNadu,Chennai,"Arumbakkam, Chennai - TNPCB",16-10-2025 07:00:00,13.0664,80.2112 ,PM10,23,124,64
India,TamilNadu,Chennai,"Arumbakkam, Chennai - TNPCB",16-10-2025 07:00:00,13.0664,80.2112 ,NO2,9,22,14
India,TamilNadu,Chennai,"Gandhi Nagar_Ennore, Chennai - TNPCB",16-10-2025 07:00:00,13.218341,80.32027,NH3,NA,NA,NA
India,TamilNadu,Chennai,"Gandhi Nagar_Ennore, Chennai - TNPCB",16-10-2025 07:00:00,13.218341,80.32027,OZONE,8,47,12
India,TamilNadu,Palkalaiperur,"Bharathidasan University, Palkalaiperur - TNPCB",16-10-2025 07:00:00,10.681158,78.741746,PM10,16,39,27
India,TamilNadu,Palkalaiperur,"Bharathidasan University, Palkalaiperur - TNPCB",16-10-2025 07:00:00,10.681158,78.741746,SO2,5,6,6
India,TamilNadu,Perundurai,"SIPCOT Industrial Park, Perundurai - TNPCB",16-10-2025 07:00:00,11.258242,77.552761,NO2,9,35,14
India,TamilNadu,Perundurai,"SIPCOT Industrial Park, Perundurai - TNPCB",16-10-2025 07:00:00,11.258242,77.552761,NH3,4,19,7
India,TamilNadu,Ramanathapuram,"Chalai Bazaar, Ramanathapuram - TNPCB",16-10-2025 07:00:00,9.36399,78.831977,PM2.5,14,43,24
India,TamilNadu,Ramanathapuram,"Chalai Bazaar, Ramanathapuram - TNPCB",16-10-2025 07:00:00,9.36399,78.831977,NH3,2,2,2
India,TamilNadu,Ranipet,"VOC Nagar_SIPCOT, Ranipet - TNPCB",16-10-2025 07:00:00,12.952707,79.30394,NO2,1,1,1
India,TamilNadu,Coimbatore,"PSG College of Arts and Science, Coimbatore - TNPCB",16-10-2025 07:00:00,11.0328,77.0349,OZONE,4,6,5
India,TamilNadu,Coimbatore,"SIDCO Kurichi, Coimbatore - TNPCB",16-10-2025 07:00:00,10.942451,76.978996,SO2,20,22,21
India,TamilNadu,Coimbatore,"SIDCO Kurichi, Coimbatore - TNPCB",16-10-2025 07:00:00,10.942451,76.978996,OZONE,1,25,1
India,TamilNadu,Cuddalore,"Kudikadu, Cuddalore - TNPCB",16-10-2025 07:00:00,11.6829898,79.7532099,PM10,NA,NA,NA
India,TamilNadu,Cuddalore,"Kudikadu, Cuddalore - TNPCB",16-10-2025 07:00:00,11.6829898,79.7532099,NO2,NA,NA,NA
India,TamilNadu,Cuddalore,"Semmandalam, Cuddalore - TNPCB",16-10-2025 07:00:00,11.7637683,79.7499835,PM10,8,85,28
India,TamilNadu,Cuddalore,"Semmandalam, Cuddalore - TNPCB",16-10-2025 07:00:00,11.7637683,79.7499835,NO2,3,17,8
India,TamilNadu,Chennai,"Kodungaiyur, Chennai - TNPCB",16-10-2025 07:00:00,13.1278,80.2642,CO,4,87,32
India,TamilNadu,Chennai,"Manali, Chennai - CPCB",16-10-2025 07:00:00,13.164544,80.26285,PM10,NA,NA,NA
India,TamilNadu,Chennai,"Manali, Chennai - CPCB",16-10-2025 07:00:00,13.164544,80.26285,CO,11,36,24
India,TamilNadu,Chennai,"Perungudi, Chennai - TNPCB",16-10-2025 07:00:00,12.9533,80.2357,SO2,1,3,2
India,TamilNadu,Chennai,"Royapuram, Chennai - TNPCB",16-10-2025 07:00:00,13.1036,80.2909,PM2.5,NA,NA,NA
India,TamilNadu,Chennai,"Royapuram, Chennai - TNPCB",16-10-2025 07:00:00,13.1036,80.2909,CO,NA,NA,NA
India,TamilNadu,Thoothukudi,"Meelavittan, Thoothukudi - TNPCB",16-10-2025 07:00:00,8.816428 ,78.099039,NO2,12,70,18
India,TamilNadu,Tiruchirappalli,"St Joseph College, Tiruchirappalli - TNPCB",16-10-2025 07:00:00,10.830158,78.691849,PM10,24,83,49
India,TamilNadu,Tiruchirappalli,"St Joseph College, Tiruchirappalli - TNPCB",16-10-2025 07:00:00,10.830158,78.691849,SO2,16,16,16
India,TamilNadu,Tirunelveli,"Municipal Corporation Office, Tirunelveli - TNPCB",16-10-2025 07:00:00,8.728442,77.6962,PM2.5,18,45,28
India,Uttar_Pradesh,Agra,"Manoharpur, Agra - UPPCB",16-10-2025 07:00:00,27.23711,78.01936,PM10,18,154,85
India,Uttar_Pradesh,Agra,"Manoharpur, Agra - UPPCB",16-10-2025 07:00:00,27.23711,78.01936,NH3,2,2,2
India,Uttar_Pradesh,Agra,"Manoharpur, Agra - UPPCB",16-10-2025 07:00:00,27.23711,78.01936,CO,30,38,31
India,Uttar_Pradesh,Agra,"Sanjay Palace, Agra - UPPCB",16-10-2025 07:00:00,27.19865833,78.00598056,PM2.5,72,341,219
India,Uttar_Pradesh,Agra,"Sanjay Palace, Agra - UPPCB",16-10-2025 07:00:00,27.19865833,78.00598056,NO2,4,26,15
India,Uttar_Pradesh,Agra,"Sanjay Palace, Agra - UPPCB",16-10-2025 07:00:00,27.19865833,78.00598056,CO,31,102,68
India,Uttar_Pradesh,Agra,"Sector-3B Avas Vikas Colony, Agra - UPPCB",16-10-2025 07:00:00,27.19412,77.96237,NO2,27,32,29
India,Uttar_Pradesh,Agra,"Sector-3B Avas Vikas Colony, Agra - UPPCB",16-10-2025 07:00:00,27.19412,77.96237,SO2,10,12,11
India,Uttar_Pradesh,Jhansi,"Shivaji Nagar, Jhansi - UPPCB",16-10-2025 07:00:00,25.4547,78.6039,PM2.5,25,138,56
India,Uttar_Pradesh,Jhansi,"Shivaji Nagar, Jhansi - UPPCB",16-10-2025 07:00:00,25.4547,78.6039,NO2,6,6,6
India,Uttar_Pradesh,Jhansi,"Shivaji Nagar, Jhansi - UPPCB",16-10-2025 07:00:00,25.4547,78.6039,SO2,7,16,11
India,Uttar_Pradesh,Kanpur,"NSI Kalyanpur, Kanpur - UPPCB",16-10-2025 07:00:00,26.509954,80.249612,PM10,58,137,100
India,Uttar_Pradesh,Kanpur,"NSI Kalyanpur, Kanpur - UPPCB",16-10-2025 07:00:00,26.509954,80.249612,NH3,3,3,3
India,Uttar_Pradesh,Kanpur,"NSI Kalyanpur, Kanpur - UPPCB",16-10-2025 07:00:00,26.509954,80.249612,SO2,13,14,14
India,Uttar_Pradesh,Kanpur,"Nehru Nagar, Kanpur - UPPCB",16-10-2025 07:00:00,26.4703136,80.3229863,PM10,38,228,112
India,Uttar_Pradesh,Kanpur,"Nehru Nagar, Kanpur - UPPCB",16-10-2025 07:00:00,26.4703136,80.3229863,OZONE,6,54,6
India,Uttar_Pradesh,Ghaziabad,"Indirapuram, Ghaziabad - UPPCB",16-10-2025 07:00:00,28.646233,77.358075,NH3,17,20,18
India,Uttar_Pradesh,Ghaziabad,"Loni, Ghaziabad - UPPCB",16-10-2025 07:00:00,28.757294,77.278792,NH3,2,9,5
India,Uttar_Pradesh,Ghaziabad,"Loni, Ghaziabad - UPPCB",16-10-2025 07:00:00,28.757294,77.278792,OZONE,12,158,14
India,Uttar_Pradesh,Ghaziabad,"Sanjay Nagar, Ghaziabad - UPPCB",16-10-2025 07:00:00,28.685382,77.453839,NH3,6,9,8
India,Uttar_Pradesh,Ghaziabad,"Sanjay Nagar, Ghaziabad - UPPCB",16-10-2025 07:00:00,28.685382,77.453839,CO,14,114,58
India,Uttar_Pradesh,Ghaziabad,"Sanjay Nagar, Ghaziabad - UPPCB",16-10-2025 07:00:00,28.685382,77.453839,OZONE,9,116,10
India,Uttar_Pradesh,Ghaziabad,"Vasundhara, Ghaziabad - UPPCB",16-10-2025 07:00:00,28.6603346,77.3572563,SO2,3,95,15
India,Uttar_Pradesh,Ghaziabad,"Vasundhara, Ghaziabad - UPPCB",16-10-2025 07:00:00,28.6603346,77.3572563,OZONE,14,301,15
India,Uttar_Pradesh,Gorakhpur,"Madan Mohan Malaviya University of Technology, Gorakhpur - UPPCB",16-10-2025 07:00:00,26.730136,83.433859,PM10,4,163,84
India,Uttar_Pradesh,Greater Noida,"Knowledge Park - V, Greater Noida - UPPCB",16-10-2025 07:00:00,28.557054,77.453663,PM10,118,482,280
India,Uttar_Pradesh,Greater Noida,"Knowledge Park - V, Greater Noida - UPPCB",16-10-2025 07:00:00,28.557054,77.453663,SO2,12,21,17
India,Uttar_Pradesh,Greater Noida,"Knowledge Park - V, Greater Noida - UPPCB",16-10-2025 07:00:00,28.557054,77.453663,CO,10,111,101
India,Telangana,Hyderabad,"Ramachandrapuram, Hyderabad - TSPCB",16-10-2025 07:00:00,17.528544,78.286195,PM10,58,69,60
India,Telangana,Hyderabad,"Ramachandrapuram, Hyderabad - TSPCB",16-10-2025 07:00:00,17.528544,78.286195,OZONE,7,76,50
India,Telangana,Hyderabad,"Somajiguda, Hyderabad - TSPCB",16-10-2025 07:00:00,17.417094,78.457437,OZONE,7,29,11
India,Telangana,Hyderabad,"Zoo Park, Hyderabad - TSPCB",16-10-2025 07:00:00,17.349694,78.451437,NO2,15,26,21
India,Tripura,Agartala,"Bardowali, Agartala - Tripura SPCB",16-10-2025 07:00:00,23.8175497,91.2726974,NH3,4,10,6
India,Telangana,Hyderabad,"Kompally Municipal Office, Hyderabad - TSPCB",16-10-2025 07:00:00,17.544899,78.486949,PM2.5,48,66,56
India,Telangana,Hyderabad,"Kompally Municipal Office, Hyderabad - TSPCB",16-10-2025 07:00:00,17.544899,78.486949,CO,12,18,13
India,Telangana,Hyderabad,"Nacharam_TSIIC IALA, Hyderabad - TSPCB",16-10-2025 07:00:00,17.429398,78.569354,NO2,9,12,11
India,Telangana,Hyderabad,"Nacharam_TSIIC IALA, Hyderabad - TSPCB",16-10-2025 07:00:00,17.429398,78.569354,NH3,3,5,4
India,Telangana,Hyderabad,"Ramachandrapuram, Hyderabad - TSPCB",16-10-2025 07:00:00,17.528544,78.286195,PM2.5,30,48,44
India,Telangana,Hyderabad,"ICRISAT Patancheru, Hyderabad - TSPCB",16-10-2025 07:00:00,17.518400,78.278777,PM10,42,87,55
India,Telangana,Hyderabad,"ICRISAT Patancheru, Hyderabad - TSPCB",16-10-2025 07:00:00,17.518400,78.278777,NO2,5,12,8
India,Telangana,Hyderabad,"ICRISAT Patancheru, Hyderabad - TSPCB",16-10-2025 07:00:00,17.518400,78.278777,NH3,1,3,2
India,Telangana,Hyderabad,"IDA Pashamylaram, Hyderabad - TSPCB",16-10-2025 07:00:00,17.5316895,78.218939,PM10,45,77,58
India,Telangana,Hyderabad,"IITH Kandi, Hyderabad - TSPCB",16-10-2025 07:00:00,17.585705,78.126199,SO2,7,8,7
India,Uttar_Pradesh,Bareilly,"Rajendra Nagar, Bareilly - UPPCB",16-10-2025 07:00:00,28.38910936,79.42963708,PM2.5,82,317,211
India,Uttar_Pradesh,Firozabad,"Nagla Bhau, Firozabad - UPPCB",16-10-2025 07:00:00,27.168897,78.376960,NO2,17,17,17
India,Uttar_Pradesh,Firozabad,"Nagla Bhau, Firozabad - UPPCB",16-10-2025 07:00:00,27.168897,78.376960,SO2,12,33,26
India,Uttar_Pradesh,Firozabad,"Vibhab Nagar, Firozabad - UPPCB",16-10-2025 07:00:00,27.1594,78.3953,SO2,5,52,18
India,Uttar_Pradesh,Agra,"Shahjahan Garden, Agra - UPPCB",16-10-2025 07:00:00,27.169338,78.03582,CO,15,55,45
India,Uttar_Pradesh,Baghpat,"Sardar Patel Inter College, Baghpat - UPPCB",16-10-2025 07:00:00,28.964949,77.278761,OZONE,3,130,15
India,Uttar_Pradesh,Bareilly,"Civil Lines, Bareilly - UPPCB",16-10-2025 07:00:00,28.359581,79.414455,NH3,1,1,1
India,Uttar_Pradesh,Muzaffarnagar,"New Mandi, Muzaffarnagar - UPPCB",16-10-2025 07:00:00,29.4723508,77.7194031,NH3,NA,NA,NA
India,Uttar_Pradesh,Muzaffarnagar,"New Mandi, Muzaffarnagar - UPPCB",16-10-2025 07:00:00,29.4723508,77.7194031,OZONE,NA,NA,NA
India,Uttar_Pradesh,Noida,"Sector - 125, Noida - UPPCB",16-10-2025 07:00:00,28.5447608,77.3231257,PM10,148,500,365
India,Uttar_Pradesh,Noida,"Sector - 125, Noida - UPPCB",16-10-2025 07:00:00,28.5447608,77.3231257,CO,14,120,112
India,Uttar_Pradesh,Noida,"Sector - 125, Noida - UPPCB",16-10-2025 07:00:00,28.5447608,77.3231257,OZONE,12,301,13
India,Uttar_Pradesh,Noida,"Sector - 62, Noida - IMD",16-10-2025 07:00:00,28.6245479,77.3577104,PM10,87,291,179
India,Uttar_Pradesh,Noida,"Sector - 62, Noida - IMD",16-10-2025 07:00:00,28.6245479,77.3577104,CO,12,55,44
India,Uttar_Pradesh,Noida,"Sector-1, Noida - UPPCB",16-10-2025 07:00:00,28.5898,77.3101,PM2.5,81,382,247
India,Uttar_Pradesh,Noida,"Sector-1, Noida - UPPCB",16-10-2025 07:00:00,28.5898,77.3101,NO2,32,196,125
India,Uttar_Pradesh,Noida,"Sector-1, Noida - UPPCB",16-10-2025 07:00:00,28.5898,77.3101,NH3,12,17,14
India,Uttar_Pradesh,Noida,"Sector-116, Noida - UPPCB",16-10-2025 07:00:00,28.569230,77.393848,NH3,10,29,14
India,West_Bengal,Asansol,"Asansol Court Area, Asansol - WBPCB",16-10-2025 07:00:00,23.685297,86.945968,OZONE,12,54,15
India,West_Bengal,Asansol,"Evelyn Lodge, Asansol - WBPCB",16-10-2025 07:00:00,23.6979360,86.9443950,SO2,4,15,7
India,West_Bengal,Asansol,"Mahabir Colliery, Asansol - WBPCB",16-10-2025 07:00:00,23.6181830,87.1057180,PM2.5,66,150,103
India,West_Bengal,Asansol,"Mahabir Colliery, Asansol - WBPCB",16-10-2025 07:00:00,23.6181830,87.1057180,NO2,11,57,28
India,West_Bengal,Asansol,"Mahabir Colliery, Asansol - WBPCB",16-10-2025 07:00:00,23.6181830,87.1057180,NH3,1,1,1
India,West_Bengal,Asansol,"Mahabir Colliery, Asansol - WBPCB",16-10-2025 07:00:00,23.6181830,87.1057180,CO,56,109,105
India,West_Bengal,Barrackpore,"SVSPA Campus, Barrackpore - WBPCB",16-10-2025 07:00:00,22.7605581,88.3617589,PM10,72,148,114
India,West_Bengal,Barrackpore,"SVSPA Campus, Barrackpore - WBPCB",16-10-2025 07:00:00,22.7605581,88.3617589,NH3,3,5,4
India,Uttar_Pradesh,Khurja,"Kalindi Kunj, Khurja - UPPCB",16-10-2025 07:00:00,28.2348927,77.8683002,NO2,3,3,3
India,Uttar_Pradesh,Khurja,"Kalindi Kunj, Khurja - UPPCB",16-10-2025 07:00:00,28.2348927,77.8683002,SO2,14,15,15
India,Uttar_Pradesh,Lucknow,"Gomti Nagar, Lucknow - UPPCB",16-10-2025 07:00:00,26.868120,81.005119,PM2.5,49,316,139
India,Uttar_Pradesh,Lucknow,"Gomti Nagar, Lucknow - UPPCB",16-10-2025 07:00:00,26.868120,81.005119,PM10,40,153,86
India,Uttar_Pradesh,Lucknow,"Gomti Nagar, Lucknow - UPPCB",16-10-2025 07:00:00,26.868120,81.005119,NO2,8,10,9
India,Uttar_Pradesh,Lucknow,"Gomti Nagar, Lucknow - UPPCB",16-10-2025 07:00:00,26.868120,81.005119,SO2,9,12,10
India,Uttar_Pradesh,Lucknow,"Kendriya Vidyalaya, Lucknow - CPCB",16-10-2025 07:00:00,26.906111,80.948222,PM10,101,203,145
India,Uttar_Pradesh,Lucknow,"Kendriya Vidyalaya, Lucknow - CPCB",16-10-2025 07:00:00,26.906111,80.948222,NH3,9,14,12
India,Uttar_Pradesh,Lucknow,"Kendriya Vidyalaya, Lucknow - CPCB",16-10-2025 07:00:00,26.906111,80.948222,OZONE,10,79,13
India,Uttar_Pradesh,Lucknow,"Kukrail Picnic Spot-1, Lucknow - UPPCB",16-10-2025 07:00:00,26.90723,80.98579,CO,9,19,12
India,Uttar_Pradesh,Lucknow,"Lalbagh, Lucknow - CPCB",16-10-2025 07:00:00,26.8458805,80.9365541,PM10,86,198,143
India,Uttar_Pradesh,Lucknow,"Lalbagh, Lucknow - CPCB",16-10-2025 07:00:00,26.8458805,80.9365541,SO2,1,16,5
India,Uttar_Pradesh,Lucknow,"Talkatora District Industries Center, Lucknow - CPCB",16-10-2025 07:00:00,26.83399722,80.8917361,NO2,20,37,27
India,Uttar_Pradesh,Lucknow,"Talkatora District Industries Center, Lucknow - CPCB",16-10-2025 07:00:00,26.83399722,80.8917361,OZONE,9,53,12
India,Uttar_Pradesh,Meerut,"Ganga Nagar, Meerut - UPPCB",16-10-2025 07:00:00,28.999264,77.7590354,PM2.5,55,286,117
India,Uttar_Pradesh,Meerut,"Ganga Nagar, Meerut - UPPCB",16-10-2025 07:00:00,28.999264,77.7590354,NH3,2,7,6
India,Uttar_Pradesh,Noida,"Sector-116, Noida - UPPCB",16-10-2025 07:00:00,28.569230,77.393848,CO,10,142,90
India,Uttar_Pradesh,Prayagraj,"Jhunsi, Prayagraj - UPPCB",16-10-2025 07:00:00,25.425602,81.917152,SO2,8,22,12
India,Uttar_Pradesh,Prayagraj,"Motilal Nehru NIT, Prayagraj - UPPCB",16-10-2025 07:00:00,25.494,81.863,NH3,8,8,8
India,Uttar_Pradesh,Prayagraj,"Motilal Nehru NIT, Prayagraj - UPPCB",16-10-2025 07:00:00,25.494,81.863,CO,10,40,30
India,Uttar_Pradesh,Prayagraj,"Motilal Nehru NIT, Prayagraj - UPPCB",16-10-2025 07:00:00,25.494,81.863,OZONE,6,111,7
India,Uttar_Pradesh,Prayagraj,"Nagar Nigam, Prayagraj - UPPCB",16-10-2025 07:00:00,25.44919916 ,81.82735986 ,PM10,53,120,86
India,Uttar_Pradesh,Prayagraj,"Nagar Nigam, Prayagraj - UPPCB",16-10-2025 07:00:00,25.44919916 ,81.82735986 ,NO2,5,5,5
India,Uttarakhand,Dehradun,"Doon University, Dehradun - UKPCB",16-10-2025 07:00:00,30.269444,78.044167,PM10,20,137,58
India,Uttarakhand,Kashipur,"Govt. Girls Inter College, Kashipur - UKPCB",16-10-2025 07:00:00,29.2124114,78.9611753,NH3,3,22,9
India,Uttarakhand,Rishikesh,"Shivaji Nagar, Rishikesh - UKPCB",16-10-2025 07:00:00,30.075911,78.2859547,NH3,5,8,7
India,West_Bengal,Asansol,"Asansol Court Area, Asansol - WBPCB",16-10-2025 07:00:00,23.685297,86.945968,PM2.5,76,166,113
India,Uttar_Pradesh,Moradabad,"Employment Office, Moradabad - UPPCB",16-10-2025 07:00:00,28.88528,78.73880,NH3,4,4,4
India,Uttar_Pradesh,Moradabad,"Kashiram Nagar, Moradabad - UPPCB",16-10-2025 07:00:00,28.849399,78.742362,PM10,84,158,109
India,Uttar_Pradesh,Moradabad,"Kashiram Nagar, Moradabad - UPPCB",16-10-2025 07:00:00,28.849399,78.742362,SO2,51,102,71
India,Uttar_Pradesh,Moradabad,"Kashiram Nagar, Moradabad - UPPCB",16-10-2025 07:00:00,28.849399,78.742362,CO,20,46,31
India,Uttar_Pradesh,Moradabad,"Kashiram Nagar, Moradabad - UPPCB",16-10-2025 07:00:00,28.849399,78.742362,OZONE,23,96,28
India,Uttar_Pradesh,Moradabad,"Transport Nagar, Moradabad - UPPCB",16-10-2025 07:00:00,28.802625,78.753728,SO2,28,32,31
India,Uttar_Pradesh,Meerut,"Pallavpuram Phase 2, Meerut - UPPCB",16-10-2025 07:00:00,29.063510,77.709723,PM10,118,339,178
India,Uttar_Pradesh,Moradabad,"Eco Herbal Park, Moradabad - UPPCB",16-10-2025 07:00:00,28.840739,78.697531,PM10,63,117,90
India,Uttar_Pradesh,Moradabad,"Employment Office, Moradabad - UPPCB",16-10-2025 07:00:00,28.88528,78.73880,PM2.5,37,89,63
India,Uttar_Pradesh,Moradabad,"Employment Office, Moradabad - UPPCB",16-10-2025 07:00:00,28.88528,78.73880,PM10,66,128,100
India,Uttar_Pradesh,Varanasi,"Bhelupur, Varanasi - UPPCB",16-10-2025 07:00:00,25.301778,82.996789,NH3,1,1,1
India,Uttar_Pradesh,Varanasi,"Bhelupur, Varanasi - UPPCB",16-10-2025 07:00:00,25.301778,82.996789,CO,12,48,31
India,Uttar_Pradesh,Varanasi,"IESD Banaras Hindu University, Varanasi - UPPCB",16-10-2025 07:00:00,25.262326,82.995408,CO,8,38,21
India,Uttar_Pradesh,Varanasi,"IESD Banaras Hindu University, Varanasi - UPPCB",16-10-2025 07:00:00,25.262326,82.995408,OZONE,20,67,28
India,West_Bengal,Durgapur,"Mahishkapur Road_B-Zone, Durgapur - WBPCB",16-10-2025 07:00:00,23.567923,87.306843,NH3,1,1,1
India,West_Bengal,Durgapur,"Mahishkapur Road_B-Zone, Durgapur - WBPCB",16-10-2025 07:00:00,23.567923,87.306843,SO2,11,36,16
India,West_Bengal,Durgapur,"PCBL Residential Complex, Durgapur - WBPCB",16-10-2025 07:00:00,23.5087640,87.3544400,PM2.5,50,121,68
India,West_Bengal,Durgapur,"Womens College_City Center, Durgapur - WBPCB (Formerly known as Sidhu Kanhu Indoor Stadium)",16-10-2025 07:00:00,23.549395,87.300496,NO2,24,30,27
India,West_Bengal,Haldia,"Priyambada Housing Estate, Haldia - WBPCB",16-10-2025 07:00:00,22.06047,88.109737,NH3,5,7,6
India,West_Bengal,Howrah,"Belur Math, Howrah - WBPCB",16-10-2025 07:00:00,22.629801,88.352017,NH3,8,10,10
India,West_Bengal,Howrah,"Belur Math, Howrah - WBPCB",16-10-2025 07:00:00,22.629801,88.352017,CO,18,45,31
India,West_Bengal,Howrah,"Belur Math, Howrah - WBPCB",16-10-2025 07:00:00,22.629801,88.352017,OZONE,8,34,10
India,West_Bengal,Howrah,"Botanical Garden, Howrah - WBPCB",16-10-2025 07:00:00,22.554954,88.292568,NO2,16,93,58
India,West_Bengal,Howrah,"Botanical Garden, Howrah - WBPCB",16-10-2025 07:00:00,22.554954,88.292568,SO2,14,16,15
India,West_Bengal,Howrah,"Dasnagar, Howrah - WBPCB",16-10-2025 07:00:00,22.6025571,88.3105664,CO,44,93,55
India,West_Bengal,Howrah,"Padmapukur, Howrah - WBPCB",16-10-2025 07:00:00,22.5687319,88.2797276,OZONE,8,27,11
India,West_Bengal,Kolkata,"Fort William, Kolkata - WBPCB",16-10-2025 07:00:00,22.556640,88.342674,NO2,18,28,22
India,West_Bengal,Kolkata,"Rabindra Bharati University, Kolkata - WBPCB",16-10-2025 07:00:00,22.627847,88.380669,SO2,5,9,7
India,West_Bengal,Kolkata,"Rabindra Bharati University, Kolkata - WBPCB",16-10-2025 07:00:00,22.627847,88.380669,OZONE,16,35,22
India,West_Bengal,Kolkata,"Rabindra Sarobar, Kolkata - WBPCB",16-10-2025 07:00:00,22.51106,88.35142,CO,12,75,45
India,West_Bengal,Siliguri,"Ward-32 Bapupara, Siliguri - WBPCB",16-10-2025 07:00:00,26.6879226,88.4152495,PM10,47,108,67
India,Bihar,Gaya,"SFTI Kusdihra, Gaya - BSPCB",16-10-2025 07:00:00,24.762518,84.982348,NO2,17,19,18
India,Bihar,Gaya,"SFTI Kusdihra, Gaya - BSPCB",16-10-2025 07:00:00,24.762518,84.982348,SO2,5,10,8
India,Bihar,Gaya,"SFTI Kusdihra, Gaya - BSPCB",16-10-2025 07:00:00,24.762518,84.982348,OZONE,8,45,11
India,Bihar,Hajipur,"Industrial Area, Hajipur - BSPCB",16-10-2025 07:00:00,25.697189,85.245900,PM10,NA,NA,NA
India,Bihar,Hajipur,"Industrial Area, Hajipur - BSPCB",16-10-2025 07:00:00,25.697189,85.245900,NH3,NA,NA,NA
India,Bihar,Hajipur,"Industrial Area, Hajipur - BSPCB",16-10-2025 07:00:00,25.697189,85.245900,SO2,NA,NA,NA
India,Bihar,Kishanganj,"SDM Office_Khagra, Kishanganj - BSPCB",16-10-2025 07:00:00,26.0881305,87.93840336,PM2.5,72,227,157
India,Bihar,Kishanganj,"SDM Office_Khagra, Kishanganj - BSPCB",16-10-2025 07:00:00,26.0881305,87.93840336,NO2,7,8,7
India,Bihar,Kishanganj,"SDM Office_Khagra, Kishanganj - BSPCB",16-10-2025 07:00:00,26.0881305,87.93840336,SO2,6,10,8
India,Bihar,Manguraha,"Forest Rest House, Manguraha - BSPCB",16-10-2025 07:00:00,27.308328,84.531742,NH3,1,2,2
India,Bihar,Manguraha,"Forest Rest House, Manguraha - BSPCB",16-10-2025 07:00:00,27.308328,84.531742,OZONE,5,16,8
India,Bihar,Motihari,"Gandak Colony, Motihari - BSPCB",16-10-2025 07:00:00,26.63086,84.90051,PM2.5,38,45,42
India,Bihar,Motihari,"Gandak Colony, Motihari - BSPCB",16-10-2025 07:00:00,26.63086,84.90051,OZONE,2,3,2
India,Bihar,Munger,"Town Hall, Munger - BSPCB",16-10-2025 07:00:00,25.376776,86.471523,PM10,32,67,44
India,Bihar,Munger,"Town Hall, Munger - BSPCB",16-10-2025 07:00:00,25.376776,86.471523,NO2,4,5,5
India,Bihar,Muzaffarpur,"MIT-Daudpur Kothi, Muzaffarpur - BSPCB",16-10-2025 07:00:00,26.1403345,85.3650192,PM10,41,59,50
India,Bihar,Muzaffarpur,"MIT-Daudpur Kothi, Muzaffarpur - BSPCB",16-10-2025 07:00:00,26.1403345,85.3650192,CO,33,40,34
India,Assam,Sivasagar,"Girls College, Sivasagar - PCBA",16-10-2025 07:00:00,26.987634,94.636574,PM10,23,47,34
India,Assam,Sivasagar,"Girls College, Sivasagar - PCBA",16-10-2025 07:00:00,26.987634,94.636574,NO2,18,29,24
India,Assam,Sivasagar,"Girls College, Sivasagar - PCBA",16-10-2025 07:00:00,26.987634,94.636574,NH3,3,3,3
India,Bihar,Araria,"Kharahiya Basti, Araria - BSPCB",16-10-2025 07:00:00,26.146529,87.454184,CO,18,34,33
India,Bihar,Arrah,"New DM Office, Arrah - BSPCB",16-10-2025 07:00:00,25.5626095,84.663264,PM2.5,28,30,29
India,Bihar,Begusarai,"Lohiyanagar, Begusarai - BSPCB",16-10-2025 07:00:00,25.42742023,86.13886079,PM10,18,100,45
India,Bihar,Bihar Sharif,"D M Colony, Bihar Sharif - BSPCB",16-10-2025 07:00:00,25.204762,85.514960,NH3,1,2,2
India,Bihar,Bihar Sharif,"D M Colony, Bihar Sharif - BSPCB",16-10-2025 07:00:00,25.204762,85.514960,CO,8,8,8
India,Bihar,Buxar,"Charitra Van, Buxar - BSPCB",16-10-2025 07:00:00,25.567520,83.966379,SO2,2,9,6
India,Bihar,Chhapra,"Darshan Nagar, Chhapra - BSPCB",16-10-2025 07:00:00,25.7808257,84.7446768,PM2.5,31,70,50
India,Bihar,Gaya,"Collectorate, Gaya - BSPCB",16-10-2025 07:00:00,24.7955,84.9994,PM2.5,78,167,118
India,Bihar,Gaya,"Collectorate, Gaya - BSPCB",16-10-2025 07:00:00,24.7955,84.9994,OZONE,20,21,20
India,Andaman and Nicobar,Sri Vijaya Puram,"Police Line, Sri Vijaya Puram - ANPCC",16-10-2025 07:00:00,11.654054,92.734055,PM2.5,NA,NA,NA
India,Andaman and Nicobar,Sri Vijaya Puram,"Police Line, Sri Vijaya Puram - ANPCC",16-10-2025 07:00:00,11.654054,92.734055,NO2,NA,NA,NA
India,Andaman and Nicobar,Sri Vijaya Puram,"Police Line, Sri Vijaya Puram - ANPCC",16-10-2025 07:00:00,11.654054,92.734055,NH3,NA,NA,NA
India,Andhra_Pradesh,Amaravati,"Secretariat, Amaravati - APPCB",16-10-2025 07:00:00,16.5150833,80.5181667,PM2.5,55,98,72
India,Andhra_Pradesh,Amaravati,"Secretariat, Amaravati - APPCB",16-10-2025 07:00:00,16.5150833,80.5181667,PM10,74,117,91
India,Andhra_Pradesh,Amaravati,"Secretariat, Amaravati - APPCB",16-10-2025 07:00:00,16.5150833,80.5181667,NH3,3,5,5
India,Andhra_Pradesh,Amaravati,"Secretariat, Amaravati - APPCB",16-10-2025 07:00:00,16.5150833,80.5181667,SO2,7,13,10
India,Andhra_Pradesh,Kadapa,"Yerramukkapalli, Kadapa - APPCB",16-10-2025 07:00:00,14.465052,78.824187,CO,14,20,16
India,Andhra_Pradesh,Kadapa,"Yerramukkapalli, Kadapa - APPCB",16-10-2025 07:00:00,14.465052,78.824187,OZONE,15,51,19
India,Andhra_Pradesh,Rajamahendravaram,"Anand Kala Kshetram, Rajamahendravaram - APPCB",16-10-2025 07:00:00,16.9872867,81.7363176,NO2,11,40,20
India,Andhra_Pradesh,Tirumala,"Toll Gate, Tirumala - APPCB",16-10-2025 07:00:00,13.67,79.35,PM2.5,13,47,31
India,Andhra_Pradesh,Tirupati,"Vaikuntapuram, Tirupati - APPCB",16-10-2025 07:00:00,13.615387,79.409230,NH3,3,4,3
India,Andhra_Pradesh,Tirupati,"Vaikuntapuram, Tirupati - APPCB",16-10-2025 07:00:00,13.615387,79.409230,OZONE,32,36,34
India,Andhra_Pradesh,Vijayawada,"HB Colony, Vijayawada - APPCB",16-10-2025 07:00:00,16.536107,80.594233,NO2,19,28,22
India,Andhra_Pradesh,Vijayawada,"Rajiv Nagar, Vijayawada - APPCB",16-10-2025 07:00:00,16.554731,80.649110,CO,12,28,25
India,Andhra_Pradesh,Visakhapatnam,"GVM Corporation, Visakhapatnam - APPCB",16-10-2025 07:00:00,17.72,83.3,PM2.5,85,155,115
India,Andhra_Pradesh,Visakhapatnam,"GVM Corporation, Visakhapatnam - APPCB",16-10-2025 07:00:00,17.72,83.3,NO2,11,34,22
India,Bihar,Begusarai,"Lohiyanagar, Begusarai - BSPCB",16-10-2025 07:00:00,25.42742023,86.13886079,NH3,3,4,4
India,Bihar,Bettiah,"Kamalnath Nagar, Bettiah - BSPCB",16-10-2025 07:00:00,26.80365,84.51954,SO2,9,16,13
India,Bihar,Bhagalpur,"DM Office_Kachari Chowk, Bhagalpur - BSPCB",16-10-2025 07:00:00,25.251013,86.989001,NH3,3,9,5
India,Bihar,Bhagalpur,"DM Office_Kachari Chowk, Bhagalpur - BSPCB",16-10-2025 07:00:00,25.251013,86.989001,OZONE,6,25,16
India,Bihar,Bhagalpur,"Mayaganj, Bhagalpur - BSPCB",16-10-2025 07:00:00,25.265194,87.012947,CO,28,70,54
India,Arunachal_Pradesh,Naharlagun,"Naharlagun, Naharlagun - APSPCB",16-10-2025 07:00:00,27.103358,93.679645,NO2,5,6,6
India,Assam,Byrnihat,"Central Academy for SFS, Byrnihat - PCBA",16-10-2025 07:00:00,26.071318,91.87488,NO2,NA,NA,NA
India,Assam,Byrnihat,"Central Academy for SFS, Byrnihat - PCBA",16-10-2025 07:00:00,26.071318,91.87488,NH3,NA,NA,NA
India,Assam,Byrnihat,"Central Academy for SFS, Byrnihat - PCBA",16-10-2025 07:00:00,26.071318,91.87488,OZONE,19,22,20
India,Assam,Guwahati,"LGBI Airport, Guwahati - PCBA",16-10-2025 07:00:00,26.10887,91.589544,PM2.5,49,53,51
India,Assam,Nagaon,"Christianpatty, Nagaon - PCBA",16-10-2025 07:00:00,26.349082,92.68449,SO2,3,14,12
India,Assam,Nagaon,"Christianpatty, Nagaon - PCBA",16-10-2025 07:00:00,26.349082,92.68449,OZONE,6,9,9
India,Assam,Silchar,"Tarapur, Silchar - PCBA",16-10-2025 07:00:00,24.82827,92.79525,PM10,49,62,53
India,Chhattisgarh,Raipur,"Siltara Phase-II, Raipur - CECB",16-10-2025 07:00:00,21.371751,81.664929,OZONE,6,8,7
India,Chhattisgarh,Tumidih,"OP Jindal Industrial Park, Tumidih - CECB",16-10-2025 07:00:00,22.06631475,83.33820077,OZONE,4,76,8
India,Delhi,Delhi,"Alipur, Delhi - DPCC",16-10-2025 07:00:00,28.815329,77.153010,PM2.5,45,346,228
India,Delhi,Delhi,"Alipur, Delhi - DPCC",16-10-2025 07:00:00,28.815329,77.153010,PM10,101,447,254
India,Delhi,Delhi,"Alipur, Delhi - DPCC",16-10-2025 07:00:00,28.815329,77.153010,NO2,26,123,73
India,Delhi,Delhi,"Alipur, Delhi - DPCC",16-10-2025 07:00:00,28.815329,77.153010,NH3,2,4,3
India,Delhi,Delhi,"Alipur, Delhi - DPCC",16-10-2025 07:00:00,28.815329,77.153010,SO2,5,17,10
India,Delhi,Delhi,"Alipur, Delhi - DPCC",16-10-2025 07:00:00,28.815329,77.153010,OZONE,2,73,3
India,Delhi,Delhi,"Anand Vihar, Delhi - DPCC",16-10-2025 07:00:00,28.647622,77.3158090,NH3,2,4,3
India,Delhi,Delhi,"Ashok Vihar, Delhi - DPCC",16-10-2025 07:00:00,28.695381,77.181665,PM10,129,422,251
India,Delhi,Delhi,"Ashok Vihar, Delhi - DPCC",16-10-2025 07:00:00,28.695381,77.181665,OZONE,2,196,2
India,Chhattisgarh,Bhilai,"Hathkhoj, Bhilai - CECB",16-10-2025 07:00:00,21.224231,81.408350,CO,20,55,45
India,Chhattisgarh,Chhal,"Nawapara SECL Colony, Chhal - CECB",16-10-2025 07:00:00,22.118125,83.140608,PM2.5,NA,NA,NA
India,Chhattisgarh,Chhal,"Nawapara SECL Colony, Chhal - CECB",16-10-2025 07:00:00,22.118125,83.140608,PM10,NA,NA,NA
India,Chhattisgarh,Chhal,"Nawapara SECL Colony, Chhal - CECB",16-10-2025 07:00:00,22.118125,83.140608,SO2,NA,NA,NA
India,Chhattisgarh,Korba,"Urja Nagar, Korba - CECB",16-10-2025 07:00:00,22.348441,82.549611,NH3,1,2,2
India,Chhattisgarh,Korba,"Urja Nagar, Korba - CECB",16-10-2025 07:00:00,22.348441,82.549611,SO2,8,15,12
India,Chhattisgarh,Kunjemura,"OP Jindal School, Kunjemura - CECB",16-10-2025 07:00:00,22.126650,83.483212,PM2.5,22,50,32
India,Chhattisgarh,Kunjemura,"OP Jindal School, Kunjemura - CECB",16-10-2025 07:00:00,22.126650,83.483212,PM10,32,82,51
India,Chhattisgarh,Milupara,"Govt. Higher Secondary School, Milupara - CECB",16-10-2025 07:00:00,22.1910172,83.5197009,NO2,10,37,18
India,Chhattisgarh,Milupara,"Govt. Higher Secondary School, Milupara - CECB",16-10-2025 07:00:00,22.1910172,83.5197009,SO2,3,16,14
India,Chhattisgarh,Milupara,"Govt. Higher Secondary School, Milupara - CECB",16-10-2025 07:00:00,22.1910172,83.5197009,CO,12,29,15
India,Chhattisgarh,Raipur,"AIIMS, Raipur - CECB",16-10-2025 07:00:00,21.258815,81.578979,NH3,4,5,5
India,Chhattisgarh,Raipur,"AIIMS, Raipur - CECB",16-10-2025 07:00:00,21.258815,81.578979,SO2,11,16,13
India,Chhattisgarh,Raipur,"Bhatagaon New ISBT, Raipur - CECB",16-10-2025 07:00:00,21.219665,81.630094,PM10,33,76,60
India,Chhattisgarh,Raipur,"Bhatagaon New ISBT, Raipur - CECB",16-10-2025 07:00:00,21.219665,81.630094,SO2,6,12,8
India,Chhattisgarh,Raipur,"Krishak Nagar, Raipur - CECB",16-10-2025 07:00:00,21.237755,81.705301,PM10,26,65,45
India,Chhattisgarh,Raipur,"Krishak Nagar, Raipur - CECB",16-10-2025 07:00:00,21.237755,81.705301,CO,13,25,21
India,Chhattisgarh,Raipur,"Siltara Phase-II, Raipur - CECB",16-10-2025 07:00:00,21.371751,81.664929,NH3,NA,NA,NA
India,Chandigarh,Chandigarh,"Sector-53, Chandigarh - CPCC",16-10-2025 07:00:00,30.719859,76.738637,PM2.5,67,213,125
India,Chandigarh,Chandigarh,"Sector-53, Chandigarh - CPCC",16-10-2025 07:00:00,30.719859,76.738637,NO2,10,143,50
India,Chhattisgarh,Bhilai,"32Bungalows, Bhilai - CECB",16-10-2025 07:00:00,21.194815,81.314770,PM2.5,43,61,51
India,Chhattisgarh,Bhilai,"Civic Center, Bhilai - Bhilai Steel Plant",16-10-2025 07:00:00,21.185571,81.343175,PM10,61,121,94
India,Chhattisgarh,Bhilai,"Civic Center, Bhilai - Bhilai Steel Plant",16-10-2025 07:00:00,21.185571,81.343175,NH3,3,3,3
India,Chhattisgarh,Bhilai,"Civic Center, Bhilai - Bhilai Steel Plant",16-10-2025 07:00:00,21.185571,81.343175,SO2,7,13,9
India,Delhi,Delhi,"Bawana, Delhi - DPCC",16-10-2025 07:00:00,28.776200,77.051074,CO,NA,NA,NA
India,Delhi,Delhi,"CRRI Mathura Road, Delhi - IMD",16-10-2025 07:00:00,28.5512005,77.2735737,PM10,127,470,312
India,Delhi,Delhi,"Chandni Chowk, Delhi - IITM",16-10-2025 07:00:00,28.656756,77.227234,CO,42,149,123
India,Delhi,Delhi,"Chandni Chowk, Delhi - IITM",16-10-2025 07:00:00,28.656756,77.227234,OZONE,1,129,2
India,Delhi,Delhi,"DTU, Delhi - CPCB",16-10-2025 07:00:00,28.7500499,77.1112615,PM2.5,49,217,124
India,Delhi,Delhi,"DTU, Delhi - CPCB",16-10-2025 07:00:00,28.7500499,77.1112615,PM10,89,249,179
India,Bihar,Patna,"Rajbansi Nagar, Patna - BSPCB",16-10-2025 07:00:00,25.599486,85.113666,PM2.5,67,115,89
India,Bihar,Patna,"Rajbansi Nagar, Patna - BSPCB",16-10-2025 07:00:00,25.599486,85.113666,PM10,69,99,86
India,Bihar,Purnia,"Mariam Nagar, Purnia - BSPCB",16-10-2025 07:00:00,25.366336,87.117468,NO2,5,7,5
India,Bihar,Purnia,"Mariam Nagar, Purnia - BSPCB",16-10-2025 07:00:00,25.366336,87.117468,NH3,3,3,3
India,Bihar,Purnia,"Mariam Nagar, Purnia - BSPCB",16-10-2025 07:00:00,25.366336,87.117468,SO2,1,22,12
India,Bihar,Rajgir,"Dangi Tola, Rajgir - BSPCB",16-10-2025 07:00:00,25.03280,85.41948,SO2,19,22,21
India,Bihar,Samastipur,"DM Office_Kasipur, Samastipur - BSPCB",16-10-2025 07:00:00,25.859655,85.77944,NH3,2,2,2
India,Chandigarh,Chandigarh,"Sector 22, Chandigarh - CPCC",16-10-2025 07:00:00,30.735567,76.775714,NO2,19,136,54
India,Delhi,Delhi,"IGI Airport (T3), Delhi - IMD",16-10-2025 07:00:00,28.5627763,77.1180053,PM2.5,65,315,214
India,Delhi,Delhi,"IGI Airport (T3), Delhi - IMD",16-10-2025 07:00:00,28.5627763,77.1180053,OZONE,2,8,6
India,Bihar,Patna,"DRM Office Danapur, Patna - BSPCB",16-10-2025 07:00:00,25.586562,85.043586,SO2,10,17,14
India,Delhi,Delhi,"Okhla Phase-2, Delhi - DPCC",16-10-2025 07:00:00,28.530785,77.271255,PM2.5,80,332,228
India,Delhi,Delhi,"Okhla Phase-2, Delhi - DPCC",16-10-2025 07:00:00,28.530785,77.271255,OZONE,17,179,21
India,Delhi,Delhi,"Patparganj, Delhi - DPCC",16-10-2025 07:00:00,28.623763,77.287209,PM10,129,388,243
India,Delhi,Delhi,"Patparganj, Delhi - DPCC",16-10-2025 07:00:00,28.623763,77.287209,NO2,34,167,101
India,Delhi,Delhi,"Patparganj, Delhi - DPCC",16-10-2025 07:00:00,28.623763,77.287209,SO2,1,8,4
India,Delhi,Delhi,"Pusa, Delhi - DPCC",16-10-2025 07:00:00,28.639652,77.146275,PM10,153,334,190
India,Delhi,Delhi,"Pusa, Delhi - DPCC",16-10-2025 07:00:00,28.639652,77.146275,SO2,8,18,11
India,Delhi,Delhi,"Pusa, Delhi - DPCC",16-10-2025 07:00:00,28.639652,77.146275,CO,16,112,88
India,Delhi,Delhi,"Pusa, Delhi - IMD",16-10-2025 07:00:00,28.636110,77.173332,CO,NA,NA,NA
India,Delhi,Delhi,"NSIT Dwarka, Delhi - CPCB",16-10-2025 07:00:00,28.60909,77.0325413,PM2.5,38,194,78
India,Delhi,Delhi,"NSIT Dwarka, Delhi - CPCB",16-10-2025 07:00:00,28.60909,77.0325413,SO2,2,56,31
India,Delhi,Delhi,"Najafgarh, Delhi - DPCC",16-10-2025 07:00:00,28.570173,76.933762,NO2,38,146,108
India,Delhi,Delhi,"Najafgarh, Delhi - DPCC",16-10-2025 07:00:00,28.570173,76.933762,NH3,1,2,2
India,Delhi,Delhi,"Narela, Delhi - DPCC",16-10-2025 07:00:00,28.822836,77.101981,PM2.5,60,434,255
India,Delhi,Delhi,"Nehru Nagar, Delhi - DPCC",16-10-2025 07:00:00,28.567890,77.250515,PM2.5,83,370,233
India,Delhi,Delhi,"Nehru Nagar, Delhi - DPCC",16-10-2025 07:00:00,28.567890,77.250515,PM10,123,314,196
India,Delhi,Delhi,"Nehru Nagar, Delhi - DPCC",16-10-2025 07:00:00,28.567890,77.250515,NO2,28,156,77
India,Delhi,Delhi,"Shadipur, Delhi - CPCB",16-10-2025 07:00:00,28.6514781,77.1473105,PM2.5,57,195,136
India,Delhi,Delhi,"Shadipur, Delhi - CPCB",16-10-2025 07:00:00,28.6514781,77.1473105,PM10,104,318,214
India,Delhi,Delhi,"Shadipur, Delhi - CPCB",16-10-2025 07:00:00,28.6514781,77.1473105,NO2,48,262,119
India,Delhi,Delhi,"Sirifort, Delhi - CPCB",16-10-2025 07:00:00,28.5504249,77.2159377,PM2.5,133,410,258
India,Delhi,Delhi,"Sirifort, Delhi - CPCB",16-10-2025 07:00:00,28.5504249,77.2159377,NH3,6,10,9
India,Delhi,Delhi,"Sirifort, Delhi - CPCB",16-10-2025 07:00:00,28.5504249,77.2159377,SO2,24,31,27
India,Delhi,Delhi,"Sonia Vihar, Delhi - DPCC",16-10-2025 07:00:00,28.710508,77.249485,PM2.5,65,329,202
India,Delhi,Delhi,"Sonia Vihar, Delhi - DPCC",16-10-2025 07:00:00,28.710508,77.249485,PM10,94,270,162
India,Delhi,Delhi,"Sonia Vihar, Delhi - DPCC",16-10-2025 07:00:00,28.710508,77.249485,OZONE,4,247,6
India,Delhi,Delhi,"Sri Aurobindo Marg, Delhi - DPCC",16-10-2025 07:00:00,28.531346,77.190156,SO2,1,7,3
India,Delhi,Delhi,"Sri Aurobindo Marg, Delhi - DPCC",16-10-2025 07:00:00,28.531346,77.190156,CO,23,97,81
India,Delhi,Delhi,"Sri Aurobindo Marg, Delhi - DPCC",16-10-2025 07:00:00,28.531346,77.190156,OZONE,1,144,2
India,Delhi,Delhi,"Vivek Vihar, Delhi - DPCC",16-10-2025 07:00:00,28.672342,77.315260,NO2,20,120,68
India,Delhi,Delhi,"Vivek Vihar, Delhi - DPCC",16-10-2025 07:00:00,28.672342,77.315260,SO2,12,27,18
India,Delhi,Delhi,"Wazirpur, Delhi - DPCC",16-10-2025 07:00:00,28.699793,77.165453,CO,14,131,58
India,Delhi,Delhi,"ITO, Delhi - CPCB",16-10-2025 07:00:00,28.628624,77.241060,NO2,83,125,103
India,Delhi,Delhi,"ITO, Delhi - CPCB",16-10-2025 07:00:00,28.628624,77.241060,OZONE,5,64,5
India,Delhi,Delhi,"Jawaharlal Nehru Stadium, Delhi - DPCC",16-10-2025 07:00:00,28.580280,77.233829,NH3,5,7,6
India,Delhi,Delhi,"Jawaharlal Nehru Stadium, Delhi - DPCC",16-10-2025 07:00:00,28.580280,77.233829,SO2,3,35,13
India,Delhi,Delhi,"Jawaharlal Nehru Stadium, Delhi - DPCC",16-10-2025 07:00:00,28.580280,77.233829,CO,30,134,123
India,Delhi,Delhi,"Lodhi Road, Delhi - IITM",16-10-2025 07:00:00,28.588333,77.221667,PM10,110,196,150
India,Delhi,Delhi,"Lodhi Road, Delhi - IITM",16-10-2025 07:00:00,28.588333,77.221667,SO2,3,22,10
India,Gujarat,Gandhinagar,"GIFT City, Gandhinagar - IITM",16-10-2025 07:00:00,23.163798,72.677768,NO2,10,80,40
India,Gujarat,Gandhinagar,"GIFT City, Gandhinagar - IITM",16-10-2025 07:00:00,23.163798,72.677768,OZONE,3,78,4
India,Gujarat,Gandhinagar,"IIPHG Lekawada, Gandhinagar - IITM",16-10-2025 07:00:00,23.243639,72.68994,PM2.5,64,152,94
India,Gujarat,Gandhinagar,"IIPHG Lekawada, Gandhinagar - IITM",16-10-2025 07:00:00,23.243639,72.68994,NH3,1,1,1
India,Gujarat,Surat,"Science Center, Surat - SMC",16-10-2025 07:00:00,21.170046,72.795405,NO2,4,19,11
India,Gujarat,Surat,"Science Center, Surat - SMC",16-10-2025 07:00:00,21.170046,72.795405,CO,36,41,38
India,Gujarat,Ahmedabad,"Chandkheda, Ahmedabad - IITM",16-10-2025 07:00:00,23.107969,72.574648,CO,4,122,54
India,Gujarat,Ahmedabad,"Gyaspur, Ahmedabad - IITM",16-10-2025 07:00:00,22.977134,72.553024,NH3,2,11,6
India,Gujarat,Ahmedabad,"Maninagar, Ahmedabad - GPCB",16-10-2025 07:00:00,23.002657,72.591912,PM2.5,14,131,50
India,Gujarat,Ahmedabad,"Raikhad, Ahmedabad - IITM",16-10-2025 07:00:00,23.020509,72.579261,NH3,8,23,15
India,Gujarat,Ahmedabad,"Raikhad, Ahmedabad - IITM",16-10-2025 07:00:00,23.020509,72.579261,CO,1,171,70
India,Delhi,Delhi,"Lodhi Road, Delhi - IMD",16-10-2025 07:00:00,28.5918245,77.2273074,CO,33,108,105
India,Delhi,Delhi,"Mandir Marg, Delhi - DPCC",16-10-2025 07:00:00,28.636429,77.201067,SO2,14,18,17
India,Delhi,Delhi,"Mandir Marg, Delhi - DPCC",16-10-2025 07:00:00,28.636429,77.201067,CO,28,121,109
India,Delhi,Delhi,"Mundka, Delhi - DPCC",16-10-2025 07:00:00,28.684678,77.076574,PM10,117,500,281
India,Delhi,Delhi,"Mundka, Delhi - DPCC",16-10-2025 07:00:00,28.684678,77.076574,NH3,2,9,6
India,Gujarat,Ahmedabad,"SVPI Airport Hansol, Ahmedabad - IITM",16-10-2025 07:00:00,23.076793,72.627874,NO2,39,130,71
India,Gujarat,Ahmedabad,"SVPI Airport Hansol, Ahmedabad - IITM",16-10-2025 07:00:00,23.076793,72.627874,NH3,1,5,2
India,Gujarat,Gandhinagar,"GIFT City, Gandhinagar - IITM",16-10-2025 07:00:00,23.163798,72.677768,PM2.5,64,192,112
India,Gujarat,Vapi,"Phase-1 GIDC, Vapi - GPCB",16-10-2025 07:00:00,20.362421,72.918013,PM2.5,NA,NA,NA
India,Gujarat,Vapi,"Phase-1 GIDC, Vapi - GPCB",16-10-2025 07:00:00,20.362421,72.918013,PM10,NA,NA,NA
India,Gujarat,Vapi,"Phase-1 GIDC, Vapi - GPCB",16-10-2025 07:00:00,20.362421,72.918013,NO2,NA,NA,NA
India,Gujarat,Vatva,"Phase-4 GIDC, Vatva - GPCB",16-10-2025 07:00:00,22.969611,72.643500,NO2,23,58,39
India,Haryana,Ambala,"Patti Mehar, Ambala - HSPCB",16-10-2025 07:00:00,30.379589,76.778328,NH3,7,9,8
India,Haryana,Ballabgarh,"Nathu Colony, Ballabgarh - HSPCB",16-10-2025 07:00:00,28.3419248,77.319699,NO2,19,20,20
India,Haryana,Ballabgarh,"Nathu Colony, Ballabgarh - HSPCB",16-10-2025 07:00:00,28.3419248,77.319699,NH3,3,3,3
India,Jharkhand,Dhanbad,"Sardar Patel Nagar, Dhanbad - JSPCB",16-10-2025 07:00:00,23.80569,86.44268,PM2.5,21,95,64
India,Jharkhand,Dhanbad,"Sardar Patel Nagar, Dhanbad - JSPCB",16-10-2025 07:00:00,23.80569,86.44268,SO2,NA,NA,NA
India,Jharkhand,Jorapokhar,"Tata Stadium, Jorapokhar - JSPCB",16-10-2025 07:00:00,23.707909,86.414670,OZONE,NA,NA,NA
India,Karnataka,Bagalkot,"Vidayagiri, Bagalkot - KSPCB",16-10-2025 07:00:00,16.172806,75.659694,PM10,42,43,42
India,Karnataka,Bagalkot,"Vidayagiri, Bagalkot - KSPCB",16-10-2025 07:00:00,16.172806,75.659694,NO2,9,11,9
India,Karnataka,Bengaluru,"BTM Layout, Bengaluru - CPCB",16-10-2025 07:00:00,12.9135218,77.5950804,OZONE,25,26,25
India,Karnataka,Bengaluru,"Hebbal, Bengaluru - KSPCB",16-10-2025 07:00:00,13.029152,77.585901,SO2,3,7,6
India,Karnataka,Bengaluru,"Hombegowda Nagar, Bengaluru - KSPCB",16-10-2025 07:00:00,12.938539,77.590100,PM2.5,13,26,18
India,Karnataka,Bengaluru,"Hombegowda Nagar, Bengaluru - KSPCB",16-10-2025 07:00:00,12.938539,77.590100,PM10,30,48,36
India,Karnataka,Bengaluru,"Hombegowda Nagar, Bengaluru - KSPCB",16-10-2025 07:00:00,12.938539,77.590100,NH3,1,2,2
India,Karnataka,Bengaluru,"Hombegowda Nagar, Bengaluru - KSPCB",16-10-2025 07:00:00,12.938539,77.590100,CO,10,47,13
India,Karnataka,Bengaluru,"Jayanagar 5th Block, Bengaluru - KSPCB",16-10-2025 07:00:00,12.920984,77.584908,PM10,24,54,34
India,Karnataka,Bengaluru,"Peenya, Bengaluru - CPCB",16-10-2025 07:00:00,13.0270199,77.494094,NO2,17,26,21
India,Haryana,Kaithal,"Rishi Nagar, Kaithal - HSPCB",16-10-2025 07:00:00,29.8006,76.4155,PM10,42,301,107
India,Haryana,Kaithal,"Rishi Nagar, Kaithal - HSPCB",16-10-2025 07:00:00,29.8006,76.4155,NH3,5,6,6
India,Haryana,Kaithal,"Rishi Nagar, Kaithal - HSPCB",16-10-2025 07:00:00,29.8006,76.4155,CO,10,24,18
India,Haryana,Karnal,"Sector-12, Karnal - HSPCB",16-10-2025 07:00:00,29.695300,77.002700,SO2,8,10,9
India,Haryana,Karnal,"Sector-12, Karnal - HSPCB",16-10-2025 07:00:00,29.695300,77.002700,CO,44,56,51
India,Haryana,Mandikhera,"General Hospital, Mandikhera - HSPCB",16-10-2025 07:00:00,27.9002,76.9938,PM2.5,58,193,100
India,Haryana,Rohtak,"MD University, Rohtak - HSPCB",16-10-2025 07:00:00,28.52123,76.37138,PM10,82,142,117
India,Haryana,Rohtak,"MD University, Rohtak - HSPCB",16-10-2025 07:00:00,28.52123,76.37138,CO,24,34,29
India,Haryana,Sirsa,"F-Block, Sirsa - HSPCB",16-10-2025 07:00:00,29.536400,75.015800,NO2,18,52,32
India,Haryana,Sirsa,"F-Block, Sirsa - HSPCB",16-10-2025 07:00:00,29.536400,75.015800,CO,44,74,62
India,Haryana,Yamuna Nagar,"Gobind Pura, Yamuna Nagar - HSPCB",16-10-2025 07:00:00,30.1480566,77.2893471,SO2,9,16,12
India,Haryana,Yamuna Nagar,"Gobind Pura, Yamuna Nagar - HSPCB",16-10-2025 07:00:00,30.1480566,77.2893471,CO,9,124,80
India,Haryana,Mandikhera,"General Hospital, Mandikhera - HSPCB",16-10-2025 07:00:00,27.9002,76.9938,OZONE,15,16,16
India,Haryana,Manesar,"Sector-2 IMT, Manesar - HSPCB",16-10-2025 07:00:00,28.360699,76.936090,PM10,NA,NA,NA
India,Haryana,Panchgaon,"Amity University, Panchgaon - IITM",16-10-2025 07:00:00,28.3153,76.9143,PM10,36,213,83
India,Haryana,Rohtak,"MD University, Rohtak - HSPCB",16-10-2025 07:00:00,28.52123,76.37138,PM2.5,96,281,195
India,Haryana,Bhiwani,"H.B. Colony, Bhiwani - HSPCB",16-10-2025 07:00:00,28.806223,76.141105,NH3,7,8,8
India,Haryana,Charkhi Dadri,"Mini Secretariat, Charkhi Dadri - HSPCB",16-10-2025 07:00:00,28.593883,76.270653,NH3,5,8,6
India,Haryana,Charkhi Dadri,"Mini Secretariat, Charkhi Dadri - HSPCB",16-10-2025 07:00:00,28.593883,76.270653,OZONE,12,18,15
India,Haryana,Faridabad,"Sector 11, Faridabad - HSPCB",16-10-2025 07:00:00,28.376058,77.315741,NH3,NA,NA,NA
India,Haryana,Faridabad,"Sector 30, Faridabad - HSPCB",16-10-2025 07:00:00,28.4417,77.3217,OZONE,17,19,18
India,Haryana,Fatehabad,"Huda Sector, Fatehabad - HSPCB",16-10-2025 07:00:00,29.503664,75.467934,PM2.5,91,189,128
India,Haryana,Gurugram,"Vikas Sadan, Gurugram - HSPCB",16-10-2025 07:00:00,28.4501238,77.0263051,CO,101,141,119
India,Karnataka,Bengaluru,"Shivapura_Peenya, Bengaluru - KSPCB",16-10-2025 07:00:00,13.0246342,77.5080115,PM2.5,68,129,86
India,Karnataka,Chikkamagaluru,"Kalyana Nagara, Chikkamagaluru - KSPCB",16-10-2025 07:00:00,13.328028,75.797056,PM10,27,57,37
India,Karnataka,Karwar,"KHB Colony, Karwar - KSPCB",16-10-2025 07:00:00,14.816666,74.141003,PM2.5,NA,NA,NA
India,Karnataka,Karwar,"KHB Colony, Karwar - KSPCB",16-10-2025 07:00:00,14.816666,74.141003,SO2,26,62,35
India,Karnataka,Madikeri,"Stuart Hill, Madikeri - KSPCB",16-10-2025 07:00:00,12.415911,75.735050,PM10,12,26,19
India,Karnataka,Madikeri,"Stuart Hill, Madikeri - KSPCB",16-10-2025 07:00:00,12.415911,75.735050,SO2,7,7,7
India,Karnataka,Mangalore,"Kadri, Mangalore - KSPCB",16-10-2025 07:00:00,12.889250,74.853000,NO2,NA,NA,NA
India,Karnataka,Mangalore,"Kadri, Mangalore - KSPCB",16-10-2025 07:00:00,12.889250,74.853000,SO2,NA,NA,NA
India,Karnataka,Mangalore,"Kadri, Mangalore - KSPCB",16-10-2025 07:00:00,12.889250,74.853000,OZONE,NA,NA,NA
India,Karnataka,Mysuru,"Hebbal 1st Stage, Mysuru - KSPCB",16-10-2025 07:00:00,12.21041,76.37376,SO2,1,11,2
India,Karnataka,Ramanagara,"Vijay Nagar, Ramanagara - KSPCB",16-10-2025 07:00:00,12.733409,77.298051,PM10,28,59,35
India,Karnataka,Ramanagara,"Vijay Nagar, Ramanagara - KSPCB",16-10-2025 07:00:00,12.733409,77.298051,NO2,26,63,49
India,Karnataka,Ramanagara,"Vijay Nagar, Ramanagara - KSPCB",16-10-2025 07:00:00,12.733409,77.298051,NH3,NA,NA,NA
India,Kerala,Kollam,"Polayathode, Kollam - Kerala PCB",16-10-2025 07:00:00,8.8787,76.6073,PM10,29,51,38
India,Kerala,Kollam,"Polayathode, Kollam - Kerala PCB",16-10-2025 07:00:00,8.8787,76.6073,CO,14,17,16
India,Kerala,Thiruvananthapuram,"Kariavattom, Thiruvananthapuram - Kerala PCB",16-10-2025 07:00:00,8.563700,76.886500,SO2,1,23,9
India,Kerala,Thiruvananthapuram,"Kariavattom, Thiruvananthapuram - Kerala PCB",16-10-2025 07:00:00,8.563700,76.886500,OZONE,36,37,36
India,Kerala,Thiruvananthapuram,"Plammoodu, Thiruvananthapuram - Kerala PCB",16-10-2025 07:00:00,8.5149093,76.9435879,PM2.5,14,311,120
India,Kerala,Thiruvananthapuram,"Plammoodu, Thiruvananthapuram - Kerala PCB",16-10-2025 07:00:00,8.5149093,76.9435879,PM10,1,167,40
India,Kerala,Thiruvananthapuram,"Plammoodu, Thiruvananthapuram - Kerala PCB",16-10-2025 07:00:00,8.5149093,76.9435879,NH3,6,8,7
India,Madhya Pradesh,Bhopal,"Idgah Hills, Bhopal - MPPCB",16-10-2025 07:00:00,23.264759,77.381568,PM10,103,259,147
India,Madhya Pradesh,Bhopal,"Idgah Hills, Bhopal - MPPCB",16-10-2025 07:00:00,23.264759,77.381568,NO2,13,74,24
India,Madhya Pradesh,Bhopal,"Idgah Hills, Bhopal - MPPCB",16-10-2025 07:00:00,23.264759,77.381568,SO2,9,12,10
India,Karnataka,Ramanagara,"Vijay Nagar, Ramanagara - KSPCB",16-10-2025 07:00:00,12.733409,77.298051,SO2,15,22,18
India,Karnataka,Shivamogga,"Vinoba Nagara, Shivamogga - KSPCB",16-10-2025 07:00:00,13.940000,75.555917,NH3,3,4,3
