country,state,city,station,last_update,latitude,longitude,pollutant_id,min_value,max_value,avg_value
India,Bihar,Bhagalpur,"DM Office_Kachari Chowk, Bhagalpur - BSPCB",16-09-2025 07:00:00,25.251013,86.989001,CO,16,18,17
India,Bihar,Bhagalpur,"Mayaganj, Bhagalpur - BSPCB",16-09-2025 07:00:00,25.265194,87.012947,PM2.5,17,62,35
India,Bihar,Bihar Sharif,"D M Colony, Bihar Sharif - BSPCB",16-09-2025 07:00:00,25.204762,85.514960,NH3,2,4,3
India,Bihar,Bihar Sharif,"D M Colony, Bihar Sharif - BSPCB",16-09-2025 07:00:00,25.204762,85.514960,CO,NA,NA,NA
India,Bihar,Buxar,"Charitra Van, Buxar - BSPCB",16-09-2025 07:00:00,25.567520,83.966379,NO2,9,10,9
India,Bihar,Buxar,"Charitra Van, Buxar - BSPCB",16-09-2025 07:00:00,25.567520,83.966379,NH3,3,3,3
India,Bihar,Buxar,"Charitra Van, Buxar - BSPCB",16-09-2025 07:00:00,25.567520,83.966379,OZONE,1,109,1
India,Bihar,Chhapra,"Darshan Nagar, Chhapra - BSPCB",16-09-2025 07:00:00,25.7808257,84.7446768,NO2,1,2,1
India,Bihar,Chhapra,"Darshan Nagar, Chhapra - BSPCB",16-09-2025 07:00:00,25.7808257,84.7446768,NH3,3,4,3
India,Bihar,Chhapra,"Darshan Nagar, Chhapra - BSPCB",16-09-2025 07:00:00,25.7808257,84.7446768,CO,4,10,4
India,Bihar,Arrah,"New DM Office, Arrah - BSPCB",16-09-2025 07:00:00,25.5626095,84.663264,SO2,8,10,10
India,Bihar,Aurangabad,"Gurdeo Nagar, Aurangabad - BSPCB",16-09-2025 07:00:00,24.75746,84.366208,PM2.5,17,197,53
India,Bihar,Aurangabad,"Gurdeo Nagar, Aurangabad - BSPCB",16-09-2025 07:00:00,24.75746,84.366208,PM10,22,167,63
India,Bihar,Begusarai,"Lohiyanagar, Begusarai - BSPCB",16-09-2025 07:00:00,25.42742023,86.13886079,CO,44,86,52
India,Bihar,Begusarai,"Lohiyanagar, Begusarai - BSPCB",16-09-2025 07:00:00,25.42742023,86.13886079,OZONE,13,48,23
India,Bihar,Bettiah,"Kamalnath Nagar, Bettiah - BSPCB",16-09-2025 07:00:00,26.80365,84.51954,PM2.5,NA,NA,NA
India,Bihar,Bhagalpur,"DM Office_Kachari Chowk, Bhagalpur - BSPCB",16-09-2025 07:00:00,25.251013,86.989001,PM2.5,13,80,36
India,Bihar,Bhagalpur,"DM Office_Kachari Chowk, Bhagalpur - BSPCB",16-09-2025 07:00:00,25.251013,86.989001,PM10,11,82,41
India,Arunachal_Pradesh,Naharlagun,"Naharlagun, Naharlagun - APSPCB",16-09-2025 07:00:00,27.103358,93.679645,OZONE,4,5,4
India,Assam,Byrnihat,"Central Academy for SFS, Byrnihat - PCBA",16-09-2025 07:00:00,26.071318,91.87488,NO2,4,9,7
India,Assam,Guwahati,"IITG, Guwahati - PCBA",16-09-2025 07:00:00,26.2028636,91.70046436,NO2,1,5,2
India,Assam,Guwahati,"IITG, Guwahati - PCBA",16-09-2025 07:00:00,26.2028636,91.70046436,NH3,5,5,5
India,Assam,Guwahati,"IITG, Guwahati - PCBA",16-09-2025 07:00:00,26.2028636,91.70046436,SO2,21,24,22
India,Assam,Guwahati,"Railway Colony, Guwahati - PCBA",16-09-2025 07:00:00,26.181742,91.78063,PM10,13,89,40
India,Bihar,Katihar,"Mirchaibari, Katihar - BSPCB",16-09-2025 07:00:00,25.560083,87.553265,OZONE,1,21,4
India,Bihar,Manguraha,"Forest Rest House, Manguraha - BSPCB",16-09-2025 07:00:00,27.308328,84.531742,NH3,1,1,1
India,Bihar,Motihari,"Gandak Colony, Motihari - BSPCB",16-09-2025 07:00:00,26.63086,84.90051,PM2.5,NA,NA,NA
India,Bihar,Muzaffarpur,"Buddha Colony, Muzaffarpur - BSPCB",16-09-2025 07:00:00,26.11442,85.39813,PM10,20,36,27
India,Bihar,Muzaffarpur,"Buddha Colony, Muzaffarpur - BSPCB",16-09-2025 07:00:00,26.11442,85.39813,SO2,3,6,4
India,Assam,Nagaon,"Christianpatty, Nagaon - PCBA",16-09-2025 07:00:00,26.349082,92.68449,NO2,1,1,1
India,Assam,Nalbari,"Bata Chowk, Nalbari - PCBA",16-09-2025 07:00:00,26.446912,91.439057,NH3,1,4,2
India,Assam,Silchar,"Tarapur, Silchar - PCBA",16-09-2025 07:00:00,24.82827,92.79525,CO,14,69,52
India,Assam,Sivasagar,"Girls College, Sivasagar - PCBA",16-09-2025 07:00:00,26.987634,94.636574,PM10,26,34,28
India,Assam,Sivasagar,"Girls College, Sivasagar - PCBA",16-09-2025 07:00:00,26.987634,94.636574,NH3,3,4,3
India,Andhra_Pradesh,Kadapa,"Yerramukkapalli, Kadapa - APPCB",16-09-2025 07:00:00,14.465052,78.824187,PM10,57,106,69
India,Andhra_Pradesh,Kadapa,"Yerramukkapalli, Kadapa - APPCB",16-09-2025 07:00:00,14.465052,78.824187,NO2,10,12,12
India,Andhra_Pradesh,Tirumala,"Toll Gate, Tirumala - APPCB",16-09-2025 07:00:00,13.67,79.35,PM2.5,NA,NA,NA
India,Andhra_Pradesh,Tirupati,"Vaikuntapuram, Tirupati - APPCB",16-09-2025 07:00:00,13.615387,79.409230,NO2,4,5,5
India,Bihar,Muzaffarpur,"MIT-Daudpur Kothi, Muzaffarpur - BSPCB",16-09-2025 07:00:00,26.1403345,85.3650192,PM10,32,49,37
India,Bihar,Muzaffarpur,"MIT-Daudpur Kothi, Muzaffarpur - BSPCB",16-09-2025 07:00:00,26.1403345,85.3650192,NH3,1,1,1
India,Bihar,Muzaffarpur,"MIT-Daudpur Kothi, Muzaffarpur - BSPCB",16-09-2025 07:00:00,26.1403345,85.3650192,OZONE,14,35,28
India,Bihar,Patna,"Govt. High School Shikarpur, Patna - BSPCB",16-09-2025 07:00:00,25.592539,85.227158,SO2,7,18,10
India,Andhra_Pradesh,Tirupati,"Vaikuntapuram, Tirupati - APPCB",16-09-2025 07:00:00,13.615387,79.409230,CO,12,24,16
India,Andhra_Pradesh,Vijayawada,"HB Colony, Vijayawada - APPCB",16-09-2025 07:00:00,16.536107,80.594233,PM10,60,90,69
India,Andhra_Pradesh,Vijayawada,"HB Colony, Vijayawada - APPCB",16-09-2025 07:00:00,16.536107,80.594233,NO2,21,22,21
India,Andhra_Pradesh,Vijayawada,"Rajiv Gandhi Park, Vijayawada - APPCB",16-09-2025 07:00:00,16.509717,80.612222,PM10,NA,NA,NA
India,Bihar,Gaya,"Kareemganj, Gaya - BSPCB",16-09-2025 07:00:00,24.792403,84.992416,PM10,29,91,56
India,Bihar,Gaya,"Kareemganj, Gaya - BSPCB",16-09-2025 07:00:00,24.792403,84.992416,SO2,15,17,16
India,Bihar,Gaya,"SFTI Kusdihra, Gaya - BSPCB",16-09-2025 07:00:00,24.762518,84.982348,NO2,15,19,18
India,Bihar,Katihar,"Mirchaibari, Katihar - BSPCB",16-09-2025 07:00:00,25.560083,87.553265,NO2,11,17,14
India,Andhra_Pradesh,Amaravati,"Secretariat, Amaravati - APPCB",16-09-2025 07:00:00,16.5150833,80.5181667,NH3,2,5,4
India,Andhra_Pradesh,Amaravati,"Secretariat, Amaravati - APPCB",16-09-2025 07:00:00,16.5150833,80.5181667,SO2,7,13,10
India,Chandigarh,Chandigarh,"Sector 22, Chandigarh - CPCC",16-09-2025 07:00:00,30.735567,76.775714,OZONE,4,33,14
India,Chandigarh,Chandigarh,"Sector-25, Chandigarh - CPCC",16-09-2025 07:00:00,30.751462,76.762879,PM10,1,81,58
India,Chandigarh,Chandigarh,"Sector-25, Chandigarh - CPCC",16-09-2025 07:00:00,30.751462,76.762879,CO,10,30,23
India,Chandigarh,Chandigarh,"Sector-25, Chandigarh - CPCC",16-09-2025 07:00:00,30.751462,76.762879,OZONE,9,83,17
India,Chandigarh,Chandigarh,"Sector-53, Chandigarh - CPCC",16-09-2025 07:00:00,30.719859,76.738637,NO2,NA,NA,NA
India,Chandigarh,Chandigarh,"Sector-53, Chandigarh - CPCC",16-09-2025 07:00:00,30.719859,76.738637,SO2,NA,NA,NA
India,Chhattisgarh,Bhilai,"32Bungalows, Bhilai - CECB",16-09-2025 07:00:00,21.194815,81.314770,PM10,6,20,11
India,Chhattisgarh,Bhilai,"32Bungalows, Bhilai - CECB",16-09-2025 07:00:00,21.194815,81.314770,SO2,6,8,7
India,Chhattisgarh,Bhilai,"32Bungalows, Bhilai - CECB",16-09-2025 07:00:00,21.194815,81.314770,OZONE,2,38,8
India,Chhattisgarh,Raipur,"Siltara Phase-II, Raipur - CECB",16-09-2025 07:00:00,21.371751,81.664929,PM2.5,3,9,6
India,Chhattisgarh,Raipur,"Siltara Phase-II, Raipur - CECB",16-09-2025 07:00:00,21.371751,81.664929,SO2,5,9,7
India,Chhattisgarh,Raipur,"Siltara Phase-II, Raipur - CECB",16-09-2025 07:00:00,21.371751,81.664929,CO,12,44,20
India,Chhattisgarh,Tumidih,"OP Jindal Industrial Park, Tumidih - CECB",16-09-2025 07:00:00,22.06631475,83.33820077,CO,14,56,30
India,Delhi,Delhi,"Alipur, Delhi - DPCC",16-09-2025 07:00:00,28.815329,77.153010,PM10,63,296,128
India,Delhi,Delhi,"Alipur, Delhi - DPCC",16-09-2025 07:00:00,28.815329,77.153010,SO2,3,10,6
India,Delhi,Delhi,"Alipur, Delhi - DPCC",16-09-2025 07:00:00,28.815329,77.153010,OZONE,1,22,1
India,Delhi,Delhi,"Anand Vihar, Delhi - DPCC",16-09-2025 07:00:00,28.647622,77.3158090,OZONE,1,10,4
India,Bihar,Saharsa,"Police Line, Saharsa - BSPCB",16-09-2025 07:00:00,25.892357,86.590325,PM10,NA,NA,NA
India,Bihar,Saharsa,"Police Line, Saharsa - BSPCB",16-09-2025 07:00:00,25.892357,86.590325,NO2,NA,NA,NA
India,Bihar,Saharsa,"Police Line, Saharsa - BSPCB",16-09-2025 07:00:00,25.892357,86.590325,SO2,NA,NA,NA
India,Bihar,Samastipur,"DM Office_Kasipur, Samastipur - BSPCB",16-09-2025 07:00:00,25.859655,85.77944,SO2,26,43,35
India,Bihar,Samastipur,"DM Office_Kasipur, Samastipur - BSPCB",16-09-2025 07:00:00,25.859655,85.77944,CO,NA,NA,NA
India,Bihar,Sasaram,"Dada Peer, Sasaram - BSPCB",16-09-2025 07:00:00,24.952822,84.002396,PM2.5,3,16,8
India,Bihar,Siwan,"Chitragupta Nagar, Siwan - BSPCB",16-09-2025 07:00:00,26.2271665,84.3570427,NO2,1,1,1
India,Bihar,Siwan,"Chitragupta Nagar, Siwan - BSPCB",16-09-2025 07:00:00,26.2271665,84.3570427,SO2,3,5,4
India,Chhattisgarh,Raipur,"AIIMS, Raipur - CECB",16-09-2025 07:00:00,21.258815,81.578979,PM10,8,34,17
India,Chhattisgarh,Raipur,"AIIMS, Raipur - CECB",16-09-2025 07:00:00,21.258815,81.578979,NO2,7,12,9
India,Chhattisgarh,Raipur,"AIIMS, Raipur - CECB",16-09-2025 07:00:00,21.258815,81.578979,OZONE,5,7,5
India,Chhattisgarh,Raipur,"Bhatagaon New ISBT, Raipur - CECB",16-09-2025 07:00:00,21.219665,81.630094,NO2,5,24,11
India,Chhattisgarh,Raipur,"Bhatagaon New ISBT, Raipur - CECB",16-09-2025 07:00:00,21.219665,81.630094,NH3,2,2,2
India,Chhattisgarh,Raipur,"Bhatagaon New ISBT, Raipur - CECB",16-09-2025 07:00:00,21.219665,81.630094,CO,12,54,19
India,Chhattisgarh,Raipur,"Krishak Nagar, Raipur - CECB",16-09-2025 07:00:00,21.237755,81.705301,NH3,2,7,4
India,Chhattisgarh,Raipur,"Krishak Nagar, Raipur - CECB",16-09-2025 07:00:00,21.237755,81.705301,CO,8,22,16
India,Chhattisgarh,Raipur,"Krishak Nagar, Raipur - CECB",16-09-2025 07:00:00,21.237755,81.705301,OZONE,2,11,2
India,Chhattisgarh,Chhal,"Nawapara SECL Colony, Chhal - CECB",16-09-2025 07:00:00,22.118125,83.140608,CO,18,24,20
India,Chhattisgarh,Korba,"Rampur, Korba - CECB",16-09-2025 07:00:00,22.368195,82.746431,PM2.5,25,39,26
India,Chhattisgarh,Korba,"Rampur, Korba - CECB",16-09-2025 07:00:00,22.368195,82.746431,PM10,25,40,27
India,Chhattisgarh,Korba,"Rampur, Korba - CECB",16-09-2025 07:00:00,22.368195,82.746431,CO,14,22,18
India,Chhattisgarh,Korba,"Rampur, Korba - CECB",16-09-2025 07:00:00,22.368195,82.746431,OZONE,2,3,2
India,Chhattisgarh,Korba,"Urja Nagar, Korba - CECB",16-09-2025 07:00:00,22.348441,82.549611,PM10,24,26,25
India,Chhattisgarh,Kunjemura,"OP Jindal School, Kunjemura - CECB",16-09-2025 07:00:00,22.126650,83.483212,PM10,4,21,13
India,Bihar,Patna,"Rajbansi Nagar, Patna - BSPCB",16-09-2025 07:00:00,25.599486,85.113666,PM10,21,49,34
India,Bihar,Patna,"Samanpura, Patna - BSPCB",16-09-2025 07:00:00,25.596727,85.085624,PM10,66,106,86
India,Bihar,Patna,"Samanpura, Patna - BSPCB",16-09-2025 07:00:00,25.596727,85.085624,CO,32,68,46
India,Bihar,Patna,"Samanpura, Patna - BSPCB",16-09-2025 07:00:00,25.596727,85.085624,OZONE,21,29,23
India,Bihar,Purnia,"Mariam Nagar, Purnia - BSPCB",16-09-2025 07:00:00,25.366336,87.117468,NO2,5,6,6
India,Bihar,Rajgir,"Dangi Tola, Rajgir - BSPCB",16-09-2025 07:00:00,25.03280,85.41948,PM10,NA,NA,NA
India,Delhi,Delhi,"Ashok Vihar, Delhi - DPCC",16-09-2025 07:00:00,28.695381,77.181665,NH3,5,7,6
India,Delhi,Delhi,"Aya Nagar, Delhi - IMD",16-09-2025 07:00:00,28.4706914,77.1099364,PM2.5,11,301,54
India,Delhi,Delhi,"Bawana, Delhi - DPCC",16-09-2025 07:00:00,28.776200,77.051074,NH3,3,7,4
India,Delhi,Delhi,"Burari Crossing, Delhi - IMD",16-09-2025 07:00:00,28.7256504,77.2011573,PM2.5,22,82,49
India,Delhi,Delhi,"Burari Crossing, Delhi - IMD",16-09-2025 07:00:00,28.7256504,77.2011573,CO,19,60,48
India,Delhi,Delhi,"Burari Crossing, Delhi - IMD",16-09-2025 07:00:00,28.7256504,77.2011573,OZONE,16,46,18
India,Chhattisgarh,Bilaspur,"Mangala, Bilaspur - NTPC",16-09-2025 07:00:00,22.08815,82.13737,PM10,4,44,21
India,Chhattisgarh,Bilaspur,"Mangala, Bilaspur - NTPC",16-09-2025 07:00:00,22.08815,82.13737,CO,20,38,34
India,Chhattisgarh,Chhal,"Nawapara SECL Colony, Chhal - CECB",16-09-2025 07:00:00,22.118125,83.140608,NH3,6,6,6
India,Bihar,Patna,"Muradpur, Patna - BSPCB",16-09-2025 07:00:00,25.619651,85.147382,PM10,32,72,56
India,Bihar,Patna,"Muradpur, Patna - BSPCB",16-09-2025 07:00:00,25.619651,85.147382,CO,28,68,51
India,Delhi,Delhi,"R K Puram, Delhi - DPCC",16-09-2025 07:00:00,28.563262,77.186937,OZONE,17,71,19
India,Delhi,Delhi,"Rohini, Delhi - DPCC",16-09-2025 07:00:00,28.732528,77.119920,PM2.5,15,83,46
India,Delhi,Delhi,"Rohini, Delhi - DPCC",16-09-2025 07:00:00,28.732528,77.119920,NH3,1,6,5
India,Delhi,Delhi,"Shadipur, Delhi - CPCB",16-09-2025 07:00:00,28.6514781,77.1473105,PM2.5,98,225,155
India,Delhi,Delhi,"Shadipur, Delhi - CPCB",16-09-2025 07:00:00,28.6514781,77.1473105,PM10,81,124,103
India,Delhi,Delhi,"Shadipur, Delhi - CPCB",16-09-2025 07:00:00,28.6514781,77.1473105,OZONE,4,8,7
India,Delhi,Delhi,"Sirifort, Delhi - CPCB",16-09-2025 07:00:00,28.5504249,77.2159377,PM2.5,22,71,49
India,Delhi,Delhi,"Sirifort, Delhi - CPCB",16-09-2025 07:00:00,28.5504249,77.2159377,PM10,29,162,103
India,Delhi,Delhi,"Sirifort, Delhi - CPCB",16-09-2025 07:00:00,28.5504249,77.2159377,NO2,NA,NA,NA
India,Delhi,Delhi,"Sonia Vihar, Delhi - DPCC",16-09-2025 07:00:00,28.710508,77.249485,PM2.5,13,85,40
India,Delhi,Delhi,"Sonia Vihar, Delhi - DPCC",16-09-2025 07:00:00,28.710508,77.249485,PM10,59,129,89
India,Gujarat,Ahmedabad,"SVPI Airport Hansol, Ahmedabad - IITM",16-09-2025 07:00:00,23.076793,72.627874,PM10,34,52,43
India,Gujarat,Ahmedabad,"SVPI Airport Hansol, Ahmedabad - IITM",16-09-2025 07:00:00,23.076793,72.627874,NO2,5,31,15
India,Gujarat,Ahmedabad,"SVPI Airport Hansol, Ahmedabad - IITM",16-09-2025 07:00:00,23.076793,72.627874,NH3,1,1,1
India,Gujarat,Gandhinagar,"GIFT City, Gandhinagar - IITM",16-09-2025 07:00:00,23.163798,72.677768,PM2.5,21,53,35
India,Gujarat,Gandhinagar,"GIFT City, Gandhinagar - IITM",16-09-2025 07:00:00,23.163798,72.677768,NO2,5,38,14
India,Gujarat,Gandhinagar,"GIFT City, Gandhinagar - IITM",16-09-2025 07:00:00,23.163798,72.677768,OZONE,1,17,4
India,Gujarat,Gandhinagar,"IIPHG Lekawada, Gandhinagar - IITM",16-09-2025 07:00:00,23.243639,72.68994,CO,2,32,6
India,Gujarat,Gandhinagar,"IIPHG Lekawada, Gandhinagar - IITM",16-09-2025 07:00:00,23.243639,72.68994,OZONE,1,313,3
India,Delhi,Delhi,"Najafgarh, Delhi - DPCC",16-09-2025 07:00:00,28.570173,76.933762,CO,18,34,31
India,Delhi,Delhi,"Narela, Delhi - DPCC",16-09-2025 07:00:00,28.822836,77.101981,PM2.5,25,98,58
India,Delhi,Delhi,"Narela, Delhi - DPCC",16-09-2025 07:00:00,28.822836,77.101981,OZONE,14,21,17
India,Delhi,Delhi,"Nehru Nagar, Delhi - DPCC",16-09-2025 07:00:00,28.567890,77.250515,PM2.5,18,88,53
India,Delhi,Delhi,"Nehru Nagar, Delhi - DPCC",16-09-2025 07:00:00,28.567890,77.250515,OZONE,5,92,6
India,Delhi,Delhi,"North Campus, DU, Delhi - IMD",16-09-2025 07:00:00,28.6573814,77.1585447,CO,2,117,89
India,Delhi,Delhi,"Okhla Phase-2, Delhi - DPCC",16-09-2025 07:00:00,28.530785,77.271255,NO2,22,78,48
India,Delhi,Delhi,"Major Dhyan Chand National Stadium, Delhi - DPCC",16-09-2025 07:00:00,28.611281,77.237738,PM10,65,151,103
India,Delhi,Delhi,"Major Dhyan Chand National Stadium, Delhi - DPCC",16-09-2025 07:00:00,28.611281,77.237738,NO2,16,80,46
India,Delhi,Delhi,"Mandir Marg, Delhi - DPCC",16-09-2025 07:00:00,28.636429,77.201067,OZONE,4,87,15
India,Delhi,Delhi,"Mundka, Delhi - DPCC",16-09-2025 07:00:00,28.684678,77.076574,NO2,25,65,43
India,Delhi,Delhi,"NSIT Dwarka, Delhi - CPCB",16-09-2025 07:00:00,28.60909,77.0325413,NO2,45,99,69
India,Delhi,Delhi,"Najafgarh, Delhi - DPCC",16-09-2025 07:00:00,28.570173,76.933762,NH3,1,2,1
India,Gujarat,Ahmedabad,"Maninagar, Ahmedabad - GPCB",16-09-2025 07:00:00,23.002657,72.591912,CO,14,46,37
India,Gujarat,Ahmedabad,"Maninagar, Ahmedabad - GPCB",16-09-2025 07:00:00,23.002657,72.591912,OZONE,24,60,54
India,Gujarat,Ahmedabad,"Raikhad, Ahmedabad - IITM",16-09-2025 07:00:00,23.020509,72.579261,PM2.5,19,60,34
India,Gujarat,Ahmedabad,"Raikhad, Ahmedabad - IITM",16-09-2025 07:00:00,23.020509,72.579261,SO2,3,14,10
India,Gujarat,Ahmedabad,"Raikhad, Ahmedabad - IITM",16-09-2025 07:00:00,23.020509,72.579261,CO,14,36,21
India,Gujarat,Ahmedabad,"Rakhial, Ahmedabad - IITM",16-09-2025 07:00:00,23.016834,72.625775,PM10,47,98,65
India,Gujarat,Ahmedabad,"Rakhial, Ahmedabad - IITM",16-09-2025 07:00:00,23.016834,72.625775,SO2,5,21,10
India,Gujarat,Ahmedabad,"Rakhial, Ahmedabad - IITM",16-09-2025 07:00:00,23.016834,72.625775,CO,36,52,40
India,Delhi,Delhi,"ITO, Delhi - CPCB",16-09-2025 07:00:00,28.628624,77.241060,PM10,34,76,55
India,Delhi,Delhi,"ITO, Delhi - CPCB",16-09-2025 07:00:00,28.628624,77.241060,SO2,5,35,17
India,Delhi,Delhi,"Jahangirpuri, Delhi - DPCC",16-09-2025 07:00:00,28.732820,77.170633,PM2.5,113,290,199
India,Delhi,Delhi,"Jahangirpuri, Delhi - DPCC",16-09-2025 07:00:00,28.732820,77.170633,NH3,6,7,6
India,Delhi,Delhi,"Jahangirpuri, Delhi - DPCC",16-09-2025 07:00:00,28.732820,77.170633,CO,18,80,55
India,Delhi,Delhi,"Jahangirpuri, Delhi - DPCC",16-09-2025 07:00:00,28.732820,77.170633,OZONE,1,19,3
India,Delhi,Delhi,"Jawaharlal Nehru Stadium, Delhi - DPCC",16-09-2025 07:00:00,28.580280,77.233829,PM10,92,445,169
India,Delhi,Delhi,"Punjabi Bagh, Delhi - DPCC",16-09-2025 07:00:00,28.674045,77.131023,NH3,2,3,2
India,Delhi,Delhi,"Pusa, Delhi - DPCC",16-09-2025 07:00:00,28.639652,77.146275,PM2.5,23,107,46
India,Delhi,Delhi,"Pusa, Delhi - IMD",16-09-2025 07:00:00,28.636110,77.173332,PM2.5,2,83,28
India,Delhi,Delhi,"Pusa, Delhi - IMD",16-09-2025 07:00:00,28.636110,77.173332,OZONE,17,141,21
India,Delhi,Delhi,"R K Puram, Delhi - DPCC",16-09-2025 07:00:00,28.563262,77.186937,SO2,7,33,15
India,Delhi,Delhi,"Dr. Karni Singh Shooting Range, Delhi - DPCC",16-09-2025 07:00:00,28.498571,77.264840,CO,6,101,33
India,Delhi,Delhi,"Dwarka-Sector 8, Delhi - DPCC ",16-09-2025 07:00:00,28.5710274,77.0719006,PM2.5,18,80,46
India,Delhi,Delhi,"IGI Airport (T3), Delhi - IMD",16-09-2025 07:00:00,28.5627763,77.1180053,PM10,78,500,152
India,Delhi,Delhi,"IGI Airport (T3), Delhi - IMD",16-09-2025 07:00:00,28.5627763,77.1180053,NO2,43,139,83
India,Delhi,Delhi,"Sonia Vihar, Delhi - DPCC",16-09-2025 07:00:00,28.710508,77.249485,SO2,20,24,22
India,Delhi,Delhi,"Sonia Vihar, Delhi - DPCC",16-09-2025 07:00:00,28.710508,77.249485,CO,44,103,92
India,Delhi,Delhi,"Sri Aurobindo Marg, Delhi - DPCC",16-09-2025 07:00:00,28.531346,77.190156,NH3,3,5,4
India,Delhi,Delhi,"Wazirpur, Delhi - DPCC",16-09-2025 07:00:00,28.699793,77.165453,NH3,7,9,8
India,Karnataka,Haveri,"Ashwini Nagar, Haveri - KSPCB",16-09-2025 07:00:00,14.791800,75.389600,NH3,NA,NA,NA
India,Karnataka,Haveri,"Ashwini Nagar, Haveri - KSPCB",16-09-2025 07:00:00,14.791800,75.389600,CO,25,26,26
India,Karnataka,Hubballi,"Lingaraj Nagar, Hubballi - KSPCB",16-09-2025 07:00:00,15.3714823,75.1160168,PM10,34,41,38
India,Karnataka,Kalaburagi,"Lal Bahadur Shastri Nagar, Kalaburagi - KSPCB",16-09-2025 07:00:00,17.321993,76.822628,CO,35,40,39
India,Karnataka,Kalaburagi,"Mahatma Basaveswar Colony, Kalaburgi - KSPCB",16-09-2025 07:00:00,17.336318,76.847397,SO2,3,6,4
India,Karnataka,Karwar,"KHB Colony, Karwar - KSPCB",16-09-2025 07:00:00,14.816666,74.141003,PM2.5,1,11,4
India,Karnataka,Karwar,"KHB Colony, Karwar - KSPCB",16-09-2025 07:00:00,14.816666,74.141003,NO2,5,8,7
India,Karnataka,Koppal,"Diwator Nagar, Koppal - KSPCB",16-09-2025 07:00:00,15.347630,76.181767,PM2.5,2,12,6
India,Gujarat,Gandhinagar,"Sector-10, Gandhinagar - GPCB",16-09-2025 07:00:00,23.221714,72.654328,PM2.5,18,55,35
India,Gujarat,Gandhinagar,"Sector-10, Gandhinagar - GPCB",16-09-2025 07:00:00,23.221714,72.654328,SO2,3,6,5
India,Gujarat,Nandesari,"GIDC, Nandesari - Nandesari Ind. Association",16-09-2025 07:00:00,22.410802,73.097923,PM2.5,49,343,123
India,Gujarat,Surat,"Science Center, Surat - SMC",16-09-2025 07:00:00,21.170046,72.795405,PM2.5,11,58,30
India,Gujarat,Surat,"Science Center, Surat - SMC",16-09-2025 07:00:00,21.170046,72.795405,CO,34,36,34
India,Gujarat,Vapi,"Phase-1 GIDC, Vapi - GPCB",16-09-2025 07:00:00,20.362421,72.918013,NO2,13,14,14
India,Gujarat,Vapi,"Phase-1 GIDC, Vapi - GPCB",16-09-2025 07:00:00,20.362421,72.918013,NH3,10,10,10
India,Haryana,Panchgaon,"Amity University, Panchgaon - IITM",16-09-2025 07:00:00,28.3153,76.9143,PM2.5,31,74,48
India,Karnataka,Bengaluru,"BTM Layout, Bengaluru - CPCB",16-09-2025 07:00:00,12.9135218,77.5950804,CO,18,26,20
India,Karnataka,Bengaluru,"City Railway Station, Bengaluru - KSPCB",16-09-2025 07:00:00,12.9756843,77.5660749,CO,58,62,60
India,Karnataka,Bengaluru,"Hebbal, Bengaluru - KSPCB",16-09-2025 07:00:00,13.029152,77.585901,CO,14,28,15
India,Karnataka,Bengaluru,"Hebbal, Bengaluru - KSPCB",16-09-2025 07:00:00,13.029152,77.585901,OZONE,7,8,8
India,Karnataka,Bengaluru,"Hombegowda Nagar, Bengaluru - KSPCB",16-09-2025 07:00:00,12.938539,77.590100,NO2,7,13,10
India,Karnataka,Bengaluru,"Hombegowda Nagar, Bengaluru - KSPCB",16-09-2025 07:00:00,12.938539,77.590100,NH3,1,2,2
India,Karnataka,Bengaluru,"Jayanagar 5th Block, Bengaluru - KSPCB",16-09-2025 07:00:00,12.920984,77.584908,NO2,13,68,26
India,Karnataka,Bengaluru,"Sanegurava Halli, Bengaluru - KSPCB",16-09-2025 07:00:00,12.990328,77.5431385,NO2,16,21,19
India,Karnataka,Bengaluru,"Shivapura_Peenya, Bengaluru - KSPCB",16-09-2025 07:00:00,13.0246342,77.5080115,SO2,4,10,7
India,Karnataka,Bengaluru,"Silk Board, Bengaluru - KSPCB",16-09-2025 07:00:00,12.917348,77.622813,PM2.5,20,38,28
India,Karnataka,Chamarajanagar,"Urban, Chamarajanagar - KSPCB",16-09-2025 07:00:00,11.55358,76.55521,PM2.5,20,51,32
India,Karnataka,Chikkaballapur,"Chikkaballapur Rural, Chikkaballapur - KSPCB",16-09-2025 07:00:00,13.428828,77.731418,PM2.5,2,147,23
India,Karnataka,Chikkaballapur,"Chikkaballapur Rural, Chikkaballapur - KSPCB",16-09-2025 07:00:00,13.428828,77.731418,NH3,1,1,1
India,Karnataka,Chikkaballapur,"Chikkaballapur Rural, Chikkaballapur - KSPCB",16-09-2025 07:00:00,13.428828,77.731418,SO2,9,19,14
India,Karnataka,Davanagere,"Devaraj Urs Badavane, Davanagere - KSPCB",16-09-2025 07:00:00,14.475800,75.905200,NH3,1,3,2
India,Karnataka,Dharwad,"Kalabhavan, Dharwad - KSPCB",16-09-2025 07:00:00,15.459706,75.008381,NO2,12,12,12
India,Karnataka,Dharwad,"Kalabhavan, Dharwad - KSPCB",16-09-2025 07:00:00,15.459706,75.008381,NH3,3,3,3
India,Karnataka,Dharwad,"Kalabhavan, Dharwad - KSPCB",16-09-2025 07:00:00,15.459706,75.008381,OZONE,13,17,15
India,Jammu_and_Kashmir,Srinagar,"Rajbagh, Srinagar - JKSPCB",16-09-2025 07:00:00,34.066206,74.819820,PM2.5,25,71,39
India,Jharkhand,Dhanbad,"Sardar Patel Nagar, Dhanbad - JSPCB",16-09-2025 07:00:00,23.80569,86.44268,PM10,5,127,86
India,Karnataka,Bagalkot,"Vidayagiri, Bagalkot - KSPCB",16-09-2025 07:00:00,16.172806,75.659694,NO2,9,10,9
India,Karnataka,Madikeri,"Stuart Hill, Madikeri - KSPCB",16-09-2025 07:00:00,12.415911,75.735050,PM10,2,12,7
India,Karnataka,Mangalore,"Kadri, Mangalore - KSPCB",16-09-2025 07:00:00,12.889250,74.853000,NO2,1,8,5
India,Karnataka,Mangalore,"Kadri, Mangalore - KSPCB",16-09-2025 07:00:00,12.889250,74.853000,SO2,6,7,6
India,Karnataka,Mysuru,"Hebbal 1st Stage, Mysuru - KSPCB",16-09-2025 07:00:00,12.21041,76.37376,PM2.5,8,26,13
India,Karnataka,Haveri,"Ashwini Nagar, Haveri - KSPCB",16-09-2025 07:00:00,14.791800,75.389600,PM2.5,NA,NA,NA
India,Karnataka,Haveri,"Ashwini Nagar, Haveri - KSPCB",16-09-2025 07:00:00,14.791800,75.389600,NO2,NA,NA,NA
India,Karnataka,Mysuru,"Hebbal 1st Stage, Mysuru - KSPCB",16-09-2025 07:00:00,12.21041,76.37376,NH3,3,6,5
India,Madhya Pradesh,Singrauli,"Suryakiran Bhawan NCL, Singrauli - MPPCB",16-09-2025 07:00:00,24.108970,82.645580,NH3,6,6,6
India,Madhya Pradesh,Singrauli,"Suryakiran Bhawan NCL, Singrauli - MPPCB",16-09-2025 07:00:00,24.108970,82.645580,CO,12,15,12
India,Maharashtra,Ahmednagar,"Tarakpur, Ahmednagar - MPCB",16-09-2025 07:00:00,19.10122,74.73339,PM10,7,167,73
India,Maharashtra,Akola,"Ramdaspeth, Akola - MPCB",16-09-2025 07:00:00,20.719516,77.000253,NH3,4,8,7
India,Maharashtra,Akola,"Ramdaspeth, Akola - MPCB",16-09-2025 07:00:00,20.719516,77.000253,OZONE,7,28,8
India,Maharashtra,Amravati,"Shivneri Colony, Amravati - MPCB",16-09-2025 07:00:00,20.9402359,77.7895248,PM10,29,84,52
India,Maharashtra,Amravati,"Shivneri Colony, Amravati - MPCB",16-09-2025 07:00:00,20.9402359,77.7895248,NH3,2,2,2
India,Maharashtra,Amravati,"Shri Shivaji Science College, Amravati - MPCB",16-09-2025 07:00:00,20.939198,77.765701,PM2.5,22,63,46
India,Maharashtra,Amravati,"Shri Shivaji Science College, Amravati - MPCB",16-09-2025 07:00:00,20.939198,77.765701,SO2,4,5,5
India,Maharashtra,Amravati,"Shri Shivaji Science College, Amravati - MPCB",16-09-2025 07:00:00,20.939198,77.765701,CO,18,44,22
India,Madhya Pradesh,Dewas,"Bhopal Chauraha, Dewas - MPPCB",16-09-2025 07:00:00,22.9682591,76.064118,SO2,11,49,27
India,Madhya Pradesh,Gwalior,"City Center, Gwalior - MPPCB",16-09-2025 07:00:00,26.203442,78.193251,PM2.5,22,83,36
India,Madhya Pradesh,Gwalior,"City Center, Gwalior - MPPCB",16-09-2025 07:00:00,26.203442,78.193251,NO2,8,8,8
India,Madhya Pradesh,Gwalior,"City Center, Gwalior - MPPCB",16-09-2025 07:00:00,26.203442,78.193251,NH3,2,2,2
India,Madhya Pradesh,Gwalior,"Deen Dayal Nagar, Gwalior - MPPCB",16-09-2025 07:00:00,26.259242,78.216432,NH3,3,7,4
India,Madhya Pradesh,Gwalior,"Deen Dayal Nagar, Gwalior - MPPCB",16-09-2025 07:00:00,26.259242,78.216432,OZONE,47,100,62
India,Madhya Pradesh,Indore,"Airport Area, Indore - IMC",16-09-2025 07:00:00,22.7289,75.8076,OZONE,1,4,1
India,Kerala,Thrissur,"Corporation Ground, Thrissur - Kerala PCB",16-09-2025 07:00:00,10.532400,76.215900,SO2,1,1,1
India,Madhya Pradesh,Bhopal,"T T Nagar, Bhopal - MPPCB",16-09-2025 07:00:00,23.233584,77.400574,PM2.5,28,58,43
India,Madhya Pradesh,Bhopal,"T T Nagar, Bhopal - MPPCB",16-09-2025 07:00:00,23.233584,77.400574,PM10,30,101,57
India,Madhya Pradesh,Damoh,"Shrivastav Colony, Damoh - MPPCB",16-09-2025 07:00:00,23.81748678,79.446246,PM2.5,7,45,20
India,Kerala,Thiruvananthapuram,"Kariavattom, Thiruvananthapuram - Kerala PCB",16-09-2025 07:00:00,8.563700,76.886500,PM10,57,73,65
India,Kerala,Thiruvananthapuram,"Kariavattom, Thiruvananthapuram - Kerala PCB",16-09-2025 07:00:00,8.563700,76.886500,NO2,6,7,6
India,Kerala,Thiruvananthapuram,"Kariavattom, Thiruvananthapuram - Kerala PCB",16-09-2025 07:00:00,8.563700,76.886500,OZONE,36,36,36
India,Kerala,Thiruvananthapuram,"Plammoodu, Thiruvananthapuram - Kerala PCB",16-09-2025 07:00:00,8.5149093,76.9435879,NH3,6,9,7
India,Kerala,Thiruvananthapuram,"Plammoodu, Thiruvananthapuram - Kerala PCB",16-09-2025 07:00:00,8.5149093,76.9435879,SO2,9,26,16
India,Karnataka,Shivamogga,"Vinoba Nagara, Shivamogga - KSPCB",16-09-2025 07:00:00,13.940000,75.555917,NH3,2,6,4
India,Karnataka,Tumakuru,"Thimmalapura, Tumakuru - KSPCB",16-09-2025 07:00:00,13.377516,77.099072,PM2.5,23,357,68
India,Karnataka,Vijayapura,"Ibrahimpur, Vijayapura - KSPCB",16-09-2025 07:00:00,16.802639,75.722694,PM2.5,30,38,37
India,Madhya Pradesh,Indore,"Chhoti Gwaltoli, Indore - MPPCB",16-09-2025 07:00:00,22.4310,75.5213,CO,19,68,31
India,Madhya Pradesh,Indore,"Maguda Nagar, Indore - IMC",16-09-2025 07:00:00,22.7524,75.8872,SO2,36,40,38
India,Madhya Pradesh,Indore,"Residency Area, Indore - IMC",16-09-2025 07:00:00,22.7084,75.8815,PM2.5,23,50,34
India,Madhya Pradesh,Indore,"Residency Area, Indore - IMC",16-09-2025 07:00:00,22.7084,75.8815,SO2,26,51,36
India,Madhya Pradesh,Jabalpur,"Gupteshwar, Jabalpur - JMC",16-09-2025 07:00:00,23.142888,79.916147,CO,36,60,41
India,Madhya Pradesh,Jabalpur,"Gupteshwar, Jabalpur - JMC",16-09-2025 07:00:00,23.142888,79.916147,OZONE,9,45,17
India,Madhya Pradesh,Jabalpur,"Suhagi, Jabalpur - JMC",16-09-2025 07:00:00,23.218135,79.957770,SO2,4,8,6
India,Madhya Pradesh,Sagar,"Civil Lines, Sagar - MPPCB",16-09-2025 07:00:00,23.838586,78.759431,CO,24,46,31
India,Madhya Pradesh,Satna,"Bandhavgar Colony, Satna - Birla Cement",16-09-2025 07:00:00,24.58434363,80.8549414,OZONE,7,10,8
India,Madhya Pradesh,Mandideep,"Sector-D Industrial Area, Mandideep - MPPCB",16-09-2025 07:00:00,23.108440,77.511428,PM10,31,146,76
India,Madhya Pradesh,Pithampur,"Sector-2 Industrial Area, Pithampur - MPPCB",16-09-2025 07:00:00,22.624758,75.675238,PM10,35,146,71
India,Maharashtra,Mahad,"Kamble Tarf Birwadi, Mahad - MPCB",16-09-2025 07:00:00,18.1023399,73.4783687,PM10,24,66,45
India,Maharashtra,Mahad,"Kamble Tarf Birwadi, Mahad - MPCB",16-09-2025 07:00:00,18.1023399,73.4783687,CO,26,54,32
India,Maharashtra,Mahad,"Kamble Tarf Birwadi, Mahad - MPCB",16-09-2025 07:00:00,18.1023399,73.4783687,OZONE,12,61,21
India,Maharashtra,Malegaon,"Mahesh Nagar, Malegaon - MPCB",16-09-2025 07:00:00,20.555712,74.529236,NO2,6,21,14
India,Maharashtra,Malegaon,"Mahesh Nagar, Malegaon - MPCB",16-09-2025 07:00:00,20.555712,74.529236,CO,8,43,13
India,Maharashtra,Mira-Bhayandar,"Bhayandar West, Mira-Bhayandar - MPCB",16-09-2025 07:00:00,19.296481,72.840923,PM10,6,32,20
India,Maharashtra,Mira-Bhayandar,"Bhayandar West, Mira-Bhayandar - MPCB",16-09-2025 07:00:00,19.296481,72.840923,OZONE,NA,NA,NA
India,Maharashtra,Mumbai,"Bandra Kurla Complex, Mumbai - IITM",16-09-2025 07:00:00,19.053536,72.84643,NO2,8,41,18
India,Maharashtra,Kalyan,"Khadakpada, Kalyan - MPCB",16-09-2025 07:00:00,19.25292,73.142019,OZONE,16,16,16
India,Maharashtra,Kolhapur,"Shivaji University, Kolhapur - MPCB",16-09-2025 07:00:00,16.6870449,74.2505872,NH3,7,8,7
India,Maharashtra,Kolhapur,"Shivaji University, Kolhapur - MPCB",16-09-2025 07:00:00,16.6870449,74.2505872,OZONE,11,33,15
India,Maharashtra,Kolhapur,"Sinchan Bhavan, Kolhapur - MPCB",16-09-2025 07:00:00,16.7143745,74.2426398,PM2.5,10,33,21
India,Maharashtra,Latur,"Sawe Wadi, Latur - MPCB",16-09-2025 07:00:00,18.39963,76.57452,PM10,15,33,24
India,Maharashtra,Latur,"Sawe Wadi, Latur - MPCB",16-09-2025 07:00:00,18.39963,76.57452,NO2,4,32,11
India,Maharashtra,Latur,"Sawe Wadi, Latur - MPCB",16-09-2025 07:00:00,18.39963,76.57452,OZONE,10,129,19
India,Maharashtra,Mumbai,"Bandra Kurla Complex, Mumbai - MPCB",16-09-2025 07:00:00,19.065931,72.862131,PM10,9,59,30
India,Maharashtra,Mumbai,"Bandra Kurla Complex, Mumbai - MPCB",16-09-2025 07:00:00,19.065931,72.862131,NO2,12,20,17
India,Maharashtra,Mumbai,"Borivali East, Mumbai - IITM",16-09-2025 07:00:00,19.23241,72.86895,CO,14,28,20
India,Maharashtra,Mumbai,"Byculla, Mumbai - BMC",16-09-2025 07:00:00,18.9767,72.8380,PM2.5,NA,NA,NA
India,Maharashtra,Mumbai,"Byculla, Mumbai - BMC",16-09-2025 07:00:00,18.9767,72.8380,PM10,NA,NA,NA
India,Maharashtra,Mumbai,"Chakala-Andheri East, Mumbai - IITM",16-09-2025 07:00:00,19.11074,72.86084,SO2,1,38,15
India,Maharashtra,Mumbai,"Chembur, Mumbai - MPCB",16-09-2025 07:00:00,19.0364585,72.8954371,PM2.5,19,43,29
India,Maharashtra,Chandrapur,"Chauhan Colony, Chandrapur - MPCB",16-09-2025 07:00:00,19.962900,79.298714,NO2,10,32,20
India,Maharashtra,Chandrapur,"Chauhan Colony, Chandrapur - MPCB",16-09-2025 07:00:00,19.962900,79.298714,OZONE,19,56,19
India,Maharashtra,Chandrapur,"MIDC Khutala, Chandrapur - MPCB",16-09-2025 07:00:00,19.9775302,79.2337086,CO,27,40,30
India,Maharashtra,Dhule,"Deopur, Dhule - MPCB",16-09-2025 07:00:00,20.918946,74.776388,NO2,3,14,7
India,Maharashtra,Jalgaon,"Prabhat Colony, Jalgaon - MPCB",16-09-2025 07:00:00,21.001264,75.565602,CO,10,37,17
India,Maharashtra,Mumbai,"Chhatrapati Shivaji Intl. Airport (T2), Mumbai - MPCB",16-09-2025 07:00:00,19.10078,72.87462,CO,24,34,31
India,Maharashtra,Mumbai,"Colaba, Mumbai - MPCB",16-09-2025 07:00:00,18.910000,72.820000,PM2.5,NA,NA,NA
India,Maharashtra,Mumbai,"Ghatkopar, Mumbai - BMC",16-09-2025 07:00:00,19.083694,72.920967,PM2.5,6,19,11
India,Maharashtra,Mumbai,"Ghatkopar, Mumbai - BMC",16-09-2025 07:00:00,19.083694,72.920967,OZONE,28,32,29
India,Maharashtra,Aurangabad,"MIDC Chilkalthana, Aurangabad - MPCB",16-09-2025 07:00:00,19.875620,75.387310,NO2,12,43,21
India,Maharashtra,Aurangabad,"MIDC Chilkalthana, Aurangabad - MPCB",16-09-2025 07:00:00,19.875620,75.387310,NH3,1,3,2
India,Maharashtra,Aurangabad,"Rachnakar Colony, Aurangabad - MPCB",16-09-2025 07:00:00,19.863756,75.321188,NH3,2,3,2
India,Maharashtra,Mumbai,"Kurla, Mumbai - MPCB",16-09-2025 07:00:00,19.0863,72.8888,PM10,41,82,61
India,Maharashtra,Mumbai,"Kurla, Mumbai - MPCB",16-09-2025 07:00:00,19.0863,72.8888,NH3,1,2,1
India,Maharashtra,Mumbai,"Khindipada-Bhandup West, Mumbai - IITM",16-09-2025 07:00:00,19.1653323,72.922099,PM10,4,39,17
India,Maharashtra,Belapur,"CBD Belapur, Belapur - MPCB",16-09-2025 07:00:00,19.0243902,73.0406721,CO,4,21,12
India,Maharashtra,Pimpri-Chinchwad,"Gavalinagar, Pimpri Chinchwad - MPCB",16-09-2025 07:00:00,18.63673,73.82487,OZONE,2,17,3
India,Maharashtra,Pimpri-Chinchwad,"Savta Mali Nagar, Pimpri-Chinchwad - IITM",16-09-2025 07:00:00,18.614767,73.799516,PM10,NA,NA,NA
India,Maharashtra,Pimpri-Chinchwad,"Thergaon, Pimpri Chinchwad - MPCB",16-09-2025 07:00:00,18.616318,73.765797,PM10,29,45,39
India,Maharashtra,Pimpri-Chinchwad,"Thergaon, Pimpri Chinchwad - MPCB",16-09-2025 07:00:00,18.616318,73.765797,NO2,14,32,21
India,Maharashtra,Pimpri-Chinchwad,"Thergaon, Pimpri Chinchwad - MPCB",16-09-2025 07:00:00,18.616318,73.765797,SO2,1,3,2
India,Maharashtra,Pimpri-Chinchwad,"Thergaon, Pimpri Chinchwad - MPCB",16-09-2025 07:00:00,18.616318,73.765797,CO,16,62,22
India,Maharashtra,Pune,"Bhosari, Pune - IITM",16-09-2025 07:00:00,18.640051,73.848956,PM10,17,45,28
India,Maharashtra,Pune,"Bhosari, Pune - IITM",16-09-2025 07:00:00,18.640051,73.848956,NO2,20,47,32
India,Maharashtra,Pune,"Bhumkar Nagar, Pune - IITM",16-09-2025 07:00:00,18.605770,73.749976,NO2,3,16,7
India,Maharashtra,Pune,"Bhumkar Nagar, Pune - IITM",16-09-2025 07:00:00,18.605770,73.749976,CO,22,68,37
India,Maharashtra,Pune,"Bhumkar Nagar, Pune - IITM",16-09-2025 07:00:00,18.605770,73.749976,OZONE,1,29,5
India,Maharashtra,Navi Mumbai,"Sanpada, Navi Mumbai - MPCB",16-09-2025 07:00:00,19.0575752,73.0151367,OZONE,12,12,12
India,Maharashtra,Navi Mumbai,"Sector-2E Kalamboli, Navi Mumbai - MPCB",16-09-2025 07:00:00,19.02579,73.10297,PM10,18,64,40
India,Maharashtra,Navi Mumbai,"Sector-2E Kalamboli, Navi Mumbai - MPCB",16-09-2025 07:00:00,19.02579,73.10297,NO2,10,87,39
India,Maharashtra,Navi Mumbai,"Sector-2E Kalamboli, Navi Mumbai - MPCB",16-09-2025 07:00:00,19.02579,73.10297,CO,6,20,8
India,Maharashtra,Navi Mumbai,"Tondare-Taloja, Navi Mumbai - MPCB",16-09-2025 07:00:00,19.0630,73.1209,NO2,10,32,23
India,Maharashtra,Navi Mumbai,"Tondare-Taloja, Navi Mumbai - MPCB",16-09-2025 07:00:00,19.0630,73.1209,NH3,2,6,5
India,Maharashtra,Navi Mumbai,"Tondare-Taloja, Navi Mumbai - MPCB",16-09-2025 07:00:00,19.0630,73.1209,CO,32,59,48
India,Maharashtra,Navi Mumbai,"Tondare-Taloja, Navi Mumbai - MPCB",16-09-2025 07:00:00,19.0630,73.1209,OZONE,1,11,1
India,Maharashtra,Parbhani,"Masoom Colony, Parbhani - MPCB",16-09-2025 07:00:00,19.265594,76.761463,CO,8,14,11
India,Maharashtra,Pimpri-Chinchwad,"Gavalinagar, Pimpri Chinchwad - MPCB",16-09-2025 07:00:00,18.63673,73.82487,NH3,3,3,3
India,Maharashtra,Mumbai,"Mazgaon, Mumbai - IITM",16-09-2025 07:00:00,18.96702,72.84214,PM2.5,4,47,17
India,Maharashtra,Mumbai,"Mazgaon, Mumbai - IITM",16-09-2025 07:00:00,18.96702,72.84214,PM10,8,36,24
India,Maharashtra,Mumbai,"Mazgaon, Mumbai - IITM",16-09-2025 07:00:00,18.96702,72.84214,NO2,24,52,36
India,Maharashtra,Mumbai,"Mindspace-Malad West, Mumbai - MPCB",16-09-2025 07:00:00,19.1878657,72.8304069,NO2,15,16,16
India,Maharashtra,Mumbai,"Mindspace-Malad West, Mumbai - MPCB",16-09-2025 07:00:00,19.1878657,72.8304069,NH3,5,6,6
India,Maharashtra,Mumbai,"Mindspace-Malad West, Mumbai - MPCB",16-09-2025 07:00:00,19.1878657,72.8304069,SO2,6,7,7
India,Maharashtra,Mumbai,"Mulund West, Mumbai - MPCB",16-09-2025 07:00:00,19.1750,72.9419,PM10,NA,NA,NA
India,Maharashtra,Mumbai,"Mulund West, Mumbai - MPCB",16-09-2025 07:00:00,19.1750,72.9419,NO2,11,12,12
India,Maharashtra,Mumbai,"Navy Nagar-Colaba, Mumbai - IITM",16-09-2025 07:00:00,18.897756,72.813320,PM10,33,61,48
India,Maharashtra,Mumbai,"Navy Nagar-Colaba, Mumbai - IITM",16-09-2025 07:00:00,18.897756,72.813320,NH3,2,9,4
India,Maharashtra,Mumbai,"Navy Nagar-Colaba, Mumbai - IITM",16-09-2025 07:00:00,18.897756,72.813320,SO2,9,12,11
India,Maharashtra,Nanded,"Sneh Nagar, Nanded - MPCB",16-09-2025 07:00:00,19.173852,77.296291,NH3,4,5,4
India,Maharashtra,Nanded,"Sneh Nagar, Nanded - MPCB",16-09-2025 07:00:00,19.173852,77.296291,CO,11,74,47
India,Maharashtra,Nanded,"Sneh Nagar, Nanded - MPCB",16-09-2025 07:00:00,19.173852,77.296291,OZONE,9,32,17
India,Maharashtra,Nashik,"Gangapur Road, Nashik - MPCB",16-09-2025 07:00:00,20.0073285,73.7762427,CO,8,10,9
India,Maharashtra,Nashik,"Gangapur Road, Nashik - MPCB",16-09-2025 07:00:00,20.0073285,73.7762427,OZONE,14,16,15
India,Maharashtra,Nashik,"Hirawadi, Nashik - MPCB",16-09-2025 07:00:00,20.021503,73.813844,NH3,1,2,1
India,Maharashtra,Nashik,"Hirawadi, Nashik - MPCB",16-09-2025 07:00:00,20.021503,73.813844,CO,12,20,14
India,Maharashtra,Nashik,"Hirawadi, Nashik - MPCB",16-09-2025 07:00:00,20.021503,73.813844,OZONE,11,48,15
India,Maharashtra,Nashik,"Pandav Nagari, Nashik - MPCB",16-09-2025 07:00:00,19.9591346,73.7788008,NH3,2,8,3
India,Maharashtra,Nashik,"Pandav Nagari, Nashik - MPCB",16-09-2025 07:00:00,19.9591346,73.7788008,OZONE,5,27,10
India,Maharashtra,Navi Mumbai,"Kopripada-Vashi, Navi Mumbai - MPCB",16-09-2025 07:00:00,19.090337,73.014232,PM2.5,9,53,29
India,Maharashtra,Navi Mumbai,"Nerul, Navi Mumbai - MPCB",16-09-2025 07:00:00,19.008751,73.016620,NH3,3,4,3
India,Maharashtra,Navi Mumbai,"Nerul, Navi Mumbai - MPCB",16-09-2025 07:00:00,19.008751,73.016620,CO,28,28,28
India,Maharashtra,Navi Mumbai,"Sanpada, Navi Mumbai - MPCB",16-09-2025 07:00:00,19.0575752,73.0151367,PM2.5,13,38,24
India,Maharashtra,Mumbai,"Worli, Mumbai - MPCB",16-09-2025 07:00:00,18.9936162,72.8128113,PM10,50,86,59
India,Maharashtra,Mumbai,"Worli, Mumbai - MPCB",16-09-2025 07:00:00,18.9936162,72.8128113,SO2,17,27,19
India,Maharashtra,Nagpur,"Ambazari, Nagpur - MPCB",16-09-2025 07:00:00,21.121801,79.04952,PM10,26,81,48
India,Maharashtra,Nagpur,"Ambazari, Nagpur - MPCB",16-09-2025 07:00:00,21.121801,79.04952,SO2,7,14,11
India,Maharashtra,Nagpur,"Mahal, Nagpur - MPCB",16-09-2025 07:00:00,21.14472,79.107595,SO2,NA,NA,NA
India,Maharashtra,Nagpur,"Opp GPO Civil Lines, Nagpur - MPCB",16-09-2025 07:00:00,21.152875,79.0517531,PM2.5,NA,NA,NA
India,Maharashtra,Nagpur,"Opp GPO Civil Lines, Nagpur - MPCB",16-09-2025 07:00:00,21.152875,79.0517531,SO2,NA,NA,NA
India,Maharashtra,Mumbai,"Sewri, Mumbai - BMC",16-09-2025 07:00:00,19.000084,72.856730,PM2.5,NA,NA,NA
India,Maharashtra,Mumbai,"Shivaji Nagar, Mumbai - BMC",16-09-2025 07:00:00,19.060498,72.923356,NH3,3,5,4
India,Maharashtra,Mumbai,"Siddharth Nagar-Worli, Mumbai - IITM",16-09-2025 07:00:00,19.000083,72.813993,PM2.5,11,42,22
India,Maharashtra,Nashik,"MIDC Ambad, Nashik - MPCB",16-09-2025 07:00:00,19.950220,73.731480,PM10,NA,NA,NA
India,Maharashtra,Nashik,"MIDC Ambad, Nashik - MPCB",16-09-2025 07:00:00,19.950220,73.731480,NH3,NA,NA,NA
India,Maharashtra,Nashik,"MIDC Ambad, Nashik - MPCB",16-09-2025 07:00:00,19.950220,73.731480,CO,NA,NA,NA
India,Maharashtra,Pune,"Katraj Dairy, Pune - MPCB",16-09-2025 07:00:00,18.454450,73.854155,PM10,NA,NA,NA
India,Maharashtra,Pune,"Panchawati_Pashan, Pune - IITM",16-09-2025 07:00:00,18.536457,73.805454,NO2,11,36,19
India,Maharashtra,Pune,"Panchawati_Pashan, Pune - IITM",16-09-2025 07:00:00,18.536457,73.805454,CO,20,74,45
India,Maharashtra,Sangli,"Vijay Nagar, Sangli - MPCB",16-09-2025 07:00:00, 16.5038,74.3623,PM2.5,13,49,23
India,Maharashtra,Sangli,"Vijay Nagar, Sangli - MPCB",16-09-2025 07:00:00, 16.5038,74.3623,NO2,3,23,9
India,Maharashtra,Sangli,"Vijay Nagar, Sangli - MPCB",16-09-2025 07:00:00, 16.5038,74.3623,SO2,6,7,6
India,Maharashtra,Solapur,"Dnyaneshwar Nagar, Solapur - MPCB",16-09-2025 07:00:00,17.6336264,75.9132495,PM10,12,37,26
India,Maharashtra,Solapur,"Dnyaneshwar Nagar, Solapur - MPCB",16-09-2025 07:00:00,17.6336264,75.9132495,NO2,4,20,10
India,Maharashtra,Solapur,"Ratandeep Housing Society, Solapur - MPCB",16-09-2025 07:00:00,17.65439,75.90649,SO2,1,2,1
India,Maharashtra,Solapur,"Ratandeep Housing Society, Solapur - MPCB",16-09-2025 07:00:00,17.65439,75.90649,OZONE,4,36,14
India,Maharashtra,Thane,"Kasarvadavali, Thane - MPCB",16-09-2025 07:00:00,19.26777,72.97182,NO2,1,20,11
India,Maharashtra,Thane,"Upvan Fort, Thane - MPCB",16-09-2025 07:00:00,19.222279,72.957979,PM2.5,13,62,32
India,Maharashtra,Thane,"Upvan Fort, Thane - MPCB",16-09-2025 07:00:00,19.222279,72.957979,NO2,2,30,8
India,Maharashtra,Ulhasnagar,"Sidhi Vinayak Nagar, Ulhasnagar - MPCB",16-09-2025 07:00:00,19.235581,73.159121,PM10,34,92,56
India,Maharashtra,Ulhasnagar,"Sidhi Vinayak Nagar, Ulhasnagar - MPCB",16-09-2025 07:00:00,19.235581,73.159121,SO2,6,21,13
India,Maharashtra,Ulhasnagar,"Sidhi Vinayak Nagar, Ulhasnagar - MPCB",16-09-2025 07:00:00,19.235581,73.159121,CO,22,84,37
India,Maharashtra,Ulhasnagar,"Sidhi Vinayak Nagar, Ulhasnagar - MPCB",16-09-2025 07:00:00,19.235581,73.159121,OZONE,12,30,15
India,Maharashtra,Virar,"Bolinj, Virar - MPCB",16-09-2025 07:00:00,19.4458210,72.7988231,NO2,6,26,16
India,Meghalaya,Shillong,"Lumpyngngad, Shillong - Meghalaya PCB",16-09-2025 07:00:00,25.5586,91.8985,PM2.5,1,21,9
India,Meghalaya,Shillong,"Lumpyngngad, Shillong - Meghalaya PCB",16-09-2025 07:00:00,25.5586,91.8985,SO2,5,6,5
India,Odisha,Baripada,"Meher Colony, Baripada - OSPCB",16-09-2025 07:00:00,21.941841,86.728318,SO2,4,9,7
India,Odisha,Bhubaneswar,"Lingraj Mandir, Bhubaneswar - OSPCB",16-09-2025 07:00:00,20.240790,85.836784,PM10,5,90,38
India,Odisha,Bhubaneswar,"Lingraj Mandir, Bhubaneswar - OSPCB",16-09-2025 07:00:00,20.240790,85.836784,NO2,4,46,16
India,Odisha,Bhubaneswar,"Patia, Bhubaneswar - OSPCB",16-09-2025 07:00:00,20.34652,85.81630,PM10,14,63,34
India,Odisha,Bhubaneswar,"Patia, Bhubaneswar - OSPCB",16-09-2025 07:00:00,20.34652,85.81630,CO,30,38,32
India,Odisha,Bileipada,"Tata Township, Bileipada - OSPCB",16-09-2025 07:00:00,22.06156703,85.47409613,PM10,29,100,48
India,Odisha,Bileipada,"Tata Township, Bileipada - OSPCB",16-09-2025 07:00:00,22.06156703,85.47409613,NH3,4,4,4
India,Nagaland,Kohima,"PWD Junction, Kohima - NPCB",16-09-2025 07:00:00,25.6635413,94.0989878,PM10,4,33,13
India,Nagaland,Kohima,"PWD Junction, Kohima - NPCB",16-09-2025 07:00:00,25.6635413,94.0989878,NH3,1,1,1
India,Odisha,Angul,"Hakimapada, Angul - OSPCB",16-09-2025 07:00:00,20.832874,85.104082,NH3,3,6,4
India,Odisha,Balasore,"Kalidaspur, Balasore - OSPCB",16-09-2025 07:00:00,21.51161,86.89088,OZONE,3,31,7
India,Odisha,Barbil,"Forest Office, Barbil - OSPCB",16-09-2025 07:00:00,22.1166054,85.3945546,PM2.5,2,30,10
India,Odisha,Barbil,"Forest Office, Barbil - OSPCB",16-09-2025 07:00:00,22.1166054,85.3945546,SO2,7,14,10
India,Odisha,Byasanagar,"Ferro Chrome Colony, Byasanagar - OSPCB",16-09-2025 07:00:00,20.94185,86.11510,OZONE,4,63,17
India,Odisha,Cuttack,"CDA Area, Cuttack - OSPCB",16-09-2025 07:00:00,20.48891     ,85.84768     ,NH3,NA,NA,NA
India,Odisha,Keonjhar,"Jagamohanpur, Keonjhar - OSPCB",16-09-2025 07:00:00,21.643900,85.599355,NO2,12,25,17
India,Odisha,Nayagarh,"Dabuna, Nayagarh - OSPCB",16-09-2025 07:00:00,21.847279,85.416905,PM2.5,16,20,17
India,Odisha,Nayagarh,"Dabuna, Nayagarh - OSPCB",16-09-2025 07:00:00,21.847279,85.416905,SO2,2,8,4
India,Odisha,Rairangpur,"Divisional Forest Office, Rairangpur - OSPCB",16-09-2025 07:00:00,22.265816,86.174829,PM10,NA,NA,NA
India,Odisha,Rourkela,"Fertilizer Township, Rourkela - OSPCB",16-09-2025 07:00:00,22.18972222,84.86277778,PM10,57,66,59
India,Odisha,Rourkela,"Raghunathpali, Rourkela - OSPCB",16-09-2025 07:00:00,22.220833,84.809444,PM2.5,16,55,29
India,Odisha,Rourkela,"Raghunathpali, Rourkela - OSPCB",16-09-2025 07:00:00,22.220833,84.809444,NH3,1,1,1
India,Odisha,Rourkela,"Raghunathpali, Rourkela - OSPCB",16-09-2025 07:00:00,22.220833,84.809444,OZONE,4,14,6
India,Punjab,Amritsar,"Golden Temple, Amritsar - PPCB",16-09-2025 07:00:00,31.620000,74.876512,SO2,5,20,14
India,Punjab,Jalandhar,"Civil Line, Jalandhar - PPCB",16-09-2025 07:00:00,31.321907,75.578914,OZONE,37,43,39
India,Punjab,Khanna,"Kalal Majra, Khanna - PPCB",16-09-2025 07:00:00,30.736056 ,76.209694,NH3,7,7,7
India,Maharashtra,Pune,"Mhada Colony, Pune - IITM",16-09-2025 07:00:00,18.573040,73.927715,NO2,29,35,32
India,Maharashtra,Pune,"Mhada Colony, Pune - IITM",16-09-2025 07:00:00,18.573040,73.927715,CO,14,102,31
India,Maharashtra,Pune,"Mhada Colony, Pune - IITM",16-09-2025 07:00:00,18.573040,73.927715,OZONE,11,26,15
India,Odisha,Tensa,"Barsua Iron Ore Mines, Tensa - OSPCB",16-09-2025 07:00:00,21.869985,85.167016,PM2.5,14,16,15
India,Punjab,Ludhiana,"Punjab Agricultural University, Ludhiana - PPCB",16-09-2025 07:00:00,30.9028,75.8086,PM10,42,65,48
India,Punjab,Mandi Gobindgarh,"RIMT University, Mandi Gobindgarh - PPCB",16-09-2025 07:00:00,30.649961,76.331442,NO2,23,25,24
India,Punjab,Mandi Gobindgarh,"RIMT University, Mandi Gobindgarh - PPCB",16-09-2025 07:00:00,30.649961,76.331442,SO2,5,42,15
India,Punjab,Patiala,"Model Town, Patiala - PPCB",16-09-2025 07:00:00,30.349388,76.366642,SO2,6,22,12
India,Punjab,Rupnagar,"Ratanpura, Rupnagar - Ambuja Cements",16-09-2025 07:00:00,31.0325454,76.5623046,PM2.5,15,85,42
India,Rajasthan,Ajmer,"Civil Lines,  Ajmer - RSPCB",16-09-2025 07:00:00,26.470859,74.646594,NH3,1,3,1
India,Rajasthan,Bhiwadi,"Vasundhara Nagar_UIT, Bhiwadi - RSPCB",16-09-2025 07:00:00,28.207266,76.829265,PM10,66,189,98
India,Rajasthan,Bikaner,"MM Ground, Bikaner - RSPCB",16-09-2025 07:00:00,28.018792,73.292658,PM2.5,13,43,24
India,Rajasthan,Bikaner,"MM Ground, Bikaner - RSPCB",16-09-2025 07:00:00,28.018792,73.292658,NH3,7,10,8
India,Rajasthan,Bikaner,"MM Ground, Bikaner - RSPCB",16-09-2025 07:00:00,28.018792,73.292658,SO2,2,5,4
India,Rajasthan,Bundi,"New Colony, Bundi - RSPCB",16-09-2025 07:00:00,25.435774,75.644272,NH3,1,4,2
India,Rajasthan,Bundi,"New Colony, Bundi - RSPCB",16-09-2025 07:00:00,25.435774,75.644272,SO2,3,11,6
India,Rajasthan,Bundi,"New Colony, Bundi - RSPCB",16-09-2025 07:00:00,25.435774,75.644272,CO,4,66,18
India,Rajasthan,Chittorgarh,"Shastri Nagar, Chittorgarh - RSPCB",16-09-2025 07:00:00,24.892047,74.623527,NO2,7,20,13
India,Rajasthan,Alwar,"Moti Doongri, Alwar - RSPCB",16-09-2025 07:00:00,27.554793,76.611536,SO2,11,118,46
India,Rajasthan,Alwar,"Moti Doongri, Alwar - RSPCB",16-09-2025 07:00:00,27.554793,76.611536,CO,8,57,40
India,Rajasthan,Alwar,"Moti Doongri, Alwar - RSPCB",16-09-2025 07:00:00,27.554793,76.611536,OZONE,9,30,20
India,Rajasthan,Baran,"Bamboliya, Baran - RSPCB",16-09-2025 07:00:00,25.106006,76.469948,NO2,5,39,13
India,Rajasthan,Baran,"Bamboliya, Baran - RSPCB",16-09-2025 07:00:00,25.106006,76.469948,SO2,1,4,2
India,Rajasthan,Baran,"Bamboliya, Baran - RSPCB",16-09-2025 07:00:00,25.106006,76.469948,CO,16,40,22
India,Rajasthan,Barmer,"Railway Colony, Barmer - RSPCB",16-09-2025 07:00:00,25.747299,71.393989,PM10,29,82,52
India,Rajasthan,Barmer,"Railway Colony, Barmer - RSPCB",16-09-2025 07:00:00,25.747299,71.393989,SO2,3,5,4
India,Rajasthan,Jaisalmer,"Sadar Bazar, Jaisalmer - RSPCB",16-09-2025 07:00:00,26.912329,70.909168,PM10,35,101,56
India,Rajasthan,Jalore,"Mudtra Sili, Jalore - RSPCB",16-09-2025 07:00:00,25.344694,72.626208,SO2,1,3,2
India,Rajasthan,Jalore,"Mudtra Sili, Jalore - RSPCB",16-09-2025 07:00:00,25.344694,72.626208,OZONE,15,37,23
India,Rajasthan,Jhalawar,"Rajlaxmi Nagar, Jhalawar - RSPCB",16-09-2025 07:00:00,24.588397,76.172782,PM10,41,87,65
India,Rajasthan,Jhalawar,"Rajlaxmi Nagar, Jhalawar - RSPCB",16-09-2025 07:00:00,24.588397,76.172782,NO2,19,61,35
India,Rajasthan,Jhunjhunu,"Indra Nagar, Jhunjhunu - RSPCB",16-09-2025 07:00:00,28.108988,75.386577,NH3,5,8,6
India,Rajasthan,Jodhpur,"Collectorate, Jodhpur - RSPCB",16-09-2025 07:00:00,26.268249,73.0193853,NO2,15,25,18
India,Rajasthan,Jodhpur,"Collectorate, Jodhpur - RSPCB",16-09-2025 07:00:00,26.268249,73.0193853,NH3,2,5,3
India,Rajasthan,Jodhpur,"Digari Kalan, Jodhpur - RSPCB",16-09-2025 07:00:00,26.295810,73.082283,NH3,2,4,3
India,Rajasthan,Jodhpur,"Digari Kalan, Jodhpur - RSPCB",16-09-2025 07:00:00,26.295810,73.082283,CO,11,22,15
India,Rajasthan,Jodhpur,"Digari Kalan, Jodhpur - RSPCB",16-09-2025 07:00:00,26.295810,73.082283,OZONE,6,35,8
India,Rajasthan,Hanumangarh,"Housing Board, Hanumangarh - RSPCB",16-09-2025 07:00:00,29.610750,74.283608,NH3,3,7,5
India,Rajasthan,Jaipur,"Adarsh Nagar, Jaipur - RSPCB",16-09-2025 07:00:00,26.902909,75.836858,PM10,60,103,82
India,Rajasthan,Jaipur,"RIICO Sitapura, Jaipur - RSPCB",16-09-2025 07:00:00,26.786682,75.827928,PM2.5,17,80,38
India,Rajasthan,Bharatpur,"Krishna Nagar, Bharatpur - RSPCB",16-09-2025 07:00:00,27.215415,77.50873,OZONE,1,56,17
India,Rajasthan,Bhilwara,"Pratap Nagar, Bhilwara - RSPCB",16-09-2025 07:00:00,25.339605,74.618883,SO2,11,35,16
India,Rajasthan,Bhilwara,"Pratap Nagar, Bhilwara - RSPCB",16-09-2025 07:00:00,25.339605,74.618883,CO,8,38,9
India,Rajasthan,Bhilwara,"Pratap Nagar, Bhilwara - RSPCB",16-09-2025 07:00:00,25.339605,74.618883,OZONE,6,24,10
India,Rajasthan,Jaipur,"RIICO Sitapura, Jaipur - RSPCB",16-09-2025 07:00:00,26.786682,75.827928,OZONE,9,58,24
India,Rajasthan,Jaipur,"Sector-2 Murlipura, Jaipur - RSPCB",16-09-2025 07:00:00,26.960669,75.771817,PM2.5,23,61,39
India,Rajasthan,Jaipur,"Shastri Nagar, Jaipur - RSPCB",16-09-2025 07:00:00,26.9502929,75.730943,PM10,68,122,88
India,Rajasthan,Churu,"Subash Chowk, Churu - RSPCB",16-09-2025 07:00:00,28.296139,74.961696,PM10,55,126,77
India,Rajasthan,Churu,"Subash Chowk, Churu - RSPCB",16-09-2025 07:00:00,28.296139,74.961696,CO,8,14,10
India,Rajasthan,Hanumangarh,"Housing Board, Hanumangarh - RSPCB",16-09-2025 07:00:00,29.610750,74.283608,PM2.5,13,55,26
India,Rajasthan,Tonk,"Shastri Nagar, Tonk - RSPCB",16-09-2025 07:00:00,26.159933,75.780517,NO2,4,17,9
India,Rajasthan,Udaipur,"Ashok Nagar, Udaipur - RSPCB",16-09-2025 07:00:00,24.5886166,73.6321397,OZONE,9,36,19
India,Sikkim,Gangtok,"Zero Point GICI, Gangtok - SSPCB",16-09-2025 07:00:00,27.338530,88.614099,NH3,1,1,1
India,TamilNadu,Ariyalur,"Keelapalur, Ariyalur - TNPCB",16-09-2025 07:00:00,11.06825,79.07033,PM10,24,62,43
India,TamilNadu,Chengalpattu,"Crescent University, Chengalpattu - TNPCB",16-09-2025 07:00:00,12.8777316,80.0834807,NO2,4,13,7
India,TamilNadu,Chengalpattu,"Crescent University, Chengalpattu - TNPCB",16-09-2025 07:00:00,12.8777316,80.0834807,NH3,1,7,3
India,TamilNadu,Cuddalore,"Semmandalam, Cuddalore - TNPCB",16-09-2025 07:00:00,11.7637683,79.7499835,OZONE,1,2,2
India,TamilNadu,Dindigul,"Mendonsa Colony, Dindigul - TNPCB",16-09-2025 07:00:00,10.358535,77.984321,CO,6,14,8
India,TamilNadu,Dindigul,"Mendonsa Colony, Dindigul - TNPCB",16-09-2025 07:00:00,10.358535,77.984321,OZONE,7,37,32
India,TamilNadu,Gummidipoondi,"Anthoni Pillai Nagar, Gummidipoondi - TNPCB",16-09-2025 07:00:00,13.4127,80.1081,NH3,2,6,3
India,TamilNadu,Kanchipuram,"Kilambi, Kanchipuram - TNPCB",16-09-2025 07:00:00,12.864618,79.659968,PM2.5,7,500,76
India,TamilNadu,Kanchipuram,"Kilambi, Kanchipuram - TNPCB",16-09-2025 07:00:00,12.864618,79.659968,NO2,NA,NA,NA
India,TamilNadu,Kanchipuram,"Kilambi, Kanchipuram - TNPCB",16-09-2025 07:00:00,12.864618,79.659968,CO,19,23,21
India,Rajasthan,Sikar,"Radhakishan Pura, Sikar - RSPCB",16-09-2025 07:00:00,27.608912,75.153302,PM10,32,94,58
India,Rajasthan,Sirohi,"Vedhaynath Colony, Sirohi - RSPCB",16-09-2025 07:00:00,24.885261,72.857549,PM10,37,73,55
India,Rajasthan,Sri Ganganagar,"Old City, Sri Ganganagar - RSPCB",16-09-2025 07:00:00,29.931624,73.864511,PM2.5,17,117,47
India,Rajasthan,Sri Ganganagar,"Old City, Sri Ganganagar - RSPCB",16-09-2025 07:00:00,29.931624,73.864511,NO2,8,22,14
India,Rajasthan,Sri Ganganagar,"Old City, Sri Ganganagar - RSPCB",16-09-2025 07:00:00,29.931624,73.864511,SO2,2,20,10
India,Rajasthan,Tonk,"Shastri Nagar, Tonk - RSPCB",16-09-2025 07:00:00,26.159933,75.780517,PM2.5,46,116,67
India,Rajasthan,Jodhpur,"Samrat Ashok Udhyan, Jodhpur - RSPCB",16-09-2025 07:00:00,26.253384,72.976571,PM2.5,12,43,19
India,Rajasthan,Jodhpur,"Samrat Ashok Udhyan, Jodhpur - RSPCB",16-09-2025 07:00:00,26.253384,72.976571,CO,12,20,18
India,Rajasthan,Karauli,"Satyawati Vihar, Karauli - RSPCB",16-09-2025 07:00:00,26.506177,77.025989,OZONE,21,32,23
India,Rajasthan,Kota,"Dhanmandi, Kota - RSPCB",16-09-2025 07:00:00,25.164090,75.858137,PM2.5,15,72,34
India,Rajasthan,Kota,"Dhanmandi, Kota - RSPCB",16-09-2025 07:00:00,25.164090,75.858137,OZONE,14,59,27
India,Rajasthan,Kota,"Nayapura, Kota - RSPCB",16-09-2025 07:00:00,25.196024,75.855668,SO2,3,13,9
India,Rajasthan,Kota,"Shrinath Puram, Kota - RSPCB",16-09-2025 07:00:00,25.14389,75.821256,PM2.5,35,132,70
India,Rajasthan,Kota,"Shrinath Puram, Kota - RSPCB",16-09-2025 07:00:00,25.14389,75.821256,PM10,54,112,77
India,Rajasthan,Kota,"Shrinath Puram, Kota - RSPCB",16-09-2025 07:00:00,25.14389,75.821256,SO2,NA,NA,NA
India,Rajasthan,Nagaur,"Karni Colony, Nagaur - RSPCB",16-09-2025 07:00:00,27.213494,73.734444,NO2,4,13,7
India,Rajasthan,Pratapgarh,"Pragati Nagar, Pratapgarh - RSPCB",16-09-2025 07:00:00,24.041198,74.780702,NO2,6,33,12
India,Rajasthan,Pratapgarh,"Pragati Nagar, Pratapgarh - RSPCB",16-09-2025 07:00:00,24.041198,74.780702,OZONE,10,72,21
India,TamilNadu,Chennai,"Royapuram, Chennai - TNPCB",16-09-2025 07:00:00,13.1036,80.2909,OZONE,8,11,10
India,TamilNadu,Coimbatore,"SIDCO Kurichi, Coimbatore - TNPCB",16-09-2025 07:00:00,10.942451,76.978996,PM2.5,14,76,40
India,TamilNadu,Coimbatore,"SIDCO Kurichi, Coimbatore - TNPCB",16-09-2025 07:00:00,10.942451,76.978996,SO2,22,23,23
India,TamilNadu,Cuddalore,"Kudikadu, Cuddalore - TNPCB",16-09-2025 07:00:00,11.6829898,79.7532099,SO2,15,18,17
India,TamilNadu,Cuddalore,"Semmandalam, Cuddalore - TNPCB",16-09-2025 07:00:00,11.7637683,79.7499835,PM2.5,8,97,39
India,TamilNadu,Chennai,"Kodungaiyur, Chennai - TNPCB",16-09-2025 07:00:00,13.1278,80.2642,NO2,4,10,8
India,TamilNadu,Chennai,"Kodungaiyur, Chennai - TNPCB",16-09-2025 07:00:00,13.1278,80.2642,SO2,1,5,3
India,TamilNadu,Chennai,"Manali Village, Chennai - TNPCB",16-09-2025 07:00:00,13.1662,80.2584,PM2.5,NA,NA,NA
India,TamilNadu,Chennai,"Manali Village, Chennai - TNPCB",16-09-2025 07:00:00,13.1662,80.2584,OZONE,32,58,50
India,TamilNadu,Chennai,"Perungudi, Chennai - TNPCB",16-09-2025 07:00:00,12.9533,80.2357,SO2,1,3,2
India,TamilNadu,Chennai,"Royapuram, Chennai - TNPCB",16-09-2025 07:00:00,13.1036,80.2909,PM2.5,13,71,40
India,TamilNadu,Madurai,"Uchapatti, Madurai - TNPCB",16-09-2025 07:00:00,9.865935,78.022669,OZONE,6,6,6
India,TamilNadu,Ooty,"Bombay Castel, Ooty - TNPCB",16-09-2025 07:00:00,11.4068288,76.7138973,PM2.5,8,61,26
India,TamilNadu,Ooty,"Bombay Castel, Ooty - TNPCB",16-09-2025 07:00:00,11.4068288,76.7138973,NO2,3,5,4
India,TamilNadu,Ooty,"Bombay Castel, Ooty - TNPCB",16-09-2025 07:00:00,11.4068288,76.7138973,NH3,NA,NA,NA
India,TamilNadu,Ooty,"Bombay Castel, Ooty - TNPCB",16-09-2025 07:00:00,11.4068288,76.7138973,OZONE,5,6,5
India,TamilNadu,Perundurai,"SIPCOT Industrial Park, Perundurai - TNPCB",16-09-2025 07:00:00,11.258242,77.552761,NO2,6,8,7
India,TamilNadu,Pudukottai,"SIPCOT Nathampannai, Pudukottai - TNPCB",16-09-2025 07:00:00,10.423417,78.784889,PM10,19,53,32
India,TamilNadu,Tirupur,"Kumaran College, Tirupur - TNPCB",16-09-2025 07:00:00,11.0973603,77.3228673,PM2.5,5,13,8
India,TamilNadu,Tirupur,"Kumaran College, Tirupur - TNPCB",16-09-2025 07:00:00,11.0973603,77.3228673,PM10,NA,NA,NA
India,TamilNadu,Vellore,"Vasanthapuram, Vellore - TNPCB",16-09-2025 07:00:00,12.909494,79.131861,SO2,NA,NA,NA
India,TamilNadu,Vellore,"Vasanthapuram, Vellore - TNPCB",16-09-2025 07:00:00,12.909494,79.131861,OZONE,NA,NA,NA
India,TamilNadu,Virudhunagar,"Collectorate Office, Virudhunagar - TNPCB",16-09-2025 07:00:00,9.559382,77.948828,PM2.5,29,74,41
India,TamilNadu,Virudhunagar,"Collectorate Office, Virudhunagar - TNPCB",16-09-2025 07:00:00,9.559382,77.948828,SO2,16,27,20
India,Telangana,Hyderabad,"Bollaram Industrial Area, Hyderabad - TSPCB",16-09-2025 07:00:00,17.540891,78.358528,PM2.5,5,30,16
India,Telangana,Hyderabad,"Bollaram Industrial Area, Hyderabad - TSPCB",16-09-2025 07:00:00,17.540891,78.358528,NH3,1,12,5
India,Uttar_Pradesh,Agra,"Sector-3B Avas Vikas Colony, Agra - UPPCB",16-09-2025 07:00:00,27.19412,77.96237,CO,20,34,24
India,Uttar_Pradesh,Agra,"Sector-3B Avas Vikas Colony, Agra - UPPCB",16-09-2025 07:00:00,27.19412,77.96237,OZONE,7,9,8
India,Uttar_Pradesh,Agra,"Shahjahan Garden, Agra - UPPCB",16-09-2025 07:00:00,27.169338,78.03582,OZONE,4,26,8
India,Uttar_Pradesh,Agra,"Shastripuram, Agra - UPPCB",16-09-2025 07:00:00,27.19862,77.92066,PM2.5,22,76,43
India,Uttar_Pradesh,Agra,"Shastripuram, Agra - UPPCB",16-09-2025 07:00:00,27.19862,77.92066,CO,10,20,11
India,Uttar_Pradesh,Agra,"Shastripuram, Agra - UPPCB",16-09-2025 07:00:00,27.19862,77.92066,OZONE,3,4,3
India,Uttar_Pradesh,Baghpat,"Sardar Patel Inter College, Baghpat - UPPCB",16-09-2025 07:00:00,28.964949,77.278761,PM10,59,111,89
India,Uttar_Pradesh,Baghpat,"Sardar Patel Inter College, Baghpat - UPPCB",16-09-2025 07:00:00,28.964949,77.278761,SO2,NA,NA,NA
India,TamilNadu,Ramanathapuram,"Chalai Bazaar, Ramanathapuram - TNPCB",16-09-2025 07:00:00,9.36399,78.831977,CO,22,27,24
India,TamilNadu,Thoothukudi,"Meelavittan, Thoothukudi - TNPCB",16-09-2025 07:00:00,8.816428 ,78.099039,SO2,2,11,5
India,TamilNadu,Tiruchirappalli,"St Joseph College, Tiruchirappalli - TNPCB",16-09-2025 07:00:00,10.830158,78.691849,SO2,4,10,7
India,TamilNadu,Tiruchirappalli,"St Joseph College, Tiruchirappalli - TNPCB",16-09-2025 07:00:00,10.830158,78.691849,CO,12,20,14
India,TamilNadu,Tirunelveli,"Municipal Corporation Office, Tirunelveli - TNPCB",16-09-2025 07:00:00,8.728442,77.6962,PM2.5,10,26,19
India,TamilNadu,Tirunelveli,"Municipal Corporation Office, Tirunelveli - TNPCB",16-09-2025 07:00:00,8.728442,77.6962,OZONE,6,7,6
India,Telangana,Hyderabad,"Kokapet, Hyderabad - TSPCB",16-09-2025 07:00:00,17.393559,78.339194,NH3,2,3,2
India,Telangana,Hyderabad,"Kompally Municipal Office, Hyderabad - TSPCB",16-09-2025 07:00:00,17.544899,78.486949,OZONE,18,33,19
India,Telangana,Hyderabad,"New Malakpet, Hyderabad - TSPCB",16-09-2025 07:00:00,17.37206,78.50864,NO2,12,17,13
India,Telangana,Hyderabad,"New Malakpet, Hyderabad - TSPCB",16-09-2025 07:00:00,17.37206,78.50864,OZONE,18,53,36
India,Telangana,Hyderabad,"Ramachandrapuram, Hyderabad - TSPCB",16-09-2025 07:00:00,17.528544,78.286195,NH3,NA,NA,NA
India,Telangana,Hyderabad,"Ramachandrapuram, Hyderabad - TSPCB",16-09-2025 07:00:00,17.528544,78.286195,OZONE,53,69,58
India,Telangana,Hyderabad,"Somajiguda, Hyderabad - TSPCB",16-09-2025 07:00:00,17.417094,78.457437,NO2,10,13,12
India,Telangana,Hyderabad,"Zoo Park, Hyderabad - TSPCB",16-09-2025 07:00:00,17.349694,78.451437,PM10,56,101,69
India,Telangana,Hyderabad,"Zoo Park, Hyderabad - TSPCB",16-09-2025 07:00:00,17.349694,78.451437,NO2,4,17,13
India,Tripura,Agartala,"Bardowali, Agartala - Tripura SPCB",16-09-2025 07:00:00,23.8175497,91.2726974,PM10,6,18,13
India,Uttar_Pradesh,Agra,"Rohta, Agra - UPPCB",16-09-2025 07:00:00,27.106972,78.000111,SO2,12,16,14
India,Uttar_Pradesh,Agra,"Sanjay Palace, Agra - UPPCB",16-09-2025 07:00:00,27.19865833,78.00598056,SO2,14,19,17
India,Uttar_Pradesh,Agra,"Sanjay Palace, Agra - UPPCB",16-09-2025 07:00:00,27.19865833,78.00598056,OZONE,13,26,19
India,Uttar_Pradesh,Ghaziabad,"Sanjay Nagar, Ghaziabad - UPPCB",16-09-2025 07:00:00,28.685382,77.453839,PM10,87,189,135
India,Uttar_Pradesh,Ghaziabad,"Vasundhara, Ghaziabad - UPPCB",16-09-2025 07:00:00,28.6603346,77.3572563,SO2,1,32,24
India,Uttar_Pradesh,Gorakhpur,"Madan Mohan Malaviya University of Technology, Gorakhpur - UPPCB",16-09-2025 07:00:00,26.730136,83.433859,PM10,41,86,58
India,Uttar_Pradesh,Greater Noida,"Knowledge Park - III, Greater Noida - UPPCB",16-09-2025 07:00:00,28.47272,77.482000,CO,24,81,41
India,Uttar_Pradesh,Greater Noida,"Knowledge Park - III, Greater Noida - UPPCB",16-09-2025 07:00:00,28.47272,77.482000,OZONE,1,24,6
India,Uttar_Pradesh,Bareilly,"Rajendra Nagar, Bareilly - UPPCB",16-09-2025 07:00:00,28.38910936,79.42963708,NO2,9,10,9
India,Uttar_Pradesh,Bareilly,"Rajendra Nagar, Bareilly - UPPCB",16-09-2025 07:00:00,28.38910936,79.42963708,NH3,1,1,1
India,Uttar_Pradesh,Bulandshahr,"Yamunapuram, Bulandshahr - UPPCB",16-09-2025 07:00:00,28.406963,77.849831,SO2,3,19,9
India,Uttar_Pradesh,Firozabad,"Nagla Bhau, Firozabad - UPPCB",16-09-2025 07:00:00,27.168897,78.376960,PM10,15,55,33
India,Uttar_Pradesh,Firozabad,"Nagla Bhau, Firozabad - UPPCB",16-09-2025 07:00:00,27.168897,78.376960,CO,16,26,19
India,Uttar_Pradesh,Firozabad,"Vibhab Nagar, Firozabad - UPPCB",16-09-2025 07:00:00,27.1594,78.3953,NH3,2,2,2
India,Uttar_Pradesh,Jhansi,"Shivaji Nagar, Jhansi - UPPCB",16-09-2025 07:00:00,25.4547,78.6039,PM10,48,98,68
India,Uttar_Pradesh,Jhansi,"Shivaji Nagar, Jhansi - UPPCB",16-09-2025 07:00:00,25.4547,78.6039,SO2,4,12,8
India,Uttar_Pradesh,Kanpur,"FTI Kidwai Nagar, Kanpur - UPPCB",16-09-2025 07:00:00,26.428282,80.327067,PM10,10,77,43
India,Uttar_Pradesh,Kanpur,"FTI Kidwai Nagar, Kanpur - UPPCB",16-09-2025 07:00:00,26.428282,80.327067,NO2,17,17,17
India,Uttar_Pradesh,Kanpur,"FTI Kidwai Nagar, Kanpur - UPPCB",16-09-2025 07:00:00,26.428282,80.327067,OZONE,48,52,48
India,Uttar_Pradesh,Kanpur,"NSI Kalyanpur, Kanpur - UPPCB",16-09-2025 07:00:00,26.509954,80.249612,PM2.5,24,78,47
India,Telangana,Hyderabad,"ICRISAT Patancheru, Hyderabad - TSPCB",16-09-2025 07:00:00,17.518400,78.278777,PM10,23,41,31
India,Telangana,Hyderabad,"ICRISAT Patancheru, Hyderabad - TSPCB",16-09-2025 07:00:00,17.518400,78.278777,SO2,8,14,12
India,Telangana,Hyderabad,"IDA Pashamylaram, Hyderabad - TSPCB",16-09-2025 07:00:00,17.5316895,78.218939,NO2,NA,NA,NA
India,Uttar_Pradesh,Lucknow,"Lalbagh, Lucknow - CPCB",16-09-2025 07:00:00,26.8458805,80.9365541,NO2,36,52,42
India,Uttar_Pradesh,Lucknow,"Talkatora District Industries Center, Lucknow - CPCB",16-09-2025 07:00:00,26.83399722,80.8917361,NO2,31,48,40
India,Uttar_Pradesh,Lucknow,"Talkatora District Industries Center, Lucknow - CPCB",16-09-2025 07:00:00,26.83399722,80.8917361,CO,1,54,27
India,Uttar_Pradesh,Lucknow,"Talkatora District Industries Center, Lucknow - CPCB",16-09-2025 07:00:00,26.83399722,80.8917361,OZONE,9,53,12
India,Uttar_Pradesh,Meerut,"Ganga Nagar, Meerut - UPPCB",16-09-2025 07:00:00,28.999264,77.7590354,PM10,51,166,100
India,Uttar_Pradesh,Meerut,"Ganga Nagar, Meerut - UPPCB",16-09-2025 07:00:00,28.999264,77.7590354,SO2,12,18,15
India,Uttar_Pradesh,Meerut,"Ganga Nagar, Meerut - UPPCB",16-09-2025 07:00:00,28.999264,77.7590354,CO,28,66,45
India,Uttar_Pradesh,Meerut,"Jai Bhim Nagar, Meerut - UPPCB",16-09-2025 07:00:00,28.9535882,77.7622941,OZONE,3,93,11
India,Uttar_Pradesh,Meerut,"Pallavpuram Phase 2, Meerut - UPPCB",16-09-2025 07:00:00,29.063510,77.709723,PM10,68,140,100
India,Uttar_Pradesh,Varanasi,"Ardhali Bazar, Varanasi - UPPCB",16-09-2025 07:00:00,25.3505986,82.9083074,PM2.5,17,48,26
India,Uttar_Pradesh,Varanasi,"Ardhali Bazar, Varanasi - UPPCB",16-09-2025 07:00:00,25.3505986,82.9083074,NO2,11,23,17
India,Uttar_Pradesh,Varanasi,"Bhelupur, Varanasi - UPPCB",16-09-2025 07:00:00,25.301778,82.996789,PM10,20,92,43
India,Uttar_Pradesh,Varanasi,"Bhelupur, Varanasi - UPPCB",16-09-2025 07:00:00,25.301778,82.996789,OZONE,1,6,1
India,Uttar_Pradesh,Varanasi,"IESD Banaras Hindu University, Varanasi - UPPCB",16-09-2025 07:00:00,25.262326,82.995408,CO,4,11,7
India,Uttar_Pradesh,Varanasi,"IESD Banaras Hindu University, Varanasi - UPPCB",16-09-2025 07:00:00,25.262326,82.995408,OZONE,10,27,14
India,Uttar_Pradesh,Varanasi,"Maldahiya, Varanasi - UPPCB",16-09-2025 07:00:00,25.32393,82.99687,SO2,29,38,34
India,Uttar_Pradesh,Vrindavan,"Omex Eternity, Vrindavan - UPPCB",16-09-2025 07:00:00,27.5714090,77.6557570,PM10,39,102,70
India,Uttar_Pradesh,Moradabad,"Buddhi Vihar, Moradabad - UPPCB",16-09-2025 07:00:00,28.83526,78.74460,PM10,67,122,85
India,Uttar_Pradesh,Moradabad,"Buddhi Vihar, Moradabad - UPPCB",16-09-2025 07:00:00,28.83526,78.74460,NO2,22,26,26
India,Uttar_Pradesh,Moradabad,"Eco Herbal Park, Moradabad - UPPCB",16-09-2025 07:00:00,28.840739,78.697531,NO2,10,18,12
India,Uttar_Pradesh,Moradabad,"Employment Office, Moradabad - UPPCB",16-09-2025 07:00:00,28.88528,78.73880,NO2,16,16,16
India,Uttar_Pradesh,Moradabad,"Employment Office, Moradabad - UPPCB",16-09-2025 07:00:00,28.88528,78.73880,NH3,4,4,4
India,Uttar_Pradesh,Moradabad,"Jigar Colony, Moradabad - UPPCB",16-09-2025 07:00:00,28.856664,78.772638,NO2,22,25,25
India,Uttar_Pradesh,Moradabad,"Jigar Colony, Moradabad - UPPCB",16-09-2025 07:00:00,28.856664,78.772638,NH3,6,7,6
India,Uttar_Pradesh,Moradabad,"Jigar Colony, Moradabad - UPPCB",16-09-2025 07:00:00,28.856664,78.772638,CO,40,40,40
India,West_Bengal,Asansol,"Evelyn Lodge, Asansol - WBPCB",16-09-2025 07:00:00,23.6979360,86.9443950,OZONE,4,22,6
India,West_Bengal,Asansol,"Trivenidevi Bhalotia College, Asansol - WBPCB",16-09-2025 07:00:00,23.616515,87.119133,CO,51,112,58
India,West_Bengal,Barrackpore,"SVSPA Campus, Barrackpore - WBPCB",16-09-2025 07:00:00,22.7605581,88.3617589,CO,20,44,27
India,West_Bengal,Durgapur,"Mahishkapur Road_B-Zone, Durgapur - WBPCB",16-09-2025 07:00:00,23.567923,87.306843,PM10,13,39,30
India,West_Bengal,Durgapur,"Mahishkapur Road_B-Zone, Durgapur - WBPCB",16-09-2025 07:00:00,23.567923,87.306843,NO2,7,20,12
India,West_Bengal,Durgapur,"Mahishkapur Road_B-Zone, Durgapur - WBPCB",16-09-2025 07:00:00,23.567923,87.306843,OZONE,10,24,14
India,Uttar_Pradesh,Moradabad,"Kashiram Nagar, Moradabad - UPPCB",16-09-2025 07:00:00,28.849399,78.742362,NH3,4,4,4
India,Uttar_Pradesh,Moradabad,"Transport Nagar, Moradabad - UPPCB",16-09-2025 07:00:00,28.802625,78.753728,SO2,45,50,49
India,Uttar_Pradesh,Moradabad,"Transport Nagar, Moradabad - UPPCB",16-09-2025 07:00:00,28.802625,78.753728,CO,43,57,57
India,Uttar_Pradesh,Noida,"Sector - 125, Noida - UPPCB",16-09-2025 07:00:00,28.5447608,77.3231257,PM10,107,419,195
India,Uttar_Pradesh,Noida,"Sector - 125, Noida - UPPCB",16-09-2025 07:00:00,28.5447608,77.3231257,NH3,6,11,9
India,Uttar_Pradesh,Noida,"Sector - 125, Noida - UPPCB",16-09-2025 07:00:00,28.5447608,77.3231257,SO2,8,23,14
India,Uttar_Pradesh,Noida,"Sector - 125, Noida - UPPCB",16-09-2025 07:00:00,28.5447608,77.3231257,CO,28,91,59
India,Uttar_Pradesh,Kanpur,"Nehru Nagar, Kanpur - UPPCB",16-09-2025 07:00:00,26.4703136,80.3229863,PM2.5,23,101,51
India,Uttar_Pradesh,Kanpur,"Nehru Nagar, Kanpur - UPPCB",16-09-2025 07:00:00,26.4703136,80.3229863,SO2,12,15,13
India,Uttar_Pradesh,Kanpur,"Nehru Nagar, Kanpur - UPPCB",16-09-2025 07:00:00,26.4703136,80.3229863,CO,52,74,71
India,Uttar_Pradesh,Kanpur,"Nehru Nagar, Kanpur - UPPCB",16-09-2025 07:00:00,26.4703136,80.3229863,OZONE,6,60,6
India,Uttar_Pradesh,Lucknow,"B R Ambedkar University, Lucknow - UPPCB",16-09-2025 07:00:00,26.766433,80.927299,NH3,4,4,4
India,Uttar_Pradesh,Lucknow,"B R Ambedkar University, Lucknow - UPPCB",16-09-2025 07:00:00,26.766433,80.927299,SO2,5,5,5
India,Uttar_Pradesh,Noida,"Sector-1, Noida - UPPCB",16-09-2025 07:00:00,28.5898,77.3101,SO2,6,10,8
India,Uttar_Pradesh,Noida,"Sector-116, Noida - UPPCB",16-09-2025 07:00:00,28.569230,77.393848,CO,15,104,39
India,Uttar_Pradesh,Prayagraj,"Nagar Nigam, Prayagraj - UPPCB",16-09-2025 07:00:00,25.44919916 ,81.82735986 ,PM2.5,6,107,46
India,Uttar_Pradesh,Prayagraj,"Nagar Nigam, Prayagraj - UPPCB",16-09-2025 07:00:00,25.44919916 ,81.82735986 ,PM10,24,100,55
India,Uttar_Pradesh,Prayagraj,"Nagar Nigam, Prayagraj - UPPCB",16-09-2025 07:00:00,25.44919916 ,81.82735986 ,NO2,5,5,5
India,Uttarakhand,Rishikesh,"Shivaji Nagar, Rishikesh - UKPCB",16-09-2025 07:00:00,30.075911,78.2859547,SO2,3,3,3
India,West_Bengal,Asansol,"Asansol Court Area, Asansol - WBPCB",16-09-2025 07:00:00,23.685297,86.945968,NO2,6,46,27
India,West_Bengal,Asansol,"Evelyn Lodge, Asansol - WBPCB",16-09-2025 07:00:00,23.6979360,86.9443950,PM2.5,3,26,17
India,Uttarakhand,Dehradun,"Doon University, Dehradun - UKPCB",16-09-2025 07:00:00,30.269444,78.044167,NO2,1,2,1
India,Uttarakhand,Dehradun,"Doon University, Dehradun - UKPCB",16-09-2025 07:00:00,30.269444,78.044167,CO,13,32,19
India,West_Bengal,Haldia,"Priyambada Housing Estate, Haldia - WBPCB",16-09-2025 07:00:00,22.06047,88.109737,NO2,6,11,8
India,West_Bengal,Haldia,"Priyambada Housing Estate, Haldia - WBPCB",16-09-2025 07:00:00,22.06047,88.109737,OZONE,27,35,32
India,West_Bengal,Howrah,"Belur Math, Howrah - WBPCB",16-09-2025 07:00:00,22.629801,88.352017,PM10,26,62,48
India,West_Bengal,Howrah,"Botanical Garden, Howrah - WBPCB",16-09-2025 07:00:00,22.554954,88.292568,PM10,15,73,33
India,West_Bengal,Howrah,"Ghusuri, Howrah - WBPCB",16-09-2025 07:00:00,22.611968,88.347422,PM10,31,79,51
India,West_Bengal,Howrah,"Ghusuri, Howrah - WBPCB",16-09-2025 07:00:00,22.611968,88.347422,CO,9,26,10
India,West_Bengal,Howrah,"Padmapukur, Howrah - WBPCB",16-09-2025 07:00:00,22.5687319,88.2797276,PM2.5,20,51,32
India,West_Bengal,Kolkata,"Ballygunge, Kolkata - WBPCB",16-09-2025 07:00:00,22.5367507,88.3638022,SO2,1,8,4
India,West_Bengal,Kolkata,"Bidhannagar, Kolkata - WBPCB",16-09-2025 07:00:00,22.58157048,88.41002457,PM2.5,15,35,24
India,West_Bengal,Kolkata,"Bidhannagar, Kolkata - WBPCB",16-09-2025 07:00:00,22.58157048,88.41002457,NH3,4,6,5
India,West_Bengal,Kolkata,"Bidhannagar, Kolkata - WBPCB",16-09-2025 07:00:00,22.58157048,88.41002457,OZONE,22,36,26
India,West_Bengal,Kolkata,"Fort William, Kolkata - WBPCB",16-09-2025 07:00:00,22.556640,88.342674,NO2,20,42,28
India,West_Bengal,Kolkata,"Fort William, Kolkata - WBPCB",16-09-2025 07:00:00,22.556640,88.342674,OZONE,17,40,21
India,West_Bengal,Kolkata,"Rabindra Bharati University, Kolkata - WBPCB",16-09-2025 07:00:00,22.627847,88.380669,NH3,7,8,8
India,West_Bengal,Kolkata,"Rabindra Bharati University, Kolkata - WBPCB",16-09-2025 07:00:00,22.627847,88.380669,SO2,14,19,16
India,West_Bengal,Kolkata,"Rabindra Sarobar, Kolkata - WBPCB",16-09-2025 07:00:00,22.51106,88.35142,CO,12,22,13
India,West_Bengal,Kolkata,"Victoria, Kolkata - WBPCB",16-09-2025 07:00:00,22.5448082,88.3403691,PM10,37,53,43
India,West_Bengal,Siliguri,"Ward-32 Bapupara, Siliguri - WBPCB",16-09-2025 07:00:00,26.6879226,88.4152495,PM10,25,44,36
India,Bihar,Begusarai,"Lohiyanagar, Begusarai - BSPCB",16-09-2025 07:00:00,25.42742023,86.13886079,NH3,3,29,5
India,Bihar,Bettiah,"Kamalnath Nagar, Bettiah - BSPCB",16-09-2025 07:00:00,26.80365,84.51954,PM10,NA,NA,NA
India,Bihar,Bettiah,"Kamalnath Nagar, Bettiah - BSPCB",16-09-2025 07:00:00,26.80365,84.51954,NO2,5,15,8
India,Bihar,Bettiah,"Kamalnath Nagar, Bettiah - BSPCB",16-09-2025 07:00:00,26.80365,84.51954,CO,7,106,31
India,Bihar,Bhagalpur,"DM Office_Kachari Chowk, Bhagalpur - BSPCB",16-09-2025 07:00:00,25.251013,86.989001,NO2,14,18,16
India,Bihar,Bhagalpur,"Mayaganj, Bhagalpur - BSPCB",16-09-2025 07:00:00,25.265194,87.012947,NO2,8,74,12
India,Bihar,Bhagalpur,"Mayaganj, Bhagalpur - BSPCB",16-09-2025 07:00:00,25.265194,87.012947,NH3,4,10,7
India,Bihar,Bihar Sharif,"D M Colony, Bihar Sharif - BSPCB",16-09-2025 07:00:00,25.204762,85.514960,PM10,81,116,103
India,Bihar,Bihar Sharif,"D M Colony, Bihar Sharif - BSPCB",16-09-2025 07:00:00,25.204762,85.514960,SO2,9,10,10
India,Assam,Silchar,"Tarapur, Silchar - PCBA",16-09-2025 07:00:00,24.82827,92.79525,NH3,1,1,1
India,Assam,Silchar,"Tarapur, Silchar - PCBA",16-09-2025 07:00:00,24.82827,92.79525,SO2,2,15,7
India,Assam,Sivasagar,"Girls College, Sivasagar - PCBA",16-09-2025 07:00:00,26.987634,94.636574,OZONE,1,5,2
India,Bihar,Araria,"Kharahiya Basti, Araria - BSPCB",16-09-2025 07:00:00,26.146529,87.454184,NO2,NA,NA,NA
India,Bihar,Araria,"Kharahiya Basti, Araria - BSPCB",16-09-2025 07:00:00,26.146529,87.454184,CO,NA,NA,NA
India,Bihar,Arrah,"New DM Office, Arrah - BSPCB",16-09-2025 07:00:00,25.5626095,84.663264,NO2,5,9,7
India,Bihar,Arrah,"New DM Office, Arrah - BSPCB",16-09-2025 07:00:00,25.5626095,84.663264,OZONE,7,9,8
India,Bihar,Aurangabad,"Gurdeo Nagar, Aurangabad - BSPCB",16-09-2025 07:00:00,24.75746,84.366208,NO2,7,8,8
India,Andhra_Pradesh,Vijayawada,"Rajiv Gandhi Park, Vijayawada - APPCB",16-09-2025 07:00:00,16.509717,80.612222,NH3,NA,NA,NA
India,Andhra_Pradesh,Vijayawada,"Rajiv Nagar, Vijayawada - APPCB",16-09-2025 07:00:00,16.554731,80.649110,CO,18,38,21
India,Andhra_Pradesh,Visakhapatnam,"GVM Corporation, Visakhapatnam - APPCB",16-09-2025 07:00:00,17.72,83.3,PM2.5,55,257,102
India,Andhra_Pradesh,Visakhapatnam,"GVM Corporation, Visakhapatnam - APPCB",16-09-2025 07:00:00,17.72,83.3,PM10,66,384,145
India,Andhra_Pradesh,Visakhapatnam,"GVM Corporation, Visakhapatnam - APPCB",16-09-2025 07:00:00,17.72,83.3,CO,8,80,20
India,Andhra_Pradesh,Visakhapatnam,"GVM Corporation, Visakhapatnam - APPCB",16-09-2025 07:00:00,17.72,83.3,OZONE,2,101,50
India,Arunachal_Pradesh,Naharlagun,"Naharlagun, Naharlagun - APSPCB",16-09-2025 07:00:00,27.103358,93.679645,PM2.5,4,34,16
India,Bihar,Hajipur,"Industrial Area, Hajipur - BSPCB",16-09-2025 07:00:00,25.697189,85.245900,PM2.5,34,61,48
India,Bihar,Hajipur,"Industrial Area, Hajipur - BSPCB",16-09-2025 07:00:00,25.697189,85.245900,NH3,3,6,5
India,Bihar,Hajipur,"Industrial Area, Hajipur - BSPCB",16-09-2025 07:00:00,25.697189,85.245900,OZONE,6,61,18
India,Bihar,Manguraha,"Forest Rest House, Manguraha - BSPCB",16-09-2025 07:00:00,27.308328,84.531742,SO2,16,16,16
India,Bihar,Manguraha,"Forest Rest House, Manguraha - BSPCB",16-09-2025 07:00:00,27.308328,84.531742,CO,31,32,32
India,Bihar,Motihari,"Gandak Colony, Motihari - BSPCB",16-09-2025 07:00:00,26.63086,84.90051,NO2,NA,NA,NA
India,Bihar,Motihari,"Gandak Colony, Motihari - BSPCB",16-09-2025 07:00:00,26.63086,84.90051,NH3,3,3,3
India,Bihar,Munger,"Town Hall, Munger - BSPCB",16-09-2025 07:00:00,25.376776,86.471523,PM2.5,2,32,15
India,Andhra_Pradesh,Kadapa,"Yerramukkapalli, Kadapa - APPCB",16-09-2025 07:00:00,14.465052,78.824187,CO,1,41,7
India,Andhra_Pradesh,Rajamahendravaram,"Anand Kala Kshetram, Rajamahendravaram - APPCB",16-09-2025 07:00:00,16.9872867,81.7363176,OZONE,9,11,10
India,Andhra_Pradesh,Tirumala,"Toll Gate, Tirumala - APPCB",16-09-2025 07:00:00,13.67,79.35,SO2,2,4,3
India,Andhra_Pradesh,Tirumala,"Toll Gate, Tirumala - APPCB",16-09-2025 07:00:00,13.67,79.35,CO,2,52,22
India,Andhra_Pradesh,Tirupati,"Vaikuntapuram, Tirupati - APPCB",16-09-2025 07:00:00,13.615387,79.409230,PM10,44,132,65
India,Andhra_Pradesh,Vijayawada,"HB Colony, Vijayawada - APPCB",16-09-2025 07:00:00,16.536107,80.594233,SO2,11,13,12
India,Assam,Guwahati,"IITG, Guwahati - PCBA",16-09-2025 07:00:00,26.2028636,91.70046436,OZONE,2,25,1
India,Assam,Guwahati,"LGBI Airport, Guwahati - PCBA",16-09-2025 07:00:00,26.10887,91.589544,PM10,20,195,40
India,Assam,Guwahati,"LGBI Airport, Guwahati - PCBA",16-09-2025 07:00:00,26.10887,91.589544,CO,26,182,182
India,Assam,Guwahati,"Railway Colony, Guwahati - PCBA",16-09-2025 07:00:00,26.181742,91.78063,SO2,28,31,29
India,Assam,Guwahati,"Railway Colony, Guwahati - PCBA",16-09-2025 07:00:00,26.181742,91.78063,CO,22,66,41
India,Assam,Nagaon,"Christianpatty, Nagaon - PCBA",16-09-2025 07:00:00,26.349082,92.68449,CO,32,54,39
India,Assam,Nalbari,"Bata Chowk, Nalbari - PCBA",16-09-2025 07:00:00,26.446912,91.439057,SO2,3,8,8
India,Andaman and Nicobar,Sri Vijaya Puram,"Police Line, Sri Vijaya Puram - ANPCC",16-09-2025 07:00:00,11.654054,92.734055,PM2.5,NA,NA,NA
India,Andaman and Nicobar,Sri Vijaya Puram,"Police Line, Sri Vijaya Puram - ANPCC",16-09-2025 07:00:00,11.654054,92.734055,NO2,NA,NA,NA
India,Andaman and Nicobar,Sri Vijaya Puram,"Police Line, Sri Vijaya Puram - ANPCC",16-09-2025 07:00:00,11.654054,92.734055,OZONE,NA,NA,NA
India,Andhra_Pradesh,Amaravati,"Secretariat, Amaravati - APPCB",16-09-2025 07:00:00,16.5150833,80.5181667,CO,14,44,24
India,Andhra_Pradesh,Anantapur,"Gulzarpet, Anantapur - APPCB",16-09-2025 07:00:00,14.675886,77.593027,NO2,18,21,19
India,Andhra_Pradesh,Kadapa,"Yerramukkapalli, Kadapa - APPCB",16-09-2025 07:00:00,14.465052,78.824187,PM2.5,56,99,65
India,Bihar,Munger,"Town Hall, Munger - BSPCB",16-09-2025 07:00:00,25.376776,86.471523,PM10,2,30,14
India,Bihar,Munger,"Town Hall, Munger - BSPCB",16-09-2025 07:00:00,25.376776,86.471523,NH3,5,7,6
India,Bihar,Muzaffarpur,"MIT-Daudpur Kothi, Muzaffarpur - BSPCB",16-09-2025 07:00:00,26.1403345,85.3650192,NO2,3,12,9
India,Bihar,Muzaffarpur,"Muzaffarpur Collectorate, Muzaffarpur - BSPCB",16-09-2025 07:00:00,26.1209,85.3647,PM2.5,23,42,34
India,Bihar,Patna,"DRM Office Danapur, Patna - BSPCB",16-09-2025 07:00:00,25.586562,85.043586,NO2,29,36,32
India,Bihar,Patna,"DRM Office Danapur, Patna - BSPCB",16-09-2025 07:00:00,25.586562,85.043586,SO2,7,10,8
India,Bihar,Patna,"Rajbansi Nagar, Patna - BSPCB",16-09-2025 07:00:00,25.599486,85.113666,NH3,1,2,2
India,Bihar,Patna,"Rajbansi Nagar, Patna - BSPCB",16-09-2025 07:00:00,25.599486,85.113666,OZONE,16,52,17
India,Bihar,Purnia,"Mariam Nagar, Purnia - BSPCB",16-09-2025 07:00:00,25.366336,87.117468,PM10,27,53,39
India,Bihar,Gaya,"Collectorate, Gaya - BSPCB",16-09-2025 07:00:00,24.7955,84.9994,NO2,7,10,9
India,Bihar,Gaya,"SFTI Kusdihra, Gaya - BSPCB",16-09-2025 07:00:00,24.762518,84.982348,PM10,16,35,25
India,Bihar,Gaya,"SFTI Kusdihra, Gaya - BSPCB",16-09-2025 07:00:00,24.762518,84.982348,CO,2,36,8
India,Delhi,Delhi,"Chandni Chowk, Delhi - IITM",16-09-2025 07:00:00,28.656756,77.227234,NO2,NA,NA,NA
India,Delhi,Delhi,"Chandni Chowk, Delhi - IITM",16-09-2025 07:00:00,28.656756,77.227234,SO2,NA,NA,NA
India,Delhi,Delhi,"DTU, Delhi - CPCB",16-09-2025 07:00:00,28.7500499,77.1112615,PM2.5,5,44,25
India,Delhi,Delhi,"DTU, Delhi - CPCB",16-09-2025 07:00:00,28.7500499,77.1112615,NH3,NA,NA,NA
India,Delhi,Delhi,"Dr. Karni Singh Shooting Range, Delhi - DPCC",16-09-2025 07:00:00,28.498571,77.264840,PM2.5,27,127,53
India,Delhi,Delhi,"Dr. Karni Singh Shooting Range, Delhi - DPCC",16-09-2025 07:00:00,28.498571,77.264840,NO2,29,80,46
India,Delhi,Delhi,"Dr. Karni Singh Shooting Range, Delhi - DPCC",16-09-2025 07:00:00,28.498571,77.264840,SO2,6,15,12
India,Delhi,Delhi,"Dwarka-Sector 8, Delhi - DPCC ",16-09-2025 07:00:00,28.5710274,77.0719006,NH3,4,6,5
India,Delhi,Delhi,"Dwarka-Sector 8, Delhi - DPCC ",16-09-2025 07:00:00,28.5710274,77.0719006,CO,30,113,59
India,Delhi,Delhi,"IGI Airport (T3), Delhi - IMD",16-09-2025 07:00:00,28.5627763,77.1180053,PM2.5,17,282,64
India,Chhattisgarh,Korba,"Urja Nagar, Korba - CECB",16-09-2025 07:00:00,22.348441,82.549611,CO,4,107,106
India,Chhattisgarh,Kunjemura,"OP Jindal School, Kunjemura - CECB",16-09-2025 07:00:00,22.126650,83.483212,PM2.5,1,13,4
India,Chhattisgarh,Milupara,"Govt. Higher Secondary School, Milupara - CECB",16-09-2025 07:00:00,22.1910172,83.5197009,NO2,11,28,20
India,Chhattisgarh,Milupara,"Govt. Higher Secondary School, Milupara - CECB",16-09-2025 07:00:00,22.1910172,83.5197009,OZONE,29,42,32
India,Chhattisgarh,Raipur,"Bhatagaon New ISBT, Raipur - CECB",16-09-2025 07:00:00,21.219665,81.630094,SO2,5,6,6
India,Chhattisgarh,Raipur,"Bhatagaon New ISBT, Raipur - CECB",16-09-2025 07:00:00,21.219665,81.630094,OZONE,4,11,5
India,Bihar,Siwan,"Chitragupta Nagar, Siwan - BSPCB",16-09-2025 07:00:00,26.2271665,84.3570427,CO,67,118,75
India,Chandigarh,Chandigarh,"Sector 22, Chandigarh - CPCC",16-09-2025 07:00:00,30.735567,76.775714,NO2,13,46,26
India,Chandigarh,Chandigarh,"Sector-53, Chandigarh - CPCC",16-09-2025 07:00:00,30.719859,76.738637,NH3,NA,NA,NA
India,Chandigarh,Chandigarh,"Sector-53, Chandigarh - CPCC",16-09-2025 07:00:00,30.719859,76.738637,OZONE,NA,NA,NA
India,Chhattisgarh,Bhilai,"32Bungalows, Bhilai - CECB",16-09-2025 07:00:00,21.194815,81.314770,CO,5,22,10
India,Bihar,Purnia,"Mariam Nagar, Purnia - BSPCB",16-09-2025 07:00:00,25.366336,87.117468,OZONE,16,27,22
India,Bihar,Rajgir,"Dangi Tola, Rajgir - BSPCB",16-09-2025 07:00:00,25.03280,85.41948,SO2,19,23,21
India,Bihar,Saharsa,"Police Line, Saharsa - BSPCB",16-09-2025 07:00:00,25.892357,86.590325,NH3,NA,NA,NA
India,Bihar,Samastipur,"DM Office_Kasipur, Samastipur - BSPCB",16-09-2025 07:00:00,25.859655,85.77944,PM2.5,2,160,39
India,Chhattisgarh,Raipur,"Siltara Phase-II, Raipur - CECB",16-09-2025 07:00:00,21.371751,81.664929,NH3,3,3,3
India,Chhattisgarh,Tumidih,"OP Jindal Industrial Park, Tumidih - CECB",16-09-2025 07:00:00,22.06631475,83.33820077,NO2,8,48,24
India,Chhattisgarh,Tumidih,"OP Jindal Industrial Park, Tumidih - CECB",16-09-2025 07:00:00,22.06631475,83.33820077,SO2,5,7,6
India,Delhi,Delhi,"Alipur, Delhi - DPCC",16-09-2025 07:00:00,28.815329,77.153010,NH3,10,13,11
India,Chhattisgarh,Bhilai,"Civic Center, Bhilai - Bhilai Steel Plant",16-09-2025 07:00:00,21.185571,81.343175,PM2.5,14,32,22
India,Chhattisgarh,Bhilai,"Civic Center, Bhilai - Bhilai Steel Plant",16-09-2025 07:00:00,21.185571,81.343175,NO2,7,9,8
India,Chhattisgarh,Bhilai,"Civic Center, Bhilai - Bhilai Steel Plant",16-09-2025 07:00:00,21.185571,81.343175,NH3,3,3,3
India,Chhattisgarh,Bhilai,"Civic Center, Bhilai - Bhilai Steel Plant",16-09-2025 07:00:00,21.185571,81.343175,SO2,8,9,8
India,Chhattisgarh,Bhilai,"Hathkhoj, Bhilai - CECB",16-09-2025 07:00:00,21.224231,81.408350,SO2,7,11,8
India,Chhattisgarh,Chhal,"Nawapara SECL Colony, Chhal - CECB",16-09-2025 07:00:00,22.118125,83.140608,OZONE,17,24,20
India,Chhattisgarh,Korba,"Rampur, Korba - CECB",16-09-2025 07:00:00,22.368195,82.746431,SO2,5,12,9
India,Chhattisgarh,Korba,"Urja Nagar, Korba - CECB",16-09-2025 07:00:00,22.348441,82.549611,PM2.5,16,22,17
India,Chhattisgarh,Korba,"Urja Nagar, Korba - CECB",16-09-2025 07:00:00,22.348441,82.549611,SO2,1,7,5
India,Delhi,Delhi,"Ashok Vihar, Delhi - DPCC",16-09-2025 07:00:00,28.695381,77.181665,CO,21,98,63
India,Delhi,Delhi,"CRRI Mathura Road, Delhi - IMD",16-09-2025 07:00:00,28.5512005,77.2735737,PM10,72,250,156
India,Delhi,Delhi,"ITO, Delhi - CPCB",16-09-2025 07:00:00,28.628624,77.241060,PM2.5,32,79,59
India,Delhi,Delhi,"Okhla Phase-2, Delhi - DPCC",16-09-2025 07:00:00,28.530785,77.271255,OZONE,3,80,5
India,Delhi,Delhi,"Patparganj, Delhi - DPCC",16-09-2025 07:00:00,28.623763,77.287209,NH3,5,7,6
India,Delhi,Delhi,"Patparganj, Delhi - DPCC",16-09-2025 07:00:00,28.623763,77.287209,SO2,7,10,9
India,Delhi,Delhi,"Punjabi Bagh, Delhi - DPCC",16-09-2025 07:00:00,28.674045,77.131023,NO2,8,48,25
India,Delhi,Delhi,"Punjabi Bagh, Delhi - DPCC",16-09-2025 07:00:00,28.674045,77.131023,SO2,8,12,10
India,Delhi,Delhi,"Punjabi Bagh, Delhi - DPCC",16-09-2025 07:00:00,28.674045,77.131023,CO,30,76,50
India,Delhi,Delhi,"Pusa, Delhi - DPCC",16-09-2025 07:00:00,28.639652,77.146275,NO2,34,72,53
India,Delhi,Delhi,"Pusa, Delhi - DPCC",16-09-2025 07:00:00,28.639652,77.146275,NH3,5,24,11
India,Delhi,Delhi,"Pusa, Delhi - DPCC",16-09-2025 07:00:00,28.639652,77.146275,OZONE,2,33,6
India,Delhi,Delhi,"Pusa, Delhi - IMD",16-09-2025 07:00:00,28.636110,77.173332,CO,10,71,65
India,Delhi,Delhi,"R K Puram, Delhi - DPCC",16-09-2025 07:00:00,28.563262,77.186937,NO2,11,74,34
India,Delhi,Delhi,"R K Puram, Delhi - DPCC",16-09-2025 07:00:00,28.563262,77.186937,NH3,4,5,5
India,Delhi,Delhi,"Lodhi Road, Delhi - IITM",16-09-2025 07:00:00,28.588333,77.221667,NO2,54,159,95
India,Delhi,Delhi,"Mandir Marg, Delhi - DPCC",16-09-2025 07:00:00,28.636429,77.201067,PM10,25,119,84
India,Delhi,Delhi,"Mandir Marg, Delhi - DPCC",16-09-2025 07:00:00,28.636429,77.201067,NH3,6,6,6
India,Delhi,Delhi,"Mundka, Delhi - DPCC",16-09-2025 07:00:00,28.684678,77.076574,PM10,79,500,159
India,Delhi,Delhi,"Mundka, Delhi - DPCC",16-09-2025 07:00:00,28.684678,77.076574,CO,20,54,39
India,Delhi,Delhi,"Najafgarh, Delhi - DPCC",16-09-2025 07:00:00,28.570173,76.933762,PM2.5,15,52,29
India,Delhi,Delhi,"Najafgarh, Delhi - DPCC",16-09-2025 07:00:00,28.570173,76.933762,PM10,51,100,76
India,Delhi,Delhi,"Najafgarh, Delhi - DPCC",16-09-2025 07:00:00,28.570173,76.933762,NO2,49,62,54
India,Gujarat,Ahmedabad,"Maninagar, Ahmedabad - GPCB",16-09-2025 07:00:00,23.002657,72.591912,SO2,17,30,26
India,Gujarat,Ahmedabad,"Raikhad, Ahmedabad - IITM",16-09-2025 07:00:00,23.020509,72.579261,PM10,40,69,57
India,Gujarat,Ahmedabad,"Raikhad, Ahmedabad - IITM",16-09-2025 07:00:00,23.020509,72.579261,OZONE,1,3,1
India,Gujarat,Ahmedabad,"Rakhial, Ahmedabad - IITM",16-09-2025 07:00:00,23.016834,72.625775,PM2.5,5,17,10
India,Gujarat,Ahmedabad,"Rakhial, Ahmedabad - IITM",16-09-2025 07:00:00,23.016834,72.625775,NH3,2,10,4
India,Gujarat,Ahmedabad,"SAC ISRO Bopal, Ahmedabad - IITM",16-09-2025 07:00:00,23.041137,72.456691,PM2.5,21,78,38
India,Gujarat,Ahmedabad,"SAC ISRO Bopal, Ahmedabad - IITM",16-09-2025 07:00:00,23.041137,72.456691,CO,18,32,24
India,Delhi,Delhi,"Wazirpur, Delhi - DPCC",16-09-2025 07:00:00,28.699793,77.165453,CO,26,57,44
India,Gujarat,Ahmedabad,"Chandkheda, Ahmedabad - IITM",16-09-2025 07:00:00,23.107969,72.574648,PM2.5,14,51,28
India,Gujarat,Ahmedabad,"Chandkheda, Ahmedabad - IITM",16-09-2025 07:00:00,23.107969,72.574648,NO2,5,31,14
India,Gujarat,Ahmedabad,"Chandkheda, Ahmedabad - IITM",16-09-2025 07:00:00,23.107969,72.574648,CO,8,35,16
India,Gujarat,Ahmedabad,"Chandkheda, Ahmedabad - IITM",16-09-2025 07:00:00,23.107969,72.574648,OZONE,5,33,11
India,Gujarat,Ahmedabad,"Gyaspur, Ahmedabad - IITM",16-09-2025 07:00:00,22.977134,72.553024,PM2.5,18,38,28
India,Gujarat,Ahmedabad,"Gyaspur, Ahmedabad - IITM",16-09-2025 07:00:00,22.977134,72.553024,CO,20,43,35
India,Gujarat,Ahmedabad,"SVPI Airport Hansol, Ahmedabad - IITM",16-09-2025 07:00:00,23.076793,72.627874,SO2,2,34,7
India,Gujarat,Ankleshwar,"GIDC, Ankleshwar - GPCB",16-09-2025 07:00:00,21.613267,73.010555,NH3,7,7,7
India,Gujarat,Ankleshwar,"GIDC, Ankleshwar - GPCB",16-09-2025 07:00:00,21.613267,73.010555,CO,26,47,41
India,Gujarat,Gandhinagar,"GIFT City, Gandhinagar - IITM",16-09-2025 07:00:00,23.163798,72.677768,PM10,43,87,64
India,Gujarat,Gandhinagar,"GIFT City, Gandhinagar - IITM",16-09-2025 07:00:00,23.163798,72.677768,NH3,1,6,2
India,Gujarat,Gandhinagar,"GIFT City, Gandhinagar - IITM",16-09-2025 07:00:00,23.163798,72.677768,SO2,3,11,6
India,Delhi,Delhi,"Narela, Delhi - DPCC",16-09-2025 07:00:00,28.822836,77.101981,PM10,63,126,94
India,Delhi,Delhi,"Narela, Delhi - DPCC",16-09-2025 07:00:00,28.822836,77.101981,CO,23,66,38
India,Delhi,Delhi,"Nehru Nagar, Delhi - DPCC",16-09-2025 07:00:00,28.567890,77.250515,PM10,58,166,101
India,Delhi,Delhi,"Nehru Nagar, Delhi - DPCC",16-09-2025 07:00:00,28.567890,77.250515,NH3,3,5,4
India,Delhi,Delhi,"Nehru Nagar, Delhi - DPCC",16-09-2025 07:00:00,28.567890,77.250515,SO2,1,18,7
India,Delhi,Delhi,"Nehru Nagar, Delhi - DPCC",16-09-2025 07:00:00,28.567890,77.250515,CO,4,70,27
India,Delhi,Delhi,"Okhla Phase-2, Delhi - DPCC",16-09-2025 07:00:00,28.530785,77.271255,CO,6,105,71
India,Gujarat,Nandesari,"GIDC, Nandesari - Nandesari Ind. Association",16-09-2025 07:00:00,22.410802,73.097923,NO2,NA,NA,NA
India,Gujarat,Vapi,"Phase-1 GIDC, Vapi - GPCB",16-09-2025 07:00:00,20.362421,72.918013,SO2,44,47,46
India,Gujarat,Vatva,"Phase-4 GIDC, Vatva - GPCB",16-09-2025 07:00:00,22.969611,72.643500,SO2,13,21,16
India,Haryana,Gurugram,"NISE Gwal Pahari, Gurugram - IMD",16-09-2025 07:00:00,28.422681,77.148944,NO2,7,22,11
India,Haryana,Gurugram,"NISE Gwal Pahari, Gurugram - IMD",16-09-2025 07:00:00,28.422681,77.148944,CO,50,72,66
India,Delhi,Delhi,"Rohini, Delhi - DPCC",16-09-2025 07:00:00,28.732528,77.119920,SO2,3,4,4
India,Delhi,Delhi,"Shadipur, Delhi - CPCB",16-09-2025 07:00:00,28.6514781,77.1473105,CO,28,54,43
India,Delhi,Delhi,"Sirifort, Delhi - CPCB",16-09-2025 07:00:00,28.5504249,77.2159377,NH3,NA,NA,NA
India,Delhi,Delhi,"Sirifort, Delhi - CPCB",16-09-2025 07:00:00,28.5504249,77.2159377,SO2,24,30,27
India,Delhi,Delhi,"Sirifort, Delhi - CPCB",16-09-2025 07:00:00,28.5504249,77.2159377,OZONE,21,34,30
India,Delhi,Delhi,"Vivek Vihar, Delhi - DPCC",16-09-2025 07:00:00,28.672342,77.315260,PM2.5,32,162,64
India,Delhi,Delhi,"Vivek Vihar, Delhi - DPCC",16-09-2025 07:00:00,28.672342,77.315260,SO2,7,14,10
India,Delhi,Delhi,"Wazirpur, Delhi - DPCC",16-09-2025 07:00:00,28.699793,77.165453,PM2.5,32,85,56
India,Delhi,Delhi,"Wazirpur, Delhi - DPCC",16-09-2025 07:00:00,28.699793,77.165453,PM10,95,225,154
India,Karnataka,Bengaluru,"Bapuji Nagar, Bengaluru - KSPCB",16-09-2025 07:00:00,12.951913,77.539784,PM10,30,93,46
India,Karnataka,Bengaluru,"Bapuji Nagar, Bengaluru - KSPCB",16-09-2025 07:00:00,12.951913,77.539784,NO2,3,12,6
India,Karnataka,Bengaluru,"Bapuji Nagar, Bengaluru - KSPCB",16-09-2025 07:00:00,12.951913,77.539784,NH3,1,2,1
India,Karnataka,Bengaluru,"Bapuji Nagar, Bengaluru - KSPCB",16-09-2025 07:00:00,12.951913,77.539784,SO2,3,9,4
India,Karnataka,Bengaluru,"Bapuji Nagar, Bengaluru - KSPCB",16-09-2025 07:00:00,12.951913,77.539784,OZONE,3,36,8
India,Karnataka,Bengaluru,"Hebbal, Bengaluru - KSPCB",16-09-2025 07:00:00,13.029152,77.585901,PM2.5,2,29,11
India,Karnataka,Bengaluru,"Hombegowda Nagar, Bengaluru - KSPCB",16-09-2025 07:00:00,12.938539,77.590100,PM2.5,9,21,15
India,Karnataka,Bengaluru,"Hombegowda Nagar, Bengaluru - KSPCB",16-09-2025 07:00:00,12.938539,77.590100,PM10,23,42,33
India,Karnataka,Bengaluru,"Hombegowda Nagar, Bengaluru - KSPCB",16-09-2025 07:00:00,12.938539,77.590100,OZONE,6,24,8
India,Karnataka,Bengaluru,"Jayanagar 5th Block, Bengaluru - KSPCB",16-09-2025 07:00:00,12.920984,77.584908,NH3,1,1,1
India,Karnataka,Bengaluru,"Jayanagar 5th Block, Bengaluru - KSPCB",16-09-2025 07:00:00,12.920984,77.584908,CO,1,28,6
India,Karnataka,Bengaluru,"Sanegurava Halli, Bengaluru - KSPCB",16-09-2025 07:00:00,12.990328,77.5431385,PM10,39,42,40
India,Jammu_and_Kashmir,Srinagar,"Rajbagh, Srinagar - JKSPCB",16-09-2025 07:00:00,34.066206,74.819820,SO2,NA,NA,NA
India,Jharkhand,Dhanbad,"Sardar Patel Nagar, Dhanbad - JSPCB",16-09-2025 07:00:00,23.80569,86.44268,SO2,NA,NA,NA
India,Jharkhand,Dhanbad,"Sardar Patel Nagar, Dhanbad - JSPCB",16-09-2025 07:00:00,23.80569,86.44268,CO,2,55,9
India,Jharkhand,Dhanbad,"Sardar Patel Nagar, Dhanbad - JSPCB",16-09-2025 07:00:00,23.80569,86.44268,OZONE,NA,NA,NA
India,Jharkhand,Jorapokhar,"Tata Stadium, Jorapokhar - JSPCB",16-09-2025 07:00:00,23.707909,86.414670,PM10,NA,NA,NA
India,Jharkhand,Jorapokhar,"Tata Stadium, Jorapokhar - JSPCB",16-09-2025 07:00:00,23.707909,86.414670,SO2,NA,NA,NA
India,Jharkhand,Jorapokhar,"Tata Stadium, Jorapokhar - JSPCB",16-09-2025 07:00:00,23.707909,86.414670,CO,7,48,48
India,Karnataka,Bagalkot,"Vidayagiri, Bagalkot - KSPCB",16-09-2025 07:00:00,16.172806,75.659694,SO2,7,7,7
India,Karnataka,Bengaluru,"BTM Layout, Bengaluru - CPCB",16-09-2025 07:00:00,12.9135218,77.5950804,PM2.5,23,35,28
India,Karnataka,Bengaluru,"BTM Layout, Bengaluru - CPCB",16-09-2025 07:00:00,12.9135218,77.5950804,SO2,15,19,17
India,Karnataka,Bengaluru,"Sanegurava Halli, Bengaluru - KSPCB",16-09-2025 07:00:00,12.990328,77.5431385,SO2,7,7,7
India,Karnataka,Bengaluru,"Shivapura_Peenya, Bengaluru - KSPCB",16-09-2025 07:00:00,13.0246342,77.5080115,NO2,24,25,24
India,Karnataka,Bengaluru,"Shivapura_Peenya, Bengaluru - KSPCB",16-09-2025 07:00:00,13.0246342,77.5080115,OZONE,24,25,24
India,Karnataka,Bengaluru,"Silk Board, Bengaluru - KSPCB",16-09-2025 07:00:00,12.917348,77.622813,SO2,6,12,9
India,Karnataka,Bengaluru,"Silk Board, Bengaluru - KSPCB",16-09-2025 07:00:00,12.917348,77.622813,CO,28,51,33
India,Karnataka,Chamarajanagar,"Urban, Chamarajanagar - KSPCB",16-09-2025 07:00:00,11.55358,76.55521,NO2,15,35,27
India,Karnataka,Chamarajanagar,"Urban, Chamarajanagar - KSPCB",16-09-2025 07:00:00,11.55358,76.55521,CO,15,120,32
India,Karnataka,Chikkaballapur,"Chikkaballapur Rural, Chikkaballapur - KSPCB",16-09-2025 07:00:00,13.428828,77.731418,CO,9,20,14
India,Karnataka,Hubballi,"Lingaraj Nagar, Hubballi - KSPCB",16-09-2025 07:00:00,15.3714823,75.1160168,CO,6,16,11
India,Karnataka,Hubballi,"Lingaraj Nagar, Hubballi - KSPCB",16-09-2025 07:00:00,15.3714823,75.1160168,OZONE,11,17,17
India,Karnataka,Kalaburagi,"Mahatma Basaveswar Colony, Kalaburgi - KSPCB",16-09-2025 07:00:00,17.336318,76.847397,PM2.5,26,36,28
India,Karnataka,Kalaburagi,"Mahatma Basaveswar Colony, Kalaburgi - KSPCB",16-09-2025 07:00:00,17.336318,76.847397,NO2,11,17,13
India,Karnataka,Karwar,"KHB Colony, Karwar - KSPCB",16-09-2025 07:00:00,14.816666,74.141003,CO,10,10,10
India,Karnataka,Koppal,"Diwator Nagar, Koppal - KSPCB",16-09-2025 07:00:00,15.347630,76.181767,NH3,6,8,7
India,Karnataka,Tumakuru,"Thimmalapura, Tumakuru - KSPCB",16-09-2025 07:00:00,13.377516,77.099072,CO,14,33,25
India,Karnataka,Vijayapura,"Ibrahimpur, Vijayapura - KSPCB",16-09-2025 07:00:00,16.802639,75.722694,PM10,43,44,44
India,Karnataka,Vijayapura,"Ibrahimpur, Vijayapura - KSPCB",16-09-2025 07:00:00,16.802639,75.722694,CO,9,121,33
India,Kerala,Eloor,"Udyogamandal, Eloor - Kerala PCB",16-09-2025 07:00:00,10.073232,76.302765,SO2,1,1,1
India,Kerala,Kannur,"Thavakkara, Kannur - Kerala PCB",16-09-2025 07:00:00,11.875000,75.373200,PM2.5,52,62,58
India,Kerala,Kannur,"Thavakkara, Kannur - Kerala PCB",16-09-2025 07:00:00,11.875000,75.373200,NH3,2,2,2
India,Karnataka,Chikkamagaluru,"Kalyana Nagara, Chikkamagaluru - KSPCB",16-09-2025 07:00:00,13.328028,75.797056,NH3,2,3,3
India,Karnataka,Davanagere,"Devaraj Urs Badavane, Davanagere - KSPCB",16-09-2025 07:00:00,14.475800,75.905200,PM2.5,9,39,21
India,Karnataka,Davanagere,"Devaraj Urs Badavane, Davanagere - KSPCB",16-09-2025 07:00:00,14.475800,75.905200,CO,6,26,16
India,Karnataka,Dharwad,"Kalabhavan, Dharwad - KSPCB",16-09-2025 07:00:00,15.459706,75.008381,SO2,1,3,1
India,Karnataka,Hassan,"B.Katihalli, Hassan - KSPCB",16-09-2025 07:00:00,13.008556,76.125258,PM2.5,NA,NA,NA
India,Karnataka,Mysuru,"Hebbal 1st Stage, Mysuru - KSPCB",16-09-2025 07:00:00,12.21041,76.37376,NO2,10,27,21
India,Karnataka,Mysuru,"Hebbal 1st Stage, Mysuru - KSPCB",16-09-2025 07:00:00,12.21041,76.37376,OZONE,5,52,8
India,Karnataka,Ramanagara,"Vijay Nagar, Ramanagara - KSPCB",16-09-2025 07:00:00,12.733409,77.298051,PM2.5,NA,NA,NA
India,Karnataka,Haveri,"Ashwini Nagar, Haveri - KSPCB",16-09-2025 07:00:00,14.791800,75.389600,PM10,NA,NA,NA
India,Karnataka,Hubballi,"Lingaraj Nagar, Hubballi - KSPCB",16-09-2025 07:00:00,15.3714823,75.1160168,NO2,7,8,7
India,Karnataka,Mangalore,"Kadri, Mangalore - KSPCB",16-09-2025 07:00:00,12.889250,74.853000,OZONE,5,43,24
India,Madhya Pradesh,Indore,"Maguda Nagar, Indore - IMC",16-09-2025 07:00:00,22.7524,75.8872,OZONE,7,12,8
India,Madhya Pradesh,Indore,"Regional Park, Indore - IMC",16-09-2025 07:00:00,22.6780,75.8559,SO2,12,26,24
India,Madhya Pradesh,Indore,"Regional Park, Indore - IMC",16-09-2025 07:00:00,22.6780,75.8559,OZONE,3,7,6
India,Madhya Pradesh,Indore,"Residency Area, Indore - IMC",16-09-2025 07:00:00,22.7084,75.8815,NO2,12,18,15
India,Madhya Pradesh,Jabalpur,"Govindh Bhavan Colony, Jabalpur - JMC",16-09-2025 07:00:00,23.163174,79.973061,PM10,21,69,39
India,Madhya Pradesh,Jabalpur,"Govindh Bhavan Colony, Jabalpur - JMC",16-09-2025 07:00:00,23.163174,79.973061,NO2,36,37,36
India,Madhya Pradesh,Jabalpur,"Govindh Bhavan Colony, Jabalpur - JMC",16-09-2025 07:00:00,23.163174,79.973061,NH3,1,1,1
India,Madhya Pradesh,Jabalpur,"Govindh Bhavan Colony, Jabalpur - JMC",16-09-2025 07:00:00,23.163174,79.973061,OZONE,6,48,9
India,Madhya Pradesh,Jabalpur,"Gupteshwar, Jabalpur - JMC",16-09-2025 07:00:00,23.142888,79.916147,PM10,19,54,35
India,Madhya Pradesh,Jabalpur,"Marhatal, Jabalpur - MPPCB",16-09-2025 07:00:00,23.168606,79.932247,PM2.5,NA,NA,NA
India,Kerala,Kollam,"Polayathode, Kollam - Kerala PCB",16-09-2025 07:00:00,8.8787,76.6073,NO2,8,9,9
India,Kerala,Thiruvananthapuram,"Kariavattom, Thiruvananthapuram - Kerala PCB",16-09-2025 07:00:00,8.563700,76.886500,NH3,1,1,1
India,Kerala,Thiruvananthapuram,"Plammoodu, Thiruvananthapuram - Kerala PCB",16-09-2025 07:00:00,8.5149093,76.9435879,CO,5,24,6
India,Kerala,Thiruvananthapuram,"Plammoodu, Thiruvananthapuram - Kerala PCB",16-09-2025 07:00:00,8.5149093,76.9435879,OZONE,14,17,15
India,Kerala,Thrissur,"Corporation Ground, Thrissur - Kerala PCB",16-09-2025 07:00:00,10.532400,76.215900,CO,20,26,24
India,Madhya Pradesh,Bhopal,"Idgah Hills, Bhopal - MPPCB",16-09-2025 07:00:00,23.264759,77.381568,PM2.5,27,97,37
India,Madhya Pradesh,Bhopal,"Idgah Hills, Bhopal - MPPCB",16-09-2025 07:00:00,23.264759,77.381568,NO2,10,40,19
India,Maharashtra,Akola,"Ramdaspeth, Akola - MPCB",16-09-2025 07:00:00,20.719516,77.000253,PM10,22,68,41
India,Maharashtra,Akola,"Ramdaspeth, Akola - MPCB",16-09-2025 07:00:00,20.719516,77.000253,NO2,12,40,19
India,Maharashtra,Amravati,"Shivneri Colony, Amravati - MPCB",16-09-2025 07:00:00,20.9402359,77.7895248,PM2.5,12,73,44
India,Maharashtra,Amravati,"Shivneri Colony, Amravati - MPCB",16-09-2025 07:00:00,20.9402359,77.7895248,NO2,4,14,8
India,Maharashtra,Amravati,"Shri Shivaji Science College, Amravati - MPCB",16-09-2025 07:00:00,20.939198,77.765701,NH3,1,2,1
India,Maharashtra,Aurangabad,"MIDC Chilkalthana, Aurangabad - MPCB",16-09-2025 07:00:00,19.875620,75.387310,PM10,NA,NA,NA
India,Maharashtra,Aurangabad,"MIDC Chilkalthana, Aurangabad - MPCB",16-09-2025 07:00:00,19.875620,75.387310,CO,2,62,17
India,Maharashtra,Aurangabad,"MIDC Chilkalthana, Aurangabad - MPCB",16-09-2025 07:00:00,19.875620,75.387310,OZONE,10,47,26
India,Maharashtra,Aurangabad,"Rachnakar Colony, Aurangabad - MPCB",16-09-2025 07:00:00,19.863756,75.321188,PM2.5,34,47,39
India,Maharashtra,Aurangabad,"Rachnakar Colony, Aurangabad - MPCB",16-09-2025 07:00:00,19.863756,75.321188,PM10,24,79,44
India,Maharashtra,Badlapur,"Katrap, Badlapur - MPCB",16-09-2025 07:00:00,19.16485,73.23409,PM2.5,20,129,39
India,Maharashtra,Badlapur,"Katrap, Badlapur - MPCB",16-09-2025 07:00:00,19.16485,73.23409,PM10,28,139,52
India,Maharashtra,Belapur,"CBD Belapur, Belapur - MPCB",16-09-2025 07:00:00,19.0243902,73.0406721,PM2.5,2,500,40
India,Maharashtra,Belapur,"CBD Belapur, Belapur - MPCB",16-09-2025 07:00:00,19.0243902,73.0406721,PM10,1,463,48
India,Maharashtra,Belapur,"CBD Belapur, Belapur - MPCB",16-09-2025 07:00:00,19.0243902,73.0406721,NO2,5,15,9
India,Madhya Pradesh,Jabalpur,"Marhatal, Jabalpur - MPPCB",16-09-2025 07:00:00,23.168606,79.932247,NH3,NA,NA,NA
India,Madhya Pradesh,Jabalpur,"Suhagi, Jabalpur - JMC",16-09-2025 07:00:00,23.218135,79.957770,PM2.5,8,82,42
India,Madhya Pradesh,Katni,"Gole Bazar, Katni - MPPCB",16-09-2025 07:00:00,23.50016,80.23284,SO2,13,29,22
India,Madhya Pradesh,Mandideep,"Sector-D Industrial Area, Mandideep - MPPCB",16-09-2025 07:00:00,23.108440,77.511428,NH3,1,4,3
India,Madhya Pradesh,Mandideep,"Sector-D Industrial Area, Mandideep - MPPCB",16-09-2025 07:00:00,23.108440,77.511428,OZONE,18,51,22
India,Madhya Pradesh,Gwalior,"Deen Dayal Nagar, Gwalior - MPPCB",16-09-2025 07:00:00,26.259242,78.216432,CO,9,44,36
India,Madhya Pradesh,Gwalior,"Maharaj Bada, Gwalior - MPPCB",16-09-2025 07:00:00,26.200388,78.147714,SO2,5,9,7
India,Madhya Pradesh,Indore,"Chhoti Gwaltoli, Indore - MPPCB",16-09-2025 07:00:00,22.4310,75.5213,SO2,9,15,12
India,Madhya Pradesh,Indore,"Maguda Nagar, Indore - IMC",16-09-2025 07:00:00,22.7524,75.8872,NH3,NA,NA,NA
India,Madhya Pradesh,Bhopal,"Paryavaran Parisar, Bhopal - MPPCB",16-09-2025 07:00:00,23.210494,77.425409,NO2,7,40,17
India,Madhya Pradesh,Bhopal,"Paryavaran Parisar, Bhopal - MPPCB",16-09-2025 07:00:00,23.210494,77.425409,NH3,3,5,4
India,Madhya Pradesh,Bhopal,"Paryavaran Parisar, Bhopal - MPPCB",16-09-2025 07:00:00,23.210494,77.425409,SO2,10,17,13
India,Madhya Pradesh,Dewas,"Bhopal Chauraha, Dewas - MPPCB",16-09-2025 07:00:00,22.9682591,76.064118,PM2.5,12,68,30
India,Madhya Pradesh,Dewas,"Bhopal Chauraha, Dewas - MPPCB",16-09-2025 07:00:00,22.9682591,76.064118,PM10,28,186,60
India,Madhya Pradesh,Satna,"Bandhavgar Colony, Satna - Birla Cement",16-09-2025 07:00:00,24.58434363,80.8549414,PM2.5,45,48,46
India,Madhya Pradesh,Satna,"Bandhavgar Colony, Satna - Birla Cement",16-09-2025 07:00:00,24.58434363,80.8549414,PM10,55,57,56
India,Madhya Pradesh,Satna,"Bandhavgar Colony, Satna - Birla Cement",16-09-2025 07:00:00,24.58434363,80.8549414,CO,16,38,19
India,Maharashtra,Ahmednagar,"Tarakpur, Ahmednagar - MPCB",16-09-2025 07:00:00,19.10122,74.73339,CO,6,72,9
India,Madhya Pradesh,Ratlam,"Shasthri Nagar, Ratlam - IPCA Lab",16-09-2025 07:00:00,23.331731,75.045981,SO2,25,26,26
India,Madhya Pradesh,Sagar,"Civil Lines, Sagar - MPPCB",16-09-2025 07:00:00,23.838586,78.759431,NO2,3,7,4
India,Maharashtra,Mumbai,"Ghatkopar, Mumbai - BMC",16-09-2025 07:00:00,19.083694,72.920967,NO2,10,32,20
India,Maharashtra,Mumbai,"Kandivali East, Mumbai - MPCB",16-09-2025 07:00:00,19.205800,72.868200,PM2.5,30,30,30
India,Maharashtra,Mumbai,"Kandivali West, Mumbai - BMC",16-09-2025 07:00:00,19.215859,72.831718,SO2,1,6,2
India,Maharashtra,Mumbai,"Kandivali West, Mumbai - BMC",16-09-2025 07:00:00,19.215859,72.831718,CO,3,88,33
India,Maharashtra,Mumbai,"Kandivali West, Mumbai - BMC",16-09-2025 07:00:00,19.215859,72.831718,OZONE,NA,NA,NA
India,Maharashtra,Mumbai,"Kherwadi_Bandra East, Mumbai - MPCB",16-09-2025 07:00:00,19.0632143,72.8456324,PM10,15,64,36
India,Maharashtra,Mumbai,"Kherwadi_Bandra East, Mumbai - MPCB",16-09-2025 07:00:00,19.0632143,72.8456324,CO,16,43,39
India,Maharashtra,Mumbai,"Kherwadi_Bandra East, Mumbai - MPCB",16-09-2025 07:00:00,19.0632143,72.8456324,OZONE,1,300,1
