country,state,city,station,last_update,latitude,longitude,pollutant_id,min_value,max_value,avg_value
India,Andhra_Pradesh,Kadapa,"Yerramukkapalli, Kadapa - APPCB",13-03-2026 15:00:00,14.465052,78.824187,PM10,52,76,63
India,Andhra_Pradesh,Chittoor,"Gangineni Cheruvu, Chittoor - APPCB",13-03-2026 15:00:00,13.204880,79.097889,NO2,25,40,29
India,Andhra_Pradesh,Chittoor,"Gangineni Cheruvu, Chittoor - APPCB",13-03-2026 15:00:00,13.204880,79.097889,OZONE,18,38,25
India,Andhra_Pradesh,Anantapur,"Gulzarpet, Anantapur - APPCB",13-03-2026 15:00:00,14.675886,77.593027,SO2,10,19,12
India,Andhra_Pradesh,Amaravati,"Secretariat, Amaravati - APPCB",13-03-2026 15:00:00,16.5150833,80.5181667,NH3,2,2,2
India,Andhra_Pradesh,Chittoor,"Gangineni Cheruvu, Chittoor - APPCB",13-03-2026 15:00:00,13.204880,79.097889,NO2,25,40,29
India,Andhra_Pradesh,Anantapur,"Gulzarpet, Anantapur - APPCB",13-03-2026 15:00:00,14.675886,77.593027,PM2.5,40,58,51
India,Andhra_Pradesh,Machilipatnam,"Srinivas Nagar Colony, Machilipatnam - APPCB",13-03-2026 15:00:00,16.186555,81.13219,NO2,10,20,15
India,Andhra_Pradesh,Amaravati,"Secretariat, Amaravati - APPCB",13-03-2026 15:00:00,16.5150833,80.5181667,PM10,38,100,66
India,Andhra_Pradesh,Guntur,"Rajendra Nagar North, Guntur - APPCB",13-03-2026 15:00:00,16.316553,80.413302,NO2,12,18,15
India,Andhra_Pradesh,Chittoor,"Gangineni Cheruvu, Chittoor - APPCB",13-03-2026 15:00:00,13.204880,79.097889,SO2,12,24,14
India,Andhra_Pradesh,Anantapur,"Gulzarpet, Anantapur - APPCB",13-03-2026 15:00:00,14.675886,77.593027,OZONE,35,40,37
India,Andhra_Pradesh,Eluru,"District Court, Eluru - APPCB",13-03-2026 15:00:00,16.711754,81.092095,OZONE,2,41,14
India,Andhra_Pradesh,Eluru,"District Court, Eluru - APPCB",13-03-2026 15:00:00,16.711754,81.092095,CO,23,44,29
India,Andhra_Pradesh,Kadapa,"Yerramukkapalli, Kadapa - APPCB",13-03-2026 15:00:00,14.465052,78.824187,OZONE,13,15,14
India,Andhra_Pradesh,Machilipatnam,"Srinivas Nagar Colony, Machilipatnam - APPCB",13-03-2026 15:00:00,16.186555,81.13219,NH3,3,6,5
India,Andhra_Pradesh,Machilipatnam,"Srinivas Nagar Colony, Machilipatnam - APPCB",13-03-2026 15:00:00,16.186555,81.13219,CO,13,40,26
India,Andhra_Pradesh,Rajamahendravaram,"Anand Kala Kshetram, Rajamahendravaram - APPCB",13-03-2026 15:00:00,16.9872867,81.7363176,PM10,32,108,52
India,Andhra_Pradesh,Rajamahendravaram,"Anand Kala Kshetram, Rajamahendravaram - APPCB",13-03-2026 15:00:00,16.9872867,81.7363176,PM2.5,22,88,39
India,Andhra_Pradesh,Guntur,"Rajendra Nagar North, Guntur - APPCB",13-03-2026 15:00:00,16.316553,80.413302,PM2.5,34,91,48
India,Andhra_Pradesh,Rajamahendravaram,"Anand Kala Kshetram, Rajamahendravaram - APPCB",13-03-2026 15:00:00,16.9872867,81.7363176,NO2,9,36,20
India,Andhra_Pradesh,Kadapa,"Yerramukkapalli, Kadapa - APPCB",13-03-2026 15:00:00,14.465052,78.824187,CO,22,52,45
India,Assam,Byrnihat,"Central Academy for SFS, Byrnihat - PCBA",13-03-2026 15:00:00,26.071318,91.87488,PM2.5,83,307,162
India,Assam,Byrnihat,"Central Academy for SFS, Byrnihat - PCBA",13-03-2026 15:00:00,26.071318,91.87488,SO2,18,32,30
India,Assam,Byrnihat,"Central Academy for SFS, Byrnihat - PCBA",13-03-2026 15:00:00,26.071318,91.87488,CO,4,70,56
India,Assam,Byrnihat,"Central Academy for SFS, Byrnihat - PCBA",13-03-2026 15:00:00,26.071318,91.87488,OZONE,12,32,18
India,Assam,Guwahati,"IITG, Guwahati - PCBA",13-03-2026 15:00:00,26.2028636,91.70046436,SO2,32,34,32
India,Andhra_Pradesh,Tirumala,"Toll Gate, Tirumala - APPCB",13-03-2026 15:00:00,13.67,79.35,CO,20,39,26
India,Andhra_Pradesh,Rajamahendravaram,"Anand Kala Kshetram, Rajamahendravaram - APPCB",13-03-2026 15:00:00,16.9872867,81.7363176,NO2,9,36,20
India,Andhra_Pradesh,Tirupati,"Vaikuntapuram, Tirupati - APPCB",13-03-2026 15:00:00,13.615387,79.409230,NO2,22,33,25
India,Andhra_Pradesh,Vijayawada,"Rajiv Nagar, Vijayawada - APPCB",13-03-2026 15:00:00,16.554731,80.649110,PM2.5,52,68,62
India,Andhra_Pradesh,Visakhapatnam,"GVM Corporation, Visakhapatnam - APPCB",13-03-2026 15:00:00,17.72,83.3,PM2.5,25,200,73
India,Andhra_Pradesh,Visakhapatnam,"GVM Corporation, Visakhapatnam - APPCB",13-03-2026 15:00:00,17.72,83.3,NH3,3,4,3
India,Andhra_Pradesh,Vijayawada,"HB Colony, Vijayawada - APPCB",13-03-2026 15:00:00,16.536107,80.594233,PM10,47,129,65
India,Andhra_Pradesh,Vijayawada,"HB Colony, Vijayawada - APPCB",13-03-2026 15:00:00,16.536107,80.594233,NH3,3,4,3
India,Andhra_Pradesh,Vijayawada,"Kanuru, Vijayawada - APPCB",13-03-2026 15:00:00,16.486692,80.699436,PM2.5,NA,NA,NA
India,Andhra_Pradesh,Rajamahendravaram,"Anand Kala Kshetram, Rajamahendravaram - APPCB",13-03-2026 15:00:00,16.9872867,81.7363176,OZONE,2,302,44
India,Andhra_Pradesh,Tirumala,"Toll Gate, Tirumala - APPCB",13-03-2026 15:00:00,13.67,79.35,PM10,48,114,72
India,Assam,Guwahati,"LGBI Airport, Guwahati - PCBA",13-03-2026 15:00:00,26.10887,91.589544,CO,12,105,50
India,Assam,Guwahati,"Pan Bazaar, Guwahati - PCBA",13-03-2026 15:00:00,26.187500,91.744194,PM2.5,1,98,62
India,Andhra_Pradesh,Vijayawada,"Kanuru, Vijayawada - APPCB",13-03-2026 15:00:00,16.486692,80.699436,NH3,NA,NA,NA
India,Andhra_Pradesh,Vijayawada,"Rajiv Gandhi Park, Vijayawada - APPCB",13-03-2026 15:00:00,16.509717,80.612222,NH3,4,7,5
India,Bihar,Bhagalpur,"DM Office_Kachari Chowk, Bhagalpur - BSPCB",13-03-2026 15:00:00,25.251013,86.989001,NO2,4,15,10
India,Bihar,Bhagalpur,"DM Office_Kachari Chowk, Bhagalpur - BSPCB",13-03-2026 15:00:00,25.251013,86.989001,SO2,29,80,52
India,Bihar,Bhagalpur,"DM Office_Kachari Chowk, Bhagalpur - BSPCB",13-03-2026 15:00:00,25.251013,86.989001,CO,10,28,18
India,Bihar,Bhagalpur,"Mayaganj, Bhagalpur - BSPCB",13-03-2026 15:00:00,25.265194,87.012947,PM2.5,12,68,36
India,Bihar,Bhagalpur,"Mayaganj, Bhagalpur - BSPCB",13-03-2026 15:00:00,25.265194,87.012947,CO,64,82,73
India,Bihar,Bhagalpur,"Mayaganj, Bhagalpur - BSPCB",13-03-2026 15:00:00,25.265194,87.012947,OZONE,6,25,10
India,Bihar,Aurangabad,"Gurdeo Nagar, Aurangabad - BSPCB",13-03-2026 15:00:00,24.75746,84.366208,PM10,30,137,88
India,Bihar,Aurangabad,"Gurdeo Nagar, Aurangabad - BSPCB",13-03-2026 15:00:00,24.75746,84.366208,NO2,7,8,8
India,Bihar,Begusarai,"Lohiyanagar, Begusarai - BSPCB",13-03-2026 15:00:00,25.42742023,86.13886079,NO2,9,16,13
India,Bihar,Begusarai,"Lohiyanagar, Begusarai - BSPCB",13-03-2026 15:00:00,25.42742023,86.13886079,NH3,3,4,4
India,Assam,Nalbari,"Bata Chowk, Nalbari - PCBA",13-03-2026 15:00:00,26.446912,91.439057,NO2,NA,NA,NA
India,Assam,Nalbari,"Bata Chowk, Nalbari - PCBA",13-03-2026 15:00:00,26.446912,91.439057,CO,14,40,19
India,Assam,Silchar,"Tarapur, Silchar - PCBA",13-03-2026 15:00:00,24.82827,92.79525,PM10,37,60,52
India,Assam,Guwahati,"Railway Colony, Guwahati - PCBA",13-03-2026 15:00:00,26.181742,91.78063,SO2,4,9,6
India,Assam,Nagaon,"Christianpatty, Nagaon - PCBA",13-03-2026 15:00:00,26.349082,92.68449,SO2,7,13,11
India,Assam,Guwahati,"Pan Bazaar, Guwahati - PCBA",13-03-2026 15:00:00,26.187500,91.744194,NO2,NA,NA,NA
India,Assam,Guwahati,"Pan Bazaar, Guwahati - PCBA",13-03-2026 15:00:00,26.187500,91.744194,OZONE,10,26,10
India,Assam,Sivasagar,"Girls College, Sivasagar - PCBA",13-03-2026 15:00:00,26.987634,94.636574,PM2.5,20,43,34
India,Bihar,Araria,"Kharahiya Basti, Araria - BSPCB",13-03-2026 15:00:00,26.146529,87.454184,CO,28,78,49
India,Bihar,Arrah,"New DM Office, Arrah - BSPCB",13-03-2026 15:00:00,25.5626095,84.663264,NO2,4,9,7
India,Assam,Nalbari,"Bata Chowk, Nalbari - PCBA",13-03-2026 15:00:00,26.446912,91.439057,PM10,NA,NA,NA
India,Bihar,Patna,"DRM Office Danapur, Patna - BSPCB",13-03-2026 15:00:00,25.586562,85.043586,SO2,4,9,6
India,Bihar,Patna,"DRM Office Danapur, Patna - BSPCB",13-03-2026 15:00:00,25.586562,85.043586,OZONE,8,31,9
India,Bihar,Patna,"Govt. High School Shikarpur, Patna - BSPCB",13-03-2026 15:00:00,25.592539,85.227158,PM10,112,280,146
India,Bihar,Patna,"IGSC Planetarium Complex, Patna - BSPCB",13-03-2026 15:00:00,25.610369,85.132568,NO2,1,2,2
India,Bihar,Patna,"IGSC Planetarium Complex, Patna - BSPCB",13-03-2026 15:00:00,25.610369,85.132568,CO,6,37,16
India,Bihar,Patna,"Muradpur, Patna - BSPCB",13-03-2026 15:00:00,25.619651,85.147382,PM10,128,143,135
India,Bihar,Patna,"Muradpur, Patna - BSPCB",13-03-2026 15:00:00,25.619651,85.147382,NH3,3,5,5
India,Bihar,Patna,"Muradpur, Patna - BSPCB",13-03-2026 15:00:00,25.619651,85.147382,OZONE,16,102,61
India,Bihar,Patna,"Rajbansi Nagar, Patna - BSPCB",13-03-2026 15:00:00,25.599486,85.113666,NH3,4,4,4
India,Bihar,Patna,"Rajbansi Nagar, Patna - BSPCB",13-03-2026 15:00:00,25.599486,85.113666,CO,19,102,44
India,Bihar,Bihar Sharif,"D M Colony, Bihar Sharif - BSPCB",13-03-2026 15:00:00,25.204762,85.514960,CO,40,133,53
India,Bihar,Buxar,"Charitra Van, Buxar - BSPCB",13-03-2026 15:00:00,25.567520,83.966379,NO2,9,10,9
India,Bihar,Buxar,"Charitra Van, Buxar - BSPCB",13-03-2026 15:00:00,25.567520,83.966379,CO,19,28,24
India,Bihar,Chhapra,"Darshan Nagar, Chhapra - BSPCB",13-03-2026 15:00:00,25.7808257,84.7446768,CO,8,16,12
India,Bihar,Gaya,"Kareemganj, Gaya - BSPCB",13-03-2026 15:00:00,24.792403,84.992416,NO2,11,13,12
India,Bihar,Gaya,"Kareemganj, Gaya - BSPCB",13-03-2026 15:00:00,24.792403,84.992416,SO2,41,44,43
India,Bihar,Gaya,"SFTI Kusdihra, Gaya - BSPCB",13-03-2026 15:00:00,24.762518,84.982348,NH3,3,5,4
India,Bihar,Hajipur,"Industrial Area, Hajipur - BSPCB",13-03-2026 15:00:00,25.697189,85.245900,NH3,14,19,17
India,Bihar,Munger,"Town Hall, Munger - BSPCB",13-03-2026 15:00:00,25.376776,86.471523,PM2.5,20,52,38
India,Bihar,Munger,"Town Hall, Munger - BSPCB",13-03-2026 15:00:00,25.376776,86.471523,OZONE,9,11,10
India,Bihar,Muzaffarpur,"MIT-Daudpur Kothi, Muzaffarpur - BSPCB",13-03-2026 15:00:00,26.1403345,85.3650192,NO2,2,9,6
India,Bihar,Muzaffarpur,"Muzaffarpur Collectorate, Muzaffarpur - BSPCB",13-03-2026 15:00:00,26.1209,85.3647,CO,20,72,47
India,Bihar,Katihar,"Mirchaibari, Katihar - BSPCB",13-03-2026 15:00:00,25.560083,87.553265,PM2.5,13,60,39
India,Bihar,Kishanganj,"SDM Office_Khagra, Kishanganj - BSPCB",13-03-2026 15:00:00,26.0881305,87.93840336,PM2.5,NA,NA,NA
India,Bihar,Kishanganj,"SDM Office_Khagra, Kishanganj - BSPCB",13-03-2026 15:00:00,26.0881305,87.93840336,SO2,5,13,7
India,Bihar,Kishanganj,"SDM Office_Khagra, Kishanganj - BSPCB",13-03-2026 15:00:00,26.0881305,87.93840336,CO,12,16,14
India,Bihar,Manguraha,"Forest Rest House, Manguraha - BSPCB",13-03-2026 15:00:00,27.308328,84.531742,CO,32,33,32
India,Bihar,Motihari,"Gandak Colony, Motihari - BSPCB",13-03-2026 15:00:00,26.63086,84.90051,PM2.5,38,143,81
India,Bihar,Saharsa,"Police Line, Saharsa - BSPCB",13-03-2026 15:00:00,25.892357,86.590325,SO2,14,19,17
India,Bihar,Samastipur,"DM Office_Kasipur, Samastipur - BSPCB",13-03-2026 15:00:00,25.859655,85.77944,PM10,34,121,74
India,Bihar,Purnia,"Mariam Nagar, Purnia - BSPCB",13-03-2026 15:00:00,25.366336,87.117468,CO,36,60,48
India,Bihar,Rajgir,"Dangi Tola, Rajgir - BSPCB",13-03-2026 15:00:00,25.03280,85.41948,SO2,2,3,3
India,Bihar,Sasaram,"Dada Peer, Sasaram - BSPCB",13-03-2026 15:00:00,24.952822,84.002396,PM10,42,122,78
India,Bihar,Sasaram,"Dada Peer, Sasaram - BSPCB",13-03-2026 15:00:00,24.952822,84.002396,NO2,2,6,2
India,Bihar,Rajgir,"Dangi Tola, Rajgir - BSPCB",13-03-2026 15:00:00,25.03280,85.41948,OZONE,24,28,26
India,Bihar,Siwan,"Chitragupta Nagar, Siwan - BSPCB",13-03-2026 15:00:00,26.2271665,84.3570427,OZONE,12,14,12
India,Chandigarh,Chandigarh,"Sector 22, Chandigarh - CPCC",13-03-2026 15:00:00,30.735567,76.775714,OZONE,6,140,61
India,Chandigarh,Chandigarh,"Sector-25, Chandigarh - CPCC",13-03-2026 15:00:00,30.751462,76.762879,NO2,NA,NA,NA
India,Chhattisgarh,Bhilai,"32Bungalows, Bhilai - CECB",13-03-2026 15:00:00,21.194815,81.314770,NO2,28,43,32
India,Chhattisgarh,Bhilai,"32Bungalows, Bhilai - CECB",13-03-2026 15:00:00,21.194815,81.314770,NH3,1,2,1
India,Chhattisgarh,Bhilai,"32Bungalows, Bhilai - CECB",13-03-2026 15:00:00,21.194815,81.314770,SO2,3,5,4
India,Chhattisgarh,Bhilai,"Civic Center, Bhilai - Bhilai Steel Plant",13-03-2026 15:00:00,21.185571,81.343175,SO2,7,9,8
India,Chhattisgarh,Tumidih,"OP Jindal Industrial Park, Tumidih - CECB",13-03-2026 15:00:00,22.06631475,83.33820077,CO,24,118,59
India,Delhi,Delhi,"Alipur, Delhi - DPCC",13-03-2026 15:00:00,28.815329,77.153010,PM2.5,42,331,162
India,Delhi,Delhi,"Ashok Vihar, Delhi - DPCC",13-03-2026 15:00:00,28.695381,77.181665,NO2,13,98,43
India,Delhi,Delhi,"Aya Nagar, Delhi - IMD",13-03-2026 15:00:00,28.4706914,77.1099364,PM2.5,35,263,129
India,Delhi,Delhi,"Aya Nagar, Delhi - IMD",13-03-2026 15:00:00,28.4706914,77.1099364,PM10,82,282,168
India,Delhi,Delhi,"Bawana, Delhi - DPCC",13-03-2026 15:00:00,28.776200,77.051074,PM2.5,55,346,222
India,Delhi,Delhi,"Bawana, Delhi - DPCC",13-03-2026 15:00:00,28.776200,77.051074,NH3,6,16,8
India,Delhi,Delhi,"Burari Crossing, Delhi - IMD",13-03-2026 15:00:00,28.7256504,77.2011573,PM10,102,223,149
India,Delhi,Delhi,"CRRI Mathura Road, Delhi - IMD",13-03-2026 15:00:00,28.5512005,77.2735737,PM2.5,35,303,143
India,Delhi,Delhi,"CRRI Mathura Road, Delhi - IMD",13-03-2026 15:00:00,28.5512005,77.2735737,NO2,62,141,86
India,Delhi,Delhi,"CRRI Mathura Road, Delhi - IMD",13-03-2026 15:00:00,28.5512005,77.2735737,CO,25,109,47
India,Chhattisgarh,Korba,"Rampur, Korba - CECB",13-03-2026 15:00:00,22.368195,82.746431,NH3,1,1,1
India,Chhattisgarh,Korba,"Rampur, Korba - CECB",13-03-2026 15:00:00,22.368195,82.746431,SO2,6,91,48
India,Chhattisgarh,Korba,"Urja Nagar, Korba - CECB",13-03-2026 15:00:00,22.348441,82.549611,PM10,58,500,160
India,Chhattisgarh,Raipur,"AIIMS, Raipur - CECB",13-03-2026 15:00:00,21.258815,81.578979,OZONE,5,21,8
India,Chhattisgarh,Raipur,"Bhatagaon New ISBT, Raipur - CECB",13-03-2026 15:00:00,21.219665,81.630094,PM10,24,108,69
India,Chhattisgarh,Raipur,"Krishak Nagar, Raipur - CECB",13-03-2026 15:00:00,21.237755,81.705301,NH3,2,2,2
India,Chhattisgarh,Raipur,"Siltara Phase-II, Raipur - CECB",13-03-2026 15:00:00,21.371751,81.664929,PM10,57,158,109
India,Chhattisgarh,Kunjemura,"OP Jindal School, Kunjemura - CECB",13-03-2026 15:00:00,22.126650,83.483212,SO2,17,82,42
India,Chhattisgarh,Raipur,"AIIMS, Raipur - CECB",13-03-2026 15:00:00,21.258815,81.578979,SO2,3,16,7
India,Bihar,Siwan,"Chitragupta Nagar, Siwan - BSPCB",13-03-2026 15:00:00,26.2271665,84.3570427,PM10,71,118,97
India,Bihar,Siwan,"Chitragupta Nagar, Siwan - BSPCB",13-03-2026 15:00:00,26.2271665,84.3570427,NH3,1,1,1
India,Chhattisgarh,Chhal,"Nawapara SECL Colony, Chhal - CECB",13-03-2026 15:00:00,22.118125,83.140608,PM10,56,279,125
India,Delhi,Delhi,"Cantonment Area, Delhi - DPCC ",13-03-2026 15:00:00,28.594169 ,77.125100 ,PM10,88,231,171
India,Delhi,Delhi,"Cantonment Area, Delhi - DPCC ",13-03-2026 15:00:00,28.594169 ,77.125100 ,NO2,17,133,55
India,Delhi,Delhi,"Cantonment Area, Delhi - DPCC ",13-03-2026 15:00:00,28.594169 ,77.125100 ,NH3,1,8,3
India,Delhi,Delhi,"Cantonment Area, Delhi - DPCC ",13-03-2026 15:00:00,28.594169 ,77.125100 ,OZONE,1,50,28
India,Delhi,Delhi,"Chandni Chowk, Delhi - IITM",13-03-2026 15:00:00,28.656756,77.227234,PM10,174,325,251
India,Delhi,Delhi,"Commonwealth Sports Complex, Delhi - DPCC",13-03-2026 15:00:00,28.615828 ,77.271992 ,NH3,8,26,18
India,Delhi,Delhi,"Commonwealth Sports Complex, Delhi - DPCC",13-03-2026 15:00:00,28.615828 ,77.271992 ,CO,69,113,87
India,Delhi,Delhi,"Dr. Karni Singh Shooting Range, Delhi - DPCC",13-03-2026 15:00:00,28.498571,77.264840,PM2.5,23,293,157
India,Delhi,Delhi,"Dwarka-Sector 8, Delhi - DPCC ",13-03-2026 15:00:00,28.5710274,77.0719006,SO2,20,47,28
India,Delhi,Delhi,"Dwarka-Sector 8, Delhi - DPCC ",13-03-2026 15:00:00,28.5710274,77.0719006,CO,4,106,32
India,Delhi,Delhi,"IGNOU_Maidan Garhi, Delhi - DPCC",13-03-2026 15:00:00,28.493624 ,77.201159 ,PM2.5,33,386,185
India,Delhi,Delhi,"IGNOU_Maidan Garhi, Delhi - DPCC",13-03-2026 15:00:00,28.493624 ,77.201159 ,SO2,58,64,61
India,Delhi,Delhi,"IHBAS, Dilshad Garden, Delhi - CPCB",13-03-2026 15:00:00,28.6811736,77.3025234,SO2,4,30,13
India,Delhi,Delhi,"IHBAS, Dilshad Garden, Delhi - CPCB",13-03-2026 15:00:00,28.6811736,77.3025234,OZONE,12,39,14
India,Delhi,Delhi,"ITO, Delhi - CPCB",13-03-2026 15:00:00,28.628624,77.241060,NH3,NA,NA,NA
India,Delhi,Delhi,"ITO, Delhi - CPCB",13-03-2026 15:00:00,28.628624,77.241060,SO2,NA,NA,NA
India,Delhi,Delhi,"Jawaharlal Nehru Stadium, Delhi - DPCC",13-03-2026 15:00:00,28.580280,77.233829,OZONE,2,151,77
India,Delhi,Delhi,"Major Dhyan Chand National Stadium, Delhi - DPCC",13-03-2026 15:00:00,28.611281,77.237738,NH3,14,19,17
India,Delhi,Delhi,"Mandir Marg, Delhi - DPCC",13-03-2026 15:00:00,28.636429,77.201067,PM10,88,194,140
India,Delhi,Delhi,"Mandir Marg, Delhi - DPCC",13-03-2026 15:00:00,28.636429,77.201067,NH3,7,9,8
India,Delhi,Delhi,"Mandir Marg, Delhi - DPCC",13-03-2026 15:00:00,28.636429,77.201067,SO2,22,48,35
India,Delhi,Delhi,"Najafgarh, Delhi - DPCC",13-03-2026 15:00:00,28.570173,76.933762,NO2,18,105,73
India,Delhi,Delhi,"Najafgarh, Delhi - DPCC",13-03-2026 15:00:00,28.570173,76.933762,NH3,11,19,12
India,Delhi,Delhi,"Najafgarh, Delhi - DPCC",13-03-2026 15:00:00,28.570173,76.933762,OZONE,4,100,55
India,Delhi,Delhi,"Narela, Delhi - DPCC",13-03-2026 15:00:00,28.822836,77.101981,PM2.5,40,332,185
India,Delhi,Delhi,"Nehru Nagar, Delhi - DPCC",13-03-2026 15:00:00,28.567890,77.250515,PM2.5,37,312,173
India,Delhi,Delhi,"Nehru Nagar, Delhi - DPCC",13-03-2026 15:00:00,28.567890,77.250515,OZONE,1,102,62
India,Delhi,Delhi,"New Moti Bagh, Delhi - MHUA",13-03-2026 15:00:00,28.57834,77.18400,CO,14,90,31
India,Delhi,Delhi,"Mandir Marg, Delhi - DPCC",13-03-2026 15:00:00,28.636429,77.201067,CO,22,74,36
India,Delhi,Delhi,"Mundka, Delhi - DPCC",13-03-2026 15:00:00,28.684678,77.076574,PM2.5,48,367,222
India,Delhi,Delhi,"Jawaharlal Nehru Stadium, Delhi - DPCC",13-03-2026 15:00:00,28.580280,77.233829,PM2.5,33,322,171
India,Delhi,Delhi,"North Campus, DU, Delhi - IMD",13-03-2026 15:00:00,28.6573814,77.1585447,NO2,27,170,88
India,Delhi,Delhi,"Mundka, Delhi - DPCC",13-03-2026 15:00:00,28.684678,77.076574,NH3,5,14,9
India,Gujarat,Ahmedabad,"SAC ISRO Satellite, Ahmedabad - IITM",13-03-2026 15:00:00,23.023389,72.515201,CO,43,121,74
India,Gujarat,Ahmedabad,"SVPI Airport Hansol, Ahmedabad - IITM",13-03-2026 15:00:00,23.076793,72.627874,PM10,97,244,183
India,Gujarat,Ahmedabad,"SVPI Airport Hansol, Ahmedabad - IITM",13-03-2026 15:00:00,23.076793,72.627874,CO,12,106,44
India,Gujarat,Bhavnagar,"Vidhyanagar, Bhavnagar - Nexteng Enviro",13-03-2026 15:00:00,21.755417,72.139056,OZONE,7,23,15
India,Gujarat,Gandhinagar,"IIPHG Lekawada, Gandhinagar - IITM",13-03-2026 15:00:00,23.243639,72.68994,SO2,4,60,9
India,Gujarat,Gandhinagar,"Sector-10, Gandhinagar - GPCB",13-03-2026 15:00:00,23.221714,72.654328,PM2.5,63,243,141
India,Gujarat,Gandhinagar,"Sector-10, Gandhinagar - GPCB",13-03-2026 15:00:00,23.221714,72.654328,PM10,87,179,136
India,Gujarat,Gandhinagar,"Sector-10, Gandhinagar - GPCB",13-03-2026 15:00:00,23.221714,72.654328,SO2,8,42,13
India,Gujarat,Gandhinagar,"Sector-10, Gandhinagar - GPCB",13-03-2026 15:00:00,23.221714,72.654328,CO,32,48,36
India,Gujarat,Ahmedabad,"Chandkheda, Ahmedabad - IITM",13-03-2026 15:00:00,23.107969,72.574648,SO2,3,130,26
India,Gujarat,Ahmedabad,"Chandkheda, Ahmedabad - IITM",13-03-2026 15:00:00,23.107969,72.574648,OZONE,1,94,56
India,Gujarat,Ahmedabad,"Gyaspur, Ahmedabad - IITM",13-03-2026 15:00:00,22.977134,72.553024,NH3,2,44,18
India,Gujarat,Ahmedabad,"Gyaspur, Ahmedabad - IITM",13-03-2026 15:00:00,22.977134,72.553024,CO,66,136,101
India,Gujarat,Ahmedabad,"Gyaspur, Ahmedabad - IITM",13-03-2026 15:00:00,22.977134,72.553024,OZONE,1,76,14
India,Gujarat,Ahmedabad,"Raikhad, Ahmedabad - IITM",13-03-2026 15:00:00,23.020509,72.579261,SO2,12,135,28
India,Gujarat,Ahmedabad,"SAC ISRO Bopal, Ahmedabad - IITM",13-03-2026 15:00:00,23.041137,72.456691,OZONE,2,72,42
India,Gujarat,Ahmedabad,"SAC ISRO Satellite, Ahmedabad - IITM",13-03-2026 15:00:00,23.023389,72.515201,PM2.5,61,351,200
India,Gujarat,Ahmedabad,"SAC ISRO Satellite, Ahmedabad - IITM",13-03-2026 15:00:00,23.023389,72.515201,PM10,83,309,156
India,Delhi,Delhi,"Patparganj, Delhi - DPCC",13-03-2026 15:00:00,28.623763,77.287209,NO2,20,115,63
India,Delhi,Delhi,"Patparganj, Delhi - DPCC",13-03-2026 15:00:00,28.623763,77.287209,SO2,15,43,23
India,Delhi,Delhi,"Punjabi Bagh, Delhi - DPCC",13-03-2026 15:00:00,28.674045,77.131023,PM2.5,55,324,176
India,Delhi,Delhi,"Punjabi Bagh, Delhi - DPCC",13-03-2026 15:00:00,28.674045,77.131023,PM10,109,224,161
India,Delhi,Delhi,"Punjabi Bagh, Delhi - DPCC",13-03-2026 15:00:00,28.674045,77.131023,NO2,15,81,40
India,Delhi,Delhi,"Punjabi Bagh, Delhi - DPCC",13-03-2026 15:00:00,28.674045,77.131023,NH3,5,8,7
India,Delhi,Delhi,"Punjabi Bagh, Delhi - DPCC",13-03-2026 15:00:00,28.674045,77.131023,SO2,32,56,46
India,Delhi,Delhi,"Punjabi Bagh, Delhi - DPCC",13-03-2026 15:00:00,28.674045,77.131023,CO,44,90,78
India,Delhi,Delhi,"Rohini, Delhi - DPCC",13-03-2026 15:00:00,28.732528,77.119920,CO,7,64,21
India,Delhi,Delhi,"Shadipur, Delhi - CPCB",13-03-2026 15:00:00,28.6514781,77.1473105,PM10,112,189,150
India,Delhi,Delhi,"Sonia Vihar, Delhi - DPCC",13-03-2026 15:00:00,28.710508,77.249485,NO2,11,52,29
India,Delhi,Delhi,"Sonia Vihar, Delhi - DPCC",13-03-2026 15:00:00,28.710508,77.249485,CO,2,117,32
India,Delhi,Delhi,"Sri Aurobindo Marg, Delhi - DPCC",13-03-2026 15:00:00,28.531346,77.190156,SO2,1,8,4
India,Delhi,Delhi,"Talkatora Garden, Delhi - DPCC",13-03-2026 15:00:00,28.621810,77.1944633,PM10,NA,NA,NA
India,Delhi,Delhi,"Talkatora Garden, Delhi - DPCC",13-03-2026 15:00:00,28.621810,77.1944633,NO2,NA,NA,NA
India,Delhi,Delhi,"Vivek Vihar, Delhi - DPCC",13-03-2026 15:00:00,28.672342,77.315260,SO2,10,40,16
India,Delhi,Delhi,"Wazirpur, Delhi - DPCC",13-03-2026 15:00:00,28.699793,77.165453,PM10,148,352,233
India,Delhi,Delhi,"Okhla Phase-2, Delhi - DPCC",13-03-2026 15:00:00,28.530785,77.271255,NO2,29,149,82
India,Delhi,Delhi,"Okhla Phase-2, Delhi - DPCC",13-03-2026 15:00:00,28.530785,77.271255,NH3,12,17,14
India,Delhi,Delhi,"Pusa, Delhi - IMD",13-03-2026 15:00:00,28.636110,77.173332,PM2.5,34,212,102
India,Delhi,Delhi,"Pusa, Delhi - IMD",13-03-2026 15:00:00,28.636110,77.173332,OZONE,6,311,213
India,Delhi,Delhi,"Okhla Phase-2, Delhi - DPCC",13-03-2026 15:00:00,28.530785,77.271255,OZONE,1,122,64
India,Delhi,Delhi,"Wazirpur, Delhi - DPCC",13-03-2026 15:00:00,28.699793,77.165453,SO2,5,22,13
India,Haryana,Faridabad,"New Industrial Town, Faridabad - HSPCB",13-03-2026 15:00:00,28.39072,77.30059,NO2,24,27,25
India,Haryana,Faridabad,"New Industrial Town, Faridabad - HSPCB",13-03-2026 15:00:00,28.39072,77.30059,NH3,10,12,11
India,Haryana,Faridabad,"New Industrial Town, Faridabad - HSPCB",13-03-2026 15:00:00,28.39072,77.30059,SO2,8,8,8
India,Haryana,Faridabad,"New Industrial Town, Faridabad - HSPCB",13-03-2026 15:00:00,28.39072,77.30059,CO,10,13,12
India,Haryana,Faridabad,"Sector 11, Faridabad - HSPCB",13-03-2026 15:00:00,28.376058,77.315741,PM2.5,35,386,274
India,Haryana,Faridabad,"Sector 11, Faridabad - HSPCB",13-03-2026 15:00:00,28.376058,77.315741,NH3,10,10,10
India,Haryana,Faridabad,"Sector 30, Faridabad - HSPCB",13-03-2026 15:00:00,28.4417,77.3217,PM2.5,103,103,103
India,Haryana,Faridabad,"Sector 30, Faridabad - HSPCB",13-03-2026 15:00:00,28.4417,77.3217,OZONE,6,36,21
India,Haryana,Fatehabad,"Huda Sector, Fatehabad - HSPCB",13-03-2026 15:00:00,29.503664,75.467934,NH3,13,15,14
India,Haryana,Fatehabad,"Huda Sector, Fatehabad - HSPCB",13-03-2026 15:00:00,29.503664,75.467934,CO,25,36,30
India,Haryana,Fatehabad,"Huda Sector, Fatehabad - HSPCB",13-03-2026 15:00:00,29.503664,75.467934,OZONE,71,100,84
India,Haryana,Gurugram,"NISE Gwal Pahari, Gurugram - IMD",13-03-2026 15:00:00,28.422681,77.148944,PM2.5,43,304,155
India,Haryana,Gurugram,"NISE Gwal Pahari, Gurugram - IMD",13-03-2026 15:00:00,28.422681,77.148944,CO,7,62,25
India,Haryana,Gurugram,"Sector-51, Gurugram - HSPCB",13-03-2026 15:00:00,28.4227,77.0667,PM10,88,438,223
India,Haryana,Gurugram,"Sector-51, Gurugram - HSPCB",13-03-2026 15:00:00,28.4227,77.0667,NO2,4,10,6
India,Haryana,Gurugram,"Sector-51, Gurugram - HSPCB",13-03-2026 15:00:00,28.4227,77.0667,NH3,6,10,8
India,Haryana,Gurugram,"Sector-51, Gurugram - HSPCB",13-03-2026 15:00:00,28.4227,77.0667,OZONE,10,46,38
India,Haryana,Gurugram,"Teri Gram, Gurugram - HSPCB",13-03-2026 15:00:00,28.4275,77.1465,PM10,96,218,135
India,Haryana,Narnaul,"Shastri Nagar, Narnaul - HSPCB",13-03-2026 15:00:00,28.060249,76.113115,SO2,6,7,7
India,Haryana,Palwal,"Shyam Nagar, Palwal - HSPCB",13-03-2026 15:00:00,28.1485564,77.3320667,PM2.5,33,45,37
India,Haryana,Palwal,"Shyam Nagar, Palwal - HSPCB",13-03-2026 15:00:00,28.1485564,77.3320667,PM10,34,50,39
India,Haryana,Palwal,"Shyam Nagar, Palwal - HSPCB",13-03-2026 15:00:00,28.1485564,77.3320667,NO2,23,24,24
India,Haryana,Palwal,"Shyam Nagar, Palwal - HSPCB",13-03-2026 15:00:00,28.1485564,77.3320667,SO2,NA,NA,NA
India,Haryana,Panchgaon,"Amity University, Panchgaon - IITM",13-03-2026 15:00:00,28.3153,76.9143,CO,10,60,34
India,Haryana,Panchkula,"Sector-6, Panchkula - HSPCB ",13-03-2026 15:00:00,30.7057778,76.8531805555555,NO2,23,25,24
India,Haryana,Panipat,"Sector-18, Panipat - HSPCB",13-03-2026 15:00:00,29.432304,76.972765,PM2.5,39,90,63
India,Haryana,Panipat,"Sector-18, Panipat - HSPCB",13-03-2026 15:00:00,29.432304,76.972765,OZONE,30,30,30
India,Haryana,Rohtak,"MD University, Rohtak - HSPCB",13-03-2026 15:00:00,28.52123,76.37138,NO2,10,12,11
India,Haryana,Ballabgarh,"Nathu Colony, Ballabgarh - HSPCB",13-03-2026 15:00:00,28.3419248,77.319699,PM2.5,55,308,159
India,Haryana,Bhiwani,"H.B. Colony, Bhiwani - HSPCB",13-03-2026 15:00:00,28.806223,76.141105,PM10,36,244,95
India,Haryana,Bhiwani,"H.B. Colony, Bhiwani - HSPCB",13-03-2026 15:00:00,28.806223,76.141105,NO2,7,10,8
India,Haryana,Bhiwani,"H.B. Colony, Bhiwani - HSPCB",13-03-2026 15:00:00,28.806223,76.141105,CO,15,21,18
India,Haryana,Charkhi Dadri,"Mini Secretariat, Charkhi Dadri - HSPCB",13-03-2026 15:00:00,28.593883,76.270653,NO2,9,20,15
India,Haryana,Dharuhera,"Municipal Corporation Office, Dharuhera -  HSPCB",13-03-2026 15:00:00,28.206800,76.799700,PM2.5,32,303,162
India,Haryana,Dharuhera,"Municipal Corporation Office, Dharuhera -  HSPCB",13-03-2026 15:00:00,28.206800,76.799700,NO2,16,57,41
India,Haryana,Dharuhera,"Municipal Corporation Office, Dharuhera -  HSPCB",13-03-2026 15:00:00,28.206800,76.799700,NH3,10,29,21
India,Haryana,Dharuhera,"Municipal Corporation Office, Dharuhera -  HSPCB",13-03-2026 15:00:00,28.206800,76.799700,CO,8,35,21
India,Haryana,Dharuhera,"Municipal Corporation Office, Dharuhera -  HSPCB",13-03-2026 15:00:00,28.206800,76.799700,OZONE,11,22,15
India,Gujarat,Mehsana,"Sadanand Nagar, Mehsana - Nexteng Enviro",13-03-2026 15:00:00,23.593150,72.372792,NH3,4,11,7
India,Gujarat,Mehsana,"Sadanand Nagar, Mehsana - Nexteng Enviro",13-03-2026 15:00:00,23.593150,72.372792,SO2,4,14,9
India,Gujarat,Mehsana,"Sadanand Nagar, Mehsana - Nexteng Enviro",13-03-2026 15:00:00,23.593150,72.372792,OZONE,8,13,11
India,Gujarat,Nandesari,"GIDC, Nandesari - Nandesari Ind. Association",13-03-2026 15:00:00,22.410802,73.097923,PM2.5,92,375,200
India,Gujarat,Rajkot,"Mavdi, Rajkot - Nexteng Enviro ",13-03-2026 15:00:00,22.248853,70.776774,PM2.5,22,198,86
India,Gujarat,Rajkot,"Mavdi, Rajkot - Nexteng Enviro ",13-03-2026 15:00:00,22.248853,70.776774,CO,38,42,40
India,Gujarat,Surat,"Katargam, Surat - Nexteng Enviro",13-03-2026 15:00:00,21.217779 ,72.834787 ,PM10,43,128,88
India,Gujarat,Surat,"Katargam, Surat - Nexteng Enviro",13-03-2026 15:00:00,21.217779 ,72.834787 ,OZONE,8,9,9
India,Haryana,Mandikhera,"General Hospital, Mandikhera(Nuh) - HSPCB",13-03-2026 15:00:00,27.9002,76.9938,NO2,19,23,21
India,Haryana,Manesar,"Sector-2 IMT, Manesar - HSPCB",13-03-2026 15:00:00,28.360699,76.936090,PM2.5,118,342,194
India,Haryana,Manesar,"Sector-2 IMT, Manesar - HSPCB",13-03-2026 15:00:00,28.360699,76.936090,PM10,100,218,127
India,Haryana,Manesar,"Sector-2 IMT, Manesar - HSPCB",13-03-2026 15:00:00,28.360699,76.936090,NH3,6,11,9
India,Haryana,Narnaul,"Shastri Nagar, Narnaul - HSPCB",13-03-2026 15:00:00,28.060249,76.113115,NO2,36,60,51
India,Haryana,Gurugram,"Teri Gram, Gurugram - HSPCB",13-03-2026 15:00:00,28.4275,77.1465,CO,10,51,29
India,Haryana,Gurugram,"Vikas Sadan, Gurugram - HSPCB",13-03-2026 15:00:00,28.4501238,77.0263051,CO,62,115,94
India,Haryana,Hisar,"Urban Estate-II, Hisar - HSPCB",13-03-2026 15:00:00,29.140560,75.744941,PM10,76,133,108
India,Haryana,Hisar,"Urban Estate-II, Hisar - HSPCB",13-03-2026 15:00:00,29.140560,75.744941,NH3,10,11,11
India,Haryana,Jind,"Police Lines, Jind - HSPCB",13-03-2026 15:00:00,29.307814,76.337619,PM10,61,122,94
India,Haryana,Jind,"Police Lines, Jind - HSPCB",13-03-2026 15:00:00,29.307814,76.337619,CO,30,109,65
India,Haryana,Kaithal,"Rishi Nagar, Kaithal - HSPCB",13-03-2026 15:00:00,29.8006,76.4155,PM2.5,68,185,118
India,Haryana,Karnal,"Sector-12, Karnal - HSPCB",13-03-2026 15:00:00,29.695300,77.002700,NO2,6,7,6
India,Haryana,Kurukshetra,"Sector-7, Kurukshetra - HSPCB",13-03-2026 15:00:00,29.966942,76.875879,NO2,4,4,4
India,Gujarat,Vatva,"Phase-4 GIDC, Vatva - GPCB",13-03-2026 15:00:00,22.969611,72.643500,PM2.5,63,336,130
India,Haryana,Ambala,"Patti Mehar, Ambala - HSPCB",13-03-2026 15:00:00,30.379589,76.778328,PM10,71,114,95
India,Haryana,Ambala,"Patti Mehar, Ambala - HSPCB",13-03-2026 15:00:00,30.379589,76.778328,NO2,7,12,10
India,Haryana,Ambala,"Patti Mehar, Ambala - HSPCB",13-03-2026 15:00:00,30.379589,76.778328,SO2,12,12,12
India,Haryana,Kurukshetra,"Sector-7, Kurukshetra - HSPCB",13-03-2026 15:00:00,29.966942,76.875879,SO2,1,17,8
India,Himachal Pradesh,Baddi,"HIMUDA Complex Phase-1, Baddi - HPPCB",13-03-2026 15:00:00,30.943887,76.801991,NH3,4,7,5
India,Himachal Pradesh,Baddi,"HIMUDA Complex Phase-1, Baddi - HPPCB",13-03-2026 15:00:00,30.943887,76.801991,SO2,23,122,64
India,Jharkhand,Dhanbad,"Sardar Patel Nagar, Dhanbad - JSPCB",13-03-2026 15:00:00,23.80569,86.44268,PM2.5,4,313,162
India,Jharkhand,Dhanbad,"Sardar Patel Nagar, Dhanbad - JSPCB",13-03-2026 15:00:00,23.80569,86.44268,NO2,79,108,83
India,Jharkhand,Dhanbad,"Sardar Patel Nagar, Dhanbad - JSPCB",13-03-2026 15:00:00,23.80569,86.44268,OZONE,1,55,32
India,Karnataka,Bagalkot,"Vidayagiri, Bagalkot - KSPCB",13-03-2026 15:00:00,16.172806,75.659694,PM10,45,46,46
India,Karnataka,Bengaluru,"BTM Layout, Bengaluru - CPCB",13-03-2026 15:00:00,12.9135218,77.5950804,SO2,17,17,17
India,Karnataka,Bengaluru,"BWSSB Kadabesanahalli, Bengaluru - CPCB",13-03-2026 15:00:00,12.9352049,77.6814488,SO2,2,8,4
India,Karnataka,Bengaluru,"City Railway Station, Bengaluru - KSPCB",13-03-2026 15:00:00,12.9756843,77.5660749,NO2,44,51,48
India,Karnataka,Bengaluru,"Hebbal, Bengaluru - KSPCB",13-03-2026 15:00:00,13.029152,77.585901,NO2,51,124,81
India,Karnataka,Bengaluru,"Hebbal, Bengaluru - KSPCB",13-03-2026 15:00:00,13.029152,77.585901,NH3,3,4,4
India,Karnataka,Bengaluru,"Hebbal, Bengaluru - KSPCB",13-03-2026 15:00:00,13.029152,77.585901,CO,18,51,34
India,Karnataka,Bengaluru,"Hebbal, Bengaluru - KSPCB",13-03-2026 15:00:00,13.029152,77.585901,OZONE,9,11,9
India,Karnataka,Bengaluru,"Hombegowda Nagar, Bengaluru - KSPCB",13-03-2026 15:00:00,12.938539,77.590100,NO2,20,93,46
India,Karnataka,Bengaluru,"Hombegowda Nagar, Bengaluru - KSPCB",13-03-2026 15:00:00,12.938539,77.590100,NH3,3,9,4
India,Haryana,Sirsa,"F-Block, Sirsa - HSPCB",13-03-2026 15:00:00,29.536400,75.015800,OZONE,40,292,66
India,Haryana,Sonipat,"Murthal, Sonipat - HSPCB",13-03-2026 15:00:00,29.027200,77.062100,NH3,11,11,11
India,Haryana,Yamuna Nagar,"Gobind Pura, Yamuna Nagar - HSPCB",13-03-2026 15:00:00,30.1480566,77.2893471,PM10,112,162,134
India,Haryana,Yamuna Nagar,"Gobind Pura, Yamuna Nagar - HSPCB",13-03-2026 15:00:00,30.1480566,77.2893471,SO2,9,15,11
India,Karnataka,Bengaluru,"Jayanagar 5th Block, Bengaluru - KSPCB",13-03-2026 15:00:00,12.920984,77.584908,OZONE,8,98,71
India,Karnataka,Bengaluru,"Jigani, Bengaluru - KSPCB",13-03-2026 15:00:00,12.7816279,77.6299145,NO2,21,22,22
India,Karnataka,Bengaluru,"Jigani, Bengaluru - KSPCB",13-03-2026 15:00:00,12.7816279,77.6299145,NH3,3,3,3
India,Karnataka,Bengaluru,"Jigani, Bengaluru - KSPCB",13-03-2026 15:00:00,12.7816279,77.6299145,SO2,18,19,18
India,Karnataka,Bengaluru,"Jigani, Bengaluru - KSPCB",13-03-2026 15:00:00,12.7816279,77.6299145,CO,42,44,43
India,Karnataka,Bengaluru,"Jayanagar 5th Block, Bengaluru - KSPCB",13-03-2026 15:00:00,12.920984,77.584908,PM10,88,168,120
India,Karnataka,Bengaluru,"Jayanagar 5th Block, Bengaluru - KSPCB",13-03-2026 15:00:00,12.920984,77.584908,NO2,2,23,12
India,Karnataka,Bengaluru,"RVCE-Mailasandra, Bengaluru - KSPCB",13-03-2026 15:00:00,12.921418,77.502466,SO2,13,51,23
India,Karnataka,Bengaluru,"Shivapura_Peenya, Bengaluru - KSPCB",13-03-2026 15:00:00,13.0246342,77.5080115,NH3,4,4,4
India,Karnataka,Chamarajanagar,"Urban, Chamarajanagar - KSPCB",13-03-2026 15:00:00,11.55358,76.55521,PM2.5,26,48,31
India,Haryana,Sirsa,"F-Block, Sirsa - HSPCB",13-03-2026 15:00:00,29.536400,75.015800,NH3,6,16,14
India,Karnataka,Yadgir,"Collector Office, Yadgir - KSPCB",13-03-2026 15:00:00,16.7602,77.1428,CO,15,44,22
India,Kerala,Eloor,"Udyogamandal, Eloor - Kerala PCB",13-03-2026 15:00:00,10.073232,76.302765,NO2,6,7,7
India,Kerala,Eloor,"Udyogamandal, Eloor - Kerala PCB",13-03-2026 15:00:00,10.073232,76.302765,CO,6,102,57
India,Kerala,Kannur,"Thavakkara, Kannur - Kerala PCB",13-03-2026 15:00:00,11.875000,75.373200,PM2.5,58,71,65
India,Kerala,Kannur,"Thavakkara, Kannur - Kerala PCB",13-03-2026 15:00:00,11.875000,75.373200,SO2,1,14,4
India,Kerala,Kannur,"Thavakkara, Kannur - Kerala PCB",13-03-2026 15:00:00,11.875000,75.373200,OZONE,27,32,30
India,Kerala,Kollam,"Polayathode, Kollam - Kerala PCB",13-03-2026 15:00:00,8.8787,76.6073,OZONE,34,35,35
India,Karnataka,Mangalore,"Kadri, Mangalore - KSPCB",13-03-2026 15:00:00,12.889250,74.853000,PM10,NA,NA,NA
India,Karnataka,Mangalore,"Kadri, Mangalore - KSPCB",13-03-2026 15:00:00,12.889250,74.853000,NH3,NA,NA,NA
India,Karnataka,Mysuru,"Hebbal 1st Stage, Mysuru - KSPCB",13-03-2026 15:00:00,12.21041,76.37376,PM10,44,127,77
India,Karnataka,Ramanagara,"Vijay Nagar, Ramanagara - KSPCB",13-03-2026 15:00:00,12.733409,77.298051,PM10,52,122,77
India,Karnataka,Shivamogga,"Vinoba Nagara, Shivamogga - KSPCB",13-03-2026 15:00:00,13.940000,75.555917,PM10,50,63,51
India,Madhya Pradesh,Bhopal,"T T Nagar, Bhopal - MPPCB",13-03-2026 15:00:00,23.233584,77.400574,NO2,20,118,45
India,Madhya Pradesh,Damoh,"Shrivastav Colony, Damoh - MPPCB",13-03-2026 15:00:00,23.81748678,79.446246,PM2.5,67,433,189
India,Madhya Pradesh,Damoh,"Shrivastav Colony, Damoh - MPPCB",13-03-2026 15:00:00,23.81748678,79.446246,PM10,66,427,155
India,Madhya Pradesh,Damoh,"Shrivastav Colony, Damoh - MPPCB",13-03-2026 15:00:00,23.81748678,79.446246,SO2,8,58,19
India,Madhya Pradesh,Dewas,"Bhopal Chauraha, Dewas - MPPCB",13-03-2026 15:00:00,22.9682591,76.064118,NO2,42,140,102
India,Karnataka,Chikkamagaluru,"Kalyana Nagara, Chikkamagaluru - KSPCB",13-03-2026 15:00:00,13.328028,75.797056,NH3,1,3,2
India,Karnataka,Dharwad,"Kalabhavan, Dharwad - KSPCB",13-03-2026 15:00:00,15.459706,75.008381,SO2,7,9,8
India,Karnataka,Dharwad,"Kalabhavan, Dharwad - KSPCB",13-03-2026 15:00:00,15.459706,75.008381,OZONE,28,46,39
India,Karnataka,Hubballi,"Deshpande Nagar, Hubballi - KSPCB",13-03-2026 15:00:00,15.351773,75.140726,SO2,NA,NA,NA
India,Madhya Pradesh,Bhopal,"Idgah Hills, Bhopal - MPPCB",13-03-2026 15:00:00,23.264759,77.381568,OZONE,21,85,61
India,Madhya Pradesh,Bhopal,"Paryavaran Parisar, Bhopal - MPPCB",13-03-2026 15:00:00,23.210494,77.425409,PM10,50,270,104
India,Madhya Pradesh,Bhopal,"T T Nagar, Bhopal - MPPCB",13-03-2026 15:00:00,23.233584,77.400574,PM10,62,171,98
India,Madhya Pradesh,Gwalior,"City Center, Gwalior - MPPCB",13-03-2026 15:00:00,26.203442,78.193251,SO2,8,24,15
India,Madhya Pradesh,Gwalior,"City Center, Gwalior - MPPCB",13-03-2026 15:00:00,26.203442,78.193251,OZONE,33,120,62
India,Madhya Pradesh,Gwalior,"Deen Dayal Nagar, Gwalior - MPPCB",13-03-2026 15:00:00,26.259242,78.216432,PM2.5,57,330,143
India,Kerala,Thiruvananthapuram,"Plammoodu, Thiruvananthapuram - Kerala PCB",13-03-2026 15:00:00,8.5149093,76.9435879,SO2,3,27,13
India,Kerala,Thrissur,"Corporation Ground, Thrissur - Kerala PCB",13-03-2026 15:00:00,10.532400,76.215900,NO2,NA,NA,NA
India,Madhya Pradesh,Dewas,"Bhopal Chauraha, Dewas - MPPCB",13-03-2026 15:00:00,22.9682591,76.064118,SO2,1,73,34
India,Madhya Pradesh,Bhopal,"Idgah Hills, Bhopal - MPPCB",13-03-2026 15:00:00,23.264759,77.381568,NO2,16,65,29
India,Madhya Pradesh,Jabalpur,"Suhagi, Jabalpur - JMC",13-03-2026 15:00:00,23.218135,79.957770,NH3,4,7,6
India,Madhya Pradesh,Jabalpur,"Suhagi, Jabalpur - JMC",13-03-2026 15:00:00,23.218135,79.957770,SO2,6,15,10
India,Madhya Pradesh,Katni,"Gole Bazar, Katni - MPPCB",13-03-2026 15:00:00,23.50016,80.23284,NH3,5,10,8
India,Madhya Pradesh,Mandideep,"Sector-D Industrial Area, Mandideep - MPPCB",13-03-2026 15:00:00,23.108440,77.511428,PM10,67,312,134
India,Madhya Pradesh,Mandideep,"Sector-D Industrial Area, Mandideep - MPPCB",13-03-2026 15:00:00,23.108440,77.511428,NO2,18,163,69
India,Madhya Pradesh,Pithampur,"Sector-2 Industrial Area, Pithampur - MPPCB",13-03-2026 15:00:00,22.624758,75.675238,CO,4,54,37
India,Madhya Pradesh,Sagar,"Civil Lines, Sagar - MPPCB",13-03-2026 15:00:00,23.838586,78.759431,PM2.5,17,79,42
India,Madhya Pradesh,Sagar,"Civil Lines, Sagar - MPPCB",13-03-2026 15:00:00,23.838586,78.759431,PM10,54,137,89
India,Madhya Pradesh,Sagar,"Deen Dayal Nagar, Sagar - MPPCB",13-03-2026 15:00:00,23.8640158,78.80289321,NO2,5,135,46
India,Madhya Pradesh,Jabalpur,"Govindh Bhavan Colony, Jabalpur - JMC",13-03-2026 15:00:00,23.163174,79.973061,PM2.5,28,85,51
India,Madhya Pradesh,Jabalpur,"Govindh Bhavan Colony, Jabalpur - JMC",13-03-2026 15:00:00,23.163174,79.973061,PM10,54,119,82
India,Madhya Pradesh,Jabalpur,"Govindh Bhavan Colony, Jabalpur - JMC",13-03-2026 15:00:00,23.163174,79.973061,OZONE,7,105,42
India,Madhya Pradesh,Jabalpur,"Gupteshwar, Jabalpur - JMC",13-03-2026 15:00:00,23.142888,79.916147,SO2,1,16,10
India,Madhya Pradesh,Indore,"Airport Area, Indore - IMC",13-03-2026 15:00:00,22.7289,75.8076,OZONE,13,25,18
India,Madhya Pradesh,Indore,"Chhoti Gwaltoli, Indore - MPPCB",13-03-2026 15:00:00,22.4310,75.5213,PM2.5,26,274,87
India,Madhya Pradesh,Indore,"Chhoti Gwaltoli, Indore - MPPCB",13-03-2026 15:00:00,22.4310,75.5213,NO2,47,184,132
India,Madhya Pradesh,Indore,"Chhoti Gwaltoli, Indore - MPPCB",13-03-2026 15:00:00,22.4310,75.5213,OZONE,2,51,21
India,Madhya Pradesh,Singrauli,"Suryakiran Bhawan NCL, Singrauli - MPPCB",13-03-2026 15:00:00,24.108970,82.645580,CO,28,102,49
India,Madhya Pradesh,Satna,"Bandhavgar Colony, Satna - Birla Cement",13-03-2026 15:00:00,24.58434363,80.8549414,CO,14,89,22
India,Madhya Pradesh,Singrauli,"Suryakiran Bhawan NCL, Singrauli - MPPCB",13-03-2026 15:00:00,24.108970,82.645580,NH3,4,5,4
India,Madhya Pradesh,Indore,"Regional Park, Indore - IMC",13-03-2026 15:00:00,22.6780,75.8559,PM10,21,115,55
India,Madhya Pradesh,Indore,"Regional Park, Indore - IMC",13-03-2026 15:00:00,22.6780,75.8559,OZONE,5,11,9
India,Maharashtra,Ahmednagar,"Tarakpur, Ahmednagar - MPCB",13-03-2026 15:00:00,19.10122,74.73339,SO2,NA,NA,NA
India,Maharashtra,Akola,"Ramdaspeth, Akola - MPCB",13-03-2026 15:00:00,20.719516,77.000253,PM2.5,44,176,96
India,Maharashtra,Akola,"Ramdaspeth, Akola - MPCB",13-03-2026 15:00:00,20.719516,77.000253,NH3,6,8,8
India,Maharashtra,Akola,"Ramdaspeth, Akola - MPCB",13-03-2026 15:00:00,20.719516,77.000253,CO,17,50,20
India,Maharashtra,Ambernath,"Chinchpada, Ambernath - MPCB",13-03-2026 15:00:00,19.2157840,73.1997810,PM2.5,34,149,83
India,Maharashtra,Ambernath,"Chinchpada, Ambernath - MPCB",13-03-2026 15:00:00,19.2157840,73.1997810,PM10,30,142,93
India,Maharashtra,Amravati,"Shri Shivaji Science College, Amravati - MPCB",13-03-2026 15:00:00,20.939198,77.765701,PM10,42,198,102
India,Maharashtra,Amravati,"Shri Shivaji Science College, Amravati - MPCB",13-03-2026 15:00:00,20.939198,77.765701,CO,24,134,39
India,Maharashtra,Aurangabad,"MIDC Chilkalthana, Aurangabad - MPCB",13-03-2026 15:00:00,19.875620,75.387310,PM2.5,32,67,48
India,Maharashtra,Aurangabad,"MIDC Chilkalthana, Aurangabad - MPCB",13-03-2026 15:00:00,19.875620,75.387310,CO,6,14,11
India,Maharashtra,Amravati,"Shivneri Colony, Amravati - MPCB",13-03-2026 15:00:00,20.9402359,77.7895248,SO2,NA,NA,NA
India,Maharashtra,Ahmednagar,"Tarakpur, Ahmednagar - MPCB",13-03-2026 15:00:00,19.10122,74.73339,PM10,22,386,110
India,Maharashtra,Aurangabad,"Rachnakar Colony, Aurangabad - MPCB",13-03-2026 15:00:00,19.863756,75.321188,CO,16,64,27
India,Maharashtra,Badlapur,"Katrap, Badlapur - MPCB",13-03-2026 15:00:00,19.16485,73.23409,PM10,30,152,99
India,Maharashtra,Belapur,"CBD Belapur, Belapur - MPCB",13-03-2026 15:00:00,19.0243902,73.0406721,NO2,18,29,23
India,Maharashtra,Belapur,"CBD Belapur, Belapur - MPCB",13-03-2026 15:00:00,19.0243902,73.0406721,CO,2,22,13
India,Maharashtra,Aurangabad,"More Chowk Waluj, Aurangabad - MPCB",13-03-2026 15:00:00,19.8389439,75.244448,PM2.5,73,317,162
India,Maharashtra,Aurangabad,"Rachnakar Colony, Aurangabad - MPCB",13-03-2026 15:00:00,19.863756,75.321188,NO2,12,104,48
India,Maharashtra,Aurangabad,"More Chowk Waluj, Aurangabad - MPCB",13-03-2026 15:00:00,19.8389439,75.244448,NH3,10,11,11
India,Maharashtra,Chandrapur,"Chauhan Colony, Chandrapur - MPCB",13-03-2026 15:00:00,19.962900,79.298714,OZONE,11,24,18
India,Maharashtra,Chandrapur,"Chauhan Colony, Chandrapur - MPCB",13-03-2026 15:00:00,19.962900,79.298714,NO2,31,35,32
India,Maharashtra,Boisar,"Khaira, Boisar - MPCB",13-03-2026 15:00:00,19.786089,72.757971,NO2,20,48,30
India,Maharashtra,Boisar,"Khaira, Boisar - MPCB",13-03-2026 15:00:00,19.786089,72.757971,CO,12,82,38
India,Maharashtra,Jalna,"Old MIDC, Jalna - MPCB",13-03-2026 15:00:00,19.854616,75.905894,PM10,39,142,62
India,Maharashtra,Kalyan,"Khadakpada, Kalyan - MPCB",13-03-2026 15:00:00,19.25292,73.142019,NO2,35,37,37
India,Maharashtra,Kolhapur,"Shivaji University, Kolhapur - MPCB",13-03-2026 15:00:00,16.6870449,74.2505872,PM2.5,39,93,59
India,Maharashtra,Kolhapur,"Shivaji University, Kolhapur - MPCB",13-03-2026 15:00:00,16.6870449,74.2505872,CO,14,46,32
India,Maharashtra,Kolhapur,"Shivaji University, Kolhapur - MPCB",13-03-2026 15:00:00,16.6870449,74.2505872,OZONE,12,72,46
India,Maharashtra,Hingoli,"Ashta Vinayak Nagar, Hingoli - MPCB",13-03-2026 15:00:00,19.710842,77.151824,PM10,42,166,87
India,Maharashtra,Hingoli,"Ashta Vinayak Nagar, Hingoli - MPCB",13-03-2026 15:00:00,19.710842,77.151824,NH3,2,5,4
India,Maharashtra,Hingoli,"Ashta Vinayak Nagar, Hingoli - MPCB",13-03-2026 15:00:00,19.710842,77.151824,SO2,4,12,7
India,Maharashtra,Jalgaon,"Prabhat Colony, Jalgaon - MPCB",13-03-2026 15:00:00,21.001264,75.565602,CO,14,75,22
India,Maharashtra,Jalgaon,"Prabhat Colony, Jalgaon - MPCB",13-03-2026 15:00:00,21.001264,75.565602,OZONE,1,113,81
India,Maharashtra,Chandrapur,"MIDC Khutala, Chandrapur - MPCB",13-03-2026 15:00:00,19.9775302,79.2337086,PM2.5,63,218,115
India,Maharashtra,Hingoli,"Ashta Vinayak Nagar, Hingoli - MPCB",13-03-2026 15:00:00,19.710842,77.151824,OZONE,2,266,266
India,Maharashtra,Chandrapur,"MIDC Khutala, Chandrapur - MPCB",13-03-2026 15:00:00,19.9775302,79.2337086,SO2,13,94,41
India,Maharashtra,Dombivli,"Kalu Nagar, Dombivli - MPCB",13-03-2026 15:00:00,19.2268427 ,73.0788456 ,NO2,18,81,54
India,Maharashtra,Dhule,"Deopur, Dhule - MPCB",13-03-2026 15:00:00,20.918946,74.776388,PM2.5,26,79,53
India,Maharashtra,Dhule,"Deopur, Dhule - MPCB",13-03-2026 15:00:00,20.918946,74.776388,SO2,3,52,10
India,Maharashtra,Mumbai,"Mazgaon, Mumbai - IITM",13-03-2026 15:00:00,18.96702,72.84214,NO2,37,109,76
India,Maharashtra,Mumbai,"Mazgaon, Mumbai - IITM",13-03-2026 15:00:00,18.96702,72.84214,SO2,7,12,9
India,Maharashtra,Mumbai,"Mazgaon, Mumbai - IITM",13-03-2026 15:00:00,18.96702,72.84214,CO,47,84,68
India,Maharashtra,Mumbai,"Mindspace-Malad West, Mumbai - MPCB",13-03-2026 15:00:00,19.1878657,72.8304069,OZONE,1,6,1
India,Maharashtra,Mumbai,"Mulund West, Mumbai - MPCB",13-03-2026 15:00:00,19.1750,72.9419,PM2.5,46,196,78
India,Maharashtra,Mumbai,"Mulund West, Mumbai - MPCB",13-03-2026 15:00:00,19.1750,72.9419,SO2,NA,NA,NA
India,Maharashtra,Mumbai,"Navy Nagar-Colaba, Mumbai - IITM",13-03-2026 15:00:00,18.897756,72.813320,PM2.5,63,183,99
India,Maharashtra,Mumbai,"Navy Nagar-Colaba, Mumbai - IITM",13-03-2026 15:00:00,18.897756,72.813320,NH3,11,15,12
India,Maharashtra,Mumbai,"Navy Nagar-Colaba, Mumbai - IITM",13-03-2026 15:00:00,18.897756,72.813320,SO2,7,15,11
India,Maharashtra,Mumbai,"Navy Nagar-Colaba, Mumbai - IITM",13-03-2026 15:00:00,18.897756,72.813320,OZONE,22,78,51
India,Maharashtra,Mumbai,"Kandivali West, Mumbai - BMC",13-03-2026 15:00:00,19.215859,72.831718,OZONE,NA,NA,NA
India,Maharashtra,Mumbai,"Kherwadi_Bandra East, Mumbai - MPCB",13-03-2026 15:00:00,19.0632143,72.8456324,SO2,1,5,3
India,Maharashtra,Mumbai,"Kherwadi_Bandra East, Mumbai - MPCB",13-03-2026 15:00:00,19.0632143,72.8456324,OZONE,2,61,25
India,Maharashtra,Mumbai,"Khindipada-Bhandup West, Mumbai - IITM",13-03-2026 15:00:00,19.1653323,72.922099,PM2.5,25,183,79
India,Maharashtra,Mumbai,"Khindipada-Bhandup West, Mumbai - IITM",13-03-2026 15:00:00,19.1653323,72.922099,NH3,2,4,4
India,Maharashtra,Mumbai,"Malad West, Mumbai - IITM",13-03-2026 15:00:00,19.19709,72.82204,PM2.5,23,98,63
India,Maharashtra,Mumbai,"Malad West, Mumbai - IITM",13-03-2026 15:00:00,19.19709,72.82204,PM10,75,170,116
India,Maharashtra,Mumbai,"Bandra Kurla Complex, Mumbai - MPCB",13-03-2026 15:00:00,19.065931,72.862131,OZONE,1,93,44
India,Maharashtra,Mumbai,"Borivali East, Mumbai - MPCB",13-03-2026 15:00:00,19.2243333,72.8658113,NH3,1,8,4
India,Maharashtra,Mumbai,"Borivali East, Mumbai - MPCB",13-03-2026 15:00:00,19.2243333,72.8658113,SO2,15,20,18
India,Maharashtra,Mumbai,"Byculla, Mumbai - BMC",13-03-2026 15:00:00,18.9767,72.8380,PM10,70,133,92
India,Maharashtra,Mumbai,"Chakala-Andheri East, Mumbai - IITM",13-03-2026 15:00:00,19.11074,72.86084,NO2,46,95,70
India,Maharashtra,Mumbai,"Chembur, Mumbai - MPCB",13-03-2026 15:00:00,19.0364585,72.8954371,SO2,NA,NA,NA
India,Maharashtra,Mahad,"Kamble Tarf Birwadi, Mahad - MPCB",13-03-2026 15:00:00,18.1023399,73.4783687,OZONE,20,81,45
India,Maharashtra,Malegaon,"Mahesh Nagar, Malegaon - MPCB",13-03-2026 15:00:00,20.555712,74.529236,PM2.5,31,292,105
India,Maharashtra,Mira-Bhayandar,"Bhayandar West, Mira-Bhayandar - MPCB",13-03-2026 15:00:00,19.296481,72.840923,NO2,21,85,41
India,Maharashtra,Mira-Bhayandar,"Bhayandar West, Mira-Bhayandar - MPCB",13-03-2026 15:00:00,19.296481,72.840923,OZONE,1,83,57
India,Maharashtra,Mumbai,"Bandra Kurla Complex, Mumbai - MPCB",13-03-2026 15:00:00,19.065931,72.862131,PM10,70,148,108
India,Maharashtra,Mumbai,"Sewri, Mumbai - BMC",13-03-2026 15:00:00,19.000084,72.856730,CO,18,46,32
India,Maharashtra,Mumbai,"Shivaji Nagar, Mumbai - BMC",13-03-2026 15:00:00,19.060498,72.923356,NH3,NA,NA,NA
India,Maharashtra,Mumbai,"Vile Parle West, Mumbai - MPCB",13-03-2026 15:00:00,19.10861,72.83622,NH3,6,6,6
India,Maharashtra,Mumbai,"Worli, Mumbai -MPCB",13-03-2026 15:00:00,18.9942180,72.8158167,NH3,1,12,3
India,Maharashtra,Mumbai,"Worli, Mumbai -MPCB",13-03-2026 15:00:00,18.9942180,72.8158167,CO,19,32,28
India,Maharashtra,Nagpur,"Ambazari, Nagpur - MPCB",13-03-2026 15:00:00,21.121801,79.04952,PM2.5,58,163,111
India,Maharashtra,Nagpur,"Ambazari, Nagpur - MPCB",13-03-2026 15:00:00,21.121801,79.04952,CO,10,106,26
India,Maharashtra,Nagpur,"Mahal, Nagpur - MPCB",13-03-2026 15:00:00,21.14472,79.107595,PM2.5,67,217,136
India,Maharashtra,Nagpur,"Mahal, Nagpur - MPCB",13-03-2026 15:00:00,21.14472,79.107595,SO2,13,100,59
India,Maharashtra,Nagpur,"Mahal, Nagpur - MPCB",13-03-2026 15:00:00,21.14472,79.107595,OZONE,6,39,28
India,Maharashtra,Mumbai,"Ghatkopar, Mumbai - BMC",13-03-2026 15:00:00,19.083694,72.920967,PM2.5,73,138,97
India,Maharashtra,Mumbai,"Kandivali East, Mumbai - MPCB",13-03-2026 15:00:00,19.205800,72.868200,CO,27,31,29
India,Maharashtra,Mumbai,"Kandivali West, Mumbai - BMC",13-03-2026 15:00:00,19.215859,72.831718,PM2.5,NA,NA,NA
India,Maharashtra,Kolhapur,"Sinchan Bhavan, Kolhapur - MPCB",13-03-2026 15:00:00,16.7143745,74.2426398,CO,12,56,40
India,Maharashtra,Latur,"Sawe Wadi, Latur - MPCB",13-03-2026 15:00:00,18.39963,76.57452,PM10,47,140,86
India,Maharashtra,Mumbai,"Deonar, Mumbai - IITM",13-03-2026 15:00:00,19.04946,72.9230,CO,24,72,46
India,Maharashtra,Sangli,"Vijay Nagar, Sangli - MPCB",13-03-2026 15:00:00, 16.5038,74.3623,PM10,50,102,72
India,Maharashtra,Sangli,"Vijay Nagar, Sangli - MPCB",13-03-2026 15:00:00, 16.5038,74.3623,SO2,1,19,11
India,Maharashtra,Solapur,"Dnyaneshwar Nagar, Solapur - MPCB",13-03-2026 15:00:00,17.6336264,75.9132495,PM10,87,143,116
India,Maharashtra,Solapur,"Dnyaneshwar Nagar, Solapur - MPCB",13-03-2026 15:00:00,17.6336264,75.9132495,NH3,7,36,16
India,Maharashtra,Solapur,"Dnyaneshwar Nagar, Solapur - MPCB",13-03-2026 15:00:00,17.6336264,75.9132495,CO,8,103,20
India,Maharashtra,Thane,"Kasarvadavali, Thane - MPCB",13-03-2026 15:00:00,19.26777,72.97182,NO2,21,66,36
India,Maharashtra,Thane,"Upvan Fort, Thane - MPCB",13-03-2026 15:00:00,19.222279,72.957979,PM10,70,385,133
India,Maharashtra,Thane,"Upvan Fort, Thane - MPCB",13-03-2026 15:00:00,19.222279,72.957979,NO2,14,92,40
India,Maharashtra,Thane,"Upvan Fort, Thane - MPCB",13-03-2026 15:00:00,19.222279,72.957979,OZONE,1,64,39
India,Maharashtra,Ulhasnagar,"Sidhi Vinayak Nagar, Ulhasnagar - MPCB",13-03-2026 15:00:00,19.235581,73.159121,NO2,13,37,24
India,Maharashtra,Nagpur,"Opp GPO Civil Lines, Nagpur - MPCB",13-03-2026 15:00:00,21.152875,79.0517531,NH3,1,14,8
India,Maharashtra,Nagpur,"Opp GPO Civil Lines, Nagpur - MPCB",13-03-2026 15:00:00,21.152875,79.0517531,CO,16,122,35
India,Maharashtra,Nagpur,"Ram Nagar, Nagpur - MPCB",13-03-2026 15:00:00,21.143383,79.048912,PM10,54,139,108
India,Maharashtra,Nanded,"Sneh Nagar, Nanded - MPCB",13-03-2026 15:00:00,19.173852,77.296291,PM10,69,170,118
India,Maharashtra,Nanded,"Sneh Nagar, Nanded - MPCB",13-03-2026 15:00:00,19.173852,77.296291,NH3,4,5,4
India,Maharashtra,Nanded,"Sneh Nagar, Nanded - MPCB",13-03-2026 15:00:00,19.173852,77.296291,SO2,7,8,7
India,Maharashtra,Nashik,"Gangapur Road, Nashik - MPCB",13-03-2026 15:00:00,20.0073285,73.7762427,PM10,59,137,107
India,Maharashtra,Nashik,"Hirawadi, Nashik - MPCB",13-03-2026 15:00:00,20.021503,73.813844,PM2.5,45,138,88
India,Maharashtra,Nashik,"Hirawadi, Nashik - MPCB",13-03-2026 15:00:00,20.021503,73.813844,OZONE,2,91,71
India,Maharashtra,Nashik,"MIDC Ambad, Nashik - MPCB",13-03-2026 15:00:00,19.950220,73.731480,PM10,80,135,111
India,Maharashtra,Nashik,"MIDC Ambad, Nashik - MPCB",13-03-2026 15:00:00,19.950220,73.731480,NO2,7,48,15
India,Maharashtra,Nashik,"MIDC Ambad, Nashik - MPCB",13-03-2026 15:00:00,19.950220,73.731480,CO,30,32,30
India,Maharashtra,Navi Mumbai,"Mahape, Navi Mumbai - MPCB",13-03-2026 15:00:00,19.1135051,73.008978,PM10,100,203,126
India,Maharashtra,Navi Mumbai,"Nerul, Navi Mumbai - MPCB",13-03-2026 15:00:00,19.008751,73.016620,NO2,49,49,49
India,Maharashtra,Navi Mumbai,"Nerul, Navi Mumbai - MPCB",13-03-2026 15:00:00,19.008751,73.016620,OZONE,20,20,20
India,Maharashtra,Navi Mumbai,"Sanpada, Navi Mumbai - MPCB",13-03-2026 15:00:00,19.0575752,73.0151367,PM2.5,46,157,78
India,Maharashtra,Parbhani,"Masoom Colony, Parbhani - MPCB",13-03-2026 15:00:00,19.265594,76.761463,SO2,7,22,12
India,Maharashtra,Pimpri-Chinchwad,"Gavalinagar, Pimpri Chinchwad - MPCB",13-03-2026 15:00:00,18.63673,73.82487,PM2.5,59,103,79
India,Maharashtra,Pimpri-Chinchwad,"Park Street Wakad, Pimpri Chinchwad - MPCB",13-03-2026 15:00:00,18.59051,73.77946,PM2.5,NA,NA,NA
India,Maharashtra,Pimpri-Chinchwad,"Park Street Wakad, Pimpri Chinchwad - MPCB",13-03-2026 15:00:00,18.59051,73.77946,NO2,NA,NA,NA
India,Maharashtra,Pimpri-Chinchwad,"Savta Mali Nagar, Pimpri-Chinchwad - IITM",13-03-2026 15:00:00,18.614767,73.799516,NO2,23,165,78
India,Maharashtra,Pimpri-Chinchwad,"Thergaon, Pimpri Chinchwad - MPCB",13-03-2026 15:00:00,18.616318,73.765797,PM10,79,152,114
India,Maharashtra,Navi Mumbai,"Sanpada, Navi Mumbai - MPCB",13-03-2026 15:00:00,19.0575752,73.0151367,PM10,78,140,105
India,Maharashtra,Navi Mumbai,"Sector-2E Kalamboli, Navi Mumbai - MPCB",13-03-2026 15:00:00,19.02579,73.10297,NO2,10,33,22
India,Maharashtra,Navi Mumbai,"Tondare-Taloja, Navi Mumbai - MPCB",13-03-2026 15:00:00,19.0630,73.1209,NO2,6,20,14
India,Maharashtra,Navi Mumbai,"Tondare-Taloja, Navi Mumbai - MPCB",13-03-2026 15:00:00,19.0630,73.1209,SO2,10,15,11
India,Maharashtra,Parbhani,"Masoom Colony, Parbhani - MPCB",13-03-2026 15:00:00,19.265594,76.761463,PM2.5,41,244,113
India,Maharashtra,Pune,"Mhada Colony, Pune - IITM",13-03-2026 15:00:00,18.573040,73.927715,CO,2,71,2
India,Maharashtra,Pune,"Panchawati_Pashan, Pune - IITM",13-03-2026 15:00:00,18.536457,73.805454,PM10,64,124,87
India,Maharashtra,Pune,"Revenue Colony-Shivajinagar, Pune - IITM",13-03-2026 15:00:00,18.530085,73.849598,PM10,89,149,119
India,Maharashtra,Pune,"Transport Nagar-Nigdi, Pune - IITM",13-03-2026 15:00:00,18.664282,73.763966,PM10,58,138,88
India,Maharashtra,Pune,"Bhumkar Nagar, Pune - IITM",13-03-2026 15:00:00,18.605770,73.749976,NO2,30,119,69
India,Maharashtra,Pune,"Bhumkar Nagar, Pune - IITM",13-03-2026 15:00:00,18.605770,73.749976,OZONE,12,87,47
India,Maharashtra,Pune,"Dhankawadi, Pune - IITM",13-03-2026 15:00:00,18.459883,73.852193,PM10,60,202,136
India,Maharashtra,Pune,"Katraj Dairy, Pune - MPCB",13-03-2026 15:00:00,18.454450,73.854155,NO2,14,55,38
India,Maharashtra,Pune,"Katraj Dairy, Pune - MPCB",13-03-2026 15:00:00,18.454450,73.854155,CO,19,67,38
India,Meghalaya,Shillong,"JN Stadium, Shillong - Meghalaya PCB",13-03-2026 15:00:00,25.5803419,91.8942571,CO,18,70,29
India,Maharashtra,Virar,"Bolinj, Virar - MPCB",13-03-2026 15:00:00,19.4458210,72.7988231,CO,16,101,44
India,Nagaland,Kohima,"PWD Junction, Kohima - NPCB",13-03-2026 15:00:00,25.6635413,94.0989878,SO2,13,24,18
India,Odisha,Angul,"Hakimapada, Angul - OSPCB",13-03-2026 15:00:00,20.832874,85.104082,PM10,117,274,174
India,Odisha,Balasore,"Kalidaspur, Balasore - OSPCB",13-03-2026 15:00:00,21.51161,86.89088,PM10,58,121,90
India,Odisha,Balasore,"Kalidaspur, Balasore - OSPCB",13-03-2026 15:00:00,21.51161,86.89088,CO,40,48,43
India,Odisha,Baripada,"Meher Colony, Baripada - OSPCB",13-03-2026 15:00:00,21.941841,86.728318,PM10,93,120,106
India,Odisha,Baripada,"Meher Colony, Baripada - OSPCB",13-03-2026 15:00:00,21.941841,86.728318,NO2,NA,NA,NA
India,Odisha,Baripada,"Meher Colony, Baripada - OSPCB",13-03-2026 15:00:00,21.941841,86.728318,SO2,1,19,8
India,Odisha,Bhubaneswar,"Lingraj Mandir, Bhubaneswar - OSPCB",13-03-2026 15:00:00,20.240790,85.836784,PM2.5,25,120,62
India,Odisha,Bhubaneswar,"Lingraj Mandir, Bhubaneswar - OSPCB",13-03-2026 15:00:00,20.240790,85.836784,NH3,4,7,6
India,Odisha,Brajrajnagar,"GM Office, Brajrajnagar - OSPCB",13-03-2026 15:00:00,21.8004996,83.8396977,PM10,28,229,146
India,Odisha,Brajrajnagar,"GM Office, Brajrajnagar - OSPCB",13-03-2026 15:00:00,21.8004996,83.8396977,CO,2,63,30
India,Odisha,Byasanagar,"Ferro Chrome Colony, Byasanagar - OSPCB",13-03-2026 15:00:00,20.94185,86.11510,PM2.5,20,88,56
India,Odisha,Rairangpur,"Divisional Forest Office, Rairangpur - OSPCB",13-03-2026 15:00:00,22.265816,86.174829,PM2.5,NA,NA,NA
India,Odisha,Rairangpur,"Divisional Forest Office, Rairangpur - OSPCB",13-03-2026 15:00:00,22.265816,86.174829,NO2,NA,NA,NA
India,Odisha,Rairangpur,"Divisional Forest Office, Rairangpur - OSPCB",13-03-2026 15:00:00,22.265816,86.174829,NH3,NA,NA,NA
India,Odisha,Rourkela,"Fertilizer Township, Rourkela - OSPCB",13-03-2026 15:00:00,22.18972222,84.86277778,PM2.5,73,88,78
India,Odisha,Rourkela,"Sector-2, Rourkela - OSPCB",13-03-2026 15:00:00,22.24500000,84.88111111,CO,33,52,48
India,Odisha,Byasanagar,"Ferro Chrome Colony, Byasanagar - OSPCB",13-03-2026 15:00:00,20.94185,86.11510,OZONE,13,181,181
India,Odisha,Cuttack,"CDA Area, Cuttack - OSPCB",13-03-2026 15:00:00,20.48891     ,85.84768     ,PM2.5,33,147,70
India,Odisha,Keonjhar,"Jagamohanpur, Keonjhar - OSPCB",13-03-2026 15:00:00,21.643900,85.599355,CO,18,40,22
India,Odisha,Nayagarh,"Dabuna, Nayagarh - OSPCB",13-03-2026 15:00:00,21.847279,85.416905,PM2.5,42,299,171
India,Odisha,Nayagarh,"Dabuna, Nayagarh - OSPCB",13-03-2026 15:00:00,21.847279,85.416905,NH3,2,7,6
India,Odisha,Nayagarh,"Dabuna, Nayagarh - OSPCB",13-03-2026 15:00:00,21.847279,85.416905,OZONE,11,44,25
India,Odisha,Cuttack,"CDA Area, Cuttack - OSPCB",13-03-2026 15:00:00,20.48891     ,85.84768     ,NH3,3,7,4
India,Odisha,Keonjhar,"Jagamohanpur, Keonjhar - OSPCB",13-03-2026 15:00:00,21.643900,85.599355,NH3,5,5,5
India,Odisha,Nayagarh,"Dabuna, Nayagarh - OSPCB",13-03-2026 15:00:00,21.847279,85.416905,NO2,8,12,8
India,Rajasthan,Baran,"Bamboliya, Baran - RSPCB",13-03-2026 15:00:00,25.106006,76.469948,OZONE,9,194,161
India,Rajasthan,Barmer,"Railway Colony, Barmer - RSPCB",13-03-2026 15:00:00,25.747299,71.393989,PM10,76,165,122
India,Rajasthan,Bharatpur,"Krishna Nagar, Bharatpur - RSPCB",13-03-2026 15:00:00,27.215415,77.50873,OZONE,7,132,93
India,Rajasthan,Bhilwara,"Pratap Nagar, Bhilwara - RSPCB",13-03-2026 15:00:00,25.339605,74.618883,PM10,52,474,152
India,Rajasthan,Bhilwara,"Pratap Nagar, Bhilwara - RSPCB",13-03-2026 15:00:00,25.339605,74.618883,NO2,10,79,34
India,Rajasthan,Bhilwara,"Pratap Nagar, Bhilwara - RSPCB",13-03-2026 15:00:00,25.339605,74.618883,NH3,7,20,11
India,Odisha,Suakati,"OMC Colony, Suakati - OSPCB",13-03-2026 15:00:00,21.606865,85.510538,NO2,15,15,15
India,Odisha,Suakati,"OMC Colony, Suakati - OSPCB",13-03-2026 15:00:00,21.606865,85.510538,CO,16,35,29
India,Odisha,Talcher,"Talcher Coalfields,Talcher - OSPCB",13-03-2026 15:00:00,20.9360711,85.1707021,PM2.5,6,309,111
India,Odisha,Talcher,"Talcher Coalfields,Talcher - OSPCB",13-03-2026 15:00:00,20.9360711,85.1707021,SO2,1,21,4
India,Odisha,Tensa,"Barsua Iron Ore Mines, Tensa - OSPCB",13-03-2026 15:00:00,21.869985,85.167016,NH3,NA,NA,NA
India,Odisha,Tensa,"Barsua Iron Ore Mines, Tensa - OSPCB",13-03-2026 15:00:00,21.869985,85.167016,SO2,1,57,29
India,Punjab,Jalandhar,"Civil Line, Jalandhar - PPCB",13-03-2026 15:00:00,31.321907,75.578914,CO,60,72,66
India,Punjab,Khanna,"Kalal Majra, Khanna - PPCB",13-03-2026 15:00:00,30.736056 ,76.209694,NH3,7,7,7
India,Punjab,Khanna,"Kalal Majra, Khanna - PPCB",13-03-2026 15:00:00,30.736056 ,76.209694,OZONE,19,41,35
India,Punjab,Mandi Gobindgarh,"RIMT University, Mandi Gobindgarh - PPCB",13-03-2026 15:00:00,30.649961,76.331442,NH3,6,6,6
India,Rajasthan,Bhiwadi,"RIICO Ind. Area III, Bhiwadi - RSPCB",13-03-2026 15:00:00,28.194909,76.862296,PM10,66,411,248
India,Rajasthan,Bikaner,"MM Ground, Bikaner - RSPCB",13-03-2026 15:00:00,28.018792,73.292658,NO2,8,44,26
India,Rajasthan,Bikaner,"MM Ground, Bikaner - RSPCB",13-03-2026 15:00:00,28.018792,73.292658,SO2,3,13,7
India,Rajasthan,Bundi,"New Colony, Bundi - RSPCB",13-03-2026 15:00:00,25.435774,75.644272,PM10,33,128,72
India,Punjab,Rupnagar,"Ratanpura, Rupnagar - Ambuja Cements",13-03-2026 15:00:00,31.0325454,76.5623046,CO,20,32,28
India,Rajasthan,Ajmer,"Civil Lines,  Ajmer - RSPCB",13-03-2026 15:00:00,26.470859,74.646594,NO2,24,35,30
India,Rajasthan,Chittorgarh,"Shastri Nagar, Chittorgarh - RSPCB",13-03-2026 15:00:00,24.892047,74.623527,PM10,30,168,92
India,Rajasthan,Chittorgarh,"Shastri Nagar, Chittorgarh - RSPCB",13-03-2026 15:00:00,24.892047,74.623527,NH3,6,17,12
India,Rajasthan,Chittorgarh,"Shastri Nagar, Chittorgarh - RSPCB",13-03-2026 15:00:00,24.892047,74.623527,SO2,2,43,10
India,Puducherry,Puducherry,"Jawahar Nagar, Puducherry - PPCC",13-03-2026 15:00:00,11.9309,79.8027,NH3,2,5,3
India,Puducherry,Puducherry,"Jawahar Nagar, Puducherry - PPCC",13-03-2026 15:00:00,11.9309,79.8027,SO2,4,12,7
India,Rajasthan,Dausa,"Khatikan Mohalla, Dausa - RSPCB",13-03-2026 15:00:00,26.895552,76.334753,PM10,40,173,95
India,Rajasthan,Churu,"Subash Chowk, Churu - RSPCB",13-03-2026 15:00:00,28.296139,74.961696,PM10,75,174,136
India,Rajasthan,Kota,"Shrinath Puram, Kota - RSPCB",13-03-2026 15:00:00,25.14389,75.821256,PM10,48,116,73
India,Rajasthan,Kota,"Shrinath Puram, Kota - RSPCB",13-03-2026 15:00:00,25.14389,75.821256,NO2,6,13,9
India,Rajasthan,Nagaur,"Karni Colony, Nagaur - RSPCB",13-03-2026 15:00:00,27.213494,73.734444,NH3,6,57,10
India,Rajasthan,Pali,"Indira Colony Vistar, Pali - RSPCB",13-03-2026 15:00:00,25.771061, 73.340227,NO2,10,37,28
India,Rajasthan,Pali,"Indira Colony Vistar, Pali - RSPCB",13-03-2026 15:00:00,25.771061, 73.340227,OZONE,21,68,49
India,Rajasthan,Pratapgarh,"Pragati Nagar, Pratapgarh - RSPCB",13-03-2026 15:00:00,24.041198,74.780702,SO2,3,10,6
India,Rajasthan,Rajsamand,"Dhoinda, Rajsamand - RSPCB",13-03-2026 15:00:00,25.036360,73.883502,NH3,8,22,14
India,Rajasthan,Rajsamand,"Dhoinda, Rajsamand - RSPCB",13-03-2026 15:00:00,25.036360,73.883502,SO2,2,10,5
India,Rajasthan,Rajsamand,"Dhoinda, Rajsamand - RSPCB",13-03-2026 15:00:00,25.036360,73.883502,CO,2,58,34
India,Rajasthan,Jaipur,"Sector-2 Murlipura, Jaipur - RSPCB",13-03-2026 15:00:00,26.960669,75.771817,OZONE,3,76,51
India,Rajasthan,Jaipur,"Shastri Nagar, Jaipur - RSPCB",13-03-2026 15:00:00,26.9502929,75.730943,PM10,93,193,130
India,Rajasthan,Jaisalmer,"Sadar Bazar, Jaisalmer - RSPCB",13-03-2026 15:00:00,26.912329,70.909168,OZONE,8,71,61
India,Rajasthan,Jalore,"Mudtra Sili, Jalore - RSPCB",13-03-2026 15:00:00,25.344694,72.626208,NH3,2,5,4
India,Rajasthan,Jalore,"Mudtra Sili, Jalore - RSPCB",13-03-2026 15:00:00,25.344694,72.626208,OZONE,12,108,62
India,Rajasthan,Jhalawar,"Rajlaxmi Nagar, Jhalawar - RSPCB",13-03-2026 15:00:00,24.588397,76.172782,SO2,8,69,17
India,Rajasthan,Jhalawar,"Rajlaxmi Nagar, Jhalawar - RSPCB",13-03-2026 15:00:00,24.588397,76.172782,OZONE,1,160,79
India,Rajasthan,Jhunjhunu,"Indra Nagar, Jhunjhunu - RSPCB",13-03-2026 15:00:00,28.108988,75.386577,CO,15,42,30
India,Rajasthan,Jodhpur,"Collectorate, Jodhpur - RSPCB",13-03-2026 15:00:00,26.268249,73.0193853,PM2.5,35,138,61
India,Rajasthan,Jodhpur,"Collectorate, Jodhpur - RSPCB",13-03-2026 15:00:00,26.268249,73.0193853,PM10,45,117,68
India,Rajasthan,Jodhpur,"Collectorate, Jodhpur - RSPCB",13-03-2026 15:00:00,26.268249,73.0193853,NO2,18,45,26
India,Rajasthan,Jodhpur,"Digari Kalan, Jodhpur - RSPCB",13-03-2026 15:00:00,26.295810,73.082283,CO,14,65,22
India,Rajasthan,Jodhpur,"Jhalamand, Jodhpur - RSPCB",13-03-2026 15:00:00,26.215415,73.070156,OZONE,1,62,41
India,Rajasthan,Jodhpur,"Mandor, Jodhpur - RSPCB",13-03-2026 15:00:00,26.358805,73.047444,NH3,2,8,4
India,Rajasthan,Karauli,"Satyawati Vihar, Karauli - RSPCB",13-03-2026 15:00:00,26.506177,77.025989,PM10,66,167,112
India,Rajasthan,Kota,"Dhanmandi, Kota - RSPCB",13-03-2026 15:00:00,25.164090,75.858137,PM10,44,119,85
India,Rajasthan,Kota,"Nayapura, Kota - RSPCB",13-03-2026 15:00:00,25.196024,75.855668,NH3,2,15,5
India,Rajasthan,Kota,"Nayapura, Kota - RSPCB",13-03-2026 15:00:00,25.196024,75.855668,SO2,6,22,12
India,Rajasthan,Jaipur,"Police Commissionerate, Jaipur - RSPCB",13-03-2026 15:00:00,26.9164092,75.7994901,PM10,54,119,92
India,Rajasthan,Jaipur,"RIICO Sitapura, Jaipur - RSPCB",13-03-2026 15:00:00,26.786682,75.827928,NO2,83,202,140
India,Rajasthan,Jaipur,"Sector-2 Murlipura, Jaipur - RSPCB",13-03-2026 15:00:00,26.960669,75.771817,PM2.5,35,369,191
India,Rajasthan,Jaipur,"Sector-2 Murlipura, Jaipur - RSPCB",13-03-2026 15:00:00,26.960669,75.771817,NO2,15,127,64
India,Rajasthan,Hanumangarh,"Housing Board, Hanumangarh - RSPCB",13-03-2026 15:00:00,29.610750,74.283608,PM2.5,9,85,36
India,Rajasthan,Hanumangarh,"Housing Board, Hanumangarh - RSPCB",13-03-2026 15:00:00,29.610750,74.283608,PM10,77,276,135
India,Rajasthan,Hanumangarh,"Housing Board, Hanumangarh - RSPCB",13-03-2026 15:00:00,29.610750,74.283608,SO2,7,33,21
India,Rajasthan,Jaipur,"Adarsh Nagar, Jaipur - RSPCB",13-03-2026 15:00:00,26.902909,75.836858,NO2,20,84,44
India,Rajasthan,Sawai Madhopur,"Sahu Nagar, Sawai Madhopur - RSPCB",13-03-2026 15:00:00,26.031443,76.359327,PM10,79,365,143
India,Rajasthan,Sikar,"Radhakishan Pura, Sikar - RSPCB",13-03-2026 15:00:00,27.608912,75.153302,NO2,8,103,31
India,Rajasthan,Sikar,"Radhakishan Pura, Sikar - RSPCB",13-03-2026 15:00:00,27.608912,75.153302,SO2,1,10,4
India,Rajasthan,Dungarpur,"Bhoiwada, Dungarpur - RSPCB",13-03-2026 15:00:00,23.837789,73.714926,PM2.5,25,107,52
India,Rajasthan,Dungarpur,"Bhoiwada, Dungarpur - RSPCB",13-03-2026 15:00:00,23.837789,73.714926,NO2,12,34,22
India,Rajasthan,Udaipur,"Ashok Nagar, Udaipur - RSPCB",13-03-2026 15:00:00,24.5886166,73.6321397,PM10,90,147,118
India,TamilNadu,Perundurai,"SIPCOT Industrial Park, Perundurai - TNPCB",13-03-2026 15:00:00,11.258242,77.552761,CO,42,47,45
India,TamilNadu,Perundurai,"SIPCOT Industrial Park, Perundurai - TNPCB",13-03-2026 15:00:00,11.258242,77.552761,OZONE,14,32,30
India,Telangana,Hyderabad,"Central University, Hyderabad - TSPCB",13-03-2026 15:00:00,17.460103,78.334361,SO2,6,18,12
India,Telangana,Hyderabad,"ECIL Kapra, Hyderabad - TSPCB",13-03-2026 15:00:00,17.470431,78.566959,PM10,NA,NA,NA
India,Telangana,Hyderabad,"ECIL Kapra, Hyderabad - TSPCB",13-03-2026 15:00:00,17.470431,78.566959,NO2,NA,NA,NA
India,Telangana,Hyderabad,"ECIL Kapra, Hyderabad - TSPCB",13-03-2026 15:00:00,17.470431,78.566959,NH3,NA,NA,NA
India,Telangana,Hyderabad,"ICRISAT Patancheru, Hyderabad - TSPCB",13-03-2026 15:00:00,17.518400,78.278777,SO2,3,24,10
India,Telangana,Hyderabad,"IDA Pashamylaram, Hyderabad - TSPCB",13-03-2026 15:00:00,17.5316895,78.218939,PM2.5,45,187,87
India,Telangana,Hyderabad,"IDA Pashamylaram, Hyderabad - TSPCB",13-03-2026 15:00:00,17.5316895,78.218939,PM10,34,138,62
India,TamilNadu,Chennai,"Royapuram, Chennai - TNPCB",13-03-2026 15:00:00,13.1036,80.2909,NH3,4,5,4
India,TamilNadu,Coimbatore,"PSG College of Arts and Science, Coimbatore - TNPCB",13-03-2026 15:00:00,11.0328,77.0349,PM2.5,35,90,65
India,TamilNadu,Coimbatore,"PSG College of Arts and Science, Coimbatore - TNPCB",13-03-2026 15:00:00,11.0328,77.0349,PM10,28,69,51
India,TamilNadu,Chennai,"Kodungaiyur, Chennai - TNPCB",13-03-2026 15:00:00,13.1278,80.2642,OZONE,25,33,30
India,TamilNadu,Chennai,"Manali Village, Chennai - TNPCB",13-03-2026 15:00:00,13.1662,80.2584,CO,22,30,28
India,TamilNadu,Chennai,"Perungudi, Chennai - TNPCB",13-03-2026 15:00:00,12.9533,80.2357,PM10,37,103,67
India,Telangana,Hyderabad,"New Malakpet, Hyderabad - TSPCB",13-03-2026 15:00:00,17.37206,78.50864,SO2,NA,NA,NA
India,Telangana,Hyderabad,"New Malakpet, Hyderabad - TSPCB",13-03-2026 15:00:00,17.37206,78.50864,CO,24,46,39
India,Telangana,Hyderabad,"Ramachandrapuram, Hyderabad - TSPCB",13-03-2026 15:00:00,17.528544,78.286195,CO,18,49,25
India,Sikkim,Gangtok,"Zero Point GICI, Gangtok - SSPCB",13-03-2026 15:00:00,27.338530,88.614099,NH3,1,1,1
India,Sikkim,Gangtok,"Zero Point GICI, Gangtok - SSPCB",13-03-2026 15:00:00,27.338530,88.614099,SO2,1,1,1
India,TamilNadu,Chennai,"Arumbakkam, Chennai - TNPCB",13-03-2026 15:00:00,13.0664,80.2112 ,NH3,2,2,2
India,Telangana,Hyderabad,"IDA Pashamylaram, Hyderabad - TSPCB",13-03-2026 15:00:00,17.5316895,78.218939,SO2,1,104,21
India,Telangana,Hyderabad,"IDA Pashamylaram, Hyderabad - TSPCB",13-03-2026 15:00:00,17.5316895,78.218939,CO,21,74,37
India,Telangana,Hyderabad,"Kompally Municipal Office, Hyderabad - TSPCB",13-03-2026 15:00:00,17.544899,78.486949,CO,6,66,30
India,TamilNadu,Chennai,"Kodungaiyur, Chennai - TNPCB",13-03-2026 15:00:00,13.1278,80.2642,PM2.5,27,67,46
India,TamilNadu,Chennai,"Perungudi, Chennai - TNPCB",13-03-2026 15:00:00,12.9533,80.2357,NO2,2,11,5
India,Uttar_Pradesh,Ghaziabad,"Vasundhara, Ghaziabad - UPPCB",13-03-2026 15:00:00,28.6603346,77.3572563,PM2.5,55,358,198
India,Uttar_Pradesh,Ghaziabad,"Vasundhara, Ghaziabad - UPPCB",13-03-2026 15:00:00,28.6603346,77.3572563,OZONE,5,119,30
India,Uttar_Pradesh,Gorakhpur,"Madan Mohan Malaviya University of Technology, Gorakhpur - UPPCB",13-03-2026 15:00:00,26.730136,83.433859,NO2,11,12,11
India,Uttar_Pradesh,Gorakhpur,"Madan Mohan Malaviya University of Technology, Gorakhpur - UPPCB",13-03-2026 15:00:00,26.730136,83.433859,CO,4,5,4
India,Uttar_Pradesh,Greater Noida,"Knowledge Park - III, Greater Noida - UPPCB",13-03-2026 15:00:00,28.47272,77.482000,PM2.5,24,193,93
India,Uttar_Pradesh,Greater Noida,"Knowledge Park - III, Greater Noida - UPPCB",13-03-2026 15:00:00,28.47272,77.482000,NO2,16,126,60
India,Uttar_Pradesh,Greater Noida,"Knowledge Park - III, Greater Noida - UPPCB",13-03-2026 15:00:00,28.47272,77.482000,NH3,6,13,10
India,Uttar_Pradesh,Greater Noida,"Knowledge Park - V, Greater Noida - UPPCB",13-03-2026 15:00:00,28.557054,77.453663,PM2.5,54,303,179
India,Uttar_Pradesh,Greater Noida,"Knowledge Park - V, Greater Noida - UPPCB",13-03-2026 15:00:00,28.557054,77.453663,NH3,3,25,6
India,Uttar_Pradesh,Agra,"Shastripuram, Agra - UPPCB",13-03-2026 15:00:00,27.19862,77.92066,PM2.5,15,132,59
India,Uttar_Pradesh,Agra,"Shastripuram, Agra - UPPCB",13-03-2026 15:00:00,27.19862,77.92066,NH3,3,3,3
India,Uttar_Pradesh,Agra,"Shastripuram, Agra - UPPCB",13-03-2026 15:00:00,27.19862,77.92066,CO,12,22,17
India,Uttar_Pradesh,Baghpat,"Sardar Patel Inter College, Baghpat - UPPCB",13-03-2026 15:00:00,28.964949,77.278761,PM10,98,253,148
India,Uttar_Pradesh,Bareilly,"Civil Lines, Bareilly - UPPCB",13-03-2026 15:00:00,28.359581,79.414455,SO2,64,100,82
India,Uttar_Pradesh,Bareilly,"Rajendra Nagar, Bareilly - UPPCB",13-03-2026 15:00:00,28.38910936,79.42963708,PM10,62,121,99
India,Uttar_Pradesh,Bareilly,"Rajendra Nagar, Bareilly - UPPCB",13-03-2026 15:00:00,28.38910936,79.42963708,SO2,40,46,42
India,Uttar_Pradesh,Bulandshahr,"Yamunapuram, Bulandshahr - UPPCB",13-03-2026 15:00:00,28.406963,77.849831,PM10,134,288,183
India,Uttar_Pradesh,Hapur,"Anand Vihar, Hapur - UPPCB",13-03-2026 15:00:00,28.725645,77.749675,SO2,16,97,59
India,Uttar_Pradesh,Hapur,"Anand Vihar, Hapur - UPPCB",13-03-2026 15:00:00,28.725645,77.749675,OZONE,14,77,43
India,Uttar_Pradesh,Kanpur,"FTI Kidwai Nagar, Kanpur - UPPCB",13-03-2026 15:00:00,26.428282,80.327067,PM2.5,51,131,80
India,Uttar_Pradesh,Kanpur,"FTI Kidwai Nagar, Kanpur - UPPCB",13-03-2026 15:00:00,26.428282,80.327067,SO2,21,26,23
India,Uttar_Pradesh,Kanpur,"FTI Kidwai Nagar, Kanpur - UPPCB",13-03-2026 15:00:00,26.428282,80.327067,CO,33,44,36
India,Uttar_Pradesh,Kanpur,"NSI Kalyanpur, Kanpur - UPPCB",13-03-2026 15:00:00,26.509954,80.249612,NO2,24,25,25
India,Uttar_Pradesh,Agra,"Rohta, Agra - UPPCB",13-03-2026 15:00:00,27.106972,78.000111,OZONE,10,14,12
India,Uttar_Pradesh,Agra,"Sanjay Palace, Agra - UPPCB",13-03-2026 15:00:00,27.19865833,78.00598056,PM2.5,38,329,172
India,Uttar_Pradesh,Agra,"Sanjay Palace, Agra - UPPCB",13-03-2026 15:00:00,27.19865833,78.00598056,PM10,101,153,126
India,Uttar_Pradesh,Agra,"Sanjay Palace, Agra - UPPCB",13-03-2026 15:00:00,27.19865833,78.00598056,SO2,17,19,18
India,Uttar_Pradesh,Agra,"Sector-3B Avas Vikas Colony, Agra - UPPCB",13-03-2026 15:00:00,27.19412,77.96237,NH3,8,11,9
India,Uttar_Pradesh,Bulandshahr,"Yamunapuram, Bulandshahr - UPPCB",13-03-2026 15:00:00,28.406963,77.849831,OZONE,1,61,38
India,Uttar_Pradesh,Firozabad,"Nagla Bhau, Firozabad - UPPCB",13-03-2026 15:00:00,27.168897,78.376960,PM10,57,174,106
India,Uttar_Pradesh,Firozabad,"Nagla Bhau, Firozabad - UPPCB",13-03-2026 15:00:00,27.168897,78.376960,SO2,2,65,16
India,Uttar_Pradesh,Ghaziabad,"Indirapuram, Ghaziabad - UPPCB",13-03-2026 15:00:00,28.646233,77.358075,NH3,15,21,18
India,Uttar_Pradesh,Ghaziabad,"Indirapuram, Ghaziabad - UPPCB",13-03-2026 15:00:00,28.646233,77.358075,OZONE,16,125,57
India,Telangana,Hyderabad,"Somajiguda, Hyderabad - TSPCB",13-03-2026 15:00:00,17.417094,78.457437,NO2,12,19,17
India,Telangana,Hyderabad,"Zoo Park, Hyderabad - TSPCB",13-03-2026 15:00:00,17.349694,78.451437,PM10,98,158,118
India,Telangana,Hyderabad,"Zoo Park, Hyderabad - TSPCB",13-03-2026 15:00:00,17.349694,78.451437,OZONE,22,26,24
India,Tripura,Agartala,"Bardowali, Agartala - Tripura SPCB",13-03-2026 15:00:00,23.8175497,91.2726974,PM2.5,76,184,120
India,Uttar_Pradesh,Agra,"Manoharpur, Agra - UPPCB",13-03-2026 15:00:00,27.23711,78.01936,PM2.5,19,142,68
India,Uttar_Pradesh,Agra,"Manoharpur, Agra - UPPCB",13-03-2026 15:00:00,27.23711,78.01936,PM10,13,273,158
India,Uttar_Pradesh,Agra,"Manoharpur, Agra - UPPCB",13-03-2026 15:00:00,27.23711,78.01936,NO2,20,22,20
India,Uttar_Pradesh,Agra,"Manoharpur, Agra - UPPCB",13-03-2026 15:00:00,27.23711,78.01936,CO,16,26,16
India,Uttar_Pradesh,Agra,"Rohta, Agra - UPPCB",13-03-2026 15:00:00,27.106972,78.000111,CO,10,22,19
India,Uttar_Pradesh,Kanpur,"NSI Kalyanpur, Kanpur - UPPCB",13-03-2026 15:00:00,26.509954,80.249612,OZONE,15,17,15
India,Uttar_Pradesh,Kanpur,"Nehru Nagar, Kanpur - UPPCB",13-03-2026 15:00:00,26.4703136,80.3229863,PM2.5,29,306,112
India,Uttar_Pradesh,Khurja,"Kalindi Kunj, Khurja - UPPCB",13-03-2026 15:00:00,28.2348927,77.8683002,NH3,1,1,1
India,Uttar_Pradesh,Lucknow,"B R Ambedkar University, Lucknow - UPPCB",13-03-2026 15:00:00,26.766433,80.927299,NH3,4,4,4
India,Uttarakhand,Kashipur,"Govt. Girls Inter College, Kashipur - UKPCB",13-03-2026 15:00:00,29.2124114,78.9611753,CO,NA,NA,NA
India,Uttarakhand,Rishikesh,"Shivaji Nagar, Rishikesh - UKPCB",13-03-2026 15:00:00,30.075911,78.2859547,PM10,48,80,58
India,Uttarakhand,Rishikesh,"Shivaji Nagar, Rishikesh - UKPCB",13-03-2026 15:00:00,30.075911,78.2859547,NO2,17,25,21
India,Uttarakhand,Rishikesh,"Shivaji Nagar, Rishikesh - UKPCB",13-03-2026 15:00:00,30.075911,78.2859547,NH3,5,32,11
India,Uttarakhand,Rishikesh,"Shivaji Nagar, Rishikesh - UKPCB",13-03-2026 15:00:00,30.075911,78.2859547,CO,28,37,37
India,Uttarakhand,Rishikesh,"Shivaji Nagar, Rishikesh - UKPCB",13-03-2026 15:00:00,30.075911,78.2859547,OZONE,79,149,84
India,West_Bengal,Asansol,"Asansol Court Area, Asansol - WBPCB",13-03-2026 15:00:00,23.685297,86.945968,NH3,3,9,5
India,West_Bengal,Asansol,"Evelyn Lodge, Asansol - WBPCB",13-03-2026 15:00:00,23.6979360,86.9443950,NH3,7,8,8
India,West_Bengal,Asansol,"Evelyn Lodge, Asansol - WBPCB",13-03-2026 15:00:00,23.6979360,86.9443950,CO,20,62,27
India,West_Bengal,Asansol,"Mahabir Colliery, Asansol - WBPCB",13-03-2026 15:00:00,23.6181830,87.1057180,CO,9,86,25
India,West_Bengal,Asansol,"Trivenidevi Bhalotia College, Asansol - WBPCB",13-03-2026 15:00:00,23.616515,87.119133,NO2,9,41,20
India,West_Bengal,Asansol,"Trivenidevi Bhalotia College, Asansol - WBPCB",13-03-2026 15:00:00,23.616515,87.119133,NH3,2,3,2
India,West_Bengal,Barrackpore,"SVSPA Campus, Barrackpore - WBPCB",13-03-2026 15:00:00,22.7605581,88.3617589,NO2,9,21,14
India,West_Bengal,Durgapur,"Mahishkapur Road_B-Zone, Durgapur - WBPCB",13-03-2026 15:00:00,23.567923,87.306843,PM10,50,117,72
India,West_Bengal,Durgapur,"Mahishkapur Road_B-Zone, Durgapur - WBPCB",13-03-2026 15:00:00,23.567923,87.306843,SO2,3,41,12
India,West_Bengal,Durgapur,"PCBL Residential Complex, Durgapur - WBPCB",13-03-2026 15:00:00,23.5087640,87.3544400,NO2,24,86,35
India,West_Bengal,Haldia,"Priyambada Housing Estate, Haldia - WBPCB",13-03-2026 15:00:00,22.06047,88.109737,NO2,7,34,13
India,West_Bengal,Haldia,"Priyambada Housing Estate, Haldia - WBPCB",13-03-2026 15:00:00,22.06047,88.109737,SO2,4,30,16
India,West_Bengal,Howrah,"Belur Math, Howrah - WBPCB",13-03-2026 15:00:00,22.629801,88.352017,CO,18,34,28
India,Uttar_Pradesh,Varanasi,"Bhelupur, Varanasi - UPPCB",13-03-2026 15:00:00,25.301778,82.996789,NH3,1,1,1
India,Uttar_Pradesh,Varanasi,"Bhelupur, Varanasi - UPPCB",13-03-2026 15:00:00,25.301778,82.996789,CO,8,20,15
India,Uttar_Pradesh,Varanasi,"Bhelupur, Varanasi - UPPCB",13-03-2026 15:00:00,25.301778,82.996789,OZONE,7,31,9
India,Uttar_Pradesh,Varanasi,"Maldahiya, Varanasi - UPPCB",13-03-2026 15:00:00,25.32393,82.99687,OZONE,3,23,9
India,Uttar_Pradesh,Vrindavan,"Omex Eternity, Vrindavan - UPPCB",13-03-2026 15:00:00,27.5714090,77.6557570,PM2.5,10,129,54
India,Uttar_Pradesh,Vrindavan,"Omex Eternity, Vrindavan - UPPCB",13-03-2026 15:00:00,27.5714090,77.6557570,OZONE,15,16,15
India,Uttarakhand,Dehradun,"Doon University, Dehradun - UKPCB",13-03-2026 15:00:00,30.269444,78.044167,PM10,82,165,110
India,Uttarakhand,Dehradun,"Doon University, Dehradun - UKPCB",13-03-2026 15:00:00,30.269444,78.044167,SO2,1,5,3
India,Uttar_Pradesh,Muzaffarnagar,"New Mandi, Muzaffarnagar - UPPCB",13-03-2026 15:00:00,29.4723508,77.7194031,SO2,1,29,12
India,Uttar_Pradesh,Noida,"Sector - 125, Noida - UPPCB",13-03-2026 15:00:00,28.5447608,77.3231257,PM2.5,48,275,162
India,Uttar_Pradesh,Noida,"Sector - 125, Noida - UPPCB",13-03-2026 15:00:00,28.5447608,77.3231257,NO2,10,134,61
India,Uttar_Pradesh,Noida,"Sector - 125, Noida - UPPCB",13-03-2026 15:00:00,28.5447608,77.3231257,CO,10,99,29
India,Uttar_Pradesh,Noida,"Sector-1, Noida - UPPCB",13-03-2026 15:00:00,28.5898,77.3101,PM2.5,33,330,193
India,Uttar_Pradesh,Noida,"Sector-1, Noida - UPPCB",13-03-2026 15:00:00,28.5898,77.3101,SO2,11,30,15
India,Uttar_Pradesh,Prayagraj,"Jhunsi, Prayagraj - UPPCB",13-03-2026 15:00:00,25.425602,81.917152,PM10,51,123,88
India,Uttar_Pradesh,Prayagraj,"Jhunsi, Prayagraj - UPPCB",13-03-2026 15:00:00,25.425602,81.917152,NH3,5,5,5
India,Uttar_Pradesh,Prayagraj,"Jhunsi, Prayagraj - UPPCB",13-03-2026 15:00:00,25.425602,81.917152,OZONE,16,77,34
India,Uttar_Pradesh,Prayagraj,"Motilal Nehru NIT, Prayagraj - UPPCB",13-03-2026 15:00:00,25.494,81.863,SO2,9,100,53
India,Uttar_Pradesh,Raebareli," Indira Nagar, Raebareli - NTPC Unchahar",13-03-2026 15:00:00,26.207781,81.245571,SO2,14,15,15
India,Uttar_Pradesh,Varanasi,"Ardhali Bazar, Varanasi - UPPCB",13-03-2026 15:00:00,25.3505986,82.9083074,PM10,57,135,96
India,Uttar_Pradesh,Varanasi,"Bhelupur, Varanasi - UPPCB",13-03-2026 15:00:00,25.301778,82.996789,PM2.5,40,149,63
India,Uttar_Pradesh,Moradabad,"Employment Office, Moradabad - UPPCB",13-03-2026 15:00:00,28.88528,78.73880,NH3,4,4,4
India,Uttar_Pradesh,Moradabad,"Kashiram Nagar, Moradabad - UPPCB",13-03-2026 15:00:00,28.849399,78.742362,PM10,44,164,102
India,Uttar_Pradesh,Moradabad,"Kashiram Nagar, Moradabad - UPPCB",13-03-2026 15:00:00,28.849399,78.742362,NO2,25,25,25
India,Uttar_Pradesh,Moradabad,"Kashiram Nagar, Moradabad - UPPCB",13-03-2026 15:00:00,28.849399,78.742362,NH3,4,4,4
India,Uttar_Pradesh,Moradabad,"Kashiram Nagar, Moradabad - UPPCB",13-03-2026 15:00:00,28.849399,78.742362,SO2,105,122,111
India,Uttar_Pradesh,Moradabad,"Kashiram Nagar, Moradabad - UPPCB",13-03-2026 15:00:00,28.849399,78.742362,CO,20,50,29
India,Uttar_Pradesh,Moradabad,"Transport Nagar, Moradabad - UPPCB",13-03-2026 15:00:00,28.802625,78.753728,SO2,43,51,45
India,Uttar_Pradesh,Meerut,"Pallavpuram Phase 2, Meerut - UPPCB",13-03-2026 15:00:00,29.063510,77.709723,CO,10,52,34
India,Uttar_Pradesh,Moradabad,"Buddhi Vihar, Moradabad - UPPCB",13-03-2026 15:00:00,28.83526,78.74460,PM2.5,33,81,62
India,Uttar_Pradesh,Moradabad,"Employment Office, Moradabad - UPPCB",13-03-2026 15:00:00,28.88528,78.73880,PM2.5,39,155,94
India,Uttar_Pradesh,Meerut,"Jai Bhim Nagar, Meerut - UPPCB",13-03-2026 15:00:00,28.9535882,77.7622941,PM10,119,194,145
India,Uttar_Pradesh,Meerut,"Pallavpuram Phase 2, Meerut - UPPCB",13-03-2026 15:00:00,29.063510,77.709723,PM2.5,76,302,164
India,Uttar_Pradesh,Meerut,"Pallavpuram Phase 2, Meerut - UPPCB",13-03-2026 15:00:00,29.063510,77.709723,NH3,6,10,8
India,Uttar_Pradesh,Lucknow,"Gomti Nagar, Lucknow - UPPCB",13-03-2026 15:00:00,26.868120,81.005119,SO2,11,12,11
India,Uttar_Pradesh,Lucknow,"Kendriya Vidyalaya, Lucknow - CPCB",13-03-2026 15:00:00,26.906111,80.948222,NH3,9,16,12
India,Uttar_Pradesh,Lucknow,"Lalbagh, Lucknow - CPCB",13-03-2026 15:00:00,26.8458805,80.9365541,NH3,12,19,16
India,West_Bengal,Howrah,"Belur Math, Howrah - WBPCB",13-03-2026 15:00:00,22.629801,88.352017,OZONE,9,33,24
India,West_Bengal,Howrah,"Ghusuri, Howrah - WBPCB",13-03-2026 15:00:00,22.611968,88.347422,NH3,9,20,14
India,West_Bengal,Howrah,"Padmapukur, Howrah - WBPCB",13-03-2026 15:00:00,22.5687319,88.2797276,SO2,8,103,28
India,West_Bengal,Kolkata,"Ballygunge, Kolkata - WBPCB",13-03-2026 15:00:00,22.5367507,88.3638022,PM10,36,100,62
India,West_Bengal,Kolkata,"Ballygunge, Kolkata - WBPCB",13-03-2026 15:00:00,22.5367507,88.3638022,NO2,17,60,29
India,West_Bengal,Kolkata,"Ballygunge, Kolkata - WBPCB",13-03-2026 15:00:00,22.5367507,88.3638022,NH3,5,7,6
India,West_Bengal,Kolkata,"Bidhannagar, Kolkata - WBPCB",13-03-2026 15:00:00,22.58157048,88.41002457,NO2,12,14,12
India,West_Bengal,Kolkata,"Bidhannagar, Kolkata - WBPCB",13-03-2026 15:00:00,22.58157048,88.41002457,NH3,6,7,6
India,West_Bengal,Kolkata,"Fort William, Kolkata - WBPCB",13-03-2026 15:00:00,22.556640,88.342674,NO2,18,31,25
India,West_Bengal,Kolkata,"Fort William, Kolkata - WBPCB",13-03-2026 15:00:00,22.556640,88.342674,NH3,9,10,9
India,West_Bengal,Kolkata,"Rabindra Bharati University, Kolkata - WBPCB",13-03-2026 15:00:00,22.627847,88.380669,PM10,60,132,83
India,West_Bengal,Kolkata,"Rabindra Bharati University, Kolkata - WBPCB",13-03-2026 15:00:00,22.627847,88.380669,NO2,29,57,44
India,West_Bengal,Kolkata,"Rabindra Bharati University, Kolkata - WBPCB",13-03-2026 15:00:00,22.627847,88.380669,NH3,12,12,12
India,West_Bengal,Kolkata,"Rabindra Bharati University, Kolkata - WBPCB",13-03-2026 15:00:00,22.627847,88.380669,SO2,4,11,8
India,West_Bengal,Kolkata,"Rabindra Sarobar, Kolkata - WBPCB",13-03-2026 15:00:00,22.51106,88.35142,SO2,5,16,8
India,West_Bengal,Kolkata,"Victoria, Kolkata - WBPCB",13-03-2026 15:00:00,22.5448082,88.3403691,PM10,59,487,158
India,West_Bengal,Kolkata,"Victoria, Kolkata - WBPCB",13-03-2026 15:00:00,22.5448082,88.3403691,NH3,8,8,8
India,West_Bengal,Kolkata,"Victoria, Kolkata - WBPCB",13-03-2026 15:00:00,22.5448082,88.3403691,SO2,4,34,13
India,West_Bengal,Kolkata,"Victoria, Kolkata - WBPCB",13-03-2026 15:00:00,22.5448082,88.3403691,CO,2,34,28
India,West_Bengal,Kolkata,"Victoria, Kolkata - WBPCB",13-03-2026 15:00:00,22.5448082,88.3403691,OZONE,18,55,42
India,West_Bengal,Siliguri,"Ward-32 Bapupara, Siliguri - WBPCB",13-03-2026 15:00:00,26.6879226,88.4152495,PM2.5,36,85,54
India,West_Bengal,Siliguri,"Ward-32 Bapupara, Siliguri - WBPCB",13-03-2026 15:00:00,26.6879226,88.4152495,PM10,26,108,48
India,Andhra_Pradesh,Eluru,"District Court, Eluru - APPCB",13-03-2026 15:00:00,16.711754,81.092095,PM10,40,91,58
India,Andhra_Pradesh,Machilipatnam,"Srinivas Nagar Colony, Machilipatnam - APPCB",13-03-2026 15:00:00,16.186555,81.13219,PM10,50,500,141
India,Andhra_Pradesh,Eluru,"District Court, Eluru - APPCB",13-03-2026 15:00:00,16.711754,81.092095,SO2,5,19,9
India,Andhra_Pradesh,Machilipatnam,"Srinivas Nagar Colony, Machilipatnam - APPCB",13-03-2026 15:00:00,16.186555,81.13219,SO2,14,23,16
India,Andhra_Pradesh,Eluru,"District Court, Eluru - APPCB",13-03-2026 15:00:00,16.711754,81.092095,CO,23,44,29
India,Andhra_Pradesh,Machilipatnam,"Srinivas Nagar Colony, Machilipatnam - APPCB",13-03-2026 15:00:00,16.186555,81.13219,NO2,10,20,15
India,Andhra_Pradesh,Tirumala,"Toll Gate, Tirumala - APPCB",13-03-2026 15:00:00,13.67,79.35,NH3,3,3,3
India,Andhra_Pradesh,Machilipatnam,"Srinivas Nagar Colony, Machilipatnam - APPCB",13-03-2026 15:00:00,16.186555,81.13219,OZONE,2,10,3
India,Andhra_Pradesh,Tirumala,"Toll Gate, Tirumala - APPCB",13-03-2026 15:00:00,13.67,79.35,OZONE,23,44,33
India,Andhra_Pradesh,Anantapur,"Gulzarpet, Anantapur - APPCB",13-03-2026 15:00:00,14.675886,77.593027,PM10,49,71,64
India,Andhra_Pradesh,Amaravati,"Secretariat, Amaravati - APPCB",13-03-2026 15:00:00,16.5150833,80.5181667,NO2,7,11,9
India,Andhra_Pradesh,Kadapa,"Yerramukkapalli, Kadapa - APPCB",13-03-2026 15:00:00,14.465052,78.824187,PM2.5,57,84,69
India,Andhra_Pradesh,Kadapa,"Yerramukkapalli, Kadapa - APPCB",13-03-2026 15:00:00,14.465052,78.824187,PM10,52,76,63
India,Andhra_Pradesh,Kadapa,"Yerramukkapalli, Kadapa - APPCB",13-03-2026 15:00:00,14.465052,78.824187,NO2,20,28,23
India,Andhra_Pradesh,Chittoor,"Gangineni Cheruvu, Chittoor - APPCB",13-03-2026 15:00:00,13.204880,79.097889,PM2.5,41,94,53
India,Andhra_Pradesh,Chittoor,"Gangineni Cheruvu, Chittoor - APPCB",13-03-2026 15:00:00,13.204880,79.097889,OZONE,18,38,25
India,Andhra_Pradesh,Amaravati,"Secretariat, Amaravati - APPCB",13-03-2026 15:00:00,16.5150833,80.5181667,CO,14,27,20
India,Andhra_Pradesh,Amaravati,"Secretariat, Amaravati - APPCB",13-03-2026 15:00:00,16.5150833,80.5181667,SO2,2,6,3
India,Andhra_Pradesh,Anantapur,"Gulzarpet, Anantapur - APPCB",13-03-2026 15:00:00,14.675886,77.593027,SO2,10,19,12
India,Andhra_Pradesh,Anantapur,"Gulzarpet, Anantapur - APPCB",13-03-2026 15:00:00,14.675886,77.593027,CO,16,36,26
India,Andhra_Pradesh,Tirupati,"Vaikuntapuram, Tirupati - APPCB",13-03-2026 15:00:00,13.615387,79.409230,NH3,5,8,6
India,Andhra_Pradesh,Tirupati,"Vaikuntapuram, Tirupati - APPCB",13-03-2026 15:00:00,13.615387,79.409230,SO2,12,26,15
India,Andhra_Pradesh,Rajamahendravaram,"Anand Kala Kshetram, Rajamahendravaram - APPCB",13-03-2026 15:00:00,16.9872867,81.7363176,CO,24,45,34
India,Assam,Guwahati,"LGBI Airport, Guwahati - PCBA",13-03-2026 15:00:00,26.10887,91.589544,SO2,6,14,11
India,Assam,Guwahati,"LGBI Airport, Guwahati - PCBA",13-03-2026 15:00:00,26.10887,91.589544,OZONE,8,13,10
India,Assam,Guwahati,"Pan Bazaar, Guwahati - PCBA",13-03-2026 15:00:00,26.187500,91.744194,PM10,45,101,65
India,Andhra_Pradesh,Vijayawada,"Rajiv Nagar, Vijayawada - APPCB",13-03-2026 15:00:00,16.554731,80.649110,NH3,3,6,4
India,Andhra_Pradesh,Visakhapatnam,"GVM Corporation, Visakhapatnam - APPCB",13-03-2026 15:00:00,17.72,83.3,NO2,25,85,60
India,Assam,Guwahati,"Pan Bazaar, Guwahati - PCBA",13-03-2026 15:00:00,26.187500,91.744194,CO,30,48,39
India,Assam,Guwahati,"Railway Colony, Guwahati - PCBA",13-03-2026 15:00:00,26.181742,91.78063,PM10,73,209,104
India,Andhra_Pradesh,Vijayawada,"Kanuru, Vijayawada - APPCB",13-03-2026 15:00:00,16.486692,80.699436,CO,25,38,35
India,Andhra_Pradesh,Vijayawada,"Kanuru, Vijayawada - APPCB",13-03-2026 15:00:00,16.486692,80.699436,OZONE,22,44,32
India,Andhra_Pradesh,Vijayawada,"Kanuru, Vijayawada - APPCB",13-03-2026 15:00:00,16.486692,80.699436,NO2,NA,NA,NA
India,Assam,Guwahati,"LGBI Airport, Guwahati - PCBA",13-03-2026 15:00:00,26.10887,91.589544,PM10,110,144,129
India,Assam,Guwahati,"IITG, Guwahati - PCBA",13-03-2026 15:00:00,26.2028636,91.70046436,PM2.5,60,127,84
India,Assam,Nagaon,"Christianpatty, Nagaon - PCBA",13-03-2026 15:00:00,26.349082,92.68449,NO2,5,17,10
India,Bihar,Munger,"Town Hall, Munger - BSPCB",13-03-2026 15:00:00,25.376776,86.471523,NO2,4,5,5
India,Bihar,Muzaffarpur,"Buddha Colony, Muzaffarpur - BSPCB",13-03-2026 15:00:00,26.11442,85.39813,PM10,44,111,84
India,Bihar,Muzaffarpur,"Muzaffarpur Collectorate, Muzaffarpur - BSPCB",13-03-2026 15:00:00,26.1209,85.3647,PM2.5,85,130,97
India,Bihar,Muzaffarpur,"Muzaffarpur Collectorate, Muzaffarpur - BSPCB",13-03-2026 15:00:00,26.1209,85.3647,SO2,5,9,6
India,Bihar,Muzaffarpur,"Muzaffarpur Collectorate, Muzaffarpur - BSPCB",13-03-2026 15:00:00,26.1209,85.3647,OZONE,7,19,11
India,Bihar,Patna,"DRM Office Danapur, Patna - BSPCB",13-03-2026 15:00:00,25.586562,85.043586,PM10,91,127,107
India,Bihar,Patna,"DRM Office Danapur, Patna - BSPCB",13-03-2026 15:00:00,25.586562,85.043586,NO2,47,55,50
India,Bihar,Patna,"Govt. High School Shikarpur, Patna - BSPCB",13-03-2026 15:00:00,25.592539,85.227158,SO2,3,7,5
India,Bihar,Patna,"Govt. High School Shikarpur, Patna - BSPCB",13-03-2026 15:00:00,25.592539,85.227158,OZONE,21,91,66
India,Bihar,Patna,"IGSC Planetarium Complex, Patna - BSPCB",13-03-2026 15:00:00,25.610369,85.132568,SO2,1,19,10
India,Bihar,Patna,"Muradpur, Patna - BSPCB",13-03-2026 15:00:00,25.619651,85.147382,NO2,10,12,11
India,Bihar,Patna,"Muradpur, Patna - BSPCB",13-03-2026 15:00:00,25.619651,85.147382,CO,116,122,121
India,Bihar,Patna,"Rajbansi Nagar, Patna - BSPCB",13-03-2026 15:00:00,25.599486,85.113666,PM10,78,132,109
India,Bihar,Patna,"Samanpura, Patna - BSPCB",13-03-2026 15:00:00,25.596727,85.085624,PM2.5,64,160,112
India,Bihar,Patna,"Samanpura, Patna - BSPCB",13-03-2026 15:00:00,25.596727,85.085624,PM10,116,164,136
India,Bihar,Patna,"Samanpura, Patna - BSPCB",13-03-2026 15:00:00,25.596727,85.085624,NH3,11,19,12
India,Bihar,Patna,"Samanpura, Patna - BSPCB",13-03-2026 15:00:00,25.596727,85.085624,CO,80,110,91
India,Bihar,Patna,"Samanpura, Patna - BSPCB",13-03-2026 15:00:00,25.596727,85.085624,OZONE,6,98,56
India,Bihar,Purnia,"Mariam Nagar, Purnia - BSPCB",13-03-2026 15:00:00,25.366336,87.117468,PM10,44,78,58
India,Bihar,Bhagalpur,"DM Office_Kachari Chowk, Bhagalpur - BSPCB",13-03-2026 15:00:00,25.251013,86.989001,OZONE,7,22,13
India,Bihar,Bihar Sharif,"D M Colony, Bihar Sharif - BSPCB",13-03-2026 15:00:00,25.204762,85.514960,PM10,NA,NA,NA
India,Bihar,Bihar Sharif,"D M Colony, Bihar Sharif - BSPCB",13-03-2026 15:00:00,25.204762,85.514960,SO2,NA,NA,NA
India,Bihar,Buxar,"Charitra Van, Buxar - BSPCB",13-03-2026 15:00:00,25.567520,83.966379,NH3,3,3,3
India,Bihar,Buxar,"Charitra Van, Buxar - BSPCB",13-03-2026 15:00:00,25.567520,83.966379,OZONE,1,22,12
India,Bihar,Gaya,"Collectorate, Gaya - BSPCB",13-03-2026 15:00:00,24.7955,84.9994,NO2,8,10,9
India,Bihar,Gaya,"Collectorate, Gaya - BSPCB",13-03-2026 15:00:00,24.7955,84.9994,CO,43,96,47
India,Bihar,Gaya,"Collectorate, Gaya - BSPCB",13-03-2026 15:00:00,24.7955,84.9994,OZONE,17,19,18
India,Bihar,Gaya,"SFTI Kusdihra, Gaya - BSPCB",13-03-2026 15:00:00,24.762518,84.982348,PM2.5,47,97,70
India,Bihar,Katihar,"Mirchaibari, Katihar - BSPCB",13-03-2026 15:00:00,25.560083,87.553265,NO2,9,10,9
India,Bihar,Katihar,"Mirchaibari, Katihar - BSPCB",13-03-2026 15:00:00,25.560083,87.553265,NH3,1,1,1
India,Bihar,Kishanganj,"SDM Office_Khagra, Kishanganj - BSPCB",13-03-2026 15:00:00,26.0881305,87.93840336,PM10,NA,NA,NA
India,Bihar,Manguraha,"Forest Rest House, Manguraha - BSPCB",13-03-2026 15:00:00,27.308328,84.531742,PM2.5,58,260,125
India,Bihar,Aurangabad,"Gurdeo Nagar, Aurangabad - BSPCB",13-03-2026 15:00:00,24.75746,84.366208,CO,28,103,92
India,Bihar,Begusarai,"Lohiyanagar, Begusarai - BSPCB",13-03-2026 15:00:00,25.42742023,86.13886079,PM2.5,32,90,67
India,Bihar,Begusarai,"Lohiyanagar, Begusarai - BSPCB",13-03-2026 15:00:00,25.42742023,86.13886079,SO2,20,27,24
India,Bihar,Begusarai,"Lohiyanagar, Begusarai - BSPCB",13-03-2026 15:00:00,25.42742023,86.13886079,CO,22,30,26
India,Bihar,Bettiah,"Kamalnath Nagar, Bettiah - BSPCB",13-03-2026 15:00:00,26.80365,84.51954,PM10,NA,NA,NA
India,Bihar,Bettiah,"Kamalnath Nagar, Bettiah - BSPCB",13-03-2026 15:00:00,26.80365,84.51954,NO2,NA,NA,NA
India,Bihar,Manguraha,"Forest Rest House, Manguraha - BSPCB",13-03-2026 15:00:00,27.308328,84.531742,NO2,1,8,3
India,Bihar,Manguraha,"Forest Rest House, Manguraha - BSPCB",13-03-2026 15:00:00,27.308328,84.531742,NH3,1,2,1
India,Bihar,Motihari,"Gandak Colony, Motihari - BSPCB",13-03-2026 15:00:00,26.63086,84.90051,CO,16,30,28
India,Assam,Sivasagar,"Girls College, Sivasagar - PCBA",13-03-2026 15:00:00,26.987634,94.636574,PM10,23,58,40
India,Assam,Sivasagar,"Girls College, Sivasagar - PCBA",13-03-2026 15:00:00,26.987634,94.636574,NO2,14,19,14
India,Assam,Silchar,"Tarapur, Silchar - PCBA",13-03-2026 15:00:00,24.82827,92.79525,NH3,1,1,1
India,Chandigarh,Chandigarh,"Sector 22, Chandigarh - CPCC",13-03-2026 15:00:00,30.735567,76.775714,SO2,8,21,14
India,Chandigarh,Chandigarh,"Sector-25, Chandigarh - CPCC",13-03-2026 15:00:00,30.751462,76.762879,NH3,NA,NA,NA
India,Chhattisgarh,Bhilai,"32Bungalows, Bhilai - CECB",13-03-2026 15:00:00,21.194815,81.314770,PM10,17,38,29
India,Chhattisgarh,Bhilai,"Civic Center, Bhilai - Bhilai Steel Plant",13-03-2026 15:00:00,21.185571,81.343175,NO2,10,11,11
India,Chhattisgarh,Bhilai,"Civic Center, Bhilai - Bhilai Steel Plant",13-03-2026 15:00:00,21.185571,81.343175,NH3,3,3,3
India,Chhattisgarh,Bhilai,"Civic Center, Bhilai - Bhilai Steel Plant",13-03-2026 15:00:00,21.185571,81.343175,OZONE,8,13,11
India,Chhattisgarh,Kunjemura,"OP Jindal School, Kunjemura - CECB",13-03-2026 15:00:00,22.126650,83.483212,PM10,82,405,215
India,Chhattisgarh,Kunjemura,"OP Jindal School, Kunjemura - CECB",13-03-2026 15:00:00,22.126650,83.483212,CO,22,116,61
India,Chhattisgarh,Milupara,"Govt. Higher Secondary School, Milupara - CECB",13-03-2026 15:00:00,22.1910172,83.5197009,NH3,1,2,1
India,Chhattisgarh,Raipur,"AIIMS, Raipur - CECB",13-03-2026 15:00:00,21.258815,81.578979,PM10,35,154,83
India,Chhattisgarh,Raipur,"AIIMS, Raipur - CECB",13-03-2026 15:00:00,21.258815,81.578979,NO2,30,47,38
India,Chhattisgarh,Raipur,"AIIMS, Raipur - CECB",13-03-2026 15:00:00,21.258815,81.578979,NH3,4,5,4
India,Chhattisgarh,Bhilai,"Hathkhoj, Bhilai - CECB",13-03-2026 15:00:00,21.224231,81.408350,PM10,20,96,55
India,Chhattisgarh,Bhilai,"Hathkhoj, Bhilai - CECB",13-03-2026 15:00:00,21.224231,81.408350,NO2,18,87,56
India,Chhattisgarh,Bilaspur,"Mangala, Bilaspur - NTPC",13-03-2026 15:00:00,22.08815,82.13737,PM10,49,125,94
India,Chhattisgarh,Bilaspur,"Mangala, Bilaspur - NTPC",13-03-2026 15:00:00,22.08815,82.13737,CO,28,109,104
India,Chhattisgarh,Chhal,"Nawapara SECL Colony, Chhal - CECB",13-03-2026 15:00:00,22.118125,83.140608,PM2.5,36,282,148
India,Chhattisgarh,Chhal,"Nawapara SECL Colony, Chhal - CECB",13-03-2026 15:00:00,22.118125,83.140608,SO2,10,66,36
India,Chhattisgarh,Chhal,"Nawapara SECL Colony, Chhal - CECB",13-03-2026 15:00:00,22.118125,83.140608,CO,27,116,59
India,Chhattisgarh,Korba,"Rampur, Korba - CECB",13-03-2026 15:00:00,22.368195,82.746431,PM10,35,150,112
India,Chhattisgarh,Korba,"Rampur, Korba - CECB",13-03-2026 15:00:00,22.368195,82.746431,OZONE,1,18,13
India,Chhattisgarh,Korba,"Urja Nagar, Korba - CECB",13-03-2026 15:00:00,22.348441,82.549611,NO2,15,30,23
India,Chhattisgarh,Korba,"Urja Nagar, Korba - CECB",13-03-2026 15:00:00,22.348441,82.549611,OZONE,2,7,4
India,Bihar,Samastipur,"DM Office_Kasipur, Samastipur - BSPCB",13-03-2026 15:00:00,25.859655,85.77944,NH3,1,1,1
India,Bihar,Samastipur,"DM Office_Kasipur, Samastipur - BSPCB",13-03-2026 15:00:00,25.859655,85.77944,SO2,1,12,6
India,Bihar,Sasaram,"Dada Peer, Sasaram - BSPCB",13-03-2026 15:00:00,24.952822,84.002396,SO2,5,6,5
India,Bihar,Rajgir,"Dangi Tola, Rajgir - BSPCB",13-03-2026 15:00:00,25.03280,85.41948,CO,36,48,40
India,Bihar,Saharsa,"Police Line, Saharsa - BSPCB",13-03-2026 15:00:00,25.892357,86.590325,PM2.5,10,307,116
India,Bihar,Saharsa,"Police Line, Saharsa - BSPCB",13-03-2026 15:00:00,25.892357,86.590325,OZONE,3,20,11
India,Bihar,Samastipur,"DM Office_Kasipur, Samastipur - BSPCB",13-03-2026 15:00:00,25.859655,85.77944,PM2.5,33,163,78
India,Chhattisgarh,Raipur,"Bhatagaon New ISBT, Raipur - CECB",13-03-2026 15:00:00,21.219665,81.630094,PM2.5,20,44,37
India,Chhattisgarh,Raipur,"Bhatagaon New ISBT, Raipur - CECB",13-03-2026 15:00:00,21.219665,81.630094,NH3,2,2,2
India,Bihar,Siwan,"Chitragupta Nagar, Siwan - BSPCB",13-03-2026 15:00:00,26.2271665,84.3570427,NO2,2,4,2
India,Delhi,Delhi,"Cantonment Area, Delhi - DPCC ",13-03-2026 15:00:00,28.594169 ,77.125100 ,CO,107,134,115
India,Delhi,Delhi,"Chandni Chowk, Delhi - IITM",13-03-2026 15:00:00,28.656756,77.227234,NO2,26,171,89
India,Delhi,Delhi,"Chandni Chowk, Delhi - IITM",13-03-2026 15:00:00,28.656756,77.227234,NH3,7,13,9
India,Delhi,Delhi,"Chandni Chowk, Delhi - IITM",13-03-2026 15:00:00,28.656756,77.227234,CO,103,120,112
India,Delhi,Delhi,"Commonwealth Sports Complex, Delhi - DPCC",13-03-2026 15:00:00,28.615828 ,77.271992 ,PM2.5,35,303,161
India,Delhi,Delhi,"DTU, Delhi - CPCB",13-03-2026 15:00:00,28.7500499,77.1112615,SO2,29,32,30
India,Delhi,Delhi,"Dr. Karni Singh Shooting Range, Delhi - DPCC",13-03-2026 15:00:00,28.498571,77.264840,OZONE,3,122,76
India,Delhi,Delhi,"Dwarka-Sector 8, Delhi - DPCC ",13-03-2026 15:00:00,28.5710274,77.0719006,PM10,112,405,243
India,Delhi,Delhi,"Jawaharlal Nehru Stadium, Delhi - DPCC",13-03-2026 15:00:00,28.580280,77.233829,SO2,5,29,16
India,Delhi,Delhi,"Jawaharlal Nehru Stadium, Delhi - DPCC",13-03-2026 15:00:00,28.580280,77.233829,CO,16,106,33
India,Delhi,Delhi,"Lodhi Road, Delhi - IMD",13-03-2026 15:00:00,28.5918245,77.2273074,CO,15,60,37
India,Delhi,Delhi,"Major Dhyan Chand National Stadium, Delhi - DPCC",13-03-2026 15:00:00,28.611281,77.237738,PM10,95,222,163
India,Delhi,Delhi,"Major Dhyan Chand National Stadium, Delhi - DPCC",13-03-2026 15:00:00,28.611281,77.237738,NO2,33,151,80
India,Delhi,Delhi,"Mandir Marg, Delhi - DPCC",13-03-2026 15:00:00,28.636429,77.201067,PM2.5,140,325,252
India,Delhi,Delhi,"Mandir Marg, Delhi - DPCC",13-03-2026 15:00:00,28.636429,77.201067,NO2,31,77,51
India,Delhi,Delhi,"Mundka, Delhi - DPCC",13-03-2026 15:00:00,28.684678,77.076574,NO2,68,112,90
India,Delhi,Delhi,"Mundka, Delhi - DPCC",13-03-2026 15:00:00,28.684678,77.076574,SO2,8,50,19
India,Delhi,Delhi,"Mundka, Delhi - DPCC",13-03-2026 15:00:00,28.684678,77.076574,CO,20,106,66
India,Delhi,Delhi,"NSIT Dwarka, Delhi - CPCB",13-03-2026 15:00:00,28.60909,77.0325413,PM10,115,414,266
India,Delhi,Delhi,"NSIT Dwarka, Delhi - CPCB",13-03-2026 15:00:00,28.60909,77.0325413,SO2,11,20,14
India,Delhi,Delhi,"NSIT Dwarka, Delhi - CPCB",13-03-2026 15:00:00,28.60909,77.0325413,OZONE,13,35,24
India,Delhi,Delhi,"NSUT Jaffarpur, Delhi - DPCC",13-03-2026 15:00:00,28.594004 ,76.909423 ,PM2.5,5,387,219
India,Delhi,Delhi,"NSUT Jaffarpur, Delhi - DPCC",13-03-2026 15:00:00,28.594004 ,76.909423 ,NH3,15,18,16
India,Delhi,Delhi,"Dwarka-Sector 8, Delhi - DPCC ",13-03-2026 15:00:00,28.5710274,77.0719006,NH3,22,28,25
India,Delhi,Delhi,"IGNOU_Maidan Garhi, Delhi - DPCC",13-03-2026 15:00:00,28.493624 ,77.201159 ,NO2,1,1,1
India,Delhi,Delhi,"IHBAS, Dilshad Garden, Delhi - CPCB",13-03-2026 15:00:00,28.6811736,77.3025234,PM2.5,52,324,168
India,Delhi,Delhi,"IHBAS, Dilshad Garden, Delhi - CPCB",13-03-2026 15:00:00,28.6811736,77.3025234,NH3,6,12,8
India,Delhi,Delhi,"ITO, Delhi - CPCB",13-03-2026 15:00:00,28.628624,77.241060,CO,3,54,31
India,Delhi,Delhi,"JNU, Delhi - DPCC",13-03-2026 15:00:00,28.540721 ,77.168544 ,PM2.5,42,318,160
India,Chhattisgarh,Raipur,"Krishak Nagar, Raipur - CECB",13-03-2026 15:00:00,21.237755,81.705301,PM2.5,36,75,50
India,Chhattisgarh,Raipur,"Krishak Nagar, Raipur - CECB",13-03-2026 15:00:00,21.237755,81.705301,CO,13,46,38
India,Chhattisgarh,Raipur,"Krishak Nagar, Raipur - CECB",13-03-2026 15:00:00,21.237755,81.705301,OZONE,1,85,24
India,Chhattisgarh,Raipur,"Siltara Phase-II, Raipur - CECB",13-03-2026 15:00:00,21.371751,81.664929,PM2.5,24,322,99
India,Chhattisgarh,Raipur,"Siltara Phase-II, Raipur - CECB",13-03-2026 15:00:00,21.371751,81.664929,NH3,2,2,2
India,Chhattisgarh,Tumidih,"OP Jindal Industrial Park, Tumidih - CECB",13-03-2026 15:00:00,22.06631475,83.33820077,PM2.5,35,348,238
India,Delhi,Delhi,"Alipur, Delhi - DPCC",13-03-2026 15:00:00,28.815329,77.153010,NH3,12,16,14
India,Delhi,Delhi,"Ashok Vihar, Delhi - DPCC",13-03-2026 15:00:00,28.695381,77.181665,PM2.5,48,315,175
India,Delhi,Delhi,"Ashok Vihar, Delhi - DPCC",13-03-2026 15:00:00,28.695381,77.181665,OZONE,5,83,40
India,Delhi,Delhi,"JNU, Delhi - DPCC",13-03-2026 15:00:00,28.540721 ,77.168544 ,SO2,17,21,18
India,Delhi,Delhi,"JNU, Delhi - DPCC",13-03-2026 15:00:00,28.540721 ,77.168544 ,OZONE,1,32,18
India,Delhi,Delhi,"Jahangirpuri, Delhi - DPCC",13-03-2026 15:00:00,28.732820,77.170633,SO2,40,51,45
India,Delhi,Delhi,"Bawana, Delhi - DPCC",13-03-2026 15:00:00,28.776200,77.051074,PM10,128,330,201
India,Delhi,Delhi,"Bawana, Delhi - DPCC",13-03-2026 15:00:00,28.776200,77.051074,NO2,7,55,23
India,Delhi,Delhi,"Bawana, Delhi - DPCC",13-03-2026 15:00:00,28.776200,77.051074,OZONE,4,77,21
India,Delhi,Delhi,"Aya Nagar, Delhi - IMD",13-03-2026 15:00:00,28.4706914,77.1099364,CO,14,63,28
India,Delhi,Delhi,"Rohini, Delhi - DPCC",13-03-2026 15:00:00,28.732528,77.119920,SO2,10,21,14
India,Delhi,Delhi,"Shadipur, Delhi - CPCB",13-03-2026 15:00:00,28.6514781,77.1473105,NH3,10,16,12
India,Delhi,Delhi,"Shadipur, Delhi - CPCB",13-03-2026 15:00:00,28.6514781,77.1473105,CO,16,66,43
India,Delhi,Delhi,"Sirifort, Delhi - CPCB",13-03-2026 15:00:00,28.5504249,77.2159377,OZONE,13,31,20
India,Delhi,Delhi,"Talkatora Garden, Delhi - DPCC",13-03-2026 15:00:00,28.621810,77.1944633,NH3,NA,NA,NA
India,Delhi,Delhi,"Talkatora Garden, Delhi - DPCC",13-03-2026 15:00:00,28.621810,77.1944633,SO2,NA,NA,NA
India,Delhi,Delhi,"Najafgarh, Delhi - DPCC",13-03-2026 15:00:00,28.570173,76.933762,SO2,15,87,28
India,Delhi,Delhi,"Narela, Delhi - DPCC",13-03-2026 15:00:00,28.822836,77.101981,PM10,105,241,165
India,Delhi,Delhi,"Narela, Delhi - DPCC",13-03-2026 15:00:00,28.822836,77.101981,NO2,4,39,21
India,Delhi,Delhi,"Narela, Delhi - DPCC",13-03-2026 15:00:00,28.822836,77.101981,NH3,5,9,7
India,Delhi,Delhi,"Nehru Nagar, Delhi - DPCC",13-03-2026 15:00:00,28.567890,77.250515,NO2,27,111,60
India,Delhi,Delhi,"Pusa, Delhi - IMD",13-03-2026 15:00:00,28.636110,77.173332,CO,70,108,84
India,Delhi,Delhi,"R K Puram, Delhi - DPCC",13-03-2026 15:00:00,28.563262,77.186937,PM2.5,40,354,228
