country,state,city,station,last_update,latitude,longitude,pollutant_id,min_value,max_value,avg_value
India,Bihar,Muzaffarpur,"MIT-Daudpur Kothi, Muzaffarpur - BSPCB",11-02-2026 09:00:00,26.1403345,85.3650192,SO2,11,15,14
India,Bihar,Muzaffarpur,"MIT-Daudpur Kothi, Muzaffarpur - BSPCB",11-02-2026 09:00:00,26.1403345,85.3650192,OZONE,11,50,11
India,Bihar,Muzaffarpur,"Muzaffarpur Collectorate, Muzaffarpur - BSPCB",11-02-2026 09:00:00,26.1209,85.3647,OZONE,7,23,7
India,Bihar,Patna,"DRM Office Danapur, Patna - BSPCB",11-02-2026 09:00:00,25.586562,85.043586,PM2.5,64,300,143
India,Bihar,Patna,"DRM Office Danapur, Patna - BSPCB",11-02-2026 09:00:00,25.586562,85.043586,NH3,4,5,5
India,Bihar,Patna,"Govt. High School Shikarpur, Patna - BSPCB",11-02-2026 09:00:00,25.592539,85.227158,PM10,113,238,146
India,Bihar,Patna,"IGSC Planetarium Complex, Patna - BSPCB",11-02-2026 09:00:00,25.610369,85.132568,NO2,NA,NA,NA
India,Bihar,Patna,"IGSC Planetarium Complex, Patna - BSPCB",11-02-2026 09:00:00,25.610369,85.132568,CO,29,33,32
India,Bihar,Patna,"IGSC Planetarium Complex, Patna - BSPCB",11-02-2026 09:00:00,25.610369,85.132568,OZONE,28,29,28
India,Bihar,Patna,"Muradpur, Patna - BSPCB",11-02-2026 09:00:00,25.619651,85.147382,NO2,11,39,19
India,Bihar,Patna,"Muradpur, Patna - BSPCB",11-02-2026 09:00:00,25.619651,85.147382,SO2,8,9,9
India,Bihar,Patna,"Muradpur, Patna - BSPCB",11-02-2026 09:00:00,25.619651,85.147382,CO,20,80,49
India,Bihar,Patna,"Muradpur, Patna - BSPCB",11-02-2026 09:00:00,25.619651,85.147382,OZONE,4,16,5
India,Bihar,Patna,"Rajbansi Nagar, Patna - BSPCB",11-02-2026 09:00:00,25.599486,85.113666,NH3,1,2,1
India,Bihar,Katihar,"Mirchaibari, Katihar - BSPCB",11-02-2026 09:00:00,25.560083,87.553265,NO2,9,10,9
India,Bihar,Katihar,"Mirchaibari, Katihar - BSPCB",11-02-2026 09:00:00,25.560083,87.553265,SO2,20,24,22
India,Bihar,Katihar,"Mirchaibari, Katihar - BSPCB",11-02-2026 09:00:00,25.560083,87.553265,CO,79,98,83
India,Bihar,Katihar,"Mirchaibari, Katihar - BSPCB",11-02-2026 09:00:00,25.560083,87.553265,OZONE,5,18,6
India,Bihar,Kishanganj,"SDM Office_Khagra, Kishanganj - BSPCB",11-02-2026 09:00:00,26.0881305,87.93840336,NH3,3,3,3
India,Bihar,Kishanganj,"SDM Office_Khagra, Kishanganj - BSPCB",11-02-2026 09:00:00,26.0881305,87.93840336,CO,16,22,17
India,Bihar,Manguraha,"Forest Rest House, Manguraha - BSPCB",11-02-2026 09:00:00,27.308328,84.531742,NO2,4,12,7
India,Bihar,Motihari,"Gandak Colony, Motihari - BSPCB",11-02-2026 09:00:00,26.63086,84.90051,PM10,55,133,89
India,Bihar,Motihari,"Gandak Colony, Motihari - BSPCB",11-02-2026 09:00:00,26.63086,84.90051,SO2,2,3,2
India,Bihar,Motihari,"Gandak Colony, Motihari - BSPCB",11-02-2026 09:00:00,26.63086,84.90051,CO,30,45,31
India,Bihar,Munger,"Town Hall, Munger - BSPCB",11-02-2026 09:00:00,25.376776,86.471523,CO,20,47,27
India,Bihar,Muzaffarpur,"Buddha Colony, Muzaffarpur - BSPCB",11-02-2026 09:00:00,26.11442,85.39813,PM2.5,61,173,119
India,Bihar,Muzaffarpur,"Buddha Colony, Muzaffarpur - BSPCB",11-02-2026 09:00:00,26.11442,85.39813,NO2,30,53,37
India,Bihar,Muzaffarpur,"Buddha Colony, Muzaffarpur - BSPCB",11-02-2026 09:00:00,26.11442,85.39813,CO,20,70,35
India,Andhra_Pradesh,Amaravati,"Secretariat, Amaravati - APPCB",11-02-2026 09:00:00,16.5150833,80.5181667,NH3,5,8,6
India,Andhra_Pradesh,Amaravati,"Secretariat, Amaravati - APPCB",11-02-2026 09:00:00,16.5150833,80.5181667,CO,5,124,43
India,Andhra_Pradesh,Amaravati,"Secretariat, Amaravati - APPCB",11-02-2026 09:00:00,16.5150833,80.5181667,OZONE,2,57,14
India,Andhra_Pradesh,Anantapur,"Gulzarpet, Anantapur - APPCB",11-02-2026 09:00:00,14.675886,77.593027,PM2.5,72,89,83
India,Andhra_Pradesh,Anantapur,"Gulzarpet, Anantapur - APPCB",11-02-2026 09:00:00,14.675886,77.593027,NH3,4,4,4
India,Andhra_Pradesh,Anantapur,"Gulzarpet, Anantapur - APPCB",11-02-2026 09:00:00,14.675886,77.593027,OZONE,17,17,17
India,Andhra_Pradesh,Chittoor,"Gangineni Cheruvu, Chittoor - APPCB",11-02-2026 09:00:00,13.204880,79.097889,PM10,51,82,61
India,Andhra_Pradesh,Chittoor,"Gangineni Cheruvu, Chittoor - APPCB",11-02-2026 09:00:00,13.204880,79.097889,NO2,26,29,28
India,Andhra_Pradesh,Chittoor,"Gangineni Cheruvu, Chittoor - APPCB",11-02-2026 09:00:00,13.204880,79.097889,SO2,11,37,20
India,Andhra_Pradesh,Chittoor,"Gangineni Cheruvu, Chittoor - APPCB",11-02-2026 09:00:00,13.204880,79.097889,CO,18,43,39
India,Andhra_Pradesh,Rajamahendravaram,"Anand Kala Kshetram, Rajamahendravaram - APPCB",11-02-2026 09:00:00,16.9872867,81.7363176,PM2.5,73,145,100
India,Andhra_Pradesh,Rajamahendravaram,"Anand Kala Kshetram, Rajamahendravaram - APPCB",11-02-2026 09:00:00,16.9872867,81.7363176,NO2,14,44,27
India,Andhra_Pradesh,Rajamahendravaram,"Anand Kala Kshetram, Rajamahendravaram - APPCB",11-02-2026 09:00:00,16.9872867,81.7363176,OZONE,14,33,17
India,Andhra_Pradesh,Tirupati,"Vaikuntapuram, Tirupati - APPCB",11-02-2026 09:00:00,13.615387,79.409230,PM10,50,110,87
India,Andhra_Pradesh,Tirupati,"Vaikuntapuram, Tirupati - APPCB",11-02-2026 09:00:00,13.615387,79.409230,CO,20,33,26
India,Andhra_Pradesh,Vijayawada,"Kanuru, Vijayawada - APPCB",11-02-2026 09:00:00,16.486692,80.699436,PM2.5,61,68,64
India,Andhra_Pradesh,Vijayawada,"Kanuru, Vijayawada - APPCB",11-02-2026 09:00:00,16.486692,80.699436,OZONE,24,24,24
India,Andhra_Pradesh,Vijayawada,"Rajiv Gandhi Park, Vijayawada - APPCB",11-02-2026 09:00:00,16.509717,80.612222,CO,30,30,30
India,Andhra_Pradesh,Vijayawada,"Rajiv Nagar, Vijayawada - APPCB",11-02-2026 09:00:00,16.554731,80.649110,PM10,13,83,73
India,Andhra_Pradesh,Vijayawada,"Rajiv Nagar, Vijayawada - APPCB",11-02-2026 09:00:00,16.554731,80.649110,NO2,26,26,26
India,Andhra_Pradesh,Visakhapatnam,"GVM Corporation, Visakhapatnam - APPCB",11-02-2026 09:00:00,17.72,83.3,PM2.5,88,290,146
India,Andhra_Pradesh,Visakhapatnam,"GVM Corporation, Visakhapatnam - APPCB",11-02-2026 09:00:00,17.72,83.3,PM10,108,397,172
India,Bihar,Begusarai,"Lohiyanagar, Begusarai - BSPCB",11-02-2026 09:00:00,25.42742023,86.13886079,SO2,22,26,24
India,Bihar,Begusarai,"Lohiyanagar, Begusarai - BSPCB",11-02-2026 09:00:00,25.42742023,86.13886079,CO,52,62,57
India,Bihar,Begusarai,"Lohiyanagar, Begusarai - BSPCB",11-02-2026 09:00:00,25.42742023,86.13886079,OZONE,32,64,36
India,Bihar,Bettiah,"Kamalnath Nagar, Bettiah - BSPCB",11-02-2026 09:00:00,26.80365,84.51954,NO2,8,10,8
India,Bihar,Bettiah,"Kamalnath Nagar, Bettiah - BSPCB",11-02-2026 09:00:00,26.80365,84.51954,NH3,1,1,1
India,Bihar,Bhagalpur,"DM Office_Kachari Chowk, Bhagalpur - BSPCB",11-02-2026 09:00:00,25.251013,86.989001,PM2.5,30,137,63
India,Bihar,Bhagalpur,"DM Office_Kachari Chowk, Bhagalpur - BSPCB",11-02-2026 09:00:00,25.251013,86.989001,OZONE,12,22,16
India,Bihar,Bhagalpur,"Mayaganj, Bhagalpur - BSPCB",11-02-2026 09:00:00,25.265194,87.012947,OZONE,13,31,16
India,Bihar,Bihar Sharif,"D M Colony, Bihar Sharif - BSPCB",11-02-2026 09:00:00,25.204762,85.514960,SO2,10,10,10
India,Arunachal_Pradesh,Naharlagun,"Naharlagun, Naharlagun - APSPCB",11-02-2026 09:00:00,27.103358,93.679645,SO2,9,10,10
India,Assam,Byrnihat,"Central Academy for SFS, Byrnihat - PCBA",11-02-2026 09:00:00,26.071318,91.87488,PM2.5,91,262,136
India,Assam,Byrnihat,"Central Academy for SFS, Byrnihat - PCBA",11-02-2026 09:00:00,26.071318,91.87488,CO,33,76,54
India,Assam,Guwahati,"Railway Colony, Guwahati - PCBA",11-02-2026 09:00:00,26.181742,91.78063,NO2,3,4,3
India,Assam,Nagaon,"Christianpatty, Nagaon - PCBA",11-02-2026 09:00:00,26.349082,92.68449,PM10,79,150,112
India,Bihar,Gaya,"Collectorate, Gaya - BSPCB",11-02-2026 09:00:00,24.7955,84.9994,OZONE,NA,NA,NA
India,Bihar,Gaya,"SFTI Kusdihra, Gaya - BSPCB",11-02-2026 09:00:00,24.762518,84.982348,SO2,6,11,9
India,Bihar,Gaya,"SFTI Kusdihra, Gaya - BSPCB",11-02-2026 09:00:00,24.762518,84.982348,CO,11,54,46
India,Bihar,Gaya,"SFTI Kusdihra, Gaya - BSPCB",11-02-2026 09:00:00,24.762518,84.982348,OZONE,7,29,7
India,Bihar,Hajipur,"Industrial Area, Hajipur - BSPCB",11-02-2026 09:00:00,25.697189,85.245900,NH3,7,21,16
India,Bihar,Hajipur,"Industrial Area, Hajipur - BSPCB",11-02-2026 09:00:00,25.697189,85.245900,SO2,4,6,5
India,Assam,Nalbari,"Bata Chowk, Nalbari - PCBA",11-02-2026 09:00:00,26.446912,91.439057,NO2,10,15,14
India,Assam,Sivasagar,"Girls College, Sivasagar - PCBA",11-02-2026 09:00:00,26.987634,94.636574,NH3,5,36,13
India,Bihar,Araria,"Kharahiya Basti, Araria - BSPCB",11-02-2026 09:00:00,26.146529,87.454184,PM2.5,33,217,103
India,Bihar,Saharsa,"Police Line, Saharsa - BSPCB",11-02-2026 09:00:00,25.892357,86.590325,OZONE,7,13,10
India,Bihar,Sasaram,"Dada Peer, Sasaram - BSPCB",11-02-2026 09:00:00,24.952822,84.002396,PM2.5,8,31,20
India,Bihar,Sasaram,"Dada Peer, Sasaram - BSPCB",11-02-2026 09:00:00,24.952822,84.002396,PM10,34,76,53
India,Bihar,Arrah,"New DM Office, Arrah - BSPCB",11-02-2026 09:00:00,25.5626095,84.663264,NO2,6,9,7
India,Bihar,Arrah,"New DM Office, Arrah - BSPCB",11-02-2026 09:00:00,25.5626095,84.663264,OZONE,7,8,8
India,Chhattisgarh,Bhilai,"Civic Center, Bhilai - Bhilai Steel Plant",11-02-2026 09:00:00,21.185571,81.343175,SO2,6,11,8
India,Chhattisgarh,Bhilai,"Hathkhoj, Bhilai - CECB",11-02-2026 09:00:00,21.224231,81.408350,PM2.5,18,90,53
India,Chhattisgarh,Bhilai,"Hathkhoj, Bhilai - CECB",11-02-2026 09:00:00,21.224231,81.408350,CO,8,62,38
India,Chhattisgarh,Bhilai,"Hathkhoj, Bhilai - CECB",11-02-2026 09:00:00,21.224231,81.408350,OZONE,3,14,6
India,Chhattisgarh,Bilaspur,"Mangala, Bilaspur - NTPC",11-02-2026 09:00:00,22.08815,82.13737,SO2,5,50,20
India,Chhattisgarh,Chhal,"Nawapara SECL Colony, Chhal - CECB",11-02-2026 09:00:00,22.118125,83.140608,PM2.5,42,90,65
India,Chhattisgarh,Korba,"Rampur, Korba - CECB",11-02-2026 09:00:00,22.368195,82.746431,PM2.5,NA,NA,NA
India,Chhattisgarh,Korba,"Rampur, Korba - CECB",11-02-2026 09:00:00,22.368195,82.746431,SO2,NA,NA,NA
India,Chhattisgarh,Korba,"Urja Nagar, Korba - CECB",11-02-2026 09:00:00,22.348441,82.549611,SO2,1,13,7
India,Chhattisgarh,Tumidih,"OP Jindal Industrial Park, Tumidih - CECB",11-02-2026 09:00:00,22.06631475,83.33820077,NH3,1,2,1
India,Delhi,Delhi,"Alipur, Delhi - DPCC",11-02-2026 09:00:00,28.815329,77.153010,NO2,35,92,60
India,Delhi,Delhi,"Alipur, Delhi - DPCC",11-02-2026 09:00:00,28.815329,77.153010,CO,28,104,45
India,Delhi,Delhi,"Ashok Vihar, Delhi - DPCC",11-02-2026 09:00:00,28.695381,77.181665,PM2.5,77,483,339
India,Delhi,Delhi,"Ashok Vihar, Delhi - DPCC",11-02-2026 09:00:00,28.695381,77.181665,NO2,28,188,105
India,Delhi,Delhi,"Aya Nagar, Delhi - IMD",11-02-2026 09:00:00,28.4706914,77.1099364,PM2.5,68,349,214
India,Delhi,Delhi,"Aya Nagar, Delhi - IMD",11-02-2026 09:00:00,28.4706914,77.1099364,OZONE,5,76,8
India,Delhi,Delhi,"Bawana, Delhi - DPCC",11-02-2026 09:00:00,28.776200,77.051074,OZONE,3,145,6
India,Delhi,Delhi,"Burari Crossing, Delhi - IMD",11-02-2026 09:00:00,28.7256504,77.2011573,NO2,72,220,133
India,Delhi,Delhi,"Chandni Chowk, Delhi - IITM",11-02-2026 09:00:00,28.656756,77.227234,CO,98,175,93
India,Delhi,Delhi,"DTU, Delhi - CPCB",11-02-2026 09:00:00,28.7500499,77.1112615,NH3,5,12,10
India,Delhi,Delhi,"Dwarka-Sector 8, Delhi - DPCC ",11-02-2026 09:00:00,28.5710274,77.0719006,PM10,131,420,285
India,Delhi,Delhi,"Dwarka-Sector 8, Delhi - DPCC ",11-02-2026 09:00:00,28.5710274,77.0719006,NH3,18,26,23
India,Delhi,Delhi,"Dwarka-Sector 8, Delhi - DPCC ",11-02-2026 09:00:00,28.5710274,77.0719006,CO,44,127,109
India,Delhi,Delhi,"Nehru Nagar, Delhi - DPCC",11-02-2026 09:00:00,28.567890,77.250515,NO2,62,141,96
India,Delhi,Delhi,"Nehru Nagar, Delhi - DPCC",11-02-2026 09:00:00,28.567890,77.250515,NH3,7,13,10
India,Delhi,Delhi,"Okhla Phase-2, Delhi - DPCC",11-02-2026 09:00:00,28.530785,77.271255,NH3,11,22,15
India,Delhi,Delhi,"Okhla Phase-2, Delhi - DPCC",11-02-2026 09:00:00,28.530785,77.271255,CO,20,136,122
India,Delhi,Delhi,"Patparganj, Delhi - DPCC",11-02-2026 09:00:00,28.623763,77.287209,PM10,181,468,319
India,Delhi,Delhi,"Punjabi Bagh, Delhi - DPCC",11-02-2026 09:00:00,28.674045,77.131023,NO2,28,116,71
India,Delhi,Delhi,"Punjabi Bagh, Delhi - DPCC",11-02-2026 09:00:00,28.674045,77.131023,SO2,12,26,21
India,Delhi,Delhi,"Punjabi Bagh, Delhi - DPCC",11-02-2026 09:00:00,28.674045,77.131023,CO,40,128,71
India,Chhattisgarh,Milupara,"Govt. Higher Secondary School, Milupara - CECB",11-02-2026 09:00:00,22.1910172,83.5197009,PM10,20,183,72
India,Chhattisgarh,Milupara,"Govt. Higher Secondary School, Milupara - CECB",11-02-2026 09:00:00,22.1910172,83.5197009,NO2,18,62,28
India,Chhattisgarh,Milupara,"Govt. Higher Secondary School, Milupara - CECB",11-02-2026 09:00:00,22.1910172,83.5197009,NH3,1,2,2
India,Chhattisgarh,Raipur,"AIIMS, Raipur - CECB",11-02-2026 09:00:00,21.258815,81.578979,CO,NA,NA,NA
India,Chhattisgarh,Raipur,"Krishak Nagar, Raipur - CECB",11-02-2026 09:00:00,21.237755,81.705301,PM2.5,34,233,67
India,Chhattisgarh,Raipur,"Krishak Nagar, Raipur - CECB",11-02-2026 09:00:00,21.237755,81.705301,NH3,2,2,2
India,Chhattisgarh,Raipur,"Siltara Phase-II, Raipur - CECB",11-02-2026 09:00:00,21.371751,81.664929,NH3,2,2,2
India,Delhi,Delhi,"Lodhi Road, Delhi - IMD",11-02-2026 09:00:00,28.5918245,77.2273074,NO2,23,76,46
India,Delhi,Delhi,"Lodhi Road, Delhi - IMD",11-02-2026 09:00:00,28.5918245,77.2273074,OZONE,21,159,29
India,Delhi,Delhi,"Major Dhyan Chand National Stadium, Delhi - DPCC",11-02-2026 09:00:00,28.611281,77.237738,PM2.5,65,406,259
India,Delhi,Delhi,"Mundka, Delhi - DPCC",11-02-2026 09:00:00,28.684678,77.076574,PM2.5,97,500,375
India,Delhi,Delhi,"Mundka, Delhi - DPCC",11-02-2026 09:00:00,28.684678,77.076574,PM10,146,500,350
India,Delhi,Delhi,"NSIT Dwarka, Delhi - CPCB",11-02-2026 09:00:00,28.60909,77.0325413,PM2.5,124,319,186
India,Delhi,Delhi,"IGI Airport (T3), Delhi - IMD",11-02-2026 09:00:00,28.5627763,77.1180053,CO,12,112,102
India,Delhi,Delhi,"IHBAS, Dilshad Garden, Delhi - CPCB",11-02-2026 09:00:00,28.6811736,77.3025234,NO2,16,132,87
India,Delhi,Delhi,"ITO, Delhi - CPCB",11-02-2026 09:00:00,28.628624,77.241060,OZONE,21,51,22
India,Delhi,Delhi,"Jahangirpuri, Delhi - DPCC",11-02-2026 09:00:00,28.732820,77.170633,SO2,47,66,54
India,Delhi,Delhi,"Jawaharlal Nehru Stadium, Delhi - DPCC",11-02-2026 09:00:00,28.580280,77.233829,CO,87,145,110
India,Bihar,Siwan,"Chitragupta Nagar, Siwan - BSPCB",11-02-2026 09:00:00,26.2271665,84.3570427,PM10,NA,NA,NA
India,Chandigarh,Chandigarh,"Sector 22, Chandigarh - CPCC",11-02-2026 09:00:00,30.735567,76.775714,NO2,7,308,47
India,Chandigarh,Chandigarh,"Sector-25, Chandigarh - CPCC",11-02-2026 09:00:00,30.751462,76.762879,NH3,8,9,9
India,Chandigarh,Chandigarh,"Sector-25, Chandigarh - CPCC",11-02-2026 09:00:00,30.751462,76.762879,CO,15,65,26
India,Chhattisgarh,Bhilai,"32Bungalows, Bhilai - CECB",11-02-2026 09:00:00,21.194815,81.314770,PM10,18,143,67
India,Chhattisgarh,Bhilai,"32Bungalows, Bhilai - CECB",11-02-2026 09:00:00,21.194815,81.314770,NO2,24,50,35
India,Chhattisgarh,Bhilai,"Civic Center, Bhilai - Bhilai Steel Plant",11-02-2026 09:00:00,21.185571,81.343175,PM10,22,127,54
India,Delhi,Delhi,"Sonia Vihar, Delhi - DPCC",11-02-2026 09:00:00,28.710508,77.249485,NH3,7,9,8
India,Delhi,Delhi,"Sri Aurobindo Marg, Delhi - DPCC",11-02-2026 09:00:00,28.531346,77.190156,NO2,25,108,48
India,Delhi,Delhi,"Sri Aurobindo Marg, Delhi - DPCC",11-02-2026 09:00:00,28.531346,77.190156,OZONE,1,105,2
India,Delhi,Delhi,"Vivek Vihar, Delhi - DPCC",11-02-2026 09:00:00,28.672342,77.315260,PM2.5,222,446,348
India,Delhi,Delhi,"Vivek Vihar, Delhi - DPCC",11-02-2026 09:00:00,28.672342,77.315260,SO2,6,26,15
India,Delhi,Delhi,"Wazirpur, Delhi - DPCC",11-02-2026 09:00:00,28.699793,77.165453,PM2.5,120,471,354
India,Delhi,Delhi,"Wazirpur, Delhi - DPCC",11-02-2026 09:00:00,28.699793,77.165453,OZONE,6,302,10
India,Gujarat,Ahmedabad,"Chandkheda, Ahmedabad - IITM",11-02-2026 09:00:00,23.107969,72.574648,NO2,13,72,44
India,Gujarat,Ahmedabad,"Chandkheda, Ahmedabad - IITM",11-02-2026 09:00:00,23.107969,72.574648,SO2,10,54,20
India,Gujarat,Ahmedabad,"Gyaspur, Ahmedabad - IITM",11-02-2026 09:00:00,22.977134,72.553024,PM10,93,162,121
India,Gujarat,Ahmedabad,"Gyaspur, Ahmedabad - IITM",11-02-2026 09:00:00,22.977134,72.553024,NO2,46,122,71
India,Gujarat,Rajkot,"Mavdi, Rajkot - Nexteng Enviro ",11-02-2026 09:00:00,22.248853,70.776774,NH3,3,6,4
India,Gujarat,Rajkot,"Mavdi, Rajkot - Nexteng Enviro ",11-02-2026 09:00:00,22.248853,70.776774,SO2,1,36,10
India,Gujarat,Rajkot,"Mavdi, Rajkot - Nexteng Enviro ",11-02-2026 09:00:00,22.248853,70.776774,OZONE,6,26,8
India,Gujarat,Surat,"Katargam, Surat - Nexteng Enviro",11-02-2026 09:00:00,21.217779 ,72.834787 ,PM10,91,193,133
India,Gujarat,Surat,"Katargam, Surat - Nexteng Enviro",11-02-2026 09:00:00,21.217779 ,72.834787 ,NH3,3,5,3
India,Gujarat,Surat,"Science Center, Surat - SMC",11-02-2026 09:00:00,21.170046,72.795405,PM10,46,77,60
India,Gujarat,Vadodara,"Bapunagar, Vadodara - Nexteng Enviro",11-02-2026 09:00:00,22.320153,73.216285,NH3,2,3,2
India,Gujarat,Vadodara,"Bapunagar, Vadodara - Nexteng Enviro",11-02-2026 09:00:00,22.320153,73.216285,OZONE,1,4,1
India,Gujarat,Vapi,"Phase-1 GIDC, Vapi - GPCB",11-02-2026 09:00:00,20.362421,72.918013,NO2,13,15,14
India,Gujarat,Vatva,"Phase-4 GIDC, Vatva - GPCB",11-02-2026 09:00:00,22.969611,72.643500,PM2.5,92,390,234
India,Delhi,Delhi,"Pusa, Delhi - IMD",11-02-2026 09:00:00,28.636110,77.173332,OZONE,43,129,48
India,Delhi,Delhi,"R K Puram, Delhi - DPCC",11-02-2026 09:00:00,28.563262,77.186937,PM2.5,97,420,283
India,Delhi,Delhi,"Rohini, Delhi - DPCC",11-02-2026 09:00:00,28.732528,77.119920,SO2,11,20,14
India,Delhi,Delhi,"Rohini, Delhi - DPCC",11-02-2026 09:00:00,28.732528,77.119920,OZONE,5,304,8
India,Delhi,Delhi,"Shadipur, Delhi - CPCB",11-02-2026 09:00:00,28.6514781,77.1473105,PM2.5,171,500,356
India,Delhi,Delhi,"Shadipur, Delhi - CPCB",11-02-2026 09:00:00,28.6514781,77.1473105,NO2,54,260,103
India,Delhi,Delhi,"Shadipur, Delhi - CPCB",11-02-2026 09:00:00,28.6514781,77.1473105,SO2,8,21,14
India,Delhi,Delhi,"Sirifort, Delhi - CPCB",11-02-2026 09:00:00,28.5504249,77.2159377,PM10,179,500,363
India,Delhi,Delhi,"Sirifort, Delhi - CPCB",11-02-2026 09:00:00,28.5504249,77.2159377,NH3,5,8,7
India,Gujarat,Ahmedabad,"Gyaspur, Ahmedabad - IITM",11-02-2026 09:00:00,22.977134,72.553024,OZONE,NA,NA,NA
India,Gujarat,Ahmedabad,"Maninagar, Ahmedabad - GPCB",11-02-2026 09:00:00,23.002657,72.591912,SO2,24,50,38
India,Gujarat,Ahmedabad,"Raikhad, Ahmedabad - IITM",11-02-2026 09:00:00,23.020509,72.579261,PM2.5,49,98,70
India,Gujarat,Ahmedabad,"Rakhial, Ahmedabad - IITM",11-02-2026 09:00:00,23.016834,72.625775,PM10,99,183,132
India,Gujarat,Ahmedabad,"SAC ISRO Satellite, Ahmedabad - IITM",11-02-2026 09:00:00,23.023389,72.515201,PM10,79,162,111
India,Gujarat,Ahmedabad,"SAC ISRO Satellite, Ahmedabad - IITM",11-02-2026 09:00:00,23.023389,72.515201,NH3,5,15,10
India,Gujarat,Ahmedabad,"SVPI Airport Hansol, Ahmedabad - IITM",11-02-2026 09:00:00,23.076793,72.627874,PM10,83,147,120
India,Haryana,Bahadurgarh,"Arya Nagar, Bahadurgarh - HSPCB",11-02-2026 09:00:00,28.6701,76.9254,NH3,12,13,13
India,Haryana,Bhiwani,"H.B. Colony, Bhiwani - HSPCB",11-02-2026 09:00:00,28.806223,76.141105,NO2,1,34,31
India,Haryana,Charkhi Dadri,"Mini Secretariat, Charkhi Dadri - HSPCB",11-02-2026 09:00:00,28.593883,76.270653,NO2,9,24,15
India,Haryana,Charkhi Dadri,"Mini Secretariat, Charkhi Dadri - HSPCB",11-02-2026 09:00:00,28.593883,76.270653,SO2,10,11,11
India,Haryana,Charkhi Dadri,"Mini Secretariat, Charkhi Dadri - HSPCB",11-02-2026 09:00:00,28.593883,76.270653,CO,10,25,15
India,Haryana,Dharuhera,"Municipal Corporation Office, Dharuhera -  HSPCB",11-02-2026 09:00:00,28.206800,76.799700,OZONE,4,31,6
India,Haryana,Faridabad,"New Industrial Town, Faridabad - HSPCB",11-02-2026 09:00:00,28.39072,77.30059,PM10,129,138,133
India,Haryana,Faridabad,"Sector 11, Faridabad - HSPCB",11-02-2026 09:00:00,28.376058,77.315741,PM10,103,417,205
India,Haryana,Faridabad,"Sector 11, Faridabad - HSPCB",11-02-2026 09:00:00,28.376058,77.315741,CO,10,55,42
India,Haryana,Fatehabad,"Huda Sector, Fatehabad - HSPCB",11-02-2026 09:00:00,29.503664,75.467934,NH3,13,15,14
India,Haryana,Gurugram,"NISE Gwal Pahari, Gurugram - IMD",11-02-2026 09:00:00,28.422681,77.148944,PM2.5,89,353,223
India,Haryana,Karnal,"Sector-12, Karnal - HSPCB",11-02-2026 09:00:00,29.695300,77.002700,SO2,6,6,6
India,Haryana,Mandikhera,"General Hospital, Mandikhera(Nuh) - HSPCB",11-02-2026 09:00:00,27.9002,76.9938,SO2,31,37,34
India,Haryana,Manesar,"Sector-2 IMT, Manesar - HSPCB",11-02-2026 09:00:00,28.360699,76.936090,PM2.5,94,312,231
India,Haryana,Narnaul,"Shastri Nagar, Narnaul - HSPCB",11-02-2026 09:00:00,28.060249,76.113115,NO2,49,89,63
India,Haryana,Narnaul,"Shastri Nagar, Narnaul - HSPCB",11-02-2026 09:00:00,28.060249,76.113115,CO,36,54,50
India,Haryana,Gurugram,"Teri Gram, Gurugram - HSPCB",11-02-2026 09:00:00,28.4275,77.1465,CO,54,103,100
India,Haryana,Gurugram,"Vikas Sadan, Gurugram - HSPCB",11-02-2026 09:00:00,28.4501238,77.0263051,OZONE,4,31,12
India,Haryana,Hisar,"Urban Estate-II, Hisar - HSPCB",11-02-2026 09:00:00,29.140560,75.744941,PM2.5,42,91,65
India,Haryana,Hisar,"Urban Estate-II, Hisar - HSPCB",11-02-2026 09:00:00,29.140560,75.744941,NO2,26,27,26
India,Haryana,Kaithal,"Rishi Nagar, Kaithal - HSPCB",11-02-2026 09:00:00,29.8006,76.4155,SO2,28,34,31
India,Gujarat,Ankleshwar,"GIDC, Ankleshwar - GPCB",11-02-2026 09:00:00,21.613267,73.010555,PM10,85,121,106
India,Gujarat,Gandhinagar,"GIFT City, Gandhinagar - IITM",11-02-2026 09:00:00,23.163798,72.677768,PM2.5,44,161,84
India,Gujarat,Gandhinagar,"IIPHG Lekawada, Gandhinagar - IITM",11-02-2026 09:00:00,23.243639,72.68994,CO,24,73,61
India,Karnataka,Bengaluru,"Shivapura_Peenya, Bengaluru - KSPCB",11-02-2026 09:00:00,13.0246342,77.5080115,NH3,2,3,3
India,Karnataka,Bengaluru,"Shivapura_Peenya, Bengaluru - KSPCB",11-02-2026 09:00:00,13.0246342,77.5080115,CO,24,44,38
India,Karnataka,Bengaluru,"Silk Board, Bengaluru - KSPCB",11-02-2026 09:00:00,12.917348,77.622813,PM10,96,182,131
India,Karnataka,Bengaluru,"Silk Board, Bengaluru - KSPCB",11-02-2026 09:00:00,12.917348,77.622813,OZONE,28,154,60
India,Karnataka,Chikkaballapur,"Chikkaballapur Rural, Chikkaballapur - KSPCB",11-02-2026 09:00:00,13.428828,77.731418,PM2.5,NA,NA,NA
India,Karnataka,Chikkaballapur,"Chikkaballapur Rural, Chikkaballapur - KSPCB",11-02-2026 09:00:00,13.428828,77.731418,PM10,NA,NA,NA
India,Karnataka,Chikkaballapur,"Chikkaballapur Rural, Chikkaballapur - KSPCB",11-02-2026 09:00:00,13.428828,77.731418,SO2,7,17,13
India,Karnataka,Chikkamagaluru,"Kalyana Nagara, Chikkamagaluru - KSPCB",11-02-2026 09:00:00,13.328028,75.797056,PM2.5,19,108,52
India,Karnataka,Chikkamagaluru,"Kalyana Nagara, Chikkamagaluru - KSPCB",11-02-2026 09:00:00,13.328028,75.797056,NO2,20,28,23
India,Karnataka,Chikkamagaluru,"Kalyana Nagara, Chikkamagaluru - KSPCB",11-02-2026 09:00:00,13.328028,75.797056,CO,11,12,11
India,Karnataka,Dharwad,"Kalabhavan, Dharwad - KSPCB",11-02-2026 09:00:00,15.459706,75.008381,NO2,25,28,27
India,Karnataka,Dharwad,"Kalabhavan, Dharwad - KSPCB",11-02-2026 09:00:00,15.459706,75.008381,SO2,7,10,9
India,Karnataka,Bengaluru,"Jayanagar 5th Block, Bengaluru - KSPCB",11-02-2026 09:00:00,12.920984,77.584908,PM2.5,55,109,86
India,Karnataka,Bengaluru,"Jigani, Bengaluru - KSPCB",11-02-2026 09:00:00,12.7816279,77.6299145,PM10,79,124,111
India,Karnataka,Bengaluru,"Jigani, Bengaluru - KSPCB",11-02-2026 09:00:00,12.7816279,77.6299145,NH3,4,4,4
India,Karnataka,Bengaluru,"Kasturi Nagar, Bengaluru - KSPCB",11-02-2026 09:00:00,13.003872,77.664217,OZONE,25,29,25
India,Karnataka,Bengaluru,"Peenya, Bengaluru - CPCB",11-02-2026 09:00:00,13.0270199,77.494094,PM2.5,21,44,32
India,Karnataka,Bengaluru,"Peenya, Bengaluru - CPCB",11-02-2026 09:00:00,13.0270199,77.494094,NH3,3,5,4
India,Karnataka,Bengaluru,"Peenya, Bengaluru - CPCB",11-02-2026 09:00:00,13.0270199,77.494094,OZONE,20,21,21
India,Karnataka,Bengaluru,"RVCE-Mailasandra, Bengaluru - KSPCB",11-02-2026 09:00:00,12.921418,77.502466,PM10,89,182,127
India,Karnataka,Bengaluru,"RVCE-Mailasandra, Bengaluru - KSPCB",11-02-2026 09:00:00,12.921418,77.502466,NH3,3,4,4
India,Karnataka,Bengaluru,"RVCE-Mailasandra, Bengaluru - KSPCB",11-02-2026 09:00:00,12.921418,77.502466,OZONE,22,25,23
India,Karnataka,Bengaluru,"Sanegurava Halli, Bengaluru - KSPCB",11-02-2026 09:00:00,12.990328,77.5431385,SO2,6,6,6
India,Karnataka,Shivamogga,"Vinoba Nagara, Shivamogga - KSPCB",11-02-2026 09:00:00,13.940000,75.555917,PM10,45,71,48
India,Karnataka,Shivamogga,"Vinoba Nagara, Shivamogga - KSPCB",11-02-2026 09:00:00,13.940000,75.555917,NH3,3,4,4
India,Karnataka,Shivamogga,"Vinoba Nagara, Shivamogga - KSPCB",11-02-2026 09:00:00,13.940000,75.555917,OZONE,13,81,20
India,Karnataka,Vijayapura,"Ibrahimpur, Vijayapura - KSPCB",11-02-2026 09:00:00,16.802639,75.722694,PM2.5,30,31,30
India,Karnataka,Vijayapura,"Ibrahimpur, Vijayapura - KSPCB",11-02-2026 09:00:00,16.802639,75.722694,PM10,61,63,62
India,Karnataka,Yadgir,"Collector Office, Yadgir - KSPCB",11-02-2026 09:00:00,16.7602,77.1428,NH3,2,2,2
India,Kerala,Eloor,"Udyogamandal, Eloor - Kerala PCB",11-02-2026 09:00:00,10.073232,76.302765,PM10,72,108,93
India,Kerala,Eloor,"Udyogamandal, Eloor - Kerala PCB",11-02-2026 09:00:00,10.073232,76.302765,NO2,7,8,8
India,Kerala,Kannur,"Thavakkara, Kannur - Kerala PCB",11-02-2026 09:00:00,11.875000,75.373200,NH3,2,2,2
India,Kerala,Kannur,"Thavakkara, Kannur - Kerala PCB",11-02-2026 09:00:00,11.875000,75.373200,OZONE,28,32,28
India,Kerala,Kollam,"Polayathode, Kollam - Kerala PCB",11-02-2026 09:00:00,8.8787,76.6073,PM2.5,43,204,70
India,Kerala,Kollam,"Polayathode, Kollam - Kerala PCB",11-02-2026 09:00:00,8.8787,76.6073,PM10,72,111,81
India,Kerala,Kollam,"Polayathode, Kollam - Kerala PCB",11-02-2026 09:00:00,8.8787,76.6073,NH3,1,1,1
India,Kerala,Thiruvananthapuram,"Kariavattom, Thiruvananthapuram - Kerala PCB",11-02-2026 09:00:00,8.563700,76.886500,PM10,32,147,97
India,Kerala,Thiruvananthapuram,"Kariavattom, Thiruvananthapuram - Kerala PCB",11-02-2026 09:00:00,8.563700,76.886500,CO,8,24,22
India,Kerala,Thrissur,"Corporation Ground, Thrissur - Kerala PCB",11-02-2026 09:00:00,10.532400,76.215900,CO,18,28,23
India,Haryana,Sonipat,"Murthal, Sonipat - HSPCB",11-02-2026 09:00:00,29.027200,77.062100,OZONE,25,26,26
India,Haryana,Yamuna Nagar,"Gobind Pura, Yamuna Nagar - HSPCB",11-02-2026 09:00:00,30.1480566,77.2893471,NO2,36,38,37
India,Haryana,Yamuna Nagar,"Gobind Pura, Yamuna Nagar - HSPCB",11-02-2026 09:00:00,30.1480566,77.2893471,SO2,9,15,10
India,Himachal Pradesh,Baddi,"HIMUDA Complex Phase-1, Baddi - HPPCB",11-02-2026 09:00:00,30.943887,76.801991,NO2,12,90,34
India,Jharkhand,Dhanbad,"Sardar Patel Nagar, Dhanbad - JSPCB",11-02-2026 09:00:00,23.80569,86.44268,PM2.5,NA,NA,NA
India,Karnataka,Bagalkot,"Vidayagiri, Bagalkot - KSPCB",11-02-2026 09:00:00,16.172806,75.659694,CO,7,40,24
India,Haryana,Palwal,"Shyam Nagar, Palwal - HSPCB",11-02-2026 09:00:00,28.1485564,77.3320667,OZONE,14,17,16
India,Haryana,Panchgaon,"Amity University, Panchgaon - IITM",11-02-2026 09:00:00,28.3153,76.9143,PM10,7,222,49
India,Haryana,Panipat,"Sector-18, Panipat - HSPCB",11-02-2026 09:00:00,29.432304,76.972765,OZONE,30,30,30
India,Haryana,Sirsa,"F-Block, Sirsa - HSPCB",11-02-2026 09:00:00,29.536400,75.015800,PM10,NA,NA,NA
India,Haryana,Sirsa,"F-Block, Sirsa - HSPCB",11-02-2026 09:00:00,29.536400,75.015800,OZONE,NA,NA,NA
India,Haryana,Sonipat,"Murthal, Sonipat - HSPCB",11-02-2026 09:00:00,29.027200,77.062100,PM10,53,113,84
India,Haryana,Sonipat,"Murthal, Sonipat - HSPCB",11-02-2026 09:00:00,29.027200,77.062100,NO2,12,17,13
India,Karnataka,Bengaluru,"Bapuji Nagar, Bengaluru - KSPCB",11-02-2026 09:00:00,12.951913,77.539784,PM2.5,NA,NA,NA
India,Karnataka,Bengaluru,"Bapuji Nagar, Bengaluru - KSPCB",11-02-2026 09:00:00,12.951913,77.539784,NH3,NA,NA,NA
India,Karnataka,Bengaluru,"Bapuji Nagar, Bengaluru - KSPCB",11-02-2026 09:00:00,12.951913,77.539784,SO2,NA,NA,NA
India,Karnataka,Bengaluru,"City Railway Station, Bengaluru - KSPCB",11-02-2026 09:00:00,12.9756843,77.5660749,NO2,33,38,35
India,Karnataka,Bengaluru,"Hebbal, Bengaluru - KSPCB",11-02-2026 09:00:00,13.029152,77.585901,OZONE,7,18,8
India,Karnataka,Bengaluru,"Hombegowda Nagar, Bengaluru - KSPCB",11-02-2026 09:00:00,12.938539,77.590100,OZONE,27,64,37
India,Madhya Pradesh,Bhopal,"Paryavaran Parisar, Bhopal - MPPCB",11-02-2026 09:00:00,23.210494,77.425409,SO2,4,18,11
India,Madhya Pradesh,Bhopal,"T T Nagar, Bhopal - MPPCB",11-02-2026 09:00:00,23.233584,77.400574,PM10,102,285,142
India,Madhya Pradesh,Bhopal,"T T Nagar, Bhopal - MPPCB",11-02-2026 09:00:00,23.233584,77.400574,NO2,24,92,52
India,Madhya Pradesh,Dewas,"Bhopal Chauraha, Dewas - MPPCB",11-02-2026 09:00:00,22.9682591,76.064118,PM10,85,151,121
India,Madhya Pradesh,Gwalior,"City Center, Gwalior - MPPCB",11-02-2026 09:00:00,26.203442,78.193251,NO2,47,108,79
India,Karnataka,Dharwad,"Kalabhavan, Dharwad - KSPCB",11-02-2026 09:00:00,15.459706,75.008381,OZONE,23,31,23
India,Karnataka,Madikeri,"Stuart Hill, Madikeri - KSPCB",11-02-2026 09:00:00,12.415911,75.735050,SO2,7,7,7
India,Karnataka,Mysuru,"Hebbal 1st Stage, Mysuru - KSPCB",11-02-2026 09:00:00,12.21041,76.37376,PM10,58,107,81
India,Karnataka,Mysuru,"Hebbal 1st Stage, Mysuru - KSPCB",11-02-2026 09:00:00,12.21041,76.37376,NO2,14,27,20
India,Madhya Pradesh,Sagar,"Civil Lines, Sagar - MPPCB",11-02-2026 09:00:00,23.838586,78.759431,OZONE,51,120,75
India,Madhya Pradesh,Sagar,"Deen Dayal Nagar, Sagar - MPPCB",11-02-2026 09:00:00,23.8640158,78.80289321,PM2.5,29,140,59
India,Madhya Pradesh,Satna,"Bandhavgar Colony, Satna - Birla Cement",11-02-2026 09:00:00,24.58434363,80.8549414,NO2,12,13,12
India,Madhya Pradesh,Satna,"Bandhavgar Colony, Satna - Birla Cement",11-02-2026 09:00:00,24.58434363,80.8549414,SO2,19,21,20
India,Madhya Pradesh,Singrauli,"Suryakiran Bhawan NCL, Singrauli - MPPCB",11-02-2026 09:00:00,24.108970,82.645580,SO2,44,110,68
India,Madhya Pradesh,Ujjain,"Mahashweta Nagar, Ujjain - MPPCB",11-02-2026 09:00:00,23.1633321,75.800225,CO,40,118,102
India,Maharashtra,Ahmednagar,"Tarakpur, Ahmednagar - MPCB",11-02-2026 09:00:00,19.10122,74.73339,PM2.5,NA,NA,NA
India,Maharashtra,Boisar,"Khaira, Boisar - MPCB",11-02-2026 09:00:00,19.786089,72.757971,OZONE,15,140,27
India,Maharashtra,Chandrapur,"Chauhan Colony, Chandrapur - MPCB",11-02-2026 09:00:00,19.962900,79.298714,NO2,30,43,33
India,Maharashtra,Chandrapur,"Chauhan Colony, Chandrapur - MPCB",11-02-2026 09:00:00,19.962900,79.298714,CO,26,113,29
India,Maharashtra,Chandrapur,"MIDC Khutala, Chandrapur - MPCB",11-02-2026 09:00:00,19.9775302,79.2337086,NH3,1,6,3
India,Maharashtra,Chandrapur,"MIDC Khutala, Chandrapur - MPCB",11-02-2026 09:00:00,19.9775302,79.2337086,CO,37,41,39
India,Maharashtra,Chandrapur,"MIDC Khutala, Chandrapur - MPCB",11-02-2026 09:00:00,19.9775302,79.2337086,OZONE,17,19,18
India,Maharashtra,Jalgaon,"Prabhat Colony, Jalgaon - MPCB",11-02-2026 09:00:00,21.001264,75.565602,PM10,55,132,90
India,Maharashtra,Jalgaon,"Prabhat Colony, Jalgaon - MPCB",11-02-2026 09:00:00,21.001264,75.565602,SO2,4,14,9
India,Maharashtra,Jalna,"Old MIDC, Jalna - MPCB",11-02-2026 09:00:00,19.854616,75.905894,NH3,NA,NA,NA
India,Maharashtra,Akola,"Ramdaspeth, Akola - MPCB",11-02-2026 09:00:00,20.719516,77.000253,PM10,53,140,93
India,Maharashtra,Akola,"Ramdaspeth, Akola - MPCB",11-02-2026 09:00:00,20.719516,77.000253,NO2,12,116,39
India,Maharashtra,Akola,"Ramdaspeth, Akola - MPCB",11-02-2026 09:00:00,20.719516,77.000253,CO,17,50,20
India,Maharashtra,Amravati,"Shivneri Colony, Amravati - MPCB",11-02-2026 09:00:00,20.9402359,77.7895248,NH3,NA,NA,NA
India,Maharashtra,Amravati,"Shri Shivaji Science College, Amravati - MPCB",11-02-2026 09:00:00,20.939198,77.765701,NH3,1,8,3
India,Maharashtra,Amravati,"Shri Shivaji Science College, Amravati - MPCB",11-02-2026 09:00:00,20.939198,77.765701,CO,27,72,37
India,Maharashtra,Aurangabad,"MIDC Chilkalthana, Aurangabad - MPCB",11-02-2026 09:00:00,19.875620,75.387310,NO2,21,101,55
India,Maharashtra,Aurangabad,"More Chowk Waluj, Aurangabad - MPCB",11-02-2026 09:00:00,19.8389439,75.244448,PM10,72,126,98
India,Maharashtra,Kalyan,"Khadakpada, Kalyan - MPCB",11-02-2026 09:00:00,19.25292,73.142019,PM2.5,51,159,84
India,Maharashtra,Kalyan,"Khadakpada, Kalyan - MPCB",11-02-2026 09:00:00,19.25292,73.142019,NO2,36,36,36
India,Maharashtra,Kolhapur,"Shivaji University, Kolhapur - MPCB",11-02-2026 09:00:00,16.6870449,74.2505872,NO2,20,86,41
India,Maharashtra,Kolhapur,"Shivaji University, Kolhapur - MPCB",11-02-2026 09:00:00,16.6870449,74.2505872,NH3,4,5,4
India,Maharashtra,Kolhapur,"Shivaji University, Kolhapur - MPCB",11-02-2026 09:00:00,16.6870449,74.2505872,CO,9,44,32
India,Maharashtra,Kolhapur,"Shivaji University, Kolhapur - MPCB",11-02-2026 09:00:00,16.6870449,74.2505872,OZONE,8,85,17
India,Maharashtra,Kolhapur,"Sinchan Bhavan, Kolhapur - MPCB",11-02-2026 09:00:00,16.7143745,74.2426398,PM10,62,431,131
India,Maharashtra,Latur,"Sawe Wadi, Latur - MPCB",11-02-2026 09:00:00,18.39963,76.57452,PM10,55,101,81
India,Maharashtra,Latur,"Sawe Wadi, Latur - MPCB",11-02-2026 09:00:00,18.39963,76.57452,SO2,NA,NA,NA
India,Maharashtra,Mira-Bhayandar,"Bhayandar West, Mira-Bhayandar - MPCB",11-02-2026 09:00:00,19.296481,72.840923,PM2.5,65,145,89
India,Maharashtra,Mira-Bhayandar,"Bhayandar West, Mira-Bhayandar - MPCB",11-02-2026 09:00:00,19.296481,72.840923,NH3,3,11,6
India,Maharashtra,Mira-Bhayandar,"Bhayandar West, Mira-Bhayandar - MPCB",11-02-2026 09:00:00,19.296481,72.840923,SO2,14,19,16
India,Maharashtra,Mumbai,"Bandra Kurla Complex, Mumbai - IITM",11-02-2026 09:00:00,19.053536,72.84643,NO2,NA,NA,NA
India,Maharashtra,Mumbai,"Bandra Kurla Complex, Mumbai - MPCB",11-02-2026 09:00:00,19.065931,72.862131,NO2,35,107,68
India,Maharashtra,Mumbai,"Borivali East, Mumbai - IITM",11-02-2026 09:00:00,19.23241,72.86895,PM2.5,85,136,100
India,Maharashtra,Mumbai,"Borivali East, Mumbai - IITM",11-02-2026 09:00:00,19.23241,72.86895,PM10,106,139,122
India,Maharashtra,Mumbai,"Borivali East, Mumbai - IITM",11-02-2026 09:00:00,19.23241,72.86895,NH3,2,7,4
India,Madhya Pradesh,Katni,"Gole Bazar, Katni - MPPCB",11-02-2026 09:00:00,23.50016,80.23284,PM10,50,105,71
India,Madhya Pradesh,Mandideep,"Sector-D Industrial Area, Mandideep - MPPCB",11-02-2026 09:00:00,23.108440,77.511428,OZONE,18,79,22
India,Madhya Pradesh,Pithampur,"Sector-2 Industrial Area, Pithampur - MPPCB",11-02-2026 09:00:00,22.624758,75.675238,NO2,34,50,42
India,Madhya Pradesh,Pithampur,"Sector-2 Industrial Area, Pithampur - MPPCB",11-02-2026 09:00:00,22.624758,75.675238,CO,16,56,27
India,Madhya Pradesh,Pithampur,"Sector-2 Industrial Area, Pithampur - MPPCB",11-02-2026 09:00:00,22.624758,75.675238,OZONE,88,167,100
India,Madhya Pradesh,Sagar,"Civil Lines, Sagar - MPPCB",11-02-2026 09:00:00,23.838586,78.759431,NO2,8,61,24
India,Madhya Pradesh,Indore,"Residency Area, Indore - IMC",11-02-2026 09:00:00,22.7084,75.8815,PM2.5,49,295,125
India,Madhya Pradesh,Indore,"Residency Area, Indore - IMC",11-02-2026 09:00:00,22.7084,75.8815,NO2,20,37,28
India,Madhya Pradesh,Jabalpur,"Govindh Bhavan Colony, Jabalpur - JMC",11-02-2026 09:00:00,23.163174,79.973061,PM2.5,37,177,58
India,Madhya Pradesh,Jabalpur,"Gupteshwar, Jabalpur - JMC",11-02-2026 09:00:00,23.142888,79.916147,PM10,29,88,57
India,Madhya Pradesh,Jabalpur,"Gupteshwar, Jabalpur - JMC",11-02-2026 09:00:00,23.142888,79.916147,CO,32,123,45
India,Madhya Pradesh,Jabalpur,"Marhatal, Jabalpur - MPPCB",11-02-2026 09:00:00,23.168606,79.932247,NH3,2,2,2
India,Maharashtra,Aurangabad,"Rachnakar Colony, Aurangabad - MPCB",11-02-2026 09:00:00,19.863756,75.321188,OZONE,13,86,15
India,Maharashtra,Badlapur,"Katrap, Badlapur - MPCB",11-02-2026 09:00:00,19.16485,73.23409,NH3,4,9,6
India,Maharashtra,Bhiwandi,"Gokul Nagar, Bhiwandi - MPCB",11-02-2026 09:00:00,19.309073,73.057223,PM2.5,84,225,118
India,Maharashtra,Bhiwandi,"Gokul Nagar, Bhiwandi - MPCB",11-02-2026 09:00:00,19.309073,73.057223,PM10,106,184,147
India,Maharashtra,Boisar,"Khaira, Boisar - MPCB",11-02-2026 09:00:00,19.786089,72.757971,PM2.5,1,111,42
India,Maharashtra,Boisar,"Khaira, Boisar - MPCB",11-02-2026 09:00:00,19.786089,72.757971,NH3,6,7,6
India,Madhya Pradesh,Gwalior,"Deen Dayal Nagar, Gwalior - MPPCB",11-02-2026 09:00:00,26.259242,78.216432,OZONE,39,122,51
India,Madhya Pradesh,Indore,"Airport Area, Indore - IMC",11-02-2026 09:00:00,22.7289,75.8076,CO,2,20,12
India,Madhya Pradesh,Indore,"Chhoti Gwaltoli, Indore - MPPCB",11-02-2026 09:00:00,22.4310,75.5213,PM10,94,214,146
India,Madhya Pradesh,Indore,"Maguda Nagar, Indore - IMC",11-02-2026 09:00:00,22.7524,75.8872,NO2,10,25,18
India,Madhya Pradesh,Indore,"Maguda Nagar, Indore - IMC",11-02-2026 09:00:00,22.7524,75.8872,CO,30,74,60
India,Maharashtra,Mumbai,"Mulund West, Mumbai - MPCB",11-02-2026 09:00:00,19.1750,72.9419,NH3,4,5,5
India,Maharashtra,Mumbai,"Mulund West, Mumbai - MPCB",11-02-2026 09:00:00,19.1750,72.9419,SO2,NA,NA,NA
India,Maharashtra,Mumbai,"Navy Nagar-Colaba, Mumbai - IITM",11-02-2026 09:00:00,18.897756,72.813320,NO2,NA,NA,NA
India,Maharashtra,Mumbai,"Navy Nagar-Colaba, Mumbai - IITM",11-02-2026 09:00:00,18.897756,72.813320,CO,22,70,62
India,Maharashtra,Mumbai,"Navy Nagar-Colaba, Mumbai - IITM",11-02-2026 09:00:00,18.897756,72.813320,OZONE,11,74,32
India,Maharashtra,Mumbai,"Powai, Mumbai - MPCB",11-02-2026 09:00:00,19.137500,72.915056,PM2.5,56,168,69
India,Maharashtra,Mumbai,"Powai, Mumbai - MPCB",11-02-2026 09:00:00,19.137500,72.915056,NO2,7,8,8
India,Maharashtra,Mumbai,"Sewri, Mumbai - BMC",11-02-2026 09:00:00,19.000084,72.856730,PM2.5,70,187,106
India,Maharashtra,Mumbai,"Sewri, Mumbai - BMC",11-02-2026 09:00:00,19.000084,72.856730,NH3,2,41,14
India,Maharashtra,Mumbai,"Sewri, Mumbai - BMC",11-02-2026 09:00:00,19.000084,72.856730,CO,64,64,64
India,Maharashtra,Mumbai,"Shivaji Nagar, Mumbai - BMC",11-02-2026 09:00:00,19.060498,72.923356,PM10,108,139,123
India,Maharashtra,Mumbai,"Shivaji Nagar, Mumbai - BMC",11-02-2026 09:00:00,19.060498,72.923356,SO2,NA,NA,NA
India,Maharashtra,Mumbai,"Siddharth Nagar-Worli, Mumbai - IITM",11-02-2026 09:00:00,19.000083,72.813993,PM10,66,146,106
India,Maharashtra,Mumbai,"Siddharth Nagar-Worli, Mumbai - IITM",11-02-2026 09:00:00,19.000083,72.813993,NH3,4,10,5
India,Maharashtra,Mumbai,"Siddharth Nagar-Worli, Mumbai - IITM",11-02-2026 09:00:00,19.000083,72.813993,CO,2,75,47
India,Maharashtra,Mumbai,"Borivali East, Mumbai - IITM",11-02-2026 09:00:00,19.23241,72.86895,OZONE,17,63,32
India,Maharashtra,Mumbai,"Borivali East, Mumbai - MPCB",11-02-2026 09:00:00,19.2243333,72.8658113,NH3,1,8,5
India,Maharashtra,Mumbai,"Borivali East, Mumbai - MPCB",11-02-2026 09:00:00,19.2243333,72.8658113,SO2,13,18,16
India,Maharashtra,Mumbai,"Byculla, Mumbai - BMC",11-02-2026 09:00:00,18.9767,72.8380,OZONE,NA,NA,NA
India,Maharashtra,Mumbai,"Chakala-Andheri East, Mumbai - IITM",11-02-2026 09:00:00,19.11074,72.86084,NO2,NA,NA,NA
India,Maharashtra,Mumbai,"Chakala-Andheri East, Mumbai - IITM",11-02-2026 09:00:00,19.11074,72.86084,NH3,NA,NA,NA
India,Maharashtra,Mumbai,"Chakala-Andheri East, Mumbai - IITM",11-02-2026 09:00:00,19.11074,72.86084,CO,2,86,62
India,Maharashtra,Mumbai,"Chakala-Andheri East, Mumbai - IITM",11-02-2026 09:00:00,19.11074,72.86084,OZONE,1,137,2
India,Maharashtra,Mumbai,"Chembur, Mumbai - MPCB",11-02-2026 09:00:00,19.0364585,72.8954371,CO,46,96,61
India,Maharashtra,Mumbai,"Chembur, Mumbai - MPCB",11-02-2026 09:00:00,19.0364585,72.8954371,OZONE,1,75,13
India,Maharashtra,Mumbai,"Chhatrapati Shivaji Intl. Airport (T2), Mumbai - MPCB",11-02-2026 09:00:00,19.10078,72.87462,SO2,19,24,21
India,Maharashtra,Parbhani,"Masoom Colony, Parbhani - MPCB",11-02-2026 09:00:00,19.265594,76.761463,NH3,3,5,4
India,Maharashtra,Parbhani,"Masoom Colony, Parbhani - MPCB",11-02-2026 09:00:00,19.265594,76.761463,CO,8,16,12
India,Maharashtra,Pimpri-Chinchwad,"Park Street Wakad, Pimpri Chinchwad - MPCB",11-02-2026 09:00:00,18.59051,73.77946,PM10,115,185,155
India,Maharashtra,Pimpri-Chinchwad,"Park Street Wakad, Pimpri Chinchwad - MPCB",11-02-2026 09:00:00,18.59051,73.77946,NH3,4,7,5
India,Maharashtra,Pimpri-Chinchwad,"Savta Mali Nagar, Pimpri-Chinchwad - IITM",11-02-2026 09:00:00,18.614767,73.799516,NO2,22,124,68
India,Maharashtra,Pimpri-Chinchwad,"Savta Mali Nagar, Pimpri-Chinchwad - IITM",11-02-2026 09:00:00,18.614767,73.799516,CO,34,104,86
India,Maharashtra,Pimpri-Chinchwad,"Savta Mali Nagar, Pimpri-Chinchwad - IITM",11-02-2026 09:00:00,18.614767,73.799516,OZONE,1,46,6
India,Maharashtra,Pune,"Bhosari, Pune - IITM",11-02-2026 09:00:00,18.640051,73.848956,NO2,8,15,12
India,Maharashtra,Pune,"Bhosari, Pune - IITM",11-02-2026 09:00:00,18.640051,73.848956,OZONE,2,89,6
India,Maharashtra,Nanded,"Sneh Nagar, Nanded - MPCB",11-02-2026 09:00:00,19.173852,77.296291,PM10,80,167,121
India,Maharashtra,Nanded,"Sneh Nagar, Nanded - MPCB",11-02-2026 09:00:00,19.173852,77.296291,NH3,3,5,4
India,Maharashtra,Nashik,"Gangapur Road, Nashik - MPCB",11-02-2026 09:00:00,20.0073285,73.7762427,CO,20,22,22
India,Maharashtra,Nashik,"Hirawadi, Nashik - MPCB",11-02-2026 09:00:00,20.021503,73.813844,PM2.5,65,149,94
India,Maharashtra,Nashik,"Hirawadi, Nashik - MPCB",11-02-2026 09:00:00,20.021503,73.813844,NH3,1,9,3
India,Maharashtra,Nashik,"Hirawadi, Nashik - MPCB",11-02-2026 09:00:00,20.021503,73.813844,CO,50,70,58
India,Maharashtra,Nashik,"Pandav Nagari, Nashik - MPCB",11-02-2026 09:00:00,19.9591346,73.7788008,CO,17,72,41
India,Maharashtra,Navi Mumbai,"Kopripada-Vashi, Navi Mumbai - MPCB",11-02-2026 09:00:00,19.090337,73.014232,PM2.5,49,102,70
India,Maharashtra,Mumbai,"Deonar, Mumbai - IITM",11-02-2026 09:00:00,19.04946,72.9230,PM2.5,65,174,108
India,Maharashtra,Mumbai,"Ghatkopar, Mumbai - BMC",11-02-2026 09:00:00,19.083694,72.920967,PM10,124,150,136
India,Maharashtra,Mumbai,"Ghatkopar, Mumbai - BMC",11-02-2026 09:00:00,19.083694,72.920967,NO2,52,121,77
India,Maharashtra,Mumbai,"Ghatkopar, Mumbai - BMC",11-02-2026 09:00:00,19.083694,72.920967,OZONE,1,76,2
India,Maharashtra,Mumbai,"Kandivali East, Mumbai - MPCB",11-02-2026 09:00:00,19.205800,72.868200,NO2,30,30,30
India,Maharashtra,Mumbai,"Kandivali West, Mumbai - BMC",11-02-2026 09:00:00,19.215859,72.831718,PM2.5,63,107,85
India,Maharashtra,Mumbai,"Kherwadi_Bandra East, Mumbai - MPCB",11-02-2026 09:00:00,19.0632143,72.8456324,PM2.5,83,202,148
India,Maharashtra,Mumbai,"Kherwadi_Bandra East, Mumbai - MPCB",11-02-2026 09:00:00,19.0632143,72.8456324,NO2,15,77,42
India,Maharashtra,Mumbai,"Sion, Mumbai - MPCB",11-02-2026 09:00:00,19.047000,72.874600,NO2,31,40,33
India,Maharashtra,Mumbai,"Sion, Mumbai - MPCB",11-02-2026 09:00:00,19.047000,72.874600,CO,10,16,16
India,Maharashtra,Mumbai,"Vile Parle West, Mumbai - MPCB",11-02-2026 09:00:00,19.10861,72.83622,SO2,47,51,49
India,Maharashtra,Mumbai,"Vile Parle West, Mumbai - MPCB",11-02-2026 09:00:00,19.10861,72.83622,CO,21,23,22
India,Maharashtra,Nagpur,"Ambazari, Nagpur - MPCB",11-02-2026 09:00:00,21.121801,79.04952,OZONE,1,131,14
India,Maharashtra,Nagpur,"Mahal, Nagpur - MPCB",11-02-2026 09:00:00,21.14472,79.107595,PM10,131,181,154
India,Maharashtra,Nagpur,"Ram Nagar, Nagpur - MPCB",11-02-2026 09:00:00,21.143383,79.048912,PM10,111,152,137
India,Maharashtra,Nagpur,"Ram Nagar, Nagpur - MPCB",11-02-2026 09:00:00,21.143383,79.048912,NH3,4,4,4
India,Maharashtra,Mumbai,"Kherwadi_Bandra East, Mumbai - MPCB",11-02-2026 09:00:00,19.0632143,72.8456324,CO,8,58,43
India,Maharashtra,Mumbai,"Khindipada-Bhandup West, Mumbai - IITM",11-02-2026 09:00:00,19.1653323,72.922099,NO2,23,41,28
India,Maharashtra,Mumbai,"Khindipada-Bhandup West, Mumbai - IITM",11-02-2026 09:00:00,19.1653323,72.922099,CO,14,26,15
India,Maharashtra,Mumbai,"Kurla, Mumbai - MPCB",11-02-2026 09:00:00,19.0863,72.8888,PM10,74,375,142
India,Maharashtra,Mumbai,"Kurla, Mumbai - MPCB",11-02-2026 09:00:00,19.0863,72.8888,NH3,2,2,2
India,Maharashtra,Mumbai,"Mazgaon, Mumbai - IITM",11-02-2026 09:00:00,18.96702,72.84214,NO2,NA,NA,NA
India,Maharashtra,Pune,"Bhumkar Nagar, Pune - IITM",11-02-2026 09:00:00,18.605770,73.749976,PM10,NA,NA,NA
India,Maharashtra,Pune,"Bhumkar Nagar, Pune - IITM",11-02-2026 09:00:00,18.605770,73.749976,CO,36,102,70
India,Maharashtra,Pune,"Dhankawadi, Pune - IITM",11-02-2026 09:00:00,18.459883,73.852193,NO2,25,111,72
India,Maharashtra,Pune,"Dhankawadi, Pune - IITM",11-02-2026 09:00:00,18.459883,73.852193,OZONE,11,87,23
India,Maharashtra,Pune,"Hadapsar, Pune - IITM",11-02-2026 09:00:00,18.501793,73.927532,PM2.5,NA,NA,NA
India,Maharashtra,Pune,"Hadapsar, Pune - IITM",11-02-2026 09:00:00,18.501793,73.927532,CO,47,103,92
India,Maharashtra,Pune,"Mhada Colony, Pune - IITM",11-02-2026 09:00:00,18.573040,73.927715,CO,2,103,98
India,Maharashtra,Navi Mumbai,"Kopripada-Vashi, Navi Mumbai - MPCB",11-02-2026 09:00:00,19.090337,73.014232,CO,24,78,28
India,Maharashtra,Navi Mumbai,"Mahape, Navi Mumbai - MPCB",11-02-2026 09:00:00,19.1135051,73.008978,OZONE,7,11,10
India,Maharashtra,Navi Mumbai,"Sanpada, Navi Mumbai - MPCB",11-02-2026 09:00:00,19.0575752,73.0151367,NO2,14,14,14
India,Maharashtra,Navi Mumbai,"Tondare-Taloja, Navi Mumbai - MPCB",11-02-2026 09:00:00,19.0630,73.1209,CO,6,52,14
India,Maharashtra,Pune,"Panchawati_Pashan, Pune - IITM",11-02-2026 09:00:00,18.536457,73.805454,CO,5,26,15
India,Maharashtra,Pune,"Revenue Colony-Shivajinagar, Pune - IITM",11-02-2026 09:00:00,18.530085,73.849598,PM10,NA,NA,NA
India,Maharashtra,Pune,"Transport Nagar-Nigdi, Pune - IITM",11-02-2026 09:00:00,18.664282,73.763966,PM2.5,173,317,252
India,Maharashtra,Pune,"Transport Nagar-Nigdi, Pune - IITM",11-02-2026 09:00:00,18.664282,73.763966,NO2,19,127,58
India,Maharashtra,Pune,"Transport Nagar-Nigdi, Pune - IITM",11-02-2026 09:00:00,18.664282,73.763966,CO,54,95,70
India,Maharashtra,Sangli,"Vijay Nagar, Sangli - MPCB",11-02-2026 09:00:00, 16.5038,74.3623,PM10,68,180,113
India,Maharashtra,Solapur,"Dnyaneshwar Nagar, Solapur - MPCB",11-02-2026 09:00:00,17.6336264,75.9132495,OZONE,4,50,27
India,Maharashtra,Solapur,"Ratandeep Housing Society, Solapur - MPCB",11-02-2026 09:00:00,17.65439,75.90649,PM10,68,219,114
India,Maharashtra,Solapur,"Ratandeep Housing Society, Solapur - MPCB",11-02-2026 09:00:00,17.65439,75.90649,NO2,14,138,47
India,Maharashtra,Solapur,"Ratandeep Housing Society, Solapur - MPCB",11-02-2026 09:00:00,17.65439,75.90649,NH3,2,47,9
India,Maharashtra,Thane,"Kasarvadavali, Thane - MPCB",11-02-2026 09:00:00,19.26777,72.97182,PM2.5,48,69,54
India,Maharashtra,Thane,"Kasarvadavali, Thane - MPCB",11-02-2026 09:00:00,19.26777,72.97182,NO2,36,136,68
India,Maharashtra,Thane,"Kasarvadavali, Thane - MPCB",11-02-2026 09:00:00,19.26777,72.97182,CO,19,72,31
India,Maharashtra,Thane,"Upvan Fort, Thane - MPCB",11-02-2026 09:00:00,19.222279,72.957979,SO2,23,39,31
India,Maharashtra,Ulhasnagar,"Sidhi Vinayak Nagar, Ulhasnagar - MPCB",11-02-2026 09:00:00,19.235581,73.159121,PM10,113,170,132
India,Maharashtra,Ulhasnagar,"Sidhi Vinayak Nagar, Ulhasnagar - MPCB",11-02-2026 09:00:00,19.235581,73.159121,SO2,9,59,20
India,Maharashtra,Virar,"Bolinj, Virar - MPCB",11-02-2026 09:00:00,19.4458210,72.7988231,NO2,14,57,23
India,Maharashtra,Virar,"Bolinj, Virar - MPCB",11-02-2026 09:00:00,19.4458210,72.7988231,NH3,2,4,3
India,Meghalaya,Shillong,"Lumpyngngad, Shillong - Meghalaya PCB",11-02-2026 09:00:00,25.5586,91.8985,NO2,NA,NA,NA
India,Punjab,Ludhiana,"Punjab Agricultural University, Ludhiana - PPCB",11-02-2026 09:00:00,30.9028,75.8086,CO,54,101,64
India,Punjab,Mandi Gobindgarh,"RIMT University, Mandi Gobindgarh - PPCB",11-02-2026 09:00:00,30.649961,76.331442,SO2,3,83,32
India,Punjab,Mandi Gobindgarh,"RIMT University, Mandi Gobindgarh - PPCB",11-02-2026 09:00:00,30.649961,76.331442,OZONE,37,43,38
India,Punjab,Patiala,"Model Town, Patiala - PPCB",11-02-2026 09:00:00,30.349388,76.366642,NH3,6,7,6
India,Punjab,Rupnagar,"Ratanpura, Rupnagar - Ambuja Cements",11-02-2026 09:00:00,31.0325454,76.5623046,SO2,6,6,6
India,Punjab,Rupnagar,"Ratanpura, Rupnagar - Ambuja Cements",11-02-2026 09:00:00,31.0325454,76.5623046,CO,35,44,39
India,Rajasthan,Ajmer,"Civil Lines,  Ajmer - RSPCB",11-02-2026 09:00:00,26.470859,74.646594,PM2.5,73,118,92
India,Rajasthan,Ajmer,"Civil Lines,  Ajmer - RSPCB",11-02-2026 09:00:00,26.470859,74.646594,NO2,29,34,31
India,Odisha,Tensa,"Barsua Iron Ore Mines, Tensa - OSPCB",11-02-2026 09:00:00,21.869985,85.167016,CO,26,48,29
India,Punjab,Amritsar,"Golden Temple, Amritsar - PPCB",11-02-2026 09:00:00,31.620000,74.876512,PM10,27,355,97
India,Punjab,Amritsar,"Golden Temple, Amritsar - PPCB",11-02-2026 09:00:00,31.620000,74.876512,NO2,7,109,51
India,Punjab,Amritsar,"Golden Temple, Amritsar - PPCB",11-02-2026 09:00:00,31.620000,74.876512,NH3,5,11,8
India,Punjab,Bathinda,"Hardev Nagar, Bathinda - PPCB",11-02-2026 09:00:00,30.233011,74.907758,SO2,2,16,10
India,Punjab,Khanna,"Kalal Majra, Khanna - PPCB",11-02-2026 09:00:00,30.736056 ,76.209694,CO,31,60,51
India,Punjab,Ludhiana,"Punjab Agricultural University, Ludhiana - PPCB",11-02-2026 09:00:00,30.9028,75.8086,PM10,90,148,124
India,Odisha,Rairangpur,"Divisional Forest Office, Rairangpur - OSPCB",11-02-2026 09:00:00,22.265816,86.174829,PM10,12,141,95
India,Odisha,Rairangpur,"Divisional Forest Office, Rairangpur - OSPCB",11-02-2026 09:00:00,22.265816,86.174829,NH3,1,1,1
India,Odisha,Rairangpur,"Divisional Forest Office, Rairangpur - OSPCB",11-02-2026 09:00:00,22.265816,86.174829,CO,14,62,29
India,Odisha,Rourkela,"Raghunathpali, Rourkela - OSPCB",11-02-2026 09:00:00,22.220833,84.809444,PM10,48,217,136
India,Odisha,Rourkela,"Sector-2, Rourkela - OSPCB",11-02-2026 09:00:00,22.24500000,84.88111111,PM2.5,40,79,55
India,Odisha,Rourkela,"Sector-2, Rourkela - OSPCB",11-02-2026 09:00:00,22.24500000,84.88111111,PM10,42,104,63
India,Odisha,Rourkela,"Sector-2, Rourkela - OSPCB",11-02-2026 09:00:00,22.24500000,84.88111111,CO,29,70,30
India,Odisha,Talcher,"Talcher Coalfields,Talcher - OSPCB",11-02-2026 09:00:00,20.9360711,85.1707021,OZONE,27,119,35
India,Meghalaya,Shillong,"Lumpyngngad, Shillong - Meghalaya PCB",11-02-2026 09:00:00,25.5586,91.8985,CO,8,42,13
India,Mizoram,Aizawl,"Sikulpuikawn, Aizawl - Mizoram PCB",11-02-2026 09:00:00,23.7176342,92.7192841,PM10,54,57,56
India,Mizoram,Aizawl,"Sikulpuikawn, Aizawl - Mizoram PCB",11-02-2026 09:00:00,23.7176342,92.7192841,CO,3,3,3
India,Odisha,Angul,"Hakimapada, Angul - OSPCB",11-02-2026 09:00:00,20.832874,85.104082,NO2,39,134,67
India,Odisha,Angul,"Hakimapada, Angul - OSPCB",11-02-2026 09:00:00,20.832874,85.104082,NH3,6,14,11
India,Odisha,Balasore,"Kalidaspur, Balasore - OSPCB",11-02-2026 09:00:00,21.51161,86.89088,NH3,2,6,3
India,Odisha,Barbil,"Forest Office, Barbil - OSPCB",11-02-2026 09:00:00,22.1166054,85.3945546,NH3,1,3,2
India,Odisha,Baripada,"Meher Colony, Baripada - OSPCB",11-02-2026 09:00:00,21.941841,86.728318,NO2,NA,NA,NA
India,Odisha,Bhubaneswar,"Lingraj Mandir, Bhubaneswar - OSPCB",11-02-2026 09:00:00,20.240790,85.836784,PM2.5,83,240,123
India,Odisha,Bhubaneswar,"Lingraj Mandir, Bhubaneswar - OSPCB",11-02-2026 09:00:00,20.240790,85.836784,NO2,48,96,62
India,Odisha,Bileipada,"Tata Township, Bileipada - OSPCB",11-02-2026 09:00:00,22.06156703,85.47409613,NO2,6,7,7
India,Odisha,Bileipada,"Tata Township, Bileipada - OSPCB",11-02-2026 09:00:00,22.06156703,85.47409613,NH3,4,4,4
India,Odisha,Brajrajnagar,"GM Office, Brajrajnagar - OSPCB",11-02-2026 09:00:00,21.8004996,83.8396977,NH3,6,7,7
India,Odisha,Byasanagar,"Ferro Chrome Colony, Byasanagar - OSPCB",11-02-2026 09:00:00,20.94185,86.11510,PM10,77,172,131
India,Odisha,Keonjhar,"Jagamohanpur, Keonjhar - OSPCB",11-02-2026 09:00:00,21.643900,85.599355,PM2.5,6,80,59
India,Odisha,Keonjhar,"Jagamohanpur, Keonjhar - OSPCB",11-02-2026 09:00:00,21.643900,85.599355,NO2,9,13,10
India,Odisha,Keonjhar,"Jagamohanpur, Keonjhar - OSPCB",11-02-2026 09:00:00,21.643900,85.599355,SO2,5,33,12
India,Odisha,Nayagarh,"Dabuna, Nayagarh - OSPCB",11-02-2026 09:00:00,21.847279,85.416905,NO2,9,10,10
India,Rajasthan,Alwar,"Moti Doongri, Alwar - RSPCB",11-02-2026 09:00:00,27.554793,76.611536,SO2,15,62,37
India,Rajasthan,Bhiwadi,"RIICO Ind. Area III, Bhiwadi - RSPCB",11-02-2026 09:00:00,28.194909,76.862296,NH3,5,20,12
India,Rajasthan,Bhiwadi,"RIICO Ind. Area III, Bhiwadi - RSPCB",11-02-2026 09:00:00,28.194909,76.862296,SO2,15,39,30
India,Rajasthan,Bhiwadi,"Vasundhara Nagar_UIT, Bhiwadi - RSPCB",11-02-2026 09:00:00,28.207266,76.829265,SO2,4,130,31
India,Rajasthan,Bhiwadi,"Vasundhara Nagar_UIT, Bhiwadi - RSPCB",11-02-2026 09:00:00,28.207266,76.829265,OZONE,4,229,8
India,Rajasthan,Bikaner,"MM Ground, Bikaner - RSPCB",11-02-2026 09:00:00,28.018792,73.292658,PM2.5,42,303,155
India,Rajasthan,Bikaner,"MM Ground, Bikaner - RSPCB",11-02-2026 09:00:00,28.018792,73.292658,OZONE,38,153,45
India,Rajasthan,Bundi,"New Colony, Bundi - RSPCB",11-02-2026 09:00:00,25.435774,75.644272,OZONE,41,141,64
India,Rajasthan,Chittorgarh,"Shastri Nagar, Chittorgarh - RSPCB",11-02-2026 09:00:00,24.892047,74.623527,PM10,69,197,134
India,Rajasthan,Chittorgarh,"Shastri Nagar, Chittorgarh - RSPCB",11-02-2026 09:00:00,24.892047,74.623527,OZONE,10,126,14
India,Rajasthan,Churu,"Subash Chowk, Churu - RSPCB",11-02-2026 09:00:00,28.296139,74.961696,NO2,12,225,62
India,Rajasthan,Churu,"Subash Chowk, Churu - RSPCB",11-02-2026 09:00:00,28.296139,74.961696,SO2,7,9,8
India,Rajasthan,Churu,"Subash Chowk, Churu - RSPCB",11-02-2026 09:00:00,28.296139,74.961696,CO,15,80,38
India,Rajasthan,Dholpur,"Raja Ganj, Dholpur - RSPCB",11-02-2026 09:00:00,26.699557,77.898881,PM2.5,42,240,95
India,Rajasthan,Dungarpur,"Bhoiwada, Dungarpur - RSPCB",11-02-2026 09:00:00,23.837789,73.714926,NO2,9,51,20
India,Rajasthan,Hanumangarh,"Housing Board, Hanumangarh - RSPCB",11-02-2026 09:00:00,29.610750,74.283608,NO2,NA,NA,NA
India,Rajasthan,Jaipur,"Shastri Nagar, Jaipur - RSPCB",11-02-2026 09:00:00,26.9502929,75.730943,NH3,7,33,15
India,Rajasthan,Jaisalmer,"Sadar Bazar, Jaisalmer - RSPCB",11-02-2026 09:00:00,26.912329,70.909168,NH3,5,7,6
India,Rajasthan,Jaisalmer,"Sadar Bazar, Jaisalmer - RSPCB",11-02-2026 09:00:00,26.912329,70.909168,OZONE,37,90,56
India,Rajasthan,Jalore,"Mudtra Sili, Jalore - RSPCB",11-02-2026 09:00:00,25.344694,72.626208,PM2.5,28,247,72
India,Rajasthan,Jhalawar,"Rajlaxmi Nagar, Jhalawar - RSPCB",11-02-2026 09:00:00,24.588397,76.172782,NH3,8,16,10
India,Rajasthan,Jhalawar,"Rajlaxmi Nagar, Jhalawar - RSPCB",11-02-2026 09:00:00,24.588397,76.172782,SO2,1,75,16
India,Rajasthan,Jhalawar,"Rajlaxmi Nagar, Jhalawar - RSPCB",11-02-2026 09:00:00,24.588397,76.172782,CO,31,101,45
India,Rajasthan,Nagaur,"Karni Colony, Nagaur - RSPCB",11-02-2026 09:00:00,27.213494,73.734444,NH3,6,13,9
India,Rajasthan,Nagaur,"Karni Colony, Nagaur - RSPCB",11-02-2026 09:00:00,27.213494,73.734444,CO,20,35,27
India,Rajasthan,Pali,"Indira Colony Vistar, Pali - RSPCB",11-02-2026 09:00:00,25.771061, 73.340227,CO,20,67,44
India,Rajasthan,Rajsamand,"Dhoinda, Rajsamand - RSPCB",11-02-2026 09:00:00,25.036360,73.883502,NO2,10,44,26
India,Rajasthan,Sikar,"Radhakishan Pura, Sikar - RSPCB",11-02-2026 09:00:00,27.608912,75.153302,NO2,17,90,35
India,Rajasthan,Jodhpur,"Collectorate, Jodhpur - RSPCB",11-02-2026 09:00:00,26.268249,73.0193853,NO2,15,27,19
India,Rajasthan,Jodhpur,"Digari Kalan, Jodhpur - RSPCB",11-02-2026 09:00:00,26.295810,73.082283,SO2,1,13,5
India,Rajasthan,Jodhpur,"Jhalamand, Jodhpur - RSPCB",11-02-2026 09:00:00,26.215415,73.070156,SO2,2,11,6
India,Rajasthan,Jodhpur,"Mandor, Jodhpur - RSPCB",11-02-2026 09:00:00,26.358805,73.047444,PM2.5,38,311,112
India,Rajasthan,Jodhpur,"Mandor, Jodhpur - RSPCB",11-02-2026 09:00:00,26.358805,73.047444,CO,12,68,23
India,Rajasthan,Sirohi,"Vedhaynath Colony, Sirohi - RSPCB",11-02-2026 09:00:00,24.885261,72.857549,PM10,33,107,61
India,Rajasthan,Udaipur,"Ashok Nagar, Udaipur - RSPCB",11-02-2026 09:00:00,24.5886166,73.6321397,OZONE,3,76,8
India,Sikkim,Gangtok,"Zero Point GICI, Gangtok - SSPCB",11-02-2026 09:00:00,27.338530,88.614099,NO2,6,7,6
India,Sikkim,Gangtok,"Zero Point GICI, Gangtok - SSPCB",11-02-2026 09:00:00,27.338530,88.614099,SO2,1,1,1
India,Rajasthan,Jaipur,"Adarsh Nagar, Jaipur - RSPCB",11-02-2026 09:00:00,26.902909,75.836858,NO2,11,61,27
India,Rajasthan,Jaipur,"Adarsh Nagar, Jaipur - RSPCB",11-02-2026 09:00:00,26.902909,75.836858,NH3,6,14,11
India,Rajasthan,Jaipur,"Adarsh Nagar, Jaipur - RSPCB",11-02-2026 09:00:00,26.902909,75.836858,OZONE,30,78,51
India,Rajasthan,Jaipur,"Mansarovar Sector-12, Jaipur - RSPCB",11-02-2026 09:00:00,26.843698,75.766894,NH3,8,15,11
India,Rajasthan,Jaipur,"Shastri Nagar, Jaipur - RSPCB",11-02-2026 09:00:00,26.9502929,75.730943,NO2,39,128,67
India,Rajasthan,Kota,"Dhanmandi, Kota - RSPCB",11-02-2026 09:00:00,25.164090,75.858137,PM2.5,68,350,169
India,Rajasthan,Kota,"Nayapura, Kota - RSPCB",11-02-2026 09:00:00,25.196024,75.855668,PM10,103,174,127
India,Rajasthan,Kota,"Shrinath Puram, Kota - RSPCB",11-02-2026 09:00:00,25.14389,75.821256,PM2.5,124,311,213
India,Rajasthan,Banswara,"Rati Talai, Banswara - RSPCB",11-02-2026 09:00:00,23.555190,74.440010,NH3,7,13,8
India,Rajasthan,Baran,"Bamboliya, Baran - RSPCB",11-02-2026 09:00:00,25.106006,76.469948,OZONE,16,144,33
India,Telangana,Hyderabad,"Sanathnagar, Hyderabad - TSPCB",11-02-2026 09:00:00,17.4559458,78.4332152,CO,36,66,48
India,Telangana,Hyderabad,"Somajiguda, Hyderabad - TSPCB",11-02-2026 09:00:00,17.417094,78.457437,PM2.5,50,66,62
India,Telangana,Hyderabad,"Somajiguda, Hyderabad - TSPCB",11-02-2026 09:00:00,17.417094,78.457437,CO,11,38,30
India,Telangana,Hyderabad,"Zoo Park, Hyderabad - TSPCB",11-02-2026 09:00:00,17.349694,78.451437,PM2.5,58,167,90
India,Telangana,Hyderabad,"Zoo Park, Hyderabad - TSPCB",11-02-2026 09:00:00,17.349694,78.451437,PM10,80,159,113
India,Telangana,Hyderabad,"Zoo Park, Hyderabad - TSPCB",11-02-2026 09:00:00,17.349694,78.451437,OZONE,23,27,24
India,Tripura,Agartala,"Bardowali, Agartala - Tripura SPCB",11-02-2026 09:00:00,23.8175497,91.2726974,PM2.5,6,72,44
India,Uttar_Pradesh,Agra,"Manoharpur, Agra - UPPCB",11-02-2026 09:00:00,27.23711,78.01936,PM2.5,35,151,79
India,Uttar_Pradesh,Agra,"Rohta, Agra - UPPCB",11-02-2026 09:00:00,27.106972,78.000111,PM10,55,169,116
India,Uttar_Pradesh,Agra,"Rohta, Agra - UPPCB",11-02-2026 09:00:00,27.106972,78.000111,SO2,10,17,15
India,Uttar_Pradesh,Ghaziabad,"Loni, Ghaziabad - UPPCB",11-02-2026 09:00:00,28.757294,77.278792,PM2.5,187,500,382
India,Uttar_Pradesh,Ghaziabad,"Loni, Ghaziabad - UPPCB",11-02-2026 09:00:00,28.757294,77.278792,PM10,235,500,401
India,Uttar_Pradesh,Ghaziabad,"Loni, Ghaziabad - UPPCB",11-02-2026 09:00:00,28.757294,77.278792,NH3,1,6,3
India,Uttar_Pradesh,Ghaziabad,"Loni, Ghaziabad - UPPCB",11-02-2026 09:00:00,28.757294,77.278792,SO2,10,30,17
India,Uttar_Pradesh,Gorakhpur,"Madan Mohan Malaviya University of Technology, Gorakhpur - UPPCB",11-02-2026 09:00:00,26.730136,83.433859,PM2.5,63,149,91
India,Uttar_Pradesh,Gorakhpur,"Madan Mohan Malaviya University of Technology, Gorakhpur - UPPCB",11-02-2026 09:00:00,26.730136,83.433859,NH3,1,1,1
India,Uttar_Pradesh,Gorakhpur,"Madan Mohan Malaviya University of Technology, Gorakhpur - UPPCB",11-02-2026 09:00:00,26.730136,83.433859,SO2,43,46,44
India,Uttar_Pradesh,Greater Noida,"Knowledge Park - III, Greater Noida - UPPCB",11-02-2026 09:00:00,28.47272,77.482000,NO2,15,233,87
India,Uttar_Pradesh,Greater Noida,"Knowledge Park - V, Greater Noida - UPPCB",11-02-2026 09:00:00,28.557054,77.453663,PM2.5,76,413,289
India,Uttar_Pradesh,Greater Noida,"Knowledge Park - V, Greater Noida - UPPCB",11-02-2026 09:00:00,28.557054,77.453663,PM10,109,500,327
India,TamilNadu,Perundurai,"SIPCOT Industrial Park, Perundurai - TNPCB",11-02-2026 09:00:00,11.258242,77.552761,OZONE,21,24,22
India,TamilNadu,Ramanathapuram,"Chalai Bazaar, Ramanathapuram - TNPCB",11-02-2026 09:00:00,9.36399,78.831977,OZONE,NA,NA,NA
India,TamilNadu,Thanjavur,"Parisutham Nagar, Thanjavur - TNPCB",11-02-2026 09:00:00,10.7654824,79.1389968,PM10,NA,NA,NA
India,TamilNadu,Thanjavur,"Parisutham Nagar, Thanjavur - TNPCB",11-02-2026 09:00:00,10.7654824,79.1389968,NO2,3,4,3
India,TamilNadu,Thanjavur,"Parisutham Nagar, Thanjavur - TNPCB",11-02-2026 09:00:00,10.7654824,79.1389968,SO2,17,17,17
India,TamilNadu,Thoothukudi,"Meelavittan, Thoothukudi - TNPCB",11-02-2026 09:00:00,8.816428 ,78.099039,PM10,48,102,70
India,TamilNadu,Thoothukudi,"Meelavittan, Thoothukudi - TNPCB",11-02-2026 09:00:00,8.816428 ,78.099039,CO,28,41,34
India,Telangana,Hyderabad,"Bollaram Industrial Area, Hyderabad - TSPCB",11-02-2026 09:00:00,17.540891,78.358528,CO,16,124,37
India,Telangana,Hyderabad,"Bollaram Industrial Area, Hyderabad - TSPCB",11-02-2026 09:00:00,17.540891,78.358528,OZONE,36,46,37
India,Uttar_Pradesh,Bareilly,"Civil Lines, Bareilly - UPPCB",11-02-2026 09:00:00,28.359581,79.414455,CO,48,119,83
India,Uttar_Pradesh,Bareilly,"Civil Lines, Bareilly - UPPCB",11-02-2026 09:00:00,28.359581,79.414455,OZONE,15,17,16
India,Uttar_Pradesh,Bareilly,"Rajendra Nagar, Bareilly - UPPCB",11-02-2026 09:00:00,28.38910936,79.42963708,PM10,45,163,99
India,Uttar_Pradesh,Bulandshahr,"Yamunapuram, Bulandshahr - UPPCB",11-02-2026 09:00:00,28.406963,77.849831,NO2,10,117,70
India,Uttar_Pradesh,Firozabad,"Nagla Bhau, Firozabad - UPPCB",11-02-2026 09:00:00,27.168897,78.376960,OZONE,1,29,1
India,Uttar_Pradesh,Firozabad,"Vibhab Nagar, Firozabad - UPPCB",11-02-2026 09:00:00,27.1594,78.3953,NO2,15,15,15
India,Uttar_Pradesh,Firozabad,"Vibhab Nagar, Firozabad - UPPCB",11-02-2026 09:00:00,27.1594,78.3953,NH3,2,2,2
India,Uttar_Pradesh,Ghaziabad,"Indirapuram, Ghaziabad - UPPCB",11-02-2026 09:00:00,28.646233,77.358075,NH3,20,28,25
India,Uttar_Pradesh,Agra,"Sanjay Palace, Agra - UPPCB",11-02-2026 09:00:00,27.19865833,78.00598056,PM10,60,142,105
India,Uttar_Pradesh,Agra,"Sanjay Palace, Agra - UPPCB",11-02-2026 09:00:00,27.19865833,78.00598056,SO2,18,19,18
India,Uttar_Pradesh,Agra,"Shastripuram, Agra - UPPCB",11-02-2026 09:00:00,27.19862,77.92066,CO,14,27,20
India,Uttar_Pradesh,Agra,"Shastripuram, Agra - UPPCB",11-02-2026 09:00:00,27.19862,77.92066,OZONE,11,12,12
India,Uttar_Pradesh,Baghpat,"Sardar Patel Inter College, Baghpat - UPPCB",11-02-2026 09:00:00,28.964949,77.278761,PM10,133,236,193
India,Uttar_Pradesh,Baghpat,"Sardar Patel Inter College, Baghpat - UPPCB",11-02-2026 09:00:00,28.964949,77.278761,CO,36,108,42
India,Uttar_Pradesh,Bareilly,"Civil Lines, Bareilly - UPPCB",11-02-2026 09:00:00,28.359581,79.414455,PM2.5,9,60,34
India,Uttar_Pradesh,Bareilly,"Civil Lines, Bareilly - UPPCB",11-02-2026 09:00:00,28.359581,79.414455,PM10,34,93,58
India,Sikkim,Gangtok,"Zero Point GICI, Gangtok - SSPCB",11-02-2026 09:00:00,27.338530,88.614099,CO,10,40,16
India,TamilNadu,Chennai,"Kodungaiyur, Chennai - TNPCB",11-02-2026 09:00:00,13.1278,80.2642,NH3,2,3,2
India,TamilNadu,Chennai,"Kodungaiyur, Chennai - TNPCB",11-02-2026 09:00:00,13.1278,80.2642,SO2,2,12,8
India,TamilNadu,Chennai,"Manali, Chennai - CPCB",11-02-2026 09:00:00,13.164544,80.26285,SO2,4,25,12
India,TamilNadu,Chennai,"Manali, Chennai - CPCB",11-02-2026 09:00:00,13.164544,80.26285,CO,11,74,26
India,TamilNadu,Chennai,"Perungudi, Chennai - TNPCB",11-02-2026 09:00:00,12.9533,80.2357,OZONE,3,32,5
India,TamilNadu,Chennai,"Royapuram, Chennai - TNPCB",11-02-2026 09:00:00,13.1036,80.2909,PM10,70,362,153
India,Telangana,Hyderabad,"Kompally Municipal Office, Hyderabad - TSPCB",11-02-2026 09:00:00,17.544899,78.486949,PM2.5,48,62,55
India,Telangana,Hyderabad,"Kompally Municipal Office, Hyderabad - TSPCB",11-02-2026 09:00:00,17.544899,78.486949,OZONE,15,40,15
India,Telangana,Hyderabad,"New Malakpet, Hyderabad - TSPCB",11-02-2026 09:00:00,17.37206,78.50864,PM10,77,90,82
India,Telangana,Hyderabad,"New Malakpet, Hyderabad - TSPCB",11-02-2026 09:00:00,17.37206,78.50864,NH3,2,3,2
India,Telangana,Hyderabad,"New Malakpet, Hyderabad - TSPCB",11-02-2026 09:00:00,17.37206,78.50864,SO2,15,22,18
India,Telangana,Hyderabad,"New Malakpet, Hyderabad - TSPCB",11-02-2026 09:00:00,17.37206,78.50864,CO,23,45,24
India,Telangana,Hyderabad,"Ramachandrapuram, Hyderabad - TSPCB",11-02-2026 09:00:00,17.528544,78.286195,PM10,68,81,77
India,TamilNadu,Coimbatore,"SIDCO Kurichi, Coimbatore - TNPCB",11-02-2026 09:00:00,10.942451,76.978996,PM10,46,85,69
India,TamilNadu,Coimbatore,"SIDCO Kurichi, Coimbatore - TNPCB",11-02-2026 09:00:00,10.942451,76.978996,NO2,8,40,20
India,TamilNadu,Gummidipoondi,"Anthoni Pillai Nagar, Gummidipoondi - TNPCB",11-02-2026 09:00:00,13.4127,80.1081,NH3,1,1,1
India,TamilNadu,Madurai,"Uchapatti, Madurai - TNPCB",11-02-2026 09:00:00,9.865935,78.022669,PM10,NA,NA,NA
India,Telangana,Hyderabad,"ECIL Kapra, Hyderabad - TSPCB",11-02-2026 09:00:00,17.470431,78.566959,OZONE,12,57,12
India,Telangana,Hyderabad,"IDA Pashamylaram, Hyderabad - TSPCB",11-02-2026 09:00:00,17.5316895,78.218939,OZONE,17,19,18
India,Telangana,Hyderabad,"IITH Kandi, Hyderabad - TSPCB",11-02-2026 09:00:00,17.585705,78.126199,NO2,16,19,17
India,Telangana,Hyderabad,"IITH Kandi, Hyderabad - TSPCB",11-02-2026 09:00:00,17.585705,78.126199,SO2,15,17,16
India,Uttar_Pradesh,Lucknow,"Kukrail Picnic Spot-1, Lucknow - UPPCB",11-02-2026 09:00:00,26.90723,80.98579,NH3,6,6,6
India,Uttar_Pradesh,Lucknow,"Kukrail Picnic Spot-1, Lucknow - UPPCB",11-02-2026 09:00:00,26.90723,80.98579,CO,8,14,12
India,Uttar_Pradesh,Lucknow,"Kukrail Picnic Spot-1, Lucknow - UPPCB",11-02-2026 09:00:00,26.90723,80.98579,OZONE,7,34,7
India,Uttar_Pradesh,Lucknow,"Lalbagh, Lucknow - CPCB",11-02-2026 09:00:00,26.8458805,80.9365541,PM2.5,32,268,108
India,Uttar_Pradesh,Lucknow,"Lalbagh, Lucknow - CPCB",11-02-2026 09:00:00,26.8458805,80.9365541,SO2,2,21,10
India,Uttar_Pradesh,Lucknow,"Lalbagh, Lucknow - CPCB",11-02-2026 09:00:00,26.8458805,80.9365541,CO,3,105,51
India,Uttar_Pradesh,Lucknow,"Talkatora District Industries Center, Lucknow - CPCB",11-02-2026 09:00:00,26.83399722,80.8917361,OZONE,9,45,14
India,Uttar_Pradesh,Meerut,"Ganga Nagar, Meerut - UPPCB",11-02-2026 09:00:00,28.999264,77.7590354,NO2,NA,NA,NA
India,Uttar_Pradesh,Meerut,"Ganga Nagar, Meerut - UPPCB",11-02-2026 09:00:00,28.999264,77.7590354,NH3,NA,NA,NA
India,Uttar_Pradesh,Meerut,"Ganga Nagar, Meerut - UPPCB",11-02-2026 09:00:00,28.999264,77.7590354,CO,NA,NA,NA
India,Uttar_Pradesh,Meerut,"Jai Bhim Nagar, Meerut - UPPCB",11-02-2026 09:00:00,28.9535882,77.7622941,OZONE,2,171,16
India,Uttar_Pradesh,Kanpur,"Nehru Nagar, Kanpur - UPPCB",11-02-2026 09:00:00,26.4703136,80.3229863,NO2,48,55,52
India,Uttar_Pradesh,Khurja,"Kalindi Kunj, Khurja - UPPCB",11-02-2026 09:00:00,28.2348927,77.8683002,PM2.5,7,122,60
India,Uttar_Pradesh,Khurja,"Kalindi Kunj, Khurja - UPPCB",11-02-2026 09:00:00,28.2348927,77.8683002,NO2,6,7,7
India,Uttar_Pradesh,Khurja,"Kalindi Kunj, Khurja - UPPCB",11-02-2026 09:00:00,28.2348927,77.8683002,NH3,1,1,1
India,Uttar_Pradesh,Khurja,"Kalindi Kunj, Khurja - UPPCB",11-02-2026 09:00:00,28.2348927,77.8683002,CO,10,56,52
India,Uttar_Pradesh,Khurja,"Kalindi Kunj, Khurja - UPPCB",11-02-2026 09:00:00,28.2348927,77.8683002,OZONE,3,18,16
India,Uttar_Pradesh,Lucknow,"B R Ambedkar University, Lucknow - UPPCB",11-02-2026 09:00:00,26.766433,80.927299,PM10,32,113,75
India,Uttar_Pradesh,Lucknow,"B R Ambedkar University, Lucknow - UPPCB",11-02-2026 09:00:00,26.766433,80.927299,NO2,11,12,12
India,Uttar_Pradesh,Lucknow,"Gomti Nagar, Lucknow - UPPCB",11-02-2026 09:00:00,26.868120,81.005119,NO2,6,9,8
India,Uttar_Pradesh,Lucknow,"Kendriya Vidyalaya, Lucknow - CPCB",11-02-2026 09:00:00,26.906111,80.948222,PM2.5,66,288,166
India,West_Bengal,Asansol,"Asansol Court Area, Asansol - WBPCB",11-02-2026 09:00:00,23.685297,86.945968,CO,20,95,66
India,West_Bengal,Asansol,"Evelyn Lodge, Asansol - WBPCB",11-02-2026 09:00:00,23.6979360,86.9443950,PM2.5,11,241,92
India,West_Bengal,Asansol,"Mahabir Colliery, Asansol - WBPCB",11-02-2026 09:00:00,23.6181830,87.1057180,OZONE,4,37,4
India,West_Bengal,Asansol,"Trivenidevi Bhalotia College, Asansol - WBPCB",11-02-2026 09:00:00,23.616515,87.119133,PM2.5,39,241,126
India,West_Bengal,Asansol,"Trivenidevi Bhalotia College, Asansol - WBPCB",11-02-2026 09:00:00,23.616515,87.119133,NO2,13,61,39
India,West_Bengal,Asansol,"Trivenidevi Bhalotia College, Asansol - WBPCB",11-02-2026 09:00:00,23.616515,87.119133,SO2,5,15,10
India,West_Bengal,Barrackpore,"SVSPA Campus, Barrackpore - WBPCB",11-02-2026 09:00:00,22.7605581,88.3617589,OZONE,1,64,2
India,West_Bengal,Durgapur,"PCBL Residential Complex, Durgapur - WBPCB",11-02-2026 09:00:00,23.5087640,87.3544400,OZONE,1,61,13
India,West_Bengal,Durgapur,"Womens College_City Center, Durgapur - WBPCB",11-02-2026 09:00:00,23.549395,87.300496,NH3,2,5,3
India,West_Bengal,Durgapur,"Womens College_City Center, Durgapur - WBPCB",11-02-2026 09:00:00,23.549395,87.300496,OZONE,2,82,3
India,West_Bengal,Howrah,"Belur Math, Howrah - WBPCB",11-02-2026 09:00:00,22.629801,88.352017,SO2,10,46,18
India,West_Bengal,Howrah,"Botanical Garden, Howrah - WBPCB",11-02-2026 09:00:00,22.554954,88.292568,PM2.5,24,311,130
India,West_Bengal,Howrah,"Botanical Garden, Howrah - WBPCB",11-02-2026 09:00:00,22.554954,88.292568,PM10,37,203,112
India,West_Bengal,Howrah,"Dasnagar, Howrah - WBPCB",11-02-2026 09:00:00,22.6025571,88.3105664,PM10,46,192,119
India,Uttar_Pradesh,Moradabad,"Buddhi Vihar, Moradabad - UPPCB",11-02-2026 09:00:00,28.83526,78.74460,CO,40,88,63
India,Uttar_Pradesh,Moradabad,"Eco Herbal Park, Moradabad - UPPCB",11-02-2026 09:00:00,28.840739,78.697531,PM10,57,139,105
India,Uttar_Pradesh,Moradabad,"Eco Herbal Park, Moradabad - UPPCB",11-02-2026 09:00:00,28.840739,78.697531,CO,21,98,87
India,Uttar_Pradesh,Moradabad,"Employment Office, Moradabad - UPPCB",11-02-2026 09:00:00,28.88528,78.73880,PM2.5,58,297,153
India,Uttar_Pradesh,Moradabad,"Employment Office, Moradabad - UPPCB",11-02-2026 09:00:00,28.88528,78.73880,PM10,84,175,130
India,Uttar_Pradesh,Moradabad,"Employment Office, Moradabad - UPPCB",11-02-2026 09:00:00,28.88528,78.73880,NO2,15,16,16
India,Uttar_Pradesh,Moradabad,"Employment Office, Moradabad - UPPCB",11-02-2026 09:00:00,28.88528,78.73880,SO2,23,27,25
India,Uttar_Pradesh,Moradabad,"Jigar Colony, Moradabad - UPPCB",11-02-2026 09:00:00,28.856664,78.772638,SO2,21,79,38
India,Uttar_Pradesh,Varanasi,"IESD Banaras Hindu University, Varanasi - UPPCB",11-02-2026 09:00:00,25.262326,82.995408,SO2,30,32,31
India,Uttar_Pradesh,Vrindavan,"Omex Eternity, Vrindavan - UPPCB",11-02-2026 09:00:00,27.5714090,77.6557570,SO2,16,30,20
India,Uttar_Pradesh,Vrindavan,"Omex Eternity, Vrindavan - UPPCB",11-02-2026 09:00:00,27.5714090,77.6557570,CO,28,44,41
India,Uttar_Pradesh,Vrindavan,"Omex Eternity, Vrindavan - UPPCB",11-02-2026 09:00:00,27.5714090,77.6557570,OZONE,15,15,15
India,Uttarakhand,Dehradun,"Doon University, Dehradun - UKPCB",11-02-2026 09:00:00,30.269444,78.044167,PM2.5,54,215,108
India,Uttarakhand,Rishikesh,"Shivaji Nagar, Rishikesh - UKPCB",11-02-2026 09:00:00,30.075911,78.2859547,SO2,1,1,1
India,Uttar_Pradesh,Prayagraj,"Motilal Nehru NIT, Prayagraj - UPPCB",11-02-2026 09:00:00,25.494,81.863,PM10,33,103,77
India,Uttar_Pradesh,Prayagraj,"Motilal Nehru NIT, Prayagraj - UPPCB",11-02-2026 09:00:00,25.494,81.863,NH3,6,8,7
India,Uttar_Pradesh,Prayagraj,"Nagar Nigam, Prayagraj - UPPCB",11-02-2026 09:00:00,25.44919916 ,81.82735986 ,SO2,15,74,41
India,Uttar_Pradesh,Varanasi,"Ardhali Bazar, Varanasi - UPPCB",11-02-2026 09:00:00,25.3505986,82.9083074,SO2,8,12,10
India,Uttar_Pradesh,Varanasi,"Bhelupur, Varanasi - UPPCB",11-02-2026 09:00:00,25.301778,82.996789,SO2,26,31,29
India,Uttar_Pradesh,Varanasi,"IESD Banaras Hindu University, Varanasi - UPPCB",11-02-2026 09:00:00,25.262326,82.995408,NO2,2,2,2
India,Uttar_Pradesh,Moradabad,"Transport Nagar, Moradabad - UPPCB",11-02-2026 09:00:00,28.802625,78.753728,NO2,29,30,29
India,Uttar_Pradesh,Noida,"Sector-1, Noida - UPPCB",11-02-2026 09:00:00,28.5898,77.3101,OZONE,1,5,1
India,Uttar_Pradesh,Noida,"Sector-116, Noida - UPPCB",11-02-2026 09:00:00,28.569230,77.393848,PM2.5,97,402,284
India,Uttar_Pradesh,Noida,"Sector-116, Noida - UPPCB",11-02-2026 09:00:00,28.569230,77.393848,PM10,NA,NA,NA
India,Uttar_Pradesh,Greater Noida,"Knowledge Park - V, Greater Noida - UPPCB",11-02-2026 09:00:00,28.557054,77.453663,CO,30,118,81
India,Uttar_Pradesh,Jhansi,"Shivaji Nagar, Jhansi - UPPCB",11-02-2026 09:00:00,25.4547,78.6039,SO2,18,24,20
India,West_Bengal,Howrah,"Ghusuri, Howrah - WBPCB",11-02-2026 09:00:00,22.611968,88.347422,NO2,14,34,24
India,West_Bengal,Howrah,"Padmapukur, Howrah - WBPCB",11-02-2026 09:00:00,22.5687319,88.2797276,PM2.5,33,371,164
India,West_Bengal,Howrah,"Padmapukur, Howrah - WBPCB",11-02-2026 09:00:00,22.5687319,88.2797276,OZONE,9,66,16
India,West_Bengal,Kolkata,"Ballygunge, Kolkata - WBPCB",11-02-2026 09:00:00,22.5367507,88.3638022,NO2,15,126,64
India,West_Bengal,Kolkata,"Ballygunge, Kolkata - WBPCB",11-02-2026 09:00:00,22.5367507,88.3638022,NH3,7,13,9
India,West_Bengal,Kolkata,"Bidhannagar, Kolkata - WBPCB",11-02-2026 09:00:00,22.58157048,88.41002457,NO2,13,23,14
India,West_Bengal,Kolkata,"Bidhannagar, Kolkata - WBPCB",11-02-2026 09:00:00,22.58157048,88.41002457,NH3,5,7,5
India,West_Bengal,Kolkata,"Fort William, Kolkata - WBPCB",11-02-2026 09:00:00,22.556640,88.342674,SO2,7,28,13
India,West_Bengal,Kolkata,"Rabindra Bharati University, Kolkata - WBPCB",11-02-2026 09:00:00,22.627847,88.380669,NO2,50,214,128
India,West_Bengal,Kolkata,"Rabindra Bharati University, Kolkata - WBPCB",11-02-2026 09:00:00,22.627847,88.380669,SO2,7,14,9
India,West_Bengal,Kolkata,"Rabindra Sarobar, Kolkata - WBPCB",11-02-2026 09:00:00,22.51106,88.35142,SO2,9,63,23
India,West_Bengal,Kolkata,"Victoria, Kolkata - WBPCB",11-02-2026 09:00:00,22.5448082,88.3403691,NO2,26,54,46
India,West_Bengal,Kolkata,"Victoria, Kolkata - WBPCB",11-02-2026 09:00:00,22.5448082,88.3403691,CO,33,109,71
India,West_Bengal,Siliguri,"Ward-32 Bapupara, Siliguri - WBPCB",11-02-2026 09:00:00,26.6879226,88.4152495,PM10,111,197,137
India,Bihar,Aurangabad,"Gurdeo Nagar, Aurangabad - BSPCB",11-02-2026 09:00:00,24.75746,84.366208,CO,100,103,102
India,Bihar,Begusarai,"Lohiyanagar, Begusarai - BSPCB",11-02-2026 09:00:00,25.42742023,86.13886079,PM10,48,120,89
India,Bihar,Bettiah,"Kamalnath Nagar, Bettiah - BSPCB",11-02-2026 09:00:00,26.80365,84.51954,SO2,14,20,17
India,Bihar,Bhagalpur,"DM Office_Kachari Chowk, Bhagalpur - BSPCB",11-02-2026 09:00:00,25.251013,86.989001,PM10,45,127,75
India,Bihar,Bhagalpur,"DM Office_Kachari Chowk, Bhagalpur - BSPCB",11-02-2026 09:00:00,25.251013,86.989001,SO2,30,76,53
India,Bihar,Bhagalpur,"Mayaganj, Bhagalpur - BSPCB",11-02-2026 09:00:00,25.265194,87.012947,PM2.5,13,45,27
India,Bihar,Bhagalpur,"Mayaganj, Bhagalpur - BSPCB",11-02-2026 09:00:00,25.265194,87.012947,NO2,5,8,7
India,Bihar,Bhagalpur,"Mayaganj, Bhagalpur - BSPCB",11-02-2026 09:00:00,25.265194,87.012947,NH3,9,11,10
India,Bihar,Bihar Sharif,"D M Colony, Bihar Sharif - BSPCB",11-02-2026 09:00:00,25.204762,85.514960,PM10,24,89,51
India,Bihar,Bihar Sharif,"D M Colony, Bihar Sharif - BSPCB",11-02-2026 09:00:00,25.204762,85.514960,NO2,9,10,9
India,Bihar,Buxar,"Charitra Van, Buxar - BSPCB",11-02-2026 09:00:00,25.567520,83.966379,PM2.5,50,197,78
India,Bihar,Buxar,"Charitra Van, Buxar - BSPCB",11-02-2026 09:00:00,25.567520,83.966379,CO,21,29,24
India,Bihar,Chhapra,"Darshan Nagar, Chhapra - BSPCB",11-02-2026 09:00:00,25.7808257,84.7446768,PM2.5,20,316,94
India,Bihar,Chhapra,"Darshan Nagar, Chhapra - BSPCB",11-02-2026 09:00:00,25.7808257,84.7446768,NH3,7,10,8
India,Bihar,Chhapra,"Darshan Nagar, Chhapra - BSPCB",11-02-2026 09:00:00,25.7808257,84.7446768,SO2,22,29,26
India,Bihar,Chhapra,"Darshan Nagar, Chhapra - BSPCB",11-02-2026 09:00:00,25.7808257,84.7446768,OZONE,3,8,4
India,Bihar,Gaya,"Kareemganj, Gaya - BSPCB",11-02-2026 09:00:00,24.792403,84.992416,PM10,69,226,141
India,Bihar,Gaya,"Kareemganj, Gaya - BSPCB",11-02-2026 09:00:00,24.792403,84.992416,SO2,36,45,40
India,Bihar,Gaya,"SFTI Kusdihra, Gaya - BSPCB",11-02-2026 09:00:00,24.762518,84.982348,PM10,55,108,74
India,Bihar,Gaya,"SFTI Kusdihra, Gaya - BSPCB",11-02-2026 09:00:00,24.762518,84.982348,NH3,2,7,4
India,Bihar,Hajipur,"Industrial Area, Hajipur - BSPCB",11-02-2026 09:00:00,25.697189,85.245900,PM2.5,74,235,157
India,Bihar,Katihar,"Mirchaibari, Katihar - BSPCB",11-02-2026 09:00:00,25.560083,87.553265,NH3,1,1,1
India,Bihar,Kishanganj,"SDM Office_Khagra, Kishanganj - BSPCB",11-02-2026 09:00:00,26.0881305,87.93840336,PM10,41,77,58
India,Bihar,Kishanganj,"SDM Office_Khagra, Kishanganj - BSPCB",11-02-2026 09:00:00,26.0881305,87.93840336,SO2,7,9,8
India,Bihar,Manguraha,"Forest Rest House, Manguraha - BSPCB",11-02-2026 09:00:00,27.308328,84.531742,PM2.5,62,243,115
India,Bihar,Manguraha,"Forest Rest House, Manguraha - BSPCB",11-02-2026 09:00:00,27.308328,84.531742,SO2,16,17,17
India,Bihar,Manguraha,"Forest Rest House, Manguraha - BSPCB",11-02-2026 09:00:00,27.308328,84.531742,CO,32,33,32
India,Bihar,Motihari,"Gandak Colony, Motihari - BSPCB",11-02-2026 09:00:00,26.63086,84.90051,PM2.5,50,170,88
India,Bihar,Munger,"Town Hall, Munger - BSPCB",11-02-2026 09:00:00,25.376776,86.471523,NO2,4,5,5
India,Bihar,Munger,"Town Hall, Munger - BSPCB",11-02-2026 09:00:00,25.376776,86.471523,OZONE,9,11,11
India,Bihar,Muzaffarpur,"MIT-Daudpur Kothi, Muzaffarpur - BSPCB",11-02-2026 09:00:00,26.1403345,85.3650192,NH3,3,7,4
India,Andhra_Pradesh,Anantapur,"Gulzarpet, Anantapur - APPCB",11-02-2026 09:00:00,14.675886,77.593027,CO,21,32,24
India,Andhra_Pradesh,Chittoor,"Gangineni Cheruvu, Chittoor - APPCB",11-02-2026 09:00:00,13.204880,79.097889,NH3,5,6,6
India,Andhra_Pradesh,Kadapa,"Yerramukkapalli, Kadapa - APPCB",11-02-2026 09:00:00,14.465052,78.824187,SO2,NA,NA,NA
India,Andhra_Pradesh,Rajamahendravaram,"Anand Kala Kshetram, Rajamahendravaram - APPCB",11-02-2026 09:00:00,16.9872867,81.7363176,NH3,4,6,6
India,Andhra_Pradesh,Tirumala,"Toll Gate, Tirumala - APPCB",11-02-2026 09:00:00,13.67,79.35,PM10,72,102,89
India,Andhra_Pradesh,Tirumala,"Toll Gate, Tirumala - APPCB",11-02-2026 09:00:00,13.67,79.35,NO2,15,39,26
India,Andhra_Pradesh,Tirupati,"Vaikuntapuram, Tirupati - APPCB",11-02-2026 09:00:00,13.615387,79.409230,NO2,19,21,20
India,Andhra_Pradesh,Vijayawada,"HB Colony, Vijayawada - APPCB",11-02-2026 09:00:00,16.536107,80.594233,NO2,19,19,19
India,Andhra_Pradesh,Vijayawada,"HB Colony, Vijayawada - APPCB",11-02-2026 09:00:00,16.536107,80.594233,NH3,2,2,2
India,Andhra_Pradesh,Vijayawada,"HB Colony, Vijayawada - APPCB",11-02-2026 09:00:00,16.536107,80.594233,SO2,18,19,18
India,Andhra_Pradesh,Vijayawada,"HB Colony, Vijayawada - APPCB",11-02-2026 09:00:00,16.536107,80.594233,CO,32,34,33
India,Andhra_Pradesh,Vijayawada,"Kanuru, Vijayawada - APPCB",11-02-2026 09:00:00,16.486692,80.699436,NH3,4,4,4
India,Andhra_Pradesh,Vijayawada,"Kanuru, Vijayawada - APPCB",11-02-2026 09:00:00,16.486692,80.699436,CO,123,123,123
India,Andhra_Pradesh,Vijayawada,"Rajiv Gandhi Park, Vijayawada - APPCB",11-02-2026 09:00:00,16.509717,80.612222,PM2.5,46,66,55
India,Andhra_Pradesh,Vijayawada,"Rajiv Gandhi Park, Vijayawada - APPCB",11-02-2026 09:00:00,16.509717,80.612222,NH3,3,3,3
India,Andhra_Pradesh,Visakhapatnam,"GVM Corporation, Visakhapatnam - APPCB",11-02-2026 09:00:00,17.72,83.3,NH3,3,4,3
India,Andhra_Pradesh,Visakhapatnam,"GVM Corporation, Visakhapatnam - APPCB",11-02-2026 09:00:00,17.72,83.3,CO,6,88,32
India,Arunachal_Pradesh,Naharlagun,"Naharlagun, Naharlagun - APSPCB",11-02-2026 09:00:00,27.103358,93.679645,NH3,1,1,1
India,Assam,Guwahati,"LGBI Airport, Guwahati - PCBA",11-02-2026 09:00:00,26.10887,91.589544,PM2.5,NA,NA,NA
India,Assam,Guwahati,"LGBI Airport, Guwahati - PCBA",11-02-2026 09:00:00,26.10887,91.589544,NO2,12,24,15
India,Assam,Guwahati,"LGBI Airport, Guwahati - PCBA",11-02-2026 09:00:00,26.10887,91.589544,NH3,4,6,5
India,Assam,Guwahati,"LGBI Airport, Guwahati - PCBA",11-02-2026 09:00:00,26.10887,91.589544,OZONE,12,15,13
India,Assam,Guwahati,"Pan Bazaar, Guwahati - PCBA",11-02-2026 09:00:00,26.187500,91.744194,NO2,NA,NA,NA
India,Bihar,Muzaffarpur,"MIT-Daudpur Kothi, Muzaffarpur - BSPCB",11-02-2026 09:00:00,26.1403345,85.3650192,CO,37,60,37
India,Bihar,Patna,"DRM Office Danapur, Patna - BSPCB",11-02-2026 09:00:00,25.586562,85.043586,CO,18,102,47
India,Bihar,Patna,"Govt. High School Shikarpur, Patna - BSPCB",11-02-2026 09:00:00,25.592539,85.227158,PM2.5,198,348,294
India,Bihar,Patna,"Muradpur, Patna - BSPCB",11-02-2026 09:00:00,25.619651,85.147382,PM2.5,49,86,66
India,Assam,Nalbari,"Bata Chowk, Nalbari - PCBA",11-02-2026 09:00:00,26.446912,91.439057,OZONE,6,17,16
India,Assam,Sivasagar,"Girls College, Sivasagar - PCBA",11-02-2026 09:00:00,26.987634,94.636574,PM10,30,98,47
India,Assam,Sivasagar,"Girls College, Sivasagar - PCBA",11-02-2026 09:00:00,26.987634,94.636574,CO,14,112,28
India,Assam,Sivasagar,"Girls College, Sivasagar - PCBA",11-02-2026 09:00:00,26.987634,94.636574,OZONE,5,91,30
India,Bihar,Araria,"Kharahiya Basti, Araria - BSPCB",11-02-2026 09:00:00,26.146529,87.454184,NO2,1,7,2
India,Bihar,Araria,"Kharahiya Basti, Araria - BSPCB",11-02-2026 09:00:00,26.146529,87.454184,CO,24,100,63
India,Bihar,Arrah,"New DM Office, Arrah - BSPCB",11-02-2026 09:00:00,25.5626095,84.663264,SO2,NA,NA,NA
India,Bihar,Aurangabad,"Gurdeo Nagar, Aurangabad - BSPCB",11-02-2026 09:00:00,24.75746,84.366208,PM10,NA,NA,NA
India,Andhra_Pradesh,Amaravati,"Secretariat, Amaravati - APPCB",11-02-2026 09:00:00,16.5150833,80.5181667,PM10,98,186,120
India,Bihar,Patna,"Samanpura, Patna - BSPCB",11-02-2026 09:00:00,25.596727,85.085624,NH3,4,20,12
India,Bihar,Purnia,"Mariam Nagar, Purnia - BSPCB",11-02-2026 09:00:00,25.366336,87.117468,NH3,3,3,3
India,Bihar,Purnia,"Mariam Nagar, Purnia - BSPCB",11-02-2026 09:00:00,25.366336,87.117468,CO,53,57,55
India,Bihar,Purnia,"Mariam Nagar, Purnia - BSPCB",11-02-2026 09:00:00,25.366336,87.117468,OZONE,4,33,22
India,Bihar,Rajgir,"Dangi Tola, Rajgir - BSPCB",11-02-2026 09:00:00,25.03280,85.41948,PM10,NA,NA,NA
India,Bihar,Rajgir,"Dangi Tola, Rajgir - BSPCB",11-02-2026 09:00:00,25.03280,85.41948,NO2,NA,NA,NA
India,Bihar,Rajgir,"Dangi Tola, Rajgir - BSPCB",11-02-2026 09:00:00,25.03280,85.41948,NH3,NA,NA,NA
India,Bihar,Rajgir,"Dangi Tola, Rajgir - BSPCB",11-02-2026 09:00:00,25.03280,85.41948,SO2,NA,NA,NA
India,Bihar,Rajgir,"Dangi Tola, Rajgir - BSPCB",11-02-2026 09:00:00,25.03280,85.41948,CO,NA,NA,NA
India,Bihar,Samastipur,"DM Office_Kasipur, Samastipur - BSPCB",11-02-2026 09:00:00,25.859655,85.77944,NO2,7,9,8
India,Bihar,Sasaram,"Dada Peer, Sasaram - BSPCB",11-02-2026 09:00:00,24.952822,84.002396,NO2,2,8,3
India,Bihar,Sasaram,"Dada Peer, Sasaram - BSPCB",11-02-2026 09:00:00,24.952822,84.002396,SO2,3,5,4
India,Bihar,Sasaram,"Dada Peer, Sasaram - BSPCB",11-02-2026 09:00:00,24.952822,84.002396,OZONE,16,41,17
India,Delhi,Delhi,"Lodhi Road, Delhi - IMD",11-02-2026 09:00:00,28.5918245,77.2273074,PM10,122,402,223
India,Delhi,Delhi,"Major Dhyan Chand National Stadium, Delhi - DPCC",11-02-2026 09:00:00,28.611281,77.237738,NO2,40,204,128
India,Delhi,Delhi,"Major Dhyan Chand National Stadium, Delhi - DPCC",11-02-2026 09:00:00,28.611281,77.237738,NH3,18,22,19
India,Delhi,Delhi,"Major Dhyan Chand National Stadium, Delhi - DPCC",11-02-2026 09:00:00,28.611281,77.237738,SO2,2,15,9
India,Delhi,Delhi,"Mandir Marg, Delhi - DPCC",11-02-2026 09:00:00,28.636429,77.201067,PM2.5,3,420,189
India,Delhi,Delhi,"Mandir Marg, Delhi - DPCC",11-02-2026 09:00:00,28.636429,77.201067,NO2,60,243,144
India,Delhi,Delhi,"NSIT Dwarka, Delhi - CPCB",11-02-2026 09:00:00,28.60909,77.0325413,CO,36,70,44
India,Delhi,Delhi,"Najafgarh, Delhi - DPCC",11-02-2026 09:00:00,28.570173,76.933762,PM2.5,57,391,240
India,Delhi,Delhi,"Narela, Delhi - DPCC",11-02-2026 09:00:00,28.822836,77.101981,PM2.5,135,431,330
India,Chhattisgarh,Tumidih,"OP Jindal Industrial Park, Tumidih - CECB",11-02-2026 09:00:00,22.06631475,83.33820077,CO,14,51,36
India,Chhattisgarh,Tumidih,"OP Jindal Industrial Park, Tumidih - CECB",11-02-2026 09:00:00,22.06631475,83.33820077,OZONE,4,94,10
India,Delhi,Delhi,"Alipur, Delhi - DPCC",11-02-2026 09:00:00,28.815329,77.153010,PM2.5,170,407,313
India,Delhi,Delhi,"Anand Vihar, Delhi - DPCC",11-02-2026 09:00:00,28.647622,77.3158090,NO2,NA,NA,NA
India,Delhi,Delhi,"Anand Vihar, Delhi - DPCC",11-02-2026 09:00:00,28.647622,77.3158090,CO,NA,NA,NA
India,Delhi,Delhi,"Ashok Vihar, Delhi - DPCC",11-02-2026 09:00:00,28.695381,77.181665,NH3,7,8,8
India,Delhi,Delhi,"Ashok Vihar, Delhi - DPCC",11-02-2026 09:00:00,28.695381,77.181665,CO,8,152,103
India,Delhi,Delhi,"Bawana, Delhi - DPCC",11-02-2026 09:00:00,28.776200,77.051074,PM10,117,411,260
India,Delhi,Delhi,"Bawana, Delhi - DPCC",11-02-2026 09:00:00,28.776200,77.051074,NH3,7,10,8
India,Chhattisgarh,Kunjemura,"OP Jindal School, Kunjemura - CECB",11-02-2026 09:00:00,22.126650,83.483212,CO,23,52,44
India,Chhattisgarh,Kunjemura,"OP Jindal School, Kunjemura - CECB",11-02-2026 09:00:00,22.126650,83.483212,OZONE,1,63,2
India,Chhattisgarh,Milupara,"Govt. Higher Secondary School, Milupara - CECB",11-02-2026 09:00:00,22.1910172,83.5197009,OZONE,13,139,16
India,Chhattisgarh,Raipur,"AIIMS, Raipur - CECB",11-02-2026 09:00:00,21.258815,81.578979,PM2.5,NA,NA,NA
India,Chhattisgarh,Raipur,"AIIMS, Raipur - CECB",11-02-2026 09:00:00,21.258815,81.578979,SO2,NA,NA,NA
India,Chhattisgarh,Raipur,"Bhatagaon New ISBT, Raipur - CECB",11-02-2026 09:00:00,21.219665,81.630094,SO2,3,14,7
India,Chhattisgarh,Raipur,"Bhatagaon New ISBT, Raipur - CECB",11-02-2026 09:00:00,21.219665,81.630094,CO,35,107,80
India,Chhattisgarh,Raipur,"Siltara Phase-II, Raipur - CECB",11-02-2026 09:00:00,21.371751,81.664929,CO,34,36,35
India,Delhi,Delhi,"IGI Airport (T3), Delhi - IMD",11-02-2026 09:00:00,28.5627763,77.1180053,PM10,116,411,236
India,Delhi,Delhi,"IGI Airport (T3), Delhi - IMD",11-02-2026 09:00:00,28.5627763,77.1180053,OZONE,4,76,5
India,Delhi,Delhi,"IHBAS, Dilshad Garden, Delhi - CPCB",11-02-2026 09:00:00,28.6811736,77.3025234,CO,54,103,88
India,Delhi,Delhi,"ITO, Delhi - CPCB",11-02-2026 09:00:00,28.628624,77.241060,CO,16,136,73
India,Delhi,Delhi,"Jahangirpuri, Delhi - DPCC",11-02-2026 09:00:00,28.732820,77.170633,PM10,141,500,337
India,Delhi,Delhi,"Jawaharlal Nehru Stadium, Delhi - DPCC",11-02-2026 09:00:00,28.580280,77.233829,NH3,14,21,16
India,Delhi,Delhi,"Jawaharlal Nehru Stadium, Delhi - DPCC",11-02-2026 09:00:00,28.580280,77.233829,OZONE,5,133,7
India,Chhattisgarh,Bhilai,"Civic Center, Bhilai - Bhilai Steel Plant",11-02-2026 09:00:00,21.185571,81.343175,OZONE,9,14,10
India,Chhattisgarh,Chhal,"Nawapara SECL Colony, Chhal - CECB",11-02-2026 09:00:00,22.118125,83.140608,NH3,5,5,5
India,Chhattisgarh,Korba,"Rampur, Korba - CECB",11-02-2026 09:00:00,22.368195,82.746431,NO2,NA,NA,NA
India,Chhattisgarh,Korba,"Rampur, Korba - CECB",11-02-2026 09:00:00,22.368195,82.746431,NH3,NA,NA,NA
India,Chhattisgarh,Korba,"Urja Nagar, Korba - CECB",11-02-2026 09:00:00,22.348441,82.549611,PM2.5,6,302,72
India,Chhattisgarh,Korba,"Urja Nagar, Korba - CECB",11-02-2026 09:00:00,22.348441,82.549611,PM10,22,331,87
India,Chhattisgarh,Korba,"Urja Nagar, Korba - CECB",11-02-2026 09:00:00,22.348441,82.549611,CO,17,50,29
India,Bihar,Siwan,"Chitragupta Nagar, Siwan - BSPCB",11-02-2026 09:00:00,26.2271665,84.3570427,SO2,NA,NA,NA
India,Chandigarh,Chandigarh,"Sector 22, Chandigarh - CPCC",11-02-2026 09:00:00,30.735567,76.775714,PM2.5,58,170,99
India,Chandigarh,Chandigarh,"Sector 22, Chandigarh - CPCC",11-02-2026 09:00:00,30.735567,76.775714,PM10,51,126,85
India,Chandigarh,Chandigarh,"Sector 22, Chandigarh - CPCC",11-02-2026 09:00:00,30.735567,76.775714,NH3,4,17,12
India,Chandigarh,Chandigarh,"Sector-25, Chandigarh - CPCC",11-02-2026 09:00:00,30.751462,76.762879,PM10,101,138,116
India,Chhattisgarh,Bhilai,"32Bungalows, Bhilai - CECB",11-02-2026 09:00:00,21.194815,81.314770,SO2,7,9,8
India,Chhattisgarh,Bhilai,"32Bungalows, Bhilai - CECB",11-02-2026 09:00:00,21.194815,81.314770,CO,32,71,48
India,Chhattisgarh,Bhilai,"Civic Center, Bhilai - Bhilai Steel Plant",11-02-2026 09:00:00,21.185571,81.343175,PM2.5,18,92,47
India,Chhattisgarh,Bhilai,"Civic Center, Bhilai - Bhilai Steel Plant",11-02-2026 09:00:00,21.185571,81.343175,NO2,22,240,95
India,Delhi,Delhi,"Burari Crossing, Delhi - IMD",11-02-2026 09:00:00,28.7256504,77.2011573,PM10,130,476,313
India,Delhi,Delhi,"CRRI Mathura Road, Delhi - IMD",11-02-2026 09:00:00,28.5512005,77.2735737,PM10,130,417,282
India,Delhi,Delhi,"Chandni Chowk, Delhi - IITM",11-02-2026 09:00:00,28.656756,77.227234,OZONE,2,147,5
India,Gujarat,Ahmedabad,"SVPI Airport Hansol, Ahmedabad - IITM",11-02-2026 09:00:00,23.076793,72.627874,NO2,13,100,54
India,Gujarat,Ahmedabad,"SVPI Airport Hansol, Ahmedabad - IITM",11-02-2026 09:00:00,23.076793,72.627874,OZONE,1,53,1
India,Gujarat,Ankleshwar,"GIDC, Ankleshwar - GPCB",11-02-2026 09:00:00,21.613267,73.010555,NO2,26,27,26
India,Gujarat,Ankleshwar,"GIDC, Ankleshwar - GPCB",11-02-2026 09:00:00,21.613267,73.010555,SO2,31,32,31
India,Gujarat,Bhavnagar,"Vidhyanagar, Bhavnagar - Nexteng Enviro",11-02-2026 09:00:00,21.755417,72.139056,PM2.5,17,84,43
India,Gujarat,Bhavnagar,"Vidhyanagar, Bhavnagar - Nexteng Enviro",11-02-2026 09:00:00,21.755417,72.139056,NH3,4,7,6
India,Gujarat,Bhavnagar,"Vidhyanagar, Bhavnagar - Nexteng Enviro",11-02-2026 09:00:00,21.755417,72.139056,SO2,9,65,27
India,Gujarat,Bhavnagar,"Vidhyanagar, Bhavnagar - Nexteng Enviro",11-02-2026 09:00:00,21.755417,72.139056,CO,115,127,117
India,Gujarat,Gandhinagar,"GIFT City, Gandhinagar - IITM",11-02-2026 09:00:00,23.163798,72.677768,PM10,102,160,130
India,Gujarat,Gandhinagar,"GIFT City, Gandhinagar - IITM",11-02-2026 09:00:00,23.163798,72.677768,NO2,15,74,32
India,Gujarat,Gandhinagar,"IIPHG Lekawada, Gandhinagar - IITM",11-02-2026 09:00:00,23.243639,72.68994,NO2,4,166,32
India,Gujarat,Gandhinagar,"IIPHG Lekawada, Gandhinagar - IITM",11-02-2026 09:00:00,23.243639,72.68994,OZONE,2,40,3
India,Gujarat,Vatva,"Phase-4 GIDC, Vatva - GPCB",11-02-2026 09:00:00,22.969611,72.643500,NO2,87,123,103
India,Haryana,Bahadurgarh,"Arya Nagar, Bahadurgarh - HSPCB",11-02-2026 09:00:00,28.6701,76.9254,PM2.5,54,308,187
India,Haryana,Ballabgarh,"Nathu Colony, Ballabgarh - HSPCB",11-02-2026 09:00:00,28.3419248,77.319699,PM2.5,77,326,235
India,Haryana,Ballabgarh,"Nathu Colony, Ballabgarh - HSPCB",11-02-2026 09:00:00,28.3419248,77.319699,NH3,3,3,3
India,Haryana,Bhiwani,"H.B. Colony, Bhiwani - HSPCB",11-02-2026 09:00:00,28.806223,76.141105,PM10,16,500,199
India,Haryana,Bhiwani,"H.B. Colony, Bhiwani - HSPCB",11-02-2026 09:00:00,28.806223,76.141105,CO,9,12,11
India,Haryana,Charkhi Dadri,"Mini Secretariat, Charkhi Dadri - HSPCB",11-02-2026 09:00:00,28.593883,76.270653,PM2.5,168,364,282
India,Haryana,Charkhi Dadri,"Mini Secretariat, Charkhi Dadri - HSPCB",11-02-2026 09:00:00,28.593883,76.270653,PM10,110,240,156
India,Haryana,Charkhi Dadri,"Mini Secretariat, Charkhi Dadri - HSPCB",11-02-2026 09:00:00,28.593883,76.270653,OZONE,14,17,16
India,Delhi,Delhi,"Narela, Delhi - DPCC",11-02-2026 09:00:00,28.822836,77.101981,OZONE,9,222,13
India,Delhi,Delhi,"Nehru Nagar, Delhi - DPCC",11-02-2026 09:00:00,28.567890,77.250515,PM2.5,92,496,339
India,Delhi,Delhi,"Okhla Phase-2, Delhi - DPCC",11-02-2026 09:00:00,28.530785,77.271255,PM2.5,120,463,311
India,Delhi,Delhi,"Okhla Phase-2, Delhi - DPCC",11-02-2026 09:00:00,28.530785,77.271255,PM10,135,500,316
India,Delhi,Delhi,"Okhla Phase-2, Delhi - DPCC",11-02-2026 09:00:00,28.530785,77.271255,OZONE,4,184,6
India,Delhi,Delhi,"Patparganj, Delhi - DPCC",11-02-2026 09:00:00,28.623763,77.287209,OZONE,1,196,2
India,Delhi,Delhi,"Punjabi Bagh, Delhi - DPCC",11-02-2026 09:00:00,28.674045,77.131023,OZONE,13,71,28
India,Gujarat,Ahmedabad,"Gyaspur, Ahmedabad - IITM",11-02-2026 09:00:00,22.977134,72.553024,NH3,6,15,9
India,Gujarat,Ahmedabad,"Raikhad, Ahmedabad - IITM",11-02-2026 09:00:00,23.020509,72.579261,NH3,12,32,18
India,Gujarat,Ahmedabad,"Rakhial, Ahmedabad - IITM",11-02-2026 09:00:00,23.016834,72.625775,SO2,25,67,37
India,Gujarat,Ahmedabad,"SAC ISRO Bopal, Ahmedabad - IITM",11-02-2026 09:00:00,23.041137,72.456691,PM2.5,67,185,121
India,Gujarat,Ahmedabad,"SAC ISRO Bopal, Ahmedabad - IITM",11-02-2026 09:00:00,23.041137,72.456691,PM10,67,167,108
India,Gujarat,Ahmedabad,"SAC ISRO Bopal, Ahmedabad - IITM",11-02-2026 09:00:00,23.041137,72.456691,NO2,11,59,34
India,Gujarat,Ahmedabad,"SAC ISRO Bopal, Ahmedabad - IITM",11-02-2026 09:00:00,23.041137,72.456691,CO,8,43,36
India,Delhi,Delhi,"Sri Aurobindo Marg, Delhi - DPCC",11-02-2026 09:00:00,28.531346,77.190156,PM2.5,77,345,186
India,Delhi,Delhi,"Sri Aurobindo Marg, Delhi - DPCC",11-02-2026 09:00:00,28.531346,77.190156,SO2,7,14,10
India,Delhi,Delhi,"Vivek Vihar, Delhi - DPCC",11-02-2026 09:00:00,28.672342,77.315260,PM10,169,500,334
India,Delhi,Delhi,"Vivek Vihar, Delhi - DPCC",11-02-2026 09:00:00,28.672342,77.315260,OZONE,1,148,2
India,Delhi,Delhi,"Wazirpur, Delhi - DPCC",11-02-2026 09:00:00,28.699793,77.165453,SO2,2,32,11
India,Gujarat,Ahmedabad,"Chandkheda, Ahmedabad - IITM",11-02-2026 09:00:00,23.107969,72.574648,OZONE,1,39,3
India,Delhi,Delhi,"R K Puram, Delhi - DPCC",11-02-2026 09:00:00,28.563262,77.186937,PM10,115,400,243
India,Delhi,Delhi,"R K Puram, Delhi - DPCC",11-02-2026 09:00:00,28.563262,77.186937,NH3,8,13,10
India,Delhi,Delhi,"Rohini, Delhi - DPCC",11-02-2026 09:00:00,28.732528,77.119920,NH3,12,24,17
India,Delhi,Delhi,"Rohini, Delhi - DPCC",11-02-2026 09:00:00,28.732528,77.119920,CO,26,129,81
India,Delhi,Delhi,"Shadipur, Delhi - CPCB",11-02-2026 09:00:00,28.6514781,77.1473105,NH3,11,22,14
India,Delhi,Delhi,"Sirifort, Delhi - CPCB",11-02-2026 09:00:00,28.5504249,77.2159377,PM2.5,107,411,285
India,Haryana,Gurugram,"Sector-51, Gurugram - HSPCB",11-02-2026 09:00:00,28.4227,77.0667,NO2,6,15,9
India,Haryana,Gurugram,"Sector-51, Gurugram - HSPCB",11-02-2026 09:00:00,28.4227,77.0667,CO,44,98,85
India,Haryana,Gurugram,"Teri Gram, Gurugram - HSPCB",11-02-2026 09:00:00,28.4275,77.1465,SO2,15,39,19
India,Haryana,Hisar,"Urban Estate-II, Hisar - HSPCB",11-02-2026 09:00:00,29.140560,75.744941,PM10,71,118,96
India,Haryana,Jind,"Police Lines, Jind - HSPCB",11-02-2026 09:00:00,29.307814,76.337619,OZONE,12,38,16
India,Gujarat,Rajkot,"Mavdi, Rajkot - Nexteng Enviro ",11-02-2026 09:00:00,22.248853,70.776774,NO2,8,63,26
India,Gujarat,Surat,"Science Center, Surat - SMC",11-02-2026 09:00:00,21.170046,72.795405,CO,34,38,37
India,Gujarat,Vapi,"Phase-1 GIDC, Vapi - GPCB",11-02-2026 09:00:00,20.362421,72.918013,PM2.5,36,147,58
India,Gujarat,Vapi,"Phase-1 GIDC, Vapi - GPCB",11-02-2026 09:00:00,20.362421,72.918013,PM10,35,108,56
India,Gujarat,Vapi,"Phase-1 GIDC, Vapi - GPCB",11-02-2026 09:00:00,20.362421,72.918013,NH3,3,5,5
India,Haryana,Faridabad,"Sector 11, Faridabad - HSPCB",11-02-2026 09:00:00,28.376058,77.315741,NH3,10,10,10
India,Haryana,Faridabad,"Sector 30, Faridabad - HSPCB",11-02-2026 09:00:00,28.4417,77.3217,CO,40,66,61
India,Karnataka,Bengaluru,"RVCE-Mailasandra, Bengaluru - KSPCB",11-02-2026 09:00:00,12.921418,77.502466,CO,1,29,10
India,Karnataka,Bengaluru,"Sanegurava Halli, Bengaluru - KSPCB",11-02-2026 09:00:00,12.990328,77.5431385,NO2,17,18,18
India,Karnataka,Bengaluru,"Shivapura_Peenya, Bengaluru - KSPCB",11-02-2026 09:00:00,13.0246342,77.5080115,PM2.5,25,26,25
India,Karnataka,Chamarajanagar,"Urban, Chamarajanagar - KSPCB",11-02-2026 09:00:00,11.55358,76.55521,PM10,37,74,50
India,Karnataka,Chamarajanagar,"Urban, Chamarajanagar - KSPCB",11-02-2026 09:00:00,11.55358,76.55521,NO2,14,29,21
India,Karnataka,Chamarajanagar,"Urban, Chamarajanagar - KSPCB",11-02-2026 09:00:00,11.55358,76.55521,CO,11,24,19
India,Karnataka,Chamarajanagar,"Urban, Chamarajanagar - KSPCB",11-02-2026 09:00:00,11.55358,76.55521,OZONE,13,38,17
India,Karnataka,Chikkaballapur,"Chikkaballapur Rural, Chikkaballapur - KSPCB",11-02-2026 09:00:00,13.428828,77.731418,NO2,11,97,32
India,Karnataka,Chikkaballapur,"Chikkaballapur Rural, Chikkaballapur - KSPCB",11-02-2026 09:00:00,13.428828,77.731418,NH3,4,7,6
India,Karnataka,Chikkaballapur,"Chikkaballapur Rural, Chikkaballapur - KSPCB",11-02-2026 09:00:00,13.428828,77.731418,CO,12,34,14
India,Karnataka,Chikkamagaluru,"Kalyana Nagara, Chikkamagaluru - KSPCB",11-02-2026 09:00:00,13.328028,75.797056,SO2,6,12,8
India,Haryana,Palwal,"Shyam Nagar, Palwal - HSPCB",11-02-2026 09:00:00,28.1485564,77.3320667,NH3,8,9,9
India,Haryana,Panchgaon,"Amity University, Panchgaon - IITM",11-02-2026 09:00:00,28.3153,76.9143,PM2.5,5,316,49
India,Haryana,Panchkula,"Sector-6, Panchkula - HSPCB ",11-02-2026 09:00:00,30.7057778,76.8531805555555,PM2.5,41,232,113
India,Haryana,Panchkula,"Sector-6, Panchkula - HSPCB ",11-02-2026 09:00:00,30.7057778,76.8531805555555,CO,6,33,30
India,Haryana,Panipat,"Sector-18, Panipat - HSPCB",11-02-2026 09:00:00,29.432304,76.972765,PM2.5,74,303,148
India,Haryana,Panipat,"Sector-18, Panipat - HSPCB",11-02-2026 09:00:00,29.432304,76.972765,CO,16,26,24
India,Haryana,Rohtak,"MD University, Rohtak - HSPCB",11-02-2026 09:00:00,28.52123,76.37138,NO2,10,13,12
India,Haryana,Rohtak,"MD University, Rohtak - HSPCB",11-02-2026 09:00:00,28.52123,76.37138,SO2,10,15,12
India,Haryana,Sirsa,"F-Block, Sirsa - HSPCB",11-02-2026 09:00:00,29.536400,75.015800,PM2.5,NA,NA,NA
India,Haryana,Sirsa,"F-Block, Sirsa - HSPCB",11-02-2026 09:00:00,29.536400,75.015800,SO2,NA,NA,NA
India,Haryana,Karnal,"Sector-12, Karnal - HSPCB",11-02-2026 09:00:00,29.695300,77.002700,NO2,6,7,6
India,Haryana,Karnal,"Sector-12, Karnal - HSPCB",11-02-2026 09:00:00,29.695300,77.002700,NH3,6,6,6
India,Haryana,Kurukshetra,"Sector-7, Kurukshetra - HSPCB",11-02-2026 09:00:00,29.966942,76.875879,PM10,142,271,188
India,Haryana,Kurukshetra,"Sector-7, Kurukshetra - HSPCB",11-02-2026 09:00:00,29.966942,76.875879,SO2,1,29,7
India,Haryana,Mandikhera,"General Hospital, Mandikhera(Nuh) - HSPCB",11-02-2026 09:00:00,27.9002,76.9938,NH3,13,14,13
India,Haryana,Manesar,"Sector-2 IMT, Manesar - HSPCB",11-02-2026 09:00:00,28.360699,76.936090,PM10,87,173,136
India,Haryana,Manesar,"Sector-2 IMT, Manesar - HSPCB",11-02-2026 09:00:00,28.360699,76.936090,NO2,43,55,50
India,Haryana,Narnaul,"Shastri Nagar, Narnaul - HSPCB",11-02-2026 09:00:00,28.060249,76.113115,PM10,56,146,94
India,Karnataka,Ramanagara,"Vijay Nagar, Ramanagara - KSPCB",11-02-2026 09:00:00,12.733409,77.298051,NH3,3,4,3
India,Karnataka,Shivamogga,"Vinoba Nagara, Shivamogga - KSPCB",11-02-2026 09:00:00,13.940000,75.555917,NO2,21,23,22
India,Karnataka,Tumakuru,"Thimmalapura, Tumakuru - KSPCB",11-02-2026 09:00:00,13.377516,77.099072,PM2.5,86,205,128
India,Karnataka,Tumakuru,"Thimmalapura, Tumakuru - KSPCB",11-02-2026 09:00:00,13.377516,77.099072,CO,52,54,53
India,Karnataka,Vijayapura,"Ibrahimpur, Vijayapura - KSPCB",11-02-2026 09:00:00,16.802639,75.722694,NO2,11,12,11
India,Karnataka,Yadgir,"Collector Office, Yadgir - KSPCB",11-02-2026 09:00:00,16.7602,77.1428,PM10,58,127,83
India,Karnataka,Yadgir,"Collector Office, Yadgir - KSPCB",11-02-2026 09:00:00,16.7602,77.1428,NO2,8,38,16
India,Karnataka,Bengaluru,"Jayanagar 5th Block, Bengaluru - KSPCB",11-02-2026 09:00:00,12.920984,77.584908,PM10,77,143,103
India,Karnataka,Bengaluru,"Jayanagar 5th Block, Bengaluru - KSPCB",11-02-2026 09:00:00,12.920984,77.584908,OZONE,29,114,88
India,Karnataka,Bengaluru,"Jigani, Bengaluru - KSPCB",11-02-2026 09:00:00,12.7816279,77.6299145,NO2,23,25,24
India,Karnataka,Bengaluru,"Kasturi Nagar, Bengaluru - KSPCB",11-02-2026 09:00:00,13.003872,77.664217,PM2.5,58,66,64
India,Karnataka,Bengaluru,"Peenya, Bengaluru - CPCB",11-02-2026 09:00:00,13.0270199,77.494094,PM10,89,104,98
India,Karnataka,Bengaluru,"RVCE-Mailasandra, Bengaluru - KSPCB",11-02-2026 09:00:00,12.921418,77.502466,NO2,24,31,31
India,Karnataka,Bagalkot,"Vidayagiri, Bagalkot - KSPCB",11-02-2026 09:00:00,16.172806,75.659694,NO2,11,12,12
India,Karnataka,Bagalkot,"Vidayagiri, Bagalkot - KSPCB",11-02-2026 09:00:00,16.172806,75.659694,NH3,1,2,1
India,Karnataka,Bagalkot,"Vidayagiri, Bagalkot - KSPCB",11-02-2026 09:00:00,16.172806,75.659694,OZONE,12,12,12
India,Karnataka,Bengaluru,"BTM Layout, Bengaluru - CPCB",11-02-2026 09:00:00,12.9135218,77.5950804,PM10,94,96,95
India,Karnataka,Bengaluru,"BTM Layout, Bengaluru - CPCB",11-02-2026 09:00:00,12.9135218,77.5950804,NO2,4,16,10
India,Karnataka,Bengaluru,"BTM Layout, Bengaluru - CPCB",11-02-2026 09:00:00,12.9135218,77.5950804,SO2,17,17,17
India,Karnataka,Bengaluru,"BWSSB Kadabesanahalli, Bengaluru - CPCB",11-02-2026 09:00:00,12.9352049,77.6814488,NH3,NA,NA,NA
India,Karnataka,Dharwad,"Kalabhavan, Dharwad - KSPCB",11-02-2026 09:00:00,15.459706,75.008381,NH3,5,6,6
India,Karnataka,Hubballi,"Lingaraj Nagar, Hubballi - KSPCB",11-02-2026 09:00:00,15.3714823,75.1160168,PM10,57,63,59
India,Karnataka,Mangalore,"Kadri, Mangalore - KSPCB",11-02-2026 09:00:00,12.889250,74.853000,PM2.5,NA,NA,NA
India,Karnataka,Mangalore,"Kadri, Mangalore - KSPCB",11-02-2026 09:00:00,12.889250,74.853000,PM10,NA,NA,NA
India,Karnataka,Mangalore,"Kadri, Mangalore - KSPCB",11-02-2026 09:00:00,12.889250,74.853000,NO2,NA,NA,NA
India,Karnataka,Mysuru,"Hebbal 1st Stage, Mysuru - KSPCB",11-02-2026 09:00:00,12.21041,76.37376,NH3,3,6,5
