country,state,city,station,last_update,latitude,longitude,pollutant_id,min_value,max_value,avg_value
India,Andhra_Pradesh,Vijayawada,"Rajiv Nagar, Vijayawada - APPCB",09-02-2026 09:00:00,16.554731,80.649110,NH3,4,4,4
India,Andhra_Pradesh,Visakhapatnam,"GVM Corporation, Visakhapatnam - APPCB",09-02-2026 09:00:00,17.72,83.3,NH3,3,4,3
India,Andhra_Pradesh,Visakhapatnam,"GVM Corporation, Visakhapatnam - APPCB",09-02-2026 09:00:00,17.72,83.3,SO2,5,66,20
India,Arunachal_Pradesh,Naharlagun,"Naharlagun, Naharlagun - APSPCB",09-02-2026 09:00:00,27.103358,93.679645,CO,16,68,20
India,Assam,Byrnihat,"Central Academy for SFS, Byrnihat - PCBA",09-02-2026 09:00:00,26.071318,91.87488,PM10,67,128,89
India,Assam,Guwahati,"LGBI Airport, Guwahati - PCBA",09-02-2026 09:00:00,26.10887,91.589544,PM2.5,39,128,72
India,Assam,Guwahati,"LGBI Airport, Guwahati - PCBA",09-02-2026 09:00:00,26.10887,91.589544,OZONE,10,15,13
India,Assam,Guwahati,"Pan Bazaar, Guwahati - PCBA",09-02-2026 09:00:00,26.187500,91.744194,NO2,NA,NA,NA
India,Assam,Guwahati,"Pan Bazaar, Guwahati - PCBA",09-02-2026 09:00:00,26.187500,91.744194,CO,16,86,34
India,Bihar,Araria,"Kharahiya Basti, Araria - BSPCB",09-02-2026 09:00:00,26.146529,87.454184,NO2,1,8,3
India,Bihar,Araria,"Kharahiya Basti, Araria - BSPCB",09-02-2026 09:00:00,26.146529,87.454184,OZONE,10,11,10
India,Bihar,Arrah,"New DM Office, Arrah - BSPCB",09-02-2026 09:00:00,25.5626095,84.663264,CO,48,60,56
India,Bihar,Arrah,"New DM Office, Arrah - BSPCB",09-02-2026 09:00:00,25.5626095,84.663264,OZONE,6,9,8
India,Bihar,Aurangabad,"Gurdeo Nagar, Aurangabad - BSPCB",09-02-2026 09:00:00,24.75746,84.366208,SO2,11,17,15
India,Bihar,Begusarai,"Lohiyanagar, Begusarai - BSPCB",09-02-2026 09:00:00,25.42742023,86.13886079,NO2,6,11,9
India,Bihar,Begusarai,"Lohiyanagar, Begusarai - BSPCB",09-02-2026 09:00:00,25.42742023,86.13886079,CO,56,72,65
India,Bihar,Bettiah,"Kamalnath Nagar, Bettiah - BSPCB",09-02-2026 09:00:00,26.80365,84.51954,PM10,36,137,75
India,Bihar,Bettiah,"Kamalnath Nagar, Bettiah - BSPCB",09-02-2026 09:00:00,26.80365,84.51954,NH3,1,1,1
India,Andhra_Pradesh,Tirumala,"Toll Gate, Tirumala - APPCB",09-02-2026 09:00:00,13.67,79.35,PM2.5,92,208,151
India,Andhra_Pradesh,Tirumala,"Toll Gate, Tirumala - APPCB",09-02-2026 09:00:00,13.67,79.35,SO2,7,50,18
India,Andhra_Pradesh,Tirupati,"Vaikuntapuram, Tirupati - APPCB",09-02-2026 09:00:00,13.615387,79.409230,NO2,NA,NA,NA
India,Andhra_Pradesh,Vijayawada,"HB Colony, Vijayawada - APPCB",09-02-2026 09:00:00,16.536107,80.594233,PM2.5,57,95,74
India,Andhra_Pradesh,Vijayawada,"Kanuru, Vijayawada - APPCB",09-02-2026 09:00:00,16.486692,80.699436,PM10,52,112,62
India,Andhra_Pradesh,Vijayawada,"Kanuru, Vijayawada - APPCB",09-02-2026 09:00:00,16.486692,80.699436,NO2,22,22,22
India,Andhra_Pradesh,Vijayawada,"Rajiv Gandhi Park, Vijayawada - APPCB",09-02-2026 09:00:00,16.509717,80.612222,PM2.5,NA,NA,NA
India,Andhra_Pradesh,Vijayawada,"Rajiv Gandhi Park, Vijayawada - APPCB",09-02-2026 09:00:00,16.509717,80.612222,SO2,NA,NA,NA
India,Andhra_Pradesh,Vijayawada,"Rajiv Gandhi Park, Vijayawada - APPCB",09-02-2026 09:00:00,16.509717,80.612222,OZONE,8,13,9
India,Bihar,Kishanganj,"SDM Office_Khagra, Kishanganj - BSPCB",09-02-2026 09:00:00,26.0881305,87.93840336,NH3,3,3,3
India,Bihar,Manguraha,"Forest Rest House, Manguraha - BSPCB",09-02-2026 09:00:00,27.308328,84.531742,SO2,16,17,16
India,Bihar,Manguraha,"Forest Rest House, Manguraha - BSPCB",09-02-2026 09:00:00,27.308328,84.531742,CO,16,34,32
India,Bihar,Motihari,"Gandak Colony, Motihari - BSPCB",09-02-2026 09:00:00,26.63086,84.90051,PM2.5,40,308,135
India,Bihar,Motihari,"Gandak Colony, Motihari - BSPCB",09-02-2026 09:00:00,26.63086,84.90051,PM10,45,194,110
India,Bihar,Munger,"Town Hall, Munger - BSPCB",09-02-2026 09:00:00,25.376776,86.471523,NO2,4,5,5
India,Bihar,Munger,"Town Hall, Munger - BSPCB",09-02-2026 09:00:00,25.376776,86.471523,NH3,2,3,2
India,Andhra_Pradesh,Amaravati,"Secretariat, Amaravati - APPCB",09-02-2026 09:00:00,16.5150833,80.5181667,PM10,99,142,118
India,Andhra_Pradesh,Amaravati,"Secretariat, Amaravati - APPCB",09-02-2026 09:00:00,16.5150833,80.5181667,SO2,7,35,16
India,Andhra_Pradesh,Chittoor,"Gangineni Cheruvu, Chittoor - APPCB",09-02-2026 09:00:00,13.204880,79.097889,PM2.5,58,85,70
India,Andhra_Pradesh,Chittoor,"Gangineni Cheruvu, Chittoor - APPCB",09-02-2026 09:00:00,13.204880,79.097889,NO2,26,30,28
India,Andhra_Pradesh,Rajamahendravaram,"Anand Kala Kshetram, Rajamahendravaram - APPCB",09-02-2026 09:00:00,16.9872867,81.7363176,PM2.5,72,140,102
India,Andhra_Pradesh,Rajamahendravaram,"Anand Kala Kshetram, Rajamahendravaram - APPCB",09-02-2026 09:00:00,16.9872867,81.7363176,NO2,1,42,26
India,Bihar,Gaya,"Kareemganj, Gaya - BSPCB",09-02-2026 09:00:00,24.792403,84.992416,NO2,9,13,11
India,Bihar,Gaya,"SFTI Kusdihra, Gaya - BSPCB",09-02-2026 09:00:00,24.762518,84.982348,PM2.5,56,84,69
India,Bihar,Gaya,"SFTI Kusdihra, Gaya - BSPCB",09-02-2026 09:00:00,24.762518,84.982348,NO2,19,23,21
India,Bihar,Gaya,"SFTI Kusdihra, Gaya - BSPCB",09-02-2026 09:00:00,24.762518,84.982348,NH3,3,5,4
India,Bihar,Gaya,"SFTI Kusdihra, Gaya - BSPCB",09-02-2026 09:00:00,24.762518,84.982348,CO,35,56,44
India,Bihar,Katihar,"Mirchaibari, Katihar - BSPCB",09-02-2026 09:00:00,25.560083,87.553265,NH3,1,1,1
India,Bihar,Katihar,"Mirchaibari, Katihar - BSPCB",09-02-2026 09:00:00,25.560083,87.553265,SO2,18,23,20
India,Assam,Guwahati,"Railway Colony, Guwahati - PCBA",09-02-2026 09:00:00,26.181742,91.78063,PM2.5,181,394,308
India,Assam,Nagaon,"Christianpatty, Nagaon - PCBA",09-02-2026 09:00:00,26.349082,92.68449,NO2,1,1,1
India,Assam,Nagaon,"Christianpatty, Nagaon - PCBA",09-02-2026 09:00:00,26.349082,92.68449,OZONE,8,9,9
India,Assam,Sivasagar,"Girls College, Sivasagar - PCBA",09-02-2026 09:00:00,26.987634,94.636574,PM2.5,48,91,69
India,Assam,Sivasagar,"Girls College, Sivasagar - PCBA",09-02-2026 09:00:00,26.987634,94.636574,NO2,30,66,43
India,Assam,Sivasagar,"Girls College, Sivasagar - PCBA",09-02-2026 09:00:00,26.987634,94.636574,CO,20,78,43
India,Bihar,Muzaffarpur,"MIT-Daudpur Kothi, Muzaffarpur - BSPCB",09-02-2026 09:00:00,26.1403345,85.3650192,PM2.5,87,103,94
India,Bihar,Patna,"DRM Office Danapur, Patna - BSPCB",09-02-2026 09:00:00,25.586562,85.043586,NO2,48,55,51
India,Bihar,Patna,"Govt. High School Shikarpur, Patna - BSPCB",09-02-2026 09:00:00,25.592539,85.227158,NH3,1,3,2
India,Bihar,Patna,"IGSC Planetarium Complex, Patna - BSPCB",09-02-2026 09:00:00,25.610369,85.132568,NO2,2,2,2
India,Bihar,Bhagalpur,"DM Office_Kachari Chowk, Bhagalpur - BSPCB",09-02-2026 09:00:00,25.251013,86.989001,NO2,6,12,8
India,Bihar,Bhagalpur,"DM Office_Kachari Chowk, Bhagalpur - BSPCB",09-02-2026 09:00:00,25.251013,86.989001,CO,8,24,18
India,Bihar,Bhagalpur,"DM Office_Kachari Chowk, Bhagalpur - BSPCB",09-02-2026 09:00:00,25.251013,86.989001,OZONE,12,24,16
India,Bihar,Chhapra,"Darshan Nagar, Chhapra - BSPCB",09-02-2026 09:00:00,25.7808257,84.7446768,OZONE,2,6,4
India,Bihar,Patna,"Rajbansi Nagar, Patna - BSPCB",09-02-2026 09:00:00,25.599486,85.113666,PM2.5,70,128,86
India,Bihar,Patna,"Rajbansi Nagar, Patna - BSPCB",09-02-2026 09:00:00,25.599486,85.113666,NH3,1,3,2
India,Bihar,Patna,"Rajbansi Nagar, Patna - BSPCB",09-02-2026 09:00:00,25.599486,85.113666,OZONE,8,37,15
India,Bihar,Patna,"Samanpura, Patna - BSPCB",09-02-2026 09:00:00,25.596727,85.085624,NO2,4,31,19
India,Chhattisgarh,Bilaspur,"Mangala, Bilaspur - NTPC",09-02-2026 09:00:00,22.08815,82.13737,SO2,10,19,14
India,Chhattisgarh,Chhal,"Nawapara SECL Colony, Chhal - CECB",09-02-2026 09:00:00,22.118125,83.140608,PM10,40,81,58
India,Chhattisgarh,Chhal,"Nawapara SECL Colony, Chhal - CECB",09-02-2026 09:00:00,22.118125,83.140608,NO2,10,20,14
India,Chhattisgarh,Chhal,"Nawapara SECL Colony, Chhal - CECB",09-02-2026 09:00:00,22.118125,83.140608,CO,12,40,30
India,Chhattisgarh,Korba,"Rampur, Korba - CECB",09-02-2026 09:00:00,22.368195,82.746431,CO,11,25,21
India,Chhattisgarh,Korba,"Urja Nagar, Korba - CECB",09-02-2026 09:00:00,22.348441,82.549611,SO2,4,16,9
India,Chhattisgarh,Korba,"Urja Nagar, Korba - CECB",09-02-2026 09:00:00,22.348441,82.549611,OZONE,12,26,26
India,Chhattisgarh,Kunjemura,"OP Jindal School, Kunjemura - CECB",09-02-2026 09:00:00,22.126650,83.483212,PM2.5,22,90,51
India,Chhattisgarh,Raipur,"Siltara Phase-II, Raipur - CECB",09-02-2026 09:00:00,21.371751,81.664929,NH3,2,2,2
India,Chhattisgarh,Tumidih,"OP Jindal Industrial Park, Tumidih - CECB",09-02-2026 09:00:00,22.06631475,83.33820077,PM2.5,NA,NA,NA
India,Chhattisgarh,Tumidih,"OP Jindal Industrial Park, Tumidih - CECB",09-02-2026 09:00:00,22.06631475,83.33820077,NO2,NA,NA,NA
India,Chhattisgarh,Tumidih,"OP Jindal Industrial Park, Tumidih - CECB",09-02-2026 09:00:00,22.06631475,83.33820077,NH3,NA,NA,NA
India,Chhattisgarh,Kunjemura,"OP Jindal School, Kunjemura - CECB",09-02-2026 09:00:00,22.126650,83.483212,SO2,3,28,8
India,Chhattisgarh,Milupara,"Govt. Higher Secondary School, Milupara - CECB",09-02-2026 09:00:00,22.1910172,83.5197009,PM10,34,187,73
India,Chhattisgarh,Milupara,"Govt. Higher Secondary School, Milupara - CECB",09-02-2026 09:00:00,22.1910172,83.5197009,SO2,13,18,14
India,Bihar,Samastipur,"DM Office_Kasipur, Samastipur - BSPCB",09-02-2026 09:00:00,25.859655,85.77944,PM2.5,62,365,189
India,Bihar,Sasaram,"Dada Peer, Sasaram - BSPCB",09-02-2026 09:00:00,24.952822,84.002396,PM10,24,77,44
India,Bihar,Sasaram,"Dada Peer, Sasaram - BSPCB",09-02-2026 09:00:00,24.952822,84.002396,NO2,2,11,3
India,Chandigarh,Chandigarh,"Sector 22, Chandigarh - CPCC",09-02-2026 09:00:00,30.735567,76.775714,PM10,27,115,71
India,Chandigarh,Chandigarh,"Sector 22, Chandigarh - CPCC",09-02-2026 09:00:00,30.735567,76.775714,CO,46,104,46
India,Chandigarh,Chandigarh,"Sector-25, Chandigarh - CPCC",09-02-2026 09:00:00,30.751462,76.762879,PM10,NA,NA,NA
India,Chandigarh,Chandigarh,"Sector-25, Chandigarh - CPCC",09-02-2026 09:00:00,30.751462,76.762879,SO2,NA,NA,NA
India,Chhattisgarh,Bhilai,"Civic Center, Bhilai - Bhilai Steel Plant",09-02-2026 09:00:00,21.185571,81.343175,PM2.5,8,86,38
India,Chhattisgarh,Bhilai,"Civic Center, Bhilai - Bhilai Steel Plant",09-02-2026 09:00:00,21.185571,81.343175,SO2,6,11,8
India,Chhattisgarh,Bhilai,"Civic Center, Bhilai - Bhilai Steel Plant",09-02-2026 09:00:00,21.185571,81.343175,CO,28,34,34
India,Bihar,Purnia,"Mariam Nagar, Purnia - BSPCB",09-02-2026 09:00:00,25.366336,87.117468,NO2,5,7,6
India,Bihar,Saharsa,"Police Line, Saharsa - BSPCB",09-02-2026 09:00:00,25.892357,86.590325,NH3,4,4,4
India,Chhattisgarh,Bhilai,"32Bungalows, Bhilai - CECB",09-02-2026 09:00:00,21.194815,81.314770,SO2,7,8,7
India,Chhattisgarh,Bhilai,"32Bungalows, Bhilai - CECB",09-02-2026 09:00:00,21.194815,81.314770,CO,13,54,37
India,Chhattisgarh,Raipur,"Bhatagaon New ISBT, Raipur - CECB",09-02-2026 09:00:00,21.219665,81.630094,NO2,10,55,32
India,Delhi,Delhi,"Jawaharlal Nehru Stadium, Delhi - DPCC",09-02-2026 09:00:00,28.580280,77.233829,OZONE,1,145,1
India,Delhi,Delhi,"Lodhi Road, Delhi - IMD",09-02-2026 09:00:00,28.5918245,77.2273074,PM10,89,198,142
India,Delhi,Delhi,"Lodhi Road, Delhi - IMD",09-02-2026 09:00:00,28.5918245,77.2273074,NO2,23,69,40
India,Delhi,Delhi,"Major Dhyan Chand National Stadium, Delhi - DPCC",09-02-2026 09:00:00,28.611281,77.237738,PM10,89,221,145
India,Delhi,Delhi,"Major Dhyan Chand National Stadium, Delhi - DPCC",09-02-2026 09:00:00,28.611281,77.237738,NH3,15,18,16
India,Delhi,Delhi,"Mandir Marg, Delhi - DPCC",09-02-2026 09:00:00,28.636429,77.201067,PM2.5,23,338,144
India,Delhi,Delhi,"Mandir Marg, Delhi - DPCC",09-02-2026 09:00:00,28.636429,77.201067,NO2,59,116,81
India,Delhi,Delhi,"Mandir Marg, Delhi - DPCC",09-02-2026 09:00:00,28.636429,77.201067,SO2,30,60,45
India,Delhi,Delhi,"Mundka, Delhi - DPCC",09-02-2026 09:00:00,28.684678,77.076574,NO2,59,139,94
India,Delhi,Delhi,"Burari Crossing, Delhi - IMD",09-02-2026 09:00:00,28.7256504,77.2011573,OZONE,NA,NA,NA
India,Delhi,Delhi,"Chandni Chowk, Delhi - IITM",09-02-2026 09:00:00,28.656756,77.227234,PM2.5,33,394,195
India,Delhi,Delhi,"DTU, Delhi - CPCB",09-02-2026 09:00:00,28.7500499,77.1112615,PM2.5,56,346,211
India,Delhi,Delhi,"DTU, Delhi - CPCB",09-02-2026 09:00:00,28.7500499,77.1112615,NO2,35,45,44
India,Delhi,Delhi,"Dwarka-Sector 8, Delhi - DPCC ",09-02-2026 09:00:00,28.5710274,77.0719006,PM10,105,395,179
India,Delhi,Delhi,"Dwarka-Sector 8, Delhi - DPCC ",09-02-2026 09:00:00,28.5710274,77.0719006,NH3,18,24,22
India,Delhi,Delhi,"Okhla Phase-2, Delhi - DPCC",09-02-2026 09:00:00,28.530785,77.271255,OZONE,3,154,6
India,Delhi,Delhi,"Patparganj, Delhi - DPCC",09-02-2026 09:00:00,28.623763,77.287209,PM2.5,68,323,212
India,Delhi,Delhi,"Patparganj, Delhi - DPCC",09-02-2026 09:00:00,28.623763,77.287209,NO2,24,155,87
India,Delhi,Delhi,"Punjabi Bagh, Delhi - DPCC",09-02-2026 09:00:00,28.674045,77.131023,NH3,3,4,4
India,Delhi,Delhi,"R K Puram, Delhi - DPCC",09-02-2026 09:00:00,28.563262,77.186937,PM10,101,424,194
India,Delhi,Delhi,"R K Puram, Delhi - DPCC",09-02-2026 09:00:00,28.563262,77.186937,NO2,18,127,57
India,Delhi,Delhi,"IHBAS, Dilshad Garden, Delhi - CPCB",09-02-2026 09:00:00,28.6811736,77.3025234,PM2.5,59,193,110
India,Delhi,Delhi,"IHBAS, Dilshad Garden, Delhi - CPCB",09-02-2026 09:00:00,28.6811736,77.3025234,NH3,7,14,11
India,Delhi,Delhi,"ITO, Delhi - CPCB",09-02-2026 09:00:00,28.628624,77.241060,SO2,1,26,13
India,Delhi,Delhi,"ITO, Delhi - CPCB",09-02-2026 09:00:00,28.628624,77.241060,CO,28,112,80
India,Delhi,Delhi,"Jahangirpuri, Delhi - DPCC",09-02-2026 09:00:00,28.732820,77.170633,PM2.5,73,388,260
India,Delhi,Delhi,"Jahangirpuri, Delhi - DPCC",09-02-2026 09:00:00,28.732820,77.170633,PM10,105,395,212
India,Delhi,Delhi,"Anand Vihar, Delhi - DPCC",09-02-2026 09:00:00,28.647622,77.3158090,NH3,3,6,4
India,Delhi,Delhi,"Ashok Vihar, Delhi - DPCC",09-02-2026 09:00:00,28.695381,77.181665,OZONE,5,119,6
India,Delhi,Delhi,"Aya Nagar, Delhi - IMD",09-02-2026 09:00:00,28.4706914,77.1099364,PM2.5,51,278,162
India,Delhi,Delhi,"Aya Nagar, Delhi - IMD",09-02-2026 09:00:00,28.4706914,77.1099364,OZONE,6,83,7
India,Delhi,Delhi,"Shadipur, Delhi - CPCB",09-02-2026 09:00:00,28.6514781,77.1473105,NH3,11,19,14
India,Delhi,Delhi,"Sirifort, Delhi - CPCB",09-02-2026 09:00:00,28.5504249,77.2159377,SO2,33,40,36
India,Delhi,Delhi,"Sri Aurobindo Marg, Delhi - DPCC",09-02-2026 09:00:00,28.531346,77.190156,PM2.5,58,250,120
India,Delhi,Delhi,"Najafgarh, Delhi - DPCC",09-02-2026 09:00:00,28.570173,76.933762,CO,12,109,49
India,Delhi,Delhi,"Narela, Delhi - DPCC",09-02-2026 09:00:00,28.822836,77.101981,OZONE,7,99,10
India,Delhi,Delhi,"Okhla Phase-2, Delhi - DPCC",09-02-2026 09:00:00,28.530785,77.271255,NH3,15,21,18
India,Delhi,Delhi,"R K Puram, Delhi - DPCC",09-02-2026 09:00:00,28.563262,77.186937,NH3,6,10,7
India,Delhi,Delhi,"R K Puram, Delhi - DPCC",09-02-2026 09:00:00,28.563262,77.186937,SO2,23,47,32
India,Delhi,Delhi,"Rohini, Delhi - DPCC",09-02-2026 09:00:00,28.732528,77.119920,CO,24,128,97
India,Delhi,Delhi,"Jawaharlal Nehru Stadium, Delhi - DPCC",09-02-2026 09:00:00,28.580280,77.233829,PM10,115,459,216
India,Gujarat,Gandhinagar,"IIPHG Lekawada, Gandhinagar - IITM",09-02-2026 09:00:00,23.243639,72.68994,OZONE,2,50,2
India,Gujarat,Gandhinagar,"Sector-10, Gandhinagar - GPCB",09-02-2026 09:00:00,23.221714,72.654328,PM2.5,63,175,95
India,Gujarat,Gandhinagar,"Sector-10, Gandhinagar - GPCB",09-02-2026 09:00:00,23.221714,72.654328,OZONE,4,111,7
India,Gujarat,Mehsana,"Sadanand Nagar, Mehsana - Nexteng Enviro",09-02-2026 09:00:00,23.593150,72.372792,CO,147,164,159
India,Gujarat,Rajkot,"Mavdi, Rajkot - Nexteng Enviro ",09-02-2026 09:00:00,22.248853,70.776774,OZONE,9,42,19
India,Gujarat,Surat,"Katargam, Surat - Nexteng Enviro",09-02-2026 09:00:00,21.217779 ,72.834787 ,NO2,15,121,60
India,Gujarat,Surat,"Science Center, Surat - SMC",09-02-2026 09:00:00,21.170046,72.795405,PM2.5,8,113,45
India,Gujarat,Vatva,"Phase-4 GIDC, Vatva - GPCB",09-02-2026 09:00:00,22.969611,72.643500,NH3,8,12,10
India,Gujarat,Vatva,"Phase-4 GIDC, Vatva - GPCB",09-02-2026 09:00:00,22.969611,72.643500,OZONE,30,47,31
India,Haryana,Ambala,"Patti Mehar, Ambala - HSPCB",09-02-2026 09:00:00,30.379589,76.778328,SO2,15,31,22
India,Haryana,Bahadurgarh,"Arya Nagar, Bahadurgarh - HSPCB",09-02-2026 09:00:00,28.6701,76.9254,PM2.5,54,308,187
India,Haryana,Bahadurgarh,"Arya Nagar, Bahadurgarh - HSPCB",09-02-2026 09:00:00,28.6701,76.9254,CO,43,52,47
India,Haryana,Bahadurgarh,"Arya Nagar, Bahadurgarh - HSPCB",09-02-2026 09:00:00,28.6701,76.9254,OZONE,15,20,17
India,Haryana,Ballabgarh,"Nathu Colony, Ballabgarh - HSPCB",09-02-2026 09:00:00,28.3419248,77.319699,NH3,3,3,3
India,Haryana,Ballabgarh,"Nathu Colony, Ballabgarh - HSPCB",09-02-2026 09:00:00,28.3419248,77.319699,OZONE,15,15,15
India,Gujarat,Ankleshwar,"GIDC, Ankleshwar - GPCB",09-02-2026 09:00:00,21.613267,73.010555,NO2,18,19,19
India,Gujarat,Ankleshwar,"GIDC, Ankleshwar - GPCB",09-02-2026 09:00:00,21.613267,73.010555,SO2,17,18,17
India,Gujarat,Bhavnagar,"Vidhyanagar, Bhavnagar - Nexteng Enviro",09-02-2026 09:00:00,21.755417,72.139056,NO2,68,107,101
India,Gujarat,Bhavnagar,"Vidhyanagar, Bhavnagar - Nexteng Enviro",09-02-2026 09:00:00,21.755417,72.139056,CO,115,125,121
India,Gujarat,Gandhinagar,"GIFT City, Gandhinagar - IITM",09-02-2026 09:00:00,23.163798,72.677768,NH3,5,21,12
India,Gujarat,Gandhinagar,"GIFT City, Gandhinagar - IITM",09-02-2026 09:00:00,23.163798,72.677768,CO,4,57,32
India,Gujarat,Gandhinagar,"IIPHG Lekawada, Gandhinagar - IITM",09-02-2026 09:00:00,23.243639,72.68994,PM2.5,52,164,108
India,Gujarat,Gandhinagar,"IIPHG Lekawada, Gandhinagar - IITM",09-02-2026 09:00:00,23.243639,72.68994,CO,29,109,73
India,Gujarat,Ahmedabad,"Rakhial, Ahmedabad - IITM",09-02-2026 09:00:00,23.016834,72.625775,PM10,107,183,137
India,Gujarat,Ahmedabad,"Rakhial, Ahmedabad - IITM",09-02-2026 09:00:00,23.016834,72.625775,NO2,13,105,49
India,Gujarat,Ahmedabad,"SAC ISRO Bopal, Ahmedabad - IITM",09-02-2026 09:00:00,23.041137,72.456691,PM10,90,199,148
India,Gujarat,Ahmedabad,"SAC ISRO Bopal, Ahmedabad - IITM",09-02-2026 09:00:00,23.041137,72.456691,NH3,6,19,13
India,Gujarat,Ahmedabad,"SAC ISRO Satellite, Ahmedabad - IITM",09-02-2026 09:00:00,23.023389,72.515201,PM2.5,86,198,148
India,Gujarat,Ahmedabad,"SAC ISRO Satellite, Ahmedabad - IITM",09-02-2026 09:00:00,23.023389,72.515201,PM10,102,195,142
India,Gujarat,Ahmedabad,"SAC ISRO Satellite, Ahmedabad - IITM",09-02-2026 09:00:00,23.023389,72.515201,OZONE,1,67,5
India,Haryana,Faridabad,"Sector 11, Faridabad - HSPCB",09-02-2026 09:00:00,28.376058,77.315741,PM2.5,51,402,208
India,Haryana,Faridabad,"Sector 11, Faridabad - HSPCB",09-02-2026 09:00:00,28.376058,77.315741,PM10,51,390,158
India,Haryana,Faridabad,"Sector 11, Faridabad - HSPCB",09-02-2026 09:00:00,28.376058,77.315741,NO2,30,32,31
India,Haryana,Faridabad,"Sector 30, Faridabad - HSPCB",09-02-2026 09:00:00,28.4417,77.3217,PM2.5,91,101,94
India,Haryana,Faridabad,"Sector 30, Faridabad - HSPCB",09-02-2026 09:00:00,28.4417,77.3217,NH3,10,12,11
India,Haryana,Charkhi Dadri,"Mini Secretariat, Charkhi Dadri - HSPCB",09-02-2026 09:00:00,28.593883,76.270653,NO2,9,25,15
India,Haryana,Faridabad,"New Industrial Town, Faridabad - HSPCB",09-02-2026 09:00:00,28.39072,77.30059,CO,10,12,11
India,Haryana,Fatehabad,"Huda Sector, Fatehabad - HSPCB",09-02-2026 09:00:00,29.503664,75.467934,CO,25,38,26
India,Haryana,Gurugram,"NISE Gwal Pahari, Gurugram - IMD",09-02-2026 09:00:00,28.422681,77.148944,PM10,4,219,134
India,Delhi,Delhi,"Wazirpur, Delhi - DPCC",09-02-2026 09:00:00,28.699793,77.165453,NO2,200,221,212
India,Gujarat,Ahmedabad,"Gyaspur, Ahmedabad - IITM",09-02-2026 09:00:00,22.977134,72.553024,PM10,NA,NA,NA
India,Gujarat,Vadodara,"Bapunagar, Vadodara - Nexteng Enviro",09-02-2026 09:00:00,22.320153,73.216285,NO2,11,24,16
India,Gujarat,Vadodara,"Bapunagar, Vadodara - Nexteng Enviro",09-02-2026 09:00:00,22.320153,73.216285,SO2,7,8,7
India,Haryana,Yamuna Nagar,"Gobind Pura, Yamuna Nagar - HSPCB",09-02-2026 09:00:00,30.1480566,77.2893471,PM10,109,178,124
India,Haryana,Yamuna Nagar,"Gobind Pura, Yamuna Nagar - HSPCB",09-02-2026 09:00:00,30.1480566,77.2893471,NO2,36,39,37
India,Himachal Pradesh,Baddi,"HIMUDA Complex Phase-1, Baddi - HPPCB",09-02-2026 09:00:00,30.943887,76.801991,PM2.5,65,357,146
India,Himachal Pradesh,Baddi,"HIMUDA Complex Phase-1, Baddi - HPPCB",09-02-2026 09:00:00,30.943887,76.801991,NH3,5,8,6
India,Jammu_and_Kashmir,Pampore,"Khrew, Pampore - JKPCC",09-02-2026 09:00:00,34.031606,75.009712,PM2.5,30,96,64
India,Jammu_and_Kashmir,Pampore,"Khrew, Pampore - JKPCC",09-02-2026 09:00:00,34.031606,75.009712,SO2,2,2,2
India,Jammu_and_Kashmir,Srinagar,"Rajbagh, Srinagar - JKPCC",09-02-2026 09:00:00,34.066206,74.819820,PM10,25,46,37
India,Jharkhand,Dhanbad,"Sardar Patel Nagar, Dhanbad - JSPCB",09-02-2026 09:00:00,23.80569,86.44268,SO2,NA,NA,NA
India,Karnataka,Bagalkot,"Vidayagiri, Bagalkot - KSPCB",09-02-2026 09:00:00,16.172806,75.659694,NH3,1,2,1
India,Karnataka,Bengaluru,"Peenya, Bengaluru - CPCB",09-02-2026 09:00:00,13.0270199,77.494094,NO2,20,32,25
India,Karnataka,Bengaluru,"Peenya, Bengaluru - CPCB",09-02-2026 09:00:00,13.0270199,77.494094,OZONE,20,21,21
India,Karnataka,Bengaluru,"RVCE-Mailasandra, Bengaluru - KSPCB",09-02-2026 09:00:00,12.921418,77.502466,NO2,24,31,31
India,Karnataka,Bengaluru,"RVCE-Mailasandra, Bengaluru - KSPCB",09-02-2026 09:00:00,12.921418,77.502466,NH3,3,4,4
India,Karnataka,Bengaluru,"RVCE-Mailasandra, Bengaluru - KSPCB",09-02-2026 09:00:00,12.921418,77.502466,SO2,5,6,6
India,Karnataka,Bengaluru,"RVCE-Mailasandra, Bengaluru - KSPCB",09-02-2026 09:00:00,12.921418,77.502466,CO,16,28,19
India,Karnataka,Bengaluru,"Silk Board, Bengaluru - KSPCB",09-02-2026 09:00:00,12.917348,77.622813,PM2.5,74,157,110
India,Karnataka,Bengaluru,"Silk Board, Bengaluru - KSPCB",09-02-2026 09:00:00,12.917348,77.622813,PM10,96,143,122
India,Karnataka,Bengaluru,"Silk Board, Bengaluru - KSPCB",09-02-2026 09:00:00,12.917348,77.622813,NO2,40,96,62
India,Karnataka,Chamarajanagar,"Urban, Chamarajanagar - KSPCB",09-02-2026 09:00:00,11.55358,76.55521,PM10,45,93,75
India,Karnataka,Chamarajanagar,"Urban, Chamarajanagar - KSPCB",09-02-2026 09:00:00,11.55358,76.55521,OZONE,13,39,18
India,Haryana,Gurugram,"Sector-51, Gurugram - HSPCB",09-02-2026 09:00:00,28.4227,77.0667,SO2,5,11,6
India,Haryana,Gurugram,"Teri Gram, Gurugram - HSPCB",09-02-2026 09:00:00,28.4275,77.1465,CO,94,94,94
India,Haryana,Gurugram,"Teri Gram, Gurugram - HSPCB",09-02-2026 09:00:00,28.4275,77.1465,OZONE,10,10,10
India,Haryana,Hisar,"Urban Estate-II, Hisar - HSPCB",09-02-2026 09:00:00,29.140560,75.744941,NH3,NA,NA,NA
India,Haryana,Hisar,"Urban Estate-II, Hisar - HSPCB",09-02-2026 09:00:00,29.140560,75.744941,SO2,NA,NA,NA
India,Haryana,Jind,"Police Lines, Jind - HSPCB",09-02-2026 09:00:00,29.307814,76.337619,PM2.5,68,191,127
India,Haryana,Jind,"Police Lines, Jind - HSPCB",09-02-2026 09:00:00,29.307814,76.337619,NH3,1,3,2
India,Haryana,Kaithal,"Rishi Nagar, Kaithal - HSPCB",09-02-2026 09:00:00,29.8006,76.4155,CO,9,75,33
India,Haryana,Kaithal,"Rishi Nagar, Kaithal - HSPCB",09-02-2026 09:00:00,29.8006,76.4155,OZONE,3,18,9
India,Haryana,Palwal,"Shyam Nagar, Palwal - HSPCB",09-02-2026 09:00:00,28.1485564,77.3320667,NO2,23,24,24
India,Haryana,Palwal,"Shyam Nagar, Palwal - HSPCB",09-02-2026 09:00:00,28.1485564,77.3320667,NH3,8,9,9
India,Haryana,Palwal,"Shyam Nagar, Palwal - HSPCB",09-02-2026 09:00:00,28.1485564,77.3320667,SO2,14,15,14
India,Haryana,Panchgaon,"Amity University, Panchgaon - IITM",09-02-2026 09:00:00,28.3153,76.9143,PM10,2,171,41
India,Haryana,Panchgaon,"Amity University, Panchgaon - IITM",09-02-2026 09:00:00,28.3153,76.9143,NO2,3,31,12
India,Haryana,Panchgaon,"Amity University, Panchgaon - IITM",09-02-2026 09:00:00,28.3153,76.9143,NH3,3,8,5
India,Haryana,Panchgaon,"Amity University, Panchgaon - IITM",09-02-2026 09:00:00,28.3153,76.9143,OZONE,1,88,2
India,Haryana,Panchkula,"Sector-6, Panchkula - HSPCB ",09-02-2026 09:00:00,30.7057778,76.8531805555555,SO2,14,16,15
India,Haryana,Rohtak,"MD University, Rohtak - HSPCB",09-02-2026 09:00:00,28.52123,76.37138,SO2,11,13,12
India,Karnataka,Chikkaballapur,"Chikkaballapur Rural, Chikkaballapur - KSPCB",09-02-2026 09:00:00,13.428828,77.731418,SO2,12,23,16
India,Karnataka,Chikkamagaluru,"Kalyana Nagara, Chikkamagaluru - KSPCB",09-02-2026 09:00:00,13.328028,75.797056,PM10,27,52,39
India,Karnataka,Chikkamagaluru,"Kalyana Nagara, Chikkamagaluru - KSPCB",09-02-2026 09:00:00,13.328028,75.797056,NH3,4,4,4
India,Karnataka,Dharwad,"Kalabhavan, Dharwad - KSPCB",09-02-2026 09:00:00,15.459706,75.008381,NH3,NA,NA,NA
India,Karnataka,Hubballi,"Lingaraj Nagar, Hubballi - KSPCB",09-02-2026 09:00:00,15.3714823,75.1160168,PM10,56,79,59
India,Haryana,Karnal,"Sector-12, Karnal - HSPCB",09-02-2026 09:00:00,29.695300,77.002700,NO2,6,7,6
India,Haryana,Karnal,"Sector-12, Karnal - HSPCB",09-02-2026 09:00:00,29.695300,77.002700,SO2,6,7,6
India,Haryana,Karnal,"Sector-12, Karnal - HSPCB",09-02-2026 09:00:00,29.695300,77.002700,CO,30,38,34
India,Haryana,Karnal,"Sector-12, Karnal - HSPCB",09-02-2026 09:00:00,29.695300,77.002700,OZONE,31,31,31
India,Haryana,Kurukshetra,"Sector-7, Kurukshetra - HSPCB",09-02-2026 09:00:00,29.966942,76.875879,OZONE,7,61,15
India,Haryana,Mandikhera,"General Hospital, Mandikhera(Nuh) - HSPCB",09-02-2026 09:00:00,27.9002,76.9938,CO,57,88,76
India,Karnataka,Bengaluru,"Hombegowda Nagar, Bengaluru - KSPCB",09-02-2026 09:00:00,12.938539,77.590100,OZONE,22,65,41
India,Karnataka,Bengaluru,"Jigani, Bengaluru - KSPCB",09-02-2026 09:00:00,12.7816279,77.6299145,PM10,80,151,129
India,Karnataka,Bengaluru,"Jigani, Bengaluru - KSPCB",09-02-2026 09:00:00,12.7816279,77.6299145,NH3,4,4,4
India,Karnataka,Bengaluru,"Jigani, Bengaluru - KSPCB",09-02-2026 09:00:00,12.7816279,77.6299145,OZONE,24,26,25
India,Karnataka,Bengaluru,"Peenya, Bengaluru - CPCB",09-02-2026 09:00:00,13.0270199,77.494094,PM10,82,106,98
India,Karnataka,Belgaum,"Ramteerth Nagar, Belgaum - KSPCB",09-02-2026 09:00:00,15.888653,74.541751,PM10,50,111,76
India,Karnataka,Belgaum,"Ramteerth Nagar, Belgaum - KSPCB",09-02-2026 09:00:00,15.888653,74.541751,NO2,36,102,53
India,Karnataka,Belgaum,"Ramteerth Nagar, Belgaum - KSPCB",09-02-2026 09:00:00,15.888653,74.541751,SO2,30,31,30
India,Karnataka,Belgaum,"Ramteerth Nagar, Belgaum - KSPCB",09-02-2026 09:00:00,15.888653,74.541751,OZONE,19,19,19
India,Karnataka,Bengaluru,"BTM Layout, Bengaluru - CPCB",09-02-2026 09:00:00,12.9135218,77.5950804,NO2,2,14,6
India,Karnataka,Bengaluru,"BTM Layout, Bengaluru - CPCB",09-02-2026 09:00:00,12.9135218,77.5950804,OZONE,22,23,23
India,Karnataka,Bengaluru,"Bapuji Nagar, Bengaluru - KSPCB",09-02-2026 09:00:00,12.951913,77.539784,NO2,NA,NA,NA
India,Madhya Pradesh,Gwalior,"City Center, Gwalior - MPPCB",09-02-2026 09:00:00,26.203442,78.193251,PM10,46,135,84
India,Madhya Pradesh,Gwalior,"City Center, Gwalior - MPPCB",09-02-2026 09:00:00,26.203442,78.193251,NH3,2,2,2
India,Madhya Pradesh,Indore,"Airport Area, Indore - IMC",09-02-2026 09:00:00,22.7289,75.8076,PM10,55,151,101
India,Madhya Pradesh,Indore,"Airport Area, Indore - IMC",09-02-2026 09:00:00,22.7289,75.8076,NO2,56,107,78
India,Madhya Pradesh,Indore,"Airport Area, Indore - IMC",09-02-2026 09:00:00,22.7289,75.8076,CO,2,34,21
India,Madhya Pradesh,Indore,"Airport Area, Indore - IMC",09-02-2026 09:00:00,22.7289,75.8076,OZONE,5,12,7
India,Madhya Pradesh,Indore,"Chhoti Gwaltoli, Indore - MPPCB",09-02-2026 09:00:00,22.4310,75.5213,NO2,63,148,100
India,Madhya Pradesh,Indore,"Chhoti Gwaltoli, Indore - MPPCB",09-02-2026 09:00:00,22.4310,75.5213,NH3,2,14,9
India,Madhya Pradesh,Indore,"Chhoti Gwaltoli, Indore - MPPCB",09-02-2026 09:00:00,22.4310,75.5213,OZONE,4,40,20
India,Madhya Pradesh,Indore,"Maguda Nagar, Indore - IMC",09-02-2026 09:00:00,22.7524,75.8872,PM2.5,23,316,99
India,Madhya Pradesh,Indore,"Residency Area, Indore - IMC",09-02-2026 09:00:00,22.7084,75.8815,PM10,39,138,75
India,Madhya Pradesh,Indore,"Residency Area, Indore - IMC",09-02-2026 09:00:00,22.7084,75.8815,CO,26,74,46
India,Madhya Pradesh,Indore,"Residency Area, Indore - IMC",09-02-2026 09:00:00,22.7084,75.8815,OZONE,6,10,6
India,Madhya Pradesh,Jabalpur,"Govindh Bhavan Colony, Jabalpur - JMC",09-02-2026 09:00:00,23.163174,79.973061,PM2.5,28,67,49
India,Madhya Pradesh,Jabalpur,"Govindh Bhavan Colony, Jabalpur - JMC",09-02-2026 09:00:00,23.163174,79.973061,CO,12,32,28
India,Madhya Pradesh,Jabalpur,"Gupteshwar, Jabalpur - JMC",09-02-2026 09:00:00,23.142888,79.916147,PM10,31,89,57
India,Madhya Pradesh,Jabalpur,"Gupteshwar, Jabalpur - JMC",09-02-2026 09:00:00,23.142888,79.916147,SO2,14,19,17
India,Madhya Pradesh,Jabalpur,"Marhatal, Jabalpur - MPPCB",09-02-2026 09:00:00,23.168606,79.932247,NO2,19,76,38
India,Madhya Pradesh,Jabalpur,"Marhatal, Jabalpur - MPPCB",09-02-2026 09:00:00,23.168606,79.932247,SO2,14,23,18
India,Madhya Pradesh,Jabalpur,"Suhagi, Jabalpur - JMC",09-02-2026 09:00:00,23.218135,79.957770,NO2,20,101,47
India,Madhya Pradesh,Katni,"Gole Bazar, Katni - MPPCB",09-02-2026 09:00:00,23.50016,80.23284,OZONE,9,112,14
India,Madhya Pradesh,Mandideep,"Sector-D Industrial Area, Mandideep - MPPCB",09-02-2026 09:00:00,23.108440,77.511428,PM10,51,473,183
India,Madhya Pradesh,Pithampur,"Sector-2 Industrial Area, Pithampur - MPPCB",09-02-2026 09:00:00,22.624758,75.675238,PM10,70,232,130
India,Madhya Pradesh,Pithampur,"Sector-2 Industrial Area, Pithampur - MPPCB",09-02-2026 09:00:00,22.624758,75.675238,NH3,1,3,1
India,Madhya Pradesh,Pithampur,"Sector-2 Industrial Area, Pithampur - MPPCB",09-02-2026 09:00:00,22.624758,75.675238,CO,10,40,36
India,Madhya Pradesh,Ratlam,"Shasthri Nagar, Ratlam - IPCA Lab",09-02-2026 09:00:00,23.331731,75.045981,SO2,33,36,35
India,Karnataka,Mysuru,"Hebbal 1st Stage, Mysuru - KSPCB",09-02-2026 09:00:00,12.21041,76.37376,OZONE,6,109,22
India,Karnataka,Ramanagara,"Vijay Nagar, Ramanagara - KSPCB",09-02-2026 09:00:00,12.733409,77.298051,PM2.5,75,291,156
India,Karnataka,Ramanagara,"Vijay Nagar, Ramanagara - KSPCB",09-02-2026 09:00:00,12.733409,77.298051,OZONE,27,76,32
India,Karnataka,Shivamogga,"Vinoba Nagara, Shivamogga - KSPCB",09-02-2026 09:00:00,13.940000,75.555917,NH3,3,4,3
India,Karnataka,Tumakuru,"Thimmalapura, Tumakuru - KSPCB",09-02-2026 09:00:00,13.377516,77.099072,NH3,6,6,6
India,Karnataka,Tumakuru,"Thimmalapura, Tumakuru - KSPCB",09-02-2026 09:00:00,13.377516,77.099072,OZONE,23,23,23
India,Karnataka,Vijayapura,"Ibrahimpur, Vijayapura - KSPCB",09-02-2026 09:00:00,16.802639,75.722694,NH3,1,2,1
India,Karnataka,Vijayapura,"Ibrahimpur, Vijayapura - KSPCB",09-02-2026 09:00:00,16.802639,75.722694,SO2,3,6,3
India,Kerala,Thrissur,"Corporation Ground, Thrissur - Kerala PCB",09-02-2026 09:00:00,10.532400,76.215900,PM2.5,61,82,71
India,Kerala,Thrissur,"Corporation Ground, Thrissur - Kerala PCB",09-02-2026 09:00:00,10.532400,76.215900,NO2,7,9,8
India,Kerala,Thrissur,"Corporation Ground, Thrissur - Kerala PCB",09-02-2026 09:00:00,10.532400,76.215900,CO,33,45,39
India,Madhya Pradesh,Bhopal,"Idgah Hills, Bhopal - MPPCB",09-02-2026 09:00:00,23.264759,77.381568,OZONE,30,80,45
India,Madhya Pradesh,Bhopal,"Paryavaran Parisar, Bhopal - MPPCB",09-02-2026 09:00:00,23.210494,77.425409,PM2.5,50,257,116
India,Madhya Pradesh,Bhopal,"Paryavaran Parisar, Bhopal - MPPCB",09-02-2026 09:00:00,23.210494,77.425409,NO2,25,91,53
India,Madhya Pradesh,Bhopal,"Paryavaran Parisar, Bhopal - MPPCB",09-02-2026 09:00:00,23.210494,77.425409,NH3,17,27,21
India,Madhya Pradesh,Bhopal,"Paryavaran Parisar, Bhopal - MPPCB",09-02-2026 09:00:00,23.210494,77.425409,SO2,6,14,10
India,Madhya Pradesh,Sagar,"Civil Lines, Sagar - MPPCB",09-02-2026 09:00:00,23.838586,78.759431,CO,20,45,24
India,Madhya Pradesh,Satna,"Bandhavgar Colony, Satna - Birla Cement",09-02-2026 09:00:00,24.58434363,80.8549414,SO2,19,21,20
India,Maharashtra,Ahmednagar,"Tarakpur, Ahmednagar - MPCB",09-02-2026 09:00:00,19.10122,74.73339,NH3,5,7,6
India,Maharashtra,Ahmednagar,"Tarakpur, Ahmednagar - MPCB",09-02-2026 09:00:00,19.10122,74.73339,SO2,21,30,25
India,Karnataka,Hubballi,"Lingaraj Nagar, Hubballi - KSPCB",09-02-2026 09:00:00,15.3714823,75.1160168,NH3,1,1,1
India,Karnataka,Kalaburagi,"Mahatma Basaveswar Colony, Kalaburgi - KSPCB",09-02-2026 09:00:00,17.336318,76.847397,NO2,13,19,15
India,Karnataka,Kalaburagi,"Mahatma Basaveswar Colony, Kalaburgi - KSPCB",09-02-2026 09:00:00,17.336318,76.847397,OZONE,14,19,14
India,Karnataka,Mysuru,"Hebbal 1st Stage, Mysuru - KSPCB",09-02-2026 09:00:00,12.21041,76.37376,PM10,81,119,101
India,Madhya Pradesh,Bhopal,"T T Nagar, Bhopal - MPPCB",09-02-2026 09:00:00,23.233584,77.400574,PM10,63,126,95
India,Madhya Pradesh,Dewas,"Bhopal Chauraha, Dewas - MPPCB",09-02-2026 09:00:00,22.9682591,76.064118,CO,8,48,21
India,Kerala,Kannur,"Thavakkara, Kannur - Kerala PCB",09-02-2026 09:00:00,11.875000,75.373200,NO2,14,18,17
India,Maharashtra,Kolhapur,"Shivaji University, Kolhapur - MPCB",09-02-2026 09:00:00,16.6870449,74.2505872,NH3,2,6,4
India,Maharashtra,Kolhapur,"Shivaji University, Kolhapur - MPCB",09-02-2026 09:00:00,16.6870449,74.2505872,SO2,NA,NA,NA
India,Maharashtra,Kolhapur,"Shivaji University, Kolhapur - MPCB",09-02-2026 09:00:00,16.6870449,74.2505872,CO,10,69,38
India,Maharashtra,Kolhapur,"Sinchan Bhavan, Kolhapur - MPCB",09-02-2026 09:00:00,16.7143745,74.2426398,PM2.5,47,306,120
India,Maharashtra,Kolhapur,"Sinchan Bhavan, Kolhapur - MPCB",09-02-2026 09:00:00,16.7143745,74.2426398,PM10,103,182,131
India,Maharashtra,Kolhapur,"Sinchan Bhavan, Kolhapur - MPCB",09-02-2026 09:00:00,16.7143745,74.2426398,CO,4,9,6
India,Maharashtra,Latur,"Sawe Wadi, Latur - MPCB",09-02-2026 09:00:00,18.39963,76.57452,NH3,3,20,8
India,Maharashtra,Mahad,"Kamble Tarf Birwadi, Mahad - MPCB",09-02-2026 09:00:00,18.1023399,73.4783687,NO2,33,101,44
India,Maharashtra,Mahad,"Kamble Tarf Birwadi, Mahad - MPCB",09-02-2026 09:00:00,18.1023399,73.4783687,CO,2,28,11
India,Maharashtra,Mumbai,"Malad West, Mumbai - IITM",09-02-2026 09:00:00,19.19709,72.82204,SO2,19,67,36
India,Maharashtra,Mumbai,"Malad West, Mumbai - IITM",09-02-2026 09:00:00,19.19709,72.82204,OZONE,33,82,53
India,Maharashtra,Mumbai,"Mindspace-Malad West, Mumbai - MPCB",09-02-2026 09:00:00,19.1878657,72.8304069,PM2.5,79,95,89
India,Maharashtra,Mumbai,"Mindspace-Malad West, Mumbai - MPCB",09-02-2026 09:00:00,19.1878657,72.8304069,NO2,17,91,44
India,Maharashtra,Mumbai,"Mindspace-Malad West, Mumbai - MPCB",09-02-2026 09:00:00,19.1878657,72.8304069,SO2,10,56,26
India,Maharashtra,Mumbai,"Mulund West, Mumbai - MPCB",09-02-2026 09:00:00,19.1750,72.9419,PM10,NA,NA,NA
India,Maharashtra,Mumbai,"Navy Nagar-Colaba, Mumbai - IITM",09-02-2026 09:00:00,18.897756,72.813320,SO2,10,79,30
India,Maharashtra,Mumbai,"Navy Nagar-Colaba, Mumbai - IITM",09-02-2026 09:00:00,18.897756,72.813320,OZONE,12,83,21
India,Maharashtra,Mumbai,"Sewri, Mumbai - BMC",09-02-2026 09:00:00,19.000084,72.856730,PM2.5,67,159,98
India,Maharashtra,Mumbai,"Borivali East, Mumbai - MPCB",09-02-2026 09:00:00,19.2243333,72.8658113,OZONE,17,28,19
India,Maharashtra,Mumbai,"Byculla, Mumbai - BMC",09-02-2026 09:00:00,18.9767,72.8380,NH3,9,26,18
India,Maharashtra,Mumbai,"Byculla, Mumbai - BMC",09-02-2026 09:00:00,18.9767,72.8380,SO2,1,4,2
India,Maharashtra,Mumbai,"Chakala-Andheri East, Mumbai - IITM",09-02-2026 09:00:00,19.11074,72.86084,PM10,99,143,118
India,Maharashtra,Mumbai,"Chakala-Andheri East, Mumbai - IITM",09-02-2026 09:00:00,19.11074,72.86084,CO,2,52,28
India,Maharashtra,Mumbai,"Chembur, Mumbai - MPCB",09-02-2026 09:00:00,19.0364585,72.8954371,PM10,86,124,102
India,Maharashtra,Mumbai,"Chembur, Mumbai - MPCB",09-02-2026 09:00:00,19.0364585,72.8954371,SO2,5,18,11
India,Maharashtra,Mumbai,"Chhatrapati Shivaji Intl. Airport (T2), Mumbai - MPCB",09-02-2026 09:00:00,19.10078,72.87462,NO2,1,2,1
India,Maharashtra,Mumbai,"Ghatkopar, Mumbai - BMC",09-02-2026 09:00:00,19.083694,72.920967,SO2,NA,NA,NA
India,Maharashtra,Mumbai,"Ghatkopar, Mumbai - BMC",09-02-2026 09:00:00,19.083694,72.920967,CO,2,101,73
India,Maharashtra,Mumbai,"Ghatkopar, Mumbai - BMC",09-02-2026 09:00:00,19.083694,72.920967,OZONE,2,82,3
India,Maharashtra,Mumbai,"Kandivali East, Mumbai - MPCB",09-02-2026 09:00:00,19.205800,72.868200,SO2,23,27,25
India,Maharashtra,Mumbai,"Kherwadi_Bandra East, Mumbai - MPCB",09-02-2026 09:00:00,19.0632143,72.8456324,PM2.5,74,149,97
India,Maharashtra,Amravati,"Shivneri Colony, Amravati - MPCB",09-02-2026 09:00:00,20.9402359,77.7895248,NH3,5,5,5
India,Maharashtra,Amravati,"Shivneri Colony, Amravati - MPCB",09-02-2026 09:00:00,20.9402359,77.7895248,SO2,9,15,11
India,Maharashtra,Amravati,"Shri Shivaji Science College, Amravati - MPCB",09-02-2026 09:00:00,20.939198,77.765701,NH3,1,9,3
India,Maharashtra,Amravati,"Shri Shivaji Science College, Amravati - MPCB",09-02-2026 09:00:00,20.939198,77.765701,CO,35,84,44
India,Maharashtra,Aurangabad,"MIDC Chilkalthana, Aurangabad - MPCB",09-02-2026 09:00:00,19.875620,75.387310,PM2.5,50,165,76
India,Maharashtra,Aurangabad,"MIDC Chilkalthana, Aurangabad - MPCB",09-02-2026 09:00:00,19.875620,75.387310,SO2,11,27,14
India,Maharashtra,Aurangabad,"Rachnakar Colony, Aurangabad - MPCB",09-02-2026 09:00:00,19.863756,75.321188,OZONE,12,92,15
India,Maharashtra,Belapur,"CBD Belapur, Belapur - MPCB",09-02-2026 09:00:00,19.0243902,73.0406721,PM2.5,78,311,155
India,Maharashtra,Belapur,"CBD Belapur, Belapur - MPCB",09-02-2026 09:00:00,19.0243902,73.0406721,NH3,2,2,2
India,Maharashtra,Belapur,"CBD Belapur, Belapur - MPCB",09-02-2026 09:00:00,19.0243902,73.0406721,CO,15,51,28
India,Maharashtra,Boisar,"Khaira, Boisar - MPCB",09-02-2026 09:00:00,19.786089,72.757971,NH3,5,10,6
India,Maharashtra,Boisar,"Khaira, Boisar - MPCB",09-02-2026 09:00:00,19.786089,72.757971,SO2,1,26,8
India,Maharashtra,Malegaon,"Mahesh Nagar, Malegaon - MPCB",09-02-2026 09:00:00,20.555712,74.529236,NH3,NA,NA,NA
India,Maharashtra,Malegaon,"Mahesh Nagar, Malegaon - MPCB",09-02-2026 09:00:00,20.555712,74.529236,SO2,NA,NA,NA
India,Maharashtra,Mira-Bhayandar,"Bhayandar West, Mira-Bhayandar - MPCB",09-02-2026 09:00:00,19.296481,72.840923,NH3,3,10,7
India,Maharashtra,Mumbai,"Borivali East, Mumbai - IITM",09-02-2026 09:00:00,19.23241,72.86895,PM2.5,68,110,85
India,Maharashtra,Mumbai,"Borivali East, Mumbai - IITM",09-02-2026 09:00:00,19.23241,72.86895,PM10,75,135,108
India,Maharashtra,Chandrapur,"MIDC Khutala, Chandrapur - MPCB",09-02-2026 09:00:00,19.9775302,79.2337086,CO,34,41,40
India,Maharashtra,Dhule,"Deopur, Dhule - MPCB",09-02-2026 09:00:00,20.918946,74.776388,PM2.5,80,151,108
India,Maharashtra,Dhule,"Deopur, Dhule - MPCB",09-02-2026 09:00:00,20.918946,74.776388,OZONE,19,67,22
India,Maharashtra,Kalyan,"Khadakpada, Kalyan - MPCB",09-02-2026 09:00:00,19.25292,73.142019,PM2.5,40,176,86
India,Maharashtra,Kalyan,"Khadakpada, Kalyan - MPCB",09-02-2026 09:00:00,19.25292,73.142019,PM10,42,130,84
India,Maharashtra,Mumbai,"Kherwadi_Bandra East, Mumbai - MPCB",09-02-2026 09:00:00,19.0632143,72.8456324,SO2,4,5,4
India,Maharashtra,Mumbai,"Khindipada-Bhandup West, Mumbai - IITM",09-02-2026 09:00:00,19.1653323,72.922099,PM10,49,125,89
India,Maharashtra,Mumbai,"Kurla, Mumbai - MPCB",09-02-2026 09:00:00,19.0863,72.8888,CO,14,27,22
India,Maharashtra,Mumbai,"Kurla, Mumbai - MPCB",09-02-2026 09:00:00,19.0863,72.8888,OZONE,28,29,28
India,Maharashtra,Nagpur,"Mahal, Nagpur - MPCB",09-02-2026 09:00:00,21.14472,79.107595,NH3,6,8,7
India,Maharashtra,Nagpur,"Opp GPO Civil Lines, Nagpur - MPCB",09-02-2026 09:00:00,21.152875,79.0517531,NO2,10,56,25
India,Maharashtra,Nagpur,"Ram Nagar, Nagpur - MPCB",09-02-2026 09:00:00,21.143383,79.048912,PM2.5,73,136,102
India,Maharashtra,Nagpur,"Ram Nagar, Nagpur - MPCB",09-02-2026 09:00:00,21.143383,79.048912,NO2,7,62,26
India,Maharashtra,Nanded,"Sneh Nagar, Nanded - MPCB",09-02-2026 09:00:00,19.173852,77.296291,OZONE,31,156,47
India,Maharashtra,Nashik,"Gangapur Road, Nashik - MPCB",09-02-2026 09:00:00,20.0073285,73.7762427,NO2,5,5,5
India,Maharashtra,Navi Mumbai,"Sector-2E Kalamboli, Navi Mumbai - MPCB",09-02-2026 09:00:00,19.02579,73.10297,NH3,2,14,10
India,Maharashtra,Navi Mumbai,"Tondare-Taloja, Navi Mumbai - MPCB",09-02-2026 09:00:00,19.0630,73.1209,PM10,72,119,100
India,Maharashtra,Parbhani,"Masoom Colony, Parbhani - MPCB",09-02-2026 09:00:00,19.265594,76.761463,OZONE,10,10,10
India,Maharashtra,Pimpri-Chinchwad,"Gavalinagar, Pimpri Chinchwad - MPCB",09-02-2026 09:00:00,18.63673,73.82487,NH3,7,33,18
India,Maharashtra,Mumbai,"Siddharth Nagar-Worli, Mumbai - IITM",09-02-2026 09:00:00,19.000083,72.813993,CO,NA,NA,NA
India,Maharashtra,Mumbai,"Vile Parle West, Mumbai - MPCB",09-02-2026 09:00:00,19.10861,72.83622,PM2.5,61,125,77
India,Maharashtra,Mumbai,"Vile Parle West, Mumbai - MPCB",09-02-2026 09:00:00,19.10861,72.83622,SO2,47,52,49
India,Maharashtra,Nagpur,"Ambazari, Nagpur - MPCB",09-02-2026 09:00:00,21.121801,79.04952,OZONE,2,84,13
India,Maharashtra,Pune,"Dhankawadi, Pune - IITM",09-02-2026 09:00:00,18.459883,73.852193,NO2,20,96,57
India,Maharashtra,Pune,"Hadapsar, Pune - IITM",09-02-2026 09:00:00,18.501793,73.927532,PM10,NA,NA,NA
India,Maharashtra,Pune,"Hadapsar, Pune - IITM",09-02-2026 09:00:00,18.501793,73.927532,NO2,NA,NA,NA
India,Maharashtra,Pune,"Mhada Colony, Pune - IITM",09-02-2026 09:00:00,18.573040,73.927715,PM10,141,290,206
India,Maharashtra,Pune,"Mhada Colony, Pune - IITM",09-02-2026 09:00:00,18.573040,73.927715,OZONE,17,215,20
India,Maharashtra,Nashik,"Hirawadi, Nashik - MPCB",09-02-2026 09:00:00,20.021503,73.813844,PM10,53,214,90
India,Maharashtra,Nashik,"Hirawadi, Nashik - MPCB",09-02-2026 09:00:00,20.021503,73.813844,NH3,1,13,3
India,Maharashtra,Nashik,"MIDC Ambad, Nashik - MPCB",09-02-2026 09:00:00,19.950220,73.731480,NO2,8,42,26
India,Maharashtra,Navi Mumbai,"Kopripada-Vashi, Navi Mumbai - MPCB",09-02-2026 09:00:00,19.090337,73.014232,SO2,5,19,10
India,Maharashtra,Pimpri-Chinchwad,"Park Street Wakad, Pimpri Chinchwad - MPCB",09-02-2026 09:00:00,18.59051,73.77946,NO2,43,117,76
India,Maharashtra,Pimpri-Chinchwad,"Thergaon, Pimpri Chinchwad - MPCB",09-02-2026 09:00:00,18.616318,73.765797,PM10,67,155,117
India,Maharashtra,Pune,"Bhosari, Pune - IITM",09-02-2026 09:00:00,18.640051,73.848956,PM2.5,40,270,126
India,Maharashtra,Navi Mumbai,"Mahape, Navi Mumbai - MPCB",09-02-2026 09:00:00,19.1135051,73.008978,PM2.5,37,145,70
India,Maharashtra,Navi Mumbai,"Nerul, Navi Mumbai - MPCB",09-02-2026 09:00:00,19.008751,73.016620,PM2.5,68,300,130
India,Maharashtra,Navi Mumbai,"Nerul, Navi Mumbai - MPCB",09-02-2026 09:00:00,19.008751,73.016620,NO2,63,65,64
India,Maharashtra,Navi Mumbai,"Sanpada, Navi Mumbai - MPCB",09-02-2026 09:00:00,19.0575752,73.0151367,PM2.5,70,254,122
India,Maharashtra,Navi Mumbai,"Sanpada, Navi Mumbai - MPCB",09-02-2026 09:00:00,19.0575752,73.0151367,NO2,14,14,14
India,Odisha,Balasore,"Kalidaspur, Balasore - OSPCB",09-02-2026 09:00:00,21.51161,86.89088,NO2,13,35,21
India,Odisha,Balasore,"Kalidaspur, Balasore - OSPCB",09-02-2026 09:00:00,21.51161,86.89088,OZONE,24,83,28
India,Odisha,Barbil,"Forest Office, Barbil - OSPCB",09-02-2026 09:00:00,22.1166054,85.3945546,PM10,58,278,131
India,Odisha,Barbil,"Forest Office, Barbil - OSPCB",09-02-2026 09:00:00,22.1166054,85.3945546,NO2,NA,NA,NA
India,Odisha,Barbil,"Forest Office, Barbil - OSPCB",09-02-2026 09:00:00,22.1166054,85.3945546,NH3,1,4,3
India,Odisha,Barbil,"Forest Office, Barbil - OSPCB",09-02-2026 09:00:00,22.1166054,85.3945546,CO,18,68,47
India,Odisha,Barbil,"Forest Office, Barbil - OSPCB",09-02-2026 09:00:00,22.1166054,85.3945546,OZONE,2,149,12
India,Odisha,Baripada,"Meher Colony, Baripada - OSPCB",09-02-2026 09:00:00,21.941841,86.728318,PM10,66,130,88
India,Odisha,Baripada,"Meher Colony, Baripada - OSPCB",09-02-2026 09:00:00,21.941841,86.728318,SO2,3,23,8
India,Odisha,Baripada,"Meher Colony, Baripada - OSPCB",09-02-2026 09:00:00,21.941841,86.728318,CO,30,94,33
India,Odisha,Bhubaneswar,"Lingraj Mandir, Bhubaneswar - OSPCB",09-02-2026 09:00:00,20.240790,85.836784,NH3,4,14,6
India,Maharashtra,Solapur,"Ratandeep Housing Society, Solapur - MPCB",09-02-2026 09:00:00,17.65439,75.90649,PM10,78,188,109
India,Maharashtra,Solapur,"Ratandeep Housing Society, Solapur - MPCB",09-02-2026 09:00:00,17.65439,75.90649,NO2,13,142,47
India,Maharashtra,Solapur,"Ratandeep Housing Society, Solapur - MPCB",09-02-2026 09:00:00,17.65439,75.90649,NH3,2,39,7
India,Maharashtra,Thane,"Kasarvadavali, Thane - MPCB",09-02-2026 09:00:00,19.26777,72.97182,SO2,6,37,14
India,Maharashtra,Thane,"Upvan Fort, Thane - MPCB",09-02-2026 09:00:00,19.222279,72.957979,CO,10,59,35
India,Maharashtra,Ulhasnagar,"Sidhi Vinayak Nagar, Ulhasnagar - MPCB",09-02-2026 09:00:00,19.235581,73.159121,PM10,86,187,136
India,Maharashtra,Virar,"Bolinj, Virar - MPCB",09-02-2026 09:00:00,19.4458210,72.7988231,PM10,88,378,149
India,Maharashtra,Pune,"Panchawati_Pashan, Pune - IITM",09-02-2026 09:00:00,18.536457,73.805454,NO2,7,37,18
India,Maharashtra,Pune,"Revenue Colony-Shivajinagar, Pune - IITM",09-02-2026 09:00:00,18.530085,73.849598,PM2.5,73,229,128
India,Maharashtra,Pune,"Savitribai Phule Pune University, Pune - MPCB",09-02-2026 09:00:00,18.547056,73.826908,SO2,NA,NA,NA
India,Maharashtra,Pune,"Transport Nagar-Nigdi, Pune - IITM",09-02-2026 09:00:00,18.664282,73.763966,CO,54,82,76
India,Maharashtra,Pune,"Transport Nagar-Nigdi, Pune - IITM",09-02-2026 09:00:00,18.664282,73.763966,OZONE,1,68,12
India,Maharashtra,Sangli,"Vijay Nagar, Sangli - MPCB",09-02-2026 09:00:00, 16.5038,74.3623,PM10,80,173,116
India,Odisha,Bhubaneswar,"Patia, Bhubaneswar - OSPCB",09-02-2026 09:00:00,20.34652,85.81630,PM10,56,211,113
India,Odisha,Bhubaneswar,"Patia, Bhubaneswar - OSPCB",09-02-2026 09:00:00,20.34652,85.81630,NO2,14,78,30
India,Odisha,Bhubaneswar,"Patia, Bhubaneswar - OSPCB",09-02-2026 09:00:00,20.34652,85.81630,SO2,4,53,14
India,Odisha,Bileipada,"Tata Township, Bileipada - OSPCB",09-02-2026 09:00:00,22.06156703,85.47409613,CO,18,111,41
India,Odisha,Brajrajnagar,"GM Office, Brajrajnagar - OSPCB",09-02-2026 09:00:00,21.8004996,83.8396977,CO,18,62,29
India,Odisha,Byasanagar,"Ferro Chrome Colony, Byasanagar - OSPCB",09-02-2026 09:00:00,20.94185,86.11510,PM10,61,169,110
India,Maharashtra,Virar,"Bolinj, Virar - MPCB",09-02-2026 09:00:00,19.4458210,72.7988231,NO2,14,90,46
India,Maharashtra,Virar,"Bolinj, Virar - MPCB",09-02-2026 09:00:00,19.4458210,72.7988231,SO2,2,17,10
India,Mizoram,Aizawl,"Sikulpuikawn, Aizawl - Mizoram PCB",09-02-2026 09:00:00,23.7176342,92.7192841,OZONE,4,11,8
India,Nagaland,Kohima,"PWD Junction, Kohima - NPCB",09-02-2026 09:00:00,25.6635413,94.0989878,PM10,19,79,41
India,Odisha,Angul,"Hakimapada, Angul - OSPCB",09-02-2026 09:00:00,20.832874,85.104082,PM10,75,368,145
India,Punjab,Ludhiana,"Punjab Agricultural University, Ludhiana - PPCB",09-02-2026 09:00:00,30.9028,75.8086,PM2.5,57,69,60
India,Punjab,Mandi Gobindgarh,"RIMT University, Mandi Gobindgarh - PPCB",09-02-2026 09:00:00,30.649961,76.331442,SO2,5,50,21
India,Punjab,Patiala,"Model Town, Patiala - PPCB",09-02-2026 09:00:00,30.349388,76.366642,NO2,14,19,17
India,Punjab,Patiala,"Model Town, Patiala - PPCB",09-02-2026 09:00:00,30.349388,76.366642,SO2,3,31,13
India,Odisha,Cuttack,"CDA Area, Cuttack - OSPCB",09-02-2026 09:00:00,20.48891     ,85.84768     ,NO2,22,92,42
India,Odisha,Cuttack,"CDA Area, Cuttack - OSPCB",09-02-2026 09:00:00,20.48891     ,85.84768     ,OZONE,43,223,83
India,Odisha,Rourkela,"Fertilizer Township, Rourkela - OSPCB",09-02-2026 09:00:00,22.18972222,84.86277778,PM2.5,98,154,117
India,Odisha,Rourkela,"Fertilizer Township, Rourkela - OSPCB",09-02-2026 09:00:00,22.18972222,84.86277778,PM10,106,111,108
India,Odisha,Rourkela,"Sector-2, Rourkela - OSPCB",09-02-2026 09:00:00,22.24500000,84.88111111,CO,32,48,33
India,Odisha,Talcher,"Talcher Coalfields,Talcher - OSPCB",09-02-2026 09:00:00,20.9360711,85.1707021,NO2,33,83,56
India,Odisha,Talcher,"Talcher Coalfields,Talcher - OSPCB",09-02-2026 09:00:00,20.9360711,85.1707021,OZONE,28,67,39
India,Punjab,Amritsar,"Golden Temple, Amritsar - PPCB",09-02-2026 09:00:00,31.620000,74.876512,OZONE,28,43,37
India,Punjab,Jalandhar,"Civil Line, Jalandhar - PPCB",09-02-2026 09:00:00,31.321907,75.578914,NO2,40,45,42
India,Rajasthan,Jaipur,"Sector-2 Murlipura, Jaipur - RSPCB",09-02-2026 09:00:00,26.960669,75.771817,PM2.5,33,301,100
India,Rajasthan,Jaipur,"Sector-2 Murlipura, Jaipur - RSPCB",09-02-2026 09:00:00,26.960669,75.771817,NH3,3,7,5
India,Rajasthan,Jaipur,"Sector-2 Murlipura, Jaipur - RSPCB",09-02-2026 09:00:00,26.960669,75.771817,SO2,5,8,7
India,Rajasthan,Jaipur,"Sector-2 Murlipura, Jaipur - RSPCB",09-02-2026 09:00:00,26.960669,75.771817,CO,26,106,52
India,Rajasthan,Jaipur,"Shastri Nagar, Jaipur - RSPCB",09-02-2026 09:00:00,26.9502929,75.730943,CO,51,131,96
India,Rajasthan,Jaipur,"Shastri Nagar, Jaipur - RSPCB",09-02-2026 09:00:00,26.9502929,75.730943,OZONE,13,56,40
India,Rajasthan,Jaisalmer,"Sadar Bazar, Jaisalmer - RSPCB",09-02-2026 09:00:00,26.912329,70.909168,PM10,52,264,94
India,Rajasthan,Jaisalmer,"Sadar Bazar, Jaisalmer - RSPCB",09-02-2026 09:00:00,26.912329,70.909168,OZONE,19,81,29
India,Rajasthan,Jalore,"Mudtra Sili, Jalore - RSPCB",09-02-2026 09:00:00,25.344694,72.626208,PM10,52,424,164
India,Rajasthan,Jalore,"Mudtra Sili, Jalore - RSPCB",09-02-2026 09:00:00,25.344694,72.626208,NH3,3,8,6
India,Rajasthan,Jalore,"Mudtra Sili, Jalore - RSPCB",09-02-2026 09:00:00,25.344694,72.626208,SO2,2,9,4
India,Punjab,Rupnagar,"Ratanpura, Rupnagar - Ambuja Cements",09-02-2026 09:00:00,31.0325454,76.5623046,PM10,3,103,46
India,Punjab,Rupnagar,"Ratanpura, Rupnagar - Ambuja Cements",09-02-2026 09:00:00,31.0325454,76.5623046,CO,37,43,40
India,Rajasthan,Alwar,"Moti Doongri, Alwar - RSPCB",09-02-2026 09:00:00,27.554793,76.611536,NH3,9,15,12
India,Rajasthan,Banswara,"Rati Talai, Banswara - RSPCB",09-02-2026 09:00:00,23.555190,74.440010,PM10,53,185,89
India,Rajasthan,Baran,"Bamboliya, Baran - RSPCB",09-02-2026 09:00:00,25.106006,76.469948,NO2,12,94,35
India,Rajasthan,Baran,"Bamboliya, Baran - RSPCB",09-02-2026 09:00:00,25.106006,76.469948,CO,16,77,29
India,Rajasthan,Hanumangarh,"Housing Board, Hanumangarh - RSPCB",09-02-2026 09:00:00,29.610750,74.283608,NO2,17,86,41
India,Rajasthan,Hanumangarh,"Housing Board, Hanumangarh - RSPCB",09-02-2026 09:00:00,29.610750,74.283608,NH3,NA,NA,NA
India,Rajasthan,Hanumangarh,"Housing Board, Hanumangarh - RSPCB",09-02-2026 09:00:00,29.610750,74.283608,SO2,1,24,7
India,Rajasthan,Hanumangarh,"Housing Board, Hanumangarh - RSPCB",09-02-2026 09:00:00,29.610750,74.283608,OZONE,1,104,7
India,Rajasthan,Jaipur,"Adarsh Nagar, Jaipur - RSPCB",09-02-2026 09:00:00,26.902909,75.836858,PM10,82,161,107
India,Rajasthan,Jaipur,"Adarsh Nagar, Jaipur - RSPCB",09-02-2026 09:00:00,26.902909,75.836858,NH3,12,26,17
India,Rajasthan,Jaipur,"Police Commissionerate, Jaipur - RSPCB",09-02-2026 09:00:00,26.9164092,75.7994901,SO2,18,32,25
India,Rajasthan,Jhalawar,"Rajlaxmi Nagar, Jhalawar - RSPCB",09-02-2026 09:00:00,24.588397,76.172782,PM10,53,205,111
India,Rajasthan,Jhalawar,"Rajlaxmi Nagar, Jhalawar - RSPCB",09-02-2026 09:00:00,24.588397,76.172782,NH3,7,15,10
India,Rajasthan,Jhalawar,"Rajlaxmi Nagar, Jhalawar - RSPCB",09-02-2026 09:00:00,24.588397,76.172782,CO,16,98,43
India,Rajasthan,Jhunjhunu,"Indra Nagar, Jhunjhunu - RSPCB",09-02-2026 09:00:00,28.108988,75.386577,SO2,6,13,9
India,Rajasthan,Jhunjhunu,"Indra Nagar, Jhunjhunu - RSPCB",09-02-2026 09:00:00,28.108988,75.386577,CO,12,90,38
India,Rajasthan,Jodhpur,"Collectorate, Jodhpur - RSPCB",09-02-2026 09:00:00,26.268249,73.0193853,PM10,32,160,68
India,Rajasthan,Jodhpur,"Collectorate, Jodhpur - RSPCB",09-02-2026 09:00:00,26.268249,73.0193853,NH3,10,42,22
India,Rajasthan,Bhiwadi,"Vasundhara Nagar_UIT, Bhiwadi - RSPCB",09-02-2026 09:00:00,28.207266,76.829265,SO2,8,32,16
India,Rajasthan,Bhiwadi,"Vasundhara Nagar_UIT, Bhiwadi - RSPCB",09-02-2026 09:00:00,28.207266,76.829265,CO,4,108,58
India,Rajasthan,Bundi,"New Colony, Bundi - RSPCB",09-02-2026 09:00:00,25.435774,75.644272,SO2,6,18,10
India,Rajasthan,Bundi,"New Colony, Bundi - RSPCB",09-02-2026 09:00:00,25.435774,75.644272,OZONE,5,126,29
India,Rajasthan,Churu,"Subash Chowk, Churu - RSPCB",09-02-2026 09:00:00,28.296139,74.961696,PM10,62,266,124
India,Rajasthan,Barmer,"Railway Colony, Barmer - RSPCB",09-02-2026 09:00:00,25.747299,71.393989,SO2,2,6,4
India,Rajasthan,Bharatpur,"Krishna Nagar, Bharatpur - RSPCB",09-02-2026 09:00:00,27.215415,77.50873,SO2,5,24,12
India,Rajasthan,Bhiwadi,"RIICO Ind. Area III, Bhiwadi - RSPCB",09-02-2026 09:00:00,28.194909,76.862296,PM2.5,64,331,192
India,Rajasthan,Bhiwadi,"RIICO Ind. Area III, Bhiwadi - RSPCB",09-02-2026 09:00:00,28.194909,76.862296,OZONE,4,36,7
India,Rajasthan,Dausa,"Khatikan Mohalla, Dausa - RSPCB",09-02-2026 09:00:00,26.895552,76.334753,NH3,11,26,15
India,Rajasthan,Dausa,"Khatikan Mohalla, Dausa - RSPCB",09-02-2026 09:00:00,26.895552,76.334753,SO2,5,14,7
India,Rajasthan,Dungarpur,"Bhoiwada, Dungarpur - RSPCB",09-02-2026 09:00:00,23.837789,73.714926,PM2.5,55,210,102
India,Rajasthan,Churu,"Subash Chowk, Churu - RSPCB",09-02-2026 09:00:00,28.296139,74.961696,OZONE,41,129,58
India,TamilNadu,Chennai,"Perungudi, Chennai - TNPCB",09-02-2026 09:00:00,12.9533,80.2357,OZONE,2,15,4
India,TamilNadu,Chennai,"Royapuram, Chennai - TNPCB",09-02-2026 09:00:00,13.1036,80.2909,NH3,3,10,6
India,TamilNadu,Chennai,"Royapuram, Chennai - TNPCB",09-02-2026 09:00:00,13.1036,80.2909,CO,41,62,51
India,TamilNadu,Chennai,"Velachery Res. Area, Chennai - CPCB",09-02-2026 09:00:00,13.0052189,80.2398125,SO2,NA,NA,NA
India,TamilNadu,Coimbatore,"PSG College of Arts and Science, Coimbatore - TNPCB",09-02-2026 09:00:00,11.0328,77.0349,PM2.5,114,242,166
India,TamilNadu,Coimbatore,"PSG College of Arts and Science, Coimbatore - TNPCB",09-02-2026 09:00:00,11.0328,77.0349,PM10,82,120,99
India,TamilNadu,Coimbatore,"SIDCO Kurichi, Coimbatore - TNPCB",09-02-2026 09:00:00,10.942451,76.978996,NO2,1,10,3
India,TamilNadu,Gummidipoondi,"Anthoni Pillai Nagar, Gummidipoondi - TNPCB",09-02-2026 09:00:00,13.4127,80.1081,NH3,1,1,1
India,TamilNadu,Nagapattinam,"Velippalayam, Nagapattinam - TNPCB",09-02-2026 09:00:00,10.798548,79.838212,PM2.5,NA,NA,NA
India,Rajasthan,Sawai Madhopur,"Sahu Nagar, Sawai Madhopur - RSPCB",09-02-2026 09:00:00,26.031443,76.359327,NO2,18,126,46
India,Rajasthan,Sikar,"Radhakishan Pura, Sikar - RSPCB",09-02-2026 09:00:00,27.608912,75.153302,NO2,17,95,41
India,Rajasthan,Sirohi,"Vedhaynath Colony, Sirohi - RSPCB",09-02-2026 09:00:00,24.885261,72.857549,NH3,1,4,2
India,Rajasthan,Sri Ganganagar,"Old City, Sri Ganganagar - RSPCB",09-02-2026 09:00:00,29.931624,73.864511,PM10,80,496,216
India,Rajasthan,Sri Ganganagar,"Old City, Sri Ganganagar - RSPCB",09-02-2026 09:00:00,29.931624,73.864511,CO,30,168,68
India,Rajasthan,Sri Ganganagar,"Old City, Sri Ganganagar - RSPCB",09-02-2026 09:00:00,29.931624,73.864511,OZONE,5,189,14
India,Rajasthan,Tonk,"Shastri Nagar, Tonk - RSPCB",09-02-2026 09:00:00,26.159933,75.780517,PM10,37,120,70
India,Rajasthan,Tonk,"Shastri Nagar, Tonk - RSPCB",09-02-2026 09:00:00,26.159933,75.780517,SO2,2,12,4
India,Rajasthan,Tonk,"Shastri Nagar, Tonk - RSPCB",09-02-2026 09:00:00,26.159933,75.780517,CO,20,104,29
India,Telangana,Hyderabad,"Bollaram Industrial Area, Hyderabad - TSPCB",09-02-2026 09:00:00,17.540891,78.358528,SO2,4,10,7
India,Telangana,Hyderabad,"Bollaram Industrial Area, Hyderabad - TSPCB",09-02-2026 09:00:00,17.540891,78.358528,OZONE,37,45,38
India,Telangana,Hyderabad,"Central University, Hyderabad - TSPCB",09-02-2026 09:00:00,17.460103,78.334361,NO2,20,61,37
India,Telangana,Hyderabad,"Central University, Hyderabad - TSPCB",09-02-2026 09:00:00,17.460103,78.334361,NH3,3,9,6
India,Telangana,Hyderabad,"Central University, Hyderabad - TSPCB",09-02-2026 09:00:00,17.460103,78.334361,SO2,7,21,13
India,Telangana,Hyderabad,"Central University, Hyderabad - TSPCB",09-02-2026 09:00:00,17.460103,78.334361,CO,10,32,22
India,Telangana,Hyderabad,"ECIL Kapra, Hyderabad - TSPCB",09-02-2026 09:00:00,17.470431,78.566959,PM2.5,49,74,60
India,Telangana,Hyderabad,"ECIL Kapra, Hyderabad - TSPCB",09-02-2026 09:00:00,17.470431,78.566959,CO,14,28,24
India,Telangana,Hyderabad,"ECIL Kapra, Hyderabad - TSPCB",09-02-2026 09:00:00,17.470431,78.566959,OZONE,20,30,20
India,Rajasthan,Nagaur,"Karni Colony, Nagaur - RSPCB",09-02-2026 09:00:00,27.213494,73.734444,PM2.5,30,304,97
India,Rajasthan,Pali,"Indira Colony Vistar, Pali - RSPCB",09-02-2026 09:00:00,25.771061, 73.340227,NO2,29,107,48
India,Rajasthan,Pratapgarh,"Pragati Nagar, Pratapgarh - RSPCB",09-02-2026 09:00:00,24.041198,74.780702,PM10,NA,NA,NA
India,Rajasthan,Pratapgarh,"Pragati Nagar, Pratapgarh - RSPCB",09-02-2026 09:00:00,24.041198,74.780702,NH3,NA,NA,NA
India,Rajasthan,Rajsamand,"Dhoinda, Rajsamand - RSPCB",09-02-2026 09:00:00,25.036360,73.883502,PM10,45,183,88
India,Rajasthan,Rajsamand,"Dhoinda, Rajsamand - RSPCB",09-02-2026 09:00:00,25.036360,73.883502,SO2,6,20,9
India,Rajasthan,Rajsamand,"Dhoinda, Rajsamand - RSPCB",09-02-2026 09:00:00,25.036360,73.883502,CO,23,96,31
India,TamilNadu,Chennai,"Arumbakkam, Chennai - TNPCB",09-02-2026 09:00:00,13.0664,80.2112 ,NO2,8,20,13
India,TamilNadu,Chennai,"Arumbakkam, Chennai - TNPCB",09-02-2026 09:00:00,13.0664,80.2112 ,NH3,1,2,2
India,TamilNadu,Chennai,"Manali Village, Chennai - TNPCB",09-02-2026 09:00:00,13.1662,80.2584,OZONE,15,28,25
India,TamilNadu,Chennai,"Manali, Chennai - CPCB",09-02-2026 09:00:00,13.164544,80.26285,NH3,6,7,7
India,TamilNadu,Chennai,"Manali, Chennai - CPCB",09-02-2026 09:00:00,13.164544,80.26285,OZONE,10,10,10
India,TamilNadu,Chennai,"Perungudi, Chennai - TNPCB",09-02-2026 09:00:00,12.9533,80.2357,CO,52,68,58
India,TamilNadu,Nagapattinam,"Velippalayam, Nagapattinam - TNPCB",09-02-2026 09:00:00,10.798548,79.838212,NO2,6,7,6
India,TamilNadu,Pudukottai,"SIPCOT Nathampannai, Pudukottai - TNPCB",09-02-2026 09:00:00,10.423417,78.784889,PM2.5,NA,NA,NA
India,TamilNadu,Thanjavur,"Parisutham Nagar, Thanjavur - TNPCB",09-02-2026 09:00:00,10.7654824,79.1389968,PM10,32,53,43
India,TamilNadu,Thoothukudi,"Meelavittan, Thoothukudi - TNPCB",09-02-2026 09:00:00,8.816428 ,78.099039,PM10,78,113,95
India,Rajasthan,Udaipur,"Ashok Nagar, Udaipur - RSPCB",09-02-2026 09:00:00,24.5886166,73.6321397,CO,5,111,21
India,Sikkim,Gangtok,"Zero Point GICI, Gangtok - SSPCB",09-02-2026 09:00:00,27.338530,88.614099,NO2,6,7,6
India,TamilNadu,Chennai,"Arumbakkam, Chennai - TNPCB",09-02-2026 09:00:00,13.0664,80.2112 ,PM10,81,201,115
India,Rajasthan,Kota,"Dhanmandi, Kota - RSPCB",09-02-2026 09:00:00,25.164090,75.858137,CO,15,133,99
India,Rajasthan,Kota,"Shrinath Puram, Kota - RSPCB",09-02-2026 09:00:00,25.14389,75.821256,PM10,58,133,89
India,Rajasthan,Kota,"Shrinath Puram, Kota - RSPCB",09-02-2026 09:00:00,25.14389,75.821256,SO2,5,24,10
India,Rajasthan,Jodhpur,"Mandor, Jodhpur - RSPCB",09-02-2026 09:00:00,26.358805,73.047444,PM2.5,48,153,86
India,Uttar_Pradesh,Ghaziabad,"Loni, Ghaziabad - UPPCB",09-02-2026 09:00:00,28.757294,77.278792,CO,45,115,99
India,Uttar_Pradesh,Ghaziabad,"Vasundhara, Ghaziabad - UPPCB",09-02-2026 09:00:00,28.6603346,77.3572563,PM10,109,366,211
India,Uttar_Pradesh,Ghaziabad,"Vasundhara, Ghaziabad - UPPCB",09-02-2026 09:00:00,28.6603346,77.3572563,NH3,6,10,7
India,Uttar_Pradesh,Ghaziabad,"Vasundhara, Ghaziabad - UPPCB",09-02-2026 09:00:00,28.6603346,77.3572563,CO,2,115,96
India,Uttar_Pradesh,Gorakhpur,"Madan Mohan Malaviya University of Technology, Gorakhpur - UPPCB",09-02-2026 09:00:00,26.730136,83.433859,SO2,37,39,38
India,Uttar_Pradesh,Gorakhpur,"Madan Mohan Malaviya University of Technology, Gorakhpur - UPPCB",09-02-2026 09:00:00,26.730136,83.433859,CO,4,8,7
India,Uttar_Pradesh,Greater Noida,"Knowledge Park - III, Greater Noida - UPPCB",09-02-2026 09:00:00,28.47272,77.482000,PM10,105,337,185
India,Uttar_Pradesh,Greater Noida,"Knowledge Park - III, Greater Noida - UPPCB",09-02-2026 09:00:00,28.47272,77.482000,CO,1,92,34
India,Uttar_Pradesh,Greater Noida,"Knowledge Park - V, Greater Noida - UPPCB",09-02-2026 09:00:00,28.557054,77.453663,SO2,14,25,18
India,Uttar_Pradesh,Hapur,"Anand Vihar, Hapur - UPPCB",09-02-2026 09:00:00,28.725645,77.749675,SO2,20,56,40
India,Uttar_Pradesh,Bulandshahr,"Yamunapuram, Bulandshahr - UPPCB",09-02-2026 09:00:00,28.406963,77.849831,PM2.5,42,237,120
India,Uttar_Pradesh,Bulandshahr,"Yamunapuram, Bulandshahr - UPPCB",09-02-2026 09:00:00,28.406963,77.849831,NH3,8,11,9
India,Uttar_Pradesh,Firozabad,"Nagla Bhau, Firozabad - UPPCB",09-02-2026 09:00:00,27.168897,78.376960,SO2,15,32,22
India,Uttar_Pradesh,Firozabad,"Vibhab Nagar, Firozabad - UPPCB",09-02-2026 09:00:00,27.1594,78.3953,NO2,15,15,15
India,Uttar_Pradesh,Ghaziabad,"Indirapuram, Ghaziabad - UPPCB",09-02-2026 09:00:00,28.646233,77.358075,PM2.5,75,343,204
India,Uttar_Pradesh,Ghaziabad,"Indirapuram, Ghaziabad - UPPCB",09-02-2026 09:00:00,28.646233,77.358075,OZONE,9,31,10
India,Uttar_Pradesh,Ghaziabad,"Loni, Ghaziabad - UPPCB",09-02-2026 09:00:00,28.757294,77.278792,SO2,10,26,17
India,Telangana,Hyderabad,"Nacharam_TSIIC IALA, Hyderabad - TSPCB",09-02-2026 09:00:00,17.429398,78.569354,OZONE,21,22,22
India,Telangana,Hyderabad,"New Malakpet, Hyderabad - TSPCB",09-02-2026 09:00:00,17.37206,78.50864,NH3,2,3,2
India,Telangana,Hyderabad,"New Malakpet, Hyderabad - TSPCB",09-02-2026 09:00:00,17.37206,78.50864,CO,25,44,27
India,Telangana,Hyderabad,"New Malakpet, Hyderabad - TSPCB",09-02-2026 09:00:00,17.37206,78.50864,OZONE,10,35,14
India,Telangana,Hyderabad,"Somajiguda, Hyderabad - TSPCB",09-02-2026 09:00:00,17.417094,78.457437,PM2.5,53,70,59
India,Telangana,Hyderabad,"Somajiguda, Hyderabad - TSPCB",09-02-2026 09:00:00,17.417094,78.457437,OZONE,5,33,10
India,Telangana,Hyderabad,"Zoo Park, Hyderabad - TSPCB",09-02-2026 09:00:00,17.349694,78.451437,OZONE,22,25,24
India,Uttar_Pradesh,Agra,"Sanjay Palace, Agra - UPPCB",09-02-2026 09:00:00,27.19865833,78.00598056,OZONE,3,96,10
India,Uttar_Pradesh,Agra,"Shahjahan Garden, Agra - UPPCB",09-02-2026 09:00:00,27.169338,78.03582,NH3,3,3,3
India,Uttar_Pradesh,Agra,"Shahjahan Garden, Agra - UPPCB",09-02-2026 09:00:00,27.169338,78.03582,OZONE,NA,NA,NA
India,Uttar_Pradesh,Baghpat,"Sardar Patel Inter College, Baghpat - UPPCB",09-02-2026 09:00:00,28.964949,77.278761,OZONE,3,68,4
India,Uttar_Pradesh,Bareilly,"Rajendra Nagar, Bareilly - UPPCB",09-02-2026 09:00:00,28.38910936,79.42963708,PM10,44,214,94
India,Uttar_Pradesh,Bareilly,"Rajendra Nagar, Bareilly - UPPCB",09-02-2026 09:00:00,28.38910936,79.42963708,NO2,9,10,10
India,Tripura,Agartala,"Bardowali, Agartala - Tripura SPCB",09-02-2026 09:00:00,23.8175497,91.2726974,SO2,8,8,8
India,Uttar_Pradesh,Agra,"Manoharpur, Agra - UPPCB",09-02-2026 09:00:00,27.23711,78.01936,PM2.5,33,167,67
India,Uttar_Pradesh,Agra,"Manoharpur, Agra - UPPCB",09-02-2026 09:00:00,27.23711,78.01936,NH3,3,4,4
India,Uttar_Pradesh,Agra,"Manoharpur, Agra - UPPCB",09-02-2026 09:00:00,27.23711,78.01936,SO2,4,7,6
India,Uttar_Pradesh,Agra,"Manoharpur, Agra - UPPCB",09-02-2026 09:00:00,27.23711,78.01936,CO,20,24,20
India,Uttar_Pradesh,Agra,"Rohta, Agra - UPPCB",09-02-2026 09:00:00,27.106972,78.000111,PM2.5,28,138,79
India,Uttar_Pradesh,Agra,"Rohta, Agra - UPPCB",09-02-2026 09:00:00,27.106972,78.000111,SO2,6,19,12
India,Uttar_Pradesh,Agra,"Rohta, Agra - UPPCB",09-02-2026 09:00:00,27.106972,78.000111,CO,8,34,25
India,Uttar_Pradesh,Agra,"Sanjay Palace, Agra - UPPCB",09-02-2026 09:00:00,27.19865833,78.00598056,PM2.5,39,309,142
India,Uttar_Pradesh,Agra,"Sanjay Palace, Agra - UPPCB",09-02-2026 09:00:00,27.19865833,78.00598056,NO2,2,11,6
India,Telangana,Hyderabad,"Kompally Municipal Office, Hyderabad - TSPCB",09-02-2026 09:00:00,17.544899,78.486949,PM10,64,73,68
India,Telangana,Hyderabad,"Kompally Municipal Office, Hyderabad - TSPCB",09-02-2026 09:00:00,17.544899,78.486949,NH3,2,4,3
India,Telangana,Hyderabad,"Nacharam_TSIIC IALA, Hyderabad - TSPCB",09-02-2026 09:00:00,17.429398,78.569354,PM10,71,76,73
India,Telangana,Hyderabad,"ICRISAT Patancheru, Hyderabad - TSPCB",09-02-2026 09:00:00,17.518400,78.278777,PM2.5,37,152,67
India,Telangana,Hyderabad,"IDA Pashamylaram, Hyderabad - TSPCB",09-02-2026 09:00:00,17.5316895,78.218939,OZONE,18,19,18
India,Telangana,Hyderabad,"IITH Kandi, Hyderabad - TSPCB",09-02-2026 09:00:00,17.585705,78.126199,NH3,3,3,3
India,Telangana,Hyderabad,"IITH Kandi, Hyderabad - TSPCB",09-02-2026 09:00:00,17.585705,78.126199,SO2,15,17,16
India,Uttar_Pradesh,Lucknow,"B R Ambedkar University, Lucknow - UPPCB",09-02-2026 09:00:00,26.766433,80.927299,OZONE,17,73,18
India,Uttar_Pradesh,Lucknow,"Gomti Nagar, Lucknow - UPPCB",09-02-2026 09:00:00,26.868120,81.005119,OZONE,25,38,26
India,Uttar_Pradesh,Lucknow,"Kendriya Vidyalaya, Lucknow - CPCB",09-02-2026 09:00:00,26.906111,80.948222,PM2.5,49,271,133
India,Uttar_Pradesh,Lucknow,"Kendriya Vidyalaya, Lucknow - CPCB",09-02-2026 09:00:00,26.906111,80.948222,PM10,11,270,146
India,Uttar_Pradesh,Lucknow,"Kendriya Vidyalaya, Lucknow - CPCB",09-02-2026 09:00:00,26.906111,80.948222,NO2,26,31,28
India,Uttar_Pradesh,Lucknow,"Kendriya Vidyalaya, Lucknow - CPCB",09-02-2026 09:00:00,26.906111,80.948222,SO2,2,9,7
India,Uttar_Pradesh,Lucknow,"Lalbagh, Lucknow - CPCB",09-02-2026 09:00:00,26.8458805,80.9365541,PM2.5,44,363,150
India,Uttar_Pradesh,Lucknow,"Talkatora District Industries Center, Lucknow - CPCB",09-02-2026 09:00:00,26.83399722,80.8917361,NO2,37,49,43
India,Uttar_Pradesh,Lucknow,"Talkatora District Industries Center, Lucknow - CPCB",09-02-2026 09:00:00,26.83399722,80.8917361,SO2,2,43,14
India,Uttar_Pradesh,Meerut,"Ganga Nagar, Meerut - UPPCB",09-02-2026 09:00:00,28.999264,77.7590354,SO2,24,34,28
India,Uttar_Pradesh,Meerut,"Jai Bhim Nagar, Meerut - UPPCB",09-02-2026 09:00:00,28.9535882,77.7622941,CO,22,78,58
India,Uttar_Pradesh,Meerut,"Pallavpuram Phase 2, Meerut - UPPCB",09-02-2026 09:00:00,29.063510,77.709723,PM10,97,176,138
India,Uttar_Pradesh,Meerut,"Pallavpuram Phase 2, Meerut - UPPCB",09-02-2026 09:00:00,29.063510,77.709723,NH3,5,7,6
India,Uttar_Pradesh,Meerut,"Pallavpuram Phase 2, Meerut - UPPCB",09-02-2026 09:00:00,29.063510,77.709723,CO,34,67,45
India,Uttar_Pradesh,Meerut,"Pallavpuram Phase 2, Meerut - UPPCB",09-02-2026 09:00:00,29.063510,77.709723,OZONE,10,128,15
India,Uttar_Pradesh,Moradabad,"Buddhi Vihar, Moradabad - UPPCB",09-02-2026 09:00:00,28.83526,78.74460,NO2,28,29,29
India,Uttar_Pradesh,Moradabad,"Buddhi Vihar, Moradabad - UPPCB",09-02-2026 09:00:00,28.83526,78.74460,OZONE,10,27,12
India,Uttar_Pradesh,Moradabad,"Eco Herbal Park, Moradabad - UPPCB",09-02-2026 09:00:00,28.840739,78.697531,PM2.5,51,237,145
India,Uttar_Pradesh,Kanpur,"FTI Kidwai Nagar, Kanpur - UPPCB",09-02-2026 09:00:00,26.428282,80.327067,NH3,5,5,5
India,Uttar_Pradesh,Kanpur,"FTI Kidwai Nagar, Kanpur - UPPCB",09-02-2026 09:00:00,26.428282,80.327067,SO2,17,27,23
India,Uttar_Pradesh,Kanpur,"NSI Kalyanpur, Kanpur - UPPCB",09-02-2026 09:00:00,26.509954,80.249612,PM2.5,20,319,87
India,Uttar_Pradesh,Kanpur,"Nehru Nagar, Kanpur - UPPCB",09-02-2026 09:00:00,26.4703136,80.3229863,PM10,25,180,93
India,Uttar_Pradesh,Kanpur,"Nehru Nagar, Kanpur - UPPCB",09-02-2026 09:00:00,26.4703136,80.3229863,SO2,5,18,13
India,Uttar_Pradesh,Khurja,"Kalindi Kunj, Khurja - UPPCB",09-02-2026 09:00:00,28.2348927,77.8683002,CO,36,49,46
India,Uttar_Pradesh,Lucknow,"B R Ambedkar University, Lucknow - UPPCB",09-02-2026 09:00:00,26.766433,80.927299,PM2.5,19,138,62
India,Uttar_Pradesh,Lucknow,"B R Ambedkar University, Lucknow - UPPCB",09-02-2026 09:00:00,26.766433,80.927299,SO2,24,35,29
India,Uttarakhand,Dehradun,"Doon University, Dehradun - UKPCB",09-02-2026 09:00:00,30.269444,78.044167,NO2,1,5,2
India,Uttarakhand,Dehradun,"Doon University, Dehradun - UKPCB",09-02-2026 09:00:00,30.269444,78.044167,OZONE,13,78,17
India,Uttarakhand,Kashipur,"Govt. Girls Inter College, Kashipur - UKPCB",09-02-2026 09:00:00,29.2124114,78.9611753,PM10,NA,NA,NA
India,Uttarakhand,Kashipur,"Govt. Girls Inter College, Kashipur - UKPCB",09-02-2026 09:00:00,29.2124114,78.9611753,SO2,NA,NA,NA
India,Uttarakhand,Rishikesh,"Shivaji Nagar, Rishikesh - UKPCB",09-02-2026 09:00:00,30.075911,78.2859547,NO2,22,22,22
India,Uttarakhand,Rishikesh,"Shivaji Nagar, Rishikesh - UKPCB",09-02-2026 09:00:00,30.075911,78.2859547,SO2,1,1,1
India,West_Bengal,Asansol,"Asansol Court Area, Asansol - WBPCB",09-02-2026 09:00:00,23.685297,86.945968,PM2.5,71,148,100
India,Uttar_Pradesh,Moradabad,"Kashiram Nagar, Moradabad - UPPCB",09-02-2026 09:00:00,28.849399,78.742362,NO2,25,25,25
India,Uttar_Pradesh,Moradabad,"Kashiram Nagar, Moradabad - UPPCB",09-02-2026 09:00:00,28.849399,78.742362,CO,22,42,32
India,Uttar_Pradesh,Muzaffarnagar,"New Mandi, Muzaffarnagar - UPPCB",09-02-2026 09:00:00,29.4723508,77.7194031,PM2.5,50,286,128
India,Uttar_Pradesh,Muzaffarnagar,"New Mandi, Muzaffarnagar - UPPCB",09-02-2026 09:00:00,29.4723508,77.7194031,NO2,35,92,54
India,Uttar_Pradesh,Muzaffarnagar,"New Mandi, Muzaffarnagar - UPPCB",09-02-2026 09:00:00,29.4723508,77.7194031,OZONE,12,105,32
India,Uttar_Pradesh,Noida,"Sector - 125, Noida - UPPCB",09-02-2026 09:00:00,28.5447608,77.3231257,NO2,20,127,68
India,Uttar_Pradesh,Noida,"Sector - 62, Noida - IMD",09-02-2026 09:00:00,28.6245479,77.3577104,OZONE,17,98,31
India,Uttar_Pradesh,Noida,"Sector-1, Noida - UPPCB",09-02-2026 09:00:00,28.5898,77.3101,SO2,8,21,12
India,Uttar_Pradesh,Noida,"Sector-116, Noida - UPPCB",09-02-2026 09:00:00,28.569230,77.393848,SO2,8,18,12
India,Uttar_Pradesh,Prayagraj,"Jhunsi, Prayagraj - UPPCB",09-02-2026 09:00:00,25.425602,81.917152,PM2.5,35,181,69
India,Uttar_Pradesh,Prayagraj,"Jhunsi, Prayagraj - UPPCB",09-02-2026 09:00:00,25.425602,81.917152,PM10,43,182,94
India,Uttar_Pradesh,Prayagraj,"Jhunsi, Prayagraj - UPPCB",09-02-2026 09:00:00,25.425602,81.917152,SO2,18,22,20
India,Uttar_Pradesh,Prayagraj,"Motilal Nehru NIT, Prayagraj - UPPCB",09-02-2026 09:00:00,25.494,81.863,PM2.5,26,99,53
India,Uttar_Pradesh,Prayagraj,"Motilal Nehru NIT, Prayagraj - UPPCB",09-02-2026 09:00:00,25.494,81.863,OZONE,5,46,6
India,Uttar_Pradesh,Varanasi,"Ardhali Bazar, Varanasi - UPPCB",09-02-2026 09:00:00,25.3505986,82.9083074,OZONE,11,37,23
India,Uttar_Pradesh,Varanasi,"IESD Banaras Hindu University, Varanasi - UPPCB",09-02-2026 09:00:00,25.262326,82.995408,OZONE,1,3,2
India,Uttar_Pradesh,Vrindavan,"Omex Eternity, Vrindavan - UPPCB",09-02-2026 09:00:00,27.5714090,77.6557570,PM2.5,15,136,64
India,Uttar_Pradesh,Moradabad,"Jigar Colony, Moradabad - UPPCB",09-02-2026 09:00:00,28.856664,78.772638,NO2,24,25,25
India,Uttar_Pradesh,Moradabad,"Jigar Colony, Moradabad - UPPCB",09-02-2026 09:00:00,28.856664,78.772638,CO,40,40,40
India,Uttar_Pradesh,Moradabad,"Kashiram Nagar, Moradabad - UPPCB",09-02-2026 09:00:00,28.849399,78.742362,PM2.5,34,106,70
India,West_Bengal,Asansol,"Mahabir Colliery, Asansol - WBPCB",09-02-2026 09:00:00,23.6181830,87.1057180,PM10,71,154,107
India,West_Bengal,Asansol,"Mahabir Colliery, Asansol - WBPCB",09-02-2026 09:00:00,23.6181830,87.1057180,CO,2,107,55
India,West_Bengal,Asansol,"Trivenidevi Bhalotia College, Asansol - WBPCB",09-02-2026 09:00:00,23.616515,87.119133,SO2,7,20,10
India,West_Bengal,Asansol,"Trivenidevi Bhalotia College, Asansol - WBPCB",09-02-2026 09:00:00,23.616515,87.119133,CO,39,104,72
India,West_Bengal,Barrackpore,"SVSPA Campus, Barrackpore - WBPCB",09-02-2026 09:00:00,22.7605581,88.3617589,NH3,4,6,5
India,West_Bengal,Durgapur,"Mahishkapur Road_B-Zone, Durgapur - WBPCB",09-02-2026 09:00:00,23.567923,87.306843,PM2.5,105,105,105
India,West_Bengal,Durgapur,"PCBL Residential Complex, Durgapur - WBPCB",09-02-2026 09:00:00,23.5087640,87.3544400,SO2,5,18,7
India,West_Bengal,Durgapur,"PCBL Residential Complex, Durgapur - WBPCB",09-02-2026 09:00:00,23.5087640,87.3544400,OZONE,2,58,7
India,West_Bengal,Durgapur,"Womens College_City Center, Durgapur - WBPCB",09-02-2026 09:00:00,23.549395,87.300496,NH3,3,5,3
India,West_Bengal,Durgapur,"Womens College_City Center, Durgapur - WBPCB",09-02-2026 09:00:00,23.549395,87.300496,CO,19,107,43
India,West_Bengal,Howrah,"Belur Math, Howrah - WBPCB",09-02-2026 09:00:00,22.629801,88.352017,PM10,102,500,168
India,West_Bengal,Howrah,"Botanical Garden, Howrah - WBPCB",09-02-2026 09:00:00,22.554954,88.292568,NH3,2,3,2
India,West_Bengal,Howrah,"Dasnagar, Howrah - WBPCB",09-02-2026 09:00:00,22.6025571,88.3105664,CO,8,116,65
India,West_Bengal,Howrah,"Ghusuri, Howrah - WBPCB",09-02-2026 09:00:00,22.611968,88.347422,CO,41,113,91
India,West_Bengal,Kolkata,"Bidhannagar, Kolkata - WBPCB",09-02-2026 09:00:00,22.58157048,88.41002457,PM10,66,128,103
India,West_Bengal,Kolkata,"Bidhannagar, Kolkata - WBPCB",09-02-2026 09:00:00,22.58157048,88.41002457,NO2,13,23,14
India,West_Bengal,Kolkata,"Bidhannagar, Kolkata - WBPCB",09-02-2026 09:00:00,22.58157048,88.41002457,OZONE,14,67,18
India,West_Bengal,Kolkata,"Fort William, Kolkata - WBPCB",09-02-2026 09:00:00,22.556640,88.342674,PM2.5,11,166,96
India,West_Bengal,Kolkata,"Fort William, Kolkata - WBPCB",09-02-2026 09:00:00,22.556640,88.342674,NH3,9,11,9
India,West_Bengal,Kolkata,"Rabindra Bharati University, Kolkata - WBPCB",09-02-2026 09:00:00,22.627847,88.380669,PM10,99,170,135
India,West_Bengal,Kolkata,"Rabindra Sarobar, Kolkata - WBPCB",09-02-2026 09:00:00,22.51106,88.35142,PM10,67,123,98
India,West_Bengal,Kolkata,"Rabindra Sarobar, Kolkata - WBPCB",09-02-2026 09:00:00,22.51106,88.35142,NO2,18,128,72
India,West_Bengal,Kolkata,"Victoria, Kolkata - WBPCB",09-02-2026 09:00:00,22.5448082,88.3403691,PM2.5,77,194,131
India,West_Bengal,Kolkata,"Victoria, Kolkata - WBPCB",09-02-2026 09:00:00,22.5448082,88.3403691,PM10,96,180,144
India,West_Bengal,Kolkata,"Victoria, Kolkata - WBPCB",09-02-2026 09:00:00,22.5448082,88.3403691,OZONE,7,62,10
India,West_Bengal,Siliguri,"Ward-32 Bapupara, Siliguri - WBPCB",09-02-2026 09:00:00,26.6879226,88.4152495,SO2,13,22,16
India,Andhra_Pradesh,Vijayawada,"Rajiv Gandhi Park, Vijayawada - APPCB",09-02-2026 09:00:00,16.509717,80.612222,NO2,15,44,31
India,Andhra_Pradesh,Vijayawada,"Rajiv Gandhi Park, Vijayawada - APPCB",09-02-2026 09:00:00,16.509717,80.612222,CO,30,30,30
India,Andhra_Pradesh,Vijayawada,"Rajiv Nagar, Vijayawada - APPCB",09-02-2026 09:00:00,16.554731,80.649110,SO2,15,17,16
India,Andhra_Pradesh,Vijayawada,"Rajiv Nagar, Vijayawada - APPCB",09-02-2026 09:00:00,16.554731,80.649110,CO,27,36,36
India,Andhra_Pradesh,Vijayawada,"Rajiv Nagar, Vijayawada - APPCB",09-02-2026 09:00:00,16.554731,80.649110,OZONE,20,20,20
India,Andhra_Pradesh,Visakhapatnam,"GVM Corporation, Visakhapatnam - APPCB",09-02-2026 09:00:00,17.72,83.3,PM2.5,70,280,143
India,Andhra_Pradesh,Visakhapatnam,"GVM Corporation, Visakhapatnam - APPCB",09-02-2026 09:00:00,17.72,83.3,NO2,12,132,59
India,Andhra_Pradesh,Visakhapatnam,"GVM Corporation, Visakhapatnam - APPCB",09-02-2026 09:00:00,17.72,83.3,OZONE,4,80,10
India,Arunachal_Pradesh,Naharlagun,"Naharlagun, Naharlagun - APSPCB",09-02-2026 09:00:00,27.103358,93.679645,NO2,7,7,7
India,Arunachal_Pradesh,Naharlagun,"Naharlagun, Naharlagun - APSPCB",09-02-2026 09:00:00,27.103358,93.679645,NH3,1,1,1
India,Arunachal_Pradesh,Naharlagun,"Naharlagun, Naharlagun - APSPCB",09-02-2026 09:00:00,27.103358,93.679645,SO2,9,10,10
India,Assam,Byrnihat,"Central Academy for SFS, Byrnihat - PCBA",09-02-2026 09:00:00,26.071318,91.87488,PM2.5,89,276,143
India,Assam,Byrnihat,"Central Academy for SFS, Byrnihat - PCBA",09-02-2026 09:00:00,26.071318,91.87488,NO2,4,10,7
India,Assam,Guwahati,"LGBI Airport, Guwahati - PCBA",09-02-2026 09:00:00,26.10887,91.589544,NH3,5,7,5
India,Assam,Guwahati,"LGBI Airport, Guwahati - PCBA",09-02-2026 09:00:00,26.10887,91.589544,CO,1,48,29
India,Bihar,Munger,"Town Hall, Munger - BSPCB",09-02-2026 09:00:00,25.376776,86.471523,CO,13,46,25
India,Bihar,Muzaffarpur,"Buddha Colony, Muzaffarpur - BSPCB",09-02-2026 09:00:00,26.11442,85.39813,PM10,114,165,134
India,Bihar,Muzaffarpur,"Buddha Colony, Muzaffarpur - BSPCB",09-02-2026 09:00:00,26.11442,85.39813,OZONE,19,76,19
India,Bihar,Muzaffarpur,"MIT-Daudpur Kothi, Muzaffarpur - BSPCB",09-02-2026 09:00:00,26.1403345,85.3650192,NO2,1,4,2
India,Bihar,Muzaffarpur,"MIT-Daudpur Kothi, Muzaffarpur - BSPCB",09-02-2026 09:00:00,26.1403345,85.3650192,NH3,5,5,5
India,Bihar,Muzaffarpur,"MIT-Daudpur Kothi, Muzaffarpur - BSPCB",09-02-2026 09:00:00,26.1403345,85.3650192,CO,42,55,44
India,Bihar,Muzaffarpur,"MIT-Daudpur Kothi, Muzaffarpur - BSPCB",09-02-2026 09:00:00,26.1403345,85.3650192,OZONE,9,37,12
India,Bihar,Muzaffarpur,"Muzaffarpur Collectorate, Muzaffarpur - BSPCB",09-02-2026 09:00:00,26.1209,85.3647,PM2.5,92,130,98
India,Bihar,Muzaffarpur,"Muzaffarpur Collectorate, Muzaffarpur - BSPCB",09-02-2026 09:00:00,26.1209,85.3647,NO2,8,15,10
India,Bihar,Patna,"DRM Office Danapur, Patna - BSPCB",09-02-2026 09:00:00,25.586562,85.043586,CO,28,98,41
India,Bihar,Bettiah,"Kamalnath Nagar, Bettiah - BSPCB",09-02-2026 09:00:00,26.80365,84.51954,NO2,8,9,8
India,Bihar,Bihar Sharif,"D M Colony, Bihar Sharif - BSPCB",09-02-2026 09:00:00,25.204762,85.514960,PM2.5,23,180,67
India,Bihar,Bihar Sharif,"D M Colony, Bihar Sharif - BSPCB",09-02-2026 09:00:00,25.204762,85.514960,SO2,10,10,10
India,Bihar,Buxar,"Charitra Van, Buxar - BSPCB",09-02-2026 09:00:00,25.567520,83.966379,CO,22,29,24
India,Bihar,Chhapra,"Darshan Nagar, Chhapra - BSPCB",09-02-2026 09:00:00,25.7808257,84.7446768,PM10,52,228,100
India,Bihar,Chhapra,"Darshan Nagar, Chhapra - BSPCB",09-02-2026 09:00:00,25.7808257,84.7446768,NH3,6,11,9
India,Andhra_Pradesh,Amaravati,"Secretariat, Amaravati - APPCB",09-02-2026 09:00:00,16.5150833,80.5181667,OZONE,2,70,10
India,Andhra_Pradesh,Anantapur,"Gulzarpet, Anantapur - APPCB",09-02-2026 09:00:00,14.675886,77.593027,PM2.5,96,118,105
India,Andhra_Pradesh,Anantapur,"Gulzarpet, Anantapur - APPCB",09-02-2026 09:00:00,14.675886,77.593027,PM10,92,103,98
India,Andhra_Pradesh,Anantapur,"Gulzarpet, Anantapur - APPCB",09-02-2026 09:00:00,14.675886,77.593027,CO,34,51,39
India,Andhra_Pradesh,Chittoor,"Gangineni Cheruvu, Chittoor - APPCB",09-02-2026 09:00:00,13.204880,79.097889,CO,45,94,59
India,Andhra_Pradesh,Chittoor,"Gangineni Cheruvu, Chittoor - APPCB",09-02-2026 09:00:00,13.204880,79.097889,OZONE,40,47,45
India,Andhra_Pradesh,Kadapa,"Yerramukkapalli, Kadapa - APPCB",09-02-2026 09:00:00,14.465052,78.824187,OZONE,13,15,14
India,Andhra_Pradesh,Tirupati,"Vaikuntapuram, Tirupati - APPCB",09-02-2026 09:00:00,13.615387,79.409230,SO2,NA,NA,NA
India,Andhra_Pradesh,Vijayawada,"HB Colony, Vijayawada - APPCB",09-02-2026 09:00:00,16.536107,80.594233,NO2,17,17,17
India,Andhra_Pradesh,Vijayawada,"Kanuru, Vijayawada - APPCB",09-02-2026 09:00:00,16.486692,80.699436,SO2,11,19,13
India,Andhra_Pradesh,Vijayawada,"Kanuru, Vijayawada - APPCB",09-02-2026 09:00:00,16.486692,80.699436,CO,37,48,43
India,Assam,Guwahati,"Railway Colony, Guwahati - PCBA",09-02-2026 09:00:00,26.181742,91.78063,SO2,23,26,24
India,Assam,Guwahati,"Railway Colony, Guwahati - PCBA",09-02-2026 09:00:00,26.181742,91.78063,CO,1,42,13
India,Assam,Nalbari,"Bata Chowk, Nalbari - PCBA",09-02-2026 09:00:00,26.446912,91.439057,SO2,7,8,7
India,Assam,Silchar,"Tarapur, Silchar - PCBA",09-02-2026 09:00:00,24.82827,92.79525,NH3,1,2,2
India,Assam,Silchar,"Tarapur, Silchar - PCBA",09-02-2026 09:00:00,24.82827,92.79525,SO2,2,5,4
India,Bihar,Araria,"Kharahiya Basti, Araria - BSPCB",09-02-2026 09:00:00,26.146529,87.454184,CO,28,66,48
India,Bihar,Aurangabad,"Gurdeo Nagar, Aurangabad - BSPCB",09-02-2026 09:00:00,24.75746,84.366208,NO2,7,8,8
India,Bihar,Begusarai,"Lohiyanagar, Begusarai - BSPCB",09-02-2026 09:00:00,25.42742023,86.13886079,PM10,63,500,131
India,Bihar,Begusarai,"Lohiyanagar, Begusarai - BSPCB",09-02-2026 09:00:00,25.42742023,86.13886079,NH3,10,11,11
India,Bihar,Kishanganj,"SDM Office_Khagra, Kishanganj - BSPCB",09-02-2026 09:00:00,26.0881305,87.93840336,NO2,8,13,11
India,Bihar,Kishanganj,"SDM Office_Khagra, Kishanganj - BSPCB",09-02-2026 09:00:00,26.0881305,87.93840336,SO2,4,8,6
India,Bihar,Manguraha,"Forest Rest House, Manguraha - BSPCB",09-02-2026 09:00:00,27.308328,84.531742,OZONE,9,11,10
India,Bihar,Motihari,"Gandak Colony, Motihari - BSPCB",09-02-2026 09:00:00,26.63086,84.90051,NO2,6,10,8
India,Bihar,Patna,"Govt. High School Shikarpur, Patna - BSPCB",09-02-2026 09:00:00,25.592539,85.227158,SO2,4,6,5
India,Bihar,Patna,"IGSC Planetarium Complex, Patna - BSPCB",09-02-2026 09:00:00,25.610369,85.132568,OZONE,28,29,29
India,Bihar,Patna,"Muradpur, Patna - BSPCB",09-02-2026 09:00:00,25.619651,85.147382,PM2.5,52,84,67
India,Bihar,Patna,"Muradpur, Patna - BSPCB",09-02-2026 09:00:00,25.619651,85.147382,NO2,9,30,15
India,Bihar,Gaya,"Collectorate, Gaya - BSPCB",09-02-2026 09:00:00,24.7955,84.9994,CO,46,77,50
India,Bihar,Gaya,"Kareemganj, Gaya - BSPCB",09-02-2026 09:00:00,24.792403,84.992416,PM2.5,27,97,55
India,Bihar,Katihar,"Mirchaibari, Katihar - BSPCB",09-02-2026 09:00:00,25.560083,87.553265,PM10,69,136,99
India,Bihar,Sasaram,"Dada Peer, Sasaram - BSPCB",09-02-2026 09:00:00,24.952822,84.002396,CO,29,112,55
India,Bihar,Siwan,"Chitragupta Nagar, Siwan - BSPCB",09-02-2026 09:00:00,26.2271665,84.3570427,PM2.5,62,123,79
India,Bihar,Siwan,"Chitragupta Nagar, Siwan - BSPCB",09-02-2026 09:00:00,26.2271665,84.3570427,NH3,1,1,1
India,Bihar,Siwan,"Chitragupta Nagar, Siwan - BSPCB",09-02-2026 09:00:00,26.2271665,84.3570427,SO2,8,8,8
India,Chandigarh,Chandigarh,"Sector 22, Chandigarh - CPCC",09-02-2026 09:00:00,30.735567,76.775714,OZONE,5,151,9
India,Chandigarh,Chandigarh,"Sector-25, Chandigarh - CPCC",09-02-2026 09:00:00,30.751462,76.762879,PM2.5,NA,NA,NA
India,Chhattisgarh,Raipur,"Krishak Nagar, Raipur - CECB",09-02-2026 09:00:00,21.237755,81.705301,SO2,4,7,5
India,Chhattisgarh,Raipur,"Siltara Phase-II, Raipur - CECB",09-02-2026 09:00:00,21.371751,81.664929,NO2,37,49,43
India,Chhattisgarh,Raipur,"Siltara Phase-II, Raipur - CECB",09-02-2026 09:00:00,21.371751,81.664929,SO2,3,10,4
India,Delhi,Delhi,"Alipur, Delhi - DPCC",09-02-2026 09:00:00,28.815329,77.153010,CO,59,84,67
India,Delhi,Delhi,"Alipur, Delhi - DPCC",09-02-2026 09:00:00,28.815329,77.153010,OZONE,4,49,5
India,Chhattisgarh,Milupara,"Govt. Higher Secondary School, Milupara - CECB",09-02-2026 09:00:00,22.1910172,83.5197009,NH3,1,2,2
India,Chhattisgarh,Raipur,"AIIMS, Raipur - CECB",09-02-2026 09:00:00,21.258815,81.578979,NO2,39,47,43
India,Chhattisgarh,Raipur,"AIIMS, Raipur - CECB",09-02-2026 09:00:00,21.258815,81.578979,NH3,4,4,4
India,Chhattisgarh,Raipur,"AIIMS, Raipur - CECB",09-02-2026 09:00:00,21.258815,81.578979,CO,20,93,58
India,Chhattisgarh,Raipur,"AIIMS, Raipur - CECB",09-02-2026 09:00:00,21.258815,81.578979,OZONE,1,3,1
India,Bihar,Saharsa,"Police Line, Saharsa - BSPCB",09-02-2026 09:00:00,25.892357,86.590325,SO2,14,18,16
India,Bihar,Samastipur,"DM Office_Kasipur, Samastipur - BSPCB",09-02-2026 09:00:00,25.859655,85.77944,NO2,7,9,8
India,Bihar,Samastipur,"DM Office_Kasipur, Samastipur - BSPCB",09-02-2026 09:00:00,25.859655,85.77944,NH3,1,1,1
India,Bihar,Sasaram,"Dada Peer, Sasaram - BSPCB",09-02-2026 09:00:00,24.952822,84.002396,PM2.5,8,22,14
India,Chhattisgarh,Bilaspur,"Mangala, Bilaspur - NTPC",09-02-2026 09:00:00,22.08815,82.13737,PM2.5,18,85,48
India,Chhattisgarh,Korba,"Rampur, Korba - CECB",09-02-2026 09:00:00,22.368195,82.746431,NH3,1,1,1
India,Chhattisgarh,Korba,"Urja Nagar, Korba - CECB",09-02-2026 09:00:00,22.348441,82.549611,PM2.5,16,307,60
India,Bihar,Patna,"Samanpura, Patna - BSPCB",09-02-2026 09:00:00,25.596727,85.085624,OZONE,3,64,9
India,Bihar,Purnia,"Mariam Nagar, Purnia - BSPCB",09-02-2026 09:00:00,25.366336,87.117468,SO2,12,17,16
India,Bihar,Saharsa,"Police Line, Saharsa - BSPCB",09-02-2026 09:00:00,25.892357,86.590325,NO2,6,9,7
India,Chhattisgarh,Bhilai,"Civic Center, Bhilai - Bhilai Steel Plant",09-02-2026 09:00:00,21.185571,81.343175,OZONE,9,12,10
India,Chhattisgarh,Bhilai,"Hathkhoj, Bhilai - CECB",09-02-2026 09:00:00,21.224231,81.408350,NO2,20,87,47
India,Chhattisgarh,Bhilai,"Hathkhoj, Bhilai - CECB",09-02-2026 09:00:00,21.224231,81.408350,SO2,5,105,29
India,Chhattisgarh,Raipur,"Bhatagaon New ISBT, Raipur - CECB",09-02-2026 09:00:00,21.219665,81.630094,SO2,3,13,5
India,Chandigarh,Chandigarh,"Sector-53, Chandigarh - CPCC",09-02-2026 09:00:00,30.719859,76.738637,PM2.5,20,197,81
India,Delhi,Delhi,"Dr. Karni Singh Shooting Range, Delhi - DPCC",09-02-2026 09:00:00,28.498571,77.264840,CO,24,103,74
India,Delhi,Delhi,"Dwarka-Sector 8, Delhi - DPCC ",09-02-2026 09:00:00,28.5710274,77.0719006,PM2.5,75,348,238
India,Delhi,Delhi,"Dwarka-Sector 8, Delhi - DPCC ",09-02-2026 09:00:00,28.5710274,77.0719006,NO2,40,145,86
India,Delhi,Delhi,"Dwarka-Sector 8, Delhi - DPCC ",09-02-2026 09:00:00,28.5710274,77.0719006,CO,42,149,78
India,Delhi,Delhi,"IGI Airport (T3), Delhi - IMD",09-02-2026 09:00:00,28.5627763,77.1180053,CO,4,121,103
India,Delhi,Delhi,"IGI Airport (T3), Delhi - IMD",09-02-2026 09:00:00,28.5627763,77.1180053,OZONE,4,59,5
India,Delhi,Delhi,"IHBAS, Dilshad Garden, Delhi - CPCB",09-02-2026 09:00:00,28.6811736,77.3025234,NO2,26,88,58
India,Delhi,Delhi,"ITO, Delhi - CPCB",09-02-2026 09:00:00,28.628624,77.241060,NH3,1,4,2
India,Delhi,Delhi,"CRRI Mathura Road, Delhi - IMD",09-02-2026 09:00:00,28.5512005,77.2735737,PM10,99,322,193
India,Delhi,Delhi,"CRRI Mathura Road, Delhi - IMD",09-02-2026 09:00:00,28.5512005,77.2735737,NO2,21,43,33
India,Delhi,Delhi,"CRRI Mathura Road, Delhi - IMD",09-02-2026 09:00:00,28.5512005,77.2735737,OZONE,3,67,4
India,Delhi,Delhi,"Chandni Chowk, Delhi - IITM",09-02-2026 09:00:00,28.656756,77.227234,OZONE,1,98,2
India,Delhi,Delhi,"DTU, Delhi - CPCB",09-02-2026 09:00:00,28.7500499,77.1112615,SO2,31,37,32
India,Delhi,Delhi,"Dr. Karni Singh Shooting Range, Delhi - DPCC",09-02-2026 09:00:00,28.498571,77.264840,NH3,6,8,7
India,Delhi,Delhi,"Dr. Karni Singh Shooting Range, Delhi - DPCC",09-02-2026 09:00:00,28.498571,77.264840,SO2,8,30,13
India,Delhi,Delhi,"NSIT Dwarka, Delhi - CPCB",09-02-2026 09:00:00,28.60909,77.0325413,NH3,6,8,7
India,Delhi,Delhi,"Najafgarh, Delhi - DPCC",09-02-2026 09:00:00,28.570173,76.933762,PM10,64,134,105
India,Delhi,Delhi,"Narela, Delhi - DPCC",09-02-2026 09:00:00,28.822836,77.101981,PM2.5,62,432,236
India,Delhi,Delhi,"Narela, Delhi - DPCC",09-02-2026 09:00:00,28.822836,77.101981,NO2,18,54,35
India,Delhi,Delhi,"North Campus, DU, Delhi - IMD",09-02-2026 09:00:00,28.6573814,77.1585447,PM10,NA,NA,NA
India,Delhi,Delhi,"North Campus, DU, Delhi - IMD",09-02-2026 09:00:00,28.6573814,77.1585447,OZONE,NA,NA,NA
India,Delhi,Delhi,"Lodhi Road, Delhi - IMD",09-02-2026 09:00:00,28.5918245,77.2273074,PM2.5,43,237,119
India,Delhi,Delhi,"Major Dhyan Chand National Stadium, Delhi - DPCC",09-02-2026 09:00:00,28.611281,77.237738,CO,58,111,85
India,Delhi,Delhi,"Mandir Marg, Delhi - DPCC",09-02-2026 09:00:00,28.636429,77.201067,CO,71,122,110
India,Delhi,Delhi,"Mundka, Delhi - DPCC",09-02-2026 09:00:00,28.684678,77.076574,PM10,105,500,276
India,Delhi,Delhi,"Mundka, Delhi - DPCC",09-02-2026 09:00:00,28.684678,77.076574,CO,46,105,95
India,Delhi,Delhi,"Pusa, Delhi - IMD",09-02-2026 09:00:00,28.636110,77.173332,CO,82,146,117
India,Delhi,Delhi,"R K Puram, Delhi - DPCC",09-02-2026 09:00:00,28.563262,77.186937,PM2.5,73,499,264
India,Delhi,Delhi,"Rohini, Delhi - DPCC",09-02-2026 09:00:00,28.732528,77.119920,SO2,9,45,16
India,Delhi,Delhi,"Ashok Vihar, Delhi - DPCC",09-02-2026 09:00:00,28.695381,77.181665,PM10,101,342,196
India,Delhi,Delhi,"Ashok Vihar, Delhi - DPCC",09-02-2026 09:00:00,28.695381,77.181665,SO2,17,73,31
India,Delhi,Delhi,"Burari Crossing, Delhi - IMD",09-02-2026 09:00:00,28.7256504,77.2011573,PM10,NA,NA,NA
India,Delhi,Delhi,"Punjabi Bagh, Delhi - DPCC",09-02-2026 09:00:00,28.674045,77.131023,NO2,29,74,49
India,Delhi,Delhi,"Pusa, Delhi - DPCC",09-02-2026 09:00:00,28.639652,77.146275,SO2,5,70,22
India,Delhi,Delhi,"Pusa, Delhi - DPCC",09-02-2026 09:00:00,28.639652,77.146275,CO,58,114,74
India,Delhi,Delhi,"Jahangirpuri, Delhi - DPCC",09-02-2026 09:00:00,28.732820,77.170633,CO,26,110,95
India,Delhi,Delhi,"Jahangirpuri, Delhi - DPCC",09-02-2026 09:00:00,28.732820,77.170633,OZONE,4,104,5
India,Delhi,Delhi,"Anand Vihar, Delhi - DPCC",09-02-2026 09:00:00,28.647622,77.3158090,SO2,23,53,39
India,Delhi,Delhi,"Shadipur, Delhi - CPCB",09-02-2026 09:00:00,28.6514781,77.1473105,SO2,6,26,15
India,Delhi,Delhi,"Sirifort, Delhi - CPCB",09-02-2026 09:00:00,28.5504249,77.2159377,OZONE,2,23,3
India,Delhi,Delhi,"Sonia Vihar, Delhi - DPCC",09-02-2026 09:00:00,28.710508,77.249485,NO2,22,81,47
India,Delhi,Delhi,"Sonia Vihar, Delhi - DPCC",09-02-2026 09:00:00,28.710508,77.249485,SO2,NA,NA,NA
India,Delhi,Delhi,"Sri Aurobindo Marg, Delhi - DPCC",09-02-2026 09:00:00,28.531346,77.190156,SO2,6,16,10
India,Delhi,Delhi,"Sri Aurobindo Marg, Delhi - DPCC",09-02-2026 09:00:00,28.531346,77.190156,CO,20,110,61
India,Delhi,Delhi,"Sri Aurobindo Marg, Delhi - DPCC",09-02-2026 09:00:00,28.531346,77.190156,OZONE,2,100,2
India,Delhi,Delhi,"Vivek Vihar, Delhi - DPCC",09-02-2026 09:00:00,28.672342,77.315260,PM2.5,61,356,232
India,Delhi,Delhi,"Vivek Vihar, Delhi - DPCC",09-02-2026 09:00:00,28.672342,77.315260,NO2,24,107,62
India,Delhi,Delhi,"Wazirpur, Delhi - DPCC",09-02-2026 09:00:00,28.699793,77.165453,PM2.5,83,400,257
India,Delhi,Delhi,"Wazirpur, Delhi - DPCC",09-02-2026 09:00:00,28.699793,77.165453,PM10,123,432,260
India,Delhi,Delhi,"Wazirpur, Delhi - DPCC",09-02-2026 09:00:00,28.699793,77.165453,SO2,6,16,11
India,Gujarat,Ahmedabad,"SAC ISRO Satellite, Ahmedabad - IITM",09-02-2026 09:00:00,23.023389,72.515201,SO2,7,114,25
India,Gujarat,Ahmedabad,"SVPI Airport Hansol, Ahmedabad - IITM",09-02-2026 09:00:00,23.076793,72.627874,PM2.5,75,138,106
India,Gujarat,Ahmedabad,"SVPI Airport Hansol, Ahmedabad - IITM",09-02-2026 09:00:00,23.076793,72.627874,NO2,22,140,77
India,Gujarat,Ankleshwar,"GIDC, Ankleshwar - GPCB",09-02-2026 09:00:00,21.613267,73.010555,PM2.5,67,235,128
India,Gujarat,Ankleshwar,"GIDC, Ankleshwar - GPCB",09-02-2026 09:00:00,21.613267,73.010555,OZONE,11,73,16
India,Gujarat,Bhavnagar,"Vidhyanagar, Bhavnagar - Nexteng Enviro",09-02-2026 09:00:00,21.755417,72.139056,PM2.5,14,305,90
India,Gujarat,Ahmedabad,"Gyaspur, Ahmedabad - IITM",09-02-2026 09:00:00,22.977134,72.553024,NH3,4,42,20
India,Gujarat,Ahmedabad,"Gyaspur, Ahmedabad - IITM",09-02-2026 09:00:00,22.977134,72.553024,CO,22,116,76
India,Gujarat,Ahmedabad,"Maninagar, Ahmedabad - GPCB",09-02-2026 09:00:00,23.002657,72.591912,CO,2,30,14
India,Gujarat,Ahmedabad,"Maninagar, Ahmedabad - GPCB",09-02-2026 09:00:00,23.002657,72.591912,OZONE,30,93,38
India,Gujarat,Ahmedabad,"Raikhad, Ahmedabad - IITM",09-02-2026 09:00:00,23.020509,72.579261,NO2,31,161,90
India,Gujarat,Ahmedabad,"Raikhad, Ahmedabad - IITM",09-02-2026 09:00:00,23.020509,72.579261,SO2,16,71,30
India,Gujarat,Ahmedabad,"Rakhial, Ahmedabad - IITM",09-02-2026 09:00:00,23.016834,72.625775,NH3,4,11,7
India,Gujarat,Bhavnagar,"Vidhyanagar, Bhavnagar - Nexteng Enviro",09-02-2026 09:00:00,21.755417,72.139056,NH3,6,10,8
India,Gujarat,Bhavnagar,"Vidhyanagar, Bhavnagar - Nexteng Enviro",09-02-2026 09:00:00,21.755417,72.139056,SO2,11,81,24
India,Gujarat,Gandhinagar,"IIPHG Lekawada, Gandhinagar - IITM",09-02-2026 09:00:00,23.243639,72.68994,PM10,73,183,124
India,Gujarat,Gandhinagar,"IIPHG Lekawada, Gandhinagar - IITM",09-02-2026 09:00:00,23.243639,72.68994,NO2,6,42,17
India,Gujarat,Gandhinagar,"Sector-10, Gandhinagar - GPCB",09-02-2026 09:00:00,23.221714,72.654328,NO2,28,76,40
India,Gujarat,Gandhinagar,"Sector-10, Gandhinagar - GPCB",09-02-2026 09:00:00,23.221714,72.654328,NH3,2,6,3
India,Gujarat,Vapi,"Phase-1 GIDC, Vapi - GPCB",09-02-2026 09:00:00,20.362421,72.918013,PM2.5,NA,NA,NA
India,Gujarat,Vatva,"Phase-4 GIDC, Vatva - GPCB",09-02-2026 09:00:00,22.969611,72.643500,PM2.5,60,342,155
India,Gujarat,Vatva,"Phase-4 GIDC, Vatva - GPCB",09-02-2026 09:00:00,22.969611,72.643500,CO,16,20,16
India,Haryana,Ambala,"Patti Mehar, Ambala - HSPCB",09-02-2026 09:00:00,30.379589,76.778328,PM2.5,54,128,71
India,Haryana,Ambala,"Patti Mehar, Ambala - HSPCB",09-02-2026 09:00:00,30.379589,76.778328,PM10,58,114,74
India,Haryana,Ambala,"Patti Mehar, Ambala - HSPCB",09-02-2026 09:00:00,30.379589,76.778328,NO2,20,25,22
India,Haryana,Ballabgarh,"Nathu Colony, Ballabgarh - HSPCB",09-02-2026 09:00:00,28.3419248,77.319699,PM2.5,50,382,223
India,Haryana,Ballabgarh,"Nathu Colony, Ballabgarh - HSPCB",09-02-2026 09:00:00,28.3419248,77.319699,NO2,19,21,20
India,Haryana,Bhiwani,"H.B. Colony, Bhiwani - HSPCB",09-02-2026 09:00:00,28.806223,76.141105,PM10,122,191,130
India,Haryana,Bhiwani,"H.B. Colony, Bhiwani - HSPCB",09-02-2026 09:00:00,28.806223,76.141105,NO2,1,35,32
India,Haryana,Bhiwani,"H.B. Colony, Bhiwani - HSPCB",09-02-2026 09:00:00,28.806223,76.141105,NH3,1,8,8
India,Haryana,Bhiwani,"H.B. Colony, Bhiwani - HSPCB",09-02-2026 09:00:00,28.806223,76.141105,SO2,1,3,2
India,Gujarat,Mehsana,"Sadanand Nagar, Mehsana - Nexteng Enviro",09-02-2026 09:00:00,23.593150,72.372792,NH3,1,3,2
India,Gujarat,Mehsana,"Sadanand Nagar, Mehsana - Nexteng Enviro",09-02-2026 09:00:00,23.593150,72.372792,OZONE,9,24,12
India,Gujarat,Rajkot,"Mavdi, Rajkot - Nexteng Enviro ",09-02-2026 09:00:00,22.248853,70.776774,PM10,72,265,137
India,Gujarat,Surat,"Science Center, Surat - SMC",09-02-2026 09:00:00,21.170046,72.795405,CO,38,41,40
India,Haryana,Dharuhera,"Municipal Corporation Office, Dharuhera -  HSPCB",09-02-2026 09:00:00,28.206800,76.799700,NH3,9,26,19
India,Haryana,Dharuhera,"Municipal Corporation Office, Dharuhera -  HSPCB",09-02-2026 09:00:00,28.206800,76.799700,CO,54,102,84
India,Haryana,Faridabad,"New Industrial Town, Faridabad - HSPCB",09-02-2026 09:00:00,28.39072,77.30059,NO2,23,26,25
India,Haryana,Faridabad,"Sector 30, Faridabad - HSPCB",09-02-2026 09:00:00,28.4417,77.3217,CO,58,66,62
India,Haryana,Fatehabad,"Huda Sector, Fatehabad - HSPCB",09-02-2026 09:00:00,29.503664,75.467934,NO2,18,21,19
India,Haryana,Fatehabad,"Huda Sector, Fatehabad - HSPCB",09-02-2026 09:00:00,29.503664,75.467934,SO2,10,11,11
India,Haryana,Gurugram,"NISE Gwal Pahari, Gurugram - IMD",09-02-2026 09:00:00,28.422681,77.148944,PM2.5,2,308,138
India,Haryana,Gurugram,"NISE Gwal Pahari, Gurugram - IMD",09-02-2026 09:00:00,28.422681,77.148944,OZONE,6,70,8
India,Haryana,Gurugram,"Sector-51, Gurugram - HSPCB",09-02-2026 09:00:00,28.4227,77.0667,NO2,6,15,9
India,Haryana,Gurugram,"Sector-51, Gurugram - HSPCB",09-02-2026 09:00:00,28.4227,77.0667,OZONE,3,16,4
India,Haryana,Gurugram,"Vikas Sadan, Gurugram - HSPCB",09-02-2026 09:00:00,28.4501238,77.0263051,PM2.5,156,392,299
India,Haryana,Gurugram,"Vikas Sadan, Gurugram - HSPCB",09-02-2026 09:00:00,28.4501238,77.0263051,NO2,9,45,26
India,Haryana,Gurugram,"Vikas Sadan, Gurugram - HSPCB",09-02-2026 09:00:00,28.4501238,77.0263051,SO2,2,8,5
India,Haryana,Gurugram,"Vikas Sadan, Gurugram - HSPCB",09-02-2026 09:00:00,28.4501238,77.0263051,CO,65,114,98
India,Haryana,Hisar,"Urban Estate-II, Hisar - HSPCB",09-02-2026 09:00:00,29.140560,75.744941,PM10,NA,NA,NA
India,Haryana,Hisar,"Urban Estate-II, Hisar - HSPCB",09-02-2026 09:00:00,29.140560,75.744941,NO2,NA,NA,NA
India,Haryana,Hisar,"Urban Estate-II, Hisar - HSPCB",09-02-2026 09:00:00,29.140560,75.744941,CO,NA,NA,NA
India,Haryana,Panipat,"Sector-18, Panipat - HSPCB",09-02-2026 09:00:00,29.432304,76.972765,PM10,70,114,96
India,Haryana,Panipat,"Sector-18, Panipat - HSPCB",09-02-2026 09:00:00,29.432304,76.972765,NH3,2,3,2
India,Haryana,Panipat,"Sector-18, Panipat - HSPCB",09-02-2026 09:00:00,29.432304,76.972765,CO,24,26,25
India,Haryana,Rohtak,"MD University, Rohtak - HSPCB",09-02-2026 09:00:00,28.52123,76.37138,PM2.5,63,500,125
India,Haryana,Rohtak,"MD University, Rohtak - HSPCB",09-02-2026 09:00:00,28.52123,76.37138,NO2,10,13,11
India,Haryana,Rohtak,"MD University, Rohtak - HSPCB",09-02-2026 09:00:00,28.52123,76.37138,CO,30,38,35
India,Haryana,Yamuna Nagar,"Gobind Pura, Yamuna Nagar - HSPCB",09-02-2026 09:00:00,30.1480566,77.2893471,SO2,10,15,12
India,Himachal Pradesh,Baddi,"HIMUDA Complex Phase-1, Baddi - HPPCB",09-02-2026 09:00:00,30.943887,76.801991,PM10,91,408,151
India,Jammu_and_Kashmir,Srinagar,"Khunmoh, Srinagar - JKPCC",09-02-2026 09:00:00,34.06313,74.96017,NO2,7,26,14
India,Haryana,Jind,"Police Lines, Jind - HSPCB",09-02-2026 09:00:00,29.307814,76.337619,NO2,35,52,44
India,Haryana,Kaithal,"Rishi Nagar, Kaithal - HSPCB",09-02-2026 09:00:00,29.8006,76.4155,NO2,14,32,30
India,Haryana,Kaithal,"Rishi Nagar, Kaithal - HSPCB",09-02-2026 09:00:00,29.8006,76.4155,NH3,2,6,5
India,Haryana,Kaithal,"Rishi Nagar, Kaithal - HSPCB",09-02-2026 09:00:00,29.8006,76.4155,SO2,28,35,31
India,Haryana,Karnal,"Sector-12, Karnal - HSPCB",09-02-2026 09:00:00,29.695300,77.002700,NH3,6,7,6
India,Haryana,Kurukshetra,"Sector-7, Kurukshetra - HSPCB",09-02-2026 09:00:00,29.966942,76.875879,CO,19,45,27
India,Haryana,Mandikhera,"General Hospital, Mandikhera(Nuh) - HSPCB",09-02-2026 09:00:00,27.9002,76.9938,NH3,13,14,13
India,Jammu_and_Kashmir,Srinagar,"Rajbagh, Srinagar - JKPCC",09-02-2026 09:00:00,34.066206,74.819820,PM2.5,16,30,23
India,Jammu_and_Kashmir,Srinagar,"Rajbagh, Srinagar - JKPCC",09-02-2026 09:00:00,34.066206,74.819820,SO2,3,4,3
India,Jammu_and_Kashmir,Srinagar,"Rajbagh, Srinagar - JKPCC",09-02-2026 09:00:00,34.066206,74.819820,CO,10,19,12
India,Karnataka,Bagalkot,"Vidayagiri, Bagalkot - KSPCB",09-02-2026 09:00:00,16.172806,75.659694,NO2,11,12,12
India,Karnataka,Bagalkot,"Vidayagiri, Bagalkot - KSPCB",09-02-2026 09:00:00,16.172806,75.659694,SO2,7,7,7
India,Karnataka,Bengaluru,"BTM Layout, Bengaluru - CPCB",09-02-2026 09:00:00,12.9135218,77.5950804,SO2,17,23,21
India,Karnataka,Bengaluru,"Silk Board, Bengaluru - KSPCB",09-02-2026 09:00:00,12.917348,77.622813,CO,23,50,34
India,Karnataka,Chamarajanagar,"Urban, Chamarajanagar - KSPCB",09-02-2026 09:00:00,11.55358,76.55521,NO2,14,30,22
India,Karnataka,Chikkamagaluru,"Kalyana Nagara, Chikkamagaluru - KSPCB",09-02-2026 09:00:00,13.328028,75.797056,PM2.5,23,40,31
India,Karnataka,Chikkamagaluru,"Kalyana Nagara, Chikkamagaluru - KSPCB",09-02-2026 09:00:00,13.328028,75.797056,NO2,36,37,36
India,Karnataka,Chikkamagaluru,"Kalyana Nagara, Chikkamagaluru - KSPCB",09-02-2026 09:00:00,13.328028,75.797056,CO,11,11,11
India,Karnataka,Bengaluru,"Bapuji Nagar, Bengaluru - KSPCB",09-02-2026 09:00:00,12.951913,77.539784,OZONE,104,203,104
India,Karnataka,Bengaluru,"Hebbal, Bengaluru - KSPCB",09-02-2026 09:00:00,13.029152,77.585901,OZONE,7,17,9
India,Karnataka,Bengaluru,"Hombegowda Nagar, Bengaluru - KSPCB",09-02-2026 09:00:00,12.938539,77.590100,SO2,12,37,19
India,Karnataka,Bengaluru,"Jayanagar 5th Block, Bengaluru - KSPCB",09-02-2026 09:00:00,12.920984,77.584908,PM2.5,72,149,99
India,Karnataka,Bengaluru,"Jayanagar 5th Block, Bengaluru - KSPCB",09-02-2026 09:00:00,12.920984,77.584908,CO,11,50,19
India,Karnataka,Bengaluru,"Peenya, Bengaluru - CPCB",09-02-2026 09:00:00,13.0270199,77.494094,PM2.5,22,52,33
India,Karnataka,Bengaluru,"Peenya, Bengaluru - CPCB",09-02-2026 09:00:00,13.0270199,77.494094,NH3,3,5,4
India,Karnataka,Bengaluru,"Peenya, Bengaluru - CPCB",09-02-2026 09:00:00,13.0270199,77.494094,CO,6,22,9
India,Haryana,Manesar,"Sector-2 IMT, Manesar - HSPCB",09-02-2026 09:00:00,28.360699,76.936090,CO,12,83,32
India,Haryana,Narnaul,"Shastri Nagar, Narnaul - HSPCB",09-02-2026 09:00:00,28.060249,76.113115,PM2.5,48,205,113
India,Karnataka,Madikeri,"Stuart Hill, Madikeri - KSPCB",09-02-2026 09:00:00,12.415911,75.735050,PM2.5,44,60,49
India,Karnataka,Madikeri,"Stuart Hill, Madikeri - KSPCB",09-02-2026 09:00:00,12.415911,75.735050,CO,12,20,16
India,Madhya Pradesh,Indore,"Residency Area, Indore - IMC",09-02-2026 09:00:00,22.7084,75.8815,NO2,20,38,28
India,Madhya Pradesh,Indore,"Residency Area, Indore - IMC",09-02-2026 09:00:00,22.7084,75.8815,NH3,NA,NA,NA
India,Madhya Pradesh,Indore,"Residency Area, Indore - IMC",09-02-2026 09:00:00,22.7084,75.8815,SO2,1,4,2
India,Madhya Pradesh,Jabalpur,"Govindh Bhavan Colony, Jabalpur - JMC",09-02-2026 09:00:00,23.163174,79.973061,PM10,45,71,57
India,Madhya Pradesh,Jabalpur,"Govindh Bhavan Colony, Jabalpur - JMC",09-02-2026 09:00:00,23.163174,79.973061,NH3,2,2,2
India,Madhya Pradesh,Jabalpur,"Govindh Bhavan Colony, Jabalpur - JMC",09-02-2026 09:00:00,23.163174,79.973061,OZONE,6,26,7
India,Madhya Pradesh,Jabalpur,"Gupteshwar, Jabalpur - JMC",09-02-2026 09:00:00,23.142888,79.916147,NO2,17,73,33
India,Madhya Pradesh,Jabalpur,"Gupteshwar, Jabalpur - JMC",09-02-2026 09:00:00,23.142888,79.916147,NH3,2,2,2
India,Madhya Pradesh,Jabalpur,"Gupteshwar, Jabalpur - JMC",09-02-2026 09:00:00,23.142888,79.916147,CO,32,70,50
India,Madhya Pradesh,Jabalpur,"Marhatal, Jabalpur - MPPCB",09-02-2026 09:00:00,23.168606,79.932247,NH3,1,3,1
India,Madhya Pradesh,Jabalpur,"Marhatal, Jabalpur - MPPCB",09-02-2026 09:00:00,23.168606,79.932247,OZONE,NA,NA,NA
India,Madhya Pradesh,Jabalpur,"Suhagi, Jabalpur - JMC",09-02-2026 09:00:00,23.218135,79.957770,SO2,10,32,18
India,Madhya Pradesh,Katni,"Gole Bazar, Katni - MPPCB",09-02-2026 09:00:00,23.50016,80.23284,NO2,25,58,43
