country,state,city,station,last_update,latitude,longitude,pollutant_id,min_value,max_value,avg_value
India,Bihar,Chhapra,"Darshan Nagar, Chhapra - BSPCB",10-01-2026 08:00:00,25.7808257,84.7446768,PM10,87,144,120
India,Bihar,Chhapra,"Darshan Nagar, Chhapra - BSPCB",10-01-2026 08:00:00,25.7808257,84.7446768,NO2,1,2,1
India,Bihar,Gaya,"Collectorate, Gaya - BSPCB",10-01-2026 08:00:00,24.7955,84.9994,NO2,NA,NA,NA
India,Bihar,Gaya,"Collectorate, Gaya - BSPCB",10-01-2026 08:00:00,24.7955,84.9994,CO,NA,NA,NA
India,Bihar,Gaya,"Collectorate, Gaya - BSPCB",10-01-2026 08:00:00,24.7955,84.9994,OZONE,NA,NA,NA
India,Bihar,Gaya,"Kareemganj, Gaya - BSPCB",10-01-2026 08:00:00,24.792403,84.992416,PM10,103,297,146
India,Bihar,Gaya,"Kareemganj, Gaya - BSPCB",10-01-2026 08:00:00,24.792403,84.992416,OZONE,1,47,1
India,Bihar,Gaya,"SFTI Kusdihra, Gaya - BSPCB",10-01-2026 08:00:00,24.762518,84.982348,NH3,3,5,4
India,Bihar,Gaya,"SFTI Kusdihra, Gaya - BSPCB",10-01-2026 08:00:00,24.762518,84.982348,OZONE,10,52,12
India,Bihar,Hajipur,"Industrial Area, Hajipur - BSPCB",10-01-2026 08:00:00,25.697189,85.245900,PM2.5,113,319,200
India,Andhra_Pradesh,Chittoor,"Gangineni Cheruvu, Chittoor - APPCB",10-01-2026 08:00:00,13.204880,79.097889,PM10,56,88,70
India,Andhra_Pradesh,Kadapa,"Yerramukkapalli, Kadapa - APPCB",10-01-2026 08:00:00,14.465052,78.824187,PM10,73,136,110
India,Andhra_Pradesh,Kadapa,"Yerramukkapalli, Kadapa - APPCB",10-01-2026 08:00:00,14.465052,78.824187,NH3,3,4,4
India,Andhra_Pradesh,Rajamahendravaram,"Anand Kala Kshetram, Rajamahendravaram - APPCB",10-01-2026 08:00:00,16.9872867,81.7363176,NO2,19,63,37
India,Andhra_Pradesh,Rajamahendravaram,"Anand Kala Kshetram, Rajamahendravaram - APPCB",10-01-2026 08:00:00,16.9872867,81.7363176,NH3,3,5,3
India,Andhra_Pradesh,Rajamahendravaram,"Anand Kala Kshetram, Rajamahendravaram - APPCB",10-01-2026 08:00:00,16.9872867,81.7363176,SO2,15,35,22
India,Andhra_Pradesh,Tirumala,"Toll Gate, Tirumala - APPCB",10-01-2026 08:00:00,13.67,79.35,CO,21,32,27
India,Assam,Nalbari,"Bata Chowk, Nalbari - PCBA",10-01-2026 08:00:00,26.446912,91.439057,OZONE,8,16,14
India,Assam,Silchar,"Tarapur, Silchar - PCBA",10-01-2026 08:00:00,24.82827,92.79525,PM10,43,60,49
India,Assam,Silchar,"Tarapur, Silchar - PCBA",10-01-2026 08:00:00,24.82827,92.79525,SO2,4,7,5
India,Assam,Sivasagar,"Girls College, Sivasagar - PCBA",10-01-2026 08:00:00,26.987634,94.636574,PM10,25,98,64
India,Assam,Sivasagar,"Girls College, Sivasagar - PCBA",10-01-2026 08:00:00,26.987634,94.636574,NO2,25,58,36
India,Assam,Sivasagar,"Girls College, Sivasagar - PCBA",10-01-2026 08:00:00,26.987634,94.636574,OZONE,4,72,6
India,Bihar,Araria,"Kharahiya Basti, Araria - BSPCB",10-01-2026 08:00:00,26.146529,87.454184,SO2,2,22,13
India,Bihar,Araria,"Kharahiya Basti, Araria - BSPCB",10-01-2026 08:00:00,26.146529,87.454184,OZONE,10,10,10
India,Bihar,Arrah,"New DM Office, Arrah - BSPCB",10-01-2026 08:00:00,25.5626095,84.663264,PM10,82,161,115
India,Bihar,Arrah,"New DM Office, Arrah - BSPCB",10-01-2026 08:00:00,25.5626095,84.663264,NH3,1,1,1
India,Bihar,Arrah,"New DM Office, Arrah - BSPCB",10-01-2026 08:00:00,25.5626095,84.663264,CO,36,71,56
India,Bihar,Aurangabad,"Gurdeo Nagar, Aurangabad - BSPCB",10-01-2026 08:00:00,24.75746,84.366208,SO2,1,15,7
India,Bihar,Bettiah,"Kamalnath Nagar, Bettiah - BSPCB",10-01-2026 08:00:00,26.80365,84.51954,PM10,58,168,111
India,Andhra_Pradesh,Visakhapatnam,"GVM Corporation, Visakhapatnam - APPCB",10-01-2026 08:00:00,17.72,83.3,CO,22,76,26
India,Andhra_Pradesh,Visakhapatnam,"GVM Corporation, Visakhapatnam - APPCB",10-01-2026 08:00:00,17.72,83.3,OZONE,28,80,56
India,Arunachal_Pradesh,Naharlagun,"Naharlagun, Naharlagun - APSPCB",10-01-2026 08:00:00,27.103358,93.679645,NO2,6,7,7
India,Arunachal_Pradesh,Naharlagun,"Naharlagun, Naharlagun - APSPCB",10-01-2026 08:00:00,27.103358,93.679645,SO2,9,10,9
India,Assam,Byrnihat,"Central Academy for SFS, Byrnihat - PCBA",10-01-2026 08:00:00,26.071318,91.87488,CO,18,62,53
India,Assam,Byrnihat,"Central Academy for SFS, Byrnihat - PCBA",10-01-2026 08:00:00,26.071318,91.87488,OZONE,14,26,16
India,Assam,Guwahati,"LGBI Airport, Guwahati - PCBA",10-01-2026 08:00:00,26.10887,91.589544,CO,28,83,40
India,Assam,Guwahati,"Pan Bazaar, Guwahati - PCBA",10-01-2026 08:00:00,26.187500,91.744194,SO2,14,33,24
India,Assam,Nagaon,"Christianpatty, Nagaon - PCBA",10-01-2026 08:00:00,26.349082,92.68449,NO2,1,1,1
India,Assam,Nagaon,"Christianpatty, Nagaon - PCBA",10-01-2026 08:00:00,26.349082,92.68449,NH3,2,4,4
India,Bihar,Bhagalpur,"DM Office_Kachari Chowk, Bhagalpur - BSPCB",10-01-2026 08:00:00,25.251013,86.989001,SO2,35,81,57
India,Bihar,Bhagalpur,"DM Office_Kachari Chowk, Bhagalpur - BSPCB",10-01-2026 08:00:00,25.251013,86.989001,CO,46,84,49
India,Bihar,Bhagalpur,"DM Office_Kachari Chowk, Bhagalpur - BSPCB",10-01-2026 08:00:00,25.251013,86.989001,OZONE,12,27,17
India,Bihar,Bhagalpur,"Mayaganj, Bhagalpur - BSPCB",10-01-2026 08:00:00,25.265194,87.012947,CO,74,83,79
India,Bihar,Bihar Sharif,"D M Colony, Bihar Sharif - BSPCB",10-01-2026 08:00:00,25.204762,85.514960,PM2.5,NA,NA,NA
India,Bihar,Hajipur,"Industrial Area, Hajipur - BSPCB",10-01-2026 08:00:00,25.697189,85.245900,SO2,6,9,8
India,Bihar,Kishanganj,"SDM Office_Khagra, Kishanganj - BSPCB",10-01-2026 08:00:00,26.0881305,87.93840336,PM2.5,22,38,31
India,Bihar,Kishanganj,"SDM Office_Khagra, Kishanganj - BSPCB",10-01-2026 08:00:00,26.0881305,87.93840336,NH3,3,3,3
India,Andhra_Pradesh,Amaravati,"Secretariat, Amaravati - APPCB",10-01-2026 08:00:00,16.5150833,80.5181667,SO2,18,34,24
India,Andhra_Pradesh,Anantapur,"Gulzarpet, Anantapur - APPCB",10-01-2026 08:00:00,14.675886,77.593027,PM2.5,88,178,112
India,Andhra_Pradesh,Tirupati,"Vaikuntapuram, Tirupati - APPCB",10-01-2026 08:00:00,13.615387,79.409230,PM2.5,78,159,120
India,Bihar,Manguraha,"Forest Rest House, Manguraha - BSPCB",10-01-2026 08:00:00,27.308328,84.531742,OZONE,10,11,10
India,Bihar,Motihari,"Gandak Colony, Motihari - BSPCB",10-01-2026 08:00:00,26.63086,84.90051,PM2.5,NA,NA,NA
India,Bihar,Motihari,"Gandak Colony, Motihari - BSPCB",10-01-2026 08:00:00,26.63086,84.90051,NO2,4,6,5
India,Bihar,Motihari,"Gandak Colony, Motihari - BSPCB",10-01-2026 08:00:00,26.63086,84.90051,OZONE,NA,NA,NA
India,Bihar,Munger,"Town Hall, Munger - BSPCB",10-01-2026 08:00:00,25.376776,86.471523,CO,22,80,23
India,Bihar,Muzaffarpur,"Buddha Colony, Muzaffarpur - BSPCB",10-01-2026 08:00:00,26.11442,85.39813,NO2,25,62,37
India,Bihar,Muzaffarpur,"Buddha Colony, Muzaffarpur - BSPCB",10-01-2026 08:00:00,26.11442,85.39813,NH3,4,7,5
India,Bihar,Muzaffarpur,"MIT-Daudpur Kothi, Muzaffarpur - BSPCB",10-01-2026 08:00:00,26.1403345,85.3650192,PM2.5,100,130,110
India,Bihar,Muzaffarpur,"MIT-Daudpur Kothi, Muzaffarpur - BSPCB",10-01-2026 08:00:00,26.1403345,85.3650192,OZONE,10,37,16
India,Bihar,Muzaffarpur,"Muzaffarpur Collectorate, Muzaffarpur - BSPCB",10-01-2026 08:00:00,26.1209,85.3647,SO2,5,6,6
India,Bihar,Patna,"Govt. High School Shikarpur, Patna - BSPCB",10-01-2026 08:00:00,25.592539,85.227158,CO,38,62,55
India,Bihar,Patna,"Govt. High School Shikarpur, Patna - BSPCB",10-01-2026 08:00:00,25.592539,85.227158,OZONE,7,12,10
India,Bihar,Patna,"IGSC Planetarium Complex, Patna - BSPCB",10-01-2026 08:00:00,25.610369,85.132568,PM2.5,91,337,163
India,Bihar,Patna,"IGSC Planetarium Complex, Patna - BSPCB",10-01-2026 08:00:00,25.610369,85.132568,SO2,1,39,34
India,Bihar,Patna,"IGSC Planetarium Complex, Patna - BSPCB",10-01-2026 08:00:00,25.610369,85.132568,CO,34,82,65
India,Bihar,Patna,"IGSC Planetarium Complex, Patna - BSPCB",10-01-2026 08:00:00,25.610369,85.132568,OZONE,28,33,30
India,Bihar,Patna,"Muradpur, Patna - BSPCB",10-01-2026 08:00:00,25.619651,85.147382,PM10,100,154,126
India,Bihar,Patna,"Muradpur, Patna - BSPCB",10-01-2026 08:00:00,25.619651,85.147382,OZONE,4,16,5
India,Bihar,Patna,"Rajbansi Nagar, Patna - BSPCB",10-01-2026 08:00:00,25.599486,85.113666,NO2,11,141,62
India,Bihar,Patna,"Rajbansi Nagar, Patna - BSPCB",10-01-2026 08:00:00,25.599486,85.113666,SO2,6,7,6
India,Bihar,Patna,"Rajbansi Nagar, Patna - BSPCB",10-01-2026 08:00:00,25.599486,85.113666,OZONE,22,27,24
India,Chhattisgarh,Raipur,"Siltara Phase-II, Raipur - CECB",10-01-2026 08:00:00,21.371751,81.664929,PM10,36,141,94
India,Chhattisgarh,Tumidih,"OP Jindal Industrial Park, Tumidih - CECB",10-01-2026 08:00:00,22.06631475,83.33820077,NO2,24,97,57
India,Chhattisgarh,Tumidih,"OP Jindal Industrial Park, Tumidih - CECB",10-01-2026 08:00:00,22.06631475,83.33820077,SO2,5,9,5
India,Chhattisgarh,Tumidih,"OP Jindal Industrial Park, Tumidih - CECB",10-01-2026 08:00:00,22.06631475,83.33820077,OZONE,5,95,10
India,Delhi,Delhi,"Alipur, Delhi - DPCC",10-01-2026 08:00:00,28.815329,77.153010,NO2,33,85,48
India,Delhi,Delhi,"Alipur, Delhi - DPCC",10-01-2026 08:00:00,28.815329,77.153010,OZONE,4,37,4
India,Bihar,Siwan,"Chitragupta Nagar, Siwan - BSPCB",10-01-2026 08:00:00,26.2271665,84.3570427,PM10,89,185,125
India,Bihar,Siwan,"Chitragupta Nagar, Siwan - BSPCB",10-01-2026 08:00:00,26.2271665,84.3570427,NH3,1,2,1
India,Chandigarh,Chandigarh,"Sector 22, Chandigarh - CPCC",10-01-2026 08:00:00,30.735567,76.775714,PM10,87,207,124
India,Chandigarh,Chandigarh,"Sector 22, Chandigarh - CPCC",10-01-2026 08:00:00,30.735567,76.775714,OZONE,5,96,6
India,Chhattisgarh,Bhilai,"32Bungalows, Bhilai - CECB",10-01-2026 08:00:00,21.194815,81.314770,NO2,20,90,52
India,Chhattisgarh,Korba,"Rampur, Korba - CECB",10-01-2026 08:00:00,22.368195,82.746431,CO,18,39,28
India,Chhattisgarh,Korba,"Urja Nagar, Korba - CECB",10-01-2026 08:00:00,22.348441,82.549611,PM2.5,7,124,41
India,Chhattisgarh,Korba,"Urja Nagar, Korba - CECB",10-01-2026 08:00:00,22.348441,82.549611,NO2,15,20,16
India,Chhattisgarh,Korba,"Urja Nagar, Korba - CECB",10-01-2026 08:00:00,22.348441,82.549611,NH3,1,1,1
India,Chhattisgarh,Kunjemura,"OP Jindal School, Kunjemura - CECB",10-01-2026 08:00:00,22.126650,83.483212,PM2.5,24,76,51
India,Chhattisgarh,Kunjemura,"OP Jindal School, Kunjemura - CECB",10-01-2026 08:00:00,22.126650,83.483212,SO2,1,25,11
India,Chhattisgarh,Raipur,"AIIMS, Raipur - CECB",10-01-2026 08:00:00,21.258815,81.578979,PM2.5,29,171,85
India,Chhattisgarh,Raipur,"AIIMS, Raipur - CECB",10-01-2026 08:00:00,21.258815,81.578979,PM10,32,152,97
India,Chhattisgarh,Raipur,"AIIMS, Raipur - CECB",10-01-2026 08:00:00,21.258815,81.578979,NO2,44,52,47
India,Chhattisgarh,Raipur,"Krishak Nagar, Raipur - CECB",10-01-2026 08:00:00,21.237755,81.705301,PM10,36,96,68
India,Chhattisgarh,Raipur,"Krishak Nagar, Raipur - CECB",10-01-2026 08:00:00,21.237755,81.705301,SO2,3,12,5
India,Bihar,Samastipur,"DM Office_Kasipur, Samastipur - BSPCB",10-01-2026 08:00:00,25.859655,85.77944,PM2.5,37,343,116
India,Bihar,Samastipur,"DM Office_Kasipur, Samastipur - BSPCB",10-01-2026 08:00:00,25.859655,85.77944,NO2,8,9,8
India,Bihar,Sasaram,"Dada Peer, Sasaram - BSPCB",10-01-2026 08:00:00,24.952822,84.002396,PM2.5,25,82,40
India,Chhattisgarh,Bhilai,"32Bungalows, Bhilai - CECB",10-01-2026 08:00:00,21.194815,81.314770,SO2,6,17,8
India,Chhattisgarh,Bhilai,"Hathkhoj, Bhilai - CECB",10-01-2026 08:00:00,21.224231,81.408350,CO,17,66,40
India,Delhi,Delhi,"Major Dhyan Chand National Stadium, Delhi - DPCC",10-01-2026 08:00:00,28.611281,77.237738,NH3,23,29,25
India,Delhi,Delhi,"Major Dhyan Chand National Stadium, Delhi - DPCC",10-01-2026 08:00:00,28.611281,77.237738,SO2,20,28,23
India,Delhi,Delhi,"Major Dhyan Chand National Stadium, Delhi - DPCC",10-01-2026 08:00:00,28.611281,77.237738,OZONE,4,82,5
India,Delhi,Delhi,"Mandir Marg, Delhi - DPCC",10-01-2026 08:00:00,28.636429,77.201067,PM2.5,203,407,335
India,Delhi,Delhi,"Mandir Marg, Delhi - DPCC",10-01-2026 08:00:00,28.636429,77.201067,OZONE,10,77,11
India,Delhi,Delhi,"Mundka, Delhi - DPCC",10-01-2026 08:00:00,28.684678,77.076574,PM2.5,319,437,376
India,Delhi,Delhi,"NSIT Dwarka, Delhi - CPCB",10-01-2026 08:00:00,28.60909,77.0325413,CO,38,94,46
India,Delhi,Delhi,"Rohini, Delhi - DPCC",10-01-2026 08:00:00,28.732528,77.119920,CO,30,103,60
India,Delhi,Delhi,"Shadipur, Delhi - CPCB",10-01-2026 08:00:00,28.6514781,77.1473105,PM10,156,461,300
India,Delhi,Delhi,"Shadipur, Delhi - CPCB",10-01-2026 08:00:00,28.6514781,77.1473105,NH3,14,19,16
India,Delhi,Delhi,"Shadipur, Delhi - CPCB",10-01-2026 08:00:00,28.6514781,77.1473105,CO,47,107,69
India,Delhi,Delhi,"Sonia Vihar, Delhi - DPCC",10-01-2026 08:00:00,28.710508,77.249485,NO2,30,66,44
India,Delhi,Delhi,"Ashok Vihar, Delhi - DPCC",10-01-2026 08:00:00,28.695381,77.181665,SO2,12,20,16
India,Delhi,Delhi,"Aya Nagar, Delhi - IMD",10-01-2026 08:00:00,28.4706914,77.1099364,PM10,192,452,338
India,Delhi,Delhi,"Aya Nagar, Delhi - IMD",10-01-2026 08:00:00,28.4706914,77.1099364,OZONE,8,69,8
India,Delhi,Delhi,"Bawana, Delhi - DPCC",10-01-2026 08:00:00,28.776200,77.051074,NO2,17,46,31
India,Delhi,Delhi,"Bawana, Delhi - DPCC",10-01-2026 08:00:00,28.776200,77.051074,SO2,7,12,9
India,Delhi,Delhi,"Burari Crossing, Delhi - IMD",10-01-2026 08:00:00,28.7256504,77.2011573,CO,34,104,52
India,Delhi,Delhi,"Burari Crossing, Delhi - IMD",10-01-2026 08:00:00,28.7256504,77.2011573,OZONE,8,64,19
India,Delhi,Delhi,"CRRI Mathura Road, Delhi - IMD",10-01-2026 08:00:00,28.5512005,77.2735737,PM2.5,314,424,342
India,Delhi,Delhi,"CRRI Mathura Road, Delhi - IMD",10-01-2026 08:00:00,28.5512005,77.2735737,OZONE,10,71,12
India,Delhi,Delhi,"DTU, Delhi - CPCB",10-01-2026 08:00:00,28.7500499,77.1112615,CO,37,62,46
India,Delhi,Delhi,"Najafgarh, Delhi - DPCC",10-01-2026 08:00:00,28.570173,76.933762,NO2,76,124,100
India,Delhi,Delhi,"Narela, Delhi - DPCC",10-01-2026 08:00:00,28.822836,77.101981,NO2,20,61,36
India,Delhi,Delhi,"Okhla Phase-2, Delhi - DPCC",10-01-2026 08:00:00,28.530785,77.271255,PM2.5,356,471,398
India,Delhi,Delhi,"Okhla Phase-2, Delhi - DPCC",10-01-2026 08:00:00,28.530785,77.271255,PM10,209,436,293
India,Delhi,Delhi,"Punjabi Bagh, Delhi - DPCC",10-01-2026 08:00:00,28.674045,77.131023,PM2.5,340,416,373
India,Delhi,Delhi,"Punjabi Bagh, Delhi - DPCC",10-01-2026 08:00:00,28.674045,77.131023,SO2,5,14,11
India,Delhi,Delhi,"Pusa, Delhi - DPCC",10-01-2026 08:00:00,28.639652,77.146275,NH3,11,22,18
India,Delhi,Delhi,"Pusa, Delhi - IMD",10-01-2026 08:00:00,28.636110,77.173332,OZONE,38,77,42
India,Delhi,Delhi,"Dwarka-Sector 8, Delhi - DPCC ",10-01-2026 08:00:00,28.5710274,77.0719006,PM10,167,438,336
India,Delhi,Delhi,"IHBAS, Dilshad Garden, Delhi - CPCB",10-01-2026 08:00:00,28.6811736,77.3025234,NH3,7,26,13
India,Delhi,Delhi,"IIT Delhi, Delhi - IITM",10-01-2026 08:00:00,28.542460,77.191651,OZONE,6,32,8
India,Delhi,Delhi,"Sri Aurobindo Marg, Delhi - DPCC",10-01-2026 08:00:00,28.531346,77.190156,CO,39,88,67
India,Delhi,Delhi,"Vivek Vihar, Delhi - DPCC",10-01-2026 08:00:00,28.672342,77.315260,PM10,195,444,382
India,Delhi,Delhi,"Vivek Vihar, Delhi - DPCC",10-01-2026 08:00:00,28.672342,77.315260,NO2,44,105,79
India,Delhi,Delhi,"Vivek Vihar, Delhi - DPCC",10-01-2026 08:00:00,28.672342,77.315260,OZONE,1,84,2
India,Delhi,Delhi,"ITO, Delhi - CPCB",10-01-2026 08:00:00,28.628624,77.241060,PM10,155,437,268
India,Delhi,Delhi,"Jahangirpuri, Delhi - DPCC",10-01-2026 08:00:00,28.732820,77.170633,CO,44,120,67
India,Delhi,Delhi,"Major Dhyan Chand National Stadium, Delhi - DPCC",10-01-2026 08:00:00,28.611281,77.237738,PM10,174,449,286
India,Gujarat,Ahmedabad,"SAC ISRO Satellite, Ahmedabad - IITM",10-01-2026 08:00:00,23.023389,72.515201,PM2.5,59,186,88
India,Gujarat,Ahmedabad,"SAC ISRO Satellite, Ahmedabad - IITM",10-01-2026 08:00:00,23.023389,72.515201,PM10,69,149,100
India,Gujarat,Ahmedabad,"SAC ISRO Satellite, Ahmedabad - IITM",10-01-2026 08:00:00,23.023389,72.515201,SO2,5,29,11
India,Gujarat,Ahmedabad,"SVPI Airport Hansol, Ahmedabad - IITM",10-01-2026 08:00:00,23.076793,72.627874,PM2.5,66,130,100
India,Gujarat,Ahmedabad,"SVPI Airport Hansol, Ahmedabad - IITM",10-01-2026 08:00:00,23.076793,72.627874,SO2,3,9,5
India,Gujarat,Ahmedabad,"SVPI Airport Hansol, Ahmedabad - IITM",10-01-2026 08:00:00,23.076793,72.627874,CO,4,74,45
India,Gujarat,Ankleshwar,"GIDC, Ankleshwar - GPCB",10-01-2026 08:00:00,21.613267,73.010555,PM2.5,74,162,113
India,Gujarat,Ankleshwar,"GIDC, Ankleshwar - GPCB",10-01-2026 08:00:00,21.613267,73.010555,PM10,96,162,135
India,Gujarat,Ankleshwar,"GIDC, Ankleshwar - GPCB",10-01-2026 08:00:00,21.613267,73.010555,SO2,26,38,28
India,Gujarat,Ankleshwar,"GIDC, Ankleshwar - GPCB",10-01-2026 08:00:00,21.613267,73.010555,CO,40,96,72
India,Gujarat,Gandhinagar,"GIFT City, Gandhinagar - IITM",10-01-2026 08:00:00,23.163798,72.677768,PM2.5,39,92,66
India,Gujarat,Gandhinagar,"GIFT City, Gandhinagar - IITM",10-01-2026 08:00:00,23.163798,72.677768,CO,5,52,22
India,Haryana,Ambala,"Patti Mehar, Ambala - HSPCB",10-01-2026 08:00:00,30.379589,76.778328,PM2.5,57,129,84
India,Haryana,Ambala,"Patti Mehar, Ambala - HSPCB",10-01-2026 08:00:00,30.379589,76.778328,NO2,20,25,22
India,Haryana,Ambala,"Patti Mehar, Ambala - HSPCB",10-01-2026 08:00:00,30.379589,76.778328,SO2,15,33,22
India,Haryana,Bahadurgarh,"Arya Nagar, Bahadurgarh - HSPCB",10-01-2026 08:00:00,28.6701,76.9254,NH3,12,13,13
India,Haryana,Ballabgarh,"Nathu Colony, Ballabgarh - HSPCB",10-01-2026 08:00:00,28.3419248,77.319699,PM10,NA,NA,NA
India,Haryana,Ballabgarh,"Nathu Colony, Ballabgarh - HSPCB",10-01-2026 08:00:00,28.3419248,77.319699,NO2,NA,NA,NA
India,Haryana,Bhiwani,"H.B. Colony, Bhiwani - HSPCB",10-01-2026 08:00:00,28.806223,76.141105,NO2,1,34,31
India,Haryana,Bhiwani,"H.B. Colony, Bhiwani - HSPCB",10-01-2026 08:00:00,28.806223,76.141105,NH3,1,9,8
India,Gujarat,Gandhinagar,"Sector-10, Gandhinagar - GPCB",10-01-2026 08:00:00,23.221714,72.654328,OZONE,4,73,9
India,Gujarat,Surat,"Science Center, Surat - SMC",10-01-2026 08:00:00,21.170046,72.795405,PM2.5,50,144,93
India,Gujarat,Surat,"Science Center, Surat - SMC",10-01-2026 08:00:00,21.170046,72.795405,NO2,16,16,16
India,Gujarat,Surat,"Science Center, Surat - SMC",10-01-2026 08:00:00,21.170046,72.795405,SO2,24,32,26
India,Gujarat,Vapi,"Phase-1 GIDC, Vapi - GPCB",10-01-2026 08:00:00,20.362421,72.918013,NH3,4,5,5
India,Gujarat,Vapi,"Phase-1 GIDC, Vapi - GPCB",10-01-2026 08:00:00,20.362421,72.918013,SO2,12,25,15
India,Gujarat,Vatva,"Phase-4 GIDC, Vatva - GPCB",10-01-2026 08:00:00,22.969611,72.643500,PM2.5,96,276,157
India,Haryana,Gurugram,"Vikas Sadan, Gurugram - HSPCB",10-01-2026 08:00:00,28.4501238,77.0263051,NO2,7,36,21
India,Haryana,Gurugram,"Vikas Sadan, Gurugram - HSPCB",10-01-2026 08:00:00,28.4501238,77.0263051,CO,63,116,96
India,Haryana,Hisar,"Urban Estate-II, Hisar - HSPCB",10-01-2026 08:00:00,29.140560,75.744941,NH3,10,11,11
India,Haryana,Jind,"Police Lines, Jind - HSPCB",10-01-2026 08:00:00,29.307814,76.337619,PM10,85,135,119
India,Haryana,Kaithal,"Rishi Nagar, Kaithal - HSPCB",10-01-2026 08:00:00,29.8006,76.4155,PM2.5,87,233,186
India,Gujarat,Ahmedabad,"Maninagar, Ahmedabad - GPCB",10-01-2026 08:00:00,23.002657,72.591912,OZONE,22,90,26
India,Gujarat,Ahmedabad,"Rakhial, Ahmedabad - IITM",10-01-2026 08:00:00,23.016834,72.625775,PM10,114,191,151
India,Gujarat,Ahmedabad,"Rakhial, Ahmedabad - IITM",10-01-2026 08:00:00,23.016834,72.625775,NH3,4,8,6
India,Gujarat,Ahmedabad,"Rakhial, Ahmedabad - IITM",10-01-2026 08:00:00,23.016834,72.625775,CO,13,101,45
India,Gujarat,Ahmedabad,"SAC ISRO Bopal, Ahmedabad - IITM",10-01-2026 08:00:00,23.041137,72.456691,PM2.5,NA,NA,NA
India,Gujarat,Ahmedabad,"SAC ISRO Bopal, Ahmedabad - IITM",10-01-2026 08:00:00,23.041137,72.456691,NO2,15,72,27
India,Haryana,Charkhi Dadri,"Mini Secretariat, Charkhi Dadri - HSPCB",10-01-2026 08:00:00,28.593883,76.270653,OZONE,14,17,16
India,Haryana,Dharuhera,"Municipal Corporation Office, Dharuhera -  HSPCB",10-01-2026 08:00:00,28.206800,76.799700,NO2,17,64,49
India,Haryana,Dharuhera,"Municipal Corporation Office, Dharuhera -  HSPCB",10-01-2026 08:00:00,28.206800,76.799700,OZONE,4,28,5
India,Haryana,Faridabad,"New Industrial Town, Faridabad - HSPCB",10-01-2026 08:00:00,28.39072,77.30059,CO,10,13,11
India,Haryana,Faridabad,"Sector 30, Faridabad - HSPCB",10-01-2026 08:00:00,28.4417,77.3217,NO2,36,40,38
India,Haryana,Gurugram,"NISE Gwal Pahari, Gurugram - IMD",10-01-2026 08:00:00,28.422681,77.148944,PM2.5,146,456,353
India,Haryana,Gurugram,"Sector-51, Gurugram - HSPCB",10-01-2026 08:00:00,28.4227,77.0667,NH3,9,14,12
India,Haryana,Charkhi Dadri,"Mini Secretariat, Charkhi Dadri - HSPCB",10-01-2026 08:00:00,28.593883,76.270653,PM10,101,215,169
India,Gujarat,Ahmedabad,"Gyaspur, Ahmedabad - IITM",10-01-2026 08:00:00,22.977134,72.553024,NO2,42,115,73
India,Haryana,Yamuna Nagar,"Gobind Pura, Yamuna Nagar - HSPCB",10-01-2026 08:00:00,30.1480566,77.2893471,OZONE,8,34,11
India,Himachal Pradesh,Baddi,"HIMUDA Complex Phase-1, Baddi - HPPCB",10-01-2026 08:00:00,30.943887,76.801991,PM2.5,67,407,257
India,Himachal Pradesh,Baddi,"HIMUDA Complex Phase-1, Baddi - HPPCB",10-01-2026 08:00:00,30.943887,76.801991,NO2,20,82,53
India,Jammu_and_Kashmir,Pampore,"Khrew, Pampore - JKPCC",10-01-2026 08:00:00,34.031606,75.009712,NO2,18,62,36
India,Jammu_and_Kashmir,Pampore,"Khrew, Pampore - JKPCC",10-01-2026 08:00:00,34.031606,75.009712,SO2,1,2,2
India,Jammu_and_Kashmir,Srinagar,"Khunmoh, Srinagar - JKPCC",10-01-2026 08:00:00,34.06313,74.96017,SO2,2,4,3
India,Jammu_and_Kashmir,Srinagar,"Rajbagh, Srinagar - JKPCC",10-01-2026 08:00:00,34.066206,74.819820,SO2,3,4,3
India,Jharkhand,Dhanbad,"Sardar Patel Nagar, Dhanbad - JSPCB",10-01-2026 08:00:00,23.80569,86.44268,PM10,36,202,114
India,Jharkhand,Dhanbad,"Sardar Patel Nagar, Dhanbad - JSPCB",10-01-2026 08:00:00,23.80569,86.44268,CO,4,102,60
India,Karnataka,Chikkamagaluru,"Kalyana Nagara, Chikkamagaluru - KSPCB",10-01-2026 08:00:00,13.328028,75.797056,OZONE,12,45,12
India,Karnataka,Davanagere,"Devaraj Urs Badavane, Davanagere - KSPCB",10-01-2026 08:00:00,14.475800,75.905200,CO,12,36,30
India,Karnataka,Dharwad,"Kalabhavan, Dharwad - KSPCB",10-01-2026 08:00:00,15.459706,75.008381,NO2,18,22,19
India,Karnataka,Hubballi,"Lingaraj Nagar, Hubballi - KSPCB",10-01-2026 08:00:00,15.3714823,75.1160168,PM10,62,67,64
India,Karnataka,Hubballi,"Lingaraj Nagar, Hubballi - KSPCB",10-01-2026 08:00:00,15.3714823,75.1160168,NO2,7,11,8
India,Karnataka,Kalaburagi,"Mahatma Basaveswar Colony, Kalaburgi - KSPCB",10-01-2026 08:00:00,17.336318,76.847397,PM10,34,68,48
India,Karnataka,Kalaburagi,"Mahatma Basaveswar Colony, Kalaburgi - KSPCB",10-01-2026 08:00:00,17.336318,76.847397,NH3,3,4,3
India,Karnataka,Belgaum,"Ramteerth Nagar, Belgaum - KSPCB",10-01-2026 08:00:00,15.888653,74.541751,NH3,9,11,10
India,Karnataka,Bengaluru,"BTM Layout, Bengaluru - CPCB",10-01-2026 08:00:00,12.9135218,77.5950804,PM2.5,74,109,88
India,Karnataka,Bengaluru,"BTM Layout, Bengaluru - CPCB",10-01-2026 08:00:00,12.9135218,77.5950804,NO2,15,26,20
India,Karnataka,Bengaluru,"BTM Layout, Bengaluru - CPCB",10-01-2026 08:00:00,12.9135218,77.5950804,OZONE,24,25,25
India,Karnataka,Bengaluru,"BWSSB Kadabesanahalli, Bengaluru - CPCB",10-01-2026 08:00:00,12.9352049,77.6814488,NH3,NA,NA,NA
India,Karnataka,Bengaluru,"BWSSB Kadabesanahalli, Bengaluru - CPCB",10-01-2026 08:00:00,12.9352049,77.6814488,SO2,3,10,5
India,Karnataka,Bengaluru,"BWSSB Kadabesanahalli, Bengaluru - CPCB",10-01-2026 08:00:00,12.9352049,77.6814488,OZONE,19,80,66
India,Karnataka,Bengaluru,"Bapuji Nagar, Bengaluru - KSPCB",10-01-2026 08:00:00,12.951913,77.539784,NO2,7,24,18
India,Haryana,Manesar,"Sector-2 IMT, Manesar - HSPCB",10-01-2026 08:00:00,28.360699,76.936090,SO2,6,12,9
India,Haryana,Palwal,"Shyam Nagar, Palwal - HSPCB",10-01-2026 08:00:00,28.1485564,77.3320667,PM10,118,158,137
India,Haryana,Palwal,"Shyam Nagar, Palwal - HSPCB",10-01-2026 08:00:00,28.1485564,77.3320667,OZONE,9,16,12
India,Haryana,Panchgaon,"Amity University, Panchgaon - IITM",10-01-2026 08:00:00,28.3153,76.9143,PM2.5,44,500,190
India,Haryana,Panchgaon,"Amity University, Panchgaon - IITM",10-01-2026 08:00:00,28.3153,76.9143,NH3,11,21,16
India,Haryana,Panchgaon,"Amity University, Panchgaon - IITM",10-01-2026 08:00:00,28.3153,76.9143,SO2,1,15,11
India,Haryana,Panchkula,"Sector-6, Panchkula - HSPCB ",10-01-2026 08:00:00,30.7057778,76.8531805555555,NO2,NA,NA,NA
India,Haryana,Kaithal,"Rishi Nagar, Kaithal - HSPCB",10-01-2026 08:00:00,29.8006,76.4155,NO2,29,33,31
India,Haryana,Karnal,"Sector-12, Karnal - HSPCB",10-01-2026 08:00:00,29.695300,77.002700,PM10,121,150,134
India,Haryana,Karnal,"Sector-12, Karnal - HSPCB",10-01-2026 08:00:00,29.695300,77.002700,NO2,6,7,6
India,Haryana,Karnal,"Sector-12, Karnal - HSPCB",10-01-2026 08:00:00,29.695300,77.002700,SO2,6,7,6
India,Haryana,Kurukshetra,"Sector-7, Kurukshetra - HSPCB",10-01-2026 08:00:00,29.966942,76.875879,CO,25,56,42
India,Haryana,Kurukshetra,"Sector-7, Kurukshetra - HSPCB",10-01-2026 08:00:00,29.966942,76.875879,OZONE,1,37,2
India,Haryana,Mandikhera,"General Hospital, Mandikhera(Nuh) - HSPCB",10-01-2026 08:00:00,27.9002,76.9938,NO2,19,24,22
India,Karnataka,Bengaluru,"Silk Board, Bengaluru - KSPCB",10-01-2026 08:00:00,12.917348,77.622813,NO2,44,104,73
India,Karnataka,Bengaluru,"Silk Board, Bengaluru - KSPCB",10-01-2026 08:00:00,12.917348,77.622813,SO2,3,14,7
India,Karnataka,Chamarajanagar,"Urban, Chamarajanagar - KSPCB",10-01-2026 08:00:00,11.55358,76.55521,SO2,NA,NA,NA
India,Karnataka,Chikkamagaluru,"Kalyana Nagara, Chikkamagaluru - KSPCB",10-01-2026 08:00:00,13.328028,75.797056,PM2.5,13,49,28
India,Karnataka,Chikkamagaluru,"Kalyana Nagara, Chikkamagaluru - KSPCB",10-01-2026 08:00:00,13.328028,75.797056,PM10,27,56,37
India,Karnataka,Bengaluru,"City Railway Station, Bengaluru - KSPCB",10-01-2026 08:00:00,12.9756843,77.5660749,PM10,90,92,91
India,Karnataka,Bengaluru,"City Railway Station, Bengaluru - KSPCB",10-01-2026 08:00:00,12.9756843,77.5660749,SO2,21,22,22
India,Karnataka,Bengaluru,"Hebbal, Bengaluru - KSPCB",10-01-2026 08:00:00,13.029152,77.585901,PM2.5,49,99,75
India,Karnataka,Bengaluru,"Hombegowda Nagar, Bengaluru - KSPCB",10-01-2026 08:00:00,12.938539,77.590100,OZONE,30,59,54
India,Karnataka,Bengaluru,"Jigani, Bengaluru - KSPCB",10-01-2026 08:00:00,12.7816279,77.6299145,NO2,24,25,24
India,Karnataka,Bengaluru,"RVCE-Mailasandra, Bengaluru - KSPCB",10-01-2026 08:00:00,12.921418,77.502466,PM10,67,130,98
India,Haryana,Sirsa,"F-Block, Sirsa - HSPCB",10-01-2026 08:00:00,29.536400,75.015800,NO2,NA,NA,NA
India,Madhya Pradesh,Jabalpur,"Govindh Bhavan Colony, Jabalpur - JMC",10-01-2026 08:00:00,23.163174,79.973061,CO,36,54,42
India,Madhya Pradesh,Jabalpur,"Gupteshwar, Jabalpur - JMC",10-01-2026 08:00:00,23.142888,79.916147,NO2,18,112,42
India,Madhya Pradesh,Jabalpur,"Gupteshwar, Jabalpur - JMC",10-01-2026 08:00:00,23.142888,79.916147,NH3,2,2,2
India,Madhya Pradesh,Jabalpur,"Gupteshwar, Jabalpur - JMC",10-01-2026 08:00:00,23.142888,79.916147,CO,32,120,58
India,Madhya Pradesh,Jabalpur,"Marhatal, Jabalpur - MPPCB",10-01-2026 08:00:00,23.168606,79.932247,NO2,14,62,32
India,Madhya Pradesh,Jabalpur,"Marhatal, Jabalpur - MPPCB",10-01-2026 08:00:00,23.168606,79.932247,SO2,7,17,9
India,Madhya Pradesh,Jabalpur,"Marhatal, Jabalpur - MPPCB",10-01-2026 08:00:00,23.168606,79.932247,CO,18,126,56
India,Madhya Pradesh,Jabalpur,"Marhatal, Jabalpur - MPPCB",10-01-2026 08:00:00,23.168606,79.932247,OZONE,1,301,33
India,Madhya Pradesh,Jabalpur,"Suhagi, Jabalpur - JMC",10-01-2026 08:00:00,23.218135,79.957770,PM2.5,85,392,250
India,Madhya Pradesh,Jabalpur,"Suhagi, Jabalpur - JMC",10-01-2026 08:00:00,23.218135,79.957770,PM10,90,318,173
India,Madhya Pradesh,Jabalpur,"Suhagi, Jabalpur - JMC",10-01-2026 08:00:00,23.218135,79.957770,NO2,14,109,42
India,Madhya Pradesh,Jabalpur,"Suhagi, Jabalpur - JMC",10-01-2026 08:00:00,23.218135,79.957770,SO2,6,21,10
India,Madhya Pradesh,Katni,"Gole Bazar, Katni - MPPCB",10-01-2026 08:00:00,23.50016,80.23284,NO2,22,57,40
India,Madhya Pradesh,Katni,"Gole Bazar, Katni - MPPCB",10-01-2026 08:00:00,23.50016,80.23284,NH3,4,8,6
India,Kerala,Thrissur,"Corporation Ground, Thrissur - Kerala PCB",10-01-2026 08:00:00,10.532400,76.215900,PM10,62,77,69
India,Madhya Pradesh,Bhopal,"Idgah Hills, Bhopal - MPPCB",10-01-2026 08:00:00,23.264759,77.381568,PM2.5,38,267,116
India,Madhya Pradesh,Bhopal,"Idgah Hills, Bhopal - MPPCB",10-01-2026 08:00:00,23.264759,77.381568,SO2,10,22,14
India,Madhya Pradesh,Bhopal,"Paryavaran Parisar, Bhopal - MPPCB",10-01-2026 08:00:00,23.210494,77.425409,SO2,4,14,8
India,Madhya Pradesh,Bhopal,"T T Nagar, Bhopal - MPPCB",10-01-2026 08:00:00,23.233584,77.400574,SO2,15,35,23
India,Madhya Pradesh,Damoh,"Shrivastav Colony, Damoh - MPPCB",10-01-2026 08:00:00,23.81748678,79.446246,PM10,NA,NA,NA
India,Madhya Pradesh,Indore,"Chhoti Gwaltoli, Indore - MPPCB",10-01-2026 08:00:00,22.4310,75.5213,PM10,56,360,154
India,Madhya Pradesh,Indore,"Chhoti Gwaltoli, Indore - MPPCB",10-01-2026 08:00:00,22.4310,75.5213,CO,39,138,105
India,Madhya Pradesh,Indore,"Regional Park, Indore - IMC",10-01-2026 08:00:00,22.6780,75.8559,PM2.5,34,249,98
India,Madhya Pradesh,Indore,"Regional Park, Indore - IMC",10-01-2026 08:00:00,22.6780,75.8559,PM10,NA,NA,NA
India,Madhya Pradesh,Indore,"Residency Area, Indore - IMC",10-01-2026 08:00:00,22.7084,75.8815,PM10,33,295,104
India,Madhya Pradesh,Indore,"Residency Area, Indore - IMC",10-01-2026 08:00:00,22.7084,75.8815,OZONE,14,36,20
India,Madhya Pradesh,Jabalpur,"Govindh Bhavan Colony, Jabalpur - JMC",10-01-2026 08:00:00,23.163174,79.973061,NO2,15,27,18
India,Karnataka,Koppal,"Diwator Nagar, Koppal - KSPCB",10-01-2026 08:00:00,15.347630,76.181767,NH3,NA,NA,NA
India,Karnataka,Madikeri,"Stuart Hill, Madikeri - KSPCB",10-01-2026 08:00:00,12.415911,75.735050,PM2.5,21,52,41
India,Karnataka,Mysuru,"Hebbal 1st Stage, Mysuru - KSPCB",10-01-2026 08:00:00,12.21041,76.37376,SO2,1,14,5
India,Karnataka,Ramanagara,"Vijay Nagar, Ramanagara - KSPCB",10-01-2026 08:00:00,12.733409,77.298051,NH3,NA,NA,NA
India,Karnataka,Shivamogga,"Vinoba Nagara, Shivamogga - KSPCB",10-01-2026 08:00:00,13.940000,75.555917,PM2.5,33,48,38
India,Karnataka,Shivamogga,"Vinoba Nagara, Shivamogga - KSPCB",10-01-2026 08:00:00,13.940000,75.555917,NH3,3,4,3
India,Madhya Pradesh,Damoh,"Shrivastav Colony, Damoh - MPPCB",10-01-2026 08:00:00,23.81748678,79.446246,CO,16,41,34
India,Madhya Pradesh,Dewas,"Bhopal Chauraha, Dewas - MPPCB",10-01-2026 08:00:00,22.9682591,76.064118,PM2.5,52,272,130
India,Madhya Pradesh,Gwalior,"City Center, Gwalior - MPPCB",10-01-2026 08:00:00,26.203442,78.193251,PM2.5,92,318,191
India,Madhya Pradesh,Gwalior,"City Center, Gwalior - MPPCB",10-01-2026 08:00:00,26.203442,78.193251,SO2,4,29,25
India,Madhya Pradesh,Gwalior,"City Center, Gwalior - MPPCB",10-01-2026 08:00:00,26.203442,78.193251,OZONE,24,44,37
India,Madhya Pradesh,Gwalior,"Deen Dayal Nagar, Gwalior - MPPCB",10-01-2026 08:00:00,26.259242,78.216432,PM2.5,76,391,203
India,Karnataka,Tumakuru,"Thimmalapura, Tumakuru - KSPCB",10-01-2026 08:00:00,13.377516,77.099072,NO2,31,32,32
India,Karnataka,Tumakuru,"Thimmalapura, Tumakuru - KSPCB",10-01-2026 08:00:00,13.377516,77.099072,SO2,26,27,26
India,Karnataka,Vijayapura,"Ibrahimpur, Vijayapura - KSPCB",10-01-2026 08:00:00,16.802639,75.722694,PM2.5,26,31,30
India,Karnataka,Vijayapura,"Ibrahimpur, Vijayapura - KSPCB",10-01-2026 08:00:00,16.802639,75.722694,SO2,NA,NA,NA
India,Kerala,Eloor,"Udyogamandal, Eloor - Kerala PCB",10-01-2026 08:00:00,10.073232,76.302765,PM2.5,55,96,73
India,Kerala,Eloor,"Udyogamandal, Eloor - Kerala PCB",10-01-2026 08:00:00,10.073232,76.302765,PM10,48,73,59
India,Kerala,Eloor,"Udyogamandal, Eloor - Kerala PCB",10-01-2026 08:00:00,10.073232,76.302765,SO2,1,1,1
India,Madhya Pradesh,Satna,"Bandhavgar Colony, Satna - Birla Cement",10-01-2026 08:00:00,24.58434363,80.8549414,PM2.5,49,52,50
India,Madhya Pradesh,Satna,"Bandhavgar Colony, Satna - Birla Cement",10-01-2026 08:00:00,24.58434363,80.8549414,NO2,12,13,12
India,Madhya Pradesh,Satna,"Bandhavgar Colony, Satna - Birla Cement",10-01-2026 08:00:00,24.58434363,80.8549414,CO,20,68,47
India,Madhya Pradesh,Ujjain,"Mahashweta Nagar, Ujjain - MPPCB",10-01-2026 08:00:00,23.1633321,75.800225,PM2.5,67,449,244
India,Madhya Pradesh,Ujjain,"Mahashweta Nagar, Ujjain - MPPCB",10-01-2026 08:00:00,23.1633321,75.800225,PM10,87,450,206
India,Kerala,Kollam,"Polayathode, Kollam - Kerala PCB",10-01-2026 08:00:00,8.8787,76.6073,PM2.5,77,274,161
India,Kerala,Kollam,"Polayathode, Kollam - Kerala PCB",10-01-2026 08:00:00,8.8787,76.6073,NH3,1,1,1
India,Kerala,Thiruvananthapuram,"Kariavattom, Thiruvananthapuram - Kerala PCB",10-01-2026 08:00:00,8.563700,76.886500,SO2,4,4,4
India,Kerala,Thiruvananthapuram,"Kariavattom, Thiruvananthapuram - Kerala PCB",10-01-2026 08:00:00,8.563700,76.886500,OZONE,36,37,36
India,Madhya Pradesh,Pithampur,"Sector-2 Industrial Area, Pithampur - MPPCB",10-01-2026 08:00:00,22.624758,75.675238,PM2.5,46,258,128
India,Madhya Pradesh,Ratlam,"Shasthri Nagar, Ratlam - IPCA Lab",10-01-2026 08:00:00,23.331731,75.045981,PM2.5,37,217,92
India,Madhya Pradesh,Ratlam,"Shasthri Nagar, Ratlam - IPCA Lab",10-01-2026 08:00:00,23.331731,75.045981,SO2,31,33,32
India,Maharashtra,Kalyan,"Khadakpada, Kalyan - MPCB",10-01-2026 08:00:00,19.25292,73.142019,CO,83,83,83
India,Maharashtra,Kalyan,"Pimpleshwar Mandir, Kalyan - MPCB",10-01-2026 08:00:00,19.192056,72.9585188,OZONE,2,40,5
India,Maharashtra,Kolhapur,"Shivaji University, Kolhapur - MPCB",10-01-2026 08:00:00,16.6870449,74.2505872,NO2,23,98,54
India,Maharashtra,Kolhapur,"Shivaji University, Kolhapur - MPCB",10-01-2026 08:00:00,16.6870449,74.2505872,NH3,3,4,4
India,Maharashtra,Kolhapur,"Shivaji University, Kolhapur - MPCB",10-01-2026 08:00:00,16.6870449,74.2505872,CO,12,68,46
India,Maharashtra,Kolhapur,"Sinchan Bhavan, Kolhapur - MPCB",10-01-2026 08:00:00,16.7143745,74.2426398,SO2,2,14,6
India,Maharashtra,Latur,"Sawe Wadi, Latur - MPCB",10-01-2026 08:00:00,18.39963,76.57452,PM10,57,108,74
India,Maharashtra,Mahad,"Kamble Tarf Birwadi, Mahad - MPCB",10-01-2026 08:00:00,18.1023399,73.4783687,PM10,59,227,127
India,Maharashtra,Mahad,"Kamble Tarf Birwadi, Mahad - MPCB",10-01-2026 08:00:00,18.1023399,73.4783687,SO2,21,53,44
India,Maharashtra,Malegaon,"Mahesh Nagar, Malegaon - MPCB",10-01-2026 08:00:00,20.555712,74.529236,NH3,1,4,2
India,Maharashtra,Malegaon,"Mahesh Nagar, Malegaon - MPCB",10-01-2026 08:00:00,20.555712,74.529236,OZONE,1,71,12
India,Maharashtra,Mira-Bhayandar,"Bhayandar West, Mira-Bhayandar - MPCB",10-01-2026 08:00:00,19.296481,72.840923,NO2,NA,NA,NA
India,Maharashtra,Aurangabad,"MIDC Chilkalthana, Aurangabad - MPCB",10-01-2026 08:00:00,19.875620,75.387310,NH3,1,3,2
India,Maharashtra,Aurangabad,"MIDC Chilkalthana, Aurangabad - MPCB",10-01-2026 08:00:00,19.875620,75.387310,SO2,1,2,1
India,Maharashtra,Aurangabad,"MIDC Chilkalthana, Aurangabad - MPCB",10-01-2026 08:00:00,19.875620,75.387310,CO,6,14,10
India,Maharashtra,Aurangabad,"Rachnakar Colony, Aurangabad - MPCB",10-01-2026 08:00:00,19.863756,75.321188,NO2,19,25,23
India,Maharashtra,Badlapur,"Katrap, Badlapur - MPCB",10-01-2026 08:00:00,19.16485,73.23409,CO,11,90,41
India,Maharashtra,Mumbai,"Bandra Kurla Complex, Mumbai - IITM",10-01-2026 08:00:00,19.053536,72.84643,NH3,2,26,10
India,Maharashtra,Mumbai,"Bandra Kurla Complex, Mumbai - IITM",10-01-2026 08:00:00,19.053536,72.84643,CO,26,81,43
India,Maharashtra,Mumbai,"Bandra Kurla Complex, Mumbai - MPCB",10-01-2026 08:00:00,19.065931,72.862131,PM2.5,66,70,68
India,Maharashtra,Mumbai,"Bandra Kurla Complex, Mumbai - MPCB",10-01-2026 08:00:00,19.065931,72.862131,SO2,6,13,9
India,Maharashtra,Mumbai,"Borivali East, Mumbai - MPCB",10-01-2026 08:00:00,19.2243333,72.8658113,PM10,42,96,72
India,Maharashtra,Dhule,"Deopur, Dhule - MPCB",10-01-2026 08:00:00,20.918946,74.776388,PM2.5,16,99,73
India,Maharashtra,Dhule,"Deopur, Dhule - MPCB",10-01-2026 08:00:00,20.918946,74.776388,NH3,1,2,1
India,Maharashtra,Jalgaon,"Prabhat Colony, Jalgaon - MPCB",10-01-2026 08:00:00,21.001264,75.565602,NH3,2,3,2
India,Maharashtra,Jalna,"Old MIDC, Jalna - MPCB",10-01-2026 08:00:00,19.854616,75.905894,NO2,8,19,12
India,Maharashtra,Jalna,"Old MIDC, Jalna - MPCB",10-01-2026 08:00:00,19.854616,75.905894,OZONE,8,104,12
India,Maharashtra,Ahmednagar,"Tarakpur, Ahmednagar - MPCB",10-01-2026 08:00:00,19.10122,74.73339,SO2,9,20,12
India,Maharashtra,Akola,"Ramdaspeth, Akola - MPCB",10-01-2026 08:00:00,20.719516,77.000253,PM2.5,39,195,82
India,Maharashtra,Amravati,"Shivneri Colony, Amravati - MPCB",10-01-2026 08:00:00,20.9402359,77.7895248,NH3,3,3,3
India,Maharashtra,Amravati,"Shivneri Colony, Amravati - MPCB",10-01-2026 08:00:00,20.9402359,77.7895248,OZONE,7,82,26
India,Maharashtra,Mumbai,"Kandivali East, Mumbai - MPCB",10-01-2026 08:00:00,19.205800,72.868200,NO2,30,30,30
India,Maharashtra,Mumbai,"Kandivali East, Mumbai - MPCB",10-01-2026 08:00:00,19.205800,72.868200,CO,24,24,24
India,Maharashtra,Mumbai,"Kherwadi_Bandra East, Mumbai - MPCB",10-01-2026 08:00:00,19.0632143,72.8456324,NO2,NA,NA,NA
India,Maharashtra,Mumbai,"Kherwadi_Bandra East, Mumbai - MPCB",10-01-2026 08:00:00,19.0632143,72.8456324,NH3,7,17,13
India,Maharashtra,Bhiwandi,"Gokul Nagar, Bhiwandi - MPCB",10-01-2026 08:00:00,19.309073,73.057223,PM2.5,30,195,117
India,Maharashtra,Bhiwandi,"Gokul Nagar, Bhiwandi - MPCB",10-01-2026 08:00:00,19.309073,73.057223,CO,18,62,40
India,Maharashtra,Boisar,"Khaira, Boisar - MPCB",10-01-2026 08:00:00,19.786089,72.757971,SO2,4,29,10
India,Maharashtra,Mumbai,"Bandra Kurla Complex, Mumbai - IITM",10-01-2026 08:00:00,19.053536,72.84643,PM10,98,182,136
India,Maharashtra,Nagpur,"Ram Nagar, Nagpur - MPCB",10-01-2026 08:00:00,21.143383,79.048912,NO2,17,69,34
India,Maharashtra,Nanded,"Sneh Nagar, Nanded - MPCB",10-01-2026 08:00:00,19.173852,77.296291,PM2.5,49,113,72
India,Maharashtra,Nanded,"Sneh Nagar, Nanded - MPCB",10-01-2026 08:00:00,19.173852,77.296291,NO2,NA,NA,NA
India,Maharashtra,Nanded,"Sneh Nagar, Nanded - MPCB",10-01-2026 08:00:00,19.173852,77.296291,NH3,3,5,4
India,Maharashtra,Nanded,"Sneh Nagar, Nanded - MPCB",10-01-2026 08:00:00,19.173852,77.296291,SO2,NA,NA,NA
India,Maharashtra,Nashik,"Gangapur Road, Nashik - MPCB",10-01-2026 08:00:00,20.0073285,73.7762427,PM10,47,193,115
India,Maharashtra,Nashik,"Gangapur Road, Nashik - MPCB",10-01-2026 08:00:00,20.0073285,73.7762427,NO2,5,5,5
India,Maharashtra,Nashik,"Gangapur Road, Nashik - MPCB",10-01-2026 08:00:00,20.0073285,73.7762427,SO2,NA,NA,NA
India,Maharashtra,Nashik,"Gangapur Road, Nashik - MPCB",10-01-2026 08:00:00,20.0073285,73.7762427,CO,22,34,26
India,Maharashtra,Nashik,"Gangapur Road, Nashik - MPCB",10-01-2026 08:00:00,20.0073285,73.7762427,OZONE,10,54,37
India,Maharashtra,Nashik,"Hirawadi, Nashik - MPCB",10-01-2026 08:00:00,20.021503,73.813844,OZONE,4,87,28
India,Maharashtra,Mumbai,"Kherwadi_Bandra East, Mumbai - MPCB",10-01-2026 08:00:00,19.0632143,72.8456324,OZONE,NA,NA,NA
India,Maharashtra,Mumbai,"Khindipada-Bhandup West, Mumbai - IITM",10-01-2026 08:00:00,19.1653323,72.922099,NH3,7,11,9
India,Maharashtra,Mumbai,"Khindipada-Bhandup West, Mumbai - IITM",10-01-2026 08:00:00,19.1653323,72.922099,CO,4,26,18
India,Maharashtra,Mumbai,"Khindipada-Bhandup West, Mumbai - IITM",10-01-2026 08:00:00,19.1653323,72.922099,OZONE,40,77,50
India,Maharashtra,Mumbai,"Kurla, Mumbai - MPCB",10-01-2026 08:00:00,19.0863,72.8888,PM10,96,141,118
India,Maharashtra,Mumbai,"Kurla, Mumbai - MPCB",10-01-2026 08:00:00,19.0863,72.8888,SO2,36,37,37
India,Maharashtra,Mumbai,"Kurla, Mumbai - MPCB",10-01-2026 08:00:00,19.0863,72.8888,CO,11,25,20
India,Maharashtra,Mumbai,"Malad West, Mumbai - IITM",10-01-2026 08:00:00,19.19709,72.82204,PM10,107,153,125
India,Maharashtra,Mumbai,"Mazgaon, Mumbai - IITM",10-01-2026 08:00:00,18.96702,72.84214,PM10,60,131,101
India,Maharashtra,Navi Mumbai,"Sanpada, Navi Mumbai - MPCB",10-01-2026 08:00:00,19.0575752,73.0151367,PM2.5,23,75,53
India,Maharashtra,Navi Mumbai,"Sanpada, Navi Mumbai - MPCB",10-01-2026 08:00:00,19.0575752,73.0151367,NH3,11,11,11
India,Maharashtra,Navi Mumbai,"Sector-2E Kalamboli, Navi Mumbai - MPCB",10-01-2026 08:00:00,19.02579,73.10297,PM10,31,165,93
India,Maharashtra,Navi Mumbai,"Sector-2E Kalamboli, Navi Mumbai - MPCB",10-01-2026 08:00:00,19.02579,73.10297,NH3,3,21,11
India,Maharashtra,Navi Mumbai,"Sector-2E Kalamboli, Navi Mumbai - MPCB",10-01-2026 08:00:00,19.02579,73.10297,CO,2,107,29
India,Maharashtra,Navi Mumbai,"Tondare-Taloja, Navi Mumbai - MPCB",10-01-2026 08:00:00,19.0630,73.1209,NO2,15,48,32
India,Maharashtra,Navi Mumbai,"Tondare-Taloja, Navi Mumbai - MPCB",10-01-2026 08:00:00,19.0630,73.1209,CO,7,102,62
India,Maharashtra,Mumbai,"Mazgaon, Mumbai - IITM",10-01-2026 08:00:00,18.96702,72.84214,SO2,9,28,17
India,Maharashtra,Mumbai,"Mindspace-Malad West, Mumbai - MPCB",10-01-2026 08:00:00,19.1878657,72.8304069,NH3,2,22,5
India,Maharashtra,Mumbai,"Mulund West, Mumbai - MPCB",10-01-2026 08:00:00,19.1750,72.9419,PM2.5,41,267,111
India,Maharashtra,Mumbai,"Navy Nagar-Colaba, Mumbai - IITM",10-01-2026 08:00:00,18.897756,72.813320,SO2,15,60,38
India,Maharashtra,Mumbai,"Sewri, Mumbai - BMC",10-01-2026 08:00:00,19.000084,72.856730,CO,24,69,33
India,Maharashtra,Mumbai,"Shivaji Nagar, Mumbai - BMC",10-01-2026 08:00:00,19.060498,72.923356,OZONE,9,78,22
India,Maharashtra,Mumbai,"Siddharth Nagar-Worli, Mumbai - IITM",10-01-2026 08:00:00,19.000083,72.813993,CO,22,79,48
India,Maharashtra,Mumbai,"Sion, Mumbai - MPCB",10-01-2026 08:00:00,19.047000,72.874600,NO2,90,118,103
India,Maharashtra,Nashik,"Pandav Nagari, Nashik - MPCB",10-01-2026 08:00:00,19.9591346,73.7788008,OZONE,5,58,21
India,Maharashtra,Navi Mumbai,"Mahape, Navi Mumbai - MPCB",10-01-2026 08:00:00,19.1135051,73.008978,PM2.5,47,106,74
India,Maharashtra,Navi Mumbai,"Mahape, Navi Mumbai - MPCB",10-01-2026 08:00:00,19.1135051,73.008978,CO,18,20,19
India,Maharashtra,Nagpur,"Opp GPO Civil Lines, Nagpur - MPCB",10-01-2026 08:00:00,21.152875,79.0517531,PM2.5,84,318,206
India,Maharashtra,Nashik,"MIDC Ambad, Nashik - MPCB",10-01-2026 08:00:00,19.950220,73.731480,PM10,63,150,104
India,Maharashtra,Mumbai,"Powai, Mumbai - MPCB",10-01-2026 08:00:00,19.137500,72.915056,PM2.5,11,37,29
India,Odisha,Baripada,"Meher Colony, Baripada - OSPCB",10-01-2026 08:00:00,21.941841,86.728318,PM2.5,21,141,65
India,Odisha,Baripada,"Meher Colony, Baripada - OSPCB",10-01-2026 08:00:00,21.941841,86.728318,NO2,6,51,30
India,Odisha,Baripada,"Meher Colony, Baripada - OSPCB",10-01-2026 08:00:00,21.941841,86.728318,CO,80,121,82
India,Odisha,Bhubaneswar,"Lingraj Mandir, Bhubaneswar - OSPCB",10-01-2026 08:00:00,20.240790,85.836784,PM10,85,346,150
India,Odisha,Bhubaneswar,"Lingraj Mandir, Bhubaneswar - OSPCB",10-01-2026 08:00:00,20.240790,85.836784,SO2,6,101,23
India,Odisha,Bhubaneswar,"Patia, Bhubaneswar - OSPCB",10-01-2026 08:00:00,20.34652,85.81630,OZONE,4,126,25
India,Odisha,Brajrajnagar,"GM Office, Brajrajnagar - OSPCB",10-01-2026 08:00:00,21.8004996,83.8396977,NO2,14,46,15
India,Odisha,Brajrajnagar,"GM Office, Brajrajnagar - OSPCB",10-01-2026 08:00:00,21.8004996,83.8396977,NH3,10,11,10
India,Odisha,Brajrajnagar,"GM Office, Brajrajnagar - OSPCB",10-01-2026 08:00:00,21.8004996,83.8396977,SO2,19,21,20
India,Maharashtra,Pune,"Bhosari, Pune - IITM",10-01-2026 08:00:00,18.640051,73.848956,PM2.5,NA,NA,NA
India,Maharashtra,Pune,"Bhosari, Pune - IITM",10-01-2026 08:00:00,18.640051,73.848956,NO2,NA,NA,NA
India,Maharashtra,Pune,"Bhumkar Nagar, Pune - IITM",10-01-2026 08:00:00,18.605770,73.749976,PM2.5,114,319,254
India,Maharashtra,Pune,"Bhumkar Nagar, Pune - IITM",10-01-2026 08:00:00,18.605770,73.749976,PM10,NA,NA,NA
India,Maharashtra,Pune,"Bhumkar Nagar, Pune - IITM",10-01-2026 08:00:00,18.605770,73.749976,OZONE,NA,NA,NA
India,Maharashtra,Pune,"Dhankawadi, Pune - IITM",10-01-2026 08:00:00,18.459883,73.852193,PM10,NA,NA,NA
India,Maharashtra,Pune,"Dhankawadi, Pune - IITM",10-01-2026 08:00:00,18.459883,73.852193,NO2,NA,NA,NA
India,Maharashtra,Pune,"Hadapsar, Pune - IITM",10-01-2026 08:00:00,18.501793,73.927532,NO2,20,84,46
India,Maharashtra,Pune,"Katraj Dairy, Pune - MPCB",10-01-2026 08:00:00,18.454450,73.854155,PM2.5,43,88,65
India,Maharashtra,Pune,"Katraj Dairy, Pune - MPCB",10-01-2026 08:00:00,18.454450,73.854155,CO,33,93,56
India,Maharashtra,Pune,"Katraj Dairy, Pune - MPCB",10-01-2026 08:00:00,18.454450,73.854155,OZONE,3,34,10
India,Maharashtra,Pune,"Mhada Colony, Pune - IITM",10-01-2026 08:00:00,18.573040,73.927715,NO2,19,147,74
India,Maharashtra,Pune,"Panchawati_Pashan, Pune - IITM",10-01-2026 08:00:00,18.536457,73.805454,PM10,34,139,96
India,Maharashtra,Pune,"Panchawati_Pashan, Pune - IITM",10-01-2026 08:00:00,18.536457,73.805454,NO2,15,66,31
India,Maharashtra,Pune,"Panchawati_Pashan, Pune - IITM",10-01-2026 08:00:00,18.536457,73.805454,CO,NA,NA,NA
India,Maharashtra,Pune,"Revenue Colony-Shivajinagar, Pune - IITM",10-01-2026 08:00:00,18.530085,73.849598,PM10,115,223,162
India,Maharashtra,Pune,"Savitribai Phule Pune University, Pune - MPCB",10-01-2026 08:00:00,18.547056,73.826908,NO2,1,42,19
India,Maharashtra,Sangli,"Vijay Nagar, Sangli - MPCB",10-01-2026 08:00:00, 16.5038,74.3623,CO,17,58,29
India,Maharashtra,Solapur,"Dnyaneshwar Nagar, Solapur - MPCB",10-01-2026 08:00:00,17.6336264,75.9132495,PM10,54,116,80
India,Maharashtra,Solapur,"Dnyaneshwar Nagar, Solapur - MPCB",10-01-2026 08:00:00,17.6336264,75.9132495,NH3,5,25,9
India,Maharashtra,Solapur,"Dnyaneshwar Nagar, Solapur - MPCB",10-01-2026 08:00:00,17.6336264,75.9132495,OZONE,33,72,53
India,Maharashtra,Solapur,"Ratandeep Housing Society, Solapur - MPCB",10-01-2026 08:00:00,17.65439,75.90649,CO,16,52,31
India,Maharashtra,Thane,"Kasarvadavali, Thane - MPCB",10-01-2026 08:00:00,19.26777,72.97182,NH3,2,5,3
India,Maharashtra,Thane,"Upvan Fort, Thane - MPCB",10-01-2026 08:00:00,19.222279,72.957979,PM2.5,50,135,95
India,Maharashtra,Thane,"Upvan Fort, Thane - MPCB",10-01-2026 08:00:00,19.222279,72.957979,NO2,15,99,43
India,Maharashtra,Ulhasnagar,"Sidhi Vinayak Nagar, Ulhasnagar - MPCB",10-01-2026 08:00:00,19.235581,73.159121,NO2,10,32,21
India,Meghalaya,Shillong,"Lumpyngngad, Shillong - Meghalaya PCB",10-01-2026 08:00:00,25.5586,91.8985,SO2,7,9,8
India,Mizoram,Aizawl,"Sikulpuikawn, Aizawl - Mizoram PCB",10-01-2026 08:00:00,23.7176342,92.7192841,SO2,14,16,15
India,Nagaland,Kohima,"PWD Junction, Kohima - NPCB",10-01-2026 08:00:00,25.6635413,94.0989878,PM2.5,14,79,31
India,Nagaland,Kohima,"PWD Junction, Kohima - NPCB",10-01-2026 08:00:00,25.6635413,94.0989878,PM10,11,65,25
India,Odisha,Rairangpur,"Divisional Forest Office, Rairangpur - OSPCB",10-01-2026 08:00:00,22.265816,86.174829,OZONE,6,44,8
India,Odisha,Rourkela,"Raghunathpali, Rourkela - OSPCB",10-01-2026 08:00:00,22.220833,84.809444,NO2,9,58,25
India,Odisha,Suakati,"OMC Colony, Suakati - OSPCB",10-01-2026 08:00:00,21.606865,85.510538,NO2,13,13,13
India,Odisha,Talcher,"Talcher Coalfields,Talcher - OSPCB",10-01-2026 08:00:00,20.9360711,85.1707021,PM2.5,3,310,149
India,Nagaland,Kohima,"PWD Junction, Kohima - NPCB",10-01-2026 08:00:00,25.6635413,94.0989878,CO,4,22,5
India,Odisha,Angul,"Hakimapada, Angul - OSPCB",10-01-2026 08:00:00,20.832874,85.104082,NH3,7,10,8
India,Odisha,Barbil,"Forest Office, Barbil - OSPCB",10-01-2026 08:00:00,22.1166054,85.3945546,NO2,15,79,36
India,Maharashtra,Pimpri-Chinchwad,"Gavalinagar, Pimpri Chinchwad - MPCB",10-01-2026 08:00:00,18.63673,73.82487,CO,24,123,46
India,Maharashtra,Pimpri-Chinchwad,"Thergaon, Pimpri Chinchwad - MPCB",10-01-2026 08:00:00,18.616318,73.765797,PM10,71,203,129
India,Odisha,Cuttack,"CDA Area, Cuttack - OSPCB",10-01-2026 08:00:00,20.48891     ,85.84768     ,NH3,4,6,5
India,Odisha,Nayagarh,"Dabuna, Nayagarh - OSPCB",10-01-2026 08:00:00,21.847279,85.416905,OZONE,7,29,7
India,Odisha,Tensa,"Barsua Iron Ore Mines, Tensa - OSPCB",10-01-2026 08:00:00,21.869985,85.167016,PM10,13,131,56
India,Odisha,Tensa,"Barsua Iron Ore Mines, Tensa - OSPCB",10-01-2026 08:00:00,21.869985,85.167016,CO,21,40,25
India,Odisha,Tensa,"Barsua Iron Ore Mines, Tensa - OSPCB",10-01-2026 08:00:00,21.869985,85.167016,OZONE,10,44,35
India,Puducherry,Puducherry,"Jawahar Nagar, Puducherry - PPCC",10-01-2026 08:00:00,11.9309,79.8027,PM10,56,74,66
India,Punjab,Amritsar,"Golden Temple, Amritsar - PPCB",10-01-2026 08:00:00,31.620000,74.876512,NO2,7,65,22
India,Punjab,Bathinda,"Hardev Nagar, Bathinda - PPCB",10-01-2026 08:00:00,30.233011,74.907758,PM2.5,28,227,106
India,Punjab,Bathinda,"Hardev Nagar, Bathinda - PPCB",10-01-2026 08:00:00,30.233011,74.907758,NO2,23,27,24
India,Rajasthan,Bhiwadi,"RIICO Ind. Area III, Bhiwadi - RSPCB",10-01-2026 08:00:00,28.194909,76.862296,NH3,3,12,7
India,Rajasthan,Bhiwadi,"RIICO Ind. Area III, Bhiwadi - RSPCB",10-01-2026 08:00:00,28.194909,76.862296,OZONE,2,21,4
India,Rajasthan,Bhiwadi,"Vasundhara Nagar_UIT, Bhiwadi - RSPCB",10-01-2026 08:00:00,28.207266,76.829265,SO2,3,45,12
India,Rajasthan,Bikaner,"MM Ground, Bikaner - RSPCB",10-01-2026 08:00:00,28.018792,73.292658,PM10,110,239,156
India,Rajasthan,Bikaner,"MM Ground, Bikaner - RSPCB",10-01-2026 08:00:00,28.018792,73.292658,OZONE,14,85,23
India,Rajasthan,Bundi,"New Colony, Bundi - RSPCB",10-01-2026 08:00:00,25.435774,75.644272,PM10,109,153,131
India,Rajasthan,Bundi,"New Colony, Bundi - RSPCB",10-01-2026 08:00:00,25.435774,75.644272,CO,40,51,49
India,Rajasthan,Jaipur,"Adarsh Nagar, Jaipur - RSPCB",10-01-2026 08:00:00,26.902909,75.836858,NH3,9,24,14
India,Rajasthan,Jaipur,"Adarsh Nagar, Jaipur - RSPCB",10-01-2026 08:00:00,26.902909,75.836858,SO2,9,16,13
India,Rajasthan,Jaipur,"Mansarovar Sector-12, Jaipur - RSPCB",10-01-2026 08:00:00,26.843698,75.766894,NO2,16,61,31
India,Rajasthan,Jaipur,"Mansarovar Sector-12, Jaipur - RSPCB",10-01-2026 08:00:00,26.843698,75.766894,CO,5,114,21
India,Rajasthan,Jaipur,"Police Commissionerate, Jaipur - RSPCB",10-01-2026 08:00:00,26.9164092,75.7994901,PM10,78,161,116
India,Rajasthan,Jaipur,"Police Commissionerate, Jaipur - RSPCB",10-01-2026 08:00:00,26.9164092,75.7994901,SO2,13,27,19
India,Rajasthan,Chittorgarh,"Shastri Nagar, Chittorgarh - RSPCB",10-01-2026 08:00:00,24.892047,74.623527,SO2,6,139,65
India,Rajasthan,Churu,"Subash Chowk, Churu - RSPCB",10-01-2026 08:00:00,28.296139,74.961696,SO2,4,5,4
India,Rajasthan,Dausa,"Khatikan Mohalla, Dausa - RSPCB",10-01-2026 08:00:00,26.895552,76.334753,NO2,13,70,35
India,Rajasthan,Dausa,"Khatikan Mohalla, Dausa - RSPCB",10-01-2026 08:00:00,26.895552,76.334753,OZONE,2,80,9
India,Rajasthan,Dungarpur,"Bhoiwada, Dungarpur - RSPCB",10-01-2026 08:00:00,23.837789,73.714926,PM2.5,93,405,221
India,Punjab,Rupnagar,"Ratanpura, Rupnagar - Ambuja Cements",10-01-2026 08:00:00,31.0325454,76.5623046,PM10,24,48,33
India,Rajasthan,Ajmer,"Civil Lines,  Ajmer - RSPCB",10-01-2026 08:00:00,26.470859,74.646594,PM2.5,101,212,154
India,Rajasthan,Ajmer,"Civil Lines,  Ajmer - RSPCB",10-01-2026 08:00:00,26.470859,74.646594,PM10,113,190,144
India,Rajasthan,Ajmer,"Civil Lines,  Ajmer - RSPCB",10-01-2026 08:00:00,26.470859,74.646594,NO2,21,37,31
India,Rajasthan,Baran,"Bamboliya, Baran - RSPCB",10-01-2026 08:00:00,25.106006,76.469948,PM10,81,149,127
India,Rajasthan,Barmer,"Railway Colony, Barmer - RSPCB",10-01-2026 08:00:00,25.747299,71.393989,CO,18,36,29
India,Rajasthan,Bharatpur,"Krishna Nagar, Bharatpur - RSPCB",10-01-2026 08:00:00,27.215415,77.50873,PM2.5,82,302,163
India,Rajasthan,Bharatpur,"Krishna Nagar, Bharatpur - RSPCB",10-01-2026 08:00:00,27.215415,77.50873,NO2,21,68,34
India,Rajasthan,Bharatpur,"Krishna Nagar, Bharatpur - RSPCB",10-01-2026 08:00:00,27.215415,77.50873,NH3,NA,NA,NA
India,Rajasthan,Bhilwara,"Pratap Nagar, Bhilwara - RSPCB",10-01-2026 08:00:00,25.339605,74.618883,PM2.5,180,331,295
India,Punjab,Khanna,"Kalal Majra, Khanna - PPCB",10-01-2026 08:00:00,30.736056 ,76.209694,PM10,62,151,102
India,Punjab,Mandi Gobindgarh,"RIMT University, Mandi Gobindgarh - PPCB",10-01-2026 08:00:00,30.649961,76.331442,PM2.5,23,347,151
India,Punjab,Mandi Gobindgarh,"RIMT University, Mandi Gobindgarh - PPCB",10-01-2026 08:00:00,30.649961,76.331442,NO2,23,24,24
India,Punjab,Patiala,"Model Town, Patiala - PPCB",10-01-2026 08:00:00,30.349388,76.366642,SO2,3,26,11
India,Rajasthan,Jaipur,"RIICO Sitapura, Jaipur - RSPCB",10-01-2026 08:00:00,26.786682,75.827928,NO2,27,101,50
India,Rajasthan,Jaipur,"RIICO Sitapura, Jaipur - RSPCB",10-01-2026 08:00:00,26.786682,75.827928,SO2,1,8,4
India,Rajasthan,Jaipur,"Sector-2 Murlipura, Jaipur - RSPCB",10-01-2026 08:00:00,26.960669,75.771817,PM10,81,216,128
India,Rajasthan,Jaipur,"Sector-2 Murlipura, Jaipur - RSPCB",10-01-2026 08:00:00,26.960669,75.771817,OZONE,1,64,11
India,Rajasthan,Baran,"Bamboliya, Baran - RSPCB",10-01-2026 08:00:00,25.106006,76.469948,OZONE,15,87,20
India,Rajasthan,Barmer,"Railway Colony, Barmer - RSPCB",10-01-2026 08:00:00,25.747299,71.393989,PM2.5,43,283,119
India,Rajasthan,Jalore,"Mudtra Sili, Jalore - RSPCB",10-01-2026 08:00:00,25.344694,72.626208,OZONE,9,85,53
India,Rajasthan,Jhalawar,"Rajlaxmi Nagar, Jhalawar - RSPCB",10-01-2026 08:00:00,24.588397,76.172782,OZONE,6,98,20
India,Rajasthan,Jhunjhunu,"Indra Nagar, Jhunjhunu - RSPCB",10-01-2026 08:00:00,28.108988,75.386577,PM10,109,304,204
India,Rajasthan,Jhunjhunu,"Indra Nagar, Jhunjhunu - RSPCB",10-01-2026 08:00:00,28.108988,75.386577,OZONE,10,98,22
India,Rajasthan,Jodhpur,"Collectorate, Jodhpur - RSPCB",10-01-2026 08:00:00,26.268249,73.0193853,PM2.5,37,239,112
India,Rajasthan,Jodhpur,"Collectorate, Jodhpur - RSPCB",10-01-2026 08:00:00,26.268249,73.0193853,NO2,15,21,18
India,Rajasthan,Jodhpur,"Collectorate, Jodhpur - RSPCB",10-01-2026 08:00:00,26.268249,73.0193853,NH3,6,11,9
India,Rajasthan,Jodhpur,"Collectorate, Jodhpur - RSPCB",10-01-2026 08:00:00,26.268249,73.0193853,OZONE,17,76,37
India,Rajasthan,Jodhpur,"Digari Kalan, Jodhpur - RSPCB",10-01-2026 08:00:00,26.295810,73.082283,PM2.5,77,233,123
India,Rajasthan,Tonk,"Shastri Nagar, Tonk - RSPCB",10-01-2026 08:00:00,26.159933,75.780517,OZONE,4,72,10
India,Rajasthan,Udaipur,"Ashok Nagar, Udaipur - RSPCB",10-01-2026 08:00:00,24.5886166,73.6321397,NO2,11,41,25
India,Sikkim,Gangtok,"Zero Point GICI, Gangtok - SSPCB",10-01-2026 08:00:00,27.338530,88.614099,PM2.5,NA,NA,NA
India,TamilNadu,Chennai,"Arumbakkam, Chennai - TNPCB",10-01-2026 08:00:00,13.0664,80.2112 ,PM2.5,49,88,69
India,TamilNadu,Chennai,"Arumbakkam, Chennai - TNPCB",10-01-2026 08:00:00,13.0664,80.2112 ,NO2,8,21,14
India,TamilNadu,Chennai,"Gandhi Nagar_Ennore, Chennai - TNPCB",10-01-2026 08:00:00,13.218341,80.32027,CO,6,12,8
India,TamilNadu,Cuddalore,"Semmandalam, Cuddalore - TNPCB",10-01-2026 08:00:00,11.7637683,79.7499835,PM2.5,54,262,97
India,TamilNadu,Cuddalore,"Semmandalam, Cuddalore - TNPCB",10-01-2026 08:00:00,11.7637683,79.7499835,NO2,3,24,12
India,TamilNadu,Gummidipoondi,"Anthoni Pillai Nagar, Gummidipoondi - TNPCB",10-01-2026 08:00:00,13.4127,80.1081,PM10,86,250,131
India,TamilNadu,Karur,"Kamadenu Nagar, Karur - TNPCB",10-01-2026 08:00:00,10.967820,78.080882,NH3,3,3,3
India,TamilNadu,Madurai,"Uchapatti, Madurai - TNPCB",10-01-2026 08:00:00,9.865935,78.022669,SO2,40,42,41
India,TamilNadu,Madurai,"Uchapatti, Madurai - TNPCB",10-01-2026 08:00:00,9.865935,78.022669,OZONE,1,1,1
India,TamilNadu,Chennai,"Royapuram, Chennai - TNPCB",10-01-2026 08:00:00,13.1036,80.2909,NO2,1,4,1
India,TamilNadu,Coimbatore,"PSG College of Arts and Science, Coimbatore - TNPCB",10-01-2026 08:00:00,11.0328,77.0349,OZONE,4,6,5
India,TamilNadu,Coimbatore,"SIDCO Kurichi, Coimbatore - TNPCB",10-01-2026 08:00:00,10.942451,76.978996,SO2,20,22,21
India,TamilNadu,Cuddalore,"Kudikadu, Cuddalore - TNPCB",10-01-2026 08:00:00,11.6829898,79.7532099,PM2.5,46,69,52
India,TamilNadu,Cuddalore,"Kudikadu, Cuddalore - TNPCB",10-01-2026 08:00:00,11.6829898,79.7532099,NO2,19,20,19
India,TamilNadu,Cuddalore,"Kudikadu, Cuddalore - TNPCB",10-01-2026 08:00:00,11.6829898,79.7532099,SO2,19,20,20
India,Rajasthan,Sirohi,"Vedhaynath Colony, Sirohi - RSPCB",10-01-2026 08:00:00,24.885261,72.857549,PM10,71,180,122
India,Rajasthan,Sirohi,"Vedhaynath Colony, Sirohi - RSPCB",10-01-2026 08:00:00,24.885261,72.857549,CO,26,76,43
India,Rajasthan,Sri Ganganagar,"Old City, Sri Ganganagar - RSPCB",10-01-2026 08:00:00,29.931624,73.864511,NH3,1,4,3
India,Rajasthan,Sri Ganganagar,"Old City, Sri Ganganagar - RSPCB",10-01-2026 08:00:00,29.931624,73.864511,SO2,4,8,6
India,Rajasthan,Sri Ganganagar,"Old City, Sri Ganganagar - RSPCB",10-01-2026 08:00:00,29.931624,73.864511,CO,53,91,76
India,Rajasthan,Tonk,"Shastri Nagar, Tonk - RSPCB",10-01-2026 08:00:00,26.159933,75.780517,PM10,133,413,200
India,Rajasthan,Karauli,"Satyawati Vihar, Karauli - RSPCB",10-01-2026 08:00:00,26.506177,77.025989,NO2,29,101,49
India,Rajasthan,Kota,"Dhanmandi, Kota - RSPCB",10-01-2026 08:00:00,25.164090,75.858137,NH3,2,6,4
India,Rajasthan,Kota,"Nayapura, Kota - RSPCB",10-01-2026 08:00:00,25.196024,75.855668,PM10,115,325,168
India,Rajasthan,Kota,"Shrinath Puram, Kota - RSPCB",10-01-2026 08:00:00,25.14389,75.821256,SO2,6,104,20
India,Rajasthan,Pali,"Indira Colony Vistar, Pali - RSPCB",10-01-2026 08:00:00,25.771061, 73.340227,NH3,1,12,6
India,Rajasthan,Pali,"Indira Colony Vistar, Pali - RSPCB",10-01-2026 08:00:00,25.771061, 73.340227,SO2,9,12,10
India,Rajasthan,Pali,"Indira Colony Vistar, Pali - RSPCB",10-01-2026 08:00:00,25.771061, 73.340227,CO,12,68,43
India,Rajasthan,Rajsamand,"Dhoinda, Rajsamand - RSPCB",10-01-2026 08:00:00,25.036360,73.883502,NH3,15,20,17
India,TamilNadu,Chennai,"Kodungaiyur, Chennai - TNPCB",10-01-2026 08:00:00,13.1278,80.2642,SO2,4,13,8
India,TamilNadu,Chennai,"Manali Village, Chennai - TNPCB",10-01-2026 08:00:00,13.1662,80.2584,PM10,43,92,67
India,TamilNadu,Chennai,"Manali, Chennai - CPCB",10-01-2026 08:00:00,13.164544,80.26285,SO2,4,17,10
India,Rajasthan,Jodhpur,"Digari Kalan, Jodhpur - RSPCB",10-01-2026 08:00:00,26.295810,73.082283,SO2,2,11,5
India,Rajasthan,Jodhpur,"Digari Kalan, Jodhpur - RSPCB",10-01-2026 08:00:00,26.295810,73.082283,CO,23,74,28
India,TamilNadu,Perundurai,"SIPCOT Industrial Park, Perundurai - TNPCB",10-01-2026 08:00:00,11.258242,77.552761,NH3,2,2,2
India,TamilNadu,Perundurai,"SIPCOT Industrial Park, Perundurai - TNPCB",10-01-2026 08:00:00,11.258242,77.552761,OZONE,23,25,24
India,TamilNadu,Pudukottai,"SIPCOT Nathampannai, Pudukottai - TNPCB",10-01-2026 08:00:00,10.423417,78.784889,PM2.5,32,75,55
India,TamilNadu,Ramanathapuram,"Chalai Bazaar, Ramanathapuram - TNPCB",10-01-2026 08:00:00,9.36399,78.831977,PM10,42,76,60
India,TamilNadu,Ramanathapuram,"Chalai Bazaar, Ramanathapuram - TNPCB",10-01-2026 08:00:00,9.36399,78.831977,SO2,2,22,5
India,TamilNadu,Ramanathapuram,"Chalai Bazaar, Ramanathapuram - TNPCB",10-01-2026 08:00:00,9.36399,78.831977,OZONE,3,6,5
India,TamilNadu,Thanjavur,"Parisutham Nagar, Thanjavur - TNPCB",10-01-2026 08:00:00,10.7654824,79.1389968,SO2,16,17,17
India,TamilNadu,Thoothukudi,"Meelavittan, Thoothukudi - TNPCB",10-01-2026 08:00:00,8.816428 ,78.099039,NO2,13,19,17
India,TamilNadu,Thoothukudi,"Meelavittan, Thoothukudi - TNPCB",10-01-2026 08:00:00,8.816428 ,78.099039,CO,30,44,35
India,Telangana,Hyderabad,"Bollaram Industrial Area, Hyderabad - TSPCB",10-01-2026 08:00:00,17.540891,78.358528,PM10,63,123,93
India,Telangana,Hyderabad,"IDA Pashamylaram, Hyderabad - TSPCB",10-01-2026 08:00:00,17.5316895,78.218939,SO2,NA,NA,NA
India,Telangana,Hyderabad,"IITH Kandi, Hyderabad - TSPCB",10-01-2026 08:00:00,17.585705,78.126199,PM10,NA,NA,NA
India,Telangana,Hyderabad,"IITH Kandi, Hyderabad - TSPCB",10-01-2026 08:00:00,17.585705,78.126199,NH3,NA,NA,NA
India,Telangana,Hyderabad,"IITH Kandi, Hyderabad - TSPCB",10-01-2026 08:00:00,17.585705,78.126199,CO,NA,NA,NA
India,Telangana,Hyderabad,"IITH Kandi, Hyderabad - TSPCB",10-01-2026 08:00:00,17.585705,78.126199,OZONE,NA,NA,NA
India,Telangana,Hyderabad,"Kokapet, Hyderabad - TSPCB",10-01-2026 08:00:00,17.393559,78.339194,NO2,12,14,13
India,Telangana,Hyderabad,"Kokapet, Hyderabad - TSPCB",10-01-2026 08:00:00,17.393559,78.339194,NH3,1,2,2
India,Telangana,Hyderabad,"Kokapet, Hyderabad - TSPCB",10-01-2026 08:00:00,17.393559,78.339194,SO2,8,12,10
India,Telangana,Hyderabad,"Kompally Municipal Office, Hyderabad - TSPCB",10-01-2026 08:00:00,17.544899,78.486949,PM10,62,113,85
India,Telangana,Hyderabad,"Kompally Municipal Office, Hyderabad - TSPCB",10-01-2026 08:00:00,17.544899,78.486949,NH3,3,5,4
India,Telangana,Hyderabad,"Kompally Municipal Office, Hyderabad - TSPCB",10-01-2026 08:00:00,17.544899,78.486949,CO,12,18,17
India,Uttar_Pradesh,Baghpat,"Sardar Patel Inter College, Baghpat - UPPCB",10-01-2026 08:00:00,28.964949,77.278761,NH3,2,6,3
India,Uttar_Pradesh,Baghpat,"Sardar Patel Inter College, Baghpat - UPPCB",10-01-2026 08:00:00,28.964949,77.278761,OZONE,1,58,2
India,Uttar_Pradesh,Bareilly,"Civil Lines, Bareilly - UPPCB",10-01-2026 08:00:00,28.359581,79.414455,CO,56,106,85
India,Uttar_Pradesh,Bareilly,"Rajendra Nagar, Bareilly - UPPCB",10-01-2026 08:00:00,28.38910936,79.42963708,NO2,9,10,10
India,Uttar_Pradesh,Bareilly,"Rajendra Nagar, Bareilly - UPPCB",10-01-2026 08:00:00,28.38910936,79.42963708,SO2,37,39,38
India,Uttar_Pradesh,Bulandshahr,"Yamunapuram, Bulandshahr - UPPCB",10-01-2026 08:00:00,28.406963,77.849831,PM10,117,318,191
India,Uttar_Pradesh,Firozabad,"Nagla Bhau, Firozabad - UPPCB",10-01-2026 08:00:00,27.168897,78.376960,PM2.5,31,129,58
India,Uttar_Pradesh,Firozabad,"Vibhab Nagar, Firozabad - UPPCB",10-01-2026 08:00:00,27.1594,78.3953,SO2,16,24,19
India,Uttar_Pradesh,Ghaziabad,"Indirapuram, Ghaziabad - UPPCB",10-01-2026 08:00:00,28.646233,77.358075,PM2.5,298,411,336
India,Uttar_Pradesh,Ghaziabad,"Indirapuram, Ghaziabad - UPPCB",10-01-2026 08:00:00,28.646233,77.358075,PM10,248,484,348
India,Uttar_Pradesh,Ghaziabad,"Indirapuram, Ghaziabad - UPPCB",10-01-2026 08:00:00,28.646233,77.358075,NO2,3,81,31
India,Uttar_Pradesh,Ghaziabad,"Indirapuram, Ghaziabad - UPPCB",10-01-2026 08:00:00,28.646233,77.358075,CO,16,154,64
India,Uttar_Pradesh,Ghaziabad,"Loni, Ghaziabad - UPPCB",10-01-2026 08:00:00,28.757294,77.278792,NH3,3,9,6
India,Uttar_Pradesh,Ghaziabad,"Sanjay Nagar, Ghaziabad - UPPCB",10-01-2026 08:00:00,28.685382,77.453839,PM2.5,195,360,307
India,Telangana,Hyderabad,"Nacharam_TSIIC IALA, Hyderabad - TSPCB",10-01-2026 08:00:00,17.429398,78.569354,CO,14,30,27
India,Telangana,Hyderabad,"New Malakpet, Hyderabad - TSPCB",10-01-2026 08:00:00,17.37206,78.50864,NO2,12,16,14
India,Telangana,Hyderabad,"New Malakpet, Hyderabad - TSPCB",10-01-2026 08:00:00,17.37206,78.50864,SO2,12,16,14
India,Telangana,Hyderabad,"Ramachandrapuram, Hyderabad - TSPCB",10-01-2026 08:00:00,17.528544,78.286195,PM2.5,38,49,45
India,Telangana,Hyderabad,"Ramachandrapuram, Hyderabad - TSPCB",10-01-2026 08:00:00,17.528544,78.286195,NO2,13,16,15
India,Telangana,Hyderabad,"Somajiguda, Hyderabad - TSPCB",10-01-2026 08:00:00,17.417094,78.457437,NO2,12,13,13
India,Telangana,Hyderabad,"Somajiguda, Hyderabad - TSPCB",10-01-2026 08:00:00,17.417094,78.457437,CO,14,36,20
India,Telangana,Hyderabad,"Central University, Hyderabad - TSPCB",10-01-2026 08:00:00,17.460103,78.334361,NO2,22,59,33
India,Telangana,Hyderabad,"Central University, Hyderabad - TSPCB",10-01-2026 08:00:00,17.460103,78.334361,OZONE,9,21,15
India,Telangana,Hyderabad,"ECIL Kapra, Hyderabad - TSPCB",10-01-2026 08:00:00,17.470431,78.566959,NH3,3,6,5
India,Telangana,Hyderabad,"ICRISAT Patancheru, Hyderabad - TSPCB",10-01-2026 08:00:00,17.518400,78.278777,NO2,2,40,17
India,Telangana,Hyderabad,"ICRISAT Patancheru, Hyderabad - TSPCB",10-01-2026 08:00:00,17.518400,78.278777,NH3,1,9,4
India,Uttar_Pradesh,Agra,"Sector-3B Avas Vikas Colony, Agra - UPPCB",10-01-2026 08:00:00,27.19412,77.96237,PM2.5,41,356,136
India,Uttar_Pradesh,Agra,"Sector-3B Avas Vikas Colony, Agra - UPPCB",10-01-2026 08:00:00,27.19412,77.96237,PM10,108,419,179
India,Uttar_Pradesh,Agra,"Sector-3B Avas Vikas Colony, Agra - UPPCB",10-01-2026 08:00:00,27.19412,77.96237,CO,10,70,42
India,Uttar_Pradesh,Agra,"Shahjahan Garden, Agra - UPPCB",10-01-2026 08:00:00,27.169338,78.03582,NH3,6,6,6
India,Uttar_Pradesh,Agra,"Shahjahan Garden, Agra - UPPCB",10-01-2026 08:00:00,27.169338,78.03582,SO2,12,20,16
India,Telangana,Hyderabad,"Somajiguda, Hyderabad - TSPCB",10-01-2026 08:00:00,17.417094,78.457437,OZONE,33,41,35
India,Uttar_Pradesh,Agra,"Manoharpur, Agra - UPPCB",10-01-2026 08:00:00,27.23711,78.01936,OZONE,10,10,10
India,Uttar_Pradesh,Agra,"Rohta, Agra - UPPCB",10-01-2026 08:00:00,27.106972,78.000111,NH3,6,6,6
India,Uttar_Pradesh,Agra,"Rohta, Agra - UPPCB",10-01-2026 08:00:00,27.106972,78.000111,CO,17,100,66
India,Uttar_Pradesh,Ghaziabad,"Vasundhara, Ghaziabad - UPPCB",10-01-2026 08:00:00,28.6603346,77.3572563,PM2.5,365,500,432
India,Uttar_Pradesh,Varanasi,"Bhelupur, Varanasi - UPPCB",10-01-2026 08:00:00,25.301778,82.996789,CO,6,101,39
India,Uttar_Pradesh,Varanasi,"IESD Banaras Hindu University, Varanasi - UPPCB",10-01-2026 08:00:00,25.262326,82.995408,PM2.5,41,201,94
India,Uttar_Pradesh,Varanasi,"IESD Banaras Hindu University, Varanasi - UPPCB",10-01-2026 08:00:00,25.262326,82.995408,CO,14,50,36
India,Uttar_Pradesh,Varanasi,"IESD Banaras Hindu University, Varanasi - UPPCB",10-01-2026 08:00:00,25.262326,82.995408,OZONE,2,49,35
India,Uttar_Pradesh,Vrindavan,"Omex Eternity, Vrindavan - UPPCB",10-01-2026 08:00:00,27.5714090,77.6557570,PM10,37,127,72
India,Uttar_Pradesh,Vrindavan,"Omex Eternity, Vrindavan - UPPCB",10-01-2026 08:00:00,27.5714090,77.6557570,NO2,12,12,12
India,Uttar_Pradesh,Vrindavan,"Omex Eternity, Vrindavan - UPPCB",10-01-2026 08:00:00,27.5714090,77.6557570,NH3,3,10,7
India,Uttar_Pradesh,Vrindavan,"Omex Eternity, Vrindavan - UPPCB",10-01-2026 08:00:00,27.5714090,77.6557570,SO2,14,21,18
India,Uttarakhand,Dehradun,"Doon University, Dehradun - UKPCB",10-01-2026 08:00:00,30.269444,78.044167,PM2.5,39,324,181
India,Uttarakhand,Dehradun,"Doon University, Dehradun - UKPCB",10-01-2026 08:00:00,30.269444,78.044167,NO2,1,6,3
India,Uttar_Pradesh,Moradabad,"Employment Office, Moradabad - UPPCB",10-01-2026 08:00:00,28.88528,78.73880,SO2,21,26,23
India,Uttar_Pradesh,Moradabad,"Employment Office, Moradabad - UPPCB",10-01-2026 08:00:00,28.88528,78.73880,OZONE,34,76,35
India,Uttar_Pradesh,Moradabad,"Kashiram Nagar, Moradabad - UPPCB",10-01-2026 08:00:00,28.849399,78.742362,PM2.5,74,241,133
India,Uttar_Pradesh,Moradabad,"Transport Nagar, Moradabad - UPPCB",10-01-2026 08:00:00,28.802625,78.753728,PM2.5,63,164,101
India,Uttar_Pradesh,Moradabad,"Transport Nagar, Moradabad - UPPCB",10-01-2026 08:00:00,28.802625,78.753728,NH3,5,6,6
India,Uttar_Pradesh,Moradabad,"Transport Nagar, Moradabad - UPPCB",10-01-2026 08:00:00,28.802625,78.753728,CO,42,84,82
India,Uttar_Pradesh,Muzaffarnagar,"New Mandi, Muzaffarnagar - UPPCB",10-01-2026 08:00:00,29.4723508,77.7194031,NO2,50,123,82
India,Uttarakhand,Dehradun,"Doon University, Dehradun - UKPCB",10-01-2026 08:00:00,30.269444,78.044167,OZONE,25,67,34
India,West_Bengal,Asansol,"Asansol Court Area, Asansol - WBPCB",10-01-2026 08:00:00,23.685297,86.945968,CO,24,80,59
India,West_Bengal,Asansol,"Evelyn Lodge, Asansol - WBPCB",10-01-2026 08:00:00,23.6979360,86.9443950,NH3,5,6,5
India,West_Bengal,Asansol,"Evelyn Lodge, Asansol - WBPCB",10-01-2026 08:00:00,23.6979360,86.9443950,CO,7,48,33
India,West_Bengal,Asansol,"Evelyn Lodge, Asansol - WBPCB",10-01-2026 08:00:00,23.6979360,86.9443950,OZONE,9,45,12
India,West_Bengal,Asansol,"Mahabir Colliery, Asansol - WBPCB",10-01-2026 08:00:00,23.6181830,87.1057180,NH3,1,2,1
India,Uttar_Pradesh,Prayagraj,"Jhunsi, Prayagraj - UPPCB",10-01-2026 08:00:00,25.425602,81.917152,CO,22,122,101
India,Uttar_Pradesh,Prayagraj,"Motilal Nehru NIT, Prayagraj - UPPCB",10-01-2026 08:00:00,25.494,81.863,NH3,6,9,8
India,Uttar_Pradesh,Varanasi,"Ardhali Bazar, Varanasi - UPPCB",10-01-2026 08:00:00,25.3505986,82.9083074,PM2.5,54,137,84
India,Uttar_Pradesh,Varanasi,"Ardhali Bazar, Varanasi - UPPCB",10-01-2026 08:00:00,25.3505986,82.9083074,PM10,73,141,106
India,Uttar_Pradesh,Varanasi,"Ardhali Bazar, Varanasi - UPPCB",10-01-2026 08:00:00,25.3505986,82.9083074,NO2,91,97,93
India,Uttar_Pradesh,Varanasi,"Bhelupur, Varanasi - UPPCB",10-01-2026 08:00:00,25.301778,82.996789,PM2.5,67,337,147
India,Uttar_Pradesh,Hapur,"Anand Vihar, Hapur - UPPCB",10-01-2026 08:00:00,28.725645,77.749675,NO2,16,53,27
India,Uttar_Pradesh,Jhansi,"Shivaji Nagar, Jhansi - UPPCB",10-01-2026 08:00:00,25.4547,78.6039,NH3,4,4,4
India,Uttar_Pradesh,Kanpur,"FTI Kidwai Nagar, Kanpur - UPPCB",10-01-2026 08:00:00,26.428282,80.327067,PM2.5,40,408,199
India,Uttar_Pradesh,Kanpur,"FTI Kidwai Nagar, Kanpur - UPPCB",10-01-2026 08:00:00,26.428282,80.327067,CO,38,99,83
India,Uttar_Pradesh,Kanpur,"Nehru Nagar, Kanpur - UPPCB",10-01-2026 08:00:00,26.4703136,80.3229863,PM10,72,293,181
India,Uttar_Pradesh,Kanpur,"Nehru Nagar, Kanpur - UPPCB",10-01-2026 08:00:00,26.4703136,80.3229863,NO2,53,60,57
India,Uttar_Pradesh,Muzaffarnagar,"New Mandi, Muzaffarnagar - UPPCB",10-01-2026 08:00:00,29.4723508,77.7194031,NH3,11,20,16
India,Uttar_Pradesh,Muzaffarnagar,"New Mandi, Muzaffarnagar - UPPCB",10-01-2026 08:00:00,29.4723508,77.7194031,CO,26,81,42
India,Uttar_Pradesh,Noida,"Sector - 62, Noida - IMD",10-01-2026 08:00:00,28.6245479,77.3577104,OZONE,21,61,27
India,Uttar_Pradesh,Noida,"Sector-1, Noida - UPPCB",10-01-2026 08:00:00,28.5898,77.3101,NH3,23,28,25
India,Uttar_Pradesh,Noida,"Sector-116, Noida - UPPCB",10-01-2026 08:00:00,28.569230,77.393848,PM2.5,315,438,365
India,Uttar_Pradesh,Noida,"Sector-116, Noida - UPPCB",10-01-2026 08:00:00,28.569230,77.393848,CO,15,120,26
India,Uttar_Pradesh,Lucknow,"Kukrail Picnic Spot-1, Lucknow - UPPCB",10-01-2026 08:00:00,26.90723,80.98579,PM10,37,95,66
India,Uttar_Pradesh,Lucknow,"Kukrail Picnic Spot-1, Lucknow - UPPCB",10-01-2026 08:00:00,26.90723,80.98579,CO,12,14,13
India,Uttar_Pradesh,Lucknow,"Talkatora District Industries Center, Lucknow - CPCB",10-01-2026 08:00:00,26.83399722,80.8917361,PM2.5,275,344,318
India,Uttar_Pradesh,Meerut,"Ganga Nagar, Meerut - UPPCB",10-01-2026 08:00:00,28.999264,77.7590354,CO,48,93,51
India,Uttar_Pradesh,Lucknow,"Gomti Nagar, Lucknow - UPPCB",10-01-2026 08:00:00,26.868120,81.005119,PM2.5,68,267,152
India,Uttar_Pradesh,Lucknow,"Gomti Nagar, Lucknow - UPPCB",10-01-2026 08:00:00,26.868120,81.005119,PM10,60,134,99
India,Uttar_Pradesh,Lucknow,"Gomti Nagar, Lucknow - UPPCB",10-01-2026 08:00:00,26.868120,81.005119,SO2,10,11,10
India,Uttar_Pradesh,Lucknow,"Kendriya Vidyalaya, Lucknow - CPCB",10-01-2026 08:00:00,26.906111,80.948222,PM10,112,137,126
India,Uttar_Pradesh,Lucknow,"Kendriya Vidyalaya, Lucknow - CPCB",10-01-2026 08:00:00,26.906111,80.948222,NO2,39,42,41
India,Uttar_Pradesh,Meerut,"Jai Bhim Nagar, Meerut - UPPCB",10-01-2026 08:00:00,28.9535882,77.7622941,PM2.5,171,403,318
India,Uttar_Pradesh,Meerut,"Jai Bhim Nagar, Meerut - UPPCB",10-01-2026 08:00:00,28.9535882,77.7622941,NH3,13,20,16
India,Uttar_Pradesh,Moradabad,"Eco Herbal Park, Moradabad - UPPCB",10-01-2026 08:00:00,28.840739,78.697531,NO2,28,74,45
India,West_Bengal,Barrackpore,"SVSPA Campus, Barrackpore - WBPCB",10-01-2026 08:00:00,22.7605581,88.3617589,NO2,8,45,27
India,West_Bengal,Barrackpore,"SVSPA Campus, Barrackpore - WBPCB",10-01-2026 08:00:00,22.7605581,88.3617589,SO2,8,12,10
India,West_Bengal,Durgapur,"Mahishkapur Road_B-Zone, Durgapur - WBPCB",10-01-2026 08:00:00,23.567923,87.306843,PM2.5,49,186,120
India,West_Bengal,Durgapur,"Mahishkapur Road_B-Zone, Durgapur - WBPCB",10-01-2026 08:00:00,23.567923,87.306843,CO,40,101,70
India,West_Bengal,Durgapur,"PCBL Residential Complex, Durgapur - WBPCB",10-01-2026 08:00:00,23.5087640,87.3544400,NH3,10,13,11
India,West_Bengal,Durgapur,"PCBL Residential Complex, Durgapur - WBPCB",10-01-2026 08:00:00,23.5087640,87.3544400,OZONE,5,6,6
India,West_Bengal,Durgapur,"Womens College_City Center, Durgapur - WBPCB (Formerly known as Sidhu Kanhu Indoor Stadium)",10-01-2026 08:00:00,23.549395,87.300496,PM2.5,46,136,86
India,West_Bengal,Haldia,"Priyambada Housing Estate, Haldia - WBPCB",10-01-2026 08:00:00,22.06047,88.109737,SO2,11,30,17
India,West_Bengal,Howrah,"Belur Math, Howrah - WBPCB",10-01-2026 08:00:00,22.629801,88.352017,SO2,9,27,15
India,West_Bengal,Howrah,"Ghusuri, Howrah - WBPCB",10-01-2026 08:00:00,22.611968,88.347422,PM2.5,98,376,236
India,West_Bengal,Kolkata,"Ballygunge, Kolkata - WBPCB",10-01-2026 08:00:00,22.5367507,88.3638022,PM2.5,84,348,221
India,West_Bengal,Kolkata,"Ballygunge, Kolkata - WBPCB",10-01-2026 08:00:00,22.5367507,88.3638022,PM10,91,292,159
India,West_Bengal,Kolkata,"Rabindra Bharati University, Kolkata - WBPCB",10-01-2026 08:00:00,22.627847,88.380669,NO2,49,156,89
India,West_Bengal,Kolkata,"Rabindra Bharati University, Kolkata - WBPCB",10-01-2026 08:00:00,22.627847,88.380669,CO,29,102,69
India,West_Bengal,Kolkata,"Rabindra Sarobar, Kolkata - WBPCB",10-01-2026 08:00:00,22.51106,88.35142,NH3,4,17,5
India,West_Bengal,Kolkata,"Rabindra Sarobar, Kolkata - WBPCB",10-01-2026 08:00:00,22.51106,88.35142,SO2,6,33,17
India,West_Bengal,Kolkata,"Victoria, Kolkata - WBPCB",10-01-2026 08:00:00,22.5448082,88.3403691,PM10,106,171,137
India,West_Bengal,Kolkata,"Victoria, Kolkata - WBPCB",10-01-2026 08:00:00,22.5448082,88.3403691,NH3,4,6,6
India,West_Bengal,Kolkata,"Victoria, Kolkata - WBPCB",10-01-2026 08:00:00,22.5448082,88.3403691,OZONE,5,55,10
India,West_Bengal,Siliguri,"Ward-32 Bapupara, Siliguri - WBPCB",10-01-2026 08:00:00,26.6879226,88.4152495,NO2,14,22,19
India,West_Bengal,Siliguri,"Ward-32 Bapupara, Siliguri - WBPCB",10-01-2026 08:00:00,26.6879226,88.4152495,CO,48,90,74
India,Bihar,Bettiah,"Kamalnath Nagar, Bettiah - BSPCB",10-01-2026 08:00:00,26.80365,84.51954,CO,60,103,67
India,Bihar,Bhagalpur,"DM Office_Kachari Chowk, Bhagalpur - BSPCB",10-01-2026 08:00:00,25.251013,86.989001,NO2,7,13,9
India,Bihar,Bhagalpur,"Mayaganj, Bhagalpur - BSPCB",10-01-2026 08:00:00,25.265194,87.012947,PM2.5,50,130,82
India,Bihar,Bhagalpur,"Mayaganj, Bhagalpur - BSPCB",10-01-2026 08:00:00,25.265194,87.012947,OZONE,15,47,25
India,Bihar,Bihar Sharif,"D M Colony, Bihar Sharif - BSPCB",10-01-2026 08:00:00,25.204762,85.514960,PM10,NA,NA,NA
India,Bihar,Bihar Sharif,"D M Colony, Bihar Sharif - BSPCB",10-01-2026 08:00:00,25.204762,85.514960,OZONE,NA,NA,NA
India,Bihar,Buxar,"Charitra Van, Buxar - BSPCB",10-01-2026 08:00:00,25.567520,83.966379,NO2,8,10,9
India,Bihar,Buxar,"Charitra Van, Buxar - BSPCB",10-01-2026 08:00:00,25.567520,83.966379,SO2,7,19,13
India,Bihar,Buxar,"Charitra Van, Buxar - BSPCB",10-01-2026 08:00:00,25.567520,83.966379,OZONE,6,37,9
India,Andhra_Pradesh,Tirupati,"Vaikuntapuram, Tirupati - APPCB",10-01-2026 08:00:00,13.615387,79.409230,PM10,77,118,103
India,Andhra_Pradesh,Vijayawada,"HB Colony, Vijayawada - APPCB",10-01-2026 08:00:00,16.536107,80.594233,PM10,95,116,108
India,Andhra_Pradesh,Vijayawada,"HB Colony, Vijayawada - APPCB",10-01-2026 08:00:00,16.536107,80.594233,SO2,11,17,14
India,Andhra_Pradesh,Vijayawada,"Kanuru, Vijayawada - APPCB",10-01-2026 08:00:00,16.486692,80.699436,PM2.5,59,175,118
India,Andhra_Pradesh,Vijayawada,"Kanuru, Vijayawada - APPCB",10-01-2026 08:00:00,16.486692,80.699436,NO2,26,28,27
India,Andhra_Pradesh,Vijayawada,"Kanuru, Vijayawada - APPCB",10-01-2026 08:00:00,16.486692,80.699436,CO,30,57,47
India,Andhra_Pradesh,Vijayawada,"Rajiv Gandhi Park, Vijayawada - APPCB",10-01-2026 08:00:00,16.509717,80.612222,PM2.5,68,172,115
India,Andhra_Pradesh,Vijayawada,"Rajiv Gandhi Park, Vijayawada - APPCB",10-01-2026 08:00:00,16.509717,80.612222,PM10,83,120,104
India,Andhra_Pradesh,Vijayawada,"Rajiv Gandhi Park, Vijayawada - APPCB",10-01-2026 08:00:00,16.509717,80.612222,CO,32,40,34
India,Assam,Guwahati,"LGBI Airport, Guwahati - PCBA",10-01-2026 08:00:00,26.10887,91.589544,PM2.5,37,136,78
India,Assam,Guwahati,"LGBI Airport, Guwahati - PCBA",10-01-2026 08:00:00,26.10887,91.589544,NO2,12,66,17
India,Assam,Guwahati,"LGBI Airport, Guwahati - PCBA",10-01-2026 08:00:00,26.10887,91.589544,NH3,5,9,5
India,Assam,Guwahati,"Pan Bazaar, Guwahati - PCBA",10-01-2026 08:00:00,26.187500,91.744194,PM2.5,1,1,1
India,Assam,Guwahati,"Railway Colony, Guwahati - PCBA",10-01-2026 08:00:00,26.181742,91.78063,SO2,34,37,36
India,Assam,Guwahati,"Railway Colony, Guwahati - PCBA",10-01-2026 08:00:00,26.181742,91.78063,CO,42,119,100
India,Assam,Nalbari,"Bata Chowk, Nalbari - PCBA",10-01-2026 08:00:00,26.446912,91.439057,NO2,13,16,15
India,Assam,Nalbari,"Bata Chowk, Nalbari - PCBA",10-01-2026 08:00:00,26.446912,91.439057,NH3,5,6,6
India,Bihar,Katihar,"Mirchaibari, Katihar - BSPCB",10-01-2026 08:00:00,25.560083,87.553265,NO2,7,10,9
India,Bihar,Kishanganj,"SDM Office_Khagra, Kishanganj - BSPCB",10-01-2026 08:00:00,26.0881305,87.93840336,NO2,8,9,8
India,Bihar,Kishanganj,"SDM Office_Khagra, Kishanganj - BSPCB",10-01-2026 08:00:00,26.0881305,87.93840336,CO,14,16,15
India,Bihar,Manguraha,"Forest Rest House, Manguraha - BSPCB",10-01-2026 08:00:00,27.308328,84.531742,NO2,4,7,6
India,Bihar,Manguraha,"Forest Rest House, Manguraha - BSPCB",10-01-2026 08:00:00,27.308328,84.531742,NH3,1,1,1
India,Andhra_Pradesh,Chittoor,"Gangineni Cheruvu, Chittoor - APPCB",10-01-2026 08:00:00,13.204880,79.097889,SO2,6,33,15
India,Andhra_Pradesh,Chittoor,"Gangineni Cheruvu, Chittoor - APPCB",10-01-2026 08:00:00,13.204880,79.097889,CO,10,26,19
India,Andhra_Pradesh,Kadapa,"Yerramukkapalli, Kadapa - APPCB",10-01-2026 08:00:00,14.465052,78.824187,OZONE,20,22,21
India,Andhra_Pradesh,Rajamahendravaram,"Anand Kala Kshetram, Rajamahendravaram - APPCB",10-01-2026 08:00:00,16.9872867,81.7363176,CO,18,54,32
India,Andhra_Pradesh,Visakhapatnam,"GVM Corporation, Visakhapatnam - APPCB",10-01-2026 08:00:00,17.72,83.3,PM2.5,39,85,62
India,Andhra_Pradesh,Visakhapatnam,"GVM Corporation, Visakhapatnam - APPCB",10-01-2026 08:00:00,17.72,83.3,NO2,32,158,62
India,Assam,Byrnihat,"Central Academy for SFS, Byrnihat - PCBA",10-01-2026 08:00:00,26.071318,91.87488,NH3,4,4,4
India,Assam,Byrnihat,"Central Academy for SFS, Byrnihat - PCBA",10-01-2026 08:00:00,26.071318,91.87488,SO2,32,32,32
India,Bihar,Arrah,"New DM Office, Arrah - BSPCB",10-01-2026 08:00:00,25.5626095,84.663264,PM2.5,120,325,218
India,Bihar,Bettiah,"Kamalnath Nagar, Bettiah - BSPCB",10-01-2026 08:00:00,26.80365,84.51954,PM2.5,57,297,147
India,Bihar,Bettiah,"Kamalnath Nagar, Bettiah - BSPCB",10-01-2026 08:00:00,26.80365,84.51954,NO2,8,9,8
India,Bihar,Chhapra,"Darshan Nagar, Chhapra - BSPCB",10-01-2026 08:00:00,25.7808257,84.7446768,NH3,7,9,8
India,Bihar,Chhapra,"Darshan Nagar, Chhapra - BSPCB",10-01-2026 08:00:00,25.7808257,84.7446768,SO2,26,30,28
India,Bihar,Gaya,"SFTI Kusdihra, Gaya - BSPCB",10-01-2026 08:00:00,24.762518,84.982348,PM10,55,104,84
India,Assam,Silchar,"Tarapur, Silchar - PCBA",10-01-2026 08:00:00,24.82827,92.79525,NH3,1,1,1
India,Assam,Sivasagar,"Girls College, Sivasagar - PCBA",10-01-2026 08:00:00,26.987634,94.636574,PM2.5,NA,NA,NA
India,Andhra_Pradesh,Anantapur,"Gulzarpet, Anantapur - APPCB",10-01-2026 08:00:00,14.675886,77.593027,OZONE,29,48,39
India,Andhra_Pradesh,Chittoor,"Gangineni Cheruvu, Chittoor - APPCB",10-01-2026 08:00:00,13.204880,79.097889,PM2.5,58,91,73
India,Bihar,Sasaram,"Dada Peer, Sasaram - BSPCB",10-01-2026 08:00:00,24.952822,84.002396,SO2,2,5,4
India,Bihar,Siwan,"Chitragupta Nagar, Siwan - BSPCB",10-01-2026 08:00:00,26.2271665,84.3570427,PM2.5,68,300,126
India,Bihar,Siwan,"Chitragupta Nagar, Siwan - BSPCB",10-01-2026 08:00:00,26.2271665,84.3570427,SO2,8,8,8
India,Chandigarh,Chandigarh,"Sector 22, Chandigarh - CPCC",10-01-2026 08:00:00,30.735567,76.775714,NH3,15,19,17
India,Chandigarh,Chandigarh,"Sector-25, Chandigarh - CPCC",10-01-2026 08:00:00,30.751462,76.762879,NO2,9,20,14
India,Chandigarh,Chandigarh,"Sector-25, Chandigarh - CPCC",10-01-2026 08:00:00,30.751462,76.762879,OZONE,1,45,1
India,Chhattisgarh,Bhilai,"32Bungalows, Bhilai - CECB",10-01-2026 08:00:00,21.194815,81.314770,PM2.5,19,52,36
India,Chhattisgarh,Bhilai,"32Bungalows, Bhilai - CECB",10-01-2026 08:00:00,21.194815,81.314770,CO,14,90,44
India,Chhattisgarh,Bhilai,"Hathkhoj, Bhilai - CECB",10-01-2026 08:00:00,21.224231,81.408350,PM10,32,94,57
India,Chhattisgarh,Bhilai,"Hathkhoj, Bhilai - CECB",10-01-2026 08:00:00,21.224231,81.408350,NO2,32,99,64
India,Chhattisgarh,Bhilai,"Hathkhoj, Bhilai - CECB",10-01-2026 08:00:00,21.224231,81.408350,NH3,4,6,5
India,Chhattisgarh,Chhal,"Nawapara SECL Colony, Chhal - CECB",10-01-2026 08:00:00,22.118125,83.140608,PM2.5,38,64,51
India,Chhattisgarh,Chhal,"Nawapara SECL Colony, Chhal - CECB",10-01-2026 08:00:00,22.118125,83.140608,SO2,6,13,9
India,Bihar,Purnia,"Mariam Nagar, Purnia - BSPCB",10-01-2026 08:00:00,25.366336,87.117468,CO,44,54,45
India,Bihar,Saharsa,"Police Line, Saharsa - BSPCB",10-01-2026 08:00:00,25.892357,86.590325,OZONE,9,11,10
India,Bihar,Samastipur,"DM Office_Kasipur, Samastipur - BSPCB",10-01-2026 08:00:00,25.859655,85.77944,NH3,1,1,1
India,Bihar,Sasaram,"Dada Peer, Sasaram - BSPCB",10-01-2026 08:00:00,24.952822,84.002396,NO2,1,4,2
India,Bihar,Sasaram,"Dada Peer, Sasaram - BSPCB",10-01-2026 08:00:00,24.952822,84.002396,NH3,1,4,3
India,Chhattisgarh,Korba,"Urja Nagar, Korba - CECB",10-01-2026 08:00:00,22.348441,82.549611,PM10,8,114,43
India,Chhattisgarh,Korba,"Urja Nagar, Korba - CECB",10-01-2026 08:00:00,22.348441,82.549611,SO2,1,15,6
India,Chhattisgarh,Kunjemura,"OP Jindal School, Kunjemura - CECB",10-01-2026 08:00:00,22.126650,83.483212,OZONE,1,53,1
India,Chhattisgarh,Milupara,"Govt. Higher Secondary School, Milupara - CECB",10-01-2026 08:00:00,22.1910172,83.5197009,NO2,NA,NA,NA
India,Chhattisgarh,Milupara,"Govt. Higher Secondary School, Milupara - CECB",10-01-2026 08:00:00,22.1910172,83.5197009,SO2,NA,NA,NA
India,Chhattisgarh,Raipur,"Siltara Phase-II, Raipur - CECB",10-01-2026 08:00:00,21.371751,81.664929,NH3,2,2,2
India,Chhattisgarh,Tumidih,"OP Jindal Industrial Park, Tumidih - CECB",10-01-2026 08:00:00,22.06631475,83.33820077,NH3,1,2,2
India,Delhi,Delhi,"Alipur, Delhi - DPCC",10-01-2026 08:00:00,28.815329,77.153010,PM2.5,143,408,317
India,Delhi,Delhi,"Anand Vihar, Delhi - DPCC",10-01-2026 08:00:00,28.647622,77.3158090,PM2.5,363,496,425
India,Bihar,Motihari,"Gandak Colony, Motihari - BSPCB",10-01-2026 08:00:00,26.63086,84.90051,SO2,2,3,3
India,Bihar,Munger,"Town Hall, Munger - BSPCB",10-01-2026 08:00:00,25.376776,86.471523,PM10,33,107,76
India,Bihar,Muzaffarpur,"Buddha Colony, Muzaffarpur - BSPCB",10-01-2026 08:00:00,26.11442,85.39813,PM10,79,178,107
India,Bihar,Muzaffarpur,"Buddha Colony, Muzaffarpur - BSPCB",10-01-2026 08:00:00,26.11442,85.39813,CO,25,118,36
India,Bihar,Muzaffarpur,"Buddha Colony, Muzaffarpur - BSPCB",10-01-2026 08:00:00,26.11442,85.39813,OZONE,15,45,21
India,Chhattisgarh,Raipur,"AIIMS, Raipur - CECB",10-01-2026 08:00:00,21.258815,81.578979,NH3,4,4,4
India,Chhattisgarh,Raipur,"AIIMS, Raipur - CECB",10-01-2026 08:00:00,21.258815,81.578979,SO2,4,9,6
India,Chhattisgarh,Raipur,"Bhatagaon New ISBT, Raipur - CECB",10-01-2026 08:00:00,21.219665,81.630094,PM10,NA,NA,NA
India,Chhattisgarh,Raipur,"Bhatagaon New ISBT, Raipur - CECB",10-01-2026 08:00:00,21.219665,81.630094,OZONE,NA,NA,NA
India,Chhattisgarh,Raipur,"Krishak Nagar, Raipur - CECB",10-01-2026 08:00:00,21.237755,81.705301,PM2.5,24,62,47
India,Chhattisgarh,Raipur,"Krishak Nagar, Raipur - CECB",10-01-2026 08:00:00,21.237755,81.705301,NO2,24,34,29
India,Bihar,Muzaffarpur,"MIT-Daudpur Kothi, Muzaffarpur - BSPCB",10-01-2026 08:00:00,26.1403345,85.3650192,NO2,1,4,2
India,Bihar,Muzaffarpur,"MIT-Daudpur Kothi, Muzaffarpur - BSPCB",10-01-2026 08:00:00,26.1403345,85.3650192,CO,44,70,44
India,Bihar,Muzaffarpur,"Muzaffarpur Collectorate, Muzaffarpur - BSPCB",10-01-2026 08:00:00,26.1209,85.3647,PM2.5,92,137,116
India,Bihar,Patna,"DRM Office Danapur, Patna - BSPCB",10-01-2026 08:00:00,25.586562,85.043586,PM10,119,179,146
India,Bihar,Patna,"Rajbansi Nagar, Patna - BSPCB",10-01-2026 08:00:00,25.599486,85.113666,PM10,65,143,115
India,Bihar,Patna,"Samanpura, Patna - BSPCB",10-01-2026 08:00:00,25.596727,85.085624,SO2,1,2,1
India,Bihar,Purnia,"Mariam Nagar, Purnia - BSPCB",10-01-2026 08:00:00,25.366336,87.117468,PM2.5,85,103,95
India,Delhi,Delhi,"R K Puram, Delhi - DPCC",10-01-2026 08:00:00,28.563262,77.186937,NH3,5,15,10
India,Delhi,Delhi,"R K Puram, Delhi - DPCC",10-01-2026 08:00:00,28.563262,77.186937,OZONE,NA,NA,NA
India,Delhi,Delhi,"Rohini, Delhi - DPCC",10-01-2026 08:00:00,28.732528,77.119920,PM2.5,308,441,380
India,Delhi,Delhi,"Rohini, Delhi - DPCC",10-01-2026 08:00:00,28.732528,77.119920,PM10,163,416,296
India,Delhi,Delhi,"Rohini, Delhi - DPCC",10-01-2026 08:00:00,28.732528,77.119920,OZONE,2,147,3
India,Delhi,Delhi,"Shadipur, Delhi - CPCB",10-01-2026 08:00:00,28.6514781,77.1473105,NO2,43,67,50
India,Delhi,Delhi,"Shadipur, Delhi - CPCB",10-01-2026 08:00:00,28.6514781,77.1473105,OZONE,15,41,30
India,Delhi,Delhi,"Sirifort, Delhi - CPCB",10-01-2026 08:00:00,28.5504249,77.2159377,PM2.5,347,473,403
India,Delhi,Delhi,"Sirifort, Delhi - CPCB",10-01-2026 08:00:00,28.5504249,77.2159377,PM10,236,465,346
India,Delhi,Delhi,"Sirifort, Delhi - CPCB",10-01-2026 08:00:00,28.5504249,77.2159377,NO2,16,62,33
India,Delhi,Delhi,"Sirifort, Delhi - CPCB",10-01-2026 08:00:00,28.5504249,77.2159377,NH3,2,25,9
India,Delhi,Delhi,"Sonia Vihar, Delhi - DPCC",10-01-2026 08:00:00,28.710508,77.249485,CO,62,113,89
India,Delhi,Delhi,"Sri Aurobindo Marg, Delhi - DPCC",10-01-2026 08:00:00,28.531346,77.190156,OZONE,3,68,3
India,Delhi,Delhi,"Vivek Vihar, Delhi - DPCC",10-01-2026 08:00:00,28.672342,77.315260,NH3,12,15,13
India,Delhi,Delhi,"Vivek Vihar, Delhi - DPCC",10-01-2026 08:00:00,28.672342,77.315260,CO,80,108,91
India,Delhi,Delhi,"Wazirpur, Delhi - DPCC",10-01-2026 08:00:00,28.699793,77.165453,PM10,193,440,334
India,Delhi,Delhi,"Wazirpur, Delhi - DPCC",10-01-2026 08:00:00,28.699793,77.165453,SO2,1,10,4
India,Gujarat,Ahmedabad,"Chandkheda, Ahmedabad - IITM",10-01-2026 08:00:00,23.107969,72.574648,PM2.5,50,154,103
India,Gujarat,Ahmedabad,"Chandkheda, Ahmedabad - IITM",10-01-2026 08:00:00,23.107969,72.574648,PM10,112,183,136
India,Gujarat,Ahmedabad,"Chandkheda, Ahmedabad - IITM",10-01-2026 08:00:00,23.107969,72.574648,NO2,13,79,34
India,Delhi,Delhi,"Chandni Chowk, Delhi - IITM",10-01-2026 08:00:00,28.656756,77.227234,NO2,23,176,71
India,Delhi,Delhi,"Chandni Chowk, Delhi - IITM",10-01-2026 08:00:00,28.656756,77.227234,NH3,9,24,16
India,Delhi,Delhi,"Chandni Chowk, Delhi - IITM",10-01-2026 08:00:00,28.656756,77.227234,CO,76,119,99
India,Delhi,Delhi,"DTU, Delhi - CPCB",10-01-2026 08:00:00,28.7500499,77.1112615,PM2.5,227,384,339
India,Delhi,Delhi,"Dr. Karni Singh Shooting Range, Delhi - DPCC",10-01-2026 08:00:00,28.498571,77.264840,PM10,174,434,303
India,Delhi,Delhi,"Dr. Karni Singh Shooting Range, Delhi - DPCC",10-01-2026 08:00:00,28.498571,77.264840,NH3,11,15,13
India,Delhi,Delhi,"Dr. Karni Singh Shooting Range, Delhi - DPCC",10-01-2026 08:00:00,28.498571,77.264840,CO,16,106,73
India,Delhi,Delhi,"Dr. Karni Singh Shooting Range, Delhi - DPCC",10-01-2026 08:00:00,28.498571,77.264840,OZONE,3,89,3
India,Delhi,Delhi,"Narela, Delhi - DPCC",10-01-2026 08:00:00,28.822836,77.101981,NH3,9,13,11
India,Delhi,Delhi,"Narela, Delhi - DPCC",10-01-2026 08:00:00,28.822836,77.101981,OZONE,1,92,3
India,Delhi,Delhi,"Nehru Nagar, Delhi - DPCC",10-01-2026 08:00:00,28.567890,77.250515,PM10,223,489,368
India,Delhi,Delhi,"North Campus, DU, Delhi - IMD",10-01-2026 08:00:00,28.6573814,77.1585447,PM10,136,402,259
India,Delhi,Delhi,"North Campus, DU, Delhi - IMD",10-01-2026 08:00:00,28.6573814,77.1585447,NO2,34,143,88
India,Delhi,Delhi,"North Campus, DU, Delhi - IMD",10-01-2026 08:00:00,28.6573814,77.1585447,CO,94,143,109
India,Delhi,Delhi,"Okhla Phase-2, Delhi - DPCC",10-01-2026 08:00:00,28.530785,77.271255,OZONE,1,92,3
India,Delhi,Delhi,"Punjabi Bagh, Delhi - DPCC",10-01-2026 08:00:00,28.674045,77.131023,CO,40,82,50
India,Delhi,Delhi,"Pusa, Delhi - DPCC",10-01-2026 08:00:00,28.639652,77.146275,OZONE,3,35,3
India,Delhi,Delhi,"Pusa, Delhi - IMD",10-01-2026 08:00:00,28.636110,77.173332,NO2,6,168,78
India,Delhi,Delhi,"R K Puram, Delhi - DPCC",10-01-2026 08:00:00,28.563262,77.186937,NO2,19,142,63
India,Delhi,Delhi,"Anand Vihar, Delhi - DPCC",10-01-2026 08:00:00,28.647622,77.3158090,CO,54,112,78
India,Delhi,Delhi,"Aya Nagar, Delhi - IMD",10-01-2026 08:00:00,28.4706914,77.1099364,PM2.5,273,411,337
India,Delhi,Delhi,"Bawana, Delhi - DPCC",10-01-2026 08:00:00,28.776200,77.051074,CO,54,93,56
India,Delhi,Delhi,"Burari Crossing, Delhi - IMD",10-01-2026 08:00:00,28.7256504,77.2011573,PM2.5,133,410,316
India,Delhi,Delhi,"Dwarka-Sector 8, Delhi - DPCC ",10-01-2026 08:00:00,28.5710274,77.0719006,PM2.5,334,449,401
India,Delhi,Delhi,"Dwarka-Sector 8, Delhi - DPCC ",10-01-2026 08:00:00,28.5710274,77.0719006,NH3,25,33,28
India,Delhi,Delhi,"Dwarka-Sector 8, Delhi - DPCC ",10-01-2026 08:00:00,28.5710274,77.0719006,SO2,26,35,30
India,Delhi,Delhi,"IGI Airport (T3), Delhi - IMD",10-01-2026 08:00:00,28.5627763,77.1180053,OZONE,8,43,9
India,Delhi,Delhi,"ITO, Delhi - CPCB",10-01-2026 08:00:00,28.628624,77.241060,OZONE,28,73,28
India,Delhi,Delhi,"Jahangirpuri, Delhi - DPCC",10-01-2026 08:00:00,28.732820,77.170633,NH3,10,33,24
India,Delhi,Delhi,"Lodhi Road, Delhi - IMD",10-01-2026 08:00:00,28.5918245,77.2273074,CO,43,96,69
India,Delhi,Delhi,"NSIT Dwarka, Delhi - CPCB",10-01-2026 08:00:00,28.60909,77.0325413,NO2,56,100,71
India,Delhi,Delhi,"NSIT Dwarka, Delhi - CPCB",10-01-2026 08:00:00,28.60909,77.0325413,SO2,15,24,19
India,Haryana,Faridabad,"Sector 30, Faridabad - HSPCB",10-01-2026 08:00:00,28.4417,77.3217,PM2.5,219,227,222
India,Haryana,Faridabad,"Sector 30, Faridabad - HSPCB",10-01-2026 08:00:00,28.4417,77.3217,NH3,10,12,11
India,Haryana,Faridabad,"Sector 30, Faridabad - HSPCB",10-01-2026 08:00:00,28.4417,77.3217,OZONE,18,19,18
India,Haryana,Fatehabad,"Huda Sector, Fatehabad - HSPCB",10-01-2026 08:00:00,29.503664,75.467934,PM2.5,43,160,105
India,Haryana,Fatehabad,"Huda Sector, Fatehabad - HSPCB",10-01-2026 08:00:00,29.503664,75.467934,PM10,65,163,128
India,Haryana,Fatehabad,"Huda Sector, Fatehabad - HSPCB",10-01-2026 08:00:00,29.503664,75.467934,NO2,18,20,19
India,Haryana,Fatehabad,"Huda Sector, Fatehabad - HSPCB",10-01-2026 08:00:00,29.503664,75.467934,NH3,13,15,14
India,Haryana,Fatehabad,"Huda Sector, Fatehabad - HSPCB",10-01-2026 08:00:00,29.503664,75.467934,CO,25,34,26
India,Haryana,Gurugram,"NISE Gwal Pahari, Gurugram - IMD",10-01-2026 08:00:00,28.422681,77.148944,CO,58,112,109
India,Haryana,Gurugram,"Sector-51, Gurugram - HSPCB",10-01-2026 08:00:00,28.4227,77.0667,NO2,6,15,9
India,Haryana,Gurugram,"Sector-51, Gurugram - HSPCB",10-01-2026 08:00:00,28.4227,77.0667,OZONE,3,15,3
India,Haryana,Gurugram,"Teri Gram, Gurugram - HSPCB",10-01-2026 08:00:00,28.4275,77.1465,SO2,2,24,15
India,Haryana,Gurugram,"Teri Gram, Gurugram - HSPCB",10-01-2026 08:00:00,28.4275,77.1465,CO,40,94,84
India,Haryana,Gurugram,"Teri Gram, Gurugram - HSPCB",10-01-2026 08:00:00,28.4275,77.1465,OZONE,4,18,4
India,Haryana,Gurugram,"Vikas Sadan, Gurugram - HSPCB",10-01-2026 08:00:00,28.4501238,77.0263051,PM10,174,417,322
India,Haryana,Hisar,"Urban Estate-II, Hisar - HSPCB",10-01-2026 08:00:00,29.140560,75.744941,PM10,NA,NA,NA
India,Haryana,Hisar,"Urban Estate-II, Hisar - HSPCB",10-01-2026 08:00:00,29.140560,75.744941,CO,49,71,50
India,Haryana,Jind,"Police Lines, Jind - HSPCB",10-01-2026 08:00:00,29.307814,76.337619,SO2,1,2,2
India,Haryana,Jind,"Police Lines, Jind - HSPCB",10-01-2026 08:00:00,29.307814,76.337619,OZONE,5,22,6
India,Haryana,Kaithal,"Rishi Nagar, Kaithal - HSPCB",10-01-2026 08:00:00,29.8006,76.4155,PM10,104,169,150
India,Gujarat,Gandhinagar,"IIPHG Lekawada, Gandhinagar - IITM",10-01-2026 08:00:00,23.243639,72.68994,NH3,NA,NA,NA
India,Gujarat,Gandhinagar,"IIPHG Lekawada, Gandhinagar - IITM",10-01-2026 08:00:00,23.243639,72.68994,SO2,8,11,9
India,Gujarat,Gandhinagar,"IIPHG Lekawada, Gandhinagar - IITM",10-01-2026 08:00:00,23.243639,72.68994,CO,1,64,36
India,Gujarat,Gandhinagar,"Sector-10, Gandhinagar - GPCB",10-01-2026 08:00:00,23.221714,72.654328,NH3,2,4,3
India,Gujarat,Vatva,"Phase-4 GIDC, Vatva - GPCB",10-01-2026 08:00:00,22.969611,72.643500,PM10,123,194,149
India,Gujarat,Vatva,"Phase-4 GIDC, Vatva - GPCB",10-01-2026 08:00:00,22.969611,72.643500,NO2,29,66,48
India,Gujarat,Vatva,"Phase-4 GIDC, Vatva - GPCB",10-01-2026 08:00:00,22.969611,72.643500,NH3,2,8,6
India,Gujarat,Ahmedabad,"Maninagar, Ahmedabad - GPCB",10-01-2026 08:00:00,23.002657,72.591912,CO,17,32,22
India,Gujarat,Ahmedabad,"Raikhad, Ahmedabad - IITM",10-01-2026 08:00:00,23.020509,72.579261,NO2,15,69,36
India,Gujarat,Ahmedabad,"Rakhial, Ahmedabad - IITM",10-01-2026 08:00:00,23.016834,72.625775,PM2.5,90,272,159
India,Gujarat,Ahmedabad,"Rakhial, Ahmedabad - IITM",10-01-2026 08:00:00,23.016834,72.625775,NO2,28,100,54
India,Gujarat,Ahmedabad,"SAC ISRO Bopal, Ahmedabad - IITM",10-01-2026 08:00:00,23.041137,72.456691,NH3,8,18,11
India,Gujarat,Ahmedabad,"SAC ISRO Bopal, Ahmedabad - IITM",10-01-2026 08:00:00,23.041137,72.456691,SO2,2,21,5
India,Haryana,Charkhi Dadri,"Mini Secretariat, Charkhi Dadri - HSPCB",10-01-2026 08:00:00,28.593883,76.270653,CO,10,25,17
India,Haryana,Dharuhera,"Municipal Corporation Office, Dharuhera -  HSPCB",10-01-2026 08:00:00,28.206800,76.799700,SO2,1,2,1
India,Haryana,Faridabad,"Sector 11, Faridabad - HSPCB",10-01-2026 08:00:00,28.376058,77.315741,NO2,29,32,31
India,Haryana,Faridabad,"Sector 11, Faridabad - HSPCB",10-01-2026 08:00:00,28.376058,77.315741,CO,10,88,17
India,Haryana,Bahadurgarh,"Arya Nagar, Bahadurgarh - HSPCB",10-01-2026 08:00:00,28.6701,76.9254,OZONE,15,19,17
India,Haryana,Ballabgarh,"Nathu Colony, Ballabgarh - HSPCB",10-01-2026 08:00:00,28.3419248,77.319699,PM2.5,NA,NA,NA
India,Haryana,Ballabgarh,"Nathu Colony, Ballabgarh - HSPCB",10-01-2026 08:00:00,28.3419248,77.319699,NH3,NA,NA,NA
India,Haryana,Ballabgarh,"Nathu Colony, Ballabgarh - HSPCB",10-01-2026 08:00:00,28.3419248,77.319699,OZONE,NA,NA,NA
India,Gujarat,Ahmedabad,"SVPI Airport Hansol, Ahmedabad - IITM",10-01-2026 08:00:00,23.076793,72.627874,NO2,14,106,46
India,Gujarat,Gandhinagar,"GIFT City, Gandhinagar - IITM",10-01-2026 08:00:00,23.163798,72.677768,NO2,20,75,35
India,Gujarat,Gandhinagar,"GIFT City, Gandhinagar - IITM",10-01-2026 08:00:00,23.163798,72.677768,NH3,6,13,8
India,Haryana,Bhiwani,"H.B. Colony, Bhiwani - HSPCB",10-01-2026 08:00:00,28.806223,76.141105,CO,11,14,12
India,Haryana,Bhiwani,"H.B. Colony, Bhiwani - HSPCB",10-01-2026 08:00:00,28.806223,76.141105,OZONE,9,19,14
India,Gujarat,Ahmedabad,"Gyaspur, Ahmedabad - IITM",10-01-2026 08:00:00,22.977134,72.553024,SO2,2,43,22
India,Haryana,Yamuna Nagar,"Gobind Pura, Yamuna Nagar - HSPCB",10-01-2026 08:00:00,30.1480566,77.2893471,CO,5,38,24
India,Himachal Pradesh,Baddi,"HIMUDA Complex Phase-1, Baddi - HPPCB",10-01-2026 08:00:00,30.943887,76.801991,PM10,122,444,239
India,Himachal Pradesh,Baddi,"HIMUDA Complex Phase-1, Baddi - HPPCB",10-01-2026 08:00:00,30.943887,76.801991,NH3,4,8,6
India,Himachal Pradesh,Baddi,"HIMUDA Complex Phase-1, Baddi - HPPCB",10-01-2026 08:00:00,30.943887,76.801991,CO,58,114,86
India,Jammu_and_Kashmir,Srinagar,"Khunmoh, Srinagar - JKPCC",10-01-2026 08:00:00,34.06313,74.96017,PM10,37,90,60
India,Jammu_and_Kashmir,Srinagar,"Rajbagh, Srinagar - JKPCC",10-01-2026 08:00:00,34.066206,74.819820,PM10,20,37,29
India,Jharkhand,Dhanbad,"Sardar Patel Nagar, Dhanbad - JSPCB",10-01-2026 08:00:00,23.80569,86.44268,PM2.5,14,219,86
India,Jharkhand,Dhanbad,"Sardar Patel Nagar, Dhanbad - JSPCB",10-01-2026 08:00:00,23.80569,86.44268,OZONE,1,48,13
India,Karnataka,Bagalkot,"Vidayagiri, Bagalkot - KSPCB",10-01-2026 08:00:00,16.172806,75.659694,PM2.5,35,36,35
India,Karnataka,Bengaluru,"Shivapura_Peenya, Bengaluru - KSPCB",10-01-2026 08:00:00,13.0246342,77.5080115,NH3,3,4,4
India,Karnataka,Bengaluru,"Silk Board, Bengaluru - KSPCB",10-01-2026 08:00:00,12.917348,77.622813,NH3,5,7,6
India,Karnataka,Chamarajanagar,"Urban, Chamarajanagar - KSPCB",10-01-2026 08:00:00,11.55358,76.55521,OZONE,19,49,24
India,Karnataka,Chikkaballapur,"Chikkaballapur Rural, Chikkaballapur - KSPCB",10-01-2026 08:00:00,13.428828,77.731418,PM2.5,48,95,71
India,Karnataka,Chikkaballapur,"Chikkaballapur Rural, Chikkaballapur - KSPCB",10-01-2026 08:00:00,13.428828,77.731418,NH3,NA,NA,NA
India,Karnataka,Chikkaballapur,"Chikkaballapur Rural, Chikkaballapur - KSPCB",10-01-2026 08:00:00,13.428828,77.731418,CO,8,25,14
India,Karnataka,Chikkamagaluru,"Kalyana Nagara, Chikkamagaluru - KSPCB",10-01-2026 08:00:00,13.328028,75.797056,NO2,17,27,20
India,Karnataka,Davanagere,"Devaraj Urs Badavane, Davanagere - KSPCB",10-01-2026 08:00:00,14.475800,75.905200,PM2.5,49,100,72
India,Karnataka,Davanagere,"Devaraj Urs Badavane, Davanagere - KSPCB",10-01-2026 08:00:00,14.475800,75.905200,PM10,NA,NA,NA
India,Karnataka,Davanagere,"Devaraj Urs Badavane, Davanagere - KSPCB",10-01-2026 08:00:00,14.475800,75.905200,NO2,18,31,27
India,Karnataka,Dharwad,"Kalabhavan, Dharwad - KSPCB",10-01-2026 08:00:00,15.459706,75.008381,NH3,4,5,4
India,Karnataka,Dharwad,"Kalabhavan, Dharwad - KSPCB",10-01-2026 08:00:00,15.459706,75.008381,SO2,6,17,9
India,Karnataka,Hubballi,"Lingaraj Nagar, Hubballi - KSPCB",10-01-2026 08:00:00,15.3714823,75.1160168,PM2.5,45,50,46
India,Karnataka,Kalaburagi,"Mahatma Basaveswar Colony, Kalaburgi - KSPCB",10-01-2026 08:00:00,17.336318,76.847397,PM2.5,28,55,39
India,Karnataka,Bengaluru,"Kasturi Nagar, Bengaluru - KSPCB",10-01-2026 08:00:00,13.003872,77.664217,CO,40,51,46
India,Karnataka,Bengaluru,"Kasturi Nagar, Bengaluru - KSPCB",10-01-2026 08:00:00,13.003872,77.664217,OZONE,23,24,23
India,Karnataka,Bengaluru,"Peenya, Bengaluru - CPCB",10-01-2026 08:00:00,13.0270199,77.494094,PM2.5,18,40,31
India,Karnataka,Bengaluru,"Peenya, Bengaluru - CPCB",10-01-2026 08:00:00,13.0270199,77.494094,SO2,5,17,10
India,Karnataka,Bengaluru,"RVCE-Mailasandra, Bengaluru - KSPCB",10-01-2026 08:00:00,12.921418,77.502466,PM2.5,42,359,112
India,Karnataka,Bengaluru,"RVCE-Mailasandra, Bengaluru - KSPCB",10-01-2026 08:00:00,12.921418,77.502466,NO2,16,21,21
India,Karnataka,Bengaluru,"RVCE-Mailasandra, Bengaluru - KSPCB",10-01-2026 08:00:00,12.921418,77.502466,SO2,5,6,6
India,Karnataka,Bengaluru,"Sanegurava Halli, Bengaluru - KSPCB",10-01-2026 08:00:00,12.990328,77.5431385,SO2,NA,NA,NA
India,Karnataka,Bengaluru,"City Railway Station, Bengaluru - KSPCB",10-01-2026 08:00:00,12.9756843,77.5660749,CO,73,82,76
India,Karnataka,Bengaluru,"Hebbal, Bengaluru - KSPCB",10-01-2026 08:00:00,13.029152,77.585901,OZONE,6,10,8
India,Karnataka,Bengaluru,"Hombegowda Nagar, Bengaluru - KSPCB",10-01-2026 08:00:00,12.938539,77.590100,NH3,3,4,3
India,Karnataka,Bengaluru,"Hombegowda Nagar, Bengaluru - KSPCB",10-01-2026 08:00:00,12.938539,77.590100,SO2,8,20,15
India,Karnataka,Bengaluru,"Jayanagar 5th Block, Bengaluru - KSPCB",10-01-2026 08:00:00,12.920984,77.584908,CO,7,56,11
India,Karnataka,Bengaluru,"Jigani, Bengaluru - KSPCB",10-01-2026 08:00:00,12.7816279,77.6299145,PM2.5,41,61,51
India,Karnataka,Bagalkot,"Vidayagiri, Bagalkot - KSPCB",10-01-2026 08:00:00,16.172806,75.659694,OZONE,12,12,12
India,Karnataka,Belgaum,"Ramteerth Nagar, Belgaum - KSPCB",10-01-2026 08:00:00,15.888653,74.541751,NO2,40,87,52
India,Karnataka,Belgaum,"Ramteerth Nagar, Belgaum - KSPCB",10-01-2026 08:00:00,15.888653,74.541751,SO2,24,25,24
India,Karnataka,Belgaum,"Ramteerth Nagar, Belgaum - KSPCB",10-01-2026 08:00:00,15.888653,74.541751,OZONE,19,20,20
India,Karnataka,Bengaluru,"BWSSB Kadabesanahalli, Bengaluru - CPCB",10-01-2026 08:00:00,12.9352049,77.6814488,PM2.5,100,221,155
India,Karnataka,Bengaluru,"Bapuji Nagar, Bengaluru - KSPCB",10-01-2026 08:00:00,12.951913,77.539784,SO2,3,44,22
India,Haryana,Kaithal,"Rishi Nagar, Kaithal - HSPCB",10-01-2026 08:00:00,29.8006,76.4155,CO,14,72,22
India,Haryana,Karnal,"Sector-12, Karnal - HSPCB",10-01-2026 08:00:00,29.695300,77.002700,OZONE,36,36,36
India,Haryana,Kurukshetra,"Sector-7, Kurukshetra - HSPCB",10-01-2026 08:00:00,29.966942,76.875879,NH3,5,5,5
India,Haryana,Mandikhera,"General Hospital, Mandikhera(Nuh) - HSPCB",10-01-2026 08:00:00,27.9002,76.9938,PM2.5,153,318,270
India,Haryana,Mandikhera,"General Hospital, Mandikhera(Nuh) - HSPCB",10-01-2026 08:00:00,27.9002,76.9938,NH3,13,14,14
India,Haryana,Mandikhera,"General Hospital, Mandikhera(Nuh) - HSPCB",10-01-2026 08:00:00,27.9002,76.9938,OZONE,23,33,28
India,Haryana,Sirsa,"F-Block, Sirsa - HSPCB",10-01-2026 08:00:00,29.536400,75.015800,OZONE,NA,NA,NA
India,Haryana,Sonipat,"Murthal, Sonipat - HSPCB",10-01-2026 08:00:00,29.027200,77.062100,PM2.5,50,275,139
India,Haryana,Sonipat,"Murthal, Sonipat - HSPCB",10-01-2026 08:00:00,29.027200,77.062100,SO2,5,10,8
India,Haryana,Yamuna Nagar,"Gobind Pura, Yamuna Nagar - HSPCB",10-01-2026 08:00:00,30.1480566,77.2893471,PM10,101,172,133
India,Haryana,Yamuna Nagar,"Gobind Pura, Yamuna Nagar - HSPCB",10-01-2026 08:00:00,30.1480566,77.2893471,NO2,11,20,16
India,Haryana,Yamuna Nagar,"Gobind Pura, Yamuna Nagar - HSPCB",10-01-2026 08:00:00,30.1480566,77.2893471,NH3,1,6,4
India,Haryana,Manesar,"Sector-2 IMT, Manesar - HSPCB",10-01-2026 08:00:00,28.360699,76.936090,OZONE,3,25,5
India,Haryana,Narnaul,"Shastri Nagar, Narnaul - HSPCB",10-01-2026 08:00:00,28.060249,76.113115,PM2.5,201,378,329
