country,state,city,station,last_update,latitude,longitude,pollutant_id,min_value,max_value,avg_value
India,Bihar,Patna,"IGSC Planetarium Complex, Patna - BSPCB",01-10-2025 07:00:00,25.610369,85.132568,NO2,11,14,12
India,Bihar,Patna,"Muradpur, Patna - BSPCB",01-10-2025 07:00:00,25.619651,85.147382,PM10,58,419,145
India,Bihar,Patna,"Muradpur, Patna - BSPCB",01-10-2025 07:00:00,25.619651,85.147382,SO2,7,11,9
India,Bihar,Patna,"Rajbansi Nagar, Patna - BSPCB",01-10-2025 07:00:00,25.599486,85.113666,PM2.5,36,77,52
India,Bihar,Patna,"Rajbansi Nagar, Patna - BSPCB",01-10-2025 07:00:00,25.599486,85.113666,SO2,5,9,7
India,Bihar,Patna,"Rajbansi Nagar, Patna - BSPCB",01-10-2025 07:00:00,25.599486,85.113666,OZONE,1,27,7
India,Bihar,Purnia,"Mariam Nagar, Purnia - BSPCB",01-10-2025 07:00:00,25.366336,87.117468,PM2.5,17,88,53
India,Bihar,Purnia,"Mariam Nagar, Purnia - BSPCB",01-10-2025 07:00:00,25.366336,87.117468,NH3,3,3,3
India,Bihar,Rajgir,"Dangi Tola, Rajgir - BSPCB",01-10-2025 07:00:00,25.03280,85.41948,PM2.5,10,117,43
India,Assam,Nalbari,"Bata Chowk, Nalbari - PCBA",01-10-2025 07:00:00,26.446912,91.439057,PM10,41,50,46
India,Assam,Nalbari,"Bata Chowk, Nalbari - PCBA",01-10-2025 07:00:00,26.446912,91.439057,OZONE,10,32,20
India,Assam,Silchar,"Tarapur, Silchar - PCBA",01-10-2025 07:00:00,24.82827,92.79525,SO2,5,5,5
India,Assam,Sivasagar,"Girls College, Sivasagar - PCBA",01-10-2025 07:00:00,26.987634,94.636574,PM2.5,15,40,25
India,Bihar,Araria,"Kharahiya Basti, Araria - BSPCB",01-10-2025 07:00:00,26.146529,87.454184,OZONE,8,11,10
India,Bihar,Arrah,"New DM Office, Arrah - BSPCB",01-10-2025 07:00:00,25.5626095,84.663264,NO2,6,9,7
India,Bihar,Arrah,"New DM Office, Arrah - BSPCB",01-10-2025 07:00:00,25.5626095,84.663264,CO,46,65,53
India,Bihar,Arrah,"New DM Office, Arrah - BSPCB",01-10-2025 07:00:00,25.5626095,84.663264,OZONE,7,11,8
India,Andhra_Pradesh,Visakhapatnam,"GVM Corporation, Visakhapatnam - APPCB",01-10-2025 07:00:00,17.72,83.3,NO2,9,80,38
India,Andhra_Pradesh,Visakhapatnam,"GVM Corporation, Visakhapatnam - APPCB",01-10-2025 07:00:00,17.72,83.3,CO,16,82,31
India,Arunachal_Pradesh,Naharlagun,"Naharlagun, Naharlagun - APSPCB",01-10-2025 07:00:00,27.103358,93.679645,PM2.5,NA,NA,NA
India,Arunachal_Pradesh,Naharlagun,"Naharlagun, Naharlagun - APSPCB",01-10-2025 07:00:00,27.103358,93.679645,SO2,NA,NA,NA
India,Assam,Guwahati,"LGBI Airport, Guwahati - PCBA",01-10-2025 07:00:00,26.10887,91.589544,PM2.5,20,469,73
India,Assam,Guwahati,"LGBI Airport, Guwahati - PCBA",01-10-2025 07:00:00,26.10887,91.589544,PM10,25,431,68
India,Assam,Guwahati,"LGBI Airport, Guwahati - PCBA",01-10-2025 07:00:00,26.10887,91.589544,OZONE,13,17,16
India,Bihar,Buxar,"Charitra Van, Buxar - BSPCB",01-10-2025 07:00:00,25.567520,83.966379,NH3,3,3,3
India,Bihar,Buxar,"Charitra Van, Buxar - BSPCB",01-10-2025 07:00:00,25.567520,83.966379,SO2,1,12,6
India,Bihar,Buxar,"Charitra Van, Buxar - BSPCB",01-10-2025 07:00:00,25.567520,83.966379,CO,20,28,25
India,Bihar,Gaya,"Collectorate, Gaya - BSPCB",01-10-2025 07:00:00,24.7955,84.9994,PM2.5,3,118,52
India,Bihar,Gaya,"SFTI Kusdihra, Gaya - BSPCB",01-10-2025 07:00:00,24.762518,84.982348,PM10,14,33,22
India,Bihar,Gaya,"SFTI Kusdihra, Gaya - BSPCB",01-10-2025 07:00:00,24.762518,84.982348,SO2,7,11,9
India,Bihar,Gaya,"SFTI Kusdihra, Gaya - BSPCB",01-10-2025 07:00:00,24.762518,84.982348,CO,16,30,21
India,Bihar,Muzaffarpur,"Buddha Colony, Muzaffarpur - BSPCB",01-10-2025 07:00:00,26.11442,85.39813,SO2,3,7,4
India,Bihar,Muzaffarpur,"Muzaffarpur Collectorate, Muzaffarpur - BSPCB",01-10-2025 07:00:00,26.1209,85.3647,PM2.5,40,57,48
India,Bihar,Patna,"DRM Office Danapur, Patna - BSPCB",01-10-2025 07:00:00,25.586562,85.043586,PM10,68,129,89
India,Bihar,Patna,"Govt. High School Shikarpur, Patna - BSPCB",01-10-2025 07:00:00,25.592539,85.227158,PM2.5,34,85,51
India,Bihar,Patna,"Govt. High School Shikarpur, Patna - BSPCB",01-10-2025 07:00:00,25.592539,85.227158,NO2,14,19,16
India,Andhra_Pradesh,Tirumala,"Toll Gate, Tirumala - APPCB",01-10-2025 07:00:00,13.67,79.35,PM2.5,10,35,24
India,Andhra_Pradesh,Tirumala,"Toll Gate, Tirumala - APPCB",01-10-2025 07:00:00,13.67,79.35,NO2,1,15,12
India,Andhra_Pradesh,Tirupati,"Vaikuntapuram, Tirupati - APPCB",01-10-2025 07:00:00,13.615387,79.409230,NH3,5,5,5
India,Andhra_Pradesh,Vijayawada,"HB Colony, Vijayawada - APPCB",01-10-2025 07:00:00,16.536107,80.594233,PM2.5,NA,NA,NA
India,Andhra_Pradesh,Visakhapatnam,"GVM Corporation, Visakhapatnam - APPCB",01-10-2025 07:00:00,17.72,83.3,PM2.5,34,92,52
India,Andaman and Nicobar,Sri Vijaya Puram,"Police Line, Sri Vijaya Puram - ANPCC",01-10-2025 07:00:00,11.654054,92.734055,CO,12,18,13
India,Andaman and Nicobar,Sri Vijaya Puram,"Police Line, Sri Vijaya Puram - ANPCC",01-10-2025 07:00:00,11.654054,92.734055,OZONE,2,7,3
India,Andhra_Pradesh,Amaravati,"Secretariat, Amaravati - APPCB",01-10-2025 07:00:00,16.5150833,80.5181667,PM2.5,10,28,19
India,Andhra_Pradesh,Amaravati,"Secretariat, Amaravati - APPCB",01-10-2025 07:00:00,16.5150833,80.5181667,NH3,4,5,5
India,Andhra_Pradesh,Amaravati,"Secretariat, Amaravati - APPCB",01-10-2025 07:00:00,16.5150833,80.5181667,SO2,8,13,10
India,Bihar,Kishanganj,"SDM Office_Khagra, Kishanganj - BSPCB",01-10-2025 07:00:00,26.0881305,87.93840336,OZONE,15,20,16
India,Bihar,Manguraha,"Forest Rest House, Manguraha - BSPCB",01-10-2025 07:00:00,27.308328,84.531742,PM2.5,25,341,54
India,Bihar,Manguraha,"Forest Rest House, Manguraha - BSPCB",01-10-2025 07:00:00,27.308328,84.531742,NO2,1,7,5
India,Bihar,Manguraha,"Forest Rest House, Manguraha - BSPCB",01-10-2025 07:00:00,27.308328,84.531742,OZONE,8,25,9
India,Bihar,Begusarai,"Lohiyanagar, Begusarai - BSPCB",01-10-2025 07:00:00,25.42742023,86.13886079,NH3,3,4,4
India,Bihar,Bhagalpur,"DM Office_Kachari Chowk, Bhagalpur - BSPCB",01-10-2025 07:00:00,25.251013,86.989001,OZONE,9,23,16
India,Bihar,Bhagalpur,"Mayaganj, Bhagalpur - BSPCB",01-10-2025 07:00:00,25.265194,87.012947,OZONE,27,45,36
India,Andhra_Pradesh,Chittoor,"Gangineni Cheruvu, Chittoor - APPCB",01-10-2025 07:00:00,13.204880,79.097889,OZONE,42,57,48
India,Chhattisgarh,Raipur,"Siltara Phase-II, Raipur - CECB",01-10-2025 07:00:00,21.371751,81.664929,NO2,12,47,22
India,Chhattisgarh,Raipur,"Siltara Phase-II, Raipur - CECB",01-10-2025 07:00:00,21.371751,81.664929,SO2,8,13,9
India,Chhattisgarh,Raipur,"Siltara Phase-II, Raipur - CECB",01-10-2025 07:00:00,21.371751,81.664929,OZONE,6,10,8
India,Chhattisgarh,Tumidih,"OP Jindal Industrial Park, Tumidih - CECB",01-10-2025 07:00:00,22.06631475,83.33820077,PM2.5,23,61,45
India,Chhattisgarh,Tumidih,"OP Jindal Industrial Park, Tumidih - CECB",01-10-2025 07:00:00,22.06631475,83.33820077,NH3,1,2,2
India,Chhattisgarh,Tumidih,"OP Jindal Industrial Park, Tumidih - CECB",01-10-2025 07:00:00,22.06631475,83.33820077,SO2,5,18,7
India,Chhattisgarh,Tumidih,"OP Jindal Industrial Park, Tumidih - CECB",01-10-2025 07:00:00,22.06631475,83.33820077,OZONE,3,24,4
India,Delhi,Delhi,"Alipur, Delhi - DPCC",01-10-2025 07:00:00,28.815329,77.153010,NH3,2,5,3
India,Delhi,Delhi,"Anand Vihar, Delhi - DPCC",01-10-2025 07:00:00,28.647622,77.3158090,SO2,14,56,39
India,Delhi,Delhi,"Anand Vihar, Delhi - DPCC",01-10-2025 07:00:00,28.647622,77.3158090,CO,44,68,52
India,Delhi,Delhi,"Anand Vihar, Delhi - DPCC",01-10-2025 07:00:00,28.647622,77.3158090,OZONE,1,11,3
India,Chhattisgarh,Korba,"Urja Nagar, Korba - CECB",01-10-2025 07:00:00,22.348441,82.549611,NH3,1,2,2
India,Chhattisgarh,Milupara,"Govt. Higher Secondary School, Milupara - CECB",01-10-2025 07:00:00,22.1910172,83.5197009,PM10,2,162,64
India,Chhattisgarh,Raipur,"AIIMS, Raipur - CECB",01-10-2025 07:00:00,21.258815,81.578979,CO,24,34,29
India,Chhattisgarh,Raipur,"Bhatagaon New ISBT, Raipur - CECB",01-10-2025 07:00:00,21.219665,81.630094,PM10,33,86,55
India,Chhattisgarh,Raipur,"Bhatagaon New ISBT, Raipur - CECB",01-10-2025 07:00:00,21.219665,81.630094,NH3,2,2,2
India,Chhattisgarh,Raipur,"Bhatagaon New ISBT, Raipur - CECB",01-10-2025 07:00:00,21.219665,81.630094,SO2,6,7,6
India,Chhattisgarh,Raipur,"Bhatagaon New ISBT, Raipur - CECB",01-10-2025 07:00:00,21.219665,81.630094,OZONE,8,110,10
India,Chhattisgarh,Raipur,"Krishak Nagar, Raipur - CECB",01-10-2025 07:00:00,21.237755,81.705301,PM2.5,20,50,37
India,Chhattisgarh,Raipur,"Krishak Nagar, Raipur - CECB",01-10-2025 07:00:00,21.237755,81.705301,PM10,24,66,48
India,Delhi,Delhi,"DTU, Delhi - CPCB",01-10-2025 07:00:00,28.7500499,77.1112615,CO,10,36,30
India,Delhi,Delhi,"Dr. Karni Singh Shooting Range, Delhi - DPCC",01-10-2025 07:00:00,28.498571,77.264840,NO2,30,88,43
India,Delhi,Delhi,"Dwarka-Sector 8, Delhi - DPCC ",01-10-2025 07:00:00,28.5710274,77.0719006,NH3,5,8,6
India,Delhi,Delhi,"Dwarka-Sector 8, Delhi - DPCC ",01-10-2025 07:00:00,28.5710274,77.0719006,SO2,12,19,15
India,Delhi,Delhi,"Dwarka-Sector 8, Delhi - DPCC ",01-10-2025 07:00:00,28.5710274,77.0719006,OZONE,1,47,7
India,Delhi,Delhi,"IGI Airport (T3), Delhi - IMD",01-10-2025 07:00:00,28.5627763,77.1180053,OZONE,1,2,1
India,Delhi,Delhi,"IHBAS, Dilshad Garden, Delhi - CPCB",01-10-2025 07:00:00,28.6811736,77.3025234,OZONE,13,51,21
India,Delhi,Delhi,"ITO, Delhi - CPCB",01-10-2025 07:00:00,28.628624,77.241060,NO2,76,96,87
India,Delhi,Delhi,"Ashok Vihar, Delhi - DPCC",01-10-2025 07:00:00,28.695381,77.181665,NO2,19,82,42
India,Delhi,Delhi,"Ashok Vihar, Delhi - DPCC",01-10-2025 07:00:00,28.695381,77.181665,SO2,6,14,10
India,Delhi,Delhi,"Ashok Vihar, Delhi - DPCC",01-10-2025 07:00:00,28.695381,77.181665,CO,25,70,35
India,Delhi,Delhi,"Aya Nagar, Delhi - IMD",01-10-2025 07:00:00,28.4706914,77.1099364,PM10,13,129,67
India,Delhi,Delhi,"Aya Nagar, Delhi - IMD",01-10-2025 07:00:00,28.4706914,77.1099364,CO,32,58,37
India,Delhi,Delhi,"Bawana, Delhi - DPCC",01-10-2025 07:00:00,28.776200,77.051074,CO,45,92,59
India,Delhi,Delhi,"CRRI Mathura Road, Delhi - IMD",01-10-2025 07:00:00,28.5512005,77.2735737,CO,24,93,48
India,Delhi,Delhi,"Chandni Chowk, Delhi - IITM",01-10-2025 07:00:00,28.656756,77.227234,NH3,7,17,11
India,Delhi,Delhi,"Chandni Chowk, Delhi - IITM",01-10-2025 07:00:00,28.656756,77.227234,CO,44,68,57
India,Delhi,Delhi,"Major Dhyan Chand National Stadium, Delhi - DPCC",01-10-2025 07:00:00,28.611281,77.237738,SO2,2,12,5
India,Delhi,Delhi,"Mandir Marg, Delhi - DPCC",01-10-2025 07:00:00,28.636429,77.201067,PM2.5,2,117,46
India,Delhi,Delhi,"Mundka, Delhi - DPCC",01-10-2025 07:00:00,28.684678,77.076574,NH3,4,5,4
India,Delhi,Delhi,"Mundka, Delhi - DPCC",01-10-2025 07:00:00,28.684678,77.076574,OZONE,3,50,8
India,Delhi,Delhi,"Najafgarh, Delhi - DPCC",01-10-2025 07:00:00,28.570173,76.933762,PM2.5,NA,NA,NA
India,Delhi,Delhi,"Najafgarh, Delhi - DPCC",01-10-2025 07:00:00,28.570173,76.933762,SO2,NA,NA,NA
India,Delhi,Delhi,"Narela, Delhi - DPCC",01-10-2025 07:00:00,28.822836,77.101981,SO2,2,10,5
India,Chandigarh,Chandigarh,"Sector-25, Chandigarh - CPCC",01-10-2025 07:00:00,30.751462,76.762879,PM2.5,25,67,50
India,Chandigarh,Chandigarh,"Sector-25, Chandigarh - CPCC",01-10-2025 07:00:00,30.751462,76.762879,CO,18,58,23
India,Chandigarh,Chandigarh,"Sector-53, Chandigarh - CPCC",01-10-2025 07:00:00,30.719859,76.738637,NH3,3,6,4
India,Chhattisgarh,Bhilai,"32Bungalows, Bhilai - CECB",01-10-2025 07:00:00,21.194815,81.314770,SO2,6,9,8
India,Chhattisgarh,Bhilai,"32Bungalows, Bhilai - CECB",01-10-2025 07:00:00,21.194815,81.314770,OZONE,6,32,10
India,Delhi,Delhi,"Jahangirpuri, Delhi - DPCC",01-10-2025 07:00:00,28.732820,77.170633,PM2.5,NA,NA,NA
India,Delhi,Delhi,"Jahangirpuri, Delhi - DPCC",01-10-2025 07:00:00,28.732820,77.170633,OZONE,3,51,9
India,Delhi,Delhi,"Jawaharlal Nehru Stadium, Delhi - DPCC",01-10-2025 07:00:00,28.580280,77.233829,SO2,4,15,10
India,Delhi,Delhi,"Lodhi Road, Delhi - IMD",01-10-2025 07:00:00,28.5918245,77.2273074,PM2.5,10,145,45
India,Delhi,Delhi,"Lodhi Road, Delhi - IMD",01-10-2025 07:00:00,28.5918245,77.2273074,OZONE,2,43,15
India,Chhattisgarh,Chhal,"Nawapara SECL Colony, Chhal - CECB",01-10-2025 07:00:00,22.118125,83.140608,PM10,20,174,60
India,Chhattisgarh,Chhal,"Nawapara SECL Colony, Chhal - CECB",01-10-2025 07:00:00,22.118125,83.140608,NH3,6,6,6
India,Chhattisgarh,Korba,"Rampur, Korba - CECB",01-10-2025 07:00:00,22.368195,82.746431,PM10,13,20,14
India,Chhattisgarh,Korba,"Rampur, Korba - CECB",01-10-2025 07:00:00,22.368195,82.746431,NH3,1,1,1
India,Bihar,Sasaram,"Dada Peer, Sasaram - BSPCB",01-10-2025 07:00:00,24.952822,84.002396,NH3,2,3,3
India,Bihar,Sasaram,"Dada Peer, Sasaram - BSPCB",01-10-2025 07:00:00,24.952822,84.002396,SO2,1,5,3
India,Bihar,Siwan,"Chitragupta Nagar, Siwan - BSPCB",01-10-2025 07:00:00,26.2271665,84.3570427,PM10,34,298,82
India,Haryana,Gurugram,"NISE Gwal Pahari, Gurugram - IMD",01-10-2025 07:00:00,28.422681,77.148944,OZONE,8,24,13
India,Haryana,Gurugram,"Sector-51, Gurugram - HSPCB",01-10-2025 07:00:00,28.4227,77.0667,PM10,31,147,79
India,Haryana,Gurugram,"Sector-51, Gurugram - HSPCB",01-10-2025 07:00:00,28.4227,77.0667,OZONE,NA,NA,NA
India,Haryana,Kurukshetra,"Sector-7, Kurukshetra - HSPCB",01-10-2025 07:00:00,29.966942,76.875879,NO2,16,22,19
India,Haryana,Kurukshetra,"Sector-7, Kurukshetra - HSPCB",01-10-2025 07:00:00,29.966942,76.875879,OZONE,9,60,12
India,Haryana,Manesar,"Sector-2 IMT, Manesar - HSPCB",01-10-2025 07:00:00,28.360699,76.936090,PM10,NA,NA,NA
India,Haryana,Manesar,"Sector-2 IMT, Manesar - HSPCB",01-10-2025 07:00:00,28.360699,76.936090,NO2,NA,NA,NA
India,Haryana,Narnaul,"Shastri Nagar, Narnaul - HSPCB",01-10-2025 07:00:00,28.060249,76.113115,PM10,73,104,87
India,Haryana,Narnaul,"Shastri Nagar, Narnaul - HSPCB",01-10-2025 07:00:00,28.060249,76.113115,NO2,33,40,36
India,Haryana,Narnaul,"Shastri Nagar, Narnaul - HSPCB",01-10-2025 07:00:00,28.060249,76.113115,SO2,11,12,11
India,Haryana,Bahadurgarh,"Arya Nagar, Bahadurgarh - HSPCB",01-10-2025 07:00:00,28.6701,76.9254,SO2,5,7,6
India,Haryana,Bhiwani,"H.B. Colony, Bhiwani - HSPCB",01-10-2025 07:00:00,28.806223,76.141105,PM2.5,12,50,23
India,Haryana,Bhiwani,"H.B. Colony, Bhiwani - HSPCB",01-10-2025 07:00:00,28.806223,76.141105,NO2,32,35,33
India,Haryana,Faridabad,"New Industrial Town, Faridabad - HSPCB",01-10-2025 07:00:00,28.39072,77.30059,CO,NA,NA,NA
India,Haryana,Faridabad,"Sector 11, Faridabad - HSPCB",01-10-2025 07:00:00,28.376058,77.315741,OZONE,19,21,20
India,Haryana,Faridabad,"Sector 30, Faridabad - HSPCB",01-10-2025 07:00:00,28.4417,77.3217,PM2.5,38,65,43
India,Haryana,Faridabad,"Sector 30, Faridabad - HSPCB",01-10-2025 07:00:00,28.4417,77.3217,NH3,11,12,11
India,Haryana,Gurugram,"NISE Gwal Pahari, Gurugram - IMD",01-10-2025 07:00:00,28.422681,77.148944,PM2.5,9,118,46
India,Gujarat,Ahmedabad,"SAC ISRO Bopal, Ahmedabad - IITM",01-10-2025 07:00:00,23.041137,72.456691,PM2.5,11,62,31
India,Gujarat,Ahmedabad,"SAC ISRO Satellite, Ahmedabad - IITM",01-10-2025 07:00:00,23.023389,72.515201,NH3,3,4,3
India,Gujarat,Ahmedabad,"SAC ISRO Satellite, Ahmedabad - IITM",01-10-2025 07:00:00,23.023389,72.515201,SO2,5,44,19
India,Gujarat,Ahmedabad,"SAC ISRO Satellite, Ahmedabad - IITM",01-10-2025 07:00:00,23.023389,72.515201,CO,18,66,39
India,Gujarat,Ahmedabad,"SVPI Airport Hansol, Ahmedabad - IITM",01-10-2025 07:00:00,23.076793,72.627874,NH3,1,1,1
India,Gujarat,Ankleshwar,"GIDC, Ankleshwar - GPCB",01-10-2025 07:00:00,21.613267,73.010555,CO,28,64,34
India,Gujarat,Gandhinagar,"GIFT City, Gandhinagar - IITM",01-10-2025 07:00:00,23.163798,72.677768,NO2,9,25,15
India,Gujarat,Gandhinagar,"IIPHG Lekawada, Gandhinagar - IITM",01-10-2025 07:00:00,23.243639,72.68994,PM2.5,3,46,17
India,Gujarat,Gandhinagar,"IIPHG Lekawada, Gandhinagar - IITM",01-10-2025 07:00:00,23.243639,72.68994,SO2,1,9,4
India,Gujarat,Gandhinagar,"Sector-10, Gandhinagar - GPCB",01-10-2025 07:00:00,23.221714,72.654328,SO2,4,11,7
India,Gujarat,Gandhinagar,"Sector-10, Gandhinagar - GPCB",01-10-2025 07:00:00,23.221714,72.654328,OZONE,4,11,4
India,Gujarat,Surat,"Science Center, Surat - SMC",01-10-2025 07:00:00,21.170046,72.795405,NO2,17,26,21
India,Gujarat,Vatva,"Phase-4 GIDC, Vatva - GPCB",01-10-2025 07:00:00,22.969611,72.643500,SO2,5,7,6
India,Haryana,Bahadurgarh,"Arya Nagar, Bahadurgarh - HSPCB",01-10-2025 07:00:00,28.6701,76.9254,PM10,34,182,83
India,Delhi,Delhi,"Narela, Delhi - DPCC",01-10-2025 07:00:00,28.822836,77.101981,CO,24,66,37
India,Delhi,Delhi,"Nehru Nagar, Delhi - DPCC",01-10-2025 07:00:00,28.567890,77.250515,OZONE,4,75,12
India,Delhi,Delhi,"North Campus, DU, Delhi - IMD",01-10-2025 07:00:00,28.6573814,77.1585447,PM10,6,143,69
India,Delhi,Delhi,"Okhla Phase-2, Delhi - DPCC",01-10-2025 07:00:00,28.530785,77.271255,PM10,29,201,93
India,Delhi,Delhi,"Okhla Phase-2, Delhi - DPCC",01-10-2025 07:00:00,28.530785,77.271255,NH3,5,9,7
India,Delhi,Delhi,"Okhla Phase-2, Delhi - DPCC",01-10-2025 07:00:00,28.530785,77.271255,OZONE,2,47,11
India,Delhi,Delhi,"Patparganj, Delhi - DPCC",01-10-2025 07:00:00,28.623763,77.287209,NH3,5,6,5
India,Haryana,Palwal,"Shyam Nagar, Palwal - HSPCB",01-10-2025 07:00:00,28.1485564,77.3320667,SO2,12,13,13
India,Haryana,Panchgaon,"Amity University, Panchgaon - IITM",01-10-2025 07:00:00,28.3153,76.9143,PM10,17,101,49
India,Haryana,Panipat,"Sector-18, Panipat - HSPCB",01-10-2025 07:00:00,29.432304,76.972765,PM10,NA,NA,NA
India,Haryana,Sirsa,"F-Block, Sirsa - HSPCB",01-10-2025 07:00:00,29.536400,75.015800,CO,34,57,44
India,Haryana,Sirsa,"F-Block, Sirsa - HSPCB",01-10-2025 07:00:00,29.536400,75.015800,OZONE,10,27,16
India,Delhi,Delhi,"Pusa, Delhi - DPCC",01-10-2025 07:00:00,28.639652,77.146275,PM2.5,12,93,44
India,Delhi,Delhi,"Pusa, Delhi - IMD",01-10-2025 07:00:00,28.636110,77.173332,PM2.5,5,77,34
India,Delhi,Delhi,"Pusa, Delhi - IMD",01-10-2025 07:00:00,28.636110,77.173332,NO2,14,48,28
India,Delhi,Delhi,"Rohini, Delhi - DPCC",01-10-2025 07:00:00,28.732528,77.119920,OZONE,3,26,6
India,Delhi,Delhi,"Shadipur, Delhi - CPCB",01-10-2025 07:00:00,28.6514781,77.1473105,PM2.5,52,78,60
India,Delhi,Delhi,"Shadipur, Delhi - CPCB",01-10-2025 07:00:00,28.6514781,77.1473105,SO2,7,11,9
India,Delhi,Delhi,"Sirifort, Delhi - CPCB",01-10-2025 07:00:00,28.5504249,77.2159377,NO2,12,40,27
India,Delhi,Delhi,"Vivek Vihar, Delhi - DPCC",01-10-2025 07:00:00,28.672342,77.315260,PM2.5,21,140,57
India,Delhi,Delhi,"Vivek Vihar, Delhi - DPCC",01-10-2025 07:00:00,28.672342,77.315260,SO2,13,24,17
India,Delhi,Delhi,"Vivek Vihar, Delhi - DPCC",01-10-2025 07:00:00,28.672342,77.315260,CO,32,57,38
India,Delhi,Delhi,"Wazirpur, Delhi - DPCC",01-10-2025 07:00:00,28.699793,77.165453,NO2,42,97,64
India,Gujarat,Ahmedabad,"Chandkheda, Ahmedabad - IITM",01-10-2025 07:00:00,23.107969,72.574648,PM2.5,13,42,24
India,Gujarat,Ahmedabad,"Chandkheda, Ahmedabad - IITM",01-10-2025 07:00:00,23.107969,72.574648,NO2,10,54,31
India,Gujarat,Ahmedabad,"Gyaspur, Ahmedabad - IITM",01-10-2025 07:00:00,22.977134,72.553024,PM10,43,61,50
India,Gujarat,Ahmedabad,"Rakhial, Ahmedabad - IITM",01-10-2025 07:00:00,23.016834,72.625775,PM10,21,56,37
India,Kerala,Thrissur,"Corporation Ground, Thrissur - Kerala PCB",01-10-2025 07:00:00,10.532400,76.215900,PM10,47,57,53
India,Madhya Pradesh,Bhopal,"Idgah Hills, Bhopal - MPPCB",01-10-2025 07:00:00,23.264759,77.381568,SO2,10,11,11
India,Madhya Pradesh,Bhopal,"Idgah Hills, Bhopal - MPPCB",01-10-2025 07:00:00,23.264759,77.381568,OZONE,10,30,15
India,Madhya Pradesh,Bhopal,"Paryavaran Parisar, Bhopal - MPPCB",01-10-2025 07:00:00,23.210494,77.425409,PM2.5,12,38,24
India,Madhya Pradesh,Bhopal,"T T Nagar, Bhopal - MPPCB",01-10-2025 07:00:00,23.233584,77.400574,PM10,28,70,42
India,Madhya Pradesh,Bhopal,"T T Nagar, Bhopal - MPPCB",01-10-2025 07:00:00,23.233584,77.400574,NO2,18,37,24
India,Madhya Pradesh,Bhopal,"T T Nagar, Bhopal - MPPCB",01-10-2025 07:00:00,23.233584,77.400574,CO,22,92,37
India,Madhya Pradesh,Dewas,"Bhopal Chauraha, Dewas - MPPCB",01-10-2025 07:00:00,22.9682591,76.064118,PM10,56,159,90
India,Madhya Pradesh,Dewas,"Bhopal Chauraha, Dewas - MPPCB",01-10-2025 07:00:00,22.9682591,76.064118,NO2,50,70,58
India,Madhya Pradesh,Dewas,"Bhopal Chauraha, Dewas - MPPCB",01-10-2025 07:00:00,22.9682591,76.064118,CO,12,62,33
India,Madhya Pradesh,Gwalior,"City Center, Gwalior - MPPCB",01-10-2025 07:00:00,26.203442,78.193251,NH3,1,1,1
India,Madhya Pradesh,Gwalior,"Deen Dayal Nagar, Gwalior - MPPCB",01-10-2025 07:00:00,26.259242,78.216432,OZONE,1,82,53
India,Madhya Pradesh,Gwalior,"Maharaj Bada, Gwalior - MPPCB",01-10-2025 07:00:00,26.200388,78.147714,NH3,2,2,2
India,Madhya Pradesh,Indore,"Chhoti Gwaltoli, Indore - MPPCB",01-10-2025 07:00:00,22.4310,75.5213,OZONE,9,54,9
India,Karnataka,Koppal,"Diwator Nagar, Koppal - KSPCB",01-10-2025 07:00:00,15.347630,76.181767,PM10,NA,NA,NA
India,Karnataka,Koppal,"Diwator Nagar, Koppal - KSPCB",01-10-2025 07:00:00,15.347630,76.181767,NH3,NA,NA,NA
India,Karnataka,Mysuru,"Hebbal 1st Stage, Mysuru - KSPCB",01-10-2025 07:00:00,12.21041,76.37376,PM2.5,15,46,25
India,Karnataka,Ramanagara,"Vijay Nagar, Ramanagara - KSPCB",01-10-2025 07:00:00,12.733409,77.298051,NO2,NA,NA,NA
India,Karnataka,Shivamogga,"Vinoba Nagara, Shivamogga - KSPCB",01-10-2025 07:00:00,13.940000,75.555917,CO,16,30,25
India,Karnataka,Vijayapura,"Ibrahimpur, Vijayapura - KSPCB",01-10-2025 07:00:00,16.802639,75.722694,PM2.5,NA,NA,NA
India,Madhya Pradesh,Indore,"Maguda Nagar, Indore - IMC",01-10-2025 07:00:00,22.7524,75.8872,NH3,NA,NA,NA
India,Madhya Pradesh,Indore,"Regional Park, Indore - IMC",01-10-2025 07:00:00,22.6780,75.8559,OZONE,10,27,19
India,Madhya Pradesh,Indore,"Residency Area, Indore - IMC",01-10-2025 07:00:00,22.7084,75.8815,CO,13,17,16
India,Madhya Pradesh,Jabalpur,"Gupteshwar, Jabalpur - JMC",01-10-2025 07:00:00,23.142888,79.916147,PM2.5,NA,NA,NA
India,Madhya Pradesh,Jabalpur,"Marhatal, Jabalpur - MPPCB",01-10-2025 07:00:00,23.168606,79.932247,PM10,6,84,32
India,Karnataka,Bengaluru,"RVCE-Mailasandra, Bengaluru - KSPCB",01-10-2025 07:00:00,12.921418,77.502466,NH3,NA,NA,NA
India,Karnataka,Bengaluru,"RVCE-Mailasandra, Bengaluru - KSPCB",01-10-2025 07:00:00,12.921418,77.502466,CO,22,34,28
India,Karnataka,Bengaluru,"RVCE-Mailasandra, Bengaluru - KSPCB",01-10-2025 07:00:00,12.921418,77.502466,OZONE,21,22,21
India,Karnataka,Chamarajanagar,"Urban, Chamarajanagar - KSPCB",01-10-2025 07:00:00,11.55358,76.55521,PM10,30,50,44
India,Karnataka,Chamarajanagar,"Urban, Chamarajanagar - KSPCB",01-10-2025 07:00:00,11.55358,76.55521,CO,15,120,32
India,Karnataka,Chamarajanagar,"Urban, Chamarajanagar - KSPCB",01-10-2025 07:00:00,11.55358,76.55521,OZONE,15,29,23
India,Karnataka,Bengaluru,"Hebbal, Bengaluru - KSPCB",01-10-2025 07:00:00,13.029152,77.585901,NO2,6,22,17
India,Karnataka,Bengaluru,"Hombegowda Nagar, Bengaluru - KSPCB",01-10-2025 07:00:00,12.938539,77.590100,PM2.5,12,32,22
India,Karnataka,Bengaluru,"Hombegowda Nagar, Bengaluru - KSPCB",01-10-2025 07:00:00,12.938539,77.590100,SO2,6,12,10
India,Karnataka,Bengaluru,"Hombegowda Nagar, Bengaluru - KSPCB",01-10-2025 07:00:00,12.938539,77.590100,OZONE,6,23,10
India,Karnataka,Bengaluru,"Peenya, Bengaluru - CPCB",01-10-2025 07:00:00,13.0270199,77.494094,CO,18,34,23
India,Kerala,Kannur,"Thavakkara, Kannur - Kerala PCB",01-10-2025 07:00:00,11.875000,75.373200,NO2,15,17,16
India,Kerala,Kannur,"Thavakkara, Kannur - Kerala PCB",01-10-2025 07:00:00,11.875000,75.373200,CO,14,16,14
India,Kerala,Kollam,"Polayathode, Kollam - Kerala PCB",01-10-2025 07:00:00,8.8787,76.6073,CO,12,19,15
India,Karnataka,Davanagere,"Devaraj Urs Badavane, Davanagere - KSPCB",01-10-2025 07:00:00,14.475800,75.905200,CO,4,30,12
India,Karnataka,Dharwad,"Kalabhavan, Dharwad - KSPCB",01-10-2025 07:00:00,15.459706,75.008381,PM10,46,66,52
India,Jammu_and_Kashmir,Srinagar,"Rajbagh, Srinagar - JKSPCB",01-10-2025 07:00:00,34.066206,74.819820,CO,NA,NA,NA
India,Maharashtra,Mumbai,"Chakala-Andheri East, Mumbai - IITM",01-10-2025 07:00:00,19.11074,72.86084,SO2,1,16,5
India,Maharashtra,Mumbai,"Chembur, Mumbai - MPCB",01-10-2025 07:00:00,19.0364585,72.8954371,PM10,22,48,33
India,Maharashtra,Mumbai,"Chembur, Mumbai - MPCB",01-10-2025 07:00:00,19.0364585,72.8954371,NH3,4,9,6
India,Maharashtra,Mumbai,"Chembur, Mumbai - MPCB",01-10-2025 07:00:00,19.0364585,72.8954371,SO2,11,129,48
India,Maharashtra,Mumbai,"Chembur, Mumbai - MPCB",01-10-2025 07:00:00,19.0364585,72.8954371,CO,15,46,30
India,Maharashtra,Mumbai,"Chhatrapati Shivaji Intl. Airport (T2), Mumbai - MPCB",01-10-2025 07:00:00,19.10078,72.87462,PM10,62,70,66
India,Maharashtra,Mumbai,"Colaba, Mumbai - MPCB",01-10-2025 07:00:00,18.910000,72.820000,PM10,11,111,53
India,Maharashtra,Mumbai,"Colaba, Mumbai - MPCB",01-10-2025 07:00:00,18.910000,72.820000,SO2,NA,NA,NA
India,Maharashtra,Mumbai,"Deonar, Mumbai - IITM",01-10-2025 07:00:00,19.04946,72.9230,CO,6,44,24
India,Maharashtra,Mumbai,"Deonar, Mumbai - IITM",01-10-2025 07:00:00,19.04946,72.9230,OZONE,NA,NA,NA
India,Maharashtra,Mumbai,"Ghatkopar, Mumbai - BMC",01-10-2025 07:00:00,19.083694,72.920967,PM10,28,59,44
India,Maharashtra,Mumbai,"Ghatkopar, Mumbai - BMC",01-10-2025 07:00:00,19.083694,72.920967,NO2,16,30,20
India,Maharashtra,Mumbai,"Ghatkopar, Mumbai - BMC",01-10-2025 07:00:00,19.083694,72.920967,CO,10,37,23
India,Madhya Pradesh,Pithampur,"Sector-2 Industrial Area, Pithampur - MPPCB",01-10-2025 07:00:00,22.624758,75.675238,SO2,23,30,25
India,Madhya Pradesh,Pithampur,"Sector-2 Industrial Area, Pithampur - MPPCB",01-10-2025 07:00:00,22.624758,75.675238,OZONE,9,43,15
India,Madhya Pradesh,Sagar,"Civil Lines, Sagar - MPPCB",01-10-2025 07:00:00,23.838586,78.759431,PM2.5,13,62,32
India,Madhya Pradesh,Sagar,"Civil Lines, Sagar - MPPCB",01-10-2025 07:00:00,23.838586,78.759431,NO2,4,6,5
India,Madhya Pradesh,Sagar,"Civil Lines, Sagar - MPPCB",01-10-2025 07:00:00,23.838586,78.759431,NH3,1,2,2
India,Madhya Pradesh,Sagar,"Civil Lines, Sagar - MPPCB",01-10-2025 07:00:00,23.838586,78.759431,SO2,11,18,13
India,Madhya Pradesh,Satna,"Bandhavgar Colony, Satna - Birla Cement",01-10-2025 07:00:00,24.58434363,80.8549414,PM2.5,42,46,44
India,Maharashtra,Ahmednagar,"Tarakpur, Ahmednagar - MPCB",01-10-2025 07:00:00,19.10122,74.73339,SO2,3,9,6
India,Maharashtra,Ahmednagar,"Tarakpur, Ahmednagar - MPCB",01-10-2025 07:00:00,19.10122,74.73339,OZONE,2,17,2
India,Maharashtra,Aurangabad,"Rachnakar Colony, Aurangabad - MPCB",01-10-2025 07:00:00,19.863756,75.321188,SO2,8,24,17
India,Maharashtra,Badlapur,"Katrap, Badlapur - MPCB",01-10-2025 07:00:00,19.16485,73.23409,NH3,3,8,5
India,Maharashtra,Badlapur,"Katrap, Badlapur - MPCB",01-10-2025 07:00:00,19.16485,73.23409,CO,28,42,33
India,Maharashtra,Badlapur,"Katrap, Badlapur - MPCB",01-10-2025 07:00:00,19.16485,73.23409,OZONE,9,38,11
India,Maharashtra,Bhiwandi,"Gokul Nagar, Bhiwandi - MPCB",01-10-2025 07:00:00,19.309073,73.057223,PM10,NA,NA,NA
India,Maharashtra,Boisar,"Khaira, Boisar - MPCB",01-10-2025 07:00:00,19.786089,72.757971,OZONE,30,32,31
India,Maharashtra,Chandrapur,"Chauhan Colony, Chandrapur - MPCB",01-10-2025 07:00:00,19.962900,79.298714,PM10,44,156,79
India,Maharashtra,Chandrapur,"Chauhan Colony, Chandrapur - MPCB",01-10-2025 07:00:00,19.962900,79.298714,NO2,8,15,12
India,Maharashtra,Chandrapur,"Chauhan Colony, Chandrapur - MPCB",01-10-2025 07:00:00,19.962900,79.298714,NH3,3,3,3
India,Maharashtra,Chandrapur,"MIDC Khutala, Chandrapur - MPCB",01-10-2025 07:00:00,19.9775302,79.2337086,PM2.5,8,90,39
India,Maharashtra,Chandrapur,"MIDC Khutala, Chandrapur - MPCB",01-10-2025 07:00:00,19.9775302,79.2337086,NO2,2,7,4
India,Maharashtra,Chandrapur,"MIDC Khutala, Chandrapur - MPCB",01-10-2025 07:00:00,19.9775302,79.2337086,CO,36,42,39
India,Maharashtra,Dhule,"Deopur, Dhule - MPCB",01-10-2025 07:00:00,20.918946,74.776388,NH3,4,6,5
India,Maharashtra,Jalna,"Old MIDC, Jalna - MPCB",01-10-2025 07:00:00,19.854616,75.905894,NH3,3,5,4
India,Maharashtra,Kalyan,"Khadakpada, Kalyan - MPCB",01-10-2025 07:00:00,19.25292,73.142019,PM10,22,108,58
India,Maharashtra,Kalyan,"Khadakpada, Kalyan - MPCB",01-10-2025 07:00:00,19.25292,73.142019,CO,11,15,13
India,Maharashtra,Kolhapur,"Shivaji University, Kolhapur - MPCB",01-10-2025 07:00:00,16.6870449,74.2505872,PM2.5,13,48,31
India,Maharashtra,Kolhapur,"Shivaji University, Kolhapur - MPCB",01-10-2025 07:00:00,16.6870449,74.2505872,PM10,15,48,34
India,Maharashtra,Kolhapur,"Shivaji University, Kolhapur - MPCB",01-10-2025 07:00:00,16.6870449,74.2505872,NH3,3,3,3
India,Maharashtra,Kolhapur,"Shivaji University, Kolhapur - MPCB",01-10-2025 07:00:00,16.6870449,74.2505872,OZONE,6,20,7
India,Maharashtra,Kolhapur,"Sinchan Bhavan, Kolhapur - MPCB",01-10-2025 07:00:00,16.7143745,74.2426398,SO2,1,2,1
India,Maharashtra,Kolhapur,"Sinchan Bhavan, Kolhapur - MPCB",01-10-2025 07:00:00,16.7143745,74.2426398,CO,10,26,15
India,Maharashtra,Kolhapur,"Sinchan Bhavan, Kolhapur - MPCB",01-10-2025 07:00:00,16.7143745,74.2426398,OZONE,2,30,5
India,Maharashtra,Latur,"Sawe Wadi, Latur - MPCB",01-10-2025 07:00:00,18.39963,76.57452,NO2,3,36,16
India,Maharashtra,Latur,"Sawe Wadi, Latur - MPCB",01-10-2025 07:00:00,18.39963,76.57452,CO,6,32,10
India,Maharashtra,Malegaon,"Mahesh Nagar, Malegaon - MPCB",01-10-2025 07:00:00,20.555712,74.529236,PM10,62,100,81
India,Madhya Pradesh,Jabalpur,"Marhatal, Jabalpur - MPPCB",01-10-2025 07:00:00,23.168606,79.932247,NO2,14,56,26
India,Madhya Pradesh,Jabalpur,"Suhagi, Jabalpur - JMC",01-10-2025 07:00:00,23.218135,79.957770,PM2.5,NA,NA,NA
India,Madhya Pradesh,Katni,"Gole Bazar, Katni - MPPCB",01-10-2025 07:00:00,23.50016,80.23284,NH3,3,3,3
India,Madhya Pradesh,Katni,"Gole Bazar, Katni - MPPCB",01-10-2025 07:00:00,23.50016,80.23284,OZONE,10,72,31
India,Madhya Pradesh,Maihar,"Sahilara, Maihar - KJS Cements",01-10-2025 07:00:00,24.2613009,80.7231783,PM10,16,500,157
India,Madhya Pradesh,Mandideep,"Sector-D Industrial Area, Mandideep - MPPCB",01-10-2025 07:00:00,23.108440,77.511428,PM2.5,13,362,55
India,Maharashtra,Akola,"Ramdaspeth, Akola - MPCB",01-10-2025 07:00:00,20.719516,77.000253,SO2,6,9,7
India,Maharashtra,Amravati,"Shri Shivaji Science College, Amravati - MPCB",01-10-2025 07:00:00,20.939198,77.765701,NH3,1,1,1
India,Maharashtra,Amravati,"Shri Shivaji Science College, Amravati - MPCB",01-10-2025 07:00:00,20.939198,77.765701,SO2,10,13,12
India,Maharashtra,Aurangabad,"MIDC Chilkalthana, Aurangabad - MPCB",01-10-2025 07:00:00,19.875620,75.387310,NO2,NA,NA,NA
India,Maharashtra,Aurangabad,"More Chowk Waluj, Aurangabad - MPCB",01-10-2025 07:00:00,19.8389439,75.244448,PM10,27,53,40
India,Maharashtra,Aurangabad,"Rachnakar Colony, Aurangabad - MPCB",01-10-2025 07:00:00,19.863756,75.321188,PM2.5,19,96,43
India,Maharashtra,Mumbai,"Kandivali East, Mumbai - MPCB",01-10-2025 07:00:00,19.205800,72.868200,NO2,NA,NA,NA
India,Maharashtra,Mumbai,"Kandivali East, Mumbai - MPCB",01-10-2025 07:00:00,19.205800,72.868200,NH3,NA,NA,NA
India,Maharashtra,Mumbai,"Kandivali West, Mumbai - BMC",01-10-2025 07:00:00,19.215859,72.831718,PM10,20,46,34
India,Maharashtra,Mumbai,"Khindipada-Bhandup West, Mumbai - IITM",01-10-2025 07:00:00,19.1653323,72.922099,NH3,4,5,5
India,Maharashtra,Mumbai,"Khindipada-Bhandup West, Mumbai - IITM",01-10-2025 07:00:00,19.1653323,72.922099,CO,12,58,46
India,Maharashtra,Mumbai,"Kurla, Mumbai - MPCB",01-10-2025 07:00:00,19.0863,72.8888,PM10,47,64,56
India,Maharashtra,Mumbai,"Kurla, Mumbai - MPCB",01-10-2025 07:00:00,19.0863,72.8888,NH3,1,2,1
India,Maharashtra,Mumbai,"Kurla, Mumbai - MPCB",01-10-2025 07:00:00,19.0863,72.8888,SO2,36,37,37
India,Maharashtra,Mumbai,"Bandra Kurla Complex, Mumbai - IITM",01-10-2025 07:00:00,19.053536,72.84643,PM10,28,67,48
India,Maharashtra,Mumbai,"Bandra Kurla Complex, Mumbai - MPCB",01-10-2025 07:00:00,19.065931,72.862131,PM10,60,91,65
India,Maharashtra,Mumbai,"Borivali East, Mumbai - IITM",01-10-2025 07:00:00,19.23241,72.86895,PM10,48,81,62
India,Maharashtra,Mumbai,"Borivali East, Mumbai - IITM",01-10-2025 07:00:00,19.23241,72.86895,OZONE,1,24,2
India,Maharashtra,Mumbai,"Borivali East, Mumbai - MPCB",01-10-2025 07:00:00,19.2243333,72.8658113,NH3,1,1,1
India,Maharashtra,Mumbai,"Byculla, Mumbai - BMC",01-10-2025 07:00:00,18.9767,72.8380,PM2.5,16,31,23
India,Maharashtra,Nashik,"Pandav Nagari, Nashik - MPCB",01-10-2025 07:00:00,19.9591346,73.7788008,SO2,2,9,5
India,Maharashtra,Navi Mumbai,"Kopripada-Vashi, Navi Mumbai - MPCB",01-10-2025 07:00:00,19.090337,73.014232,PM2.5,10,32,17
India,Maharashtra,Navi Mumbai,"Kopripada-Vashi, Navi Mumbai - MPCB",01-10-2025 07:00:00,19.090337,73.014232,PM10,24,40,32
India,Maharashtra,Navi Mumbai,"Kopripada-Vashi, Navi Mumbai - MPCB",01-10-2025 07:00:00,19.090337,73.014232,NO2,6,17,12
India,Maharashtra,Navi Mumbai,"Mahape, Navi Mumbai - MPCB",01-10-2025 07:00:00,19.1135051,73.008978,PM10,35,49,43
India,Maharashtra,Navi Mumbai,"Sanpada, Navi Mumbai - MPCB",01-10-2025 07:00:00,19.0575752,73.0151367,CO,4,31,24
India,Maharashtra,Navi Mumbai,"Tondare-Taloja, Navi Mumbai - MPCB",01-10-2025 07:00:00,19.0630,73.1209,PM2.5,26,64,43
India,Maharashtra,Nagpur,"Ram Nagar, Nagpur - MPCB",01-10-2025 07:00:00,21.143383,79.048912,CO,12,26,15
India,Maharashtra,Nanded,"Sneh Nagar, Nanded - MPCB",01-10-2025 07:00:00,19.173852,77.296291,PM2.5,12,41,23
India,Maharashtra,Nanded,"Sneh Nagar, Nanded - MPCB",01-10-2025 07:00:00,19.173852,77.296291,NO2,11,44,20
India,Maharashtra,Nanded,"Sneh Nagar, Nanded - MPCB",01-10-2025 07:00:00,19.173852,77.296291,OZONE,2,46,13
India,Maharashtra,Nashik,"Gangapur Road, Nashik - MPCB",01-10-2025 07:00:00,20.0073285,73.7762427,NH3,2,2,2
India,Maharashtra,Nashik,"Hirawadi, Nashik - MPCB",01-10-2025 07:00:00,20.021503,73.813844,NO2,3,12,6
India,Maharashtra,Nashik,"MIDC Ambad, Nashik - MPCB",01-10-2025 07:00:00,19.950220,73.731480,CO,11,16,14
India,Maharashtra,Mumbai,"Malad West, Mumbai - IITM",01-10-2025 07:00:00,19.19709,72.82204,CO,4,66,35
India,Maharashtra,Mumbai,"Mazgaon, Mumbai - IITM",01-10-2025 07:00:00,18.96702,72.84214,PM2.5,9,47,26
India,Maharashtra,Mumbai,"Mazgaon, Mumbai - IITM",01-10-2025 07:00:00,18.96702,72.84214,SO2,8,13,10
India,Maharashtra,Mumbai,"Mindspace-Malad West, Mumbai - MPCB",01-10-2025 07:00:00,19.1878657,72.8304069,PM2.5,24,26,25
India,Maharashtra,Mumbai,"Mindspace-Malad West, Mumbai - MPCB",01-10-2025 07:00:00,19.1878657,72.8304069,OZONE,29,31,30
India,Maharashtra,Mumbai,"Navy Nagar-Colaba, Mumbai - IITM",01-10-2025 07:00:00,18.897756,72.813320,PM2.5,5,66,33
India,Maharashtra,Mumbai,"Powai, Mumbai - MPCB",01-10-2025 07:00:00,19.137500,72.915056,CO,23,24,24
India,Maharashtra,Navi Mumbai,"Tondare-Taloja, Navi Mumbai - MPCB",01-10-2025 07:00:00,19.0630,73.1209,NO2,13,31,20
India,Maharashtra,Navi Mumbai,"Tondare-Taloja, Navi Mumbai - MPCB",01-10-2025 07:00:00,19.0630,73.1209,SO2,4,4,4
India,Maharashtra,Parbhani,"Masoom Colony, Parbhani - MPCB",01-10-2025 07:00:00,19.265594,76.761463,PM10,24,62,39
India,Maharashtra,Pimpri-Chinchwad,"Gavalinagar, Pimpri Chinchwad - MPCB",01-10-2025 07:00:00,18.63673,73.82487,OZONE,10,10,10
India,Maharashtra,Pimpri-Chinchwad,"Park Street Wakad, Pimpri Chinchwad - MPCB",01-10-2025 07:00:00,18.59051,73.77946,PM2.5,17,50,28
India,Maharashtra,Pune,"Bhumkar Nagar, Pune - IITM",01-10-2025 07:00:00,18.605770,73.749976,PM2.5,10,39,19
India,Maharashtra,Pune,"Bhumkar Nagar, Pune - IITM",01-10-2025 07:00:00,18.605770,73.749976,CO,31,58,40
India,Maharashtra,Pune,"Katraj Dairy, Pune - MPCB",01-10-2025 07:00:00,18.454450,73.854155,PM10,13,220,46
India,Maharashtra,Pune,"Katraj Dairy, Pune - MPCB",01-10-2025 07:00:00,18.454450,73.854155,NH3,1,4,2
India,Maharashtra,Pune,"Mhada Colony, Pune - IITM",01-10-2025 07:00:00,18.573040,73.927715,PM2.5,17,44,31
India,Maharashtra,Pune,"Revenue Colony-Shivajinagar, Pune - IITM",01-10-2025 07:00:00,18.530085,73.849598,CO,100,200,112
India,Maharashtra,Mumbai,"Sewri, Mumbai - BMC",01-10-2025 07:00:00,19.000084,72.856730,NH3,3,8,6
India,Maharashtra,Mumbai,"Sewri, Mumbai - BMC",01-10-2025 07:00:00,19.000084,72.856730,CO,2,118,74
India,Maharashtra,Mumbai,"Shivaji Nagar, Mumbai - BMC",01-10-2025 07:00:00,19.060498,72.923356,OZONE,1,16,1
India,Maharashtra,Mumbai,"Sion, Mumbai - MPCB",01-10-2025 07:00:00,19.047000,72.874600,PM2.5,NA,NA,NA
India,Maharashtra,Mumbai,"Vasai West, Mumbai - MPCB",01-10-2025 07:00:00,19.383200,72.820400,PM2.5,12,40,26
India,Maharashtra,Mumbai,"Vile Parle West, Mumbai - MPCB",01-10-2025 07:00:00,19.10861,72.83622,SO2,11,59,44
India,Maharashtra,Nagpur,"Mahal, Nagpur - MPCB",01-10-2025 07:00:00,21.14472,79.107595,PM10,24,120,56
India,Maharashtra,Nagpur,"Opp GPO Civil Lines, Nagpur - MPCB",01-10-2025 07:00:00,21.152875,79.0517531,SO2,2,11,7
India,Maharashtra,Pimpri-Chinchwad,"Thergaon, Pimpri Chinchwad - MPCB",01-10-2025 07:00:00,18.616318,73.765797,PM10,57,143,99
India,Maharashtra,Pimpri-Chinchwad,"Thergaon, Pimpri Chinchwad - MPCB",01-10-2025 07:00:00,18.616318,73.765797,NH3,1,3,2
India,Maharashtra,Pimpri-Chinchwad,"Thergaon, Pimpri Chinchwad - MPCB",01-10-2025 07:00:00,18.616318,73.765797,CO,8,100,31
India,Maharashtra,Pimpri-Chinchwad,"Thergaon, Pimpri Chinchwad - MPCB",01-10-2025 07:00:00,18.616318,73.765797,OZONE,4,13,7
India,Maharashtra,Mumbai,"Vile Parle West, Mumbai - MPCB",01-10-2025 07:00:00,19.10861,72.83622,PM2.5,7,37,21
India,Maharashtra,Mumbai,"Vile Parle West, Mumbai - MPCB",01-10-2025 07:00:00,19.10861,72.83622,PM10,17,43,29
India,Maharashtra,Mumbai,"Vile Parle West, Mumbai - MPCB",01-10-2025 07:00:00,19.10861,72.83622,NO2,6,30,22
India,Maharashtra,Sangli,"Vijay Nagar, Sangli - MPCB",01-10-2025 07:00:00, 16.5038,74.3623,SO2,4,8,6
India,Maharashtra,Sangli,"Vijay Nagar, Sangli - MPCB",01-10-2025 07:00:00, 16.5038,74.3623,OZONE,9,30,13
India,Maharashtra,Solapur,"Dnyaneshwar Nagar, Solapur - MPCB",01-10-2025 07:00:00,17.6336264,75.9132495,PM2.5,5,23,12
India,Maharashtra,Solapur,"Dnyaneshwar Nagar, Solapur - MPCB",01-10-2025 07:00:00,17.6336264,75.9132495,NO2,1,13,6
India,Maharashtra,Solapur,"Dnyaneshwar Nagar, Solapur - MPCB",01-10-2025 07:00:00,17.6336264,75.9132495,CO,8,24,11
India,Maharashtra,Solapur,"Ratandeep Housing Society, Solapur - MPCB",01-10-2025 07:00:00,17.65439,75.90649,PM2.5,4,27,15
India,Maharashtra,Solapur,"Ratandeep Housing Society, Solapur - MPCB",01-10-2025 07:00:00,17.65439,75.90649,SO2,1,2,1
India,Maharashtra,Thane,"Kasarvadavali, Thane - MPCB",01-10-2025 07:00:00,19.26777,72.97182,NO2,18,27,23
India,Maharashtra,Thane,"Kasarvadavali, Thane - MPCB",01-10-2025 07:00:00,19.26777,72.97182,NH3,3,7,5
India,Maharashtra,Thane,"Upvan Fort, Thane - MPCB",01-10-2025 07:00:00,19.222279,72.957979,PM2.5,13,46,27
India,Maharashtra,Thane,"Upvan Fort, Thane - MPCB",01-10-2025 07:00:00,19.222279,72.957979,NO2,12,22,18
India,Rajasthan,Bhiwadi,"Vasundhara Nagar_UIT, Bhiwadi - RSPCB",01-10-2025 07:00:00,28.207266,76.829265,CO,17,41,24
India,Rajasthan,Bhiwadi,"Vasundhara Nagar_UIT, Bhiwadi - RSPCB",01-10-2025 07:00:00,28.207266,76.829265,OZONE,8,28,15
India,Rajasthan,Bikaner,"MM Ground, Bikaner - RSPCB",01-10-2025 07:00:00,28.018792,73.292658,PM10,NA,NA,NA
India,Rajasthan,Bikaner,"MM Ground, Bikaner - RSPCB",01-10-2025 07:00:00,28.018792,73.292658,NH3,NA,NA,NA
India,Rajasthan,Bundi,"New Colony, Bundi - RSPCB",01-10-2025 07:00:00,25.435774,75.644272,NH3,2,9,4
India,Rajasthan,Bundi,"New Colony, Bundi - RSPCB",01-10-2025 07:00:00,25.435774,75.644272,SO2,1,10,5
India,Rajasthan,Chittorgarh,"Shastri Nagar, Chittorgarh - RSPCB",01-10-2025 07:00:00,24.892047,74.623527,NH3,1,2,1
India,Rajasthan,Chittorgarh,"Shastri Nagar, Chittorgarh - RSPCB",01-10-2025 07:00:00,24.892047,74.623527,SO2,2,4,3
India,Rajasthan,Churu,"Subash Chowk, Churu - RSPCB",01-10-2025 07:00:00,28.296139,74.961696,NO2,7,17,11
India,Rajasthan,Dausa,"Khatikan Mohalla, Dausa - RSPCB",01-10-2025 07:00:00,26.895552,76.334753,PM10,7,104,42
India,Odisha,Balasore,"Kalidaspur, Balasore - OSPCB",01-10-2025 07:00:00,21.51161,86.89088,PM2.5,3,38,14
India,Odisha,Balasore,"Kalidaspur, Balasore - OSPCB",01-10-2025 07:00:00,21.51161,86.89088,NH3,1,2,1
India,Odisha,Barbil,"Forest Office, Barbil - OSPCB",01-10-2025 07:00:00,22.1166054,85.3945546,PM2.5,22,213,46
India,Odisha,Barbil,"Forest Office, Barbil - OSPCB",01-10-2025 07:00:00,22.1166054,85.3945546,SO2,8,21,11
India,Odisha,Baripada,"Meher Colony, Baripada - OSPCB",01-10-2025 07:00:00,21.941841,86.728318,PM2.5,24,93,43
India,Odisha,Baripada,"Meher Colony, Baripada - OSPCB",01-10-2025 07:00:00,21.941841,86.728318,NO2,3,26,11
India,Odisha,Baripada,"Meher Colony, Baripada - OSPCB",01-10-2025 07:00:00,21.941841,86.728318,NH3,1,2,1
India,Odisha,Bhubaneswar,"Lingraj Mandir, Bhubaneswar - OSPCB",01-10-2025 07:00:00,20.240790,85.836784,OZONE,5,194,39
India,Odisha,Bhubaneswar,"Patia, Bhubaneswar - OSPCB",01-10-2025 07:00:00,20.34652,85.81630,PM2.5,5,30,14
India,Odisha,Bhubaneswar,"Patia, Bhubaneswar - OSPCB",01-10-2025 07:00:00,20.34652,85.81630,PM10,16,103,50
India,Odisha,Rairangpur,"Divisional Forest Office, Rairangpur - OSPCB",01-10-2025 07:00:00,22.265816,86.174829,SO2,NA,NA,NA
India,Odisha,Rairangpur,"Divisional Forest Office, Rairangpur - OSPCB",01-10-2025 07:00:00,22.265816,86.174829,CO,16,32,23
India,Odisha,Rourkela,"Fertilizer Township, Rourkela - OSPCB",01-10-2025 07:00:00,22.18972222,84.86277778,PM10,57,71,62
India,Odisha,Rourkela,"Raghunathpali, Rourkela - OSPCB",01-10-2025 07:00:00,22.220833,84.809444,SO2,6,7,6
India,Odisha,Talcher,"Talcher Coalfields,Talcher - OSPCB",01-10-2025 07:00:00,20.9360711,85.1707021,PM10,8,132,76
India,Odisha,Talcher,"Talcher Coalfields,Talcher - OSPCB",01-10-2025 07:00:00,20.9360711,85.1707021,SO2,1,9,4
India,Odisha,Talcher,"Talcher Coalfields,Talcher - OSPCB",01-10-2025 07:00:00,20.9360711,85.1707021,OZONE,2,24,20
India,Punjab,Bathinda,"Hardev Nagar, Bathinda - PPCB",01-10-2025 07:00:00,30.233011,74.907758,PM2.5,7,77,39
India,Punjab,Patiala,"Model Town, Patiala - PPCB",01-10-2025 07:00:00,30.349388,76.366642,NH3,NA,NA,NA
India,Punjab,Patiala,"Model Town, Patiala - PPCB",01-10-2025 07:00:00,30.349388,76.366642,SO2,5,9,7
India,Rajasthan,Ajmer,"Civil Lines,  Ajmer - RSPCB",01-10-2025 07:00:00,26.470859,74.646594,NO2,7,8,8
India,Rajasthan,Ajmer,"Civil Lines,  Ajmer - RSPCB",01-10-2025 07:00:00,26.470859,74.646594,OZONE,9,24,17
India,Rajasthan,Alwar,"Moti Doongri, Alwar - RSPCB",01-10-2025 07:00:00,27.554793,76.611536,SO2,20,33,27
India,Rajasthan,Alwar,"Moti Doongri, Alwar - RSPCB",01-10-2025 07:00:00,27.554793,76.611536,CO,27,54,35
India,Rajasthan,Alwar,"Moti Doongri, Alwar - RSPCB",01-10-2025 07:00:00,27.554793,76.611536,OZONE,13,103,26
India,Rajasthan,Banswara,"Rati Talai, Banswara - RSPCB",01-10-2025 07:00:00,23.555190,74.440010,NO2,5,45,15
India,Rajasthan,Baran,"Bamboliya, Baran - RSPCB",01-10-2025 07:00:00,25.106006,76.469948,NO2,4,20,7
India,Punjab,Bathinda,"Hardev Nagar, Bathinda - PPCB",01-10-2025 07:00:00,30.233011,74.907758,PM10,26,173,114
India,Punjab,Bathinda,"Hardev Nagar, Bathinda - PPCB",01-10-2025 07:00:00,30.233011,74.907758,SO2,1,19,10
India,Punjab,Jalandhar,"Civil Line, Jalandhar - PPCB",01-10-2025 07:00:00,31.321907,75.578914,SO2,16,18,17
India,Punjab,Khanna,"Kalal Majra, Khanna - PPCB",01-10-2025 07:00:00,30.736056 ,76.209694,PM10,44,113,86
India,Punjab,Khanna,"Kalal Majra, Khanna - PPCB",01-10-2025 07:00:00,30.736056 ,76.209694,OZONE,24,26,25
India,Punjab,Ludhiana,"Punjab Agricultural University, Ludhiana - PPCB",01-10-2025 07:00:00,30.9028,75.8086,OZONE,37,77,41
India,Punjab,Mandi Gobindgarh,"RIMT University, Mandi Gobindgarh - PPCB",01-10-2025 07:00:00,30.649961,76.331442,NO2,23,25,24
India,Odisha,Bileipada,"Tata Township, Bileipada - OSPCB",01-10-2025 07:00:00,22.06156703,85.47409613,PM10,NA,NA,NA
India,Odisha,Bileipada,"Tata Township, Bileipada - OSPCB",01-10-2025 07:00:00,22.06156703,85.47409613,SO2,NA,NA,NA
India,Odisha,Brajrajnagar,"GM Office, Brajrajnagar - OSPCB",01-10-2025 07:00:00,21.8004996,83.8396977,PM2.5,18,155,64
India,Odisha,Byasanagar,"Ferro Chrome Colony, Byasanagar - OSPCB",01-10-2025 07:00:00,20.94185,86.11510,PM2.5,3,40,20
India,Odisha,Byasanagar,"Ferro Chrome Colony, Byasanagar - OSPCB",01-10-2025 07:00:00,20.94185,86.11510,OZONE,3,47,6
India,Odisha,Cuttack,"CDA Area, Cuttack - OSPCB",01-10-2025 07:00:00,20.48891     ,85.84768     ,NO2,8,38,19
India,Odisha,Nayagarh,"Dabuna, Nayagarh - OSPCB",01-10-2025 07:00:00,21.847279,85.416905,SO2,1,4,3
India,Maharashtra,Thane,"Upvan Fort, Thane - MPCB",01-10-2025 07:00:00,19.222279,72.957979,SO2,2,5,4
India,Maharashtra,Ulhasnagar,"Sidhi Vinayak Nagar, Ulhasnagar - MPCB",01-10-2025 07:00:00,19.235581,73.159121,SO2,5,17,10
India,Meghalaya,Shillong,"Lumpyngngad, Shillong - Meghalaya PCB",01-10-2025 07:00:00,25.5586,91.8985,NO2,NA,NA,NA
India,Meghalaya,Shillong,"Lumpyngngad, Shillong - Meghalaya PCB",01-10-2025 07:00:00,25.5586,91.8985,CO,2,6,3
India,Nagaland,Kohima,"PWD Junction, Kohima - NPCB",01-10-2025 07:00:00,25.6635413,94.0989878,SO2,68,74,71
India,Nagaland,Kohima,"PWD Junction, Kohima - NPCB",01-10-2025 07:00:00,25.6635413,94.0989878,OZONE,7,16,8
India,Rajasthan,Barmer,"Railway Colony, Barmer - RSPCB",01-10-2025 07:00:00,25.747299,71.393989,CO,16,37,18
India,Rajasthan,Bhilwara,"Pratap Nagar, Bhilwara - RSPCB",01-10-2025 07:00:00,25.339605,74.618883,PM10,6,68,32
India,Rajasthan,Bhilwara,"Pratap Nagar, Bhilwara - RSPCB",01-10-2025 07:00:00,25.339605,74.618883,NO2,2,14,7
India,Rajasthan,Bhiwadi,"RIICO Ind. Area III, Bhiwadi - RSPCB",01-10-2025 07:00:00,28.194909,76.862296,OZONE,6,54,7
India,Rajasthan,Sawai Madhopur,"Sahu Nagar, Sawai Madhopur - RSPCB",01-10-2025 07:00:00,26.031443,76.359327,PM2.5,2,22,10
India,Rajasthan,Sawai Madhopur,"Sahu Nagar, Sawai Madhopur - RSPCB",01-10-2025 07:00:00,26.031443,76.359327,NH3,6,7,6
India,Rajasthan,Sirohi,"Vedhaynath Colony, Sirohi - RSPCB",01-10-2025 07:00:00,24.885261,72.857549,PM10,16,50,36
India,Rajasthan,Sirohi,"Vedhaynath Colony, Sirohi - RSPCB",01-10-2025 07:00:00,24.885261,72.857549,NH3,2,4,3
India,Rajasthan,Sirohi,"Vedhaynath Colony, Sirohi - RSPCB",01-10-2025 07:00:00,24.885261,72.857549,CO,13,24,17
India,Rajasthan,Sirohi,"Vedhaynath Colony, Sirohi - RSPCB",01-10-2025 07:00:00,24.885261,72.857549,OZONE,19,36,28
India,Rajasthan,Sri Ganganagar,"Old City, Sri Ganganagar - RSPCB",01-10-2025 07:00:00,29.931624,73.864511,PM2.5,38,87,58
India,Rajasthan,Tonk,"Shastri Nagar, Tonk - RSPCB",01-10-2025 07:00:00,26.159933,75.780517,PM10,27,86,46
India,Rajasthan,Udaipur,"Ashok Nagar, Udaipur - RSPCB",01-10-2025 07:00:00,24.5886166,73.6321397,PM2.5,18,58,37
India,Rajasthan,Udaipur,"Ashok Nagar, Udaipur - RSPCB",01-10-2025 07:00:00,24.5886166,73.6321397,PM10,14,61,42
India,Sikkim,Gangtok,"Zero Point GICI, Gangtok - SSPCB",01-10-2025 07:00:00,27.338530,88.614099,PM10,6,29,16
India,TamilNadu,Chennai,"Alandur Bus Depot, Chennai - CPCB",01-10-2025 07:00:00,12.9099161,80.1076538,NH3,7,7,7
India,TamilNadu,Chennai,"Arumbakkam, Chennai - TNPCB",01-10-2025 07:00:00,13.0664,80.2112 ,PM10,92,275,167
India,TamilNadu,Chennai,"Arumbakkam, Chennai - TNPCB",01-10-2025 07:00:00,13.0664,80.2112 ,NO2,13,32,18
India,Rajasthan,Kota,"Shrinath Puram, Kota - RSPCB",01-10-2025 07:00:00,25.14389,75.821256,PM10,35,97,57
India,Rajasthan,Kota,"Shrinath Puram, Kota - RSPCB",01-10-2025 07:00:00,25.14389,75.821256,NH3,1,3,2
India,Rajasthan,Pratapgarh,"Pragati Nagar, Pratapgarh - RSPCB",01-10-2025 07:00:00,24.041198,74.780702,PM2.5,2,38,22
India,Rajasthan,Pratapgarh,"Pragati Nagar, Pratapgarh - RSPCB",01-10-2025 07:00:00,24.041198,74.780702,NO2,6,16,10
India,Rajasthan,Pratapgarh,"Pragati Nagar, Pratapgarh - RSPCB",01-10-2025 07:00:00,24.041198,74.780702,CO,12,24,14
India,Rajasthan,Rajsamand,"Dhoinda, Rajsamand - RSPCB",01-10-2025 07:00:00,25.036360,73.883502,SO2,NA,NA,NA
India,Rajasthan,Rajsamand,"Dhoinda, Rajsamand - RSPCB",01-10-2025 07:00:00,25.036360,73.883502,OZONE,NA,NA,NA
India,Rajasthan,Jhunjhunu,"Indra Nagar, Jhunjhunu - RSPCB",01-10-2025 07:00:00,28.108988,75.386577,SO2,2,4,3
India,Rajasthan,Jhunjhunu,"Indra Nagar, Jhunjhunu - RSPCB",01-10-2025 07:00:00,28.108988,75.386577,OZONE,16,70,30
India,Rajasthan,Jodhpur,"Collectorate, Jodhpur - RSPCB",01-10-2025 07:00:00,26.268249,73.0193853,PM10,25,90,52
India,Rajasthan,Jodhpur,"Jhalamand, Jodhpur - RSPCB",01-10-2025 07:00:00,26.215415,73.070156,PM10,6,46,19
India,Rajasthan,Jodhpur,"Jhalamand, Jodhpur - RSPCB",01-10-2025 07:00:00,26.215415,73.070156,OZONE,18,55,31
India,Rajasthan,Jodhpur,"Mandor, Jodhpur - RSPCB",01-10-2025 07:00:00,26.358805,73.047444,PM2.5,3,33,12
India,TamilNadu,Chennai,"Velachery Res. Area, Chennai - CPCB",01-10-2025 07:00:00,13.0052189,80.2398125,SO2,8,11,9
India,TamilNadu,Coimbatore,"PSG College of Arts and Science, Coimbatore - TNPCB",01-10-2025 07:00:00,11.0328,77.0349,PM2.5,67,249,142
India,TamilNadu,Coimbatore,"PSG College of Arts and Science, Coimbatore - TNPCB",01-10-2025 07:00:00,11.0328,77.0349,NO2,9,10,10
India,TamilNadu,Coimbatore,"PSG College of Arts and Science, Coimbatore - TNPCB",01-10-2025 07:00:00,11.0328,77.0349,NH3,2,2,2
India,TamilNadu,Coimbatore,"SIDCO Kurichi, Coimbatore - TNPCB",01-10-2025 07:00:00,10.942451,76.978996,SO2,19,21,20
India,Rajasthan,Jodhpur,"Mandor, Jodhpur - RSPCB",01-10-2025 07:00:00,26.358805,73.047444,OZONE,10,74,32
India,Rajasthan,Jodhpur,"Samrat Ashok Udhyan, Jodhpur - RSPCB",01-10-2025 07:00:00,26.253384,72.976571,CO,16,24,18
India,Rajasthan,Jodhpur,"Samrat Ashok Udhyan, Jodhpur - RSPCB",01-10-2025 07:00:00,26.253384,72.976571,OZONE,12,50,21
India,Rajasthan,Karauli,"Satyawati Vihar, Karauli - RSPCB",01-10-2025 07:00:00,26.506177,77.025989,NH3,5,7,6
India,Rajasthan,Kota,"Nayapura, Kota - RSPCB",01-10-2025 07:00:00,25.196024,75.855668,CO,32,56,43
India,TamilNadu,Chennai,"Arumbakkam, Chennai - TNPCB",01-10-2025 07:00:00,13.0664,80.2112 ,SO2,1,4,2
India,TamilNadu,Chennai,"Manali, Chennai - CPCB",01-10-2025 07:00:00,13.164544,80.26285,PM2.5,13,77,38
India,TamilNadu,Chennai,"Manali, Chennai - CPCB",01-10-2025 07:00:00,13.164544,80.26285,SO2,11,44,24
India,TamilNadu,Chennai,"Perungudi, Chennai - TNPCB",01-10-2025 07:00:00,12.9533,80.2357,PM2.5,18,85,45
India,TamilNadu,Chennai,"Perungudi, Chennai - TNPCB",01-10-2025 07:00:00,12.9533,80.2357,OZONE,1,26,2
India,Rajasthan,Jaipur,"RIICO Sitapura, Jaipur - RSPCB",01-10-2025 07:00:00,26.786682,75.827928,PM2.5,2,57,24
India,Rajasthan,Jaisalmer,"Sadar Bazar, Jaisalmer - RSPCB",01-10-2025 07:00:00,26.912329,70.909168,PM10,5,80,33
India,Rajasthan,Jalore,"Mudtra Sili, Jalore - RSPCB",01-10-2025 07:00:00,25.344694,72.626208,NH3,NA,NA,NA
India,Rajasthan,Dausa,"Khatikan Mohalla, Dausa - RSPCB",01-10-2025 07:00:00,26.895552,76.334753,SO2,3,6,5
India,Rajasthan,Dausa,"Khatikan Mohalla, Dausa - RSPCB",01-10-2025 07:00:00,26.895552,76.334753,OZONE,10,35,14
India,Uttar_Pradesh,Baghpat,"Sardar Patel Inter College, Baghpat - UPPCB",01-10-2025 07:00:00,28.964949,77.278761,PM10,30,202,98
India,Uttar_Pradesh,Bareilly,"Civil Lines, Bareilly - UPPCB",01-10-2025 07:00:00,28.359581,79.414455,PM10,8,16,12
India,Uttar_Pradesh,Bareilly,"Civil Lines, Bareilly - UPPCB",01-10-2025 07:00:00,28.359581,79.414455,NH3,2,7,4
India,Uttar_Pradesh,Bareilly,"Rajendra Nagar, Bareilly - UPPCB",01-10-2025 07:00:00,28.38910936,79.42963708,NO2,9,10,9
India,Uttar_Pradesh,Bareilly,"Rajendra Nagar, Bareilly - UPPCB",01-10-2025 07:00:00,28.38910936,79.42963708,SO2,39,43,41
India,Uttar_Pradesh,Bulandshahr,"Yamunapuram, Bulandshahr - UPPCB",01-10-2025 07:00:00,28.406963,77.849831,PM2.5,11,113,46
India,Uttar_Pradesh,Bulandshahr,"Yamunapuram, Bulandshahr - UPPCB",01-10-2025 07:00:00,28.406963,77.849831,CO,24,44,29
India,Uttar_Pradesh,Firozabad,"Nagla Bhau, Firozabad - UPPCB",01-10-2025 07:00:00,27.168897,78.376960,OZONE,12,17,13
India,Uttar_Pradesh,Firozabad,"Vibhab Nagar, Firozabad - UPPCB",01-10-2025 07:00:00,27.1594,78.3953,PM2.5,7,46,26
India,Uttar_Pradesh,Firozabad,"Vibhab Nagar, Firozabad - UPPCB",01-10-2025 07:00:00,27.1594,78.3953,NO2,14,15,15
India,Uttar_Pradesh,Agra,"Manoharpur, Agra - UPPCB",01-10-2025 07:00:00,27.23711,78.01936,NH3,2,2,2
India,Uttar_Pradesh,Agra,"Rohta, Agra - UPPCB",01-10-2025 07:00:00,27.106972,78.000111,PM2.5,NA,NA,NA
India,Uttar_Pradesh,Agra,"Rohta, Agra - UPPCB",01-10-2025 07:00:00,27.106972,78.000111,PM10,NA,NA,NA
India,Uttar_Pradesh,Agra,"Sanjay Palace, Agra - UPPCB",01-10-2025 07:00:00,27.19865833,78.00598056,SO2,15,18,16
India,Uttar_Pradesh,Agra,"Sanjay Palace, Agra - UPPCB",01-10-2025 07:00:00,27.19865833,78.00598056,CO,32,36,34
India,Uttar_Pradesh,Agra,"Sector-3B Avas Vikas Colony, Agra - UPPCB",01-10-2025 07:00:00,27.19412,77.96237,NO2,8,13,11
India,Uttar_Pradesh,Agra,"Sector-3B Avas Vikas Colony, Agra - UPPCB",01-10-2025 07:00:00,27.19412,77.96237,SO2,6,7,6
India,Uttar_Pradesh,Agra,"Shahjahan Garden, Agra - UPPCB",01-10-2025 07:00:00,27.169338,78.03582,PM2.5,14,69,35
India,Uttar_Pradesh,Agra,"Shahjahan Garden, Agra - UPPCB",01-10-2025 07:00:00,27.169338,78.03582,PM10,56,121,79
India,Uttar_Pradesh,Agra,"Shahjahan Garden, Agra - UPPCB",01-10-2025 07:00:00,27.169338,78.03582,SO2,28,36,32
India,Uttar_Pradesh,Agra,"Shahjahan Garden, Agra - UPPCB",01-10-2025 07:00:00,27.169338,78.03582,CO,6,12,7
India,Uttar_Pradesh,Agra,"Shastripuram, Agra - UPPCB",01-10-2025 07:00:00,27.19862,77.92066,PM2.5,8,82,28
India,Telangana,Hyderabad,"IDA Pashamylaram, Hyderabad - TSPCB",01-10-2025 07:00:00,17.5316895,78.218939,NH3,2,14,7
India,Telangana,Hyderabad,"Kokapet, Hyderabad - TSPCB",01-10-2025 07:00:00,17.393559,78.339194,PM2.5,34,48,39
India,Telangana,Hyderabad,"Kokapet, Hyderabad - TSPCB",01-10-2025 07:00:00,17.393559,78.339194,PM10,64,115,81
India,Telangana,Hyderabad,"Kokapet, Hyderabad - TSPCB",01-10-2025 07:00:00,17.393559,78.339194,NH3,3,4,4
India,Telangana,Hyderabad,"Kokapet, Hyderabad - TSPCB",01-10-2025 07:00:00,17.393559,78.339194,SO2,15,22,19
India,Telangana,Hyderabad,"Kompally Municipal Office, Hyderabad - TSPCB",01-10-2025 07:00:00,17.544899,78.486949,NH3,3,4,4
India,Telangana,Hyderabad,"Kompally Municipal Office, Hyderabad - TSPCB",01-10-2025 07:00:00,17.544899,78.486949,SO2,10,12,11
India,Telangana,Hyderabad,"Nacharam_TSIIC IALA, Hyderabad - TSPCB",01-10-2025 07:00:00,17.429398,78.569354,NH3,5,7,5
India,Telangana,Hyderabad,"New Malakpet, Hyderabad - TSPCB",01-10-2025 07:00:00,17.37206,78.50864,PM2.5,43,54,47
India,Telangana,Hyderabad,"New Malakpet, Hyderabad - TSPCB",01-10-2025 07:00:00,17.37206,78.50864,NO2,15,17,16
India,Telangana,Hyderabad,"New Malakpet, Hyderabad - TSPCB",01-10-2025 07:00:00,17.37206,78.50864,OZONE,14,42,20
India,TamilNadu,Virudhunagar,"Collectorate Office, Virudhunagar - TNPCB",01-10-2025 07:00:00,9.559382,77.948828,NO2,19,19,19
India,Telangana,Hyderabad,"Bollaram Industrial Area, Hyderabad - TSPCB",01-10-2025 07:00:00,17.540891,78.358528,NO2,26,38,31
India,Telangana,Hyderabad,"Central University, Hyderabad - TSPCB",01-10-2025 07:00:00,17.460103,78.334361,NO2,31,66,47
India,Telangana,Hyderabad,"Central University, Hyderabad - TSPCB",01-10-2025 07:00:00,17.460103,78.334361,NH3,5,10,7
India,Telangana,Hyderabad,"ECIL Kapra, Hyderabad - TSPCB",01-10-2025 07:00:00,17.470431,78.566959,SO2,6,22,13
India,Telangana,Hyderabad,"ICRISAT Patancheru, Hyderabad - TSPCB",01-10-2025 07:00:00,17.518400,78.278777,PM2.5,47,142,71
India,Telangana,Hyderabad,"IDA Pashamylaram, Hyderabad - TSPCB",01-10-2025 07:00:00,17.5316895,78.218939,NO2,16,92,46
India,TamilNadu,Thoothukudi,"Meelavittan, Thoothukudi - TNPCB",01-10-2025 07:00:00,8.816428 ,78.099039,CO,NA,NA,NA
India,TamilNadu,Tiruchirappalli,"St Joseph College, Tiruchirappalli - TNPCB",01-10-2025 07:00:00,10.830158,78.691849,NH3,1,2,2
India,TamilNadu,Tiruchirappalli,"St Joseph College, Tiruchirappalli - TNPCB",01-10-2025 07:00:00,10.830158,78.691849,CO,6,18,9
India,TamilNadu,Tirunelveli,"Municipal Corporation Office, Tirunelveli - TNPCB",01-10-2025 07:00:00,8.728442,77.6962,PM10,14,40,27
India,TamilNadu,Tirunelveli,"Municipal Corporation Office, Tirunelveli - TNPCB",01-10-2025 07:00:00,8.728442,77.6962,NH3,1,6,2
India,TamilNadu,Tirunelveli,"Municipal Corporation Office, Tirunelveli - TNPCB",01-10-2025 07:00:00,8.728442,77.6962,OZONE,6,7,6
India,TamilNadu,Tirupur,"Kumaran College, Tirupur - TNPCB",01-10-2025 07:00:00,11.0973603,77.3228673,CO,13,17,16
India,TamilNadu,Perundurai,"SIPCOT Industrial Park, Perundurai - TNPCB",01-10-2025 07:00:00,11.258242,77.552761,OZONE,3,43,42
India,TamilNadu,Ramanathapuram,"Chalai Bazaar, Ramanathapuram - TNPCB",01-10-2025 07:00:00,9.36399,78.831977,NH3,2,2,2
India,TamilNadu,Ramanathapuram,"Chalai Bazaar, Ramanathapuram - TNPCB",01-10-2025 07:00:00,9.36399,78.831977,CO,26,30,27
India,TamilNadu,Salem,"Sona College of Technology, Salem - TNPCB",01-10-2025 07:00:00,11.679111,78.125052,OZONE,20,20,20
India,TamilNadu,Thanjavur,"Parisutham Nagar, Thanjavur - TNPCB",01-10-2025 07:00:00,10.7654824,79.1389968,OZONE,11,24,17
India,TamilNadu,Nagapattinam,"Velippalayam, Nagapattinam - TNPCB",01-10-2025 07:00:00,10.798548,79.838212,PM2.5,17,80,35
India,TamilNadu,Namakkal,"Ponnusamy Nagar, Namakkal - TNPCB",01-10-2025 07:00:00,11.273992,78.163545,PM10,39,59,49
India,TamilNadu,Ooty,"Bombay Castel, Ooty - TNPCB",01-10-2025 07:00:00,11.4068288,76.7138973,PM10,NA,NA,NA
India,TamilNadu,Ooty,"Bombay Castel, Ooty - TNPCB",01-10-2025 07:00:00,11.4068288,76.7138973,NO2,NA,NA,NA
India,Telangana,Hyderabad,"Somajiguda, Hyderabad - TSPCB",01-10-2025 07:00:00,17.417094,78.457437,PM10,NA,NA,NA
India,Telangana,Hyderabad,"Somajiguda, Hyderabad - TSPCB",01-10-2025 07:00:00,17.417094,78.457437,NH3,NA,NA,NA
India,Tripura,Agartala,"Bardowali, Agartala - Tripura SPCB",01-10-2025 07:00:00,23.8175497,91.2726974,NO2,5,17,9
India,Tripura,Agartala,"Bardowali, Agartala - Tripura SPCB",01-10-2025 07:00:00,23.8175497,91.2726974,NH3,2,3,3
India,TamilNadu,Gummidipoondi,"Anthoni Pillai Nagar, Gummidipoondi - TNPCB",01-10-2025 07:00:00,13.4127,80.1081,PM2.5,50,454,205
India,TamilNadu,Hosur,"SIPCOT Phase-1, Hosur - TNPCB",01-10-2025 07:00:00,12.746998,77.813811,PM2.5,7,60,34
India,TamilNadu,Hosur,"SIPCOT Phase-1, Hosur - TNPCB",01-10-2025 07:00:00,12.746998,77.813811,CO,14,19,17
India,Uttar_Pradesh,Khurja,"Kalindi Kunj, Khurja - UPPCB",01-10-2025 07:00:00,28.2348927,77.8683002,PM2.5,12,41,24
India,Uttar_Pradesh,Khurja,"Kalindi Kunj, Khurja - UPPCB",01-10-2025 07:00:00,28.2348927,77.8683002,NH3,1,1,1
India,Uttar_Pradesh,Khurja,"Kalindi Kunj, Khurja - UPPCB",01-10-2025 07:00:00,28.2348927,77.8683002,SO2,14,15,15
India,Uttar_Pradesh,Lucknow,"B R Ambedkar University, Lucknow - UPPCB",01-10-2025 07:00:00,26.766433,80.927299,PM2.5,37,206,59
India,Uttar_Pradesh,Lucknow,"B R Ambedkar University, Lucknow - UPPCB",01-10-2025 07:00:00,26.766433,80.927299,NH3,4,4,4
India,Uttar_Pradesh,Lucknow,"B R Ambedkar University, Lucknow - UPPCB",01-10-2025 07:00:00,26.766433,80.927299,OZONE,29,31,30
India,Uttar_Pradesh,Lucknow,"Gomti Nagar, Lucknow - UPPCB",01-10-2025 07:00:00,26.868120,81.005119,OZONE,38,45,38
India,Uttar_Pradesh,Lucknow,"Kendriya Vidyalaya, Lucknow - CPCB",01-10-2025 07:00:00,26.906111,80.948222,PM2.5,39,152,79
India,Uttar_Pradesh,Lucknow,"Kendriya Vidyalaya, Lucknow - CPCB",01-10-2025 07:00:00,26.906111,80.948222,SO2,5,17,10
India,Uttar_Pradesh,Lucknow,"Kukrail Picnic Spot-1, Lucknow - UPPCB",01-10-2025 07:00:00,26.90723,80.98579,NH3,4,4,4
India,Uttar_Pradesh,Firozabad,"Vibhab Nagar, Firozabad - UPPCB",01-10-2025 07:00:00,27.1594,78.3953,CO,5,20,6
India,Uttar_Pradesh,Ghaziabad,"Loni, Ghaziabad - UPPCB",01-10-2025 07:00:00,28.757294,77.278792,NH3,2,6,4
India,Uttar_Pradesh,Ghaziabad,"Loni, Ghaziabad - UPPCB",01-10-2025 07:00:00,28.757294,77.278792,SO2,4,37,17
India,Uttar_Pradesh,Ghaziabad,"Sanjay Nagar, Ghaziabad - UPPCB",01-10-2025 07:00:00,28.685382,77.453839,PM2.5,21,172,65
India,Uttar_Pradesh,Ghaziabad,"Sanjay Nagar, Ghaziabad - UPPCB",01-10-2025 07:00:00,28.685382,77.453839,SO2,7,15,10
India,Uttar_Pradesh,Ghaziabad,"Sanjay Nagar, Ghaziabad - UPPCB",01-10-2025 07:00:00,28.685382,77.453839,CO,28,76,34
India,Uttar_Pradesh,Ghaziabad,"Vasundhara, Ghaziabad - UPPCB",01-10-2025 07:00:00,28.6603346,77.3572563,SO2,9,15,12
India,Uttar_Pradesh,Greater Noida,"Knowledge Park - III, Greater Noida - UPPCB",01-10-2025 07:00:00,28.47272,77.482000,PM10,27,174,78
India,Uttar_Pradesh,Greater Noida,"Knowledge Park - III, Greater Noida - UPPCB",01-10-2025 07:00:00,28.47272,77.482000,NH3,7,12,8
India,Uttar_Pradesh,Greater Noida,"Knowledge Park - III, Greater Noida - UPPCB",01-10-2025 07:00:00,28.47272,77.482000,SO2,1,16,10
India,Uttar_Pradesh,Hapur,"Anand Vihar, Hapur - UPPCB",01-10-2025 07:00:00,28.725645,77.749675,PM2.5,26,222,64
India,Uttar_Pradesh,Hapur,"Anand Vihar, Hapur - UPPCB",01-10-2025 07:00:00,28.725645,77.749675,CO,35,45,39
India,Uttar_Pradesh,Hapur,"Anand Vihar, Hapur - UPPCB",01-10-2025 07:00:00,28.725645,77.749675,OZONE,14,27,15
India,Uttar_Pradesh,Kanpur,"FTI Kidwai Nagar, Kanpur - UPPCB",01-10-2025 07:00:00,26.428282,80.327067,PM10,14,49,28
India,Uttar_Pradesh,Kanpur,"FTI Kidwai Nagar, Kanpur - UPPCB",01-10-2025 07:00:00,26.428282,80.327067,NH3,2,2,2
India,Uttar_Pradesh,Kanpur,"FTI Kidwai Nagar, Kanpur - UPPCB",01-10-2025 07:00:00,26.428282,80.327067,OZONE,32,33,32
India,Uttar_Pradesh,Kanpur,"NSI Kalyanpur, Kanpur - UPPCB",01-10-2025 07:00:00,26.509954,80.249612,PM10,9,78,32
India,Uttar_Pradesh,Kanpur,"NSI Kalyanpur, Kanpur - UPPCB",01-10-2025 07:00:00,26.509954,80.249612,SO2,15,93,20
India,Uttar_Pradesh,Kanpur,"Nehru Nagar, Kanpur - UPPCB",01-10-2025 07:00:00,26.4703136,80.3229863,PM2.5,5,72,34
India,Uttar_Pradesh,Kanpur,"Nehru Nagar, Kanpur - UPPCB",01-10-2025 07:00:00,26.4703136,80.3229863,NO2,39,61,45
India,Uttar_Pradesh,Prayagraj,"Jhunsi, Prayagraj - UPPCB",01-10-2025 07:00:00,25.425602,81.917152,PM2.5,15,91,35
India,Uttar_Pradesh,Prayagraj,"Jhunsi, Prayagraj - UPPCB",01-10-2025 07:00:00,25.425602,81.917152,NO2,5,6,6
India,Uttar_Pradesh,Prayagraj,"Jhunsi, Prayagraj - UPPCB",01-10-2025 07:00:00,25.425602,81.917152,SO2,18,25,22
India,Uttar_Pradesh,Prayagraj,"Motilal Nehru NIT, Prayagraj - UPPCB",01-10-2025 07:00:00,25.494,81.863,SO2,20,69,44
India,Uttar_Pradesh,Prayagraj,"Nagar Nigam, Prayagraj - UPPCB",01-10-2025 07:00:00,25.44919916 ,81.82735986 ,PM2.5,26,86,43
India,Uttar_Pradesh,Prayagraj,"Nagar Nigam, Prayagraj - UPPCB",01-10-2025 07:00:00,25.44919916 ,81.82735986 ,NO2,5,5,5
India,Uttar_Pradesh,Varanasi,"Ardhali Bazar, Varanasi - UPPCB",01-10-2025 07:00:00,25.3505986,82.9083074,PM2.5,9,69,30
India,Uttar_Pradesh,Varanasi,"Ardhali Bazar, Varanasi - UPPCB",01-10-2025 07:00:00,25.3505986,82.9083074,PM10,8,94,38
India,Uttar_Pradesh,Varanasi,"Bhelupur, Varanasi - UPPCB",01-10-2025 07:00:00,25.301778,82.996789,NH3,1,1,1
India,Uttar_Pradesh,Varanasi,"Maldahiya, Varanasi - UPPCB",01-10-2025 07:00:00,25.32393,82.99687,NO2,2,2,2
India,Uttar_Pradesh,Vrindavan,"Omex Eternity, Vrindavan - UPPCB",01-10-2025 07:00:00,27.5714090,77.6557570,PM2.5,10,101,37
India,Uttar_Pradesh,Vrindavan,"Omex Eternity, Vrindavan - UPPCB",01-10-2025 07:00:00,27.5714090,77.6557570,SO2,9,19,12
India,Uttarakhand,Dehradun,"Doon University, Dehradun - UKPCB",01-10-2025 07:00:00,30.269444,78.044167,PM2.5,10,72,43
India,Uttarakhand,Dehradun,"Doon University, Dehradun - UKPCB",01-10-2025 07:00:00,30.269444,78.044167,PM10,11,62,36
India,Uttarakhand,Kashipur,"Govt. Girls Inter College, Kashipur - UKPCB",01-10-2025 07:00:00,29.2124114,78.9611753,NO2,9,43,19
India,Uttarakhand,Rishikesh,"Shivaji Nagar, Rishikesh - UKPCB",01-10-2025 07:00:00,30.075911,78.2859547,PM2.5,15,69,31
India,Uttarakhand,Rishikesh,"Shivaji Nagar, Rishikesh - UKPCB",01-10-2025 07:00:00,30.075911,78.2859547,SO2,3,3,3
India,West_Bengal,Asansol,"Asansol Court Area, Asansol - WBPCB",01-10-2025 07:00:00,23.685297,86.945968,PM10,57,102,80
India,West_Bengal,Asansol,"Evelyn Lodge, Asansol - WBPCB",01-10-2025 07:00:00,23.6979360,86.9443950,PM10,45,109,69
India,West_Bengal,Asansol,"Evelyn Lodge, Asansol - WBPCB",01-10-2025 07:00:00,23.6979360,86.9443950,SO2,3,5,4
India,West_Bengal,Asansol,"Mahabir Colliery, Asansol - WBPCB",01-10-2025 07:00:00,23.6181830,87.1057180,PM2.5,31,130,57
India,West_Bengal,Asansol,"Mahabir Colliery, Asansol - WBPCB",01-10-2025 07:00:00,23.6181830,87.1057180,CO,17,64,53
India,West_Bengal,Asansol,"Trivenidevi Bhalotia College, Asansol - WBPCB",01-10-2025 07:00:00,23.616515,87.119133,NH3,1,1,1
India,Uttar_Pradesh,Moradabad,"Eco Herbal Park, Moradabad - UPPCB",01-10-2025 07:00:00,28.840739,78.697531,NO2,9,19,15
India,Uttar_Pradesh,Moradabad,"Eco Herbal Park, Moradabad - UPPCB",01-10-2025 07:00:00,28.840739,78.697531,CO,18,58,38
India,Uttar_Pradesh,Moradabad,"Eco Herbal Park, Moradabad - UPPCB",01-10-2025 07:00:00,28.840739,78.697531,OZONE,11,77,16
India,Uttar_Pradesh,Moradabad,"Employment Office, Moradabad - UPPCB",01-10-2025 07:00:00,28.88528,78.73880,NH3,4,4,4
India,Uttar_Pradesh,Moradabad,"Jigar Colony, Moradabad - UPPCB",01-10-2025 07:00:00,28.856664,78.772638,CO,40,42,42
India,Uttar_Pradesh,Moradabad,"Jigar Colony, Moradabad - UPPCB",01-10-2025 07:00:00,28.856664,78.772638,OZONE,19,26,19
India,Uttar_Pradesh,Moradabad,"Kashiram Nagar, Moradabad - UPPCB",01-10-2025 07:00:00,28.849399,78.742362,NO2,25,25,25
India,Uttar_Pradesh,Moradabad,"Kashiram Nagar, Moradabad - UPPCB",01-10-2025 07:00:00,28.849399,78.742362,NH3,4,4,4
India,Uttar_Pradesh,Lucknow,"Lalbagh, Lucknow - CPCB",01-10-2025 07:00:00,26.8458805,80.9365541,NO2,34,48,40
India,Uttar_Pradesh,Lucknow,"Lalbagh, Lucknow - CPCB",01-10-2025 07:00:00,26.8458805,80.9365541,CO,25,137,55
India,Uttar_Pradesh,Lucknow,"Talkatora District Industries Center, Lucknow - CPCB",01-10-2025 07:00:00,26.83399722,80.8917361,NO2,45,53,47
India,Uttar_Pradesh,Meerut,"Jai Bhim Nagar, Meerut - UPPCB",01-10-2025 07:00:00,28.9535882,77.7622941,PM2.5,14,142,50
India,Uttar_Pradesh,Meerut,"Jai Bhim Nagar, Meerut - UPPCB",01-10-2025 07:00:00,28.9535882,77.7622941,SO2,5,9,6
India,Uttar_Pradesh,Moradabad,"Buddhi Vihar, Moradabad - UPPCB",01-10-2025 07:00:00,28.83526,78.74460,PM2.5,1,81,31
India,Uttar_Pradesh,Muzaffarnagar,"New Mandi, Muzaffarnagar - UPPCB",01-10-2025 07:00:00,29.4723508,77.7194031,NH3,6,9,8
India,Uttar_Pradesh,Muzaffarnagar,"New Mandi, Muzaffarnagar - UPPCB",01-10-2025 07:00:00,29.4723508,77.7194031,SO2,9,32,19
India,Uttar_Pradesh,Noida,"Sector - 62, Noida - IMD",01-10-2025 07:00:00,28.6245479,77.3577104,CO,18,30,23
India,Uttar_Pradesh,Noida,"Sector-1, Noida - UPPCB",01-10-2025 07:00:00,28.5898,77.3101,PM10,22,155,68
India,Uttar_Pradesh,Noida,"Sector-1, Noida - UPPCB",01-10-2025 07:00:00,28.5898,77.3101,NH3,6,8,7
India,Uttar_Pradesh,Noida,"Sector-116, Noida - UPPCB",01-10-2025 07:00:00,28.569230,77.393848,SO2,5,36,18
India,West_Bengal,Barrackpore,"SVSPA Campus, Barrackpore - WBPCB",01-10-2025 07:00:00,22.7605581,88.3617589,NH3,3,5,5
India,West_Bengal,Durgapur,"PCBL Residential Complex, Durgapur - WBPCB",01-10-2025 07:00:00,23.5087640,87.3544400,NO2,15,34,22
India,West_Bengal,Durgapur,"Womens College_City Center, Durgapur - WBPCB (Formerly known as Sidhu Kanhu Indoor Stadium)",01-10-2025 07:00:00,23.549395,87.300496,PM2.5,29,57,45
India,West_Bengal,Durgapur,"Womens College_City Center, Durgapur - WBPCB (Formerly known as Sidhu Kanhu Indoor Stadium)",01-10-2025 07:00:00,23.549395,87.300496,PM10,60,120,82
India,West_Bengal,Haldia,"Priyambada Housing Estate, Haldia - WBPCB",01-10-2025 07:00:00,22.06047,88.109737,NO2,7,26,14
India,West_Bengal,Haldia,"Priyambada Housing Estate, Haldia - WBPCB",01-10-2025 07:00:00,22.06047,88.109737,SO2,12,22,16
India,West_Bengal,Howrah,"Belur Math, Howrah - WBPCB",01-10-2025 07:00:00,22.629801,88.352017,NO2,8,14,10
India,West_Bengal,Howrah,"Belur Math, Howrah - WBPCB",01-10-2025 07:00:00,22.629801,88.352017,SO2,NA,NA,NA
India,West_Bengal,Howrah,"Dasnagar, Howrah - WBPCB",01-10-2025 07:00:00,22.6025571,88.3105664,PM10,24,74,47
India,West_Bengal,Howrah,"Ghusuri, Howrah - WBPCB",01-10-2025 07:00:00,22.611968,88.347422,NO2,21,27,24
India,West_Bengal,Kolkata,"Ballygunge, Kolkata - WBPCB",01-10-2025 07:00:00,22.5367507,88.3638022,SO2,2,7,5
India,West_Bengal,Kolkata,"Ballygunge, Kolkata - WBPCB",01-10-2025 07:00:00,22.5367507,88.3638022,OZONE,13,27,16
India,West_Bengal,Kolkata,"Bidhannagar, Kolkata - WBPCB",01-10-2025 07:00:00,22.58157048,88.41002457,PM2.5,21,51,33
India,West_Bengal,Kolkata,"Bidhannagar, Kolkata - WBPCB",01-10-2025 07:00:00,22.58157048,88.41002457,PM10,41,61,52
India,West_Bengal,Kolkata,"Fort William, Kolkata - WBPCB",01-10-2025 07:00:00,22.556640,88.342674,PM2.5,20,55,32
India,West_Bengal,Kolkata,"Fort William, Kolkata - WBPCB",01-10-2025 07:00:00,22.556640,88.342674,NO2,13,20,18
India,West_Bengal,Kolkata,"Jadavpur, Kolkata - WBPCB",01-10-2025 07:00:00,22.49929,88.36917,PM2.5,52,141,84
India,West_Bengal,Kolkata,"Jadavpur, Kolkata - WBPCB",01-10-2025 07:00:00,22.49929,88.36917,NO2,24,33,27
India,West_Bengal,Kolkata,"Rabindra Sarobar, Kolkata - WBPCB",01-10-2025 07:00:00,22.51106,88.35142,PM10,27,48,36
India,West_Bengal,Kolkata,"Rabindra Sarobar, Kolkata - WBPCB",01-10-2025 07:00:00,22.51106,88.35142,CO,20,53,25
India,West_Bengal,Kolkata,"Victoria, Kolkata - WBPCB",01-10-2025 07:00:00,22.5448082,88.3403691,NO2,12,25,18
India,West_Bengal,Kolkata,"Victoria, Kolkata - WBPCB",01-10-2025 07:00:00,22.5448082,88.3403691,SO2,2,31,17
India,West_Bengal,Kolkata,"Victoria, Kolkata - WBPCB",01-10-2025 07:00:00,22.5448082,88.3403691,CO,18,63,32
India,West_Bengal,Siliguri,"Ward-32 Bapupara, Siliguri - WBPCB",01-10-2025 07:00:00,26.6879226,88.4152495,SO2,10,12,11
India,West_Bengal,Siliguri,"Ward-32 Bapupara, Siliguri - WBPCB",01-10-2025 07:00:00,26.6879226,88.4152495,OZONE,33,39,35
India,Assam,Nalbari,"Bata Chowk, Nalbari - PCBA",01-10-2025 07:00:00,26.446912,91.439057,PM2.5,46,55,51
India,Assam,Nalbari,"Bata Chowk, Nalbari - PCBA",01-10-2025 07:00:00,26.446912,91.439057,CO,10,29,26
India,Assam,Silchar,"Tarapur, Silchar - PCBA",01-10-2025 07:00:00,24.82827,92.79525,PM2.5,40,58,45
India,Assam,Silchar,"Tarapur, Silchar - PCBA",01-10-2025 07:00:00,24.82827,92.79525,NO2,16,22,18
India,Assam,Silchar,"Tarapur, Silchar - PCBA",01-10-2025 07:00:00,24.82827,92.79525,CO,20,46,38
India,Assam,Silchar,"Tarapur, Silchar - PCBA",01-10-2025 07:00:00,24.82827,92.79525,OZONE,3,25,4
India,Assam,Sivasagar,"Girls College, Sivasagar - PCBA",01-10-2025 07:00:00,26.987634,94.636574,NO2,12,17,15
India,Assam,Sivasagar,"Girls College, Sivasagar - PCBA",01-10-2025 07:00:00,26.987634,94.636574,SO2,7,12,9
India,Assam,Sivasagar,"Girls College, Sivasagar - PCBA",01-10-2025 07:00:00,26.987634,94.636574,CO,4,22,13
India,Bihar,Araria,"Kharahiya Basti, Araria - BSPCB",01-10-2025 07:00:00,26.146529,87.454184,NH3,5,6,5
India,Bihar,Araria,"Kharahiya Basti, Araria - BSPCB",01-10-2025 07:00:00,26.146529,87.454184,SO2,5,21,16
India,Andhra_Pradesh,Visakhapatnam,"GVM Corporation, Visakhapatnam - APPCB",01-10-2025 07:00:00,17.72,83.3,SO2,2,12,7
India,Arunachal_Pradesh,Naharlagun,"Naharlagun, Naharlagun - APSPCB",01-10-2025 07:00:00,27.103358,93.679645,NO2,NA,NA,NA
India,Arunachal_Pradesh,Naharlagun,"Naharlagun, Naharlagun - APSPCB",01-10-2025 07:00:00,27.103358,93.679645,OZONE,5,5,5
India,Assam,Guwahati,"IITG, Guwahati - PCBA",01-10-2025 07:00:00,26.2028636,91.70046436,PM10,20,99,40
India,Assam,Guwahati,"IITG, Guwahati - PCBA",01-10-2025 07:00:00,26.2028636,91.70046436,SO2,22,29,24
India,Assam,Guwahati,"Pan Bazaar, Guwahati - PCBA",01-10-2025 07:00:00,26.187500,91.744194,SO2,48,102,70
India,Assam,Guwahati,"Railway Colony, Guwahati - PCBA",01-10-2025 07:00:00,26.181742,91.78063,PM2.5,23,82,43
India,Assam,Guwahati,"Railway Colony, Guwahati - PCBA",01-10-2025 07:00:00,26.181742,91.78063,SO2,28,29,29
India,Andhra_Pradesh,Tirumala,"Toll Gate, Tirumala - APPCB",01-10-2025 07:00:00,13.67,79.35,OZONE,7,21,16
India,Andhra_Pradesh,Tirupati,"Vaikuntapuram, Tirupati - APPCB",01-10-2025 07:00:00,13.615387,79.409230,PM10,54,105,71
India,Andhra_Pradesh,Tirupati,"Vaikuntapuram, Tirupati - APPCB",01-10-2025 07:00:00,13.615387,79.409230,NO2,5,9,7
India,Andhra_Pradesh,Vijayawada,"HB Colony, Vijayawada - APPCB",01-10-2025 07:00:00,16.536107,80.594233,PM10,NA,NA,NA
India,Andhra_Pradesh,Vijayawada,"HB Colony, Vijayawada - APPCB",01-10-2025 07:00:00,16.536107,80.594233,NH3,NA,NA,NA
India,Andhra_Pradesh,Vijayawada,"HB Colony, Vijayawada - APPCB",01-10-2025 07:00:00,16.536107,80.594233,CO,NA,NA,NA
India,Andhra_Pradesh,Vijayawada,"Rajiv Nagar, Vijayawada - APPCB",01-10-2025 07:00:00,16.554731,80.649110,PM10,NA,NA,NA
India,Andhra_Pradesh,Vijayawada,"Rajiv Nagar, Vijayawada - APPCB",01-10-2025 07:00:00,16.554731,80.649110,NO2,NA,NA,NA
India,Andhra_Pradesh,Anantapur,"Gulzarpet, Anantapur - APPCB",01-10-2025 07:00:00,14.675886,77.593027,NH3,NA,NA,NA
India,Andhra_Pradesh,Chittoor,"Gangineni Cheruvu, Chittoor - APPCB",01-10-2025 07:00:00,13.204880,79.097889,PM2.5,67,138,95
India,Andhra_Pradesh,Chittoor,"Gangineni Cheruvu, Chittoor - APPCB",01-10-2025 07:00:00,13.204880,79.097889,PM10,59,105,81
India,Andhra_Pradesh,Kadapa,"Yerramukkapalli, Kadapa - APPCB",01-10-2025 07:00:00,14.465052,78.824187,NO2,12,20,14
India,Andhra_Pradesh,Kadapa,"Yerramukkapalli, Kadapa - APPCB",01-10-2025 07:00:00,14.465052,78.824187,SO2,18,21,20
India,Andhra_Pradesh,Rajamahendravaram,"Anand Kala Kshetram, Rajamahendravaram - APPCB",01-10-2025 07:00:00,16.9872867,81.7363176,SO2,3,24,10
India,Bihar,Hajipur,"Industrial Area, Hajipur - BSPCB",01-10-2025 07:00:00,25.697189,85.245900,SO2,1,5,3
India,Bihar,Manguraha,"Forest Rest House, Manguraha - BSPCB",01-10-2025 07:00:00,27.308328,84.531742,PM10,28,103,46
India,Bihar,Manguraha,"Forest Rest House, Manguraha - BSPCB",01-10-2025 07:00:00,27.308328,84.531742,CO,32,60,39
India,Bihar,Motihari,"Gandak Colony, Motihari - BSPCB",01-10-2025 07:00:00,26.63086,84.90051,CO,29,39,35
India,Bihar,Munger,"Town Hall, Munger - BSPCB",01-10-2025 07:00:00,25.376776,86.471523,PM10,13,97,48
India,Bihar,Munger,"Town Hall, Munger - BSPCB",01-10-2025 07:00:00,25.376776,86.471523,NO2,4,5,5
India,Bihar,Aurangabad,"Gurdeo Nagar, Aurangabad - BSPCB",01-10-2025 07:00:00,24.75746,84.366208,CO,7,40,25
India,Bihar,Aurangabad,"Gurdeo Nagar, Aurangabad - BSPCB",01-10-2025 07:00:00,24.75746,84.366208,OZONE,3,10,6
India,Bihar,Begusarai,"Lohiyanagar, Begusarai - BSPCB",01-10-2025 07:00:00,25.42742023,86.13886079,PM2.5,15,33,19
India,Bihar,Bhagalpur,"DM Office_Kachari Chowk, Bhagalpur - BSPCB",01-10-2025 07:00:00,25.251013,86.989001,NO2,14,18,16
India,Bihar,Bhagalpur,"Mayaganj, Bhagalpur - BSPCB",01-10-2025 07:00:00,25.265194,87.012947,PM10,74,371,116
India,Bihar,Bihar Sharif,"D M Colony, Bihar Sharif - BSPCB",01-10-2025 07:00:00,25.204762,85.514960,SO2,10,10,10
India,Bihar,Gaya,"Kareemganj, Gaya - BSPCB",01-10-2025 07:00:00,24.792403,84.992416,PM2.5,27,78,45
India,Bihar,Gaya,"Kareemganj, Gaya - BSPCB",01-10-2025 07:00:00,24.792403,84.992416,NO2,3,6,5
India,Bihar,Gaya,"Kareemganj, Gaya - BSPCB",01-10-2025 07:00:00,24.792403,84.992416,OZONE,1,45,12
India,Bihar,Hajipur,"Industrial Area, Hajipur - BSPCB",01-10-2025 07:00:00,25.697189,85.245900,PM10,44,93,70
India,Andhra_Pradesh,Amaravati,"Secretariat, Amaravati - APPCB",01-10-2025 07:00:00,16.5150833,80.5181667,OZONE,3,26,7
India,Andhra_Pradesh,Anantapur,"Gulzarpet, Anantapur - APPCB",01-10-2025 07:00:00,14.675886,77.593027,PM2.5,NA,NA,NA
India,Bihar,Munger,"Town Hall, Munger - BSPCB",01-10-2025 07:00:00,25.376776,86.471523,SO2,17,20,19
India,Bihar,Munger,"Town Hall, Munger - BSPCB",01-10-2025 07:00:00,25.376776,86.471523,CO,18,40,25
India,Bihar,Munger,"Town Hall, Munger - BSPCB",01-10-2025 07:00:00,25.376776,86.471523,OZONE,10,16,12
India,Bihar,Hajipur,"Industrial Area, Hajipur - BSPCB",01-10-2025 07:00:00,25.697189,85.245900,NO2,4,9,7
India,Bihar,Patna,"Govt. High School Shikarpur, Patna - BSPCB",01-10-2025 07:00:00,25.592539,85.227158,SO2,5,10,8
India,Bihar,Patna,"Govt. High School Shikarpur, Patna - BSPCB",01-10-2025 07:00:00,25.592539,85.227158,CO,19,32,24
India,Bihar,Patna,"IGSC Planetarium Complex, Patna - BSPCB",01-10-2025 07:00:00,25.610369,85.132568,PM2.5,NA,NA,NA
India,Bihar,Patna,"IGSC Planetarium Complex, Patna - BSPCB",01-10-2025 07:00:00,25.610369,85.132568,SO2,11,24,20
India,Bihar,Patna,"Muradpur, Patna - BSPCB",01-10-2025 07:00:00,25.619651,85.147382,CO,34,64,48
India,Bihar,Patna,"Rajbansi Nagar, Patna - BSPCB",01-10-2025 07:00:00,25.599486,85.113666,PM10,37,74,51
India,Bihar,Patna,"Rajbansi Nagar, Patna - BSPCB",01-10-2025 07:00:00,25.599486,85.113666,CO,16,92,55
India,Bihar,Purnia,"Mariam Nagar, Purnia - BSPCB",01-10-2025 07:00:00,25.366336,87.117468,CO,4,104,29
India,Bihar,Purnia,"Mariam Nagar, Purnia - BSPCB",01-10-2025 07:00:00,25.366336,87.117468,OZONE,12,51,21
India,Bihar,Rajgir,"Dangi Tola, Rajgir - BSPCB",01-10-2025 07:00:00,25.03280,85.41948,PM10,NA,NA,NA
India,Chandigarh,Chandigarh,"Sector-25, Chandigarh - CPCC",01-10-2025 07:00:00,30.751462,76.762879,PM10,47,115,76
India,Chandigarh,Chandigarh,"Sector-25, Chandigarh - CPCC",01-10-2025 07:00:00,30.751462,76.762879,NO2,8,40,16
India,Chandigarh,Chandigarh,"Sector-25, Chandigarh - CPCC",01-10-2025 07:00:00,30.751462,76.762879,OZONE,7,45,12
India,Chandigarh,Chandigarh,"Sector-53, Chandigarh - CPCC",01-10-2025 07:00:00,30.719859,76.738637,PM10,17,67,33
India,Chandigarh,Chandigarh,"Sector-53, Chandigarh - CPCC",01-10-2025 07:00:00,30.719859,76.738637,SO2,10,31,16
India,Chhattisgarh,Bhilai,"Civic Center, Bhilai - Bhilai Steel Plant",01-10-2025 07:00:00,21.185571,81.343175,PM2.5,NA,NA,NA
India,Chhattisgarh,Bhilai,"Civic Center, Bhilai - Bhilai Steel Plant",01-10-2025 07:00:00,21.185571,81.343175,NO2,NA,NA,NA
India,Chhattisgarh,Bhilai,"Civic Center, Bhilai - Bhilai Steel Plant",01-10-2025 07:00:00,21.185571,81.343175,OZONE,5,13,9
India,Chhattisgarh,Bhilai,"Hathkhoj, Bhilai - CECB",01-10-2025 07:00:00,21.224231,81.408350,PM2.5,18,50,32
India,Chhattisgarh,Bhilai,"Hathkhoj, Bhilai - CECB",01-10-2025 07:00:00,21.224231,81.408350,PM10,27,48,40
India,Bihar,Saharsa,"Police Line, Saharsa - BSPCB",01-10-2025 07:00:00,25.892357,86.590325,NO2,6,8,7
India,Bihar,Saharsa,"Police Line, Saharsa - BSPCB",01-10-2025 07:00:00,25.892357,86.590325,OZONE,6,42,21
India,Bihar,Samastipur,"DM Office_Kasipur, Samastipur - BSPCB",01-10-2025 07:00:00,25.859655,85.77944,PM10,10,82,37
India,Bihar,Samastipur,"DM Office_Kasipur, Samastipur - BSPCB",01-10-2025 07:00:00,25.859655,85.77944,NH3,2,2,2
India,Bihar,Samastipur,"DM Office_Kasipur, Samastipur - BSPCB",01-10-2025 07:00:00,25.859655,85.77944,OZONE,6,12,8
India,Bihar,Sasaram,"Dada Peer, Sasaram - BSPCB",01-10-2025 07:00:00,24.952822,84.002396,PM10,11,117,58
India,Bihar,Siwan,"Chitragupta Nagar, Siwan - BSPCB",01-10-2025 07:00:00,26.2271665,84.3570427,OZONE,2,5,3
India,Chandigarh,Chandigarh,"Sector 22, Chandigarh - CPCC",01-10-2025 07:00:00,30.735567,76.775714,PM10,28,103,58
India,Bihar,Muzaffarpur,"Buddha Colony, Muzaffarpur - BSPCB",01-10-2025 07:00:00,26.11442,85.39813,PM10,14,128,74
India,Bihar,Muzaffarpur,"Buddha Colony, Muzaffarpur - BSPCB",01-10-2025 07:00:00,26.11442,85.39813,NH3,3,7,6
India,Bihar,Muzaffarpur,"MIT-Daudpur Kothi, Muzaffarpur - BSPCB",01-10-2025 07:00:00,26.1403345,85.3650192,PM10,34,54,42
India,Bihar,Muzaffarpur,"MIT-Daudpur Kothi, Muzaffarpur - BSPCB",01-10-2025 07:00:00,26.1403345,85.3650192,SO2,22,30,23
India,Bihar,Muzaffarpur,"Muzaffarpur Collectorate, Muzaffarpur - BSPCB",01-10-2025 07:00:00,26.1209,85.3647,NO2,8,15,12
India,Bihar,Muzaffarpur,"Muzaffarpur Collectorate, Muzaffarpur - BSPCB",01-10-2025 07:00:00,26.1209,85.3647,SO2,4,6,5
India,Bihar,Muzaffarpur,"Muzaffarpur Collectorate, Muzaffarpur - BSPCB",01-10-2025 07:00:00,26.1209,85.3647,OZONE,8,67,8
India,Bihar,Patna,"DRM Office Danapur, Patna - BSPCB",01-10-2025 07:00:00,25.586562,85.043586,NO2,19,85,43
India,Delhi,Delhi,"Ashok Vihar, Delhi - DPCC",01-10-2025 07:00:00,28.695381,77.181665,OZONE,2,53,7
India,Delhi,Delhi,"Aya Nagar, Delhi - IMD",01-10-2025 07:00:00,28.4706914,77.1099364,PM2.5,4,134,43
India,Delhi,Delhi,"Bawana, Delhi - DPCC",01-10-2025 07:00:00,28.776200,77.051074,PM10,37,152,87
India,Delhi,Delhi,"Bawana, Delhi - DPCC",01-10-2025 07:00:00,28.776200,77.051074,SO2,8,13,10
India,Delhi,Delhi,"Burari Crossing, Delhi - IMD",01-10-2025 07:00:00,28.7256504,77.2011573,PM2.5,3,87,33
India,Delhi,Delhi,"Burari Crossing, Delhi - IMD",01-10-2025 07:00:00,28.7256504,77.2011573,CO,26,52,33
India,Delhi,Delhi,"DTU, Delhi - CPCB",01-10-2025 07:00:00,28.7500499,77.1112615,PM2.5,7,58,34
India,Delhi,Delhi,"DTU, Delhi - CPCB",01-10-2025 07:00:00,28.7500499,77.1112615,NO2,36,89,57
India,Delhi,Delhi,"DTU, Delhi - CPCB",01-10-2025 07:00:00,28.7500499,77.1112615,NH3,6,13,9
India,Delhi,Delhi,"Dr. Karni Singh Shooting Range, Delhi - DPCC",01-10-2025 07:00:00,28.498571,77.264840,OZONE,4,33,9
India,Delhi,Delhi,"Dwarka-Sector 8, Delhi - DPCC ",01-10-2025 07:00:00,28.5710274,77.0719006,CO,26,100,45
India,Delhi,Delhi,"IGI Airport (T3), Delhi - IMD",01-10-2025 07:00:00,28.5627763,77.1180053,PM10,28,153,74
India,Delhi,Delhi,"IGI Airport (T3), Delhi - IMD",01-10-2025 07:00:00,28.5627763,77.1180053,NO2,62,133,88
India,Chhattisgarh,Bhilai,"Hathkhoj, Bhilai - CECB",01-10-2025 07:00:00,21.224231,81.408350,NH3,3,4,4
India,Chhattisgarh,Bilaspur,"Mangala, Bilaspur - NTPC",01-10-2025 07:00:00,22.08815,82.13737,SO2,12,23,20
India,Chhattisgarh,Bilaspur,"Mangala, Bilaspur - NTPC",01-10-2025 07:00:00,22.08815,82.13737,CO,42,52,48
India,Chhattisgarh,Chhal,"Nawapara SECL Colony, Chhal - CECB",01-10-2025 07:00:00,22.118125,83.140608,SO2,7,64,20
India,Chhattisgarh,Korba,"Urja Nagar, Korba - CECB",01-10-2025 07:00:00,22.348441,82.549611,PM2.5,17,22,17
India,Chhattisgarh,Korba,"Urja Nagar, Korba - CECB",01-10-2025 07:00:00,22.348441,82.549611,OZONE,35,36,35
India,Chhattisgarh,Milupara,"Govt. Higher Secondary School, Milupara - CECB",01-10-2025 07:00:00,22.1910172,83.5197009,NH3,NA,NA,NA
India,Chhattisgarh,Raipur,"AIIMS, Raipur - CECB",01-10-2025 07:00:00,21.258815,81.578979,NH3,5,5,5
India,Chhattisgarh,Raipur,"AIIMS, Raipur - CECB",01-10-2025 07:00:00,21.258815,81.578979,SO2,10,14,12
India,Chhattisgarh,Raipur,"Krishak Nagar, Raipur - CECB",01-10-2025 07:00:00,21.237755,81.705301,SO2,6,14,7
India,Chhattisgarh,Raipur,"Siltara Phase-II, Raipur - CECB",01-10-2025 07:00:00,21.371751,81.664929,PM2.5,22,41,33
India,Chhattisgarh,Raipur,"Siltara Phase-II, Raipur - CECB",01-10-2025 07:00:00,21.371751,81.664929,CO,12,32,20
India,Chhattisgarh,Tumidih,"OP Jindal Industrial Park, Tumidih - CECB",01-10-2025 07:00:00,22.06631475,83.33820077,NO2,10,68,22
India,Delhi,Delhi,"Alipur, Delhi - DPCC",01-10-2025 07:00:00,28.815329,77.153010,CO,39,71,49
India,Delhi,Delhi,"Major Dhyan Chand National Stadium, Delhi - DPCC",01-10-2025 07:00:00,28.611281,77.237738,CO,32,62,43
India,Delhi,Delhi,"Major Dhyan Chand National Stadium, Delhi - DPCC",01-10-2025 07:00:00,28.611281,77.237738,OZONE,5,27,10
India,Delhi,Delhi,"Mandir Marg, Delhi - DPCC",01-10-2025 07:00:00,28.636429,77.201067,PM10,25,120,68
India,Delhi,Delhi,"Mandir Marg, Delhi - DPCC",01-10-2025 07:00:00,28.636429,77.201067,SO2,3,30,14
India,Delhi,Delhi,"Mundka, Delhi - DPCC",01-10-2025 07:00:00,28.684678,77.076574,SO2,1,22,11
India,Delhi,Delhi,"NSIT Dwarka, Delhi - CPCB",01-10-2025 07:00:00,28.60909,77.0325413,PM2.5,NA,NA,NA
India,Delhi,Delhi,"NSIT Dwarka, Delhi - CPCB",01-10-2025 07:00:00,28.60909,77.0325413,OZONE,5,31,8
India,Delhi,Delhi,"Najafgarh, Delhi - DPCC",01-10-2025 07:00:00,28.570173,76.933762,NO2,NA,NA,NA
India,Delhi,Delhi,"Najafgarh, Delhi - DPCC",01-10-2025 07:00:00,28.570173,76.933762,OZONE,4,16,7
India,Delhi,Delhi,"Narela, Delhi - DPCC",01-10-2025 07:00:00,28.822836,77.101981,PM2.5,15,224,88
India,Delhi,Delhi,"Narela, Delhi - DPCC",01-10-2025 07:00:00,28.822836,77.101981,NO2,13,53,30
India,Delhi,Delhi,"Punjabi Bagh, Delhi - DPCC",01-10-2025 07:00:00,28.674045,77.131023,OZONE,3,47,12
India,Delhi,Delhi,"Pusa, Delhi - DPCC",01-10-2025 07:00:00,28.639652,77.146275,NH3,9,21,14
India,Delhi,Delhi,"Pusa, Delhi - DPCC",01-10-2025 07:00:00,28.639652,77.146275,CO,12,100,36
India,Delhi,Delhi,"Pusa, Delhi - IMD",01-10-2025 07:00:00,28.636110,77.173332,CO,27,78,31
India,Delhi,Delhi,"R K Puram, Delhi - DPCC",01-10-2025 07:00:00,28.563262,77.186937,NO2,19,70,38
India,Delhi,Delhi,"R K Puram, Delhi - DPCC",01-10-2025 07:00:00,28.563262,77.186937,SO2,1,27,12
India,Delhi,Delhi,"Rohini, Delhi - DPCC",01-10-2025 07:00:00,28.732528,77.119920,NO2,9,37,21
India,Delhi,Delhi,"Rohini, Delhi - DPCC",01-10-2025 07:00:00,28.732528,77.119920,NH3,7,8,8
India,Delhi,Delhi,"Shadipur, Delhi - CPCB",01-10-2025 07:00:00,28.6514781,77.1473105,PM10,38,228,84
India,Delhi,Delhi,"Shadipur, Delhi - CPCB",01-10-2025 07:00:00,28.6514781,77.1473105,NO2,64,102,81
India,Delhi,Delhi,"Shadipur, Delhi - CPCB",01-10-2025 07:00:00,28.6514781,77.1473105,NH3,6,9,8
India,Delhi,Delhi,"ITO, Delhi - CPCB",01-10-2025 07:00:00,28.628624,77.241060,SO2,6,27,12
India,Delhi,Delhi,"Jahangirpuri, Delhi - DPCC",01-10-2025 07:00:00,28.732820,77.170633,NH3,5,7,6
India,Delhi,Delhi,"Jahangirpuri, Delhi - DPCC",01-10-2025 07:00:00,28.732820,77.170633,SO2,6,20,13
India,Delhi,Delhi,"Jawaharlal Nehru Stadium, Delhi - DPCC",01-10-2025 07:00:00,28.580280,77.233829,PM2.5,13,95,43
India,Delhi,Delhi,"Jawaharlal Nehru Stadium, Delhi - DPCC",01-10-2025 07:00:00,28.580280,77.233829,NO2,33,104,58
India,Delhi,Delhi,"Lodhi Road, Delhi - IITM",01-10-2025 07:00:00,28.588333,77.221667,SO2,6,19,11
India,Delhi,Delhi,"Major Dhyan Chand National Stadium, Delhi - DPCC",01-10-2025 07:00:00,28.611281,77.237738,PM2.5,15,107,46
India,Delhi,Delhi,"Major Dhyan Chand National Stadium, Delhi - DPCC",01-10-2025 07:00:00,28.611281,77.237738,PM10,14,121,64
India,Gujarat,Ahmedabad,"Rakhial, Ahmedabad - IITM",01-10-2025 07:00:00,23.016834,72.625775,OZONE,4,20,7
India,Gujarat,Ahmedabad,"SAC ISRO Bopal, Ahmedabad - IITM",01-10-2025 07:00:00,23.041137,72.456691,NO2,20,40,25
India,Gujarat,Ahmedabad,"SVPI Airport Hansol, Ahmedabad - IITM",01-10-2025 07:00:00,23.076793,72.627874,PM2.5,13,28,19
India,Gujarat,Ankleshwar,"GIDC, Ankleshwar - GPCB",01-10-2025 07:00:00,21.613267,73.010555,PM2.5,20,50,35
India,Gujarat,Ankleshwar,"GIDC, Ankleshwar - GPCB",01-10-2025 07:00:00,21.613267,73.010555,SO2,50,73,67
India,Gujarat,Ankleshwar,"GIDC, Ankleshwar - GPCB",01-10-2025 07:00:00,21.613267,73.010555,OZONE,58,80,70
India,Gujarat,Gandhinagar,"GIFT City, Gandhinagar - IITM",01-10-2025 07:00:00,23.163798,72.677768,OZONE,3,19,7
India,Gujarat,Gandhinagar,"IIPHG Lekawada, Gandhinagar - IITM",01-10-2025 07:00:00,23.243639,72.68994,NO2,3,6,4
India,Gujarat,Gandhinagar,"IIPHG Lekawada, Gandhinagar - IITM",01-10-2025 07:00:00,23.243639,72.68994,CO,7,62,46
India,Gujarat,Gandhinagar,"Sector-10, Gandhinagar - GPCB",01-10-2025 07:00:00,23.221714,72.654328,PM10,12,55,29
India,Gujarat,Surat,"Science Center, Surat - SMC",01-10-2025 07:00:00,21.170046,72.795405,PM10,9,80,32
India,Gujarat,Surat,"Science Center, Surat - SMC",01-10-2025 07:00:00,21.170046,72.795405,SO2,17,21,19
India,Gujarat,Vatva,"Phase-4 GIDC, Vatva - GPCB",01-10-2025 07:00:00,22.969611,72.643500,CO,8,10,8
India,Gujarat,Vatva,"Phase-4 GIDC, Vatva - GPCB",01-10-2025 07:00:00,22.969611,72.643500,OZONE,NA,NA,NA
India,Gujarat,Ahmedabad,"Chandkheda, Ahmedabad - IITM",01-10-2025 07:00:00,23.107969,72.574648,PM10,21,38,30
India,Gujarat,Ahmedabad,"Gyaspur, Ahmedabad - IITM",01-10-2025 07:00:00,22.977134,72.553024,SO2,26,107,57
India,Gujarat,Ahmedabad,"Maninagar, Ahmedabad - GPCB",01-10-2025 07:00:00,23.002657,72.591912,PM2.5,3,17,8
India,Gujarat,Ahmedabad,"Maninagar, Ahmedabad - GPCB",01-10-2025 07:00:00,23.002657,72.591912,CO,32,46,38
India,Gujarat,Ahmedabad,"Raikhad, Ahmedabad - IITM",01-10-2025 07:00:00,23.020509,72.579261,PM10,29,56,40
India,Gujarat,Ahmedabad,"Raikhad, Ahmedabad - IITM",01-10-2025 07:00:00,23.020509,72.579261,NO2,16,33,23
India,Gujarat,Ahmedabad,"Rakhial, Ahmedabad - IITM",01-10-2025 07:00:00,23.016834,72.625775,SO2,5,8,6
India,Delhi,Delhi,"Shadipur, Delhi - CPCB",01-10-2025 07:00:00,28.6514781,77.1473105,CO,28,62,40
India,Delhi,Delhi,"Sirifort, Delhi - CPCB",01-10-2025 07:00:00,28.5504249,77.2159377,OZONE,15,31,16
India,Delhi,Delhi,"Sonia Vihar, Delhi - DPCC",01-10-2025 07:00:00,28.710508,77.249485,PM10,22,159,67
India,Delhi,Delhi,"Wazirpur, Delhi - DPCC",01-10-2025 07:00:00,28.699793,77.165453,NH3,9,11,10
India,Delhi,Delhi,"Wazirpur, Delhi - DPCC",01-10-2025 07:00:00,28.699793,77.165453,SO2,3,17,9
India,Delhi,Delhi,"Wazirpur, Delhi - DPCC",01-10-2025 07:00:00,28.699793,77.165453,CO,18,46,38
India,Haryana,Bhiwani,"H.B. Colony, Bhiwani - HSPCB",01-10-2025 07:00:00,28.806223,76.141105,SO2,12,13,12
India,Haryana,Faridabad,"New Industrial Town, Faridabad - HSPCB",01-10-2025 07:00:00,28.39072,77.30059,PM2.5,NA,NA,NA
India,Haryana,Faridabad,"New Industrial Town, Faridabad - HSPCB",01-10-2025 07:00:00,28.39072,77.30059,OZONE,NA,NA,NA
India,Haryana,Faridabad,"Sector 30, Faridabad - HSPCB",01-10-2025 07:00:00,28.4417,77.3217,CO,18,64,45
India,Haryana,Faridabad,"Sector 30, Faridabad - HSPCB",01-10-2025 07:00:00,28.4417,77.3217,OZONE,17,19,18
India,Delhi,Delhi,"North Campus, DU, Delhi - IMD",01-10-2025 07:00:00,28.6573814,77.1585447,NO2,27,88,50
India,Delhi,Delhi,"North Campus, DU, Delhi - IMD",01-10-2025 07:00:00,28.6573814,77.1585447,OZONE,7,84,15
India,Delhi,Delhi,"Okhla Phase-2, Delhi - DPCC",01-10-2025 07:00:00,28.530785,77.271255,NO2,30,85,48
India,Delhi,Delhi,"Punjabi Bagh, Delhi - DPCC",01-10-2025 07:00:00,28.674045,77.131023,PM2.5,2,170,54
India,Karnataka,Davanagere,"Devaraj Urs Badavane, Davanagere - KSPCB",01-10-2025 07:00:00,14.475800,75.905200,SO2,1,7,3
India,Karnataka,Davanagere,"Devaraj Urs Badavane, Davanagere - KSPCB",01-10-2025 07:00:00,14.475800,75.905200,OZONE,23,25,24
India,Karnataka,Dharwad,"Kalabhavan, Dharwad - KSPCB",01-10-2025 07:00:00,15.459706,75.008381,CO,32,52,40
India,Karnataka,Dharwad,"Kalabhavan, Dharwad - KSPCB",01-10-2025 07:00:00,15.459706,75.008381,OZONE,13,19,15
India,Karnataka,Hubballi,"Lingaraj Nagar, Hubballi - KSPCB",01-10-2025 07:00:00,15.3714823,75.1160168,PM2.5,23,34,28
India,Karnataka,Kalaburagi,"Mahatma Basaveswar Colony, Kalaburgi - KSPCB",01-10-2025 07:00:00,17.336318,76.847397,PM10,26,50,38
India,Karnataka,Karwar,"KHB Colony, Karwar - KSPCB",01-10-2025 07:00:00,14.816666,74.141003,PM10,1,33,11
India,Karnataka,Karwar,"KHB Colony, Karwar - KSPCB",01-10-2025 07:00:00,14.816666,74.141003,NO2,5,21,8
India,Karnataka,Koppal,"Diwator Nagar, Koppal - KSPCB",01-10-2025 07:00:00,15.347630,76.181767,PM2.5,NA,NA,NA
India,Karnataka,Yadgir,"Collector Office, Yadgir - KSPCB",01-10-2025 07:00:00,16.7602,77.1428,NO2,26,56,37
India,Karnataka,Yadgir,"Collector Office, Yadgir - KSPCB",01-10-2025 07:00:00,16.7602,77.1428,NH3,1,2,2
India,Kerala,Eloor,"Udyogamandal, Eloor - Kerala PCB",01-10-2025 07:00:00,10.073232,76.302765,NO2,6,8,7
India,Kerala,Kannur,"Thavakkara, Kannur - Kerala PCB",01-10-2025 07:00:00,11.875000,75.373200,NH3,2,2,2
India,Kerala,Kannur,"Thavakkara, Kannur - Kerala PCB",01-10-2025 07:00:00,11.875000,75.373200,SO2,3,7,4
India,Kerala,Kollam,"Polayathode, Kollam - Kerala PCB",01-10-2025 07:00:00,8.8787,76.6073,NO2,8,10,9
India,Kerala,Thiruvananthapuram,"Kariavattom, Thiruvananthapuram - Kerala PCB",01-10-2025 07:00:00,8.563700,76.886500,PM10,NA,NA,NA
India,Kerala,Thiruvananthapuram,"Kariavattom, Thiruvananthapuram - Kerala PCB",01-10-2025 07:00:00,8.563700,76.886500,SO2,NA,NA,NA
India,Kerala,Thiruvananthapuram,"Plammoodu, Thiruvananthapuram - Kerala PCB",01-10-2025 07:00:00,8.5149093,76.9435879,NH3,7,15,9
India,Karnataka,Bengaluru,"City Railway Station, Bengaluru - KSPCB",01-10-2025 07:00:00,12.9756843,77.5660749,PM10,85,102,92
India,Karnataka,Bengaluru,"Jayanagar 5th Block, Bengaluru - KSPCB",01-10-2025 07:00:00,12.920984,77.584908,PM2.5,18,44,29
India,Karnataka,Bengaluru,"Peenya, Bengaluru - CPCB",01-10-2025 07:00:00,13.0270199,77.494094,PM2.5,NA,NA,NA
India,Karnataka,Bengaluru,"Peenya, Bengaluru - CPCB",01-10-2025 07:00:00,13.0270199,77.494094,NO2,NA,NA,NA
India,Karnataka,Bengaluru,"Peenya, Bengaluru - CPCB",01-10-2025 07:00:00,13.0270199,77.494094,NH3,NA,NA,NA
India,Karnataka,Bengaluru,"Peenya, Bengaluru - CPCB",01-10-2025 07:00:00,13.0270199,77.494094,SO2,NA,NA,NA
India,Karnataka,Bengaluru,"RVCE-Mailasandra, Bengaluru - KSPCB",01-10-2025 07:00:00,12.921418,77.502466,NO2,NA,NA,NA
India,Karnataka,Bengaluru,"Sanegurava Halli, Bengaluru - KSPCB",01-10-2025 07:00:00,12.990328,77.5431385,NO2,NA,NA,NA
India,Karnataka,Bengaluru,"Sanegurava Halli, Bengaluru - KSPCB",01-10-2025 07:00:00,12.990328,77.5431385,CO,20,32,23
India,Karnataka,Bengaluru,"Shivapura_Peenya, Bengaluru - KSPCB",01-10-2025 07:00:00,13.0246342,77.5080115,OZONE,24,25,24
India,Karnataka,Bengaluru,"Silk Board, Bengaluru - KSPCB",01-10-2025 07:00:00,12.917348,77.622813,PM10,49,197,130
India,Karnataka,Chikkamagaluru,"Kalyana Nagara, Chikkamagaluru - KSPCB",01-10-2025 07:00:00,13.328028,75.797056,PM2.5,10,57,29
India,Jharkhand,Dhanbad,"Sardar Patel Nagar, Dhanbad - JSPCB",01-10-2025 07:00:00,23.80569,86.44268,PM10,26,239,110
India,Jharkhand,Dhanbad,"Sardar Patel Nagar, Dhanbad - JSPCB",01-10-2025 07:00:00,23.80569,86.44268,SO2,2,73,25
India,Karnataka,Bagalkot,"Vidayagiri, Bagalkot - KSPCB",01-10-2025 07:00:00,16.172806,75.659694,PM10,42,43,42
India,Karnataka,Bengaluru,"Bapuji Nagar, Bengaluru - KSPCB",01-10-2025 07:00:00,12.951913,77.539784,OZONE,1,40,5
India,Haryana,Gurugram,"Sector-51, Gurugram - HSPCB",01-10-2025 07:00:00,28.4227,77.0667,NO2,NA,NA,NA
India,Haryana,Kurukshetra,"Sector-7, Kurukshetra - HSPCB",01-10-2025 07:00:00,29.966942,76.875879,PM2.5,30,42,36
India,Haryana,Kurukshetra,"Sector-7, Kurukshetra - HSPCB",01-10-2025 07:00:00,29.966942,76.875879,NH3,5,5,5
India,Haryana,Narnaul,"Shastri Nagar, Narnaul - HSPCB",01-10-2025 07:00:00,28.060249,76.113115,OZONE,13,18,13
India,Himachal Pradesh,Baddi,"HIMUDA Complex Phase-1, Baddi - HPPCB",01-10-2025 07:00:00,30.943887,76.801991,OZONE,NA,NA,NA
India,Jammu_and_Kashmir,Srinagar,"Rajbagh, Srinagar - JKSPCB",01-10-2025 07:00:00,34.066206,74.819820,PM2.5,NA,NA,NA
India,Haryana,Panchgaon,"Amity University, Panchgaon - IITM",01-10-2025 07:00:00,28.3153,76.9143,CO,2,26,11
India,Haryana,Rohtak,"MD University, Rohtak - HSPCB",01-10-2025 07:00:00,28.52123,76.37138,PM2.5,NA,NA,NA
India,Karnataka,Vijayapura,"Ibrahimpur, Vijayapura - KSPCB",01-10-2025 07:00:00,16.802639,75.722694,NO2,NA,NA,NA
India,Madhya Pradesh,Jabalpur,"Marhatal, Jabalpur - MPPCB",01-10-2025 07:00:00,23.168606,79.932247,SO2,7,64,18
India,Madhya Pradesh,Katni,"Gole Bazar, Katni - MPPCB",01-10-2025 07:00:00,23.50016,80.23284,PM2.5,2,28,16
India,Madhya Pradesh,Katni,"Gole Bazar, Katni - MPPCB",01-10-2025 07:00:00,23.50016,80.23284,NO2,32,36,34
India,Madhya Pradesh,Maihar,"Sahilara, Maihar - KJS Cements",01-10-2025 07:00:00,24.2613009,80.7231783,CO,32,39,38
India,Madhya Pradesh,Mandideep,"Sector-D Industrial Area, Mandideep - MPPCB",01-10-2025 07:00:00,23.108440,77.511428,PM10,22,324,60
India,Madhya Pradesh,Mandideep,"Sector-D Industrial Area, Mandideep - MPPCB",01-10-2025 07:00:00,23.108440,77.511428,NO2,8,33,16
India,Madhya Pradesh,Mandideep,"Sector-D Industrial Area, Mandideep - MPPCB",01-10-2025 07:00:00,23.108440,77.511428,OZONE,24,58,28
India,Madhya Pradesh,Pithampur,"Sector-2 Industrial Area, Pithampur - MPPCB",01-10-2025 07:00:00,22.624758,75.675238,PM2.5,30,246,82
India,Madhya Pradesh,Pithampur,"Sector-2 Industrial Area, Pithampur - MPPCB",01-10-2025 07:00:00,22.624758,75.675238,NO2,8,47,22
India,Madhya Pradesh,Pithampur,"Sector-2 Industrial Area, Pithampur - MPPCB",01-10-2025 07:00:00,22.624758,75.675238,NH3,4,5,4
India,Madhya Pradesh,Ratlam,"Shasthri Nagar, Ratlam - IPCA Lab",01-10-2025 07:00:00,23.331731,75.045981,SO2,10,12,11
India,Madhya Pradesh,Sagar,"Civil Lines, Sagar - MPPCB",01-10-2025 07:00:00,23.838586,78.759431,OZONE,18,59,20
India,Madhya Pradesh,Satna,"Bandhavgar Colony, Satna - Birla Cement",01-10-2025 07:00:00,24.58434363,80.8549414,CO,16,30,18
India,Madhya Pradesh,Singrauli,"Suryakiran Bhawan NCL, Singrauli - MPPCB",01-10-2025 07:00:00,24.108970,82.645580,CO,NA,NA,NA
India,Maharashtra,Ahmednagar,"Tarakpur, Ahmednagar - MPCB",01-10-2025 07:00:00,19.10122,74.73339,NO2,17,27,21
India,Maharashtra,Akola,"Ramdaspeth, Akola - MPCB",01-10-2025 07:00:00,20.719516,77.000253,PM2.5,15,55,29
India,Maharashtra,Akola,"Ramdaspeth, Akola - MPCB",01-10-2025 07:00:00,20.719516,77.000253,PM10,29,92,48
India,Kerala,Thrissur,"Corporation Ground, Thrissur - Kerala PCB",01-10-2025 07:00:00,10.532400,76.215900,SO2,1,1,1
India,Kerala,Thrissur,"Corporation Ground, Thrissur - Kerala PCB",01-10-2025 07:00:00,10.532400,76.215900,OZONE,26,27,26
India,Madhya Pradesh,Bhopal,"Paryavaran Parisar, Bhopal - MPPCB",01-10-2025 07:00:00,23.210494,77.425409,PM10,17,47,28
India,Madhya Pradesh,Bhopal,"Paryavaran Parisar, Bhopal - MPPCB",01-10-2025 07:00:00,23.210494,77.425409,NO2,7,26,11
India,Madhya Pradesh,Bhopal,"Paryavaran Parisar, Bhopal - MPPCB",01-10-2025 07:00:00,23.210494,77.425409,CO,13,31,20
India,Madhya Pradesh,Bhopal,"T T Nagar, Bhopal - MPPCB",01-10-2025 07:00:00,23.233584,77.400574,PM2.5,17,42,28
India,Madhya Pradesh,Bhopal,"T T Nagar, Bhopal - MPPCB",01-10-2025 07:00:00,23.233584,77.400574,SO2,8,11,10
India,Madhya Pradesh,Dewas,"Bhopal Chauraha, Dewas - MPPCB",01-10-2025 07:00:00,22.9682591,76.064118,PM2.5,30,157,63
India,Maharashtra,Akola,"Ramdaspeth, Akola - MPCB",01-10-2025 07:00:00,20.719516,77.000253,NH3,5,18,11
India,Maharashtra,Amravati,"Shivneri Colony, Amravati - MPCB",01-10-2025 07:00:00,20.9402359,77.7895248,PM10,15,66,43
India,Maharashtra,Amravati,"Shivneri Colony, Amravati - MPCB",01-10-2025 07:00:00,20.9402359,77.7895248,SO2,1,9,2
India,Maharashtra,Amravati,"Shivneri Colony, Amravati - MPCB",01-10-2025 07:00:00,20.9402359,77.7895248,CO,12,32,18
India,Maharashtra,Amravati,"Shri Shivaji Science College, Amravati - MPCB",01-10-2025 07:00:00,20.939198,77.765701,CO,30,41,36
India,Maharashtra,Aurangabad,"More Chowk Waluj, Aurangabad - MPCB",01-10-2025 07:00:00,19.8389439,75.244448,NH3,10,11,10
India,Maharashtra,Aurangabad,"More Chowk Waluj, Aurangabad - MPCB",01-10-2025 07:00:00,19.8389439,75.244448,OZONE,26,29,27
India,Madhya Pradesh,Dewas,"Bhopal Chauraha, Dewas - MPPCB",01-10-2025 07:00:00,22.9682591,76.064118,OZONE,28,30,29
India,Madhya Pradesh,Gwalior,"Deen Dayal Nagar, Gwalior - MPPCB",01-10-2025 07:00:00,26.259242,78.216432,PM10,14,329,68
India,Madhya Pradesh,Gwalior,"Deen Dayal Nagar, Gwalior - MPPCB",01-10-2025 07:00:00,26.259242,78.216432,NH3,3,5,3
India,Madhya Pradesh,Gwalior,"Maharaj Bada, Gwalior - MPPCB",01-10-2025 07:00:00,26.200388,78.147714,PM10,13,90,39
India,Madhya Pradesh,Indore,"Chhoti Gwaltoli, Indore - MPPCB",01-10-2025 07:00:00,22.4310,75.5213,PM2.5,18,149,73
India,Madhya Pradesh,Indore,"Chhoti Gwaltoli, Indore - MPPCB",01-10-2025 07:00:00,22.4310,75.5213,NH3,2,8,5
India,Maharashtra,Chandrapur,"MIDC Khutala, Chandrapur - MPCB",01-10-2025 07:00:00,19.9775302,79.2337086,PM10,15,165,77
India,Maharashtra,Jalna,"Old MIDC, Jalna - MPCB",01-10-2025 07:00:00,19.854616,75.905894,OZONE,28,64,34
India,Maharashtra,Kalyan,"Khadakpada, Kalyan - MPCB",01-10-2025 07:00:00,19.25292,73.142019,NO2,8,11,9
India,Maharashtra,Kalyan,"Khadakpada, Kalyan - MPCB",01-10-2025 07:00:00,19.25292,73.142019,OZONE,16,16,16
India,Maharashtra,Kolhapur,"Shivaji University, Kolhapur - MPCB",01-10-2025 07:00:00,16.6870449,74.2505872,NO2,3,24,13
India,Madhya Pradesh,Indore,"Maguda Nagar, Indore - IMC",01-10-2025 07:00:00,22.7524,75.8872,NO2,2,2,2
India,Madhya Pradesh,Jabalpur,"Govindh Bhavan Colony, Jabalpur - JMC",01-10-2025 07:00:00,23.163174,79.973061,SO2,7,23,14
India,Madhya Pradesh,Jabalpur,"Govindh Bhavan Colony, Jabalpur - JMC",01-10-2025 07:00:00,23.163174,79.973061,OZONE,12,41,25
India,Madhya Pradesh,Jabalpur,"Gupteshwar, Jabalpur - JMC",01-10-2025 07:00:00,23.142888,79.916147,PM10,NA,NA,NA
India,Maharashtra,Malegaon,"Mahesh Nagar, Malegaon - MPCB",01-10-2025 07:00:00,20.555712,74.529236,PM2.5,42,81,59
India,Maharashtra,Malegaon,"Mahesh Nagar, Malegaon - MPCB",01-10-2025 07:00:00,20.555712,74.529236,SO2,11,23,16
India,Maharashtra,Belapur,"CBD Belapur, Belapur - MPCB",01-10-2025 07:00:00,19.0243902,73.0406721,CO,2,22,6
India,Maharashtra,Mira-Bhayandar,"Bhayandar West, Mira-Bhayandar - MPCB",01-10-2025 07:00:00,19.296481,72.840923,SO2,1,2,1
India,Maharashtra,Mumbai,"Bandra Kurla Complex, Mumbai - IITM",01-10-2025 07:00:00,19.053536,72.84643,PM2.5,10,50,28
India,Maharashtra,Mumbai,"Bandra Kurla Complex, Mumbai - IITM",01-10-2025 07:00:00,19.053536,72.84643,NH3,9,19,12
India,Maharashtra,Mumbai,"Bandra Kurla Complex, Mumbai - IITM",01-10-2025 07:00:00,19.053536,72.84643,OZONE,NA,NA,NA
India,Maharashtra,Mumbai,"Bandra Kurla Complex, Mumbai - MPCB",01-10-2025 07:00:00,19.065931,72.862131,NO2,13,25,20
India,Maharashtra,Mumbai,"Bandra Kurla Complex, Mumbai - MPCB",01-10-2025 07:00:00,19.065931,72.862131,SO2,2,4,3
India,Maharashtra,Mumbai,"Byculla, Mumbai - BMC",01-10-2025 07:00:00,18.9767,72.8380,PM10,15,39,29
