country,state,city,station,last_update,latitude,longitude,pollutant_id,min_value,max_value,avg_value
India,Assam,Nalbari,"Bata Chowk, Nalbari - PCBA",16-03-2026 08:00:00,26.446912,91.439057,PM2.5,118,172,150
India,Assam,Silchar,"Tarapur, Silchar - PCBA",16-03-2026 08:00:00,24.82827,92.79525,CO,14,34,17
India,Assam,Sivasagar,"Girls College, Sivasagar - PCBA",16-03-2026 08:00:00,26.987634,94.636574,PM10,18,27,21
India,Assam,Sivasagar,"Girls College, Sivasagar - PCBA",16-03-2026 08:00:00,26.987634,94.636574,SO2,7,8,7
India,Assam,Sivasagar,"Girls College, Sivasagar - PCBA",16-03-2026 08:00:00,26.987634,94.636574,CO,13,24,17
India,Assam,Sivasagar,"Girls College, Sivasagar - PCBA",16-03-2026 08:00:00,26.987634,94.636574,OZONE,19,50,37
India,Bihar,Araria,"Kharahiya Basti, Araria - BSPCB",16-03-2026 08:00:00,26.146529,87.454184,NO2,1,8,3
India,Bihar,Araria,"Kharahiya Basti, Araria - BSPCB",16-03-2026 08:00:00,26.146529,87.454184,NH3,4,4,4
India,Bihar,Arrah,"New DM Office, Arrah - BSPCB",16-03-2026 08:00:00,25.5626095,84.663264,PM2.5,58,187,104
India,Bihar,Arrah,"New DM Office, Arrah - BSPCB",16-03-2026 08:00:00,25.5626095,84.663264,SO2,5,6,5
India,Bihar,Aurangabad,"Gurdeo Nagar, Aurangabad - BSPCB",16-03-2026 08:00:00,24.75746,84.366208,PM2.5,28,52,39
India,Bihar,Buxar,"Charitra Van, Buxar - BSPCB",16-03-2026 08:00:00,25.567520,83.966379,NH3,3,3,3
India,Bihar,Buxar,"Charitra Van, Buxar - BSPCB",16-03-2026 08:00:00,25.567520,83.966379,SO2,25,37,30
India,Bihar,Chhapra,"Darshan Nagar, Chhapra - BSPCB",16-03-2026 08:00:00,25.7808257,84.7446768,PM10,NA,NA,NA
India,Bihar,Chhapra,"Darshan Nagar, Chhapra - BSPCB",16-03-2026 08:00:00,25.7808257,84.7446768,CO,7,15,10
India,Bihar,Gaya,"Kareemganj, Gaya - BSPCB",16-03-2026 08:00:00,24.792403,84.992416,PM2.5,NA,NA,NA
India,Bihar,Gaya,"Kareemganj, Gaya - BSPCB",16-03-2026 08:00:00,24.792403,84.992416,SO2,NA,NA,NA
India,Bihar,Gaya,"Kareemganj, Gaya - BSPCB",16-03-2026 08:00:00,24.792403,84.992416,OZONE,NA,NA,NA
India,Bihar,Gaya,"SFTI Kusdihra, Gaya - BSPCB",16-03-2026 08:00:00,24.762518,84.982348,NO2,19,23,21
India,Bihar,Gaya,"SFTI Kusdihra, Gaya - BSPCB",16-03-2026 08:00:00,24.762518,84.982348,SO2,6,8,7
India,Bihar,Hajipur,"Industrial Area, Hajipur - BSPCB",16-03-2026 08:00:00,25.697189,85.245900,NO2,14,22,18
India,Bihar,Katihar,"Mirchaibari, Katihar - BSPCB",16-03-2026 08:00:00,25.560083,87.553265,PM10,22,60,42
India,Bihar,Katihar,"Mirchaibari, Katihar - BSPCB",16-03-2026 08:00:00,25.560083,87.553265,CO,61,100,70
India,Bihar,Kishanganj,"SDM Office_Khagra, Kishanganj - BSPCB",16-03-2026 08:00:00,26.0881305,87.93840336,CO,14,16,14
India,Bihar,Manguraha,"Forest Rest House, Manguraha - BSPCB",16-03-2026 08:00:00,27.308328,84.531742,NH3,1,48,8
India,Bihar,Manguraha,"Forest Rest House, Manguraha - BSPCB",16-03-2026 08:00:00,27.308328,84.531742,CO,32,34,33
India,Bihar,Motihari,"Gandak Colony, Motihari - BSPCB",16-03-2026 08:00:00,26.63086,84.90051,PM10,18,159,77
India,Bihar,Motihari,"Gandak Colony, Motihari - BSPCB",16-03-2026 08:00:00,26.63086,84.90051,NO2,3,5,4
India,Bihar,Munger,"Town Hall, Munger - BSPCB",16-03-2026 08:00:00,25.376776,86.471523,NH3,2,3,3
India,Bihar,Munger,"Town Hall, Munger - BSPCB",16-03-2026 08:00:00,25.376776,86.471523,CO,24,34,28
India,Bihar,Muzaffarpur,"Buddha Colony, Muzaffarpur - BSPCB",16-03-2026 08:00:00,26.11442,85.39813,OZONE,12,62,18
India,Arunachal_Pradesh,Naharlagun,"Naharlagun, Naharlagun - APSPCB",16-03-2026 08:00:00,27.103358,93.679645,OZONE,5,5,5
India,Assam,Byrnihat,"Central Academy for SFS, Byrnihat - PCBA",16-03-2026 08:00:00,26.071318,91.87488,SO2,30,32,32
India,Assam,Guwahati,"IITG, Guwahati - PCBA",16-03-2026 08:00:00,26.2028636,91.70046436,PM2.5,14,69,33
India,Assam,Guwahati,"IITG, Guwahati - PCBA",16-03-2026 08:00:00,26.2028636,91.70046436,NH3,5,5,5
India,Assam,Guwahati,"IITG, Guwahati - PCBA",16-03-2026 08:00:00,26.2028636,91.70046436,SO2,30,32,31
India,Assam,Guwahati,"LGBI Airport, Guwahati - PCBA",16-03-2026 08:00:00,26.10887,91.589544,PM2.5,45,155,90
India,Assam,Guwahati,"LGBI Airport, Guwahati - PCBA",16-03-2026 08:00:00,26.10887,91.589544,NH3,4,6,5
India,Assam,Guwahati,"Pan Bazaar, Guwahati - PCBA",16-03-2026 08:00:00,26.187500,91.744194,CO,16,38,17
India,Assam,Guwahati,"Railway Colony, Guwahati - PCBA",16-03-2026 08:00:00,26.181742,91.78063,PM2.5,15,148,53
India,Andhra_Pradesh,Guntur,"Rajendra Nagar North, Guntur - APPCB",16-03-2026 08:00:00,16.316553,80.413302,OZONE,17,29,27
India,Andhra_Pradesh,Kadapa,"Yerramukkapalli, Kadapa - APPCB",16-03-2026 08:00:00,14.465052,78.824187,SO2,11,15,15
India,Andhra_Pradesh,Kadapa,"Yerramukkapalli, Kadapa - APPCB",16-03-2026 08:00:00,14.465052,78.824187,CO,10,28,26
India,Andhra_Pradesh,Machilipatnam,"Srinivas Nagar Colony, Machilipatnam - APPCB",16-03-2026 08:00:00,16.186555,81.13219,PM2.5,54,171,68
India,Andhra_Pradesh,Machilipatnam,"Srinivas Nagar Colony, Machilipatnam - APPCB",16-03-2026 08:00:00,16.186555,81.13219,SO2,17,21,18
India,Andhra_Pradesh,Tirumala,"Toll Gate, Tirumala - APPCB",16-03-2026 08:00:00,13.67,79.35,PM10,10,65,42
India,Andhra_Pradesh,Tirumala,"Toll Gate, Tirumala - APPCB",16-03-2026 08:00:00,13.67,79.35,SO2,2,10,4
India,Andhra_Pradesh,Tirupati,"Vaikuntapuram, Tirupati - APPCB",16-03-2026 08:00:00,13.615387,79.409230,PM2.5,48,386,145
India,Andhra_Pradesh,Tirupati,"Vaikuntapuram, Tirupati - APPCB",16-03-2026 08:00:00,13.615387,79.409230,SO2,13,18,17
India,Andhra_Pradesh,Vijayawada,"HB Colony, Vijayawada - APPCB",16-03-2026 08:00:00,16.536107,80.594233,CO,38,40,39
India,Andhra_Pradesh,Vijayawada,"HB Colony, Vijayawada - APPCB",16-03-2026 08:00:00,16.536107,80.594233,OZONE,15,19,19
India,Andhra_Pradesh,Vijayawada,"Kanuru, Vijayawada - APPCB",16-03-2026 08:00:00,16.486692,80.699436,PM2.5,43,68,58
India,Andhra_Pradesh,Vijayawada,"Kanuru, Vijayawada - APPCB",16-03-2026 08:00:00,16.486692,80.699436,NH3,4,5,5
India,Andhra_Pradesh,Vijayawada,"Kanuru, Vijayawada - APPCB",16-03-2026 08:00:00,16.486692,80.699436,OZONE,21,26,26
India,Andhra_Pradesh,Vijayawada,"Rajiv Nagar, Vijayawada - APPCB",16-03-2026 08:00:00,16.554731,80.649110,PM2.5,50,62,54
India,Arunachal_Pradesh,Naharlagun,"Naharlagun, Naharlagun - APSPCB",16-03-2026 08:00:00,27.103358,93.679645,PM10,4,47,20
India,Bihar,Muzaffarpur,"MIT-Daudpur Kothi, Muzaffarpur - BSPCB",16-03-2026 08:00:00,26.1403345,85.3650192,CO,39,56,48
India,Bihar,Patna,"DRM Office Danapur, Patna - BSPCB",16-03-2026 08:00:00,25.586562,85.043586,NH3,10,12,11
India,Bihar,Patna,"DRM Office Danapur, Patna - BSPCB",16-03-2026 08:00:00,25.586562,85.043586,SO2,5,8,6
India,Bihar,Patna,"Govt. High School Shikarpur, Patna - BSPCB",16-03-2026 08:00:00,25.592539,85.227158,NO2,14,19,16
India,Bihar,Patna,"IGSC Planetarium Complex, Patna - BSPCB",16-03-2026 08:00:00,25.610369,85.132568,NO2,1,3,2
India,Bihar,Aurangabad,"Gurdeo Nagar, Aurangabad - BSPCB",16-03-2026 08:00:00,24.75746,84.366208,SO2,3,26,14
India,Bihar,Begusarai,"Lohiyanagar, Begusarai - BSPCB",16-03-2026 08:00:00,25.42742023,86.13886079,PM10,56,99,69
India,Bihar,Begusarai,"Lohiyanagar, Begusarai - BSPCB",16-03-2026 08:00:00,25.42742023,86.13886079,SO2,21,26,24
India,Bihar,Bettiah,"Kamalnath Nagar, Bettiah - BSPCB",16-03-2026 08:00:00,26.80365,84.51954,PM10,13,102,47
India,Bihar,Bhagalpur,"DM Office_Kachari Chowk, Bhagalpur - BSPCB",16-03-2026 08:00:00,25.251013,86.989001,OZONE,10,28,16
India,Andhra_Pradesh,Anantapur,"Gulzarpet, Anantapur - APPCB",16-03-2026 08:00:00,14.675886,77.593027,SO2,15,18,17
India,Andhra_Pradesh,Chittoor,"Gangineni Cheruvu, Chittoor - APPCB",16-03-2026 08:00:00,13.204880,79.097889,PM2.5,44,82,62
India,Andhra_Pradesh,Eluru,"District Court, Eluru - APPCB",16-03-2026 08:00:00,16.711754,81.092095,PM2.5,35,76,49
India,Andhra_Pradesh,Eluru,"District Court, Eluru - APPCB",16-03-2026 08:00:00,16.711754,81.092095,PM10,23,71,39
India,Andhra_Pradesh,Eluru,"District Court, Eluru - APPCB",16-03-2026 08:00:00,16.711754,81.092095,CO,22,36,26
India,Bihar,Patna,"Muradpur, Patna - BSPCB",16-03-2026 08:00:00,25.619651,85.147382,PM10,128,142,134
India,Bihar,Patna,"Rajbansi Nagar, Patna - BSPCB",16-03-2026 08:00:00,25.599486,85.113666,PM10,88,175,116
India,Delhi,Delhi,"Aya Nagar, Delhi - IMD",16-03-2026 08:00:00,28.4706914,77.1099364,CO,10,26,17
India,Delhi,Delhi,"Aya Nagar, Delhi - IMD",16-03-2026 08:00:00,28.4706914,77.1099364,OZONE,12,64,25
India,Delhi,Delhi,"Bawana, Delhi - DPCC",16-03-2026 08:00:00,28.776200,77.051074,PM10,73,182,117
India,Delhi,Delhi,"Bawana, Delhi - DPCC",16-03-2026 08:00:00,28.776200,77.051074,CO,20,64,34
India,Delhi,Delhi,"Bawana, Delhi - DPCC",16-03-2026 08:00:00,28.776200,77.051074,OZONE,10,77,25
India,Delhi,Delhi,"Burari Crossing, Delhi - IMD",16-03-2026 08:00:00,28.7256504,77.2011573,NO2,55,88,68
India,Delhi,Delhi,"Cantonment Area, Delhi - DPCC ",16-03-2026 08:00:00,28.594169 ,77.125100 ,NH3,2,6,3
India,Delhi,Delhi,"Chandni Chowk, Delhi - IITM",16-03-2026 08:00:00,28.656756,77.227234,PM2.5,56,201,83
India,Delhi,Delhi,"Chandni Chowk, Delhi - IITM",16-03-2026 08:00:00,28.656756,77.227234,SO2,8,42,18
India,Delhi,Delhi,"Chandni Chowk, Delhi - IITM",16-03-2026 08:00:00,28.656756,77.227234,CO,102,111,106
India,Delhi,Delhi,"Commonwealth Sports Complex, Delhi - DPCC",16-03-2026 08:00:00,28.615828 ,77.271992 ,PM2.5,19,123,59
India,Delhi,Delhi,"Commonwealth Sports Complex, Delhi - DPCC",16-03-2026 08:00:00,28.615828 ,77.271992 ,PM10,45,123,95
India,Delhi,Delhi,"Commonwealth Sports Complex, Delhi - DPCC",16-03-2026 08:00:00,28.615828 ,77.271992 ,NO2,34,57,46
India,Chhattisgarh,Kunjemura,"OP Jindal School, Kunjemura - CECB",16-03-2026 08:00:00,22.126650,83.483212,NH3,2,2,2
India,Chhattisgarh,Kunjemura,"OP Jindal School, Kunjemura - CECB",16-03-2026 08:00:00,22.126650,83.483212,CO,32,123,65
India,Chhattisgarh,Milupara,"Govt. Higher Secondary School, Milupara - CECB",16-03-2026 08:00:00,22.1910172,83.5197009,PM2.5,NA,NA,NA
India,Chhattisgarh,Milupara,"Govt. Higher Secondary School, Milupara - CECB",16-03-2026 08:00:00,22.1910172,83.5197009,NH3,NA,NA,NA
India,Chhattisgarh,Milupara,"Govt. Higher Secondary School, Milupara - CECB",16-03-2026 08:00:00,22.1910172,83.5197009,CO,NA,NA,NA
India,Chhattisgarh,Raipur,"AIIMS, Raipur - CECB",16-03-2026 08:00:00,21.258815,81.578979,NO2,27,32,30
India,Chhattisgarh,Raipur,"AIIMS, Raipur - CECB",16-03-2026 08:00:00,21.258815,81.578979,CO,26,41,32
India,Chhattisgarh,Raipur,"Bhatagaon New ISBT, Raipur - CECB",16-03-2026 08:00:00,21.219665,81.630094,PM10,NA,NA,NA
India,Chhattisgarh,Raipur,"Bhatagaon New ISBT, Raipur - CECB",16-03-2026 08:00:00,21.219665,81.630094,SO2,NA,NA,NA
India,Chhattisgarh,Raipur,"Krishak Nagar, Raipur - CECB",16-03-2026 08:00:00,21.237755,81.705301,PM10,39,52,47
India,Chhattisgarh,Raipur,"Krishak Nagar, Raipur - CECB",16-03-2026 08:00:00,21.237755,81.705301,NO2,12,16,15
India,Bihar,Patna,"Samanpura, Patna - BSPCB",16-03-2026 08:00:00,25.596727,85.085624,PM10,101,210,135
India,Bihar,Patna,"Samanpura, Patna - BSPCB",16-03-2026 08:00:00,25.596727,85.085624,NO2,35,48,41
India,Bihar,Patna,"Samanpura, Patna - BSPCB",16-03-2026 08:00:00,25.596727,85.085624,SO2,4,5,4
India,Bihar,Patna,"Samanpura, Patna - BSPCB",16-03-2026 08:00:00,25.596727,85.085624,CO,58,106,91
India,Bihar,Purnia,"Mariam Nagar, Purnia - BSPCB",16-03-2026 08:00:00,25.366336,87.117468,NH3,3,3,3
India,Bihar,Purnia,"Mariam Nagar, Purnia - BSPCB",16-03-2026 08:00:00,25.366336,87.117468,CO,54,58,56
India,Bihar,Purnia,"Mariam Nagar, Purnia - BSPCB",16-03-2026 08:00:00,25.366336,87.117468,OZONE,16,24,20
India,Bihar,Rajgir,"Dangi Tola, Rajgir - BSPCB",16-03-2026 08:00:00,25.03280,85.41948,NO2,13,15,14
India,Bihar,Saharsa,"Police Line, Saharsa - BSPCB",16-03-2026 08:00:00,25.892357,86.590325,NH3,4,4,4
India,Bihar,Sasaram,"Dada Peer, Sasaram - BSPCB",16-03-2026 08:00:00,24.952822,84.002396,PM2.5,26,83,54
India,Chandigarh,Chandigarh,"Sector 22, Chandigarh - CPCC",16-03-2026 08:00:00,30.735567,76.775714,NO2,5,18,9
India,Chandigarh,Chandigarh,"Sector 22, Chandigarh - CPCC",16-03-2026 08:00:00,30.735567,76.775714,OZONE,20,97,37
India,Chandigarh,Chandigarh,"Sector-53, Chandigarh - CPCC",16-03-2026 08:00:00,30.719859,76.738637,NO2,21,75,40
India,Chandigarh,Chandigarh,"Sector-53, Chandigarh - CPCC",16-03-2026 08:00:00,30.719859,76.738637,SO2,5,7,6
India,Chandigarh,Chandigarh,"Sector-53, Chandigarh - CPCC",16-03-2026 08:00:00,30.719859,76.738637,CO,28,87,37
India,Chhattisgarh,Bhilai,"32Bungalows, Bhilai - CECB",16-03-2026 08:00:00,21.194815,81.314770,PM2.5,30,49,36
India,Chhattisgarh,Bhilai,"32Bungalows, Bhilai - CECB",16-03-2026 08:00:00,21.194815,81.314770,SO2,2,5,4
India,Chhattisgarh,Bhilai,"32Bungalows, Bhilai - CECB",16-03-2026 08:00:00,21.194815,81.314770,CO,18,34,30
India,Chhattisgarh,Bhilai,"32Bungalows, Bhilai - CECB",16-03-2026 08:00:00,21.194815,81.314770,OZONE,4,20,6
India,Chhattisgarh,Bhilai,"Civic Center, Bhilai - Bhilai Steel Plant",16-03-2026 08:00:00,21.185571,81.343175,OZONE,7,13,10
India,Chhattisgarh,Raipur,"Krishak Nagar, Raipur - CECB",16-03-2026 08:00:00,21.237755,81.705301,CO,17,30,26
India,Chhattisgarh,Raipur,"Siltara Phase-II, Raipur - CECB",16-03-2026 08:00:00,21.371751,81.664929,PM2.5,33,89,58
India,Chhattisgarh,Raipur,"Siltara Phase-II, Raipur - CECB",16-03-2026 08:00:00,21.371751,81.664929,SO2,10,78,37
India,Delhi,Delhi,"Alipur, Delhi - DPCC",16-03-2026 08:00:00,28.815329,77.153010,PM2.5,27,140,64
India,Delhi,Delhi,"Alipur, Delhi - DPCC",16-03-2026 08:00:00,28.815329,77.153010,NH3,12,14,13
India,Delhi,Delhi,"Alipur, Delhi - DPCC",16-03-2026 08:00:00,28.815329,77.153010,SO2,7,16,11
India,Delhi,Delhi,"Alipur, Delhi - DPCC",16-03-2026 08:00:00,28.815329,77.153010,OZONE,11,45,16
India,Chhattisgarh,Chhal,"Nawapara SECL Colony, Chhal - CECB",16-03-2026 08:00:00,22.118125,83.140608,PM2.5,NA,NA,NA
India,Chhattisgarh,Chhal,"Nawapara SECL Colony, Chhal - CECB",16-03-2026 08:00:00,22.118125,83.140608,NO2,NA,NA,NA
India,Chhattisgarh,Chhal,"Nawapara SECL Colony, Chhal - CECB",16-03-2026 08:00:00,22.118125,83.140608,SO2,NA,NA,NA
India,Chhattisgarh,Chhal,"Nawapara SECL Colony, Chhal - CECB",16-03-2026 08:00:00,22.118125,83.140608,OZONE,NA,NA,NA
India,Chhattisgarh,Korba,"Urja Nagar, Korba - CECB",16-03-2026 08:00:00,22.348441,82.549611,PM2.5,51,416,131
India,Chhattisgarh,Korba,"Urja Nagar, Korba - CECB",16-03-2026 08:00:00,22.348441,82.549611,SO2,9,22,14
India,Delhi,Delhi,"Dwarka-Sector 8, Delhi - DPCC ",16-03-2026 08:00:00,28.5710274,77.0719006,OZONE,16,100,29
India,Delhi,Delhi,"IGNOU_Maidan Garhi, Delhi - DPCC",16-03-2026 08:00:00,28.493624 ,77.201159 ,SO2,58,64,60
India,Delhi,Delhi,"IGNOU_Maidan Garhi, Delhi - DPCC",16-03-2026 08:00:00,28.493624 ,77.201159 ,CO,106,114,108
India,Delhi,Delhi,"IHBAS, Dilshad Garden, Delhi - CPCB",16-03-2026 08:00:00,28.6811736,77.3025234,OZONE,11,17,12
India,Chhattisgarh,Kunjemura,"OP Jindal School, Kunjemura - CECB",16-03-2026 08:00:00,22.126650,83.483212,PM2.5,51,310,126
India,Delhi,Delhi,"DTU, Delhi - CPCB",16-03-2026 08:00:00,28.7500499,77.1112615,SO2,25,31,27
India,Delhi,Delhi,"IIT Delhi, Delhi - IITM",16-03-2026 08:00:00,28.542460,77.191651,PM10,35,111,83
India,Delhi,Delhi,"ITO, Delhi - CPCB",16-03-2026 08:00:00,28.628624,77.241060,PM2.5,32,103,50
India,Delhi,Delhi,"ITO, Delhi - CPCB",16-03-2026 08:00:00,28.628624,77.241060,NO2,5,107,47
India,Delhi,Delhi,"JNU, Delhi - DPCC",16-03-2026 08:00:00,28.540721 ,77.168544 ,NO2,7,32,18
India,Delhi,Delhi,"JNU, Delhi - DPCC",16-03-2026 08:00:00,28.540721 ,77.168544 ,NH3,2,12,5
India,Delhi,Delhi,"Jahangirpuri, Delhi - DPCC",16-03-2026 08:00:00,28.732820,77.170633,NO2,41,72,51
India,Delhi,Delhi,"Jahangirpuri, Delhi - DPCC",16-03-2026 08:00:00,28.732820,77.170633,NH3,13,18,15
India,Delhi,Delhi,"Jahangirpuri, Delhi - DPCC",16-03-2026 08:00:00,28.732820,77.170633,OZONE,12,46,21
India,Delhi,Delhi,"Jawaharlal Nehru Stadium, Delhi - DPCC",16-03-2026 08:00:00,28.580280,77.233829,PM2.5,18,88,49
India,Delhi,Delhi,"Jawaharlal Nehru Stadium, Delhi - DPCC",16-03-2026 08:00:00,28.580280,77.233829,CO,18,54,45
India,Delhi,Delhi,"Jawaharlal Nehru Stadium, Delhi - DPCC",16-03-2026 08:00:00,28.580280,77.233829,OZONE,23,97,37
India,Delhi,Delhi,"Lodhi Road, Delhi - IMD",16-03-2026 08:00:00,28.5918245,77.2273074,PM10,42,121,82
India,Delhi,Delhi,"Lodhi Road, Delhi - IMD",16-03-2026 08:00:00,28.5918245,77.2273074,CO,28,52,32
India,Gujarat,Vadodara,"Bapunagar, Vadodara - Nexteng Enviro",16-03-2026 08:00:00,22.320153,73.216285,OZONE,3,9,4
India,Gujarat,Vapi,"Phase-1 GIDC, Vapi - GPCB",16-03-2026 08:00:00,20.362421,72.918013,PM2.5,24,91,42
India,Gujarat,Vapi,"Phase-1 GIDC, Vapi - GPCB",16-03-2026 08:00:00,20.362421,72.918013,PM10,47,101,62
India,Gujarat,Vapi,"Phase-1 GIDC, Vapi - GPCB",16-03-2026 08:00:00,20.362421,72.918013,NH3,4,5,4
India,Gujarat,Vapi,"Phase-1 GIDC, Vapi - GPCB",16-03-2026 08:00:00,20.362421,72.918013,OZONE,6,25,14
India,Gujarat,Vatva,"Phase-4 GIDC, Vatva - GPCB",16-03-2026 08:00:00,22.969611,72.643500,PM10,97,199,133
India,Haryana,Ambala,"Patti Mehar, Ambala - HSPCB",16-03-2026 08:00:00,30.379589,76.778328,PM10,43,157,102
India,Haryana,Ballabgarh,"Nathu Colony, Ballabgarh - HSPCB",16-03-2026 08:00:00,28.3419248,77.319699,OZONE,6,6,6
India,Haryana,Bhiwani,"H.B. Colony, Bhiwani - HSPCB",16-03-2026 08:00:00,28.806223,76.141105,NO2,7,10,8
India,Haryana,Bhiwani,"H.B. Colony, Bhiwani - HSPCB",16-03-2026 08:00:00,28.806223,76.141105,SO2,1,8,4
India,Delhi,Delhi,"Punjabi Bagh, Delhi - DPCC",16-03-2026 08:00:00,28.674045,77.131023,PM10,56,140,93
India,Delhi,Delhi,"Punjabi Bagh, Delhi - DPCC",16-03-2026 08:00:00,28.674045,77.131023,OZONE,15,66,23
India,Delhi,Delhi,"Pusa, Delhi - DPCC",16-03-2026 08:00:00,28.639652,77.146275,SO2,8,39,17
India,Delhi,Delhi,"Pusa, Delhi - IMD",16-03-2026 08:00:00,28.636110,77.173332,PM2.5,8,68,40
India,Delhi,Delhi,"R K Puram, Delhi - DPCC",16-03-2026 08:00:00,28.563262,77.186937,SO2,2,37,19
India,Delhi,Delhi,"R K Puram, Delhi - DPCC",16-03-2026 08:00:00,28.563262,77.186937,OZONE,26,80,37
India,Delhi,Delhi,"Rohini, Delhi - DPCC",16-03-2026 08:00:00,28.732528,77.119920,NO2,19,42,26
India,Delhi,Delhi,"Rohini, Delhi - DPCC",16-03-2026 08:00:00,28.732528,77.119920,SO2,6,12,9
India,Delhi,Delhi,"Shadipur, Delhi - CPCB",16-03-2026 08:00:00,28.6514781,77.1473105,PM2.5,73,214,138
India,Delhi,Delhi,"Shadipur, Delhi - CPCB",16-03-2026 08:00:00,28.6514781,77.1473105,PM10,64,136,91
India,Delhi,Delhi,"Shadipur, Delhi - CPCB",16-03-2026 08:00:00,28.6514781,77.1473105,NH3,10,14,12
India,Delhi,Delhi,"Narela, Delhi - DPCC",16-03-2026 08:00:00,28.822836,77.101981,NO2,8,27,16
India,Delhi,Delhi,"Nehru Nagar, Delhi - DPCC",16-03-2026 08:00:00,28.567890,77.250515,NH3,21,27,24
India,Delhi,Delhi,"Nehru Nagar, Delhi - DPCC",16-03-2026 08:00:00,28.567890,77.250515,CO,74,148,94
India,Delhi,Delhi,"Nehru Nagar, Delhi - DPCC",16-03-2026 08:00:00,28.567890,77.250515,OZONE,19,147,43
India,Delhi,Delhi,"New Moti Bagh, Delhi - MHUA",16-03-2026 08:00:00,28.57834,77.18400,PM2.5,56,221,88
India,Delhi,Delhi,"North Campus, DU, Delhi - IMD",16-03-2026 08:00:00,28.6573814,77.1585447,PM10,36,109,73
India,Delhi,Delhi,"Okhla Phase-2, Delhi - DPCC",16-03-2026 08:00:00,28.530785,77.271255,CO,31,53,35
India,Delhi,Delhi,"Okhla Phase-2, Delhi - DPCC",16-03-2026 08:00:00,28.530785,77.271255,OZONE,16,122,30
India,Delhi,Delhi,"Patparganj, Delhi - DPCC",16-03-2026 08:00:00,28.623763,77.287209,SO2,11,47,20
India,Delhi,Delhi,"Patparganj, Delhi - DPCC",16-03-2026 08:00:00,28.623763,77.287209,CO,9,76,70
India,Gujarat,Ahmedabad,"SVPI Airport Hansol, Ahmedabad - IITM",16-03-2026 08:00:00,23.076793,72.627874,NO2,16,102,45
India,Gujarat,Ahmedabad,"SVPI Airport Hansol, Ahmedabad - IITM",16-03-2026 08:00:00,23.076793,72.627874,NH3,3,12,6
India,Gujarat,Ankleshwar,"GIDC, Ankleshwar - GPCB",16-03-2026 08:00:00,21.613267,73.010555,PM2.5,42,119,75
India,Gujarat,Ankleshwar,"GIDC, Ankleshwar - GPCB",16-03-2026 08:00:00,21.613267,73.010555,SO2,32,33,32
India,Gujarat,Bhavnagar,"Vidhyanagar, Bhavnagar - Nexteng Enviro",16-03-2026 08:00:00,21.755417,72.139056,PM2.5,13,59,32
India,Gujarat,Bhavnagar,"Vidhyanagar, Bhavnagar - Nexteng Enviro",16-03-2026 08:00:00,21.755417,72.139056,CO,50,54,53
India,Gujarat,Gandhinagar,"GIFT City, Gandhinagar - IITM",16-03-2026 08:00:00,23.163798,72.677768,PM2.5,22,79,52
India,Gujarat,Gandhinagar,"GIFT City, Gandhinagar - IITM",16-03-2026 08:00:00,23.163798,72.677768,OZONE,6,38,3
India,Gujarat,Gandhinagar,"IIPHG Lekawada, Gandhinagar - IITM",16-03-2026 08:00:00,23.243639,72.68994,NO2,10,29,18
India,Delhi,Delhi,"Lodhi Road, Delhi - IMD",16-03-2026 08:00:00,28.5918245,77.2273074,OZONE,37,86,44
India,Delhi,Delhi,"Major Dhyan Chand National Stadium, Delhi - DPCC",16-03-2026 08:00:00,28.611281,77.237738,PM10,33,123,82
India,Delhi,Delhi,"Major Dhyan Chand National Stadium, Delhi - DPCC",16-03-2026 08:00:00,28.611281,77.237738,OZONE,8,79,24
India,Delhi,Delhi,"Mandir Marg, Delhi - DPCC",16-03-2026 08:00:00,28.636429,77.201067,NO2,36,74,53
India,Delhi,Delhi,"Mandir Marg, Delhi - DPCC",16-03-2026 08:00:00,28.636429,77.201067,SO2,9,62,28
India,Delhi,Delhi,"Mandir Marg, Delhi - DPCC",16-03-2026 08:00:00,28.636429,77.201067,OZONE,25,87,37
India,Delhi,Delhi,"Mundka, Delhi - DPCC",16-03-2026 08:00:00,28.684678,77.076574,PM2.5,38,93,60
India,Delhi,Delhi,"NSIT Dwarka, Delhi - CPCB",16-03-2026 08:00:00,28.60909,77.0325413,PM2.5,53,315,131
India,Gujarat,Ahmedabad,"Chandkheda, Ahmedabad - IITM",16-03-2026 08:00:00,23.107969,72.574648,SO2,2,17,7
India,Gujarat,Ahmedabad,"Maninagar, Ahmedabad - GPCB",16-03-2026 08:00:00,23.002657,72.591912,PM2.5,35,341,121
India,Gujarat,Ahmedabad,"Maninagar, Ahmedabad - GPCB",16-03-2026 08:00:00,23.002657,72.591912,SO2,33,65,51
India,Gujarat,Ahmedabad,"Maninagar, Ahmedabad - GPCB",16-03-2026 08:00:00,23.002657,72.591912,OZONE,42,99,50
India,Gujarat,Ahmedabad,"Raikhad, Ahmedabad - IITM",16-03-2026 08:00:00,23.020509,72.579261,OZONE,3,41,11
India,Gujarat,Ahmedabad,"SAC ISRO Bopal, Ahmedabad - IITM",16-03-2026 08:00:00,23.041137,72.456691,PM10,86,154,118
India,Gujarat,Ahmedabad,"SAC ISRO Bopal, Ahmedabad - IITM",16-03-2026 08:00:00,23.041137,72.456691,OZONE,3,47,12
India,Delhi,Delhi,"Sonia Vihar, Delhi - DPCC",16-03-2026 08:00:00,28.710508,77.249485,SO2,33,56,38
India,Delhi,Delhi,"Sri Aurobindo Marg, Delhi - DPCC",16-03-2026 08:00:00,28.531346,77.190156,PM2.5,33,87,53
India,Delhi,Delhi,"Sri Aurobindo Marg, Delhi - DPCC",16-03-2026 08:00:00,28.531346,77.190156,NH3,5,8,6
India,Delhi,Delhi,"Sri Aurobindo Marg, Delhi - DPCC",16-03-2026 08:00:00,28.531346,77.190156,SO2,2,15,8
India,Delhi,Delhi,"Sri Aurobindo Marg, Delhi - DPCC",16-03-2026 08:00:00,28.531346,77.190156,CO,2,35,23
India,Delhi,Delhi,"Talkatora Garden, Delhi - DPCC",16-03-2026 08:00:00,28.621810,77.1944633,CO,89,103,98
India,Delhi,Delhi,"Vivek Vihar, Delhi - DPCC",16-03-2026 08:00:00,28.672342,77.315260,SO2,7,34,17
India,Gujarat,Mehsana,"Sadanand Nagar, Mehsana - Nexteng Enviro",16-03-2026 08:00:00,23.593150,72.372792,CO,102,108,104
India,Gujarat,Rajkot,"Mavdi, Rajkot - Nexteng Enviro ",16-03-2026 08:00:00,22.248853,70.776774,PM2.5,8,77,37
India,Gujarat,Rajkot,"Mavdi, Rajkot - Nexteng Enviro ",16-03-2026 08:00:00,22.248853,70.776774,SO2,2,27,8
India,Gujarat,Surat,"Katargam, Surat - Nexteng Enviro",16-03-2026 08:00:00,21.217779 ,72.834787 ,PM2.5,5,118,47
India,Gujarat,Surat,"Katargam, Surat - Nexteng Enviro",16-03-2026 08:00:00,21.217779 ,72.834787 ,NH3,4,8,6
India,Gujarat,Surat,"Katargam, Surat - Nexteng Enviro",16-03-2026 08:00:00,21.217779 ,72.834787 ,SO2,4,15,7
India,Karnataka,Chikkamagaluru,"Kalyana Nagara, Chikkamagaluru - KSPCB",16-03-2026 08:00:00,13.328028,75.797056,SO2,3,6,4
India,Karnataka,Hubballi,"Lingaraj Nagar, Hubballi - KSPCB",16-03-2026 08:00:00,15.3714823,75.1160168,NH3,1,1,1
India,Karnataka,Hubballi,"Lingaraj Nagar, Hubballi - KSPCB",16-03-2026 08:00:00,15.3714823,75.1160168,SO2,1,2,2
India,Karnataka,Hubballi,"Lingaraj Nagar, Hubballi - KSPCB",16-03-2026 08:00:00,15.3714823,75.1160168,OZONE,21,21,21
India,Karnataka,Kalaburagi,"Mahatma Basaveswar Colony, Kalaburgi - KSPCB",16-03-2026 08:00:00,17.336318,76.847397,OZONE,18,25,18
India,Karnataka,Madikeri,"Stuart Hill, Madikeri - KSPCB",16-03-2026 08:00:00,12.415911,75.735050,SO2,7,7,7
India,Karnataka,Madikeri,"Stuart Hill, Madikeri - KSPCB",16-03-2026 08:00:00,12.415911,75.735050,CO,7,22,14
India,Karnataka,Madikeri,"Stuart Hill, Madikeri - KSPCB",16-03-2026 08:00:00,12.415911,75.735050,OZONE,2,6,3
India,Karnataka,Mangalore,"Kadri, Mangalore - KSPCB",16-03-2026 08:00:00,12.889250,74.853000,OZONE,5,45,22
India,Karnataka,Mysuru,"Hebbal 1st Stage, Mysuru - KSPCB",16-03-2026 08:00:00,12.21041,76.37376,PM2.5,31,60,47
India,Karnataka,Bengaluru,"RVCE-Mailasandra, Bengaluru - KSPCB",16-03-2026 08:00:00,12.921418,77.502466,PM10,NA,NA,NA
India,Karnataka,Bengaluru,"RVCE-Mailasandra, Bengaluru - KSPCB",16-03-2026 08:00:00,12.921418,77.502466,NO2,18,23,23
India,Karnataka,Bengaluru,"Sanegurava Halli, Bengaluru - KSPCB",16-03-2026 08:00:00,12.990328,77.5431385,PM10,60,61,60
India,Karnataka,Bengaluru,"Sanegurava Halli, Bengaluru - KSPCB",16-03-2026 08:00:00,12.990328,77.5431385,SO2,6,7,6
India,Karnataka,Bengaluru,"Shivapura_Peenya, Bengaluru - KSPCB",16-03-2026 08:00:00,13.0246342,77.5080115,PM2.5,27,66,40
India,Karnataka,Bengaluru,"Shivapura_Peenya, Bengaluru - KSPCB",16-03-2026 08:00:00,13.0246342,77.5080115,OZONE,26,26,26
India,Karnataka,Bidar,"Naubad, Bidar - KSPCB",16-03-2026 08:00:00,17.930306,77.482194,NH3,NA,NA,NA
India,Karnataka,Chamarajanagar,"Urban, Chamarajanagar - KSPCB",16-03-2026 08:00:00,11.55358,76.55521,NO2,21,36,32
India,Karnataka,Chamarajanagar,"Urban, Chamarajanagar - KSPCB",16-03-2026 08:00:00,11.55358,76.55521,SO2,2,5,5
India,Karnataka,Chamarajanagar,"Urban, Chamarajanagar - KSPCB",16-03-2026 08:00:00,11.55358,76.55521,CO,14,26,21
India,Karnataka,Chamarajanagar,"Urban, Chamarajanagar - KSPCB",16-03-2026 08:00:00,11.55358,76.55521,OZONE,19,30,26
India,Haryana,Dharuhera,"Municipal Corporation Office, Dharuhera -  HSPCB",16-03-2026 08:00:00,28.206800,76.799700,PM10,38,131,78
India,Haryana,Dharuhera,"Municipal Corporation Office, Dharuhera -  HSPCB",16-03-2026 08:00:00,28.206800,76.799700,NO2,16,56,42
India,Haryana,Dharuhera,"Municipal Corporation Office, Dharuhera -  HSPCB",16-03-2026 08:00:00,28.206800,76.799700,CO,9,26,17
India,Haryana,Faridabad,"New Industrial Town, Faridabad - HSPCB",16-03-2026 08:00:00,28.39072,77.30059,NO2,23,26,25
India,Haryana,Faridabad,"Sector 11, Faridabad - HSPCB",16-03-2026 08:00:00,28.376058,77.315741,OZONE,14,16,15
India,Haryana,Faridabad,"Sector 30, Faridabad - HSPCB",16-03-2026 08:00:00,28.4417,77.3217,PM2.5,116,121,118
India,Haryana,Faridabad,"Sector 30, Faridabad - HSPCB",16-03-2026 08:00:00,28.4417,77.3217,NH3,11,12,11
India,Haryana,Faridabad,"Sector 30, Faridabad - HSPCB",16-03-2026 08:00:00,28.4417,77.3217,SO2,4,4,4
India,Haryana,Fatehabad,"Huda Sector, Fatehabad - HSPCB",16-03-2026 08:00:00,29.503664,75.467934,PM2.5,NA,NA,NA
India,Haryana,Fatehabad,"Huda Sector, Fatehabad - HSPCB",16-03-2026 08:00:00,29.503664,75.467934,OZONE,NA,NA,NA
India,Haryana,Gurugram,"Sector-51, Gurugram - HSPCB",16-03-2026 08:00:00,28.4227,77.0667,NO2,4,10,6
India,Haryana,Gurugram,"Teri Gram, Gurugram - HSPCB",16-03-2026 08:00:00,28.4275,77.1465,NH3,NA,NA,NA
India,Haryana,Hisar,"Urban Estate-II, Hisar - HSPCB",16-03-2026 08:00:00,29.140560,75.744941,PM10,45,90,62
India,Haryana,Hisar,"Urban Estate-II, Hisar - HSPCB",16-03-2026 08:00:00,29.140560,75.744941,CO,18,49,33
India,Haryana,Hisar,"Urban Estate-II, Hisar - HSPCB",16-03-2026 08:00:00,29.140560,75.744941,OZONE,35,99,51
India,Haryana,Jind,"Police Lines, Jind - HSPCB",16-03-2026 08:00:00,29.307814,76.337619,CO,1,32,1
India,Haryana,Jind,"Police Lines, Jind - HSPCB",16-03-2026 08:00:00,29.307814,76.337619,OZONE,14,29,19
India,Haryana,Kaithal,"Rishi Nagar, Kaithal - HSPCB",16-03-2026 08:00:00,29.8006,76.4155,SO2,43,45,44
India,Karnataka,Bengaluru,"City Railway Station, Bengaluru - KSPCB",16-03-2026 08:00:00,12.9756843,77.5660749,PM10,107,109,108
India,Karnataka,Bengaluru,"Hombegowda Nagar, Bengaluru - KSPCB",16-03-2026 08:00:00,12.938539,77.590100,NH3,3,9,5
India,Karnataka,Bengaluru,"Jayanagar 5th Block, Bengaluru - KSPCB",16-03-2026 08:00:00,12.920984,77.584908,PM2.5,78,164,107
India,Karnataka,Bengaluru,"Jayanagar 5th Block, Bengaluru - KSPCB",16-03-2026 08:00:00,12.920984,77.584908,OZONE,37,130,54
India,Karnataka,Bengaluru,"Jigani, Bengaluru - KSPCB",16-03-2026 08:00:00,12.7816279,77.6299145,PM2.5,34,98,61
India,Karnataka,Bengaluru,"Jigani, Bengaluru - KSPCB",16-03-2026 08:00:00,12.7816279,77.6299145,OZONE,28,29,28
India,Himachal Pradesh,Baddi,"HIMUDA Complex Phase-1, Baddi - HPPCB",16-03-2026 08:00:00,30.943887,76.801991,SO2,23,91,35
India,Jharkhand,Dhanbad,"Sardar Patel Nagar, Dhanbad - JSPCB",16-03-2026 08:00:00,23.80569,86.44268,PM10,59,166,109
India,Karnataka,Bengaluru,"BWSSB Kadabesanahalli, Bengaluru - CPCB",16-03-2026 08:00:00,12.9352049,77.6814488,PM2.5,69,275,158
India,Haryana,Panchgaon,"Amity University, Panchgaon - IITM",16-03-2026 08:00:00,28.3153,76.9143,PM10,36,165,68
India,Haryana,Panchkula,"Sector-6, Panchkula - HSPCB ",16-03-2026 08:00:00,30.7057778,76.8531805555555,NO2,22,25,24
India,Haryana,Panchkula,"Sector-6, Panchkula - HSPCB ",16-03-2026 08:00:00,30.7057778,76.8531805555555,OZONE,1,57,14
India,Haryana,Sirsa,"F-Block, Sirsa - HSPCB",16-03-2026 08:00:00,29.536400,75.015800,CO,30,102,50
India,Haryana,Kurukshetra,"Sector-7, Kurukshetra - HSPCB",16-03-2026 08:00:00,29.966942,76.875879,NO2,3,6,4
India,Haryana,Mandikhera,"General Hospital, Mandikhera(Nuh) - HSPCB",16-03-2026 08:00:00,27.9002,76.9938,PM2.5,32,99,56
India,Haryana,Narnaul,"Shastri Nagar, Narnaul - HSPCB",16-03-2026 08:00:00,28.060249,76.113115,NH3,11,19,13
India,Haryana,Sonipat,"Murthal, Sonipat - HSPCB",16-03-2026 08:00:00,29.027200,77.062100,OZONE,25,26,26
India,Haryana,Yamuna Nagar,"Gobind Pura, Yamuna Nagar - HSPCB",16-03-2026 08:00:00,30.1480566,77.2893471,PM2.5,31,279,112
India,Haryana,Yamuna Nagar,"Gobind Pura, Yamuna Nagar - HSPCB",16-03-2026 08:00:00,30.1480566,77.2893471,NO2,11,20,15
India,Madhya Pradesh,Indore,"Airport Area, Indore - IMC",16-03-2026 08:00:00,22.7289,75.8076,NO2,32,46,41
India,Madhya Pradesh,Indore,"Chhoti Gwaltoli, Indore - MPPCB",16-03-2026 08:00:00,22.4310,75.5213,PM10,108,165,126
India,Madhya Pradesh,Indore,"Chhoti Gwaltoli, Indore - MPPCB",16-03-2026 08:00:00,22.4310,75.5213,CO,25,74,32
India,Madhya Pradesh,Indore,"Maguda Nagar, Indore - IMC",16-03-2026 08:00:00,22.7524,75.8872,CO,24,36,32
India,Madhya Pradesh,Indore,"Regional Park, Indore - IMC",16-03-2026 08:00:00,22.6780,75.8559,PM2.5,21,132,72
India,Madhya Pradesh,Indore,"Regional Park, Indore - IMC",16-03-2026 08:00:00,22.6780,75.8559,SO2,16,19,17
India,Madhya Pradesh,Indore,"Regional Park, Indore - IMC",16-03-2026 08:00:00,22.6780,75.8559,OZONE,5,9,6
India,Madhya Pradesh,Indore,"Residency Area, Indore - IMC",16-03-2026 08:00:00,22.7084,75.8815,NO2,19,42,32
India,Madhya Pradesh,Indore,"Residency Area, Indore - IMC",16-03-2026 08:00:00,22.7084,75.8815,CO,31,48,42
India,Madhya Pradesh,Jabalpur,"Govindh Bhavan Colony, Jabalpur - JMC",16-03-2026 08:00:00,23.163174,79.973061,PM2.5,30,98,68
India,Madhya Pradesh,Jabalpur,"Govindh Bhavan Colony, Jabalpur - JMC",16-03-2026 08:00:00,23.163174,79.973061,PM10,75,140,110
India,Maharashtra,Ahmednagar,"Tarakpur, Ahmednagar - MPCB",16-03-2026 08:00:00,19.10122,74.73339,NO2,17,27,22
India,Maharashtra,Ahmednagar,"Tarakpur, Ahmednagar - MPCB",16-03-2026 08:00:00,19.10122,74.73339,NH3,5,7,6
India,Maharashtra,Ahmednagar,"Tarakpur, Ahmednagar - MPCB",16-03-2026 08:00:00,19.10122,74.73339,OZONE,4,139,19
India,Maharashtra,Akola,"Ramdaspeth, Akola - MPCB",16-03-2026 08:00:00,20.719516,77.000253,NO2,7,106,30
India,Maharashtra,Ambernath,"Chinchpada, Ambernath - MPCB",16-03-2026 08:00:00,19.2157840,73.1997810,PM2.5,20,146,41
India,Maharashtra,Ambernath,"Chinchpada, Ambernath - MPCB",16-03-2026 08:00:00,19.2157840,73.1997810,PM10,46,127,73
India,Maharashtra,Ambernath,"Chinchpada, Ambernath - MPCB",16-03-2026 08:00:00,19.2157840,73.1997810,SO2,4,48,16
India,Maharashtra,Ambernath,"Chinchpada, Ambernath - MPCB",16-03-2026 08:00:00,19.2157840,73.1997810,CO,5,37,13
India,Maharashtra,Amravati,"Shivneri Colony, Amravati - MPCB",16-03-2026 08:00:00,20.9402359,77.7895248,PM2.5,73,98,83
India,Maharashtra,Amravati,"Shivneri Colony, Amravati - MPCB",16-03-2026 08:00:00,20.9402359,77.7895248,CO,14,53,22
India,Maharashtra,Amravati,"Shri Shivaji Science College, Amravati - MPCB",16-03-2026 08:00:00,20.939198,77.765701,NO2,NA,NA,NA
India,Madhya Pradesh,Jabalpur,"Gupteshwar, Jabalpur - JMC",16-03-2026 08:00:00,23.142888,79.916147,PM10,30,62,46
India,Madhya Pradesh,Jabalpur,"Gupteshwar, Jabalpur - JMC",16-03-2026 08:00:00,23.142888,79.916147,NH3,2,2,2
India,Madhya Pradesh,Jabalpur,"Marhatal, Jabalpur - MPPCB",16-03-2026 08:00:00,23.168606,79.932247,PM2.5,16,78,46
India,Madhya Pradesh,Jabalpur,"Marhatal, Jabalpur - MPPCB",16-03-2026 08:00:00,23.168606,79.932247,NO2,27,43,33
India,Madhya Pradesh,Jabalpur,"Marhatal, Jabalpur - MPPCB",16-03-2026 08:00:00,23.168606,79.932247,CO,28,115,95
India,Madhya Pradesh,Jabalpur,"Suhagi, Jabalpur - JMC",16-03-2026 08:00:00,23.218135,79.957770,PM10,54,135,87
India,Madhya Pradesh,Jabalpur,"Suhagi, Jabalpur - JMC",16-03-2026 08:00:00,23.218135,79.957770,NO2,11,41,19
India,Madhya Pradesh,Jabalpur,"Suhagi, Jabalpur - JMC",16-03-2026 08:00:00,23.218135,79.957770,SO2,6,20,13
India,Madhya Pradesh,Jabalpur,"Suhagi, Jabalpur - JMC",16-03-2026 08:00:00,23.218135,79.957770,OZONE,25,110,27
India,Madhya Pradesh,Katni,"Gole Bazar, Katni - MPPCB",16-03-2026 08:00:00,23.50016,80.23284,OZONE,NA,NA,NA
India,Madhya Pradesh,Mandideep,"Sector-D Industrial Area, Mandideep - MPPCB",16-03-2026 08:00:00,23.108440,77.511428,PM2.5,68,315,149
India,Madhya Pradesh,Pithampur,"Sector-2 Industrial Area, Pithampur - MPPCB",16-03-2026 08:00:00,22.624758,75.675238,PM10,114,227,150
India,Madhya Pradesh,Ratlam,"Shasthri Nagar, Ratlam - IPCA Lab",16-03-2026 08:00:00,23.331731,75.045981,PM10,80,172,108
India,Madhya Pradesh,Sagar,"Civil Lines, Sagar - MPPCB",16-03-2026 08:00:00,23.838586,78.759431,OZONE,47,97,54
India,Madhya Pradesh,Sagar,"Deen Dayal Nagar, Sagar - MPPCB",16-03-2026 08:00:00,23.8640158,78.80289321,NO2,1,78,26
India,Madhya Pradesh,Satna,"Bandhavgar Colony, Satna - Birla Cement",16-03-2026 08:00:00,24.58434363,80.8549414,CO,16,28,24
India,Madhya Pradesh,Singrauli,"Suryakiran Bhawan NCL, Singrauli - MPPCB",16-03-2026 08:00:00,24.108970,82.645580,PM2.5,75,391,189
India,Madhya Pradesh,Ujjain,"Mahashweta Nagar, Ujjain - MPPCB",16-03-2026 08:00:00,23.1633321,75.800225,NH3,9,14,11
India,Kerala,Kollam,"Polayathode, Kollam - Kerala PCB",16-03-2026 08:00:00,8.8787,76.6073,OZONE,30,35,31
India,Kerala,Thiruvananthapuram,"Kariavattom, Thiruvananthapuram - Kerala PCB",16-03-2026 08:00:00,8.563700,76.886500,PM2.5,20,87,40
India,Kerala,Thiruvananthapuram,"Kariavattom, Thiruvananthapuram - Kerala PCB",16-03-2026 08:00:00,8.563700,76.886500,SO2,1,54,8
India,Kerala,Thiruvananthapuram,"Plammoodu, Thiruvananthapuram - Kerala PCB",16-03-2026 08:00:00,8.5149093,76.9435879,PM2.5,12,32,21
India,Kerala,Thrissur,"Corporation Ground, Thrissur - Kerala PCB",16-03-2026 08:00:00,10.532400,76.215900,CO,20,28,26
India,Kerala,Thrissur,"Corporation Ground, Thrissur - Kerala PCB",16-03-2026 08:00:00,10.532400,76.215900,OZONE,29,30,29
India,Madhya Pradesh,Bhopal,"Idgah Hills, Bhopal - MPPCB",16-03-2026 08:00:00,23.264759,77.381568,PM10,109,181,134
India,Karnataka,Mysuru,"Hebbal 1st Stage, Mysuru - KSPCB",16-03-2026 08:00:00,12.21041,76.37376,PM10,43,102,59
India,Karnataka,Ramanagara,"Vijay Nagar, Ramanagara - KSPCB",16-03-2026 08:00:00,12.733409,77.298051,SO2,5,26,15
India,Karnataka,Shivamogga,"Vinoba Nagara, Shivamogga - KSPCB",16-03-2026 08:00:00,13.940000,75.555917,NH3,1,15,2
India,Karnataka,Vijayapura,"Ibrahimpur, Vijayapura - KSPCB",16-03-2026 08:00:00,16.802639,75.722694,NO2,NA,NA,NA
India,Karnataka,Vijayapura,"Ibrahimpur, Vijayapura - KSPCB",16-03-2026 08:00:00,16.802639,75.722694,SO2,NA,NA,NA
India,Karnataka,Vijayapura,"Ibrahimpur, Vijayapura - KSPCB",16-03-2026 08:00:00,16.802639,75.722694,CO,NA,NA,NA
India,Karnataka,Yadgir,"Collector Office, Yadgir - KSPCB",16-03-2026 08:00:00,16.7602,77.1428,NO2,9,114,20
India,Maharashtra,Aurangabad,"More Chowk Waluj, Aurangabad - MPCB",16-03-2026 08:00:00,19.8389439,75.244448,OZONE,5,94,24
India,Maharashtra,Aurangabad,"Rachnakar Colony, Aurangabad - MPCB",16-03-2026 08:00:00,19.863756,75.321188,SO2,8,21,14
India,Maharashtra,Badlapur,"Katrap, Badlapur - MPCB",16-03-2026 08:00:00,19.16485,73.23409,PM2.5,43,141,63
India,Maharashtra,Beed,"Bir, Beed - MPCB",16-03-2026 08:00:00,18.988474,75.753873,NH3,4,7,5
India,Maharashtra,Belapur,"CBD Belapur, Belapur - MPCB",16-03-2026 08:00:00,19.0243902,73.0406721,PM2.5,2,114,52
India,Maharashtra,Belapur,"CBD Belapur, Belapur - MPCB",16-03-2026 08:00:00,19.0243902,73.0406721,PM10,9,165,105
India,Maharashtra,Belapur,"CBD Belapur, Belapur - MPCB",16-03-2026 08:00:00,19.0243902,73.0406721,SO2,1,16,4
India,Madhya Pradesh,Bhopal,"Paryavaran Parisar, Bhopal - MPPCB",16-03-2026 08:00:00,23.210494,77.425409,OZONE,57,66,64
India,Madhya Pradesh,Bhopal,"T T Nagar, Bhopal - MPPCB",16-03-2026 08:00:00,23.233584,77.400574,PM2.5,27,71,45
India,Madhya Pradesh,Bhopal,"T T Nagar, Bhopal - MPPCB",16-03-2026 08:00:00,23.233584,77.400574,NH3,6,8,7
India,Madhya Pradesh,Bhopal,"T T Nagar, Bhopal - MPPCB",16-03-2026 08:00:00,23.233584,77.400574,SO2,11,29,18
India,Madhya Pradesh,Bhopal,"T T Nagar, Bhopal - MPPCB",16-03-2026 08:00:00,23.233584,77.400574,OZONE,72,118,102
India,Madhya Pradesh,Damoh,"Shrivastav Colony, Damoh - MPPCB",16-03-2026 08:00:00,23.81748678,79.446246,PM10,NA,NA,NA
India,Madhya Pradesh,Gwalior,"Maharaj Bada, Gwalior - MPPCB",16-03-2026 08:00:00,26.200388,78.147714,PM10,91,152,118
India,Maharashtra,Bhiwandi,"Gokul Nagar, Bhiwandi - MPCB",16-03-2026 08:00:00,19.309073,73.057223,SO2,4,18,10
India,Maharashtra,Bhiwandi,"Gokul Nagar, Bhiwandi - MPCB",16-03-2026 08:00:00,19.309073,73.057223,OZONE,13,100,15
India,Maharashtra,Boisar,"Khaira, Boisar - MPCB",16-03-2026 08:00:00,19.786089,72.757971,PM2.5,22,87,35
India,Maharashtra,Boisar,"Khaira, Boisar - MPCB",16-03-2026 08:00:00,19.786089,72.757971,SO2,2,15,6
India,Maharashtra,Boisar,"Khaira, Boisar - MPCB",16-03-2026 08:00:00,19.786089,72.757971,CO,4,56,23
India,Maharashtra,Jalna,"Old MIDC, Jalna - MPCB",16-03-2026 08:00:00,19.854616,75.905894,NO2,5,13,8
India,Maharashtra,Jalna,"Old MIDC, Jalna - MPCB",16-03-2026 08:00:00,19.854616,75.905894,SO2,13,33,16
India,Maharashtra,Kalyan,"Khadakpada, Kalyan - MPCB",16-03-2026 08:00:00,19.25292,73.142019,PM2.5,19,98,57
India,Maharashtra,Kalyan,"Khadakpada, Kalyan - MPCB",16-03-2026 08:00:00,19.25292,73.142019,OZONE,8,8,8
India,Maharashtra,Kalyan,"Pimpleshwar Mandir, Kalyan - MPCB",16-03-2026 08:00:00,19.192056,72.9585188,NO2,11,14,12
India,Maharashtra,Kalyan,"Pimpleshwar Mandir, Kalyan - MPCB",16-03-2026 08:00:00,19.192056,72.9585188,CO,52,52,52
India,Maharashtra,Kolhapur,"Shivaji University, Kolhapur - MPCB",16-03-2026 08:00:00,16.6870449,74.2505872,NO2,9,29,18
India,Maharashtra,Kolhapur,"Sinchan Bhavan, Kolhapur - MPCB",16-03-2026 08:00:00,16.7143745,74.2426398,CO,5,18,11
India,Maharashtra,Latur,"Sawe Wadi, Latur - MPCB",16-03-2026 08:00:00,18.39963,76.57452,NH3,3,24,10
India,Maharashtra,Latur,"Sawe Wadi, Latur - MPCB",16-03-2026 08:00:00,18.39963,76.57452,SO2,1,14,6
India,Maharashtra,Latur,"Sawe Wadi, Latur - MPCB",16-03-2026 08:00:00,18.39963,76.57452,OZONE,21,61,24
India,Maharashtra,Mahad,"Kamble Tarf Birwadi, Mahad - MPCB",16-03-2026 08:00:00,18.1023399,73.4783687,PM2.5,77,172,120
India,Maharashtra,Mumbai,"Shivaji Nagar, Mumbai - BMC",16-03-2026 08:00:00,19.060498,72.923356,NH3,2,6,3
India,Maharashtra,Mumbai,"Shivaji Nagar, Mumbai - BMC",16-03-2026 08:00:00,19.060498,72.923356,CO,6,34,16
India,Maharashtra,Mumbai,"Sion, Mumbai - MPCB",16-03-2026 08:00:00,19.047000,72.874600,PM2.5,32,56,40
India,Maharashtra,Mumbai,"Vile Parle West, Mumbai - MPCB",16-03-2026 08:00:00,19.10861,72.83622,PM2.5,11,25,17
India,Maharashtra,Mumbai,"Vile Parle West, Mumbai - MPCB",16-03-2026 08:00:00,19.10861,72.83622,SO2,47,51,50
India,Maharashtra,Mumbai,"Worli, Mumbai -MPCB",16-03-2026 08:00:00,18.9942180,72.8158167,PM2.5,12,30,20
India,Maharashtra,Mumbai,"Worli, Mumbai -MPCB",16-03-2026 08:00:00,18.9942180,72.8158167,NH3,3,3,3
India,Maharashtra,Nagpur,"Ambazari, Nagpur - MPCB",16-03-2026 08:00:00,21.121801,79.04952,NH3,1,13,4
India,Maharashtra,Nagpur,"Ambazari, Nagpur - MPCB",16-03-2026 08:00:00,21.121801,79.04952,OZONE,8,95,30
India,Maharashtra,Nagpur,"Mahal, Nagpur - MPCB",16-03-2026 08:00:00,21.14472,79.107595,PM2.5,74,131,102
India,Maharashtra,Mumbai,"Mazgaon, Mumbai - IITM",16-03-2026 08:00:00,18.96702,72.84214,NO2,20,101,40
India,Maharashtra,Mumbai,"Mindspace-Malad West, Mumbai - MPCB",16-03-2026 08:00:00,19.1878657,72.8304069,NH3,2,3,2
India,Maharashtra,Mumbai,"Mulund West, Mumbai - MPCB",16-03-2026 08:00:00,19.1750,72.9419,NO2,17,23,19
India,Maharashtra,Mumbai,"Mulund West, Mumbai - MPCB",16-03-2026 08:00:00,19.1750,72.9419,SO2,NA,NA,NA
India,Maharashtra,Mumbai,"Navy Nagar-Colaba, Mumbai - IITM",16-03-2026 08:00:00,18.897756,72.813320,PM10,81,130,104
India,Maharashtra,Mumbai,"Navy Nagar-Colaba, Mumbai - IITM",16-03-2026 08:00:00,18.897756,72.813320,NO2,21,119,39
India,Maharashtra,Mumbai,"Powai, Mumbai - MPCB",16-03-2026 08:00:00,19.137500,72.915056,PM2.5,25,67,37
India,Maharashtra,Mumbai,"Sewri, Mumbai - BMC",16-03-2026 08:00:00,19.000084,72.856730,PM10,NA,NA,NA
India,Maharashtra,Mumbai,"Shivaji Nagar, Mumbai - BMC",16-03-2026 08:00:00,19.060498,72.923356,NO2,8,19,13
India,Maharashtra,Mumbai,"Byculla, Mumbai - BMC",16-03-2026 08:00:00,18.9767,72.8380,PM2.5,12,54,28
India,Maharashtra,Mumbai,"Byculla, Mumbai - BMC",16-03-2026 08:00:00,18.9767,72.8380,SO2,NA,NA,NA
India,Maharashtra,Mumbai,"Chakala-Andheri East, Mumbai - IITM",16-03-2026 08:00:00,19.11074,72.86084,NO2,51,95,71
India,Maharashtra,Mumbai,"Chakala-Andheri East, Mumbai - IITM",16-03-2026 08:00:00,19.11074,72.86084,NH3,18,27,20
India,Maharashtra,Mumbai,"Chakala-Andheri East, Mumbai - IITM",16-03-2026 08:00:00,19.11074,72.86084,CO,2,8,3
India,Maharashtra,Mumbai,"Chakala-Andheri East, Mumbai - IITM",16-03-2026 08:00:00,19.11074,72.86084,OZONE,12,70,45
India,Maharashtra,Mumbai,"Chembur, Mumbai - MPCB",16-03-2026 08:00:00,19.0364585,72.8954371,PM10,59,110,79
India,Maharashtra,Mumbai,"Deonar, Mumbai - IITM",16-03-2026 08:00:00,19.04946,72.9230,OZONE,NA,NA,NA
India,Maharashtra,Mumbai,"Ghatkopar, Mumbai - BMC",16-03-2026 08:00:00,19.083694,72.920967,OZONE,5,43,6
India,Maharashtra,Nagpur,"Mahal, Nagpur - MPCB",16-03-2026 08:00:00,21.14472,79.107595,NH3,8,13,10
India,Maharashtra,Nagpur,"Mahal, Nagpur - MPCB",16-03-2026 08:00:00,21.14472,79.107595,CO,14,120,22
India,Maharashtra,Nagpur,"Opp GPO Civil Lines, Nagpur - MPCB",16-03-2026 08:00:00,21.152875,79.0517531,PM10,102,161,123
India,Maharashtra,Nagpur,"Ram Nagar, Nagpur - MPCB",16-03-2026 08:00:00,21.143383,79.048912,PM10,107,154,129
India,Maharashtra,Nagpur,"Ram Nagar, Nagpur - MPCB",16-03-2026 08:00:00,21.143383,79.048912,NH3,4,4,4
India,Maharashtra,Nashik,"Gangapur Road, Nashik - MPCB",16-03-2026 08:00:00,20.0073285,73.7762427,PM2.5,14,48,29
India,Maharashtra,Nashik,"Gangapur Road, Nashik - MPCB",16-03-2026 08:00:00,20.0073285,73.7762427,OZONE,11,29,29
India,Maharashtra,Nashik,"Hirawadi, Nashik - MPCB",16-03-2026 08:00:00,20.021503,73.813844,NO2,2,8,4
India,Maharashtra,Mahad,"Kamble Tarf Birwadi, Mahad - MPCB",16-03-2026 08:00:00,18.1023399,73.4783687,OZONE,38,72,40
India,Maharashtra,Malegaon,"Mahesh Nagar, Malegaon - MPCB",16-03-2026 08:00:00,20.555712,74.529236,SO2,1,24,18
India,Maharashtra,Mira-Bhayandar,"Bhayandar West, Mira-Bhayandar - MPCB",16-03-2026 08:00:00,19.296481,72.840923,PM2.5,26,71,41
India,Maharashtra,Mumbai,"Bandra Kurla Complex, Mumbai - IITM",16-03-2026 08:00:00,19.053536,72.84643,CO,1,16,3
India,Maharashtra,Mumbai,"Bandra Kurla Complex, Mumbai - MPCB",16-03-2026 08:00:00,19.065931,72.862131,NH3,2,5,3
India,Maharashtra,Mumbai,"Bandra Kurla Complex, Mumbai - MPCB",16-03-2026 08:00:00,19.065931,72.862131,SO2,1,4,1
India,Maharashtra,Mumbai,"Bandra Kurla Complex, Mumbai - MPCB",16-03-2026 08:00:00,19.065931,72.862131,CO,15,15,15
India,Maharashtra,Mumbai,"Borivali East, Mumbai - IITM",16-03-2026 08:00:00,19.23241,72.86895,PM2.5,25,74,41
India,Maharashtra,Mumbai,"Borivali East, Mumbai - MPCB",16-03-2026 08:00:00,19.2243333,72.8658113,NH3,1,10,5
India,Maharashtra,Mumbai,"Borivali East, Mumbai - MPCB",16-03-2026 08:00:00,19.2243333,72.8658113,SO2,12,18,16
India,Maharashtra,Mumbai,"Kandivali East, Mumbai - MPCB",16-03-2026 08:00:00,19.205800,72.868200,SO2,21,24,22
India,Maharashtra,Mumbai,"Kherwadi_Bandra East, Mumbai - MPCB",16-03-2026 08:00:00,19.0632143,72.8456324,CO,1,10,2
India,Maharashtra,Mumbai,"Malad West, Mumbai - IITM",16-03-2026 08:00:00,19.19709,72.82204,PM10,90,129,104
India,Maharashtra,Mumbai,"Malad West, Mumbai - IITM",16-03-2026 08:00:00,19.19709,72.82204,NO2,34,78,49
India,Maharashtra,Mumbai,"Malad West, Mumbai - IITM",16-03-2026 08:00:00,19.19709,72.82204,SO2,1,10,5
India,Maharashtra,Chandrapur,"MIDC Khutala, Chandrapur - MPCB",16-03-2026 08:00:00,19.9775302,79.2337086,NH3,1,4,2
India,Maharashtra,Chandrapur,"MIDC Khutala, Chandrapur - MPCB",16-03-2026 08:00:00,19.9775302,79.2337086,SO2,NA,NA,NA
India,Maharashtra,Dombivli,"Kalu Nagar, Dombivli - MPCB",16-03-2026 08:00:00,19.2268427 ,73.0788456 ,PM2.5,8,72,27
India,Maharashtra,Jalgaon,"Prabhat Colony, Jalgaon - MPCB",16-03-2026 08:00:00,21.001264,75.565602,PM2.5,47,137,85
India,Odisha,Cuttack,"CDA Area, Cuttack - OSPCB",16-03-2026 08:00:00,20.48891     ,85.84768     ,PM2.5,13,65,33
India,Odisha,Keonjhar,"Jagamohanpur, Keonjhar - OSPCB",16-03-2026 08:00:00,21.643900,85.599355,SO2,9,38,17
India,Odisha,Nayagarh,"Dabuna, Nayagarh - OSPCB",16-03-2026 08:00:00,21.847279,85.416905,PM2.5,33,112,69
India,Odisha,Nayagarh,"Dabuna, Nayagarh - OSPCB",16-03-2026 08:00:00,21.847279,85.416905,OZONE,14,29,16
India,Odisha,Rairangpur,"Divisional Forest Office, Rairangpur - OSPCB",16-03-2026 08:00:00,22.265816,86.174829,CO,1,28,5
India,Odisha,Rourkela,"Fertilizer Township, Rourkela - OSPCB",16-03-2026 08:00:00,22.18972222,84.86277778,PM2.5,NA,NA,NA
India,Odisha,Rourkela,"Raghunathpali, Rourkela - OSPCB",16-03-2026 08:00:00,22.220833,84.809444,PM2.5,35,332,164
India,Odisha,Rourkela,"Raghunathpali, Rourkela - OSPCB",16-03-2026 08:00:00,22.220833,84.809444,NO2,15,15,15
India,Maharashtra,Sangli,"Vijay Nagar, Sangli - MPCB",16-03-2026 08:00:00, 16.5038,74.3623,NO2,8,45,18
India,Maharashtra,Solapur,"Dnyaneshwar Nagar, Solapur - MPCB",16-03-2026 08:00:00,17.6336264,75.9132495,PM2.5,NA,NA,NA
India,Maharashtra,Solapur,"Dnyaneshwar Nagar, Solapur - MPCB",16-03-2026 08:00:00,17.6336264,75.9132495,CO,14,39,14
India,Maharashtra,Thane,"Kasarvadavali, Thane - MPCB",16-03-2026 08:00:00,19.26777,72.97182,NO2,12,36,21
India,Maharashtra,Thane,"Kasarvadavali, Thane - MPCB",16-03-2026 08:00:00,19.26777,72.97182,NH3,4,9,6
India,Maharashtra,Thane,"Upvan Fort, Thane - MPCB",16-03-2026 08:00:00,19.222279,72.957979,NH3,NA,NA,NA
India,Maharashtra,Ulhasnagar,"Sidhi Vinayak Nagar, Ulhasnagar - MPCB",16-03-2026 08:00:00,19.235581,73.159121,NH3,3,7,5
India,Maharashtra,Ulhasnagar,"Sidhi Vinayak Nagar, Ulhasnagar - MPCB",16-03-2026 08:00:00,19.235581,73.159121,SO2,4,43,11
India,Maharashtra,Virar,"Bolinj, Virar - MPCB",16-03-2026 08:00:00,19.4458210,72.7988231,PM2.5,21,91,59
India,Meghalaya,Shillong,"Lumpyngngad, Shillong - Meghalaya PCB",16-03-2026 08:00:00,25.5586,91.8985,PM10,NA,NA,NA
India,Meghalaya,Shillong,"Lumpyngngad, Shillong - Meghalaya PCB",16-03-2026 08:00:00,25.5586,91.8985,SO2,9,13,11
India,Odisha,Balasore,"Kalidaspur, Balasore - OSPCB",16-03-2026 08:00:00,21.51161,86.89088,SO2,6,11,8
India,Odisha,Balasore,"Kalidaspur, Balasore - OSPCB",16-03-2026 08:00:00,21.51161,86.89088,OZONE,72,148,94
India,Odisha,Barbil,"Forest Office, Barbil - OSPCB",16-03-2026 08:00:00,22.1166054,85.3945546,PM10,15,445,114
India,Odisha,Barbil,"Forest Office, Barbil - OSPCB",16-03-2026 08:00:00,22.1166054,85.3945546,SO2,NA,NA,NA
India,Odisha,Baripada,"Meher Colony, Baripada - OSPCB",16-03-2026 08:00:00,21.941841,86.728318,NH3,NA,NA,NA
India,Odisha,Bhubaneswar,"Lingraj Mandir, Bhubaneswar - OSPCB",16-03-2026 08:00:00,20.240790,85.836784,NO2,2,12,7
India,Odisha,Bileipada,"Tata Township, Bileipada - OSPCB",16-03-2026 08:00:00,22.06156703,85.47409613,CO,25,48,28
India,Odisha,Brajrajnagar,"GM Office, Brajrajnagar - OSPCB",16-03-2026 08:00:00,21.8004996,83.8396977,NH3,4,5,5
India,Maharashtra,Pune,"Hadapsar, Pune - IITM",16-03-2026 08:00:00,18.501793,73.927532,PM10,30,106,60
India,Maharashtra,Pune,"Katraj Dairy, Pune - MPCB",16-03-2026 08:00:00,18.454450,73.854155,NH3,2,7,3
India,Maharashtra,Pune,"Revenue Colony-Shivajinagar, Pune - IITM",16-03-2026 08:00:00,18.530085,73.849598,SO2,22,51,34
India,Maharashtra,Pune,"Transport Nagar-Nigdi, Pune - IITM",16-03-2026 08:00:00,18.664282,73.763966,PM2.5,NA,NA,NA
India,Maharashtra,Pune,"Transport Nagar-Nigdi, Pune - IITM",16-03-2026 08:00:00,18.664282,73.763966,NO2,NA,NA,NA
India,Maharashtra,Pune,"Transport Nagar-Nigdi, Pune - IITM",16-03-2026 08:00:00,18.664282,73.763966,OZONE,NA,NA,NA
India,Maharashtra,Parbhani,"Masoom Colony, Parbhani - MPCB",16-03-2026 08:00:00,19.265594,76.761463,CO,8,14,11
India,Maharashtra,Pimpri-Chinchwad,"Gavalinagar, Pimpri Chinchwad - MPCB",16-03-2026 08:00:00,18.63673,73.82487,NO2,NA,NA,NA
India,Maharashtra,Pimpri-Chinchwad,"Thergaon, Pimpri Chinchwad - MPCB",16-03-2026 08:00:00,18.616318,73.765797,OZONE,21,84,24
India,Maharashtra,Pune,"Dhankawadi, Pune - IITM",16-03-2026 08:00:00,18.459883,73.852193,PM10,52,153,95
India,Maharashtra,Navi Mumbai,"Nerul, Navi Mumbai - MPCB",16-03-2026 08:00:00,19.008751,73.016620,NO2,50,50,50
India,Maharashtra,Navi Mumbai,"Tondare-Taloja, Navi Mumbai - MPCB",16-03-2026 08:00:00,19.0630,73.1209,NO2,2,19,11
India,Maharashtra,Navi Mumbai,"Kopripada-Vashi, Navi Mumbai - MPCB",16-03-2026 08:00:00,19.090337,73.014232,PM10,60,99,74
India,Maharashtra,Navi Mumbai,"Kopripada-Vashi, Navi Mumbai - MPCB",16-03-2026 08:00:00,19.090337,73.014232,NH3,4,4,4
India,Punjab,Patiala,"Model Town, Patiala - PPCB",16-03-2026 08:00:00,30.349388,76.366642,CO,28,62,39
India,Punjab,Rupnagar,"Ratanpura, Rupnagar - Ambuja Cements",16-03-2026 08:00:00,31.0325454,76.5623046,PM10,21,113,62
India,Punjab,Rupnagar,"Ratanpura, Rupnagar - Ambuja Cements",16-03-2026 08:00:00,31.0325454,76.5623046,NO2,2,9,5
India,Punjab,Rupnagar,"Ratanpura, Rupnagar - Ambuja Cements",16-03-2026 08:00:00,31.0325454,76.5623046,CO,38,48,41
India,Rajasthan,Ajmer,"Civil Lines,  Ajmer - RSPCB",16-03-2026 08:00:00,26.470859,74.646594,CO,10,122,53
India,Rajasthan,Banswara,"Rati Talai, Banswara - RSPCB",16-03-2026 08:00:00,23.555190,74.440010,PM2.5,NA,NA,NA
India,Rajasthan,Baran,"Bamboliya, Baran - RSPCB",16-03-2026 08:00:00,25.106006,76.469948,NH3,1,9,5
India,Rajasthan,Baran,"Bamboliya, Baran - RSPCB",16-03-2026 08:00:00,25.106006,76.469948,OZONE,6,117,36
India,Rajasthan,Barmer,"Railway Colony, Barmer - RSPCB",16-03-2026 08:00:00,25.747299,71.393989,NO2,3,34,10
India,Rajasthan,Barmer,"Railway Colony, Barmer - RSPCB",16-03-2026 08:00:00,25.747299,71.393989,NH3,4,10,6
India,Odisha,Rourkela,"Sector-2, Rourkela - OSPCB",16-03-2026 08:00:00,22.24500000,84.88111111,PM2.5,NA,NA,NA
India,Odisha,Rourkela,"Sector-2, Rourkela - OSPCB",16-03-2026 08:00:00,22.24500000,84.88111111,PM10,NA,NA,NA
India,Odisha,Rourkela,"Sector-2, Rourkela - OSPCB",16-03-2026 08:00:00,22.24500000,84.88111111,CO,31,31,31
India,Odisha,Suakati,"OMC Colony, Suakati - OSPCB",16-03-2026 08:00:00,21.606865,85.510538,PM2.5,44,167,93
India,Odisha,Talcher,"Talcher Coalfields,Talcher - OSPCB",16-03-2026 08:00:00,20.9360711,85.1707021,NH3,6,8,6
India,Odisha,Talcher,"Talcher Coalfields,Talcher - OSPCB",16-03-2026 08:00:00,20.9360711,85.1707021,CO,2,38,19
India,Odisha,Tensa,"Barsua Iron Ore Mines, Tensa - OSPCB",16-03-2026 08:00:00,21.869985,85.167016,PM2.5,29,99,73
India,Puducherry,Puducherry,"Jawahar Nagar, Puducherry - PPCC",16-03-2026 08:00:00,11.9309,79.8027,PM2.5,2,138,31
India,Puducherry,Puducherry,"Jawahar Nagar, Puducherry - PPCC",16-03-2026 08:00:00,11.9309,79.8027,CO,7,37,24
India,Punjab,Amritsar,"Golden Temple, Amritsar - PPCB",16-03-2026 08:00:00,31.620000,74.876512,PM10,33,82,52
India,Rajasthan,Barmer,"Railway Colony, Barmer - RSPCB",16-03-2026 08:00:00,25.747299,71.393989,OZONE,39,103,84
India,Rajasthan,Bhilwara,"Pratap Nagar, Bhilwara - RSPCB",16-03-2026 08:00:00,25.339605,74.618883,NO2,11,34,18
India,Rajasthan,Bhiwadi,"Vasundhara Nagar_UIT, Bhiwadi - RSPCB",16-03-2026 08:00:00,28.207266,76.829265,NO2,28,58,39
India,Rajasthan,Bhiwadi,"Vasundhara Nagar_UIT, Bhiwadi - RSPCB",16-03-2026 08:00:00,28.207266,76.829265,CO,22,42,32
India,Rajasthan,Bhiwadi,"Vasundhara Nagar_UIT, Bhiwadi - RSPCB",16-03-2026 08:00:00,28.207266,76.829265,OZONE,18,87,24
India,Rajasthan,Bikaner,"MM Ground, Bikaner - RSPCB",16-03-2026 08:00:00,28.018792,73.292658,PM2.5,27,84,50
India,Rajasthan,Bundi,"New Colony, Bundi - RSPCB",16-03-2026 08:00:00,25.435774,75.644272,PM2.5,23,107,52
India,Punjab,Bathinda,"Hardev Nagar, Bathinda - PPCB",16-03-2026 08:00:00,30.233011,74.907758,CO,45,80,78
India,Punjab,Jalandhar,"Civil Line, Jalandhar - PPCB",16-03-2026 08:00:00,31.321907,75.578914,PM10,14,96,55
India,Punjab,Jalandhar,"Civil Line, Jalandhar - PPCB",16-03-2026 08:00:00,31.321907,75.578914,CO,60,66,64
India,Punjab,Khanna,"Kalal Majra, Khanna - PPCB",16-03-2026 08:00:00,30.736056 ,76.209694,PM2.5,8,113,43
India,Punjab,Khanna,"Kalal Majra, Khanna - PPCB",16-03-2026 08:00:00,30.736056 ,76.209694,PM10,8,113,47
India,Punjab,Khanna,"Kalal Majra, Khanna - PPCB",16-03-2026 08:00:00,30.736056 ,76.209694,CO,8,76,48
India,Punjab,Ludhiana,"Punjab Agricultural University, Ludhiana - PPCB",16-03-2026 08:00:00,30.9028,75.8086,PM10,81,101,89
India,Rajasthan,Dungarpur,"Bhoiwada, Dungarpur - RSPCB",16-03-2026 08:00:00,23.837789,73.714926,CO,23,41,35
India,Rajasthan,Hanumangarh,"Housing Board, Hanumangarh - RSPCB",16-03-2026 08:00:00,29.610750,74.283608,NO2,8,25,16
India,Rajasthan,Hanumangarh,"Housing Board, Hanumangarh - RSPCB",16-03-2026 08:00:00,29.610750,74.283608,CO,20,34,22
India,Rajasthan,Jaipur,"Adarsh Nagar, Jaipur - RSPCB",16-03-2026 08:00:00,26.902909,75.836858,NH3,8,15,11
India,Rajasthan,Jaipur,"Police Commissionerate, Jaipur - RSPCB",16-03-2026 08:00:00,26.9164092,75.7994901,PM2.5,50,149,88
India,Rajasthan,Jaipur,"Police Commissionerate, Jaipur - RSPCB",16-03-2026 08:00:00,26.9164092,75.7994901,PM10,65,113,94
India,Rajasthan,Jaipur,"RIICO Sitapura, Jaipur - RSPCB",16-03-2026 08:00:00,26.786682,75.827928,PM10,114,319,180
India,Rajasthan,Jaipur,"RIICO Sitapura, Jaipur - RSPCB",16-03-2026 08:00:00,26.786682,75.827928,OZONE,22,90,42
India,Rajasthan,Jaipur,"Sector-2 Murlipura, Jaipur - RSPCB",16-03-2026 08:00:00,26.960669,75.771817,NO2,13,97,33
India,Rajasthan,Jaipur,"Shastri Nagar, Jaipur - RSPCB",16-03-2026 08:00:00,26.9502929,75.730943,PM2.5,91,227,143
India,Rajasthan,Jaipur,"Shastri Nagar, Jaipur - RSPCB",16-03-2026 08:00:00,26.9502929,75.730943,OZONE,19,40,26
India,Rajasthan,Chittorgarh,"Shastri Nagar, Chittorgarh - RSPCB",16-03-2026 08:00:00,24.892047,74.623527,SO2,2,18,5
India,Rajasthan,Dausa,"Khatikan Mohalla, Dausa - RSPCB",16-03-2026 08:00:00,26.895552,76.334753,NO2,10,132,60
India,Rajasthan,Dausa,"Khatikan Mohalla, Dausa - RSPCB",16-03-2026 08:00:00,26.895552,76.334753,SO2,1,12,5
India,Rajasthan,Dungarpur,"Bhoiwada, Dungarpur - RSPCB",16-03-2026 08:00:00,23.837789,73.714926,NO2,17,26,20
India,Rajasthan,Dungarpur,"Bhoiwada, Dungarpur - RSPCB",16-03-2026 08:00:00,23.837789,73.714926,SO2,4,41,9
India,Rajasthan,Jodhpur,"Digari Kalan, Jodhpur - RSPCB",16-03-2026 08:00:00,26.295810,73.082283,CO,12,53,43
India,Rajasthan,Jodhpur,"Digari Kalan, Jodhpur - RSPCB",16-03-2026 08:00:00,26.295810,73.082283,OZONE,1,99,4
India,Rajasthan,Jodhpur,"Jhalamand, Jodhpur - RSPCB",16-03-2026 08:00:00,26.215415,73.070156,NH3,1,6,2
India,Rajasthan,Jodhpur,"Jhalamand, Jodhpur - RSPCB",16-03-2026 08:00:00,26.215415,73.070156,SO2,1,11,6
India,Rajasthan,Jodhpur,"Samrat Ashok Udhyan, Jodhpur - RSPCB",16-03-2026 08:00:00,26.253384,72.976571,CO,12,36,21
India,Rajasthan,Jaisalmer,"Sadar Bazar, Jaisalmer - RSPCB",16-03-2026 08:00:00,26.912329,70.909168,OZONE,26,68,46
India,Rajasthan,Jhalawar,"Rajlaxmi Nagar, Jhalawar - RSPCB",16-03-2026 08:00:00,24.588397,76.172782,NO2,31,112,51
India,Rajasthan,Jhalawar,"Rajlaxmi Nagar, Jhalawar - RSPCB",16-03-2026 08:00:00,24.588397,76.172782,NH3,7,10,8
India,Rajasthan,Jodhpur,"Digari Kalan, Jodhpur - RSPCB",16-03-2026 08:00:00,26.295810,73.082283,NO2,7,78,38
India,Uttar_Pradesh,Agra,"Sector-3B Avas Vikas Colony, Agra - UPPCB",16-03-2026 08:00:00,27.19412,77.96237,PM10,83,417,150
India,Uttar_Pradesh,Agra,"Sector-3B Avas Vikas Colony, Agra - UPPCB",16-03-2026 08:00:00,27.19412,77.96237,NH3,8,8,8
India,Uttar_Pradesh,Agra,"Sector-3B Avas Vikas Colony, Agra - UPPCB",16-03-2026 08:00:00,27.19412,77.96237,OZONE,NA,NA,NA
India,Uttar_Pradesh,Agra,"Shahjahan Garden, Agra - UPPCB",16-03-2026 08:00:00,27.169338,78.03582,PM2.5,4,86,33
India,Uttar_Pradesh,Agra,"Shahjahan Garden, Agra - UPPCB",16-03-2026 08:00:00,27.169338,78.03582,NO2,17,24,21
India,Uttar_Pradesh,Agra,"Shahjahan Garden, Agra - UPPCB",16-03-2026 08:00:00,27.169338,78.03582,NH3,3,3,3
India,Uttar_Pradesh,Agra,"Shahjahan Garden, Agra - UPPCB",16-03-2026 08:00:00,27.169338,78.03582,SO2,50,71,60
India,Uttar_Pradesh,Agra,"Shastripuram, Agra - UPPCB",16-03-2026 08:00:00,27.19862,77.92066,PM10,35,145,82
India,Uttar_Pradesh,Agra,"Shastripuram, Agra - UPPCB",16-03-2026 08:00:00,27.19862,77.92066,OZONE,12,14,13
India,Uttar_Pradesh,Baghpat,"Sardar Patel Inter College, Baghpat - UPPCB",16-03-2026 08:00:00,28.964949,77.278761,CO,19,62,26
India,Uttar_Pradesh,Baghpat,"Sardar Patel Inter College, Baghpat - UPPCB",16-03-2026 08:00:00,28.964949,77.278761,OZONE,2,66,27
India,Uttar_Pradesh,Bareilly,"Civil Lines, Bareilly - UPPCB",16-03-2026 08:00:00,28.359581,79.414455,PM2.5,NA,NA,NA
India,Uttar_Pradesh,Bareilly,"Civil Lines, Bareilly - UPPCB",16-03-2026 08:00:00,28.359581,79.414455,NO2,2,3,2
India,Uttar_Pradesh,Bareilly,"Rajendra Nagar, Bareilly - UPPCB",16-03-2026 08:00:00,28.38910936,79.42963708,NO2,9,10,10
India,Uttar_Pradesh,Bareilly,"Rajendra Nagar, Bareilly - UPPCB",16-03-2026 08:00:00,28.38910936,79.42963708,SO2,39,41,40
India,Uttar_Pradesh,Bulandshahr,"Yamunapuram, Bulandshahr - UPPCB",16-03-2026 08:00:00,28.406963,77.849831,SO2,NA,NA,NA
India,Uttar_Pradesh,Firozabad,"Nagla Bhau, Firozabad - UPPCB",16-03-2026 08:00:00,27.168897,78.376960,CO,3,39,6
India,Uttar_Pradesh,Firozabad,"Vibhab Nagar, Firozabad - UPPCB",16-03-2026 08:00:00,27.1594,78.3953,PM2.5,34,201,82
India,Uttar_Pradesh,Firozabad,"Vibhab Nagar, Firozabad - UPPCB",16-03-2026 08:00:00,27.1594,78.3953,CO,6,9,6
India,Uttar_Pradesh,Ghaziabad,"Indirapuram, Ghaziabad - UPPCB",16-03-2026 08:00:00,28.646233,77.358075,NH3,14,16,15
India,Uttar_Pradesh,Ghaziabad,"Loni, Ghaziabad - UPPCB",16-03-2026 08:00:00,28.757294,77.278792,CO,42,84,50
India,Uttar_Pradesh,Ghaziabad,"Loni, Ghaziabad - UPPCB",16-03-2026 08:00:00,28.757294,77.278792,OZONE,15,53,23
India,Uttar_Pradesh,Ghaziabad,"Sanjay Nagar, Ghaziabad - UPPCB",16-03-2026 08:00:00,28.685382,77.453839,NO2,32,67,44
India,Uttar_Pradesh,Ghaziabad,"Sanjay Nagar, Ghaziabad - UPPCB",16-03-2026 08:00:00,28.685382,77.453839,NH3,6,7,6
India,Uttar_Pradesh,Ghaziabad,"Sanjay Nagar, Ghaziabad - UPPCB",16-03-2026 08:00:00,28.685382,77.453839,CO,7,68,29
India,Telangana,Hyderabad,"Kokapet, Hyderabad - TSPCB",16-03-2026 08:00:00,17.393559,78.339194,NH3,2,3,3
India,Telangana,Hyderabad,"New Malakpet, Hyderabad - TSPCB",16-03-2026 08:00:00,17.37206,78.50864,PM2.5,31,78,51
India,Telangana,Hyderabad,"New Malakpet, Hyderabad - TSPCB",16-03-2026 08:00:00,17.37206,78.50864,CO,24,46,25
India,Telangana,Hyderabad,"Ramachandrapuram, Hyderabad - TSPCB",16-03-2026 08:00:00,17.528544,78.286195,CO,16,36,32
India,Telangana,Hyderabad,"Ramachandrapuram, Hyderabad - TSPCB",16-03-2026 08:00:00,17.528544,78.286195,OZONE,21,22,22
India,Telangana,Hyderabad,"Sanathnagar, Hyderabad - TSPCB",16-03-2026 08:00:00,17.4559458,78.4332152,PM2.5,33,58,45
India,Telangana,Hyderabad,"Somajiguda, Hyderabad - TSPCB",16-03-2026 08:00:00,17.417094,78.457437,PM10,76,100,95
India,Telangana,Hyderabad,"Somajiguda, Hyderabad - TSPCB",16-03-2026 08:00:00,17.417094,78.457437,NH3,2,4,4
India,Telangana,Hyderabad,"Zoo Park, Hyderabad - TSPCB",16-03-2026 08:00:00,17.349694,78.451437,OZONE,22,25,24
India,Tripura,Agartala,"Bardowali, Agartala - Tripura SPCB",16-03-2026 08:00:00,23.8175497,91.2726974,PM2.5,NA,NA,NA
India,Tripura,Agartala,"Bardowali, Agartala - Tripura SPCB",16-03-2026 08:00:00,23.8175497,91.2726974,NH3,NA,NA,NA
India,Tripura,Agartala,"Bardowali, Agartala - Tripura SPCB",16-03-2026 08:00:00,23.8175497,91.2726974,CO,NA,NA,NA
India,Uttar_Pradesh,Agra,"Rohta, Agra - UPPCB",16-03-2026 08:00:00,27.106972,78.000111,PM10,61,193,116
India,Uttar_Pradesh,Agra,"Rohta, Agra - UPPCB",16-03-2026 08:00:00,27.106972,78.000111,NO2,14,14,14
India,Uttar_Pradesh,Agra,"Rohta, Agra - UPPCB",16-03-2026 08:00:00,27.106972,78.000111,CO,14,24,18
India,Uttar_Pradesh,Agra,"Rohta, Agra - UPPCB",16-03-2026 08:00:00,27.106972,78.000111,OZONE,11,13,12
India,Rajasthan,Kota,"Shrinath Puram, Kota - RSPCB",16-03-2026 08:00:00,25.14389,75.821256,PM2.5,NA,NA,NA
India,Rajasthan,Nagaur,"Karni Colony, Nagaur - RSPCB",16-03-2026 08:00:00,27.213494,73.734444,NO2,6,35,15
India,Rajasthan,Nagaur,"Karni Colony, Nagaur - RSPCB",16-03-2026 08:00:00,27.213494,73.734444,NH3,4,7,5
India,Rajasthan,Nagaur,"Karni Colony, Nagaur - RSPCB",16-03-2026 08:00:00,27.213494,73.734444,SO2,3,23,7
India,Rajasthan,Pali,"Indira Colony Vistar, Pali - RSPCB",16-03-2026 08:00:00,25.771061, 73.340227,OZONE,7,73,10
India,Rajasthan,Rajsamand,"Dhoinda, Rajsamand - RSPCB",16-03-2026 08:00:00,25.036360,73.883502,PM2.5,15,55,26
India,Rajasthan,Rajsamand,"Dhoinda, Rajsamand - RSPCB",16-03-2026 08:00:00,25.036360,73.883502,NO2,1,22,8
India,TamilNadu,Chennai,"Manali, Chennai - CPCB",16-03-2026 08:00:00,13.164544,80.26285,NH3,6,7,7
India,TamilNadu,Chennai,"Royapuram, Chennai - TNPCB",16-03-2026 08:00:00,13.1036,80.2909,PM2.5,8,45,20
India,TamilNadu,Coimbatore,"PSG College of Arts and Science, Coimbatore - TNPCB",16-03-2026 08:00:00,11.0328,77.0349,PM2.5,NA,NA,NA
India,TamilNadu,Coimbatore,"PSG College of Arts and Science, Coimbatore - TNPCB",16-03-2026 08:00:00,11.0328,77.0349,PM10,NA,NA,NA
India,TamilNadu,Coimbatore,"PSG College of Arts and Science, Coimbatore - TNPCB",16-03-2026 08:00:00,11.0328,77.0349,OZONE,NA,NA,NA
India,TamilNadu,Coimbatore,"SIDCO Kurichi, Coimbatore - TNPCB",16-03-2026 08:00:00,10.942451,76.978996,CO,28,32,28
India,TamilNadu,Gummidipoondi,"Anthoni Pillai Nagar, Gummidipoondi - TNPCB",16-03-2026 08:00:00,13.4127,80.1081,NH3,1,1,1
India,TamilNadu,Perundurai,"SIPCOT Industrial Park, Perundurai - TNPCB",16-03-2026 08:00:00,11.258242,77.552761,CO,44,47,46
India,TamilNadu,Perundurai,"SIPCOT Industrial Park, Perundurai - TNPCB",16-03-2026 08:00:00,11.258242,77.552761,OZONE,25,32,32
India,Telangana,Hyderabad,"Central University, Hyderabad - TSPCB",16-03-2026 08:00:00,17.460103,78.334361,PM10,24,48,34
India,Rajasthan,Udaipur,"Ashok Nagar, Udaipur - RSPCB",16-03-2026 08:00:00,24.5886166,73.6321397,NH3,5,6,5
India,Rajasthan,Udaipur,"Ashok Nagar, Udaipur - RSPCB",16-03-2026 08:00:00,24.5886166,73.6321397,SO2,5,14,9
India,TamilNadu,Chennai,"Arumbakkam, Chennai - TNPCB",16-03-2026 08:00:00,13.0664,80.2112 ,PM2.5,3,55,19
India,TamilNadu,Chennai,"Arumbakkam, Chennai - TNPCB",16-03-2026 08:00:00,13.0664,80.2112 ,NO2,8,16,10
India,TamilNadu,Chennai,"Manali Village, Chennai - TNPCB",16-03-2026 08:00:00,13.1662,80.2584,CO,25,30,27
India,Rajasthan,Sawai Madhopur,"Sahu Nagar, Sawai Madhopur - RSPCB",16-03-2026 08:00:00,26.031443,76.359327,PM10,110,498,197
India,Rajasthan,Sawai Madhopur,"Sahu Nagar, Sawai Madhopur - RSPCB",16-03-2026 08:00:00,26.031443,76.359327,NH3,4,9,6
India,Rajasthan,Sirohi,"Vedhaynath Colony, Sirohi - RSPCB",16-03-2026 08:00:00,24.885261,72.857549,NO2,4,29,13
India,Rajasthan,Tonk,"Shastri Nagar, Tonk - RSPCB",16-03-2026 08:00:00,26.159933,75.780517,PM2.5,35,123,65
India,Uttar_Pradesh,Ghaziabad,"Vasundhara, Ghaziabad - UPPCB",16-03-2026 08:00:00,28.6603346,77.3572563,PM2.5,21,89,46
India,Uttar_Pradesh,Ghaziabad,"Vasundhara, Ghaziabad - UPPCB",16-03-2026 08:00:00,28.6603346,77.3572563,NH3,5,14,9
India,Uttar_Pradesh,Gorakhpur,"Madan Mohan Malaviya University of Technology, Gorakhpur - UPPCB",16-03-2026 08:00:00,26.730136,83.433859,NH3,1,1,1
India,Uttar_Pradesh,Gorakhpur,"Madan Mohan Malaviya University of Technology, Gorakhpur - UPPCB",16-03-2026 08:00:00,26.730136,83.433859,CO,2,5,4
India,Uttar_Pradesh,Greater Noida,"Knowledge Park - III, Greater Noida - UPPCB",16-03-2026 08:00:00,28.47272,77.482000,OZONE,14,63,29
India,Uttar_Pradesh,Greater Noida,"Knowledge Park - V, Greater Noida - UPPCB",16-03-2026 08:00:00,28.557054,77.453663,PM2.5,35,132,73
India,Uttar_Pradesh,Greater Noida,"Knowledge Park - V, Greater Noida - UPPCB",16-03-2026 08:00:00,28.557054,77.453663,NH3,11,19,15
India,Uttar_Pradesh,Hapur,"Anand Vihar, Hapur - UPPCB",16-03-2026 08:00:00,28.725645,77.749675,NO2,5,19,11
India,Uttar_Pradesh,Jhansi,"Shivaji Nagar, Jhansi - UPPCB",16-03-2026 08:00:00,25.4547,78.6039,PM2.5,3,57,29
India,Uttar_Pradesh,Jhansi,"Shivaji Nagar, Jhansi - UPPCB",16-03-2026 08:00:00,25.4547,78.6039,PM10,48,101,79
India,Uttar_Pradesh,Jhansi,"Shivaji Nagar, Jhansi - UPPCB",16-03-2026 08:00:00,25.4547,78.6039,NH3,4,4,4
India,Uttar_Pradesh,Kanpur,"FTI Kidwai Nagar, Kanpur - UPPCB",16-03-2026 08:00:00,26.428282,80.327067,CO,32,38,32
India,Uttar_Pradesh,Kanpur,"FTI Kidwai Nagar, Kanpur - UPPCB",16-03-2026 08:00:00,26.428282,80.327067,OZONE,9,12,11
India,Uttar_Pradesh,Kanpur,"NSI Kalyanpur, Kanpur - UPPCB",16-03-2026 08:00:00,26.509954,80.249612,SO2,7,48,16
India,Uttar_Pradesh,Kanpur,"Nehru Nagar, Kanpur - UPPCB",16-03-2026 08:00:00,26.4703136,80.3229863,PM10,13,71,37
India,Uttar_Pradesh,Khurja,"Kalindi Kunj, Khurja - UPPCB",16-03-2026 08:00:00,28.2348927,77.8683002,PM10,13,141,59
India,Uttar_Pradesh,Khurja,"Kalindi Kunj, Khurja - UPPCB",16-03-2026 08:00:00,28.2348927,77.8683002,OZONE,8,14,9
India,Uttar_Pradesh,Lucknow,"Gomti Nagar, Lucknow - UPPCB",16-03-2026 08:00:00,26.868120,81.005119,PM10,15,94,48
India,Uttar_Pradesh,Moradabad,"Kashiram Nagar, Moradabad - UPPCB",16-03-2026 08:00:00,28.849399,78.742362,OZONE,8,15,12
India,Uttar_Pradesh,Muzaffarnagar,"New Mandi, Muzaffarnagar - UPPCB",16-03-2026 08:00:00,29.4723508,77.7194031,NH3,NA,NA,NA
India,Uttar_Pradesh,Muzaffarnagar,"New Mandi, Muzaffarnagar - UPPCB",16-03-2026 08:00:00,29.4723508,77.7194031,OZONE,16,83,52
India,Uttar_Pradesh,Noida,"Sector - 125, Noida - UPPCB",16-03-2026 08:00:00,28.5447608,77.3231257,NH3,5,8,6
India,Uttar_Pradesh,Noida,"Sector - 125, Noida - UPPCB",16-03-2026 08:00:00,28.5447608,77.3231257,CO,2,54,34
India,Uttar_Pradesh,Noida,"Sector - 62, Noida - IMD",16-03-2026 08:00:00,28.6245479,77.3577104,NO2,11,17,13
India,Uttar_Pradesh,Noida,"Sector-1, Noida - UPPCB",16-03-2026 08:00:00,28.5898,77.3101,PM2.5,31,200,59
India,Uttar_Pradesh,Noida,"Sector-1, Noida - UPPCB",16-03-2026 08:00:00,28.5898,77.3101,PM10,41,125,85
India,Uttar_Pradesh,Noida,"Sector-1, Noida - UPPCB",16-03-2026 08:00:00,28.5898,77.3101,NO2,55,71,63
India,Uttar_Pradesh,Meerut,"Jai Bhim Nagar, Meerut - UPPCB",16-03-2026 08:00:00,28.9535882,77.7622941,CO,14,34,19
India,Uttar_Pradesh,Meerut,"Pallavpuram Phase 2, Meerut - UPPCB",16-03-2026 08:00:00,29.063510,77.709723,PM2.5,2,83,25
India,Uttar_Pradesh,Meerut,"Pallavpuram Phase 2, Meerut - UPPCB",16-03-2026 08:00:00,29.063510,77.709723,NO2,15,59,28
India,Uttar_Pradesh,Moradabad,"Eco Herbal Park, Moradabad - UPPCB",16-03-2026 08:00:00,28.840739,78.697531,PM10,11,85,39
India,Uttar_Pradesh,Moradabad,"Employment Office, Moradabad - UPPCB",16-03-2026 08:00:00,28.88528,78.73880,PM10,35,130,60
India,Uttar_Pradesh,Moradabad,"Jigar Colony, Moradabad - UPPCB",16-03-2026 08:00:00,28.856664,78.772638,NH3,6,6,6
India,Uttar_Pradesh,Moradabad,"Kashiram Nagar, Moradabad - UPPCB",16-03-2026 08:00:00,28.849399,78.742362,NO2,25,25,25
India,Uttar_Pradesh,Varanasi,"Ardhali Bazar, Varanasi - UPPCB",16-03-2026 08:00:00,25.3505986,82.9083074,SO2,9,13,12
India,Uttar_Pradesh,Varanasi,"IESD Banaras Hindu University, Varanasi - UPPCB",16-03-2026 08:00:00,25.262326,82.995408,NH3,NA,NA,NA
India,Uttar_Pradesh,Varanasi,"Maldahiya, Varanasi - UPPCB",16-03-2026 08:00:00,25.32393,82.99687,PM2.5,39,150,69
India,Uttar_Pradesh,Vrindavan,"Omex Eternity, Vrindavan - UPPCB",16-03-2026 08:00:00,27.5714090,77.6557570,NH3,8,9,8
India,Uttarakhand,Dehradun,"Doon University, Dehradun - UKPCB",16-03-2026 08:00:00,30.269444,78.044167,CO,2,6,3
India,Uttarakhand,Dehradun,"Doon University, Dehradun - UKPCB",16-03-2026 08:00:00,30.269444,78.044167,OZONE,9,65,10
India,Uttar_Pradesh,Lucknow,"Kendriya Vidyalaya, Lucknow - CPCB",16-03-2026 08:00:00,26.906111,80.948222,PM10,54,183,120
India,Uttar_Pradesh,Lucknow,"Kukrail Picnic Spot-1, Lucknow - UPPCB",16-03-2026 08:00:00,26.90723,80.98579,CO,10,12,10
India,Uttar_Pradesh,Lucknow,"Lalbagh, Lucknow - CPCB",16-03-2026 08:00:00,26.8458805,80.9365541,PM10,NA,NA,NA
India,Uttar_Pradesh,Lucknow,"Lalbagh, Lucknow - CPCB",16-03-2026 08:00:00,26.8458805,80.9365541,SO2,2,19,8
India,Uttar_Pradesh,Lucknow,"Talkatora District Industries Center, Lucknow - CPCB",16-03-2026 08:00:00,26.83399722,80.8917361,PM2.5,60,233,117
India,Uttar_Pradesh,Lucknow,"Talkatora District Industries Center, Lucknow - CPCB",16-03-2026 08:00:00,26.83399722,80.8917361,PM10,50,118,87
India,Uttar_Pradesh,Lucknow,"Talkatora District Industries Center, Lucknow - CPCB",16-03-2026 08:00:00,26.83399722,80.8917361,CO,13,35,25
India,Uttar_Pradesh,Prayagraj,"Motilal Nehru NIT, Prayagraj - UPPCB",16-03-2026 08:00:00,25.494,81.863,PM2.5,31,75,46
India,Uttar_Pradesh,Prayagraj,"Motilal Nehru NIT, Prayagraj - UPPCB",16-03-2026 08:00:00,25.494,81.863,NH3,8,8,8
India,Uttar_Pradesh,Prayagraj,"Motilal Nehru NIT, Prayagraj - UPPCB",16-03-2026 08:00:00,25.494,81.863,CO,12,34,15
India,Uttar_Pradesh,Raebareli," Indira Nagar, Raebareli - NTPC Unchahar",16-03-2026 08:00:00,26.207781,81.245571,NO2,16,24,18
India,Uttar_Pradesh,Raebareli," Indira Nagar, Raebareli - NTPC Unchahar",16-03-2026 08:00:00,26.207781,81.245571,SO2,14,15,14
India,Uttarakhand,Kashipur,"Govt. Girls Inter College, Kashipur - UKPCB",16-03-2026 08:00:00,29.2124114,78.9611753,NO2,NA,NA,NA
India,Uttarakhand,Kashipur,"Govt. Girls Inter College, Kashipur - UKPCB",16-03-2026 08:00:00,29.2124114,78.9611753,SO2,NA,NA,NA
India,Uttarakhand,Kashipur,"Govt. Girls Inter College, Kashipur - UKPCB",16-03-2026 08:00:00,29.2124114,78.9611753,CO,32,38,38
India,West_Bengal,Asansol,"Evelyn Lodge, Asansol - WBPCB",16-03-2026 08:00:00,23.6979360,86.9443950,NH3,7,9,8
India,West_Bengal,Asansol,"Mahabir Colliery, Asansol - WBPCB",16-03-2026 08:00:00,23.6181830,87.1057180,SO2,5,13,7
India,West_Bengal,Asansol,"Trivenidevi Bhalotia College, Asansol - WBPCB",16-03-2026 08:00:00,23.616515,87.119133,PM10,36,108,60
India,West_Bengal,Asansol,"Trivenidevi Bhalotia College, Asansol - WBPCB",16-03-2026 08:00:00,23.616515,87.119133,OZONE,11,44,22
India,West_Bengal,Durgapur,"Mahishkapur Road_B-Zone, Durgapur - WBPCB",16-03-2026 08:00:00,23.567923,87.306843,PM2.5,16,169,58
India,West_Bengal,Durgapur,"Mahishkapur Road_B-Zone, Durgapur - WBPCB",16-03-2026 08:00:00,23.567923,87.306843,PM10,31,104,58
India,West_Bengal,Durgapur,"Mahishkapur Road_B-Zone, Durgapur - WBPCB",16-03-2026 08:00:00,23.567923,87.306843,NO2,4,29,14
India,West_Bengal,Durgapur,"Mahishkapur Road_B-Zone, Durgapur - WBPCB",16-03-2026 08:00:00,23.567923,87.306843,NH3,1,5,3
India,West_Bengal,Durgapur,"PCBL Residential Complex, Durgapur - WBPCB",16-03-2026 08:00:00,23.5087640,87.3544400,PM10,34,92,59
India,West_Bengal,Durgapur,"PCBL Residential Complex, Durgapur - WBPCB",16-03-2026 08:00:00,23.5087640,87.3544400,NH3,7,10,9
India,West_Bengal,Durgapur,"PCBL Residential Complex, Durgapur - WBPCB",16-03-2026 08:00:00,23.5087640,87.3544400,SO2,5,7,5
India,West_Bengal,Durgapur,"PCBL Residential Complex, Durgapur - WBPCB",16-03-2026 08:00:00,23.5087640,87.3544400,OZONE,8,26,10
India,West_Bengal,Durgapur,"Womens College_City Center, Durgapur - WBPCB",16-03-2026 08:00:00,23.549395,87.300496,OZONE,8,44,15
India,West_Bengal,Howrah,"Belur Math, Howrah - WBPCB",16-03-2026 08:00:00,22.629801,88.352017,PM10,58,95,74
India,West_Bengal,Howrah,"Belur Math, Howrah - WBPCB",16-03-2026 08:00:00,22.629801,88.352017,NO2,29,129,51
India,West_Bengal,Howrah,"Botanical Garden, Howrah - WBPCB",16-03-2026 08:00:00,22.554954,88.292568,PM10,28,85,52
India,West_Bengal,Howrah,"Botanical Garden, Howrah - WBPCB",16-03-2026 08:00:00,22.554954,88.292568,NO2,7,28,15
India,West_Bengal,Howrah,"Botanical Garden, Howrah - WBPCB",16-03-2026 08:00:00,22.554954,88.292568,SO2,10,18,11
India,West_Bengal,Howrah,"Botanical Garden, Howrah - WBPCB",16-03-2026 08:00:00,22.554954,88.292568,CO,4,21,10
India,West_Bengal,Howrah,"Dasnagar, Howrah - WBPCB",16-03-2026 08:00:00,22.6025571,88.3105664,PM10,26,81,47
India,West_Bengal,Howrah,"Ghusuri, Howrah - WBPCB",16-03-2026 08:00:00,22.611968,88.347422,SO2,7,15,12
India,West_Bengal,Howrah,"Ghusuri, Howrah - WBPCB",16-03-2026 08:00:00,22.611968,88.347422,CO,15,34,24
India,West_Bengal,Howrah,"Padmapukur, Howrah - WBPCB",16-03-2026 08:00:00,22.5687319,88.2797276,NO2,27,78,41
India,West_Bengal,Kolkata,"Ballygunge, Kolkata - WBPCB",16-03-2026 08:00:00,22.5367507,88.3638022,NH3,7,10,8
India,West_Bengal,Kolkata,"Ballygunge, Kolkata - WBPCB",16-03-2026 08:00:00,22.5367507,88.3638022,SO2,7,24,11
India,West_Bengal,Kolkata,"Ballygunge, Kolkata - WBPCB",16-03-2026 08:00:00,22.5367507,88.3638022,CO,10,42,18
India,West_Bengal,Kolkata,"Bidhannagar, Kolkata - WBPCB",16-03-2026 08:00:00,22.58157048,88.41002457,PM10,47,79,62
India,West_Bengal,Kolkata,"Fort William, Kolkata - WBPCB",16-03-2026 08:00:00,22.556640,88.342674,SO2,5,22,10
India,West_Bengal,Kolkata,"Jadavpur, Kolkata - WBPCB",16-03-2026 08:00:00,22.49929,88.36917,NO2,11,17,13
India,West_Bengal,Kolkata,"Rabindra Bharati University, Kolkata - WBPCB",16-03-2026 08:00:00,22.627847,88.380669,SO2,3,7,5
India,West_Bengal,Kolkata,"Rabindra Sarobar, Kolkata - WBPCB",16-03-2026 08:00:00,22.51106,88.35142,NO2,51,183,86
India,West_Bengal,Kolkata,"Rabindra Sarobar, Kolkata - WBPCB",16-03-2026 08:00:00,22.51106,88.35142,SO2,5,16,9
India,West_Bengal,Kolkata,"Rabindra Sarobar, Kolkata - WBPCB",16-03-2026 08:00:00,22.51106,88.35142,CO,18,33,20
India,West_Bengal,Kolkata,"Victoria, Kolkata - WBPCB",16-03-2026 08:00:00,22.5448082,88.3403691,SO2,12,39,22
India,Andhra_Pradesh,Guntur,"Rajendra Nagar North, Guntur - APPCB",16-03-2026 08:00:00,16.316553,80.413302,CO,6,24,11
India,Andhra_Pradesh,Kadapa,"Yerramukkapalli, Kadapa - APPCB",16-03-2026 08:00:00,14.465052,78.824187,PM2.5,46,80,69
India,Andhra_Pradesh,Kadapa,"Yerramukkapalli, Kadapa - APPCB",16-03-2026 08:00:00,14.465052,78.824187,PM10,51,75,65
India,Andhra_Pradesh,Machilipatnam,"Srinivas Nagar Colony, Machilipatnam - APPCB",16-03-2026 08:00:00,16.186555,81.13219,PM10,52,117,61
India,Andhra_Pradesh,Machilipatnam,"Srinivas Nagar Colony, Machilipatnam - APPCB",16-03-2026 08:00:00,16.186555,81.13219,OZONE,1,7,4
India,Andhra_Pradesh,Rajamahendravaram,"Anand Kala Kshetram, Rajamahendravaram - APPCB",16-03-2026 08:00:00,16.9872867,81.7363176,PM10,15,54,34
India,Andhra_Pradesh,Rajamahendravaram,"Anand Kala Kshetram, Rajamahendravaram - APPCB",16-03-2026 08:00:00,16.9872867,81.7363176,SO2,4,20,8
India,Andhra_Pradesh,Tirumala,"Toll Gate, Tirumala - APPCB",16-03-2026 08:00:00,13.67,79.35,NO2,32,78,52
India,Andhra_Pradesh,Tirupati,"Vaikuntapuram, Tirupati - APPCB",16-03-2026 08:00:00,13.615387,79.409230,NO2,30,33,31
India,Andhra_Pradesh,Tirupati,"Vaikuntapuram, Tirupati - APPCB",16-03-2026 08:00:00,13.615387,79.409230,CO,18,26,22
India,Bihar,Buxar,"Charitra Van, Buxar - BSPCB",16-03-2026 08:00:00,25.567520,83.966379,CO,22,30,24
India,Bihar,Chhapra,"Darshan Nagar, Chhapra - BSPCB",16-03-2026 08:00:00,25.7808257,84.7446768,OZONE,3,7,4
India,Bihar,Gaya,"Collectorate, Gaya - BSPCB",16-03-2026 08:00:00,24.7955,84.9994,PM2.5,NA,NA,NA
India,Bihar,Gaya,"Collectorate, Gaya - BSPCB",16-03-2026 08:00:00,24.7955,84.9994,OZONE,NA,NA,NA
India,Bihar,Gaya,"Kareemganj, Gaya - BSPCB",16-03-2026 08:00:00,24.792403,84.992416,PM10,NA,NA,NA
India,Bihar,Gaya,"Kareemganj, Gaya - BSPCB",16-03-2026 08:00:00,24.792403,84.992416,NH3,NA,NA,NA
India,Bihar,Gaya,"Kareemganj, Gaya - BSPCB",16-03-2026 08:00:00,24.792403,84.992416,CO,NA,NA,NA
India,Bihar,Gaya,"SFTI Kusdihra, Gaya - BSPCB",16-03-2026 08:00:00,24.762518,84.982348,CO,19,44,34
India,Bihar,Hajipur,"Industrial Area, Hajipur - BSPCB",16-03-2026 08:00:00,25.697189,85.245900,PM10,82,175,111
India,Bihar,Hajipur,"Industrial Area, Hajipur - BSPCB",16-03-2026 08:00:00,25.697189,85.245900,OZONE,9,98,14
India,Bihar,Katihar,"Mirchaibari, Katihar - BSPCB",16-03-2026 08:00:00,25.560083,87.553265,PM2.5,22,57,40
India,Andhra_Pradesh,Vijayawada,"HB Colony, Vijayawada - APPCB",16-03-2026 08:00:00,16.536107,80.594233,NH3,4,4,4
India,Andhra_Pradesh,Vijayawada,"Kanuru, Vijayawada - APPCB",16-03-2026 08:00:00,16.486692,80.699436,PM10,43,63,54
India,Andhra_Pradesh,Vijayawada,"Kanuru, Vijayawada - APPCB",16-03-2026 08:00:00,16.486692,80.699436,SO2,15,19,17
India,Andhra_Pradesh,Vijayawada,"Rajiv Gandhi Park, Vijayawada - APPCB",16-03-2026 08:00:00,16.509717,80.612222,PM10,56,84,70
India,Andhra_Pradesh,Vijayawada,"Rajiv Gandhi Park, Vijayawada - APPCB",16-03-2026 08:00:00,16.509717,80.612222,NH3,8,8,8
India,Andhra_Pradesh,Vijayawada,"Rajiv Gandhi Park, Vijayawada - APPCB",16-03-2026 08:00:00,16.509717,80.612222,OZONE,41,51,41
India,Andhra_Pradesh,Vijayawada,"Rajiv Nagar, Vijayawada - APPCB",16-03-2026 08:00:00,16.554731,80.649110,PM10,46,66,54
India,Andhra_Pradesh,Vijayawada,"Rajiv Nagar, Vijayawada - APPCB",16-03-2026 08:00:00,16.554731,80.649110,NH3,3,5,3
India,Andhra_Pradesh,Vijayawada,"Rajiv Nagar, Vijayawada - APPCB",16-03-2026 08:00:00,16.554731,80.649110,CO,22,28,24
India,Arunachal_Pradesh,Naharlagun,"Naharlagun, Naharlagun - APSPCB",16-03-2026 08:00:00,27.103358,93.679645,NO2,6,6,6
India,Arunachal_Pradesh,Naharlagun,"Naharlagun, Naharlagun - APSPCB",16-03-2026 08:00:00,27.103358,93.679645,SO2,9,9,9
India,Bihar,Begusarai,"Lohiyanagar, Begusarai - BSPCB",16-03-2026 08:00:00,25.42742023,86.13886079,PM2.5,43,83,60
India,Bihar,Begusarai,"Lohiyanagar, Begusarai - BSPCB",16-03-2026 08:00:00,25.42742023,86.13886079,OZONE,37,51,41
India,Bihar,Bettiah,"Kamalnath Nagar, Bettiah - BSPCB",16-03-2026 08:00:00,26.80365,84.51954,NO2,7,10,8
India,Bihar,Bettiah,"Kamalnath Nagar, Bettiah - BSPCB",16-03-2026 08:00:00,26.80365,84.51954,SO2,11,15,14
India,Bihar,Bhagalpur,"DM Office_Kachari Chowk, Bhagalpur - BSPCB",16-03-2026 08:00:00,25.251013,86.989001,PM2.5,28,190,101
India,Bihar,Bhagalpur,"DM Office_Kachari Chowk, Bhagalpur - BSPCB",16-03-2026 08:00:00,25.251013,86.989001,PM10,56,285,117
India,Bihar,Bhagalpur,"DM Office_Kachari Chowk, Bhagalpur - BSPCB",16-03-2026 08:00:00,25.251013,86.989001,NO2,3,16,10
India,Bihar,Bhagalpur,"DM Office_Kachari Chowk, Bhagalpur - BSPCB",16-03-2026 08:00:00,25.251013,86.989001,CO,1,20,9
India,Bihar,Bihar Sharif,"D M Colony, Bihar Sharif - BSPCB",16-03-2026 08:00:00,25.204762,85.514960,NO2,9,10,9
India,Assam,Byrnihat,"Central Academy for SFS, Byrnihat - PCBA",16-03-2026 08:00:00,26.071318,91.87488,PM2.5,87,237,156
India,Assam,Byrnihat,"Central Academy for SFS, Byrnihat - PCBA",16-03-2026 08:00:00,26.071318,91.87488,PM10,65,118,93
India,Assam,Byrnihat,"Central Academy for SFS, Byrnihat - PCBA",16-03-2026 08:00:00,26.071318,91.87488,NO2,2,11,7
India,Assam,Guwahati,"IITG, Guwahati - PCBA",16-03-2026 08:00:00,26.2028636,91.70046436,PM10,13,79,31
India,Assam,Guwahati,"IITG, Guwahati - PCBA",16-03-2026 08:00:00,26.2028636,91.70046436,OZONE,1,15,8
India,Assam,Guwahati,"LGBI Airport, Guwahati - PCBA",16-03-2026 08:00:00,26.10887,91.589544,SO2,10,13,12
India,Assam,Guwahati,"Pan Bazaar, Guwahati - PCBA",16-03-2026 08:00:00,26.187500,91.744194,PM2.5,10,127,34
India,Assam,Guwahati,"Railway Colony, Guwahati - PCBA",16-03-2026 08:00:00,26.181742,91.78063,NO2,3,3,3
India,Assam,Guwahati,"Railway Colony, Guwahati - PCBA",16-03-2026 08:00:00,26.181742,91.78063,NH3,1,1,1
India,Assam,Sivasagar,"Girls College, Sivasagar - PCBA",16-03-2026 08:00:00,26.987634,94.636574,NO2,21,38,30
India,Assam,Sivasagar,"Girls College, Sivasagar - PCBA",16-03-2026 08:00:00,26.987634,94.636574,NH3,1,4,1
India,Bihar,Araria,"Kharahiya Basti, Araria - BSPCB",16-03-2026 08:00:00,26.146529,87.454184,PM2.5,18,97,50
India,Bihar,Araria,"Kharahiya Basti, Araria - BSPCB",16-03-2026 08:00:00,26.146529,87.454184,CO,28,76,54
India,Bihar,Aurangabad,"Gurdeo Nagar, Aurangabad - BSPCB",16-03-2026 08:00:00,24.75746,84.366208,PM10,72,154,105
India,Bihar,Manguraha,"Forest Rest House, Manguraha - BSPCB",16-03-2026 08:00:00,27.308328,84.531742,PM2.5,32,140,72
India,Bihar,Manguraha,"Forest Rest House, Manguraha - BSPCB",16-03-2026 08:00:00,27.308328,84.531742,OZONE,7,10,10
India,Bihar,Munger,"Town Hall, Munger - BSPCB",16-03-2026 08:00:00,25.376776,86.471523,PM10,16,48,32
India,Bihar,Muzaffarpur,"Buddha Colony, Muzaffarpur - BSPCB",16-03-2026 08:00:00,26.11442,85.39813,SO2,2,12,7
India,Bihar,Muzaffarpur,"Buddha Colony, Muzaffarpur - BSPCB",16-03-2026 08:00:00,26.11442,85.39813,CO,21,85,28
India,Bihar,Muzaffarpur,"Muzaffarpur Collectorate, Muzaffarpur - BSPCB",16-03-2026 08:00:00,26.1209,85.3647,NO2,6,11,9
India,Bihar,Patna,"Govt. High School Shikarpur, Patna - BSPCB",16-03-2026 08:00:00,25.592539,85.227158,SO2,3,7,5
India,Bihar,Patna,"Govt. High School Shikarpur, Patna - BSPCB",16-03-2026 08:00:00,25.592539,85.227158,OZONE,19,91,27
India,Bihar,Patna,"Muradpur, Patna - BSPCB",16-03-2026 08:00:00,25.619651,85.147382,OZONE,14,95,24
India,Bihar,Patna,"Rajbansi Nagar, Patna - BSPCB",16-03-2026 08:00:00,25.599486,85.113666,PM2.5,25,171,102
India,Bihar,Patna,"Rajbansi Nagar, Patna - BSPCB",16-03-2026 08:00:00,25.599486,85.113666,NO2,12,265,45
India,Bihar,Patna,"Rajbansi Nagar, Patna - BSPCB",16-03-2026 08:00:00,25.599486,85.113666,SO2,1,11,5
India,Andhra_Pradesh,Chittoor,"Gangineni Cheruvu, Chittoor - APPCB",16-03-2026 08:00:00,13.204880,79.097889,OZONE,20,27,24
India,Andhra_Pradesh,Guntur,"Rajendra Nagar North, Guntur - APPCB",16-03-2026 08:00:00,16.316553,80.413302,PM2.5,41,67,54
India,Andhra_Pradesh,Guntur,"Rajendra Nagar North, Guntur - APPCB",16-03-2026 08:00:00,16.316553,80.413302,PM10,39,61,49
India,Delhi,Delhi,"Major Dhyan Chand National Stadium, Delhi - DPCC",16-03-2026 08:00:00,28.611281,77.237738,PM2.5,5,80,27
India,Delhi,Delhi,"Major Dhyan Chand National Stadium, Delhi - DPCC",16-03-2026 08:00:00,28.611281,77.237738,CO,6,70,59
India,Delhi,Delhi,"Mundka, Delhi - DPCC",16-03-2026 08:00:00,28.684678,77.076574,PM10,62,162,117
India,Delhi,Delhi,"Mundka, Delhi - DPCC",16-03-2026 08:00:00,28.684678,77.076574,NH3,4,10,7
India,Delhi,Delhi,"Mundka, Delhi - DPCC",16-03-2026 08:00:00,28.684678,77.076574,CO,16,60,54
India,Delhi,Delhi,"NSIT Dwarka, Delhi - CPCB",16-03-2026 08:00:00,28.60909,77.0325413,NO2,107,146,122
India,Delhi,Delhi,"NSIT Dwarka, Delhi - CPCB",16-03-2026 08:00:00,28.60909,77.0325413,SO2,11,20,14
India,Delhi,Delhi,"NSIT Dwarka, Delhi - CPCB",16-03-2026 08:00:00,28.60909,77.0325413,OZONE,15,32,20
India,Delhi,Delhi,"NSUT Jaffarpur, Delhi - DPCC",16-03-2026 08:00:00,28.594004 ,76.909423 ,PM2.5,29,127,66
India,Delhi,Delhi,"NSUT Jaffarpur, Delhi - DPCC",16-03-2026 08:00:00,28.594004 ,76.909423 ,NO2,5,49,27
India,Delhi,Delhi,"NSUT Jaffarpur, Delhi - DPCC",16-03-2026 08:00:00,28.594004 ,76.909423 ,NH3,15,20,17
India,Delhi,Delhi,"NSUT Jaffarpur, Delhi - DPCC",16-03-2026 08:00:00,28.594004 ,76.909423 ,CO,109,114,113
India,Delhi,Delhi,"Najafgarh, Delhi - DPCC",16-03-2026 08:00:00,28.570173,76.933762,NO2,NA,NA,NA
India,Delhi,Delhi,"Najafgarh, Delhi - DPCC",16-03-2026 08:00:00,28.570173,76.933762,NH3,4,16,10
India,Bihar,Patna,"Samanpura, Patna - BSPCB",16-03-2026 08:00:00,25.596727,85.085624,OZONE,28,105,36
India,Bihar,Purnia,"Mariam Nagar, Purnia - BSPCB",16-03-2026 08:00:00,25.366336,87.117468,PM2.5,65,85,74
India,Bihar,Purnia,"Mariam Nagar, Purnia - BSPCB",16-03-2026 08:00:00,25.366336,87.117468,PM10,52,67,59
India,Bihar,Purnia,"Mariam Nagar, Purnia - BSPCB",16-03-2026 08:00:00,25.366336,87.117468,NO2,5,6,6
India,Bihar,Rajgir,"Dangi Tola, Rajgir - BSPCB",16-03-2026 08:00:00,25.03280,85.41948,SO2,2,3,3
India,Bihar,Rajgir,"Dangi Tola, Rajgir - BSPCB",16-03-2026 08:00:00,25.03280,85.41948,CO,35,48,40
India,Bihar,Saharsa,"Police Line, Saharsa - BSPCB",16-03-2026 08:00:00,25.892357,86.590325,SO2,14,16,15
India,Bihar,Saharsa,"Police Line, Saharsa - BSPCB",16-03-2026 08:00:00,25.892357,86.590325,CO,33,38,36
India,Bihar,Samastipur,"DM Office_Kasipur, Samastipur - BSPCB",16-03-2026 08:00:00,25.859655,85.77944,PM2.5,32,250,112
India,Bihar,Samastipur,"DM Office_Kasipur, Samastipur - BSPCB",16-03-2026 08:00:00,25.859655,85.77944,SO2,NA,NA,NA
India,Bihar,Sasaram,"Dada Peer, Sasaram - BSPCB",16-03-2026 08:00:00,24.952822,84.002396,NO2,2,5,3
India,Chandigarh,Chandigarh,"Sector 22, Chandigarh - CPCC",16-03-2026 08:00:00,30.735567,76.775714,PM2.5,10,92,33
India,Chandigarh,Chandigarh,"Sector 22, Chandigarh - CPCC",16-03-2026 08:00:00,30.735567,76.775714,PM10,8,111,44
India,Chandigarh,Chandigarh,"Sector 22, Chandigarh - CPCC",16-03-2026 08:00:00,30.735567,76.775714,NH3,NA,NA,NA
India,Chandigarh,Chandigarh,"Sector-53, Chandigarh - CPCC",16-03-2026 08:00:00,30.719859,76.738637,NH3,18,22,21
India,Chandigarh,Chandigarh,"Sector-53, Chandigarh - CPCC",16-03-2026 08:00:00,30.719859,76.738637,OZONE,4,60,10
India,Chhattisgarh,Bhilai,"Civic Center, Bhilai - Bhilai Steel Plant",16-03-2026 08:00:00,21.185571,81.343175,PM10,27,38,33
India,Chhattisgarh,Bhilai,"Hathkhoj, Bhilai - CECB",16-03-2026 08:00:00,21.224231,81.408350,SO2,13,21,16
India,Chhattisgarh,Bilaspur,"Mangala, Bilaspur - NTPC",16-03-2026 08:00:00,22.08815,82.13737,PM2.5,40,112,75
India,Chhattisgarh,Bilaspur,"Mangala, Bilaspur - NTPC",16-03-2026 08:00:00,22.08815,82.13737,PM10,62,124,92
India,Chhattisgarh,Raipur,"Krishak Nagar, Raipur - CECB",16-03-2026 08:00:00,21.237755,81.705301,SO2,3,8,6
India,Chhattisgarh,Raipur,"Siltara Phase-II, Raipur - CECB",16-03-2026 08:00:00,21.371751,81.664929,OZONE,4,28,6
India,Chhattisgarh,Tumidih,"OP Jindal Industrial Park, Tumidih - CECB",16-03-2026 08:00:00,22.06631475,83.33820077,NH3,1,3,1
India,Chhattisgarh,Tumidih,"OP Jindal Industrial Park, Tumidih - CECB",16-03-2026 08:00:00,22.06631475,83.33820077,CO,24,113,45
India,Delhi,Delhi,"Alipur, Delhi - DPCC",16-03-2026 08:00:00,28.815329,77.153010,PM10,40,119,74
India,Delhi,Delhi,"Anand Vihar, Delhi - DPCC",16-03-2026 08:00:00,28.647622,77.3158090,NH3,NA,NA,NA
India,Delhi,Delhi,"Anand Vihar, Delhi - DPCC",16-03-2026 08:00:00,28.647622,77.3158090,CO,NA,NA,NA
India,Delhi,Delhi,"Ashok Vihar, Delhi - DPCC",16-03-2026 08:00:00,28.695381,77.181665,SO2,7,44,22
India,Delhi,Delhi,"Narela, Delhi - DPCC",16-03-2026 08:00:00,28.822836,77.101981,SO2,1,14,6
India,Delhi,Delhi,"Nehru Nagar, Delhi - DPCC",16-03-2026 08:00:00,28.567890,77.250515,PM10,47,115,88
India,Delhi,Delhi,"Nehru Nagar, Delhi - DPCC",16-03-2026 08:00:00,28.567890,77.250515,NO2,32,63,44
India,Delhi,Delhi,"North Campus, DU, Delhi - IMD",16-03-2026 08:00:00,28.6573814,77.1585447,PM2.5,8,78,46
India,Delhi,Delhi,"North Campus, DU, Delhi - IMD",16-03-2026 08:00:00,28.6573814,77.1585447,CO,24,54,34
India,Delhi,Delhi,"Okhla Phase-2, Delhi - DPCC",16-03-2026 08:00:00,28.530785,77.271255,SO2,5,23,15
India,Delhi,Delhi,"Patparganj, Delhi - DPCC",16-03-2026 08:00:00,28.623763,77.287209,PM2.5,30,92,53
India,Delhi,Delhi,"Patparganj, Delhi - DPCC",16-03-2026 08:00:00,28.623763,77.287209,PM10,79,166,114
India,Delhi,Delhi,"Patparganj, Delhi - DPCC",16-03-2026 08:00:00,28.623763,77.287209,NO2,23,218,82
India,Delhi,Delhi,"Dr. Karni Singh Shooting Range, Delhi - DPCC",16-03-2026 08:00:00,28.498571,77.264840,OZONE,15,91,37
India,Delhi,Delhi,"Dwarka-Sector 8, Delhi - DPCC ",16-03-2026 08:00:00,28.5710274,77.0719006,NO2,39,94,60
India,Delhi,Delhi,"Dwarka-Sector 8, Delhi - DPCC ",16-03-2026 08:00:00,28.5710274,77.0719006,CO,26,50,38
India,Delhi,Delhi,"IGI Airport (T3), Delhi - IMD",16-03-2026 08:00:00,28.5627763,77.1180053,NO2,15,24,19
India,Delhi,Delhi,"IGI Airport (T3), Delhi - IMD",16-03-2026 08:00:00,28.5627763,77.1180053,OZONE,6,55,13
India,Delhi,Delhi,"IGNOU_Maidan Garhi, Delhi - DPCC",16-03-2026 08:00:00,28.493624 ,77.201159 ,NO2,1,1,1
India,Delhi,Delhi,"IHBAS, Dilshad Garden, Delhi - CPCB",16-03-2026 08:00:00,28.6811736,77.3025234,NO2,35,98,69
India,Chhattisgarh,Kunjemura,"OP Jindal School, Kunjemura - CECB",16-03-2026 08:00:00,22.126650,83.483212,SO2,10,72,33
India,Chhattisgarh,Kunjemura,"OP Jindal School, Kunjemura - CECB",16-03-2026 08:00:00,22.126650,83.483212,OZONE,3,41,5
India,Chhattisgarh,Raipur,"AIIMS, Raipur - CECB",16-03-2026 08:00:00,21.258815,81.578979,PM2.5,36,62,44
India,Chhattisgarh,Raipur,"AIIMS, Raipur - CECB",16-03-2026 08:00:00,21.258815,81.578979,PM10,50,73,61
India,Chhattisgarh,Raipur,"Bhatagaon New ISBT, Raipur - CECB",16-03-2026 08:00:00,21.219665,81.630094,NO2,NA,NA,NA
India,Chhattisgarh,Raipur,"Bhatagaon New ISBT, Raipur - CECB",16-03-2026 08:00:00,21.219665,81.630094,NH3,NA,NA,NA
India,Chhattisgarh,Raipur,"Bhatagaon New ISBT, Raipur - CECB",16-03-2026 08:00:00,21.219665,81.630094,OZONE,3,4,4
India,Delhi,Delhi,"Aya Nagar, Delhi - IMD",16-03-2026 08:00:00,28.4706914,77.1099364,PM10,35,127,87
India,Delhi,Delhi,"Bawana, Delhi - DPCC",16-03-2026 08:00:00,28.776200,77.051074,SO2,6,13,9
India,Delhi,Delhi,"Burari Crossing, Delhi - IMD",16-03-2026 08:00:00,28.7256504,77.2011573,CO,2,40,14
India,Delhi,Delhi,"Cantonment Area, Delhi - DPCC ",16-03-2026 08:00:00,28.594169 ,77.125100 ,NO2,19,82,45
India,Delhi,Delhi,"Chandni Chowk, Delhi - IITM",16-03-2026 08:00:00,28.656756,77.227234,NH3,8,14,9
India,Chhattisgarh,Chhal,"Nawapara SECL Colony, Chhal - CECB",16-03-2026 08:00:00,22.118125,83.140608,NH3,NA,NA,NA
India,Chhattisgarh,Korba,"Urja Nagar, Korba - CECB",16-03-2026 08:00:00,22.348441,82.549611,CO,12,104,37
India,Gujarat,Ahmedabad,"SVPI Airport Hansol, Ahmedabad - IITM",16-03-2026 08:00:00,23.076793,72.627874,PM2.5,30,95,62
India,Gujarat,Ahmedabad,"SVPI Airport Hansol, Ahmedabad - IITM",16-03-2026 08:00:00,23.076793,72.627874,CO,26,80,40
India,Gujarat,Ahmedabad,"SVPI Airport Hansol, Ahmedabad - IITM",16-03-2026 08:00:00,23.076793,72.627874,OZONE,4,67,14
India,Gujarat,Ankleshwar,"GIDC, Ankleshwar - GPCB",16-03-2026 08:00:00,21.613267,73.010555,OZONE,9,38,10
India,Gujarat,Bhavnagar,"Vidhyanagar, Bhavnagar - Nexteng Enviro",16-03-2026 08:00:00,21.755417,72.139056,PM10,71,129,100
India,Gujarat,Gandhinagar,"GIFT City, Gandhinagar - IITM",16-03-2026 08:00:00,23.163798,72.677768,NO2,15,69,40
India,Gujarat,Gandhinagar,"GIFT City, Gandhinagar - IITM",16-03-2026 08:00:00,23.163798,72.677768,NH3,5,15,9
India,Gujarat,Gandhinagar,"GIFT City, Gandhinagar - IITM",16-03-2026 08:00:00,23.163798,72.677768,CO,54,77,66
India,Gujarat,Gandhinagar,"IIPHG Lekawada, Gandhinagar - IITM",16-03-2026 08:00:00,23.243639,72.68994,PM2.5,37,77,61
India,Gujarat,Gandhinagar,"IIPHG Lekawada, Gandhinagar - IITM",16-03-2026 08:00:00,23.243639,72.68994,PM10,102,153,127
India,Gujarat,Gandhinagar,"IIPHG Lekawada, Gandhinagar - IITM",16-03-2026 08:00:00,23.243639,72.68994,NH3,5,9,7
India,Gujarat,Gandhinagar,"IIPHG Lekawada, Gandhinagar - IITM",16-03-2026 08:00:00,23.243639,72.68994,OZONE,2,17,4
India,Gujarat,Gandhinagar,"Sector-10, Gandhinagar - GPCB",16-03-2026 08:00:00,23.221714,72.654328,PM10,96,159,124
India,Haryana,Gurugram,"Sector-51, Gurugram - HSPCB",16-03-2026 08:00:00,28.4227,77.0667,SO2,1,5,3
India,Haryana,Gurugram,"Teri Gram, Gurugram - HSPCB",16-03-2026 08:00:00,28.4275,77.1465,SO2,NA,NA,NA
India,Haryana,Gurugram,"Teri Gram, Gurugram - HSPCB",16-03-2026 08:00:00,28.4275,77.1465,OZONE,9,16,12
India,Haryana,Gurugram,"Vikas Sadan, Gurugram - HSPCB",16-03-2026 08:00:00,28.4501238,77.0263051,PM10,NA,NA,NA
India,Haryana,Gurugram,"Vikas Sadan, Gurugram - HSPCB",16-03-2026 08:00:00,28.4501238,77.0263051,OZONE,NA,NA,NA
India,Haryana,Hisar,"Urban Estate-II, Hisar - HSPCB",16-03-2026 08:00:00,29.140560,75.744941,NO2,26,27,27
India,Haryana,Hisar,"Urban Estate-II, Hisar - HSPCB",16-03-2026 08:00:00,29.140560,75.744941,NH3,10,11,11
India,Haryana,Jind,"Police Lines, Jind - HSPCB",16-03-2026 08:00:00,29.307814,76.337619,NO2,25,45,36
India,Haryana,Jind,"Police Lines, Jind - HSPCB",16-03-2026 08:00:00,29.307814,76.337619,NH3,5,6,5
India,Haryana,Kaithal,"Rishi Nagar, Kaithal - HSPCB",16-03-2026 08:00:00,29.8006,76.4155,PM2.5,16,90,53
India,Haryana,Kaithal,"Rishi Nagar, Kaithal - HSPCB",16-03-2026 08:00:00,29.8006,76.4155,PM10,19,106,65
India,Haryana,Kaithal,"Rishi Nagar, Kaithal - HSPCB",16-03-2026 08:00:00,29.8006,76.4155,NH3,2,6,6
India,Haryana,Charkhi Dadri,"Mini Secretariat, Charkhi Dadri - HSPCB",16-03-2026 08:00:00,28.593883,76.270653,CO,10,25,16
India,Haryana,Charkhi Dadri,"Mini Secretariat, Charkhi Dadri - HSPCB",16-03-2026 08:00:00,28.593883,76.270653,OZONE,14,17,15
India,Haryana,Dharuhera,"Municipal Corporation Office, Dharuhera -  HSPCB",16-03-2026 08:00:00,28.206800,76.799700,OZONE,11,33,13
India,Haryana,Faridabad,"New Industrial Town, Faridabad - HSPCB",16-03-2026 08:00:00,28.39072,77.30059,CO,10,13,11
India,Haryana,Faridabad,"Sector 11, Faridabad - HSPCB",16-03-2026 08:00:00,28.376058,77.315741,SO2,3,3,3
India,Haryana,Faridabad,"Sector 30, Faridabad - HSPCB",16-03-2026 08:00:00,28.4417,77.3217,CO,60,65,61
India,Haryana,Faridabad,"Sector 30, Faridabad - HSPCB",16-03-2026 08:00:00,28.4417,77.3217,OZONE,8,33,12
India,Haryana,Fatehabad,"Huda Sector, Fatehabad - HSPCB",16-03-2026 08:00:00,29.503664,75.467934,NO2,NA,NA,NA
India,Haryana,Fatehabad,"Huda Sector, Fatehabad - HSPCB",16-03-2026 08:00:00,29.503664,75.467934,NH3,NA,NA,NA
India,Haryana,Karnal,"Sector-12, Karnal - HSPCB",16-03-2026 08:00:00,29.695300,77.002700,PM10,41,84,61
India,Haryana,Karnal,"Sector-12, Karnal - HSPCB",16-03-2026 08:00:00,29.695300,77.002700,SO2,2,6,4
India,Haryana,Kurukshetra,"Sector-7, Kurukshetra - HSPCB",16-03-2026 08:00:00,29.966942,76.875879,OZONE,16,46,22
India,Haryana,Mandikhera,"General Hospital, Mandikhera(Nuh) - HSPCB",16-03-2026 08:00:00,27.9002,76.9938,NH3,12,15,14
India,Haryana,Mandikhera,"General Hospital, Mandikhera(Nuh) - HSPCB",16-03-2026 08:00:00,27.9002,76.9938,SO2,30,36,33
India,Haryana,Manesar,"Sector-2 IMT, Manesar - HSPCB",16-03-2026 08:00:00,28.360699,76.936090,PM2.5,51,119,86
India,Haryana,Manesar,"Sector-2 IMT, Manesar - HSPCB",16-03-2026 08:00:00,28.360699,76.936090,NO2,36,41,38
India,Haryana,Palwal,"Shyam Nagar, Palwal - HSPCB",16-03-2026 08:00:00,28.1485564,77.3320667,PM2.5,55,63,58
India,Gujarat,Ahmedabad,"Chandkheda, Ahmedabad - IITM",16-03-2026 08:00:00,23.107969,72.574648,NH3,7,10,9
India,Gujarat,Ahmedabad,"Gyaspur, Ahmedabad - IITM",16-03-2026 08:00:00,22.977134,72.553024,PM2.5,60,180,105
India,Gujarat,Ahmedabad,"Gyaspur, Ahmedabad - IITM",16-03-2026 08:00:00,22.977134,72.553024,PM10,123,289,178
India,Gujarat,Ahmedabad,"Gyaspur, Ahmedabad - IITM",16-03-2026 08:00:00,22.977134,72.553024,OZONE,2,17,3
India,Gujarat,Ahmedabad,"Raikhad, Ahmedabad - IITM",16-03-2026 08:00:00,23.020509,72.579261,PM2.5,44,167,95
India,Gujarat,Ahmedabad,"Raikhad, Ahmedabad - IITM",16-03-2026 08:00:00,23.020509,72.579261,NH3,14,22,18
India,Gujarat,Ahmedabad,"SAC ISRO Satellite, Ahmedabad - IITM",16-03-2026 08:00:00,23.023389,72.515201,PM2.5,94,200,136
India,Gujarat,Ahmedabad,"SAC ISRO Satellite, Ahmedabad - IITM",16-03-2026 08:00:00,23.023389,72.515201,CO,26,94,66
India,Delhi,Delhi,"Sirifort, Delhi - CPCB",16-03-2026 08:00:00,28.5504249,77.2159377,CO,3,36,7
India,Delhi,Delhi,"Sonia Vihar, Delhi - DPCC",16-03-2026 08:00:00,28.710508,77.249485,CO,28,80,38
India,Delhi,Delhi,"Talkatora Garden, Delhi - DPCC",16-03-2026 08:00:00,28.621810,77.1944633,PM10,41,109,78
India,Delhi,Delhi,"Talkatora Garden, Delhi - DPCC",16-03-2026 08:00:00,28.621810,77.1944633,NO2,12,29,19
India,Delhi,Delhi,"Talkatora Garden, Delhi - DPCC",16-03-2026 08:00:00,28.621810,77.1944633,NH3,3,7,5
India,Delhi,Delhi,"Vivek Vihar, Delhi - DPCC",16-03-2026 08:00:00,28.672342,77.315260,NH3,5,7,6
India,Delhi,Delhi,"Wazirpur, Delhi - DPCC",16-03-2026 08:00:00,28.699793,77.165453,NO2,42,95,62
India,Gujarat,Rajkot,"Mavdi, Rajkot - Nexteng Enviro ",16-03-2026 08:00:00,22.248853,70.776774,NO2,7,41,16
India,Gujarat,Surat,"Katargam, Surat - Nexteng Enviro",16-03-2026 08:00:00,21.217779 ,72.834787 ,OZONE,9,9,9
India,Gujarat,Surat,"Science Center, Surat - SMC",16-03-2026 08:00:00,21.170046,72.795405,PM10,52,383,144
India,Gujarat,Surat,"Science Center, Surat - SMC",16-03-2026 08:00:00,21.170046,72.795405,SO2,24,31,26
India,Gujarat,Vadodara,"Bapunagar, Vadodara - Nexteng Enviro",16-03-2026 08:00:00,22.320153,73.216285,NO2,1,54,14
India,Gujarat,Vadodara,"Bapunagar, Vadodara - Nexteng Enviro",16-03-2026 08:00:00,22.320153,73.216285,SO2,5,36,16
India,Delhi,Delhi,"Punjabi Bagh, Delhi - DPCC",16-03-2026 08:00:00,28.674045,77.131023,NH3,3,7,6
India,Delhi,Delhi,"Pusa, Delhi - DPCC",16-03-2026 08:00:00,28.639652,77.146275,PM2.5,27,83,46
India,Delhi,Delhi,"R K Puram, Delhi - DPCC",16-03-2026 08:00:00,28.563262,77.186937,NO2,17,50,36
India,Delhi,Delhi,"Rohini, Delhi - DPCC",16-03-2026 08:00:00,28.732528,77.119920,PM2.5,22,130,64
India,Delhi,Delhi,"Rohini, Delhi - DPCC",16-03-2026 08:00:00,28.732528,77.119920,OZONE,9,43,21
India,Delhi,Delhi,"Shadipur, Delhi - CPCB",16-03-2026 08:00:00,28.6514781,77.1473105,OZONE,12,30,16
India,Gujarat,Vapi,"Phase-1 GIDC, Vapi - GPCB",16-03-2026 08:00:00,20.362421,72.918013,NO2,12,14,13
India,Gujarat,Vatva,"Phase-4 GIDC, Vatva - GPCB",16-03-2026 08:00:00,22.969611,72.643500,PM2.5,75,296,146
India,Gujarat,Vatva,"Phase-4 GIDC, Vatva - GPCB",16-03-2026 08:00:00,22.969611,72.643500,CO,12,109,22
India,Haryana,Ambala,"Patti Mehar, Ambala - HSPCB",16-03-2026 08:00:00,30.379589,76.778328,CO,21,48,22
India,Haryana,Ballabgarh,"Nathu Colony, Ballabgarh - HSPCB",16-03-2026 08:00:00,28.3419248,77.319699,CO,27,45,34
India,Kerala,Eloor,"Udyogamandal, Eloor - Kerala PCB",16-03-2026 08:00:00,10.073232,76.302765,OZONE,NA,NA,NA
India,Kerala,Kollam,"Polayathode, Kollam - Kerala PCB",16-03-2026 08:00:00,8.8787,76.6073,PM2.5,NA,NA,NA
India,Kerala,Kollam,"Polayathode, Kollam - Kerala PCB",16-03-2026 08:00:00,8.8787,76.6073,PM10,NA,NA,NA
India,Kerala,Kollam,"Polayathode, Kollam - Kerala PCB",16-03-2026 08:00:00,8.8787,76.6073,NO2,NA,NA,NA
India,Kerala,Kollam,"Polayathode, Kollam - Kerala PCB",16-03-2026 08:00:00,8.8787,76.6073,NH3,NA,NA,NA
India,Kerala,Kollam,"Polayathode, Kollam - Kerala PCB",16-03-2026 08:00:00,8.8787,76.6073,CO,14,18,15
India,Kerala,Thiruvananthapuram,"Kariavattom, Thiruvananthapuram - Kerala PCB",16-03-2026 08:00:00,8.563700,76.886500,NO2,6,7,6
India,Kerala,Thiruvananthapuram,"Kariavattom, Thiruvananthapuram - Kerala PCB",16-03-2026 08:00:00,8.563700,76.886500,CO,38,74,57
India,Kerala,Thiruvananthapuram,"Kariavattom, Thiruvananthapuram - Kerala PCB",16-03-2026 08:00:00,8.563700,76.886500,OZONE,30,31,30
India,Kerala,Thrissur,"Corporation Ground, Thrissur - Kerala PCB",16-03-2026 08:00:00,10.532400,76.215900,PM2.5,35,45,40
India,Kerala,Thrissur,"Corporation Ground, Thrissur - Kerala PCB",16-03-2026 08:00:00,10.532400,76.215900,PM10,62,78,70
India,Kerala,Thrissur,"Corporation Ground, Thrissur - Kerala PCB",16-03-2026 08:00:00,10.532400,76.215900,SO2,1,1,1
India,Madhya Pradesh,Bhopal,"Idgah Hills, Bhopal - MPPCB",16-03-2026 08:00:00,23.264759,77.381568,SO2,9,20,13
India,Madhya Pradesh,Bhopal,"T T Nagar, Bhopal - MPPCB",16-03-2026 08:00:00,23.233584,77.400574,PM10,78,152,120
India,Madhya Pradesh,Bhopal,"T T Nagar, Bhopal - MPPCB",16-03-2026 08:00:00,23.233584,77.400574,NO2,16,40,25
India,Madhya Pradesh,Damoh,"Shrivastav Colony, Damoh - MPPCB",16-03-2026 08:00:00,23.81748678,79.446246,CO,NA,NA,NA
