country,state,city,station,last_update,latitude,longitude,pollutant_id,min_value,max_value,avg_value
India,Arunachal_Pradesh,Naharlagun,"Naharlagun, Naharlagun - APSPCB",25-09-2025 07:00:00,27.103358,93.679645,CO,5,18,6
India,Assam,Byrnihat,"Central Academy for SFS, Byrnihat - PCBA",25-09-2025 07:00:00,26.071318,91.87488,NO2,NA,NA,NA
India,Assam,Byrnihat,"Central Academy for SFS, Byrnihat - PCBA",25-09-2025 07:00:00,26.071318,91.87488,SO2,NA,NA,NA
India,Assam,Guwahati,"IITG, Guwahati - PCBA",25-09-2025 07:00:00,26.2028636,91.70046436,PM2.5,NA,NA,NA
India,Assam,Guwahati,"IITG, Guwahati - PCBA",25-09-2025 07:00:00,26.2028636,91.70046436,CO,2,11,7
India,Assam,Guwahati,"IITG, Guwahati - PCBA",25-09-2025 07:00:00,26.2028636,91.70046436,OZONE,NA,NA,NA
India,Assam,Guwahati,"LGBI Airport, Guwahati - PCBA",25-09-2025 07:00:00,26.10887,91.589544,SO2,1,18,11
India,Assam,Guwahati,"Pan Bazaar, Guwahati - PCBA",25-09-2025 07:00:00,26.187500,91.744194,PM10,7,39,22
India,Assam,Guwahati,"Pan Bazaar, Guwahati - PCBA",25-09-2025 07:00:00,26.187500,91.744194,OZONE,18,19,18
India,Assam,Guwahati,"Railway Colony, Guwahati - PCBA",25-09-2025 07:00:00,26.181742,91.78063,PM2.5,19,68,42
India,Andhra_Pradesh,Tirupati,"Vaikuntapuram, Tirupati - APPCB",25-09-2025 07:00:00,13.615387,79.409230,NH3,5,6,5
India,Andhra_Pradesh,Vijayawada,"Rajiv Gandhi Park, Vijayawada - APPCB",25-09-2025 07:00:00,16.509717,80.612222,NH3,NA,NA,NA
India,Andhra_Pradesh,Vijayawada,"Rajiv Gandhi Park, Vijayawada - APPCB",25-09-2025 07:00:00,16.509717,80.612222,SO2,NA,NA,NA
India,Andhra_Pradesh,Vijayawada,"Rajiv Nagar, Vijayawada - APPCB",25-09-2025 07:00:00,16.554731,80.649110,SO2,NA,NA,NA
India,Andhra_Pradesh,Visakhapatnam,"GVM Corporation, Visakhapatnam - APPCB",25-09-2025 07:00:00,17.72,83.3,NH3,3,3,3
India,Arunachal_Pradesh,Naharlagun,"Naharlagun, Naharlagun - APSPCB",25-09-2025 07:00:00,27.103358,93.679645,SO2,8,8,8
India,Bihar,Chhapra,"Darshan Nagar, Chhapra - BSPCB",25-09-2025 07:00:00,25.7808257,84.7446768,SO2,NA,NA,NA
India,Bihar,Chhapra,"Darshan Nagar, Chhapra - BSPCB",25-09-2025 07:00:00,25.7808257,84.7446768,CO,4,14,4
India,Bihar,Gaya,"Collectorate, Gaya - BSPCB",25-09-2025 07:00:00,24.7955,84.9994,CO,36,73,43
India,Bihar,Gaya,"Kareemganj, Gaya - BSPCB",25-09-2025 07:00:00,24.792403,84.992416,PM10,NA,NA,NA
India,Bihar,Gaya,"Kareemganj, Gaya - BSPCB",25-09-2025 07:00:00,24.792403,84.992416,NO2,NA,NA,NA
India,Bihar,Gaya,"SFTI Kusdihra, Gaya - BSPCB",25-09-2025 07:00:00,24.762518,84.982348,NH3,3,4,3
India,Bihar,Bettiah,"Kamalnath Nagar, Bettiah - BSPCB",25-09-2025 07:00:00,26.80365,84.51954,PM2.5,NA,NA,NA
India,Bihar,Bettiah,"Kamalnath Nagar, Bettiah - BSPCB",25-09-2025 07:00:00,26.80365,84.51954,OZONE,22,27,24
India,Bihar,Bhagalpur,"Mayaganj, Bhagalpur - BSPCB",25-09-2025 07:00:00,25.265194,87.012947,NH3,6,8,7
India,Bihar,Bhagalpur,"Mayaganj, Bhagalpur - BSPCB",25-09-2025 07:00:00,25.265194,87.012947,OZONE,29,36,34
India,Bihar,Buxar,"Charitra Van, Buxar - BSPCB",25-09-2025 07:00:00,25.567520,83.966379,PM2.5,60,64,63
India,Bihar,Motihari,"Gandak Colony, Motihari - BSPCB",25-09-2025 07:00:00,26.63086,84.90051,OZONE,2,3,2
India,Bihar,Muzaffarpur,"MIT-Daudpur Kothi, Muzaffarpur - BSPCB",25-09-2025 07:00:00,26.1403345,85.3650192,PM2.5,28,57,47
India,Bihar,Muzaffarpur,"MIT-Daudpur Kothi, Muzaffarpur - BSPCB",25-09-2025 07:00:00,26.1403345,85.3650192,NH3,1,1,1
India,Bihar,Muzaffarpur,"Muzaffarpur Collectorate, Muzaffarpur - BSPCB",25-09-2025 07:00:00,26.1209,85.3647,NO2,11,17,16
India,Assam,Sivasagar,"Girls College, Sivasagar - PCBA",25-09-2025 07:00:00,26.987634,94.636574,SO2,8,11,9
India,Bihar,Araria,"Kharahiya Basti, Araria - BSPCB",25-09-2025 07:00:00,26.146529,87.454184,PM2.5,43,71,48
India,Bihar,Araria,"Kharahiya Basti, Araria - BSPCB",25-09-2025 07:00:00,26.146529,87.454184,SO2,6,26,19
India,Bihar,Begusarai,"Lohiyanagar, Begusarai - BSPCB",25-09-2025 07:00:00,25.42742023,86.13886079,PM2.5,14,33,19
India,Assam,Nagaon,"Christianpatty, Nagaon - PCBA",25-09-2025 07:00:00,26.349082,92.68449,PM2.5,52,60,56
India,Assam,Nagaon,"Christianpatty, Nagaon - PCBA",25-09-2025 07:00:00,26.349082,92.68449,NH3,3,4,4
India,Assam,Nalbari,"Bata Chowk, Nalbari - PCBA",25-09-2025 07:00:00,26.446912,91.439057,SO2,7,8,8
India,Assam,Silchar,"Tarapur, Silchar - PCBA",25-09-2025 07:00:00,24.82827,92.79525,NH3,1,1,1
India,Bihar,Hajipur,"Industrial Area, Hajipur - BSPCB",25-09-2025 07:00:00,25.697189,85.245900,CO,32,50,47
India,Bihar,Manguraha,"Forest Rest House, Manguraha - BSPCB",25-09-2025 07:00:00,27.308328,84.531742,PM2.5,18,50,30
India,Bihar,Manguraha,"Forest Rest House, Manguraha - BSPCB",25-09-2025 07:00:00,27.308328,84.531742,NO2,4,8,5
India,Andhra_Pradesh,Kadapa,"Yerramukkapalli, Kadapa - APPCB",25-09-2025 07:00:00,14.465052,78.824187,OZONE,NA,NA,NA
India,Andhra_Pradesh,Tirumala,"Toll Gate, Tirumala - APPCB",25-09-2025 07:00:00,13.67,79.35,PM10,18,49,33
India,Andhra_Pradesh,Tirumala,"Toll Gate, Tirumala - APPCB",25-09-2025 07:00:00,13.67,79.35,NO2,8,13,10
India,Andaman and Nicobar,Sri Vijaya Puram,"Police Line, Sri Vijaya Puram - ANPCC",25-09-2025 07:00:00,11.654054,92.734055,CO,NA,NA,NA
India,Chhattisgarh,Raipur,"Krishak Nagar, Raipur - CECB",25-09-2025 07:00:00,21.237755,81.705301,OZONE,2,5,2
India,Chhattisgarh,Raipur,"Siltara Phase-II, Raipur - CECB",25-09-2025 07:00:00,21.371751,81.664929,PM10,3,63,28
India,Chhattisgarh,Raipur,"Siltara Phase-II, Raipur - CECB",25-09-2025 07:00:00,21.371751,81.664929,NH3,3,3,3
India,Chhattisgarh,Raipur,"Siltara Phase-II, Raipur - CECB",25-09-2025 07:00:00,21.371751,81.664929,CO,13,50,19
India,Chhattisgarh,Tumidih,"OP Jindal Industrial Park, Tumidih - CECB",25-09-2025 07:00:00,22.06631475,83.33820077,NO2,7,21,12
India,Chhattisgarh,Tumidih,"OP Jindal Industrial Park, Tumidih - CECB",25-09-2025 07:00:00,22.06631475,83.33820077,SO2,5,7,5
India,Delhi,Delhi,"Alipur, Delhi - DPCC",25-09-2025 07:00:00,28.815329,77.153010,PM10,80,163,112
India,Delhi,Delhi,"Alipur, Delhi - DPCC",25-09-2025 07:00:00,28.815329,77.153010,NO2,17,51,31
India,Delhi,Delhi,"Alipur, Delhi - DPCC",25-09-2025 07:00:00,28.815329,77.153010,CO,16,61,54
India,Delhi,Delhi,"Anand Vihar, Delhi - DPCC",25-09-2025 07:00:00,28.647622,77.3158090,PM2.5,38,213,94
India,Delhi,Delhi,"Anand Vihar, Delhi - DPCC",25-09-2025 07:00:00,28.647622,77.3158090,NH3,3,7,5
India,Delhi,Delhi,"Ashok Vihar, Delhi - DPCC",25-09-2025 07:00:00,28.695381,77.181665,PM2.5,30,110,55
India,Delhi,Delhi,"Ashok Vihar, Delhi - DPCC",25-09-2025 07:00:00,28.695381,77.181665,PM10,104,151,123
India,Bihar,Siwan,"Chitragupta Nagar, Siwan - BSPCB",25-09-2025 07:00:00,26.2271665,84.3570427,NO2,1,1,1
India,Chandigarh,Chandigarh,"Sector 22, Chandigarh - CPCC",25-09-2025 07:00:00,30.735567,76.775714,PM10,48,86,64
India,Chandigarh,Chandigarh,"Sector 22, Chandigarh - CPCC",25-09-2025 07:00:00,30.735567,76.775714,NO2,15,42,26
India,Chandigarh,Chandigarh,"Sector 22, Chandigarh - CPCC",25-09-2025 07:00:00,30.735567,76.775714,OZONE,4,107,23
India,Chandigarh,Chandigarh,"Sector-25, Chandigarh - CPCC",25-09-2025 07:00:00,30.751462,76.762879,PM2.5,59,121,86
India,Chandigarh,Chandigarh,"Sector-25, Chandigarh - CPCC",25-09-2025 07:00:00,30.751462,76.762879,NH3,4,8,6
India,Chhattisgarh,Bhilai,"32Bungalows, Bhilai - CECB",25-09-2025 07:00:00,21.194815,81.314770,OZONE,6,27,18
India,Chhattisgarh,Bhilai,"Civic Center, Bhilai - Bhilai Steel Plant",25-09-2025 07:00:00,21.185571,81.343175,PM10,26,55,40
India,Chhattisgarh,Kunjemura,"OP Jindal School, Kunjemura - CECB",25-09-2025 07:00:00,22.126650,83.483212,CO,24,30,29
India,Chhattisgarh,Kunjemura,"OP Jindal School, Kunjemura - CECB",25-09-2025 07:00:00,22.126650,83.483212,OZONE,6,12,8
India,Chhattisgarh,Milupara,"Govt. Higher Secondary School, Milupara - CECB",25-09-2025 07:00:00,22.1910172,83.5197009,NH3,NA,NA,NA
India,Chhattisgarh,Milupara,"Govt. Higher Secondary School, Milupara - CECB",25-09-2025 07:00:00,22.1910172,83.5197009,SO2,NA,NA,NA
India,Chhattisgarh,Raipur,"AIIMS, Raipur - CECB",25-09-2025 07:00:00,21.258815,81.578979,PM10,14,73,36
India,Chhattisgarh,Raipur,"Bhatagaon New ISBT, Raipur - CECB",25-09-2025 07:00:00,21.219665,81.630094,NO2,NA,NA,NA
India,Chhattisgarh,Raipur,"Bhatagaon New ISBT, Raipur - CECB",25-09-2025 07:00:00,21.219665,81.630094,OZONE,NA,NA,NA
India,Bihar,Purnia,"Mariam Nagar, Purnia - BSPCB",25-09-2025 07:00:00,25.366336,87.117468,PM10,20,61,36
India,Bihar,Rajgir,"Dangi Tola, Rajgir - BSPCB",25-09-2025 07:00:00,25.03280,85.41948,PM2.5,18,103,96
India,Bihar,Saharsa,"Police Line, Saharsa - BSPCB",25-09-2025 07:00:00,25.892357,86.590325,NH3,4,4,4
India,Bihar,Saharsa,"Police Line, Saharsa - BSPCB",25-09-2025 07:00:00,25.892357,86.590325,CO,39,41,40
India,Bihar,Sasaram,"Dada Peer, Sasaram - BSPCB",25-09-2025 07:00:00,24.952822,84.002396,PM10,38,101,62
India,Bihar,Sasaram,"Dada Peer, Sasaram - BSPCB",25-09-2025 07:00:00,24.952822,84.002396,NH3,2,4,3
India,Delhi,Delhi,"Dr. Karni Singh Shooting Range, Delhi - DPCC",25-09-2025 07:00:00,28.498571,77.264840,PM2.5,27,97,45
India,Delhi,Delhi,"Dr. Karni Singh Shooting Range, Delhi - DPCC",25-09-2025 07:00:00,28.498571,77.264840,NH3,4,6,5
India,Delhi,Delhi,"Dr. Karni Singh Shooting Range, Delhi - DPCC",25-09-2025 07:00:00,28.498571,77.264840,OZONE,4,68,6
India,Delhi,Delhi,"Dwarka-Sector 8, Delhi - DPCC ",25-09-2025 07:00:00,28.5710274,77.0719006,PM10,95,212,131
India,Delhi,Delhi,"Dwarka-Sector 8, Delhi - DPCC ",25-09-2025 07:00:00,28.5710274,77.0719006,SO2,9,14,11
India,Delhi,Delhi,"ITO, Delhi - CPCB",25-09-2025 07:00:00,28.628624,77.241060,NH3,4,5,5
India,Delhi,Delhi,"ITO, Delhi - CPCB",25-09-2025 07:00:00,28.628624,77.241060,OZONE,39,47,39
India,Chhattisgarh,Bhilai,"Hathkhoj, Bhilai - CECB",25-09-2025 07:00:00,21.224231,81.408350,NO2,12,53,29
India,Chhattisgarh,Bhilai,"Hathkhoj, Bhilai - CECB",25-09-2025 07:00:00,21.224231,81.408350,NH3,3,5,4
India,Chhattisgarh,Bhilai,"Hathkhoj, Bhilai - CECB",25-09-2025 07:00:00,21.224231,81.408350,OZONE,9,22,16
India,Chhattisgarh,Chhal,"Nawapara SECL Colony, Chhal - CECB",25-09-2025 07:00:00,22.118125,83.140608,PM10,NA,NA,NA
India,Chhattisgarh,Korba,"Rampur, Korba - CECB",25-09-2025 07:00:00,22.368195,82.746431,PM10,13,13,13
India,Chhattisgarh,Korba,"Urja Nagar, Korba - CECB",25-09-2025 07:00:00,22.348441,82.549611,PM2.5,16,22,17
India,Delhi,Delhi,"Ashok Vihar, Delhi - DPCC",25-09-2025 07:00:00,28.695381,77.181665,NO2,14,55,32
India,Delhi,Delhi,"Aya Nagar, Delhi - IMD",25-09-2025 07:00:00,28.4706914,77.1099364,OZONE,14,72,18
India,Delhi,Delhi,"CRRI Mathura Road, Delhi - IMD",25-09-2025 07:00:00,28.5512005,77.2735737,OZONE,19,79,22
India,Delhi,Delhi,"Chandni Chowk, Delhi - IITM",25-09-2025 07:00:00,28.656756,77.227234,PM10,86,126,107
India,Bihar,Muzaffarpur,"Muzaffarpur Collectorate, Muzaffarpur - BSPCB",25-09-2025 07:00:00,26.1209,85.3647,CO,20,45,20
India,Bihar,Patna,"DRM Office Danapur, Patna - BSPCB",25-09-2025 07:00:00,25.586562,85.043586,CO,26,45,41
India,Bihar,Patna,"Govt. High School Shikarpur, Patna - BSPCB",25-09-2025 07:00:00,25.592539,85.227158,PM2.5,8,69,38
India,Bihar,Patna,"Rajbansi Nagar, Patna - BSPCB",25-09-2025 07:00:00,25.599486,85.113666,PM10,40,59,48
India,Bihar,Patna,"Rajbansi Nagar, Patna - BSPCB",25-09-2025 07:00:00,25.599486,85.113666,CO,12,73,32
India,Delhi,Delhi,"Jahangirpuri, Delhi - DPCC",25-09-2025 07:00:00,28.732820,77.170633,CO,36,97,50
India,Delhi,Delhi,"Jawaharlal Nehru Stadium, Delhi - DPCC",25-09-2025 07:00:00,28.580280,77.233829,PM2.5,18,94,49
India,Delhi,Delhi,"Jawaharlal Nehru Stadium, Delhi - DPCC",25-09-2025 07:00:00,28.580280,77.233829,OZONE,5,55,7
India,Delhi,Delhi,"Lodhi Road, Delhi - IITM",25-09-2025 07:00:00,28.588333,77.221667,PM2.5,NA,NA,NA
India,Delhi,Delhi,"Major Dhyan Chand National Stadium, Delhi - DPCC",25-09-2025 07:00:00,28.611281,77.237738,PM2.5,22,75,51
India,Delhi,Delhi,"Major Dhyan Chand National Stadium, Delhi - DPCC",25-09-2025 07:00:00,28.611281,77.237738,NO2,18,86,49
India,Delhi,Delhi,"Major Dhyan Chand National Stadium, Delhi - DPCC",25-09-2025 07:00:00,28.611281,77.237738,NH3,12,15,14
India,Delhi,Delhi,"Major Dhyan Chand National Stadium, Delhi - DPCC",25-09-2025 07:00:00,28.611281,77.237738,OZONE,4,63,6
India,Delhi,Delhi,"Mandir Marg, Delhi - DPCC",25-09-2025 07:00:00,28.636429,77.201067,PM10,51,126,89
India,Delhi,Delhi,"Mandir Marg, Delhi - DPCC",25-09-2025 07:00:00,28.636429,77.201067,SO2,13,55,34
India,Delhi,Delhi,"Mandir Marg, Delhi - DPCC",25-09-2025 07:00:00,28.636429,77.201067,CO,12,41,25
India,Delhi,Delhi,"Mandir Marg, Delhi - DPCC",25-09-2025 07:00:00,28.636429,77.201067,OZONE,8,96,15
India,Delhi,Delhi,"Mundka, Delhi - DPCC",25-09-2025 07:00:00,28.684678,77.076574,PM10,105,314,169
India,Delhi,Delhi,"R K Puram, Delhi - DPCC",25-09-2025 07:00:00,28.563262,77.186937,CO,4,118,49
India,Delhi,Delhi,"R K Puram, Delhi - DPCC",25-09-2025 07:00:00,28.563262,77.186937,OZONE,14,82,19
India,Delhi,Delhi,"Rohini, Delhi - DPCC",25-09-2025 07:00:00,28.732528,77.119920,OZONE,10,90,26
India,Delhi,Delhi,"Sirifort, Delhi - CPCB",25-09-2025 07:00:00,28.5504249,77.2159377,PM10,97,265,127
India,Delhi,Delhi,"Sirifort, Delhi - CPCB",25-09-2025 07:00:00,28.5504249,77.2159377,SO2,21,29,25
India,Delhi,Delhi,"Sonia Vihar, Delhi - DPCC",25-09-2025 07:00:00,28.710508,77.249485,PM2.5,NA,NA,NA
India,Delhi,Delhi,"Sonia Vihar, Delhi - DPCC",25-09-2025 07:00:00,28.710508,77.249485,NH3,6,9,7
India,Delhi,Delhi,"Sonia Vihar, Delhi - DPCC",25-09-2025 07:00:00,28.710508,77.249485,CO,45,87,72
India,Delhi,Delhi,"Sonia Vihar, Delhi - DPCC",25-09-2025 07:00:00,28.710508,77.249485,OZONE,3,51,5
India,Delhi,Delhi,"Sri Aurobindo Marg, Delhi - DPCC",25-09-2025 07:00:00,28.531346,77.190156,PM2.5,40,70,54
India,Delhi,Delhi,"Sri Aurobindo Marg, Delhi - DPCC",25-09-2025 07:00:00,28.531346,77.190156,NH3,4,6,5
India,Delhi,Delhi,"Sri Aurobindo Marg, Delhi - DPCC",25-09-2025 07:00:00,28.531346,77.190156,CO,22,54,41
India,Delhi,Delhi,"Vivek Vihar, Delhi - DPCC",25-09-2025 07:00:00,28.672342,77.315260,PM10,100,178,118
India,Delhi,Delhi,"Vivek Vihar, Delhi - DPCC",25-09-2025 07:00:00,28.672342,77.315260,SO2,15,25,19
India,Delhi,Delhi,"Vivek Vihar, Delhi - DPCC",25-09-2025 07:00:00,28.672342,77.315260,CO,30,70,50
India,Delhi,Delhi,"Wazirpur, Delhi - DPCC",25-09-2025 07:00:00,28.699793,77.165453,NH3,6,9,7
India,Delhi,Delhi,"Wazirpur, Delhi - DPCC",25-09-2025 07:00:00,28.699793,77.165453,CO,2,40,28
India,Gujarat,Ahmedabad,"Chandkheda, Ahmedabad - IITM",25-09-2025 07:00:00,23.107969,72.574648,NH3,5,10,7
India,Gujarat,Ahmedabad,"Chandkheda, Ahmedabad - IITM",25-09-2025 07:00:00,23.107969,72.574648,CO,15,50,28
India,Gujarat,Ahmedabad,"Gyaspur, Ahmedabad - IITM",25-09-2025 07:00:00,22.977134,72.553024,PM10,28,116,77
India,Gujarat,Ahmedabad,"SAC ISRO Satellite, Ahmedabad - IITM",25-09-2025 07:00:00,23.023389,72.515201,CO,5,58,37
India,Gujarat,Ahmedabad,"SVPI Airport Hansol, Ahmedabad - IITM",25-09-2025 07:00:00,23.076793,72.627874,PM10,39,51,43
India,Gujarat,Ahmedabad,"SVPI Airport Hansol, Ahmedabad - IITM",25-09-2025 07:00:00,23.076793,72.627874,SO2,2,56,10
India,Gujarat,Ankleshwar,"GIDC, Ankleshwar - GPCB",25-09-2025 07:00:00,21.613267,73.010555,PM2.5,20,49,36
India,Gujarat,Ankleshwar,"GIDC, Ankleshwar - GPCB",25-09-2025 07:00:00,21.613267,73.010555,NH3,6,8,7
India,Gujarat,Gandhinagar,"GIFT City, Gandhinagar - IITM",25-09-2025 07:00:00,23.163798,72.677768,CO,24,57,38
India,Gujarat,Gandhinagar,"IIPHG Lekawada, Gandhinagar - IITM",25-09-2025 07:00:00,23.243639,72.68994,PM2.5,17,63,34
India,Gujarat,Gandhinagar,"IIPHG Lekawada, Gandhinagar - IITM",25-09-2025 07:00:00,23.243639,72.68994,CO,10,45,20
India,Gujarat,Gandhinagar,"Sector-10, Gandhinagar - GPCB",25-09-2025 07:00:00,23.221714,72.654328,PM10,25,105,44
India,Gujarat,Gandhinagar,"Sector-10, Gandhinagar - GPCB",25-09-2025 07:00:00,23.221714,72.654328,NO2,22,33,26
India,Gujarat,Vapi,"Phase-1 GIDC, Vapi - GPCB",25-09-2025 07:00:00,20.362421,72.918013,PM2.5,32,99,52
India,Gujarat,Vapi,"Phase-1 GIDC, Vapi - GPCB",25-09-2025 07:00:00,20.362421,72.918013,NH3,10,10,10
India,Gujarat,Vapi,"Phase-1 GIDC, Vapi - GPCB",25-09-2025 07:00:00,20.362421,72.918013,OZONE,2,2,2
India,Gujarat,Vatva,"Phase-4 GIDC, Vatva - GPCB",25-09-2025 07:00:00,22.969611,72.643500,PM10,51,103,78
India,Gujarat,Vatva,"Phase-4 GIDC, Vatva - GPCB",25-09-2025 07:00:00,22.969611,72.643500,OZONE,7,17,12
India,Delhi,Delhi,"Okhla Phase-2, Delhi - DPCC",25-09-2025 07:00:00,28.530785,77.271255,NH3,5,12,7
India,Delhi,Delhi,"Punjabi Bagh, Delhi - DPCC",25-09-2025 07:00:00,28.674045,77.131023,NO2,3,33,19
India,Delhi,Delhi,"Pusa, Delhi - IMD",25-09-2025 07:00:00,28.636110,77.173332,PM2.5,2,292,81
India,Delhi,Delhi,"Pusa, Delhi - IMD",25-09-2025 07:00:00,28.636110,77.173332,NO2,7,40,22
India,Delhi,Delhi,"R K Puram, Delhi - DPCC",25-09-2025 07:00:00,28.563262,77.186937,NO2,13,83,38
India,Delhi,Delhi,"R K Puram, Delhi - DPCC",25-09-2025 07:00:00,28.563262,77.186937,SO2,2,61,16
India,Haryana,Panchgaon,"Amity University, Panchgaon - IITM",25-09-2025 07:00:00,28.3153,76.9143,NO2,1,24,7
India,Himachal Pradesh,Baddi,"HIMUDA Complex Phase-1, Baddi - HPPCB",25-09-2025 07:00:00,30.943887,76.801991,CO,49,86,74
India,Jharkhand,Dhanbad,"Sardar Patel Nagar, Dhanbad - JSPCB",25-09-2025 07:00:00,23.80569,86.44268,PM2.5,1,86,25
India,Jharkhand,Dhanbad,"Sardar Patel Nagar, Dhanbad - JSPCB",25-09-2025 07:00:00,23.80569,86.44268,OZONE,NA,NA,NA
India,Delhi,Delhi,"Najafgarh, Delhi - DPCC",25-09-2025 07:00:00,28.570173,76.933762,CO,8,34,29
India,Delhi,Delhi,"Narela, Delhi - DPCC",25-09-2025 07:00:00,28.822836,77.101981,NH3,15,18,16
India,Delhi,Delhi,"Nehru Nagar, Delhi - DPCC",25-09-2025 07:00:00,28.567890,77.250515,NO2,5,27,14
India,Delhi,Delhi,"Nehru Nagar, Delhi - DPCC",25-09-2025 07:00:00,28.567890,77.250515,SO2,2,26,9
India,Delhi,Delhi,"Okhla Phase-2, Delhi - DPCC",25-09-2025 07:00:00,28.530785,77.271255,PM2.5,15,70,42
India,Gujarat,Ahmedabad,"Maninagar, Ahmedabad - GPCB",25-09-2025 07:00:00,23.002657,72.591912,PM2.5,10,59,26
India,Gujarat,Ahmedabad,"Maninagar, Ahmedabad - GPCB",25-09-2025 07:00:00,23.002657,72.591912,CO,29,46,41
India,Gujarat,Ahmedabad,"Rakhial, Ahmedabad - IITM",25-09-2025 07:00:00,23.016834,72.625775,NH3,6,10,7
India,Gujarat,Ahmedabad,"SAC ISRO Bopal, Ahmedabad - IITM",25-09-2025 07:00:00,23.041137,72.456691,PM10,29,138,68
India,Gujarat,Ahmedabad,"SAC ISRO Bopal, Ahmedabad - IITM",25-09-2025 07:00:00,23.041137,72.456691,NO2,20,25,22
India,Karnataka,Bengaluru,"Shivapura_Peenya, Bengaluru - KSPCB",25-09-2025 07:00:00,13.0246342,77.5080115,NH3,4,4,4
India,Karnataka,Bengaluru,"Shivapura_Peenya, Bengaluru - KSPCB",25-09-2025 07:00:00,13.0246342,77.5080115,SO2,2,10,5
India,Karnataka,Bengaluru,"Silk Board, Bengaluru - KSPCB",25-09-2025 07:00:00,12.917348,77.622813,PM2.5,16,41,26
India,Karnataka,Bengaluru,"Silk Board, Bengaluru - KSPCB",25-09-2025 07:00:00,12.917348,77.622813,OZONE,14,16,15
India,Karnataka,Chamarajanagar,"Urban, Chamarajanagar - KSPCB",25-09-2025 07:00:00,11.55358,76.55521,SO2,2,4,3
India,Karnataka,Chamarajanagar,"Urban, Chamarajanagar - KSPCB",25-09-2025 07:00:00,11.55358,76.55521,CO,14,120,32
India,Karnataka,Chikkaballapur,"Chikkaballapur Rural, Chikkaballapur - KSPCB",25-09-2025 07:00:00,13.428828,77.731418,PM10,NA,NA,NA
India,Karnataka,Chikkaballapur,"Chikkaballapur Rural, Chikkaballapur - KSPCB",25-09-2025 07:00:00,13.428828,77.731418,NO2,NA,NA,NA
India,Karnataka,Chikkamagaluru,"Kalyana Nagara, Chikkamagaluru - KSPCB",25-09-2025 07:00:00,13.328028,75.797056,NH3,2,3,3
India,Madhya Pradesh,Bhopal,"Idgah Hills, Bhopal - MPPCB",25-09-2025 07:00:00,23.264759,77.381568,CO,12,44,21
India,Madhya Pradesh,Bhopal,"Paryavaran Parisar, Bhopal - MPPCB",25-09-2025 07:00:00,23.210494,77.425409,NO2,7,54,20
India,Madhya Pradesh,Bhopal,"Paryavaran Parisar, Bhopal - MPPCB",25-09-2025 07:00:00,23.210494,77.425409,SO2,10,17,14
India,Madhya Pradesh,Bhopal,"T T Nagar, Bhopal - MPPCB",25-09-2025 07:00:00,23.233584,77.400574,SO2,7,10,9
India,Madhya Pradesh,Damoh,"Shrivastav Colony, Damoh - MPPCB",25-09-2025 07:00:00,23.81748678,79.446246,CO,20,30,27
India,Madhya Pradesh,Dewas,"Bhopal Chauraha, Dewas - MPPCB",25-09-2025 07:00:00,22.9682591,76.064118,PM10,67,121,85
India,Madhya Pradesh,Dewas,"Bhopal Chauraha, Dewas - MPPCB",25-09-2025 07:00:00,22.9682591,76.064118,NO2,41,64,50
India,Karnataka,Bagalkot,"Vidayagiri, Bagalkot - KSPCB",25-09-2025 07:00:00,16.172806,75.659694,SO2,7,7,7
India,Karnataka,Bengaluru,"Bapuji Nagar, Bengaluru - KSPCB",25-09-2025 07:00:00,12.951913,77.539784,NO2,5,13,7
India,Karnataka,Bengaluru,"Hebbal, Bengaluru - KSPCB",25-09-2025 07:00:00,13.029152,77.585901,CO,10,29,20
India,Karnataka,Bengaluru,"Hombegowda Nagar, Bengaluru - KSPCB",25-09-2025 07:00:00,12.938539,77.590100,NO2,7,32,15
India,Karnataka,Bengaluru,"Jayanagar 5th Block, Bengaluru - KSPCB",25-09-2025 07:00:00,12.920984,77.584908,PM10,19,45,31
India,Karnataka,Mangalore,"Kadri, Mangalore - KSPCB",25-09-2025 07:00:00,12.889250,74.853000,NO2,NA,NA,NA
India,Karnataka,Mangalore,"Kadri, Mangalore - KSPCB",25-09-2025 07:00:00,12.889250,74.853000,NH3,NA,NA,NA
India,Karnataka,Mysuru,"Hebbal 1st Stage, Mysuru - KSPCB",25-09-2025 07:00:00,12.21041,76.37376,PM2.5,NA,NA,NA
India,Karnataka,Shivamogga,"Vinoba Nagara, Shivamogga - KSPCB",25-09-2025 07:00:00,13.940000,75.555917,OZONE,13,53,20
India,Kerala,Kannur,"Thavakkara, Kannur - Kerala PCB",25-09-2025 07:00:00,11.875000,75.373200,PM10,60,66,62
India,Karnataka,Kalaburagi,"Mahatma Basaveswar Colony, Kalaburgi - KSPCB",25-09-2025 07:00:00,17.336318,76.847397,PM10,29,76,44
India,Karnataka,Kalaburagi,"Mahatma Basaveswar Colony, Kalaburgi - KSPCB",25-09-2025 07:00:00,17.336318,76.847397,NO2,12,18,16
India,Karnataka,Madikeri,"Stuart Hill, Madikeri - KSPCB",25-09-2025 07:00:00,12.415911,75.735050,PM2.5,12,33,22
India,Karnataka,Madikeri,"Stuart Hill, Madikeri - KSPCB",25-09-2025 07:00:00,12.415911,75.735050,PM10,14,44,28
India,Karnataka,Mangalore,"Kadri, Mangalore - KSPCB",25-09-2025 07:00:00,12.889250,74.853000,PM10,NA,NA,NA
India,Karnataka,Bengaluru,"Jayanagar 5th Block, Bengaluru - KSPCB",25-09-2025 07:00:00,12.920984,77.584908,CO,3,35,7
India,Karnataka,Bengaluru,"Shivapura_Peenya, Bengaluru - KSPCB",25-09-2025 07:00:00,13.0246342,77.5080115,PM10,54,78,62
India,Karnataka,Davanagere,"Devaraj Urs Badavane, Davanagere - KSPCB",25-09-2025 07:00:00,14.475800,75.905200,SO2,2,5,3
India,Karnataka,Hassan,"B.Katihalli, Hassan - KSPCB",25-09-2025 07:00:00,13.008556,76.125258,PM2.5,12,48,32
India,Kerala,Thrissur,"Corporation Ground, Thrissur - Kerala PCB",25-09-2025 07:00:00,10.532400,76.215900,OZONE,29,30,30
India,Madhya Pradesh,Bhopal,"Idgah Hills, Bhopal - MPPCB",25-09-2025 07:00:00,23.264759,77.381568,PM2.5,32,83,46
India,Kerala,Kannur,"Thavakkara, Kannur - Kerala PCB",25-09-2025 07:00:00,11.875000,75.373200,OZONE,28,33,29
India,Maharashtra,Boisar,"Khaira, Boisar - MPCB",25-09-2025 07:00:00,19.786089,72.757971,NO2,4,41,14
India,Maharashtra,Boisar,"Khaira, Boisar - MPCB",25-09-2025 07:00:00,19.786089,72.757971,NH3,9,16,13
India,Maharashtra,Boisar,"Khaira, Boisar - MPCB",25-09-2025 07:00:00,19.786089,72.757971,SO2,15,21,18
India,Maharashtra,Chandrapur,"Chauhan Colony, Chandrapur - MPCB",25-09-2025 07:00:00,19.962900,79.298714,NH3,3,3,3
India,Maharashtra,Chandrapur,"Chauhan Colony, Chandrapur - MPCB",25-09-2025 07:00:00,19.962900,79.298714,CO,14,26,15
India,Maharashtra,Chandrapur,"MIDC Khutala, Chandrapur - MPCB",25-09-2025 07:00:00,19.9775302,79.2337086,PM10,40,103,71
India,Maharashtra,Chandrapur,"MIDC Khutala, Chandrapur - MPCB",25-09-2025 07:00:00,19.9775302,79.2337086,OZONE,15,41,17
India,Maharashtra,Dhule,"Deopur, Dhule - MPCB",25-09-2025 07:00:00,20.918946,74.776388,PM10,28,72,52
India,Maharashtra,Dhule,"Deopur, Dhule - MPCB",25-09-2025 07:00:00,20.918946,74.776388,OZONE,10,69,16
India,Maharashtra,Jalgaon,"Prabhat Colony, Jalgaon - MPCB",25-09-2025 07:00:00,21.001264,75.565602,SO2,3,7,6
India,Maharashtra,Jalgaon,"Prabhat Colony, Jalgaon - MPCB",25-09-2025 07:00:00,21.001264,75.565602,CO,14,27,17
India,Maharashtra,Jalgaon,"Prabhat Colony, Jalgaon - MPCB",25-09-2025 07:00:00,21.001264,75.565602,OZONE,9,35,12
India,Madhya Pradesh,Jabalpur,"Marhatal, Jabalpur - MPPCB",25-09-2025 07:00:00,23.168606,79.932247,NO2,9,63,30
India,Madhya Pradesh,Jabalpur,"Marhatal, Jabalpur - MPPCB",25-09-2025 07:00:00,23.168606,79.932247,NH3,1,4,3
India,Madhya Pradesh,Jabalpur,"Marhatal, Jabalpur - MPPCB",25-09-2025 07:00:00,23.168606,79.932247,OZONE,2,22,6
India,Madhya Pradesh,Jabalpur,"Suhagi, Jabalpur - JMC",25-09-2025 07:00:00,23.218135,79.957770,OZONE,22,72,41
India,Madhya Pradesh,Katni,"Gole Bazar, Katni - MPPCB",25-09-2025 07:00:00,23.50016,80.23284,PM10,42,134,94
India,Madhya Pradesh,Katni,"Gole Bazar, Katni - MPPCB",25-09-2025 07:00:00,23.50016,80.23284,NH3,3,3,3
India,Madhya Pradesh,Katni,"Gole Bazar, Katni - MPPCB",25-09-2025 07:00:00,23.50016,80.23284,OZONE,38,118,55
India,Madhya Pradesh,Mandideep,"Sector-D Industrial Area, Mandideep - MPPCB",25-09-2025 07:00:00,23.108440,77.511428,NH3,NA,NA,NA
India,Madhya Pradesh,Mandideep,"Sector-D Industrial Area, Mandideep - MPPCB",25-09-2025 07:00:00,23.108440,77.511428,OZONE,NA,NA,NA
India,Madhya Pradesh,Pithampur,"Sector-2 Industrial Area, Pithampur - MPPCB",25-09-2025 07:00:00,22.624758,75.675238,PM10,46,117,73
India,Maharashtra,Akola,"Ramdaspeth, Akola - MPCB",25-09-2025 07:00:00,20.719516,77.000253,PM10,35,69,51
India,Maharashtra,Amravati,"Shivneri Colony, Amravati - MPCB",25-09-2025 07:00:00,20.9402359,77.7895248,PM10,31,84,58
India,Maharashtra,Amravati,"Shivneri Colony, Amravati - MPCB",25-09-2025 07:00:00,20.9402359,77.7895248,CO,10,25,13
India,Maharashtra,Amravati,"Shri Shivaji Science College, Amravati - MPCB",25-09-2025 07:00:00,20.939198,77.765701,PM10,30,64,52
India,Maharashtra,Aurangabad,"MIDC Chilkalthana, Aurangabad - MPCB",25-09-2025 07:00:00,19.875620,75.387310,PM2.5,13,57,29
India,Maharashtra,Aurangabad,"MIDC Chilkalthana, Aurangabad - MPCB",25-09-2025 07:00:00,19.875620,75.387310,NO2,6,44,13
India,Maharashtra,Aurangabad,"MIDC Chilkalthana, Aurangabad - MPCB",25-09-2025 07:00:00,19.875620,75.387310,NH3,1,3,2
India,Maharashtra,Aurangabad,"More Chowk Waluj, Aurangabad - MPCB",25-09-2025 07:00:00,19.8389439,75.244448,NO2,15,23,19
India,Maharashtra,Aurangabad,"More Chowk Waluj, Aurangabad - MPCB",25-09-2025 07:00:00,19.8389439,75.244448,SO2,15,24,17
India,Madhya Pradesh,Indore,"Maguda Nagar, Indore - IMC",25-09-2025 07:00:00,22.7524,75.8872,SO2,38,40,39
India,Madhya Pradesh,Indore,"Regional Park, Indore - IMC",25-09-2025 07:00:00,22.6780,75.8559,SO2,22,25,24
India,Madhya Pradesh,Indore,"Residency Area, Indore - IMC",25-09-2025 07:00:00,22.7084,75.8815,PM2.5,27,49,36
India,Madhya Pradesh,Jabalpur,"Govindh Bhavan Colony, Jabalpur - JMC",25-09-2025 07:00:00,23.163174,79.973061,NH3,1,2,2
India,Madhya Pradesh,Jabalpur,"Govindh Bhavan Colony, Jabalpur - JMC",25-09-2025 07:00:00,23.163174,79.973061,SO2,24,26,26
India,Madhya Pradesh,Jabalpur,"Gupteshwar, Jabalpur - JMC",25-09-2025 07:00:00,23.142888,79.916147,PM10,45,116,78
India,Madhya Pradesh,Jabalpur,"Gupteshwar, Jabalpur - JMC",25-09-2025 07:00:00,23.142888,79.916147,NO2,11,35,19
India,Madhya Pradesh,Jabalpur,"Marhatal, Jabalpur - MPPCB",25-09-2025 07:00:00,23.168606,79.932247,PM2.5,23,68,40
India,Madhya Pradesh,Pithampur,"Sector-2 Industrial Area, Pithampur - MPPCB",25-09-2025 07:00:00,22.624758,75.675238,NH3,3,5,4
India,Madhya Pradesh,Pithampur,"Sector-2 Industrial Area, Pithampur - MPPCB",25-09-2025 07:00:00,22.624758,75.675238,CO,18,31,20
India,Madhya Pradesh,Ratlam,"Shasthri Nagar, Ratlam - IPCA Lab",25-09-2025 07:00:00,23.331731,75.045981,PM10,43,127,70
India,Madhya Pradesh,Ratlam,"Shasthri Nagar, Ratlam - IPCA Lab",25-09-2025 07:00:00,23.331731,75.045981,SO2,9,50,16
India,Madhya Pradesh,Sagar,"Civil Lines, Sagar - MPPCB",25-09-2025 07:00:00,23.838586,78.759431,NH3,1,2,1
India,Madhya Pradesh,Sagar,"Civil Lines, Sagar - MPPCB",25-09-2025 07:00:00,23.838586,78.759431,CO,26,42,34
India,Madhya Pradesh,Satna,"Bandhavgar Colony, Satna - Birla Cement",25-09-2025 07:00:00,24.58434363,80.8549414,NO2,22,33,26
India,Madhya Pradesh,Satna,"Bandhavgar Colony, Satna - Birla Cement",25-09-2025 07:00:00,24.58434363,80.8549414,CO,14,42,19
India,Madhya Pradesh,Gwalior,"Deen Dayal Nagar, Gwalior - MPPCB",25-09-2025 07:00:00,26.259242,78.216432,PM2.5,28,98,55
India,Madhya Pradesh,Gwalior,"Maharaj Bada, Gwalior - MPPCB",25-09-2025 07:00:00,26.200388,78.147714,OZONE,38,87,43
India,Madhya Pradesh,Indore,"Airport Area, Indore - IMC",25-09-2025 07:00:00,22.7289,75.8076,PM2.5,NA,NA,NA
India,Madhya Pradesh,Indore,"Airport Area, Indore - IMC",25-09-2025 07:00:00,22.7289,75.8076,PM10,NA,NA,NA
India,Madhya Pradesh,Indore,"Chhoti Gwaltoli, Indore - MPPCB",25-09-2025 07:00:00,22.4310,75.5213,PM2.5,34,67,47
India,Madhya Pradesh,Indore,"Chhoti Gwaltoli, Indore - MPPCB",25-09-2025 07:00:00,22.4310,75.5213,NO2,49,75,61
India,Madhya Pradesh,Indore,"Chhoti Gwaltoli, Indore - MPPCB",25-09-2025 07:00:00,22.4310,75.5213,NH3,7,8,8
India,Maharashtra,Kalyan,"Khadakpada, Kalyan - MPCB",25-09-2025 07:00:00,19.25292,73.142019,PM2.5,28,227,74
India,Maharashtra,Kalyan,"Khadakpada, Kalyan - MPCB",25-09-2025 07:00:00,19.25292,73.142019,NO2,8,13,10
India,Maharashtra,Kolhapur,"Shivaji University, Kolhapur - MPCB",25-09-2025 07:00:00,16.6870449,74.2505872,SO2,1,3,2
India,Maharashtra,Kolhapur,"Shivaji University, Kolhapur - MPCB",25-09-2025 07:00:00,16.6870449,74.2505872,CO,4,30,8
India,Maharashtra,Kolhapur,"Sinchan Bhavan, Kolhapur - MPCB",25-09-2025 07:00:00,16.7143745,74.2426398,CO,5,14,7
India,Maharashtra,Latur,"Sawe Wadi, Latur - MPCB",25-09-2025 07:00:00,18.39963,76.57452,NH3,1,6,3
India,Maharashtra,Aurangabad,"More Chowk Waluj, Aurangabad - MPCB",25-09-2025 07:00:00,19.8389439,75.244448,CO,5,119,37
India,Maharashtra,Badlapur,"Katrap, Badlapur - MPCB",25-09-2025 07:00:00,19.16485,73.23409,CO,28,66,38
India,Maharashtra,Belapur,"CBD Belapur, Belapur - MPCB",25-09-2025 07:00:00,19.0243902,73.0406721,NH3,4,6,5
India,Maharashtra,Bhiwandi,"Gokul Nagar, Bhiwandi - MPCB",25-09-2025 07:00:00,19.309073,73.057223,NH3,NA,NA,NA
India,Maharashtra,Bhiwandi,"Gokul Nagar, Bhiwandi - MPCB",25-09-2025 07:00:00,19.309073,73.057223,CO,42,68,54
India,Maharashtra,Malegaon,"Mahesh Nagar, Malegaon - MPCB",25-09-2025 07:00:00,20.555712,74.529236,CO,5,35,8
India,Maharashtra,Mira-Bhayandar,"Bhayandar West, Mira-Bhayandar - MPCB",25-09-2025 07:00:00,19.296481,72.840923,NO2,4,58,25
India,Maharashtra,Mira-Bhayandar,"Bhayandar West, Mira-Bhayandar - MPCB",25-09-2025 07:00:00,19.296481,72.840923,CO,25,72,50
India,Maharashtra,Mumbai,"Bandra Kurla Complex, Mumbai - IITM",25-09-2025 07:00:00,19.053536,72.84643,CO,8,44,19
India,Maharashtra,Mumbai,"Bandra Kurla Complex, Mumbai - MPCB",25-09-2025 07:00:00,19.065931,72.862131,NO2,10,27,18
India,Maharashtra,Mumbai,"Chembur, Mumbai - MPCB",25-09-2025 07:00:00,19.0364585,72.8954371,OZONE,NA,NA,NA
India,Maharashtra,Mumbai,"Deonar, Mumbai - IITM",25-09-2025 07:00:00,19.04946,72.9230,OZONE,1,13,2
India,Maharashtra,Mumbai,"Ghatkopar, Mumbai - BMC",25-09-2025 07:00:00,19.083694,72.920967,PM2.5,15,31,24
India,Maharashtra,Mumbai,"Ghatkopar, Mumbai - BMC",25-09-2025 07:00:00,19.083694,72.920967,NH3,2,9,4
India,Maharashtra,Mumbai,"Kandivali East, Mumbai - MPCB",25-09-2025 07:00:00,19.205800,72.868200,PM2.5,15,59,31
India,Maharashtra,Mumbai,"Kandivali West, Mumbai - BMC",25-09-2025 07:00:00,19.215859,72.831718,NO2,4,27,14
India,Maharashtra,Mumbai,"Kandivali West, Mumbai - BMC",25-09-2025 07:00:00,19.215859,72.831718,SO2,1,4,2
India,Maharashtra,Mumbai,"Kherwadi_Bandra East, Mumbai - MPCB",25-09-2025 07:00:00,19.0632143,72.8456324,PM2.5,7,80,27
India,Maharashtra,Mumbai,"Kherwadi_Bandra East, Mumbai - MPCB",25-09-2025 07:00:00,19.0632143,72.8456324,NO2,NA,NA,NA
India,Maharashtra,Mumbai,"Kherwadi_Bandra East, Mumbai - MPCB",25-09-2025 07:00:00,19.0632143,72.8456324,SO2,3,3,3
India,Maharashtra,Mumbai,"Mindspace-Malad West, Mumbai - MPCB",25-09-2025 07:00:00,19.1878657,72.8304069,NO2,15,16,15
India,Maharashtra,Mumbai,"Mindspace-Malad West, Mumbai - MPCB",25-09-2025 07:00:00,19.1878657,72.8304069,NH3,5,6,5
India,Maharashtra,Mumbai,"Mindspace-Malad West, Mumbai - MPCB",25-09-2025 07:00:00,19.1878657,72.8304069,SO2,6,7,6
India,Maharashtra,Mumbai,"Navy Nagar-Colaba, Mumbai - IITM",25-09-2025 07:00:00,18.897756,72.813320,PM10,45,69,56
India,Maharashtra,Mumbai,"Navy Nagar-Colaba, Mumbai - IITM",25-09-2025 07:00:00,18.897756,72.813320,NO2,16,66,31
India,Maharashtra,Mumbai,"Powai, Mumbai - MPCB",25-09-2025 07:00:00,19.137500,72.915056,PM2.5,17,32,23
India,Maharashtra,Mumbai,"Powai, Mumbai - MPCB",25-09-2025 07:00:00,19.137500,72.915056,SO2,15,15,15
India,Maharashtra,Mumbai,"Shivaji Nagar, Mumbai - BMC",25-09-2025 07:00:00,19.060498,72.923356,NO2,24,59,38
India,Maharashtra,Mumbai,"Shivaji Nagar, Mumbai - BMC",25-09-2025 07:00:00,19.060498,72.923356,CO,2,30,11
India,Maharashtra,Mumbai,"Shivaji Nagar, Mumbai - BMC",25-09-2025 07:00:00,19.060498,72.923356,OZONE,1,19,1
India,Maharashtra,Nanded,"Sneh Nagar, Nanded - MPCB",25-09-2025 07:00:00,19.173852,77.296291,PM2.5,25,42,30
India,Maharashtra,Nanded,"Sneh Nagar, Nanded - MPCB",25-09-2025 07:00:00,19.173852,77.296291,NO2,7,20,10
India,Maharashtra,Nashik,"Gangapur Road, Nashik - MPCB",25-09-2025 07:00:00,20.0073285,73.7762427,PM10,8,45,27
India,Maharashtra,Nashik,"Gangapur Road, Nashik - MPCB",25-09-2025 07:00:00,20.0073285,73.7762427,CO,8,9,8
India,Maharashtra,Nashik,"MIDC Ambad, Nashik - MPCB",25-09-2025 07:00:00,19.950220,73.731480,SO2,6,10,9
India,Maharashtra,Nashik,"Pandav Nagari, Nashik - MPCB",25-09-2025 07:00:00,19.9591346,73.7788008,PM2.5,18,41,29
India,Maharashtra,Nashik,"Pandav Nagari, Nashik - MPCB",25-09-2025 07:00:00,19.9591346,73.7788008,CO,4,16,6
India,Maharashtra,Navi Mumbai,"Mahape, Navi Mumbai - MPCB",25-09-2025 07:00:00,19.1135051,73.008978,SO2,NA,NA,NA
India,Maharashtra,Navi Mumbai,"Mahape, Navi Mumbai - MPCB",25-09-2025 07:00:00,19.1135051,73.008978,OZONE,NA,NA,NA
India,Maharashtra,Navi Mumbai,"Nerul, Navi Mumbai - MPCB",25-09-2025 07:00:00,19.008751,73.016620,PM10,NA,NA,NA
India,Maharashtra,Navi Mumbai,"Nerul, Navi Mumbai - MPCB",25-09-2025 07:00:00,19.008751,73.016620,NH3,3,4,4
India,Maharashtra,Navi Mumbai,"Sanpada, Navi Mumbai - MPCB",25-09-2025 07:00:00,19.0575752,73.0151367,NH3,12,24,16
India,Maharashtra,Navi Mumbai,"Sector-2E Kalamboli, Navi Mumbai - MPCB",25-09-2025 07:00:00,19.02579,73.10297,PM10,49,104,73
India,Maharashtra,Navi Mumbai,"Sector-2E Kalamboli, Navi Mumbai - MPCB",25-09-2025 07:00:00,19.02579,73.10297,NH3,2,6,4
India,Maharashtra,Navi Mumbai,"Tondare-Taloja, Navi Mumbai - MPCB",25-09-2025 07:00:00,19.0630,73.1209,CO,18,40,30
India,Maharashtra,Parbhani,"Masoom Colony, Parbhani - MPCB",25-09-2025 07:00:00,19.265594,76.761463,CO,1,115,85
India,Maharashtra,Pimpri-Chinchwad,"Gavalinagar, Pimpri Chinchwad - MPCB",25-09-2025 07:00:00,18.63673,73.82487,PM10,23,59,42
India,Maharashtra,Pimpri-Chinchwad,"Savta Mali Nagar, Pimpri-Chinchwad - IITM",25-09-2025 07:00:00,18.614767,73.799516,PM10,21,67,47
India,Maharashtra,Pimpri-Chinchwad,"Savta Mali Nagar, Pimpri-Chinchwad - IITM",25-09-2025 07:00:00,18.614767,73.799516,CO,68,105,99
India,Maharashtra,Mumbai,"Khindipada-Bhandup West, Mumbai - IITM",25-09-2025 07:00:00,19.1653323,72.922099,NO2,4,13,9
India,Maharashtra,Mumbai,"Khindipada-Bhandup West, Mumbai - IITM",25-09-2025 07:00:00,19.1653323,72.922099,OZONE,1,35,2
India,Maharashtra,Mumbai,"Kurla, Mumbai - MPCB",25-09-2025 07:00:00,19.0863,72.8888,NO2,3,6,5
India,Maharashtra,Mumbai,"Malad West, Mumbai - IITM",25-09-2025 07:00:00,19.19709,72.82204,PM10,26,72,51
India,Maharashtra,Mumbai,"Mazgaon, Mumbai - IITM",25-09-2025 07:00:00,18.96702,72.84214,SO2,NA,NA,NA
India,Maharashtra,Pimpri-Chinchwad,"Thergaon, Pimpri Chinchwad - MPCB",25-09-2025 07:00:00,18.616318,73.765797,OZONE,11,31,13
India,Maharashtra,Pune,"Bhumkar Nagar, Pune - IITM",25-09-2025 07:00:00,18.605770,73.749976,PM10,41,77,51
India,Maharashtra,Pune,"Mhada Colony, Pune - IITM",25-09-2025 07:00:00,18.573040,73.927715,OZONE,11,50,14
India,Maharashtra,Pune,"Revenue Colony-Shivajinagar, Pune - IITM",25-09-2025 07:00:00,18.530085,73.849598,PM10,46,269,124
India,Maharashtra,Mumbai,"Borivali East, Mumbai - MPCB",25-09-2025 07:00:00,19.2243333,72.8658113,CO,2,2,2
India,Maharashtra,Mumbai,"Byculla, Mumbai - BMC",25-09-2025 07:00:00,18.9767,72.8380,PM10,21,44,29
India,Maharashtra,Mumbai,"Byculla, Mumbai - BMC",25-09-2025 07:00:00,18.9767,72.8380,OZONE,7,28,10
India,Maharashtra,Mumbai,"Chembur, Mumbai - MPCB",25-09-2025 07:00:00,19.0364585,72.8954371,PM2.5,19,39,27
India,Maharashtra,Mumbai,"Chembur, Mumbai - MPCB",25-09-2025 07:00:00,19.0364585,72.8954371,PM10,21,49,39
India,Maharashtra,Nagpur,"Mahal, Nagpur - MPCB",25-09-2025 07:00:00,21.14472,79.107595,PM10,42,87,59
India,Maharashtra,Nagpur,"Mahal, Nagpur - MPCB",25-09-2025 07:00:00,21.14472,79.107595,SO2,6,54,26
India,Maharashtra,Nagpur,"Opp GPO Civil Lines, Nagpur - MPCB",25-09-2025 07:00:00,21.152875,79.0517531,CO,6,72,13
India,Maharashtra,Nagpur,"Opp GPO Civil Lines, Nagpur - MPCB",25-09-2025 07:00:00,21.152875,79.0517531,OZONE,3,29,14
India,Odisha,Rourkela,"Raghunathpali, Rourkela - OSPCB",25-09-2025 07:00:00,22.220833,84.809444,CO,26,73,47
India,Odisha,Rourkela,"Raghunathpali, Rourkela - OSPCB",25-09-2025 07:00:00,22.220833,84.809444,OZONE,NA,NA,NA
India,Odisha,Suakati,"OMC Colony, Suakati - OSPCB",25-09-2025 07:00:00,21.606865,85.510538,OZONE,2,15,14
India,Odisha,Talcher,"Talcher Coalfields,Talcher - OSPCB",25-09-2025 07:00:00,20.9360711,85.1707021,PM2.5,4,60,34
India,Odisha,Talcher,"Talcher Coalfields,Talcher - OSPCB",25-09-2025 07:00:00,20.9360711,85.1707021,NO2,30,51,40
India,Odisha,Talcher,"Talcher Coalfields,Talcher - OSPCB",25-09-2025 07:00:00,20.9360711,85.1707021,SO2,1,6,3
India,Odisha,Tensa,"Barsua Iron Ore Mines, Tensa - OSPCB",25-09-2025 07:00:00,21.869985,85.167016,PM2.5,NA,NA,NA
India,Odisha,Tensa,"Barsua Iron Ore Mines, Tensa - OSPCB",25-09-2025 07:00:00,21.869985,85.167016,NO2,NA,NA,NA
India,Punjab,Amritsar,"Golden Temple, Amritsar - PPCB",25-09-2025 07:00:00,31.620000,74.876512,PM10,58,84,75
India,Rajasthan,Baran,"Bamboliya, Baran - RSPCB",25-09-2025 07:00:00,25.106006,76.469948,OZONE,15,61,25
India,Rajasthan,Barmer,"Railway Colony, Barmer - RSPCB",25-09-2025 07:00:00,25.747299,71.393989,PM2.5,5,23,15
India,Rajasthan,Barmer,"Railway Colony, Barmer - RSPCB",25-09-2025 07:00:00,25.747299,71.393989,NH3,2,4,2
India,Rajasthan,Barmer,"Railway Colony, Barmer - RSPCB",25-09-2025 07:00:00,25.747299,71.393989,SO2,2,6,4
India,Rajasthan,Bharatpur,"Krishna Nagar, Bharatpur - RSPCB",25-09-2025 07:00:00,27.215415,77.50873,PM10,74,133,101
India,Rajasthan,Bharatpur,"Krishna Nagar, Bharatpur - RSPCB",25-09-2025 07:00:00,27.215415,77.50873,NO2,6,50,21
India,Rajasthan,Bhilwara,"Pratap Nagar, Bhilwara - RSPCB",25-09-2025 07:00:00,25.339605,74.618883,NO2,5,18,11
India,Rajasthan,Bhilwara,"Pratap Nagar, Bhilwara - RSPCB",25-09-2025 07:00:00,25.339605,74.618883,SO2,11,17,13
India,Rajasthan,Bhiwadi,"RIICO Ind. Area III, Bhiwadi - RSPCB",25-09-2025 07:00:00,28.194909,76.862296,SO2,1,14,7
India,Nagaland,Kohima,"PWD Junction, Kohima - NPCB",25-09-2025 07:00:00,25.6635413,94.0989878,NO2,3,4,3
India,Nagaland,Kohima,"PWD Junction, Kohima - NPCB",25-09-2025 07:00:00,25.6635413,94.0989878,NH3,1,1,1
India,Nagaland,Kohima,"PWD Junction, Kohima - NPCB",25-09-2025 07:00:00,25.6635413,94.0989878,SO2,68,73,70
India,Odisha,Angul,"Hakimapada, Angul - OSPCB",25-09-2025 07:00:00,20.832874,85.104082,PM2.5,3,97,47
India,Odisha,Angul,"Hakimapada, Angul - OSPCB",25-09-2025 07:00:00,20.832874,85.104082,PM10,13,101,58
India,Odisha,Barbil,"Forest Office, Barbil - OSPCB",25-09-2025 07:00:00,22.1166054,85.3945546,PM10,11,119,33
India,Odisha,Barbil,"Forest Office, Barbil - OSPCB",25-09-2025 07:00:00,22.1166054,85.3945546,NH3,2,2,2
India,Odisha,Barbil,"Forest Office, Barbil - OSPCB",25-09-2025 07:00:00,22.1166054,85.3945546,CO,25,52,31
India,Odisha,Baripada,"Meher Colony, Baripada - OSPCB",25-09-2025 07:00:00,21.941841,86.728318,NH3,1,2,1
India,Odisha,Cuttack,"CDA Area, Cuttack - OSPCB",25-09-2025 07:00:00,20.48891     ,85.84768     ,PM10,21,96,68
India,Odisha,Cuttack,"CDA Area, Cuttack - OSPCB",25-09-2025 07:00:00,20.48891     ,85.84768     ,SO2,3,16,8
India,Odisha,Keonjhar,"Jagamohanpur, Keonjhar - OSPCB",25-09-2025 07:00:00,21.643900,85.599355,NO2,15,24,18
India,Odisha,Rairangpur,"Divisional Forest Office, Rairangpur - OSPCB",25-09-2025 07:00:00,22.265816,86.174829,NO2,19,22,21
India,Odisha,Rairangpur,"Divisional Forest Office, Rairangpur - OSPCB",25-09-2025 07:00:00,22.265816,86.174829,NH3,3,3,3
India,Odisha,Rairangpur,"Divisional Forest Office, Rairangpur - OSPCB",25-09-2025 07:00:00,22.265816,86.174829,OZONE,16,22,17
India,Odisha,Rourkela,"Fertilizer Township, Rourkela - OSPCB",25-09-2025 07:00:00,22.18972222,84.86277778,PM2.5,55,84,66
India,Odisha,Rourkela,"Fertilizer Township, Rourkela - OSPCB",25-09-2025 07:00:00,22.18972222,84.86277778,SO2,8,9,9
India,Punjab,Jalandhar,"Civil Line, Jalandhar - PPCB",25-09-2025 07:00:00,31.321907,75.578914,CO,38,50,46
India,Punjab,Khanna,"Kalal Majra, Khanna - PPCB",25-09-2025 07:00:00,30.736056 ,76.209694,PM2.5,55,125,78
India,Punjab,Khanna,"Kalal Majra, Khanna - PPCB",25-09-2025 07:00:00,30.736056 ,76.209694,CO,24,42,33
India,Punjab,Mandi Gobindgarh,"RIMT University, Mandi Gobindgarh - PPCB",25-09-2025 07:00:00,30.649961,76.331442,NO2,23,24,24
India,Punjab,Mandi Gobindgarh,"RIMT University, Mandi Gobindgarh - PPCB",25-09-2025 07:00:00,30.649961,76.331442,NH3,6,6,6
India,Punjab,Mandi Gobindgarh,"RIMT University, Mandi Gobindgarh - PPCB",25-09-2025 07:00:00,30.649961,76.331442,SO2,3,42,16
India,Punjab,Mandi Gobindgarh,"RIMT University, Mandi Gobindgarh - PPCB",25-09-2025 07:00:00,30.649961,76.331442,OZONE,46,50,48
India,Punjab,Patiala,"Model Town, Patiala - PPCB",25-09-2025 07:00:00,30.349388,76.366642,PM10,46,76,62
India,Maharashtra,Pune,"Transport Nagar-Nigdi, Pune - IITM",25-09-2025 07:00:00,18.664282,73.763966,PM2.5,NA,NA,NA
India,Maharashtra,Pune,"Transport Nagar-Nigdi, Pune - IITM",25-09-2025 07:00:00,18.664282,73.763966,NO2,NA,NA,NA
India,Maharashtra,Pune,"Transport Nagar-Nigdi, Pune - IITM",25-09-2025 07:00:00,18.664282,73.763966,CO,NA,NA,NA
India,Maharashtra,Solapur,"Dnyaneshwar Nagar, Solapur - MPCB",25-09-2025 07:00:00,17.6336264,75.9132495,PM10,13,54,36
India,Maharashtra,Solapur,"Dnyaneshwar Nagar, Solapur - MPCB",25-09-2025 07:00:00,17.6336264,75.9132495,NO2,1,24,8
India,Maharashtra,Solapur,"Dnyaneshwar Nagar, Solapur - MPCB",25-09-2025 07:00:00,17.6336264,75.9132495,OZONE,7,27,10
India,Maharashtra,Solapur,"Ratandeep Housing Society, Solapur - MPCB",25-09-2025 07:00:00,17.65439,75.90649,PM2.5,5,50,21
India,Maharashtra,Solapur,"Ratandeep Housing Society, Solapur - MPCB",25-09-2025 07:00:00,17.65439,75.90649,NH3,2,11,4
India,Maharashtra,Solapur,"Ratandeep Housing Society, Solapur - MPCB",25-09-2025 07:00:00,17.65439,75.90649,CO,6,94,13
India,Odisha,Baripada,"Meher Colony, Baripada - OSPCB",25-09-2025 07:00:00,21.941841,86.728318,SO2,4,7,6
India,Odisha,Bhubaneswar,"Lingraj Mandir, Bhubaneswar - OSPCB",25-09-2025 07:00:00,20.240790,85.836784,PM2.5,17,73,47
India,Odisha,Bileipada,"Tata Township, Bileipada - OSPCB",25-09-2025 07:00:00,22.06156703,85.47409613,PM2.5,35,89,54
India,Odisha,Bileipada,"Tata Township, Bileipada - OSPCB",25-09-2025 07:00:00,22.06156703,85.47409613,PM10,33,118,64
India,Odisha,Brajrajnagar,"GM Office, Brajrajnagar - OSPCB",25-09-2025 07:00:00,21.8004996,83.8396977,NH3,8,9,8
India,Odisha,Byasanagar,"Ferro Chrome Colony, Byasanagar - OSPCB",25-09-2025 07:00:00,20.94185,86.11510,PM10,23,63,44
India,Maharashtra,Thane,"Upvan Fort, Thane - MPCB",25-09-2025 07:00:00,19.222279,72.957979,NO2,1,41,11
India,Maharashtra,Ulhasnagar,"Sidhi Vinayak Nagar, Ulhasnagar - MPCB",25-09-2025 07:00:00,19.235581,73.159121,NO2,27,59,43
India,Maharashtra,Virar,"Bolinj, Virar - MPCB",25-09-2025 07:00:00,19.4458210,72.7988231,SO2,2,5,3
India,Maharashtra,Virar,"Bolinj, Virar - MPCB",25-09-2025 07:00:00,19.4458210,72.7988231,CO,4,109,43
India,Maharashtra,Virar,"Bolinj, Virar - MPCB",25-09-2025 07:00:00,19.4458210,72.7988231,OZONE,6,31,8
India,Meghalaya,Shillong,"Lumpyngngad, Shillong - Meghalaya PCB",25-09-2025 07:00:00,25.5586,91.8985,PM2.5,NA,NA,NA
India,Meghalaya,Shillong,"Lumpyngngad, Shillong - Meghalaya PCB",25-09-2025 07:00:00,25.5586,91.8985,SO2,5,6,5
India,Rajasthan,Ajmer,"Civil Lines,  Ajmer - RSPCB",25-09-2025 07:00:00,26.470859,74.646594,SO2,3,40,16
India,Rajasthan,Alwar,"Moti Doongri, Alwar - RSPCB",25-09-2025 07:00:00,27.554793,76.611536,PM2.5,29,59,45
India,Rajasthan,Alwar,"Moti Doongri, Alwar - RSPCB",25-09-2025 07:00:00,27.554793,76.611536,SO2,17,42,30
India,Rajasthan,Baran,"Bamboliya, Baran - RSPCB",25-09-2025 07:00:00,25.106006,76.469948,PM10,56,124,81
India,Rajasthan,Bhiwadi,"Vasundhara Nagar_UIT, Bhiwadi - RSPCB",25-09-2025 07:00:00,28.207266,76.829265,CO,14,55,24
India,Rajasthan,Bikaner,"MM Ground, Bikaner - RSPCB",25-09-2025 07:00:00,28.018792,73.292658,NO2,5,29,12
India,Rajasthan,Bikaner,"MM Ground, Bikaner - RSPCB",25-09-2025 07:00:00,28.018792,73.292658,CO,7,37,9
India,Rajasthan,Bundi,"New Colony, Bundi - RSPCB",25-09-2025 07:00:00,25.435774,75.644272,SO2,2,6,4
India,Rajasthan,Bundi,"New Colony, Bundi - RSPCB",25-09-2025 07:00:00,25.435774,75.644272,OZONE,33,72,44
India,Rajasthan,Chittorgarh,"Shastri Nagar, Chittorgarh - RSPCB",25-09-2025 07:00:00,24.892047,74.623527,PM2.5,22,45,31
India,Rajasthan,Chittorgarh,"Shastri Nagar, Chittorgarh - RSPCB",25-09-2025 07:00:00,24.892047,74.623527,PM10,53,95,70
India,Rajasthan,Churu,"Subash Chowk, Churu - RSPCB",25-09-2025 07:00:00,28.296139,74.961696,PM10,35,94,60
India,Rajasthan,Churu,"Subash Chowk, Churu - RSPCB",25-09-2025 07:00:00,28.296139,74.961696,SO2,2,4,2
India,Rajasthan,Dausa,"Khatikan Mohalla, Dausa - RSPCB",25-09-2025 07:00:00,26.895552,76.334753,CO,26,55,31
India,Rajasthan,Dausa,"Khatikan Mohalla, Dausa - RSPCB",25-09-2025 07:00:00,26.895552,76.334753,OZONE,18,51,47
India,Rajasthan,Dholpur,"Raja Ganj, Dholpur - RSPCB",25-09-2025 07:00:00,26.699557,77.898881,PM2.5,27,136,64
India,Rajasthan,Dholpur,"Raja Ganj, Dholpur - RSPCB",25-09-2025 07:00:00,26.699557,77.898881,OZONE,9,43,14
India,Rajasthan,Hanumangarh,"Housing Board, Hanumangarh - RSPCB",25-09-2025 07:00:00,29.610750,74.283608,PM2.5,13,72,34
India,Rajasthan,Hanumangarh,"Housing Board, Hanumangarh - RSPCB",25-09-2025 07:00:00,29.610750,74.283608,PM10,39,121,75
India,Rajasthan,Jaipur,"Adarsh Nagar, Jaipur - RSPCB",25-09-2025 07:00:00,26.902909,75.836858,PM2.5,30,81,50
India,Rajasthan,Jaipur,"Adarsh Nagar, Jaipur - RSPCB",25-09-2025 07:00:00,26.902909,75.836858,PM10,53,103,81
India,Rajasthan,Jaipur,"Adarsh Nagar, Jaipur - RSPCB",25-09-2025 07:00:00,26.902909,75.836858,CO,38,56,43
India,Rajasthan,Jaipur,"Mansarovar Sector-12, Jaipur - RSPCB",25-09-2025 07:00:00,26.843698,75.766894,CO,14,34,20
India,Rajasthan,Jaipur,"Police Commissionerate, Jaipur - RSPCB",25-09-2025 07:00:00,26.9164092,75.7994901,SO2,7,20,14
India,Rajasthan,Jaipur,"RIICO Sitapura, Jaipur - RSPCB",25-09-2025 07:00:00,26.786682,75.827928,CO,8,48,11
India,Rajasthan,Jaipur,"Shastri Nagar, Jaipur - RSPCB",25-09-2025 07:00:00,26.9502929,75.730943,PM2.5,29,80,53
India,Rajasthan,Jaipur,"Shastri Nagar, Jaipur - RSPCB",25-09-2025 07:00:00,26.9502929,75.730943,SO2,1,37,17
India,Rajasthan,Jaisalmer,"Sadar Bazar, Jaisalmer - RSPCB",25-09-2025 07:00:00,26.912329,70.909168,PM10,42,93,68
India,Rajasthan,Jhalawar,"Rajlaxmi Nagar, Jhalawar - RSPCB",25-09-2025 07:00:00,24.588397,76.172782,NH3,2,4,3
India,Rajasthan,Jhalawar,"Rajlaxmi Nagar, Jhalawar - RSPCB",25-09-2025 07:00:00,24.588397,76.172782,CO,16,42,24
India,Rajasthan,Jhunjhunu,"Indra Nagar, Jhunjhunu - RSPCB",25-09-2025 07:00:00,28.108988,75.386577,OZONE,18,63,31
India,Rajasthan,Kota,"Dhanmandi, Kota - RSPCB",25-09-2025 07:00:00,25.164090,75.858137,SO2,3,8,4
India,Rajasthan,Kota,"Dhanmandi, Kota - RSPCB",25-09-2025 07:00:00,25.164090,75.858137,OZONE,16,48,23
India,Rajasthan,Kota,"Nayapura, Kota - RSPCB",25-09-2025 07:00:00,25.196024,75.855668,OZONE,17,57,28
India,Rajasthan,Nagaur,"Karni Colony, Nagaur - RSPCB",25-09-2025 07:00:00,27.213494,73.734444,PM2.5,10,37,21
India,Rajasthan,Pali,"Indira Colony Vistar, Pali - RSPCB",25-09-2025 07:00:00,25.771061, 73.340227,PM10,56,90,71
India,Rajasthan,Pali,"Indira Colony Vistar, Pali - RSPCB",25-09-2025 07:00:00,25.771061, 73.340227,NO2,18,97,48
India,Rajasthan,Pali,"Indira Colony Vistar, Pali - RSPCB",25-09-2025 07:00:00,25.771061, 73.340227,CO,4,64,40
India,Rajasthan,Pratapgarh,"Pragati Nagar, Pratapgarh - RSPCB",25-09-2025 07:00:00,24.041198,74.780702,SO2,2,5,3
India,Rajasthan,Jodhpur,"Samrat Ashok Udhyan, Jodhpur - RSPCB",25-09-2025 07:00:00,26.253384,72.976571,NH3,3,5,4
India,Rajasthan,Jodhpur,"Samrat Ashok Udhyan, Jodhpur - RSPCB",25-09-2025 07:00:00,26.253384,72.976571,OZONE,14,40,27
India,Rajasthan,Karauli,"Satyawati Vihar, Karauli - RSPCB",25-09-2025 07:00:00,26.506177,77.025989,PM10,60,123,84
India,Rajasthan,Jodhpur,"Collectorate, Jodhpur - RSPCB",25-09-2025 07:00:00,26.268249,73.0193853,PM2.5,4,183,73
India,Rajasthan,Jodhpur,"Samrat Ashok Udhyan, Jodhpur - RSPCB",25-09-2025 07:00:00,26.253384,72.976571,PM2.5,10,45,20
India,Rajasthan,Rajsamand,"Dhoinda, Rajsamand - RSPCB",25-09-2025 07:00:00,25.036360,73.883502,CO,28,42,33
India,Sikkim,Gangtok,"Zero Point GICI, Gangtok - SSPCB",25-09-2025 07:00:00,27.338530,88.614099,PM2.5,NA,NA,NA
India,Sikkim,Gangtok,"Zero Point GICI, Gangtok - SSPCB",25-09-2025 07:00:00,27.338530,88.614099,SO2,NA,NA,NA
India,Sikkim,Gangtok,"Zero Point GICI, Gangtok - SSPCB",25-09-2025 07:00:00,27.338530,88.614099,CO,NA,NA,NA
India,Sikkim,Gangtok,"Zero Point GICI, Gangtok - SSPCB",25-09-2025 07:00:00,27.338530,88.614099,OZONE,NA,NA,NA
India,TamilNadu,Chengalpattu,"Crescent University, Chengalpattu - TNPCB",25-09-2025 07:00:00,12.8777316,80.0834807,NO2,NA,NA,NA
India,TamilNadu,Chengalpattu,"Crescent University, Chengalpattu - TNPCB",25-09-2025 07:00:00,12.8777316,80.0834807,NH3,NA,NA,NA
India,TamilNadu,Chennai,"Arumbakkam, Chennai - TNPCB",25-09-2025 07:00:00,13.0664,80.2112 ,PM10,103,170,126
India,TamilNadu,Chennai,"Arumbakkam, Chennai - TNPCB",25-09-2025 07:00:00,13.0664,80.2112 ,NH3,3,5,4
India,TamilNadu,Chennai,"Kodungaiyur, Chennai - TNPCB",25-09-2025 07:00:00,13.1278,80.2642,PM2.5,15,44,29
India,TamilNadu,Chennai,"Kodungaiyur, Chennai - TNPCB",25-09-2025 07:00:00,13.1278,80.2642,PM10,33,85,64
India,Telangana,Hyderabad,"ICRISAT Patancheru, Hyderabad - TSPCB",25-09-2025 07:00:00,17.518400,78.278777,NH3,1,2,2
India,Telangana,Hyderabad,"IDA Pashamylaram, Hyderabad - TSPCB",25-09-2025 07:00:00,17.5316895,78.218939,OZONE,8,12,9
India,Telangana,Hyderabad,"IITH Kandi, Hyderabad - TSPCB",25-09-2025 07:00:00,17.585705,78.126199,SO2,7,9,8
India,Telangana,Hyderabad,"IITH Kandi, Hyderabad - TSPCB",25-09-2025 07:00:00,17.585705,78.126199,CO,12,28,23
India,Telangana,Hyderabad,"IITH Kandi, Hyderabad - TSPCB",25-09-2025 07:00:00,17.585705,78.126199,OZONE,18,37,18
India,Telangana,Hyderabad,"Kokapet, Hyderabad - TSPCB",25-09-2025 07:00:00,17.393559,78.339194,PM10,63,284,111
India,Telangana,Hyderabad,"Kompally Municipal Office, Hyderabad - TSPCB",25-09-2025 07:00:00,17.544899,78.486949,PM2.5,47,61,57
India,TamilNadu,Nagapattinam,"Velippalayam, Nagapattinam - TNPCB",25-09-2025 07:00:00,10.798548,79.838212,NH3,NA,NA,NA
India,TamilNadu,Nagapattinam,"Velippalayam, Nagapattinam - TNPCB",25-09-2025 07:00:00,10.798548,79.838212,OZONE,NA,NA,NA
India,TamilNadu,Ooty,"Bombay Castel, Ooty - TNPCB",25-09-2025 07:00:00,11.4068288,76.7138973,PM10,NA,NA,NA
India,TamilNadu,Ooty,"Bombay Castel, Ooty - TNPCB",25-09-2025 07:00:00,11.4068288,76.7138973,CO,NA,NA,NA
India,TamilNadu,Perundurai,"SIPCOT Industrial Park, Perundurai - TNPCB",25-09-2025 07:00:00,11.258242,77.552761,CO,NA,NA,NA
India,TamilNadu,Pudukottai,"SIPCOT Nathampannai, Pudukottai - TNPCB",25-09-2025 07:00:00,10.423417,78.784889,PM2.5,15,46,30
India,TamilNadu,Chennai,"Kodungaiyur, Chennai - TNPCB",25-09-2025 07:00:00,13.1278,80.2642,NH3,4,14,6
India,TamilNadu,Chennai,"Manali Village, Chennai - TNPCB",25-09-2025 07:00:00,13.1662,80.2584,PM10,29,62,43
India,TamilNadu,Chennai,"Manali, Chennai - CPCB",25-09-2025 07:00:00,13.164544,80.26285,NO2,NA,NA,NA
India,TamilNadu,Chennai,"Manali, Chennai - CPCB",25-09-2025 07:00:00,13.164544,80.26285,NH3,NA,NA,NA
India,TamilNadu,Chennai,"Perungudi, Chennai - TNPCB",25-09-2025 07:00:00,12.9533,80.2357,NH3,4,6,5
India,TamilNadu,Chennai,"Royapuram, Chennai - TNPCB",25-09-2025 07:00:00,13.1036,80.2909,NO2,14,28,19
India,Rajasthan,Sikar,"Radhakishan Pura, Sikar - RSPCB",25-09-2025 07:00:00,27.608912,75.153302,NO2,9,33,15
India,Rajasthan,Sikar,"Radhakishan Pura, Sikar - RSPCB",25-09-2025 07:00:00,27.608912,75.153302,CO,12,30,14
India,Rajasthan,Sirohi,"Vedhaynath Colony, Sirohi - RSPCB",25-09-2025 07:00:00,24.885261,72.857549,SO2,5,10,6
India,Rajasthan,Tonk,"Shastri Nagar, Tonk - RSPCB",25-09-2025 07:00:00,26.159933,75.780517,OZONE,11,38,13
India,Rajasthan,Udaipur,"Ashok Nagar, Udaipur - RSPCB",25-09-2025 07:00:00,24.5886166,73.6321397,NO2,3,38,13
India,TamilNadu,Dindigul,"Mendonsa Colony, Dindigul - TNPCB",25-09-2025 07:00:00,10.358535,77.984321,SO2,19,23,21
India,TamilNadu,Madurai,"Uchapatti, Madurai - TNPCB",25-09-2025 07:00:00,9.865935,78.022669,PM2.5,8,74,25
India,TamilNadu,Madurai,"Uchapatti, Madurai - TNPCB",25-09-2025 07:00:00,9.865935,78.022669,SO2,13,14,13
India,TamilNadu,Madurai,"Uchapatti, Madurai - TNPCB",25-09-2025 07:00:00,9.865935,78.022669,OZONE,6,6,6
India,TamilNadu,Thanjavur,"Parisutham Nagar, Thanjavur - TNPCB",25-09-2025 07:00:00,10.7654824,79.1389968,NH3,NA,NA,NA
India,TamilNadu,Tiruchirappalli,"St Joseph College, Tiruchirappalli - TNPCB",25-09-2025 07:00:00,10.830158,78.691849,PM2.5,25,50,36
India,TamilNadu,Tiruchirappalli,"St Joseph College, Tiruchirappalli - TNPCB",25-09-2025 07:00:00,10.830158,78.691849,OZONE,9,11,10
India,TamilNadu,Cuddalore,"Kudikadu, Cuddalore - TNPCB",25-09-2025 07:00:00,11.6829898,79.7532099,NH3,NA,NA,NA
India,TamilNadu,Cuddalore,"Kudikadu, Cuddalore - TNPCB",25-09-2025 07:00:00,11.6829898,79.7532099,OZONE,NA,NA,NA
India,TamilNadu,Cuddalore,"Semmandalam, Cuddalore - TNPCB",25-09-2025 07:00:00,11.7637683,79.7499835,PM10,10,49,21
India,TamilNadu,Cuddalore,"Semmandalam, Cuddalore - TNPCB",25-09-2025 07:00:00,11.7637683,79.7499835,NO2,1,16,4
India,Telangana,Hyderabad,"Bollaram Industrial Area, Hyderabad - TSPCB",25-09-2025 07:00:00,17.540891,78.358528,PM2.5,31,68,45
India,Telangana,Hyderabad,"Bollaram Industrial Area, Hyderabad - TSPCB",25-09-2025 07:00:00,17.540891,78.358528,NO2,29,46,37
India,Telangana,Hyderabad,"Central University, Hyderabad - TSPCB",25-09-2025 07:00:00,17.460103,78.334361,NH3,4,12,7
India,Telangana,Hyderabad,"Somajiguda, Hyderabad - TSPCB",25-09-2025 07:00:00,17.417094,78.457437,PM10,53,129,99
India,Telangana,Hyderabad,"Somajiguda, Hyderabad - TSPCB",25-09-2025 07:00:00,17.417094,78.457437,SO2,3,37,20
India,Telangana,Hyderabad,"Somajiguda, Hyderabad - TSPCB",25-09-2025 07:00:00,17.417094,78.457437,CO,8,70,14
India,Telangana,Hyderabad,"Zoo Park, Hyderabad - TSPCB",25-09-2025 07:00:00,17.349694,78.451437,PM10,73,105,87
India,Telangana,Hyderabad,"Zoo Park, Hyderabad - TSPCB",25-09-2025 07:00:00,17.349694,78.451437,SO2,2,6,4
India,Tripura,Agartala,"Bardowali, Agartala - Tripura SPCB",25-09-2025 07:00:00,23.8175497,91.2726974,NH3,2,4,3
India,Tripura,Agartala,"Bardowali, Agartala - Tripura SPCB",25-09-2025 07:00:00,23.8175497,91.2726974,OZONE,6,6,6
India,Uttar_Pradesh,Agra,"Manoharpur, Agra - UPPCB",25-09-2025 07:00:00,27.23711,78.01936,NH3,1,2,1
India,Uttar_Pradesh,Agra,"Manoharpur, Agra - UPPCB",25-09-2025 07:00:00,27.23711,78.01936,OZONE,8,32,8
India,Uttar_Pradesh,Agra,"Rohta, Agra - UPPCB",25-09-2025 07:00:00,27.106972,78.000111,PM2.5,48,229,122
India,Uttar_Pradesh,Agra,"Rohta, Agra - UPPCB",25-09-2025 07:00:00,27.106972,78.000111,SO2,11,23,17
India,Uttar_Pradesh,Agra,"Rohta, Agra - UPPCB",25-09-2025 07:00:00,27.106972,78.000111,OZONE,11,12,12
India,Uttar_Pradesh,Lucknow,"Kendriya Vidyalaya, Lucknow - CPCB",25-09-2025 07:00:00,26.906111,80.948222,NO2,19,46,30
India,Uttar_Pradesh,Lucknow,"Kendriya Vidyalaya, Lucknow - CPCB",25-09-2025 07:00:00,26.906111,80.948222,NH3,8,14,12
India,Uttar_Pradesh,Lucknow,"Kendriya Vidyalaya, Lucknow - CPCB",25-09-2025 07:00:00,26.906111,80.948222,SO2,3,60,10
India,Uttar_Pradesh,Lucknow,"Lalbagh, Lucknow - CPCB",25-09-2025 07:00:00,26.8458805,80.9365541,NO2,23,48,37
India,Uttar_Pradesh,Lucknow,"Lalbagh, Lucknow - CPCB",25-09-2025 07:00:00,26.8458805,80.9365541,SO2,1,11,4
India,Uttar_Pradesh,Lucknow,"Lalbagh, Lucknow - CPCB",25-09-2025 07:00:00,26.8458805,80.9365541,CO,15,101,48
India,Uttar_Pradesh,Lucknow,"Lalbagh, Lucknow - CPCB",25-09-2025 07:00:00,26.8458805,80.9365541,OZONE,17,26,18
India,Uttar_Pradesh,Lucknow,"Talkatora District Industries Center, Lucknow - CPCB",25-09-2025 07:00:00,26.83399722,80.8917361,NO2,44,55,50
India,Uttar_Pradesh,Meerut,"Ganga Nagar, Meerut - UPPCB",25-09-2025 07:00:00,28.999264,77.7590354,PM2.5,NA,NA,NA
India,Uttar_Pradesh,Meerut,"Ganga Nagar, Meerut - UPPCB",25-09-2025 07:00:00,28.999264,77.7590354,PM10,NA,NA,NA
India,Uttar_Pradesh,Meerut,"Jai Bhim Nagar, Meerut - UPPCB",25-09-2025 07:00:00,28.9535882,77.7622941,PM2.5,33,76,48
India,Uttar_Pradesh,Ghaziabad,"Indirapuram, Ghaziabad - UPPCB",25-09-2025 07:00:00,28.646233,77.358075,OZONE,7,69,16
India,Uttar_Pradesh,Ghaziabad,"Loni, Ghaziabad - UPPCB",25-09-2025 07:00:00,28.757294,77.278792,PM2.5,38,177,82
India,Uttar_Pradesh,Ghaziabad,"Loni, Ghaziabad - UPPCB",25-09-2025 07:00:00,28.757294,77.278792,PM10,123,187,146
India,Uttar_Pradesh,Ghaziabad,"Sanjay Nagar, Ghaziabad - UPPCB",25-09-2025 07:00:00,28.685382,77.453839,PM2.5,23,143,64
India,Uttar_Pradesh,Ghaziabad,"Vasundhara, Ghaziabad - UPPCB",25-09-2025 07:00:00,28.6603346,77.3572563,SO2,11,19,15
India,Uttar_Pradesh,Gorakhpur,"Madan Mohan Malaviya University of Technology, Gorakhpur - UPPCB",25-09-2025 07:00:00,26.730136,83.433859,PM2.5,6,96,45
India,Uttar_Pradesh,Gorakhpur,"Madan Mohan Malaviya University of Technology, Gorakhpur - UPPCB",25-09-2025 07:00:00,26.730136,83.433859,SO2,24,26,25
India,Uttar_Pradesh,Gorakhpur,"Madan Mohan Malaviya University of Technology, Gorakhpur - UPPCB",25-09-2025 07:00:00,26.730136,83.433859,CO,4,8,4
India,Uttar_Pradesh,Gorakhpur,"Madan Mohan Malaviya University of Technology, Gorakhpur - UPPCB",25-09-2025 07:00:00,26.730136,83.433859,OZONE,1,20,4
India,Uttar_Pradesh,Agra,"Sector-3B Avas Vikas Colony, Agra - UPPCB",25-09-2025 07:00:00,27.19412,77.96237,NO2,19,24,22
India,Uttar_Pradesh,Agra,"Sector-3B Avas Vikas Colony, Agra - UPPCB",25-09-2025 07:00:00,27.19412,77.96237,NH3,5,6,6
India,Uttar_Pradesh,Agra,"Sector-3B Avas Vikas Colony, Agra - UPPCB",25-09-2025 07:00:00,27.19412,77.96237,SO2,8,9,9
India,Uttar_Pradesh,Agra,"Sector-3B Avas Vikas Colony, Agra - UPPCB",25-09-2025 07:00:00,27.19412,77.96237,CO,19,42,36
India,Uttar_Pradesh,Agra,"Shahjahan Garden, Agra - UPPCB",25-09-2025 07:00:00,27.169338,78.03582,NH3,1,1,1
India,Uttar_Pradesh,Agra,"Shastripuram, Agra - UPPCB",25-09-2025 07:00:00,27.19862,77.92066,PM2.5,10,312,94
India,Uttar_Pradesh,Agra,"Shastripuram, Agra - UPPCB",25-09-2025 07:00:00,27.19862,77.92066,PM10,82,401,139
India,Uttar_Pradesh,Agra,"Shastripuram, Agra - UPPCB",25-09-2025 07:00:00,27.19862,77.92066,NH3,3,3,3
India,Uttar_Pradesh,Bareilly,"Civil Lines, Bareilly - UPPCB",25-09-2025 07:00:00,28.359581,79.414455,NO2,2,2,2
India,Uttar_Pradesh,Meerut,"Jai Bhim Nagar, Meerut - UPPCB",25-09-2025 07:00:00,28.9535882,77.7622941,NO2,14,53,30
India,Uttar_Pradesh,Meerut,"Pallavpuram Phase 2, Meerut - UPPCB",25-09-2025 07:00:00,29.063510,77.709723,PM2.5,31,90,68
India,Uttar_Pradesh,Meerut,"Pallavpuram Phase 2, Meerut - UPPCB",25-09-2025 07:00:00,29.063510,77.709723,CO,20,46,34
India,Uttar_Pradesh,Meerut,"Pallavpuram Phase 2, Meerut - UPPCB",25-09-2025 07:00:00,29.063510,77.709723,OZONE,14,72,20
India,Uttar_Pradesh,Moradabad,"Buddhi Vihar, Moradabad - UPPCB",25-09-2025 07:00:00,28.83526,78.74460,SO2,NA,NA,NA
India,Uttar_Pradesh,Moradabad,"Eco Herbal Park, Moradabad - UPPCB",25-09-2025 07:00:00,28.840739,78.697531,SO2,11,27,16
India,Uttar_Pradesh,Moradabad,"Eco Herbal Park, Moradabad - UPPCB",25-09-2025 07:00:00,28.840739,78.697531,OZONE,13,133,24
India,Uttar_Pradesh,Moradabad,"Employment Office, Moradabad - UPPCB",25-09-2025 07:00:00,28.88528,78.73880,CO,16,96,40
India,Uttar_Pradesh,Greater Noida,"Knowledge Park - III, Greater Noida - UPPCB",25-09-2025 07:00:00,28.47272,77.482000,SO2,10,17,11
India,Uttar_Pradesh,Hapur,"Anand Vihar, Hapur - UPPCB",25-09-2025 07:00:00,28.725645,77.749675,NO2,8,62,33
India,Uttar_Pradesh,Hapur,"Anand Vihar, Hapur - UPPCB",25-09-2025 07:00:00,28.725645,77.749675,NH3,6,9,7
India,Uttar_Pradesh,Jhansi,"Shivaji Nagar, Jhansi - UPPCB",25-09-2025 07:00:00,25.4547,78.6039,PM10,59,106,88
India,Uttar_Pradesh,Jhansi,"Shivaji Nagar, Jhansi - UPPCB",25-09-2025 07:00:00,25.4547,78.6039,NH3,4,4,4
India,Uttar_Pradesh,Kanpur,"FTI Kidwai Nagar, Kanpur - UPPCB",25-09-2025 07:00:00,26.428282,80.327067,PM2.5,36,55,44
India,Uttar_Pradesh,Bulandshahr,"Yamunapuram, Bulandshahr - UPPCB",25-09-2025 07:00:00,28.406963,77.849831,PM10,120,181,145
India,Uttar_Pradesh,Bulandshahr,"Yamunapuram, Bulandshahr - UPPCB",25-09-2025 07:00:00,28.406963,77.849831,NH3,6,11,9
India,Uttar_Pradesh,Firozabad,"Nagla Bhau, Firozabad - UPPCB",25-09-2025 07:00:00,27.168897,78.376960,OZONE,11,18,13
India,Uttar_Pradesh,Firozabad,"Vibhab Nagar, Firozabad - UPPCB",25-09-2025 07:00:00,27.1594,78.3953,PM10,41,68,52
India,Uttar_Pradesh,Firozabad,"Vibhab Nagar, Firozabad - UPPCB",25-09-2025 07:00:00,27.1594,78.3953,NO2,15,15,15
India,Uttar_Pradesh,Ghaziabad,"Indirapuram, Ghaziabad - UPPCB",25-09-2025 07:00:00,28.646233,77.358075,PM2.5,20,125,62
India,Uttar_Pradesh,Kanpur,"NSI Kalyanpur, Kanpur - UPPCB",25-09-2025 07:00:00,26.509954,80.249612,NH3,2,2,2
India,Uttar_Pradesh,Khurja,"Kalindi Kunj, Khurja - UPPCB",25-09-2025 07:00:00,28.2348927,77.8683002,NH3,NA,NA,NA
India,Uttar_Pradesh,Khurja,"Kalindi Kunj, Khurja - UPPCB",25-09-2025 07:00:00,28.2348927,77.8683002,SO2,NA,NA,NA
India,Uttar_Pradesh,Lucknow,"B R Ambedkar University, Lucknow - UPPCB",25-09-2025 07:00:00,26.766433,80.927299,PM10,61,164,125
India,Uttar_Pradesh,Lucknow,"B R Ambedkar University, Lucknow - UPPCB",25-09-2025 07:00:00,26.766433,80.927299,NH3,4,4,4
India,Uttar_Pradesh,Lucknow,"B R Ambedkar University, Lucknow - UPPCB",25-09-2025 07:00:00,26.766433,80.927299,SO2,38,47,40
India,Telangana,Hyderabad,"Kompally Municipal Office, Hyderabad - TSPCB",25-09-2025 07:00:00,17.544899,78.486949,CO,6,8,7
India,Telangana,Hyderabad,"New Malakpet, Hyderabad - TSPCB",25-09-2025 07:00:00,17.37206,78.50864,PM2.5,44,103,58
India,Telangana,Hyderabad,"Ramachandrapuram, Hyderabad - TSPCB",25-09-2025 07:00:00,17.528544,78.286195,SO2,NA,NA,NA
India,Uttar_Pradesh,Moradabad,"Jigar Colony, Moradabad - UPPCB",25-09-2025 07:00:00,28.856664,78.772638,OZONE,19,26,19
India,Uttar_Pradesh,Moradabad,"Transport Nagar, Moradabad - UPPCB",25-09-2025 07:00:00,28.802625,78.753728,PM2.5,39,82,64
India,Uttar_Pradesh,Noida,"Sector - 125, Noida - UPPCB",25-09-2025 07:00:00,28.5447608,77.3231257,PM10,127,489,199
India,Uttar_Pradesh,Noida,"Sector - 125, Noida - UPPCB",25-09-2025 07:00:00,28.5447608,77.3231257,SO2,17,30,22
India,Uttar_Pradesh,Noida,"Sector - 62, Noida - IMD",25-09-2025 07:00:00,28.6245479,77.3577104,CO,17,32,30
India,Uttar_Pradesh,Prayagraj,"Jhunsi, Prayagraj - UPPCB",25-09-2025 07:00:00,25.425602,81.917152,SO2,30,32,31
India,Uttar_Pradesh,Prayagraj,"Jhunsi, Prayagraj - UPPCB",25-09-2025 07:00:00,25.425602,81.917152,OZONE,1,46,2
India,Uttar_Pradesh,Prayagraj,"Nagar Nigam, Prayagraj - UPPCB",25-09-2025 07:00:00,25.44919916 ,81.82735986 ,NH3,2,5,4
India,Uttar_Pradesh,Varanasi,"Bhelupur, Varanasi - UPPCB",25-09-2025 07:00:00,25.301778,82.996789,SO2,26,30,27
India,Uttar_Pradesh,Varanasi,"Bhelupur, Varanasi - UPPCB",25-09-2025 07:00:00,25.301778,82.996789,CO,12,28,20
India,Uttar_Pradesh,Varanasi,"Maldahiya, Varanasi - UPPCB",25-09-2025 07:00:00,25.32393,82.99687,CO,10,28,15
India,Uttar_Pradesh,Varanasi,"Maldahiya, Varanasi - UPPCB",25-09-2025 07:00:00,25.32393,82.99687,OZONE,2,6,2
India,Uttar_Pradesh,Vrindavan,"Omex Eternity, Vrindavan - UPPCB",25-09-2025 07:00:00,27.5714090,77.6557570,SO2,8,10,8
India,Uttarakhand,Kashipur,"Govt. Girls Inter College, Kashipur - UKPCB",25-09-2025 07:00:00,29.2124114,78.9611753,PM2.5,55,345,114
India,Uttarakhand,Kashipur,"Govt. Girls Inter College, Kashipur - UKPCB",25-09-2025 07:00:00,29.2124114,78.9611753,PM10,57,293,106
India,Uttarakhand,Kashipur,"Govt. Girls Inter College, Kashipur - UKPCB",25-09-2025 07:00:00,29.2124114,78.9611753,SO2,5,8,6
India,West_Bengal,Asansol,"Asansol Court Area, Asansol - WBPCB",25-09-2025 07:00:00,23.685297,86.945968,PM2.5,25,68,49
India,West_Bengal,Asansol,"Asansol Court Area, Asansol - WBPCB",25-09-2025 07:00:00,23.685297,86.945968,NH3,4,8,5
India,West_Bengal,Asansol,"Evelyn Lodge, Asansol - WBPCB",25-09-2025 07:00:00,23.6979360,86.9443950,PM10,27,70,47
India,West_Bengal,Asansol,"Mahabir Colliery, Asansol - WBPCB",25-09-2025 07:00:00,23.6181830,87.1057180,PM2.5,7,148,36
India,West_Bengal,Asansol,"Trivenidevi Bhalotia College, Asansol - WBPCB",25-09-2025 07:00:00,23.616515,87.119133,PM2.5,38,83,58
India,West_Bengal,Asansol,"Trivenidevi Bhalotia College, Asansol - WBPCB",25-09-2025 07:00:00,23.616515,87.119133,NO2,11,39,25
India,West_Bengal,Asansol,"Trivenidevi Bhalotia College, Asansol - WBPCB",25-09-2025 07:00:00,23.616515,87.119133,CO,57,103,78
India,West_Bengal,Barrackpore,"SVSPA Campus, Barrackpore - WBPCB",25-09-2025 07:00:00,22.7605581,88.3617589,SO2,14,15,15
India,West_Bengal,Durgapur,"Mahishkapur Road_B-Zone, Durgapur - WBPCB",25-09-2025 07:00:00,23.567923,87.306843,NO2,6,14,9
India,West_Bengal,Durgapur,"Mahishkapur Road_B-Zone, Durgapur - WBPCB",25-09-2025 07:00:00,23.567923,87.306843,CO,19,74,27
India,West_Bengal,Durgapur,"Mahishkapur Road_B-Zone, Durgapur - WBPCB",25-09-2025 07:00:00,23.567923,87.306843,OZONE,10,38,15
India,West_Bengal,Durgapur,"PCBL Residential Complex, Durgapur - WBPCB",25-09-2025 07:00:00,23.5087640,87.3544400,PM10,18,66,39
India,West_Bengal,Durgapur,"PCBL Residential Complex, Durgapur - WBPCB",25-09-2025 07:00:00,23.5087640,87.3544400,NH3,2,3,3
India,West_Bengal,Durgapur,"PCBL Residential Complex, Durgapur - WBPCB",25-09-2025 07:00:00,23.5087640,87.3544400,CO,50,72,57
India,West_Bengal,Durgapur,"PCBL Residential Complex, Durgapur - WBPCB",25-09-2025 07:00:00,23.5087640,87.3544400,OZONE,5,6,6
India,West_Bengal,Durgapur,"Womens College_City Center, Durgapur - WBPCB (Formerly known as Sidhu Kanhu Indoor Stadium)",25-09-2025 07:00:00,23.549395,87.300496,PM10,10,70,29
India,West_Bengal,Durgapur,"Womens College_City Center, Durgapur - WBPCB (Formerly known as Sidhu Kanhu Indoor Stadium)",25-09-2025 07:00:00,23.549395,87.300496,NH3,3,4,3
India,West_Bengal,Haldia,"Priyambada Housing Estate, Haldia - WBPCB",25-09-2025 07:00:00,22.06047,88.109737,PM2.5,21,70,39
India,West_Bengal,Haldia,"Priyambada Housing Estate, Haldia - WBPCB",25-09-2025 07:00:00,22.06047,88.109737,NO2,7,23,11
India,West_Bengal,Howrah,"Belur Math, Howrah - WBPCB",25-09-2025 07:00:00,22.629801,88.352017,PM2.5,28,63,42
India,West_Bengal,Howrah,"Belur Math, Howrah - WBPCB",25-09-2025 07:00:00,22.629801,88.352017,SO2,9,10,9
India,West_Bengal,Howrah,"Belur Math, Howrah - WBPCB",25-09-2025 07:00:00,22.629801,88.352017,CO,7,36,24
India,West_Bengal,Howrah,"Belur Math, Howrah - WBPCB",25-09-2025 07:00:00,22.629801,88.352017,OZONE,16,55,33
India,West_Bengal,Howrah,"Dasnagar, Howrah - WBPCB",25-09-2025 07:00:00,22.6025571,88.3105664,PM10,37,79,59
India,West_Bengal,Howrah,"Dasnagar, Howrah - WBPCB",25-09-2025 07:00:00,22.6025571,88.3105664,NH3,1,1,1
India,West_Bengal,Howrah,"Ghusuri, Howrah - WBPCB",25-09-2025 07:00:00,22.611968,88.347422,PM2.5,28,46,36
India,West_Bengal,Howrah,"Padmapukur, Howrah - WBPCB",25-09-2025 07:00:00,22.5687319,88.2797276,PM10,28,59,47
India,West_Bengal,Howrah,"Padmapukur, Howrah - WBPCB",25-09-2025 07:00:00,22.5687319,88.2797276,SO2,4,11,7
India,West_Bengal,Kolkata,"Bidhannagar, Kolkata - WBPCB",25-09-2025 07:00:00,22.58157048,88.41002457,PM2.5,11,36,23
India,West_Bengal,Kolkata,"Fort William, Kolkata - WBPCB",25-09-2025 07:00:00,22.556640,88.342674,PM2.5,23,47,33
India,West_Bengal,Kolkata,"Fort William, Kolkata - WBPCB",25-09-2025 07:00:00,22.556640,88.342674,SO2,8,9,8
India,West_Bengal,Kolkata,"Fort William, Kolkata - WBPCB",25-09-2025 07:00:00,22.556640,88.342674,CO,20,62,45
India,West_Bengal,Kolkata,"Jadavpur, Kolkata - WBPCB",25-09-2025 07:00:00,22.49929,88.36917,PM10,37,94,57
India,West_Bengal,Kolkata,"Jadavpur, Kolkata - WBPCB",25-09-2025 07:00:00,22.49929,88.36917,CO,20,96,56
India,West_Bengal,Kolkata,"Rabindra Sarobar, Kolkata - WBPCB",25-09-2025 07:00:00,22.51106,88.35142,SO2,4,7,5
India,West_Bengal,Kolkata,"Rabindra Sarobar, Kolkata - WBPCB",25-09-2025 07:00:00,22.51106,88.35142,OZONE,5,6,5
India,West_Bengal,Kolkata,"Victoria, Kolkata - WBPCB",25-09-2025 07:00:00,22.5448082,88.3403691,NH3,4,5,5
India,West_Bengal,Siliguri,"Ward-32 Bapupara, Siliguri - WBPCB",25-09-2025 07:00:00,26.6879226,88.4152495,NO2,17,22,19
India,Bihar,Buxar,"Charitra Van, Buxar - BSPCB",25-09-2025 07:00:00,25.567520,83.966379,CO,15,30,25
India,Bihar,Chhapra,"Darshan Nagar, Chhapra - BSPCB",25-09-2025 07:00:00,25.7808257,84.7446768,PM10,4,60,18
India,Bihar,Chhapra,"Darshan Nagar, Chhapra - BSPCB",25-09-2025 07:00:00,25.7808257,84.7446768,NH3,3,4,4
India,Bihar,Chhapra,"Darshan Nagar, Chhapra - BSPCB",25-09-2025 07:00:00,25.7808257,84.7446768,OZONE,4,39,7
India,Bihar,Gaya,"Kareemganj, Gaya - BSPCB",25-09-2025 07:00:00,24.792403,84.992416,PM2.5,NA,NA,NA
India,Bihar,Gaya,"Kareemganj, Gaya - BSPCB",25-09-2025 07:00:00,24.792403,84.992416,NH3,NA,NA,NA
India,Bihar,Gaya,"SFTI Kusdihra, Gaya - BSPCB",25-09-2025 07:00:00,24.762518,84.982348,PM2.5,9,33,17
India,Bihar,Gaya,"SFTI Kusdihra, Gaya - BSPCB",25-09-2025 07:00:00,24.762518,84.982348,NO2,17,19,18
India,Bihar,Gaya,"SFTI Kusdihra, Gaya - BSPCB",25-09-2025 07:00:00,24.762518,84.982348,SO2,7,9,8
India,Arunachal_Pradesh,Naharlagun,"Naharlagun, Naharlagun - APSPCB",25-09-2025 07:00:00,27.103358,93.679645,OZONE,5,5,5
India,Assam,Byrnihat,"Central Academy for SFS, Byrnihat - PCBA",25-09-2025 07:00:00,26.071318,91.87488,PM2.5,NA,NA,NA
India,Assam,Guwahati,"IITG, Guwahati - PCBA",25-09-2025 07:00:00,26.2028636,91.70046436,NO2,1,6,2
India,Assam,Guwahati,"LGBI Airport, Guwahati - PCBA",25-09-2025 07:00:00,26.10887,91.589544,PM2.5,21,420,98
India,Assam,Guwahati,"LGBI Airport, Guwahati - PCBA",25-09-2025 07:00:00,26.10887,91.589544,CO,14,168,32
India,Assam,Guwahati,"Pan Bazaar, Guwahati - PCBA",25-09-2025 07:00:00,26.187500,91.744194,SO2,49,96,68
India,Assam,Guwahati,"Pan Bazaar, Guwahati - PCBA",25-09-2025 07:00:00,26.187500,91.744194,CO,4,34,22
India,Bihar,Motihari,"Gandak Colony, Motihari - BSPCB",25-09-2025 07:00:00,26.63086,84.90051,PM10,NA,NA,NA
India,Bihar,Motihari,"Gandak Colony, Motihari - BSPCB",25-09-2025 07:00:00,26.63086,84.90051,SO2,2,3,3
India,Bihar,Munger,"Town Hall, Munger - BSPCB",25-09-2025 07:00:00,25.376776,86.471523,NH3,6,6,6
India,Bihar,Muzaffarpur,"Buddha Colony, Muzaffarpur - BSPCB",25-09-2025 07:00:00,26.11442,85.39813,NH3,4,5,4
India,Bihar,Muzaffarpur,"Buddha Colony, Muzaffarpur - BSPCB",25-09-2025 07:00:00,26.11442,85.39813,CO,16,35,22
India,Bihar,Muzaffarpur,"MIT-Daudpur Kothi, Muzaffarpur - BSPCB",25-09-2025 07:00:00,26.1403345,85.3650192,NO2,6,12,9
India,Bihar,Muzaffarpur,"Muzaffarpur Collectorate, Muzaffarpur - BSPCB",25-09-2025 07:00:00,26.1209,85.3647,SO2,4,6,6
India,Bihar,Hajipur,"Industrial Area, Hajipur - BSPCB",25-09-2025 07:00:00,25.697189,85.245900,PM2.5,51,133,78
India,Bihar,Hajipur,"Industrial Area, Hajipur - BSPCB",25-09-2025 07:00:00,25.697189,85.245900,NH3,7,11,9
India,Bihar,Katihar,"Mirchaibari, Katihar - BSPCB",25-09-2025 07:00:00,25.560083,87.553265,PM2.5,32,42,35
India,Bihar,Katihar,"Mirchaibari, Katihar - BSPCB",25-09-2025 07:00:00,25.560083,87.553265,SO2,16,28,23
India,Bihar,Kishanganj,"SDM Office_Khagra, Kishanganj - BSPCB",25-09-2025 07:00:00,26.0881305,87.93840336,SO2,5,8,7
India,Bihar,Manguraha,"Forest Rest House, Manguraha - BSPCB",25-09-2025 07:00:00,27.308328,84.531742,NH3,1,2,1
India,Assam,Guwahati,"Railway Colony, Guwahati - PCBA",25-09-2025 07:00:00,26.181742,91.78063,PM10,41,78,56
India,Assam,Nalbari,"Bata Chowk, Nalbari - PCBA",25-09-2025 07:00:00,26.446912,91.439057,NH3,1,3,2
India,Assam,Silchar,"Tarapur, Silchar - PCBA",25-09-2025 07:00:00,24.82827,92.79525,PM2.5,33,34,34
India,Assam,Silchar,"Tarapur, Silchar - PCBA",25-09-2025 07:00:00,24.82827,92.79525,PM10,45,49,46
India,Assam,Silchar,"Tarapur, Silchar - PCBA",25-09-2025 07:00:00,24.82827,92.79525,NO2,14,15,14
India,Assam,Silchar,"Tarapur, Silchar - PCBA",25-09-2025 07:00:00,24.82827,92.79525,SO2,1,19,8
India,Andhra_Pradesh,Amaravati,"Secretariat, Amaravati - APPCB",25-09-2025 07:00:00,16.5150833,80.5181667,PM2.5,19,48,29
India,Andhra_Pradesh,Anantapur,"Gulzarpet, Anantapur - APPCB",25-09-2025 07:00:00,14.675886,77.593027,PM10,50,68,57
India,Andhra_Pradesh,Anantapur,"Gulzarpet, Anantapur - APPCB",25-09-2025 07:00:00,14.675886,77.593027,OZONE,9,13,10
India,Andhra_Pradesh,Chittoor,"Gangineni Cheruvu, Chittoor - APPCB",25-09-2025 07:00:00,13.204880,79.097889,PM2.5,72,111,90
India,Andhra_Pradesh,Chittoor,"Gangineni Cheruvu, Chittoor - APPCB",25-09-2025 07:00:00,13.204880,79.097889,PM10,66,97,82
India,Bihar,Begusarai,"Lohiyanagar, Begusarai - BSPCB",25-09-2025 07:00:00,25.42742023,86.13886079,NO2,3,18,14
India,Bihar,Begusarai,"Lohiyanagar, Begusarai - BSPCB",25-09-2025 07:00:00,25.42742023,86.13886079,CO,38,70,60
India,Bihar,Bhagalpur,"Mayaganj, Bhagalpur - BSPCB",25-09-2025 07:00:00,25.265194,87.012947,PM2.5,13,85,37
India,Bihar,Bihar Sharif,"D M Colony, Bihar Sharif - BSPCB",25-09-2025 07:00:00,25.204762,85.514960,NO2,9,10,10
India,Bihar,Bihar Sharif,"D M Colony, Bihar Sharif - BSPCB",25-09-2025 07:00:00,25.204762,85.514960,CO,2,16,2
India,Assam,Sivasagar,"Girls College, Sivasagar - PCBA",25-09-2025 07:00:00,26.987634,94.636574,NO2,11,22,15
India,Bihar,Aurangabad,"Gurdeo Nagar, Aurangabad - BSPCB",25-09-2025 07:00:00,24.75746,84.366208,PM10,29,500,161
India,Bihar,Aurangabad,"Gurdeo Nagar, Aurangabad - BSPCB",25-09-2025 07:00:00,24.75746,84.366208,NO2,7,8,8
India,Bihar,Begusarai,"Lohiyanagar, Begusarai - BSPCB",25-09-2025 07:00:00,25.42742023,86.13886079,PM10,20,48,28
India,Andhra_Pradesh,Tirupati,"Vaikuntapuram, Tirupati - APPCB",25-09-2025 07:00:00,13.615387,79.409230,CO,7,21,10
India,Andhra_Pradesh,Vijayawada,"Rajiv Gandhi Park, Vijayawada - APPCB",25-09-2025 07:00:00,16.509717,80.612222,PM2.5,NA,NA,NA
India,Andhra_Pradesh,Vijayawada,"Rajiv Gandhi Park, Vijayawada - APPCB",25-09-2025 07:00:00,16.509717,80.612222,PM10,NA,NA,NA
India,Andhra_Pradesh,Vijayawada,"Rajiv Nagar, Vijayawada - APPCB",25-09-2025 07:00:00,16.554731,80.649110,PM10,NA,NA,NA
India,Andhra_Pradesh,Vijayawada,"Rajiv Nagar, Vijayawada - APPCB",25-09-2025 07:00:00,16.554731,80.649110,CO,NA,NA,NA
India,Andhra_Pradesh,Kadapa,"Yerramukkapalli, Kadapa - APPCB",25-09-2025 07:00:00,14.465052,78.824187,NH3,NA,NA,NA
India,Andhra_Pradesh,Rajamahendravaram,"Anand Kala Kshetram, Rajamahendravaram - APPCB",25-09-2025 07:00:00,16.9872867,81.7363176,NH3,2,2,2
India,Andhra_Pradesh,Rajamahendravaram,"Anand Kala Kshetram, Rajamahendravaram - APPCB",25-09-2025 07:00:00,16.9872867,81.7363176,OZONE,8,11,10
India,Delhi,Delhi,"Ashok Vihar, Delhi - DPCC",25-09-2025 07:00:00,28.695381,77.181665,NH3,NA,NA,NA
India,Delhi,Delhi,"Ashok Vihar, Delhi - DPCC",25-09-2025 07:00:00,28.695381,77.181665,OZONE,7,52,12
India,Delhi,Delhi,"Bawana, Delhi - DPCC",25-09-2025 07:00:00,28.776200,77.051074,PM2.5,47,328,140
India,Delhi,Delhi,"Bawana, Delhi - DPCC",25-09-2025 07:00:00,28.776200,77.051074,PM10,94,152,123
India,Delhi,Delhi,"Bawana, Delhi - DPCC",25-09-2025 07:00:00,28.776200,77.051074,SO2,13,23,16
India,Delhi,Delhi,"Bawana, Delhi - DPCC",25-09-2025 07:00:00,28.776200,77.051074,CO,41,70,58
India,Delhi,Delhi,"CRRI Mathura Road, Delhi - IMD",25-09-2025 07:00:00,28.5512005,77.2735737,CO,20,102,66
India,Delhi,Delhi,"Chandni Chowk, Delhi - IITM",25-09-2025 07:00:00,28.656756,77.227234,CO,40,62,49
India,Delhi,Delhi,"DTU, Delhi - CPCB",25-09-2025 07:00:00,28.7500499,77.1112615,PM10,76,159,109
India,Delhi,Delhi,"DTU, Delhi - CPCB",25-09-2025 07:00:00,28.7500499,77.1112615,CO,10,33,27
India,Chhattisgarh,Kunjemura,"OP Jindal School, Kunjemura - CECB",25-09-2025 07:00:00,22.126650,83.483212,SO2,NA,NA,NA
India,Chhattisgarh,Milupara,"Govt. Higher Secondary School, Milupara - CECB",25-09-2025 07:00:00,22.1910172,83.5197009,NO2,NA,NA,NA
India,Chhattisgarh,Raipur,"AIIMS, Raipur - CECB",25-09-2025 07:00:00,21.258815,81.578979,NO2,10,15,13
India,Chhattisgarh,Raipur,"AIIMS, Raipur - CECB",25-09-2025 07:00:00,21.258815,81.578979,SO2,10,12,11
India,Chhattisgarh,Raipur,"AIIMS, Raipur - CECB",25-09-2025 07:00:00,21.258815,81.578979,CO,28,38,35
India,Chhattisgarh,Raipur,"AIIMS, Raipur - CECB",25-09-2025 07:00:00,21.258815,81.578979,OZONE,5,6,5
India,Chhattisgarh,Raipur,"Bhatagaon New ISBT, Raipur - CECB",25-09-2025 07:00:00,21.219665,81.630094,SO2,NA,NA,NA
India,Chhattisgarh,Raipur,"Krishak Nagar, Raipur - CECB",25-09-2025 07:00:00,21.237755,81.705301,PM10,23,35,30
India,Chhattisgarh,Raipur,"Krishak Nagar, Raipur - CECB",25-09-2025 07:00:00,21.237755,81.705301,NO2,7,13,10
India,Chhattisgarh,Raipur,"Siltara Phase-II, Raipur - CECB",25-09-2025 07:00:00,21.371751,81.664929,PM2.5,3,28,13
India,Chhattisgarh,Tumidih,"OP Jindal Industrial Park, Tumidih - CECB",25-09-2025 07:00:00,22.06631475,83.33820077,PM2.5,13,32,22
India,Chhattisgarh,Tumidih,"OP Jindal Industrial Park, Tumidih - CECB",25-09-2025 07:00:00,22.06631475,83.33820077,PM10,10,51,29
India,Chhattisgarh,Tumidih,"OP Jindal Industrial Park, Tumidih - CECB",25-09-2025 07:00:00,22.06631475,83.33820077,CO,17,28,19
India,Delhi,Delhi,"Alipur, Delhi - DPCC",25-09-2025 07:00:00,28.815329,77.153010,PM2.5,30,130,62
India,Delhi,Delhi,"Anand Vihar, Delhi - DPCC",25-09-2025 07:00:00,28.647622,77.3158090,SO2,13,66,36
India,Chhattisgarh,Bhilai,"Civic Center, Bhilai - Bhilai Steel Plant",25-09-2025 07:00:00,21.185571,81.343175,NH3,3,3,3
India,Chhattisgarh,Bhilai,"Hathkhoj, Bhilai - CECB",25-09-2025 07:00:00,21.224231,81.408350,PM2.5,17,46,34
India,Chhattisgarh,Bilaspur,"Mangala, Bilaspur - NTPC",25-09-2025 07:00:00,22.08815,82.13737,SO2,4,16,11
India,Chhattisgarh,Korba,"Rampur, Korba - CECB",25-09-2025 07:00:00,22.368195,82.746431,NH3,1,1,1
India,Chhattisgarh,Korba,"Rampur, Korba - CECB",25-09-2025 07:00:00,22.368195,82.746431,CO,12,18,14
India,Bihar,Purnia,"Mariam Nagar, Purnia - BSPCB",25-09-2025 07:00:00,25.366336,87.117468,OZONE,16,36,21
India,Bihar,Rajgir,"Dangi Tola, Rajgir - BSPCB",25-09-2025 07:00:00,25.03280,85.41948,PM10,10,98,88
India,Bihar,Samastipur,"DM Office_Kasipur, Samastipur - BSPCB",25-09-2025 07:00:00,25.859655,85.77944,NO2,2,7,4
India,Bihar,Samastipur,"DM Office_Kasipur, Samastipur - BSPCB",25-09-2025 07:00:00,25.859655,85.77944,SO2,27,32,28
India,Bihar,Samastipur,"DM Office_Kasipur, Samastipur - BSPCB",25-09-2025 07:00:00,25.859655,85.77944,OZONE,6,14,12
India,Bihar,Patna,"DRM Office Danapur, Patna - BSPCB",25-09-2025 07:00:00,25.586562,85.043586,NO2,25,34,31
India,Bihar,Patna,"DRM Office Danapur, Patna - BSPCB",25-09-2025 07:00:00,25.586562,85.043586,NH3,2,3,3
India,Bihar,Patna,"Govt. High School Shikarpur, Patna - BSPCB",25-09-2025 07:00:00,25.592539,85.227158,NO2,14,19,16
India,Bihar,Patna,"Govt. High School Shikarpur, Patna - BSPCB",25-09-2025 07:00:00,25.592539,85.227158,SO2,5,108,16
India,Bihar,Patna,"IGSC Planetarium Complex, Patna - BSPCB",25-09-2025 07:00:00,25.610369,85.132568,OZONE,46,48,47
India,Chandigarh,Chandigarh,"Sector 22, Chandigarh - CPCC",25-09-2025 07:00:00,30.735567,76.775714,PM2.5,22,65,47
India,Chandigarh,Chandigarh,"Sector 22, Chandigarh - CPCC",25-09-2025 07:00:00,30.735567,76.775714,NH3,25,60,40
India,Chandigarh,Chandigarh,"Sector-25, Chandigarh - CPCC",25-09-2025 07:00:00,30.751462,76.762879,CO,14,28,23
India,Chhattisgarh,Bhilai,"32Bungalows, Bhilai - CECB",25-09-2025 07:00:00,21.194815,81.314770,PM10,10,52,31
India,Delhi,Delhi,"IHBAS, Dilshad Garden, Delhi - CPCB",25-09-2025 07:00:00,28.6811736,77.3025234,PM2.5,64,82,73
India,Delhi,Delhi,"IHBAS, Dilshad Garden, Delhi - CPCB",25-09-2025 07:00:00,28.6811736,77.3025234,CO,36,71,53
India,Delhi,Delhi,"ITO, Delhi - CPCB",25-09-2025 07:00:00,28.628624,77.241060,NO2,78,96,89
India,Delhi,Delhi,"Jahangirpuri, Delhi - DPCC",25-09-2025 07:00:00,28.732820,77.170633,SO2,7,19,10
India,Bihar,Patna,"Muradpur, Patna - BSPCB",25-09-2025 07:00:00,25.619651,85.147382,NO2,29,100,56
India,Haryana,Gurugram,"NISE Gwal Pahari, Gurugram - IMD",25-09-2025 07:00:00,28.422681,77.148944,OZONE,12,45,12
India,Haryana,Panchgaon,"Amity University, Panchgaon - IITM",25-09-2025 07:00:00,28.3153,76.9143,PM2.5,35,89,65
India,Haryana,Panchgaon,"Amity University, Panchgaon - IITM",25-09-2025 07:00:00,28.3153,76.9143,PM10,41,113,80
India,Himachal Pradesh,Baddi,"HIMUDA Complex Phase-1, Baddi - HPPCB",25-09-2025 07:00:00,30.943887,76.801991,NO2,16,98,49
India,Jharkhand,Dhanbad,"Sardar Patel Nagar, Dhanbad - JSPCB",25-09-2025 07:00:00,23.80569,86.44268,CO,1,32,15
India,Jharkhand,Jorapokhar,"Tata Stadium, Jorapokhar - JSPCB",25-09-2025 07:00:00,23.707909,86.414670,PM10,NA,NA,NA
India,Jharkhand,Jorapokhar,"Tata Stadium, Jorapokhar - JSPCB",25-09-2025 07:00:00,23.707909,86.414670,SO2,NA,NA,NA
India,Jharkhand,Jorapokhar,"Tata Stadium, Jorapokhar - JSPCB",25-09-2025 07:00:00,23.707909,86.414670,OZONE,NA,NA,NA
India,Karnataka,Bagalkot,"Vidayagiri, Bagalkot - KSPCB",25-09-2025 07:00:00,16.172806,75.659694,PM2.5,33,34,33
India,Gujarat,Ahmedabad,"SAC ISRO Bopal, Ahmedabad - IITM",25-09-2025 07:00:00,23.041137,72.456691,OZONE,2,45,8
India,Gujarat,Ahmedabad,"SAC ISRO Satellite, Ahmedabad - IITM",25-09-2025 07:00:00,23.023389,72.515201,PM2.5,21,79,46
India,Gujarat,Ahmedabad,"SAC ISRO Satellite, Ahmedabad - IITM",25-09-2025 07:00:00,23.023389,72.515201,SO2,4,12,6
India,Gujarat,Ahmedabad,"SVPI Airport Hansol, Ahmedabad - IITM",25-09-2025 07:00:00,23.076793,72.627874,OZONE,8,36,8
India,Gujarat,Ankleshwar,"GIDC, Ankleshwar - GPCB",25-09-2025 07:00:00,21.613267,73.010555,PM10,57,64,62
India,Gujarat,Ankleshwar,"GIDC, Ankleshwar - GPCB",25-09-2025 07:00:00,21.613267,73.010555,OZONE,36,75,47
India,Gujarat,Gandhinagar,"GIFT City, Gandhinagar - IITM",25-09-2025 07:00:00,23.163798,72.677768,NO2,6,43,18
India,Gujarat,Gandhinagar,"GIFT City, Gandhinagar - IITM",25-09-2025 07:00:00,23.163798,72.677768,NH3,1,7,3
India,Gujarat,Gandhinagar,"IIPHG Lekawada, Gandhinagar - IITM",25-09-2025 07:00:00,23.243639,72.68994,PM10,43,82,57
India,Delhi,Delhi,"NSIT Dwarka, Delhi - CPCB",25-09-2025 07:00:00,28.60909,77.0325413,NH3,8,11,9
India,Delhi,Delhi,"NSIT Dwarka, Delhi - CPCB",25-09-2025 07:00:00,28.60909,77.0325413,OZONE,5,12,7
India,Delhi,Delhi,"Najafgarh, Delhi - DPCC",25-09-2025 07:00:00,28.570173,76.933762,OZONE,4,29,4
India,Delhi,Delhi,"Nehru Nagar, Delhi - DPCC",25-09-2025 07:00:00,28.567890,77.250515,CO,4,64,21
India,Delhi,Delhi,"Nehru Nagar, Delhi - DPCC",25-09-2025 07:00:00,28.567890,77.250515,OZONE,7,112,11
India,Delhi,Delhi,"North Campus, DU, Delhi - IMD",25-09-2025 07:00:00,28.6573814,77.1585447,PM2.5,35,59,46
India,Delhi,Delhi,"North Campus, DU, Delhi - IMD",25-09-2025 07:00:00,28.6573814,77.1585447,PM10,87,136,110
India,Delhi,Delhi,"Okhla Phase-2, Delhi - DPCC",25-09-2025 07:00:00,28.530785,77.271255,PM10,109,179,135
India,Gujarat,Ahmedabad,"Gyaspur, Ahmedabad - IITM",25-09-2025 07:00:00,22.977134,72.553024,CO,35,52,39
India,Gujarat,Ahmedabad,"Maninagar, Ahmedabad - GPCB",25-09-2025 07:00:00,23.002657,72.591912,PM10,10,50,30
India,Gujarat,Ahmedabad,"Maninagar, Ahmedabad - GPCB",25-09-2025 07:00:00,23.002657,72.591912,SO2,18,35,29
India,Gujarat,Ahmedabad,"Raikhad, Ahmedabad - IITM",25-09-2025 07:00:00,23.020509,72.579261,CO,10,44,18
India,Gujarat,Ahmedabad,"Rakhial, Ahmedabad - IITM",25-09-2025 07:00:00,23.016834,72.625775,PM10,42,92,59
India,Gujarat,Ahmedabad,"Rakhial, Ahmedabad - IITM",25-09-2025 07:00:00,23.016834,72.625775,SO2,9,116,30
India,Gujarat,Ahmedabad,"Rakhial, Ahmedabad - IITM",25-09-2025 07:00:00,23.016834,72.625775,CO,8,16,13
India,Gujarat,Ahmedabad,"SAC ISRO Bopal, Ahmedabad - IITM",25-09-2025 07:00:00,23.041137,72.456691,NH3,2,3,3
India,Delhi,Delhi,"Okhla Phase-2, Delhi - DPCC",25-09-2025 07:00:00,28.530785,77.271255,SO2,22,32,26
India,Delhi,Delhi,"Okhla Phase-2, Delhi - DPCC",25-09-2025 07:00:00,28.530785,77.271255,CO,NA,NA,NA
India,Delhi,Delhi,"Patparganj, Delhi - DPCC",25-09-2025 07:00:00,28.623763,77.287209,NH3,5,7,6
India,Delhi,Delhi,"Punjabi Bagh, Delhi - DPCC",25-09-2025 07:00:00,28.674045,77.131023,PM10,90,167,121
India,Delhi,Delhi,"Punjabi Bagh, Delhi - DPCC",25-09-2025 07:00:00,28.674045,77.131023,OZONE,6,42,11
India,Delhi,Delhi,"Pusa, Delhi - DPCC",25-09-2025 07:00:00,28.639652,77.146275,PM10,95,190,143
India,Delhi,Delhi,"Pusa, Delhi - DPCC",25-09-2025 07:00:00,28.639652,77.146275,NH3,3,11,8
India,Delhi,Delhi,"R K Puram, Delhi - DPCC",25-09-2025 07:00:00,28.563262,77.186937,NH3,3,6,4
India,Delhi,Delhi,"Rohini, Delhi - DPCC",25-09-2025 07:00:00,28.732528,77.119920,NO2,4,18,11
India,Delhi,Delhi,"Shadipur, Delhi - CPCB",25-09-2025 07:00:00,28.6514781,77.1473105,NO2,61,125,88
India,Delhi,Delhi,"Shadipur, Delhi - CPCB",25-09-2025 07:00:00,28.6514781,77.1473105,CO,26,94,48
India,Delhi,Delhi,"Sirifort, Delhi - CPCB",25-09-2025 07:00:00,28.5504249,77.2159377,PM2.5,28,72,49
India,Delhi,Delhi,"Sirifort, Delhi - CPCB",25-09-2025 07:00:00,28.5504249,77.2159377,OZONE,13,99,17
India,Delhi,Delhi,"Sonia Vihar, Delhi - DPCC",25-09-2025 07:00:00,28.710508,77.249485,NO2,11,38,23
India,Delhi,Delhi,"Sri Aurobindo Marg, Delhi - DPCC",25-09-2025 07:00:00,28.531346,77.190156,NO2,4,29,13
India,Delhi,Delhi,"Vivek Vihar, Delhi - DPCC",25-09-2025 07:00:00,28.672342,77.315260,OZONE,1,31,3
India,Delhi,Delhi,"Wazirpur, Delhi - DPCC",25-09-2025 07:00:00,28.699793,77.165453,NO2,49,104,72
India,Delhi,Delhi,"Wazirpur, Delhi - DPCC",25-09-2025 07:00:00,28.699793,77.165453,OZONE,4,57,19
India,Gujarat,Ahmedabad,"Chandkheda, Ahmedabad - IITM",25-09-2025 07:00:00,23.107969,72.574648,PM2.5,12,37,23
India,Gujarat,Ahmedabad,"Gyaspur, Ahmedabad - IITM",25-09-2025 07:00:00,22.977134,72.553024,SO2,10,19,13
India,Delhi,Delhi,"Jawaharlal Nehru Stadium, Delhi - DPCC",25-09-2025 07:00:00,28.580280,77.233829,NH3,5,7,6
India,Delhi,Delhi,"Lodhi Road, Delhi - IITM",25-09-2025 07:00:00,28.588333,77.221667,SO2,NA,NA,NA
India,Delhi,Delhi,"Major Dhyan Chand National Stadium, Delhi - DPCC",25-09-2025 07:00:00,28.611281,77.237738,SO2,5,12,8
India,Delhi,Delhi,"Mundka, Delhi - DPCC",25-09-2025 07:00:00,28.684678,77.076574,NO2,18,57,34
India,Gujarat,Gandhinagar,"IIPHG Lekawada, Gandhinagar - IITM",25-09-2025 07:00:00,23.243639,72.68994,NO2,2,11,5
India,Gujarat,Gandhinagar,"Sector-10, Gandhinagar - GPCB",25-09-2025 07:00:00,23.221714,72.654328,NH3,2,3,2
India,Haryana,Gurugram,"NISE Gwal Pahari, Gurugram - IMD",25-09-2025 07:00:00,28.422681,77.148944,PM2.5,15,278,90
India,Karnataka,Bengaluru,"BTM Layout, Bengaluru - CPCB",25-09-2025 07:00:00,12.9135218,77.5950804,NO2,76,95,83
India,Karnataka,Bengaluru,"BTM Layout, Bengaluru - CPCB",25-09-2025 07:00:00,12.9135218,77.5950804,NH3,15,18,16
India,Karnataka,Bengaluru,"BTM Layout, Bengaluru - CPCB",25-09-2025 07:00:00,12.9135218,77.5950804,CO,14,36,17
India,Karnataka,Bengaluru,"Bapuji Nagar, Bengaluru - KSPCB",25-09-2025 07:00:00,12.951913,77.539784,PM2.5,30,80,50
India,Karnataka,Bengaluru,"Bapuji Nagar, Bengaluru - KSPCB",25-09-2025 07:00:00,12.951913,77.539784,NH3,1,2,1
India,Karnataka,Bengaluru,"Bapuji Nagar, Bengaluru - KSPCB",25-09-2025 07:00:00,12.951913,77.539784,OZONE,2,29,5
India,Karnataka,Bengaluru,"Hebbal, Bengaluru - KSPCB",25-09-2025 07:00:00,13.029152,77.585901,PM2.5,2,25,12
India,Karnataka,Bengaluru,"Hebbal, Bengaluru - KSPCB",25-09-2025 07:00:00,13.029152,77.585901,NO2,4,21,17
India,Karnataka,Bengaluru,"Hebbal, Bengaluru - KSPCB",25-09-2025 07:00:00,13.029152,77.585901,SO2,1,12,5
India,Karnataka,Bengaluru,"Hombegowda Nagar, Bengaluru - KSPCB",25-09-2025 07:00:00,12.938539,77.590100,PM10,24,49,38
India,Karnataka,Bengaluru,"Hombegowda Nagar, Bengaluru - KSPCB",25-09-2025 07:00:00,12.938539,77.590100,SO2,4,17,10
India,Karnataka,Bengaluru,"Jayanagar 5th Block, Bengaluru - KSPCB",25-09-2025 07:00:00,12.920984,77.584908,PM2.5,6,33,21
India,Karnataka,Bengaluru,"Jayanagar 5th Block, Bengaluru - KSPCB",25-09-2025 07:00:00,12.920984,77.584908,NH3,1,1,1
India,Karnataka,Bengaluru,"Shivapura_Peenya, Bengaluru - KSPCB",25-09-2025 07:00:00,13.0246342,77.5080115,CO,22,38,32
India,Karnataka,Bengaluru,"Silk Board, Bengaluru - KSPCB",25-09-2025 07:00:00,12.917348,77.622813,NO2,8,18,13
India,Karnataka,Chamarajanagar,"Urban, Chamarajanagar - KSPCB",25-09-2025 07:00:00,11.55358,76.55521,PM2.5,19,39,28
India,Karnataka,Chamarajanagar,"Urban, Chamarajanagar - KSPCB",25-09-2025 07:00:00,11.55358,76.55521,NO2,15,35,25
India,Karnataka,Chikkaballapur,"Chikkaballapur Rural, Chikkaballapur - KSPCB",25-09-2025 07:00:00,13.428828,77.731418,NH3,NA,NA,NA
India,Karnataka,Chikkaballapur,"Chikkaballapur Rural, Chikkaballapur - KSPCB",25-09-2025 07:00:00,13.428828,77.731418,SO2,NA,NA,NA
India,Karnataka,Chikkaballapur,"Chikkaballapur Rural, Chikkaballapur - KSPCB",25-09-2025 07:00:00,13.428828,77.731418,CO,NA,NA,NA
India,Karnataka,Chikkaballapur,"Chikkaballapur Rural, Chikkaballapur - KSPCB",25-09-2025 07:00:00,13.428828,77.731418,OZONE,NA,NA,NA
India,Karnataka,Chikkamagaluru,"Kalyana Nagara, Chikkamagaluru - KSPCB",25-09-2025 07:00:00,13.328028,75.797056,NO2,14,27,23
India,Karnataka,Chikkamagaluru,"Kalyana Nagara, Chikkamagaluru - KSPCB",25-09-2025 07:00:00,13.328028,75.797056,CO,10,22,19
India,Karnataka,Mysuru,"Hebbal 1st Stage, Mysuru - KSPCB",25-09-2025 07:00:00,12.21041,76.37376,CO,NA,NA,NA
India,Karnataka,Ramanagara,"Vijay Nagar, Ramanagara - KSPCB",25-09-2025 07:00:00,12.733409,77.298051,PM2.5,NA,NA,NA
India,Karnataka,Shivamogga,"Vinoba Nagara, Shivamogga - KSPCB",25-09-2025 07:00:00,13.940000,75.555917,PM10,36,61,55
India,Karnataka,Shivamogga,"Vinoba Nagara, Shivamogga - KSPCB",25-09-2025 07:00:00,13.940000,75.555917,SO2,2,5,5
India,Karnataka,Yadgir,"Collector Office, Yadgir - KSPCB",25-09-2025 07:00:00,16.7602,77.1428,NH3,2,2,2
India,Kerala,Kannur,"Thavakkara, Kannur - Kerala PCB",25-09-2025 07:00:00,11.875000,75.373200,SO2,3,11,9
India,Karnataka,Chikkamagaluru,"Kalyana Nagara, Chikkamagaluru - KSPCB",25-09-2025 07:00:00,13.328028,75.797056,OZONE,14,35,15
India,Karnataka,Davanagere,"Devaraj Urs Badavane, Davanagere - KSPCB",25-09-2025 07:00:00,14.475800,75.905200,PM2.5,12,42,23
India,Karnataka,Hassan,"B.Katihalli, Hassan - KSPCB",25-09-2025 07:00:00,13.008556,76.125258,SO2,1,1,1
India,Karnataka,Hassan,"B.Katihalli, Hassan - KSPCB",25-09-2025 07:00:00,13.008556,76.125258,OZONE,1,1,1
India,Karnataka,Haveri,"Ashwini Nagar, Haveri - KSPCB",25-09-2025 07:00:00,14.791800,75.389600,PM10,32,40,36
India,Karnataka,Hubballi,"Lingaraj Nagar, Hubballi - KSPCB",25-09-2025 07:00:00,15.3714823,75.1160168,SO2,1,1,1
India,Kerala,Kollam,"Polayathode, Kollam - Kerala PCB",25-09-2025 07:00:00,8.8787,76.6073,SO2,NA,NA,NA
India,Kerala,Thiruvananthapuram,"Kariavattom, Thiruvananthapuram - Kerala PCB",25-09-2025 07:00:00,8.563700,76.886500,OZONE,36,36,36
India,Kerala,Thiruvananthapuram,"Plammoodu, Thiruvananthapuram - Kerala PCB",25-09-2025 07:00:00,8.5149093,76.9435879,NO2,54,100,72
India,Kerala,Thiruvananthapuram,"Plammoodu, Thiruvananthapuram - Kerala PCB",25-09-2025 07:00:00,8.5149093,76.9435879,NH3,6,8,7
India,Kerala,Thiruvananthapuram,"Plammoodu, Thiruvananthapuram - Kerala PCB",25-09-2025 07:00:00,8.5149093,76.9435879,CO,4,14,6
India,Madhya Pradesh,Bhopal,"Idgah Hills, Bhopal - MPPCB",25-09-2025 07:00:00,23.264759,77.381568,SO2,9,11,10
India,Madhya Pradesh,Indore,"Regional Park, Indore - IMC",25-09-2025 07:00:00,22.6780,75.8559,PM2.5,19,37,26
India,Madhya Pradesh,Indore,"Regional Park, Indore - IMC",25-09-2025 07:00:00,22.6780,75.8559,PM10,26,232,47
India,Madhya Pradesh,Indore,"Regional Park, Indore - IMC",25-09-2025 07:00:00,22.6780,75.8559,NO2,9,15,13
India,Madhya Pradesh,Indore,"Regional Park, Indore - IMC",25-09-2025 07:00:00,22.6780,75.8559,OZONE,14,26,21
India,Madhya Pradesh,Indore,"Residency Area, Indore - IMC",25-09-2025 07:00:00,22.7084,75.8815,PM10,27,59,43
India,Madhya Pradesh,Jabalpur,"Govindh Bhavan Colony, Jabalpur - JMC",25-09-2025 07:00:00,23.163174,79.973061,PM2.5,33,63,49
India,Madhya Pradesh,Jabalpur,"Govindh Bhavan Colony, Jabalpur - JMC",25-09-2025 07:00:00,23.163174,79.973061,PM10,54,85,72
India,Madhya Pradesh,Gwalior,"City Center, Gwalior - MPPCB",25-09-2025 07:00:00,26.203442,78.193251,OZONE,23,86,24
India,Madhya Pradesh,Gwalior,"Deen Dayal Nagar, Gwalior - MPPCB",25-09-2025 07:00:00,26.259242,78.216432,NH3,4,6,5
India,Madhya Pradesh,Gwalior,"Deen Dayal Nagar, Gwalior - MPPCB",25-09-2025 07:00:00,26.259242,78.216432,OZONE,55,128,65
India,Madhya Pradesh,Gwalior,"Maharaj Bada, Gwalior - MPPCB",25-09-2025 07:00:00,26.200388,78.147714,SO2,4,9,6
India,Madhya Pradesh,Indore,"Maguda Nagar, Indore - IMC",25-09-2025 07:00:00,22.7524,75.8872,PM10,15,33,28
India,Karnataka,Kalaburagi,"Lal Bahadur Shastri Nagar, Kalaburagi - KSPCB",25-09-2025 07:00:00,17.321993,76.822628,NH3,NA,NA,NA
India,Karnataka,Kalaburagi,"Mahatma Basaveswar Colony, Kalaburgi - KSPCB",25-09-2025 07:00:00,17.336318,76.847397,NH3,2,3,3
India,Karnataka,Kalaburagi,"Mahatma Basaveswar Colony, Kalaburgi - KSPCB",25-09-2025 07:00:00,17.336318,76.847397,SO2,2,17,4
India,Karnataka,Kalaburagi,"Mahatma Basaveswar Colony, Kalaburgi - KSPCB",25-09-2025 07:00:00,17.336318,76.847397,CO,30,57,33
India,Karnataka,Kalaburagi,"Mahatma Basaveswar Colony, Kalaburgi - KSPCB",25-09-2025 07:00:00,17.336318,76.847397,OZONE,NA,NA,NA
India,Karnataka,Karwar,"KHB Colony, Karwar - KSPCB",25-09-2025 07:00:00,14.816666,74.141003,PM2.5,NA,NA,NA
India,Madhya Pradesh,Bhopal,"Paryavaran Parisar, Bhopal - MPPCB",25-09-2025 07:00:00,23.210494,77.425409,PM10,42,101,64
India,Madhya Pradesh,Dewas,"Bhopal Chauraha, Dewas - MPPCB",25-09-2025 07:00:00,22.9682591,76.064118,CO,8,32,12
India,Madhya Pradesh,Dewas,"Bhopal Chauraha, Dewas - MPPCB",25-09-2025 07:00:00,22.9682591,76.064118,OZONE,24,29,28
India,Madhya Pradesh,Gwalior,"City Center, Gwalior - MPPCB",25-09-2025 07:00:00,26.203442,78.193251,PM10,30,102,70
India,Madhya Pradesh,Gwalior,"City Center, Gwalior - MPPCB",25-09-2025 07:00:00,26.203442,78.193251,NH3,1,1,1
India,Maharashtra,Aurangabad,"Rachnakar Colony, Aurangabad - MPCB",25-09-2025 07:00:00,19.863756,75.321188,PM10,39,62,50
India,Maharashtra,Aurangabad,"Rachnakar Colony, Aurangabad - MPCB",25-09-2025 07:00:00,19.863756,75.321188,NO2,15,22,20
India,Maharashtra,Aurangabad,"Rachnakar Colony, Aurangabad - MPCB",25-09-2025 07:00:00,19.863756,75.321188,NH3,2,5,3
India,Maharashtra,Aurangabad,"Rachnakar Colony, Aurangabad - MPCB",25-09-2025 07:00:00,19.863756,75.321188,CO,6,18,8
India,Maharashtra,Aurangabad,"Rachnakar Colony, Aurangabad - MPCB",25-09-2025 07:00:00,19.863756,75.321188,OZONE,9,56,13
India,Maharashtra,Badlapur,"Katrap, Badlapur - MPCB",25-09-2025 07:00:00,19.16485,73.23409,PM10,24,101,52
India,Maharashtra,Badlapur,"Katrap, Badlapur - MPCB",25-09-2025 07:00:00,19.16485,73.23409,NO2,31,58,42
India,Maharashtra,Badlapur,"Katrap, Badlapur - MPCB",25-09-2025 07:00:00,19.16485,73.23409,NH3,6,10,8
India,Maharashtra,Bhiwandi,"Gokul Nagar, Bhiwandi - MPCB",25-09-2025 07:00:00,19.309073,73.057223,PM2.5,NA,NA,NA
India,Maharashtra,Boisar,"Khaira, Boisar - MPCB",25-09-2025 07:00:00,19.786089,72.757971,PM2.5,16,51,28
India,Maharashtra,Boisar,"Khaira, Boisar - MPCB",25-09-2025 07:00:00,19.786089,72.757971,PM10,27,66,41
India,Madhya Pradesh,Pithampur,"Sector-2 Industrial Area, Pithampur - MPPCB",25-09-2025 07:00:00,22.624758,75.675238,OZONE,27,48,36
India,Madhya Pradesh,Ratlam,"Shasthri Nagar, Ratlam - IPCA Lab",25-09-2025 07:00:00,23.331731,75.045981,PM2.5,11,208,52
India,Madhya Pradesh,Satna,"Bandhavgar Colony, Satna - Birla Cement",25-09-2025 07:00:00,24.58434363,80.8549414,PM2.5,41,46,44
India,Madhya Pradesh,Satna,"Bandhavgar Colony, Satna - Birla Cement",25-09-2025 07:00:00,24.58434363,80.8549414,SO2,18,21,19
India,Maharashtra,Ahmednagar,"Tarakpur, Ahmednagar - MPCB",25-09-2025 07:00:00,19.10122,74.73339,PM2.5,11,46,31
India,Maharashtra,Ahmednagar,"Tarakpur, Ahmednagar - MPCB",25-09-2025 07:00:00,19.10122,74.73339,NO2,15,29,21
India,Maharashtra,Ahmednagar,"Tarakpur, Ahmednagar - MPCB",25-09-2025 07:00:00,19.10122,74.73339,CO,5,108,12
India,Maharashtra,Mumbai,"Borivali East, Mumbai - IITM",25-09-2025 07:00:00,19.23241,72.86895,NO2,NA,NA,NA
India,Maharashtra,Mumbai,"Borivali East, Mumbai - IITM",25-09-2025 07:00:00,19.23241,72.86895,CO,25,42,30
India,Maharashtra,Mumbai,"Borivali East, Mumbai - IITM",25-09-2025 07:00:00,19.23241,72.86895,OZONE,4,24,5
India,Maharashtra,Mumbai,"Borivali East, Mumbai - MPCB",25-09-2025 07:00:00,19.2243333,72.8658113,NO2,1,6,2
India,Maharashtra,Mumbai,"Borivali East, Mumbai - MPCB",25-09-2025 07:00:00,19.2243333,72.8658113,NH3,1,1,1
India,Maharashtra,Mumbai,"Byculla, Mumbai - BMC",25-09-2025 07:00:00,18.9767,72.8380,SO2,9,11,10
India,Maharashtra,Mumbai,"Chakala-Andheri East, Mumbai - IITM",25-09-2025 07:00:00,19.11074,72.86084,CO,2,36,13
India,Madhya Pradesh,Jabalpur,"Suhagi, Jabalpur - JMC",25-09-2025 07:00:00,23.218135,79.957770,PM2.5,37,68,48
India,Madhya Pradesh,Jabalpur,"Suhagi, Jabalpur - JMC",25-09-2025 07:00:00,23.218135,79.957770,SO2,4,8,6
India,Madhya Pradesh,Jabalpur,"Suhagi, Jabalpur - JMC",25-09-2025 07:00:00,23.218135,79.957770,CO,38,84,46
India,Madhya Pradesh,Katni,"Gole Bazar, Katni - MPPCB",25-09-2025 07:00:00,23.50016,80.23284,NO2,31,36,33
India,Madhya Pradesh,Katni,"Gole Bazar, Katni - MPPCB",25-09-2025 07:00:00,23.50016,80.23284,CO,12,42,38
India,Madhya Pradesh,Maihar,"Sahilara, Maihar - KJS Cements",25-09-2025 07:00:00,24.2613009,80.7231783,PM2.5,12,132,66
India,Maharashtra,Jalna,"Old MIDC, Jalna - MPCB",25-09-2025 07:00:00,19.854616,75.905894,NO2,39,49,44
India,Maharashtra,Kalyan,"Khadakpada, Kalyan - MPCB",25-09-2025 07:00:00,19.25292,73.142019,NH3,1,2,2
India,Maharashtra,Kalyan,"Khadakpada, Kalyan - MPCB",25-09-2025 07:00:00,19.25292,73.142019,CO,10,17,15
India,Maharashtra,Kolhapur,"Shivaji University, Kolhapur - MPCB",25-09-2025 07:00:00,16.6870449,74.2505872,PM2.5,18,61,38
India,Maharashtra,Latur,"Sawe Wadi, Latur - MPCB",25-09-2025 07:00:00,18.39963,76.57452,PM10,15,48,30
India,Maharashtra,Mahad,"Kamble Tarf Birwadi, Mahad - MPCB",25-09-2025 07:00:00,18.1023399,73.4783687,NO2,22,34,24
India,Maharashtra,Mahad,"Kamble Tarf Birwadi, Mahad - MPCB",25-09-2025 07:00:00,18.1023399,73.4783687,NH3,3,6,4
India,Maharashtra,Malegaon,"Mahesh Nagar, Malegaon - MPCB",25-09-2025 07:00:00,20.555712,74.529236,PM10,48,82,65
India,Maharashtra,Mumbai,"Bandra Kurla Complex, Mumbai - IITM",25-09-2025 07:00:00,19.053536,72.84643,NO2,35,182,68
India,Maharashtra,Mumbai,"Bandra Kurla Complex, Mumbai - IITM",25-09-2025 07:00:00,19.053536,72.84643,OZONE,1,19,1
India,Maharashtra,Akola,"Ramdaspeth, Akola - MPCB",25-09-2025 07:00:00,20.719516,77.000253,SO2,7,9,8
India,Maharashtra,Amravati,"Shivneri Colony, Amravati - MPCB",25-09-2025 07:00:00,20.9402359,77.7895248,SO2,2,4,3
India,Maharashtra,Amravati,"Shri Shivaji Science College, Amravati - MPCB",25-09-2025 07:00:00,20.939198,77.765701,OZONE,20,39,24
India,Maharashtra,Chandrapur,"MIDC Khutala, Chandrapur - MPCB",25-09-2025 07:00:00,19.9775302,79.2337086,PM2.5,37,96,64
India,Maharashtra,Dhule,"Deopur, Dhule - MPCB",25-09-2025 07:00:00,20.918946,74.776388,NH3,4,6,5
India,Maharashtra,Jalgaon,"Prabhat Colony, Jalgaon - MPCB",25-09-2025 07:00:00,21.001264,75.565602,PM10,20,83,47
India,Maharashtra,Mumbai,"Deonar, Mumbai - IITM",25-09-2025 07:00:00,19.04946,72.9230,PM10,27,123,72
India,Maharashtra,Mumbai,"Deonar, Mumbai - IITM",25-09-2025 07:00:00,19.04946,72.9230,CO,4,56,24
