country,state,city,station,last_update,latitude,longitude,pollutant_id,min_value,max_value,avg_value
India,Assam,Sivasagar,"Girls College, Sivasagar - PCBA",26-12-2025 08:00:00,26.987634,94.636574,OZONE,6,88,15
India,Bihar,Araria,"Kharahiya Basti, Araria - BSPCB",26-12-2025 08:00:00,26.146529,87.454184,PM10,78,239,149
India,Bihar,Araria,"Kharahiya Basti, Araria - BSPCB",26-12-2025 08:00:00,26.146529,87.454184,CO,30,70,53
India,Bihar,Arrah,"New DM Office, Arrah - BSPCB",26-12-2025 08:00:00,25.5626095,84.663264,PM10,NA,NA,NA
India,Bihar,Aurangabad,"Gurdeo Nagar, Aurangabad - BSPCB",26-12-2025 08:00:00,24.75746,84.366208,OZONE,1,27,3
India,Bihar,Begusarai,"Lohiyanagar, Begusarai - BSPCB",26-12-2025 08:00:00,25.42742023,86.13886079,NO2,10,15,13
India,Bihar,Begusarai,"Lohiyanagar, Begusarai - BSPCB",26-12-2025 08:00:00,25.42742023,86.13886079,SO2,52,67,62
India,Bihar,Begusarai,"Lohiyanagar, Begusarai - BSPCB",26-12-2025 08:00:00,25.42742023,86.13886079,CO,44,78,56
India,Bihar,Bettiah,"Kamalnath Nagar, Bettiah - BSPCB",26-12-2025 08:00:00,26.80365,84.51954,PM2.5,53,338,181
India,Bihar,Bettiah,"Kamalnath Nagar, Bettiah - BSPCB",26-12-2025 08:00:00,26.80365,84.51954,CO,50,113,86
India,Bihar,Bhagalpur,"Mayaganj, Bhagalpur - BSPCB",26-12-2025 08:00:00,25.265194,87.012947,SO2,51,59,54
India,Bihar,Bhagalpur,"Mayaganj, Bhagalpur - BSPCB",26-12-2025 08:00:00,25.265194,87.012947,OZONE,8,11,9
India,Assam,Nagaon,"Christianpatty, Nagaon - PCBA",26-12-2025 08:00:00,26.349082,92.68449,PM10,101,139,119
India,Assam,Nagaon,"Christianpatty, Nagaon - PCBA",26-12-2025 08:00:00,26.349082,92.68449,SO2,13,14,14
India,Assam,Nagaon,"Christianpatty, Nagaon - PCBA",26-12-2025 08:00:00,26.349082,92.68449,OZONE,9,9,9
India,Assam,Nalbari,"Bata Chowk, Nalbari - PCBA",26-12-2025 08:00:00,26.446912,91.439057,NO2,14,15,14
India,Assam,Silchar,"Tarapur, Silchar - PCBA",26-12-2025 08:00:00,24.82827,92.79525,CO,20,52,27
India,Andhra_Pradesh,Tirumala,"Toll Gate, Tirumala - APPCB",26-12-2025 08:00:00,13.67,79.35,CO,26,60,36
India,Andhra_Pradesh,Vijayawada,"HB Colony, Vijayawada - APPCB",26-12-2025 08:00:00,16.536107,80.594233,PM2.5,47,73,57
India,Andhra_Pradesh,Vijayawada,"HB Colony, Vijayawada - APPCB",26-12-2025 08:00:00,16.536107,80.594233,PM10,48,79,60
India,Andhra_Pradesh,Vijayawada,"HB Colony, Vijayawada - APPCB",26-12-2025 08:00:00,16.536107,80.594233,OZONE,NA,NA,NA
India,Andhra_Pradesh,Vijayawada,"Kanuru, Vijayawada - APPCB",26-12-2025 08:00:00,16.486692,80.699436,SO2,13,15,14
India,Assam,Byrnihat,"Central Academy for SFS, Byrnihat - PCBA",26-12-2025 08:00:00,26.071318,91.87488,OZONE,14,24,16
India,Assam,Guwahati,"LGBI Airport, Guwahati - PCBA",26-12-2025 08:00:00,26.10887,91.589544,PM10,44,146,101
India,Assam,Guwahati,"LGBI Airport, Guwahati - PCBA",26-12-2025 08:00:00,26.10887,91.589544,OZONE,11,12,12
India,Assam,Guwahati,"Pan Bazaar, Guwahati - PCBA",26-12-2025 08:00:00,26.187500,91.744194,PM2.5,1,1,1
India,Andhra_Pradesh,Vijayawada,"Rajiv Gandhi Park, Vijayawada - APPCB",26-12-2025 08:00:00,16.509717,80.612222,NH3,NA,NA,NA
India,Andhra_Pradesh,Vijayawada,"Rajiv Gandhi Park, Vijayawada - APPCB",26-12-2025 08:00:00,16.509717,80.612222,CO,27,27,27
India,Andhra_Pradesh,Vijayawada,"Rajiv Nagar, Vijayawada - APPCB",26-12-2025 08:00:00,16.554731,80.649110,PM10,NA,NA,NA
India,Andhra_Pradesh,Visakhapatnam,"GVM Corporation, Visakhapatnam - APPCB",26-12-2025 08:00:00,17.72,83.3,OZONE,4,97,26
India,Bihar,Buxar,"Charitra Van, Buxar - BSPCB",26-12-2025 08:00:00,25.567520,83.966379,SO2,1,15,6
India,Bihar,Chhapra,"Darshan Nagar, Chhapra - BSPCB",26-12-2025 08:00:00,25.7808257,84.7446768,PM10,36,227,126
India,Bihar,Chhapra,"Darshan Nagar, Chhapra - BSPCB",26-12-2025 08:00:00,25.7808257,84.7446768,NO2,1,2,1
India,Bihar,Gaya,"Collectorate, Gaya - BSPCB",26-12-2025 08:00:00,24.7955,84.9994,NO2,9,9,9
India,Andhra_Pradesh,Amaravati,"Secretariat, Amaravati - APPCB",26-12-2025 08:00:00,16.5150833,80.5181667,PM10,32,217,123
India,Andhra_Pradesh,Amaravati,"Secretariat, Amaravati - APPCB",26-12-2025 08:00:00,16.5150833,80.5181667,OZONE,7,55,27
India,Andhra_Pradesh,Anantapur,"Gulzarpet, Anantapur - APPCB",26-12-2025 08:00:00,14.675886,77.593027,PM10,36,137,80
India,Andhra_Pradesh,Anantapur,"Gulzarpet, Anantapur - APPCB",26-12-2025 08:00:00,14.675886,77.593027,SO2,12,12,12
India,Andhra_Pradesh,Kadapa,"Yerramukkapalli, Kadapa - APPCB",26-12-2025 08:00:00,14.465052,78.824187,NH3,3,4,3
India,Andhra_Pradesh,Kadapa,"Yerramukkapalli, Kadapa - APPCB",26-12-2025 08:00:00,14.465052,78.824187,SO2,11,11,11
India,Andhra_Pradesh,Tirumala,"Toll Gate, Tirumala - APPCB",26-12-2025 08:00:00,13.67,79.35,PM10,73,140,102
India,Andhra_Pradesh,Tirumala,"Toll Gate, Tirumala - APPCB",26-12-2025 08:00:00,13.67,79.35,NO2,12,28,23
India,Andaman and Nicobar,Sri Vijaya Puram,"Police Line, Sri Vijaya Puram - ANPCC",26-12-2025 08:00:00,11.654054,92.734055,PM10,24,35,27
India,Bihar,Katihar,"Mirchaibari, Katihar - BSPCB",26-12-2025 08:00:00,25.560083,87.553265,PM2.5,107,339,205
India,Bihar,Katihar,"Mirchaibari, Katihar - BSPCB",26-12-2025 08:00:00,25.560083,87.553265,OZONE,5,8,6
India,Bihar,Kishanganj,"SDM Office_Khagra, Kishanganj - BSPCB",26-12-2025 08:00:00,26.0881305,87.93840336,PM2.5,73,82,77
India,Bihar,Manguraha,"Forest Rest House, Manguraha - BSPCB",26-12-2025 08:00:00,27.308328,84.531742,PM10,32,144,83
India,Bihar,Manguraha,"Forest Rest House, Manguraha - BSPCB",26-12-2025 08:00:00,27.308328,84.531742,NO2,4,10,6
India,Bihar,Manguraha,"Forest Rest House, Manguraha - BSPCB",26-12-2025 08:00:00,27.308328,84.531742,CO,32,34,33
India,Bihar,Motihari,"Gandak Colony, Motihari - BSPCB",26-12-2025 08:00:00,26.63086,84.90051,CO,16,28,18
India,Bihar,Patna,"Rajbansi Nagar, Patna - BSPCB",26-12-2025 08:00:00,25.599486,85.113666,SO2,6,7,6
India,Bihar,Patna,"Samanpura, Patna - BSPCB",26-12-2025 08:00:00,25.596727,85.085624,PM10,80,220,119
India,Bihar,Patna,"Samanpura, Patna - BSPCB",26-12-2025 08:00:00,25.596727,85.085624,CO,18,126,66
India,Bihar,Patna,"Samanpura, Patna - BSPCB",26-12-2025 08:00:00,25.596727,85.085624,OZONE,15,65,18
India,Bihar,Purnia,"Mariam Nagar, Purnia - BSPCB",26-12-2025 08:00:00,25.366336,87.117468,SO2,16,21,19
India,Bihar,Purnia,"Mariam Nagar, Purnia - BSPCB",26-12-2025 08:00:00,25.366336,87.117468,CO,57,72,60
India,Bihar,Rajgir,"Dangi Tola, Rajgir - BSPCB",26-12-2025 08:00:00,25.03280,85.41948,NH3,6,7,6
India,Bihar,Munger,"Town Hall, Munger - BSPCB",26-12-2025 08:00:00,25.376776,86.471523,NO2,4,5,5
India,Bihar,Munger,"Town Hall, Munger - BSPCB",26-12-2025 08:00:00,25.376776,86.471523,CO,3,42,29
India,Bihar,Muzaffarpur,"MIT-Daudpur Kothi, Muzaffarpur - BSPCB",26-12-2025 08:00:00,26.1403345,85.3650192,NO2,1,3,2
India,Bihar,Muzaffarpur,"MIT-Daudpur Kothi, Muzaffarpur - BSPCB",26-12-2025 08:00:00,26.1403345,85.3650192,SO2,6,18,9
India,Bihar,Muzaffarpur,"Muzaffarpur Collectorate, Muzaffarpur - BSPCB",26-12-2025 08:00:00,26.1209,85.3647,PM2.5,90,157,126
India,Bihar,Muzaffarpur,"Muzaffarpur Collectorate, Muzaffarpur - BSPCB",26-12-2025 08:00:00,26.1209,85.3647,NO2,9,24,12
India,Bihar,Muzaffarpur,"Muzaffarpur Collectorate, Muzaffarpur - BSPCB",26-12-2025 08:00:00,26.1209,85.3647,CO,10,51,19
India,Chandigarh,Chandigarh,"Sector 22, Chandigarh - CPCC",26-12-2025 08:00:00,30.735567,76.775714,PM10,71,173,127
India,Chandigarh,Chandigarh,"Sector 22, Chandigarh - CPCC",26-12-2025 08:00:00,30.735567,76.775714,SO2,5,12,7
India,Chandigarh,Chandigarh,"Sector-25, Chandigarh - CPCC",26-12-2025 08:00:00,30.751462,76.762879,CO,36,62,46
India,Chandigarh,Chandigarh,"Sector-25, Chandigarh - CPCC",26-12-2025 08:00:00,30.751462,76.762879,OZONE,1,11,1
India,Chhattisgarh,Bhilai,"32Bungalows, Bhilai - CECB",26-12-2025 08:00:00,21.194815,81.314770,NO2,25,100,55
India,Chhattisgarh,Bhilai,"32Bungalows, Bhilai - CECB",26-12-2025 08:00:00,21.194815,81.314770,NH3,4,6,5
India,Chhattisgarh,Bhilai,"32Bungalows, Bhilai - CECB",26-12-2025 08:00:00,21.194815,81.314770,SO2,6,38,15
India,Bihar,Saharsa,"Police Line, Saharsa - BSPCB",26-12-2025 08:00:00,25.892357,86.590325,NH3,4,5,4
India,Bihar,Samastipur,"DM Office_Kasipur, Samastipur - BSPCB",26-12-2025 08:00:00,25.859655,85.77944,PM2.5,65,237,145
India,Bihar,Sasaram,"Dada Peer, Sasaram - BSPCB",26-12-2025 08:00:00,24.952822,84.002396,PM10,NA,NA,NA
India,Bihar,Siwan,"Chitragupta Nagar, Siwan - BSPCB",26-12-2025 08:00:00,26.2271665,84.3570427,NH3,1,1,1
India,Bihar,Siwan,"Chitragupta Nagar, Siwan - BSPCB",26-12-2025 08:00:00,26.2271665,84.3570427,CO,88,92,89
India,Chhattisgarh,Korba,"Rampur, Korba - CECB",26-12-2025 08:00:00,22.368195,82.746431,CO,12,47,23
India,Chhattisgarh,Kunjemura,"OP Jindal School, Kunjemura - CECB",26-12-2025 08:00:00,22.126650,83.483212,NH3,2,2,2
India,Chhattisgarh,Milupara,"Govt. Higher Secondary School, Milupara - CECB",26-12-2025 08:00:00,22.1910172,83.5197009,SO2,13,16,14
India,Chhattisgarh,Milupara,"Govt. Higher Secondary School, Milupara - CECB",26-12-2025 08:00:00,22.1910172,83.5197009,CO,4,44,29
India,Chhattisgarh,Milupara,"Govt. Higher Secondary School, Milupara - CECB",26-12-2025 08:00:00,22.1910172,83.5197009,OZONE,3,107,10
India,Bihar,Patna,"DRM Office Danapur, Patna - BSPCB",26-12-2025 08:00:00,25.586562,85.043586,NH3,5,13,8
India,Bihar,Patna,"IGSC Planetarium Complex, Patna - BSPCB",26-12-2025 08:00:00,25.610369,85.132568,SO2,1,35,27
India,Bihar,Patna,"Muradpur, Patna - BSPCB",26-12-2025 08:00:00,25.619651,85.147382,NH3,4,6,5
India,Bihar,Patna,"Muradpur, Patna - BSPCB",26-12-2025 08:00:00,25.619651,85.147382,CO,35,76,53
India,Chhattisgarh,Bhilai,"Civic Center, Bhilai - Bhilai Steel Plant",26-12-2025 08:00:00,21.185571,81.343175,PM10,35,108,61
India,Chhattisgarh,Bhilai,"Civic Center, Bhilai - Bhilai Steel Plant",26-12-2025 08:00:00,21.185571,81.343175,NH3,5,5,5
India,Chhattisgarh,Bhilai,"Civic Center, Bhilai - Bhilai Steel Plant",26-12-2025 08:00:00,21.185571,81.343175,OZONE,4,16,11
India,Chhattisgarh,Korba,"Rampur, Korba - CECB",26-12-2025 08:00:00,22.368195,82.746431,PM2.5,33,99,56
India,Bihar,Hajipur,"Industrial Area, Hajipur - BSPCB",26-12-2025 08:00:00,25.697189,85.245900,PM10,90,142,113
India,Bihar,Hajipur,"Industrial Area, Hajipur - BSPCB",26-12-2025 08:00:00,25.697189,85.245900,NO2,27,71,38
India,Delhi,Delhi,"IIT Delhi, Delhi - IITM",26-12-2025 08:00:00,28.542460,77.191651,CO,18,110,99
India,Delhi,Delhi,"IIT Delhi, Delhi - IITM",26-12-2025 08:00:00,28.542460,77.191651,OZONE,3,47,4
India,Delhi,Delhi,"ITO, Delhi - CPCB",26-12-2025 08:00:00,28.628624,77.241060,PM2.5,134,482,330
India,Delhi,Delhi,"Jahangirpuri, Delhi - DPCC",26-12-2025 08:00:00,28.732820,77.170633,PM2.5,163,500,390
India,Delhi,Delhi,"Jahangirpuri, Delhi - DPCC",26-12-2025 08:00:00,28.732820,77.170633,PM10,145,493,321
India,Delhi,Delhi,"Jahangirpuri, Delhi - DPCC",26-12-2025 08:00:00,28.732820,77.170633,NO2,90,136,109
India,Delhi,Delhi,"Jawaharlal Nehru Stadium, Delhi - DPCC",26-12-2025 08:00:00,28.580280,77.233829,PM2.5,95,454,265
India,Delhi,Delhi,"Jawaharlal Nehru Stadium, Delhi - DPCC",26-12-2025 08:00:00,28.580280,77.233829,NH3,13,16,14
India,Delhi,Delhi,"Narela, Delhi - DPCC",26-12-2025 08:00:00,28.822836,77.101981,OZONE,6,99,9
India,Delhi,Delhi,"North Campus, DU, Delhi - IMD",26-12-2025 08:00:00,28.6573814,77.1585447,PM10,113,466,285
India,Delhi,Delhi,"North Campus, DU, Delhi - IMD",26-12-2025 08:00:00,28.6573814,77.1585447,OZONE,10,301,16
India,Delhi,Delhi,"Okhla Phase-2, Delhi - DPCC",26-12-2025 08:00:00,28.530785,77.271255,NH3,21,33,27
India,Delhi,Delhi,"Patparganj, Delhi - DPCC",26-12-2025 08:00:00,28.623763,77.287209,PM10,120,460,271
India,Delhi,Delhi,"Patparganj, Delhi - DPCC",26-12-2025 08:00:00,28.623763,77.287209,NH3,11,16,13
India,Delhi,Delhi,"CRRI Mathura Road, Delhi - IMD",26-12-2025 08:00:00,28.5512005,77.2735737,PM2.5,67,487,274
India,Delhi,Delhi,"Chandni Chowk, Delhi - IITM",26-12-2025 08:00:00,28.656756,77.227234,PM10,143,500,317
India,Delhi,Delhi,"DTU, Delhi - CPCB",26-12-2025 08:00:00,28.7500499,77.1112615,OZONE,23,31,24
India,Delhi,Delhi,"Dr. Karni Singh Shooting Range, Delhi - DPCC",26-12-2025 08:00:00,28.498571,77.264840,PM2.5,107,500,302
India,Delhi,Delhi,"Dr. Karni Singh Shooting Range, Delhi - DPCC",26-12-2025 08:00:00,28.498571,77.264840,NH3,8,11,9
India,Delhi,Delhi,"Ashok Vihar, Delhi - DPCC",26-12-2025 08:00:00,28.695381,77.181665,OZONE,5,100,6
India,Delhi,Delhi,"Aya Nagar, Delhi - IMD",26-12-2025 08:00:00,28.4706914,77.1099364,PM2.5,69,391,210
India,Delhi,Delhi,"Bawana, Delhi - DPCC",26-12-2025 08:00:00,28.776200,77.051074,PM2.5,140,500,379
India,Delhi,Delhi,"Bawana, Delhi - DPCC",26-12-2025 08:00:00,28.776200,77.051074,PM10,117,500,315
India,Delhi,Delhi,"Burari Crossing, Delhi - IMD",26-12-2025 08:00:00,28.7256504,77.2011573,PM2.5,85,500,332
India,Delhi,Delhi,"Burari Crossing, Delhi - IMD",26-12-2025 08:00:00,28.7256504,77.2011573,CO,18,120,110
India,Delhi,Delhi,"Lodhi Road, Delhi - IITM",26-12-2025 08:00:00,28.588333,77.221667,SO2,5,45,17
India,Delhi,Delhi,"Lodhi Road, Delhi - IMD",26-12-2025 08:00:00,28.5918245,77.2273074,PM10,98,230,157
India,Delhi,Delhi,"Major Dhyan Chand National Stadium, Delhi - DPCC",26-12-2025 08:00:00,28.611281,77.237738,PM2.5,73,363,219
India,Delhi,Delhi,"Major Dhyan Chand National Stadium, Delhi - DPCC",26-12-2025 08:00:00,28.611281,77.237738,CO,100,148,137
India,Delhi,Delhi,"Mandir Marg, Delhi - DPCC",26-12-2025 08:00:00,28.636429,77.201067,NO2,66,133,89
India,Delhi,Delhi,"NSIT Dwarka, Delhi - CPCB",26-12-2025 08:00:00,28.60909,77.0325413,PM10,165,408,253
India,Delhi,Delhi,"NSIT Dwarka, Delhi - CPCB",26-12-2025 08:00:00,28.60909,77.0325413,NH3,20,57,28
India,Delhi,Delhi,"Najafgarh, Delhi - DPCC",26-12-2025 08:00:00,28.570173,76.933762,SO2,1,57,8
India,Delhi,Delhi,"Narela, Delhi - DPCC",26-12-2025 08:00:00,28.822836,77.101981,PM10,136,500,312
India,Delhi,Delhi,"Narela, Delhi - DPCC",26-12-2025 08:00:00,28.822836,77.101981,CO,32,102,72
India,Chhattisgarh,Raipur,"Bhatagaon New ISBT, Raipur - CECB",26-12-2025 08:00:00,21.219665,81.630094,NH3,2,2,2
India,Chhattisgarh,Raipur,"Krishak Nagar, Raipur - CECB",26-12-2025 08:00:00,21.237755,81.705301,NH3,2,2,2
India,Chhattisgarh,Raipur,"Siltara Phase-II, Raipur - CECB",26-12-2025 08:00:00,21.371751,81.664929,PM2.5,34,74,53
India,Chhattisgarh,Raipur,"Siltara Phase-II, Raipur - CECB",26-12-2025 08:00:00,21.371751,81.664929,NO2,32,40,36
India,Chhattisgarh,Raipur,"Siltara Phase-II, Raipur - CECB",26-12-2025 08:00:00,21.371751,81.664929,NH3,2,2,2
India,Delhi,Delhi,"Alipur, Delhi - DPCC",26-12-2025 08:00:00,28.815329,77.153010,PM10,137,423,268
India,Delhi,Delhi,"Alipur, Delhi - DPCC",26-12-2025 08:00:00,28.815329,77.153010,CO,22,103,89
India,Delhi,Delhi,"Alipur, Delhi - DPCC",26-12-2025 08:00:00,28.815329,77.153010,OZONE,7,51,7
India,Delhi,Delhi,"Anand Vihar, Delhi - DPCC",26-12-2025 08:00:00,28.647622,77.3158090,PM2.5,197,500,390
India,Delhi,Delhi,"Anand Vihar, Delhi - DPCC",26-12-2025 08:00:00,28.647622,77.3158090,NO2,41,117,75
India,Delhi,Delhi,"IGI Airport (T3), Delhi - IMD",26-12-2025 08:00:00,28.5627763,77.1180053,PM10,115,417,239
India,Delhi,Delhi,"IHBAS, Dilshad Garden, Delhi - CPCB",26-12-2025 08:00:00,28.6811736,77.3025234,NO2,76,131,103
India,Delhi,Delhi,"IIT Delhi, Delhi - IITM",26-12-2025 08:00:00,28.542460,77.191651,PM2.5,70,410,253
India,Gujarat,Gandhinagar,"IIPHG Lekawada, Gandhinagar - IITM",26-12-2025 08:00:00,23.243639,72.68994,NO2,6,7,7
India,Gujarat,Gandhinagar,"IIPHG Lekawada, Gandhinagar - IITM",26-12-2025 08:00:00,23.243639,72.68994,SO2,4,9,6
India,Gujarat,Gandhinagar,"Sector-10, Gandhinagar - GPCB",26-12-2025 08:00:00,23.221714,72.654328,NH3,2,4,3
India,Gujarat,Surat,"Science Center, Surat - SMC",26-12-2025 08:00:00,21.170046,72.795405,PM2.5,7,133,68
India,Gujarat,Surat,"Science Center, Surat - SMC",26-12-2025 08:00:00,21.170046,72.795405,PM10,18,128,105
India,Gujarat,Surat,"Science Center, Surat - SMC",26-12-2025 08:00:00,21.170046,72.795405,SO2,19,28,26
India,Gujarat,Vapi,"Phase-1 GIDC, Vapi - GPCB",26-12-2025 08:00:00,20.362421,72.918013,NO2,1,7,4
India,Gujarat,Ahmedabad,"Chandkheda, Ahmedabad - IITM",26-12-2025 08:00:00,23.107969,72.574648,PM10,88,190,123
India,Gujarat,Ahmedabad,"Chandkheda, Ahmedabad - IITM",26-12-2025 08:00:00,23.107969,72.574648,CO,2,82,21
India,Gujarat,Ahmedabad,"Gyaspur, Ahmedabad - IITM",26-12-2025 08:00:00,22.977134,72.553024,NO2,27,120,75
India,Gujarat,Ahmedabad,"Gyaspur, Ahmedabad - IITM",26-12-2025 08:00:00,22.977134,72.553024,NH3,2,18,9
India,Gujarat,Ahmedabad,"Maninagar, Ahmedabad - GPCB",26-12-2025 08:00:00,23.002657,72.591912,SO2,26,74,52
India,Gujarat,Ahmedabad,"Raikhad, Ahmedabad - IITM",26-12-2025 08:00:00,23.020509,72.579261,NH3,10,16,13
India,Gujarat,Ahmedabad,"Raikhad, Ahmedabad - IITM",26-12-2025 08:00:00,23.020509,72.579261,SO2,11,28,15
India,Gujarat,Ahmedabad,"Rakhial, Ahmedabad - IITM",26-12-2025 08:00:00,23.016834,72.625775,PM2.5,58,134,87
India,Gujarat,Ahmedabad,"Rakhial, Ahmedabad - IITM",26-12-2025 08:00:00,23.016834,72.625775,SO2,23,41,30
India,Gujarat,Ahmedabad,"Rakhial, Ahmedabad - IITM",26-12-2025 08:00:00,23.016834,72.625775,OZONE,4,70,29
India,Gujarat,Ahmedabad,"SAC ISRO Bopal, Ahmedabad - IITM",26-12-2025 08:00:00,23.041137,72.456691,OZONE,2,59,4
India,Gujarat,Ahmedabad,"SAC ISRO Satellite, Ahmedabad - IITM",26-12-2025 08:00:00,23.023389,72.515201,NO2,11,54,26
India,Gujarat,Ahmedabad,"SAC ISRO Satellite, Ahmedabad - IITM",26-12-2025 08:00:00,23.023389,72.515201,NH3,8,19,13
India,Gujarat,Ahmedabad,"SAC ISRO Satellite, Ahmedabad - IITM",26-12-2025 08:00:00,23.023389,72.515201,SO2,6,20,10
India,Haryana,Bhiwani,"H.B. Colony, Bhiwani - HSPCB",26-12-2025 08:00:00,28.806223,76.141105,PM2.5,91,352,153
India,Haryana,Bhiwani,"H.B. Colony, Bhiwani - HSPCB",26-12-2025 08:00:00,28.806223,76.141105,NO2,1,34,31
India,Haryana,Bhiwani,"H.B. Colony, Bhiwani - HSPCB",26-12-2025 08:00:00,28.806223,76.141105,SO2,12,13,12
India,Haryana,Bhiwani,"H.B. Colony, Bhiwani - HSPCB",26-12-2025 08:00:00,28.806223,76.141105,CO,10,14,12
India,Haryana,Dharuhera,"Municipal Corporation Office, Dharuhera -  HSPCB",26-12-2025 08:00:00,28.206800,76.799700,PM2.5,96,400,284
India,Haryana,Dharuhera,"Municipal Corporation Office, Dharuhera -  HSPCB",26-12-2025 08:00:00,28.206800,76.799700,NO2,10,47,27
India,Haryana,Dharuhera,"Municipal Corporation Office, Dharuhera -  HSPCB",26-12-2025 08:00:00,28.206800,76.799700,NH3,5,15,11
India,Gujarat,Vatva,"Phase-4 GIDC, Vatva - GPCB",26-12-2025 08:00:00,22.969611,72.643500,PM2.5,45,285,167
India,Gujarat,Vatva,"Phase-4 GIDC, Vatva - GPCB",26-12-2025 08:00:00,22.969611,72.643500,NO2,48,54,51
India,Gujarat,Vatva,"Phase-4 GIDC, Vatva - GPCB",26-12-2025 08:00:00,22.969611,72.643500,NH3,7,9,8
India,Haryana,Bahadurgarh,"Arya Nagar, Bahadurgarh - HSPCB",26-12-2025 08:00:00,28.6701,76.9254,PM10,9,500,260
India,Haryana,Ballabgarh,"Nathu Colony, Ballabgarh - HSPCB",26-12-2025 08:00:00,28.3419248,77.319699,PM2.5,118,334,260
India,Delhi,Delhi,"Sonia Vihar, Delhi - DPCC",26-12-2025 08:00:00,28.710508,77.249485,CO,68,141,122
India,Delhi,Delhi,"Sri Aurobindo Marg, Delhi - DPCC",26-12-2025 08:00:00,28.531346,77.190156,NH3,6,10,8
India,Delhi,Delhi,"Vivek Vihar, Delhi - DPCC",26-12-2025 08:00:00,28.672342,77.315260,PM2.5,112,500,376
India,Delhi,Delhi,"Wazirpur, Delhi - DPCC",26-12-2025 08:00:00,28.699793,77.165453,OZONE,3,32,19
India,Delhi,Delhi,"Shadipur, Delhi - CPCB",26-12-2025 08:00:00,28.6514781,77.1473105,CO,35,143,110
India,Delhi,Delhi,"Sirifort, Delhi - CPCB",26-12-2025 08:00:00,28.5504249,77.2159377,NH3,6,109,20
India,Gujarat,Ankleshwar,"GIDC, Ankleshwar - GPCB",26-12-2025 08:00:00,21.613267,73.010555,SO2,40,41,40
India,Gujarat,Ankleshwar,"GIDC, Ankleshwar - GPCB",26-12-2025 08:00:00,21.613267,73.010555,CO,28,102,65
India,Delhi,Delhi,"Pusa, Delhi - DPCC",26-12-2025 08:00:00,28.639652,77.146275,PM2.5,133,401,285
India,Haryana,Narnaul,"Shastri Nagar, Narnaul - HSPCB",26-12-2025 08:00:00,28.060249,76.113115,CO,16,44,27
India,Haryana,Palwal,"Shyam Nagar, Palwal - HSPCB",26-12-2025 08:00:00,28.1485564,77.3320667,PM2.5,22,98,56
India,Haryana,Palwal,"Shyam Nagar, Palwal - HSPCB",26-12-2025 08:00:00,28.1485564,77.3320667,NO2,23,24,24
India,Haryana,Palwal,"Shyam Nagar, Palwal - HSPCB",26-12-2025 08:00:00,28.1485564,77.3320667,NH3,8,9,9
India,Haryana,Palwal,"Shyam Nagar, Palwal - HSPCB",26-12-2025 08:00:00,28.1485564,77.3320667,SO2,13,15,14
India,Haryana,Panchgaon,"Amity University, Panchgaon - IITM",26-12-2025 08:00:00,28.3153,76.9143,NO2,16,40,26
India,Haryana,Panchgaon,"Amity University, Panchgaon - IITM",26-12-2025 08:00:00,28.3153,76.9143,CO,5,70,43
India,Haryana,Panchgaon,"Amity University, Panchgaon - IITM",26-12-2025 08:00:00,28.3153,76.9143,OZONE,1,67,1
India,Haryana,Panipat,"Sector-18, Panipat - HSPCB",26-12-2025 08:00:00,29.432304,76.972765,SO2,18,19,19
India,Jammu_and_Kashmir,Pampore,"Khrew, Pampore - JKPCC",26-12-2025 08:00:00,34.031606,75.009712,NO2,22,63,32
India,Jammu_and_Kashmir,Srinagar,"Khunmoh, Srinagar - JKPCC",26-12-2025 08:00:00,34.06313,74.96017,PM2.5,26,48,36
India,Jharkhand,Dhanbad,"Sardar Patel Nagar, Dhanbad - JSPCB",26-12-2025 08:00:00,23.80569,86.44268,PM2.5,69,282,137
India,Karnataka,Bagalkot,"Vidayagiri, Bagalkot - KSPCB",26-12-2025 08:00:00,16.172806,75.659694,PM2.5,35,36,35
India,Karnataka,Bagalkot,"Vidayagiri, Bagalkot - KSPCB",26-12-2025 08:00:00,16.172806,75.659694,PM10,53,54,53
India,Karnataka,Bagalkot,"Vidayagiri, Bagalkot - KSPCB",26-12-2025 08:00:00,16.172806,75.659694,SO2,7,7,7
India,Haryana,Faridabad,"New Industrial Town, Faridabad - HSPCB",26-12-2025 08:00:00,28.39072,77.30059,NO2,23,26,25
India,Haryana,Faridabad,"New Industrial Town, Faridabad - HSPCB",26-12-2025 08:00:00,28.39072,77.30059,OZONE,26,35,31
India,Haryana,Faridabad,"Sector 11, Faridabad - HSPCB",26-12-2025 08:00:00,28.376058,77.315741,PM10,43,395,203
India,Haryana,Faridabad,"Sector 11, Faridabad - HSPCB",26-12-2025 08:00:00,28.376058,77.315741,NH3,10,11,10
India,Haryana,Faridabad,"Sector 30, Faridabad - HSPCB",26-12-2025 08:00:00,28.4417,77.3217,NO2,35,39,37
India,Haryana,Faridabad,"Sector 30, Faridabad - HSPCB",26-12-2025 08:00:00,28.4417,77.3217,CO,40,65,63
India,Haryana,Fatehabad,"Huda Sector, Fatehabad - HSPCB",26-12-2025 08:00:00,29.503664,75.467934,NH3,13,15,14
India,Haryana,Fatehabad,"Huda Sector, Fatehabad - HSPCB",26-12-2025 08:00:00,29.503664,75.467934,OZONE,38,51,47
India,Haryana,Gurugram,"NISE Gwal Pahari, Gurugram - IMD",26-12-2025 08:00:00,28.422681,77.148944,OZONE,7,54,8
India,Haryana,Gurugram,"Sector-51, Gurugram - HSPCB",26-12-2025 08:00:00,28.4227,77.0667,NH3,6,10,8
India,Haryana,Gurugram,"Teri Gram, Gurugram - HSPCB",26-12-2025 08:00:00,28.4275,77.1465,NO2,13,26,18
India,Haryana,Gurugram,"Teri Gram, Gurugram - HSPCB",26-12-2025 08:00:00,28.4275,77.1465,SO2,1,23,9
India,Karnataka,Bengaluru,"Hebbal, Bengaluru - KSPCB",26-12-2025 08:00:00,13.029152,77.585901,NH3,1,2,1
India,Karnataka,Bengaluru,"Hebbal, Bengaluru - KSPCB",26-12-2025 08:00:00,13.029152,77.585901,CO,4,74,15
India,Karnataka,Bengaluru,"Jayanagar 5th Block, Bengaluru - KSPCB",26-12-2025 08:00:00,12.920984,77.584908,OZONE,13,51,39
India,Karnataka,Bengaluru,"Jigani, Bengaluru - KSPCB",26-12-2025 08:00:00,12.7816279,77.6299145,PM2.5,42,500,94
India,Karnataka,Bengaluru,"Jigani, Bengaluru - KSPCB",26-12-2025 08:00:00,12.7816279,77.6299145,NH3,5,5,5
India,Karnataka,Bengaluru,"BTM Layout, Bengaluru - CPCB",26-12-2025 08:00:00,12.9135218,77.5950804,CO,46,55,47
India,Karnataka,Bengaluru,"BWSSB Kadabesanahalli, Bengaluru - CPCB",26-12-2025 08:00:00,12.9352049,77.6814488,PM2.5,37,140,46
India,Karnataka,Bengaluru,"BWSSB Kadabesanahalli, Bengaluru - CPCB",26-12-2025 08:00:00,12.9352049,77.6814488,NH3,1,1,1
India,Karnataka,Bengaluru,"Hebbal, Bengaluru - KSPCB",26-12-2025 08:00:00,13.029152,77.585901,PM2.5,18,200,96
India,Haryana,Jind,"Police Lines, Jind - HSPCB",26-12-2025 08:00:00,29.307814,76.337619,PM2.5,90,444,244
India,Haryana,Kaithal,"Rishi Nagar, Kaithal - HSPCB",26-12-2025 08:00:00,29.8006,76.4155,OZONE,3,23,4
India,Haryana,Kurukshetra,"Sector-7, Kurukshetra - HSPCB",26-12-2025 08:00:00,29.966942,76.875879,NO2,16,21,19
India,Haryana,Kurukshetra,"Sector-7, Kurukshetra - HSPCB",26-12-2025 08:00:00,29.966942,76.875879,SO2,6,17,10
India,Haryana,Kurukshetra,"Sector-7, Kurukshetra - HSPCB",26-12-2025 08:00:00,29.966942,76.875879,CO,30,60,51
India,Haryana,Rohtak,"MD University, Rohtak - HSPCB",26-12-2025 08:00:00,28.52123,76.37138,CO,NA,NA,NA
India,Madhya Pradesh,Indore,"Regional Park, Indore - IMC",26-12-2025 08:00:00,22.6780,75.8559,OZONE,9,15,10
India,Madhya Pradesh,Indore,"Residency Area, Indore - IMC",26-12-2025 08:00:00,22.7084,75.8815,CO,18,26,21
India,Madhya Pradesh,Jabalpur,"Govindh Bhavan Colony, Jabalpur - JMC",26-12-2025 08:00:00,23.163174,79.973061,PM10,28,99,43
India,Madhya Pradesh,Jabalpur,"Govindh Bhavan Colony, Jabalpur - JMC",26-12-2025 08:00:00,23.163174,79.973061,NH3,1,1,1
India,Madhya Pradesh,Jabalpur,"Govindh Bhavan Colony, Jabalpur - JMC",26-12-2025 08:00:00,23.163174,79.973061,CO,32,62,46
India,Madhya Pradesh,Jabalpur,"Govindh Bhavan Colony, Jabalpur - JMC",26-12-2025 08:00:00,23.163174,79.973061,OZONE,19,21,19
India,Madhya Pradesh,Jabalpur,"Gupteshwar, Jabalpur - JMC",26-12-2025 08:00:00,23.142888,79.916147,NH3,2,3,2
India,Madhya Pradesh,Jabalpur,"Marhatal, Jabalpur - MPPCB",26-12-2025 08:00:00,23.168606,79.932247,NO2,10,55,24
India,Madhya Pradesh,Jabalpur,"Marhatal, Jabalpur - MPPCB",26-12-2025 08:00:00,23.168606,79.932247,NH3,1,2,2
India,Karnataka,Bengaluru,"Shivapura_Peenya, Bengaluru - KSPCB",26-12-2025 08:00:00,13.0246342,77.5080115,CO,44,66,52
India,Karnataka,Bengaluru,"Silk Board, Bengaluru - KSPCB",26-12-2025 08:00:00,12.917348,77.622813,SO2,3,10,8
India,Karnataka,Chamarajanagar,"Urban, Chamarajanagar - KSPCB",26-12-2025 08:00:00,11.55358,76.55521,NH3,1,2,2
India,Karnataka,Chamarajanagar,"Urban, Chamarajanagar - KSPCB",26-12-2025 08:00:00,11.55358,76.55521,SO2,2,5,4
India,Karnataka,Chikkamagaluru,"Kalyana Nagara, Chikkamagaluru - KSPCB",26-12-2025 08:00:00,13.328028,75.797056,PM10,33,40,38
India,Karnataka,Chikkamagaluru,"Kalyana Nagara, Chikkamagaluru - KSPCB",26-12-2025 08:00:00,13.328028,75.797056,NO2,18,24,20
India,Karnataka,Shivamogga,"Vinoba Nagara, Shivamogga - KSPCB",26-12-2025 08:00:00,13.940000,75.555917,PM2.5,25,33,29
India,Karnataka,Shivamogga,"Vinoba Nagara, Shivamogga - KSPCB",26-12-2025 08:00:00,13.940000,75.555917,NH3,3,4,3
India,Karnataka,Shivamogga,"Vinoba Nagara, Shivamogga - KSPCB",26-12-2025 08:00:00,13.940000,75.555917,OZONE,5,80,10
India,Kerala,Eloor,"Udyogamandal, Eloor - Kerala PCB",26-12-2025 08:00:00,10.073232,76.302765,PM2.5,57,158,96
India,Kerala,Eloor,"Udyogamandal, Eloor - Kerala PCB",26-12-2025 08:00:00,10.073232,76.302765,SO2,1,1,1
India,Kerala,Kannur,"Thavakkara, Kannur - Kerala PCB",26-12-2025 08:00:00,11.875000,75.373200,CO,16,19,18
India,Karnataka,Madikeri,"Stuart Hill, Madikeri - KSPCB",26-12-2025 08:00:00,12.415911,75.735050,PM2.5,41,84,55
India,Karnataka,Madikeri,"Stuart Hill, Madikeri - KSPCB",26-12-2025 08:00:00,12.415911,75.735050,SO2,7,7,7
India,Karnataka,Madikeri,"Stuart Hill, Madikeri - KSPCB",26-12-2025 08:00:00,12.415911,75.735050,OZONE,4,6,5
India,Karnataka,Mangalore,"Kadri, Mangalore - KSPCB",26-12-2025 08:00:00,12.889250,74.853000,PM10,65,128,86
India,Karnataka,Mangalore,"Kadri, Mangalore - KSPCB",26-12-2025 08:00:00,12.889250,74.853000,SO2,9,10,10
India,Karnataka,Mysuru,"Hebbal 1st Stage, Mysuru - KSPCB",26-12-2025 08:00:00,12.21041,76.37376,PM2.5,41,116,66
India,Madhya Pradesh,Bhopal,"Idgah Hills, Bhopal - MPPCB",26-12-2025 08:00:00,23.264759,77.381568,CO,18,64,29
India,Madhya Pradesh,Bhopal,"Paryavaran Parisar, Bhopal - MPPCB",26-12-2025 08:00:00,23.210494,77.425409,PM2.5,30,385,137
India,Madhya Pradesh,Bhopal,"Paryavaran Parisar, Bhopal - MPPCB",26-12-2025 08:00:00,23.210494,77.425409,PM10,52,380,141
India,Madhya Pradesh,Bhopal,"Paryavaran Parisar, Bhopal - MPPCB",26-12-2025 08:00:00,23.210494,77.425409,NO2,23,105,52
India,Madhya Pradesh,Bhopal,"Paryavaran Parisar, Bhopal - MPPCB",26-12-2025 08:00:00,23.210494,77.425409,OZONE,5,62,25
India,Madhya Pradesh,Bhopal,"T T Nagar, Bhopal - MPPCB",26-12-2025 08:00:00,23.233584,77.400574,SO2,12,25,17
India,Kerala,Kollam,"Polayathode, Kollam - Kerala PCB",26-12-2025 08:00:00,8.8787,76.6073,NO2,8,10,9
India,Kerala,Kollam,"Polayathode, Kollam - Kerala PCB",26-12-2025 08:00:00,8.8787,76.6073,OZONE,27,37,28
India,Kerala,Thiruvananthapuram,"Plammoodu, Thiruvananthapuram - Kerala PCB",26-12-2025 08:00:00,8.5149093,76.9435879,PM2.5,40,77,56
India,Kerala,Thiruvananthapuram,"Plammoodu, Thiruvananthapuram - Kerala PCB",26-12-2025 08:00:00,8.5149093,76.9435879,PM10,61,110,83
India,Kerala,Thiruvananthapuram,"Plammoodu, Thiruvananthapuram - Kerala PCB",26-12-2025 08:00:00,8.5149093,76.9435879,OZONE,4,38,17
India,Madhya Pradesh,Damoh,"Shrivastav Colony, Damoh - MPPCB",26-12-2025 08:00:00,23.81748678,79.446246,PM10,8,43,18
India,Madhya Pradesh,Dewas,"Bhopal Chauraha, Dewas - MPPCB",26-12-2025 08:00:00,22.9682591,76.064118,NH3,2,3,2
India,Madhya Pradesh,Gwalior,"City Center, Gwalior - MPPCB",26-12-2025 08:00:00,26.203442,78.193251,CO,37,112,63
India,Madhya Pradesh,Indore,"Airport Area, Indore - IMC",26-12-2025 08:00:00,22.7289,75.8076,SO2,18,20,18
India,Madhya Pradesh,Indore,"Chhoti Gwaltoli, Indore - MPPCB",26-12-2025 08:00:00,22.4310,75.5213,PM10,62,135,91
India,Madhya Pradesh,Indore,"Regional Park, Indore - IMC",26-12-2025 08:00:00,22.6780,75.8559,PM10,22,87,45
India,Madhya Pradesh,Indore,"Regional Park, Indore - IMC",26-12-2025 08:00:00,22.6780,75.8559,NO2,7,13,10
India,Karnataka,Bengaluru,"Kasturi Nagar, Bengaluru - KSPCB",26-12-2025 08:00:00,13.003872,77.664217,NO2,31,32,32
India,Karnataka,Bengaluru,"Peenya, Bengaluru - CPCB",26-12-2025 08:00:00,13.0270199,77.494094,PM10,49,162,101
India,Maharashtra,Belapur,"CBD Belapur, Belapur - MPCB",26-12-2025 08:00:00,19.0243902,73.0406721,NH3,1,2,1
India,Maharashtra,Bhiwandi,"Gokul Nagar, Bhiwandi - MPCB",26-12-2025 08:00:00,19.309073,73.057223,NO2,21,36,28
India,Maharashtra,Bhiwandi,"Gokul Nagar, Bhiwandi - MPCB",26-12-2025 08:00:00,19.309073,73.057223,SO2,8,17,12
India,Maharashtra,Bhiwandi,"Gokul Nagar, Bhiwandi - MPCB",26-12-2025 08:00:00,19.309073,73.057223,CO,18,66,53
India,Maharashtra,Boisar,"Khaira, Boisar - MPCB",26-12-2025 08:00:00,19.786089,72.757971,PM2.5,32,85,60
India,Maharashtra,Boisar,"Khaira, Boisar - MPCB",26-12-2025 08:00:00,19.786089,72.757971,NO2,10,45,28
India,Maharashtra,Boisar,"Khaira, Boisar - MPCB",26-12-2025 08:00:00,19.786089,72.757971,SO2,NA,NA,NA
India,Maharashtra,Boisar,"Khaira, Boisar - MPCB",26-12-2025 08:00:00,19.786089,72.757971,OZONE,2,85,17
India,Maharashtra,Chandrapur,"Chauhan Colony, Chandrapur - MPCB",26-12-2025 08:00:00,19.962900,79.298714,PM2.5,NA,NA,NA
India,Madhya Pradesh,Sagar,"Civil Lines, Sagar - MPPCB",26-12-2025 08:00:00,23.838586,78.759431,OZONE,37,59,46
India,Madhya Pradesh,Sagar,"Deen Dayal Nagar, Sagar - MPPCB",26-12-2025 08:00:00,23.8640158,78.80289321,PM10,30,137,75
India,Madhya Pradesh,Sagar,"Deen Dayal Nagar, Sagar - MPPCB",26-12-2025 08:00:00,23.8640158,78.80289321,CO,62,81,64
India,Madhya Pradesh,Satna,"Bandhavgar Colony, Satna - Birla Cement",26-12-2025 08:00:00,24.58434363,80.8549414,PM2.5,52,55,53
India,Madhya Pradesh,Satna,"Bandhavgar Colony, Satna - Birla Cement",26-12-2025 08:00:00,24.58434363,80.8549414,PM10,74,76,74
India,Madhya Pradesh,Satna,"Bandhavgar Colony, Satna - Birla Cement",26-12-2025 08:00:00,24.58434363,80.8549414,NO2,12,13,13
India,Madhya Pradesh,Satna,"Bandhavgar Colony, Satna - Birla Cement",26-12-2025 08:00:00,24.58434363,80.8549414,SO2,18,21,20
India,Maharashtra,Aurangabad,"More Chowk Waluj, Aurangabad - MPCB",26-12-2025 08:00:00,19.8389439,75.244448,NO2,13,23,18
India,Maharashtra,Aurangabad,"More Chowk Waluj, Aurangabad - MPCB",26-12-2025 08:00:00,19.8389439,75.244448,NH3,9,11,11
India,Maharashtra,Aurangabad,"More Chowk Waluj, Aurangabad - MPCB",26-12-2025 08:00:00,19.8389439,75.244448,CO,22,125,89
India,Maharashtra,Aurangabad,"Rachnakar Colony, Aurangabad - MPCB",26-12-2025 08:00:00,19.863756,75.321188,PM2.5,70,237,114
India,Maharashtra,Aurangabad,"Rachnakar Colony, Aurangabad - MPCB",26-12-2025 08:00:00,19.863756,75.321188,NO2,18,25,23
India,Maharashtra,Aurangabad,"Rachnakar Colony, Aurangabad - MPCB",26-12-2025 08:00:00,19.863756,75.321188,SO2,9,38,20
India,Maharashtra,Badlapur,"Katrap, Badlapur - MPCB",26-12-2025 08:00:00,19.16485,73.23409,PM10,74,185,132
India,Madhya Pradesh,Singrauli,"Suryakiran Bhawan NCL, Singrauli - MPPCB",26-12-2025 08:00:00,24.108970,82.645580,PM2.5,46,324,123
India,Maharashtra,Ahmednagar,"Tarakpur, Ahmednagar - MPCB",26-12-2025 08:00:00,19.10122,74.73339,OZONE,1,109,7
India,Maharashtra,Akola,"Ramdaspeth, Akola - MPCB",26-12-2025 08:00:00,20.719516,77.000253,PM10,31,139,89
India,Maharashtra,Amravati,"Shivneri Colony, Amravati - MPCB",26-12-2025 08:00:00,20.9402359,77.7895248,PM2.5,36,79,61
India,Maharashtra,Amravati,"Shivneri Colony, Amravati - MPCB",26-12-2025 08:00:00,20.9402359,77.7895248,PM10,55,109,79
India,Madhya Pradesh,Jabalpur,"Suhagi, Jabalpur - JMC",26-12-2025 08:00:00,23.218135,79.957770,PM2.5,17,85,44
India,Madhya Pradesh,Jabalpur,"Suhagi, Jabalpur - JMC",26-12-2025 08:00:00,23.218135,79.957770,NO2,19,113,48
India,Madhya Pradesh,Jabalpur,"Suhagi, Jabalpur - JMC",26-12-2025 08:00:00,23.218135,79.957770,OZONE,24,35,29
India,Madhya Pradesh,Katni,"Gole Bazar, Katni - MPPCB",26-12-2025 08:00:00,23.50016,80.23284,NO2,26,47,35
India,Madhya Pradesh,Katni,"Gole Bazar, Katni - MPPCB",26-12-2025 08:00:00,23.50016,80.23284,CO,30,89,45
India,Madhya Pradesh,Mandideep,"Sector-D Industrial Area, Mandideep - MPPCB",26-12-2025 08:00:00,23.108440,77.511428,PM10,69,277,141
India,Maharashtra,Jalgaon,"Prabhat Colony, Jalgaon - MPCB",26-12-2025 08:00:00,21.001264,75.565602,OZONE,5,80,47
India,Maharashtra,Jalna,"Old MIDC, Jalna - MPCB",26-12-2025 08:00:00,19.854616,75.905894,PM2.5,36,113,65
India,Maharashtra,Jalna,"Old MIDC, Jalna - MPCB",26-12-2025 08:00:00,19.854616,75.905894,OZONE,1,32,2
India,Maharashtra,Kalyan,"Pimpleshwar Mandir, Kalyan - MPCB",26-12-2025 08:00:00,19.192056,72.9585188,PM2.5,44,172,93
India,Maharashtra,Kalyan,"Pimpleshwar Mandir, Kalyan - MPCB",26-12-2025 08:00:00,19.192056,72.9585188,NO2,14,39,24
India,Maharashtra,Kolhapur,"Shivaji University, Kolhapur - MPCB",26-12-2025 08:00:00,16.6870449,74.2505872,PM2.5,68,205,135
India,Maharashtra,Kolhapur,"Shivaji University, Kolhapur - MPCB",26-12-2025 08:00:00,16.6870449,74.2505872,PM10,80,123,101
India,Maharashtra,Kolhapur,"Shivaji University, Kolhapur - MPCB",26-12-2025 08:00:00,16.6870449,74.2505872,OZONE,1,65,10
India,Maharashtra,Kolhapur,"Sinchan Bhavan, Kolhapur - MPCB",26-12-2025 08:00:00,16.7143745,74.2426398,PM10,66,132,98
India,Maharashtra,Aurangabad,"More Chowk Waluj, Aurangabad - MPCB",26-12-2025 08:00:00,19.8389439,75.244448,PM10,38,89,57
India,Maharashtra,Dhule,"Deopur, Dhule - MPCB",26-12-2025 08:00:00,20.918946,74.776388,PM10,64,148,99
India,Maharashtra,Nagpur,"Mahal, Nagpur - MPCB",26-12-2025 08:00:00,21.14472,79.107595,PM2.5,NA,NA,NA
India,Maharashtra,Nagpur,"Mahal, Nagpur - MPCB",26-12-2025 08:00:00,21.14472,79.107595,PM10,NA,NA,NA
India,Maharashtra,Nagpur,"Mahal, Nagpur - MPCB",26-12-2025 08:00:00,21.14472,79.107595,SO2,NA,NA,NA
India,Maharashtra,Nagpur,"Mahal, Nagpur - MPCB",26-12-2025 08:00:00,21.14472,79.107595,OZONE,NA,NA,NA
India,Maharashtra,Nagpur,"Opp GPO Civil Lines, Nagpur - MPCB",26-12-2025 08:00:00,21.152875,79.0517531,NH3,4,28,12
India,Maharashtra,Nagpur,"Opp GPO Civil Lines, Nagpur - MPCB",26-12-2025 08:00:00,21.152875,79.0517531,CO,4,127,45
India,Maharashtra,Nagpur,"Opp GPO Civil Lines, Nagpur - MPCB",26-12-2025 08:00:00,21.152875,79.0517531,OZONE,3,87,5
India,Maharashtra,Nagpur,"Ram Nagar, Nagpur - MPCB",26-12-2025 08:00:00,21.143383,79.048912,NO2,16,69,31
India,Maharashtra,Nanded,"Sneh Nagar, Nanded - MPCB",26-12-2025 08:00:00,19.173852,77.296291,PM2.5,60,124,83
India,Maharashtra,Mumbai,"Bandra Kurla Complex, Mumbai - MPCB",26-12-2025 08:00:00,19.065931,72.862131,PM2.5,56,254,118
India,Maharashtra,Mumbai,"Bandra Kurla Complex, Mumbai - MPCB",26-12-2025 08:00:00,19.065931,72.862131,NO2,21,92,57
India,Maharashtra,Mumbai,"Bandra Kurla Complex, Mumbai - MPCB",26-12-2025 08:00:00,19.065931,72.862131,NH3,16,18,16
India,Maharashtra,Mumbai,"Bandra Kurla Complex, Mumbai - MPCB",26-12-2025 08:00:00,19.065931,72.862131,CO,11,19,16
India,Maharashtra,Mumbai,"Borivali East, Mumbai - IITM",26-12-2025 08:00:00,19.23241,72.86895,CO,20,66,43
India,Maharashtra,Mumbai,"Byculla, Mumbai - BMC",26-12-2025 08:00:00,18.9767,72.8380,PM2.5,65,131,86
India,Maharashtra,Mumbai,"Byculla, Mumbai - BMC",26-12-2025 08:00:00,18.9767,72.8380,NO2,NA,NA,NA
India,Maharashtra,Mira-Bhayandar,"Bhayandar West, Mira-Bhayandar - MPCB",26-12-2025 08:00:00,19.296481,72.840923,NO2,19,86,44
India,Maharashtra,Mira-Bhayandar,"Bhayandar West, Mira-Bhayandar - MPCB",26-12-2025 08:00:00,19.296481,72.840923,SO2,4,4,4
India,Maharashtra,Mumbai,"Bandra Kurla Complex, Mumbai - IITM",26-12-2025 08:00:00,19.053536,72.84643,PM2.5,100,178,137
India,Maharashtra,Mumbai,"Bandra Kurla Complex, Mumbai - IITM",26-12-2025 08:00:00,19.053536,72.84643,PM10,116,184,140
India,Maharashtra,Mumbai,"Bandra Kurla Complex, Mumbai - IITM",26-12-2025 08:00:00,19.053536,72.84643,SO2,6,31,18
India,Maharashtra,Mumbai,"Bandra Kurla Complex, Mumbai - IITM",26-12-2025 08:00:00,19.053536,72.84643,OZONE,3,79,6
India,Maharashtra,Mumbai,"Mindspace-Malad West, Mumbai - MPCB",26-12-2025 08:00:00,19.1878657,72.8304069,NO2,19,83,45
India,Maharashtra,Mumbai,"Mindspace-Malad West, Mumbai - MPCB",26-12-2025 08:00:00,19.1878657,72.8304069,SO2,6,37,19
India,Maharashtra,Mumbai,"Navy Nagar-Colaba, Mumbai - IITM",26-12-2025 08:00:00,18.897756,72.813320,SO2,8,54,23
India,Maharashtra,Mumbai,"Powai, Mumbai - MPCB",26-12-2025 08:00:00,19.137500,72.915056,OZONE,9,9,9
India,Maharashtra,Mumbai,"Sewri, Mumbai - BMC",26-12-2025 08:00:00,19.000084,72.856730,PM10,NA,NA,NA
India,Maharashtra,Mumbai,"Siddharth Nagar-Worli, Mumbai - IITM",26-12-2025 08:00:00,19.000083,72.813993,PM2.5,86,198,119
India,Maharashtra,Mumbai,"Sion, Mumbai - MPCB",26-12-2025 08:00:00,19.047000,72.874600,OZONE,6,13,12
India,Maharashtra,Mumbai,"Vile Parle West, Mumbai - MPCB",26-12-2025 08:00:00,19.10861,72.83622,CO,45,62,54
India,Maharashtra,Nagpur,"Ambazari, Nagpur - MPCB",26-12-2025 08:00:00,21.121801,79.04952,SO2,4,43,14
India,Maharashtra,Nashik,"Hirawadi, Nashik - MPCB",26-12-2025 08:00:00,20.021503,73.813844,NO2,8,48,20
India,Maharashtra,Nashik,"MIDC Ambad, Nashik - MPCB",26-12-2025 08:00:00,19.950220,73.731480,PM2.5,NA,NA,NA
India,Maharashtra,Nashik,"Pandav Nagari, Nashik - MPCB",26-12-2025 08:00:00,19.9591346,73.7788008,NO2,7,69,30
India,Maharashtra,Nashik,"Pandav Nagari, Nashik - MPCB",26-12-2025 08:00:00,19.9591346,73.7788008,SO2,1,35,8
India,Maharashtra,Mumbai,"Byculla, Mumbai - BMC",26-12-2025 08:00:00,18.9767,72.8380,SO2,NA,NA,NA
India,Maharashtra,Mumbai,"Byculla, Mumbai - BMC",26-12-2025 08:00:00,18.9767,72.8380,CO,14,102,102
India,Maharashtra,Mumbai,"Chembur, Mumbai - MPCB",26-12-2025 08:00:00,19.0364585,72.8954371,PM10,111,140,126
India,Maharashtra,Mumbai,"Chembur, Mumbai - MPCB",26-12-2025 08:00:00,19.0364585,72.8954371,NH3,2,3,3
India,Maharashtra,Mumbai,"Deonar, Mumbai - IITM",26-12-2025 08:00:00,19.04946,72.9230,SO2,4,15,8
India,Maharashtra,Mumbai,"Kherwadi_Bandra East, Mumbai - MPCB",26-12-2025 08:00:00,19.0632143,72.8456324,PM10,66,143,108
India,Maharashtra,Mumbai,"Malad West, Mumbai - IITM",26-12-2025 08:00:00,19.19709,72.82204,PM10,91,165,119
India,Maharashtra,Mumbai,"Malad West, Mumbai - IITM",26-12-2025 08:00:00,19.19709,72.82204,SO2,1,29,13
India,Maharashtra,Pimpri-Chinchwad,"Gavalinagar, Pimpri Chinchwad - MPCB",26-12-2025 08:00:00,18.63673,73.82487,OZONE,NA,NA,NA
India,Maharashtra,Pimpri-Chinchwad,"Park Street Wakad, Pimpri Chinchwad - MPCB",26-12-2025 08:00:00,18.59051,73.77946,PM10,91,274,155
India,Maharashtra,Pimpri-Chinchwad,"Savta Mali Nagar, Pimpri-Chinchwad - IITM",26-12-2025 08:00:00,18.614767,73.799516,PM10,92,222,144
India,Maharashtra,Pimpri-Chinchwad,"Thergaon, Pimpri Chinchwad - MPCB",26-12-2025 08:00:00,18.616318,73.765797,NH3,5,7,6
India,Maharashtra,Pimpri-Chinchwad,"Thergaon, Pimpri Chinchwad - MPCB",26-12-2025 08:00:00,18.616318,73.765797,SO2,2,6,4
India,Maharashtra,Pune,"Bhumkar Nagar, Pune - IITM",26-12-2025 08:00:00,18.605770,73.749976,PM2.5,181,378,317
India,Maharashtra,Pune,"Bhumkar Nagar, Pune - IITM",26-12-2025 08:00:00,18.605770,73.749976,PM10,168,360,259
India,Maharashtra,Pune,"Bhumkar Nagar, Pune - IITM",26-12-2025 08:00:00,18.605770,73.749976,NO2,21,46,31
India,Maharashtra,Thane,"Upvan Fort, Thane - MPCB",26-12-2025 08:00:00,19.222279,72.957979,OZONE,18,89,34
India,Maharashtra,Ulhasnagar,"Sidhi Vinayak Nagar, Ulhasnagar - MPCB",26-12-2025 08:00:00,19.235581,73.159121,NO2,16,43,26
India,Maharashtra,Virar,"Bolinj, Virar - MPCB",26-12-2025 08:00:00,19.4458210,72.7988231,PM10,62,240,101
India,Maharashtra,Virar,"Bolinj, Virar - MPCB",26-12-2025 08:00:00,19.4458210,72.7988231,NO2,11,89,34
India,Maharashtra,Virar,"Bolinj, Virar - MPCB",26-12-2025 08:00:00,19.4458210,72.7988231,NH3,1,4,2
India,Maharashtra,Virar,"Bolinj, Virar - MPCB",26-12-2025 08:00:00,19.4458210,72.7988231,CO,16,115,79
India,Meghalaya,Shillong,"Lumpyngngad, Shillong - Meghalaya PCB",26-12-2025 08:00:00,25.5586,91.8985,OZONE,3,8,5
India,Maharashtra,Navi Mumbai,"Sector-2E Kalamboli, Navi Mumbai - MPCB",26-12-2025 08:00:00,19.02579,73.10297,PM10,32,251,115
India,Maharashtra,Navi Mumbai,"Sector-2E Kalamboli, Navi Mumbai - MPCB",26-12-2025 08:00:00,19.02579,73.10297,SO2,1,11,5
India,Maharashtra,Navi Mumbai,"Tondare-Taloja, Navi Mumbai - MPCB",26-12-2025 08:00:00,19.0630,73.1209,PM10,109,121,115
India,Maharashtra,Navi Mumbai,"Tondare-Taloja, Navi Mumbai - MPCB",26-12-2025 08:00:00,19.0630,73.1209,NO2,9,32,21
India,Maharashtra,Pimpri-Chinchwad,"Gavalinagar, Pimpri Chinchwad - MPCB",26-12-2025 08:00:00,18.63673,73.82487,PM2.5,168,326,267
India,Nagaland,Kohima,"PWD Junction, Kohima - NPCB",26-12-2025 08:00:00,25.6635413,94.0989878,SO2,74,76,75
India,Nagaland,Kohima,"PWD Junction, Kohima - NPCB",26-12-2025 08:00:00,25.6635413,94.0989878,CO,4,14,6
India,Odisha,Angul,"Hakimapada, Angul - OSPCB",26-12-2025 08:00:00,20.832874,85.104082,CO,26,109,68
India,Odisha,Balasore,"Kalidaspur, Balasore - OSPCB",26-12-2025 08:00:00,21.51161,86.89088,SO2,5,35,14
India,Odisha,Balasore,"Kalidaspur, Balasore - OSPCB",26-12-2025 08:00:00,21.51161,86.89088,CO,21,113,50
India,Maharashtra,Navi Mumbai,"Kopripada-Vashi, Navi Mumbai - MPCB",26-12-2025 08:00:00,19.090337,73.014232,PM2.5,60,82,68
India,Maharashtra,Navi Mumbai,"Kopripada-Vashi, Navi Mumbai - MPCB",26-12-2025 08:00:00,19.090337,73.014232,NH3,2,10,6
India,Maharashtra,Navi Mumbai,"Mahape, Navi Mumbai - MPCB",26-12-2025 08:00:00,19.1135051,73.008978,PM2.5,59,145,84
India,Maharashtra,Navi Mumbai,"Nerul, Navi Mumbai - MPCB",26-12-2025 08:00:00,19.008751,73.016620,NO2,36,38,37
India,Maharashtra,Navi Mumbai,"Nerul, Navi Mumbai - MPCB",26-12-2025 08:00:00,19.008751,73.016620,SO2,NA,NA,NA
India,Maharashtra,Pune,"Katraj Dairy, Pune - MPCB",26-12-2025 08:00:00,18.454450,73.854155,NO2,12,84,45
India,Maharashtra,Pune,"Katraj Dairy, Pune - MPCB",26-12-2025 08:00:00,18.454450,73.854155,OZONE,NA,NA,NA
India,Maharashtra,Pune,"Mhada Colony, Pune - IITM",26-12-2025 08:00:00,18.573040,73.927715,PM2.5,190,398,303
India,Maharashtra,Pune,"Mhada Colony, Pune - IITM",26-12-2025 08:00:00,18.573040,73.927715,CO,56,131,100
India,Maharashtra,Pune,"Panchawati_Pashan, Pune - IITM",26-12-2025 08:00:00,18.536457,73.805454,NO2,15,57,28
India,Maharashtra,Pune,"Transport Nagar-Nigdi, Pune - IITM",26-12-2025 08:00:00,18.664282,73.763966,OZONE,10,73,15
India,Maharashtra,Sangli,"Vijay Nagar, Sangli - MPCB",26-12-2025 08:00:00, 16.5038,74.3623,OZONE,2,66,9
India,Maharashtra,Thane,"Kasarvadavali, Thane - MPCB",26-12-2025 08:00:00,19.26777,72.97182,PM10,81,141,112
India,Maharashtra,Thane,"Kasarvadavali, Thane - MPCB",26-12-2025 08:00:00,19.26777,72.97182,NO2,14,76,41
India,Odisha,Baripada,"Meher Colony, Baripada - OSPCB",26-12-2025 08:00:00,21.941841,86.728318,PM10,121,357,178
India,Odisha,Rairangpur,"Divisional Forest Office, Rairangpur - OSPCB",26-12-2025 08:00:00,22.265816,86.174829,PM10,89,145,117
India,Odisha,Rourkela,"Fertilizer Township, Rourkela - OSPCB",26-12-2025 08:00:00,22.18972222,84.86277778,PM10,96,138,102
India,Odisha,Rourkela,"Raghunathpali, Rourkela - OSPCB",26-12-2025 08:00:00,22.220833,84.809444,PM10,69,253,106
India,Odisha,Rourkela,"Raghunathpali, Rourkela - OSPCB",26-12-2025 08:00:00,22.220833,84.809444,NO2,1,17,11
India,Odisha,Rourkela,"Raghunathpali, Rourkela - OSPCB",26-12-2025 08:00:00,22.220833,84.809444,SO2,4,7,5
India,Odisha,Rourkela,"Raghunathpali, Rourkela - OSPCB",26-12-2025 08:00:00,22.220833,84.809444,CO,30,102,71
India,Odisha,Rourkela,"Sector-2, Rourkela - OSPCB",26-12-2025 08:00:00,22.24500000,84.88111111,PM10,83,198,127
India,Odisha,Suakati,"OMC Colony, Suakati - OSPCB",26-12-2025 08:00:00,21.606865,85.510538,PM2.5,65,103,80
India,Odisha,Suakati,"OMC Colony, Suakati - OSPCB",26-12-2025 08:00:00,21.606865,85.510538,SO2,4,13,7
India,Punjab,Ludhiana,"Punjab Agricultural University, Ludhiana - PPCB",26-12-2025 08:00:00,30.9028,75.8086,OZONE,11,21,14
India,Punjab,Mandi Gobindgarh,"RIMT University, Mandi Gobindgarh - PPCB",26-12-2025 08:00:00,30.649961,76.331442,PM2.5,23,72,41
India,Punjab,Patiala,"Model Town, Patiala - PPCB",26-12-2025 08:00:00,30.349388,76.366642,CO,22,52,29
India,Punjab,Patiala,"Model Town, Patiala - PPCB",26-12-2025 08:00:00,30.349388,76.366642,OZONE,11,42,11
India,Punjab,Rupnagar,"Ratanpura, Rupnagar - Ambuja Cements",26-12-2025 08:00:00,31.0325454,76.5623046,PM10,2,488,261
India,Rajasthan,Ajmer,"Civil Lines,  Ajmer - RSPCB",26-12-2025 08:00:00,26.470859,74.646594,PM2.5,51,123,77
India,Rajasthan,Ajmer,"Civil Lines,  Ajmer - RSPCB",26-12-2025 08:00:00,26.470859,74.646594,PM10,64,155,104
India,Punjab,Bathinda,"Hardev Nagar, Bathinda - PPCB",26-12-2025 08:00:00,30.233011,74.907758,PM2.5,40,111,67
India,Punjab,Bathinda,"Hardev Nagar, Bathinda - PPCB",26-12-2025 08:00:00,30.233011,74.907758,CO,76,80,78
India,Punjab,Jalandhar,"Civil Line, Jalandhar - PPCB",26-12-2025 08:00:00,31.321907,75.578914,NH3,2,5,3
India,Punjab,Jalandhar,"Civil Line, Jalandhar - PPCB",26-12-2025 08:00:00,31.321907,75.578914,CO,50,61,57
India,Punjab,Jalandhar,"Civil Line, Jalandhar - PPCB",26-12-2025 08:00:00,31.321907,75.578914,OZONE,38,113,63
India,Punjab,Khanna,"Kalal Majra, Khanna - PPCB",26-12-2025 08:00:00,30.736056 ,76.209694,PM2.5,88,252,184
India,Punjab,Khanna,"Kalal Majra, Khanna - PPCB",26-12-2025 08:00:00,30.736056 ,76.209694,PM10,110,185,155
India,Punjab,Khanna,"Kalal Majra, Khanna - PPCB",26-12-2025 08:00:00,30.736056 ,76.209694,NH3,7,8,7
India,Punjab,Khanna,"Kalal Majra, Khanna - PPCB",26-12-2025 08:00:00,30.736056 ,76.209694,SO2,9,18,13
India,Rajasthan,Ajmer,"Civil Lines,  Ajmer - RSPCB",26-12-2025 08:00:00,26.470859,74.646594,NH3,3,4,4
India,Rajasthan,Ajmer,"Civil Lines,  Ajmer - RSPCB",26-12-2025 08:00:00,26.470859,74.646594,CO,20,49,31
India,Rajasthan,Alwar,"Moti Doongri, Alwar - RSPCB",26-12-2025 08:00:00,27.554793,76.611536,SO2,1,39,22
India,Rajasthan,Banswara,"Rati Talai, Banswara - RSPCB",26-12-2025 08:00:00,23.555190,74.440010,NH3,5,11,7
India,Rajasthan,Banswara,"Rati Talai, Banswara - RSPCB",26-12-2025 08:00:00,23.555190,74.440010,CO,12,58,19
India,Rajasthan,Baran,"Bamboliya, Baran - RSPCB",26-12-2025 08:00:00,25.106006,76.469948,PM2.5,3,75,32
India,Rajasthan,Baran,"Bamboliya, Baran - RSPCB",26-12-2025 08:00:00,25.106006,76.469948,NO2,17,69,34
India,Rajasthan,Baran,"Bamboliya, Baran - RSPCB",26-12-2025 08:00:00,25.106006,76.469948,OZONE,7,89,7
India,Rajasthan,Bhiwadi,"Vasundhara Nagar_UIT, Bhiwadi - RSPCB",26-12-2025 08:00:00,28.207266,76.829265,PM2.5,111,450,276
India,Rajasthan,Bhiwadi,"Vasundhara Nagar_UIT, Bhiwadi - RSPCB",26-12-2025 08:00:00,28.207266,76.829265,NH3,1,13,6
India,Rajasthan,Bhiwadi,"Vasundhara Nagar_UIT, Bhiwadi - RSPCB",26-12-2025 08:00:00,28.207266,76.829265,CO,56,135,71
India,Rajasthan,Bikaner,"MM Ground, Bikaner - RSPCB",26-12-2025 08:00:00,28.018792,73.292658,CO,12,150,28
India,Rajasthan,Bundi,"New Colony, Bundi - RSPCB",26-12-2025 08:00:00,25.435774,75.644272,NO2,17,64,33
India,Rajasthan,Bundi,"New Colony, Bundi - RSPCB",26-12-2025 08:00:00,25.435774,75.644272,NH3,2,4,3
India,Rajasthan,Chittorgarh,"Shastri Nagar, Chittorgarh - RSPCB",26-12-2025 08:00:00,24.892047,74.623527,PM10,82,444,177
India,Odisha,Tensa,"Barsua Iron Ore Mines, Tensa - OSPCB",26-12-2025 08:00:00,21.869985,85.167016,PM2.5,NA,NA,NA
India,Odisha,Tensa,"Barsua Iron Ore Mines, Tensa - OSPCB",26-12-2025 08:00:00,21.869985,85.167016,NO2,NA,NA,NA
India,Odisha,Tensa,"Barsua Iron Ore Mines, Tensa - OSPCB",26-12-2025 08:00:00,21.869985,85.167016,CO,44,57,51
India,Puducherry,Puducherry,"Jawahar Nagar, Puducherry - PPCC",26-12-2025 08:00:00,11.9309,79.8027,OZONE,21,76,29
India,Punjab,Amritsar,"Golden Temple, Amritsar - PPCB",26-12-2025 08:00:00,31.620000,74.876512,NO2,5,79,34
India,Odisha,Byasanagar,"Ferro Chrome Colony, Byasanagar - OSPCB",26-12-2025 08:00:00,20.94185,86.11510,NO2,13,28,20
India,Odisha,Byasanagar,"Ferro Chrome Colony, Byasanagar - OSPCB",26-12-2025 08:00:00,20.94185,86.11510,OZONE,34,249,53
India,Odisha,Cuttack,"CDA Area, Cuttack - OSPCB",26-12-2025 08:00:00,20.48891     ,85.84768     ,PM10,101,286,167
India,Odisha,Cuttack,"CDA Area, Cuttack - OSPCB",26-12-2025 08:00:00,20.48891     ,85.84768     ,SO2,7,38,15
India,Odisha,Nayagarh,"Dabuna, Nayagarh - OSPCB",26-12-2025 08:00:00,21.847279,85.416905,NO2,9,10,10
India,Odisha,Bileipada,"Tata Township, Bileipada - OSPCB",26-12-2025 08:00:00,22.06156703,85.47409613,NO2,6,7,7
India,Odisha,Bileipada,"Tata Township, Bileipada - OSPCB",26-12-2025 08:00:00,22.06156703,85.47409613,OZONE,13,13,13
India,Odisha,Byasanagar,"Ferro Chrome Colony, Byasanagar - OSPCB",26-12-2025 08:00:00,20.94185,86.11510,PM10,132,208,162
India,Rajasthan,Bhilwara,"Pratap Nagar, Bhilwara - RSPCB",26-12-2025 08:00:00,25.339605,74.618883,PM10,52,167,93
India,Rajasthan,Bhilwara,"Pratap Nagar, Bhilwara - RSPCB",26-12-2025 08:00:00,25.339605,74.618883,OZONE,6,55,18
India,Rajasthan,Bhiwadi,"RIICO Ind. Area III, Bhiwadi - RSPCB",26-12-2025 08:00:00,28.194909,76.862296,PM2.5,107,438,285
India,Rajasthan,Kota,"Dhanmandi, Kota - RSPCB",26-12-2025 08:00:00,25.164090,75.858137,SO2,5,127,29
India,Rajasthan,Kota,"Nayapura, Kota - RSPCB",26-12-2025 08:00:00,25.196024,75.855668,PM2.5,80,305,149
India,Rajasthan,Kota,"Nayapura, Kota - RSPCB",26-12-2025 08:00:00,25.196024,75.855668,SO2,4,81,11
India,Rajasthan,Kota,"Nayapura, Kota - RSPCB",26-12-2025 08:00:00,25.196024,75.855668,CO,3,110,62
India,Rajasthan,Kota,"Shrinath Puram, Kota - RSPCB",26-12-2025 08:00:00,25.14389,75.821256,PM2.5,143,330,236
India,Rajasthan,Kota,"Shrinath Puram, Kota - RSPCB",26-12-2025 08:00:00,25.14389,75.821256,SO2,5,90,23
India,Rajasthan,Nagaur,"Karni Colony, Nagaur - RSPCB",26-12-2025 08:00:00,27.213494,73.734444,PM2.5,10,378,102
India,Rajasthan,Nagaur,"Karni Colony, Nagaur - RSPCB",26-12-2025 08:00:00,27.213494,73.734444,SO2,3,18,6
India,Rajasthan,Nagaur,"Karni Colony, Nagaur - RSPCB",26-12-2025 08:00:00,27.213494,73.734444,CO,16,90,22
India,Rajasthan,Pali,"Indira Colony Vistar, Pali - RSPCB",26-12-2025 08:00:00,25.771061, 73.340227,PM2.5,47,275,122
India,Rajasthan,Pali,"Indira Colony Vistar, Pali - RSPCB",26-12-2025 08:00:00,25.771061, 73.340227,PM10,73,185,116
India,Rajasthan,Pali,"Indira Colony Vistar, Pali - RSPCB",26-12-2025 08:00:00,25.771061, 73.340227,NO2,29,81,43
India,Rajasthan,Pratapgarh,"Pragati Nagar, Pratapgarh - RSPCB",26-12-2025 08:00:00,24.041198,74.780702,PM2.5,45,153,83
India,Rajasthan,Pratapgarh,"Pragati Nagar, Pratapgarh - RSPCB",26-12-2025 08:00:00,24.041198,74.780702,CO,13,38,19
India,Rajasthan,Rajsamand,"Dhoinda, Rajsamand - RSPCB",26-12-2025 08:00:00,25.036360,73.883502,PM10,68,193,106
India,Rajasthan,Rajsamand,"Dhoinda, Rajsamand - RSPCB",26-12-2025 08:00:00,25.036360,73.883502,NO2,17,89,34
India,Rajasthan,Rajsamand,"Dhoinda, Rajsamand - RSPCB",26-12-2025 08:00:00,25.036360,73.883502,OZONE,9,185,18
India,Rajasthan,Jhunjhunu,"Indra Nagar, Jhunjhunu - RSPCB",26-12-2025 08:00:00,28.108988,75.386577,NO2,12,150,57
India,Rajasthan,Jhunjhunu,"Indra Nagar, Jhunjhunu - RSPCB",26-12-2025 08:00:00,28.108988,75.386577,OZONE,2,120,29
India,Rajasthan,Jodhpur,"Collectorate, Jodhpur - RSPCB",26-12-2025 08:00:00,26.268249,73.0193853,PM10,61,185,115
India,Rajasthan,Jodhpur,"Collectorate, Jodhpur - RSPCB",26-12-2025 08:00:00,26.268249,73.0193853,NH3,6,39,13
India,Rajasthan,Jodhpur,"Collectorate, Jodhpur - RSPCB",26-12-2025 08:00:00,26.268249,73.0193853,OZONE,10,67,30
India,Rajasthan,Jodhpur,"Digari Kalan, Jodhpur - RSPCB",26-12-2025 08:00:00,26.295810,73.082283,NO2,12,90,41
India,Rajasthan,Jodhpur,"Digari Kalan, Jodhpur - RSPCB",26-12-2025 08:00:00,26.295810,73.082283,OZONE,4,99,38
India,Rajasthan,Jaipur,"Police Commissionerate, Jaipur - RSPCB",26-12-2025 08:00:00,26.9164092,75.7994901,NH3,6,49,14
India,Rajasthan,Jaipur,"Police Commissionerate, Jaipur - RSPCB",26-12-2025 08:00:00,26.9164092,75.7994901,OZONE,14,74,18
India,Rajasthan,Jaipur,"RIICO Sitapura, Jaipur - RSPCB",26-12-2025 08:00:00,26.786682,75.827928,PM2.5,50,306,126
India,Rajasthan,Jaipur,"RIICO Sitapura, Jaipur - RSPCB",26-12-2025 08:00:00,26.786682,75.827928,NH3,3,6,5
India,Rajasthan,Jaipur,"Sector-2 Murlipura, Jaipur - RSPCB",26-12-2025 08:00:00,26.960669,75.771817,SO2,5,5,5
India,Rajasthan,Jaipur,"Shastri Nagar, Jaipur - RSPCB",26-12-2025 08:00:00,26.9502929,75.730943,PM2.5,40,281,128
India,Rajasthan,Jodhpur,"Mandor, Jodhpur - RSPCB",26-12-2025 08:00:00,26.358805,73.047444,CO,22,90,34
India,Rajasthan,Jodhpur,"Mandor, Jodhpur - RSPCB",26-12-2025 08:00:00,26.358805,73.047444,OZONE,12,95,39
India,Rajasthan,Jodhpur,"Samrat Ashok Udhyan, Jodhpur - RSPCB",26-12-2025 08:00:00,26.253384,72.976571,PM10,42,258,96
India,Rajasthan,Jodhpur,"Samrat Ashok Udhyan, Jodhpur - RSPCB",26-12-2025 08:00:00,26.253384,72.976571,OZONE,3,124,53
India,Rajasthan,Karauli,"Satyawati Vihar, Karauli - RSPCB",26-12-2025 08:00:00,26.506177,77.025989,NO2,25,74,39
India,Rajasthan,Kota,"Dhanmandi, Kota - RSPCB",26-12-2025 08:00:00,25.164090,75.858137,NH3,6,9,7
India,Rajasthan,Jaipur,"Shastri Nagar, Jaipur - RSPCB",26-12-2025 08:00:00,26.9502929,75.730943,CO,43,70,45
India,Rajasthan,Jaisalmer,"Sadar Bazar, Jaisalmer - RSPCB",26-12-2025 08:00:00,26.912329,70.909168,CO,18,117,31
India,Rajasthan,Jalore,"Mudtra Sili, Jalore - RSPCB",26-12-2025 08:00:00,25.344694,72.626208,PM2.5,32,302,112
India,Rajasthan,Jalore,"Mudtra Sili, Jalore - RSPCB",26-12-2025 08:00:00,25.344694,72.626208,NO2,29,136,70
India,Rajasthan,Jalore,"Mudtra Sili, Jalore - RSPCB",26-12-2025 08:00:00,25.344694,72.626208,NH3,2,6,4
India,Rajasthan,Jalore,"Mudtra Sili, Jalore - RSPCB",26-12-2025 08:00:00,25.344694,72.626208,SO2,1,8,4
India,Rajasthan,Churu,"Subash Chowk, Churu - RSPCB",26-12-2025 08:00:00,28.296139,74.961696,PM2.5,23,378,153
India,Rajasthan,Churu,"Subash Chowk, Churu - RSPCB",26-12-2025 08:00:00,28.296139,74.961696,PM10,60,500,218
India,Rajasthan,Churu,"Subash Chowk, Churu - RSPCB",26-12-2025 08:00:00,28.296139,74.961696,SO2,1,7,4
India,Rajasthan,Dausa,"Khatikan Mohalla, Dausa - RSPCB",26-12-2025 08:00:00,26.895552,76.334753,NO2,6,68,35
India,Rajasthan,Dholpur,"Raja Ganj, Dholpur - RSPCB",26-12-2025 08:00:00,26.699557,77.898881,NO2,15,76,43
India,Rajasthan,Sawai Madhopur,"Sahu Nagar, Sawai Madhopur - RSPCB",26-12-2025 08:00:00,26.031443,76.359327,SO2,1,6,3
India,Rajasthan,Sikar,"Radhakishan Pura, Sikar - RSPCB",26-12-2025 08:00:00,27.608912,75.153302,PM10,52,420,152
India,Rajasthan,Sikar,"Radhakishan Pura, Sikar - RSPCB",26-12-2025 08:00:00,27.608912,75.153302,SO2,3,8,5
India,Rajasthan,Sri Ganganagar,"Old City, Sri Ganganagar - RSPCB",26-12-2025 08:00:00,29.931624,73.864511,PM2.5,27,163,77
India,Rajasthan,Hanumangarh,"Housing Board, Hanumangarh - RSPCB",26-12-2025 08:00:00,29.610750,74.283608,CO,12,125,45
India,Rajasthan,Jaipur,"Adarsh Nagar, Jaipur - RSPCB",26-12-2025 08:00:00,26.902909,75.836858,PM10,52,153,106
India,Rajasthan,Jaipur,"Adarsh Nagar, Jaipur - RSPCB",26-12-2025 08:00:00,26.902909,75.836858,SO2,8,32,21
India,Rajasthan,Jaipur,"Mansarovar Sector-12, Jaipur - RSPCB",26-12-2025 08:00:00,26.843698,75.766894,CO,16,124,52
India,Telangana,Hyderabad,"IDA Pashamylaram, Hyderabad - TSPCB",26-12-2025 08:00:00,17.5316895,78.218939,SO2,7,21,13
India,Telangana,Hyderabad,"IITH Kandi, Hyderabad - TSPCB",26-12-2025 08:00:00,17.585705,78.126199,PM2.5,NA,NA,NA
India,Telangana,Hyderabad,"Kokapet, Hyderabad - TSPCB",26-12-2025 08:00:00,17.393559,78.339194,PM2.5,49,73,59
India,Telangana,Hyderabad,"Kokapet, Hyderabad - TSPCB",26-12-2025 08:00:00,17.393559,78.339194,NH3,2,3,3
India,Telangana,Hyderabad,"Kokapet, Hyderabad - TSPCB",26-12-2025 08:00:00,17.393559,78.339194,OZONE,15,33,16
India,Telangana,Hyderabad,"Kompally Municipal Office, Hyderabad - TSPCB",26-12-2025 08:00:00,17.544899,78.486949,PM10,66,83,76
India,Telangana,Hyderabad,"Kompally Municipal Office, Hyderabad - TSPCB",26-12-2025 08:00:00,17.544899,78.486949,NO2,12,19,13
India,TamilNadu,Karur,"Kamadenu Nagar, Karur - TNPCB",26-12-2025 08:00:00,10.967820,78.080882,NH3,3,3,3
India,TamilNadu,Karur,"Kamadenu Nagar, Karur - TNPCB",26-12-2025 08:00:00,10.967820,78.080882,SO2,14,15,15
India,TamilNadu,Perundurai,"SIPCOT Industrial Park, Perundurai - TNPCB",26-12-2025 08:00:00,11.258242,77.552761,PM2.5,60,108,81
India,TamilNadu,Perundurai,"SIPCOT Industrial Park, Perundurai - TNPCB",26-12-2025 08:00:00,11.258242,77.552761,NO2,12,15,13
India,TamilNadu,Perundurai,"SIPCOT Industrial Park, Perundurai - TNPCB",26-12-2025 08:00:00,11.258242,77.552761,NH3,2,3,2
India,TamilNadu,Thoothukudi,"Meelavittan, Thoothukudi - TNPCB",26-12-2025 08:00:00,8.816428 ,78.099039,CO,22,46,28
India,Rajasthan,Sri Ganganagar,"Old City, Sri Ganganagar - RSPCB",26-12-2025 08:00:00,29.931624,73.864511,PM10,53,457,188
India,Rajasthan,Tonk,"Shastri Nagar, Tonk - RSPCB",26-12-2025 08:00:00,26.159933,75.780517,PM2.5,43,342,157
India,Rajasthan,Tonk,"Shastri Nagar, Tonk - RSPCB",26-12-2025 08:00:00,26.159933,75.780517,SO2,2,5,3
India,Rajasthan,Tonk,"Shastri Nagar, Tonk - RSPCB",26-12-2025 08:00:00,26.159933,75.780517,OZONE,2,99,12
India,Rajasthan,Udaipur,"Ashok Nagar, Udaipur - RSPCB",26-12-2025 08:00:00,24.5886166,73.6321397,CO,16,80,22
India,Telangana,Hyderabad,"Central University, Hyderabad - TSPCB",26-12-2025 08:00:00,17.460103,78.334361,NH3,1,6,5
India,Telangana,Hyderabad,"ECIL Kapra, Hyderabad - TSPCB",26-12-2025 08:00:00,17.470431,78.566959,PM2.5,41,57,47
India,Telangana,Hyderabad,"ECIL Kapra, Hyderabad - TSPCB",26-12-2025 08:00:00,17.470431,78.566959,NO2,14,16,15
India,Telangana,Hyderabad,"ECIL Kapra, Hyderabad - TSPCB",26-12-2025 08:00:00,17.470431,78.566959,SO2,1,24,11
India,Telangana,Hyderabad,"ICRISAT Patancheru, Hyderabad - TSPCB",26-12-2025 08:00:00,17.518400,78.278777,OZONE,1,74,6
India,TamilNadu,Cuddalore,"Kudikadu, Cuddalore - TNPCB",26-12-2025 08:00:00,11.6829898,79.7532099,PM2.5,41,118,73
India,TamilNadu,Cuddalore,"Kudikadu, Cuddalore - TNPCB",26-12-2025 08:00:00,11.6829898,79.7532099,NO2,19,19,19
India,TamilNadu,Cuddalore,"Semmandalam, Cuddalore - TNPCB",26-12-2025 08:00:00,11.7637683,79.7499835,PM2.5,56,246,130
India,TamilNadu,Gummidipoondi,"Anthoni Pillai Nagar, Gummidipoondi - TNPCB",26-12-2025 08:00:00,13.4127,80.1081,NH3,3,3,3
India,Telangana,Hyderabad,"Somajiguda, Hyderabad - TSPCB",26-12-2025 08:00:00,17.417094,78.457437,NO2,13,17,14
India,Telangana,Hyderabad,"Zoo Park, Hyderabad - TSPCB",26-12-2025 08:00:00,17.349694,78.451437,NO2,9,37,21
India,Tripura,Agartala,"Bardowali, Agartala - Tripura SPCB",26-12-2025 08:00:00,23.8175497,91.2726974,PM2.5,6,59,24
India,Tripura,Agartala,"Bardowali, Agartala - Tripura SPCB",26-12-2025 08:00:00,23.8175497,91.2726974,PM10,29,53,41
India,TamilNadu,Chennai,"Arumbakkam, Chennai - TNPCB",26-12-2025 08:00:00,13.0664,80.2112 ,NH3,1,3,2
India,TamilNadu,Chennai,"Manali Village, Chennai - TNPCB",26-12-2025 08:00:00,13.1662,80.2584,PM2.5,6,221,90
India,TamilNadu,Chennai,"Manali, Chennai - CPCB",26-12-2025 08:00:00,13.164544,80.26285,SO2,8,21,14
India,TamilNadu,Chennai,"Royapuram, Chennai - TNPCB",26-12-2025 08:00:00,13.1036,80.2909,PM2.5,38,177,84
India,TamilNadu,Chennai,"Royapuram, Chennai - TNPCB",26-12-2025 08:00:00,13.1036,80.2909,NO2,8,48,18
India,TamilNadu,Chennai,"Royapuram, Chennai - TNPCB",26-12-2025 08:00:00,13.1036,80.2909,NH3,4,7,5
India,Telangana,Hyderabad,"Ramachandrapuram, Hyderabad - TSPCB",26-12-2025 08:00:00,17.528544,78.286195,NH3,2,3,2
India,Telangana,Hyderabad,"Ramachandrapuram, Hyderabad - TSPCB",26-12-2025 08:00:00,17.528544,78.286195,SO2,10,19,14
India,Uttar_Pradesh,Bareilly,"Civil Lines, Bareilly - UPPCB",26-12-2025 08:00:00,28.359581,79.414455,PM2.5,8,54,34
India,Uttar_Pradesh,Bareilly,"Civil Lines, Bareilly - UPPCB",26-12-2025 08:00:00,28.359581,79.414455,NH3,1,13,3
India,Uttar_Pradesh,Bareilly,"Rajendra Nagar, Bareilly - UPPCB",26-12-2025 08:00:00,28.38910936,79.42963708,NO2,9,10,9
India,Uttar_Pradesh,Bareilly,"Rajendra Nagar, Bareilly - UPPCB",26-12-2025 08:00:00,28.38910936,79.42963708,NH3,1,1,1
India,Uttar_Pradesh,Bareilly,"Rajendra Nagar, Bareilly - UPPCB",26-12-2025 08:00:00,28.38910936,79.42963708,SO2,35,38,36
India,Uttar_Pradesh,Bulandshahr,"Yamunapuram, Bulandshahr - UPPCB",26-12-2025 08:00:00,28.406963,77.849831,NH3,17,26,20
India,Uttar_Pradesh,Firozabad,"Nagla Bhau, Firozabad - UPPCB",26-12-2025 08:00:00,27.168897,78.376960,PM2.5,15,99,58
India,Uttar_Pradesh,Firozabad,"Nagla Bhau, Firozabad - UPPCB",26-12-2025 08:00:00,27.168897,78.376960,PM10,21,126,78
India,Uttar_Pradesh,Firozabad,"Nagla Bhau, Firozabad - UPPCB",26-12-2025 08:00:00,27.168897,78.376960,OZONE,5,6,6
India,Uttar_Pradesh,Firozabad,"Vibhab Nagar, Firozabad - UPPCB",26-12-2025 08:00:00,27.1594,78.3953,PM10,19,132,72
India,Uttar_Pradesh,Hapur,"Anand Vihar, Hapur - UPPCB",26-12-2025 08:00:00,28.725645,77.749675,SO2,7,53,29
India,Uttar_Pradesh,Hapur,"Anand Vihar, Hapur - UPPCB",26-12-2025 08:00:00,28.725645,77.749675,CO,11,94,83
India,Uttar_Pradesh,Jhansi,"Shivaji Nagar, Jhansi - UPPCB",26-12-2025 08:00:00,25.4547,78.6039,PM10,17,81,42
India,Uttar_Pradesh,Jhansi,"Shivaji Nagar, Jhansi - UPPCB",26-12-2025 08:00:00,25.4547,78.6039,NH3,4,4,4
India,Uttar_Pradesh,Jhansi,"Shivaji Nagar, Jhansi - UPPCB",26-12-2025 08:00:00,25.4547,78.6039,SO2,13,16,14
India,Uttar_Pradesh,Jhansi,"Shivaji Nagar, Jhansi - UPPCB",26-12-2025 08:00:00,25.4547,78.6039,CO,8,43,25
India,Uttar_Pradesh,Kanpur,"FTI Kidwai Nagar, Kanpur - UPPCB",26-12-2025 08:00:00,26.428282,80.327067,PM10,44,175,95
India,Uttar_Pradesh,Kanpur,"FTI Kidwai Nagar, Kanpur - UPPCB",26-12-2025 08:00:00,26.428282,80.327067,CO,36,57,49
India,Uttar_Pradesh,Kanpur,"NSI Kalyanpur, Kanpur - UPPCB",26-12-2025 08:00:00,26.509954,80.249612,NO2,22,23,22
India,Uttar_Pradesh,Kanpur,"NSI Kalyanpur, Kanpur - UPPCB",26-12-2025 08:00:00,26.509954,80.249612,NH3,3,3,3
India,Uttar_Pradesh,Agra,"Manoharpur, Agra - UPPCB",26-12-2025 08:00:00,27.23711,78.01936,PM10,47,286,122
India,Uttar_Pradesh,Agra,"Manoharpur, Agra - UPPCB",26-12-2025 08:00:00,27.23711,78.01936,NO2,24,24,24
India,Uttar_Pradesh,Agra,"Manoharpur, Agra - UPPCB",26-12-2025 08:00:00,27.23711,78.01936,CO,20,24,23
India,Uttar_Pradesh,Agra,"Rohta, Agra - UPPCB",26-12-2025 08:00:00,27.106972,78.000111,SO2,5,30,16
India,Uttar_Pradesh,Agra,"Rohta, Agra - UPPCB",26-12-2025 08:00:00,27.106972,78.000111,OZONE,13,15,15
India,Uttar_Pradesh,Agra,"Sanjay Palace, Agra - UPPCB",26-12-2025 08:00:00,27.19865833,78.00598056,NO2,3,17,9
India,Uttar_Pradesh,Agra,"Sanjay Palace, Agra - UPPCB",26-12-2025 08:00:00,27.19865833,78.00598056,OZONE,4,6,5
India,Uttar_Pradesh,Agra,"Sector-3B Avas Vikas Colony, Agra - UPPCB",26-12-2025 08:00:00,27.19412,77.96237,PM2.5,14,423,197
India,Uttar_Pradesh,Ghaziabad,"Vasundhara, Ghaziabad - UPPCB",26-12-2025 08:00:00,28.6603346,77.3572563,CO,6,122,108
India,Uttar_Pradesh,Gorakhpur,"Madan Mohan Malaviya University of Technology, Gorakhpur - UPPCB",26-12-2025 08:00:00,26.730136,83.433859,PM2.5,56,120,72
India,Uttar_Pradesh,Gorakhpur,"Madan Mohan Malaviya University of Technology, Gorakhpur - UPPCB",26-12-2025 08:00:00,26.730136,83.433859,PM10,33,126,87
India,Uttar_Pradesh,Gorakhpur,"Madan Mohan Malaviya University of Technology, Gorakhpur - UPPCB",26-12-2025 08:00:00,26.730136,83.433859,CO,5,7,6
India,Uttar_Pradesh,Gorakhpur,"Madan Mohan Malaviya University of Technology, Gorakhpur - UPPCB",26-12-2025 08:00:00,26.730136,83.433859,OZONE,2,7,4
India,Uttar_Pradesh,Greater Noida,"Knowledge Park - III, Greater Noida - UPPCB",26-12-2025 08:00:00,28.47272,77.482000,OZONE,4,121,4
India,Uttar_Pradesh,Lucknow,"Kukrail Picnic Spot-1, Lucknow - UPPCB",26-12-2025 08:00:00,26.90723,80.98579,NH3,6,6,6
India,Uttar_Pradesh,Lucknow,"Lalbagh, Lucknow - CPCB",26-12-2025 08:00:00,26.8458805,80.9365541,NO2,36,40,38
India,Uttar_Pradesh,Lucknow,"Lalbagh, Lucknow - CPCB",26-12-2025 08:00:00,26.8458805,80.9365541,CO,25,100,56
India,Uttar_Pradesh,Lucknow,"Talkatora District Industries Center, Lucknow - CPCB",26-12-2025 08:00:00,26.83399722,80.8917361,OZONE,9,53,13
India,Uttar_Pradesh,Agra,"Shahjahan Garden, Agra - UPPCB",26-12-2025 08:00:00,27.169338,78.03582,PM2.5,4,314,129
India,Uttar_Pradesh,Agra,"Shahjahan Garden, Agra - UPPCB",26-12-2025 08:00:00,27.169338,78.03582,NH3,6,6,6
India,Uttar_Pradesh,Agra,"Shastripuram, Agra - UPPCB",26-12-2025 08:00:00,27.19862,77.92066,CO,14,60,46
India,Uttar_Pradesh,Baghpat,"Sardar Patel Inter College, Baghpat - UPPCB",26-12-2025 08:00:00,28.964949,77.278761,NH3,2,6,3
India,Uttar_Pradesh,Meerut,"Ganga Nagar, Meerut - UPPCB",26-12-2025 08:00:00,28.999264,77.7590354,CO,22,134,51
India,Uttar_Pradesh,Meerut,"Pallavpuram Phase 2, Meerut - UPPCB",26-12-2025 08:00:00,29.063510,77.709723,SO2,4,21,13
India,Uttar_Pradesh,Meerut,"Pallavpuram Phase 2, Meerut - UPPCB",26-12-2025 08:00:00,29.063510,77.709723,OZONE,6,87,14
India,Uttar_Pradesh,Lucknow,"B R Ambedkar University, Lucknow - UPPCB",26-12-2025 08:00:00,26.766433,80.927299,PM2.5,27,272,105
India,Uttar_Pradesh,Lucknow,"Gomti Nagar, Lucknow - UPPCB",26-12-2025 08:00:00,26.868120,81.005119,CO,28,34,28
India,Uttar_Pradesh,Lucknow,"Gomti Nagar, Lucknow - UPPCB",26-12-2025 08:00:00,26.868120,81.005119,OZONE,22,34,22
India,Uttar_Pradesh,Firozabad,"Vibhab Nagar, Firozabad - UPPCB",26-12-2025 08:00:00,27.1594,78.3953,SO2,14,30,22
India,Uttar_Pradesh,Ghaziabad,"Sanjay Nagar, Ghaziabad - UPPCB",26-12-2025 08:00:00,28.685382,77.453839,NH3,11,15,13
India,Uttar_Pradesh,Vrindavan,"Omex Eternity, Vrindavan - UPPCB",26-12-2025 08:00:00,27.5714090,77.6557570,PM10,35,235,84
India,Uttar_Pradesh,Vrindavan,"Omex Eternity, Vrindavan - UPPCB",26-12-2025 08:00:00,27.5714090,77.6557570,CO,26,115,85
India,Uttarakhand,Dehradun,"Doon University, Dehradun - UKPCB",26-12-2025 08:00:00,30.269444,78.044167,NO2,1,5,3
India,Uttarakhand,Kashipur,"Govt. Girls Inter College, Kashipur - UKPCB",26-12-2025 08:00:00,29.2124114,78.9611753,PM10,102,171,136
India,Uttarakhand,Kashipur,"Govt. Girls Inter College, Kashipur - UKPCB",26-12-2025 08:00:00,29.2124114,78.9611753,SO2,8,12,10
India,West_Bengal,Asansol,"Asansol Court Area, Asansol - WBPCB",26-12-2025 08:00:00,23.685297,86.945968,PM10,90,134,113
India,West_Bengal,Asansol,"Asansol Court Area, Asansol - WBPCB",26-12-2025 08:00:00,23.685297,86.945968,NH3,2,9,5
India,West_Bengal,Asansol,"Asansol Court Area, Asansol - WBPCB",26-12-2025 08:00:00,23.685297,86.945968,SO2,14,29,18
India,West_Bengal,Asansol,"Asansol Court Area, Asansol - WBPCB",26-12-2025 08:00:00,23.685297,86.945968,OZONE,13,38,17
India,West_Bengal,Asansol,"Evelyn Lodge, Asansol - WBPCB",26-12-2025 08:00:00,23.6979360,86.9443950,PM2.5,56,175,123
India,West_Bengal,Asansol,"Evelyn Lodge, Asansol - WBPCB",26-12-2025 08:00:00,23.6979360,86.9443950,SO2,4,8,6
India,West_Bengal,Asansol,"Mahabir Colliery, Asansol - WBPCB",26-12-2025 08:00:00,23.6181830,87.1057180,CO,NA,NA,NA
India,West_Bengal,Asansol,"Mahabir Colliery, Asansol - WBPCB",26-12-2025 08:00:00,23.6181830,87.1057180,OZONE,NA,NA,NA
India,West_Bengal,Asansol,"Trivenidevi Bhalotia College, Asansol - WBPCB",26-12-2025 08:00:00,23.616515,87.119133,NO2,17,45,28
India,West_Bengal,Asansol,"Trivenidevi Bhalotia College, Asansol - WBPCB",26-12-2025 08:00:00,23.616515,87.119133,OZONE,6,18,7
India,West_Bengal,Barrackpore,"SVSPA Campus, Barrackpore - WBPCB",26-12-2025 08:00:00,22.7605581,88.3617589,PM2.5,122,313,265
India,West_Bengal,Durgapur,"Mahishkapur Road_B-Zone, Durgapur - WBPCB",26-12-2025 08:00:00,23.567923,87.306843,NH3,2,2,2
India,West_Bengal,Durgapur,"Mahishkapur Road_B-Zone, Durgapur - WBPCB",26-12-2025 08:00:00,23.567923,87.306843,OZONE,17,78,28
India,West_Bengal,Durgapur,"PCBL Residential Complex, Durgapur - WBPCB",26-12-2025 08:00:00,23.5087640,87.3544400,CO,66,116,85
India,West_Bengal,Durgapur,"Womens College_City Center, Durgapur - WBPCB (Formerly known as Sidhu Kanhu Indoor Stadium)",26-12-2025 08:00:00,23.549395,87.300496,PM10,106,154,131
India,West_Bengal,Durgapur,"Womens College_City Center, Durgapur - WBPCB (Formerly known as Sidhu Kanhu Indoor Stadium)",26-12-2025 08:00:00,23.549395,87.300496,SO2,9,41,23
India,Uttar_Pradesh,Moradabad,"Eco Herbal Park, Moradabad - UPPCB",26-12-2025 08:00:00,28.840739,78.697531,PM10,81,190,134
India,Uttar_Pradesh,Moradabad,"Eco Herbal Park, Moradabad - UPPCB",26-12-2025 08:00:00,28.840739,78.697531,SO2,7,16,11
India,Uttar_Pradesh,Moradabad,"Eco Herbal Park, Moradabad - UPPCB",26-12-2025 08:00:00,28.840739,78.697531,CO,4,74,18
India,Uttar_Pradesh,Moradabad,"Employment Office, Moradabad - UPPCB",26-12-2025 08:00:00,28.88528,78.73880,PM10,59,210,120
India,Uttar_Pradesh,Moradabad,"Employment Office, Moradabad - UPPCB",26-12-2025 08:00:00,28.88528,78.73880,NO2,16,16,16
India,Uttar_Pradesh,Moradabad,"Employment Office, Moradabad - UPPCB",26-12-2025 08:00:00,28.88528,78.73880,OZONE,15,16,15
India,Uttar_Pradesh,Moradabad,"Kashiram Nagar, Moradabad - UPPCB",26-12-2025 08:00:00,28.849399,78.742362,NO2,25,25,25
India,Uttar_Pradesh,Varanasi,"Ardhali Bazar, Varanasi - UPPCB",26-12-2025 08:00:00,25.3505986,82.9083074,SO2,9,12,10
India,Uttar_Pradesh,Varanasi,"Bhelupur, Varanasi - UPPCB",26-12-2025 08:00:00,25.301778,82.996789,PM2.5,41,293,106
India,Uttar_Pradesh,Varanasi,"IESD Banaras Hindu University, Varanasi - UPPCB",26-12-2025 08:00:00,25.262326,82.995408,PM2.5,17,137,57
India,Uttar_Pradesh,Varanasi,"IESD Banaras Hindu University, Varanasi - UPPCB",26-12-2025 08:00:00,25.262326,82.995408,OZONE,5,38,18
India,Uttar_Pradesh,Varanasi,"Maldahiya, Varanasi - UPPCB",26-12-2025 08:00:00,25.32393,82.99687,SO2,28,29,28
India,Uttar_Pradesh,Varanasi,"Maldahiya, Varanasi - UPPCB",26-12-2025 08:00:00,25.32393,82.99687,CO,14,39,34
India,Uttar_Pradesh,Prayagraj,"Jhunsi, Prayagraj - UPPCB",26-12-2025 08:00:00,25.425602,81.917152,PM2.5,42,300,117
India,Uttar_Pradesh,Prayagraj,"Jhunsi, Prayagraj - UPPCB",26-12-2025 08:00:00,25.425602,81.917152,NO2,6,6,6
India,Uttar_Pradesh,Prayagraj,"Jhunsi, Prayagraj - UPPCB",26-12-2025 08:00:00,25.425602,81.917152,CO,30,104,69
India,Uttar_Pradesh,Prayagraj,"Motilal Nehru NIT, Prayagraj - UPPCB",26-12-2025 08:00:00,25.494,81.863,PM10,40,154,83
India,Uttar_Pradesh,Prayagraj,"Motilal Nehru NIT, Prayagraj - UPPCB",26-12-2025 08:00:00,25.494,81.863,NH3,8,8,8
India,Uttar_Pradesh,Prayagraj,"Nagar Nigam, Prayagraj - UPPCB",26-12-2025 08:00:00,25.44919916 ,81.82735986 ,CO,36,134,97
India,Uttar_Pradesh,Moradabad,"Kashiram Nagar, Moradabad - UPPCB",26-12-2025 08:00:00,28.849399,78.742362,SO2,113,133,121
India,Uttar_Pradesh,Muzaffarnagar,"New Mandi, Muzaffarnagar - UPPCB",26-12-2025 08:00:00,29.4723508,77.7194031,SO2,NA,NA,NA
India,Uttar_Pradesh,Noida,"Sector - 125, Noida - UPPCB",26-12-2025 08:00:00,28.5447608,77.3231257,PM10,103,500,352
India,Uttar_Pradesh,Noida,"Sector - 125, Noida - UPPCB",26-12-2025 08:00:00,28.5447608,77.3231257,NO2,26,121,70
India,West_Bengal,Haldia,"Priyambada Housing Estate, Haldia - WBPCB",26-12-2025 08:00:00,22.06047,88.109737,CO,43,98,70
India,West_Bengal,Howrah,"Belur Math, Howrah - WBPCB",26-12-2025 08:00:00,22.629801,88.352017,NO2,55,167,103
India,West_Bengal,Howrah,"Dasnagar, Howrah - WBPCB",26-12-2025 08:00:00,22.6025571,88.3105664,CO,24,113,77
India,Uttar_Pradesh,Noida,"Sector-1, Noida - UPPCB",26-12-2025 08:00:00,28.5898,77.3101,PM10,138,500,308
India,Uttar_Pradesh,Noida,"Sector-1, Noida - UPPCB",26-12-2025 08:00:00,28.5898,77.3101,SO2,NA,NA,NA
India,Uttar_Pradesh,Noida,"Sector-1, Noida - UPPCB",26-12-2025 08:00:00,28.5898,77.3101,CO,32,107,78
India,Uttar_Pradesh,Noida,"Sector-116, Noida - UPPCB",26-12-2025 08:00:00,28.569230,77.393848,NH3,19,34,26
India,West_Bengal,Howrah,"Ghusuri, Howrah - WBPCB",26-12-2025 08:00:00,22.611968,88.347422,NO2,51,53,52
India,West_Bengal,Howrah,"Ghusuri, Howrah - WBPCB",26-12-2025 08:00:00,22.611968,88.347422,NH3,6,6,6
India,West_Bengal,Howrah,"Padmapukur, Howrah - WBPCB",26-12-2025 08:00:00,22.5687319,88.2797276,PM10,174,420,281
India,West_Bengal,Howrah,"Padmapukur, Howrah - WBPCB",26-12-2025 08:00:00,22.5687319,88.2797276,NH3,2,2,2
India,West_Bengal,Howrah,"Padmapukur, Howrah - WBPCB",26-12-2025 08:00:00,22.5687319,88.2797276,OZONE,3,91,5
India,West_Bengal,Kolkata,"Ballygunge, Kolkata - WBPCB",26-12-2025 08:00:00,22.5367507,88.3638022,PM2.5,131,249,183
India,West_Bengal,Kolkata,"Ballygunge, Kolkata - WBPCB",26-12-2025 08:00:00,22.5367507,88.3638022,NH3,7,10,8
India,West_Bengal,Kolkata,"Bidhannagar, Kolkata - WBPCB",26-12-2025 08:00:00,22.58157048,88.41002457,SO2,NA,NA,NA
India,West_Bengal,Kolkata,"Jadavpur, Kolkata - WBPCB",26-12-2025 08:00:00,22.49929,88.36917,PM10,137,254,186
India,West_Bengal,Kolkata,"Jadavpur, Kolkata - WBPCB",26-12-2025 08:00:00,22.49929,88.36917,NO2,20,101,50
India,West_Bengal,Kolkata,"Jadavpur, Kolkata - WBPCB",26-12-2025 08:00:00,22.49929,88.36917,NH3,6,14,9
India,West_Bengal,Kolkata,"Jadavpur, Kolkata - WBPCB",26-12-2025 08:00:00,22.49929,88.36917,SO2,9,11,10
India,West_Bengal,Kolkata,"Rabindra Sarobar, Kolkata - WBPCB",26-12-2025 08:00:00,22.51106,88.35142,NH3,8,35,14
India,West_Bengal,Kolkata,"Rabindra Sarobar, Kolkata - WBPCB",26-12-2025 08:00:00,22.51106,88.35142,SO2,3,30,10
India,West_Bengal,Siliguri,"Ward-32 Bapupara, Siliguri - WBPCB",26-12-2025 08:00:00,26.6879226,88.4152495,PM2.5,68,304,137
India,Arunachal_Pradesh,Naharlagun,"Naharlagun, Naharlagun - APSPCB",26-12-2025 08:00:00,27.103358,93.679645,CO,10,61,19
India,Assam,Byrnihat,"Central Academy for SFS, Byrnihat - PCBA",26-12-2025 08:00:00,26.071318,91.87488,SO2,32,32,32
India,Assam,Guwahati,"LGBI Airport, Guwahati - PCBA",26-12-2025 08:00:00,26.10887,91.589544,PM2.5,34,140,79
India,Assam,Guwahati,"LGBI Airport, Guwahati - PCBA",26-12-2025 08:00:00,26.10887,91.589544,NO2,14,18,15
India,Assam,Guwahati,"LGBI Airport, Guwahati - PCBA",26-12-2025 08:00:00,26.10887,91.589544,CO,30,50,34
India,Assam,Guwahati,"Railway Colony, Guwahati - PCBA",26-12-2025 08:00:00,26.181742,91.78063,SO2,32,36,35
India,Andhra_Pradesh,Vijayawada,"Rajiv Gandhi Park, Vijayawada - APPCB",26-12-2025 08:00:00,16.509717,80.612222,SO2,NA,NA,NA
India,Andhra_Pradesh,Vijayawada,"Rajiv Nagar, Vijayawada - APPCB",26-12-2025 08:00:00,16.554731,80.649110,NO2,NA,NA,NA
India,Andhra_Pradesh,Vijayawada,"Rajiv Nagar, Vijayawada - APPCB",26-12-2025 08:00:00,16.554731,80.649110,CO,NA,NA,NA
India,Andhra_Pradesh,Visakhapatnam,"GVM Corporation, Visakhapatnam - APPCB",26-12-2025 08:00:00,17.72,83.3,PM10,149,408,207
India,Arunachal_Pradesh,Naharlagun,"Naharlagun, Naharlagun - APSPCB",26-12-2025 08:00:00,27.103358,93.679645,NO2,6,7,7
India,Arunachal_Pradesh,Naharlagun,"Naharlagun, Naharlagun - APSPCB",26-12-2025 08:00:00,27.103358,93.679645,SO2,9,10,9
India,Andaman and Nicobar,Sri Vijaya Puram,"Police Line, Sri Vijaya Puram - ANPCC",26-12-2025 08:00:00,11.654054,92.734055,NO2,11,32,16
India,Andaman and Nicobar,Sri Vijaya Puram,"Police Line, Sri Vijaya Puram - ANPCC",26-12-2025 08:00:00,11.654054,92.734055,NH3,6,9,7
India,Andhra_Pradesh,Amaravati,"Secretariat, Amaravati - APPCB",26-12-2025 08:00:00,16.5150833,80.5181667,NO2,24,93,46
India,Andhra_Pradesh,Amaravati,"Secretariat, Amaravati - APPCB",26-12-2025 08:00:00,16.5150833,80.5181667,CO,15,48,35
India,Andhra_Pradesh,Anantapur,"Gulzarpet, Anantapur - APPCB",26-12-2025 08:00:00,14.675886,77.593027,NO2,24,24,24
India,Andhra_Pradesh,Anantapur,"Gulzarpet, Anantapur - APPCB",26-12-2025 08:00:00,14.675886,77.593027,NH3,5,5,5
India,Andhra_Pradesh,Chittoor,"Gangineni Cheruvu, Chittoor - APPCB",26-12-2025 08:00:00,13.204880,79.097889,OZONE,51,59,54
India,Andhra_Pradesh,Kadapa,"Yerramukkapalli, Kadapa - APPCB",26-12-2025 08:00:00,14.465052,78.824187,PM10,42,139,94
India,Andhra_Pradesh,Kadapa,"Yerramukkapalli, Kadapa - APPCB",26-12-2025 08:00:00,14.465052,78.824187,NO2,23,23,23
India,Andhra_Pradesh,Rajamahendravaram,"Anand Kala Kshetram, Rajamahendravaram - APPCB",26-12-2025 08:00:00,16.9872867,81.7363176,PM10,116,187,151
India,Andhra_Pradesh,Rajamahendravaram,"Anand Kala Kshetram, Rajamahendravaram - APPCB",26-12-2025 08:00:00,16.9872867,81.7363176,OZONE,10,32,14
India,Assam,Nagaon,"Christianpatty, Nagaon - PCBA",26-12-2025 08:00:00,26.349082,92.68449,NH3,4,4,4
India,Assam,Nalbari,"Bata Chowk, Nalbari - PCBA",26-12-2025 08:00:00,26.446912,91.439057,PM2.5,90,177,114
India,Assam,Silchar,"Tarapur, Silchar - PCBA",26-12-2025 08:00:00,24.82827,92.79525,NH3,1,2,1
India,Assam,Silchar,"Tarapur, Silchar - PCBA",26-12-2025 08:00:00,24.82827,92.79525,SO2,5,7,6
India,Assam,Sivasagar,"Girls College, Sivasagar - PCBA",26-12-2025 08:00:00,26.987634,94.636574,SO2,6,8,7
India,Bihar,Begusarai,"Lohiyanagar, Begusarai - BSPCB",26-12-2025 08:00:00,25.42742023,86.13886079,OZONE,8,15,11
India,Bihar,Bettiah,"Kamalnath Nagar, Bettiah - BSPCB",26-12-2025 08:00:00,26.80365,84.51954,SO2,14,37,22
India,Bihar,Bhagalpur,"Mayaganj, Bhagalpur - BSPCB",26-12-2025 08:00:00,25.265194,87.012947,PM2.5,67,150,102
India,Bihar,Bhagalpur,"Mayaganj, Bhagalpur - BSPCB",26-12-2025 08:00:00,25.265194,87.012947,PM10,80,133,109
India,Bihar,Bhagalpur,"Mayaganj, Bhagalpur - BSPCB",26-12-2025 08:00:00,25.265194,87.012947,NH3,10,12,11
India,Bihar,Araria,"Kharahiya Basti, Araria - BSPCB",26-12-2025 08:00:00,26.146529,87.454184,OZONE,10,10,10
India,Bihar,Arrah,"New DM Office, Arrah - BSPCB",26-12-2025 08:00:00,25.5626095,84.663264,PM2.5,NA,NA,NA
India,Bihar,Arrah,"New DM Office, Arrah - BSPCB",26-12-2025 08:00:00,25.5626095,84.663264,NH3,NA,NA,NA
India,Bihar,Begusarai,"Lohiyanagar, Begusarai - BSPCB",26-12-2025 08:00:00,25.42742023,86.13886079,PM2.5,86,229,154
India,Andhra_Pradesh,Tirupati,"Vaikuntapuram, Tirupati - APPCB",26-12-2025 08:00:00,13.615387,79.409230,PM2.5,18,306,91
India,Andhra_Pradesh,Vijayawada,"Kanuru, Vijayawada - APPCB",26-12-2025 08:00:00,16.486692,80.699436,NO2,31,68,41
India,Andhra_Pradesh,Vijayawada,"Kanuru, Vijayawada - APPCB",26-12-2025 08:00:00,16.486692,80.699436,CO,44,55,50
India,Andhra_Pradesh,Vijayawada,"Kanuru, Vijayawada - APPCB",26-12-2025 08:00:00,16.486692,80.699436,OZONE,26,26,26
India,Andaman and Nicobar,Sri Vijaya Puram,"Police Line, Sri Vijaya Puram - ANPCC",26-12-2025 08:00:00,11.654054,92.734055,PM2.5,31,43,36
India,Andhra_Pradesh,Vijayawada,"Rajiv Gandhi Park, Vijayawada - APPCB",26-12-2025 08:00:00,16.509717,80.612222,PM2.5,NA,NA,NA
India,Bihar,Saharsa,"Police Line, Saharsa - BSPCB",26-12-2025 08:00:00,25.892357,86.590325,NO2,5,8,7
India,Bihar,Samastipur,"DM Office_Kasipur, Samastipur - BSPCB",26-12-2025 08:00:00,25.859655,85.77944,NO2,6,9,8
India,Bihar,Sasaram,"Dada Peer, Sasaram - BSPCB",26-12-2025 08:00:00,24.952822,84.002396,SO2,2,5,4
India,Bihar,Sasaram,"Dada Peer, Sasaram - BSPCB",26-12-2025 08:00:00,24.952822,84.002396,CO,38,72,51
India,Bihar,Siwan,"Chitragupta Nagar, Siwan - BSPCB",26-12-2025 08:00:00,26.2271665,84.3570427,SO2,10,10,10
India,Bihar,Siwan,"Chitragupta Nagar, Siwan - BSPCB",26-12-2025 08:00:00,26.2271665,84.3570427,OZONE,18,18,18
India,Chandigarh,Chandigarh,"Sector 22, Chandigarh - CPCC",26-12-2025 08:00:00,30.735567,76.775714,PM2.5,87,339,253
India,Chhattisgarh,Bhilai,"Hathkhoj, Bhilai - CECB",26-12-2025 08:00:00,21.224231,81.408350,NO2,24,91,50
India,Chhattisgarh,Bhilai,"Hathkhoj, Bhilai - CECB",26-12-2025 08:00:00,21.224231,81.408350,NH3,2,6,4
India,Chhattisgarh,Bilaspur,"Mangala, Bilaspur - NTPC",26-12-2025 08:00:00,22.08815,82.13737,PM10,46,129,79
India,Chhattisgarh,Bilaspur,"Mangala, Bilaspur - NTPC",26-12-2025 08:00:00,22.08815,82.13737,CO,26,95,51
India,Chhattisgarh,Chhal,"Nawapara SECL Colony, Chhal - CECB",26-12-2025 08:00:00,22.118125,83.140608,PM2.5,30,78,45
India,Chhattisgarh,Chhal,"Nawapara SECL Colony, Chhal - CECB",26-12-2025 08:00:00,22.118125,83.140608,SO2,NA,NA,NA
India,Chhattisgarh,Chhal,"Nawapara SECL Colony, Chhal - CECB",26-12-2025 08:00:00,22.118125,83.140608,OZONE,4,156,9
India,Bihar,Katihar,"Mirchaibari, Katihar - BSPCB",26-12-2025 08:00:00,25.560083,87.553265,PM10,80,180,115
India,Bihar,Kishanganj,"SDM Office_Khagra, Kishanganj - BSPCB",26-12-2025 08:00:00,26.0881305,87.93840336,SO2,5,7,6
India,Bihar,Manguraha,"Forest Rest House, Manguraha - BSPCB",26-12-2025 08:00:00,27.308328,84.531742,NH3,1,2,1
India,Bihar,Motihari,"Gandak Colony, Motihari - BSPCB",26-12-2025 08:00:00,26.63086,84.90051,PM10,37,266,131
India,Bihar,Motihari,"Gandak Colony, Motihari - BSPCB",26-12-2025 08:00:00,26.63086,84.90051,OZONE,3,8,3
India,Bihar,Buxar,"Charitra Van, Buxar - BSPCB",26-12-2025 08:00:00,25.567520,83.966379,PM2.5,60,153,88
India,Bihar,Gaya,"Collectorate, Gaya - BSPCB",26-12-2025 08:00:00,24.7955,84.9994,PM2.5,60,303,109
India,Bihar,Gaya,"Collectorate, Gaya - BSPCB",26-12-2025 08:00:00,24.7955,84.9994,SO2,4,14,9
India,Bihar,Gaya,"Collectorate, Gaya - BSPCB",26-12-2025 08:00:00,24.7955,84.9994,CO,12,64,55
India,Bihar,Gaya,"Kareemganj, Gaya - BSPCB",26-12-2025 08:00:00,24.792403,84.992416,NO2,2,7,5
India,Bihar,Patna,"DRM Office Danapur, Patna - BSPCB",26-12-2025 08:00:00,25.586562,85.043586,OZONE,16,41,31
India,Bihar,Patna,"Govt. High School Shikarpur, Patna - BSPCB",26-12-2025 08:00:00,25.592539,85.227158,PM10,82,210,141
India,Bihar,Patna,"IGSC Planetarium Complex, Patna - BSPCB",26-12-2025 08:00:00,25.610369,85.132568,NO2,1,22,17
India,Bihar,Patna,"IGSC Planetarium Complex, Patna - BSPCB",26-12-2025 08:00:00,25.610369,85.132568,CO,24,76,76
India,Bihar,Muzaffarpur,"Buddha Colony, Muzaffarpur - BSPCB",26-12-2025 08:00:00,26.11442,85.39813,NO2,18,35,23
India,Bihar,Muzaffarpur,"Buddha Colony, Muzaffarpur - BSPCB",26-12-2025 08:00:00,26.11442,85.39813,NH3,5,7,5
India,Bihar,Muzaffarpur,"Buddha Colony, Muzaffarpur - BSPCB",26-12-2025 08:00:00,26.11442,85.39813,OZONE,15,89,25
India,Bihar,Muzaffarpur,"MIT-Daudpur Kothi, Muzaffarpur - BSPCB",26-12-2025 08:00:00,26.1403345,85.3650192,PM2.5,87,140,97
India,Chandigarh,Chandigarh,"Sector 22, Chandigarh - CPCC",26-12-2025 08:00:00,30.735567,76.775714,NO2,29,86,56
India,Chandigarh,Chandigarh,"Sector-53, Chandigarh - CPCC",26-12-2025 08:00:00,30.719859,76.738637,OZONE,NA,NA,NA
India,Chhattisgarh,Bhilai,"32Bungalows, Bhilai - CECB",26-12-2025 08:00:00,21.194815,81.314770,PM2.5,10,24,16
India,Bihar,Purnia,"Mariam Nagar, Purnia - BSPCB",26-12-2025 08:00:00,25.366336,87.117468,OZONE,21,42,24
India,Bihar,Rajgir,"Dangi Tola, Rajgir - BSPCB",26-12-2025 08:00:00,25.03280,85.41948,PM10,NA,NA,NA
India,Bihar,Rajgir,"Dangi Tola, Rajgir - BSPCB",26-12-2025 08:00:00,25.03280,85.41948,SO2,18,23,21
India,Bihar,Rajgir,"Dangi Tola, Rajgir - BSPCB",26-12-2025 08:00:00,25.03280,85.41948,CO,79,98,88
India,Bihar,Hajipur,"Industrial Area, Hajipur - BSPCB",26-12-2025 08:00:00,25.697189,85.245900,PM2.5,137,307,214
India,Bihar,Hajipur,"Industrial Area, Hajipur - BSPCB",26-12-2025 08:00:00,25.697189,85.245900,OZONE,7,61,14
India,Chhattisgarh,Korba,"Rampur, Korba - CECB",26-12-2025 08:00:00,22.368195,82.746431,NO2,9,36,17
India,Chhattisgarh,Korba,"Rampur, Korba - CECB",26-12-2025 08:00:00,22.368195,82.746431,OZONE,1,28,5
India,Chhattisgarh,Kunjemura,"OP Jindal School, Kunjemura - CECB",26-12-2025 08:00:00,22.126650,83.483212,PM10,23,145,65
India,Chhattisgarh,Kunjemura,"OP Jindal School, Kunjemura - CECB",26-12-2025 08:00:00,22.126650,83.483212,NO2,13,66,34
India,Chhattisgarh,Milupara,"Govt. Higher Secondary School, Milupara - CECB",26-12-2025 08:00:00,22.1910172,83.5197009,PM2.5,31,82,45
India,Chhattisgarh,Milupara,"Govt. Higher Secondary School, Milupara - CECB",26-12-2025 08:00:00,22.1910172,83.5197009,NO2,19,44,26
India,Chhattisgarh,Milupara,"Govt. Higher Secondary School, Milupara - CECB",26-12-2025 08:00:00,22.1910172,83.5197009,NH3,NA,NA,NA
India,Chhattisgarh,Raipur,"AIIMS, Raipur - CECB",26-12-2025 08:00:00,21.258815,81.578979,PM2.5,37,139,74
India,Chhattisgarh,Raipur,"AIIMS, Raipur - CECB",26-12-2025 08:00:00,21.258815,81.578979,NO2,64,81,74
India,Chhattisgarh,Raipur,"AIIMS, Raipur - CECB",26-12-2025 08:00:00,21.258815,81.578979,NH3,5,5,5
India,Chhattisgarh,Raipur,"AIIMS, Raipur - CECB",26-12-2025 08:00:00,21.258815,81.578979,SO2,4,31,7
India,Delhi,Delhi,"Chandni Chowk, Delhi - IITM",26-12-2025 08:00:00,28.656756,77.227234,PM2.5,171,500,354
India,Delhi,Delhi,"Chandni Chowk, Delhi - IITM",26-12-2025 08:00:00,28.656756,77.227234,SO2,16,52,37
India,Delhi,Delhi,"Chandni Chowk, Delhi - IITM",26-12-2025 08:00:00,28.656756,77.227234,CO,107,115,113
India,Delhi,Delhi,"DTU, Delhi - CPCB",26-12-2025 08:00:00,28.7500499,77.1112615,PM10,105,455,277
India,Delhi,Delhi,"DTU, Delhi - CPCB",26-12-2025 08:00:00,28.7500499,77.1112615,NH3,7,8,8
India,Delhi,Delhi,"DTU, Delhi - CPCB",26-12-2025 08:00:00,28.7500499,77.1112615,SO2,30,32,31
India,Delhi,Delhi,"Dr. Karni Singh Shooting Range, Delhi - DPCC",26-12-2025 08:00:00,28.498571,77.264840,PM10,129,446,240
India,Delhi,Delhi,"Dr. Karni Singh Shooting Range, Delhi - DPCC",26-12-2025 08:00:00,28.498571,77.264840,SO2,10,28,14
India,Chhattisgarh,Raipur,"AIIMS, Raipur - CECB",26-12-2025 08:00:00,21.258815,81.578979,CO,32,96,83
India,Chhattisgarh,Raipur,"Bhatagaon New ISBT, Raipur - CECB",26-12-2025 08:00:00,21.219665,81.630094,PM2.5,13,74,44
India,Chhattisgarh,Raipur,"Bhatagaon New ISBT, Raipur - CECB",26-12-2025 08:00:00,21.219665,81.630094,PM10,21,91,55
India,Chhattisgarh,Raipur,"Krishak Nagar, Raipur - CECB",26-12-2025 08:00:00,21.237755,81.705301,NO2,20,24,23
India,Chhattisgarh,Raipur,"Krishak Nagar, Raipur - CECB",26-12-2025 08:00:00,21.237755,81.705301,CO,22,52,45
India,Chhattisgarh,Raipur,"Siltara Phase-II, Raipur - CECB",26-12-2025 08:00:00,21.371751,81.664929,SO2,3,5,4
India,Chhattisgarh,Tumidih,"OP Jindal Industrial Park, Tumidih - CECB",26-12-2025 08:00:00,22.06631475,83.33820077,SO2,5,8,6
India,Chhattisgarh,Tumidih,"OP Jindal Industrial Park, Tumidih - CECB",26-12-2025 08:00:00,22.06631475,83.33820077,OZONE,3,111,8
India,Delhi,Delhi,"Alipur, Delhi - DPCC",26-12-2025 08:00:00,28.815329,77.153010,NH3,1,2,1
India,Delhi,Delhi,"Alipur, Delhi - DPCC",26-12-2025 08:00:00,28.815329,77.153010,SO2,9,19,12
India,Delhi,Delhi,"Anand Vihar, Delhi - DPCC",26-12-2025 08:00:00,28.647622,77.3158090,SO2,33,46,40
India,Delhi,Delhi,"Lodhi Road, Delhi - IMD",26-12-2025 08:00:00,28.5918245,77.2273074,PM2.5,89,369,209
India,Delhi,Delhi,"Major Dhyan Chand National Stadium, Delhi - DPCC",26-12-2025 08:00:00,28.611281,77.237738,PM10,118,319,205
India,Delhi,Delhi,"Major Dhyan Chand National Stadium, Delhi - DPCC",26-12-2025 08:00:00,28.611281,77.237738,NO2,43,130,75
India,Delhi,Delhi,"Mandir Marg, Delhi - DPCC",26-12-2025 08:00:00,28.636429,77.201067,PM2.5,5,443,223
India,Delhi,Delhi,"Mandir Marg, Delhi - DPCC",26-12-2025 08:00:00,28.636429,77.201067,OZONE,13,86,18
India,Delhi,Delhi,"IGI Airport (T3), Delhi - IMD",26-12-2025 08:00:00,28.5627763,77.1180053,NO2,53,132,94
India,Delhi,Delhi,"IHBAS, Dilshad Garden, Delhi - CPCB",26-12-2025 08:00:00,28.6811736,77.3025234,PM2.5,100,479,331
India,Delhi,Delhi,"IHBAS, Dilshad Garden, Delhi - CPCB",26-12-2025 08:00:00,28.6811736,77.3025234,NH3,15,23,18
India,Delhi,Delhi,"IHBAS, Dilshad Garden, Delhi - CPCB",26-12-2025 08:00:00,28.6811736,77.3025234,OZONE,16,19,17
India,Delhi,Delhi,"IIT Delhi, Delhi - IITM",26-12-2025 08:00:00,28.542460,77.191651,NO2,38,108,59
India,Delhi,Delhi,"NSIT Dwarka, Delhi - CPCB",26-12-2025 08:00:00,28.60909,77.0325413,NO2,49,113,77
India,Delhi,Delhi,"NSIT Dwarka, Delhi - CPCB",26-12-2025 08:00:00,28.60909,77.0325413,CO,54,101,72
India,Delhi,Delhi,"Narela, Delhi - DPCC",26-12-2025 08:00:00,28.822836,77.101981,NH3,6,10,9
India,Delhi,Delhi,"Narela, Delhi - DPCC",26-12-2025 08:00:00,28.822836,77.101981,SO2,12,24,19
India,Delhi,Delhi,"ITO, Delhi - CPCB",26-12-2025 08:00:00,28.628624,77.241060,SO2,22,37,30
India,Delhi,Delhi,"Jawaharlal Nehru Stadium, Delhi - DPCC",26-12-2025 08:00:00,28.580280,77.233829,CO,28,154,133
India,Delhi,Delhi,"Bawana, Delhi - DPCC",26-12-2025 08:00:00,28.776200,77.051074,CO,60,126,108
India,Delhi,Delhi,"Burari Crossing, Delhi - IMD",26-12-2025 08:00:00,28.7256504,77.2011573,NO2,46,189,105
India,Gujarat,Vatva,"Phase-4 GIDC, Vatva - GPCB",26-12-2025 08:00:00,22.969611,72.643500,PM10,44,500,141
India,Gujarat,Vatva,"Phase-4 GIDC, Vatva - GPCB",26-12-2025 08:00:00,22.969611,72.643500,SO2,49,58,53
India,Haryana,Ambala,"Patti Mehar, Ambala - HSPCB",26-12-2025 08:00:00,30.379589,76.778328,PM2.5,61,185,101
India,Haryana,Ambala,"Patti Mehar, Ambala - HSPCB",26-12-2025 08:00:00,30.379589,76.778328,NH3,9,11,10
India,Haryana,Ambala,"Patti Mehar, Ambala - HSPCB",26-12-2025 08:00:00,30.379589,76.778328,SO2,31,32,31
India,Haryana,Ambala,"Patti Mehar, Ambala - HSPCB",26-12-2025 08:00:00,30.379589,76.778328,OZONE,47,52,50
India,Haryana,Bahadurgarh,"Arya Nagar, Bahadurgarh - HSPCB",26-12-2025 08:00:00,28.6701,76.9254,PM2.5,11,500,331
India,Haryana,Ballabgarh,"Nathu Colony, Ballabgarh - HSPCB",26-12-2025 08:00:00,28.3419248,77.319699,PM10,126,301,206
India,Haryana,Ballabgarh,"Nathu Colony, Ballabgarh - HSPCB",26-12-2025 08:00:00,28.3419248,77.319699,NO2,19,21,20
India,Haryana,Ballabgarh,"Nathu Colony, Ballabgarh - HSPCB",26-12-2025 08:00:00,28.3419248,77.319699,NH3,3,3,3
India,Haryana,Ballabgarh,"Nathu Colony, Ballabgarh - HSPCB",26-12-2025 08:00:00,28.3419248,77.319699,SO2,3,6,5
India,Haryana,Ballabgarh,"Nathu Colony, Ballabgarh - HSPCB",26-12-2025 08:00:00,28.3419248,77.319699,CO,15,100,49
India,Haryana,Bhiwani,"H.B. Colony, Bhiwani - HSPCB",26-12-2025 08:00:00,28.806223,76.141105,NH3,1,9,8
India,Haryana,Charkhi Dadri,"Mini Secretariat, Charkhi Dadri - HSPCB",26-12-2025 08:00:00,28.593883,76.270653,PM2.5,102,418,239
India,Haryana,Charkhi Dadri,"Mini Secretariat, Charkhi Dadri - HSPCB",26-12-2025 08:00:00,28.593883,76.270653,NH3,5,9,6
India,Haryana,Dharuhera,"Municipal Corporation Office, Dharuhera -  HSPCB",26-12-2025 08:00:00,28.206800,76.799700,OZONE,3,33,4
India,Delhi,Delhi,"Patparganj, Delhi - DPCC",26-12-2025 08:00:00,28.623763,77.287209,CO,102,179,156
India,Delhi,Delhi,"Punjabi Bagh, Delhi - DPCC",26-12-2025 08:00:00,28.674045,77.131023,NH3,5,7,6
India,Delhi,Delhi,"Punjabi Bagh, Delhi - DPCC",26-12-2025 08:00:00,28.674045,77.131023,SO2,1,12,4
India,Delhi,Delhi,"Punjabi Bagh, Delhi - DPCC",26-12-2025 08:00:00,28.674045,77.131023,CO,38,123,80
India,Delhi,Delhi,"Pusa, Delhi - DPCC",26-12-2025 08:00:00,28.639652,77.146275,NO2,28,123,87
India,Delhi,Delhi,"Pusa, Delhi - DPCC",26-12-2025 08:00:00,28.639652,77.146275,SO2,5,21,9
India,Delhi,Delhi,"Pusa, Delhi - DPCC",26-12-2025 08:00:00,28.639652,77.146275,OZONE,3,12,5
India,Delhi,Delhi,"Pusa, Delhi - IMD",26-12-2025 08:00:00,28.636110,77.173332,PM2.5,NA,NA,NA
India,Delhi,Delhi,"R K Puram, Delhi - DPCC",26-12-2025 08:00:00,28.563262,77.186937,PM2.5,120,500,320
India,Delhi,Delhi,"Sonia Vihar, Delhi - DPCC",26-12-2025 08:00:00,28.710508,77.249485,SO2,1,22,8
India,Delhi,Delhi,"Sri Aurobindo Marg, Delhi - DPCC",26-12-2025 08:00:00,28.531346,77.190156,PM2.5,78,423,258
India,Delhi,Delhi,"Sri Aurobindo Marg, Delhi - DPCC",26-12-2025 08:00:00,28.531346,77.190156,SO2,4,12,10
India,Delhi,Delhi,"Sri Aurobindo Marg, Delhi - DPCC",26-12-2025 08:00:00,28.531346,77.190156,OZONE,NA,NA,NA
India,Delhi,Delhi,"Vivek Vihar, Delhi - DPCC",26-12-2025 08:00:00,28.672342,77.315260,NO2,31,119,64
India,Delhi,Delhi,"Vivek Vihar, Delhi - DPCC",26-12-2025 08:00:00,28.672342,77.315260,OZONE,3,149,3
India,Delhi,Delhi,"Wazirpur, Delhi - DPCC",26-12-2025 08:00:00,28.699793,77.165453,PM2.5,107,500,355
India,Delhi,Delhi,"Wazirpur, Delhi - DPCC",26-12-2025 08:00:00,28.699793,77.165453,PM10,144,500,343
India,Delhi,Delhi,"Wazirpur, Delhi - DPCC",26-12-2025 08:00:00,28.699793,77.165453,SO2,3,14,8
India,Gujarat,Ahmedabad,"SVPI Airport Hansol, Ahmedabad - IITM",26-12-2025 08:00:00,23.076793,72.627874,PM10,69,136,110
India,Gujarat,Ahmedabad,"SVPI Airport Hansol, Ahmedabad - IITM",26-12-2025 08:00:00,23.076793,72.627874,NO2,30,172,94
India,Gujarat,Ahmedabad,"SVPI Airport Hansol, Ahmedabad - IITM",26-12-2025 08:00:00,23.076793,72.627874,NH3,4,8,6
India,Gujarat,Ahmedabad,"SVPI Airport Hansol, Ahmedabad - IITM",26-12-2025 08:00:00,23.076793,72.627874,SO2,4,13,7
India,Gujarat,Gandhinagar,"GIFT City, Gandhinagar - IITM",26-12-2025 08:00:00,23.163798,72.677768,PM2.5,25,55,35
India,Gujarat,Gandhinagar,"GIFT City, Gandhinagar - IITM",26-12-2025 08:00:00,23.163798,72.677768,SO2,5,12,8
India,Gujarat,Gandhinagar,"IIPHG Lekawada, Gandhinagar - IITM",26-12-2025 08:00:00,23.243639,72.68994,PM2.5,47,145,95
India,Gujarat,Gandhinagar,"IIPHG Lekawada, Gandhinagar - IITM",26-12-2025 08:00:00,23.243639,72.68994,NH3,2,3,2
India,Gujarat,Gandhinagar,"IIPHG Lekawada, Gandhinagar - IITM",26-12-2025 08:00:00,23.243639,72.68994,CO,2,68,51
India,Gujarat,Gandhinagar,"Sector-10, Gandhinagar - GPCB",26-12-2025 08:00:00,23.221714,72.654328,NO2,17,37,23
India,Gujarat,Gandhinagar,"Sector-10, Gandhinagar - GPCB",26-12-2025 08:00:00,23.221714,72.654328,SO2,6,14,11
India,Gujarat,Gandhinagar,"Sector-10, Gandhinagar - GPCB",26-12-2025 08:00:00,23.221714,72.654328,OZONE,4,66,10
India,Gujarat,Surat,"Science Center, Surat - SMC",26-12-2025 08:00:00,21.170046,72.795405,NO2,NA,NA,NA
India,Gujarat,Surat,"Science Center, Surat - SMC",26-12-2025 08:00:00,21.170046,72.795405,CO,38,42,41
India,Delhi,Delhi,"Rohini, Delhi - DPCC",26-12-2025 08:00:00,28.732528,77.119920,PM10,119,500,322
India,Delhi,Delhi,"Shadipur, Delhi - CPCB",26-12-2025 08:00:00,28.6514781,77.1473105,PM10,151,483,311
India,Delhi,Delhi,"Shadipur, Delhi - CPCB",26-12-2025 08:00:00,28.6514781,77.1473105,SO2,1,36,22
India,Delhi,Delhi,"Sirifort, Delhi - CPCB",26-12-2025 08:00:00,28.5504249,77.2159377,CO,11,149,139
India,Delhi,Delhi,"Sirifort, Delhi - CPCB",26-12-2025 08:00:00,28.5504249,77.2159377,OZONE,8,23,8
India,Delhi,Delhi,"Sonia Vihar, Delhi - DPCC",26-12-2025 08:00:00,28.710508,77.249485,PM2.5,143,500,362
India,Gujarat,Ahmedabad,"Gyaspur, Ahmedabad - IITM",26-12-2025 08:00:00,22.977134,72.553024,CO,19,109,87
India,Gujarat,Ahmedabad,"Raikhad, Ahmedabad - IITM",26-12-2025 08:00:00,23.020509,72.579261,PM10,102,148,125
India,Gujarat,Ahmedabad,"SAC ISRO Satellite, Ahmedabad - IITM",26-12-2025 08:00:00,23.023389,72.515201,PM10,55,88,71
India,Haryana,Gurugram,"NISE Gwal Pahari, Gurugram - IMD",26-12-2025 08:00:00,28.422681,77.148944,PM10,109,287,171
India,Haryana,Gurugram,"NISE Gwal Pahari, Gurugram - IMD",26-12-2025 08:00:00,28.422681,77.148944,NO2,119,280,169
India,Haryana,Gurugram,"Sector-51, Gurugram - HSPCB",26-12-2025 08:00:00,28.4227,77.0667,PM10,119,500,317
India,Haryana,Gurugram,"Teri Gram, Gurugram - HSPCB",26-12-2025 08:00:00,28.4275,77.1465,PM10,72,208,141
India,Haryana,Gurugram,"Teri Gram, Gurugram - HSPCB",26-12-2025 08:00:00,28.4275,77.1465,NH3,11,21,15
India,Haryana,Gurugram,"Vikas Sadan, Gurugram - HSPCB",26-12-2025 08:00:00,28.4501238,77.0263051,PM10,NA,NA,NA
India,Haryana,Gurugram,"Vikas Sadan, Gurugram - HSPCB",26-12-2025 08:00:00,28.4501238,77.0263051,NO2,NA,NA,NA
India,Haryana,Narnaul,"Shastri Nagar, Narnaul - HSPCB",26-12-2025 08:00:00,28.060249,76.113115,SO2,4,7,6
India,Haryana,Palwal,"Shyam Nagar, Palwal - HSPCB",26-12-2025 08:00:00,28.1485564,77.3320667,PM10,29,117,71
India,Haryana,Palwal,"Shyam Nagar, Palwal - HSPCB",26-12-2025 08:00:00,28.1485564,77.3320667,OZONE,13,17,14
India,Haryana,Panchgaon,"Amity University, Panchgaon - IITM",26-12-2025 08:00:00,28.3153,76.9143,PM10,36,175,68
India,Haryana,Panipat,"Sector-18, Panipat - HSPCB",26-12-2025 08:00:00,29.432304,76.972765,PM10,131,480,298
India,Haryana,Faridabad,"Sector 11, Faridabad - HSPCB",26-12-2025 08:00:00,28.376058,77.315741,PM2.5,43,403,253
India,Haryana,Faridabad,"Sector 11, Faridabad - HSPCB",26-12-2025 08:00:00,28.376058,77.315741,OZONE,14,16,15
India,Haryana,Faridabad,"Sector 30, Faridabad - HSPCB",26-12-2025 08:00:00,28.4417,77.3217,PM2.5,220,224,222
India,Haryana,Faridabad,"Sector 30, Faridabad - HSPCB",26-12-2025 08:00:00,28.4417,77.3217,SO2,6,6,6
India,Haryana,Fatehabad,"Huda Sector, Fatehabad - HSPCB",26-12-2025 08:00:00,29.503664,75.467934,NO2,18,20,19
India,Haryana,Fatehabad,"Huda Sector, Fatehabad - HSPCB",26-12-2025 08:00:00,29.503664,75.467934,SO2,10,11,11
India,Haryana,Panipat,"Sector-18, Panipat - HSPCB",26-12-2025 08:00:00,29.432304,76.972765,OZONE,30,30,30
India,Haryana,Rohtak,"MD University, Rohtak - HSPCB",26-12-2025 08:00:00,28.52123,76.37138,SO2,NA,NA,NA
India,Haryana,Sirsa,"F-Block, Sirsa - HSPCB",26-12-2025 08:00:00,29.536400,75.015800,OZONE,35,55,47
India,Haryana,Sonipat,"Murthal, Sonipat - HSPCB",26-12-2025 08:00:00,29.027200,77.062100,SO2,5,11,8
India,Haryana,Sonipat,"Murthal, Sonipat - HSPCB",26-12-2025 08:00:00,29.027200,77.062100,OZONE,25,26,26
India,Himachal Pradesh,Baddi,"HIMUDA Complex Phase-1, Baddi - HPPCB",26-12-2025 08:00:00,30.943887,76.801991,OZONE,5,96,7
India,Jharkhand,Dhanbad,"Sardar Patel Nagar, Dhanbad - JSPCB",26-12-2025 08:00:00,23.80569,86.44268,CO,2,24,6
India,Jharkhand,Dhanbad,"Sardar Patel Nagar, Dhanbad - JSPCB",26-12-2025 08:00:00,23.80569,86.44268,OZONE,NA,NA,NA
India,Karnataka,Bagalkot,"Vidayagiri, Bagalkot - KSPCB",26-12-2025 08:00:00,16.172806,75.659694,CO,6,38,22
India,Karnataka,Belgaum,"Ramteerth Nagar, Belgaum - KSPCB",26-12-2025 08:00:00,15.888653,74.541751,PM2.5,42,250,88
India,Karnataka,Belgaum,"Ramteerth Nagar, Belgaum - KSPCB",26-12-2025 08:00:00,15.888653,74.541751,PM10,55,186,99
India,Karnataka,Belgaum,"Ramteerth Nagar, Belgaum - KSPCB",26-12-2025 08:00:00,15.888653,74.541751,SO2,22,24,23
India,Karnataka,Belgaum,"Ramteerth Nagar, Belgaum - KSPCB",26-12-2025 08:00:00,15.888653,74.541751,CO,2,8,4
India,Karnataka,Bengaluru,"BTM Layout, Bengaluru - CPCB",26-12-2025 08:00:00,12.9135218,77.5950804,NO2,NA,NA,NA
India,Haryana,Hisar,"Urban Estate-II, Hisar - HSPCB",26-12-2025 08:00:00,29.140560,75.744941,NO2,26,27,27
India,Haryana,Jind,"Police Lines, Jind - HSPCB",26-12-2025 08:00:00,29.307814,76.337619,OZONE,4,38,5
India,Haryana,Karnal,"Sector-12, Karnal - HSPCB",26-12-2025 08:00:00,29.695300,77.002700,PM2.5,81,166,116
India,Haryana,Karnal,"Sector-12, Karnal - HSPCB",26-12-2025 08:00:00,29.695300,77.002700,SO2,6,7,6
India,Karnataka,Bengaluru,"Hombegowda Nagar, Bengaluru - KSPCB",26-12-2025 08:00:00,12.938539,77.590100,PM10,33,100,66
India,Karnataka,Bengaluru,"Hombegowda Nagar, Bengaluru - KSPCB",26-12-2025 08:00:00,12.938539,77.590100,NO2,13,57,24
India,Karnataka,Bengaluru,"Hombegowda Nagar, Bengaluru - KSPCB",26-12-2025 08:00:00,12.938539,77.590100,SO2,7,23,14
India,Karnataka,Bengaluru,"Jayanagar 5th Block, Bengaluru - KSPCB",26-12-2025 08:00:00,12.920984,77.584908,SO2,1,30,10
India,Haryana,Mandikhera,"General Hospital, Mandikhera(Nuh) - HSPCB",26-12-2025 08:00:00,27.9002,76.9938,PM10,62,129,105
India,Haryana,Manesar,"Sector-2 IMT, Manesar - HSPCB",26-12-2025 08:00:00,28.360699,76.936090,PM2.5,76,377,235
India,Haryana,Manesar,"Sector-2 IMT, Manesar - HSPCB",26-12-2025 08:00:00,28.360699,76.936090,SO2,6,21,15
India,Madhya Pradesh,Gwalior,"Maharaj Bada, Gwalior - MPPCB",26-12-2025 08:00:00,26.200388,78.147714,PM10,45,240,116
India,Madhya Pradesh,Gwalior,"Maharaj Bada, Gwalior - MPPCB",26-12-2025 08:00:00,26.200388,78.147714,NH3,6,6,6
India,Madhya Pradesh,Gwalior,"Maharaj Bada, Gwalior - MPPCB",26-12-2025 08:00:00,26.200388,78.147714,SO2,5,11,8
India,Madhya Pradesh,Indore,"Airport Area, Indore - IMC",26-12-2025 08:00:00,22.7289,75.8076,PM2.5,30,118,59
