country,state,city,station,last_update,latitude,longitude,pollutant_id,min_value,max_value,avg_value
India,Bihar,Bhagalpur,"Mayaganj, Bhagalpur - BSPCB",26-09-2025 07:00:00,25.265194,87.012947,CO,6,97,14
India,Bihar,Bhagalpur,"Mayaganj, Bhagalpur - BSPCB",26-09-2025 07:00:00,25.265194,87.012947,OZONE,4,59,9
India,Bihar,Bihar Sharif,"D M Colony, Bihar Sharif - BSPCB",26-09-2025 07:00:00,25.204762,85.514960,PM10,71,104,90
India,Bihar,Buxar,"Charitra Van, Buxar - BSPCB",26-09-2025 07:00:00,25.567520,83.966379,PM10,70,72,71
India,Bihar,Buxar,"Charitra Van, Buxar - BSPCB",26-09-2025 07:00:00,25.567520,83.966379,NH3,3,3,3
India,Bihar,Chhapra,"Darshan Nagar, Chhapra - BSPCB",26-09-2025 07:00:00,25.7808257,84.7446768,PM2.5,8,312,97
India,Bihar,Gaya,"Kareemganj, Gaya - BSPCB",26-09-2025 07:00:00,24.792403,84.992416,SO2,15,18,16
India,Assam,Guwahati,"Railway Colony, Guwahati - PCBA",26-09-2025 07:00:00,26.181742,91.78063,PM2.5,8,124,56
India,Assam,Nalbari,"Bata Chowk, Nalbari - PCBA",26-09-2025 07:00:00,26.446912,91.439057,PM10,23,46,38
India,Assam,Nalbari,"Bata Chowk, Nalbari - PCBA",26-09-2025 07:00:00,26.446912,91.439057,CO,4,29,27
India,Assam,Silchar,"Tarapur, Silchar - PCBA",26-09-2025 07:00:00,24.82827,92.79525,PM2.5,34,37,35
India,Assam,Sivasagar,"Girls College, Sivasagar - PCBA",26-09-2025 07:00:00,26.987634,94.636574,OZONE,2,5,2
India,Andhra_Pradesh,Kadapa,"Yerramukkapalli, Kadapa - APPCB",26-09-2025 07:00:00,14.465052,78.824187,NO2,10,10,10
India,Andhra_Pradesh,Kadapa,"Yerramukkapalli, Kadapa - APPCB",26-09-2025 07:00:00,14.465052,78.824187,SO2,18,21,20
India,Andhra_Pradesh,Rajamahendravaram,"Anand Kala Kshetram, Rajamahendravaram - APPCB",26-09-2025 07:00:00,16.9872867,81.7363176,PM2.5,15,33,24
India,Andhra_Pradesh,Rajamahendravaram,"Anand Kala Kshetram, Rajamahendravaram - APPCB",26-09-2025 07:00:00,16.9872867,81.7363176,SO2,7,7,7
India,Andhra_Pradesh,Tirumala,"Toll Gate, Tirumala - APPCB",26-09-2025 07:00:00,13.67,79.35,NH3,1,2,1
India,Andhra_Pradesh,Vijayawada,"Rajiv Gandhi Park, Vijayawada - APPCB",26-09-2025 07:00:00,16.509717,80.612222,PM10,NA,NA,NA
India,Andhra_Pradesh,Vijayawada,"Rajiv Nagar, Vijayawada - APPCB",26-09-2025 07:00:00,16.554731,80.649110,SO2,NA,NA,NA
India,Andhra_Pradesh,Visakhapatnam,"GVM Corporation, Visakhapatnam - APPCB",26-09-2025 07:00:00,17.72,83.3,OZONE,14,68,35
India,Assam,Byrnihat,"Central Academy for SFS, Byrnihat - PCBA",26-09-2025 07:00:00,26.071318,91.87488,PM2.5,32,161,99
India,Bihar,Aurangabad,"Gurdeo Nagar, Aurangabad - BSPCB",26-09-2025 07:00:00,24.75746,84.366208,SO2,6,13,10
India,Bihar,Aurangabad,"Gurdeo Nagar, Aurangabad - BSPCB",26-09-2025 07:00:00,24.75746,84.366208,OZONE,5,8,7
India,Bihar,Bhagalpur,"DM Office_Kachari Chowk, Bhagalpur - BSPCB",26-09-2025 07:00:00,25.251013,86.989001,NO2,11,17,15
India,Bihar,Bhagalpur,"Mayaganj, Bhagalpur - BSPCB",26-09-2025 07:00:00,25.265194,87.012947,PM2.5,3,223,58
India,Assam,Byrnihat,"Central Academy for SFS, Byrnihat - PCBA",26-09-2025 07:00:00,26.071318,91.87488,NO2,3,8,6
India,Assam,Byrnihat,"Central Academy for SFS, Byrnihat - PCBA",26-09-2025 07:00:00,26.071318,91.87488,NH3,3,4,4
India,Assam,Guwahati,"IITG, Guwahati - PCBA",26-09-2025 07:00:00,26.2028636,91.70046436,NH3,5,5,5
India,Assam,Guwahati,"LGBI Airport, Guwahati - PCBA",26-09-2025 07:00:00,26.10887,91.589544,OZONE,11,49,12
India,Bihar,Gaya,"SFTI Kusdihra, Gaya - BSPCB",26-09-2025 07:00:00,24.762518,84.982348,SO2,7,9,8
India,Bihar,Gaya,"SFTI Kusdihra, Gaya - BSPCB",26-09-2025 07:00:00,24.762518,84.982348,CO,17,37,20
India,Bihar,Katihar,"Mirchaibari, Katihar - BSPCB",26-09-2025 07:00:00,25.560083,87.553265,PM10,29,31,30
India,Bihar,Katihar,"Mirchaibari, Katihar - BSPCB",26-09-2025 07:00:00,25.560083,87.553265,SO2,16,25,20
India,Andhra_Pradesh,Tirupati,"Vaikuntapuram, Tirupati - APPCB",26-09-2025 07:00:00,13.615387,79.409230,OZONE,NA,NA,NA
India,Andhra_Pradesh,Vijayawada,"HB Colony, Vijayawada - APPCB",26-09-2025 07:00:00,16.536107,80.594233,PM10,NA,NA,NA
India,Andhra_Pradesh,Vijayawada,"HB Colony, Vijayawada - APPCB",26-09-2025 07:00:00,16.536107,80.594233,CO,NA,NA,NA
India,Andhra_Pradesh,Amaravati,"Secretariat, Amaravati - APPCB",26-09-2025 07:00:00,16.5150833,80.5181667,NH3,4,5,4
India,Andhra_Pradesh,Anantapur,"Gulzarpet, Anantapur - APPCB",26-09-2025 07:00:00,14.675886,77.593027,NH3,5,5,5
India,Assam,Guwahati,"Pan Bazaar, Guwahati - PCBA",26-09-2025 07:00:00,26.187500,91.744194,PM10,5,57,25
India,Chandigarh,Chandigarh,"Sector-25, Chandigarh - CPCC",26-09-2025 07:00:00,30.751462,76.762879,NH3,5,8,6
India,Chandigarh,Chandigarh,"Sector-25, Chandigarh - CPCC",26-09-2025 07:00:00,30.751462,76.762879,CO,18,24,20
India,Chandigarh,Chandigarh,"Sector-25, Chandigarh - CPCC",26-09-2025 07:00:00,30.751462,76.762879,OZONE,10,46,14
India,Chhattisgarh,Bhilai,"32Bungalows, Bhilai - CECB",26-09-2025 07:00:00,21.194815,81.314770,PM10,16,55,34
India,Chhattisgarh,Bhilai,"32Bungalows, Bhilai - CECB",26-09-2025 07:00:00,21.194815,81.314770,SO2,7,9,8
India,Chhattisgarh,Bhilai,"Civic Center, Bhilai - Bhilai Steel Plant",26-09-2025 07:00:00,21.185571,81.343175,CO,36,38,38
India,Chhattisgarh,Bhilai,"Hathkhoj, Bhilai - CECB",26-09-2025 07:00:00,21.224231,81.408350,PM10,23,67,46
India,Chhattisgarh,Chhal,"Nawapara SECL Colony, Chhal - CECB",26-09-2025 07:00:00,22.118125,83.140608,PM2.5,2,40,20
India,Chhattisgarh,Chhal,"Nawapara SECL Colony, Chhal - CECB",26-09-2025 07:00:00,22.118125,83.140608,PM10,16,76,41
India,Bihar,Muzaffarpur,"MIT-Daudpur Kothi, Muzaffarpur - BSPCB",26-09-2025 07:00:00,26.1403345,85.3650192,PM2.5,41,57,47
India,Bihar,Muzaffarpur,"MIT-Daudpur Kothi, Muzaffarpur - BSPCB",26-09-2025 07:00:00,26.1403345,85.3650192,NH3,1,1,1
India,Bihar,Muzaffarpur,"MIT-Daudpur Kothi, Muzaffarpur - BSPCB",26-09-2025 07:00:00,26.1403345,85.3650192,OZONE,33,53,34
India,Bihar,Patna,"DRM Office Danapur, Patna - BSPCB",26-09-2025 07:00:00,25.586562,85.043586,PM2.5,22,70,49
India,Bihar,Patna,"DRM Office Danapur, Patna - BSPCB",26-09-2025 07:00:00,25.586562,85.043586,NO2,29,34,32
India,Bihar,Patna,"DRM Office Danapur, Patna - BSPCB",26-09-2025 07:00:00,25.586562,85.043586,SO2,7,11,9
India,Bihar,Patna,"DRM Office Danapur, Patna - BSPCB",26-09-2025 07:00:00,25.586562,85.043586,OZONE,30,65,36
India,Bihar,Patna,"Govt. High School Shikarpur, Patna - BSPCB",26-09-2025 07:00:00,25.592539,85.227158,PM2.5,25,77,45
India,Bihar,Rajgir,"Dangi Tola, Rajgir - BSPCB",26-09-2025 07:00:00,25.03280,85.41948,CO,78,98,89
India,Bihar,Samastipur,"DM Office_Kasipur, Samastipur - BSPCB",26-09-2025 07:00:00,25.859655,85.77944,SO2,25,29,27
India,Bihar,Sasaram,"Dada Peer, Sasaram - BSPCB",26-09-2025 07:00:00,24.952822,84.002396,PM2.5,NA,NA,NA
India,Bihar,Sasaram,"Dada Peer, Sasaram - BSPCB",26-09-2025 07:00:00,24.952822,84.002396,CO,42,60,51
India,Bihar,Siwan,"Chitragupta Nagar, Siwan - BSPCB",26-09-2025 07:00:00,26.2271665,84.3570427,NO2,1,1,1
India,Chhattisgarh,Chhal,"Nawapara SECL Colony, Chhal - CECB",26-09-2025 07:00:00,22.118125,83.140608,CO,18,40,28
India,Chhattisgarh,Korba,"Rampur, Korba - CECB",26-09-2025 07:00:00,22.368195,82.746431,PM10,13,15,13
India,Chhattisgarh,Korba,"Rampur, Korba - CECB",26-09-2025 07:00:00,22.368195,82.746431,NO2,4,7,6
India,Chhattisgarh,Kunjemura,"OP Jindal School, Kunjemura - CECB",26-09-2025 07:00:00,22.126650,83.483212,NH3,2,2,2
India,Chhattisgarh,Raipur,"AIIMS, Raipur - CECB",26-09-2025 07:00:00,21.258815,81.578979,SO2,10,16,12
India,Chhattisgarh,Raipur,"Krishak Nagar, Raipur - CECB",26-09-2025 07:00:00,21.237755,81.705301,PM10,NA,NA,NA
India,Chhattisgarh,Raipur,"Krishak Nagar, Raipur - CECB",26-09-2025 07:00:00,21.237755,81.705301,NO2,NA,NA,NA
India,Chhattisgarh,Raipur,"Krishak Nagar, Raipur - CECB",26-09-2025 07:00:00,21.237755,81.705301,SO2,NA,NA,NA
India,Chhattisgarh,Raipur,"Siltara Phase-II, Raipur - CECB",26-09-2025 07:00:00,21.371751,81.664929,SO2,5,10,7
India,Bihar,Purnia,"Mariam Nagar, Purnia - BSPCB",26-09-2025 07:00:00,25.366336,87.117468,PM10,21,120,53
India,Bihar,Purnia,"Mariam Nagar, Purnia - BSPCB",26-09-2025 07:00:00,25.366336,87.117468,OZONE,2,40,23
India,Bihar,Rajgir,"Dangi Tola, Rajgir - BSPCB",26-09-2025 07:00:00,25.03280,85.41948,PM10,96,98,97
India,Bihar,Patna,"Govt. High School Shikarpur, Patna - BSPCB",26-09-2025 07:00:00,25.592539,85.227158,SO2,7,50,13
India,Bihar,Patna,"Govt. High School Shikarpur, Patna - BSPCB",26-09-2025 07:00:00,25.592539,85.227158,CO,19,66,38
India,Bihar,Patna,"Muradpur, Patna - BSPCB",26-09-2025 07:00:00,25.619651,85.147382,PM2.5,47,94,58
India,Bihar,Kishanganj,"SDM Office_Khagra, Kishanganj - BSPCB",26-09-2025 07:00:00,26.0881305,87.93840336,PM2.5,NA,NA,NA
India,Bihar,Motihari,"Gandak Colony, Motihari - BSPCB",26-09-2025 07:00:00,26.63086,84.90051,CO,21,30,23
India,Bihar,Muzaffarpur,"Buddha Colony, Muzaffarpur - BSPCB",26-09-2025 07:00:00,26.11442,85.39813,NO2,11,21,15
India,Delhi,Delhi,"Dr. Karni Singh Shooting Range, Delhi - DPCC",26-09-2025 07:00:00,28.498571,77.264840,SO2,10,18,14
India,Delhi,Delhi,"Dr. Karni Singh Shooting Range, Delhi - DPCC",26-09-2025 07:00:00,28.498571,77.264840,CO,16,113,42
India,Delhi,Delhi,"Dwarka-Sector 8, Delhi - DPCC ",26-09-2025 07:00:00,28.5710274,77.0719006,PM10,79,178,120
India,Delhi,Delhi,"IGI Airport (T3), Delhi - IMD",26-09-2025 07:00:00,28.5627763,77.1180053,PM10,63,145,99
India,Delhi,Delhi,"IHBAS, Dilshad Garden, Delhi - CPCB",26-09-2025 07:00:00,28.6811736,77.3025234,PM2.5,58,80,70
India,Delhi,Delhi,"IHBAS, Dilshad Garden, Delhi - CPCB",26-09-2025 07:00:00,28.6811736,77.3025234,CO,38,68,52
India,Delhi,Delhi,"ITO, Delhi - CPCB",26-09-2025 07:00:00,28.628624,77.241060,PM10,65,114,91
India,Delhi,Delhi,"Jahangirpuri, Delhi - DPCC",26-09-2025 07:00:00,28.732820,77.170633,PM2.5,113,355,223
India,Delhi,Delhi,"Jahangirpuri, Delhi - DPCC",26-09-2025 07:00:00,28.732820,77.170633,NH3,5,7,6
India,Delhi,Delhi,"Jawaharlal Nehru Stadium, Delhi - DPCC",26-09-2025 07:00:00,28.580280,77.233829,CO,139,158,154
India,Delhi,Delhi,"Major Dhyan Chand National Stadium, Delhi - DPCC",26-09-2025 07:00:00,28.611281,77.237738,NO2,19,102,44
India,Delhi,Delhi,"Major Dhyan Chand National Stadium, Delhi - DPCC",26-09-2025 07:00:00,28.611281,77.237738,NH3,13,15,14
India,Delhi,Delhi,"Mandir Marg, Delhi - DPCC",26-09-2025 07:00:00,28.636429,77.201067,PM2.5,2,123,60
India,Delhi,Delhi,"Mandir Marg, Delhi - DPCC",26-09-2025 07:00:00,28.636429,77.201067,NH3,7,8,8
India,Delhi,Delhi,"Mandir Marg, Delhi - DPCC",26-09-2025 07:00:00,28.636429,77.201067,OZONE,1,108,18
India,Delhi,Delhi,"Bawana, Delhi - DPCC",26-09-2025 07:00:00,28.776200,77.051074,OZONE,7,53,11
India,Delhi,Delhi,"CRRI Mathura Road, Delhi - IMD",26-09-2025 07:00:00,28.5512005,77.2735737,CO,20,103,58
India,Delhi,Delhi,"DTU, Delhi - CPCB",26-09-2025 07:00:00,28.7500499,77.1112615,PM10,63,147,96
India,Delhi,Delhi,"DTU, Delhi - CPCB",26-09-2025 07:00:00,28.7500499,77.1112615,SO2,27,37,30
India,Delhi,Delhi,"Mundka, Delhi - DPCC",26-09-2025 07:00:00,28.684678,77.076574,OZONE,3,52,4
India,Delhi,Delhi,"Narela, Delhi - DPCC",26-09-2025 07:00:00,28.822836,77.101981,PM10,74,185,112
India,Delhi,Delhi,"Narela, Delhi - DPCC",26-09-2025 07:00:00,28.822836,77.101981,OZONE,4,26,12
India,Delhi,Delhi,"Nehru Nagar, Delhi - DPCC",26-09-2025 07:00:00,28.567890,77.250515,NH3,5,9,7
India,Delhi,Delhi,"Anand Vihar, Delhi - DPCC",26-09-2025 07:00:00,28.647622,77.3158090,NO2,13,70,37
India,Delhi,Delhi,"Ashok Vihar, Delhi - DPCC",26-09-2025 07:00:00,28.695381,77.181665,PM2.5,7,127,67
India,Delhi,Delhi,"Ashok Vihar, Delhi - DPCC",26-09-2025 07:00:00,28.695381,77.181665,NH3,1,1,1
India,Delhi,Delhi,"Ashok Vihar, Delhi - DPCC",26-09-2025 07:00:00,28.695381,77.181665,CO,38,71,53
India,Delhi,Delhi,"Patparganj, Delhi - DPCC",26-09-2025 07:00:00,28.623763,77.287209,NH3,5,7,6
India,Delhi,Delhi,"Punjabi Bagh, Delhi - DPCC",26-09-2025 07:00:00,28.674045,77.131023,CO,42,66,49
India,Delhi,Delhi,"Pusa, Delhi - DPCC",26-09-2025 07:00:00,28.639652,77.146275,NO2,57,103,82
India,Chhattisgarh,Tumidih,"OP Jindal Industrial Park, Tumidih - CECB",26-09-2025 07:00:00,22.06631475,83.33820077,NH3,1,2,2
India,Chhattisgarh,Tumidih,"OP Jindal Industrial Park, Tumidih - CECB",26-09-2025 07:00:00,22.06631475,83.33820077,CO,12,34,18
India,Chhattisgarh,Tumidih,"OP Jindal Industrial Park, Tumidih - CECB",26-09-2025 07:00:00,22.06631475,83.33820077,OZONE,4,24,4
India,Delhi,Delhi,"Bawana, Delhi - DPCC",26-09-2025 07:00:00,28.776200,77.051074,PM2.5,50,197,106
India,Delhi,Delhi,"Bawana, Delhi - DPCC",26-09-2025 07:00:00,28.776200,77.051074,NO2,4,39,14
India,Delhi,Delhi,"Bawana, Delhi - DPCC",26-09-2025 07:00:00,28.776200,77.051074,CO,47,82,60
India,Delhi,Delhi,"Dr. Karni Singh Shooting Range, Delhi - DPCC",26-09-2025 07:00:00,28.498571,77.264840,PM10,69,153,109
India,Gujarat,Vatva,"Phase-4 GIDC, Vatva - GPCB",26-09-2025 07:00:00,22.969611,72.643500,OZONE,8,19,11
India,Haryana,Panchgaon,"Amity University, Panchgaon - IITM",26-09-2025 07:00:00,28.3153,76.9143,PM10,46,93,68
India,Haryana,Panchgaon,"Amity University, Panchgaon - IITM",26-09-2025 07:00:00,28.3153,76.9143,CO,1,44,38
India,Haryana,Sirsa,"F-Block, Sirsa - HSPCB",26-09-2025 07:00:00,29.536400,75.015800,PM10,NA,NA,NA
India,Himachal Pradesh,Baddi,"HIMUDA Complex Phase-1, Baddi - HPPCB",26-09-2025 07:00:00,30.943887,76.801991,SO2,19,68,35
India,Himachal Pradesh,Baddi,"HIMUDA Complex Phase-1, Baddi - HPPCB",26-09-2025 07:00:00,30.943887,76.801991,OZONE,7,84,16
India,Jammu_and_Kashmir,Srinagar,"Rajbagh, Srinagar - JKSPCB",26-09-2025 07:00:00,34.066206,74.819820,CO,10,20,17
India,Gujarat,Gandhinagar,"GIFT City, Gandhinagar - IITM",26-09-2025 07:00:00,23.163798,72.677768,NO2,9,50,22
India,Gujarat,Gandhinagar,"GIFT City, Gandhinagar - IITM",26-09-2025 07:00:00,23.163798,72.677768,CO,28,72,53
India,Gujarat,Gandhinagar,"IIPHG Lekawada, Gandhinagar - IITM",26-09-2025 07:00:00,23.243639,72.68994,PM2.5,17,55,35
India,Gujarat,Gandhinagar,"IIPHG Lekawada, Gandhinagar - IITM",26-09-2025 07:00:00,23.243639,72.68994,NO2,3,11,6
India,Gujarat,Gandhinagar,"Sector-10, Gandhinagar - GPCB",26-09-2025 07:00:00,23.221714,72.654328,NO2,22,22,22
India,Gujarat,Nandesari,"GIDC, Nandesari - Nandesari Ind. Association",26-09-2025 07:00:00,22.410802,73.097923,PM10,51,279,151
India,Gujarat,Vapi,"Phase-1 GIDC, Vapi - GPCB",26-09-2025 07:00:00,20.362421,72.918013,SO2,44,48,46
India,Gujarat,Vapi,"Phase-1 GIDC, Vapi - GPCB",26-09-2025 07:00:00,20.362421,72.918013,OZONE,2,2,2
India,Delhi,Delhi,"Wazirpur, Delhi - DPCC",26-09-2025 07:00:00,28.699793,77.165453,NH3,6,9,8
India,Delhi,Delhi,"Wazirpur, Delhi - DPCC",26-09-2025 07:00:00,28.699793,77.165453,CO,23,50,28
India,Delhi,Delhi,"Wazirpur, Delhi - DPCC",26-09-2025 07:00:00,28.699793,77.165453,OZONE,10,51,16
India,Gujarat,Ahmedabad,"Chandkheda, Ahmedabad - IITM",26-09-2025 07:00:00,23.107969,72.574648,SO2,7,16,10
India,Gujarat,Ahmedabad,"Gyaspur, Ahmedabad - IITM",26-09-2025 07:00:00,22.977134,72.553024,PM2.5,9,76,31
India,Gujarat,Ahmedabad,"Gyaspur, Ahmedabad - IITM",26-09-2025 07:00:00,22.977134,72.553024,CO,37,56,42
India,Gujarat,Ahmedabad,"Maninagar, Ahmedabad - GPCB",26-09-2025 07:00:00,23.002657,72.591912,CO,30,53,37
India,Gujarat,Ahmedabad,"Raikhad, Ahmedabad - IITM",26-09-2025 07:00:00,23.020509,72.579261,PM10,44,115,78
India,Delhi,Delhi,"Sirifort, Delhi - CPCB",26-09-2025 07:00:00,28.5504249,77.2159377,OZONE,14,26,17
India,Delhi,Delhi,"Sonia Vihar, Delhi - DPCC",26-09-2025 07:00:00,28.710508,77.249485,PM10,63,127,92
India,Delhi,Delhi,"Sonia Vihar, Delhi - DPCC",26-09-2025 07:00:00,28.710508,77.249485,OZONE,4,41,7
India,Delhi,Delhi,"Vivek Vihar, Delhi - DPCC",26-09-2025 07:00:00,28.672342,77.315260,NO2,12,39,24
India,Delhi,Delhi,"Vivek Vihar, Delhi - DPCC",26-09-2025 07:00:00,28.672342,77.315260,CO,46,54,48
India,Delhi,Delhi,"Vivek Vihar, Delhi - DPCC",26-09-2025 07:00:00,28.672342,77.315260,OZONE,1,7,3
India,Delhi,Delhi,"Wazirpur, Delhi - DPCC",26-09-2025 07:00:00,28.699793,77.165453,PM10,111,181,136
India,Gujarat,Ahmedabad,"Rakhial, Ahmedabad - IITM",26-09-2025 07:00:00,23.016834,72.625775,SO2,14,112,39
India,Gujarat,Ahmedabad,"Rakhial, Ahmedabad - IITM",26-09-2025 07:00:00,23.016834,72.625775,CO,6,12,9
India,Gujarat,Ahmedabad,"SAC ISRO Satellite, Ahmedabad - IITM",26-09-2025 07:00:00,23.023389,72.515201,CO,1,34,10
India,Gujarat,Ahmedabad,"SVPI Airport Hansol, Ahmedabad - IITM",26-09-2025 07:00:00,23.076793,72.627874,SO2,4,42,12
India,Gujarat,Ahmedabad,"SVPI Airport Hansol, Ahmedabad - IITM",26-09-2025 07:00:00,23.076793,72.627874,OZONE,4,39,7
India,Gujarat,Ankleshwar,"GIDC, Ankleshwar - GPCB",26-09-2025 07:00:00,21.613267,73.010555,SO2,47,48,47
India,Delhi,Delhi,"Rohini, Delhi - DPCC",26-09-2025 07:00:00,28.732528,77.119920,SO2,3,6,4
India,Delhi,Delhi,"Rohini, Delhi - DPCC",26-09-2025 07:00:00,28.732528,77.119920,CO,5,23,13
India,Delhi,Delhi,"Sirifort, Delhi - CPCB",26-09-2025 07:00:00,28.5504249,77.2159377,NO2,28,78,57
India,Delhi,Delhi,"Sirifort, Delhi - CPCB",26-09-2025 07:00:00,28.5504249,77.2159377,CO,2,67,42
India,Jharkhand,Dhanbad,"Sardar Patel Nagar, Dhanbad - JSPCB",26-09-2025 07:00:00,23.80569,86.44268,PM10,38,106,70
India,Jharkhand,Dhanbad,"Sardar Patel Nagar, Dhanbad - JSPCB",26-09-2025 07:00:00,23.80569,86.44268,SO2,12,67,25
India,Jharkhand,Dhanbad,"Sardar Patel Nagar, Dhanbad - JSPCB",26-09-2025 07:00:00,23.80569,86.44268,CO,1,45,1
India,Delhi,Delhi,"Rohini, Delhi - DPCC",26-09-2025 07:00:00,28.732528,77.119920,PM2.5,13,183,62
India,Delhi,Delhi,"Rohini, Delhi - DPCC",26-09-2025 07:00:00,28.732528,77.119920,NH3,7,9,8
India,Karnataka,Bagalkot,"Vidayagiri, Bagalkot - KSPCB",26-09-2025 07:00:00,16.172806,75.659694,PM2.5,33,34,34
India,Karnataka,Dharwad,"Kalabhavan, Dharwad - KSPCB",26-09-2025 07:00:00,15.459706,75.008381,SO2,1,3,2
India,Karnataka,Dharwad,"Kalabhavan, Dharwad - KSPCB",26-09-2025 07:00:00,15.459706,75.008381,CO,10,36,16
India,Karnataka,Hassan,"B.Katihalli, Hassan - KSPCB",26-09-2025 07:00:00,13.008556,76.125258,SO2,1,1,1
India,Karnataka,Haveri,"Ashwini Nagar, Haveri - KSPCB",26-09-2025 07:00:00,14.791800,75.389600,NH3,NA,NA,NA
India,Karnataka,Haveri,"Ashwini Nagar, Haveri - KSPCB",26-09-2025 07:00:00,14.791800,75.389600,SO2,NA,NA,NA
India,Karnataka,Haveri,"Ashwini Nagar, Haveri - KSPCB",26-09-2025 07:00:00,14.791800,75.389600,CO,25,28,26
India,Karnataka,Hubballi,"Lingaraj Nagar, Hubballi - KSPCB",26-09-2025 07:00:00,15.3714823,75.1160168,CO,9,16,10
India,Karnataka,Hubballi,"Lingaraj Nagar, Hubballi - KSPCB",26-09-2025 07:00:00,15.3714823,75.1160168,OZONE,11,21,15
India,Karnataka,Kalaburagi,"Mahatma Basaveswar Colony, Kalaburgi - KSPCB",26-09-2025 07:00:00,17.336318,76.847397,PM10,26,86,40
India,Karnataka,Kalaburagi,"Mahatma Basaveswar Colony, Kalaburgi - KSPCB",26-09-2025 07:00:00,17.336318,76.847397,SO2,1,6,3
India,Karnataka,Kalaburagi,"Mahatma Basaveswar Colony, Kalaburgi - KSPCB",26-09-2025 07:00:00,17.336318,76.847397,CO,28,43,34
India,Karnataka,Karwar,"KHB Colony, Karwar - KSPCB",26-09-2025 07:00:00,14.816666,74.141003,PM10,1,10,6
India,Karnataka,Karwar,"KHB Colony, Karwar - KSPCB",26-09-2025 07:00:00,14.816666,74.141003,NO2,5,9,7
India,Karnataka,Karwar,"KHB Colony, Karwar - KSPCB",26-09-2025 07:00:00,14.816666,74.141003,SO2,28,32,29
India,Karnataka,Koppal,"Diwator Nagar, Koppal - KSPCB",26-09-2025 07:00:00,15.347630,76.181767,PM2.5,NA,NA,NA
India,Karnataka,Koppal,"Diwator Nagar, Koppal - KSPCB",26-09-2025 07:00:00,15.347630,76.181767,NO2,NA,NA,NA
India,Karnataka,Koppal,"Diwator Nagar, Koppal - KSPCB",26-09-2025 07:00:00,15.347630,76.181767,OZONE,NA,NA,NA
India,Karnataka,Mangalore,"Kadri, Mangalore - KSPCB",26-09-2025 07:00:00,12.889250,74.853000,PM10,NA,NA,NA
India,Karnataka,Mangalore,"Kadri, Mangalore - KSPCB",26-09-2025 07:00:00,12.889250,74.853000,OZONE,NA,NA,NA
India,Karnataka,Ramanagara,"Vijay Nagar, Ramanagara - KSPCB",26-09-2025 07:00:00,12.733409,77.298051,PM10,NA,NA,NA
India,Karnataka,Ramanagara,"Vijay Nagar, Ramanagara - KSPCB",26-09-2025 07:00:00,12.733409,77.298051,NO2,NA,NA,NA
India,Karnataka,Shivamogga,"Vinoba Nagara, Shivamogga - KSPCB",26-09-2025 07:00:00,13.940000,75.555917,PM2.5,21,44,28
India,Karnataka,Yadgir,"Collector Office, Yadgir - KSPCB",26-09-2025 07:00:00,16.7602,77.1428,SO2,14,21,17
India,Kerala,Kollam,"Polayathode, Kollam - Kerala PCB",26-09-2025 07:00:00,8.8787,76.6073,NH3,1,1,1
India,Kerala,Thiruvananthapuram,"Kariavattom, Thiruvananthapuram - Kerala PCB",26-09-2025 07:00:00,8.563700,76.886500,PM2.5,27,34,29
India,Karnataka,Bengaluru,"Hebbal, Bengaluru - KSPCB",26-09-2025 07:00:00,13.029152,77.585901,CO,13,30,16
India,Karnataka,Bengaluru,"Hombegowda Nagar, Bengaluru - KSPCB",26-09-2025 07:00:00,12.938539,77.590100,CO,3,20,10
India,Karnataka,Bengaluru,"Jayanagar 5th Block, Bengaluru - KSPCB",26-09-2025 07:00:00,12.920984,77.584908,NH3,NA,NA,NA
India,Karnataka,Bengaluru,"Silk Board, Bengaluru - KSPCB",26-09-2025 07:00:00,12.917348,77.622813,PM2.5,NA,NA,NA
India,Karnataka,Chikkaballapur,"Chikkaballapur Rural, Chikkaballapur - KSPCB",26-09-2025 07:00:00,13.428828,77.731418,SO2,NA,NA,NA
India,Karnataka,Chikkaballapur,"Chikkaballapur Rural, Chikkaballapur - KSPCB",26-09-2025 07:00:00,13.428828,77.731418,OZONE,NA,NA,NA
India,Karnataka,Davanagere,"Devaraj Urs Badavane, Davanagere - KSPCB",26-09-2025 07:00:00,14.475800,75.905200,NH3,1,4,2
India,Karnataka,Davanagere,"Devaraj Urs Badavane, Davanagere - KSPCB",26-09-2025 07:00:00,14.475800,75.905200,CO,7,12,11
India,Karnataka,Bengaluru,"Bapuji Nagar, Bengaluru - KSPCB",26-09-2025 07:00:00,12.951913,77.539784,PM10,32,138,71
India,Karnataka,Bengaluru,"Bapuji Nagar, Bengaluru - KSPCB",26-09-2025 07:00:00,12.951913,77.539784,NH3,1,1,1
India,Karnataka,Bengaluru,"Bapuji Nagar, Bengaluru - KSPCB",26-09-2025 07:00:00,12.951913,77.539784,CO,12,54,33
India,Karnataka,Bengaluru,"Bapuji Nagar, Bengaluru - KSPCB",26-09-2025 07:00:00,12.951913,77.539784,OZONE,2,38,4
India,Kerala,Thiruvananthapuram,"Plammoodu, Thiruvananthapuram - Kerala PCB",26-09-2025 07:00:00,8.5149093,76.9435879,NH3,6,12,8
India,Karnataka,Bagalkot,"Vidayagiri, Bagalkot - KSPCB",26-09-2025 07:00:00,16.172806,75.659694,NO2,9,10,9
India,Karnataka,Bengaluru,"Hebbal, Bengaluru - KSPCB",26-09-2025 07:00:00,13.029152,77.585901,NO2,18,21,20
India,Madhya Pradesh,Sagar,"Civil Lines, Sagar - MPPCB",26-09-2025 07:00:00,23.838586,78.759431,OZONE,37,88,76
India,Madhya Pradesh,Satna,"Bandhavgar Colony, Satna - Birla Cement",26-09-2025 07:00:00,24.58434363,80.8549414,PM10,53,54,53
India,Maharashtra,Ahmednagar,"Tarakpur, Ahmednagar - MPCB",26-09-2025 07:00:00,19.10122,74.73339,PM10,18,47,29
India,Maharashtra,Ahmednagar,"Tarakpur, Ahmednagar - MPCB",26-09-2025 07:00:00,19.10122,74.73339,NO2,16,26,21
India,Maharashtra,Akola,"Ramdaspeth, Akola - MPCB",26-09-2025 07:00:00,20.719516,77.000253,NH3,2,10,6
India,Maharashtra,Akola,"Ramdaspeth, Akola - MPCB",26-09-2025 07:00:00,20.719516,77.000253,SO2,7,10,9
India,Maharashtra,Amravati,"Shri Shivaji Science College, Amravati - MPCB",26-09-2025 07:00:00,20.939198,77.765701,PM10,35,78,55
India,Maharashtra,Amravati,"Shri Shivaji Science College, Amravati - MPCB",26-09-2025 07:00:00,20.939198,77.765701,OZONE,17,37,24
India,Maharashtra,Aurangabad,"MIDC Chilkalthana, Aurangabad - MPCB",26-09-2025 07:00:00,19.875620,75.387310,NH3,1,3,2
India,Maharashtra,Aurangabad,"MIDC Chilkalthana, Aurangabad - MPCB",26-09-2025 07:00:00,19.875620,75.387310,CO,6,16,11
India,Maharashtra,Aurangabad,"More Chowk Waluj, Aurangabad - MPCB",26-09-2025 07:00:00,19.8389439,75.244448,NH3,10,11,11
India,Maharashtra,Aurangabad,"More Chowk Waluj, Aurangabad - MPCB",26-09-2025 07:00:00,19.8389439,75.244448,OZONE,26,29,27
India,Madhya Pradesh,Jabalpur,"Gupteshwar, Jabalpur - JMC",26-09-2025 07:00:00,23.142888,79.916147,NH3,4,8,5
India,Madhya Pradesh,Jabalpur,"Gupteshwar, Jabalpur - JMC",26-09-2025 07:00:00,23.142888,79.916147,OZONE,10,61,21
India,Madhya Pradesh,Jabalpur,"Suhagi, Jabalpur - JMC",26-09-2025 07:00:00,23.218135,79.957770,PM10,17,298,73
India,Madhya Pradesh,Maihar,"Sahilara, Maihar - KJS Cements",26-09-2025 07:00:00,24.2613009,80.7231783,CO,46,48,46
India,Madhya Pradesh,Mandideep,"Sector-D Industrial Area, Mandideep - MPPCB",26-09-2025 07:00:00,23.108440,77.511428,NO2,26,83,46
India,Maharashtra,Badlapur,"Katrap, Badlapur - MPCB",26-09-2025 07:00:00,19.16485,73.23409,NO2,NA,NA,NA
India,Maharashtra,Belapur,"CBD Belapur, Belapur - MPCB",26-09-2025 07:00:00,19.0243902,73.0406721,NO2,4,13,7
India,Maharashtra,Belapur,"CBD Belapur, Belapur - MPCB",26-09-2025 07:00:00,19.0243902,73.0406721,NH3,4,7,5
India,Maharashtra,Belapur,"CBD Belapur, Belapur - MPCB",26-09-2025 07:00:00,19.0243902,73.0406721,CO,2,22,13
India,Maharashtra,Bhiwandi,"Gokul Nagar, Bhiwandi - MPCB",26-09-2025 07:00:00,19.309073,73.057223,PM2.5,23,69,37
India,Maharashtra,Bhiwandi,"Gokul Nagar, Bhiwandi - MPCB",26-09-2025 07:00:00,19.309073,73.057223,OZONE,12,40,13
India,Madhya Pradesh,Bhopal,"Paryavaran Parisar, Bhopal - MPPCB",26-09-2025 07:00:00,23.210494,77.425409,NO2,9,43,20
India,Madhya Pradesh,Bhopal,"T T Nagar, Bhopal - MPPCB",26-09-2025 07:00:00,23.233584,77.400574,NH3,5,5,5
India,Madhya Pradesh,Bhopal,"T T Nagar, Bhopal - MPPCB",26-09-2025 07:00:00,23.233584,77.400574,SO2,4,11,8
India,Madhya Pradesh,Bhopal,"T T Nagar, Bhopal - MPPCB",26-09-2025 07:00:00,23.233584,77.400574,OZONE,28,70,41
India,Madhya Pradesh,Dewas,"Bhopal Chauraha, Dewas - MPPCB",26-09-2025 07:00:00,22.9682591,76.064118,PM10,74,134,95
India,Madhya Pradesh,Gwalior,"Deen Dayal Nagar, Gwalior - MPPCB",26-09-2025 07:00:00,26.259242,78.216432,NH3,4,6,5
India,Madhya Pradesh,Indore,"Airport Area, Indore - IMC",26-09-2025 07:00:00,22.7289,75.8076,SO2,19,20,20
India,Madhya Pradesh,Indore,"Chhoti Gwaltoli, Indore - MPPCB",26-09-2025 07:00:00,22.4310,75.5213,PM2.5,32,228,67
India,Madhya Pradesh,Indore,"Regional Park, Indore - IMC",26-09-2025 07:00:00,22.6780,75.8559,CO,NA,NA,NA
India,Madhya Pradesh,Indore,"Residency Area, Indore - IMC",26-09-2025 07:00:00,22.7084,75.8815,NO2,NA,NA,NA
India,Madhya Pradesh,Indore,"Residency Area, Indore - IMC",26-09-2025 07:00:00,22.7084,75.8815,OZONE,NA,NA,NA
India,Madhya Pradesh,Jabalpur,"Govindh Bhavan Colony, Jabalpur - JMC",26-09-2025 07:00:00,23.163174,79.973061,OZONE,8,93,20
India,Kerala,Thrissur,"Corporation Ground, Thrissur - Kerala PCB",26-09-2025 07:00:00,10.532400,76.215900,PM2.5,44,53,49
India,Kerala,Thrissur,"Corporation Ground, Thrissur - Kerala PCB",26-09-2025 07:00:00,10.532400,76.215900,SO2,1,1,1
India,Madhya Pradesh,Ratlam,"Shasthri Nagar, Ratlam - IPCA Lab",26-09-2025 07:00:00,23.331731,75.045981,SO2,10,11,10
India,Maharashtra,Mira-Bhayandar,"Bhayandar West, Mira-Bhayandar - MPCB",26-09-2025 07:00:00,19.296481,72.840923,PM2.5,8,38,20
India,Maharashtra,Mira-Bhayandar,"Bhayandar West, Mira-Bhayandar - MPCB",26-09-2025 07:00:00,19.296481,72.840923,PM10,12,64,35
India,Maharashtra,Mumbai,"Bandra Kurla Complex, Mumbai - IITM",26-09-2025 07:00:00,19.053536,72.84643,PM2.5,8,78,32
India,Maharashtra,Mumbai,"Bandra Kurla Complex, Mumbai - IITM",26-09-2025 07:00:00,19.053536,72.84643,PM10,37,107,70
India,Maharashtra,Mumbai,"Bandra Kurla Complex, Mumbai - MPCB",26-09-2025 07:00:00,19.065931,72.862131,PM2.5,3,64,29
India,Maharashtra,Mumbai,"Borivali East, Mumbai - IITM",26-09-2025 07:00:00,19.23241,72.86895,CO,21,52,48
India,Maharashtra,Mumbai,"Borivali East, Mumbai - MPCB",26-09-2025 07:00:00,19.2243333,72.8658113,PM2.5,12,32,20
India,Maharashtra,Mumbai,"Borivali East, Mumbai - MPCB",26-09-2025 07:00:00,19.2243333,72.8658113,SO2,3,5,4
India,Maharashtra,Mumbai,"Chakala-Andheri East, Mumbai - IITM",26-09-2025 07:00:00,19.11074,72.86084,NO2,21,65,34
India,Maharashtra,Mumbai,"Chembur, Mumbai - MPCB",26-09-2025 07:00:00,19.0364585,72.8954371,OZONE,NA,NA,NA
India,Maharashtra,Mumbai,"Ghatkopar, Mumbai - BMC",26-09-2025 07:00:00,19.083694,72.920967,NO2,12,25,17
India,Maharashtra,Mumbai,"Kandivali East, Mumbai - MPCB",26-09-2025 07:00:00,19.205800,72.868200,PM2.5,15,72,37
India,Maharashtra,Mumbai,"Kandivali East, Mumbai - MPCB",26-09-2025 07:00:00,19.205800,72.868200,NO2,6,10,8
India,Maharashtra,Mumbai,"Kandivali West, Mumbai - BMC",26-09-2025 07:00:00,19.215859,72.831718,OZONE,1,35,2
India,Maharashtra,Kalyan,"Khadakpada, Kalyan - MPCB",26-09-2025 07:00:00,19.25292,73.142019,NH3,1,2,2
India,Maharashtra,Kalyan,"Khadakpada, Kalyan - MPCB",26-09-2025 07:00:00,19.25292,73.142019,SO2,7,9,8
India,Maharashtra,Kolhapur,"Shivaji University, Kolhapur - MPCB",26-09-2025 07:00:00,16.6870449,74.2505872,NO2,5,23,15
India,Maharashtra,Kolhapur,"Shivaji University, Kolhapur - MPCB",26-09-2025 07:00:00,16.6870449,74.2505872,NH3,3,3,3
India,Maharashtra,Boisar,"Khaira, Boisar - MPCB",26-09-2025 07:00:00,19.786089,72.757971,OZONE,30,31,31
India,Maharashtra,Chandrapur,"Chauhan Colony, Chandrapur - MPCB",26-09-2025 07:00:00,19.962900,79.298714,NH3,3,3,3
India,Maharashtra,Chandrapur,"Chauhan Colony, Chandrapur - MPCB",26-09-2025 07:00:00,19.962900,79.298714,OZONE,23,23,23
India,Maharashtra,Kolhapur,"Sinchan Bhavan, Kolhapur - MPCB",26-09-2025 07:00:00,16.7143745,74.2426398,SO2,NA,NA,NA
India,Maharashtra,Kolhapur,"Sinchan Bhavan, Kolhapur - MPCB",26-09-2025 07:00:00,16.7143745,74.2426398,OZONE,NA,NA,NA
India,Maharashtra,Latur,"Sawe Wadi, Latur - MPCB",26-09-2025 07:00:00,18.39963,76.57452,PM2.5,17,36,24
India,Maharashtra,Dhule,"Deopur, Dhule - MPCB",26-09-2025 07:00:00,20.918946,74.776388,NO2,2,9,5
India,Maharashtra,Jalgaon,"Prabhat Colony, Jalgaon - MPCB",26-09-2025 07:00:00,21.001264,75.565602,CO,15,30,18
India,Maharashtra,Mahad,"Kamble Tarf Birwadi, Mahad - MPCB",26-09-2025 07:00:00,18.1023399,73.4783687,PM10,16,100,35
India,Maharashtra,Mahad,"Kamble Tarf Birwadi, Mahad - MPCB",26-09-2025 07:00:00,18.1023399,73.4783687,NO2,22,74,28
India,Maharashtra,Mumbai,"Kherwadi_Bandra East, Mumbai - MPCB",26-09-2025 07:00:00,19.0632143,72.8456324,OZONE,1,57,1
India,Maharashtra,Navi Mumbai,"Tondare-Taloja, Navi Mumbai - MPCB",26-09-2025 07:00:00,19.0630,73.1209,OZONE,4,36,7
India,Maharashtra,Parbhani,"Masoom Colony, Parbhani - MPCB",26-09-2025 07:00:00,19.265594,76.761463,PM2.5,28,72,48
India,Maharashtra,Parbhani,"Masoom Colony, Parbhani - MPCB",26-09-2025 07:00:00,19.265594,76.761463,PM10,28,88,55
India,Maharashtra,Pimpri-Chinchwad,"Gavalinagar, Pimpri Chinchwad - MPCB",26-09-2025 07:00:00,18.63673,73.82487,NH3,8,8,8
India,Maharashtra,Pimpri-Chinchwad,"Park Street Wakad, Pimpri Chinchwad - MPCB",26-09-2025 07:00:00,18.59051,73.77946,SO2,1,4,3
India,Maharashtra,Pimpri-Chinchwad,"Savta Mali Nagar, Pimpri-Chinchwad - IITM",26-09-2025 07:00:00,18.614767,73.799516,CO,52,104,101
India,Maharashtra,Nagpur,"Ambazari, Nagpur - MPCB",26-09-2025 07:00:00,21.121801,79.04952,SO2,18,19,18
India,Maharashtra,Nagpur,"Mahal, Nagpur - MPCB",26-09-2025 07:00:00,21.14472,79.107595,PM2.5,38,72,55
India,Maharashtra,Nagpur,"Mahal, Nagpur - MPCB",26-09-2025 07:00:00,21.14472,79.107595,SO2,16,43,27
India,Maharashtra,Nagpur,"Ram Nagar, Nagpur - MPCB",26-09-2025 07:00:00,21.143383,79.048912,OZONE,8,32,10
India,Maharashtra,Nanded,"Sneh Nagar, Nanded - MPCB",26-09-2025 07:00:00,19.173852,77.296291,NH3,3,5,4
India,Maharashtra,Mumbai,"Mulund West, Mumbai - MPCB",26-09-2025 07:00:00,19.1750,72.9419,SO2,NA,NA,NA
India,Maharashtra,Mumbai,"Navy Nagar-Colaba, Mumbai - IITM",26-09-2025 07:00:00,18.897756,72.813320,NO2,15,78,37
India,Maharashtra,Mumbai,"Powai, Mumbai - MPCB",26-09-2025 07:00:00,19.137500,72.915056,PM2.5,18,43,28
India,Maharashtra,Mumbai,"Siddharth Nagar-Worli, Mumbai - IITM",26-09-2025 07:00:00,19.000083,72.813993,PM2.5,11,36,22
India,Maharashtra,Nashik,"Pandav Nagari, Nashik - MPCB",26-09-2025 07:00:00,19.9591346,73.7788008,SO2,1,7,2
India,Maharashtra,Nashik,"Pandav Nagari, Nashik - MPCB",26-09-2025 07:00:00,19.9591346,73.7788008,OZONE,10,44,15
India,Maharashtra,Navi Mumbai,"Kopripada-Vashi, Navi Mumbai - MPCB",26-09-2025 07:00:00,19.090337,73.014232,NH3,2,8,5
India,Maharashtra,Navi Mumbai,"Nerul, Navi Mumbai - MPCB",26-09-2025 07:00:00,19.008751,73.016620,NH3,3,4,3
India,Maharashtra,Navi Mumbai,"Sanpada, Navi Mumbai - MPCB",26-09-2025 07:00:00,19.0575752,73.0151367,PM10,23,68,41
India,Maharashtra,Navi Mumbai,"Sanpada, Navi Mumbai - MPCB",26-09-2025 07:00:00,19.0575752,73.0151367,NH3,11,21,15
India,Maharashtra,Nashik,"Hirawadi, Nashik - MPCB",26-09-2025 07:00:00,20.021503,73.813844,OZONE,7,30,14
India,Maharashtra,Nashik,"MIDC Ambad, Nashik - MPCB",26-09-2025 07:00:00,19.950220,73.731480,PM10,42,97,64
India,Maharashtra,Nashik,"MIDC Ambad, Nashik - MPCB",26-09-2025 07:00:00,19.950220,73.731480,OZONE,6,30,13
India,Maharashtra,Mumbai,"Sion, Mumbai - MPCB",26-09-2025 07:00:00,19.047000,72.874600,PM2.5,NA,NA,NA
India,Maharashtra,Mumbai,"Worli, Mumbai - MPCB",26-09-2025 07:00:00,18.9936162,72.8128113,PM2.5,57,64,60
India,Maharashtra,Mumbai,"Worli, Mumbai - MPCB",26-09-2025 07:00:00,18.9936162,72.8128113,PM10,53,73,63
India,Maharashtra,Navi Mumbai,"Mahape, Navi Mumbai - MPCB",26-09-2025 07:00:00,19.1135051,73.008978,PM2.5,7,22,13
India,Maharashtra,Mumbai,"Malad West, Mumbai - IITM",26-09-2025 07:00:00,19.19709,72.82204,SO2,4,10,6
India,Maharashtra,Pune,"Revenue Colony-Shivajinagar, Pune - IITM",26-09-2025 07:00:00,18.530085,73.849598,NO2,7,19,13
India,Maharashtra,Pune,"Revenue Colony-Shivajinagar, Pune - IITM",26-09-2025 07:00:00,18.530085,73.849598,CO,112,194,165
India,Maharashtra,Pune,"Savitribai Phule Pune University, Pune - MPCB",26-09-2025 07:00:00,18.547056,73.826908,NO2,NA,NA,NA
India,Maharashtra,Pune,"Savitribai Phule Pune University, Pune - MPCB",26-09-2025 07:00:00,18.547056,73.826908,NH3,NA,NA,NA
India,Maharashtra,Solapur,"Dnyaneshwar Nagar, Solapur - MPCB",26-09-2025 07:00:00,17.6336264,75.9132495,CO,7,54,10
India,Maharashtra,Solapur,"Ratandeep Housing Society, Solapur - MPCB",26-09-2025 07:00:00,17.65439,75.90649,PM10,20,67,36
India,Maharashtra,Solapur,"Ratandeep Housing Society, Solapur - MPCB",26-09-2025 07:00:00,17.65439,75.90649,NO2,4,51,19
India,Nagaland,Kohima,"PWD Junction, Kohima - NPCB",26-09-2025 07:00:00,25.6635413,94.0989878,NH3,1,1,1
India,Nagaland,Kohima,"PWD Junction, Kohima - NPCB",26-09-2025 07:00:00,25.6635413,94.0989878,CO,2,18,9
India,Odisha,Angul,"Hakimapada, Angul - OSPCB",26-09-2025 07:00:00,20.832874,85.104082,PM10,26,184,70
India,Odisha,Angul,"Hakimapada, Angul - OSPCB",26-09-2025 07:00:00,20.832874,85.104082,SO2,5,128,41
India,Odisha,Balasore,"Kalidaspur, Balasore - OSPCB",26-09-2025 07:00:00,21.51161,86.89088,PM2.5,17,70,34
India,Odisha,Barbil,"Forest Office, Barbil - OSPCB",26-09-2025 07:00:00,22.1166054,85.3945546,CO,23,62,37
India,Odisha,Barbil,"Forest Office, Barbil - OSPCB",26-09-2025 07:00:00,22.1166054,85.3945546,OZONE,2,28,3
India,Maharashtra,Thane,"Upvan Fort, Thane - MPCB",26-09-2025 07:00:00,19.222279,72.957979,NH3,NA,NA,NA
India,Maharashtra,Ulhasnagar,"Sidhi Vinayak Nagar, Ulhasnagar - MPCB",26-09-2025 07:00:00,19.235581,73.159121,NH3,3,6,4
India,Maharashtra,Ulhasnagar,"Sidhi Vinayak Nagar, Ulhasnagar - MPCB",26-09-2025 07:00:00,19.235581,73.159121,CO,12,61,28
India,Maharashtra,Virar,"Bolinj, Virar - MPCB",26-09-2025 07:00:00,19.4458210,72.7988231,OZONE,5,40,7
India,Meghalaya,Shillong,"JN Stadium, Shillong - Meghalaya PCB",26-09-2025 07:00:00,25.5803419,91.8942571,NO2,4,12,7
India,Odisha,Bhubaneswar,"Patia, Bhubaneswar - OSPCB",26-09-2025 07:00:00,20.34652,85.81630,OZONE,3,24,6
India,Odisha,Bileipada,"Tata Township, Bileipada - OSPCB",26-09-2025 07:00:00,22.06156703,85.47409613,NO2,6,7,7
India,Odisha,Bileipada,"Tata Township, Bileipada - OSPCB",26-09-2025 07:00:00,22.06156703,85.47409613,OZONE,11,13,12
India,Odisha,Brajrajnagar,"GM Office, Brajrajnagar - OSPCB",26-09-2025 07:00:00,21.8004996,83.8396977,PM10,20,121,46
India,Maharashtra,Pimpri-Chinchwad,"Savta Mali Nagar, Pimpri-Chinchwad - IITM",26-09-2025 07:00:00,18.614767,73.799516,OZONE,4,30,8
India,Maharashtra,Pune,"Katraj Dairy, Pune - MPCB",26-09-2025 07:00:00,18.454450,73.854155,NO2,1,20,10
India,Maharashtra,Pune,"Katraj Dairy, Pune - MPCB",26-09-2025 07:00:00,18.454450,73.854155,NH3,1,3,2
India,Maharashtra,Pune,"Katraj Dairy, Pune - MPCB",26-09-2025 07:00:00,18.454450,73.854155,CO,7,75,21
India,Maharashtra,Pune,"Katraj Dairy, Pune - MPCB",26-09-2025 07:00:00,18.454450,73.854155,OZONE,NA,NA,NA
India,Maharashtra,Solapur,"Ratandeep Housing Society, Solapur - MPCB",26-09-2025 07:00:00,17.65439,75.90649,SO2,2,5,3
India,Maharashtra,Thane,"Kasarvadavali, Thane - MPCB",26-09-2025 07:00:00,19.26777,72.97182,PM2.5,23,65,35
India,Maharashtra,Thane,"Kasarvadavali, Thane - MPCB",26-09-2025 07:00:00,19.26777,72.97182,SO2,1,2,1
India,Meghalaya,Shillong,"Lumpyngngad, Shillong - Meghalaya PCB",26-09-2025 07:00:00,25.5586,91.8985,OZONE,1,10,5
India,Nagaland,Kohima,"PWD Junction, Kohima - NPCB",26-09-2025 07:00:00,25.6635413,94.0989878,PM10,10,142,40
India,Odisha,Cuttack,"CDA Area, Cuttack - OSPCB",26-09-2025 07:00:00,20.48891     ,85.84768     ,PM2.5,13,78,34
India,Odisha,Cuttack,"CDA Area, Cuttack - OSPCB",26-09-2025 07:00:00,20.48891     ,85.84768     ,SO2,4,10,5
India,Odisha,Baripada,"Meher Colony, Baripada - OSPCB",26-09-2025 07:00:00,21.941841,86.728318,NH3,1,1,1
India,Punjab,Khanna,"Kalal Majra, Khanna - PPCB",26-09-2025 07:00:00,30.736056 ,76.209694,CO,23,47,44
India,Punjab,Khanna,"Kalal Majra, Khanna - PPCB",26-09-2025 07:00:00,30.736056 ,76.209694,OZONE,26,29,28
India,Punjab,Ludhiana,"Punjab Agricultural University, Ludhiana - PPCB",26-09-2025 07:00:00,30.9028,75.8086,PM10,56,90,75
India,Punjab,Ludhiana,"Punjab Agricultural University, Ludhiana - PPCB",26-09-2025 07:00:00,30.9028,75.8086,SO2,9,15,12
India,Punjab,Mandi Gobindgarh,"RIMT University, Mandi Gobindgarh - PPCB",26-09-2025 07:00:00,30.649961,76.331442,PM10,4,137,64
India,Punjab,Mandi Gobindgarh,"RIMT University, Mandi Gobindgarh - PPCB",26-09-2025 07:00:00,30.649961,76.331442,NO2,23,25,24
India,Punjab,Mandi Gobindgarh,"RIMT University, Mandi Gobindgarh - PPCB",26-09-2025 07:00:00,30.649961,76.331442,CO,8,132,40
India,Punjab,Mandi Gobindgarh,"RIMT University, Mandi Gobindgarh - PPCB",26-09-2025 07:00:00,30.649961,76.331442,OZONE,47,50,48
India,Rajasthan,Barmer,"Railway Colony, Barmer - RSPCB",26-09-2025 07:00:00,25.747299,71.393989,SO2,3,4,4
India,Rajasthan,Bhilwara,"Pratap Nagar, Bhilwara - RSPCB",26-09-2025 07:00:00,25.339605,74.618883,PM10,35,142,69
India,Rajasthan,Bhilwara,"Pratap Nagar, Bhilwara - RSPCB",26-09-2025 07:00:00,25.339605,74.618883,NO2,6,51,14
India,Rajasthan,Bhiwadi,"RIICO Ind. Area III, Bhiwadi - RSPCB",26-09-2025 07:00:00,28.194909,76.862296,PM2.5,44,193,100
India,Rajasthan,Bhiwadi,"RIICO Ind. Area III, Bhiwadi - RSPCB",26-09-2025 07:00:00,28.194909,76.862296,NO2,21,50,29
India,Punjab,Amritsar,"Golden Temple, Amritsar - PPCB",26-09-2025 07:00:00,31.620000,74.876512,NH3,8,8,8
India,Punjab,Bathinda,"Hardev Nagar, Bathinda - PPCB",26-09-2025 07:00:00,30.233011,74.907758,NO2,17,21,19
India,Punjab,Bathinda,"Hardev Nagar, Bathinda - PPCB",26-09-2025 07:00:00,30.233011,74.907758,SO2,4,24,10
India,Punjab,Bathinda,"Hardev Nagar, Bathinda - PPCB",26-09-2025 07:00:00,30.233011,74.907758,CO,2,42,9
India,Punjab,Khanna,"Kalal Majra, Khanna - PPCB",26-09-2025 07:00:00,30.736056 ,76.209694,PM10,50,125,71
India,Odisha,Rourkela,"Raghunathpali, Rourkela - OSPCB",26-09-2025 07:00:00,22.220833,84.809444,OZONE,4,97,12
India,Odisha,Talcher,"Talcher Coalfields,Talcher - OSPCB",26-09-2025 07:00:00,20.9360711,85.1707021,NO2,32,47,41
India,Odisha,Tensa,"Barsua Iron Ore Mines, Tensa - OSPCB",26-09-2025 07:00:00,21.869985,85.167016,PM10,NA,NA,NA
India,Rajasthan,Banswara,"Rati Talai, Banswara - RSPCB",26-09-2025 07:00:00,23.555190,74.440010,OZONE,9,56,37
India,Rajasthan,Baran,"Bamboliya, Baran - RSPCB",26-09-2025 07:00:00,25.106006,76.469948,PM2.5,15,68,37
India,Rajasthan,Baran,"Bamboliya, Baran - RSPCB",26-09-2025 07:00:00,25.106006,76.469948,PM10,36,135,61
India,Odisha,Keonjhar,"Jagamohanpur, Keonjhar - OSPCB",26-09-2025 07:00:00,21.643900,85.599355,NO2,14,21,18
India,Odisha,Nayagarh,"Dabuna, Nayagarh - OSPCB",26-09-2025 07:00:00,21.847279,85.416905,SO2,1,13,4
India,Odisha,Nayagarh,"Dabuna, Nayagarh - OSPCB",26-09-2025 07:00:00,21.847279,85.416905,OZONE,11,20,12
India,Rajasthan,Alwar,"Moti Doongri, Alwar - RSPCB",26-09-2025 07:00:00,27.554793,76.611536,NH3,6,10,9
India,Rajasthan,Alwar,"Moti Doongri, Alwar - RSPCB",26-09-2025 07:00:00,27.554793,76.611536,SO2,4,37,21
India,Rajasthan,Alwar,"Moti Doongri, Alwar - RSPCB",26-09-2025 07:00:00,27.554793,76.611536,CO,16,70,23
India,Rajasthan,Ajmer,"Civil Lines,  Ajmer - RSPCB",26-09-2025 07:00:00,26.470859,74.646594,PM2.5,38,66,49
India,Punjab,Patiala,"Model Town, Patiala - PPCB",26-09-2025 07:00:00,30.349388,76.366642,OZONE,25,29,27
India,Rajasthan,Hanumangarh,"Housing Board, Hanumangarh - RSPCB",26-09-2025 07:00:00,29.610750,74.283608,NO2,4,24,9
India,Rajasthan,Hanumangarh,"Housing Board, Hanumangarh - RSPCB",26-09-2025 07:00:00,29.610750,74.283608,CO,5,44,17
India,Rajasthan,Jaipur,"Adarsh Nagar, Jaipur - RSPCB",26-09-2025 07:00:00,26.902909,75.836858,SO2,20,27,24
India,Rajasthan,Jaipur,"Adarsh Nagar, Jaipur - RSPCB",26-09-2025 07:00:00,26.902909,75.836858,OZONE,29,82,44
India,Rajasthan,Jaipur,"Mansarovar Sector-12, Jaipur - RSPCB",26-09-2025 07:00:00,26.843698,75.766894,PM10,48,152,87
India,Rajasthan,Jaipur,"Police Commissionerate, Jaipur - RSPCB",26-09-2025 07:00:00,26.9164092,75.7994901,PM2.5,15,82,56
India,Rajasthan,Jaipur,"Police Commissionerate, Jaipur - RSPCB",26-09-2025 07:00:00,26.9164092,75.7994901,NO2,40,101,89
India,Rajasthan,Bhiwadi,"Vasundhara Nagar_UIT, Bhiwadi - RSPCB",26-09-2025 07:00:00,28.207266,76.829265,PM2.5,16,120,51
India,Rajasthan,Bhiwadi,"Vasundhara Nagar_UIT, Bhiwadi - RSPCB",26-09-2025 07:00:00,28.207266,76.829265,PM10,81,227,136
India,Rajasthan,Bikaner,"MM Ground, Bikaner - RSPCB",26-09-2025 07:00:00,28.018792,73.292658,PM2.5,12,76,27
India,Rajasthan,Bikaner,"MM Ground, Bikaner - RSPCB",26-09-2025 07:00:00,28.018792,73.292658,OZONE,21,54,37
India,Rajasthan,Bundi,"New Colony, Bundi - RSPCB",26-09-2025 07:00:00,25.435774,75.644272,NH3,2,5,3
India,Rajasthan,Chittorgarh,"Shastri Nagar, Chittorgarh - RSPCB",26-09-2025 07:00:00,24.892047,74.623527,PM2.5,19,99,33
India,Rajasthan,Jodhpur,"Digari Kalan, Jodhpur - RSPCB",26-09-2025 07:00:00,26.295810,73.082283,NO2,4,55,18
India,Rajasthan,Jodhpur,"Jhalamand, Jodhpur - RSPCB",26-09-2025 07:00:00,26.215415,73.070156,NO2,3,52,20
India,Rajasthan,Jodhpur,"Jhalamand, Jodhpur - RSPCB",26-09-2025 07:00:00,26.215415,73.070156,CO,5,44,18
India,Rajasthan,Jodhpur,"Mandor, Jodhpur - RSPCB",26-09-2025 07:00:00,26.358805,73.047444,PM2.5,20,42,29
India,Rajasthan,Jodhpur,"Mandor, Jodhpur - RSPCB",26-09-2025 07:00:00,26.358805,73.047444,PM10,41,78,60
India,Rajasthan,Jodhpur,"Mandor, Jodhpur - RSPCB",26-09-2025 07:00:00,26.358805,73.047444,NO2,6,43,11
India,Rajasthan,Jodhpur,"Mandor, Jodhpur - RSPCB",26-09-2025 07:00:00,26.358805,73.047444,NH3,2,4,3
India,Rajasthan,Jodhpur,"Mandor, Jodhpur - RSPCB",26-09-2025 07:00:00,26.358805,73.047444,SO2,2,13,4
India,Rajasthan,Churu,"Subash Chowk, Churu - RSPCB",26-09-2025 07:00:00,28.296139,74.961696,NH3,2,4,3
India,Rajasthan,Dausa,"Khatikan Mohalla, Dausa - RSPCB",26-09-2025 07:00:00,26.895552,76.334753,PM2.5,13,84,38
India,Rajasthan,Dausa,"Khatikan Mohalla, Dausa - RSPCB",26-09-2025 07:00:00,26.895552,76.334753,PM10,60,198,107
India,Rajasthan,Dungarpur,"Bhoiwada, Dungarpur - RSPCB",26-09-2025 07:00:00,23.837789,73.714926,PM2.5,28,65,44
India,Rajasthan,Dungarpur,"Bhoiwada, Dungarpur - RSPCB",26-09-2025 07:00:00,23.837789,73.714926,NO2,2,10,6
India,Rajasthan,Dungarpur,"Bhoiwada, Dungarpur - RSPCB",26-09-2025 07:00:00,23.837789,73.714926,SO2,2,5,4
India,Rajasthan,Jodhpur,"Samrat Ashok Udhyan, Jodhpur - RSPCB",26-09-2025 07:00:00,26.253384,72.976571,PM2.5,8,53,26
India,Rajasthan,Karauli,"Satyawati Vihar, Karauli - RSPCB",26-09-2025 07:00:00,26.506177,77.025989,NO2,27,37,32
India,Rajasthan,Karauli,"Satyawati Vihar, Karauli - RSPCB",26-09-2025 07:00:00,26.506177,77.025989,NH3,4,5,5
India,Rajasthan,Jaipur,"Shastri Nagar, Jaipur - RSPCB",26-09-2025 07:00:00,26.9502929,75.730943,CO,30,74,48
India,Rajasthan,Jaisalmer,"Sadar Bazar, Jaisalmer - RSPCB",26-09-2025 07:00:00,26.912329,70.909168,PM10,36,99,67
India,Rajasthan,Jaipur,"RIICO Sitapura, Jaipur - RSPCB",26-09-2025 07:00:00,26.786682,75.827928,OZONE,2,289,30
India,Rajasthan,Jaipur,"Sector-2 Murlipura, Jaipur - RSPCB",26-09-2025 07:00:00,26.960669,75.771817,NO2,14,63,32
India,Rajasthan,Jodhpur,"Collectorate, Jodhpur - RSPCB",26-09-2025 07:00:00,26.268249,73.0193853,PM10,32,151,73
India,Rajasthan,Jodhpur,"Collectorate, Jodhpur - RSPCB",26-09-2025 07:00:00,26.268249,73.0193853,NH3,5,17,10
India,Rajasthan,Jhalawar,"Rajlaxmi Nagar, Jhalawar - RSPCB",26-09-2025 07:00:00,24.588397,76.172782,PM2.5,8,34,22
India,TamilNadu,Coimbatore,"SIDCO Kurichi, Coimbatore - TNPCB",26-09-2025 07:00:00,10.942451,76.978996,PM10,32,32,32
India,TamilNadu,Coimbatore,"SIDCO Kurichi, Coimbatore - TNPCB",26-09-2025 07:00:00,10.942451,76.978996,NO2,11,59,20
India,TamilNadu,Coimbatore,"SIDCO Kurichi, Coimbatore - TNPCB",26-09-2025 07:00:00,10.942451,76.978996,NH3,NA,NA,NA
India,TamilNadu,Coimbatore,"SIDCO Kurichi, Coimbatore - TNPCB",26-09-2025 07:00:00,10.942451,76.978996,CO,1,121,15
India,TamilNadu,Cuddalore,"Kudikadu, Cuddalore - TNPCB",26-09-2025 07:00:00,11.6829898,79.7532099,NH3,5,5,5
India,TamilNadu,Cuddalore,"Semmandalam, Cuddalore - TNPCB",26-09-2025 07:00:00,11.7637683,79.7499835,OZONE,1,2,2
India,TamilNadu,Dindigul,"Mendonsa Colony, Dindigul - TNPCB",26-09-2025 07:00:00,10.358535,77.984321,PM2.5,12,32,20
India,TamilNadu,Dindigul,"Mendonsa Colony, Dindigul - TNPCB",26-09-2025 07:00:00,10.358535,77.984321,NO2,16,29,22
India,Sikkim,Gangtok,"Zero Point GICI, Gangtok - SSPCB",26-09-2025 07:00:00,27.338530,88.614099,NH3,1,1,1
India,Sikkim,Gangtok,"Zero Point GICI, Gangtok - SSPCB",26-09-2025 07:00:00,27.338530,88.614099,SO2,1,1,1
India,TamilNadu,Chengalpattu,"Crescent University, Chengalpattu - TNPCB",26-09-2025 07:00:00,12.8777316,80.0834807,SO2,NA,NA,NA
India,TamilNadu,Chengalpattu,"Crescent University, Chengalpattu - TNPCB",26-09-2025 07:00:00,12.8777316,80.0834807,CO,NA,NA,NA
India,TamilNadu,Chennai,"Alandur Bus Depot, Chennai - CPCB",26-09-2025 07:00:00,12.9099161,80.1076538,PM2.5,17,18,17
India,Rajasthan,Sikar,"Radhakishan Pura, Sikar - RSPCB",26-09-2025 07:00:00,27.608912,75.153302,NH3,4,6,5
India,Rajasthan,Sirohi,"Vedhaynath Colony, Sirohi - RSPCB",26-09-2025 07:00:00,24.885261,72.857549,NH3,1,4,3
India,Rajasthan,Sri Ganganagar,"Old City, Sri Ganganagar - RSPCB",26-09-2025 07:00:00,29.931624,73.864511,PM2.5,13,67,40
India,Rajasthan,Sri Ganganagar,"Old City, Sri Ganganagar - RSPCB",26-09-2025 07:00:00,29.931624,73.864511,SO2,2,83,16
India,Rajasthan,Pali,"Indira Colony Vistar, Pali - RSPCB",26-09-2025 07:00:00,25.771061, 73.340227,PM2.5,37,137,86
India,Rajasthan,Pratapgarh,"Pragati Nagar, Pratapgarh - RSPCB",26-09-2025 07:00:00,24.041198,74.780702,CO,12,22,15
India,Rajasthan,Sawai Madhopur,"Sahu Nagar, Sawai Madhopur - RSPCB",26-09-2025 07:00:00,26.031443,76.359327,PM2.5,13,71,32
India,Rajasthan,Sawai Madhopur,"Sahu Nagar, Sawai Madhopur - RSPCB",26-09-2025 07:00:00,26.031443,76.359327,CO,22,91,32
India,TamilNadu,Kanchipuram,"Kilambi, Kanchipuram - TNPCB",26-09-2025 07:00:00,12.864618,79.659968,SO2,NA,NA,NA
India,TamilNadu,Karur,"Kamadenu Nagar, Karur - TNPCB",26-09-2025 07:00:00,10.967820,78.080882,PM10,19,50,34
India,TamilNadu,Karur,"Kamadenu Nagar, Karur - TNPCB",26-09-2025 07:00:00,10.967820,78.080882,OZONE,5,9,8
India,TamilNadu,Madurai,"Uchapatti, Madurai - TNPCB",26-09-2025 07:00:00,9.865935,78.022669,SO2,12,13,13
India,TamilNadu,Chennai,"Alandur Bus Depot, Chennai - CPCB",26-09-2025 07:00:00,12.9099161,80.1076538,SO2,15,16,15
India,TamilNadu,Chennai,"Alandur Bus Depot, Chennai - CPCB",26-09-2025 07:00:00,12.9099161,80.1076538,CO,48,76,62
India,TamilNadu,Chennai,"Arumbakkam, Chennai - TNPCB",26-09-2025 07:00:00,13.0664,80.2112 ,PM2.5,18,120,35
India,TamilNadu,Chennai,"Kodungaiyur, Chennai - TNPCB",26-09-2025 07:00:00,13.1278,80.2642,NO2,5,14,8
India,TamilNadu,Chennai,"Manali Village, Chennai - TNPCB",26-09-2025 07:00:00,13.1662,80.2584,OZONE,27,47,40
India,TamilNadu,Chennai,"Perungudi, Chennai - TNPCB",26-09-2025 07:00:00,12.9533,80.2357,NO2,1,6,3
India,TamilNadu,Chennai,"Perungudi, Chennai - TNPCB",26-09-2025 07:00:00,12.9533,80.2357,NH3,4,6,5
India,TamilNadu,Chennai,"Perungudi, Chennai - TNPCB",26-09-2025 07:00:00,12.9533,80.2357,SO2,1,3,2
India,TamilNadu,Chennai,"Royapuram, Chennai - TNPCB",26-09-2025 07:00:00,13.1036,80.2909,SO2,2,5,3
India,Rajasthan,Kota,"Dhanmandi, Kota - RSPCB",26-09-2025 07:00:00,25.164090,75.858137,SO2,4,8,5
India,Rajasthan,Nagaur,"Karni Colony, Nagaur - RSPCB",26-09-2025 07:00:00,27.213494,73.734444,NH3,2,8,5
India,TamilNadu,Gummidipoondi,"Anthoni Pillai Nagar, Gummidipoondi - TNPCB",26-09-2025 07:00:00,13.4127,80.1081,PM2.5,30,294,87
India,TamilNadu,Thanjavur,"Parisutham Nagar, Thanjavur - TNPCB",26-09-2025 07:00:00,10.7654824,79.1389968,SO2,16,16,16
India,TamilNadu,Thoothukudi,"Meelavittan, Thoothukudi - TNPCB",26-09-2025 07:00:00,8.816428 ,78.099039,NO2,3,26,19
India,TamilNadu,Thoothukudi,"Meelavittan, Thoothukudi - TNPCB",26-09-2025 07:00:00,8.816428 ,78.099039,OZONE,4,126,7
India,TamilNadu,Tiruchirappalli,"St Joseph College, Tiruchirappalli - TNPCB",26-09-2025 07:00:00,10.830158,78.691849,SO2,22,24,23
India,TamilNadu,Tiruchirappalli,"St Joseph College, Tiruchirappalli - TNPCB",26-09-2025 07:00:00,10.830158,78.691849,CO,28,30,28
India,TamilNadu,Tirunelveli,"Municipal Corporation Office, Tirunelveli - TNPCB",26-09-2025 07:00:00,8.728442,77.6962,NO2,6,31,14
India,TamilNadu,Tirupur,"Kumaran College, Tirupur - TNPCB",26-09-2025 07:00:00,11.0973603,77.3228673,NO2,2,4,3
India,TamilNadu,Tirupur,"Kumaran College, Tirupur - TNPCB",26-09-2025 07:00:00,11.0973603,77.3228673,OZONE,3,3,3
India,TamilNadu,Virudhunagar,"Collectorate Office, Virudhunagar - TNPCB",26-09-2025 07:00:00,9.559382,77.948828,NH3,5,7,6
India,TamilNadu,Virudhunagar,"Collectorate Office, Virudhunagar - TNPCB",26-09-2025 07:00:00,9.559382,77.948828,SO2,20,21,20
India,TamilNadu,Nagapattinam,"Velippalayam, Nagapattinam - TNPCB",26-09-2025 07:00:00,10.798548,79.838212,PM2.5,2,28,14
India,TamilNadu,Nagapattinam,"Velippalayam, Nagapattinam - TNPCB",26-09-2025 07:00:00,10.798548,79.838212,SO2,3,10,5
India,TamilNadu,Ooty,"Bombay Castel, Ooty - TNPCB",26-09-2025 07:00:00,11.4068288,76.7138973,PM10,NA,NA,NA
India,TamilNadu,Ooty,"Bombay Castel, Ooty - TNPCB",26-09-2025 07:00:00,11.4068288,76.7138973,CO,NA,NA,NA
India,TamilNadu,Palkalaiperur,"Bharathidasan University, Palkalaiperur - TNPCB",26-09-2025 07:00:00,10.681158,78.741746,SO2,4,17,6
India,TamilNadu,Perundurai,"SIPCOT Industrial Park, Perundurai - TNPCB",26-09-2025 07:00:00,11.258242,77.552761,NH3,NA,NA,NA
India,TamilNadu,Perundurai,"SIPCOT Industrial Park, Perundurai - TNPCB",26-09-2025 07:00:00,11.258242,77.552761,OZONE,NA,NA,NA
India,TamilNadu,Pudukottai,"SIPCOT Nathampannai, Pudukottai - TNPCB",26-09-2025 07:00:00,10.423417,78.784889,PM10,17,41,26
India,TamilNadu,Pudukottai,"SIPCOT Nathampannai, Pudukottai - TNPCB",26-09-2025 07:00:00,10.423417,78.784889,NH3,2,3,2
India,TamilNadu,Ramanathapuram,"Chalai Bazaar, Ramanathapuram - TNPCB",26-09-2025 07:00:00,9.36399,78.831977,PM2.5,17,45,28
India,TamilNadu,Virudhunagar,"Collectorate Office, Virudhunagar - TNPCB",26-09-2025 07:00:00,9.559382,77.948828,OZONE,3,4,4
India,Telangana,Hyderabad,"Bollaram Industrial Area, Hyderabad - TSPCB",26-09-2025 07:00:00,17.540891,78.358528,PM2.5,17,59,30
India,Telangana,Hyderabad,"Central University, Hyderabad - TSPCB",26-09-2025 07:00:00,17.460103,78.334361,NH3,3,13,9
India,Telangana,Hyderabad,"ECIL Kapra, Hyderabad - TSPCB",26-09-2025 07:00:00,17.470431,78.566959,PM2.5,46,145,66
India,Telangana,Hyderabad,"ECIL Kapra, Hyderabad - TSPCB",26-09-2025 07:00:00,17.470431,78.566959,CO,1,14,2
India,Telangana,Hyderabad,"IDA Pashamylaram, Hyderabad - TSPCB",26-09-2025 07:00:00,17.5316895,78.218939,PM10,50,121,88
India,Telangana,Hyderabad,"IDA Pashamylaram, Hyderabad - TSPCB",26-09-2025 07:00:00,17.5316895,78.218939,SO2,2,18,8
India,Uttar_Pradesh,Agra,"Shahjahan Garden, Agra - UPPCB",26-09-2025 07:00:00,27.169338,78.03582,PM2.5,31,153,70
India,Uttar_Pradesh,Agra,"Shastripuram, Agra - UPPCB",26-09-2025 07:00:00,27.19862,77.92066,PM2.5,29,345,98
India,Uttar_Pradesh,Agra,"Shastripuram, Agra - UPPCB",26-09-2025 07:00:00,27.19862,77.92066,OZONE,3,4,3
India,Uttar_Pradesh,Baghpat,"Sardar Patel Inter College, Baghpat - UPPCB",26-09-2025 07:00:00,28.964949,77.278761,PM10,76,139,106
India,Uttar_Pradesh,Baghpat,"Sardar Patel Inter College, Baghpat - UPPCB",26-09-2025 07:00:00,28.964949,77.278761,NO2,35,70,57
India,Uttar_Pradesh,Baghpat,"Sardar Patel Inter College, Baghpat - UPPCB",26-09-2025 07:00:00,28.964949,77.278761,NH3,4,8,7
India,Uttar_Pradesh,Baghpat,"Sardar Patel Inter College, Baghpat - UPPCB",26-09-2025 07:00:00,28.964949,77.278761,SO2,24,51,34
India,Uttar_Pradesh,Baghpat,"Sardar Patel Inter College, Baghpat - UPPCB",26-09-2025 07:00:00,28.964949,77.278761,CO,34,71,44
India,Telangana,Hyderabad,"Kompally Municipal Office, Hyderabad - TSPCB",26-09-2025 07:00:00,17.544899,78.486949,OZONE,33,42,41
India,Telangana,Hyderabad,"Nacharam_TSIIC IALA, Hyderabad - TSPCB",26-09-2025 07:00:00,17.429398,78.569354,NH3,5,7,5
India,Telangana,Hyderabad,"Nacharam_TSIIC IALA, Hyderabad - TSPCB",26-09-2025 07:00:00,17.429398,78.569354,SO2,10,20,17
India,Telangana,Hyderabad,"New Malakpet, Hyderabad - TSPCB",26-09-2025 07:00:00,17.37206,78.50864,PM10,63,73,67
India,Telangana,Hyderabad,"New Malakpet, Hyderabad - TSPCB",26-09-2025 07:00:00,17.37206,78.50864,OZONE,27,45,32
India,Telangana,Hyderabad,"Kokapet, Hyderabad - TSPCB",26-09-2025 07:00:00,17.393559,78.339194,PM10,63,180,76
India,Telangana,Hyderabad,"Kokapet, Hyderabad - TSPCB",26-09-2025 07:00:00,17.393559,78.339194,NO2,13,16,14
India,Telangana,Hyderabad,"Kokapet, Hyderabad - TSPCB",26-09-2025 07:00:00,17.393559,78.339194,NH3,2,3,2
India,Telangana,Hyderabad,"Kokapet, Hyderabad - TSPCB",26-09-2025 07:00:00,17.393559,78.339194,SO2,10,12,11
India,Telangana,Hyderabad,"Kompally Municipal Office, Hyderabad - TSPCB",26-09-2025 07:00:00,17.544899,78.486949,NO2,14,17,16
India,Telangana,Hyderabad,"IDA Pashamylaram, Hyderabad - TSPCB",26-09-2025 07:00:00,17.5316895,78.218939,OZONE,7,11,8
India,Telangana,Hyderabad,"IITH Kandi, Hyderabad - TSPCB",26-09-2025 07:00:00,17.585705,78.126199,PM10,74,74,74
India,Telangana,Hyderabad,"IITH Kandi, Hyderabad - TSPCB",26-09-2025 07:00:00,17.585705,78.126199,NH3,5,7,6
India,Telangana,Hyderabad,"Sanathnagar, Hyderabad - TSPCB",26-09-2025 07:00:00,17.4559458,78.4332152,OZONE,12,16,14
India,Telangana,Hyderabad,"Somajiguda, Hyderabad - TSPCB",26-09-2025 07:00:00,17.417094,78.457437,PM2.5,NA,NA,NA
India,Telangana,Hyderabad,"Somajiguda, Hyderabad - TSPCB",26-09-2025 07:00:00,17.417094,78.457437,OZONE,NA,NA,NA
India,Uttar_Pradesh,Agra,"Manoharpur, Agra - UPPCB",26-09-2025 07:00:00,27.23711,78.01936,OZONE,8,8,8
India,Uttar_Pradesh,Agra,"Rohta, Agra - UPPCB",26-09-2025 07:00:00,27.106972,78.000111,NH3,7,7,7
India,Uttar_Pradesh,Bareilly,"Rajendra Nagar, Bareilly - UPPCB",26-09-2025 07:00:00,28.38910936,79.42963708,NH3,1,1,1
India,Uttar_Pradesh,Bulandshahr,"Yamunapuram, Bulandshahr - UPPCB",26-09-2025 07:00:00,28.406963,77.849831,NO2,21,61,41
India,Uttar_Pradesh,Bulandshahr,"Yamunapuram, Bulandshahr - UPPCB",26-09-2025 07:00:00,28.406963,77.849831,SO2,9,43,17
India,Uttar_Pradesh,Firozabad,"Nagla Bhau, Firozabad - UPPCB",26-09-2025 07:00:00,27.168897,78.376960,PM10,37,67,48
India,Uttar_Pradesh,Firozabad,"Nagla Bhau, Firozabad - UPPCB",26-09-2025 07:00:00,27.168897,78.376960,NO2,17,17,17
India,Uttar_Pradesh,Firozabad,"Vibhab Nagar, Firozabad - UPPCB",26-09-2025 07:00:00,27.1594,78.3953,OZONE,3,19,9
India,Uttar_Pradesh,Ghaziabad,"Indirapuram, Ghaziabad - UPPCB",26-09-2025 07:00:00,28.646233,77.358075,NO2,21,100,48
India,Uttar_Pradesh,Lucknow,"B R Ambedkar University, Lucknow - UPPCB",26-09-2025 07:00:00,26.766433,80.927299,OZONE,31,34,32
India,Uttar_Pradesh,Lucknow,"Kendriya Vidyalaya, Lucknow - CPCB",26-09-2025 07:00:00,26.906111,80.948222,NO2,24,34,27
India,Uttar_Pradesh,Lucknow,"Kendriya Vidyalaya, Lucknow - CPCB",26-09-2025 07:00:00,26.906111,80.948222,SO2,1,21,9
India,Uttar_Pradesh,Lucknow,"Kendriya Vidyalaya, Lucknow - CPCB",26-09-2025 07:00:00,26.906111,80.948222,OZONE,10,79,14
India,Uttar_Pradesh,Lucknow,"Kukrail Picnic Spot-1, Lucknow - UPPCB",26-09-2025 07:00:00,26.90723,80.98579,NO2,23,23,23
India,Uttar_Pradesh,Lucknow,"Kukrail Picnic Spot-1, Lucknow - UPPCB",26-09-2025 07:00:00,26.90723,80.98579,SO2,23,24,23
India,Uttar_Pradesh,Kanpur,"FTI Kidwai Nagar, Kanpur - UPPCB",26-09-2025 07:00:00,26.428282,80.327067,SO2,12,19,16
India,Uttar_Pradesh,Kanpur,"NSI Kalyanpur, Kanpur - UPPCB",26-09-2025 07:00:00,26.509954,80.249612,SO2,11,25,14
India,Uttar_Pradesh,Khurja,"Kalindi Kunj, Khurja - UPPCB",26-09-2025 07:00:00,28.2348927,77.8683002,PM2.5,NA,NA,NA
India,Uttar_Pradesh,Khurja,"Kalindi Kunj, Khurja - UPPCB",26-09-2025 07:00:00,28.2348927,77.8683002,NH3,NA,NA,NA
India,Uttar_Pradesh,Khurja,"Kalindi Kunj, Khurja - UPPCB",26-09-2025 07:00:00,28.2348927,77.8683002,SO2,NA,NA,NA
India,Uttar_Pradesh,Ghaziabad,"Vasundhara, Ghaziabad - UPPCB",26-09-2025 07:00:00,28.6603346,77.3572563,NH3,1,15,11
India,Uttar_Pradesh,Greater Noida,"Knowledge Park - V, Greater Noida - UPPCB",26-09-2025 07:00:00,28.557054,77.453663,PM10,119,214,163
India,Uttar_Pradesh,Greater Noida,"Knowledge Park - V, Greater Noida - UPPCB",26-09-2025 07:00:00,28.557054,77.453663,SO2,8,12,10
India,Uttar_Pradesh,Lucknow,"B R Ambedkar University, Lucknow - UPPCB",26-09-2025 07:00:00,26.766433,80.927299,NH3,4,4,4
India,Uttar_Pradesh,Ghaziabad,"Sanjay Nagar, Ghaziabad - UPPCB",26-09-2025 07:00:00,28.685382,77.453839,PM10,81,179,128
India,Uttar_Pradesh,Ghaziabad,"Indirapuram, Ghaziabad - UPPCB",26-09-2025 07:00:00,28.646233,77.358075,SO2,10,104,20
India,Uttar_Pradesh,Jhansi,"Shivaji Nagar, Jhansi - UPPCB",26-09-2025 07:00:00,25.4547,78.6039,CO,6,14,11
India,Uttar_Pradesh,Jhansi,"Shivaji Nagar, Jhansi - UPPCB",26-09-2025 07:00:00,25.4547,78.6039,NO2,6,6,6
India,Uttar_Pradesh,Moradabad,"Kashiram Nagar, Moradabad - UPPCB",26-09-2025 07:00:00,28.849399,78.742362,PM2.5,62,228,105
India,Uttar_Pradesh,Moradabad,"Kashiram Nagar, Moradabad - UPPCB",26-09-2025 07:00:00,28.849399,78.742362,NO2,25,25,25
India,Uttar_Pradesh,Moradabad,"Kashiram Nagar, Moradabad - UPPCB",26-09-2025 07:00:00,28.849399,78.742362,CO,17,36,24
India,Uttar_Pradesh,Moradabad,"Transport Nagar, Moradabad - UPPCB",26-09-2025 07:00:00,28.802625,78.753728,SO2,18,31,28
India,Uttar_Pradesh,Moradabad,"Transport Nagar, Moradabad - UPPCB",26-09-2025 07:00:00,28.802625,78.753728,OZONE,28,59,32
India,Uttar_Pradesh,Muzaffarnagar,"New Mandi, Muzaffarnagar - UPPCB",26-09-2025 07:00:00,29.4723508,77.7194031,CO,17,48,24
India,Uttar_Pradesh,Noida,"Sector - 125, Noida - UPPCB",26-09-2025 07:00:00,28.5447608,77.3231257,PM2.5,22,68,50
India,Uttar_Pradesh,Noida,"Sector - 125, Noida - UPPCB",26-09-2025 07:00:00,28.5447608,77.3231257,SO2,18,29,22
India,Uttar_Pradesh,Noida,"Sector - 62, Noida - IMD",26-09-2025 07:00:00,28.6245479,77.3577104,PM10,65,155,103
India,Uttar_Pradesh,Noida,"Sector-1, Noida - UPPCB",26-09-2025 07:00:00,28.5898,77.3101,PM2.5,31,87,51
India,Uttar_Pradesh,Noida,"Sector-116, Noida - UPPCB",26-09-2025 07:00:00,28.569230,77.393848,NO2,46,79,61
India,Uttar_Pradesh,Noida,"Sector-116, Noida - UPPCB",26-09-2025 07:00:00,28.569230,77.393848,NH3,6,11,8
India,Uttar_Pradesh,Prayagraj,"Jhunsi, Prayagraj - UPPCB",26-09-2025 07:00:00,25.425602,81.917152,PM2.5,17,55,34
India,Uttar_Pradesh,Prayagraj,"Motilal Nehru NIT, Prayagraj - UPPCB",26-09-2025 07:00:00,25.494,81.863,NO2,12,12,12
India,Uttar_Pradesh,Prayagraj,"Nagar Nigam, Prayagraj - UPPCB",26-09-2025 07:00:00,25.44919916 ,81.82735986 ,PM2.5,15,89,40
India,Uttar_Pradesh,Prayagraj,"Nagar Nigam, Prayagraj - UPPCB",26-09-2025 07:00:00,25.44919916 ,81.82735986 ,CO,12,34,25
India,Uttar_Pradesh,Varanasi,"Ardhali Bazar, Varanasi - UPPCB",26-09-2025 07:00:00,25.3505986,82.9083074,PM2.5,15,53,37
India,Uttar_Pradesh,Varanasi,"Ardhali Bazar, Varanasi - UPPCB",26-09-2025 07:00:00,25.3505986,82.9083074,PM10,17,71,47
India,Uttar_Pradesh,Varanasi,"Ardhali Bazar, Varanasi - UPPCB",26-09-2025 07:00:00,25.3505986,82.9083074,NO2,7,20,15
India,Uttar_Pradesh,Varanasi,"Bhelupur, Varanasi - UPPCB",26-09-2025 07:00:00,25.301778,82.996789,PM2.5,19,84,43
India,Uttar_Pradesh,Lucknow,"Lalbagh, Lucknow - CPCB",26-09-2025 07:00:00,26.8458805,80.9365541,PM2.5,78,328,187
India,Uttar_Pradesh,Lucknow,"Lalbagh, Lucknow - CPCB",26-09-2025 07:00:00,26.8458805,80.9365541,PM10,NA,NA,NA
India,Uttar_Pradesh,Lucknow,"Lalbagh, Lucknow - CPCB",26-09-2025 07:00:00,26.8458805,80.9365541,NH3,14,23,17
India,Uttar_Pradesh,Lucknow,"Talkatora District Industries Center, Lucknow - CPCB",26-09-2025 07:00:00,26.83399722,80.8917361,NO2,42,85,57
India,Uttar_Pradesh,Lucknow,"Talkatora District Industries Center, Lucknow - CPCB",26-09-2025 07:00:00,26.83399722,80.8917361,CO,8,104,33
India,Uttar_Pradesh,Meerut,"Ganga Nagar, Meerut - UPPCB",26-09-2025 07:00:00,28.999264,77.7590354,CO,34,42,34
India,Uttar_Pradesh,Meerut,"Jai Bhim Nagar, Meerut - UPPCB",26-09-2025 07:00:00,28.9535882,77.7622941,PM2.5,34,84,48
India,Uttar_Pradesh,Meerut,"Jai Bhim Nagar, Meerut - UPPCB",26-09-2025 07:00:00,28.9535882,77.7622941,NH3,3,7,4
India,Uttar_Pradesh,Varanasi,"Maldahiya, Varanasi - UPPCB",26-09-2025 07:00:00,25.32393,82.99687,OZONE,1,4,2
India,Uttar_Pradesh,Vrindavan,"Omex Eternity, Vrindavan - UPPCB",26-09-2025 07:00:00,27.5714090,77.6557570,PM10,41,137,82
India,Uttar_Pradesh,Vrindavan,"Omex Eternity, Vrindavan - UPPCB",26-09-2025 07:00:00,27.5714090,77.6557570,SO2,8,14,11
India,Uttar_Pradesh,Vrindavan,"Omex Eternity, Vrindavan - UPPCB",26-09-2025 07:00:00,27.5714090,77.6557570,CO,10,27,26
India,Uttarakhand,Kashipur,"Govt. Girls Inter College, Kashipur - UKPCB",26-09-2025 07:00:00,29.2124114,78.9611753,PM2.5,58,98,83
India,Uttarakhand,Kashipur,"Govt. Girls Inter College, Kashipur - UKPCB",26-09-2025 07:00:00,29.2124114,78.9611753,NH3,1,3,2
India,Uttarakhand,Kashipur,"Govt. Girls Inter College, Kashipur - UKPCB",26-09-2025 07:00:00,29.2124114,78.9611753,CO,15,22,19
India,Uttar_Pradesh,Moradabad,"Eco Herbal Park, Moradabad - UPPCB",26-09-2025 07:00:00,28.840739,78.697531,NH3,2,4,3
India,Uttar_Pradesh,Moradabad,"Eco Herbal Park, Moradabad - UPPCB",26-09-2025 07:00:00,28.840739,78.697531,SO2,10,26,17
India,Uttar_Pradesh,Moradabad,"Employment Office, Moradabad - UPPCB",26-09-2025 07:00:00,28.88528,78.73880,NO2,15,16,16
India,Uttar_Pradesh,Moradabad,"Jigar Colony, Moradabad - UPPCB",26-09-2025 07:00:00,28.856664,78.772638,PM10,79,131,105
India,Uttarakhand,Kashipur,"Govt. Girls Inter College, Kashipur - UKPCB",26-09-2025 07:00:00,29.2124114,78.9611753,OZONE,1,39,1
India,Uttarakhand,Rishikesh,"Shivaji Nagar, Rishikesh - UKPCB",26-09-2025 07:00:00,30.075911,78.2859547,PM10,NA,NA,NA
India,Uttarakhand,Rishikesh,"Shivaji Nagar, Rishikesh - UKPCB",26-09-2025 07:00:00,30.075911,78.2859547,NO2,NA,NA,NA
India,Uttarakhand,Rishikesh,"Shivaji Nagar, Rishikesh - UKPCB",26-09-2025 07:00:00,30.075911,78.2859547,SO2,NA,NA,NA
India,West_Bengal,Asansol,"Asansol Court Area, Asansol - WBPCB",26-09-2025 07:00:00,23.685297,86.945968,PM2.5,29,99,60
India,Uttar_Pradesh,Varanasi,"Bhelupur, Varanasi - UPPCB",26-09-2025 07:00:00,25.301778,82.996789,NH3,1,1,1
India,West_Bengal,Durgapur,"Mahishkapur Road_B-Zone, Durgapur - WBPCB",26-09-2025 07:00:00,23.567923,87.306843,OZONE,10,47,13
India,West_Bengal,Durgapur,"PCBL Residential Complex, Durgapur - WBPCB",26-09-2025 07:00:00,23.5087640,87.3544400,NO2,5,18,12
India,West_Bengal,Durgapur,"PCBL Residential Complex, Durgapur - WBPCB",26-09-2025 07:00:00,23.5087640,87.3544400,CO,48,104,91
India,West_Bengal,Durgapur,"Womens College_City Center, Durgapur - WBPCB (Formerly known as Sidhu Kanhu Indoor Stadium)",26-09-2025 07:00:00,23.549395,87.300496,PM2.5,6,56,26
India,West_Bengal,Durgapur,"Womens College_City Center, Durgapur - WBPCB (Formerly known as Sidhu Kanhu Indoor Stadium)",26-09-2025 07:00:00,23.549395,87.300496,SO2,25,34,29
India,West_Bengal,Howrah,"Padmapukur, Howrah - WBPCB",26-09-2025 07:00:00,22.5687319,88.2797276,PM10,28,69,45
India,West_Bengal,Howrah,"Padmapukur, Howrah - WBPCB",26-09-2025 07:00:00,22.5687319,88.2797276,SO2,3,8,6
India,West_Bengal,Howrah,"Padmapukur, Howrah - WBPCB",26-09-2025 07:00:00,22.5687319,88.2797276,CO,24,63,37
India,West_Bengal,Kolkata,"Ballygunge, Kolkata - WBPCB",26-09-2025 07:00:00,22.5367507,88.3638022,CO,5,38,29
India,West_Bengal,Haldia,"Priyambada Housing Estate, Haldia - WBPCB",26-09-2025 07:00:00,22.06047,88.109737,NO2,7,17,10
India,West_Bengal,Howrah,"Belur Math, Howrah - WBPCB",26-09-2025 07:00:00,22.629801,88.352017,OZONE,NA,NA,NA
India,West_Bengal,Howrah,"Botanical Garden, Howrah - WBPCB",26-09-2025 07:00:00,22.554954,88.292568,NO2,7,15,10
India,West_Bengal,Howrah,"Ghusuri, Howrah - WBPCB",26-09-2025 07:00:00,22.611968,88.347422,PM2.5,28,57,42
India,West_Bengal,Howrah,"Ghusuri, Howrah - WBPCB",26-09-2025 07:00:00,22.611968,88.347422,SO2,3,8,6
India,West_Bengal,Howrah,"Ghusuri, Howrah - WBPCB",26-09-2025 07:00:00,22.611968,88.347422,CO,6,15,9
India,West_Bengal,Howrah,"Ghusuri, Howrah - WBPCB",26-09-2025 07:00:00,22.611968,88.347422,OZONE,23,71,31
India,West_Bengal,Barrackpore,"SVSPA Campus, Barrackpore - WBPCB",26-09-2025 07:00:00,22.7605581,88.3617589,PM10,NA,NA,NA
India,West_Bengal,Barrackpore,"SVSPA Campus, Barrackpore - WBPCB",26-09-2025 07:00:00,22.7605581,88.3617589,SO2,14,15,14
India,West_Bengal,Asansol,"Trivenidevi Bhalotia College, Asansol - WBPCB",26-09-2025 07:00:00,23.616515,87.119133,CO,56,103,84
India,West_Bengal,Durgapur,"Mahishkapur Road_B-Zone, Durgapur - WBPCB",26-09-2025 07:00:00,23.567923,87.306843,CO,18,106,62
India,West_Bengal,Asansol,"Asansol Court Area, Asansol - WBPCB",26-09-2025 07:00:00,23.685297,86.945968,SO2,10,17,13
India,West_Bengal,Asansol,"Mahabir Colliery, Asansol - WBPCB",26-09-2025 07:00:00,23.6181830,87.1057180,SO2,NA,NA,NA
India,West_Bengal,Kolkata,"Bidhannagar, Kolkata - WBPCB",26-09-2025 07:00:00,22.58157048,88.41002457,PM10,35,50,43
India,West_Bengal,Kolkata,"Bidhannagar, Kolkata - WBPCB",26-09-2025 07:00:00,22.58157048,88.41002457,NH3,5,8,7
India,West_Bengal,Kolkata,"Fort William, Kolkata - WBPCB",26-09-2025 07:00:00,22.556640,88.342674,PM2.5,26,46,33
India,West_Bengal,Kolkata,"Fort William, Kolkata - WBPCB",26-09-2025 07:00:00,22.556640,88.342674,CO,21,62,35
India,West_Bengal,Kolkata,"Fort William, Kolkata - WBPCB",26-09-2025 07:00:00,22.556640,88.342674,OZONE,12,90,65
India,West_Bengal,Kolkata,"Rabindra Bharati University, Kolkata - WBPCB",26-09-2025 07:00:00,22.627847,88.380669,NH3,7,8,8
India,West_Bengal,Kolkata,"Rabindra Sarobar, Kolkata - WBPCB",26-09-2025 07:00:00,22.51106,88.35142,SO2,5,7,6
India,West_Bengal,Kolkata,"Rabindra Sarobar, Kolkata - WBPCB",26-09-2025 07:00:00,22.51106,88.35142,CO,8,36,27
India,West_Bengal,Kolkata,"Victoria, Kolkata - WBPCB",26-09-2025 07:00:00,22.5448082,88.3403691,NO2,12,26,18
India,West_Bengal,Siliguri,"Ward-32 Bapupara, Siliguri - WBPCB",26-09-2025 07:00:00,26.6879226,88.4152495,PM2.5,26,50,36
India,West_Bengal,Siliguri,"Ward-32 Bapupara, Siliguri - WBPCB",26-09-2025 07:00:00,26.6879226,88.4152495,NH3,11,11,11
India,West_Bengal,Siliguri,"Ward-32 Bapupara, Siliguri - WBPCB",26-09-2025 07:00:00,26.6879226,88.4152495,SO2,10,13,12
India,Bihar,Araria,"Kharahiya Basti, Araria - BSPCB",26-09-2025 07:00:00,26.146529,87.454184,NH3,5,5,5
India,Bihar,Arrah,"New DM Office, Arrah - BSPCB",26-09-2025 07:00:00,25.5626095,84.663264,PM2.5,28,30,29
India,Bihar,Arrah,"New DM Office, Arrah - BSPCB",26-09-2025 07:00:00,25.5626095,84.663264,NO2,5,8,7
India,Bihar,Arrah,"New DM Office, Arrah - BSPCB",26-09-2025 07:00:00,25.5626095,84.663264,SO2,9,10,9
India,Bihar,Aurangabad,"Gurdeo Nagar, Aurangabad - BSPCB",26-09-2025 07:00:00,24.75746,84.366208,PM10,14,500,147
India,Bihar,Aurangabad,"Gurdeo Nagar, Aurangabad - BSPCB",26-09-2025 07:00:00,24.75746,84.366208,NO2,7,8,8
India,Bihar,Aurangabad,"Gurdeo Nagar, Aurangabad - BSPCB",26-09-2025 07:00:00,24.75746,84.366208,NH3,1,2,2
India,Bihar,Aurangabad,"Gurdeo Nagar, Aurangabad - BSPCB",26-09-2025 07:00:00,24.75746,84.366208,CO,4,41,20
India,Bihar,Begusarai,"Lohiyanagar, Begusarai - BSPCB",26-09-2025 07:00:00,25.42742023,86.13886079,PM2.5,13,29,18
India,Bihar,Begusarai,"Lohiyanagar, Begusarai - BSPCB",26-09-2025 07:00:00,25.42742023,86.13886079,NO2,6,21,14
India,Bihar,Bettiah,"Kamalnath Nagar, Bettiah - BSPCB",26-09-2025 07:00:00,26.80365,84.51954,PM2.5,2,57,25
India,Bihar,Bhagalpur,"DM Office_Kachari Chowk, Bhagalpur - BSPCB",26-09-2025 07:00:00,25.251013,86.989001,NH3,4,10,6
India,Assam,Guwahati,"Railway Colony, Guwahati - PCBA",26-09-2025 07:00:00,26.181742,91.78063,PM10,30,142,75
India,Assam,Nagaon,"Christianpatty, Nagaon - PCBA",26-09-2025 07:00:00,26.349082,92.68449,CO,16,65,65
India,Assam,Sivasagar,"Girls College, Sivasagar - PCBA",26-09-2025 07:00:00,26.987634,94.636574,PM10,21,48,33
India,Assam,Sivasagar,"Girls College, Sivasagar - PCBA",26-09-2025 07:00:00,26.987634,94.636574,NH3,3,5,4
India,Assam,Sivasagar,"Girls College, Sivasagar - PCBA",26-09-2025 07:00:00,26.987634,94.636574,CO,15,52,28
India,Bihar,Araria,"Kharahiya Basti, Araria - BSPCB",26-09-2025 07:00:00,26.146529,87.454184,PM2.5,NA,NA,NA
India,Bihar,Araria,"Kharahiya Basti, Araria - BSPCB",26-09-2025 07:00:00,26.146529,87.454184,PM10,NA,NA,NA
India,Andhra_Pradesh,Vijayawada,"Rajiv Gandhi Park, Vijayawada - APPCB",26-09-2025 07:00:00,16.509717,80.612222,PM2.5,NA,NA,NA
India,Andhra_Pradesh,Vijayawada,"Rajiv Nagar, Vijayawada - APPCB",26-09-2025 07:00:00,16.554731,80.649110,NO2,NA,NA,NA
India,Andhra_Pradesh,Vijayawada,"Rajiv Nagar, Vijayawada - APPCB",26-09-2025 07:00:00,16.554731,80.649110,CO,NA,NA,NA
India,Andhra_Pradesh,Visakhapatnam,"GVM Corporation, Visakhapatnam - APPCB",26-09-2025 07:00:00,17.72,83.3,SO2,4,15,10
India,Arunachal_Pradesh,Naharlagun,"Naharlagun, Naharlagun - APSPCB",26-09-2025 07:00:00,27.103358,93.679645,NO2,5,6,6
India,Assam,Guwahati,"IITG, Guwahati - PCBA",26-09-2025 07:00:00,26.2028636,91.70046436,PM2.5,2,70,34
India,Assam,Guwahati,"IITG, Guwahati - PCBA",26-09-2025 07:00:00,26.2028636,91.70046436,PM10,20,127,58
India,Assam,Guwahati,"LGBI Airport, Guwahati - PCBA",26-09-2025 07:00:00,26.10887,91.589544,PM2.5,NA,NA,NA
India,Assam,Guwahati,"LGBI Airport, Guwahati - PCBA",26-09-2025 07:00:00,26.10887,91.589544,PM10,NA,NA,NA
India,Assam,Guwahati,"LGBI Airport, Guwahati - PCBA",26-09-2025 07:00:00,26.10887,91.589544,NH3,NA,NA,NA
India,Assam,Guwahati,"LGBI Airport, Guwahati - PCBA",26-09-2025 07:00:00,26.10887,91.589544,CO,24,123,123
India,Bihar,Gaya,"Kareemganj, Gaya - BSPCB",26-09-2025 07:00:00,24.792403,84.992416,NH3,4,6,5
India,Bihar,Gaya,"Kareemganj, Gaya - BSPCB",26-09-2025 07:00:00,24.792403,84.992416,CO,38,46,39
India,Bihar,Hajipur,"Industrial Area, Hajipur - BSPCB",26-09-2025 07:00:00,25.697189,85.245900,SO2,2,6,3
India,Bihar,Katihar,"Mirchaibari, Katihar - BSPCB",26-09-2025 07:00:00,25.560083,87.553265,NO2,11,17,14
India,Bihar,Chhapra,"Darshan Nagar, Chhapra - BSPCB",26-09-2025 07:00:00,25.7808257,84.7446768,OZONE,NA,NA,NA
India,Bihar,Gaya,"Collectorate, Gaya - BSPCB",26-09-2025 07:00:00,24.7955,84.9994,CO,38,66,45
India,Bihar,Gaya,"Collectorate, Gaya - BSPCB",26-09-2025 07:00:00,24.7955,84.9994,OZONE,19,21,20
India,Bihar,Gaya,"Kareemganj, Gaya - BSPCB",26-09-2025 07:00:00,24.792403,84.992416,NO2,2,6,4
India,Andhra_Pradesh,Tirupati,"Vaikuntapuram, Tirupati - APPCB",26-09-2025 07:00:00,13.615387,79.409230,PM10,NA,NA,NA
India,Andhra_Pradesh,Tirupati,"Vaikuntapuram, Tirupati - APPCB",26-09-2025 07:00:00,13.615387,79.409230,NO2,NA,NA,NA
India,Andhra_Pradesh,Vijayawada,"HB Colony, Vijayawada - APPCB",26-09-2025 07:00:00,16.536107,80.594233,PM2.5,NA,NA,NA
India,Andhra_Pradesh,Vijayawada,"HB Colony, Vijayawada - APPCB",26-09-2025 07:00:00,16.536107,80.594233,SO2,NA,NA,NA
India,Andhra_Pradesh,Rajamahendravaram,"Anand Kala Kshetram, Rajamahendravaram - APPCB",26-09-2025 07:00:00,16.9872867,81.7363176,NO2,9,22,13
India,Andhra_Pradesh,Rajamahendravaram,"Anand Kala Kshetram, Rajamahendravaram - APPCB",26-09-2025 07:00:00,16.9872867,81.7363176,OZONE,8,11,10
India,Andhra_Pradesh,Amaravati,"Secretariat, Amaravati - APPCB",26-09-2025 07:00:00,16.5150833,80.5181667,PM10,18,65,37
India,Andhra_Pradesh,Kadapa,"Yerramukkapalli, Kadapa - APPCB",26-09-2025 07:00:00,14.465052,78.824187,OZONE,33,47,42
India,Chhattisgarh,Bhilai,"Hathkhoj, Bhilai - CECB",26-09-2025 07:00:00,21.224231,81.408350,CO,14,33,20
India,Chhattisgarh,Bilaspur,"Mangala, Bilaspur - NTPC",26-09-2025 07:00:00,22.08815,82.13737,PM2.5,12,37,22
India,Chhattisgarh,Bilaspur,"Mangala, Bilaspur - NTPC",26-09-2025 07:00:00,22.08815,82.13737,NO2,19,36,22
India,Chhattisgarh,Bilaspur,"Mangala, Bilaspur - NTPC",26-09-2025 07:00:00,22.08815,82.13737,SO2,8,16,14
India,Chhattisgarh,Chhal,"Nawapara SECL Colony, Chhal - CECB",26-09-2025 07:00:00,22.118125,83.140608,OZONE,28,63,30
India,Chhattisgarh,Korba,"Rampur, Korba - CECB",26-09-2025 07:00:00,22.368195,82.746431,PM2.5,10,11,11
India,Chhattisgarh,Korba,"Rampur, Korba - CECB",26-09-2025 07:00:00,22.368195,82.746431,NH3,1,1,1
India,Chhattisgarh,Korba,"Rampur, Korba - CECB",26-09-2025 07:00:00,22.368195,82.746431,CO,9,14,13
India,Chhattisgarh,Kunjemura,"OP Jindal School, Kunjemura - CECB",26-09-2025 07:00:00,22.126650,83.483212,NO2,2,3,3
India,Chhattisgarh,Kunjemura,"OP Jindal School, Kunjemura - CECB",26-09-2025 07:00:00,22.126650,83.483212,OZONE,1,9,2
India,Chhattisgarh,Milupara,"Govt. Higher Secondary School, Milupara - CECB",26-09-2025 07:00:00,22.1910172,83.5197009,NO2,NA,NA,NA
India,Bihar,Siwan,"Chitragupta Nagar, Siwan - BSPCB",26-09-2025 07:00:00,26.2271665,84.3570427,CO,68,94,80
India,Chhattisgarh,Bhilai,"Civic Center, Bhilai - Bhilai Steel Plant",26-09-2025 07:00:00,21.185571,81.343175,PM2.5,27,87,47
India,Chhattisgarh,Bhilai,"Civic Center, Bhilai - Bhilai Steel Plant",26-09-2025 07:00:00,21.185571,81.343175,PM10,38,99,63
India,Chhattisgarh,Bhilai,"Civic Center, Bhilai - Bhilai Steel Plant",26-09-2025 07:00:00,21.185571,81.343175,NH3,3,3,3
India,Chhattisgarh,Bhilai,"Civic Center, Bhilai - Bhilai Steel Plant",26-09-2025 07:00:00,21.185571,81.343175,OZONE,5,13,10
India,Chhattisgarh,Bhilai,"Hathkhoj, Bhilai - CECB",26-09-2025 07:00:00,21.224231,81.408350,NH3,3,4,4
India,Bihar,Patna,"DRM Office Danapur, Patna - BSPCB",26-09-2025 07:00:00,25.586562,85.043586,NH3,2,3,3
India,Bihar,Patna,"Govt. High School Shikarpur, Patna - BSPCB",26-09-2025 07:00:00,25.592539,85.227158,NH3,4,5,5
India,Bihar,Patna,"IGSC Planetarium Complex, Patna - BSPCB",26-09-2025 07:00:00,25.610369,85.132568,SO2,20,26,23
India,Bihar,Patna,"IGSC Planetarium Complex, Patna - BSPCB",26-09-2025 07:00:00,25.610369,85.132568,CO,58,66,64
India,Bihar,Patna,"Muradpur, Patna - BSPCB",26-09-2025 07:00:00,25.619651,85.147382,NO2,30,82,46
India,Bihar,Patna,"Muradpur, Patna - BSPCB",26-09-2025 07:00:00,25.619651,85.147382,CO,34,66,48
India,Bihar,Manguraha,"Forest Rest House, Manguraha - BSPCB",26-09-2025 07:00:00,27.308328,84.531742,PM2.5,17,203,43
India,Bihar,Manguraha,"Forest Rest House, Manguraha - BSPCB",26-09-2025 07:00:00,27.308328,84.531742,PM10,16,173,42
India,Bihar,Manguraha,"Forest Rest House, Manguraha - BSPCB",26-09-2025 07:00:00,27.308328,84.531742,NH3,1,1,1
India,Bihar,Motihari,"Gandak Colony, Motihari - BSPCB",26-09-2025 07:00:00,26.63086,84.90051,PM2.5,NA,NA,NA
India,Bihar,Motihari,"Gandak Colony, Motihari - BSPCB",26-09-2025 07:00:00,26.63086,84.90051,PM10,NA,NA,NA
India,Bihar,Motihari,"Gandak Colony, Motihari - BSPCB",26-09-2025 07:00:00,26.63086,84.90051,NO2,5,7,6
India,Bihar,Motihari,"Gandak Colony, Motihari - BSPCB",26-09-2025 07:00:00,26.63086,84.90051,SO2,2,3,3
India,Chhattisgarh,Raipur,"AIIMS, Raipur - CECB",26-09-2025 07:00:00,21.258815,81.578979,PM2.5,35,89,55
India,Chhattisgarh,Raipur,"AIIMS, Raipur - CECB",26-09-2025 07:00:00,21.258815,81.578979,CO,34,68,42
India,Chhattisgarh,Raipur,"Krishak Nagar, Raipur - CECB",26-09-2025 07:00:00,21.237755,81.705301,CO,16,28,21
India,Chhattisgarh,Raipur,"Siltara Phase-II, Raipur - CECB",26-09-2025 07:00:00,21.371751,81.664929,NH3,3,3,3
India,Bihar,Rajgir,"Dangi Tola, Rajgir - BSPCB",26-09-2025 07:00:00,25.03280,85.41948,PM2.5,100,105,102
India,Bihar,Saharsa,"Police Line, Saharsa - BSPCB",26-09-2025 07:00:00,25.892357,86.590325,NH3,4,4,4
India,Bihar,Samastipur,"DM Office_Kasipur, Samastipur - BSPCB",26-09-2025 07:00:00,25.859655,85.77944,PM2.5,28,263,93
India,Delhi,Delhi,"Alipur, Delhi - DPCC",26-09-2025 07:00:00,28.815329,77.153010,PM10,67,173,119
India,Delhi,Delhi,"Anand Vihar, Delhi - DPCC",26-09-2025 07:00:00,28.647622,77.3158090,PM2.5,22,134,66
India,Delhi,Delhi,"Anand Vihar, Delhi - DPCC",26-09-2025 07:00:00,28.647622,77.3158090,CO,57,102,76
India,Delhi,Delhi,"Ashok Vihar, Delhi - DPCC",26-09-2025 07:00:00,28.695381,77.181665,PM10,92,148,120
India,Bihar,Motihari,"Gandak Colony, Motihari - BSPCB",26-09-2025 07:00:00,26.63086,84.90051,OZONE,2,3,2
India,Bihar,Munger,"Town Hall, Munger - BSPCB",26-09-2025 07:00:00,25.376776,86.471523,NO2,4,5,5
India,Bihar,Munger,"Town Hall, Munger - BSPCB",26-09-2025 07:00:00,25.376776,86.471523,NH3,6,6,6
India,Bihar,Patna,"Rajbansi Nagar, Patna - BSPCB",26-09-2025 07:00:00,25.599486,85.113666,CO,21,100,43
India,Delhi,Delhi,"ITO, Delhi - CPCB",26-09-2025 07:00:00,28.628624,77.241060,NO2,82,98,88
India,Delhi,Delhi,"ITO, Delhi - CPCB",26-09-2025 07:00:00,28.628624,77.241060,SO2,7,26,20
India,Delhi,Delhi,"Jahangirpuri, Delhi - DPCC",26-09-2025 07:00:00,28.732820,77.170633,PM10,104,256,140
India,Delhi,Delhi,"Jahangirpuri, Delhi - DPCC",26-09-2025 07:00:00,28.732820,77.170633,CO,38,100,58
India,Delhi,Delhi,"Jawaharlal Nehru Stadium, Delhi - DPCC",26-09-2025 07:00:00,28.580280,77.233829,NO2,34,111,61
India,Delhi,Delhi,"Lodhi Road, Delhi - IITM",26-09-2025 07:00:00,28.588333,77.221667,PM2.5,17,66,45
India,Delhi,Delhi,"Lodhi Road, Delhi - IITM",26-09-2025 07:00:00,28.588333,77.221667,PM10,66,106,87
India,Delhi,Delhi,"Major Dhyan Chand National Stadium, Delhi - DPCC",26-09-2025 07:00:00,28.611281,77.237738,PM2.5,32,110,52
India,Delhi,Delhi,"Major Dhyan Chand National Stadium, Delhi - DPCC",26-09-2025 07:00:00,28.611281,77.237738,OZONE,6,64,15
India,Delhi,Delhi,"Mandir Marg, Delhi - DPCC",26-09-2025 07:00:00,28.636429,77.201067,PM10,63,117,94
India,Delhi,Delhi,"Dr. Karni Singh Shooting Range, Delhi - DPCC",26-09-2025 07:00:00,28.498571,77.264840,NH3,4,7,6
India,Delhi,Delhi,"Dr. Karni Singh Shooting Range, Delhi - DPCC",26-09-2025 07:00:00,28.498571,77.264840,OZONE,4,61,5
India,Delhi,Delhi,"Dwarka-Sector 8, Delhi - DPCC ",26-09-2025 07:00:00,28.5710274,77.0719006,SO2,11,17,13
India,Delhi,Delhi,"Dwarka-Sector 8, Delhi - DPCC ",26-09-2025 07:00:00,28.5710274,77.0719006,CO,28,98,48
India,Delhi,Delhi,"IGI Airport (T3), Delhi - IMD",26-09-2025 07:00:00,28.5627763,77.1180053,PM2.5,18,148,51
India,Delhi,Delhi,"IHBAS, Dilshad Garden, Delhi - CPCB",26-09-2025 07:00:00,28.6811736,77.3025234,PM10,67,96,82
India,Delhi,Delhi,"Mundka, Delhi - DPCC",26-09-2025 07:00:00,28.684678,77.076574,PM10,73,224,133
India,Delhi,Delhi,"Mundka, Delhi - DPCC",26-09-2025 07:00:00,28.684678,77.076574,NO2,18,50,32
India,Delhi,Delhi,"NSIT Dwarka, Delhi - CPCB",26-09-2025 07:00:00,28.60909,77.0325413,NH3,8,10,9
India,Delhi,Delhi,"Najafgarh, Delhi - DPCC",26-09-2025 07:00:00,28.570173,76.933762,NO2,14,40,30
India,Delhi,Delhi,"Nehru Nagar, Delhi - DPCC",26-09-2025 07:00:00,28.567890,77.250515,PM10,68,178,99
India,Delhi,Delhi,"Nehru Nagar, Delhi - DPCC",26-09-2025 07:00:00,28.567890,77.250515,NO2,4,30,13
India,Delhi,Delhi,"Nehru Nagar, Delhi - DPCC",26-09-2025 07:00:00,28.567890,77.250515,CO,4,58,19
India,Delhi,Delhi,"Shadipur, Delhi - CPCB",26-09-2025 07:00:00,28.6514781,77.1473105,SO2,8,16,10
India,Delhi,Delhi,"Shadipur, Delhi - CPCB",26-09-2025 07:00:00,28.6514781,77.1473105,CO,26,78,41
India,Delhi,Delhi,"Sirifort, Delhi - CPCB",26-09-2025 07:00:00,28.5504249,77.2159377,PM2.5,32,70,48
India,Delhi,Delhi,"Sirifort, Delhi - CPCB",26-09-2025 07:00:00,28.5504249,77.2159377,PM10,77,221,118
India,Delhi,Delhi,"Sirifort, Delhi - CPCB",26-09-2025 07:00:00,28.5504249,77.2159377,NH3,9,17,12
India,Delhi,Delhi,"Sonia Vihar, Delhi - DPCC",26-09-2025 07:00:00,28.710508,77.249485,NH3,6,9,7
India,Delhi,Delhi,"North Campus, DU, Delhi - IMD",26-09-2025 07:00:00,28.6573814,77.1585447,OZONE,6,101,9
India,Delhi,Delhi,"Okhla Phase-2, Delhi - DPCC",26-09-2025 07:00:00,28.530785,77.271255,SO2,19,23,21
India,Delhi,Delhi,"Okhla Phase-2, Delhi - DPCC",26-09-2025 07:00:00,28.530785,77.271255,OZONE,8,83,10
India,Delhi,Delhi,"Aya Nagar, Delhi - IMD",26-09-2025 07:00:00,28.4706914,77.1099364,NO2,10,72,32
India,Delhi,Delhi,"Bawana, Delhi - DPCC",26-09-2025 07:00:00,28.776200,77.051074,NH3,4,5,5
India,Delhi,Delhi,"Sri Aurobindo Marg, Delhi - DPCC",26-09-2025 07:00:00,28.531346,77.190156,PM10,NA,NA,NA
India,Delhi,Delhi,"Sri Aurobindo Marg, Delhi - DPCC",26-09-2025 07:00:00,28.531346,77.190156,SO2,NA,NA,NA
India,Delhi,Delhi,"R K Puram, Delhi - DPCC",26-09-2025 07:00:00,28.563262,77.186937,OZONE,15,74,20
India,Delhi,Delhi,"DTU, Delhi - CPCB",26-09-2025 07:00:00,28.7500499,77.1112615,CO,7,31,18
India,Karnataka,Bengaluru,"Shivapura_Peenya, Bengaluru - KSPCB",26-09-2025 07:00:00,13.0246342,77.5080115,SO2,5,11,7
India,Karnataka,Bengaluru,"Shivapura_Peenya, Bengaluru - KSPCB",26-09-2025 07:00:00,13.0246342,77.5080115,OZONE,24,25,24
India,Karnataka,Bengaluru,"Silk Board, Bengaluru - KSPCB",26-09-2025 07:00:00,12.917348,77.622813,NO2,NA,NA,NA
India,Karnataka,Chamarajanagar,"Urban, Chamarajanagar - KSPCB",26-09-2025 07:00:00,11.55358,76.55521,NO2,14,35,26
India,Karnataka,Chamarajanagar,"Urban, Chamarajanagar - KSPCB",26-09-2025 07:00:00,11.55358,76.55521,SO2,2,5,3
India,Karnataka,Chikkaballapur,"Chikkaballapur Rural, Chikkaballapur - KSPCB",26-09-2025 07:00:00,13.428828,77.731418,PM2.5,NA,NA,NA
India,Gujarat,Ahmedabad,"SAC ISRO Bopal, Ahmedabad - IITM",26-09-2025 07:00:00,23.041137,72.456691,OZONE,1,48,6
India,Gujarat,Ahmedabad,"SAC ISRO Satellite, Ahmedabad - IITM",26-09-2025 07:00:00,23.023389,72.515201,PM10,48,98,68
India,Gujarat,Ahmedabad,"SAC ISRO Satellite, Ahmedabad - IITM",26-09-2025 07:00:00,23.023389,72.515201,NH3,3,4,3
India,Gujarat,Ahmedabad,"SAC ISRO Satellite, Ahmedabad - IITM",26-09-2025 07:00:00,23.023389,72.515201,SO2,4,19,7
India,Gujarat,Ankleshwar,"GIDC, Ankleshwar - GPCB",26-09-2025 07:00:00,21.613267,73.010555,OZONE,46,51,47
India,Gujarat,Gandhinagar,"GIFT City, Gandhinagar - IITM",26-09-2025 07:00:00,23.163798,72.677768,PM10,38,107,69
India,Jharkhand,Dhanbad,"Sardar Patel Nagar, Dhanbad - JSPCB",26-09-2025 07:00:00,23.80569,86.44268,PM2.5,5,108,28
India,Jharkhand,Dhanbad,"Sardar Patel Nagar, Dhanbad - JSPCB",26-09-2025 07:00:00,23.80569,86.44268,NO2,93,111,95
India,Jharkhand,Jorapokhar,"Tata Stadium, Jorapokhar - JSPCB",26-09-2025 07:00:00,23.707909,86.414670,PM10,NA,NA,NA
India,Jharkhand,Jorapokhar,"Tata Stadium, Jorapokhar - JSPCB",26-09-2025 07:00:00,23.707909,86.414670,SO2,NA,NA,NA
India,Karnataka,Bagalkot,"Vidayagiri, Bagalkot - KSPCB",26-09-2025 07:00:00,16.172806,75.659694,PM10,42,43,42
India,Himachal Pradesh,Baddi,"HIMUDA Complex Phase-1, Baddi - HPPCB",26-09-2025 07:00:00,30.943887,76.801991,NO2,12,78,40
India,Himachal Pradesh,Baddi,"HIMUDA Complex Phase-1, Baddi - HPPCB",26-09-2025 07:00:00,30.943887,76.801991,NH3,8,14,10
India,Himachal Pradesh,Baddi,"HIMUDA Complex Phase-1, Baddi - HPPCB",26-09-2025 07:00:00,30.943887,76.801991,CO,57,92,63
India,Jammu_and_Kashmir,Srinagar,"Rajbagh, Srinagar - JKSPCB",26-09-2025 07:00:00,34.066206,74.819820,PM10,34,75,49
India,Gujarat,Vatva,"Phase-4 GIDC, Vatva - GPCB",26-09-2025 07:00:00,22.969611,72.643500,CO,8,20,8
India,Haryana,Gurugram,"NISE Gwal Pahari, Gurugram - IMD",26-09-2025 07:00:00,28.422681,77.148944,NO2,2,40,11
India,Haryana,Panchgaon,"Amity University, Panchgaon - IITM",26-09-2025 07:00:00,28.3153,76.9143,NO2,1,23,12
India,Gujarat,Ahmedabad,"Maninagar, Ahmedabad - GPCB",26-09-2025 07:00:00,23.002657,72.591912,SO2,17,27,23
India,Gujarat,Ahmedabad,"Raikhad, Ahmedabad - IITM",26-09-2025 07:00:00,23.020509,72.579261,NO2,15,51,24
India,Gujarat,Ahmedabad,"SAC ISRO Bopal, Ahmedabad - IITM",26-09-2025 07:00:00,23.041137,72.456691,PM2.5,34,89,54
India,Gujarat,Ahmedabad,"SAC ISRO Bopal, Ahmedabad - IITM",26-09-2025 07:00:00,23.041137,72.456691,NO2,18,25,21
India,Karnataka,Bengaluru,"BTM Layout, Bengaluru - CPCB",26-09-2025 07:00:00,12.9135218,77.5950804,NH3,NA,NA,NA
India,Karnataka,Bengaluru,"BTM Layout, Bengaluru - CPCB",26-09-2025 07:00:00,12.9135218,77.5950804,SO2,NA,NA,NA
India,Karnataka,Bengaluru,"Bapuji Nagar, Bengaluru - KSPCB",26-09-2025 07:00:00,12.951913,77.539784,PM2.5,22,110,49
India,Karnataka,Bengaluru,"Hombegowda Nagar, Bengaluru - KSPCB",26-09-2025 07:00:00,12.938539,77.590100,SO2,1,17,8
India,Karnataka,Bengaluru,"Jayanagar 5th Block, Bengaluru - KSPCB",26-09-2025 07:00:00,12.920984,77.584908,NO2,NA,NA,NA
India,Karnataka,Bengaluru,"Bapuji Nagar, Bengaluru - KSPCB",26-09-2025 07:00:00,12.951913,77.539784,SO2,3,10,6
India,Karnataka,Bengaluru,"Hebbal, Bengaluru - KSPCB",26-09-2025 07:00:00,13.029152,77.585901,PM2.5,NA,NA,NA
India,Karnataka,Mysuru,"Hebbal 1st Stage, Mysuru - KSPCB",26-09-2025 07:00:00,12.21041,76.37376,PM2.5,NA,NA,NA
India,Karnataka,Mysuru,"Hebbal 1st Stage, Mysuru - KSPCB",26-09-2025 07:00:00,12.21041,76.37376,SO2,NA,NA,NA
India,Karnataka,Mysuru,"Hebbal 1st Stage, Mysuru - KSPCB",26-09-2025 07:00:00,12.21041,76.37376,OZONE,6,43,7
India,Karnataka,Ramanagara,"Vijay Nagar, Ramanagara - KSPCB",26-09-2025 07:00:00,12.733409,77.298051,CO,NA,NA,NA
India,Karnataka,Shivamogga,"Vinoba Nagara, Shivamogga - KSPCB",26-09-2025 07:00:00,13.940000,75.555917,NO2,14,22,17
India,Karnataka,Shivamogga,"Vinoba Nagara, Shivamogga - KSPCB",26-09-2025 07:00:00,13.940000,75.555917,SO2,1,6,5
India,Karnataka,Yadgir,"Collector Office, Yadgir - KSPCB",26-09-2025 07:00:00,16.7602,77.1428,NH3,1,2,2
India,Madhya Pradesh,Gwalior,"City Center, Gwalior - MPPCB",26-09-2025 07:00:00,26.203442,78.193251,NH3,1,1,1
India,Madhya Pradesh,Gwalior,"City Center, Gwalior - MPPCB",26-09-2025 07:00:00,26.203442,78.193251,CO,8,96,45
India,Madhya Pradesh,Gwalior,"City Center, Gwalior - MPPCB",26-09-2025 07:00:00,26.203442,78.193251,OZONE,23,70,29
India,Madhya Pradesh,Gwalior,"Deen Dayal Nagar, Gwalior - MPPCB",26-09-2025 07:00:00,26.259242,78.216432,NO2,4,33,14
India,Madhya Pradesh,Gwalior,"Maharaj Bada, Gwalior - MPPCB",26-09-2025 07:00:00,26.200388,78.147714,PM2.5,47,160,70
India,Madhya Pradesh,Indore,"Airport Area, Indore - IMC",26-09-2025 07:00:00,22.7289,75.8076,PM2.5,23,53,32
India,Kerala,Thrissur,"Corporation Ground, Thrissur - Kerala PCB",26-09-2025 07:00:00,10.532400,76.215900,OZONE,30,30,30
India,Madhya Pradesh,Bhopal,"Idgah Hills, Bhopal - MPPCB",26-09-2025 07:00:00,23.264759,77.381568,NO2,8,30,13
India,Madhya Pradesh,Bhopal,"Idgah Hills, Bhopal - MPPCB",26-09-2025 07:00:00,23.264759,77.381568,SO2,9,10,10
India,Madhya Pradesh,Bhopal,"Idgah Hills, Bhopal - MPPCB",26-09-2025 07:00:00,23.264759,77.381568,CO,12,40,15
India,Madhya Pradesh,Bhopal,"Paryavaran Parisar, Bhopal - MPPCB",26-09-2025 07:00:00,23.210494,77.425409,NH3,2,3,2
India,Madhya Pradesh,Bhopal,"Paryavaran Parisar, Bhopal - MPPCB",26-09-2025 07:00:00,23.210494,77.425409,OZONE,36,56,40
India,Kerala,Kannur,"Thavakkara, Kannur - Kerala PCB",26-09-2025 07:00:00,11.875000,75.373200,CO,13,14,14
India,Kerala,Kannur,"Thavakkara, Kannur - Kerala PCB",26-09-2025 07:00:00,11.875000,75.373200,OZONE,28,34,28
India,Kerala,Thiruvananthapuram,"Kariavattom, Thiruvananthapuram - Kerala PCB",26-09-2025 07:00:00,8.563700,76.886500,OZONE,36,36,36
India,Kerala,Thiruvananthapuram,"Plammoodu, Thiruvananthapuram - Kerala PCB",26-09-2025 07:00:00,8.5149093,76.9435879,PM2.5,NA,NA,NA
India,Kerala,Thiruvananthapuram,"Plammoodu, Thiruvananthapuram - Kerala PCB",26-09-2025 07:00:00,8.5149093,76.9435879,PM10,1,134,26
India,Kerala,Thiruvananthapuram,"Plammoodu, Thiruvananthapuram - Kerala PCB",26-09-2025 07:00:00,8.5149093,76.9435879,NO2,63,109,85
India,Madhya Pradesh,Jabalpur,"Gupteshwar, Jabalpur - JMC",26-09-2025 07:00:00,23.142888,79.916147,SO2,6,30,15
India,Madhya Pradesh,Jabalpur,"Marhatal, Jabalpur - MPPCB",26-09-2025 07:00:00,23.168606,79.932247,SO2,9,17,12
India,Madhya Pradesh,Jabalpur,"Suhagi, Jabalpur - JMC",26-09-2025 07:00:00,23.218135,79.957770,PM2.5,10,95,34
India,Madhya Pradesh,Jabalpur,"Suhagi, Jabalpur - JMC",26-09-2025 07:00:00,23.218135,79.957770,NH3,2,2,2
India,Madhya Pradesh,Jabalpur,"Suhagi, Jabalpur - JMC",26-09-2025 07:00:00,23.218135,79.957770,SO2,4,11,8
India,Madhya Pradesh,Jabalpur,"Suhagi, Jabalpur - JMC",26-09-2025 07:00:00,23.218135,79.957770,CO,2,60,24
India,Madhya Pradesh,Indore,"Chhoti Gwaltoli, Indore - MPPCB",26-09-2025 07:00:00,22.4310,75.5213,PM10,49,178,84
India,Madhya Pradesh,Indore,"Chhoti Gwaltoli, Indore - MPPCB",26-09-2025 07:00:00,22.4310,75.5213,NO2,45,104,63
India,Madhya Pradesh,Indore,"Regional Park, Indore - IMC",26-09-2025 07:00:00,22.6780,75.8559,NO2,NA,NA,NA
India,Madhya Pradesh,Indore,"Regional Park, Indore - IMC",26-09-2025 07:00:00,22.6780,75.8559,SO2,NA,NA,NA
India,Madhya Pradesh,Jabalpur,"Govindh Bhavan Colony, Jabalpur - JMC",26-09-2025 07:00:00,23.163174,79.973061,PM10,33,60,46
India,Karnataka,Chikkamagaluru,"Kalyana Nagara, Chikkamagaluru - KSPCB",26-09-2025 07:00:00,13.328028,75.797056,PM2.5,4,45,18
India,Karnataka,Chikkamagaluru,"Kalyana Nagara, Chikkamagaluru - KSPCB",26-09-2025 07:00:00,13.328028,75.797056,PM10,21,59,33
India,Karnataka,Davanagere,"Devaraj Urs Badavane, Davanagere - KSPCB",26-09-2025 07:00:00,14.475800,75.905200,PM10,10,41,22
India,Karnataka,Davanagere,"Devaraj Urs Badavane, Davanagere - KSPCB",26-09-2025 07:00:00,14.475800,75.905200,SO2,1,6,3
India,Karnataka,Davanagere,"Devaraj Urs Badavane, Davanagere - KSPCB",26-09-2025 07:00:00,14.475800,75.905200,OZONE,24,25,24
India,Karnataka,Hubballi,"Lingaraj Nagar, Hubballi - KSPCB",26-09-2025 07:00:00,15.3714823,75.1160168,SO2,1,2,1
India,Karnataka,Kalaburagi,"Mahatma Basaveswar Colony, Kalaburgi - KSPCB",26-09-2025 07:00:00,17.336318,76.847397,PM2.5,21,64,31
India,Karnataka,Kalaburagi,"Mahatma Basaveswar Colony, Kalaburgi - KSPCB",26-09-2025 07:00:00,17.336318,76.847397,NH3,2,4,3
India,Karnataka,Karwar,"KHB Colony, Karwar - KSPCB",26-09-2025 07:00:00,14.816666,74.141003,NH3,1,2,1
India,Madhya Pradesh,Damoh,"Shrivastav Colony, Damoh - MPPCB",26-09-2025 07:00:00,23.81748678,79.446246,SO2,25,28,27
India,Madhya Pradesh,Dewas,"Bhopal Chauraha, Dewas - MPPCB",26-09-2025 07:00:00,22.9682591,76.064118,CO,11,47,14
India,Maharashtra,Aurangabad,"Rachnakar Colony, Aurangabad - MPCB",26-09-2025 07:00:00,19.863756,75.321188,NH3,2,5,3
India,Maharashtra,Aurangabad,"Rachnakar Colony, Aurangabad - MPCB",26-09-2025 07:00:00,19.863756,75.321188,OZONE,12,48,14
India,Maharashtra,Badlapur,"Katrap, Badlapur - MPCB",26-09-2025 07:00:00,19.16485,73.23409,PM2.5,NA,NA,NA
India,Maharashtra,Badlapur,"Katrap, Badlapur - MPCB",26-09-2025 07:00:00,19.16485,73.23409,PM10,NA,NA,NA
India,Maharashtra,Belapur,"CBD Belapur, Belapur - MPCB",26-09-2025 07:00:00,19.0243902,73.0406721,PM2.5,23,35,28
India,Maharashtra,Belapur,"CBD Belapur, Belapur - MPCB",26-09-2025 07:00:00,19.0243902,73.0406721,OZONE,15,33,15
India,Maharashtra,Bhiwandi,"Gokul Nagar, Bhiwandi - MPCB",26-09-2025 07:00:00,19.309073,73.057223,NO2,16,33,23
India,Maharashtra,Bhiwandi,"Gokul Nagar, Bhiwandi - MPCB",26-09-2025 07:00:00,19.309073,73.057223,NH3,3,7,5
India,Maharashtra,Bhiwandi,"Gokul Nagar, Bhiwandi - MPCB",26-09-2025 07:00:00,19.309073,73.057223,CO,30,69,51
India,Madhya Pradesh,Katni,"Gole Bazar, Katni - MPPCB",26-09-2025 07:00:00,23.50016,80.23284,OZONE,13,71,19
India,Madhya Pradesh,Maihar,"Sahilara, Maihar - KJS Cements",26-09-2025 07:00:00,24.2613009,80.7231783,PM2.5,NA,NA,NA
India,Madhya Pradesh,Maihar,"Sahilara, Maihar - KJS Cements",26-09-2025 07:00:00,24.2613009,80.7231783,SO2,6,6,6
India,Madhya Pradesh,Pithampur,"Sector-2 Industrial Area, Pithampur - MPPCB",26-09-2025 07:00:00,22.624758,75.675238,SO2,14,20,17
India,Madhya Pradesh,Pithampur,"Sector-2 Industrial Area, Pithampur - MPPCB",26-09-2025 07:00:00,22.624758,75.675238,OZONE,23,61,40
India,Madhya Pradesh,Sagar,"Civil Lines, Sagar - MPPCB",26-09-2025 07:00:00,23.838586,78.759431,NH3,1,2,2
India,Maharashtra,Amravati,"Shivneri Colony, Amravati - MPCB",26-09-2025 07:00:00,20.9402359,77.7895248,PM10,42,104,77
India,Maharashtra,Amravati,"Shri Shivaji Science College, Amravati - MPCB",26-09-2025 07:00:00,20.939198,77.765701,PM2.5,21,53,35
India,Maharashtra,Aurangabad,"MIDC Chilkalthana, Aurangabad - MPCB",26-09-2025 07:00:00,19.875620,75.387310,SO2,1,2,1
India,Maharashtra,Aurangabad,"MIDC Chilkalthana, Aurangabad - MPCB",26-09-2025 07:00:00,19.875620,75.387310,OZONE,7,57,25
India,Maharashtra,Aurangabad,"More Chowk Waluj, Aurangabad - MPCB",26-09-2025 07:00:00,19.8389439,75.244448,PM10,34,63,42
India,Maharashtra,Latur,"Sawe Wadi, Latur - MPCB",26-09-2025 07:00:00,18.39963,76.57452,OZONE,1,32,11
India,Maharashtra,Mahad,"Kamble Tarf Birwadi, Mahad - MPCB",26-09-2025 07:00:00,18.1023399,73.4783687,PM2.5,15,61,33
India,Maharashtra,Malegaon,"Mahesh Nagar, Malegaon - MPCB",26-09-2025 07:00:00,20.555712,74.529236,NO2,5,22,9
India,Maharashtra,Mira-Bhayandar,"Bhayandar West, Mira-Bhayandar - MPCB",26-09-2025 07:00:00,19.296481,72.840923,NO2,4,58,31
India,Maharashtra,Dhule,"Deopur, Dhule - MPCB",26-09-2025 07:00:00,20.918946,74.776388,SO2,7,13,9
India,Maharashtra,Dhule,"Deopur, Dhule - MPCB",26-09-2025 07:00:00,20.918946,74.776388,CO,1,10,6
India,Maharashtra,Jalgaon,"Prabhat Colony, Jalgaon - MPCB",26-09-2025 07:00:00,21.001264,75.565602,PM2.5,34,104,58
India,Maharashtra,Jalgaon,"Prabhat Colony, Jalgaon - MPCB",26-09-2025 07:00:00,21.001264,75.565602,NO2,5,20,8
India,Maharashtra,Jalna,"Old MIDC, Jalna - MPCB",26-09-2025 07:00:00,19.854616,75.905894,OZONE,25,102,66
India,Maharashtra,Kolhapur,"Shivaji University, Kolhapur - MPCB",26-09-2025 07:00:00,16.6870449,74.2505872,SO2,1,4,3
India,Maharashtra,Kolhapur,"Sinchan Bhavan, Kolhapur - MPCB",26-09-2025 07:00:00,16.7143745,74.2426398,PM2.5,NA,NA,NA
India,Maharashtra,Kolhapur,"Sinchan Bhavan, Kolhapur - MPCB",26-09-2025 07:00:00,16.7143745,74.2426398,PM10,NA,NA,NA
India,Madhya Pradesh,Satna,"Bandhavgar Colony, Satna - Birla Cement",26-09-2025 07:00:00,24.58434363,80.8549414,PM2.5,42,45,44
India,Madhya Pradesh,Satna,"Bandhavgar Colony, Satna - Birla Cement",26-09-2025 07:00:00,24.58434363,80.8549414,NO2,22,27,24
India,Madhya Pradesh,Satna,"Bandhavgar Colony, Satna - Birla Cement",26-09-2025 07:00:00,24.58434363,80.8549414,OZONE,5,15,7
India,Maharashtra,Chandrapur,"Chauhan Colony, Chandrapur - MPCB",26-09-2025 07:00:00,19.962900,79.298714,PM2.5,7,27,13
India,Maharashtra,Chandrapur,"MIDC Khutala, Chandrapur - MPCB",26-09-2025 07:00:00,19.9775302,79.2337086,PM10,54,118,91
India,Maharashtra,Dhule,"Deopur, Dhule - MPCB",26-09-2025 07:00:00,20.918946,74.776388,PM10,25,69,48
India,Maharashtra,Mumbai,"Chakala-Andheri East, Mumbai - IITM",26-09-2025 07:00:00,19.11074,72.86084,SO2,1,21,10
India,Maharashtra,Mumbai,"Chakala-Andheri East, Mumbai - IITM",26-09-2025 07:00:00,19.11074,72.86084,CO,2,24,11
India,Maharashtra,Mumbai,"Chakala-Andheri East, Mumbai - IITM",26-09-2025 07:00:00,19.11074,72.86084,OZONE,2,34,3
India,Maharashtra,Mumbai,"Chembur, Mumbai - MPCB",26-09-2025 07:00:00,19.0364585,72.8954371,NH3,6,9,7
India,Maharashtra,Mumbai,"Chhatrapati Shivaji Intl. Airport (T2), Mumbai - MPCB",26-09-2025 07:00:00,19.10078,72.87462,NH3,1,2,1
India,Maharashtra,Mumbai,"Chhatrapati Shivaji Intl. Airport (T2), Mumbai - MPCB",26-09-2025 07:00:00,19.10078,72.87462,OZONE,7,8,7
India,Maharashtra,Mumbai,"Deonar, Mumbai - IITM",26-09-2025 07:00:00,19.04946,72.9230,PM10,37,235,90
India,Maharashtra,Mumbai,"Deonar, Mumbai - IITM",26-09-2025 07:00:00,19.04946,72.9230,NH3,9,13,11
India,Maharashtra,Mumbai,"Deonar, Mumbai - IITM",26-09-2025 07:00:00,19.04946,72.9230,SO2,4,22,7
India,Maharashtra,Mumbai,"Deonar, Mumbai - IITM",26-09-2025 07:00:00,19.04946,72.9230,OZONE,NA,NA,NA
India,Maharashtra,Mumbai,"Ghatkopar, Mumbai - BMC",26-09-2025 07:00:00,19.083694,72.920967,PM2.5,20,44,28
India,Maharashtra,Mumbai,"Ghatkopar, Mumbai - BMC",26-09-2025 07:00:00,19.083694,72.920967,PM10,20,49,40
India,Maharashtra,Mira-Bhayandar,"Bhayandar West, Mira-Bhayandar - MPCB",26-09-2025 07:00:00,19.296481,72.840923,SO2,1,4,2
India,Maharashtra,Mira-Bhayandar,"Bhayandar West, Mira-Bhayandar - MPCB",26-09-2025 07:00:00,19.296481,72.840923,CO,25,80,64
India,Maharashtra,Mumbai,"Bandra Kurla Complex, Mumbai - IITM",26-09-2025 07:00:00,19.053536,72.84643,NO2,24,109,35
India,Maharashtra,Mumbai,"Bandra Kurla Complex, Mumbai - MPCB",26-09-2025 07:00:00,19.065931,72.862131,SO2,3,5,3
India,Maharashtra,Mumbai,"Bandra Kurla Complex, Mumbai - MPCB",26-09-2025 07:00:00,19.065931,72.862131,CO,3,22,16
India,Maharashtra,Mumbai,"Byculla, Mumbai - BMC",26-09-2025 07:00:00,18.9767,72.8380,OZONE,7,30,11
India,Maharashtra,Mumbai,"Chakala-Andheri East, Mumbai - IITM",26-09-2025 07:00:00,19.11074,72.86084,PM2.5,15,34,25
India,Maharashtra,Mumbai,"Worli, Mumbai - MPCB",26-09-2025 07:00:00,18.9936162,72.8128113,SO2,17,25,20
India,Maharashtra,Mumbai,"Worli, Mumbai - MPCB",26-09-2025 07:00:00,18.9936162,72.8128113,CO,4,20,6
India,Maharashtra,Nagpur,"Ambazari, Nagpur - MPCB",26-09-2025 07:00:00,21.121801,79.04952,NH3,2,4,3
India,Maharashtra,Nagpur,"Mahal, Nagpur - MPCB",26-09-2025 07:00:00,21.14472,79.107595,NO2,13,35,20
India,Maharashtra,Nagpur,"Ram Nagar, Nagpur - MPCB",26-09-2025 07:00:00,21.143383,79.048912,PM2.5,39,67,54
India,Maharashtra,Mumbai,"Shivaji Nagar, Mumbai - BMC",26-09-2025 07:00:00,19.060498,72.923356,CO,1,45,19
India,Maharashtra,Mumbai,"Siddharth Nagar-Worli, Mumbai - IITM",26-09-2025 07:00:00,19.000083,72.813993,NH3,5,6,5
India,Maharashtra,Mumbai,"Siddharth Nagar-Worli, Mumbai - IITM",26-09-2025 07:00:00,19.000083,72.813993,OZONE,1,25,4
India,Maharashtra,Mumbai,"Sion, Mumbai - MPCB",26-09-2025 07:00:00,19.047000,72.874600,PM10,NA,NA,NA
India,Maharashtra,Mumbai,"Sion, Mumbai - MPCB",26-09-2025 07:00:00,19.047000,72.874600,NO2,NA,NA,NA
India,Maharashtra,Mumbai,"Navy Nagar-Colaba, Mumbai - IITM",26-09-2025 07:00:00,18.897756,72.813320,CO,9,30,12
India,Maharashtra,Mumbai,"Navy Nagar-Colaba, Mumbai - IITM",26-09-2025 07:00:00,18.897756,72.813320,OZONE,4,14,7
India,Maharashtra,Mumbai,"Powai, Mumbai - MPCB",26-09-2025 07:00:00,19.137500,72.915056,NH3,2,2,2
India,Maharashtra,Mumbai,"Powai, Mumbai - MPCB",26-09-2025 07:00:00,19.137500,72.915056,OZONE,9,9,9
India,Maharashtra,Nashik,"Gangapur Road, Nashik - MPCB",26-09-2025 07:00:00,20.0073285,73.7762427,NH3,2,2,2
India,Maharashtra,Nashik,"Gangapur Road, Nashik - MPCB",26-09-2025 07:00:00,20.0073285,73.7762427,CO,10,12,10
India,Maharashtra,Nashik,"Hirawadi, Nashik - MPCB",26-09-2025 07:00:00,20.021503,73.813844,PM2.5,15,29,21
India,Maharashtra,Mumbai,"Kherwadi_Bandra East, Mumbai - MPCB",26-09-2025 07:00:00,19.0632143,72.8456324,NH3,9,27,19
India,Maharashtra,Mumbai,"Kurla, Mumbai - MPCB",26-09-2025 07:00:00,19.0863,72.8888,NO2,4,8,5
India,Maharashtra,Mumbai,"Kurla, Mumbai - MPCB",26-09-2025 07:00:00,19.0863,72.8888,NH3,1,2,1
India,Maharashtra,Mumbai,"Kandivali East, Mumbai - MPCB",26-09-2025 07:00:00,19.205800,72.868200,NH3,1,1,1
India,Maharashtra,Mumbai,"Kherwadi_Bandra East, Mumbai - MPCB",26-09-2025 07:00:00,19.0632143,72.8456324,PM2.5,10,54,24
India,Maharashtra,Mumbai,"Mazgaon, Mumbai - IITM",26-09-2025 07:00:00,18.96702,72.84214,PM10,41,61,49
India,Maharashtra,Mumbai,"Mazgaon, Mumbai - IITM",26-09-2025 07:00:00,18.96702,72.84214,NH3,8,12,9
India,Maharashtra,Mumbai,"Mazgaon, Mumbai - IITM",26-09-2025 07:00:00,18.96702,72.84214,OZONE,5,29,11
India,Maharashtra,Pimpri-Chinchwad,"Thergaon, Pimpri Chinchwad - MPCB",26-09-2025 07:00:00,18.616318,73.765797,SO2,1,3,2
India,Maharashtra,Pimpri-Chinchwad,"Thergaon, Pimpri Chinchwad - MPCB",26-09-2025 07:00:00,18.616318,73.765797,CO,3,32,23
India,Maharashtra,Pune,"Bhumkar Nagar, Pune - IITM",26-09-2025 07:00:00,18.605770,73.749976,PM2.5,9,80,26
India,Maharashtra,Pune,"Bhumkar Nagar, Pune - IITM",26-09-2025 07:00:00,18.605770,73.749976,OZONE,4,26,9
