country,state,city,station,last_update,latitude,longitude,pollutant_id,min_value,max_value,avg_value
India,Assam,Guwahati,"Railway Colony, Guwahati - PCBA",06-11-2025 07:00:00,26.181742,91.78063,CO,22,66,34
India,Assam,Nagaon,"Christianpatty, Nagaon - PCBA",06-11-2025 07:00:00,26.349082,92.68449,PM10,54,104,66
India,Assam,Nagaon,"Christianpatty, Nagaon - PCBA",06-11-2025 07:00:00,26.349082,92.68449,NH3,3,4,4
India,Assam,Nalbari,"Bata Chowk, Nalbari - PCBA",06-11-2025 07:00:00,26.446912,91.439057,NO2,6,19,15
India,Assam,Silchar,"Tarapur, Silchar - PCBA",06-11-2025 07:00:00,24.82827,92.79525,PM10,44,57,48
India,Assam,Silchar,"Tarapur, Silchar - PCBA",06-11-2025 07:00:00,24.82827,92.79525,SO2,4,6,5
India,Assam,Silchar,"Tarapur, Silchar - PCBA",06-11-2025 07:00:00,24.82827,92.79525,CO,22,61,50
India,Assam,Sivasagar,"Girls College, Sivasagar - PCBA",06-11-2025 07:00:00,26.987634,94.636574,NO2,22,35,29
India,Assam,Sivasagar,"Girls College, Sivasagar - PCBA",06-11-2025 07:00:00,26.987634,94.636574,CO,19,32,30
India,Assam,Sivasagar,"Girls College, Sivasagar - PCBA",06-11-2025 07:00:00,26.987634,94.636574,OZONE,2,5,2
India,Arunachal_Pradesh,Naharlagun,"Naharlagun, Naharlagun - APSPCB",06-11-2025 07:00:00,27.103358,93.679645,NO2,6,6,6
India,Assam,Byrnihat,"Central Academy for SFS, Byrnihat - PCBA",06-11-2025 07:00:00,26.071318,91.87488,OZONE,18,26,20
India,Assam,Guwahati,"IITG, Guwahati - PCBA",06-11-2025 07:00:00,26.2028636,91.70046436,SO2,23,27,24
India,Assam,Guwahati,"LGBI Airport, Guwahati - PCBA",06-11-2025 07:00:00,26.10887,91.589544,PM10,34,93,77
India,Assam,Guwahati,"Railway Colony, Guwahati - PCBA",06-11-2025 07:00:00,26.181742,91.78063,PM2.5,2,123,43
India,Bihar,Chhapra,"Darshan Nagar, Chhapra - BSPCB",06-11-2025 07:00:00,25.7808257,84.7446768,PM10,18,44,31
India,Bihar,Gaya,"Collectorate, Gaya - BSPCB",06-11-2025 07:00:00,24.7955,84.9994,PM2.5,127,326,235
India,Bihar,Gaya,"Collectorate, Gaya - BSPCB",06-11-2025 07:00:00,24.7955,84.9994,OZONE,19,21,20
India,Bihar,Gaya,"Kareemganj, Gaya - BSPCB",06-11-2025 07:00:00,24.792403,84.992416,PM10,179,338,234
India,Bihar,Gaya,"Kareemganj, Gaya - BSPCB",06-11-2025 07:00:00,24.792403,84.992416,SO2,15,17,16
India,Bihar,Gaya,"SFTI Kusdihra, Gaya - BSPCB",06-11-2025 07:00:00,24.762518,84.982348,SO2,8,9,8
India,Andhra_Pradesh,Chittoor,"Gangineni Cheruvu, Chittoor - APPCB",06-11-2025 07:00:00,13.204880,79.097889,NH3,5,6,6
India,Andhra_Pradesh,Kadapa,"Yerramukkapalli, Kadapa - APPCB",06-11-2025 07:00:00,14.465052,78.824187,PM10,49,57,54
India,Andhra_Pradesh,Rajamahendravaram,"Anand Kala Kshetram, Rajamahendravaram - APPCB",06-11-2025 07:00:00,16.9872867,81.7363176,OZONE,2,27,25
India,Andhra_Pradesh,Tirumala,"Toll Gate, Tirumala - APPCB",06-11-2025 07:00:00,13.67,79.35,PM2.5,17,94,57
India,Bihar,Araria,"Kharahiya Basti, Araria - BSPCB",06-11-2025 07:00:00,26.146529,87.454184,NH3,9,10,10
India,Bihar,Araria,"Kharahiya Basti, Araria - BSPCB",06-11-2025 07:00:00,26.146529,87.454184,SO2,10,20,16
India,Bihar,Araria,"Kharahiya Basti, Araria - BSPCB",06-11-2025 07:00:00,26.146529,87.454184,CO,16,32,28
India,Bihar,Arrah,"New DM Office, Arrah - BSPCB",06-11-2025 07:00:00,25.5626095,84.663264,CO,42,68,54
India,Bihar,Aurangabad,"Gurdeo Nagar, Aurangabad - BSPCB",06-11-2025 07:00:00,24.75746,84.366208,PM2.5,57,157,97
India,Bihar,Aurangabad,"Gurdeo Nagar, Aurangabad - BSPCB",06-11-2025 07:00:00,24.75746,84.366208,PM10,46,103,74
India,Andhra_Pradesh,Vijayawada,"HB Colony, Vijayawada - APPCB",06-11-2025 07:00:00,16.536107,80.594233,SO2,11,14,13
India,Andhra_Pradesh,Vijayawada,"Rajiv Gandhi Park, Vijayawada - APPCB",06-11-2025 07:00:00,16.509717,80.612222,PM10,18,96,69
India,Andhra_Pradesh,Visakhapatnam,"GVM Corporation, Visakhapatnam - APPCB",06-11-2025 07:00:00,17.72,83.3,PM10,78,170,121
India,Andhra_Pradesh,Visakhapatnam,"GVM Corporation, Visakhapatnam - APPCB",06-11-2025 07:00:00,17.72,83.3,SO2,8,53,17
India,Bihar,Hajipur,"Industrial Area, Hajipur - BSPCB",06-11-2025 07:00:00,25.697189,85.245900,NH3,5,8,6
India,Bihar,Katihar,"Mirchaibari, Katihar - BSPCB",06-11-2025 07:00:00,25.560083,87.553265,NO2,1,15,9
India,Bihar,Kishanganj,"SDM Office_Khagra, Kishanganj - BSPCB",06-11-2025 07:00:00,26.0881305,87.93840336,PM2.5,33,385,165
India,Bihar,Kishanganj,"SDM Office_Khagra, Kishanganj - BSPCB",06-11-2025 07:00:00,26.0881305,87.93840336,SO2,5,7,6
India,Bihar,Bhagalpur,"DM Office_Kachari Chowk, Bhagalpur - BSPCB",06-11-2025 07:00:00,25.251013,86.989001,PM2.5,10,93,64
India,Bihar,Bihar Sharif,"D M Colony, Bihar Sharif - BSPCB",06-11-2025 07:00:00,25.204762,85.514960,PM2.5,75,240,153
India,Bihar,Bihar Sharif,"D M Colony, Bihar Sharif - BSPCB",06-11-2025 07:00:00,25.204762,85.514960,NH3,3,5,4
India,Andhra_Pradesh,Amaravati,"Secretariat, Amaravati - APPCB",06-11-2025 07:00:00,16.5150833,80.5181667,PM10,43,172,92
India,Andhra_Pradesh,Chittoor,"Gangineni Cheruvu, Chittoor - APPCB",06-11-2025 07:00:00,13.204880,79.097889,NO2,21,24,23
India,Bihar,Aurangabad,"Gurdeo Nagar, Aurangabad - BSPCB",06-11-2025 07:00:00,24.75746,84.366208,SO2,6,16,11
India,Bihar,Begusarai,"Lohiyanagar, Begusarai - BSPCB",06-11-2025 07:00:00,25.42742023,86.13886079,CO,44,56,52
India,Chhattisgarh,Bhilai,"32Bungalows, Bhilai - CECB",06-11-2025 07:00:00,21.194815,81.314770,NH3,5,5,5
India,Chhattisgarh,Bhilai,"32Bungalows, Bhilai - CECB",06-11-2025 07:00:00,21.194815,81.314770,SO2,6,99,14
India,Chhattisgarh,Bhilai,"Hathkhoj, Bhilai - CECB",06-11-2025 07:00:00,21.224231,81.408350,PM2.5,28,173,74
India,Chhattisgarh,Bhilai,"Hathkhoj, Bhilai - CECB",06-11-2025 07:00:00,21.224231,81.408350,SO2,3,36,18
India,Chhattisgarh,Bhilai,"Hathkhoj, Bhilai - CECB",06-11-2025 07:00:00,21.224231,81.408350,OZONE,8,42,11
India,Chhattisgarh,Bilaspur,"Mangala, Bilaspur - NTPC",06-11-2025 07:00:00,22.08815,82.13737,PM2.5,26,81,49
India,Chhattisgarh,Bilaspur,"Mangala, Bilaspur - NTPC",06-11-2025 07:00:00,22.08815,82.13737,PM10,35,106,66
India,Chhattisgarh,Chhal,"Nawapara SECL Colony, Chhal - CECB",06-11-2025 07:00:00,22.118125,83.140608,NO2,11,36,19
India,Chhattisgarh,Chhal,"Nawapara SECL Colony, Chhal - CECB",06-11-2025 07:00:00,22.118125,83.140608,SO2,4,89,28
India,Chhattisgarh,Chhal,"Nawapara SECL Colony, Chhal - CECB",06-11-2025 07:00:00,22.118125,83.140608,CO,22,47,29
India,Chhattisgarh,Korba,"Rampur, Korba - CECB",06-11-2025 07:00:00,22.368195,82.746431,PM10,45,69,53
India,Bihar,Sasaram,"Dada Peer, Sasaram - BSPCB",06-11-2025 07:00:00,24.952822,84.002396,PM10,68,154,106
India,Bihar,Siwan,"Chitragupta Nagar, Siwan - BSPCB",06-11-2025 07:00:00,26.2271665,84.3570427,PM10,64,116,85
India,Bihar,Siwan,"Chitragupta Nagar, Siwan - BSPCB",06-11-2025 07:00:00,26.2271665,84.3570427,CO,1,182,102
India,Chandigarh,Chandigarh,"Sector 22, Chandigarh - CPCC",06-11-2025 07:00:00,30.735567,76.775714,PM2.5,47,328,140
India,Chandigarh,Chandigarh,"Sector 22, Chandigarh - CPCC",06-11-2025 07:00:00,30.735567,76.775714,SO2,6,21,11
India,Chandigarh,Chandigarh,"Sector 22, Chandigarh - CPCC",06-11-2025 07:00:00,30.735567,76.775714,CO,16,84,30
India,Chandigarh,Chandigarh,"Sector-25, Chandigarh - CPCC",06-11-2025 07:00:00,30.751462,76.762879,CO,21,36,25
India,Chhattisgarh,Raipur,"Bhatagaon New ISBT, Raipur - CECB",06-11-2025 07:00:00,21.219665,81.630094,NH3,2,2,2
India,Chhattisgarh,Raipur,"Bhatagaon New ISBT, Raipur - CECB",06-11-2025 07:00:00,21.219665,81.630094,SO2,6,8,7
India,Chhattisgarh,Raipur,"Krishak Nagar, Raipur - CECB",06-11-2025 07:00:00,21.237755,81.705301,PM2.5,NA,NA,NA
India,Chhattisgarh,Raipur,"Krishak Nagar, Raipur - CECB",06-11-2025 07:00:00,21.237755,81.705301,SO2,NA,NA,NA
India,Chhattisgarh,Raipur,"Siltara Phase-II, Raipur - CECB",06-11-2025 07:00:00,21.371751,81.664929,OZONE,NA,NA,NA
India,Chhattisgarh,Tumidih,"OP Jindal Industrial Park, Tumidih - CECB",06-11-2025 07:00:00,22.06631475,83.33820077,PM2.5,33,72,52
India,Bihar,Manguraha,"Forest Rest House, Manguraha - BSPCB",06-11-2025 07:00:00,27.308328,84.531742,OZONE,8,22,10
India,Bihar,Motihari,"Gandak Colony, Motihari - BSPCB",06-11-2025 07:00:00,26.63086,84.90051,PM10,71,91,78
India,Bihar,Motihari,"Gandak Colony, Motihari - BSPCB",06-11-2025 07:00:00,26.63086,84.90051,CO,17,42,38
India,Bihar,Motihari,"Gandak Colony, Motihari - BSPCB",06-11-2025 07:00:00,26.63086,84.90051,OZONE,2,6,2
India,Bihar,Muzaffarpur,"Buddha Colony, Muzaffarpur - BSPCB",06-11-2025 07:00:00,26.11442,85.39813,OZONE,24,118,52
India,Bihar,Purnia,"Mariam Nagar, Purnia - BSPCB",06-11-2025 07:00:00,25.366336,87.117468,OZONE,11,48,25
India,Bihar,Rajgir,"Dangi Tola, Rajgir - BSPCB",06-11-2025 07:00:00,25.03280,85.41948,NO2,8,10,9
India,Bihar,Rajgir,"Dangi Tola, Rajgir - BSPCB",06-11-2025 07:00:00,25.03280,85.41948,SO2,18,24,21
India,Bihar,Rajgir,"Dangi Tola, Rajgir - BSPCB",06-11-2025 07:00:00,25.03280,85.41948,CO,79,100,93
India,Bihar,Samastipur,"DM Office_Kasipur, Samastipur - BSPCB",06-11-2025 07:00:00,25.859655,85.77944,NH3,NA,NA,NA
India,Chhattisgarh,Korba,"Urja Nagar, Korba - CECB",06-11-2025 07:00:00,22.348441,82.549611,PM2.5,64,69,64
India,Chhattisgarh,Raipur,"AIIMS, Raipur - CECB",06-11-2025 07:00:00,21.258815,81.578979,NO2,13,30,19
India,Chhattisgarh,Raipur,"AIIMS, Raipur - CECB",06-11-2025 07:00:00,21.258815,81.578979,SO2,11,23,13
India,Bihar,Patna,"Samanpura, Patna - BSPCB",06-11-2025 07:00:00,25.596727,85.085624,NO2,37,54,44
India,Bihar,Purnia,"Mariam Nagar, Purnia - BSPCB",06-11-2025 07:00:00,25.366336,87.117468,PM10,36,105,74
India,Bihar,Patna,"IGSC Planetarium Complex, Patna - BSPCB",06-11-2025 07:00:00,25.610369,85.132568,CO,56,69,59
India,Bihar,Patna,"Muradpur, Patna - BSPCB",06-11-2025 07:00:00,25.619651,85.147382,SO2,7,10,8
India,Bihar,Patna,"DRM Office Danapur, Patna - BSPCB",06-11-2025 07:00:00,25.586562,85.043586,PM2.5,149,242,206
India,Bihar,Patna,"DRM Office Danapur, Patna - BSPCB",06-11-2025 07:00:00,25.586562,85.043586,NO2,22,67,40
India,Delhi,Delhi,"Narela, Delhi - DPCC",06-11-2025 07:00:00,28.822836,77.101981,OZONE,7,100,20
India,Delhi,Delhi,"Nehru Nagar, Delhi - DPCC",06-11-2025 07:00:00,28.567890,77.250515,NO2,25,143,49
India,Delhi,Delhi,"Nehru Nagar, Delhi - DPCC",06-11-2025 07:00:00,28.567890,77.250515,SO2,1,15,7
India,Delhi,Delhi,"Nehru Nagar, Delhi - DPCC",06-11-2025 07:00:00,28.567890,77.250515,CO,44,116,70
India,Delhi,Delhi,"Nehru Nagar, Delhi - DPCC",06-11-2025 07:00:00,28.567890,77.250515,OZONE,7,228,47
India,Delhi,Delhi,"North Campus, DU, Delhi - IMD",06-11-2025 07:00:00,28.6573814,77.1585447,PM2.5,65,456,288
India,Delhi,Delhi,"North Campus, DU, Delhi - IMD",06-11-2025 07:00:00,28.6573814,77.1585447,CO,4,103,88
India,Delhi,Delhi,"North Campus, DU, Delhi - IMD",06-11-2025 07:00:00,28.6573814,77.1585447,OZONE,33,308,86
India,Delhi,Delhi,"Okhla Phase-2, Delhi - DPCC",06-11-2025 07:00:00,28.530785,77.271255,CO,32,80,65
India,Delhi,Delhi,"Patparganj, Delhi - DPCC",06-11-2025 07:00:00,28.623763,77.287209,PM10,123,410,219
India,Delhi,Delhi,"Patparganj, Delhi - DPCC",06-11-2025 07:00:00,28.623763,77.287209,NO2,21,113,66
India,Delhi,Delhi,"Patparganj, Delhi - DPCC",06-11-2025 07:00:00,28.623763,77.287209,OZONE,5,137,29
India,Delhi,Delhi,"Punjabi Bagh, Delhi - DPCC",06-11-2025 07:00:00,28.674045,77.131023,PM2.5,72,487,285
India,Delhi,Delhi,"Punjabi Bagh, Delhi - DPCC",06-11-2025 07:00:00,28.674045,77.131023,PM10,118,423,220
India,Delhi,Delhi,"Dwarka-Sector 8, Delhi - DPCC ",06-11-2025 07:00:00,28.5710274,77.0719006,PM10,125,441,239
India,Delhi,Delhi,"Dwarka-Sector 8, Delhi - DPCC ",06-11-2025 07:00:00,28.5710274,77.0719006,NO2,30,109,57
India,Delhi,Delhi,"IGI Airport (T3), Delhi - IMD",06-11-2025 07:00:00,28.5627763,77.1180053,PM2.5,59,455,240
India,Delhi,Delhi,"IHBAS, Dilshad Garden, Delhi - CPCB",06-11-2025 07:00:00,28.6811736,77.3025234,PM2.5,146,264,184
India,Delhi,Delhi,"IHBAS, Dilshad Garden, Delhi - CPCB",06-11-2025 07:00:00,28.6811736,77.3025234,SO2,20,38,26
India,Delhi,Delhi,"ITO, Delhi - CPCB",06-11-2025 07:00:00,28.628624,77.241060,PM2.5,91,488,290
India,Delhi,Delhi,"ITO, Delhi - CPCB",06-11-2025 07:00:00,28.628624,77.241060,PM10,101,413,199
India,Delhi,Delhi,"ITO, Delhi - CPCB",06-11-2025 07:00:00,28.628624,77.241060,NO2,23,67,37
India,Delhi,Delhi,"ITO, Delhi - CPCB",06-11-2025 07:00:00,28.628624,77.241060,CO,39,98,67
India,Delhi,Delhi,"Punjabi Bagh, Delhi - DPCC",06-11-2025 07:00:00,28.674045,77.131023,SO2,4,38,26
India,Delhi,Delhi,"Pusa, Delhi - DPCC",06-11-2025 07:00:00,28.639652,77.146275,NH3,3,13,9
India,Delhi,Delhi,"Pusa, Delhi - DPCC",06-11-2025 07:00:00,28.639652,77.146275,SO2,8,28,15
India,Delhi,Delhi,"R K Puram, Delhi - DPCC",06-11-2025 07:00:00,28.563262,77.186937,CO,1,108,44
India,Delhi,Delhi,"Rohini, Delhi - DPCC",06-11-2025 07:00:00,28.732528,77.119920,NO2,7,28,16
India,Delhi,Delhi,"Shadipur, Delhi - CPCB",06-11-2025 07:00:00,28.6514781,77.1473105,PM2.5,179,363,245
India,Delhi,Delhi,"Sirifort, Delhi - CPCB",06-11-2025 07:00:00,28.5504249,77.2159377,PM10,131,424,231
India,Delhi,Delhi,"Sirifort, Delhi - CPCB",06-11-2025 07:00:00,28.5504249,77.2159377,OZONE,3,22,3
India,Delhi,Delhi,"Sonia Vihar, Delhi - DPCC",06-11-2025 07:00:00,28.710508,77.249485,OZONE,4,79,29
India,Delhi,Delhi,"Sri Aurobindo Marg, Delhi - DPCC",06-11-2025 07:00:00,28.531346,77.190156,NO2,8,37,27
India,Delhi,Delhi,"Sri Aurobindo Marg, Delhi - DPCC",06-11-2025 07:00:00,28.531346,77.190156,OZONE,1,105,8
India,Delhi,Delhi,"Vivek Vihar, Delhi - DPCC",06-11-2025 07:00:00,28.672342,77.315260,CO,42,101,85
India,Delhi,Delhi,"Lodhi Road, Delhi - IITM",06-11-2025 07:00:00,28.588333,77.221667,PM2.5,42,328,149
India,Delhi,Delhi,"Lodhi Road, Delhi - IITM",06-11-2025 07:00:00,28.588333,77.221667,PM10,76,250,136
India,Delhi,Delhi,"Lodhi Road, Delhi - IITM",06-11-2025 07:00:00,28.588333,77.221667,SO2,1,21,9
India,Delhi,Delhi,"Lodhi Road, Delhi - IMD",06-11-2025 07:00:00,28.5918245,77.2273074,PM2.5,78,438,231
India,Delhi,Delhi,"Lodhi Road, Delhi - IMD",06-11-2025 07:00:00,28.5918245,77.2273074,CO,19,38,34
India,Delhi,Delhi,"Mandir Marg, Delhi - DPCC",06-11-2025 07:00:00,28.636429,77.201067,CO,26,64,42
India,Delhi,Delhi,"Chandni Chowk, Delhi - IITM",06-11-2025 07:00:00,28.656756,77.227234,PM10,136,454,245
India,Delhi,Delhi,"Chandni Chowk, Delhi - IITM",06-11-2025 07:00:00,28.656756,77.227234,NO2,5,13,10
India,Delhi,Delhi,"Chandni Chowk, Delhi - IITM",06-11-2025 07:00:00,28.656756,77.227234,CO,16,76,61
India,Delhi,Delhi,"DTU, Delhi - CPCB",06-11-2025 07:00:00,28.7500499,77.1112615,OZONE,9,36,10
India,Delhi,Delhi,"Dr. Karni Singh Shooting Range, Delhi - DPCC",06-11-2025 07:00:00,28.498571,77.264840,CO,27,80,47
India,Delhi,Delhi,"Ashok Vihar, Delhi - DPCC",06-11-2025 07:00:00,28.695381,77.181665,PM10,104,415,211
India,Delhi,Delhi,"Ashok Vihar, Delhi - DPCC",06-11-2025 07:00:00,28.695381,77.181665,NO2,23,105,46
India,Delhi,Delhi,"Aya Nagar, Delhi - IMD",06-11-2025 07:00:00,28.4706914,77.1099364,PM10,113,456,237
India,Delhi,Delhi,"Bawana, Delhi - DPCC",06-11-2025 07:00:00,28.776200,77.051074,PM2.5,103,500,327
India,Delhi,Delhi,"Bawana, Delhi - DPCC",06-11-2025 07:00:00,28.776200,77.051074,PM10,122,426,254
India,Chhattisgarh,Tumidih,"OP Jindal Industrial Park, Tumidih - CECB",06-11-2025 07:00:00,22.06631475,83.33820077,NH3,1,2,1
India,Delhi,Delhi,"Alipur, Delhi - DPCC",06-11-2025 07:00:00,28.815329,77.153010,PM10,80,424,248
India,Delhi,Delhi,"Alipur, Delhi - DPCC",06-11-2025 07:00:00,28.815329,77.153010,OZONE,3,53,15
India,Delhi,Delhi,"Mundka, Delhi - DPCC",06-11-2025 07:00:00,28.684678,77.076574,SO2,2,63,22
India,Delhi,Delhi,"Najafgarh, Delhi - DPCC",06-11-2025 07:00:00,28.570173,76.933762,CO,26,102,92
India,Delhi,Delhi,"Najafgarh, Delhi - DPCC",06-11-2025 07:00:00,28.570173,76.933762,OZONE,5,33,9
India,Gujarat,Surat,"Science Center, Surat - SMC",06-11-2025 07:00:00,21.170046,72.795405,CO,35,38,37
India,Gujarat,Vapi,"Phase-1 GIDC, Vapi - GPCB",06-11-2025 07:00:00,20.362421,72.918013,PM10,65,175,122
India,Gujarat,Vapi,"Phase-1 GIDC, Vapi - GPCB",06-11-2025 07:00:00,20.362421,72.918013,OZONE,2,2,2
India,Gujarat,Vatva,"Phase-4 GIDC, Vatva - GPCB",06-11-2025 07:00:00,22.969611,72.643500,PM10,89,336,142
India,Gujarat,Vatva,"Phase-4 GIDC, Vatva - GPCB",06-11-2025 07:00:00,22.969611,72.643500,NH3,4,4,4
India,Haryana,Ambala,"Patti Mehar, Ambala - HSPCB",06-11-2025 07:00:00,30.379589,76.778328,PM10,80,147,122
India,Haryana,Ambala,"Patti Mehar, Ambala - HSPCB",06-11-2025 07:00:00,30.379589,76.778328,NH3,9,11,10
India,Haryana,Ambala,"Patti Mehar, Ambala - HSPCB",06-11-2025 07:00:00,30.379589,76.778328,OZONE,48,52,50
India,Haryana,Bahadurgarh,"Arya Nagar, Bahadurgarh - HSPCB",06-11-2025 07:00:00,28.6701,76.9254,NH3,12,13,13
India,Haryana,Bahadurgarh,"Arya Nagar, Bahadurgarh - HSPCB",06-11-2025 07:00:00,28.6701,76.9254,CO,22,51,45
India,Haryana,Bahadurgarh,"Arya Nagar, Bahadurgarh - HSPCB",06-11-2025 07:00:00,28.6701,76.9254,OZONE,15,20,17
India,Haryana,Ballabgarh,"Nathu Colony, Ballabgarh - HSPCB",06-11-2025 07:00:00,28.3419248,77.319699,PM10,115,255,142
India,Haryana,Charkhi Dadri,"Mini Secretariat, Charkhi Dadri - HSPCB",06-11-2025 07:00:00,28.593883,76.270653,PM10,57,411,217
India,Haryana,Charkhi Dadri,"Mini Secretariat, Charkhi Dadri - HSPCB",06-11-2025 07:00:00,28.593883,76.270653,SO2,10,12,11
India,Haryana,Dharuhera,"Municipal Corporation Office, Dharuhera -  HSPCB",06-11-2025 07:00:00,28.206800,76.799700,PM2.5,46,447,178
India,Haryana,Dharuhera,"Municipal Corporation Office, Dharuhera -  HSPCB",06-11-2025 07:00:00,28.206800,76.799700,SO2,4,6,5
India,Haryana,Dharuhera,"Municipal Corporation Office, Dharuhera -  HSPCB",06-11-2025 07:00:00,28.206800,76.799700,CO,34,56,49
India,Haryana,Kaithal,"Rishi Nagar, Kaithal - HSPCB",06-11-2025 07:00:00,29.8006,76.4155,PM2.5,67,317,190
India,Haryana,Kaithal,"Rishi Nagar, Kaithal - HSPCB",06-11-2025 07:00:00,29.8006,76.4155,SO2,28,34,31
India,Haryana,Kaithal,"Rishi Nagar, Kaithal - HSPCB",06-11-2025 07:00:00,29.8006,76.4155,OZONE,5,25,12
India,Haryana,Karnal,"Sector-12, Karnal - HSPCB",06-11-2025 07:00:00,29.695300,77.002700,PM2.5,70,304,177
India,Haryana,Karnal,"Sector-12, Karnal - HSPCB",06-11-2025 07:00:00,29.695300,77.002700,NO2,9,11,10
India,Haryana,Karnal,"Sector-12, Karnal - HSPCB",06-11-2025 07:00:00,29.695300,77.002700,NH3,6,7,6
India,Haryana,Kurukshetra,"Sector-7, Kurukshetra - HSPCB",06-11-2025 07:00:00,29.966942,76.875879,SO2,1,17,12
India,Haryana,Mandikhera,"General Hospital, Mandikhera - HSPCB",06-11-2025 07:00:00,27.9002,76.9938,PM2.5,NA,NA,NA
India,Haryana,Mandikhera,"General Hospital, Mandikhera - HSPCB",06-11-2025 07:00:00,27.9002,76.9938,NO2,NA,NA,NA
India,Haryana,Gurugram,"Sector-51, Gurugram - HSPCB",06-11-2025 07:00:00,28.4227,77.0667,PM2.5,127,395,269
India,Haryana,Gurugram,"Sector-51, Gurugram - HSPCB",06-11-2025 07:00:00,28.4227,77.0667,PM10,124,420,237
India,Haryana,Gurugram,"Vikas Sadan, Gurugram - HSPCB",06-11-2025 07:00:00,28.4501238,77.0263051,CO,102,140,119
India,Haryana,Hisar,"Urban Estate-II, Hisar - HSPCB",06-11-2025 07:00:00,29.140560,75.744941,SO2,11,13,12
India,Haryana,Hisar,"Urban Estate-II, Hisar - HSPCB",06-11-2025 07:00:00,29.140560,75.744941,OZONE,51,109,68
India,Haryana,Jind,"Police Lines, Jind - HSPCB",06-11-2025 07:00:00,29.307814,76.337619,PM2.5,192,445,335
India,Haryana,Jind,"Police Lines, Jind - HSPCB",06-11-2025 07:00:00,29.307814,76.337619,NO2,12,14,13
India,Gujarat,Ahmedabad,"Rakhial, Ahmedabad - IITM",06-11-2025 07:00:00,23.016834,72.625775,SO2,18,82,36
India,Gujarat,Ahmedabad,"Rakhial, Ahmedabad - IITM",06-11-2025 07:00:00,23.016834,72.625775,OZONE,2,57,3
India,Gujarat,Ahmedabad,"SAC ISRO Bopal, Ahmedabad - IITM",06-11-2025 07:00:00,23.041137,72.456691,PM2.5,6,165,40
India,Gujarat,Ahmedabad,"SAC ISRO Bopal, Ahmedabad - IITM",06-11-2025 07:00:00,23.041137,72.456691,OZONE,1,38,4
India,Gujarat,Ahmedabad,"SAC ISRO Satellite, Ahmedabad - IITM",06-11-2025 07:00:00,23.023389,72.515201,NH3,5,11,6
India,Gujarat,Ahmedabad,"SAC ISRO Satellite, Ahmedabad - IITM",06-11-2025 07:00:00,23.023389,72.515201,CO,1,76,21
India,Gujarat,Ahmedabad,"SVPI Airport Hansol, Ahmedabad - IITM",06-11-2025 07:00:00,23.076793,72.627874,PM2.5,42,304,122
India,Haryana,Manesar,"Sector-2 IMT, Manesar - HSPCB",06-11-2025 07:00:00,28.360699,76.936090,PM10,103,173,130
India,Haryana,Narnaul,"Shastri Nagar, Narnaul - HSPCB",06-11-2025 07:00:00,28.060249,76.113115,OZONE,16,80,18
India,Haryana,Palwal,"Shyam Nagar, Palwal - HSPCB",06-11-2025 07:00:00,28.1485564,77.3320667,SO2,12,13,13
India,Haryana,Panchkula,"Sector-6, Panchkula - HSPCB ",06-11-2025 07:00:00,30.7057778,76.8531805555555,NO2,24,26,25
India,Gujarat,Ahmedabad,"Chandkheda, Ahmedabad - IITM",06-11-2025 07:00:00,23.107969,72.574648,NH3,5,24,10
India,Gujarat,Ahmedabad,"Chandkheda, Ahmedabad - IITM",06-11-2025 07:00:00,23.107969,72.574648,CO,14,105,58
India,Gujarat,Ahmedabad,"Gyaspur, Ahmedabad - IITM",06-11-2025 07:00:00,22.977134,72.553024,NO2,26,98,50
India,Gujarat,Ahmedabad,"Gyaspur, Ahmedabad - IITM",06-11-2025 07:00:00,22.977134,72.553024,OZONE,6,66,8
India,Gujarat,Ahmedabad,"Maninagar, Ahmedabad - GPCB",06-11-2025 07:00:00,23.002657,72.591912,SO2,13,42,30
India,Gujarat,Ahmedabad,"Maninagar, Ahmedabad - GPCB",06-11-2025 07:00:00,23.002657,72.591912,CO,18,56,41
India,Gujarat,Ahmedabad,"SVPI Airport Hansol, Ahmedabad - IITM",06-11-2025 07:00:00,23.076793,72.627874,SO2,1,31,10
India,Gujarat,Ankleshwar,"GIDC, Ankleshwar - GPCB",06-11-2025 07:00:00,21.613267,73.010555,CO,20,111,103
India,Gujarat,Gandhinagar,"Sector-10, Gandhinagar - GPCB",06-11-2025 07:00:00,23.221714,72.654328,PM2.5,73,341,176
India,Gujarat,Gandhinagar,"Sector-10, Gandhinagar - GPCB",06-11-2025 07:00:00,23.221714,72.654328,CO,26,36,33
India,Haryana,Faridabad,"New Industrial Town, Faridabad - HSPCB",06-11-2025 07:00:00,28.39072,77.30059,PM2.5,221,239,231
India,Haryana,Faridabad,"New Industrial Town, Faridabad - HSPCB",06-11-2025 07:00:00,28.39072,77.30059,NO2,23,26,25
India,Haryana,Faridabad,"Sector 30, Faridabad - HSPCB",06-11-2025 07:00:00,28.4417,77.3217,PM2.5,165,171,167
India,Haryana,Faridabad,"Sector 30, Faridabad - HSPCB",06-11-2025 07:00:00,28.4417,77.3217,SO2,6,6,6
India,Karnataka,Gadag,"Panchal Nagar, Gadag - KSPCB",06-11-2025 07:00:00,15.411456,75.638133,NH3,3,4,3
India,Karnataka,Haveri,"Ashwini Nagar, Haveri - KSPCB",06-11-2025 07:00:00,14.791800,75.389600,PM10,45,55,51
India,Karnataka,Haveri,"Ashwini Nagar, Haveri - KSPCB",06-11-2025 07:00:00,14.791800,75.389600,NO2,5,48,43
India,Karnataka,Haveri,"Ashwini Nagar, Haveri - KSPCB",06-11-2025 07:00:00,14.791800,75.389600,SO2,16,16,16
India,Karnataka,Hubballi,"Lingaraj Nagar, Hubballi - KSPCB",06-11-2025 07:00:00,15.3714823,75.1160168,OZONE,18,22,22
India,Karnataka,Kalaburagi,"Lal Bahadur Shastri Nagar, Kalaburagi - KSPCB",06-11-2025 07:00:00,17.321993,76.822628,PM10,NA,NA,NA
India,Karnataka,Kalaburagi,"Lal Bahadur Shastri Nagar, Kalaburagi - KSPCB",06-11-2025 07:00:00,17.321993,76.822628,SO2,66,67,66
India,Karnataka,Kalaburagi,"Mahatma Basaveswar Colony, Kalaburgi - KSPCB",06-11-2025 07:00:00,17.336318,76.847397,PM2.5,20,54,35
India,Haryana,Yamuna Nagar,"Gobind Pura, Yamuna Nagar - HSPCB",06-11-2025 07:00:00,30.1480566,77.2893471,PM10,105,147,119
India,Haryana,Yamuna Nagar,"Gobind Pura, Yamuna Nagar - HSPCB",06-11-2025 07:00:00,30.1480566,77.2893471,NO2,11,11,11
India,Haryana,Yamuna Nagar,"Gobind Pura, Yamuna Nagar - HSPCB",06-11-2025 07:00:00,30.1480566,77.2893471,SO2,10,15,12
India,Himachal Pradesh,Baddi,"HIMUDA Complex Phase-1, Baddi - HPPCB",06-11-2025 07:00:00,30.943887,76.801991,PM10,107,229,162
India,Jharkhand,Dhanbad,"Sardar Patel Nagar, Dhanbad - JSPCB",06-11-2025 07:00:00,23.80569,86.44268,PM2.5,12,185,92
India,Jharkhand,Dhanbad,"Sardar Patel Nagar, Dhanbad - JSPCB",06-11-2025 07:00:00,23.80569,86.44268,NO2,91,132,95
India,Karnataka,Bengaluru,"Jayanagar 5th Block, Bengaluru - KSPCB",06-11-2025 07:00:00,12.920984,77.584908,OZONE,5,76,32
India,Karnataka,Bengaluru,"Jigani, Bengaluru - KSPCB",06-11-2025 07:00:00,12.7816279,77.6299145,PM10,45,103,80
India,Karnataka,Bengaluru,"Kasturi Nagar, Bengaluru - KSPCB",06-11-2025 07:00:00,13.003872,77.664217,NO2,29,30,30
India,Karnataka,Bengaluru,"Kasturi Nagar, Bengaluru - KSPCB",06-11-2025 07:00:00,13.003872,77.664217,NH3,2,2,2
India,Karnataka,Bengaluru,"Kasturi Nagar, Bengaluru - KSPCB",06-11-2025 07:00:00,13.003872,77.664217,CO,43,53,47
India,Karnataka,Bengaluru,"Kasturi Nagar, Bengaluru - KSPCB",06-11-2025 07:00:00,13.003872,77.664217,OZONE,20,21,20
India,Karnataka,Bengaluru,"Sanegurava Halli, Bengaluru - KSPCB",06-11-2025 07:00:00,12.990328,77.5431385,CO,17,30,22
India,Karnataka,Bengaluru,"Shivapura_Peenya, Bengaluru - KSPCB",06-11-2025 07:00:00,13.0246342,77.5080115,NO2,33,35,34
India,Karnataka,Bengaluru,"Shivapura_Peenya, Bengaluru - KSPCB",06-11-2025 07:00:00,13.0246342,77.5080115,SO2,6,13,9
India,Karnataka,Bengaluru,"Silk Board, Bengaluru - KSPCB",06-11-2025 07:00:00,12.917348,77.622813,NO2,11,20,16
India,Karnataka,Bidar,"Naubad, Bidar - KSPCB",06-11-2025 07:00:00,17.930306,77.482194,NO2,NA,NA,NA
India,Haryana,Panipat,"Sector-18, Panipat - HSPCB",06-11-2025 07:00:00,29.432304,76.972765,OZONE,30,30,30
India,Haryana,Rohtak,"MD University, Rohtak - HSPCB",06-11-2025 07:00:00,28.52123,76.37138,OZONE,12,13,13
India,Haryana,Sirsa,"F-Block, Sirsa - HSPCB",06-11-2025 07:00:00,29.536400,75.015800,PM2.5,58,368,191
India,Haryana,Sonipat,"Murthal, Sonipat - HSPCB",06-11-2025 07:00:00,29.027200,77.062100,CO,35,38,36
India,Karnataka,Bengaluru,"BWSSB Kadabesanahalli, Bengaluru - CPCB",06-11-2025 07:00:00,12.9352049,77.6814488,NO2,23,25,25
India,Karnataka,Bengaluru,"BWSSB Kadabesanahalli, Bengaluru - CPCB",06-11-2025 07:00:00,12.9352049,77.6814488,OZONE,29,29,29
India,Karnataka,Bengaluru,"Bapuji Nagar, Bengaluru - KSPCB",06-11-2025 07:00:00,12.951913,77.539784,PM2.5,24,153,65
India,Karnataka,Bengaluru,"Bapuji Nagar, Bengaluru - KSPCB",06-11-2025 07:00:00,12.951913,77.539784,NO2,5,17,10
India,Karnataka,Chikkamagaluru,"Kalyana Nagara, Chikkamagaluru - KSPCB",06-11-2025 07:00:00,13.328028,75.797056,NH3,NA,NA,NA
India,Karnataka,Davanagere,"Devaraj Urs Badavane, Davanagere - KSPCB",06-11-2025 07:00:00,14.475800,75.905200,NO2,15,31,22
India,Karnataka,Davanagere,"Devaraj Urs Badavane, Davanagere - KSPCB",06-11-2025 07:00:00,14.475800,75.905200,NH3,1,3,2
India,Karnataka,Bengaluru,"Hebbal, Bengaluru - KSPCB",06-11-2025 07:00:00,13.029152,77.585901,NH3,NA,NA,NA
India,Karnataka,Bengaluru,"Hombegowda Nagar, Bengaluru - KSPCB",06-11-2025 07:00:00,12.938539,77.590100,OZONE,1,32,10
India,Karnataka,Belgaum,"Ramteerth Nagar, Belgaum - KSPCB",06-11-2025 07:00:00,15.888653,74.541751,PM2.5,15,82,46
India,Karnataka,Belgaum,"Ramteerth Nagar, Belgaum - KSPCB",06-11-2025 07:00:00,15.888653,74.541751,SO2,NA,NA,NA
India,Madhya Pradesh,Bhopal,"Idgah Hills, Bhopal - MPPCB",06-11-2025 07:00:00,23.264759,77.381568,CO,12,42,16
India,Madhya Pradesh,Bhopal,"Paryavaran Parisar, Bhopal - MPPCB",06-11-2025 07:00:00,23.210494,77.425409,PM2.5,38,110,63
India,Madhya Pradesh,Bhopal,"Paryavaran Parisar, Bhopal - MPPCB",06-11-2025 07:00:00,23.210494,77.425409,SO2,1,21,10
India,Madhya Pradesh,Bhopal,"Paryavaran Parisar, Bhopal - MPPCB",06-11-2025 07:00:00,23.210494,77.425409,OZONE,31,67,43
India,Madhya Pradesh,Bhopal,"T T Nagar, Bhopal - MPPCB",06-11-2025 07:00:00,23.233584,77.400574,PM10,62,155,110
India,Madhya Pradesh,Dewas,"Bhopal Chauraha, Dewas - MPPCB",06-11-2025 07:00:00,22.9682591,76.064118,NH3,2,3,2
India,Madhya Pradesh,Dewas,"Bhopal Chauraha, Dewas - MPPCB",06-11-2025 07:00:00,22.9682591,76.064118,SO2,14,63,36
India,Madhya Pradesh,Gwalior,"City Center, Gwalior - MPPCB",06-11-2025 07:00:00,26.203442,78.193251,PM2.5,20,183,61
India,Madhya Pradesh,Jabalpur,"Marhatal, Jabalpur - MPPCB",06-11-2025 07:00:00,23.168606,79.932247,SO2,9,18,13
India,Madhya Pradesh,Jabalpur,"Marhatal, Jabalpur - MPPCB",06-11-2025 07:00:00,23.168606,79.932247,CO,8,82,26
India,Madhya Pradesh,Jabalpur,"Suhagi, Jabalpur - JMC",06-11-2025 07:00:00,23.218135,79.957770,SO2,3,6,5
India,Madhya Pradesh,Katni,"Gole Bazar, Katni - MPPCB",06-11-2025 07:00:00,23.50016,80.23284,NH3,3,5,4
India,Madhya Pradesh,Katni,"Gole Bazar, Katni - MPPCB",06-11-2025 07:00:00,23.50016,80.23284,OZONE,15,93,22
India,Madhya Pradesh,Maihar,"Sahilara, Maihar - KJS Cements",06-11-2025 07:00:00,24.2613009,80.7231783,NO2,17,48,35
India,Madhya Pradesh,Mandideep,"Sector-D Industrial Area, Mandideep - MPPCB",06-11-2025 07:00:00,23.108440,77.511428,OZONE,9,89,20
India,Madhya Pradesh,Pithampur,"Sector-2 Industrial Area, Pithampur - MPPCB",06-11-2025 07:00:00,22.624758,75.675238,NO2,19,261,43
India,Madhya Pradesh,Pithampur,"Sector-2 Industrial Area, Pithampur - MPPCB",06-11-2025 07:00:00,22.624758,75.675238,NH3,2,25,4
India,Madhya Pradesh,Pithampur,"Sector-2 Industrial Area, Pithampur - MPPCB",06-11-2025 07:00:00,22.624758,75.675238,SO2,13,22,16
India,Madhya Pradesh,Pithampur,"Sector-2 Industrial Area, Pithampur - MPPCB",06-11-2025 07:00:00,22.624758,75.675238,CO,23,52,39
India,Madhya Pradesh,Ratlam,"Shasthri Nagar, Ratlam - IPCA Lab",06-11-2025 07:00:00,23.331731,75.045981,PM2.5,6,85,46
India,Madhya Pradesh,Ratlam,"Shasthri Nagar, Ratlam - IPCA Lab",06-11-2025 07:00:00,23.331731,75.045981,SO2,19,21,20
India,Madhya Pradesh,Sagar,"Civil Lines, Sagar - MPPCB",06-11-2025 07:00:00,23.838586,78.759431,PM2.5,44,110,67
India,Madhya Pradesh,Sagar,"Civil Lines, Sagar - MPPCB",06-11-2025 07:00:00,23.838586,78.759431,NO2,10,47,18
India,Karnataka,Udupi,"Brahmagiri, Udupi - KSPCB",06-11-2025 07:00:00,13.34194444,74.74694444,PM10,9,34,19
India,Karnataka,Udupi,"Brahmagiri, Udupi - KSPCB",06-11-2025 07:00:00,13.34194444,74.74694444,OZONE,8,8,8
India,Karnataka,Yadgir,"Collector Office, Yadgir - KSPCB",06-11-2025 07:00:00,16.7602,77.1428,PM10,11,73,34
India,Kerala,Eloor,"Udyogamandal, Eloor - Kerala PCB",06-11-2025 07:00:00,10.073232,76.302765,PM10,43,81,55
India,Kerala,Kannur,"Thavakkara, Kannur - Kerala PCB",06-11-2025 07:00:00,11.875000,75.373200,NH3,1,2,1
India,Kerala,Kannur,"Thavakkara, Kannur - Kerala PCB",06-11-2025 07:00:00,11.875000,75.373200,SO2,2,5,2
India,Kerala,Kannur,"Thavakkara, Kannur - Kerala PCB",06-11-2025 07:00:00,11.875000,75.373200,CO,14,18,16
India,Madhya Pradesh,Gwalior,"Deen Dayal Nagar, Gwalior - MPPCB",06-11-2025 07:00:00,26.259242,78.216432,PM2.5,27,163,62
India,Madhya Pradesh,Gwalior,"Deen Dayal Nagar, Gwalior - MPPCB",06-11-2025 07:00:00,26.259242,78.216432,OZONE,31,105,53
India,Madhya Pradesh,Indore,"Airport Area, Indore - IMC",06-11-2025 07:00:00,22.7289,75.8076,PM10,41,77,55
India,Madhya Pradesh,Indore,"Chhoti Gwaltoli, Indore - MPPCB",06-11-2025 07:00:00,22.4310,75.5213,PM10,38,135,75
India,Madhya Pradesh,Indore,"Chhoti Gwaltoli, Indore - MPPCB",06-11-2025 07:00:00,22.4310,75.5213,NH3,2,6,4
India,Madhya Pradesh,Indore,"Chhoti Gwaltoli, Indore - MPPCB",06-11-2025 07:00:00,22.4310,75.5213,CO,24,89,50
India,Madhya Pradesh,Indore,"Maguda Nagar, Indore - IMC",06-11-2025 07:00:00,22.7524,75.8872,PM10,27,90,48
India,Karnataka,Mangalore,"Kadri, Mangalore - KSPCB",06-11-2025 07:00:00,12.889250,74.853000,SO2,13,15,14
India,Karnataka,Mangalore,"Kadri, Mangalore - KSPCB",06-11-2025 07:00:00,12.889250,74.853000,OZONE,10,40,24
India,Karnataka,Mysuru,"Hebbal 1st Stage, Mysuru - KSPCB",06-11-2025 07:00:00,12.21041,76.37376,OZONE,6,53,15
India,Karnataka,Shivamogga,"Vinoba Nagara, Shivamogga - KSPCB",06-11-2025 07:00:00,13.940000,75.555917,PM2.5,17,20,18
India,Madhya Pradesh,Indore,"Regional Park, Indore - IMC",06-11-2025 07:00:00,22.6780,75.8559,PM10,43,156,80
India,Madhya Pradesh,Indore,"Regional Park, Indore - IMC",06-11-2025 07:00:00,22.6780,75.8559,OZONE,11,22,17
India,Madhya Pradesh,Jabalpur,"Govindh Bhavan Colony, Jabalpur - JMC",06-11-2025 07:00:00,23.163174,79.973061,SO2,12,15,14
India,Madhya Pradesh,Jabalpur,"Govindh Bhavan Colony, Jabalpur - JMC",06-11-2025 07:00:00,23.163174,79.973061,OZONE,4,302,6
India,Kerala,Kollam,"Polayathode, Kollam - Kerala PCB",06-11-2025 07:00:00,8.8787,76.6073,NO2,8,10,9
India,Kerala,Thiruvananthapuram,"Plammoodu, Thiruvananthapuram - Kerala PCB",06-11-2025 07:00:00,8.5149093,76.9435879,SO2,3,24,15
India,Karnataka,Madikeri,"Stuart Hill, Madikeri - KSPCB",06-11-2025 07:00:00,12.415911,75.735050,PM2.5,3,45,23
India,Karnataka,Mangalore,"Kadri, Mangalore - KSPCB",06-11-2025 07:00:00,12.889250,74.853000,PM2.5,42,82,60
India,Maharashtra,Kolhapur,"Sinchan Bhavan, Kolhapur - MPCB",06-11-2025 07:00:00,16.7143745,74.2426398,CO,9,30,11
India,Maharashtra,Latur,"Sawe Wadi, Latur - MPCB",06-11-2025 07:00:00,18.39963,76.57452,CO,11,51,17
India,Maharashtra,Mahad,"Kamble Tarf Birwadi, Mahad - MPCB",06-11-2025 07:00:00,18.1023399,73.4783687,NH3,4,7,5
India,Maharashtra,Mahad,"Kamble Tarf Birwadi, Mahad - MPCB",06-11-2025 07:00:00,18.1023399,73.4783687,CO,6,42,18
India,Maharashtra,Malegaon,"Mahesh Nagar, Malegaon - MPCB",06-11-2025 07:00:00,20.555712,74.529236,PM10,51,88,70
India,Maharashtra,Malegaon,"Mahesh Nagar, Malegaon - MPCB",06-11-2025 07:00:00,20.555712,74.529236,NO2,6,38,16
India,Maharashtra,Malegaon,"Mahesh Nagar, Malegaon - MPCB",06-11-2025 07:00:00,20.555712,74.529236,NH3,1,7,2
India,Maharashtra,Malegaon,"Mahesh Nagar, Malegaon - MPCB",06-11-2025 07:00:00,20.555712,74.529236,SO2,4,17,7
India,Maharashtra,Malegaon,"Mahesh Nagar, Malegaon - MPCB",06-11-2025 07:00:00,20.555712,74.529236,CO,8,62,14
India,Maharashtra,Mumbai,"Khindipada-Bhandup West, Mumbai - IITM",06-11-2025 07:00:00,19.1653323,72.922099,NH3,7,13,10
India,Maharashtra,Mumbai,"Kurla, Mumbai - MPCB",06-11-2025 07:00:00,19.0863,72.8888,NO2,4,5,4
India,Maharashtra,Mumbai,"Malad West, Mumbai - IITM",06-11-2025 07:00:00,19.19709,72.82204,NO2,29,111,58
India,Maharashtra,Mumbai,"Mazgaon, Mumbai - IITM",06-11-2025 07:00:00,18.96702,72.84214,PM2.5,42,101,72
India,Maharashtra,Mumbai,"Mindspace-Malad West, Mumbai - MPCB",06-11-2025 07:00:00,19.1878657,72.8304069,PM2.5,29,78,50
India,Maharashtra,Mumbai,"Mindspace-Malad West, Mumbai - MPCB",06-11-2025 07:00:00,19.1878657,72.8304069,NO2,6,41,19
India,Maharashtra,Mumbai,"Mindspace-Malad West, Mumbai - MPCB",06-11-2025 07:00:00,19.1878657,72.8304069,NH3,2,15,7
India,Maharashtra,Mumbai,"Mindspace-Malad West, Mumbai - MPCB",06-11-2025 07:00:00,19.1878657,72.8304069,SO2,15,15,15
India,Maharashtra,Mumbai,"Mindspace-Malad West, Mumbai - MPCB",06-11-2025 07:00:00,19.1878657,72.8304069,CO,28,52,36
India,Maharashtra,Dhule,"Deopur, Dhule - MPCB",06-11-2025 07:00:00,20.918946,74.776388,CO,14,36,16
India,Maharashtra,Jalgaon,"Prabhat Colony, Jalgaon - MPCB",06-11-2025 07:00:00,21.001264,75.565602,OZONE,10,70,17
India,Maharashtra,Jalna,"Old MIDC, Jalna - MPCB",06-11-2025 07:00:00,19.854616,75.905894,PM10,21,107,72
India,Maharashtra,Kalyan,"Pimpleshwar Mandir, Kalyan - MPCB",06-11-2025 07:00:00,19.192056,72.9585188,SO2,9,9,9
India,Maharashtra,Kolhapur,"Shivaji University, Kolhapur - MPCB",06-11-2025 07:00:00,16.6870449,74.2505872,PM2.5,NA,NA,NA
India,Maharashtra,Kolhapur,"Shivaji University, Kolhapur - MPCB",06-11-2025 07:00:00,16.6870449,74.2505872,PM10,NA,NA,NA
India,Maharashtra,Kolhapur,"Shivaji University, Kolhapur - MPCB",06-11-2025 07:00:00,16.6870449,74.2505872,NH3,NA,NA,NA
India,Maharashtra,Mumbai,"Deonar, Mumbai - IITM",06-11-2025 07:00:00,19.04946,72.9230,NO2,7,47,24
India,Maharashtra,Mumbai,"Deonar, Mumbai - IITM",06-11-2025 07:00:00,19.04946,72.9230,CO,7,62,36
India,Maharashtra,Mumbai,"Deonar, Mumbai - IITM",06-11-2025 07:00:00,19.04946,72.9230,OZONE,1,34,1
India,Maharashtra,Mumbai,"Kandivali East, Mumbai - MPCB",06-11-2025 07:00:00,19.205800,72.868200,PM10,48,100,70
India,Maharashtra,Mumbai,"Kandivali West, Mumbai - BMC",06-11-2025 07:00:00,19.215859,72.831718,CO,6,28,13
India,Maharashtra,Mumbai,"Kherwadi_Bandra East, Mumbai - MPCB",06-11-2025 07:00:00,19.0632143,72.8456324,SO2,3,3,3
India,Maharashtra,Mumbai,"Khindipada-Bhandup West, Mumbai - IITM",06-11-2025 07:00:00,19.1653323,72.922099,PM10,4,98,53
India,Maharashtra,Aurangabad,"MIDC Chilkalthana, Aurangabad - MPCB",06-11-2025 07:00:00,19.875620,75.387310,NO2,8,64,24
India,Maharashtra,Aurangabad,"MIDC Chilkalthana, Aurangabad - MPCB",06-11-2025 07:00:00,19.875620,75.387310,SO2,1,2,1
India,Maharashtra,Aurangabad,"Rachnakar Colony, Aurangabad - MPCB",06-11-2025 07:00:00,19.863756,75.321188,PM10,19,96,59
India,Maharashtra,Aurangabad,"Rachnakar Colony, Aurangabad - MPCB",06-11-2025 07:00:00,19.863756,75.321188,NO2,16,21,19
India,Maharashtra,Aurangabad,"Rachnakar Colony, Aurangabad - MPCB",06-11-2025 07:00:00,19.863756,75.321188,OZONE,11,85,12
India,Maharashtra,Badlapur,"Katrap, Badlapur - MPCB",06-11-2025 07:00:00,19.16485,73.23409,PM2.5,33,77,55
India,Maharashtra,Badlapur,"Katrap, Badlapur - MPCB",06-11-2025 07:00:00,19.16485,73.23409,PM10,56,105,85
India,Maharashtra,Ahmednagar,"Tarakpur, Ahmednagar - MPCB",06-11-2025 07:00:00,19.10122,74.73339,CO,9,106,19
India,Maharashtra,Ahmednagar,"Tarakpur, Ahmednagar - MPCB",06-11-2025 07:00:00,19.10122,74.73339,OZONE,4,47,22
India,Maharashtra,Akola,"Ramdaspeth, Akola - MPCB",06-11-2025 07:00:00,20.719516,77.000253,PM10,36,127,59
India,Maharashtra,Amravati,"Shivneri Colony, Amravati - MPCB",06-11-2025 07:00:00,20.9402359,77.7895248,NO2,7,23,13
India,Maharashtra,Amravati,"Shri Shivaji Science College, Amravati - MPCB",06-11-2025 07:00:00,20.939198,77.765701,CO,36,91,56
India,Maharashtra,Bhiwandi,"Gokul Nagar, Bhiwandi - MPCB",06-11-2025 07:00:00,19.309073,73.057223,PM10,65,134,93
India,Maharashtra,Boisar,"Khaira, Boisar - MPCB",06-11-2025 07:00:00,19.786089,72.757971,NO2,11,16,13
India,Maharashtra,Chandrapur,"MIDC Khutala, Chandrapur - MPCB",06-11-2025 07:00:00,19.9775302,79.2337086,NH3,2,6,4
India,Maharashtra,Mumbai,"Bandra Kurla Complex, Mumbai - IITM",06-11-2025 07:00:00,19.053536,72.84643,CO,2,49,12
India,Maharashtra,Mumbai,"Bandra Kurla Complex, Mumbai - MPCB",06-11-2025 07:00:00,19.065931,72.862131,PM2.5,23,81,48
India,Maharashtra,Mumbai,"Colaba, Mumbai - MPCB",06-11-2025 07:00:00,18.910000,72.820000,NH3,3,3,3
India,Maharashtra,Mumbai,"Colaba, Mumbai - MPCB",06-11-2025 07:00:00,18.910000,72.820000,SO2,NA,NA,NA
India,Maharashtra,Mumbai,"Shivaji Nagar, Mumbai - BMC",06-11-2025 07:00:00,19.060498,72.923356,PM2.5,49,76,64
India,Maharashtra,Mumbai,"Shivaji Nagar, Mumbai - BMC",06-11-2025 07:00:00,19.060498,72.923356,SO2,11,16,13
India,Maharashtra,Mumbai,"Siddharth Nagar-Worli, Mumbai - IITM",06-11-2025 07:00:00,19.000083,72.813993,PM2.5,20,45,37
India,Maharashtra,Mumbai,"Siddharth Nagar-Worli, Mumbai - IITM",06-11-2025 07:00:00,19.000083,72.813993,CO,4,31,24
India,Maharashtra,Mumbai,"Sion, Mumbai - MPCB",06-11-2025 07:00:00,19.047000,72.874600,PM10,38,109,73
India,Maharashtra,Mumbai,"Vasai West, Mumbai - MPCB",06-11-2025 07:00:00,19.383200,72.820400,PM10,51,193,111
India,Maharashtra,Nashik,"MIDC Ambad, Nashik - MPCB",06-11-2025 07:00:00,19.950220,73.731480,CO,13,15,14
India,Maharashtra,Nashik,"Pandav Nagari, Nashik - MPCB",06-11-2025 07:00:00,19.9591346,73.7788008,SO2,2,10,6
India,Maharashtra,Nashik,"Pandav Nagari, Nashik - MPCB",06-11-2025 07:00:00,19.9591346,73.7788008,CO,12,26,15
India,Maharashtra,Nashik,"Pandav Nagari, Nashik - MPCB",06-11-2025 07:00:00,19.9591346,73.7788008,OZONE,14,61,27
India,Maharashtra,Navi Mumbai,"Kopripada-Vashi, Navi Mumbai - MPCB",06-11-2025 07:00:00,19.090337,73.014232,PM10,37,87,62
India,Maharashtra,Navi Mumbai,"Kopripada-Vashi, Navi Mumbai - MPCB",06-11-2025 07:00:00,19.090337,73.014232,SO2,9,15,11
India,Maharashtra,Navi Mumbai,"Mahape, Navi Mumbai - MPCB",06-11-2025 07:00:00,19.1135051,73.008978,NH3,3,3,3
India,Maharashtra,Navi Mumbai,"Mahape, Navi Mumbai - MPCB",06-11-2025 07:00:00,19.1135051,73.008978,SO2,25,27,26
India,Maharashtra,Navi Mumbai,"Mahape, Navi Mumbai - MPCB",06-11-2025 07:00:00,19.1135051,73.008978,OZONE,8,11,10
India,Maharashtra,Navi Mumbai,"Sanpada, Navi Mumbai - MPCB",06-11-2025 07:00:00,19.0575752,73.0151367,NO2,1,7,5
India,Maharashtra,Navi Mumbai,"Sanpada, Navi Mumbai - MPCB",06-11-2025 07:00:00,19.0575752,73.0151367,OZONE,15,15,15
India,Maharashtra,Navi Mumbai,"Tondare-Taloja, Navi Mumbai - MPCB",06-11-2025 07:00:00,19.0630,73.1209,NO2,NA,NA,NA
India,Maharashtra,Mumbai,"Vasai West, Mumbai - MPCB",06-11-2025 07:00:00,19.383200,72.820400,OZONE,11,22,15
India,Maharashtra,Mumbai,"Vile Parle West, Mumbai - MPCB",06-11-2025 07:00:00,19.10861,72.83622,PM10,60,160,97
India,Maharashtra,Nagpur,"Ambazari, Nagpur - MPCB",06-11-2025 07:00:00,21.121801,79.04952,PM10,32,85,59
India,Maharashtra,Nagpur,"Ambazari, Nagpur - MPCB",06-11-2025 07:00:00,21.121801,79.04952,CO,2,88,13
India,Maharashtra,Nagpur,"Mahal, Nagpur - MPCB",06-11-2025 07:00:00,21.14472,79.107595,PM10,42,111,74
India,Maharashtra,Parbhani,"Masoom Colony, Parbhani - MPCB",06-11-2025 07:00:00,19.265594,76.761463,OZONE,10,10,10
India,Maharashtra,Pimpri-Chinchwad,"Gavalinagar, Pimpri Chinchwad - MPCB",06-11-2025 07:00:00,18.63673,73.82487,PM2.5,NA,NA,NA
India,Maharashtra,Pimpri-Chinchwad,"Gavalinagar, Pimpri Chinchwad - MPCB",06-11-2025 07:00:00,18.63673,73.82487,NO2,NA,NA,NA
India,Maharashtra,Pimpri-Chinchwad,"Park Street Wakad, Pimpri Chinchwad - MPCB",06-11-2025 07:00:00,18.59051,73.77946,PM2.5,1,78,58
India,Maharashtra,Pimpri-Chinchwad,"Park Street Wakad, Pimpri Chinchwad - MPCB",06-11-2025 07:00:00,18.59051,73.77946,PM10,3,89,69
India,Maharashtra,Nanded,"Sneh Nagar, Nanded - MPCB",06-11-2025 07:00:00,19.173852,77.296291,PM2.5,57,141,90
India,Maharashtra,Nashik,"Gangapur Road, Nashik - MPCB",06-11-2025 07:00:00,20.0073285,73.7762427,PM2.5,13,43,30
India,Maharashtra,Nashik,"Gangapur Road, Nashik - MPCB",06-11-2025 07:00:00,20.0073285,73.7762427,PM10,34,54,45
India,Maharashtra,Mumbai,"Navy Nagar-Colaba, Mumbai - IITM",06-11-2025 07:00:00,18.897756,72.813320,PM2.5,27,94,59
India,Maharashtra,Mumbai,"Navy Nagar-Colaba, Mumbai - IITM",06-11-2025 07:00:00,18.897756,72.813320,NO2,15,140,64
India,Maharashtra,Mumbai,"Powai, Mumbai - MPCB",06-11-2025 07:00:00,19.137500,72.915056,PM2.5,NA,NA,NA
India,Maharashtra,Mumbai,"Powai, Mumbai - MPCB",06-11-2025 07:00:00,19.137500,72.915056,NH3,NA,NA,NA
India,Maharashtra,Mumbai,"Powai, Mumbai - MPCB",06-11-2025 07:00:00,19.137500,72.915056,SO2,NA,NA,NA
India,Maharashtra,Mumbai,"Powai, Mumbai - MPCB",06-11-2025 07:00:00,19.137500,72.915056,OZONE,NA,NA,NA
India,Maharashtra,Mumbai,"Sewri, Mumbai - BMC",06-11-2025 07:00:00,19.000084,72.856730,PM10,NA,NA,NA
India,Maharashtra,Pimpri-Chinchwad,"Thergaon, Pimpri Chinchwad - MPCB",06-11-2025 07:00:00,18.616318,73.765797,PM2.5,67,106,82
India,Odisha,Tensa,"Barsua Iron Ore Mines, Tensa - OSPCB",06-11-2025 07:00:00,21.869985,85.167016,NO2,NA,NA,NA
India,Odisha,Tensa,"Barsua Iron Ore Mines, Tensa - OSPCB",06-11-2025 07:00:00,21.869985,85.167016,OZONE,10,48,23
India,Puducherry,Puducherry,"Jawahar Nagar, Puducherry - PPCC",06-11-2025 07:00:00,11.9309,79.8027,PM2.5,17,134,71
India,Puducherry,Puducherry,"Jawahar Nagar, Puducherry - PPCC",06-11-2025 07:00:00,11.9309,79.8027,OZONE,10,68,25
India,Punjab,Amritsar,"Golden Temple, Amritsar - PPCB",06-11-2025 07:00:00,31.620000,74.876512,NH3,5,11,8
India,Punjab,Amritsar,"Golden Temple, Amritsar - PPCB",06-11-2025 07:00:00,31.620000,74.876512,CO,20,34,28
India,Punjab,Bathinda,"Hardev Nagar, Bathinda - PPCB",06-11-2025 07:00:00,30.233011,74.907758,CO,76,80,78
India,Maharashtra,Sangli,"Vijay Nagar, Sangli - MPCB",06-11-2025 07:00:00, 16.5038,74.3623,CO,28,36,28
India,Maharashtra,Solapur,"Dnyaneshwar Nagar, Solapur - MPCB",06-11-2025 07:00:00,17.6336264,75.9132495,PM2.5,30,73,50
India,Maharashtra,Solapur,"Dnyaneshwar Nagar, Solapur - MPCB",06-11-2025 07:00:00,17.6336264,75.9132495,SO2,1,7,3
India,Maharashtra,Solapur,"Dnyaneshwar Nagar, Solapur - MPCB",06-11-2025 07:00:00,17.6336264,75.9132495,OZONE,10,43,18
India,Maharashtra,Solapur,"Ratandeep Housing Society, Solapur - MPCB",06-11-2025 07:00:00,17.65439,75.90649,PM2.5,36,69,45
India,Maharashtra,Thane,"Kasarvadavali, Thane - MPCB",06-11-2025 07:00:00,19.26777,72.97182,NO2,7,98,31
India,Maharashtra,Thane,"Kasarvadavali, Thane - MPCB",06-11-2025 07:00:00,19.26777,72.97182,CO,16,34,22
India,Maharashtra,Thane,"Upvan Fort, Thane - MPCB",06-11-2025 07:00:00,19.222279,72.957979,PM2.5,12,62,36
India,Maharashtra,Thane,"Upvan Fort, Thane - MPCB",06-11-2025 07:00:00,19.222279,72.957979,NO2,3,21,11
India,Maharashtra,Ulhasnagar,"Sidhi Vinayak Nagar, Ulhasnagar - MPCB",06-11-2025 07:00:00,19.235581,73.159121,PM2.5,54,98,71
India,Maharashtra,Ulhasnagar,"Sidhi Vinayak Nagar, Ulhasnagar - MPCB",06-11-2025 07:00:00,19.235581,73.159121,PM10,75,126,98
India,Maharashtra,Ulhasnagar,"Sidhi Vinayak Nagar, Ulhasnagar - MPCB",06-11-2025 07:00:00,19.235581,73.159121,NO2,8,23,17
India,Maharashtra,Ulhasnagar,"Sidhi Vinayak Nagar, Ulhasnagar - MPCB",06-11-2025 07:00:00,19.235581,73.159121,OZONE,9,60,11
India,Maharashtra,Virar,"Bolinj, Virar - MPCB",06-11-2025 07:00:00,19.4458210,72.7988231,PM2.5,19,60,38
India,Maharashtra,Virar,"Bolinj, Virar - MPCB",06-11-2025 07:00:00,19.4458210,72.7988231,NH3,1,3,2
India,Odisha,Barbil,"Forest Office, Barbil - OSPCB",06-11-2025 07:00:00,22.1166054,85.3945546,NH3,3,4,3
India,Odisha,Bhubaneswar,"Lingraj Mandir, Bhubaneswar - OSPCB",06-11-2025 07:00:00,20.240790,85.836784,NO2,23,164,56
India,Odisha,Bhubaneswar,"Lingraj Mandir, Bhubaneswar - OSPCB",06-11-2025 07:00:00,20.240790,85.836784,OZONE,8,264,40
India,Odisha,Bhubaneswar,"Patia, Bhubaneswar - OSPCB",06-11-2025 07:00:00,20.34652,85.81630,PM10,103,320,148
India,Odisha,Bhubaneswar,"Patia, Bhubaneswar - OSPCB",06-11-2025 07:00:00,20.34652,85.81630,NO2,11,64,26
India,Odisha,Bileipada,"Tata Township, Bileipada - OSPCB",06-11-2025 07:00:00,22.06156703,85.47409613,PM10,NA,NA,NA
India,Odisha,Bileipada,"Tata Township, Bileipada - OSPCB",06-11-2025 07:00:00,22.06156703,85.47409613,NO2,NA,NA,NA
India,Meghalaya,Shillong,"Lumpyngngad, Shillong - Meghalaya PCB",06-11-2025 07:00:00,25.5586,91.8985,PM10,NA,NA,NA
India,Nagaland,Kohima,"PWD Junction, Kohima - NPCB",06-11-2025 07:00:00,25.6635413,94.0989878,CO,3,10,4
India,Odisha,Angul,"Hakimapada, Angul - OSPCB",06-11-2025 07:00:00,20.832874,85.104082,PM10,113,215,136
India,Odisha,Angul,"Hakimapada, Angul - OSPCB",06-11-2025 07:00:00,20.832874,85.104082,NO2,6,16,12
India,Odisha,Balasore,"Kalidaspur, Balasore - OSPCB",06-11-2025 07:00:00,21.51161,86.89088,PM2.5,90,290,175
India,Maharashtra,Pune,"Hadapsar, Pune - IITM",06-11-2025 07:00:00,18.501793,73.927532,PM10,60,122,96
India,Maharashtra,Pune,"Katraj Dairy, Pune - MPCB",06-11-2025 07:00:00,18.454450,73.854155,PM10,35,72,57
India,Maharashtra,Pune,"Katraj Dairy, Pune - MPCB",06-11-2025 07:00:00,18.454450,73.854155,NO2,2,28,15
India,Maharashtra,Pune,"Revenue Colony-Shivajinagar, Pune - IITM",06-11-2025 07:00:00,18.530085,73.849598,PM2.5,36,99,62
India,Maharashtra,Pune,"Savitribai Phule Pune University, Pune - MPCB",06-11-2025 07:00:00,18.547056,73.826908,PM2.5,48,105,73
India,Maharashtra,Pune,"Savitribai Phule Pune University, Pune - MPCB",06-11-2025 07:00:00,18.547056,73.826908,CO,16,30,20
India,Punjab,Khanna,"Kalal Majra, Khanna - PPCB",06-11-2025 07:00:00,30.736056 ,76.209694,NO2,26,30,28
India,Punjab,Khanna,"Kalal Majra, Khanna - PPCB",06-11-2025 07:00:00,30.736056 ,76.209694,NH3,7,7,7
India,Punjab,Ludhiana,"Punjab Agricultural University, Ludhiana - PPCB",06-11-2025 07:00:00,30.9028,75.8086,PM2.5,116,210,155
India,Odisha,Brajrajnagar,"GM Office, Brajrajnagar - OSPCB",06-11-2025 07:00:00,21.8004996,83.8396977,PM2.5,52,174,108
India,Odisha,Brajrajnagar,"GM Office, Brajrajnagar - OSPCB",06-11-2025 07:00:00,21.8004996,83.8396977,NO2,4,46,24
India,Odisha,Cuttack,"CDA Area, Cuttack - OSPCB",06-11-2025 07:00:00,20.48891     ,85.84768     ,NH3,3,4,4
India,Odisha,Rourkela,"Fertilizer Township, Rourkela - OSPCB",06-11-2025 07:00:00,22.18972222,84.86277778,CO,2,78,12
India,Odisha,Talcher,"Talcher Coalfields,Talcher - OSPCB",06-11-2025 07:00:00,20.9360711,85.1707021,CO,29,74,64
India,Rajasthan,Jaipur,"Police Commissionerate, Jaipur - RSPCB",06-11-2025 07:00:00,26.9164092,75.7994901,PM10,86,175,132
India,Rajasthan,Jaipur,"Police Commissionerate, Jaipur - RSPCB",06-11-2025 07:00:00,26.9164092,75.7994901,NO2,1,32,13
India,Rajasthan,Jaipur,"Police Commissionerate, Jaipur - RSPCB",06-11-2025 07:00:00,26.9164092,75.7994901,CO,57,76,60
India,Rajasthan,Jaipur,"RIICO Sitapura, Jaipur - RSPCB",06-11-2025 07:00:00,26.786682,75.827928,NO2,18,107,45
India,Rajasthan,Jaipur,"RIICO Sitapura, Jaipur - RSPCB",06-11-2025 07:00:00,26.786682,75.827928,OZONE,13,109,56
India,Rajasthan,Jaipur,"Sector-2 Murlipura, Jaipur - RSPCB",06-11-2025 07:00:00,26.960669,75.771817,CO,24,44,38
India,Rajasthan,Jaipur,"Shastri Nagar, Jaipur - RSPCB",06-11-2025 07:00:00,26.9502929,75.730943,PM2.5,55,311,139
India,Rajasthan,Jaipur,"Shastri Nagar, Jaipur - RSPCB",06-11-2025 07:00:00,26.9502929,75.730943,OZONE,15,50,41
India,Punjab,Patiala,"Model Town, Patiala - PPCB",06-11-2025 07:00:00,30.349388,76.366642,NH3,6,7,6
India,Punjab,Rupnagar,"Ratanpura, Rupnagar - Ambuja Cements",06-11-2025 07:00:00,31.0325454,76.5623046,CO,NA,NA,NA
India,Rajasthan,Ajmer,"Civil Lines,  Ajmer - RSPCB",06-11-2025 07:00:00,26.470859,74.646594,CO,10,20,15
India,Rajasthan,Alwar,"Moti Doongri, Alwar - RSPCB",06-11-2025 07:00:00,27.554793,76.611536,NO2,46,73,59
India,Rajasthan,Alwar,"Moti Doongri, Alwar - RSPCB",06-11-2025 07:00:00,27.554793,76.611536,SO2,12,75,38
India,Rajasthan,Banswara,"Rati Talai, Banswara - RSPCB",06-11-2025 07:00:00,23.555190,74.440010,PM10,NA,NA,NA
India,Rajasthan,Bhiwadi,"RIICO Ind. Area III, Bhiwadi - RSPCB",06-11-2025 07:00:00,28.194909,76.862296,CO,22,84,70
India,Rajasthan,Bhiwadi,"Vasundhara Nagar_UIT, Bhiwadi - RSPCB",06-11-2025 07:00:00,28.207266,76.829265,NH3,5,7,6
India,Rajasthan,Bhiwadi,"Vasundhara Nagar_UIT, Bhiwadi - RSPCB",06-11-2025 07:00:00,28.207266,76.829265,SO2,8,36,13
India,Rajasthan,Bikaner,"MM Ground, Bikaner - RSPCB",06-11-2025 07:00:00,28.018792,73.292658,PM10,152,272,198
India,Rajasthan,Bikaner,"MM Ground, Bikaner - RSPCB",06-11-2025 07:00:00,28.018792,73.292658,SO2,1,8,4
India,Rajasthan,Bundi,"New Colony, Bundi - RSPCB",06-11-2025 07:00:00,25.435774,75.644272,PM2.5,33,95,53
India,Rajasthan,Bundi,"New Colony, Bundi - RSPCB",06-11-2025 07:00:00,25.435774,75.644272,NH3,3,5,4
India,Rajasthan,Dungarpur,"Bhoiwada, Dungarpur - RSPCB",06-11-2025 07:00:00,23.837789,73.714926,PM2.5,27,97,51
India,Rajasthan,Dungarpur,"Bhoiwada, Dungarpur - RSPCB",06-11-2025 07:00:00,23.837789,73.714926,NO2,4,40,14
India,Rajasthan,Dungarpur,"Bhoiwada, Dungarpur - RSPCB",06-11-2025 07:00:00,23.837789,73.714926,SO2,3,5,4
India,Rajasthan,Dungarpur,"Bhoiwada, Dungarpur - RSPCB",06-11-2025 07:00:00,23.837789,73.714926,CO,2,56,38
India,Rajasthan,Hanumangarh,"Housing Board, Hanumangarh - RSPCB",06-11-2025 07:00:00,29.610750,74.283608,PM10,69,470,189
India,Rajasthan,Hanumangarh,"Housing Board, Hanumangarh - RSPCB",06-11-2025 07:00:00,29.610750,74.283608,NO2,14,53,24
India,Rajasthan,Jaipur,"Adarsh Nagar, Jaipur - RSPCB",06-11-2025 07:00:00,26.902909,75.836858,CO,30,62,50
India,Rajasthan,Baran,"Bamboliya, Baran - RSPCB",06-11-2025 07:00:00,25.106006,76.469948,PM10,64,124,91
India,Rajasthan,Baran,"Bamboliya, Baran - RSPCB",06-11-2025 07:00:00,25.106006,76.469948,CO,12,26,19
India,Rajasthan,Barmer,"Railway Colony, Barmer - RSPCB",06-11-2025 07:00:00,25.747299,71.393989,PM2.5,28,500,139
India,Rajasthan,Bharatpur,"Krishna Nagar, Bharatpur - RSPCB",06-11-2025 07:00:00,27.215415,77.50873,NH3,2,10,7
India,Rajasthan,Bhilwara,"Pratap Nagar, Bhilwara - RSPCB",06-11-2025 07:00:00,25.339605,74.618883,NO2,8,66,28
India,Rajasthan,Jodhpur,"Collectorate, Jodhpur - RSPCB",06-11-2025 07:00:00,26.268249,73.0193853,NH3,4,29,10
India,Rajasthan,Jodhpur,"Digari Kalan, Jodhpur - RSPCB",06-11-2025 07:00:00,26.295810,73.082283,NO2,10,92,36
India,Rajasthan,Jodhpur,"Digari Kalan, Jodhpur - RSPCB",06-11-2025 07:00:00,26.295810,73.082283,SO2,1,3,2
India,Rajasthan,Jodhpur,"Jhalamand, Jodhpur - RSPCB",06-11-2025 07:00:00,26.215415,73.070156,SO2,1,4,3
India,Rajasthan,Jodhpur,"Mandor, Jodhpur - RSPCB",06-11-2025 07:00:00,26.358805,73.047444,NO2,6,49,14
India,Rajasthan,Chittorgarh,"Shastri Nagar, Chittorgarh - RSPCB",06-11-2025 07:00:00,24.892047,74.623527,PM2.5,10,123,64
India,Rajasthan,Churu,"Subash Chowk, Churu - RSPCB",06-11-2025 07:00:00,28.296139,74.961696,PM10,119,270,168
India,Rajasthan,Churu,"Subash Chowk, Churu - RSPCB",06-11-2025 07:00:00,28.296139,74.961696,NH3,5,9,6
India,Rajasthan,Dausa,"Khatikan Mohalla, Dausa - RSPCB",06-11-2025 07:00:00,26.895552,76.334753,NO2,19,117,48
India,Rajasthan,Jaisalmer,"Sadar Bazar, Jaisalmer - RSPCB",06-11-2025 07:00:00,26.912329,70.909168,SO2,3,7,4
India,Rajasthan,Jalore,"Mudtra Sili, Jalore - RSPCB",06-11-2025 07:00:00,25.344694,72.626208,PM10,105,481,198
India,Rajasthan,Jalore,"Mudtra Sili, Jalore - RSPCB",06-11-2025 07:00:00,25.344694,72.626208,OZONE,2,85,17
India,Rajasthan,Jhalawar,"Rajlaxmi Nagar, Jhalawar - RSPCB",06-11-2025 07:00:00,24.588397,76.172782,PM10,61,119,97
India,Rajasthan,Kota,"Nayapura, Kota - RSPCB",06-11-2025 07:00:00,25.196024,75.855668,PM2.5,22,103,47
India,Rajasthan,Kota,"Nayapura, Kota - RSPCB",06-11-2025 07:00:00,25.196024,75.855668,PM10,75,199,109
India,Rajasthan,Kota,"Shrinath Puram, Kota - RSPCB",06-11-2025 07:00:00,25.14389,75.821256,PM10,62,122,86
India,Rajasthan,Kota,"Shrinath Puram, Kota - RSPCB",06-11-2025 07:00:00,25.14389,75.821256,SO2,5,13,8
India,Rajasthan,Nagaur,"Karni Colony, Nagaur - RSPCB",06-11-2025 07:00:00,27.213494,73.734444,PM2.5,50,153,86
India,Rajasthan,Nagaur,"Karni Colony, Nagaur - RSPCB",06-11-2025 07:00:00,27.213494,73.734444,NO2,9,39,18
India,Rajasthan,Nagaur,"Karni Colony, Nagaur - RSPCB",06-11-2025 07:00:00,27.213494,73.734444,OZONE,23,75,55
India,Rajasthan,Pali,"Indira Colony Vistar, Pali - RSPCB",06-11-2025 07:00:00,25.771061, 73.340227,PM2.5,33,466,145
India,Rajasthan,Pali,"Indira Colony Vistar, Pali - RSPCB",06-11-2025 07:00:00,25.771061, 73.340227,NO2,23,51,30
India,Rajasthan,Pali,"Indira Colony Vistar, Pali - RSPCB",06-11-2025 07:00:00,25.771061, 73.340227,SO2,6,11,7
India,Rajasthan,Pratapgarh,"Pragati Nagar, Pratapgarh - RSPCB",06-11-2025 07:00:00,24.041198,74.780702,NO2,24,51,34
India,Rajasthan,Pratapgarh,"Pragati Nagar, Pratapgarh - RSPCB",06-11-2025 07:00:00,24.041198,74.780702,SO2,2,6,4
India,Rajasthan,Pratapgarh,"Pragati Nagar, Pratapgarh - RSPCB",06-11-2025 07:00:00,24.041198,74.780702,CO,8,20,12
India,TamilNadu,Chennai,"Arumbakkam, Chennai - TNPCB",06-11-2025 07:00:00,13.0664,80.2112 ,PM2.5,31,99,63
India,TamilNadu,Chennai,"Arumbakkam, Chennai - TNPCB",06-11-2025 07:00:00,13.0664,80.2112 ,NH3,2,4,3
India,TamilNadu,Chennai,"Arumbakkam, Chennai - TNPCB",06-11-2025 07:00:00,13.0664,80.2112 ,SO2,1,5,3
India,TamilNadu,Chennai,"Gandhi Nagar_Ennore, Chennai - TNPCB",06-11-2025 07:00:00,13.218341,80.32027,PM10,63,84,72
India,TamilNadu,Chennai,"Gandhi Nagar_Ennore, Chennai - TNPCB",06-11-2025 07:00:00,13.218341,80.32027,NH3,2,2,2
India,TamilNadu,Chennai,"Gandhi Nagar_Ennore, Chennai - TNPCB",06-11-2025 07:00:00,13.218341,80.32027,SO2,22,22,22
India,TamilNadu,Chennai,"Kodungaiyur, Chennai - TNPCB",06-11-2025 07:00:00,13.1278,80.2642,PM2.5,28,107,66
India,TamilNadu,Chennai,"Kodungaiyur, Chennai - TNPCB",06-11-2025 07:00:00,13.1278,80.2642,PM10,31,130,78
India,TamilNadu,Chennai,"Kodungaiyur, Chennai - TNPCB",06-11-2025 07:00:00,13.1278,80.2642,CO,30,59,37
India,TamilNadu,Hosur,"SIPCOT Phase-1, Hosur - TNPCB",06-11-2025 07:00:00,12.746998,77.813811,SO2,28,46,40
India,TamilNadu,Kanchipuram,"Kilambi, Kanchipuram - TNPCB",06-11-2025 07:00:00,12.864618,79.659968,NO2,1,16,6
India,TamilNadu,Kanchipuram,"Kilambi, Kanchipuram - TNPCB",06-11-2025 07:00:00,12.864618,79.659968,NH3,4,4,4
India,TamilNadu,Karur,"Kamadenu Nagar, Karur - TNPCB",06-11-2025 07:00:00,10.967820,78.080882,NH3,3,3,3
India,TamilNadu,Madurai,"Uchapatti, Madurai - TNPCB",06-11-2025 07:00:00,9.865935,78.022669,NO2,14,15,15
India,TamilNadu,Chennai,"Royapuram, Chennai - TNPCB",06-11-2025 07:00:00,13.1036,80.2909,NH3,3,5,4
India,TamilNadu,Chennai,"Velachery Res. Area, Chennai - CPCB",06-11-2025 07:00:00,13.0052189,80.2398125,PM2.5,21,52,36
India,TamilNadu,Chennai,"Velachery Res. Area, Chennai - CPCB",06-11-2025 07:00:00,13.0052189,80.2398125,PM10,81,99,91
India,TamilNadu,Chennai,"Velachery Res. Area, Chennai - CPCB",06-11-2025 07:00:00,13.0052189,80.2398125,CO,38,52,41
India,TamilNadu,Coimbatore,"SIDCO Kurichi, Coimbatore - TNPCB",06-11-2025 07:00:00,10.942451,76.978996,SO2,22,23,22
India,Rajasthan,Tonk,"Shastri Nagar, Tonk - RSPCB",06-11-2025 07:00:00,26.159933,75.780517,CO,20,64,24
India,Rajasthan,Udaipur,"Ashok Nagar, Udaipur - RSPCB",06-11-2025 07:00:00,24.5886166,73.6321397,NH3,3,10,6
India,Sikkim,Gangtok,"Zero Point GICI, Gangtok - SSPCB",06-11-2025 07:00:00,27.338530,88.614099,PM10,7,23,12
India,Sikkim,Gangtok,"Zero Point GICI, Gangtok - SSPCB",06-11-2025 07:00:00,27.338530,88.614099,OZONE,51,76,55
India,TamilNadu,Cuddalore,"Kudikadu, Cuddalore - TNPCB",06-11-2025 07:00:00,11.6829898,79.7532099,PM2.5,24,179,85
India,TamilNadu,Dindigul,"Mendonsa Colony, Dindigul - TNPCB",06-11-2025 07:00:00,10.358535,77.984321,PM2.5,NA,NA,NA
India,TamilNadu,Dindigul,"Mendonsa Colony, Dindigul - TNPCB",06-11-2025 07:00:00,10.358535,77.984321,NO2,NA,NA,NA
India,TamilNadu,Dindigul,"Mendonsa Colony, Dindigul - TNPCB",06-11-2025 07:00:00,10.358535,77.984321,NH3,NA,NA,NA
India,TamilNadu,Hosur,"SIPCOT Phase-1, Hosur - TNPCB",06-11-2025 07:00:00,12.746998,77.813811,PM10,34,83,53
India,Rajasthan,Sawai Madhopur,"Sahu Nagar, Sawai Madhopur - RSPCB",06-11-2025 07:00:00,26.031443,76.359327,NO2,10,36,15
India,Rajasthan,Sawai Madhopur,"Sahu Nagar, Sawai Madhopur - RSPCB",06-11-2025 07:00:00,26.031443,76.359327,NH3,5,7,6
India,Rajasthan,Sikar,"Radhakishan Pura, Sikar - RSPCB",06-11-2025 07:00:00,27.608912,75.153302,NO2,15,62,27
India,Rajasthan,Sri Ganganagar,"Old City, Sri Ganganagar - RSPCB",06-11-2025 07:00:00,29.931624,73.864511,SO2,1,9,3
India,TamilNadu,Chennai,"Manali Village, Chennai - TNPCB",06-11-2025 07:00:00,13.1662,80.2584,SO2,4,9,6
India,TamilNadu,Chennai,"Perungudi, Chennai - TNPCB",06-11-2025 07:00:00,12.9533,80.2357,PM10,16,500,98
India,TamilNadu,Chennai,"Royapuram, Chennai - TNPCB",06-11-2025 07:00:00,13.1036,80.2909,NO2,18,67,39
India,Uttar_Pradesh,Agra,"Rohta, Agra - UPPCB",06-11-2025 07:00:00,27.106972,78.000111,NO2,19,20,20
India,Uttar_Pradesh,Agra,"Sanjay Palace, Agra - UPPCB",06-11-2025 07:00:00,27.19865833,78.00598056,OZONE,7,83,21
India,Uttar_Pradesh,Agra,"Sector-3B Avas Vikas Colony, Agra - UPPCB",06-11-2025 07:00:00,27.19412,77.96237,PM2.5,9,115,49
India,Uttar_Pradesh,Agra,"Sector-3B Avas Vikas Colony, Agra - UPPCB",06-11-2025 07:00:00,27.19412,77.96237,PM10,72,457,134
India,Uttar_Pradesh,Agra,"Shahjahan Garden, Agra - UPPCB",06-11-2025 07:00:00,27.169338,78.03582,PM2.5,6,114,43
India,Uttar_Pradesh,Agra,"Shahjahan Garden, Agra - UPPCB",06-11-2025 07:00:00,27.169338,78.03582,PM10,68,164,116
India,Uttar_Pradesh,Agra,"Shahjahan Garden, Agra - UPPCB",06-11-2025 07:00:00,27.169338,78.03582,CO,10,60,32
India,TamilNadu,Vellore,"Vasanthapuram, Vellore - TNPCB",06-11-2025 07:00:00,12.909494,79.131861,NO2,NA,NA,NA
India,TamilNadu,Vellore,"Vasanthapuram, Vellore - TNPCB",06-11-2025 07:00:00,12.909494,79.131861,SO2,21,21,21
India,TamilNadu,Vellore,"Vasanthapuram, Vellore - TNPCB",06-11-2025 07:00:00,12.909494,79.131861,OZONE,2,57,8
India,TamilNadu,Virudhunagar,"Collectorate Office, Virudhunagar - TNPCB",06-11-2025 07:00:00,9.559382,77.948828,SO2,16,29,19
India,Telangana,Hyderabad,"Bollaram Industrial Area, Hyderabad - TSPCB",06-11-2025 07:00:00,17.540891,78.358528,OZONE,53,62,54
India,Telangana,Hyderabad,"Central University, Hyderabad - TSPCB",06-11-2025 07:00:00,17.460103,78.334361,PM2.5,15,93,42
India,TamilNadu,Salem,"Sona College of Technology, Salem - TNPCB",06-11-2025 07:00:00,11.679111,78.125052,OZONE,7,7,7
India,TamilNadu,Thoothukudi,"Meelavittan, Thoothukudi - TNPCB",06-11-2025 07:00:00,8.816428 ,78.099039,PM10,20,78,49
India,TamilNadu,Tirunelveli,"Municipal Corporation Office, Tirunelveli - TNPCB",06-11-2025 07:00:00,8.728442,77.6962,PM2.5,15,31,25
India,TamilNadu,Tirunelveli,"Municipal Corporation Office, Tirunelveli - TNPCB",06-11-2025 07:00:00,8.728442,77.6962,CO,29,42,29
India,TamilNadu,Tirupur,"Kumaran College, Tirupur - TNPCB",06-11-2025 07:00:00,11.0973603,77.3228673,PM2.5,29,55,40
India,Telangana,Hyderabad,"Somajiguda, Hyderabad - TSPCB",06-11-2025 07:00:00,17.417094,78.457437,PM2.5,54,302,125
India,Telangana,Hyderabad,"Zoo Park, Hyderabad - TSPCB",06-11-2025 07:00:00,17.349694,78.451437,SO2,4,4,4
India,Uttar_Pradesh,Agra,"Manoharpur, Agra - UPPCB",06-11-2025 07:00:00,27.23711,78.01936,PM10,31,139,81
India,Uttar_Pradesh,Agra,"Manoharpur, Agra - UPPCB",06-11-2025 07:00:00,27.23711,78.01936,NH3,2,2,2
India,Uttar_Pradesh,Agra,"Manoharpur, Agra - UPPCB",06-11-2025 07:00:00,27.23711,78.01936,CO,26,31,29
India,Telangana,Hyderabad,"IITH Kandi, Hyderabad - TSPCB",06-11-2025 07:00:00,17.585705,78.126199,NH3,2,3,3
India,Telangana,Hyderabad,"IITH Kandi, Hyderabad - TSPCB",06-11-2025 07:00:00,17.585705,78.126199,CO,19,34,32
India,Telangana,Hyderabad,"Kokapet, Hyderabad - TSPCB",06-11-2025 07:00:00,17.393559,78.339194,PM2.5,38,48,43
India,Telangana,Hyderabad,"Kokapet, Hyderabad - TSPCB",06-11-2025 07:00:00,17.393559,78.339194,SO2,13,18,14
India,Telangana,Hyderabad,"Kompally Municipal Office, Hyderabad - TSPCB",06-11-2025 07:00:00,17.544899,78.486949,PM10,84,102,91
India,Telangana,Hyderabad,"Nacharam_TSIIC IALA, Hyderabad - TSPCB",06-11-2025 07:00:00,17.429398,78.569354,NH3,4,5,4
India,Telangana,Hyderabad,"New Malakpet, Hyderabad - TSPCB",06-11-2025 07:00:00,17.37206,78.50864,NO2,12,14,13
India,Telangana,Hyderabad,"Ramachandrapuram, Hyderabad - TSPCB",06-11-2025 07:00:00,17.528544,78.286195,NO2,10,12,11
India,Telangana,Hyderabad,"Sanathnagar, Hyderabad - TSPCB",06-11-2025 07:00:00,17.4559458,78.4332152,CO,4,17,14
India,TamilNadu,Perundurai,"SIPCOT Industrial Park, Perundurai - TNPCB",06-11-2025 07:00:00,11.258242,77.552761,OZONE,1,14,5
India,TamilNadu,Ramanathapuram,"Chalai Bazaar, Ramanathapuram - TNPCB",06-11-2025 07:00:00,9.36399,78.831977,NO2,14,14,14
India,TamilNadu,Ramanathapuram,"Chalai Bazaar, Ramanathapuram - TNPCB",06-11-2025 07:00:00,9.36399,78.831977,OZONE,3,4,4
India,Telangana,Hyderabad,"IITH Kandi, Hyderabad - TSPCB",06-11-2025 07:00:00,17.585705,78.126199,PM2.5,50,90,69
India,TamilNadu,Ooty,"Bombay Castel, Ooty - TNPCB",06-11-2025 07:00:00,11.4068288,76.7138973,NO2,NA,NA,NA
India,Uttar_Pradesh,Ghaziabad,"Vasundhara, Ghaziabad - UPPCB",06-11-2025 07:00:00,28.6603346,77.3572563,OZONE,3,133,37
India,Uttar_Pradesh,Greater Noida,"Knowledge Park - III, Greater Noida - UPPCB",06-11-2025 07:00:00,28.47272,77.482000,SO2,13,31,21
India,Uttar_Pradesh,Greater Noida,"Knowledge Park - III, Greater Noida - UPPCB",06-11-2025 07:00:00,28.47272,77.482000,CO,36,101,62
India,Uttar_Pradesh,Greater Noida,"Knowledge Park - V, Greater Noida - UPPCB",06-11-2025 07:00:00,28.557054,77.453663,SO2,2,10,7
India,Uttar_Pradesh,Greater Noida,"Knowledge Park - V, Greater Noida - UPPCB",06-11-2025 07:00:00,28.557054,77.453663,OZONE,23,29,25
India,Uttar_Pradesh,Hapur,"Anand Vihar, Hapur - UPPCB",06-11-2025 07:00:00,28.725645,77.749675,NO2,5,41,22
India,Uttar_Pradesh,Hapur,"Anand Vihar, Hapur - UPPCB",06-11-2025 07:00:00,28.725645,77.749675,OZONE,1,18,17
India,Uttar_Pradesh,Jhansi,"Shivaji Nagar, Jhansi - UPPCB",06-11-2025 07:00:00,25.4547,78.6039,PM2.5,21,68,35
India,Uttar_Pradesh,Jhansi,"Shivaji Nagar, Jhansi - UPPCB",06-11-2025 07:00:00,25.4547,78.6039,PM10,34,100,52
India,Uttar_Pradesh,Jhansi,"Shivaji Nagar, Jhansi - UPPCB",06-11-2025 07:00:00,25.4547,78.6039,OZONE,2,6,3
India,Uttar_Pradesh,Kanpur,"NSI Kalyanpur, Kanpur - UPPCB",06-11-2025 07:00:00,26.509954,80.249612,PM10,100,201,141
India,Uttar_Pradesh,Kanpur,"Nehru Nagar, Kanpur - UPPCB",06-11-2025 07:00:00,26.4703136,80.3229863,PM2.5,51,288,122
India,Uttar_Pradesh,Agra,"Shastripuram, Agra - UPPCB",06-11-2025 07:00:00,27.19862,77.92066,SO2,35,62,47
India,Uttar_Pradesh,Agra,"Shastripuram, Agra - UPPCB",06-11-2025 07:00:00,27.19862,77.92066,CO,15,33,25
India,Uttar_Pradesh,Baghpat,"Sardar Patel Inter College, Baghpat - UPPCB",06-11-2025 07:00:00,28.964949,77.278761,PM10,101,279,181
India,Uttar_Pradesh,Baghpat,"Sardar Patel Inter College, Baghpat - UPPCB",06-11-2025 07:00:00,28.964949,77.278761,SO2,37,62,44
India,Uttar_Pradesh,Bareilly,"Civil Lines, Bareilly - UPPCB",06-11-2025 07:00:00,28.359581,79.414455,PM2.5,1,68,31
India,Uttar_Pradesh,Ghaziabad,"Loni, Ghaziabad - UPPCB",06-11-2025 07:00:00,28.757294,77.278792,PM10,103,295,197
India,Uttar_Pradesh,Ghaziabad,"Loni, Ghaziabad - UPPCB",06-11-2025 07:00:00,28.757294,77.278792,NH3,3,11,5
India,Uttar_Pradesh,Ghaziabad,"Sanjay Nagar, Ghaziabad - UPPCB",06-11-2025 07:00:00,28.685382,77.453839,OZONE,11,129,43
India,Uttar_Pradesh,Ghaziabad,"Vasundhara, Ghaziabad - UPPCB",06-11-2025 07:00:00,28.6603346,77.3572563,NO2,10,104,70
India,Uttar_Pradesh,Lucknow,"Kukrail Picnic Spot-1, Lucknow - UPPCB",06-11-2025 07:00:00,26.90723,80.98579,OZONE,10,38,11
India,Uttar_Pradesh,Lucknow,"Lalbagh, Lucknow - CPCB",06-11-2025 07:00:00,26.8458805,80.9365541,CO,8,105,42
India,Uttar_Pradesh,Lucknow,"Talkatora District Industries Center, Lucknow - CPCB",06-11-2025 07:00:00,26.83399722,80.8917361,OZONE,9,53,12
India,Uttar_Pradesh,Bareilly,"Rajendra Nagar, Bareilly - UPPCB",06-11-2025 07:00:00,28.38910936,79.42963708,NO2,9,10,9
India,Uttar_Pradesh,Bulandshahr,"Yamunapuram, Bulandshahr - UPPCB",06-11-2025 07:00:00,28.406963,77.849831,PM2.5,25,319,170
India,Uttar_Pradesh,Firozabad,"Nagla Bhau, Firozabad - UPPCB",06-11-2025 07:00:00,27.168897,78.376960,SO2,NA,NA,NA
India,Uttar_Pradesh,Ghaziabad,"Indirapuram, Ghaziabad - UPPCB",06-11-2025 07:00:00,28.646233,77.358075,NO2,15,80,43
India,Uttar_Pradesh,Ghaziabad,"Indirapuram, Ghaziabad - UPPCB",06-11-2025 07:00:00,28.646233,77.358075,CO,26,81,46
India,Uttar_Pradesh,Meerut,"Ganga Nagar, Meerut - UPPCB",06-11-2025 07:00:00,28.999264,77.7590354,SO2,12,21,16
India,Uttar_Pradesh,Meerut,"Pallavpuram Phase 2, Meerut - UPPCB",06-11-2025 07:00:00,29.063510,77.709723,OZONE,10,60,15
India,Uttar_Pradesh,Khurja,"Kalindi Kunj, Khurja - UPPCB",06-11-2025 07:00:00,28.2348927,77.8683002,NO2,3,4,4
India,Uttar_Pradesh,Khurja,"Kalindi Kunj, Khurja - UPPCB",06-11-2025 07:00:00,28.2348927,77.8683002,OZONE,4,31,8
India,Uttar_Pradesh,Moradabad,"Kashiram Nagar, Moradabad - UPPCB",06-11-2025 07:00:00,28.849399,78.742362,SO2,26,104,70
India,Uttar_Pradesh,Moradabad,"Kashiram Nagar, Moradabad - UPPCB",06-11-2025 07:00:00,28.849399,78.742362,OZONE,23,52,45
India,Uttar_Pradesh,Moradabad,"Transport Nagar, Moradabad - UPPCB",06-11-2025 07:00:00,28.802625,78.753728,PM10,NA,NA,NA
India,Uttar_Pradesh,Moradabad,"Transport Nagar, Moradabad - UPPCB",06-11-2025 07:00:00,28.802625,78.753728,NO2,28,30,29
India,Uttar_Pradesh,Muzaffarnagar,"New Mandi, Muzaffarnagar - UPPCB",06-11-2025 07:00:00,29.4723508,77.7194031,NO2,21,56,31
India,Uttar_Pradesh,Muzaffarnagar,"New Mandi, Muzaffarnagar - UPPCB",06-11-2025 07:00:00,29.4723508,77.7194031,SO2,14,37,22
India,Uttar_Pradesh,Noida,"Sector - 125, Noida - UPPCB",06-11-2025 07:00:00,28.5447608,77.3231257,PM10,99,372,234
India,Uttar_Pradesh,Noida,"Sector - 125, Noida - UPPCB",06-11-2025 07:00:00,28.5447608,77.3231257,SO2,15,20,18
India,Uttar_Pradesh,Noida,"Sector - 125, Noida - UPPCB",06-11-2025 07:00:00,28.5447608,77.3231257,CO,12,60,47
India,Uttar_Pradesh,Varanasi,"Maldahiya, Varanasi - UPPCB",06-11-2025 07:00:00,25.32393,82.99687,SO2,28,29,29
India,Uttar_Pradesh,Vrindavan,"Omex Eternity, Vrindavan - UPPCB",06-11-2025 07:00:00,27.5714090,77.6557570,PM2.5,13,138,69
India,Uttar_Pradesh,Vrindavan,"Omex Eternity, Vrindavan - UPPCB",06-11-2025 07:00:00,27.5714090,77.6557570,PM10,43,174,114
India,Uttar_Pradesh,Vrindavan,"Omex Eternity, Vrindavan - UPPCB",06-11-2025 07:00:00,27.5714090,77.6557570,SO2,9,21,13
India,Uttarakhand,Dehradun,"Doon University, Dehradun - UKPCB",06-11-2025 07:00:00,30.269444,78.044167,PM2.5,80,249,139
India,Uttarakhand,Dehradun,"Doon University, Dehradun - UKPCB",06-11-2025 07:00:00,30.269444,78.044167,PM10,50,113,73
India,Uttarakhand,Dehradun,"Doon University, Dehradun - UKPCB",06-11-2025 07:00:00,30.269444,78.044167,CO,4,28,13
India,Uttarakhand,Kashipur,"Govt. Girls Inter College, Kashipur - UKPCB",06-11-2025 07:00:00,29.2124114,78.9611753,NO2,9,60,18
India,Uttar_Pradesh,Moradabad,"Eco Herbal Park, Moradabad - UPPCB",06-11-2025 07:00:00,28.840739,78.697531,PM10,66,134,92
India,Uttar_Pradesh,Moradabad,"Eco Herbal Park, Moradabad - UPPCB",06-11-2025 07:00:00,28.840739,78.697531,NO2,11,27,18
India,Uttar_Pradesh,Moradabad,"Employment Office, Moradabad - UPPCB",06-11-2025 07:00:00,28.88528,78.73880,NH3,4,4,4
India,Uttar_Pradesh,Moradabad,"Employment Office, Moradabad - UPPCB",06-11-2025 07:00:00,28.88528,78.73880,SO2,18,21,20
India,Uttar_Pradesh,Moradabad,"Jigar Colony, Moradabad - UPPCB",06-11-2025 07:00:00,28.856664,78.772638,PM2.5,53,133,85
India,Uttar_Pradesh,Moradabad,"Jigar Colony, Moradabad - UPPCB",06-11-2025 07:00:00,28.856664,78.772638,SO2,28,101,72
India,Uttar_Pradesh,Moradabad,"Jigar Colony, Moradabad - UPPCB",06-11-2025 07:00:00,28.856664,78.772638,CO,40,42,42
India,West_Bengal,Durgapur,"Mahishkapur Road_B-Zone, Durgapur - WBPCB",06-11-2025 07:00:00,23.567923,87.306843,CO,4,50,35
India,West_Bengal,Durgapur,"Womens College_City Center, Durgapur - WBPCB (Formerly known as Sidhu Kanhu Indoor Stadium)",06-11-2025 07:00:00,23.549395,87.300496,PM2.5,68,152,104
India,West_Bengal,Haldia,"Priyambada Housing Estate, Haldia - WBPCB",06-11-2025 07:00:00,22.06047,88.109737,PM2.5,172,311,251
India,West_Bengal,Haldia,"Priyambada Housing Estate, Haldia - WBPCB",06-11-2025 07:00:00,22.06047,88.109737,PM10,107,213,146
India,Uttar_Pradesh,Noida,"Sector-1, Noida - UPPCB",06-11-2025 07:00:00,28.5898,77.3101,OZONE,7,12,8
India,Uttar_Pradesh,Noida,"Sector-116, Noida - UPPCB",06-11-2025 07:00:00,28.569230,77.393848,PM2.5,82,366,223
India,Uttar_Pradesh,Noida,"Sector-116, Noida - UPPCB",06-11-2025 07:00:00,28.569230,77.393848,SO2,12,20,14
India,Uttar_Pradesh,Noida,"Sector-116, Noida - UPPCB",06-11-2025 07:00:00,28.569230,77.393848,CO,14,80,51
India,Uttar_Pradesh,Prayagraj,"Jhunsi, Prayagraj - UPPCB",06-11-2025 07:00:00,25.425602,81.917152,NO2,6,6,6
India,Uttar_Pradesh,Prayagraj,"Jhunsi, Prayagraj - UPPCB",06-11-2025 07:00:00,25.425602,81.917152,OZONE,15,221,16
India,Uttarakhand,Rishikesh,"Shivaji Nagar, Rishikesh - UKPCB",06-11-2025 07:00:00,30.075911,78.2859547,PM2.5,59,130,94
India,West_Bengal,Asansol,"Evelyn Lodge, Asansol - WBPCB",06-11-2025 07:00:00,23.6979360,86.9443950,PM2.5,48,174,108
India,West_Bengal,Asansol,"Evelyn Lodge, Asansol - WBPCB",06-11-2025 07:00:00,23.6979360,86.9443950,CO,13,58,48
India,West_Bengal,Asansol,"Mahabir Colliery, Asansol - WBPCB",06-11-2025 07:00:00,23.6181830,87.1057180,SO2,4,6,4
India,West_Bengal,Asansol,"Mahabir Colliery, Asansol - WBPCB",06-11-2025 07:00:00,23.6181830,87.1057180,OZONE,13,67,14
India,West_Bengal,Asansol,"Trivenidevi Bhalotia College, Asansol - WBPCB",06-11-2025 07:00:00,23.616515,87.119133,CO,8,57,38
India,West_Bengal,Barrackpore,"SVSPA Campus, Barrackpore - WBPCB",06-11-2025 07:00:00,22.7605581,88.3617589,NO2,8,33,25
India,West_Bengal,Barrackpore,"SVSPA Campus, Barrackpore - WBPCB",06-11-2025 07:00:00,22.7605581,88.3617589,SO2,10,31,15
India,West_Bengal,Barrackpore,"SVSPA Campus, Barrackpore - WBPCB",06-11-2025 07:00:00,22.7605581,88.3617589,CO,40,86,59
India,West_Bengal,Howrah,"Padmapukur, Howrah - WBPCB",06-11-2025 07:00:00,22.5687319,88.2797276,PM2.5,NA,NA,NA
India,West_Bengal,Howrah,"Padmapukur, Howrah - WBPCB",06-11-2025 07:00:00,22.5687319,88.2797276,PM10,NA,NA,NA
India,West_Bengal,Howrah,"Padmapukur, Howrah - WBPCB",06-11-2025 07:00:00,22.5687319,88.2797276,NO2,15,52,30
India,West_Bengal,Kolkata,"Ballygunge, Kolkata - WBPCB",06-11-2025 07:00:00,22.5367507,88.3638022,PM2.5,100,293,179
India,West_Bengal,Howrah,"Botanical Garden, Howrah - WBPCB",06-11-2025 07:00:00,22.554954,88.292568,PM2.5,66,131,94
India,West_Bengal,Howrah,"Dasnagar, Howrah - WBPCB",06-11-2025 07:00:00,22.6025571,88.3105664,OZONE,4,162,11
India,West_Bengal,Howrah,"Ghusuri, Howrah - WBPCB",06-11-2025 07:00:00,22.611968,88.347422,NH3,7,15,11
India,West_Bengal,Kolkata,"Fort William, Kolkata - WBPCB",06-11-2025 07:00:00,22.556640,88.342674,NO2,13,21,16
India,West_Bengal,Kolkata,"Fort William, Kolkata - WBPCB",06-11-2025 07:00:00,22.556640,88.342674,CO,25,100,62
India,West_Bengal,Kolkata,"Fort William, Kolkata - WBPCB",06-11-2025 07:00:00,22.556640,88.342674,OZONE,10,71,14
India,West_Bengal,Kolkata,"Jadavpur, Kolkata - WBPCB",06-11-2025 07:00:00,22.49929,88.36917,PM10,156,255,192
India,West_Bengal,Kolkata,"Rabindra Bharati University, Kolkata - WBPCB",06-11-2025 07:00:00,22.627847,88.380669,PM10,105,196,141
India,West_Bengal,Kolkata,"Rabindra Bharati University, Kolkata - WBPCB",06-11-2025 07:00:00,22.627847,88.380669,OZONE,9,95,16
India,West_Bengal,Kolkata,"Rabindra Sarobar, Kolkata - WBPCB",06-11-2025 07:00:00,22.51106,88.35142,PM2.5,86,164,125
India,West_Bengal,Kolkata,"Victoria, Kolkata - WBPCB",06-11-2025 07:00:00,22.5448082,88.3403691,SO2,1,18,7
India,West_Bengal,Kolkata,"Victoria, Kolkata - WBPCB",06-11-2025 07:00:00,22.5448082,88.3403691,OZONE,10,45,12
India,Andhra_Pradesh,Amaravati,"Secretariat, Amaravati - APPCB",06-11-2025 07:00:00,16.5150833,80.5181667,CO,18,54,30
India,Andhra_Pradesh,Anantapur,"Gulzarpet, Anantapur - APPCB",06-11-2025 07:00:00,14.675886,77.593027,NO2,13,20,15
India,Andhra_Pradesh,Anantapur,"Gulzarpet, Anantapur - APPCB",06-11-2025 07:00:00,14.675886,77.593027,NH3,5,6,5
India,Andhra_Pradesh,Anantapur,"Gulzarpet, Anantapur - APPCB",06-11-2025 07:00:00,14.675886,77.593027,OZONE,29,45,32
India,Andhra_Pradesh,Chittoor,"Gangineni Cheruvu, Chittoor - APPCB",06-11-2025 07:00:00,13.204880,79.097889,SO2,7,34,16
India,Andhra_Pradesh,Kadapa,"Yerramukkapalli, Kadapa - APPCB",06-11-2025 07:00:00,14.465052,78.824187,NO2,18,24,20
India,Andhra_Pradesh,Kadapa,"Yerramukkapalli, Kadapa - APPCB",06-11-2025 07:00:00,14.465052,78.824187,NH3,3,6,4
India,Andhra_Pradesh,Kadapa,"Yerramukkapalli, Kadapa - APPCB",06-11-2025 07:00:00,14.465052,78.824187,OZONE,8,17,16
India,Andhra_Pradesh,Rajamahendravaram,"Anand Kala Kshetram, Rajamahendravaram - APPCB",06-11-2025 07:00:00,16.9872867,81.7363176,PM10,44,108,65
India,Bihar,Bhagalpur,"Mayaganj, Bhagalpur - BSPCB",06-11-2025 07:00:00,25.265194,87.012947,CO,10,91,45
India,Bihar,Bihar Sharif,"D M Colony, Bihar Sharif - BSPCB",06-11-2025 07:00:00,25.204762,85.514960,CO,8,8,8
India,Bihar,Buxar,"Charitra Van, Buxar - BSPCB",06-11-2025 07:00:00,25.567520,83.966379,NH3,3,3,3
India,Bihar,Buxar,"Charitra Van, Buxar - BSPCB",06-11-2025 07:00:00,25.567520,83.966379,SO2,1,6,3
India,Bihar,Chhapra,"Darshan Nagar, Chhapra - BSPCB",06-11-2025 07:00:00,25.7808257,84.7446768,NH3,5,6,6
India,Bihar,Gaya,"Collectorate, Gaya - BSPCB",06-11-2025 07:00:00,24.7955,84.9994,NO2,9,9,9
India,Bihar,Gaya,"Kareemganj, Gaya - BSPCB",06-11-2025 07:00:00,24.792403,84.992416,PM2.5,82,304,158
India,Bihar,Kishanganj,"SDM Office_Khagra, Kishanganj - BSPCB",06-11-2025 07:00:00,26.0881305,87.93840336,PM10,28,280,102
India,Bihar,Kishanganj,"SDM Office_Khagra, Kishanganj - BSPCB",06-11-2025 07:00:00,26.0881305,87.93840336,CO,12,14,13
India,Bihar,Manguraha,"Forest Rest House, Manguraha - BSPCB",06-11-2025 07:00:00,27.308328,84.531742,PM2.5,NA,NA,NA
India,Bihar,Manguraha,"Forest Rest House, Manguraha - BSPCB",06-11-2025 07:00:00,27.308328,84.531742,NH3,NA,NA,NA
India,Bihar,Motihari,"Gandak Colony, Motihari - BSPCB",06-11-2025 07:00:00,26.63086,84.90051,NH3,3,3,3
India,Bihar,Munger,"Town Hall, Munger - BSPCB",06-11-2025 07:00:00,25.376776,86.471523,NO2,4,5,5
India,Bihar,Munger,"Town Hall, Munger - BSPCB",06-11-2025 07:00:00,25.376776,86.471523,SO2,15,20,17
India,Bihar,Munger,"Town Hall, Munger - BSPCB",06-11-2025 07:00:00,25.376776,86.471523,CO,7,32,24
India,Bihar,Muzaffarpur,"Buddha Colony, Muzaffarpur - BSPCB",06-11-2025 07:00:00,26.11442,85.39813,PM10,44,113,82
India,Bihar,Muzaffarpur,"Buddha Colony, Muzaffarpur - BSPCB",06-11-2025 07:00:00,26.11442,85.39813,CO,26,78,51
India,Bihar,Muzaffarpur,"MIT-Daudpur Kothi, Muzaffarpur - BSPCB",06-11-2025 07:00:00,26.1403345,85.3650192,OZONE,13,50,33
India,Bihar,Muzaffarpur,"Muzaffarpur Collectorate, Muzaffarpur - BSPCB",06-11-2025 07:00:00,26.1209,85.3647,PM2.5,82,107,87
India,Andhra_Pradesh,Tirumala,"Toll Gate, Tirumala - APPCB",06-11-2025 07:00:00,13.67,79.35,OZONE,13,28,18
India,Andhra_Pradesh,Tirupati,"Vaikuntapuram, Tirupati - APPCB",06-11-2025 07:00:00,13.615387,79.409230,PM10,NA,NA,NA
India,Andhra_Pradesh,Tirupati,"Vaikuntapuram, Tirupati - APPCB",06-11-2025 07:00:00,13.615387,79.409230,CO,NA,NA,NA
India,Andhra_Pradesh,Vijayawada,"HB Colony, Vijayawada - APPCB",06-11-2025 07:00:00,16.536107,80.594233,NH3,3,5,4
India,Andhra_Pradesh,Vijayawada,"Rajiv Gandhi Park, Vijayawada - APPCB",06-11-2025 07:00:00,16.509717,80.612222,SO2,15,20,18
India,Andhra_Pradesh,Vijayawada,"Rajiv Gandhi Park, Vijayawada - APPCB",06-11-2025 07:00:00,16.509717,80.612222,CO,36,39,37
India,Assam,Guwahati,"LGBI Airport, Guwahati - PCBA",06-11-2025 07:00:00,26.10887,91.589544,PM2.5,29,82,67
India,Assam,Guwahati,"LGBI Airport, Guwahati - PCBA",06-11-2025 07:00:00,26.10887,91.589544,NO2,12,68,17
India,Assam,Guwahati,"Railway Colony, Guwahati - PCBA",06-11-2025 07:00:00,26.181742,91.78063,SO2,30,31,30
India,Assam,Nalbari,"Bata Chowk, Nalbari - PCBA",06-11-2025 07:00:00,26.446912,91.439057,CO,50,112,105
India,Assam,Nalbari,"Bata Chowk, Nalbari - PCBA",06-11-2025 07:00:00,26.446912,91.439057,OZONE,10,257,19
India,Andhra_Pradesh,Vijayawada,"Rajiv Nagar, Vijayawada - APPCB",06-11-2025 07:00:00,16.554731,80.649110,PM2.5,NA,NA,NA
India,Andhra_Pradesh,Visakhapatnam,"GVM Corporation, Visakhapatnam - APPCB",06-11-2025 07:00:00,17.72,83.3,PM2.5,73,146,101
India,Andhra_Pradesh,Visakhapatnam,"GVM Corporation, Visakhapatnam - APPCB",06-11-2025 07:00:00,17.72,83.3,NO2,11,94,52
India,Andhra_Pradesh,Visakhapatnam,"GVM Corporation, Visakhapatnam - APPCB",06-11-2025 07:00:00,17.72,83.3,NH3,3,4,3
India,Andhra_Pradesh,Visakhapatnam,"GVM Corporation, Visakhapatnam - APPCB",06-11-2025 07:00:00,17.72,83.3,CO,6,44,16
India,Bihar,Begusarai,"Lohiyanagar, Begusarai - BSPCB",06-11-2025 07:00:00,25.42742023,86.13886079,OZONE,3,58,54
India,Bihar,Bettiah,"Kamalnath Nagar, Bettiah - BSPCB",06-11-2025 07:00:00,26.80365,84.51954,SO2,10,21,15
India,Bihar,Bhagalpur,"DM Office_Kachari Chowk, Bhagalpur - BSPCB",06-11-2025 07:00:00,25.251013,86.989001,NH3,3,10,6
India,Bihar,Bhagalpur,"DM Office_Kachari Chowk, Bhagalpur - BSPCB",06-11-2025 07:00:00,25.251013,86.989001,OZONE,12,34,16
India,Bihar,Gaya,"Kareemganj, Gaya - BSPCB",06-11-2025 07:00:00,24.792403,84.992416,NH3,5,43,7
India,Bihar,Gaya,"SFTI Kusdihra, Gaya - BSPCB",06-11-2025 07:00:00,24.762518,84.982348,PM10,50,95,72
India,Bihar,Hajipur,"Industrial Area, Hajipur - BSPCB",06-11-2025 07:00:00,25.697189,85.245900,NO2,16,26,21
India,Bihar,Hajipur,"Industrial Area, Hajipur - BSPCB",06-11-2025 07:00:00,25.697189,85.245900,CO,25,54,38
India,Bihar,Araria,"Kharahiya Basti, Araria - BSPCB",06-11-2025 07:00:00,26.146529,87.454184,NO2,2,70,24
India,Bihar,Arrah,"New DM Office, Arrah - BSPCB",06-11-2025 07:00:00,25.5626095,84.663264,PM2.5,31,50,38
India,Bihar,Arrah,"New DM Office, Arrah - BSPCB",06-11-2025 07:00:00,25.5626095,84.663264,NO2,6,9,7
India,Chandigarh,Chandigarh,"Sector-25, Chandigarh - CPCC",06-11-2025 07:00:00,30.751462,76.762879,PM2.5,57,252,120
India,Chandigarh,Chandigarh,"Sector-25, Chandigarh - CPCC",06-11-2025 07:00:00,30.751462,76.762879,PM10,59,139,98
India,Chandigarh,Chandigarh,"Sector-25, Chandigarh - CPCC",06-11-2025 07:00:00,30.751462,76.762879,NO2,24,61,36
India,Chandigarh,Chandigarh,"Sector-25, Chandigarh - CPCC",06-11-2025 07:00:00,30.751462,76.762879,NH3,10,18,12
India,Chandigarh,Chandigarh,"Sector-25, Chandigarh - CPCC",06-11-2025 07:00:00,30.751462,76.762879,OZONE,4,39,9
India,Chhattisgarh,Bhilai,"32Bungalows, Bhilai - CECB",06-11-2025 07:00:00,21.194815,81.314770,OZONE,2,57,9
India,Chhattisgarh,Bhilai,"Hathkhoj, Bhilai - CECB",06-11-2025 07:00:00,21.224231,81.408350,NH3,3,5,4
India,Chhattisgarh,Bilaspur,"Mangala, Bilaspur - NTPC",06-11-2025 07:00:00,22.08815,82.13737,NO2,20,67,25
India,Delhi,Delhi,"Aya Nagar, Delhi - IMD",06-11-2025 07:00:00,28.4706914,77.1099364,CO,1,53,39
India,Delhi,Delhi,"Bawana, Delhi - DPCC",06-11-2025 07:00:00,28.776200,77.051074,NO2,7,51,24
India,Delhi,Delhi,"Burari Crossing, Delhi - IMD",06-11-2025 07:00:00,28.7256504,77.2011573,NO2,39,112,68
India,Delhi,Delhi,"CRRI Mathura Road, Delhi - IMD",06-11-2025 07:00:00,28.5512005,77.2735737,NO2,41,87,57
India,Delhi,Delhi,"CRRI Mathura Road, Delhi - IMD",06-11-2025 07:00:00,28.5512005,77.2735737,OZONE,11,97,17
India,Delhi,Delhi,"Chandni Chowk, Delhi - IITM",06-11-2025 07:00:00,28.656756,77.227234,PM2.5,155,500,294
India,Delhi,Delhi,"Chandni Chowk, Delhi - IITM",06-11-2025 07:00:00,28.656756,77.227234,NH3,5,9,7
India,Chhattisgarh,Bilaspur,"Mangala, Bilaspur - NTPC",06-11-2025 07:00:00,22.08815,82.13737,CO,31,45,39
India,Chhattisgarh,Chhal,"Nawapara SECL Colony, Chhal - CECB",06-11-2025 07:00:00,22.118125,83.140608,PM2.5,36,226,91
India,Chhattisgarh,Chhal,"Nawapara SECL Colony, Chhal - CECB",06-11-2025 07:00:00,22.118125,83.140608,PM10,34,130,82
India,Chhattisgarh,Chhal,"Nawapara SECL Colony, Chhal - CECB",06-11-2025 07:00:00,22.118125,83.140608,OZONE,5,154,9
India,Chhattisgarh,Korba,"Rampur, Korba - CECB",06-11-2025 07:00:00,22.368195,82.746431,CO,14,21,19
India,Chhattisgarh,Korba,"Urja Nagar, Korba - CECB",06-11-2025 07:00:00,22.348441,82.549611,NO2,26,39,31
India,Chhattisgarh,Korba,"Urja Nagar, Korba - CECB",06-11-2025 07:00:00,22.348441,82.549611,SO2,9,20,12
India,Chhattisgarh,Milupara,"Govt. Higher Secondary School, Milupara - CECB",06-11-2025 07:00:00,22.1910172,83.5197009,NO2,14,62,27
India,Chhattisgarh,Milupara,"Govt. Higher Secondary School, Milupara - CECB",06-11-2025 07:00:00,22.1910172,83.5197009,CO,9,28,16
India,Chhattisgarh,Raipur,"Bhatagaon New ISBT, Raipur - CECB",06-11-2025 07:00:00,21.219665,81.630094,NO2,1,46,13
India,Chhattisgarh,Raipur,"Krishak Nagar, Raipur - CECB",06-11-2025 07:00:00,21.237755,81.705301,CO,NA,NA,NA
India,Chhattisgarh,Raipur,"Siltara Phase-II, Raipur - CECB",06-11-2025 07:00:00,21.371751,81.664929,PM2.5,NA,NA,NA
India,Bihar,Samastipur,"DM Office_Kasipur, Samastipur - BSPCB",06-11-2025 07:00:00,25.859655,85.77944,PM10,NA,NA,NA
India,Bihar,Samastipur,"DM Office_Kasipur, Samastipur - BSPCB",06-11-2025 07:00:00,25.859655,85.77944,SO2,NA,NA,NA
India,Bihar,Sasaram,"Dada Peer, Sasaram - BSPCB",06-11-2025 07:00:00,24.952822,84.002396,PM2.5,7,64,41
India,Bihar,Sasaram,"Dada Peer, Sasaram - BSPCB",06-11-2025 07:00:00,24.952822,84.002396,CO,50,88,52
India,Bihar,Sasaram,"Dada Peer, Sasaram - BSPCB",06-11-2025 07:00:00,24.952822,84.002396,OZONE,16,21,17
India,Delhi,Delhi,"Dr. Karni Singh Shooting Range, Delhi - DPCC",06-11-2025 07:00:00,28.498571,77.264840,NH3,9,13,11
India,Delhi,Delhi,"Dwarka-Sector 8, Delhi - DPCC ",06-11-2025 07:00:00,28.5710274,77.0719006,OZONE,9,162,43
India,Delhi,Delhi,"IHBAS, Dilshad Garden, Delhi - CPCB",06-11-2025 07:00:00,28.6811736,77.3025234,NO2,50,56,53
India,Bihar,Purnia,"Mariam Nagar, Purnia - BSPCB",06-11-2025 07:00:00,25.366336,87.117468,SO2,17,17,17
India,Bihar,Purnia,"Mariam Nagar, Purnia - BSPCB",06-11-2025 07:00:00,25.366336,87.117468,CO,58,60,59
India,Bihar,Rajgir,"Dangi Tola, Rajgir - BSPCB",06-11-2025 07:00:00,25.03280,85.41948,NH3,6,7,7
India,Delhi,Delhi,"Anand Vihar, Delhi - DPCC",06-11-2025 07:00:00,28.647622,77.3158090,NO2,48,102,76
India,Delhi,Delhi,"Anand Vihar, Delhi - DPCC",06-11-2025 07:00:00,28.647622,77.3158090,NH3,12,20,17
India,Delhi,Delhi,"Ashok Vihar, Delhi - DPCC",06-11-2025 07:00:00,28.695381,77.181665,OZONE,2,101,32
India,Bihar,Patna,"Rajbansi Nagar, Patna - BSPCB",06-11-2025 07:00:00,25.599486,85.113666,NO2,9,176,62
India,Bihar,Patna,"Rajbansi Nagar, Patna - BSPCB",06-11-2025 07:00:00,25.599486,85.113666,NH3,3,7,6
India,Gujarat,Gandhinagar,"IIPHG Lekawada, Gandhinagar - IITM",06-11-2025 07:00:00,23.243639,72.68994,SO2,1,5,3
India,Gujarat,Gandhinagar,"IIPHG Lekawada, Gandhinagar - IITM",06-11-2025 07:00:00,23.243639,72.68994,CO,16,66,48
India,Gujarat,Gandhinagar,"Sector-10, Gandhinagar - GPCB",06-11-2025 07:00:00,23.221714,72.654328,OZONE,8,67,12
India,Gujarat,Surat,"Science Center, Surat - SMC",06-11-2025 07:00:00,21.170046,72.795405,PM2.5,15,210,84
India,Gujarat,Surat,"Science Center, Surat - SMC",06-11-2025 07:00:00,21.170046,72.795405,SO2,29,41,32
India,Gujarat,Vapi,"Phase-1 GIDC, Vapi - GPCB",06-11-2025 07:00:00,20.362421,72.918013,PM2.5,50,300,135
India,Gujarat,Vapi,"Phase-1 GIDC, Vapi - GPCB",06-11-2025 07:00:00,20.362421,72.918013,NH3,5,10,6
India,Gujarat,Vapi,"Phase-1 GIDC, Vapi - GPCB",06-11-2025 07:00:00,20.362421,72.918013,SO2,23,45,29
India,Gujarat,Vatva,"Phase-4 GIDC, Vatva - GPCB",06-11-2025 07:00:00,22.969611,72.643500,NO2,19,20,19
India,Gujarat,Ahmedabad,"Gyaspur, Ahmedabad - IITM",06-11-2025 07:00:00,22.977134,72.553024,CO,10,60,23
India,Gujarat,Ahmedabad,"Maninagar, Ahmedabad - GPCB",06-11-2025 07:00:00,23.002657,72.591912,PM10,72,414,160
India,Gujarat,Ahmedabad,"Raikhad, Ahmedabad - IITM",06-11-2025 07:00:00,23.020509,72.579261,PM2.5,63,339,134
India,Gujarat,Ahmedabad,"Raikhad, Ahmedabad - IITM",06-11-2025 07:00:00,23.020509,72.579261,SO2,10,18,13
India,Gujarat,Ahmedabad,"Raikhad, Ahmedabad - IITM",06-11-2025 07:00:00,23.020509,72.579261,CO,7,84,25
India,Gujarat,Ahmedabad,"Raikhad, Ahmedabad - IITM",06-11-2025 07:00:00,23.020509,72.579261,OZONE,1,62,3
India,Gujarat,Ahmedabad,"Rakhial, Ahmedabad - IITM",06-11-2025 07:00:00,23.016834,72.625775,PM10,76,194,121
India,Gujarat,Ahmedabad,"SAC ISRO Bopal, Ahmedabad - IITM",06-11-2025 07:00:00,23.041137,72.456691,NO2,14,23,20
India,Gujarat,Ahmedabad,"SAC ISRO Bopal, Ahmedabad - IITM",06-11-2025 07:00:00,23.041137,72.456691,NH3,2,3,3
India,Delhi,Delhi,"Pusa, Delhi - IMD",06-11-2025 07:00:00,28.636110,77.173332,OZONE,21,122,41
India,Delhi,Delhi,"R K Puram, Delhi - DPCC",06-11-2025 07:00:00,28.563262,77.186937,NO2,24,120,61
India,Delhi,Delhi,"R K Puram, Delhi - DPCC",06-11-2025 07:00:00,28.563262,77.186937,OZONE,7,163,22
India,Delhi,Delhi,"Rohini, Delhi - DPCC",06-11-2025 07:00:00,28.732528,77.119920,SO2,3,6,4
India,Delhi,Delhi,"Rohini, Delhi - DPCC",06-11-2025 07:00:00,28.732528,77.119920,OZONE,11,153,45
India,Delhi,Delhi,"Shadipur, Delhi - CPCB",06-11-2025 07:00:00,28.6514781,77.1473105,NO2,36,75,60
India,Delhi,Delhi,"Sirifort, Delhi - CPCB",06-11-2025 07:00:00,28.5504249,77.2159377,NO2,54,78,62
India,Delhi,Delhi,"Sirifort, Delhi - CPCB",06-11-2025 07:00:00,28.5504249,77.2159377,NH3,6,12,10
India,Delhi,Delhi,"Sirifort, Delhi - CPCB",06-11-2025 07:00:00,28.5504249,77.2159377,SO2,25,30,29
India,Delhi,Delhi,"Sonia Vihar, Delhi - DPCC",06-11-2025 07:00:00,28.710508,77.249485,SO2,8,16,12
India,Delhi,Delhi,"Sonia Vihar, Delhi - DPCC",06-11-2025 07:00:00,28.710508,77.249485,CO,32,103,94
India,Delhi,Delhi,"Sri Aurobindo Marg, Delhi - DPCC",06-11-2025 07:00:00,28.531346,77.190156,PM2.5,78,455,234
India,Delhi,Delhi,"Sri Aurobindo Marg, Delhi - DPCC",06-11-2025 07:00:00,28.531346,77.190156,PM10,88,382,178
India,Delhi,Delhi,"Sri Aurobindo Marg, Delhi - DPCC",06-11-2025 07:00:00,28.531346,77.190156,NH3,4,6,5
India,Delhi,Delhi,"Sri Aurobindo Marg, Delhi - DPCC",06-11-2025 07:00:00,28.531346,77.190156,SO2,4,11,7
India,Delhi,Delhi,"Sri Aurobindo Marg, Delhi - DPCC",06-11-2025 07:00:00,28.531346,77.190156,CO,37,82,64
India,Delhi,Delhi,"Vivek Vihar, Delhi - DPCC",06-11-2025 07:00:00,28.672342,77.315260,SO2,12,20,17
India,Delhi,Delhi,"Wazirpur, Delhi - DPCC",06-11-2025 07:00:00,28.699793,77.165453,OZONE,21,96,45
India,Delhi,Delhi,"Major Dhyan Chand National Stadium, Delhi - DPCC",06-11-2025 07:00:00,28.611281,77.237738,PM2.5,68,424,233
India,Delhi,Delhi,"Mandir Marg, Delhi - DPCC",06-11-2025 07:00:00,28.636429,77.201067,PM2.5,8,458,251
India,Delhi,Delhi,"Mandir Marg, Delhi - DPCC",06-11-2025 07:00:00,28.636429,77.201067,SO2,6,57,32
India,Delhi,Delhi,"Mundka, Delhi - DPCC",06-11-2025 07:00:00,28.684678,77.076574,NH3,9,17,13
India,Delhi,Delhi,"NSIT Dwarka, Delhi - CPCB",06-11-2025 07:00:00,28.60909,77.0325413,NO2,55,91,69
India,Delhi,Delhi,"IHBAS, Dilshad Garden, Delhi - CPCB",06-11-2025 07:00:00,28.6811736,77.3025234,NH3,4,7,5
India,Delhi,Delhi,"Jawaharlal Nehru Stadium, Delhi - DPCC",06-11-2025 07:00:00,28.580280,77.233829,PM10,92,281,157
India,Delhi,Delhi,"Jawaharlal Nehru Stadium, Delhi - DPCC",06-11-2025 07:00:00,28.580280,77.233829,NH3,7,13,9
India,Delhi,Delhi,"Jawaharlal Nehru Stadium, Delhi - DPCC",06-11-2025 07:00:00,28.580280,77.233829,SO2,9,24,15
India,Delhi,Delhi,"Jawaharlal Nehru Stadium, Delhi - DPCC",06-11-2025 07:00:00,28.580280,77.233829,OZONE,13,112,29
India,Gujarat,Ahmedabad,"SAC ISRO Bopal, Ahmedabad - IITM",06-11-2025 07:00:00,23.041137,72.456691,CO,11,30,21
India,Gujarat,Ahmedabad,"SAC ISRO Satellite, Ahmedabad - IITM",06-11-2025 07:00:00,23.023389,72.515201,SO2,3,21,7
India,Gujarat,Ankleshwar,"GIDC, Ankleshwar - GPCB",06-11-2025 07:00:00,21.613267,73.010555,PM10,10,172,112
India,Gujarat,Ankleshwar,"GIDC, Ankleshwar - GPCB",06-11-2025 07:00:00,21.613267,73.010555,SO2,33,34,34
India,Delhi,Delhi,"Okhla Phase-2, Delhi - DPCC",06-11-2025 07:00:00,28.530785,77.271255,NH3,8,17,12
India,Delhi,Delhi,"Patparganj, Delhi - DPCC",06-11-2025 07:00:00,28.623763,77.287209,PM2.5,75,453,264
India,Delhi,Delhi,"Patparganj, Delhi - DPCC",06-11-2025 07:00:00,28.623763,77.287209,SO2,8,11,10
India,Delhi,Delhi,"Punjabi Bagh, Delhi - DPCC",06-11-2025 07:00:00,28.674045,77.131023,CO,44,72,57
India,Delhi,Delhi,"Nehru Nagar, Delhi - DPCC",06-11-2025 07:00:00,28.567890,77.250515,NH3,6,18,10
India,Delhi,Delhi,"North Campus, DU, Delhi - IMD",06-11-2025 07:00:00,28.6573814,77.1585447,NO2,74,151,111
India,Haryana,Charkhi Dadri,"Mini Secretariat, Charkhi Dadri - HSPCB",06-11-2025 07:00:00,28.593883,76.270653,PM2.5,67,444,314
India,Haryana,Charkhi Dadri,"Mini Secretariat, Charkhi Dadri - HSPCB",06-11-2025 07:00:00,28.593883,76.270653,NH3,5,8,6
India,Haryana,Charkhi Dadri,"Mini Secretariat, Charkhi Dadri - HSPCB",06-11-2025 07:00:00,28.593883,76.270653,OZONE,13,18,16
India,Haryana,Dharuhera,"Municipal Corporation Office, Dharuhera -  HSPCB",06-11-2025 07:00:00,28.206800,76.799700,OZONE,10,73,13
India,Haryana,Faridabad,"New Industrial Town, Faridabad - HSPCB",06-11-2025 07:00:00,28.39072,77.30059,NH3,10,12,11
India,Haryana,Faridabad,"New Industrial Town, Faridabad - HSPCB",06-11-2025 07:00:00,28.39072,77.30059,OZONE,25,34,31
India,Haryana,Faridabad,"Sector 11, Faridabad - HSPCB",06-11-2025 07:00:00,28.376058,77.315741,PM2.5,70,304,170
India,Haryana,Faridabad,"Sector 11, Faridabad - HSPCB",06-11-2025 07:00:00,28.376058,77.315741,PM10,85,152,117
India,Haryana,Panchgaon,"Amity University, Panchgaon - IITM",06-11-2025 07:00:00,28.3153,76.9143,NH3,10,16,13
India,Haryana,Panchgaon,"Amity University, Panchgaon - IITM",06-11-2025 07:00:00,28.3153,76.9143,CO,34,101,86
India,Haryana,Panchkula,"Sector-6, Panchkula - HSPCB ",06-11-2025 07:00:00,30.7057778,76.8531805555555,PM2.5,91,315,216
India,Haryana,Panchkula,"Sector-6, Panchkula - HSPCB ",06-11-2025 07:00:00,30.7057778,76.8531805555555,SO2,8,9,9
India,Haryana,Panipat,"Sector-18, Panipat - HSPCB",06-11-2025 07:00:00,29.432304,76.972765,PM2.5,29,411,232
India,Haryana,Panipat,"Sector-18, Panipat - HSPCB",06-11-2025 07:00:00,29.432304,76.972765,NH3,2,3,2
India,Haryana,Rohtak,"MD University, Rohtak - HSPCB",06-11-2025 07:00:00,28.52123,76.37138,PM2.5,136,493,318
India,Haryana,Gurugram,"Vikas Sadan, Gurugram - HSPCB",06-11-2025 07:00:00,28.4501238,77.0263051,SO2,2,8,5
India,Haryana,Gurugram,"Vikas Sadan, Gurugram - HSPCB",06-11-2025 07:00:00,28.4501238,77.0263051,OZONE,8,55,17
India,Haryana,Hisar,"Urban Estate-II, Hisar - HSPCB",06-11-2025 07:00:00,29.140560,75.744941,PM2.5,34,173,81
India,Haryana,Hisar,"Urban Estate-II, Hisar - HSPCB",06-11-2025 07:00:00,29.140560,75.744941,NO2,11,12,12
India,Haryana,Jind,"Police Lines, Jind - HSPCB",06-11-2025 07:00:00,29.307814,76.337619,NH3,4,5,5
India,Haryana,Jind,"Police Lines, Jind - HSPCB",06-11-2025 07:00:00,29.307814,76.337619,CO,4,129,26
India,Haryana,Kaithal,"Rishi Nagar, Kaithal - HSPCB",06-11-2025 07:00:00,29.8006,76.4155,NH3,5,6,6
India,Haryana,Ambala,"Patti Mehar, Ambala - HSPCB",06-11-2025 07:00:00,30.379589,76.778328,NO2,20,25,22
India,Haryana,Bahadurgarh,"Arya Nagar, Bahadurgarh - HSPCB",06-11-2025 07:00:00,28.6701,76.9254,PM2.5,2,46,41
India,Haryana,Bahadurgarh,"Arya Nagar, Bahadurgarh - HSPCB",06-11-2025 07:00:00,28.6701,76.9254,PM10,2,57,50
India,Haryana,Bahadurgarh,"Arya Nagar, Bahadurgarh - HSPCB",06-11-2025 07:00:00,28.6701,76.9254,NO2,12,14,13
India,Haryana,Ballabgarh,"Nathu Colony, Ballabgarh - HSPCB",06-11-2025 07:00:00,28.3419248,77.319699,PM2.5,101,321,157
India,Haryana,Bhiwani,"H.B. Colony, Bhiwani - HSPCB",06-11-2025 07:00:00,28.806223,76.141105,PM2.5,206,314,243
India,Haryana,Mandikhera,"General Hospital, Mandikhera - HSPCB",06-11-2025 07:00:00,27.9002,76.9938,CO,72,112,82
India,Haryana,Manesar,"Sector-2 IMT, Manesar - HSPCB",06-11-2025 07:00:00,28.360699,76.936090,PM2.5,133,328,289
India,Haryana,Narnaul,"Shastri Nagar, Narnaul - HSPCB",06-11-2025 07:00:00,28.060249,76.113115,NO2,15,47,28
India,Haryana,Narnaul,"Shastri Nagar, Narnaul - HSPCB",06-11-2025 07:00:00,28.060249,76.113115,NH3,5,17,10
India,Haryana,Palwal,"Shyam Nagar, Palwal - HSPCB",06-11-2025 07:00:00,28.1485564,77.3320667,PM10,72,181,122
India,Jammu_and_Kashmir,Srinagar,"Rajbagh, Srinagar - JKSPCB",06-11-2025 07:00:00,34.066206,74.819820,OZONE,1,79,1
India,Jharkhand,Jorapokhar,"Tata Stadium, Jorapokhar - JSPCB",06-11-2025 07:00:00,23.707909,86.414670,PM10,NA,NA,NA
India,Karnataka,Belgaum,"Ramteerth Nagar, Belgaum - KSPCB",06-11-2025 07:00:00,15.888653,74.541751,NO2,13,89,34
India,Karnataka,Belgaum,"Ramteerth Nagar, Belgaum - KSPCB",06-11-2025 07:00:00,15.888653,74.541751,NH3,2,10,5
India,Haryana,Faridabad,"Sector 30, Faridabad - HSPCB",06-11-2025 07:00:00,28.4417,77.3217,OZONE,18,20,18
India,Haryana,Fatehabad,"Huda Sector, Fatehabad - HSPCB",06-11-2025 07:00:00,29.503664,75.467934,NH3,NA,NA,NA
India,Haryana,Fatehabad,"Huda Sector, Fatehabad - HSPCB",06-11-2025 07:00:00,29.503664,75.467934,SO2,NA,NA,NA
India,Haryana,Fatehabad,"Huda Sector, Fatehabad - HSPCB",06-11-2025 07:00:00,29.503664,75.467934,CO,NA,NA,NA
India,Haryana,Gurugram,"Teri Gram, Gurugram - HSPCB",06-11-2025 07:00:00,28.4275,77.1465,SO2,NA,NA,NA
India,Haryana,Sirsa,"F-Block, Sirsa - HSPCB",06-11-2025 07:00:00,29.536400,75.015800,NO2,11,29,20
India,Haryana,Sirsa,"F-Block, Sirsa - HSPCB",06-11-2025 07:00:00,29.536400,75.015800,NH3,11,18,14
India,Haryana,Sirsa,"F-Block, Sirsa - HSPCB",06-11-2025 07:00:00,29.536400,75.015800,SO2,5,8,6
India,Haryana,Sonipat,"Murthal, Sonipat - HSPCB",06-11-2025 07:00:00,29.027200,77.062100,PM10,108,228,167
India,Karnataka,Bengaluru,"BTM Layout, Bengaluru - CPCB",06-11-2025 07:00:00,12.9135218,77.5950804,PM2.5,NA,NA,NA
India,Karnataka,Bengaluru,"BTM Layout, Bengaluru - CPCB",06-11-2025 07:00:00,12.9135218,77.5950804,PM10,NA,NA,NA
India,Karnataka,Bengaluru,"BTM Layout, Bengaluru - CPCB",06-11-2025 07:00:00,12.9135218,77.5950804,NO2,NA,NA,NA
India,Karnataka,Bengaluru,"BTM Layout, Bengaluru - CPCB",06-11-2025 07:00:00,12.9135218,77.5950804,CO,NA,NA,NA
India,Karnataka,Bengaluru,"BTM Layout, Bengaluru - CPCB",06-11-2025 07:00:00,12.9135218,77.5950804,OZONE,NA,NA,NA
India,Karnataka,Hubballi,"Lingaraj Nagar, Hubballi - KSPCB",06-11-2025 07:00:00,15.3714823,75.1160168,NH3,1,2,2
India,Karnataka,Kalaburagi,"Lal Bahadur Shastri Nagar, Kalaburagi - KSPCB",06-11-2025 07:00:00,17.321993,76.822628,CO,32,48,32
India,Karnataka,Kalaburagi,"Mahatma Basaveswar Colony, Kalaburgi - KSPCB",06-11-2025 07:00:00,17.336318,76.847397,NH3,2,3,3
India,Karnataka,Kalaburagi,"Mahatma Basaveswar Colony, Kalaburgi - KSPCB",06-11-2025 07:00:00,17.336318,76.847397,CO,32,56,37
India,Karnataka,Koppal,"Diwator Nagar, Koppal - KSPCB",06-11-2025 07:00:00,15.347630,76.181767,SO2,11,38,26
India,Karnataka,Koppal,"Diwator Nagar, Koppal - KSPCB",06-11-2025 07:00:00,15.347630,76.181767,CO,12,74,46
India,Karnataka,Bengaluru,"Bapuji Nagar, Bengaluru - KSPCB",06-11-2025 07:00:00,12.951913,77.539784,PM10,36,161,90
India,Karnataka,Bengaluru,"Bapuji Nagar, Bengaluru - KSPCB",06-11-2025 07:00:00,12.951913,77.539784,SO2,3,16,9
India,Karnataka,Bengaluru,"City Railway Station, Bengaluru - KSPCB",06-11-2025 07:00:00,12.9756843,77.5660749,NO2,42,51,46
India,Karnataka,Bengaluru,"Hebbal, Bengaluru - KSPCB",06-11-2025 07:00:00,13.029152,77.585901,PM2.5,3,39,16
India,Karnataka,Bengaluru,"Hebbal, Bengaluru - KSPCB",06-11-2025 07:00:00,13.029152,77.585901,PM10,17,45,30
India,Karnataka,Bengaluru,"Hombegowda Nagar, Bengaluru - KSPCB",06-11-2025 07:00:00,12.938539,77.590100,PM10,29,67,47
India,Karnataka,Bengaluru,"Jayanagar 5th Block, Bengaluru - KSPCB",06-11-2025 07:00:00,12.920984,77.584908,NO2,7,52,25
India,Karnataka,Bengaluru,"Jayanagar 5th Block, Bengaluru - KSPCB",06-11-2025 07:00:00,12.920984,77.584908,CO,2,84,11
India,Karnataka,Bengaluru,"Jigani, Bengaluru - KSPCB",06-11-2025 07:00:00,12.7816279,77.6299145,NO2,20,26,22
India,Karnataka,Bengaluru,"Jigani, Bengaluru - KSPCB",06-11-2025 07:00:00,12.7816279,77.6299145,SO2,18,21,19
India,Karnataka,Bengaluru,"Silk Board, Bengaluru - KSPCB",06-11-2025 07:00:00,12.917348,77.622813,SO2,9,15,11
India,Karnataka,Chamarajanagar,"Urban, Chamarajanagar - KSPCB",06-11-2025 07:00:00,11.55358,76.55521,CO,14,119,27
India,Karnataka,Chikkamagaluru,"Kalyana Nagara, Chikkamagaluru - KSPCB",06-11-2025 07:00:00,13.328028,75.797056,PM10,NA,NA,NA
India,Karnataka,Chikkamagaluru,"Kalyana Nagara, Chikkamagaluru - KSPCB",06-11-2025 07:00:00,13.328028,75.797056,NO2,NA,NA,NA
India,Karnataka,Bengaluru,"Peenya, Bengaluru - CPCB",06-11-2025 07:00:00,13.0270199,77.494094,NO2,26,31,28
India,Karnataka,Bengaluru,"RVCE-Mailasandra, Bengaluru - KSPCB",06-11-2025 07:00:00,12.921418,77.502466,PM10,58,116,94
India,Karnataka,Bengaluru,"RVCE-Mailasandra, Bengaluru - KSPCB",06-11-2025 07:00:00,12.921418,77.502466,NO2,23,30,27
India,Karnataka,Bengaluru,"Sanegurava Halli, Bengaluru - KSPCB",06-11-2025 07:00:00,12.990328,77.5431385,SO2,7,7,7
India,Karnataka,Madikeri,"Stuart Hill, Madikeri - KSPCB",06-11-2025 07:00:00,12.415911,75.735050,CO,8,12,8
India,Karnataka,Mysuru,"Hebbal 1st Stage, Mysuru - KSPCB",06-11-2025 07:00:00,12.21041,76.37376,PM10,36,84,52
India,Karnataka,Mysuru,"Hebbal 1st Stage, Mysuru - KSPCB",06-11-2025 07:00:00,12.21041,76.37376,NO2,9,36,21
India,Karnataka,Mysuru,"Hebbal 1st Stage, Mysuru - KSPCB",06-11-2025 07:00:00,12.21041,76.37376,CO,6,48,14
India,Karnataka,Davanagere,"Devaraj Urs Badavane, Davanagere - KSPCB",06-11-2025 07:00:00,14.475800,75.905200,PM2.5,1,48,24
India,Karnataka,Davanagere,"Devaraj Urs Badavane, Davanagere - KSPCB",06-11-2025 07:00:00,14.475800,75.905200,PM10,22,48,33
India,Karnataka,Davanagere,"Devaraj Urs Badavane, Davanagere - KSPCB",06-11-2025 07:00:00,14.475800,75.905200,SO2,1,5,3
India,Karnataka,Dharwad,"Kalabhavan, Dharwad - KSPCB",06-11-2025 07:00:00,15.459706,75.008381,PM10,69,92,78
India,Karnataka,Yadgir,"Collector Office, Yadgir - KSPCB",06-11-2025 07:00:00,16.7602,77.1428,NH3,1,2,2
India,Karnataka,Yadgir,"Collector Office, Yadgir - KSPCB",06-11-2025 07:00:00,16.7602,77.1428,SO2,10,31,17
India,Kerala,Eloor,"Udyogamandal, Eloor - Kerala PCB",06-11-2025 07:00:00,10.073232,76.302765,NO2,6,8,7
India,Karnataka,Dharwad,"Kalabhavan, Dharwad - KSPCB",06-11-2025 07:00:00,15.459706,75.008381,OZONE,23,27,27
India,Madhya Pradesh,Satna,"Bandhavgar Colony, Satna - Birla Cement",06-11-2025 07:00:00,24.58434363,80.8549414,PM10,63,65,64
India,Madhya Pradesh,Satna,"Bandhavgar Colony, Satna - Birla Cement",06-11-2025 07:00:00,24.58434363,80.8549414,NO2,28,38,33
India,Madhya Pradesh,Singrauli,"Suryakiran Bhawan NCL, Singrauli - MPPCB",06-11-2025 07:00:00,24.108970,82.645580,PM10,65,170,104
India,Madhya Pradesh,Singrauli,"Suryakiran Bhawan NCL, Singrauli - MPPCB",06-11-2025 07:00:00,24.108970,82.645580,SO2,35,41,38
India,Maharashtra,Ahmednagar,"Tarakpur, Ahmednagar - MPCB",06-11-2025 07:00:00,19.10122,74.73339,PM2.5,7,84,36
India,Maharashtra,Ahmednagar,"Tarakpur, Ahmednagar - MPCB",06-11-2025 07:00:00,19.10122,74.73339,NH3,5,6,5
