country,state,city,station,last_update,latitude,longitude,pollutant_id,min_value,max_value,avg_value
India,Assam,Nagaon,"Christianpatty, Nagaon - PCBA",27-09-2025 07:00:00,26.349082,92.68449,PM10,26,56,48
India,Assam,Nagaon,"Christianpatty, Nagaon - PCBA",27-09-2025 07:00:00,26.349082,92.68449,OZONE,7,11,9
India,Assam,Silchar,"Tarapur, Silchar - PCBA",27-09-2025 07:00:00,24.82827,92.79525,NH3,1,1,1
India,Assam,Sivasagar,"Girls College, Sivasagar - PCBA",27-09-2025 07:00:00,26.987634,94.636574,PM10,22,43,31
India,Bihar,Araria,"Kharahiya Basti, Araria - BSPCB",27-09-2025 07:00:00,26.146529,87.454184,PM2.5,43,66,48
India,Bihar,Araria,"Kharahiya Basti, Araria - BSPCB",27-09-2025 07:00:00,26.146529,87.454184,PM10,32,58,37
India,Assam,Guwahati,"IITG, Guwahati - PCBA",27-09-2025 07:00:00,26.2028636,91.70046436,PM2.5,1,60,29
India,Assam,Guwahati,"IITG, Guwahati - PCBA",27-09-2025 07:00:00,26.2028636,91.70046436,CO,3,15,8
India,Assam,Guwahati,"LGBI Airport, Guwahati - PCBA",27-09-2025 07:00:00,26.10887,91.589544,PM2.5,25,48,41
India,Assam,Guwahati,"LGBI Airport, Guwahati - PCBA",27-09-2025 07:00:00,26.10887,91.589544,NH3,6,6,6
India,Assam,Guwahati,"Pan Bazaar, Guwahati - PCBA",27-09-2025 07:00:00,26.187500,91.744194,PM10,4,38,21
India,Assam,Nagaon,"Christianpatty, Nagaon - PCBA",27-09-2025 07:00:00,26.349082,92.68449,PM2.5,35,68,55
India,Andhra_Pradesh,Kadapa,"Yerramukkapalli, Kadapa - APPCB",27-09-2025 07:00:00,14.465052,78.824187,PM10,50,77,58
India,Andhra_Pradesh,Kadapa,"Yerramukkapalli, Kadapa - APPCB",27-09-2025 07:00:00,14.465052,78.824187,NO2,10,13,10
India,Andhra_Pradesh,Kadapa,"Yerramukkapalli, Kadapa - APPCB",27-09-2025 07:00:00,14.465052,78.824187,OZONE,38,47,42
India,Andhra_Pradesh,Rajamahendravaram,"Anand Kala Kshetram, Rajamahendravaram - APPCB",27-09-2025 07:00:00,16.9872867,81.7363176,CO,7,24,10
India,Andhra_Pradesh,Tirumala,"Toll Gate, Tirumala - APPCB",27-09-2025 07:00:00,13.67,79.35,CO,4,79,22
India,Andhra_Pradesh,Tirumala,"Toll Gate, Tirumala - APPCB",27-09-2025 07:00:00,13.67,79.35,OZONE,10,17,14
India,Andhra_Pradesh,Tirupati,"Vaikuntapuram, Tirupati - APPCB",27-09-2025 07:00:00,13.615387,79.409230,NH3,3,3,3
India,Andhra_Pradesh,Tirupati,"Vaikuntapuram, Tirupati - APPCB",27-09-2025 07:00:00,13.615387,79.409230,OZONE,33,36,34
India,Andhra_Pradesh,Visakhapatnam,"GVM Corporation, Visakhapatnam - APPCB",27-09-2025 07:00:00,17.72,83.3,PM2.5,58,157,84
India,Andhra_Pradesh,Visakhapatnam,"GVM Corporation, Visakhapatnam - APPCB",27-09-2025 07:00:00,17.72,83.3,NO2,27,102,69
India,Andhra_Pradesh,Visakhapatnam,"GVM Corporation, Visakhapatnam - APPCB",27-09-2025 07:00:00,17.72,83.3,OZONE,6,38,6
India,Andaman and Nicobar,Sri Vijaya Puram,"Police Line, Sri Vijaya Puram - ANPCC",27-09-2025 07:00:00,11.654054,92.734055,OZONE,NA,NA,NA
India,Andhra_Pradesh,Anantapur,"Gulzarpet, Anantapur - APPCB",27-09-2025 07:00:00,14.675886,77.593027,PM10,39,46,42
India,Andhra_Pradesh,Anantapur,"Gulzarpet, Anantapur - APPCB",27-09-2025 07:00:00,14.675886,77.593027,NO2,22,22,22
India,Bihar,Arrah,"New DM Office, Arrah - BSPCB",27-09-2025 07:00:00,25.5626095,84.663264,CO,NA,NA,NA
India,Bihar,Arrah,"New DM Office, Arrah - BSPCB",27-09-2025 07:00:00,25.5626095,84.663264,OZONE,NA,NA,NA
India,Assam,Byrnihat,"Central Academy for SFS, Byrnihat - PCBA",27-09-2025 07:00:00,26.071318,91.87488,PM2.5,NA,NA,NA
India,Arunachal_Pradesh,Naharlagun,"Naharlagun, Naharlagun - APSPCB",27-09-2025 07:00:00,27.103358,93.679645,SO2,NA,NA,NA
India,Bihar,Chhapra,"Darshan Nagar, Chhapra - BSPCB",27-09-2025 07:00:00,25.7808257,84.7446768,PM2.5,12,362,73
India,Bihar,Arrah,"New DM Office, Arrah - BSPCB",27-09-2025 07:00:00,25.5626095,84.663264,PM2.5,NA,NA,NA
India,Bihar,Patna,"Muradpur, Patna - BSPCB",27-09-2025 07:00:00,25.619651,85.147382,CO,37,70,44
India,Bihar,Patna,"Rajbansi Nagar, Patna - BSPCB",27-09-2025 07:00:00,25.599486,85.113666,OZONE,1,199,1
India,Bihar,Purnia,"Mariam Nagar, Purnia - BSPCB",27-09-2025 07:00:00,25.366336,87.117468,PM10,NA,NA,NA
India,Bihar,Purnia,"Mariam Nagar, Purnia - BSPCB",27-09-2025 07:00:00,25.366336,87.117468,SO2,1,35,7
India,Bihar,Purnia,"Mariam Nagar, Purnia - BSPCB",27-09-2025 07:00:00,25.366336,87.117468,OZONE,17,32,21
India,Bihar,Rajgir,"Dangi Tola, Rajgir - BSPCB",27-09-2025 07:00:00,25.03280,85.41948,PM10,96,98,97
India,Bihar,Rajgir,"Dangi Tola, Rajgir - BSPCB",27-09-2025 07:00:00,25.03280,85.41948,OZONE,23,48,31
India,Bihar,Saharsa,"Police Line, Saharsa - BSPCB",27-09-2025 07:00:00,25.892357,86.590325,NH3,4,4,4
India,Bihar,Chhapra,"Darshan Nagar, Chhapra - BSPCB",27-09-2025 07:00:00,25.7808257,84.7446768,CO,4,8,4
India,Bihar,Gaya,"Kareemganj, Gaya - BSPCB",27-09-2025 07:00:00,24.792403,84.992416,NO2,1,8,5
India,Bihar,Gaya,"SFTI Kusdihra, Gaya - BSPCB",27-09-2025 07:00:00,24.762518,84.982348,NH3,NA,NA,NA
India,Bihar,Hajipur,"Industrial Area, Hajipur - BSPCB",27-09-2025 07:00:00,25.697189,85.245900,PM2.5,38,500,72
India,Bihar,Hajipur,"Industrial Area, Hajipur - BSPCB",27-09-2025 07:00:00,25.697189,85.245900,NO2,4,9,6
India,Bihar,Hajipur,"Industrial Area, Hajipur - BSPCB",27-09-2025 07:00:00,25.697189,85.245900,SO2,3,5,4
India,Chandigarh,Chandigarh,"Sector 22, Chandigarh - CPCC",27-09-2025 07:00:00,30.735567,76.775714,PM2.5,35,97,60
India,Chandigarh,Chandigarh,"Sector 22, Chandigarh - CPCC",27-09-2025 07:00:00,30.735567,76.775714,CO,22,74,65
India,Chandigarh,Chandigarh,"Sector-25, Chandigarh - CPCC",27-09-2025 07:00:00,30.751462,76.762879,PM10,66,107,94
India,Chandigarh,Chandigarh,"Sector-53, Chandigarh - CPCC",27-09-2025 07:00:00,30.719859,76.738637,PM2.5,NA,NA,NA
India,Chhattisgarh,Bhilai,"32Bungalows, Bhilai - CECB",27-09-2025 07:00:00,21.194815,81.314770,PM10,15,49,34
India,Chhattisgarh,Bhilai,"Civic Center, Bhilai - Bhilai Steel Plant",27-09-2025 07:00:00,21.185571,81.343175,NH3,3,3,3
India,Chhattisgarh,Bilaspur,"Mangala, Bilaspur - NTPC",27-09-2025 07:00:00,22.08815,82.13737,PM10,10,44,30
India,Chhattisgarh,Chhal,"Nawapara SECL Colony, Chhal - CECB",27-09-2025 07:00:00,22.118125,83.140608,PM10,6,48,22
India,Chhattisgarh,Korba,"Rampur, Korba - CECB",27-09-2025 07:00:00,22.368195,82.746431,NO2,4,8,6
India,Bihar,Muzaffarpur,"MIT-Daudpur Kothi, Muzaffarpur - BSPCB",27-09-2025 07:00:00,26.1403345,85.3650192,NH3,1,1,1
India,Bihar,Patna,"DRM Office Danapur, Patna - BSPCB",27-09-2025 07:00:00,25.586562,85.043586,PM2.5,4,62,22
India,Bihar,Patna,"Govt. High School Shikarpur, Patna - BSPCB",27-09-2025 07:00:00,25.592539,85.227158,CO,12,37,17
India,Bihar,Patna,"Muradpur, Patna - BSPCB",27-09-2025 07:00:00,25.619651,85.147382,SO2,7,11,9
India,Chhattisgarh,Korba,"Rampur, Korba - CECB",27-09-2025 07:00:00,22.368195,82.746431,SO2,6,10,8
India,Chhattisgarh,Korba,"Urja Nagar, Korba - CECB",27-09-2025 07:00:00,22.348441,82.549611,NH3,1,2,2
India,Chhattisgarh,Milupara,"Govt. Higher Secondary School, Milupara - CECB",27-09-2025 07:00:00,22.1910172,83.5197009,OZONE,NA,NA,NA
India,Chhattisgarh,Raipur,"Bhatagaon New ISBT, Raipur - CECB",27-09-2025 07:00:00,21.219665,81.630094,NO2,NA,NA,NA
India,Bihar,Manguraha,"Forest Rest House, Manguraha - BSPCB",27-09-2025 07:00:00,27.308328,84.531742,NH3,1,1,1
India,Bihar,Manguraha,"Forest Rest House, Manguraha - BSPCB",27-09-2025 07:00:00,27.308328,84.531742,SO2,15,17,16
India,Bihar,Manguraha,"Forest Rest House, Manguraha - BSPCB",27-09-2025 07:00:00,27.308328,84.531742,OZONE,9,31,11
India,Bihar,Siwan,"Chitragupta Nagar, Siwan - BSPCB",27-09-2025 07:00:00,26.2271665,84.3570427,PM2.5,5,67,23
India,Bihar,Siwan,"Chitragupta Nagar, Siwan - BSPCB",27-09-2025 07:00:00,26.2271665,84.3570427,PM10,17,459,77
India,Bihar,Muzaffarpur,"Buddha Colony, Muzaffarpur - BSPCB",27-09-2025 07:00:00,26.11442,85.39813,SO2,2,6,4
India,Chhattisgarh,Raipur,"Krishak Nagar, Raipur - CECB",27-09-2025 07:00:00,21.237755,81.705301,NO2,7,16,10
India,Chhattisgarh,Raipur,"Krishak Nagar, Raipur - CECB",27-09-2025 07:00:00,21.237755,81.705301,CO,9,20,14
India,Chhattisgarh,Raipur,"Krishak Nagar, Raipur - CECB",27-09-2025 07:00:00,21.237755,81.705301,OZONE,2,19,2
India,Chhattisgarh,Tumidih,"OP Jindal Industrial Park, Tumidih - CECB",27-09-2025 07:00:00,22.06631475,83.33820077,PM10,6,33,15
India,Delhi,Delhi,"Alipur, Delhi - DPCC",27-09-2025 07:00:00,28.815329,77.153010,NO2,11,40,25
India,Delhi,Delhi,"Anand Vihar, Delhi - DPCC",27-09-2025 07:00:00,28.647622,77.3158090,PM2.5,22,315,103
India,Delhi,Delhi,"Anand Vihar, Delhi - DPCC",27-09-2025 07:00:00,28.647622,77.3158090,SO2,9,34,22
India,Delhi,Delhi,"Anand Vihar, Delhi - DPCC",27-09-2025 07:00:00,28.647622,77.3158090,CO,70,90,85
India,Delhi,Delhi,"Mundka, Delhi - DPCC",27-09-2025 07:00:00,28.684678,77.076574,PM2.5,15,308,94
India,Delhi,Delhi,"NSIT Dwarka, Delhi - CPCB",27-09-2025 07:00:00,28.60909,77.0325413,SO2,8,31,17
India,Delhi,Delhi,"NSIT Dwarka, Delhi - CPCB",27-09-2025 07:00:00,28.60909,77.0325413,OZONE,5,12,7
India,Delhi,Delhi,"Najafgarh, Delhi - DPCC",27-09-2025 07:00:00,28.570173,76.933762,PM10,81,125,106
India,Delhi,Delhi,"Narela, Delhi - DPCC",27-09-2025 07:00:00,28.822836,77.101981,SO2,2,11,6
India,Delhi,Delhi,"Nehru Nagar, Delhi - DPCC",27-09-2025 07:00:00,28.567890,77.250515,NO2,5,27,14
India,Delhi,Delhi,"Nehru Nagar, Delhi - DPCC",27-09-2025 07:00:00,28.567890,77.250515,OZONE,14,146,25
India,Delhi,Delhi,"North Campus, DU, Delhi - IMD",27-09-2025 07:00:00,28.6573814,77.1585447,PM2.5,41,79,59
India,Delhi,Delhi,"North Campus, DU, Delhi - IMD",27-09-2025 07:00:00,28.6573814,77.1585447,PM10,99,147,124
India,Delhi,Delhi,"Patparganj, Delhi - DPCC",27-09-2025 07:00:00,28.623763,77.287209,NH3,5,7,6
India,Delhi,Delhi,"Punjabi Bagh, Delhi - DPCC",27-09-2025 07:00:00,28.674045,77.131023,SO2,1,3,1
India,Delhi,Delhi,"Punjabi Bagh, Delhi - DPCC",27-09-2025 07:00:00,28.674045,77.131023,OZONE,8,61,18
India,Delhi,Delhi,"Pusa, Delhi - DPCC",27-09-2025 07:00:00,28.639652,77.146275,SO2,1,37,18
India,Delhi,Delhi,"Lodhi Road, Delhi - IMD",27-09-2025 07:00:00,28.5918245,77.2273074,PM10,NA,NA,NA
India,Delhi,Delhi,"Lodhi Road, Delhi - IMD",27-09-2025 07:00:00,28.5918245,77.2273074,CO,6,43,34
India,Delhi,Delhi,"Lodhi Road, Delhi - IMD",27-09-2025 07:00:00,28.5918245,77.2273074,OZONE,6,23,13
India,Delhi,Delhi,"Major Dhyan Chand National Stadium, Delhi - DPCC",27-09-2025 07:00:00,28.611281,77.237738,PM2.5,2,143,59
India,Delhi,Delhi,"Major Dhyan Chand National Stadium, Delhi - DPCC",27-09-2025 07:00:00,28.611281,77.237738,NH3,13,15,14
India,Delhi,Delhi,"Mandir Marg, Delhi - DPCC",27-09-2025 07:00:00,28.636429,77.201067,CO,10,36,29
India,Delhi,Delhi,"ITO, Delhi - CPCB",27-09-2025 07:00:00,28.628624,77.241060,NH3,4,5,5
India,Delhi,Delhi,"Jahangirpuri, Delhi - DPCC",27-09-2025 07:00:00,28.732820,77.170633,OZONE,16,78,22
India,Delhi,Delhi,"Jawaharlal Nehru Stadium, Delhi - DPCC",27-09-2025 07:00:00,28.580280,77.233829,SO2,3,16,10
India,Delhi,Delhi,"Jawaharlal Nehru Stadium, Delhi - DPCC",27-09-2025 07:00:00,28.580280,77.233829,CO,154,170,166
India,Delhi,Delhi,"Chandni Chowk, Delhi - IITM",27-09-2025 07:00:00,28.656756,77.227234,OZONE,6,72,10
India,Delhi,Delhi,"Dr. Karni Singh Shooting Range, Delhi - DPCC",27-09-2025 07:00:00,28.498571,77.264840,PM2.5,32,83,55
India,Delhi,Delhi,"Dr. Karni Singh Shooting Range, Delhi - DPCC",27-09-2025 07:00:00,28.498571,77.264840,NH3,5,7,6
India,Delhi,Delhi,"Dwarka-Sector 8, Delhi - DPCC ",27-09-2025 07:00:00,28.5710274,77.0719006,PM10,99,193,131
India,Delhi,Delhi,"Dwarka-Sector 8, Delhi - DPCC ",27-09-2025 07:00:00,28.5710274,77.0719006,NH3,6,9,7
India,Delhi,Delhi,"Dwarka-Sector 8, Delhi - DPCC ",27-09-2025 07:00:00,28.5710274,77.0719006,SO2,11,16,13
India,Delhi,Delhi,"Bawana, Delhi - DPCC",27-09-2025 07:00:00,28.776200,77.051074,PM10,112,198,136
India,Delhi,Delhi,"Burari Crossing, Delhi - IMD",27-09-2025 07:00:00,28.7256504,77.2011573,NO2,NA,NA,NA
India,Delhi,Delhi,"Dwarka-Sector 8, Delhi - DPCC ",27-09-2025 07:00:00,28.5710274,77.0719006,OZONE,10,63,29
India,Delhi,Delhi,"IGI Airport (T3), Delhi - IMD",27-09-2025 07:00:00,28.5627763,77.1180053,NO2,39,100,70
India,Delhi,Delhi,"Wazirpur, Delhi - DPCC",27-09-2025 07:00:00,28.699793,77.165453,PM2.5,33,200,88
India,Delhi,Delhi,"Wazirpur, Delhi - DPCC",27-09-2025 07:00:00,28.699793,77.165453,NH3,7,9,8
India,Delhi,Delhi,"Wazirpur, Delhi - DPCC",27-09-2025 07:00:00,28.699793,77.165453,SO2,9,23,15
India,Delhi,Delhi,"Wazirpur, Delhi - DPCC",27-09-2025 07:00:00,28.699793,77.165453,OZONE,1,57,8
India,Gujarat,Ahmedabad,"Gyaspur, Ahmedabad - IITM",27-09-2025 07:00:00,22.977134,72.553024,CO,46,76,59
India,Gujarat,Ahmedabad,"Maninagar, Ahmedabad - GPCB",27-09-2025 07:00:00,23.002657,72.591912,PM2.5,8,46,22
India,Gujarat,Ahmedabad,"Raikhad, Ahmedabad - IITM",27-09-2025 07:00:00,23.020509,72.579261,PM2.5,24,62,43
India,Gujarat,Ahmedabad,"Raikhad, Ahmedabad - IITM",27-09-2025 07:00:00,23.020509,72.579261,PM10,44,115,79
India,Gujarat,Ahmedabad,"Raikhad, Ahmedabad - IITM",27-09-2025 07:00:00,23.020509,72.579261,SO2,9,18,11
India,Delhi,Delhi,"Sirifort, Delhi - CPCB",27-09-2025 07:00:00,28.5504249,77.2159377,NO2,26,50,38
India,Delhi,Delhi,"Sonia Vihar, Delhi - DPCC",27-09-2025 07:00:00,28.710508,77.249485,PM2.5,32,97,63
India,Delhi,Delhi,"Sonia Vihar, Delhi - DPCC",27-09-2025 07:00:00,28.710508,77.249485,CO,46,86,64
India,Delhi,Delhi,"Sonia Vihar, Delhi - DPCC",27-09-2025 07:00:00,28.710508,77.249485,OZONE,4,55,13
India,Delhi,Delhi,"Vivek Vihar, Delhi - DPCC",27-09-2025 07:00:00,28.672342,77.315260,SO2,15,28,21
India,Delhi,Delhi,"Pusa, Delhi - IMD",27-09-2025 07:00:00,28.636110,77.173332,NO2,9,39,20
India,Delhi,Delhi,"R K Puram, Delhi - DPCC",27-09-2025 07:00:00,28.563262,77.186937,NH3,3,6,4
India,Delhi,Delhi,"R K Puram, Delhi - DPCC",27-09-2025 07:00:00,28.563262,77.186937,SO2,2,34,18
India,Gujarat,Ahmedabad,"SAC ISRO Bopal, Ahmedabad - IITM",27-09-2025 07:00:00,23.041137,72.456691,OZONE,2,43,10
India,Gujarat,Ahmedabad,"SVPI Airport Hansol, Ahmedabad - IITM",27-09-2025 07:00:00,23.076793,72.627874,NH3,1,1,1
India,Gujarat,Ankleshwar,"GIDC, Ankleshwar - GPCB",27-09-2025 07:00:00,21.613267,73.010555,CO,38,46,40
India,Gujarat,Gandhinagar,"GIFT City, Gandhinagar - IITM",27-09-2025 07:00:00,23.163798,72.677768,NO2,8,43,19
India,Gujarat,Gandhinagar,"IIPHG Lekawada, Gandhinagar - IITM",27-09-2025 07:00:00,23.243639,72.68994,OZONE,1,31,14
India,Gujarat,Ahmedabad,"Rakhial, Ahmedabad - IITM",27-09-2025 07:00:00,23.016834,72.625775,OZONE,6,37,12
India,Gujarat,Ankleshwar,"GIDC, Ankleshwar - GPCB",27-09-2025 07:00:00,21.613267,73.010555,NH3,6,7,6
India,Delhi,Delhi,"Shadipur, Delhi - CPCB",27-09-2025 07:00:00,28.6514781,77.1473105,NH3,7,9,8
India,Haryana,Gurugram,"NISE Gwal Pahari, Gurugram - IMD",27-09-2025 07:00:00,28.422681,77.148944,PM2.5,32,91,64
India,Haryana,Panchgaon,"Amity University, Panchgaon - IITM",27-09-2025 07:00:00,28.3153,76.9143,NH3,1,6,3
India,Haryana,Panchgaon,"Amity University, Panchgaon - IITM",27-09-2025 07:00:00,28.3153,76.9143,SO2,2,15,6
India,Haryana,Panchgaon,"Amity University, Panchgaon - IITM",27-09-2025 07:00:00,28.3153,76.9143,CO,2,60,20
India,Haryana,Sirsa,"F-Block, Sirsa - HSPCB",27-09-2025 07:00:00,29.536400,75.015800,PM10,NA,NA,NA
India,Haryana,Sirsa,"F-Block, Sirsa - HSPCB",27-09-2025 07:00:00,29.536400,75.015800,NH3,7,52,21
India,Jammu_and_Kashmir,Srinagar,"Rajbagh, Srinagar - JKSPCB",27-09-2025 07:00:00,34.066206,74.819820,PM10,39,78,55
India,Jammu_and_Kashmir,Srinagar,"Rajbagh, Srinagar - JKSPCB",27-09-2025 07:00:00,34.066206,74.819820,CO,12,18,17
India,Jharkhand,Dhanbad,"Sardar Patel Nagar, Dhanbad - JSPCB",27-09-2025 07:00:00,23.80569,86.44268,PM10,18,58,44
India,Karnataka,Bengaluru,"Shivapura_Peenya, Bengaluru - KSPCB",27-09-2025 07:00:00,13.0246342,77.5080115,PM10,49,87,68
India,Karnataka,Bengaluru,"Shivapura_Peenya, Bengaluru - KSPCB",27-09-2025 07:00:00,13.0246342,77.5080115,NH3,4,4,4
India,Karnataka,Bengaluru,"Shivapura_Peenya, Bengaluru - KSPCB",27-09-2025 07:00:00,13.0246342,77.5080115,CO,24,37,27
India,Karnataka,Bengaluru,"Silk Board, Bengaluru - KSPCB",27-09-2025 07:00:00,12.917348,77.622813,NO2,NA,NA,NA
India,Karnataka,Chamarajanagar,"Urban, Chamarajanagar - KSPCB",27-09-2025 07:00:00,11.55358,76.55521,PM2.5,20,39,37
India,Karnataka,Chikkamagaluru,"Kalyana Nagara, Chikkamagaluru - KSPCB",27-09-2025 07:00:00,13.328028,75.797056,PM2.5,10,74,27
India,Karnataka,Hassan,"B.Katihalli, Hassan - KSPCB",27-09-2025 07:00:00,13.008556,76.125258,PM2.5,NA,NA,NA
India,Karnataka,Haveri,"Ashwini Nagar, Haveri - KSPCB",27-09-2025 07:00:00,14.791800,75.389600,OZONE,14,31,20
India,Karnataka,Hubballi,"Lingaraj Nagar, Hubballi - KSPCB",27-09-2025 07:00:00,15.3714823,75.1160168,SO2,1,2,1
India,Karnataka,Hubballi,"Lingaraj Nagar, Hubballi - KSPCB",27-09-2025 07:00:00,15.3714823,75.1160168,CO,10,14,12
India,Karnataka,Kalaburagi,"Mahatma Basaveswar Colony, Kalaburgi - KSPCB",27-09-2025 07:00:00,17.336318,76.847397,NO2,9,18,10
India,Karnataka,Bengaluru,"Bapuji Nagar, Bengaluru - KSPCB",27-09-2025 07:00:00,12.951913,77.539784,CO,8,52,24
India,Karnataka,Bengaluru,"Hebbal, Bengaluru - KSPCB",27-09-2025 07:00:00,13.029152,77.585901,OZONE,7,10,7
India,Karnataka,Bengaluru,"Hombegowda Nagar, Bengaluru - KSPCB",27-09-2025 07:00:00,12.938539,77.590100,PM10,26,42,34
India,Karnataka,Bengaluru,"Hombegowda Nagar, Bengaluru - KSPCB",27-09-2025 07:00:00,12.938539,77.590100,NH3,1,1,1
India,Karnataka,Bengaluru,"Hombegowda Nagar, Bengaluru - KSPCB",27-09-2025 07:00:00,12.938539,77.590100,CO,7,18,9
India,Karnataka,Bengaluru,"Jayanagar 5th Block, Bengaluru - KSPCB",27-09-2025 07:00:00,12.920984,77.584908,NH3,1,1,1
India,Karnataka,Chikkamagaluru,"Kalyana Nagara, Chikkamagaluru - KSPCB",27-09-2025 07:00:00,13.328028,75.797056,NH3,2,3,2
India,Karnataka,Davanagere,"Devaraj Urs Badavane, Davanagere - KSPCB",27-09-2025 07:00:00,14.475800,75.905200,PM2.5,4,34,16
India,Karnataka,Davanagere,"Devaraj Urs Badavane, Davanagere - KSPCB",27-09-2025 07:00:00,14.475800,75.905200,PM10,6,31,19
India,Karnataka,Davanagere,"Devaraj Urs Badavane, Davanagere - KSPCB",27-09-2025 07:00:00,14.475800,75.905200,OZONE,24,25,24
India,Karnataka,Dharwad,"Kalabhavan, Dharwad - KSPCB",27-09-2025 07:00:00,15.459706,75.008381,PM10,48,64,55
India,Gujarat,Vapi,"Phase-1 GIDC, Vapi - GPCB",27-09-2025 07:00:00,20.362421,72.918013,OZONE,2,2,2
India,Haryana,Faridabad,"New Industrial Town, Faridabad - HSPCB",27-09-2025 07:00:00,28.39072,77.30059,PM2.5,NA,NA,NA
India,Haryana,Faridabad,"New Industrial Town, Faridabad - HSPCB",27-09-2025 07:00:00,28.39072,77.30059,CO,8,13,12
India,Haryana,Faridabad,"Sector 30, Faridabad - HSPCB",27-09-2025 07:00:00,28.4417,77.3217,NH3,NA,NA,NA
India,Jharkhand,Dhanbad,"Sardar Patel Nagar, Dhanbad - JSPCB",27-09-2025 07:00:00,23.80569,86.44268,CO,4,83,57
India,Karnataka,Bagalkot,"Vidayagiri, Bagalkot - KSPCB",27-09-2025 07:00:00,16.172806,75.659694,NO2,9,11,9
India,Karnataka,Bagalkot,"Vidayagiri, Bagalkot - KSPCB",27-09-2025 07:00:00,16.172806,75.659694,SO2,7,7,7
India,Karnataka,Bagalkot,"Vidayagiri, Bagalkot - KSPCB",27-09-2025 07:00:00,16.172806,75.659694,OZONE,10,16,15
India,Gujarat,Gandhinagar,"Sector-10, Gandhinagar - GPCB",27-09-2025 07:00:00,23.221714,72.654328,OZONE,14,24,24
India,Gujarat,Nandesari,"GIDC, Nandesari - Nandesari Ind. Association",27-09-2025 07:00:00,22.410802,73.097923,NO2,NA,NA,NA
India,Gujarat,Nandesari,"GIDC, Nandesari - Nandesari Ind. Association",27-09-2025 07:00:00,22.410802,73.097923,SO2,3,34,17
India,Gujarat,Gandhinagar,"Sector-10, Gandhinagar - GPCB",27-09-2025 07:00:00,23.221714,72.654328,NH3,2,2,2
India,Madhya Pradesh,Gwalior,"City Center, Gwalior - MPPCB",27-09-2025 07:00:00,26.203442,78.193251,SO2,NA,NA,NA
India,Madhya Pradesh,Gwalior,"City Center, Gwalior - MPPCB",27-09-2025 07:00:00,26.203442,78.193251,OZONE,23,70,29
India,Madhya Pradesh,Gwalior,"Deen Dayal Nagar, Gwalior - MPPCB",27-09-2025 07:00:00,26.259242,78.216432,OZONE,8,9,8
India,Madhya Pradesh,Gwalior,"Maharaj Bada, Gwalior - MPPCB",27-09-2025 07:00:00,26.200388,78.147714,NH3,2,3,2
India,Madhya Pradesh,Gwalior,"Maharaj Bada, Gwalior - MPPCB",27-09-2025 07:00:00,26.200388,78.147714,CO,9,104,45
India,Madhya Pradesh,Indore,"Airport Area, Indore - IMC",27-09-2025 07:00:00,22.7289,75.8076,CO,6,7,6
India,Madhya Pradesh,Indore,"Residency Area, Indore - IMC",27-09-2025 07:00:00,22.7084,75.8815,SO2,20,67,34
India,Madhya Pradesh,Indore,"Residency Area, Indore - IMC",27-09-2025 07:00:00,22.7084,75.8815,CO,12,16,15
India,Madhya Pradesh,Jabalpur,"Gupteshwar, Jabalpur - JMC",27-09-2025 07:00:00,23.142888,79.916147,PM10,22,74,40
India,Madhya Pradesh,Jabalpur,"Gupteshwar, Jabalpur - JMC",27-09-2025 07:00:00,23.142888,79.916147,NH3,4,8,6
India,Madhya Pradesh,Jabalpur,"Gupteshwar, Jabalpur - JMC",27-09-2025 07:00:00,23.142888,79.916147,OZONE,13,48,25
India,Madhya Pradesh,Jabalpur,"Suhagi, Jabalpur - JMC",27-09-2025 07:00:00,23.218135,79.957770,NO2,21,52,37
India,Kerala,Thiruvananthapuram,"Kariavattom, Thiruvananthapuram - Kerala PCB",27-09-2025 07:00:00,8.563700,76.886500,SO2,1,4,1
India,Kerala,Thiruvananthapuram,"Kariavattom, Thiruvananthapuram - Kerala PCB",27-09-2025 07:00:00,8.563700,76.886500,OZONE,36,36,36
India,Kerala,Thrissur,"Corporation Ground, Thrissur - Kerala PCB",27-09-2025 07:00:00,10.532400,76.215900,PM10,41,58,52
India,Kerala,Thrissur,"Corporation Ground, Thrissur - Kerala PCB",27-09-2025 07:00:00,10.532400,76.215900,NO2,6,10,8
India,Madhya Pradesh,Bhopal,"Idgah Hills, Bhopal - MPPCB",27-09-2025 07:00:00,23.264759,77.381568,PM2.5,32,55,46
India,Madhya Pradesh,Bhopal,"Paryavaran Parisar, Bhopal - MPPCB",27-09-2025 07:00:00,23.210494,77.425409,CO,16,35,21
India,Madhya Pradesh,Dewas,"Bhopal Chauraha, Dewas - MPPCB",27-09-2025 07:00:00,22.9682591,76.064118,PM10,62,137,101
India,Kerala,Kannur,"Thavakkara, Kannur - Kerala PCB",27-09-2025 07:00:00,11.875000,75.373200,NO2,NA,NA,NA
India,Kerala,Kannur,"Thavakkara, Kannur - Kerala PCB",27-09-2025 07:00:00,11.875000,75.373200,OZONE,NA,NA,NA
India,Kerala,Kollam,"Polayathode, Kollam - Kerala PCB",27-09-2025 07:00:00,8.8787,76.6073,PM2.5,21,27,24
India,Madhya Pradesh,Indore,"Regional Park, Indore - IMC",27-09-2025 07:00:00,22.6780,75.8559,PM10,NA,NA,NA
India,Madhya Pradesh,Indore,"Regional Park, Indore - IMC",27-09-2025 07:00:00,22.6780,75.8559,NO2,NA,NA,NA
India,Madhya Pradesh,Indore,"Regional Park, Indore - IMC",27-09-2025 07:00:00,22.6780,75.8559,OZONE,NA,NA,NA
India,Kerala,Eloor,"Udyogamandal, Eloor - Kerala PCB",27-09-2025 07:00:00,10.073232,76.302765,PM10,38,43,41
India,Kerala,Eloor,"Udyogamandal, Eloor - Kerala PCB",27-09-2025 07:00:00,10.073232,76.302765,NO2,6,8,7
India,Madhya Pradesh,Bhopal,"Paryavaran Parisar, Bhopal - MPPCB",27-09-2025 07:00:00,23.210494,77.425409,PM2.5,32,52,42
India,Karnataka,Yadgir,"Collector Office, Yadgir - KSPCB",27-09-2025 07:00:00,16.7602,77.1428,NH3,1,2,2
India,Madhya Pradesh,Katni,"Gole Bazar, Katni - MPPCB",27-09-2025 07:00:00,23.50016,80.23284,PM10,26,72,49
India,Madhya Pradesh,Mandideep,"Sector-D Industrial Area, Mandideep - MPPCB",27-09-2025 07:00:00,23.108440,77.511428,PM2.5,62,252,120
India,Madhya Pradesh,Mandideep,"Sector-D Industrial Area, Mandideep - MPPCB",27-09-2025 07:00:00,23.108440,77.511428,NO2,32,82,56
India,Madhya Pradesh,Mandideep,"Sector-D Industrial Area, Mandideep - MPPCB",27-09-2025 07:00:00,23.108440,77.511428,CO,40,93,53
India,Madhya Pradesh,Pithampur,"Sector-2 Industrial Area, Pithampur - MPPCB",27-09-2025 07:00:00,22.624758,75.675238,PM2.5,39,277,113
India,Madhya Pradesh,Pithampur,"Sector-2 Industrial Area, Pithampur - MPPCB",27-09-2025 07:00:00,22.624758,75.675238,PM10,60,234,132
India,Madhya Pradesh,Pithampur,"Sector-2 Industrial Area, Pithampur - MPPCB",27-09-2025 07:00:00,22.624758,75.675238,SO2,1,48,23
India,Madhya Pradesh,Sagar,"Civil Lines, Sagar - MPPCB",27-09-2025 07:00:00,23.838586,78.759431,SO2,11,14,13
India,Madhya Pradesh,Singrauli,"Suryakiran Bhawan NCL, Singrauli - MPPCB",27-09-2025 07:00:00,24.108970,82.645580,NH3,NA,NA,NA
India,Madhya Pradesh,Singrauli,"Suryakiran Bhawan NCL, Singrauli - MPPCB",27-09-2025 07:00:00,24.108970,82.645580,SO2,NA,NA,NA
India,Madhya Pradesh,Singrauli,"Suryakiran Bhawan NCL, Singrauli - MPPCB",27-09-2025 07:00:00,24.108970,82.645580,CO,NA,NA,NA
India,Maharashtra,Ahmednagar,"Tarakpur, Ahmednagar - MPCB",27-09-2025 07:00:00,19.10122,74.73339,NH3,4,7,6
India,Maharashtra,Ahmednagar,"Tarakpur, Ahmednagar - MPCB",27-09-2025 07:00:00,19.10122,74.73339,SO2,1,9,4
India,Maharashtra,Ahmednagar,"Tarakpur, Ahmednagar - MPCB",27-09-2025 07:00:00,19.10122,74.73339,OZONE,9,33,21
India,Maharashtra,Amravati,"Shivneri Colony, Amravati - MPCB",27-09-2025 07:00:00,20.9402359,77.7895248,PM10,25,115,50
India,Maharashtra,Amravati,"Shivneri Colony, Amravati - MPCB",27-09-2025 07:00:00,20.9402359,77.7895248,NO2,5,16,10
India,Maharashtra,Amravati,"Shivneri Colony, Amravati - MPCB",27-09-2025 07:00:00,20.9402359,77.7895248,NH3,1,3,2
India,Maharashtra,Amravati,"Shivneri Colony, Amravati - MPCB",27-09-2025 07:00:00,20.9402359,77.7895248,SO2,1,5,2
India,Maharashtra,Amravati,"Shri Shivaji Science College, Amravati - MPCB",27-09-2025 07:00:00,20.939198,77.765701,NO2,3,51,13
India,Maharashtra,Amravati,"Shri Shivaji Science College, Amravati - MPCB",27-09-2025 07:00:00,20.939198,77.765701,NH3,1,1,1
India,Maharashtra,Amravati,"Shri Shivaji Science College, Amravati - MPCB",27-09-2025 07:00:00,20.939198,77.765701,SO2,8,18,12
India,Maharashtra,Aurangabad,"More Chowk Waluj, Aurangabad - MPCB",27-09-2025 07:00:00,19.8389439,75.244448,CO,8,82,34
India,Maharashtra,Aurangabad,"Rachnakar Colony, Aurangabad - MPCB",27-09-2025 07:00:00,19.863756,75.321188,PM2.5,23,90,58
India,Maharashtra,Aurangabad,"Rachnakar Colony, Aurangabad - MPCB",27-09-2025 07:00:00,19.863756,75.321188,PM10,22,86,55
India,Maharashtra,Aurangabad,"Rachnakar Colony, Aurangabad - MPCB",27-09-2025 07:00:00,19.863756,75.321188,SO2,8,27,21
India,Maharashtra,Dhule,"Deopur, Dhule - MPCB",27-09-2025 07:00:00,20.918946,74.776388,PM2.5,26,70,48
India,Maharashtra,Jalna,"Old MIDC, Jalna - MPCB",27-09-2025 07:00:00,19.854616,75.905894,PM2.5,38,100,71
India,Maharashtra,Jalna,"Old MIDC, Jalna - MPCB",27-09-2025 07:00:00,19.854616,75.905894,PM10,51,121,84
India,Maharashtra,Kalyan,"Khadakpada, Kalyan - MPCB",27-09-2025 07:00:00,19.25292,73.142019,PM10,50,147,96
India,Maharashtra,Kalyan,"Khadakpada, Kalyan - MPCB",27-09-2025 07:00:00,19.25292,73.142019,OZONE,16,16,16
India,Maharashtra,Latur,"Sawe Wadi, Latur - MPCB",27-09-2025 07:00:00,18.39963,76.57452,NO2,4,24,10
India,Maharashtra,Latur,"Sawe Wadi, Latur - MPCB",27-09-2025 07:00:00,18.39963,76.57452,CO,4,20,9
India,Maharashtra,Latur,"Sawe Wadi, Latur - MPCB",27-09-2025 07:00:00,18.39963,76.57452,OZONE,16,55,39
India,Maharashtra,Mahad,"Kamble Tarf Birwadi, Mahad - MPCB",27-09-2025 07:00:00,18.1023399,73.4783687,PM10,19,59,36
India,Maharashtra,Belapur,"CBD Belapur, Belapur - MPCB",27-09-2025 07:00:00,19.0243902,73.0406721,NO2,3,10,6
India,Maharashtra,Belapur,"CBD Belapur, Belapur - MPCB",27-09-2025 07:00:00,19.0243902,73.0406721,SO2,1,9,6
India,Maharashtra,Bhiwandi,"Gokul Nagar, Bhiwandi - MPCB",27-09-2025 07:00:00,19.309073,73.057223,SO2,7,23,14
India,Maharashtra,Chandrapur,"MIDC Khutala, Chandrapur - MPCB",27-09-2025 07:00:00,19.9775302,79.2337086,PM10,20,108,61
India,Maharashtra,Kolhapur,"Sinchan Bhavan, Kolhapur - MPCB",27-09-2025 07:00:00,16.7143745,74.2426398,OZONE,5,28,14
India,Maharashtra,Belapur,"CBD Belapur, Belapur - MPCB",27-09-2025 07:00:00,19.0243902,73.0406721,PM2.5,22,37,28
India,Maharashtra,Mumbai,"Kandivali West, Mumbai - BMC",27-09-2025 07:00:00,19.215859,72.831718,CO,4,62,33
India,Maharashtra,Mumbai,"Kherwadi_Bandra East, Mumbai - MPCB",27-09-2025 07:00:00,19.0632143,72.8456324,PM2.5,11,61,29
India,Maharashtra,Mumbai,"Kherwadi_Bandra East, Mumbai - MPCB",27-09-2025 07:00:00,19.0632143,72.8456324,PM10,29,123,61
India,Maharashtra,Mumbai,"Khindipada-Bhandup West, Mumbai - IITM",27-09-2025 07:00:00,19.1653323,72.922099,NO2,1,18,7
India,Maharashtra,Mumbai,"Kurla, Mumbai - MPCB",27-09-2025 07:00:00,19.0863,72.8888,PM2.5,48,74,62
India,Maharashtra,Mumbai,"Malad West, Mumbai - IITM",27-09-2025 07:00:00,19.19709,72.82204,NO2,NA,NA,NA
India,Maharashtra,Mumbai,"Malad West, Mumbai - IITM",27-09-2025 07:00:00,19.19709,72.82204,NH3,NA,NA,NA
India,Maharashtra,Mumbai,"Mazgaon, Mumbai - IITM",27-09-2025 07:00:00,18.96702,72.84214,PM10,51,84,65
India,Maharashtra,Mumbai,"Mazgaon, Mumbai - IITM",27-09-2025 07:00:00,18.96702,72.84214,NH3,8,20,11
India,Maharashtra,Mumbai,"Chhatrapati Shivaji Intl. Airport (T2), Mumbai - MPCB",27-09-2025 07:00:00,19.10078,72.87462,PM10,65,84,75
India,Maharashtra,Mumbai,"Chhatrapati Shivaji Intl. Airport (T2), Mumbai - MPCB",27-09-2025 07:00:00,19.10078,72.87462,CO,25,32,31
India,Maharashtra,Mumbai,"Colaba, Mumbai - MPCB",27-09-2025 07:00:00,18.910000,72.820000,NH3,3,3,3
India,Maharashtra,Mumbai,"Deonar, Mumbai - IITM",27-09-2025 07:00:00,19.04946,72.9230,PM10,52,138,107
India,Maharashtra,Mumbai,"Ghatkopar, Mumbai - BMC",27-09-2025 07:00:00,19.083694,72.920967,CO,14,35,28
India,Maharashtra,Mumbai,"Kandivali West, Mumbai - BMC",27-09-2025 07:00:00,19.215859,72.831718,PM2.5,13,43,26
India,Maharashtra,Mumbai,"Bandra Kurla Complex, Mumbai - IITM",27-09-2025 07:00:00,19.053536,72.84643,PM2.5,23,72,46
India,Maharashtra,Mumbai,"Bandra Kurla Complex, Mumbai - MPCB",27-09-2025 07:00:00,19.065931,72.862131,PM2.5,4,79,24
India,Maharashtra,Mumbai,"Bandra Kurla Complex, Mumbai - MPCB",27-09-2025 07:00:00,19.065931,72.862131,PM10,11,388,121
India,Maharashtra,Mumbai,"Borivali East, Mumbai - IITM",27-09-2025 07:00:00,19.23241,72.86895,NO2,47,79,58
India,Maharashtra,Mumbai,"Borivali East, Mumbai - IITM",27-09-2025 07:00:00,19.23241,72.86895,CO,45,70,61
India,Maharashtra,Mumbai,"Borivali East, Mumbai - MPCB",27-09-2025 07:00:00,19.2243333,72.8658113,PM2.5,14,44,24
India,Maharashtra,Mumbai,"Byculla, Mumbai - BMC",27-09-2025 07:00:00,18.9767,72.8380,PM2.5,14,54,36
India,Maharashtra,Mumbai,"Sion, Mumbai - MPCB",27-09-2025 07:00:00,19.047000,72.874600,SO2,9,10,10
India,Maharashtra,Mumbai,"Vasai West, Mumbai - MPCB",27-09-2025 07:00:00,19.383200,72.820400,CO,51,62,61
India,Maharashtra,Mumbai,"Vasai West, Mumbai - MPCB",27-09-2025 07:00:00,19.383200,72.820400,OZONE,11,17,12
India,Maharashtra,Mumbai,"Mindspace-Malad West, Mumbai - MPCB",27-09-2025 07:00:00,19.1878657,72.8304069,CO,29,31,30
India,Maharashtra,Mumbai,"Mulund West, Mumbai - MPCB",27-09-2025 07:00:00,19.1750,72.9419,NH3,4,4,4
India,Maharashtra,Mumbai,"Shivaji Nagar, Mumbai - BMC",27-09-2025 07:00:00,19.060498,72.923356,PM2.5,28,71,44
India,Maharashtra,Mumbai,"Shivaji Nagar, Mumbai - BMC",27-09-2025 07:00:00,19.060498,72.923356,PM10,31,114,78
India,Maharashtra,Mumbai,"Shivaji Nagar, Mumbai - BMC",27-09-2025 07:00:00,19.060498,72.923356,NH3,3,4,3
India,Maharashtra,Mumbai,"Vile Parle West, Mumbai - MPCB",27-09-2025 07:00:00,19.10861,72.83622,OZONE,9,27,26
India,Maharashtra,Mumbai,"Worli, Mumbai - MPCB",27-09-2025 07:00:00,18.9936162,72.8128113,PM2.5,57,63,60
India,Maharashtra,Mumbai,"Mazgaon, Mumbai - IITM",27-09-2025 07:00:00,18.96702,72.84214,CO,4,93,6
India,Maharashtra,Pune,"Panchawati_Pashan, Pune - IITM",27-09-2025 07:00:00,18.536457,73.805454,CO,5,44,38
India,Maharashtra,Pune,"Revenue Colony-Shivajinagar, Pune - IITM",27-09-2025 07:00:00,18.530085,73.849598,CO,119,200,106
India,Maharashtra,Pune,"Savitribai Phule Pune University, Pune - MPCB",27-09-2025 07:00:00,18.547056,73.826908,PM2.5,26,44,37
India,Maharashtra,Pune,"Transport Nagar-Nigdi, Pune - IITM",27-09-2025 07:00:00,18.664282,73.763966,PM10,NA,NA,NA
India,Maharashtra,Sangli,"Vijay Nagar, Sangli - MPCB",27-09-2025 07:00:00, 16.5038,74.3623,PM10,27,66,43
India,Maharashtra,Sangli,"Vijay Nagar, Sangli - MPCB",27-09-2025 07:00:00, 16.5038,74.3623,NO2,3,18,9
India,Maharashtra,Sangli,"Vijay Nagar, Sangli - MPCB",27-09-2025 07:00:00, 16.5038,74.3623,SO2,4,8,6
India,Maharashtra,Sangli,"Vijay Nagar, Sangli - MPCB",27-09-2025 07:00:00, 16.5038,74.3623,OZONE,11,22,17
India,Maharashtra,Solapur,"Dnyaneshwar Nagar, Solapur - MPCB",27-09-2025 07:00:00,17.6336264,75.9132495,NO2,1,13,7
India,Maharashtra,Pimpri-Chinchwad,"Savta Mali Nagar, Pimpri-Chinchwad - IITM",27-09-2025 07:00:00,18.614767,73.799516,OZONE,5,27,16
India,Maharashtra,Pimpri-Chinchwad,"Thergaon, Pimpri Chinchwad - MPCB",27-09-2025 07:00:00,18.616318,73.765797,OZONE,6,22,13
India,Maharashtra,Pune,"Bhumkar Nagar, Pune - IITM",27-09-2025 07:00:00,18.605770,73.749976,OZONE,7,22,14
India,Maharashtra,Pune,"Katraj Dairy, Pune - MPCB",27-09-2025 07:00:00,18.454450,73.854155,NH3,1,5,2
India,Maharashtra,Pune,"Katraj Dairy, Pune - MPCB",27-09-2025 07:00:00,18.454450,73.854155,SO2,2,111,36
India,Maharashtra,Pune,"Mhada Colony, Pune - IITM",27-09-2025 07:00:00,18.573040,73.927715,PM2.5,34,62,49
India,Maharashtra,Pune,"Mhada Colony, Pune - IITM",27-09-2025 07:00:00,18.573040,73.927715,PM10,58,89,71
India,Maharashtra,Mumbai,"Worli, Mumbai - MPCB",27-09-2025 07:00:00,18.9936162,72.8128113,PM10,57,82,69
India,Maharashtra,Mumbai,"Worli, Mumbai - MPCB",27-09-2025 07:00:00,18.9936162,72.8128113,NH3,1,2,1
India,Maharashtra,Nagpur,"Ambazari, Nagpur - MPCB",27-09-2025 07:00:00,21.121801,79.04952,PM2.5,16,65,40
India,Maharashtra,Nagpur,"Mahal, Nagpur - MPCB",27-09-2025 07:00:00,21.14472,79.107595,PM10,30,77,55
India,Maharashtra,Nagpur,"Mahal, Nagpur - MPCB",27-09-2025 07:00:00,21.14472,79.107595,OZONE,1,24,2
India,Maharashtra,Nagpur,"Opp GPO Civil Lines, Nagpur - MPCB",27-09-2025 07:00:00,21.152875,79.0517531,PM10,24,65,45
India,Maharashtra,Nagpur,"Opp GPO Civil Lines, Nagpur - MPCB",27-09-2025 07:00:00,21.152875,79.0517531,CO,14,48,25
India,Maharashtra,Navi Mumbai,"Sector-2E Kalamboli, Navi Mumbai - MPCB",27-09-2025 07:00:00,19.02579,73.10297,SO2,2,92,8
India,Maharashtra,Navi Mumbai,"Sector-2E Kalamboli, Navi Mumbai - MPCB",27-09-2025 07:00:00,19.02579,73.10297,CO,1,18,7
India,Maharashtra,Navi Mumbai,"Tondare-Taloja, Navi Mumbai - MPCB",27-09-2025 07:00:00,19.0630,73.1209,OZONE,6,10,7
India,Maharashtra,Parbhani,"Masoom Colony, Parbhani - MPCB",27-09-2025 07:00:00,19.265594,76.761463,PM2.5,29,83,47
India,Maharashtra,Pimpri-Chinchwad,"Savta Mali Nagar, Pimpri-Chinchwad - IITM",27-09-2025 07:00:00,18.614767,73.799516,NO2,25,48,34
India,Maharashtra,Nagpur,"Ram Nagar, Nagpur - MPCB",27-09-2025 07:00:00,21.143383,79.048912,NO2,16,16,16
India,Maharashtra,Nashik,"Gangapur Road, Nashik - MPCB",27-09-2025 07:00:00,20.0073285,73.7762427,PM2.5,6,37,25
India,Maharashtra,Nashik,"Gangapur Road, Nashik - MPCB",27-09-2025 07:00:00,20.0073285,73.7762427,NO2,5,5,5
India,Maharashtra,Nashik,"Gangapur Road, Nashik - MPCB",27-09-2025 07:00:00,20.0073285,73.7762427,OZONE,12,14,13
India,Maharashtra,Nashik,"MIDC Ambad, Nashik - MPCB",27-09-2025 07:00:00,19.950220,73.731480,NO2,4,20,12
India,Maharashtra,Nashik,"MIDC Ambad, Nashik - MPCB",27-09-2025 07:00:00,19.950220,73.731480,SO2,9,12,10
India,Maharashtra,Nashik,"MIDC Ambad, Nashik - MPCB",27-09-2025 07:00:00,19.950220,73.731480,OZONE,14,35,22
India,Maharashtra,Thane,"Upvan Fort, Thane - MPCB",27-09-2025 07:00:00,19.222279,72.957979,CO,20,70,49
India,Maharashtra,Ulhasnagar,"Sidhi Vinayak Nagar, Ulhasnagar - MPCB",27-09-2025 07:00:00,19.235581,73.159121,NH3,3,6,4
India,Maharashtra,Ulhasnagar,"Sidhi Vinayak Nagar, Ulhasnagar - MPCB",27-09-2025 07:00:00,19.235581,73.159121,CO,17,42,36
India,Maharashtra,Navi Mumbai,"Mahape, Navi Mumbai - MPCB",27-09-2025 07:00:00,19.1135051,73.008978,PM2.5,7,18,14
India,Maharashtra,Navi Mumbai,"Sector-2E Kalamboli, Navi Mumbai - MPCB",27-09-2025 07:00:00,19.02579,73.10297,NO2,20,100,37
India,Maharashtra,Virar,"Bolinj, Virar - MPCB",27-09-2025 07:00:00,19.4458210,72.7988231,SO2,NA,NA,NA
India,Maharashtra,Virar,"Bolinj, Virar - MPCB",27-09-2025 07:00:00,19.4458210,72.7988231,CO,18,114,61
India,Maharashtra,Virar,"Bolinj, Virar - MPCB",27-09-2025 07:00:00,19.4458210,72.7988231,OZONE,1,23,7
India,Maharashtra,Solapur,"Ratandeep Housing Society, Solapur - MPCB",27-09-2025 07:00:00,17.65439,75.90649,NH3,2,7,4
India,Odisha,Tensa,"Barsua Iron Ore Mines, Tensa - OSPCB",27-09-2025 07:00:00,21.869985,85.167016,NO2,NA,NA,NA
India,Odisha,Tensa,"Barsua Iron Ore Mines, Tensa - OSPCB",27-09-2025 07:00:00,21.869985,85.167016,NH3,NA,NA,NA
India,Punjab,Bathinda,"Hardev Nagar, Bathinda - PPCB",27-09-2025 07:00:00,30.233011,74.907758,PM2.5,9,46,23
India,Punjab,Bathinda,"Hardev Nagar, Bathinda - PPCB",27-09-2025 07:00:00,30.233011,74.907758,SO2,2,21,11
India,Punjab,Bathinda,"Hardev Nagar, Bathinda - PPCB",27-09-2025 07:00:00,30.233011,74.907758,CO,1,48,11
India,Punjab,Jalandhar,"Civil Line, Jalandhar - PPCB",27-09-2025 07:00:00,31.321907,75.578914,PM10,31,117,91
India,Punjab,Jalandhar,"Civil Line, Jalandhar - PPCB",27-09-2025 07:00:00,31.321907,75.578914,NO2,27,32,30
India,Punjab,Jalandhar,"Civil Line, Jalandhar - PPCB",27-09-2025 07:00:00,31.321907,75.578914,OZONE,43,50,47
India,Punjab,Khanna,"Kalal Majra, Khanna - PPCB",27-09-2025 07:00:00,30.736056 ,76.209694,OZONE,24,29,25
India,Punjab,Ludhiana,"Punjab Agricultural University, Ludhiana - PPCB",27-09-2025 07:00:00,30.9028,75.8086,SO2,1,135,25
India,Punjab,Ludhiana,"Punjab Agricultural University, Ludhiana - PPCB",27-09-2025 07:00:00,30.9028,75.8086,OZONE,42,84,49
India,Punjab,Mandi Gobindgarh,"RIMT University, Mandi Gobindgarh - PPCB",27-09-2025 07:00:00,30.649961,76.331442,NO2,23,24,24
India,Punjab,Mandi Gobindgarh,"RIMT University, Mandi Gobindgarh - PPCB",27-09-2025 07:00:00,30.649961,76.331442,NH3,6,6,6
India,Punjab,Patiala,"Model Town, Patiala - PPCB",27-09-2025 07:00:00,30.349388,76.366642,PM10,52,114,84
India,Punjab,Rupnagar,"Ratanpura, Rupnagar - Ambuja Cements",27-09-2025 07:00:00,31.0325454,76.5623046,PM2.5,32,184,64
India,Punjab,Rupnagar,"Ratanpura, Rupnagar - Ambuja Cements",27-09-2025 07:00:00,31.0325454,76.5623046,SO2,7,10,9
India,Rajasthan,Ajmer,"Civil Lines,  Ajmer - RSPCB",27-09-2025 07:00:00,26.470859,74.646594,PM2.5,35,65,49
India,Rajasthan,Ajmer,"Civil Lines,  Ajmer - RSPCB",27-09-2025 07:00:00,26.470859,74.646594,NO2,7,8,8
India,Rajasthan,Ajmer,"Civil Lines,  Ajmer - RSPCB",27-09-2025 07:00:00,26.470859,74.646594,CO,10,72,44
India,Rajasthan,Ajmer,"Civil Lines,  Ajmer - RSPCB",27-09-2025 07:00:00,26.470859,74.646594,OZONE,4,284,8
India,Odisha,Nayagarh,"Dabuna, Nayagarh - OSPCB",27-09-2025 07:00:00,21.847279,85.416905,CO,12,29,14
India,Odisha,Rairangpur,"Divisional Forest Office, Rairangpur - OSPCB",27-09-2025 07:00:00,22.265816,86.174829,PM2.5,26,51,32
India,Odisha,Rairangpur,"Divisional Forest Office, Rairangpur - OSPCB",27-09-2025 07:00:00,22.265816,86.174829,NH3,3,4,3
India,Odisha,Rourkela,"Raghunathpali, Rourkela - OSPCB",27-09-2025 07:00:00,22.220833,84.809444,PM10,9,67,27
India,Odisha,Rourkela,"Raghunathpali, Rourkela - OSPCB",27-09-2025 07:00:00,22.220833,84.809444,OZONE,NA,NA,NA
India,Odisha,Talcher,"Talcher Coalfields,Talcher - OSPCB",27-09-2025 07:00:00,20.9360711,85.1707021,SO2,2,10,5
India,Odisha,Tensa,"Barsua Iron Ore Mines, Tensa - OSPCB",27-09-2025 07:00:00,21.869985,85.167016,PM10,NA,NA,NA
India,Rajasthan,Banswara,"Rati Talai, Banswara - RSPCB",27-09-2025 07:00:00,23.555190,74.440010,PM2.5,13,93,56
India,Rajasthan,Banswara,"Rati Talai, Banswara - RSPCB",27-09-2025 07:00:00,23.555190,74.440010,CO,1,101,1
India,Rajasthan,Banswara,"Rati Talai, Banswara - RSPCB",27-09-2025 07:00:00,23.555190,74.440010,OZONE,1,57,12
India,Rajasthan,Baran,"Bamboliya, Baran - RSPCB",27-09-2025 07:00:00,25.106006,76.469948,NH3,5,8,6
India,Rajasthan,Baran,"Bamboliya, Baran - RSPCB",27-09-2025 07:00:00,25.106006,76.469948,CO,15,52,21
India,Rajasthan,Barmer,"Railway Colony, Barmer - RSPCB",27-09-2025 07:00:00,25.747299,71.393989,PM10,58,137,77
India,Rajasthan,Barmer,"Railway Colony, Barmer - RSPCB",27-09-2025 07:00:00,25.747299,71.393989,SO2,3,5,4
India,Odisha,Balasore,"Kalidaspur, Balasore - OSPCB",27-09-2025 07:00:00,21.51161,86.89088,PM2.5,2,38,15
India,Odisha,Balasore,"Kalidaspur, Balasore - OSPCB",27-09-2025 07:00:00,21.51161,86.89088,NH3,1,2,2
India,Odisha,Barbil,"Forest Office, Barbil - OSPCB",27-09-2025 07:00:00,22.1166054,85.3945546,PM2.5,2,87,24
India,Odisha,Baripada,"Meher Colony, Baripada - OSPCB",27-09-2025 07:00:00,21.941841,86.728318,SO2,3,8,6
India,Odisha,Bhubaneswar,"Lingraj Mandir, Bhubaneswar - OSPCB",27-09-2025 07:00:00,20.240790,85.836784,PM2.5,3,40,13
India,Odisha,Brajrajnagar,"GM Office, Brajrajnagar - OSPCB",27-09-2025 07:00:00,21.8004996,83.8396977,PM2.5,2,56,14
India,Odisha,Brajrajnagar,"GM Office, Brajrajnagar - OSPCB",27-09-2025 07:00:00,21.8004996,83.8396977,NO2,14,22,17
India,Odisha,Cuttack,"CDA Area, Cuttack - OSPCB",27-09-2025 07:00:00,20.48891     ,85.84768     ,OZONE,8,22,17
India,Odisha,Keonjhar,"Jagamohanpur, Keonjhar - OSPCB",27-09-2025 07:00:00,21.643900,85.599355,SO2,5,9,6
India,Rajasthan,Bharatpur,"Krishna Nagar, Bharatpur - RSPCB",27-09-2025 07:00:00,27.215415,77.50873,CO,12,34,28
India,Rajasthan,Bhilwara,"Pratap Nagar, Bhilwara - RSPCB",27-09-2025 07:00:00,25.339605,74.618883,NH3,1,33,3
India,Meghalaya,Shillong,"JN Stadium, Shillong - Meghalaya PCB",27-09-2025 07:00:00,25.5803419,91.8942571,NO2,4,11,7
India,Odisha,Angul,"Hakimapada, Angul - OSPCB",27-09-2025 07:00:00,20.832874,85.104082,NO2,6,16,8
India,Rajasthan,Jaipur,"Shastri Nagar, Jaipur - RSPCB",27-09-2025 07:00:00,26.9502929,75.730943,NO2,52,83,66
India,Rajasthan,Jaisalmer,"Sadar Bazar, Jaisalmer - RSPCB",27-09-2025 07:00:00,26.912329,70.909168,NO2,4,80,16
India,Rajasthan,Jalore,"Mudtra Sili, Jalore - RSPCB",27-09-2025 07:00:00,25.344694,72.626208,OZONE,1,59,10
India,Rajasthan,Jhalawar,"Rajlaxmi Nagar, Jhalawar - RSPCB",27-09-2025 07:00:00,24.588397,76.172782,PM10,25,60,42
India,Rajasthan,Jhunjhunu,"Indra Nagar, Jhunjhunu - RSPCB",27-09-2025 07:00:00,28.108988,75.386577,NO2,2,35,16
India,Rajasthan,Jhunjhunu,"Indra Nagar, Jhunjhunu - RSPCB",27-09-2025 07:00:00,28.108988,75.386577,OZONE,5,70,13
India,Rajasthan,Jaipur,"Adarsh Nagar, Jaipur - RSPCB",27-09-2025 07:00:00,26.902909,75.836858,CO,38,96,50
India,Rajasthan,Jaipur,"Mansarovar Sector-12, Jaipur - RSPCB",27-09-2025 07:00:00,26.843698,75.766894,SO2,1,4,2
India,Rajasthan,Jaipur,"RIICO Sitapura, Jaipur - RSPCB",27-09-2025 07:00:00,26.786682,75.827928,PM2.5,22,147,54
India,Rajasthan,Jaipur,"Sector-2 Murlipura, Jaipur - RSPCB",27-09-2025 07:00:00,26.960669,75.771817,SO2,4,26,10
India,Rajasthan,Jodhpur,"Mandor, Jodhpur - RSPCB",27-09-2025 07:00:00,26.358805,73.047444,OZONE,41,80,54
India,Rajasthan,Jodhpur,"Samrat Ashok Udhyan, Jodhpur - RSPCB",27-09-2025 07:00:00,26.253384,72.976571,PM2.5,13,60,27
India,Rajasthan,Jodhpur,"Samrat Ashok Udhyan, Jodhpur - RSPCB",27-09-2025 07:00:00,26.253384,72.976571,CO,16,32,24
India,Rajasthan,Karauli,"Satyawati Vihar, Karauli - RSPCB",27-09-2025 07:00:00,26.506177,77.025989,CO,20,32,24
India,Rajasthan,Jodhpur,"Jhalamand, Jodhpur - RSPCB",27-09-2025 07:00:00,26.215415,73.070156,SO2,2,4,3
India,Rajasthan,Jodhpur,"Jhalamand, Jodhpur - RSPCB",27-09-2025 07:00:00,26.215415,73.070156,CO,6,42,27
India,Rajasthan,Jodhpur,"Jhalamand, Jodhpur - RSPCB",27-09-2025 07:00:00,26.215415,73.070156,OZONE,6,83,8
India,Rajasthan,Jodhpur,"Mandor, Jodhpur - RSPCB",27-09-2025 07:00:00,26.358805,73.047444,PM2.5,13,38,28
India,Rajasthan,Jodhpur,"Collectorate, Jodhpur - RSPCB",27-09-2025 07:00:00,26.268249,73.0193853,SO2,1,13,8
India,Rajasthan,Jodhpur,"Collectorate, Jodhpur - RSPCB",27-09-2025 07:00:00,26.268249,73.0193853,OZONE,9,26,15
India,Rajasthan,Jodhpur,"Digari Kalan, Jodhpur - RSPCB",27-09-2025 07:00:00,26.295810,73.082283,NH3,1,5,3
India,Rajasthan,Dungarpur,"Bhoiwada, Dungarpur - RSPCB",27-09-2025 07:00:00,23.837789,73.714926,NO2,5,41,12
India,Rajasthan,Hanumangarh,"Housing Board, Hanumangarh - RSPCB",27-09-2025 07:00:00,29.610750,74.283608,NO2,8,40,17
India,Rajasthan,Hanumangarh,"Housing Board, Hanumangarh - RSPCB",27-09-2025 07:00:00,29.610750,74.283608,NH3,6,15,10
India,Rajasthan,Bundi,"New Colony, Bundi - RSPCB",27-09-2025 07:00:00,25.435774,75.644272,CO,15,57,19
India,Rajasthan,Chittorgarh,"Shastri Nagar, Chittorgarh - RSPCB",27-09-2025 07:00:00,24.892047,74.623527,NO2,9,61,24
India,Rajasthan,Bikaner,"MM Ground, Bikaner - RSPCB",27-09-2025 07:00:00,28.018792,73.292658,OZONE,20,80,40
India,Rajasthan,Bundi,"New Colony, Bundi - RSPCB",27-09-2025 07:00:00,25.435774,75.644272,PM10,48,103,65
India,Rajasthan,Bhilwara,"Pratap Nagar, Bhilwara - RSPCB",27-09-2025 07:00:00,25.339605,74.618883,OZONE,17,46,27
India,Rajasthan,Bhiwadi,"Vasundhara Nagar_UIT, Bhiwadi - RSPCB",27-09-2025 07:00:00,28.207266,76.829265,OZONE,16,65,22
India,Rajasthan,Udaipur,"Ashok Nagar, Udaipur - RSPCB",27-09-2025 07:00:00,24.5886166,73.6321397,NH3,2,9,4
India,Sikkim,Gangtok,"Zero Point GICI, Gangtok - SSPCB",27-09-2025 07:00:00,27.338530,88.614099,PM10,6,122,20
India,Sikkim,Gangtok,"Zero Point GICI, Gangtok - SSPCB",27-09-2025 07:00:00,27.338530,88.614099,NO2,1,3,1
India,Sikkim,Gangtok,"Zero Point GICI, Gangtok - SSPCB",27-09-2025 07:00:00,27.338530,88.614099,SO2,1,1,1
India,Sikkim,Gangtok,"Zero Point GICI, Gangtok - SSPCB",27-09-2025 07:00:00,27.338530,88.614099,CO,1,12,3
India,TamilNadu,Ariyalur,"Keelapalur, Ariyalur - TNPCB",27-09-2025 07:00:00,11.06825,79.07033,PM10,37,60,46
India,TamilNadu,Ariyalur,"Keelapalur, Ariyalur - TNPCB",27-09-2025 07:00:00,11.06825,79.07033,NO2,9,9,9
India,TamilNadu,Chengalpattu,"Crescent University, Chengalpattu - TNPCB",27-09-2025 07:00:00,12.8777316,80.0834807,NH3,NA,NA,NA
India,TamilNadu,Chennai,"Alandur Bus Depot, Chennai - CPCB",27-09-2025 07:00:00,12.9099161,80.1076538,NO2,25,25,25
India,Rajasthan,Sikar,"Radhakishan Pura, Sikar - RSPCB",27-09-2025 07:00:00,27.608912,75.153302,SO2,2,6,4
India,Rajasthan,Sikar,"Radhakishan Pura, Sikar - RSPCB",27-09-2025 07:00:00,27.608912,75.153302,CO,12,43,24
India,Rajasthan,Sirohi,"Vedhaynath Colony, Sirohi - RSPCB",27-09-2025 07:00:00,24.885261,72.857549,PM10,54,137,79
India,Rajasthan,Sri Ganganagar,"Old City, Sri Ganganagar - RSPCB",27-09-2025 07:00:00,29.931624,73.864511,PM10,50,111,76
India,Rajasthan,Sri Ganganagar,"Old City, Sri Ganganagar - RSPCB",27-09-2025 07:00:00,29.931624,73.864511,NO2,1,19,9
India,Rajasthan,Sri Ganganagar,"Old City, Sri Ganganagar - RSPCB",27-09-2025 07:00:00,29.931624,73.864511,OZONE,4,165,24
India,Rajasthan,Tonk,"Shastri Nagar, Tonk - RSPCB",27-09-2025 07:00:00,26.159933,75.780517,PM10,101,167,120
India,Rajasthan,Udaipur,"Ashok Nagar, Udaipur - RSPCB",27-09-2025 07:00:00,24.5886166,73.6321397,PM2.5,27,78,52
India,TamilNadu,Gummidipoondi,"Anthoni Pillai Nagar, Gummidipoondi - TNPCB",27-09-2025 07:00:00,13.4127,80.1081,SO2,12,127,37
India,TamilNadu,Kanchipuram,"Kilambi, Kanchipuram - TNPCB",27-09-2025 07:00:00,12.864618,79.659968,SO2,NA,NA,NA
India,TamilNadu,Karur,"Kamadenu Nagar, Karur - TNPCB",27-09-2025 07:00:00,10.967820,78.080882,PM10,12,55,26
India,TamilNadu,Karur,"Kamadenu Nagar, Karur - TNPCB",27-09-2025 07:00:00,10.967820,78.080882,NO2,5,6,6
India,TamilNadu,Madurai,"Uchapatti, Madurai - TNPCB",27-09-2025 07:00:00,9.865935,78.022669,PM10,16,96,41
India,TamilNadu,Chennai,"Velachery Res. Area, Chennai - CPCB",27-09-2025 07:00:00,13.0052189,80.2398125,CO,48,66,63
India,TamilNadu,Chennai,"Velachery Res. Area, Chennai - CPCB",27-09-2025 07:00:00,13.0052189,80.2398125,OZONE,6,12,7
India,TamilNadu,Coimbatore,"PSG College of Arts and Science, Coimbatore - TNPCB",27-09-2025 07:00:00,11.0328,77.0349,PM2.5,22,187,80
India,TamilNadu,Coimbatore,"SIDCO Kurichi, Coimbatore - TNPCB",27-09-2025 07:00:00,10.942451,76.978996,PM10,NA,NA,NA
India,TamilNadu,Coimbatore,"SIDCO Kurichi, Coimbatore - TNPCB",27-09-2025 07:00:00,10.942451,76.978996,NO2,12,17,15
India,Rajasthan,Pratapgarh,"Pragati Nagar, Pratapgarh - RSPCB",27-09-2025 07:00:00,24.041198,74.780702,PM10,40,82,64
India,Rajasthan,Pratapgarh,"Pragati Nagar, Pratapgarh - RSPCB",27-09-2025 07:00:00,24.041198,74.780702,NH3,3,7,4
India,Rajasthan,Pratapgarh,"Pragati Nagar, Pratapgarh - RSPCB",27-09-2025 07:00:00,24.041198,74.780702,SO2,2,4,2
India,Rajasthan,Pratapgarh,"Pragati Nagar, Pratapgarh - RSPCB",27-09-2025 07:00:00,24.041198,74.780702,OZONE,2,86,32
India,Rajasthan,Rajsamand,"Dhoinda, Rajsamand - RSPCB",27-09-2025 07:00:00,25.036360,73.883502,OZONE,40,109,76
India,Rajasthan,Nagaur,"Karni Colony, Nagaur - RSPCB",27-09-2025 07:00:00,27.213494,73.734444,NH3,3,8,6
India,Rajasthan,Pali,"Indira Colony Vistar, Pali - RSPCB",27-09-2025 07:00:00,25.771061, 73.340227,PM10,40,159,107
India,Rajasthan,Pali,"Indira Colony Vistar, Pali - RSPCB",27-09-2025 07:00:00,25.771061, 73.340227,NH3,7,25,19
India,TamilNadu,Chennai,"Manali Village, Chennai - TNPCB",27-09-2025 07:00:00,13.1662,80.2584,NO2,3,9,6
India,TamilNadu,Chennai,"Manali Village, Chennai - TNPCB",27-09-2025 07:00:00,13.1662,80.2584,SO2,15,21,18
India,TamilNadu,Chennai,"Perungudi, Chennai - TNPCB",27-09-2025 07:00:00,12.9533,80.2357,OZONE,1,5,1
India,Rajasthan,Kota,"Shrinath Puram, Kota - RSPCB",27-09-2025 07:00:00,25.14389,75.821256,NH3,1,6,2
India,Rajasthan,Nagaur,"Karni Colony, Nagaur - RSPCB",27-09-2025 07:00:00,27.213494,73.734444,PM2.5,7,46,19
India,Rajasthan,Kota,"Nayapura, Kota - RSPCB",27-09-2025 07:00:00,25.196024,75.855668,PM2.5,8,63,29
India,Rajasthan,Kota,"Nayapura, Kota - RSPCB",27-09-2025 07:00:00,25.196024,75.855668,NH3,4,7,5
India,Telangana,Hyderabad,"Sanathnagar, Hyderabad - TSPCB",27-09-2025 07:00:00,17.4559458,78.4332152,OZONE,12,16,13
India,Telangana,Hyderabad,"Somajiguda, Hyderabad - TSPCB",27-09-2025 07:00:00,17.417094,78.457437,PM10,58,143,94
India,Telangana,Hyderabad,"Somajiguda, Hyderabad - TSPCB",27-09-2025 07:00:00,17.417094,78.457437,NH3,5,5,5
India,Telangana,Hyderabad,"Somajiguda, Hyderabad - TSPCB",27-09-2025 07:00:00,17.417094,78.457437,CO,8,24,12
India,Telangana,Hyderabad,"Somajiguda, Hyderabad - TSPCB",27-09-2025 07:00:00,17.417094,78.457437,OZONE,23,69,29
India,Telangana,Hyderabad,"Zoo Park, Hyderabad - TSPCB",27-09-2025 07:00:00,17.349694,78.451437,PM2.5,32,133,61
India,Tripura,Agartala,"Bardowali, Agartala - Tripura SPCB",27-09-2025 07:00:00,23.8175497,91.2726974,NO2,4,10,6
India,Tripura,Agartala,"Bardowali, Agartala - Tripura SPCB",27-09-2025 07:00:00,23.8175497,91.2726974,NH3,2,4,3
India,Tripura,Agartala,"Bardowali, Agartala - Tripura SPCB",27-09-2025 07:00:00,23.8175497,91.2726974,SO2,26,27,26
India,Uttar_Pradesh,Agra,"Manoharpur, Agra - UPPCB",27-09-2025 07:00:00,27.23711,78.01936,NH3,1,2,2
India,TamilNadu,Tirunelveli,"Municipal Corporation Office, Tirunelveli - TNPCB",27-09-2025 07:00:00,8.728442,77.6962,CO,40,42,40
India,TamilNadu,Tirupur,"Kumaran College, Tirupur - TNPCB",27-09-2025 07:00:00,11.0973603,77.3228673,PM10,10,33,23
India,TamilNadu,Vellore,"Vasanthapuram, Vellore - TNPCB",27-09-2025 07:00:00,12.909494,79.131861,PM2.5,13,75,35
India,TamilNadu,Vellore,"Vasanthapuram, Vellore - TNPCB",27-09-2025 07:00:00,12.909494,79.131861,PM10,18,92,44
India,TamilNadu,Vellore,"Vasanthapuram, Vellore - TNPCB",27-09-2025 07:00:00,12.909494,79.131861,SO2,11,52,20
India,TamilNadu,Virudhunagar,"Collectorate Office, Virudhunagar - TNPCB",27-09-2025 07:00:00,9.559382,77.948828,NH3,6,7,7
India,TamilNadu,Virudhunagar,"Collectorate Office, Virudhunagar - TNPCB",27-09-2025 07:00:00,9.559382,77.948828,CO,17,20,18
India,Telangana,Hyderabad,"IDA Pashamylaram, Hyderabad - TSPCB",27-09-2025 07:00:00,17.5316895,78.218939,CO,28,50,36
India,Telangana,Hyderabad,"IITH Kandi, Hyderabad - TSPCB",27-09-2025 07:00:00,17.585705,78.126199,PM10,74,74,74
India,Telangana,Hyderabad,"Kokapet, Hyderabad - TSPCB",27-09-2025 07:00:00,17.393559,78.339194,NO2,11,15,13
India,Telangana,Hyderabad,"Kokapet, Hyderabad - TSPCB",27-09-2025 07:00:00,17.393559,78.339194,OZONE,19,26,20
India,Telangana,Hyderabad,"Kompally Municipal Office, Hyderabad - TSPCB",27-09-2025 07:00:00,17.544899,78.486949,PM2.5,49,60,57
India,Telangana,Hyderabad,"Nacharam_TSIIC IALA, Hyderabad - TSPCB",27-09-2025 07:00:00,17.429398,78.569354,PM2.5,42,57,52
India,Telangana,Hyderabad,"Nacharam_TSIIC IALA, Hyderabad - TSPCB",27-09-2025 07:00:00,17.429398,78.569354,OZONE,14,19,15
India,Telangana,Hyderabad,"Bollaram Industrial Area, Hyderabad - TSPCB",27-09-2025 07:00:00,17.540891,78.358528,OZONE,46,55,48
India,Telangana,Hyderabad,"Central University, Hyderabad - TSPCB",27-09-2025 07:00:00,17.460103,78.334361,SO2,4,9,7
India,Telangana,Hyderabad,"ECIL Kapra, Hyderabad - TSPCB",27-09-2025 07:00:00,17.470431,78.566959,SO2,6,19,10
India,TamilNadu,Thanjavur,"Parisutham Nagar, Thanjavur - TNPCB",27-09-2025 07:00:00,10.7654824,79.1389968,CO,6,9,7
India,TamilNadu,Thoothukudi,"Meelavittan, Thoothukudi - TNPCB",27-09-2025 07:00:00,8.816428 ,78.099039,PM10,23,64,39
India,TamilNadu,Thoothukudi,"Meelavittan, Thoothukudi - TNPCB",27-09-2025 07:00:00,8.816428 ,78.099039,NO2,15,24,19
India,TamilNadu,Thoothukudi,"Meelavittan, Thoothukudi - TNPCB",27-09-2025 07:00:00,8.816428 ,78.099039,CO,2,132,37
India,TamilNadu,Tirunelveli,"Municipal Corporation Office, Tirunelveli - TNPCB",27-09-2025 07:00:00,8.728442,77.6962,PM2.5,17,36,28
India,TamilNadu,Namakkal,"Ponnusamy Nagar, Namakkal - TNPCB",27-09-2025 07:00:00,11.273992,78.163545,PM10,NA,NA,NA
India,TamilNadu,Ranipet,"VOC Nagar_SIPCOT, Ranipet - TNPCB",27-09-2025 07:00:00,12.952707,79.30394,NH3,6,8,7
India,TamilNadu,Ooty,"Bombay Castel, Ooty - TNPCB",27-09-2025 07:00:00,11.4068288,76.7138973,NH3,4,16,13
India,Uttar_Pradesh,Bareilly,"Civil Lines, Bareilly - UPPCB",27-09-2025 07:00:00,28.359581,79.414455,NO2,2,2,2
India,Uttar_Pradesh,Bareilly,"Civil Lines, Bareilly - UPPCB",27-09-2025 07:00:00,28.359581,79.414455,CO,9,35,33
India,Uttar_Pradesh,Bareilly,"Rajendra Nagar, Bareilly - UPPCB",27-09-2025 07:00:00,28.38910936,79.42963708,NH3,1,1,1
India,Uttar_Pradesh,Bareilly,"Rajendra Nagar, Bareilly - UPPCB",27-09-2025 07:00:00,28.38910936,79.42963708,CO,59,84,66
India,Uttar_Pradesh,Bareilly,"Rajendra Nagar, Bareilly - UPPCB",27-09-2025 07:00:00,28.38910936,79.42963708,OZONE,1,20,5
India,Uttar_Pradesh,Bulandshahr,"Yamunapuram, Bulandshahr - UPPCB",27-09-2025 07:00:00,28.406963,77.849831,PM2.5,50,142,74
India,Uttar_Pradesh,Bulandshahr,"Yamunapuram, Bulandshahr - UPPCB",27-09-2025 07:00:00,28.406963,77.849831,PM10,98,160,133
India,Uttar_Pradesh,Bulandshahr,"Yamunapuram, Bulandshahr - UPPCB",27-09-2025 07:00:00,28.406963,77.849831,NO2,20,66,41
India,Uttar_Pradesh,Firozabad,"Nagla Bhau, Firozabad - UPPCB",27-09-2025 07:00:00,27.168897,78.376960,PM10,40,70,51
India,Uttar_Pradesh,Firozabad,"Nagla Bhau, Firozabad - UPPCB",27-09-2025 07:00:00,27.168897,78.376960,NH3,2,2,2
India,Uttar_Pradesh,Agra,"Manoharpur, Agra - UPPCB",27-09-2025 07:00:00,27.23711,78.01936,OZONE,8,8,8
India,Uttar_Pradesh,Agra,"Sector-3B Avas Vikas Colony, Agra - UPPCB",27-09-2025 07:00:00,27.19412,77.96237,CO,23,36,32
India,Uttar_Pradesh,Agra,"Shahjahan Garden, Agra - UPPCB",27-09-2025 07:00:00,27.169338,78.03582,PM2.5,43,261,93
India,Uttar_Pradesh,Agra,"Shastripuram, Agra - UPPCB",27-09-2025 07:00:00,27.19862,77.92066,CO,15,21,17
India,Uttar_Pradesh,Firozabad,"Nagla Bhau, Firozabad - UPPCB",27-09-2025 07:00:00,27.168897,78.376960,OZONE,12,20,15
India,Uttar_Pradesh,Firozabad,"Vibhab Nagar, Firozabad - UPPCB",27-09-2025 07:00:00,27.1594,78.3953,PM10,50,85,67
India,Uttar_Pradesh,Firozabad,"Vibhab Nagar, Firozabad - UPPCB",27-09-2025 07:00:00,27.1594,78.3953,NH3,2,2,2
India,Uttar_Pradesh,Ghaziabad,"Indirapuram, Ghaziabad - UPPCB",27-09-2025 07:00:00,28.646233,77.358075,PM2.5,47,127,77
India,Uttar_Pradesh,Hapur,"Anand Vihar, Hapur - UPPCB",27-09-2025 07:00:00,28.725645,77.749675,PM10,89,129,114
India,Uttar_Pradesh,Jhansi,"Shivaji Nagar, Jhansi - UPPCB",27-09-2025 07:00:00,25.4547,78.6039,NH3,4,4,4
India,Uttar_Pradesh,Jhansi,"Shivaji Nagar, Jhansi - UPPCB",27-09-2025 07:00:00,25.4547,78.6039,SO2,6,14,9
India,Uttar_Pradesh,Jhansi,"Shivaji Nagar, Jhansi - UPPCB",27-09-2025 07:00:00,25.4547,78.6039,OZONE,2,22,7
India,Uttar_Pradesh,Greater Noida,"Knowledge Park - III, Greater Noida - UPPCB",27-09-2025 07:00:00,28.47272,77.482000,PM10,128,211,163
India,Uttar_Pradesh,Greater Noida,"Knowledge Park - V, Greater Noida - UPPCB",27-09-2025 07:00:00,28.557054,77.453663,PM2.5,54,126,77
India,Uttar_Pradesh,Gorakhpur,"Madan Mohan Malaviya University of Technology, Gorakhpur - UPPCB",27-09-2025 07:00:00,26.730136,83.433859,OZONE,1,16,8
India,Uttar_Pradesh,Ghaziabad,"Sanjay Nagar, Ghaziabad - UPPCB",27-09-2025 07:00:00,28.685382,77.453839,NO2,22,51,36
India,Uttar_Pradesh,Ghaziabad,"Vasundhara, Ghaziabad - UPPCB",27-09-2025 07:00:00,28.6603346,77.3572563,OZONE,19,84,27
India,Uttar_Pradesh,Ghaziabad,"Vasundhara, Ghaziabad - UPPCB",27-09-2025 07:00:00,28.6603346,77.3572563,SO2,9,14,11
India,Uttar_Pradesh,Lucknow,"B R Ambedkar University, Lucknow - UPPCB",27-09-2025 07:00:00,26.766433,80.927299,OZONE,31,36,32
India,Uttar_Pradesh,Lucknow,"Gomti Nagar, Lucknow - UPPCB",27-09-2025 07:00:00,26.868120,81.005119,PM10,22,71,50
India,Uttar_Pradesh,Lucknow,"Gomti Nagar, Lucknow - UPPCB",27-09-2025 07:00:00,26.868120,81.005119,NO2,9,11,10
India,Uttar_Pradesh,Lucknow,"Kendriya Vidyalaya, Lucknow - CPCB",27-09-2025 07:00:00,26.906111,80.948222,NO2,25,43,34
India,Uttar_Pradesh,Lucknow,"Kukrail Picnic Spot-1, Lucknow - UPPCB",27-09-2025 07:00:00,26.90723,80.98579,PM2.5,41,64,48
India,Uttar_Pradesh,Lucknow,"Kukrail Picnic Spot-1, Lucknow - UPPCB",27-09-2025 07:00:00,26.90723,80.98579,NH3,4,4,4
India,Uttar_Pradesh,Lucknow,"Lalbagh, Lucknow - CPCB",27-09-2025 07:00:00,26.8458805,80.9365541,SO2,1,15,6
India,Uttar_Pradesh,Lucknow,"Talkatora District Industries Center, Lucknow - CPCB",27-09-2025 07:00:00,26.83399722,80.8917361,PM2.5,52,91,71
India,Uttarakhand,Dehradun,"Doon University, Dehradun - UKPCB",27-09-2025 07:00:00,30.269444,78.044167,PM10,18,91,45
India,Uttarakhand,Kashipur,"Govt. Girls Inter College, Kashipur - UKPCB",27-09-2025 07:00:00,29.2124114,78.9611753,PM10,50,100,70
India,Uttarakhand,Kashipur,"Govt. Girls Inter College, Kashipur - UKPCB",27-09-2025 07:00:00,29.2124114,78.9611753,NH3,1,3,2
India,Uttarakhand,Kashipur,"Govt. Girls Inter College, Kashipur - UKPCB",27-09-2025 07:00:00,29.2124114,78.9611753,SO2,2,9,7
India,West_Bengal,Asansol,"Asansol Court Area, Asansol - WBPCB",27-09-2025 07:00:00,23.685297,86.945968,NO2,19,46,31
India,West_Bengal,Asansol,"Asansol Court Area, Asansol - WBPCB",27-09-2025 07:00:00,23.685297,86.945968,NH3,5,25,10
India,West_Bengal,Asansol,"Evelyn Lodge, Asansol - WBPCB",27-09-2025 07:00:00,23.6979360,86.9443950,SO2,3,4,3
India,Uttar_Pradesh,Kanpur,"FTI Kidwai Nagar, Kanpur - UPPCB",27-09-2025 07:00:00,26.428282,80.327067,NH3,2,2,2
India,Uttar_Pradesh,Kanpur,"FTI Kidwai Nagar, Kanpur - UPPCB",27-09-2025 07:00:00,26.428282,80.327067,CO,46,56,50
India,Uttar_Pradesh,Kanpur,"NSI Kalyanpur, Kanpur - UPPCB",27-09-2025 07:00:00,26.509954,80.249612,NH3,2,2,2
India,Uttar_Pradesh,Kanpur,"NSI Kalyanpur, Kanpur - UPPCB",27-09-2025 07:00:00,26.509954,80.249612,SO2,12,16,14
India,Uttar_Pradesh,Kanpur,"NSI Kalyanpur, Kanpur - UPPCB",27-09-2025 07:00:00,26.509954,80.249612,OZONE,22,26,25
India,Uttar_Pradesh,Kanpur,"Nehru Nagar, Kanpur - UPPCB",27-09-2025 07:00:00,26.4703136,80.3229863,NO2,51,73,61
India,Uttar_Pradesh,Lucknow,"B R Ambedkar University, Lucknow - UPPCB",27-09-2025 07:00:00,26.766433,80.927299,NH3,4,4,4
India,Uttar_Pradesh,Noida,"Sector - 125, Noida - UPPCB",27-09-2025 07:00:00,28.5447608,77.3231257,CO,32,66,43
India,Uttar_Pradesh,Noida,"Sector - 62, Noida - IMD",27-09-2025 07:00:00,28.6245479,77.3577104,PM2.5,27,145,63
India,Uttar_Pradesh,Noida,"Sector - 62, Noida - IMD",27-09-2025 07:00:00,28.6245479,77.3577104,NO2,NA,NA,NA
India,Uttar_Pradesh,Noida,"Sector - 62, Noida - IMD",27-09-2025 07:00:00,28.6245479,77.3577104,CO,18,27,23
India,Uttar_Pradesh,Noida,"Sector-1, Noida - UPPCB",27-09-2025 07:00:00,28.5898,77.3101,OZONE,8,92,26
India,Uttar_Pradesh,Noida,"Sector-116, Noida - UPPCB",27-09-2025 07:00:00,28.569230,77.393848,SO2,9,21,15
India,Uttar_Pradesh,Noida,"Sector-116, Noida - UPPCB",27-09-2025 07:00:00,28.569230,77.393848,CO,26,67,39
India,Uttar_Pradesh,Meerut,"Ganga Nagar, Meerut - UPPCB",27-09-2025 07:00:00,28.999264,77.7590354,NH3,4,6,5
India,Uttar_Pradesh,Meerut,"Ganga Nagar, Meerut - UPPCB",27-09-2025 07:00:00,28.999264,77.7590354,SO2,13,20,15
India,Uttar_Pradesh,Meerut,"Ganga Nagar, Meerut - UPPCB",27-09-2025 07:00:00,28.999264,77.7590354,CO,36,46,42
India,Uttar_Pradesh,Meerut,"Jai Bhim Nagar, Meerut - UPPCB",27-09-2025 07:00:00,28.9535882,77.7622941,NH3,3,6,4
India,Uttar_Pradesh,Meerut,"Jai Bhim Nagar, Meerut - UPPCB",27-09-2025 07:00:00,28.9535882,77.7622941,SO2,11,34,16
India,Uttar_Pradesh,Moradabad,"Buddhi Vihar, Moradabad - UPPCB",27-09-2025 07:00:00,28.83526,78.74460,NH3,5,5,5
India,Uttar_Pradesh,Moradabad,"Buddhi Vihar, Moradabad - UPPCB",27-09-2025 07:00:00,28.83526,78.74460,SO2,28,28,28
India,Uttar_Pradesh,Moradabad,"Employment Office, Moradabad - UPPCB",27-09-2025 07:00:00,28.88528,78.73880,OZONE,15,78,33
India,Uttar_Pradesh,Moradabad,"Jigar Colony, Moradabad - UPPCB",27-09-2025 07:00:00,28.856664,78.772638,NO2,24,25,25
India,Uttar_Pradesh,Moradabad,"Kashiram Nagar, Moradabad - UPPCB",27-09-2025 07:00:00,28.849399,78.742362,NO2,25,25,25
India,Uttar_Pradesh,Moradabad,"Kashiram Nagar, Moradabad - UPPCB",27-09-2025 07:00:00,28.849399,78.742362,SO2,27,50,37
India,Uttar_Pradesh,Moradabad,"Kashiram Nagar, Moradabad - UPPCB",27-09-2025 07:00:00,28.849399,78.742362,CO,21,35,26
India,Uttar_Pradesh,Moradabad,"Kashiram Nagar, Moradabad - UPPCB",27-09-2025 07:00:00,28.849399,78.742362,OZONE,21,26,22
India,Uttar_Pradesh,Muzaffarnagar,"New Mandi, Muzaffarnagar - UPPCB",27-09-2025 07:00:00,29.4723508,77.7194031,PM10,96,139,115
India,Uttar_Pradesh,Muzaffarnagar,"New Mandi, Muzaffarnagar - UPPCB",27-09-2025 07:00:00,29.4723508,77.7194031,NO2,14,39,24
India,Uttar_Pradesh,Muzaffarnagar,"New Mandi, Muzaffarnagar - UPPCB",27-09-2025 07:00:00,29.4723508,77.7194031,SO2,9,40,19
India,Uttar_Pradesh,Varanasi,"Ardhali Bazar, Varanasi - UPPCB",27-09-2025 07:00:00,25.3505986,82.9083074,SO2,NA,NA,NA
India,Uttar_Pradesh,Varanasi,"Bhelupur, Varanasi - UPPCB",27-09-2025 07:00:00,25.301778,82.996789,PM2.5,3,41,19
India,Uttar_Pradesh,Varanasi,"IESD Banaras Hindu University, Varanasi - UPPCB",27-09-2025 07:00:00,25.262326,82.995408,OZONE,8,34,12
India,West_Bengal,Asansol,"Trivenidevi Bhalotia College, Asansol - WBPCB",27-09-2025 07:00:00,23.616515,87.119133,PM10,21,70,41
India,West_Bengal,Asansol,"Trivenidevi Bhalotia College, Asansol - WBPCB",27-09-2025 07:00:00,23.616515,87.119133,OZONE,16,56,29
India,West_Bengal,Barrackpore,"SVSPA Campus, Barrackpore - WBPCB",27-09-2025 07:00:00,22.7605581,88.3617589,SO2,14,14,14
India,West_Bengal,Barrackpore,"SVSPA Campus, Barrackpore - WBPCB",27-09-2025 07:00:00,22.7605581,88.3617589,CO,33,41,36
India,West_Bengal,Durgapur,"Mahishkapur Road_B-Zone, Durgapur - WBPCB",27-09-2025 07:00:00,23.567923,87.306843,PM2.5,2,36,21
India,West_Bengal,Durgapur,"Mahishkapur Road_B-Zone, Durgapur - WBPCB",27-09-2025 07:00:00,23.567923,87.306843,CO,2,36,4
India,West_Bengal,Durgapur,"Womens College_City Center, Durgapur - WBPCB (Formerly known as Sidhu Kanhu Indoor Stadium)",27-09-2025 07:00:00,23.549395,87.300496,SO2,22,33,28
India,West_Bengal,Haldia,"Priyambada Housing Estate, Haldia - WBPCB",27-09-2025 07:00:00,22.06047,88.109737,PM10,11,74,38
India,West_Bengal,Haldia,"Priyambada Housing Estate, Haldia - WBPCB",27-09-2025 07:00:00,22.06047,88.109737,NO2,7,27,10
India,West_Bengal,Howrah,"Botanical Garden, Howrah - WBPCB",27-09-2025 07:00:00,22.554954,88.292568,PM2.5,6,46,28
India,West_Bengal,Howrah,"Dasnagar, Howrah - WBPCB",27-09-2025 07:00:00,22.6025571,88.3105664,PM2.5,13,97,48
India,West_Bengal,Howrah,"Padmapukur, Howrah - WBPCB",27-09-2025 07:00:00,22.5687319,88.2797276,PM10,23,59,36
India,West_Bengal,Kolkata,"Ballygunge, Kolkata - WBPCB",27-09-2025 07:00:00,22.5367507,88.3638022,PM2.5,24,46,30
India,West_Bengal,Kolkata,"Ballygunge, Kolkata - WBPCB",27-09-2025 07:00:00,22.5367507,88.3638022,PM10,24,51,31
India,West_Bengal,Kolkata,"Fort William, Kolkata - WBPCB",27-09-2025 07:00:00,22.556640,88.342674,PM2.5,19,42,26
India,West_Bengal,Kolkata,"Jadavpur, Kolkata - WBPCB",27-09-2025 07:00:00,22.49929,88.36917,CO,16,24,17
India,West_Bengal,Kolkata,"Rabindra Bharati University, Kolkata - WBPCB",27-09-2025 07:00:00,22.627847,88.380669,SO2,14,17,15
India,West_Bengal,Kolkata,"Rabindra Bharati University, Kolkata - WBPCB",27-09-2025 07:00:00,22.627847,88.380669,CO,18,25,21
India,West_Bengal,Kolkata,"Rabindra Sarobar, Kolkata - WBPCB",27-09-2025 07:00:00,22.51106,88.35142,OZONE,5,8,6
India,West_Bengal,Kolkata,"Victoria, Kolkata - WBPCB",27-09-2025 07:00:00,22.5448082,88.3403691,PM2.5,35,60,43
India,West_Bengal,Kolkata,"Victoria, Kolkata - WBPCB",27-09-2025 07:00:00,22.5448082,88.3403691,PM10,41,59,48
India,Bihar,Begusarai,"Lohiyanagar, Begusarai - BSPCB",27-09-2025 07:00:00,25.42742023,86.13886079,OZONE,8,44,20
India,Bihar,Bettiah,"Kamalnath Nagar, Bettiah - BSPCB",27-09-2025 07:00:00,26.80365,84.51954,CO,40,82,48
India,Bihar,Bettiah,"Kamalnath Nagar, Bettiah - BSPCB",27-09-2025 07:00:00,26.80365,84.51954,OZONE,16,29,23
India,Bihar,Bhagalpur,"DM Office_Kachari Chowk, Bhagalpur - BSPCB",27-09-2025 07:00:00,25.251013,86.989001,NH3,3,12,6
India,Bihar,Bhagalpur,"Mayaganj, Bhagalpur - BSPCB",27-09-2025 07:00:00,25.265194,87.012947,OZONE,4,47,27
India,Bihar,Bihar Sharif,"D M Colony, Bihar Sharif - BSPCB",27-09-2025 07:00:00,25.204762,85.514960,PM2.5,NA,NA,NA
India,Bihar,Bihar Sharif,"D M Colony, Bihar Sharif - BSPCB",27-09-2025 07:00:00,25.204762,85.514960,PM10,NA,NA,NA
India,Bihar,Bihar Sharif,"D M Colony, Bihar Sharif - BSPCB",27-09-2025 07:00:00,25.204762,85.514960,NH3,NA,NA,NA
India,Andhra_Pradesh,Tirumala,"Toll Gate, Tirumala - APPCB",27-09-2025 07:00:00,13.67,79.35,PM10,21,48,29
India,Andhra_Pradesh,Tirumala,"Toll Gate, Tirumala - APPCB",27-09-2025 07:00:00,13.67,79.35,NO2,7,13,10
India,Andhra_Pradesh,Tirumala,"Toll Gate, Tirumala - APPCB",27-09-2025 07:00:00,13.67,79.35,NH3,1,1,1
India,Andhra_Pradesh,Tirupati,"Vaikuntapuram, Tirupati - APPCB",27-09-2025 07:00:00,13.615387,79.409230,PM2.5,57,87,68
India,Andhra_Pradesh,Tirupati,"Vaikuntapuram, Tirupati - APPCB",27-09-2025 07:00:00,13.615387,79.409230,CO,30,63,33
India,Andhra_Pradesh,Vijayawada,"Rajiv Nagar, Vijayawada - APPCB",27-09-2025 07:00:00,16.554731,80.649110,OZONE,NA,NA,NA
India,Andhra_Pradesh,Visakhapatnam,"GVM Corporation, Visakhapatnam - APPCB",27-09-2025 07:00:00,17.72,83.3,PM10,72,118,90
India,Andhra_Pradesh,Chittoor,"Gangineni Cheruvu, Chittoor - APPCB",27-09-2025 07:00:00,13.204880,79.097889,NO2,23,28,26
India,Andhra_Pradesh,Chittoor,"Gangineni Cheruvu, Chittoor - APPCB",27-09-2025 07:00:00,13.204880,79.097889,CO,28,60,49
India,Andhra_Pradesh,Kadapa,"Yerramukkapalli, Kadapa - APPCB",27-09-2025 07:00:00,14.465052,78.824187,NH3,4,5,4
India,Andhra_Pradesh,Rajamahendravaram,"Anand Kala Kshetram, Rajamahendravaram - APPCB",27-09-2025 07:00:00,16.9872867,81.7363176,PM10,12,72,41
India,Andhra_Pradesh,Rajamahendravaram,"Anand Kala Kshetram, Rajamahendravaram - APPCB",27-09-2025 07:00:00,16.9872867,81.7363176,NH3,1,2,2
India,Assam,Nagaon,"Christianpatty, Nagaon - PCBA",27-09-2025 07:00:00,26.349082,92.68449,NO2,1,2,1
India,Assam,Silchar,"Tarapur, Silchar - PCBA",27-09-2025 07:00:00,24.82827,92.79525,OZONE,1,27,1
India,Assam,Sivasagar,"Girls College, Sivasagar - PCBA",27-09-2025 07:00:00,26.987634,94.636574,SO2,6,16,9
India,Assam,Sivasagar,"Girls College, Sivasagar - PCBA",27-09-2025 07:00:00,26.987634,94.636574,OZONE,3,22,4
India,Bihar,Araria,"Kharahiya Basti, Araria - BSPCB",27-09-2025 07:00:00,26.146529,87.454184,SO2,1,71,22
India,Bihar,Chhapra,"Darshan Nagar, Chhapra - BSPCB",27-09-2025 07:00:00,25.7808257,84.7446768,NO2,1,1,1
India,Bihar,Gaya,"Collectorate, Gaya - BSPCB",27-09-2025 07:00:00,24.7955,84.9994,SO2,NA,NA,NA
India,Bihar,Gaya,"Collectorate, Gaya - BSPCB",27-09-2025 07:00:00,24.7955,84.9994,OZONE,NA,NA,NA
India,Bihar,Gaya,"Kareemganj, Gaya - BSPCB",27-09-2025 07:00:00,24.792403,84.992416,CO,26,44,34
India,Bihar,Gaya,"SFTI Kusdihra, Gaya - BSPCB",27-09-2025 07:00:00,24.762518,84.982348,NO2,NA,NA,NA
India,Assam,Guwahati,"LGBI Airport, Guwahati - PCBA",27-09-2025 07:00:00,26.10887,91.589544,CO,27,138,35
India,Assam,Guwahati,"LGBI Airport, Guwahati - PCBA",27-09-2025 07:00:00,26.10887,91.589544,OZONE,13,25,16
India,Assam,Guwahati,"Pan Bazaar, Guwahati - PCBA",27-09-2025 07:00:00,26.187500,91.744194,SO2,54,104,83
India,Assam,Guwahati,"Railway Colony, Guwahati - PCBA",27-09-2025 07:00:00,26.181742,91.78063,SO2,28,30,29
India,Andhra_Pradesh,Amaravati,"Secretariat, Amaravati - APPCB",27-09-2025 07:00:00,16.5150833,80.5181667,SO2,6,13,12
India,Andhra_Pradesh,Amaravati,"Secretariat, Amaravati - APPCB",27-09-2025 07:00:00,16.5150833,80.5181667,CO,4,28,10
India,Andhra_Pradesh,Anantapur,"Gulzarpet, Anantapur - APPCB",27-09-2025 07:00:00,14.675886,77.593027,NH3,5,5,5
India,Andhra_Pradesh,Anantapur,"Gulzarpet, Anantapur - APPCB",27-09-2025 07:00:00,14.675886,77.593027,OZONE,8,13,10
India,Bihar,Aurangabad,"Gurdeo Nagar, Aurangabad - BSPCB",27-09-2025 07:00:00,24.75746,84.366208,PM2.5,NA,NA,NA
India,Bihar,Aurangabad,"Gurdeo Nagar, Aurangabad - BSPCB",27-09-2025 07:00:00,24.75746,84.366208,PM10,NA,NA,NA
India,Bihar,Begusarai,"Lohiyanagar, Begusarai - BSPCB",27-09-2025 07:00:00,25.42742023,86.13886079,SO2,27,31,29
India,Assam,Byrnihat,"Central Academy for SFS, Byrnihat - PCBA",27-09-2025 07:00:00,26.071318,91.87488,SO2,NA,NA,NA
India,Arunachal_Pradesh,Naharlagun,"Naharlagun, Naharlagun - APSPCB",27-09-2025 07:00:00,27.103358,93.679645,PM10,NA,NA,NA
India,Chhattisgarh,Bhilai,"Civic Center, Bhilai - Bhilai Steel Plant",27-09-2025 07:00:00,21.185571,81.343175,CO,37,40,38
India,Chhattisgarh,Bhilai,"Civic Center, Bhilai - Bhilai Steel Plant",27-09-2025 07:00:00,21.185571,81.343175,OZONE,8,12,10
India,Chhattisgarh,Bhilai,"Hathkhoj, Bhilai - CECB",27-09-2025 07:00:00,21.224231,81.408350,NH3,3,4,4
India,Chhattisgarh,Bhilai,"Hathkhoj, Bhilai - CECB",27-09-2025 07:00:00,21.224231,81.408350,SO2,2,8,4
India,Chhattisgarh,Chhal,"Nawapara SECL Colony, Chhal - CECB",27-09-2025 07:00:00,22.118125,83.140608,NH3,6,6,6
India,Chhattisgarh,Chhal,"Nawapara SECL Colony, Chhal - CECB",27-09-2025 07:00:00,22.118125,83.140608,CO,19,30,20
India,Chhattisgarh,Korba,"Rampur, Korba - CECB",27-09-2025 07:00:00,22.368195,82.746431,CO,10,16,11
India,Chhattisgarh,Korba,"Urja Nagar, Korba - CECB",27-09-2025 07:00:00,22.348441,82.549611,SO2,7,15,10
India,Bihar,Patna,"Muradpur, Patna - BSPCB",27-09-2025 07:00:00,25.619651,85.147382,NH3,4,10,5
India,Bihar,Patna,"Muradpur, Patna - BSPCB",27-09-2025 07:00:00,25.619651,85.147382,OZONE,4,41,5
India,Bihar,Patna,"Rajbansi Nagar, Patna - BSPCB",27-09-2025 07:00:00,25.599486,85.113666,PM10,28,51,34
India,Bihar,Patna,"Rajbansi Nagar, Patna - BSPCB",27-09-2025 07:00:00,25.599486,85.113666,NH3,1,2,2
India,Bihar,Patna,"Rajbansi Nagar, Patna - BSPCB",27-09-2025 07:00:00,25.599486,85.113666,CO,7,39,22
India,Bihar,Rajgir,"Dangi Tola, Rajgir - BSPCB",27-09-2025 07:00:00,25.03280,85.41948,NH3,6,7,7
India,Bihar,Saharsa,"Police Line, Saharsa - BSPCB",27-09-2025 07:00:00,25.892357,86.590325,PM10,4,129,32
India,Bihar,Saharsa,"Police Line, Saharsa - BSPCB",27-09-2025 07:00:00,25.892357,86.590325,SO2,13,18,17
India,Bihar,Muzaffarpur,"MIT-Daudpur Kothi, Muzaffarpur - BSPCB",27-09-2025 07:00:00,26.1403345,85.3650192,SO2,7,12,11
India,Bihar,Patna,"DRM Office Danapur, Patna - BSPCB",27-09-2025 07:00:00,25.586562,85.043586,NO2,29,34,32
India,Bihar,Patna,"Govt. High School Shikarpur, Patna - BSPCB",27-09-2025 07:00:00,25.592539,85.227158,SO2,7,67,14
India,Bihar,Patna,"Govt. High School Shikarpur, Patna - BSPCB",27-09-2025 07:00:00,25.592539,85.227158,OZONE,8,12,10
India,Bihar,Patna,"IGSC Planetarium Complex, Patna - BSPCB",27-09-2025 07:00:00,25.610369,85.132568,SO2,26,29,28
India,Bihar,Patna,"IGSC Planetarium Complex, Patna - BSPCB",27-09-2025 07:00:00,25.610369,85.132568,CO,64,69,68
India,Bihar,Siwan,"Chitragupta Nagar, Siwan - BSPCB",27-09-2025 07:00:00,26.2271665,84.3570427,CO,68,113,79
India,Chandigarh,Chandigarh,"Sector 22, Chandigarh - CPCC",27-09-2025 07:00:00,30.735567,76.775714,PM10,31,83,60
India,Bihar,Muzaffarpur,"Buddha Colony, Muzaffarpur - BSPCB",27-09-2025 07:00:00,26.11442,85.39813,PM2.5,12,68,34
India,Bihar,Muzaffarpur,"Buddha Colony, Muzaffarpur - BSPCB",27-09-2025 07:00:00,26.11442,85.39813,NH3,4,5,4
India,Bihar,Muzaffarpur,"Buddha Colony, Muzaffarpur - BSPCB",27-09-2025 07:00:00,26.11442,85.39813,OZONE,19,70,25
India,Bihar,Katihar,"Mirchaibari, Katihar - BSPCB",27-09-2025 07:00:00,25.560083,87.553265,NH3,1,1,1
India,Bihar,Kishanganj,"SDM Office_Khagra, Kishanganj - BSPCB",27-09-2025 07:00:00,26.0881305,87.93840336,SO2,7,8,7
India,Bihar,Samastipur,"DM Office_Kasipur, Samastipur - BSPCB",27-09-2025 07:00:00,25.859655,85.77944,PM2.5,32,130,59
India,Bihar,Samastipur,"DM Office_Kasipur, Samastipur - BSPCB",27-09-2025 07:00:00,25.859655,85.77944,SO2,6,30,20
India,Bihar,Motihari,"Gandak Colony, Motihari - BSPCB",27-09-2025 07:00:00,26.63086,84.90051,PM2.5,NA,NA,NA
India,Bihar,Motihari,"Gandak Colony, Motihari - BSPCB",27-09-2025 07:00:00,26.63086,84.90051,SO2,2,3,3
India,Chandigarh,Chandigarh,"Sector-53, Chandigarh - CPCC",27-09-2025 07:00:00,30.719859,76.738637,PM10,NA,NA,NA
India,Chandigarh,Chandigarh,"Sector-53, Chandigarh - CPCC",27-09-2025 07:00:00,30.719859,76.738637,NO2,NA,NA,NA
India,Chhattisgarh,Kunjemura,"OP Jindal School, Kunjemura - CECB",27-09-2025 07:00:00,22.126650,83.483212,SO2,2,9,6
India,Chhattisgarh,Milupara,"Govt. Higher Secondary School, Milupara - CECB",27-09-2025 07:00:00,22.1910172,83.5197009,PM10,NA,NA,NA
India,Chhattisgarh,Raipur,"AIIMS, Raipur - CECB",27-09-2025 07:00:00,21.258815,81.578979,PM2.5,34,55,44
India,Chhattisgarh,Raipur,"AIIMS, Raipur - CECB",27-09-2025 07:00:00,21.258815,81.578979,PM10,37,89,51
India,Chhattisgarh,Raipur,"AIIMS, Raipur - CECB",27-09-2025 07:00:00,21.258815,81.578979,CO,31,53,37
India,Chhattisgarh,Raipur,"Bhatagaon New ISBT, Raipur - CECB",27-09-2025 07:00:00,21.219665,81.630094,OZONE,NA,NA,NA
India,Chhattisgarh,Raipur,"Siltara Phase-II, Raipur - CECB",27-09-2025 07:00:00,21.371751,81.664929,NO2,11,88,41
India,Chhattisgarh,Tumidih,"OP Jindal Industrial Park, Tumidih - CECB",27-09-2025 07:00:00,22.06631475,83.33820077,SO2,5,9,5
India,Chhattisgarh,Tumidih,"OP Jindal Industrial Park, Tumidih - CECB",27-09-2025 07:00:00,22.06631475,83.33820077,OZONE,10,26,16
India,Delhi,Delhi,"Ashok Vihar, Delhi - DPCC",27-09-2025 07:00:00,28.695381,77.181665,PM2.5,48,217,89
India,Delhi,Delhi,"Ashok Vihar, Delhi - DPCC",27-09-2025 07:00:00,28.695381,77.181665,NH3,1,2,1
India,Delhi,Delhi,"Lodhi Road, Delhi - IITM",27-09-2025 07:00:00,28.588333,77.221667,PM10,77,149,96
India,Delhi,Delhi,"Major Dhyan Chand National Stadium, Delhi - DPCC",27-09-2025 07:00:00,28.611281,77.237738,NO2,20,84,45
India,Delhi,Delhi,"Major Dhyan Chand National Stadium, Delhi - DPCC",27-09-2025 07:00:00,28.611281,77.237738,SO2,1,14,7
India,Delhi,Delhi,"Major Dhyan Chand National Stadium, Delhi - DPCC",27-09-2025 07:00:00,28.611281,77.237738,OZONE,5,76,18
India,Delhi,Delhi,"Mandir Marg, Delhi - DPCC",27-09-2025 07:00:00,28.636429,77.201067,PM2.5,3,163,65
India,Delhi,Delhi,"Jahangirpuri, Delhi - DPCC",27-09-2025 07:00:00,28.732820,77.170633,CO,38,102,63
India,Delhi,Delhi,"Jawaharlal Nehru Stadium, Delhi - DPCC",27-09-2025 07:00:00,28.580280,77.233829,PM2.5,30,88,53
India,Delhi,Delhi,"Jawaharlal Nehru Stadium, Delhi - DPCC",27-09-2025 07:00:00,28.580280,77.233829,PM10,103,184,126
India,Delhi,Delhi,"Jawaharlal Nehru Stadium, Delhi - DPCC",27-09-2025 07:00:00,28.580280,77.233829,NO2,34,108,64
India,Delhi,Delhi,"Lodhi Road, Delhi - IITM",27-09-2025 07:00:00,28.588333,77.221667,PM2.5,37,80,56
India,Delhi,Delhi,"IHBAS, Dilshad Garden, Delhi - CPCB",27-09-2025 07:00:00,28.6811736,77.3025234,CO,38,71,66
India,Delhi,Delhi,"ITO, Delhi - CPCB",27-09-2025 07:00:00,28.628624,77.241060,PM10,86,119,105
India,Delhi,Delhi,"ITO, Delhi - CPCB",27-09-2025 07:00:00,28.628624,77.241060,OZONE,39,48,40
India,Delhi,Delhi,"Jahangirpuri, Delhi - DPCC",27-09-2025 07:00:00,28.732820,77.170633,PM2.5,117,342,270
India,Delhi,Delhi,"Ashok Vihar, Delhi - DPCC",27-09-2025 07:00:00,28.695381,77.181665,OZONE,6,62,13
India,Delhi,Delhi,"Bawana, Delhi - DPCC",27-09-2025 07:00:00,28.776200,77.051074,SO2,11,20,13
India,Delhi,Delhi,"Chandni Chowk, Delhi - IITM",27-09-2025 07:00:00,28.656756,77.227234,CO,36,52,46
India,Delhi,Delhi,"IHBAS, Dilshad Garden, Delhi - CPCB",27-09-2025 07:00:00,28.6811736,77.3025234,PM10,82,103,94
India,Delhi,Delhi,"IHBAS, Dilshad Garden, Delhi - CPCB",27-09-2025 07:00:00,28.6811736,77.3025234,NO2,39,50,47
India,Delhi,Delhi,"Dwarka-Sector 8, Delhi - DPCC ",27-09-2025 07:00:00,28.5710274,77.0719006,CO,32,108,56
India,Delhi,Delhi,"DTU, Delhi - CPCB",27-09-2025 07:00:00,28.7500499,77.1112615,SO2,28,47,38
India,Delhi,Delhi,"Sri Aurobindo Marg, Delhi - DPCC",27-09-2025 07:00:00,28.531346,77.190156,CO,22,56,39
India,Delhi,Delhi,"Sri Aurobindo Marg, Delhi - DPCC",27-09-2025 07:00:00,28.531346,77.190156,OZONE,5,50,5
India,Delhi,Delhi,"Vivek Vihar, Delhi - DPCC",27-09-2025 07:00:00,28.672342,77.315260,PM2.5,52,338,90
India,Delhi,Delhi,"Vivek Vihar, Delhi - DPCC",27-09-2025 07:00:00,28.672342,77.315260,CO,36,62,51
India,Gujarat,Ahmedabad,"Chandkheda, Ahmedabad - IITM",27-09-2025 07:00:00,23.107969,72.574648,PM2.5,25,54,38
India,Gujarat,Ahmedabad,"Chandkheda, Ahmedabad - IITM",27-09-2025 07:00:00,23.107969,72.574648,CO,18,48,24
India,Gujarat,Ahmedabad,"Chandkheda, Ahmedabad - IITM",27-09-2025 07:00:00,23.107969,72.574648,OZONE,7,74,19
India,Gujarat,Ahmedabad,"Gyaspur, Ahmedabad - IITM",27-09-2025 07:00:00,22.977134,72.553024,PM10,48,164,85
India,Gujarat,Ahmedabad,"Gyaspur, Ahmedabad - IITM",27-09-2025 07:00:00,22.977134,72.553024,NH3,NA,NA,NA
India,Delhi,Delhi,"Nehru Nagar, Delhi - DPCC",27-09-2025 07:00:00,28.567890,77.250515,SO2,2,31,11
India,Delhi,Delhi,"North Campus, DU, Delhi - IMD",27-09-2025 07:00:00,28.6573814,77.1585447,NO2,30,112,52
India,Delhi,Delhi,"North Campus, DU, Delhi - IMD",27-09-2025 07:00:00,28.6573814,77.1585447,CO,29,78,52
India,Delhi,Delhi,"Okhla Phase-2, Delhi - DPCC",27-09-2025 07:00:00,28.530785,77.271255,PM2.5,30,68,49
India,Delhi,Delhi,"Okhla Phase-2, Delhi - DPCC",27-09-2025 07:00:00,28.530785,77.271255,NO2,31,87,57
India,Delhi,Delhi,"Patparganj, Delhi - DPCC",27-09-2025 07:00:00,28.623763,77.287209,CO,34,60,41
India,Delhi,Delhi,"Punjabi Bagh, Delhi - DPCC",27-09-2025 07:00:00,28.674045,77.131023,PM10,96,149,123
India,Delhi,Delhi,"Pusa, Delhi - DPCC",27-09-2025 07:00:00,28.639652,77.146275,NO2,59,92,74
India,Delhi,Delhi,"Mundka, Delhi - DPCC",27-09-2025 07:00:00,28.684678,77.076574,OZONE,4,54,10
India,Delhi,Delhi,"Najafgarh, Delhi - DPCC",27-09-2025 07:00:00,28.570173,76.933762,PM2.5,22,95,59
India,Delhi,Delhi,"Najafgarh, Delhi - DPCC",27-09-2025 07:00:00,28.570173,76.933762,SO2,17,19,18
India,Delhi,Delhi,"Narela, Delhi - DPCC",27-09-2025 07:00:00,28.822836,77.101981,NO2,13,41,23
India,Delhi,Delhi,"Narela, Delhi - DPCC",27-09-2025 07:00:00,28.822836,77.101981,CO,28,56,39
India,Delhi,Delhi,"Nehru Nagar, Delhi - DPCC",27-09-2025 07:00:00,28.567890,77.250515,PM2.5,37,280,72
India,Delhi,Delhi,"Pusa, Delhi - DPCC",27-09-2025 07:00:00,28.639652,77.146275,CO,23,95,44
India,Delhi,Delhi,"Pusa, Delhi - IMD",27-09-2025 07:00:00,28.636110,77.173332,PM2.5,25,107,58
India,Delhi,Delhi,"R K Puram, Delhi - DPCC",27-09-2025 07:00:00,28.563262,77.186937,PM2.5,32,143,81
India,Delhi,Delhi,"R K Puram, Delhi - DPCC",27-09-2025 07:00:00,28.563262,77.186937,PM10,90,165,120
India,Delhi,Delhi,"Rohini, Delhi - DPCC",27-09-2025 07:00:00,28.732528,77.119920,NO2,3,24,10
India,Delhi,Delhi,"Rohini, Delhi - DPCC",27-09-2025 07:00:00,28.732528,77.119920,SO2,3,6,4
India,Delhi,Delhi,"Shadipur, Delhi - CPCB",27-09-2025 07:00:00,28.6514781,77.1473105,PM2.5,50,85,62
India,Delhi,Delhi,"Shadipur, Delhi - CPCB",27-09-2025 07:00:00,28.6514781,77.1473105,OZONE,18,31,20
India,Delhi,Delhi,"Sirifort, Delhi - CPCB",27-09-2025 07:00:00,28.5504249,77.2159377,PM2.5,43,71,57
India,Delhi,Delhi,"Sonia Vihar, Delhi - DPCC",27-09-2025 07:00:00,28.710508,77.249485,SO2,19,24,22
India,Gujarat,Ahmedabad,"SAC ISRO Bopal, Ahmedabad - IITM",27-09-2025 07:00:00,23.041137,72.456691,CO,4,40,11
India,Gujarat,Ahmedabad,"SAC ISRO Satellite, Ahmedabad - IITM",27-09-2025 07:00:00,23.023389,72.515201,CO,1,49,7
India,Gujarat,Ahmedabad,"SAC ISRO Satellite, Ahmedabad - IITM",27-09-2025 07:00:00,23.023389,72.515201,OZONE,5,32,10
India,Gujarat,Ahmedabad,"Raikhad, Ahmedabad - IITM",27-09-2025 07:00:00,23.020509,72.579261,CO,8,48,13
India,Gujarat,Ahmedabad,"Rakhial, Ahmedabad - IITM",27-09-2025 07:00:00,23.016834,72.625775,PM2.5,1,14,7
India,Gujarat,Ahmedabad,"Rakhial, Ahmedabad - IITM",27-09-2025 07:00:00,23.016834,72.625775,PM10,40,85,65
India,Gujarat,Ahmedabad,"SVPI Airport Hansol, Ahmedabad - IITM",27-09-2025 07:00:00,23.076793,72.627874,PM10,41,80,61
India,Gujarat,Ahmedabad,"SVPI Airport Hansol, Ahmedabad - IITM",27-09-2025 07:00:00,23.076793,72.627874,NO2,7,52,23
India,Gujarat,Ahmedabad,"Rakhial, Ahmedabad - IITM",27-09-2025 07:00:00,23.016834,72.625775,CO,1,12,3
India,Haryana,Sirsa,"F-Block, Sirsa - HSPCB",27-09-2025 07:00:00,29.536400,75.015800,PM2.5,NA,NA,NA
India,Himachal Pradesh,Baddi,"HIMUDA Complex Phase-1, Baddi - HPPCB",27-09-2025 07:00:00,30.943887,76.801991,PM2.5,33,230,92
India,Jammu_and_Kashmir,Srinagar,"Rajbagh, Srinagar - JKSPCB",27-09-2025 07:00:00,34.066206,74.819820,SO2,3,4,3
India,Jharkhand,Dhanbad,"Sardar Patel Nagar, Dhanbad - JSPCB",27-09-2025 07:00:00,23.80569,86.44268,SO2,20,105,39
India,Jharkhand,Jorapokhar,"Tata Stadium, Jorapokhar - JSPCB",27-09-2025 07:00:00,23.707909,86.414670,PM10,NA,NA,NA
India,Karnataka,Bagalkot,"Vidayagiri, Bagalkot - KSPCB",27-09-2025 07:00:00,16.172806,75.659694,PM10,42,43,42
India,Gujarat,Vatva,"Phase-4 GIDC, Vatva - GPCB",27-09-2025 07:00:00,22.969611,72.643500,NH3,2,3,2
India,Gujarat,Vatva,"Phase-4 GIDC, Vatva - GPCB",27-09-2025 07:00:00,22.969611,72.643500,SO2,11,22,14
India,Gujarat,Vatva,"Phase-4 GIDC, Vatva - GPCB",27-09-2025 07:00:00,22.969611,72.643500,CO,8,20,8
India,Haryana,Faridabad,"Sector 30, Faridabad - HSPCB",27-09-2025 07:00:00,28.4417,77.3217,PM10,NA,NA,NA
India,Haryana,Faridabad,"Sector 30, Faridabad - HSPCB",27-09-2025 07:00:00,28.4417,77.3217,NO2,NA,NA,NA
India,Haryana,Faridabad,"Sector 30, Faridabad - HSPCB",27-09-2025 07:00:00,28.4417,77.3217,SO2,NA,NA,NA
India,Haryana,Faridabad,"Sector 30, Faridabad - HSPCB",27-09-2025 07:00:00,28.4417,77.3217,CO,42,66,62
India,Haryana,Gurugram,"NISE Gwal Pahari, Gurugram - IMD",27-09-2025 07:00:00,28.422681,77.148944,OZONE,11,52,13
India,Karnataka,Bengaluru,"Silk Board, Bengaluru - KSPCB",27-09-2025 07:00:00,12.917348,77.622813,CO,31,46,32
India,Karnataka,Chamarajanagar,"Urban, Chamarajanagar - KSPCB",27-09-2025 07:00:00,11.55358,76.55521,NO2,15,29,28
India,Karnataka,Chamarajanagar,"Urban, Chamarajanagar - KSPCB",27-09-2025 07:00:00,11.55358,76.55521,CO,15,121,35
India,Karnataka,Chamarajanagar,"Urban, Chamarajanagar - KSPCB",27-09-2025 07:00:00,11.55358,76.55521,OZONE,15,30,28
India,Karnataka,Chikkaballapur,"Chikkaballapur Rural, Chikkaballapur - KSPCB",27-09-2025 07:00:00,13.428828,77.731418,NO2,NA,NA,NA
India,Karnataka,Chikkaballapur,"Chikkaballapur Rural, Chikkaballapur - KSPCB",27-09-2025 07:00:00,13.428828,77.731418,NH3,NA,NA,NA
India,Karnataka,Chikkamagaluru,"Kalyana Nagara, Chikkamagaluru - KSPCB",27-09-2025 07:00:00,13.328028,75.797056,SO2,NA,NA,NA
India,Karnataka,Bengaluru,"Hombegowda Nagar, Bengaluru - KSPCB",27-09-2025 07:00:00,12.938539,77.590100,NO2,5,21,12
India,Karnataka,Bengaluru,"Hombegowda Nagar, Bengaluru - KSPCB",27-09-2025 07:00:00,12.938539,77.590100,OZONE,4,17,8
India,Karnataka,Bengaluru,"Jayanagar 5th Block, Bengaluru - KSPCB",27-09-2025 07:00:00,12.920984,77.584908,OZONE,2,31,15
India,Karnataka,Bengaluru,"Jigani, Bengaluru - KSPCB",27-09-2025 07:00:00,12.7816279,77.6299145,PM10,NA,NA,NA
India,Karnataka,Bengaluru,"Jigani, Bengaluru - KSPCB",27-09-2025 07:00:00,12.7816279,77.6299145,SO2,NA,NA,NA
India,Karnataka,Bengaluru,"Sanegurava Halli, Bengaluru - KSPCB",27-09-2025 07:00:00,12.990328,77.5431385,CO,NA,NA,NA
India,Gujarat,Ankleshwar,"GIDC, Ankleshwar - GPCB",27-09-2025 07:00:00,21.613267,73.010555,NO2,26,33,27
India,Gujarat,Ankleshwar,"GIDC, Ankleshwar - GPCB",27-09-2025 07:00:00,21.613267,73.010555,OZONE,46,80,53
India,Gujarat,Gandhinagar,"GIFT City, Gandhinagar - IITM",27-09-2025 07:00:00,23.163798,72.677768,PM2.5,21,55,36
India,Gujarat,Gandhinagar,"GIFT City, Gandhinagar - IITM",27-09-2025 07:00:00,23.163798,72.677768,NH3,2,6,3
India,Gujarat,Gandhinagar,"GIFT City, Gandhinagar - IITM",27-09-2025 07:00:00,23.163798,72.677768,OZONE,2,30,11
India,Gujarat,Gandhinagar,"IIPHG Lekawada, Gandhinagar - IITM",27-09-2025 07:00:00,23.243639,72.68994,SO2,1,3,1
India,Gujarat,Vapi,"Phase-1 GIDC, Vapi - GPCB",27-09-2025 07:00:00,20.362421,72.918013,PM2.5,35,119,64
India,Karnataka,Bengaluru,"Hebbal, Bengaluru - KSPCB",27-09-2025 07:00:00,13.029152,77.585901,PM2.5,2,21,9
India,Karnataka,Kalaburagi,"Mahatma Basaveswar Colony, Kalaburgi - KSPCB",27-09-2025 07:00:00,17.336318,76.847397,SO2,2,3,3
India,Karnataka,Kalaburagi,"Mahatma Basaveswar Colony, Kalaburgi - KSPCB",27-09-2025 07:00:00,17.336318,76.847397,CO,30,38,32
India,Karnataka,Karwar,"KHB Colony, Karwar - KSPCB",27-09-2025 07:00:00,14.816666,74.141003,PM10,1,12,5
India,Karnataka,Karwar,"KHB Colony, Karwar - KSPCB",27-09-2025 07:00:00,14.816666,74.141003,SO2,27,37,29
India,Karnataka,Madikeri,"Stuart Hill, Madikeri - KSPCB",27-09-2025 07:00:00,12.415911,75.735050,PM10,13,51,29
India,Karnataka,Madikeri,"Stuart Hill, Madikeri - KSPCB",27-09-2025 07:00:00,12.415911,75.735050,OZONE,2,5,5
India,Karnataka,Mysuru,"Hebbal 1st Stage, Mysuru - KSPCB",27-09-2025 07:00:00,12.21041,76.37376,NH3,2,6,5
India,Karnataka,Mysuru,"Hebbal 1st Stage, Mysuru - KSPCB",27-09-2025 07:00:00,12.21041,76.37376,SO2,NA,NA,NA
India,Karnataka,Mysuru,"Hebbal 1st Stage, Mysuru - KSPCB",27-09-2025 07:00:00,12.21041,76.37376,OZONE,5,57,11
India,Karnataka,Shivamogga,"Vinoba Nagara, Shivamogga - KSPCB",27-09-2025 07:00:00,13.940000,75.555917,NH3,3,4,4
India,Karnataka,Shivamogga,"Vinoba Nagara, Shivamogga - KSPCB",27-09-2025 07:00:00,13.940000,75.555917,OZONE,15,28,19
India,Karnataka,Chikkamagaluru,"Kalyana Nagara, Chikkamagaluru - KSPCB",27-09-2025 07:00:00,13.328028,75.797056,OZONE,17,49,48
India,Karnataka,Davanagere,"Devaraj Urs Badavane, Davanagere - KSPCB",27-09-2025 07:00:00,14.475800,75.905200,NH3,1,3,2
India,Karnataka,Hassan,"B.Katihalli, Hassan - KSPCB",27-09-2025 07:00:00,13.008556,76.125258,SO2,NA,NA,NA
India,Karnataka,Hubballi,"Lingaraj Nagar, Hubballi - KSPCB",27-09-2025 07:00:00,15.3714823,75.1160168,NO2,7,8,7
India,Karnataka,Kalaburagi,"Mahatma Basaveswar Colony, Kalaburgi - KSPCB",27-09-2025 07:00:00,17.336318,76.847397,PM10,11,22,14
India,Kerala,Kollam,"Polayathode, Kollam - Kerala PCB",27-09-2025 07:00:00,8.8787,76.6073,PM10,21,43,33
India,Kerala,Kollam,"Polayathode, Kollam - Kerala PCB",27-09-2025 07:00:00,8.8787,76.6073,NO2,9,10,9
India,Kerala,Kollam,"Polayathode, Kollam - Kerala PCB",27-09-2025 07:00:00,8.8787,76.6073,CO,14,18,16
India,Kerala,Thiruvananthapuram,"Kariavattom, Thiruvananthapuram - Kerala PCB",27-09-2025 07:00:00,8.563700,76.886500,PM10,44,51,47
India,Kerala,Thiruvananthapuram,"Kariavattom, Thiruvananthapuram - Kerala PCB",27-09-2025 07:00:00,8.563700,76.886500,CO,30,64,42
India,Kerala,Thiruvananthapuram,"Plammoodu, Thiruvananthapuram - Kerala PCB",27-09-2025 07:00:00,8.5149093,76.9435879,CO,4,64,6
India,Kerala,Thiruvananthapuram,"Plammoodu, Thiruvananthapuram - Kerala PCB",27-09-2025 07:00:00,8.5149093,76.9435879,OZONE,13,16,14
India,Madhya Pradesh,Jabalpur,"Govindh Bhavan Colony, Jabalpur - JMC",27-09-2025 07:00:00,23.163174,79.973061,NH3,1,2,2
India,Madhya Pradesh,Jabalpur,"Govindh Bhavan Colony, Jabalpur - JMC",27-09-2025 07:00:00,23.163174,79.973061,OZONE,18,83,35
India,Madhya Pradesh,Jabalpur,"Gupteshwar, Jabalpur - JMC",27-09-2025 07:00:00,23.142888,79.916147,NO2,12,42,20
India,Madhya Pradesh,Jabalpur,"Marhatal, Jabalpur - MPPCB",27-09-2025 07:00:00,23.168606,79.932247,PM10,14,80,40
India,Madhya Pradesh,Jabalpur,"Marhatal, Jabalpur - MPPCB",27-09-2025 07:00:00,23.168606,79.932247,NH3,2,4,3
India,Madhya Pradesh,Jabalpur,"Marhatal, Jabalpur - MPPCB",27-09-2025 07:00:00,23.168606,79.932247,SO2,10,18,13
India,Madhya Pradesh,Jabalpur,"Suhagi, Jabalpur - JMC",27-09-2025 07:00:00,23.218135,79.957770,NH3,2,2,2
India,Madhya Pradesh,Indore,"Airport Area, Indore - IMC",27-09-2025 07:00:00,22.7289,75.8076,SO2,20,20,20
India,Madhya Pradesh,Indore,"Chhoti Gwaltoli, Indore - MPPCB",27-09-2025 07:00:00,22.4310,75.5213,PM10,68,154,99
India,Madhya Pradesh,Indore,"Chhoti Gwaltoli, Indore - MPPCB",27-09-2025 07:00:00,22.4310,75.5213,CO,30,73,38
India,Madhya Pradesh,Indore,"Maguda Nagar, Indore - IMC",27-09-2025 07:00:00,22.7524,75.8872,NH3,NA,NA,NA
India,Madhya Pradesh,Indore,"Maguda Nagar, Indore - IMC",27-09-2025 07:00:00,22.7524,75.8872,OZONE,8,18,9
India,Madhya Pradesh,Indore,"Residency Area, Indore - IMC",27-09-2025 07:00:00,22.7084,75.8815,PM10,39,98,60
India,Madhya Pradesh,Katni,"Gole Bazar, Katni - MPPCB",27-09-2025 07:00:00,23.50016,80.23284,CO,16,32,25
India,Madhya Pradesh,Maihar,"Sahilara, Maihar - KJS Cements",27-09-2025 07:00:00,24.2613009,80.7231783,SO2,6,6,6
India,Madhya Pradesh,Pithampur,"Sector-2 Industrial Area, Pithampur - MPPCB",27-09-2025 07:00:00,22.624758,75.675238,NH3,3,5,4
India,Madhya Pradesh,Ratlam,"Shasthri Nagar, Ratlam - IPCA Lab",27-09-2025 07:00:00,23.331731,75.045981,SO2,10,11,10
India,Madhya Pradesh,Damoh,"Shrivastav Colony, Damoh - MPPCB",27-09-2025 07:00:00,23.81748678,79.446246,SO2,27,30,28
India,Madhya Pradesh,Dewas,"Bhopal Chauraha, Dewas - MPPCB",27-09-2025 07:00:00,22.9682591,76.064118,CO,9,32,15
India,Madhya Pradesh,Dewas,"Bhopal Chauraha, Dewas - MPPCB",27-09-2025 07:00:00,22.9682591,76.064118,OZONE,27,29,29
India,Madhya Pradesh,Gwalior,"Deen Dayal Nagar, Gwalior - MPPCB",27-09-2025 07:00:00,26.259242,78.216432,NH3,4,6,5
India,Kerala,Eloor,"Udyogamandal, Eloor - Kerala PCB",27-09-2025 07:00:00,10.073232,76.302765,SO2,1,1,1
India,Kerala,Kannur,"Thavakkara, Kannur - Kerala PCB",27-09-2025 07:00:00,11.875000,75.373200,PM2.5,NA,NA,NA
India,Karnataka,Yadgir,"Collector Office, Yadgir - KSPCB",27-09-2025 07:00:00,16.7602,77.1428,PM10,4,12,6
India,Karnataka,Yadgir,"Collector Office, Yadgir - KSPCB",27-09-2025 07:00:00,16.7602,77.1428,CO,10,24,15
India,Maharashtra,Chandrapur,"Chauhan Colony, Chandrapur - MPCB",27-09-2025 07:00:00,19.962900,79.298714,NO2,18,38,26
India,Maharashtra,Chandrapur,"Chauhan Colony, Chandrapur - MPCB",27-09-2025 07:00:00,19.962900,79.298714,CO,7,53,12
India,Maharashtra,Chandrapur,"MIDC Khutala, Chandrapur - MPCB",27-09-2025 07:00:00,19.9775302,79.2337086,NO2,2,6,4
India,Maharashtra,Chandrapur,"MIDC Khutala, Chandrapur - MPCB",27-09-2025 07:00:00,19.9775302,79.2337086,SO2,8,9,9
India,Maharashtra,Dhule,"Deopur, Dhule - MPCB",27-09-2025 07:00:00,20.918946,74.776388,NO2,6,11,9
India,Maharashtra,Dhule,"Deopur, Dhule - MPCB",27-09-2025 07:00:00,20.918946,74.776388,SO2,6,13,9
India,Maharashtra,Dhule,"Deopur, Dhule - MPCB",27-09-2025 07:00:00,20.918946,74.776388,CO,3,13,8
India,Maharashtra,Amravati,"Shivneri Colony, Amravati - MPCB",27-09-2025 07:00:00,20.9402359,77.7895248,OZONE,11,40,21
India,Maharashtra,Aurangabad,"MIDC Chilkalthana, Aurangabad - MPCB",27-09-2025 07:00:00,19.875620,75.387310,PM10,NA,NA,NA
India,Maharashtra,Aurangabad,"MIDC Chilkalthana, Aurangabad - MPCB",27-09-2025 07:00:00,19.875620,75.387310,NH3,NA,NA,NA
India,Maharashtra,Aurangabad,"Rachnakar Colony, Aurangabad - MPCB",27-09-2025 07:00:00,19.863756,75.321188,NO2,17,25,20
India,Maharashtra,Aurangabad,"Rachnakar Colony, Aurangabad - MPCB",27-09-2025 07:00:00,19.863756,75.321188,OZONE,13,52,14
India,Maharashtra,Malegaon,"Mahesh Nagar, Malegaon - MPCB",27-09-2025 07:00:00,20.555712,74.529236,NH3,2,2,2
India,Maharashtra,Mira-Bhayandar,"Bhayandar West, Mira-Bhayandar - MPCB",27-09-2025 07:00:00,19.296481,72.840923,PM10,30,73,45
India,Maharashtra,Mira-Bhayandar,"Bhayandar West, Mira-Bhayandar - MPCB",27-09-2025 07:00:00,19.296481,72.840923,SO2,1,2,1
India,Maharashtra,Mumbai,"Bandra Kurla Complex, Mumbai - IITM",27-09-2025 07:00:00,19.053536,72.84643,NO2,21,40,32
India,Maharashtra,Latur,"Sawe Wadi, Latur - MPCB",27-09-2025 07:00:00,18.39963,76.57452,PM2.5,10,59,31
India,Maharashtra,Mahad,"Kamble Tarf Birwadi, Mahad - MPCB",27-09-2025 07:00:00,18.1023399,73.4783687,NH3,3,5,4
India,Maharashtra,Malegaon,"Mahesh Nagar, Malegaon - MPCB",27-09-2025 07:00:00,20.555712,74.529236,NO2,6,21,10
India,Maharashtra,Belapur,"CBD Belapur, Belapur - MPCB",27-09-2025 07:00:00,19.0243902,73.0406721,NH3,3,5,4
India,Maharashtra,Bhiwandi,"Gokul Nagar, Bhiwandi - MPCB",27-09-2025 07:00:00,19.309073,73.057223,PM2.5,29,75,50
India,Maharashtra,Bhiwandi,"Gokul Nagar, Bhiwandi - MPCB",27-09-2025 07:00:00,19.309073,73.057223,PM10,34,101,55
India,Maharashtra,Bhiwandi,"Gokul Nagar, Bhiwandi - MPCB",27-09-2025 07:00:00,19.309073,73.057223,NH3,3,7,4
India,Maharashtra,Bhiwandi,"Gokul Nagar, Bhiwandi - MPCB",27-09-2025 07:00:00,19.309073,73.057223,CO,32,54,46
India,Maharashtra,Bhiwandi,"Gokul Nagar, Bhiwandi - MPCB",27-09-2025 07:00:00,19.309073,73.057223,OZONE,11,36,13
India,Maharashtra,Boisar,"Khaira, Boisar - MPCB",27-09-2025 07:00:00,19.786089,72.757971,NO2,NA,NA,NA
India,Maharashtra,Boisar,"Khaira, Boisar - MPCB",27-09-2025 07:00:00,19.786089,72.757971,NH3,NA,NA,NA
India,Maharashtra,Boisar,"Khaira, Boisar - MPCB",27-09-2025 07:00:00,19.786089,72.757971,SO2,NA,NA,NA
India,Maharashtra,Ahmednagar,"Tarakpur, Ahmednagar - MPCB",27-09-2025 07:00:00,19.10122,74.73339,PM2.5,12,63,26
India,Maharashtra,Ahmednagar,"Tarakpur, Ahmednagar - MPCB",27-09-2025 07:00:00,19.10122,74.73339,PM10,20,44,31
India,Maharashtra,Ahmednagar,"Tarakpur, Ahmednagar - MPCB",27-09-2025 07:00:00,19.10122,74.73339,NO2,14,27,21
India,Maharashtra,Akola,"Ramdaspeth, Akola - MPCB",27-09-2025 07:00:00,20.719516,77.000253,PM10,27,90,54
India,Maharashtra,Badlapur,"Katrap, Badlapur - MPCB",27-09-2025 07:00:00,19.16485,73.23409,OZONE,12,38,13
India,Maharashtra,Kalyan,"Khadakpada, Kalyan - MPCB",27-09-2025 07:00:00,19.25292,73.142019,NH3,1,2,2
India,Maharashtra,Mumbai,"Bandra Kurla Complex, Mumbai - IITM",27-09-2025 07:00:00,19.053536,72.84643,NH3,14,45,28
India,Maharashtra,Mumbai,"Bandra Kurla Complex, Mumbai - IITM",27-09-2025 07:00:00,19.053536,72.84643,OZONE,1,12,1
India,Maharashtra,Mumbai,"Bandra Kurla Complex, Mumbai - MPCB",27-09-2025 07:00:00,19.065931,72.862131,NH3,6,26,15
India,Maharashtra,Mumbai,"Bandra Kurla Complex, Mumbai - MPCB",27-09-2025 07:00:00,19.065931,72.862131,CO,4,47,25
India,Maharashtra,Mumbai,"Borivali East, Mumbai - IITM",27-09-2025 07:00:00,19.23241,72.86895,OZONE,4,36,6
India,Maharashtra,Mumbai,"Borivali East, Mumbai - MPCB",27-09-2025 07:00:00,19.2243333,72.8658113,NH3,1,1,1
India,Maharashtra,Mumbai,"Byculla, Mumbai - BMC",27-09-2025 07:00:00,18.9767,72.8380,NH3,3,22,10
India,Maharashtra,Mumbai,"Chakala-Andheri East, Mumbai - IITM",27-09-2025 07:00:00,19.11074,72.86084,PM10,27,92,55
India,Maharashtra,Mumbai,"Chakala-Andheri East, Mumbai - IITM",27-09-2025 07:00:00,19.11074,72.86084,NO2,1,72,16
India,Maharashtra,Mumbai,"Chakala-Andheri East, Mumbai - IITM",27-09-2025 07:00:00,19.11074,72.86084,SO2,1,20,8
India,Maharashtra,Mumbai,"Chembur, Mumbai - MPCB",27-09-2025 07:00:00,19.0364585,72.8954371,PM2.5,27,67,46
India,Maharashtra,Mumbai,"Chhatrapati Shivaji Intl. Airport (T2), Mumbai - MPCB",27-09-2025 07:00:00,19.10078,72.87462,OZONE,7,8,7
India,Maharashtra,Mumbai,"Colaba, Mumbai - MPCB",27-09-2025 07:00:00,18.910000,72.820000,OZONE,10,14,13
India,Maharashtra,Mumbai,"Deonar, Mumbai - IITM",27-09-2025 07:00:00,19.04946,72.9230,NO2,16,34,23
India,Maharashtra,Mumbai,"Deonar, Mumbai - IITM",27-09-2025 07:00:00,19.04946,72.9230,SO2,5,8,6
India,Maharashtra,Mumbai,"Deonar, Mumbai - IITM",27-09-2025 07:00:00,19.04946,72.9230,CO,30,85,62
India,Maharashtra,Mumbai,"Kandivali West, Mumbai - BMC",27-09-2025 07:00:00,19.215859,72.831718,NO2,5,28,16
India,Maharashtra,Mumbai,"Kandivali West, Mumbai - BMC",27-09-2025 07:00:00,19.215859,72.831718,NH3,NA,NA,NA
India,Maharashtra,Mumbai,"Kherwadi_Bandra East, Mumbai - MPCB",27-09-2025 07:00:00,19.0632143,72.8456324,NO2,13,98,45
India,Maharashtra,Mumbai,"Mindspace-Malad West, Mumbai - MPCB",27-09-2025 07:00:00,19.1878657,72.8304069,NH3,5,6,6
India,Maharashtra,Mumbai,"Mulund West, Mumbai - MPCB",27-09-2025 07:00:00,19.1750,72.9419,NO2,12,13,12
India,Maharashtra,Mumbai,"Mulund West, Mumbai - MPCB",27-09-2025 07:00:00,19.1750,72.9419,SO2,NA,NA,NA
India,Maharashtra,Mumbai,"Navy Nagar-Colaba, Mumbai - IITM",27-09-2025 07:00:00,18.897756,72.813320,PM10,NA,NA,NA
India,Maharashtra,Mumbai,"Siddharth Nagar-Worli, Mumbai - IITM",27-09-2025 07:00:00,19.000083,72.813993,OZONE,1,24,14
India,Maharashtra,Mumbai,"Sion, Mumbai - MPCB",27-09-2025 07:00:00,19.047000,72.874600,NO2,12,19,15
India,Maharashtra,Mumbai,"Vasai West, Mumbai - MPCB",27-09-2025 07:00:00,19.383200,72.820400,SO2,NA,NA,NA
India,Maharashtra,Mumbai,"Malad West, Mumbai - IITM",27-09-2025 07:00:00,19.19709,72.82204,PM2.5,3,89,35
India,Maharashtra,Mumbai,"Malad West, Mumbai - IITM",27-09-2025 07:00:00,19.19709,72.82204,OZONE,3,18,4
India,Maharashtra,Mumbai,"Mazgaon, Mumbai - IITM",27-09-2025 07:00:00,18.96702,72.84214,PM2.5,15,79,38
India,Maharashtra,Mumbai,"Mazgaon, Mumbai - IITM",27-09-2025 07:00:00,18.96702,72.84214,OZONE,4,33,9
India,Maharashtra,Mumbai,"Navy Nagar-Colaba, Mumbai - IITM",27-09-2025 07:00:00,18.897756,72.813320,NH3,NA,NA,NA
India,Maharashtra,Mumbai,"Powai, Mumbai - MPCB",27-09-2025 07:00:00,19.137500,72.915056,PM2.5,17,57,34
India,Maharashtra,Mumbai,"Powai, Mumbai - MPCB",27-09-2025 07:00:00,19.137500,72.915056,SO2,15,15,15
India,Maharashtra,Mumbai,"Mindspace-Malad West, Mumbai - MPCB",27-09-2025 07:00:00,19.1878657,72.8304069,PM2.5,24,27,25
India,Maharashtra,Mumbai,"Mindspace-Malad West, Mumbai - MPCB",27-09-2025 07:00:00,19.1878657,72.8304069,PM10,33,36,34
India,Maharashtra,Mumbai,"Mindspace-Malad West, Mumbai - MPCB",27-09-2025 07:00:00,19.1878657,72.8304069,NO2,15,16,15
India,Maharashtra,Mumbai,"Shivaji Nagar, Mumbai - BMC",27-09-2025 07:00:00,19.060498,72.923356,SO2,12,14,13
India,Maharashtra,Navi Mumbai,"Sector-2E Kalamboli, Navi Mumbai - MPCB",27-09-2025 07:00:00,19.02579,73.10297,PM10,72,122,96
India,Maharashtra,Navi Mumbai,"Sector-2E Kalamboli, Navi Mumbai - MPCB",27-09-2025 07:00:00,19.02579,73.10297,NH3,3,9,5
India,Maharashtra,Navi Mumbai,"Tondare-Taloja, Navi Mumbai - MPCB",27-09-2025 07:00:00,19.0630,73.1209,NH3,5,12,8
India,Maharashtra,Parbhani,"Masoom Colony, Parbhani - MPCB",27-09-2025 07:00:00,19.265594,76.761463,SO2,1,27,14
India,Maharashtra,Pimpri-Chinchwad,"Gavalinagar, Pimpri Chinchwad - MPCB",27-09-2025 07:00:00,18.63673,73.82487,PM2.5,21,57,35
India,Maharashtra,Pimpri-Chinchwad,"Gavalinagar, Pimpri Chinchwad - MPCB",27-09-2025 07:00:00,18.63673,73.82487,SO2,2,3,3
India,Maharashtra,Pimpri-Chinchwad,"Gavalinagar, Pimpri Chinchwad - MPCB",27-09-2025 07:00:00,18.63673,73.82487,OZONE,10,10,10
India,Maharashtra,Pimpri-Chinchwad,"Park Street Wakad, Pimpri Chinchwad - MPCB",27-09-2025 07:00:00,18.59051,73.77946,PM2.5,14,42,31
India,Maharashtra,Pimpri-Chinchwad,"Park Street Wakad, Pimpri Chinchwad - MPCB",27-09-2025 07:00:00,18.59051,73.77946,NO2,8,15,11
India,Maharashtra,Pimpri-Chinchwad,"Park Street Wakad, Pimpri Chinchwad - MPCB",27-09-2025 07:00:00,18.59051,73.77946,SO2,1,3,1
India,Maharashtra,Pimpri-Chinchwad,"Park Street Wakad, Pimpri Chinchwad - MPCB",27-09-2025 07:00:00,18.59051,73.77946,CO,5,29,13
India,Maharashtra,Mumbai,"Worli, Mumbai - MPCB",27-09-2025 07:00:00,18.9936162,72.8128113,CO,4,14,7
India,Maharashtra,Nagpur,"Ambazari, Nagpur - MPCB",27-09-2025 07:00:00,21.121801,79.04952,SO2,11,19,16
India,Maharashtra,Nagpur,"Ambazari, Nagpur - MPCB",27-09-2025 07:00:00,21.121801,79.04952,OZONE,3,39,7
India,Maharashtra,Nagpur,"Mahal, Nagpur - MPCB",27-09-2025 07:00:00,21.14472,79.107595,PM2.5,37,73,55
India,Maharashtra,Nagpur,"Mahal, Nagpur - MPCB",27-09-2025 07:00:00,21.14472,79.107595,CO,28,90,42
India,Maharashtra,Nagpur,"Opp GPO Civil Lines, Nagpur - MPCB",27-09-2025 07:00:00,21.152875,79.0517531,OZONE,3,33,4
India,Maharashtra,Nagpur,"Ram Nagar, Nagpur - MPCB",27-09-2025 07:00:00,21.143383,79.048912,PM2.5,23,61,45
