country,state,city,station,last_update,latitude,longitude,pollutant_id,min_value,max_value,avg_value
India,Andhra_Pradesh,Vijayawada,"Rajiv Gandhi Park, Vijayawada - APPCB",15-02-2026 08:00:00,16.509717,80.612222,PM2.5,75,125,90
India,Andhra_Pradesh,Vijayawada,"Rajiv Gandhi Park, Vijayawada - APPCB",15-02-2026 08:00:00,16.509717,80.612222,PM10,NA,NA,NA
India,Andhra_Pradesh,Vijayawada,"Rajiv Gandhi Park, Vijayawada - APPCB",15-02-2026 08:00:00,16.509717,80.612222,NH3,5,5,5
India,Andhra_Pradesh,Vijayawada,"Rajiv Gandhi Park, Vijayawada - APPCB",15-02-2026 08:00:00,16.509717,80.612222,SO2,17,18,17
India,Andhra_Pradesh,Vijayawada,"Rajiv Nagar, Vijayawada - APPCB",15-02-2026 08:00:00,16.554731,80.649110,PM10,NA,NA,NA
India,Andhra_Pradesh,Vijayawada,"Rajiv Nagar, Vijayawada - APPCB",15-02-2026 08:00:00,16.554731,80.649110,NH3,NA,NA,NA
India,Andhra_Pradesh,Vijayawada,"Rajiv Nagar, Vijayawada - APPCB",15-02-2026 08:00:00,16.554731,80.649110,OZONE,NA,NA,NA
India,Andhra_Pradesh,Visakhapatnam,"GVM Corporation, Visakhapatnam - APPCB",15-02-2026 08:00:00,17.72,83.3,NO2,18,169,85
India,Andhra_Pradesh,Visakhapatnam,"GVM Corporation, Visakhapatnam - APPCB",15-02-2026 08:00:00,17.72,83.3,SO2,2,103,20
India,Arunachal_Pradesh,Naharlagun,"Naharlagun, Naharlagun - APSPCB",15-02-2026 08:00:00,27.103358,93.679645,PM2.5,2,364,177
India,Arunachal_Pradesh,Naharlagun,"Naharlagun, Naharlagun - APSPCB",15-02-2026 08:00:00,27.103358,93.679645,NH3,1,1,1
India,Assam,Byrnihat,"Central Academy for SFS, Byrnihat - PCBA",15-02-2026 08:00:00,26.071318,91.87488,NH3,4,5,4
India,Andhra_Pradesh,Kadapa,"Yerramukkapalli, Kadapa - APPCB",15-02-2026 08:00:00,14.465052,78.824187,CO,4,41,17
India,Andhra_Pradesh,Rajamahendravaram,"Anand Kala Kshetram, Rajamahendravaram - APPCB",15-02-2026 08:00:00,16.9872867,81.7363176,PM10,102,146,121
India,Andhra_Pradesh,Rajamahendravaram,"Anand Kala Kshetram, Rajamahendravaram - APPCB",15-02-2026 08:00:00,16.9872867,81.7363176,NO2,16,80,37
India,Andhra_Pradesh,Tirumala,"Toll Gate, Tirumala - APPCB",15-02-2026 08:00:00,13.67,79.35,PM10,57,139,100
India,Andhra_Pradesh,Tirumala,"Toll Gate, Tirumala - APPCB",15-02-2026 08:00:00,13.67,79.35,OZONE,11,66,38
India,Andhra_Pradesh,Vijayawada,"HB Colony, Vijayawada - APPCB",15-02-2026 08:00:00,16.536107,80.594233,PM2.5,41,169,92
India,Andhra_Pradesh,Vijayawada,"HB Colony, Vijayawada - APPCB",15-02-2026 08:00:00,16.536107,80.594233,PM10,41,110,78
India,Andhra_Pradesh,Vijayawada,"HB Colony, Vijayawada - APPCB",15-02-2026 08:00:00,16.536107,80.594233,CO,40,40,40
India,Andhra_Pradesh,Vijayawada,"Kanuru, Vijayawada - APPCB",15-02-2026 08:00:00,16.486692,80.699436,NO2,17,17,17
India,Andhra_Pradesh,Vijayawada,"Kanuru, Vijayawada - APPCB",15-02-2026 08:00:00,16.486692,80.699436,NH3,3,4,4
India,Bihar,Katihar,"Mirchaibari, Katihar - BSPCB",15-02-2026 08:00:00,25.560083,87.553265,NH3,1,1,1
India,Bihar,Kishanganj,"SDM Office_Khagra, Kishanganj - BSPCB",15-02-2026 08:00:00,26.0881305,87.93840336,NH3,3,3,3
India,Bihar,Kishanganj,"SDM Office_Khagra, Kishanganj - BSPCB",15-02-2026 08:00:00,26.0881305,87.93840336,OZONE,31,34,32
India,Bihar,Manguraha,"Forest Rest House, Manguraha - BSPCB",15-02-2026 08:00:00,27.308328,84.531742,OZONE,10,11,10
India,Bihar,Motihari,"Gandak Colony, Motihari - BSPCB",15-02-2026 08:00:00,26.63086,84.90051,PM10,25,155,91
India,Bihar,Motihari,"Gandak Colony, Motihari - BSPCB",15-02-2026 08:00:00,26.63086,84.90051,SO2,3,3,3
India,Bihar,Motihari,"Gandak Colony, Motihari - BSPCB",15-02-2026 08:00:00,26.63086,84.90051,CO,18,38,32
India,Bihar,Munger,"Town Hall, Munger - BSPCB",15-02-2026 08:00:00,25.376776,86.471523,PM2.5,48,87,63
India,Bihar,Munger,"Town Hall, Munger - BSPCB",15-02-2026 08:00:00,25.376776,86.471523,CO,24,40,26
India,Assam,Silchar,"Tarapur, Silchar - PCBA",15-02-2026 08:00:00,24.82827,92.79525,CO,18,82,67
India,Assam,Silchar,"Tarapur, Silchar - PCBA",15-02-2026 08:00:00,24.82827,92.79525,OZONE,2,4,2
India,Bihar,Araria,"Kharahiya Basti, Araria - BSPCB",15-02-2026 08:00:00,26.146529,87.454184,PM10,30,105,70
India,Bihar,Araria,"Kharahiya Basti, Araria - BSPCB",15-02-2026 08:00:00,26.146529,87.454184,NH3,4,5,4
India,Bihar,Araria,"Kharahiya Basti, Araria - BSPCB",15-02-2026 08:00:00,26.146529,87.454184,OZONE,9,11,10
India,Bihar,Aurangabad,"Gurdeo Nagar, Aurangabad - BSPCB",15-02-2026 08:00:00,24.75746,84.366208,PM10,54,113,79
India,Bihar,Aurangabad,"Gurdeo Nagar, Aurangabad - BSPCB",15-02-2026 08:00:00,24.75746,84.366208,NO2,7,8,8
India,Bihar,Begusarai,"Lohiyanagar, Begusarai - BSPCB",15-02-2026 08:00:00,25.42742023,86.13886079,PM2.5,33,127,71
India,Bihar,Begusarai,"Lohiyanagar, Begusarai - BSPCB",15-02-2026 08:00:00,25.42742023,86.13886079,NO2,5,10,8
India,Bihar,Begusarai,"Lohiyanagar, Begusarai - BSPCB",15-02-2026 08:00:00,25.42742023,86.13886079,NH3,10,11,11
India,Bihar,Bettiah,"Kamalnath Nagar, Bettiah - BSPCB",15-02-2026 08:00:00,26.80365,84.51954,PM10,54,105,75
India,Bihar,Bettiah,"Kamalnath Nagar, Bettiah - BSPCB",15-02-2026 08:00:00,26.80365,84.51954,NO2,7,9,8
India,Bihar,Bhagalpur,"DM Office_Kachari Chowk, Bhagalpur - BSPCB",15-02-2026 08:00:00,25.251013,86.989001,NO2,6,13,9
India,Bihar,Bhagalpur,"DM Office_Kachari Chowk, Bhagalpur - BSPCB",15-02-2026 08:00:00,25.251013,86.989001,SO2,29,74,51
India,Bihar,Bhagalpur,"Mayaganj, Bhagalpur - BSPCB",15-02-2026 08:00:00,25.265194,87.012947,NO2,7,10,8
India,Bihar,Bhagalpur,"Mayaganj, Bhagalpur - BSPCB",15-02-2026 08:00:00,25.265194,87.012947,SO2,43,64,52
India,Assam,Guwahati,"Pan Bazaar, Guwahati - PCBA",15-02-2026 08:00:00,26.187500,91.744194,PM10,120,295,177
India,Assam,Guwahati,"Pan Bazaar, Guwahati - PCBA",15-02-2026 08:00:00,26.187500,91.744194,CO,20,94,43
India,Assam,Nagaon,"Christianpatty, Nagaon - PCBA",15-02-2026 08:00:00,26.349082,92.68449,PM10,76,149,111
India,Assam,Nagaon,"Christianpatty, Nagaon - PCBA",15-02-2026 08:00:00,26.349082,92.68449,NO2,1,1,1
India,Assam,Nagaon,"Christianpatty, Nagaon - PCBA",15-02-2026 08:00:00,26.349082,92.68449,SO2,10,13,11
India,Assam,Nagaon,"Christianpatty, Nagaon - PCBA",15-02-2026 08:00:00,26.349082,92.68449,OZONE,8,9,9
India,Assam,Silchar,"Tarapur, Silchar - PCBA",15-02-2026 08:00:00,24.82827,92.79525,PM2.5,32,89,59
India,Andhra_Pradesh,Anantapur,"Gulzarpet, Anantapur - APPCB",15-02-2026 08:00:00,14.675886,77.593027,PM2.5,83,107,95
India,Andhra_Pradesh,Anantapur,"Gulzarpet, Anantapur - APPCB",15-02-2026 08:00:00,14.675886,77.593027,NH3,5,5,5
India,Andhra_Pradesh,Anantapur,"Gulzarpet, Anantapur - APPCB",15-02-2026 08:00:00,14.675886,77.593027,CO,26,46,36
India,Andhra_Pradesh,Chittoor,"Gangineni Cheruvu, Chittoor - APPCB",15-02-2026 08:00:00,13.204880,79.097889,PM2.5,52,75,67
India,Andhra_Pradesh,Chittoor,"Gangineni Cheruvu, Chittoor - APPCB",15-02-2026 08:00:00,13.204880,79.097889,SO2,11,12,11
India,Andhra_Pradesh,Chittoor,"Gangineni Cheruvu, Chittoor - APPCB",15-02-2026 08:00:00,13.204880,79.097889,CO,30,46,34
India,Bihar,Muzaffarpur,"MIT-Daudpur Kothi, Muzaffarpur - BSPCB",15-02-2026 08:00:00,26.1403345,85.3650192,OZONE,48,56,54
India,Bihar,Patna,"DRM Office Danapur, Patna - BSPCB",15-02-2026 08:00:00,25.586562,85.043586,CO,14,70,38
India,Bihar,Patna,"Govt. High School Shikarpur, Patna - BSPCB",15-02-2026 08:00:00,25.592539,85.227158,NO2,14,36,24
India,Bihar,Buxar,"Charitra Van, Buxar - BSPCB",15-02-2026 08:00:00,25.567520,83.966379,NH3,3,3,3
India,Bihar,Buxar,"Charitra Van, Buxar - BSPCB",15-02-2026 08:00:00,25.567520,83.966379,OZONE,3,43,6
India,Bihar,Chhapra,"Darshan Nagar, Chhapra - BSPCB",15-02-2026 08:00:00,25.7808257,84.7446768,PM10,36,139,83
India,Bihar,Gaya,"SFTI Kusdihra, Gaya - BSPCB",15-02-2026 08:00:00,24.762518,84.982348,SO2,6,22,9
India,Bihar,Hajipur,"Industrial Area, Hajipur - BSPCB",15-02-2026 08:00:00,25.697189,85.245900,OZONE,19,120,25
India,Chhattisgarh,Raipur,"Bhatagaon New ISBT, Raipur - CECB",15-02-2026 08:00:00,21.219665,81.630094,OZONE,2,11,2
India,Chhattisgarh,Raipur,"Krishak Nagar, Raipur - CECB",15-02-2026 08:00:00,21.237755,81.705301,PM2.5,58,85,70
India,Chhattisgarh,Raipur,"Krishak Nagar, Raipur - CECB",15-02-2026 08:00:00,21.237755,81.705301,OZONE,6,17,6
India,Chhattisgarh,Raipur,"Siltara Phase-II, Raipur - CECB",15-02-2026 08:00:00,21.371751,81.664929,NH3,2,2,2
India,Chhattisgarh,Tumidih,"OP Jindal Industrial Park, Tumidih - CECB",15-02-2026 08:00:00,22.06631475,83.33820077,PM2.5,43,356,105
India,Chhattisgarh,Tumidih,"OP Jindal Industrial Park, Tumidih - CECB",15-02-2026 08:00:00,22.06631475,83.33820077,PM10,45,497,133
India,Chhattisgarh,Tumidih,"OP Jindal Industrial Park, Tumidih - CECB",15-02-2026 08:00:00,22.06631475,83.33820077,OZONE,4,117,9
India,Delhi,Delhi,"Alipur, Delhi - DPCC",15-02-2026 08:00:00,28.815329,77.153010,PM10,103,439,199
India,Delhi,Delhi,"Alipur, Delhi - DPCC",15-02-2026 08:00:00,28.815329,77.153010,CO,44,93,47
India,Delhi,Delhi,"Anand Vihar, Delhi - DPCC",15-02-2026 08:00:00,28.647622,77.3158090,SO2,2,17,8
India,Delhi,Delhi,"Ashok Vihar, Delhi - DPCC",15-02-2026 08:00:00,28.695381,77.181665,PM2.5,88,361,238
India,Delhi,Delhi,"Ashok Vihar, Delhi - DPCC",15-02-2026 08:00:00,28.695381,77.181665,NO2,32,153,85
India,Chandigarh,Chandigarh,"Sector-25, Chandigarh - CPCC",15-02-2026 08:00:00,30.751462,76.762879,NH3,9,9,9
India,Chandigarh,Chandigarh,"Sector-25, Chandigarh - CPCC",15-02-2026 08:00:00,30.751462,76.762879,SO2,1,9,5
India,Chhattisgarh,Bhilai,"32Bungalows, Bhilai - CECB",15-02-2026 08:00:00,21.194815,81.314770,PM2.5,17,44,34
India,Chhattisgarh,Bhilai,"32Bungalows, Bhilai - CECB",15-02-2026 08:00:00,21.194815,81.314770,NO2,37,52,42
India,Chhattisgarh,Bhilai,"32Bungalows, Bhilai - CECB",15-02-2026 08:00:00,21.194815,81.314770,SO2,NA,NA,NA
India,Chhattisgarh,Bhilai,"Hathkhoj, Bhilai - CECB",15-02-2026 08:00:00,21.224231,81.408350,CO,17,104,40
India,Chhattisgarh,Bilaspur,"Mangala, Bilaspur - NTPC",15-02-2026 08:00:00,22.08815,82.13737,PM10,49,123,80
India,Chhattisgarh,Bilaspur,"Mangala, Bilaspur - NTPC",15-02-2026 08:00:00,22.08815,82.13737,NO2,19,197,54
India,Chhattisgarh,Bilaspur,"Mangala, Bilaspur - NTPC",15-02-2026 08:00:00,22.08815,82.13737,CO,18,94,25
India,Chhattisgarh,Chhal,"Nawapara SECL Colony, Chhal - CECB",15-02-2026 08:00:00,22.118125,83.140608,NH3,5,5,5
India,Delhi,Delhi,"Ashok Vihar, Delhi - DPCC",15-02-2026 08:00:00,28.695381,77.181665,CO,14,97,52
India,Delhi,Delhi,"Aya Nagar, Delhi - IMD",15-02-2026 08:00:00,28.4706914,77.1099364,PM2.5,50,284,158
India,Delhi,Delhi,"Aya Nagar, Delhi - IMD",15-02-2026 08:00:00,28.4706914,77.1099364,OZONE,5,112,10
India,Delhi,Delhi,"Bawana, Delhi - DPCC",15-02-2026 08:00:00,28.776200,77.051074,NO2,8,60,30
India,Delhi,Delhi,"Bawana, Delhi - DPCC",15-02-2026 08:00:00,28.776200,77.051074,SO2,9,26,15
India,Delhi,Delhi,"Bawana, Delhi - DPCC",15-02-2026 08:00:00,28.776200,77.051074,CO,37,84,56
India,Delhi,Delhi,"Bawana, Delhi - DPCC",15-02-2026 08:00:00,28.776200,77.051074,OZONE,4,114,11
India,Delhi,Delhi,"Burari Crossing, Delhi - IMD",15-02-2026 08:00:00,28.7256504,77.2011573,CO,22,103,53
India,Delhi,Delhi,"CRRI Mathura Road, Delhi - IMD",15-02-2026 08:00:00,28.5512005,77.2735737,OZONE,2,76,4
India,Delhi,Delhi,"DTU, Delhi - CPCB",15-02-2026 08:00:00,28.7500499,77.1112615,PM10,74,195,132
India,Bihar,Saharsa,"Police Line, Saharsa - BSPCB",15-02-2026 08:00:00,25.892357,86.590325,PM10,66,178,101
India,Bihar,Saharsa,"Police Line, Saharsa - BSPCB",15-02-2026 08:00:00,25.892357,86.590325,CO,38,46,42
India,Bihar,Saharsa,"Police Line, Saharsa - BSPCB",15-02-2026 08:00:00,25.892357,86.590325,OZONE,5,12,9
India,Bihar,Samastipur,"DM Office_Kasipur, Samastipur - BSPCB",15-02-2026 08:00:00,25.859655,85.77944,PM2.5,33,87,61
India,Bihar,Samastipur,"DM Office_Kasipur, Samastipur - BSPCB",15-02-2026 08:00:00,25.859655,85.77944,PM10,33,86,61
India,Bihar,Samastipur,"DM Office_Kasipur, Samastipur - BSPCB",15-02-2026 08:00:00,25.859655,85.77944,OZONE,7,8,8
India,Bihar,Sasaram,"Dada Peer, Sasaram - BSPCB",15-02-2026 08:00:00,24.952822,84.002396,NH3,3,3,3
India,Bihar,Siwan,"Chitragupta Nagar, Siwan - BSPCB",15-02-2026 08:00:00,26.2271665,84.3570427,SO2,6,7,7
India,Chandigarh,Chandigarh,"Sector 22, Chandigarh - CPCC",15-02-2026 08:00:00,30.735567,76.775714,SO2,7,15,10
India,Delhi,Delhi,"NSIT Dwarka, Delhi - CPCB",15-02-2026 08:00:00,28.60909,77.0325413,NH3,6,8,7
India,Delhi,Delhi,"NSIT Dwarka, Delhi - CPCB",15-02-2026 08:00:00,28.60909,77.0325413,SO2,9,21,15
India,Delhi,Delhi,"NSIT Dwarka, Delhi - CPCB",15-02-2026 08:00:00,28.60909,77.0325413,CO,36,70,42
India,Delhi,Delhi,"NSIT Dwarka, Delhi - CPCB",15-02-2026 08:00:00,28.60909,77.0325413,OZONE,11,28,13
India,Delhi,Delhi,"Najafgarh, Delhi - DPCC",15-02-2026 08:00:00,28.570173,76.933762,CO,15,112,49
India,Delhi,Delhi,"Narela, Delhi - DPCC",15-02-2026 08:00:00,28.822836,77.101981,NH3,4,7,5
India,Delhi,Delhi,"Nehru Nagar, Delhi - DPCC",15-02-2026 08:00:00,28.567890,77.250515,PM2.5,78,402,256
India,Delhi,Delhi,"Nehru Nagar, Delhi - DPCC",15-02-2026 08:00:00,28.567890,77.250515,PM10,102,352,200
India,Delhi,Delhi,"Nehru Nagar, Delhi - DPCC",15-02-2026 08:00:00,28.567890,77.250515,OZONE,1,154,2
India,Delhi,Delhi,"North Campus, DU, Delhi - IMD",15-02-2026 08:00:00,28.6573814,77.1585447,NO2,47,121,86
India,Delhi,Delhi,"Dr. Karni Singh Shooting Range, Delhi - DPCC",15-02-2026 08:00:00,28.498571,77.264840,NH3,8,10,9
India,Delhi,Delhi,"Dwarka-Sector 8, Delhi - DPCC ",15-02-2026 08:00:00,28.5710274,77.0719006,NH3,15,26,21
India,Delhi,Delhi,"Dwarka-Sector 8, Delhi - DPCC ",15-02-2026 08:00:00,28.5710274,77.0719006,CO,46,136,81
India,Delhi,Delhi,"IGI Airport (T3), Delhi - IMD",15-02-2026 08:00:00,28.5627763,77.1180053,PM10,95,305,169
India,Delhi,Delhi,"IHBAS, Dilshad Garden, Delhi - CPCB",15-02-2026 08:00:00,28.6811736,77.3025234,OZONE,26,30,28
India,Delhi,Delhi,"IIT Delhi, Delhi - IITM",15-02-2026 08:00:00,28.542460,77.191651,PM2.5,56,305,156
India,Delhi,Delhi,"ITO, Delhi - CPCB",15-02-2026 08:00:00,28.628624,77.241060,NH3,3,5,4
India,Bihar,Patna,"Rajbansi Nagar, Patna - BSPCB",15-02-2026 08:00:00,25.599486,85.113666,PM2.5,54,92,73
India,Bihar,Patna,"Rajbansi Nagar, Patna - BSPCB",15-02-2026 08:00:00,25.599486,85.113666,NH3,1,3,2
India,Bihar,Patna,"Samanpura, Patna - BSPCB",15-02-2026 08:00:00,25.596727,85.085624,NH3,4,8,6
India,Bihar,Purnia,"Mariam Nagar, Purnia - BSPCB",15-02-2026 08:00:00,25.366336,87.117468,NO2,5,6,6
India,Bihar,Purnia,"Mariam Nagar, Purnia - BSPCB",15-02-2026 08:00:00,25.366336,87.117468,SO2,6,26,14
India,Bihar,Purnia,"Mariam Nagar, Purnia - BSPCB",15-02-2026 08:00:00,25.366336,87.117468,CO,20,90,72
India,Bihar,Rajgir,"Dangi Tola, Rajgir - BSPCB",15-02-2026 08:00:00,25.03280,85.41948,PM10,NA,NA,NA
India,Bihar,Rajgir,"Dangi Tola, Rajgir - BSPCB",15-02-2026 08:00:00,25.03280,85.41948,CO,78,100,89
India,Chhattisgarh,Kunjemura,"OP Jindal School, Kunjemura - CECB",15-02-2026 08:00:00,22.126650,83.483212,CO,22,50,45
India,Chhattisgarh,Kunjemura,"OP Jindal School, Kunjemura - CECB",15-02-2026 08:00:00,22.126650,83.483212,OZONE,NA,NA,NA
India,Chhattisgarh,Milupara,"Govt. Higher Secondary School, Milupara - CECB",15-02-2026 08:00:00,22.1910172,83.5197009,SO2,13,17,14
India,Chhattisgarh,Milupara,"Govt. Higher Secondary School, Milupara - CECB",15-02-2026 08:00:00,22.1910172,83.5197009,OZONE,4,147,16
India,Chhattisgarh,Raipur,"AIIMS, Raipur - CECB",15-02-2026 08:00:00,21.258815,81.578979,PM10,36,170,83
India,Chhattisgarh,Raipur,"AIIMS, Raipur - CECB",15-02-2026 08:00:00,21.258815,81.578979,SO2,3,7,5
India,Delhi,Delhi,"ITO, Delhi - CPCB",15-02-2026 08:00:00,28.628624,77.241060,OZONE,19,107,19
India,Delhi,Delhi,"Jahangirpuri, Delhi - DPCC",15-02-2026 08:00:00,28.732820,77.170633,PM10,124,287,200
India,Delhi,Delhi,"Jahangirpuri, Delhi - DPCC",15-02-2026 08:00:00,28.732820,77.170633,NH3,19,40,31
India,Delhi,Delhi,"Jahangirpuri, Delhi - DPCC",15-02-2026 08:00:00,28.732820,77.170633,SO2,46,68,53
India,Delhi,Delhi,"Mandir Marg, Delhi - DPCC",15-02-2026 08:00:00,28.636429,77.201067,NH3,5,12,8
India,Gujarat,Surat,"Science Center, Surat - SMC",15-02-2026 08:00:00,21.170046,72.795405,PM2.5,51,366,232
India,Gujarat,Vadodara,"Bapunagar, Vadodara - Nexteng Enviro",15-02-2026 08:00:00,22.320153,73.216285,PM2.5,15,318,145
India,Gujarat,Vapi,"Phase-1 GIDC, Vapi - GPCB",15-02-2026 08:00:00,20.362421,72.918013,PM2.5,41,200,76
India,Gujarat,Vapi,"Phase-1 GIDC, Vapi - GPCB",15-02-2026 08:00:00,20.362421,72.918013,NH3,2,4,4
India,Gujarat,Vatva,"Phase-4 GIDC, Vatva - GPCB",15-02-2026 08:00:00,22.969611,72.643500,NO2,65,130,99
India,Gujarat,Vatva,"Phase-4 GIDC, Vatva - GPCB",15-02-2026 08:00:00,22.969611,72.643500,SO2,15,22,18
India,Haryana,Ambala,"Patti Mehar, Ambala - HSPCB",15-02-2026 08:00:00,30.379589,76.778328,OZONE,14,17,15
India,Haryana,Bahadurgarh,"Arya Nagar, Bahadurgarh - HSPCB",15-02-2026 08:00:00,28.6701,76.9254,NH3,12,13,13
India,Haryana,Ballabgarh,"Nathu Colony, Ballabgarh - HSPCB",15-02-2026 08:00:00,28.3419248,77.319699,PM10,NA,NA,NA
India,Haryana,Ballabgarh,"Nathu Colony, Ballabgarh - HSPCB",15-02-2026 08:00:00,28.3419248,77.319699,OZONE,15,15,15
India,Haryana,Bhiwani,"H.B. Colony, Bhiwani - HSPCB",15-02-2026 08:00:00,28.806223,76.141105,PM2.5,52,500,238
India,Haryana,Charkhi Dadri,"Mini Secretariat, Charkhi Dadri - HSPCB",15-02-2026 08:00:00,28.593883,76.270653,CO,8,25,18
India,Haryana,Dharuhera,"Municipal Corporation Office, Dharuhera -  HSPCB",15-02-2026 08:00:00,28.206800,76.799700,SO2,6,7,7
India,Haryana,Dharuhera,"Municipal Corporation Office, Dharuhera -  HSPCB",15-02-2026 08:00:00,28.206800,76.799700,CO,54,102,90
India,Haryana,Faridabad,"New Industrial Town, Faridabad - HSPCB",15-02-2026 08:00:00,28.39072,77.30059,OZONE,27,34,30
India,Haryana,Faridabad,"Sector 11, Faridabad - HSPCB",15-02-2026 08:00:00,28.376058,77.315741,NH3,10,10,10
India,Haryana,Faridabad,"Sector 30, Faridabad - HSPCB",15-02-2026 08:00:00,28.4417,77.3217,PM10,103,103,103
India,Haryana,Faridabad,"Sector 30, Faridabad - HSPCB",15-02-2026 08:00:00,28.4417,77.3217,NO2,35,39,37
India,Delhi,Delhi,"Rohini, Delhi - DPCC",15-02-2026 08:00:00,28.732528,77.119920,NH3,9,14,12
India,Delhi,Delhi,"Shadipur, Delhi - CPCB",15-02-2026 08:00:00,28.6514781,77.1473105,PM2.5,180,351,292
India,Delhi,Delhi,"Shadipur, Delhi - CPCB",15-02-2026 08:00:00,28.6514781,77.1473105,NH3,11,16,12
India,Delhi,Delhi,"Sirifort, Delhi - CPCB",15-02-2026 08:00:00,28.5504249,77.2159377,NO2,28,36,32
India,Delhi,Delhi,"Sonia Vihar, Delhi - DPCC",15-02-2026 08:00:00,28.710508,77.249485,SO2,26,53,37
India,Delhi,Delhi,"Sri Aurobindo Marg, Delhi - DPCC",15-02-2026 08:00:00,28.531346,77.190156,PM2.5,78,304,154
India,Delhi,Delhi,"Sri Aurobindo Marg, Delhi - DPCC",15-02-2026 08:00:00,28.531346,77.190156,NO2,20,63,41
India,Delhi,Delhi,"Sri Aurobindo Marg, Delhi - DPCC",15-02-2026 08:00:00,28.531346,77.190156,SO2,8,12,10
India,Delhi,Delhi,"Sri Aurobindo Marg, Delhi - DPCC",15-02-2026 08:00:00,28.531346,77.190156,OZONE,1,121,3
India,Delhi,Delhi,"Vivek Vihar, Delhi - DPCC",15-02-2026 08:00:00,28.672342,77.315260,PM2.5,88,349,250
India,Delhi,Delhi,"Vivek Vihar, Delhi - DPCC",15-02-2026 08:00:00,28.672342,77.315260,PM10,115,227,179
India,Gujarat,Bhavnagar,"Vidhyanagar, Bhavnagar - Nexteng Enviro",15-02-2026 08:00:00,21.755417,72.139056,NH3,4,9,7
India,Gujarat,Gandhinagar,"GIFT City, Gandhinagar - IITM",15-02-2026 08:00:00,23.163798,72.677768,NO2,18,85,41
India,Gujarat,Gandhinagar,"Sector-10, Gandhinagar - GPCB",15-02-2026 08:00:00,23.221714,72.654328,PM2.5,1,214,51
India,Gujarat,Gandhinagar,"Sector-10, Gandhinagar - GPCB",15-02-2026 08:00:00,23.221714,72.654328,PM10,69,155,113
India,Gujarat,Gandhinagar,"Sector-10, Gandhinagar - GPCB",15-02-2026 08:00:00,23.221714,72.654328,SO2,4,8,6
India,Gujarat,Mehsana,"Sadanand Nagar, Mehsana - Nexteng Enviro",15-02-2026 08:00:00,23.593150,72.372792,PM2.5,39,253,118
India,Gujarat,Mehsana,"Sadanand Nagar, Mehsana - Nexteng Enviro",15-02-2026 08:00:00,23.593150,72.372792,PM10,82,227,138
India,Gujarat,Mehsana,"Sadanand Nagar, Mehsana - Nexteng Enviro",15-02-2026 08:00:00,23.593150,72.372792,NO2,28,43,36
India,Gujarat,Mehsana,"Sadanand Nagar, Mehsana - Nexteng Enviro",15-02-2026 08:00:00,23.593150,72.372792,NH3,1,3,2
India,Gujarat,Surat,"Katargam, Surat - Nexteng Enviro",15-02-2026 08:00:00,21.217779 ,72.834787 ,PM2.5,70,312,169
India,Haryana,Faridabad,"Sector 30, Faridabad - HSPCB",15-02-2026 08:00:00,28.4417,77.3217,NH3,11,12,11
India,Haryana,Faridabad,"Sector 30, Faridabad - HSPCB",15-02-2026 08:00:00,28.4417,77.3217,CO,58,66,62
India,Haryana,Faridabad,"Sector 30, Faridabad - HSPCB",15-02-2026 08:00:00,28.4417,77.3217,OZONE,17,19,18
India,Haryana,Fatehabad,"Huda Sector, Fatehabad - HSPCB",15-02-2026 08:00:00,29.503664,75.467934,SO2,10,11,10
India,Haryana,Gurugram,"NISE Gwal Pahari, Gurugram - IMD",15-02-2026 08:00:00,28.422681,77.148944,PM10,104,309,193
India,Haryana,Gurugram,"Sector-51, Gurugram - HSPCB",15-02-2026 08:00:00,28.4227,77.0667,PM10,87,467,243
India,Haryana,Gurugram,"Sector-51, Gurugram - HSPCB",15-02-2026 08:00:00,28.4227,77.0667,NO2,6,15,9
India,Haryana,Gurugram,"Sector-51, Gurugram - HSPCB",15-02-2026 08:00:00,28.4227,77.0667,SO2,4,9,6
India,Haryana,Gurugram,"Teri Gram, Gurugram - HSPCB",15-02-2026 08:00:00,28.4275,77.1465,NO2,NA,NA,NA
India,Haryana,Gurugram,"Vikas Sadan, Gurugram - HSPCB",15-02-2026 08:00:00,28.4501238,77.0263051,CO,64,114,96
India,Delhi,Delhi,"Okhla Phase-2, Delhi - DPCC",15-02-2026 08:00:00,28.530785,77.271255,NO2,37,138,90
India,Delhi,Delhi,"Punjabi Bagh, Delhi - DPCC",15-02-2026 08:00:00,28.674045,77.131023,PM10,111,249,172
India,Delhi,Delhi,"Pusa, Delhi - DPCC",15-02-2026 08:00:00,28.639652,77.146275,PM10,124,312,188
India,Delhi,Delhi,"Pusa, Delhi - DPCC",15-02-2026 08:00:00,28.639652,77.146275,CO,34,116,76
India,Delhi,Delhi,"Pusa, Delhi - IMD",15-02-2026 08:00:00,28.636110,77.173332,PM10,89,254,158
India,Delhi,Delhi,"R K Puram, Delhi - DPCC",15-02-2026 08:00:00,28.563262,77.186937,PM10,111,411,184
India,Delhi,Delhi,"R K Puram, Delhi - DPCC",15-02-2026 08:00:00,28.563262,77.186937,NH3,7,11,10
India,Delhi,Delhi,"Rohini, Delhi - DPCC",15-02-2026 08:00:00,28.732528,77.119920,PM2.5,83,345,249
India,Haryana,Kaithal,"Rishi Nagar, Kaithal - HSPCB",15-02-2026 08:00:00,29.8006,76.4155,NO2,20,32,31
India,Haryana,Kurukshetra,"Sector-7, Kurukshetra - HSPCB",15-02-2026 08:00:00,29.966942,76.875879,NO2,16,22,19
India,Haryana,Kurukshetra,"Sector-7, Kurukshetra - HSPCB",15-02-2026 08:00:00,29.966942,76.875879,NH3,5,5,5
India,Haryana,Mandikhera,"General Hospital, Mandikhera(Nuh) - HSPCB",15-02-2026 08:00:00,27.9002,76.9938,NO2,19,23,22
India,Haryana,Mandikhera,"General Hospital, Mandikhera(Nuh) - HSPCB",15-02-2026 08:00:00,27.9002,76.9938,NH3,13,15,13
India,Gujarat,Ahmedabad,"Chandkheda, Ahmedabad - IITM",15-02-2026 08:00:00,23.107969,72.574648,NH3,1,4,2
India,Gujarat,Ahmedabad,"Gyaspur, Ahmedabad - IITM",15-02-2026 08:00:00,22.977134,72.553024,PM10,NA,NA,NA
India,Gujarat,Ahmedabad,"Maninagar, Ahmedabad - GPCB",15-02-2026 08:00:00,23.002657,72.591912,PM10,55,167,108
India,Gujarat,Ahmedabad,"Rakhial, Ahmedabad - IITM",15-02-2026 08:00:00,23.016834,72.625775,NH3,3,11,5
India,Gujarat,Ankleshwar,"GIDC, Ankleshwar - GPCB",15-02-2026 08:00:00,21.613267,73.010555,OZONE,8,80,14
India,Haryana,Narnaul,"Shastri Nagar, Narnaul - HSPCB",15-02-2026 08:00:00,28.060249,76.113115,CO,39,68,62
India,Haryana,Palwal,"Shyam Nagar, Palwal - HSPCB",15-02-2026 08:00:00,28.1485564,77.3320667,NO2,23,24,24
India,Haryana,Palwal,"Shyam Nagar, Palwal - HSPCB",15-02-2026 08:00:00,28.1485564,77.3320667,OZONE,15,18,16
India,Haryana,Panchgaon,"Amity University, Panchgaon - IITM",15-02-2026 08:00:00,28.3153,76.9143,NH3,4,15,8
India,Haryana,Panchkula,"Sector-6, Panchkula - HSPCB ",15-02-2026 08:00:00,30.7057778,76.8531805555555,NO2,23,26,25
India,Haryana,Panchkula,"Sector-6, Panchkula - HSPCB ",15-02-2026 08:00:00,30.7057778,76.8531805555555,SO2,14,15,15
India,Haryana,Rohtak,"MD University, Rohtak - HSPCB",15-02-2026 08:00:00,28.52123,76.37138,NO2,10,13,11
India,Haryana,Sirsa,"F-Block, Sirsa - HSPCB",15-02-2026 08:00:00,29.536400,75.015800,NO2,19,22,21
India,Haryana,Sirsa,"F-Block, Sirsa - HSPCB",15-02-2026 08:00:00,29.536400,75.015800,SO2,5,23,12
India,Haryana,Sonipat,"Murthal, Sonipat - HSPCB",15-02-2026 08:00:00,29.027200,77.062100,PM2.5,55,265,136
India,Haryana,Sonipat,"Murthal, Sonipat - HSPCB",15-02-2026 08:00:00,29.027200,77.062100,NH3,11,11,11
India,Karnataka,Bagalkot,"Vidayagiri, Bagalkot - KSPCB",15-02-2026 08:00:00,16.172806,75.659694,OZONE,12,13,12
India,Karnataka,Bengaluru,"BTM Layout, Bengaluru - CPCB",15-02-2026 08:00:00,12.9135218,77.5950804,PM10,94,96,95
India,Karnataka,Bengaluru,"BTM Layout, Bengaluru - CPCB",15-02-2026 08:00:00,12.9135218,77.5950804,NO2,5,10,7
India,Karnataka,Bengaluru,"BWSSB Kadabesanahalli, Bengaluru - CPCB",15-02-2026 08:00:00,12.9352049,77.6814488,NH3,NA,NA,NA
India,Karnataka,Bengaluru,"Bapuji Nagar, Bengaluru - KSPCB",15-02-2026 08:00:00,12.951913,77.539784,NH3,5,8,7
India,Karnataka,Bengaluru,"City Railway Station, Bengaluru - KSPCB",15-02-2026 08:00:00,12.9756843,77.5660749,SO2,18,19,19
India,Karnataka,Bengaluru,"City Railway Station, Bengaluru - KSPCB",15-02-2026 08:00:00,12.9756843,77.5660749,CO,70,80,77
India,Karnataka,Bengaluru,"Hombegowda Nagar, Bengaluru - KSPCB",15-02-2026 08:00:00,12.938539,77.590100,NO2,24,65,37
India,Karnataka,Bengaluru,"Hombegowda Nagar, Bengaluru - KSPCB",15-02-2026 08:00:00,12.938539,77.590100,NH3,3,8,4
India,Karnataka,Bengaluru,"Hombegowda Nagar, Bengaluru - KSPCB",15-02-2026 08:00:00,12.938539,77.590100,SO2,9,19,15
India,Haryana,Yamuna Nagar,"Gobind Pura, Yamuna Nagar - HSPCB",15-02-2026 08:00:00,30.1480566,77.2893471,PM2.5,133,209,167
India,Haryana,Yamuna Nagar,"Gobind Pura, Yamuna Nagar - HSPCB",15-02-2026 08:00:00,30.1480566,77.2893471,NH3,4,4,4
India,Haryana,Yamuna Nagar,"Gobind Pura, Yamuna Nagar - HSPCB",15-02-2026 08:00:00,30.1480566,77.2893471,CO,30,53,36
India,Himachal Pradesh,Baddi,"HIMUDA Complex Phase-1, Baddi - HPPCB",15-02-2026 08:00:00,30.943887,76.801991,PM2.5,68,263,156
India,Himachal Pradesh,Baddi,"HIMUDA Complex Phase-1, Baddi - HPPCB",15-02-2026 08:00:00,30.943887,76.801991,PM10,96,205,150
India,Himachal Pradesh,Baddi,"HIMUDA Complex Phase-1, Baddi - HPPCB",15-02-2026 08:00:00,30.943887,76.801991,SO2,25,116,64
India,Jammu_and_Kashmir,Pampore,"Khrew, Pampore - JKPCC",15-02-2026 08:00:00,34.031606,75.009712,NO2,21,77,36
India,Jammu_and_Kashmir,Pampore,"Khrew, Pampore - JKPCC",15-02-2026 08:00:00,34.031606,75.009712,SO2,2,3,2
India,Jammu_and_Kashmir,Srinagar,"Rajbagh, Srinagar - JKPCC",15-02-2026 08:00:00,34.066206,74.819820,PM10,21,44,34
India,Jammu_and_Kashmir,Srinagar,"Rajbagh, Srinagar - JKPCC",15-02-2026 08:00:00,34.066206,74.819820,SO2,3,4,3
India,Karnataka,Bengaluru,"Jayanagar 5th Block, Bengaluru - KSPCB",15-02-2026 08:00:00,12.920984,77.584908,PM2.5,NA,NA,NA
India,Karnataka,Bengaluru,"Jayanagar 5th Block, Bengaluru - KSPCB",15-02-2026 08:00:00,12.920984,77.584908,NH3,1,3,2
India,Karnataka,Bengaluru,"Jayanagar 5th Block, Bengaluru - KSPCB",15-02-2026 08:00:00,12.920984,77.584908,SO2,1,11,6
India,Karnataka,Bengaluru,"Jigani, Bengaluru - KSPCB",15-02-2026 08:00:00,12.7816279,77.6299145,PM2.5,NA,NA,NA
India,Karnataka,Bengaluru,"Jigani, Bengaluru - KSPCB",15-02-2026 08:00:00,12.7816279,77.6299145,PM10,NA,NA,NA
India,Karnataka,Bengaluru,"Kasturi Nagar, Bengaluru - KSPCB",15-02-2026 08:00:00,13.003872,77.664217,NO2,31,33,32
India,Karnataka,Bengaluru,"Kasturi Nagar, Bengaluru - KSPCB",15-02-2026 08:00:00,13.003872,77.664217,SO2,13,14,14
India,Karnataka,Bengaluru,"Kasturi Nagar, Bengaluru - KSPCB",15-02-2026 08:00:00,13.003872,77.664217,CO,42,52,47
India,Karnataka,Bengaluru,"RVCE-Mailasandra, Bengaluru - KSPCB",15-02-2026 08:00:00,12.921418,77.502466,SO2,5,6,6
India,Karnataka,Bengaluru,"Silk Board, Bengaluru - KSPCB",15-02-2026 08:00:00,12.917348,77.622813,NO2,37,83,57
India,Karnataka,Bengaluru,"Silk Board, Bengaluru - KSPCB",15-02-2026 08:00:00,12.917348,77.622813,NH3,4,7,6
India,Karnataka,Tumakuru,"Thimmalapura, Tumakuru - KSPCB",15-02-2026 08:00:00,13.377516,77.099072,PM10,87,174,116
India,Karnataka,Tumakuru,"Thimmalapura, Tumakuru - KSPCB",15-02-2026 08:00:00,13.377516,77.099072,NH3,6,6,6
India,Karnataka,Tumakuru,"Thimmalapura, Tumakuru - KSPCB",15-02-2026 08:00:00,13.377516,77.099072,SO2,26,27,26
India,Karnataka,Vijayapura,"Ibrahimpur, Vijayapura - KSPCB",15-02-2026 08:00:00,16.802639,75.722694,CO,11,34,22
India,Karnataka,Yadgir,"Collector Office, Yadgir - KSPCB",15-02-2026 08:00:00,16.7602,77.1428,PM2.5,68,129,86
India,Kerala,Eloor,"Udyogamandal, Eloor - Kerala PCB",15-02-2026 08:00:00,10.073232,76.302765,OZONE,13,20,14
India,Kerala,Kollam,"Polayathode, Kollam - Kerala PCB",15-02-2026 08:00:00,8.8787,76.6073,PM10,68,79,74
India,Kerala,Thiruvananthapuram,"Kariavattom, Thiruvananthapuram - Kerala PCB",15-02-2026 08:00:00,8.563700,76.886500,PM2.5,42,111,74
India,Karnataka,Kalaburagi,"Mahatma Basaveswar Colony, Kalaburgi - KSPCB",15-02-2026 08:00:00,17.336318,76.847397,NH3,2,4,3
India,Karnataka,Mysuru,"Hebbal 1st Stage, Mysuru - KSPCB",15-02-2026 08:00:00,12.21041,76.37376,SO2,1,4,3
India,Karnataka,Mysuru,"Hebbal 1st Stage, Mysuru - KSPCB",15-02-2026 08:00:00,12.21041,76.37376,CO,1,59,22
India,Karnataka,Mysuru,"Hebbal 1st Stage, Mysuru - KSPCB",15-02-2026 08:00:00,12.21041,76.37376,OZONE,48,97,86
India,Karnataka,Ramanagara,"Vijay Nagar, Ramanagara - KSPCB",15-02-2026 08:00:00,12.733409,77.298051,NH3,2,3,3
India,Karnataka,Ramanagara,"Vijay Nagar, Ramanagara - KSPCB",15-02-2026 08:00:00,12.733409,77.298051,CO,18,50,38
India,Karnataka,Ramanagara,"Vijay Nagar, Ramanagara - KSPCB",15-02-2026 08:00:00,12.733409,77.298051,OZONE,22,50,29
India,Karnataka,Shivamogga,"Vinoba Nagara, Shivamogga - KSPCB",15-02-2026 08:00:00,13.940000,75.555917,NH3,3,4,3
India,Karnataka,Tumakuru,"Thimmalapura, Tumakuru - KSPCB",15-02-2026 08:00:00,13.377516,77.099072,PM2.5,74,500,135
India,Kerala,Thiruvananthapuram,"Plammoodu, Thiruvananthapuram - Kerala PCB",15-02-2026 08:00:00,8.5149093,76.9435879,CO,12,23,16
India,Kerala,Thrissur,"Corporation Ground, Thrissur - Kerala PCB",15-02-2026 08:00:00,10.532400,76.215900,PM2.5,56,72,65
India,Kerala,Thrissur,"Corporation Ground, Thrissur - Kerala PCB",15-02-2026 08:00:00,10.532400,76.215900,CO,7,17,8
India,Madhya Pradesh,Bhopal,"Idgah Hills, Bhopal - MPPCB",15-02-2026 08:00:00,23.264759,77.381568,PM10,79,179,123
India,Madhya Pradesh,Bhopal,"Idgah Hills, Bhopal - MPPCB",15-02-2026 08:00:00,23.264759,77.381568,NH3,1,6,5
India,Madhya Pradesh,Bhopal,"Paryavaran Parisar, Bhopal - MPPCB",15-02-2026 08:00:00,23.210494,77.425409,OZONE,6,41,19
India,Madhya Pradesh,Damoh,"Shrivastav Colony, Damoh - MPPCB",15-02-2026 08:00:00,23.81748678,79.446246,PM2.5,13,36,22
India,Karnataka,Bengaluru,"Silk Board, Bengaluru - KSPCB",15-02-2026 08:00:00,12.917348,77.622813,CO,26,60,33
India,Karnataka,Chamarajanagar,"Urban, Chamarajanagar - KSPCB",15-02-2026 08:00:00,11.55358,76.55521,NH3,2,3,2
India,Karnataka,Chamarajanagar,"Urban, Chamarajanagar - KSPCB",15-02-2026 08:00:00,11.55358,76.55521,CO,15,23,21
India,Karnataka,Chikkaballapur,"Chikkaballapur Rural, Chikkaballapur - KSPCB",15-02-2026 08:00:00,13.428828,77.731418,NO2,NA,NA,NA
India,Karnataka,Chikkaballapur,"Chikkaballapur Rural, Chikkaballapur - KSPCB",15-02-2026 08:00:00,13.428828,77.731418,NH3,NA,NA,NA
India,Karnataka,Chikkamagaluru,"Kalyana Nagara, Chikkamagaluru - KSPCB",15-02-2026 08:00:00,13.328028,75.797056,PM2.5,36,85,65
India,Karnataka,Hubballi,"Lingaraj Nagar, Hubballi - KSPCB",15-02-2026 08:00:00,15.3714823,75.1160168,SO2,3,5,3
India,Madhya Pradesh,Gwalior,"Deen Dayal Nagar, Gwalior - MPPCB",15-02-2026 08:00:00,26.259242,78.216432,NO2,7,26,11
India,Madhya Pradesh,Indore,"Airport Area, Indore - IMC",15-02-2026 08:00:00,22.7289,75.8076,PM2.5,94,341,203
India,Madhya Pradesh,Indore,"Airport Area, Indore - IMC",15-02-2026 08:00:00,22.7289,75.8076,CO,2,32,16
India,Madhya Pradesh,Indore,"Airport Area, Indore - IMC",15-02-2026 08:00:00,22.7289,75.8076,OZONE,5,20,7
India,Madhya Pradesh,Indore,"Chhoti Gwaltoli, Indore - MPPCB",15-02-2026 08:00:00,22.4310,75.5213,NO2,54,160,105
India,Madhya Pradesh,Jabalpur,"Gupteshwar, Jabalpur - JMC",15-02-2026 08:00:00,23.142888,79.916147,NH3,2,2,2
India,Madhya Pradesh,Jabalpur,"Gupteshwar, Jabalpur - JMC",15-02-2026 08:00:00,23.142888,79.916147,SO2,14,32,19
India,Madhya Pradesh,Jabalpur,"Gupteshwar, Jabalpur - JMC",15-02-2026 08:00:00,23.142888,79.916147,OZONE,29,88,30
India,Madhya Pradesh,Jabalpur,"Marhatal, Jabalpur - MPPCB",15-02-2026 08:00:00,23.168606,79.932247,PM2.5,55,320,142
India,Madhya Pradesh,Jabalpur,"Marhatal, Jabalpur - MPPCB",15-02-2026 08:00:00,23.168606,79.932247,OZONE,18,75,19
India,Madhya Pradesh,Jabalpur,"Suhagi, Jabalpur - JMC",15-02-2026 08:00:00,23.218135,79.957770,NH3,7,9,8
India,Madhya Pradesh,Jabalpur,"Suhagi, Jabalpur - JMC",15-02-2026 08:00:00,23.218135,79.957770,CO,26,114,45
India,Madhya Pradesh,Katni,"Gole Bazar, Katni - MPPCB",15-02-2026 08:00:00,23.50016,80.23284,OZONE,9,121,19
India,Madhya Pradesh,Mandideep,"Sector-D Industrial Area, Mandideep - MPPCB",15-02-2026 08:00:00,23.108440,77.511428,CO,21,102,55
India,Madhya Pradesh,Pithampur,"Sector-2 Industrial Area, Pithampur - MPPCB",15-02-2026 08:00:00,22.624758,75.675238,SO2,25,55,33
India,Madhya Pradesh,Pithampur,"Sector-2 Industrial Area, Pithampur - MPPCB",15-02-2026 08:00:00,22.624758,75.675238,OZONE,56,167,85
India,Madhya Pradesh,Indore,"Chhoti Gwaltoli, Indore - MPPCB",15-02-2026 08:00:00,22.4310,75.5213,SO2,19,36,26
India,Madhya Pradesh,Indore,"Maguda Nagar, Indore - IMC",15-02-2026 08:00:00,22.7524,75.8872,PM2.5,60,308,112
India,Madhya Pradesh,Indore,"Maguda Nagar, Indore - IMC",15-02-2026 08:00:00,22.7524,75.8872,SO2,11,13,12
India,Madhya Pradesh,Indore,"Maguda Nagar, Indore - IMC",15-02-2026 08:00:00,22.7524,75.8872,CO,26,59,40
India,Madhya Pradesh,Indore,"Regional Park, Indore - IMC",15-02-2026 08:00:00,22.6780,75.8559,SO2,10,13,12
India,Madhya Pradesh,Indore,"Regional Park, Indore - IMC",15-02-2026 08:00:00,22.6780,75.8559,OZONE,4,10,6
India,Madhya Pradesh,Indore,"Residency Area, Indore - IMC",15-02-2026 08:00:00,22.7084,75.8815,PM2.5,50,206,94
India,Madhya Pradesh,Indore,"Residency Area, Indore - IMC",15-02-2026 08:00:00,22.7084,75.8815,OZONE,6,12,6
India,Madhya Pradesh,Jabalpur,"Govindh Bhavan Colony, Jabalpur - JMC",15-02-2026 08:00:00,23.163174,79.973061,NO2,8,14,11
India,Madhya Pradesh,Jabalpur,"Govindh Bhavan Colony, Jabalpur - JMC",15-02-2026 08:00:00,23.163174,79.973061,SO2,4,6,5
India,Maharashtra,Ahmednagar,"Tarakpur, Ahmednagar - MPCB",15-02-2026 08:00:00,19.10122,74.73339,NH3,5,7,6
India,Maharashtra,Akola,"Ramdaspeth, Akola - MPCB",15-02-2026 08:00:00,20.719516,77.000253,NH3,2,11,4
India,Maharashtra,Amravati,"Shivneri Colony, Amravati - MPCB",15-02-2026 08:00:00,20.9402359,77.7895248,PM10,71,144,106
India,Maharashtra,Amravati,"Shivneri Colony, Amravati - MPCB",15-02-2026 08:00:00,20.9402359,77.7895248,NH3,5,5,5
India,Maharashtra,Amravati,"Shri Shivaji Science College, Amravati - MPCB",15-02-2026 08:00:00,20.939198,77.765701,NO2,5,88,25
India,Maharashtra,Amravati,"Shri Shivaji Science College, Amravati - MPCB",15-02-2026 08:00:00,20.939198,77.765701,OZONE,1,87,48
India,Maharashtra,Aurangabad,"MIDC Chilkalthana, Aurangabad - MPCB",15-02-2026 08:00:00,19.875620,75.387310,PM2.5,70,158,111
India,Maharashtra,Aurangabad,"MIDC Chilkalthana, Aurangabad - MPCB",15-02-2026 08:00:00,19.875620,75.387310,SO2,9,19,15
India,Maharashtra,Aurangabad,"MIDC Chilkalthana, Aurangabad - MPCB",15-02-2026 08:00:00,19.875620,75.387310,CO,24,73,48
India,Maharashtra,Aurangabad,"More Chowk Waluj, Aurangabad - MPCB",15-02-2026 08:00:00,19.8389439,75.244448,OZONE,2,123,9
India,Maharashtra,Aurangabad,"Rachnakar Colony, Aurangabad - MPCB",15-02-2026 08:00:00,19.863756,75.321188,CO,32,89,55
India,Maharashtra,Badlapur,"Katrap, Badlapur - MPCB",15-02-2026 08:00:00,19.16485,73.23409,PM10,93,166,128
India,Maharashtra,Badlapur,"Katrap, Badlapur - MPCB",15-02-2026 08:00:00,19.16485,73.23409,NH3,3,10,7
India,Maharashtra,Badlapur,"Katrap, Badlapur - MPCB",15-02-2026 08:00:00,19.16485,73.23409,CO,18,48,42
India,Maharashtra,Belapur,"CBD Belapur, Belapur - MPCB",15-02-2026 08:00:00,19.0243902,73.0406721,NO2,NA,NA,NA
India,Maharashtra,Belapur,"CBD Belapur, Belapur - MPCB",15-02-2026 08:00:00,19.0243902,73.0406721,NH3,1,1,1
India,Maharashtra,Belapur,"CBD Belapur, Belapur - MPCB",15-02-2026 08:00:00,19.0243902,73.0406721,OZONE,1,110,3
India,Maharashtra,Bhiwandi,"Gokul Nagar, Bhiwandi - MPCB",15-02-2026 08:00:00,19.309073,73.057223,PM2.5,48,268,130
India,Madhya Pradesh,Sagar,"Civil Lines, Sagar - MPPCB",15-02-2026 08:00:00,23.838586,78.759431,OZONE,55,158,81
India,Madhya Pradesh,Satna,"Bandhavgar Colony, Satna - Birla Cement",15-02-2026 08:00:00,24.58434363,80.8549414,PM10,70,71,71
India,Madhya Pradesh,Satna,"Bandhavgar Colony, Satna - Birla Cement",15-02-2026 08:00:00,24.58434363,80.8549414,NO2,12,13,12
India,Madhya Pradesh,Satna,"Bandhavgar Colony, Satna - Birla Cement",15-02-2026 08:00:00,24.58434363,80.8549414,SO2,NA,NA,NA
India,Madhya Pradesh,Satna,"Bandhavgar Colony, Satna - Birla Cement",15-02-2026 08:00:00,24.58434363,80.8549414,CO,26,50,34
India,Madhya Pradesh,Satna,"Bandhavgar Colony, Satna - Birla Cement",15-02-2026 08:00:00,24.58434363,80.8549414,OZONE,4,62,20
India,Madhya Pradesh,Singrauli,"Suryakiran Bhawan NCL, Singrauli - MPPCB",15-02-2026 08:00:00,24.108970,82.645580,PM10,106,309,184
India,Madhya Pradesh,Singrauli,"Suryakiran Bhawan NCL, Singrauli - MPPCB",15-02-2026 08:00:00,24.108970,82.645580,CO,48,94,75
India,Maharashtra,Kalyan,"Khadakpada, Kalyan - MPCB",15-02-2026 08:00:00,19.25292,73.142019,NH3,1,1,1
India,Maharashtra,Kalyan,"Pimpleshwar Mandir, Kalyan - MPCB",15-02-2026 08:00:00,19.192056,72.9585188,CO,83,100,91
India,Maharashtra,Kalyan,"Pimpleshwar Mandir, Kalyan - MPCB",15-02-2026 08:00:00,19.192056,72.9585188,OZONE,1,45,6
India,Maharashtra,Kolhapur,"Shivaji University, Kolhapur - MPCB",15-02-2026 08:00:00,16.6870449,74.2505872,PM2.5,17,112,42
India,Maharashtra,Kolhapur,"Shivaji University, Kolhapur - MPCB",15-02-2026 08:00:00,16.6870449,74.2505872,NH3,2,5,3
India,Maharashtra,Kolhapur,"Shivaji University, Kolhapur - MPCB",15-02-2026 08:00:00,16.6870449,74.2505872,OZONE,2,69,16
India,Maharashtra,Mahad,"Kamble Tarf Birwadi, Mahad - MPCB",15-02-2026 08:00:00,18.1023399,73.4783687,NH3,3,11,8
India,Maharashtra,Mahad,"Kamble Tarf Birwadi, Mahad - MPCB",15-02-2026 08:00:00,18.1023399,73.4783687,CO,11,50,17
India,Maharashtra,Malegaon,"Mahesh Nagar, Malegaon - MPCB",15-02-2026 08:00:00,20.555712,74.529236,NO2,4,20,8
India,Maharashtra,Mira-Bhayandar,"Bhayandar West, Mira-Bhayandar - MPCB",15-02-2026 08:00:00,19.296481,72.840923,PM2.5,108,199,137
India,Maharashtra,Mumbai,"Bandra Kurla Complex, Mumbai - MPCB",15-02-2026 08:00:00,19.065931,72.862131,NO2,17,112,65
India,Maharashtra,Mumbai,"Borivali East, Mumbai - IITM",15-02-2026 08:00:00,19.23241,72.86895,OZONE,15,75,51
India,Maharashtra,Mumbai,"Borivali East, Mumbai - MPCB",15-02-2026 08:00:00,19.2243333,72.8658113,PM10,52,178,86
India,Maharashtra,Mumbai,"Borivali East, Mumbai - MPCB",15-02-2026 08:00:00,19.2243333,72.8658113,NO2,NA,NA,NA
India,Maharashtra,Chandrapur,"Chauhan Colony, Chandrapur - MPCB",15-02-2026 08:00:00,19.962900,79.298714,PM10,116,264,173
India,Maharashtra,Chandrapur,"Chauhan Colony, Chandrapur - MPCB",15-02-2026 08:00:00,19.962900,79.298714,SO2,38,38,38
India,Maharashtra,Chandrapur,"MIDC Khutala, Chandrapur - MPCB",15-02-2026 08:00:00,19.9775302,79.2337086,NH3,1,6,2
India,Maharashtra,Chandrapur,"MIDC Khutala, Chandrapur - MPCB",15-02-2026 08:00:00,19.9775302,79.2337086,SO2,8,9,9
India,Maharashtra,Jalgaon,"Prabhat Colony, Jalgaon - MPCB",15-02-2026 08:00:00,21.001264,75.565602,OZONE,2,99,30
India,Maharashtra,Jalna,"Old MIDC, Jalna - MPCB",15-02-2026 08:00:00,19.854616,75.905894,NH3,2,5,4
India,Maharashtra,Jalna,"Old MIDC, Jalna - MPCB",15-02-2026 08:00:00,19.854616,75.905894,CO,20,74,29
India,Maharashtra,Mumbai,"Borivali East, Mumbai - MPCB",15-02-2026 08:00:00,19.2243333,72.8658113,SO2,15,19,17
India,Maharashtra,Mumbai,"Byculla, Mumbai - BMC",15-02-2026 08:00:00,18.9767,72.8380,NH3,10,35,21
India,Maharashtra,Mumbai,"Byculla, Mumbai - BMC",15-02-2026 08:00:00,18.9767,72.8380,OZONE,NA,NA,NA
India,Maharashtra,Mumbai,"Chakala-Andheri East, Mumbai - IITM",15-02-2026 08:00:00,19.11074,72.86084,PM2.5,91,194,171
India,Maharashtra,Mumbai,"Colaba, Mumbai - MPCB",15-02-2026 08:00:00,18.910000,72.820000,PM2.5,85,161,107
India,Maharashtra,Mumbai,"Khindipada-Bhandup West, Mumbai - IITM",15-02-2026 08:00:00,19.1653323,72.922099,CO,10,50,32
India,Maharashtra,Mumbai,"Kurla, Mumbai - MPCB",15-02-2026 08:00:00,19.0863,72.8888,NH3,2,3,2
India,Maharashtra,Mumbai,"Kurla, Mumbai - MPCB",15-02-2026 08:00:00,19.0863,72.8888,SO2,36,37,37
India,Maharashtra,Mumbai,"Malad West, Mumbai - IITM",15-02-2026 08:00:00,19.19709,72.82204,PM10,142,196,167
India,Maharashtra,Mumbai,"Malad West, Mumbai - IITM",15-02-2026 08:00:00,19.19709,72.82204,SO2,9,58,30
India,Maharashtra,Mumbai,"Mindspace-Malad West, Mumbai - MPCB",15-02-2026 08:00:00,19.1878657,72.8304069,OZONE,8,61,13
India,Maharashtra,Mumbai,"Navy Nagar-Colaba, Mumbai - IITM",15-02-2026 08:00:00,18.897756,72.813320,PM10,136,192,160
India,Maharashtra,Mumbai,"Navy Nagar-Colaba, Mumbai - IITM",15-02-2026 08:00:00,18.897756,72.813320,NO2,47,188,104
India,Maharashtra,Pune,"Savitribai Phule Pune University, Pune - MPCB",15-02-2026 08:00:00,18.547056,73.826908,PM10,78,134,108
India,Maharashtra,Sangli,"Vijay Nagar, Sangli - MPCB",15-02-2026 08:00:00, 16.5038,74.3623,PM2.5,41,306,137
India,Maharashtra,Sangli,"Vijay Nagar, Sangli - MPCB",15-02-2026 08:00:00, 16.5038,74.3623,NO2,9,69,30
India,Maharashtra,Sangli,"Vijay Nagar, Sangli - MPCB",15-02-2026 08:00:00, 16.5038,74.3623,NH3,2,8,4
India,Maharashtra,Sangli,"Vijay Nagar, Sangli - MPCB",15-02-2026 08:00:00, 16.5038,74.3623,SO2,7,28,17
India,Maharashtra,Sangli,"Vijay Nagar, Sangli - MPCB",15-02-2026 08:00:00, 16.5038,74.3623,OZONE,2,50,11
India,Maharashtra,Solapur,"Ratandeep Housing Society, Solapur - MPCB",15-02-2026 08:00:00,17.65439,75.90649,PM2.5,12,57,36
India,Maharashtra,Solapur,"Ratandeep Housing Society, Solapur - MPCB",15-02-2026 08:00:00,17.65439,75.90649,CO,15,153,46
India,Maharashtra,Navi Mumbai,"Tondare-Taloja, Navi Mumbai - MPCB",15-02-2026 08:00:00,19.0630,73.1209,OZONE,NA,NA,NA
India,Maharashtra,Parbhani,"Masoom Colony, Parbhani - MPCB",15-02-2026 08:00:00,19.265594,76.761463,PM2.5,31,79,53
India,Maharashtra,Parbhani,"Masoom Colony, Parbhani - MPCB",15-02-2026 08:00:00,19.265594,76.761463,CO,8,14,12
India,Maharashtra,Pimpri-Chinchwad,"Gavalinagar, Pimpri Chinchwad - MPCB",15-02-2026 08:00:00,18.63673,73.82487,PM10,100,156,128
India,Maharashtra,Pimpri-Chinchwad,"Park Street Wakad, Pimpri Chinchwad - MPCB",15-02-2026 08:00:00,18.59051,73.77946,SO2,5,14,10
India,Maharashtra,Pimpri-Chinchwad,"Savta Mali Nagar, Pimpri-Chinchwad - IITM",15-02-2026 08:00:00,18.614767,73.799516,PM10,100,216,148
India,Maharashtra,Nashik,"MIDC Ambad, Nashik - MPCB",15-02-2026 08:00:00,19.950220,73.731480,NO2,7,46,15
India,Maharashtra,Nashik,"Pandav Nagari, Nashik - MPCB",15-02-2026 08:00:00,19.9591346,73.7788008,PM10,61,138,93
India,Maharashtra,Nashik,"Pandav Nagari, Nashik - MPCB",15-02-2026 08:00:00,19.9591346,73.7788008,NH3,4,9,5
India,Maharashtra,Navi Mumbai,"Kopripada-Vashi, Navi Mumbai - MPCB",15-02-2026 08:00:00,19.090337,73.014232,PM10,NA,NA,NA
India,Maharashtra,Navi Mumbai,"Kopripada-Vashi, Navi Mumbai - MPCB",15-02-2026 08:00:00,19.090337,73.014232,SO2,4,13,7
India,Maharashtra,Navi Mumbai,"Mahape, Navi Mumbai - MPCB",15-02-2026 08:00:00,19.1135051,73.008978,SO2,19,21,20
India,Maharashtra,Navi Mumbai,"Nerul, Navi Mumbai - MPCB",15-02-2026 08:00:00,19.008751,73.016620,PM2.5,58,265,158
India,Maharashtra,Mumbai,"Navy Nagar-Colaba, Mumbai - IITM",15-02-2026 08:00:00,18.897756,72.813320,SO2,9,57,22
India,Maharashtra,Mumbai,"Shivaji Nagar, Mumbai - BMC",15-02-2026 08:00:00,19.060498,72.923356,PM2.5,32,176,103
India,Maharashtra,Mumbai,"Siddharth Nagar-Worli, Mumbai - IITM",15-02-2026 08:00:00,19.000083,72.813993,NO2,28,109,60
India,Maharashtra,Mumbai,"Vile Parle West, Mumbai - MPCB",15-02-2026 08:00:00,19.10861,72.83622,SO2,NA,NA,NA
India,Maharashtra,Nagpur,"Ambazari, Nagpur - MPCB",15-02-2026 08:00:00,21.121801,79.04952,NH3,1,15,4
India,Maharashtra,Nagpur,"Ambazari, Nagpur - MPCB",15-02-2026 08:00:00,21.121801,79.04952,SO2,23,67,44
India,Maharashtra,Nagpur,"Mahal, Nagpur - MPCB",15-02-2026 08:00:00,21.14472,79.107595,PM2.5,112,257,187
India,Maharashtra,Nagpur,"Mahal, Nagpur - MPCB",15-02-2026 08:00:00,21.14472,79.107595,PM10,112,197,151
India,Maharashtra,Nanded,"Sneh Nagar, Nanded - MPCB",15-02-2026 08:00:00,19.173852,77.296291,PM10,82,133,110
India,Maharashtra,Nashik,"Gangapur Road, Nashik - MPCB",15-02-2026 08:00:00,20.0073285,73.7762427,NH3,3,3,3
India,Maharashtra,Nashik,"Hirawadi, Nashik - MPCB",15-02-2026 08:00:00,20.021503,73.813844,PM2.5,68,194,95
India,Maharashtra,Pimpri-Chinchwad,"Thergaon, Pimpri Chinchwad - MPCB",15-02-2026 08:00:00,18.616318,73.765797,CO,28,101,58
India,Maharashtra,Pune,"Dhankawadi, Pune - IITM",15-02-2026 08:00:00,18.459883,73.852193,NO2,26,129,82
India,Maharashtra,Pune,"Hadapsar, Pune - IITM",15-02-2026 08:00:00,18.501793,73.927532,CO,48,97,87
India,Maharashtra,Pune,"Katraj Dairy, Pune - MPCB",15-02-2026 08:00:00,18.454450,73.854155,OZONE,30,47,32
India,Maharashtra,Pune,"Panchawati_Pashan, Pune - IITM",15-02-2026 08:00:00,18.536457,73.805454,PM2.5,43,201,108
India,Maharashtra,Pune,"Panchawati_Pashan, Pune - IITM",15-02-2026 08:00:00,18.536457,73.805454,PM10,44,155,103
India,Maharashtra,Pune,"Revenue Colony-Shivajinagar, Pune - IITM",15-02-2026 08:00:00,18.530085,73.849598,NO2,45,115,79
India,Maharashtra,Pune,"Revenue Colony-Shivajinagar, Pune - IITM",15-02-2026 08:00:00,18.530085,73.849598,SO2,3,24,13
India,Maharashtra,Mumbai,"Colaba, Mumbai - MPCB",15-02-2026 08:00:00,18.910000,72.820000,SO2,NA,NA,NA
India,Maharashtra,Mumbai,"Kandivali East, Mumbai - MPCB",15-02-2026 08:00:00,19.205800,72.868200,CO,19,20,20
India,Maharashtra,Mumbai,"Khindipada-Bhandup West, Mumbai - IITM",15-02-2026 08:00:00,19.1653323,72.922099,PM10,69,135,108
India,Punjab,Khanna,"Kalal Majra, Khanna - PPCB",15-02-2026 08:00:00,30.736056 ,76.209694,PM2.5,60,126,84
India,Punjab,Khanna,"Kalal Majra, Khanna - PPCB",15-02-2026 08:00:00,30.736056 ,76.209694,NH3,7,8,7
India,Punjab,Khanna,"Kalal Majra, Khanna - PPCB",15-02-2026 08:00:00,30.736056 ,76.209694,CO,23,44,33
India,Punjab,Ludhiana,"Punjab Agricultural University, Ludhiana - PPCB",15-02-2026 08:00:00,30.9028,75.8086,PM2.5,91,142,105
India,Punjab,Ludhiana,"Punjab Agricultural University, Ludhiana - PPCB",15-02-2026 08:00:00,30.9028,75.8086,CO,56,85,75
India,Punjab,Mandi Gobindgarh,"RIMT University, Mandi Gobindgarh - PPCB",15-02-2026 08:00:00,30.649961,76.331442,PM2.5,30,303,102
India,Punjab,Mandi Gobindgarh,"RIMT University, Mandi Gobindgarh - PPCB",15-02-2026 08:00:00,30.649961,76.331442,CO,12,118,44
India,Punjab,Mandi Gobindgarh,"RIMT University, Mandi Gobindgarh - PPCB",15-02-2026 08:00:00,30.649961,76.331442,OZONE,37,40,38
India,Punjab,Patiala,"Model Town, Patiala - PPCB",15-02-2026 08:00:00,30.349388,76.366642,PM10,73,125,101
India,Punjab,Patiala,"Model Town, Patiala - PPCB",15-02-2026 08:00:00,30.349388,76.366642,CO,33,60,54
India,Rajasthan,Ajmer,"Civil Lines,  Ajmer - RSPCB",15-02-2026 08:00:00,26.470859,74.646594,SO2,6,7,6
India,Rajasthan,Ajmer,"Civil Lines,  Ajmer - RSPCB",15-02-2026 08:00:00,26.470859,74.646594,CO,16,59,28
India,Rajasthan,Alwar,"Moti Doongri, Alwar - RSPCB",15-02-2026 08:00:00,27.554793,76.611536,SO2,8,34,15
India,Rajasthan,Alwar,"Moti Doongri, Alwar - RSPCB",15-02-2026 08:00:00,27.554793,76.611536,CO,50,110,73
India,Rajasthan,Banswara,"Rati Talai, Banswara - RSPCB",15-02-2026 08:00:00,23.555190,74.440010,PM2.5,47,170,85
India,Rajasthan,Banswara,"Rati Talai, Banswara - RSPCB",15-02-2026 08:00:00,23.555190,74.440010,NO2,16,108,36
India,Rajasthan,Banswara,"Rati Talai, Banswara - RSPCB",15-02-2026 08:00:00,23.555190,74.440010,SO2,1,13,3
India,Rajasthan,Banswara,"Rati Talai, Banswara - RSPCB",15-02-2026 08:00:00,23.555190,74.440010,CO,26,95,37
India,Rajasthan,Barmer,"Railway Colony, Barmer - RSPCB",15-02-2026 08:00:00,25.747299,71.393989,NO2,NA,NA,NA
India,Rajasthan,Bharatpur,"Krishna Nagar, Bharatpur - RSPCB",15-02-2026 08:00:00,27.215415,77.50873,NO2,9,98,39
India,Rajasthan,Bharatpur,"Krishna Nagar, Bharatpur - RSPCB",15-02-2026 08:00:00,27.215415,77.50873,NH3,10,17,14
India,Rajasthan,Bhilwara,"Pratap Nagar, Bhilwara - RSPCB",15-02-2026 08:00:00,25.339605,74.618883,PM2.5,55,314,104
India,Rajasthan,Bhilwara,"Pratap Nagar, Bhilwara - RSPCB",15-02-2026 08:00:00,25.339605,74.618883,PM10,68,191,111
India,Odisha,Talcher,"Talcher Coalfields,Talcher - OSPCB",15-02-2026 08:00:00,20.9360711,85.1707021,PM10,89,261,169
India,Odisha,Talcher,"Talcher Coalfields,Talcher - OSPCB",15-02-2026 08:00:00,20.9360711,85.1707021,NO2,27,82,57
India,Odisha,Tensa,"Barsua Iron Ore Mines, Tensa - OSPCB",15-02-2026 08:00:00,21.869985,85.167016,PM2.5,NA,NA,NA
India,Odisha,Tensa,"Barsua Iron Ore Mines, Tensa - OSPCB",15-02-2026 08:00:00,21.869985,85.167016,NO2,NA,NA,NA
India,Puducherry,Puducherry,"Jawahar Nagar, Puducherry - PPCC",15-02-2026 08:00:00,11.9309,79.8027,PM10,62,96,74
India,Puducherry,Puducherry,"Jawahar Nagar, Puducherry - PPCC",15-02-2026 08:00:00,11.9309,79.8027,CO,18,40,23
India,Puducherry,Puducherry,"Jawahar Nagar, Puducherry - PPCC",15-02-2026 08:00:00,11.9309,79.8027,OZONE,34,90,46
India,Punjab,Bathinda,"Hardev Nagar, Bathinda - PPCB",15-02-2026 08:00:00,30.233011,74.907758,PM2.5,11,69,31
India,Punjab,Bathinda,"Hardev Nagar, Bathinda - PPCB",15-02-2026 08:00:00,30.233011,74.907758,NO2,14,26,17
India,Punjab,Jalandhar,"Civil Line, Jalandhar - PPCB",15-02-2026 08:00:00,31.321907,75.578914,CO,54,62,59
India,Rajasthan,Dausa,"Khatikan Mohalla, Dausa - RSPCB",15-02-2026 08:00:00,26.895552,76.334753,PM10,34,155,76
India,Rajasthan,Dausa,"Khatikan Mohalla, Dausa - RSPCB",15-02-2026 08:00:00,26.895552,76.334753,SO2,5,14,7
India,Rajasthan,Dungarpur,"Bhoiwada, Dungarpur - RSPCB",15-02-2026 08:00:00,23.837789,73.714926,NO2,16,51,26
India,Rajasthan,Dungarpur,"Bhoiwada, Dungarpur - RSPCB",15-02-2026 08:00:00,23.837789,73.714926,NH3,13,19,16
India,Rajasthan,Jaipur,"Adarsh Nagar, Jaipur - RSPCB",15-02-2026 08:00:00,26.902909,75.836858,PM2.5,82,288,141
India,Rajasthan,Jaipur,"Adarsh Nagar, Jaipur - RSPCB",15-02-2026 08:00:00,26.902909,75.836858,OZONE,18,89,28
India,Rajasthan,Jaipur,"Mansarovar Sector-12, Jaipur - RSPCB",15-02-2026 08:00:00,26.843698,75.766894,SO2,2,13,7
India,Rajasthan,Jaipur,"Mansarovar Sector-12, Jaipur - RSPCB",15-02-2026 08:00:00,26.843698,75.766894,OZONE,3,166,12
India,Rajasthan,Jaipur,"Police Commissionerate, Jaipur - RSPCB",15-02-2026 08:00:00,26.9164092,75.7994901,NO2,117,154,131
India,Odisha,Angul,"Hakimapada, Angul - OSPCB",15-02-2026 08:00:00,20.832874,85.104082,NO2,28,93,53
India,Odisha,Balasore,"Kalidaspur, Balasore - OSPCB",15-02-2026 08:00:00,21.51161,86.89088,NO2,11,41,19
India,Odisha,Barbil,"Forest Office, Barbil - OSPCB",15-02-2026 08:00:00,22.1166054,85.3945546,NH3,1,3,2
India,Odisha,Barbil,"Forest Office, Barbil - OSPCB",15-02-2026 08:00:00,22.1166054,85.3945546,CO,25,106,77
India,Odisha,Baripada,"Meher Colony, Baripada - OSPCB",15-02-2026 08:00:00,21.941841,86.728318,PM10,67,119,96
India,Odisha,Baripada,"Meher Colony, Baripada - OSPCB",15-02-2026 08:00:00,21.941841,86.728318,NH3,2,5,4
India,Odisha,Baripada,"Meher Colony, Baripada - OSPCB",15-02-2026 08:00:00,21.941841,86.728318,OZONE,23,99,34
India,Odisha,Bhubaneswar,"Lingraj Mandir, Bhubaneswar - OSPCB",15-02-2026 08:00:00,20.240790,85.836784,PM10,90,262,122
India,Odisha,Nayagarh,"Dabuna, Nayagarh - OSPCB",15-02-2026 08:00:00,21.847279,85.416905,SO2,5,16,9
India,Odisha,Rairangpur,"Divisional Forest Office, Rairangpur - OSPCB",15-02-2026 08:00:00,22.265816,86.174829,PM2.5,51,136,73
India,Odisha,Rairangpur,"Divisional Forest Office, Rairangpur - OSPCB",15-02-2026 08:00:00,22.265816,86.174829,SO2,1,124,29
India,Odisha,Rairangpur,"Divisional Forest Office, Rairangpur - OSPCB",15-02-2026 08:00:00,22.265816,86.174829,CO,18,56,24
India,Odisha,Rourkela,"Raghunathpali, Rourkela - OSPCB",15-02-2026 08:00:00,22.220833,84.809444,OZONE,3,18,4
India,Odisha,Rourkela,"Sector-2, Rourkela - OSPCB",15-02-2026 08:00:00,22.24500000,84.88111111,CO,33,68,35
India,Odisha,Suakati,"OMC Colony, Suakati - OSPCB",15-02-2026 08:00:00,21.606865,85.510538,SO2,7,71,21
India,Odisha,Suakati,"OMC Colony, Suakati - OSPCB",15-02-2026 08:00:00,21.606865,85.510538,OZONE,31,133,48
India,Odisha,Bileipada,"Tata Township, Bileipada - OSPCB",15-02-2026 08:00:00,22.06156703,85.47409613,PM10,81,304,149
India,Odisha,Bileipada,"Tata Township, Bileipada - OSPCB",15-02-2026 08:00:00,22.06156703,85.47409613,NO2,NA,NA,NA
India,Odisha,Brajrajnagar,"GM Office, Brajrajnagar - OSPCB",15-02-2026 08:00:00,21.8004996,83.8396977,PM10,50,215,101
India,Odisha,Byasanagar,"Ferro Chrome Colony, Byasanagar - OSPCB",15-02-2026 08:00:00,20.94185,86.11510,NO2,12,32,21
India,Odisha,Byasanagar,"Ferro Chrome Colony, Byasanagar - OSPCB",15-02-2026 08:00:00,20.94185,86.11510,NH3,1,2,2
India,Odisha,Cuttack,"CDA Area, Cuttack - OSPCB",15-02-2026 08:00:00,20.48891     ,85.84768     ,NO2,19,67,39
India,Odisha,Keonjhar,"Jagamohanpur, Keonjhar - OSPCB",15-02-2026 08:00:00,21.643900,85.599355,NO2,8,12,10
India,Rajasthan,Bhiwadi,"Vasundhara Nagar_UIT, Bhiwadi - RSPCB",15-02-2026 08:00:00,28.207266,76.829265,PM2.5,63,416,226
India,Rajasthan,Bhiwadi,"Vasundhara Nagar_UIT, Bhiwadi - RSPCB",15-02-2026 08:00:00,28.207266,76.829265,SO2,5,24,12
India,Rajasthan,Bhiwadi,"Vasundhara Nagar_UIT, Bhiwadi - RSPCB",15-02-2026 08:00:00,28.207266,76.829265,CO,31,152,43
India,Rajasthan,Bikaner,"MM Ground, Bikaner - RSPCB",15-02-2026 08:00:00,28.018792,73.292658,OZONE,8,160,45
India,Rajasthan,Bundi,"New Colony, Bundi - RSPCB",15-02-2026 08:00:00,25.435774,75.644272,NO2,16,93,37
India,Rajasthan,Bundi,"New Colony, Bundi - RSPCB",15-02-2026 08:00:00,25.435774,75.644272,NH3,3,6,4
India,Rajasthan,Churu,"Subash Chowk, Churu - RSPCB",15-02-2026 08:00:00,28.296139,74.961696,PM2.5,8,237,74
India,Maharashtra,Thane,"Upvan Fort, Thane - MPCB",15-02-2026 08:00:00,19.222279,72.957979,PM2.5,35,146,82
India,Maharashtra,Thane,"Upvan Fort, Thane - MPCB",15-02-2026 08:00:00,19.222279,72.957979,NO2,13,81,38
India,Maharashtra,Thane,"Upvan Fort, Thane - MPCB",15-02-2026 08:00:00,19.222279,72.957979,SO2,13,43,24
India,Maharashtra,Thane,"Upvan Fort, Thane - MPCB",15-02-2026 08:00:00,19.222279,72.957979,OZONE,21,91,42
India,Maharashtra,Virar,"Bolinj, Virar - MPCB",15-02-2026 08:00:00,19.4458210,72.7988231,PM10,102,148,120
India,Maharashtra,Virar,"Bolinj, Virar - MPCB",15-02-2026 08:00:00,19.4458210,72.7988231,NO2,17,104,35
India,Mizoram,Aizawl,"Sikulpuikawn, Aizawl - Mizoram PCB",15-02-2026 08:00:00,23.7176342,92.7192841,OZONE,3,6,4
India,Rajasthan,Pali,"Indira Colony Vistar, Pali - RSPCB",15-02-2026 08:00:00,25.771061, 73.340227,PM10,80,385,147
India,Rajasthan,Pratapgarh,"Pragati Nagar, Pratapgarh - RSPCB",15-02-2026 08:00:00,24.041198,74.780702,PM2.5,48,157,83
India,Rajasthan,Pratapgarh,"Pragati Nagar, Pratapgarh - RSPCB",15-02-2026 08:00:00,24.041198,74.780702,NO2,12,65,22
India,Rajasthan,Pratapgarh,"Pragati Nagar, Pratapgarh - RSPCB",15-02-2026 08:00:00,24.041198,74.780702,SO2,3,9,5
India,Rajasthan,Pratapgarh,"Pragati Nagar, Pratapgarh - RSPCB",15-02-2026 08:00:00,24.041198,74.780702,OZONE,38,120,70
India,Rajasthan,Rajsamand,"Dhoinda, Rajsamand - RSPCB",15-02-2026 08:00:00,25.036360,73.883502,PM2.5,38,302,113
India,Rajasthan,Rajsamand,"Dhoinda, Rajsamand - RSPCB",15-02-2026 08:00:00,25.036360,73.883502,PM10,61,222,106
India,Rajasthan,Rajsamand,"Dhoinda, Rajsamand - RSPCB",15-02-2026 08:00:00,25.036360,73.883502,NO2,12,72,32
India,Rajasthan,Sawai Madhopur,"Sahu Nagar, Sawai Madhopur - RSPCB",15-02-2026 08:00:00,26.031443,76.359327,NH3,5,10,7
India,Rajasthan,Sikar,"Radhakishan Pura, Sikar - RSPCB",15-02-2026 08:00:00,27.608912,75.153302,PM10,55,500,194
India,Rajasthan,Sirohi,"Vedhaynath Colony, Sirohi - RSPCB",15-02-2026 08:00:00,24.885261,72.857549,PM2.5,15,190,52
India,Rajasthan,Sirohi,"Vedhaynath Colony, Sirohi - RSPCB",15-02-2026 08:00:00,24.885261,72.857549,CO,10,60,25
India,TamilNadu,Coimbatore,"PSG College of Arts and Science, Coimbatore - TNPCB",15-02-2026 08:00:00,11.0328,77.0349,OZONE,5,6,5
India,TamilNadu,Coimbatore,"SIDCO Kurichi, Coimbatore - TNPCB",15-02-2026 08:00:00,10.942451,76.978996,PM2.5,31,170,66
India,TamilNadu,Coimbatore,"SIDCO Kurichi, Coimbatore - TNPCB",15-02-2026 08:00:00,10.942451,76.978996,PM10,47,108,71
India,TamilNadu,Coimbatore,"SIDCO Kurichi, Coimbatore - TNPCB",15-02-2026 08:00:00,10.942451,76.978996,NH3,1,2,1
India,TamilNadu,Gummidipoondi,"Anthoni Pillai Nagar, Gummidipoondi - TNPCB",15-02-2026 08:00:00,13.4127,80.1081,NO2,15,28,18
India,TamilNadu,Gummidipoondi,"Anthoni Pillai Nagar, Gummidipoondi - TNPCB",15-02-2026 08:00:00,13.4127,80.1081,NH3,1,1,1
India,TamilNadu,Thoothukudi,"Meelavittan, Thoothukudi - TNPCB",15-02-2026 08:00:00,8.816428 ,78.099039,CO,22,50,35
India,Telangana,Hyderabad,"Bollaram Industrial Area, Hyderabad - TSPCB",15-02-2026 08:00:00,17.540891,78.358528,PM10,91,152,120
India,Telangana,Hyderabad,"Bollaram Industrial Area, Hyderabad - TSPCB",15-02-2026 08:00:00,17.540891,78.358528,NO2,18,95,35
India,Rajasthan,Jhalawar,"Rajlaxmi Nagar, Jhalawar - RSPCB",15-02-2026 08:00:00,24.588397,76.172782,NO2,41,131,73
India,Rajasthan,Jhalawar,"Rajlaxmi Nagar, Jhalawar - RSPCB",15-02-2026 08:00:00,24.588397,76.172782,SO2,2,24,10
India,Rajasthan,Jhunjhunu,"Indra Nagar, Jhunjhunu - RSPCB",15-02-2026 08:00:00,28.108988,75.386577,PM2.5,17,247,70
India,Rajasthan,Jodhpur,"Collectorate, Jodhpur - RSPCB",15-02-2026 08:00:00,26.268249,73.0193853,PM10,27,165,85
India,Rajasthan,Jodhpur,"Collectorate, Jodhpur - RSPCB",15-02-2026 08:00:00,26.268249,73.0193853,SO2,1,24,7
India,Rajasthan,Jodhpur,"Digari Kalan, Jodhpur - RSPCB",15-02-2026 08:00:00,26.295810,73.082283,NO2,7,103,47
India,Rajasthan,Jodhpur,"Digari Kalan, Jodhpur - RSPCB",15-02-2026 08:00:00,26.295810,73.082283,SO2,1,6,2
India,Rajasthan,Jodhpur,"Jhalamand, Jodhpur - RSPCB",15-02-2026 08:00:00,26.215415,73.070156,CO,12,74,38
India,Rajasthan,Jodhpur,"Mandor, Jodhpur - RSPCB",15-02-2026 08:00:00,26.358805,73.047444,SO2,1,10,4
India,Rajasthan,Jodhpur,"Mandor, Jodhpur - RSPCB",15-02-2026 08:00:00,26.358805,73.047444,OZONE,11,76,26
India,TamilNadu,Chennai,"Manali Village, Chennai - TNPCB",15-02-2026 08:00:00,13.1662,80.2584,CO,28,56,50
India,TamilNadu,Chennai,"Manali, Chennai - CPCB",15-02-2026 08:00:00,13.164544,80.26285,NH3,6,7,7
India,TamilNadu,Chennai,"Manali, Chennai - CPCB",15-02-2026 08:00:00,13.164544,80.26285,CO,13,68,35
India,TamilNadu,Chennai,"Perungudi, Chennai - TNPCB",15-02-2026 08:00:00,12.9533,80.2357,PM2.5,68,220,103
India,TamilNadu,Chennai,"Royapuram, Chennai - TNPCB",15-02-2026 08:00:00,13.1036,80.2909,PM10,77,216,105
India,TamilNadu,Chennai,"Royapuram, Chennai - TNPCB",15-02-2026 08:00:00,13.1036,80.2909,CO,40,60,55
India,TamilNadu,Chennai,"Velachery Res. Area, Chennai - CPCB",15-02-2026 08:00:00,13.0052189,80.2398125,PM10,106,474,248
India,TamilNadu,Chennai,"Velachery Res. Area, Chennai - CPCB",15-02-2026 08:00:00,13.0052189,80.2398125,NH3,3,4,3
India,TamilNadu,Coimbatore,"PSG College of Arts and Science, Coimbatore - TNPCB",15-02-2026 08:00:00,11.0328,77.0349,PM10,37,89,64
India,Rajasthan,Karauli,"Satyawati Vihar, Karauli - RSPCB",15-02-2026 08:00:00,26.506177,77.025989,PM2.5,23,183,65
India,Rajasthan,Karauli,"Satyawati Vihar, Karauli - RSPCB",15-02-2026 08:00:00,26.506177,77.025989,PM10,37,141,82
India,Rajasthan,Kota,"Dhanmandi, Kota - RSPCB",15-02-2026 08:00:00,25.164090,75.858137,PM10,97,183,142
India,Rajasthan,Kota,"Dhanmandi, Kota - RSPCB",15-02-2026 08:00:00,25.164090,75.858137,OZONE,4,137,7
India,Rajasthan,Kota,"Nayapura, Kota - RSPCB",15-02-2026 08:00:00,25.196024,75.855668,PM10,91,238,147
India,Rajasthan,Kota,"Nayapura, Kota - RSPCB",15-02-2026 08:00:00,25.196024,75.855668,OZONE,5,148,7
India,Rajasthan,Kota,"Shrinath Puram, Kota - RSPCB",15-02-2026 08:00:00,25.14389,75.821256,PM10,84,163,120
India,Rajasthan,Kota,"Shrinath Puram, Kota - RSPCB",15-02-2026 08:00:00,25.14389,75.821256,SO2,4,28,11
India,Rajasthan,Nagaur,"Karni Colony, Nagaur - RSPCB",15-02-2026 08:00:00,27.213494,73.734444,PM2.5,NA,NA,NA
India,Rajasthan,Sirohi,"Vedhaynath Colony, Sirohi - RSPCB",15-02-2026 08:00:00,24.885261,72.857549,OZONE,6,96,40
India,Rajasthan,Sri Ganganagar,"Old City, Sri Ganganagar - RSPCB",15-02-2026 08:00:00,29.931624,73.864511,NH3,4,8,6
India,Rajasthan,Tonk,"Shastri Nagar, Tonk - RSPCB",15-02-2026 08:00:00,26.159933,75.780517,PM10,63,484,169
India,Sikkim,Gangtok,"Zero Point GICI, Gangtok - SSPCB",15-02-2026 08:00:00,27.338530,88.614099,OZONE,19,22,20
India,TamilNadu,Chennai,"Kodungaiyur, Chennai - TNPCB",15-02-2026 08:00:00,13.1278,80.2642,PM2.5,83,311,154
India,TamilNadu,Chennai,"Kodungaiyur, Chennai - TNPCB",15-02-2026 08:00:00,13.1278,80.2642,NH3,1,3,2
India,Telangana,Hyderabad,"Nacharam_TSIIC IALA, Hyderabad - TSPCB",15-02-2026 08:00:00,17.429398,78.569354,NO2,NA,NA,NA
India,Telangana,Hyderabad,"Nacharam_TSIIC IALA, Hyderabad - TSPCB",15-02-2026 08:00:00,17.429398,78.569354,OZONE,NA,NA,NA
India,Telangana,Hyderabad,"New Malakpet, Hyderabad - TSPCB",15-02-2026 08:00:00,17.37206,78.50864,OZONE,11,32,14
India,Telangana,Hyderabad,"Sanathnagar, Hyderabad - TSPCB",15-02-2026 08:00:00,17.4559458,78.4332152,PM2.5,63,158,97
India,Telangana,Hyderabad,"Somajiguda, Hyderabad - TSPCB",15-02-2026 08:00:00,17.417094,78.457437,NO2,12,13,13
India,Telangana,Hyderabad,"Zoo Park, Hyderabad - TSPCB",15-02-2026 08:00:00,17.349694,78.451437,SO2,1,10,6
India,Telangana,Hyderabad,"Zoo Park, Hyderabad - TSPCB",15-02-2026 08:00:00,17.349694,78.451437,CO,2,51,6
India,Telangana,Hyderabad,"Zoo Park, Hyderabad - TSPCB",15-02-2026 08:00:00,17.349694,78.451437,OZONE,5,27,24
India,Rajasthan,Jaipur,"Police Commissionerate, Jaipur - RSPCB",15-02-2026 08:00:00,26.9164092,75.7994901,OZONE,15,71,16
India,Rajasthan,Jaipur,"RIICO Sitapura, Jaipur - RSPCB",15-02-2026 08:00:00,26.786682,75.827928,NH3,4,10,6
India,Rajasthan,Jaipur,"Sector-2 Murlipura, Jaipur - RSPCB",15-02-2026 08:00:00,26.960669,75.771817,PM10,38,241,108
India,Rajasthan,Jaipur,"Shastri Nagar, Jaipur - RSPCB",15-02-2026 08:00:00,26.9502929,75.730943,PM2.5,48,223,97
India,Rajasthan,Jaipur,"Shastri Nagar, Jaipur - RSPCB",15-02-2026 08:00:00,26.9502929,75.730943,PM10,61,162,102
India,Telangana,Hyderabad,"ICRISAT Patancheru, Hyderabad - TSPCB",15-02-2026 08:00:00,17.518400,78.278777,OZONE,8,59,13
India,Telangana,Hyderabad,"IDA Pashamylaram, Hyderabad - TSPCB",15-02-2026 08:00:00,17.5316895,78.218939,CO,23,55,32
India,Telangana,Hyderabad,"IDA Pashamylaram, Hyderabad - TSPCB",15-02-2026 08:00:00,17.5316895,78.218939,OZONE,17,18,18
India,Telangana,Hyderabad,"IITH Kandi, Hyderabad - TSPCB",15-02-2026 08:00:00,17.585705,78.126199,SO2,16,17,16
India,Telangana,Hyderabad,"Kokapet, Hyderabad - TSPCB",15-02-2026 08:00:00,17.393559,78.339194,NO2,13,18,15
India,Uttar_Pradesh,Noida,"Sector-1, Noida - UPPCB",15-02-2026 08:00:00,28.5898,77.3101,PM2.5,65,366,208
India,Uttar_Pradesh,Noida,"Sector-1, Noida - UPPCB",15-02-2026 08:00:00,28.5898,77.3101,PM10,94,221,153
India,Uttar_Pradesh,Noida,"Sector-116, Noida - UPPCB",15-02-2026 08:00:00,28.569230,77.393848,PM10,104,338,169
India,Uttar_Pradesh,Noida,"Sector-116, Noida - UPPCB",15-02-2026 08:00:00,28.569230,77.393848,NO2,2,16,7
India,Uttar_Pradesh,Noida,"Sector-116, Noida - UPPCB",15-02-2026 08:00:00,28.569230,77.393848,CO,2,135,48
India,Uttar_Pradesh,Prayagraj,"Jhunsi, Prayagraj - UPPCB",15-02-2026 08:00:00,25.425602,81.917152,NO2,6,6,6
India,Uttar_Pradesh,Prayagraj,"Jhunsi, Prayagraj - UPPCB",15-02-2026 08:00:00,25.425602,81.917152,NH3,5,5,5
India,Uttar_Pradesh,Prayagraj,"Jhunsi, Prayagraj - UPPCB",15-02-2026 08:00:00,25.425602,81.917152,OZONE,17,30,18
India,Uttar_Pradesh,Prayagraj,"Motilal Nehru NIT, Prayagraj - UPPCB",15-02-2026 08:00:00,25.494,81.863,NO2,12,12,12
India,Uttar_Pradesh,Prayagraj,"Motilal Nehru NIT, Prayagraj - UPPCB",15-02-2026 08:00:00,25.494,81.863,SO2,21,66,48
India,Uttar_Pradesh,Prayagraj,"Nagar Nigam, Prayagraj - UPPCB",15-02-2026 08:00:00,25.44919916 ,81.82735986 ,OZONE,11,12,12
India,Uttar_Pradesh,Varanasi,"Ardhali Bazar, Varanasi - UPPCB",15-02-2026 08:00:00,25.3505986,82.9083074,SO2,9,11,11
India,Uttar_Pradesh,Varanasi,"Ardhali Bazar, Varanasi - UPPCB",15-02-2026 08:00:00,25.3505986,82.9083074,OZONE,15,37,23
India,Tripura,Agartala,"Bardowali, Agartala - Tripura SPCB",15-02-2026 08:00:00,23.8175497,91.2726974,NH3,3,4,4
India,Uttar_Pradesh,Agra,"Manoharpur, Agra - UPPCB",15-02-2026 08:00:00,27.23711,78.01936,PM2.5,NA,NA,NA
India,Uttar_Pradesh,Agra,"Sanjay Palace, Agra - UPPCB",15-02-2026 08:00:00,27.19865833,78.00598056,NO2,2,15,7
India,Uttar_Pradesh,Agra,"Sanjay Palace, Agra - UPPCB",15-02-2026 08:00:00,27.19865833,78.00598056,OZONE,2,98,7
India,Uttar_Pradesh,Agra,"Sector-3B Avas Vikas Colony, Agra - UPPCB",15-02-2026 08:00:00,27.19412,77.96237,CO,5,55,24
India,Uttar_Pradesh,Agra,"Shahjahan Garden, Agra - UPPCB",15-02-2026 08:00:00,27.169338,78.03582,NO2,9,15,13
India,Uttar_Pradesh,Agra,"Shahjahan Garden, Agra - UPPCB",15-02-2026 08:00:00,27.169338,78.03582,SO2,27,43,36
India,Uttar_Pradesh,Agra,"Shahjahan Garden, Agra - UPPCB",15-02-2026 08:00:00,27.169338,78.03582,CO,5,44,22
India,Uttar_Pradesh,Kanpur,"Nehru Nagar, Kanpur - UPPCB",15-02-2026 08:00:00,26.4703136,80.3229863,SO2,10,26,14
India,Uttar_Pradesh,Khurja,"Kalindi Kunj, Khurja - UPPCB",15-02-2026 08:00:00,28.2348927,77.8683002,CO,14,60,48
India,Uttar_Pradesh,Lucknow,"Kukrail Picnic Spot-1, Lucknow - UPPCB",15-02-2026 08:00:00,26.90723,80.98579,CO,10,12,12
India,Uttar_Pradesh,Lucknow,"Lalbagh, Lucknow - CPCB",15-02-2026 08:00:00,26.8458805,80.9365541,NO2,40,50,44
India,Uttar_Pradesh,Lucknow,"Lalbagh, Lucknow - CPCB",15-02-2026 08:00:00,26.8458805,80.9365541,OZONE,10,44,18
India,Uttar_Pradesh,Lucknow,"Talkatora District Industries Center, Lucknow - CPCB",15-02-2026 08:00:00,26.83399722,80.8917361,PM2.5,101,231,152
India,Uttar_Pradesh,Lucknow,"Talkatora District Industries Center, Lucknow - CPCB",15-02-2026 08:00:00,26.83399722,80.8917361,PM10,105,143,121
India,Uttar_Pradesh,Varanasi,"IESD Banaras Hindu University, Varanasi - UPPCB",15-02-2026 08:00:00,25.262326,82.995408,NO2,2,2,2
India,Uttar_Pradesh,Varanasi,"Maldahiya, Varanasi - UPPCB",15-02-2026 08:00:00,25.32393,82.99687,PM2.5,22,81,47
India,Uttar_Pradesh,Varanasi,"Maldahiya, Varanasi - UPPCB",15-02-2026 08:00:00,25.32393,82.99687,SO2,29,30,30
India,Uttarakhand,Dehradun,"Doon University, Dehradun - UKPCB",15-02-2026 08:00:00,30.269444,78.044167,NO2,1,3,2
India,Uttarakhand,Dehradun,"Doon University, Dehradun - UKPCB",15-02-2026 08:00:00,30.269444,78.044167,CO,6,8,7
India,Uttarakhand,Kashipur,"Govt. Girls Inter College, Kashipur - UKPCB",15-02-2026 08:00:00,29.2124114,78.9611753,CO,28,36,31
India,Uttar_Pradesh,Greater Noida,"Knowledge Park - V, Greater Noida - UPPCB",15-02-2026 08:00:00,28.557054,77.453663,SO2,9,22,16
India,Uttar_Pradesh,Hapur,"Anand Vihar, Hapur - UPPCB",15-02-2026 08:00:00,28.725645,77.749675,PM10,92,168,136
India,Uttar_Pradesh,Jhansi,"Shivaji Nagar, Jhansi - UPPCB",15-02-2026 08:00:00,25.4547,78.6039,NO2,6,7,6
India,Uttar_Pradesh,Jhansi,"Shivaji Nagar, Jhansi - UPPCB",15-02-2026 08:00:00,25.4547,78.6039,SO2,18,23,20
India,Uttar_Pradesh,Kanpur,"NSI Kalyanpur, Kanpur - UPPCB",15-02-2026 08:00:00,26.509954,80.249612,PM2.5,17,315,68
India,Uttar_Pradesh,Kanpur,"NSI Kalyanpur, Kanpur - UPPCB",15-02-2026 08:00:00,26.509954,80.249612,PM10,63,184,95
India,Uttar_Pradesh,Moradabad,"Jigar Colony, Moradabad - UPPCB",15-02-2026 08:00:00,28.856664,78.772638,PM10,78,137,102
India,Uttar_Pradesh,Moradabad,"Jigar Colony, Moradabad - UPPCB",15-02-2026 08:00:00,28.856664,78.772638,NH3,6,6,6
India,Uttar_Pradesh,Moradabad,"Transport Nagar, Moradabad - UPPCB",15-02-2026 08:00:00,28.802625,78.753728,PM2.5,20,93,59
India,Uttar_Pradesh,Noida,"Sector - 125, Noida - UPPCB",15-02-2026 08:00:00,28.5447608,77.3231257,SO2,3,17,8
India,Uttar_Pradesh,Noida,"Sector - 62, Noida - IMD",15-02-2026 08:00:00,28.6245479,77.3577104,PM2.5,75,330,167
India,Uttar_Pradesh,Ghaziabad,"Indirapuram, Ghaziabad - UPPCB",15-02-2026 08:00:00,28.646233,77.358075,PM10,122,403,215
India,Uttar_Pradesh,Ghaziabad,"Loni, Ghaziabad - UPPCB",15-02-2026 08:00:00,28.757294,77.278792,PM2.5,134,422,311
India,Uttar_Pradesh,Ghaziabad,"Loni, Ghaziabad - UPPCB",15-02-2026 08:00:00,28.757294,77.278792,PM10,158,445,273
India,Uttar_Pradesh,Gorakhpur,"Madan Mohan Malaviya University of Technology, Gorakhpur - UPPCB",15-02-2026 08:00:00,26.730136,83.433859,PM2.5,67,111,81
India,Uttar_Pradesh,Gorakhpur,"Madan Mohan Malaviya University of Technology, Gorakhpur - UPPCB",15-02-2026 08:00:00,26.730136,83.433859,NH3,1,1,1
India,Uttar_Pradesh,Meerut,"Ganga Nagar, Meerut - UPPCB",15-02-2026 08:00:00,28.999264,77.7590354,NH3,9,11,10
India,Uttar_Pradesh,Meerut,"Pallavpuram Phase 2, Meerut - UPPCB",15-02-2026 08:00:00,29.063510,77.709723,NO2,26,58,41
India,Uttar_Pradesh,Meerut,"Pallavpuram Phase 2, Meerut - UPPCB",15-02-2026 08:00:00,29.063510,77.709723,OZONE,16,150,23
India,Uttar_Pradesh,Moradabad,"Eco Herbal Park, Moradabad - UPPCB",15-02-2026 08:00:00,28.840739,78.697531,SO2,11,31,19
India,Uttar_Pradesh,Baghpat,"Sardar Patel Inter College, Baghpat - UPPCB",15-02-2026 08:00:00,28.964949,77.278761,PM2.5,108,335,263
India,Uttar_Pradesh,Bareilly,"Rajendra Nagar, Bareilly - UPPCB",15-02-2026 08:00:00,28.38910936,79.42963708,PM2.5,35,71,50
India,Uttar_Pradesh,Firozabad,"Vibhab Nagar, Firozabad - UPPCB",15-02-2026 08:00:00,27.1594,78.3953,PM10,20,81,48
India,West_Bengal,Asansol,"Asansol Court Area, Asansol - WBPCB",15-02-2026 08:00:00,23.685297,86.945968,PM2.5,70,159,105
India,West_Bengal,Asansol,"Evelyn Lodge, Asansol - WBPCB",15-02-2026 08:00:00,23.6979360,86.9443950,NH3,6,7,6
India,West_Bengal,Asansol,"Evelyn Lodge, Asansol - WBPCB",15-02-2026 08:00:00,23.6979360,86.9443950,CO,25,101,52
India,West_Bengal,Asansol,"Mahabir Colliery, Asansol - WBPCB",15-02-2026 08:00:00,23.6181830,87.1057180,NO2,8,37,20
India,West_Bengal,Asansol,"Trivenidevi Bhalotia College, Asansol - WBPCB",15-02-2026 08:00:00,23.616515,87.119133,PM10,48,168,112
India,West_Bengal,Asansol,"Trivenidevi Bhalotia College, Asansol - WBPCB",15-02-2026 08:00:00,23.616515,87.119133,SO2,8,23,12
India,West_Bengal,Barrackpore,"SVSPA Campus, Barrackpore - WBPCB",15-02-2026 08:00:00,22.7605581,88.3617589,SO2,NA,NA,NA
India,West_Bengal,Durgapur,"PCBL Residential Complex, Durgapur - WBPCB",15-02-2026 08:00:00,23.5087640,87.3544400,SO2,5,9,7
India,West_Bengal,Durgapur,"Womens College_City Center, Durgapur - WBPCB",15-02-2026 08:00:00,23.549395,87.300496,NO2,24,39,31
India,West_Bengal,Durgapur,"Womens College_City Center, Durgapur - WBPCB",15-02-2026 08:00:00,23.549395,87.300496,CO,23,69,41
India,West_Bengal,Haldia,"Priyambada Housing Estate, Haldia - WBPCB",15-02-2026 08:00:00,22.06047,88.109737,PM2.5,51,258,121
India,West_Bengal,Haldia,"Priyambada Housing Estate, Haldia - WBPCB",15-02-2026 08:00:00,22.06047,88.109737,NH3,6,7,6
India,West_Bengal,Howrah,"Botanical Garden, Howrah - WBPCB",15-02-2026 08:00:00,22.554954,88.292568,PM2.5,NA,NA,NA
India,West_Bengal,Howrah,"Botanical Garden, Howrah - WBPCB",15-02-2026 08:00:00,22.554954,88.292568,PM10,NA,NA,NA
India,West_Bengal,Howrah,"Botanical Garden, Howrah - WBPCB",15-02-2026 08:00:00,22.554954,88.292568,SO2,9,63,18
India,West_Bengal,Howrah,"Botanical Garden, Howrah - WBPCB",15-02-2026 08:00:00,22.554954,88.292568,CO,15,69,51
India,West_Bengal,Howrah,"Botanical Garden, Howrah - WBPCB",15-02-2026 08:00:00,22.554954,88.292568,OZONE,7,46,8
India,West_Bengal,Howrah,"Dasnagar, Howrah - WBPCB",15-02-2026 08:00:00,22.6025571,88.3105664,PM2.5,20,193,89
India,West_Bengal,Howrah,"Ghusuri, Howrah - WBPCB",15-02-2026 08:00:00,22.611968,88.347422,PM2.5,104,351,241
India,West_Bengal,Howrah,"Ghusuri, Howrah - WBPCB",15-02-2026 08:00:00,22.611968,88.347422,NH3,7,16,11
India,West_Bengal,Howrah,"Padmapukur, Howrah - WBPCB",15-02-2026 08:00:00,22.5687319,88.2797276,PM10,105,196,156
India,West_Bengal,Howrah,"Padmapukur, Howrah - WBPCB",15-02-2026 08:00:00,22.5687319,88.2797276,CO,37,90,55
India,West_Bengal,Kolkata,"Ballygunge, Kolkata - WBPCB",15-02-2026 08:00:00,22.5367507,88.3638022,PM10,79,172,129
India,West_Bengal,Kolkata,"Bidhannagar, Kolkata - WBPCB",15-02-2026 08:00:00,22.58157048,88.41002457,CO,32,74,60
India,West_Bengal,Kolkata,"Fort William, Kolkata - WBPCB",15-02-2026 08:00:00,22.556640,88.342674,CO,4,105,68
India,West_Bengal,Kolkata,"Jadavpur, Kolkata - WBPCB",15-02-2026 08:00:00,22.49929,88.36917,PM2.5,82,294,196
India,West_Bengal,Kolkata,"Jadavpur, Kolkata - WBPCB",15-02-2026 08:00:00,22.49929,88.36917,OZONE,4,38,5
India,West_Bengal,Kolkata,"Rabindra Bharati University, Kolkata - WBPCB",15-02-2026 08:00:00,22.627847,88.380669,PM2.5,81,320,227
India,West_Bengal,Kolkata,"Rabindra Bharati University, Kolkata - WBPCB",15-02-2026 08:00:00,22.627847,88.380669,SO2,5,13,8
India,West_Bengal,Kolkata,"Rabindra Sarobar, Kolkata - WBPCB",15-02-2026 08:00:00,22.51106,88.35142,NO2,33,208,116
India,West_Bengal,Kolkata,"Victoria, Kolkata - WBPCB",15-02-2026 08:00:00,22.5448082,88.3403691,CO,26,105,61
India,West_Bengal,Siliguri,"Ward-32 Bapupara, Siliguri - WBPCB",15-02-2026 08:00:00,26.6879226,88.4152495,SO2,13,20,16
India,West_Bengal,Siliguri,"Ward-32 Bapupara, Siliguri - WBPCB",15-02-2026 08:00:00,26.6879226,88.4152495,OZONE,49,122,58
India,Assam,Guwahati,"LGBI Airport, Guwahati - PCBA",15-02-2026 08:00:00,26.10887,91.589544,PM10,34,148,84
India,Assam,Guwahati,"LGBI Airport, Guwahati - PCBA",15-02-2026 08:00:00,26.10887,91.589544,OZONE,9,14,12
India,Assam,Guwahati,"Pan Bazaar, Guwahati - PCBA",15-02-2026 08:00:00,26.187500,91.744194,PM2.5,194,407,308
India,Assam,Guwahati,"Pan Bazaar, Guwahati - PCBA",15-02-2026 08:00:00,26.187500,91.744194,NH3,1,1,1
India,Assam,Guwahati,"Pan Bazaar, Guwahati - PCBA",15-02-2026 08:00:00,26.187500,91.744194,OZONE,12,20,13
India,Assam,Guwahati,"Railway Colony, Guwahati - PCBA",15-02-2026 08:00:00,26.181742,91.78063,PM2.5,177,387,309
India,Assam,Nagaon,"Christianpatty, Nagaon - PCBA",15-02-2026 08:00:00,26.349082,92.68449,NH3,4,4,4
India,Assam,Nalbari,"Bata Chowk, Nalbari - PCBA",15-02-2026 08:00:00,26.446912,91.439057,NO2,14,16,14
India,Assam,Nalbari,"Bata Chowk, Nalbari - PCBA",15-02-2026 08:00:00,26.446912,91.439057,NH3,6,6,6
India,Assam,Nalbari,"Bata Chowk, Nalbari - PCBA",15-02-2026 08:00:00,26.446912,91.439057,CO,20,23,20
India,Assam,Nalbari,"Bata Chowk, Nalbari - PCBA",15-02-2026 08:00:00,26.446912,91.439057,OZONE,14,16,16
India,Assam,Silchar,"Tarapur, Silchar - PCBA",15-02-2026 08:00:00,24.82827,92.79525,PM10,43,69,60
India,Bihar,Katihar,"Mirchaibari, Katihar - BSPCB",15-02-2026 08:00:00,25.560083,87.553265,NO2,9,10,9
India,Bihar,Katihar,"Mirchaibari, Katihar - BSPCB",15-02-2026 08:00:00,25.560083,87.553265,SO2,15,22,19
India,Bihar,Kishanganj,"SDM Office_Khagra, Kishanganj - BSPCB",15-02-2026 08:00:00,26.0881305,87.93840336,PM2.5,53,107,78
India,Bihar,Kishanganj,"SDM Office_Khagra, Kishanganj - BSPCB",15-02-2026 08:00:00,26.0881305,87.93840336,PM10,46,90,68
India,Bihar,Kishanganj,"SDM Office_Khagra, Kishanganj - BSPCB",15-02-2026 08:00:00,26.0881305,87.93840336,NO2,9,13,11
India,Bihar,Kishanganj,"SDM Office_Khagra, Kishanganj - BSPCB",15-02-2026 08:00:00,26.0881305,87.93840336,CO,16,24,17
India,Bihar,Manguraha,"Forest Rest House, Manguraha - BSPCB",15-02-2026 08:00:00,27.308328,84.531742,PM2.5,82,210,127
India,Bihar,Manguraha,"Forest Rest House, Manguraha - BSPCB",15-02-2026 08:00:00,27.308328,84.531742,NO2,4,14,7
India,Bihar,Motihari,"Gandak Colony, Motihari - BSPCB",15-02-2026 08:00:00,26.63086,84.90051,PM2.5,22,230,91
India,Bihar,Munger,"Town Hall, Munger - BSPCB",15-02-2026 08:00:00,25.376776,86.471523,NH3,2,3,2
India,Bihar,Munger,"Town Hall, Munger - BSPCB",15-02-2026 08:00:00,25.376776,86.471523,SO2,26,31,30
India,Bihar,Muzaffarpur,"MIT-Daudpur Kothi, Muzaffarpur - BSPCB",15-02-2026 08:00:00,26.1403345,85.3650192,NO2,2,4,2
India,Bihar,Muzaffarpur,"MIT-Daudpur Kothi, Muzaffarpur - BSPCB",15-02-2026 08:00:00,26.1403345,85.3650192,SO2,6,10,9
India,Bihar,Patna,"DRM Office Danapur, Patna - BSPCB",15-02-2026 08:00:00,25.586562,85.043586,PM2.5,72,126,94
India,Bihar,Patna,"DRM Office Danapur, Patna - BSPCB",15-02-2026 08:00:00,25.586562,85.043586,SO2,5,8,6
India,Bihar,Patna,"DRM Office Danapur, Patna - BSPCB",15-02-2026 08:00:00,25.586562,85.043586,OZONE,8,35,8
India,Bihar,Patna,"Govt. High School Shikarpur, Patna - BSPCB",15-02-2026 08:00:00,25.592539,85.227158,PM10,17,131,97
India,Bihar,Patna,"Muradpur, Patna - BSPCB",15-02-2026 08:00:00,25.619651,85.147382,NO2,10,13,11
India,Andhra_Pradesh,Vijayawada,"Rajiv Nagar, Vijayawada - APPCB",15-02-2026 08:00:00,16.554731,80.649110,CO,NA,NA,NA
India,Andhra_Pradesh,Visakhapatnam,"GVM Corporation, Visakhapatnam - APPCB",15-02-2026 08:00:00,17.72,83.3,PM2.5,71,305,139
India,Andhra_Pradesh,Visakhapatnam,"GVM Corporation, Visakhapatnam - APPCB",15-02-2026 08:00:00,17.72,83.3,PM10,100,352,157
India,Andhra_Pradesh,Visakhapatnam,"GVM Corporation, Visakhapatnam - APPCB",15-02-2026 08:00:00,17.72,83.3,NH3,3,4,4
India,Arunachal_Pradesh,Naharlagun,"Naharlagun, Naharlagun - APSPCB",15-02-2026 08:00:00,27.103358,93.679645,PM10,76,315,153
India,Arunachal_Pradesh,Naharlagun,"Naharlagun, Naharlagun - APSPCB",15-02-2026 08:00:00,27.103358,93.679645,SO2,9,11,10
India,Arunachal_Pradesh,Naharlagun,"Naharlagun, Naharlagun - APSPCB",15-02-2026 08:00:00,27.103358,93.679645,CO,19,66,24
India,Andhra_Pradesh,Tirumala,"Toll Gate, Tirumala - APPCB",15-02-2026 08:00:00,13.67,79.35,PM2.5,60,264,133
India,Andhra_Pradesh,Tirumala,"Toll Gate, Tirumala - APPCB",15-02-2026 08:00:00,13.67,79.35,SO2,9,23,16
India,Andhra_Pradesh,Tirupati,"Vaikuntapuram, Tirupati - APPCB",15-02-2026 08:00:00,13.615387,79.409230,NH3,NA,NA,NA
India,Andhra_Pradesh,Tirupati,"Vaikuntapuram, Tirupati - APPCB",15-02-2026 08:00:00,13.615387,79.409230,CO,NA,NA,NA
India,Andhra_Pradesh,Vijayawada,"HB Colony, Vijayawada - APPCB",15-02-2026 08:00:00,16.536107,80.594233,NH3,3,3,3
India,Andhra_Pradesh,Vijayawada,"Kanuru, Vijayawada - APPCB",15-02-2026 08:00:00,16.486692,80.699436,PM2.5,48,63,58
India,Andhra_Pradesh,Vijayawada,"Kanuru, Vijayawada - APPCB",15-02-2026 08:00:00,16.486692,80.699436,PM10,44,58,54
India,Andhra_Pradesh,Amaravati,"Secretariat, Amaravati - APPCB",15-02-2026 08:00:00,16.5150833,80.5181667,OZONE,2,71,8
India,Andhra_Pradesh,Chittoor,"Gangineni Cheruvu, Chittoor - APPCB",15-02-2026 08:00:00,13.204880,79.097889,PM10,47,67,60
India,Andhra_Pradesh,Chittoor,"Gangineni Cheruvu, Chittoor - APPCB",15-02-2026 08:00:00,13.204880,79.097889,NO2,13,15,13
India,Andhra_Pradesh,Chittoor,"Gangineni Cheruvu, Chittoor - APPCB",15-02-2026 08:00:00,13.204880,79.097889,NH3,3,3,3
India,Andhra_Pradesh,Kadapa,"Yerramukkapalli, Kadapa - APPCB",15-02-2026 08:00:00,14.465052,78.824187,NH3,3,5,5
India,Andhra_Pradesh,Kadapa,"Yerramukkapalli, Kadapa - APPCB",15-02-2026 08:00:00,14.465052,78.824187,SO2,10,16,16
India,Assam,Sivasagar,"Girls College, Sivasagar - PCBA",15-02-2026 08:00:00,26.987634,94.636574,PM2.5,45,99,71
India,Bihar,Araria,"Kharahiya Basti, Araria - BSPCB",15-02-2026 08:00:00,26.146529,87.454184,PM2.5,35,140,81
India,Bihar,Arrah,"New DM Office, Arrah - BSPCB",15-02-2026 08:00:00,25.5626095,84.663264,PM10,18,100,50
India,Bihar,Arrah,"New DM Office, Arrah - BSPCB",15-02-2026 08:00:00,25.5626095,84.663264,CO,45,66,55
India,Bihar,Aurangabad,"Gurdeo Nagar, Aurangabad - BSPCB",15-02-2026 08:00:00,24.75746,84.366208,CO,100,103,102
India,Bihar,Bettiah,"Kamalnath Nagar, Bettiah - BSPCB",15-02-2026 08:00:00,26.80365,84.51954,PM2.5,57,127,82
India,Bihar,Bhagalpur,"Mayaganj, Bhagalpur - BSPCB",15-02-2026 08:00:00,25.265194,87.012947,PM10,33,127,65
India,Bihar,Bhagalpur,"Mayaganj, Bhagalpur - BSPCB",15-02-2026 08:00:00,25.265194,87.012947,OZONE,17,32,21
India,Bihar,Bihar Sharif,"D M Colony, Bihar Sharif - BSPCB",15-02-2026 08:00:00,25.204762,85.514960,NO2,9,10,9
India,Bihar,Bihar Sharif,"D M Colony, Bihar Sharif - BSPCB",15-02-2026 08:00:00,25.204762,85.514960,OZONE,NA,NA,NA
India,Bihar,Hajipur,"Industrial Area, Hajipur - BSPCB",15-02-2026 08:00:00,25.697189,85.245900,PM10,95,151,121
India,Bihar,Hajipur,"Industrial Area, Hajipur - BSPCB",15-02-2026 08:00:00,25.697189,85.245900,NO2,62,101,80
India,Bihar,Hajipur,"Industrial Area, Hajipur - BSPCB",15-02-2026 08:00:00,25.697189,85.245900,SO2,3,6,4
India,Bihar,Gaya,"Kareemganj, Gaya - BSPCB",15-02-2026 08:00:00,24.792403,84.992416,NO2,NA,NA,NA
India,Chhattisgarh,Bhilai,"32Bungalows, Bhilai - CECB",15-02-2026 08:00:00,21.194815,81.314770,NH3,NA,NA,NA
India,Chhattisgarh,Bhilai,"Civic Center, Bhilai - Bhilai Steel Plant",15-02-2026 08:00:00,21.185571,81.343175,PM2.5,20,82,46
India,Chhattisgarh,Bhilai,"Civic Center, Bhilai - Bhilai Steel Plant",15-02-2026 08:00:00,21.185571,81.343175,NO2,11,11,11
India,Chhattisgarh,Bhilai,"Civic Center, Bhilai - Bhilai Steel Plant",15-02-2026 08:00:00,21.185571,81.343175,NH3,3,3,3
India,Chhattisgarh,Bhilai,"Civic Center, Bhilai - Bhilai Steel Plant",15-02-2026 08:00:00,21.185571,81.343175,SO2,6,10,8
India,Chhattisgarh,Bhilai,"Hathkhoj, Bhilai - CECB",15-02-2026 08:00:00,21.224231,81.408350,PM2.5,25,178,60
India,Chhattisgarh,Bhilai,"Hathkhoj, Bhilai - CECB",15-02-2026 08:00:00,21.224231,81.408350,OZONE,3,15,8
India,Chhattisgarh,Bilaspur,"Mangala, Bilaspur - NTPC",15-02-2026 08:00:00,22.08815,82.13737,PM2.5,32,136,66
India,Chhattisgarh,Chhal,"Nawapara SECL Colony, Chhal - CECB",15-02-2026 08:00:00,22.118125,83.140608,PM10,29,161,66
India,Chhattisgarh,Chhal,"Nawapara SECL Colony, Chhal - CECB",15-02-2026 08:00:00,22.118125,83.140608,OZONE,NA,NA,NA
India,Chhattisgarh,Korba,"Rampur, Korba - CECB",15-02-2026 08:00:00,22.368195,82.746431,NH3,NA,NA,NA
India,Chhattisgarh,Korba,"Rampur, Korba - CECB",15-02-2026 08:00:00,22.368195,82.746431,SO2,NA,NA,NA
India,Chhattisgarh,Korba,"Rampur, Korba - CECB",15-02-2026 08:00:00,22.368195,82.746431,OZONE,1,12,2
India,Chhattisgarh,Korba,"Urja Nagar, Korba - CECB",15-02-2026 08:00:00,22.348441,82.549611,SO2,5,20,11
India,Chhattisgarh,Raipur,"AIIMS, Raipur - CECB",15-02-2026 08:00:00,21.258815,81.578979,CO,34,66,48
India,Chhattisgarh,Raipur,"AIIMS, Raipur - CECB",15-02-2026 08:00:00,21.258815,81.578979,OZONE,1,5,1
India,Chhattisgarh,Raipur,"Bhatagaon New ISBT, Raipur - CECB",15-02-2026 08:00:00,21.219665,81.630094,NO2,24,80,46
India,Delhi,Delhi,"Jahangirpuri, Delhi - DPCC",15-02-2026 08:00:00,28.732820,77.170633,CO,28,106,62
India,Delhi,Delhi,"Jawaharlal Nehru Stadium, Delhi - DPCC",15-02-2026 08:00:00,28.580280,77.233829,NO2,27,142,88
India,Delhi,Delhi,"Lodhi Road, Delhi - IMD",15-02-2026 08:00:00,28.5918245,77.2273074,OZONE,14,180,19
India,Delhi,Delhi,"Major Dhyan Chand National Stadium, Delhi - DPCC",15-02-2026 08:00:00,28.611281,77.237738,PM2.5,47,334,173
India,Delhi,Delhi,"Major Dhyan Chand National Stadium, Delhi - DPCC",15-02-2026 08:00:00,28.611281,77.237738,NH3,15,18,17
India,Delhi,Delhi,"Mandir Marg, Delhi - DPCC",15-02-2026 08:00:00,28.636429,77.201067,OZONE,11,198,16
India,Delhi,Delhi,"Dwarka-Sector 8, Delhi - DPCC ",15-02-2026 08:00:00,28.5710274,77.0719006,SO2,24,46,31
India,Delhi,Delhi,"Dwarka-Sector 8, Delhi - DPCC ",15-02-2026 08:00:00,28.5710274,77.0719006,OZONE,1,151,1
India,Delhi,Delhi,"IHBAS, Dilshad Garden, Delhi - CPCB",15-02-2026 08:00:00,28.6811736,77.3025234,PM2.5,NA,NA,NA
India,Delhi,Delhi,"IIT Delhi, Delhi - IITM",15-02-2026 08:00:00,28.542460,77.191651,PM10,119,210,158
India,Delhi,Delhi,"IIT Delhi, Delhi - IITM",15-02-2026 08:00:00,28.542460,77.191651,NO2,22,108,52
India,Delhi,Delhi,"ITO, Delhi - CPCB",15-02-2026 08:00:00,28.628624,77.241060,PM2.5,76,325,208
India,Bihar,Patna,"Rajbansi Nagar, Patna - BSPCB",15-02-2026 08:00:00,25.599486,85.113666,PM10,75,147,110
India,Bihar,Patna,"Samanpura, Patna - BSPCB",15-02-2026 08:00:00,25.596727,85.085624,OZONE,11,89,20
India,Bihar,Purnia,"Mariam Nagar, Purnia - BSPCB",15-02-2026 08:00:00,25.366336,87.117468,PM2.5,65,98,80
India,Bihar,Purnia,"Mariam Nagar, Purnia - BSPCB",15-02-2026 08:00:00,25.366336,87.117468,NH3,3,3,3
India,Bihar,Rajgir,"Dangi Tola, Rajgir - BSPCB",15-02-2026 08:00:00,25.03280,85.41948,PM2.5,NA,NA,NA
India,Delhi,Delhi,"Aya Nagar, Delhi - IMD",15-02-2026 08:00:00,28.4706914,77.1099364,CO,14,70,48
India,Delhi,Delhi,"Bawana, Delhi - DPCC",15-02-2026 08:00:00,28.776200,77.051074,PM2.5,85,344,235
India,Delhi,Delhi,"CRRI Mathura Road, Delhi - IMD",15-02-2026 08:00:00,28.5512005,77.2735737,CO,13,113,82
India,Delhi,Delhi,"Chandni Chowk, Delhi - IITM",15-02-2026 08:00:00,28.656756,77.227234,SO2,1,48,24
India,Delhi,Delhi,"Chandni Chowk, Delhi - IITM",15-02-2026 08:00:00,28.656756,77.227234,CO,71,147,115
India,Chhattisgarh,Tumidih,"OP Jindal Industrial Park, Tumidih - CECB",15-02-2026 08:00:00,22.06631475,83.33820077,CO,20,57,38
India,Delhi,Delhi,"Alipur, Delhi - DPCC",15-02-2026 08:00:00,28.815329,77.153010,OZONE,3,58,5
India,Delhi,Delhi,"Anand Vihar, Delhi - DPCC",15-02-2026 08:00:00,28.647622,77.3158090,NH3,7,17,12
India,Delhi,Delhi,"Anand Vihar, Delhi - DPCC",15-02-2026 08:00:00,28.647622,77.3158090,CO,64,116,108
India,Bihar,Rajgir,"Dangi Tola, Rajgir - BSPCB",15-02-2026 08:00:00,25.03280,85.41948,OZONE,30,35,32
India,Bihar,Sasaram,"Dada Peer, Sasaram - BSPCB",15-02-2026 08:00:00,24.952822,84.002396,PM2.5,11,43,26
India,Bihar,Sasaram,"Dada Peer, Sasaram - BSPCB",15-02-2026 08:00:00,24.952822,84.002396,NO2,2,3,2
India,Chandigarh,Chandigarh,"Sector 22, Chandigarh - CPCC",15-02-2026 08:00:00,30.735567,76.775714,OZONE,18,146,53
India,Delhi,Delhi,"Mundka, Delhi - DPCC",15-02-2026 08:00:00,28.684678,77.076574,PM2.5,80,404,243
India,Delhi,Delhi,"Najafgarh, Delhi - DPCC",15-02-2026 08:00:00,28.570173,76.933762,PM10,73,211,107
India,Delhi,Delhi,"Najafgarh, Delhi - DPCC",15-02-2026 08:00:00,28.570173,76.933762,NO2,70,101,84
India,Delhi,Delhi,"Najafgarh, Delhi - DPCC",15-02-2026 08:00:00,28.570173,76.933762,NH3,13,16,14
India,Delhi,Delhi,"Narela, Delhi - DPCC",15-02-2026 08:00:00,28.822836,77.101981,PM2.5,85,368,230
India,Haryana,Faridabad,"Sector 11, Faridabad - HSPCB",15-02-2026 08:00:00,28.376058,77.315741,CO,19,72,41
India,Haryana,Faridabad,"Sector 11, Faridabad - HSPCB",15-02-2026 08:00:00,28.376058,77.315741,OZONE,14,16,15
India,Haryana,Faridabad,"Sector 30, Faridabad - HSPCB",15-02-2026 08:00:00,28.4417,77.3217,SO2,6,6,6
India,Haryana,Fatehabad,"Huda Sector, Fatehabad - HSPCB",15-02-2026 08:00:00,29.503664,75.467934,NO2,18,20,19
India,Haryana,Fatehabad,"Huda Sector, Fatehabad - HSPCB",15-02-2026 08:00:00,29.503664,75.467934,NH3,13,14,14
India,Haryana,Gurugram,"NISE Gwal Pahari, Gurugram - IMD",15-02-2026 08:00:00,28.422681,77.148944,CO,28,94,77
India,Haryana,Gurugram,"Sector-51, Gurugram - HSPCB",15-02-2026 08:00:00,28.4227,77.0667,NH3,9,14,12
India,Haryana,Gurugram,"Sector-51, Gurugram - HSPCB",15-02-2026 08:00:00,28.4227,77.0667,OZONE,3,15,3
India,Haryana,Gurugram,"Teri Gram, Gurugram - HSPCB",15-02-2026 08:00:00,28.4275,77.1465,NH3,NA,NA,NA
India,Haryana,Gurugram,"Teri Gram, Gurugram - HSPCB",15-02-2026 08:00:00,28.4275,77.1465,SO2,NA,NA,NA
India,Haryana,Gurugram,"Teri Gram, Gurugram - HSPCB",15-02-2026 08:00:00,28.4275,77.1465,CO,70,102,102
India,Haryana,Gurugram,"Vikas Sadan, Gurugram - HSPCB",15-02-2026 08:00:00,28.4501238,77.0263051,PM2.5,128,435,319
India,Haryana,Gurugram,"Vikas Sadan, Gurugram - HSPCB",15-02-2026 08:00:00,28.4501238,77.0263051,SO2,2,8,5
India,Gujarat,Ahmedabad,"Maninagar, Ahmedabad - GPCB",15-02-2026 08:00:00,23.002657,72.591912,OZONE,33,99,37
India,Gujarat,Ahmedabad,"Raikhad, Ahmedabad - IITM",15-02-2026 08:00:00,23.020509,72.579261,PM10,130,197,169
India,Gujarat,Ahmedabad,"Raikhad, Ahmedabad - IITM",15-02-2026 08:00:00,23.020509,72.579261,CO,10,79,63
India,Gujarat,Ahmedabad,"Rakhial, Ahmedabad - IITM",15-02-2026 08:00:00,23.016834,72.625775,NO2,11,92,52
India,Gujarat,Ahmedabad,"Rakhial, Ahmedabad - IITM",15-02-2026 08:00:00,23.016834,72.625775,SO2,19,59,36
India,Gujarat,Ahmedabad,"Rakhial, Ahmedabad - IITM",15-02-2026 08:00:00,23.016834,72.625775,CO,22,58,27
India,Gujarat,Ahmedabad,"SAC ISRO Bopal, Ahmedabad - IITM",15-02-2026 08:00:00,23.041137,72.456691,SO2,8,67,16
India,Gujarat,Ahmedabad,"SAC ISRO Bopal, Ahmedabad - IITM",15-02-2026 08:00:00,23.041137,72.456691,OZONE,2,90,4
India,Gujarat,Ahmedabad,"SAC ISRO Satellite, Ahmedabad - IITM",15-02-2026 08:00:00,23.023389,72.515201,PM2.5,70,189,134
India,Gujarat,Ahmedabad,"SAC ISRO Satellite, Ahmedabad - IITM",15-02-2026 08:00:00,23.023389,72.515201,PM10,94,168,129
India,Gujarat,Ahmedabad,"SAC ISRO Satellite, Ahmedabad - IITM",15-02-2026 08:00:00,23.023389,72.515201,NO2,4,34,18
India,Gujarat,Ahmedabad,"SAC ISRO Satellite, Ahmedabad - IITM",15-02-2026 08:00:00,23.023389,72.515201,NH3,5,12,9
India,Haryana,Bhiwani,"H.B. Colony, Bhiwani - HSPCB",15-02-2026 08:00:00,28.806223,76.141105,CO,8,12,11
India,Haryana,Charkhi Dadri,"Mini Secretariat, Charkhi Dadri - HSPCB",15-02-2026 08:00:00,28.593883,76.270653,PM10,75,140,95
India,Haryana,Charkhi Dadri,"Mini Secretariat, Charkhi Dadri - HSPCB",15-02-2026 08:00:00,28.593883,76.270653,NH3,5,8,6
India,Haryana,Charkhi Dadri,"Mini Secretariat, Charkhi Dadri - HSPCB",15-02-2026 08:00:00,28.593883,76.270653,SO2,9,11,11
India,Haryana,Charkhi Dadri,"Mini Secretariat, Charkhi Dadri - HSPCB",15-02-2026 08:00:00,28.593883,76.270653,OZONE,13,17,16
India,Haryana,Dharuhera,"Municipal Corporation Office, Dharuhera -  HSPCB",15-02-2026 08:00:00,28.206800,76.799700,NO2,19,67,51
India,Haryana,Faridabad,"New Industrial Town, Faridabad - HSPCB",15-02-2026 08:00:00,28.39072,77.30059,NO2,24,26,25
India,Haryana,Faridabad,"New Industrial Town, Faridabad - HSPCB",15-02-2026 08:00:00,28.39072,77.30059,SO2,8,8,8
India,Haryana,Faridabad,"Sector 11, Faridabad - HSPCB",15-02-2026 08:00:00,28.376058,77.315741,PM10,82,424,231
India,Delhi,Delhi,"North Campus, DU, Delhi - IMD",15-02-2026 08:00:00,28.6573814,77.1585447,CO,5,117,74
India,Delhi,Delhi,"Okhla Phase-2, Delhi - DPCC",15-02-2026 08:00:00,28.530785,77.271255,NH3,9,14,12
India,Delhi,Delhi,"Okhla Phase-2, Delhi - DPCC",15-02-2026 08:00:00,28.530785,77.271255,CO,30,138,96
India,Delhi,Delhi,"Patparganj, Delhi - DPCC",15-02-2026 08:00:00,28.623763,77.287209,PM10,113,340,198
India,Delhi,Delhi,"Punjabi Bagh, Delhi - DPCC",15-02-2026 08:00:00,28.674045,77.131023,NH3,4,5,5
India,Delhi,Delhi,"Punjabi Bagh, Delhi - DPCC",15-02-2026 08:00:00,28.674045,77.131023,SO2,19,26,22
India,Delhi,Delhi,"Pusa, Delhi - DPCC",15-02-2026 08:00:00,28.639652,77.146275,OZONE,5,128,6
India,Delhi,Delhi,"Pusa, Delhi - IMD",15-02-2026 08:00:00,28.636110,77.173332,NO2,44,219,120
India,Delhi,Delhi,"R K Puram, Delhi - DPCC",15-02-2026 08:00:00,28.563262,77.186937,NO2,18,117,66
India,Haryana,Hisar,"Urban Estate-II, Hisar - HSPCB",15-02-2026 08:00:00,29.140560,75.744941,PM2.5,34,74,60
India,Haryana,Hisar,"Urban Estate-II, Hisar - HSPCB",15-02-2026 08:00:00,29.140560,75.744941,SO2,6,13,11
India,Haryana,Hisar,"Urban Estate-II, Hisar - HSPCB",15-02-2026 08:00:00,29.140560,75.744941,OZONE,19,132,41
India,Haryana,Kaithal,"Rishi Nagar, Kaithal - HSPCB",15-02-2026 08:00:00,29.8006,76.4155,NH3,3,6,6
India,Haryana,Karnal,"Sector-12, Karnal - HSPCB",15-02-2026 08:00:00,29.695300,77.002700,PM2.5,87,226,165
India,Haryana,Karnal,"Sector-12, Karnal - HSPCB",15-02-2026 08:00:00,29.695300,77.002700,CO,30,36,32
India,Haryana,Kurukshetra,"Sector-7, Kurukshetra - HSPCB",15-02-2026 08:00:00,29.966942,76.875879,PM2.5,86,175,119
India,Haryana,Kurukshetra,"Sector-7, Kurukshetra - HSPCB",15-02-2026 08:00:00,29.966942,76.875879,PM10,110,156,130
India,Gujarat,Ankleshwar,"GIDC, Ankleshwar - GPCB",15-02-2026 08:00:00,21.613267,73.010555,NH3,8,8,8
India,Gujarat,Ankleshwar,"GIDC, Ankleshwar - GPCB",15-02-2026 08:00:00,21.613267,73.010555,CO,48,110,76
India,Gujarat,Bhavnagar,"Vidhyanagar, Bhavnagar - Nexteng Enviro",15-02-2026 08:00:00,21.755417,72.139056,NO2,51,72,59
India,Gujarat,Bhavnagar,"Vidhyanagar, Bhavnagar - Nexteng Enviro",15-02-2026 08:00:00,21.755417,72.139056,CO,119,137,123
India,Gujarat,Bhavnagar,"Vidhyanagar, Bhavnagar - Nexteng Enviro",15-02-2026 08:00:00,21.755417,72.139056,OZONE,9,25,13
India,Gujarat,Gandhinagar,"Sector-10, Gandhinagar - GPCB",15-02-2026 08:00:00,23.221714,72.654328,NH3,2,4,3
India,Gujarat,Rajkot,"Mavdi, Rajkot - Nexteng Enviro ",15-02-2026 08:00:00,22.248853,70.776774,CO,108,118,113
India,Gujarat,Rajkot,"Mavdi, Rajkot - Nexteng Enviro ",15-02-2026 08:00:00,22.248853,70.776774,OZONE,14,49,17
India,Gujarat,Vadodara,"Bapunagar, Vadodara - Nexteng Enviro",15-02-2026 08:00:00,22.320153,73.216285,PM10,72,200,131
India,Gujarat,Vadodara,"Bapunagar, Vadodara - Nexteng Enviro",15-02-2026 08:00:00,22.320153,73.216285,SO2,8,9,8
India,Gujarat,Vadodara,"Bapunagar, Vadodara - Nexteng Enviro",15-02-2026 08:00:00,22.320153,73.216285,CO,124,140,135
India,Gujarat,Vadodara,"Bapunagar, Vadodara - Nexteng Enviro",15-02-2026 08:00:00,22.320153,73.216285,OZONE,1,4,1
India,Gujarat,Vapi,"Phase-1 GIDC, Vapi - GPCB",15-02-2026 08:00:00,20.362421,72.918013,NO2,10,27,14
India,Gujarat,Vapi,"Phase-1 GIDC, Vapi - GPCB",15-02-2026 08:00:00,20.362421,72.918013,OZONE,3,27,4
India,Gujarat,Vatva,"Phase-4 GIDC, Vatva - GPCB",15-02-2026 08:00:00,22.969611,72.643500,PM10,116,247,153
India,Gujarat,Vatva,"Phase-4 GIDC, Vatva - GPCB",15-02-2026 08:00:00,22.969611,72.643500,OZONE,29,47,29
India,Delhi,Delhi,"Vivek Vihar, Delhi - DPCC",15-02-2026 08:00:00,28.672342,77.315260,NO2,26,103,66
India,Delhi,Delhi,"Wazirpur, Delhi - DPCC",15-02-2026 08:00:00,28.699793,77.165453,NH3,5,14,12
India,Delhi,Delhi,"Wazirpur, Delhi - DPCC",15-02-2026 08:00:00,28.699793,77.165453,CO,41,101,93
India,Gujarat,Ahmedabad,"Chandkheda, Ahmedabad - IITM",15-02-2026 08:00:00,23.107969,72.574648,PM2.5,54,191,90
India,Gujarat,Ahmedabad,"Gyaspur, Ahmedabad - IITM",15-02-2026 08:00:00,22.977134,72.553024,CO,8,96,32
India,Gujarat,Ahmedabad,"Maninagar, Ahmedabad - GPCB",15-02-2026 08:00:00,23.002657,72.591912,PM2.5,54,222,97
India,Delhi,Delhi,"Shadipur, Delhi - CPCB",15-02-2026 08:00:00,28.6514781,77.1473105,PM10,117,229,169
India,Delhi,Delhi,"Shadipur, Delhi - CPCB",15-02-2026 08:00:00,28.6514781,77.1473105,NO2,60,147,86
India,Delhi,Delhi,"Shadipur, Delhi - CPCB",15-02-2026 08:00:00,28.6514781,77.1473105,CO,22,106,62
India,Delhi,Delhi,"Sirifort, Delhi - CPCB",15-02-2026 08:00:00,28.5504249,77.2159377,OZONE,6,22,7
India,Delhi,Delhi,"Sonia Vihar, Delhi - DPCC",15-02-2026 08:00:00,28.710508,77.249485,CO,67,126,108
India,Kerala,Kollam,"Polayathode, Kollam - Kerala PCB",15-02-2026 08:00:00,8.8787,76.6073,NH3,1,1,1
India,Kerala,Kollam,"Polayathode, Kollam - Kerala PCB",15-02-2026 08:00:00,8.8787,76.6073,CO,13,17,15
India,Kerala,Thiruvananthapuram,"Kariavattom, Thiruvananthapuram - Kerala PCB",15-02-2026 08:00:00,8.563700,76.886500,PM10,37,75,56
India,Kerala,Thiruvananthapuram,"Kariavattom, Thiruvananthapuram - Kerala PCB",15-02-2026 08:00:00,8.563700,76.886500,SO2,1,11,6
India,Kerala,Thiruvananthapuram,"Kariavattom, Thiruvananthapuram - Kerala PCB",15-02-2026 08:00:00,8.563700,76.886500,CO,20,24,21
India,Kerala,Thiruvananthapuram,"Plammoodu, Thiruvananthapuram - Kerala PCB",15-02-2026 08:00:00,8.5149093,76.9435879,NO2,NA,NA,NA
India,Kerala,Thrissur,"Corporation Ground, Thrissur - Kerala PCB",15-02-2026 08:00:00,10.532400,76.215900,NO2,6,8,7
India,Madhya Pradesh,Bhopal,"Idgah Hills, Bhopal - MPPCB",15-02-2026 08:00:00,23.264759,77.381568,NO2,17,62,28
India,Madhya Pradesh,Bhopal,"Paryavaran Parisar, Bhopal - MPPCB",15-02-2026 08:00:00,23.210494,77.425409,PM2.5,78,267,157
India,Madhya Pradesh,Bhopal,"Paryavaran Parisar, Bhopal - MPPCB",15-02-2026 08:00:00,23.210494,77.425409,PM10,99,199,147
India,Madhya Pradesh,Bhopal,"Paryavaran Parisar, Bhopal - MPPCB",15-02-2026 08:00:00,23.210494,77.425409,SO2,2,24,13
India,Madhya Pradesh,Bhopal,"T T Nagar, Bhopal - MPPCB",15-02-2026 08:00:00,23.233584,77.400574,PM2.5,61,227,102
India,Karnataka,Tumakuru,"Thimmalapura, Tumakuru - KSPCB",15-02-2026 08:00:00,13.377516,77.099072,CO,52,55,53
India,Karnataka,Vijayapura,"Ibrahimpur, Vijayapura - KSPCB",15-02-2026 08:00:00,16.802639,75.722694,NH3,1,2,1
India,Karnataka,Vijayapura,"Ibrahimpur, Vijayapura - KSPCB",15-02-2026 08:00:00,16.802639,75.722694,SO2,3,6,3
India,Karnataka,Yadgir,"Collector Office, Yadgir - KSPCB",15-02-2026 08:00:00,16.7602,77.1428,NO2,5,39,16
India,Karnataka,Yadgir,"Collector Office, Yadgir - KSPCB",15-02-2026 08:00:00,16.7602,77.1428,CO,5,19,8
India,Kerala,Eloor,"Udyogamandal, Eloor - Kerala PCB",15-02-2026 08:00:00,10.073232,76.302765,PM10,64,114,80
India,Kerala,Kannur,"Thavakkara, Kannur - Kerala PCB",15-02-2026 08:00:00,11.875000,75.373200,PM2.5,76,91,84
India,Kerala,Kannur,"Thavakkara, Kannur - Kerala PCB",15-02-2026 08:00:00,11.875000,75.373200,NH3,2,2,2
India,Kerala,Kannur,"Thavakkara, Kannur - Kerala PCB",15-02-2026 08:00:00,11.875000,75.373200,CO,20,24,22
India,Kerala,Kannur,"Thavakkara, Kannur - Kerala PCB",15-02-2026 08:00:00,11.875000,75.373200,OZONE,28,32,28
India,Karnataka,Bagalkot,"Vidayagiri, Bagalkot - KSPCB",15-02-2026 08:00:00,16.172806,75.659694,NH3,1,2,1
India,Karnataka,Bagalkot,"Vidayagiri, Bagalkot - KSPCB",15-02-2026 08:00:00,16.172806,75.659694,SO2,7,7,7
India,Karnataka,Bengaluru,"BTM Layout, Bengaluru - CPCB",15-02-2026 08:00:00,12.9135218,77.5950804,CO,43,48,48
India,Karnataka,Bengaluru,"BWSSB Kadabesanahalli, Bengaluru - CPCB",15-02-2026 08:00:00,12.9352049,77.6814488,CO,36,39,37
India,Karnataka,Bengaluru,"Bapuji Nagar, Bengaluru - KSPCB",15-02-2026 08:00:00,12.951913,77.539784,PM10,74,153,114
India,Karnataka,Bengaluru,"Bapuji Nagar, Bengaluru - KSPCB",15-02-2026 08:00:00,12.951913,77.539784,NO2,73,132,106
India,Karnataka,Bengaluru,"Bapuji Nagar, Bengaluru - KSPCB",15-02-2026 08:00:00,12.951913,77.539784,CO,13,50,29
India,Karnataka,Bengaluru,"City Railway Station, Bengaluru - KSPCB",15-02-2026 08:00:00,12.9756843,77.5660749,PM10,100,102,101
India,Karnataka,Bengaluru,"Hebbal, Bengaluru - KSPCB",15-02-2026 08:00:00,13.029152,77.585901,NO2,37,50,45
India,Haryana,Manesar,"Sector-2 IMT, Manesar - HSPCB",15-02-2026 08:00:00,28.360699,76.936090,SO2,8,52,26
India,Haryana,Narnaul,"Shastri Nagar, Narnaul - HSPCB",15-02-2026 08:00:00,28.060249,76.113115,PM2.5,33,153,85
India,Haryana,Palwal,"Shyam Nagar, Palwal - HSPCB",15-02-2026 08:00:00,28.1485564,77.3320667,PM10,40,91,60
India,Haryana,Palwal,"Shyam Nagar, Palwal - HSPCB",15-02-2026 08:00:00,28.1485564,77.3320667,NH3,8,9,9
India,Haryana,Panchgaon,"Amity University, Panchgaon - IITM",15-02-2026 08:00:00,28.3153,76.9143,OZONE,1,92,1
India,Haryana,Rohtak,"MD University, Rohtak - HSPCB",15-02-2026 08:00:00,28.52123,76.37138,PM10,69,217,110
India,Haryana,Rohtak,"MD University, Rohtak - HSPCB",15-02-2026 08:00:00,28.52123,76.37138,SO2,11,13,12
India,Haryana,Sirsa,"F-Block, Sirsa - HSPCB",15-02-2026 08:00:00,29.536400,75.015800,PM2.5,2,202,44
India,Haryana,Sonipat,"Murthal, Sonipat - HSPCB",15-02-2026 08:00:00,29.027200,77.062100,CO,4,6,5
India,Haryana,Yamuna Nagar,"Gobind Pura, Yamuna Nagar - HSPCB",15-02-2026 08:00:00,30.1480566,77.2893471,SO2,10,16,12
India,Haryana,Yamuna Nagar,"Gobind Pura, Yamuna Nagar - HSPCB",15-02-2026 08:00:00,30.1480566,77.2893471,OZONE,8,34,11
India,Himachal Pradesh,Baddi,"HIMUDA Complex Phase-1, Baddi - HPPCB",15-02-2026 08:00:00,30.943887,76.801991,NO2,8,60,33
India,Jammu_and_Kashmir,Srinagar,"Rajbagh, Srinagar - JKPCC",15-02-2026 08:00:00,34.066206,74.819820,CO,6,18,12
India,Jammu_and_Kashmir,Srinagar,"Rajbagh, Srinagar - JKPCC",15-02-2026 08:00:00,34.066206,74.819820,OZONE,NA,NA,NA
India,Jharkhand,Dhanbad,"Sardar Patel Nagar, Dhanbad - JSPCB",15-02-2026 08:00:00,23.80569,86.44268,PM10,59,297,114
India,Karnataka,Dharwad,"Kalabhavan, Dharwad - KSPCB",15-02-2026 08:00:00,15.459706,75.008381,CO,42,109,75
India,Karnataka,Hubballi,"Lingaraj Nagar, Hubballi - KSPCB",15-02-2026 08:00:00,15.3714823,75.1160168,PM10,63,71,65
India,Karnataka,Hubballi,"Lingaraj Nagar, Hubballi - KSPCB",15-02-2026 08:00:00,15.3714823,75.1160168,NO2,11,11,11
