country,state,city,station,last_update,latitude,longitude,pollutant_id,min_value,max_value,avg_value
India,Bihar,Motihari,"Gandak Colony, Motihari - BSPCB",16-04-2026 09:00:00,26.63086,84.90051,CO,14,46,16
India,Bihar,Munger,"Town Hall, Munger - BSPCB",16-04-2026 09:00:00,25.376776,86.471523,OZONE,9,13,10
India,Bihar,Muzaffarpur,"Buddha Colony, Muzaffarpur - BSPCB",16-04-2026 09:00:00,26.11442,85.39813,NH3,11,25,15
India,Bihar,Muzaffarpur,"Buddha Colony, Muzaffarpur - BSPCB",16-04-2026 09:00:00,26.11442,85.39813,SO2,3,8,5
India,Bihar,Muzaffarpur,"Buddha Colony, Muzaffarpur - BSPCB",16-04-2026 09:00:00,26.11442,85.39813,OZONE,24,99,31
India,Bihar,Muzaffarpur,"MIT-Daudpur Kothi, Muzaffarpur - BSPCB",16-04-2026 09:00:00,26.1403345,85.3650192,PM2.5,65,93,87
India,Bihar,Muzaffarpur,"MIT-Daudpur Kothi, Muzaffarpur - BSPCB",16-04-2026 09:00:00,26.1403345,85.3650192,PM10,57,69,66
India,Bihar,Muzaffarpur,"MIT-Daudpur Kothi, Muzaffarpur - BSPCB",16-04-2026 09:00:00,26.1403345,85.3650192,SO2,8,27,18
India,Bihar,Muzaffarpur,"Muzaffarpur Collectorate, Muzaffarpur - BSPCB",16-04-2026 09:00:00,26.1209,85.3647,CO,22,50,22
India,Bihar,Muzaffarpur,"Muzaffarpur Collectorate, Muzaffarpur - BSPCB",16-04-2026 09:00:00,26.1209,85.3647,OZONE,10,19,17
India,Bihar,Patna,"DRM Office Danapur, Patna - BSPCB",16-04-2026 09:00:00,25.586562,85.043586,NO2,34,42,38
India,Bihar,Patna,"DRM Office Danapur, Patna - BSPCB",16-04-2026 09:00:00,25.586562,85.043586,CO,30,74,44
India,Andhra_Pradesh,Nellore,"Ambedkar Nagar, Nellore - APPCB ",16-04-2026 09:00:00,14.438164 ,79.966814 ,PM2.5,24,63,34
India,Andhra_Pradesh,Nellore,"Ambedkar Nagar, Nellore - APPCB ",16-04-2026 09:00:00,14.438164 ,79.966814 ,CO,14,142,25
India,Andhra_Pradesh,Rajamahendravaram,"Anand Kala Kshetram, Rajamahendravaram - APPCB",16-04-2026 09:00:00,16.9872867,81.7363176,NH3,1,3,2
India,Andhra_Pradesh,Rajamahendravaram,"Anand Kala Kshetram, Rajamahendravaram - APPCB",16-04-2026 09:00:00,16.9872867,81.7363176,SO2,4,7,5
India,Andhra_Pradesh,Tirumala,"Toll Gate, Tirumala - APPCB",16-04-2026 09:00:00,13.67,79.35,NO2,29,63,48
India,Andhra_Pradesh,Tirupati,"Vaikuntapuram, Tirupati - APPCB",16-04-2026 09:00:00,13.615387,79.409230,CO,20,40,23
India,Andhra_Pradesh,Tirupati,"Vaikuntapuram, Tirupati - APPCB",16-04-2026 09:00:00,13.615387,79.409230,OZONE,27,46,28
India,Andhra_Pradesh,Vijayawada,"HB Colony, Vijayawada - APPCB",16-04-2026 09:00:00,16.536107,80.594233,PM10,57,173,93
India,Andhra_Pradesh,Vijayawada,"HB Colony, Vijayawada - APPCB",16-04-2026 09:00:00,16.536107,80.594233,SO2,13,20,15
India,Andhra_Pradesh,Vijayawada,"Kanuru, Vijayawada - APPCB",16-04-2026 09:00:00,16.486692,80.699436,NO2,25,34,28
India,Bihar,Bhagalpur,"DM Office_Kachari Chowk, Bhagalpur - BSPCB",16-04-2026 09:00:00,25.251013,86.989001,PM10,41,101,71
India,Bihar,Bhagalpur,"DM Office_Kachari Chowk, Bhagalpur - BSPCB",16-04-2026 09:00:00,25.251013,86.989001,NH3,1,1,1
India,Bihar,Bhagalpur,"DM Office_Kachari Chowk, Bhagalpur - BSPCB",16-04-2026 09:00:00,25.251013,86.989001,CO,24,60,31
India,Bihar,Bhagalpur,"DM Office_Kachari Chowk, Bhagalpur - BSPCB",16-04-2026 09:00:00,25.251013,86.989001,OZONE,8,30,16
India,Bihar,Bhagalpur,"Mayaganj, Bhagalpur - BSPCB",16-04-2026 09:00:00,25.265194,87.012947,SO2,53,62,58
India,Bihar,Bihar Sharif,"D M Colony, Bihar Sharif - BSPCB",16-04-2026 09:00:00,25.204762,85.514960,SO2,10,10,10
India,Bihar,Buxar,"Charitra Van, Buxar - BSPCB",16-04-2026 09:00:00,25.567520,83.966379,PM2.5,38,77,59
India,Bihar,Buxar,"Charitra Van, Buxar - BSPCB",16-04-2026 09:00:00,25.567520,83.966379,PM10,33,77,56
India,Bihar,Chhapra,"Darshan Nagar, Chhapra - BSPCB",16-04-2026 09:00:00,25.7808257,84.7446768,NO2,3,6,4
India,Bihar,Chhapra,"Darshan Nagar, Chhapra - BSPCB",16-04-2026 09:00:00,25.7808257,84.7446768,CO,8,23,10
India,Bihar,Chhapra,"Darshan Nagar, Chhapra - BSPCB",16-04-2026 09:00:00,25.7808257,84.7446768,OZONE,4,52,5
India,Bihar,Gaya,"Kareemganj, Gaya - BSPCB",16-04-2026 09:00:00,24.792403,84.992416,NO2,11,13,12
India,Bihar,Gaya,"Kareemganj, Gaya - BSPCB",16-04-2026 09:00:00,24.792403,84.992416,CO,1,48,13
India,Bihar,Gaya,"SFTI Kusdihra, Gaya - BSPCB",16-04-2026 09:00:00,24.762518,84.982348,NH3,2,5,3
India,Bihar,Katihar,"Mirchaibari, Katihar - BSPCB",16-04-2026 09:00:00,25.560083,87.553265,PM2.5,20,52,36
India,Bihar,Katihar,"Mirchaibari, Katihar - BSPCB",16-04-2026 09:00:00,25.560083,87.553265,NO2,9,10,9
India,Bihar,Katihar,"Mirchaibari, Katihar - BSPCB",16-04-2026 09:00:00,25.560083,87.553265,OZONE,5,14,8
India,Bihar,Kishanganj,"SDM Office_Khagra, Kishanganj - BSPCB",16-04-2026 09:00:00,26.0881305,87.93840336,NO2,8,8,8
India,Bihar,Kishanganj,"SDM Office_Khagra, Kishanganj - BSPCB",16-04-2026 09:00:00,26.0881305,87.93840336,NH3,3,3,3
India,Bihar,Manguraha,"Forest Rest House, Manguraha - BSPCB",16-04-2026 09:00:00,27.308328,84.531742,NH3,1,1,1
India,Bihar,Motihari,"Gandak Colony, Motihari - BSPCB",16-04-2026 09:00:00,26.63086,84.90051,PM10,49,223,97
India,Assam,Guwahati,"LGBI Airport, Guwahati - PCBA",16-04-2026 09:00:00,26.10887,91.589544,NH3,NA,NA,NA
India,Assam,Guwahati,"Railway Colony, Guwahati - PCBA",16-04-2026 09:00:00,26.181742,91.78063,NH3,1,1,1
India,Assam,Guwahati,"Railway Colony, Guwahati - PCBA",16-04-2026 09:00:00,26.181742,91.78063,OZONE,1,3,1
India,Assam,Nagaon,"Christianpatty, Nagaon - PCBA",16-04-2026 09:00:00,26.349082,92.68449,PM10,22,72,37
India,Assam,Nalbari,"Bata Chowk, Nalbari - PCBA",16-04-2026 09:00:00,26.446912,91.439057,PM10,34,49,44
India,Assam,Silchar,"Tarapur, Silchar - PCBA",16-04-2026 09:00:00,24.82827,92.79525,PM10,43,51,46
India,Assam,Sivasagar,"Girls College, Sivasagar - PCBA",16-04-2026 09:00:00,26.987634,94.636574,PM2.5,23,34,27
India,Assam,Sivasagar,"Girls College, Sivasagar - PCBA",16-04-2026 09:00:00,26.987634,94.636574,CO,17,26,25
India,Bihar,Patna,"Govt. High School Shikarpur, Patna - BSPCB",16-04-2026 09:00:00,25.592539,85.227158,NH3,4,5,5
India,Bihar,Patna,"Govt. High School Shikarpur, Patna - BSPCB",16-04-2026 09:00:00,25.592539,85.227158,SO2,8,10,9
India,Bihar,Patna,"Govt. High School Shikarpur, Patna - BSPCB",16-04-2026 09:00:00,25.592539,85.227158,CO,36,86,54
India,Bihar,Patna,"Govt. High School Shikarpur, Patna - BSPCB",16-04-2026 09:00:00,25.592539,85.227158,OZONE,22,87,28
India,Bihar,Patna,"IGSC Planetarium Complex, Patna - BSPCB",16-04-2026 09:00:00,25.610369,85.132568,CO,29,34,32
India,Bihar,Patna,"IGSC Planetarium Complex, Patna - BSPCB",16-04-2026 09:00:00,25.610369,85.132568,OZONE,60,61,60
India,Bihar,Patna,"Muradpur, Patna - BSPCB",16-04-2026 09:00:00,25.619651,85.147382,NO2,10,11,11
India,Bihar,Patna,"Muradpur, Patna - BSPCB",16-04-2026 09:00:00,25.619651,85.147382,CO,4,50,17
India,Bihar,Patna,"Samanpura, Patna - BSPCB",16-04-2026 09:00:00,25.596727,85.085624,NO2,29,58,37
India,Andhra_Pradesh,Chittoor,"Gangineni Cheruvu, Chittoor - APPCB",16-04-2026 09:00:00,13.204880,79.097889,NO2,26,42,38
India,Andhra_Pradesh,Chittoor,"Gangineni Cheruvu, Chittoor - APPCB",16-04-2026 09:00:00,13.204880,79.097889,NH3,6,8,6
India,Andhra_Pradesh,Eluru,"District Court, Eluru - APPCB",16-04-2026 09:00:00,16.711754,81.092095,SO2,8,15,10
India,Andhra_Pradesh,Eluru,"District Court, Eluru - APPCB",16-04-2026 09:00:00,16.711754,81.092095,OZONE,4,21,6
India,Andhra_Pradesh,Guntur,"Rajendra Nagar North, Guntur - APPCB",16-04-2026 09:00:00,16.316553,80.413302,PM10,36,73,46
India,Andhra_Pradesh,Guntur,"Rajendra Nagar North, Guntur - APPCB",16-04-2026 09:00:00,16.316553,80.413302,SO2,8,14,10
India,Andhra_Pradesh,Kadapa,"Yerramukkapalli, Kadapa - APPCB",16-04-2026 09:00:00,14.465052,78.824187,PM10,54,79,69
India,Andhra_Pradesh,Kadapa,"Yerramukkapalli, Kadapa - APPCB",16-04-2026 09:00:00,14.465052,78.824187,CO,26,41,36
India,Bihar,Araria,"Kharahiya Basti, Araria - BSPCB",16-04-2026 09:00:00,26.146529,87.454184,NH3,5,6,6
India,Bihar,Araria,"Kharahiya Basti, Araria - BSPCB",16-04-2026 09:00:00,26.146529,87.454184,SO2,38,60,49
India,Bihar,Arrah,"New DM Office, Arrah - BSPCB",16-04-2026 09:00:00,25.5626095,84.663264,SO2,4,6,5
India,Bihar,Aurangabad,"Gurdeo Nagar, Aurangabad - BSPCB",16-04-2026 09:00:00,24.75746,84.366208,PM2.5,20,67,41
India,Bihar,Aurangabad,"Gurdeo Nagar, Aurangabad - BSPCB",16-04-2026 09:00:00,24.75746,84.366208,SO2,10,22,15
India,Bihar,Begusarai,"Lohiyanagar, Begusarai - BSPCB",16-04-2026 09:00:00,25.42742023,86.13886079,PM2.5,33,78,52
India,Bihar,Begusarai,"Lohiyanagar, Begusarai - BSPCB",16-04-2026 09:00:00,25.42742023,86.13886079,CO,14,19,17
India,Andhra_Pradesh,Vijayawada,"Kanuru, Vijayawada - APPCB",16-04-2026 09:00:00,16.486692,80.699436,CO,40,46,43
India,Andhra_Pradesh,Vijayawada,"Rajiv Gandhi Park, Vijayawada - APPCB",16-04-2026 09:00:00,16.509717,80.612222,NO2,18,28,21
India,Andhra_Pradesh,Visakhapatnam,"GVM Corporation, Visakhapatnam - APPCB",16-04-2026 09:00:00,17.72,83.3,NH3,NA,NA,NA
India,Arunachal_Pradesh,Naharlagun,"Naharlagun, Naharlagun - APSPCB",16-04-2026 09:00:00,27.103358,93.679645,PM10,36,81,57
India,Assam,Byrnihat,"Central Academy for SFS, Byrnihat - PCBA",16-04-2026 09:00:00,26.071318,91.87488,SO2,27,32,32
India,Bihar,Saharsa,"Police Line, Saharsa - BSPCB",16-04-2026 09:00:00,25.892357,86.590325,SO2,NA,NA,NA
India,Bihar,Samastipur,"DM Office_Kasipur, Samastipur - BSPCB",16-04-2026 09:00:00,25.859655,85.77944,PM2.5,NA,NA,NA
India,Bihar,Samastipur,"DM Office_Kasipur, Samastipur - BSPCB",16-04-2026 09:00:00,25.859655,85.77944,NH3,NA,NA,NA
India,Bihar,Sasaram,"Dada Peer, Sasaram - BSPCB",16-04-2026 09:00:00,24.952822,84.002396,OZONE,9,49,20
India,Bihar,Siwan,"Chitragupta Nagar, Siwan - BSPCB",16-04-2026 09:00:00,26.2271665,84.3570427,PM2.5,15,107,59
India,Bihar,Siwan,"Chitragupta Nagar, Siwan - BSPCB",16-04-2026 09:00:00,26.2271665,84.3570427,NH3,1,1,1
India,Bihar,Siwan,"Chitragupta Nagar, Siwan - BSPCB",16-04-2026 09:00:00,26.2271665,84.3570427,SO2,8,10,9
India,Delhi,Delhi,"Lodhi Road, Delhi - IMD",16-04-2026 09:00:00,28.5918245,77.2273074,OZONE,22,170,24
India,Delhi,Delhi,"Major Dhyan Chand National Stadium, Delhi - DPCC",16-04-2026 09:00:00,28.611281,77.237738,PM10,50,416,191
India,Delhi,Delhi,"Major Dhyan Chand National Stadium, Delhi - DPCC",16-04-2026 09:00:00,28.611281,77.237738,NO2,15,175,87
India,Delhi,Delhi,"Major Dhyan Chand National Stadium, Delhi - DPCC",16-04-2026 09:00:00,28.611281,77.237738,CO,3,124,53
India,Delhi,Delhi,"Mandir Marg, Delhi - DPCC",16-04-2026 09:00:00,28.636429,77.201067,SO2,4,58,31
India,Delhi,Delhi,"Mandir Marg, Delhi - DPCC",16-04-2026 09:00:00,28.636429,77.201067,CO,86,135,124
India,Delhi,Delhi,"Mandir Marg, Delhi - DPCC",16-04-2026 09:00:00,28.636429,77.201067,OZONE,4,79,5
India,Delhi,Delhi,"Mundka, Delhi - DPCC",16-04-2026 09:00:00,28.684678,77.076574,NH3,4,13,8
India,Delhi,Delhi,"Mundka, Delhi - DPCC",16-04-2026 09:00:00,28.684678,77.076574,SO2,19,104,45
India,Delhi,Delhi,"NSIT Dwarka, Delhi - CPCB",16-04-2026 09:00:00,28.60909,77.0325413,PM10,83,263,168
India,Delhi,Delhi,"Cantonment Area, Delhi - DPCC ",16-04-2026 09:00:00,28.594169 ,77.125100 ,CO,24,111,109
India,Delhi,Delhi,"Chandni Chowk, Delhi - IITM",16-04-2026 09:00:00,28.656756,77.227234,PM2.5,20,286,105
India,Delhi,Delhi,"DTU, Delhi - CPCB",16-04-2026 09:00:00,28.7500499,77.1112615,OZONE,16,41,30
India,Delhi,Delhi,"Dr. Karni Singh Shooting Range, Delhi - DPCC",16-04-2026 09:00:00,28.498571,77.264840,NH3,3,10,7
India,Delhi,Delhi,"Dr. Karni Singh Shooting Range, Delhi - DPCC",16-04-2026 09:00:00,28.498571,77.264840,SO2,4,47,25
India,Delhi,Delhi,"Dwarka-Sector 8, Delhi - DPCC ",16-04-2026 09:00:00,28.5710274,77.0719006,PM10,105,500,310
India,Delhi,Delhi,"Dwarka-Sector 8, Delhi - DPCC ",16-04-2026 09:00:00,28.5710274,77.0719006,NO2,34,150,88
India,Delhi,Delhi,"IGI Airport (T3), Delhi - IMD",16-04-2026 09:00:00,28.5627763,77.1180053,PM10,57,434,224
India,Delhi,Delhi,"ITO, Delhi - CPCB",16-04-2026 09:00:00,28.628624,77.241060,CO,23,136,84
India,Delhi,Delhi,"JNU, Delhi - DPCC",16-04-2026 09:00:00,28.540721 ,77.168544 ,PM2.5,13,343,179
India,Delhi,Delhi,"JNU, Delhi - DPCC",16-04-2026 09:00:00,28.540721 ,77.168544 ,NO2,5,86,51
India,Delhi,Delhi,"JNU, Delhi - DPCC",16-04-2026 09:00:00,28.540721 ,77.168544 ,SO2,18,42,27
India,Delhi,Delhi,"Jahangirpuri, Delhi - DPCC",16-04-2026 09:00:00,28.732820,77.170633,NO2,29,151,81
India,Delhi,Delhi,"Jawaharlal Nehru Stadium, Delhi - DPCC",16-04-2026 09:00:00,28.580280,77.233829,NO2,32,199,98
India,Delhi,Delhi,"Jawaharlal Nehru Stadium, Delhi - DPCC",16-04-2026 09:00:00,28.580280,77.233829,SO2,9,50,24
India,Delhi,Delhi,"Jawaharlal Nehru Stadium, Delhi - DPCC",16-04-2026 09:00:00,28.580280,77.233829,OZONE,1,116,1
India,Delhi,Delhi,"Lodhi Road, Delhi - IMD",16-04-2026 09:00:00,28.5918245,77.2273074,PM10,64,288,159
India,Chandigarh,Chandigarh,"Sector-25, Chandigarh - CPCC",16-04-2026 09:00:00,30.751462,76.762879,PM10,NA,NA,NA
India,Chandigarh,Chandigarh,"Sector-25, Chandigarh - CPCC",16-04-2026 09:00:00,30.751462,76.762879,NO2,NA,NA,NA
India,Chandigarh,Chandigarh,"Sector-25, Chandigarh - CPCC",16-04-2026 09:00:00,30.751462,76.762879,NH3,NA,NA,NA
India,Chandigarh,Chandigarh,"Sector-53, Chandigarh - CPCC",16-04-2026 09:00:00,30.719859,76.738637,NO2,12,156,71
India,Chhattisgarh,Bhilai,"32Bungalows, Bhilai - CECB",16-04-2026 09:00:00,21.194815,81.314770,NO2,6,37,17
India,Chhattisgarh,Bhilai,"Civic Center, Bhilai - Bhilai Steel Plant",16-04-2026 09:00:00,21.185571,81.343175,PM10,41,71,56
India,Chhattisgarh,Bhilai,"Civic Center, Bhilai - Bhilai Steel Plant",16-04-2026 09:00:00,21.185571,81.343175,NO2,13,14,13
India,Chhattisgarh,Bhilai,"Civic Center, Bhilai - Bhilai Steel Plant",16-04-2026 09:00:00,21.185571,81.343175,CO,20,32,20
India,Chhattisgarh,Bhilai,"Hathkhoj, Bhilai - CECB",16-04-2026 09:00:00,21.224231,81.408350,NH3,4,6,5
India,Delhi,Delhi,"Ashok Vihar, Delhi - DPCC",16-04-2026 09:00:00,28.695381,77.181665,NO2,18,200,82
India,Delhi,Delhi,"Ashok Vihar, Delhi - DPCC",16-04-2026 09:00:00,28.695381,77.181665,NH3,6,7,6
India,Delhi,Delhi,"Ashok Vihar, Delhi - DPCC",16-04-2026 09:00:00,28.695381,77.181665,SO2,10,68,31
India,Delhi,Delhi,"Ashok Vihar, Delhi - DPCC",16-04-2026 09:00:00,28.695381,77.181665,CO,2,108,39
India,Delhi,Delhi,"Burari Crossing, Delhi - IMD",16-04-2026 09:00:00,28.7256504,77.2011573,PM10,70,442,247
India,Delhi,Delhi,"CRRI Mathura Road, Delhi - IMD",16-04-2026 09:00:00,28.5512005,77.2735737,PM10,80,425,232
India,Delhi,Delhi,"Cantonment Area, Delhi - DPCC ",16-04-2026 09:00:00,28.594169 ,77.125100 ,PM2.5,14,54,37
India,Delhi,Delhi,"Cantonment Area, Delhi - DPCC ",16-04-2026 09:00:00,28.594169 ,77.125100 ,NH3,3,20,8
India,Chhattisgarh,Korba,"Rampur, Korba - CECB",16-04-2026 09:00:00,22.368195,82.746431,NO2,16,52,26
India,Chhattisgarh,Korba,"Rampur, Korba - CECB",16-04-2026 09:00:00,22.368195,82.746431,NH3,1,1,1
India,Chhattisgarh,Korba,"Urja Nagar, Korba - CECB",16-04-2026 09:00:00,22.348441,82.549611,NO2,24,36,29
India,Chhattisgarh,Milupara,"Govt. Higher Secondary School, Milupara - CECB",16-04-2026 09:00:00,22.1910172,83.5197009,PM2.5,44,142,79
India,Chhattisgarh,Milupara,"Govt. Higher Secondary School, Milupara - CECB",16-04-2026 09:00:00,22.1910172,83.5197009,PM10,75,147,106
India,Chhattisgarh,Milupara,"Govt. Higher Secondary School, Milupara - CECB",16-04-2026 09:00:00,22.1910172,83.5197009,OZONE,3,144,9
India,Delhi,Delhi,"IGNOU_Maidan Garhi, Delhi - DPCC",16-04-2026 09:00:00,28.493624 ,77.201159 ,PM10,55,310,189
India,Delhi,Delhi,"IGNOU_Maidan Garhi, Delhi - DPCC",16-04-2026 09:00:00,28.493624 ,77.201159 ,NO2,8,143,74
India,Delhi,Delhi,"IGNOU_Maidan Garhi, Delhi - DPCC",16-04-2026 09:00:00,28.493624 ,77.201159 ,NH3,1,5,2
India,Delhi,Delhi,"IGNOU_Maidan Garhi, Delhi - DPCC",16-04-2026 09:00:00,28.493624 ,77.201159 ,SO2,7,40,18
India,Delhi,Delhi,"IHBAS, Dilshad Garden, Delhi - CPCB",16-04-2026 09:00:00,28.6811736,77.3025234,NH3,5,7,6
India,Delhi,Delhi,"IIT Delhi, Delhi - IITM",16-04-2026 09:00:00,28.542460,77.191651,PM2.5,18,316,102
India,Chhattisgarh,Raipur,"AIIMS, Raipur - CECB",16-04-2026 09:00:00,21.258815,81.578979,NH3,3,4,3
India,Chhattisgarh,Raipur,"Bhatagaon New ISBT, Raipur - CECB",16-04-2026 09:00:00,21.219665,81.630094,PM10,36,109,70
India,Chhattisgarh,Raipur,"Krishak Nagar, Raipur - CECB",16-04-2026 09:00:00,21.237755,81.705301,PM10,46,99,63
India,Chhattisgarh,Raipur,"Krishak Nagar, Raipur - CECB",16-04-2026 09:00:00,21.237755,81.705301,SO2,5,19,8
India,Delhi,Delhi,"Alipur, Delhi - DPCC",16-04-2026 09:00:00,28.815329,77.153010,NO2,14,81,47
India,Delhi,Delhi,"Narela, Delhi - DPCC",16-04-2026 09:00:00,28.822836,77.101981,CO,4,68,47
India,Delhi,Delhi,"Nehru Nagar, Delhi - DPCC",16-04-2026 09:00:00,28.567890,77.250515,NH3,7,16,10
India,Delhi,Delhi,"Nehru Nagar, Delhi - DPCC",16-04-2026 09:00:00,28.567890,77.250515,SO2,3,117,39
India,Delhi,Delhi,"Nehru Nagar, Delhi - DPCC",16-04-2026 09:00:00,28.567890,77.250515,OZONE,2,69,2
India,Delhi,Delhi,"North Campus, DU, Delhi - IMD",16-04-2026 09:00:00,28.6573814,77.1585447,PM10,108,405,203
India,Delhi,Delhi,"Wazirpur, Delhi - DPCC",16-04-2026 09:00:00,28.699793,77.165453,PM10,168,500,345
India,Gujarat,Ahmedabad,"Chandkheda, Ahmedabad - IITM",16-04-2026 09:00:00,23.107969,72.574648,NH3,2,9,6
India,Gujarat,Ahmedabad,"Chandkheda, Ahmedabad - IITM",16-04-2026 09:00:00,23.107969,72.574648,SO2,3,19,9
India,Gujarat,Ahmedabad,"Chandkheda, Ahmedabad - IITM",16-04-2026 09:00:00,23.107969,72.574648,CO,23,70,55
India,Gujarat,Ahmedabad,"Chandkheda, Ahmedabad - IITM",16-04-2026 09:00:00,23.107969,72.574648,OZONE,13,80,26
India,Gujarat,Ahmedabad,"Gyaspur, Ahmedabad - IITM",16-04-2026 09:00:00,22.977134,72.553024,PM10,98,182,121
India,Gujarat,Ahmedabad,"Gyaspur, Ahmedabad - IITM",16-04-2026 09:00:00,22.977134,72.553024,SO2,33,134,98
India,Gujarat,Ahmedabad,"Maninagar, Ahmedabad - GPCB",16-04-2026 09:00:00,23.002657,72.591912,PM10,62,143,101
India,Gujarat,Ahmedabad,"Raikhad, Ahmedabad - IITM",16-04-2026 09:00:00,23.020509,72.579261,PM2.5,44,93,66
India,Gujarat,Ahmedabad,"Raikhad, Ahmedabad - IITM",16-04-2026 09:00:00,23.020509,72.579261,NH3,8,12,9
India,Gujarat,Ahmedabad,"Raikhad, Ahmedabad - IITM",16-04-2026 09:00:00,23.020509,72.579261,SO2,10,88,22
India,Haryana,Dharuhera,"Municipal Corporation Office, Dharuhera -  HSPCB",16-04-2026 09:00:00,28.206800,76.799700,PM2.5,57,306,163
India,Haryana,Dharuhera,"Municipal Corporation Office, Dharuhera -  HSPCB",16-04-2026 09:00:00,28.206800,76.799700,NH3,9,26,19
India,Haryana,Dharuhera,"Municipal Corporation Office, Dharuhera -  HSPCB",16-04-2026 09:00:00,28.206800,76.799700,SO2,6,7,7
India,Haryana,Faridabad,"New Industrial Town, Faridabad - HSPCB",16-04-2026 09:00:00,28.39072,77.30059,NO2,24,27,25
India,Haryana,Faridabad,"New Industrial Town, Faridabad - HSPCB",16-04-2026 09:00:00,28.39072,77.30059,SO2,8,8,8
India,Haryana,Faridabad,"Sector 11, Faridabad - HSPCB",16-04-2026 09:00:00,28.376058,77.315741,PM10,75,424,247
India,Haryana,Faridabad,"Sector 11, Faridabad - HSPCB",16-04-2026 09:00:00,28.376058,77.315741,NO2,29,32,31
India,Haryana,Faridabad,"Sector 11, Faridabad - HSPCB",16-04-2026 09:00:00,28.376058,77.315741,NH3,10,10,10
India,Haryana,Faridabad,"Sector 11, Faridabad - HSPCB",16-04-2026 09:00:00,28.376058,77.315741,OZONE,15,16,15
India,Haryana,Fatehabad,"Huda Sector, Fatehabad - HSPCB",16-04-2026 09:00:00,29.503664,75.467934,CO,NA,NA,NA
India,Haryana,Fatehabad,"Huda Sector, Fatehabad - HSPCB",16-04-2026 09:00:00,29.503664,75.467934,OZONE,NA,NA,NA
India,Haryana,Gurugram,"NISE Gwal Pahari, Gurugram - IMD",16-04-2026 09:00:00,28.422681,77.148944,PM2.5,4,398,178
India,Haryana,Gurugram,"Sector-51, Gurugram - HSPCB",16-04-2026 09:00:00,28.4227,77.0667,NH3,6,10,8
India,Haryana,Gurugram,"Sector-51, Gurugram - HSPCB",16-04-2026 09:00:00,28.4227,77.0667,CO,15,98,70
India,Haryana,Gurugram,"Teri Gram, Gurugram - HSPCB",16-04-2026 09:00:00,28.4275,77.1465,PM2.5,118,243,203
India,Haryana,Gurugram,"Teri Gram, Gurugram - HSPCB",16-04-2026 09:00:00,28.4275,77.1465,NH3,11,20,15
India,Haryana,Hisar,"Urban Estate-II, Hisar - HSPCB",16-04-2026 09:00:00,29.140560,75.744941,SO2,2,21,12
India,Haryana,Jind,"Police Lines, Jind - HSPCB",16-04-2026 09:00:00,29.307814,76.337619,PM10,60,159,102
India,Haryana,Jind,"Police Lines, Jind - HSPCB",16-04-2026 09:00:00,29.307814,76.337619,CO,5,42,10
India,Delhi,Delhi,"Shadipur, Delhi - CPCB",16-04-2026 09:00:00,28.6514781,77.1473105,PM10,44,391,153
India,Delhi,Delhi,"Shadipur, Delhi - CPCB",16-04-2026 09:00:00,28.6514781,77.1473105,OZONE,5,50,8
India,Delhi,Delhi,"Sirifort, Delhi - CPCB",16-04-2026 09:00:00,28.5504249,77.2159377,OZONE,12,30,12
India,Delhi,Delhi,"Sonia Vihar, Delhi - DPCC",16-04-2026 09:00:00,28.710508,77.249485,CO,2,146,138
India,Delhi,Delhi,"Sri Aurobindo Marg, Delhi - DPCC",16-04-2026 09:00:00,28.531346,77.190156,PM10,53,284,126
India,Delhi,Delhi,"Talkatora Garden, Delhi - DPCC",16-04-2026 09:00:00,28.621810,77.1944633,NO2,8,67,38
India,Delhi,Delhi,"Talkatora Garden, Delhi - DPCC",16-04-2026 09:00:00,28.621810,77.1944633,CO,50,112,108
India,Delhi,Delhi,"Vivek Vihar, Delhi - DPCC",16-04-2026 09:00:00,28.672342,77.315260,SO2,13,51,25
India,Gujarat,Surat,"Katargam, Surat - Nexteng Enviro",16-04-2026 09:00:00,21.217779 ,72.834787 ,CO,37,45,39
India,Gujarat,Surat,"Science Center, Surat - SMC",16-04-2026 09:00:00,21.170046,72.795405,CO,34,48,36
India,Gujarat,Vadodara,"Bapunagar, Vadodara - Nexteng Enviro",16-04-2026 09:00:00,22.320153,73.216285,PM2.5,46,170,82
India,Gujarat,Vapi,"Phase-1 GIDC, Vapi - GPCB",16-04-2026 09:00:00,20.362421,72.918013,PM10,58,101,72
India,Gujarat,Vatva,"Phase-4 GIDC, Vatva - GPCB",16-04-2026 09:00:00,22.969611,72.643500,SO2,67,87,77
India,Haryana,Ambala,"Patti Mehar, Ambala - HSPCB",16-04-2026 09:00:00,30.379589,76.778328,NH3,7,8,8
India,Gujarat,Gandhinagar,"IIPHG Lekawada, Gandhinagar - IITM",16-04-2026 09:00:00,23.243639,72.68994,PM2.5,36,80,51
India,Gujarat,Gandhinagar,"IIPHG Lekawada, Gandhinagar - IITM",16-04-2026 09:00:00,23.243639,72.68994,NH3,1,2,2
India,Gujarat,Gandhinagar,"IIPHG Lekawada, Gandhinagar - IITM",16-04-2026 09:00:00,23.243639,72.68994,CO,28,67,48
India,Gujarat,Gandhinagar,"Sector-10, Gandhinagar - GPCB",16-04-2026 09:00:00,23.221714,72.654328,PM10,57,135,102
India,Gujarat,Gandhinagar,"Sector-10, Gandhinagar - GPCB",16-04-2026 09:00:00,23.221714,72.654328,NH3,1,3,1
India,Gujarat,Mehsana,"Sadanand Nagar, Mehsana - Nexteng Enviro",16-04-2026 09:00:00,23.593150,72.372792,SO2,4,21,9
India,Gujarat,Rajkot,"Mavdi, Rajkot - Nexteng Enviro ",16-04-2026 09:00:00,22.248853,70.776774,PM10,47,127,79
India,Delhi,Delhi,"Patparganj, Delhi - DPCC",16-04-2026 09:00:00,28.623763,77.287209,OZONE,2,91,2
India,Delhi,Delhi,"Punjabi Bagh, Delhi - DPCC",16-04-2026 09:00:00,28.674045,77.131023,NO2,20,106,63
India,Delhi,Delhi,"Pusa, Delhi - DPCC",16-04-2026 09:00:00,28.639652,77.146275,SO2,17,87,29
India,Delhi,Delhi,"Pusa, Delhi - DPCC",16-04-2026 09:00:00,28.639652,77.146275,CO,38,121,93
India,Delhi,Delhi,"Pusa, Delhi - DPCC",16-04-2026 09:00:00,28.639652,77.146275,OZONE,4,47,4
India,Delhi,Delhi,"R K Puram, Delhi - DPCC",16-04-2026 09:00:00,28.563262,77.186937,PM2.5,12,369,204
India,Delhi,Delhi,"Rohini, Delhi - DPCC",16-04-2026 09:00:00,28.732528,77.119920,NO2,8,133,56
India,Gujarat,Ahmedabad,"Rakhial, Ahmedabad - IITM",16-04-2026 09:00:00,23.016834,72.625775,PM10,88,132,114
India,Gujarat,Ahmedabad,"SAC ISRO Bopal, Ahmedabad - IITM",16-04-2026 09:00:00,23.041137,72.456691,NO2,6,49,17
India,Gujarat,Ahmedabad,"SAC ISRO Bopal, Ahmedabad - IITM",16-04-2026 09:00:00,23.041137,72.456691,NH3,3,8,5
India,Gujarat,Ahmedabad,"SAC ISRO Satellite, Ahmedabad - IITM",16-04-2026 09:00:00,23.023389,72.515201,PM2.5,70,151,103
India,Gujarat,Ahmedabad,"SAC ISRO Satellite, Ahmedabad - IITM",16-04-2026 09:00:00,23.023389,72.515201,PM10,79,143,111
India,Gujarat,Ahmedabad,"SVPI Airport Hansol, Ahmedabad - IITM",16-04-2026 09:00:00,23.076793,72.627874,NH3,1,4,2
India,Haryana,Bahadurgarh,"Arya Nagar, Bahadurgarh - HSPCB",16-04-2026 09:00:00,28.6701,76.9254,NO2,12,14,13
India,Haryana,Bahadurgarh,"Arya Nagar, Bahadurgarh - HSPCB",16-04-2026 09:00:00,28.6701,76.9254,CO,37,51,48
India,Haryana,Bahadurgarh,"Arya Nagar, Bahadurgarh - HSPCB",16-04-2026 09:00:00,28.6701,76.9254,OZONE,22,28,26
India,Haryana,Ballabgarh,"Nathu Colony, Ballabgarh - HSPCB",16-04-2026 09:00:00,28.3419248,77.319699,CO,16,119,59
India,Haryana,Charkhi Dadri,"Mini Secretariat, Charkhi Dadri - HSPCB",16-04-2026 09:00:00,28.593883,76.270653,NH3,5,8,6
India,Karnataka,Chikkamagaluru,"Kalyana Nagara, Chikkamagaluru - KSPCB",16-04-2026 09:00:00,13.328028,75.797056,OZONE,30,60,31
India,Karnataka,Dharwad,"Kalabhavan, Dharwad - KSPCB",16-04-2026 09:00:00,15.459706,75.008381,NO2,31,31,31
India,Karnataka,Dharwad,"Kalabhavan, Dharwad - KSPCB",16-04-2026 09:00:00,15.459706,75.008381,SO2,5,8,6
India,Karnataka,Dharwad,"Kalabhavan, Dharwad - KSPCB",16-04-2026 09:00:00,15.459706,75.008381,OZONE,30,31,30
India,Karnataka,Hubballi,"Lingaraj Nagar, Hubballi - KSPCB",16-04-2026 09:00:00,15.3714823,75.1160168,PM2.5,37,37,37
India,Karnataka,Hubballi,"Lingaraj Nagar, Hubballi - KSPCB",16-04-2026 09:00:00,15.3714823,75.1160168,NO2,7,7,7
India,Karnataka,Hubballi,"Lingaraj Nagar, Hubballi - KSPCB",16-04-2026 09:00:00,15.3714823,75.1160168,CO,16,24,21
India,Karnataka,Koppal,"Diwator Nagar, Koppal - KSPCB",16-04-2026 09:00:00,15.347630,76.181767,PM10,27,66,43
India,Karnataka,Madikeri,"Stuart Hill, Madikeri - KSPCB",16-04-2026 09:00:00,12.415911,75.735050,PM2.5,16,46,37
India,Karnataka,Madikeri,"Stuart Hill, Madikeri - KSPCB",16-04-2026 09:00:00,12.415911,75.735050,CO,10,20,15
India,Karnataka,Mangalore,"Kadri, Mangalore - KSPCB",16-04-2026 09:00:00,12.889250,74.853000,NO2,7,14,10
India,Haryana,Jind,"Police Lines, Jind - HSPCB",16-04-2026 09:00:00,29.307814,76.337619,OZONE,1,51,12
India,Haryana,Kaithal,"Rishi Nagar, Kaithal - HSPCB",16-04-2026 09:00:00,29.8006,76.4155,PM2.5,30,130,79
India,Haryana,Kaithal,"Rishi Nagar, Kaithal - HSPCB",16-04-2026 09:00:00,29.8006,76.4155,SO2,47,72,54
India,Haryana,Kurukshetra,"Sector-7, Kurukshetra - HSPCB",16-04-2026 09:00:00,29.966942,76.875879,NO2,4,4,4
India,Haryana,Kurukshetra,"Sector-7, Kurukshetra - HSPCB",16-04-2026 09:00:00,29.966942,76.875879,SO2,9,29,20
India,Haryana,Kurukshetra,"Sector-7, Kurukshetra - HSPCB",16-04-2026 09:00:00,29.966942,76.875879,OZONE,18,44,23
India,Haryana,Mandikhera,"General Hospital, Mandikhera(Nuh) - HSPCB",16-04-2026 09:00:00,27.9002,76.9938,PM2.5,31,86,55
India,Haryana,Mandikhera,"General Hospital, Mandikhera(Nuh) - HSPCB",16-04-2026 09:00:00,27.9002,76.9938,CO,13,37,27
India,Haryana,Manesar,"Sector-2 IMT, Manesar - HSPCB",16-04-2026 09:00:00,28.360699,76.936090,PM10,65,304,164
India,Haryana,Narnaul,"Shastri Nagar, Narnaul - HSPCB",16-04-2026 09:00:00,28.060249,76.113115,PM2.5,76,323,187
India,Haryana,Narnaul,"Shastri Nagar, Narnaul - HSPCB",16-04-2026 09:00:00,28.060249,76.113115,PM10,68,183,118
India,Haryana,Narnaul,"Shastri Nagar, Narnaul - HSPCB",16-04-2026 09:00:00,28.060249,76.113115,NH3,5,6,5
India,Haryana,Palwal,"Shyam Nagar, Palwal - HSPCB",16-04-2026 09:00:00,28.1485564,77.3320667,SO2,12,14,12
India,Haryana,Palwal,"Shyam Nagar, Palwal - HSPCB",16-04-2026 09:00:00,28.1485564,77.3320667,OZONE,23,26,24
India,Haryana,Panchgaon,"Amity University, Panchgaon - IITM",16-04-2026 09:00:00,28.3153,76.9143,PM2.5,55,252,114
India,Haryana,Panchgaon,"Amity University, Panchgaon - IITM",16-04-2026 09:00:00,28.3153,76.9143,PM10,65,151,103
India,Haryana,Panchkula,"Sector-6, Panchkula - HSPCB ",16-04-2026 09:00:00,30.7057778,76.8531805555555,OZONE,9,58,11
India,Haryana,Panipat,"Sector-18, Panipat - HSPCB",16-04-2026 09:00:00,29.432304,76.972765,NO2,31,32,31
India,Haryana,Panipat,"Sector-18, Panipat - HSPCB",16-04-2026 09:00:00,29.432304,76.972765,NH3,2,3,3
India,Haryana,Rohtak,"MD University, Rohtak - HSPCB",16-04-2026 09:00:00,28.52123,76.37138,NO2,10,12,11
India,Haryana,Sonipat,"Murthal, Sonipat - HSPCB",16-04-2026 09:00:00,29.027200,77.062100,NO2,12,13,12
India,Haryana,Yamuna Nagar,"Gobind Pura, Yamuna Nagar - HSPCB",16-04-2026 09:00:00,30.1480566,77.2893471,NH3,1,6,3
India,Himachal Pradesh,Baddi,"HIMUDA Complex Phase-1, Baddi - HPPCB",16-04-2026 09:00:00,30.943887,76.801991,NO2,2,48,17
India,Jammu_and_Kashmir,Pampore,"Khrew, Pampore - JKPCC",16-04-2026 09:00:00,34.031606,75.009712,SO2,3,4,3
India,Jammu_and_Kashmir,Srinagar,"Khunmoh, Srinagar - JKPCC",16-04-2026 09:00:00,34.06313,74.96017,PM2.5,NA,NA,NA
India,Jammu_and_Kashmir,Srinagar,"Khunmoh, Srinagar - JKPCC",16-04-2026 09:00:00,34.06313,74.96017,PM10,NA,NA,NA
India,Jammu_and_Kashmir,Srinagar,"Rajbagh, Srinagar - JKPCC",16-04-2026 09:00:00,34.066206,74.819820,PM2.5,15,29,22
India,Jammu_and_Kashmir,Srinagar,"Rajbagh, Srinagar - JKPCC",16-04-2026 09:00:00,34.066206,74.819820,CO,8,28,14
India,Jammu_and_Kashmir,Srinagar,"Rajbagh, Srinagar - JKPCC",16-04-2026 09:00:00,34.066206,74.819820,OZONE,NA,NA,NA
India,Karnataka,Bengaluru,"RVCE-Mailasandra, Bengaluru - KSPCB",16-04-2026 09:00:00,12.921418,77.502466,NO2,20,26,26
India,Karnataka,Bengaluru,"Shivapura_Peenya, Bengaluru - KSPCB",16-04-2026 09:00:00,13.0246342,77.5080115,PM2.5,32,38,34
India,Karnataka,Bengaluru,"Shivapura_Peenya, Bengaluru - KSPCB",16-04-2026 09:00:00,13.0246342,77.5080115,NH3,4,4,4
India,Karnataka,Bengaluru,"Shivapura_Peenya, Bengaluru - KSPCB",16-04-2026 09:00:00,13.0246342,77.5080115,SO2,3,7,4
India,Karnataka,Bengaluru,"Silk Board, Bengaluru - KSPCB",16-04-2026 09:00:00,12.917348,77.622813,SO2,1,21,10
India,Karnataka,Bengaluru,"Silk Board, Bengaluru - KSPCB",16-04-2026 09:00:00,12.917348,77.622813,OZONE,9,89,23
India,Karnataka,Chamarajanagar,"Urban, Chamarajanagar - KSPCB",16-04-2026 09:00:00,11.55358,76.55521,SO2,3,5,4
India,Karnataka,Chikkaballapur,"Chikkaballapur Rural, Chikkaballapur - KSPCB",16-04-2026 09:00:00,13.428828,77.731418,PM2.5,55,101,72
India,Karnataka,Chikkaballapur,"Chikkaballapur Rural, Chikkaballapur - KSPCB",16-04-2026 09:00:00,13.428828,77.731418,NO2,2,11,5
India,Jharkhand,Jorapokhar,"Tata Stadium, Jorapokhar - JSPCB",16-04-2026 09:00:00,23.707909,86.414670,SO2,NA,NA,NA
India,Karnataka,Bagalkot,"Vidayagiri, Bagalkot - KSPCB",16-04-2026 09:00:00,16.172806,75.659694,OZONE,6,12,11
India,Karnataka,Bengaluru,"BTM Layout, Bengaluru - CPCB",16-04-2026 09:00:00,12.9135218,77.5950804,PM10,88,89,89
India,Karnataka,Bengaluru,"BTM Layout, Bengaluru - CPCB",16-04-2026 09:00:00,12.9135218,77.5950804,OZONE,23,24,23
India,Karnataka,Bengaluru,"Bapuji Nagar, Bengaluru - KSPCB",16-04-2026 09:00:00,12.951913,77.539784,PM2.5,48,81,61
India,Karnataka,Bengaluru,"Bapuji Nagar, Bengaluru - KSPCB",16-04-2026 09:00:00,12.951913,77.539784,PM10,86,132,111
India,Karnataka,Bengaluru,"Bapuji Nagar, Bengaluru - KSPCB",16-04-2026 09:00:00,12.951913,77.539784,OZONE,21,76,28
India,Karnataka,Bengaluru,"City Railway Station, Bengaluru - KSPCB",16-04-2026 09:00:00,12.9756843,77.5660749,SO2,13,15,15
India,Karnataka,Mysuru,"Hebbal 1st Stage, Mysuru - KSPCB",16-04-2026 09:00:00,12.21041,76.37376,NH3,3,7,4
India,Karnataka,Shivamogga,"Vinoba Nagara, Shivamogga - KSPCB",16-04-2026 09:00:00,13.940000,75.555917,NH3,2,3,3
India,Karnataka,Shivamogga,"Vinoba Nagara, Shivamogga - KSPCB",16-04-2026 09:00:00,13.940000,75.555917,SO2,3,6,4
India,Karnataka,Vijayapura,"Ibrahimpur, Vijayapura - KSPCB",16-04-2026 09:00:00,16.802639,75.722694,NH3,3,4,4
India,Karnataka,Yadgir,"Collector Office, Yadgir - KSPCB",16-04-2026 09:00:00,16.7602,77.1428,PM2.5,69,399,107
India,Karnataka,Yadgir,"Collector Office, Yadgir - KSPCB",16-04-2026 09:00:00,16.7602,77.1428,NH3,1,4,1
India,Karnataka,Bengaluru,"Hebbal, Bengaluru - KSPCB",16-04-2026 09:00:00,13.029152,77.585901,NO2,NA,NA,NA
India,Karnataka,Bengaluru,"Hebbal, Bengaluru - KSPCB",16-04-2026 09:00:00,13.029152,77.585901,CO,8,34,31
India,Karnataka,Bengaluru,"Hebbal, Bengaluru - KSPCB",16-04-2026 09:00:00,13.029152,77.585901,OZONE,46,209,66
India,Karnataka,Bengaluru,"Jigani, Bengaluru - KSPCB",16-04-2026 09:00:00,12.7816279,77.6299145,OZONE,27,29,28
India,Karnataka,Bengaluru,"Kasturi Nagar, Bengaluru - KSPCB",16-04-2026 09:00:00,13.003872,77.664217,PM2.5,56,59,58
India,Karnataka,Bengaluru,"Kasturi Nagar, Bengaluru - KSPCB",16-04-2026 09:00:00,13.003872,77.664217,NO2,37,39,38
India,Haryana,Rohtak,"MD University, Rohtak - HSPCB",16-04-2026 09:00:00,28.52123,76.37138,SO2,10,13,12
India,Haryana,Rohtak,"MD University, Rohtak - HSPCB",16-04-2026 09:00:00,28.52123,76.37138,OZONE,39,40,39
India,Haryana,Sirsa,"F-Block, Sirsa - HSPCB",16-04-2026 09:00:00,29.536400,75.015800,PM2.5,13,229,133
India,Haryana,Sirsa,"F-Block, Sirsa - HSPCB",16-04-2026 09:00:00,29.536400,75.015800,NO2,17,24,19
India,Haryana,Sirsa,"F-Block, Sirsa - HSPCB",16-04-2026 09:00:00,29.536400,75.015800,NH3,12,16,14
India,Maharashtra,Aurangabad,"Rachnakar Colony, Aurangabad - MPCB",16-04-2026 09:00:00,19.863756,75.321188,CO,24,57,32
India,Maharashtra,Aurangabad,"Rachnakar Colony, Aurangabad - MPCB",16-04-2026 09:00:00,19.863756,75.321188,OZONE,11,90,20
India,Maharashtra,Badlapur,"Katrap, Badlapur - MPCB",16-04-2026 09:00:00,19.16485,73.23409,PM10,79,147,97
India,Maharashtra,Badlapur,"Katrap, Badlapur - MPCB",16-04-2026 09:00:00,19.16485,73.23409,SO2,5,20,11
India,Maharashtra,Beed,"Bir, Beed - MPCB",16-04-2026 09:00:00,18.988474,75.753873,OZONE,NA,NA,NA
India,Maharashtra,Belapur,"CBD Belapur, Belapur - MPCB",16-04-2026 09:00:00,19.0243902,73.0406721,NH3,2,6,4
India,Maharashtra,Belapur,"CBD Belapur, Belapur - MPCB",16-04-2026 09:00:00,19.0243902,73.0406721,CO,28,52,32
India,Maharashtra,Bhiwandi,"Gokul Nagar, Bhiwandi - MPCB",16-04-2026 09:00:00,19.309073,73.057223,PM10,44,105,69
India,Maharashtra,Bhiwandi,"Gokul Nagar, Bhiwandi - MPCB",16-04-2026 09:00:00,19.309073,73.057223,SO2,4,13,7
India,Maharashtra,Boisar,"Khaira, Boisar - MPCB",16-04-2026 09:00:00,19.786089,72.757971,PM2.5,78,79,79
India,Maharashtra,Boisar,"Khaira, Boisar - MPCB",16-04-2026 09:00:00,19.786089,72.757971,NH3,7,7,7
India,Karnataka,Yadgir,"Collector Office, Yadgir - KSPCB",16-04-2026 09:00:00,16.7602,77.1428,SO2,5,20,10
India,Karnataka,Yadgir,"Collector Office, Yadgir - KSPCB",16-04-2026 09:00:00,16.7602,77.1428,CO,20,101,30
India,Kerala,Kollam,"Polayathode, Kollam - Kerala PCB",16-04-2026 09:00:00,8.8787,76.6073,PM2.5,NA,NA,NA
India,Kerala,Kollam,"Polayathode, Kollam - Kerala PCB",16-04-2026 09:00:00,8.8787,76.6073,OZONE,NA,NA,NA
India,Kerala,Thiruvananthapuram,"Kariavattom, Thiruvananthapuram - Kerala PCB",16-04-2026 09:00:00,8.563700,76.886500,CO,29,69,37
India,Kerala,Thrissur,"Corporation Ground, Thrissur - Kerala PCB",16-04-2026 09:00:00,10.532400,76.215900,NO2,9,11,10
India,Madhya Pradesh,Bhopal,"Idgah Hills, Bhopal - MPPCB",16-04-2026 09:00:00,23.264759,77.381568,NH3,6,7,6
India,Madhya Pradesh,Bhopal,"Paryavaran Parisar, Bhopal - MPPCB",16-04-2026 09:00:00,23.210494,77.425409,PM10,59,139,107
India,Madhya Pradesh,Jabalpur,"Govindh Bhavan Colony, Jabalpur - JMC",16-04-2026 09:00:00,23.163174,79.973061,OZONE,6,101,7
India,Madhya Pradesh,Jabalpur,"Gupteshwar, Jabalpur - JMC",16-04-2026 09:00:00,23.142888,79.916147,NH3,2,2,2
India,Madhya Pradesh,Jabalpur,"Marhatal, Jabalpur - MPPCB",16-04-2026 09:00:00,23.168606,79.932247,CO,30,112,90
India,Madhya Pradesh,Jabalpur,"Suhagi, Jabalpur - JMC",16-04-2026 09:00:00,23.218135,79.957770,PM10,32,104,63
India,Madhya Pradesh,Katni,"Gole Bazar, Katni - MPPCB",16-04-2026 09:00:00,23.50016,80.23284,NO2,14,38,26
India,Madhya Pradesh,Mandideep,"Sector-D Industrial Area, Mandideep - MPPCB",16-04-2026 09:00:00,23.108440,77.511428,PM2.5,48,250,113
India,Madhya Pradesh,Indore,"Airport Area, Indore - IMC",16-04-2026 09:00:00,22.7289,75.8076,NO2,2,12,6
India,Madhya Pradesh,Indore,"Airport Area, Indore - IMC",16-04-2026 09:00:00,22.7289,75.8076,CO,46,54,53
India,Madhya Pradesh,Indore,"Airport Area, Indore - IMC",16-04-2026 09:00:00,22.7289,75.8076,OZONE,6,17,7
India,Madhya Pradesh,Indore,"Chhoti Gwaltoli, Indore - MPPCB",16-04-2026 09:00:00,22.4310,75.5213,NO2,38,162,72
India,Madhya Pradesh,Indore,"Regional Park, Indore - IMC",16-04-2026 09:00:00,22.6780,75.8559,PM2.5,14,93,55
India,Madhya Pradesh,Indore,"Regional Park, Indore - IMC",16-04-2026 09:00:00,22.6780,75.8559,SO2,29,39,36
India,Madhya Pradesh,Indore,"Regional Park, Indore - IMC",16-04-2026 09:00:00,22.6780,75.8559,CO,6,24,20
India,Madhya Pradesh,Indore,"Residency Area, Indore - IMC",16-04-2026 09:00:00,22.7084,75.8815,SO2,11,25,15
India,Maharashtra,Chandrapur,"Chauhan Colony, Chandrapur - MPCB",16-04-2026 09:00:00,19.962900,79.298714,NO2,32,37,34
India,Maharashtra,Chandrapur,"MIDC Khutala, Chandrapur - MPCB",16-04-2026 09:00:00,19.9775302,79.2337086,PM2.5,40,92,60
India,Maharashtra,Chandrapur,"MIDC Khutala, Chandrapur - MPCB",16-04-2026 09:00:00,19.9775302,79.2337086,NH3,NA,NA,NA
India,Maharashtra,Dhule,"Deopur, Dhule - MPCB",16-04-2026 09:00:00,20.918946,74.776388,PM10,79,130,102
India,Maharashtra,Dombivli,"Kalu Nagar, Dombivli - MPCB",16-04-2026 09:00:00,19.2268427 ,73.0788456 ,NH3,1,2,1
India,Maharashtra,Hingoli,"Ashta Vinayak Nagar, Hingoli - MPCB",16-04-2026 09:00:00,19.710842,77.151824,NH3,1,3,3
India,Madhya Pradesh,Pithampur,"Sector-2 Industrial Area, Pithampur - MPPCB",16-04-2026 09:00:00,22.624758,75.675238,NO2,12,51,27
India,Madhya Pradesh,Ratlam,"Shasthri Nagar, Ratlam - IPCA Lab",16-04-2026 09:00:00,23.331731,75.045981,PM10,65,133,103
India,Madhya Pradesh,Satna,"Bandhavgar Colony, Satna - Birla Cement",16-04-2026 09:00:00,24.58434363,80.8549414,PM10,70,71,70
India,Madhya Pradesh,Satna,"Bandhavgar Colony, Satna - Birla Cement",16-04-2026 09:00:00,24.58434363,80.8549414,NO2,12,13,12
India,Madhya Pradesh,Satna,"Bandhavgar Colony, Satna - Birla Cement",16-04-2026 09:00:00,24.58434363,80.8549414,SO2,20,25,22
India,Madhya Pradesh,Satna,"Bandhavgar Colony, Satna - Birla Cement",16-04-2026 09:00:00,24.58434363,80.8549414,CO,16,37,27
India,Madhya Pradesh,Bhopal,"Paryavaran Parisar, Bhopal - MPPCB",16-04-2026 09:00:00,23.210494,77.425409,CO,4,88,16
India,Madhya Pradesh,Bhopal,"T T Nagar, Bhopal - MPPCB",16-04-2026 09:00:00,23.233584,77.400574,PM10,89,165,126
India,Madhya Pradesh,Gwalior,"City Center, Gwalior - MPPCB",16-04-2026 09:00:00,26.203442,78.193251,NH3,NA,NA,NA
India,Madhya Pradesh,Gwalior,"Deen Dayal Nagar, Gwalior - MPPCB",16-04-2026 09:00:00,26.259242,78.216432,NO2,36,81,60
India,Madhya Pradesh,Gwalior,"Maharaj Bada, Gwalior - MPPCB",16-04-2026 09:00:00,26.200388,78.147714,NO2,16,50,33
India,Maharashtra,Amravati,"Shri Shivaji Science College, Amravati - MPCB",16-04-2026 09:00:00,20.939198,77.765701,NH3,2,7,3
India,Maharashtra,Amravati,"Shri Shivaji Science College, Amravati - MPCB",16-04-2026 09:00:00,20.939198,77.765701,CO,16,92,26
India,Maharashtra,Amravati,"Shri Shivaji Science College, Amravati - MPCB",16-04-2026 09:00:00,20.939198,77.765701,OZONE,5,66,27
India,Maharashtra,Aurangabad,"More Chowk Waluj, Aurangabad - MPCB",16-04-2026 09:00:00,19.8389439,75.244448,CO,NA,NA,NA
India,Maharashtra,Aurangabad,"More Chowk Waluj, Aurangabad - MPCB",16-04-2026 09:00:00,19.8389439,75.244448,OZONE,NA,NA,NA
India,Madhya Pradesh,Ujjain,"Mahashweta Nagar, Ujjain - MPPCB",16-04-2026 09:00:00,23.1633321,75.800225,CO,16,45,27
India,Maharashtra,Ahmednagar,"Tarakpur, Ahmednagar - MPCB",16-04-2026 09:00:00,19.10122,74.73339,PM10,39,129,63
India,Maharashtra,Akola,"Ramdaspeth, Akola - MPCB",16-04-2026 09:00:00,20.719516,77.000253,PM10,49,136,80
India,Maharashtra,Mumbai,"Bandra Kurla Complex, Mumbai - MPCB",16-04-2026 09:00:00,19.065931,72.862131,OZONE,7,28,14
India,Maharashtra,Mumbai,"Borivali East, Mumbai - IITM",16-04-2026 09:00:00,19.23241,72.86895,OZONE,8,80,12
India,Maharashtra,Mumbai,"Borivali East, Mumbai - MPCB",16-04-2026 09:00:00,19.2243333,72.8658113,PM10,34,84,54
India,Maharashtra,Mumbai,"Borivali East, Mumbai - MPCB",16-04-2026 09:00:00,19.2243333,72.8658113,NO2,NA,NA,NA
India,Maharashtra,Mumbai,"Borivali East, Mumbai - MPCB",16-04-2026 09:00:00,19.2243333,72.8658113,SO2,10,18,15
India,Maharashtra,Mumbai,"Byculla, Mumbai - BMC",16-04-2026 09:00:00,18.9767,72.8380,NH3,2,5,3
India,Maharashtra,Mumbai,"Byculla, Mumbai - BMC",16-04-2026 09:00:00,18.9767,72.8380,CO,40,52,42
India,Maharashtra,Mumbai,"Chakala-Andheri East, Mumbai - IITM",16-04-2026 09:00:00,19.11074,72.86084,SO2,1,15,6
India,Maharashtra,Mumbai,"Chembur, Mumbai - MPCB",16-04-2026 09:00:00,19.0364585,72.8954371,PM2.5,25,41,32
India,Maharashtra,Mumbai,"Chembur, Mumbai - MPCB",16-04-2026 09:00:00,19.0364585,72.8954371,NO2,11,30,19
India,Maharashtra,Mumbai,"Chembur, Mumbai - MPCB",16-04-2026 09:00:00,19.0364585,72.8954371,SO2,3,7,5
India,Maharashtra,Mumbai,"Chhatrapati Shivaji Intl. Airport (T2), Mumbai - MPCB",16-04-2026 09:00:00,19.10078,72.87462,PM2.5,36,92,55
India,Maharashtra,Jalgaon,"Prabhat Colony, Jalgaon - MPCB",16-04-2026 09:00:00,21.001264,75.565602,SO2,2,17,8
India,Maharashtra,Jalgaon,"Prabhat Colony, Jalgaon - MPCB",16-04-2026 09:00:00,21.001264,75.565602,OZONE,30,87,39
India,Maharashtra,Jalna,"Old MIDC, Jalna - MPCB",16-04-2026 09:00:00,19.854616,75.905894,PM2.5,32,86,53
India,Maharashtra,Jalna,"Old MIDC, Jalna - MPCB",16-04-2026 09:00:00,19.854616,75.905894,NH3,2,5,4
India,Maharashtra,Kolhapur,"Shivaji University, Kolhapur - MPCB",16-04-2026 09:00:00,16.6870449,74.2505872,PM10,42,96,66
India,Maharashtra,Kolhapur,"Shivaji University, Kolhapur - MPCB",16-04-2026 09:00:00,16.6870449,74.2505872,NO2,15,60,39
India,Maharashtra,Kolhapur,"Shivaji University, Kolhapur - MPCB",16-04-2026 09:00:00,16.6870449,74.2505872,SO2,NA,NA,NA
India,Maharashtra,Kolhapur,"Shivaji University, Kolhapur - MPCB",16-04-2026 09:00:00,16.6870449,74.2505872,CO,5,29,9
India,Maharashtra,Kolhapur,"Sinchan Bhavan, Kolhapur - MPCB",16-04-2026 09:00:00,16.7143745,74.2426398,NO2,2,12,4
India,Maharashtra,Latur,"Sawe Wadi, Latur - MPCB",16-04-2026 09:00:00,18.39963,76.57452,NH3,3,26,6
India,Maharashtra,Mumbai,"Kherwadi_Bandra East, Mumbai - MPCB",16-04-2026 09:00:00,19.0632143,72.8456324,PM10,57,92,72
India,Maharashtra,Mumbai,"Kherwadi_Bandra East, Mumbai - MPCB",16-04-2026 09:00:00,19.0632143,72.8456324,SO2,4,5,4
India,Maharashtra,Mumbai,"Kherwadi_Bandra East, Mumbai - MPCB",16-04-2026 09:00:00,19.0632143,72.8456324,OZONE,6,39,21
India,Maharashtra,Mumbai,"Khindipada-Bhandup West, Mumbai - IITM",16-04-2026 09:00:00,19.1653323,72.922099,CO,1,10,2
India,Maharashtra,Mumbai,"Malad West, Mumbai - IITM",16-04-2026 09:00:00,19.19709,72.82204,OZONE,4,34,8
India,Maharashtra,Mumbai,"Mazgaon, Mumbai - IITM",16-04-2026 09:00:00,18.96702,72.84214,PM10,55,121,85
India,Maharashtra,Mumbai,"Mazgaon, Mumbai - IITM",16-04-2026 09:00:00,18.96702,72.84214,NH3,5,8,6
India,Maharashtra,Mumbai,"Mazgaon, Mumbai - IITM",16-04-2026 09:00:00,18.96702,72.84214,CO,8,41,13
India,Maharashtra,Mumbai,"Mindspace-Malad West, Mumbai - MPCB",16-04-2026 09:00:00,19.1878657,72.8304069,NO2,7,26,13
India,Maharashtra,Mumbai,"Mindspace-Malad West, Mumbai - MPCB",16-04-2026 09:00:00,19.1878657,72.8304069,CO,8,20,11
India,Maharashtra,Mumbai,"Vile Parle West, Mumbai - MPCB",16-04-2026 09:00:00,19.10861,72.83622,SO2,47,52,49
India,Maharashtra,Mumbai,"Worli, Mumbai -MPCB",16-04-2026 09:00:00,18.9942180,72.8158167,PM10,NA,NA,NA
India,Maharashtra,Mumbai,"Worli, Mumbai -MPCB",16-04-2026 09:00:00,18.9942180,72.8158167,OZONE,23,34,25
India,Maharashtra,Nagpur,"Ambazari, Nagpur - MPCB",16-04-2026 09:00:00,21.121801,79.04952,PM2.5,37,79,57
India,Maharashtra,Nagpur,"Mahal, Nagpur - MPCB",16-04-2026 09:00:00,21.14472,79.107595,SO2,4,94,34
India,Maharashtra,Nagpur,"Opp GPO Civil Lines, Nagpur - MPCB",16-04-2026 09:00:00,21.152875,79.0517531,NH3,3,15,6
India,Maharashtra,Nagpur,"Opp GPO Civil Lines, Nagpur - MPCB",16-04-2026 09:00:00,21.152875,79.0517531,CO,9,105,33
India,Maharashtra,Latur,"Sawe Wadi, Latur - MPCB",16-04-2026 09:00:00,18.39963,76.57452,CO,6,58,14
India,Maharashtra,Malegaon,"Mahesh Nagar, Malegaon - MPCB",16-04-2026 09:00:00,20.555712,74.529236,CO,7,46,19
India,Maharashtra,Mira-Bhayandar,"Bhayandar West, Mira-Bhayandar - MPCB",16-04-2026 09:00:00,19.296481,72.840923,PM10,NA,NA,NA
India,Maharashtra,Mira-Bhayandar,"Bhayandar West, Mira-Bhayandar - MPCB",16-04-2026 09:00:00,19.296481,72.840923,OZONE,NA,NA,NA
India,Maharashtra,Mumbai,"Bandra Kurla Complex, Mumbai - IITM",16-04-2026 09:00:00,19.053536,72.84643,CO,10,64,13
India,Maharashtra,Mumbai,"Bandra Kurla Complex, Mumbai - MPCB",16-04-2026 09:00:00,19.065931,72.862131,PM2.5,33,88,53
India,Maharashtra,Navi Mumbai,"Mahape, Navi Mumbai - MPCB",16-04-2026 09:00:00,19.1135051,73.008978,PM2.5,36,105,59
India,Maharashtra,Navi Mumbai,"Mahape, Navi Mumbai - MPCB",16-04-2026 09:00:00,19.1135051,73.008978,SO2,17,20,19
India,Maharashtra,Navi Mumbai,"Sanpada, Navi Mumbai - MPCB",16-04-2026 09:00:00,19.0575752,73.0151367,NO2,5,24,12
India,Maharashtra,Navi Mumbai,"Sanpada, Navi Mumbai - MPCB",16-04-2026 09:00:00,19.0575752,73.0151367,OZONE,1,63,5
India,Maharashtra,Navi Mumbai,"Sector-2E Kalamboli, Navi Mumbai - MPCB",16-04-2026 09:00:00,19.02579,73.10297,PM2.5,26,150,69
India,Maharashtra,Navi Mumbai,"Sector-2E Kalamboli, Navi Mumbai - MPCB",16-04-2026 09:00:00,19.02579,73.10297,PM10,44,128,86
India,Maharashtra,Mumbai,"Navy Nagar-Colaba, Mumbai - IITM",16-04-2026 09:00:00,18.897756,72.813320,NO2,23,39,29
India,Maharashtra,Mumbai,"Navy Nagar-Colaba, Mumbai - IITM",16-04-2026 09:00:00,18.897756,72.813320,NH3,18,26,23
India,Maharashtra,Mumbai,"Powai, Mumbai - MPCB",16-04-2026 09:00:00,19.137500,72.915056,PM2.5,14,52,31
India,Maharashtra,Mumbai,"Sewri, Mumbai - BMC",16-04-2026 09:00:00,19.000084,72.856730,NH3,6,10,8
India,Maharashtra,Mumbai,"Sewri, Mumbai - BMC",16-04-2026 09:00:00,19.000084,72.856730,CO,5,27,11
India,Maharashtra,Mumbai,"Shivaji Nagar, Mumbai - BMC",16-04-2026 09:00:00,19.060498,72.923356,PM10,60,116,91
India,Maharashtra,Mumbai,"Colaba, Mumbai - MPCB",16-04-2026 09:00:00,18.910000,72.820000,PM2.5,3,30,13
India,Maharashtra,Mumbai,"Ghatkopar, Mumbai - BMC",16-04-2026 09:00:00,19.083694,72.920967,NH3,5,12,8
India,Maharashtra,Mumbai,"Kandivali East, Mumbai - MPCB",16-04-2026 09:00:00,19.205800,72.868200,NO2,36,36,36
India,Maharashtra,Mumbai,"Kandivali East, Mumbai - MPCB",16-04-2026 09:00:00,19.205800,72.868200,SO2,24,43,28
India,Maharashtra,Mumbai,"Kandivali West, Mumbai - BMC",16-04-2026 09:00:00,19.215859,72.831718,PM10,NA,NA,NA
India,Maharashtra,Nashik,"Hirawadi, Nashik - MPCB",16-04-2026 09:00:00,20.021503,73.813844,PM10,52,85,68
India,Maharashtra,Nashik,"Hirawadi, Nashik - MPCB",16-04-2026 09:00:00,20.021503,73.813844,NH3,2,4,2
India,Maharashtra,Nashik,"Hirawadi, Nashik - MPCB",16-04-2026 09:00:00,20.021503,73.813844,OZONE,21,67,33
India,Maharashtra,Nashik,"MIDC Ambad, Nashik - MPCB",16-04-2026 09:00:00,19.950220,73.731480,PM10,61,102,84
India,Maharashtra,Nashik,"MIDC Ambad, Nashik - MPCB",16-04-2026 09:00:00,19.950220,73.731480,NO2,4,24,10
India,Maharashtra,Parbhani,"Masoom Colony, Parbhani - MPCB",16-04-2026 09:00:00,19.265594,76.761463,CO,8,16,12
India,Maharashtra,Pimpri-Chinchwad,"Bhosari, Pune - IITM",16-04-2026 09:00:00,18.640051,73.848956,PM2.5,16,68,36
India,Maharashtra,Pimpri-Chinchwad,"Bhosari, Pune - IITM",16-04-2026 09:00:00,18.640051,73.848956,OZONE,2,49,6
India,Maharashtra,Pimpri-Chinchwad,"Bhumkar Nagar, Pune - IITM",16-04-2026 09:00:00,18.605770,73.749976,PM10,NA,NA,NA
India,Maharashtra,Pimpri-Chinchwad,"Bhumkar Nagar, Pune - IITM",16-04-2026 09:00:00,18.605770,73.749976,NO2,NA,NA,NA
India,Maharashtra,Pimpri-Chinchwad,"Bhumkar Nagar, Pune - IITM",16-04-2026 09:00:00,18.605770,73.749976,CO,NA,NA,NA
India,Maharashtra,Pimpri-Chinchwad,"Gavalinagar, Pimpri Chinchwad - MPCB",16-04-2026 09:00:00,18.63673,73.82487,PM2.5,49,73,61
India,Maharashtra,Thane,"Upvan Fort, Thane - MPCB",16-04-2026 09:00:00,19.222279,72.957979,SO2,5,19,9
India,Maharashtra,Ulhasnagar,"Sidhi Vinayak Nagar, Ulhasnagar - MPCB",16-04-2026 09:00:00,19.235581,73.159121,NO2,8,30,18
India,Maharashtra,Ulhasnagar,"Vithalwadi, Ulhasnagar - MPCB",16-04-2026 09:00:00,19.2307571 ,73.1551920,OZONE,10,44,10
India,Maharashtra,Virar,"Bolinj, Virar - MPCB",16-04-2026 09:00:00,19.4458210,72.7988231,PM10,23,91,44
India,Maharashtra,Pune,"Katraj Dairy, Pune - MPCB",16-04-2026 09:00:00,18.454450,73.854155,NH3,2,5,3
India,Maharashtra,Pune,"Katraj Dairy, Pune - MPCB",16-04-2026 09:00:00,18.454450,73.854155,OZONE,14,79,26
India,Maharashtra,Pune,"Mhada Colony, Pune - IITM",16-04-2026 09:00:00,18.573040,73.927715,OZONE,NA,NA,NA
India,Maharashtra,Pune,"Revenue Colony-Shivajinagar, Pune - IITM",16-04-2026 09:00:00,18.530085,73.849598,NO2,28,78,44
India,Maharashtra,Pimpri-Chinchwad,"Park Street Wakad, Pimpri Chinchwad - MPCB",16-04-2026 09:00:00,18.59051,73.77946,PM10,79,102,92
India,Maharashtra,Pimpri-Chinchwad,"Park Street Wakad, Pimpri Chinchwad - MPCB",16-04-2026 09:00:00,18.59051,73.77946,NO2,NA,NA,NA
India,Maharashtra,Pimpri-Chinchwad,"Park Street Wakad, Pimpri Chinchwad - MPCB",16-04-2026 09:00:00,18.59051,73.77946,NH3,2,4,3
India,Maharashtra,Pimpri-Chinchwad,"Park Street Wakad, Pimpri Chinchwad - MPCB",16-04-2026 09:00:00,18.59051,73.77946,SO2,2,9,5
India,Maharashtra,Pimpri-Chinchwad,"Park Street Wakad, Pimpri Chinchwad - MPCB",16-04-2026 09:00:00,18.59051,73.77946,OZONE,3,65,7
India,Maharashtra,Sangli,"Vijay Nagar, Sangli - MPCB",16-04-2026 09:00:00, 16.5038,74.3623,PM2.5,26,79,44
India,Maharashtra,Solapur,"Dnyaneshwar Nagar, Solapur - MPCB",16-04-2026 09:00:00,17.6336264,75.9132495,PM10,NA,NA,NA
India,Maharashtra,Solapur,"Dnyaneshwar Nagar, Solapur - MPCB",16-04-2026 09:00:00,17.6336264,75.9132495,NH3,NA,NA,NA
India,Maharashtra,Solapur,"Dnyaneshwar Nagar, Solapur - MPCB",16-04-2026 09:00:00,17.6336264,75.9132495,OZONE,29,89,52
India,Maharashtra,Pimpri-Chinchwad,"Thergaon, Pimpri Chinchwad - MPCB",16-04-2026 09:00:00,18.616318,73.765797,NO2,25,64,46
India,Maharashtra,Pimpri-Chinchwad,"Thergaon, Pimpri Chinchwad - MPCB",16-04-2026 09:00:00,18.616318,73.765797,NH3,10,13,12
India,Maharashtra,Pune,"Dhankawadi, Pune - IITM",16-04-2026 09:00:00,18.459883,73.852193,PM2.5,22,140,46
India,Maharashtra,Pune,"Dhankawadi, Pune - IITM",16-04-2026 09:00:00,18.459883,73.852193,PM10,28,143,76
India,Maharashtra,Navi Mumbai,"Tondare-Taloja, Navi Mumbai - MPCB",16-04-2026 09:00:00,19.0630,73.1209,NH3,2,4,3
India,Maharashtra,Pune,"Dhankawadi, Pune - IITM",16-04-2026 09:00:00,18.459883,73.852193,OZONE,1,49,2
India,Rajasthan,Bikaner,"MM Ground, Bikaner - RSPCB",16-04-2026 09:00:00,28.018792,73.292658,OZONE,10,155,45
India,Rajasthan,Bundi,"New Colony, Bundi - RSPCB",16-04-2026 09:00:00,25.435774,75.644272,PM10,NA,NA,NA
India,Rajasthan,Bundi,"New Colony, Bundi - RSPCB",16-04-2026 09:00:00,25.435774,75.644272,NO2,17,48,29
India,Rajasthan,Chittorgarh,"Shastri Nagar, Chittorgarh - RSPCB",16-04-2026 09:00:00,24.892047,74.623527,PM10,52,370,131
India,Rajasthan,Chittorgarh,"Shastri Nagar, Chittorgarh - RSPCB",16-04-2026 09:00:00,24.892047,74.623527,CO,4,62,21
India,Rajasthan,Churu,"Subash Chowk, Churu - RSPCB",16-04-2026 09:00:00,28.296139,74.961696,PM2.5,25,249,87
India,Rajasthan,Churu,"Subash Chowk, Churu - RSPCB",16-04-2026 09:00:00,28.296139,74.961696,SO2,3,10,5
India,Odisha,Bhubaneswar,"Patia, Bhubaneswar - OSPCB",16-04-2026 09:00:00,20.34652,85.81630,PM2.5,17,55,33
India,Odisha,Bhubaneswar,"Patia, Bhubaneswar - OSPCB",16-04-2026 09:00:00,20.34652,85.81630,NH3,4,6,5
India,Odisha,Bileipada,"Tata Township, Bileipada - OSPCB",16-04-2026 09:00:00,22.06156703,85.47409613,PM2.5,32,309,221
India,Odisha,Brajrajnagar,"GM Office, Brajrajnagar - OSPCB",16-04-2026 09:00:00,21.8004996,83.8396977,NH3,6,6,6
India,Odisha,Byasanagar,"Ferro Chrome Colony, Byasanagar - OSPCB",16-04-2026 09:00:00,20.94185,86.11510,NO2,3,392,29
India,Odisha,Byasanagar,"Ferro Chrome Colony, Byasanagar - OSPCB",16-04-2026 09:00:00,20.94185,86.11510,SO2,NA,NA,NA
India,Punjab,Amritsar,"Golden Temple, Amritsar - PPCB",16-04-2026 09:00:00,31.620000,74.876512,OZONE,35,55,47
India,Punjab,Khanna,"Kalal Majra, Khanna - PPCB",16-04-2026 09:00:00,30.736056 ,76.209694,SO2,NA,NA,NA
India,Punjab,Khanna,"Kalal Majra, Khanna - PPCB",16-04-2026 09:00:00,30.736056 ,76.209694,OZONE,18,40,20
India,Punjab,Ludhiana,"Punjab Agricultural University, Ludhiana - PPCB",16-04-2026 09:00:00,30.9028,75.8086,OZONE,23,53,26
India,Punjab,Mandi Gobindgarh,"RIMT University, Mandi Gobindgarh - PPCB",16-04-2026 09:00:00,30.649961,76.331442,PM2.5,NA,NA,NA
India,Punjab,Mandi Gobindgarh,"RIMT University, Mandi Gobindgarh - PPCB",16-04-2026 09:00:00,30.649961,76.331442,NO2,NA,NA,NA
India,Odisha,Suakati,"OMC Colony, Suakati - OSPCB",16-04-2026 09:00:00,21.606865,85.510538,NO2,10,10,10
India,Odisha,Suakati,"OMC Colony, Suakati - OSPCB",16-04-2026 09:00:00,21.606865,85.510538,NH3,4,4,4
India,Odisha,Tensa,"Barsua Iron Ore Mines, Tensa - OSPCB",16-04-2026 09:00:00,21.869985,85.167016,PM2.5,35,351,73
India,Odisha,Tensa,"Barsua Iron Ore Mines, Tensa - OSPCB",16-04-2026 09:00:00,21.869985,85.167016,PM10,NA,NA,NA
India,Puducherry,Puducherry,"Jawahar Nagar, Puducherry - PPCC",16-04-2026 09:00:00,11.9309,79.8027,SO2,3,10,7
India,Puducherry,Puducherry,"Jawahar Nagar, Puducherry - PPCC",16-04-2026 09:00:00,11.9309,79.8027,CO,2,22,8
India,Odisha,Cuttack,"CDA Area, Cuttack - OSPCB",16-04-2026 09:00:00,20.48891     ,85.84768     ,CO,49,100,52
India,Odisha,Nayagarh,"Dabuna, Nayagarh - OSPCB",16-04-2026 09:00:00,21.847279,85.416905,NH3,NA,NA,NA
India,Odisha,Nayagarh,"Dabuna, Nayagarh - OSPCB",16-04-2026 09:00:00,21.847279,85.416905,CO,20,28,28
India,Odisha,Rourkela,"Fertilizer Township, Rourkela - OSPCB",16-04-2026 09:00:00,22.18972222,84.86277778,PM10,68,81,72
India,Odisha,Rourkela,"Raghunathpali, Rourkela - OSPCB",16-04-2026 09:00:00,22.220833,84.809444,PM2.5,55,231,109
India,Rajasthan,Bhilwara,"Pratap Nagar, Bhilwara - RSPCB",16-04-2026 09:00:00,25.339605,74.618883,CO,28,86,53
India,Rajasthan,Bhiwadi,"RIICO Ind. Area III, Bhiwadi - RSPCB",16-04-2026 09:00:00,28.194909,76.862296,NH3,5,23,14
India,Rajasthan,Bhiwadi,"RIICO Ind. Area III, Bhiwadi - RSPCB",16-04-2026 09:00:00,28.194909,76.862296,OZONE,6,49,9
India,Rajasthan,Bhiwadi,"Vasundhara Nagar_UIT, Bhiwadi - RSPCB",16-04-2026 09:00:00,28.207266,76.829265,PM2.5,22,211,73
India,Rajasthan,Bhiwadi,"Vasundhara Nagar_UIT, Bhiwadi - RSPCB",16-04-2026 09:00:00,28.207266,76.829265,OZONE,3,152,5
India,Nagaland,Kohima,"PWD Junction, Kohima - NPCB",16-04-2026 09:00:00,25.6635413,94.0989878,OZONE,1,17,7
India,Odisha,Balasore,"Kalidaspur, Balasore - OSPCB",16-04-2026 09:00:00,21.51161,86.89088,NO2,1,13,6
India,Odisha,Barbil,"Forest Office, Barbil - OSPCB",16-04-2026 09:00:00,22.1166054,85.3945546,PM2.5,53,301,147
India,Odisha,Barbil,"Forest Office, Barbil - OSPCB",16-04-2026 09:00:00,22.1166054,85.3945546,NH3,1,8,4
India,Rajasthan,Alwar,"Moti Doongri, Alwar - RSPCB",16-04-2026 09:00:00,27.554793,76.611536,CO,10,76,20
India,Rajasthan,Banswara,"Rati Talai, Banswara - RSPCB",16-04-2026 09:00:00,23.555190,74.440010,PM10,62,230,127
India,Rajasthan,Banswara,"Rati Talai, Banswara - RSPCB",16-04-2026 09:00:00,23.555190,74.440010,NO2,8,70,22
India,Rajasthan,Baran,"Bamboliya, Baran - RSPCB",16-04-2026 09:00:00,25.106006,76.469948,NO2,13,58,27
India,Meghalaya,Shillong,"Lumpyngngad, Shillong - Meghalaya PCB",16-04-2026 09:00:00,25.5586,91.8985,NO2,NA,NA,NA
India,Rajasthan,Dholpur,"Raja Ganj, Dholpur - RSPCB",16-04-2026 09:00:00,26.699557,77.898881,CO,28,48,39
India,Rajasthan,Dungarpur,"Bhoiwada, Dungarpur - RSPCB",16-04-2026 09:00:00,23.837789,73.714926,NO2,9,22,15
India,Rajasthan,Dungarpur,"Bhoiwada, Dungarpur - RSPCB",16-04-2026 09:00:00,23.837789,73.714926,NH3,16,20,18
India,Rajasthan,Dungarpur,"Bhoiwada, Dungarpur - RSPCB",16-04-2026 09:00:00,23.837789,73.714926,SO2,6,19,10
India,Rajasthan,Hanumangarh,"Housing Board, Hanumangarh - RSPCB",16-04-2026 09:00:00,29.610750,74.283608,PM10,92,215,135
India,Rajasthan,Jaipur,"Adarsh Nagar, Jaipur - RSPCB",16-04-2026 09:00:00,26.902909,75.836858,PM10,42,98,67
India,Rajasthan,Jaipur,"Mansarovar Sector-12, Jaipur - RSPCB",16-04-2026 09:00:00,26.843698,75.766894,SO2,1,13,5
India,Rajasthan,Jaipur,"Mansarovar Sector-12, Jaipur - RSPCB",16-04-2026 09:00:00,26.843698,75.766894,OZONE,1,170,18
India,Rajasthan,Jaipur,"Shastri Nagar, Jaipur - RSPCB",16-04-2026 09:00:00,26.9502929,75.730943,PM10,70,122,100
India,Rajasthan,Jaisalmer,"Sadar Bazar, Jaisalmer - RSPCB",16-04-2026 09:00:00,26.912329,70.909168,SO2,4,7,5
India,Rajasthan,Jhalawar,"Rajlaxmi Nagar, Jhalawar - RSPCB",16-04-2026 09:00:00,24.588397,76.172782,PM2.5,5,78,43
India,Rajasthan,Jhalawar,"Rajlaxmi Nagar, Jhalawar - RSPCB",16-04-2026 09:00:00,24.588397,76.172782,PM10,67,166,111
India,Rajasthan,Jhalawar,"Rajlaxmi Nagar, Jhalawar - RSPCB",16-04-2026 09:00:00,24.588397,76.172782,NO2,20,47,33
India,Rajasthan,Jhalawar,"Rajlaxmi Nagar, Jhalawar - RSPCB",16-04-2026 09:00:00,24.588397,76.172782,NH3,5,11,8
India,Rajasthan,Jhalawar,"Rajlaxmi Nagar, Jhalawar - RSPCB",16-04-2026 09:00:00,24.588397,76.172782,SO2,5,28,16
India,Rajasthan,Jhunjhunu,"Indra Nagar, Jhunjhunu - RSPCB",16-04-2026 09:00:00,28.108988,75.386577,PM10,58,358,131
India,Rajasthan,Pali,"Indira Colony Vistar, Pali - RSPCB",16-04-2026 09:00:00,25.771061, 73.340227,NH3,1,9,4
India,Rajasthan,Pratapgarh,"Pragati Nagar, Pratapgarh - RSPCB",16-04-2026 09:00:00,24.041198,74.780702,NO2,11,29,17
India,Rajasthan,Pratapgarh,"Pragati Nagar, Pratapgarh - RSPCB",16-04-2026 09:00:00,24.041198,74.780702,NH3,3,6,5
India,Rajasthan,Pratapgarh,"Pragati Nagar, Pratapgarh - RSPCB",16-04-2026 09:00:00,24.041198,74.780702,SO2,5,23,10
India,Rajasthan,Rajsamand,"Dhoinda, Rajsamand - RSPCB",16-04-2026 09:00:00,25.036360,73.883502,OZONE,3,92,35
India,Rajasthan,Sawai Madhopur,"Sahu Nagar, Sawai Madhopur - RSPCB",16-04-2026 09:00:00,26.031443,76.359327,PM2.5,23,159,51
India,Rajasthan,Sawai Madhopur,"Sahu Nagar, Sawai Madhopur - RSPCB",16-04-2026 09:00:00,26.031443,76.359327,NH3,3,8,6
India,Rajasthan,Sawai Madhopur,"Sahu Nagar, Sawai Madhopur - RSPCB",16-04-2026 09:00:00,26.031443,76.359327,OZONE,11,215,30
India,Rajasthan,Tonk,"Shastri Nagar, Tonk - RSPCB",16-04-2026 09:00:00,26.159933,75.780517,PM2.5,27,234,90
India,Rajasthan,Tonk,"Shastri Nagar, Tonk - RSPCB",16-04-2026 09:00:00,26.159933,75.780517,CO,23,60,31
India,Rajasthan,Karauli,"Satyawati Vihar, Karauli - RSPCB",16-04-2026 09:00:00,26.506177,77.025989,PM2.5,33,307,91
India,Rajasthan,Karauli,"Satyawati Vihar, Karauli - RSPCB",16-04-2026 09:00:00,26.506177,77.025989,OZONE,12,150,19
India,Rajasthan,Kota,"Nayapura, Kota - RSPCB",16-04-2026 09:00:00,25.196024,75.855668,NH3,4,9,6
India,Rajasthan,Kota,"Nayapura, Kota - RSPCB",16-04-2026 09:00:00,25.196024,75.855668,OZONE,6,122,13
India,Rajasthan,Jodhpur,"Jhalamand, Jodhpur - RSPCB",16-04-2026 09:00:00,26.215415,73.070156,PM10,42,359,126
India,Rajasthan,Jodhpur,"Jhalamand, Jodhpur - RSPCB",16-04-2026 09:00:00,26.215415,73.070156,NH3,NA,NA,NA
India,Rajasthan,Jaipur,"RIICO Sitapura, Jaipur - RSPCB",16-04-2026 09:00:00,26.786682,75.827928,PM10,56,212,125
India,Rajasthan,Jaipur,"Shastri Nagar, Jaipur - RSPCB",16-04-2026 09:00:00,26.9502929,75.730943,PM2.5,62,134,90
India,Rajasthan,Jodhpur,"Collectorate, Jodhpur - RSPCB",16-04-2026 09:00:00,26.268249,73.0193853,PM10,68,459,173
India,Uttar_Pradesh,Bareilly,"Rajendra Nagar, Bareilly - UPPCB",16-04-2026 09:00:00,28.38910936,79.42963708,OZONE,1,16,4
India,Uttar_Pradesh,Bulandshahr,"Yamunapuram, Bulandshahr - UPPCB",16-04-2026 09:00:00,28.406963,77.849831,SO2,11,115,41
India,Uttar_Pradesh,Bulandshahr,"Yamunapuram, Bulandshahr - UPPCB",16-04-2026 09:00:00,28.406963,77.849831,CO,64,112,94
India,Uttar_Pradesh,Firozabad,"Nagla Bhau, Firozabad - UPPCB",16-04-2026 09:00:00,27.168897,78.376960,PM10,31,236,91
India,Uttar_Pradesh,Firozabad,"Nagla Bhau, Firozabad - UPPCB",16-04-2026 09:00:00,27.168897,78.376960,NH3,2,2,2
India,Uttar_Pradesh,Firozabad,"Vibhab Nagar, Firozabad - UPPCB",16-04-2026 09:00:00,27.1594,78.3953,NH3,2,2,2
India,Uttar_Pradesh,Firozabad,"Vibhab Nagar, Firozabad - UPPCB",16-04-2026 09:00:00,27.1594,78.3953,CO,13,19,18
India,Uttar_Pradesh,Ghaziabad,"Indirapuram, Ghaziabad - UPPCB",16-04-2026 09:00:00,28.646233,77.358075,PM2.5,28,429,225
India,Uttar_Pradesh,Ghaziabad,"Loni, Ghaziabad - UPPCB",16-04-2026 09:00:00,28.757294,77.278792,PM10,139,500,344
India,Uttar_Pradesh,Ghaziabad,"Sanjay Nagar, Ghaziabad - UPPCB",16-04-2026 09:00:00,28.685382,77.453839,PM10,89,438,249
India,Uttar_Pradesh,Ghaziabad,"Sanjay Nagar, Ghaziabad - UPPCB",16-04-2026 09:00:00,28.685382,77.453839,OZONE,4,193,7
India,Uttar_Pradesh,Ghaziabad,"Vasundhara, Ghaziabad - UPPCB",16-04-2026 09:00:00,28.6603346,77.3572563,SO2,9,104,46
India,Uttar_Pradesh,Gorakhpur,"Madan Mohan Malaviya University of Technology, Gorakhpur - UPPCB",16-04-2026 09:00:00,26.730136,83.433859,PM2.5,52,398,93
India,Uttar_Pradesh,Greater Noida,"Knowledge Park - III, Greater Noida - UPPCB",16-04-2026 09:00:00,28.47272,77.482000,NH3,6,17,10
India,Uttar_Pradesh,Greater Noida,"Knowledge Park - III, Greater Noida - UPPCB",16-04-2026 09:00:00,28.47272,77.482000,SO2,4,35,12
India,Uttar_Pradesh,Greater Noida,"Knowledge Park - V, Greater Noida - UPPCB",16-04-2026 09:00:00,28.557054,77.453663,PM10,126,500,358
India,Uttar_Pradesh,Greater Noida,"Knowledge Park - V, Greater Noida - UPPCB",16-04-2026 09:00:00,28.557054,77.453663,OZONE,3,150,4
India,Uttar_Pradesh,Hapur,"Anand Vihar, Hapur - UPPCB",16-04-2026 09:00:00,28.725645,77.749675,PM2.5,30,387,202
India,Telangana,Hyderabad,"Somajiguda, Hyderabad - TSPCB",16-04-2026 09:00:00,17.417094,78.457437,OZONE,11,41,15
India,Tripura,Agartala,"Bardowali, Agartala - Tripura SPCB",16-04-2026 09:00:00,23.8175497,91.2726974,CO,11,28,13
India,Tripura,Agartala,"Bardowali, Agartala - Tripura SPCB",16-04-2026 09:00:00,23.8175497,91.2726974,OZONE,4,18,6
India,Uttar_Pradesh,Agra,"Manoharpur, Agra - UPPCB",16-04-2026 09:00:00,27.23711,78.01936,NO2,19,27,20
India,Uttar_Pradesh,Agra,"Rohta, Agra - UPPCB",16-04-2026 09:00:00,27.106972,78.000111,PM2.5,27,212,85
India,Uttar_Pradesh,Agra,"Rohta, Agra - UPPCB",16-04-2026 09:00:00,27.106972,78.000111,CO,9,42,28
India,Uttar_Pradesh,Agra,"Sanjay Palace, Agra - UPPCB",16-04-2026 09:00:00,27.19865833,78.00598056,SO2,17,18,18
India,Uttar_Pradesh,Agra,"Sector-3B Avas Vikas Colony, Agra - UPPCB",16-04-2026 09:00:00,27.19412,77.96237,NO2,36,36,36
India,Rajasthan,Udaipur,"Ashok Nagar, Udaipur - RSPCB",16-04-2026 09:00:00,24.5886166,73.6321397,NO2,2,76,38
India,Sikkim,Gangtok,"Zero Point GICI, Gangtok - SSPCB",16-04-2026 09:00:00,27.338530,88.614099,PM2.5,34,72,54
India,TamilNadu,Chennai,"Arumbakkam, Chennai - TNPCB",16-04-2026 09:00:00,13.0664,80.2112 ,PM10,23,68,42
India,TamilNadu,Chennai,"Arumbakkam, Chennai - TNPCB",16-04-2026 09:00:00,13.0664,80.2112 ,NO2,7,18,12
India,TamilNadu,Chennai,"Manali Village, Chennai - TNPCB",16-04-2026 09:00:00,13.1662,80.2584,SO2,12,20,16
India,TamilNadu,Chennai,"Manali Village, Chennai - TNPCB",16-04-2026 09:00:00,13.1662,80.2584,CO,38,44,42
India,TamilNadu,Chennai,"Manali, Chennai - CPCB",16-04-2026 09:00:00,13.164544,80.26285,PM2.5,NA,NA,NA
India,TamilNadu,Chennai,"Manali, Chennai - CPCB",16-04-2026 09:00:00,13.164544,80.26285,NH3,NA,NA,NA
India,TamilNadu,Chennai,"Manali, Chennai - CPCB",16-04-2026 09:00:00,13.164544,80.26285,CO,11,41,25
India,TamilNadu,Chennai,"Perungudi, Chennai - TNPCB",16-04-2026 09:00:00,12.9533,80.2357,PM10,10,93,38
India,TamilNadu,Chennai,"Perungudi, Chennai - TNPCB",16-04-2026 09:00:00,12.9533,80.2357,NO2,2,6,4
India,TamilNadu,Chennai,"Perungudi, Chennai - TNPCB",16-04-2026 09:00:00,12.9533,80.2357,CO,14,46,27
India,TamilNadu,Chennai,"Royapuram, Chennai - TNPCB",16-04-2026 09:00:00,13.1036,80.2909,SO2,4,7,6
India,TamilNadu,Chennai,"Velachery Res. Area, Chennai - CPCB",16-04-2026 09:00:00,13.0052189,80.2398125,NH3,NA,NA,NA
India,TamilNadu,Coimbatore,"SIDCO Kurichi, Coimbatore - TNPCB",16-04-2026 09:00:00,10.942451,76.978996,PM10,47,81,68
India,TamilNadu,Gummidipoondi,"Anthoni Pillai Nagar, Gummidipoondi - TNPCB",16-04-2026 09:00:00,13.4127,80.1081,NO2,13,22,17
India,Telangana,Hyderabad,"New Malakpet, Hyderabad - TSPCB",16-04-2026 09:00:00,17.37206,78.50864,NH3,2,3,2
India,Telangana,Hyderabad,"New Malakpet, Hyderabad - TSPCB",16-04-2026 09:00:00,17.37206,78.50864,SO2,14,18,16
India,Telangana,Hyderabad,"Ramachandrapuram, Hyderabad - TSPCB",16-04-2026 09:00:00,17.528544,78.286195,PM2.5,40,56,45
India,Telangana,Hyderabad,"Ramachandrapuram, Hyderabad - TSPCB",16-04-2026 09:00:00,17.528544,78.286195,PM10,68,87,74
India,Telangana,Hyderabad,"Sanathnagar, Hyderabad - TSPCB",16-04-2026 09:00:00,17.4559458,78.4332152,NO2,34,58,51
India,Telangana,Hyderabad,"Sanathnagar, Hyderabad - TSPCB",16-04-2026 09:00:00,17.4559458,78.4332152,CO,36,60,48
India,Telangana,Hyderabad,"Somajiguda, Hyderabad - TSPCB",16-04-2026 09:00:00,17.417094,78.457437,PM10,79,97,86
India,TamilNadu,Madurai,"Uchapatti, Madurai - TNPCB",16-04-2026 09:00:00,9.865935,78.022669,SO2,NA,NA,NA
India,TamilNadu,Madurai,"Uchapatti, Madurai - TNPCB",16-04-2026 09:00:00,9.865935,78.022669,CO,NA,NA,NA
India,TamilNadu,Madurai,"Uchapatti, Madurai - TNPCB",16-04-2026 09:00:00,9.865935,78.022669,OZONE,NA,NA,NA
India,Telangana,Hyderabad,"Central University, Hyderabad - TSPCB",16-04-2026 09:00:00,17.460103,78.334361,PM10,23,44,33
India,Telangana,Hyderabad,"Central University, Hyderabad - TSPCB",16-04-2026 09:00:00,17.460103,78.334361,CO,24,91,42
India,Telangana,Hyderabad,"ECIL Kapra, Hyderabad - TSPCB",16-04-2026 09:00:00,17.470431,78.566959,PM10,64,84,72
India,Telangana,Hyderabad,"IITH Kandi, Hyderabad - TSPCB",16-04-2026 09:00:00,17.585705,78.126199,NO2,13,19,17
India,Uttar_Pradesh,Agra,"Shahjahan Garden, Agra - UPPCB",16-04-2026 09:00:00,27.169338,78.03582,PM2.5,1,88,37
India,Uttar_Pradesh,Agra,"Shahjahan Garden, Agra - UPPCB",16-04-2026 09:00:00,27.169338,78.03582,PM10,80,272,146
India,Uttar_Pradesh,Bareilly,"Civil Lines, Bareilly - UPPCB",16-04-2026 09:00:00,28.359581,79.414455,PM10,32,72,48
India,Uttar_Pradesh,Bareilly,"Civil Lines, Bareilly - UPPCB",16-04-2026 09:00:00,28.359581,79.414455,NO2,2,3,2
India,Uttar_Pradesh,Bareilly,"Rajendra Nagar, Bareilly - UPPCB",16-04-2026 09:00:00,28.38910936,79.42963708,PM2.5,12,53,33
India,Telangana,Hyderabad,"Kompally Municipal Office, Hyderabad - TSPCB",16-04-2026 09:00:00,17.544899,78.486949,PM2.5,NA,NA,NA
India,Telangana,Hyderabad,"Kompally Municipal Office, Hyderabad - TSPCB",16-04-2026 09:00:00,17.544899,78.486949,NH3,NA,NA,NA
India,Uttar_Pradesh,Varanasi,"IESD Banaras Hindu University, Varanasi - UPPCB",16-04-2026 09:00:00,25.262326,82.995408,SO2,23,35,26
India,Uttar_Pradesh,Varanasi,"Maldahiya, Varanasi - UPPCB",16-04-2026 09:00:00,25.32393,82.99687,CO,16,46,30
India,Uttar_Pradesh,Vrindavan,"Omex Eternity, Vrindavan - UPPCB",16-04-2026 09:00:00,27.5714090,77.6557570,PM2.5,10,151,56
India,Uttar_Pradesh,Vrindavan,"Omex Eternity, Vrindavan - UPPCB",16-04-2026 09:00:00,27.5714090,77.6557570,SO2,19,61,35
India,Uttar_Pradesh,Vrindavan,"Omex Eternity, Vrindavan - UPPCB",16-04-2026 09:00:00,27.5714090,77.6557570,OZONE,15,16,16
India,Uttarakhand,Dehradun,"Doon University, Dehradun - UKPCB",16-04-2026 09:00:00,30.269444,78.044167,CO,6,7,6
India,Uttarakhand,Kashipur,"Govt. Girls Inter College, Kashipur - UKPCB",16-04-2026 09:00:00,29.2124114,78.9611753,SO2,NA,NA,NA
India,Uttarakhand,Kashipur,"Govt. Girls Inter College, Kashipur - UKPCB",16-04-2026 09:00:00,29.2124114,78.9611753,CO,NA,NA,NA
India,Uttarakhand,Rishikesh,"Shivaji Nagar, Rishikesh - UKPCB",16-04-2026 09:00:00,30.075911,78.2859547,SO2,1,1,1
India,West_Bengal,Asansol,"Asansol Court Area, Asansol - WBPCB",16-04-2026 09:00:00,23.685297,86.945968,PM10,51,132,78
India,Uttar_Pradesh,Prayagraj,"Jhunsi, Prayagraj - UPPCB",16-04-2026 09:00:00,25.425602,81.917152,OZONE,18,82,22
India,Uttar_Pradesh,Prayagraj,"Nagar Nigam, Prayagraj - UPPCB",16-04-2026 09:00:00,25.44919916 ,81.82735986 ,NO2,5,5,5
India,Uttar_Pradesh,Prayagraj,"Nagar Nigam, Prayagraj - UPPCB",16-04-2026 09:00:00,25.44919916 ,81.82735986 ,NH3,5,11,8
India,Uttar_Pradesh,Prayagraj,"Nagar Nigam, Prayagraj - UPPCB",16-04-2026 09:00:00,25.44919916 ,81.82735986 ,SO2,15,96,42
India,Uttar_Pradesh,Prayagraj,"Nagar Nigam, Prayagraj - UPPCB",16-04-2026 09:00:00,25.44919916 ,81.82735986 ,CO,20,48,37
India,Uttar_Pradesh,Prayagraj,"Nagar Nigam, Prayagraj - UPPCB",16-04-2026 09:00:00,25.44919916 ,81.82735986 ,OZONE,11,13,12
India,Uttar_Pradesh,Raebareli," Indira Nagar, Raebareli - NTPC Unchahar",16-04-2026 09:00:00,26.207781,81.245571,CO,NA,NA,NA
India,Uttar_Pradesh,Varanasi,"Ardhali Bazar, Varanasi - UPPCB",16-04-2026 09:00:00,25.3505986,82.9083074,PM10,63,208,117
India,Uttar_Pradesh,Varanasi,"Ardhali Bazar, Varanasi - UPPCB",16-04-2026 09:00:00,25.3505986,82.9083074,OZONE,9,316,23
India,Uttar_Pradesh,Varanasi,"Bhelupur, Varanasi - UPPCB",16-04-2026 09:00:00,25.301778,82.996789,PM2.5,20,205,69
India,Uttar_Pradesh,Varanasi,"IESD Banaras Hindu University, Varanasi - UPPCB",16-04-2026 09:00:00,25.262326,82.995408,PM10,46,173,108
India,West_Bengal,Asansol,"Asansol Court Area, Asansol - WBPCB",16-04-2026 09:00:00,23.685297,86.945968,OZONE,14,47,16
India,West_Bengal,Asansol,"Evelyn Lodge, Asansol - WBPCB",16-04-2026 09:00:00,23.6979360,86.9443950,PM10,48,112,67
India,West_Bengal,Asansol,"Evelyn Lodge, Asansol - WBPCB",16-04-2026 09:00:00,23.6979360,86.9443950,NO2,7,24,14
India,West_Bengal,Asansol,"Evelyn Lodge, Asansol - WBPCB",16-04-2026 09:00:00,23.6979360,86.9443950,CO,15,40,23
India,West_Bengal,Barrackpore,"SVSPA Campus, Barrackpore - WBPCB",16-04-2026 09:00:00,22.7605581,88.3617589,NO2,16,39,27
India,West_Bengal,Barrackpore,"SVSPA Campus, Barrackpore - WBPCB",16-04-2026 09:00:00,22.7605581,88.3617589,SO2,13,16,14
India,West_Bengal,Barrackpore,"SVSPA Campus, Barrackpore - WBPCB",16-04-2026 09:00:00,22.7605581,88.3617589,CO,18,36,19
India,West_Bengal,Durgapur,"Mahishkapur Road_B-Zone, Durgapur - WBPCB",16-04-2026 09:00:00,23.567923,87.306843,NH3,1,2,1
India,West_Bengal,Durgapur,"Mahishkapur Road_B-Zone, Durgapur - WBPCB",16-04-2026 09:00:00,23.567923,87.306843,CO,36,52,45
India,West_Bengal,Durgapur,"PCBL Residential Complex, Durgapur - WBPCB",16-04-2026 09:00:00,23.5087640,87.3544400,SO2,5,6,6
India,Uttar_Pradesh,Lucknow,"B R Ambedkar University, Lucknow - UPPCB",16-04-2026 09:00:00,26.766433,80.927299,NO2,11,12,12
India,Uttar_Pradesh,Lucknow,"Gomti Nagar, Lucknow - UPPCB",16-04-2026 09:00:00,26.868120,81.005119,PM10,43,107,74
India,Uttar_Pradesh,Lucknow,"Gomti Nagar, Lucknow - UPPCB",16-04-2026 09:00:00,26.868120,81.005119,OZONE,39,52,42
India,Uttar_Pradesh,Lucknow,"Kendriya Vidyalaya, Lucknow - CPCB",16-04-2026 09:00:00,26.906111,80.948222,PM2.5,33,304,132
India,Uttar_Pradesh,Lucknow,"Kendriya Vidyalaya, Lucknow - CPCB",16-04-2026 09:00:00,26.906111,80.948222,PM10,103,195,146
India,Uttar_Pradesh,Lucknow,"Kendriya Vidyalaya, Lucknow - CPCB",16-04-2026 09:00:00,26.906111,80.948222,NO2,25,36,30
India,Uttar_Pradesh,Lucknow,"Kendriya Vidyalaya, Lucknow - CPCB",16-04-2026 09:00:00,26.906111,80.948222,SO2,7,28,15
India,Uttar_Pradesh,Lucknow,"Kukrail Picnic Spot-1, Lucknow - UPPCB",16-04-2026 09:00:00,26.90723,80.98579,PM2.5,19,110,68
India,Uttar_Pradesh,Lucknow,"Lalbagh, Lucknow - CPCB",16-04-2026 09:00:00,26.8458805,80.9365541,PM2.5,38,99,72
India,Uttar_Pradesh,Lucknow,"Talkatora District Industries Center, Lucknow - CPCB",16-04-2026 09:00:00,26.83399722,80.8917361,NO2,52,57,55
India,Uttar_Pradesh,Meerut,"Jai Bhim Nagar, Meerut - UPPCB",16-04-2026 09:00:00,28.9535882,77.7622941,PM10,90,442,263
India,Uttar_Pradesh,Meerut,"Jai Bhim Nagar, Meerut - UPPCB",16-04-2026 09:00:00,28.9535882,77.7622941,NO2,6,113,51
India,Uttar_Pradesh,Meerut,"Jai Bhim Nagar, Meerut - UPPCB",16-04-2026 09:00:00,28.9535882,77.7622941,CO,12,106,89
India,Uttar_Pradesh,Meerut,"Pallavpuram Phase 2, Meerut - UPPCB",16-04-2026 09:00:00,29.063510,77.709723,PM2.5,9,304,108
India,Uttar_Pradesh,Meerut,"Pallavpuram Phase 2, Meerut - UPPCB",16-04-2026 09:00:00,29.063510,77.709723,NO2,25,163,71
India,Uttar_Pradesh,Meerut,"Pallavpuram Phase 2, Meerut - UPPCB",16-04-2026 09:00:00,29.063510,77.709723,OZONE,3,132,23
India,Uttar_Pradesh,Modinagar,"SRM University, Modinagar - UPPCB",16-04-2026 09:00:00,28.798171 ,77.540243 ,PM2.5,NA,NA,NA
India,Uttar_Pradesh,Jhansi,"Shivaji Nagar, Jhansi - UPPCB",16-04-2026 09:00:00,25.4547,78.6039,PM2.5,12,83,34
India,Uttar_Pradesh,Kanpur,"NSI Kalyanpur, Kanpur - UPPCB",16-04-2026 09:00:00,26.509954,80.249612,SO2,12,16,13
India,Uttar_Pradesh,Kanpur,"NSI Kalyanpur, Kanpur - UPPCB",16-04-2026 09:00:00,26.509954,80.249612,CO,6,54,27
India,Uttar_Pradesh,Kanpur,"Nehru Nagar, Kanpur - UPPCB",16-04-2026 09:00:00,26.4703136,80.3229863,PM10,31,422,94
India,Uttar_Pradesh,Kanpur,"Nehru Nagar, Kanpur - UPPCB",16-04-2026 09:00:00,26.4703136,80.3229863,CO,20,112,62
India,Uttar_Pradesh,Khora,"Prashant Garden, Khora - UPPCB",16-04-2026 09:00:00,28.61119,77.34206,PM2.5,NA,NA,NA
India,Uttar_Pradesh,Khora,"Prashant Garden, Khora - UPPCB",16-04-2026 09:00:00,28.61119,77.34206,CO,NA,NA,NA
India,Uttar_Pradesh,Khora,"Prashant Garden, Khora - UPPCB",16-04-2026 09:00:00,28.61119,77.34206,OZONE,NA,NA,NA
India,Uttar_Pradesh,Moradabad,"Eco Herbal Park, Moradabad - UPPCB",16-04-2026 09:00:00,28.840739,78.697531,NO2,13,95,49
India,Uttar_Pradesh,Moradabad,"Eco Herbal Park, Moradabad - UPPCB",16-04-2026 09:00:00,28.840739,78.697531,CO,15,92,54
India,Uttar_Pradesh,Moradabad,"Eco Herbal Park, Moradabad - UPPCB",16-04-2026 09:00:00,28.840739,78.697531,OZONE,1,128,5
India,Uttar_Pradesh,Moradabad,"Jigar Colony, Moradabad - UPPCB",16-04-2026 09:00:00,28.856664,78.772638,PM10,66,190,104
India,Uttar_Pradesh,Moradabad,"Transport Nagar, Moradabad - UPPCB",16-04-2026 09:00:00,28.802625,78.753728,NH3,5,5,5
India,Uttar_Pradesh,Noida,"Sector-116, Noida - UPPCB",16-04-2026 09:00:00,28.569230,77.393848,PM10,96,500,272
India,Uttar_Pradesh,Noida,"Sector-116, Noida - UPPCB",16-04-2026 09:00:00,28.569230,77.393848,CO,9,154,73
India,Uttar_Pradesh,Prayagraj,"Jhunsi, Prayagraj - UPPCB",16-04-2026 09:00:00,25.425602,81.917152,SO2,20,73,49
India,Uttar_Pradesh,Noida,"Sector - 125, Noida - UPPCB",16-04-2026 09:00:00,28.5447608,77.3231257,NO2,16,169,84
India,West_Bengal,Durgapur,"Womens College_City Center, Durgapur - WBPCB",16-04-2026 09:00:00,23.549395,87.300496,SO2,12,12,12
India,West_Bengal,Haldia,"Priyambada Housing Estate, Haldia - WBPCB",16-04-2026 09:00:00,22.06047,88.109737,NH3,4,4,4
India,West_Bengal,Haldia,"Priyambada Housing Estate, Haldia - WBPCB",16-04-2026 09:00:00,22.06047,88.109737,CO,19,26,21
India,West_Bengal,Howrah,"Belur Math, Howrah - WBPCB",16-04-2026 09:00:00,22.629801,88.352017,PM2.5,25,98,55
India,West_Bengal,Howrah,"Belur Math, Howrah - WBPCB",16-04-2026 09:00:00,22.629801,88.352017,NO2,19,49,33
India,West_Bengal,Kolkata,"Bidhannagar, Kolkata - WBPCB",16-04-2026 09:00:00,22.58157048,88.41002457,SO2,3,12,5
India,West_Bengal,Kolkata,"Jadavpur, Kolkata - WBPCB",16-04-2026 09:00:00,22.49929,88.36917,PM2.5,34,83,59
India,West_Bengal,Kolkata,"Jadavpur, Kolkata - WBPCB",16-04-2026 09:00:00,22.49929,88.36917,PM10,29,87,59
India,West_Bengal,Kolkata,"Jadavpur, Kolkata - WBPCB",16-04-2026 09:00:00,22.49929,88.36917,SO2,3,5,4
India,West_Bengal,Kolkata,"Jadavpur, Kolkata - WBPCB",16-04-2026 09:00:00,22.49929,88.36917,CO,17,24,20
India,West_Bengal,Kolkata,"Rabindra Bharati University, Kolkata - WBPCB",16-04-2026 09:00:00,22.627847,88.380669,NO2,28,48,38
India,West_Bengal,Kolkata,"Rabindra Bharati University, Kolkata - WBPCB",16-04-2026 09:00:00,22.627847,88.380669,SO2,5,10,8
India,West_Bengal,Kolkata,"Rabindra Bharati University, Kolkata - WBPCB",16-04-2026 09:00:00,22.627847,88.380669,CO,22,44,27
India,West_Bengal,Kolkata,"Rabindra Sarobar, Kolkata - WBPCB",16-04-2026 09:00:00,22.51106,88.35142,PM10,28,78,49
India,West_Bengal,Kolkata,"Rabindra Sarobar, Kolkata - WBPCB",16-04-2026 09:00:00,22.51106,88.35142,NH3,6,8,7
India,West_Bengal,Kolkata,"Rabindra Sarobar, Kolkata - WBPCB",16-04-2026 09:00:00,22.51106,88.35142,OZONE,11,30,12
India,West_Bengal,Kolkata,"Victoria, Kolkata - WBPCB",16-04-2026 09:00:00,22.5448082,88.3403691,OZONE,24,85,36
India,West_Bengal,Siliguri,"Ward-32 Bapupara, Siliguri - WBPCB",16-04-2026 09:00:00,26.6879226,88.4152495,NH3,9,13,9
India,Andhra_Pradesh,Vijayawada,"Kanuru, Vijayawada - APPCB",16-04-2026 09:00:00,16.486692,80.699436,SO2,12,22,16
India,Andhra_Pradesh,Vijayawada,"Rajiv Gandhi Park, Vijayawada - APPCB",16-04-2026 09:00:00,16.509717,80.612222,PM2.5,44,71,54
India,Andhra_Pradesh,Vijayawada,"Rajiv Gandhi Park, Vijayawada - APPCB",16-04-2026 09:00:00,16.509717,80.612222,NH3,6,7,6
India,Andhra_Pradesh,Vijayawada,"Rajiv Gandhi Park, Vijayawada - APPCB",16-04-2026 09:00:00,16.509717,80.612222,SO2,17,18,18
India,Andhra_Pradesh,Vijayawada,"Rajiv Nagar, Vijayawada - APPCB",16-04-2026 09:00:00,16.554731,80.649110,PM2.5,35,81,44
India,Andhra_Pradesh,Vijayawada,"Rajiv Nagar, Vijayawada - APPCB",16-04-2026 09:00:00,16.554731,80.649110,NO2,20,30,23
India,Andhra_Pradesh,Vijayawada,"Rajiv Nagar, Vijayawada - APPCB",16-04-2026 09:00:00,16.554731,80.649110,SO2,12,19,14
India,Andhra_Pradesh,Visakhapatnam,"GVM Corporation, Visakhapatnam - APPCB",16-04-2026 09:00:00,17.72,83.3,CO,NA,NA,NA
India,Arunachal_Pradesh,Naharlagun,"Naharlagun, Naharlagun - APSPCB",16-04-2026 09:00:00,27.103358,93.679645,NO2,7,7,7
India,Arunachal_Pradesh,Naharlagun,"Naharlagun, Naharlagun - APSPCB",16-04-2026 09:00:00,27.103358,93.679645,CO,11,24,13
India,Arunachal_Pradesh,Naharlagun,"Naharlagun, Naharlagun - APSPCB",16-04-2026 09:00:00,27.103358,93.679645,OZONE,6,6,6
India,Assam,Byrnihat,"Central Academy for SFS, Byrnihat - PCBA",16-04-2026 09:00:00,26.071318,91.87488,NH3,3,4,4
India,Assam,Guwahati,"LGBI Airport, Guwahati - PCBA",16-04-2026 09:00:00,26.10887,91.589544,PM2.5,NA,NA,NA
India,Andhra_Pradesh,Machilipatnam,"Srinivas Nagar Colony, Machilipatnam - APPCB",16-04-2026 09:00:00,16.186555,81.13219,OZONE,26,40,30
India,Andhra_Pradesh,Nellore,"Ambedkar Nagar, Nellore - APPCB ",16-04-2026 09:00:00,14.438164 ,79.966814 ,NH3,1,5,2
India,Andhra_Pradesh,Rajamahendravaram,"Anand Kala Kshetram, Rajamahendravaram - APPCB",16-04-2026 09:00:00,16.9872867,81.7363176,PM2.5,2,22,12
India,Andhra_Pradesh,Tirumala,"Toll Gate, Tirumala - APPCB",16-04-2026 09:00:00,13.67,79.35,NH3,2,3,3
India,Andhra_Pradesh,Tirumala,"Toll Gate, Tirumala - APPCB",16-04-2026 09:00:00,13.67,79.35,SO2,3,18,8
India,Andhra_Pradesh,Tirumala,"Toll Gate, Tirumala - APPCB",16-04-2026 09:00:00,13.67,79.35,CO,15,26,21
India,Andhra_Pradesh,Tirupati,"Vaikuntapuram, Tirupati - APPCB",16-04-2026 09:00:00,13.615387,79.409230,SO2,10,24,16
India,Andhra_Pradesh,Vijayawada,"HB Colony, Vijayawada - APPCB",16-04-2026 09:00:00,16.536107,80.594233,PM2.5,57,306,110
India,Andhra_Pradesh,Vijayawada,"HB Colony, Vijayawada - APPCB",16-04-2026 09:00:00,16.536107,80.594233,NH3,4,5,4
India,Andhra_Pradesh,Vijayawada,"HB Colony, Vijayawada - APPCB",16-04-2026 09:00:00,16.536107,80.594233,CO,35,48,36
India,Andhra_Pradesh,Vijayawada,"HB Colony, Vijayawada - APPCB",16-04-2026 09:00:00,16.536107,80.594233,OZONE,34,46,34
India,Andhra_Pradesh,Chittoor,"Gangineni Cheruvu, Chittoor - APPCB",16-04-2026 09:00:00,13.204880,79.097889,PM2.5,56,90,69
India,Andhra_Pradesh,Eluru,"District Court, Eluru - APPCB",16-04-2026 09:00:00,16.711754,81.092095,CO,22,38,29
India,Andhra_Pradesh,Guntur,"Rajendra Nagar North, Guntur - APPCB",16-04-2026 09:00:00,16.316553,80.413302,PM2.5,40,83,50
India,Andhra_Pradesh,Guntur,"Rajendra Nagar North, Guntur - APPCB",16-04-2026 09:00:00,16.316553,80.413302,CO,10,22,14
India,Andhra_Pradesh,Guntur,"Rajendra Nagar North, Guntur - APPCB",16-04-2026 09:00:00,16.316553,80.413302,OZONE,42,62,44
India,Andhra_Pradesh,Kadapa,"Yerramukkapalli, Kadapa - APPCB",16-04-2026 09:00:00,14.465052,78.824187,NH3,3,6,5
India,Andhra_Pradesh,Machilipatnam,"Srinivas Nagar Colony, Machilipatnam - APPCB",16-04-2026 09:00:00,16.186555,81.13219,CO,19,50,24
India,Bihar,Bhagalpur,"Mayaganj, Bhagalpur - BSPCB",16-04-2026 09:00:00,25.265194,87.012947,PM2.5,8,83,39
India,Bihar,Bhagalpur,"Mayaganj, Bhagalpur - BSPCB",16-04-2026 09:00:00,25.265194,87.012947,CO,80,95,88
India,Bihar,Bihar Sharif,"D M Colony, Bihar Sharif - BSPCB",16-04-2026 09:00:00,25.204762,85.514960,NO2,9,10,9
India,Bihar,Buxar,"Charitra Van, Buxar - BSPCB",16-04-2026 09:00:00,25.567520,83.966379,NO2,9,10,10
India,Bihar,Buxar,"Charitra Van, Buxar - BSPCB",16-04-2026 09:00:00,25.567520,83.966379,NH3,3,3,3
India,Bihar,Buxar,"Charitra Van, Buxar - BSPCB",16-04-2026 09:00:00,25.567520,83.966379,SO2,27,34,32
India,Bihar,Gaya,"Kareemganj, Gaya - BSPCB",16-04-2026 09:00:00,24.792403,84.992416,PM2.5,33,352,140
India,Bihar,Gaya,"Kareemganj, Gaya - BSPCB",16-04-2026 09:00:00,24.792403,84.992416,PM10,84,332,173
India,Bihar,Araria,"Kharahiya Basti, Araria - BSPCB",16-04-2026 09:00:00,26.146529,87.454184,PM2.5,8,117,58
India,Bihar,Araria,"Kharahiya Basti, Araria - BSPCB",16-04-2026 09:00:00,26.146529,87.454184,CO,5,28,13
India,Bihar,Arrah,"New DM Office, Arrah - BSPCB",16-04-2026 09:00:00,25.5626095,84.663264,CO,41,68,55
India,Bihar,Aurangabad,"Gurdeo Nagar, Aurangabad - BSPCB",16-04-2026 09:00:00,24.75746,84.366208,PM10,70,142,109
India,Bihar,Aurangabad,"Gurdeo Nagar, Aurangabad - BSPCB",16-04-2026 09:00:00,24.75746,84.366208,OZONE,3,74,12
India,Bihar,Bettiah,"Kamalnath Nagar, Bettiah - BSPCB",16-04-2026 09:00:00,26.80365,84.51954,NH3,NA,NA,NA
India,Assam,Nagaon,"Christianpatty, Nagaon - PCBA",16-04-2026 09:00:00,26.349082,92.68449,NO2,1,12,1
India,Assam,Nagaon,"Christianpatty, Nagaon - PCBA",16-04-2026 09:00:00,26.349082,92.68449,CO,12,23,22
India,Assam,Nagaon,"Christianpatty, Nagaon - PCBA",16-04-2026 09:00:00,26.349082,92.68449,OZONE,10,12,12
India,Assam,Nalbari,"Bata Chowk, Nalbari - PCBA",16-04-2026 09:00:00,26.446912,91.439057,CO,20,22,21
India,Assam,Silchar,"Tarapur, Silchar - PCBA",16-04-2026 09:00:00,24.82827,92.79525,NO2,22,26,24
India,Assam,Sivasagar,"Girls College, Sivasagar - PCBA",16-04-2026 09:00:00,26.987634,94.636574,SO2,6,7,6
India,Bihar,Gaya,"SFTI Kusdihra, Gaya - BSPCB",16-04-2026 09:00:00,24.762518,84.982348,PM2.5,47,76,64
India,Bihar,Gaya,"SFTI Kusdihra, Gaya - BSPCB",16-04-2026 09:00:00,24.762518,84.982348,SO2,7,11,9
India,Bihar,Katihar,"Mirchaibari, Katihar - BSPCB",16-04-2026 09:00:00,25.560083,87.553265,CO,74,98,83
India,Bihar,Manguraha,"Forest Rest House, Manguraha - BSPCB",16-04-2026 09:00:00,27.308328,84.531742,PM10,103,199,136
India,Bihar,Manguraha,"Forest Rest House, Manguraha - BSPCB",16-04-2026 09:00:00,27.308328,84.531742,SO2,16,17,16
India,Bihar,Manguraha,"Forest Rest House, Manguraha - BSPCB",16-04-2026 09:00:00,27.308328,84.531742,CO,32,34,32
India,Bihar,Munger,"Town Hall, Munger - BSPCB",16-04-2026 09:00:00,25.376776,86.471523,CO,25,31,28
India,Bihar,Muzaffarpur,"Muzaffarpur Collectorate, Muzaffarpur - BSPCB",16-04-2026 09:00:00,26.1209,85.3647,PM2.5,80,114,100
India,Bihar,Muzaffarpur,"Muzaffarpur Collectorate, Muzaffarpur - BSPCB",16-04-2026 09:00:00,26.1209,85.3647,SO2,4,9,5
India,Bihar,Patna,"DRM Office Danapur, Patna - BSPCB",16-04-2026 09:00:00,25.586562,85.043586,SO2,4,8,6
India,Andhra_Pradesh,Amaravati,"Secretariat, Amaravati - APPCB",16-04-2026 09:00:00,16.5150833,80.5181667,NH3,2,4,3
India,Andhra_Pradesh,Amaravati,"Secretariat, Amaravati - APPCB",16-04-2026 09:00:00,16.5150833,80.5181667,OZONE,6,74,13
India,Andhra_Pradesh,Anantapur,"Gulzarpet, Anantapur - APPCB",16-04-2026 09:00:00,14.675886,77.593027,PM10,50,97,65
India,Bihar,Purnia,"Mariam Nagar, Purnia - BSPCB",16-04-2026 09:00:00,25.366336,87.117468,NO2,5,6,6
India,Delhi,Delhi,"Chandni Chowk, Delhi - IITM",16-04-2026 09:00:00,28.656756,77.227234,PM10,78,406,176
India,Delhi,Delhi,"Chandni Chowk, Delhi - IITM",16-04-2026 09:00:00,28.656756,77.227234,NO2,20,234,126
India,Delhi,Delhi,"Chandni Chowk, Delhi - IITM",16-04-2026 09:00:00,28.656756,77.227234,SO2,12,50,26
India,Delhi,Delhi,"Commonwealth Sports Complex, Delhi - DPCC",16-04-2026 09:00:00,28.615828 ,77.271992 ,NO2,11,209,100
India,Delhi,Delhi,"Commonwealth Sports Complex, Delhi - DPCC",16-04-2026 09:00:00,28.615828 ,77.271992 ,CO,28,123,109
India,Delhi,Delhi,"DTU, Delhi - CPCB",16-04-2026 09:00:00,28.7500499,77.1112615,PM10,60,437,195
India,Delhi,Delhi,"DTU, Delhi - CPCB",16-04-2026 09:00:00,28.7500499,77.1112615,NH3,6,14,11
India,Delhi,Delhi,"Dr. Karni Singh Shooting Range, Delhi - DPCC",16-04-2026 09:00:00,28.498571,77.264840,PM2.5,2,336,164
India,Delhi,Delhi,"Dr. Karni Singh Shooting Range, Delhi - DPCC",16-04-2026 09:00:00,28.498571,77.264840,PM10,85,348,195
India,Delhi,Delhi,"Dwarka-Sector 8, Delhi - DPCC ",16-04-2026 09:00:00,28.5710274,77.0719006,CO,42,129,100
India,Delhi,Delhi,"IGI Airport (T3), Delhi - IMD",16-04-2026 09:00:00,28.5627763,77.1180053,PM2.5,3,352,165
India,Chhattisgarh,Bilaspur,"Mangala, Bilaspur - NTPC",16-04-2026 09:00:00,22.08815,82.13737,PM2.5,76,198,127
India,Chhattisgarh,Korba,"Rampur, Korba - CECB",16-04-2026 09:00:00,22.368195,82.746431,SO2,8,103,49
India,Chhattisgarh,Korba,"Rampur, Korba - CECB",16-04-2026 09:00:00,22.368195,82.746431,OZONE,4,24,6
India,Chhattisgarh,Korba,"Urja Nagar, Korba - CECB",16-04-2026 09:00:00,22.348441,82.549611,PM2.5,13,17,14
India,Chhattisgarh,Korba,"Urja Nagar, Korba - CECB",16-04-2026 09:00:00,22.348441,82.549611,SO2,2,15,7
India,Chhattisgarh,Kunjemura,"OP Jindal School, Kunjemura - CECB",16-04-2026 09:00:00,22.126650,83.483212,PM2.5,40,82,60
India,Chhattisgarh,Kunjemura,"OP Jindal School, Kunjemura - CECB",16-04-2026 09:00:00,22.126650,83.483212,PM10,72,184,109
India,Chhattisgarh,Kunjemura,"OP Jindal School, Kunjemura - CECB",16-04-2026 09:00:00,22.126650,83.483212,NH3,2,2,2
India,Chhattisgarh,Kunjemura,"OP Jindal School, Kunjemura - CECB",16-04-2026 09:00:00,22.126650,83.483212,CO,30,72,48
India,Chhattisgarh,Milupara,"Govt. Higher Secondary School, Milupara - CECB",16-04-2026 09:00:00,22.1910172,83.5197009,SO2,13,73,20
India,Chhattisgarh,Milupara,"Govt. Higher Secondary School, Milupara - CECB",16-04-2026 09:00:00,22.1910172,83.5197009,CO,24,61,28
India,Delhi,Delhi,"IIT Delhi, Delhi - IITM",16-04-2026 09:00:00,28.542460,77.191651,PM10,73,379,179
India,Delhi,Delhi,"IIT Delhi, Delhi - IITM",16-04-2026 09:00:00,28.542460,77.191651,OZONE,7,73,8
India,Delhi,Delhi,"ITO, Delhi - CPCB",16-04-2026 09:00:00,28.628624,77.241060,PM10,46,301,178
India,Delhi,Delhi,"JNU, Delhi - DPCC",16-04-2026 09:00:00,28.540721 ,77.168544 ,PM10,24,306,162
India,Delhi,Delhi,"JNU, Delhi - DPCC",16-04-2026 09:00:00,28.540721 ,77.168544 ,NH3,1,5,3
India,Delhi,Delhi,"Jahangirpuri, Delhi - DPCC",16-04-2026 09:00:00,28.732820,77.170633,SO2,46,102,75
India,Delhi,Delhi,"Jawaharlal Nehru Stadium, Delhi - DPCC",16-04-2026 09:00:00,28.580280,77.233829,PM2.5,15,366,180
India,Delhi,Delhi,"Jawaharlal Nehru Stadium, Delhi - DPCC",16-04-2026 09:00:00,28.580280,77.233829,PM10,70,403,206
India,Delhi,Delhi,"Jawaharlal Nehru Stadium, Delhi - DPCC",16-04-2026 09:00:00,28.580280,77.233829,NH3,8,12,10
India,Delhi,Delhi,"Lodhi Road, Delhi - IMD",16-04-2026 09:00:00,28.5918245,77.2273074,PM2.5,3,338,138
India,Chhattisgarh,Raipur,"Bhatagaon New ISBT, Raipur - CECB",16-04-2026 09:00:00,21.219665,81.630094,NO2,25,56,36
India,Chhattisgarh,Raipur,"Bhatagaon New ISBT, Raipur - CECB",16-04-2026 09:00:00,21.219665,81.630094,SO2,2,17,8
India,Chhattisgarh,Raipur,"Bhatagaon New ISBT, Raipur - CECB",16-04-2026 09:00:00,21.219665,81.630094,CO,22,79,38
India,Chhattisgarh,Raipur,"Krishak Nagar, Raipur - CECB",16-04-2026 09:00:00,21.237755,81.705301,NO2,6,19,10
India,Chhattisgarh,Raipur,"Krishak Nagar, Raipur - CECB",16-04-2026 09:00:00,21.237755,81.705301,OZONE,4,49,8
India,Chhattisgarh,Raipur,"Siltara Phase-II, Raipur - CECB",16-04-2026 09:00:00,21.371751,81.664929,PM2.5,20,100,61
India,Chhattisgarh,Raipur,"Siltara Phase-II, Raipur - CECB",16-04-2026 09:00:00,21.371751,81.664929,NO2,15,61,30
India,Chhattisgarh,Raipur,"Siltara Phase-II, Raipur - CECB",16-04-2026 09:00:00,21.371751,81.664929,NH3,3,3,3
India,Chhattisgarh,Raipur,"Siltara Phase-II, Raipur - CECB",16-04-2026 09:00:00,21.371751,81.664929,CO,17,24,19
India,Delhi,Delhi,"Alipur, Delhi - DPCC",16-04-2026 09:00:00,28.815329,77.153010,NH3,10,21,14
India,Delhi,Delhi,"Anand Vihar, Delhi - DPCC",16-04-2026 09:00:00,28.647622,77.3158090,SO2,15,40,28
India,Delhi,Delhi,"Ashok Vihar, Delhi - DPCC",16-04-2026 09:00:00,28.695381,77.181665,PM2.5,23,390,206
India,Delhi,Delhi,"Aya Nagar, Delhi - IMD",16-04-2026 09:00:00,28.4706914,77.1099364,CO,30,92,80
India,Delhi,Delhi,"Bawana, Delhi - DPCC",16-04-2026 09:00:00,28.776200,77.051074,PM10,111,457,272
India,Delhi,Delhi,"Bawana, Delhi - DPCC",16-04-2026 09:00:00,28.776200,77.051074,CO,23,98,73
India,Delhi,Delhi,"CRRI Mathura Road, Delhi - IMD",16-04-2026 09:00:00,28.5512005,77.2735737,NO2,8,81,46
India,Delhi,Delhi,"CRRI Mathura Road, Delhi - IMD",16-04-2026 09:00:00,28.5512005,77.2735737,CO,50,136,131
India,Delhi,Delhi,"Cantonment Area, Delhi - DPCC ",16-04-2026 09:00:00,28.594169 ,77.125100 ,PM10,56,358,168
India,Bihar,Rajgir,"Dangi Tola, Rajgir - BSPCB",16-04-2026 09:00:00,25.03280,85.41948,PM2.5,33,107,63
India,Bihar,Saharsa,"Police Line, Saharsa - BSPCB",16-04-2026 09:00:00,25.892357,86.590325,PM10,NA,NA,NA
India,Bihar,Saharsa,"Police Line, Saharsa - BSPCB",16-04-2026 09:00:00,25.892357,86.590325,OZONE,NA,NA,NA
India,Bihar,Sasaram,"Dada Peer, Sasaram - BSPCB",16-04-2026 09:00:00,24.952822,84.002396,PM2.5,13,86,58
India,Bihar,Sasaram,"Dada Peer, Sasaram - BSPCB",16-04-2026 09:00:00,24.952822,84.002396,PM10,54,160,118
India,Bihar,Sasaram,"Dada Peer, Sasaram - BSPCB",16-04-2026 09:00:00,24.952822,84.002396,NO2,1,16,4
India,Bihar,Siwan,"Chitragupta Nagar, Siwan - BSPCB",16-04-2026 09:00:00,26.2271665,84.3570427,OZONE,13,17,16
India,Delhi,Delhi,"Mundka, Delhi - DPCC",16-04-2026 09:00:00,28.684678,77.076574,NO2,15,106,64
India,Delhi,Delhi,"Mundka, Delhi - DPCC",16-04-2026 09:00:00,28.684678,77.076574,OZONE,2,306,22
India,Delhi,Delhi,"NSIT Dwarka, Delhi - CPCB",16-04-2026 09:00:00,28.60909,77.0325413,PM2.5,58,274,132
India,Delhi,Delhi,"NSIT Dwarka, Delhi - CPCB",16-04-2026 09:00:00,28.60909,77.0325413,NH3,2,11,7
India,Delhi,Delhi,"NSIT Dwarka, Delhi - CPCB",16-04-2026 09:00:00,28.60909,77.0325413,CO,24,75,34
India,Delhi,Delhi,"Najafgarh, Delhi - DPCC",16-04-2026 09:00:00,28.570173,76.933762,PM2.5,10,342,175
India,Chandigarh,Chandigarh,"Sector-25, Chandigarh - CPCC",16-04-2026 09:00:00,30.751462,76.762879,CO,6,28,28
India,Chhattisgarh,Bhilai,"Civic Center, Bhilai - Bhilai Steel Plant",16-04-2026 09:00:00,21.185571,81.343175,SO2,3,25,11
India,Chhattisgarh,Bhilai,"Hathkhoj, Bhilai - CECB",16-04-2026 09:00:00,21.224231,81.408350,SO2,18,80,32
India,Delhi,Delhi,"IGI Airport (T3), Delhi - IMD",16-04-2026 09:00:00,28.5627763,77.1180053,OZONE,20,94,20
India,Delhi,Delhi,"IHBAS, Dilshad Garden, Delhi - CPCB",16-04-2026 09:00:00,28.6811736,77.3025234,PM2.5,21,344,156
India,Delhi,Delhi,"IHBAS, Dilshad Garden, Delhi - CPCB",16-04-2026 09:00:00,28.6811736,77.3025234,NO2,31,114,77
India,Gujarat,Ahmedabad,"Rakhial, Ahmedabad - IITM",16-04-2026 09:00:00,23.016834,72.625775,PM2.5,35,59,46
India,Gujarat,Ahmedabad,"Rakhial, Ahmedabad - IITM",16-04-2026 09:00:00,23.016834,72.625775,SO2,13,125,45
India,Gujarat,Ahmedabad,"Rakhial, Ahmedabad - IITM",16-04-2026 09:00:00,23.016834,72.625775,OZONE,1,70,3
India,Gujarat,Ahmedabad,"SAC ISRO Bopal, Ahmedabad - IITM",16-04-2026 09:00:00,23.041137,72.456691,OZONE,15,95,26
India,Gujarat,Ahmedabad,"SAC ISRO Satellite, Ahmedabad - IITM",16-04-2026 09:00:00,23.023389,72.515201,NH3,1,6,4
India,Gujarat,Ahmedabad,"SVPI Airport Hansol, Ahmedabad - IITM",16-04-2026 09:00:00,23.076793,72.627874,CO,10,45,32
India,Gujarat,Ankleshwar,"GIDC, Ankleshwar - GPCB",16-04-2026 09:00:00,21.613267,73.010555,PM10,NA,NA,NA
India,Gujarat,Ankleshwar,"GIDC, Ankleshwar - GPCB",16-04-2026 09:00:00,21.613267,73.010555,NO2,NA,NA,NA
India,Gujarat,Ankleshwar,"GIDC, Ankleshwar - GPCB",16-04-2026 09:00:00,21.613267,73.010555,NH3,NA,NA,NA
India,Gujarat,Ankleshwar,"GIDC, Ankleshwar - GPCB",16-04-2026 09:00:00,21.613267,73.010555,SO2,NA,NA,NA
India,Gujarat,Ankleshwar,"GIDC, Ankleshwar - GPCB",16-04-2026 09:00:00,21.613267,73.010555,OZONE,NA,NA,NA
India,Gujarat,Bhavnagar,"Vidhyanagar, Bhavnagar - Nexteng Enviro",16-04-2026 09:00:00,21.755417,72.139056,PM2.5,31,68,45
India,Gujarat,Bhavnagar,"Vidhyanagar, Bhavnagar - Nexteng Enviro",16-04-2026 09:00:00,21.755417,72.139056,NH3,3,6,5
India,Gujarat,Bhavnagar,"Vidhyanagar, Bhavnagar - Nexteng Enviro",16-04-2026 09:00:00,21.755417,72.139056,SO2,5,9,7
India,Gujarat,Bhavnagar,"Vidhyanagar, Bhavnagar - Nexteng Enviro",16-04-2026 09:00:00,21.755417,72.139056,OZONE,6,33,8
India,Haryana,Ambala,"Patti Mehar, Ambala - HSPCB",16-04-2026 09:00:00,30.379589,76.778328,SO2,15,32,22
India,Haryana,Ambala,"Patti Mehar, Ambala - HSPCB",16-04-2026 09:00:00,30.379589,76.778328,CO,21,49,23
India,Haryana,Bahadurgarh,"Arya Nagar, Bahadurgarh - HSPCB",16-04-2026 09:00:00,28.6701,76.9254,SO2,6,7,6
India,Haryana,Ballabgarh,"Nathu Colony, Ballabgarh - HSPCB",16-04-2026 09:00:00,28.3419248,77.319699,PM10,NA,NA,NA
India,Haryana,Bhiwani,"H.B. Colony, Bhiwani - HSPCB",16-04-2026 09:00:00,28.806223,76.141105,NO2,2,17,10
India,Haryana,Bhiwani,"H.B. Colony, Bhiwani - HSPCB",16-04-2026 09:00:00,28.806223,76.141105,NH3,8,12,10
India,Haryana,Charkhi Dadri,"Mini Secretariat, Charkhi Dadri - HSPCB",16-04-2026 09:00:00,28.593883,76.270653,PM2.5,116,396,267
India,Haryana,Charkhi Dadri,"Mini Secretariat, Charkhi Dadri - HSPCB",16-04-2026 09:00:00,28.593883,76.270653,SO2,9,11,10
India,Delhi,Delhi,"Vivek Vihar, Delhi - DPCC",16-04-2026 09:00:00,28.672342,77.315260,OZONE,5,98,6
India,Delhi,Delhi,"Wazirpur, Delhi - DPCC",16-04-2026 09:00:00,28.699793,77.165453,PM2.5,35,481,239
India,Delhi,Delhi,"Wazirpur, Delhi - DPCC",16-04-2026 09:00:00,28.699793,77.165453,NH3,7,11,8
India,Delhi,Delhi,"Wazirpur, Delhi - DPCC",16-04-2026 09:00:00,28.699793,77.165453,SO2,4,42,23
India,Gujarat,Ahmedabad,"Gyaspur, Ahmedabad - IITM",16-04-2026 09:00:00,22.977134,72.553024,CO,NA,NA,NA
India,Gujarat,Ahmedabad,"Gyaspur, Ahmedabad - IITM",16-04-2026 09:00:00,22.977134,72.553024,OZONE,1,39,2
India,Gujarat,Ahmedabad,"Maninagar, Ahmedabad - GPCB",16-04-2026 09:00:00,23.002657,72.591912,NO2,83,91,86
India,Gujarat,Ahmedabad,"Maninagar, Ahmedabad - GPCB",16-04-2026 09:00:00,23.002657,72.591912,SO2,21,105,77
India,Gujarat,Ahmedabad,"Raikhad, Ahmedabad - IITM",16-04-2026 09:00:00,23.020509,72.579261,NO2,14,71,32
India,Gujarat,Gandhinagar,"GIFT City, Gandhinagar - IITM",16-04-2026 09:00:00,23.163798,72.677768,NO2,18,68,32
India,Gujarat,Gandhinagar,"IIPHG Lekawada, Gandhinagar - IITM",16-04-2026 09:00:00,23.243639,72.68994,OZONE,3,28,6
India,Gujarat,Gandhinagar,"Sector-10, Gandhinagar - GPCB",16-04-2026 09:00:00,23.221714,72.654328,NO2,7,35,16
India,Gujarat,Gandhinagar,"Sector-10, Gandhinagar - GPCB",16-04-2026 09:00:00,23.221714,72.654328,OZONE,5,35,6
India,Gujarat,Nandesari,"GIDC, Nandesari - Nandesari Ind. Association",16-04-2026 09:00:00,22.410802,73.097923,NO2,6,49,25
India,Gujarat,Rajkot,"Mavdi, Rajkot - Nexteng Enviro ",16-04-2026 09:00:00,22.248853,70.776774,NH3,1,2,1
India,Gujarat,Rajkot,"Mavdi, Rajkot - Nexteng Enviro ",16-04-2026 09:00:00,22.248853,70.776774,CO,86,94,90
India,Delhi,Delhi,"Pusa, Delhi - IMD",16-04-2026 09:00:00,28.636110,77.173332,PM2.5,1,318,172
India,Delhi,Delhi,"Pusa, Delhi - IMD",16-04-2026 09:00:00,28.636110,77.173332,NO2,3,114,60
India,Delhi,Delhi,"Pusa, Delhi - IMD",16-04-2026 09:00:00,28.636110,77.173332,CO,17,137,123
India,Delhi,Delhi,"Pusa, Delhi - IMD",16-04-2026 09:00:00,28.636110,77.173332,OZONE,11,252,13
India,Delhi,Delhi,"R K Puram, Delhi - DPCC",16-04-2026 09:00:00,28.563262,77.186937,CO,1,110,86
India,Delhi,Delhi,"Rohini, Delhi - DPCC",16-04-2026 09:00:00,28.732528,77.119920,PM2.5,18,500,250
India,Delhi,Delhi,"Shadipur, Delhi - CPCB",16-04-2026 09:00:00,28.6514781,77.1473105,PM2.5,58,356,219
India,Haryana,Charkhi Dadri,"Mini Secretariat, Charkhi Dadri - HSPCB",16-04-2026 09:00:00,28.593883,76.270653,OZONE,13,17,15
India,Haryana,Faridabad,"New Industrial Town, Faridabad - HSPCB",16-04-2026 09:00:00,28.39072,77.30059,NH3,11,12,11
India,Haryana,Faridabad,"Sector 30, Faridabad - HSPCB",16-04-2026 09:00:00,28.4417,77.3217,NH3,10,12,11
India,Haryana,Faridabad,"Sector 30, Faridabad - HSPCB",16-04-2026 09:00:00,28.4417,77.3217,CO,58,64,63
India,Haryana,Fatehabad,"Huda Sector, Fatehabad - HSPCB",16-04-2026 09:00:00,29.503664,75.467934,PM10,NA,NA,NA
India,Haryana,Fatehabad,"Huda Sector, Fatehabad - HSPCB",16-04-2026 09:00:00,29.503664,75.467934,NH3,NA,NA,NA
India,Delhi,Delhi,"Sirifort, Delhi - CPCB",16-04-2026 09:00:00,28.5504249,77.2159377,NH3,9,20,15
India,Delhi,Delhi,"Sonia Vihar, Delhi - DPCC",16-04-2026 09:00:00,28.710508,77.249485,OZONE,2,84,2
India,Delhi,Delhi,"Sri Aurobindo Marg, Delhi - DPCC",16-04-2026 09:00:00,28.531346,77.190156,OZONE,2,70,2
India,Delhi,Delhi,"Talkatora Garden, Delhi - DPCC",16-04-2026 09:00:00,28.621810,77.1944633,SO2,16,34,25
India,Delhi,Delhi,"Talkatora Garden, Delhi - DPCC",16-04-2026 09:00:00,28.621810,77.1944633,OZONE,2,35,3
India,Gujarat,Surat,"Katargam, Surat - Nexteng Enviro",16-04-2026 09:00:00,21.217779 ,72.834787 ,NH3,NA,NA,NA
India,Gujarat,Vadodara,"Bapunagar, Vadodara - Nexteng Enviro",16-04-2026 09:00:00,22.320153,73.216285,OZONE,3,8,3
India,Gujarat,Vatva,"Phase-4 GIDC, Vatva - GPCB",16-04-2026 09:00:00,22.969611,72.643500,PM10,89,137,118
India,Gujarat,Vatva,"Phase-4 GIDC, Vatva - GPCB",16-04-2026 09:00:00,22.969611,72.643500,CO,40,72,48
India,Delhi,Delhi,"Narela, Delhi - DPCC",16-04-2026 09:00:00,28.822836,77.101981,OZONE,7,57,10
India,Delhi,Delhi,"Okhla Phase-2, Delhi - DPCC",16-04-2026 09:00:00,28.530785,77.271255,NO2,43,167,107
India,Delhi,Delhi,"Okhla Phase-2, Delhi - DPCC",16-04-2026 09:00:00,28.530785,77.271255,NH3,10,17,13
India,Delhi,Delhi,"Patparganj, Delhi - DPCC",16-04-2026 09:00:00,28.623763,77.287209,PM2.5,12,400,188
India,Haryana,Kaithal,"Rishi Nagar, Kaithal - HSPCB",16-04-2026 09:00:00,29.8006,76.4155,NH3,5,6,6
India,Haryana,Karnal,"Sector-12, Karnal - HSPCB",16-04-2026 09:00:00,29.695300,77.002700,PM10,46,121,87
India,Haryana,Karnal,"Sector-12, Karnal - HSPCB",16-04-2026 09:00:00,29.695300,77.002700,NO2,5,7,6
India,Haryana,Kurukshetra,"Sector-7, Kurukshetra - HSPCB",16-04-2026 09:00:00,29.966942,76.875879,PM10,125,206,154
India,Haryana,Kurukshetra,"Sector-7, Kurukshetra - HSPCB",16-04-2026 09:00:00,29.966942,76.875879,CO,5,26,19
India,Haryana,Mandikhera,"General Hospital, Mandikhera(Nuh) - HSPCB",16-04-2026 09:00:00,27.9002,76.9938,NO2,20,24,22
India,Haryana,Mandikhera,"General Hospital, Mandikhera(Nuh) - HSPCB",16-04-2026 09:00:00,27.9002,76.9938,OZONE,19,32,27
India,Haryana,Manesar,"Sector-2 IMT, Manesar - HSPCB",16-04-2026 09:00:00,28.360699,76.936090,PM2.5,71,384,245
India,Haryana,Manesar,"Sector-2 IMT, Manesar - HSPCB",16-04-2026 09:00:00,28.360699,76.936090,NO2,18,85,35
India,Haryana,Manesar,"Sector-2 IMT, Manesar - HSPCB",16-04-2026 09:00:00,28.360699,76.936090,NH3,7,17,13
India,Haryana,Manesar,"Sector-2 IMT, Manesar - HSPCB",16-04-2026 09:00:00,28.360699,76.936090,CO,2,76,35
India,Haryana,Sonipat,"Murthal, Sonipat - HSPCB",16-04-2026 09:00:00,29.027200,77.062100,SO2,2,16,8
India,Haryana,Sonipat,"Murthal, Sonipat - HSPCB",16-04-2026 09:00:00,29.027200,77.062100,CO,32,61,46
India,Haryana,Sonipat,"Murthal, Sonipat - HSPCB",16-04-2026 09:00:00,29.027200,77.062100,OZONE,24,26,25
India,Himachal Pradesh,Baddi,"HIMUDA Complex Phase-1, Baddi - HPPCB",16-04-2026 09:00:00,30.943887,76.801991,PM2.5,47,293,105
India,Himachal Pradesh,Baddi,"HIMUDA Complex Phase-1, Baddi - HPPCB",16-04-2026 09:00:00,30.943887,76.801991,NH3,3,4,3
India,Himachal Pradesh,Baddi,"HIMUDA Complex Phase-1, Baddi - HPPCB",16-04-2026 09:00:00,30.943887,76.801991,SO2,26,26,26
India,Himachal Pradesh,Baddi,"HIMUDA Complex Phase-1, Baddi - HPPCB",16-04-2026 09:00:00,30.943887,76.801991,CO,38,81,40
India,Jammu_and_Kashmir,Pampore,"Khrew, Pampore - JKPCC",16-04-2026 09:00:00,34.031606,75.009712,PM10,32,89,55
India,Jammu_and_Kashmir,Srinagar,"Khunmoh, Srinagar - JKPCC",16-04-2026 09:00:00,34.06313,74.96017,SO2,NA,NA,NA
India,Jammu_and_Kashmir,Srinagar,"Rajbagh, Srinagar - JKPCC",16-04-2026 09:00:00,34.066206,74.819820,SO2,3,4,3
India,Karnataka,Bengaluru,"City Railway Station, Bengaluru - KSPCB",16-04-2026 09:00:00,12.9756843,77.5660749,CO,54,64,60
India,Karnataka,Bengaluru,"Hebbal, Bengaluru - KSPCB",16-04-2026 09:00:00,13.029152,77.585901,PM2.5,62,100,78
India,Karnataka,Bengaluru,"Jayanagar 5th Block, Bengaluru - KSPCB",16-04-2026 09:00:00,12.920984,77.584908,PM2.5,78,134,96
