country,state,city,station,last_update,latitude,longitude,pollutant_id,min_value,max_value,avg_value
India,Andhra_Pradesh,Amaravati,"Secretariat, Amaravati - APPCB",21-09-2025 07:00:00,16.5150833,80.5181667,NH3,NA,NA,NA
India,Andhra_Pradesh,Anantapur,"Gulzarpet, Anantapur - APPCB",21-09-2025 07:00:00,14.675886,77.593027,OZONE,7,14,8
India,Andhra_Pradesh,Chittoor,"Gangineni Cheruvu, Chittoor - APPCB",21-09-2025 07:00:00,13.204880,79.097889,SO2,13,16,14
India,Andhra_Pradesh,Chittoor,"Gangineni Cheruvu, Chittoor - APPCB",21-09-2025 07:00:00,13.204880,79.097889,OZONE,50,75,63
India,Andhra_Pradesh,Kadapa,"Yerramukkapalli, Kadapa - APPCB",21-09-2025 07:00:00,14.465052,78.824187,PM10,47,100,69
India,Andhra_Pradesh,Rajamahendravaram,"Anand Kala Kshetram, Rajamahendravaram - APPCB",21-09-2025 07:00:00,16.9872867,81.7363176,PM10,15,54,32
India,Bihar,Bihar Sharif,"D M Colony, Bihar Sharif - BSPCB",21-09-2025 07:00:00,25.204762,85.514960,OZONE,13,44,30
India,Bihar,Buxar,"Charitra Van, Buxar - BSPCB",21-09-2025 07:00:00,25.567520,83.966379,PM10,52,72,70
India,Bihar,Buxar,"Charitra Van, Buxar - BSPCB",21-09-2025 07:00:00,25.567520,83.966379,NH3,3,3,3
India,Bihar,Buxar,"Charitra Van, Buxar - BSPCB",21-09-2025 07:00:00,25.567520,83.966379,OZONE,1,52,2
India,Bihar,Chhapra,"Darshan Nagar, Chhapra - BSPCB",21-09-2025 07:00:00,25.7808257,84.7446768,PM2.5,5,72,34
India,Bihar,Chhapra,"Darshan Nagar, Chhapra - BSPCB",21-09-2025 07:00:00,25.7808257,84.7446768,NO2,1,1,1
India,Bihar,Chhapra,"Darshan Nagar, Chhapra - BSPCB",21-09-2025 07:00:00,25.7808257,84.7446768,NH3,3,4,4
India,Bihar,Gaya,"Collectorate, Gaya - BSPCB",21-09-2025 07:00:00,24.7955,84.9994,NO2,7,10,9
India,Bihar,Motihari,"Gandak Colony, Motihari - BSPCB",21-09-2025 07:00:00,26.63086,84.90051,NO2,3,5,4
India,Bihar,Munger,"Town Hall, Munger - BSPCB",21-09-2025 07:00:00,25.376776,86.471523,NH3,5,7,6
India,Bihar,Muzaffarpur,"Buddha Colony, Muzaffarpur - BSPCB",21-09-2025 07:00:00,26.11442,85.39813,PM10,36,85,56
India,Bihar,Muzaffarpur,"Buddha Colony, Muzaffarpur - BSPCB",21-09-2025 07:00:00,26.11442,85.39813,NH3,4,5,4
India,Bihar,Muzaffarpur,"Buddha Colony, Muzaffarpur - BSPCB",21-09-2025 07:00:00,26.11442,85.39813,CO,20,61,26
India,Bihar,Muzaffarpur,"MIT-Daudpur Kothi, Muzaffarpur - BSPCB",21-09-2025 07:00:00,26.1403345,85.3650192,NH3,1,1,1
India,Assam,Guwahati,"IITG, Guwahati - PCBA",21-09-2025 07:00:00,26.2028636,91.70046436,SO2,22,26,23
India,Assam,Guwahati,"LGBI Airport, Guwahati - PCBA",21-09-2025 07:00:00,26.10887,91.589544,PM2.5,57,58,57
India,Assam,Guwahati,"LGBI Airport, Guwahati - PCBA",21-09-2025 07:00:00,26.10887,91.589544,NH3,6,6,6
India,Assam,Guwahati,"LGBI Airport, Guwahati - PCBA",21-09-2025 07:00:00,26.10887,91.589544,SO2,11,13,12
India,Assam,Guwahati,"Railway Colony, Guwahati - PCBA",21-09-2025 07:00:00,26.181742,91.78063,PM2.5,30,77,46
India,Assam,Nagaon,"Christianpatty, Nagaon - PCBA",21-09-2025 07:00:00,26.349082,92.68449,PM10,47,50,49
India,Bihar,Gaya,"Collectorate, Gaya - BSPCB",21-09-2025 07:00:00,24.7955,84.9994,OZONE,19,21,20
India,Bihar,Gaya,"Kareemganj, Gaya - BSPCB",21-09-2025 07:00:00,24.792403,84.992416,PM2.5,23,243,54
India,Bihar,Gaya,"SFTI Kusdihra, Gaya - BSPCB",21-09-2025 07:00:00,24.762518,84.982348,SO2,7,10,8
India,Bihar,Katihar,"Mirchaibari, Katihar - BSPCB",21-09-2025 07:00:00,25.560083,87.553265,PM10,27,32,30
India,Bihar,Katihar,"Mirchaibari, Katihar - BSPCB",21-09-2025 07:00:00,25.560083,87.553265,NO2,12,16,14
India,Bihar,Katihar,"Mirchaibari, Katihar - BSPCB",21-09-2025 07:00:00,25.560083,87.553265,OZONE,1,22,1
India,Andhra_Pradesh,Vijayawada,"Rajiv Nagar, Vijayawada - APPCB",21-09-2025 07:00:00,16.554731,80.649110,PM10,NA,NA,NA
India,Andhra_Pradesh,Vijayawada,"Rajiv Nagar, Vijayawada - APPCB",21-09-2025 07:00:00,16.554731,80.649110,SO2,NA,NA,NA
India,Andhra_Pradesh,Visakhapatnam,"GVM Corporation, Visakhapatnam - APPCB",21-09-2025 07:00:00,17.72,83.3,PM2.5,29,97,69
India,Andhra_Pradesh,Visakhapatnam,"GVM Corporation, Visakhapatnam - APPCB",21-09-2025 07:00:00,17.72,83.3,NH3,3,3,3
India,Arunachal_Pradesh,Naharlagun,"Naharlagun, Naharlagun - APSPCB",21-09-2025 07:00:00,27.103358,93.679645,PM10,NA,NA,NA
India,Assam,Nalbari,"Bata Chowk, Nalbari - PCBA",21-09-2025 07:00:00,26.446912,91.439057,NO2,1,10,6
India,Assam,Sivasagar,"Girls College, Sivasagar - PCBA",21-09-2025 07:00:00,26.987634,94.636574,PM2.5,27,53,37
India,Assam,Sivasagar,"Girls College, Sivasagar - PCBA",21-09-2025 07:00:00,26.987634,94.636574,NH3,3,4,4
India,Bihar,Araria,"Kharahiya Basti, Araria - BSPCB",21-09-2025 07:00:00,26.146529,87.454184,SO2,8,21,17
India,Bihar,Araria,"Kharahiya Basti, Araria - BSPCB",21-09-2025 07:00:00,26.146529,87.454184,OZONE,10,11,10
India,Andhra_Pradesh,Tirumala,"Toll Gate, Tirumala - APPCB",21-09-2025 07:00:00,13.67,79.35,NH3,1,2,1
India,Andhra_Pradesh,Tirupati,"Vaikuntapuram, Tirupati - APPCB",21-09-2025 07:00:00,13.615387,79.409230,OZONE,27,38,37
India,Andhra_Pradesh,Vijayawada,"HB Colony, Vijayawada - APPCB",21-09-2025 07:00:00,16.536107,80.594233,PM2.5,NA,NA,NA
India,Andaman and Nicobar,Sri Vijaya Puram,"Police Line, Sri Vijaya Puram - ANPCC",21-09-2025 07:00:00,11.654054,92.734055,NO2,NA,NA,NA
India,Andhra_Pradesh,Amaravati,"Secretariat, Amaravati - APPCB",21-09-2025 07:00:00,16.5150833,80.5181667,PM10,NA,NA,NA
India,Bihar,Begusarai,"Lohiyanagar, Begusarai - BSPCB",21-09-2025 07:00:00,25.42742023,86.13886079,PM10,18,44,26
India,Bihar,Bettiah,"Kamalnath Nagar, Bettiah - BSPCB",21-09-2025 07:00:00,26.80365,84.51954,PM2.5,NA,NA,NA
India,Chhattisgarh,Raipur,"Krishak Nagar, Raipur - CECB",21-09-2025 07:00:00,21.237755,81.705301,OZONE,2,2,2
India,Chhattisgarh,Raipur,"Siltara Phase-II, Raipur - CECB",21-09-2025 07:00:00,21.371751,81.664929,NO2,10,59,25
India,Chhattisgarh,Raipur,"Siltara Phase-II, Raipur - CECB",21-09-2025 07:00:00,21.371751,81.664929,NH3,3,3,3
India,Chhattisgarh,Raipur,"Siltara Phase-II, Raipur - CECB",21-09-2025 07:00:00,21.371751,81.664929,SO2,5,11,7
India,Chhattisgarh,Raipur,"Siltara Phase-II, Raipur - CECB",21-09-2025 07:00:00,21.371751,81.664929,CO,32,73,53
India,Chhattisgarh,Raipur,"Siltara Phase-II, Raipur - CECB",21-09-2025 07:00:00,21.371751,81.664929,OZONE,6,21,9
India,Delhi,Delhi,"Alipur, Delhi - DPCC",21-09-2025 07:00:00,28.815329,77.153010,CO,34,66,57
India,Delhi,Delhi,"Alipur, Delhi - DPCC",21-09-2025 07:00:00,28.815329,77.153010,OZONE,6,38,9
India,Delhi,Delhi,"Anand Vihar, Delhi - DPCC",21-09-2025 07:00:00,28.647622,77.3158090,PM10,105,426,199
India,Delhi,Delhi,"Anand Vihar, Delhi - DPCC",21-09-2025 07:00:00,28.647622,77.3158090,NO2,24,61,39
India,Delhi,Delhi,"Anand Vihar, Delhi - DPCC",21-09-2025 07:00:00,28.647622,77.3158090,NH3,5,8,6
India,Delhi,Delhi,"Anand Vihar, Delhi - DPCC",21-09-2025 07:00:00,28.647622,77.3158090,CO,66,115,99
India,Bihar,Patna,"DRM Office Danapur, Patna - BSPCB",21-09-2025 07:00:00,25.586562,85.043586,NO2,27,37,32
India,Bihar,Patna,"DRM Office Danapur, Patna - BSPCB",21-09-2025 07:00:00,25.586562,85.043586,NH3,2,3,3
India,Bihar,Patna,"Govt. High School Shikarpur, Patna - BSPCB",21-09-2025 07:00:00,25.592539,85.227158,PM2.5,22,40,29
India,Bihar,Patna,"Govt. High School Shikarpur, Patna - BSPCB",21-09-2025 07:00:00,25.592539,85.227158,NO2,13,19,17
India,Bihar,Patna,"Govt. High School Shikarpur, Patna - BSPCB",21-09-2025 07:00:00,25.592539,85.227158,OZONE,8,13,11
India,Bihar,Patna,"IGSC Planetarium Complex, Patna - BSPCB",21-09-2025 07:00:00,25.610369,85.132568,NO2,11,15,13
India,Bihar,Patna,"IGSC Planetarium Complex, Patna - BSPCB",21-09-2025 07:00:00,25.610369,85.132568,CO,58,84,64
India,Bihar,Patna,"Muradpur, Patna - BSPCB",21-09-2025 07:00:00,25.619651,85.147382,SO2,NA,NA,NA
India,Bihar,Patna,"Muradpur, Patna - BSPCB",21-09-2025 07:00:00,25.619651,85.147382,OZONE,4,40,5
India,Bihar,Purnia,"Mariam Nagar, Purnia - BSPCB",21-09-2025 07:00:00,25.366336,87.117468,PM10,36,75,52
India,Chhattisgarh,Bhilai,"Civic Center, Bhilai - Bhilai Steel Plant",21-09-2025 07:00:00,21.185571,81.343175,OZONE,9,13,10
India,Chhattisgarh,Bhilai,"Hathkhoj, Bhilai - CECB",21-09-2025 07:00:00,21.224231,81.408350,NO2,7,34,18
India,Chhattisgarh,Bhilai,"Hathkhoj, Bhilai - CECB",21-09-2025 07:00:00,21.224231,81.408350,OZONE,7,25,11
India,Chhattisgarh,Bilaspur,"Mangala, Bilaspur - NTPC",21-09-2025 07:00:00,22.08815,82.13737,SO2,13,18,16
India,Chhattisgarh,Chhal,"Nawapara SECL Colony, Chhal - CECB",21-09-2025 07:00:00,22.118125,83.140608,SO2,NA,NA,NA
India,Chhattisgarh,Korba,"Rampur, Korba - CECB",21-09-2025 07:00:00,22.368195,82.746431,PM10,13,20,14
India,Chhattisgarh,Korba,"Rampur, Korba - CECB",21-09-2025 07:00:00,22.368195,82.746431,NH3,1,1,1
India,Chhattisgarh,Korba,"Rampur, Korba - CECB",21-09-2025 07:00:00,22.368195,82.746431,SO2,8,10,9
India,Chhattisgarh,Korba,"Urja Nagar, Korba - CECB",21-09-2025 07:00:00,22.348441,82.549611,PM10,25,26,25
India,Delhi,Delhi,"Ashok Vihar, Delhi - DPCC",21-09-2025 07:00:00,28.695381,77.181665,PM10,107,147,124
India,Delhi,Delhi,"Aya Nagar, Delhi - IMD",21-09-2025 07:00:00,28.4706914,77.1099364,OZONE,11,95,15
India,Delhi,Delhi,"Bawana, Delhi - DPCC",21-09-2025 07:00:00,28.776200,77.051074,OZONE,7,36,9
India,Delhi,Delhi,"CRRI Mathura Road, Delhi - IMD",21-09-2025 07:00:00,28.5512005,77.2735737,PM2.5,30,98,63
India,Delhi,Delhi,"CRRI Mathura Road, Delhi - IMD",21-09-2025 07:00:00,28.5512005,77.2735737,NO2,21,55,39
India,Delhi,Delhi,"CRRI Mathura Road, Delhi - IMD",21-09-2025 07:00:00,28.5512005,77.2735737,CO,30,112,87
India,Delhi,Delhi,"Chandni Chowk, Delhi - IITM",21-09-2025 07:00:00,28.656756,77.227234,PM2.5,66,119,81
India,Delhi,Delhi,"Chandni Chowk, Delhi - IITM",21-09-2025 07:00:00,28.656756,77.227234,CO,58,74,69
India,Delhi,Delhi,"DTU, Delhi - CPCB",21-09-2025 07:00:00,28.7500499,77.1112615,PM10,94,136,111
India,Delhi,Delhi,"Jahangirpuri, Delhi - DPCC",21-09-2025 07:00:00,28.732820,77.170633,SO2,6,19,11
India,Delhi,Delhi,"Jahangirpuri, Delhi - DPCC",21-09-2025 07:00:00,28.732820,77.170633,OZONE,18,48,21
India,Delhi,Delhi,"Jawaharlal Nehru Stadium, Delhi - DPCC",21-09-2025 07:00:00,28.580280,77.233829,PM10,101,181,135
India,Delhi,Delhi,"Jawaharlal Nehru Stadium, Delhi - DPCC",21-09-2025 07:00:00,28.580280,77.233829,NH3,7,10,9
India,Delhi,Delhi,"Jawaharlal Nehru Stadium, Delhi - DPCC",21-09-2025 07:00:00,28.580280,77.233829,SO2,4,42,12
India,Delhi,Delhi,"Jawaharlal Nehru Stadium, Delhi - DPCC",21-09-2025 07:00:00,28.580280,77.233829,CO,132,156,155
India,Delhi,Delhi,"Lodhi Road, Delhi - IITM",21-09-2025 07:00:00,28.588333,77.221667,PM10,NA,NA,NA
India,Delhi,Delhi,"Major Dhyan Chand National Stadium, Delhi - DPCC",21-09-2025 07:00:00,28.611281,77.237738,CO,30,76,52
India,Delhi,Delhi,"Mandir Marg, Delhi - DPCC",21-09-2025 07:00:00,28.636429,77.201067,PM2.5,10,177,89
India,Chandigarh,Chandigarh,"Sector 22, Chandigarh - CPCC",21-09-2025 07:00:00,30.735567,76.775714,OZONE,3,64,11
India,Chandigarh,Chandigarh,"Sector-25, Chandigarh - CPCC",21-09-2025 07:00:00,30.751462,76.762879,OZONE,4,22,6
India,Chandigarh,Chandigarh,"Sector-53, Chandigarh - CPCC",21-09-2025 07:00:00,30.719859,76.738637,CO,38,66,55
India,Chhattisgarh,Bhilai,"32Bungalows, Bhilai - CECB",21-09-2025 07:00:00,21.194815,81.314770,SO2,7,9,7
India,Chhattisgarh,Bhilai,"Civic Center, Bhilai - Bhilai Steel Plant",21-09-2025 07:00:00,21.185571,81.343175,NO2,8,10,9
India,Bihar,Purnia,"Mariam Nagar, Purnia - BSPCB",21-09-2025 07:00:00,25.366336,87.117468,SO2,NA,NA,NA
India,Bihar,Saharsa,"Police Line, Saharsa - BSPCB",21-09-2025 07:00:00,25.892357,86.590325,PM2.5,5,55,22
India,Bihar,Samastipur,"DM Office_Kasipur, Samastipur - BSPCB",21-09-2025 07:00:00,25.859655,85.77944,PM10,16,218,70
India,Bihar,Samastipur,"DM Office_Kasipur, Samastipur - BSPCB",21-09-2025 07:00:00,25.859655,85.77944,NH3,2,2,2
India,Bihar,Siwan,"Chitragupta Nagar, Siwan - BSPCB",21-09-2025 07:00:00,26.2271665,84.3570427,SO2,1,2,2
India,Delhi,Delhi,"DTU, Delhi - CPCB",21-09-2025 07:00:00,28.7500499,77.1112615,SO2,36,46,40
India,Delhi,Delhi,"Dwarka-Sector 8, Delhi - DPCC ",21-09-2025 07:00:00,28.5710274,77.0719006,OZONE,6,40,9
India,Delhi,Delhi,"IHBAS, Dilshad Garden, Delhi - CPCB",21-09-2025 07:00:00,28.6811736,77.3025234,CO,25,72,65
India,Delhi,Delhi,"IHBAS, Dilshad Garden, Delhi - CPCB",21-09-2025 07:00:00,28.6811736,77.3025234,OZONE,12,19,15
India,Delhi,Delhi,"ITO, Delhi - CPCB",21-09-2025 07:00:00,28.628624,77.241060,CO,31,65,51
India,Chhattisgarh,Raipur,"AIIMS, Raipur - CECB",21-09-2025 07:00:00,21.258815,81.578979,PM2.5,9,34,23
India,Chhattisgarh,Raipur,"AIIMS, Raipur - CECB",21-09-2025 07:00:00,21.258815,81.578979,NO2,8,12,10
India,Chhattisgarh,Raipur,"AIIMS, Raipur - CECB",21-09-2025 07:00:00,21.258815,81.578979,SO2,10,13,11
India,Delhi,Delhi,"Nehru Nagar, Delhi - DPCC",21-09-2025 07:00:00,28.567890,77.250515,NO2,8,31,16
India,Delhi,Delhi,"Nehru Nagar, Delhi - DPCC",21-09-2025 07:00:00,28.567890,77.250515,CO,2,26,6
India,Delhi,Delhi,"Nehru Nagar, Delhi - DPCC",21-09-2025 07:00:00,28.567890,77.250515,OZONE,6,66,9
India,Delhi,Delhi,"North Campus, DU, Delhi - IMD",21-09-2025 07:00:00,28.6573814,77.1585447,PM2.5,36,85,52
India,Delhi,Delhi,"Okhla Phase-2, Delhi - DPCC",21-09-2025 07:00:00,28.530785,77.271255,PM2.5,32,98,50
India,Delhi,Delhi,"Okhla Phase-2, Delhi - DPCC",21-09-2025 07:00:00,28.530785,77.271255,SO2,4,7,5
India,Delhi,Delhi,"Patparganj, Delhi - DPCC",21-09-2025 07:00:00,28.623763,77.287209,OZONE,1,56,1
India,Delhi,Delhi,"Punjabi Bagh, Delhi - DPCC",21-09-2025 07:00:00,28.674045,77.131023,PM10,NA,NA,NA
India,Delhi,Delhi,"Punjabi Bagh, Delhi - DPCC",21-09-2025 07:00:00,28.674045,77.131023,CO,16,54,44
India,Gujarat,Vatva,"Phase-4 GIDC, Vatva - GPCB",21-09-2025 07:00:00,22.969611,72.643500,PM2.5,22,22,22
India,Gujarat,Vatva,"Phase-4 GIDC, Vatva - GPCB",21-09-2025 07:00:00,22.969611,72.643500,CO,8,18,8
India,Haryana,Gurugram,"NISE Gwal Pahari, Gurugram - IMD",21-09-2025 07:00:00,28.422681,77.148944,NO2,5,15,10
India,Haryana,Panchgaon,"Amity University, Panchgaon - IITM",21-09-2025 07:00:00,28.3153,76.9143,PM10,52,118,74
India,Himachal Pradesh,Baddi,"HIMUDA Complex Phase-1, Baddi - HPPCB",21-09-2025 07:00:00,30.943887,76.801991,PM2.5,32,163,69
India,Himachal Pradesh,Baddi,"HIMUDA Complex Phase-1, Baddi - HPPCB",21-09-2025 07:00:00,30.943887,76.801991,PM10,62,212,122
India,Himachal Pradesh,Baddi,"HIMUDA Complex Phase-1, Baddi - HPPCB",21-09-2025 07:00:00,30.943887,76.801991,OZONE,7,80,23
India,Delhi,Delhi,"Wazirpur, Delhi - DPCC",21-09-2025 07:00:00,28.699793,77.165453,SO2,11,26,20
India,Gujarat,Ahmedabad,"Chandkheda, Ahmedabad - IITM",21-09-2025 07:00:00,23.107969,72.574648,PM10,25,71,46
India,Gujarat,Ahmedabad,"Chandkheda, Ahmedabad - IITM",21-09-2025 07:00:00,23.107969,72.574648,OZONE,1,40,1
India,Gujarat,Ahmedabad,"Gyaspur, Ahmedabad - IITM",21-09-2025 07:00:00,22.977134,72.553024,SO2,7,16,12
India,Gujarat,Ahmedabad,"Maninagar, Ahmedabad - GPCB",21-09-2025 07:00:00,23.002657,72.591912,PM10,38,358,124
India,Gujarat,Ahmedabad,"Raikhad, Ahmedabad - IITM",21-09-2025 07:00:00,23.020509,72.579261,PM2.5,28,70,51
India,Gujarat,Ahmedabad,"Raikhad, Ahmedabad - IITM",21-09-2025 07:00:00,23.020509,72.579261,PM10,32,83,61
India,Gujarat,Ahmedabad,"Raikhad, Ahmedabad - IITM",21-09-2025 07:00:00,23.020509,72.579261,NH3,13,17,15
India,Gujarat,Gandhinagar,"IIPHG Lekawada, Gandhinagar - IITM",21-09-2025 07:00:00,23.243639,72.68994,NO2,1,6,4
India,Gujarat,Gandhinagar,"IIPHG Lekawada, Gandhinagar - IITM",21-09-2025 07:00:00,23.243639,72.68994,CO,27,81,64
India,Gujarat,Gandhinagar,"Sector-10, Gandhinagar - GPCB",21-09-2025 07:00:00,23.221714,72.654328,NO2,11,11,11
India,Gujarat,Gandhinagar,"Sector-10, Gandhinagar - GPCB",21-09-2025 07:00:00,23.221714,72.654328,OZONE,5,25,11
India,Gujarat,Nandesari,"GIDC, Nandesari - Nandesari Ind. Association",21-09-2025 07:00:00,22.410802,73.097923,PM2.5,NA,NA,NA
India,Gujarat,Nandesari,"GIDC, Nandesari - Nandesari Ind. Association",21-09-2025 07:00:00,22.410802,73.097923,NO2,NA,NA,NA
India,Gujarat,Vapi,"Phase-1 GIDC, Vapi - GPCB",21-09-2025 07:00:00,20.362421,72.918013,PM10,44,145,82
India,Gujarat,Ahmedabad,"Rakhial, Ahmedabad - IITM",21-09-2025 07:00:00,23.016834,72.625775,NH3,2,10,5
India,Gujarat,Ahmedabad,"Rakhial, Ahmedabad - IITM",21-09-2025 07:00:00,23.016834,72.625775,CO,64,152,67
India,Gujarat,Ahmedabad,"Rakhial, Ahmedabad - IITM",21-09-2025 07:00:00,23.016834,72.625775,OZONE,1,13,9
India,Gujarat,Ahmedabad,"SAC ISRO Bopal, Ahmedabad - IITM",21-09-2025 07:00:00,23.041137,72.456691,PM2.5,20,83,52
India,Gujarat,Ahmedabad,"SAC ISRO Bopal, Ahmedabad - IITM",21-09-2025 07:00:00,23.041137,72.456691,CO,12,42,24
India,Gujarat,Ahmedabad,"SAC ISRO Satellite, Ahmedabad - IITM",21-09-2025 07:00:00,23.023389,72.515201,SO2,3,5,4
India,Gujarat,Ahmedabad,"SVPI Airport Hansol, Ahmedabad - IITM",21-09-2025 07:00:00,23.076793,72.627874,NH3,1,2,1
India,Delhi,Delhi,"Mandir Marg, Delhi - DPCC",21-09-2025 07:00:00,28.636429,77.201067,NO2,2,34,15
India,Delhi,Delhi,"Mandir Marg, Delhi - DPCC",21-09-2025 07:00:00,28.636429,77.201067,OZONE,7,94,17
India,Delhi,Delhi,"Mundka, Delhi - DPCC",21-09-2025 07:00:00,28.684678,77.076574,OZONE,3,53,5
India,Delhi,Delhi,"NSIT Dwarka, Delhi - CPCB",21-09-2025 07:00:00,28.60909,77.0325413,PM10,73,103,91
India,Delhi,Delhi,"Najafgarh, Delhi - DPCC",21-09-2025 07:00:00,28.570173,76.933762,NH3,6,12,2
India,Delhi,Delhi,"Narela, Delhi - DPCC",21-09-2025 07:00:00,28.822836,77.101981,SO2,1,9,5
India,Delhi,Delhi,"Pusa, Delhi - DPCC",21-09-2025 07:00:00,28.639652,77.146275,PM2.5,40,85,59
India,Delhi,Delhi,"R K Puram, Delhi - DPCC",21-09-2025 07:00:00,28.563262,77.186937,PM10,91,159,118
India,Delhi,Delhi,"R K Puram, Delhi - DPCC",21-09-2025 07:00:00,28.563262,77.186937,CO,7,82,43
India,Delhi,Delhi,"Rohini, Delhi - DPCC",21-09-2025 07:00:00,28.732528,77.119920,SO2,2,3,3
India,Delhi,Delhi,"Rohini, Delhi - DPCC",21-09-2025 07:00:00,28.732528,77.119920,OZONE,2,30,4
India,Delhi,Delhi,"Shadipur, Delhi - CPCB",21-09-2025 07:00:00,28.6514781,77.1473105,CO,28,58,43
India,Delhi,Delhi,"Shadipur, Delhi - CPCB",21-09-2025 07:00:00,28.6514781,77.1473105,OZONE,6,8,6
India,Delhi,Delhi,"Sirifort, Delhi - CPCB",21-09-2025 07:00:00,28.5504249,77.2159377,PM2.5,1,91,51
India,Delhi,Delhi,"Sirifort, Delhi - CPCB",21-09-2025 07:00:00,28.5504249,77.2159377,SO2,28,35,30
India,Delhi,Delhi,"Vivek Vihar, Delhi - DPCC",21-09-2025 07:00:00,28.672342,77.315260,PM2.5,45,69,58
India,Delhi,Delhi,"Vivek Vihar, Delhi - DPCC",21-09-2025 07:00:00,28.672342,77.315260,SO2,11,27,19
India,Karnataka,Bagalkot,"Vidayagiri, Bagalkot - KSPCB",21-09-2025 07:00:00,16.172806,75.659694,NO2,9,11,9
India,Karnataka,Bagalkot,"Vidayagiri, Bagalkot - KSPCB",21-09-2025 07:00:00,16.172806,75.659694,SO2,7,7,7
India,Karnataka,Bengaluru,"Bapuji Nagar, Bengaluru - KSPCB",21-09-2025 07:00:00,12.951913,77.539784,PM2.5,29,183,73
India,Karnataka,Tumakuru,"Thimmalapura, Tumakuru - KSPCB",21-09-2025 07:00:00,13.377516,77.099072,PM10,NA,NA,NA
India,Karnataka,Tumakuru,"Thimmalapura, Tumakuru - KSPCB",21-09-2025 07:00:00,13.377516,77.099072,NH3,NA,NA,NA
India,Kerala,Eloor,"Udyogamandal, Eloor - Kerala PCB",21-09-2025 07:00:00,10.073232,76.302765,PM2.5,NA,NA,NA
India,Kerala,Eloor,"Udyogamandal, Eloor - Kerala PCB",21-09-2025 07:00:00,10.073232,76.302765,PM10,NA,NA,NA
India,Kerala,Eloor,"Udyogamandal, Eloor - Kerala PCB",21-09-2025 07:00:00,10.073232,76.302765,OZONE,NA,NA,NA
India,Kerala,Kannur,"Thavakkara, Kannur - Kerala PCB",21-09-2025 07:00:00,11.875000,75.373200,PM10,58,62,59
India,Kerala,Kannur,"Thavakkara, Kannur - Kerala PCB",21-09-2025 07:00:00,11.875000,75.373200,SO2,5,6,6
India,Kerala,Kannur,"Thavakkara, Kannur - Kerala PCB",21-09-2025 07:00:00,11.875000,75.373200,CO,14,16,16
India,Kerala,Kollam,"Polayathode, Kollam - Kerala PCB",21-09-2025 07:00:00,8.8787,76.6073,PM10,50,77,62
India,Kerala,Kollam,"Polayathode, Kollam - Kerala PCB",21-09-2025 07:00:00,8.8787,76.6073,NO2,9,10,9
India,Kerala,Kollam,"Polayathode, Kollam - Kerala PCB",21-09-2025 07:00:00,8.8787,76.6073,SO2,2,3,2
India,Madhya Pradesh,Bhopal,"T T Nagar, Bhopal - MPPCB",21-09-2025 07:00:00,23.233584,77.400574,SO2,7,12,9
India,Madhya Pradesh,Dewas,"Bhopal Chauraha, Dewas - MPPCB",21-09-2025 07:00:00,22.9682591,76.064118,CO,7,103,16
India,Madhya Pradesh,Gwalior,"City Center, Gwalior - MPPCB",21-09-2025 07:00:00,26.203442,78.193251,PM2.5,22,92,44
India,Madhya Pradesh,Gwalior,"City Center, Gwalior - MPPCB",21-09-2025 07:00:00,26.203442,78.193251,PM10,28,110,62
India,Madhya Pradesh,Gwalior,"Deen Dayal Nagar, Gwalior - MPPCB",21-09-2025 07:00:00,26.259242,78.216432,NH3,2,5,4
India,Madhya Pradesh,Gwalior,"Deen Dayal Nagar, Gwalior - MPPCB",21-09-2025 07:00:00,26.259242,78.216432,SO2,5,19,8
India,Madhya Pradesh,Gwalior,"Maharaj Bada, Gwalior - MPPCB",21-09-2025 07:00:00,26.200388,78.147714,PM10,45,153,80
India,Madhya Pradesh,Gwalior,"Maharaj Bada, Gwalior - MPPCB",21-09-2025 07:00:00,26.200388,78.147714,NH3,3,3,3
India,Madhya Pradesh,Jabalpur,"Govindh Bhavan Colony, Jabalpur - JMC",21-09-2025 07:00:00,23.163174,79.973061,CO,15,42,24
India,Madhya Pradesh,Jabalpur,"Gupteshwar, Jabalpur - JMC",21-09-2025 07:00:00,23.142888,79.916147,PM2.5,15,40,23
India,Madhya Pradesh,Jabalpur,"Suhagi, Jabalpur - JMC",21-09-2025 07:00:00,23.218135,79.957770,PM2.5,19,75,47
India,Madhya Pradesh,Jabalpur,"Suhagi, Jabalpur - JMC",21-09-2025 07:00:00,23.218135,79.957770,PM10,NA,NA,NA
India,Madhya Pradesh,Katni,"Gole Bazar, Katni - MPPCB",21-09-2025 07:00:00,23.50016,80.23284,SO2,4,41,20
India,Madhya Pradesh,Katni,"Gole Bazar, Katni - MPPCB",21-09-2025 07:00:00,23.50016,80.23284,OZONE,14,72,18
India,Madhya Pradesh,Maihar,"Sahilara, Maihar - KJS Cements",21-09-2025 07:00:00,24.2613009,80.7231783,PM10,NA,NA,NA
India,Madhya Pradesh,Maihar,"Sahilara, Maihar - KJS Cements",21-09-2025 07:00:00,24.2613009,80.7231783,NO2,NA,NA,NA
India,Madhya Pradesh,Indore,"Chhoti Gwaltoli, Indore - MPPCB",21-09-2025 07:00:00,22.4310,75.5213,PM2.5,6,82,43
India,Madhya Pradesh,Indore,"Chhoti Gwaltoli, Indore - MPPCB",21-09-2025 07:00:00,22.4310,75.5213,PM10,24,84,54
India,Madhya Pradesh,Indore,"Maguda Nagar, Indore - IMC",21-09-2025 07:00:00,22.7524,75.8872,NO2,2,2,2
India,Madhya Pradesh,Indore,"Regional Park, Indore - IMC",21-09-2025 07:00:00,22.6780,75.8559,PM2.5,7,44,16
India,Madhya Pradesh,Indore,"Regional Park, Indore - IMC",21-09-2025 07:00:00,22.6780,75.8559,PM10,7,69,24
India,Madhya Pradesh,Indore,"Regional Park, Indore - IMC",21-09-2025 07:00:00,22.6780,75.8559,NO2,11,19,13
India,Madhya Pradesh,Indore,"Residency Area, Indore - IMC",21-09-2025 07:00:00,22.7084,75.8815,NO2,12,19,16
India,Madhya Pradesh,Jabalpur,"Govindh Bhavan Colony, Jabalpur - JMC",21-09-2025 07:00:00,23.163174,79.973061,NH3,1,2,1
India,Kerala,Thiruvananthapuram,"Kariavattom, Thiruvananthapuram - Kerala PCB",21-09-2025 07:00:00,8.563700,76.886500,NH3,1,1,1
India,Kerala,Thiruvananthapuram,"Plammoodu, Thiruvananthapuram - Kerala PCB",21-09-2025 07:00:00,8.5149093,76.9435879,NO2,50,108,75
India,Kerala,Thiruvananthapuram,"Plammoodu, Thiruvananthapuram - Kerala PCB",21-09-2025 07:00:00,8.5149093,76.9435879,NH3,7,14,10
India,Madhya Pradesh,Bhopal,"Idgah Hills, Bhopal - MPPCB",21-09-2025 07:00:00,23.264759,77.381568,NO2,9,29,18
India,Madhya Pradesh,Bhopal,"Idgah Hills, Bhopal - MPPCB",21-09-2025 07:00:00,23.264759,77.381568,SO2,9,12,10
India,Madhya Pradesh,Bhopal,"Idgah Hills, Bhopal - MPPCB",21-09-2025 07:00:00,23.264759,77.381568,OZONE,17,49,34
India,Madhya Pradesh,Bhopal,"Paryavaran Parisar, Bhopal - MPPCB",21-09-2025 07:00:00,23.210494,77.425409,PM2.5,3,83,32
India,Karnataka,Chikkaballapur,"Chikkaballapur Rural, Chikkaballapur - KSPCB",21-09-2025 07:00:00,13.428828,77.731418,NH3,2,4,3
India,Karnataka,Chikkaballapur,"Chikkaballapur Rural, Chikkaballapur - KSPCB",21-09-2025 07:00:00,13.428828,77.731418,SO2,13,27,19
India,Karnataka,Chikkamagaluru,"Kalyana Nagara, Chikkamagaluru - KSPCB",21-09-2025 07:00:00,13.328028,75.797056,PM10,30,37,35
India,Karnataka,Chikkamagaluru,"Kalyana Nagara, Chikkamagaluru - KSPCB",21-09-2025 07:00:00,13.328028,75.797056,NO2,17,30,20
India,Karnataka,Chikkamagaluru,"Kalyana Nagara, Chikkamagaluru - KSPCB",21-09-2025 07:00:00,13.328028,75.797056,NH3,2,4,2
India,Karnataka,Chikkamagaluru,"Kalyana Nagara, Chikkamagaluru - KSPCB",21-09-2025 07:00:00,13.328028,75.797056,OZONE,32,60,59
India,Karnataka,Davanagere,"Devaraj Urs Badavane, Davanagere - KSPCB",21-09-2025 07:00:00,14.475800,75.905200,NH3,1,3,2
India,Karnataka,Davanagere,"Devaraj Urs Badavane, Davanagere - KSPCB",21-09-2025 07:00:00,14.475800,75.905200,CO,6,22,13
India,Karnataka,Dharwad,"Kalabhavan, Dharwad - KSPCB",21-09-2025 07:00:00,15.459706,75.008381,PM10,NA,NA,NA
India,Karnataka,Hassan,"B.Katihalli, Hassan - KSPCB",21-09-2025 07:00:00,13.008556,76.125258,SO2,1,1,1
India,Karnataka,Hubballi,"Lingaraj Nagar, Hubballi - KSPCB",21-09-2025 07:00:00,15.3714823,75.1160168,SO2,1,2,1
India,Karnataka,Kalaburagi,"Lal Bahadur Shastri Nagar, Kalaburagi - KSPCB",21-09-2025 07:00:00,17.321993,76.822628,NH3,1,2,1
India,Karnataka,Kalaburagi,"Lal Bahadur Shastri Nagar, Kalaburagi - KSPCB",21-09-2025 07:00:00,17.321993,76.822628,CO,32,42,38
India,Karnataka,Kalaburagi,"Mahatma Basaveswar Colony, Kalaburgi - KSPCB",21-09-2025 07:00:00,17.336318,76.847397,OZONE,8,16,12
India,Karnataka,Karwar,"KHB Colony, Karwar - KSPCB",21-09-2025 07:00:00,14.816666,74.141003,PM2.5,2,10,4
India,Karnataka,Karwar,"KHB Colony, Karwar - KSPCB",21-09-2025 07:00:00,14.816666,74.141003,NH3,1,1,1
India,Karnataka,Mangalore,"Kadri, Mangalore - KSPCB",21-09-2025 07:00:00,12.889250,74.853000,OZONE,10,31,23
India,Karnataka,Shivamogga,"Vinoba Nagara, Shivamogga - KSPCB",21-09-2025 07:00:00,13.940000,75.555917,CO,10,32,14
India,Karnataka,Bengaluru,"Hombegowda Nagar, Bengaluru - KSPCB",21-09-2025 07:00:00,12.938539,77.590100,SO2,4,14,9
India,Karnataka,Bengaluru,"Hombegowda Nagar, Bengaluru - KSPCB",21-09-2025 07:00:00,12.938539,77.590100,CO,10,32,14
India,Karnataka,Bengaluru,"Jayanagar 5th Block, Bengaluru - KSPCB",21-09-2025 07:00:00,12.920984,77.584908,CO,4,28,9
India,Maharashtra,Bhiwandi,"Gokul Nagar, Bhiwandi - MPCB",21-09-2025 07:00:00,19.309073,73.057223,NO2,33,56,48
India,Maharashtra,Bhiwandi,"Gokul Nagar, Bhiwandi - MPCB",21-09-2025 07:00:00,19.309073,73.057223,OZONE,17,37,22
India,Maharashtra,Boisar,"Khaira, Boisar - MPCB",21-09-2025 07:00:00,19.786089,72.757971,NH3,5,11,7
India,Maharashtra,Chandrapur,"Chauhan Colony, Chandrapur - MPCB",21-09-2025 07:00:00,19.962900,79.298714,NH3,3,3,3
India,Maharashtra,Chandrapur,"Chauhan Colony, Chandrapur - MPCB",21-09-2025 07:00:00,19.962900,79.298714,OZONE,23,23,23
India,Maharashtra,Dhule,"Deopur, Dhule - MPCB",21-09-2025 07:00:00,20.918946,74.776388,NH3,NA,NA,NA
India,Maharashtra,Dhule,"Deopur, Dhule - MPCB",21-09-2025 07:00:00,20.918946,74.776388,SO2,NA,NA,NA
India,Maharashtra,Dhule,"Deopur, Dhule - MPCB",21-09-2025 07:00:00,20.918946,74.776388,CO,NA,NA,NA
India,Maharashtra,Dhule,"Deopur, Dhule - MPCB",21-09-2025 07:00:00,20.918946,74.776388,OZONE,NA,NA,NA
India,Maharashtra,Jalgaon,"Prabhat Colony, Jalgaon - MPCB",21-09-2025 07:00:00,21.001264,75.565602,NO2,4,13,8
India,Maharashtra,Jalgaon,"Prabhat Colony, Jalgaon - MPCB",21-09-2025 07:00:00,21.001264,75.565602,SO2,5,6,5
India,Madhya Pradesh,Singrauli,"Suryakiran Bhawan NCL, Singrauli - MPPCB",21-09-2025 07:00:00,24.108970,82.645580,SO2,25,51,37
India,Maharashtra,Ahmednagar,"Tarakpur, Ahmednagar - MPCB",21-09-2025 07:00:00,19.10122,74.73339,PM2.5,5,23,14
India,Maharashtra,Akola,"Ramdaspeth, Akola - MPCB",21-09-2025 07:00:00,20.719516,77.000253,NO2,12,23,16
India,Maharashtra,Akola,"Ramdaspeth, Akola - MPCB",21-09-2025 07:00:00,20.719516,77.000253,NH3,3,8,5
India,Maharashtra,Amravati,"Shivneri Colony, Amravati - MPCB",21-09-2025 07:00:00,20.9402359,77.7895248,PM2.5,16,69,38
India,Maharashtra,Amravati,"Shivneri Colony, Amravati - MPCB",21-09-2025 07:00:00,20.9402359,77.7895248,NO2,4,18,9
India,Maharashtra,Amravati,"Shri Shivaji Science College, Amravati - MPCB",21-09-2025 07:00:00,20.939198,77.765701,PM2.5,16,56,34
India,Maharashtra,Amravati,"Shri Shivaji Science College, Amravati - MPCB",21-09-2025 07:00:00,20.939198,77.765701,OZONE,8,45,19
India,Maharashtra,Kolhapur,"Sinchan Bhavan, Kolhapur - MPCB",21-09-2025 07:00:00,16.7143745,74.2426398,NH3,4,7,5
India,Maharashtra,Kolhapur,"Sinchan Bhavan, Kolhapur - MPCB",21-09-2025 07:00:00,16.7143745,74.2426398,OZONE,8,22,10
India,Maharashtra,Latur,"Sawe Wadi, Latur - MPCB",21-09-2025 07:00:00,18.39963,76.57452,CO,4,27,11
India,Maharashtra,Mahad,"Kamble Tarf Birwadi, Mahad - MPCB",21-09-2025 07:00:00,18.1023399,73.4783687,NO2,22,65,31
India,Maharashtra,Mahad,"Kamble Tarf Birwadi, Mahad - MPCB",21-09-2025 07:00:00,18.1023399,73.4783687,SO2,21,63,31
India,Maharashtra,Mira-Bhayandar,"Bhayandar West, Mira-Bhayandar - MPCB",21-09-2025 07:00:00,19.296481,72.840923,PM2.5,8,31,18
India,Maharashtra,Mira-Bhayandar,"Bhayandar West, Mira-Bhayandar - MPCB",21-09-2025 07:00:00,19.296481,72.840923,PM10,9,64,29
India,Maharashtra,Mira-Bhayandar,"Bhayandar West, Mira-Bhayandar - MPCB",21-09-2025 07:00:00,19.296481,72.840923,SO2,1,2,1
India,Madhya Pradesh,Maihar,"Sahilara, Maihar - KJS Cements",21-09-2025 07:00:00,24.2613009,80.7231783,SO2,NA,NA,NA
India,Madhya Pradesh,Mandideep,"Sector-D Industrial Area, Mandideep - MPPCB",21-09-2025 07:00:00,23.108440,77.511428,PM2.5,29,167,64
India,Madhya Pradesh,Mandideep,"Sector-D Industrial Area, Mandideep - MPPCB",21-09-2025 07:00:00,23.108440,77.511428,PM10,44,162,85
India,Madhya Pradesh,Mandideep,"Sector-D Industrial Area, Mandideep - MPPCB",21-09-2025 07:00:00,23.108440,77.511428,NH3,1,3,3
India,Madhya Pradesh,Pithampur,"Sector-2 Industrial Area, Pithampur - MPPCB",21-09-2025 07:00:00,22.624758,75.675238,NO2,5,25,12
India,Madhya Pradesh,Satna,"Bandhavgar Colony, Satna - Birla Cement",21-09-2025 07:00:00,24.58434363,80.8549414,PM10,53,54,53
India,Madhya Pradesh,Satna,"Bandhavgar Colony, Satna - Birla Cement",21-09-2025 07:00:00,24.58434363,80.8549414,SO2,18,19,18
India,Maharashtra,Mumbai,"Bandra Kurla Complex, Mumbai - IITM",21-09-2025 07:00:00,19.053536,72.84643,SO2,1,4,3
India,Maharashtra,Mumbai,"Bandra Kurla Complex, Mumbai - IITM",21-09-2025 07:00:00,19.053536,72.84643,CO,1,16,9
India,Maharashtra,Mumbai,"Bandra Kurla Complex, Mumbai - IITM",21-09-2025 07:00:00,19.053536,72.84643,OZONE,1,7,1
India,Maharashtra,Mumbai,"Bandra Kurla Complex, Mumbai - MPCB",21-09-2025 07:00:00,19.065931,72.862131,NH3,NA,NA,NA
India,Maharashtra,Mumbai,"Borivali East, Mumbai - IITM",21-09-2025 07:00:00,19.23241,72.86895,PM10,35,87,57
India,Maharashtra,Mumbai,"Borivali East, Mumbai - IITM",21-09-2025 07:00:00,19.23241,72.86895,NO2,NA,NA,NA
India,Maharashtra,Mumbai,"Borivali East, Mumbai - MPCB",21-09-2025 07:00:00,19.2243333,72.8658113,CO,2,2,2
India,Maharashtra,Mumbai,"Byculla, Mumbai - BMC",21-09-2025 07:00:00,18.9767,72.8380,CO,2,26,13
India,Maharashtra,Mumbai,"Chakala-Andheri East, Mumbai - IITM",21-09-2025 07:00:00,19.11074,72.86084,SO2,1,24,8
India,Maharashtra,Mumbai,"Chembur, Mumbai - MPCB",21-09-2025 07:00:00,19.0364585,72.8954371,NO2,NA,NA,NA
India,Maharashtra,Mumbai,"Chembur, Mumbai - MPCB",21-09-2025 07:00:00,19.0364585,72.8954371,NH3,NA,NA,NA
India,Maharashtra,Mumbai,"Chembur, Mumbai - MPCB",21-09-2025 07:00:00,19.0364585,72.8954371,SO2,NA,NA,NA
India,Maharashtra,Mumbai,"Colaba, Mumbai - MPCB",21-09-2025 07:00:00,18.910000,72.820000,NH3,3,3,3
India,Maharashtra,Mumbai,"Deonar, Mumbai - IITM",21-09-2025 07:00:00,19.04946,72.9230,NH3,10,12,11
India,Maharashtra,Mumbai,"Deonar, Mumbai - IITM",21-09-2025 07:00:00,19.04946,72.9230,SO2,5,8,6
India,Maharashtra,Mumbai,"Ghatkopar, Mumbai - BMC",21-09-2025 07:00:00,19.083694,72.920967,NO2,12,34,18
India,Maharashtra,Aurangabad,"Rachnakar Colony, Aurangabad - MPCB",21-09-2025 07:00:00,19.863756,75.321188,SO2,13,27,22
India,Maharashtra,Badlapur,"Katrap, Badlapur - MPCB",21-09-2025 07:00:00,19.16485,73.23409,PM2.5,32,43,37
India,Maharashtra,Badlapur,"Katrap, Badlapur - MPCB",21-09-2025 07:00:00,19.16485,73.23409,NH3,5,10,9
India,Maharashtra,Badlapur,"Katrap, Badlapur - MPCB",21-09-2025 07:00:00,19.16485,73.23409,CO,9,30,14
India,Maharashtra,Belapur,"CBD Belapur, Belapur - MPCB",21-09-2025 07:00:00,19.0243902,73.0406721,SO2,1,12,8
India,Maharashtra,Belapur,"CBD Belapur, Belapur - MPCB",21-09-2025 07:00:00,19.0243902,73.0406721,CO,4,21,9
India,Maharashtra,Belapur,"CBD Belapur, Belapur - MPCB",21-09-2025 07:00:00,19.0243902,73.0406721,OZONE,14,30,15
India,Maharashtra,Jalna,"Old MIDC, Jalna - MPCB",21-09-2025 07:00:00,19.854616,75.905894,NH3,2,5,4
India,Maharashtra,Kalyan,"Khadakpada, Kalyan - MPCB",21-09-2025 07:00:00,19.25292,73.142019,PM10,24,121,66
India,Maharashtra,Kalyan,"Khadakpada, Kalyan - MPCB",21-09-2025 07:00:00,19.25292,73.142019,OZONE,16,16,16
India,Maharashtra,Kolhapur,"Shivaji University, Kolhapur - MPCB",21-09-2025 07:00:00,16.6870449,74.2505872,PM10,32,68,53
India,Maharashtra,Kolhapur,"Sinchan Bhavan, Kolhapur - MPCB",21-09-2025 07:00:00,16.7143745,74.2426398,NO2,1,4,2
India,Maharashtra,Mumbai,"Kandivali West, Mumbai - BMC",21-09-2025 07:00:00,19.215859,72.831718,NO2,13,15,14
India,Maharashtra,Mumbai,"Khindipada-Bhandup West, Mumbai - IITM",21-09-2025 07:00:00,19.1653323,72.922099,NH3,4,6,5
India,Maharashtra,Mumbai,"Malad West, Mumbai - IITM",21-09-2025 07:00:00,19.19709,72.82204,SO2,5,6,5
India,Maharashtra,Thane,"Kasarvadavali, Thane - MPCB",21-09-2025 07:00:00,19.26777,72.97182,NO2,4,21,14
India,Maharashtra,Thane,"Upvan Fort, Thane - MPCB",21-09-2025 07:00:00,19.222279,72.957979,CO,5,44,31
India,Maharashtra,Ulhasnagar,"Sidhi Vinayak Nagar, Ulhasnagar - MPCB",21-09-2025 07:00:00,19.235581,73.159121,PM2.5,22,39,31
India,Maharashtra,Ulhasnagar,"Sidhi Vinayak Nagar, Ulhasnagar - MPCB",21-09-2025 07:00:00,19.235581,73.159121,NO2,33,56,49
India,Maharashtra,Ulhasnagar,"Sidhi Vinayak Nagar, Ulhasnagar - MPCB",21-09-2025 07:00:00,19.235581,73.159121,NH3,5,10,9
India,Maharashtra,Ulhasnagar,"Sidhi Vinayak Nagar, Ulhasnagar - MPCB",21-09-2025 07:00:00,19.235581,73.159121,CO,22,52,32
India,Meghalaya,Shillong,"JN Stadium, Shillong - Meghalaya PCB",21-09-2025 07:00:00,25.5803419,91.8942571,PM2.5,NA,NA,NA
India,Meghalaya,Shillong,"JN Stadium, Shillong - Meghalaya PCB",21-09-2025 07:00:00,25.5803419,91.8942571,NO2,2,9,6
India,Maharashtra,Navi Mumbai,"Mahape, Navi Mumbai - MPCB",21-09-2025 07:00:00,19.1135051,73.008978,CO,15,20,18
India,Maharashtra,Navi Mumbai,"Mahape, Navi Mumbai - MPCB",21-09-2025 07:00:00,19.1135051,73.008978,OZONE,7,10,10
India,Maharashtra,Navi Mumbai,"Sanpada, Navi Mumbai - MPCB",21-09-2025 07:00:00,19.0575752,73.0151367,OZONE,12,12,12
India,Maharashtra,Navi Mumbai,"Sector-2E Kalamboli, Navi Mumbai - MPCB",21-09-2025 07:00:00,19.02579,73.10297,SO2,1,5,2
India,Maharashtra,Parbhani,"Masoom Colony, Parbhani - MPCB",21-09-2025 07:00:00,19.265594,76.761463,CO,40,60,47
India,Maharashtra,Pimpri-Chinchwad,"Gavalinagar, Pimpri Chinchwad - MPCB",21-09-2025 07:00:00,18.63673,73.82487,SO2,2,3,3
India,Maharashtra,Pimpri-Chinchwad,"Gavalinagar, Pimpri Chinchwad - MPCB",21-09-2025 07:00:00,18.63673,73.82487,OZONE,10,11,10
India,Maharashtra,Mumbai,"Siddharth Nagar-Worli, Mumbai - IITM",21-09-2025 07:00:00,19.000083,72.813993,PM2.5,8,40,22
India,Maharashtra,Mumbai,"Siddharth Nagar-Worli, Mumbai - IITM",21-09-2025 07:00:00,19.000083,72.813993,NO2,58,84,66
India,Maharashtra,Mumbai,"Siddharth Nagar-Worli, Mumbai - IITM",21-09-2025 07:00:00,19.000083,72.813993,CO,44,82,65
India,Maharashtra,Mumbai,"Vasai West, Mumbai - MPCB",21-09-2025 07:00:00,19.383200,72.820400,NO2,NA,NA,NA
India,Maharashtra,Mumbai,"Vasai West, Mumbai - MPCB",21-09-2025 07:00:00,19.383200,72.820400,SO2,NA,NA,NA
India,Maharashtra,Mumbai,"Vasai West, Mumbai - MPCB",21-09-2025 07:00:00,19.383200,72.820400,CO,NA,NA,NA
India,Maharashtra,Mumbai,"Vasai West, Mumbai - MPCB",21-09-2025 07:00:00,19.383200,72.820400,OZONE,NA,NA,NA
India,Maharashtra,Mumbai,"Vile Parle West, Mumbai - MPCB",21-09-2025 07:00:00,19.10861,72.83622,PM10,16,41,26
India,Maharashtra,Nagpur,"Ambazari, Nagpur - MPCB",21-09-2025 07:00:00,21.121801,79.04952,PM10,22,45,32
India,Meghalaya,Shillong,"Lumpyngngad, Shillong - Meghalaya PCB",21-09-2025 07:00:00,25.5586,91.8985,PM2.5,1,24,11
India,Meghalaya,Shillong,"Lumpyngngad, Shillong - Meghalaya PCB",21-09-2025 07:00:00,25.5586,91.8985,OZONE,1,8,4
India,Nagaland,Kohima,"PWD Junction, Kohima - NPCB",21-09-2025 07:00:00,25.6635413,94.0989878,PM10,8,100,40
India,Nagaland,Kohima,"PWD Junction, Kohima - NPCB",21-09-2025 07:00:00,25.6635413,94.0989878,SO2,68,71,69
India,Odisha,Angul,"Hakimapada, Angul - OSPCB",21-09-2025 07:00:00,20.832874,85.104082,PM10,61,185,90
India,Odisha,Angul,"Hakimapada, Angul - OSPCB",21-09-2025 07:00:00,20.832874,85.104082,CO,42,61,52
India,Odisha,Balasore,"Kalidaspur, Balasore - OSPCB",21-09-2025 07:00:00,21.51161,86.89088,PM10,13,404,114
India,Maharashtra,Nashik,"Gangapur Road, Nashik - MPCB",21-09-2025 07:00:00,20.0073285,73.7762427,OZONE,10,11,11
India,Maharashtra,Nashik,"Hirawadi, Nashik - MPCB",21-09-2025 07:00:00,20.021503,73.813844,NO2,1,8,3
India,Maharashtra,Nashik,"MIDC Ambad, Nashik - MPCB",21-09-2025 07:00:00,19.950220,73.731480,SO2,7,10,8
India,Maharashtra,Navi Mumbai,"Kopripada-Vashi, Navi Mumbai - MPCB",21-09-2025 07:00:00,19.090337,73.014232,NH3,2,5,3
India,Maharashtra,Navi Mumbai,"Kopripada-Vashi, Navi Mumbai - MPCB",21-09-2025 07:00:00,19.090337,73.014232,OZONE,2,38,6
India,Maharashtra,Navi Mumbai,"Mahape, Navi Mumbai - MPCB",21-09-2025 07:00:00,19.1135051,73.008978,PM2.5,7,15,11
India,Maharashtra,Navi Mumbai,"Mahape, Navi Mumbai - MPCB",21-09-2025 07:00:00,19.1135051,73.008978,NH3,3,3,3
India,Maharashtra,Pune,"Panchawati_Pashan, Pune - IITM",21-09-2025 07:00:00,18.536457,73.805454,NO2,10,17,14
India,Maharashtra,Pune,"Transport Nagar-Nigdi, Pune - IITM",21-09-2025 07:00:00,18.664282,73.763966,OZONE,17,68,26
India,Maharashtra,Solapur,"Dnyaneshwar Nagar, Solapur - MPCB",21-09-2025 07:00:00,17.6336264,75.9132495,NO2,NA,NA,NA
India,Maharashtra,Solapur,"Dnyaneshwar Nagar, Solapur - MPCB",21-09-2025 07:00:00,17.6336264,75.9132495,CO,2,25,9
India,Maharashtra,Solapur,"Dnyaneshwar Nagar, Solapur - MPCB",21-09-2025 07:00:00,17.6336264,75.9132495,OZONE,1,27,9
India,Maharashtra,Solapur,"Ratandeep Housing Society, Solapur - MPCB",21-09-2025 07:00:00,17.65439,75.90649,SO2,1,4,1
India,Maharashtra,Pimpri-Chinchwad,"Park Street Wakad, Pimpri Chinchwad - MPCB",21-09-2025 07:00:00,18.59051,73.77946,OZONE,NA,NA,NA
India,Maharashtra,Pimpri-Chinchwad,"Savta Mali Nagar, Pimpri-Chinchwad - IITM",21-09-2025 07:00:00,18.614767,73.799516,PM2.5,10,44,24
India,Maharashtra,Pimpri-Chinchwad,"Thergaon, Pimpri Chinchwad - MPCB",21-09-2025 07:00:00,18.616318,73.765797,PM10,61,101,84
India,Maharashtra,Pune,"Dhankawadi, Pune - IITM",21-09-2025 07:00:00,18.459883,73.852193,OZONE,1,1,1
India,Maharashtra,Pune,"Katraj Dairy, Pune - MPCB",21-09-2025 07:00:00,18.454450,73.854155,PM2.5,10,37,20
India,Maharashtra,Nagpur,"Mahal, Nagpur - MPCB",21-09-2025 07:00:00,21.14472,79.107595,PM2.5,18,50,28
India,Maharashtra,Nagpur,"Mahal, Nagpur - MPCB",21-09-2025 07:00:00,21.14472,79.107595,NH3,3,4,3
India,Maharashtra,Nagpur,"Mahal, Nagpur - MPCB",21-09-2025 07:00:00,21.14472,79.107595,CO,20,111,42
India,Maharashtra,Nagpur,"Opp GPO Civil Lines, Nagpur - MPCB",21-09-2025 07:00:00,21.152875,79.0517531,NO2,8,28,17
India,Maharashtra,Nagpur,"Opp GPO Civil Lines, Nagpur - MPCB",21-09-2025 07:00:00,21.152875,79.0517531,OZONE,2,16,3
India,Maharashtra,Nanded,"Sneh Nagar, Nanded - MPCB",21-09-2025 07:00:00,19.173852,77.296291,NO2,NA,NA,NA
India,Maharashtra,Nanded,"Sneh Nagar, Nanded - MPCB",21-09-2025 07:00:00,19.173852,77.296291,CO,12,60,35
India,Maharashtra,Mumbai,"Navy Nagar-Colaba, Mumbai - IITM",21-09-2025 07:00:00,18.897756,72.813320,NO2,12,66,25
India,Maharashtra,Mumbai,"Navy Nagar-Colaba, Mumbai - IITM",21-09-2025 07:00:00,18.897756,72.813320,SO2,8,31,13
India,Maharashtra,Mumbai,"Powai, Mumbai - MPCB",21-09-2025 07:00:00,19.137500,72.915056,PM10,9,57,39
India,Maharashtra,Mumbai,"Powai, Mumbai - MPCB",21-09-2025 07:00:00,19.137500,72.915056,OZONE,9,9,9
India,Maharashtra,Mumbai,"Sewri, Mumbai - BMC",21-09-2025 07:00:00,19.000084,72.856730,PM10,NA,NA,NA
India,Maharashtra,Mumbai,"Sewri, Mumbai - BMC",21-09-2025 07:00:00,19.000084,72.856730,SO2,NA,NA,NA
India,Odisha,Rairangpur,"Divisional Forest Office, Rairangpur - OSPCB",21-09-2025 07:00:00,22.265816,86.174829,PM10,NA,NA,NA
India,Odisha,Rairangpur,"Divisional Forest Office, Rairangpur - OSPCB",21-09-2025 07:00:00,22.265816,86.174829,CO,25,46,28
India,Odisha,Rairangpur,"Divisional Forest Office, Rairangpur - OSPCB",21-09-2025 07:00:00,22.265816,86.174829,OZONE,19,20,20
India,Odisha,Rourkela,"Fertilizer Township, Rourkela - OSPCB",21-09-2025 07:00:00,22.18972222,84.86277778,PM10,NA,NA,NA
India,Odisha,Rourkela,"Raghunathpali, Rourkela - OSPCB",21-09-2025 07:00:00,22.220833,84.809444,NO2,2,9,5
India,Odisha,Suakati,"OMC Colony, Suakati - OSPCB",21-09-2025 07:00:00,21.606865,85.510538,PM10,60,95,77
India,Odisha,Tensa,"Barsua Iron Ore Mines, Tensa - OSPCB",21-09-2025 07:00:00,21.869985,85.167016,PM2.5,NA,NA,NA
India,Odisha,Tensa,"Barsua Iron Ore Mines, Tensa - OSPCB",21-09-2025 07:00:00,21.869985,85.167016,NH3,NA,NA,NA
India,Odisha,Tensa,"Barsua Iron Ore Mines, Tensa - OSPCB",21-09-2025 07:00:00,21.869985,85.167016,CO,29,46,37
India,Punjab,Amritsar,"Golden Temple, Amritsar - PPCB",21-09-2025 07:00:00,31.620000,74.876512,SO2,18,24,20
India,Punjab,Bathinda,"Hardev Nagar, Bathinda - PPCB",21-09-2025 07:00:00,30.233011,74.907758,NO2,18,44,29
India,Punjab,Bathinda,"Hardev Nagar, Bathinda - PPCB",21-09-2025 07:00:00,30.233011,74.907758,CO,2,45,17
India,Punjab,Khanna,"Kalal Majra, Khanna - PPCB",21-09-2025 07:00:00,30.736056 ,76.209694,NO2,26,31,28
India,Punjab,Khanna,"Kalal Majra, Khanna - PPCB",21-09-2025 07:00:00,30.736056 ,76.209694,CO,20,46,41
India,Punjab,Ludhiana,"Punjab Agricultural University, Ludhiana - PPCB",21-09-2025 07:00:00,30.9028,75.8086,PM2.5,37,57,46
India,Punjab,Ludhiana,"Punjab Agricultural University, Ludhiana - PPCB",21-09-2025 07:00:00,30.9028,75.8086,CO,22,51,28
India,Punjab,Mandi Gobindgarh,"RIMT University, Mandi Gobindgarh - PPCB",21-09-2025 07:00:00,30.649961,76.331442,NH3,6,6,6
India,Punjab,Mandi Gobindgarh,"RIMT University, Mandi Gobindgarh - PPCB",21-09-2025 07:00:00,30.649961,76.331442,OZONE,47,50,48
India,Rajasthan,Churu,"Subash Chowk, Churu - RSPCB",21-09-2025 07:00:00,28.296139,74.961696,PM10,64,108,82
India,Rajasthan,Churu,"Subash Chowk, Churu - RSPCB",21-09-2025 07:00:00,28.296139,74.961696,SO2,3,6,4
India,Rajasthan,Dausa,"Khatikan Mohalla, Dausa - RSPCB",21-09-2025 07:00:00,26.895552,76.334753,PM2.5,24,92,53
India,Rajasthan,Dausa,"Khatikan Mohalla, Dausa - RSPCB",21-09-2025 07:00:00,26.895552,76.334753,PM10,58,178,97
India,Rajasthan,Dausa,"Khatikan Mohalla, Dausa - RSPCB",21-09-2025 07:00:00,26.895552,76.334753,OZONE,5,206,17
India,Rajasthan,Dungarpur,"Bhoiwada, Dungarpur - RSPCB",21-09-2025 07:00:00,23.837789,73.714926,PM2.5,13,33,21
India,Rajasthan,Dungarpur,"Bhoiwada, Dungarpur - RSPCB",21-09-2025 07:00:00,23.837789,73.714926,NO2,3,11,5
India,Rajasthan,Hanumangarh,"Housing Board, Hanumangarh - RSPCB",21-09-2025 07:00:00,29.610750,74.283608,PM10,78,199,100
India,Punjab,Patiala,"Model Town, Patiala - PPCB",21-09-2025 07:00:00,30.349388,76.366642,SO2,6,17,13
India,Punjab,Patiala,"Model Town, Patiala - PPCB",21-09-2025 07:00:00,30.349388,76.366642,OZONE,25,29,27
India,Punjab,Rupnagar,"Ratanpura, Rupnagar - Ambuja Cements",21-09-2025 07:00:00,31.0325454,76.5623046,PM10,31,132,54
India,Rajasthan,Ajmer,"Civil Lines,  Ajmer - RSPCB",21-09-2025 07:00:00,26.470859,74.646594,PM2.5,36,77,48
India,Rajasthan,Ajmer,"Civil Lines,  Ajmer - RSPCB",21-09-2025 07:00:00,26.470859,74.646594,NO2,6,9,6
India,Rajasthan,Alwar,"Moti Doongri, Alwar - RSPCB",21-09-2025 07:00:00,27.554793,76.611536,PM2.5,30,47,38
India,Rajasthan,Alwar,"Moti Doongri, Alwar - RSPCB",21-09-2025 07:00:00,27.554793,76.611536,PM10,47,86,63
India,Odisha,Barbil,"Forest Office, Barbil - OSPCB",21-09-2025 07:00:00,22.1166054,85.3945546,CO,22,42,32
India,Odisha,Barbil,"Forest Office, Barbil - OSPCB",21-09-2025 07:00:00,22.1166054,85.3945546,OZONE,3,45,5
India,Odisha,Baripada,"Meher Colony, Baripada - OSPCB",21-09-2025 07:00:00,21.941841,86.728318,PM10,45,90,62
India,Odisha,Baripada,"Meher Colony, Baripada - OSPCB",21-09-2025 07:00:00,21.941841,86.728318,NH3,1,1,1
India,Odisha,Bhubaneswar,"Patia, Bhubaneswar - OSPCB",21-09-2025 07:00:00,20.34652,85.81630,PM2.5,18,120,47
India,Odisha,Bhubaneswar,"Patia, Bhubaneswar - OSPCB",21-09-2025 07:00:00,20.34652,85.81630,OZONE,5,47,9
India,Odisha,Bileipada,"Tata Township, Bileipada - OSPCB",21-09-2025 07:00:00,22.06156703,85.47409613,NH3,4,4,4
India,Rajasthan,Hanumangarh,"Housing Board, Hanumangarh - RSPCB",21-09-2025 07:00:00,29.610750,74.283608,CO,67,89,71
India,Rajasthan,Jaipur,"Adarsh Nagar, Jaipur - RSPCB",21-09-2025 07:00:00,26.902909,75.836858,NH3,7,34,15
India,Rajasthan,Jaipur,"Mansarovar Sector-12, Jaipur - RSPCB",21-09-2025 07:00:00,26.843698,75.766894,NH3,9,15,12
India,Rajasthan,Jaipur,"Mansarovar Sector-12, Jaipur - RSPCB",21-09-2025 07:00:00,26.843698,75.766894,CO,20,56,29
India,Rajasthan,Jaipur,"Police Commissionerate, Jaipur - RSPCB",21-09-2025 07:00:00,26.9164092,75.7994901,CO,12,118,56
India,Rajasthan,Jaipur,"RIICO Sitapura, Jaipur - RSPCB",21-09-2025 07:00:00,26.786682,75.827928,CO,16,112,28
India,Rajasthan,Banswara,"Rati Talai, Banswara - RSPCB",21-09-2025 07:00:00,23.555190,74.440010,NH3,1,2,1
India,Rajasthan,Banswara,"Rati Talai, Banswara - RSPCB",21-09-2025 07:00:00,23.555190,74.440010,CO,4,32,12
India,Rajasthan,Baran,"Bamboliya, Baran - RSPCB",21-09-2025 07:00:00,25.106006,76.469948,NO2,4,28,12
India,Rajasthan,Barmer,"Railway Colony, Barmer - RSPCB",21-09-2025 07:00:00,25.747299,71.393989,PM10,70,120,92
India,Rajasthan,Barmer,"Railway Colony, Barmer - RSPCB",21-09-2025 07:00:00,25.747299,71.393989,OZONE,25,57,51
India,Rajasthan,Bhilwara,"Pratap Nagar, Bhilwara - RSPCB",21-09-2025 07:00:00,25.339605,74.618883,PM10,38,111,68
India,Rajasthan,Bhilwara,"Pratap Nagar, Bhilwara - RSPCB",21-09-2025 07:00:00,25.339605,74.618883,NO2,6,21,12
India,Rajasthan,Bhiwadi,"RIICO Ind. Area III, Bhiwadi - RSPCB",21-09-2025 07:00:00,28.194909,76.862296,NO2,15,52,30
India,Rajasthan,Bhiwadi,"Vasundhara Nagar_UIT, Bhiwadi - RSPCB",21-09-2025 07:00:00,28.207266,76.829265,NH3,NA,NA,NA
India,Rajasthan,Bhiwadi,"Vasundhara Nagar_UIT, Bhiwadi - RSPCB",21-09-2025 07:00:00,28.207266,76.829265,SO2,NA,NA,NA
India,Rajasthan,Bhiwadi,"Vasundhara Nagar_UIT, Bhiwadi - RSPCB",21-09-2025 07:00:00,28.207266,76.829265,OZONE,8,29,19
India,Rajasthan,Bikaner,"MM Ground, Bikaner - RSPCB",21-09-2025 07:00:00,28.018792,73.292658,CO,9,44,11
India,Rajasthan,Bundi,"New Colony, Bundi - RSPCB",21-09-2025 07:00:00,25.435774,75.644272,PM2.5,3,45,19
India,Odisha,Bileipada,"Tata Township, Bileipada - OSPCB",21-09-2025 07:00:00,22.06156703,85.47409613,OZONE,11,18,12
India,Odisha,Byasanagar,"Ferro Chrome Colony, Byasanagar - OSPCB",21-09-2025 07:00:00,20.94185,86.11510,NH3,1,3,2
India,Odisha,Byasanagar,"Ferro Chrome Colony, Byasanagar - OSPCB",21-09-2025 07:00:00,20.94185,86.11510,OZONE,6,84,16
India,Odisha,Keonjhar,"Jagamohanpur, Keonjhar - OSPCB",21-09-2025 07:00:00,21.643900,85.599355,SO2,5,30,11
India,TamilNadu,Chennai,"Alandur Bus Depot, Chennai - CPCB",21-09-2025 07:00:00,12.9099161,80.1076538,NO2,NA,NA,NA
India,TamilNadu,Chennai,"Alandur Bus Depot, Chennai - CPCB",21-09-2025 07:00:00,12.9099161,80.1076538,SO2,15,16,15
India,TamilNadu,Chennai,"Arumbakkam, Chennai - TNPCB",21-09-2025 07:00:00,13.0664,80.2112 ,PM2.5,29,86,42
India,TamilNadu,Chennai,"Arumbakkam, Chennai - TNPCB",21-09-2025 07:00:00,13.0664,80.2112 ,PM10,40,167,100
India,TamilNadu,Chennai,"Arumbakkam, Chennai - TNPCB",21-09-2025 07:00:00,13.0664,80.2112 ,NH3,3,4,3
India,TamilNadu,Chennai,"Kodungaiyur, Chennai - TNPCB",21-09-2025 07:00:00,13.1278,80.2642,PM10,29,147,63
India,TamilNadu,Chennai,"Kodungaiyur, Chennai - TNPCB",21-09-2025 07:00:00,13.1278,80.2642,NH3,5,12,7
India,TamilNadu,Chennai,"Kodungaiyur, Chennai - TNPCB",21-09-2025 07:00:00,13.1278,80.2642,CO,2,82,33
India,TamilNadu,Chennai,"Manali Village, Chennai - TNPCB",21-09-2025 07:00:00,13.1662,80.2584,PM2.5,9,217,60
India,TamilNadu,Chennai,"Manali Village, Chennai - TNPCB",21-09-2025 07:00:00,13.1662,80.2584,NH3,1,1,1
India,TamilNadu,Chennai,"Manali Village, Chennai - TNPCB",21-09-2025 07:00:00,13.1662,80.2584,CO,20,50,41
India,TamilNadu,Chennai,"Manali, Chennai - CPCB",21-09-2025 07:00:00,13.164544,80.26285,PM2.5,NA,NA,NA
India,TamilNadu,Chennai,"Manali, Chennai - CPCB",21-09-2025 07:00:00,13.164544,80.26285,SO2,NA,NA,NA
India,TamilNadu,Chennai,"Perungudi, Chennai - TNPCB",21-09-2025 07:00:00,12.9533,80.2357,NH3,4,6,5
India,TamilNadu,Chennai,"Royapuram, Chennai - TNPCB",21-09-2025 07:00:00,13.1036,80.2909,PM10,23,141,69
India,TamilNadu,Chennai,"Royapuram, Chennai - TNPCB",21-09-2025 07:00:00,13.1036,80.2909,SO2,1,13,3
India,TamilNadu,Chennai,"Velachery Res. Area, Chennai - CPCB",21-09-2025 07:00:00,13.0052189,80.2398125,NH3,4,6,5
India,TamilNadu,Chennai,"Velachery Res. Area, Chennai - CPCB",21-09-2025 07:00:00,13.0052189,80.2398125,CO,55,86,58
India,TamilNadu,Coimbatore,"PSG College of Arts and Science, Coimbatore - TNPCB",21-09-2025 07:00:00,11.0328,77.0349,PM2.5,34,81,59
India,TamilNadu,Coimbatore,"SIDCO Kurichi, Coimbatore - TNPCB",21-09-2025 07:00:00,10.942451,76.978996,PM10,22,64,45
India,TamilNadu,Cuddalore,"Kudikadu, Cuddalore - TNPCB",21-09-2025 07:00:00,11.6829898,79.7532099,NH3,5,5,5
India,TamilNadu,Cuddalore,"Semmandalam, Cuddalore - TNPCB",21-09-2025 07:00:00,11.7637683,79.7499835,PM2.5,5,72,27
India,TamilNadu,Cuddalore,"Semmandalam, Cuddalore - TNPCB",21-09-2025 07:00:00,11.7637683,79.7499835,PM10,4,54,20
India,Rajasthan,Jhalawar,"Rajlaxmi Nagar, Jhalawar - RSPCB",21-09-2025 07:00:00,24.588397,76.172782,OZONE,26,92,53
India,Rajasthan,Jhunjhunu,"Indra Nagar, Jhunjhunu - RSPCB",21-09-2025 07:00:00,28.108988,75.386577,PM10,65,156,90
India,Rajasthan,Jhunjhunu,"Indra Nagar, Jhunjhunu - RSPCB",21-09-2025 07:00:00,28.108988,75.386577,NO2,2,13,8
India,Rajasthan,Jhunjhunu,"Indra Nagar, Jhunjhunu - RSPCB",21-09-2025 07:00:00,28.108988,75.386577,SO2,2,3,3
India,Rajasthan,Jodhpur,"Collectorate, Jodhpur - RSPCB",21-09-2025 07:00:00,26.268249,73.0193853,SO2,4,17,9
India,Rajasthan,Jodhpur,"Collectorate, Jodhpur - RSPCB",21-09-2025 07:00:00,26.268249,73.0193853,CO,5,72,9
India,Rajasthan,Jodhpur,"Digari Kalan, Jodhpur - RSPCB",21-09-2025 07:00:00,26.295810,73.082283,SO2,NA,NA,NA
India,Rajasthan,Jodhpur,"Digari Kalan, Jodhpur - RSPCB",21-09-2025 07:00:00,26.295810,73.082283,CO,NA,NA,NA
India,Rajasthan,Jodhpur,"Digari Kalan, Jodhpur - RSPCB",21-09-2025 07:00:00,26.295810,73.082283,OZONE,NA,NA,NA
India,Rajasthan,Jodhpur,"Jhalamand, Jodhpur - RSPCB",21-09-2025 07:00:00,26.215415,73.070156,PM2.5,15,70,34
India,Rajasthan,Jodhpur,"Jhalamand, Jodhpur - RSPCB",21-09-2025 07:00:00,26.215415,73.070156,CO,8,23,12
India,Rajasthan,Sri Ganganagar,"Old City, Sri Ganganagar - RSPCB",21-09-2025 07:00:00,29.931624,73.864511,OZONE,6,85,25
India,Rajasthan,Udaipur,"Ashok Nagar, Udaipur - RSPCB",21-09-2025 07:00:00,24.5886166,73.6321397,PM10,25,83,52
India,Rajasthan,Udaipur,"Ashok Nagar, Udaipur - RSPCB",21-09-2025 07:00:00,24.5886166,73.6321397,OZONE,3,33,10
India,Sikkim,Gangtok,"Zero Point GICI, Gangtok - SSPCB",21-09-2025 07:00:00,27.338530,88.614099,NO2,NA,NA,NA
India,Sikkim,Gangtok,"Zero Point GICI, Gangtok - SSPCB",21-09-2025 07:00:00,27.338530,88.614099,CO,2,55,17
India,TamilNadu,Ariyalur,"Keelapalur, Ariyalur - TNPCB",21-09-2025 07:00:00,11.06825,79.07033,PM10,NA,NA,NA
India,TamilNadu,Chengalpattu,"Crescent University, Chengalpattu - TNPCB",21-09-2025 07:00:00,12.8777316,80.0834807,PM2.5,47,92,65
India,TamilNadu,Chengalpattu,"Crescent University, Chengalpattu - TNPCB",21-09-2025 07:00:00,12.8777316,80.0834807,NO2,3,4,4
India,Rajasthan,Jodhpur,"Mandor, Jodhpur - RSPCB",21-09-2025 07:00:00,26.358805,73.047444,NH3,2,3,2
India,Rajasthan,Jodhpur,"Samrat Ashok Udhyan, Jodhpur - RSPCB",21-09-2025 07:00:00,26.253384,72.976571,PM2.5,10,53,26
India,Rajasthan,Jodhpur,"Samrat Ashok Udhyan, Jodhpur - RSPCB",21-09-2025 07:00:00,26.253384,72.976571,PM10,42,113,70
India,Rajasthan,Jodhpur,"Samrat Ashok Udhyan, Jodhpur - RSPCB",21-09-2025 07:00:00,26.253384,72.976571,NH3,2,3,3
India,Rajasthan,Jodhpur,"Samrat Ashok Udhyan, Jodhpur - RSPCB",21-09-2025 07:00:00,26.253384,72.976571,CO,16,24,19
India,Rajasthan,Jodhpur,"Samrat Ashok Udhyan, Jodhpur - RSPCB",21-09-2025 07:00:00,26.253384,72.976571,OZONE,13,40,18
India,Rajasthan,Karauli,"Satyawati Vihar, Karauli - RSPCB",21-09-2025 07:00:00,26.506177,77.025989,PM2.5,NA,NA,NA
India,Rajasthan,Kota,"Dhanmandi, Kota - RSPCB",21-09-2025 07:00:00,25.164090,75.858137,NO2,13,57,23
India,Rajasthan,Kota,"Dhanmandi, Kota - RSPCB",21-09-2025 07:00:00,25.164090,75.858137,SO2,2,12,4
India,Rajasthan,Kota,"Nayapura, Kota - RSPCB",21-09-2025 07:00:00,25.196024,75.855668,NH3,1,7,2
India,Rajasthan,Jaipur,"Sector-2 Murlipura, Jaipur - RSPCB",21-09-2025 07:00:00,26.960669,75.771817,CO,4,82,23
India,Rajasthan,Jaipur,"Shastri Nagar, Jaipur - RSPCB",21-09-2025 07:00:00,26.9502929,75.730943,NH3,1,17,10
India,Rajasthan,Jaipur,"Shastri Nagar, Jaipur - RSPCB",21-09-2025 07:00:00,26.9502929,75.730943,SO2,3,47,20
India,Rajasthan,Jaipur,"Shastri Nagar, Jaipur - RSPCB",21-09-2025 07:00:00,26.9502929,75.730943,OZONE,12,30,15
India,Rajasthan,Jaisalmer,"Sadar Bazar, Jaisalmer - RSPCB",21-09-2025 07:00:00,26.912329,70.909168,NO2,2,26,9
India,Rajasthan,Jaisalmer,"Sadar Bazar, Jaisalmer - RSPCB",21-09-2025 07:00:00,26.912329,70.909168,CO,6,15,10
India,Rajasthan,Jalore,"Mudtra Sili, Jalore - RSPCB",21-09-2025 07:00:00,25.344694,72.626208,OZONE,19,47,29
India,Rajasthan,Jhalawar,"Rajlaxmi Nagar, Jhalawar - RSPCB",21-09-2025 07:00:00,24.588397,76.172782,SO2,6,9,7
India,Rajasthan,Jhalawar,"Rajlaxmi Nagar, Jhalawar - RSPCB",21-09-2025 07:00:00,24.588397,76.172782,CO,17,47,22
India,Rajasthan,Rajsamand,"Dhoinda, Rajsamand - RSPCB",21-09-2025 07:00:00,25.036360,73.883502,PM10,17,55,35
India,Rajasthan,Rajsamand,"Dhoinda, Rajsamand - RSPCB",21-09-2025 07:00:00,25.036360,73.883502,OZONE,31,96,41
India,Rajasthan,Sawai Madhopur,"Sahu Nagar, Sawai Madhopur - RSPCB",21-09-2025 07:00:00,26.031443,76.359327,OZONE,15,74,33
India,Rajasthan,Sirohi,"Vedhaynath Colony, Sirohi - RSPCB",21-09-2025 07:00:00,24.885261,72.857549,CO,20,39,31
India,Rajasthan,Sri Ganganagar,"Old City, Sri Ganganagar - RSPCB",21-09-2025 07:00:00,29.931624,73.864511,NH3,2,2,2
India,Rajasthan,Nagaur,"Karni Colony, Nagaur - RSPCB",21-09-2025 07:00:00,27.213494,73.734444,NH3,3,7,4
India,Rajasthan,Nagaur,"Karni Colony, Nagaur - RSPCB",21-09-2025 07:00:00,27.213494,73.734444,CO,11,28,17
India,Rajasthan,Pali,"Indira Colony Vistar, Pali - RSPCB",21-09-2025 07:00:00,25.771061, 73.340227,NO2,15,52,32
India,Rajasthan,Pali,"Indira Colony Vistar, Pali - RSPCB",21-09-2025 07:00:00,25.771061, 73.340227,NH3,2,14,8
India,Rajasthan,Pratapgarh,"Pragati Nagar, Pratapgarh - RSPCB",21-09-2025 07:00:00,24.041198,74.780702,NH3,3,4,3
India,TamilNadu,Hosur,"SIPCOT Phase-1, Hosur - TNPCB",21-09-2025 07:00:00,12.746998,77.813811,SO2,52,54,53
India,TamilNadu,Karur,"Kamadenu Nagar, Karur - TNPCB",21-09-2025 07:00:00,10.967820,78.080882,PM2.5,9,43,28
India,TamilNadu,Madurai,"Uchapatti, Madurai - TNPCB",21-09-2025 07:00:00,9.865935,78.022669,PM10,27,99,47
India,TamilNadu,Madurai,"Uchapatti, Madurai - TNPCB",21-09-2025 07:00:00,9.865935,78.022669,OZONE,6,6,6
India,TamilNadu,Ramanathapuram,"Chalai Bazaar, Ramanathapuram - TNPCB",21-09-2025 07:00:00,9.36399,78.831977,SO2,13,15,14
India,TamilNadu,Ramanathapuram,"Chalai Bazaar, Ramanathapuram - TNPCB",21-09-2025 07:00:00,9.36399,78.831977,OZONE,4,5,4
India,TamilNadu,Salem,"Sona College of Technology, Salem - TNPCB",21-09-2025 07:00:00,11.679111,78.125052,OZONE,20,21,20
India,TamilNadu,Thanjavur,"Parisutham Nagar, Thanjavur - TNPCB",21-09-2025 07:00:00,10.7654824,79.1389968,PM2.5,12,39,22
India,TamilNadu,Thanjavur,"Parisutham Nagar, Thanjavur - TNPCB",21-09-2025 07:00:00,10.7654824,79.1389968,NH3,1,1,1
India,TamilNadu,Thanjavur,"Parisutham Nagar, Thanjavur - TNPCB",21-09-2025 07:00:00,10.7654824,79.1389968,OZONE,4,31,13
India,TamilNadu,Thoothukudi,"Meelavittan, Thoothukudi - TNPCB",21-09-2025 07:00:00,8.816428 ,78.099039,OZONE,7,16,11
India,TamilNadu,Tiruchirappalli,"St Joseph College, Tiruchirappalli - TNPCB",21-09-2025 07:00:00,10.830158,78.691849,PM2.5,15,50,33
India,TamilNadu,Tiruchirappalli,"St Joseph College, Tiruchirappalli - TNPCB",21-09-2025 07:00:00,10.830158,78.691849,PM10,17,65,42
India,TamilNadu,Tirunelveli,"Municipal Corporation Office, Tirunelveli - TNPCB",21-09-2025 07:00:00,8.728442,77.6962,PM10,NA,NA,NA
India,TamilNadu,Tirunelveli,"Municipal Corporation Office, Tirunelveli - TNPCB",21-09-2025 07:00:00,8.728442,77.6962,OZONE,NA,NA,NA
India,Uttar_Pradesh,Agra,"Sanjay Palace, Agra - UPPCB",21-09-2025 07:00:00,27.19865833,78.00598056,PM2.5,25,79,46
India,Uttar_Pradesh,Agra,"Sanjay Palace, Agra - UPPCB",21-09-2025 07:00:00,27.19865833,78.00598056,PM10,38,109,67
India,Uttar_Pradesh,Agra,"Sector-3B Avas Vikas Colony, Agra - UPPCB",21-09-2025 07:00:00,27.19412,77.96237,PM2.5,60,186,84
India,Uttar_Pradesh,Agra,"Sector-3B Avas Vikas Colony, Agra - UPPCB",21-09-2025 07:00:00,27.19412,77.96237,PM10,84,154,121
India,Uttar_Pradesh,Agra,"Shahjahan Garden, Agra - UPPCB",21-09-2025 07:00:00,27.169338,78.03582,PM10,90,139,116
India,Uttar_Pradesh,Agra,"Shahjahan Garden, Agra - UPPCB",21-09-2025 07:00:00,27.169338,78.03582,OZONE,1,33,1
India,Uttar_Pradesh,Agra,"Shastripuram, Agra - UPPCB",21-09-2025 07:00:00,27.19862,77.92066,PM10,77,152,120
India,Uttar_Pradesh,Baghpat,"Sardar Patel Inter College, Baghpat - UPPCB",21-09-2025 07:00:00,28.964949,77.278761,NO2,NA,NA,NA
India,Uttar_Pradesh,Baghpat,"Sardar Patel Inter College, Baghpat - UPPCB",21-09-2025 07:00:00,28.964949,77.278761,NH3,NA,NA,NA
India,Uttar_Pradesh,Bareilly,"Rajendra Nagar, Bareilly - UPPCB",21-09-2025 07:00:00,28.38910936,79.42963708,NH3,1,1,1
India,Uttar_Pradesh,Bareilly,"Rajendra Nagar, Bareilly - UPPCB",21-09-2025 07:00:00,28.38910936,79.42963708,OZONE,NA,NA,NA
India,Uttar_Pradesh,Bulandshahr,"Yamunapuram, Bulandshahr - UPPCB",21-09-2025 07:00:00,28.406963,77.849831,PM2.5,40,157,71
India,Uttar_Pradesh,Bulandshahr,"Yamunapuram, Bulandshahr - UPPCB",21-09-2025 07:00:00,28.406963,77.849831,PM10,113,168,136
India,Uttar_Pradesh,Bulandshahr,"Yamunapuram, Bulandshahr - UPPCB",21-09-2025 07:00:00,28.406963,77.849831,NO2,23,57,37
India,Uttar_Pradesh,Firozabad,"Nagla Bhau, Firozabad - UPPCB",21-09-2025 07:00:00,27.168897,78.376960,NO2,17,17,17
India,Uttar_Pradesh,Firozabad,"Nagla Bhau, Firozabad - UPPCB",21-09-2025 07:00:00,27.168897,78.376960,OZONE,10,20,14
India,Uttar_Pradesh,Firozabad,"Vibhab Nagar, Firozabad - UPPCB",21-09-2025 07:00:00,27.1594,78.3953,PM10,56,137,88
India,Telangana,Hyderabad,"ECIL Kapra, Hyderabad - TSPCB",21-09-2025 07:00:00,17.470431,78.566959,PM2.5,NA,NA,NA
India,Telangana,Hyderabad,"ECIL Kapra, Hyderabad - TSPCB",21-09-2025 07:00:00,17.470431,78.566959,NH3,2,4,3
India,Telangana,Hyderabad,"ECIL Kapra, Hyderabad - TSPCB",21-09-2025 07:00:00,17.470431,78.566959,CO,2,44,13
India,Telangana,Hyderabad,"ICRISAT Patancheru, Hyderabad - TSPCB",21-09-2025 07:00:00,17.518400,78.278777,PM2.5,54,147,83
India,Telangana,Hyderabad,"ICRISAT Patancheru, Hyderabad - TSPCB",21-09-2025 07:00:00,17.518400,78.278777,OZONE,12,40,18
India,Telangana,Hyderabad,"IDA Pashamylaram, Hyderabad - TSPCB",21-09-2025 07:00:00,17.5316895,78.218939,SO2,1,9,5
India,Telangana,Hyderabad,"Kokapet, Hyderabad - TSPCB",21-09-2025 07:00:00,17.393559,78.339194,PM2.5,40,51,46
India,Telangana,Hyderabad,"Kokapet, Hyderabad - TSPCB",21-09-2025 07:00:00,17.393559,78.339194,PM10,63,367,80
India,Telangana,Hyderabad,"Sanathnagar, Hyderabad - TSPCB",21-09-2025 07:00:00,17.4559458,78.4332152,CO,4,16,10
India,Telangana,Hyderabad,"Somajiguda, Hyderabad - TSPCB",21-09-2025 07:00:00,17.417094,78.457437,NO2,12,17,16
India,Telangana,Hyderabad,"Zoo Park, Hyderabad - TSPCB",21-09-2025 07:00:00,17.349694,78.451437,SO2,3,7,5
India,Telangana,Hyderabad,"Zoo Park, Hyderabad - TSPCB",21-09-2025 07:00:00,17.349694,78.451437,OZONE,22,25,23
India,Uttar_Pradesh,Agra,"Rohta, Agra - UPPCB",21-09-2025 07:00:00,27.106972,78.000111,PM2.5,67,234,108
India,Uttar_Pradesh,Agra,"Rohta, Agra - UPPCB",21-09-2025 07:00:00,27.106972,78.000111,PM10,60,133,88
India,TamilNadu,Ooty,"Bombay Castel, Ooty - TNPCB",21-09-2025 07:00:00,11.4068288,76.7138973,PM10,NA,NA,NA
India,TamilNadu,Ooty,"Bombay Castel, Ooty - TNPCB",21-09-2025 07:00:00,11.4068288,76.7138973,SO2,NA,NA,NA
India,TamilNadu,Perundurai,"SIPCOT Industrial Park, Perundurai - TNPCB",21-09-2025 07:00:00,11.258242,77.552761,NO2,6,8,7
India,TamilNadu,Perundurai,"SIPCOT Industrial Park, Perundurai - TNPCB",21-09-2025 07:00:00,11.258242,77.552761,NH3,3,3,3
India,TamilNadu,Pudukottai,"SIPCOT Nathampannai, Pudukottai - TNPCB",21-09-2025 07:00:00,10.423417,78.784889,PM10,NA,NA,NA
India,TamilNadu,Ramanathapuram,"Chalai Bazaar, Ramanathapuram - TNPCB",21-09-2025 07:00:00,9.36399,78.831977,NH3,2,2,2
India,TamilNadu,Tirupur,"Kumaran College, Tirupur - TNPCB",21-09-2025 07:00:00,11.0973603,77.3228673,CO,14,25,15
India,TamilNadu,Virudhunagar,"Collectorate Office, Virudhunagar - TNPCB",21-09-2025 07:00:00,9.559382,77.948828,NH3,2,6,5
India,Telangana,Hyderabad,"Bollaram Industrial Area, Hyderabad - TSPCB",21-09-2025 07:00:00,17.540891,78.358528,OZONE,49,59,50
India,Telangana,Hyderabad,"Central University, Hyderabad - TSPCB",21-09-2025 07:00:00,17.460103,78.334361,PM2.5,NA,NA,NA
India,Telangana,Hyderabad,"Nacharam_TSIIC IALA, Hyderabad - TSPCB",21-09-2025 07:00:00,17.429398,78.569354,SO2,10,16,11
India,Telangana,Hyderabad,"Nacharam_TSIIC IALA, Hyderabad - TSPCB",21-09-2025 07:00:00,17.429398,78.569354,CO,26,45,41
India,Telangana,Hyderabad,"New Malakpet, Hyderabad - TSPCB",21-09-2025 07:00:00,17.37206,78.50864,SO2,13,16,15
India,Telangana,Hyderabad,"Ramachandrapuram, Hyderabad - TSPCB",21-09-2025 07:00:00,17.528544,78.286195,NO2,10,17,16
India,Telangana,Hyderabad,"Ramachandrapuram, Hyderabad - TSPCB",21-09-2025 07:00:00,17.528544,78.286195,SO2,9,17,15
India,Telangana,Hyderabad,"Ramachandrapuram, Hyderabad - TSPCB",21-09-2025 07:00:00,17.528544,78.286195,CO,30,40,33
India,Uttar_Pradesh,Ghaziabad,"Indirapuram, Ghaziabad - UPPCB",21-09-2025 07:00:00,28.646233,77.358075,PM10,101,154,129
India,Uttar_Pradesh,Ghaziabad,"Loni, Ghaziabad - UPPCB",21-09-2025 07:00:00,28.757294,77.278792,PM10,146,252,173
India,Uttar_Pradesh,Ghaziabad,"Loni, Ghaziabad - UPPCB",21-09-2025 07:00:00,28.757294,77.278792,CO,38,94,70
India,Uttar_Pradesh,Kanpur,"NSI Kalyanpur, Kanpur - UPPCB",21-09-2025 07:00:00,26.509954,80.249612,NH3,2,2,2
India,Uttar_Pradesh,Kanpur,"NSI Kalyanpur, Kanpur - UPPCB",21-09-2025 07:00:00,26.509954,80.249612,OZONE,14,28,25
India,Uttar_Pradesh,Kanpur,"Nehru Nagar, Kanpur - UPPCB",21-09-2025 07:00:00,26.4703136,80.3229863,PM2.5,57,223,93
India,Uttar_Pradesh,Kanpur,"Nehru Nagar, Kanpur - UPPCB",21-09-2025 07:00:00,26.4703136,80.3229863,NO2,48,67,56
India,Uttar_Pradesh,Khurja,"Kalindi Kunj, Khurja - UPPCB",21-09-2025 07:00:00,28.2348927,77.8683002,PM10,52,72,60
India,Uttar_Pradesh,Lucknow,"B R Ambedkar University, Lucknow - UPPCB",21-09-2025 07:00:00,26.766433,80.927299,NH3,4,4,4
India,Uttar_Pradesh,Lucknow,"B R Ambedkar University, Lucknow - UPPCB",21-09-2025 07:00:00,26.766433,80.927299,SO2,4,5,5
India,Uttar_Pradesh,Lucknow,"Gomti Nagar, Lucknow - UPPCB",21-09-2025 07:00:00,26.868120,81.005119,PM2.5,46,304,119
India,Uttar_Pradesh,Lucknow,"Gomti Nagar, Lucknow - UPPCB",21-09-2025 07:00:00,26.868120,81.005119,PM10,34,128,69
India,Uttar_Pradesh,Lucknow,"Gomti Nagar, Lucknow - UPPCB",21-09-2025 07:00:00,26.868120,81.005119,CO,37,41,38
India,Uttar_Pradesh,Moradabad,"Jigar Colony, Moradabad - UPPCB",21-09-2025 07:00:00,28.856664,78.772638,PM10,67,101,87
India,Uttar_Pradesh,Moradabad,"Jigar Colony, Moradabad - UPPCB",21-09-2025 07:00:00,28.856664,78.772638,NO2,24,25,25
India,Uttar_Pradesh,Moradabad,"Jigar Colony, Moradabad - UPPCB",21-09-2025 07:00:00,28.856664,78.772638,CO,40,42,40
India,Uttar_Pradesh,Moradabad,"Kashiram Nagar, Moradabad - UPPCB",21-09-2025 07:00:00,28.849399,78.742362,PM10,103,146,118
India,Uttar_Pradesh,Moradabad,"Kashiram Nagar, Moradabad - UPPCB",21-09-2025 07:00:00,28.849399,78.742362,SO2,46,71,57
India,Uttar_Pradesh,Moradabad,"Transport Nagar, Moradabad - UPPCB",21-09-2025 07:00:00,28.802625,78.753728,PM10,NA,NA,NA
India,Uttar_Pradesh,Moradabad,"Transport Nagar, Moradabad - UPPCB",21-09-2025 07:00:00,28.802625,78.753728,OZONE,24,116,30
India,Uttar_Pradesh,Muzaffarnagar,"New Mandi, Muzaffarnagar - UPPCB",21-09-2025 07:00:00,29.4723508,77.7194031,PM2.5,60,122,79
India,Uttar_Pradesh,Muzaffarnagar,"New Mandi, Muzaffarnagar - UPPCB",21-09-2025 07:00:00,29.4723508,77.7194031,PM10,100,128,116
India,Uttar_Pradesh,Muzaffarnagar,"New Mandi, Muzaffarnagar - UPPCB",21-09-2025 07:00:00,29.4723508,77.7194031,NO2,13,34,21
India,Uttar_Pradesh,Vrindavan,"Omex Eternity, Vrindavan - UPPCB",21-09-2025 07:00:00,27.5714090,77.6557570,PM10,48,130,88
India,Uttarakhand,Kashipur,"Govt. Girls Inter College, Kashipur - UKPCB",21-09-2025 07:00:00,29.2124114,78.9611753,SO2,1,5,4
India,Uttarakhand,Kashipur,"Govt. Girls Inter College, Kashipur - UKPCB",21-09-2025 07:00:00,29.2124114,78.9611753,CO,16,22,20
India,Uttarakhand,Kashipur,"Govt. Girls Inter College, Kashipur - UKPCB",21-09-2025 07:00:00,29.2124114,78.9611753,OZONE,1,11,3
India,Uttarakhand,Rishikesh,"Shivaji Nagar, Rishikesh - UKPCB",21-09-2025 07:00:00,30.075911,78.2859547,NH3,4,9,7
India,Uttarakhand,Rishikesh,"Shivaji Nagar, Rishikesh - UKPCB",21-09-2025 07:00:00,30.075911,78.2859547,CO,14,33,24
India,West_Bengal,Asansol,"Asansol Court Area, Asansol - WBPCB",21-09-2025 07:00:00,23.685297,86.945968,PM10,50,93,76
India,West_Bengal,Asansol,"Asansol Court Area, Asansol - WBPCB",21-09-2025 07:00:00,23.685297,86.945968,NO2,22,37,28
India,Uttar_Pradesh,Meerut,"Pallavpuram Phase 2, Meerut - UPPCB",21-09-2025 07:00:00,29.063510,77.709723,PM2.5,42,102,64
India,Uttar_Pradesh,Meerut,"Pallavpuram Phase 2, Meerut - UPPCB",21-09-2025 07:00:00,29.063510,77.709723,PM10,95,128,118
India,Uttar_Pradesh,Meerut,"Pallavpuram Phase 2, Meerut - UPPCB",21-09-2025 07:00:00,29.063510,77.709723,NH3,3,4,3
India,Uttar_Pradesh,Meerut,"Pallavpuram Phase 2, Meerut - UPPCB",21-09-2025 07:00:00,29.063510,77.709723,OZONE,22,60,23
India,Uttar_Pradesh,Moradabad,"Buddhi Vihar, Moradabad - UPPCB",21-09-2025 07:00:00,28.83526,78.74460,NO2,27,31,29
India,Uttar_Pradesh,Moradabad,"Buddhi Vihar, Moradabad - UPPCB",21-09-2025 07:00:00,28.83526,78.74460,NH3,5,5,5
India,Uttar_Pradesh,Moradabad,"Eco Herbal Park, Moradabad - UPPCB",21-09-2025 07:00:00,28.840739,78.697531,PM10,67,124,99
India,Uttar_Pradesh,Moradabad,"Eco Herbal Park, Moradabad - UPPCB",21-09-2025 07:00:00,28.840739,78.697531,NH3,2,3,2
India,Uttar_Pradesh,Moradabad,"Employment Office, Moradabad - UPPCB",21-09-2025 07:00:00,28.88528,78.73880,NH3,4,4,4
India,Uttar_Pradesh,Lucknow,"Kendriya Vidyalaya, Lucknow - CPCB",21-09-2025 07:00:00,26.906111,80.948222,CO,28,100,53
India,Uttar_Pradesh,Lucknow,"Kukrail Picnic Spot-1, Lucknow - UPPCB",21-09-2025 07:00:00,26.90723,80.98579,SO2,41,49,42
India,Uttar_Pradesh,Lucknow,"Lalbagh, Lucknow - CPCB",21-09-2025 07:00:00,26.8458805,80.9365541,PM10,63,500,143
India,Uttar_Pradesh,Lucknow,"Talkatora District Industries Center, Lucknow - CPCB",21-09-2025 07:00:00,26.83399722,80.8917361,PM2.5,NA,NA,NA
India,Uttar_Pradesh,Meerut,"Ganga Nagar, Meerut - UPPCB",21-09-2025 07:00:00,28.999264,77.7590354,PM2.5,46,75,59
India,Uttar_Pradesh,Meerut,"Ganga Nagar, Meerut - UPPCB",21-09-2025 07:00:00,28.999264,77.7590354,NO2,29,40,33
India,Uttar_Pradesh,Meerut,"Ganga Nagar, Meerut - UPPCB",21-09-2025 07:00:00,28.999264,77.7590354,CO,26,41,37
India,Uttar_Pradesh,Noida,"Sector - 125, Noida - UPPCB",21-09-2025 07:00:00,28.5447608,77.3231257,SO2,5,25,13
India,Uttar_Pradesh,Noida,"Sector - 125, Noida - UPPCB",21-09-2025 07:00:00,28.5447608,77.3231257,CO,32,66,53
India,Uttar_Pradesh,Noida,"Sector - 125, Noida - UPPCB",21-09-2025 07:00:00,28.5447608,77.3231257,OZONE,15,53,18
India,Uttar_Pradesh,Noida,"Sector-1, Noida - UPPCB",21-09-2025 07:00:00,28.5898,77.3101,NH3,7,9,8
India,Uttar_Pradesh,Noida,"Sector-1, Noida - UPPCB",21-09-2025 07:00:00,28.5898,77.3101,CO,18,58,43
India,Uttar_Pradesh,Noida,"Sector-116, Noida - UPPCB",21-09-2025 07:00:00,28.569230,77.393848,SO2,NA,NA,NA
India,Uttar_Pradesh,Prayagraj,"Motilal Nehru NIT, Prayagraj - UPPCB",21-09-2025 07:00:00,25.494,81.863,PM2.5,15,34,24
India,Uttar_Pradesh,Prayagraj,"Motilal Nehru NIT, Prayagraj - UPPCB",21-09-2025 07:00:00,25.494,81.863,PM10,19,37,25
India,Uttar_Pradesh,Greater Noida,"Knowledge Park - V, Greater Noida - UPPCB",21-09-2025 07:00:00,28.557054,77.453663,PM2.5,43,130,66
India,Uttar_Pradesh,Greater Noida,"Knowledge Park - V, Greater Noida - UPPCB",21-09-2025 07:00:00,28.557054,77.453663,PM10,130,264,184
India,Uttar_Pradesh,Hapur,"Anand Vihar, Hapur - UPPCB",21-09-2025 07:00:00,28.725645,77.749675,PM10,97,155,113
India,Uttar_Pradesh,Hapur,"Anand Vihar, Hapur - UPPCB",21-09-2025 07:00:00,28.725645,77.749675,NH3,9,11,10
India,Uttar_Pradesh,Hapur,"Anand Vihar, Hapur - UPPCB",21-09-2025 07:00:00,28.725645,77.749675,SO2,1,14,5
India,Uttar_Pradesh,Jhansi,"Shivaji Nagar, Jhansi - UPPCB",21-09-2025 07:00:00,25.4547,78.6039,PM10,56,145,90
India,Uttar_Pradesh,Kanpur,"FTI Kidwai Nagar, Kanpur - UPPCB",21-09-2025 07:00:00,26.428282,80.327067,SO2,12,24,20
India,West_Bengal,Asansol,"Mahabir Colliery, Asansol - WBPCB",21-09-2025 07:00:00,23.6181830,87.1057180,SO2,4,7,5
India,West_Bengal,Asansol,"Trivenidevi Bhalotia College, Asansol - WBPCB",21-09-2025 07:00:00,23.616515,87.119133,CO,62,105,68
India,West_Bengal,Asansol,"Trivenidevi Bhalotia College, Asansol - WBPCB",21-09-2025 07:00:00,23.616515,87.119133,OZONE,17,64,28
India,West_Bengal,Barrackpore,"SVSPA Campus, Barrackpore - WBPCB",21-09-2025 07:00:00,22.7605581,88.3617589,NO2,2,31,19
India,West_Bengal,Barrackpore,"SVSPA Campus, Barrackpore - WBPCB",21-09-2025 07:00:00,22.7605581,88.3617589,SO2,14,16,15
India,Uttar_Pradesh,Prayagraj,"Nagar Nigam, Prayagraj - UPPCB",21-09-2025 07:00:00,25.44919916 ,81.82735986 ,PM10,24,86,47
India,Uttar_Pradesh,Varanasi,"IESD Banaras Hindu University, Varanasi - UPPCB",21-09-2025 07:00:00,25.262326,82.995408,NO2,2,2,2
India,Uttar_Pradesh,Varanasi,"IESD Banaras Hindu University, Varanasi - UPPCB",21-09-2025 07:00:00,25.262326,82.995408,OZONE,8,35,14
India,West_Bengal,Durgapur,"Mahishkapur Road_B-Zone, Durgapur - WBPCB",21-09-2025 07:00:00,23.567923,87.306843,NO2,8,21,14
India,West_Bengal,Durgapur,"PCBL Residential Complex, Durgapur - WBPCB",21-09-2025 07:00:00,23.5087640,87.3544400,NH3,2,3,2
India,West_Bengal,Durgapur,"Womens College_City Center, Durgapur - WBPCB (Formerly known as Sidhu Kanhu Indoor Stadium)",21-09-2025 07:00:00,23.549395,87.300496,PM2.5,54,114,77
India,West_Bengal,Haldia,"Priyambada Housing Estate, Haldia - WBPCB",21-09-2025 07:00:00,22.06047,88.109737,PM10,21,80,46
India,West_Bengal,Howrah,"Belur Math, Howrah - WBPCB",21-09-2025 07:00:00,22.629801,88.352017,CO,18,56,36
India,West_Bengal,Howrah,"Belur Math, Howrah - WBPCB",21-09-2025 07:00:00,22.629801,88.352017,OZONE,21,43,26
India,West_Bengal,Howrah,"Botanical Garden, Howrah - WBPCB",21-09-2025 07:00:00,22.554954,88.292568,PM2.5,40,87,59
India,West_Bengal,Howrah,"Botanical Garden, Howrah - WBPCB",21-09-2025 07:00:00,22.554954,88.292568,NO2,6,13,9
India,West_Bengal,Howrah,"Botanical Garden, Howrah - WBPCB",21-09-2025 07:00:00,22.554954,88.292568,SO2,14,15,14
India,West_Bengal,Howrah,"Botanical Garden, Howrah - WBPCB",21-09-2025 07:00:00,22.554954,88.292568,CO,68,78,76
India,West_Bengal,Howrah,"Botanical Garden, Howrah - WBPCB",21-09-2025 07:00:00,22.554954,88.292568,OZONE,17,27,21
India,West_Bengal,Howrah,"Dasnagar, Howrah - WBPCB",21-09-2025 07:00:00,22.6025571,88.3105664,NH3,1,1,1
India,West_Bengal,Howrah,"Dasnagar, Howrah - WBPCB",21-09-2025 07:00:00,22.6025571,88.3105664,SO2,11,11,11
India,West_Bengal,Howrah,"Dasnagar, Howrah - WBPCB",21-09-2025 07:00:00,22.6025571,88.3105664,OZONE,1,56,2
India,West_Bengal,Howrah,"Ghusuri, Howrah - WBPCB",21-09-2025 07:00:00,22.611968,88.347422,PM2.5,42,80,61
India,West_Bengal,Howrah,"Ghusuri, Howrah - WBPCB",21-09-2025 07:00:00,22.611968,88.347422,CO,12,57,29
India,West_Bengal,Howrah,"Padmapukur, Howrah - WBPCB",21-09-2025 07:00:00,22.5687319,88.2797276,PM10,55,102,79
India,West_Bengal,Kolkata,"Bidhannagar, Kolkata - WBPCB",21-09-2025 07:00:00,22.58157048,88.41002457,PM10,51,81,68
India,West_Bengal,Kolkata,"Bidhannagar, Kolkata - WBPCB",21-09-2025 07:00:00,22.58157048,88.41002457,CO,34,63,52
India,West_Bengal,Kolkata,"Fort William, Kolkata - WBPCB",21-09-2025 07:00:00,22.556640,88.342674,PM2.5,31,62,49
India,West_Bengal,Kolkata,"Fort William, Kolkata - WBPCB",21-09-2025 07:00:00,22.556640,88.342674,NO2,37,399,87
India,West_Bengal,Kolkata,"Fort William, Kolkata - WBPCB",21-09-2025 07:00:00,22.556640,88.342674,NH3,7,69,14
India,West_Bengal,Kolkata,"Fort William, Kolkata - WBPCB",21-09-2025 07:00:00,22.556640,88.342674,OZONE,14,90,58
India,West_Bengal,Kolkata,"Rabindra Bharati University, Kolkata - WBPCB",21-09-2025 07:00:00,22.627847,88.380669,PM2.5,41,77,56
India,West_Bengal,Kolkata,"Rabindra Bharati University, Kolkata - WBPCB",21-09-2025 07:00:00,22.627847,88.380669,NH3,8,8,8
India,West_Bengal,Kolkata,"Rabindra Bharati University, Kolkata - WBPCB",21-09-2025 07:00:00,22.627847,88.380669,CO,24,46,32
India,West_Bengal,Kolkata,"Rabindra Bharati University, Kolkata - WBPCB",21-09-2025 07:00:00,22.627847,88.380669,OZONE,89,316,303
India,West_Bengal,Kolkata,"Rabindra Sarobar, Kolkata - WBPCB",21-09-2025 07:00:00,22.51106,88.35142,NO2,46,107,74
India,West_Bengal,Kolkata,"Victoria, Kolkata - WBPCB",21-09-2025 07:00:00,22.5448082,88.3403691,SO2,2,17,9
India,West_Bengal,Kolkata,"Victoria, Kolkata - WBPCB",21-09-2025 07:00:00,22.5448082,88.3403691,CO,28,64,52
India,Andhra_Pradesh,Amaravati,"Secretariat, Amaravati - APPCB",21-09-2025 07:00:00,16.5150833,80.5181667,NO2,NA,NA,NA
India,Andhra_Pradesh,Anantapur,"Gulzarpet, Anantapur - APPCB",21-09-2025 07:00:00,14.675886,77.593027,NO2,NA,NA,NA
India,Andhra_Pradesh,Anantapur,"Gulzarpet, Anantapur - APPCB",21-09-2025 07:00:00,14.675886,77.593027,CO,4,30,4
India,Andhra_Pradesh,Chittoor,"Gangineni Cheruvu, Chittoor - APPCB",21-09-2025 07:00:00,13.204880,79.097889,NO2,17,34,28
India,Andhra_Pradesh,Chittoor,"Gangineni Cheruvu, Chittoor - APPCB",21-09-2025 07:00:00,13.204880,79.097889,CO,24,52,42
India,Andhra_Pradesh,Kadapa,"Yerramukkapalli, Kadapa - APPCB",21-09-2025 07:00:00,14.465052,78.824187,NO2,11,19,14
India,Andhra_Pradesh,Kadapa,"Yerramukkapalli, Kadapa - APPCB",21-09-2025 07:00:00,14.465052,78.824187,SO2,18,21,20
India,Andhra_Pradesh,Kadapa,"Yerramukkapalli, Kadapa - APPCB",21-09-2025 07:00:00,14.465052,78.824187,CO,20,82,26
India,Andhra_Pradesh,Rajamahendravaram,"Anand Kala Kshetram, Rajamahendravaram - APPCB",21-09-2025 07:00:00,16.9872867,81.7363176,NO2,6,36,16
India,Andhra_Pradesh,Rajamahendravaram,"Anand Kala Kshetram, Rajamahendravaram - APPCB",21-09-2025 07:00:00,16.9872867,81.7363176,NH3,2,5,2
India,Bihar,Arrah,"New DM Office, Arrah - BSPCB",21-09-2025 07:00:00,25.5626095,84.663264,CO,40,62,52
India,Bihar,Begusarai,"Lohiyanagar, Begusarai - BSPCB",21-09-2025 07:00:00,25.42742023,86.13886079,NO2,7,18,14
India,Bihar,Bettiah,"Kamalnath Nagar, Bettiah - BSPCB",21-09-2025 07:00:00,26.80365,84.51954,PM10,8,74,40
India,Bihar,Bettiah,"Kamalnath Nagar, Bettiah - BSPCB",21-09-2025 07:00:00,26.80365,84.51954,SO2,3,54,27
India,Bihar,Bettiah,"Kamalnath Nagar, Bettiah - BSPCB",21-09-2025 07:00:00,26.80365,84.51954,OZONE,22,27,23
India,Bihar,Bhagalpur,"DM Office_Kachari Chowk, Bhagalpur - BSPCB",21-09-2025 07:00:00,25.251013,86.989001,PM2.5,30,127,69
India,Bihar,Bhagalpur,"DM Office_Kachari Chowk, Bhagalpur - BSPCB",21-09-2025 07:00:00,25.251013,86.989001,NH3,4,7,6
India,Bihar,Bhagalpur,"DM Office_Kachari Chowk, Bhagalpur - BSPCB",21-09-2025 07:00:00,25.251013,86.989001,OZONE,12,32,17
India,Bihar,Bhagalpur,"Mayaganj, Bhagalpur - BSPCB",21-09-2025 07:00:00,25.265194,87.012947,OZONE,2,49,7
India,Bihar,Bihar Sharif,"D M Colony, Bihar Sharif - BSPCB",21-09-2025 07:00:00,25.204762,85.514960,PM2.5,56,92,72
India,Bihar,Bihar Sharif,"D M Colony, Bihar Sharif - BSPCB",21-09-2025 07:00:00,25.204762,85.514960,NH3,2,5,4
India,Bihar,Bihar Sharif,"D M Colony, Bihar Sharif - BSPCB",21-09-2025 07:00:00,25.204762,85.514960,SO2,NA,NA,NA
India,Bihar,Bihar Sharif,"D M Colony, Bihar Sharif - BSPCB",21-09-2025 07:00:00,25.204762,85.514960,CO,1,19,3
India,Bihar,Buxar,"Charitra Van, Buxar - BSPCB",21-09-2025 07:00:00,25.567520,83.966379,PM2.5,47,65,62
India,Bihar,Chhapra,"Darshan Nagar, Chhapra - BSPCB",21-09-2025 07:00:00,25.7808257,84.7446768,SO2,8,10,9
India,Bihar,Chhapra,"Darshan Nagar, Chhapra - BSPCB",21-09-2025 07:00:00,25.7808257,84.7446768,OZONE,1,15,5
India,Assam,Guwahati,"IITG, Guwahati - PCBA",21-09-2025 07:00:00,26.2028636,91.70046436,CO,2,16,12
India,Assam,Guwahati,"LGBI Airport, Guwahati - PCBA",21-09-2025 07:00:00,26.10887,91.589544,PM10,51,53,51
India,Assam,Guwahati,"LGBI Airport, Guwahati - PCBA",21-09-2025 07:00:00,26.10887,91.589544,OZONE,15,18,16
India,Assam,Guwahati,"Pan Bazaar, Guwahati - PCBA",21-09-2025 07:00:00,26.187500,91.744194,PM10,15,85,39
India,Assam,Guwahati,"Railway Colony, Guwahati - PCBA",21-09-2025 07:00:00,26.181742,91.78063,NO2,3,3,3
India,Assam,Guwahati,"Railway Colony, Guwahati - PCBA",21-09-2025 07:00:00,26.181742,91.78063,NH3,1,1,1
India,Assam,Nagaon,"Christianpatty, Nagaon - PCBA",21-09-2025 07:00:00,26.349082,92.68449,PM2.5,53,59,56
India,Assam,Nagaon,"Christianpatty, Nagaon - PCBA",21-09-2025 07:00:00,26.349082,92.68449,NH3,4,4,4
India,Bihar,Kishanganj,"SDM Office_Khagra, Kishanganj - BSPCB",21-09-2025 07:00:00,26.0881305,87.93840336,OZONE,15,18,16
India,Bihar,Manguraha,"Forest Rest House, Manguraha - BSPCB",21-09-2025 07:00:00,27.308328,84.531742,NH3,1,2,1
India,Bihar,Munger,"Town Hall, Munger - BSPCB",21-09-2025 07:00:00,25.376776,86.471523,CO,24,38,31
India,Bihar,Muzaffarpur,"MIT-Daudpur Kothi, Muzaffarpur - BSPCB",21-09-2025 07:00:00,26.1403345,85.3650192,PM2.5,25,58,41
India,Bihar,Muzaffarpur,"Muzaffarpur Collectorate, Muzaffarpur - BSPCB",21-09-2025 07:00:00,26.1209,85.3647,PM2.5,28,65,48
India,Bihar,Muzaffarpur,"Muzaffarpur Collectorate, Muzaffarpur - BSPCB",21-09-2025 07:00:00,26.1209,85.3647,SO2,4,6,5
India,Andhra_Pradesh,Rajamahendravaram,"Anand Kala Kshetram, Rajamahendravaram - APPCB",21-09-2025 07:00:00,16.9872867,81.7363176,OZONE,8,19,10
India,Andhra_Pradesh,Tirumala,"Toll Gate, Tirumala - APPCB",21-09-2025 07:00:00,13.67,79.35,NO2,9,16,12
India,Andhra_Pradesh,Vijayawada,"HB Colony, Vijayawada - APPCB",21-09-2025 07:00:00,16.536107,80.594233,PM10,NA,NA,NA
India,Andhra_Pradesh,Vijayawada,"HB Colony, Vijayawada - APPCB",21-09-2025 07:00:00,16.536107,80.594233,NH3,NA,NA,NA
India,Andhra_Pradesh,Vijayawada,"Rajiv Gandhi Park, Vijayawada - APPCB",21-09-2025 07:00:00,16.509717,80.612222,NH3,NA,NA,NA
India,Andhra_Pradesh,Vijayawada,"Rajiv Gandhi Park, Vijayawada - APPCB",21-09-2025 07:00:00,16.509717,80.612222,OZONE,NA,NA,NA
India,Bihar,Gaya,"SFTI Kusdihra, Gaya - BSPCB",21-09-2025 07:00:00,24.762518,84.982348,PM2.5,8,35,20
India,Bihar,Gaya,"SFTI Kusdihra, Gaya - BSPCB",21-09-2025 07:00:00,24.762518,84.982348,PM10,14,28,20
India,Bihar,Gaya,"SFTI Kusdihra, Gaya - BSPCB",21-09-2025 07:00:00,24.762518,84.982348,NH3,3,4,3
India,Bihar,Gaya,"SFTI Kusdihra, Gaya - BSPCB",21-09-2025 07:00:00,24.762518,84.982348,CO,24,34,31
India,Bihar,Gaya,"SFTI Kusdihra, Gaya - BSPCB",21-09-2025 07:00:00,24.762518,84.982348,OZONE,9,19,10
India,Bihar,Hajipur,"Industrial Area, Hajipur - BSPCB",21-09-2025 07:00:00,25.697189,85.245900,NH3,1,15,6
India,Bihar,Katihar,"Mirchaibari, Katihar - BSPCB",21-09-2025 07:00:00,25.560083,87.553265,NH3,1,1,1
India,Andhra_Pradesh,Vijayawada,"Rajiv Nagar, Vijayawada - APPCB",21-09-2025 07:00:00,16.554731,80.649110,CO,NA,NA,NA
India,Andhra_Pradesh,Visakhapatnam,"GVM Corporation, Visakhapatnam - APPCB",21-09-2025 07:00:00,17.72,83.3,PM10,66,208,117
India,Andhra_Pradesh,Visakhapatnam,"GVM Corporation, Visakhapatnam - APPCB",21-09-2025 07:00:00,17.72,83.3,NO2,45,89,63
India,Andhra_Pradesh,Visakhapatnam,"GVM Corporation, Visakhapatnam - APPCB",21-09-2025 07:00:00,17.72,83.3,CO,20,54,31
India,Assam,Byrnihat,"Central Academy for SFS, Byrnihat - PCBA",21-09-2025 07:00:00,26.071318,91.87488,CO,32,78,54
India,Andaman and Nicobar,Sri Vijaya Puram,"Police Line, Sri Vijaya Puram - ANPCC",21-09-2025 07:00:00,11.654054,92.734055,CO,NA,NA,NA
India,Assam,Sivasagar,"Girls College, Sivasagar - PCBA",21-09-2025 07:00:00,26.987634,94.636574,OZONE,2,7,2
India,Chhattisgarh,Korba,"Urja Nagar, Korba - CECB",21-09-2025 07:00:00,22.348441,82.549611,NH3,1,2,2
India,Chhattisgarh,Kunjemura,"OP Jindal School, Kunjemura - CECB",21-09-2025 07:00:00,22.126650,83.483212,PM2.5,NA,NA,NA
India,Chhattisgarh,Kunjemura,"OP Jindal School, Kunjemura - CECB",21-09-2025 07:00:00,22.126650,83.483212,NO2,NA,NA,NA
India,Chhattisgarh,Milupara,"Govt. Higher Secondary School, Milupara - CECB",21-09-2025 07:00:00,22.1910172,83.5197009,NO2,10,38,19
India,Chhattisgarh,Milupara,"Govt. Higher Secondary School, Milupara - CECB",21-09-2025 07:00:00,22.1910172,83.5197009,NH3,2,2,2
India,Chhattisgarh,Milupara,"Govt. Higher Secondary School, Milupara - CECB",21-09-2025 07:00:00,22.1910172,83.5197009,CO,16,36,21
India,Chhattisgarh,Raipur,"AIIMS, Raipur - CECB",21-09-2025 07:00:00,21.258815,81.578979,PM10,23,40,31
India,Chhattisgarh,Raipur,"Bhatagaon New ISBT, Raipur - CECB",21-09-2025 07:00:00,21.219665,81.630094,OZONE,3,18,7
India,Chhattisgarh,Raipur,"Krishak Nagar, Raipur - CECB",21-09-2025 07:00:00,21.237755,81.705301,PM10,20,94,43
India,Delhi,Delhi,"Dr. Karni Singh Shooting Range, Delhi - DPCC",21-09-2025 07:00:00,28.498571,77.264840,PM2.5,40,150,63
India,Delhi,Delhi,"Dr. Karni Singh Shooting Range, Delhi - DPCC",21-09-2025 07:00:00,28.498571,77.264840,NO2,33,68,44
India,Delhi,Delhi,"Dr. Karni Singh Shooting Range, Delhi - DPCC",21-09-2025 07:00:00,28.498571,77.264840,SO2,9,13,12
India,Delhi,Delhi,"Dwarka-Sector 8, Delhi - DPCC ",21-09-2025 07:00:00,28.5710274,77.0719006,SO2,10,16,12
India,Delhi,Delhi,"Dwarka-Sector 8, Delhi - DPCC ",21-09-2025 07:00:00,28.5710274,77.0719006,CO,26,70,47
India,Delhi,Delhi,"IGI Airport (T3), Delhi - IMD",21-09-2025 07:00:00,28.5627763,77.1180053,PM2.5,25,85,55
India,Delhi,Delhi,"IHBAS, Dilshad Garden, Delhi - CPCB",21-09-2025 07:00:00,28.6811736,77.3025234,NO2,44,51,47
India,Delhi,Delhi,"ITO, Delhi - CPCB",21-09-2025 07:00:00,28.628624,77.241060,OZONE,39,46,40
India,Chhattisgarh,Tumidih,"OP Jindal Industrial Park, Tumidih - CECB",21-09-2025 07:00:00,22.06631475,83.33820077,NH3,1,2,2
India,Chhattisgarh,Tumidih,"OP Jindal Industrial Park, Tumidih - CECB",21-09-2025 07:00:00,22.06631475,83.33820077,CO,14,48,23
India,Chhattisgarh,Tumidih,"OP Jindal Industrial Park, Tumidih - CECB",21-09-2025 07:00:00,22.06631475,83.33820077,OZONE,4,30,6
India,Delhi,Delhi,"Alipur, Delhi - DPCC",21-09-2025 07:00:00,28.815329,77.153010,NH3,2,4,3
India,Delhi,Delhi,"Anand Vihar, Delhi - DPCC",21-09-2025 07:00:00,28.647622,77.3158090,SO2,12,41,27
India,Delhi,Delhi,"Ashok Vihar, Delhi - DPCC",21-09-2025 07:00:00,28.695381,77.181665,PM2.5,20,120,61
India,Delhi,Delhi,"Ashok Vihar, Delhi - DPCC",21-09-2025 07:00:00,28.695381,77.181665,SO2,9,21,14
India,Delhi,Delhi,"Bawana, Delhi - DPCC",21-09-2025 07:00:00,28.776200,77.051074,PM2.5,40,273,101
India,Delhi,Delhi,"Bawana, Delhi - DPCC",21-09-2025 07:00:00,28.776200,77.051074,NO2,4,26,12
India,Delhi,Delhi,"CRRI Mathura Road, Delhi - IMD",21-09-2025 07:00:00,28.5512005,77.2735737,PM10,97,195,152
India,Delhi,Delhi,"Chandni Chowk, Delhi - IITM",21-09-2025 07:00:00,28.656756,77.227234,NO2,32,87,51
India,Delhi,Delhi,"DTU, Delhi - CPCB",21-09-2025 07:00:00,28.7500499,77.1112615,PM2.5,21,51,38
India,Bihar,Saharsa,"Police Line, Saharsa - BSPCB",21-09-2025 07:00:00,25.892357,86.590325,NO2,6,8,7
India,Bihar,Saharsa,"Police Line, Saharsa - BSPCB",21-09-2025 07:00:00,25.892357,86.590325,SO2,15,18,16
India,Bihar,Samastipur,"DM Office_Kasipur, Samastipur - BSPCB",21-09-2025 07:00:00,25.859655,85.77944,CO,NA,NA,NA
India,Bihar,Siwan,"Chitragupta Nagar, Siwan - BSPCB",21-09-2025 07:00:00,26.2271665,84.3570427,NO2,1,1,1
India,Bihar,Siwan,"Chitragupta Nagar, Siwan - BSPCB",21-09-2025 07:00:00,26.2271665,84.3570427,NH3,1,1,1
India,Bihar,Siwan,"Chitragupta Nagar, Siwan - BSPCB",21-09-2025 07:00:00,26.2271665,84.3570427,CO,70,106,77
India,Bihar,Siwan,"Chitragupta Nagar, Siwan - BSPCB",21-09-2025 07:00:00,26.2271665,84.3570427,OZONE,2,4,3
India,Chandigarh,Chandigarh,"Sector 22, Chandigarh - CPCC",21-09-2025 07:00:00,30.735567,76.775714,NH3,18,45,29
India,Chandigarh,Chandigarh,"Sector 22, Chandigarh - CPCC",21-09-2025 07:00:00,30.735567,76.775714,SO2,2,6,4
India,Chandigarh,Chandigarh,"Sector-25, Chandigarh - CPCC",21-09-2025 07:00:00,30.751462,76.762879,PM2.5,57,89,71
India,Chandigarh,Chandigarh,"Sector-53, Chandigarh - CPCC",21-09-2025 07:00:00,30.719859,76.738637,SO2,12,21,16
India,Chhattisgarh,Bhilai,"32Bungalows, Bhilai - CECB",21-09-2025 07:00:00,21.194815,81.314770,NH3,3,4,3
India,Delhi,Delhi,"Jahangirpuri, Delhi - DPCC",21-09-2025 07:00:00,28.732820,77.170633,NO2,28,69,45
India,Delhi,Delhi,"Jawaharlal Nehru Stadium, Delhi - DPCC",21-09-2025 07:00:00,28.580280,77.233829,NO2,32,95,59
India,Delhi,Delhi,"Jawaharlal Nehru Stadium, Delhi - DPCC",21-09-2025 07:00:00,28.580280,77.233829,OZONE,5,39,7
India,Delhi,Delhi,"Lodhi Road, Delhi - IITM",21-09-2025 07:00:00,28.588333,77.221667,SO2,NA,NA,NA
India,Delhi,Delhi,"Major Dhyan Chand National Stadium, Delhi - DPCC",21-09-2025 07:00:00,28.611281,77.237738,NH3,14,17,15
India,Bihar,Patna,"DRM Office Danapur, Patna - BSPCB",21-09-2025 07:00:00,25.586562,85.043586,PM2.5,10,69,41
India,Bihar,Patna,"DRM Office Danapur, Patna - BSPCB",21-09-2025 07:00:00,25.586562,85.043586,SO2,7,10,9
India,Bihar,Patna,"Govt. High School Shikarpur, Patna - BSPCB",21-09-2025 07:00:00,25.592539,85.227158,PM10,17,50,36
India,Chhattisgarh,Chhal,"Nawapara SECL Colony, Chhal - CECB",21-09-2025 07:00:00,22.118125,83.140608,PM10,NA,NA,NA
India,Chhattisgarh,Korba,"Urja Nagar, Korba - CECB",21-09-2025 07:00:00,22.348441,82.549611,PM2.5,16,22,17
India,Gujarat,Gandhinagar,"GIFT City, Gandhinagar - IITM",21-09-2025 07:00:00,23.163798,72.677768,NH3,1,11,5
India,Gujarat,Gandhinagar,"GIFT City, Gandhinagar - IITM",21-09-2025 07:00:00,23.163798,72.677768,OZONE,1,17,1
India,Gujarat,Gandhinagar,"IIPHG Lekawada, Gandhinagar - IITM",21-09-2025 07:00:00,23.243639,72.68994,PM2.5,30,68,49
India,Gujarat,Gandhinagar,"IIPHG Lekawada, Gandhinagar - IITM",21-09-2025 07:00:00,23.243639,72.68994,NH3,1,1,1
India,Gujarat,Gandhinagar,"Sector-10, Gandhinagar - GPCB",21-09-2025 07:00:00,23.221714,72.654328,NH3,1,1,1
India,Gujarat,Nandesari,"GIDC, Nandesari - Nandesari Ind. Association",21-09-2025 07:00:00,22.410802,73.097923,PM10,NA,NA,NA
India,Gujarat,Vapi,"Phase-1 GIDC, Vapi - GPCB",21-09-2025 07:00:00,20.362421,72.918013,NH3,10,10,10
India,Gujarat,Vapi,"Phase-1 GIDC, Vapi - GPCB",21-09-2025 07:00:00,20.362421,72.918013,OZONE,2,2,2
India,Karnataka,Bengaluru,"Hombegowda Nagar, Bengaluru - KSPCB",21-09-2025 07:00:00,12.938539,77.590100,PM10,25,53,38
India,Karnataka,Bengaluru,"Hombegowda Nagar, Bengaluru - KSPCB",21-09-2025 07:00:00,12.938539,77.590100,OZONE,2,15,5
India,Karnataka,Bengaluru,"Jayanagar 5th Block, Bengaluru - KSPCB",21-09-2025 07:00:00,12.920984,77.584908,NH3,1,1,1
India,Karnataka,Bengaluru,"Jayanagar 5th Block, Bengaluru - KSPCB",21-09-2025 07:00:00,12.920984,77.584908,OZONE,4,26,13
India,Karnataka,Bengaluru,"Sanegurava Halli, Bengaluru - KSPCB",21-09-2025 07:00:00,12.990328,77.5431385,SO2,7,8,7
India,Karnataka,Bengaluru,"Shivapura_Peenya, Bengaluru - KSPCB",21-09-2025 07:00:00,13.0246342,77.5080115,NH3,4,4,4
India,Karnataka,Bengaluru,"Silk Board, Bengaluru - KSPCB",21-09-2025 07:00:00,12.917348,77.622813,CO,31,42,35
India,Delhi,Delhi,"Mandir Marg, Delhi - DPCC",21-09-2025 07:00:00,28.636429,77.201067,CO,27,120,36
India,Delhi,Delhi,"Mundka, Delhi - DPCC",21-09-2025 07:00:00,28.684678,77.076574,PM2.5,22,98,58
India,Delhi,Delhi,"Mundka, Delhi - DPCC",21-09-2025 07:00:00,28.684678,77.076574,NO2,16,52,32
India,Delhi,Delhi,"Mundka, Delhi - DPCC",21-09-2025 07:00:00,28.684678,77.076574,SO2,10,22,14
India,Delhi,Delhi,"NSIT Dwarka, Delhi - CPCB",21-09-2025 07:00:00,28.60909,77.0325413,NO2,54,99,77
India,Delhi,Delhi,"Najafgarh, Delhi - DPCC",21-09-2025 07:00:00,28.570173,76.933762,PM10,73,125,98
India,Delhi,Delhi,"Narela, Delhi - DPCC",21-09-2025 07:00:00,28.822836,77.101981,PM2.5,35,118,61
India,Delhi,Delhi,"Narela, Delhi - DPCC",21-09-2025 07:00:00,28.822836,77.101981,CO,54,60,56
India,Jharkhand,Jorapokhar,"Tata Stadium, Jorapokhar - JSPCB",21-09-2025 07:00:00,23.707909,86.414670,PM10,NA,NA,NA
India,Karnataka,Bagalkot,"Vidayagiri, Bagalkot - KSPCB",21-09-2025 07:00:00,16.172806,75.659694,OZONE,10,16,15
India,Karnataka,Bengaluru,"BTM Layout, Bengaluru - CPCB",21-09-2025 07:00:00,12.9135218,77.5950804,PM10,52,54,53
India,Karnataka,Bengaluru,"Bapuji Nagar, Bengaluru - KSPCB",21-09-2025 07:00:00,12.951913,77.539784,NH3,1,2,1
India,Karnataka,Bengaluru,"Bapuji Nagar, Bengaluru - KSPCB",21-09-2025 07:00:00,12.951913,77.539784,OZONE,3,72,7
India,Karnataka,Bengaluru,"Hebbal, Bengaluru - KSPCB",21-09-2025 07:00:00,13.029152,77.585901,CO,16,30,17
India,Haryana,Gurugram,"NISE Gwal Pahari, Gurugram - IMD",21-09-2025 07:00:00,28.422681,77.148944,OZONE,11,48,12
India,Haryana,Panchgaon,"Amity University, Panchgaon - IITM",21-09-2025 07:00:00,28.3153,76.9143,PM2.5,42,96,59
India,Himachal Pradesh,Baddi,"HIMUDA Complex Phase-1, Baddi - HPPCB",21-09-2025 07:00:00,30.943887,76.801991,NO2,10,58,28
India,Himachal Pradesh,Baddi,"HIMUDA Complex Phase-1, Baddi - HPPCB",21-09-2025 07:00:00,30.943887,76.801991,SO2,19,88,36
India,Jharkhand,Dhanbad,"Sardar Patel Nagar, Dhanbad - JSPCB",21-09-2025 07:00:00,23.80569,86.44268,PM10,2,81,41
India,Gujarat,Ahmedabad,"Rakhial, Ahmedabad - IITM",21-09-2025 07:00:00,23.016834,72.625775,PM2.5,48,186,80
India,Gujarat,Ahmedabad,"SAC ISRO Bopal, Ahmedabad - IITM",21-09-2025 07:00:00,23.041137,72.456691,NH3,2,3,3
India,Gujarat,Ahmedabad,"SAC ISRO Satellite, Ahmedabad - IITM",21-09-2025 07:00:00,23.023389,72.515201,PM2.5,18,97,54
India,Gujarat,Ahmedabad,"SAC ISRO Satellite, Ahmedabad - IITM",21-09-2025 07:00:00,23.023389,72.515201,PM10,26,107,66
India,Gujarat,Ahmedabad,"SAC ISRO Satellite, Ahmedabad - IITM",21-09-2025 07:00:00,23.023389,72.515201,OZONE,12,27,17
India,Gujarat,Ankleshwar,"GIDC, Ankleshwar - GPCB",21-09-2025 07:00:00,21.613267,73.010555,PM2.5,40,75,58
India,Gujarat,Ankleshwar,"GIDC, Ankleshwar - GPCB",21-09-2025 07:00:00,21.613267,73.010555,PM10,60,61,60
India,Delhi,Delhi,"Pusa, Delhi - DPCC",21-09-2025 07:00:00,28.639652,77.146275,NH3,2,14,8
India,Delhi,Delhi,"Pusa, Delhi - DPCC",21-09-2025 07:00:00,28.639652,77.146275,OZONE,4,20,6
India,Delhi,Delhi,"Pusa, Delhi - IMD",21-09-2025 07:00:00,28.636110,77.173332,CO,25,49,37
India,Delhi,Delhi,"Rohini, Delhi - DPCC",21-09-2025 07:00:00,28.732528,77.119920,PM10,90,167,118
India,Delhi,Delhi,"Rohini, Delhi - DPCC",21-09-2025 07:00:00,28.732528,77.119920,NO2,1,16,9
India,Delhi,Delhi,"Rohini, Delhi - DPCC",21-09-2025 07:00:00,28.732528,77.119920,NH3,8,9,8
India,Delhi,Delhi,"Rohini, Delhi - DPCC",21-09-2025 07:00:00,28.732528,77.119920,CO,11,22,16
India,Delhi,Delhi,"Sonia Vihar, Delhi - DPCC",21-09-2025 07:00:00,28.710508,77.249485,PM10,85,127,105
India,Delhi,Delhi,"Sonia Vihar, Delhi - DPCC",21-09-2025 07:00:00,28.710508,77.249485,SO2,25,29,27
India,Delhi,Delhi,"Sri Aurobindo Marg, Delhi - DPCC",21-09-2025 07:00:00,28.531346,77.190156,SO2,3,6,4
India,Delhi,Delhi,"Sri Aurobindo Marg, Delhi - DPCC",21-09-2025 07:00:00,28.531346,77.190156,CO,26,49,35
India,Delhi,Delhi,"Vivek Vihar, Delhi - DPCC",21-09-2025 07:00:00,28.672342,77.315260,NO2,5,40,26
India,Delhi,Delhi,"Nehru Nagar, Delhi - DPCC",21-09-2025 07:00:00,28.567890,77.250515,PM2.5,33,331,71
India,Delhi,Delhi,"Okhla Phase-2, Delhi - DPCC",21-09-2025 07:00:00,28.530785,77.271255,NH3,6,7,6
India,Delhi,Delhi,"Okhla Phase-2, Delhi - DPCC",21-09-2025 07:00:00,28.530785,77.271255,CO,6,71,50
India,Delhi,Delhi,"Punjabi Bagh, Delhi - DPCC",21-09-2025 07:00:00,28.674045,77.131023,OZONE,5,22,8
India,Madhya Pradesh,Mandideep,"Sector-D Industrial Area, Mandideep - MPPCB",21-09-2025 07:00:00,23.108440,77.511428,NO2,19,75,38
India,Madhya Pradesh,Mandideep,"Sector-D Industrial Area, Mandideep - MPPCB",21-09-2025 07:00:00,23.108440,77.511428,SO2,12,126,37
India,Madhya Pradesh,Pithampur,"Sector-2 Industrial Area, Pithampur - MPPCB",21-09-2025 07:00:00,22.624758,75.675238,PM10,23,122,62
India,Madhya Pradesh,Pithampur,"Sector-2 Industrial Area, Pithampur - MPPCB",21-09-2025 07:00:00,22.624758,75.675238,SO2,14,30,22
India,Madhya Pradesh,Ratlam,"Shasthri Nagar, Ratlam - IPCA Lab",21-09-2025 07:00:00,23.331731,75.045981,PM10,12,77,41
India,Madhya Pradesh,Sagar,"Civil Lines, Sagar - MPPCB",21-09-2025 07:00:00,23.838586,78.759431,NO2,4,6,4
India,Madhya Pradesh,Sagar,"Civil Lines, Sagar - MPPCB",21-09-2025 07:00:00,23.838586,78.759431,CO,28,38,33
India,Madhya Pradesh,Satna,"Bandhavgar Colony, Satna - Birla Cement",21-09-2025 07:00:00,24.58434363,80.8549414,PM2.5,42,45,44
India,Madhya Pradesh,Singrauli,"Suryakiran Bhawan NCL, Singrauli - MPPCB",21-09-2025 07:00:00,24.108970,82.645580,PM10,33,58,44
India,Madhya Pradesh,Singrauli,"Suryakiran Bhawan NCL, Singrauli - MPPCB",21-09-2025 07:00:00,24.108970,82.645580,NO2,16,17,16
India,Karnataka,Madikeri,"Stuart Hill, Madikeri - KSPCB",21-09-2025 07:00:00,12.415911,75.735050,SO2,7,8,7
India,Karnataka,Mangalore,"Kadri, Mangalore - KSPCB",21-09-2025 07:00:00,12.889250,74.853000,NO2,2,8,6
India,Karnataka,Mangalore,"Kadri, Mangalore - KSPCB",21-09-2025 07:00:00,12.889250,74.853000,NH3,1,2,2
India,Karnataka,Mysuru,"Hebbal 1st Stage, Mysuru - KSPCB",21-09-2025 07:00:00,12.21041,76.37376,NO2,12,29,21
India,Karnataka,Mysuru,"Hebbal 1st Stage, Mysuru - KSPCB",21-09-2025 07:00:00,12.21041,76.37376,NH3,3,6,5
India,Karnataka,Mysuru,"Hebbal 1st Stage, Mysuru - KSPCB",21-09-2025 07:00:00,12.21041,76.37376,OZONE,4,48,5
India,Karnataka,Ramanagara,"Vijay Nagar, Ramanagara - KSPCB",21-09-2025 07:00:00,12.733409,77.298051,NO2,NA,NA,NA
India,Karnataka,Ramanagara,"Vijay Nagar, Ramanagara - KSPCB",21-09-2025 07:00:00,12.733409,77.298051,NH3,NA,NA,NA
India,Karnataka,Ramanagara,"Vijay Nagar, Ramanagara - KSPCB",21-09-2025 07:00:00,12.733409,77.298051,SO2,NA,NA,NA
India,Karnataka,Ramanagara,"Vijay Nagar, Ramanagara - KSPCB",21-09-2025 07:00:00,12.733409,77.298051,CO,NA,NA,NA
India,Karnataka,Shivamogga,"Vinoba Nagara, Shivamogga - KSPCB",21-09-2025 07:00:00,13.940000,75.555917,NH3,2,3,3
India,Karnataka,Dharwad,"Kalabhavan, Dharwad - KSPCB",21-09-2025 07:00:00,15.459706,75.008381,OZONE,NA,NA,NA
India,Karnataka,Hassan,"B.Katihalli, Hassan - KSPCB",21-09-2025 07:00:00,13.008556,76.125258,NO2,9,16,12
India,Karnataka,Hubballi,"Lingaraj Nagar, Hubballi - KSPCB",21-09-2025 07:00:00,15.3714823,75.1160168,PM10,44,49,46
India,Karnataka,Hubballi,"Lingaraj Nagar, Hubballi - KSPCB",21-09-2025 07:00:00,15.3714823,75.1160168,NO2,7,8,7
India,Karnataka,Kalaburagi,"Lal Bahadur Shastri Nagar, Kalaburagi - KSPCB",21-09-2025 07:00:00,17.321993,76.822628,SO2,45,56,51
India,Karnataka,Kalaburagi,"Mahatma Basaveswar Colony, Kalaburgi - KSPCB",21-09-2025 07:00:00,17.336318,76.847397,PM2.5,25,57,31
India,Karnataka,Kalaburagi,"Mahatma Basaveswar Colony, Kalaburgi - KSPCB",21-09-2025 07:00:00,17.336318,76.847397,SO2,3,7,4
India,Madhya Pradesh,Bhopal,"T T Nagar, Bhopal - MPPCB",21-09-2025 07:00:00,23.233584,77.400574,CO,22,112,33
India,Madhya Pradesh,Dewas,"Bhopal Chauraha, Dewas - MPPCB",21-09-2025 07:00:00,22.9682591,76.064118,NH3,2,6,3
India,Madhya Pradesh,Gwalior,"City Center, Gwalior - MPPCB",21-09-2025 07:00:00,26.203442,78.193251,NO2,8,8,8
India,Madhya Pradesh,Gwalior,"City Center, Gwalior - MPPCB",21-09-2025 07:00:00,26.203442,78.193251,CO,8,76,19
India,Madhya Pradesh,Gwalior,"City Center, Gwalior - MPPCB",21-09-2025 07:00:00,26.203442,78.193251,OZONE,21,53,21
India,Madhya Pradesh,Gwalior,"Deen Dayal Nagar, Gwalior - MPPCB",21-09-2025 07:00:00,26.259242,78.216432,PM10,6,119,66
India,Madhya Pradesh,Gwalior,"Deen Dayal Nagar, Gwalior - MPPCB",21-09-2025 07:00:00,26.259242,78.216432,CO,24,87,31
India,Kerala,Thiruvananthapuram,"Plammoodu, Thiruvananthapuram - Kerala PCB",21-09-2025 07:00:00,8.5149093,76.9435879,PM2.5,3,127,49
India,Kerala,Thiruvananthapuram,"Plammoodu, Thiruvananthapuram - Kerala PCB",21-09-2025 07:00:00,8.5149093,76.9435879,PM10,1,101,31
India,Madhya Pradesh,Bhopal,"Idgah Hills, Bhopal - MPPCB",21-09-2025 07:00:00,23.264759,77.381568,CO,15,45,21
India,Madhya Pradesh,Bhopal,"Paryavaran Parisar, Bhopal - MPPCB",21-09-2025 07:00:00,23.210494,77.425409,PM10,14,56,37
India,Madhya Pradesh,Bhopal,"Paryavaran Parisar, Bhopal - MPPCB",21-09-2025 07:00:00,23.210494,77.425409,NO2,9,42,17
India,Madhya Pradesh,Jabalpur,"Gupteshwar, Jabalpur - JMC",21-09-2025 07:00:00,23.142888,79.916147,NO2,9,40,17
India,Madhya Pradesh,Jabalpur,"Gupteshwar, Jabalpur - JMC",21-09-2025 07:00:00,23.142888,79.916147,SO2,6,27,15
India,Madhya Pradesh,Jabalpur,"Gupteshwar, Jabalpur - JMC",21-09-2025 07:00:00,23.142888,79.916147,CO,28,78,43
India,Madhya Pradesh,Jabalpur,"Gupteshwar, Jabalpur - JMC",21-09-2025 07:00:00,23.142888,79.916147,OZONE,20,52,27
India,Madhya Pradesh,Jabalpur,"Suhagi, Jabalpur - JMC",21-09-2025 07:00:00,23.218135,79.957770,OZONE,6,58,24
India,Madhya Pradesh,Katni,"Gole Bazar, Katni - MPPCB",21-09-2025 07:00:00,23.50016,80.23284,CO,14,47,37
India,Karnataka,Tumakuru,"Thimmalapura, Tumakuru - KSPCB",21-09-2025 07:00:00,13.377516,77.099072,NO2,NA,NA,NA
India,Karnataka,Tumakuru,"Thimmalapura, Tumakuru - KSPCB",21-09-2025 07:00:00,13.377516,77.099072,OZONE,14,15,15
India,Karnataka,Vijayapura,"Ibrahimpur, Vijayapura - KSPCB",21-09-2025 07:00:00,16.802639,75.722694,PM10,43,44,44
India,Karnataka,Vijayapura,"Ibrahimpur, Vijayapura - KSPCB",21-09-2025 07:00:00,16.802639,75.722694,CO,14,120,32
India,Kerala,Eloor,"Udyogamandal, Eloor - Kerala PCB",21-09-2025 07:00:00,10.073232,76.302765,CO,NA,NA,NA
India,Madhya Pradesh,Indore,"Airport Area, Indore - IMC",21-09-2025 07:00:00,22.7289,75.8076,SO2,20,22,21
India,Madhya Pradesh,Indore,"Airport Area, Indore - IMC",21-09-2025 07:00:00,22.7289,75.8076,OZONE,1,4,2
India,Madhya Pradesh,Indore,"Residency Area, Indore - IMC",21-09-2025 07:00:00,22.7084,75.8815,OZONE,8,12,10
India,Madhya Pradesh,Jabalpur,"Govindh Bhavan Colony, Jabalpur - JMC",21-09-2025 07:00:00,23.163174,79.973061,NO2,36,37,36
India,Karnataka,Chamarajanagar,"Urban, Chamarajanagar - KSPCB",21-09-2025 07:00:00,11.55358,76.55521,NO2,24,29,28
India,Karnataka,Chamarajanagar,"Urban, Chamarajanagar - KSPCB",21-09-2025 07:00:00,11.55358,76.55521,NH3,2,2,2
India,Karnataka,Chamarajanagar,"Urban, Chamarajanagar - KSPCB",21-09-2025 07:00:00,11.55358,76.55521,OZONE,21,29,25
India,Karnataka,Chikkamagaluru,"Kalyana Nagara, Chikkamagaluru - KSPCB",21-09-2025 07:00:00,13.328028,75.797056,CO,11,11,11
India,Maharashtra,Aurangabad,"MIDC Chilkalthana, Aurangabad - MPCB",21-09-2025 07:00:00,19.875620,75.387310,OZONE,11,55,17
India,Maharashtra,Aurangabad,"More Chowk Waluj, Aurangabad - MPCB",21-09-2025 07:00:00,19.8389439,75.244448,PM10,NA,NA,NA
India,Maharashtra,Aurangabad,"More Chowk Waluj, Aurangabad - MPCB",21-09-2025 07:00:00,19.8389439,75.244448,NH3,NA,NA,NA
India,Maharashtra,Aurangabad,"Rachnakar Colony, Aurangabad - MPCB",21-09-2025 07:00:00,19.863756,75.321188,NO2,14,22,19
India,Maharashtra,Aurangabad,"Rachnakar Colony, Aurangabad - MPCB",21-09-2025 07:00:00,19.863756,75.321188,OZONE,11,49,14
India,Maharashtra,Belapur,"CBD Belapur, Belapur - MPCB",21-09-2025 07:00:00,19.0243902,73.0406721,PM2.5,28,39,34
India,Maharashtra,Belapur,"CBD Belapur, Belapur - MPCB",21-09-2025 07:00:00,19.0243902,73.0406721,PM10,41,57,50
