country,state,city,station,last_update,latitude,longitude,pollutant_id,min_value,max_value,avg_value
India,Andhra_Pradesh,Machilipatnam,"Srinivas Nagar Colony, Machilipatnam - APPCB",24-03-2026 08:00:00,16.186555,81.13219,NH3,NA,NA,NA
India,Andhra_Pradesh,Nellore,"Ambedkar Nagar, Nellore - APPCB ",24-03-2026 08:00:00,14.438164 ,79.966814 ,NO2,15,20,17
India,Andhra_Pradesh,Rajamahendravaram,"Anand Kala Kshetram, Rajamahendravaram - APPCB",24-03-2026 08:00:00,16.9872867,81.7363176,PM2.5,12,50,25
India,Andhra_Pradesh,Rajamahendravaram,"Anand Kala Kshetram, Rajamahendravaram - APPCB",24-03-2026 08:00:00,16.9872867,81.7363176,NH3,2,3,3
India,Andhra_Pradesh,Tirumala,"Toll Gate, Tirumala - APPCB",24-03-2026 08:00:00,13.67,79.35,SO2,1,5,2
India,Andhra_Pradesh,Tirumala,"Toll Gate, Tirumala - APPCB",24-03-2026 08:00:00,13.67,79.35,OZONE,7,67,25
India,Andhra_Pradesh,Tirupati,"Vaikuntapuram, Tirupati - APPCB",24-03-2026 08:00:00,13.615387,79.409230,NO2,19,30,23
India,Andhra_Pradesh,Tirupati,"Vaikuntapuram, Tirupati - APPCB",24-03-2026 08:00:00,13.615387,79.409230,CO,20,30,22
India,Andhra_Pradesh,Vijayawada,"HB Colony, Vijayawada - APPCB",24-03-2026 08:00:00,16.536107,80.594233,PM2.5,43,79,55
India,Andhra_Pradesh,Vijayawada,"HB Colony, Vijayawada - APPCB",24-03-2026 08:00:00,16.536107,80.594233,CO,26,44,35
India,Arunachal_Pradesh,Naharlagun,"Naharlagun, Naharlagun - APSPCB",24-03-2026 08:00:00,27.103358,93.679645,OZONE,5,6,5
India,Assam,Byrnihat,"Central Academy for SFS, Byrnihat - PCBA",24-03-2026 08:00:00,26.071318,91.87488,PM10,77,196,126
India,Assam,Byrnihat,"Central Academy for SFS, Byrnihat - PCBA",24-03-2026 08:00:00,26.071318,91.87488,NH3,4,4,4
India,Assam,Guwahati,"IITG, Guwahati - PCBA",24-03-2026 08:00:00,26.2028636,91.70046436,PM2.5,20,79,33
India,Assam,Guwahati,"IITG, Guwahati - PCBA",24-03-2026 08:00:00,26.2028636,91.70046436,PM10,18,81,32
India,Assam,Guwahati,"IITG, Guwahati - PCBA",24-03-2026 08:00:00,26.2028636,91.70046436,CO,6,10,10
India,Assam,Guwahati,"LGBI Airport, Guwahati - PCBA",24-03-2026 08:00:00,26.10887,91.589544,PM2.5,56,128,81
India,Assam,Guwahati,"LGBI Airport, Guwahati - PCBA",24-03-2026 08:00:00,26.10887,91.589544,SO2,10,17,13
India,Assam,Guwahati,"Pan Bazaar, Guwahati - PCBA",24-03-2026 08:00:00,26.187500,91.744194,NH3,1,1,1
India,Assam,Guwahati,"Pan Bazaar, Guwahati - PCBA",24-03-2026 08:00:00,26.187500,91.744194,CO,18,36,29
India,Assam,Guwahati,"Railway Colony, Guwahati - PCBA",24-03-2026 08:00:00,26.181742,91.78063,NH3,1,1,1
India,Andhra_Pradesh,Chittoor,"Gangineni Cheruvu, Chittoor - APPCB",24-03-2026 08:00:00,13.204880,79.097889,CO,24,64,55
India,Andhra_Pradesh,Eluru,"District Court, Eluru - APPCB",24-03-2026 08:00:00,16.711754,81.092095,PM10,27,80,44
India,Andhra_Pradesh,Eluru,"District Court, Eluru - APPCB",24-03-2026 08:00:00,16.711754,81.092095,NO2,10,31,20
India,Andhra_Pradesh,Guntur,"Rajendra Nagar North, Guntur - APPCB",24-03-2026 08:00:00,16.316553,80.413302,NO2,14,18,16
India,Andhra_Pradesh,Kadapa,"Yerramukkapalli, Kadapa - APPCB",24-03-2026 08:00:00,14.465052,78.824187,SO2,9,17,11
India,Andhra_Pradesh,Machilipatnam,"Srinivas Nagar Colony, Machilipatnam - APPCB",24-03-2026 08:00:00,16.186555,81.13219,PM2.5,39,179,56
India,Andhra_Pradesh,Machilipatnam,"Srinivas Nagar Colony, Machilipatnam - APPCB",24-03-2026 08:00:00,16.186555,81.13219,PM10,41,119,53
India,Assam,Silchar,"Tarapur, Silchar - PCBA",24-03-2026 08:00:00,24.82827,92.79525,PM10,39,73,59
India,Assam,Silchar,"Tarapur, Silchar - PCBA",24-03-2026 08:00:00,24.82827,92.79525,CO,13,64,33
India,Assam,Sivasagar,"Girls College, Sivasagar - PCBA",24-03-2026 08:00:00,26.987634,94.636574,PM2.5,15,34,25
India,Bihar,Araria,"Kharahiya Basti, Araria - BSPCB",24-03-2026 08:00:00,26.146529,87.454184,PM10,NA,NA,NA
India,Bihar,Araria,"Kharahiya Basti, Araria - BSPCB",24-03-2026 08:00:00,26.146529,87.454184,NO2,NA,NA,NA
India,Bihar,Araria,"Kharahiya Basti, Araria - BSPCB",24-03-2026 08:00:00,26.146529,87.454184,OZONE,7,17,10
India,Bihar,Arrah,"New DM Office, Arrah - BSPCB",24-03-2026 08:00:00,25.5626095,84.663264,CO,22,66,53
India,Bihar,Aurangabad,"Gurdeo Nagar, Aurangabad - BSPCB",24-03-2026 08:00:00,24.75746,84.366208,PM2.5,7,70,28
India,Bihar,Aurangabad,"Gurdeo Nagar, Aurangabad - BSPCB",24-03-2026 08:00:00,24.75746,84.366208,NO2,7,8,8
India,Bihar,Aurangabad,"Gurdeo Nagar, Aurangabad - BSPCB",24-03-2026 08:00:00,24.75746,84.366208,SO2,9,15,12
India,Bihar,Aurangabad,"Gurdeo Nagar, Aurangabad - BSPCB",24-03-2026 08:00:00,24.75746,84.366208,CO,101,103,102
India,Bihar,Bhagalpur,"DM Office_Kachari Chowk, Bhagalpur - BSPCB",24-03-2026 08:00:00,25.251013,86.989001,NH3,1,1,1
India,Bihar,Bhagalpur,"Mayaganj, Bhagalpur - BSPCB",24-03-2026 08:00:00,25.265194,87.012947,PM2.5,15,78,38
India,Bihar,Bhagalpur,"Mayaganj, Bhagalpur - BSPCB",24-03-2026 08:00:00,25.265194,87.012947,NO2,5,11,7
India,Andhra_Pradesh,Vijayawada,"Rajiv Nagar, Vijayawada - APPCB",24-03-2026 08:00:00,16.554731,80.649110,SO2,14,16,15
India,Arunachal_Pradesh,Naharlagun,"Naharlagun, Naharlagun - APSPCB",24-03-2026 08:00:00,27.103358,93.679645,PM2.5,2,44,21
India,Andhra_Pradesh,Anantapur,"Gulzarpet, Anantapur - APPCB",24-03-2026 08:00:00,14.675886,77.593027,PM2.5,48,63,54
India,Andhra_Pradesh,Anantapur,"Gulzarpet, Anantapur - APPCB",24-03-2026 08:00:00,14.675886,77.593027,NH3,4,6,4
India,Andhra_Pradesh,Anantapur,"Gulzarpet, Anantapur - APPCB",24-03-2026 08:00:00,14.675886,77.593027,CO,31,68,31
India,Bihar,Begusarai,"Lohiyanagar, Begusarai - BSPCB",24-03-2026 08:00:00,25.42742023,86.13886079,NO2,7,17,13
India,Bihar,Begusarai,"Lohiyanagar, Begusarai - BSPCB",24-03-2026 08:00:00,25.42742023,86.13886079,CO,20,38,28
India,Andhra_Pradesh,Vijayawada,"Kanuru, Vijayawada - APPCB",24-03-2026 08:00:00,16.486692,80.699436,PM2.5,40,67,49
India,Bihar,Chhapra,"Darshan Nagar, Chhapra - BSPCB",24-03-2026 08:00:00,25.7808257,84.7446768,NH3,NA,NA,NA
India,Bihar,Chhapra,"Darshan Nagar, Chhapra - BSPCB",24-03-2026 08:00:00,25.7808257,84.7446768,SO2,NA,NA,NA
India,Bihar,Gaya,"Collectorate, Gaya - BSPCB",24-03-2026 08:00:00,24.7955,84.9994,OZONE,17,19,18
India,Bihar,Gaya,"Kareemganj, Gaya - BSPCB",24-03-2026 08:00:00,24.792403,84.992416,CO,1,64,6
India,Bihar,Gaya,"SFTI Kusdihra, Gaya - BSPCB",24-03-2026 08:00:00,24.762518,84.982348,PM2.5,25,71,41
India,Bihar,Gaya,"SFTI Kusdihra, Gaya - BSPCB",24-03-2026 08:00:00,24.762518,84.982348,PM10,19,95,46
India,Bihar,Hajipur,"Industrial Area, Hajipur - BSPCB",24-03-2026 08:00:00,25.697189,85.245900,NH3,9,11,10
India,Bihar,Katihar,"Mirchaibari, Katihar - BSPCB",24-03-2026 08:00:00,25.560083,87.553265,SO2,13,21,18
India,Bihar,Katihar,"Mirchaibari, Katihar - BSPCB",24-03-2026 08:00:00,25.560083,87.553265,OZONE,5,37,7
India,Bihar,Kishanganj,"SDM Office_Khagra, Kishanganj - BSPCB",24-03-2026 08:00:00,26.0881305,87.93840336,PM2.5,32,90,56
India,Chhattisgarh,Bilaspur,"Mangala, Bilaspur - NTPC",24-03-2026 08:00:00,22.08815,82.13737,NO2,24,110,42
India,Chhattisgarh,Bilaspur,"Mangala, Bilaspur - NTPC",24-03-2026 08:00:00,22.08815,82.13737,SO2,5,22,12
India,Chhattisgarh,Chhal,"Nawapara SECL Colony, Chhal - CECB",24-03-2026 08:00:00,22.118125,83.140608,PM2.5,17,92,61
India,Chhattisgarh,Korba,"Rampur, Korba - CECB",24-03-2026 08:00:00,22.368195,82.746431,PM10,41,181,78
India,Chhattisgarh,Korba,"Rampur, Korba - CECB",24-03-2026 08:00:00,22.368195,82.746431,CO,9,63,28
India,Chhattisgarh,Korba,"Urja Nagar, Korba - CECB",24-03-2026 08:00:00,22.348441,82.549611,NO2,21,32,26
India,Chhattisgarh,Kunjemura,"OP Jindal School, Kunjemura - CECB",24-03-2026 08:00:00,22.126650,83.483212,SO2,10,54,23
India,Chhattisgarh,Milupara,"Govt. Higher Secondary School, Milupara - CECB",24-03-2026 08:00:00,22.1910172,83.5197009,OZONE,5,114,10
India,Chhattisgarh,Raipur,"AIIMS, Raipur - CECB",24-03-2026 08:00:00,21.258815,81.578979,PM10,35,76,52
India,Bihar,Kishanganj,"SDM Office_Khagra, Kishanganj - BSPCB",24-03-2026 08:00:00,26.0881305,87.93840336,CO,16,19,17
India,Bihar,Manguraha,"Forest Rest House, Manguraha - BSPCB",24-03-2026 08:00:00,27.308328,84.531742,PM2.5,43,163,60
India,Bihar,Manguraha,"Forest Rest House, Manguraha - BSPCB",24-03-2026 08:00:00,27.308328,84.531742,NH3,2,2,2
India,Bihar,Manguraha,"Forest Rest House, Manguraha - BSPCB",24-03-2026 08:00:00,27.308328,84.531742,OZONE,8,11,9
India,Bihar,Muzaffarpur,"Buddha Colony, Muzaffarpur - BSPCB",24-03-2026 08:00:00,26.11442,85.39813,NO2,25,55,35
India,Bihar,Muzaffarpur,"Buddha Colony, Muzaffarpur - BSPCB",24-03-2026 08:00:00,26.11442,85.39813,CO,13,65,32
India,Bihar,Muzaffarpur,"MIT-Daudpur Kothi, Muzaffarpur - BSPCB",24-03-2026 08:00:00,26.1403345,85.3650192,NO2,2,6,3
India,Bihar,Muzaffarpur,"MIT-Daudpur Kothi, Muzaffarpur - BSPCB",24-03-2026 08:00:00,26.1403345,85.3650192,OZONE,7,43,23
India,Bihar,Muzaffarpur,"Muzaffarpur Collectorate, Muzaffarpur - BSPCB",24-03-2026 08:00:00,26.1209,85.3647,PM2.5,40,93,69
India,Bihar,Rajgir,"Dangi Tola, Rajgir - BSPCB",24-03-2026 08:00:00,25.03280,85.41948,NO2,13,15,14
India,Bihar,Rajgir,"Dangi Tola, Rajgir - BSPCB",24-03-2026 08:00:00,25.03280,85.41948,OZONE,22,28,26
India,Bihar,Saharsa,"Police Line, Saharsa - BSPCB",24-03-2026 08:00:00,25.892357,86.590325,OZONE,8,16,12
India,Bihar,Samastipur,"DM Office_Kasipur, Samastipur - BSPCB",24-03-2026 08:00:00,25.859655,85.77944,NO2,NA,NA,NA
India,Bihar,Samastipur,"DM Office_Kasipur, Samastipur - BSPCB",24-03-2026 08:00:00,25.859655,85.77944,CO,10,12,12
India,Bihar,Sasaram,"Dada Peer, Sasaram - BSPCB",24-03-2026 08:00:00,24.952822,84.002396,NH3,2,11,4
India,Bihar,Sasaram,"Dada Peer, Sasaram - BSPCB",24-03-2026 08:00:00,24.952822,84.002396,SO2,3,5,4
India,Chandigarh,Chandigarh,"Sector 22, Chandigarh - CPCC",24-03-2026 08:00:00,30.735567,76.775714,PM10,43,145,101
India,Chhattisgarh,Raipur,"AIIMS, Raipur - CECB",24-03-2026 08:00:00,21.258815,81.578979,SO2,2,7,4
India,Chhattisgarh,Raipur,"Bhatagaon New ISBT, Raipur - CECB",24-03-2026 08:00:00,21.219665,81.630094,PM2.5,18,37,27
India,Chhattisgarh,Raipur,"Bhatagaon New ISBT, Raipur - CECB",24-03-2026 08:00:00,21.219665,81.630094,PM10,20,82,48
India,Chhattisgarh,Raipur,"Krishak Nagar, Raipur - CECB",24-03-2026 08:00:00,21.237755,81.705301,SO2,3,38,11
India,Chhattisgarh,Raipur,"Siltara Phase-II, Raipur - CECB",24-03-2026 08:00:00,21.371751,81.664929,PM10,43,139,75
India,Chhattisgarh,Tumidih,"OP Jindal Industrial Park, Tumidih - CECB",24-03-2026 08:00:00,22.06631475,83.33820077,OZONE,15,84,18
India,Delhi,Delhi,"Alipur, Delhi - DPCC",24-03-2026 08:00:00,28.815329,77.153010,PM2.5,32,348,180
India,Chandigarh,Chandigarh,"Sector 22, Chandigarh - CPCC",24-03-2026 08:00:00,30.735567,76.775714,OZONE,3,121,9
India,Chandigarh,Chandigarh,"Sector-53, Chandigarh - CPCC",24-03-2026 08:00:00,30.719859,76.738637,NO2,11,122,48
India,Chhattisgarh,Bhilai,"32Bungalows, Bhilai - CECB",24-03-2026 08:00:00,21.194815,81.314770,PM2.5,20,36,26
India,Chhattisgarh,Bhilai,"32Bungalows, Bhilai - CECB",24-03-2026 08:00:00,21.194815,81.314770,CO,19,36,29
India,Chhattisgarh,Bhilai,"Civic Center, Bhilai - Bhilai Steel Plant",24-03-2026 08:00:00,21.185571,81.343175,NO2,10,11,11
India,Chhattisgarh,Bhilai,"Hathkhoj, Bhilai - CECB",24-03-2026 08:00:00,21.224231,81.408350,PM2.5,1,61,32
India,Chhattisgarh,Bhilai,"Hathkhoj, Bhilai - CECB",24-03-2026 08:00:00,21.224231,81.408350,PM10,10,79,41
India,Chhattisgarh,Bhilai,"Hathkhoj, Bhilai - CECB",24-03-2026 08:00:00,21.224231,81.408350,NO2,16,84,46
India,Delhi,Delhi,"Anand Vihar, Delhi - DPCC",24-03-2026 08:00:00,28.647622,77.3158090,NO2,40,125,72
India,Delhi,Delhi,"Ashok Vihar, Delhi - DPCC",24-03-2026 08:00:00,28.695381,77.181665,PM2.5,58,335,163
India,Delhi,Delhi,"Ashok Vihar, Delhi - DPCC",24-03-2026 08:00:00,28.695381,77.181665,PM10,51,401,149
India,Delhi,Delhi,"Ashok Vihar, Delhi - DPCC",24-03-2026 08:00:00,28.695381,77.181665,NH3,6,7,7
India,Delhi,Delhi,"Ashok Vihar, Delhi - DPCC",24-03-2026 08:00:00,28.695381,77.181665,SO2,12,31,20
India,Delhi,Delhi,"Bawana, Delhi - DPCC",24-03-2026 08:00:00,28.776200,77.051074,SO2,5,10,8
India,Delhi,Delhi,"Cantonment Area, Delhi - DPCC ",24-03-2026 08:00:00,28.594169 ,77.125100 ,PM2.5,9,48,27
India,Delhi,Delhi,"Cantonment Area, Delhi - DPCC ",24-03-2026 08:00:00,28.594169 ,77.125100 ,SO2,54,57,55
India,Bihar,Patna,"Govt. High School Shikarpur, Patna - BSPCB",24-03-2026 08:00:00,25.592539,85.227158,NO2,15,18,16
India,Bihar,Patna,"Govt. High School Shikarpur, Patna - BSPCB",24-03-2026 08:00:00,25.592539,85.227158,SO2,2,7,6
India,Bihar,Patna,"Govt. High School Shikarpur, Patna - BSPCB",24-03-2026 08:00:00,25.592539,85.227158,CO,2,88,48
India,Bihar,Patna,"IGSC Planetarium Complex, Patna - BSPCB",24-03-2026 08:00:00,25.610369,85.132568,NO2,1,2,1
India,Bihar,Patna,"IGSC Planetarium Complex, Patna - BSPCB",24-03-2026 08:00:00,25.610369,85.132568,CO,6,33,30
India,Bihar,Patna,"Muradpur, Patna - BSPCB",24-03-2026 08:00:00,25.619651,85.147382,NH3,4,5,5
India,Bihar,Patna,"Rajbansi Nagar, Patna - BSPCB",24-03-2026 08:00:00,25.599486,85.113666,NH3,1,1,1
India,Bihar,Patna,"Rajbansi Nagar, Patna - BSPCB",24-03-2026 08:00:00,25.599486,85.113666,OZONE,7,11,10
India,Bihar,Bhagalpur,"Mayaganj, Bhagalpur - BSPCB",24-03-2026 08:00:00,25.265194,87.012947,NH3,6,8,7
India,Bihar,Bihar Sharif,"D M Colony, Bihar Sharif - BSPCB",24-03-2026 08:00:00,25.204762,85.514960,PM2.5,18,72,39
India,Bihar,Buxar,"Charitra Van, Buxar - BSPCB",24-03-2026 08:00:00,25.567520,83.966379,NH3,3,3,3
India,Bihar,Chhapra,"Darshan Nagar, Chhapra - BSPCB",24-03-2026 08:00:00,25.7808257,84.7446768,PM2.5,NA,NA,NA
India,Delhi,Delhi,"IGNOU_Maidan Garhi, Delhi - DPCC",24-03-2026 08:00:00,28.493624 ,77.201159 ,PM2.5,29,382,176
India,Delhi,Delhi,"IGNOU_Maidan Garhi, Delhi - DPCC",24-03-2026 08:00:00,28.493624 ,77.201159 ,PM10,39,295,129
India,Delhi,Delhi,"IGNOU_Maidan Garhi, Delhi - DPCC",24-03-2026 08:00:00,28.493624 ,77.201159 ,NH3,3,7,5
India,Delhi,Delhi,"IGNOU_Maidan Garhi, Delhi - DPCC",24-03-2026 08:00:00,28.493624 ,77.201159 ,CO,114,126,123
India,Delhi,Delhi,"IHBAS, Dilshad Garden, Delhi - CPCB",24-03-2026 08:00:00,28.6811736,77.3025234,PM10,44,189,119
India,Delhi,Delhi,"IHBAS, Dilshad Garden, Delhi - CPCB",24-03-2026 08:00:00,28.6811736,77.3025234,NH3,6,22,10
India,Delhi,Delhi,"IIT Delhi, Delhi - IITM",24-03-2026 08:00:00,28.542460,77.191651,NO2,14,80,32
India,Delhi,Delhi,"ITO, Delhi - CPCB",24-03-2026 08:00:00,28.628624,77.241060,CO,39,122,74
India,Delhi,Delhi,"ITO, Delhi - CPCB",24-03-2026 08:00:00,28.628624,77.241060,OZONE,30,66,32
India,Delhi,Delhi,"Jahangirpuri, Delhi - DPCC",24-03-2026 08:00:00,28.732820,77.170633,PM2.5,63,382,199
India,Delhi,Delhi,"Jahangirpuri, Delhi - DPCC",24-03-2026 08:00:00,28.732820,77.170633,NO2,39,111,70
India,Delhi,Delhi,"Patparganj, Delhi - DPCC",24-03-2026 08:00:00,28.623763,77.287209,SO2,8,18,13
India,Delhi,Delhi,"Punjabi Bagh, Delhi - DPCC",24-03-2026 08:00:00,28.674045,77.131023,SO2,35,48,41
India,Delhi,Delhi,"Punjabi Bagh, Delhi - DPCC",24-03-2026 08:00:00,28.674045,77.131023,OZONE,6,180,7
India,Delhi,Delhi,"Pusa, Delhi - DPCC",24-03-2026 08:00:00,28.639652,77.146275,NH3,5,18,12
India,Delhi,Delhi,"Pusa, Delhi - DPCC",24-03-2026 08:00:00,28.639652,77.146275,OZONE,3,154,4
India,Delhi,Delhi,"Pusa, Delhi - IMD",24-03-2026 08:00:00,28.636110,77.173332,OZONE,8,322,35
India,Delhi,Delhi,"R K Puram, Delhi - DPCC",24-03-2026 08:00:00,28.563262,77.186937,NH3,6,9,7
India,Delhi,Delhi,"R K Puram, Delhi - DPCC",24-03-2026 08:00:00,28.563262,77.186937,SO2,3,54,19
India,Delhi,Delhi,"Rohini, Delhi - DPCC",24-03-2026 08:00:00,28.732528,77.119920,NO2,14,104,58
India,Delhi,Delhi,"Shadipur, Delhi - CPCB",24-03-2026 08:00:00,28.6514781,77.1473105,PM2.5,27,329,180
India,Delhi,Delhi,"Wazirpur, Delhi - DPCC",24-03-2026 08:00:00,28.699793,77.165453,NH3,8,9,9
India,Gujarat,Ahmedabad,"Chandkheda, Ahmedabad - IITM",24-03-2026 08:00:00,23.107969,72.574648,NH3,4,8,6
India,Gujarat,Ahmedabad,"Chandkheda, Ahmedabad - IITM",24-03-2026 08:00:00,23.107969,72.574648,OZONE,14,79,28
India,Gujarat,Ahmedabad,"Gyaspur, Ahmedabad - IITM",24-03-2026 08:00:00,22.977134,72.553024,PM2.5,26,142,67
India,Gujarat,Ahmedabad,"Maninagar, Ahmedabad - GPCB",24-03-2026 08:00:00,23.002657,72.591912,PM10,60,109,87
India,Gujarat,Ahmedabad,"Maninagar, Ahmedabad - GPCB",24-03-2026 08:00:00,23.002657,72.591912,NO2,84,91,87
India,Gujarat,Ahmedabad,"Maninagar, Ahmedabad - GPCB",24-03-2026 08:00:00,23.002657,72.591912,OZONE,41,97,50
India,Gujarat,Ahmedabad,"Raikhad, Ahmedabad - IITM",24-03-2026 08:00:00,23.020509,72.579261,NH3,10,23,12
India,Gujarat,Ahmedabad,"Raikhad, Ahmedabad - IITM",24-03-2026 08:00:00,23.020509,72.579261,CO,4,84,33
India,Delhi,Delhi,"NSUT Jaffarpur, Delhi - DPCC",24-03-2026 08:00:00,28.594004 ,76.909423 ,OZONE,7,87,10
India,Delhi,Delhi,"Najafgarh, Delhi - DPCC",24-03-2026 08:00:00,28.570173,76.933762,SO2,16,19,17
India,Delhi,Delhi,"Narela, Delhi - DPCC",24-03-2026 08:00:00,28.822836,77.101981,PM10,53,398,157
India,Delhi,Delhi,"Narela, Delhi - DPCC",24-03-2026 08:00:00,28.822836,77.101981,SO2,7,22,13
India,Delhi,Delhi,"Narela, Delhi - DPCC",24-03-2026 08:00:00,28.822836,77.101981,CO,41,102,74
India,Delhi,Delhi,"New Moti Bagh, Delhi - MHUA",24-03-2026 08:00:00,28.57834,77.18400,NO2,8,9,9
India,Delhi,Delhi,"Okhla Phase-2, Delhi - DPCC",24-03-2026 08:00:00,28.530785,77.271255,OZONE,3,137,6
India,Delhi,Delhi,"Chandni Chowk, Delhi - IITM",24-03-2026 08:00:00,28.656756,77.227234,SO2,6,12,9
India,Delhi,Delhi,"Commonwealth Sports Complex, Delhi - DPCC",24-03-2026 08:00:00,28.615828 ,77.271992 ,PM10,57,335,170
India,Delhi,Delhi,"Commonwealth Sports Complex, Delhi - DPCC",24-03-2026 08:00:00,28.615828 ,77.271992 ,NO2,28,71,44
India,Delhi,Delhi,"DTU, Delhi - CPCB",24-03-2026 08:00:00,28.7500499,77.1112615,PM10,30,207,97
India,Delhi,Delhi,"IGI Airport (T3), Delhi - IMD",24-03-2026 08:00:00,28.5627763,77.1180053,PM10,80,423,221
India,Delhi,Delhi,"IGI Airport (T3), Delhi - IMD",24-03-2026 08:00:00,28.5627763,77.1180053,CO,21,82,64
India,Gujarat,Ahmedabad,"Rakhial, Ahmedabad - IITM",24-03-2026 08:00:00,23.016834,72.625775,NH3,8,13,11
India,Gujarat,Ahmedabad,"Rakhial, Ahmedabad - IITM",24-03-2026 08:00:00,23.016834,72.625775,CO,36,66,40
India,Gujarat,Ahmedabad,"SAC ISRO Bopal, Ahmedabad - IITM",24-03-2026 08:00:00,23.041137,72.456691,PM10,28,83,55
India,Gujarat,Ahmedabad,"SAC ISRO Bopal, Ahmedabad - IITM",24-03-2026 08:00:00,23.041137,72.456691,CO,40,60,49
India,Gujarat,Ankleshwar,"GIDC, Ankleshwar - GPCB",24-03-2026 08:00:00,21.613267,73.010555,PM10,68,128,102
India,Gujarat,Ankleshwar,"GIDC, Ankleshwar - GPCB",24-03-2026 08:00:00,21.613267,73.010555,CO,34,105,78
India,Delhi,Delhi,"Mandir Marg, Delhi - DPCC",24-03-2026 08:00:00,28.636429,77.201067,PM2.5,133,310,217
India,Delhi,Delhi,"Mandir Marg, Delhi - DPCC",24-03-2026 08:00:00,28.636429,77.201067,NH3,8,9,9
India,Delhi,Delhi,"Mandir Marg, Delhi - DPCC",24-03-2026 08:00:00,28.636429,77.201067,CO,55,109,99
India,Delhi,Delhi,"NSIT Dwarka, Delhi - CPCB",24-03-2026 08:00:00,28.60909,77.0325413,NO2,83,216,134
India,Delhi,Delhi,"NSUT Jaffarpur, Delhi - DPCC",24-03-2026 08:00:00,28.594004 ,76.909423 ,SO2,73,84,78
India,Delhi,Delhi,"Sirifort, Delhi - CPCB",24-03-2026 08:00:00,28.5504249,77.2159377,NO2,37,49,45
India,Delhi,Delhi,"Sri Aurobindo Marg, Delhi - DPCC",24-03-2026 08:00:00,28.531346,77.190156,NO2,40,70,53
India,Delhi,Delhi,"Talkatora Garden, Delhi - DPCC",24-03-2026 08:00:00,28.621810,77.1944633,SO2,68,94,83
India,Delhi,Delhi,"Talkatora Garden, Delhi - DPCC",24-03-2026 08:00:00,28.621810,77.1944633,CO,102,118,115
India,Delhi,Delhi,"Lodhi Road, Delhi - IMD",24-03-2026 08:00:00,28.5918245,77.2273074,CO,17,66,60
India,Haryana,Hisar,"Urban Estate-II, Hisar - HSPCB",24-03-2026 08:00:00,29.140560,75.744941,OZONE,15,86,27
India,Haryana,Jind,"Police Lines, Jind - HSPCB",24-03-2026 08:00:00,29.307814,76.337619,PM10,28,92,56
India,Haryana,Jind,"Police Lines, Jind - HSPCB",24-03-2026 08:00:00,29.307814,76.337619,CO,20,102,54
India,Haryana,Kaithal,"Rishi Nagar, Kaithal - HSPCB",24-03-2026 08:00:00,29.8006,76.4155,NO2,24,33,31
India,Haryana,Kaithal,"Rishi Nagar, Kaithal - HSPCB",24-03-2026 08:00:00,29.8006,76.4155,OZONE,1,16,4
India,Haryana,Karnal,"Sector-12, Karnal - HSPCB",24-03-2026 08:00:00,29.695300,77.002700,CO,12,18,14
India,Haryana,Karnal,"Sector-12, Karnal - HSPCB",24-03-2026 08:00:00,29.695300,77.002700,OZONE,10,53,14
India,Haryana,Kurukshetra,"Sector-7, Kurukshetra - HSPCB",24-03-2026 08:00:00,29.966942,76.875879,NO2,4,4,4
India,Haryana,Mandikhera,"General Hospital, Mandikhera(Nuh) - HSPCB",24-03-2026 08:00:00,27.9002,76.9938,NH3,12,14,13
India,Haryana,Manesar,"Sector-2 IMT, Manesar - HSPCB",24-03-2026 08:00:00,28.360699,76.936090,PM2.5,35,202,114
India,Gujarat,Gandhinagar,"IIPHG Lekawada, Gandhinagar - IITM",24-03-2026 08:00:00,23.243639,72.68994,NO2,8,25,16
India,Gujarat,Gandhinagar,"IIPHG Lekawada, Gandhinagar - IITM",24-03-2026 08:00:00,23.243639,72.68994,CO,1,36,24
India,Gujarat,Gandhinagar,"IIPHG Lekawada, Gandhinagar - IITM",24-03-2026 08:00:00,23.243639,72.68994,OZONE,1,19,2
India,Gujarat,Gandhinagar,"Sector-10, Gandhinagar - GPCB",24-03-2026 08:00:00,23.221714,72.654328,PM2.5,53,94,74
India,Gujarat,Gandhinagar,"Sector-10, Gandhinagar - GPCB",24-03-2026 08:00:00,23.221714,72.654328,CO,23,40,25
India,Gujarat,Mehsana,"Sadanand Nagar, Mehsana - Nexteng Enviro",24-03-2026 08:00:00,23.593150,72.372792,PM10,72,130,102
India,Gujarat,Mehsana,"Sadanand Nagar, Mehsana - Nexteng Enviro",24-03-2026 08:00:00,23.593150,72.372792,OZONE,8,19,10
India,Gujarat,Nandesari,"GIDC, Nandesari - Nandesari Ind. Association",24-03-2026 08:00:00,22.410802,73.097923,PM2.5,80,345,165
India,Gujarat,Nandesari,"GIDC, Nandesari - Nandesari Ind. Association",24-03-2026 08:00:00,22.410802,73.097923,SO2,3,10,4
India,Gujarat,Rajkot,"Mavdi, Rajkot - Nexteng Enviro ",24-03-2026 08:00:00,22.248853,70.776774,OZONE,2,10,4
India,Karnataka,Bengaluru,"Hebbal, Bengaluru - KSPCB",24-03-2026 08:00:00,13.029152,77.585901,NO2,42,119,71
India,Karnataka,Bengaluru,"Hebbal, Bengaluru - KSPCB",24-03-2026 08:00:00,13.029152,77.585901,NH3,1,3,2
India,Karnataka,Bengaluru,"Jayanagar 5th Block, Bengaluru - KSPCB",24-03-2026 08:00:00,12.920984,77.584908,NO2,14,22,17
India,Karnataka,Bengaluru,"Jayanagar 5th Block, Bengaluru - KSPCB",24-03-2026 08:00:00,12.920984,77.584908,SO2,6,44,20
India,Karnataka,Bengaluru,"Jayanagar 5th Block, Bengaluru - KSPCB",24-03-2026 08:00:00,12.920984,77.584908,OZONE,27,77,34
India,Karnataka,Bengaluru,"Jigani, Bengaluru - KSPCB",24-03-2026 08:00:00,12.7816279,77.6299145,PM2.5,34,108,70
India,Karnataka,Bengaluru,"Jigani, Bengaluru - KSPCB",24-03-2026 08:00:00,12.7816279,77.6299145,NO2,21,22,22
India,Karnataka,Bengaluru,"Shivapura_Peenya, Bengaluru - KSPCB",24-03-2026 08:00:00,13.0246342,77.5080115,SO2,3,6,5
India,Karnataka,Bengaluru,"Silk Board, Bengaluru - KSPCB",24-03-2026 08:00:00,12.917348,77.622813,PM2.5,53,271,115
India,Karnataka,Bengaluru,"Silk Board, Bengaluru - KSPCB",24-03-2026 08:00:00,12.917348,77.622813,NH3,3,5,4
India,Jammu_and_Kashmir,Srinagar,"Rajbagh, Srinagar - JKPCC",24-03-2026 08:00:00,34.066206,74.819820,OZONE,1,2,1
India,Jharkhand,Dhanbad,"Sardar Patel Nagar, Dhanbad - JSPCB",24-03-2026 08:00:00,23.80569,86.44268,OZONE,2,53,3
India,Karnataka,Bengaluru,"BWSSB Kadabesanahalli, Bengaluru - CPCB",24-03-2026 08:00:00,12.9352049,77.6814488,PM10,NA,NA,NA
India,Karnataka,Bengaluru,"BWSSB Kadabesanahalli, Bengaluru - CPCB",24-03-2026 08:00:00,12.9352049,77.6814488,SO2,1,19,6
India,Karnataka,Bengaluru,"BWSSB Kadabesanahalli, Bengaluru - CPCB",24-03-2026 08:00:00,12.9352049,77.6814488,CO,38,51,38
India,Karnataka,Bengaluru,"Bapuji Nagar, Bengaluru - KSPCB",24-03-2026 08:00:00,12.951913,77.539784,PM10,66,122,91
India,Karnataka,Bengaluru,"Bapuji Nagar, Bengaluru - KSPCB",24-03-2026 08:00:00,12.951913,77.539784,NO2,12,15,14
India,Karnataka,Bengaluru,"Bapuji Nagar, Bengaluru - KSPCB",24-03-2026 08:00:00,12.951913,77.539784,CO,1,34,20
India,Gujarat,Surat,"Science Center, Surat - SMC",24-03-2026 08:00:00,21.170046,72.795405,PM10,49,126,92
India,Gujarat,Surat,"Science Center, Surat - SMC",24-03-2026 08:00:00,21.170046,72.795405,NO2,19,26,22
India,Gujarat,Vadodara,"Bapunagar, Vadodara - Nexteng Enviro",24-03-2026 08:00:00,22.320153,73.216285,NH3,2,3,3
India,Gujarat,Vadodara,"Bapunagar, Vadodara - Nexteng Enviro",24-03-2026 08:00:00,22.320153,73.216285,SO2,5,12,6
India,Gujarat,Vatva,"Phase-4 GIDC, Vatva - GPCB",24-03-2026 08:00:00,22.969611,72.643500,SO2,32,51,39
India,Haryana,Ambala,"Patti Mehar, Ambala - HSPCB",24-03-2026 08:00:00,30.379589,76.778328,PM2.5,61,114,88
India,Haryana,Ambala,"Patti Mehar, Ambala - HSPCB",24-03-2026 08:00:00,30.379589,76.778328,NH3,7,8,8
India,Haryana,Ambala,"Patti Mehar, Ambala - HSPCB",24-03-2026 08:00:00,30.379589,76.778328,OZONE,19,26,22
India,Haryana,Gurugram,"Sector-51, Gurugram - HSPCB",24-03-2026 08:00:00,28.4227,77.0667,NH3,6,10,8
India,Haryana,Gurugram,"Teri Gram, Gurugram - HSPCB",24-03-2026 08:00:00,28.4275,77.1465,NO2,36,76,53
India,Haryana,Gurugram,"Vikas Sadan, Gurugram - HSPCB",24-03-2026 08:00:00,28.4501238,77.0263051,PM10,76,208,147
India,Haryana,Gurugram,"Vikas Sadan, Gurugram - HSPCB",24-03-2026 08:00:00,28.4501238,77.0263051,SO2,2,8,5
India,Haryana,Gurugram,"Vikas Sadan, Gurugram - HSPCB",24-03-2026 08:00:00,28.4501238,77.0263051,CO,66,114,96
India,Haryana,Gurugram,"Vikas Sadan, Gurugram - HSPCB",24-03-2026 08:00:00,28.4501238,77.0263051,OZONE,4,31,10
India,Haryana,Hisar,"Urban Estate-II, Hisar - HSPCB",24-03-2026 08:00:00,29.140560,75.744941,NO2,26,27,27
India,Haryana,Hisar,"Urban Estate-II, Hisar - HSPCB",24-03-2026 08:00:00,29.140560,75.744941,SO2,7,14,11
India,Haryana,Sirsa,"F-Block, Sirsa - HSPCB",24-03-2026 08:00:00,29.536400,75.015800,PM10,25,182,129
India,Haryana,Yamuna Nagar,"Gobind Pura, Yamuna Nagar - HSPCB",24-03-2026 08:00:00,30.1480566,77.2893471,PM10,90,156,123
India,Himachal Pradesh,Baddi,"HIMUDA Complex Phase-1, Baddi - HPPCB",24-03-2026 08:00:00,30.943887,76.801991,NO2,5,51,16
India,Himachal Pradesh,Baddi,"HIMUDA Complex Phase-1, Baddi - HPPCB",24-03-2026 08:00:00,30.943887,76.801991,OZONE,41,124,70
India,Jammu_and_Kashmir,Srinagar,"Rajbagh, Srinagar - JKPCC",24-03-2026 08:00:00,34.066206,74.819820,PM10,21,45,29
India,Jammu_and_Kashmir,Srinagar,"Rajbagh, Srinagar - JKPCC",24-03-2026 08:00:00,34.066206,74.819820,SO2,3,4,3
India,Haryana,Narnaul,"Shastri Nagar, Narnaul - HSPCB",24-03-2026 08:00:00,28.060249,76.113115,PM10,56,144,96
India,Haryana,Palwal,"Shyam Nagar, Palwal - HSPCB",24-03-2026 08:00:00,28.1485564,77.3320667,PM10,79,103,94
India,Haryana,Panchgaon,"Amity University, Panchgaon - IITM",24-03-2026 08:00:00,28.3153,76.9143,OZONE,2,88,5
India,Haryana,Panchkula,"Sector-6, Panchkula - HSPCB ",24-03-2026 08:00:00,30.7057778,76.8531805555555,NO2,22,25,24
India,Haryana,Panchkula,"Sector-6, Panchkula - HSPCB ",24-03-2026 08:00:00,30.7057778,76.8531805555555,SO2,13,14,14
India,Haryana,Bhiwani,"H.B. Colony, Bhiwani - HSPCB",24-03-2026 08:00:00,28.806223,76.141105,PM10,35,217,56
India,Haryana,Faridabad,"New Industrial Town, Faridabad - HSPCB",24-03-2026 08:00:00,28.39072,77.30059,NO2,24,27,25
India,Haryana,Faridabad,"New Industrial Town, Faridabad - HSPCB",24-03-2026 08:00:00,28.39072,77.30059,NH3,11,12,11
India,Haryana,Faridabad,"Sector 11, Faridabad - HSPCB",24-03-2026 08:00:00,28.376058,77.315741,PM10,94,437,207
India,Haryana,Faridabad,"Sector 11, Faridabad - HSPCB",24-03-2026 08:00:00,28.376058,77.315741,NH3,10,10,10
India,Haryana,Faridabad,"Sector 30, Faridabad - HSPCB",24-03-2026 08:00:00,28.4417,77.3217,NO2,36,39,38
India,Karnataka,Kalaburagi,"Mahatma Basaveswar Colony, Kalaburgi - KSPCB",24-03-2026 08:00:00,17.336318,76.847397,NO2,12,14,12
India,Karnataka,Kalaburagi,"Mahatma Basaveswar Colony, Kalaburgi - KSPCB",24-03-2026 08:00:00,17.336318,76.847397,OZONE,9,35,12
India,Karnataka,Madikeri,"Stuart Hill, Madikeri - KSPCB",24-03-2026 08:00:00,12.415911,75.735050,PM10,14,30,26
India,Karnataka,Madikeri,"Stuart Hill, Madikeri - KSPCB",24-03-2026 08:00:00,12.415911,75.735050,CO,10,26,14
India,Karnataka,Mangalore,"Kadri, Mangalore - KSPCB",24-03-2026 08:00:00,12.889250,74.853000,OZONE,23,68,46
India,Karnataka,Mysuru,"Hebbal 1st Stage, Mysuru - KSPCB",24-03-2026 08:00:00,12.21041,76.37376,NO2,9,26,18
India,Karnataka,Ramanagara,"Vijay Nagar, Ramanagara - KSPCB",24-03-2026 08:00:00,12.733409,77.298051,PM2.5,31,165,83
India,Karnataka,Ramanagara,"Vijay Nagar, Ramanagara - KSPCB",24-03-2026 08:00:00,12.733409,77.298051,PM10,38,112,70
India,Karnataka,Ramanagara,"Vijay Nagar, Ramanagara - KSPCB",24-03-2026 08:00:00,12.733409,77.298051,NH3,4,6,4
India,Karnataka,Ramanagara,"Vijay Nagar, Ramanagara - KSPCB",24-03-2026 08:00:00,12.733409,77.298051,SO2,8,47,17
India,Karnataka,Shivamogga,"Vinoba Nagara, Shivamogga - KSPCB",24-03-2026 08:00:00,13.940000,75.555917,PM2.5,2,25,17
India,Madhya Pradesh,Indore,"Residency Area, Indore - IMC",24-03-2026 08:00:00,22.7084,75.8815,PM2.5,29,87,52
India,Madhya Pradesh,Jabalpur,"Govindh Bhavan Colony, Jabalpur - JMC",24-03-2026 08:00:00,23.163174,79.973061,PM2.5,20,101,41
India,Madhya Pradesh,Jabalpur,"Gupteshwar, Jabalpur - JMC",24-03-2026 08:00:00,23.142888,79.916147,PM10,55,146,96
India,Madhya Pradesh,Jabalpur,"Gupteshwar, Jabalpur - JMC",24-03-2026 08:00:00,23.142888,79.916147,NH3,2,2,2
India,Madhya Pradesh,Jabalpur,"Marhatal, Jabalpur - MPPCB",24-03-2026 08:00:00,23.168606,79.932247,SO2,11,34,16
India,Madhya Pradesh,Jabalpur,"Suhagi, Jabalpur - JMC",24-03-2026 08:00:00,23.218135,79.957770,SO2,8,16,12
India,Madhya Pradesh,Jabalpur,"Suhagi, Jabalpur - JMC",24-03-2026 08:00:00,23.218135,79.957770,CO,10,62,19
India,Madhya Pradesh,Jabalpur,"Suhagi, Jabalpur - JMC",24-03-2026 08:00:00,23.218135,79.957770,OZONE,12,37,12
India,Madhya Pradesh,Katni,"Gole Bazar, Katni - MPPCB",24-03-2026 08:00:00,23.50016,80.23284,PM2.5,27,173,58
India,Madhya Pradesh,Satna,"Bandhavgar Colony, Satna - Birla Cement",24-03-2026 08:00:00,24.58434363,80.8549414,PM10,69,72,70
India,Madhya Pradesh,Singrauli,"Suryakiran Bhawan NCL, Singrauli - MPPCB",24-03-2026 08:00:00,24.108970,82.645580,NO2,76,140,121
India,Madhya Pradesh,Singrauli,"Suryakiran Bhawan NCL, Singrauli - MPPCB",24-03-2026 08:00:00,24.108970,82.645580,NH3,4,5,4
India,Madhya Pradesh,Ujjain,"Mahashweta Nagar, Ujjain - MPPCB",24-03-2026 08:00:00,23.1633321,75.800225,NO2,36,66,51
India,Maharashtra,Ahmednagar,"Tarakpur, Ahmednagar - MPCB",24-03-2026 08:00:00,19.10122,74.73339,NH3,5,7,6
India,Maharashtra,Akola,"Ramdaspeth, Akola - MPCB",24-03-2026 08:00:00,20.719516,77.000253,CO,18,59,21
India,Madhya Pradesh,Gwalior,"Deen Dayal Nagar, Gwalior - MPPCB",24-03-2026 08:00:00,26.259242,78.216432,NO2,24,105,55
India,Madhya Pradesh,Gwalior,"Maharaj Bada, Gwalior - MPPCB",24-03-2026 08:00:00,26.200388,78.147714,PM2.5,50,223,88
India,Madhya Pradesh,Indore,"Chhoti Gwaltoli, Indore - MPPCB",24-03-2026 08:00:00,22.4310,75.5213,NO2,40,194,110
India,Madhya Pradesh,Indore,"Maguda Nagar, Indore - IMC",24-03-2026 08:00:00,22.7524,75.8872,PM2.5,24,110,53
India,Madhya Pradesh,Indore,"Regional Park, Indore - IMC",24-03-2026 08:00:00,22.6780,75.8559,NH3,NA,NA,NA
India,Karnataka,Udupi,"Brahmagiri, Udupi - KSPCB",24-03-2026 08:00:00,13.34194444,74.74694444,PM10,26,81,50
India,Karnataka,Udupi,"Brahmagiri, Udupi - KSPCB",24-03-2026 08:00:00,13.34194444,74.74694444,NH3,2,2,2
India,Kerala,Kannur,"Thavakkara, Kannur - Kerala PCB",24-03-2026 08:00:00,11.875000,75.373200,SO2,1,7,2
India,Kerala,Kollam,"Polayathode, Kollam - Kerala PCB",24-03-2026 08:00:00,8.8787,76.6073,NO2,9,10,9
India,Kerala,Thiruvananthapuram,"Kariavattom, Thiruvananthapuram - Kerala PCB",24-03-2026 08:00:00,8.563700,76.886500,PM10,30,88,63
India,Kerala,Thiruvananthapuram,"Kariavattom, Thiruvananthapuram - Kerala PCB",24-03-2026 08:00:00,8.563700,76.886500,SO2,2,16,7
India,Kerala,Thiruvananthapuram,"Kariavattom, Thiruvananthapuram - Kerala PCB",24-03-2026 08:00:00,8.563700,76.886500,CO,38,101,69
India,Madhya Pradesh,Bhopal,"Paryavaran Parisar, Bhopal - MPPCB",24-03-2026 08:00:00,23.210494,77.425409,PM2.5,15,157,59
India,Madhya Pradesh,Bhopal,"T T Nagar, Bhopal - MPPCB",24-03-2026 08:00:00,23.233584,77.400574,PM2.5,21,80,51
India,Madhya Pradesh,Katni,"Gole Bazar, Katni - MPPCB",24-03-2026 08:00:00,23.50016,80.23284,SO2,15,108,38
India,Madhya Pradesh,Maihar,"Sahilara, Maihar - KJS Cements",24-03-2026 08:00:00,24.2613009,80.7231783,NO2,21,66,42
India,Madhya Pradesh,Mandideep,"Sector-D Industrial Area, Mandideep - MPPCB",24-03-2026 08:00:00,23.108440,77.511428,NO2,50,133,88
India,Madhya Pradesh,Mandideep,"Sector-D Industrial Area, Mandideep - MPPCB",24-03-2026 08:00:00,23.108440,77.511428,SO2,2,136,45
India,Karnataka,Bidar,"Naubad, Bidar - KSPCB",24-03-2026 08:00:00,17.930306,77.482194,PM10,42,89,61
India,Karnataka,Chamarajanagar,"Urban, Chamarajanagar - KSPCB",24-03-2026 08:00:00,11.55358,76.55521,OZONE,14,29,16
India,Karnataka,Chikkaballapur,"Chikkaballapur Rural, Chikkaballapur - KSPCB",24-03-2026 08:00:00,13.428828,77.731418,SO2,4,27,12
India,Karnataka,Chikkaballapur,"Chikkaballapur Rural, Chikkaballapur - KSPCB",24-03-2026 08:00:00,13.428828,77.731418,CO,7,31,8
India,Madhya Pradesh,Dewas,"Bhopal Chauraha, Dewas - MPPCB",24-03-2026 08:00:00,22.9682591,76.064118,OZONE,9,124,12
India,Madhya Pradesh,Gwalior,"City Center, Gwalior - MPPCB",24-03-2026 08:00:00,26.203442,78.193251,CO,7,64,47
India,Maharashtra,Ambernath,"Chinchpada, Ambernath - MPCB",24-03-2026 08:00:00,19.2157840,73.1997810,OZONE,6,108,10
India,Maharashtra,Amravati,"Shivneri Colony, Amravati - MPCB",24-03-2026 08:00:00,20.9402359,77.7895248,PM10,53,112,79
India,Maharashtra,Amravati,"Shri Shivaji Science College, Amravati - MPCB",24-03-2026 08:00:00,20.939198,77.765701,PM2.5,32,109,61
India,Maharashtra,Amravati,"Shri Shivaji Science College, Amravati - MPCB",24-03-2026 08:00:00,20.939198,77.765701,NH3,2,15,5
India,Maharashtra,Amravati,"Shri Shivaji Science College, Amravati - MPCB",24-03-2026 08:00:00,20.939198,77.765701,CO,36,122,76
India,Maharashtra,Amravati,"Shri Shivaji Science College, Amravati - MPCB",24-03-2026 08:00:00,20.939198,77.765701,OZONE,12,82,17
India,Maharashtra,Aurangabad,"MIDC Chilkalthana, Aurangabad - MPCB",24-03-2026 08:00:00,19.875620,75.387310,NO2,NA,NA,NA
India,Maharashtra,Aurangabad,"MIDC Chilkalthana, Aurangabad - MPCB",24-03-2026 08:00:00,19.875620,75.387310,SO2,NA,NA,NA
India,Maharashtra,Aurangabad,"More Chowk Waluj, Aurangabad - MPCB",24-03-2026 08:00:00,19.8389439,75.244448,PM2.5,44,186,84
India,Maharashtra,Aurangabad,"More Chowk Waluj, Aurangabad - MPCB",24-03-2026 08:00:00,19.8389439,75.244448,NH3,10,11,10
India,Maharashtra,Aurangabad,"More Chowk Waluj, Aurangabad - MPCB",24-03-2026 08:00:00,19.8389439,75.244448,CO,2,175,47
India,Maharashtra,Aurangabad,"Rachnakar Colony, Aurangabad - MPCB",24-03-2026 08:00:00,19.863756,75.321188,CO,21,90,32
India,Maharashtra,Chandrapur,"MIDC Khutala, Chandrapur - MPCB",24-03-2026 08:00:00,19.9775302,79.2337086,PM2.5,45,243,110
India,Maharashtra,Chandrapur,"MIDC Khutala, Chandrapur - MPCB",24-03-2026 08:00:00,19.9775302,79.2337086,SO2,1,97,40
India,Maharashtra,Dhule,"Deopur, Dhule - MPCB",24-03-2026 08:00:00,20.918946,74.776388,NH3,1,1,1
India,Maharashtra,Dhule,"Deopur, Dhule - MPCB",24-03-2026 08:00:00,20.918946,74.776388,SO2,5,16,11
India,Maharashtra,Dhule,"Deopur, Dhule - MPCB",24-03-2026 08:00:00,20.918946,74.776388,CO,4,60,21
India,Maharashtra,Dombivli,"Kalu Nagar, Dombivli - MPCB",24-03-2026 08:00:00,19.2268427 ,73.0788456 ,NH3,1,2,2
India,Maharashtra,Hingoli,"Ashta Vinayak Nagar, Hingoli - MPCB",24-03-2026 08:00:00,19.710842,77.151824,PM10,41,290,114
India,Maharashtra,Hingoli,"Ashta Vinayak Nagar, Hingoli - MPCB",24-03-2026 08:00:00,19.710842,77.151824,SO2,1,23,7
India,Maharashtra,Jalgaon,"Prabhat Colony, Jalgaon - MPCB",24-03-2026 08:00:00,21.001264,75.565602,PM10,59,164,98
India,Maharashtra,Jalgaon,"Prabhat Colony, Jalgaon - MPCB",24-03-2026 08:00:00,21.001264,75.565602,NO2,2,36,11
India,Maharashtra,Jalgaon,"Prabhat Colony, Jalgaon - MPCB",24-03-2026 08:00:00,21.001264,75.565602,NH3,2,3,2
India,Maharashtra,Mumbai,"Byculla, Mumbai - BMC",24-03-2026 08:00:00,18.9767,72.8380,PM2.5,48,128,88
India,Maharashtra,Mumbai,"Chakala-Andheri East, Mumbai - IITM",24-03-2026 08:00:00,19.11074,72.86084,PM10,74,150,117
India,Maharashtra,Mumbai,"Chakala-Andheri East, Mumbai - IITM",24-03-2026 08:00:00,19.11074,72.86084,SO2,1,21,7
India,Maharashtra,Mumbai,"Chakala-Andheri East, Mumbai - IITM",24-03-2026 08:00:00,19.11074,72.86084,OZONE,4,138,41
India,Maharashtra,Mumbai,"Chembur, Mumbai - MPCB",24-03-2026 08:00:00,19.0364585,72.8954371,PM2.5,40,62,52
India,Maharashtra,Mumbai,"Chhatrapati Shivaji Intl. Airport (T2), Mumbai - MPCB",24-03-2026 08:00:00,19.10078,72.87462,PM2.5,NA,NA,NA
India,Maharashtra,Mumbai,"Colaba, Mumbai - MPCB",24-03-2026 08:00:00,18.910000,72.820000,PM2.5,35,115,71
India,Maharashtra,Mumbai,"Colaba, Mumbai - MPCB",24-03-2026 08:00:00,18.910000,72.820000,NO2,27,28,28
India,Maharashtra,Mumbai,"Colaba, Mumbai - MPCB",24-03-2026 08:00:00,18.910000,72.820000,CO,62,76,66
India,Maharashtra,Mumbai,"Deonar, Mumbai - IITM",24-03-2026 08:00:00,19.04946,72.9230,CO,14,114,76
India,Maharashtra,Badlapur,"Katrap, Badlapur - MPCB",24-03-2026 08:00:00,19.16485,73.23409,PM10,62,145,108
India,Maharashtra,Beed,"Bir, Beed - MPCB",24-03-2026 08:00:00,18.988474,75.753873,CO,23,114,34
India,Maharashtra,Beed,"Bir, Beed - MPCB",24-03-2026 08:00:00,18.988474,75.753873,OZONE,2,61,22
India,Maharashtra,Belapur,"CBD Belapur, Belapur - MPCB",24-03-2026 08:00:00,19.0243902,73.0406721,CO,26,98,36
India,Maharashtra,Belapur,"CBD Belapur, Belapur - MPCB",24-03-2026 08:00:00,19.0243902,73.0406721,OZONE,6,136,7
India,Maharashtra,Bhiwandi,"Gokul Nagar, Bhiwandi - MPCB",24-03-2026 08:00:00,19.309073,73.057223,PM10,53,210,122
India,Maharashtra,Bhiwandi,"Gokul Nagar, Bhiwandi - MPCB",24-03-2026 08:00:00,19.309073,73.057223,NH3,3,9,6
India,Maharashtra,Boisar,"Khaira, Boisar - MPCB",24-03-2026 08:00:00,19.786089,72.757971,CO,9,72,33
India,Maharashtra,Chandrapur,"Chauhan Colony, Chandrapur - MPCB",24-03-2026 08:00:00,19.962900,79.298714,PM10,NA,NA,NA
India,Maharashtra,Mira-Bhayandar,"Bhayandar West, Mira-Bhayandar - MPCB",24-03-2026 08:00:00,19.296481,72.840923,NH3,1,4,4
India,Maharashtra,Mira-Bhayandar,"Bhayandar West, Mira-Bhayandar - MPCB",24-03-2026 08:00:00,19.296481,72.840923,SO2,9,25,11
India,Maharashtra,Mumbai,"Bandra Kurla Complex, Mumbai - IITM",24-03-2026 08:00:00,19.053536,72.84643,PM10,77,152,113
India,Maharashtra,Mumbai,"Bandra Kurla Complex, Mumbai - IITM",24-03-2026 08:00:00,19.053536,72.84643,CO,5,105,34
India,Maharashtra,Mumbai,"Bandra Kurla Complex, Mumbai - MPCB",24-03-2026 08:00:00,19.065931,72.862131,SO2,1,6,3
India,Maharashtra,Mumbai,"Borivali East, Mumbai - IITM",24-03-2026 08:00:00,19.23241,72.86895,PM10,77,124,100
India,Maharashtra,Mumbai,"Borivali East, Mumbai - IITM",24-03-2026 08:00:00,19.23241,72.86895,NO2,14,80,25
India,Maharashtra,Mumbai,"Borivali East, Mumbai - MPCB",24-03-2026 08:00:00,19.2243333,72.8658113,PM10,58,88,79
India,Maharashtra,Mumbai,"Kurla, Mumbai - MPCB",24-03-2026 08:00:00,19.0863,72.8888,SO2,29,29,29
India,Maharashtra,Mumbai,"Malad West, Mumbai - IITM",24-03-2026 08:00:00,19.19709,72.82204,PM10,62,138,102
India,Maharashtra,Mumbai,"Malad West, Mumbai - IITM",24-03-2026 08:00:00,19.19709,72.82204,NO2,23,113,53
India,Maharashtra,Mumbai,"Mazgaon, Mumbai - IITM",24-03-2026 08:00:00,18.96702,72.84214,NO2,31,112,66
India,Maharashtra,Mumbai,"Mindspace-Malad West, Mumbai - MPCB",24-03-2026 08:00:00,19.1878657,72.8304069,NO2,7,85,31
India,Maharashtra,Mumbai,"Mindspace-Malad West, Mumbai - MPCB",24-03-2026 08:00:00,19.1878657,72.8304069,SO2,12,41,26
India,Maharashtra,Mumbai,"Mulund West, Mumbai - MPCB",24-03-2026 08:00:00,19.1750,72.9419,PM2.5,47,102,75
India,Maharashtra,Mumbai,"Ghatkopar, Mumbai - BMC",24-03-2026 08:00:00,19.083694,72.920967,OZONE,5,174,9
India,Maharashtra,Mumbai,"Kandivali West, Mumbai - BMC",24-03-2026 08:00:00,19.215859,72.831718,NO2,NA,NA,NA
India,Maharashtra,Mumbai,"Kherwadi_Bandra East, Mumbai - MPCB",24-03-2026 08:00:00,19.0632143,72.8456324,NO2,4,64,23
India,Maharashtra,Mumbai,"Kherwadi_Bandra East, Mumbai - MPCB",24-03-2026 08:00:00,19.0632143,72.8456324,OZONE,1,81,10
India,Maharashtra,Mumbai,"Khindipada-Bhandup West, Mumbai - IITM",24-03-2026 08:00:00,19.1653323,72.922099,NO2,15,41,26
India,Maharashtra,Jalna,"Old MIDC, Jalna - MPCB",24-03-2026 08:00:00,19.854616,75.905894,NO2,6,13,8
India,Maharashtra,Jalna,"Old MIDC, Jalna - MPCB",24-03-2026 08:00:00,19.854616,75.905894,CO,8,60,16
India,Maharashtra,Kalyan,"Pimpleshwar Mandir, Kalyan - MPCB",24-03-2026 08:00:00,19.192056,72.9585188,PM10,88,163,120
India,Maharashtra,Kalyan,"Pimpleshwar Mandir, Kalyan - MPCB",24-03-2026 08:00:00,19.192056,72.9585188,SO2,13,67,26
India,Maharashtra,Mahad,"Kamble Tarf Birwadi, Mahad - MPCB",24-03-2026 08:00:00,18.1023399,73.4783687,SO2,26,52,40
India,Maharashtra,Mumbai,"Navy Nagar-Colaba, Mumbai - IITM",24-03-2026 08:00:00,18.897756,72.813320,PM10,64,130,97
India,Maharashtra,Mumbai,"Navy Nagar-Colaba, Mumbai - IITM",24-03-2026 08:00:00,18.897756,72.813320,NO2,23,197,65
India,Maharashtra,Mumbai,"Navy Nagar-Colaba, Mumbai - IITM",24-03-2026 08:00:00,18.897756,72.813320,NH3,6,13,7
India,Maharashtra,Mumbai,"Powai, Mumbai - MPCB",24-03-2026 08:00:00,19.137500,72.915056,NH3,2,2,2
India,Maharashtra,Mumbai,"Sewri, Mumbai - BMC",24-03-2026 08:00:00,19.000084,72.856730,NH3,NA,NA,NA
India,Maharashtra,Mumbai,"Vile Parle West, Mumbai - MPCB",24-03-2026 08:00:00,19.10861,72.83622,PM2.5,24,71,45
India,Maharashtra,Mumbai,"Vile Parle West, Mumbai - MPCB",24-03-2026 08:00:00,19.10861,72.83622,PM10,37,105,68
India,Maharashtra,Mumbai,"Vile Parle West, Mumbai - MPCB",24-03-2026 08:00:00,19.10861,72.83622,NO2,11,11,11
India,Maharashtra,Mumbai,"Vile Parle West, Mumbai - MPCB",24-03-2026 08:00:00,19.10861,72.83622,SO2,48,52,50
India,Maharashtra,Mumbai,"Worli, Mumbai -MPCB",24-03-2026 08:00:00,18.9942180,72.8158167,SO2,32,41,36
India,Maharashtra,Mumbai,"Worli, Mumbai -MPCB",24-03-2026 08:00:00,18.9942180,72.8158167,CO,16,54,22
India,Maharashtra,Nagpur,"Ambazari, Nagpur - MPCB",24-03-2026 08:00:00,21.121801,79.04952,SO2,8,55,21
India,Maharashtra,Nagpur,"Mahal, Nagpur - MPCB",24-03-2026 08:00:00,21.14472,79.107595,PM10,68,139,104
India,Maharashtra,Nagpur,"Opp GPO Civil Lines, Nagpur - MPCB",24-03-2026 08:00:00,21.152875,79.0517531,OZONE,2,33,6
India,Maharashtra,Nagpur,"Ram Nagar, Nagpur - MPCB",24-03-2026 08:00:00,21.143383,79.048912,PM2.5,41,180,87
India,Maharashtra,Nagpur,"Ram Nagar, Nagpur - MPCB",24-03-2026 08:00:00,21.143383,79.048912,PM10,67,143,106
India,Maharashtra,Pune,"Revenue Colony-Shivajinagar, Pune - IITM",24-03-2026 08:00:00,18.530085,73.849598,PM2.5,43,140,78
India,Maharashtra,Pune,"Revenue Colony-Shivajinagar, Pune - IITM",24-03-2026 08:00:00,18.530085,73.849598,PM10,76,140,99
India,Maharashtra,Pune,"Revenue Colony-Shivajinagar, Pune - IITM",24-03-2026 08:00:00,18.530085,73.849598,SO2,19,49,36
India,Maharashtra,Pune,"Revenue Colony-Shivajinagar, Pune - IITM",24-03-2026 08:00:00,18.530085,73.849598,OZONE,15,92,41
India,Maharashtra,Pune,"Savitribai Phule Pune University, Pune - MPCB",24-03-2026 08:00:00,18.547056,73.826908,NH3,1,17,3
India,Maharashtra,Pune,"Savitribai Phule Pune University, Pune - MPCB",24-03-2026 08:00:00,18.547056,73.826908,CO,12,60,41
India,Maharashtra,Pune,"Transport Nagar-Nigdi, Pune - IITM",24-03-2026 08:00:00,18.664282,73.763966,PM2.5,28,195,74
India,Maharashtra,Solapur,"Dnyaneshwar Nagar, Solapur - MPCB",24-03-2026 08:00:00,17.6336264,75.9132495,NH3,9,24,16
India,Maharashtra,Solapur,"Dnyaneshwar Nagar, Solapur - MPCB",24-03-2026 08:00:00,17.6336264,75.9132495,OZONE,27,73,34
India,Maharashtra,Solapur,"Ratandeep Housing Society, Solapur - MPCB",24-03-2026 08:00:00,17.65439,75.90649,PM2.5,59,135,88
India,Maharashtra,Navi Mumbai,"Kopripada-Vashi, Navi Mumbai - MPCB",24-03-2026 08:00:00,19.090337,73.014232,NH3,4,4,4
India,Maharashtra,Navi Mumbai,"Kopripada-Vashi, Navi Mumbai - MPCB",24-03-2026 08:00:00,19.090337,73.014232,SO2,4,11,8
India,Maharashtra,Navi Mumbai,"Kopripada-Vashi, Navi Mumbai - MPCB",24-03-2026 08:00:00,19.090337,73.014232,CO,16,62,53
India,Maharashtra,Navi Mumbai,"Mahape, Navi Mumbai - MPCB",24-03-2026 08:00:00,19.1135051,73.008978,PM10,41,154,93
India,Maharashtra,Navi Mumbai,"Nerul, Navi Mumbai - MPCB",24-03-2026 08:00:00,19.008751,73.016620,PM2.5,52,127,82
India,Maharashtra,Navi Mumbai,"Nerul, Navi Mumbai - MPCB",24-03-2026 08:00:00,19.008751,73.016620,PM10,55,128,93
India,Maharashtra,Navi Mumbai,"Sanpada, Navi Mumbai - MPCB",24-03-2026 08:00:00,19.0575752,73.0151367,SO2,23,54,31
India,Maharashtra,Navi Mumbai,"Sanpada, Navi Mumbai - MPCB",24-03-2026 08:00:00,19.0575752,73.0151367,CO,19,96,65
India,Maharashtra,Navi Mumbai,"Sector-2E Kalamboli, Navi Mumbai - MPCB",24-03-2026 08:00:00,19.02579,73.10297,PM10,27,336,179
India,Maharashtra,Navi Mumbai,"Sector-2E Kalamboli, Navi Mumbai - MPCB",24-03-2026 08:00:00,19.02579,73.10297,NH3,7,7,7
India,Maharashtra,Pune,"Hadapsar, Pune - IITM",24-03-2026 08:00:00,18.501793,73.927532,CO,30,123,59
India,Maharashtra,Pune,"Katraj Dairy, Pune - MPCB",24-03-2026 08:00:00,18.454450,73.854155,NH3,3,8,4
India,Maharashtra,Pune,"Katraj Dairy, Pune - MPCB",24-03-2026 08:00:00,18.454450,73.854155,CO,14,90,38
India,Maharashtra,Pune,"Katraj Dairy, Pune - MPCB",24-03-2026 08:00:00,18.454450,73.854155,OZONE,14,66,31
India,Maharashtra,Pune,"Mhada Colony, Pune - IITM",24-03-2026 08:00:00,18.573040,73.927715,PM2.5,23,138,79
India,Maharashtra,Pune,"Mhada Colony, Pune - IITM",24-03-2026 08:00:00,18.573040,73.927715,PM10,65,145,103
India,Maharashtra,Pune,"Mhada Colony, Pune - IITM",24-03-2026 08:00:00,18.573040,73.927715,NO2,26,246,112
India,Maharashtra,Pune,"Panchawati_Pashan, Pune - IITM",24-03-2026 08:00:00,18.536457,73.805454,PM10,47,113,84
India,Maharashtra,Pimpri-Chinchwad,"Savta Mali Nagar, Pimpri-Chinchwad - IITM",24-03-2026 08:00:00,18.614767,73.799516,OZONE,5,42,13
India,Maharashtra,Pune,"Bhumkar Nagar, Pune - IITM",24-03-2026 08:00:00,18.605770,73.749976,NO2,15,113,48
India,Maharashtra,Pune,"Dhankawadi, Pune - IITM",24-03-2026 08:00:00,18.459883,73.852193,PM2.5,5,143,69
India,Maharashtra,Pune,"Dhankawadi, Pune - IITM",24-03-2026 08:00:00,18.459883,73.852193,NO2,9,88,33
India,Maharashtra,Pune,"Dhankawadi, Pune - IITM",24-03-2026 08:00:00,18.459883,73.852193,OZONE,2,94,11
India,Maharashtra,Pune,"Hadapsar, Pune - IITM",24-03-2026 08:00:00,18.501793,73.927532,PM10,88,242,118
India,Maharashtra,Nashik,"Gangapur Road, Nashik - MPCB",24-03-2026 08:00:00,20.0073285,73.7762427,NO2,5,5,5
India,Maharashtra,Nashik,"Hirawadi, Nashik - MPCB",24-03-2026 08:00:00,20.021503,73.813844,NO2,2,20,10
India,Maharashtra,Nashik,"MIDC Ambad, Nashik - MPCB",24-03-2026 08:00:00,19.950220,73.731480,SO2,4,15,9
India,Maharashtra,Nashik,"Pandav Nagari, Nashik - MPCB",24-03-2026 08:00:00,19.9591346,73.7788008,PM2.5,66,219,103
India,Maharashtra,Nashik,"Pandav Nagari, Nashik - MPCB",24-03-2026 08:00:00,19.9591346,73.7788008,PM10,85,174,120
India,Maharashtra,Navi Mumbai,"Tondare-Taloja, Navi Mumbai - MPCB",24-03-2026 08:00:00,19.0630,73.1209,PM2.5,73,271,170
India,Maharashtra,Navi Mumbai,"Tondare-Taloja, Navi Mumbai - MPCB",24-03-2026 08:00:00,19.0630,73.1209,NO2,11,26,18
India,Maharashtra,Parbhani,"Masoom Colony, Parbhani - MPCB",24-03-2026 08:00:00,19.265594,76.761463,SO2,6,17,10
India,Maharashtra,Nagpur,"Ram Nagar, Nagpur - MPCB",24-03-2026 08:00:00,21.143383,79.048912,SO2,4,50,16
India,Maharashtra,Nanded,"Sneh Nagar, Nanded - MPCB",24-03-2026 08:00:00,19.173852,77.296291,PM2.5,60,151,84
India,Maharashtra,Nanded,"Sneh Nagar, Nanded - MPCB",24-03-2026 08:00:00,19.173852,77.296291,CO,18,30,23
India,Maharashtra,Nanded,"Sneh Nagar, Nanded - MPCB",24-03-2026 08:00:00,19.173852,77.296291,OZONE,9,76,22
India,Maharashtra,Pimpri-Chinchwad,"Park Street Wakad, Pimpri Chinchwad - MPCB",24-03-2026 08:00:00,18.59051,73.77946,CO,19,68,47
India,Maharashtra,Pimpri-Chinchwad,"Savta Mali Nagar, Pimpri-Chinchwad - IITM",24-03-2026 08:00:00,18.614767,73.799516,PM2.5,32,190,89
India,Maharashtra,Solapur,"Ratandeep Housing Society, Solapur - MPCB",24-03-2026 08:00:00,17.65439,75.90649,CO,16,106,25
India,Maharashtra,Thane,"Kasarvadavali, Thane - MPCB",24-03-2026 08:00:00,19.26777,72.97182,NO2,14,58,32
India,Maharashtra,Thane,"Kasarvadavali, Thane - MPCB",24-03-2026 08:00:00,19.26777,72.97182,CO,11,54,40
India,Maharashtra,Ulhasnagar,"Sidhi Vinayak Nagar, Ulhasnagar - MPCB",24-03-2026 08:00:00,19.235581,73.159121,OZONE,6,90,10
India,Maharashtra,Ulhasnagar,"Vithalwadi, Ulhasnagar - MPCB",24-03-2026 08:00:00,19.2307571 ,73.1551920,PM2.5,17,133,55
India,Maharashtra,Ulhasnagar,"Vithalwadi, Ulhasnagar - MPCB",24-03-2026 08:00:00,19.2307571 ,73.1551920,NH3,2,5,4
India,Maharashtra,Virar,"Bolinj, Virar - MPCB",24-03-2026 08:00:00,19.4458210,72.7988231,PM2.5,7,103,55
India,Maharashtra,Virar,"Bolinj, Virar - MPCB",24-03-2026 08:00:00,19.4458210,72.7988231,NH3,3,3,3
India,Meghalaya,Shillong,"Lumpyngngad, Shillong - Meghalaya PCB",24-03-2026 08:00:00,25.5586,91.8985,NO2,NA,NA,NA
India,Odisha,Cuttack,"CDA Area, Cuttack - OSPCB",24-03-2026 08:00:00,20.48891     ,85.84768     ,CO,51,65,53
India,Odisha,Keonjhar,"Jagamohanpur, Keonjhar - OSPCB",24-03-2026 08:00:00,21.643900,85.599355,SO2,12,28,22
India,Odisha,Nayagarh,"Dabuna, Nayagarh - OSPCB",24-03-2026 08:00:00,21.847279,85.416905,PM2.5,7,114,61
India,Odisha,Nayagarh,"Dabuna, Nayagarh - OSPCB",24-03-2026 08:00:00,21.847279,85.416905,PM10,25,247,135
India,Odisha,Nayagarh,"Dabuna, Nayagarh - OSPCB",24-03-2026 08:00:00,21.847279,85.416905,NH3,6,7,6
India,Odisha,Rairangpur,"Divisional Forest Office, Rairangpur - OSPCB",24-03-2026 08:00:00,22.265816,86.174829,PM10,36,100,70
India,Odisha,Rairangpur,"Divisional Forest Office, Rairangpur - OSPCB",24-03-2026 08:00:00,22.265816,86.174829,NO2,11,12,11
India,Odisha,Rairangpur,"Divisional Forest Office, Rairangpur - OSPCB",24-03-2026 08:00:00,22.265816,86.174829,SO2,7,14,10
India,Puducherry,Puducherry,"Jawahar Nagar, Puducherry - PPCC",24-03-2026 08:00:00,11.9309,79.8027,PM2.5,2,72,19
India,Puducherry,Puducherry,"Jawahar Nagar, Puducherry - PPCC",24-03-2026 08:00:00,11.9309,79.8027,SO2,5,10,8
India,Puducherry,Puducherry,"Jawahar Nagar, Puducherry - PPCC",24-03-2026 08:00:00,11.9309,79.8027,CO,8,32,20
India,Punjab,Bathinda,"Hardev Nagar, Bathinda - PPCB",24-03-2026 08:00:00,30.233011,74.907758,SO2,4,20,13
India,Punjab,Jalandhar,"Civil Line, Jalandhar - PPCB",24-03-2026 08:00:00,31.321907,75.578914,PM10,47,116,84
India,Punjab,Khanna,"Kalal Majra, Khanna - PPCB",24-03-2026 08:00:00,30.736056 ,76.209694,PM10,45,79,61
India,Odisha,Baripada,"Meher Colony, Baripada - OSPCB",24-03-2026 08:00:00,21.941841,86.728318,CO,12,38,17
India,Odisha,Bhubaneswar,"Lingraj Mandir, Bhubaneswar - OSPCB",24-03-2026 08:00:00,20.240790,85.836784,CO,13,36,29
India,Odisha,Brajrajnagar,"GM Office, Brajrajnagar - OSPCB",24-03-2026 08:00:00,21.8004996,83.8396977,NO2,2,8,6
India,Odisha,Brajrajnagar,"GM Office, Brajrajnagar - OSPCB",24-03-2026 08:00:00,21.8004996,83.8396977,SO2,19,21,20
India,Odisha,Byasanagar,"Ferro Chrome Colony, Byasanagar - OSPCB",24-03-2026 08:00:00,20.94185,86.11510,NO2,6,30,14
India,Odisha,Byasanagar,"Ferro Chrome Colony, Byasanagar - OSPCB",24-03-2026 08:00:00,20.94185,86.11510,CO,10,35,21
India,Odisha,Rourkela,"Raghunathpali, Rourkela - OSPCB",24-03-2026 08:00:00,22.220833,84.809444,NO2,15,15,15
India,Odisha,Rourkela,"Raghunathpali, Rourkela - OSPCB",24-03-2026 08:00:00,22.220833,84.809444,SO2,4,6,5
India,Odisha,Rourkela,"Raghunathpali, Rourkela - OSPCB",24-03-2026 08:00:00,22.220833,84.809444,CO,26,121,51
India,Odisha,Rourkela,"Sector-2, Rourkela - OSPCB",24-03-2026 08:00:00,22.24500000,84.88111111,PM10,NA,NA,NA
India,Odisha,Rourkela,"Sector-2, Rourkela - OSPCB",24-03-2026 08:00:00,22.24500000,84.88111111,NO2,17,17,17
India,Odisha,Suakati,"OMC Colony, Suakati - OSPCB",24-03-2026 08:00:00,21.606865,85.510538,PM2.5,37,150,89
India,Punjab,Ludhiana,"Punjab Agricultural University, Ludhiana - PPCB",24-03-2026 08:00:00,30.9028,75.8086,NH3,7,8,8
India,Punjab,Mandi Gobindgarh,"RIMT University, Mandi Gobindgarh - PPCB",24-03-2026 08:00:00,30.649961,76.331442,PM2.5,6,75,23
India,Punjab,Mandi Gobindgarh,"RIMT University, Mandi Gobindgarh - PPCB",24-03-2026 08:00:00,30.649961,76.331442,NO2,23,24,24
India,Punjab,Patiala,"Model Town, Patiala - PPCB",24-03-2026 08:00:00,30.349388,76.366642,PM10,59,126,96
India,Meghalaya,Shillong,"Lumpyngngad, Shillong - Meghalaya PCB",24-03-2026 08:00:00,25.5586,91.8985,CO,6,55,8
India,Odisha,Barbil,"Forest Office, Barbil - OSPCB",24-03-2026 08:00:00,22.1166054,85.3945546,OZONE,2,129,10
India,Odisha,Baripada,"Meher Colony, Baripada - OSPCB",24-03-2026 08:00:00,21.941841,86.728318,NH3,1,3,2
India,Rajasthan,Ajmer,"Civil Lines,  Ajmer - RSPCB",24-03-2026 08:00:00,26.470859,74.646594,SO2,3,3,3
India,Rajasthan,Ajmer,"Civil Lines,  Ajmer - RSPCB",24-03-2026 08:00:00,26.470859,74.646594,OZONE,3,10,4
India,Rajasthan,Alwar,"Moti Doongri, Alwar - RSPCB",24-03-2026 08:00:00,27.554793,76.611536,PM2.5,60,112,72
India,Odisha,Suakati,"OMC Colony, Suakati - OSPCB",24-03-2026 08:00:00,21.606865,85.510538,OZONE,7,109,14
India,Odisha,Talcher,"Talcher Coalfields,Talcher - OSPCB",24-03-2026 08:00:00,20.9360711,85.1707021,PM2.5,3,315,101
India,Rajasthan,Jodhpur,"Digari Kalan, Jodhpur - RSPCB",24-03-2026 08:00:00,26.295810,73.082283,NH3,9,15,11
India,Rajasthan,Jodhpur,"Digari Kalan, Jodhpur - RSPCB",24-03-2026 08:00:00,26.295810,73.082283,CO,4,51,36
India,Rajasthan,Jodhpur,"Digari Kalan, Jodhpur - RSPCB",24-03-2026 08:00:00,26.295810,73.082283,OZONE,1,84,6
India,Rajasthan,Jodhpur,"Jhalamand, Jodhpur - RSPCB",24-03-2026 08:00:00,26.215415,73.070156,PM10,26,153,70
India,Rajasthan,Jodhpur,"Mandor, Jodhpur - RSPCB",24-03-2026 08:00:00,26.358805,73.047444,NO2,2,72,31
India,Rajasthan,Jodhpur,"Mandor, Jodhpur - RSPCB",24-03-2026 08:00:00,26.358805,73.047444,SO2,1,5,3
India,Rajasthan,Jodhpur,"Samrat Ashok Udhyan, Jodhpur - RSPCB",24-03-2026 08:00:00,26.253384,72.976571,CO,15,46,41
India,Rajasthan,Karauli,"Satyawati Vihar, Karauli - RSPCB",24-03-2026 08:00:00,26.506177,77.025989,PM10,61,138,92
India,Rajasthan,Karauli,"Satyawati Vihar, Karauli - RSPCB",24-03-2026 08:00:00,26.506177,77.025989,OZONE,12,78,22
India,Rajasthan,Kota,"Dhanmandi, Kota - RSPCB",24-03-2026 08:00:00,25.164090,75.858137,PM10,78,184,121
India,Rajasthan,Kota,"Nayapura, Kota - RSPCB",24-03-2026 08:00:00,25.196024,75.855668,PM2.5,23,237,70
India,Rajasthan,Kota,"Nayapura, Kota - RSPCB",24-03-2026 08:00:00,25.196024,75.855668,CO,16,50,31
India,Rajasthan,Kota,"Nayapura, Kota - RSPCB",24-03-2026 08:00:00,25.196024,75.855668,OZONE,11,121,34
India,Rajasthan,Kota,"Shrinath Puram, Kota - RSPCB",24-03-2026 08:00:00,25.14389,75.821256,NH3,2,8,5
India,Rajasthan,Nagaur,"Karni Colony, Nagaur - RSPCB",24-03-2026 08:00:00,27.213494,73.734444,PM2.5,15,117,43
India,Rajasthan,Nagaur,"Karni Colony, Nagaur - RSPCB",24-03-2026 08:00:00,27.213494,73.734444,NH3,6,18,11
India,Rajasthan,Nagaur,"Karni Colony, Nagaur - RSPCB",24-03-2026 08:00:00,27.213494,73.734444,SO2,3,6,4
India,Rajasthan,Nagaur,"Karni Colony, Nagaur - RSPCB",24-03-2026 08:00:00,27.213494,73.734444,OZONE,20,83,41
India,Rajasthan,Pali,"Indira Colony Vistar, Pali - RSPCB",24-03-2026 08:00:00,25.771061, 73.340227,SO2,3,9,7
India,Rajasthan,Pratapgarh,"Pragati Nagar, Pratapgarh - RSPCB",24-03-2026 08:00:00,24.041198,74.780702,CO,14,32,15
India,Rajasthan,Hanumangarh,"Housing Board, Hanumangarh - RSPCB",24-03-2026 08:00:00,29.610750,74.283608,CO,8,28,8
India,Rajasthan,Hanumangarh,"Housing Board, Hanumangarh - RSPCB",24-03-2026 08:00:00,29.610750,74.283608,OZONE,19,81,24
India,Rajasthan,Jaipur,"Adarsh Nagar, Jaipur - RSPCB",24-03-2026 08:00:00,26.902909,75.836858,NH3,5,12,7
India,Rajasthan,Jaipur,"Mansarovar Sector-12, Jaipur - RSPCB",24-03-2026 08:00:00,26.843698,75.766894,PM10,41,138,91
India,Rajasthan,Jaipur,"Police Commissionerate, Jaipur - RSPCB",24-03-2026 08:00:00,26.9164092,75.7994901,PM2.5,47,162,83
India,Rajasthan,Jaipur,"Police Commissionerate, Jaipur - RSPCB",24-03-2026 08:00:00,26.9164092,75.7994901,PM10,37,105,76
India,Rajasthan,Jaipur,"Police Commissionerate, Jaipur - RSPCB",24-03-2026 08:00:00,26.9164092,75.7994901,CO,58,65,61
India,Rajasthan,Jaipur,"RIICO Sitapura, Jaipur - RSPCB",24-03-2026 08:00:00,26.786682,75.827928,OZONE,12,95,29
India,Rajasthan,Chittorgarh,"Shastri Nagar, Chittorgarh - RSPCB",24-03-2026 08:00:00,24.892047,74.623527,OZONE,1,73,11
India,Rajasthan,Churu,"Subash Chowk, Churu - RSPCB",24-03-2026 08:00:00,28.296139,74.961696,PM10,48,149,98
India,Rajasthan,Dausa,"Khatikan Mohalla, Dausa - RSPCB",24-03-2026 08:00:00,26.895552,76.334753,PM2.5,27,113,63
India,Rajasthan,Dausa,"Khatikan Mohalla, Dausa - RSPCB",24-03-2026 08:00:00,26.895552,76.334753,PM10,60,167,114
India,Rajasthan,Dholpur,"Raja Ganj, Dholpur - RSPCB",24-03-2026 08:00:00,26.699557,77.898881,PM2.5,22,90,60
India,Rajasthan,Dholpur,"Raja Ganj, Dholpur - RSPCB",24-03-2026 08:00:00,26.699557,77.898881,NO2,16,92,33
India,Rajasthan,Dungarpur,"Bhoiwada, Dungarpur - RSPCB",24-03-2026 08:00:00,23.837789,73.714926,NH3,10,15,13
India,Rajasthan,Rajsamand,"Dhoinda, Rajsamand - RSPCB",24-03-2026 08:00:00,25.036360,73.883502,SO2,4,14,8
India,Rajasthan,Rajsamand,"Dhoinda, Rajsamand - RSPCB",24-03-2026 08:00:00,25.036360,73.883502,CO,8,72,49
India,Rajasthan,Sawai Madhopur,"Sahu Nagar, Sawai Madhopur - RSPCB",24-03-2026 08:00:00,26.031443,76.359327,CO,18,78,35
India,Rajasthan,Sikar,"Radhakishan Pura, Sikar - RSPCB",24-03-2026 08:00:00,27.608912,75.153302,NO2,16,59,25
India,Rajasthan,Sirohi,"Vedhaynath Colony, Sirohi - RSPCB",24-03-2026 08:00:00,24.885261,72.857549,OZONE,16,62,28
India,Rajasthan,Sri Ganganagar,"Old City, Sri Ganganagar - RSPCB",24-03-2026 08:00:00,29.931624,73.864511,PM2.5,17,80,37
India,Rajasthan,Bharatpur,"Krishna Nagar, Bharatpur - RSPCB",24-03-2026 08:00:00,27.215415,77.50873,NH3,11,18,14
India,Rajasthan,Bhiwadi,"RIICO Ind. Area III, Bhiwadi - RSPCB",24-03-2026 08:00:00,28.194909,76.862296,PM10,48,289,148
India,Rajasthan,Bhiwadi,"RIICO Ind. Area III, Bhiwadi - RSPCB",24-03-2026 08:00:00,28.194909,76.862296,NO2,14,86,48
India,Rajasthan,Bikaner,"MM Ground, Bikaner - RSPCB",24-03-2026 08:00:00,28.018792,73.292658,PM2.5,32,188,66
India,Rajasthan,Bikaner,"MM Ground, Bikaner - RSPCB",24-03-2026 08:00:00,28.018792,73.292658,CO,12,82,20
India,Rajasthan,Bundi,"New Colony, Bundi - RSPCB",24-03-2026 08:00:00,25.435774,75.644272,SO2,1,23,7
India,Rajasthan,Alwar,"Moti Doongri, Alwar - RSPCB",24-03-2026 08:00:00,27.554793,76.611536,SO2,14,45,25
India,Rajasthan,Banswara,"Rati Talai, Banswara - RSPCB",24-03-2026 08:00:00,23.555190,74.440010,NO2,8,80,40
India,Rajasthan,Banswara,"Rati Talai, Banswara - RSPCB",24-03-2026 08:00:00,23.555190,74.440010,CO,19,50,36
India,Rajasthan,Baran,"Bamboliya, Baran - RSPCB",24-03-2026 08:00:00,25.106006,76.469948,NO2,9,66,20
India,Rajasthan,Baran,"Bamboliya, Baran - RSPCB",24-03-2026 08:00:00,25.106006,76.469948,CO,10,30,18
India,Rajasthan,Bharatpur,"Krishna Nagar, Bharatpur - RSPCB",24-03-2026 08:00:00,27.215415,77.50873,NO2,12,66,29
India,Rajasthan,Jhunjhunu,"Indra Nagar, Jhunjhunu - RSPCB",24-03-2026 08:00:00,28.108988,75.386577,PM10,45,172,96
India,Rajasthan,Jhunjhunu,"Indra Nagar, Jhunjhunu - RSPCB",24-03-2026 08:00:00,28.108988,75.386577,SO2,7,14,9
India,Rajasthan,Jhunjhunu,"Indra Nagar, Jhunjhunu - RSPCB",24-03-2026 08:00:00,28.108988,75.386577,CO,12,45,24
India,Rajasthan,Jodhpur,"Collectorate, Jodhpur - RSPCB",24-03-2026 08:00:00,26.268249,73.0193853,PM2.5,31,81,50
India,Rajasthan,Jodhpur,"Collectorate, Jodhpur - RSPCB",24-03-2026 08:00:00,26.268249,73.0193853,NH3,6,15,10
India,Rajasthan,Jodhpur,"Digari Kalan, Jodhpur - RSPCB",24-03-2026 08:00:00,26.295810,73.082283,PM2.5,10,75,37
India,Rajasthan,Jaipur,"Shastri Nagar, Jaipur - RSPCB",24-03-2026 08:00:00,26.9502929,75.730943,NO2,39,92,58
India,Rajasthan,Jalore,"Mudtra Sili, Jalore - RSPCB",24-03-2026 08:00:00,25.344694,72.626208,CO,7,46,15
India,Rajasthan,Jhalawar,"Rajlaxmi Nagar, Jhalawar - RSPCB",24-03-2026 08:00:00,24.588397,76.172782,PM10,61,153,94
India,Uttar_Pradesh,Agra,"Rohta, Agra - UPPCB",24-03-2026 08:00:00,27.106972,78.000111,SO2,6,14,10
India,Uttar_Pradesh,Agra,"Sanjay Palace, Agra - UPPCB",24-03-2026 08:00:00,27.19865833,78.00598056,SO2,17,19,18
India,Uttar_Pradesh,Agra,"Sanjay Palace, Agra - UPPCB",24-03-2026 08:00:00,27.19865833,78.00598056,CO,28,52,43
India,Uttar_Pradesh,Agra,"Sanjay Palace, Agra - UPPCB",24-03-2026 08:00:00,27.19865833,78.00598056,OZONE,3,66,4
India,Uttar_Pradesh,Agra,"Sector-3B Avas Vikas Colony, Agra - UPPCB",24-03-2026 08:00:00,27.19412,77.96237,SO2,13,14,13
India,Uttar_Pradesh,Agra,"Shahjahan Garden, Agra - UPPCB",24-03-2026 08:00:00,27.169338,78.03582,PM2.5,12,208,58
India,Uttar_Pradesh,Agra,"Shahjahan Garden, Agra - UPPCB",24-03-2026 08:00:00,27.169338,78.03582,NH3,3,3,3
India,Uttar_Pradesh,Agra,"Shahjahan Garden, Agra - UPPCB",24-03-2026 08:00:00,27.169338,78.03582,SO2,54,60,57
India,Uttar_Pradesh,Agra,"Shastripuram, Agra - UPPCB",24-03-2026 08:00:00,27.19862,77.92066,PM2.5,23,105,67
India,Uttar_Pradesh,Agra,"Shastripuram, Agra - UPPCB",24-03-2026 08:00:00,27.19862,77.92066,SO2,3,24,17
India,Uttar_Pradesh,Baghpat,"Sardar Patel Inter College, Baghpat - UPPCB",24-03-2026 08:00:00,28.964949,77.278761,PM10,28,260,109
India,Uttar_Pradesh,Baghpat,"Sardar Patel Inter College, Baghpat - UPPCB",24-03-2026 08:00:00,28.964949,77.278761,SO2,21,57,42
India,TamilNadu,Gummidipoondi,"Anthoni Pillai Nagar, Gummidipoondi - TNPCB",24-03-2026 08:00:00,13.4127,80.1081,NO2,13,35,21
India,TamilNadu,Perundurai,"SIPCOT Industrial Park, Perundurai - TNPCB",24-03-2026 08:00:00,11.258242,77.552761,CO,43,50,46
India,TamilNadu,Thoothukudi,"Meelavittan, Thoothukudi - TNPCB",24-03-2026 08:00:00,8.816428 ,78.099039,PM10,15,114,36
India,TamilNadu,Thoothukudi,"Meelavittan, Thoothukudi - TNPCB",24-03-2026 08:00:00,8.816428 ,78.099039,SO2,2,20,13
India,Telangana,Hyderabad,"ECIL Kapra, Hyderabad - TSPCB",24-03-2026 08:00:00,17.470431,78.566959,SO2,7,18,12
India,Telangana,Hyderabad,"ECIL Kapra, Hyderabad - TSPCB",24-03-2026 08:00:00,17.470431,78.566959,CO,12,22,21
India,Telangana,Hyderabad,"ICRISAT Patancheru, Hyderabad - TSPCB",24-03-2026 08:00:00,17.518400,78.278777,CO,22,58,36
India,Telangana,Hyderabad,"IDA Pashamylaram, Hyderabad - TSPCB",24-03-2026 08:00:00,17.5316895,78.218939,NO2,5,10,6
India,Telangana,Hyderabad,"IDA Pashamylaram, Hyderabad - TSPCB",24-03-2026 08:00:00,17.5316895,78.218939,SO2,2,24,11
India,Telangana,Hyderabad,"Ramachandrapuram, Hyderabad - TSPCB",24-03-2026 08:00:00,17.528544,78.286195,SO2,10,13,10
India,Telangana,Hyderabad,"Ramachandrapuram, Hyderabad - TSPCB",24-03-2026 08:00:00,17.528544,78.286195,OZONE,25,27,27
India,Telangana,Hyderabad,"Somajiguda, Hyderabad - TSPCB",24-03-2026 08:00:00,17.417094,78.457437,PM10,59,94,73
India,Telangana,Hyderabad,"Somajiguda, Hyderabad - TSPCB",24-03-2026 08:00:00,17.417094,78.457437,NH3,4,6,5
India,Telangana,Hyderabad,"Zoo Park, Hyderabad - TSPCB",24-03-2026 08:00:00,17.349694,78.451437,NO2,5,12,8
India,Tripura,Agartala,"Bardowali, Agartala - Tripura SPCB",24-03-2026 08:00:00,23.8175497,91.2726974,PM2.5,67,312,193
India,Tripura,Agartala,"Bardowali, Agartala - Tripura SPCB",24-03-2026 08:00:00,23.8175497,91.2726974,PM10,68,393,150
India,Uttar_Pradesh,Agra,"Manoharpur, Agra - UPPCB",24-03-2026 08:00:00,27.23711,78.01936,NO2,20,20,20
India,Uttar_Pradesh,Agra,"Rohta, Agra - UPPCB",24-03-2026 08:00:00,27.106972,78.000111,PM2.5,30,230,85
India,Uttar_Pradesh,Ghaziabad,"Loni, Ghaziabad - UPPCB",24-03-2026 08:00:00,28.757294,77.278792,PM10,105,472,246
India,Uttar_Pradesh,Ghaziabad,"Loni, Ghaziabad - UPPCB",24-03-2026 08:00:00,28.757294,77.278792,SO2,14,25,20
India,Uttar_Pradesh,Ghaziabad,"Sanjay Nagar, Ghaziabad - UPPCB",24-03-2026 08:00:00,28.685382,77.453839,PM2.5,43,312,161
India,Uttar_Pradesh,Ghaziabad,"Sanjay Nagar, Ghaziabad - UPPCB",24-03-2026 08:00:00,28.685382,77.453839,NO2,44,124,83
India,Uttar_Pradesh,Ghaziabad,"Vasundhara, Ghaziabad - UPPCB",24-03-2026 08:00:00,28.6603346,77.3572563,SO2,17,30,22
India,Uttar_Pradesh,Ghaziabad,"Vasundhara, Ghaziabad - UPPCB",24-03-2026 08:00:00,28.6603346,77.3572563,OZONE,2,86,3
India,Uttar_Pradesh,Gorakhpur,"Madan Mohan Malaviya University of Technology, Gorakhpur - UPPCB",24-03-2026 08:00:00,26.730136,83.433859,PM2.5,39,81,63
India,Uttar_Pradesh,Greater Noida,"Knowledge Park - III, Greater Noida - UPPCB",24-03-2026 08:00:00,28.47272,77.482000,SO2,7,16,11
India,Rajasthan,Udaipur,"Ashok Nagar, Udaipur - RSPCB",24-03-2026 08:00:00,24.5886166,73.6321397,PM10,47,117,67
India,Sikkim,Gangtok,"Zero Point GICI, Gangtok - SSPCB",24-03-2026 08:00:00,27.338530,88.614099,NO2,6,7,6
India,Sikkim,Gangtok,"Zero Point GICI, Gangtok - SSPCB",24-03-2026 08:00:00,27.338530,88.614099,OZONE,9,26,16
India,TamilNadu,Chennai,"Arumbakkam, Chennai - TNPCB",24-03-2026 08:00:00,13.0664,80.2112 ,PM2.5,2,54,18
India,TamilNadu,Chennai,"Kodungaiyur, Chennai - TNPCB",24-03-2026 08:00:00,13.1278,80.2642,PM10,11,62,32
India,TamilNadu,Chennai,"Manali Village, Chennai - TNPCB",24-03-2026 08:00:00,13.1662,80.2584,PM2.5,2,46,20
India,TamilNadu,Chennai,"Manali, Chennai - CPCB",24-03-2026 08:00:00,13.164544,80.26285,PM2.5,12,25,18
India,TamilNadu,Chennai,"Manali, Chennai - CPCB",24-03-2026 08:00:00,13.164544,80.26285,NH3,6,7,7
India,TamilNadu,Chennai,"Manali, Chennai - CPCB",24-03-2026 08:00:00,13.164544,80.26285,CO,11,54,22
India,TamilNadu,Chennai,"Perungudi, Chennai - TNPCB",24-03-2026 08:00:00,12.9533,80.2357,PM2.5,6,45,15
India,TamilNadu,Chennai,"Velachery Res. Area, Chennai - CPCB",24-03-2026 08:00:00,13.0052189,80.2398125,NH3,2,3,3
India,TamilNadu,Coimbatore,"SIDCO Kurichi, Coimbatore - TNPCB",24-03-2026 08:00:00,10.942451,76.978996,PM2.5,NA,NA,NA
India,TamilNadu,Coimbatore,"SIDCO Kurichi, Coimbatore - TNPCB",24-03-2026 08:00:00,10.942451,76.978996,PM10,NA,NA,NA
India,TamilNadu,Coimbatore,"SIDCO Kurichi, Coimbatore - TNPCB",24-03-2026 08:00:00,10.942451,76.978996,SO2,NA,NA,NA
India,TamilNadu,Coimbatore,"SIDCO Kurichi, Coimbatore - TNPCB",24-03-2026 08:00:00,10.942451,76.978996,OZONE,NA,NA,NA
India,TamilNadu,Gummidipoondi,"Anthoni Pillai Nagar, Gummidipoondi - TNPCB",24-03-2026 08:00:00,13.4127,80.1081,PM10,36,188,88
India,Uttar_Pradesh,Bareilly,"Civil Lines, Bareilly - UPPCB",24-03-2026 08:00:00,28.359581,79.414455,NO2,2,3,2
India,Uttar_Pradesh,Bareilly,"Rajendra Nagar, Bareilly - UPPCB",24-03-2026 08:00:00,28.38910936,79.42963708,PM10,23,81,52
India,Uttar_Pradesh,Bulandshahr,"Yamunapuram, Bulandshahr - UPPCB",24-03-2026 08:00:00,28.406963,77.849831,PM2.5,32,118,67
India,Uttar_Pradesh,Bulandshahr,"Yamunapuram, Bulandshahr - UPPCB",24-03-2026 08:00:00,28.406963,77.849831,CO,22,75,55
India,Uttar_Pradesh,Firozabad,"Nagla Bhau, Firozabad - UPPCB",24-03-2026 08:00:00,27.168897,78.376960,PM2.5,13,132,63
India,Uttar_Pradesh,Firozabad,"Nagla Bhau, Firozabad - UPPCB",24-03-2026 08:00:00,27.168897,78.376960,NH3,2,2,2
India,Uttar_Pradesh,Firozabad,"Vibhab Nagar, Firozabad - UPPCB",24-03-2026 08:00:00,27.1594,78.3953,PM10,31,164,102
India,Telangana,Hyderabad,"Kokapet, Hyderabad - TSPCB",24-03-2026 08:00:00,17.393559,78.339194,NO2,11,16,14
India,Telangana,Hyderabad,"Kompally Municipal Office, Hyderabad - TSPCB",24-03-2026 08:00:00,17.544899,78.486949,NO2,12,18,17
India,Telangana,Hyderabad,"New Malakpet, Hyderabad - TSPCB",24-03-2026 08:00:00,17.37206,78.50864,PM2.5,31,139,65
India,Telangana,Hyderabad,"New Malakpet, Hyderabad - TSPCB",24-03-2026 08:00:00,17.37206,78.50864,PM10,77,113,91
India,Telangana,Hyderabad,"New Malakpet, Hyderabad - TSPCB",24-03-2026 08:00:00,17.37206,78.50864,SO2,13,21,16
India,Telangana,Hyderabad,"New Malakpet, Hyderabad - TSPCB",24-03-2026 08:00:00,17.37206,78.50864,CO,24,44,25
India,Uttar_Pradesh,Greater Noida,"Knowledge Park - V, Greater Noida - UPPCB",24-03-2026 08:00:00,28.557054,77.453663,PM10,79,500,251
India,Uttar_Pradesh,Greater Noida,"Knowledge Park - V, Greater Noida - UPPCB",24-03-2026 08:00:00,28.557054,77.453663,SO2,12,18,15
India,Uttar_Pradesh,Greater Noida,"Knowledge Park - V, Greater Noida - UPPCB",24-03-2026 08:00:00,28.557054,77.453663,CO,46,111,90
India,Uttar_Pradesh,Jhansi,"Shivaji Nagar, Jhansi - UPPCB",24-03-2026 08:00:00,25.4547,78.6039,PM2.5,22,43,30
India,Uttar_Pradesh,Jhansi,"Shivaji Nagar, Jhansi - UPPCB",24-03-2026 08:00:00,25.4547,78.6039,PM10,36,70,57
India,Uttar_Pradesh,Noida,"Sector - 125, Noida - UPPCB",24-03-2026 08:00:00,28.5447608,77.3231257,CO,18,118,59
India,Uttar_Pradesh,Noida,"Sector - 62, Noida - IMD",24-03-2026 08:00:00,28.6245479,77.3577104,PM10,60,308,139
India,Uttar_Pradesh,Noida,"Sector - 62, Noida - IMD",24-03-2026 08:00:00,28.6245479,77.3577104,NO2,4,33,12
India,Uttar_Pradesh,Noida,"Sector - 62, Noida - IMD",24-03-2026 08:00:00,28.6245479,77.3577104,OZONE,10,99,13
India,Uttar_Pradesh,Noida,"Sector-1, Noida - UPPCB",24-03-2026 08:00:00,28.5898,77.3101,OZONE,2,112,2
India,Uttar_Pradesh,Noida,"Sector-116, Noida - UPPCB",24-03-2026 08:00:00,28.569230,77.393848,PM2.5,70,365,201
India,Uttar_Pradesh,Noida,"Sector-116, Noida - UPPCB",24-03-2026 08:00:00,28.569230,77.393848,PM10,75,434,207
India,Uttar_Pradesh,Noida,"Sector-116, Noida - UPPCB",24-03-2026 08:00:00,28.569230,77.393848,SO2,1,18,9
India,Uttar_Pradesh,Prayagraj,"Jhunsi, Prayagraj - UPPCB",24-03-2026 08:00:00,25.425602,81.917152,OZONE,NA,NA,NA
India,Uttar_Pradesh,Prayagraj,"Motilal Nehru NIT, Prayagraj - UPPCB",24-03-2026 08:00:00,25.494,81.863,PM2.5,23,76,45
India,Uttar_Pradesh,Prayagraj,"Motilal Nehru NIT, Prayagraj - UPPCB",24-03-2026 08:00:00,25.494,81.863,NO2,12,12,12
India,Uttar_Pradesh,Lucknow,"Talkatora District Industries Center, Lucknow - CPCB",24-03-2026 08:00:00,26.83399722,80.8917361,SO2,1,10,5
India,Uttar_Pradesh,Meerut,"Ganga Nagar, Meerut - UPPCB",24-03-2026 08:00:00,28.999264,77.7590354,NO2,93,110,101
India,Uttar_Pradesh,Meerut,"Ganga Nagar, Meerut - UPPCB",24-03-2026 08:00:00,28.999264,77.7590354,SO2,16,33,25
India,Uttar_Pradesh,Meerut,"Jai Bhim Nagar, Meerut - UPPCB",24-03-2026 08:00:00,28.9535882,77.7622941,PM2.5,22,312,107
India,Uttar_Pradesh,Meerut,"Jai Bhim Nagar, Meerut - UPPCB",24-03-2026 08:00:00,28.9535882,77.7622941,CO,21,87,65
India,Uttar_Pradesh,Meerut,"Pallavpuram Phase 2, Meerut - UPPCB",24-03-2026 08:00:00,29.063510,77.709723,PM10,36,354,128
India,Uttar_Pradesh,Meerut,"Pallavpuram Phase 2, Meerut - UPPCB",24-03-2026 08:00:00,29.063510,77.709723,NH3,6,13,8
India,Uttar_Pradesh,Meerut,"Pallavpuram Phase 2, Meerut - UPPCB",24-03-2026 08:00:00,29.063510,77.709723,CO,8,106,49
India,West_Bengal,Asansol,"Evelyn Lodge, Asansol - WBPCB",24-03-2026 08:00:00,23.6979360,86.9443950,OZONE,4,68,13
India,West_Bengal,Asansol,"Mahabir Colliery, Asansol - WBPCB",24-03-2026 08:00:00,23.6181830,87.1057180,PM10,49,163,87
India,West_Bengal,Asansol,"Mahabir Colliery, Asansol - WBPCB",24-03-2026 08:00:00,23.6181830,87.1057180,NH3,1,2,1
India,West_Bengal,Durgapur,"Mahishkapur Road_B-Zone, Durgapur - WBPCB",24-03-2026 08:00:00,23.567923,87.306843,PM10,50,105,78
India,West_Bengal,Durgapur,"Mahishkapur Road_B-Zone, Durgapur - WBPCB",24-03-2026 08:00:00,23.567923,87.306843,OZONE,10,84,20
India,West_Bengal,Durgapur,"PCBL Residential Complex, Durgapur - WBPCB",24-03-2026 08:00:00,23.5087640,87.3544400,PM2.5,NA,NA,NA
India,West_Bengal,Durgapur,"PCBL Residential Complex, Durgapur - WBPCB",24-03-2026 08:00:00,23.5087640,87.3544400,OZONE,4,61,8
India,Uttar_Pradesh,Kanpur,"Nehru Nagar, Kanpur - UPPCB",24-03-2026 08:00:00,26.4703136,80.3229863,NO2,45,52,49
India,Uttar_Pradesh,Kanpur,"Nehru Nagar, Kanpur - UPPCB",24-03-2026 08:00:00,26.4703136,80.3229863,SO2,2,15,12
India,Uttar_Pradesh,Khurja,"Kalindi Kunj, Khurja - UPPCB",24-03-2026 08:00:00,28.2348927,77.8683002,OZONE,1,20,17
India,Uttar_Pradesh,Lucknow,"B R Ambedkar University, Lucknow - UPPCB",24-03-2026 08:00:00,26.766433,80.927299,PM10,30,208,78
India,Uttar_Pradesh,Lucknow,"Gomti Nagar, Lucknow - UPPCB",24-03-2026 08:00:00,26.868120,81.005119,PM10,46,112,61
India,Uttar_Pradesh,Lucknow,"Kukrail Picnic Spot-1, Lucknow - UPPCB",24-03-2026 08:00:00,26.90723,80.98579,NH3,6,6,6
India,Uttar_Pradesh,Moradabad,"Eco Herbal Park, Moradabad - UPPCB",24-03-2026 08:00:00,28.840739,78.697531,NO2,10,47,32
India,Uttar_Pradesh,Moradabad,"Eco Herbal Park, Moradabad - UPPCB",24-03-2026 08:00:00,28.840739,78.697531,NH3,3,6,4
India,Uttar_Pradesh,Moradabad,"Jigar Colony, Moradabad - UPPCB",24-03-2026 08:00:00,28.856664,78.772638,PM10,NA,NA,NA
India,Uttar_Pradesh,Moradabad,"Kashiram Nagar, Moradabad - UPPCB",24-03-2026 08:00:00,28.849399,78.742362,PM2.5,10,72,41
India,Uttar_Pradesh,Moradabad,"Kashiram Nagar, Moradabad - UPPCB",24-03-2026 08:00:00,28.849399,78.742362,CO,17,40,31
India,Uttar_Pradesh,Muzaffarnagar,"New Mandi, Muzaffarnagar - UPPCB",24-03-2026 08:00:00,29.4723508,77.7194031,PM2.5,55,282,148
India,Uttar_Pradesh,Prayagraj,"Motilal Nehru NIT, Prayagraj - UPPCB",24-03-2026 08:00:00,25.494,81.863,SO2,24,42,27
India,Uttar_Pradesh,Raebareli," Indira Nagar, Raebareli - NTPC Unchahar",24-03-2026 08:00:00,26.207781,81.245571,OZONE,30,117,34
India,Uttar_Pradesh,Varanasi,"Bhelupur, Varanasi - UPPCB",24-03-2026 08:00:00,25.301778,82.996789,NH3,1,1,1
India,Uttar_Pradesh,Varanasi,"IESD Banaras Hindu University, Varanasi - UPPCB",24-03-2026 08:00:00,25.262326,82.995408,PM10,13,93,44
India,Uttar_Pradesh,Varanasi,"IESD Banaras Hindu University, Varanasi - UPPCB",24-03-2026 08:00:00,25.262326,82.995408,NO2,2,2,2
India,Uttar_Pradesh,Varanasi,"Maldahiya, Varanasi - UPPCB",24-03-2026 08:00:00,25.32393,82.99687,PM2.5,4,51,16
India,Uttar_Pradesh,Varanasi,"Maldahiya, Varanasi - UPPCB",24-03-2026 08:00:00,25.32393,82.99687,NO2,2,4,2
India,Uttar_Pradesh,Vrindavan,"Omex Eternity, Vrindavan - UPPCB",24-03-2026 08:00:00,27.5714090,77.6557570,PM2.5,15,183,63
India,Uttar_Pradesh,Vrindavan,"Omex Eternity, Vrindavan - UPPCB",24-03-2026 08:00:00,27.5714090,77.6557570,CO,10,51,30
India,Uttar_Pradesh,Vrindavan,"Omex Eternity, Vrindavan - UPPCB",24-03-2026 08:00:00,27.5714090,77.6557570,OZONE,15,15,15
India,Uttarakhand,Rishikesh,"Shivaji Nagar, Rishikesh - UKPCB",24-03-2026 08:00:00,30.075911,78.2859547,CO,37,37,37
India,West_Bengal,Asansol,"Asansol Court Area, Asansol - WBPCB",24-03-2026 08:00:00,23.685297,86.945968,OZONE,18,48,21
India,West_Bengal,Asansol,"Evelyn Lodge, Asansol - WBPCB",24-03-2026 08:00:00,23.6979360,86.9443950,NH3,7,8,7
India,Uttarakhand,Rishikesh,"Shivaji Nagar, Rishikesh - UKPCB",24-03-2026 08:00:00,30.075911,78.2859547,NO2,16,24,20
India,West_Bengal,Durgapur,"Womens College_City Center, Durgapur - WBPCB",24-03-2026 08:00:00,23.549395,87.300496,PM10,81,161,109
India,West_Bengal,Durgapur,"Womens College_City Center, Durgapur - WBPCB",24-03-2026 08:00:00,23.549395,87.300496,NO2,23,35,28
India,West_Bengal,Durgapur,"Womens College_City Center, Durgapur - WBPCB",24-03-2026 08:00:00,23.549395,87.300496,SO2,27,28,28
India,West_Bengal,Howrah,"Belur Math, Howrah - WBPCB",24-03-2026 08:00:00,22.629801,88.352017,PM2.5,38,96,63
India,West_Bengal,Howrah,"Botanical Garden, Howrah - WBPCB",24-03-2026 08:00:00,22.554954,88.292568,PM2.5,19,59,40
India,West_Bengal,Howrah,"Botanical Garden, Howrah - WBPCB",24-03-2026 08:00:00,22.554954,88.292568,SO2,11,26,15
India,West_Bengal,Howrah,"Dasnagar, Howrah - WBPCB",24-03-2026 08:00:00,22.6025571,88.3105664,NO2,4,79,23
India,West_Bengal,Howrah,"Padmapukur, Howrah - WBPCB",24-03-2026 08:00:00,22.5687319,88.2797276,CO,44,94,86
India,West_Bengal,Howrah,"Padmapukur, Howrah - WBPCB",24-03-2026 08:00:00,22.5687319,88.2797276,OZONE,10,48,15
India,West_Bengal,Kolkata,"Jadavpur, Kolkata - WBPCB",24-03-2026 08:00:00,22.49929,88.36917,NO2,13,28,20
India,West_Bengal,Kolkata,"Jadavpur, Kolkata - WBPCB",24-03-2026 08:00:00,22.49929,88.36917,CO,18,28,23
India,West_Bengal,Kolkata,"Rabindra Bharati University, Kolkata - WBPCB",24-03-2026 08:00:00,22.627847,88.380669,SO2,5,12,8
India,West_Bengal,Kolkata,"Victoria, Kolkata - WBPCB",24-03-2026 08:00:00,22.5448082,88.3403691,SO2,12,34,19
India,West_Bengal,Siliguri,"Ward-32 Bapupara, Siliguri - WBPCB",24-03-2026 08:00:00,26.6879226,88.4152495,PM2.5,42,71,55
India,Assam,Nagaon,"Christianpatty, Nagaon - PCBA",24-03-2026 08:00:00,26.349082,92.68449,OZONE,11,22,18
India,Assam,Nalbari,"Bata Chowk, Nalbari - PCBA",24-03-2026 08:00:00,26.446912,91.439057,PM10,61,123,86
India,Assam,Silchar,"Tarapur, Silchar - PCBA",24-03-2026 08:00:00,24.82827,92.79525,SO2,5,7,6
India,Assam,Sivasagar,"Girls College, Sivasagar - PCBA",24-03-2026 08:00:00,26.987634,94.636574,PM10,21,50,32
India,Assam,Sivasagar,"Girls College, Sivasagar - PCBA",24-03-2026 08:00:00,26.987634,94.636574,NO2,13,48,31
India,Assam,Sivasagar,"Girls College, Sivasagar - PCBA",24-03-2026 08:00:00,26.987634,94.636574,OZONE,21,73,32
India,Bihar,Araria,"Kharahiya Basti, Araria - BSPCB",24-03-2026 08:00:00,26.146529,87.454184,PM2.5,NA,NA,NA
India,Bihar,Araria,"Kharahiya Basti, Araria - BSPCB",24-03-2026 08:00:00,26.146529,87.454184,NH3,5,12,6
India,Bihar,Arrah,"New DM Office, Arrah - BSPCB",24-03-2026 08:00:00,25.5626095,84.663264,PM2.5,38,80,63
India,Bihar,Arrah,"New DM Office, Arrah - BSPCB",24-03-2026 08:00:00,25.5626095,84.663264,NH3,NA,NA,NA
India,Bihar,Arrah,"New DM Office, Arrah - BSPCB",24-03-2026 08:00:00,25.5626095,84.663264,OZONE,7,14,9
India,Arunachal_Pradesh,Naharlagun,"Naharlagun, Naharlagun - APSPCB",24-03-2026 08:00:00,27.103358,93.679645,CO,2,16,9
India,Assam,Guwahati,"IITG, Guwahati - PCBA",24-03-2026 08:00:00,26.2028636,91.70046436,SO2,31,35,33
India,Assam,Guwahati,"IITG, Guwahati - PCBA",24-03-2026 08:00:00,26.2028636,91.70046436,OZONE,1,40,2
India,Assam,Guwahati,"LGBI Airport, Guwahati - PCBA",24-03-2026 08:00:00,26.10887,91.589544,PM10,44,87,62
India,Assam,Guwahati,"LGBI Airport, Guwahati - PCBA",24-03-2026 08:00:00,26.10887,91.589544,OZONE,8,15,10
India,Assam,Guwahati,"Pan Bazaar, Guwahati - PCBA",24-03-2026 08:00:00,26.187500,91.744194,PM10,21,55,36
India,Assam,Guwahati,"Pan Bazaar, Guwahati - PCBA",24-03-2026 08:00:00,26.187500,91.744194,NO2,NA,NA,NA
India,Assam,Guwahati,"Railway Colony, Guwahati - PCBA",24-03-2026 08:00:00,26.181742,91.78063,PM2.5,31,113,56
India,Assam,Nagaon,"Christianpatty, Nagaon - PCBA",24-03-2026 08:00:00,26.349082,92.68449,PM2.5,12,119,54
India,Andhra_Pradesh,Nellore,"Ambedkar Nagar, Nellore - APPCB ",24-03-2026 08:00:00,14.438164 ,79.966814 ,SO2,3,34,10
India,Andhra_Pradesh,Nellore,"Ambedkar Nagar, Nellore - APPCB ",24-03-2026 08:00:00,14.438164 ,79.966814 ,OZONE,5,28,8
India,Andhra_Pradesh,Rajamahendravaram,"Anand Kala Kshetram, Rajamahendravaram - APPCB",24-03-2026 08:00:00,16.9872867,81.7363176,NO2,12,41,22
India,Andhra_Pradesh,Tirumala,"Toll Gate, Tirumala - APPCB",24-03-2026 08:00:00,13.67,79.35,PM10,23,70,40
India,Andhra_Pradesh,Tirupati,"Vaikuntapuram, Tirupati - APPCB",24-03-2026 08:00:00,13.615387,79.409230,PM2.5,46,60,51
India,Andhra_Pradesh,Tirupati,"Vaikuntapuram, Tirupati - APPCB",24-03-2026 08:00:00,13.615387,79.409230,SO2,8,16,11
India,Andhra_Pradesh,Vijayawada,"HB Colony, Vijayawada - APPCB",24-03-2026 08:00:00,16.536107,80.594233,NH3,3,6,4
India,Andhra_Pradesh,Vijayawada,"HB Colony, Vijayawada - APPCB",24-03-2026 08:00:00,16.536107,80.594233,OZONE,17,48,17
India,Andhra_Pradesh,Chittoor,"Gangineni Cheruvu, Chittoor - APPCB",24-03-2026 08:00:00,13.204880,79.097889,SO2,7,18,13
India,Andhra_Pradesh,Guntur,"Rajendra Nagar North, Guntur - APPCB",24-03-2026 08:00:00,16.316553,80.413302,OZONE,28,51,38
India,Andhra_Pradesh,Kadapa,"Yerramukkapalli, Kadapa - APPCB",24-03-2026 08:00:00,14.465052,78.824187,PM2.5,48,77,59
India,Andhra_Pradesh,Kadapa,"Yerramukkapalli, Kadapa - APPCB",24-03-2026 08:00:00,14.465052,78.824187,NO2,18,32,23
India,Andhra_Pradesh,Vijayawada,"Kanuru, Vijayawada - APPCB",24-03-2026 08:00:00,16.486692,80.699436,NO2,12,22,16
India,Andhra_Pradesh,Vijayawada,"Kanuru, Vijayawada - APPCB",24-03-2026 08:00:00,16.486692,80.699436,NH3,4,7,4
India,Andhra_Pradesh,Vijayawada,"Kanuru, Vijayawada - APPCB",24-03-2026 08:00:00,16.486692,80.699436,CO,36,62,48
India,Andhra_Pradesh,Vijayawada,"Rajiv Gandhi Park, Vijayawada - APPCB",24-03-2026 08:00:00,16.509717,80.612222,PM10,NA,NA,NA
India,Andhra_Pradesh,Vijayawada,"Rajiv Gandhi Park, Vijayawada - APPCB",24-03-2026 08:00:00,16.509717,80.612222,SO2,NA,NA,NA
India,Andhra_Pradesh,Vijayawada,"Rajiv Nagar, Vijayawada - APPCB",24-03-2026 08:00:00,16.554731,80.649110,CO,24,36,32
India,Andhra_Pradesh,Visakhapatnam,"GVM Corporation, Visakhapatnam - APPCB",24-03-2026 08:00:00,17.72,83.3,PM10,37,129,78
India,Andhra_Pradesh,Visakhapatnam,"GVM Corporation, Visakhapatnam - APPCB",24-03-2026 08:00:00,17.72,83.3,NO2,1,46,28
India,Andhra_Pradesh,Visakhapatnam,"GVM Corporation, Visakhapatnam - APPCB",24-03-2026 08:00:00,17.72,83.3,SO2,1,83,16
India,Bihar,Bettiah,"Kamalnath Nagar, Bettiah - BSPCB",24-03-2026 08:00:00,26.80365,84.51954,NH3,1,1,1
India,Bihar,Bettiah,"Kamalnath Nagar, Bettiah - BSPCB",24-03-2026 08:00:00,26.80365,84.51954,CO,28,48,42
India,Andhra_Pradesh,Chittoor,"Gangineni Cheruvu, Chittoor - APPCB",24-03-2026 08:00:00,13.204880,79.097889,PM10,39,72,50
India,Andhra_Pradesh,Amaravati,"Secretariat, Amaravati - APPCB",24-03-2026 08:00:00,16.5150833,80.5181667,CO,14,74,28
India,Bihar,Aurangabad,"Gurdeo Nagar, Aurangabad - BSPCB",24-03-2026 08:00:00,24.75746,84.366208,OZONE,3,79,6
India,Bihar,Patna,"Samanpura, Patna - BSPCB",24-03-2026 08:00:00,25.596727,85.085624,OZONE,9,121,40
India,Bihar,Rajgir,"Dangi Tola, Rajgir - BSPCB",24-03-2026 08:00:00,25.03280,85.41948,PM10,25,67,41
India,Bihar,Rajgir,"Dangi Tola, Rajgir - BSPCB",24-03-2026 08:00:00,25.03280,85.41948,SO2,2,3,3
India,Bihar,Rajgir,"Dangi Tola, Rajgir - BSPCB",24-03-2026 08:00:00,25.03280,85.41948,CO,36,47,42
India,Bihar,Saharsa,"Police Line, Saharsa - BSPCB",24-03-2026 08:00:00,25.892357,86.590325,PM2.5,19,237,80
India,Bihar,Saharsa,"Police Line, Saharsa - BSPCB",24-03-2026 08:00:00,25.892357,86.590325,SO2,15,18,16
India,Bihar,Saharsa,"Police Line, Saharsa - BSPCB",24-03-2026 08:00:00,25.892357,86.590325,CO,34,43,40
India,Bihar,Samastipur,"DM Office_Kasipur, Samastipur - BSPCB",24-03-2026 08:00:00,25.859655,85.77944,PM10,NA,NA,NA
India,Bihar,Samastipur,"DM Office_Kasipur, Samastipur - BSPCB",24-03-2026 08:00:00,25.859655,85.77944,OZONE,7,10,10
India,Bihar,Sasaram,"Dada Peer, Sasaram - BSPCB",24-03-2026 08:00:00,24.952822,84.002396,PM10,NA,NA,NA
India,Bihar,Siwan,"Chitragupta Nagar, Siwan - BSPCB",24-03-2026 08:00:00,26.2271665,84.3570427,NH3,1,1,1
India,Chandigarh,Chandigarh,"Sector 22, Chandigarh - CPCC",24-03-2026 08:00:00,30.735567,76.775714,NO2,6,29,15
India,Chhattisgarh,Bilaspur,"Mangala, Bilaspur - NTPC",24-03-2026 08:00:00,22.08815,82.13737,CO,24,124,52
India,Chhattisgarh,Chhal,"Nawapara SECL Colony, Chhal - CECB",24-03-2026 08:00:00,22.118125,83.140608,SO2,8,74,32
India,Chhattisgarh,Chhal,"Nawapara SECL Colony, Chhal - CECB",24-03-2026 08:00:00,22.118125,83.140608,CO,20,48,43
India,Chhattisgarh,Korba,"Rampur, Korba - CECB",24-03-2026 08:00:00,22.368195,82.746431,PM2.5,14,78,55
India,Chhattisgarh,Korba,"Rampur, Korba - CECB",24-03-2026 08:00:00,22.368195,82.746431,NO2,14,62,31
India,Chhattisgarh,Korba,"Rampur, Korba - CECB",24-03-2026 08:00:00,22.368195,82.746431,NH3,1,1,1
India,Chhattisgarh,Kunjemura,"OP Jindal School, Kunjemura - CECB",24-03-2026 08:00:00,22.126650,83.483212,CO,16,53,36
India,Chhattisgarh,Kunjemura,"OP Jindal School, Kunjemura - CECB",24-03-2026 08:00:00,22.126650,83.483212,OZONE,2,36,9
India,Chhattisgarh,Milupara,"Govt. Higher Secondary School, Milupara - CECB",24-03-2026 08:00:00,22.1910172,83.5197009,PM10,34,98,59
India,Chhattisgarh,Milupara,"Govt. Higher Secondary School, Milupara - CECB",24-03-2026 08:00:00,22.1910172,83.5197009,NO2,17,50,27
India,Chhattisgarh,Milupara,"Govt. Higher Secondary School, Milupara - CECB",24-03-2026 08:00:00,22.1910172,83.5197009,SO2,12,16,14
India,Chhattisgarh,Raipur,"AIIMS, Raipur - CECB",24-03-2026 08:00:00,21.258815,81.578979,NO2,33,41,38
India,Bihar,Kishanganj,"SDM Office_Khagra, Kishanganj - BSPCB",24-03-2026 08:00:00,26.0881305,87.93840336,OZONE,32,35,33
India,Bihar,Motihari,"Gandak Colony, Motihari - BSPCB",24-03-2026 08:00:00,26.63086,84.90051,PM2.5,12,170,70
India,Bihar,Motihari,"Gandak Colony, Motihari - BSPCB",24-03-2026 08:00:00,26.63086,84.90051,PM10,14,133,70
India,Bihar,Motihari,"Gandak Colony, Motihari - BSPCB",24-03-2026 08:00:00,26.63086,84.90051,NH3,3,3,3
India,Bihar,Munger,"Town Hall, Munger - BSPCB",24-03-2026 08:00:00,25.376776,86.471523,PM2.5,17,92,45
India,Bihar,Munger,"Town Hall, Munger - BSPCB",24-03-2026 08:00:00,25.376776,86.471523,NO2,4,5,5
India,Bihar,Muzaffarpur,"Buddha Colony, Muzaffarpur - BSPCB",24-03-2026 08:00:00,26.11442,85.39813,NH3,14,20,17
India,Bihar,Muzaffarpur,"Buddha Colony, Muzaffarpur - BSPCB",24-03-2026 08:00:00,26.11442,85.39813,SO2,5,14,9
India,Bihar,Muzaffarpur,"Buddha Colony, Muzaffarpur - BSPCB",24-03-2026 08:00:00,26.11442,85.39813,OZONE,17,118,25
India,Bihar,Muzaffarpur,"MIT-Daudpur Kothi, Muzaffarpur - BSPCB",24-03-2026 08:00:00,26.1403345,85.3650192,PM10,45,67,61
India,Bihar,Muzaffarpur,"Muzaffarpur Collectorate, Muzaffarpur - BSPCB",24-03-2026 08:00:00,26.1209,85.3647,NO2,8,16,11
India,Bihar,Muzaffarpur,"Muzaffarpur Collectorate, Muzaffarpur - BSPCB",24-03-2026 08:00:00,26.1209,85.3647,SO2,4,7,5
India,Bihar,Patna,"DRM Office Danapur, Patna - BSPCB",24-03-2026 08:00:00,25.586562,85.043586,CO,24,60,51
India,Bihar,Patna,"IGSC Planetarium Complex, Patna - BSPCB",24-03-2026 08:00:00,25.610369,85.132568,SO2,1,17,8
India,Bihar,Patna,"Muradpur, Patna - BSPCB",24-03-2026 08:00:00,25.619651,85.147382,PM2.5,75,303,188
India,Bihar,Patna,"Muradpur, Patna - BSPCB",24-03-2026 08:00:00,25.619651,85.147382,NO2,10,12,11
India,Bihar,Patna,"Rajbansi Nagar, Patna - BSPCB",24-03-2026 08:00:00,25.599486,85.113666,CO,4,74,21
India,Bihar,Patna,"Samanpura, Patna - BSPCB",24-03-2026 08:00:00,25.596727,85.085624,PM10,54,170,104
India,Bihar,Patna,"Samanpura, Patna - BSPCB",24-03-2026 08:00:00,25.596727,85.085624,NH3,9,16,11
India,Chandigarh,Chandigarh,"Sector-25, Chandigarh - CPCC",24-03-2026 08:00:00,30.751462,76.762879,PM10,NA,NA,NA
India,Chandigarh,Chandigarh,"Sector-25, Chandigarh - CPCC",24-03-2026 08:00:00,30.751462,76.762879,NH3,NA,NA,NA
India,Chandigarh,Chandigarh,"Sector-53, Chandigarh - CPCC",24-03-2026 08:00:00,30.719859,76.738637,NH3,15,16,16
India,Chandigarh,Chandigarh,"Sector-53, Chandigarh - CPCC",24-03-2026 08:00:00,30.719859,76.738637,SO2,6,6,6
India,Chandigarh,Chandigarh,"Sector-53, Chandigarh - CPCC",24-03-2026 08:00:00,30.719859,76.738637,CO,32,106,59
India,Chhattisgarh,Bhilai,"32Bungalows, Bhilai - CECB",24-03-2026 08:00:00,21.194815,81.314770,NH3,1,2,1
India,Chhattisgarh,Bhilai,"Civic Center, Bhilai - Bhilai Steel Plant",24-03-2026 08:00:00,21.185571,81.343175,NH3,3,3,3
India,Delhi,Delhi,"Anand Vihar, Delhi - DPCC",24-03-2026 08:00:00,28.647622,77.3158090,PM10,23,435,247
India,Delhi,Delhi,"Bawana, Delhi - DPCC",24-03-2026 08:00:00,28.776200,77.051074,NO2,8,77,40
India,Delhi,Delhi,"Burari Crossing, Delhi - IMD",24-03-2026 08:00:00,28.7256504,77.2011573,NO2,6,38,23
India,Delhi,Delhi,"CRRI Mathura Road, Delhi - IMD",24-03-2026 08:00:00,28.5512005,77.2735737,CO,26,89,82
India,Delhi,Delhi,"Chandni Chowk, Delhi - IITM",24-03-2026 08:00:00,28.656756,77.227234,PM2.5,56,433,144
India,Chhattisgarh,Raipur,"Bhatagaon New ISBT, Raipur - CECB",24-03-2026 08:00:00,21.219665,81.630094,NO2,23,53,38
India,Chhattisgarh,Raipur,"Krishak Nagar, Raipur - CECB",24-03-2026 08:00:00,21.237755,81.705301,NH3,2,16,3
India,Chhattisgarh,Raipur,"Krishak Nagar, Raipur - CECB",24-03-2026 08:00:00,21.237755,81.705301,CO,12,30,26
India,Chhattisgarh,Raipur,"Siltara Phase-II, Raipur - CECB",24-03-2026 08:00:00,21.371751,81.664929,PM2.5,23,53,35
India,Delhi,Delhi,"Alipur, Delhi - DPCC",24-03-2026 08:00:00,28.815329,77.153010,CO,22,108,106
India,Bihar,Chhapra,"Darshan Nagar, Chhapra - BSPCB",24-03-2026 08:00:00,25.7808257,84.7446768,NO2,NA,NA,NA
India,Bihar,Chhapra,"Darshan Nagar, Chhapra - BSPCB",24-03-2026 08:00:00,25.7808257,84.7446768,CO,NA,NA,NA
India,Bihar,Chhapra,"Darshan Nagar, Chhapra - BSPCB",24-03-2026 08:00:00,25.7808257,84.7446768,OZONE,NA,NA,NA
India,Bihar,Gaya,"Kareemganj, Gaya - BSPCB",24-03-2026 08:00:00,24.792403,84.992416,NH3,1,2,1
India,Bihar,Hajipur,"Industrial Area, Hajipur - BSPCB",24-03-2026 08:00:00,25.697189,85.245900,PM2.5,76,326,235
India,Bihar,Hajipur,"Industrial Area, Hajipur - BSPCB",24-03-2026 08:00:00,25.697189,85.245900,PM10,63,362,152
India,Bihar,Bhagalpur,"Mayaganj, Bhagalpur - BSPCB",24-03-2026 08:00:00,25.265194,87.012947,SO2,53,64,58
India,Bihar,Bhagalpur,"Mayaganj, Bhagalpur - BSPCB",24-03-2026 08:00:00,25.265194,87.012947,CO,80,98,89
India,Bihar,Bihar Sharif,"D M Colony, Bihar Sharif - BSPCB",24-03-2026 08:00:00,25.204762,85.514960,SO2,10,10,10
India,Gujarat,Ahmedabad,"Rakhial, Ahmedabad - IITM",24-03-2026 08:00:00,23.016834,72.625775,SO2,6,57,29
India,Gujarat,Ahmedabad,"SAC ISRO Bopal, Ahmedabad - IITM",24-03-2026 08:00:00,23.041137,72.456691,NO2,9,35,18
India,Gujarat,Ahmedabad,"SAC ISRO Satellite, Ahmedabad - IITM",24-03-2026 08:00:00,23.023389,72.515201,NH3,1,9,4
India,Gujarat,Ahmedabad,"SAC ISRO Satellite, Ahmedabad - IITM",24-03-2026 08:00:00,23.023389,72.515201,SO2,5,30,12
India,Gujarat,Ahmedabad,"SVPI Airport Hansol, Ahmedabad - IITM",24-03-2026 08:00:00,23.076793,72.627874,PM2.5,21,68,43
India,Gujarat,Ahmedabad,"SVPI Airport Hansol, Ahmedabad - IITM",24-03-2026 08:00:00,23.076793,72.627874,NH3,3,13,6
India,Gujarat,Ahmedabad,"SVPI Airport Hansol, Ahmedabad - IITM",24-03-2026 08:00:00,23.076793,72.627874,OZONE,3,63,5
India,Gujarat,Bhavnagar,"Vidhyanagar, Bhavnagar - Nexteng Enviro",24-03-2026 08:00:00,21.755417,72.139056,PM10,91,225,135
India,Gujarat,Bhavnagar,"Vidhyanagar, Bhavnagar - Nexteng Enviro",24-03-2026 08:00:00,21.755417,72.139056,OZONE,5,12,7
India,Delhi,Delhi,"Chandni Chowk, Delhi - IITM",24-03-2026 08:00:00,28.656756,77.227234,PM10,94,445,226
India,Delhi,Delhi,"Commonwealth Sports Complex, Delhi - DPCC",24-03-2026 08:00:00,28.615828 ,77.271992 ,PM2.5,47,311,171
India,Delhi,Delhi,"Dr. Karni Singh Shooting Range, Delhi - DPCC",24-03-2026 08:00:00,28.498571,77.264840,CO,27,85,70
India,Delhi,Delhi,"Dwarka-Sector 8, Delhi - DPCC ",24-03-2026 08:00:00,28.5710274,77.0719006,PM2.5,48,277,129
India,Delhi,Delhi,"Dwarka-Sector 8, Delhi - DPCC ",24-03-2026 08:00:00,28.5710274,77.0719006,PM10,44,500,207
India,Delhi,Delhi,"Dwarka-Sector 8, Delhi - DPCC ",24-03-2026 08:00:00,28.5710274,77.0719006,SO2,16,23,20
India,Delhi,Delhi,"IGI Airport (T3), Delhi - IMD",24-03-2026 08:00:00,28.5627763,77.1180053,PM2.5,47,252,126
India,Delhi,Delhi,"IGI Airport (T3), Delhi - IMD",24-03-2026 08:00:00,28.5627763,77.1180053,OZONE,2,67,3
India,Delhi,Delhi,"Najafgarh, Delhi - DPCC",24-03-2026 08:00:00,28.570173,76.933762,PM10,45,209,96
India,Delhi,Delhi,"Najafgarh, Delhi - DPCC",24-03-2026 08:00:00,28.570173,76.933762,NO2,79,115,98
India,Delhi,Delhi,"Najafgarh, Delhi - DPCC",24-03-2026 08:00:00,28.570173,76.933762,NH3,12,13,12
India,Delhi,Delhi,"Narela, Delhi - DPCC",24-03-2026 08:00:00,28.822836,77.101981,OZONE,8,70,10
India,Delhi,Delhi,"Nehru Nagar, Delhi - DPCC",24-03-2026 08:00:00,28.567890,77.250515,PM10,48,271,148
India,Delhi,Delhi,"North Campus, DU, Delhi - IMD",24-03-2026 08:00:00,28.6573814,77.1585447,CO,NA,NA,NA
India,Delhi,Delhi,"Okhla Phase-2, Delhi - DPCC",24-03-2026 08:00:00,28.530785,77.271255,CO,42,114,65
India,Delhi,Delhi,"Patparganj, Delhi - DPCC",24-03-2026 08:00:00,28.623763,77.287209,PM2.5,47,319,167
India,Delhi,Delhi,"Wazirpur, Delhi - DPCC",24-03-2026 08:00:00,28.699793,77.165453,NO2,67,152,103
India,Delhi,Delhi,"Wazirpur, Delhi - DPCC",24-03-2026 08:00:00,28.699793,77.165453,OZONE,22,151,24
India,Gujarat,Ahmedabad,"Chandkheda, Ahmedabad - IITM",24-03-2026 08:00:00,23.107969,72.574648,NO2,7,56,24
India,Gujarat,Ahmedabad,"Chandkheda, Ahmedabad - IITM",24-03-2026 08:00:00,23.107969,72.574648,SO2,4,22,10
India,Gujarat,Ahmedabad,"Chandkheda, Ahmedabad - IITM",24-03-2026 08:00:00,23.107969,72.574648,CO,6,60,18
India,Gujarat,Ahmedabad,"Maninagar, Ahmedabad - GPCB",24-03-2026 08:00:00,23.002657,72.591912,PM2.5,50,178,84
India,Gujarat,Ahmedabad,"Maninagar, Ahmedabad - GPCB",24-03-2026 08:00:00,23.002657,72.591912,SO2,21,90,53
India,Gujarat,Ahmedabad,"Raikhad, Ahmedabad - IITM",24-03-2026 08:00:00,23.020509,72.579261,PM2.5,45,82,64
India,Delhi,Delhi,"Sirifort, Delhi - CPCB",24-03-2026 08:00:00,28.5504249,77.2159377,PM2.5,53,321,156
India,Delhi,Delhi,"Sirifort, Delhi - CPCB",24-03-2026 08:00:00,28.5504249,77.2159377,NH3,10,17,12
India,Delhi,Delhi,"Sonia Vihar, Delhi - DPCC",24-03-2026 08:00:00,28.710508,77.249485,SO2,40,75,55
India,Delhi,Delhi,"Sonia Vihar, Delhi - DPCC",24-03-2026 08:00:00,28.710508,77.249485,OZONE,6,304,8
India,Delhi,Delhi,"Sri Aurobindo Marg, Delhi - DPCC",24-03-2026 08:00:00,28.531346,77.190156,NH3,6,8,7
India,Delhi,Delhi,"Sri Aurobindo Marg, Delhi - DPCC",24-03-2026 08:00:00,28.531346,77.190156,CO,12,100,48
India,Delhi,Delhi,"Vivek Vihar, Delhi - DPCC",24-03-2026 08:00:00,28.672342,77.315260,CO,56,108,64
India,Delhi,Delhi,"Vivek Vihar, Delhi - DPCC",24-03-2026 08:00:00,28.672342,77.315260,OZONE,6,144,7
India,Delhi,Delhi,"IGNOU_Maidan Garhi, Delhi - DPCC",24-03-2026 08:00:00,28.493624 ,77.201159 ,NO2,7,16,11
India,Delhi,Delhi,"IGNOU_Maidan Garhi, Delhi - DPCC",24-03-2026 08:00:00,28.493624 ,77.201159 ,SO2,57,60,58
India,Delhi,Delhi,"IHBAS, Dilshad Garden, Delhi - CPCB",24-03-2026 08:00:00,28.6811736,77.3025234,PM2.5,27,344,176
India,Delhi,Delhi,"IIT Delhi, Delhi - IITM",24-03-2026 08:00:00,28.542460,77.191651,OZONE,4,50,5
India,Delhi,Delhi,"ITO, Delhi - CPCB",24-03-2026 08:00:00,28.628624,77.241060,PM2.5,49,257,124
India,Delhi,Delhi,"ITO, Delhi - CPCB",24-03-2026 08:00:00,28.628624,77.241060,NH3,2,7,5
India,Delhi,Delhi,"JNU, Delhi - DPCC",24-03-2026 08:00:00,28.540721 ,77.168544 ,SO2,17,18,17
India,Delhi,Delhi,"Pusa, Delhi - DPCC",24-03-2026 08:00:00,28.639652,77.146275,CO,57,108,81
India,Delhi,Delhi,"Pusa, Delhi - IMD",24-03-2026 08:00:00,28.636110,77.173332,PM10,36,203,118
India,Delhi,Delhi,"Pusa, Delhi - IMD",24-03-2026 08:00:00,28.636110,77.173332,CO,14,105,79
India,Delhi,Delhi,"R K Puram, Delhi - DPCC",24-03-2026 08:00:00,28.563262,77.186937,PM10,55,250,129
India,Delhi,Delhi,"R K Puram, Delhi - DPCC",24-03-2026 08:00:00,28.563262,77.186937,OZONE,2,82,3
India,Delhi,Delhi,"Rohini, Delhi - DPCC",24-03-2026 08:00:00,28.732528,77.119920,CO,10,114,93
India,Delhi,Delhi,"Shadipur, Delhi - CPCB",24-03-2026 08:00:00,28.6514781,77.1473105,NO2,42,137,77
India,Delhi,Delhi,"Jawaharlal Nehru Stadium, Delhi - DPCC",24-03-2026 08:00:00,28.580280,77.233829,NO2,32,126,69
India,Delhi,Delhi,"Lodhi Road, Delhi - IMD",24-03-2026 08:00:00,28.5918245,77.2273074,PM2.5,36,201,105
India,Delhi,Delhi,"Major Dhyan Chand National Stadium, Delhi - DPCC",24-03-2026 08:00:00,28.611281,77.237738,PM10,46,226,136
India,Delhi,Delhi,"Major Dhyan Chand National Stadium, Delhi - DPCC",24-03-2026 08:00:00,28.611281,77.237738,NH3,15,18,16
India,Delhi,Delhi,"Major Dhyan Chand National Stadium, Delhi - DPCC",24-03-2026 08:00:00,28.611281,77.237738,SO2,7,26,15
India,Delhi,Delhi,"Major Dhyan Chand National Stadium, Delhi - DPCC",24-03-2026 08:00:00,28.611281,77.237738,OZONE,1,159,1
India,Delhi,Delhi,"Mundka, Delhi - DPCC",24-03-2026 08:00:00,28.684678,77.076574,PM2.5,40,429,185
India,Delhi,Delhi,"Mundka, Delhi - DPCC",24-03-2026 08:00:00,28.684678,77.076574,PM10,40,500,249
India,Delhi,Delhi,"Mundka, Delhi - DPCC",24-03-2026 08:00:00,28.684678,77.076574,NO2,65,137,92
India,Delhi,Delhi,"NSIT Dwarka, Delhi - CPCB",24-03-2026 08:00:00,28.60909,77.0325413,PM2.5,16,311,151
India,Delhi,Delhi,"NSUT Jaffarpur, Delhi - DPCC",24-03-2026 08:00:00,28.594004 ,76.909423 ,PM10,37,230,128
India,Delhi,Delhi,"NSUT Jaffarpur, Delhi - DPCC",24-03-2026 08:00:00,28.594004 ,76.909423 ,NH3,11,14,13
India,Delhi,Delhi,"NSUT Jaffarpur, Delhi - DPCC",24-03-2026 08:00:00,28.594004 ,76.909423 ,CO,120,144,136
India,Haryana,Ballabgarh,"Nathu Colony, Ballabgarh - HSPCB",24-03-2026 08:00:00,28.3419248,77.319699,CO,20,67,39
India,Haryana,Ballabgarh,"Nathu Colony, Ballabgarh - HSPCB",24-03-2026 08:00:00,28.3419248,77.319699,OZONE,5,7,6
India,Haryana,Bhiwani,"H.B. Colony, Bhiwani - HSPCB",24-03-2026 08:00:00,28.806223,76.141105,OZONE,2,20,7
India,Haryana,Charkhi Dadri,"Mini Secretariat, Charkhi Dadri - HSPCB",24-03-2026 08:00:00,28.593883,76.270653,PM10,18,326,109
India,Haryana,Charkhi Dadri,"Mini Secretariat, Charkhi Dadri - HSPCB",24-03-2026 08:00:00,28.593883,76.270653,NO2,9,22,15
India,Haryana,Charkhi Dadri,"Mini Secretariat, Charkhi Dadri - HSPCB",24-03-2026 08:00:00,28.593883,76.270653,SO2,2,115,42
India,Haryana,Charkhi Dadri,"Mini Secretariat, Charkhi Dadri - HSPCB",24-03-2026 08:00:00,28.593883,76.270653,CO,60,111,88
India,Haryana,Dharuhera,"Municipal Corporation Office, Dharuhera -  HSPCB",24-03-2026 08:00:00,28.206800,76.799700,NH3,9,26,19
India,Haryana,Dharuhera,"Municipal Corporation Office, Dharuhera -  HSPCB",24-03-2026 08:00:00,28.206800,76.799700,SO2,6,7,7
India,Haryana,Faridabad,"New Industrial Town, Faridabad - HSPCB",24-03-2026 08:00:00,28.39072,77.30059,SO2,8,8,8
India,Haryana,Faridabad,"New Industrial Town, Faridabad - HSPCB",24-03-2026 08:00:00,28.39072,77.30059,CO,10,13,11
India,Haryana,Faridabad,"New Industrial Town, Faridabad - HSPCB",24-03-2026 08:00:00,28.39072,77.30059,OZONE,26,34,30
India,Haryana,Faridabad,"Sector 11, Faridabad - HSPCB",24-03-2026 08:00:00,28.376058,77.315741,NO2,29,33,31
India,Haryana,Faridabad,"Sector 30, Faridabad - HSPCB",24-03-2026 08:00:00,28.4417,77.3217,NH3,11,12,11
India,Gujarat,Surat,"Science Center, Surat - SMC",24-03-2026 08:00:00,21.170046,72.795405,PM2.5,49,123,76
India,Gujarat,Vadodara,"Bapunagar, Vadodara - Nexteng Enviro",24-03-2026 08:00:00,22.320153,73.216285,PM2.5,4,305,106
India,Gujarat,Vadodara,"Bapunagar, Vadodara - Nexteng Enviro",24-03-2026 08:00:00,22.320153,73.216285,PM10,80,187,110
India,Gujarat,Vadodara,"Bapunagar, Vadodara - Nexteng Enviro",24-03-2026 08:00:00,22.320153,73.216285,NO2,1,26,15
India,Gujarat,Vatva,"Phase-4 GIDC, Vatva - GPCB",24-03-2026 08:00:00,22.969611,72.643500,PM2.5,68,309,152
India,Gujarat,Vatva,"Phase-4 GIDC, Vatva - GPCB",24-03-2026 08:00:00,22.969611,72.643500,PM10,64,141,109
India,Gujarat,Vatva,"Phase-4 GIDC, Vatva - GPCB",24-03-2026 08:00:00,22.969611,72.643500,NO2,23,106,72
India,Gujarat,Vatva,"Phase-4 GIDC, Vatva - GPCB",24-03-2026 08:00:00,22.969611,72.643500,CO,12,32,14
India,Haryana,Ambala,"Patti Mehar, Ambala - HSPCB",24-03-2026 08:00:00,30.379589,76.778328,NO2,9,13,10
India,Haryana,Ballabgarh,"Nathu Colony, Ballabgarh - HSPCB",24-03-2026 08:00:00,28.3419248,77.319699,PM10,32,417,214
India,Haryana,Ballabgarh,"Nathu Colony, Ballabgarh - HSPCB",24-03-2026 08:00:00,28.3419248,77.319699,SO2,1,7,4
India,Jharkhand,Dhanbad,"Sardar Patel Nagar, Dhanbad - JSPCB",24-03-2026 08:00:00,23.80569,86.44268,SO2,NA,NA,NA
India,Karnataka,Bagalkot,"Vidayagiri, Bagalkot - KSPCB",24-03-2026 08:00:00,16.172806,75.659694,PM2.5,34,36,35
India,Karnataka,Bagalkot,"Vidayagiri, Bagalkot - KSPCB",24-03-2026 08:00:00,16.172806,75.659694,PM10,45,46,46
India,Karnataka,Bagalkot,"Vidayagiri, Bagalkot - KSPCB",24-03-2026 08:00:00,16.172806,75.659694,CO,8,74,19
India,Karnataka,Bengaluru,"Bapuji Nagar, Bengaluru - KSPCB",24-03-2026 08:00:00,12.951913,77.539784,NH3,3,4,4
India,Karnataka,Bengaluru,"Bapuji Nagar, Bengaluru - KSPCB",24-03-2026 08:00:00,12.951913,77.539784,OZONE,51,86,64
India,Karnataka,Bengaluru,"City Railway Station, Bengaluru - KSPCB",24-03-2026 08:00:00,12.9756843,77.5660749,CO,57,66,65
India,Karnataka,Bengaluru,"Hebbal, Bengaluru - KSPCB",24-03-2026 08:00:00,13.029152,77.585901,PM2.5,62,199,101
India,Karnataka,Bengaluru,"Hombegowda Nagar, Bengaluru - KSPCB",24-03-2026 08:00:00,12.938539,77.590100,PM2.5,60,228,130
India,Karnataka,Bengaluru,"Hombegowda Nagar, Bengaluru - KSPCB",24-03-2026 08:00:00,12.938539,77.590100,SO2,7,58,23
India,Karnataka,Bengaluru,"Jayanagar 5th Block, Bengaluru - KSPCB",24-03-2026 08:00:00,12.920984,77.584908,PM2.5,67,302,127
India,Karnataka,Bengaluru,"Jayanagar 5th Block, Bengaluru - KSPCB",24-03-2026 08:00:00,12.920984,77.584908,PM10,83,147,109
