country,state,city,station,last_update,latitude,longitude,pollutant_id,min_value,max_value,avg_value
India,Andhra_Pradesh,Chittoor,"Gangineni Cheruvu, Chittoor - APPCB",28-08-2025 07:00:00,13.204880,79.097889,SO2,21,22,21
India,Andhra_Pradesh,Kadapa,"Yerramukkapalli, Kadapa - APPCB",28-08-2025 07:00:00,14.465052,78.824187,PM2.5,NA,NA,NA
India,Andhra_Pradesh,Kadapa,"Yerramukkapalli, Kadapa - APPCB",28-08-2025 07:00:00,14.465052,78.824187,CO,NA,NA,NA
India,Andhra_Pradesh,Tirumala,"Toll Gate, Tirumala - APPCB",28-08-2025 07:00:00,13.67,79.35,PM2.5,6,31,16
India,Andhra_Pradesh,Tirumala,"Toll Gate, Tirumala - APPCB",28-08-2025 07:00:00,13.67,79.35,PM10,11,47,22
India,Andhra_Pradesh,Tirumala,"Toll Gate, Tirumala - APPCB",28-08-2025 07:00:00,13.67,79.35,OZONE,11,17,15
India,Andhra_Pradesh,Tirupati,"Vaikuntapuram, Tirupati - APPCB",28-08-2025 07:00:00,13.615387,79.409230,PM10,48,87,62
India,Andhra_Pradesh,Tirupati,"Vaikuntapuram, Tirupati - APPCB",28-08-2025 07:00:00,13.615387,79.409230,NO2,6,9,8
India,Andhra_Pradesh,Tirupati,"Vaikuntapuram, Tirupati - APPCB",28-08-2025 07:00:00,13.615387,79.409230,SO2,27,28,28
India,Andhra_Pradesh,Vijayawada,"HB Colony, Vijayawada - APPCB",28-08-2025 07:00:00,16.536107,80.594233,NO2,20,20,20
India,Andhra_Pradesh,Vijayawada,"HB Colony, Vijayawada - APPCB",28-08-2025 07:00:00,16.536107,80.594233,NH3,3,3,3
India,Andhra_Pradesh,Vijayawada,"HB Colony, Vijayawada - APPCB",28-08-2025 07:00:00,16.536107,80.594233,CO,49,50,49
India,Andhra_Pradesh,Vijayawada,"Rajiv Gandhi Park, Vijayawada - APPCB",28-08-2025 07:00:00,16.509717,80.612222,PM2.5,56,61,57
India,Andhra_Pradesh,Vijayawada,"Rajiv Gandhi Park, Vijayawada - APPCB",28-08-2025 07:00:00,16.509717,80.612222,SO2,22,23,22
India,Andhra_Pradesh,Vijayawada,"Rajiv Nagar, Vijayawada - APPCB",28-08-2025 07:00:00,16.554731,80.649110,PM10,62,75,69
India,Andhra_Pradesh,Vijayawada,"Rajiv Nagar, Vijayawada - APPCB",28-08-2025 07:00:00,16.554731,80.649110,NO2,19,23,20
India,Andhra_Pradesh,Vijayawada,"Rajiv Nagar, Vijayawada - APPCB",28-08-2025 07:00:00,16.554731,80.649110,NH3,3,3,3
India,Andhra_Pradesh,Vijayawada,"Rajiv Nagar, Vijayawada - APPCB",28-08-2025 07:00:00,16.554731,80.649110,CO,19,58,26
India,Andhra_Pradesh,Vijayawada,"Rajiv Nagar, Vijayawada - APPCB",28-08-2025 07:00:00,16.554731,80.649110,OZONE,16,36,23
India,Andhra_Pradesh,Visakhapatnam,"GVM Corporation, Visakhapatnam - APPCB",28-08-2025 07:00:00,17.72,83.3,NO2,26,71,46
India,Bihar,Begusarai,"Lohiyanagar, Begusarai - BSPCB",28-08-2025 07:00:00,25.42742023,86.13886079,CO,49,69,59
India,Bihar,Bettiah,"Kamalnath Nagar, Bettiah - BSPCB",28-08-2025 07:00:00,26.80365,84.51954,PM2.5,3,47,22
India,Bihar,Bettiah,"Kamalnath Nagar, Bettiah - BSPCB",28-08-2025 07:00:00,26.80365,84.51954,PM10,5,68,35
India,Bihar,Bhagalpur,"Mayaganj, Bhagalpur - BSPCB",28-08-2025 07:00:00,25.265194,87.012947,PM2.5,2,57,15
India,Bihar,Bhagalpur,"Mayaganj, Bhagalpur - BSPCB",28-08-2025 07:00:00,25.265194,87.012947,NO2,8,260,20
India,Bihar,Bhagalpur,"Mayaganj, Bhagalpur - BSPCB",28-08-2025 07:00:00,25.265194,87.012947,CO,42,80,48
India,Bihar,Bihar Sharif,"D M Colony, Bihar Sharif - BSPCB",28-08-2025 07:00:00,25.204762,85.514960,PM2.5,78,99,89
India,Assam,Sivasagar,"Girls College, Sivasagar - PCBA",28-08-2025 07:00:00,26.987634,94.636574,OZONE,1,5,1
India,Bihar,Araria,"Kharahiya Basti, Araria - BSPCB",28-08-2025 07:00:00,26.146529,87.454184,NH3,5,5,5
India,Bihar,Araria,"Kharahiya Basti, Araria - BSPCB",28-08-2025 07:00:00,26.146529,87.454184,SO2,1,24,13
India,Bihar,Arrah,"New DM Office, Arrah - BSPCB",28-08-2025 07:00:00,25.5626095,84.663264,SO2,NA,NA,NA
India,Bihar,Arrah,"New DM Office, Arrah - BSPCB",28-08-2025 07:00:00,25.5626095,84.663264,OZONE,5,9,8
India,Bihar,Begusarai,"Lohiyanagar, Begusarai - BSPCB",28-08-2025 07:00:00,25.42742023,86.13886079,PM2.5,32,69,46
India,Bihar,Bihar Sharif,"D M Colony, Bihar Sharif - BSPCB",28-08-2025 07:00:00,25.204762,85.514960,NH3,2,2,2
India,Bihar,Bihar Sharif,"D M Colony, Bihar Sharif - BSPCB",28-08-2025 07:00:00,25.204762,85.514960,OZONE,1,56,35
India,Bihar,Buxar,"Charitra Van, Buxar - BSPCB",28-08-2025 07:00:00,25.567520,83.966379,OZONE,1,173,3
India,Bihar,Chhapra,"Darshan Nagar, Chhapra - BSPCB",28-08-2025 07:00:00,25.7808257,84.7446768,PM10,42,68,60
India,Bihar,Gaya,"SFTI Kusdihra, Gaya - BSPCB",28-08-2025 07:00:00,24.762518,84.982348,PM10,15,50,29
India,Arunachal_Pradesh,Naharlagun,"Naharlagun, Naharlagun - APSPCB",28-08-2025 07:00:00,27.103358,93.679645,SO2,7,8,7
India,Assam,Byrnihat,"Central Academy for SFS, Byrnihat - PCBA",28-08-2025 07:00:00,26.071318,91.87488,PM10,NA,NA,NA
India,Assam,Byrnihat,"Central Academy for SFS, Byrnihat - PCBA",28-08-2025 07:00:00,26.071318,91.87488,CO,NA,NA,NA
India,Assam,Guwahati,"IITG, Guwahati - PCBA",28-08-2025 07:00:00,26.2028636,91.70046436,PM10,11,51,26
India,Assam,Guwahati,"IITG, Guwahati - PCBA",28-08-2025 07:00:00,26.2028636,91.70046436,OZONE,1,12,4
India,Bihar,Gaya,"SFTI Kusdihra, Gaya - BSPCB",28-08-2025 07:00:00,24.762518,84.982348,NO2,17,19,18
India,Bihar,Gaya,"SFTI Kusdihra, Gaya - BSPCB",28-08-2025 07:00:00,24.762518,84.982348,CO,16,42,20
India,Bihar,Kishanganj,"SDM Office_Khagra, Kishanganj - BSPCB",28-08-2025 07:00:00,26.0881305,87.93840336,NH3,3,3,3
India,Andhra_Pradesh,Anantapur,"Gulzarpet, Anantapur - APPCB",28-08-2025 07:00:00,14.675886,77.593027,PM2.5,43,50,46
India,Andhra_Pradesh,Anantapur,"Gulzarpet, Anantapur - APPCB",28-08-2025 07:00:00,14.675886,77.593027,PM10,39,45,41
India,Assam,Nagaon,"Christianpatty, Nagaon - PCBA",28-08-2025 07:00:00,26.349082,92.68449,SO2,6,14,11
India,Assam,Nagaon,"Christianpatty, Nagaon - PCBA",28-08-2025 07:00:00,26.349082,92.68449,CO,14,56,36
India,Bihar,Manguraha,"Forest Rest House, Manguraha - BSPCB",28-08-2025 07:00:00,27.308328,84.531742,PM2.5,2,32,11
India,Delhi,Delhi,"Alipur, Delhi - DPCC",28-08-2025 07:00:00,28.815329,77.153010,SO2,6,9,7
India,Delhi,Delhi,"Alipur, Delhi - DPCC",28-08-2025 07:00:00,28.815329,77.153010,OZONE,3,44,3
India,Delhi,Delhi,"Anand Vihar, Delhi - DPCC",28-08-2025 07:00:00,28.647622,77.3158090,NH3,3,8,5
India,Delhi,Delhi,"Anand Vihar, Delhi - DPCC",28-08-2025 07:00:00,28.647622,77.3158090,OZONE,4,20,9
India,Delhi,Delhi,"Ashok Vihar, Delhi - DPCC",28-08-2025 07:00:00,28.695381,77.181665,SO2,13,24,19
India,Delhi,Delhi,"Ashok Vihar, Delhi - DPCC",28-08-2025 07:00:00,28.695381,77.181665,CO,2,109,80
India,Delhi,Delhi,"Aya Nagar, Delhi - IMD",28-08-2025 07:00:00,28.4706914,77.1099364,PM2.5,2,79,42
India,Delhi,Delhi,"Aya Nagar, Delhi - IMD",28-08-2025 07:00:00,28.4706914,77.1099364,NO2,11,29,18
India,Delhi,Delhi,"Aya Nagar, Delhi - IMD",28-08-2025 07:00:00,28.4706914,77.1099364,CO,20,77,61
India,Delhi,Delhi,"Aya Nagar, Delhi - IMD",28-08-2025 07:00:00,28.4706914,77.1099364,OZONE,4,34,6
India,Delhi,Delhi,"Bawana, Delhi - DPCC",28-08-2025 07:00:00,28.776200,77.051074,NH3,4,8,5
India,Bihar,Patna,"Samanpura, Patna - BSPCB",28-08-2025 07:00:00,25.596727,85.085624,PM2.5,53,184,91
India,Bihar,Patna,"Samanpura, Patna - BSPCB",28-08-2025 07:00:00,25.596727,85.085624,NO2,33,49,45
India,Bihar,Purnia,"Mariam Nagar, Purnia - BSPCB",28-08-2025 07:00:00,25.366336,87.117468,PM2.5,17,53,31
India,Bihar,Purnia,"Mariam Nagar, Purnia - BSPCB",28-08-2025 07:00:00,25.366336,87.117468,SO2,NA,NA,NA
India,Bihar,Rajgir,"Dangi Tola, Rajgir - BSPCB",28-08-2025 07:00:00,25.03280,85.41948,SO2,17,26,21
India,Bihar,Rajgir,"Dangi Tola, Rajgir - BSPCB",28-08-2025 07:00:00,25.03280,85.41948,CO,70,102,84
India,Bihar,Saharsa,"Police Line, Saharsa - BSPCB",28-08-2025 07:00:00,25.892357,86.590325,NH3,4,4,4
India,Chandigarh,Chandigarh,"Sector-25, Chandigarh - CPCC",28-08-2025 07:00:00,30.751462,76.762879,SO2,1,18,7
India,Chandigarh,Chandigarh,"Sector-53, Chandigarh - CPCC",28-08-2025 07:00:00,30.719859,76.738637,PM10,12,59,29
India,Chandigarh,Chandigarh,"Sector-53, Chandigarh - CPCC",28-08-2025 07:00:00,30.719859,76.738637,NH3,1,12,4
India,Chandigarh,Chandigarh,"Sector-53, Chandigarh - CPCC",28-08-2025 07:00:00,30.719859,76.738637,SO2,8,14,12
India,Chandigarh,Chandigarh,"Sector-53, Chandigarh - CPCC",28-08-2025 07:00:00,30.719859,76.738637,CO,17,103,44
India,Chhattisgarh,Bhilai,"32Bungalows, Bhilai - CECB",28-08-2025 07:00:00,21.194815,81.314770,SO2,5,8,6
India,Chhattisgarh,Bhilai,"32Bungalows, Bhilai - CECB",28-08-2025 07:00:00,21.194815,81.314770,OZONE,13,42,22
India,Chhattisgarh,Raipur,"Bhatagaon New ISBT, Raipur - CECB",28-08-2025 07:00:00,21.219665,81.630094,PM10,1,93,39
India,Chhattisgarh,Raipur,"Bhatagaon New ISBT, Raipur - CECB",28-08-2025 07:00:00,21.219665,81.630094,CO,13,94,30
India,Chhattisgarh,Raipur,"Krishak Nagar, Raipur - CECB",28-08-2025 07:00:00,21.237755,81.705301,NH3,2,2,2
India,Chhattisgarh,Tumidih,"OP Jindal Industrial Park, Tumidih - CECB",28-08-2025 07:00:00,22.06631475,83.33820077,SO2,5,15,7
India,Delhi,Delhi,"Alipur, Delhi - DPCC",28-08-2025 07:00:00,28.815329,77.153010,PM2.5,28,123,61
India,Bihar,Munger,"Town Hall, Munger - BSPCB",28-08-2025 07:00:00,25.376776,86.471523,NO2,4,5,5
India,Bihar,Munger,"Town Hall, Munger - BSPCB",28-08-2025 07:00:00,25.376776,86.471523,OZONE,10,12,10
India,Bihar,Muzaffarpur,"Buddha Colony, Muzaffarpur - BSPCB",28-08-2025 07:00:00,26.11442,85.39813,NO2,6,13,9
India,Bihar,Muzaffarpur,"Buddha Colony, Muzaffarpur - BSPCB",28-08-2025 07:00:00,26.11442,85.39813,NH3,4,7,5
India,Bihar,Muzaffarpur,"Buddha Colony, Muzaffarpur - BSPCB",28-08-2025 07:00:00,26.11442,85.39813,CO,16,36,22
India,Bihar,Muzaffarpur,"Muzaffarpur Collectorate, Muzaffarpur - BSPCB",28-08-2025 07:00:00,26.1209,85.3647,PM2.5,39,60,46
India,Chhattisgarh,Bhilai,"Hathkhoj, Bhilai - CECB",28-08-2025 07:00:00,21.224231,81.408350,NO2,8,34,18
India,Chhattisgarh,Bilaspur,"Mangala, Bilaspur - NTPC",28-08-2025 07:00:00,22.08815,82.13737,SO2,2,16,13
India,Chhattisgarh,Korba,"Rampur, Korba - CECB",28-08-2025 07:00:00,22.368195,82.746431,PM2.5,16,25,17
India,Chhattisgarh,Korba,"Rampur, Korba - CECB",28-08-2025 07:00:00,22.368195,82.746431,SO2,5,35,10
India,Chhattisgarh,Korba,"Rampur, Korba - CECB",28-08-2025 07:00:00,22.368195,82.746431,CO,5,16,13
India,Bihar,Samastipur,"DM Office_Kasipur, Samastipur - BSPCB",28-08-2025 07:00:00,25.859655,85.77944,NH3,2,2,2
India,Bihar,Sasaram,"Dada Peer, Sasaram - BSPCB",28-08-2025 07:00:00,24.952822,84.002396,NO2,2,7,3
India,Bihar,Sasaram,"Dada Peer, Sasaram - BSPCB",28-08-2025 07:00:00,24.952822,84.002396,CO,45,82,54
India,Bihar,Siwan,"Chitragupta Nagar, Siwan - BSPCB",28-08-2025 07:00:00,26.2271665,84.3570427,OZONE,8,11,8
India,Chhattisgarh,Kunjemura,"OP Jindal School, Kunjemura - CECB",28-08-2025 07:00:00,22.126650,83.483212,PM2.5,3,25,10
India,Chhattisgarh,Milupara,"Govt. Higher Secondary School, Milupara - CECB",28-08-2025 07:00:00,22.1910172,83.5197009,PM10,NA,NA,NA
India,Chhattisgarh,Milupara,"Govt. Higher Secondary School, Milupara - CECB",28-08-2025 07:00:00,22.1910172,83.5197009,CO,5,40,6
India,Chhattisgarh,Milupara,"Govt. Higher Secondary School, Milupara - CECB",28-08-2025 07:00:00,22.1910172,83.5197009,OZONE,24,34,29
India,Bihar,Patna,"DRM Office Danapur, Patna - BSPCB",28-08-2025 07:00:00,25.586562,85.043586,NH3,2,3,3
India,Bihar,Patna,"Muradpur, Patna - BSPCB",28-08-2025 07:00:00,25.619651,85.147382,CO,34,66,48
India,Delhi,Delhi,"Vivek Vihar, Delhi - DPCC",28-08-2025 07:00:00,28.672342,77.315260,NO2,20,46,34
India,Delhi,Delhi,"Vivek Vihar, Delhi - DPCC",28-08-2025 07:00:00,28.672342,77.315260,NH3,2,30,7
India,Delhi,Delhi,"Vivek Vihar, Delhi - DPCC",28-08-2025 07:00:00,28.672342,77.315260,CO,26,103,70
India,Delhi,Delhi,"Wazirpur, Delhi - DPCC",28-08-2025 07:00:00,28.699793,77.165453,SO2,7,13,10
India,Delhi,Delhi,"Wazirpur, Delhi - DPCC",28-08-2025 07:00:00,28.699793,77.165453,OZONE,3,16,12
India,Gujarat,Ahmedabad,"Chandkheda, Ahmedabad - IITM",28-08-2025 07:00:00,23.107969,72.574648,NH3,1,3,2
India,Gujarat,Ahmedabad,"Chandkheda, Ahmedabad - IITM",28-08-2025 07:00:00,23.107969,72.574648,SO2,7,15,11
India,Gujarat,Ahmedabad,"Chandkheda, Ahmedabad - IITM",28-08-2025 07:00:00,23.107969,72.574648,OZONE,1,26,5
India,Gujarat,Ahmedabad,"Gyaspur, Ahmedabad - IITM",28-08-2025 07:00:00,22.977134,72.553024,PM10,45,133,71
India,Gujarat,Ahmedabad,"Gyaspur, Ahmedabad - IITM",28-08-2025 07:00:00,22.977134,72.553024,NO2,36,47,41
India,Gujarat,Ahmedabad,"Gyaspur, Ahmedabad - IITM",28-08-2025 07:00:00,22.977134,72.553024,SO2,6,11,8
India,Delhi,Delhi,"Bawana, Delhi - DPCC",28-08-2025 07:00:00,28.776200,77.051074,OZONE,3,28,13
India,Delhi,Delhi,"Burari Crossing, Delhi - IMD",28-08-2025 07:00:00,28.7256504,77.2011573,NO2,1,26,20
India,Delhi,Delhi,"CRRI Mathura Road, Delhi - IMD",28-08-2025 07:00:00,28.5512005,77.2735737,OZONE,8,28,14
India,Delhi,Delhi,"Chandni Chowk, Delhi - IITM",28-08-2025 07:00:00,28.656756,77.227234,NH3,8,72,22
India,Delhi,Delhi,"DTU, Delhi - CPCB",28-08-2025 07:00:00,28.7500499,77.1112615,PM10,26,166,88
India,Delhi,Delhi,"DTU, Delhi - CPCB",28-08-2025 07:00:00,28.7500499,77.1112615,NH3,14,14,14
India,Delhi,Delhi,"Shadipur, Delhi - CPCB",28-08-2025 07:00:00,28.6514781,77.1473105,PM2.5,43,205,104
India,Delhi,Delhi,"Shadipur, Delhi - CPCB",28-08-2025 07:00:00,28.6514781,77.1473105,NH3,7,11,9
India,Delhi,Delhi,"Sonia Vihar, Delhi - DPCC",28-08-2025 07:00:00,28.710508,77.249485,PM2.5,3,395,132
India,Delhi,Delhi,"Sonia Vihar, Delhi - DPCC",28-08-2025 07:00:00,28.710508,77.249485,NO2,64,156,94
India,Delhi,Delhi,"Sonia Vihar, Delhi - DPCC",28-08-2025 07:00:00,28.710508,77.249485,SO2,10,18,14
India,Delhi,Delhi,"Sri Aurobindo Marg, Delhi - DPCC",28-08-2025 07:00:00,28.531346,77.190156,NO2,3,38,18
India,Delhi,Delhi,"Dr. Karni Singh Shooting Range, Delhi - DPCC",28-08-2025 07:00:00,28.498571,77.264840,PM10,7,123,64
India,Delhi,Delhi,"Dr. Karni Singh Shooting Range, Delhi - DPCC",28-08-2025 07:00:00,28.498571,77.264840,NO2,25,64,40
India,Delhi,Delhi,"Dwarka-Sector 8, Delhi - DPCC ",28-08-2025 07:00:00,28.5710274,77.0719006,NO2,30,87,58
India,Delhi,Delhi,"IGI Airport (T3), Delhi - IMD",28-08-2025 07:00:00,28.5627763,77.1180053,NO2,39,116,77
India,Delhi,Delhi,"North Campus, DU, Delhi - IMD",28-08-2025 07:00:00,28.6573814,77.1585447,OZONE,1,51,2
India,Delhi,Delhi,"Okhla Phase-2, Delhi - DPCC",28-08-2025 07:00:00,28.530785,77.271255,NO2,24,59,36
India,Delhi,Delhi,"Patparganj, Delhi - DPCC",28-08-2025 07:00:00,28.623763,77.287209,PM2.5,10,177,75
India,Delhi,Delhi,"Patparganj, Delhi - DPCC",28-08-2025 07:00:00,28.623763,77.287209,PM10,25,170,99
India,Delhi,Delhi,"Narela, Delhi - DPCC",28-08-2025 07:00:00,28.822836,77.101981,PM10,31,151,98
India,Delhi,Delhi,"Nehru Nagar, Delhi - DPCC",28-08-2025 07:00:00,28.567890,77.250515,PM2.5,10,253,99
India,Delhi,Delhi,"Nehru Nagar, Delhi - DPCC",28-08-2025 07:00:00,28.567890,77.250515,NO2,20,44,31
India,Delhi,Delhi,"Nehru Nagar, Delhi - DPCC",28-08-2025 07:00:00,28.567890,77.250515,SO2,1,30,14
India,Delhi,Delhi,"Jahangirpuri, Delhi - DPCC",28-08-2025 07:00:00,28.732820,77.170633,SO2,4,18,9
India,Delhi,Delhi,"Jawaharlal Nehru Stadium, Delhi - DPCC",28-08-2025 07:00:00,28.580280,77.233829,NO2,NA,NA,NA
India,Delhi,Delhi,"Lodhi Road, Delhi - IITM",28-08-2025 07:00:00,28.588333,77.221667,PM2.5,17,60,34
India,Delhi,Delhi,"Mundka, Delhi - DPCC",28-08-2025 07:00:00,28.684678,77.076574,CO,3,98,75
India,Delhi,Delhi,"NSIT Dwarka, Delhi - CPCB",28-08-2025 07:00:00,28.60909,77.0325413,SO2,2,27,12
India,Delhi,Delhi,"Najafgarh, Delhi - DPCC",28-08-2025 07:00:00,28.570173,76.933762,SO2,5,9,8
India,Delhi,Delhi,"Pusa, Delhi - IMD",28-08-2025 07:00:00,28.636110,77.173332,PM10,13,115,67
India,Himachal Pradesh,Baddi,"HIMUDA Complex Phase-1, Baddi - HPPCB",28-08-2025 07:00:00,30.943887,76.801991,SO2,18,121,55
India,Jharkhand,Dhanbad,"Sardar Patel Nagar, Dhanbad - JSPCB",28-08-2025 07:00:00,23.80569,86.44268,OZONE,1,50,2
India,Karnataka,Bagalkot,"Vidayagiri, Bagalkot - KSPCB",28-08-2025 07:00:00,16.172806,75.659694,PM2.5,33,34,34
India,Karnataka,Bagalkot,"Vidayagiri, Bagalkot - KSPCB",28-08-2025 07:00:00,16.172806,75.659694,NO2,9,10,9
India,Karnataka,Bagalkot,"Vidayagiri, Bagalkot - KSPCB",28-08-2025 07:00:00,16.172806,75.659694,SO2,7,7,7
India,Karnataka,Belgaum,"Ramteerth Nagar, Belgaum - KSPCB",28-08-2025 07:00:00,15.888653,74.541751,PM10,NA,NA,NA
India,Karnataka,Belgaum,"Ramteerth Nagar, Belgaum - KSPCB",28-08-2025 07:00:00,15.888653,74.541751,CO,17,22,20
India,Karnataka,Belgaum,"Ramteerth Nagar, Belgaum - KSPCB",28-08-2025 07:00:00,15.888653,74.541751,OZONE,18,19,19
India,Karnataka,Bengaluru,"BTM Layout, Bengaluru - CPCB",28-08-2025 07:00:00,12.9135218,77.5950804,NO2,23,24,23
India,Gujarat,Surat,"Science Center, Surat - SMC",28-08-2025 07:00:00,21.170046,72.795405,SO2,14,19,16
India,Gujarat,Vapi,"Phase-1 GIDC, Vapi - GPCB",28-08-2025 07:00:00,20.362421,72.918013,NH3,NA,NA,NA
India,Gujarat,Vatva,"Phase-4 GIDC, Vatva - GPCB",28-08-2025 07:00:00,22.969611,72.643500,NO2,17,18,17
India,Gujarat,Vatva,"Phase-4 GIDC, Vatva - GPCB",28-08-2025 07:00:00,22.969611,72.643500,NH3,4,4,4
India,Haryana,Panchgaon,"Amity University, Panchgaon - IITM",28-08-2025 07:00:00,28.3153,76.9143,NO2,3,17,10
India,Haryana,Panchgaon,"Amity University, Panchgaon - IITM",28-08-2025 07:00:00,28.3153,76.9143,NH3,4,5,4
India,Himachal Pradesh,Baddi,"HIMUDA Complex Phase-1, Baddi - HPPCB",28-08-2025 07:00:00,30.943887,76.801991,PM2.5,25,77,42
India,Karnataka,Bengaluru,"Jayanagar 5th Block, Bengaluru - KSPCB",28-08-2025 07:00:00,12.920984,77.584908,NH3,1,1,1
India,Karnataka,Bengaluru,"Jigani, Bengaluru - KSPCB",28-08-2025 07:00:00,12.7816279,77.6299145,NH3,5,6,6
India,Karnataka,Bengaluru,"Sanegurava Halli, Bengaluru - KSPCB",28-08-2025 07:00:00,12.990328,77.5431385,PM10,39,41,39
India,Karnataka,Bengaluru,"Sanegurava Halli, Bengaluru - KSPCB",28-08-2025 07:00:00,12.990328,77.5431385,CO,20,31,24
India,Karnataka,Bengaluru,"Shivapura_Peenya, Bengaluru - KSPCB",28-08-2025 07:00:00,13.0246342,77.5080115,PM2.5,39,73,56
India,Karnataka,Bengaluru,"Shivapura_Peenya, Bengaluru - KSPCB",28-08-2025 07:00:00,13.0246342,77.5080115,NO2,24,25,25
India,Karnataka,Bengaluru,"Bapuji Nagar, Bengaluru - KSPCB",28-08-2025 07:00:00,12.951913,77.539784,PM2.5,5,20,13
India,Karnataka,Bengaluru,"Bapuji Nagar, Bengaluru - KSPCB",28-08-2025 07:00:00,12.951913,77.539784,OZONE,1,27,5
India,Karnataka,Bengaluru,"Hebbal, Bengaluru - KSPCB",28-08-2025 07:00:00,13.029152,77.585901,PM10,6,26,15
India,Karnataka,Bengaluru,"Hebbal, Bengaluru - KSPCB",28-08-2025 07:00:00,13.029152,77.585901,SO2,5,12,8
India,Karnataka,Bengaluru,"Hombegowda Nagar, Bengaluru - KSPCB",28-08-2025 07:00:00,12.938539,77.590100,PM2.5,3,18,9
India,Karnataka,Bengaluru,"Hombegowda Nagar, Bengaluru - KSPCB",28-08-2025 07:00:00,12.938539,77.590100,PM10,15,36,23
India,Karnataka,Bengaluru,"Hombegowda Nagar, Bengaluru - KSPCB",28-08-2025 07:00:00,12.938539,77.590100,NO2,5,16,9
India,Gujarat,Ahmedabad,"Maninagar, Ahmedabad - GPCB",28-08-2025 07:00:00,23.002657,72.591912,SO2,15,28,23
India,Gujarat,Ahmedabad,"Raikhad, Ahmedabad - IITM",28-08-2025 07:00:00,23.020509,72.579261,NO2,5,19,9
India,Gujarat,Ahmedabad,"Rakhial, Ahmedabad - IITM",28-08-2025 07:00:00,23.016834,72.625775,PM10,50,129,77
India,Gujarat,Ahmedabad,"SAC ISRO Bopal, Ahmedabad - IITM",28-08-2025 07:00:00,23.041137,72.456691,PM2.5,31,291,74
India,Gujarat,Ahmedabad,"SAC ISRO Bopal, Ahmedabad - IITM",28-08-2025 07:00:00,23.041137,72.456691,CO,6,58,38
India,Gujarat,Ahmedabad,"SAC ISRO Bopal, Ahmedabad - IITM",28-08-2025 07:00:00,23.041137,72.456691,OZONE,1,42,9
India,Gujarat,Ahmedabad,"SAC ISRO Satellite, Ahmedabad - IITM",28-08-2025 07:00:00,23.023389,72.515201,CO,10,68,31
India,Gujarat,Ahmedabad,"SVPI Airport Hansol, Ahmedabad - IITM",28-08-2025 07:00:00,23.076793,72.627874,PM2.5,14,50,26
India,Gujarat,Gandhinagar,"GIFT City, Gandhinagar - IITM",28-08-2025 07:00:00,23.163798,72.677768,NO2,6,30,13
India,Gujarat,Gandhinagar,"IIPHG Lekawada, Gandhinagar - IITM",28-08-2025 07:00:00,23.243639,72.68994,PM2.5,36,55,45
India,Gujarat,Gandhinagar,"Sector-10, Gandhinagar - GPCB",28-08-2025 07:00:00,23.221714,72.654328,SO2,13,15,14
India,Karnataka,Bengaluru,"Silk Board, Bengaluru - KSPCB",28-08-2025 07:00:00,12.917348,77.622813,NO2,4,9,6
India,Karnataka,Chikkaballapur,"Chikkaballapur Rural, Chikkaballapur - KSPCB",28-08-2025 07:00:00,13.428828,77.731418,PM2.5,2,20,11
India,Gujarat,Ankleshwar,"GIDC, Ankleshwar - GPCB",28-08-2025 07:00:00,21.613267,73.010555,NO2,27,28,28
India,Karnataka,Dharwad,"Kalabhavan, Dharwad - KSPCB",28-08-2025 07:00:00,15.459706,75.008381,PM10,45,51,48
India,Karnataka,Dharwad,"Kalabhavan, Dharwad - KSPCB",28-08-2025 07:00:00,15.459706,75.008381,OZONE,13,20,17
India,Karnataka,Hubballi,"Lingaraj Nagar, Hubballi - KSPCB",28-08-2025 07:00:00,15.3714823,75.1160168,PM2.5,33,35,34
India,Karnataka,Hubballi,"Lingaraj Nagar, Hubballi - KSPCB",28-08-2025 07:00:00,15.3714823,75.1160168,NH3,1,1,1
India,Karnataka,Hubballi,"Lingaraj Nagar, Hubballi - KSPCB",28-08-2025 07:00:00,15.3714823,75.1160168,SO2,1,2,1
India,Karnataka,Hubballi,"Lingaraj Nagar, Hubballi - KSPCB",28-08-2025 07:00:00,15.3714823,75.1160168,CO,6,16,9
India,Karnataka,Kalaburagi,"Lal Bahadur Shastri Nagar, Kalaburagi - KSPCB",28-08-2025 07:00:00,17.321993,76.822628,OZONE,20,20,20
India,Karnataka,Kalaburagi,"Mahatma Basaveswar Colony, Kalaburgi - KSPCB",28-08-2025 07:00:00,17.336318,76.847397,PM10,18,40,31
India,Karnataka,Kalaburagi,"Mahatma Basaveswar Colony, Kalaburgi - KSPCB",28-08-2025 07:00:00,17.336318,76.847397,OZONE,9,14,9
India,Karnataka,Karwar,"KHB Colony, Karwar - KSPCB",28-08-2025 07:00:00,14.816666,74.141003,SO2,18,23,20
India,Karnataka,Koppal,"Diwator Nagar, Koppal - KSPCB",28-08-2025 07:00:00,15.347630,76.181767,PM10,NA,NA,NA
India,Karnataka,Koppal,"Diwator Nagar, Koppal - KSPCB",28-08-2025 07:00:00,15.347630,76.181767,CO,49,54,53
India,Karnataka,Koppal,"Diwator Nagar, Koppal - KSPCB",28-08-2025 07:00:00,15.347630,76.181767,OZONE,4,8,6
India,Karnataka,Madikeri,"Stuart Hill, Madikeri - KSPCB",28-08-2025 07:00:00,12.415911,75.735050,PM2.5,10,22,14
India,Karnataka,Mangalore,"Kadri, Mangalore - KSPCB",28-08-2025 07:00:00,12.889250,74.853000,NH3,2,3,3
India,Karnataka,Mangalore,"Kadri, Mangalore - KSPCB",28-08-2025 07:00:00,12.889250,74.853000,SO2,7,7,7
India,Karnataka,Mangalore,"Kadri, Mangalore - KSPCB",28-08-2025 07:00:00,12.889250,74.853000,OZONE,5,36,24
India,Karnataka,Mysuru,"Hebbal 1st Stage, Mysuru - KSPCB",28-08-2025 07:00:00,12.21041,76.37376,PM2.5,8,37,19
India,Karnataka,Mysuru,"Hebbal 1st Stage, Mysuru - KSPCB",28-08-2025 07:00:00,12.21041,76.37376,CO,3,22,6
India,Karnataka,Raichur,"Haji Colony, Raichur - KSPCB",28-08-2025 07:00:00,16.208139,77.348417,PM2.5,NA,NA,NA
India,Karnataka,Yadgir,"Collector Office, Yadgir - KSPCB",28-08-2025 07:00:00,16.7602,77.1428,NO2,25,38,33
India,Kerala,Eloor,"Udyogamandal, Eloor - Kerala PCB",28-08-2025 07:00:00,10.073232,76.302765,PM10,37,289,64
India,Kerala,Eloor,"Udyogamandal, Eloor - Kerala PCB",28-08-2025 07:00:00,10.073232,76.302765,NO2,7,8,7
India,Kerala,Kollam,"Polayathode, Kollam - Kerala PCB",28-08-2025 07:00:00,8.8787,76.6073,PM2.5,21,26,24
India,Kerala,Kollam,"Polayathode, Kollam - Kerala PCB",28-08-2025 07:00:00,8.8787,76.6073,NH3,1,1,1
India,Kerala,Kollam,"Polayathode, Kollam - Kerala PCB",28-08-2025 07:00:00,8.8787,76.6073,OZONE,29,34,29
India,Madhya Pradesh,Dewas,"Bhopal Chauraha, Dewas - MPPCB",28-08-2025 07:00:00,22.9682591,76.064118,NO2,38,54,46
India,Madhya Pradesh,Gwalior,"City Center, Gwalior - MPPCB",28-08-2025 07:00:00,26.203442,78.193251,PM2.5,10,75,38
India,Madhya Pradesh,Gwalior,"City Center, Gwalior - MPPCB",28-08-2025 07:00:00,26.203442,78.193251,NO2,7,8,7
India,Madhya Pradesh,Gwalior,"City Center, Gwalior - MPPCB",28-08-2025 07:00:00,26.203442,78.193251,SO2,16,23,20
India,Madhya Pradesh,Gwalior,"Deen Dayal Nagar, Gwalior - MPPCB",28-08-2025 07:00:00,26.259242,78.216432,SO2,13,14,14
India,Madhya Pradesh,Indore,"Regional Park, Indore - IMC",28-08-2025 07:00:00,22.6780,75.8559,PM2.5,7,23,15
India,Madhya Pradesh,Indore,"Regional Park, Indore - IMC",28-08-2025 07:00:00,22.6780,75.8559,PM10,8,37,21
India,Madhya Pradesh,Indore,"Regional Park, Indore - IMC",28-08-2025 07:00:00,22.6780,75.8559,NH3,1,1,1
India,Madhya Pradesh,Jabalpur,"Govindh Bhavan Colony, Jabalpur - JMC",28-08-2025 07:00:00,23.163174,79.973061,OZONE,6,56,15
India,Madhya Pradesh,Bhopal,"T T Nagar, Bhopal - MPPCB",28-08-2025 07:00:00,23.233584,77.400574,PM10,28,57,44
India,Madhya Pradesh,Damoh,"Shrivastav Colony, Damoh - MPPCB",28-08-2025 07:00:00,23.81748678,79.446246,PM10,19,127,41
India,Madhya Pradesh,Damoh,"Shrivastav Colony, Damoh - MPPCB",28-08-2025 07:00:00,23.81748678,79.446246,SO2,16,18,16
India,Kerala,Thiruvananthapuram,"Kariavattom, Thiruvananthapuram - Kerala PCB",28-08-2025 07:00:00,8.563700,76.886500,CO,27,85,40
India,Madhya Pradesh,Bhopal,"Idgah Hills, Bhopal - MPPCB",28-08-2025 07:00:00,23.264759,77.381568,PM2.5,17,27,21
India,Madhya Pradesh,Indore,"Chhoti Gwaltoli, Indore - MPPCB",28-08-2025 07:00:00,22.4310,75.5213,PM10,28,86,52
India,Madhya Pradesh,Indore,"Chhoti Gwaltoli, Indore - MPPCB",28-08-2025 07:00:00,22.4310,75.5213,NO2,43,73,60
India,Madhya Pradesh,Indore,"Maguda Nagar, Indore - IMC",28-08-2025 07:00:00,22.7524,75.8872,CO,16,53,23
India,Karnataka,Raichur,"Haji Colony, Raichur - KSPCB",28-08-2025 07:00:00,16.208139,77.348417,NH3,NA,NA,NA
India,Karnataka,Raichur,"Haji Colony, Raichur - KSPCB",28-08-2025 07:00:00,16.208139,77.348417,SO2,NA,NA,NA
India,Karnataka,Tumakuru,"Thimmalapura, Tumakuru - KSPCB",28-08-2025 07:00:00,13.377516,77.099072,NH3,NA,NA,NA
India,Madhya Pradesh,Pithampur,"Sector-2 Industrial Area, Pithampur - MPPCB",28-08-2025 07:00:00,22.624758,75.675238,NH3,3,4,3
India,Madhya Pradesh,Pithampur,"Sector-2 Industrial Area, Pithampur - MPPCB",28-08-2025 07:00:00,22.624758,75.675238,SO2,11,26,15
India,Madhya Pradesh,Ratlam,"Shasthri Nagar, Ratlam - IPCA Lab",28-08-2025 07:00:00,23.331731,75.045981,PM10,1,68,37
India,Madhya Pradesh,Sagar,"Civil Lines, Sagar - MPPCB",28-08-2025 07:00:00,23.838586,78.759431,NO2,NA,NA,NA
India,Madhya Pradesh,Sagar,"Civil Lines, Sagar - MPPCB",28-08-2025 07:00:00,23.838586,78.759431,SO2,NA,NA,NA
India,Madhya Pradesh,Sagar,"Civil Lines, Sagar - MPPCB",28-08-2025 07:00:00,23.838586,78.759431,CO,NA,NA,NA
India,Madhya Pradesh,Sagar,"Deen Dayal Nagar, Sagar - MPPCB",28-08-2025 07:00:00,23.8640158,78.80289321,CO,14,33,29
India,Madhya Pradesh,Satna,"Bandhavgar Colony, Satna - Birla Cement",28-08-2025 07:00:00,24.58434363,80.8549414,PM2.5,NA,NA,NA
India,Madhya Pradesh,Satna,"Bandhavgar Colony, Satna - Birla Cement",28-08-2025 07:00:00,24.58434363,80.8549414,NO2,74,148,99
India,Madhya Pradesh,Singrauli,"Suryakiran Bhawan NCL, Singrauli - MPPCB",28-08-2025 07:00:00,24.108970,82.645580,OZONE,11,35,16
India,Maharashtra,Akola,"Ramdaspeth, Akola - MPCB",28-08-2025 07:00:00,20.719516,77.000253,PM2.5,14,35,25
India,Maharashtra,Akola,"Ramdaspeth, Akola - MPCB",28-08-2025 07:00:00,20.719516,77.000253,NH3,6,7,7
India,Maharashtra,Akola,"Ramdaspeth, Akola - MPCB",28-08-2025 07:00:00,20.719516,77.000253,CO,11,22,13
India,Maharashtra,Amravati,"Shivneri Colony, Amravati - MPCB",28-08-2025 07:00:00,20.9402359,77.7895248,SO2,8,10,9
India,Maharashtra,Amravati,"Shivneri Colony, Amravati - MPCB",28-08-2025 07:00:00,20.9402359,77.7895248,OZONE,9,29,18
India,Maharashtra,Amravati,"Shri Shivaji Science College, Amravati - MPCB",28-08-2025 07:00:00,20.939198,77.765701,PM2.5,13,33,22
India,Maharashtra,Kolhapur,"Sinchan Bhavan, Kolhapur - MPCB",28-08-2025 07:00:00,16.7143745,74.2426398,NH3,5,7,5
India,Maharashtra,Mahad,"Kamble Tarf Birwadi, Mahad - MPCB",28-08-2025 07:00:00,18.1023399,73.4783687,PM2.5,8,30,16
India,Maharashtra,Mahad,"Kamble Tarf Birwadi, Mahad - MPCB",28-08-2025 07:00:00,18.1023399,73.4783687,PM10,13,26,18
India,Maharashtra,Malegaon,"Mahesh Nagar, Malegaon - MPCB",28-08-2025 07:00:00,20.555712,74.529236,PM10,36,74,54
India,Maharashtra,Malegaon,"Mahesh Nagar, Malegaon - MPCB",28-08-2025 07:00:00,20.555712,74.529236,NO2,5,24,10
India,Maharashtra,Chandrapur,"MIDC Khutala, Chandrapur - MPCB",28-08-2025 07:00:00,19.9775302,79.2337086,SO2,2,4,3
India,Maharashtra,Chandrapur,"MIDC Khutala, Chandrapur - MPCB",28-08-2025 07:00:00,19.9775302,79.2337086,OZONE,6,28,18
India,Maharashtra,Dhule,"Deopur, Dhule - MPCB",28-08-2025 07:00:00,20.918946,74.776388,PM2.5,13,56,32
India,Maharashtra,Dhule,"Deopur, Dhule - MPCB",28-08-2025 07:00:00,20.918946,74.776388,NH3,1,3,2
India,Maharashtra,Jalgaon,"Prabhat Colony, Jalgaon - MPCB",28-08-2025 07:00:00,21.001264,75.565602,PM2.5,12,35,25
India,Maharashtra,Mumbai,"Chembur, Mumbai - MPCB",28-08-2025 07:00:00,19.0364585,72.8954371,PM10,37,65,54
India,Maharashtra,Mumbai,"Colaba, Mumbai - MPCB",28-08-2025 07:00:00,18.910000,72.820000,PM10,12,30,20
India,Maharashtra,Mumbai,"Colaba, Mumbai - MPCB",28-08-2025 07:00:00,18.910000,72.820000,NH3,3,3,3
India,Maharashtra,Mumbai,"Deonar, Mumbai - IITM",28-08-2025 07:00:00,19.04946,72.9230,PM2.5,5,44,18
India,Maharashtra,Mumbai,"Deonar, Mumbai - IITM",28-08-2025 07:00:00,19.04946,72.9230,NO2,4,16,9
India,Maharashtra,Amravati,"Shri Shivaji Science College, Amravati - MPCB",28-08-2025 07:00:00,20.939198,77.765701,NH3,1,1,1
India,Maharashtra,Aurangabad,"More Chowk Waluj, Aurangabad - MPCB",28-08-2025 07:00:00,19.8389439,75.244448,SO2,5,13,8
India,Maharashtra,Aurangabad,"More Chowk Waluj, Aurangabad - MPCB",28-08-2025 07:00:00,19.8389439,75.244448,OZONE,8,24,11
India,Maharashtra,Aurangabad,"Rachnakar Colony, Aurangabad - MPCB",28-08-2025 07:00:00,19.863756,75.321188,SO2,8,25,13
India,Maharashtra,Mira-Bhayandar,"Bhayandar West, Mira-Bhayandar - MPCB",28-08-2025 07:00:00,19.296481,72.840923,PM2.5,14,32,21
India,Maharashtra,Mumbai,"Byculla, Mumbai - BMC",28-08-2025 07:00:00,18.9767,72.8380,PM10,26,46,37
India,Maharashtra,Mumbai,"Chakala-Andheri East, Mumbai - IITM",28-08-2025 07:00:00,19.11074,72.86084,PM10,39,75,59
India,Maharashtra,Bhiwandi,"Gokul Nagar, Bhiwandi - MPCB",28-08-2025 07:00:00,19.309073,73.057223,PM10,15,53,37
India,Maharashtra,Chandrapur,"Chauhan Colony, Chandrapur - MPCB",28-08-2025 07:00:00,19.962900,79.298714,PM10,7,79,31
India,Maharashtra,Chandrapur,"Chauhan Colony, Chandrapur - MPCB",28-08-2025 07:00:00,19.962900,79.298714,NO2,7,17,10
India,Maharashtra,Chandrapur,"Chauhan Colony, Chandrapur - MPCB",28-08-2025 07:00:00,19.962900,79.298714,OZONE,19,19,19
India,Madhya Pradesh,Jabalpur,"Suhagi, Jabalpur - JMC",28-08-2025 07:00:00,23.218135,79.957770,OZONE,10,47,24
India,Madhya Pradesh,Katni,"Gole Bazar, Katni - MPPCB",28-08-2025 07:00:00,23.50016,80.23284,OZONE,11,66,20
India,Maharashtra,Mumbai,"Khindipada-Bhandup West, Mumbai - IITM",28-08-2025 07:00:00,19.1653323,72.922099,PM10,16,46,30
India,Maharashtra,Mumbai,"Khindipada-Bhandup West, Mumbai - IITM",28-08-2025 07:00:00,19.1653323,72.922099,OZONE,7,32,11
India,Maharashtra,Mumbai,"Kurla, Mumbai - MPCB",28-08-2025 07:00:00,19.0863,72.8888,PM2.5,48,74,56
India,Maharashtra,Mumbai,"Kurla, Mumbai - MPCB",28-08-2025 07:00:00,19.0863,72.8888,NH3,1,1,1
India,Maharashtra,Mumbai,"Malad West, Mumbai - IITM",28-08-2025 07:00:00,19.19709,72.82204,PM10,29,54,42
India,Maharashtra,Mumbai,"Malad West, Mumbai - IITM",28-08-2025 07:00:00,19.19709,72.82204,NH3,2,3,3
India,Maharashtra,Mumbai,"Mazgaon, Mumbai - IITM",28-08-2025 07:00:00,18.96702,72.84214,PM2.5,NA,NA,NA
India,Maharashtra,Mumbai,"Mazgaon, Mumbai - IITM",28-08-2025 07:00:00,18.96702,72.84214,NH3,NA,NA,NA
India,Maharashtra,Mumbai,"Deonar, Mumbai - IITM",28-08-2025 07:00:00,19.04946,72.9230,CO,1,16,7
India,Maharashtra,Mumbai,"Ghatkopar, Mumbai - BMC",28-08-2025 07:00:00,19.083694,72.920967,PM2.5,14,25,18
India,Maharashtra,Mumbai,"Ghatkopar, Mumbai - BMC",28-08-2025 07:00:00,19.083694,72.920967,CO,11,30,17
India,Maharashtra,Mumbai,"Kandivali East, Mumbai - MPCB",28-08-2025 07:00:00,19.205800,72.868200,CO,NA,NA,NA
India,Maharashtra,Mumbai,"Kandivali West, Mumbai - BMC",28-08-2025 07:00:00,19.215859,72.831718,PM2.5,7,20,13
India,Maharashtra,Mumbai,"Kherwadi_Bandra East, Mumbai - MPCB",28-08-2025 07:00:00,19.0632143,72.8456324,NH3,NA,NA,NA
India,Maharashtra,Mumbai,"Kherwadi_Bandra East, Mumbai - MPCB",28-08-2025 07:00:00,19.0632143,72.8456324,SO2,NA,NA,NA
India,Maharashtra,Nanded,"Sneh Nagar, Nanded - MPCB",28-08-2025 07:00:00,19.173852,77.296291,NH3,3,5,4
India,Maharashtra,Nashik,"Gangapur Road, Nashik - MPCB",28-08-2025 07:00:00,20.0073285,73.7762427,PM2.5,12,35,23
India,Maharashtra,Nashik,"Hirawadi, Nashik - MPCB",28-08-2025 07:00:00,20.021503,73.813844,NO2,1,5,3
India,Maharashtra,Nashik,"Hirawadi, Nashik - MPCB",28-08-2025 07:00:00,20.021503,73.813844,SO2,1,55,6
India,Maharashtra,Nashik,"MIDC Ambad, Nashik - MPCB",28-08-2025 07:00:00,19.950220,73.731480,NO2,5,12,7
India,Maharashtra,Nashik,"MIDC Ambad, Nashik - MPCB",28-08-2025 07:00:00,19.950220,73.731480,NH3,1,3,2
India,Maharashtra,Mumbai,"Mulund West, Mumbai - MPCB",28-08-2025 07:00:00,19.1750,72.9419,PM10,NA,NA,NA
India,Maharashtra,Mumbai,"Mulund West, Mumbai - MPCB",28-08-2025 07:00:00,19.1750,72.9419,NO2,11,12,12
India,Maharashtra,Mumbai,"Navy Nagar-Colaba, Mumbai - IITM",28-08-2025 07:00:00,18.897756,72.813320,CO,28,44,30
India,Maharashtra,Mumbai,"Powai, Mumbai - MPCB",28-08-2025 07:00:00,19.137500,72.915056,NO2,7,8,7
India,Maharashtra,Mumbai,"Powai, Mumbai - MPCB",28-08-2025 07:00:00,19.137500,72.915056,SO2,15,15,15
India,Maharashtra,Mumbai,"Powai, Mumbai - MPCB",28-08-2025 07:00:00,19.137500,72.915056,CO,22,22,22
India,Maharashtra,Mumbai,"Siddharth Nagar-Worli, Mumbai - IITM",28-08-2025 07:00:00,19.000083,72.813993,NO2,17,24,20
India,Maharashtra,Mumbai,"Sion, Mumbai - MPCB",28-08-2025 07:00:00,19.047000,72.874600,PM10,19,32,24
India,Maharashtra,Mumbai,"Vile Parle West, Mumbai - MPCB",28-08-2025 07:00:00,19.10861,72.83622,SO2,4,53,15
India,Maharashtra,Mumbai,"Vile Parle West, Mumbai - MPCB",28-08-2025 07:00:00,19.10861,72.83622,OZONE,2,24,2
India,Maharashtra,Nashik,"Pandav Nagari, Nashik - MPCB",28-08-2025 07:00:00,19.9591346,73.7788008,NH3,2,5,3
India,Maharashtra,Navi Mumbai,"Kopripada-Vashi, Navi Mumbai - MPCB",28-08-2025 07:00:00,19.090337,73.014232,NO2,8,10,9
India,Maharashtra,Navi Mumbai,"Mahape, Navi Mumbai - MPCB",28-08-2025 07:00:00,19.1135051,73.008978,NO2,34,36,35
India,Maharashtra,Mumbai,"Worli, Mumbai - MPCB",28-08-2025 07:00:00,18.9936162,72.8128113,SO2,18,21,20
India,Maharashtra,Nagpur,"Opp GPO Civil Lines, Nagpur - MPCB",28-08-2025 07:00:00,21.152875,79.0517531,PM10,13,43,25
India,Maharashtra,Nagpur,"Opp GPO Civil Lines, Nagpur - MPCB",28-08-2025 07:00:00,21.152875,79.0517531,NO2,6,25,11
India,Maharashtra,Nagpur,"Opp GPO Civil Lines, Nagpur - MPCB",28-08-2025 07:00:00,21.152875,79.0517531,OZONE,2,13,4
India,Maharashtra,Nagpur,"Ram Nagar, Nagpur - MPCB",28-08-2025 07:00:00,21.143383,79.048912,NO2,4,12,8
India,Maharashtra,Mumbai,"Sewri, Mumbai - BMC",28-08-2025 07:00:00,19.000084,72.856730,SO2,NA,NA,NA
India,Odisha,Bhubaneswar,"Lingraj Mandir, Bhubaneswar - OSPCB",28-08-2025 07:00:00,20.240790,85.836784,PM2.5,5,73,20
India,Odisha,Bhubaneswar,"Lingraj Mandir, Bhubaneswar - OSPCB",28-08-2025 07:00:00,20.240790,85.836784,OZONE,3,39,17
India,Odisha,Bhubaneswar,"Patia, Bhubaneswar - OSPCB",28-08-2025 07:00:00,20.34652,85.81630,PM10,6,35,19
India,Odisha,Bhubaneswar,"Patia, Bhubaneswar - OSPCB",28-08-2025 07:00:00,20.34652,85.81630,SO2,2,4,3
India,Odisha,Bileipada,"Tata Township, Bileipada - OSPCB",28-08-2025 07:00:00,22.06156703,85.47409613,NO2,6,7,6
India,Odisha,Brajrajnagar,"GM Office, Brajrajnagar - OSPCB",28-08-2025 07:00:00,21.8004996,83.8396977,OZONE,24,25,25
India,Odisha,Byasanagar,"Ferro Chrome Colony, Byasanagar - OSPCB",28-08-2025 07:00:00,20.94185,86.11510,PM2.5,2,15,7
India,Odisha,Byasanagar,"Ferro Chrome Colony, Byasanagar - OSPCB",28-08-2025 07:00:00,20.94185,86.11510,PM10,4,27,13
India,Maharashtra,Pune,"Mhada Colony, Pune - IITM",28-08-2025 07:00:00,18.573040,73.927715,PM10,37,68,52
India,Maharashtra,Pune,"Mhada Colony, Pune - IITM",28-08-2025 07:00:00,18.573040,73.927715,CO,52,102,65
India,Maharashtra,Pune,"Mhada Colony, Pune - IITM",28-08-2025 07:00:00,18.573040,73.927715,OZONE,5,18,10
India,Maharashtra,Pune,"Panchawati_Pashan, Pune - IITM",28-08-2025 07:00:00,18.536457,73.805454,NO2,14,34,20
India,Maharashtra,Pune,"Transport Nagar-Nigdi, Pune - IITM",28-08-2025 07:00:00,18.664282,73.763966,CO,37,99,57
India,Maharashtra,Sangli,"Vijay Nagar, Sangli - MPCB",28-08-2025 07:00:00, 16.5038,74.3623,NO2,2,11,5
India,Maharashtra,Solapur,"Dnyaneshwar Nagar, Solapur - MPCB",28-08-2025 07:00:00,17.6336264,75.9132495,NH3,NA,NA,NA
India,Maharashtra,Solapur,"Dnyaneshwar Nagar, Solapur - MPCB",28-08-2025 07:00:00,17.6336264,75.9132495,CO,10,28,12
India,Maharashtra,Solapur,"Ratandeep Housing Society, Solapur - MPCB",28-08-2025 07:00:00,17.65439,75.90649,OZONE,6,29,7
India,Maharashtra,Thane,"Kasarvadavali, Thane - MPCB",28-08-2025 07:00:00,19.26777,72.97182,PM2.5,6,24,15
India,Maharashtra,Thane,"Kasarvadavali, Thane - MPCB",28-08-2025 07:00:00,19.26777,72.97182,OZONE,6,6,6
India,Maharashtra,Thane,"Upvan Fort, Thane - MPCB",28-08-2025 07:00:00,19.222279,72.957979,PM10,36,62,45
India,Maharashtra,Thane,"Upvan Fort, Thane - MPCB",28-08-2025 07:00:00,19.222279,72.957979,NO2,1,14,3
India,Maharashtra,Pimpri-Chinchwad,"Thergaon, Pimpri Chinchwad - MPCB",28-08-2025 07:00:00,18.616318,73.765797,CO,9,39,17
India,Maharashtra,Pune,"Bhosari, Pune - IITM",28-08-2025 07:00:00,18.640051,73.848956,PM2.5,14,42,22
India,Maharashtra,Pune,"Bhosari, Pune - IITM",28-08-2025 07:00:00,18.640051,73.848956,PM10,23,47,35
India,Maharashtra,Pune,"Bhosari, Pune - IITM",28-08-2025 07:00:00,18.640051,73.848956,NO2,10,22,17
India,Maharashtra,Pune,"Bhosari, Pune - IITM",28-08-2025 07:00:00,18.640051,73.848956,CO,33,81,39
India,Maharashtra,Pune,"Bhosari, Pune - IITM",28-08-2025 07:00:00,18.640051,73.848956,OZONE,1,16,8
India,Maharashtra,Pune,"Bhumkar Nagar, Pune - IITM",28-08-2025 07:00:00,18.605770,73.749976,PM2.5,13,53,25
India,Nagaland,Kohima,"PWD Junction, Kohima - NPCB",28-08-2025 07:00:00,25.6635413,94.0989878,CO,3,16,7
India,Odisha,Balasore,"Kalidaspur, Balasore - OSPCB",28-08-2025 07:00:00,21.51161,86.89088,PM2.5,10,40,18
India,Odisha,Balasore,"Kalidaspur, Balasore - OSPCB",28-08-2025 07:00:00,21.51161,86.89088,PM10,12,61,29
India,Odisha,Balasore,"Kalidaspur, Balasore - OSPCB",28-08-2025 07:00:00,21.51161,86.89088,NH3,1,3,2
India,Odisha,Balasore,"Kalidaspur, Balasore - OSPCB",28-08-2025 07:00:00,21.51161,86.89088,OZONE,5,28,16
India,Maharashtra,Ulhasnagar,"Sidhi Vinayak Nagar, Ulhasnagar - MPCB",28-08-2025 07:00:00,19.235581,73.159121,CO,14,46,29
India,Maharashtra,Virar,"Bolinj, Virar - MPCB",28-08-2025 07:00:00,19.4458210,72.7988231,NO2,6,19,11
India,Maharashtra,Pune,"Katraj Dairy, Pune - MPCB",28-08-2025 07:00:00,18.454450,73.854155,PM10,22,36,29
India,Maharashtra,Pune,"Katraj Dairy, Pune - MPCB",28-08-2025 07:00:00,18.454450,73.854155,OZONE,6,13,6
India,Maharashtra,Pimpri-Chinchwad,"Park Street Wakad, Pimpri Chinchwad - MPCB",28-08-2025 07:00:00,18.59051,73.77946,PM10,34,46,40
India,Maharashtra,Navi Mumbai,"Sanpada, Navi Mumbai - MPCB",28-08-2025 07:00:00,19.0575752,73.0151367,PM10,NA,NA,NA
India,Rajasthan,Bhiwadi,"Vasundhara Nagar_UIT, Bhiwadi - RSPCB",28-08-2025 07:00:00,28.207266,76.829265,NO2,13,55,33
India,Rajasthan,Bhiwadi,"Vasundhara Nagar_UIT, Bhiwadi - RSPCB",28-08-2025 07:00:00,28.207266,76.829265,NH3,1,2,2
India,Rajasthan,Bhiwadi,"Vasundhara Nagar_UIT, Bhiwadi - RSPCB",28-08-2025 07:00:00,28.207266,76.829265,OZONE,10,24,14
India,Rajasthan,Bikaner,"MM Ground, Bikaner - RSPCB",28-08-2025 07:00:00,28.018792,73.292658,PM10,40,136,78
India,Rajasthan,Bikaner,"MM Ground, Bikaner - RSPCB",28-08-2025 07:00:00,28.018792,73.292658,SO2,2,5,3
India,Rajasthan,Bikaner,"MM Ground, Bikaner - RSPCB",28-08-2025 07:00:00,28.018792,73.292658,CO,10,104,14
India,Rajasthan,Bundi,"New Colony, Bundi - RSPCB",28-08-2025 07:00:00,25.435774,75.644272,NO2,4,20,8
India,Rajasthan,Bundi,"New Colony, Bundi - RSPCB",28-08-2025 07:00:00,25.435774,75.644272,SO2,5,7,6
India,Rajasthan,Bundi,"New Colony, Bundi - RSPCB",28-08-2025 07:00:00,25.435774,75.644272,CO,21,42,29
India,Rajasthan,Chittorgarh,"Shastri Nagar, Chittorgarh - RSPCB",28-08-2025 07:00:00,24.892047,74.623527,SO2,3,15,10
India,Rajasthan,Chittorgarh,"Shastri Nagar, Chittorgarh - RSPCB",28-08-2025 07:00:00,24.892047,74.623527,CO,10,32,13
India,Rajasthan,Churu,"Subash Chowk, Churu - RSPCB",28-08-2025 07:00:00,28.296139,74.961696,PM10,28,105,53
India,Odisha,Byasanagar,"Ferro Chrome Colony, Byasanagar - OSPCB",28-08-2025 07:00:00,20.94185,86.11510,OZONE,9,38,17
India,Odisha,Cuttack,"CDA Area, Cuttack - OSPCB",28-08-2025 07:00:00,20.48891     ,85.84768     ,PM2.5,NA,NA,NA
India,Odisha,Cuttack,"CDA Area, Cuttack - OSPCB",28-08-2025 07:00:00,20.48891     ,85.84768     ,PM10,9,50,29
India,Odisha,Keonjhar,"Jagamohanpur, Keonjhar - OSPCB",28-08-2025 07:00:00,21.643900,85.599355,PM2.5,16,24,20
India,Odisha,Keonjhar,"Jagamohanpur, Keonjhar - OSPCB",28-08-2025 07:00:00,21.643900,85.599355,SO2,16,22,17
India,Odisha,Nayagarh,"Dabuna, Nayagarh - OSPCB",28-08-2025 07:00:00,21.847279,85.416905,PM10,22,22,22
India,Odisha,Rourkela,"Fertilizer Township, Rourkela - OSPCB",28-08-2025 07:00:00,22.18972222,84.86277778,CO,21,27,24
India,Odisha,Rourkela,"Raghunathpali, Rourkela - OSPCB",28-08-2025 07:00:00,22.220833,84.809444,PM2.5,6,28,16
India,Punjab,Mandi Gobindgarh,"RIMT University, Mandi Gobindgarh - PPCB",28-08-2025 07:00:00,30.649961,76.331442,NH3,6,6,6
India,Punjab,Patiala,"Model Town, Patiala - PPCB",28-08-2025 07:00:00,30.349388,76.366642,NH3,NA,NA,NA
India,Punjab,Rupnagar,"Ratanpura, Rupnagar - Ambuja Cements",28-08-2025 07:00:00,31.0325454,76.5623046,PM10,32,105,63
India,Punjab,Rupnagar,"Ratanpura, Rupnagar - Ambuja Cements",28-08-2025 07:00:00,31.0325454,76.5623046,SO2,7,13,10
India,Rajasthan,Ajmer,"Civil Lines,  Ajmer - RSPCB",28-08-2025 07:00:00,26.470859,74.646594,NH3,5,7,5
India,Rajasthan,Ajmer,"Civil Lines,  Ajmer - RSPCB",28-08-2025 07:00:00,26.470859,74.646594,CO,28,105,35
India,Rajasthan,Alwar,"Moti Doongri, Alwar - RSPCB",28-08-2025 07:00:00,27.554793,76.611536,PM2.5,24,83,38
India,Punjab,Amritsar,"Golden Temple, Amritsar - PPCB",28-08-2025 07:00:00,31.620000,74.876512,CO,19,32,27
India,Punjab,Jalandhar,"Civil Line, Jalandhar - PPCB",28-08-2025 07:00:00,31.321907,75.578914,CO,33,41,34
India,Punjab,Khanna,"Kalal Majra, Khanna - PPCB",28-08-2025 07:00:00,30.736056 ,76.209694,NO2,26,30,28
India,Punjab,Khanna,"Kalal Majra, Khanna - PPCB",28-08-2025 07:00:00,30.736056 ,76.209694,NH3,7,8,7
India,Punjab,Khanna,"Kalal Majra, Khanna - PPCB",28-08-2025 07:00:00,30.736056 ,76.209694,SO2,2,8,5
India,Punjab,Mandi Gobindgarh,"RIMT University, Mandi Gobindgarh - PPCB",28-08-2025 07:00:00,30.649961,76.331442,PM2.5,33,87,52
India,Rajasthan,Dausa,"Khatikan Mohalla, Dausa - RSPCB",28-08-2025 07:00:00,26.895552,76.334753,PM10,18,102,56
India,Rajasthan,Dausa,"Khatikan Mohalla, Dausa - RSPCB",28-08-2025 07:00:00,26.895552,76.334753,NO2,7,30,16
India,Rajasthan,Dausa,"Khatikan Mohalla, Dausa - RSPCB",28-08-2025 07:00:00,26.895552,76.334753,NH3,4,9,5
India,Rajasthan,Dholpur,"Raja Ganj, Dholpur - RSPCB",28-08-2025 07:00:00,26.699557,77.898881,PM2.5,23,500,79
India,Rajasthan,Dholpur,"Raja Ganj, Dholpur - RSPCB",28-08-2025 07:00:00,26.699557,77.898881,NH3,4,7,5
India,Rajasthan,Dholpur,"Raja Ganj, Dholpur - RSPCB",28-08-2025 07:00:00,26.699557,77.898881,CO,16,56,44
India,Rajasthan,Dungarpur,"Bhoiwada, Dungarpur - RSPCB",28-08-2025 07:00:00,23.837789,73.714926,PM10,19,37,29
India,Rajasthan,Bhilwara,"Pratap Nagar, Bhilwara - RSPCB",28-08-2025 07:00:00,25.339605,74.618883,PM10,25,90,61
India,Rajasthan,Bhiwadi,"RIICO Ind. Area III, Bhiwadi - RSPCB",28-08-2025 07:00:00,28.194909,76.862296,PM10,17,117,66
India,Rajasthan,Bhiwadi,"RIICO Ind. Area III, Bhiwadi - RSPCB",28-08-2025 07:00:00,28.194909,76.862296,NO2,7,31,19
India,Rajasthan,Bhiwadi,"RIICO Ind. Area III, Bhiwadi - RSPCB",28-08-2025 07:00:00,28.194909,76.862296,NH3,2,13,8
India,Rajasthan,Bhiwadi,"Vasundhara Nagar_UIT, Bhiwadi - RSPCB",28-08-2025 07:00:00,28.207266,76.829265,PM2.5,36,214,96
India,Rajasthan,Bhiwadi,"Vasundhara Nagar_UIT, Bhiwadi - RSPCB",28-08-2025 07:00:00,28.207266,76.829265,PM10,48,162,97
India,Rajasthan,Banswara,"Rati Talai, Banswara - RSPCB",28-08-2025 07:00:00,23.555190,74.440010,PM2.5,8,53,28
India,Rajasthan,Banswara,"Rati Talai, Banswara - RSPCB",28-08-2025 07:00:00,23.555190,74.440010,CO,12,25,15
India,Rajasthan,Baran,"Bamboliya, Baran - RSPCB",28-08-2025 07:00:00,25.106006,76.469948,PM10,35,62,47
India,Rajasthan,Baran,"Bamboliya, Baran - RSPCB",28-08-2025 07:00:00,25.106006,76.469948,CO,20,32,23
India,Rajasthan,Baran,"Bamboliya, Baran - RSPCB",28-08-2025 07:00:00,25.106006,76.469948,OZONE,19,66,33
India,Rajasthan,Bharatpur,"Krishna Nagar, Bharatpur - RSPCB",28-08-2025 07:00:00,27.215415,77.50873,NO2,9,34,18
India,Rajasthan,Jaipur,"Adarsh Nagar, Jaipur - RSPCB",28-08-2025 07:00:00,26.902909,75.836858,PM2.5,NA,NA,NA
India,Rajasthan,Jaipur,"Adarsh Nagar, Jaipur - RSPCB",28-08-2025 07:00:00,26.902909,75.836858,NH3,NA,NA,NA
India,Rajasthan,Jaipur,"Mansarovar Sector-12, Jaipur - RSPCB",28-08-2025 07:00:00,26.843698,75.766894,SO2,2,5,2
India,Rajasthan,Jaipur,"Police Commissionerate, Jaipur - RSPCB",28-08-2025 07:00:00,26.9164092,75.7994901,NO2,83,101,92
India,Rajasthan,Jaipur,"Sector-2 Murlipura, Jaipur - RSPCB",28-08-2025 07:00:00,26.960669,75.771817,NO2,14,57,25
India,Odisha,Rourkela,"Raghunathpali, Rourkela - OSPCB",28-08-2025 07:00:00,22.220833,84.809444,CO,10,28,14
India,Odisha,Tensa,"Barsua Iron Ore Mines, Tensa - OSPCB",28-08-2025 07:00:00,21.869985,85.167016,NH3,NA,NA,NA
India,Odisha,Tensa,"Barsua Iron Ore Mines, Tensa - OSPCB",28-08-2025 07:00:00,21.869985,85.167016,OZONE,8,24,11
India,Puducherry,Puducherry,"Jawahar Nagar, Puducherry - PPCC",28-08-2025 07:00:00,11.9309,79.8027,CO,12,26,14
India,Rajasthan,Jaipur,"Sector-2 Murlipura, Jaipur - RSPCB",28-08-2025 07:00:00,26.960669,75.771817,CO,19,34,24
India,Rajasthan,Jaipur,"Shastri Nagar, Jaipur - RSPCB",28-08-2025 07:00:00,26.9502929,75.730943,PM2.5,29,84,56
India,Rajasthan,Jaipur,"Shastri Nagar, Jaipur - RSPCB",28-08-2025 07:00:00,26.9502929,75.730943,PM10,44,104,68
India,Rajasthan,Jaipur,"Shastri Nagar, Jaipur - RSPCB",28-08-2025 07:00:00,26.9502929,75.730943,NH3,1,13,6
India,Rajasthan,Jaipur,"Shastri Nagar, Jaipur - RSPCB",28-08-2025 07:00:00,26.9502929,75.730943,CO,52,94,72
India,Rajasthan,Jaisalmer,"Sadar Bazar, Jaisalmer - RSPCB",28-08-2025 07:00:00,26.912329,70.909168,NO2,3,15,9
India,Rajasthan,Jalore,"Mudtra Sili, Jalore - RSPCB",28-08-2025 07:00:00,25.344694,72.626208,PM10,41,136,87
India,Rajasthan,Jalore,"Mudtra Sili, Jalore - RSPCB",28-08-2025 07:00:00,25.344694,72.626208,NH3,1,12,4
India,Rajasthan,Jhalawar,"Rajlaxmi Nagar, Jhalawar - RSPCB",28-08-2025 07:00:00,24.588397,76.172782,PM2.5,15,44,24
India,Rajasthan,Tonk,"Shastri Nagar, Tonk - RSPCB",28-08-2025 07:00:00,26.159933,75.780517,NO2,2,14,5
India,Rajasthan,Udaipur,"Ashok Nagar, Udaipur - RSPCB",28-08-2025 07:00:00,24.5886166,73.6321397,NO2,9,42,25
India,Sikkim,Gangtok,"Zero Point GICI, Gangtok - SSPCB",28-08-2025 07:00:00,27.338530,88.614099,PM10,3,29,16
India,Sikkim,Gangtok,"Zero Point GICI, Gangtok - SSPCB",28-08-2025 07:00:00,27.338530,88.614099,OZONE,26,47,40
India,TamilNadu,Ariyalur,"Keelapalur, Ariyalur - TNPCB",28-08-2025 07:00:00,11.06825,79.07033,NH3,1,1,1
India,Rajasthan,Sawai Madhopur,"Sahu Nagar, Sawai Madhopur - RSPCB",28-08-2025 07:00:00,26.031443,76.359327,PM2.5,3,137,30
India,Rajasthan,Sikar,"Radhakishan Pura, Sikar - RSPCB",28-08-2025 07:00:00,27.608912,75.153302,PM10,16,102,44
India,Rajasthan,Sirohi,"Vedhaynath Colony, Sirohi - RSPCB",28-08-2025 07:00:00,24.885261,72.857549,PM2.5,19,55,37
India,Rajasthan,Sri Ganganagar,"Old City, Sri Ganganagar - RSPCB",28-08-2025 07:00:00,29.931624,73.864511,NO2,34,66,46
India,Rajasthan,Sri Ganganagar,"Old City, Sri Ganganagar - RSPCB",28-08-2025 07:00:00,29.931624,73.864511,SO2,1,27,9
India,Rajasthan,Jodhpur,"Samrat Ashok Udhyan, Jodhpur - RSPCB",28-08-2025 07:00:00,26.253384,72.976571,CO,15,29,16
India,Rajasthan,Karauli,"Satyawati Vihar, Karauli - RSPCB",28-08-2025 07:00:00,26.506177,77.025989,PM2.5,NA,NA,NA
India,Rajasthan,Karauli,"Satyawati Vihar, Karauli - RSPCB",28-08-2025 07:00:00,26.506177,77.025989,NO2,12,21,18
India,Rajasthan,Karauli,"Satyawati Vihar, Karauli - RSPCB",28-08-2025 07:00:00,26.506177,77.025989,SO2,5,8,7
India,Rajasthan,Karauli,"Satyawati Vihar, Karauli - RSPCB",28-08-2025 07:00:00,26.506177,77.025989,CO,9,26,13
India,Rajasthan,Kota,"Dhanmandi, Kota - RSPCB",28-08-2025 07:00:00,25.164090,75.858137,NH3,1,2,2
India,Rajasthan,Jodhpur,"Digari Kalan, Jodhpur - RSPCB",28-08-2025 07:00:00,26.295810,73.082283,NH3,2,6,4
India,Rajasthan,Jodhpur,"Jhalamand, Jodhpur - RSPCB",28-08-2025 07:00:00,26.215415,73.070156,SO2,2,5,4
India,Rajasthan,Jodhpur,"Jhalamand, Jodhpur - RSPCB",28-08-2025 07:00:00,26.215415,73.070156,CO,10,33,14
India,Rajasthan,Jodhpur,"Jhalamand, Jodhpur - RSPCB",28-08-2025 07:00:00,26.215415,73.070156,OZONE,14,61,23
India,Rajasthan,Jodhpur,"Mandor, Jodhpur - RSPCB",28-08-2025 07:00:00,26.358805,73.047444,PM2.5,7,45,24
India,Rajasthan,Kota,"Shrinath Puram, Kota - RSPCB",28-08-2025 07:00:00,25.14389,75.821256,PM10,22,148,66
India,Rajasthan,Nagaur,"Karni Colony, Nagaur - RSPCB",28-08-2025 07:00:00,27.213494,73.734444,CO,12,34,19
India,Rajasthan,Pali,"Indira Colony Vistar, Pali - RSPCB",28-08-2025 07:00:00,25.771061, 73.340227,PM2.5,23,90,54
India,TamilNadu,Chennai,"Kodungaiyur, Chennai - TNPCB",28-08-2025 07:00:00,13.1278,80.2642,CO,10,36,23
India,TamilNadu,Chennai,"Manali Village, Chennai - TNPCB",28-08-2025 07:00:00,13.1662,80.2584,NH3,1,1,1
India,TamilNadu,Chennai,"Manali Village, Chennai - TNPCB",28-08-2025 07:00:00,13.1662,80.2584,SO2,21,25,23
India,TamilNadu,Chennai,"Perungudi, Chennai - TNPCB",28-08-2025 07:00:00,12.9533,80.2357,PM10,17,141,58
India,TamilNadu,Chengalpattu,"Crescent University, Chengalpattu - TNPCB",28-08-2025 07:00:00,12.8777316,80.0834807,NO2,6,19,10
India,TamilNadu,Chengalpattu,"Crescent University, Chengalpattu - TNPCB",28-08-2025 07:00:00,12.8777316,80.0834807,NH3,1,3,2
India,TamilNadu,Chennai,"Arumbakkam, Chennai - TNPCB",28-08-2025 07:00:00,13.0664,80.2112 ,NO2,10,19,16
India,Rajasthan,Jodhpur,"Collectorate, Jodhpur - RSPCB",28-08-2025 07:00:00,26.268249,73.0193853,OZONE,8,17,10
India,Rajasthan,Jodhpur,"Digari Kalan, Jodhpur - RSPCB",28-08-2025 07:00:00,26.295810,73.082283,PM2.5,13,40,24
India,TamilNadu,Coimbatore,"SIDCO Kurichi, Coimbatore - TNPCB",28-08-2025 07:00:00,10.942451,76.978996,CO,1,128,2
India,TamilNadu,Cuddalore,"Kudikadu, Cuddalore - TNPCB",28-08-2025 07:00:00,11.6829898,79.7532099,PM2.5,NA,NA,NA
India,TamilNadu,Cuddalore,"Kudikadu, Cuddalore - TNPCB",28-08-2025 07:00:00,11.6829898,79.7532099,NH3,NA,NA,NA
India,TamilNadu,Dindigul,"Mendonsa Colony, Dindigul - TNPCB",28-08-2025 07:00:00,10.358535,77.984321,SO2,19,23,21
India,TamilNadu,Dindigul,"Mendonsa Colony, Dindigul - TNPCB",28-08-2025 07:00:00,10.358535,77.984321,CO,6,10,9
India,TamilNadu,Gummidipoondi,"Anthoni Pillai Nagar, Gummidipoondi - TNPCB",28-08-2025 07:00:00,13.4127,80.1081,PM10,24,166,77
India,TamilNadu,Gummidipoondi,"Anthoni Pillai Nagar, Gummidipoondi - TNPCB",28-08-2025 07:00:00,13.4127,80.1081,NO2,1,12,5
India,TamilNadu,Hosur,"SIPCOT Phase-1, Hosur - TNPCB",28-08-2025 07:00:00,12.746998,77.813811,PM10,28,87,45
India,TamilNadu,Hosur,"SIPCOT Phase-1, Hosur - TNPCB",28-08-2025 07:00:00,12.746998,77.813811,NO2,1,2,2
India,TamilNadu,Kanchipuram,"Kilambi, Kanchipuram - TNPCB",28-08-2025 07:00:00,12.864618,79.659968,PM2.5,10,53,31
India,TamilNadu,Palkalaiperur,"Bharathidasan University, Palkalaiperur - TNPCB",28-08-2025 07:00:00,10.681158,78.741746,PM2.5,9,25,18
India,TamilNadu,Perundurai,"SIPCOT Industrial Park, Perundurai - TNPCB",28-08-2025 07:00:00,11.258242,77.552761,CO,27,32,28
India,TamilNadu,Perundurai,"SIPCOT Industrial Park, Perundurai - TNPCB",28-08-2025 07:00:00,11.258242,77.552761,OZONE,21,32,31
India,TamilNadu,Pudukottai,"SIPCOT Nathampannai, Pudukottai - TNPCB",28-08-2025 07:00:00,10.423417,78.784889,NH3,2,3,2
India,TamilNadu,Ramanathapuram,"Chalai Bazaar, Ramanathapuram - TNPCB",28-08-2025 07:00:00,9.36399,78.831977,PM2.5,8,28,19
India,TamilNadu,Ramanathapuram,"Chalai Bazaar, Ramanathapuram - TNPCB",28-08-2025 07:00:00,9.36399,78.831977,CO,28,31,29
India,TamilNadu,Ranipet,"VOC Nagar_SIPCOT, Ranipet - TNPCB",28-08-2025 07:00:00,12.952707,79.30394,SO2,17,18,17
India,TamilNadu,Ranipet,"VOC Nagar_SIPCOT, Ranipet - TNPCB",28-08-2025 07:00:00,12.952707,79.30394,CO,18,20,20
India,TamilNadu,Kanchipuram,"Kilambi, Kanchipuram - TNPCB",28-08-2025 07:00:00,12.864618,79.659968,NH3,4,4,4
India,TamilNadu,Karur,"Kamadenu Nagar, Karur - TNPCB",28-08-2025 07:00:00,10.967820,78.080882,SO2,14,16,15
India,TamilNadu,Karur,"Kamadenu Nagar, Karur - TNPCB",28-08-2025 07:00:00,10.967820,78.080882,OZONE,6,10,8
India,TamilNadu,Madurai,"Uchapatti, Madurai - TNPCB",28-08-2025 07:00:00,9.865935,78.022669,PM2.5,8,29,13
India,TamilNadu,Nagapattinam,"Velippalayam, Nagapattinam - TNPCB",28-08-2025 07:00:00,10.798548,79.838212,PM10,NA,NA,NA
India,TamilNadu,Nagapattinam,"Velippalayam, Nagapattinam - TNPCB",28-08-2025 07:00:00,10.798548,79.838212,NH3,NA,NA,NA
India,TamilNadu,Ooty,"Bombay Castel, Ooty - TNPCB",28-08-2025 07:00:00,11.4068288,76.7138973,CO,26,26,26
India,TamilNadu,Tiruchirappalli,"St Joseph College, Tiruchirappalli - TNPCB",28-08-2025 07:00:00,10.830158,78.691849,NH3,1,1,1
India,TamilNadu,Tirunelveli,"Municipal Corporation Office, Tirunelveli - TNPCB",28-08-2025 07:00:00,8.728442,77.6962,CO,40,42,41
India,TamilNadu,Vellore,"Vasanthapuram, Vellore - TNPCB",28-08-2025 07:00:00,12.909494,79.131861,NH3,1,5,3
India,TamilNadu,Vellore,"Vasanthapuram, Vellore - TNPCB",28-08-2025 07:00:00,12.909494,79.131861,SO2,18,19,19
India,TamilNadu,Virudhunagar,"Collectorate Office, Virudhunagar - TNPCB",28-08-2025 07:00:00,9.559382,77.948828,PM10,20,45,30
India,TamilNadu,Virudhunagar,"Collectorate Office, Virudhunagar - TNPCB",28-08-2025 07:00:00,9.559382,77.948828,NO2,19,19,19
India,TamilNadu,Virudhunagar,"Collectorate Office, Virudhunagar - TNPCB",28-08-2025 07:00:00,9.559382,77.948828,OZONE,3,4,3
India,TamilNadu,Chennai,"Perungudi, Chennai - TNPCB",28-08-2025 07:00:00,12.9533,80.2357,CO,20,36,26
India,TamilNadu,Chennai,"Royapuram, Chennai - TNPCB",28-08-2025 07:00:00,13.1036,80.2909,NH3,NA,NA,NA
India,TamilNadu,Chennai,"Royapuram, Chennai - TNPCB",28-08-2025 07:00:00,13.1036,80.2909,SO2,NA,NA,NA
India,TamilNadu,Chennai,"Velachery Res. Area, Chennai - CPCB",28-08-2025 07:00:00,13.0052189,80.2398125,SO2,1,9,6
India,TamilNadu,Coimbatore,"PSG College of Arts and Science, Coimbatore - TNPCB",28-08-2025 07:00:00,11.0328,77.0349,NH3,2,2,2
India,TamilNadu,Coimbatore,"SIDCO Kurichi, Coimbatore - TNPCB",28-08-2025 07:00:00,10.942451,76.978996,PM2.5,2,37,16
India,TamilNadu,Coimbatore,"SIDCO Kurichi, Coimbatore - TNPCB",28-08-2025 07:00:00,10.942451,76.978996,NH3,1,1,1
India,Telangana,Hyderabad,"Zoo Park, Hyderabad - TSPCB",28-08-2025 07:00:00,17.349694,78.451437,SO2,4,6,5
India,Uttar_Pradesh,Agra,"Manoharpur, Agra - UPPCB",28-08-2025 07:00:00,27.23711,78.01936,SO2,21,39,28
India,Uttar_Pradesh,Agra,"Manoharpur, Agra - UPPCB",28-08-2025 07:00:00,27.23711,78.01936,OZONE,7,7,7
India,Uttar_Pradesh,Agra,"Rohta, Agra - UPPCB",28-08-2025 07:00:00,27.106972,78.000111,PM2.5,40,114,65
India,Uttar_Pradesh,Agra,"Rohta, Agra - UPPCB",28-08-2025 07:00:00,27.106972,78.000111,SO2,12,17,15
India,Uttar_Pradesh,Agra,"Rohta, Agra - UPPCB",28-08-2025 07:00:00,27.106972,78.000111,CO,22,31,30
India,Telangana,Hyderabad,"IDA Pashamylaram, Hyderabad - TSPCB",28-08-2025 07:00:00,17.5316895,78.218939,OZONE,4,8,6
India,Telangana,Hyderabad,"IITH Kandi, Hyderabad - TSPCB",28-08-2025 07:00:00,17.585705,78.126199,CO,18,25,22
India,Telangana,Hyderabad,"Nacharam_TSIIC IALA, Hyderabad - TSPCB",28-08-2025 07:00:00,17.429398,78.569354,PM2.5,49,55,53
India,Telangana,Hyderabad,"Nacharam_TSIIC IALA, Hyderabad - TSPCB",28-08-2025 07:00:00,17.429398,78.569354,PM10,70,77,72
India,Telangana,Hyderabad,"Ramachandrapuram, Hyderabad - TSPCB",28-08-2025 07:00:00,17.528544,78.286195,SO2,14,15,15
India,TamilNadu,Salem,"Sona College of Technology, Salem - TNPCB",28-08-2025 07:00:00,11.679111,78.125052,NO2,NA,NA,NA
India,TamilNadu,Thanjavur,"Parisutham Nagar, Thanjavur - TNPCB",28-08-2025 07:00:00,10.7654824,79.1389968,SO2,16,17,16
India,TamilNadu,Thoothukudi,"Meelavittan, Thoothukudi - TNPCB",28-08-2025 07:00:00,8.816428 ,78.099039,NO2,15,26,21
India,TamilNadu,Tiruchirappalli,"St Joseph College, Tiruchirappalli - TNPCB",28-08-2025 07:00:00,10.830158,78.691849,NO2,3,4,4
India,Telangana,Hyderabad,"ICRISAT Patancheru, Hyderabad - TSPCB",28-08-2025 07:00:00,17.518400,78.278777,PM2.5,NA,NA,NA
India,Uttar_Pradesh,Ghaziabad,"Vasundhara, Ghaziabad - UPPCB",28-08-2025 07:00:00,28.6603346,77.3572563,PM2.5,15,301,100
India,Uttar_Pradesh,Gorakhpur,"Madan Mohan Malaviya University of Technology, Gorakhpur - UPPCB",28-08-2025 07:00:00,26.730136,83.433859,SO2,23,23,23
India,Uttar_Pradesh,Greater Noida,"Knowledge Park - III, Greater Noida - UPPCB",28-08-2025 07:00:00,28.47272,77.482000,NH3,2,8,5
India,Uttar_Pradesh,Greater Noida,"Knowledge Park - III, Greater Noida - UPPCB",28-08-2025 07:00:00,28.47272,77.482000,CO,7,110,58
India,Uttar_Pradesh,Greater Noida,"Knowledge Park - V, Greater Noida - UPPCB",28-08-2025 07:00:00,28.557054,77.453663,PM10,21,370,155
India,Uttar_Pradesh,Greater Noida,"Knowledge Park - V, Greater Noida - UPPCB",28-08-2025 07:00:00,28.557054,77.453663,SO2,6,23,15
India,Uttar_Pradesh,Greater Noida,"Knowledge Park - V, Greater Noida - UPPCB",28-08-2025 07:00:00,28.557054,77.453663,OZONE,13,59,20
India,Uttar_Pradesh,Bareilly,"Civil Lines, Bareilly - UPPCB",28-08-2025 07:00:00,28.359581,79.414455,PM2.5,1,3,2
India,Uttar_Pradesh,Bareilly,"Civil Lines, Bareilly - UPPCB",28-08-2025 07:00:00,28.359581,79.414455,NH3,2,2,2
India,Uttar_Pradesh,Bulandshahr,"Yamunapuram, Bulandshahr - UPPCB",28-08-2025 07:00:00,28.406963,77.849831,NO2,7,52,20
India,Uttar_Pradesh,Firozabad,"Nagla Bhau, Firozabad - UPPCB",28-08-2025 07:00:00,27.168897,78.376960,PM2.5,10,22,18
India,Uttar_Pradesh,Firozabad,"Nagla Bhau, Firozabad - UPPCB",28-08-2025 07:00:00,27.168897,78.376960,OZONE,15,19,17
India,Uttar_Pradesh,Firozabad,"Vibhab Nagar, Firozabad - UPPCB",28-08-2025 07:00:00,27.1594,78.3953,PM2.5,26,71,53
India,Uttar_Pradesh,Firozabad,"Vibhab Nagar, Firozabad - UPPCB",28-08-2025 07:00:00,27.1594,78.3953,NO2,15,15,15
India,Uttar_Pradesh,Kanpur,"NSI Kalyanpur, Kanpur - UPPCB",28-08-2025 07:00:00,26.509954,80.249612,OZONE,16,19,18
India,Uttar_Pradesh,Kanpur,"Nehru Nagar, Kanpur - UPPCB",28-08-2025 07:00:00,26.4703136,80.3229863,NO2,50,64,56
India,Uttar_Pradesh,Khurja,"Kalindi Kunj, Khurja - UPPCB",28-08-2025 07:00:00,28.2348927,77.8683002,PM2.5,12,70,34
India,Uttar_Pradesh,Lucknow,"B R Ambedkar University, Lucknow - UPPCB",28-08-2025 07:00:00,26.766433,80.927299,OZONE,28,128,37
India,Uttar_Pradesh,Lucknow,"Gomti Nagar, Lucknow - UPPCB",28-08-2025 07:00:00,26.868120,81.005119,SO2,10,11,11
India,Uttar_Pradesh,Meerut,"Pallavpuram Phase 2, Meerut - UPPCB",28-08-2025 07:00:00,29.063510,77.709723,CO,22,43,32
India,Uttar_Pradesh,Meerut,"Pallavpuram Phase 2, Meerut - UPPCB",28-08-2025 07:00:00,29.063510,77.709723,OZONE,17,52,25
India,Uttar_Pradesh,Moradabad,"Buddhi Vihar, Moradabad - UPPCB",28-08-2025 07:00:00,28.83526,78.74460,NH3,5,5,5
India,Uttar_Pradesh,Moradabad,"Buddhi Vihar, Moradabad - UPPCB",28-08-2025 07:00:00,28.83526,78.74460,OZONE,13,41,20
India,Uttar_Pradesh,Moradabad,"Eco Herbal Park, Moradabad - UPPCB",28-08-2025 07:00:00,28.840739,78.697531,NO2,8,26,15
India,Uttar_Pradesh,Moradabad,"Eco Herbal Park, Moradabad - UPPCB",28-08-2025 07:00:00,28.840739,78.697531,NH3,3,10,6
India,Uttar_Pradesh,Firozabad,"Vibhab Nagar, Firozabad - UPPCB",28-08-2025 07:00:00,27.1594,78.3953,SO2,5,17,12
India,Uttar_Pradesh,Ghaziabad,"Indirapuram, Ghaziabad - UPPCB",28-08-2025 07:00:00,28.646233,77.358075,CO,24,115,72
India,Uttar_Pradesh,Ghaziabad,"Loni, Ghaziabad - UPPCB",28-08-2025 07:00:00,28.757294,77.278792,SO2,7,15,11
India,Uttar_Pradesh,Ghaziabad,"Loni, Ghaziabad - UPPCB",28-08-2025 07:00:00,28.757294,77.278792,CO,40,106,58
India,Uttar_Pradesh,Ghaziabad,"Loni, Ghaziabad - UPPCB",28-08-2025 07:00:00,28.757294,77.278792,OZONE,11,42,12
India,Uttar_Pradesh,Hapur,"Anand Vihar, Hapur - UPPCB",28-08-2025 07:00:00,28.725645,77.749675,NO2,7,44,20
India,Uttar_Pradesh,Hapur,"Anand Vihar, Hapur - UPPCB",28-08-2025 07:00:00,28.725645,77.749675,SO2,NA,NA,NA
India,Uttar_Pradesh,Jhansi,"Shivaji Nagar, Jhansi - UPPCB",28-08-2025 07:00:00,25.4547,78.6039,PM10,28,136,68
India,Uttar_Pradesh,Jhansi,"Shivaji Nagar, Jhansi - UPPCB",28-08-2025 07:00:00,25.4547,78.6039,CO,6,24,14
India,Uttar_Pradesh,Jhansi,"Shivaji Nagar, Jhansi - UPPCB",28-08-2025 07:00:00,25.4547,78.6039,OZONE,2,7,6
India,Uttar_Pradesh,Agra,"Shastripuram, Agra - UPPCB",28-08-2025 07:00:00,27.19862,77.92066,SO2,26,40,34
India,Uttar_Pradesh,Agra,"Shastripuram, Agra - UPPCB",28-08-2025 07:00:00,27.19862,77.92066,OZONE,2,3,3
India,Uttar_Pradesh,Baghpat,"Sardar Patel Inter College, Baghpat - UPPCB",28-08-2025 07:00:00,28.964949,77.278761,CO,34,86,62
India,Uttar_Pradesh,Agra,"Sector-3B Avas Vikas Colony, Agra - UPPCB",28-08-2025 07:00:00,27.19412,77.96237,NO2,14,18,16
India,Uttar_Pradesh,Agra,"Shahjahan Garden, Agra - UPPCB",28-08-2025 07:00:00,27.169338,78.03582,PM10,61,116,91
India,Uttar_Pradesh,Agra,"Shahjahan Garden, Agra - UPPCB",28-08-2025 07:00:00,27.169338,78.03582,SO2,29,36,33
India,Uttar_Pradesh,Lucknow,"Talkatora District Industries Center, Lucknow - CPCB",28-08-2025 07:00:00,26.83399722,80.8917361,PM2.5,30,76,52
India,Uttar_Pradesh,Meerut,"Ganga Nagar, Meerut - UPPCB",28-08-2025 07:00:00,28.999264,77.7590354,NO2,NA,NA,NA
India,West_Bengal,Asansol,"Evelyn Lodge, Asansol - WBPCB",28-08-2025 07:00:00,23.6979360,86.9443950,OZONE,4,20,6
India,West_Bengal,Asansol,"Mahabir Colliery, Asansol - WBPCB",28-08-2025 07:00:00,23.6181830,87.1057180,NO2,NA,NA,NA
India,West_Bengal,Asansol,"Mahabir Colliery, Asansol - WBPCB",28-08-2025 07:00:00,23.6181830,87.1057180,CO,5,58,20
India,West_Bengal,Asansol,"Trivenidevi Bhalotia College, Asansol - WBPCB",28-08-2025 07:00:00,23.616515,87.119133,PM10,20,93,42
India,West_Bengal,Asansol,"Trivenidevi Bhalotia College, Asansol - WBPCB",28-08-2025 07:00:00,23.616515,87.119133,NH3,NA,NA,NA
India,West_Bengal,Asansol,"Trivenidevi Bhalotia College, Asansol - WBPCB",28-08-2025 07:00:00,23.616515,87.119133,CO,42,84,58
India,West_Bengal,Asansol,"Trivenidevi Bhalotia College, Asansol - WBPCB",28-08-2025 07:00:00,23.616515,87.119133,OZONE,15,43,21
India,West_Bengal,Barrackpore,"SVSPA Campus, Barrackpore - WBPCB",28-08-2025 07:00:00,22.7605581,88.3617589,PM10,18,70,38
India,West_Bengal,Barrackpore,"SVSPA Campus, Barrackpore - WBPCB",28-08-2025 07:00:00,22.7605581,88.3617589,NH3,12,16,14
India,West_Bengal,Durgapur,"PCBL Residential Complex, Durgapur - WBPCB",28-08-2025 07:00:00,23.5087640,87.3544400,PM2.5,9,54,24
India,Uttar_Pradesh,Varanasi,"IESD Banaras Hindu University, Varanasi - UPPCB",28-08-2025 07:00:00,25.262326,82.995408,NH3,1,2,1
India,Uttar_Pradesh,Varanasi,"IESD Banaras Hindu University, Varanasi - UPPCB",28-08-2025 07:00:00,25.262326,82.995408,CO,3,8,6
India,Uttar_Pradesh,Varanasi,"Maldahiya, Varanasi - UPPCB",28-08-2025 07:00:00,25.32393,82.99687,CO,8,30,14
India,Uttar_Pradesh,Vrindavan,"Omex Eternity, Vrindavan - UPPCB",28-08-2025 07:00:00,27.5714090,77.6557570,PM10,22,128,60
India,Uttar_Pradesh,Vrindavan,"Omex Eternity, Vrindavan - UPPCB",28-08-2025 07:00:00,27.5714090,77.6557570,NO2,12,12,12
India,Uttar_Pradesh,Vrindavan,"Omex Eternity, Vrindavan - UPPCB",28-08-2025 07:00:00,27.5714090,77.6557570,NH3,1,2,2
India,Uttar_Pradesh,Vrindavan,"Omex Eternity, Vrindavan - UPPCB",28-08-2025 07:00:00,27.5714090,77.6557570,OZONE,15,15,15
India,Uttarakhand,Dehradun,"Doon University, Dehradun - UKPCB",28-08-2025 07:00:00,30.269444,78.044167,PM2.5,1,39,21
India,West_Bengal,Durgapur,"PCBL Residential Complex, Durgapur - WBPCB",28-08-2025 07:00:00,23.5087640,87.3544400,CO,12,58,20
India,West_Bengal,Durgapur,"PCBL Residential Complex, Durgapur - WBPCB",28-08-2025 07:00:00,23.5087640,87.3544400,OZONE,3,13,4
India,West_Bengal,Haldia,"Priyambada Housing Estate, Haldia - WBPCB",28-08-2025 07:00:00,22.06047,88.109737,NH3,4,5,4
India,West_Bengal,Haldia,"Priyambada Housing Estate, Haldia - WBPCB",28-08-2025 07:00:00,22.06047,88.109737,CO,18,46,23
India,West_Bengal,Howrah,"Belur Math, Howrah - WBPCB",28-08-2025 07:00:00,22.629801,88.352017,PM2.5,5,12,8
India,West_Bengal,Howrah,"Belur Math, Howrah - WBPCB",28-08-2025 07:00:00,22.629801,88.352017,PM10,16,36,24
India,West_Bengal,Howrah,"Belur Math, Howrah - WBPCB",28-08-2025 07:00:00,22.629801,88.352017,OZONE,15,23,18
India,West_Bengal,Howrah,"Botanical Garden, Howrah - WBPCB",28-08-2025 07:00:00,22.554954,88.292568,PM10,16,42,27
India,Uttar_Pradesh,Muzaffarnagar,"New Mandi, Muzaffarnagar - UPPCB",28-08-2025 07:00:00,29.4723508,77.7194031,SO2,13,58,22
India,Uttar_Pradesh,Noida,"Sector - 125, Noida - UPPCB",28-08-2025 07:00:00,28.5447608,77.3231257,PM2.5,4,207,92
India,Uttar_Pradesh,Noida,"Sector - 125, Noida - UPPCB",28-08-2025 07:00:00,28.5447608,77.3231257,PM10,19,355,127
India,Uttar_Pradesh,Noida,"Sector-1, Noida - UPPCB",28-08-2025 07:00:00,28.5898,77.3101,PM10,26,151,89
India,Uttar_Pradesh,Noida,"Sector-1, Noida - UPPCB",28-08-2025 07:00:00,28.5898,77.3101,NO2,15,99,45
India,Uttar_Pradesh,Noida,"Sector-1, Noida - UPPCB",28-08-2025 07:00:00,28.5898,77.3101,SO2,5,11,7
India,Uttar_Pradesh,Noida,"Sector-1, Noida - UPPCB",28-08-2025 07:00:00,28.5898,77.3101,OZONE,5,53,10
India,Uttar_Pradesh,Noida,"Sector-116, Noida - UPPCB",28-08-2025 07:00:00,28.569230,77.393848,PM2.5,15,143,76
India,Uttar_Pradesh,Prayagraj,"Jhunsi, Prayagraj - UPPCB",28-08-2025 07:00:00,25.425602,81.917152,NO2,5,6,6
India,Uttar_Pradesh,Prayagraj,"Motilal Nehru NIT, Prayagraj - UPPCB",28-08-2025 07:00:00,25.494,81.863,PM2.5,27,53,38
India,Uttar_Pradesh,Prayagraj,"Motilal Nehru NIT, Prayagraj - UPPCB",28-08-2025 07:00:00,25.494,81.863,NH3,8,8,8
India,Uttar_Pradesh,Prayagraj,"Motilal Nehru NIT, Prayagraj - UPPCB",28-08-2025 07:00:00,25.494,81.863,CO,4,10,8
India,Uttar_Pradesh,Prayagraj,"Nagar Nigam, Prayagraj - UPPCB",28-08-2025 07:00:00,25.44919916 ,81.82735986 ,PM2.5,36,83,52
India,Uttar_Pradesh,Prayagraj,"Nagar Nigam, Prayagraj - UPPCB",28-08-2025 07:00:00,25.44919916 ,81.82735986 ,NO2,5,5,5
India,Uttar_Pradesh,Prayagraj,"Nagar Nigam, Prayagraj - UPPCB",28-08-2025 07:00:00,25.44919916 ,81.82735986 ,CO,14,28,21
India,Uttar_Pradesh,Prayagraj,"Nagar Nigam, Prayagraj - UPPCB",28-08-2025 07:00:00,25.44919916 ,81.82735986 ,OZONE,11,27,15
India,Uttar_Pradesh,Moradabad,"Employment Office, Moradabad - UPPCB",28-08-2025 07:00:00,28.88528,78.73880,NO2,15,16,16
India,Uttar_Pradesh,Moradabad,"Jigar Colony, Moradabad - UPPCB",28-08-2025 07:00:00,28.856664,78.772638,NO2,20,25,24
India,Uttar_Pradesh,Moradabad,"Jigar Colony, Moradabad - UPPCB",28-08-2025 07:00:00,28.856664,78.772638,CO,27,40,38
India,Uttar_Pradesh,Moradabad,"Jigar Colony, Moradabad - UPPCB",28-08-2025 07:00:00,28.856664,78.772638,OZONE,18,35,21
India,Uttar_Pradesh,Moradabad,"Transport Nagar, Moradabad - UPPCB",28-08-2025 07:00:00,28.802625,78.753728,CO,33,60,48
India,Uttar_Pradesh,Moradabad,"Transport Nagar, Moradabad - UPPCB",28-08-2025 07:00:00,28.802625,78.753728,OZONE,26,44,32
India,Uttarakhand,Kashipur,"Govt. Girls Inter College, Kashipur - UKPCB",28-08-2025 07:00:00,29.2124114,78.9611753,NH3,1,3,2
India,Uttarakhand,Rishikesh,"Shivaji Nagar, Rishikesh - UKPCB",28-08-2025 07:00:00,30.075911,78.2859547,NH3,11,11,11
India,Uttarakhand,Rishikesh,"Shivaji Nagar, Rishikesh - UKPCB",28-08-2025 07:00:00,30.075911,78.2859547,OZONE,1,25,7
India,West_Bengal,Asansol,"Asansol Court Area, Asansol - WBPCB",28-08-2025 07:00:00,23.685297,86.945968,OZONE,14,23,16
India,West_Bengal,Howrah,"Padmapukur, Howrah - WBPCB",28-08-2025 07:00:00,22.5687319,88.2797276,NH3,3,11,7
India,West_Bengal,Howrah,"Padmapukur, Howrah - WBPCB",28-08-2025 07:00:00,22.5687319,88.2797276,SO2,7,10,8
India,West_Bengal,Howrah,"Dasnagar, Howrah - WBPCB",28-08-2025 07:00:00,22.6025571,88.3105664,PM10,18,45,30
India,West_Bengal,Kolkata,"Bidhannagar, Kolkata - WBPCB",28-08-2025 07:00:00,22.58157048,88.41002457,SO2,3,83,18
India,West_Bengal,Kolkata,"Rabindra Bharati University, Kolkata - WBPCB",28-08-2025 07:00:00,22.627847,88.380669,PM10,19,35,25
India,Assam,Guwahati,"Pan Bazaar, Guwahati - PCBA",28-08-2025 07:00:00,26.187500,91.744194,PM10,5,19,12
India,Assam,Guwahati,"Pan Bazaar, Guwahati - PCBA",28-08-2025 07:00:00,26.187500,91.744194,OZONE,17,24,19
India,Assam,Nagaon,"Christianpatty, Nagaon - PCBA",28-08-2025 07:00:00,26.349082,92.68449,PM2.5,43,76,66
India,Assam,Nagaon,"Christianpatty, Nagaon - PCBA",28-08-2025 07:00:00,26.349082,92.68449,NO2,1,9,1
India,Assam,Nalbari,"Bata Chowk, Nalbari - PCBA",28-08-2025 07:00:00,26.446912,91.439057,PM10,NA,NA,NA
India,Assam,Silchar,"Tarapur, Silchar - PCBA",28-08-2025 07:00:00,24.82827,92.79525,PM10,45,57,48
India,Assam,Silchar,"Tarapur, Silchar - PCBA",28-08-2025 07:00:00,24.82827,92.79525,NH3,1,1,1
India,Assam,Sivasagar,"Girls College, Sivasagar - PCBA",28-08-2025 07:00:00,26.987634,94.636574,PM2.5,25,41,29
India,Assam,Sivasagar,"Girls College, Sivasagar - PCBA",28-08-2025 07:00:00,26.987634,94.636574,SO2,8,11,10
India,Assam,Sivasagar,"Girls College, Sivasagar - PCBA",28-08-2025 07:00:00,26.987634,94.636574,CO,4,28,13
India,Bihar,Kishanganj,"SDM Office_Khagra, Kishanganj - BSPCB",28-08-2025 07:00:00,26.0881305,87.93840336,CO,20,62,48
India,Bihar,Manguraha,"Forest Rest House, Manguraha - BSPCB",28-08-2025 07:00:00,27.308328,84.531742,PM10,19,235,59
India,Bihar,Manguraha,"Forest Rest House, Manguraha - BSPCB",28-08-2025 07:00:00,27.308328,84.531742,NO2,3,8,5
India,Bihar,Manguraha,"Forest Rest House, Manguraha - BSPCB",28-08-2025 07:00:00,27.308328,84.531742,CO,2,119,59
India,Bihar,Motihari,"Gandak Colony, Motihari - BSPCB",28-08-2025 07:00:00,26.63086,84.90051,PM2.5,18,117,63
India,Bihar,Motihari,"Gandak Colony, Motihari - BSPCB",28-08-2025 07:00:00,26.63086,84.90051,NH3,3,3,3
India,Bihar,Munger,"Town Hall, Munger - BSPCB",28-08-2025 07:00:00,25.376776,86.471523,PM10,6,68,35
India,Bihar,Munger,"Town Hall, Munger - BSPCB",28-08-2025 07:00:00,25.376776,86.471523,CO,14,31,29
India,Bihar,Muzaffarpur,"Buddha Colony, Muzaffarpur - BSPCB",28-08-2025 07:00:00,26.11442,85.39813,PM10,25,74,51
India,Andhra_Pradesh,Kadapa,"Yerramukkapalli, Kadapa - APPCB",28-08-2025 07:00:00,14.465052,78.824187,SO2,NA,NA,NA
India,Andhra_Pradesh,Rajamahendravaram,"Anand Kala Kshetram, Rajamahendravaram - APPCB",28-08-2025 07:00:00,16.9872867,81.7363176,PM2.5,2,23,12
India,Andhra_Pradesh,Tirumala,"Toll Gate, Tirumala - APPCB",28-08-2025 07:00:00,13.67,79.35,NO2,6,16,11
India,Andhra_Pradesh,Tirumala,"Toll Gate, Tirumala - APPCB",28-08-2025 07:00:00,13.67,79.35,SO2,2,4,3
India,Andhra_Pradesh,Tirupati,"Vaikuntapuram, Tirupati - APPCB",28-08-2025 07:00:00,13.615387,79.409230,NH3,7,7,7
India,Andhra_Pradesh,Vijayawada,"HB Colony, Vijayawada - APPCB",28-08-2025 07:00:00,16.536107,80.594233,SO2,14,16,16
India,Bihar,Bettiah,"Kamalnath Nagar, Bettiah - BSPCB",28-08-2025 07:00:00,26.80365,84.51954,NH3,4,7,5
India,Bihar,Bhagalpur,"DM Office_Kachari Chowk, Bhagalpur - BSPCB",28-08-2025 07:00:00,25.251013,86.989001,PM10,18,102,50
India,Bihar,Bhagalpur,"Mayaganj, Bhagalpur - BSPCB",28-08-2025 07:00:00,25.265194,87.012947,NH3,2,8,4
India,Bihar,Bhagalpur,"Mayaganj, Bhagalpur - BSPCB",28-08-2025 07:00:00,25.265194,87.012947,SO2,48,87,56
India,Bihar,Bhagalpur,"Mayaganj, Bhagalpur - BSPCB",28-08-2025 07:00:00,25.265194,87.012947,OZONE,5,13,10
India,Bihar,Bihar Sharif,"D M Colony, Bihar Sharif - BSPCB",28-08-2025 07:00:00,25.204762,85.514960,CO,NA,NA,NA
India,Bihar,Arrah,"New DM Office, Arrah - BSPCB",28-08-2025 07:00:00,25.5626095,84.663264,NO2,4,11,7
India,Bihar,Arrah,"New DM Office, Arrah - BSPCB",28-08-2025 07:00:00,25.5626095,84.663264,CO,29,84,50
India,Bihar,Aurangabad,"Gurdeo Nagar, Aurangabad - BSPCB",28-08-2025 07:00:00,24.75746,84.366208,SO2,7,21,12
India,Bihar,Aurangabad,"Gurdeo Nagar, Aurangabad - BSPCB",28-08-2025 07:00:00,24.75746,84.366208,CO,4,42,26
India,Bihar,Begusarai,"Lohiyanagar, Begusarai - BSPCB",28-08-2025 07:00:00,25.42742023,86.13886079,NO2,7,20,15
India,Bihar,Begusarai,"Lohiyanagar, Begusarai - BSPCB",28-08-2025 07:00:00,25.42742023,86.13886079,NH3,3,5,4
India,Bihar,Begusarai,"Lohiyanagar, Begusarai - BSPCB",28-08-2025 07:00:00,25.42742023,86.13886079,SO2,8,22,16
India,Bihar,Hajipur,"Industrial Area, Hajipur - BSPCB",28-08-2025 07:00:00,25.697189,85.245900,PM10,31,65,41
India,Bihar,Hajipur,"Industrial Area, Hajipur - BSPCB",28-08-2025 07:00:00,25.697189,85.245900,NH3,5,6,5
India,Bihar,Katihar,"Mirchaibari, Katihar - BSPCB",28-08-2025 07:00:00,25.560083,87.553265,PM2.5,40,58,47
India,Bihar,Katihar,"Mirchaibari, Katihar - BSPCB",28-08-2025 07:00:00,25.560083,87.553265,NO2,6,18,14
India,Bihar,Katihar,"Mirchaibari, Katihar - BSPCB",28-08-2025 07:00:00,25.560083,87.553265,OZONE,4,18,8
India,Bihar,Kishanganj,"SDM Office_Khagra, Kishanganj - BSPCB",28-08-2025 07:00:00,26.0881305,87.93840336,SO2,7,10,9
India,Andhra_Pradesh,Amaravati,"Secretariat, Amaravati - APPCB",28-08-2025 07:00:00,16.5150833,80.5181667,NH3,4,5,5
India,Andhra_Pradesh,Amaravati,"Secretariat, Amaravati - APPCB",28-08-2025 07:00:00,16.5150833,80.5181667,OZONE,8,14,11
India,Andhra_Pradesh,Chittoor,"Gangineni Cheruvu, Chittoor - APPCB",28-08-2025 07:00:00,13.204880,79.097889,PM10,59,108,75
India,Andhra_Pradesh,Chittoor,"Gangineni Cheruvu, Chittoor - APPCB",28-08-2025 07:00:00,13.204880,79.097889,NO2,32,47,41
India,Andhra_Pradesh,Chittoor,"Gangineni Cheruvu, Chittoor - APPCB",28-08-2025 07:00:00,13.204880,79.097889,NH3,10,13,11
India,Bihar,Chhapra,"Darshan Nagar, Chhapra - BSPCB",28-08-2025 07:00:00,25.7808257,84.7446768,PM2.5,42,67,59
India,Bihar,Gaya,"Collectorate, Gaya - BSPCB",28-08-2025 07:00:00,24.7955,84.9994,NO2,NA,NA,NA
India,Bihar,Gaya,"Kareemganj, Gaya - BSPCB",28-08-2025 07:00:00,24.792403,84.992416,NH3,4,6,5
India,Bihar,Gaya,"SFTI Kusdihra, Gaya - BSPCB",28-08-2025 07:00:00,24.762518,84.982348,NH3,3,4,3
India,Andhra_Pradesh,Vijayawada,"Rajiv Nagar, Vijayawada - APPCB",28-08-2025 07:00:00,16.554731,80.649110,SO2,16,38,26
India,Andhra_Pradesh,Visakhapatnam,"GVM Corporation, Visakhapatnam - APPCB",28-08-2025 07:00:00,17.72,83.3,OZONE,8,14,10
India,Arunachal_Pradesh,Naharlagun,"Naharlagun, Naharlagun - APSPCB",28-08-2025 07:00:00,27.103358,93.679645,NO2,5,5,5
India,Assam,Byrnihat,"Central Academy for SFS, Byrnihat - PCBA",28-08-2025 07:00:00,26.071318,91.87488,SO2,NA,NA,NA
India,Assam,Byrnihat,"Central Academy for SFS, Byrnihat - PCBA",28-08-2025 07:00:00,26.071318,91.87488,OZONE,NA,NA,NA
India,Assam,Guwahati,"IITG, Guwahati - PCBA",28-08-2025 07:00:00,26.2028636,91.70046436,NO2,1,2,1
India,Assam,Guwahati,"IITG, Guwahati - PCBA",28-08-2025 07:00:00,26.2028636,91.70046436,SO2,21,25,23
India,Bihar,Muzaffarpur,"MIT-Daudpur Kothi, Muzaffarpur - BSPCB",28-08-2025 07:00:00,26.1403345,85.3650192,PM2.5,22,45,30
India,Bihar,Muzaffarpur,"MIT-Daudpur Kothi, Muzaffarpur - BSPCB",28-08-2025 07:00:00,26.1403345,85.3650192,PM10,36,59,48
India,Bihar,Muzaffarpur,"MIT-Daudpur Kothi, Muzaffarpur - BSPCB",28-08-2025 07:00:00,26.1403345,85.3650192,NH3,2,3,2
India,Bihar,Muzaffarpur,"MIT-Daudpur Kothi, Muzaffarpur - BSPCB",28-08-2025 07:00:00,26.1403345,85.3650192,CO,46,67,56
India,Bihar,Patna,"DRM Office Danapur, Patna - BSPCB",28-08-2025 07:00:00,25.586562,85.043586,PM2.5,10,24,16
India,Bihar,Patna,"DRM Office Danapur, Patna - BSPCB",28-08-2025 07:00:00,25.586562,85.043586,NO2,29,35,32
India,Bihar,Patna,"Govt. High School Shikarpur, Patna - BSPCB",28-08-2025 07:00:00,25.592539,85.227158,PM2.5,8,41,27
India,Bihar,Patna,"Govt. High School Shikarpur, Patna - BSPCB",28-08-2025 07:00:00,25.592539,85.227158,SO2,21,44,24
India,Bihar,Patna,"Govt. High School Shikarpur, Patna - BSPCB",28-08-2025 07:00:00,25.592539,85.227158,OZONE,8,13,10
India,Bihar,Patna,"IGSC Planetarium Complex, Patna - BSPCB",28-08-2025 07:00:00,25.610369,85.132568,NO2,10,14,13
India,Chhattisgarh,Milupara,"Govt. Higher Secondary School, Milupara - CECB",28-08-2025 07:00:00,22.1910172,83.5197009,NH3,NA,NA,NA
India,Chhattisgarh,Raipur,"AIIMS, Raipur - CECB",28-08-2025 07:00:00,21.258815,81.578979,NO2,11,23,15
India,Chhattisgarh,Raipur,"AIIMS, Raipur - CECB",28-08-2025 07:00:00,21.258815,81.578979,OZONE,5,30,6
India,Chhattisgarh,Raipur,"Bhatagaon New ISBT, Raipur - CECB",28-08-2025 07:00:00,21.219665,81.630094,PM2.5,1,27,15
India,Chhattisgarh,Raipur,"Bhatagaon New ISBT, Raipur - CECB",28-08-2025 07:00:00,21.219665,81.630094,SO2,5,7,6
India,Chhattisgarh,Raipur,"Krishak Nagar, Raipur - CECB",28-08-2025 07:00:00,21.237755,81.705301,NO2,14,15,15
India,Chhattisgarh,Raipur,"Krishak Nagar, Raipur - CECB",28-08-2025 07:00:00,21.237755,81.705301,CO,8,18,12
India,Chhattisgarh,Raipur,"Siltara Phase-II, Raipur - CECB",28-08-2025 07:00:00,21.371751,81.664929,PM2.5,14,33,24
India,Chhattisgarh,Bhilai,"Civic Center, Bhilai - Bhilai Steel Plant",28-08-2025 07:00:00,21.185571,81.343175,PM2.5,NA,NA,NA
India,Chhattisgarh,Bhilai,"Civic Center, Bhilai - Bhilai Steel Plant",28-08-2025 07:00:00,21.185571,81.343175,NH3,NA,NA,NA
India,Chhattisgarh,Bhilai,"Civic Center, Bhilai - Bhilai Steel Plant",28-08-2025 07:00:00,21.185571,81.343175,SO2,NA,NA,NA
India,Chhattisgarh,Bhilai,"Hathkhoj, Bhilai - CECB",28-08-2025 07:00:00,21.224231,81.408350,PM2.5,4,53,27
India,Chhattisgarh,Bhilai,"Hathkhoj, Bhilai - CECB",28-08-2025 07:00:00,21.224231,81.408350,SO2,8,15,9
India,Chhattisgarh,Bhilai,"Hathkhoj, Bhilai - CECB",28-08-2025 07:00:00,21.224231,81.408350,CO,11,41,16
India,Chhattisgarh,Bhilai,"Hathkhoj, Bhilai - CECB",28-08-2025 07:00:00,21.224231,81.408350,OZONE,10,29,15
India,Chhattisgarh,Bilaspur,"Mangala, Bilaspur - NTPC",28-08-2025 07:00:00,22.08815,82.13737,PM2.5,24,86,53
India,Chhattisgarh,Bilaspur,"Mangala, Bilaspur - NTPC",28-08-2025 07:00:00,22.08815,82.13737,PM10,32,110,70
India,Chhattisgarh,Raipur,"Siltara Phase-II, Raipur - CECB",28-08-2025 07:00:00,21.371751,81.664929,SO2,2,9,6
India,Chhattisgarh,Tumidih,"OP Jindal Industrial Park, Tumidih - CECB",28-08-2025 07:00:00,22.06631475,83.33820077,PM2.5,10,39,24
India,Chhattisgarh,Tumidih,"OP Jindal Industrial Park, Tumidih - CECB",28-08-2025 07:00:00,22.06631475,83.33820077,NO2,7,40,18
India,Delhi,Delhi,"Alipur, Delhi - DPCC",28-08-2025 07:00:00,28.815329,77.153010,NO2,20,34,25
India,Delhi,Delhi,"Anand Vihar, Delhi - DPCC",28-08-2025 07:00:00,28.647622,77.3158090,NO2,20,76,41
India,Delhi,Delhi,"Ashok Vihar, Delhi - DPCC",28-08-2025 07:00:00,28.695381,77.181665,PM2.5,5,334,93
India,Bihar,Patna,"Muradpur, Patna - BSPCB",28-08-2025 07:00:00,25.619651,85.147382,PM10,51,113,88
India,Bihar,Patna,"Rajbansi Nagar, Patna - BSPCB",28-08-2025 07:00:00,25.599486,85.113666,PM10,35,57,45
India,Bihar,Patna,"Rajbansi Nagar, Patna - BSPCB",28-08-2025 07:00:00,25.599486,85.113666,NO2,19,27,23
India,Bihar,Patna,"Rajbansi Nagar, Patna - BSPCB",28-08-2025 07:00:00,25.599486,85.113666,SO2,4,9,7
India,Bihar,Patna,"Samanpura, Patna - BSPCB",28-08-2025 07:00:00,25.596727,85.085624,PM10,68,157,109
India,Bihar,Purnia,"Mariam Nagar, Purnia - BSPCB",28-08-2025 07:00:00,25.366336,87.117468,PM10,34,62,44
India,Bihar,Purnia,"Mariam Nagar, Purnia - BSPCB",28-08-2025 07:00:00,25.366336,87.117468,NH3,3,3,3
India,Bihar,Rajgir,"Dangi Tola, Rajgir - BSPCB",28-08-2025 07:00:00,25.03280,85.41948,OZONE,22,67,32
India,Bihar,Saharsa,"Police Line, Saharsa - BSPCB",28-08-2025 07:00:00,25.892357,86.590325,CO,35,40,38
India,Bihar,Samastipur,"DM Office_Kasipur, Samastipur - BSPCB",28-08-2025 07:00:00,25.859655,85.77944,PM10,NA,NA,NA
India,Bihar,Sasaram,"Dada Peer, Sasaram - BSPCB",28-08-2025 07:00:00,24.952822,84.002396,NH3,3,8,3
India,Bihar,Sasaram,"Dada Peer, Sasaram - BSPCB",28-08-2025 07:00:00,24.952822,84.002396,SO2,1,5,3
India,Chhattisgarh,Chhal,"Nawapara SECL Colony, Chhal - CECB",28-08-2025 07:00:00,22.118125,83.140608,NO2,40,82,60
India,Chhattisgarh,Korba,"Rampur, Korba - CECB",28-08-2025 07:00:00,22.368195,82.746431,NH3,1,1,1
India,Chhattisgarh,Korba,"Urja Nagar, Korba - CECB",28-08-2025 07:00:00,22.348441,82.549611,OZONE,NA,NA,NA
India,Chhattisgarh,Kunjemura,"OP Jindal School, Kunjemura - CECB",28-08-2025 07:00:00,22.126650,83.483212,NH3,2,2,2
India,Chhattisgarh,Kunjemura,"OP Jindal School, Kunjemura - CECB",28-08-2025 07:00:00,22.126650,83.483212,CO,16,50,22
India,Bihar,Siwan,"Chitragupta Nagar, Siwan - BSPCB",28-08-2025 07:00:00,26.2271665,84.3570427,PM10,22,27,25
India,Chandigarh,Chandigarh,"Sector 22, Chandigarh - CPCC",28-08-2025 07:00:00,30.735567,76.775714,CO,36,86,84
India,Chandigarh,Chandigarh,"Sector-25, Chandigarh - CPCC",28-08-2025 07:00:00,30.751462,76.762879,PM2.5,21,65,47
India,Delhi,Delhi,"Ashok Vihar, Delhi - DPCC",28-08-2025 07:00:00,28.695381,77.181665,NO2,15,76,40
India,Delhi,Delhi,"Bawana, Delhi - DPCC",28-08-2025 07:00:00,28.776200,77.051074,PM2.5,27,213,105
India,Delhi,Delhi,"Bawana, Delhi - DPCC",28-08-2025 07:00:00,28.776200,77.051074,PM10,37,141,95
India,Delhi,Delhi,"Bawana, Delhi - DPCC",28-08-2025 07:00:00,28.776200,77.051074,NO2,7,29,16
India,Delhi,Delhi,"Jawaharlal Nehru Stadium, Delhi - DPCC",28-08-2025 07:00:00,28.580280,77.233829,CO,84,125,118
India,Delhi,Delhi,"Lodhi Road, Delhi - IITM",28-08-2025 07:00:00,28.588333,77.221667,SO2,9,19,13
India,Delhi,Delhi,"Major Dhyan Chand National Stadium, Delhi - DPCC",28-08-2025 07:00:00,28.611281,77.237738,PM10,5,108,70
India,Delhi,Delhi,"Mandir Marg, Delhi - DPCC",28-08-2025 07:00:00,28.636429,77.201067,PM2.5,10,110,55
India,Delhi,Delhi,"Mandir Marg, Delhi - DPCC",28-08-2025 07:00:00,28.636429,77.201067,OZONE,7,36,12
India,Delhi,Delhi,"Mundka, Delhi - DPCC",28-08-2025 07:00:00,28.684678,77.076574,PM10,40,471,172
India,Delhi,Delhi,"Mundka, Delhi - DPCC",28-08-2025 07:00:00,28.684678,77.076574,NH3,7,7,7
India,Delhi,Delhi,"Mundka, Delhi - DPCC",28-08-2025 07:00:00,28.684678,77.076574,OZONE,5,40,6
India,Delhi,Delhi,"Pusa, Delhi - IMD",28-08-2025 07:00:00,28.636110,77.173332,OZONE,8,314,301
India,Delhi,Delhi,"R K Puram, Delhi - DPCC",28-08-2025 07:00:00,28.563262,77.186937,NH3,3,9,5
India,Delhi,Delhi,"R K Puram, Delhi - DPCC",28-08-2025 07:00:00,28.563262,77.186937,SO2,1,83,25
India,Delhi,Delhi,"R K Puram, Delhi - DPCC",28-08-2025 07:00:00,28.563262,77.186937,OZONE,5,37,7
India,Delhi,Delhi,"Rohini, Delhi - DPCC",28-08-2025 07:00:00,28.732528,77.119920,PM2.5,15,267,101
India,Delhi,Delhi,"Rohini, Delhi - DPCC",28-08-2025 07:00:00,28.732528,77.119920,PM10,28,274,131
India,Delhi,Delhi,"Rohini, Delhi - DPCC",28-08-2025 07:00:00,28.732528,77.119920,NO2,9,35,19
India,Delhi,Delhi,"Rohini, Delhi - DPCC",28-08-2025 07:00:00,28.732528,77.119920,SO2,3,5,4
India,Delhi,Delhi,"Shadipur, Delhi - CPCB",28-08-2025 07:00:00,28.6514781,77.1473105,OZONE,8,19,10
India,Delhi,Delhi,"Okhla Phase-2, Delhi - DPCC",28-08-2025 07:00:00,28.530785,77.271255,PM2.5,13,217,81
India,Delhi,Delhi,"Okhla Phase-2, Delhi - DPCC",28-08-2025 07:00:00,28.530785,77.271255,PM10,16,201,108
India,Delhi,Delhi,"Okhla Phase-2, Delhi - DPCC",28-08-2025 07:00:00,28.530785,77.271255,CO,19,127,93
India,Delhi,Delhi,"Okhla Phase-2, Delhi - DPCC",28-08-2025 07:00:00,28.530785,77.271255,OZONE,15,30,18
India,Delhi,Delhi,"Patparganj, Delhi - DPCC",28-08-2025 07:00:00,28.623763,77.287209,NO2,23,91,49
India,Delhi,Delhi,"Patparganj, Delhi - DPCC",28-08-2025 07:00:00,28.623763,77.287209,SO2,7,13,10
India,Delhi,Delhi,"Punjabi Bagh, Delhi - DPCC",28-08-2025 07:00:00,28.674045,77.131023,CO,32,122,60
India,Delhi,Delhi,"Pusa, Delhi - DPCC",28-08-2025 07:00:00,28.639652,77.146275,CO,42,112,92
India,Delhi,Delhi,"Pusa, Delhi - DPCC",28-08-2025 07:00:00,28.639652,77.146275,OZONE,2,16,4
India,Delhi,Delhi,"NSIT Dwarka, Delhi - CPCB",28-08-2025 07:00:00,28.60909,77.0325413,NO2,16,85,46
India,Delhi,Delhi,"NSIT Dwarka, Delhi - CPCB",28-08-2025 07:00:00,28.60909,77.0325413,OZONE,6,15,11
India,Delhi,Delhi,"Najafgarh, Delhi - DPCC",28-08-2025 07:00:00,28.570173,76.933762,PM2.5,10,78,37
India,Delhi,Delhi,"Najafgarh, Delhi - DPCC",28-08-2025 07:00:00,28.570173,76.933762,NH3,5,7,5
India,Delhi,Delhi,"Najafgarh, Delhi - DPCC",28-08-2025 07:00:00,28.570173,76.933762,CO,40,103,73
India,Delhi,Delhi,"Narela, Delhi - DPCC",28-08-2025 07:00:00,28.822836,77.101981,PM2.5,23,183,73
India,Delhi,Delhi,"Narela, Delhi - DPCC",28-08-2025 07:00:00,28.822836,77.101981,NO2,17,57,33
India,Delhi,Delhi,"Nehru Nagar, Delhi - DPCC",28-08-2025 07:00:00,28.567890,77.250515,NH3,3,6,4
India,Delhi,Delhi,"IGI Airport (T3), Delhi - IMD",28-08-2025 07:00:00,28.5627763,77.1180053,OZONE,1,6,5
India,Delhi,Delhi,"IHBAS, Dilshad Garden, Delhi - CPCB",28-08-2025 07:00:00,28.6811736,77.3025234,SO2,7,49,19
India,Delhi,Delhi,"IHBAS, Dilshad Garden, Delhi - CPCB",28-08-2025 07:00:00,28.6811736,77.3025234,OZONE,5,23,8
India,Delhi,Delhi,"ITO, Delhi - CPCB",28-08-2025 07:00:00,28.628624,77.241060,PM2.5,17,111,66
India,Delhi,Delhi,"Jahangirpuri, Delhi - DPCC",28-08-2025 07:00:00,28.732820,77.170633,PM10,73,346,176
India,Delhi,Delhi,"Jawaharlal Nehru Stadium, Delhi - DPCC",28-08-2025 07:00:00,28.580280,77.233829,PM10,27,127,95
India,Delhi,Delhi,"Chandni Chowk, Delhi - IITM",28-08-2025 07:00:00,28.656756,77.227234,CO,48,113,102
India,Delhi,Delhi,"DTU, Delhi - CPCB",28-08-2025 07:00:00,28.7500499,77.1112615,SO2,28,29,29
India,Delhi,Delhi,"DTU, Delhi - CPCB",28-08-2025 07:00:00,28.7500499,77.1112615,CO,18,42,35
India,Delhi,Delhi,"Dr. Karni Singh Shooting Range, Delhi - DPCC",28-08-2025 07:00:00,28.498571,77.264840,SO2,5,15,10
India,Delhi,Delhi,"Dwarka-Sector 8, Delhi - DPCC ",28-08-2025 07:00:00,28.5710274,77.0719006,CO,20,135,108
India,Delhi,Delhi,"Sonia Vihar, Delhi - DPCC",28-08-2025 07:00:00,28.710508,77.249485,PM10,20,240,103
India,Delhi,Delhi,"Sri Aurobindo Marg, Delhi - DPCC",28-08-2025 07:00:00,28.531346,77.190156,PM2.5,10,48,26
India,Delhi,Delhi,"Sri Aurobindo Marg, Delhi - DPCC",28-08-2025 07:00:00,28.531346,77.190156,NH3,4,8,5
India,Delhi,Delhi,"Vivek Vihar, Delhi - DPCC",28-08-2025 07:00:00,28.672342,77.315260,PM10,24,192,108
India,Delhi,Delhi,"Wazirpur, Delhi - DPCC",28-08-2025 07:00:00,28.699793,77.165453,NO2,23,83,46
India,Gujarat,Ahmedabad,"Maninagar, Ahmedabad - GPCB",28-08-2025 07:00:00,23.002657,72.591912,OZONE,12,42,30
India,Gujarat,Ahmedabad,"Raikhad, Ahmedabad - IITM",28-08-2025 07:00:00,23.020509,72.579261,PM10,44,98,65
India,Gujarat,Ahmedabad,"Raikhad, Ahmedabad - IITM",28-08-2025 07:00:00,23.020509,72.579261,SO2,12,16,13
India,Gujarat,Ahmedabad,"Raikhad, Ahmedabad - IITM",28-08-2025 07:00:00,23.020509,72.579261,CO,3,118,36
India,Gujarat,Ahmedabad,"Gyaspur, Ahmedabad - IITM",28-08-2025 07:00:00,22.977134,72.553024,CO,6,20,14
India,Haryana,Panchgaon,"Amity University, Panchgaon - IITM",28-08-2025 07:00:00,28.3153,76.9143,PM10,11,248,104
India,Haryana,Panchgaon,"Amity University, Panchgaon - IITM",28-08-2025 07:00:00,28.3153,76.9143,SO2,6,10,7
India,Himachal Pradesh,Baddi,"HIMUDA Complex Phase-1, Baddi - HPPCB",28-08-2025 07:00:00,30.943887,76.801991,NO2,15,78,31
India,Jharkhand,Dhanbad,"Sardar Patel Nagar, Dhanbad - JSPCB",28-08-2025 07:00:00,23.80569,86.44268,PM10,20,78,38
India,Jharkhand,Jorapokhar,"Tata Stadium, Jorapokhar - JSPCB",28-08-2025 07:00:00,23.707909,86.414670,PM10,47,84,63
India,Karnataka,Bagalkot,"Vidayagiri, Bagalkot - KSPCB",28-08-2025 07:00:00,16.172806,75.659694,PM10,42,43,42
India,Karnataka,Bagalkot,"Vidayagiri, Bagalkot - KSPCB",28-08-2025 07:00:00,16.172806,75.659694,NH3,1,2,1
India,Karnataka,Chikkaballapur,"Chikkaballapur Rural, Chikkaballapur - KSPCB",28-08-2025 07:00:00,13.428828,77.731418,OZONE,17,21,20
India,Karnataka,Chikkamagaluru,"Kalyana Nagara, Chikkamagaluru - KSPCB",28-08-2025 07:00:00,13.328028,75.797056,SO2,3,5,3
India,Karnataka,Chikkamagaluru,"Kalyana Nagara, Chikkamagaluru - KSPCB",28-08-2025 07:00:00,13.328028,75.797056,CO,11,11,11
India,Karnataka,Davanagere,"Devaraj Urs Badavane, Davanagere - KSPCB",28-08-2025 07:00:00,14.475800,75.905200,CO,19,20,20
India,Karnataka,Hubballi,"Lingaraj Nagar, Hubballi - KSPCB",28-08-2025 07:00:00,15.3714823,75.1160168,NO2,7,7,7
India,Karnataka,Kalaburagi,"Lal Bahadur Shastri Nagar, Kalaburagi - KSPCB",28-08-2025 07:00:00,17.321993,76.822628,NO2,12,12,12
India,Karnataka,Bengaluru,"Peenya, Bengaluru - CPCB",28-08-2025 07:00:00,13.0270199,77.494094,OZONE,24,25,25
India,Karnataka,Bengaluru,"RVCE-Mailasandra, Bengaluru - KSPCB",28-08-2025 07:00:00,12.921418,77.502466,PM10,NA,NA,NA
India,Karnataka,Bengaluru,"Sanegurava Halli, Bengaluru - KSPCB",28-08-2025 07:00:00,12.990328,77.5431385,NO2,17,21,19
India,Karnataka,Bengaluru,"Shivapura_Peenya, Bengaluru - KSPCB",28-08-2025 07:00:00,13.0246342,77.5080115,SO2,3,7,5
India,Karnataka,Bengaluru,"Shivapura_Peenya, Bengaluru - KSPCB",28-08-2025 07:00:00,13.0246342,77.5080115,CO,25,38,27
India,Karnataka,Bengaluru,"Silk Board, Bengaluru - KSPCB",28-08-2025 07:00:00,12.917348,77.622813,NH3,2,2,2
India,Karnataka,Bengaluru,"Silk Board, Bengaluru - KSPCB",28-08-2025 07:00:00,12.917348,77.622813,OZONE,24,34,26
India,Gujarat,Gandhinagar,"IIPHG Lekawada, Gandhinagar - IITM",28-08-2025 07:00:00,23.243639,72.68994,SO2,6,9,8
India,Gujarat,Gandhinagar,"Sector-10, Gandhinagar - GPCB",28-08-2025 07:00:00,23.221714,72.654328,NO2,15,17,16
India,Gujarat,Gandhinagar,"Sector-10, Gandhinagar - GPCB",28-08-2025 07:00:00,23.221714,72.654328,NH3,2,2,2
India,Gujarat,Vapi,"Phase-1 GIDC, Vapi - GPCB",28-08-2025 07:00:00,20.362421,72.918013,PM2.5,NA,NA,NA
India,Haryana,Gurugram,"NISE Gwal Pahari, Gurugram - IMD",28-08-2025 07:00:00,28.422681,77.148944,PM10,13,90,43
India,Gujarat,Ahmedabad,"SVPI Airport Hansol, Ahmedabad - IITM",28-08-2025 07:00:00,23.076793,72.627874,OZONE,4,31,6
India,Gujarat,Ahmedabad,"Sardar Vallabhbhai Patel Stadium, Ahmedabad - IITM",28-08-2025 07:00:00,23.043070,72.562968,PM2.5,16,57,35
India,Gujarat,Ahmedabad,"Sardar Vallabhbhai Patel Stadium, Ahmedabad - IITM",28-08-2025 07:00:00,23.043070,72.562968,NO2,17,64,29
India,Gujarat,Ahmedabad,"Sardar Vallabhbhai Patel Stadium, Ahmedabad - IITM",28-08-2025 07:00:00,23.043070,72.562968,CO,21,88,44
India,Gujarat,Ankleshwar,"GIDC, Ankleshwar - GPCB",28-08-2025 07:00:00,21.613267,73.010555,PM2.5,37,72,48
India,Karnataka,Bengaluru,"BTM Layout, Bengaluru - CPCB",28-08-2025 07:00:00,12.9135218,77.5950804,PM2.5,24,64,30
India,Karnataka,Bengaluru,"BTM Layout, Bengaluru - CPCB",28-08-2025 07:00:00,12.9135218,77.5950804,OZONE,23,24,23
India,Karnataka,Bengaluru,"Bapuji Nagar, Bengaluru - KSPCB",28-08-2025 07:00:00,12.951913,77.539784,NH3,1,1,1
India,Karnataka,Bengaluru,"City Railway Station, Bengaluru - KSPCB",28-08-2025 07:00:00,12.9756843,77.5660749,CO,NA,NA,NA
India,Karnataka,Bengaluru,"Jayanagar 5th Block, Bengaluru - KSPCB",28-08-2025 07:00:00,12.920984,77.584908,CO,2,17,8
India,Karnataka,Bengaluru,"Jayanagar 5th Block, Bengaluru - KSPCB",28-08-2025 07:00:00,12.920984,77.584908,OZONE,14,114,40
India,Karnataka,Bengaluru,"Jigani, Bengaluru - KSPCB",28-08-2025 07:00:00,12.7816279,77.6299145,SO2,14,15,15
India,Karnataka,Bengaluru,"Peenya, Bengaluru - CPCB",28-08-2025 07:00:00,13.0270199,77.494094,PM2.5,18,59,31
India,Gujarat,Ahmedabad,"SAC ISRO Satellite, Ahmedabad - IITM",28-08-2025 07:00:00,23.023389,72.515201,PM2.5,33,84,48
India,Gujarat,Ahmedabad,"SAC ISRO Satellite, Ahmedabad - IITM",28-08-2025 07:00:00,23.023389,72.515201,OZONE,1,27,6
India,Gujarat,Ahmedabad,"SVPI Airport Hansol, Ahmedabad - IITM",28-08-2025 07:00:00,23.076793,72.627874,NO2,15,99,42
India,Gujarat,Gandhinagar,"GIFT City, Gandhinagar - IITM",28-08-2025 07:00:00,23.163798,72.677768,PM10,41,96,62
India,Karnataka,Kalaburagi,"Lal Bahadur Shastri Nagar, Kalaburagi - KSPCB",28-08-2025 07:00:00,17.321993,76.822628,CO,34,36,36
India,Karnataka,Kalaburagi,"Mahatma Basaveswar Colony, Kalaburgi - KSPCB",28-08-2025 07:00:00,17.336318,76.847397,PM2.5,15,30,24
India,Karnataka,Kalaburagi,"Mahatma Basaveswar Colony, Kalaburgi - KSPCB",28-08-2025 07:00:00,17.336318,76.847397,NO2,14,17,16
India,Karnataka,Kalaburagi,"Mahatma Basaveswar Colony, Kalaburgi - KSPCB",28-08-2025 07:00:00,17.336318,76.847397,CO,30,74,39
India,Karnataka,Karwar,"KHB Colony, Karwar - KSPCB",28-08-2025 07:00:00,14.816666,74.141003,PM2.5,2,20,7
India,Karnataka,Karwar,"KHB Colony, Karwar - KSPCB",28-08-2025 07:00:00,14.816666,74.141003,PM10,2,25,10
India,Karnataka,Karwar,"KHB Colony, Karwar - KSPCB",28-08-2025 07:00:00,14.816666,74.141003,NO2,2,44,13
India,Karnataka,Karwar,"KHB Colony, Karwar - KSPCB",28-08-2025 07:00:00,14.816666,74.141003,CO,7,9,8
India,Karnataka,Madikeri,"Stuart Hill, Madikeri - KSPCB",28-08-2025 07:00:00,12.415911,75.735050,SO2,7,7,7
India,Kerala,Kannur,"Thavakkara, Kannur - Kerala PCB",28-08-2025 07:00:00,11.875000,75.373200,NO2,13,15,14
India,Kerala,Kannur,"Thavakkara, Kannur - Kerala PCB",28-08-2025 07:00:00,11.875000,75.373200,OZONE,28,30,29
India,Kerala,Kollam,"Polayathode, Kollam - Kerala PCB",28-08-2025 07:00:00,8.8787,76.6073,PM10,20,41,30
India,Kerala,Kollam,"Polayathode, Kollam - Kerala PCB",28-08-2025 07:00:00,8.8787,76.6073,NO2,9,12,9
India,Kerala,Thiruvananthapuram,"Kariavattom, Thiruvananthapuram - Kerala PCB",28-08-2025 07:00:00,8.563700,76.886500,SO2,1,7,2
India,Kerala,Thiruvananthapuram,"Plammoodu, Thiruvananthapuram - Kerala PCB",28-08-2025 07:00:00,8.5149093,76.9435879,SO2,10,29,18
India,Kerala,Thiruvananthapuram,"Plammoodu, Thiruvananthapuram - Kerala PCB",28-08-2025 07:00:00,8.5149093,76.9435879,CO,5,16,7
India,Kerala,Thiruvananthapuram,"Plammoodu, Thiruvananthapuram - Kerala PCB",28-08-2025 07:00:00,8.5149093,76.9435879,OZONE,13,17,15
India,Madhya Pradesh,Bhopal,"Idgah Hills, Bhopal - MPPCB",28-08-2025 07:00:00,23.264759,77.381568,NH3,2,3,3
India,Madhya Pradesh,Bhopal,"Paryavaran Parisar, Bhopal - MPPCB",28-08-2025 07:00:00,23.210494,77.425409,PM2.5,17,47,30
India,Madhya Pradesh,Bhopal,"Paryavaran Parisar, Bhopal - MPPCB",28-08-2025 07:00:00,23.210494,77.425409,PM10,27,76,42
India,Madhya Pradesh,Bhopal,"T T Nagar, Bhopal - MPPCB",28-08-2025 07:00:00,23.233584,77.400574,NO2,12,31,18
India,Madhya Pradesh,Bhopal,"T T Nagar, Bhopal - MPPCB",28-08-2025 07:00:00,23.233584,77.400574,OZONE,7,20,12
India,Madhya Pradesh,Indore,"Maguda Nagar, Indore - IMC",28-08-2025 07:00:00,22.7524,75.8872,NO2,1,2,2
India,Madhya Pradesh,Indore,"Maguda Nagar, Indore - IMC",28-08-2025 07:00:00,22.7524,75.8872,SO2,32,41,35
India,Madhya Pradesh,Indore,"Regional Park, Indore - IMC",28-08-2025 07:00:00,22.6780,75.8559,SO2,46,50,49
India,Madhya Pradesh,Indore,"Residency Area, Indore - IMC",28-08-2025 07:00:00,22.7084,75.8815,NO2,13,18,15
India,Madhya Pradesh,Indore,"Residency Area, Indore - IMC",28-08-2025 07:00:00,22.7084,75.8815,CO,12,14,13
India,Madhya Pradesh,Gwalior,"Maharaj Bada, Gwalior - MPPCB",28-08-2025 07:00:00,26.200388,78.147714,SO2,5,12,8
India,Madhya Pradesh,Indore,"Airport Area, Indore - IMC",28-08-2025 07:00:00,22.7289,75.8076,PM2.5,2,20,11
India,Madhya Pradesh,Indore,"Airport Area, Indore - IMC",28-08-2025 07:00:00,22.7289,75.8076,SO2,18,18,18
India,Karnataka,Mysuru,"Hebbal 1st Stage, Mysuru - KSPCB",28-08-2025 07:00:00,12.21041,76.37376,OZONE,7,43,8
India,Karnataka,Ramanagara,"Vijay Nagar, Ramanagara - KSPCB",28-08-2025 07:00:00,12.733409,77.298051,PM2.5,NA,NA,NA
India,Karnataka,Ramanagara,"Vijay Nagar, Ramanagara - KSPCB",28-08-2025 07:00:00,12.733409,77.298051,SO2,NA,NA,NA
India,Madhya Pradesh,Gwalior,"City Center, Gwalior - MPPCB",28-08-2025 07:00:00,26.203442,78.193251,NH3,2,2,2
India,Madhya Pradesh,Gwalior,"City Center, Gwalior - MPPCB",28-08-2025 07:00:00,26.203442,78.193251,OZONE,21,62,23
India,Madhya Pradesh,Gwalior,"Deen Dayal Nagar, Gwalior - MPPCB",28-08-2025 07:00:00,26.259242,78.216432,NH3,2,5,3
India,Karnataka,Yadgir,"Collector Office, Yadgir - KSPCB",28-08-2025 07:00:00,16.7602,77.1428,PM2.5,2,22,10
India,Karnataka,Yadgir,"Collector Office, Yadgir - KSPCB",28-08-2025 07:00:00,16.7602,77.1428,OZONE,18,19,18
India,Madhya Pradesh,Dewas,"Bhopal Chauraha, Dewas - MPPCB",28-08-2025 07:00:00,22.9682591,76.064118,SO2,3,55,26
India,Maharashtra,Dhule,"Deopur, Dhule - MPCB",28-08-2025 07:00:00,20.918946,74.776388,CO,14,31,16
India,Maharashtra,Jalgaon,"Prabhat Colony, Jalgaon - MPCB",28-08-2025 07:00:00,21.001264,75.565602,NH3,2,3,2
India,Maharashtra,Kalyan,"Khadakpada, Kalyan - MPCB",28-08-2025 07:00:00,19.25292,73.142019,PM2.5,2,47,23
India,Maharashtra,Kalyan,"Khadakpada, Kalyan - MPCB",28-08-2025 07:00:00,19.25292,73.142019,SO2,6,8,7
India,Maharashtra,Kolhapur,"Shivaji University, Kolhapur - MPCB",28-08-2025 07:00:00,16.6870449,74.2505872,PM10,NA,NA,NA
India,Maharashtra,Kolhapur,"Sinchan Bhavan, Kolhapur - MPCB",28-08-2025 07:00:00,16.7143745,74.2426398,NO2,2,7,4
India,Maharashtra,Kolhapur,"Sinchan Bhavan, Kolhapur - MPCB",28-08-2025 07:00:00,16.7143745,74.2426398,SO2,2,3,2
India,Maharashtra,Kolhapur,"Sinchan Bhavan, Kolhapur - MPCB",28-08-2025 07:00:00,16.7143745,74.2426398,OZONE,7,24,14
India,Madhya Pradesh,Jabalpur,"Govindh Bhavan Colony, Jabalpur - JMC",28-08-2025 07:00:00,23.163174,79.973061,NO2,35,37,36
India,Madhya Pradesh,Jabalpur,"Govindh Bhavan Colony, Jabalpur - JMC",28-08-2025 07:00:00,23.163174,79.973061,SO2,23,29,27
India,Madhya Pradesh,Jabalpur,"Govindh Bhavan Colony, Jabalpur - JMC",28-08-2025 07:00:00,23.163174,79.973061,CO,26,56,31
India,Madhya Pradesh,Jabalpur,"Gupteshwar, Jabalpur - JMC",28-08-2025 07:00:00,23.142888,79.916147,NH3,2,2,2
India,Madhya Pradesh,Jabalpur,"Marhatal, Jabalpur - MPPCB",28-08-2025 07:00:00,23.168606,79.932247,PM10,26,74,45
India,Madhya Pradesh,Jabalpur,"Suhagi, Jabalpur - JMC",28-08-2025 07:00:00,23.218135,79.957770,NO2,20,31,25
India,Madhya Pradesh,Katni,"Gole Bazar, Katni - MPPCB",28-08-2025 07:00:00,23.50016,80.23284,PM2.5,29,70,51
India,Maharashtra,Akola,"Ramdaspeth, Akola - MPCB",28-08-2025 07:00:00,20.719516,77.000253,PM10,19,38,27
India,Maharashtra,Akola,"Ramdaspeth, Akola - MPCB",28-08-2025 07:00:00,20.719516,77.000253,SO2,16,19,18
India,Maharashtra,Amravati,"Shivneri Colony, Amravati - MPCB",28-08-2025 07:00:00,20.9402359,77.7895248,NH3,2,2,2
India,Maharashtra,Amravati,"Shri Shivaji Science College, Amravati - MPCB",28-08-2025 07:00:00,20.939198,77.765701,PM10,17,41,28
India,Maharashtra,Amravati,"Shri Shivaji Science College, Amravati - MPCB",28-08-2025 07:00:00,20.939198,77.765701,CO,30,39,32
India,Maharashtra,Aurangabad,"MIDC Chilkalthana, Aurangabad - MPCB",28-08-2025 07:00:00,19.875620,75.387310,PM10,11,33,22
India,Maharashtra,Aurangabad,"MIDC Chilkalthana, Aurangabad - MPCB",28-08-2025 07:00:00,19.875620,75.387310,CO,7,16,10
India,Maharashtra,Bhiwandi,"Gokul Nagar, Bhiwandi - MPCB",28-08-2025 07:00:00,19.309073,73.057223,OZONE,11,40,13
India,Maharashtra,Boisar,"Khaira, Boisar - MPCB",28-08-2025 07:00:00,19.786089,72.757971,NH3,10,16,13
India,Maharashtra,Boisar,"Khaira, Boisar - MPCB",28-08-2025 07:00:00,19.786089,72.757971,SO2,15,16,15
India,Maharashtra,Chandrapur,"Chauhan Colony, Chandrapur - MPCB",28-08-2025 07:00:00,19.962900,79.298714,CO,22,34,25
India,Maharashtra,Chandrapur,"MIDC Khutala, Chandrapur - MPCB",28-08-2025 07:00:00,19.9775302,79.2337086,NH3,1,2,1
India,Maharashtra,Dhule,"Deopur, Dhule - MPCB",28-08-2025 07:00:00,20.918946,74.776388,NO2,3,14,6
India,Madhya Pradesh,Ratlam,"Shasthri Nagar, Ratlam - IPCA Lab",28-08-2025 07:00:00,23.331731,75.045981,SO2,31,32,32
India,Madhya Pradesh,Sagar,"Civil Lines, Sagar - MPPCB",28-08-2025 07:00:00,23.838586,78.759431,NH3,NA,NA,NA
India,Madhya Pradesh,Satna,"Bandhavgar Colony, Satna - Birla Cement",28-08-2025 07:00:00,24.58434363,80.8549414,CO,18,27,20
India,Madhya Pradesh,Satna,"Bandhavgar Colony, Satna - Birla Cement",28-08-2025 07:00:00,24.58434363,80.8549414,OZONE,7,18,8
India,Madhya Pradesh,Singrauli,"Suryakiran Bhawan NCL, Singrauli - MPPCB",28-08-2025 07:00:00,24.108970,82.645580,PM2.5,51,270,118
India,Maharashtra,Aurangabad,"Rachnakar Colony, Aurangabad - MPCB",28-08-2025 07:00:00,19.863756,75.321188,NO2,19,26,23
India,Maharashtra,Badlapur,"Katrap, Badlapur - MPCB",28-08-2025 07:00:00,19.16485,73.23409,PM2.5,21,79,43
India,Maharashtra,Badlapur,"Katrap, Badlapur - MPCB",28-08-2025 07:00:00,19.16485,73.23409,NO2,29,57,42
