country,state,city,station,last_update,latitude,longitude,pollutant_id,min_value,max_value,avg_value
India,Andhra_Pradesh,Vijayawada,"Rajiv Nagar, Vijayawada - APPCB",06-10-2025 07:00:00,16.554731,80.649110,NO2,6,6,6
India,Andhra_Pradesh,Vijayawada,"Rajiv Nagar, Vijayawada - APPCB",06-10-2025 07:00:00,16.554731,80.649110,CO,22,35,24
India,Andhra_Pradesh,Visakhapatnam,"GVM Corporation, Visakhapatnam - APPCB",06-10-2025 07:00:00,17.72,83.3,PM10,42,100,65
India,Andhra_Pradesh,Visakhapatnam,"GVM Corporation, Visakhapatnam - APPCB",06-10-2025 07:00:00,17.72,83.3,NH3,3,3,3
India,Arunachal_Pradesh,Naharlagun,"Naharlagun, Naharlagun - APSPCB",06-10-2025 07:00:00,27.103358,93.679645,NO2,5,6,5
India,Arunachal_Pradesh,Naharlagun,"Naharlagun, Naharlagun - APSPCB",06-10-2025 07:00:00,27.103358,93.679645,CO,6,22,8
India,Arunachal_Pradesh,Naharlagun,"Naharlagun, Naharlagun - APSPCB",06-10-2025 07:00:00,27.103358,93.679645,OZONE,4,5,5
India,Bihar,Gaya,"Kareemganj, Gaya - BSPCB",06-10-2025 07:00:00,24.792403,84.992416,NH3,4,6,5
India,Bihar,Gaya,"Kareemganj, Gaya - BSPCB",06-10-2025 07:00:00,24.792403,84.992416,SO2,15,17,16
India,Bihar,Gaya,"SFTI Kusdihra, Gaya - BSPCB",06-10-2025 07:00:00,24.762518,84.982348,NO2,NA,NA,NA
India,Bihar,Hajipur,"Industrial Area, Hajipur - BSPCB",06-10-2025 07:00:00,25.697189,85.245900,OZONE,6,46,13
India,Bihar,Katihar,"Mirchaibari, Katihar - BSPCB",06-10-2025 07:00:00,25.560083,87.553265,PM10,29,31,30
India,Bihar,Katihar,"Mirchaibari, Katihar - BSPCB",06-10-2025 07:00:00,25.560083,87.553265,NH3,1,1,1
India,Assam,Sivasagar,"Girls College, Sivasagar - PCBA",06-10-2025 07:00:00,26.987634,94.636574,CO,9,20,19
India,Assam,Sivasagar,"Girls College, Sivasagar - PCBA",06-10-2025 07:00:00,26.987634,94.636574,OZONE,2,6,3
India,Bihar,Araria,"Kharahiya Basti, Araria - BSPCB",06-10-2025 07:00:00,26.146529,87.454184,NO2,8,93,37
India,Bihar,Araria,"Kharahiya Basti, Araria - BSPCB",06-10-2025 07:00:00,26.146529,87.454184,CO,10,32,25
India,Bihar,Arrah,"New DM Office, Arrah - BSPCB",06-10-2025 07:00:00,25.5626095,84.663264,PM2.5,28,30,29
India,Bihar,Arrah,"New DM Office, Arrah - BSPCB",06-10-2025 07:00:00,25.5626095,84.663264,OZONE,5,26,8
India,Bihar,Manguraha,"Forest Rest House, Manguraha - BSPCB",06-10-2025 07:00:00,27.308328,84.531742,OZONE,7,18,11
India,Bihar,Muzaffarpur,"MIT-Daudpur Kothi, Muzaffarpur - BSPCB",06-10-2025 07:00:00,26.1403345,85.3650192,PM10,21,32,27
India,Bihar,Muzaffarpur,"MIT-Daudpur Kothi, Muzaffarpur - BSPCB",06-10-2025 07:00:00,26.1403345,85.3650192,NO2,NA,NA,NA
India,Bihar,Patna,"DRM Office Danapur, Patna - BSPCB",06-10-2025 07:00:00,25.586562,85.043586,PM2.5,NA,NA,NA
India,Bihar,Patna,"DRM Office Danapur, Patna - BSPCB",06-10-2025 07:00:00,25.586562,85.043586,PM10,NA,NA,NA
India,Andhra_Pradesh,Rajamahendravaram,"Anand Kala Kshetram, Rajamahendravaram - APPCB",06-10-2025 07:00:00,16.9872867,81.7363176,NO2,8,44,15
India,Andhra_Pradesh,Rajamahendravaram,"Anand Kala Kshetram, Rajamahendravaram - APPCB",06-10-2025 07:00:00,16.9872867,81.7363176,NH3,2,3,2
India,Andhra_Pradesh,Tirumala,"Toll Gate, Tirumala - APPCB",06-10-2025 07:00:00,13.67,79.35,OZONE,6,18,14
India,Andhra_Pradesh,Tirupati,"Vaikuntapuram, Tirupati - APPCB",06-10-2025 07:00:00,13.615387,79.409230,OZONE,32,35,34
India,Bihar,Patna,"DRM Office Danapur, Patna - BSPCB",06-10-2025 07:00:00,25.586562,85.043586,SO2,NA,NA,NA
India,Bihar,Patna,"Govt. High School Shikarpur, Patna - BSPCB",06-10-2025 07:00:00,25.592539,85.227158,NO2,13,18,16
India,Bihar,Patna,"Muradpur, Patna - BSPCB",06-10-2025 07:00:00,25.619651,85.147382,PM2.5,NA,NA,NA
India,Bihar,Patna,"Samanpura, Patna - BSPCB",06-10-2025 07:00:00,25.596727,85.085624,SO2,1,5,2
India,Assam,Nagaon,"Christianpatty, Nagaon - PCBA",06-10-2025 07:00:00,26.349082,92.68449,PM2.5,51,62,56
India,Assam,Nalbari,"Bata Chowk, Nalbari - PCBA",06-10-2025 07:00:00,26.446912,91.439057,NO2,2,10,6
India,Assam,Silchar,"Tarapur, Silchar - PCBA",06-10-2025 07:00:00,24.82827,92.79525,PM2.5,38,39,38
India,Assam,Silchar,"Tarapur, Silchar - PCBA",06-10-2025 07:00:00,24.82827,92.79525,PM10,47,54,49
India,Bihar,Begusarai,"Lohiyanagar, Begusarai - BSPCB",06-10-2025 07:00:00,25.42742023,86.13886079,PM10,1,45,24
India,Bihar,Begusarai,"Lohiyanagar, Begusarai - BSPCB",06-10-2025 07:00:00,25.42742023,86.13886079,CO,40,68,55
India,Bihar,Gaya,"Collectorate, Gaya - BSPCB",06-10-2025 07:00:00,24.7955,84.9994,PM2.5,NA,NA,NA
India,Andhra_Pradesh,Amaravati,"Secretariat, Amaravati - APPCB",06-10-2025 07:00:00,16.5150833,80.5181667,PM10,NA,NA,NA
India,Andhra_Pradesh,Amaravati,"Secretariat, Amaravati - APPCB",06-10-2025 07:00:00,16.5150833,80.5181667,NH3,NA,NA,NA
India,Andhra_Pradesh,Chittoor,"Gangineni Cheruvu, Chittoor - APPCB",06-10-2025 07:00:00,13.204880,79.097889,SO2,NA,NA,NA
India,Assam,Guwahati,"LGBI Airport, Guwahati - PCBA",06-10-2025 07:00:00,26.10887,91.589544,SO2,NA,NA,NA
India,Assam,Guwahati,"Pan Bazaar, Guwahati - PCBA",06-10-2025 07:00:00,26.187500,91.744194,OZONE,17,18,18
India,Bihar,Purnia,"Mariam Nagar, Purnia - BSPCB",06-10-2025 07:00:00,25.366336,87.117468,NO2,5,6,6
India,Bihar,Purnia,"Mariam Nagar, Purnia - BSPCB",06-10-2025 07:00:00,25.366336,87.117468,SO2,2,81,16
India,Bihar,Rajgir,"Dangi Tola, Rajgir - BSPCB",06-10-2025 07:00:00,25.03280,85.41948,PM2.5,NA,NA,NA
India,Bihar,Samastipur,"DM Office_Kasipur, Samastipur - BSPCB",06-10-2025 07:00:00,25.859655,85.77944,NH3,2,2,2
India,Bihar,Sasaram,"Dada Peer, Sasaram - BSPCB",06-10-2025 07:00:00,24.952822,84.002396,PM2.5,NA,NA,NA
India,Chandigarh,Chandigarh,"Sector 22, Chandigarh - CPCC",06-10-2025 07:00:00,30.735567,76.775714,PM2.5,15,83,41
India,Chhattisgarh,Milupara,"Govt. Higher Secondary School, Milupara - CECB",06-10-2025 07:00:00,22.1910172,83.5197009,NO2,NA,NA,NA
India,Chhattisgarh,Raipur,"AIIMS, Raipur - CECB",06-10-2025 07:00:00,21.258815,81.578979,CO,22,34,24
India,Chhattisgarh,Raipur,"Bhatagaon New ISBT, Raipur - CECB",06-10-2025 07:00:00,21.219665,81.630094,PM2.5,10,21,15
India,Chhattisgarh,Raipur,"Siltara Phase-II, Raipur - CECB",06-10-2025 07:00:00,21.371751,81.664929,PM10,NA,NA,NA
India,Chhattisgarh,Raipur,"Siltara Phase-II, Raipur - CECB",06-10-2025 07:00:00,21.371751,81.664929,SO2,NA,NA,NA
India,Chhattisgarh,Tumidih,"OP Jindal Industrial Park, Tumidih - CECB",06-10-2025 07:00:00,22.06631475,83.33820077,PM10,12,179,41
India,Delhi,Delhi,"Dwarka-Sector 8, Delhi - DPCC ",06-10-2025 07:00:00,28.5710274,77.0719006,NO2,15,135,53
India,Delhi,Delhi,"Dwarka-Sector 8, Delhi - DPCC ",06-10-2025 07:00:00,28.5710274,77.0719006,CO,34,138,54
India,Delhi,Delhi,"Dwarka-Sector 8, Delhi - DPCC ",06-10-2025 07:00:00,28.5710274,77.0719006,OZONE,1,100,24
India,Delhi,Delhi,"IGI Airport (T3), Delhi - IMD",06-10-2025 07:00:00,28.5627763,77.1180053,PM2.5,3,137,61
India,Delhi,Delhi,"ITO, Delhi - CPCB",06-10-2025 07:00:00,28.628624,77.241060,SO2,3,27,13
India,Delhi,Delhi,"ITO, Delhi - CPCB",06-10-2025 07:00:00,28.628624,77.241060,OZONE,29,51,30
India,Delhi,Delhi,"Jahangirpuri, Delhi - DPCC",06-10-2025 07:00:00,28.732820,77.170633,NH3,7,7,7
India,Chhattisgarh,Bilaspur,"Mangala, Bilaspur - NTPC",06-10-2025 07:00:00,22.08815,82.13737,PM2.5,9,476,79
India,Chhattisgarh,Bilaspur,"Mangala, Bilaspur - NTPC",06-10-2025 07:00:00,22.08815,82.13737,NO2,NA,NA,NA
India,Chhattisgarh,Bilaspur,"Mangala, Bilaspur - NTPC",06-10-2025 07:00:00,22.08815,82.13737,SO2,3,16,12
India,Chhattisgarh,Chhal,"Nawapara SECL Colony, Chhal - CECB",06-10-2025 07:00:00,22.118125,83.140608,PM2.5,NA,NA,NA
India,Chhattisgarh,Chhal,"Nawapara SECL Colony, Chhal - CECB",06-10-2025 07:00:00,22.118125,83.140608,CO,NA,NA,NA
India,Chhattisgarh,Korba,"Rampur, Korba - CECB",06-10-2025 07:00:00,22.368195,82.746431,PM2.5,11,11,11
India,Chhattisgarh,Korba,"Urja Nagar, Korba - CECB",06-10-2025 07:00:00,22.348441,82.549611,OZONE,35,36,35
India,Delhi,Delhi,"Bawana, Delhi - DPCC",06-10-2025 07:00:00,28.776200,77.051074,PM10,40,195,128
India,Delhi,Delhi,"Burari Crossing, Delhi - IMD",06-10-2025 07:00:00,28.7256504,77.2011573,PM2.5,13,310,177
India,Delhi,Delhi,"CRRI Mathura Road, Delhi - IMD",06-10-2025 07:00:00,28.5512005,77.2735737,PM10,29,273,133
India,Delhi,Delhi,"Dr. Karni Singh Shooting Range, Delhi - DPCC",06-10-2025 07:00:00,28.498571,77.264840,SO2,3,7,6
India,Chandigarh,Chandigarh,"Sector-53, Chandigarh - CPCC",06-10-2025 07:00:00,30.719859,76.738637,PM2.5,NA,NA,NA
India,Chandigarh,Chandigarh,"Sector-53, Chandigarh - CPCC",06-10-2025 07:00:00,30.719859,76.738637,NH3,2,5,3
India,Chandigarh,Chandigarh,"Sector-53, Chandigarh - CPCC",06-10-2025 07:00:00,30.719859,76.738637,SO2,6,21,13
India,Chandigarh,Chandigarh,"Sector-53, Chandigarh - CPCC",06-10-2025 07:00:00,30.719859,76.738637,OZONE,4,60,11
India,Chhattisgarh,Bhilai,"Hathkhoj, Bhilai - CECB",06-10-2025 07:00:00,21.224231,81.408350,NO2,8,29,17
India,Delhi,Delhi,"Alipur, Delhi - DPCC",06-10-2025 07:00:00,28.815329,77.153010,OZONE,3,64,14
India,Delhi,Delhi,"Anand Vihar, Delhi - DPCC",06-10-2025 07:00:00,28.647622,77.3158090,NO2,10,45,27
India,Delhi,Delhi,"Ashok Vihar, Delhi - DPCC",06-10-2025 07:00:00,28.695381,77.181665,PM10,36,174,119
India,Delhi,Delhi,"Aya Nagar, Delhi - IMD",06-10-2025 07:00:00,28.4706914,77.1099364,PM2.5,5,215,66
India,Delhi,Delhi,"Major Dhyan Chand National Stadium, Delhi - DPCC",06-10-2025 07:00:00,28.611281,77.237738,CO,19,110,86
India,Delhi,Delhi,"Mandir Marg, Delhi - DPCC",06-10-2025 07:00:00,28.636429,77.201067,NO2,18,42,26
India,Delhi,Delhi,"Mandir Marg, Delhi - DPCC",06-10-2025 07:00:00,28.636429,77.201067,CO,4,56,16
India,Delhi,Delhi,"Mandir Marg, Delhi - DPCC",06-10-2025 07:00:00,28.636429,77.201067,OZONE,12,217,38
India,Chandigarh,Chandigarh,"Sector 22, Chandigarh - CPCC",06-10-2025 07:00:00,30.735567,76.775714,CO,31,64,52
India,Chandigarh,Chandigarh,"Sector-25, Chandigarh - CPCC",06-10-2025 07:00:00,30.751462,76.762879,NH3,5,8,6
India,Haryana,Faridabad,"New Industrial Town, Faridabad - HSPCB",06-10-2025 07:00:00,28.39072,77.30059,NO2,23,27,25
India,Haryana,Faridabad,"New Industrial Town, Faridabad - HSPCB",06-10-2025 07:00:00,28.39072,77.30059,OZONE,26,34,29
India,Haryana,Faridabad,"Sector 11, Faridabad - HSPCB",06-10-2025 07:00:00,28.376058,77.315741,PM10,86,94,90
India,Haryana,Faridabad,"Sector 30, Faridabad - HSPCB",06-10-2025 07:00:00,28.4417,77.3217,PM2.5,41,43,42
India,Haryana,Faridabad,"Sector 30, Faridabad - HSPCB",06-10-2025 07:00:00,28.4417,77.3217,NO2,35,38,37
India,Haryana,Faridabad,"Sector 30, Faridabad - HSPCB",06-10-2025 07:00:00,28.4417,77.3217,SO2,6,6,6
India,Haryana,Gurugram,"NISE Gwal Pahari, Gurugram - IMD",06-10-2025 07:00:00,28.422681,77.148944,OZONE,13,35,21
India,Haryana,Gurugram,"Sector-51, Gurugram - HSPCB",06-10-2025 07:00:00,28.4227,77.0667,PM10,10,432,113
India,Haryana,Gurugram,"Vikas Sadan, Gurugram - HSPCB",06-10-2025 07:00:00,28.4501238,77.0263051,PM2.5,124,139,133
India,Haryana,Jind,"Police Lines, Jind - HSPCB",06-10-2025 07:00:00,29.307814,76.337619,NO2,12,14,13
India,Gujarat,Ahmedabad,"Maninagar, Ahmedabad - GPCB",06-10-2025 07:00:00,23.002657,72.591912,PM10,25,77,50
India,Gujarat,Ahmedabad,"Raikhad, Ahmedabad - IITM",06-10-2025 07:00:00,23.020509,72.579261,SO2,8,68,19
India,Gujarat,Ahmedabad,"Rakhial, Ahmedabad - IITM",06-10-2025 07:00:00,23.016834,72.625775,PM2.5,19,43,31
India,Gujarat,Ahmedabad,"Rakhial, Ahmedabad - IITM",06-10-2025 07:00:00,23.016834,72.625775,OZONE,2,18,4
India,Gujarat,Ahmedabad,"SAC ISRO Bopal, Ahmedabad - IITM",06-10-2025 07:00:00,23.041137,72.456691,PM2.5,7,45,18
India,Gujarat,Ahmedabad,"SAC ISRO Bopal, Ahmedabad - IITM",06-10-2025 07:00:00,23.041137,72.456691,NO2,18,28,22
India,Gujarat,Ahmedabad,"SAC ISRO Bopal, Ahmedabad - IITM",06-10-2025 07:00:00,23.041137,72.456691,SO2,1,2,1
India,Gujarat,Ahmedabad,"SAC ISRO Satellite, Ahmedabad - IITM",06-10-2025 07:00:00,23.023389,72.515201,PM10,15,53,31
India,Gujarat,Ahmedabad,"SAC ISRO Satellite, Ahmedabad - IITM",06-10-2025 07:00:00,23.023389,72.515201,NH3,3,4,3
India,Haryana,Mandikhera,"General Hospital, Mandikhera - HSPCB",06-10-2025 07:00:00,27.9002,76.9938,PM10,26,57,46
India,Haryana,Narnaul,"Shastri Nagar, Narnaul - HSPCB",06-10-2025 07:00:00,28.060249,76.113115,CO,26,36,30
India,Haryana,Narnaul,"Shastri Nagar, Narnaul - HSPCB",06-10-2025 07:00:00,28.060249,76.113115,OZONE,13,14,13
India,Haryana,Palwal,"Shyam Nagar, Palwal - HSPCB",06-10-2025 07:00:00,28.1485564,77.3320667,PM2.5,58,61,60
India,Haryana,Panchgaon,"Amity University, Panchgaon - IITM",06-10-2025 07:00:00,28.3153,76.9143,PM2.5,20,288,65
India,Haryana,Panchgaon,"Amity University, Panchgaon - IITM",06-10-2025 07:00:00,28.3153,76.9143,PM10,21,194,73
India,Haryana,Panchgaon,"Amity University, Panchgaon - IITM",06-10-2025 07:00:00,28.3153,76.9143,NH3,1,5,2
India,Delhi,Delhi,"North Campus, DU, Delhi - IMD",06-10-2025 07:00:00,28.6573814,77.1585447,NO2,14,77,40
India,Delhi,Delhi,"Okhla Phase-2, Delhi - DPCC",06-10-2025 07:00:00,28.530785,77.271255,CO,12,113,38
India,Delhi,Delhi,"Patparganj, Delhi - DPCC",06-10-2025 07:00:00,28.623763,77.287209,PM2.5,10,200,102
India,Delhi,Delhi,"Patparganj, Delhi - DPCC",06-10-2025 07:00:00,28.623763,77.287209,CO,2,98,26
India,Delhi,Delhi,"Punjabi Bagh, Delhi - DPCC",06-10-2025 07:00:00,28.674045,77.131023,OZONE,4,122,21
India,Delhi,Delhi,"Pusa, Delhi - IMD",06-10-2025 07:00:00,28.636110,77.173332,PM10,4,149,89
India,Gujarat,Vapi,"Phase-1 GIDC, Vapi - GPCB",06-10-2025 07:00:00,20.362421,72.918013,NH3,10,10,10
India,Gujarat,Vapi,"Phase-1 GIDC, Vapi - GPCB",06-10-2025 07:00:00,20.362421,72.918013,SO2,41,43,42
India,Gujarat,Vatva,"Phase-4 GIDC, Vatva - GPCB",06-10-2025 07:00:00,22.969611,72.643500,NO2,NA,NA,NA
India,Gujarat,Vatva,"Phase-4 GIDC, Vatva - GPCB",06-10-2025 07:00:00,22.969611,72.643500,SO2,NA,NA,NA
India,Haryana,Bahadurgarh,"Arya Nagar, Bahadurgarh - HSPCB",06-10-2025 07:00:00,28.6701,76.9254,NH3,11,14,13
India,Haryana,Dharuhera,"Municipal Corporation Office, Dharuhera -  HSPCB",06-10-2025 07:00:00,28.206800,76.799700,OZONE,NA,NA,NA
India,Delhi,Delhi,"R K Puram, Delhi - DPCC",06-10-2025 07:00:00,28.563262,77.186937,PM2.5,19,317,129
India,Delhi,Delhi,"Rohini, Delhi - DPCC",06-10-2025 07:00:00,28.732528,77.119920,PM2.5,15,287,112
India,Delhi,Delhi,"Rohini, Delhi - DPCC",06-10-2025 07:00:00,28.732528,77.119920,SO2,2,5,4
India,Delhi,Delhi,"Shadipur, Delhi - CPCB",06-10-2025 07:00:00,28.6514781,77.1473105,NO2,53,134,87
India,Delhi,Delhi,"Sirifort, Delhi - CPCB",06-10-2025 07:00:00,28.5504249,77.2159377,CO,8,101,57
India,Delhi,Delhi,"Mundka, Delhi - DPCC",06-10-2025 07:00:00,28.684678,77.076574,CO,22,90,36
India,Delhi,Delhi,"NSIT Dwarka, Delhi - CPCB",06-10-2025 07:00:00,28.60909,77.0325413,NO2,33,112,56
India,Delhi,Delhi,"NSIT Dwarka, Delhi - CPCB",06-10-2025 07:00:00,28.60909,77.0325413,CO,14,72,44
India,Delhi,Delhi,"Najafgarh, Delhi - DPCC",06-10-2025 07:00:00,28.570173,76.933762,SO2,8,14,11
India,Delhi,Delhi,"Narela, Delhi - DPCC",06-10-2025 07:00:00,28.822836,77.101981,PM2.5,NA,NA,NA
India,Delhi,Delhi,"Sri Aurobindo Marg, Delhi - DPCC",06-10-2025 07:00:00,28.531346,77.190156,PM2.5,20,143,66
India,Delhi,Delhi,"Sri Aurobindo Marg, Delhi - DPCC",06-10-2025 07:00:00,28.531346,77.190156,OZONE,5,81,15
India,Gujarat,Ahmedabad,"Gyaspur, Ahmedabad - IITM",06-10-2025 07:00:00,22.977134,72.553024,PM2.5,7,46,24
India,Gujarat,Ahmedabad,"Gyaspur, Ahmedabad - IITM",06-10-2025 07:00:00,22.977134,72.553024,PM10,NA,NA,NA
India,Gujarat,Ahmedabad,"Gyaspur, Ahmedabad - IITM",06-10-2025 07:00:00,22.977134,72.553024,CO,50,57,55
India,Gujarat,Gandhinagar,"GIFT City, Gandhinagar - IITM",06-10-2025 07:00:00,23.163798,72.677768,NH3,1,3,2
India,Gujarat,Gandhinagar,"GIFT City, Gandhinagar - IITM",06-10-2025 07:00:00,23.163798,72.677768,OZONE,1,19,4
India,Gujarat,Gandhinagar,"IIPHG Lekawada, Gandhinagar - IITM",06-10-2025 07:00:00,23.243639,72.68994,SO2,2,9,5
India,Gujarat,Vapi,"Phase-1 GIDC, Vapi - GPCB",06-10-2025 07:00:00,20.362421,72.918013,NO2,13,14,14
India,Kerala,Eloor,"Udyogamandal, Eloor - Kerala PCB",06-10-2025 07:00:00,10.073232,76.302765,CO,NA,NA,NA
India,Kerala,Kollam,"Polayathode, Kollam - Kerala PCB",06-10-2025 07:00:00,8.8787,76.6073,PM2.5,NA,NA,NA
India,Kerala,Kollam,"Polayathode, Kollam - Kerala PCB",06-10-2025 07:00:00,8.8787,76.6073,NH3,NA,NA,NA
India,Kerala,Thiruvananthapuram,"Kariavattom, Thiruvananthapuram - Kerala PCB",06-10-2025 07:00:00,8.563700,76.886500,PM2.5,39,42,40
India,Kerala,Thiruvananthapuram,"Kariavattom, Thiruvananthapuram - Kerala PCB",06-10-2025 07:00:00,8.563700,76.886500,NO2,6,8,7
India,Kerala,Thiruvananthapuram,"Kariavattom, Thiruvananthapuram - Kerala PCB",06-10-2025 07:00:00,8.563700,76.886500,NH3,1,1,1
India,Kerala,Thiruvananthapuram,"Kariavattom, Thiruvananthapuram - Kerala PCB",06-10-2025 07:00:00,8.563700,76.886500,OZONE,36,36,36
India,Kerala,Thiruvananthapuram,"Plammoodu, Thiruvananthapuram - Kerala PCB",06-10-2025 07:00:00,8.5149093,76.9435879,PM10,1,104,22
India,Kerala,Thrissur,"Corporation Ground, Thrissur - Kerala PCB",06-10-2025 07:00:00,10.532400,76.215900,SO2,1,1,1
India,Kerala,Thrissur,"Corporation Ground, Thrissur - Kerala PCB",06-10-2025 07:00:00,10.532400,76.215900,CO,26,34,30
India,Madhya Pradesh,Gwalior,"City Center, Gwalior - MPPCB",06-10-2025 07:00:00,26.203442,78.193251,SO2,4,35,21
India,Madhya Pradesh,Gwalior,"City Center, Gwalior - MPPCB",06-10-2025 07:00:00,26.203442,78.193251,CO,18,67,20
India,Madhya Pradesh,Gwalior,"Deen Dayal Nagar, Gwalior - MPPCB",06-10-2025 07:00:00,26.259242,78.216432,PM2.5,25,100,46
India,Madhya Pradesh,Gwalior,"Deen Dayal Nagar, Gwalior - MPPCB",06-10-2025 07:00:00,26.259242,78.216432,NO2,3,60,11
India,Madhya Pradesh,Gwalior,"Deen Dayal Nagar, Gwalior - MPPCB",06-10-2025 07:00:00,26.259242,78.216432,SO2,5,17,11
India,Madhya Pradesh,Gwalior,"Maharaj Bada, Gwalior - MPPCB",06-10-2025 07:00:00,26.200388,78.147714,PM10,16,129,61
India,Madhya Pradesh,Indore,"Chhoti Gwaltoli, Indore - MPPCB",06-10-2025 07:00:00,22.4310,75.5213,CO,27,56,38
India,Madhya Pradesh,Indore,"Chhoti Gwaltoli, Indore - MPPCB",06-10-2025 07:00:00,22.4310,75.5213,OZONE,15,41,24
India,Madhya Pradesh,Indore,"Maguda Nagar, Indore - IMC",06-10-2025 07:00:00,22.7524,75.8872,OZONE,7,10,8
India,Haryana,Sirsa,"F-Block, Sirsa - HSPCB",06-10-2025 07:00:00,29.536400,75.015800,PM10,NA,NA,NA
India,Himachal Pradesh,Baddi,"HIMUDA Complex Phase-1, Baddi - HPPCB",06-10-2025 07:00:00,30.943887,76.801991,PM2.5,3,120,53
India,Himachal Pradesh,Baddi,"HIMUDA Complex Phase-1, Baddi - HPPCB",06-10-2025 07:00:00,30.943887,76.801991,OZONE,27,95,47
India,Jammu_and_Kashmir,Srinagar,"Rajbagh, Srinagar - JKSPCB",06-10-2025 07:00:00,34.066206,74.819820,CO,NA,NA,NA
India,Jharkhand,Jorapokhar,"Tata Stadium, Jorapokhar - JSPCB",06-10-2025 07:00:00,23.707909,86.414670,PM10,NA,NA,NA
India,Karnataka,Bagalkot,"Vidayagiri, Bagalkot - KSPCB",06-10-2025 07:00:00,16.172806,75.659694,PM2.5,33,34,34
India,Karnataka,Bagalkot,"Vidayagiri, Bagalkot - KSPCB",06-10-2025 07:00:00,16.172806,75.659694,NO2,9,11,9
India,Karnataka,Bagalkot,"Vidayagiri, Bagalkot - KSPCB",06-10-2025 07:00:00,16.172806,75.659694,NH3,1,2,1
India,Karnataka,Bengaluru,"RVCE-Mailasandra, Bengaluru - KSPCB",06-10-2025 07:00:00,12.921418,77.502466,NH3,5,6,5
India,Karnataka,Bengaluru,"Sanegurava Halli, Bengaluru - KSPCB",06-10-2025 07:00:00,12.990328,77.5431385,NO2,17,20,19
India,Karnataka,Bengaluru,"Shivapura_Peenya, Bengaluru - KSPCB",06-10-2025 07:00:00,13.0246342,77.5080115,OZONE,23,25,24
India,Karnataka,Bengaluru,"Silk Board, Bengaluru - KSPCB",06-10-2025 07:00:00,12.917348,77.622813,PM10,NA,NA,NA
India,Karnataka,Chamarajanagar,"Urban, Chamarajanagar - KSPCB",06-10-2025 07:00:00,11.55358,76.55521,SO2,2,8,4
India,Karnataka,Chikkamagaluru,"Kalyana Nagara, Chikkamagaluru - KSPCB",06-10-2025 07:00:00,13.328028,75.797056,PM10,NA,NA,NA
India,Madhya Pradesh,Indore,"Regional Park, Indore - IMC",06-10-2025 07:00:00,22.6780,75.8559,SO2,20,24,22
India,Madhya Pradesh,Jabalpur,"Gupteshwar, Jabalpur - JMC",06-10-2025 07:00:00,23.142888,79.916147,NH3,2,4,3
India,Madhya Pradesh,Jabalpur,"Marhatal, Jabalpur - MPPCB",06-10-2025 07:00:00,23.168606,79.932247,NO2,10,40,21
India,Madhya Pradesh,Jabalpur,"Marhatal, Jabalpur - MPPCB",06-10-2025 07:00:00,23.168606,79.932247,NH3,2,3,2
India,Madhya Pradesh,Jabalpur,"Marhatal, Jabalpur - MPPCB",06-10-2025 07:00:00,23.168606,79.932247,OZONE,9,22,16
India,Madhya Pradesh,Jabalpur,"Suhagi, Jabalpur - JMC",06-10-2025 07:00:00,23.218135,79.957770,NO2,28,45,33
India,Madhya Pradesh,Katni,"Gole Bazar, Katni - MPPCB",06-10-2025 07:00:00,23.50016,80.23284,PM10,28,144,64
India,Karnataka,Koppal,"Diwator Nagar, Koppal - KSPCB",06-10-2025 07:00:00,15.347630,76.181767,NO2,NA,NA,NA
India,Karnataka,Koppal,"Diwator Nagar, Koppal - KSPCB",06-10-2025 07:00:00,15.347630,76.181767,NH3,NA,NA,NA
India,Karnataka,Shivamogga,"Vinoba Nagara, Shivamogga - KSPCB",06-10-2025 07:00:00,13.940000,75.555917,CO,14,25,21
India,Karnataka,Vijayapura,"Ibrahimpur, Vijayapura - KSPCB",06-10-2025 07:00:00,16.802639,75.722694,NH3,1,2,1
India,Karnataka,Vijayapura,"Ibrahimpur, Vijayapura - KSPCB",06-10-2025 07:00:00,16.802639,75.722694,OZONE,14,17,16
India,Karnataka,Yadgir,"Collector Office, Yadgir - KSPCB",06-10-2025 07:00:00,16.7602,77.1428,CO,19,86,54
India,Karnataka,Chikkamagaluru,"Kalyana Nagara, Chikkamagaluru - KSPCB",06-10-2025 07:00:00,13.328028,75.797056,SO2,NA,NA,NA
India,Karnataka,Davanagere,"Devaraj Urs Badavane, Davanagere - KSPCB",06-10-2025 07:00:00,14.475800,75.905200,NO2,10,24,17
India,Karnataka,Dharwad,"Kalabhavan, Dharwad - KSPCB",06-10-2025 07:00:00,15.459706,75.008381,SO2,2,3,3
India,Karnataka,Dharwad,"Kalabhavan, Dharwad - KSPCB",06-10-2025 07:00:00,15.459706,75.008381,OZONE,14,23,17
India,Karnataka,Bagalkot,"Vidayagiri, Bagalkot - KSPCB",06-10-2025 07:00:00,16.172806,75.659694,SO2,7,7,7
India,Karnataka,Bengaluru,"Hombegowda Nagar, Bengaluru - KSPCB",06-10-2025 07:00:00,12.938539,77.590100,NO2,6,22,11
India,Karnataka,Bengaluru,"Jayanagar 5th Block, Bengaluru - KSPCB",06-10-2025 07:00:00,12.920984,77.584908,OZONE,11,35,20
India,Madhya Pradesh,Bhopal,"Paryavaran Parisar, Bhopal - MPPCB",06-10-2025 07:00:00,23.210494,77.425409,NO2,7,29,11
India,Madhya Pradesh,Bhopal,"T T Nagar, Bhopal - MPPCB",06-10-2025 07:00:00,23.233584,77.400574,NH3,5,5,5
India,Maharashtra,Kalyan,"Pimpleshwar Mandir, Kalyan - MPCB",06-10-2025 07:00:00,19.192056,72.9585188,PM2.5,25,99,62
India,Maharashtra,Kalyan,"Pimpleshwar Mandir, Kalyan - MPCB",06-10-2025 07:00:00,19.192056,72.9585188,NO2,15,17,16
India,Maharashtra,Kalyan,"Pimpleshwar Mandir, Kalyan - MPCB",06-10-2025 07:00:00,19.192056,72.9585188,OZONE,3,8,4
India,Maharashtra,Kolhapur,"Shivaji University, Kolhapur - MPCB",06-10-2025 07:00:00,16.6870449,74.2505872,PM10,42,82,63
India,Maharashtra,Kolhapur,"Shivaji University, Kolhapur - MPCB",06-10-2025 07:00:00,16.6870449,74.2505872,CO,4,18,7
India,Maharashtra,Kolhapur,"Sinchan Bhavan, Kolhapur - MPCB",06-10-2025 07:00:00,16.7143745,74.2426398,NH3,NA,NA,NA
India,Maharashtra,Kolhapur,"Sinchan Bhavan, Kolhapur - MPCB",06-10-2025 07:00:00,16.7143745,74.2426398,OZONE,5,23,10
India,Maharashtra,Latur,"Sawe Wadi, Latur - MPCB",06-10-2025 07:00:00,18.39963,76.57452,OZONE,2,31,17
India,Maharashtra,Mahad,"Kamble Tarf Birwadi, Mahad - MPCB",06-10-2025 07:00:00,18.1023399,73.4783687,PM2.5,23,49,37
India,Maharashtra,Mahad,"Kamble Tarf Birwadi, Mahad - MPCB",06-10-2025 07:00:00,18.1023399,73.4783687,PM10,18,82,45
India,Maharashtra,Mahad,"Kamble Tarf Birwadi, Mahad - MPCB",06-10-2025 07:00:00,18.1023399,73.4783687,NH3,3,6,5
India,Maharashtra,Malegaon,"Mahesh Nagar, Malegaon - MPCB",06-10-2025 07:00:00,20.555712,74.529236,PM10,57,87,75
India,Maharashtra,Malegaon,"Mahesh Nagar, Malegaon - MPCB",06-10-2025 07:00:00,20.555712,74.529236,NO2,4,19,10
India,Maharashtra,Malegaon,"Mahesh Nagar, Malegaon - MPCB",06-10-2025 07:00:00,20.555712,74.529236,SO2,7,123,29
India,Maharashtra,Malegaon,"Mahesh Nagar, Malegaon - MPCB",06-10-2025 07:00:00,20.555712,74.529236,OZONE,12,58,15
India,Maharashtra,Mira-Bhayandar,"Bhayandar West, Mira-Bhayandar - MPCB",06-10-2025 07:00:00,19.296481,72.840923,PM10,28,61,44
India,Maharashtra,Mira-Bhayandar,"Bhayandar West, Mira-Bhayandar - MPCB",06-10-2025 07:00:00,19.296481,72.840923,CO,15,84,45
India,Maharashtra,Mumbai,"Bandra Kurla Complex, Mumbai - MPCB",06-10-2025 07:00:00,19.065931,72.862131,NO2,10,24,17
India,Maharashtra,Mumbai,"Borivali East, Mumbai - IITM",06-10-2025 07:00:00,19.23241,72.86895,PM10,70,105,87
India,Maharashtra,Mumbai,"Borivali East, Mumbai - IITM",06-10-2025 07:00:00,19.23241,72.86895,CO,22,66,34
India,Maharashtra,Mumbai,"Byculla, Mumbai - BMC",06-10-2025 07:00:00,18.9767,72.8380,PM2.5,21,55,31
India,Maharashtra,Mumbai,"Byculla, Mumbai - BMC",06-10-2025 07:00:00,18.9767,72.8380,OZONE,7,29,10
India,Maharashtra,Mumbai,"Chakala-Andheri East, Mumbai - IITM",06-10-2025 07:00:00,19.11074,72.86084,PM2.5,23,45,34
India,Maharashtra,Mumbai,"Chakala-Andheri East, Mumbai - IITM",06-10-2025 07:00:00,19.11074,72.86084,NO2,1,60,34
India,Maharashtra,Mumbai,"Chakala-Andheri East, Mumbai - IITM",06-10-2025 07:00:00,19.11074,72.86084,OZONE,2,28,2
India,Maharashtra,Mumbai,"Chembur, Mumbai - MPCB",06-10-2025 07:00:00,19.0364585,72.8954371,PM10,39,61,53
India,Maharashtra,Mumbai,"Chembur, Mumbai - MPCB",06-10-2025 07:00:00,19.0364585,72.8954371,OZONE,NA,NA,NA
India,Maharashtra,Mumbai,"Chhatrapati Shivaji Intl. Airport (T2), Mumbai - MPCB",06-10-2025 07:00:00,19.10078,72.87462,PM10,66,78,74
India,Maharashtra,Mumbai,"Chhatrapati Shivaji Intl. Airport (T2), Mumbai - MPCB",06-10-2025 07:00:00,19.10078,72.87462,NO2,32,40,35
India,Maharashtra,Mumbai,"Chhatrapati Shivaji Intl. Airport (T2), Mumbai - MPCB",06-10-2025 07:00:00,19.10078,72.87462,NH3,1,2,2
India,Maharashtra,Mumbai,"Chhatrapati Shivaji Intl. Airport (T2), Mumbai - MPCB",06-10-2025 07:00:00,19.10078,72.87462,SO2,20,21,21
India,Maharashtra,Mumbai,"Chhatrapati Shivaji Intl. Airport (T2), Mumbai - MPCB",06-10-2025 07:00:00,19.10078,72.87462,OZONE,7,8,7
India,Madhya Pradesh,Singrauli,"Suryakiran Bhawan NCL, Singrauli - MPPCB",06-10-2025 07:00:00,24.108970,82.645580,PM10,13,187,85
India,Madhya Pradesh,Singrauli,"Suryakiran Bhawan NCL, Singrauli - MPPCB",06-10-2025 07:00:00,24.108970,82.645580,NH3,6,6,6
India,Maharashtra,Ahmednagar,"Tarakpur, Ahmednagar - MPCB",06-10-2025 07:00:00,19.10122,74.73339,CO,2,105,10
India,Maharashtra,Akola,"Ramdaspeth, Akola - MPCB",06-10-2025 07:00:00,20.719516,77.000253,PM2.5,28,48,36
India,Maharashtra,Amravati,"Shivneri Colony, Amravati - MPCB",06-10-2025 07:00:00,20.9402359,77.7895248,CO,12,13,13
India,Maharashtra,Amravati,"Shivneri Colony, Amravati - MPCB",06-10-2025 07:00:00,20.9402359,77.7895248,OZONE,15,32,15
India,Maharashtra,Amravati,"Shri Shivaji Science College, Amravati - MPCB",06-10-2025 07:00:00,20.939198,77.765701,PM10,38,65,49
India,Maharashtra,Amravati,"Shri Shivaji Science College, Amravati - MPCB",06-10-2025 07:00:00,20.939198,77.765701,OZONE,11,44,18
India,Maharashtra,Aurangabad,"More Chowk Waluj, Aurangabad - MPCB",06-10-2025 07:00:00,19.8389439,75.244448,CO,2,87,25
India,Maharashtra,Badlapur,"Katrap, Badlapur - MPCB",06-10-2025 07:00:00,19.16485,73.23409,PM2.5,5,300,54
India,Maharashtra,Belapur,"CBD Belapur, Belapur - MPCB",06-10-2025 07:00:00,19.0243902,73.0406721,NH3,3,5,4
India,Maharashtra,Belapur,"CBD Belapur, Belapur - MPCB",06-10-2025 07:00:00,19.0243902,73.0406721,SO2,1,3,2
India,Maharashtra,Bhiwandi,"Gokul Nagar, Bhiwandi - MPCB",06-10-2025 07:00:00,19.309073,73.057223,PM2.5,29,67,46
India,Madhya Pradesh,Maihar,"Sahilara, Maihar - KJS Cements",06-10-2025 07:00:00,24.2613009,80.7231783,PM10,10,163,80
India,Madhya Pradesh,Pithampur,"Sector-2 Industrial Area, Pithampur - MPPCB",06-10-2025 07:00:00,22.624758,75.675238,PM10,58,137,85
India,Madhya Pradesh,Pithampur,"Sector-2 Industrial Area, Pithampur - MPPCB",06-10-2025 07:00:00,22.624758,75.675238,NH3,3,4,4
India,Madhya Pradesh,Ratlam,"Shasthri Nagar, Ratlam - IPCA Lab",06-10-2025 07:00:00,23.331731,75.045981,NO2,34,36,35
India,Madhya Pradesh,Sagar,"Civil Lines, Sagar - MPPCB",06-10-2025 07:00:00,23.838586,78.759431,NH3,1,1,1
India,Madhya Pradesh,Sagar,"Civil Lines, Sagar - MPPCB",06-10-2025 07:00:00,23.838586,78.759431,OZONE,21,47,26
India,Maharashtra,Mumbai,"Deonar, Mumbai - IITM",06-10-2025 07:00:00,19.04946,72.9230,SO2,3,7,4
India,Maharashtra,Mumbai,"Ghatkopar, Mumbai - BMC",06-10-2025 07:00:00,19.083694,72.920967,SO2,6,8,6
India,Maharashtra,Mumbai,"Ghatkopar, Mumbai - BMC",06-10-2025 07:00:00,19.083694,72.920967,OZONE,1,1,1
India,Maharashtra,Mumbai,"Kandivali West, Mumbai - BMC",06-10-2025 07:00:00,19.215859,72.831718,SO2,1,1,1
India,Maharashtra,Mumbai,"Kandivali West, Mumbai - BMC",06-10-2025 07:00:00,19.215859,72.831718,CO,5,27,17
India,Maharashtra,Mumbai,"Kherwadi_Bandra East, Mumbai - MPCB",06-10-2025 07:00:00,19.0632143,72.8456324,OZONE,NA,NA,NA
India,Maharashtra,Chandrapur,"Chauhan Colony, Chandrapur - MPCB",06-10-2025 07:00:00,19.962900,79.298714,NH3,3,3,3
India,Maharashtra,Chandrapur,"MIDC Khutala, Chandrapur - MPCB",06-10-2025 07:00:00,19.9775302,79.2337086,CO,34,42,39
India,Maharashtra,Dhule,"Deopur, Dhule - MPCB",06-10-2025 07:00:00,20.918946,74.776388,PM10,49,76,67
India,Maharashtra,Dhule,"Deopur, Dhule - MPCB",06-10-2025 07:00:00,20.918946,74.776388,OZONE,12,57,15
India,Maharashtra,Jalgaon,"Prabhat Colony, Jalgaon - MPCB",06-10-2025 07:00:00,21.001264,75.565602,OZONE,14,58,15
India,Maharashtra,Mumbai,"Khindipada-Bhandup West, Mumbai - IITM",06-10-2025 07:00:00,19.1653323,72.922099,SO2,1,13,4
India,Maharashtra,Mumbai,"Kurla, Mumbai - MPCB",06-10-2025 07:00:00,19.0863,72.8888,PM10,61,104,76
India,Maharashtra,Mumbai,"Kurla, Mumbai - MPCB",06-10-2025 07:00:00,19.0863,72.8888,NO2,4,6,5
India,Maharashtra,Mumbai,"Mazgaon, Mumbai - IITM",06-10-2025 07:00:00,18.96702,72.84214,SO2,8,12,10
India,Maharashtra,Mumbai,"Navy Nagar-Colaba, Mumbai - IITM",06-10-2025 07:00:00,18.897756,72.813320,NO2,14,67,35
India,Maharashtra,Pimpri-Chinchwad,"Thergaon, Pimpri Chinchwad - MPCB",06-10-2025 07:00:00,18.616318,73.765797,NH3,NA,NA,NA
India,Maharashtra,Pune,"Bhumkar Nagar, Pune - IITM",06-10-2025 07:00:00,18.605770,73.749976,PM2.5,12,36,21
India,Maharashtra,Pune,"Bhumkar Nagar, Pune - IITM",06-10-2025 07:00:00,18.605770,73.749976,PM10,44,72,57
India,Maharashtra,Pune,"Bhumkar Nagar, Pune - IITM",06-10-2025 07:00:00,18.605770,73.749976,NO2,2,8,4
India,Maharashtra,Pune,"Hadapsar, Pune - IITM",06-10-2025 07:00:00,18.501793,73.927532,CO,14,21,16
India,Maharashtra,Pune,"Hadapsar, Pune - IITM",06-10-2025 07:00:00,18.501793,73.927532,OZONE,9,22,19
India,Maharashtra,Pune,"Katraj Dairy, Pune - MPCB",06-10-2025 07:00:00,18.454450,73.854155,PM2.5,18,30,24
India,Maharashtra,Pune,"Mhada Colony, Pune - IITM",06-10-2025 07:00:00,18.573040,73.927715,PM2.5,21,56,39
India,Maharashtra,Pune,"Panchawati_Pashan, Pune - IITM",06-10-2025 07:00:00,18.536457,73.805454,PM10,35,65,49
India,Maharashtra,Pune,"Revenue Colony-Shivajinagar, Pune - IITM",06-10-2025 07:00:00,18.530085,73.849598,CO,113,200,200
India,Maharashtra,Pune,"Savitribai Phule Pune University, Pune - MPCB",06-10-2025 07:00:00,18.547056,73.826908,OZONE,8,19,8
India,Maharashtra,Sangli,"Vijay Nagar, Sangli - MPCB",06-10-2025 07:00:00, 16.5038,74.3623,NO2,1,18,5
India,Maharashtra,Sangli,"Vijay Nagar, Sangli - MPCB",06-10-2025 07:00:00, 16.5038,74.3623,SO2,5,8,6
India,Maharashtra,Sangli,"Vijay Nagar, Sangli - MPCB",06-10-2025 07:00:00, 16.5038,74.3623,CO,25,32,26
India,Maharashtra,Solapur,"Dnyaneshwar Nagar, Solapur - MPCB",06-10-2025 07:00:00,17.6336264,75.9132495,PM10,14,97,54
India,Maharashtra,Solapur,"Ratandeep Housing Society, Solapur - MPCB",06-10-2025 07:00:00,17.65439,75.90649,NO2,1,43,17
India,Maharashtra,Solapur,"Ratandeep Housing Society, Solapur - MPCB",06-10-2025 07:00:00,17.65439,75.90649,SO2,1,4,2
India,Maharashtra,Solapur,"Ratandeep Housing Society, Solapur - MPCB",06-10-2025 07:00:00,17.65439,75.90649,CO,6,85,11
India,Maharashtra,Nagpur,"Ram Nagar, Nagpur - MPCB",06-10-2025 07:00:00,21.143383,79.048912,CO,10,30,13
India,Maharashtra,Nanded,"Sneh Nagar, Nanded - MPCB",06-10-2025 07:00:00,19.173852,77.296291,SO2,1,2,2
India,Maharashtra,Nashik,"Gangapur Road, Nashik - MPCB",06-10-2025 07:00:00,20.0073285,73.7762427,SO2,1,5,3
India,Maharashtra,Nashik,"Gangapur Road, Nashik - MPCB",06-10-2025 07:00:00,20.0073285,73.7762427,OZONE,12,13,13
India,Maharashtra,Nashik,"Hirawadi, Nashik - MPCB",06-10-2025 07:00:00,20.021503,73.813844,SO2,1,35,4
India,Maharashtra,Nashik,"Hirawadi, Nashik - MPCB",06-10-2025 07:00:00,20.021503,73.813844,CO,30,36,32
India,Maharashtra,Nashik,"MIDC Ambad, Nashik - MPCB",06-10-2025 07:00:00,19.950220,73.731480,NO2,4,17,9
India,Maharashtra,Thane,"Upvan Fort, Thane - MPCB",06-10-2025 07:00:00,19.222279,72.957979,PM10,44,86,60
India,Maharashtra,Thane,"Upvan Fort, Thane - MPCB",06-10-2025 07:00:00,19.222279,72.957979,NH3,1,8,2
India,Maharashtra,Ulhasnagar,"Sidhi Vinayak Nagar, Ulhasnagar - MPCB",06-10-2025 07:00:00,19.235581,73.159121,NH3,3,6,5
India,Maharashtra,Ulhasnagar,"Sidhi Vinayak Nagar, Ulhasnagar - MPCB",06-10-2025 07:00:00,19.235581,73.159121,OZONE,8,33,9
India,Maharashtra,Virar,"Bolinj, Virar - MPCB",06-10-2025 07:00:00,19.4458210,72.7988231,NO2,14,33,24
India,Maharashtra,Virar,"Bolinj, Virar - MPCB",06-10-2025 07:00:00,19.4458210,72.7988231,NH3,1,2,2
India,Maharashtra,Virar,"Bolinj, Virar - MPCB",06-10-2025 07:00:00,19.4458210,72.7988231,CO,20,120,70
India,Maharashtra,Nagpur,"Ambazari, Nagpur - MPCB",06-10-2025 07:00:00,21.121801,79.04952,PM10,28,71,45
India,Maharashtra,Nagpur,"Mahal, Nagpur - MPCB",06-10-2025 07:00:00,21.14472,79.107595,CO,25,89,35
India,Maharashtra,Nagpur,"Opp GPO Civil Lines, Nagpur - MPCB",06-10-2025 07:00:00,21.152875,79.0517531,PM2.5,NA,NA,NA
India,Maharashtra,Nagpur,"Opp GPO Civil Lines, Nagpur - MPCB",06-10-2025 07:00:00,21.152875,79.0517531,NO2,NA,NA,NA
India,Maharashtra,Nagpur,"Opp GPO Civil Lines, Nagpur - MPCB",06-10-2025 07:00:00,21.152875,79.0517531,OZONE,5,22,8
India,Maharashtra,Nagpur,"Ram Nagar, Nagpur - MPCB",06-10-2025 07:00:00,21.143383,79.048912,PM2.5,19,60,41
India,Meghalaya,Shillong,"Lumpyngngad, Shillong - Meghalaya PCB",06-10-2025 07:00:00,25.5586,91.8985,OZONE,1,10,5
India,Nagaland,Kohima,"PWD Junction, Kohima - NPCB",06-10-2025 07:00:00,25.6635413,94.0989878,PM10,12,80,41
India,Odisha,Balasore,"Kalidaspur, Balasore - OSPCB",06-10-2025 07:00:00,21.51161,86.89088,CO,10,14,11
India,Odisha,Barbil,"Forest Office, Barbil - OSPCB",06-10-2025 07:00:00,22.1166054,85.3945546,PM10,17,108,42
India,Maharashtra,Mumbai,"Powai, Mumbai - MPCB",06-10-2025 07:00:00,19.137500,72.915056,NH3,2,2,2
India,Maharashtra,Mumbai,"Powai, Mumbai - MPCB",06-10-2025 07:00:00,19.137500,72.915056,OZONE,9,9,9
India,Maharashtra,Mumbai,"Sewri, Mumbai - BMC",06-10-2025 07:00:00,19.000084,72.856730,NO2,1,15,3
India,Maharashtra,Mumbai,"Shivaji Nagar, Mumbai - BMC",06-10-2025 07:00:00,19.060498,72.923356,PM2.5,26,50,37
India,Maharashtra,Mumbai,"Shivaji Nagar, Mumbai - BMC",06-10-2025 07:00:00,19.060498,72.923356,NH3,3,4,3
India,Maharashtra,Mumbai,"Sion, Mumbai - MPCB",06-10-2025 07:00:00,19.047000,72.874600,SO2,9,10,10
India,Maharashtra,Navi Mumbai,"Sector-2E Kalamboli, Navi Mumbai - MPCB",06-10-2025 07:00:00,19.02579,73.10297,CO,4,10,9
India,Maharashtra,Pimpri-Chinchwad,"Park Street Wakad, Pimpri Chinchwad - MPCB",06-10-2025 07:00:00,18.59051,73.77946,CO,9,24,14
India,Maharashtra,Pimpri-Chinchwad,"Thergaon, Pimpri Chinchwad - MPCB",06-10-2025 07:00:00,18.616318,73.765797,NO2,45,56,51
India,Maharashtra,Navi Mumbai,"Kopripada-Vashi, Navi Mumbai - MPCB",06-10-2025 07:00:00,19.090337,73.014232,PM2.5,28,203,49
India,Maharashtra,Navi Mumbai,"Kopripada-Vashi, Navi Mumbai - MPCB",06-10-2025 07:00:00,19.090337,73.014232,PM10,28,94,47
India,Maharashtra,Navi Mumbai,"Sanpada, Navi Mumbai - MPCB",06-10-2025 07:00:00,19.0575752,73.0151367,SO2,15,19,17
India,Maharashtra,Navi Mumbai,"Sanpada, Navi Mumbai - MPCB",06-10-2025 07:00:00,19.0575752,73.0151367,OZONE,15,35,22
India,Odisha,Rairangpur,"Divisional Forest Office, Rairangpur - OSPCB",06-10-2025 07:00:00,22.265816,86.174829,PM10,38,111,61
India,Odisha,Rairangpur,"Divisional Forest Office, Rairangpur - OSPCB",06-10-2025 07:00:00,22.265816,86.174829,SO2,NA,NA,NA
India,Odisha,Rairangpur,"Divisional Forest Office, Rairangpur - OSPCB",06-10-2025 07:00:00,22.265816,86.174829,CO,16,39,24
India,Odisha,Rourkela,"Fertilizer Township, Rourkela - OSPCB",06-10-2025 07:00:00,22.18972222,84.86277778,SO2,8,9,9
India,Odisha,Rourkela,"Raghunathpali, Rourkela - OSPCB",06-10-2025 07:00:00,22.220833,84.809444,PM2.5,12,54,26
India,Odisha,Rourkela,"Raghunathpali, Rourkela - OSPCB",06-10-2025 07:00:00,22.220833,84.809444,PM10,30,54,41
India,Odisha,Rourkela,"Raghunathpali, Rourkela - OSPCB",06-10-2025 07:00:00,22.220833,84.809444,SO2,5,6,5
India,Odisha,Talcher,"Talcher Coalfields,Talcher - OSPCB",06-10-2025 07:00:00,20.9360711,85.1707021,NH3,NA,NA,NA
India,Punjab,Amritsar,"Golden Temple, Amritsar - PPCB",06-10-2025 07:00:00,31.620000,74.876512,PM2.5,81,91,85
India,Punjab,Amritsar,"Golden Temple, Amritsar - PPCB",06-10-2025 07:00:00,31.620000,74.876512,NH3,7,8,8
India,Punjab,Amritsar,"Golden Temple, Amritsar - PPCB",06-10-2025 07:00:00,31.620000,74.876512,CO,42,60,53
India,Rajasthan,Baran,"Bamboliya, Baran - RSPCB",06-10-2025 07:00:00,25.106006,76.469948,NH3,3,6,4
India,Rajasthan,Barmer,"Railway Colony, Barmer - RSPCB",06-10-2025 07:00:00,25.747299,71.393989,NO2,3,13,8
India,Rajasthan,Barmer,"Railway Colony, Barmer - RSPCB",06-10-2025 07:00:00,25.747299,71.393989,NH3,2,3,2
India,Rajasthan,Bharatpur,"Krishna Nagar, Bharatpur - RSPCB",06-10-2025 07:00:00,27.215415,77.50873,PM2.5,13,136,49
India,Rajasthan,Bharatpur,"Krishna Nagar, Bharatpur - RSPCB",06-10-2025 07:00:00,27.215415,77.50873,SO2,1,4,2
India,Rajasthan,Bhilwara,"Pratap Nagar, Bhilwara - RSPCB",06-10-2025 07:00:00,25.339605,74.618883,NH3,1,1,1
India,Rajasthan,Bhiwadi,"RIICO Ind. Area III, Bhiwadi - RSPCB",06-10-2025 07:00:00,28.194909,76.862296,PM10,87,182,134
India,Rajasthan,Bhiwadi,"RIICO Ind. Area III, Bhiwadi - RSPCB",06-10-2025 07:00:00,28.194909,76.862296,NO2,17,40,24
India,Rajasthan,Bhiwadi,"RIICO Ind. Area III, Bhiwadi - RSPCB",06-10-2025 07:00:00,28.194909,76.862296,NH3,8,14,11
India,Punjab,Bathinda,"Hardev Nagar, Bathinda - PPCB",06-10-2025 07:00:00,30.233011,74.907758,PM2.5,5,36,15
India,Punjab,Bathinda,"Hardev Nagar, Bathinda - PPCB",06-10-2025 07:00:00,30.233011,74.907758,NO2,16,27,20
India,Punjab,Bathinda,"Hardev Nagar, Bathinda - PPCB",06-10-2025 07:00:00,30.233011,74.907758,SO2,3,18,10
India,Punjab,Khanna,"Kalal Majra, Khanna - PPCB",06-10-2025 07:00:00,30.736056 ,76.209694,PM10,26,77,49
India,Punjab,Khanna,"Kalal Majra, Khanna - PPCB",06-10-2025 07:00:00,30.736056 ,76.209694,SO2,5,7,5
India,Punjab,Ludhiana,"Punjab Agricultural University, Ludhiana - PPCB",06-10-2025 07:00:00,30.9028,75.8086,SO2,7,21,13
India,Punjab,Mandi Gobindgarh,"RIMT University, Mandi Gobindgarh - PPCB",06-10-2025 07:00:00,30.649961,76.331442,SO2,3,47,16
India,Punjab,Mandi Gobindgarh,"RIMT University, Mandi Gobindgarh - PPCB",06-10-2025 07:00:00,30.649961,76.331442,OZONE,47,50,49
India,Rajasthan,Dausa,"Khatikan Mohalla, Dausa - RSPCB",06-10-2025 07:00:00,26.895552,76.334753,CO,9,104,12
India,Rajasthan,Dausa,"Khatikan Mohalla, Dausa - RSPCB",06-10-2025 07:00:00,26.895552,76.334753,OZONE,12,68,26
India,Rajasthan,Dholpur,"Raja Ganj, Dholpur - RSPCB",06-10-2025 07:00:00,26.699557,77.898881,PM10,NA,NA,NA
India,Rajasthan,Dholpur,"Raja Ganj, Dholpur - RSPCB",06-10-2025 07:00:00,26.699557,77.898881,OZONE,29,31,30
India,Rajasthan,Hanumangarh,"Housing Board, Hanumangarh - RSPCB",06-10-2025 07:00:00,29.610750,74.283608,PM10,12,168,56
India,Rajasthan,Jaipur,"Adarsh Nagar, Jaipur - RSPCB",06-10-2025 07:00:00,26.902909,75.836858,PM10,22,79,45
India,Rajasthan,Jaipur,"Mansarovar Sector-12, Jaipur - RSPCB",06-10-2025 07:00:00,26.843698,75.766894,PM2.5,5,82,30
India,Rajasthan,Bikaner,"MM Ground, Bikaner - RSPCB",06-10-2025 07:00:00,28.018792,73.292658,PM10,10,300,88
India,Rajasthan,Bikaner,"MM Ground, Bikaner - RSPCB",06-10-2025 07:00:00,28.018792,73.292658,SO2,NA,NA,NA
India,Rajasthan,Bikaner,"MM Ground, Bikaner - RSPCB",06-10-2025 07:00:00,28.018792,73.292658,CO,9,40,17
India,Rajasthan,Bundi,"New Colony, Bundi - RSPCB",06-10-2025 07:00:00,25.435774,75.644272,CO,18,25,19
India,Rajasthan,Chittorgarh,"Shastri Nagar, Chittorgarh - RSPCB",06-10-2025 07:00:00,24.892047,74.623527,PM2.5,15,42,27
India,Rajasthan,Chittorgarh,"Shastri Nagar, Chittorgarh - RSPCB",06-10-2025 07:00:00,24.892047,74.623527,NO2,6,24,9
India,Rajasthan,Dausa,"Khatikan Mohalla, Dausa - RSPCB",06-10-2025 07:00:00,26.895552,76.334753,PM2.5,5,48,18
India,Rajasthan,Jaipur,"Mansarovar Sector-12, Jaipur - RSPCB",06-10-2025 07:00:00,26.843698,75.766894,OZONE,12,131,70
India,Rajasthan,Jaipur,"Police Commissionerate, Jaipur - RSPCB",06-10-2025 07:00:00,26.9164092,75.7994901,NO2,85,101,95
India,Rajasthan,Jaipur,"RIICO Sitapura, Jaipur - RSPCB",06-10-2025 07:00:00,26.786682,75.827928,SO2,NA,NA,NA
India,Rajasthan,Jaipur,"Sector-2 Murlipura, Jaipur - RSPCB",06-10-2025 07:00:00,26.960669,75.771817,SO2,5,10,7
India,Rajasthan,Jaipur,"Shastri Nagar, Jaipur - RSPCB",06-10-2025 07:00:00,26.9502929,75.730943,NH3,1,16,6
India,Punjab,Patiala,"Model Town, Patiala - PPCB",06-10-2025 07:00:00,30.349388,76.366642,NO2,16,19,17
India,Rajasthan,Alwar,"Moti Doongri, Alwar - RSPCB",06-10-2025 07:00:00,27.554793,76.611536,PM10,35,94,56
India,Rajasthan,Alwar,"Moti Doongri, Alwar - RSPCB",06-10-2025 07:00:00,27.554793,76.611536,OZONE,20,80,22
India,Rajasthan,Banswara,"Rati Talai, Banswara - RSPCB",06-10-2025 07:00:00,23.555190,74.440010,PM10,57,113,82
India,Rajasthan,Banswara,"Rati Talai, Banswara - RSPCB",06-10-2025 07:00:00,23.555190,74.440010,NH3,2,5,3
India,Rajasthan,Banswara,"Rati Talai, Banswara - RSPCB",06-10-2025 07:00:00,23.555190,74.440010,SO2,1,111,10
India,Odisha,Bhubaneswar,"Lingraj Mandir, Bhubaneswar - OSPCB",06-10-2025 07:00:00,20.240790,85.836784,NO2,6,33,18
India,Odisha,Bhubaneswar,"Lingraj Mandir, Bhubaneswar - OSPCB",06-10-2025 07:00:00,20.240790,85.836784,SO2,5,7,6
India,Odisha,Bhubaneswar,"Patia, Bhubaneswar - OSPCB",06-10-2025 07:00:00,20.34652,85.81630,PM10,27,85,59
India,Odisha,Bileipada,"Tata Township, Bileipada - OSPCB",06-10-2025 07:00:00,22.06156703,85.47409613,CO,NA,NA,NA
India,Odisha,Byasanagar,"Ferro Chrome Colony, Byasanagar - OSPCB",06-10-2025 07:00:00,20.94185,86.11510,SO2,NA,NA,NA
India,Odisha,Nayagarh,"Dabuna, Nayagarh - OSPCB",06-10-2025 07:00:00,21.847279,85.416905,PM10,22,46,27
India,TamilNadu,Chennai,"Manali Village, Chennai - TNPCB",06-10-2025 07:00:00,13.1662,80.2584,OZONE,28,57,45
India,TamilNadu,Chennai,"Manali, Chennai - CPCB",06-10-2025 07:00:00,13.164544,80.26285,PM10,13,64,42
India,TamilNadu,Chennai,"Manali, Chennai - CPCB",06-10-2025 07:00:00,13.164544,80.26285,NH3,6,6,6
India,TamilNadu,Chennai,"Perungudi, Chennai - TNPCB",06-10-2025 07:00:00,12.9533,80.2357,SO2,1,3,2
India,TamilNadu,Chennai,"Perungudi, Chennai - TNPCB",06-10-2025 07:00:00,12.9533,80.2357,OZONE,1,6,2
India,TamilNadu,Chennai,"Velachery Res. Area, Chennai - CPCB",06-10-2025 07:00:00,13.0052189,80.2398125,NH3,4,4,4
India,TamilNadu,Chennai,"Velachery Res. Area, Chennai - CPCB",06-10-2025 07:00:00,13.0052189,80.2398125,SO2,8,10,9
India,TamilNadu,Chennai,"Velachery Res. Area, Chennai - CPCB",06-10-2025 07:00:00,13.0052189,80.2398125,OZONE,6,13,7
India,TamilNadu,Coimbatore,"PSG College of Arts and Science, Coimbatore - TNPCB",06-10-2025 07:00:00,11.0328,77.0349,NH3,2,2,2
India,TamilNadu,Chengalpattu,"Crescent University, Chengalpattu - TNPCB",06-10-2025 07:00:00,12.8777316,80.0834807,OZONE,5,32,23
India,TamilNadu,Chennai,"Alandur Bus Depot, Chennai - CPCB",06-10-2025 07:00:00,12.9099161,80.1076538,PM2.5,14,56,32
India,TamilNadu,Chennai,"Alandur Bus Depot, Chennai - CPCB",06-10-2025 07:00:00,12.9099161,80.1076538,PM10,21,82,47
India,TamilNadu,Chennai,"Alandur Bus Depot, Chennai - CPCB",06-10-2025 07:00:00,12.9099161,80.1076538,CO,20,70,26
India,TamilNadu,Chennai,"Arumbakkam, Chennai - TNPCB",06-10-2025 07:00:00,13.0664,80.2112 ,NH3,2,4,3
India,TamilNadu,Chennai,"Kodungaiyur, Chennai - TNPCB",06-10-2025 07:00:00,13.1278,80.2642,PM10,9,79,49
India,TamilNadu,Chennai,"Manali Village, Chennai - TNPCB",06-10-2025 07:00:00,13.1662,80.2584,PM10,13,46,25
India,Rajasthan,Karauli,"Satyawati Vihar, Karauli - RSPCB",06-10-2025 07:00:00,26.506177,77.025989,SO2,2,5,3
India,Rajasthan,Kota,"Nayapura, Kota - RSPCB",06-10-2025 07:00:00,25.196024,75.855668,NH3,3,5,4
India,Rajasthan,Kota,"Nayapura, Kota - RSPCB",06-10-2025 07:00:00,25.196024,75.855668,CO,16,26,17
India,Rajasthan,Kota,"Shrinath Puram, Kota - RSPCB",06-10-2025 07:00:00,25.14389,75.821256,PM2.5,28,74,48
India,Rajasthan,Kota,"Shrinath Puram, Kota - RSPCB",06-10-2025 07:00:00,25.14389,75.821256,SO2,4,7,5
India,Rajasthan,Kota,"Shrinath Puram, Kota - RSPCB",06-10-2025 07:00:00,25.14389,75.821256,CO,2,89,49
India,Rajasthan,Nagaur,"Karni Colony, Nagaur - RSPCB",06-10-2025 07:00:00,27.213494,73.734444,CO,9,26,11
India,Rajasthan,Sri Ganganagar,"Old City, Sri Ganganagar - RSPCB",06-10-2025 07:00:00,29.931624,73.864511,OZONE,7,27,16
India,Rajasthan,Tonk,"Shastri Nagar, Tonk - RSPCB",06-10-2025 07:00:00,26.159933,75.780517,PM10,35,169,79
India,Rajasthan,Tonk,"Shastri Nagar, Tonk - RSPCB",06-10-2025 07:00:00,26.159933,75.780517,NO2,3,27,9
India,Rajasthan,Tonk,"Shastri Nagar, Tonk - RSPCB",06-10-2025 07:00:00,26.159933,75.780517,SO2,1,5,1
India,TamilNadu,Ariyalur,"Keelapalur, Ariyalur - TNPCB",06-10-2025 07:00:00,11.06825,79.07033,PM10,54,68,61
India,TamilNadu,Ariyalur,"Keelapalur, Ariyalur - TNPCB",06-10-2025 07:00:00,11.06825,79.07033,NH3,1,1,1
India,Rajasthan,Jodhpur,"Digari Kalan, Jodhpur - RSPCB",06-10-2025 07:00:00,26.295810,73.082283,PM2.5,3,42,24
India,Rajasthan,Jodhpur,"Digari Kalan, Jodhpur - RSPCB",06-10-2025 07:00:00,26.295810,73.082283,CO,14,28,18
India,Rajasthan,Jodhpur,"Mandor, Jodhpur - RSPCB",06-10-2025 07:00:00,26.358805,73.047444,NO2,2,25,8
India,Rajasthan,Jodhpur,"Samrat Ashok Udhyan, Jodhpur - RSPCB",06-10-2025 07:00:00,26.253384,72.976571,PM2.5,8,53,32
India,Rajasthan,Jodhpur,"Samrat Ashok Udhyan, Jodhpur - RSPCB",06-10-2025 07:00:00,26.253384,72.976571,NH3,3,4,4
India,Rajasthan,Karauli,"Satyawati Vihar, Karauli - RSPCB",06-10-2025 07:00:00,26.506177,77.025989,NH3,6,6,6
India,Rajasthan,Jalore,"Mudtra Sili, Jalore - RSPCB",06-10-2025 07:00:00,25.344694,72.626208,NO2,4,15,9
India,Rajasthan,Jalore,"Mudtra Sili, Jalore - RSPCB",06-10-2025 07:00:00,25.344694,72.626208,SO2,2,3,3
India,Rajasthan,Jhalawar,"Rajlaxmi Nagar, Jhalawar - RSPCB",06-10-2025 07:00:00,24.588397,76.172782,PM2.5,8,27,18
India,Rajasthan,Jhunjhunu,"Indra Nagar, Jhunjhunu - RSPCB",06-10-2025 07:00:00,28.108988,75.386577,NH3,4,8,5
India,Rajasthan,Jodhpur,"Collectorate, Jodhpur - RSPCB",06-10-2025 07:00:00,26.268249,73.0193853,NO2,23,43,34
India,Rajasthan,Pratapgarh,"Pragati Nagar, Pratapgarh - RSPCB",06-10-2025 07:00:00,24.041198,74.780702,SO2,3,5,3
India,Rajasthan,Sawai Madhopur,"Sahu Nagar, Sawai Madhopur - RSPCB",06-10-2025 07:00:00,26.031443,76.359327,SO2,1,4,1
India,Rajasthan,Sikar,"Radhakishan Pura, Sikar - RSPCB",06-10-2025 07:00:00,27.608912,75.153302,PM10,12,147,70
India,Rajasthan,Sirohi,"Vedhaynath Colony, Sirohi - RSPCB",06-10-2025 07:00:00,24.885261,72.857549,PM2.5,12,58,33
India,TamilNadu,Coimbatore,"PSG College of Arts and Science, Coimbatore - TNPCB",06-10-2025 07:00:00,11.0328,77.0349,SO2,9,10,9
India,TamilNadu,Dindigul,"Mendonsa Colony, Dindigul - TNPCB",06-10-2025 07:00:00,10.358535,77.984321,PM10,15,63,38
India,TamilNadu,Gummidipoondi,"Anthoni Pillai Nagar, Gummidipoondi - TNPCB",06-10-2025 07:00:00,13.4127,80.1081,SO2,8,35,20
India,TamilNadu,Ooty,"Bombay Castel, Ooty - TNPCB",06-10-2025 07:00:00,11.4068288,76.7138973,NO2,2,5,4
India,TamilNadu,Ooty,"Bombay Castel, Ooty - TNPCB",06-10-2025 07:00:00,11.4068288,76.7138973,OZONE,5,5,5
India,TamilNadu,Pudukottai,"SIPCOT Nathampannai, Pudukottai - TNPCB",06-10-2025 07:00:00,10.423417,78.784889,PM10,25,44,34
India,TamilNadu,Pudukottai,"SIPCOT Nathampannai, Pudukottai - TNPCB",06-10-2025 07:00:00,10.423417,78.784889,NO2,12,18,14
India,TamilNadu,Pudukottai,"SIPCOT Nathampannai, Pudukottai - TNPCB",06-10-2025 07:00:00,10.423417,78.784889,SO2,8,81,15
India,TamilNadu,Ramanathapuram,"Chalai Bazaar, Ramanathapuram - TNPCB",06-10-2025 07:00:00,9.36399,78.831977,PM2.5,22,57,32
India,TamilNadu,Ramanathapuram,"Chalai Bazaar, Ramanathapuram - TNPCB",06-10-2025 07:00:00,9.36399,78.831977,PM10,18,70,33
India,TamilNadu,Ramanathapuram,"Chalai Bazaar, Ramanathapuram - TNPCB",06-10-2025 07:00:00,9.36399,78.831977,NO2,14,14,14
India,TamilNadu,Ramanathapuram,"Chalai Bazaar, Ramanathapuram - TNPCB",06-10-2025 07:00:00,9.36399,78.831977,NH3,2,2,2
India,TamilNadu,Ramanathapuram,"Chalai Bazaar, Ramanathapuram - TNPCB",06-10-2025 07:00:00,9.36399,78.831977,SO2,13,20,14
India,TamilNadu,Ramanathapuram,"Chalai Bazaar, Ramanathapuram - TNPCB",06-10-2025 07:00:00,9.36399,78.831977,CO,24,28,27
India,TamilNadu,Ranipet,"VOC Nagar_SIPCOT, Ranipet - TNPCB",06-10-2025 07:00:00,12.952707,79.30394,PM2.5,5,60,27
India,TamilNadu,Salem,"Sona College of Technology, Salem - TNPCB",06-10-2025 07:00:00,11.679111,78.125052,PM2.5,8,33,20
India,TamilNadu,Hosur,"SIPCOT Phase-1, Hosur - TNPCB",06-10-2025 07:00:00,12.746998,77.813811,CO,14,20,17
India,TamilNadu,Kanchipuram,"Kilambi, Kanchipuram - TNPCB",06-10-2025 07:00:00,12.864618,79.659968,PM10,45,83,64
India,TamilNadu,Kanchipuram,"Kilambi, Kanchipuram - TNPCB",06-10-2025 07:00:00,12.864618,79.659968,SO2,1,15,6
India,TamilNadu,Kanchipuram,"Kilambi, Kanchipuram - TNPCB",06-10-2025 07:00:00,12.864618,79.659968,CO,18,22,18
India,TamilNadu,Karur,"Kamadenu Nagar, Karur - TNPCB",06-10-2025 07:00:00,10.967820,78.080882,PM2.5,32,99,59
India,TamilNadu,Karur,"Kamadenu Nagar, Karur - TNPCB",06-10-2025 07:00:00,10.967820,78.080882,PM10,33,100,60
India,TamilNadu,Madurai,"Uchapatti, Madurai - TNPCB",06-10-2025 07:00:00,9.865935,78.022669,NH3,4,4,4
India,TamilNadu,Madurai,"Uchapatti, Madurai - TNPCB",06-10-2025 07:00:00,9.865935,78.022669,CO,17,28,18
India,TamilNadu,Nagapattinam,"Velippalayam, Nagapattinam - TNPCB",06-10-2025 07:00:00,10.798548,79.838212,SO2,5,7,6
India,TamilNadu,Nagapattinam,"Velippalayam, Nagapattinam - TNPCB",06-10-2025 07:00:00,10.798548,79.838212,CO,13,22,13
India,TamilNadu,Salem,"Sona College of Technology, Salem - TNPCB",06-10-2025 07:00:00,11.679111,78.125052,NH3,3,3,3
India,TamilNadu,Salem,"Sona College of Technology, Salem - TNPCB",06-10-2025 07:00:00,11.679111,78.125052,SO2,29,31,30
India,TamilNadu,Thanjavur,"Parisutham Nagar, Thanjavur - TNPCB",06-10-2025 07:00:00,10.7654824,79.1389968,NO2,3,3,3
India,TamilNadu,Tiruchirappalli,"St Joseph College, Tiruchirappalli - TNPCB",06-10-2025 07:00:00,10.830158,78.691849,NO2,4,17,7
India,TamilNadu,Tiruchirappalli,"St Joseph College, Tiruchirappalli - TNPCB",06-10-2025 07:00:00,10.830158,78.691849,OZONE,20,54,25
India,TamilNadu,Tirupur,"Kumaran College, Tirupur - TNPCB",06-10-2025 07:00:00,11.0973603,77.3228673,NO2,2,5,3
India,TamilNadu,Tirupur,"Kumaran College, Tirupur - TNPCB",06-10-2025 07:00:00,11.0973603,77.3228673,SO2,3,6,4
India,TamilNadu,Tirupur,"Kumaran College, Tirupur - TNPCB",06-10-2025 07:00:00,11.0973603,77.3228673,OZONE,3,3,3
India,Uttar_Pradesh,Bareilly,"Rajendra Nagar, Bareilly - UPPCB",06-10-2025 07:00:00,28.38910936,79.42963708,CO,28,62,58
India,Uttar_Pradesh,Bulandshahr,"Yamunapuram, Bulandshahr - UPPCB",06-10-2025 07:00:00,28.406963,77.849831,CO,8,66,32
India,Uttar_Pradesh,Firozabad,"Nagla Bhau, Firozabad - UPPCB",06-10-2025 07:00:00,27.168897,78.376960,PM2.5,NA,NA,NA
India,Uttar_Pradesh,Firozabad,"Nagla Bhau, Firozabad - UPPCB",06-10-2025 07:00:00,27.168897,78.376960,OZONE,13,21,14
India,Uttar_Pradesh,Ghaziabad,"Indirapuram, Ghaziabad - UPPCB",06-10-2025 07:00:00,28.646233,77.358075,PM2.5,20,274,126
India,Uttar_Pradesh,Ghaziabad,"Loni, Ghaziabad - UPPCB",06-10-2025 07:00:00,28.757294,77.278792,SO2,4,16,12
India,TamilNadu,Virudhunagar,"Collectorate Office, Virudhunagar - TNPCB",06-10-2025 07:00:00,9.559382,77.948828,PM10,NA,NA,NA
India,TamilNadu,Virudhunagar,"Collectorate Office, Virudhunagar - TNPCB",06-10-2025 07:00:00,9.559382,77.948828,SO2,NA,NA,NA
India,Telangana,Hyderabad,"Central University, Hyderabad - TSPCB",06-10-2025 07:00:00,17.460103,78.334361,SO2,1,8,6
India,Telangana,Hyderabad,"Central University, Hyderabad - TSPCB",06-10-2025 07:00:00,17.460103,78.334361,CO,2,22,15
India,Telangana,Hyderabad,"ECIL Kapra, Hyderabad - TSPCB",06-10-2025 07:00:00,17.470431,78.566959,NH3,3,5,4
India,Telangana,Hyderabad,"IDA Pashamylaram, Hyderabad - TSPCB",06-10-2025 07:00:00,17.5316895,78.218939,PM2.5,73,180,116
India,Telangana,Hyderabad,"Somajiguda, Hyderabad - TSPCB",06-10-2025 07:00:00,17.417094,78.457437,CO,9,44,19
India,Telangana,Hyderabad,"Zoo Park, Hyderabad - TSPCB",06-10-2025 07:00:00,17.349694,78.451437,NO2,13,16,15
India,Uttar_Pradesh,Agra,"Manoharpur, Agra - UPPCB",06-10-2025 07:00:00,27.23711,78.01936,NH3,2,2,2
India,Uttar_Pradesh,Agra,"Manoharpur, Agra - UPPCB",06-10-2025 07:00:00,27.23711,78.01936,CO,25,38,27
India,Uttar_Pradesh,Agra,"Manoharpur, Agra - UPPCB",06-10-2025 07:00:00,27.23711,78.01936,OZONE,8,8,8
India,Uttar_Pradesh,Agra,"Sector-3B Avas Vikas Colony, Agra - UPPCB",06-10-2025 07:00:00,27.19412,77.96237,PM2.5,39,305,121
India,Uttar_Pradesh,Agra,"Shastripuram, Agra - UPPCB",06-10-2025 07:00:00,27.19862,77.92066,PM2.5,16,316,68
India,Uttar_Pradesh,Agra,"Shastripuram, Agra - UPPCB",06-10-2025 07:00:00,27.19862,77.92066,NO2,32,33,32
India,Uttar_Pradesh,Agra,"Shastripuram, Agra - UPPCB",06-10-2025 07:00:00,27.19862,77.92066,SO2,22,41,31
India,Telangana,Hyderabad,"New Malakpet, Hyderabad - TSPCB",06-10-2025 07:00:00,17.37206,78.50864,PM2.5,42,62,48
India,Telangana,Hyderabad,"New Malakpet, Hyderabad - TSPCB",06-10-2025 07:00:00,17.37206,78.50864,OZONE,14,40,23
India,Telangana,Hyderabad,"Ramachandrapuram, Hyderabad - TSPCB",06-10-2025 07:00:00,17.528544,78.286195,SO2,12,16,14
India,Telangana,Hyderabad,"Somajiguda, Hyderabad - TSPCB",06-10-2025 07:00:00,17.417094,78.457437,PM2.5,39,94,66
India,Uttar_Pradesh,Meerut,"Pallavpuram Phase 2, Meerut - UPPCB",06-10-2025 07:00:00,29.063510,77.709723,CO,23,50,35
India,Uttar_Pradesh,Meerut,"Pallavpuram Phase 2, Meerut - UPPCB",06-10-2025 07:00:00,29.063510,77.709723,OZONE,29,102,42
India,Uttar_Pradesh,Moradabad,"Buddhi Vihar, Moradabad - UPPCB",06-10-2025 07:00:00,28.83526,78.74460,PM10,70,175,134
India,Uttar_Pradesh,Moradabad,"Buddhi Vihar, Moradabad - UPPCB",06-10-2025 07:00:00,28.83526,78.74460,NO2,23,30,29
India,Uttar_Pradesh,Moradabad,"Buddhi Vihar, Moradabad - UPPCB",06-10-2025 07:00:00,28.83526,78.74460,SO2,27,29,28
India,Uttar_Pradesh,Moradabad,"Eco Herbal Park, Moradabad - UPPCB",06-10-2025 07:00:00,28.840739,78.697531,NO2,12,24,17
India,Uttar_Pradesh,Moradabad,"Employment Office, Moradabad - UPPCB",06-10-2025 07:00:00,28.88528,78.73880,CO,8,74,37
India,Uttar_Pradesh,Moradabad,"Jigar Colony, Moradabad - UPPCB",06-10-2025 07:00:00,28.856664,78.772638,SO2,38,50,47
India,Uttar_Pradesh,Moradabad,"Jigar Colony, Moradabad - UPPCB",06-10-2025 07:00:00,28.856664,78.772638,OZONE,18,25,18
India,Uttar_Pradesh,Varanasi,"Bhelupur, Varanasi - UPPCB",06-10-2025 07:00:00,25.301778,82.996789,CO,6,36,20
India,Uttar_Pradesh,Varanasi,"IESD Banaras Hindu University, Varanasi - UPPCB",06-10-2025 07:00:00,25.262326,82.995408,SO2,32,35,34
India,Uttar_Pradesh,Varanasi,"Maldahiya, Varanasi - UPPCB",06-10-2025 07:00:00,25.32393,82.99687,OZONE,2,4,2
India,Uttar_Pradesh,Vrindavan,"Omex Eternity, Vrindavan - UPPCB",06-10-2025 07:00:00,27.5714090,77.6557570,SO2,9,13,10
India,Uttarakhand,Dehradun,"Doon University, Dehradun - UKPCB",06-10-2025 07:00:00,30.269444,78.044167,CO,16,26,19
India,Uttarakhand,Kashipur,"Govt. Girls Inter College, Kashipur - UKPCB",06-10-2025 07:00:00,29.2124114,78.9611753,PM2.5,53,278,124
India,Uttarakhand,Kashipur,"Govt. Girls Inter College, Kashipur - UKPCB",06-10-2025 07:00:00,29.2124114,78.9611753,SO2,1,10,5
India,Uttar_Pradesh,Hapur,"Anand Vihar, Hapur - UPPCB",06-10-2025 07:00:00,28.725645,77.749675,PM10,27,198,133
India,Uttar_Pradesh,Hapur,"Anand Vihar, Hapur - UPPCB",06-10-2025 07:00:00,28.725645,77.749675,NO2,12,116,54
India,Uttar_Pradesh,Hapur,"Anand Vihar, Hapur - UPPCB",06-10-2025 07:00:00,28.725645,77.749675,SO2,16,62,28
India,Uttar_Pradesh,Jhansi,"Shivaji Nagar, Jhansi - UPPCB",06-10-2025 07:00:00,25.4547,78.6039,SO2,8,18,11
India,Uttar_Pradesh,Jhansi,"Shivaji Nagar, Jhansi - UPPCB",06-10-2025 07:00:00,25.4547,78.6039,CO,5,37,8
India,Uttar_Pradesh,Jhansi,"Shivaji Nagar, Jhansi - UPPCB",06-10-2025 07:00:00,25.4547,78.6039,OZONE,2,32,9
India,Uttar_Pradesh,Kanpur,"FTI Kidwai Nagar, Kanpur - UPPCB",06-10-2025 07:00:00,26.428282,80.327067,NH3,2,2,2
India,Uttar_Pradesh,Kanpur,"Nehru Nagar, Kanpur - UPPCB",06-10-2025 07:00:00,26.4703136,80.3229863,PM10,14,125,64
India,Uttar_Pradesh,Lucknow,"B R Ambedkar University, Lucknow - UPPCB",06-10-2025 07:00:00,26.766433,80.927299,PM10,63,158,116
India,Uttar_Pradesh,Lucknow,"B R Ambedkar University, Lucknow - UPPCB",06-10-2025 07:00:00,26.766433,80.927299,OZONE,27,30,29
India,Uttar_Pradesh,Lucknow,"Kendriya Vidyalaya, Lucknow - CPCB",06-10-2025 07:00:00,26.906111,80.948222,PM2.5,23,123,58
India,Uttar_Pradesh,Lucknow,"Kendriya Vidyalaya, Lucknow - CPCB",06-10-2025 07:00:00,26.906111,80.948222,NO2,28,45,37
India,Uttar_Pradesh,Lucknow,"Kendriya Vidyalaya, Lucknow - CPCB",06-10-2025 07:00:00,26.906111,80.948222,SO2,6,23,14
India,Uttar_Pradesh,Lucknow,"Kukrail Picnic Spot-1, Lucknow - UPPCB",06-10-2025 07:00:00,26.90723,80.98579,PM10,30,74,59
India,Uttar_Pradesh,Lucknow,"Kukrail Picnic Spot-1, Lucknow - UPPCB",06-10-2025 07:00:00,26.90723,80.98579,NO2,22,23,23
India,Uttar_Pradesh,Lucknow,"Kukrail Picnic Spot-1, Lucknow - UPPCB",06-10-2025 07:00:00,26.90723,80.98579,OZONE,46,75,53
India,Uttar_Pradesh,Noida,"Sector-1, Noida - UPPCB",06-10-2025 07:00:00,28.5898,77.3101,PM10,26,280,139
India,Uttar_Pradesh,Noida,"Sector-1, Noida - UPPCB",06-10-2025 07:00:00,28.5898,77.3101,OZONE,3,217,26
India,Uttar_Pradesh,Noida,"Sector-116, Noida - UPPCB",06-10-2025 07:00:00,28.569230,77.393848,CO,14,109,41
India,Uttar_Pradesh,Prayagraj,"Nagar Nigam, Prayagraj - UPPCB",06-10-2025 07:00:00,25.44919916 ,81.82735986 ,NO2,5,5,5
India,Uttar_Pradesh,Prayagraj,"Nagar Nigam, Prayagraj - UPPCB",06-10-2025 07:00:00,25.44919916 ,81.82735986 ,OZONE,14,39,26
India,Uttar_Pradesh,Varanasi,"Bhelupur, Varanasi - UPPCB",06-10-2025 07:00:00,25.301778,82.996789,PM2.5,7,66,32
India,Uttar_Pradesh,Lucknow,"Lalbagh, Lucknow - CPCB",06-10-2025 07:00:00,26.8458805,80.9365541,CO,3,129,49
India,Uttar_Pradesh,Lucknow,"Talkatora District Industries Center, Lucknow - CPCB",06-10-2025 07:00:00,26.83399722,80.8917361,CO,15,106,62
India,Uttar_Pradesh,Meerut,"Ganga Nagar, Meerut - UPPCB",06-10-2025 07:00:00,28.999264,77.7590354,PM10,56,277,154
India,Uttar_Pradesh,Meerut,"Jai Bhim Nagar, Meerut - UPPCB",06-10-2025 07:00:00,28.9535882,77.7622941,NO2,8,76,28
India,Uttar_Pradesh,Meerut,"Jai Bhim Nagar, Meerut - UPPCB",06-10-2025 07:00:00,28.9535882,77.7622941,OZONE,19,181,51
India,Uttar_Pradesh,Muzaffarnagar,"New Mandi, Muzaffarnagar - UPPCB",06-10-2025 07:00:00,29.4723508,77.7194031,NO2,12,37,23
India,Uttar_Pradesh,Muzaffarnagar,"New Mandi, Muzaffarnagar - UPPCB",06-10-2025 07:00:00,29.4723508,77.7194031,NH3,5,8,7
India,Uttar_Pradesh,Noida,"Sector - 125, Noida - UPPCB",06-10-2025 07:00:00,28.5447608,77.3231257,NO2,18,89,40
India,Uttar_Pradesh,Noida,"Sector - 125, Noida - UPPCB",06-10-2025 07:00:00,28.5447608,77.3231257,NH3,7,11,10
India,Uttar_Pradesh,Noida,"Sector - 62, Noida - IMD",06-10-2025 07:00:00,28.6245479,77.3577104,PM10,36,141,97
India,Uttar_Pradesh,Ghaziabad,"Sanjay Nagar, Ghaziabad - UPPCB",06-10-2025 07:00:00,28.685382,77.453839,PM2.5,22,315,135
India,Uttar_Pradesh,Greater Noida,"Knowledge Park - III, Greater Noida - UPPCB",06-10-2025 07:00:00,28.47272,77.482000,PM10,36,296,154
India,Uttar_Pradesh,Greater Noida,"Knowledge Park - V, Greater Noida - UPPCB",06-10-2025 07:00:00,28.557054,77.453663,PM2.5,27,292,127
India,Uttar_Pradesh,Varanasi,"Bhelupur, Varanasi - UPPCB",06-10-2025 07:00:00,25.301778,82.996789,NH3,1,1,1
India,Uttarakhand,Rishikesh,"Shivaji Nagar, Rishikesh - UKPCB",06-10-2025 07:00:00,30.075911,78.2859547,SO2,3,3,3
India,West_Bengal,Asansol,"Asansol Court Area, Asansol - WBPCB",06-10-2025 07:00:00,23.685297,86.945968,NH3,3,9,5
India,West_Bengal,Asansol,"Evelyn Lodge, Asansol - WBPCB",06-10-2025 07:00:00,23.6979360,86.9443950,NO2,5,28,12
India,West_Bengal,Asansol,"Mahabir Colliery, Asansol - WBPCB",06-10-2025 07:00:00,23.6181830,87.1057180,NH3,1,1,1
India,West_Bengal,Asansol,"Mahabir Colliery, Asansol - WBPCB",06-10-2025 07:00:00,23.6181830,87.1057180,OZONE,10,30,12
India,West_Bengal,Barrackpore,"SVSPA Campus, Barrackpore - WBPCB",06-10-2025 07:00:00,22.7605581,88.3617589,NH3,3,4,4
India,West_Bengal,Durgapur,"PCBL Residential Complex, Durgapur - WBPCB",06-10-2025 07:00:00,23.5087640,87.3544400,NH3,2,3,3
India,West_Bengal,Durgapur,"PCBL Residential Complex, Durgapur - WBPCB",06-10-2025 07:00:00,23.5087640,87.3544400,SO2,5,5,5
India,West_Bengal,Haldia,"Priyambada Housing Estate, Haldia - WBPCB",06-10-2025 07:00:00,22.06047,88.109737,CO,20,30,26
India,West_Bengal,Howrah,"Botanical Garden, Howrah - WBPCB",06-10-2025 07:00:00,22.554954,88.292568,NO2,11,57,32
India,West_Bengal,Howrah,"Dasnagar, Howrah - WBPCB",06-10-2025 07:00:00,22.6025571,88.3105664,PM10,23,85,44
India,West_Bengal,Howrah,"Ghusuri, Howrah - WBPCB",06-10-2025 07:00:00,22.611968,88.347422,NH3,9,10,10
India,West_Bengal,Howrah,"Padmapukur, Howrah - WBPCB",06-10-2025 07:00:00,22.5687319,88.2797276,SO2,6,9,7
India,West_Bengal,Kolkata,"Jadavpur, Kolkata - WBPCB",06-10-2025 07:00:00,22.49929,88.36917,NH3,14,19,16
India,West_Bengal,Kolkata,"Rabindra Bharati University, Kolkata - WBPCB",06-10-2025 07:00:00,22.627847,88.380669,NO2,25,49,37
India,West_Bengal,Kolkata,"Rabindra Sarobar, Kolkata - WBPCB",06-10-2025 07:00:00,22.51106,88.35142,PM2.5,21,52,29
India,West_Bengal,Kolkata,"Rabindra Sarobar, Kolkata - WBPCB",06-10-2025 07:00:00,22.51106,88.35142,NH3,7,13,9
India,West_Bengal,Kolkata,"Victoria, Kolkata - WBPCB",06-10-2025 07:00:00,22.5448082,88.3403691,OZONE,10,44,12
India,Assam,Nalbari,"Bata Chowk, Nalbari - PCBA",06-10-2025 07:00:00,26.446912,91.439057,SO2,19,21,21
India,Assam,Silchar,"Tarapur, Silchar - PCBA",06-10-2025 07:00:00,24.82827,92.79525,NO2,15,18,16
India,Assam,Silchar,"Tarapur, Silchar - PCBA",06-10-2025 07:00:00,24.82827,92.79525,NH3,1,1,1
India,Bihar,Araria,"Kharahiya Basti, Araria - BSPCB",06-10-2025 07:00:00,26.146529,87.454184,PM2.5,42,53,44
India,Bihar,Araria,"Kharahiya Basti, Araria - BSPCB",06-10-2025 07:00:00,26.146529,87.454184,SO2,6,21,17
India,Bihar,Araria,"Kharahiya Basti, Araria - BSPCB",06-10-2025 07:00:00,26.146529,87.454184,OZONE,9,11,10
India,Bihar,Arrah,"New DM Office, Arrah - BSPCB",06-10-2025 07:00:00,25.5626095,84.663264,SO2,9,10,9
India,Bihar,Arrah,"New DM Office, Arrah - BSPCB",06-10-2025 07:00:00,25.5626095,84.663264,CO,40,58,52
India,Bihar,Patna,"DRM Office Danapur, Patna - BSPCB",06-10-2025 07:00:00,25.586562,85.043586,CO,8,30,26
India,Bihar,Patna,"Govt. High School Shikarpur, Patna - BSPCB",06-10-2025 07:00:00,25.592539,85.227158,NH3,4,5,4
India,Bihar,Patna,"Govt. High School Shikarpur, Patna - BSPCB",06-10-2025 07:00:00,25.592539,85.227158,SO2,5,12,6
India,Bihar,Patna,"Govt. High School Shikarpur, Patna - BSPCB",06-10-2025 07:00:00,25.592539,85.227158,OZONE,7,14,11
India,Bihar,Patna,"IGSC Planetarium Complex, Patna - BSPCB",06-10-2025 07:00:00,25.610369,85.132568,SO2,7,25,23
India,Bihar,Patna,"Rajbansi Nagar, Patna - BSPCB",06-10-2025 07:00:00,25.599486,85.113666,OZONE,7,19,7
India,Bihar,Patna,"Samanpura, Patna - BSPCB",06-10-2025 07:00:00,25.596727,85.085624,PM2.5,5,57,43
India,Andhra_Pradesh,Vijayawada,"HB Colony, Vijayawada - APPCB",06-10-2025 07:00:00,16.536107,80.594233,NO2,13,13,13
India,Andhra_Pradesh,Vijayawada,"Rajiv Gandhi Park, Vijayawada - APPCB",06-10-2025 07:00:00,16.509717,80.612222,PM10,NA,NA,NA
India,Andhra_Pradesh,Vijayawada,"Rajiv Gandhi Park, Vijayawada - APPCB",06-10-2025 07:00:00,16.509717,80.612222,OZONE,NA,NA,NA
India,Andhra_Pradesh,Vijayawada,"Rajiv Nagar, Vijayawada - APPCB",06-10-2025 07:00:00,16.554731,80.649110,PM10,38,45,40
India,Andhra_Pradesh,Vijayawada,"Rajiv Nagar, Vijayawada - APPCB",06-10-2025 07:00:00,16.554731,80.649110,SO2,7,20,14
India,Andhra_Pradesh,Visakhapatnam,"GVM Corporation, Visakhapatnam - APPCB",06-10-2025 07:00:00,17.72,83.3,NO2,10,71,50
India,Andhra_Pradesh,Visakhapatnam,"GVM Corporation, Visakhapatnam - APPCB",06-10-2025 07:00:00,17.72,83.3,SO2,1,18,8
India,Assam,Guwahati,"IITG, Guwahati - PCBA",06-10-2025 07:00:00,26.2028636,91.70046436,NH3,5,5,5
India,Assam,Guwahati,"IITG, Guwahati - PCBA",06-10-2025 07:00:00,26.2028636,91.70046436,SO2,21,25,23
India,Assam,Guwahati,"IITG, Guwahati - PCBA",06-10-2025 07:00:00,26.2028636,91.70046436,OZONE,1,35,1
India,Assam,Guwahati,"LGBI Airport, Guwahati - PCBA",06-10-2025 07:00:00,26.10887,91.589544,PM10,NA,NA,NA
India,Assam,Guwahati,"LGBI Airport, Guwahati - PCBA",06-10-2025 07:00:00,26.10887,91.589544,CO,NA,NA,NA
India,Assam,Guwahati,"LGBI Airport, Guwahati - PCBA",06-10-2025 07:00:00,26.10887,91.589544,OZONE,NA,NA,NA
India,Assam,Guwahati,"Pan Bazaar, Guwahati - PCBA",06-10-2025 07:00:00,26.187500,91.744194,PM2.5,4,29,16
India,Assam,Guwahati,"Pan Bazaar, Guwahati - PCBA",06-10-2025 07:00:00,26.187500,91.744194,SO2,27,55,39
India,Bihar,Manguraha,"Forest Rest House, Manguraha - BSPCB",06-10-2025 07:00:00,27.308328,84.531742,NO2,NA,NA,NA
India,Bihar,Munger,"Town Hall, Munger - BSPCB",06-10-2025 07:00:00,25.376776,86.471523,PM2.5,NA,NA,NA
India,Bihar,Munger,"Town Hall, Munger - BSPCB",06-10-2025 07:00:00,25.376776,86.471523,PM10,NA,NA,NA
India,Bihar,Munger,"Town Hall, Munger - BSPCB",06-10-2025 07:00:00,25.376776,86.471523,NH3,5,7,6
India,Bihar,Muzaffarpur,"MIT-Daudpur Kothi, Muzaffarpur - BSPCB",06-10-2025 07:00:00,26.1403345,85.3650192,NH3,NA,NA,NA
India,Bihar,Muzaffarpur,"MIT-Daudpur Kothi, Muzaffarpur - BSPCB",06-10-2025 07:00:00,26.1403345,85.3650192,SO2,NA,NA,NA
India,Bihar,Begusarai,"Lohiyanagar, Begusarai - BSPCB",06-10-2025 07:00:00,25.42742023,86.13886079,PM2.5,3,35,19
India,Bihar,Bettiah,"Kamalnath Nagar, Bettiah - BSPCB",06-10-2025 07:00:00,26.80365,84.51954,PM10,23,47,36
India,Bihar,Bhagalpur,"DM Office_Kachari Chowk, Bhagalpur - BSPCB",06-10-2025 07:00:00,25.251013,86.989001,NO2,15,19,16
India,Bihar,Bhagalpur,"DM Office_Kachari Chowk, Bhagalpur - BSPCB",06-10-2025 07:00:00,25.251013,86.989001,SO2,35,60,48
India,Andhra_Pradesh,Chittoor,"Gangineni Cheruvu, Chittoor - APPCB",06-10-2025 07:00:00,13.204880,79.097889,CO,31,44,38
India,Andhra_Pradesh,Tirupati,"Vaikuntapuram, Tirupati - APPCB",06-10-2025 07:00:00,13.615387,79.409230,NH3,5,5,5
India,Andhra_Pradesh,Vijayawada,"HB Colony, Vijayawada - APPCB",06-10-2025 07:00:00,16.536107,80.594233,PM10,55,66,61
India,Bihar,Gaya,"Collectorate, Gaya - BSPCB",06-10-2025 07:00:00,24.7955,84.9994,SO2,NA,NA,NA
India,Bihar,Hajipur,"Industrial Area, Hajipur - BSPCB",06-10-2025 07:00:00,25.697189,85.245900,CO,35,42,40
India,Bihar,Manguraha,"Forest Rest House, Manguraha - BSPCB",06-10-2025 07:00:00,27.308328,84.531742,PM2.5,NA,NA,NA
India,Assam,Guwahati,"Railway Colony, Guwahati - PCBA",06-10-2025 07:00:00,26.181742,91.78063,CO,20,32,27
India,Assam,Nalbari,"Bata Chowk, Nalbari - PCBA",06-10-2025 07:00:00,26.446912,91.439057,PM2.5,32,57,44
India,Assam,Nalbari,"Bata Chowk, Nalbari - PCBA",06-10-2025 07:00:00,26.446912,91.439057,NH3,1,3,2
India,Andhra_Pradesh,Amaravati,"Secretariat, Amaravati - APPCB",06-10-2025 07:00:00,16.5150833,80.5181667,NO2,NA,NA,NA
India,Chhattisgarh,Bhilai,"Hathkhoj, Bhilai - CECB",06-10-2025 07:00:00,21.224231,81.408350,OZONE,10,24,12
India,Chhattisgarh,Chhal,"Nawapara SECL Colony, Chhal - CECB",06-10-2025 07:00:00,22.118125,83.140608,PM10,NA,NA,NA
India,Chhattisgarh,Korba,"Rampur, Korba - CECB",06-10-2025 07:00:00,22.368195,82.746431,NH3,2,2,2
India,Chhattisgarh,Korba,"Rampur, Korba - CECB",06-10-2025 07:00:00,22.368195,82.746431,SO2,6,11,8
India,Chhattisgarh,Korba,"Rampur, Korba - CECB",06-10-2025 07:00:00,22.368195,82.746431,CO,12,17,15
India,Chhattisgarh,Korba,"Urja Nagar, Korba - CECB",06-10-2025 07:00:00,22.348441,82.549611,PM2.5,16,22,17
India,Chhattisgarh,Kunjemura,"OP Jindal School, Kunjemura - CECB",06-10-2025 07:00:00,22.126650,83.483212,NO2,2,3,3
India,Chhattisgarh,Kunjemura,"OP Jindal School, Kunjemura - CECB",06-10-2025 07:00:00,22.126650,83.483212,NH3,2,2,2
India,Chhattisgarh,Kunjemura,"OP Jindal School, Kunjemura - CECB",06-10-2025 07:00:00,22.126650,83.483212,SO2,1,6,3
India,Delhi,Delhi,"IGI Airport (T3), Delhi - IMD",06-10-2025 07:00:00,28.5627763,77.1180053,PM10,18,256,103
India,Delhi,Delhi,"IGI Airport (T3), Delhi - IMD",06-10-2025 07:00:00,28.5627763,77.1180053,OZONE,1,3,1
India,Delhi,Delhi,"IHBAS, Dilshad Garden, Delhi - CPCB",06-10-2025 07:00:00,28.6811736,77.3025234,SO2,18,28,24
India,Delhi,Delhi,"IHBAS, Dilshad Garden, Delhi - CPCB",06-10-2025 07:00:00,28.6811736,77.3025234,CO,38,70,66
India,Delhi,Delhi,"ITO, Delhi - CPCB",06-10-2025 07:00:00,28.628624,77.241060,CO,10,113,46
India,Delhi,Delhi,"Jahangirpuri, Delhi - DPCC",06-10-2025 07:00:00,28.732820,77.170633,CO,32,110,55
India,Delhi,Delhi,"Jawaharlal Nehru Stadium, Delhi - DPCC",06-10-2025 07:00:00,28.580280,77.233829,PM2.5,12,143,72
India,Chandigarh,Chandigarh,"Sector-53, Chandigarh - CPCC",06-10-2025 07:00:00,30.719859,76.738637,NO2,8,75,29
India,Chhattisgarh,Bhilai,"32Bungalows, Bhilai - CECB",06-10-2025 07:00:00,21.194815,81.314770,PM10,5,36,19
India,Chhattisgarh,Bhilai,"32Bungalows, Bhilai - CECB",06-10-2025 07:00:00,21.194815,81.314770,NH3,5,5,5
India,Chhattisgarh,Bhilai,"32Bungalows, Bhilai - CECB",06-10-2025 07:00:00,21.194815,81.314770,OZONE,7,28,16
India,Chhattisgarh,Bhilai,"Civic Center, Bhilai - Bhilai Steel Plant",06-10-2025 07:00:00,21.185571,81.343175,PM10,22,74,33
India,Chhattisgarh,Bhilai,"Civic Center, Bhilai - Bhilai Steel Plant",06-10-2025 07:00:00,21.185571,81.343175,SO2,8,9,8
India,Chhattisgarh,Bhilai,"Hathkhoj, Bhilai - CECB",06-10-2025 07:00:00,21.224231,81.408350,NH3,3,4,4
India,Delhi,Delhi,"Alipur, Delhi - DPCC",06-10-2025 07:00:00,28.815329,77.153010,NH3,3,5,4
India,Delhi,Delhi,"Anand Vihar, Delhi - DPCC",06-10-2025 07:00:00,28.647622,77.3158090,CO,40,111,61
India,Delhi,Delhi,"Anand Vihar, Delhi - DPCC",06-10-2025 07:00:00,28.647622,77.3158090,OZONE,1,16,3
India,Delhi,Delhi,"Ashok Vihar, Delhi - DPCC",06-10-2025 07:00:00,28.695381,77.181665,NH3,1,1,1
India,Delhi,Delhi,"Ashok Vihar, Delhi - DPCC",06-10-2025 07:00:00,28.695381,77.181665,SO2,8,14,10
India,Delhi,Delhi,"Aya Nagar, Delhi - IMD",06-10-2025 07:00:00,28.4706914,77.1099364,PM10,13,221,93
India,Delhi,Delhi,"Aya Nagar, Delhi - IMD",06-10-2025 07:00:00,28.4706914,77.1099364,CO,33,89,41
India,Bihar,Patna,"Samanpura, Patna - BSPCB",06-10-2025 07:00:00,25.596727,85.085624,CO,14,50,32
India,Bihar,Rajgir,"Dangi Tola, Rajgir - BSPCB",06-10-2025 07:00:00,25.03280,85.41948,PM10,NA,NA,NA
India,Bihar,Samastipur,"DM Office_Kasipur, Samastipur - BSPCB",06-10-2025 07:00:00,25.859655,85.77944,NO2,8,9,8
India,Bihar,Sasaram,"Dada Peer, Sasaram - BSPCB",06-10-2025 07:00:00,24.952822,84.002396,PM10,NA,NA,NA
India,Bihar,Sasaram,"Dada Peer, Sasaram - BSPCB",06-10-2025 07:00:00,24.952822,84.002396,NO2,2,3,2
India,Bihar,Sasaram,"Dada Peer, Sasaram - BSPCB",06-10-2025 07:00:00,24.952822,84.002396,CO,44,59,51
India,Delhi,Delhi,"Jawaharlal Nehru Stadium, Delhi - DPCC",06-10-2025 07:00:00,28.580280,77.233829,OZONE,2,6,4
India,Delhi,Delhi,"Lodhi Road, Delhi - IMD",06-10-2025 07:00:00,28.5918245,77.2273074,PM2.5,8,150,77
India,Delhi,Delhi,"Lodhi Road, Delhi - IMD",06-10-2025 07:00:00,28.5918245,77.2273074,OZONE,11,161,48
India,Delhi,Delhi,"Mandir Marg, Delhi - DPCC",06-10-2025 07:00:00,28.636429,77.201067,PM10,NA,NA,NA
India,Delhi,Delhi,"Mandir Marg, Delhi - DPCC",06-10-2025 07:00:00,28.636429,77.201067,SO2,9,36,21
India,Delhi,Delhi,"Mundka, Delhi - DPCC",06-10-2025 07:00:00,28.684678,77.076574,SO2,2,24,10
India,Delhi,Delhi,"Burari Crossing, Delhi - IMD",06-10-2025 07:00:00,28.7256504,77.2011573,CO,16,82,31
India,Delhi,Delhi,"CRRI Mathura Road, Delhi - IMD",06-10-2025 07:00:00,28.5512005,77.2735737,CO,2,128,87
India,Delhi,Delhi,"DTU, Delhi - CPCB",06-10-2025 07:00:00,28.7500499,77.1112615,PM10,19,157,97
India,Delhi,Delhi,"DTU, Delhi - CPCB",06-10-2025 07:00:00,28.7500499,77.1112615,NO2,23,59,40
India,Delhi,Delhi,"DTU, Delhi - CPCB",06-10-2025 07:00:00,28.7500499,77.1112615,CO,5,30,14
India,Chhattisgarh,Raipur,"AIIMS, Raipur - CECB",06-10-2025 07:00:00,21.258815,81.578979,PM10,9,42,22
India,Chhattisgarh,Raipur,"Bhatagaon New ISBT, Raipur - CECB",06-10-2025 07:00:00,21.219665,81.630094,PM10,7,45,26
India,Chhattisgarh,Raipur,"Bhatagaon New ISBT, Raipur - CECB",06-10-2025 07:00:00,21.219665,81.630094,NO2,6,16,10
India,Chhattisgarh,Raipur,"Siltara Phase-II, Raipur - CECB",06-10-2025 07:00:00,21.371751,81.664929,NH3,NA,NA,NA
India,Chandigarh,Chandigarh,"Sector-25, Chandigarh - CPCC",06-10-2025 07:00:00,30.751462,76.762879,SO2,4,13,9
India,Haryana,Bahadurgarh,"Arya Nagar, Bahadurgarh - HSPCB",06-10-2025 07:00:00,28.6701,76.9254,OZONE,15,21,18
India,Haryana,Bhiwani,"H.B. Colony, Bhiwani - HSPCB",06-10-2025 07:00:00,28.806223,76.141105,OZONE,9,18,13
India,Haryana,Charkhi Dadri,"Mini Secretariat, Charkhi Dadri - HSPCB",06-10-2025 07:00:00,28.593883,76.270653,PM10,9,208,64
India,Haryana,Charkhi Dadri,"Mini Secretariat, Charkhi Dadri - HSPCB",06-10-2025 07:00:00,28.593883,76.270653,CO,6,25,15
India,Haryana,Faridabad,"New Industrial Town, Faridabad - HSPCB",06-10-2025 07:00:00,28.39072,77.30059,PM2.5,122,145,132
India,Haryana,Faridabad,"Sector 11, Faridabad - HSPCB",06-10-2025 07:00:00,28.376058,77.315741,NO2,30,32,31
India,Haryana,Faridabad,"Sector 11, Faridabad - HSPCB",06-10-2025 07:00:00,28.376058,77.315741,NH3,6,6,6
India,Haryana,Faridabad,"Sector 11, Faridabad - HSPCB",06-10-2025 07:00:00,28.376058,77.315741,SO2,8,9,8
India,Haryana,Faridabad,"Sector 11, Faridabad - HSPCB",06-10-2025 07:00:00,28.376058,77.315741,CO,48,52,50
India,Haryana,Faridabad,"Sector 11, Faridabad - HSPCB",06-10-2025 07:00:00,28.376058,77.315741,OZONE,19,21,20
India,Gujarat,Gandhinagar,"GIFT City, Gandhinagar - IITM",06-10-2025 07:00:00,23.163798,72.677768,SO2,5,11,8
India,Gujarat,Gandhinagar,"IIPHG Lekawada, Gandhinagar - IITM",06-10-2025 07:00:00,23.243639,72.68994,PM2.5,11,42,28
India,Gujarat,Gandhinagar,"IIPHG Lekawada, Gandhinagar - IITM",06-10-2025 07:00:00,23.243639,72.68994,NO2,2,8,4
India,Gujarat,Gandhinagar,"Sector-10, Gandhinagar - GPCB",06-10-2025 07:00:00,23.221714,72.654328,PM2.5,20,52,30
India,Gujarat,Gandhinagar,"Sector-10, Gandhinagar - GPCB",06-10-2025 07:00:00,23.221714,72.654328,PM10,14,104,45
India,Gujarat,Gandhinagar,"Sector-10, Gandhinagar - GPCB",06-10-2025 07:00:00,23.221714,72.654328,NH3,1,2,1
India,Gujarat,Gandhinagar,"Sector-10, Gandhinagar - GPCB",06-10-2025 07:00:00,23.221714,72.654328,SO2,2,9,7
India,Gujarat,Surat,"Science Center, Surat - SMC",06-10-2025 07:00:00,21.170046,72.795405,NO2,11,28,19
India,Gujarat,Surat,"Science Center, Surat - SMC",06-10-2025 07:00:00,21.170046,72.795405,SO2,17,23,18
India,Gujarat,Vatva,"Phase-4 GIDC, Vatva - GPCB",06-10-2025 07:00:00,22.969611,72.643500,NH3,NA,NA,NA
India,Haryana,Faridabad,"Sector 30, Faridabad - HSPCB",06-10-2025 07:00:00,28.4417,77.3217,PM10,97,103,100
India,Haryana,Faridabad,"Sector 30, Faridabad - HSPCB",06-10-2025 07:00:00,28.4417,77.3217,CO,41,66,62
India,Haryana,Gurugram,"NISE Gwal Pahari, Gurugram - IMD",06-10-2025 07:00:00,28.422681,77.148944,PM10,NA,NA,NA
India,Haryana,Jind,"Police Lines, Jind - HSPCB",06-10-2025 07:00:00,29.307814,76.337619,PM2.5,41,41,41
India,Haryana,Jind,"Police Lines, Jind - HSPCB",06-10-2025 07:00:00,29.307814,76.337619,CO,2,126,41
India,Haryana,Karnal,"Sector-12, Karnal - HSPCB",06-10-2025 07:00:00,29.695300,77.002700,PM2.5,52,102,72
India,Haryana,Karnal,"Sector-12, Karnal - HSPCB",06-10-2025 07:00:00,29.695300,77.002700,SO2,8,10,9
India,Haryana,Mandikhera,"General Hospital, Mandikhera - HSPCB",06-10-2025 07:00:00,27.9002,76.9938,NH3,NA,NA,NA
India,Haryana,Mandikhera,"General Hospital, Mandikhera - HSPCB",06-10-2025 07:00:00,27.9002,76.9938,SO2,12,32,22
India,Delhi,Delhi,"Vivek Vihar, Delhi - DPCC",06-10-2025 07:00:00,28.672342,77.315260,SO2,16,35,20
India,Delhi,Delhi,"Vivek Vihar, Delhi - DPCC",06-10-2025 07:00:00,28.672342,77.315260,CO,36,104,54
India,Delhi,Delhi,"Wazirpur, Delhi - DPCC",06-10-2025 07:00:00,28.699793,77.165453,NO2,37,117,63
India,Gujarat,Ahmedabad,"Chandkheda, Ahmedabad - IITM",06-10-2025 07:00:00,23.107969,72.574648,PM2.5,8,30,16
India,Gujarat,Ahmedabad,"Gyaspur, Ahmedabad - IITM",06-10-2025 07:00:00,22.977134,72.553024,NO2,12,29,17
India,Gujarat,Ahmedabad,"Maninagar, Ahmedabad - GPCB",06-10-2025 07:00:00,23.002657,72.591912,SO2,18,30,23
India,Gujarat,Ahmedabad,"Maninagar, Ahmedabad - GPCB",06-10-2025 07:00:00,23.002657,72.591912,CO,16,28,21
India,Gujarat,Ahmedabad,"Raikhad, Ahmedabad - IITM",06-10-2025 07:00:00,23.020509,72.579261,PM2.5,16,74,41
India,Gujarat,Ahmedabad,"Raikhad, Ahmedabad - IITM",06-10-2025 07:00:00,23.020509,72.579261,NH3,11,13,12
India,Delhi,Delhi,"NSIT Dwarka, Delhi - CPCB",06-10-2025 07:00:00,28.60909,77.0325413,PM10,26,134,94
India,Delhi,Delhi,"NSIT Dwarka, Delhi - CPCB",06-10-2025 07:00:00,28.60909,77.0325413,SO2,11,30,15
India,Delhi,Delhi,"Najafgarh, Delhi - DPCC",06-10-2025 07:00:00,28.570173,76.933762,PM2.5,5,120,57
India,Delhi,Delhi,"Najafgarh, Delhi - DPCC",06-10-2025 07:00:00,28.570173,76.933762,PM10,26,139,78
India,Delhi,Delhi,"Najafgarh, Delhi - DPCC",06-10-2025 07:00:00,28.570173,76.933762,CO,16,37,21
India,Delhi,Delhi,"Narela, Delhi - DPCC",06-10-2025 07:00:00,28.822836,77.101981,NO2,NA,NA,NA
India,Delhi,Delhi,"Narela, Delhi - DPCC",06-10-2025 07:00:00,28.822836,77.101981,NH3,NA,NA,NA
India,Delhi,Delhi,"Nehru Nagar, Delhi - DPCC",06-10-2025 07:00:00,28.567890,77.250515,NO2,15,102,40
India,Delhi,Delhi,"Nehru Nagar, Delhi - DPCC",06-10-2025 07:00:00,28.567890,77.250515,CO,2,90,62
India,Delhi,Delhi,"Okhla Phase-2, Delhi - DPCC",06-10-2025 07:00:00,28.530785,77.271255,PM10,25,290,123
India,Delhi,Delhi,"Patparganj, Delhi - DPCC",06-10-2025 07:00:00,28.623763,77.287209,NH3,5,7,6
India,Delhi,Delhi,"Punjabi Bagh, Delhi - DPCC",06-10-2025 07:00:00,28.674045,77.131023,PM10,20,237,122
India,Delhi,Delhi,"Punjabi Bagh, Delhi - DPCC",06-10-2025 07:00:00,28.674045,77.131023,NO2,22,135,44
India,Delhi,Delhi,"Punjabi Bagh, Delhi - DPCC",06-10-2025 07:00:00,28.674045,77.131023,CO,39,107,54
India,Delhi,Delhi,"Pusa, Delhi - DPCC",06-10-2025 07:00:00,28.639652,77.146275,PM2.5,NA,NA,NA
India,Delhi,Delhi,"Pusa, Delhi - DPCC",06-10-2025 07:00:00,28.639652,77.146275,NH3,NA,NA,NA
India,Delhi,Delhi,"Pusa, Delhi - IMD",06-10-2025 07:00:00,28.636110,77.173332,NO2,11,73,26
India,Delhi,Delhi,"R K Puram, Delhi - DPCC",06-10-2025 07:00:00,28.563262,77.186937,CO,2,86,58
India,Delhi,Delhi,"R K Puram, Delhi - DPCC",06-10-2025 07:00:00,28.563262,77.186937,OZONE,19,172,37
India,Delhi,Delhi,"Rohini, Delhi - DPCC",06-10-2025 07:00:00,28.732528,77.119920,PM10,20,396,144
India,Delhi,Delhi,"Shadipur, Delhi - CPCB",06-10-2025 07:00:00,28.6514781,77.1473105,PM2.5,55,132,81
India,Delhi,Delhi,"Sirifort, Delhi - CPCB",06-10-2025 07:00:00,28.5504249,77.2159377,NH3,2,13,9
India,Delhi,Delhi,"Sonia Vihar, Delhi - DPCC",06-10-2025 07:00:00,28.710508,77.249485,PM2.5,12,200,96
India,Delhi,Delhi,"Vivek Vihar, Delhi - DPCC",06-10-2025 07:00:00,28.672342,77.315260,NO2,17,100,39
India,Haryana,Manesar,"Sector-2 IMT, Manesar - HSPCB",06-10-2025 07:00:00,28.360699,76.936090,PM2.5,29,228,83
India,Haryana,Manesar,"Sector-2 IMT, Manesar - HSPCB",06-10-2025 07:00:00,28.360699,76.936090,NO2,19,25,23
India,Haryana,Palwal,"Shyam Nagar, Palwal - HSPCB",06-10-2025 07:00:00,28.1485564,77.3320667,PM10,113,118,115
India,Haryana,Panchgaon,"Amity University, Panchgaon - IITM",06-10-2025 07:00:00,28.3153,76.9143,NO2,4,30,10
India,Haryana,Panipat,"Sector-18, Panipat - HSPCB",06-10-2025 07:00:00,29.432304,76.972765,NO2,8,23,16
India,Gujarat,Ahmedabad,"SAC ISRO Satellite, Ahmedabad - IITM",06-10-2025 07:00:00,23.023389,72.515201,SO2,1,4,2
India,Gujarat,Ahmedabad,"SAC ISRO Satellite, Ahmedabad - IITM",06-10-2025 07:00:00,23.023389,72.515201,OZONE,1,11,4
India,Karnataka,Shivamogga,"Vinoba Nagara, Shivamogga - KSPCB",06-10-2025 07:00:00,13.940000,75.555917,NH3,3,6,4
India,Karnataka,Vijayapura,"Ibrahimpur, Vijayapura - KSPCB",06-10-2025 07:00:00,16.802639,75.722694,NO2,9,10,9
India,Karnataka,Yadgir,"Collector Office, Yadgir - KSPCB",06-10-2025 07:00:00,16.7602,77.1428,PM2.5,NA,NA,NA
India,Karnataka,Yadgir,"Collector Office, Yadgir - KSPCB",06-10-2025 07:00:00,16.7602,77.1428,PM10,NA,NA,NA
India,Karnataka,Yadgir,"Collector Office, Yadgir - KSPCB",06-10-2025 07:00:00,16.7602,77.1428,NO2,NA,NA,NA
India,Karnataka,Yadgir,"Collector Office, Yadgir - KSPCB",06-10-2025 07:00:00,16.7602,77.1428,NH3,NA,NA,NA
India,Kerala,Kannur,"Thavakkara, Kannur - Kerala PCB",06-10-2025 07:00:00,11.875000,75.373200,PM10,57,59,58
India,Kerala,Kannur,"Thavakkara, Kannur - Kerala PCB",06-10-2025 07:00:00,11.875000,75.373200,CO,12,16,14
India,Kerala,Kollam,"Polayathode, Kollam - Kerala PCB",06-10-2025 07:00:00,8.8787,76.6073,CO,14,16,15
India,Kerala,Thiruvananthapuram,"Kariavattom, Thiruvananthapuram - Kerala PCB",06-10-2025 07:00:00,8.563700,76.886500,PM10,46,50,48
India,Karnataka,Hubballi,"Lingaraj Nagar, Hubballi - KSPCB",06-10-2025 07:00:00,15.3714823,75.1160168,NO2,7,8,7
India,Karnataka,Kalaburagi,"Mahatma Basaveswar Colony, Kalaburgi - KSPCB",06-10-2025 07:00:00,17.336318,76.847397,NH3,2,4,3
India,Karnataka,Kalaburagi,"Mahatma Basaveswar Colony, Kalaburgi - KSPCB",06-10-2025 07:00:00,17.336318,76.847397,SO2,2,4,3
India,Karnataka,Kalaburagi,"Mahatma Basaveswar Colony, Kalaburgi - KSPCB",06-10-2025 07:00:00,17.336318,76.847397,OZONE,13,13,13
India,Karnataka,Karwar,"KHB Colony, Karwar - KSPCB",06-10-2025 07:00:00,14.816666,74.141003,NO2,3,8,6
India,Karnataka,Karwar,"KHB Colony, Karwar - KSPCB",06-10-2025 07:00:00,14.816666,74.141003,NH3,1,1,1
India,Karnataka,Koppal,"Diwator Nagar, Koppal - KSPCB",06-10-2025 07:00:00,15.347630,76.181767,PM2.5,NA,NA,NA
India,Karnataka,Mysuru,"Hebbal 1st Stage, Mysuru - KSPCB",06-10-2025 07:00:00,12.21041,76.37376,PM10,27,41,32
India,Karnataka,Mysuru,"Hebbal 1st Stage, Mysuru - KSPCB",06-10-2025 07:00:00,12.21041,76.37376,NH3,4,5,5
India,Karnataka,Mysuru,"Hebbal 1st Stage, Mysuru - KSPCB",06-10-2025 07:00:00,12.21041,76.37376,OZONE,8,62,9
India,Madhya Pradesh,Katni,"Gole Bazar, Katni - MPPCB",06-10-2025 07:00:00,23.50016,80.23284,NO2,33,40,35
India,Madhya Pradesh,Katni,"Gole Bazar, Katni - MPPCB",06-10-2025 07:00:00,23.50016,80.23284,CO,28,45,39
India,Madhya Pradesh,Katni,"Gole Bazar, Katni - MPPCB",06-10-2025 07:00:00,23.50016,80.23284,OZONE,16,107,28
India,Madhya Pradesh,Mandideep,"Sector-D Industrial Area, Mandideep - MPPCB",06-10-2025 07:00:00,23.108440,77.511428,CO,30,64,38
India,Madhya Pradesh,Pithampur,"Sector-2 Industrial Area, Pithampur - MPPCB",06-10-2025 07:00:00,22.624758,75.675238,PM2.5,52,218,97
India,Madhya Pradesh,Pithampur,"Sector-2 Industrial Area, Pithampur - MPPCB",06-10-2025 07:00:00,22.624758,75.675238,OZONE,17,39,23
India,Madhya Pradesh,Ratlam,"Shasthri Nagar, Ratlam - IPCA Lab",06-10-2025 07:00:00,23.331731,75.045981,PM2.5,4,68,32
India,Kerala,Thrissur,"Corporation Ground, Thrissur - Kerala PCB",06-10-2025 07:00:00,10.532400,76.215900,OZONE,28,28,28
India,Madhya Pradesh,Bhopal,"Idgah Hills, Bhopal - MPPCB",06-10-2025 07:00:00,23.264759,77.381568,CO,17,49,25
India,Madhya Pradesh,Bhopal,"Paryavaran Parisar, Bhopal - MPPCB",06-10-2025 07:00:00,23.210494,77.425409,PM10,16,55,30
India,Madhya Pradesh,Bhopal,"Paryavaran Parisar, Bhopal - MPPCB",06-10-2025 07:00:00,23.210494,77.425409,SO2,11,16,14
India,Madhya Pradesh,Bhopal,"Paryavaran Parisar, Bhopal - MPPCB",06-10-2025 07:00:00,23.210494,77.425409,CO,16,24,17
India,Madhya Pradesh,Bhopal,"T T Nagar, Bhopal - MPPCB",06-10-2025 07:00:00,23.233584,77.400574,PM2.5,19,42,31
India,Madhya Pradesh,Bhopal,"T T Nagar, Bhopal - MPPCB",06-10-2025 07:00:00,23.233584,77.400574,PM10,22,59,38
India,Madhya Pradesh,Bhopal,"T T Nagar, Bhopal - MPPCB",06-10-2025 07:00:00,23.233584,77.400574,NO2,17,29,22
India,Madhya Pradesh,Damoh,"Shrivastav Colony, Damoh - MPPCB",06-10-2025 07:00:00,23.81748678,79.446246,CO,20,28,26
India,Madhya Pradesh,Dewas,"Bhopal Chauraha, Dewas - MPPCB",06-10-2025 07:00:00,22.9682591,76.064118,PM2.5,2,59,32
India,Madhya Pradesh,Dewas,"Bhopal Chauraha, Dewas - MPPCB",06-10-2025 07:00:00,22.9682591,76.064118,SO2,14,23,20
India,Madhya Pradesh,Gwalior,"City Center, Gwalior - MPPCB",06-10-2025 07:00:00,26.203442,78.193251,PM2.5,10,38,20
India,Madhya Pradesh,Gwalior,"City Center, Gwalior - MPPCB",06-10-2025 07:00:00,26.203442,78.193251,PM10,20,88,49
India,Madhya Pradesh,Gwalior,"City Center, Gwalior - MPPCB",06-10-2025 07:00:00,26.203442,78.193251,OZONE,19,39,19
India,Madhya Pradesh,Gwalior,"Deen Dayal Nagar, Gwalior - MPPCB",06-10-2025 07:00:00,26.259242,78.216432,OZONE,49,121,74
India,Himachal Pradesh,Baddi,"HIMUDA Complex Phase-1, Baddi - HPPCB",06-10-2025 07:00:00,30.943887,76.801991,PM10,27,400,109
India,Himachal Pradesh,Baddi,"HIMUDA Complex Phase-1, Baddi - HPPCB",06-10-2025 07:00:00,30.943887,76.801991,NH3,3,6,4
India,Karnataka,Bengaluru,"Bapuji Nagar, Bengaluru - KSPCB",06-10-2025 07:00:00,12.951913,77.539784,SO2,1,6,4
India,Karnataka,Bengaluru,"Hebbal, Bengaluru - KSPCB",06-10-2025 07:00:00,13.029152,77.585901,PM10,10,28,16
India,Karnataka,Bengaluru,"Hebbal, Bengaluru - KSPCB",06-10-2025 07:00:00,13.029152,77.585901,NO2,19,21,20
India,Karnataka,Bengaluru,"Hebbal, Bengaluru - KSPCB",06-10-2025 07:00:00,13.029152,77.585901,SO2,1,5,3
India,Madhya Pradesh,Indore,"Chhoti Gwaltoli, Indore - MPPCB",06-10-2025 07:00:00,22.4310,75.5213,NO2,52,78,63
India,Madhya Pradesh,Indore,"Chhoti Gwaltoli, Indore - MPPCB",06-10-2025 07:00:00,22.4310,75.5213,SO2,10,12,11
India,Madhya Pradesh,Indore,"Regional Park, Indore - IMC",06-10-2025 07:00:00,22.6780,75.8559,PM2.5,15,35,22
India,Madhya Pradesh,Indore,"Regional Park, Indore - IMC",06-10-2025 07:00:00,22.6780,75.8559,CO,14,18,17
India,Madhya Pradesh,Indore,"Regional Park, Indore - IMC",06-10-2025 07:00:00,22.6780,75.8559,OZONE,11,30,19
India,Madhya Pradesh,Jabalpur,"Govindh Bhavan Colony, Jabalpur - JMC",06-10-2025 07:00:00,23.163174,79.973061,OZONE,6,57,16
India,Karnataka,Chikkaballapur,"Chikkaballapur Rural, Chikkaballapur - KSPCB",06-10-2025 07:00:00,13.428828,77.731418,NO2,NA,NA,NA
India,Karnataka,Chikkamagaluru,"Kalyana Nagara, Chikkamagaluru - KSPCB",06-10-2025 07:00:00,13.328028,75.797056,NH3,NA,NA,NA
India,Karnataka,Davanagere,"Devaraj Urs Badavane, Davanagere - KSPCB",06-10-2025 07:00:00,14.475800,75.905200,SO2,2,6,4
India,Karnataka,Dharwad,"Kalabhavan, Dharwad - KSPCB",06-10-2025 07:00:00,15.459706,75.008381,PM10,44,64,53
India,Karnataka,Bengaluru,"Hombegowda Nagar, Bengaluru - KSPCB",06-10-2025 07:00:00,12.938539,77.590100,NH3,1,2,1
India,Karnataka,Bengaluru,"Jayanagar 5th Block, Bengaluru - KSPCB",06-10-2025 07:00:00,12.920984,77.584908,NH3,1,1,1
India,Karnataka,Bengaluru,"RVCE-Mailasandra, Bengaluru - KSPCB",06-10-2025 07:00:00,12.921418,77.502466,PM10,70,113,81
India,Karnataka,Bengaluru,"RVCE-Mailasandra, Bengaluru - KSPCB",06-10-2025 07:00:00,12.921418,77.502466,NO2,36,38,37
India,Karnataka,Bengaluru,"RVCE-Mailasandra, Bengaluru - KSPCB",06-10-2025 07:00:00,12.921418,77.502466,CO,22,52,32
India,Maharashtra,Amravati,"Shivneri Colony, Amravati - MPCB",06-10-2025 07:00:00,20.9402359,77.7895248,PM10,NA,NA,NA
India,Maharashtra,Amravati,"Shivneri Colony, Amravati - MPCB",06-10-2025 07:00:00,20.9402359,77.7895248,NH3,NA,NA,NA
India,Maharashtra,Aurangabad,"MIDC Chilkalthana, Aurangabad - MPCB",06-10-2025 07:00:00,19.875620,75.387310,SO2,1,2,1
India,Maharashtra,Aurangabad,"More Chowk Waluj, Aurangabad - MPCB",06-10-2025 07:00:00,19.8389439,75.244448,OZONE,26,29,28
India,Maharashtra,Aurangabad,"Rachnakar Colony, Aurangabad - MPCB",06-10-2025 07:00:00,19.863756,75.321188,PM10,10,147,39
India,Maharashtra,Aurangabad,"Rachnakar Colony, Aurangabad - MPCB",06-10-2025 07:00:00,19.863756,75.321188,NO2,17,24,20
India,Maharashtra,Aurangabad,"Rachnakar Colony, Aurangabad - MPCB",06-10-2025 07:00:00,19.863756,75.321188,NH3,1,5,3
India,Maharashtra,Aurangabad,"Rachnakar Colony, Aurangabad - MPCB",06-10-2025 07:00:00,19.863756,75.321188,CO,6,42,8
India,Maharashtra,Aurangabad,"Rachnakar Colony, Aurangabad - MPCB",06-10-2025 07:00:00,19.863756,75.321188,OZONE,8,57,12
India,Maharashtra,Badlapur,"Katrap, Badlapur - MPCB",06-10-2025 07:00:00,19.16485,73.23409,PM10,8,250,67
India,Maharashtra,Mumbai,"Kandivali West, Mumbai - BMC",06-10-2025 07:00:00,19.215859,72.831718,OZONE,NA,NA,NA
India,Maharashtra,Mumbai,"Kherwadi_Bandra East, Mumbai - MPCB",06-10-2025 07:00:00,19.0632143,72.8456324,PM2.5,17,52,32
India,Maharashtra,Mumbai,"Malad West, Mumbai - IITM",06-10-2025 07:00:00,19.19709,72.82204,PM2.5,8,56,27
India,Maharashtra,Mumbai,"Malad West, Mumbai - IITM",06-10-2025 07:00:00,19.19709,72.82204,CO,2,51,13
India,Maharashtra,Mumbai,"Malad West, Mumbai - IITM",06-10-2025 07:00:00,19.19709,72.82204,OZONE,3,31,4
India,Maharashtra,Mumbai,"Mazgaon, Mumbai - IITM",06-10-2025 07:00:00,18.96702,72.84214,PM10,59,100,76
India,Maharashtra,Mumbai,"Mazgaon, Mumbai - IITM",06-10-2025 07:00:00,18.96702,72.84214,NO2,22,53,37
India,Maharashtra,Mumbai,"Mazgaon, Mumbai - IITM",06-10-2025 07:00:00,18.96702,72.84214,NH3,7,11,8
India,Maharashtra,Mumbai,"Mindspace-Malad West, Mumbai - MPCB",06-10-2025 07:00:00,19.1878657,72.8304069,NO2,17,19,18
India,Madhya Pradesh,Sagar,"Civil Lines, Sagar - MPPCB",06-10-2025 07:00:00,23.838586,78.759431,SO2,10,18,13
India,Madhya Pradesh,Satna,"Bandhavgar Colony, Satna - Birla Cement",06-10-2025 07:00:00,24.58434363,80.8549414,PM2.5,42,46,44
India,Madhya Pradesh,Satna,"Bandhavgar Colony, Satna - Birla Cement",06-10-2025 07:00:00,24.58434363,80.8549414,NO2,20,25,23
India,Madhya Pradesh,Singrauli,"Suryakiran Bhawan NCL, Singrauli - MPPCB",06-10-2025 07:00:00,24.108970,82.645580,OZONE,11,54,11
India,Maharashtra,Ahmednagar,"Tarakpur, Ahmednagar - MPCB",06-10-2025 07:00:00,19.10122,74.73339,NO2,16,25,21
India,Maharashtra,Akola,"Ramdaspeth, Akola - MPCB",06-10-2025 07:00:00,20.719516,77.000253,NH3,3,4,3
India,Maharashtra,Mahad,"Kamble Tarf Birwadi, Mahad - MPCB",06-10-2025 07:00:00,18.1023399,73.4783687,CO,23,49,27
India,Maharashtra,Mira-Bhayandar,"Bhayandar West, Mira-Bhayandar - MPCB",06-10-2025 07:00:00,19.296481,72.840923,NH3,1,4,2
India,Maharashtra,Mumbai,"Bandra Kurla Complex, Mumbai - MPCB",06-10-2025 07:00:00,19.065931,72.862131,PM10,65,104,76
India,Maharashtra,Mumbai,"Bandra Kurla Complex, Mumbai - MPCB",06-10-2025 07:00:00,19.065931,72.862131,NH3,1,4,2
India,Maharashtra,Mumbai,"Bandra Kurla Complex, Mumbai - MPCB",06-10-2025 07:00:00,19.065931,72.862131,CO,6,26,21
India,Maharashtra,Mumbai,"Borivali East, Mumbai - IITM",06-10-2025 07:00:00,19.23241,72.86895,PM2.5,16,66,43
India,Maharashtra,Mumbai,"Borivali East, Mumbai - IITM",06-10-2025 07:00:00,19.23241,72.86895,NH3,NA,NA,NA
India,Maharashtra,Mumbai,"Mindspace-Malad West, Mumbai - MPCB",06-10-2025 07:00:00,19.1878657,72.8304069,SO2,15,15,15
India,Maharashtra,Mumbai,"Navy Nagar-Colaba, Mumbai - IITM",06-10-2025 07:00:00,18.897756,72.813320,SO2,10,18,16
India,Maharashtra,Mumbai,"Powai, Mumbai - MPCB",06-10-2025 07:00:00,19.137500,72.915056,PM2.5,26,49,34
India,Maharashtra,Mumbai,"Sewri, Mumbai - BMC",06-10-2025 07:00:00,19.000084,72.856730,SO2,14,42,26
India,Maharashtra,Mumbai,"Siddharth Nagar-Worli, Mumbai - IITM",06-10-2025 07:00:00,19.000083,72.813993,PM2.5,14,41,28
India,Maharashtra,Mumbai,"Siddharth Nagar-Worli, Mumbai - IITM",06-10-2025 07:00:00,19.000083,72.813993,PM10,28,78,49
India,Maharashtra,Mumbai,"Siddharth Nagar-Worli, Mumbai - IITM",06-10-2025 07:00:00,19.000083,72.813993,NO2,29,69,40
India,Maharashtra,Mumbai,"Borivali East, Mumbai - MPCB",06-10-2025 07:00:00,19.2243333,72.8658113,PM2.5,18,44,30
India,Maharashtra,Mumbai,"Borivali East, Mumbai - MPCB",06-10-2025 07:00:00,19.2243333,72.8658113,NH3,1,1,1
India,Maharashtra,Mumbai,"Chakala-Andheri East, Mumbai - IITM",06-10-2025 07:00:00,19.11074,72.86084,PM10,50,88,63
India,Maharashtra,Mumbai,"Chakala-Andheri East, Mumbai - IITM",06-10-2025 07:00:00,19.11074,72.86084,NH3,1,14,8
India,Maharashtra,Mumbai,"Chakala-Andheri East, Mumbai - IITM",06-10-2025 07:00:00,19.11074,72.86084,SO2,1,15,5
India,Maharashtra,Mumbai,"Chembur, Mumbai - MPCB",06-10-2025 07:00:00,19.0364585,72.8954371,SO2,4,68,9
India,Maharashtra,Mumbai,"Chhatrapati Shivaji Intl. Airport (T2), Mumbai - MPCB",06-10-2025 07:00:00,19.10078,72.87462,PM2.5,36,45,42
India,Maharashtra,Mumbai,"Colaba, Mumbai - MPCB",06-10-2025 07:00:00,18.910000,72.820000,NH3,3,3,3
India,Maharashtra,Mumbai,"Colaba, Mumbai - MPCB",06-10-2025 07:00:00,18.910000,72.820000,OZONE,9,13,12
India,Maharashtra,Mumbai,"Ghatkopar, Mumbai - BMC",06-10-2025 07:00:00,19.083694,72.920967,PM10,35,91,66
India,Maharashtra,Mumbai,"Ghatkopar, Mumbai - BMC",06-10-2025 07:00:00,19.083694,72.920967,NO2,10,21,15
India,Maharashtra,Mumbai,"Kandivali West, Mumbai - BMC",06-10-2025 07:00:00,19.215859,72.831718,PM2.5,16,36,25
India,Maharashtra,Bhiwandi,"Gokul Nagar, Bhiwandi - MPCB",06-10-2025 07:00:00,19.309073,73.057223,NO2,19,29,24
India,Maharashtra,Bhiwandi,"Gokul Nagar, Bhiwandi - MPCB",06-10-2025 07:00:00,19.309073,73.057223,NH3,4,7,6
India,Maharashtra,Dhule,"Deopur, Dhule - MPCB",06-10-2025 07:00:00,20.918946,74.776388,NH3,4,5,5
India,Maharashtra,Dhule,"Deopur, Dhule - MPCB",06-10-2025 07:00:00,20.918946,74.776388,CO,1,17,4
India,Maharashtra,Kalyan,"Pimpleshwar Mandir, Kalyan - MPCB",06-10-2025 07:00:00,19.192056,72.9585188,PM10,24,95,60
India,Odisha,Barbil,"Forest Office, Barbil - OSPCB",06-10-2025 07:00:00,22.1166054,85.3945546,CO,23,53,43
India,Odisha,Barbil,"Forest Office, Barbil - OSPCB",06-10-2025 07:00:00,22.1166054,85.3945546,OZONE,2,26,2
India,Odisha,Baripada,"Meher Colony, Baripada - OSPCB",06-10-2025 07:00:00,21.941841,86.728318,CO,32,65,40
India,Odisha,Bhubaneswar,"Lingraj Mandir, Bhubaneswar - OSPCB",06-10-2025 07:00:00,20.240790,85.836784,PM10,26,85,62
India,Odisha,Bhubaneswar,"Lingraj Mandir, Bhubaneswar - OSPCB",06-10-2025 07:00:00,20.240790,85.836784,OZONE,3,58,29
India,Odisha,Bhubaneswar,"Patia, Bhubaneswar - OSPCB",06-10-2025 07:00:00,20.34652,85.81630,PM2.5,13,30,23
India,Odisha,Bhubaneswar,"Patia, Bhubaneswar - OSPCB",06-10-2025 07:00:00,20.34652,85.81630,NH3,10,13,12
India,Odisha,Bhubaneswar,"Patia, Bhubaneswar - OSPCB",06-10-2025 07:00:00,20.34652,85.81630,OZONE,4,19,8
India,Odisha,Bileipada,"Tata Township, Bileipada - OSPCB",06-10-2025 07:00:00,22.06156703,85.47409613,PM10,34,125,66
India,Odisha,Bileipada,"Tata Township, Bileipada - OSPCB",06-10-2025 07:00:00,22.06156703,85.47409613,SO2,9,13,11
India,Maharashtra,Navi Mumbai,"Sector-2E Kalamboli, Navi Mumbai - MPCB",06-10-2025 07:00:00,19.02579,73.10297,PM10,51,84,67
India,Maharashtra,Navi Mumbai,"Sector-2E Kalamboli, Navi Mumbai - MPCB",06-10-2025 07:00:00,19.02579,73.10297,NO2,16,87,33
India,Maharashtra,Navi Mumbai,"Sector-2E Kalamboli, Navi Mumbai - MPCB",06-10-2025 07:00:00,19.02579,73.10297,OZONE,1,33,2
India,Maharashtra,Navi Mumbai,"Tondare-Taloja, Navi Mumbai - MPCB",06-10-2025 07:00:00,19.0630,73.1209,CO,26,34,32
India,Maharashtra,Parbhani,"Masoom Colony, Parbhani - MPCB",06-10-2025 07:00:00,19.265594,76.761463,PM2.5,16,35,26
India,Maharashtra,Parbhani,"Masoom Colony, Parbhani - MPCB",06-10-2025 07:00:00,19.265594,76.761463,PM10,29,62,44
India,Maharashtra,Parbhani,"Masoom Colony, Parbhani - MPCB",06-10-2025 07:00:00,19.265594,76.761463,SO2,NA,NA,NA
India,Maharashtra,Parbhani,"Masoom Colony, Parbhani - MPCB",06-10-2025 07:00:00,19.265594,76.761463,OZONE,1,4,3
India,Maharashtra,Pimpri-Chinchwad,"Gavalinagar, Pimpri Chinchwad - MPCB",06-10-2025 07:00:00,18.63673,73.82487,NH3,7,8,7
India,Maharashtra,Pimpri-Chinchwad,"Gavalinagar, Pimpri Chinchwad - MPCB",06-10-2025 07:00:00,18.63673,73.82487,CO,6,23,12
India,Maharashtra,Nashik,"Pandav Nagari, Nashik - MPCB",06-10-2025 07:00:00,19.9591346,73.7788008,PM2.5,13,57,28
India,Maharashtra,Nashik,"Pandav Nagari, Nashik - MPCB",06-10-2025 07:00:00,19.9591346,73.7788008,PM10,24,45,36
India,Maharashtra,Navi Mumbai,"Kopripada-Vashi, Navi Mumbai - MPCB",06-10-2025 07:00:00,19.090337,73.014232,NO2,7,19,13
India,Maharashtra,Navi Mumbai,"Mahape, Navi Mumbai - MPCB",06-10-2025 07:00:00,19.1135051,73.008978,NO2,34,36,35
India,Maharashtra,Navi Mumbai,"Mahape, Navi Mumbai - MPCB",06-10-2025 07:00:00,19.1135051,73.008978,CO,30,63,38
India,Maharashtra,Navi Mumbai,"Nerul, Navi Mumbai - MPCB",06-10-2025 07:00:00,19.008751,73.016620,PM2.5,29,62,42
India,Maharashtra,Navi Mumbai,"Nerul, Navi Mumbai - MPCB",06-10-2025 07:00:00,19.008751,73.016620,NO2,30,30,30
India,Maharashtra,Navi Mumbai,"Nerul, Navi Mumbai - MPCB",06-10-2025 07:00:00,19.008751,73.016620,NH3,4,4,4
India,Maharashtra,Navi Mumbai,"Nerul, Navi Mumbai - MPCB",06-10-2025 07:00:00,19.008751,73.016620,SO2,NA,NA,NA
India,Maharashtra,Pimpri-Chinchwad,"Thergaon, Pimpri Chinchwad - MPCB",06-10-2025 07:00:00,18.616318,73.765797,PM10,43,73,58
India,Maharashtra,Pimpri-Chinchwad,"Thergaon, Pimpri Chinchwad - MPCB",06-10-2025 07:00:00,18.616318,73.765797,SO2,1,3,2
India,Maharashtra,Pune,"Hadapsar, Pune - IITM",06-10-2025 07:00:00,18.501793,73.927532,PM10,31,31,31
India,Maharashtra,Pune,"Katraj Dairy, Pune - MPCB",06-10-2025 07:00:00,18.454450,73.854155,OZONE,22,22,22
India,Maharashtra,Pune,"Panchawati_Pashan, Pune - IITM",06-10-2025 07:00:00,18.536457,73.805454,NO2,10,15,12
India,Maharashtra,Pune,"Panchawati_Pashan, Pune - IITM",06-10-2025 07:00:00,18.536457,73.805454,OZONE,7,41,13
India,Maharashtra,Pune,"Revenue Colony-Shivajinagar, Pune - IITM",06-10-2025 07:00:00,18.530085,73.849598,PM10,14,15,14
India,Maharashtra,Thane,"Kasarvadavali, Thane - MPCB",06-10-2025 07:00:00,19.26777,72.97182,PM2.5,NA,NA,NA
India,Maharashtra,Thane,"Kasarvadavali, Thane - MPCB",06-10-2025 07:00:00,19.26777,72.97182,SO2,NA,NA,NA
India,Maharashtra,Thane,"Upvan Fort, Thane - MPCB",06-10-2025 07:00:00,19.222279,72.957979,OZONE,11,26,12
India,Maharashtra,Ulhasnagar,"Sidhi Vinayak Nagar, Ulhasnagar - MPCB",06-10-2025 07:00:00,19.235581,73.159121,NO2,9,29,18
India,Maharashtra,Ulhasnagar,"Sidhi Vinayak Nagar, Ulhasnagar - MPCB",06-10-2025 07:00:00,19.235581,73.159121,CO,30,42,37
India,Meghalaya,Shillong,"JN Stadium, Shillong - Meghalaya PCB",06-10-2025 07:00:00,25.5803419,91.8942571,NH3,7,9,8
India,Maharashtra,Pune,"Savitribai Phule Pune University, Pune - MPCB",06-10-2025 07:00:00,18.547056,73.826908,PM10,39,58,49
India,Maharashtra,Pune,"Transport Nagar-Nigdi, Pune - IITM",06-10-2025 07:00:00,18.664282,73.763966,NO2,15,17,16
India,Maharashtra,Sangli,"Vijay Nagar, Sangli - MPCB",06-10-2025 07:00:00, 16.5038,74.3623,PM10,45,67,56
India,Maharashtra,Sangli,"Vijay Nagar, Sangli - MPCB",06-10-2025 07:00:00, 16.5038,74.3623,NH3,1,3,2
India,Maharashtra,Sangli,"Vijay Nagar, Sangli - MPCB",06-10-2025 07:00:00, 16.5038,74.3623,OZONE,8,28,13
India,Maharashtra,Solapur,"Dnyaneshwar Nagar, Solapur - MPCB",06-10-2025 07:00:00,17.6336264,75.9132495,SO2,1,4,2
India,Nagaland,Kohima,"PWD Junction, Kohima - NPCB",06-10-2025 07:00:00,25.6635413,94.0989878,PM2.5,12,77,40
India,Odisha,Angul,"Hakimapada, Angul - OSPCB",06-10-2025 07:00:00,20.832874,85.104082,PM2.5,15,55,29
India,Odisha,Angul,"Hakimapada, Angul - OSPCB",06-10-2025 07:00:00,20.832874,85.104082,SO2,6,8,7
India,Odisha,Angul,"Hakimapada, Angul - OSPCB",06-10-2025 07:00:00,20.832874,85.104082,CO,46,70,57
India,Odisha,Balasore,"Kalidaspur, Balasore - OSPCB",06-10-2025 07:00:00,21.51161,86.89088,SO2,5,6,5
India,Odisha,Barbil,"Forest Office, Barbil - OSPCB",06-10-2025 07:00:00,22.1166054,85.3945546,SO2,7,26,12
India,Maharashtra,Mumbai,"Sion, Mumbai - MPCB",06-10-2025 07:00:00,19.047000,72.874600,PM10,41,41,41
India,Maharashtra,Mumbai,"Sion, Mumbai - MPCB",06-10-2025 07:00:00,19.047000,72.874600,CO,16,20,19
India,Maharashtra,Mumbai,"Vasai West, Mumbai - MPCB",06-10-2025 07:00:00,19.383200,72.820400,PM2.5,25,179,52
