country,state,city,station,last_update,latitude,longitude,pollutant_id,min_value,max_value,avg_value
India,Bihar,Motihari,"Gandak Colony, Motihari - BSPCB",19-01-2026 08:00:00,26.63086,84.90051,SO2,3,3,3
India,Bihar,Motihari,"Gandak Colony, Motihari - BSPCB",19-01-2026 08:00:00,26.63086,84.90051,OZONE,3,9,4
India,Bihar,Munger,"Town Hall, Munger - BSPCB",19-01-2026 08:00:00,25.376776,86.471523,PM2.5,30,120,74
India,Bihar,Munger,"Town Hall, Munger - BSPCB",19-01-2026 08:00:00,25.376776,86.471523,NH3,4,8,6
India,Bihar,Munger,"Town Hall, Munger - BSPCB",19-01-2026 08:00:00,25.376776,86.471523,OZONE,13,30,17
India,Bihar,Muzaffarpur,"Buddha Colony, Muzaffarpur - BSPCB",19-01-2026 08:00:00,26.11442,85.39813,PM2.5,76,300,179
India,Bihar,Muzaffarpur,"Buddha Colony, Muzaffarpur - BSPCB",19-01-2026 08:00:00,26.11442,85.39813,SO2,3,6,5
India,Bihar,Muzaffarpur,"Buddha Colony, Muzaffarpur - BSPCB",19-01-2026 08:00:00,26.11442,85.39813,CO,28,139,48
India,Bihar,Patna,"DRM Office Danapur, Patna - BSPCB",19-01-2026 08:00:00,25.586562,85.043586,PM2.5,71,330,185
India,Bihar,Patna,"DRM Office Danapur, Patna - BSPCB",19-01-2026 08:00:00,25.586562,85.043586,PM10,91,414,180
India,Bihar,Patna,"DRM Office Danapur, Patna - BSPCB",19-01-2026 08:00:00,25.586562,85.043586,NO2,13,106,39
India,Bihar,Patna,"DRM Office Danapur, Patna - BSPCB",19-01-2026 08:00:00,25.586562,85.043586,NH3,3,29,13
India,Andhra_Pradesh,Vijayawada,"HB Colony, Vijayawada - APPCB",19-01-2026 08:00:00,16.536107,80.594233,SO2,18,18,18
India,Andhra_Pradesh,Vijayawada,"Kanuru, Vijayawada - APPCB",19-01-2026 08:00:00,16.486692,80.699436,PM10,NA,NA,NA
India,Andhra_Pradesh,Vijayawada,"Kanuru, Vijayawada - APPCB",19-01-2026 08:00:00,16.486692,80.699436,NO2,NA,NA,NA
India,Andhra_Pradesh,Vijayawada,"Rajiv Gandhi Park, Vijayawada - APPCB",19-01-2026 08:00:00,16.509717,80.612222,PM2.5,50,62,56
India,Andhra_Pradesh,Vijayawada,"Rajiv Gandhi Park, Vijayawada - APPCB",19-01-2026 08:00:00,16.509717,80.612222,PM10,56,67,62
India,Andhra_Pradesh,Vijayawada,"Rajiv Gandhi Park, Vijayawada - APPCB",19-01-2026 08:00:00,16.509717,80.612222,SO2,15,16,15
India,Andhra_Pradesh,Vijayawada,"Rajiv Nagar, Vijayawada - APPCB",19-01-2026 08:00:00,16.554731,80.649110,SO2,NA,NA,NA
India,Andhra_Pradesh,Visakhapatnam,"GVM Corporation, Visakhapatnam - APPCB",19-01-2026 08:00:00,17.72,83.3,CO,14,81,49
India,Arunachal_Pradesh,Naharlagun,"Naharlagun, Naharlagun - APSPCB",19-01-2026 08:00:00,27.103358,93.679645,NO2,6,7,7
India,Bihar,Arrah,"New DM Office, Arrah - BSPCB",19-01-2026 08:00:00,25.5626095,84.663264,CO,42,76,54
India,Bihar,Aurangabad,"Gurdeo Nagar, Aurangabad - BSPCB",19-01-2026 08:00:00,24.75746,84.366208,SO2,1,14,6
India,Bihar,Begusarai,"Lohiyanagar, Begusarai - BSPCB",19-01-2026 08:00:00,25.42742023,86.13886079,PM2.5,33,160,75
India,Bihar,Begusarai,"Lohiyanagar, Begusarai - BSPCB",19-01-2026 08:00:00,25.42742023,86.13886079,SO2,26,32,29
India,Bihar,Bettiah,"Kamalnath Nagar, Bettiah - BSPCB",19-01-2026 08:00:00,26.80365,84.51954,SO2,4,15,9
India,Bihar,Bettiah,"Kamalnath Nagar, Bettiah - BSPCB",19-01-2026 08:00:00,26.80365,84.51954,CO,60,134,84
India,Bihar,Bettiah,"Kamalnath Nagar, Bettiah - BSPCB",19-01-2026 08:00:00,26.80365,84.51954,OZONE,22,24,23
India,Bihar,Bhagalpur,"DM Office_Kachari Chowk, Bhagalpur - BSPCB",19-01-2026 08:00:00,25.251013,86.989001,PM2.5,117,240,154
India,Bihar,Bhagalpur,"DM Office_Kachari Chowk, Bhagalpur - BSPCB",19-01-2026 08:00:00,25.251013,86.989001,CO,58,88,64
India,Assam,Byrnihat,"Central Academy for SFS, Byrnihat - PCBA",19-01-2026 08:00:00,26.071318,91.87488,NH3,4,4,4
India,Assam,Byrnihat,"Central Academy for SFS, Byrnihat - PCBA",19-01-2026 08:00:00,26.071318,91.87488,CO,29,61,53
India,Assam,Byrnihat,"Central Academy for SFS, Byrnihat - PCBA",19-01-2026 08:00:00,26.071318,91.87488,OZONE,14,29,16
India,Assam,Guwahati,"LGBI Airport, Guwahati - PCBA",19-01-2026 08:00:00,26.10887,91.589544,NH3,3,6,5
India,Assam,Guwahati,"Pan Bazaar, Guwahati - PCBA",19-01-2026 08:00:00,26.187500,91.744194,PM10,83,328,135
India,Assam,Guwahati,"Pan Bazaar, Guwahati - PCBA",19-01-2026 08:00:00,26.187500,91.744194,OZONE,16,18,18
India,Assam,Guwahati,"Railway Colony, Guwahati - PCBA",19-01-2026 08:00:00,26.181742,91.78063,PM10,74,309,178
India,Assam,Guwahati,"Railway Colony, Guwahati - PCBA",19-01-2026 08:00:00,26.181742,91.78063,NO2,3,4,3
India,Assam,Nagaon,"Christianpatty, Nagaon - PCBA",19-01-2026 08:00:00,26.349082,92.68449,PM2.5,NA,NA,NA
India,Andhra_Pradesh,Chittoor,"Gangineni Cheruvu, Chittoor - APPCB",19-01-2026 08:00:00,13.204880,79.097889,OZONE,54,61,58
India,Andhra_Pradesh,Rajamahendravaram,"Anand Kala Kshetram, Rajamahendravaram - APPCB",19-01-2026 08:00:00,16.9872867,81.7363176,PM10,97,137,119
India,Andhra_Pradesh,Rajamahendravaram,"Anand Kala Kshetram, Rajamahendravaram - APPCB",19-01-2026 08:00:00,16.9872867,81.7363176,NO2,12,40,23
India,Andhra_Pradesh,Rajamahendravaram,"Anand Kala Kshetram, Rajamahendravaram - APPCB",19-01-2026 08:00:00,16.9872867,81.7363176,SO2,6,23,9
India,Andhra_Pradesh,Rajamahendravaram,"Anand Kala Kshetram, Rajamahendravaram - APPCB",19-01-2026 08:00:00,16.9872867,81.7363176,CO,28,56,37
India,Andhra_Pradesh,Tirumala,"Toll Gate, Tirumala - APPCB",19-01-2026 08:00:00,13.67,79.35,PM10,48,122,85
India,Andhra_Pradesh,Tirumala,"Toll Gate, Tirumala - APPCB",19-01-2026 08:00:00,13.67,79.35,OZONE,17,141,32
India,Andhra_Pradesh,Tirupati,"Vaikuntapuram, Tirupati - APPCB",19-01-2026 08:00:00,13.615387,79.409230,NO2,37,41,39
India,Bihar,Bihar Sharif,"D M Colony, Bihar Sharif - BSPCB",19-01-2026 08:00:00,25.204762,85.514960,SO2,10,10,10
India,Bihar,Buxar,"Charitra Van, Buxar - BSPCB",19-01-2026 08:00:00,25.567520,83.966379,PM10,105,213,136
India,Bihar,Buxar,"Charitra Van, Buxar - BSPCB",19-01-2026 08:00:00,25.567520,83.966379,NH3,3,3,3
India,Bihar,Chhapra,"Darshan Nagar, Chhapra - BSPCB",19-01-2026 08:00:00,25.7808257,84.7446768,PM2.5,NA,NA,NA
India,Bihar,Chhapra,"Darshan Nagar, Chhapra - BSPCB",19-01-2026 08:00:00,25.7808257,84.7446768,NO2,NA,NA,NA
India,Bihar,Gaya,"Collectorate, Gaya - BSPCB",19-01-2026 08:00:00,24.7955,84.9994,SO2,NA,NA,NA
India,Bihar,Gaya,"Kareemganj, Gaya - BSPCB",19-01-2026 08:00:00,24.792403,84.992416,OZONE,1,48,3
India,Bihar,Hajipur,"Industrial Area, Hajipur - BSPCB",19-01-2026 08:00:00,25.697189,85.245900,PM10,84,372,160
India,Bihar,Hajipur,"Industrial Area, Hajipur - BSPCB",19-01-2026 08:00:00,25.697189,85.245900,NO2,16,62,37
India,Bihar,Katihar,"Mirchaibari, Katihar - BSPCB",19-01-2026 08:00:00,25.560083,87.553265,OZONE,21,27,24
India,Bihar,Manguraha,"Forest Rest House, Manguraha - BSPCB",19-01-2026 08:00:00,27.308328,84.531742,NO2,4,12,6
India,Assam,Nalbari,"Bata Chowk, Nalbari - PCBA",19-01-2026 08:00:00,26.446912,91.439057,SO2,7,8,8
India,Assam,Silchar,"Tarapur, Silchar - PCBA",19-01-2026 08:00:00,24.82827,92.79525,SO2,4,5,5
India,Bihar,Araria,"Kharahiya Basti, Araria - BSPCB",19-01-2026 08:00:00,26.146529,87.454184,PM10,38,143,97
India,Bihar,Araria,"Kharahiya Basti, Araria - BSPCB",19-01-2026 08:00:00,26.146529,87.454184,NO2,1,14,5
India,Andhra_Pradesh,Anantapur,"Gulzarpet, Anantapur - APPCB",19-01-2026 08:00:00,14.675886,77.593027,PM2.5,69,84,77
India,Andhra_Pradesh,Anantapur,"Gulzarpet, Anantapur - APPCB",19-01-2026 08:00:00,14.675886,77.593027,SO2,10,10,10
India,Andhra_Pradesh,Chittoor,"Gangineni Cheruvu, Chittoor - APPCB",19-01-2026 08:00:00,13.204880,79.097889,PM2.5,46,274,77
India,Andhra_Pradesh,Chittoor,"Gangineni Cheruvu, Chittoor - APPCB",19-01-2026 08:00:00,13.204880,79.097889,PM10,47,161,73
India,Bihar,Gaya,"Collectorate, Gaya - BSPCB",19-01-2026 08:00:00,24.7955,84.9994,OZONE,NA,NA,NA
India,Bihar,Gaya,"Kareemganj, Gaya - BSPCB",19-01-2026 08:00:00,24.792403,84.992416,NH3,5,6,5
India,Bihar,Gaya,"Kareemganj, Gaya - BSPCB",19-01-2026 08:00:00,24.792403,84.992416,SO2,13,17,15
India,Bihar,Gaya,"Kareemganj, Gaya - BSPCB",19-01-2026 08:00:00,24.792403,84.992416,CO,32,42,40
India,Chhattisgarh,Bhilai,"Civic Center, Bhilai - Bhilai Steel Plant",19-01-2026 08:00:00,21.185571,81.343175,PM10,16,104,58
India,Chhattisgarh,Bhilai,"Civic Center, Bhilai - Bhilai Steel Plant",19-01-2026 08:00:00,21.185571,81.343175,SO2,7,10,8
India,Chhattisgarh,Bhilai,"Hathkhoj, Bhilai - CECB",19-01-2026 08:00:00,21.224231,81.408350,NO2,33,96,55
India,Chhattisgarh,Bilaspur,"Mangala, Bilaspur - NTPC",19-01-2026 08:00:00,22.08815,82.13737,PM10,57,126,84
India,Chhattisgarh,Bilaspur,"Mangala, Bilaspur - NTPC",19-01-2026 08:00:00,22.08815,82.13737,SO2,8,37,18
India,Chhattisgarh,Chhal,"Nawapara SECL Colony, Chhal - CECB",19-01-2026 08:00:00,22.118125,83.140608,SO2,2,99,24
India,Chhattisgarh,Chhal,"Nawapara SECL Colony, Chhal - CECB",19-01-2026 08:00:00,22.118125,83.140608,CO,22,50,24
India,Chhattisgarh,Korba,"Rampur, Korba - CECB",19-01-2026 08:00:00,22.368195,82.746431,SO2,8,73,22
India,Chhattisgarh,Korba,"Rampur, Korba - CECB",19-01-2026 08:00:00,22.368195,82.746431,CO,22,32,26
India,Chhattisgarh,Korba,"Urja Nagar, Korba - CECB",19-01-2026 08:00:00,22.348441,82.549611,PM2.5,3,140,45
India,Chhattisgarh,Korba,"Urja Nagar, Korba - CECB",19-01-2026 08:00:00,22.348441,82.549611,PM10,3,120,48
India,Chhattisgarh,Korba,"Urja Nagar, Korba - CECB",19-01-2026 08:00:00,22.348441,82.549611,NO2,16,22,19
India,Delhi,Delhi,"DTU, Delhi - CPCB",19-01-2026 08:00:00,28.7500499,77.1112615,CO,105,143,130
India,Delhi,Delhi,"DTU, Delhi - CPCB",19-01-2026 08:00:00,28.7500499,77.1112615,OZONE,15,40,16
India,Delhi,Delhi,"Dr. Karni Singh Shooting Range, Delhi - DPCC",19-01-2026 08:00:00,28.498571,77.264840,PM10,190,445,322
India,Delhi,Delhi,"Dr. Karni Singh Shooting Range, Delhi - DPCC",19-01-2026 08:00:00,28.498571,77.264840,CO,38,118,58
India,Delhi,Delhi,"Dr. Karni Singh Shooting Range, Delhi - DPCC",19-01-2026 08:00:00,28.498571,77.264840,OZONE,3,134,14
India,Delhi,Delhi,"Dwarka-Sector 8, Delhi - DPCC ",19-01-2026 08:00:00,28.5710274,77.0719006,SO2,16,27,22
India,Delhi,Delhi,"IGI Airport (T3), Delhi - IMD",19-01-2026 08:00:00,28.5627763,77.1180053,PM10,182,410,306
India,Delhi,Delhi,"IHBAS, Dilshad Garden, Delhi - CPCB",19-01-2026 08:00:00,28.6811736,77.3025234,NO2,44,188,111
India,Delhi,Delhi,"IIT Delhi, Delhi - IITM",19-01-2026 08:00:00,28.542460,77.191651,PM2.5,282,439,380
India,Bihar,Patna,"Govt. High School Shikarpur, Patna - BSPCB",19-01-2026 08:00:00,25.592539,85.227158,PM10,98,128,108
India,Bihar,Patna,"Govt. High School Shikarpur, Patna - BSPCB",19-01-2026 08:00:00,25.592539,85.227158,NO2,14,18,16
India,Bihar,Patna,"Govt. High School Shikarpur, Patna - BSPCB",19-01-2026 08:00:00,25.592539,85.227158,SO2,12,20,16
India,Bihar,Patna,"Govt. High School Shikarpur, Patna - BSPCB",19-01-2026 08:00:00,25.592539,85.227158,CO,24,150,112
India,Bihar,Patna,"IGSC Planetarium Complex, Patna - BSPCB",19-01-2026 08:00:00,25.610369,85.132568,NO2,19,24,22
India,Bihar,Patna,"IGSC Planetarium Complex, Patna - BSPCB",19-01-2026 08:00:00,25.610369,85.132568,CO,72,82,80
India,Bihar,Patna,"IGSC Planetarium Complex, Patna - BSPCB",19-01-2026 08:00:00,25.610369,85.132568,OZONE,29,30,30
India,Bihar,Patna,"Muradpur, Patna - BSPCB",19-01-2026 08:00:00,25.619651,85.147382,PM10,107,124,117
India,Bihar,Patna,"Muradpur, Patna - BSPCB",19-01-2026 08:00:00,25.619651,85.147382,OZONE,4,16,5
India,Bihar,Patna,"Samanpura, Patna - BSPCB",19-01-2026 08:00:00,25.596727,85.085624,PM10,104,159,135
India,Bihar,Purnia,"Mariam Nagar, Purnia - BSPCB",19-01-2026 08:00:00,25.366336,87.117468,PM2.5,93,210,139
India,Bihar,Purnia,"Mariam Nagar, Purnia - BSPCB",19-01-2026 08:00:00,25.366336,87.117468,PM10,73,115,93
India,Bihar,Rajgir,"Dangi Tola, Rajgir - BSPCB",19-01-2026 08:00:00,25.03280,85.41948,PM2.5,70,343,212
India,Bihar,Rajgir,"Dangi Tola, Rajgir - BSPCB",19-01-2026 08:00:00,25.03280,85.41948,PM10,74,263,147
India,Bihar,Rajgir,"Dangi Tola, Rajgir - BSPCB",19-01-2026 08:00:00,25.03280,85.41948,NO2,8,10,9
India,Bihar,Saharsa,"Police Line, Saharsa - BSPCB",19-01-2026 08:00:00,25.892357,86.590325,OZONE,9,11,10
India,Bihar,Samastipur,"DM Office_Kasipur, Samastipur - BSPCB",19-01-2026 08:00:00,25.859655,85.77944,NO2,8,9,8
India,Bihar,Sasaram,"Dada Peer, Sasaram - BSPCB",19-01-2026 08:00:00,24.952822,84.002396,PM2.5,16,79,40
India,Chhattisgarh,Raipur,"Krishak Nagar, Raipur - CECB",19-01-2026 08:00:00,21.237755,81.705301,CO,31,52,42
India,Chhattisgarh,Raipur,"Krishak Nagar, Raipur - CECB",19-01-2026 08:00:00,21.237755,81.705301,OZONE,13,26,13
India,Chhattisgarh,Tumidih,"OP Jindal Industrial Park, Tumidih - CECB",19-01-2026 08:00:00,22.06631475,83.33820077,OZONE,3,87,4
India,Delhi,Delhi,"Alipur, Delhi - DPCC",19-01-2026 08:00:00,28.815329,77.153010,OZONE,4,56,4
India,Delhi,Delhi,"Anand Vihar, Delhi - DPCC",19-01-2026 08:00:00,28.647622,77.3158090,PM10,224,500,430
India,Delhi,Delhi,"Anand Vihar, Delhi - DPCC",19-01-2026 08:00:00,28.647622,77.3158090,OZONE,8,18,15
India,Delhi,Delhi,"Ashok Vihar, Delhi - DPCC",19-01-2026 08:00:00,28.695381,77.181665,PM10,277,500,444
India,Delhi,Delhi,"Ashok Vihar, Delhi - DPCC",19-01-2026 08:00:00,28.695381,77.181665,NH3,7,9,8
India,Bihar,Siwan,"Chitragupta Nagar, Siwan - BSPCB",19-01-2026 08:00:00,26.2271665,84.3570427,PM10,NA,NA,NA
India,Bihar,Siwan,"Chitragupta Nagar, Siwan - BSPCB",19-01-2026 08:00:00,26.2271665,84.3570427,OZONE,13,14,13
India,Chandigarh,Chandigarh,"Sector 22, Chandigarh - CPCC",19-01-2026 08:00:00,30.735567,76.775714,PM2.5,33,203,86
India,Chandigarh,Chandigarh,"Sector 22, Chandigarh - CPCC",19-01-2026 08:00:00,30.735567,76.775714,PM10,35,139,81
India,Chandigarh,Chandigarh,"Sector-25, Chandigarh - CPCC",19-01-2026 08:00:00,30.751462,76.762879,PM2.5,98,318,181
India,Chhattisgarh,Bhilai,"32Bungalows, Bhilai - CECB",19-01-2026 08:00:00,21.194815,81.314770,PM2.5,19,48,33
India,Chhattisgarh,Bhilai,"32Bungalows, Bhilai - CECB",19-01-2026 08:00:00,21.194815,81.314770,NH3,5,7,6
India,Chhattisgarh,Bhilai,"32Bungalows, Bhilai - CECB",19-01-2026 08:00:00,21.194815,81.314770,CO,20,70,45
India,Delhi,Delhi,"Ashok Vihar, Delhi - DPCC",19-01-2026 08:00:00,28.695381,77.181665,SO2,9,23,15
India,Delhi,Delhi,"Bawana, Delhi - DPCC",19-01-2026 08:00:00,28.776200,77.051074,PM10,288,500,442
India,Delhi,Delhi,"Bawana, Delhi - DPCC",19-01-2026 08:00:00,28.776200,77.051074,NO2,32,128,61
India,Delhi,Delhi,"Bawana, Delhi - DPCC",19-01-2026 08:00:00,28.776200,77.051074,NH3,16,23,19
India,Delhi,Delhi,"Bawana, Delhi - DPCC",19-01-2026 08:00:00,28.776200,77.051074,CO,78,137,106
India,Delhi,Delhi,"CRRI Mathura Road, Delhi - IMD",19-01-2026 08:00:00,28.5512005,77.2735737,NO2,15,62,31
India,Delhi,Delhi,"CRRI Mathura Road, Delhi - IMD",19-01-2026 08:00:00,28.5512005,77.2735737,CO,49,127,116
India,Delhi,Delhi,"CRRI Mathura Road, Delhi - IMD",19-01-2026 08:00:00,28.5512005,77.2735737,OZONE,10,68,10
India,Delhi,Delhi,"DTU, Delhi - CPCB",19-01-2026 08:00:00,28.7500499,77.1112615,PM10,233,500,414
India,Chhattisgarh,Korba,"Urja Nagar, Korba - CECB",19-01-2026 08:00:00,22.348441,82.549611,NH3,1,1,1
India,Chhattisgarh,Kunjemura,"OP Jindal School, Kunjemura - CECB",19-01-2026 08:00:00,22.126650,83.483212,PM2.5,30,77,55
India,Chhattisgarh,Milupara,"Govt. Higher Secondary School, Milupara - CECB",19-01-2026 08:00:00,22.1910172,83.5197009,PM2.5,NA,NA,NA
India,Chhattisgarh,Milupara,"Govt. Higher Secondary School, Milupara - CECB",19-01-2026 08:00:00,22.1910172,83.5197009,NH3,NA,NA,NA
India,Chhattisgarh,Raipur,"AIIMS, Raipur - CECB",19-01-2026 08:00:00,21.258815,81.578979,NO2,47,55,51
India,Chhattisgarh,Raipur,"Bhatagaon New ISBT, Raipur - CECB",19-01-2026 08:00:00,21.219665,81.630094,NH3,2,2,2
India,Delhi,Delhi,"IIT Delhi, Delhi - IITM",19-01-2026 08:00:00,28.542460,77.191651,CO,56,131,116
India,Delhi,Delhi,"ITO, Delhi - CPCB",19-01-2026 08:00:00,28.628624,77.241060,NO2,1,82,37
India,Delhi,Delhi,"ITO, Delhi - CPCB",19-01-2026 08:00:00,28.628624,77.241060,NH3,2,7,5
India,Delhi,Delhi,"Jahangirpuri, Delhi - DPCC",19-01-2026 08:00:00,28.732820,77.170633,PM10,NA,NA,NA
India,Delhi,Delhi,"Jawaharlal Nehru Stadium, Delhi - DPCC",19-01-2026 08:00:00,28.580280,77.233829,NO2,30,155,77
India,Delhi,Delhi,"Shadipur, Delhi - CPCB",19-01-2026 08:00:00,28.6514781,77.1473105,OZONE,18,44,34
India,Delhi,Delhi,"Sonia Vihar, Delhi - DPCC",19-01-2026 08:00:00,28.710508,77.249485,PM2.5,374,500,467
India,Delhi,Delhi,"Sonia Vihar, Delhi - DPCC",19-01-2026 08:00:00,28.710508,77.249485,CO,5,183,141
India,Delhi,Delhi,"Sri Aurobindo Marg, Delhi - DPCC",19-01-2026 08:00:00,28.531346,77.190156,PM2.5,304,417,373
India,Delhi,Delhi,"Sri Aurobindo Marg, Delhi - DPCC",19-01-2026 08:00:00,28.531346,77.190156,NO2,6,76,33
India,Delhi,Delhi,"Sri Aurobindo Marg, Delhi - DPCC",19-01-2026 08:00:00,28.531346,77.190156,NH3,6,11,8
India,Delhi,Delhi,"Vivek Vihar, Delhi - DPCC",19-01-2026 08:00:00,28.672342,77.315260,NO2,51,258,90
India,Delhi,Delhi,"Vivek Vihar, Delhi - DPCC",19-01-2026 08:00:00,28.672342,77.315260,SO2,6,29,15
India,Delhi,Delhi,"Wazirpur, Delhi - DPCC",19-01-2026 08:00:00,28.699793,77.165453,PM10,339,500,462
India,Haryana,Bahadurgarh,"Arya Nagar, Bahadurgarh - HSPCB",19-01-2026 08:00:00,28.6701,76.9254,PM2.5,54,308,187
India,Haryana,Ballabgarh,"Nathu Colony, Ballabgarh - HSPCB",19-01-2026 08:00:00,28.3419248,77.319699,SO2,2,6,4
India,Haryana,Bhiwani,"H.B. Colony, Bhiwani - HSPCB",19-01-2026 08:00:00,28.806223,76.141105,PM10,51,371,121
India,Haryana,Bhiwani,"H.B. Colony, Bhiwani - HSPCB",19-01-2026 08:00:00,28.806223,76.141105,NH3,1,8,8
India,Haryana,Charkhi Dadri,"Mini Secretariat, Charkhi Dadri - HSPCB",19-01-2026 08:00:00,28.593883,76.270653,PM10,53,163,116
India,Haryana,Charkhi Dadri,"Mini Secretariat, Charkhi Dadri - HSPCB",19-01-2026 08:00:00,28.593883,76.270653,NH3,5,8,6
India,Haryana,Dharuhera,"Municipal Corporation Office, Dharuhera -  HSPCB",19-01-2026 08:00:00,28.206800,76.799700,PM10,174,411,310
India,Delhi,Delhi,"Major Dhyan Chand National Stadium, Delhi - DPCC",19-01-2026 08:00:00,28.611281,77.237738,NH3,25,30,28
India,Delhi,Delhi,"Major Dhyan Chand National Stadium, Delhi - DPCC",19-01-2026 08:00:00,28.611281,77.237738,OZONE,2,145,3
India,Delhi,Delhi,"Mundka, Delhi - DPCC",19-01-2026 08:00:00,28.684678,77.076574,PM2.5,350,500,467
India,Delhi,Delhi,"Mundka, Delhi - DPCC",19-01-2026 08:00:00,28.684678,77.076574,NO2,61,139,97
India,Delhi,Delhi,"Mundka, Delhi - DPCC",19-01-2026 08:00:00,28.684678,77.076574,SO2,11,41,24
India,Delhi,Delhi,"NSIT Dwarka, Delhi - CPCB",19-01-2026 08:00:00,28.60909,77.0325413,NH3,6,9,7
India,Delhi,Delhi,"NSIT Dwarka, Delhi - CPCB",19-01-2026 08:00:00,28.60909,77.0325413,SO2,10,22,15
India,Delhi,Delhi,"Najafgarh, Delhi - DPCC",19-01-2026 08:00:00,28.570173,76.933762,NO2,85,138,118
India,Delhi,Delhi,"Najafgarh, Delhi - DPCC",19-01-2026 08:00:00,28.570173,76.933762,OZONE,3,9,4
India,Gujarat,Gandhinagar,"GIFT City, Gandhinagar - IITM",19-01-2026 08:00:00,23.163798,72.677768,CO,20,59,50
India,Gujarat,Gandhinagar,"GIFT City, Gandhinagar - IITM",19-01-2026 08:00:00,23.163798,72.677768,OZONE,1,52,2
India,Gujarat,Gandhinagar,"IIPHG Lekawada, Gandhinagar - IITM",19-01-2026 08:00:00,23.243639,72.68994,NH3,NA,NA,NA
India,Gujarat,Gandhinagar,"Sector-10, Gandhinagar - GPCB",19-01-2026 08:00:00,23.221714,72.654328,PM2.5,65,225,137
India,Gujarat,Gandhinagar,"Sector-10, Gandhinagar - GPCB",19-01-2026 08:00:00,23.221714,72.654328,OZONE,2,45,4
India,Gujarat,Vapi,"Phase-1 GIDC, Vapi - GPCB",19-01-2026 08:00:00,20.362421,72.918013,NO2,1,6,3
India,Gujarat,Vatva,"Phase-4 GIDC, Vatva - GPCB",19-01-2026 08:00:00,22.969611,72.643500,NO2,NA,NA,NA
India,Gujarat,Vatva,"Phase-4 GIDC, Vatva - GPCB",19-01-2026 08:00:00,22.969611,72.643500,CO,11,13,12
India,Delhi,Delhi,"Narela, Delhi - DPCC",19-01-2026 08:00:00,28.822836,77.101981,NO2,29,83,51
India,Delhi,Delhi,"Nehru Nagar, Delhi - DPCC",19-01-2026 08:00:00,28.567890,77.250515,SO2,2,110,19
India,Delhi,Delhi,"Nehru Nagar, Delhi - DPCC",19-01-2026 08:00:00,28.567890,77.250515,OZONE,4,253,8
India,Delhi,Delhi,"North Campus, DU, Delhi - IMD",19-01-2026 08:00:00,28.6573814,77.1585447,PM10,332,500,435
India,Delhi,Delhi,"North Campus, DU, Delhi - IMD",19-01-2026 08:00:00,28.6573814,77.1585447,OZONE,3,51,8
India,Delhi,Delhi,"Okhla Phase-2, Delhi - DPCC",19-01-2026 08:00:00,28.530785,77.271255,PM2.5,336,500,430
India,Delhi,Delhi,"Patparganj, Delhi - DPCC",19-01-2026 08:00:00,28.623763,77.287209,PM10,259,451,359
India,Delhi,Delhi,"Patparganj, Delhi - DPCC",19-01-2026 08:00:00,28.623763,77.287209,SO2,1,9,5
India,Gujarat,Ahmedabad,"Rakhial, Ahmedabad - IITM",19-01-2026 08:00:00,23.016834,72.625775,SO2,21,51,35
India,Gujarat,Ahmedabad,"Rakhial, Ahmedabad - IITM",19-01-2026 08:00:00,23.016834,72.625775,OZONE,1,46,1
India,Gujarat,Ahmedabad,"SAC ISRO Satellite, Ahmedabad - IITM",19-01-2026 08:00:00,23.023389,72.515201,NH3,1,12,5
India,Gujarat,Ahmedabad,"SVPI Airport Hansol, Ahmedabad - IITM",19-01-2026 08:00:00,23.076793,72.627874,NO2,NA,NA,NA
India,Gujarat,Ahmedabad,"SVPI Airport Hansol, Ahmedabad - IITM",19-01-2026 08:00:00,23.076793,72.627874,OZONE,1,2,1
India,Gujarat,Ankleshwar,"GIDC, Ankleshwar - GPCB",19-01-2026 08:00:00,21.613267,73.010555,NH3,6,7,6
India,Gujarat,Gandhinagar,"GIFT City, Gandhinagar - IITM",19-01-2026 08:00:00,23.163798,72.677768,NH3,5,21,12
India,Haryana,Dharuhera,"Municipal Corporation Office, Dharuhera -  HSPCB",19-01-2026 08:00:00,28.206800,76.799700,NH3,10,30,21
India,Haryana,Faridabad,"New Industrial Town, Faridabad - HSPCB",19-01-2026 08:00:00,28.39072,77.30059,NH3,10,12,11
India,Haryana,Faridabad,"Sector 11, Faridabad - HSPCB",19-01-2026 08:00:00,28.376058,77.315741,SO2,5,6,5
India,Haryana,Faridabad,"Sector 30, Faridabad - HSPCB",19-01-2026 08:00:00,28.4417,77.3217,NH3,10,12,11
India,Haryana,Faridabad,"Sector 30, Faridabad - HSPCB",19-01-2026 08:00:00,28.4417,77.3217,SO2,6,6,6
India,Delhi,Delhi,"Wazirpur, Delhi - DPCC",19-01-2026 08:00:00,28.699793,77.165453,NH3,10,22,15
India,Gujarat,Ahmedabad,"Gyaspur, Ahmedabad - IITM",19-01-2026 08:00:00,22.977134,72.553024,NO2,26,117,73
India,Gujarat,Ahmedabad,"Raikhad, Ahmedabad - IITM",19-01-2026 08:00:00,23.020509,72.579261,NO2,10,104,52
India,Gujarat,Ahmedabad,"Raikhad, Ahmedabad - IITM",19-01-2026 08:00:00,23.020509,72.579261,OZONE,2,50,5
India,Delhi,Delhi,"Pusa, Delhi - IMD",19-01-2026 08:00:00,28.636110,77.173332,PM10,153,447,319
India,Delhi,Delhi,"R K Puram, Delhi - DPCC",19-01-2026 08:00:00,28.563262,77.186937,SO2,NA,NA,NA
India,Karnataka,Dharwad,"Kalabhavan, Dharwad - KSPCB",19-01-2026 08:00:00,15.459706,75.008381,OZONE,17,26,17
India,Karnataka,Hubballi,"Lingaraj Nagar, Hubballi - KSPCB",19-01-2026 08:00:00,15.3714823,75.1160168,PM10,57,227,76
India,Karnataka,Kalaburagi,"Mahatma Basaveswar Colony, Kalaburgi - KSPCB",19-01-2026 08:00:00,17.336318,76.847397,NO2,12,22,16
India,Karnataka,Kalaburagi,"Mahatma Basaveswar Colony, Kalaburgi - KSPCB",19-01-2026 08:00:00,17.336318,76.847397,NH3,2,4,3
India,Karnataka,Kalaburagi,"Mahatma Basaveswar Colony, Kalaburgi - KSPCB",19-01-2026 08:00:00,17.336318,76.847397,OZONE,11,11,11
India,Karnataka,Koppal,"Diwator Nagar, Koppal - KSPCB",19-01-2026 08:00:00,15.347630,76.181767,NH3,NA,NA,NA
India,Karnataka,Madikeri,"Stuart Hill, Madikeri - KSPCB",19-01-2026 08:00:00,12.415911,75.735050,SO2,7,7,7
India,Karnataka,Madikeri,"Stuart Hill, Madikeri - KSPCB",19-01-2026 08:00:00,12.415911,75.735050,OZONE,2,5,3
India,Karnataka,Mysuru,"Hebbal 1st Stage, Mysuru - KSPCB",19-01-2026 08:00:00,12.21041,76.37376,PM2.5,27,81,58
India,Karnataka,Mysuru,"Hebbal 1st Stage, Mysuru - KSPCB",19-01-2026 08:00:00,12.21041,76.37376,PM10,37,116,73
India,Karnataka,Bengaluru,"Shivapura_Peenya, Bengaluru - KSPCB",19-01-2026 08:00:00,13.0246342,77.5080115,SO2,8,10,9
India,Karnataka,Bengaluru,"Silk Board, Bengaluru - KSPCB",19-01-2026 08:00:00,12.917348,77.622813,PM10,NA,NA,NA
India,Karnataka,Bengaluru,"Silk Board, Bengaluru - KSPCB",19-01-2026 08:00:00,12.917348,77.622813,SO2,NA,NA,NA
India,Karnataka,Chamarajanagar,"Urban, Chamarajanagar - KSPCB",19-01-2026 08:00:00,11.55358,76.55521,SO2,2,5,4
India,Karnataka,Chikkaballapur,"Chikkaballapur Rural, Chikkaballapur - KSPCB",19-01-2026 08:00:00,13.428828,77.731418,SO2,46,61,54
India,Karnataka,Chikkamagaluru,"Kalyana Nagara, Chikkamagaluru - KSPCB",19-01-2026 08:00:00,13.328028,75.797056,PM2.5,20,51,35
India,Karnataka,Chikkamagaluru,"Kalyana Nagara, Chikkamagaluru - KSPCB",19-01-2026 08:00:00,13.328028,75.797056,PM10,34,64,50
India,Karnataka,Chikkamagaluru,"Kalyana Nagara, Chikkamagaluru - KSPCB",19-01-2026 08:00:00,13.328028,75.797056,NO2,21,35,25
India,Karnataka,Chikkamagaluru,"Kalyana Nagara, Chikkamagaluru - KSPCB",19-01-2026 08:00:00,13.328028,75.797056,OZONE,12,31,12
India,Karnataka,Dharwad,"Kalabhavan, Dharwad - KSPCB",19-01-2026 08:00:00,15.459706,75.008381,NO2,22,26,24
India,Haryana,Gurugram,"NISE Gwal Pahari, Gurugram - IMD",19-01-2026 08:00:00,28.422681,77.148944,NO2,11,30,22
India,Haryana,Gurugram,"Sector-51, Gurugram - HSPCB",19-01-2026 08:00:00,28.4227,77.0667,NH3,8,8,8
India,Haryana,Gurugram,"Sector-51, Gurugram - HSPCB",19-01-2026 08:00:00,28.4227,77.0667,CO,33,78,55
India,Haryana,Gurugram,"Vikas Sadan, Gurugram - HSPCB",19-01-2026 08:00:00,28.4501238,77.0263051,NO2,9,45,26
India,Haryana,Gurugram,"Vikas Sadan, Gurugram - HSPCB",19-01-2026 08:00:00,28.4501238,77.0263051,OZONE,4,31,11
India,Haryana,Jind,"Police Lines, Jind - HSPCB",19-01-2026 08:00:00,29.307814,76.337619,PM2.5,175,327,294
India,Haryana,Jind,"Police Lines, Jind - HSPCB",19-01-2026 08:00:00,29.307814,76.337619,NH3,1,3,2
India,Haryana,Kaithal,"Rishi Nagar, Kaithal - HSPCB",19-01-2026 08:00:00,29.8006,76.4155,PM2.5,171,280,216
India,Haryana,Kaithal,"Rishi Nagar, Kaithal - HSPCB",19-01-2026 08:00:00,29.8006,76.4155,SO2,27,34,31
India,Haryana,Kurukshetra,"Sector-7, Kurukshetra - HSPCB",19-01-2026 08:00:00,29.966942,76.875879,PM2.5,169,356,262
India,Haryana,Kurukshetra,"Sector-7, Kurukshetra - HSPCB",19-01-2026 08:00:00,29.966942,76.875879,OZONE,2,64,2
India,Haryana,Mandikhera,"General Hospital, Mandikhera(Nuh) - HSPCB",19-01-2026 08:00:00,27.9002,76.9938,CO,42,90,74
India,Haryana,Manesar,"Sector-2 IMT, Manesar - HSPCB",19-01-2026 08:00:00,28.360699,76.936090,NH3,12,16,14
India,Haryana,Narnaul,"Shastri Nagar, Narnaul - HSPCB",19-01-2026 08:00:00,28.060249,76.113115,CO,30,65,56
India,Haryana,Narnaul,"Shastri Nagar, Narnaul - HSPCB",19-01-2026 08:00:00,28.060249,76.113115,OZONE,6,30,6
India,Haryana,Palwal,"Shyam Nagar, Palwal - HSPCB",19-01-2026 08:00:00,28.1485564,77.3320667,PM2.5,87,107,97
India,Jharkhand,Dhanbad,"Sardar Patel Nagar, Dhanbad - JSPCB",19-01-2026 08:00:00,23.80569,86.44268,SO2,NA,NA,NA
India,Karnataka,Bagalkot,"Vidayagiri, Bagalkot - KSPCB",19-01-2026 08:00:00,16.172806,75.659694,PM10,45,46,46
India,Karnataka,Bagalkot,"Vidayagiri, Bagalkot - KSPCB",19-01-2026 08:00:00,16.172806,75.659694,SO2,7,7,7
India,Karnataka,Bagalkot,"Vidayagiri, Bagalkot - KSPCB",19-01-2026 08:00:00,16.172806,75.659694,OZONE,12,12,12
India,Karnataka,Belgaum,"Ramteerth Nagar, Belgaum - KSPCB",19-01-2026 08:00:00,15.888653,74.541751,SO2,28,29,29
India,Karnataka,Bengaluru,"BWSSB Kadabesanahalli, Bengaluru - CPCB",19-01-2026 08:00:00,12.9352049,77.6814488,PM2.5,42,316,132
India,Karnataka,Bengaluru,"BWSSB Kadabesanahalli, Bengaluru - CPCB",19-01-2026 08:00:00,12.9352049,77.6814488,NO2,12,28,19
India,Haryana,Yamuna Nagar,"Gobind Pura, Yamuna Nagar - HSPCB",19-01-2026 08:00:00,30.1480566,77.2893471,NO2,11,21,15
India,Himachal Pradesh,Baddi,"HIMUDA Complex Phase-1, Baddi - HPPCB",19-01-2026 08:00:00,30.943887,76.801991,NO2,1,27,9
India,Jammu_and_Kashmir,Srinagar,"Rajbagh, Srinagar - JKPCC",19-01-2026 08:00:00,34.066206,74.819820,PM2.5,12,79,24
India,Jammu_and_Kashmir,Srinagar,"Rajbagh, Srinagar - JKPCC",19-01-2026 08:00:00,34.066206,74.819820,SO2,3,4,3
India,Jharkhand,Dhanbad,"Sardar Patel Nagar, Dhanbad - JSPCB",19-01-2026 08:00:00,23.80569,86.44268,PM2.5,101,364,233
India,Karnataka,Bengaluru,"Hebbal, Bengaluru - KSPCB",19-01-2026 08:00:00,13.029152,77.585901,PM10,36,124,79
India,Karnataka,Bengaluru,"Hebbal, Bengaluru - KSPCB",19-01-2026 08:00:00,13.029152,77.585901,OZONE,5,11,7
India,Karnataka,Bengaluru,"Hombegowda Nagar, Bengaluru - KSPCB",19-01-2026 08:00:00,12.938539,77.590100,PM2.5,25,178,62
India,Karnataka,Bengaluru,"Jayanagar 5th Block, Bengaluru - KSPCB",19-01-2026 08:00:00,12.920984,77.584908,PM2.5,34,117,72
India,Karnataka,Bengaluru,"Jayanagar 5th Block, Bengaluru - KSPCB",19-01-2026 08:00:00,12.920984,77.584908,SO2,4,27,15
India,Karnataka,Bengaluru,"Jayanagar 5th Block, Bengaluru - KSPCB",19-01-2026 08:00:00,12.920984,77.584908,OZONE,13,92,63
India,Karnataka,Bengaluru,"Kasturi Nagar, Bengaluru - KSPCB",19-01-2026 08:00:00,13.003872,77.664217,SO2,12,17,13
India,Karnataka,Bengaluru,"RVCE-Mailasandra, Bengaluru - KSPCB",19-01-2026 08:00:00,12.921418,77.502466,NH3,2,3,3
India,Haryana,Panchgaon,"Amity University, Panchgaon - IITM",19-01-2026 08:00:00,28.3153,76.9143,OZONE,13,94,33
India,Haryana,Sonipat,"Murthal, Sonipat - HSPCB",19-01-2026 08:00:00,29.027200,77.062100,PM10,53,113,85
India,Madhya Pradesh,Sagar,"Civil Lines, Sagar - MPPCB",19-01-2026 08:00:00,23.838586,78.759431,NH3,1,5,2
India,Madhya Pradesh,Sagar,"Civil Lines, Sagar - MPPCB",19-01-2026 08:00:00,23.838586,78.759431,OZONE,36,79,42
India,Madhya Pradesh,Sagar,"Deen Dayal Nagar, Sagar - MPPCB",19-01-2026 08:00:00,23.8640158,78.80289321,PM2.5,28,124,61
India,Madhya Pradesh,Satna,"Bandhavgar Colony, Satna - Birla Cement",19-01-2026 08:00:00,24.58434363,80.8549414,NO2,12,13,12
India,Madhya Pradesh,Singrauli,"Suryakiran Bhawan NCL, Singrauli - MPPCB",19-01-2026 08:00:00,24.108970,82.645580,NO2,7,11,9
India,Madhya Pradesh,Ujjain,"Mahashweta Nagar, Ujjain - MPPCB",19-01-2026 08:00:00,23.1633321,75.800225,PM2.5,35,335,126
India,Madhya Pradesh,Ujjain,"Mahashweta Nagar, Ujjain - MPPCB",19-01-2026 08:00:00,23.1633321,75.800225,PM10,29,187,85
India,Maharashtra,Ahmednagar,"Tarakpur, Ahmednagar - MPCB",19-01-2026 08:00:00,19.10122,74.73339,NO2,17,28,23
India,Maharashtra,Ahmednagar,"Tarakpur, Ahmednagar - MPCB",19-01-2026 08:00:00,19.10122,74.73339,NH3,4,5,4
India,Maharashtra,Amravati,"Shivneri Colony, Amravati - MPCB",19-01-2026 08:00:00,20.9402359,77.7895248,NO2,8,39,19
India,Maharashtra,Amravati,"Shivneri Colony, Amravati - MPCB",19-01-2026 08:00:00,20.9402359,77.7895248,OZONE,13,91,31
India,Maharashtra,Amravati,"Shri Shivaji Science College, Amravati - MPCB",19-01-2026 08:00:00,20.939198,77.765701,NO2,1,17,6
India,Maharashtra,Aurangabad,"MIDC Chilkalthana, Aurangabad - MPCB",19-01-2026 08:00:00,19.875620,75.387310,PM2.5,3,173,78
India,Maharashtra,Aurangabad,"MIDC Chilkalthana, Aurangabad - MPCB",19-01-2026 08:00:00,19.875620,75.387310,PM10,51,198,119
India,Maharashtra,Aurangabad,"MIDC Chilkalthana, Aurangabad - MPCB",19-01-2026 08:00:00,19.875620,75.387310,CO,5,11,10
India,Madhya Pradesh,Jabalpur,"Marhatal, Jabalpur - MPPCB",19-01-2026 08:00:00,23.168606,79.932247,PM10,47,182,93
India,Madhya Pradesh,Jabalpur,"Marhatal, Jabalpur - MPPCB",19-01-2026 08:00:00,23.168606,79.932247,OZONE,12,307,40
India,Madhya Pradesh,Jabalpur,"Suhagi, Jabalpur - JMC",19-01-2026 08:00:00,23.218135,79.957770,PM2.5,25,168,71
India,Madhya Pradesh,Katni,"Gole Bazar, Katni - MPPCB",19-01-2026 08:00:00,23.50016,80.23284,PM2.5,30,290,65
India,Madhya Pradesh,Katni,"Gole Bazar, Katni - MPPCB",19-01-2026 08:00:00,23.50016,80.23284,PM10,38,197,69
India,Madhya Pradesh,Katni,"Gole Bazar, Katni - MPPCB",19-01-2026 08:00:00,23.50016,80.23284,NO2,20,53,30
India,Madhya Pradesh,Mandideep,"Sector-D Industrial Area, Mandideep - MPPCB",19-01-2026 08:00:00,23.108440,77.511428,PM2.5,55,316,137
India,Madhya Pradesh,Indore,"Maguda Nagar, Indore - IMC",19-01-2026 08:00:00,22.7524,75.8872,PM2.5,NA,NA,NA
India,Madhya Pradesh,Indore,"Maguda Nagar, Indore - IMC",19-01-2026 08:00:00,22.7524,75.8872,PM10,NA,NA,NA
India,Madhya Pradesh,Indore,"Regional Park, Indore - IMC",19-01-2026 08:00:00,22.6780,75.8559,NO2,10,22,17
India,Madhya Pradesh,Indore,"Residency Area, Indore - IMC",19-01-2026 08:00:00,22.7084,75.8815,NO2,26,39,33
India,Madhya Pradesh,Jabalpur,"Govindh Bhavan Colony, Jabalpur - JMC",19-01-2026 08:00:00,23.163174,79.973061,PM2.5,32,74,46
India,Madhya Pradesh,Jabalpur,"Gupteshwar, Jabalpur - JMC",19-01-2026 08:00:00,23.142888,79.916147,PM2.5,25,92,62
India,Madhya Pradesh,Jabalpur,"Gupteshwar, Jabalpur - JMC",19-01-2026 08:00:00,23.142888,79.916147,CO,33,102,45
India,Kerala,Eloor,"Udyogamandal, Eloor - Kerala PCB",19-01-2026 08:00:00,10.073232,76.302765,PM10,70,99,80
India,Kerala,Kannur,"Thavakkara, Kannur - Kerala PCB",19-01-2026 08:00:00,11.875000,75.373200,NH3,2,3,2
India,Kerala,Kollam,"Polayathode, Kollam - Kerala PCB",19-01-2026 08:00:00,8.8787,76.6073,NO2,NA,NA,NA
India,Madhya Pradesh,Bhopal,"Idgah Hills, Bhopal - MPPCB",19-01-2026 08:00:00,23.264759,77.381568,PM2.5,33,203,82
India,Maharashtra,Badlapur,"Katrap, Badlapur - MPCB",19-01-2026 08:00:00,19.16485,73.23409,NH3,3,6,5
India,Maharashtra,Badlapur,"Katrap, Badlapur - MPCB",19-01-2026 08:00:00,19.16485,73.23409,OZONE,4,80,13
India,Maharashtra,Belapur,"CBD Belapur, Belapur - MPCB",19-01-2026 08:00:00,19.0243902,73.0406721,PM2.5,50,162,94
India,Maharashtra,Bhiwandi,"Gokul Nagar, Bhiwandi - MPCB",19-01-2026 08:00:00,19.309073,73.057223,PM2.5,30,147,73
India,Madhya Pradesh,Gwalior,"City Center, Gwalior - MPPCB",19-01-2026 08:00:00,26.203442,78.193251,SO2,17,25,20
India,Madhya Pradesh,Gwalior,"Deen Dayal Nagar, Gwalior - MPPCB",19-01-2026 08:00:00,26.259242,78.216432,SO2,4,12,7
India,Madhya Pradesh,Indore,"Chhoti Gwaltoli, Indore - MPPCB",19-01-2026 08:00:00,22.4310,75.5213,NO2,49,141,98
India,Karnataka,Ramanagara,"Vijay Nagar, Ramanagara - KSPCB",19-01-2026 08:00:00,12.733409,77.298051,PM2.5,22,162,84
India,Karnataka,Vijayapura,"Ibrahimpur, Vijayapura - KSPCB",19-01-2026 08:00:00,16.802639,75.722694,PM10,61,63,62
India,Karnataka,Vijayapura,"Ibrahimpur, Vijayapura - KSPCB",19-01-2026 08:00:00,16.802639,75.722694,CO,13,34,21
India,Madhya Pradesh,Bhopal,"Paryavaran Parisar, Bhopal - MPPCB",19-01-2026 08:00:00,23.210494,77.425409,PM2.5,53,210,93
India,Madhya Pradesh,Dewas,"Bhopal Chauraha, Dewas - MPPCB",19-01-2026 08:00:00,22.9682591,76.064118,SO2,5,90,41
India,Maharashtra,Kolhapur,"Sinchan Bhavan, Kolhapur - MPCB",19-01-2026 08:00:00,16.7143745,74.2426398,CO,14,20,16
India,Maharashtra,Mahad,"Kamble Tarf Birwadi, Mahad - MPCB",19-01-2026 08:00:00,18.1023399,73.4783687,PM10,50,143,92
India,Maharashtra,Mahad,"Kamble Tarf Birwadi, Mahad - MPCB",19-01-2026 08:00:00,18.1023399,73.4783687,OZONE,15,84,26
India,Maharashtra,Malegaon,"Mahesh Nagar, Malegaon - MPCB",19-01-2026 08:00:00,20.555712,74.529236,PM2.5,26,181,95
India,Maharashtra,Mira-Bhayandar,"Bhayandar West, Mira-Bhayandar - MPCB",19-01-2026 08:00:00,19.296481,72.840923,NH3,3,9,5
India,Maharashtra,Mira-Bhayandar,"Bhayandar West, Mira-Bhayandar - MPCB",19-01-2026 08:00:00,19.296481,72.840923,CO,17,80,38
India,Maharashtra,Mumbai,"Bandra Kurla Complex, Mumbai - IITM",19-01-2026 08:00:00,19.053536,72.84643,PM2.5,46,109,80
India,Maharashtra,Mumbai,"Bandra Kurla Complex, Mumbai - IITM",19-01-2026 08:00:00,19.053536,72.84643,PM10,54,113,87
India,Maharashtra,Mumbai,"Navy Nagar-Colaba, Mumbai - IITM",19-01-2026 08:00:00,18.897756,72.813320,OZONE,14,72,30
India,Maharashtra,Mumbai,"Powai, Mumbai - MPCB",19-01-2026 08:00:00,19.137500,72.915056,PM2.5,13,48,22
India,Maharashtra,Mumbai,"Powai, Mumbai - MPCB",19-01-2026 08:00:00,19.137500,72.915056,PM10,22,86,40
India,Maharashtra,Mumbai,"Powai, Mumbai - MPCB",19-01-2026 08:00:00,19.137500,72.915056,SO2,38,53,45
India,Maharashtra,Mumbai,"Sewri, Mumbai - BMC",19-01-2026 08:00:00,19.000084,72.856730,NO2,13,82,47
India,Maharashtra,Mumbai,"Sewri, Mumbai - BMC",19-01-2026 08:00:00,19.000084,72.856730,CO,12,80,35
India,Maharashtra,Mumbai,"Shivaji Nagar, Mumbai - BMC",19-01-2026 08:00:00,19.060498,72.923356,PM2.5,26,60,43
India,Maharashtra,Mumbai,"Shivaji Nagar, Mumbai - BMC",19-01-2026 08:00:00,19.060498,72.923356,PM10,50,109,81
India,Maharashtra,Mumbai,"Siddharth Nagar-Worli, Mumbai - IITM",19-01-2026 08:00:00,19.000083,72.813993,PM10,37,99,65
India,Maharashtra,Mumbai,"Siddharth Nagar-Worli, Mumbai - IITM",19-01-2026 08:00:00,19.000083,72.813993,CO,14,51,48
India,Maharashtra,Mumbai,"Kandivali East, Mumbai - MPCB",19-01-2026 08:00:00,19.205800,72.868200,PM10,39,167,77
India,Maharashtra,Mumbai,"Kandivali East, Mumbai - MPCB",19-01-2026 08:00:00,19.205800,72.868200,NO2,30,30,30
India,Maharashtra,Mumbai,"Kandivali East, Mumbai - MPCB",19-01-2026 08:00:00,19.205800,72.868200,SO2,24,26,25
India,Maharashtra,Mumbai,"Kandivali West, Mumbai - BMC",19-01-2026 08:00:00,19.215859,72.831718,PM2.5,38,74,54
India,Maharashtra,Mumbai,"Kandivali West, Mumbai - BMC",19-01-2026 08:00:00,19.215859,72.831718,PM10,77,104,92
India,Maharashtra,Mumbai,"Kandivali West, Mumbai - BMC",19-01-2026 08:00:00,19.215859,72.831718,SO2,2,8,5
India,Maharashtra,Mumbai,"Kherwadi_Bandra East, Mumbai - MPCB",19-01-2026 08:00:00,19.0632143,72.8456324,SO2,3,3,3
India,Maharashtra,Mumbai,"Khindipada-Bhandup West, Mumbai - IITM",19-01-2026 08:00:00,19.1653323,72.922099,SO2,7,25,13
India,Maharashtra,Mumbai,"Khindipada-Bhandup West, Mumbai - IITM",19-01-2026 08:00:00,19.1653323,72.922099,CO,2,26,9
India,Maharashtra,Jalgaon,"Prabhat Colony, Jalgaon - MPCB",19-01-2026 08:00:00,21.001264,75.565602,SO2,1,21,8
India,Maharashtra,Kalyan,"Pimpleshwar Mandir, Kalyan - MPCB",19-01-2026 08:00:00,19.192056,72.9585188,PM2.5,32,135,69
India,Maharashtra,Kalyan,"Pimpleshwar Mandir, Kalyan - MPCB",19-01-2026 08:00:00,19.192056,72.9585188,PM10,83,169,123
India,Maharashtra,Kalyan,"Pimpleshwar Mandir, Kalyan - MPCB",19-01-2026 08:00:00,19.192056,72.9585188,NH3,1,3,1
India,Maharashtra,Kolhapur,"Shivaji University, Kolhapur - MPCB",19-01-2026 08:00:00,16.6870449,74.2505872,SO2,2,5,3
India,Maharashtra,Kolhapur,"Sinchan Bhavan, Kolhapur - MPCB",19-01-2026 08:00:00,16.7143745,74.2426398,PM10,NA,NA,NA
India,Maharashtra,Mumbai,"Chakala-Andheri East, Mumbai - IITM",19-01-2026 08:00:00,19.11074,72.86084,CO,2,30,14
India,Maharashtra,Mumbai,"Chembur, Mumbai - MPCB",19-01-2026 08:00:00,19.0364585,72.8954371,PM2.5,NA,NA,NA
India,Maharashtra,Mumbai,"Colaba, Mumbai - MPCB",19-01-2026 08:00:00,18.910000,72.820000,PM2.5,21,50,31
India,Maharashtra,Mumbai,"Deonar, Mumbai - IITM",19-01-2026 08:00:00,19.04946,72.9230,NH3,11,16,13
India,Maharashtra,Mumbai,"Deonar, Mumbai - IITM",19-01-2026 08:00:00,19.04946,72.9230,SO2,4,6,5
India,Maharashtra,Mumbai,"Ghatkopar, Mumbai - BMC",19-01-2026 08:00:00,19.083694,72.920967,CO,1,38,32
India,Maharashtra,Mumbai,"Bandra Kurla Complex, Mumbai - IITM",19-01-2026 08:00:00,19.053536,72.84643,NO2,46,107,84
India,Maharashtra,Mumbai,"Bandra Kurla Complex, Mumbai - IITM",19-01-2026 08:00:00,19.053536,72.84643,OZONE,1,55,2
India,Maharashtra,Mumbai,"Borivali East, Mumbai - IITM",19-01-2026 08:00:00,19.23241,72.86895,PM2.5,31,89,61
India,Maharashtra,Mumbai,"Borivali East, Mumbai - IITM",19-01-2026 08:00:00,19.23241,72.86895,NO2,91,122,104
India,Maharashtra,Mumbai,"Borivali East, Mumbai - IITM",19-01-2026 08:00:00,19.23241,72.86895,CO,26,72,41
India,Maharashtra,Mumbai,"Chakala-Andheri East, Mumbai - IITM",19-01-2026 08:00:00,19.11074,72.86084,PM10,55,114,88
India,Maharashtra,Chandrapur,"Chauhan Colony, Chandrapur - MPCB",19-01-2026 08:00:00,19.962900,79.298714,PM10,50,152,89
India,Maharashtra,Chandrapur,"MIDC Khutala, Chandrapur - MPCB",19-01-2026 08:00:00,19.9775302,79.2337086,PM2.5,25,210,90
India,Maharashtra,Chandrapur,"MIDC Khutala, Chandrapur - MPCB",19-01-2026 08:00:00,19.9775302,79.2337086,NH3,1,8,4
India,Maharashtra,Chandrapur,"MIDC Khutala, Chandrapur - MPCB",19-01-2026 08:00:00,19.9775302,79.2337086,SO2,8,9,9
India,Maharashtra,Dhule,"Deopur, Dhule - MPCB",19-01-2026 08:00:00,20.918946,74.776388,PM10,91,117,106
India,Maharashtra,Nagpur,"Ambazari, Nagpur - MPCB",19-01-2026 08:00:00,21.121801,79.04952,SO2,26,124,57
India,Maharashtra,Nagpur,"Mahal, Nagpur - MPCB",19-01-2026 08:00:00,21.14472,79.107595,NO2,21,109,54
India,Maharashtra,Nagpur,"Mahal, Nagpur - MPCB",19-01-2026 08:00:00,21.14472,79.107595,SO2,21,108,73
India,Maharashtra,Nagpur,"Ram Nagar, Nagpur - MPCB",19-01-2026 08:00:00,21.143383,79.048912,OZONE,4,68,11
India,Maharashtra,Mumbai,"Malad West, Mumbai - IITM",19-01-2026 08:00:00,19.19709,72.82204,NH3,6,11,7
India,Maharashtra,Mumbai,"Malad West, Mumbai - IITM",19-01-2026 08:00:00,19.19709,72.82204,OZONE,20,64,21
India,Maharashtra,Mumbai,"Mulund West, Mumbai - MPCB",19-01-2026 08:00:00,19.1750,72.9419,PM2.5,34,235,75
India,Maharashtra,Mumbai,"Mulund West, Mumbai - MPCB",19-01-2026 08:00:00,19.1750,72.9419,NO2,13,17,15
India,Maharashtra,Pune,"Savitribai Phule Pune University, Pune - MPCB",19-01-2026 08:00:00,18.547056,73.826908,PM10,45,81,56
India,Maharashtra,Pune,"Savitribai Phule Pune University, Pune - MPCB",19-01-2026 08:00:00,18.547056,73.826908,NH3,1,5,1
India,Maharashtra,Pune,"Transport Nagar-Nigdi, Pune - IITM",19-01-2026 08:00:00,18.664282,73.763966,NO2,10,71,28
India,Maharashtra,Pune,"Transport Nagar-Nigdi, Pune - IITM",19-01-2026 08:00:00,18.664282,73.763966,OZONE,5,52,17
India,Maharashtra,Sangli,"Vijay Nagar, Sangli - MPCB",19-01-2026 08:00:00, 16.5038,74.3623,CO,17,82,32
India,Maharashtra,Solapur,"Dnyaneshwar Nagar, Solapur - MPCB",19-01-2026 08:00:00,17.6336264,75.9132495,PM2.5,81,191,125
India,Maharashtra,Solapur,"Ratandeep Housing Society, Solapur - MPCB",19-01-2026 08:00:00,17.65439,75.90649,NO2,21,142,66
India,Maharashtra,Solapur,"Ratandeep Housing Society, Solapur - MPCB",19-01-2026 08:00:00,17.65439,75.90649,CO,23,136,39
India,Odisha,Byasanagar,"Ferro Chrome Colony, Byasanagar - OSPCB",19-01-2026 08:00:00,20.94185,86.11510,OZONE,50,302,64
India,Odisha,Keonjhar,"Jagamohanpur, Keonjhar - OSPCB",19-01-2026 08:00:00,21.643900,85.599355,PM10,77,241,150
India,Odisha,Nayagarh,"Dabuna, Nayagarh - OSPCB",19-01-2026 08:00:00,21.847279,85.416905,PM10,31,265,131
India,Odisha,Nayagarh,"Dabuna, Nayagarh - OSPCB",19-01-2026 08:00:00,21.847279,85.416905,CO,14,38,28
India,Odisha,Nayagarh,"Dabuna, Nayagarh - OSPCB",19-01-2026 08:00:00,21.847279,85.416905,OZONE,10,32,11
India,Odisha,Rairangpur,"Divisional Forest Office, Rairangpur - OSPCB",19-01-2026 08:00:00,22.265816,86.174829,NH3,1,1,1
India,Odisha,Rairangpur,"Divisional Forest Office, Rairangpur - OSPCB",19-01-2026 08:00:00,22.265816,86.174829,OZONE,8,61,14
India,Odisha,Rourkela,"Fertilizer Township, Rourkela - OSPCB",19-01-2026 08:00:00,22.18972222,84.86277778,NO2,11,11,11
India,Maharashtra,Navi Mumbai,"Tondare-Taloja, Navi Mumbai - MPCB",19-01-2026 08:00:00,19.0630,73.1209,PM2.5,46,129,79
India,Maharashtra,Navi Mumbai,"Tondare-Taloja, Navi Mumbai - MPCB",19-01-2026 08:00:00,19.0630,73.1209,NH3,7,9,7
India,Maharashtra,Navi Mumbai,"Tondare-Taloja, Navi Mumbai - MPCB",19-01-2026 08:00:00,19.0630,73.1209,OZONE,10,48,10
India,Maharashtra,Parbhani,"Masoom Colony, Parbhani - MPCB",19-01-2026 08:00:00,19.265594,76.761463,SO2,7,14,11
India,Maharashtra,Pimpri-Chinchwad,"Park Street Wakad, Pimpri Chinchwad - MPCB",19-01-2026 08:00:00,18.59051,73.77946,CO,12,50,37
India,Maharashtra,Pimpri-Chinchwad,"Savta Mali Nagar, Pimpri-Chinchwad - IITM",19-01-2026 08:00:00,18.614767,73.799516,PM10,41,119,83
India,Maharashtra,Pimpri-Chinchwad,"Thergaon, Pimpri Chinchwad - MPCB",19-01-2026 08:00:00,18.616318,73.765797,PM2.5,20,176,66
India,Maharashtra,Thane,"Upvan Fort, Thane - MPCB",19-01-2026 08:00:00,19.222279,72.957979,PM2.5,21,103,48
India,Maharashtra,Ulhasnagar,"Sidhi Vinayak Nagar, Ulhasnagar - MPCB",19-01-2026 08:00:00,19.235581,73.159121,NO2,12,37,23
India,Maharashtra,Virar,"Bolinj, Virar - MPCB",19-01-2026 08:00:00,19.4458210,72.7988231,NO2,8,71,25
India,Maharashtra,Virar,"Bolinj, Virar - MPCB",19-01-2026 08:00:00,19.4458210,72.7988231,NH3,1,4,3
India,Maharashtra,Virar,"Bolinj, Virar - MPCB",19-01-2026 08:00:00,19.4458210,72.7988231,SO2,2,12,7
India,Meghalaya,Shillong,"Lumpyngngad, Shillong - Meghalaya PCB",19-01-2026 08:00:00,25.5586,91.8985,SO2,9,13,10
India,Mizoram,Aizawl,"Sikulpuikawn, Aizawl - Mizoram PCB",19-01-2026 08:00:00,23.7176342,92.7192841,SO2,15,16,15
India,Mizoram,Aizawl,"Sikulpuikawn, Aizawl - Mizoram PCB",19-01-2026 08:00:00,23.7176342,92.7192841,CO,3,3,3
India,Nagaland,Kohima,"PWD Junction, Kohima - NPCB",19-01-2026 08:00:00,25.6635413,94.0989878,PM2.5,19,69,31
India,Nagaland,Kohima,"PWD Junction, Kohima - NPCB",19-01-2026 08:00:00,25.6635413,94.0989878,SO2,75,77,76
India,Odisha,Balasore,"Kalidaspur, Balasore - OSPCB",19-01-2026 08:00:00,21.51161,86.89088,PM10,135,429,195
India,Odisha,Balasore,"Kalidaspur, Balasore - OSPCB",19-01-2026 08:00:00,21.51161,86.89088,NH3,1,1,1
India,Odisha,Balasore,"Kalidaspur, Balasore - OSPCB",19-01-2026 08:00:00,21.51161,86.89088,SO2,8,36,21
India,Odisha,Barbil,"Forest Office, Barbil - OSPCB",19-01-2026 08:00:00,22.1166054,85.3945546,NO2,24,70,39
India,Maharashtra,Navi Mumbai,"Kopripada-Vashi, Navi Mumbai - MPCB",19-01-2026 08:00:00,19.090337,73.014232,NO2,8,41,26
India,Maharashtra,Navi Mumbai,"Kopripada-Vashi, Navi Mumbai - MPCB",19-01-2026 08:00:00,19.090337,73.014232,OZONE,1,35,1
India,Maharashtra,Navi Mumbai,"Sanpada, Navi Mumbai - MPCB",19-01-2026 08:00:00,19.0575752,73.0151367,CO,13,90,64
India,Maharashtra,Navi Mumbai,"Sector-2E Kalamboli, Navi Mumbai - MPCB",19-01-2026 08:00:00,19.02579,73.10297,NO2,12,50,31
India,Maharashtra,Navi Mumbai,"Sector-2E Kalamboli, Navi Mumbai - MPCB",19-01-2026 08:00:00,19.02579,73.10297,SO2,2,14,6
India,Maharashtra,Nashik,"Gangapur Road, Nashik - MPCB",19-01-2026 08:00:00,20.0073285,73.7762427,NH3,3,3,3
India,Maharashtra,Nashik,"Hirawadi, Nashik - MPCB",19-01-2026 08:00:00,20.021503,73.813844,PM2.5,NA,NA,NA
India,Maharashtra,Nashik,"Hirawadi, Nashik - MPCB",19-01-2026 08:00:00,20.021503,73.813844,NO2,NA,NA,NA
India,Maharashtra,Nashik,"MIDC Ambad, Nashik - MPCB",19-01-2026 08:00:00,19.950220,73.731480,PM10,90,139,117
India,Maharashtra,Nashik,"MIDC Ambad, Nashik - MPCB",19-01-2026 08:00:00,19.950220,73.731480,OZONE,17,54,32
India,Maharashtra,Pimpri-Chinchwad,"Thergaon, Pimpri Chinchwad - MPCB",19-01-2026 08:00:00,18.616318,73.765797,OZONE,1,50,12
India,Maharashtra,Pune,"Katraj Dairy, Pune - MPCB",19-01-2026 08:00:00,18.454450,73.854155,OZONE,1,6,1
India,Maharashtra,Pune,"Mhada Colony, Pune - IITM",19-01-2026 08:00:00,18.573040,73.927715,PM2.5,38,255,133
India,Maharashtra,Pune,"Mhada Colony, Pune - IITM",19-01-2026 08:00:00,18.573040,73.927715,OZONE,15,81,26
India,Odisha,Bhubaneswar,"Lingraj Mandir, Bhubaneswar - OSPCB",19-01-2026 08:00:00,20.240790,85.836784,PM10,117,301,175
India,Odisha,Bhubaneswar,"Lingraj Mandir, Bhubaneswar - OSPCB",19-01-2026 08:00:00,20.240790,85.836784,CO,70,120,100
India,Odisha,Bhubaneswar,"Lingraj Mandir, Bhubaneswar - OSPCB",19-01-2026 08:00:00,20.240790,85.836784,OZONE,8,308,23
India,Odisha,Rourkela,"Raghunathpali, Rourkela - OSPCB",19-01-2026 08:00:00,22.220833,84.809444,PM10,54,286,140
India,Odisha,Rourkela,"Raghunathpali, Rourkela - OSPCB",19-01-2026 08:00:00,22.220833,84.809444,CO,30,121,92
India,Odisha,Talcher,"Talcher Coalfields,Talcher - OSPCB",19-01-2026 08:00:00,20.9360711,85.1707021,PM10,101,428,229
India,Odisha,Talcher,"Talcher Coalfields,Talcher - OSPCB",19-01-2026 08:00:00,20.9360711,85.1707021,NO2,36,100,72
India,Odisha,Talcher,"Talcher Coalfields,Talcher - OSPCB",19-01-2026 08:00:00,20.9360711,85.1707021,SO2,3,33,18
India,Puducherry,Puducherry,"Jawahar Nagar, Puducherry - PPCC",19-01-2026 08:00:00,11.9309,79.8027,PM2.5,75,317,124
India,Puducherry,Puducherry,"Jawahar Nagar, Puducherry - PPCC",19-01-2026 08:00:00,11.9309,79.8027,NH3,2,4,3
India,Punjab,Amritsar,"Golden Temple, Amritsar - PPCB",19-01-2026 08:00:00,31.620000,74.876512,SO2,18,38,26
India,Rajasthan,Baran,"Bamboliya, Baran - RSPCB",19-01-2026 08:00:00,25.106006,76.469948,PM2.5,23,63,35
India,Rajasthan,Barmer,"Railway Colony, Barmer - RSPCB",19-01-2026 08:00:00,25.747299,71.393989,PM2.5,37,203,94
India,Rajasthan,Barmer,"Railway Colony, Barmer - RSPCB",19-01-2026 08:00:00,25.747299,71.393989,NO2,11,83,23
India,Rajasthan,Barmer,"Railway Colony, Barmer - RSPCB",19-01-2026 08:00:00,25.747299,71.393989,CO,14,102,36
India,Rajasthan,Bharatpur,"Krishna Nagar, Bharatpur - RSPCB",19-01-2026 08:00:00,27.215415,77.50873,PM10,61,121,95
India,Rajasthan,Bharatpur,"Krishna Nagar, Bharatpur - RSPCB",19-01-2026 08:00:00,27.215415,77.50873,NH3,15,23,18
India,Rajasthan,Bharatpur,"Krishna Nagar, Bharatpur - RSPCB",19-01-2026 08:00:00,27.215415,77.50873,SO2,3,7,5
India,Rajasthan,Bhiwadi,"RIICO Ind. Area III, Bhiwadi - RSPCB",19-01-2026 08:00:00,28.194909,76.862296,NO2,14,95,47
India,Punjab,Bathinda,"Hardev Nagar, Bathinda - PPCB",19-01-2026 08:00:00,30.233011,74.907758,CO,77,80,78
India,Punjab,Jalandhar,"Civil Line, Jalandhar - PPCB",19-01-2026 08:00:00,31.321907,75.578914,SO2,20,22,20
India,Punjab,Khanna,"Kalal Majra, Khanna - PPCB",19-01-2026 08:00:00,30.736056 ,76.209694,NO2,26,30,28
India,Punjab,Ludhiana,"Punjab Agricultural University, Ludhiana - PPCB",19-01-2026 08:00:00,30.9028,75.8086,OZONE,10,26,14
India,Punjab,Mandi Gobindgarh,"RIMT University, Mandi Gobindgarh - PPCB",19-01-2026 08:00:00,30.649961,76.331442,PM10,31,100,69
India,Punjab,Mandi Gobindgarh,"RIMT University, Mandi Gobindgarh - PPCB",19-01-2026 08:00:00,30.649961,76.331442,CO,8,101,30
India,Punjab,Patiala,"Model Town, Patiala - PPCB",19-01-2026 08:00:00,30.349388,76.366642,NO2,16,19,18
India,Punjab,Patiala,"Model Town, Patiala - PPCB",19-01-2026 08:00:00,30.349388,76.366642,OZONE,12,42,12
India,Punjab,Rupnagar,"Ratanpura, Rupnagar - Ambuja Cements",19-01-2026 08:00:00,31.0325454,76.5623046,NO2,5,5,5
India,Rajasthan,Ajmer,"Civil Lines,  Ajmer - RSPCB",19-01-2026 08:00:00,26.470859,74.646594,NO2,27,35,31
India,Rajasthan,Alwar,"Moti Doongri, Alwar - RSPCB",19-01-2026 08:00:00,27.554793,76.611536,PM2.5,88,182,126
India,Rajasthan,Alwar,"Moti Doongri, Alwar - RSPCB",19-01-2026 08:00:00,27.554793,76.611536,SO2,9,48,27
India,Rajasthan,Jaipur,"RIICO Sitapura, Jaipur - RSPCB",19-01-2026 08:00:00,26.786682,75.827928,OZONE,62,145,81
India,Rajasthan,Jaipur,"Sector-2 Murlipura, Jaipur - RSPCB",19-01-2026 08:00:00,26.960669,75.771817,PM2.5,28,362,134
India,Rajasthan,Jaipur,"Sector-2 Murlipura, Jaipur - RSPCB",19-01-2026 08:00:00,26.960669,75.771817,PM10,38,332,109
India,Rajasthan,Jaipur,"Shastri Nagar, Jaipur - RSPCB",19-01-2026 08:00:00,26.9502929,75.730943,SO2,5,39,23
India,Rajasthan,Jaipur,"Shastri Nagar, Jaipur - RSPCB",19-01-2026 08:00:00,26.9502929,75.730943,CO,64,164,90
India,Rajasthan,Jaisalmer,"Sadar Bazar, Jaisalmer - RSPCB",19-01-2026 08:00:00,26.912329,70.909168,NO2,20,91,39
India,Rajasthan,Bikaner,"MM Ground, Bikaner - RSPCB",19-01-2026 08:00:00,28.018792,73.292658,OZONE,13,146,46
India,Rajasthan,Bundi,"New Colony, Bundi - RSPCB",19-01-2026 08:00:00,25.435774,75.644272,OZONE,40,140,75
India,Rajasthan,Chittorgarh,"Shastri Nagar, Chittorgarh - RSPCB",19-01-2026 08:00:00,24.892047,74.623527,PM10,56,233,121
India,Rajasthan,Chittorgarh,"Shastri Nagar, Chittorgarh - RSPCB",19-01-2026 08:00:00,24.892047,74.623527,CO,16,77,32
India,Rajasthan,Churu,"Subash Chowk, Churu - RSPCB",19-01-2026 08:00:00,28.296139,74.961696,PM10,111,423,225
India,Rajasthan,Dausa,"Khatikan Mohalla, Dausa - RSPCB",19-01-2026 08:00:00,26.895552,76.334753,SO2,5,8,6
India,Rajasthan,Dholpur,"Raja Ganj, Dholpur - RSPCB",19-01-2026 08:00:00,26.699557,77.898881,PM10,94,135,116
India,Rajasthan,Dholpur,"Raja Ganj, Dholpur - RSPCB",19-01-2026 08:00:00,26.699557,77.898881,NO2,43,58,50
India,Rajasthan,Jaipur,"Adarsh Nagar, Jaipur - RSPCB",19-01-2026 08:00:00,26.902909,75.836858,OZONE,19,54,28
India,Rajasthan,Jaipur,"Mansarovar Sector-12, Jaipur - RSPCB",19-01-2026 08:00:00,26.843698,75.766894,NO2,14,88,34
India,Rajasthan,Jalore,"Mudtra Sili, Jalore - RSPCB",19-01-2026 08:00:00,25.344694,72.626208,OZONE,4,65,17
India,Rajasthan,Jodhpur,"Collectorate, Jodhpur - RSPCB",19-01-2026 08:00:00,26.268249,73.0193853,PM2.5,24,117,49
India,Rajasthan,Jodhpur,"Collectorate, Jodhpur - RSPCB",19-01-2026 08:00:00,26.268249,73.0193853,CO,5,70,33
India,Rajasthan,Jodhpur,"Mandor, Jodhpur - RSPCB",19-01-2026 08:00:00,26.358805,73.047444,PM2.5,30,322,139
India,Rajasthan,Karauli,"Satyawati Vihar, Karauli - RSPCB",19-01-2026 08:00:00,26.506177,77.025989,PM10,49,100,74
India,Rajasthan,Karauli,"Satyawati Vihar, Karauli - RSPCB",19-01-2026 08:00:00,26.506177,77.025989,NO2,30,64,46
India,Telangana,Hyderabad,"Kompally Municipal Office, Hyderabad - TSPCB",19-01-2026 08:00:00,17.544899,78.486949,CO,11,39,22
India,Telangana,Hyderabad,"Kompally Municipal Office, Hyderabad - TSPCB",19-01-2026 08:00:00,17.544899,78.486949,OZONE,8,41,16
India,Telangana,Hyderabad,"Nacharam_TSIIC IALA, Hyderabad - TSPCB",19-01-2026 08:00:00,17.429398,78.569354,PM10,72,97,82
India,Telangana,Hyderabad,"Nacharam_TSIIC IALA, Hyderabad - TSPCB",19-01-2026 08:00:00,17.429398,78.569354,SO2,10,13,11
India,Telangana,Hyderabad,"Nacharam_TSIIC IALA, Hyderabad - TSPCB",19-01-2026 08:00:00,17.429398,78.569354,OZONE,15,33,15
India,Telangana,Hyderabad,"New Malakpet, Hyderabad - TSPCB",19-01-2026 08:00:00,17.37206,78.50864,NH3,2,4,3
India,Telangana,Hyderabad,"New Malakpet, Hyderabad - TSPCB",19-01-2026 08:00:00,17.37206,78.50864,CO,28,42,32
India,Telangana,Hyderabad,"New Malakpet, Hyderabad - TSPCB",19-01-2026 08:00:00,17.37206,78.50864,OZONE,13,38,22
India,Telangana,Hyderabad,"Ramachandrapuram, Hyderabad - TSPCB",19-01-2026 08:00:00,17.528544,78.286195,PM2.5,39,49,45
India,Telangana,Hyderabad,"Sanathnagar, Hyderabad - TSPCB",19-01-2026 08:00:00,17.4559458,78.4332152,OZONE,NA,NA,NA
India,Telangana,Hyderabad,"Somajiguda, Hyderabad - TSPCB",19-01-2026 08:00:00,17.417094,78.457437,NH3,4,5,4
India,Rajasthan,Sirohi,"Vedhaynath Colony, Sirohi - RSPCB",19-01-2026 08:00:00,24.885261,72.857549,NO2,10,64,30
India,Rajasthan,Sri Ganganagar,"Old City, Sri Ganganagar - RSPCB",19-01-2026 08:00:00,29.931624,73.864511,PM2.5,38,308,103
India,Rajasthan,Sri Ganganagar,"Old City, Sri Ganganagar - RSPCB",19-01-2026 08:00:00,29.931624,73.864511,NO2,41,165,79
India,Rajasthan,Sri Ganganagar,"Old City, Sri Ganganagar - RSPCB",19-01-2026 08:00:00,29.931624,73.864511,OZONE,6,133,12
India,Rajasthan,Tonk,"Shastri Nagar, Tonk - RSPCB",19-01-2026 08:00:00,26.159933,75.780517,PM2.5,113,365,248
India,Rajasthan,Tonk,"Shastri Nagar, Tonk - RSPCB",19-01-2026 08:00:00,26.159933,75.780517,SO2,2,4,3
India,Rajasthan,Udaipur,"Ashok Nagar, Udaipur - RSPCB",19-01-2026 08:00:00,24.5886166,73.6321397,NH3,1,12,6
India,Rajasthan,Udaipur,"Ashok Nagar, Udaipur - RSPCB",19-01-2026 08:00:00,24.5886166,73.6321397,SO2,6,9,8
India,Rajasthan,Udaipur,"Ashok Nagar, Udaipur - RSPCB",19-01-2026 08:00:00,24.5886166,73.6321397,CO,5,86,31
India,Sikkim,Gangtok,"Zero Point GICI, Gangtok - SSPCB",19-01-2026 08:00:00,27.338530,88.614099,NO2,6,7,6
India,Sikkim,Gangtok,"Zero Point GICI, Gangtok - SSPCB",19-01-2026 08:00:00,27.338530,88.614099,SO2,1,1,1
India,TamilNadu,Chennai,"Arumbakkam, Chennai - TNPCB",19-01-2026 08:00:00,13.0664,80.2112 ,NO2,10,18,12
India,TamilNadu,Chennai,"Arumbakkam, Chennai - TNPCB",19-01-2026 08:00:00,13.0664,80.2112 ,SO2,2,8,4
India,TamilNadu,Chennai,"Gandhi Nagar_Ennore, Chennai - TNPCB",19-01-2026 08:00:00,13.218341,80.32027,NO2,3,4,4
India,TamilNadu,Chennai,"Gandhi Nagar_Ennore, Chennai - TNPCB",19-01-2026 08:00:00,13.218341,80.32027,SO2,22,22,22
India,TamilNadu,Chennai,"Kodungaiyur, Chennai - TNPCB",19-01-2026 08:00:00,13.1278,80.2642,PM10,76,160,116
India,TamilNadu,Chennai,"Kodungaiyur, Chennai - TNPCB",19-01-2026 08:00:00,13.1278,80.2642,NH3,2,4,3
India,TamilNadu,Chennai,"Kodungaiyur, Chennai - TNPCB",19-01-2026 08:00:00,13.1278,80.2642,SO2,2,11,7
India,TamilNadu,Chennai,"Kodungaiyur, Chennai - TNPCB",19-01-2026 08:00:00,13.1278,80.2642,CO,44,60,52
India,TamilNadu,Chennai,"Manali Village, Chennai - TNPCB",19-01-2026 08:00:00,13.1662,80.2584,PM10,51,137,87
India,TamilNadu,Chennai,"Perungudi, Chennai - TNPCB",19-01-2026 08:00:00,12.9533,80.2357,NO2,3,10,6
India,TamilNadu,Cuddalore,"Semmandalam, Cuddalore - TNPCB",19-01-2026 08:00:00,11.7637683,79.7499835,NH3,1,3,2
India,TamilNadu,Cuddalore,"Semmandalam, Cuddalore - TNPCB",19-01-2026 08:00:00,11.7637683,79.7499835,OZONE,1,2,2
India,TamilNadu,Gummidipoondi,"Anthoni Pillai Nagar, Gummidipoondi - TNPCB",19-01-2026 08:00:00,13.4127,80.1081,SO2,30,101,70
India,TamilNadu,Karur,"Kamadenu Nagar, Karur - TNPCB",19-01-2026 08:00:00,10.967820,78.080882,NO2,NA,NA,NA
India,TamilNadu,Madurai,"Uchapatti, Madurai - TNPCB",19-01-2026 08:00:00,9.865935,78.022669,CO,24,27,27
India,TamilNadu,Perundurai,"SIPCOT Industrial Park, Perundurai - TNPCB",19-01-2026 08:00:00,11.258242,77.552761,PM2.5,65,65,65
India,TamilNadu,Perundurai,"SIPCOT Industrial Park, Perundurai - TNPCB",19-01-2026 08:00:00,11.258242,77.552761,NH3,2,3,2
India,TamilNadu,Perundurai,"SIPCOT Industrial Park, Perundurai - TNPCB",19-01-2026 08:00:00,11.258242,77.552761,OZONE,23,23,23
India,TamilNadu,Ramanathapuram,"Chalai Bazaar, Ramanathapuram - TNPCB",19-01-2026 08:00:00,9.36399,78.831977,CO,14,19,18
India,Telangana,Hyderabad,"Bollaram Industrial Area, Hyderabad - TSPCB",19-01-2026 08:00:00,17.540891,78.358528,NO2,10,57,34
India,Telangana,Hyderabad,"Bollaram Industrial Area, Hyderabad - TSPCB",19-01-2026 08:00:00,17.540891,78.358528,CO,6,57,28
India,Telangana,Hyderabad,"Central University, Hyderabad - TSPCB",19-01-2026 08:00:00,17.460103,78.334361,PM10,40,131,77
India,Telangana,Hyderabad,"ECIL Kapra, Hyderabad - TSPCB",19-01-2026 08:00:00,17.470431,78.566959,PM2.5,43,43,43
India,Telangana,Hyderabad,"ECIL Kapra, Hyderabad - TSPCB",19-01-2026 08:00:00,17.470431,78.566959,PM10,67,88,74
India,Telangana,Hyderabad,"ECIL Kapra, Hyderabad - TSPCB",19-01-2026 08:00:00,17.470431,78.566959,NO2,19,57,35
India,Telangana,Hyderabad,"ECIL Kapra, Hyderabad - TSPCB",19-01-2026 08:00:00,17.470431,78.566959,CO,11,41,20
India,Rajasthan,Pratapgarh,"Pragati Nagar, Pratapgarh - RSPCB",19-01-2026 08:00:00,24.041198,74.780702,NO2,15,67,28
India,Rajasthan,Pratapgarh,"Pragati Nagar, Pratapgarh - RSPCB",19-01-2026 08:00:00,24.041198,74.780702,NH3,4,8,6
India,Rajasthan,Pratapgarh,"Pragati Nagar, Pratapgarh - RSPCB",19-01-2026 08:00:00,24.041198,74.780702,OZONE,31,119,47
India,Rajasthan,Rajsamand,"Dhoinda, Rajsamand - RSPCB",19-01-2026 08:00:00,25.036360,73.883502,CO,12,71,30
India,Rajasthan,Sawai Madhopur,"Sahu Nagar, Sawai Madhopur - RSPCB",19-01-2026 08:00:00,26.031443,76.359327,PM2.5,56,349,146
India,Rajasthan,Sirohi,"Vedhaynath Colony, Sirohi - RSPCB",19-01-2026 08:00:00,24.885261,72.857549,PM2.5,33,130,66
India,Telangana,Hyderabad,"IDA Pashamylaram, Hyderabad - TSPCB",19-01-2026 08:00:00,17.5316895,78.218939,NH3,NA,NA,NA
India,Telangana,Hyderabad,"IDA Pashamylaram, Hyderabad - TSPCB",19-01-2026 08:00:00,17.5316895,78.218939,OZONE,12,13,12
India,Telangana,Hyderabad,"IITH Kandi, Hyderabad - TSPCB",19-01-2026 08:00:00,17.585705,78.126199,PM2.5,24,67,45
India,Telangana,Hyderabad,"IITH Kandi, Hyderabad - TSPCB",19-01-2026 08:00:00,17.585705,78.126199,OZONE,20,29,21
India,Telangana,Hyderabad,"Kompally Municipal Office, Hyderabad - TSPCB",19-01-2026 08:00:00,17.544899,78.486949,PM10,67,99,81
India,Telangana,Hyderabad,"Kompally Municipal Office, Hyderabad - TSPCB",19-01-2026 08:00:00,17.544899,78.486949,NO2,11,16,15
India,Rajasthan,Kota,"Dhanmandi, Kota - RSPCB",19-01-2026 08:00:00,25.164090,75.858137,NO2,36,106,66
India,Rajasthan,Kota,"Shrinath Puram, Kota - RSPCB",19-01-2026 08:00:00,25.14389,75.821256,NH3,3,8,6
India,Rajasthan,Nagaur,"Karni Colony, Nagaur - RSPCB",19-01-2026 08:00:00,27.213494,73.734444,OZONE,38,130,65
India,Rajasthan,Pali,"Indira Colony Vistar, Pali - RSPCB",19-01-2026 08:00:00,25.771061, 73.340227,NO2,22,84,43
India,TamilNadu,Cuddalore,"Kudikadu, Cuddalore - TNPCB",19-01-2026 08:00:00,11.6829898,79.7532099,PM2.5,NA,NA,NA
India,TamilNadu,Cuddalore,"Kudikadu, Cuddalore - TNPCB",19-01-2026 08:00:00,11.6829898,79.7532099,OZONE,NA,NA,NA
India,Telangana,Hyderabad,"Somajiguda, Hyderabad - TSPCB",19-01-2026 08:00:00,17.417094,78.457437,OZONE,19,36,19
India,Telangana,Hyderabad,"Zoo Park, Hyderabad - TSPCB",19-01-2026 08:00:00,17.349694,78.451437,NO2,8,19,12
India,Telangana,Hyderabad,"Zoo Park, Hyderabad - TSPCB",19-01-2026 08:00:00,17.349694,78.451437,NH3,3,3,3
India,Tripura,Agartala,"Bardowali, Agartala - Tripura SPCB",19-01-2026 08:00:00,23.8175497,91.2726974,PM2.5,NA,NA,NA
India,Tripura,Agartala,"Bardowali, Agartala - Tripura SPCB",19-01-2026 08:00:00,23.8175497,91.2726974,NH3,NA,NA,NA
India,Uttar_Pradesh,Agra,"Manoharpur, Agra - UPPCB",19-01-2026 08:00:00,27.23711,78.01936,PM10,113,257,156
India,Uttar_Pradesh,Agra,"Rohta, Agra - UPPCB",19-01-2026 08:00:00,27.106972,78.000111,SO2,9,25,16
India,Uttar_Pradesh,Agra,"Sanjay Palace, Agra - UPPCB",19-01-2026 08:00:00,27.19865833,78.00598056,PM10,110,200,144
India,Uttar_Pradesh,Meerut,"Ganga Nagar, Meerut - UPPCB",19-01-2026 08:00:00,28.999264,77.7590354,SO2,16,32,23
India,Uttar_Pradesh,Meerut,"Jai Bhim Nagar, Meerut - UPPCB",19-01-2026 08:00:00,28.9535882,77.7622941,PM2.5,304,467,372
India,Uttar_Pradesh,Meerut,"Jai Bhim Nagar, Meerut - UPPCB",19-01-2026 08:00:00,28.9535882,77.7622941,PM10,151,429,248
India,Uttar_Pradesh,Meerut,"Pallavpuram Phase 2, Meerut - UPPCB",19-01-2026 08:00:00,29.063510,77.709723,NH3,1,2,1
India,Uttar_Pradesh,Moradabad,"Buddhi Vihar, Moradabad - UPPCB",19-01-2026 08:00:00,28.83526,78.74460,PM10,81,255,135
India,Uttar_Pradesh,Moradabad,"Eco Herbal Park, Moradabad - UPPCB",19-01-2026 08:00:00,28.840739,78.697531,OZONE,4,77,4
India,Uttar_Pradesh,Moradabad,"Employment Office, Moradabad - UPPCB",19-01-2026 08:00:00,28.88528,78.73880,PM2.5,56,310,156
India,Uttar_Pradesh,Bareilly,"Rajendra Nagar, Bareilly - UPPCB",19-01-2026 08:00:00,28.38910936,79.42963708,CO,20,68,34
India,Uttar_Pradesh,Firozabad,"Nagla Bhau, Firozabad - UPPCB",19-01-2026 08:00:00,27.168897,78.376960,OZONE,14,16,15
India,Uttar_Pradesh,Firozabad,"Vibhab Nagar, Firozabad - UPPCB",19-01-2026 08:00:00,27.1594,78.3953,SO2,20,26,22
India,Uttar_Pradesh,Ghaziabad,"Indirapuram, Ghaziabad - UPPCB",19-01-2026 08:00:00,28.646233,77.358075,PM10,258,500,433
India,Uttar_Pradesh,Ghaziabad,"Indirapuram, Ghaziabad - UPPCB",19-01-2026 08:00:00,28.646233,77.358075,NH3,9,10,9
India,Uttar_Pradesh,Ghaziabad,"Indirapuram, Ghaziabad - UPPCB",19-01-2026 08:00:00,28.646233,77.358075,CO,30,179,92
India,Uttar_Pradesh,Ghaziabad,"Loni, Ghaziabad - UPPCB",19-01-2026 08:00:00,28.757294,77.278792,PM2.5,379,500,476
India,Uttar_Pradesh,Kanpur,"NSI Kalyanpur, Kanpur - UPPCB",19-01-2026 08:00:00,26.509954,80.249612,OZONE,15,17,16
India,Uttar_Pradesh,Kanpur,"Nehru Nagar, Kanpur - UPPCB",19-01-2026 08:00:00,26.4703136,80.3229863,NO2,52,56,55
India,Uttar_Pradesh,Khurja,"Kalindi Kunj, Khurja - UPPCB",19-01-2026 08:00:00,28.2348927,77.8683002,NO2,8,10,9
India,Uttar_Pradesh,Khurja,"Kalindi Kunj, Khurja - UPPCB",19-01-2026 08:00:00,28.2348927,77.8683002,NH3,1,1,1
India,Uttar_Pradesh,Khurja,"Kalindi Kunj, Khurja - UPPCB",19-01-2026 08:00:00,28.2348927,77.8683002,CO,69,86,73
India,Uttar_Pradesh,Khurja,"Kalindi Kunj, Khurja - UPPCB",19-01-2026 08:00:00,28.2348927,77.8683002,OZONE,22,28,23
India,Uttar_Pradesh,Lucknow,"B R Ambedkar University, Lucknow - UPPCB",19-01-2026 08:00:00,26.766433,80.927299,PM10,67,215,116
India,Uttar_Pradesh,Moradabad,"Employment Office, Moradabad - UPPCB",19-01-2026 08:00:00,28.88528,78.73880,CO,31,73,39
India,Uttar_Pradesh,Moradabad,"Jigar Colony, Moradabad - UPPCB",19-01-2026 08:00:00,28.856664,78.772638,PM10,88,179,125
India,Uttar_Pradesh,Moradabad,"Jigar Colony, Moradabad - UPPCB",19-01-2026 08:00:00,28.856664,78.772638,SO2,41,62,51
India,Uttar_Pradesh,Moradabad,"Kashiram Nagar, Moradabad - UPPCB",19-01-2026 08:00:00,28.849399,78.742362,NH3,4,4,4
India,Uttar_Pradesh,Moradabad,"Kashiram Nagar, Moradabad - UPPCB",19-01-2026 08:00:00,28.849399,78.742362,CO,32,101,52
India,Uttar_Pradesh,Muzaffarnagar,"New Mandi, Muzaffarnagar - UPPCB",19-01-2026 08:00:00,29.4723508,77.7194031,PM10,86,401,193
India,Uttar_Pradesh,Agra,"Shahjahan Garden, Agra - UPPCB",19-01-2026 08:00:00,27.169338,78.03582,PM2.5,41,113,77
India,Uttar_Pradesh,Agra,"Shahjahan Garden, Agra - UPPCB",19-01-2026 08:00:00,27.169338,78.03582,SO2,19,30,25
India,Uttar_Pradesh,Agra,"Shahjahan Garden, Agra - UPPCB",19-01-2026 08:00:00,27.169338,78.03582,CO,2,18,7
India,Uttar_Pradesh,Bareilly,"Civil Lines, Bareilly - UPPCB",19-01-2026 08:00:00,28.359581,79.414455,NH3,1,1,1
India,Uttar_Pradesh,Bareilly,"Civil Lines, Bareilly - UPPCB",19-01-2026 08:00:00,28.359581,79.414455,CO,72,142,102
India,Uttar_Pradesh,Bareilly,"Rajendra Nagar, Bareilly - UPPCB",19-01-2026 08:00:00,28.38910936,79.42963708,NO2,9,10,10
India,Uttar_Pradesh,Lucknow,"Kendriya Vidyalaya, Lucknow - CPCB",19-01-2026 08:00:00,26.906111,80.948222,NH3,12,17,15
India,Uttar_Pradesh,Lucknow,"Kukrail Picnic Spot-1, Lucknow - UPPCB",19-01-2026 08:00:00,26.90723,80.98579,NH3,6,6,6
India,Uttar_Pradesh,Lucknow,"Kukrail Picnic Spot-1, Lucknow - UPPCB",19-01-2026 08:00:00,26.90723,80.98579,SO2,42,46,43
India,Uttar_Pradesh,Lucknow,"Kukrail Picnic Spot-1, Lucknow - UPPCB",19-01-2026 08:00:00,26.90723,80.98579,CO,11,18,14
India,Uttar_Pradesh,Meerut,"Ganga Nagar, Meerut - UPPCB",19-01-2026 08:00:00,28.999264,77.7590354,NH3,15,24,19
India,Uttar_Pradesh,Jhansi,"Shivaji Nagar, Jhansi - UPPCB",19-01-2026 08:00:00,25.4547,78.6039,PM2.5,28,107,63
India,Uttar_Pradesh,Kanpur,"FTI Kidwai Nagar, Kanpur - UPPCB",19-01-2026 08:00:00,26.428282,80.327067,PM2.5,17,183,89
India,Uttar_Pradesh,Kanpur,"FTI Kidwai Nagar, Kanpur - UPPCB",19-01-2026 08:00:00,26.428282,80.327067,PM10,13,150,101
India,Uttar_Pradesh,Kanpur,"FTI Kidwai Nagar, Kanpur - UPPCB",19-01-2026 08:00:00,26.428282,80.327067,OZONE,8,11,10
India,Uttar_Pradesh,Kanpur,"NSI Kalyanpur, Kanpur - UPPCB",19-01-2026 08:00:00,26.509954,80.249612,PM10,85,211,141
India,Uttar_Pradesh,Ghaziabad,"Sanjay Nagar, Ghaziabad - UPPCB",19-01-2026 08:00:00,28.685382,77.453839,PM10,175,442,320
India,Uttar_Pradesh,Ghaziabad,"Vasundhara, Ghaziabad - UPPCB",19-01-2026 08:00:00,28.6603346,77.3572563,NO2,29,187,83
India,Uttar_Pradesh,Gorakhpur,"Madan Mohan Malaviya University of Technology, Gorakhpur - UPPCB",19-01-2026 08:00:00,26.730136,83.433859,OZONE,1,6,5
India,Uttar_Pradesh,Noida,"Sector - 125, Noida - UPPCB",19-01-2026 08:00:00,28.5447608,77.3231257,NH3,NA,NA,NA
India,Uttar_Pradesh,Noida,"Sector - 62, Noida - IMD",19-01-2026 08:00:00,28.6245479,77.3577104,PM10,187,421,310
India,Uttar_Pradesh,Noida,"Sector-1, Noida - UPPCB",19-01-2026 08:00:00,28.5898,77.3101,NH3,7,8,7
India,Uttar_Pradesh,Prayagraj,"Nagar Nigam, Prayagraj - UPPCB",19-01-2026 08:00:00,25.44919916 ,81.82735986 ,NH3,9,21,13
India,Uttar_Pradesh,Varanasi,"Ardhali Bazar, Varanasi - UPPCB",19-01-2026 08:00:00,25.3505986,82.9083074,PM2.5,32,56,46
India,Uttar_Pradesh,Varanasi,"Ardhali Bazar, Varanasi - UPPCB",19-01-2026 08:00:00,25.3505986,82.9083074,OZONE,7,26,17
India,Uttar_Pradesh,Varanasi,"Bhelupur, Varanasi - UPPCB",19-01-2026 08:00:00,25.301778,82.996789,OZONE,NA,NA,NA
India,Uttar_Pradesh,Varanasi,"Maldahiya, Varanasi - UPPCB",19-01-2026 08:00:00,25.32393,82.99687,OZONE,2,6,2
India,Uttar_Pradesh,Vrindavan,"Omex Eternity, Vrindavan - UPPCB",19-01-2026 08:00:00,27.5714090,77.6557570,PM2.5,37,69,54
India,Uttar_Pradesh,Vrindavan,"Omex Eternity, Vrindavan - UPPCB",19-01-2026 08:00:00,27.5714090,77.6557570,NO2,12,12,12
India,Uttarakhand,Dehradun,"Doon University, Dehradun - UKPCB",19-01-2026 08:00:00,30.269444,78.044167,NO2,1,6,2
India,Uttarakhand,Dehradun,"Doon University, Dehradun - UKPCB",19-01-2026 08:00:00,30.269444,78.044167,CO,8,12,10
India,Uttarakhand,Kashipur,"Govt. Girls Inter College, Kashipur - UKPCB",19-01-2026 08:00:00,29.2124114,78.9611753,NH3,10,11,10
India,Uttarakhand,Rishikesh,"Shivaji Nagar, Rishikesh - UKPCB",19-01-2026 08:00:00,30.075911,78.2859547,NH3,5,14,8
India,West_Bengal,Asansol,"Asansol Court Area, Asansol - WBPCB",19-01-2026 08:00:00,23.685297,86.945968,PM10,113,240,161
India,West_Bengal,Asansol,"Asansol Court Area, Asansol - WBPCB",19-01-2026 08:00:00,23.685297,86.945968,NH3,3,9,5
India,West_Bengal,Asansol,"Asansol Court Area, Asansol - WBPCB",19-01-2026 08:00:00,23.685297,86.945968,SO2,17,42,26
India,West_Bengal,Asansol,"Evelyn Lodge, Asansol - WBPCB",19-01-2026 08:00:00,23.6979360,86.9443950,PM2.5,111,325,267
India,West_Bengal,Asansol,"Evelyn Lodge, Asansol - WBPCB",19-01-2026 08:00:00,23.6979360,86.9443950,CO,35,122,84
India,West_Bengal,Asansol,"Trivenidevi Bhalotia College, Asansol - WBPCB",19-01-2026 08:00:00,23.616515,87.119133,PM2.5,115,326,261
India,West_Bengal,Asansol,"Trivenidevi Bhalotia College, Asansol - WBPCB",19-01-2026 08:00:00,23.616515,87.119133,SO2,8,15,11
India,West_Bengal,Barrackpore,"SVSPA Campus, Barrackpore - WBPCB",19-01-2026 08:00:00,22.7605581,88.3617589,PM2.5,77,231,146
India,West_Bengal,Barrackpore,"SVSPA Campus, Barrackpore - WBPCB",19-01-2026 08:00:00,22.7605581,88.3617589,PM10,70,144,107
India,West_Bengal,Durgapur,"Mahishkapur Road_B-Zone, Durgapur - WBPCB",19-01-2026 08:00:00,23.567923,87.306843,PM2.5,130,316,224
India,West_Bengal,Durgapur,"Mahishkapur Road_B-Zone, Durgapur - WBPCB",19-01-2026 08:00:00,23.567923,87.306843,NH3,2,3,3
India,West_Bengal,Durgapur,"Mahishkapur Road_B-Zone, Durgapur - WBPCB",19-01-2026 08:00:00,23.567923,87.306843,OZONE,19,124,22
India,West_Bengal,Durgapur,"PCBL Residential Complex, Durgapur - WBPCB",19-01-2026 08:00:00,23.5087640,87.3544400,PM10,105,168,135
India,West_Bengal,Durgapur,"Womens College_City Center, Durgapur - WBPCB",19-01-2026 08:00:00,23.549395,87.300496,CO,52,94,85
India,West_Bengal,Haldia,"Priyambada Housing Estate, Haldia - WBPCB",19-01-2026 08:00:00,22.06047,88.109737,NO2,13,45,26
India,West_Bengal,Haldia,"Priyambada Housing Estate, Haldia - WBPCB",19-01-2026 08:00:00,22.06047,88.109737,CO,32,90,60
India,West_Bengal,Howrah,"Belur Math, Howrah - WBPCB",19-01-2026 08:00:00,22.629801,88.352017,PM2.5,105,323,221
India,West_Bengal,Howrah,"Belur Math, Howrah - WBPCB",19-01-2026 08:00:00,22.629801,88.352017,OZONE,24,61,25
India,West_Bengal,Howrah,"Dasnagar, Howrah - WBPCB",19-01-2026 08:00:00,22.6025571,88.3105664,PM10,82,163,122
India,West_Bengal,Howrah,"Dasnagar, Howrah - WBPCB",19-01-2026 08:00:00,22.6025571,88.3105664,CO,28,111,62
India,West_Bengal,Howrah,"Ghusuri, Howrah - WBPCB",19-01-2026 08:00:00,22.611968,88.347422,PM2.5,104,414,274
India,West_Bengal,Howrah,"Ghusuri, Howrah - WBPCB",19-01-2026 08:00:00,22.611968,88.347422,NO2,21,37,26
India,West_Bengal,Howrah,"Ghusuri, Howrah - WBPCB",19-01-2026 08:00:00,22.611968,88.347422,CO,68,124,107
India,West_Bengal,Howrah,"Padmapukur, Howrah - WBPCB",19-01-2026 08:00:00,22.5687319,88.2797276,PM10,137,403,249
India,West_Bengal,Howrah,"Padmapukur, Howrah - WBPCB",19-01-2026 08:00:00,22.5687319,88.2797276,NO2,6,87,47
India,West_Bengal,Kolkata,"Ballygunge, Kolkata - WBPCB",19-01-2026 08:00:00,22.5367507,88.3638022,CO,38,125,113
India,West_Bengal,Kolkata,"Bidhannagar, Kolkata - WBPCB",19-01-2026 08:00:00,22.58157048,88.41002457,CO,20,72,66
India,West_Bengal,Kolkata,"Jadavpur, Kolkata - WBPCB",19-01-2026 08:00:00,22.49929,88.36917,NO2,37,79,56
India,West_Bengal,Kolkata,"Rabindra Bharati University, Kolkata - WBPCB",19-01-2026 08:00:00,22.627847,88.380669,PM10,112,312,173
India,West_Bengal,Kolkata,"Rabindra Sarobar, Kolkata - WBPCB",19-01-2026 08:00:00,22.51106,88.35142,OZONE,3,52,4
India,West_Bengal,Kolkata,"Victoria, Kolkata - WBPCB",19-01-2026 08:00:00,22.5448082,88.3403691,PM2.5,135,328,240
India,West_Bengal,Siliguri,"Ward-32 Bapupara, Siliguri - WBPCB",19-01-2026 08:00:00,26.6879226,88.4152495,SO2,14,17,15
India,Bihar,Gaya,"SFTI Kusdihra, Gaya - BSPCB",19-01-2026 08:00:00,24.762518,84.982348,NO2,18,23,21
India,Bihar,Gaya,"SFTI Kusdihra, Gaya - BSPCB",19-01-2026 08:00:00,24.762518,84.982348,NH3,3,5,4
India,Bihar,Hajipur,"Industrial Area, Hajipur - BSPCB",19-01-2026 08:00:00,25.697189,85.245900,PM2.5,103,370,246
India,Bihar,Katihar,"Mirchaibari, Katihar - BSPCB",19-01-2026 08:00:00,25.560083,87.553265,SO2,13,21,17
India,Bihar,Katihar,"Mirchaibari, Katihar - BSPCB",19-01-2026 08:00:00,25.560083,87.553265,CO,52,83,66
India,Bihar,Kishanganj,"SDM Office_Khagra, Kishanganj - BSPCB",19-01-2026 08:00:00,26.0881305,87.93840336,OZONE,16,19,16
India,Bihar,Manguraha,"Forest Rest House, Manguraha - BSPCB",19-01-2026 08:00:00,27.308328,84.531742,PM2.5,57,280,86
India,Bihar,Manguraha,"Forest Rest House, Manguraha - BSPCB",19-01-2026 08:00:00,27.308328,84.531742,SO2,16,17,16
India,Andhra_Pradesh,Vijayawada,"HB Colony, Vijayawada - APPCB",19-01-2026 08:00:00,16.536107,80.594233,OZONE,26,26,26
India,Andhra_Pradesh,Vijayawada,"Kanuru, Vijayawada - APPCB",19-01-2026 08:00:00,16.486692,80.699436,SO2,NA,NA,NA
India,Andhra_Pradesh,Vijayawada,"Kanuru, Vijayawada - APPCB",19-01-2026 08:00:00,16.486692,80.699436,OZONE,NA,NA,NA
India,Andhra_Pradesh,Vijayawada,"Rajiv Gandhi Park, Vijayawada - APPCB",19-01-2026 08:00:00,16.509717,80.612222,NO2,23,62,40
India,Andhra_Pradesh,Vijayawada,"Rajiv Gandhi Park, Vijayawada - APPCB",19-01-2026 08:00:00,16.509717,80.612222,NH3,4,6,5
India,Andhra_Pradesh,Visakhapatnam,"GVM Corporation, Visakhapatnam - APPCB",19-01-2026 08:00:00,17.72,83.3,PM2.5,126,320,246
India,Arunachal_Pradesh,Naharlagun,"Naharlagun, Naharlagun - APSPCB",19-01-2026 08:00:00,27.103358,93.679645,PM2.5,38,402,192
India,Assam,Nalbari,"Bata Chowk, Nalbari - PCBA",19-01-2026 08:00:00,26.446912,91.439057,PM2.5,109,169,146
India,Assam,Nalbari,"Bata Chowk, Nalbari - PCBA",19-01-2026 08:00:00,26.446912,91.439057,PM10,101,121,113
India,Assam,Silchar,"Tarapur, Silchar - PCBA",19-01-2026 08:00:00,24.82827,92.79525,NO2,21,27,24
India,Assam,Silchar,"Tarapur, Silchar - PCBA",19-01-2026 08:00:00,24.82827,92.79525,OZONE,2,2,2
India,Assam,Sivasagar,"Girls College, Sivasagar - PCBA",19-01-2026 08:00:00,26.987634,94.636574,PM10,45,98,65
India,Assam,Sivasagar,"Girls College, Sivasagar - PCBA",19-01-2026 08:00:00,26.987634,94.636574,SO2,13,14,14
India,Bihar,Araria,"Kharahiya Basti, Araria - BSPCB",19-01-2026 08:00:00,26.146529,87.454184,NH3,4,5,4
India,Andhra_Pradesh,Kadapa,"Yerramukkapalli, Kadapa - APPCB",19-01-2026 08:00:00,14.465052,78.824187,NH3,3,4,3
India,Andhra_Pradesh,Tirumala,"Toll Gate, Tirumala - APPCB",19-01-2026 08:00:00,13.67,79.35,PM2.5,45,188,111
India,Andhra_Pradesh,Tirumala,"Toll Gate, Tirumala - APPCB",19-01-2026 08:00:00,13.67,79.35,SO2,12,38,22
India,Andhra_Pradesh,Tirupati,"Vaikuntapuram, Tirupati - APPCB",19-01-2026 08:00:00,13.615387,79.409230,SO2,14,16,15
India,Andhra_Pradesh,Vijayawada,"HB Colony, Vijayawada - APPCB",19-01-2026 08:00:00,16.536107,80.594233,PM2.5,64,182,85
India,Andhra_Pradesh,Vijayawada,"HB Colony, Vijayawada - APPCB",19-01-2026 08:00:00,16.536107,80.594233,NO2,22,23,22
India,Arunachal_Pradesh,Naharlagun,"Naharlagun, Naharlagun - APSPCB",19-01-2026 08:00:00,27.103358,93.679645,SO2,9,10,10
India,Assam,Guwahati,"LGBI Airport, Guwahati - PCBA",19-01-2026 08:00:00,26.10887,91.589544,NO2,13,21,16
India,Assam,Guwahati,"Pan Bazaar, Guwahati - PCBA",19-01-2026 08:00:00,26.187500,91.744194,CO,16,67,40
India,Assam,Nagaon,"Christianpatty, Nagaon - PCBA",19-01-2026 08:00:00,26.349082,92.68449,PM10,NA,NA,NA
India,Bihar,Aurangabad,"Gurdeo Nagar, Aurangabad - BSPCB",19-01-2026 08:00:00,24.75746,84.366208,PM2.5,32,217,75
India,Bihar,Aurangabad,"Gurdeo Nagar, Aurangabad - BSPCB",19-01-2026 08:00:00,24.75746,84.366208,NH3,1,2,2
India,Bihar,Bettiah,"Kamalnath Nagar, Bettiah - BSPCB",19-01-2026 08:00:00,26.80365,84.51954,NO2,7,10,8
India,Bihar,Bhagalpur,"DM Office_Kachari Chowk, Bhagalpur - BSPCB",19-01-2026 08:00:00,25.251013,86.989001,PM10,101,169,131
India,Bihar,Motihari,"Gandak Colony, Motihari - BSPCB",19-01-2026 08:00:00,26.63086,84.90051,NH3,3,3,3
India,Bihar,Munger,"Town Hall, Munger - BSPCB",19-01-2026 08:00:00,25.376776,86.471523,PM10,24,88,58
India,Bihar,Muzaffarpur,"Buddha Colony, Muzaffarpur - BSPCB",19-01-2026 08:00:00,26.11442,85.39813,NO2,32,60,42
India,Bihar,Muzaffarpur,"Buddha Colony, Muzaffarpur - BSPCB",19-01-2026 08:00:00,26.11442,85.39813,NH3,4,9,7
India,Bihar,Bihar Sharif,"D M Colony, Bihar Sharif - BSPCB",19-01-2026 08:00:00,25.204762,85.514960,PM10,64,189,120
India,Bihar,Bihar Sharif,"D M Colony, Bihar Sharif - BSPCB",19-01-2026 08:00:00,25.204762,85.514960,NO2,9,10,9
India,Bihar,Bihar Sharif,"D M Colony, Bihar Sharif - BSPCB",19-01-2026 08:00:00,25.204762,85.514960,OZONE,NA,NA,NA
India,Bihar,Gaya,"Collectorate, Gaya - BSPCB",19-01-2026 08:00:00,24.7955,84.9994,PM2.5,NA,NA,NA
India,Bihar,Gaya,"Collectorate, Gaya - BSPCB",19-01-2026 08:00:00,24.7955,84.9994,NO2,NA,NA,NA
India,Andhra_Pradesh,Amaravati,"Secretariat, Amaravati - APPCB",19-01-2026 08:00:00,16.5150833,80.5181667,SO2,3,103,14
India,Andhra_Pradesh,Amaravati,"Secretariat, Amaravati - APPCB",19-01-2026 08:00:00,16.5150833,80.5181667,OZONE,3,78,13
India,Andhra_Pradesh,Anantapur,"Gulzarpet, Anantapur - APPCB",19-01-2026 08:00:00,14.675886,77.593027,CO,16,27,24
India,Andhra_Pradesh,Anantapur,"Gulzarpet, Anantapur - APPCB",19-01-2026 08:00:00,14.675886,77.593027,OZONE,8,25,10
India,Bihar,Gaya,"Kareemganj, Gaya - BSPCB",19-01-2026 08:00:00,24.792403,84.992416,NO2,1,10,5
India,Chhattisgarh,Kunjemura,"OP Jindal School, Kunjemura - CECB",19-01-2026 08:00:00,22.126650,83.483212,NO2,26,95,52
India,Chhattisgarh,Kunjemura,"OP Jindal School, Kunjemura - CECB",19-01-2026 08:00:00,22.126650,83.483212,OZONE,1,74,1
India,Chhattisgarh,Milupara,"Govt. Higher Secondary School, Milupara - CECB",19-01-2026 08:00:00,22.1910172,83.5197009,PM10,NA,NA,NA
India,Chhattisgarh,Milupara,"Govt. Higher Secondary School, Milupara - CECB",19-01-2026 08:00:00,22.1910172,83.5197009,NO2,NA,NA,NA
India,Chhattisgarh,Raipur,"AIIMS, Raipur - CECB",19-01-2026 08:00:00,21.258815,81.578979,PM10,40,165,90
India,Chhattisgarh,Raipur,"AIIMS, Raipur - CECB",19-01-2026 08:00:00,21.258815,81.578979,NH3,4,4,4
India,Chhattisgarh,Raipur,"AIIMS, Raipur - CECB",19-01-2026 08:00:00,21.258815,81.578979,SO2,3,6,4
India,Chhattisgarh,Raipur,"AIIMS, Raipur - CECB",19-01-2026 08:00:00,21.258815,81.578979,CO,34,102,85
India,Chhattisgarh,Raipur,"Bhatagaon New ISBT, Raipur - CECB",19-01-2026 08:00:00,21.219665,81.630094,PM2.5,22,108,55
India,Chhattisgarh,Raipur,"Bhatagaon New ISBT, Raipur - CECB",19-01-2026 08:00:00,21.219665,81.630094,CO,48,110,108
India,Chhattisgarh,Raipur,"Krishak Nagar, Raipur - CECB",19-01-2026 08:00:00,21.237755,81.705301,PM10,48,103,76
India,Chhattisgarh,Raipur,"Siltara Phase-II, Raipur - CECB",19-01-2026 08:00:00,21.371751,81.664929,PM2.5,51,299,113
India,Chhattisgarh,Raipur,"Siltara Phase-II, Raipur - CECB",19-01-2026 08:00:00,21.371751,81.664929,SO2,3,26,7
India,Chhattisgarh,Raipur,"Siltara Phase-II, Raipur - CECB",19-01-2026 08:00:00,21.371751,81.664929,CO,34,36,35
India,Chhattisgarh,Raipur,"Siltara Phase-II, Raipur - CECB",19-01-2026 08:00:00,21.371751,81.664929,OZONE,3,3,3
India,Chhattisgarh,Tumidih,"OP Jindal Industrial Park, Tumidih - CECB",19-01-2026 08:00:00,22.06631475,83.33820077,NO2,64,98,85
India,Chhattisgarh,Tumidih,"OP Jindal Industrial Park, Tumidih - CECB",19-01-2026 08:00:00,22.06631475,83.33820077,CO,18,55,37
India,Delhi,Delhi,"Alipur, Delhi - DPCC",19-01-2026 08:00:00,28.815329,77.153010,PM2.5,358,449,397
India,Delhi,Delhi,"Anand Vihar, Delhi - DPCC",19-01-2026 08:00:00,28.647622,77.3158090,NH3,9,15,11
India,Delhi,Delhi,"Anand Vihar, Delhi - DPCC",19-01-2026 08:00:00,28.647622,77.3158090,CO,60,183,131
India,Delhi,Delhi,"Ashok Vihar, Delhi - DPCC",19-01-2026 08:00:00,28.695381,77.181665,NO2,48,293,101
India,Delhi,Delhi,"Aya Nagar, Delhi - IMD",19-01-2026 08:00:00,28.4706914,77.1099364,CO,80,113,103
India,Delhi,Delhi,"Bawana, Delhi - DPCC",19-01-2026 08:00:00,28.776200,77.051074,OZONE,5,122,6
India,Delhi,Delhi,"CRRI Mathura Road, Delhi - IMD",19-01-2026 08:00:00,28.5512005,77.2735737,PM2.5,232,462,362
India,Delhi,Delhi,"Chandni Chowk, Delhi - IITM",19-01-2026 08:00:00,28.656756,77.227234,NH3,13,27,19
India,Delhi,Delhi,"DTU, Delhi - CPCB",19-01-2026 08:00:00,28.7500499,77.1112615,NO2,55,69,59
India,Delhi,Delhi,"DTU, Delhi - CPCB",19-01-2026 08:00:00,28.7500499,77.1112615,SO2,39,40,39
India,Bihar,Patna,"Govt. High School Shikarpur, Patna - BSPCB",19-01-2026 08:00:00,25.592539,85.227158,NH3,4,5,5
India,Bihar,Patna,"Govt. High School Shikarpur, Patna - BSPCB",19-01-2026 08:00:00,25.592539,85.227158,OZONE,9,13,10
India,Bihar,Patna,"Muradpur, Patna - BSPCB",19-01-2026 08:00:00,25.619651,85.147382,NO2,5,8,7
India,Bihar,Patna,"Muradpur, Patna - BSPCB",19-01-2026 08:00:00,25.619651,85.147382,CO,36,94,47
India,Bihar,Patna,"Rajbansi Nagar, Patna - BSPCB",19-01-2026 08:00:00,25.599486,85.113666,NO2,17,158,94
India,Bihar,Patna,"Rajbansi Nagar, Patna - BSPCB",19-01-2026 08:00:00,25.599486,85.113666,NH3,3,8,5
India,Bihar,Patna,"Samanpura, Patna - BSPCB",19-01-2026 08:00:00,25.596727,85.085624,CO,2,140,72
India,Chandigarh,Chandigarh,"Sector 22, Chandigarh - CPCC",19-01-2026 08:00:00,30.735567,76.775714,NH3,1,16,12
India,Chandigarh,Chandigarh,"Sector 22, Chandigarh - CPCC",19-01-2026 08:00:00,30.735567,76.775714,OZONE,4,129,13
India,Chandigarh,Chandigarh,"Sector-25, Chandigarh - CPCC",19-01-2026 08:00:00,30.751462,76.762879,PM10,72,186,118
India,Chandigarh,Chandigarh,"Sector-25, Chandigarh - CPCC",19-01-2026 08:00:00,30.751462,76.762879,NO2,10,25,16
India,Chandigarh,Chandigarh,"Sector-25, Chandigarh - CPCC",19-01-2026 08:00:00,30.751462,76.762879,NH3,3,6,5
India,Chandigarh,Chandigarh,"Sector-53, Chandigarh - CPCC",19-01-2026 08:00:00,30.719859,76.738637,NH3,8,14,11
India,Chandigarh,Chandigarh,"Sector-53, Chandigarh - CPCC",19-01-2026 08:00:00,30.719859,76.738637,CO,10,131,34
India,Chandigarh,Chandigarh,"Sector-53, Chandigarh - CPCC",19-01-2026 08:00:00,30.719859,76.738637,OZONE,1,84,4
India,Delhi,Delhi,"IIT Delhi, Delhi - IITM",19-01-2026 08:00:00,28.542460,77.191651,NO2,12,76,38
India,Delhi,Delhi,"ITO, Delhi - CPCB",19-01-2026 08:00:00,28.628624,77.241060,PM2.5,336,484,430
India,Delhi,Delhi,"Jawaharlal Nehru Stadium, Delhi - DPCC",19-01-2026 08:00:00,28.580280,77.233829,PM10,195,471,379
India,Delhi,Delhi,"Jawaharlal Nehru Stadium, Delhi - DPCC",19-01-2026 08:00:00,28.580280,77.233829,CO,121,179,162
India,Delhi,Delhi,"Lodhi Road, Delhi - IMD",19-01-2026 08:00:00,28.5918245,77.2273074,PM2.5,290,466,382
India,Delhi,Delhi,"Lodhi Road, Delhi - IMD",19-01-2026 08:00:00,28.5918245,77.2273074,NO2,4,60,28
India,Chhattisgarh,Bhilai,"Civic Center, Bhilai - Bhilai Steel Plant",19-01-2026 08:00:00,21.185571,81.343175,CO,28,34,33
India,Chhattisgarh,Bhilai,"Hathkhoj, Bhilai - CECB",19-01-2026 08:00:00,21.224231,81.408350,PM2.5,13,183,56
India,Chhattisgarh,Bhilai,"Hathkhoj, Bhilai - CECB",19-01-2026 08:00:00,21.224231,81.408350,NH3,1,5,3
India,Chhattisgarh,Bhilai,"Hathkhoj, Bhilai - CECB",19-01-2026 08:00:00,21.224231,81.408350,SO2,5,73,23
India,Chhattisgarh,Korba,"Rampur, Korba - CECB",19-01-2026 08:00:00,22.368195,82.746431,PM2.5,48,112,80
India,Bihar,Purnia,"Mariam Nagar, Purnia - BSPCB",19-01-2026 08:00:00,25.366336,87.117468,NH3,3,3,3
India,Bihar,Rajgir,"Dangi Tola, Rajgir - BSPCB",19-01-2026 08:00:00,25.03280,85.41948,NH3,5,8,7
India,Bihar,Rajgir,"Dangi Tola, Rajgir - BSPCB",19-01-2026 08:00:00,25.03280,85.41948,CO,68,101,89
India,Bihar,Sasaram,"Dada Peer, Sasaram - BSPCB",19-01-2026 08:00:00,24.952822,84.002396,CO,25,125,58
India,Delhi,Delhi,"Dr. Karni Singh Shooting Range, Delhi - DPCC",19-01-2026 08:00:00,28.498571,77.264840,SO2,8,14,10
India,Delhi,Delhi,"IHBAS, Dilshad Garden, Delhi - CPCB",19-01-2026 08:00:00,28.6811736,77.3025234,SO2,12,30,20
India,Delhi,Delhi,"IIT Delhi, Delhi - IITM",19-01-2026 08:00:00,28.542460,77.191651,PM10,184,399,297
India,Haryana,Dharuhera,"Municipal Corporation Office, Dharuhera -  HSPCB",19-01-2026 08:00:00,28.206800,76.799700,NO2,13,44,33
India,Haryana,Dharuhera,"Municipal Corporation Office, Dharuhera -  HSPCB",19-01-2026 08:00:00,28.206800,76.799700,SO2,1,2,1
India,Haryana,Faridabad,"New Industrial Town, Faridabad - HSPCB",19-01-2026 08:00:00,28.39072,77.30059,PM2.5,203,221,214
India,Haryana,Faridabad,"New Industrial Town, Faridabad - HSPCB",19-01-2026 08:00:00,28.39072,77.30059,PM10,168,177,174
India,Haryana,Faridabad,"New Industrial Town, Faridabad - HSPCB",19-01-2026 08:00:00,28.39072,77.30059,CO,10,13,12
India,Haryana,Faridabad,"Sector 11, Faridabad - HSPCB",19-01-2026 08:00:00,28.376058,77.315741,PM10,61,414,214
India,Haryana,Faridabad,"Sector 30, Faridabad - HSPCB",19-01-2026 08:00:00,28.4417,77.3217,PM2.5,223,229,226
India,Haryana,Fatehabad,"Huda Sector, Fatehabad - HSPCB",19-01-2026 08:00:00,29.503664,75.467934,NH3,13,15,14
India,Haryana,Fatehabad,"Huda Sector, Fatehabad - HSPCB",19-01-2026 08:00:00,29.503664,75.467934,SO2,10,11,10
India,Delhi,Delhi,"Major Dhyan Chand National Stadium, Delhi - DPCC",19-01-2026 08:00:00,28.611281,77.237738,SO2,2,11,7
India,Delhi,Delhi,"Major Dhyan Chand National Stadium, Delhi - DPCC",19-01-2026 08:00:00,28.611281,77.237738,CO,35,142,104
India,Delhi,Delhi,"Mandir Marg, Delhi - DPCC",19-01-2026 08:00:00,28.636429,77.201067,OZONE,14,110,19
India,Delhi,Delhi,"NSIT Dwarka, Delhi - CPCB",19-01-2026 08:00:00,28.60909,77.0325413,NO2,50,133,72
India,Delhi,Delhi,"NSIT Dwarka, Delhi - CPCB",19-01-2026 08:00:00,28.60909,77.0325413,OZONE,22,47,24
India,Delhi,Delhi,"Najafgarh, Delhi - DPCC",19-01-2026 08:00:00,28.570173,76.933762,PM10,149,289,224
India,Delhi,Delhi,"Najafgarh, Delhi - DPCC",19-01-2026 08:00:00,28.570173,76.933762,SO2,10,32,16
India,Delhi,Delhi,"Najafgarh, Delhi - DPCC",19-01-2026 08:00:00,28.570173,76.933762,CO,31,138,107
India,Delhi,Delhi,"Narela, Delhi - DPCC",19-01-2026 08:00:00,28.822836,77.101981,PM2.5,371,500,437
India,Delhi,Delhi,"Punjabi Bagh, Delhi - DPCC",19-01-2026 08:00:00,28.674045,77.131023,SO2,5,20,13
India,Delhi,Delhi,"Pusa, Delhi - DPCC",19-01-2026 08:00:00,28.639652,77.146275,NO2,31,175,73
India,Delhi,Delhi,"Pusa, Delhi - DPCC",19-01-2026 08:00:00,28.639652,77.146275,NH3,19,28,24
India,Delhi,Delhi,"Pusa, Delhi - IMD",19-01-2026 08:00:00,28.636110,77.173332,PM2.5,191,432,334
India,Delhi,Delhi,"Pusa, Delhi - IMD",19-01-2026 08:00:00,28.636110,77.173332,OZONE,27,113,29
India,Delhi,Delhi,"R K Puram, Delhi - DPCC",19-01-2026 08:00:00,28.563262,77.186937,NH3,13,18,15
India,Delhi,Delhi,"R K Puram, Delhi - DPCC",19-01-2026 08:00:00,28.563262,77.186937,CO,18,146,140
India,Delhi,Delhi,"Rohini, Delhi - DPCC",19-01-2026 08:00:00,28.732528,77.119920,PM10,NA,NA,NA
India,Delhi,Delhi,"Shadipur, Delhi - CPCB",19-01-2026 08:00:00,28.6514781,77.1473105,CO,15,128,110
India,Delhi,Delhi,"Sirifort, Delhi - CPCB",19-01-2026 08:00:00,28.5504249,77.2159377,CO,62,146,128
India,Delhi,Delhi,"Sonia Vihar, Delhi - DPCC",19-01-2026 08:00:00,28.710508,77.249485,NO2,30,116,60
India,Delhi,Delhi,"Sonia Vihar, Delhi - DPCC",19-01-2026 08:00:00,28.710508,77.249485,NH3,7,18,10
India,Delhi,Delhi,"Sri Aurobindo Marg, Delhi - DPCC",19-01-2026 08:00:00,28.531346,77.190156,SO2,4,14,9
India,Delhi,Delhi,"Sri Aurobindo Marg, Delhi - DPCC",19-01-2026 08:00:00,28.531346,77.190156,OZONE,2,93,2
India,Delhi,Delhi,"Wazirpur, Delhi - DPCC",19-01-2026 08:00:00,28.699793,77.165453,NO2,99,292,173
India,Gujarat,Gandhinagar,"IIPHG Lekawada, Gandhinagar - IITM",19-01-2026 08:00:00,23.243639,72.68994,SO2,8,20,12
India,Gujarat,Gandhinagar,"IIPHG Lekawada, Gandhinagar - IITM",19-01-2026 08:00:00,23.243639,72.68994,CO,1,74,54
India,Gujarat,Gandhinagar,"Sector-10, Gandhinagar - GPCB",19-01-2026 08:00:00,23.221714,72.654328,NH3,2,5,3
India,Gujarat,Vapi,"Phase-1 GIDC, Vapi - GPCB",19-01-2026 08:00:00,20.362421,72.918013,SO2,13,16,15
India,Haryana,Ambala,"Patti Mehar, Ambala - HSPCB",19-01-2026 08:00:00,30.379589,76.778328,PM2.5,100,308,209
India,Delhi,Delhi,"Narela, Delhi - DPCC",19-01-2026 08:00:00,28.822836,77.101981,PM10,293,500,416
India,Delhi,Delhi,"Narela, Delhi - DPCC",19-01-2026 08:00:00,28.822836,77.101981,SO2,3,19,10
India,Delhi,Delhi,"Nehru Nagar, Delhi - DPCC",19-01-2026 08:00:00,28.567890,77.250515,NH3,6,11,9
India,Delhi,Delhi,"North Campus, DU, Delhi - IMD",19-01-2026 08:00:00,28.6573814,77.1585447,PM2.5,374,500,464
India,Delhi,Delhi,"Punjabi Bagh, Delhi - DPCC",19-01-2026 08:00:00,28.674045,77.131023,PM10,184,500,368
India,Gujarat,Ahmedabad,"Chandkheda, Ahmedabad - IITM",19-01-2026 08:00:00,23.107969,72.574648,PM10,91,172,137
India,Gujarat,Ahmedabad,"Maninagar, Ahmedabad - GPCB",19-01-2026 08:00:00,23.002657,72.591912,PM10,NA,NA,NA
India,Gujarat,Ahmedabad,"Maninagar, Ahmedabad - GPCB",19-01-2026 08:00:00,23.002657,72.591912,OZONE,30,89,41
India,Gujarat,Ahmedabad,"Raikhad, Ahmedabad - IITM",19-01-2026 08:00:00,23.020509,72.579261,PM10,112,185,142
India,Gujarat,Ahmedabad,"Raikhad, Ahmedabad - IITM",19-01-2026 08:00:00,23.020509,72.579261,SO2,10,22,14
India,Gujarat,Ahmedabad,"Rakhial, Ahmedabad - IITM",19-01-2026 08:00:00,23.016834,72.625775,CO,2,123,71
India,Gujarat,Ahmedabad,"SAC ISRO Satellite, Ahmedabad - IITM",19-01-2026 08:00:00,23.023389,72.515201,NO2,1,18,9
India,Gujarat,Ankleshwar,"GIDC, Ankleshwar - GPCB",19-01-2026 08:00:00,21.613267,73.010555,PM2.5,44,127,87
India,Gujarat,Ankleshwar,"GIDC, Ankleshwar - GPCB",19-01-2026 08:00:00,21.613267,73.010555,PM10,55,261,132
India,Haryana,Bhiwani,"H.B. Colony, Bhiwani - HSPCB",19-01-2026 08:00:00,28.806223,76.141105,PM2.5,60,421,183
India,Haryana,Charkhi Dadri,"Mini Secretariat, Charkhi Dadri - HSPCB",19-01-2026 08:00:00,28.593883,76.270653,SO2,9,11,10
India,Haryana,Gurugram,"NISE Gwal Pahari, Gurugram - IMD",19-01-2026 08:00:00,28.422681,77.148944,OZONE,10,18,12
India,Haryana,Gurugram,"Sector-51, Gurugram - HSPCB",19-01-2026 08:00:00,28.4227,77.0667,NO2,1,1,1
India,Haryana,Gurugram,"Sector-51, Gurugram - HSPCB",19-01-2026 08:00:00,28.4227,77.0667,SO2,2,7,5
India,Haryana,Jind,"Police Lines, Jind - HSPCB",19-01-2026 08:00:00,29.307814,76.337619,SO2,2,4,3
India,Haryana,Jind,"Police Lines, Jind - HSPCB",19-01-2026 08:00:00,29.307814,76.337619,CO,30,132,77
India,Haryana,Kaithal,"Rishi Nagar, Kaithal - HSPCB",19-01-2026 08:00:00,29.8006,76.4155,NO2,8,33,30
India,Haryana,Kaithal,"Rishi Nagar, Kaithal - HSPCB",19-01-2026 08:00:00,29.8006,76.4155,NH3,1,6,6
India,Haryana,Karnal,"Sector-12, Karnal - HSPCB",19-01-2026 08:00:00,29.695300,77.002700,PM2.5,161,373,275
India,Haryana,Karnal,"Sector-12, Karnal - HSPCB",19-01-2026 08:00:00,29.695300,77.002700,PM10,125,332,191
India,Haryana,Karnal,"Sector-12, Karnal - HSPCB",19-01-2026 08:00:00,29.695300,77.002700,NH3,6,6,6
India,Karnataka,Bengaluru,"Jigani, Bengaluru - KSPCB",19-01-2026 08:00:00,12.7816279,77.6299145,PM10,51,129,92
India,Karnataka,Bengaluru,"Jigani, Bengaluru - KSPCB",19-01-2026 08:00:00,12.7816279,77.6299145,NH3,4,5,4
India,Karnataka,Bengaluru,"Jigani, Bengaluru - KSPCB",19-01-2026 08:00:00,12.7816279,77.6299145,OZONE,20,21,20
India,Karnataka,Bengaluru,"Peenya, Bengaluru - CPCB",19-01-2026 08:00:00,13.0270199,77.494094,NH3,3,4,4
India,Karnataka,Bengaluru,"Peenya, Bengaluru - CPCB",19-01-2026 08:00:00,13.0270199,77.494094,SO2,6,16,10
India,Karnataka,Bengaluru,"RVCE-Mailasandra, Bengaluru - KSPCB",19-01-2026 08:00:00,12.921418,77.502466,PM10,79,158,113
India,Karnataka,Bengaluru,"RVCE-Mailasandra, Bengaluru - KSPCB",19-01-2026 08:00:00,12.921418,77.502466,CO,25,48,39
India,Karnataka,Bengaluru,"Sanegurava Halli, Bengaluru - KSPCB",19-01-2026 08:00:00,12.990328,77.5431385,NO2,17,18,18
India,Haryana,Karnal,"Sector-12, Karnal - HSPCB",19-01-2026 08:00:00,29.695300,77.002700,CO,34,75,50
India,Haryana,Mandikhera,"General Hospital, Mandikhera(Nuh) - HSPCB",19-01-2026 08:00:00,27.9002,76.9938,NH3,13,14,14
India,Haryana,Mandikhera,"General Hospital, Mandikhera(Nuh) - HSPCB",19-01-2026 08:00:00,27.9002,76.9938,OZONE,22,31,27
India,Haryana,Manesar,"Sector-2 IMT, Manesar - HSPCB",19-01-2026 08:00:00,28.360699,76.936090,PM2.5,187,321,289
India,Haryana,Manesar,"Sector-2 IMT, Manesar - HSPCB",19-01-2026 08:00:00,28.360699,76.936090,CO,35,60,45
India,Haryana,Palwal,"Shyam Nagar, Palwal - HSPCB",19-01-2026 08:00:00,28.1485564,77.3320667,NH3,8,9,9
India,Karnataka,Dharwad,"Kalabhavan, Dharwad - KSPCB",19-01-2026 08:00:00,15.459706,75.008381,SO2,6,12,8
India,Karnataka,Hubballi,"Lingaraj Nagar, Hubballi - KSPCB",19-01-2026 08:00:00,15.3714823,75.1160168,PM2.5,44,316,71
India,Karnataka,Hubballi,"Lingaraj Nagar, Hubballi - KSPCB",19-01-2026 08:00:00,15.3714823,75.1160168,OZONE,13,21,20
India,Karnataka,Madikeri,"Stuart Hill, Madikeri - KSPCB",19-01-2026 08:00:00,12.415911,75.735050,PM2.5,23,54,41
India,Karnataka,Mysuru,"Hebbal 1st Stage, Mysuru - KSPCB",19-01-2026 08:00:00,12.21041,76.37376,NH3,4,6,5
India,Karnataka,Bengaluru,"Silk Board, Bengaluru - KSPCB",19-01-2026 08:00:00,12.917348,77.622813,NO2,NA,NA,NA
India,Karnataka,Bengaluru,"Silk Board, Bengaluru - KSPCB",19-01-2026 08:00:00,12.917348,77.622813,OZONE,NA,NA,NA
India,Karnataka,Chamarajanagar,"Urban, Chamarajanagar - KSPCB",19-01-2026 08:00:00,11.55358,76.55521,NO2,14,30,24
India,Karnataka,Chikkaballapur,"Chikkaballapur Rural, Chikkaballapur - KSPCB",19-01-2026 08:00:00,13.428828,77.731418,OZONE,23,28,24
India,Karnataka,Dharwad,"Kalabhavan, Dharwad - KSPCB",19-01-2026 08:00:00,15.459706,75.008381,PM10,65,144,92
India,Karnataka,Bengaluru,"City Railway Station, Bengaluru - KSPCB",19-01-2026 08:00:00,12.9756843,77.5660749,NO2,31,36,34
India,Karnataka,Bengaluru,"City Railway Station, Bengaluru - KSPCB",19-01-2026 08:00:00,12.9756843,77.5660749,SO2,21,22,22
India,Karnataka,Bengaluru,"Hebbal, Bengaluru - KSPCB",19-01-2026 08:00:00,13.029152,77.585901,NO2,NA,NA,NA
India,Karnataka,Bengaluru,"Hebbal, Bengaluru - KSPCB",19-01-2026 08:00:00,13.029152,77.585901,NH3,NA,NA,NA
India,Karnataka,Bengaluru,"Hombegowda Nagar, Bengaluru - KSPCB",19-01-2026 08:00:00,12.938539,77.590100,PM10,33,108,55
India,Karnataka,Bengaluru,"Hombegowda Nagar, Bengaluru - KSPCB",19-01-2026 08:00:00,12.938539,77.590100,NO2,14,98,46
India,Haryana,Panchgaon,"Amity University, Panchgaon - IITM",19-01-2026 08:00:00,28.3153,76.9143,PM2.5,55,364,141
India,Haryana,Panchgaon,"Amity University, Panchgaon - IITM",19-01-2026 08:00:00,28.3153,76.9143,SO2,1,7,3
India,Haryana,Panchkula,"Sector-6, Panchkula - HSPCB ",19-01-2026 08:00:00,30.7057778,76.8531805555555,PM2.5,11,120,66
India,Haryana,Panipat,"Sector-18, Panipat - HSPCB",19-01-2026 08:00:00,29.432304,76.972765,CO,24,26,25
India,Karnataka,Bagalkot,"Vidayagiri, Bagalkot - KSPCB",19-01-2026 08:00:00,16.172806,75.659694,PM2.5,34,36,35
India,Karnataka,Belgaum,"Ramteerth Nagar, Belgaum - KSPCB",19-01-2026 08:00:00,15.888653,74.541751,PM2.5,8,94,38
India,Karnataka,Bengaluru,"BTM Layout, Bengaluru - CPCB",19-01-2026 08:00:00,12.9135218,77.5950804,PM10,124,125,124
India,Karnataka,Bengaluru,"BTM Layout, Bengaluru - CPCB",19-01-2026 08:00:00,12.9135218,77.5950804,NO2,1,24,14
India,Haryana,Sonipat,"Murthal, Sonipat - HSPCB",19-01-2026 08:00:00,29.027200,77.062100,OZONE,25,26,26
India,Jammu_and_Kashmir,Srinagar,"Rajbagh, Srinagar - JKPCC",19-01-2026 08:00:00,34.066206,74.819820,PM10,18,116,37
India,Jammu_and_Kashmir,Srinagar,"Rajbagh, Srinagar - JKPCC",19-01-2026 08:00:00,34.066206,74.819820,OZONE,NA,NA,NA
India,Madhya Pradesh,Bhopal,"Idgah Hills, Bhopal - MPPCB",19-01-2026 08:00:00,23.264759,77.381568,CO,16,68,20
India,Madhya Pradesh,Bhopal,"Paryavaran Parisar, Bhopal - MPPCB",19-01-2026 08:00:00,23.210494,77.425409,OZONE,14,51,21
India,Madhya Pradesh,Bhopal,"T T Nagar, Bhopal - MPPCB",19-01-2026 08:00:00,23.233584,77.400574,PM10,68,144,106
India,Madhya Pradesh,Bhopal,"T T Nagar, Bhopal - MPPCB",19-01-2026 08:00:00,23.233584,77.400574,NO2,27,40,32
India,Madhya Pradesh,Bhopal,"T T Nagar, Bhopal - MPPCB",19-01-2026 08:00:00,23.233584,77.400574,NH3,8,8,8
India,Madhya Pradesh,Bhopal,"T T Nagar, Bhopal - MPPCB",19-01-2026 08:00:00,23.233584,77.400574,SO2,15,50,23
India,Madhya Pradesh,Damoh,"Shrivastav Colony, Damoh - MPPCB",19-01-2026 08:00:00,23.81748678,79.446246,PM10,NA,NA,NA
India,Madhya Pradesh,Damoh,"Shrivastav Colony, Damoh - MPPCB",19-01-2026 08:00:00,23.81748678,79.446246,SO2,NA,NA,NA
India,Madhya Pradesh,Damoh,"Shrivastav Colony, Damoh - MPPCB",19-01-2026 08:00:00,23.81748678,79.446246,CO,NA,NA,NA
India,Madhya Pradesh,Dewas,"Bhopal Chauraha, Dewas - MPPCB",19-01-2026 08:00:00,22.9682591,76.064118,NO2,76,96,83
India,Madhya Pradesh,Dewas,"Bhopal Chauraha, Dewas - MPPCB",19-01-2026 08:00:00,22.9682591,76.064118,NH3,5,7,6
India,Madhya Pradesh,Gwalior,"City Center, Gwalior - MPPCB",19-01-2026 08:00:00,26.203442,78.193251,PM2.5,68,320,187
India,Maharashtra,Ahmednagar,"Tarakpur, Ahmednagar - MPCB",19-01-2026 08:00:00,19.10122,74.73339,OZONE,4,86,59
India,Maharashtra,Akola,"Ramdaspeth, Akola - MPCB",19-01-2026 08:00:00,20.719516,77.000253,PM2.5,40,168,75
India,Maharashtra,Akola,"Ramdaspeth, Akola - MPCB",19-01-2026 08:00:00,20.719516,77.000253,PM10,51,148,91
India,Maharashtra,Akola,"Ramdaspeth, Akola - MPCB",19-01-2026 08:00:00,20.719516,77.000253,NO2,12,110,38
India,Maharashtra,Amravati,"Shivneri Colony, Amravati - MPCB",19-01-2026 08:00:00,20.9402359,77.7895248,PM2.5,57,90,69
India,Maharashtra,Amravati,"Shri Shivaji Science College, Amravati - MPCB",19-01-2026 08:00:00,20.939198,77.765701,PM2.5,57,96,78
India,Maharashtra,Amravati,"Shri Shivaji Science College, Amravati - MPCB",19-01-2026 08:00:00,20.939198,77.765701,PM10,61,102,83
India,Maharashtra,Amravati,"Shri Shivaji Science College, Amravati - MPCB",19-01-2026 08:00:00,20.939198,77.765701,OZONE,3,86,39
India,Maharashtra,Aurangabad,"MIDC Chilkalthana, Aurangabad - MPCB",19-01-2026 08:00:00,19.875620,75.387310,SO2,1,2,1
India,Maharashtra,Aurangabad,"MIDC Chilkalthana, Aurangabad - MPCB",19-01-2026 08:00:00,19.875620,75.387310,OZONE,13,74,40
India,Madhya Pradesh,Sagar,"Civil Lines, Sagar - MPPCB",19-01-2026 08:00:00,23.838586,78.759431,CO,31,88,48
India,Madhya Pradesh,Sagar,"Deen Dayal Nagar, Sagar - MPPCB",19-01-2026 08:00:00,23.8640158,78.80289321,SO2,NA,NA,NA
India,Madhya Pradesh,Satna,"Bandhavgar Colony, Satna - Birla Cement",19-01-2026 08:00:00,24.58434363,80.8549414,PM2.5,49,51,50
India,Madhya Pradesh,Satna,"Bandhavgar Colony, Satna - Birla Cement",19-01-2026 08:00:00,24.58434363,80.8549414,CO,18,38,28
India,Madhya Pradesh,Singrauli,"Suryakiran Bhawan NCL, Singrauli - MPPCB",19-01-2026 08:00:00,24.108970,82.645580,PM2.5,91,500,290
India,Madhya Pradesh,Singrauli,"Suryakiran Bhawan NCL, Singrauli - MPPCB",19-01-2026 08:00:00,24.108970,82.645580,PM10,103,473,254
India,Madhya Pradesh,Singrauli,"Suryakiran Bhawan NCL, Singrauli - MPPCB",19-01-2026 08:00:00,24.108970,82.645580,OZONE,8,40,8
India,Madhya Pradesh,Ujjain,"Mahashweta Nagar, Ujjain - MPPCB",19-01-2026 08:00:00,23.1633321,75.800225,CO,28,78,51
India,Madhya Pradesh,Jabalpur,"Marhatal, Jabalpur - MPPCB",19-01-2026 08:00:00,23.168606,79.932247,SO2,4,17,7
India,Madhya Pradesh,Jabalpur,"Marhatal, Jabalpur - MPPCB",19-01-2026 08:00:00,23.168606,79.932247,CO,3,127,42
India,Madhya Pradesh,Jabalpur,"Suhagi, Jabalpur - JMC",19-01-2026 08:00:00,23.218135,79.957770,NH3,4,6,5
India,Madhya Pradesh,Katni,"Gole Bazar, Katni - MPPCB",19-01-2026 08:00:00,23.50016,80.23284,SO2,10,58,34
India,Madhya Pradesh,Mandideep,"Sector-D Industrial Area, Mandideep - MPPCB",19-01-2026 08:00:00,23.108440,77.511428,SO2,14,68,29
India,Madhya Pradesh,Pithampur,"Sector-2 Industrial Area, Pithampur - MPPCB",19-01-2026 08:00:00,22.624758,75.675238,NO2,14,32,16
India,Karnataka,Ramanagara,"Vijay Nagar, Ramanagara - KSPCB",19-01-2026 08:00:00,12.733409,77.298051,OZONE,19,75,28
India,Karnataka,Shivamogga,"Vinoba Nagara, Shivamogga - KSPCB",19-01-2026 08:00:00,13.940000,75.555917,PM2.5,29,43,33
India,Karnataka,Shivamogga,"Vinoba Nagara, Shivamogga - KSPCB",19-01-2026 08:00:00,13.940000,75.555917,CO,7,38,8
India,Karnataka,Tumakuru,"Thimmalapura, Tumakuru - KSPCB",19-01-2026 08:00:00,13.377516,77.099072,PM10,88,169,122
India,Karnataka,Tumakuru,"Thimmalapura, Tumakuru - KSPCB",19-01-2026 08:00:00,13.377516,77.099072,NH3,6,6,6
India,Karnataka,Vijayapura,"Ibrahimpur, Vijayapura - KSPCB",19-01-2026 08:00:00,16.802639,75.722694,NO2,11,12,11
India,Karnataka,Vijayapura,"Ibrahimpur, Vijayapura - KSPCB",19-01-2026 08:00:00,16.802639,75.722694,OZONE,16,17,16
India,Madhya Pradesh,Indore,"Maguda Nagar, Indore - IMC",19-01-2026 08:00:00,22.7524,75.8872,NH3,6,13,9
India,Madhya Pradesh,Indore,"Maguda Nagar, Indore - IMC",19-01-2026 08:00:00,22.7524,75.8872,CO,14,61,33
India,Madhya Pradesh,Indore,"Regional Park, Indore - IMC",19-01-2026 08:00:00,22.6780,75.8559,PM2.5,NA,NA,NA
India,Madhya Pradesh,Indore,"Regional Park, Indore - IMC",19-01-2026 08:00:00,22.6780,75.8559,CO,8,76,48
