country,state,city,station,last_update,latitude,longitude,pollutant_id,min_value,max_value,avg_value
India,Andhra_Pradesh,Vijayawada,"Rajiv Gandhi Park, Vijayawada - APPCB",22-10-2025 07:00:00,16.509717,80.612222,CO,28,39,32
India,Andhra_Pradesh,Vijayawada,"Rajiv Gandhi Park, Vijayawada - APPCB",22-10-2025 07:00:00,16.509717,80.612222,OZONE,24,53,26
India,Andhra_Pradesh,Vijayawada,"Rajiv Nagar, Vijayawada - APPCB",22-10-2025 07:00:00,16.554731,80.649110,SO2,14,48,27
India,Andhra_Pradesh,Visakhapatnam,"GVM Corporation, Visakhapatnam - APPCB",22-10-2025 07:00:00,17.72,83.3,PM2.5,20,82,46
India,Arunachal_Pradesh,Naharlagun,"Naharlagun, Naharlagun - APSPCB",22-10-2025 07:00:00,27.103358,93.679645,PM2.5,14,117,53
India,Arunachal_Pradesh,Naharlagun,"Naharlagun, Naharlagun - APSPCB",22-10-2025 07:00:00,27.103358,93.679645,PM10,15,112,58
India,Arunachal_Pradesh,Naharlagun,"Naharlagun, Naharlagun - APSPCB",22-10-2025 07:00:00,27.103358,93.679645,NO2,6,6,6
India,Arunachal_Pradesh,Naharlagun,"Naharlagun, Naharlagun - APSPCB",22-10-2025 07:00:00,27.103358,93.679645,SO2,8,8,8
India,Assam,Byrnihat,"Central Academy for SFS, Byrnihat - PCBA",22-10-2025 07:00:00,26.071318,91.87488,NO2,NA,NA,NA
India,Assam,Guwahati,"IITG, Guwahati - PCBA",22-10-2025 07:00:00,26.2028636,91.70046436,PM2.5,10,114,53
India,Assam,Nagaon,"Christianpatty, Nagaon - PCBA",22-10-2025 07:00:00,26.349082,92.68449,OZONE,7,9,9
India,Assam,Nalbari,"Bata Chowk, Nalbari - PCBA",22-10-2025 07:00:00,26.446912,91.439057,PM10,NA,NA,NA
India,Assam,Nalbari,"Bata Chowk, Nalbari - PCBA",22-10-2025 07:00:00,26.446912,91.439057,NH3,4,9,6
India,Assam,Silchar,"Tarapur, Silchar - PCBA",22-10-2025 07:00:00,24.82827,92.79525,SO2,3,7,5
India,Assam,Sivasagar,"Girls College, Sivasagar - PCBA",22-10-2025 07:00:00,26.987634,94.636574,NO2,19,30,25
India,Assam,Sivasagar,"Girls College, Sivasagar - PCBA",22-10-2025 07:00:00,26.987634,94.636574,CO,10,31,28
India,Bihar,Araria,"Kharahiya Basti, Araria - BSPCB",22-10-2025 07:00:00,26.146529,87.454184,NO2,1,63,22
India,Bihar,Bettiah,"Kamalnath Nagar, Bettiah - BSPCB",22-10-2025 07:00:00,26.80365,84.51954,CO,48,92,69
India,Bihar,Bhagalpur,"DM Office_Kachari Chowk, Bhagalpur - BSPCB",22-10-2025 07:00:00,25.251013,86.989001,NH3,3,8,5
India,Bihar,Bhagalpur,"DM Office_Kachari Chowk, Bhagalpur - BSPCB",22-10-2025 07:00:00,25.251013,86.989001,CO,14,20,15
India,Bihar,Bihar Sharif,"D M Colony, Bihar Sharif - BSPCB",22-10-2025 07:00:00,25.204762,85.514960,NO2,9,10,9
India,Bihar,Buxar,"Charitra Van, Buxar - BSPCB",22-10-2025 07:00:00,25.567520,83.966379,PM2.5,40,203,73
India,Bihar,Buxar,"Charitra Van, Buxar - BSPCB",22-10-2025 07:00:00,25.567520,83.966379,PM10,32,115,56
India,Bihar,Buxar,"Charitra Van, Buxar - BSPCB",22-10-2025 07:00:00,25.567520,83.966379,NO2,5,10,9
India,Andhra_Pradesh,Amaravati,"Secretariat, Amaravati - APPCB",22-10-2025 07:00:00,16.5150833,80.5181667,CO,16,32,23
India,Andhra_Pradesh,Anantapur,"Gulzarpet, Anantapur - APPCB",22-10-2025 07:00:00,14.675886,77.593027,PM10,42,128,67
India,Andhra_Pradesh,Chittoor,"Gangineni Cheruvu, Chittoor - APPCB",22-10-2025 07:00:00,13.204880,79.097889,PM2.5,5,430,80
India,Andhra_Pradesh,Chittoor,"Gangineni Cheruvu, Chittoor - APPCB",22-10-2025 07:00:00,13.204880,79.097889,SO2,18,102,39
India,Andhra_Pradesh,Chittoor,"Gangineni Cheruvu, Chittoor - APPCB",22-10-2025 07:00:00,13.204880,79.097889,OZONE,43,58,56
India,Andhra_Pradesh,Rajamahendravaram,"Anand Kala Kshetram, Rajamahendravaram - APPCB",22-10-2025 07:00:00,16.9872867,81.7363176,PM2.5,5,43,22
India,Assam,Guwahati,"IITG, Guwahati - PCBA",22-10-2025 07:00:00,26.2028636,91.70046436,NO2,1,6,2
India,Assam,Guwahati,"LGBI Airport, Guwahati - PCBA",22-10-2025 07:00:00,26.10887,91.589544,NO2,NA,NA,NA
India,Assam,Guwahati,"LGBI Airport, Guwahati - PCBA",22-10-2025 07:00:00,26.10887,91.589544,SO2,9,22,14
India,Assam,Guwahati,"Pan Bazaar, Guwahati - PCBA",22-10-2025 07:00:00,26.187500,91.744194,PM2.5,22,353,97
India,Assam,Guwahati,"Pan Bazaar, Guwahati - PCBA",22-10-2025 07:00:00,26.187500,91.744194,PM10,18,267,68
India,Assam,Nagaon,"Christianpatty, Nagaon - PCBA",22-10-2025 07:00:00,26.349082,92.68449,NH3,4,4,4
India,Bihar,Manguraha,"Forest Rest House, Manguraha - BSPCB",22-10-2025 07:00:00,27.308328,84.531742,OZONE,6,18,8
India,Bihar,Motihari,"Gandak Colony, Motihari - BSPCB",22-10-2025 07:00:00,26.63086,84.90051,PM10,62,73,68
India,Bihar,Motihari,"Gandak Colony, Motihari - BSPCB",22-10-2025 07:00:00,26.63086,84.90051,SO2,2,3,2
India,Bihar,Munger,"Town Hall, Munger - BSPCB",22-10-2025 07:00:00,25.376776,86.471523,PM2.5,60,318,124
India,Bihar,Muzaffarpur,"Buddha Colony, Muzaffarpur - BSPCB",22-10-2025 07:00:00,26.11442,85.39813,CO,24,70,40
India,Bihar,Chhapra,"Darshan Nagar, Chhapra - BSPCB",22-10-2025 07:00:00,25.7808257,84.7446768,PM10,59,127,92
India,Bihar,Chhapra,"Darshan Nagar, Chhapra - BSPCB",22-10-2025 07:00:00,25.7808257,84.7446768,OZONE,12,45,20
India,Bihar,Gaya,"Collectorate, Gaya - BSPCB",22-10-2025 07:00:00,24.7955,84.9994,CO,30,76,45
India,Bihar,Gaya,"Kareemganj, Gaya - BSPCB",22-10-2025 07:00:00,24.792403,84.992416,OZONE,11,37,19
India,Bihar,Gaya,"SFTI Kusdihra, Gaya - BSPCB",22-10-2025 07:00:00,24.762518,84.982348,PM10,52,87,69
India,Bihar,Gaya,"SFTI Kusdihra, Gaya - BSPCB",22-10-2025 07:00:00,24.762518,84.982348,CO,23,48,44
India,Bihar,Gaya,"SFTI Kusdihra, Gaya - BSPCB",22-10-2025 07:00:00,24.762518,84.982348,OZONE,12,55,14
India,Bihar,Katihar,"Mirchaibari, Katihar - BSPCB",22-10-2025 07:00:00,25.560083,87.553265,PM2.5,18,220,106
India,Bihar,Katihar,"Mirchaibari, Katihar - BSPCB",22-10-2025 07:00:00,25.560083,87.553265,OZONE,5,17,7
India,Bihar,Kishanganj,"SDM Office_Khagra, Kishanganj - BSPCB",22-10-2025 07:00:00,26.0881305,87.93840336,PM2.5,25,306,102
India,Bihar,Kishanganj,"SDM Office_Khagra, Kishanganj - BSPCB",22-10-2025 07:00:00,26.0881305,87.93840336,SO2,6,8,7
India,Andhra_Pradesh,Tirupati,"Vaikuntapuram, Tirupati - APPCB",22-10-2025 07:00:00,13.615387,79.409230,CO,33,57,35
India,Andhra_Pradesh,Tirupati,"Vaikuntapuram, Tirupati - APPCB",22-10-2025 07:00:00,13.615387,79.409230,OZONE,18,39,29
India,Andhra_Pradesh,Vijayawada,"HB Colony, Vijayawada - APPCB",22-10-2025 07:00:00,16.536107,80.594233,SO2,10,86,30
India,Andhra_Pradesh,Vijayawada,"Rajiv Gandhi Park, Vijayawada - APPCB",22-10-2025 07:00:00,16.509717,80.612222,SO2,12,32,25
India,Bihar,Begusarai,"Lohiyanagar, Begusarai - BSPCB",22-10-2025 07:00:00,25.42742023,86.13886079,PM2.5,166,211,187
India,Bihar,Bettiah,"Kamalnath Nagar, Bettiah - BSPCB",22-10-2025 07:00:00,26.80365,84.51954,NO2,4,11,8
India,Chhattisgarh,Raipur,"Siltara Phase-II, Raipur - CECB",22-10-2025 07:00:00,21.371751,81.664929,PM2.5,32,89,61
India,Chhattisgarh,Raipur,"Siltara Phase-II, Raipur - CECB",22-10-2025 07:00:00,21.371751,81.664929,SO2,2,6,3
India,Chhattisgarh,Raipur,"Siltara Phase-II, Raipur - CECB",22-10-2025 07:00:00,21.371751,81.664929,OZONE,3,76,4
India,Chhattisgarh,Tumidih,"OP Jindal Industrial Park, Tumidih - CECB",22-10-2025 07:00:00,22.06631475,83.33820077,PM10,44,83,61
India,Chhattisgarh,Tumidih,"OP Jindal Industrial Park, Tumidih - CECB",22-10-2025 07:00:00,22.06631475,83.33820077,SO2,5,9,6
India,Delhi,Delhi,"Anand Vihar, Delhi - DPCC",22-10-2025 07:00:00,28.647622,77.3158090,PM2.5,140,500,355
India,Delhi,Delhi,"Anand Vihar, Delhi - DPCC",22-10-2025 07:00:00,28.647622,77.3158090,NO2,39,115,80
India,Delhi,Delhi,"Anand Vihar, Delhi - DPCC",22-10-2025 07:00:00,28.647622,77.3158090,CO,34,107,100
India,Delhi,Delhi,"Ashok Vihar, Delhi - DPCC",22-10-2025 07:00:00,28.695381,77.181665,PM2.5,157,500,377
India,Delhi,Delhi,"Ashok Vihar, Delhi - DPCC",22-10-2025 07:00:00,28.695381,77.181665,OZONE,8,118,10
India,Delhi,Delhi,"Aya Nagar, Delhi - IMD",22-10-2025 07:00:00,28.4706914,77.1099364,NO2,49,102,66
India,Delhi,Delhi,"Aya Nagar, Delhi - IMD",22-10-2025 07:00:00,28.4706914,77.1099364,OZONE,14,137,33
India,Delhi,Delhi,"Bawana, Delhi - DPCC",22-10-2025 07:00:00,28.776200,77.051074,NO2,9,50,24
India,Delhi,Delhi,"Burari Crossing, Delhi - IMD",22-10-2025 07:00:00,28.7256504,77.2011573,CO,35,105,77
India,Bihar,Sasaram,"Dada Peer, Sasaram - BSPCB",22-10-2025 07:00:00,24.952822,84.002396,OZONE,16,17,17
India,Bihar,Siwan,"Chitragupta Nagar, Siwan - BSPCB",22-10-2025 07:00:00,26.2271665,84.3570427,PM10,40,104,67
India,Chandigarh,Chandigarh,"Sector 22, Chandigarh - CPCC",22-10-2025 07:00:00,30.735567,76.775714,NO2,16,117,51
India,Chandigarh,Chandigarh,"Sector-25, Chandigarh - CPCC",22-10-2025 07:00:00,30.751462,76.762879,NO2,9,36,20
India,Chandigarh,Chandigarh,"Sector-25, Chandigarh - CPCC",22-10-2025 07:00:00,30.751462,76.762879,CO,12,34,26
India,Chandigarh,Chandigarh,"Sector-53, Chandigarh - CPCC",22-10-2025 07:00:00,30.719859,76.738637,CO,38,107,63
India,Chhattisgarh,Raipur,"AIIMS, Raipur - CECB",22-10-2025 07:00:00,21.258815,81.578979,PM10,23,152,66
India,Chhattisgarh,Raipur,"AIIMS, Raipur - CECB",22-10-2025 07:00:00,21.258815,81.578979,OZONE,5,18,6
India,Chhattisgarh,Raipur,"Bhatagaon New ISBT, Raipur - CECB",22-10-2025 07:00:00,21.219665,81.630094,PM2.5,NA,NA,NA
India,Chhattisgarh,Raipur,"Bhatagaon New ISBT, Raipur - CECB",22-10-2025 07:00:00,21.219665,81.630094,PM10,NA,NA,NA
India,Chhattisgarh,Raipur,"Bhatagaon New ISBT, Raipur - CECB",22-10-2025 07:00:00,21.219665,81.630094,NO2,NA,NA,NA
India,Chhattisgarh,Raipur,"Krishak Nagar, Raipur - CECB",22-10-2025 07:00:00,21.237755,81.705301,PM2.5,11,73,38
India,Chhattisgarh,Raipur,"Krishak Nagar, Raipur - CECB",22-10-2025 07:00:00,21.237755,81.705301,PM10,15,72,38
India,Chhattisgarh,Raipur,"Krishak Nagar, Raipur - CECB",22-10-2025 07:00:00,21.237755,81.705301,NO2,8,10,9
India,Chhattisgarh,Raipur,"Krishak Nagar, Raipur - CECB",22-10-2025 07:00:00,21.237755,81.705301,SO2,8,10,9
India,Bihar,Muzaffarpur,"MIT-Daudpur Kothi, Muzaffarpur - BSPCB",22-10-2025 07:00:00,26.1403345,85.3650192,OZONE,23,80,55
India,Bihar,Patna,"DRM Office Danapur, Patna - BSPCB",22-10-2025 07:00:00,25.586562,85.043586,SO2,7,11,9
India,Bihar,Patna,"Govt. High School Shikarpur, Patna - BSPCB",22-10-2025 07:00:00,25.592539,85.227158,PM10,47,219,112
India,Bihar,Patna,"Govt. High School Shikarpur, Patna - BSPCB",22-10-2025 07:00:00,25.592539,85.227158,NO2,10,62,21
India,Bihar,Patna,"Govt. High School Shikarpur, Patna - BSPCB",22-10-2025 07:00:00,25.592539,85.227158,CO,28,84,67
India,Bihar,Patna,"Muradpur, Patna - BSPCB",22-10-2025 07:00:00,25.619651,85.147382,NH3,4,5,5
India,Bihar,Patna,"Muradpur, Patna - BSPCB",22-10-2025 07:00:00,25.619651,85.147382,SO2,7,10,9
India,Bihar,Patna,"Rajbansi Nagar, Patna - BSPCB",22-10-2025 07:00:00,25.599486,85.113666,NH3,1,10,7
India,Bihar,Patna,"Rajbansi Nagar, Patna - BSPCB",22-10-2025 07:00:00,25.599486,85.113666,CO,19,108,32
India,Bihar,Patna,"Samanpura, Patna - BSPCB",22-10-2025 07:00:00,25.596727,85.085624,NH3,6,7,6
India,Bihar,Purnia,"Mariam Nagar, Purnia - BSPCB",22-10-2025 07:00:00,25.366336,87.117468,SO2,NA,NA,NA
India,Bihar,Rajgir,"Dangi Tola, Rajgir - BSPCB",22-10-2025 07:00:00,25.03280,85.41948,NH3,6,7,7
India,Bihar,Rajgir,"Dangi Tola, Rajgir - BSPCB",22-10-2025 07:00:00,25.03280,85.41948,OZONE,30,33,32
India,Bihar,Samastipur,"DM Office_Kasipur, Samastipur - BSPCB",22-10-2025 07:00:00,25.859655,85.77944,PM10,44,147,89
India,Bihar,Samastipur,"DM Office_Kasipur, Samastipur - BSPCB",22-10-2025 07:00:00,25.859655,85.77944,NO2,8,9,8
India,Bihar,Sasaram,"Dada Peer, Sasaram - BSPCB",22-10-2025 07:00:00,24.952822,84.002396,PM10,80,261,137
India,Chhattisgarh,Bhilai,"32Bungalows, Bhilai - CECB",22-10-2025 07:00:00,21.194815,81.314770,NO2,5,29,12
India,Chhattisgarh,Bhilai,"Civic Center, Bhilai - Bhilai Steel Plant",22-10-2025 07:00:00,21.185571,81.343175,NH3,3,3,3
India,Chhattisgarh,Bhilai,"Hathkhoj, Bhilai - CECB",22-10-2025 07:00:00,21.224231,81.408350,PM2.5,25,94,56
India,Chhattisgarh,Bilaspur,"Mangala, Bilaspur - NTPC",22-10-2025 07:00:00,22.08815,82.13737,NO2,NA,NA,NA
India,Chhattisgarh,Chhal,"Nawapara SECL Colony, Chhal - CECB",22-10-2025 07:00:00,22.118125,83.140608,PM2.5,13,191,86
India,Chhattisgarh,Korba,"Rampur, Korba - CECB",22-10-2025 07:00:00,22.368195,82.746431,CO,12,18,18
India,Chhattisgarh,Korba,"Urja Nagar, Korba - CECB",22-10-2025 07:00:00,22.348441,82.549611,PM2.5,64,69,64
India,Chhattisgarh,Korba,"Urja Nagar, Korba - CECB",22-10-2025 07:00:00,22.348441,82.549611,PM10,68,73,68
India,Delhi,Delhi,"CRRI Mathura Road, Delhi - IMD",22-10-2025 07:00:00,28.5512005,77.2735737,PM2.5,110,480,349
India,Delhi,Delhi,"CRRI Mathura Road, Delhi - IMD",22-10-2025 07:00:00,28.5512005,77.2735737,PM10,110,442,305
India,Delhi,Delhi,"Chandni Chowk, Delhi - IITM",22-10-2025 07:00:00,28.656756,77.227234,PM10,165,500,304
India,Delhi,Delhi,"Chandni Chowk, Delhi - IITM",22-10-2025 07:00:00,28.656756,77.227234,NO2,24,129,60
India,Delhi,Delhi,"DTU, Delhi - CPCB",22-10-2025 07:00:00,28.7500499,77.1112615,NO2,47,111,75
India,Delhi,Delhi,"DTU, Delhi - CPCB",22-10-2025 07:00:00,28.7500499,77.1112615,OZONE,15,47,26
India,Delhi,Delhi,"Dr. Karni Singh Shooting Range, Delhi - DPCC",22-10-2025 07:00:00,28.498571,77.264840,PM10,117,354,225
India,Delhi,Delhi,"Dr. Karni Singh Shooting Range, Delhi - DPCC",22-10-2025 07:00:00,28.498571,77.264840,NH3,9,13,11
India,Delhi,Delhi,"Najafgarh, Delhi - DPCC",22-10-2025 07:00:00,28.570173,76.933762,NH3,NA,NA,NA
India,Delhi,Delhi,"Najafgarh, Delhi - DPCC",22-10-2025 07:00:00,28.570173,76.933762,SO2,7,115,32
India,Delhi,Delhi,"Najafgarh, Delhi - DPCC",22-10-2025 07:00:00,28.570173,76.933762,OZONE,6,38,8
India,Delhi,Delhi,"Narela, Delhi - DPCC",22-10-2025 07:00:00,28.822836,77.101981,NO2,9,60,28
India,Delhi,Delhi,"Narela, Delhi - DPCC",22-10-2025 07:00:00,28.822836,77.101981,CO,28,83,43
India,Delhi,Delhi,"Nehru Nagar, Delhi - DPCC",22-10-2025 07:00:00,28.567890,77.250515,NH3,8,12,10
India,Delhi,Delhi,"Okhla Phase-2, Delhi - DPCC",22-10-2025 07:00:00,28.530785,77.271255,PM2.5,183,449,346
India,Delhi,Delhi,"Sirifort, Delhi - CPCB",22-10-2025 07:00:00,28.5504249,77.2159377,OZONE,6,30,11
India,Delhi,Delhi,"Sonia Vihar, Delhi - DPCC",22-10-2025 07:00:00,28.710508,77.249485,PM2.5,140,500,343
India,Delhi,Delhi,"Sri Aurobindo Marg, Delhi - DPCC",22-10-2025 07:00:00,28.531346,77.190156,PM2.5,160,500,325
India,Delhi,Delhi,"Sri Aurobindo Marg, Delhi - DPCC",22-10-2025 07:00:00,28.531346,77.190156,NH3,4,7,5
India,Delhi,Delhi,"Vivek Vihar, Delhi - DPCC",22-10-2025 07:00:00,28.672342,77.315260,NO2,16,103,55
India,Delhi,Delhi,"Vivek Vihar, Delhi - DPCC",22-10-2025 07:00:00,28.672342,77.315260,NH3,11,12,12
India,Delhi,Delhi,"Wazirpur, Delhi - DPCC",22-10-2025 07:00:00,28.699793,77.165453,PM10,156,500,349
India,Delhi,Delhi,"Wazirpur, Delhi - DPCC",22-10-2025 07:00:00,28.699793,77.165453,NO2,20,84,52
India,Delhi,Delhi,"Wazirpur, Delhi - DPCC",22-10-2025 07:00:00,28.699793,77.165453,NH3,10,13,12
India,Gujarat,Ahmedabad,"Gyaspur, Ahmedabad - IITM",22-10-2025 07:00:00,22.977134,72.553024,NO2,14,75,38
India,Gujarat,Ahmedabad,"Gyaspur, Ahmedabad - IITM",22-10-2025 07:00:00,22.977134,72.553024,SO2,15,49,39
India,Gujarat,Ahmedabad,"Maninagar, Ahmedabad - GPCB",22-10-2025 07:00:00,23.002657,72.591912,CO,31,64,50
India,Delhi,Delhi,"Patparganj, Delhi - DPCC",22-10-2025 07:00:00,28.623763,77.287209,NO2,11,130,72
India,Delhi,Delhi,"Patparganj, Delhi - DPCC",22-10-2025 07:00:00,28.623763,77.287209,SO2,7,13,10
India,Delhi,Delhi,"Punjabi Bagh, Delhi - DPCC",22-10-2025 07:00:00,28.674045,77.131023,NH3,4,7,5
India,Delhi,Delhi,"Punjabi Bagh, Delhi - DPCC",22-10-2025 07:00:00,28.674045,77.131023,SO2,10,23,19
India,Delhi,Delhi,"Pusa, Delhi - DPCC",22-10-2025 07:00:00,28.639652,77.146275,NO2,22,57,35
India,Delhi,Delhi,"Pusa, Delhi - DPCC",22-10-2025 07:00:00,28.639652,77.146275,CO,60,101,91
India,Delhi,Delhi,"Pusa, Delhi - IMD",22-10-2025 07:00:00,28.636110,77.173332,NO2,8,115,53
India,Delhi,Delhi,"R K Puram, Delhi - DPCC",22-10-2025 07:00:00,28.563262,77.186937,CO,80,142,119
India,Delhi,Delhi,"Rohini, Delhi - DPCC",22-10-2025 07:00:00,28.732528,77.119920,PM2.5,140,498,374
India,Delhi,Delhi,"Shadipur, Delhi - CPCB",22-10-2025 07:00:00,28.6514781,77.1473105,NH3,12,18,15
India,Delhi,Delhi,"Mandir Marg, Delhi - DPCC",22-10-2025 07:00:00,28.636429,77.201067,PM10,115,500,242
India,Delhi,Delhi,"Mundka, Delhi - DPCC",22-10-2025 07:00:00,28.684678,77.076574,CO,36,82,51
India,Delhi,Delhi,"NSIT Dwarka, Delhi - CPCB",22-10-2025 07:00:00,28.60909,77.0325413,NH3,11,26,20
India,Delhi,Delhi,"Jawaharlal Nehru Stadium, Delhi - DPCC",22-10-2025 07:00:00,28.580280,77.233829,NO2,41,139,83
India,Delhi,Delhi,"Jawaharlal Nehru Stadium, Delhi - DPCC",22-10-2025 07:00:00,28.580280,77.233829,OZONE,4,124,6
India,Delhi,Delhi,"Lodhi Road, Delhi - IITM",22-10-2025 07:00:00,28.588333,77.221667,PM2.5,81,500,236
India,Delhi,Delhi,"Dwarka-Sector 8, Delhi - DPCC ",22-10-2025 07:00:00,28.5710274,77.0719006,NO2,29,156,85
India,Delhi,Delhi,"Dwarka-Sector 8, Delhi - DPCC ",22-10-2025 07:00:00,28.5710274,77.0719006,SO2,1,58,19
India,Delhi,Delhi,"ITO, Delhi - CPCB",22-10-2025 07:00:00,28.628624,77.241060,NH3,5,8,7
India,Haryana,Faridabad,"Sector 30, Faridabad - HSPCB",22-10-2025 07:00:00,28.4417,77.3217,OZONE,18,19,18
India,Haryana,Fatehabad,"Huda Sector, Fatehabad - HSPCB",22-10-2025 07:00:00,29.503664,75.467934,PM2.5,221,347,310
India,Haryana,Fatehabad,"Huda Sector, Fatehabad - HSPCB",22-10-2025 07:00:00,29.503664,75.467934,SO2,2,23,13
India,Haryana,Gurugram,"Sector-51, Gurugram - HSPCB",22-10-2025 07:00:00,28.4227,77.0667,OZONE,6,74,12
India,Haryana,Gurugram,"Vikas Sadan, Gurugram - HSPCB",22-10-2025 07:00:00,28.4501238,77.0263051,PM2.5,95,355,246
India,Haryana,Gurugram,"Vikas Sadan, Gurugram - HSPCB",22-10-2025 07:00:00,28.4501238,77.0263051,NO2,9,45,26
India,Haryana,Mandikhera,"General Hospital, Mandikhera - HSPCB",22-10-2025 07:00:00,27.9002,76.9938,SO2,31,38,34
India,Haryana,Manesar,"Sector-2 IMT, Manesar - HSPCB",22-10-2025 07:00:00,28.360699,76.936090,PM2.5,81,365,271
India,Haryana,Manesar,"Sector-2 IMT, Manesar - HSPCB",22-10-2025 07:00:00,28.360699,76.936090,NH3,7,17,13
India,Haryana,Manesar,"Sector-2 IMT, Manesar - HSPCB",22-10-2025 07:00:00,28.360699,76.936090,SO2,9,16,12
India,Haryana,Narnaul,"Shastri Nagar, Narnaul - HSPCB",22-10-2025 07:00:00,28.060249,76.113115,PM10,185,351,268
India,Haryana,Narnaul,"Shastri Nagar, Narnaul - HSPCB",22-10-2025 07:00:00,28.060249,76.113115,OZONE,32,50,43
India,Haryana,Charkhi Dadri,"Mini Secretariat, Charkhi Dadri - HSPCB",22-10-2025 07:00:00,28.593883,76.270653,NO2,9,23,15
India,Haryana,Dharuhera,"Municipal Corporation Office, Dharuhera -  HSPCB",22-10-2025 07:00:00,28.206800,76.799700,NO2,14,51,38
India,Haryana,Dharuhera,"Municipal Corporation Office, Dharuhera -  HSPCB",22-10-2025 07:00:00,28.206800,76.799700,CO,59,98,81
India,Haryana,Faridabad,"New Industrial Town, Faridabad - HSPCB",22-10-2025 07:00:00,28.39072,77.30059,PM2.5,222,354,252
India,Haryana,Faridabad,"New Industrial Town, Faridabad - HSPCB",22-10-2025 07:00:00,28.39072,77.30059,NH3,11,12,11
India,Haryana,Palwal,"Shyam Nagar, Palwal - HSPCB",22-10-2025 07:00:00,28.1485564,77.3320667,CO,27,28,28
India,Haryana,Panchgaon,"Amity University, Panchgaon - IITM",22-10-2025 07:00:00,28.3153,76.9143,PM2.5,16,41,23
India,Haryana,Panchgaon,"Amity University, Panchgaon - IITM",22-10-2025 07:00:00,28.3153,76.9143,PM10,35,155,73
India,Haryana,Panchgaon,"Amity University, Panchgaon - IITM",22-10-2025 07:00:00,28.3153,76.9143,CO,35,87,70
India,Haryana,Rohtak,"MD University, Rohtak - HSPCB",22-10-2025 07:00:00,28.52123,76.37138,NO2,5,5,5
India,Haryana,Rohtak,"MD University, Rohtak - HSPCB",22-10-2025 07:00:00,28.52123,76.37138,SO2,6,7,6
India,Haryana,Jind,"Police Lines, Jind - HSPCB",22-10-2025 07:00:00,29.307814,76.337619,PM2.5,163,500,380
India,Haryana,Jind,"Police Lines, Jind - HSPCB",22-10-2025 07:00:00,29.307814,76.337619,CO,3,120,29
India,Haryana,Kaithal,"Rishi Nagar, Kaithal - HSPCB",22-10-2025 07:00:00,29.8006,76.4155,CO,42,110,67
India,Haryana,Kaithal,"Rishi Nagar, Kaithal - HSPCB",22-10-2025 07:00:00,29.8006,76.4155,OZONE,2,36,11
India,Haryana,Karnal,"Sector-12, Karnal - HSPCB",22-10-2025 07:00:00,29.695300,77.002700,SO2,14,16,15
India,Gujarat,Ahmedabad,"Raikhad, Ahmedabad - IITM",22-10-2025 07:00:00,23.020509,72.579261,PM2.5,78,324,186
India,Gujarat,Ahmedabad,"Raikhad, Ahmedabad - IITM",22-10-2025 07:00:00,23.020509,72.579261,CO,2,112,25
India,Gujarat,Ahmedabad,"Rakhial, Ahmedabad - IITM",22-10-2025 07:00:00,23.016834,72.625775,NO2,8,104,30
India,Gujarat,Ahmedabad,"Rakhial, Ahmedabad - IITM",22-10-2025 07:00:00,23.016834,72.625775,SO2,7,29,16
India,Gujarat,Ahmedabad,"SAC ISRO Satellite, Ahmedabad - IITM",22-10-2025 07:00:00,23.023389,72.515201,NH3,4,8,6
India,Gujarat,Ahmedabad,"SAC ISRO Satellite, Ahmedabad - IITM",22-10-2025 07:00:00,23.023389,72.515201,OZONE,7,62,21
India,Gujarat,Ahmedabad,"SVPI Airport Hansol, Ahmedabad - IITM",22-10-2025 07:00:00,23.076793,72.627874,OZONE,22,51,30
India,Gujarat,Gandhinagar,"IIPHG Lekawada, Gandhinagar - IITM",22-10-2025 07:00:00,23.243639,72.68994,PM2.5,84,304,133
India,Gujarat,Gandhinagar,"IIPHG Lekawada, Gandhinagar - IITM",22-10-2025 07:00:00,23.243639,72.68994,NH3,2,3,2
India,Haryana,Ambala,"Patti Mehar, Ambala - HSPCB",22-10-2025 07:00:00,30.379589,76.778328,PM10,96,468,208
India,Haryana,Bahadurgarh,"Arya Nagar, Bahadurgarh - HSPCB",22-10-2025 07:00:00,28.6701,76.9254,PM10,73,483,263
India,Haryana,Bahadurgarh,"Arya Nagar, Bahadurgarh - HSPCB",22-10-2025 07:00:00,28.6701,76.9254,NH3,12,14,13
India,Haryana,Ballabgarh,"Nathu Colony, Ballabgarh - HSPCB",22-10-2025 07:00:00,28.3419248,77.319699,SO2,6,11,8
India,Gujarat,Surat,"Science Center, Surat - SMC",22-10-2025 07:00:00,21.170046,72.795405,NO2,11,20,15
India,Gujarat,Vapi,"Phase-1 GIDC, Vapi - GPCB",22-10-2025 07:00:00,20.362421,72.918013,NH3,10,10,10
India,Gujarat,Vatva,"Phase-4 GIDC, Vatva - GPCB",22-10-2025 07:00:00,22.969611,72.643500,NO2,24,31,26
India,Jammu_and_Kashmir,Srinagar,"Rajbagh, Srinagar - JKSPCB",22-10-2025 07:00:00,34.066206,74.819820,PM10,57,91,74
India,Jharkhand,Jorapokhar,"Tata Stadium, Jorapokhar - JSPCB",22-10-2025 07:00:00,23.707909,86.414670,SO2,NA,NA,NA
India,Karnataka,Bagalkot,"Vidayagiri, Bagalkot - KSPCB",22-10-2025 07:00:00,16.172806,75.659694,PM2.5,33,59,50
India,Karnataka,Bagalkot,"Vidayagiri, Bagalkot - KSPCB",22-10-2025 07:00:00,16.172806,75.659694,OZONE,10,16,15
India,Karnataka,Belgaum,"Ramteerth Nagar, Belgaum - KSPCB",22-10-2025 07:00:00,15.888653,74.541751,NH3,NA,NA,NA
India,Karnataka,Bengaluru,"BTM Layout, Bengaluru - CPCB",22-10-2025 07:00:00,12.9135218,77.5950804,NO2,35,48,38
India,Karnataka,Bengaluru,"Hombegowda Nagar, Bengaluru - KSPCB",22-10-2025 07:00:00,12.938539,77.590100,OZONE,3,14,7
India,Karnataka,Bengaluru,"Jayanagar 5th Block, Bengaluru - KSPCB",22-10-2025 07:00:00,12.920984,77.584908,PM10,9,246,71
India,Karnataka,Bengaluru,"Jayanagar 5th Block, Bengaluru - KSPCB",22-10-2025 07:00:00,12.920984,77.584908,OZONE,23,62,40
India,Karnataka,Bengaluru,"Jigani, Bengaluru - KSPCB",22-10-2025 07:00:00,12.7816279,77.6299145,NH3,7,11,9
India,Karnataka,Bengaluru,"Kasturi Nagar, Bengaluru - KSPCB",22-10-2025 07:00:00,13.003872,77.664217,CO,76,92,82
India,Karnataka,Bengaluru,"Peenya, Bengaluru - CPCB",22-10-2025 07:00:00,13.0270199,77.494094,PM2.5,28,132,56
India,Karnataka,Bengaluru,"Peenya, Bengaluru - CPCB",22-10-2025 07:00:00,13.0270199,77.494094,NO2,25,31,28
India,Karnataka,Dharwad,"Kalabhavan, Dharwad - KSPCB",22-10-2025 07:00:00,15.459706,75.008381,PM10,51,116,78
India,Karnataka,Gadag,"Panchal Nagar, Gadag - KSPCB",22-10-2025 07:00:00,15.411456,75.638133,PM2.5,11,24,17
India,Karnataka,Gadag,"Panchal Nagar, Gadag - KSPCB",22-10-2025 07:00:00,15.411456,75.638133,PM10,39,72,56
India,Karnataka,Gadag,"Panchal Nagar, Gadag - KSPCB",22-10-2025 07:00:00,15.411456,75.638133,OZONE,12,45,24
India,Karnataka,Hassan,"B.Katihalli, Hassan - KSPCB",22-10-2025 07:00:00,13.008556,76.125258,NO2,6,35,16
India,Karnataka,Hassan,"B.Katihalli, Hassan - KSPCB",22-10-2025 07:00:00,13.008556,76.125258,NH3,2,5,3
India,Karnataka,Hassan,"B.Katihalli, Hassan - KSPCB",22-10-2025 07:00:00,13.008556,76.125258,SO2,7,34,18
India,Karnataka,Haveri,"Ashwini Nagar, Haveri - KSPCB",22-10-2025 07:00:00,14.791800,75.389600,SO2,20,24,22
India,Karnataka,Bengaluru,"BTM Layout, Bengaluru - CPCB",22-10-2025 07:00:00,12.9135218,77.5950804,NH3,8,12,9
India,Karnataka,Bengaluru,"BTM Layout, Bengaluru - CPCB",22-10-2025 07:00:00,12.9135218,77.5950804,SO2,24,44,28
India,Karnataka,Bengaluru,"Bapuji Nagar, Bengaluru - KSPCB",22-10-2025 07:00:00,12.951913,77.539784,PM2.5,15,93,51
India,Karnataka,Bengaluru,"Bapuji Nagar, Bengaluru - KSPCB",22-10-2025 07:00:00,12.951913,77.539784,PM10,22,126,74
India,Karnataka,Bengaluru,"Bapuji Nagar, Bengaluru - KSPCB",22-10-2025 07:00:00,12.951913,77.539784,CO,16,85,25
India,Karnataka,Bengaluru,"City Railway Station, Bengaluru - KSPCB",22-10-2025 07:00:00,12.9756843,77.5660749,SO2,11,17,13
India,Karnataka,Bengaluru,"Hebbal, Bengaluru - KSPCB",22-10-2025 07:00:00,13.029152,77.585901,PM10,4,106,32
India,Haryana,Sirsa,"F-Block, Sirsa - HSPCB",22-10-2025 07:00:00,29.536400,75.015800,OZONE,69,86,75
India,Haryana,Yamuna Nagar,"Gobind Pura, Yamuna Nagar - HSPCB",22-10-2025 07:00:00,30.1480566,77.2893471,PM10,142,500,220
India,Haryana,Yamuna Nagar,"Gobind Pura, Yamuna Nagar - HSPCB",22-10-2025 07:00:00,30.1480566,77.2893471,OZONE,38,40,40
India,Himachal Pradesh,Baddi,"HIMUDA Complex Phase-1, Baddi - HPPCB",22-10-2025 07:00:00,30.943887,76.801991,SO2,19,58,32
India,Himachal Pradesh,Baddi,"HIMUDA Complex Phase-1, Baddi - HPPCB",22-10-2025 07:00:00,30.943887,76.801991,OZONE,69,194,77
India,Karnataka,Hubballi,"Deshpande Nagar, Hubballi - KSPCB",22-10-2025 07:00:00,15.351773,75.140726,NO2,NA,NA,NA
India,Karnataka,Hubballi,"Deshpande Nagar, Hubballi - KSPCB",22-10-2025 07:00:00,15.351773,75.140726,NH3,NA,NA,NA
India,Karnataka,Hubballi,"Deshpande Nagar, Hubballi - KSPCB",22-10-2025 07:00:00,15.351773,75.140726,SO2,NA,NA,NA
India,Karnataka,Hubballi,"Lingaraj Nagar, Hubballi - KSPCB",22-10-2025 07:00:00,15.3714823,75.1160168,NO2,8,18,13
India,Karnataka,Hubballi,"Lingaraj Nagar, Hubballi - KSPCB",22-10-2025 07:00:00,15.3714823,75.1160168,OZONE,16,24,17
India,Karnataka,Kalaburagi,"Mahatma Basaveswar Colony, Kalaburgi - KSPCB",22-10-2025 07:00:00,17.336318,76.847397,PM2.5,12,117,48
India,Karnataka,Bengaluru,"Peenya, Bengaluru - CPCB",22-10-2025 07:00:00,13.0270199,77.494094,CO,26,41,31
India,Karnataka,Bengaluru,"Peenya, Bengaluru - CPCB",22-10-2025 07:00:00,13.0270199,77.494094,OZONE,18,24,18
India,Karnataka,Bengaluru,"Shivapura_Peenya, Bengaluru - KSPCB",22-10-2025 07:00:00,13.0246342,77.5080115,PM2.5,29,201,65
India,Karnataka,Bengaluru,"Shivapura_Peenya, Bengaluru - KSPCB",22-10-2025 07:00:00,13.0246342,77.5080115,NH3,5,6,6
India,Karnataka,Bengaluru,"Shivapura_Peenya, Bengaluru - KSPCB",22-10-2025 07:00:00,13.0246342,77.5080115,SO2,9,12,10
India,Karnataka,Bengaluru,"Shivapura_Peenya, Bengaluru - KSPCB",22-10-2025 07:00:00,13.0246342,77.5080115,CO,64,73,68
India,Karnataka,Bengaluru,"Shivapura_Peenya, Bengaluru - KSPCB",22-10-2025 07:00:00,13.0246342,77.5080115,OZONE,16,16,16
India,Karnataka,Karwar,"KHB Colony, Karwar - KSPCB",22-10-2025 07:00:00,14.816666,74.141003,NH3,NA,NA,NA
India,Karnataka,Madikeri,"Stuart Hill, Madikeri - KSPCB",22-10-2025 07:00:00,12.415911,75.735050,PM10,7,30,18
India,Karnataka,Mangalore,"Kadri, Mangalore - KSPCB",22-10-2025 07:00:00,12.889250,74.853000,PM2.5,30,90,50
India,Karnataka,Mangalore,"Kadri, Mangalore - KSPCB",22-10-2025 07:00:00,12.889250,74.853000,NH3,1,2,2
India,Karnataka,Mangalore,"Kadri, Mangalore - KSPCB",22-10-2025 07:00:00,12.889250,74.853000,OZONE,6,43,28
India,Karnataka,Bidar,"Naubad, Bidar - KSPCB",22-10-2025 07:00:00,17.930306,77.482194,PM10,9,41,23
India,Karnataka,Chikkamagaluru,"Kalyana Nagara, Chikkamagaluru - KSPCB",22-10-2025 07:00:00,13.328028,75.797056,CO,11,64,36
India,Maharashtra,Amravati,"Shri Shivaji Science College, Amravati - MPCB",22-10-2025 07:00:00,20.939198,77.765701,PM10,39,364,93
India,Maharashtra,Amravati,"Shri Shivaji Science College, Amravati - MPCB",22-10-2025 07:00:00,20.939198,77.765701,NH3,2,5,3
India,Maharashtra,Aurangabad,"More Chowk Waluj, Aurangabad - MPCB",22-10-2025 07:00:00,19.8389439,75.244448,SO2,15,52,22
India,Maharashtra,Aurangabad,"More Chowk Waluj, Aurangabad - MPCB",22-10-2025 07:00:00,19.8389439,75.244448,CO,4,109,53
India,Maharashtra,Aurangabad,"Rachnakar Colony, Aurangabad - MPCB",22-10-2025 07:00:00,19.863756,75.321188,NO2,23,47,29
India,Maharashtra,Aurangabad,"Rachnakar Colony, Aurangabad - MPCB",22-10-2025 07:00:00,19.863756,75.321188,SO2,9,90,30
India,Maharashtra,Badlapur,"Katrap, Badlapur - MPCB",22-10-2025 07:00:00,19.16485,73.23409,PM2.5,NA,NA,NA
India,Maharashtra,Badlapur,"Katrap, Badlapur - MPCB",22-10-2025 07:00:00,19.16485,73.23409,OZONE,NA,NA,NA
India,Maharashtra,Belapur,"CBD Belapur, Belapur - MPCB",22-10-2025 07:00:00,19.0243902,73.0406721,PM2.5,38,318,150
India,Madhya Pradesh,Satna,"Bandhavgar Colony, Satna - Birla Cement",22-10-2025 07:00:00,24.58434363,80.8549414,NO2,21,31,27
India,Madhya Pradesh,Singrauli,"Suryakiran Bhawan NCL, Singrauli - MPPCB",22-10-2025 07:00:00,24.108970,82.645580,SO2,31,46,36
India,Maharashtra,Ahmednagar,"Tarakpur, Ahmednagar - MPCB",22-10-2025 07:00:00,19.10122,74.73339,NO2,15,26,21
India,Maharashtra,Ahmednagar,"Tarakpur, Ahmednagar - MPCB",22-10-2025 07:00:00,19.10122,74.73339,OZONE,6,42,10
India,Maharashtra,Akola,"Ramdaspeth, Akola - MPCB",22-10-2025 07:00:00,20.719516,77.000253,OZONE,6,39,6
India,Maharashtra,Amravati,"Shivneri Colony, Amravati - MPCB",22-10-2025 07:00:00,20.9402359,77.7895248,NH3,2,3,2
India,Madhya Pradesh,Gwalior,"Maharaj Bada, Gwalior - MPPCB",22-10-2025 07:00:00,26.200388,78.147714,OZONE,19,126,28
India,Madhya Pradesh,Indore,"Airport Area, Indore - IMC",22-10-2025 07:00:00,22.7289,75.8076,CO,4,6,6
India,Madhya Pradesh,Indore,"Regional Park, Indore - IMC",22-10-2025 07:00:00,22.6780,75.8559,PM2.5,38,89,61
India,Madhya Pradesh,Indore,"Regional Park, Indore - IMC",22-10-2025 07:00:00,22.6780,75.8559,PM10,49,114,82
India,Madhya Pradesh,Indore,"Regional Park, Indore - IMC",22-10-2025 07:00:00,22.6780,75.8559,SO2,18,24,22
India,Madhya Pradesh,Indore,"Regional Park, Indore - IMC",22-10-2025 07:00:00,22.6780,75.8559,OZONE,12,20,15
India,Madhya Pradesh,Indore,"Residency Area, Indore - IMC",22-10-2025 07:00:00,22.7084,75.8815,PM2.5,29,148,66
India,Madhya Pradesh,Indore,"Residency Area, Indore - IMC",22-10-2025 07:00:00,22.7084,75.8815,CO,14,16,16
India,Karnataka,Ramanagara,"Vijay Nagar, Ramanagara - KSPCB",22-10-2025 07:00:00,12.733409,77.298051,NO2,7,58,47
India,Karnataka,Ramanagara,"Vijay Nagar, Ramanagara - KSPCB",22-10-2025 07:00:00,12.733409,77.298051,SO2,12,30,18
India,Karnataka,Udupi,"Brahmagiri, Udupi - KSPCB",22-10-2025 07:00:00,13.34194444,74.74694444,SO2,7,7,7
India,Karnataka,Vijayapura,"Ibrahimpur, Vijayapura - KSPCB",22-10-2025 07:00:00,16.802639,75.722694,PM2.5,36,64,56
India,Karnataka,Vijayapura,"Ibrahimpur, Vijayapura - KSPCB",22-10-2025 07:00:00,16.802639,75.722694,NH3,1,2,1
India,Karnataka,Vijayapura,"Ibrahimpur, Vijayapura - KSPCB",22-10-2025 07:00:00,16.802639,75.722694,OZONE,14,17,16
India,Karnataka,Yadgir,"Collector Office, Yadgir - KSPCB",22-10-2025 07:00:00,16.7602,77.1428,NH3,NA,NA,NA
India,Kerala,Thiruvananthapuram,"Plammoodu, Thiruvananthapuram - Kerala PCB",22-10-2025 07:00:00,8.5149093,76.9435879,PM10,10,75,31
India,Kerala,Thrissur,"Corporation Ground, Thrissur - Kerala PCB",22-10-2025 07:00:00,10.532400,76.215900,SO2,1,1,1
India,Madhya Pradesh,Bhopal,"Idgah Hills, Bhopal - MPPCB",22-10-2025 07:00:00,23.264759,77.381568,NH3,5,6,6
India,Madhya Pradesh,Bhopal,"Paryavaran Parisar, Bhopal - MPPCB",22-10-2025 07:00:00,23.210494,77.425409,PM2.5,100,287,165
India,Madhya Pradesh,Bhopal,"T T Nagar, Bhopal - MPPCB",22-10-2025 07:00:00,23.233584,77.400574,PM10,85,159,124
India,Karnataka,Yadgir,"Collector Office, Yadgir - KSPCB",22-10-2025 07:00:00,16.7602,77.1428,CO,4,61,50
India,Kerala,Eloor,"Udyogamandal, Eloor - Kerala PCB",22-10-2025 07:00:00,10.073232,76.302765,SO2,1,1,1
India,Kerala,Kannur,"Thavakkara, Kannur - Kerala PCB",22-10-2025 07:00:00,11.875000,75.373200,NH3,2,2,2
India,Kerala,Thiruvananthapuram,"Kariavattom, Thiruvananthapuram - Kerala PCB",22-10-2025 07:00:00,8.563700,76.886500,PM10,28,32,30
India,Kerala,Thiruvananthapuram,"Plammoodu, Thiruvananthapuram - Kerala PCB",22-10-2025 07:00:00,8.5149093,76.9435879,PM2.5,7,51,21
India,Madhya Pradesh,Maihar,"Sahilara, Maihar - KJS Cements",22-10-2025 07:00:00,24.2613009,80.7231783,SO2,16,17,16
India,Madhya Pradesh,Pithampur,"Sector-2 Industrial Area, Pithampur - MPPCB",22-10-2025 07:00:00,22.624758,75.675238,PM2.5,84,346,197
India,Madhya Pradesh,Pithampur,"Sector-2 Industrial Area, Pithampur - MPPCB",22-10-2025 07:00:00,22.624758,75.675238,OZONE,31,86,36
India,Madhya Pradesh,Ratlam,"Shasthri Nagar, Ratlam - IPCA Lab",22-10-2025 07:00:00,23.331731,75.045981,PM10,73,187,127
India,Madhya Pradesh,Ratlam,"Shasthri Nagar, Ratlam - IPCA Lab",22-10-2025 07:00:00,23.331731,75.045981,NO2,38,43,41
India,Madhya Pradesh,Damoh,"Shrivastav Colony, Damoh - MPPCB",22-10-2025 07:00:00,23.81748678,79.446246,PM2.5,43,144,84
India,Madhya Pradesh,Gwalior,"City Center, Gwalior - MPPCB",22-10-2025 07:00:00,26.203442,78.193251,PM10,100,223,135
India,Madhya Pradesh,Gwalior,"City Center, Gwalior - MPPCB",22-10-2025 07:00:00,26.203442,78.193251,SO2,17,24,21
India,Madhya Pradesh,Gwalior,"Deen Dayal Nagar, Gwalior - MPPCB",22-10-2025 07:00:00,26.259242,78.216432,NH3,7,9,8
India,Madhya Pradesh,Jabalpur,"Govindh Bhavan Colony, Jabalpur - JMC",22-10-2025 07:00:00,23.163174,79.973061,NO2,14,18,16
India,Madhya Pradesh,Jabalpur,"Govindh Bhavan Colony, Jabalpur - JMC",22-10-2025 07:00:00,23.163174,79.973061,CO,32,39,35
India,Madhya Pradesh,Jabalpur,"Govindh Bhavan Colony, Jabalpur - JMC",22-10-2025 07:00:00,23.163174,79.973061,OZONE,4,38,4
India,Madhya Pradesh,Jabalpur,"Suhagi, Jabalpur - JMC",22-10-2025 07:00:00,23.218135,79.957770,OZONE,1,81,8
India,Maharashtra,Dhule,"Deopur, Dhule - MPCB",22-10-2025 07:00:00,20.918946,74.776388,NO2,6,40,12
India,Maharashtra,Dhule,"Deopur, Dhule - MPCB",22-10-2025 07:00:00,20.918946,74.776388,OZONE,15,56,20
India,Maharashtra,Jalgaon,"Prabhat Colony, Jalgaon - MPCB",22-10-2025 07:00:00,21.001264,75.565602,PM2.5,34,500,173
India,Maharashtra,Jalgaon,"Prabhat Colony, Jalgaon - MPCB",22-10-2025 07:00:00,21.001264,75.565602,NH3,2,3,2
India,Maharashtra,Jalgaon,"Prabhat Colony, Jalgaon - MPCB",22-10-2025 07:00:00,21.001264,75.565602,CO,28,101,86
India,Maharashtra,Jalgaon,"Prabhat Colony, Jalgaon - MPCB",22-10-2025 07:00:00,21.001264,75.565602,OZONE,12,69,15
India,Maharashtra,Jalna,"Old MIDC, Jalna - MPCB",22-10-2025 07:00:00,19.854616,75.905894,NH3,2,5,4
India,Maharashtra,Jalna,"Old MIDC, Jalna - MPCB",22-10-2025 07:00:00,19.854616,75.905894,OZONE,3,53,12
India,Maharashtra,Kalyan,"Khadakpada, Kalyan - MPCB",22-10-2025 07:00:00,19.25292,73.142019,NO2,NA,NA,NA
India,Maharashtra,Kalyan,"Khadakpada, Kalyan - MPCB",22-10-2025 07:00:00,19.25292,73.142019,CO,NA,NA,NA
India,Maharashtra,Belapur,"CBD Belapur, Belapur - MPCB",22-10-2025 07:00:00,19.0243902,73.0406721,NH3,1,4,2
India,Maharashtra,Bhiwandi,"Gokul Nagar, Bhiwandi - MPCB",22-10-2025 07:00:00,19.309073,73.057223,SO2,6,19,10
India,Maharashtra,Boisar,"Khaira, Boisar - MPCB",22-10-2025 07:00:00,19.786089,72.757971,NO2,11,15,12
India,Maharashtra,Boisar,"Khaira, Boisar - MPCB",22-10-2025 07:00:00,19.786089,72.757971,SO2,21,28,24
India,Maharashtra,Boisar,"Khaira, Boisar - MPCB",22-10-2025 07:00:00,19.786089,72.757971,CO,13,34,16
India,Maharashtra,Chandrapur,"Chauhan Colony, Chandrapur - MPCB",22-10-2025 07:00:00,19.962900,79.298714,SO2,29,29,29
India,Maharashtra,Mumbai,"Kandivali West, Mumbai - BMC",22-10-2025 07:00:00,19.215859,72.831718,PM2.5,72,254,105
India,Maharashtra,Mumbai,"Khindipada-Bhandup West, Mumbai - IITM",22-10-2025 07:00:00,19.1653323,72.922099,PM10,26,124,88
India,Maharashtra,Mumbai,"Khindipada-Bhandup West, Mumbai - IITM",22-10-2025 07:00:00,19.1653323,72.922099,NO2,6,20,13
India,Maharashtra,Mumbai,"Kurla, Mumbai - MPCB",22-10-2025 07:00:00,19.0863,72.8888,PM2.5,51,149,75
India,Maharashtra,Mumbai,"Kurla, Mumbai - MPCB",22-10-2025 07:00:00,19.0863,72.8888,PM10,60,147,93
India,Maharashtra,Mumbai,"Kurla, Mumbai - MPCB",22-10-2025 07:00:00,19.0863,72.8888,NH3,1,1,1
India,Maharashtra,Mumbai,"Kurla, Mumbai - MPCB",22-10-2025 07:00:00,19.0863,72.8888,OZONE,28,29,28
India,Maharashtra,Mumbai,"Malad West, Mumbai - IITM",22-10-2025 07:00:00,19.19709,72.82204,NH3,5,7,6
India,Maharashtra,Mumbai,"Malad West, Mumbai - IITM",22-10-2025 07:00:00,19.19709,72.82204,SO2,6,12,8
India,Maharashtra,Mumbai,"Mazgaon, Mumbai - IITM",22-10-2025 07:00:00,18.96702,72.84214,PM10,65,148,114
India,Maharashtra,Mumbai,"Mazgaon, Mumbai - IITM",22-10-2025 07:00:00,18.96702,72.84214,NO2,32,67,47
India,Maharashtra,Mumbai,"Mazgaon, Mumbai - IITM",22-10-2025 07:00:00,18.96702,72.84214,NH3,12,18,15
India,Maharashtra,Mumbai,"Borivali East, Mumbai - MPCB",22-10-2025 07:00:00,19.2243333,72.8658113,NO2,1,19,6
India,Maharashtra,Mumbai,"Borivali East, Mumbai - MPCB",22-10-2025 07:00:00,19.2243333,72.8658113,NH3,3,4,4
India,Maharashtra,Mumbai,"Byculla, Mumbai - BMC",22-10-2025 07:00:00,18.9767,72.8380,CO,1,12,6
India,Maharashtra,Mumbai,"Chakala-Andheri East, Mumbai - IITM",22-10-2025 07:00:00,19.11074,72.86084,CO,14,32,20
India,Maharashtra,Mumbai,"Chembur, Mumbai - MPCB",22-10-2025 07:00:00,19.0364585,72.8954371,PM10,53,129,93
India,Maharashtra,Mumbai,"Navy Nagar-Colaba, Mumbai - IITM",22-10-2025 07:00:00,18.897756,72.813320,PM10,72,237,127
India,Maharashtra,Mumbai,"Navy Nagar-Colaba, Mumbai - IITM",22-10-2025 07:00:00,18.897756,72.813320,SO2,13,21,18
India,Maharashtra,Mumbai,"Powai, Mumbai - MPCB",22-10-2025 07:00:00,19.137500,72.915056,NH3,1,2,2
India,Maharashtra,Mumbai,"Powai, Mumbai - MPCB",22-10-2025 07:00:00,19.137500,72.915056,SO2,27,28,27
India,Maharashtra,Mumbai,"Powai, Mumbai - MPCB",22-10-2025 07:00:00,19.137500,72.915056,CO,15,16,16
India,Maharashtra,Mumbai,"Sewri, Mumbai - BMC",22-10-2025 07:00:00,19.000084,72.856730,NO2,1,12,4
India,Maharashtra,Malegaon,"Mahesh Nagar, Malegaon - MPCB",22-10-2025 07:00:00,20.555712,74.529236,NO2,5,36,15
India,Maharashtra,Mira-Bhayandar,"Bhayandar West, Mira-Bhayandar - MPCB",22-10-2025 07:00:00,19.296481,72.840923,SO2,NA,NA,NA
India,Maharashtra,Mira-Bhayandar,"Bhayandar West, Mira-Bhayandar - MPCB",22-10-2025 07:00:00,19.296481,72.840923,CO,18,34,24
India,Maharashtra,Mumbai,"Borivali East, Mumbai - IITM",22-10-2025 07:00:00,19.23241,72.86895,PM2.5,114,227,167
India,Maharashtra,Mumbai,"Colaba, Mumbai - MPCB",22-10-2025 07:00:00,18.910000,72.820000,NH3,3,3,3
India,Maharashtra,Mumbai,"Colaba, Mumbai - MPCB",22-10-2025 07:00:00,18.910000,72.820000,OZONE,10,11,11
India,Maharashtra,Mumbai,"Ghatkopar, Mumbai - BMC",22-10-2025 07:00:00,19.083694,72.920967,PM2.5,50,211,111
India,Maharashtra,Mumbai,"Ghatkopar, Mumbai - BMC",22-10-2025 07:00:00,19.083694,72.920967,OZONE,6,118,20
India,Maharashtra,Kolhapur,"Shivaji University, Kolhapur - MPCB",22-10-2025 07:00:00,16.6870449,74.2505872,NO2,7,36,15
India,Maharashtra,Pimpri-Chinchwad,"Park Street Wakad, Pimpri Chinchwad - MPCB",22-10-2025 07:00:00,18.59051,73.77946,SO2,6,73,16
India,Maharashtra,Pimpri-Chinchwad,"Savta Mali Nagar, Pimpri-Chinchwad - IITM",22-10-2025 07:00:00,18.614767,73.799516,PM2.5,40,488,175
India,Maharashtra,Pimpri-Chinchwad,"Savta Mali Nagar, Pimpri-Chinchwad - IITM",22-10-2025 07:00:00,18.614767,73.799516,PM10,47,434,149
India,Maharashtra,Pimpri-Chinchwad,"Savta Mali Nagar, Pimpri-Chinchwad - IITM",22-10-2025 07:00:00,18.614767,73.799516,NO2,19,71,34
India,Maharashtra,Pimpri-Chinchwad,"Thergaon, Pimpri Chinchwad - MPCB",22-10-2025 07:00:00,18.616318,73.765797,SO2,2,5,3
India,Maharashtra,Pimpri-Chinchwad,"Thergaon, Pimpri Chinchwad - MPCB",22-10-2025 07:00:00,18.616318,73.765797,CO,12,44,18
India,Maharashtra,Pune,"Bhumkar Nagar, Pune - IITM",22-10-2025 07:00:00,18.605770,73.749976,PM2.5,46,472,201
India,Maharashtra,Pune,"Bhumkar Nagar, Pune - IITM",22-10-2025 07:00:00,18.605770,73.749976,CO,29,66,36
India,Maharashtra,Pune,"Hadapsar, Pune - IITM",22-10-2025 07:00:00,18.501793,73.927532,PM2.5,12,500,142
India,Maharashtra,Nashik,"Pandav Nagari, Nashik - MPCB",22-10-2025 07:00:00,19.9591346,73.7788008,NO2,4,18,8
India,Maharashtra,Navi Mumbai,"Kopripada-Vashi, Navi Mumbai - MPCB",22-10-2025 07:00:00,19.090337,73.014232,PM2.5,34,100,64
India,Maharashtra,Navi Mumbai,"Mahape, Navi Mumbai - MPCB",22-10-2025 07:00:00,19.1135051,73.008978,PM2.5,10,25,18
India,Maharashtra,Navi Mumbai,"Mahape, Navi Mumbai - MPCB",22-10-2025 07:00:00,19.1135051,73.008978,CO,17,20,19
India,Maharashtra,Navi Mumbai,"Nerul, Navi Mumbai - MPCB",22-10-2025 07:00:00,19.008751,73.016620,NO2,31,33,32
India,Maharashtra,Navi Mumbai,"Nerul, Navi Mumbai - MPCB",22-10-2025 07:00:00,19.008751,73.016620,SO2,NA,NA,NA
India,Maharashtra,Navi Mumbai,"Sanpada, Navi Mumbai - MPCB",22-10-2025 07:00:00,19.0575752,73.0151367,PM2.5,100,324,226
India,Maharashtra,Mumbai,"Worli, Mumbai - MPCB",22-10-2025 07:00:00,18.9936162,72.8128113,PM2.5,68,104,83
India,Maharashtra,Mumbai,"Worli, Mumbai - MPCB",22-10-2025 07:00:00,18.9936162,72.8128113,PM10,62,114,92
India,Maharashtra,Mumbai,"Worli, Mumbai - MPCB",22-10-2025 07:00:00,18.9936162,72.8128113,NH3,1,2,1
India,Maharashtra,Mumbai,"Worli, Mumbai - MPCB",22-10-2025 07:00:00,18.9936162,72.8128113,SO2,17,23,20
India,Maharashtra,Mumbai,"Worli, Mumbai - MPCB",22-10-2025 07:00:00,18.9936162,72.8128113,OZONE,20,20,20
India,Maharashtra,Nagpur,"Ambazari, Nagpur - MPCB",22-10-2025 07:00:00,21.121801,79.04952,NO2,4,35,12
India,Maharashtra,Nagpur,"Ambazari, Nagpur - MPCB",22-10-2025 07:00:00,21.121801,79.04952,SO2,20,63,31
India,Maharashtra,Nagpur,"Opp GPO Civil Lines, Nagpur - MPCB",22-10-2025 07:00:00,21.152875,79.0517531,NO2,9,26,15
India,Maharashtra,Pune,"Hadapsar, Pune - IITM",22-10-2025 07:00:00,18.501793,73.927532,PM10,29,500,172
India,Maharashtra,Pune,"Katraj Dairy, Pune - MPCB",22-10-2025 07:00:00,18.454450,73.854155,NH3,1,5,2
India,Maharashtra,Pune,"Mhada Colony, Pune - IITM",22-10-2025 07:00:00,18.573040,73.927715,PM2.5,NA,NA,NA
India,Maharashtra,Pune,"Mhada Colony, Pune - IITM",22-10-2025 07:00:00,18.573040,73.927715,CO,20,88,33
India,Maharashtra,Pune,"Panchawati_Pashan, Pune - IITM",22-10-2025 07:00:00,18.536457,73.805454,OZONE,4,89,12
India,Maharashtra,Pune,"Revenue Colony-Shivajinagar, Pune - IITM",22-10-2025 07:00:00,18.530085,73.849598,OZONE,34,307,135
India,Maharashtra,Nanded,"Sneh Nagar, Nanded - MPCB",22-10-2025 07:00:00,19.173852,77.296291,PM10,9,246,95
India,Maharashtra,Nanded,"Sneh Nagar, Nanded - MPCB",22-10-2025 07:00:00,19.173852,77.296291,NH3,3,5,4
India,Maharashtra,Nanded,"Sneh Nagar, Nanded - MPCB",22-10-2025 07:00:00,19.173852,77.296291,OZONE,1,33,2
India,Maharashtra,Nashik,"Gangapur Road, Nashik - MPCB",22-10-2025 07:00:00,20.0073285,73.7762427,OZONE,9,61,49
India,Maharashtra,Nashik,"Hirawadi, Nashik - MPCB",22-10-2025 07:00:00,20.021503,73.813844,NO2,1,29,7
India,Maharashtra,Nashik,"Hirawadi, Nashik - MPCB",22-10-2025 07:00:00,20.021503,73.813844,NH3,1,2,1
India,Maharashtra,Nashik,"Hirawadi, Nashik - MPCB",22-10-2025 07:00:00,20.021503,73.813844,SO2,34,99,42
India,Maharashtra,Pune,"Savitribai Phule Pune University, Pune - MPCB",22-10-2025 07:00:00,18.547056,73.826908,SO2,2,3,3
India,Maharashtra,Pune,"Savitribai Phule Pune University, Pune - MPCB",22-10-2025 07:00:00,18.547056,73.826908,CO,15,28,20
India,Maharashtra,Pune,"Transport Nagar-Nigdi, Pune - IITM",22-10-2025 07:00:00,18.664282,73.763966,OZONE,8,42,17
India,Maharashtra,Sangli,"Vijay Nagar, Sangli - MPCB",22-10-2025 07:00:00, 16.5038,74.3623,PM2.5,23,195,57
India,Maharashtra,Sangli,"Vijay Nagar, Sangli - MPCB",22-10-2025 07:00:00, 16.5038,74.3623,NH3,2,4,3
India,Maharashtra,Navi Mumbai,"Sanpada, Navi Mumbai - MPCB",22-10-2025 07:00:00,19.0575752,73.0151367,NO2,3,8,5
India,Maharashtra,Navi Mumbai,"Sanpada, Navi Mumbai - MPCB",22-10-2025 07:00:00,19.0575752,73.0151367,NH3,13,18,15
India,Maharashtra,Navi Mumbai,"Sanpada, Navi Mumbai - MPCB",22-10-2025 07:00:00,19.0575752,73.0151367,SO2,8,15,10
India,Maharashtra,Navi Mumbai,"Sector-2E Kalamboli, Navi Mumbai - MPCB",22-10-2025 07:00:00,19.02579,73.10297,NO2,15,101,37
India,Maharashtra,Navi Mumbai,"Tondare-Taloja, Navi Mumbai - MPCB",22-10-2025 07:00:00,19.0630,73.1209,PM10,24,91,54
India,Maharashtra,Mumbai,"Vasai West, Mumbai - MPCB",22-10-2025 07:00:00,19.383200,72.820400,SO2,8,8,8
India,Maharashtra,Mumbai,"Vasai West, Mumbai - MPCB",22-10-2025 07:00:00,19.383200,72.820400,CO,49,52,50
India,Maharashtra,Mumbai,"Vile Parle West, Mumbai - MPCB",22-10-2025 07:00:00,19.10861,72.83622,NH3,1,5,3
India,Maharashtra,Ulhasnagar,"Sidhi Vinayak Nagar, Ulhasnagar - MPCB",22-10-2025 07:00:00,19.235581,73.159121,NO2,9,35,17
India,Maharashtra,Virar,"Bolinj, Virar - MPCB",22-10-2025 07:00:00,19.4458210,72.7988231,PM10,65,140,99
India,Odisha,Balasore,"Kalidaspur, Balasore - OSPCB",22-10-2025 07:00:00,21.51161,86.89088,NH3,1,3,2
India,Odisha,Barbil,"Forest Office, Barbil - OSPCB",22-10-2025 07:00:00,22.1166054,85.3945546,PM10,71,268,125
India,Odisha,Barbil,"Forest Office, Barbil - OSPCB",22-10-2025 07:00:00,22.1166054,85.3945546,OZONE,3,29,5
India,Odisha,Baripada,"Meher Colony, Baripada - OSPCB",22-10-2025 07:00:00,21.941841,86.728318,PM2.5,62,233,111
India,Odisha,Baripada,"Meher Colony, Baripada - OSPCB",22-10-2025 07:00:00,21.941841,86.728318,PM10,58,115,87
India,Odisha,Baripada,"Meher Colony, Baripada - OSPCB",22-10-2025 07:00:00,21.941841,86.728318,OZONE,13,67,26
India,Odisha,Bhubaneswar,"Lingraj Mandir, Bhubaneswar - OSPCB",22-10-2025 07:00:00,20.240790,85.836784,PM10,51,263,117
India,Odisha,Bhubaneswar,"Lingraj Mandir, Bhubaneswar - OSPCB",22-10-2025 07:00:00,20.240790,85.836784,NH3,3,5,4
India,Odisha,Bhubaneswar,"Lingraj Mandir, Bhubaneswar - OSPCB",22-10-2025 07:00:00,20.240790,85.836784,OZONE,5,89,26
India,Rajasthan,Alwar,"Moti Doongri, Alwar - RSPCB",22-10-2025 07:00:00,27.554793,76.611536,PM2.5,109,328,186
India,Rajasthan,Alwar,"Moti Doongri, Alwar - RSPCB",22-10-2025 07:00:00,27.554793,76.611536,NO2,42,59,49
India,Rajasthan,Banswara,"Rati Talai, Banswara - RSPCB",22-10-2025 07:00:00,23.555190,74.440010,NO2,11,43,19
India,Rajasthan,Banswara,"Rati Talai, Banswara - RSPCB",22-10-2025 07:00:00,23.555190,74.440010,NH3,4,8,5
India,Rajasthan,Banswara,"Rati Talai, Banswara - RSPCB",22-10-2025 07:00:00,23.555190,74.440010,CO,3,45,35
India,Rajasthan,Banswara,"Rati Talai, Banswara - RSPCB",22-10-2025 07:00:00,23.555190,74.440010,OZONE,29,122,77
India,Rajasthan,Baran,"Bamboliya, Baran - RSPCB",22-10-2025 07:00:00,25.106006,76.469948,PM2.5,28,210,82
India,Rajasthan,Baran,"Bamboliya, Baran - RSPCB",22-10-2025 07:00:00,25.106006,76.469948,PM10,61,125,94
India,Rajasthan,Barmer,"Railway Colony, Barmer - RSPCB",22-10-2025 07:00:00,25.747299,71.393989,PM10,63,490,152
India,Odisha,Bhubaneswar,"Patia, Bhubaneswar - OSPCB",22-10-2025 07:00:00,20.34652,85.81630,NO2,8,19,13
India,Odisha,Bhubaneswar,"Patia, Bhubaneswar - OSPCB",22-10-2025 07:00:00,20.34652,85.81630,CO,36,82,55
India,Odisha,Bileipada,"Tata Township, Bileipada - OSPCB",22-10-2025 07:00:00,22.06156703,85.47409613,PM10,73,386,185
India,Odisha,Bileipada,"Tata Township, Bileipada - OSPCB",22-10-2025 07:00:00,22.06156703,85.47409613,NH3,4,4,4
India,Odisha,Brajrajnagar,"GM Office, Brajrajnagar - OSPCB",22-10-2025 07:00:00,21.8004996,83.8396977,PM2.5,35,192,65
India,Odisha,Brajrajnagar,"GM Office, Brajrajnagar - OSPCB",22-10-2025 07:00:00,21.8004996,83.8396977,CO,5,23,14
India,Odisha,Brajrajnagar,"GM Office, Brajrajnagar - OSPCB",22-10-2025 07:00:00,21.8004996,83.8396977,OZONE,25,29,26
India,Odisha,Byasanagar,"Ferro Chrome Colony, Byasanagar - OSPCB",22-10-2025 07:00:00,20.94185,86.11510,PM2.5,50,318,122
India,Meghalaya,Shillong,"Lumpyngngad, Shillong - Meghalaya PCB",22-10-2025 07:00:00,25.5586,91.8985,PM10,3,25,11
India,Nagaland,Kohima,"PWD Junction, Kohima - NPCB",22-10-2025 07:00:00,25.6635413,94.0989878,PM2.5,1,212,69
India,Nagaland,Kohima,"PWD Junction, Kohima - NPCB",22-10-2025 07:00:00,25.6635413,94.0989878,PM10,31,131,66
India,Odisha,Angul,"Hakimapada, Angul - OSPCB",22-10-2025 07:00:00,20.832874,85.104082,PM10,68,173,109
India,Odisha,Angul,"Hakimapada, Angul - OSPCB",22-10-2025 07:00:00,20.832874,85.104082,NO2,8,53,20
India,Odisha,Balasore,"Kalidaspur, Balasore - OSPCB",22-10-2025 07:00:00,21.51161,86.89088,PM2.5,83,338,148
India,Odisha,Balasore,"Kalidaspur, Balasore - OSPCB",22-10-2025 07:00:00,21.51161,86.89088,PM10,76,185,110
India,Odisha,Balasore,"Kalidaspur, Balasore - OSPCB",22-10-2025 07:00:00,21.51161,86.89088,NO2,4,59,16
India,Puducherry,Puducherry,"Jawahar Nagar, Puducherry - PPCC",22-10-2025 07:00:00,11.9309,79.8027,NH3,1,3,2
India,Punjab,Amritsar,"Golden Temple, Amritsar - PPCB",22-10-2025 07:00:00,31.620000,74.876512,PM10,82,500,242
India,Punjab,Bathinda,"Hardev Nagar, Bathinda - PPCB",22-10-2025 07:00:00,30.233011,74.907758,NO2,20,28,23
India,Punjab,Bathinda,"Hardev Nagar, Bathinda - PPCB",22-10-2025 07:00:00,30.233011,74.907758,CO,7,95,40
India,Punjab,Khanna,"Kalal Majra, Khanna - PPCB",22-10-2025 07:00:00,30.736056 ,76.209694,NO2,26,31,28
India,Punjab,Ludhiana,"Punjab Agricultural University, Ludhiana - PPCB",22-10-2025 07:00:00,30.9028,75.8086,PM2.5,93,385,228
India,Punjab,Mandi Gobindgarh,"RIMT University, Mandi Gobindgarh - PPCB",22-10-2025 07:00:00,30.649961,76.331442,PM2.5,191,325,292
India,Punjab,Patiala,"Model Town, Patiala - PPCB",22-10-2025 07:00:00,30.349388,76.366642,NH3,6,7,6
India,Punjab,Patiala,"Model Town, Patiala - PPCB",22-10-2025 07:00:00,30.349388,76.366642,SO2,6,21,15
India,Punjab,Patiala,"Model Town, Patiala - PPCB",22-10-2025 07:00:00,30.349388,76.366642,CO,14,48,32
India,Punjab,Patiala,"Model Town, Patiala - PPCB",22-10-2025 07:00:00,30.349388,76.366642,OZONE,35,35,35
India,Punjab,Rupnagar,"Ratanpura, Rupnagar - Ambuja Cements",22-10-2025 07:00:00,31.0325454,76.5623046,PM2.5,1,40,9
India,Odisha,Rourkela,"Fertilizer Township, Rourkela - OSPCB",22-10-2025 07:00:00,22.18972222,84.86277778,CO,21,28,24
India,Odisha,Talcher,"Talcher Coalfields,Talcher - OSPCB",22-10-2025 07:00:00,20.9360711,85.1707021,OZONE,2,20,17
India,Odisha,Tensa,"Barsua Iron Ore Mines, Tensa - OSPCB",22-10-2025 07:00:00,21.869985,85.167016,PM10,55,93,68
India,Odisha,Tensa,"Barsua Iron Ore Mines, Tensa - OSPCB",22-10-2025 07:00:00,21.869985,85.167016,OZONE,11,38,19
India,Puducherry,Puducherry,"Jawahar Nagar, Puducherry - PPCC",22-10-2025 07:00:00,11.9309,79.8027,PM10,4,37,15
India,Rajasthan,Bharatpur,"Krishna Nagar, Bharatpur - RSPCB",22-10-2025 07:00:00,27.215415,77.50873,CO,30,101,68
India,Rajasthan,Bhilwara,"Pratap Nagar, Bhilwara - RSPCB",22-10-2025 07:00:00,25.339605,74.618883,PM2.5,77,500,266
India,Rajasthan,Bhilwara,"Pratap Nagar, Bhilwara - RSPCB",22-10-2025 07:00:00,25.339605,74.618883,OZONE,9,53,15
India,Rajasthan,Bhiwadi,"RIICO Ind. Area III, Bhiwadi - RSPCB",22-10-2025 07:00:00,28.194909,76.862296,NH3,9,17,13
India,Odisha,Byasanagar,"Ferro Chrome Colony, Byasanagar - OSPCB",22-10-2025 07:00:00,20.94185,86.11510,SO2,2,20,7
India,Odisha,Rairangpur,"Divisional Forest Office, Rairangpur - OSPCB",22-10-2025 07:00:00,22.265816,86.174829,CO,25,50,34
India,Rajasthan,Jaipur,"Shastri Nagar, Jaipur - RSPCB",22-10-2025 07:00:00,26.9502929,75.730943,PM2.5,91,457,279
India,Rajasthan,Jaipur,"Shastri Nagar, Jaipur - RSPCB",22-10-2025 07:00:00,26.9502929,75.730943,PM10,102,388,179
India,Rajasthan,Jaipur,"Shastri Nagar, Jaipur - RSPCB",22-10-2025 07:00:00,26.9502929,75.730943,NO2,60,105,78
India,Rajasthan,Jaipur,"Shastri Nagar, Jaipur - RSPCB",22-10-2025 07:00:00,26.9502929,75.730943,CO,102,140,113
India,Rajasthan,Jaisalmer,"Sadar Bazar, Jaisalmer - RSPCB",22-10-2025 07:00:00,26.912329,70.909168,PM10,61,430,154
India,Rajasthan,Jalore,"Mudtra Sili, Jalore - RSPCB",22-10-2025 07:00:00,25.344694,72.626208,PM10,65,419,175
India,Rajasthan,Jalore,"Mudtra Sili, Jalore - RSPCB",22-10-2025 07:00:00,25.344694,72.626208,NH3,6,12,7
India,Rajasthan,Jalore,"Mudtra Sili, Jalore - RSPCB",22-10-2025 07:00:00,25.344694,72.626208,OZONE,5,114,49
India,Rajasthan,Jhalawar,"Rajlaxmi Nagar, Jhalawar - RSPCB",22-10-2025 07:00:00,24.588397,76.172782,PM10,76,399,145
India,Rajasthan,Bikaner,"MM Ground, Bikaner - RSPCB",22-10-2025 07:00:00,28.018792,73.292658,NO2,40,125,68
India,Rajasthan,Bikaner,"MM Ground, Bikaner - RSPCB",22-10-2025 07:00:00,28.018792,73.292658,CO,22,105,38
India,Rajasthan,Bundi,"New Colony, Bundi - RSPCB",22-10-2025 07:00:00,25.435774,75.644272,PM10,82,311,143
India,Rajasthan,Chittorgarh,"Shastri Nagar, Chittorgarh - RSPCB",22-10-2025 07:00:00,24.892047,74.623527,CO,34,78,47
India,Rajasthan,Chittorgarh,"Shastri Nagar, Chittorgarh - RSPCB",22-10-2025 07:00:00,24.892047,74.623527,OZONE,2,116,9
India,Rajasthan,Churu,"Subash Chowk, Churu - RSPCB",22-10-2025 07:00:00,28.296139,74.961696,OZONE,15,132,40
India,Rajasthan,Jaipur,"Adarsh Nagar, Jaipur - RSPCB",22-10-2025 07:00:00,26.902909,75.836858,NH3,5,29,12
India,Rajasthan,Jaipur,"Adarsh Nagar, Jaipur - RSPCB",22-10-2025 07:00:00,26.902909,75.836858,SO2,20,46,32
India,Rajasthan,Jaipur,"Adarsh Nagar, Jaipur - RSPCB",22-10-2025 07:00:00,26.902909,75.836858,CO,24,92,59
India,Rajasthan,Jaipur,"Mansarovar Sector-12, Jaipur - RSPCB",22-10-2025 07:00:00,26.843698,75.766894,NH3,11,14,12
India,Rajasthan,Jaipur,"Mansarovar Sector-12, Jaipur - RSPCB",22-10-2025 07:00:00,26.843698,75.766894,CO,16,111,98
India,Rajasthan,Jaipur,"Police Commissionerate, Jaipur - RSPCB",22-10-2025 07:00:00,26.9164092,75.7994901,SO2,4,8,6
India,Rajasthan,Jaipur,"Police Commissionerate, Jaipur - RSPCB",22-10-2025 07:00:00,26.9164092,75.7994901,OZONE,5,49,6
India,Rajasthan,Jodhpur,"Jhalamand, Jodhpur - RSPCB",22-10-2025 07:00:00,26.215415,73.070156,SO2,2,5,3
India,Rajasthan,Jodhpur,"Jhalamand, Jodhpur - RSPCB",22-10-2025 07:00:00,26.215415,73.070156,OZONE,28,136,55
India,Rajasthan,Jodhpur,"Mandor, Jodhpur - RSPCB",22-10-2025 07:00:00,26.358805,73.047444,NH3,4,10,5
India,Rajasthan,Jodhpur,"Mandor, Jodhpur - RSPCB",22-10-2025 07:00:00,26.358805,73.047444,CO,12,34,19
India,Rajasthan,Jodhpur,"Samrat Ashok Udhyan, Jodhpur - RSPCB",22-10-2025 07:00:00,26.253384,72.976571,PM10,60,428,151
India,Rajasthan,Kota,"Dhanmandi, Kota - RSPCB",22-10-2025 07:00:00,25.164090,75.858137,PM2.5,82,430,202
India,Rajasthan,Jhalawar,"Rajlaxmi Nagar, Jhalawar - RSPCB",22-10-2025 07:00:00,24.588397,76.172782,CO,22,92,43
India,Rajasthan,Jhunjhunu,"Indra Nagar, Jhunjhunu - RSPCB",22-10-2025 07:00:00,28.108988,75.386577,SO2,2,6,4
India,Rajasthan,Jodhpur,"Collectorate, Jodhpur - RSPCB",22-10-2025 07:00:00,26.268249,73.0193853,SO2,1,25,6
India,Rajasthan,Jodhpur,"Digari Kalan, Jodhpur - RSPCB",22-10-2025 07:00:00,26.295810,73.082283,NO2,5,62,21
India,Rajasthan,Jodhpur,"Digari Kalan, Jodhpur - RSPCB",22-10-2025 07:00:00,26.295810,73.082283,NH3,1,5,2
India,Rajasthan,Pali,"Indira Colony Vistar, Pali - RSPCB",22-10-2025 07:00:00,25.771061, 73.340227,OZONE,13,60,14
India,Rajasthan,Sawai Madhopur,"Sahu Nagar, Sawai Madhopur - RSPCB",22-10-2025 07:00:00,26.031443,76.359327,PM10,90,213,134
India,Rajasthan,Sawai Madhopur,"Sahu Nagar, Sawai Madhopur - RSPCB",22-10-2025 07:00:00,26.031443,76.359327,SO2,6,17,8
India,Rajasthan,Sawai Madhopur,"Sahu Nagar, Sawai Madhopur - RSPCB",22-10-2025 07:00:00,26.031443,76.359327,OZONE,10,141,16
India,Rajasthan,Sikar,"Radhakishan Pura, Sikar - RSPCB",22-10-2025 07:00:00,27.608912,75.153302,SO2,2,14,7
India,Rajasthan,Dholpur,"Raja Ganj, Dholpur - RSPCB",22-10-2025 07:00:00,26.699557,77.898881,NO2,11,39,21
India,Rajasthan,Dungarpur,"Bhoiwada, Dungarpur - RSPCB",22-10-2025 07:00:00,23.837789,73.714926,OZONE,16,139,25
India,Rajasthan,Hanumangarh,"Housing Board, Hanumangarh - RSPCB",22-10-2025 07:00:00,29.610750,74.283608,NO2,13,42,19
India,Rajasthan,Jaipur,"Adarsh Nagar, Jaipur - RSPCB",22-10-2025 07:00:00,26.902909,75.836858,PM2.5,82,410,222
India,Rajasthan,Nagaur,"Karni Colony, Nagaur - RSPCB",22-10-2025 07:00:00,27.213494,73.734444,PM10,79,369,140
India,Rajasthan,Pali,"Indira Colony Vistar, Pali - RSPCB",22-10-2025 07:00:00,25.771061, 73.340227,PM10,85,241,147
India,Rajasthan,Pali,"Indira Colony Vistar, Pali - RSPCB",22-10-2025 07:00:00,25.771061, 73.340227,NO2,43,60,51
India,Rajasthan,Pali,"Indira Colony Vistar, Pali - RSPCB",22-10-2025 07:00:00,25.771061, 73.340227,NH3,9,15,11
India,Rajasthan,Pali,"Indira Colony Vistar, Pali - RSPCB",22-10-2025 07:00:00,25.771061, 73.340227,SO2,11,15,12
India,Rajasthan,Kota,"Dhanmandi, Kota - RSPCB",22-10-2025 07:00:00,25.164090,75.858137,OZONE,7,147,22
India,Rajasthan,Kota,"Nayapura, Kota - RSPCB",22-10-2025 07:00:00,25.196024,75.855668,NH3,3,7,5
India,Sikkim,Gangtok,"Zero Point GICI, Gangtok - SSPCB",22-10-2025 07:00:00,27.338530,88.614099,PM2.5,9,29,18
India,Sikkim,Gangtok,"Zero Point GICI, Gangtok - SSPCB",22-10-2025 07:00:00,27.338530,88.614099,SO2,1,1,1
India,Sikkim,Gangtok,"Zero Point GICI, Gangtok - SSPCB",22-10-2025 07:00:00,27.338530,88.614099,CO,1,6,1
India,TamilNadu,Ariyalur,"Keelapalur, Ariyalur - TNPCB",22-10-2025 07:00:00,11.06825,79.07033,NH3,1,1,1
India,TamilNadu,Ariyalur,"Keelapalur, Ariyalur - TNPCB",22-10-2025 07:00:00,11.06825,79.07033,SO2,12,13,12
India,TamilNadu,Chengalpattu,"Crescent University, Chengalpattu - TNPCB",22-10-2025 07:00:00,12.8777316,80.0834807,PM10,74,118,101
India,TamilNadu,Chennai,"Alandur Bus Depot, Chennai - CPCB",22-10-2025 07:00:00,12.9099161,80.1076538,SO2,15,16,15
India,TamilNadu,Chennai,"Alandur Bus Depot, Chennai - CPCB",22-10-2025 07:00:00,12.9099161,80.1076538,CO,19,48,41
India,TamilNadu,Chennai,"Alandur Bus Depot, Chennai - CPCB",22-10-2025 07:00:00,12.9099161,80.1076538,OZONE,3,3,3
India,TamilNadu,Chennai,"Perungudi, Chennai - TNPCB",22-10-2025 07:00:00,12.9533,80.2357,PM2.5,5,334,75
India,TamilNadu,Chennai,"Perungudi, Chennai - TNPCB",22-10-2025 07:00:00,12.9533,80.2357,PM10,8,161,45
India,TamilNadu,Coimbatore,"SIDCO Kurichi, Coimbatore - TNPCB",22-10-2025 07:00:00,10.942451,76.978996,PM10,9,74,29
India,TamilNadu,Coimbatore,"SIDCO Kurichi, Coimbatore - TNPCB",22-10-2025 07:00:00,10.942451,76.978996,NO2,11,28,17
India,TamilNadu,Cuddalore,"Kudikadu, Cuddalore - TNPCB",22-10-2025 07:00:00,11.6829898,79.7532099,PM2.5,7,25,15
India,TamilNadu,Cuddalore,"Kudikadu, Cuddalore - TNPCB",22-10-2025 07:00:00,11.6829898,79.7532099,PM10,2,26,14
India,TamilNadu,Cuddalore,"Kudikadu, Cuddalore - TNPCB",22-10-2025 07:00:00,11.6829898,79.7532099,NH3,3,4,3
India,TamilNadu,Cuddalore,"Semmandalam, Cuddalore - TNPCB",22-10-2025 07:00:00,11.7637683,79.7499835,PM2.5,15,66,39
India,TamilNadu,Chennai,"Arumbakkam, Chennai - TNPCB",22-10-2025 07:00:00,13.0664,80.2112 ,NO2,9,17,12
India,TamilNadu,Chennai,"Arumbakkam, Chennai - TNPCB",22-10-2025 07:00:00,13.0664,80.2112 ,SO2,1,3,2
India,TamilNadu,Chennai,"Kodungaiyur, Chennai - TNPCB",22-10-2025 07:00:00,13.1278,80.2642,CO,3,32,10
India,TamilNadu,Chennai,"Manali Village, Chennai - TNPCB",22-10-2025 07:00:00,13.1662,80.2584,PM10,17,122,66
India,TamilNadu,Chennai,"Manali Village, Chennai - TNPCB",22-10-2025 07:00:00,13.1662,80.2584,SO2,4,11,10
India,TamilNadu,Chennai,"Manali, Chennai - CPCB",22-10-2025 07:00:00,13.164544,80.26285,PM2.5,21,68,43
India,TamilNadu,Chennai,"Manali, Chennai - CPCB",22-10-2025 07:00:00,13.164544,80.26285,OZONE,10,10,10
India,Rajasthan,Sirohi,"Vedhaynath Colony, Sirohi - RSPCB",22-10-2025 07:00:00,24.885261,72.857549,NO2,4,51,17
India,Rajasthan,Sirohi,"Vedhaynath Colony, Sirohi - RSPCB",22-10-2025 07:00:00,24.885261,72.857549,NH3,2,4,3
India,Rajasthan,Tonk,"Shastri Nagar, Tonk - RSPCB",22-10-2025 07:00:00,26.159933,75.780517,OZONE,10,73,21
India,Rajasthan,Udaipur,"Ashok Nagar, Udaipur - RSPCB",22-10-2025 07:00:00,24.5886166,73.6321397,PM10,86,231,128
India,Rajasthan,Udaipur,"Ashok Nagar, Udaipur - RSPCB",22-10-2025 07:00:00,24.5886166,73.6321397,NH3,4,13,6
India,Rajasthan,Udaipur,"Ashok Nagar, Udaipur - RSPCB",22-10-2025 07:00:00,24.5886166,73.6321397,CO,8,111,32
India,TamilNadu,Karur,"Kamadenu Nagar, Karur - TNPCB",22-10-2025 07:00:00,10.967820,78.080882,PM10,9,69,24
India,TamilNadu,Karur,"Kamadenu Nagar, Karur - TNPCB",22-10-2025 07:00:00,10.967820,78.080882,NO2,3,6,4
India,TamilNadu,Madurai,"Uchapatti, Madurai - TNPCB",22-10-2025 07:00:00,9.865935,78.022669,NO2,15,15,15
India,TamilNadu,Madurai,"Uchapatti, Madurai - TNPCB",22-10-2025 07:00:00,9.865935,78.022669,CO,22,25,23
India,TamilNadu,Madurai,"Uchapatti, Madurai - TNPCB",22-10-2025 07:00:00,9.865935,78.022669,OZONE,6,6,6
India,TamilNadu,Namakkal,"Ponnusamy Nagar, Namakkal - TNPCB",22-10-2025 07:00:00,11.273992,78.163545,PM2.5,12,38,20
India,TamilNadu,Ramanathapuram,"Chalai Bazaar, Ramanathapuram - TNPCB",22-10-2025 07:00:00,9.36399,78.831977,PM10,11,45,19
India,TamilNadu,Thanjavur,"Parisutham Nagar, Thanjavur - TNPCB",22-10-2025 07:00:00,10.7654824,79.1389968,SO2,16,17,16
India,TamilNadu,Thoothukudi,"Meelavittan, Thoothukudi - TNPCB",22-10-2025 07:00:00,8.816428 ,78.099039,PM10,14,500,72
India,TamilNadu,Thoothukudi,"Meelavittan, Thoothukudi - TNPCB",22-10-2025 07:00:00,8.816428 ,78.099039,NO2,7,37,15
India,TamilNadu,Tiruchirappalli,"St Joseph College, Tiruchirappalli - TNPCB",22-10-2025 07:00:00,10.830158,78.691849,PM10,4,99,56
India,TamilNadu,Tirupur,"Kumaran College, Tirupur - TNPCB",22-10-2025 07:00:00,11.0973603,77.3228673,PM2.5,5,260,51
India,TamilNadu,Tirupur,"Kumaran College, Tirupur - TNPCB",22-10-2025 07:00:00,11.0973603,77.3228673,PM10,11,156,43
India,TamilNadu,Vellore,"Vasanthapuram, Vellore - TNPCB",22-10-2025 07:00:00,12.909494,79.131861,PM10,28,246,77
India,TamilNadu,Ooty,"Bombay Castel, Ooty - TNPCB",22-10-2025 07:00:00,11.4068288,76.7138973,SO2,8,16,15
India,TamilNadu,Palkalaiperur,"Bharathidasan University, Palkalaiperur - TNPCB",22-10-2025 07:00:00,10.681158,78.741746,NH3,1,1,1
India,TamilNadu,Perundurai,"SIPCOT Industrial Park, Perundurai - TNPCB",22-10-2025 07:00:00,11.258242,77.552761,PM10,9,25,16
India,TamilNadu,Gummidipoondi,"Anthoni Pillai Nagar, Gummidipoondi - TNPCB",22-10-2025 07:00:00,13.4127,80.1081,NO2,1,5,2
India,TamilNadu,Hosur,"SIPCOT Phase-1, Hosur - TNPCB",22-10-2025 07:00:00,12.746998,77.813811,NO2,1,2,2
India,TamilNadu,Kanchipuram,"Kilambi, Kanchipuram - TNPCB",22-10-2025 07:00:00,12.864618,79.659968,NH3,4,4,4
India,Uttar_Pradesh,Ghaziabad,"Sanjay Nagar, Ghaziabad - UPPCB",22-10-2025 07:00:00,28.685382,77.453839,NO2,32,81,54
India,Uttar_Pradesh,Ghaziabad,"Sanjay Nagar, Ghaziabad - UPPCB",22-10-2025 07:00:00,28.685382,77.453839,SO2,11,28,17
India,Uttar_Pradesh,Ghaziabad,"Vasundhara, Ghaziabad - UPPCB",22-10-2025 07:00:00,28.6603346,77.3572563,NO2,30,40,35
India,Uttar_Pradesh,Ghaziabad,"Vasundhara, Ghaziabad - UPPCB",22-10-2025 07:00:00,28.6603346,77.3572563,NH3,9,9,9
India,Uttar_Pradesh,Ghaziabad,"Vasundhara, Ghaziabad - UPPCB",22-10-2025 07:00:00,28.6603346,77.3572563,CO,38,111,85
India,Uttar_Pradesh,Gorakhpur,"Madan Mohan Malaviya University of Technology, Gorakhpur - UPPCB",22-10-2025 07:00:00,26.730136,83.433859,NO2,11,12,11
India,Uttar_Pradesh,Gorakhpur,"Madan Mohan Malaviya University of Technology, Gorakhpur - UPPCB",22-10-2025 07:00:00,26.730136,83.433859,CO,4,6,6
India,Uttar_Pradesh,Greater Noida,"Knowledge Park - III, Greater Noida - UPPCB",22-10-2025 07:00:00,28.47272,77.482000,OZONE,5,105,5
India,Uttar_Pradesh,Greater Noida,"Knowledge Park - V, Greater Noida - UPPCB",22-10-2025 07:00:00,28.557054,77.453663,PM2.5,75,374,265
India,Uttar_Pradesh,Greater Noida,"Knowledge Park - V, Greater Noida - UPPCB",22-10-2025 07:00:00,28.557054,77.453663,PM10,75,303,178
India,Telangana,Hyderabad,"Kompally Municipal Office, Hyderabad - TSPCB",22-10-2025 07:00:00,17.544899,78.486949,SO2,9,16,12
India,Telangana,Hyderabad,"Nacharam_TSIIC IALA, Hyderabad - TSPCB",22-10-2025 07:00:00,17.429398,78.569354,CO,40,54,50
India,Telangana,Hyderabad,"New Malakpet, Hyderabad - TSPCB",22-10-2025 07:00:00,17.37206,78.50864,PM2.5,39,165,56
India,Telangana,Hyderabad,"New Malakpet, Hyderabad - TSPCB",22-10-2025 07:00:00,17.37206,78.50864,SO2,10,19,16
India,Telangana,Hyderabad,"New Malakpet, Hyderabad - TSPCB",22-10-2025 07:00:00,17.37206,78.50864,CO,2,101,13
India,Telangana,Hyderabad,"Ramachandrapuram, Hyderabad - TSPCB",22-10-2025 07:00:00,17.528544,78.286195,PM10,60,97,73
India,Telangana,Hyderabad,"Ramachandrapuram, Hyderabad - TSPCB",22-10-2025 07:00:00,17.528544,78.286195,NH3,3,5,4
India,Telangana,Hyderabad,"Sanathnagar, Hyderabad - TSPCB",22-10-2025 07:00:00,17.4559458,78.4332152,PM2.5,26,152,53
India,Telangana,Hyderabad,"Sanathnagar, Hyderabad - TSPCB",22-10-2025 07:00:00,17.4559458,78.4332152,SO2,1,13,6
India,Telangana,Hyderabad,"Sanathnagar, Hyderabad - TSPCB",22-10-2025 07:00:00,17.4559458,78.4332152,CO,3,18,13
India,Telangana,Hyderabad,"Sanathnagar, Hyderabad - TSPCB",22-10-2025 07:00:00,17.4559458,78.4332152,OZONE,12,16,14
India,Uttar_Pradesh,Baghpat,"Sardar Patel Inter College, Baghpat - UPPCB",22-10-2025 07:00:00,28.964949,77.278761,NO2,50,82,65
India,Uttar_Pradesh,Baghpat,"Sardar Patel Inter College, Baghpat - UPPCB",22-10-2025 07:00:00,28.964949,77.278761,CO,25,60,33
India,Uttar_Pradesh,Bareilly,"Rajendra Nagar, Bareilly - UPPCB",22-10-2025 07:00:00,28.38910936,79.42963708,PM2.5,51,303,143
India,Uttar_Pradesh,Bareilly,"Rajendra Nagar, Bareilly - UPPCB",22-10-2025 07:00:00,28.38910936,79.42963708,NO2,9,10,9
India,Uttar_Pradesh,Bareilly,"Rajendra Nagar, Bareilly - UPPCB",22-10-2025 07:00:00,28.38910936,79.42963708,OZONE,26,60,28
India,Uttar_Pradesh,Bulandshahr,"Yamunapuram, Bulandshahr - UPPCB",22-10-2025 07:00:00,28.406963,77.849831,PM10,87,416,196
India,Uttar_Pradesh,Bulandshahr,"Yamunapuram, Bulandshahr - UPPCB",22-10-2025 07:00:00,28.406963,77.849831,SO2,2,126,30
India,Uttar_Pradesh,Firozabad,"Nagla Bhau, Firozabad - UPPCB",22-10-2025 07:00:00,27.168897,78.376960,PM2.5,22,258,64
India,Telangana,Hyderabad,"ICRISAT Patancheru, Hyderabad - TSPCB",22-10-2025 07:00:00,17.518400,78.278777,NH3,1,3,2
India,Telangana,Hyderabad,"IDA Pashamylaram, Hyderabad - TSPCB",22-10-2025 07:00:00,17.5316895,78.218939,NH3,NA,NA,NA
India,Telangana,Hyderabad,"IDA Pashamylaram, Hyderabad - TSPCB",22-10-2025 07:00:00,17.5316895,78.218939,SO2,NA,NA,NA
India,Telangana,Hyderabad,"IDA Pashamylaram, Hyderabad - TSPCB",22-10-2025 07:00:00,17.5316895,78.218939,CO,2,56,51
India,Telangana,Hyderabad,"IITH Kandi, Hyderabad - TSPCB",22-10-2025 07:00:00,17.585705,78.126199,PM2.5,43,82,66
India,Telangana,Hyderabad,"Kokapet, Hyderabad - TSPCB",22-10-2025 07:00:00,17.393559,78.339194,NH3,3,4,4
India,Telangana,Hyderabad,"Kokapet, Hyderabad - TSPCB",22-10-2025 07:00:00,17.393559,78.339194,SO2,22,35,29
India,Telangana,Hyderabad,"Kokapet, Hyderabad - TSPCB",22-10-2025 07:00:00,17.393559,78.339194,CO,40,55,43
India,Telangana,Hyderabad,"Somajiguda, Hyderabad - TSPCB",22-10-2025 07:00:00,17.417094,78.457437,NO2,11,15,13
India,Telangana,Hyderabad,"Zoo Park, Hyderabad - TSPCB",22-10-2025 07:00:00,17.349694,78.451437,SO2,4,4,4
India,Telangana,Hyderabad,"Zoo Park, Hyderabad - TSPCB",22-10-2025 07:00:00,17.349694,78.451437,CO,13,14,14
India,Tripura,Agartala,"Bardowali, Agartala - Tripura SPCB",22-10-2025 07:00:00,23.8175497,91.2726974,PM10,30,73,45
India,Uttar_Pradesh,Agra,"Manoharpur, Agra - UPPCB",22-10-2025 07:00:00,27.23711,78.01936,OZONE,NA,NA,NA
India,Uttar_Pradesh,Firozabad,"Nagla Bhau, Firozabad - UPPCB",22-10-2025 07:00:00,27.168897,78.376960,OZONE,10,18,11
India,Uttar_Pradesh,Ghaziabad,"Indirapuram, Ghaziabad - UPPCB",22-10-2025 07:00:00,28.646233,77.358075,NO2,22,135,68
India,Uttar_Pradesh,Ghaziabad,"Loni, Ghaziabad - UPPCB",22-10-2025 07:00:00,28.757294,77.278792,NO2,28,102,53
India,Uttar_Pradesh,Ghaziabad,"Loni, Ghaziabad - UPPCB",22-10-2025 07:00:00,28.757294,77.278792,SO2,3,72,26
India,Uttar_Pradesh,Ghaziabad,"Sanjay Nagar, Ghaziabad - UPPCB",22-10-2025 07:00:00,28.685382,77.453839,PM2.5,82,413,269
India,Uttar_Pradesh,Agra,"Sector-3B Avas Vikas Colony, Agra - UPPCB",22-10-2025 07:00:00,27.19412,77.96237,OZONE,NA,NA,NA
India,Uttar_Pradesh,Agra,"Shahjahan Garden, Agra - UPPCB",22-10-2025 07:00:00,27.169338,78.03582,PM10,70,249,122
India,Uttar_Pradesh,Agra,"Shahjahan Garden, Agra - UPPCB",22-10-2025 07:00:00,27.169338,78.03582,NH3,1,1,1
India,Uttar_Pradesh,Agra,"Shahjahan Garden, Agra - UPPCB",22-10-2025 07:00:00,27.169338,78.03582,OZONE,NA,NA,NA
India,Uttar_Pradesh,Agra,"Shastripuram, Agra - UPPCB",22-10-2025 07:00:00,27.19862,77.92066,NO2,56,59,57
India,Uttar_Pradesh,Agra,"Shastripuram, Agra - UPPCB",22-10-2025 07:00:00,27.19862,77.92066,SO2,20,39,28
India,Telangana,Hyderabad,"ECIL Kapra, Hyderabad - TSPCB",22-10-2025 07:00:00,17.470431,78.566959,PM2.5,53,81,61
India,Telangana,Hyderabad,"ECIL Kapra, Hyderabad - TSPCB",22-10-2025 07:00:00,17.470431,78.566959,NH3,3,5,4
India,Telangana,Hyderabad,"ECIL Kapra, Hyderabad - TSPCB",22-10-2025 07:00:00,17.470431,78.566959,OZONE,16,32,22
India,Uttar_Pradesh,Agra,"Sanjay Palace, Agra - UPPCB",22-10-2025 07:00:00,27.19865833,78.00598056,PM2.5,57,500,251
India,Uttar_Pradesh,Agra,"Sanjay Palace, Agra - UPPCB",22-10-2025 07:00:00,27.19865833,78.00598056,NO2,2,26,10
India,Uttar_Pradesh,Meerut,"Ganga Nagar, Meerut - UPPCB",22-10-2025 07:00:00,28.999264,77.7590354,PM2.5,68,433,197
India,Uttar_Pradesh,Meerut,"Ganga Nagar, Meerut - UPPCB",22-10-2025 07:00:00,28.999264,77.7590354,PM10,123,500,263
India,Uttar_Pradesh,Meerut,"Ganga Nagar, Meerut - UPPCB",22-10-2025 07:00:00,28.999264,77.7590354,SO2,8,37,18
India,Uttar_Pradesh,Meerut,"Ganga Nagar, Meerut - UPPCB",22-10-2025 07:00:00,28.999264,77.7590354,CO,36,111,73
India,Uttar_Pradesh,Meerut,"Ganga Nagar, Meerut - UPPCB",22-10-2025 07:00:00,28.999264,77.7590354,OZONE,21,135,25
India,Uttar_Pradesh,Meerut,"Jai Bhim Nagar, Meerut - UPPCB",22-10-2025 07:00:00,28.9535882,77.7622941,NH3,5,6,6
India,Uttar_Pradesh,Meerut,"Jai Bhim Nagar, Meerut - UPPCB",22-10-2025 07:00:00,28.9535882,77.7622941,SO2,10,110,41
India,Uttar_Pradesh,Meerut,"Pallavpuram Phase 2, Meerut - UPPCB",22-10-2025 07:00:00,29.063510,77.709723,PM10,128,406,213
India,Uttar_Pradesh,Meerut,"Pallavpuram Phase 2, Meerut - UPPCB",22-10-2025 07:00:00,29.063510,77.709723,OZONE,18,163,23
India,Uttar_Pradesh,Moradabad,"Buddhi Vihar, Moradabad - UPPCB",22-10-2025 07:00:00,28.83526,78.74460,SO2,28,28,28
India,Uttar_Pradesh,Varanasi,"Maldahiya, Varanasi - UPPCB",22-10-2025 07:00:00,25.32393,82.99687,OZONE,2,5,2
India,Uttar_Pradesh,Vrindavan,"Omex Eternity, Vrindavan - UPPCB",22-10-2025 07:00:00,27.5714090,77.6557570,PM10,35,185,113
India,Uttarakhand,Dehradun,"Doon University, Dehradun - UKPCB",22-10-2025 07:00:00,30.269444,78.044167,CO,2,26,12
India,Uttarakhand,Kashipur,"Govt. Girls Inter College, Kashipur - UKPCB",22-10-2025 07:00:00,29.2124114,78.9611753,NH3,2,16,5
India,Uttarakhand,Kashipur,"Govt. Girls Inter College, Kashipur - UKPCB",22-10-2025 07:00:00,29.2124114,78.9611753,SO2,7,9,8
India,Uttarakhand,Kashipur,"Govt. Girls Inter College, Kashipur - UKPCB",22-10-2025 07:00:00,29.2124114,78.9611753,OZONE,1,5,1
India,Uttarakhand,Rishikesh,"Shivaji Nagar, Rishikesh - UKPCB",22-10-2025 07:00:00,30.075911,78.2859547,SO2,NA,NA,NA
India,Uttar_Pradesh,Lucknow,"Gomti Nagar, Lucknow - UPPCB",22-10-2025 07:00:00,26.868120,81.005119,PM10,46,371,103
India,Uttar_Pradesh,Lucknow,"Gomti Nagar, Lucknow - UPPCB",22-10-2025 07:00:00,26.868120,81.005119,OZONE,38,46,39
India,Uttar_Pradesh,Lucknow,"Kendriya Vidyalaya, Lucknow - CPCB",22-10-2025 07:00:00,26.906111,80.948222,SO2,6,24,14
India,Uttar_Pradesh,Lucknow,"Kukrail Picnic Spot-1, Lucknow - UPPCB",22-10-2025 07:00:00,26.90723,80.98579,OZONE,25,50,28
India,Uttar_Pradesh,Lucknow,"Talkatora District Industries Center, Lucknow - CPCB",22-10-2025 07:00:00,26.83399722,80.8917361,PM10,82,430,179
India,Uttar_Pradesh,Lucknow,"Talkatora District Industries Center, Lucknow - CPCB",22-10-2025 07:00:00,26.83399722,80.8917361,NO2,12,93,47
India,Uttar_Pradesh,Moradabad,"Transport Nagar, Moradabad - UPPCB",22-10-2025 07:00:00,28.802625,78.753728,NH3,5,6,5
India,Uttar_Pradesh,Muzaffarnagar,"New Mandi, Muzaffarnagar - UPPCB",22-10-2025 07:00:00,29.4723508,77.7194031,PM2.5,83,500,250
India,Uttar_Pradesh,Noida,"Sector - 125, Noida - UPPCB",22-10-2025 07:00:00,28.5447608,77.3231257,PM2.5,97,399,282
India,Uttar_Pradesh,Noida,"Sector - 62, Noida - IMD",22-10-2025 07:00:00,28.6245479,77.3577104,PM10,87,424,213
India,Uttar_Pradesh,Noida,"Sector - 62, Noida - IMD",22-10-2025 07:00:00,28.6245479,77.3577104,NO2,11,24,16
India,Uttar_Pradesh,Prayagraj,"Nagar Nigam, Prayagraj - UPPCB",22-10-2025 07:00:00,25.44919916 ,81.82735986 ,OZONE,11,16,14
India,Uttar_Pradesh,Varanasi,"Bhelupur, Varanasi - UPPCB",22-10-2025 07:00:00,25.301778,82.996789,CO,10,23,19
India,Uttar_Pradesh,Varanasi,"IESD Banaras Hindu University, Varanasi - UPPCB",22-10-2025 07:00:00,25.262326,82.995408,NO2,2,2,2
India,Uttar_Pradesh,Varanasi,"IESD Banaras Hindu University, Varanasi - UPPCB",22-10-2025 07:00:00,25.262326,82.995408,NH3,1,2,2
India,Uttar_Pradesh,Varanasi,"IESD Banaras Hindu University, Varanasi - UPPCB",22-10-2025 07:00:00,25.262326,82.995408,SO2,19,41,28
India,Uttar_Pradesh,Varanasi,"IESD Banaras Hindu University, Varanasi - UPPCB",22-10-2025 07:00:00,25.262326,82.995408,CO,8,20,14
India,Uttar_Pradesh,Kanpur,"NSI Kalyanpur, Kanpur - UPPCB",22-10-2025 07:00:00,26.509954,80.249612,NO2,22,22,22
India,Uttar_Pradesh,Kanpur,"Nehru Nagar, Kanpur - UPPCB",22-10-2025 07:00:00,26.4703136,80.3229863,OZONE,6,53,6
India,Uttar_Pradesh,Lucknow,"B R Ambedkar University, Lucknow - UPPCB",22-10-2025 07:00:00,26.766433,80.927299,PM2.5,79,333,170
India,Uttar_Pradesh,Lucknow,"B R Ambedkar University, Lucknow - UPPCB",22-10-2025 07:00:00,26.766433,80.927299,NH3,4,4,4
India,Uttar_Pradesh,Hapur,"Anand Vihar, Hapur - UPPCB",22-10-2025 07:00:00,28.725645,77.749675,PM10,116,331,186
India,Uttar_Pradesh,Jhansi,"Shivaji Nagar, Jhansi - UPPCB",22-10-2025 07:00:00,25.4547,78.6039,PM2.5,19,96,46
India,Uttar_Pradesh,Kanpur,"FTI Kidwai Nagar, Kanpur - UPPCB",22-10-2025 07:00:00,26.428282,80.327067,NO2,30,30,30
India,Uttar_Pradesh,Kanpur,"FTI Kidwai Nagar, Kanpur - UPPCB",22-10-2025 07:00:00,26.428282,80.327067,SO2,28,31,29
India,Uttar_Pradesh,Noida,"Sector-116, Noida - UPPCB",22-10-2025 07:00:00,28.569230,77.393848,PM2.5,138,500,350
India,Uttar_Pradesh,Noida,"Sector-116, Noida - UPPCB",22-10-2025 07:00:00,28.569230,77.393848,PM10,113,500,303
India,Uttar_Pradesh,Prayagraj,"Jhunsi, Prayagraj - UPPCB",22-10-2025 07:00:00,25.425602,81.917152,NO2,NA,NA,NA
India,Uttar_Pradesh,Prayagraj,"Motilal Nehru NIT, Prayagraj - UPPCB",22-10-2025 07:00:00,25.494,81.863,PM2.5,90,304,189
India,Uttar_Pradesh,Moradabad,"Employment Office, Moradabad - UPPCB",22-10-2025 07:00:00,28.88528,78.73880,PM10,131,402,201
India,Uttar_Pradesh,Moradabad,"Employment Office, Moradabad - UPPCB",22-10-2025 07:00:00,28.88528,78.73880,CO,9,64,22
India,Uttar_Pradesh,Moradabad,"Jigar Colony, Moradabad - UPPCB",22-10-2025 07:00:00,28.856664,78.772638,NO2,25,25,25
India,Uttar_Pradesh,Moradabad,"Kashiram Nagar, Moradabad - UPPCB",22-10-2025 07:00:00,28.849399,78.742362,OZONE,22,49,26
India,West_Bengal,Asansol,"Evelyn Lodge, Asansol - WBPCB",22-10-2025 07:00:00,23.6979360,86.9443950,PM2.5,43,141,92
India,West_Bengal,Asansol,"Evelyn Lodge, Asansol - WBPCB",22-10-2025 07:00:00,23.6979360,86.9443950,NH3,2,2,2
India,West_Bengal,Asansol,"Mahabir Colliery, Asansol - WBPCB",22-10-2025 07:00:00,23.6181830,87.1057180,PM10,50,128,89
India,West_Bengal,Asansol,"Mahabir Colliery, Asansol - WBPCB",22-10-2025 07:00:00,23.6181830,87.1057180,NO2,11,50,28
India,West_Bengal,Asansol,"Trivenidevi Bhalotia College, Asansol - WBPCB",22-10-2025 07:00:00,23.616515,87.119133,PM2.5,37,92,72
India,West_Bengal,Asansol,"Trivenidevi Bhalotia College, Asansol - WBPCB",22-10-2025 07:00:00,23.616515,87.119133,PM10,41,95,74
India,West_Bengal,Asansol,"Trivenidevi Bhalotia College, Asansol - WBPCB",22-10-2025 07:00:00,23.616515,87.119133,NH3,5,7,5
India,West_Bengal,Asansol,"Trivenidevi Bhalotia College, Asansol - WBPCB",22-10-2025 07:00:00,23.616515,87.119133,SO2,5,11,7
India,West_Bengal,Barrackpore,"SVSPA Campus, Barrackpore - WBPCB",22-10-2025 07:00:00,22.7605581,88.3617589,NO2,8,30,19
India,West_Bengal,Barrackpore,"SVSPA Campus, Barrackpore - WBPCB",22-10-2025 07:00:00,22.7605581,88.3617589,CO,25,44,39
India,West_Bengal,Durgapur,"Mahishkapur Road_B-Zone, Durgapur - WBPCB",22-10-2025 07:00:00,23.567923,87.306843,PM2.5,35,184,92
India,West_Bengal,Durgapur,"Mahishkapur Road_B-Zone, Durgapur - WBPCB",22-10-2025 07:00:00,23.567923,87.306843,SO2,12,32,16
India,West_Bengal,Durgapur,"PCBL Residential Complex, Durgapur - WBPCB",22-10-2025 07:00:00,23.5087640,87.3544400,PM10,45,166,85
India,West_Bengal,Durgapur,"PCBL Residential Complex, Durgapur - WBPCB",22-10-2025 07:00:00,23.5087640,87.3544400,SO2,5,6,6
India,West_Bengal,Haldia,"Priyambada Housing Estate, Haldia - WBPCB",22-10-2025 07:00:00,22.06047,88.109737,PM10,71,305,124
India,West_Bengal,Howrah,"Belur Math, Howrah - WBPCB",22-10-2025 07:00:00,22.629801,88.352017,CO,16,34,31
India,West_Bengal,Howrah,"Botanical Garden, Howrah - WBPCB",22-10-2025 07:00:00,22.554954,88.292568,NH3,2,74,9
India,West_Bengal,Howrah,"Botanical Garden, Howrah - WBPCB",22-10-2025 07:00:00,22.554954,88.292568,SO2,14,16,15
India,West_Bengal,Howrah,"Botanical Garden, Howrah - WBPCB",22-10-2025 07:00:00,22.554954,88.292568,OZONE,20,47,22
India,West_Bengal,Howrah,"Dasnagar, Howrah - WBPCB",22-10-2025 07:00:00,22.6025571,88.3105664,PM2.5,25,318,138
India,West_Bengal,Howrah,"Ghusuri, Howrah - WBPCB",22-10-2025 07:00:00,22.611968,88.347422,NH3,8,15,11
India,West_Bengal,Howrah,"Ghusuri, Howrah - WBPCB",22-10-2025 07:00:00,22.611968,88.347422,CO,14,66,41
India,West_Bengal,Howrah,"Padmapukur, Howrah - WBPCB",22-10-2025 07:00:00,22.5687319,88.2797276,NH3,3,11,8
India,West_Bengal,Howrah,"Padmapukur, Howrah - WBPCB",22-10-2025 07:00:00,22.5687319,88.2797276,SO2,2,10,7
India,West_Bengal,Howrah,"Padmapukur, Howrah - WBPCB",22-10-2025 07:00:00,22.5687319,88.2797276,OZONE,8,27,11
India,West_Bengal,Kolkata,"Bidhannagar, Kolkata - WBPCB",22-10-2025 07:00:00,22.58157048,88.41002457,PM10,22,219,109
India,West_Bengal,Kolkata,"Fort William, Kolkata - WBPCB",22-10-2025 07:00:00,22.556640,88.342674,NH3,8,18,10
India,West_Bengal,Kolkata,"Rabindra Bharati University, Kolkata - WBPCB",22-10-2025 07:00:00,22.627847,88.380669,PM10,52,177,97
India,West_Bengal,Kolkata,"Rabindra Bharati University, Kolkata - WBPCB",22-10-2025 07:00:00,22.627847,88.380669,SO2,4,11,8
India,West_Bengal,Kolkata,"Rabindra Bharati University, Kolkata - WBPCB",22-10-2025 07:00:00,22.627847,88.380669,CO,26,34,31
India,Bihar,Kishanganj,"SDM Office_Khagra, Kishanganj - BSPCB",22-10-2025 07:00:00,26.0881305,87.93840336,CO,13,15,14
India,Bihar,Kishanganj,"SDM Office_Khagra, Kishanganj - BSPCB",22-10-2025 07:00:00,26.0881305,87.93840336,OZONE,16,18,16
India,Bihar,Manguraha,"Forest Rest House, Manguraha - BSPCB",22-10-2025 07:00:00,27.308328,84.531742,PM10,45,141,80
India,Bihar,Motihari,"Gandak Colony, Motihari - BSPCB",22-10-2025 07:00:00,26.63086,84.90051,PM2.5,18,22,20
India,Bihar,Motihari,"Gandak Colony, Motihari - BSPCB",22-10-2025 07:00:00,26.63086,84.90051,NO2,7,10,8
India,Bihar,Motihari,"Gandak Colony, Motihari - BSPCB",22-10-2025 07:00:00,26.63086,84.90051,CO,30,43,38
India,Bihar,Munger,"Town Hall, Munger - BSPCB",22-10-2025 07:00:00,25.376776,86.471523,CO,26,57,35
India,Bihar,Munger,"Town Hall, Munger - BSPCB",22-10-2025 07:00:00,25.376776,86.471523,OZONE,10,14,11
India,Bihar,Gaya,"SFTI Kusdihra, Gaya - BSPCB",22-10-2025 07:00:00,24.762518,84.982348,NO2,24,27,25
India,Bihar,Hajipur,"Industrial Area, Hajipur - BSPCB",22-10-2025 07:00:00,25.697189,85.245900,PM2.5,64,380,275
India,Bihar,Hajipur,"Industrial Area, Hajipur - BSPCB",22-10-2025 07:00:00,25.697189,85.245900,NH3,4,12,9
India,Bihar,Hajipur,"Industrial Area, Hajipur - BSPCB",22-10-2025 07:00:00,25.697189,85.245900,CO,37,94,69
India,Bihar,Hajipur,"Industrial Area, Hajipur - BSPCB",22-10-2025 07:00:00,25.697189,85.245900,OZONE,2,123,4
India,Bihar,Katihar,"Mirchaibari, Katihar - BSPCB",22-10-2025 07:00:00,25.560083,87.553265,SO2,13,23,18
India,Bihar,Katihar,"Mirchaibari, Katihar - BSPCB",22-10-2025 07:00:00,25.560083,87.553265,CO,51,93,68
India,Bihar,Kishanganj,"SDM Office_Khagra, Kishanganj - BSPCB",22-10-2025 07:00:00,26.0881305,87.93840336,NH3,2,3,3
India,Assam,Guwahati,"Railway Colony, Guwahati - PCBA",22-10-2025 07:00:00,26.181742,91.78063,CO,28,71,48
India,Assam,Nagaon,"Christianpatty, Nagaon - PCBA",22-10-2025 07:00:00,26.349082,92.68449,NO2,1,2,1
India,Assam,Nagaon,"Christianpatty, Nagaon - PCBA",22-10-2025 07:00:00,26.349082,92.68449,SO2,4,14,12
India,Assam,Nalbari,"Bata Chowk, Nalbari - PCBA",22-10-2025 07:00:00,26.446912,91.439057,OZONE,1,214,29
India,Assam,Silchar,"Tarapur, Silchar - PCBA",22-10-2025 07:00:00,24.82827,92.79525,PM2.5,35,90,54
India,Assam,Sivasagar,"Girls College, Sivasagar - PCBA",22-10-2025 07:00:00,26.987634,94.636574,PM2.5,17,97,51
India,Assam,Sivasagar,"Girls College, Sivasagar - PCBA",22-10-2025 07:00:00,26.987634,94.636574,PM10,34,97,54
India,Andhra_Pradesh,Vijayawada,"Rajiv Gandhi Park, Vijayawada - APPCB",22-10-2025 07:00:00,16.509717,80.612222,PM2.5,59,123,73
India,Andhra_Pradesh,Vijayawada,"Rajiv Gandhi Park, Vijayawada - APPCB",22-10-2025 07:00:00,16.509717,80.612222,NH3,5,6,5
India,Andhra_Pradesh,Vijayawada,"Rajiv Nagar, Vijayawada - APPCB",22-10-2025 07:00:00,16.554731,80.649110,NO2,9,20,12
India,Andhra_Pradesh,Visakhapatnam,"GVM Corporation, Visakhapatnam - APPCB",22-10-2025 07:00:00,17.72,83.3,PM10,32,88,53
India,Arunachal_Pradesh,Naharlagun,"Naharlagun, Naharlagun - APSPCB",22-10-2025 07:00:00,27.103358,93.679645,CO,6,21,9
India,Arunachal_Pradesh,Naharlagun,"Naharlagun, Naharlagun - APSPCB",22-10-2025 07:00:00,27.103358,93.679645,OZONE,5,5,5
India,Andhra_Pradesh,Kadapa,"Yerramukkapalli, Kadapa - APPCB",22-10-2025 07:00:00,14.465052,78.824187,OZONE,15,28,15
India,Andhra_Pradesh,Tirumala,"Toll Gate, Tirumala - APPCB",22-10-2025 07:00:00,13.67,79.35,PM2.5,3,34,14
India,Andhra_Pradesh,Tirumala,"Toll Gate, Tirumala - APPCB",22-10-2025 07:00:00,13.67,79.35,PM10,5,35,18
India,Andhra_Pradesh,Tirumala,"Toll Gate, Tirumala - APPCB",22-10-2025 07:00:00,13.67,79.35,NO2,7,13,10
India,Andhra_Pradesh,Tirupati,"Vaikuntapuram, Tirupati - APPCB",22-10-2025 07:00:00,13.615387,79.409230,SO2,19,43,28
India,Bihar,Begusarai,"Lohiyanagar, Begusarai - BSPCB",22-10-2025 07:00:00,25.42742023,86.13886079,SO2,42,64,51
India,Bihar,Bettiah,"Kamalnath Nagar, Bettiah - BSPCB",22-10-2025 07:00:00,26.80365,84.51954,SO2,5,19,11
India,Bihar,Bhagalpur,"DM Office_Kachari Chowk, Bhagalpur - BSPCB",22-10-2025 07:00:00,25.251013,86.989001,SO2,39,68,51
India,Bihar,Bhagalpur,"Mayaganj, Bhagalpur - BSPCB",22-10-2025 07:00:00,25.265194,87.012947,OZONE,6,69,19
India,Andhra_Pradesh,Amaravati,"Secretariat, Amaravati - APPCB",22-10-2025 07:00:00,16.5150833,80.5181667,SO2,7,12,9
India,Andhra_Pradesh,Amaravati,"Secretariat, Amaravati - APPCB",22-10-2025 07:00:00,16.5150833,80.5181667,OZONE,6,16,10
India,Andhra_Pradesh,Chittoor,"Gangineni Cheruvu, Chittoor - APPCB",22-10-2025 07:00:00,13.204880,79.097889,NH3,4,13,6
India,Andhra_Pradesh,Kadapa,"Yerramukkapalli, Kadapa - APPCB",22-10-2025 07:00:00,14.465052,78.824187,NO2,14,41,22
India,Bihar,Araria,"Kharahiya Basti, Araria - BSPCB",22-10-2025 07:00:00,26.146529,87.454184,PM10,31,188,92
India,Bihar,Arrah,"New DM Office, Arrah - BSPCB",22-10-2025 07:00:00,25.5626095,84.663264,NO2,5,9,7
India,Bihar,Arrah,"New DM Office, Arrah - BSPCB",22-10-2025 07:00:00,25.5626095,84.663264,NH3,1,1,1
India,Bihar,Begusarai,"Lohiyanagar, Begusarai - BSPCB",22-10-2025 07:00:00,25.42742023,86.13886079,PM10,109,122,115
India,Bihar,Buxar,"Charitra Van, Buxar - BSPCB",22-10-2025 07:00:00,25.567520,83.966379,SO2,1,6,4
India,Bihar,Chhapra,"Darshan Nagar, Chhapra - BSPCB",22-10-2025 07:00:00,25.7808257,84.7446768,NO2,2,2,2
India,Bihar,Gaya,"Kareemganj, Gaya - BSPCB",22-10-2025 07:00:00,24.792403,84.992416,PM10,103,360,178
India,Assam,Guwahati,"IITG, Guwahati - PCBA",22-10-2025 07:00:00,26.2028636,91.70046436,CO,5,14,11
India,Assam,Guwahati,"LGBI Airport, Guwahati - PCBA",22-10-2025 07:00:00,26.10887,91.589544,NH3,6,6,6
India,Assam,Guwahati,"Railway Colony, Guwahati - PCBA",22-10-2025 07:00:00,26.181742,91.78063,PM2.5,26,400,181
India,Bihar,Patna,"Govt. High School Shikarpur, Patna - BSPCB",22-10-2025 07:00:00,25.592539,85.227158,SO2,5,52,9
India,Bihar,Patna,"IGSC Planetarium Complex, Patna - BSPCB",22-10-2025 07:00:00,25.610369,85.132568,PM2.5,78,366,212
India,Bihar,Patna,"IGSC Planetarium Complex, Patna - BSPCB",22-10-2025 07:00:00,25.610369,85.132568,NO2,1,15,11
India,Bihar,Patna,"IGSC Planetarium Complex, Patna - BSPCB",22-10-2025 07:00:00,25.610369,85.132568,CO,34,62,61
India,Bihar,Patna,"IGSC Planetarium Complex, Patna - BSPCB",22-10-2025 07:00:00,25.610369,85.132568,OZONE,43,48,45
India,Bihar,Patna,"Muradpur, Patna - BSPCB",22-10-2025 07:00:00,25.619651,85.147382,PM2.5,2,401,172
India,Bihar,Patna,"Muradpur, Patna - BSPCB",22-10-2025 07:00:00,25.619651,85.147382,NO2,14,20,16
India,Bihar,Patna,"Rajbansi Nagar, Patna - BSPCB",22-10-2025 07:00:00,25.599486,85.113666,PM2.5,54,242,123
India,Bihar,Patna,"Rajbansi Nagar, Patna - BSPCB",22-10-2025 07:00:00,25.599486,85.113666,NO2,2,139,45
India,Bihar,Patna,"Samanpura, Patna - BSPCB",22-10-2025 07:00:00,25.596727,85.085624,OZONE,6,95,11
India,Bihar,Purnia,"Mariam Nagar, Purnia - BSPCB",22-10-2025 07:00:00,25.366336,87.117468,OZONE,13,38,18
India,Bihar,Rajgir,"Dangi Tola, Rajgir - BSPCB",22-10-2025 07:00:00,25.03280,85.41948,SO2,19,23,21
India,Bihar,Rajgir,"Dangi Tola, Rajgir - BSPCB",22-10-2025 07:00:00,25.03280,85.41948,CO,80,97,89
India,Bihar,Saharsa,"Police Line, Saharsa - BSPCB",22-10-2025 07:00:00,25.892357,86.590325,NO2,6,8,7
India,Bihar,Saharsa,"Police Line, Saharsa - BSPCB",22-10-2025 07:00:00,25.892357,86.590325,SO2,13,18,16
India,Bihar,Saharsa,"Police Line, Saharsa - BSPCB",22-10-2025 07:00:00,25.892357,86.590325,CO,30,42,36
India,Chhattisgarh,Bhilai,"Hathkhoj, Bhilai - CECB",22-10-2025 07:00:00,21.224231,81.408350,CO,10,32,27
India,Chhattisgarh,Bilaspur,"Mangala, Bilaspur - NTPC",22-10-2025 07:00:00,22.08815,82.13737,PM2.5,NA,NA,NA
India,Chhattisgarh,Chhal,"Nawapara SECL Colony, Chhal - CECB",22-10-2025 07:00:00,22.118125,83.140608,PM10,28,118,71
India,Chhattisgarh,Chhal,"Nawapara SECL Colony, Chhal - CECB",22-10-2025 07:00:00,22.118125,83.140608,NO2,1,2,1
India,Chhattisgarh,Korba,"Rampur, Korba - CECB",22-10-2025 07:00:00,22.368195,82.746431,PM10,52,75,54
India,Chhattisgarh,Korba,"Urja Nagar, Korba - CECB",22-10-2025 07:00:00,22.348441,82.549611,NH3,1,2,2
India,Chhattisgarh,Korba,"Urja Nagar, Korba - CECB",22-10-2025 07:00:00,22.348441,82.549611,OZONE,35,36,35
India,Chhattisgarh,Kunjemura,"OP Jindal School, Kunjemura - CECB",22-10-2025 07:00:00,22.126650,83.483212,NO2,3,3,3
India,Chhattisgarh,Kunjemura,"OP Jindal School, Kunjemura - CECB",22-10-2025 07:00:00,22.126650,83.483212,OZONE,11,22,12
India,Chhattisgarh,Milupara,"Govt. Higher Secondary School, Milupara - CECB",22-10-2025 07:00:00,22.1910172,83.5197009,OZONE,7,93,13
India,Chhattisgarh,Raipur,"AIIMS, Raipur - CECB",22-10-2025 07:00:00,21.258815,81.578979,NH3,4,5,4
India,Chhattisgarh,Raipur,"AIIMS, Raipur - CECB",22-10-2025 07:00:00,21.258815,81.578979,CO,24,48,45
India,Delhi,Delhi,"Bawana, Delhi - DPCC",22-10-2025 07:00:00,28.776200,77.051074,OZONE,4,139,5
India,Delhi,Delhi,"Burari Crossing, Delhi - IMD",22-10-2025 07:00:00,28.7256504,77.2011573,PM2.5,165,480,354
India,Delhi,Delhi,"Burari Crossing, Delhi - IMD",22-10-2025 07:00:00,28.7256504,77.2011573,NO2,14,43,23
India,Delhi,Delhi,"Burari Crossing, Delhi - IMD",22-10-2025 07:00:00,28.7256504,77.2011573,OZONE,11,160,13
India,Delhi,Delhi,"Chandni Chowk, Delhi - IITM",22-10-2025 07:00:00,28.656756,77.227234,NH3,8,37,21
India,Delhi,Delhi,"DTU, Delhi - CPCB",22-10-2025 07:00:00,28.7500499,77.1112615,PM2.5,97,338,230
India,Bihar,Samastipur,"DM Office_Kasipur, Samastipur - BSPCB",22-10-2025 07:00:00,25.859655,85.77944,SO2,20,33,26
India,Bihar,Siwan,"Chitragupta Nagar, Siwan - BSPCB",22-10-2025 07:00:00,26.2271665,84.3570427,PM2.5,27,90,52
India,Bihar,Siwan,"Chitragupta Nagar, Siwan - BSPCB",22-10-2025 07:00:00,26.2271665,84.3570427,CO,80,109,98
India,Chandigarh,Chandigarh,"Sector 22, Chandigarh - CPCC",22-10-2025 07:00:00,30.735567,76.775714,PM10,57,477,138
India,Delhi,Delhi,"Ashok Vihar, Delhi - DPCC",22-10-2025 07:00:00,28.695381,77.181665,NO2,17,105,59
India,Delhi,Delhi,"Ashok Vihar, Delhi - DPCC",22-10-2025 07:00:00,28.695381,77.181665,SO2,20,53,32
India,Delhi,Delhi,"Ashok Vihar, Delhi - DPCC",22-10-2025 07:00:00,28.695381,77.181665,CO,23,111,71
India,Delhi,Delhi,"Bawana, Delhi - DPCC",22-10-2025 07:00:00,28.776200,77.051074,PM2.5,237,500,376
India,Bihar,Muzaffarpur,"Buddha Colony, Muzaffarpur - BSPCB",22-10-2025 07:00:00,26.11442,85.39813,SO2,3,6,4
India,Bihar,Muzaffarpur,"Muzaffarpur Collectorate, Muzaffarpur - BSPCB",22-10-2025 07:00:00,26.1209,85.3647,PM2.5,57,90,76
India,Bihar,Muzaffarpur,"Muzaffarpur Collectorate, Muzaffarpur - BSPCB",22-10-2025 07:00:00,26.1209,85.3647,OZONE,12,74,12
India,Chandigarh,Chandigarh,"Sector-53, Chandigarh - CPCC",22-10-2025 07:00:00,30.719859,76.738637,PM2.5,33,500,152
India,Chandigarh,Chandigarh,"Sector-53, Chandigarh - CPCC",22-10-2025 07:00:00,30.719859,76.738637,PM10,39,500,119
India,Chhattisgarh,Bhilai,"Hathkhoj, Bhilai - CECB",22-10-2025 07:00:00,21.224231,81.408350,PM10,30,99,58
India,Delhi,Delhi,"DTU, Delhi - CPCB",22-10-2025 07:00:00,28.7500499,77.1112615,CO,6,56,49
India,Delhi,Delhi,"Dr. Karni Singh Shooting Range, Delhi - DPCC",22-10-2025 07:00:00,28.498571,77.264840,NO2,27,104,52
India,Delhi,Delhi,"Dr. Karni Singh Shooting Range, Delhi - DPCC",22-10-2025 07:00:00,28.498571,77.264840,SO2,13,28,20
India,Delhi,Delhi,"Dwarka-Sector 8, Delhi - DPCC ",22-10-2025 07:00:00,28.5710274,77.0719006,PM2.5,123,500,353
India,Delhi,Delhi,"Dwarka-Sector 8, Delhi - DPCC ",22-10-2025 07:00:00,28.5710274,77.0719006,CO,62,151,116
India,Delhi,Delhi,"Dwarka-Sector 8, Delhi - DPCC ",22-10-2025 07:00:00,28.5710274,77.0719006,OZONE,12,104,28
India,Delhi,Delhi,"IGI Airport (T3), Delhi - IMD",22-10-2025 07:00:00,28.5627763,77.1180053,NO2,43,201,126
India,Delhi,Delhi,"ITO, Delhi - CPCB",22-10-2025 07:00:00,28.628624,77.241060,PM10,27,500,231
India,Delhi,Delhi,"ITO, Delhi - CPCB",22-10-2025 07:00:00,28.628624,77.241060,NO2,71,114,95
India,Delhi,Delhi,"Jahangirpuri, Delhi - DPCC",22-10-2025 07:00:00,28.732820,77.170633,PM10,137,500,292
India,Delhi,Delhi,"Jawaharlal Nehru Stadium, Delhi - DPCC",22-10-2025 07:00:00,28.580280,77.233829,PM2.5,177,500,354
India,Delhi,Delhi,"Jawaharlal Nehru Stadium, Delhi - DPCC",22-10-2025 07:00:00,28.580280,77.233829,NH3,9,16,12
India,Delhi,Delhi,"Jawaharlal Nehru Stadium, Delhi - DPCC",22-10-2025 07:00:00,28.580280,77.233829,CO,31,126,115
India,Delhi,Delhi,"Lodhi Road, Delhi - IITM",22-10-2025 07:00:00,28.588333,77.221667,NO2,77,194,127
India,Gujarat,Ahmedabad,"Maninagar, Ahmedabad - GPCB",22-10-2025 07:00:00,23.002657,72.591912,PM2.5,47,305,139
India,Gujarat,Ahmedabad,"Maninagar, Ahmedabad - GPCB",22-10-2025 07:00:00,23.002657,72.591912,SO2,17,26,22
India,Gujarat,Ahmedabad,"Raikhad, Ahmedabad - IITM",22-10-2025 07:00:00,23.020509,72.579261,NH3,9,21,12
India,Gujarat,Ahmedabad,"Raikhad, Ahmedabad - IITM",22-10-2025 07:00:00,23.020509,72.579261,SO2,14,32,21
India,Gujarat,Ahmedabad,"Raikhad, Ahmedabad - IITM",22-10-2025 07:00:00,23.020509,72.579261,OZONE,2,89,35
India,Gujarat,Ahmedabad,"Rakhial, Ahmedabad - IITM",22-10-2025 07:00:00,23.016834,72.625775,PM2.5,67,320,150
India,Gujarat,Ahmedabad,"Rakhial, Ahmedabad - IITM",22-10-2025 07:00:00,23.016834,72.625775,OZONE,4,70,39
India,Delhi,Delhi,"Pusa, Delhi - DPCC",22-10-2025 07:00:00,28.639652,77.146275,NH3,13,21,16
India,Delhi,Delhi,"Pusa, Delhi - DPCC",22-10-2025 07:00:00,28.639652,77.146275,SO2,7,24,13
India,Delhi,Delhi,"Pusa, Delhi - IMD",22-10-2025 07:00:00,28.636110,77.173332,PM10,65,500,274
India,Delhi,Delhi,"Pusa, Delhi - IMD",22-10-2025 07:00:00,28.636110,77.173332,CO,12,117,90
India,Delhi,Delhi,"Rohini, Delhi - DPCC",22-10-2025 07:00:00,28.732528,77.119920,PM10,124,489,322
India,Delhi,Delhi,"Rohini, Delhi - DPCC",22-10-2025 07:00:00,28.732528,77.119920,NH3,11,16,13
India,Delhi,Delhi,"Rohini, Delhi - DPCC",22-10-2025 07:00:00,28.732528,77.119920,OZONE,9,117,10
India,Delhi,Delhi,"North Campus, DU, Delhi - IMD",22-10-2025 07:00:00,28.6573814,77.1585447,PM2.5,116,500,350
India,Delhi,Delhi,"North Campus, DU, Delhi - IMD",22-10-2025 07:00:00,28.6573814,77.1585447,CO,15,128,94
India,Delhi,Delhi,"Okhla Phase-2, Delhi - DPCC",22-10-2025 07:00:00,28.530785,77.271255,SO2,15,29,21
India,Delhi,Delhi,"Okhla Phase-2, Delhi - DPCC",22-10-2025 07:00:00,28.530785,77.271255,CO,18,116,106
India,Delhi,Delhi,"Patparganj, Delhi - DPCC",22-10-2025 07:00:00,28.623763,77.287209,PM10,125,491,314
India,Delhi,Delhi,"Shadipur, Delhi - CPCB",22-10-2025 07:00:00,28.6514781,77.1473105,PM10,127,452,288
India,Delhi,Delhi,"Sirifort, Delhi - CPCB",22-10-2025 07:00:00,28.5504249,77.2159377,PM2.5,268,500,345
India,Delhi,Delhi,"Sonia Vihar, Delhi - DPCC",22-10-2025 07:00:00,28.710508,77.249485,NO2,19,62,32
India,Delhi,Delhi,"Sonia Vihar, Delhi - DPCC",22-10-2025 07:00:00,28.710508,77.249485,CO,22,118,91
India,Delhi,Delhi,"Sonia Vihar, Delhi - DPCC",22-10-2025 07:00:00,28.710508,77.249485,OZONE,6,112,8
India,Delhi,Delhi,"Sri Aurobindo Marg, Delhi - DPCC",22-10-2025 07:00:00,28.531346,77.190156,SO2,13,23,18
India,Delhi,Delhi,"Sri Aurobindo Marg, Delhi - DPCC",22-10-2025 07:00:00,28.531346,77.190156,OZONE,1,79,2
India,Delhi,Delhi,"Vivek Vihar, Delhi - DPCC",22-10-2025 07:00:00,28.672342,77.315260,PM2.5,140,500,357
India,Delhi,Delhi,"Vivek Vihar, Delhi - DPCC",22-10-2025 07:00:00,28.672342,77.315260,CO,31,101,69
India,Delhi,Delhi,"Lodhi Road, Delhi - IMD",22-10-2025 07:00:00,28.5918245,77.2273074,OZONE,19,124,20
India,Delhi,Delhi,"Major Dhyan Chand National Stadium, Delhi - DPCC",22-10-2025 07:00:00,28.611281,77.237738,PM2.5,200,500,330
India,Delhi,Delhi,"Mandir Marg, Delhi - DPCC",22-10-2025 07:00:00,28.636429,77.201067,OZONE,8,166,9
India,Delhi,Delhi,"NSIT Dwarka, Delhi - CPCB",22-10-2025 07:00:00,28.60909,77.0325413,PM10,70,472,264
India,Delhi,Delhi,"Najafgarh, Delhi - DPCC",22-10-2025 07:00:00,28.570173,76.933762,PM2.5,140,500,304
India,Gujarat,Ahmedabad,"SAC ISRO Bopal, Ahmedabad - IITM",22-10-2025 07:00:00,23.041137,72.456691,NH3,2,3,3
India,Gujarat,Ahmedabad,"SAC ISRO Satellite, Ahmedabad - IITM",22-10-2025 07:00:00,23.023389,72.515201,PM2.5,50,204,92
India,Gujarat,Ahmedabad,"SAC ISRO Satellite, Ahmedabad - IITM",22-10-2025 07:00:00,23.023389,72.515201,SO2,13,114,49
India,Gujarat,Ahmedabad,"SVPI Airport Hansol, Ahmedabad - IITM",22-10-2025 07:00:00,23.076793,72.627874,PM2.5,7,117,75
India,Gujarat,Ahmedabad,"SVPI Airport Hansol, Ahmedabad - IITM",22-10-2025 07:00:00,23.076793,72.627874,NO2,38,63,46
India,Gujarat,Ahmedabad,"SVPI Airport Hansol, Ahmedabad - IITM",22-10-2025 07:00:00,23.076793,72.627874,NH3,2,3,2
India,Gujarat,Ahmedabad,"SVPI Airport Hansol, Ahmedabad - IITM",22-10-2025 07:00:00,23.076793,72.627874,CO,28,57,34
India,Gujarat,Ankleshwar,"GIDC, Ankleshwar - GPCB",22-10-2025 07:00:00,21.613267,73.010555,PM2.5,90,260,158
India,Gujarat,Ankleshwar,"GIDC, Ankleshwar - GPCB",22-10-2025 07:00:00,21.613267,73.010555,PM10,72,113,91
India,Gujarat,Ankleshwar,"GIDC, Ankleshwar - GPCB",22-10-2025 07:00:00,21.613267,73.010555,NO2,27,28,28
India,Haryana,Faridabad,"New Industrial Town, Faridabad - HSPCB",22-10-2025 07:00:00,28.39072,77.30059,SO2,8,8,8
India,Haryana,Faridabad,"New Industrial Town, Faridabad - HSPCB",22-10-2025 07:00:00,28.39072,77.30059,OZONE,26,34,30
India,Haryana,Faridabad,"Sector 30, Faridabad - HSPCB",22-10-2025 07:00:00,28.4417,77.3217,PM2.5,166,301,211
India,Haryana,Faridabad,"Sector 30, Faridabad - HSPCB",22-10-2025 07:00:00,28.4417,77.3217,PM10,166,286,195
India,Haryana,Faridabad,"Sector 30, Faridabad - HSPCB",22-10-2025 07:00:00,28.4417,77.3217,NO2,36,39,38
India,Haryana,Faridabad,"Sector 30, Faridabad - HSPCB",22-10-2025 07:00:00,28.4417,77.3217,NH3,11,12,11
India,Haryana,Faridabad,"Sector 30, Faridabad - HSPCB",22-10-2025 07:00:00,28.4417,77.3217,CO,60,66,62
India,Haryana,Fatehabad,"Huda Sector, Fatehabad - HSPCB",22-10-2025 07:00:00,29.503664,75.467934,PM10,123,205,166
India,Haryana,Fatehabad,"Huda Sector, Fatehabad - HSPCB",22-10-2025 07:00:00,29.503664,75.467934,NO2,18,20,19
India,Haryana,Gurugram,"Sector-51, Gurugram - HSPCB",22-10-2025 07:00:00,28.4227,77.0667,NH3,7,15,11
India,Haryana,Hisar,"Urban Estate-II, Hisar - HSPCB",22-10-2025 07:00:00,29.140560,75.744941,PM2.5,97,249,185
India,Haryana,Hisar,"Urban Estate-II, Hisar - HSPCB",22-10-2025 07:00:00,29.140560,75.744941,NO2,11,12,12
India,Haryana,Hisar,"Urban Estate-II, Hisar - HSPCB",22-10-2025 07:00:00,29.140560,75.744941,NH3,4,5,5
India,Haryana,Hisar,"Urban Estate-II, Hisar - HSPCB",22-10-2025 07:00:00,29.140560,75.744941,SO2,14,19,16
India,Haryana,Hisar,"Urban Estate-II, Hisar - HSPCB",22-10-2025 07:00:00,29.140560,75.744941,CO,25,45,30
India,Haryana,Hisar,"Urban Estate-II, Hisar - HSPCB",22-10-2025 07:00:00,29.140560,75.744941,OZONE,46,90,55
India,Haryana,Jind,"Police Lines, Jind - HSPCB",22-10-2025 07:00:00,29.307814,76.337619,OZONE,1,3,2
India,Gujarat,Surat,"Science Center, Surat - SMC",22-10-2025 07:00:00,21.170046,72.795405,CO,36,39,38
India,Gujarat,Vapi,"Phase-1 GIDC, Vapi - GPCB",22-10-2025 07:00:00,20.362421,72.918013,PM10,66,198,114
India,Haryana,Ambala,"Patti Mehar, Ambala - HSPCB",22-10-2025 07:00:00,30.379589,76.778328,NO2,19,24,22
India,Haryana,Ambala,"Patti Mehar, Ambala - HSPCB",22-10-2025 07:00:00,30.379589,76.778328,SO2,NA,NA,NA
India,Haryana,Ambala,"Patti Mehar, Ambala - HSPCB",22-10-2025 07:00:00,30.379589,76.778328,CO,101,106,103
India,Haryana,Bahadurgarh,"Arya Nagar, Bahadurgarh - HSPCB",22-10-2025 07:00:00,28.6701,76.9254,NO2,12,15,14
India,Haryana,Bahadurgarh,"Arya Nagar, Bahadurgarh - HSPCB",22-10-2025 07:00:00,28.6701,76.9254,OZONE,16,21,18
India,Haryana,Ballabgarh,"Nathu Colony, Ballabgarh - HSPCB",22-10-2025 07:00:00,28.3419248,77.319699,PM2.5,138,425,312
India,Haryana,Bhiwani,"H.B. Colony, Bhiwani - HSPCB",22-10-2025 07:00:00,28.806223,76.141105,NH3,1,9,8
India,Haryana,Dharuhera,"Municipal Corporation Office, Dharuhera -  HSPCB",22-10-2025 07:00:00,28.206800,76.799700,PM10,151,479,357
India,Haryana,Dharuhera,"Municipal Corporation Office, Dharuhera -  HSPCB",22-10-2025 07:00:00,28.206800,76.799700,SO2,14,18,16
India,Gujarat,Gandhinagar,"GIFT City, Gandhinagar - IITM",22-10-2025 07:00:00,23.163798,72.677768,CO,32,54,48
India,Gujarat,Gandhinagar,"IIPHG Lekawada, Gandhinagar - IITM",22-10-2025 07:00:00,23.243639,72.68994,SO2,6,9,7
India,Gujarat,Gandhinagar,"IIPHG Lekawada, Gandhinagar - IITM",22-10-2025 07:00:00,23.243639,72.68994,CO,24,85,30
India,Gujarat,Gandhinagar,"IIPHG Lekawada, Gandhinagar - IITM",22-10-2025 07:00:00,23.243639,72.68994,OZONE,5,41,6
India,Gujarat,Gandhinagar,"Sector-10, Gandhinagar - GPCB",22-10-2025 07:00:00,23.221714,72.654328,NH3,2,4,2
India,Gujarat,Surat,"Science Center, Surat - SMC",22-10-2025 07:00:00,21.170046,72.795405,SO2,22,32,26
India,Haryana,Panipat,"Sector-18, Panipat - HSPCB",22-10-2025 07:00:00,29.432304,76.972765,SO2,6,10,8
India,Haryana,Rohtak,"MD University, Rohtak - HSPCB",22-10-2025 07:00:00,28.52123,76.37138,PM2.5,308,401,352
India,Haryana,Rohtak,"MD University, Rohtak - HSPCB",22-10-2025 07:00:00,28.52123,76.37138,CO,60,105,63
India,Haryana,Sonipat,"Murthal, Sonipat - HSPCB",22-10-2025 07:00:00,29.027200,77.062100,CO,54,60,54
India,Haryana,Sonipat,"Murthal, Sonipat - HSPCB",22-10-2025 07:00:00,29.027200,77.062100,OZONE,25,26,26
India,Haryana,Narnaul,"Shastri Nagar, Narnaul - HSPCB",22-10-2025 07:00:00,28.060249,76.113115,PM2.5,325,406,370
India,Haryana,Panchgaon,"Amity University, Panchgaon - IITM",22-10-2025 07:00:00,28.3153,76.9143,SO2,1,11,6
India,Haryana,Panchkula,"Sector-6, Panchkula - HSPCB ",22-10-2025 07:00:00,30.7057778,76.8531805555555,SO2,8,9,9
India,Haryana,Panchkula,"Sector-6, Panchkula - HSPCB ",22-10-2025 07:00:00,30.7057778,76.8531805555555,OZONE,55,86,59
India,Haryana,Karnal,"Sector-12, Karnal - HSPCB",22-10-2025 07:00:00,29.695300,77.002700,NO2,9,11,10
