country,state,city,station,last_update,latitude,longitude,pollutant_id,min_value,max_value,avg_value
India,Bihar,Motihari,"Gandak Colony, Motihari - BSPCB",23-11-2025 08:00:00,26.63086,84.90051,NO2,9,13,11
India,Bihar,Motihari,"Gandak Colony, Motihari - BSPCB",23-11-2025 08:00:00,26.63086,84.90051,OZONE,2,4,2
India,Bihar,Munger,"Town Hall, Munger - BSPCB",23-11-2025 08:00:00,25.376776,86.471523,PM2.5,73,233,143
India,Bihar,Muzaffarpur,"Buddha Colony, Muzaffarpur - BSPCB",23-11-2025 08:00:00,26.11442,85.39813,PM2.5,144,321,255
India,Bihar,Muzaffarpur,"Buddha Colony, Muzaffarpur - BSPCB",23-11-2025 08:00:00,26.11442,85.39813,PM10,94,159,129
India,Bihar,Muzaffarpur,"Buddha Colony, Muzaffarpur - BSPCB",23-11-2025 08:00:00,26.11442,85.39813,SO2,3,6,5
India,Bihar,Muzaffarpur,"Buddha Colony, Muzaffarpur - BSPCB",23-11-2025 08:00:00,26.11442,85.39813,OZONE,24,146,29
India,Bihar,Muzaffarpur,"MIT-Daudpur Kothi, Muzaffarpur - BSPCB",23-11-2025 08:00:00,26.1403345,85.3650192,NO2,16,18,17
India,Bihar,Muzaffarpur,"Muzaffarpur Collectorate, Muzaffarpur - BSPCB",23-11-2025 08:00:00,26.1209,85.3647,OZONE,9,46,9
India,Assam,Guwahati,"Pan Bazaar, Guwahati - PCBA",23-11-2025 08:00:00,26.187500,91.744194,SO2,31,59,44
India,Assam,Nagaon,"Christianpatty, Nagaon - PCBA",23-11-2025 08:00:00,26.349082,92.68449,PM2.5,28,29,28
India,Assam,Nagaon,"Christianpatty, Nagaon - PCBA",23-11-2025 08:00:00,26.349082,92.68449,PM10,32,33,32
India,Assam,Nagaon,"Christianpatty, Nagaon - PCBA",23-11-2025 08:00:00,26.349082,92.68449,OZONE,9,9,9
India,Assam,Nalbari,"Bata Chowk, Nalbari - PCBA",23-11-2025 08:00:00,26.446912,91.439057,PM2.5,22,117,52
India,Assam,Nalbari,"Bata Chowk, Nalbari - PCBA",23-11-2025 08:00:00,26.446912,91.439057,OZONE,19,20,20
India,Assam,Silchar,"Tarapur, Silchar - PCBA",23-11-2025 08:00:00,24.82827,92.79525,PM10,42,78,58
India,Assam,Silchar,"Tarapur, Silchar - PCBA",23-11-2025 08:00:00,24.82827,92.79525,OZONE,1,13,2
India,Assam,Sivasagar,"Girls College, Sivasagar - PCBA",23-11-2025 08:00:00,26.987634,94.636574,PM2.5,18,66,39
India,Andhra_Pradesh,Tirupati,"Vaikuntapuram, Tirupati - APPCB",23-11-2025 08:00:00,13.615387,79.409230,NH3,NA,NA,NA
India,Andhra_Pradesh,Tirupati,"Vaikuntapuram, Tirupati - APPCB",23-11-2025 08:00:00,13.615387,79.409230,SO2,NA,NA,NA
India,Andhra_Pradesh,Vijayawada,"HB Colony, Vijayawada - APPCB",23-11-2025 08:00:00,16.536107,80.594233,PM2.5,48,99,72
India,Andhra_Pradesh,Vijayawada,"HB Colony, Vijayawada - APPCB",23-11-2025 08:00:00,16.536107,80.594233,PM10,48,107,77
India,Andhra_Pradesh,Vijayawada,"Rajiv Gandhi Park, Vijayawada - APPCB",23-11-2025 08:00:00,16.509717,80.612222,PM10,46,58,52
India,Andhra_Pradesh,Vijayawada,"Rajiv Gandhi Park, Vijayawada - APPCB",23-11-2025 08:00:00,16.509717,80.612222,NO2,38,54,45
India,Andhra_Pradesh,Vijayawada,"Rajiv Nagar, Vijayawada - APPCB",23-11-2025 08:00:00,16.554731,80.649110,OZONE,62,347,64
India,Andhra_Pradesh,Visakhapatnam,"GVM Corporation, Visakhapatnam - APPCB",23-11-2025 08:00:00,17.72,83.3,PM2.5,35,92,62
India,Andhra_Pradesh,Visakhapatnam,"GVM Corporation, Visakhapatnam - APPCB",23-11-2025 08:00:00,17.72,83.3,OZONE,32,65,49
India,Arunachal_Pradesh,Naharlagun,"Naharlagun, Naharlagun - APSPCB",23-11-2025 08:00:00,27.103358,93.679645,NO2,6,6,6
India,Assam,Guwahati,"IITG, Guwahati - PCBA",23-11-2025 08:00:00,26.2028636,91.70046436,NH3,5,5,5
India,Assam,Guwahati,"IITG, Guwahati - PCBA",23-11-2025 08:00:00,26.2028636,91.70046436,OZONE,1,46,1
India,Assam,Guwahati,"LGBI Airport, Guwahati - PCBA",23-11-2025 08:00:00,26.10887,91.589544,PM2.5,28,77,54
India,Assam,Guwahati,"LGBI Airport, Guwahati - PCBA",23-11-2025 08:00:00,26.10887,91.589544,NH3,6,6,6
India,Assam,Guwahati,"LGBI Airport, Guwahati - PCBA",23-11-2025 08:00:00,26.10887,91.589544,SO2,9,43,15
India,Assam,Sivasagar,"Girls College, Sivasagar - PCBA",23-11-2025 08:00:00,26.987634,94.636574,NH3,7,14,9
India,Bihar,Arrah,"New DM Office, Arrah - BSPCB",23-11-2025 08:00:00,25.5626095,84.663264,PM2.5,93,293,185
India,Bihar,Arrah,"New DM Office, Arrah - BSPCB",23-11-2025 08:00:00,25.5626095,84.663264,NO2,6,10,7
India,Bihar,Arrah,"New DM Office, Arrah - BSPCB",23-11-2025 08:00:00,25.5626095,84.663264,OZONE,7,8,8
India,Bihar,Aurangabad,"Gurdeo Nagar, Aurangabad - BSPCB",23-11-2025 08:00:00,24.75746,84.366208,NH3,1,2,1
India,Bihar,Begusarai,"Lohiyanagar, Begusarai - BSPCB",23-11-2025 08:00:00,25.42742023,86.13886079,NO2,18,23,20
India,Bihar,Begusarai,"Lohiyanagar, Begusarai - BSPCB",23-11-2025 08:00:00,25.42742023,86.13886079,SO2,9,67,29
India,Bihar,Bettiah,"Kamalnath Nagar, Bettiah - BSPCB",23-11-2025 08:00:00,26.80365,84.51954,SO2,1,11,6
India,Bihar,Bettiah,"Kamalnath Nagar, Bettiah - BSPCB",23-11-2025 08:00:00,26.80365,84.51954,CO,58,109,102
India,Bihar,Bhagalpur,"Mayaganj, Bhagalpur - BSPCB",23-11-2025 08:00:00,25.265194,87.012947,PM10,49,127,88
India,Bihar,Bhagalpur,"Mayaganj, Bhagalpur - BSPCB",23-11-2025 08:00:00,25.265194,87.012947,OZONE,26,84,48
India,Bihar,Bihar Sharif,"D M Colony, Bihar Sharif - BSPCB",23-11-2025 08:00:00,25.204762,85.514960,OZONE,NA,NA,NA
India,Bihar,Buxar,"Charitra Van, Buxar - BSPCB",23-11-2025 08:00:00,25.567520,83.966379,PM2.5,93,257,173
India,Bihar,Buxar,"Charitra Van, Buxar - BSPCB",23-11-2025 08:00:00,25.567520,83.966379,NO2,9,10,9
India,Andhra_Pradesh,Chittoor,"Gangineni Cheruvu, Chittoor - APPCB",23-11-2025 08:00:00,13.204880,79.097889,CO,10,40,22
India,Andhra_Pradesh,Kadapa,"Yerramukkapalli, Kadapa - APPCB",23-11-2025 08:00:00,14.465052,78.824187,NO2,23,23,23
India,Andhra_Pradesh,Rajamahendravaram,"Anand Kala Kshetram, Rajamahendravaram - APPCB",23-11-2025 08:00:00,16.9872867,81.7363176,NO2,12,28,20
India,Andhra_Pradesh,Rajamahendravaram,"Anand Kala Kshetram, Rajamahendravaram - APPCB",23-11-2025 08:00:00,16.9872867,81.7363176,SO2,5,22,10
India,Andhra_Pradesh,Tirumala,"Toll Gate, Tirumala - APPCB",23-11-2025 08:00:00,13.67,79.35,PM2.5,2,23,14
India,Andhra_Pradesh,Tirumala,"Toll Gate, Tirumala - APPCB",23-11-2025 08:00:00,13.67,79.35,PM10,4,20,14
India,Andhra_Pradesh,Tirumala,"Toll Gate, Tirumala - APPCB",23-11-2025 08:00:00,13.67,79.35,CO,6,28,23
India,Bihar,Hajipur,"Industrial Area, Hajipur - BSPCB",23-11-2025 08:00:00,25.697189,85.245900,PM10,78,366,126
India,Bihar,Hajipur,"Industrial Area, Hajipur - BSPCB",23-11-2025 08:00:00,25.697189,85.245900,NH3,5,12,8
India,Bihar,Katihar,"Mirchaibari, Katihar - BSPCB",23-11-2025 08:00:00,25.560083,87.553265,NH3,1,1,1
India,Bihar,Katihar,"Mirchaibari, Katihar - BSPCB",23-11-2025 08:00:00,25.560083,87.553265,CO,76,105,91
India,Bihar,Kishanganj,"SDM Office_Khagra, Kishanganj - BSPCB",23-11-2025 08:00:00,26.0881305,87.93840336,NO2,9,12,11
India,Bihar,Kishanganj,"SDM Office_Khagra, Kishanganj - BSPCB",23-11-2025 08:00:00,26.0881305,87.93840336,CO,16,23,19
India,Bihar,Buxar,"Charitra Van, Buxar - BSPCB",23-11-2025 08:00:00,25.567520,83.966379,SO2,2,6,3
India,Bihar,Chhapra,"Darshan Nagar, Chhapra - BSPCB",23-11-2025 08:00:00,25.7808257,84.7446768,PM10,42,100,69
India,Bihar,Gaya,"Collectorate, Gaya - BSPCB",23-11-2025 08:00:00,24.7955,84.9994,PM2.5,139,310,214
India,Bihar,Gaya,"SFTI Kusdihra, Gaya - BSPCB",23-11-2025 08:00:00,24.762518,84.982348,PM2.5,37,53,43
India,Bihar,Gaya,"SFTI Kusdihra, Gaya - BSPCB",23-11-2025 08:00:00,24.762518,84.982348,CO,24,46,43
India,Andaman and Nicobar,Sri Vijaya Puram,"Police Line, Sri Vijaya Puram - ANPCC",23-11-2025 08:00:00,11.654054,92.734055,NH3,NA,NA,NA
India,Andaman and Nicobar,Sri Vijaya Puram,"Police Line, Sri Vijaya Puram - ANPCC",23-11-2025 08:00:00,11.654054,92.734055,CO,12,30,19
India,Andhra_Pradesh,Anantapur,"Gulzarpet, Anantapur - APPCB",23-11-2025 08:00:00,14.675886,77.593027,NH3,4,4,4
India,Andhra_Pradesh,Anantapur,"Gulzarpet, Anantapur - APPCB",23-11-2025 08:00:00,14.675886,77.593027,SO2,12,12,12
India,Chhattisgarh,Raipur,"AIIMS, Raipur - CECB",23-11-2025 08:00:00,21.258815,81.578979,SO2,5,8,7
India,Chhattisgarh,Raipur,"Krishak Nagar, Raipur - CECB",23-11-2025 08:00:00,21.237755,81.705301,NO2,14,22,18
India,Chhattisgarh,Raipur,"Krishak Nagar, Raipur - CECB",23-11-2025 08:00:00,21.237755,81.705301,SO2,7,10,8
India,Chhattisgarh,Raipur,"Siltara Phase-II, Raipur - CECB",23-11-2025 08:00:00,21.371751,81.664929,PM2.5,22,50,34
India,Chhattisgarh,Raipur,"Siltara Phase-II, Raipur - CECB",23-11-2025 08:00:00,21.371751,81.664929,SO2,3,20,7
India,Chhattisgarh,Tumidih,"OP Jindal Industrial Park, Tumidih - CECB",23-11-2025 08:00:00,22.06631475,83.33820077,NO2,23,95,43
India,Chhattisgarh,Tumidih,"OP Jindal Industrial Park, Tumidih - CECB",23-11-2025 08:00:00,22.06631475,83.33820077,NH3,1,2,2
India,Chandigarh,Chandigarh,"Sector 22, Chandigarh - CPCC",23-11-2025 08:00:00,30.735567,76.775714,NO2,28,159,79
India,Chandigarh,Chandigarh,"Sector 22, Chandigarh - CPCC",23-11-2025 08:00:00,30.735567,76.775714,SO2,4,50,14
India,Chandigarh,Chandigarh,"Sector 22, Chandigarh - CPCC",23-11-2025 08:00:00,30.735567,76.775714,OZONE,3,131,12
India,Chandigarh,Chandigarh,"Sector-25, Chandigarh - CPCC",23-11-2025 08:00:00,30.751462,76.762879,PM2.5,85,216,162
India,Chandigarh,Chandigarh,"Sector-25, Chandigarh - CPCC",23-11-2025 08:00:00,30.751462,76.762879,OZONE,1,80,1
India,Chandigarh,Chandigarh,"Sector-53, Chandigarh - CPCC",23-11-2025 08:00:00,30.719859,76.738637,PM10,58,186,112
India,Chandigarh,Chandigarh,"Sector-53, Chandigarh - CPCC",23-11-2025 08:00:00,30.719859,76.738637,NH3,21,24,23
India,Chandigarh,Chandigarh,"Sector-53, Chandigarh - CPCC",23-11-2025 08:00:00,30.719859,76.738637,OZONE,1,21,2
India,Chhattisgarh,Korba,"Rampur, Korba - CECB",23-11-2025 08:00:00,22.368195,82.746431,NH3,2,2,2
India,Chhattisgarh,Korba,"Rampur, Korba - CECB",23-11-2025 08:00:00,22.368195,82.746431,OZONE,2,3,2
India,Chhattisgarh,Korba,"Urja Nagar, Korba - CECB",23-11-2025 08:00:00,22.348441,82.549611,PM10,72,73,72
India,Chhattisgarh,Milupara,"Govt. Higher Secondary School, Milupara - CECB",23-11-2025 08:00:00,22.1910172,83.5197009,SO2,NA,NA,NA
India,Chhattisgarh,Raipur,"AIIMS, Raipur - CECB",23-11-2025 08:00:00,21.258815,81.578979,NO2,66,80,72
India,Chhattisgarh,Bhilai,"32Bungalows, Bhilai - CECB",23-11-2025 08:00:00,21.194815,81.314770,NH3,NA,NA,NA
India,Chhattisgarh,Bhilai,"Civic Center, Bhilai - Bhilai Steel Plant",23-11-2025 08:00:00,21.185571,81.343175,PM2.5,30,74,55
India,Chhattisgarh,Bhilai,"Hathkhoj, Bhilai - CECB",23-11-2025 08:00:00,21.224231,81.408350,OZONE,NA,NA,NA
India,Chhattisgarh,Chhal,"Nawapara SECL Colony, Chhal - CECB",23-11-2025 08:00:00,22.118125,83.140608,PM10,40,155,89
India,Chhattisgarh,Chhal,"Nawapara SECL Colony, Chhal - CECB",23-11-2025 08:00:00,22.118125,83.140608,CO,26,54,34
India,Delhi,Delhi,"Alipur, Delhi - DPCC",23-11-2025 08:00:00,28.815329,77.153010,PM2.5,301,499,395
India,Delhi,Delhi,"Alipur, Delhi - DPCC",23-11-2025 08:00:00,28.815329,77.153010,NO2,41,168,98
India,Delhi,Delhi,"Alipur, Delhi - DPCC",23-11-2025 08:00:00,28.815329,77.153010,SO2,6,25,13
India,Delhi,Delhi,"Anand Vihar, Delhi - DPCC",23-11-2025 08:00:00,28.647622,77.3158090,PM2.5,313,500,428
India,Delhi,Delhi,"Ashok Vihar, Delhi - DPCC",23-11-2025 08:00:00,28.695381,77.181665,PM2.5,325,500,419
India,Bihar,Patna,"Govt. High School Shikarpur, Patna - BSPCB",23-11-2025 08:00:00,25.592539,85.227158,OZONE,9,13,10
India,Bihar,Patna,"Muradpur, Patna - BSPCB",23-11-2025 08:00:00,25.619651,85.147382,PM10,88,181,126
India,Bihar,Patna,"Muradpur, Patna - BSPCB",23-11-2025 08:00:00,25.619651,85.147382,NH3,4,5,4
India,Bihar,Saharsa,"Police Line, Saharsa - BSPCB",23-11-2025 08:00:00,25.892357,86.590325,PM2.5,28,203,91
India,Bihar,Saharsa,"Police Line, Saharsa - BSPCB",23-11-2025 08:00:00,25.892357,86.590325,PM10,57,152,100
India,Bihar,Saharsa,"Police Line, Saharsa - BSPCB",23-11-2025 08:00:00,25.892357,86.590325,NO2,7,8,7
India,Bihar,Saharsa,"Police Line, Saharsa - BSPCB",23-11-2025 08:00:00,25.892357,86.590325,NH3,4,4,4
India,Delhi,Delhi,"Burari Crossing, Delhi - IMD",23-11-2025 08:00:00,28.7256504,77.2011573,CO,13,146,108
India,Delhi,Delhi,"CRRI Mathura Road, Delhi - IMD",23-11-2025 08:00:00,28.5512005,77.2735737,PM2.5,240,425,368
India,Delhi,Delhi,"CRRI Mathura Road, Delhi - IMD",23-11-2025 08:00:00,28.5512005,77.2735737,OZONE,13,138,17
India,Bihar,Patna,"Rajbansi Nagar, Patna - BSPCB",23-11-2025 08:00:00,25.599486,85.113666,NH3,2,9,6
India,Bihar,Patna,"Samanpura, Patna - BSPCB",23-11-2025 08:00:00,25.596727,85.085624,SO2,1,2,2
India,Delhi,Delhi,"Chandni Chowk, Delhi - IITM",23-11-2025 08:00:00,28.656756,77.227234,NH3,7,31,17
India,Delhi,Delhi,"Chandni Chowk, Delhi - IITM",23-11-2025 08:00:00,28.656756,77.227234,SO2,3,21,13
India,Delhi,Delhi,"DTU, Delhi - CPCB",23-11-2025 08:00:00,28.7500499,77.1112615,PM10,163,440,341
India,Delhi,Delhi,"DTU, Delhi - CPCB",23-11-2025 08:00:00,28.7500499,77.1112615,NO2,66,85,79
India,Delhi,Delhi,"Dwarka-Sector 8, Delhi - DPCC ",23-11-2025 08:00:00,28.5710274,77.0719006,PM2.5,310,429,386
India,Delhi,Delhi,"Dwarka-Sector 8, Delhi - DPCC ",23-11-2025 08:00:00,28.5710274,77.0719006,PM10,173,430,338
India,Delhi,Delhi,"Dwarka-Sector 8, Delhi - DPCC ",23-11-2025 08:00:00,28.5710274,77.0719006,CO,20,180,70
India,Delhi,Delhi,"Pusa, Delhi - IMD",23-11-2025 08:00:00,28.636110,77.173332,CO,20,144,126
India,Delhi,Delhi,"Pusa, Delhi - IMD",23-11-2025 08:00:00,28.636110,77.173332,OZONE,14,28,16
India,Delhi,Delhi,"Rohini, Delhi - DPCC",23-11-2025 08:00:00,28.732528,77.119920,NH3,15,28,22
India,Delhi,Delhi,"Rohini, Delhi - DPCC",23-11-2025 08:00:00,28.732528,77.119920,SO2,1,22,14
India,Delhi,Delhi,"Shadipur, Delhi - CPCB",23-11-2025 08:00:00,28.6514781,77.1473105,PM10,163,437,334
India,Delhi,Delhi,"Shadipur, Delhi - CPCB",23-11-2025 08:00:00,28.6514781,77.1473105,NO2,73,238,137
India,Delhi,Delhi,"Major Dhyan Chand National Stadium, Delhi - DPCC",23-11-2025 08:00:00,28.611281,77.237738,OZONE,7,300,9
India,Delhi,Delhi,"Mandir Marg, Delhi - DPCC",23-11-2025 08:00:00,28.636429,77.201067,NH3,16,39,27
India,Delhi,Delhi,"Mundka, Delhi - DPCC",23-11-2025 08:00:00,28.684678,77.076574,CO,8,132,83
India,Delhi,Delhi,"NSIT Dwarka, Delhi - CPCB",23-11-2025 08:00:00,28.60909,77.0325413,PM2.5,237,341,313
India,Delhi,Delhi,"North Campus, DU, Delhi - IMD",23-11-2025 08:00:00,28.6573814,77.1585447,PM10,194,456,364
India,Delhi,Delhi,"North Campus, DU, Delhi - IMD",23-11-2025 08:00:00,28.6573814,77.1585447,OZONE,13,278,19
India,Delhi,Delhi,"Okhla Phase-2, Delhi - DPCC",23-11-2025 08:00:00,28.530785,77.271255,PM2.5,240,433,380
India,Delhi,Delhi,"Okhla Phase-2, Delhi - DPCC",23-11-2025 08:00:00,28.530785,77.271255,NH3,10,16,13
India,Delhi,Delhi,"Jawaharlal Nehru Stadium, Delhi - DPCC",23-11-2025 08:00:00,28.580280,77.233829,NH3,1,9,6
India,Delhi,Delhi,"Jawaharlal Nehru Stadium, Delhi - DPCC",23-11-2025 08:00:00,28.580280,77.233829,SO2,4,39,17
India,Delhi,Delhi,"Lodhi Road, Delhi - IMD",23-11-2025 08:00:00,28.5918245,77.2273074,PM10,171,379,255
India,Delhi,Delhi,"Lodhi Road, Delhi - IMD",23-11-2025 08:00:00,28.5918245,77.2273074,CO,58,112,109
India,Delhi,Delhi,"Najafgarh, Delhi - DPCC",23-11-2025 08:00:00,28.570173,76.933762,CO,45,102,95
India,Delhi,Delhi,"Narela, Delhi - DPCC",23-11-2025 08:00:00,28.822836,77.101981,PM2.5,321,500,415
India,Delhi,Delhi,"Narela, Delhi - DPCC",23-11-2025 08:00:00,28.822836,77.101981,NO2,28,119,70
India,Delhi,Delhi,"Nehru Nagar, Delhi - DPCC",23-11-2025 08:00:00,28.567890,77.250515,SO2,15,59,39
India,Delhi,Delhi,"Sirifort, Delhi - CPCB",23-11-2025 08:00:00,28.5504249,77.2159377,OZONE,6,20,6
India,Delhi,Delhi,"Sonia Vihar, Delhi - DPCC",23-11-2025 08:00:00,28.710508,77.249485,NO2,28,124,62
India,Delhi,Delhi,"Sri Aurobindo Marg, Delhi - DPCC",23-11-2025 08:00:00,28.531346,77.190156,OZONE,1,145,1
India,Delhi,Delhi,"Patparganj, Delhi - DPCC",23-11-2025 08:00:00,28.623763,77.287209,OZONE,3,179,4
India,Delhi,Delhi,"Pusa, Delhi - IMD",23-11-2025 08:00:00,28.636110,77.173332,PM2.5,285,412,358
India,Delhi,Delhi,"Pusa, Delhi - IMD",23-11-2025 08:00:00,28.636110,77.173332,PM10,145,397,283
India,Delhi,Delhi,"ITO, Delhi - CPCB",23-11-2025 08:00:00,28.628624,77.241060,NH3,3,8,6
India,Delhi,Delhi,"ITO, Delhi - CPCB",23-11-2025 08:00:00,28.628624,77.241060,SO2,12,33,22
India,Delhi,Delhi,"ITO, Delhi - CPCB",23-11-2025 08:00:00,28.628624,77.241060,OZONE,11,94,12
India,Delhi,Delhi,"Wazirpur, Delhi - DPCC",23-11-2025 08:00:00,28.699793,77.165453,NH3,13,18,15
India,Gujarat,Ahmedabad,"Chandkheda, Ahmedabad - IITM",23-11-2025 08:00:00,23.107969,72.574648,PM2.5,90,275,163
India,Gujarat,Ahmedabad,"Chandkheda, Ahmedabad - IITM",23-11-2025 08:00:00,23.107969,72.574648,PM10,114,320,172
India,Gujarat,Ahmedabad,"Chandkheda, Ahmedabad - IITM",23-11-2025 08:00:00,23.107969,72.574648,CO,12,148,69
India,Gujarat,Ahmedabad,"Gyaspur, Ahmedabad - IITM",23-11-2025 08:00:00,22.977134,72.553024,SO2,1,102,20
India,Gujarat,Ahmedabad,"Gyaspur, Ahmedabad - IITM",23-11-2025 08:00:00,22.977134,72.553024,CO,4,96,36
India,Gujarat,Ahmedabad,"Raikhad, Ahmedabad - IITM",23-11-2025 08:00:00,23.020509,72.579261,PM10,139,326,208
India,Gujarat,Ahmedabad,"Raikhad, Ahmedabad - IITM",23-11-2025 08:00:00,23.020509,72.579261,SO2,14,29,20
India,Gujarat,Ahmedabad,"Raikhad, Ahmedabad - IITM",23-11-2025 08:00:00,23.020509,72.579261,CO,3,153,64
India,Gujarat,Ahmedabad,"Raikhad, Ahmedabad - IITM",23-11-2025 08:00:00,23.020509,72.579261,OZONE,1,97,2
India,Haryana,Faridabad,"New Industrial Town, Faridabad - HSPCB",23-11-2025 08:00:00,28.39072,77.30059,PM2.5,224,301,269
India,Haryana,Faridabad,"New Industrial Town, Faridabad - HSPCB",23-11-2025 08:00:00,28.39072,77.30059,NO2,23,27,25
India,Haryana,Faridabad,"New Industrial Town, Faridabad - HSPCB",23-11-2025 08:00:00,28.39072,77.30059,NH3,11,12,11
India,Haryana,Faridabad,"New Industrial Town, Faridabad - HSPCB",23-11-2025 08:00:00,28.39072,77.30059,CO,10,12,12
India,Haryana,Faridabad,"Sector 11, Faridabad - HSPCB",23-11-2025 08:00:00,28.376058,77.315741,SO2,5,118,80
India,Haryana,Faridabad,"Sector 11, Faridabad - HSPCB",23-11-2025 08:00:00,28.376058,77.315741,CO,12,142,118
India,Haryana,Fatehabad,"Huda Sector, Fatehabad - HSPCB",23-11-2025 08:00:00,29.503664,75.467934,SO2,1,51,14
India,Haryana,Gurugram,"NISE Gwal Pahari, Gurugram - IMD",23-11-2025 08:00:00,28.422681,77.148944,PM10,138,446,221
India,Haryana,Ballabgarh,"Nathu Colony, Ballabgarh - HSPCB",23-11-2025 08:00:00,28.3419248,77.319699,NH3,3,3,3
India,Haryana,Bhiwani,"H.B. Colony, Bhiwani - HSPCB",23-11-2025 08:00:00,28.806223,76.141105,NO2,1,35,32
India,Haryana,Charkhi Dadri,"Mini Secretariat, Charkhi Dadri - HSPCB",23-11-2025 08:00:00,28.593883,76.270653,PM10,133,439,248
India,Haryana,Charkhi Dadri,"Mini Secretariat, Charkhi Dadri - HSPCB",23-11-2025 08:00:00,28.593883,76.270653,CO,8,25,15
India,Haryana,Dharuhera,"Municipal Corporation Office, Dharuhera -  HSPCB",23-11-2025 08:00:00,28.206800,76.799700,PM2.5,95,397,239
India,Haryana,Dharuhera,"Municipal Corporation Office, Dharuhera -  HSPCB",23-11-2025 08:00:00,28.206800,76.799700,NO2,15,51,38
India,Gujarat,Vapi,"Phase-1 GIDC, Vapi - GPCB",23-11-2025 08:00:00,20.362421,72.918013,PM10,NA,NA,NA
India,Gujarat,Vapi,"Phase-1 GIDC, Vapi - GPCB",23-11-2025 08:00:00,20.362421,72.918013,SO2,NA,NA,NA
India,Gujarat,Vatva,"Phase-4 GIDC, Vatva - GPCB",23-11-2025 08:00:00,22.969611,72.643500,PM10,54,355,205
India,Gujarat,Vatva,"Phase-4 GIDC, Vatva - GPCB",23-11-2025 08:00:00,22.969611,72.643500,NH3,5,17,10
India,Gujarat,Vatva,"Phase-4 GIDC, Vatva - GPCB",23-11-2025 08:00:00,22.969611,72.643500,CO,10,58,19
India,Gujarat,Vatva,"Phase-4 GIDC, Vatva - GPCB",23-11-2025 08:00:00,22.969611,72.643500,OZONE,8,127,71
India,Haryana,Bahadurgarh,"Arya Nagar, Bahadurgarh - HSPCB",23-11-2025 08:00:00,28.6701,76.9254,SO2,7,7,7
India,Gujarat,Ahmedabad,"Rakhial, Ahmedabad - IITM",23-11-2025 08:00:00,23.016834,72.625775,PM10,106,379,180
India,Gujarat,Ahmedabad,"Rakhial, Ahmedabad - IITM",23-11-2025 08:00:00,23.016834,72.625775,SO2,20,94,46
India,Gujarat,Ahmedabad,"SAC ISRO Bopal, Ahmedabad - IITM",23-11-2025 08:00:00,23.041137,72.456691,NO2,22,66,43
India,Gujarat,Ahmedabad,"SVPI Airport Hansol, Ahmedabad - IITM",23-11-2025 08:00:00,23.076793,72.627874,NH3,NA,NA,NA
India,Gujarat,Ahmedabad,"SVPI Airport Hansol, Ahmedabad - IITM",23-11-2025 08:00:00,23.076793,72.627874,SO2,10,11,10
India,Gujarat,Ahmedabad,"SVPI Airport Hansol, Ahmedabad - IITM",23-11-2025 08:00:00,23.076793,72.627874,OZONE,1,60,2
India,Haryana,Gurugram,"Sector-51, Gurugram - HSPCB",23-11-2025 08:00:00,28.4227,77.0667,CO,22,44,33
India,Haryana,Gurugram,"Sector-51, Gurugram - HSPCB",23-11-2025 08:00:00,28.4227,77.0667,OZONE,9,40,10
India,Haryana,Hisar,"Urban Estate-II, Hisar - HSPCB",23-11-2025 08:00:00,29.140560,75.744941,PM10,136,413,197
India,Haryana,Hisar,"Urban Estate-II, Hisar - HSPCB",23-11-2025 08:00:00,29.140560,75.744941,NH3,4,5,5
India,Haryana,Jind,"Police Lines, Jind - HSPCB",23-11-2025 08:00:00,29.307814,76.337619,PM2.5,253,345,315
India,Haryana,Panipat,"Sector-18, Panipat - HSPCB",23-11-2025 08:00:00,29.432304,76.972765,NO2,3,32,11
India,Haryana,Panipat,"Sector-18, Panipat - HSPCB",23-11-2025 08:00:00,29.432304,76.972765,SO2,1,19,4
India,Haryana,Rohtak,"MD University, Rohtak - HSPCB",23-11-2025 08:00:00,28.52123,76.37138,NO2,4,6,5
India,Haryana,Rohtak,"MD University, Rohtak - HSPCB",23-11-2025 08:00:00,28.52123,76.37138,SO2,4,6,5
India,Haryana,Sonipat,"Murthal, Sonipat - HSPCB",23-11-2025 08:00:00,29.027200,77.062100,NO2,24,60,46
India,Haryana,Sonipat,"Murthal, Sonipat - HSPCB",23-11-2025 08:00:00,29.027200,77.062100,NH3,9,21,17
India,Haryana,Kaithal,"Rishi Nagar, Kaithal - HSPCB",23-11-2025 08:00:00,29.8006,76.4155,NH3,5,6,5
India,Haryana,Kaithal,"Rishi Nagar, Kaithal - HSPCB",23-11-2025 08:00:00,29.8006,76.4155,OZONE,5,33,9
India,Haryana,Karnal,"Sector-12, Karnal - HSPCB",23-11-2025 08:00:00,29.695300,77.002700,OZONE,41,41,41
India,Haryana,Kurukshetra,"Sector-7, Kurukshetra - HSPCB",23-11-2025 08:00:00,29.966942,76.875879,PM10,136,235,191
India,Haryana,Kurukshetra,"Sector-7, Kurukshetra - HSPCB",23-11-2025 08:00:00,29.966942,76.875879,CO,31,107,75
India,Gujarat,Gandhinagar,"IIPHG Lekawada, Gandhinagar - IITM",23-11-2025 08:00:00,23.243639,72.68994,PM2.5,96,184,144
India,Gujarat,Nandesari,"GIDC, Nandesari - Nandesari Ind. Association",23-11-2025 08:00:00,22.410802,73.097923,PM2.5,221,301,247
India,Gujarat,Nandesari,"GIDC, Nandesari - Nandesari Ind. Association",23-11-2025 08:00:00,22.410802,73.097923,PM10,148,179,160
India,Gujarat,Nandesari,"GIDC, Nandesari - Nandesari Ind. Association",23-11-2025 08:00:00,22.410802,73.097923,SO2,NA,NA,NA
India,Karnataka,Kalaburagi,"Mahatma Basaveswar Colony, Kalaburgi - KSPCB",23-11-2025 08:00:00,17.336318,76.847397,NH3,3,3,3
India,Karnataka,Kalaburagi,"Mahatma Basaveswar Colony, Kalaburgi - KSPCB",23-11-2025 08:00:00,17.336318,76.847397,SO2,3,6,4
India,Karnataka,Kalaburagi,"Mahatma Basaveswar Colony, Kalaburgi - KSPCB",23-11-2025 08:00:00,17.336318,76.847397,CO,35,50,38
India,Karnataka,Koppal,"Diwator Nagar, Koppal - KSPCB",23-11-2025 08:00:00,15.347630,76.181767,NH3,7,7,7
India,Karnataka,Madikeri,"Stuart Hill, Madikeri - KSPCB",23-11-2025 08:00:00,12.415911,75.735050,SO2,7,7,7
India,Karnataka,Mangalore,"Kadri, Mangalore - KSPCB",23-11-2025 08:00:00,12.889250,74.853000,SO2,15,15,15
India,Karnataka,Mysuru,"Hebbal 1st Stage, Mysuru - KSPCB",23-11-2025 08:00:00,12.21041,76.37376,NO2,15,26,20
India,Karnataka,Mysuru,"Hebbal 1st Stage, Mysuru - KSPCB",23-11-2025 08:00:00,12.21041,76.37376,OZONE,6,52,10
India,Karnataka,Bengaluru,"Hombegowda Nagar, Bengaluru - KSPCB",23-11-2025 08:00:00,12.938539,77.590100,SO2,8,16,12
India,Karnataka,Bengaluru,"Hombegowda Nagar, Bengaluru - KSPCB",23-11-2025 08:00:00,12.938539,77.590100,CO,8,20,13
India,Karnataka,Bengaluru,"Jayanagar 5th Block, Bengaluru - KSPCB",23-11-2025 08:00:00,12.920984,77.584908,NO2,NA,NA,NA
India,Karnataka,Bengaluru,"Jigani, Bengaluru - KSPCB",23-11-2025 08:00:00,12.7816279,77.6299145,NO2,24,25,24
India,Karnataka,Bengaluru,"Jigani, Bengaluru - KSPCB",23-11-2025 08:00:00,12.7816279,77.6299145,NH3,4,4,4
India,Karnataka,Bengaluru,"RVCE-Mailasandra, Bengaluru - KSPCB",23-11-2025 08:00:00,12.921418,77.502466,PM10,38,157,72
India,Karnataka,Gadag,"Panchal Nagar, Gadag - KSPCB",23-11-2025 08:00:00,15.411456,75.638133,PM10,25,48,35
India,Karnataka,Gadag,"Panchal Nagar, Gadag - KSPCB",23-11-2025 08:00:00,15.411456,75.638133,CO,6,36,6
India,Karnataka,Gadag,"Panchal Nagar, Gadag - KSPCB",23-11-2025 08:00:00,15.411456,75.638133,OZONE,5,38,16
India,Karnataka,Hubballi,"Lingaraj Nagar, Hubballi - KSPCB",23-11-2025 08:00:00,15.3714823,75.1160168,NO2,11,11,11
India,Karnataka,Kalaburagi,"Lal Bahadur Shastri Nagar, Kalaburagi - KSPCB",23-11-2025 08:00:00,17.321993,76.822628,PM2.5,17,58,40
India,Karnataka,Kalaburagi,"Lal Bahadur Shastri Nagar, Kalaburagi - KSPCB",23-11-2025 08:00:00,17.321993,76.822628,PM10,20,67,47
India,Karnataka,Bengaluru,"Silk Board, Bengaluru - KSPCB",23-11-2025 08:00:00,12.917348,77.622813,PM2.5,17,85,32
India,Karnataka,Bengaluru,"Silk Board, Bengaluru - KSPCB",23-11-2025 08:00:00,12.917348,77.622813,NH3,2,2,2
India,Karnataka,Bengaluru,"Silk Board, Bengaluru - KSPCB",23-11-2025 08:00:00,12.917348,77.622813,SO2,7,10,8
India,Karnataka,Bengaluru,"Silk Board, Bengaluru - KSPCB",23-11-2025 08:00:00,12.917348,77.622813,OZONE,12,13,12
India,Karnataka,Chamarajanagar,"Urban, Chamarajanagar - KSPCB",23-11-2025 08:00:00,11.55358,76.55521,PM2.5,30,39,31
India,Karnataka,Chamarajanagar,"Urban, Chamarajanagar - KSPCB",23-11-2025 08:00:00,11.55358,76.55521,NH3,2,2,2
India,Karnataka,Chamarajanagar,"Urban, Chamarajanagar - KSPCB",23-11-2025 08:00:00,11.55358,76.55521,CO,22,120,34
India,Haryana,Yamuna Nagar,"Gobind Pura, Yamuna Nagar - HSPCB",23-11-2025 08:00:00,30.1480566,77.2893471,PM10,111,320,168
India,Haryana,Yamuna Nagar,"Gobind Pura, Yamuna Nagar - HSPCB",23-11-2025 08:00:00,30.1480566,77.2893471,NH3,1,6,4
India,Haryana,Yamuna Nagar,"Gobind Pura, Yamuna Nagar - HSPCB",23-11-2025 08:00:00,30.1480566,77.2893471,OZONE,38,47,38
India,Himachal Pradesh,Baddi,"HIMUDA Complex Phase-1, Baddi - HPPCB",23-11-2025 08:00:00,30.943887,76.801991,NO2,25,118,57
India,Himachal Pradesh,Baddi,"HIMUDA Complex Phase-1, Baddi - HPPCB",23-11-2025 08:00:00,30.943887,76.801991,SO2,21,118,54
India,Kerala,Kollam,"Polayathode, Kollam - Kerala PCB",23-11-2025 08:00:00,8.8787,76.6073,PM2.5,1,47,28
India,Kerala,Kollam,"Polayathode, Kollam - Kerala PCB",23-11-2025 08:00:00,8.8787,76.6073,CO,14,17,16
India,Kerala,Thiruvananthapuram,"Kariavattom, Thiruvananthapuram - Kerala PCB",23-11-2025 08:00:00,8.563700,76.886500,NO2,6,7,7
India,Kerala,Thrissur,"Corporation Ground, Thrissur - Kerala PCB",23-11-2025 08:00:00,10.532400,76.215900,PM2.5,NA,NA,NA
India,Karnataka,Vijayapura,"Ibrahimpur, Vijayapura - KSPCB",23-11-2025 08:00:00,16.802639,75.722694,NO2,11,12,11
India,Karnataka,Yadgir,"Collector Office, Yadgir - KSPCB",23-11-2025 08:00:00,16.7602,77.1428,SO2,5,23,14
India,Kerala,Kannur,"Thavakkara, Kannur - Kerala PCB",23-11-2025 08:00:00,11.875000,75.373200,PM10,55,65,58
India,Jammu_and_Kashmir,Srinagar,"Rajbagh, Srinagar - JKSPCB",23-11-2025 08:00:00,34.066206,74.819820,PM2.5,58,133,82
India,Jammu_and_Kashmir,Srinagar,"Rajbagh, Srinagar - JKSPCB",23-11-2025 08:00:00,34.066206,74.819820,OZONE,NA,NA,NA
India,Karnataka,Belgaum,"Ramteerth Nagar, Belgaum - KSPCB",23-11-2025 08:00:00,15.888653,74.541751,PM2.5,NA,NA,NA
India,Karnataka,Belgaum,"Ramteerth Nagar, Belgaum - KSPCB",23-11-2025 08:00:00,15.888653,74.541751,SO2,NA,NA,NA
India,Karnataka,Belgaum,"Ramteerth Nagar, Belgaum - KSPCB",23-11-2025 08:00:00,15.888653,74.541751,OZONE,NA,NA,NA
India,Karnataka,Bengaluru,"Hombegowda Nagar, Bengaluru - KSPCB",23-11-2025 08:00:00,12.938539,77.590100,PM10,19,52,32
India,Madhya Pradesh,Sagar,"Deen Dayal Nagar, Sagar - MPPCB",23-11-2025 08:00:00,23.8640158,78.80289321,NO2,6,91,32
India,Madhya Pradesh,Singrauli,"Suryakiran Bhawan NCL, Singrauli - MPPCB",23-11-2025 08:00:00,24.108970,82.645580,PM2.5,164,368,254
India,Madhya Pradesh,Singrauli,"Suryakiran Bhawan NCL, Singrauli - MPPCB",23-11-2025 08:00:00,24.108970,82.645580,NO2,46,123,79
India,Madhya Pradesh,Singrauli,"Suryakiran Bhawan NCL, Singrauli - MPPCB",23-11-2025 08:00:00,24.108970,82.645580,NH3,12,15,13
India,Madhya Pradesh,Singrauli,"Suryakiran Bhawan NCL, Singrauli - MPPCB",23-11-2025 08:00:00,24.108970,82.645580,SO2,23,47,34
India,Madhya Pradesh,Singrauli,"Suryakiran Bhawan NCL, Singrauli - MPPCB",23-11-2025 08:00:00,24.108970,82.645580,OZONE,1,79,2
India,Maharashtra,Ahmednagar,"Tarakpur, Ahmednagar - MPCB",23-11-2025 08:00:00,19.10122,74.73339,NO2,15,24,20
India,Maharashtra,Ahmednagar,"Tarakpur, Ahmednagar - MPCB",23-11-2025 08:00:00,19.10122,74.73339,NH3,5,6,5
India,Maharashtra,Ahmednagar,"Tarakpur, Ahmednagar - MPCB",23-11-2025 08:00:00,19.10122,74.73339,CO,2,77,53
India,Maharashtra,Ahmednagar,"Tarakpur, Ahmednagar - MPCB",23-11-2025 08:00:00,19.10122,74.73339,OZONE,2,74,11
India,Maharashtra,Akola,"Ramdaspeth, Akola - MPCB",23-11-2025 08:00:00,20.719516,77.000253,NH3,4,12,8
India,Maharashtra,Akola,"Ramdaspeth, Akola - MPCB",23-11-2025 08:00:00,20.719516,77.000253,SO2,10,20,16
India,Maharashtra,Amravati,"Shivneri Colony, Amravati - MPCB",23-11-2025 08:00:00,20.9402359,77.7895248,OZONE,3,86,15
India,Maharashtra,Amravati,"Shri Shivaji Science College, Amravati - MPCB",23-11-2025 08:00:00,20.939198,77.765701,SO2,21,51,30
India,Maharashtra,Amravati,"Shri Shivaji Science College, Amravati - MPCB",23-11-2025 08:00:00,20.939198,77.765701,OZONE,1,108,15
India,Maharashtra,Aurangabad,"MIDC Chilkalthana, Aurangabad - MPCB",23-11-2025 08:00:00,19.875620,75.387310,NH3,1,3,2
India,Maharashtra,Aurangabad,"More Chowk Waluj, Aurangabad - MPCB",23-11-2025 08:00:00,19.8389439,75.244448,NO2,15,22,19
India,Maharashtra,Aurangabad,"More Chowk Waluj, Aurangabad - MPCB",23-11-2025 08:00:00,19.8389439,75.244448,NH3,10,11,11
India,Maharashtra,Aurangabad,"More Chowk Waluj, Aurangabad - MPCB",23-11-2025 08:00:00,19.8389439,75.244448,OZONE,26,29,27
India,Maharashtra,Aurangabad,"Rachnakar Colony, Aurangabad - MPCB",23-11-2025 08:00:00,19.863756,75.321188,PM2.5,66,210,105
India,Maharashtra,Aurangabad,"Rachnakar Colony, Aurangabad - MPCB",23-11-2025 08:00:00,19.863756,75.321188,NH3,2,6,4
India,Maharashtra,Aurangabad,"Rachnakar Colony, Aurangabad - MPCB",23-11-2025 08:00:00,19.863756,75.321188,OZONE,12,90,13
India,Maharashtra,Badlapur,"Katrap, Badlapur - MPCB",23-11-2025 08:00:00,19.16485,73.23409,PM2.5,88,214,136
India,Maharashtra,Badlapur,"Katrap, Badlapur - MPCB",23-11-2025 08:00:00,19.16485,73.23409,PM10,98,172,137
India,Maharashtra,Belapur,"CBD Belapur, Belapur - MPCB",23-11-2025 08:00:00,19.0243902,73.0406721,NH3,NA,NA,NA
India,Madhya Pradesh,Bhopal,"Idgah Hills, Bhopal - MPPCB",23-11-2025 08:00:00,23.264759,77.381568,CO,30,94,53
India,Madhya Pradesh,Bhopal,"Paryavaran Parisar, Bhopal - MPPCB",23-11-2025 08:00:00,23.210494,77.425409,CO,12,103,43
India,Madhya Pradesh,Bhopal,"T T Nagar, Bhopal - MPPCB",23-11-2025 08:00:00,23.233584,77.400574,PM10,137,443,256
India,Madhya Pradesh,Bhopal,"T T Nagar, Bhopal - MPPCB",23-11-2025 08:00:00,23.233584,77.400574,CO,19,144,90
India,Madhya Pradesh,Bhopal,"T T Nagar, Bhopal - MPPCB",23-11-2025 08:00:00,23.233584,77.400574,OZONE,6,208,28
India,Madhya Pradesh,Damoh,"Shrivastav Colony, Damoh - MPPCB",23-11-2025 08:00:00,23.81748678,79.446246,PM10,21,96,41
India,Madhya Pradesh,Damoh,"Shrivastav Colony, Damoh - MPPCB",23-11-2025 08:00:00,23.81748678,79.446246,SO2,26,28,26
India,Maharashtra,Bhiwandi,"Gokul Nagar, Bhiwandi - MPCB",23-11-2025 08:00:00,19.309073,73.057223,SO2,5,17,11
India,Maharashtra,Boisar,"Khaira, Boisar - MPCB",23-11-2025 08:00:00,19.786089,72.757971,NH3,1,11,7
India,Maharashtra,Boisar,"Khaira, Boisar - MPCB",23-11-2025 08:00:00,19.786089,72.757971,CO,27,80,37
India,Maharashtra,Chandrapur,"Chauhan Colony, Chandrapur - MPCB",23-11-2025 08:00:00,19.962900,79.298714,PM10,59,220,116
India,Maharashtra,Chandrapur,"MIDC Khutala, Chandrapur - MPCB",23-11-2025 08:00:00,19.9775302,79.2337086,CO,35,42,39
India,Madhya Pradesh,Jabalpur,"Gupteshwar, Jabalpur - JMC",23-11-2025 08:00:00,23.142888,79.916147,PM2.5,65,302,139
India,Madhya Pradesh,Jabalpur,"Marhatal, Jabalpur - MPPCB",23-11-2025 08:00:00,23.168606,79.932247,SO2,18,56,36
India,Madhya Pradesh,Jabalpur,"Marhatal, Jabalpur - MPPCB",23-11-2025 08:00:00,23.168606,79.932247,OZONE,7,143,35
India,Madhya Pradesh,Jabalpur,"Suhagi, Jabalpur - JMC",23-11-2025 08:00:00,23.218135,79.957770,NO2,28,186,59
India,Madhya Pradesh,Jabalpur,"Suhagi, Jabalpur - JMC",23-11-2025 08:00:00,23.218135,79.957770,CO,3,101,37
India,Madhya Pradesh,Maihar,"Sahilara, Maihar - KJS Cements",23-11-2025 08:00:00,24.2613009,80.7231783,NO2,44,93,65
India,Madhya Pradesh,Pithampur,"Sector-2 Industrial Area, Pithampur - MPPCB",23-11-2025 08:00:00,22.624758,75.675238,PM10,NA,NA,NA
India,Madhya Pradesh,Pithampur,"Sector-2 Industrial Area, Pithampur - MPPCB",23-11-2025 08:00:00,22.624758,75.675238,NH3,NA,NA,NA
India,Madhya Pradesh,Sagar,"Civil Lines, Sagar - MPPCB",23-11-2025 08:00:00,23.838586,78.759431,OZONE,26,67,41
India,Madhya Pradesh,Gwalior,"City Center, Gwalior - MPPCB",23-11-2025 08:00:00,26.203442,78.193251,PM2.5,173,328,255
India,Madhya Pradesh,Gwalior,"Deen Dayal Nagar, Gwalior - MPPCB",23-11-2025 08:00:00,26.259242,78.216432,CO,6,129,32
India,Madhya Pradesh,Gwalior,"Maharaj Bada, Gwalior - MPPCB",23-11-2025 08:00:00,26.200388,78.147714,PM2.5,213,393,301
India,Madhya Pradesh,Indore,"Regional Park, Indore - IMC",23-11-2025 08:00:00,22.6780,75.8559,NH3,NA,NA,NA
India,Madhya Pradesh,Jabalpur,"Govindh Bhavan Colony, Jabalpur - JMC",23-11-2025 08:00:00,23.163174,79.973061,PM2.5,80,230,151
India,Maharashtra,Mumbai,"Kandivali East, Mumbai - MPCB",23-11-2025 08:00:00,19.205800,72.868200,PM2.5,73,346,164
India,Maharashtra,Mumbai,"Kandivali East, Mumbai - MPCB",23-11-2025 08:00:00,19.205800,72.868200,NO2,6,12,7
India,Maharashtra,Mumbai,"Kandivali West, Mumbai - BMC",23-11-2025 08:00:00,19.215859,72.831718,PM2.5,115,206,165
India,Maharashtra,Mumbai,"Kandivali West, Mumbai - BMC",23-11-2025 08:00:00,19.215859,72.831718,SO2,5,13,8
India,Maharashtra,Mumbai,"Kherwadi_Bandra East, Mumbai - MPCB",23-11-2025 08:00:00,19.0632143,72.8456324,PM2.5,94,213,155
India,Maharashtra,Mumbai,"Kherwadi_Bandra East, Mumbai - MPCB",23-11-2025 08:00:00,19.0632143,72.8456324,NO2,4,72,34
India,Maharashtra,Mumbai,"Kherwadi_Bandra East, Mumbai - MPCB",23-11-2025 08:00:00,19.0632143,72.8456324,SO2,3,6,3
India,Maharashtra,Mumbai,"Khindipada-Bhandup West, Mumbai - IITM",23-11-2025 08:00:00,19.1653323,72.922099,NH3,1,3,2
India,Maharashtra,Mumbai,"Kurla, Mumbai - MPCB",23-11-2025 08:00:00,19.0863,72.8888,PM10,103,192,130
India,Maharashtra,Mahad,"Kamble Tarf Birwadi, Mahad - MPCB",23-11-2025 08:00:00,18.1023399,73.4783687,PM10,63,128,94
India,Maharashtra,Mahad,"Kamble Tarf Birwadi, Mahad - MPCB",23-11-2025 08:00:00,18.1023399,73.4783687,SO2,15,111,46
India,Maharashtra,Mahad,"Kamble Tarf Birwadi, Mahad - MPCB",23-11-2025 08:00:00,18.1023399,73.4783687,CO,6,34,12
India,Maharashtra,Malegaon,"Mahesh Nagar, Malegaon - MPCB",23-11-2025 08:00:00,20.555712,74.529236,PM2.5,7,222,81
India,Maharashtra,Malegaon,"Mahesh Nagar, Malegaon - MPCB",23-11-2025 08:00:00,20.555712,74.529236,NO2,19,83,38
India,Maharashtra,Malegaon,"Mahesh Nagar, Malegaon - MPCB",23-11-2025 08:00:00,20.555712,74.529236,CO,11,96,34
India,Maharashtra,Mira-Bhayandar,"Bhayandar West, Mira-Bhayandar - MPCB",23-11-2025 08:00:00,19.296481,72.840923,PM10,105,137,119
India,Maharashtra,Mumbai,"Bandra Kurla Complex, Mumbai - MPCB",23-11-2025 08:00:00,19.065931,72.862131,NO2,36,113,78
India,Maharashtra,Mumbai,"Powai, Mumbai - MPCB",23-11-2025 08:00:00,19.137500,72.915056,OZONE,9,9,9
India,Maharashtra,Mumbai,"Sewri, Mumbai - BMC",23-11-2025 08:00:00,19.000084,72.856730,SO2,1,97,30
India,Maharashtra,Mumbai,"Sewri, Mumbai - BMC",23-11-2025 08:00:00,19.000084,72.856730,OZONE,96,310,221
India,Maharashtra,Mumbai,"Shivaji Nagar, Mumbai - BMC",23-11-2025 08:00:00,19.060498,72.923356,PM2.5,NA,NA,NA
India,Maharashtra,Mumbai,"Siddharth Nagar-Worli, Mumbai - IITM",23-11-2025 08:00:00,19.000083,72.813993,NO2,52,236,112
India,Maharashtra,Mumbai,"Siddharth Nagar-Worli, Mumbai - IITM",23-11-2025 08:00:00,19.000083,72.813993,NH3,6,12,8
India,Maharashtra,Kalyan,"Pimpleshwar Mandir, Kalyan - MPCB",23-11-2025 08:00:00,19.192056,72.9585188,PM2.5,NA,NA,NA
India,Maharashtra,Kolhapur,"Shivaji University, Kolhapur - MPCB",23-11-2025 08:00:00,16.6870449,74.2505872,PM10,50,154,105
India,Maharashtra,Kolhapur,"Sinchan Bhavan, Kolhapur - MPCB",23-11-2025 08:00:00,16.7143745,74.2426398,PM10,NA,NA,NA
India,Maharashtra,Kolhapur,"Sinchan Bhavan, Kolhapur - MPCB",23-11-2025 08:00:00,16.7143745,74.2426398,OZONE,NA,NA,NA
India,Maharashtra,Latur,"Sawe Wadi, Latur - MPCB",23-11-2025 08:00:00,18.39963,76.57452,NH3,4,31,13
India,Maharashtra,Mumbai,"Sion, Mumbai - MPCB",23-11-2025 08:00:00,19.047000,72.874600,PM10,34,123,70
India,Maharashtra,Mumbai,"Vasai West, Mumbai - MPCB",23-11-2025 08:00:00,19.383200,72.820400,NO2,15,24,20
India,Maharashtra,Mumbai,"Vasai West, Mumbai - MPCB",23-11-2025 08:00:00,19.383200,72.820400,SO2,15,18,16
India,Maharashtra,Mumbai,"Vile Parle West, Mumbai - MPCB",23-11-2025 08:00:00,19.10861,72.83622,SO2,34,59,53
India,Maharashtra,Mumbai,"Vile Parle West, Mumbai - MPCB",23-11-2025 08:00:00,19.10861,72.83622,CO,24,26,24
India,Maharashtra,Mumbai,"Worli, Mumbai - MPCB",23-11-2025 08:00:00,18.9936162,72.8128113,NH3,1,2,1
India,Maharashtra,Mumbai,"Colaba, Mumbai - MPCB",23-11-2025 08:00:00,18.910000,72.820000,PM10,57,111,77
India,Maharashtra,Mumbai,"Colaba, Mumbai - MPCB",23-11-2025 08:00:00,18.910000,72.820000,SO2,NA,NA,NA
India,Maharashtra,Mumbai,"Deonar, Mumbai - IITM",23-11-2025 08:00:00,19.04946,72.9230,CO,45,112,89
India,Maharashtra,Mumbai,"Deonar, Mumbai - IITM",23-11-2025 08:00:00,19.04946,72.9230,OZONE,1,47,1
India,Maharashtra,Mumbai,"Ghatkopar, Mumbai - BMC",23-11-2025 08:00:00,19.083694,72.920967,NO2,40,109,69
India,Maharashtra,Mumbai,"Ghatkopar, Mumbai - BMC",23-11-2025 08:00:00,19.083694,72.920967,SO2,4,10,7
India,Maharashtra,Dhule,"Deopur, Dhule - MPCB",23-11-2025 08:00:00,20.918946,74.776388,NO2,10,55,26
India,Maharashtra,Dhule,"Deopur, Dhule - MPCB",23-11-2025 08:00:00,20.918946,74.776388,SO2,5,13,10
India,Maharashtra,Dhule,"Deopur, Dhule - MPCB",23-11-2025 08:00:00,20.918946,74.776388,OZONE,23,50,29
India,Maharashtra,Jalgaon,"Prabhat Colony, Jalgaon - MPCB",23-11-2025 08:00:00,21.001264,75.565602,NH3,2,3,3
India,Maharashtra,Jalna,"Old MIDC, Jalna - MPCB",23-11-2025 08:00:00,19.854616,75.905894,PM2.5,NA,NA,NA
India,Maharashtra,Jalna,"Old MIDC, Jalna - MPCB",23-11-2025 08:00:00,19.854616,75.905894,NO2,NA,NA,NA
India,Maharashtra,Mumbai,"Kurla, Mumbai - MPCB",23-11-2025 08:00:00,19.0863,72.8888,NO2,6,11,8
India,Maharashtra,Mumbai,"Kurla, Mumbai - MPCB",23-11-2025 08:00:00,19.0863,72.8888,NH3,2,3,2
India,Maharashtra,Mumbai,"Mindspace-Malad West, Mumbai - MPCB",23-11-2025 08:00:00,19.1878657,72.8304069,CO,51,111,104
India,Maharashtra,Mumbai,"Chembur, Mumbai - MPCB",23-11-2025 08:00:00,19.0364585,72.8954371,CO,28,101,61
India,Maharashtra,Thane,"Kasarvadavali, Thane - MPCB",23-11-2025 08:00:00,19.26777,72.97182,NH3,2,19,7
India,Maharashtra,Thane,"Upvan Fort, Thane - MPCB",23-11-2025 08:00:00,19.222279,72.957979,PM2.5,22,138,65
India,Maharashtra,Thane,"Upvan Fort, Thane - MPCB",23-11-2025 08:00:00,19.222279,72.957979,CO,30,58,44
India,Maharashtra,Ulhasnagar,"Sidhi Vinayak Nagar, Ulhasnagar - MPCB",23-11-2025 08:00:00,19.235581,73.159121,PM10,102,272,162
India,Maharashtra,Ulhasnagar,"Sidhi Vinayak Nagar, Ulhasnagar - MPCB",23-11-2025 08:00:00,19.235581,73.159121,NH3,3,8,5
India,Maharashtra,Virar,"Bolinj, Virar - MPCB",23-11-2025 08:00:00,19.4458210,72.7988231,PM10,106,193,147
India,Meghalaya,Shillong,"Lumpyngngad, Shillong - Meghalaya PCB",23-11-2025 08:00:00,25.5586,91.8985,CO,2,10,3
India,Maharashtra,Navi Mumbai,"Sector-2E Kalamboli, Navi Mumbai - MPCB",23-11-2025 08:00:00,19.02579,73.10297,SO2,1,7,3
India,Maharashtra,Navi Mumbai,"Tondare-Taloja, Navi Mumbai - MPCB",23-11-2025 08:00:00,19.0630,73.1209,PM10,61,119,90
India,Maharashtra,Navi Mumbai,"Tondare-Taloja, Navi Mumbai - MPCB",23-11-2025 08:00:00,19.0630,73.1209,NO2,25,38,32
India,Maharashtra,Pimpri-Chinchwad,"Gavalinagar, Pimpri Chinchwad - MPCB",23-11-2025 08:00:00,18.63673,73.82487,NO2,13,91,49
India,Maharashtra,Pimpri-Chinchwad,"Gavalinagar, Pimpri Chinchwad - MPCB",23-11-2025 08:00:00,18.63673,73.82487,SO2,2,3,2
India,Maharashtra,Pimpri-Chinchwad,"Gavalinagar, Pimpri Chinchwad - MPCB",23-11-2025 08:00:00,18.63673,73.82487,CO,18,96,77
India,Maharashtra,Pimpri-Chinchwad,"Park Street Wakad, Pimpri Chinchwad - MPCB",23-11-2025 08:00:00,18.59051,73.77946,PM2.5,94,348,226
India,Maharashtra,Pimpri-Chinchwad,"Park Street Wakad, Pimpri Chinchwad - MPCB",23-11-2025 08:00:00,18.59051,73.77946,CO,12,82,54
India,Maharashtra,Pimpri-Chinchwad,"Savta Mali Nagar, Pimpri-Chinchwad - IITM",23-11-2025 08:00:00,18.614767,73.799516,PM2.5,50,306,176
India,Maharashtra,Pimpri-Chinchwad,"Savta Mali Nagar, Pimpri-Chinchwad - IITM",23-11-2025 08:00:00,18.614767,73.799516,CO,56,106,90
India,Maharashtra,Pimpri-Chinchwad,"Thergaon, Pimpri Chinchwad - MPCB",23-11-2025 08:00:00,18.616318,73.765797,PM2.5,48,331,122
India,Maharashtra,Pimpri-Chinchwad,"Thergaon, Pimpri Chinchwad - MPCB",23-11-2025 08:00:00,18.616318,73.765797,NH3,4,7,6
India,Maharashtra,Pimpri-Chinchwad,"Thergaon, Pimpri Chinchwad - MPCB",23-11-2025 08:00:00,18.616318,73.765797,CO,32,102,68
India,Maharashtra,Pune,"Bhumkar Nagar, Pune - IITM",23-11-2025 08:00:00,18.605770,73.749976,PM2.5,66,314,134
India,Maharashtra,Nashik,"Pandav Nagari, Nashik - MPCB",23-11-2025 08:00:00,19.9591346,73.7788008,OZONE,1,59,6
India,Maharashtra,Navi Mumbai,"Nerul, Navi Mumbai - MPCB",23-11-2025 08:00:00,19.008751,73.016620,PM10,134,306,195
India,Maharashtra,Navi Mumbai,"Nerul, Navi Mumbai - MPCB",23-11-2025 08:00:00,19.008751,73.016620,NO2,35,38,36
India,Maharashtra,Navi Mumbai,"Nerul, Navi Mumbai - MPCB",23-11-2025 08:00:00,19.008751,73.016620,NH3,4,4,4
India,Maharashtra,Navi Mumbai,"Nerul, Navi Mumbai - MPCB",23-11-2025 08:00:00,19.008751,73.016620,SO2,NA,NA,NA
India,Maharashtra,Navi Mumbai,"Sanpada, Navi Mumbai - MPCB",23-11-2025 08:00:00,19.0575752,73.0151367,PM2.5,78,302,189
India,Maharashtra,Navi Mumbai,"Sanpada, Navi Mumbai - MPCB",23-11-2025 08:00:00,19.0575752,73.0151367,PM10,74,190,142
India,Maharashtra,Navi Mumbai,"Sanpada, Navi Mumbai - MPCB",23-11-2025 08:00:00,19.0575752,73.0151367,CO,30,135,108
India,Maharashtra,Nagpur,"Ambazari, Nagpur - MPCB",23-11-2025 08:00:00,21.121801,79.04952,NH3,3,35,8
India,Maharashtra,Nagpur,"Ambazari, Nagpur - MPCB",23-11-2025 08:00:00,21.121801,79.04952,SO2,19,44,26
India,Maharashtra,Nagpur,"Ambazari, Nagpur - MPCB",23-11-2025 08:00:00,21.121801,79.04952,CO,14,126,50
India,Maharashtra,Nagpur,"Ambazari, Nagpur - MPCB",23-11-2025 08:00:00,21.121801,79.04952,OZONE,1,122,13
India,Maharashtra,Nagpur,"Mahal, Nagpur - MPCB",23-11-2025 08:00:00,21.14472,79.107595,NO2,22,118,57
India,Maharashtra,Nagpur,"Opp GPO Civil Lines, Nagpur - MPCB",23-11-2025 08:00:00,21.152875,79.0517531,PM2.5,68,208,131
India,Maharashtra,Nanded,"Sneh Nagar, Nanded - MPCB",23-11-2025 08:00:00,19.173852,77.296291,PM2.5,24,227,87
India,Maharashtra,Solapur,"Dnyaneshwar Nagar, Solapur - MPCB",23-11-2025 08:00:00,17.6336264,75.9132495,NH3,6,17,10
India,Maharashtra,Solapur,"Dnyaneshwar Nagar, Solapur - MPCB",23-11-2025 08:00:00,17.6336264,75.9132495,CO,14,34,20
India,Maharashtra,Solapur,"Ratandeep Housing Society, Solapur - MPCB",23-11-2025 08:00:00,17.65439,75.90649,PM10,61,112,88
India,Maharashtra,Solapur,"Ratandeep Housing Society, Solapur - MPCB",23-11-2025 08:00:00,17.65439,75.90649,NO2,17,86,34
India,Maharashtra,Thane,"Kasarvadavali, Thane - MPCB",23-11-2025 08:00:00,19.26777,72.97182,PM2.5,NA,NA,NA
India,Maharashtra,Thane,"Kasarvadavali, Thane - MPCB",23-11-2025 08:00:00,19.26777,72.97182,PM10,117,165,142
India,Maharashtra,Nanded,"Sneh Nagar, Nanded - MPCB",23-11-2025 08:00:00,19.173852,77.296291,OZONE,15,65,26
India,Maharashtra,Nashik,"Gangapur Road, Nashik - MPCB",23-11-2025 08:00:00,20.0073285,73.7762427,NO2,5,5,5
India,Maharashtra,Nashik,"Hirawadi, Nashik - MPCB",23-11-2025 08:00:00,20.021503,73.813844,NH3,3,10,5
India,Maharashtra,Nashik,"MIDC Ambad, Nashik - MPCB",23-11-2025 08:00:00,19.950220,73.731480,NO2,11,51,30
India,Maharashtra,Nashik,"Pandav Nagari, Nashik - MPCB",23-11-2025 08:00:00,19.9591346,73.7788008,NO2,11,34,20
India,Nagaland,Kohima,"PWD Junction, Kohima - NPCB",23-11-2025 08:00:00,25.6635413,94.0989878,CO,4,18,7
India,Odisha,Angul,"Hakimapada, Angul - OSPCB",23-11-2025 08:00:00,20.832874,85.104082,NO2,11,54,28
India,Odisha,Angul,"Hakimapada, Angul - OSPCB",23-11-2025 08:00:00,20.832874,85.104082,NH3,7,12,10
India,Maharashtra,Pune,"Katraj Dairy, Pune - MPCB",23-11-2025 08:00:00,18.454450,73.854155,SO2,3,5,4
India,Maharashtra,Pune,"Revenue Colony-Shivajinagar, Pune - IITM",23-11-2025 08:00:00,18.530085,73.849598,CO,52,126,71
India,Odisha,Bileipada,"Tata Township, Bileipada - OSPCB",23-11-2025 08:00:00,22.06156703,85.47409613,CO,32,70,52
India,Odisha,Brajrajnagar,"GM Office, Brajrajnagar - OSPCB",23-11-2025 08:00:00,21.8004996,83.8396977,NH3,6,17,10
India,Odisha,Brajrajnagar,"GM Office, Brajrajnagar - OSPCB",23-11-2025 08:00:00,21.8004996,83.8396977,OZONE,26,30,27
India,Odisha,Byasanagar,"Ferro Chrome Colony, Byasanagar - OSPCB",23-11-2025 08:00:00,20.94185,86.11510,PM10,110,169,137
India,Odisha,Byasanagar,"Ferro Chrome Colony, Byasanagar - OSPCB",23-11-2025 08:00:00,20.94185,86.11510,NO2,8,59,23
India,Odisha,Cuttack,"CDA Area, Cuttack - OSPCB",23-11-2025 08:00:00,20.48891     ,85.84768     ,NO2,13,69,29
India,Odisha,Keonjhar,"Jagamohanpur, Keonjhar - OSPCB",23-11-2025 08:00:00,21.643900,85.599355,CO,2,82,22
India,Odisha,Tensa,"Barsua Iron Ore Mines, Tensa - OSPCB",23-11-2025 08:00:00,21.869985,85.167016,OZONE,7,40,15
India,Puducherry,Puducherry,"Jawahar Nagar, Puducherry - PPCC",23-11-2025 08:00:00,11.9309,79.8027,NH3,1,12,3
India,Punjab,Amritsar,"Golden Temple, Amritsar - PPCB",23-11-2025 08:00:00,31.620000,74.876512,PM2.5,91,311,193
India,Punjab,Amritsar,"Golden Temple, Amritsar - PPCB",23-11-2025 08:00:00,31.620000,74.876512,PM10,101,200,143
India,Punjab,Amritsar,"Golden Temple, Amritsar - PPCB",23-11-2025 08:00:00,31.620000,74.876512,OZONE,24,40,31
India,Punjab,Jalandhar,"Civil Line, Jalandhar - PPCB",23-11-2025 08:00:00,31.321907,75.578914,SO2,13,15,13
India,Rajasthan,Barmer,"Railway Colony, Barmer - RSPCB",23-11-2025 08:00:00,25.747299,71.393989,CO,14,72,25
India,Rajasthan,Barmer,"Railway Colony, Barmer - RSPCB",23-11-2025 08:00:00,25.747299,71.393989,OZONE,27,84,74
India,Rajasthan,Bharatpur,"Krishna Nagar, Bharatpur - RSPCB",23-11-2025 08:00:00,27.215415,77.50873,PM10,100,434,209
India,Rajasthan,Bhilwara,"Pratap Nagar, Bhilwara - RSPCB",23-11-2025 08:00:00,25.339605,74.618883,NO2,14,68,43
India,Rajasthan,Bhiwadi,"RIICO Ind. Area III, Bhiwadi - RSPCB",23-11-2025 08:00:00,28.194909,76.862296,PM2.5,302,500,405
India,Punjab,Khanna,"Kalal Majra, Khanna - PPCB",23-11-2025 08:00:00,30.736056 ,76.209694,PM2.5,87,147,114
India,Punjab,Khanna,"Kalal Majra, Khanna - PPCB",23-11-2025 08:00:00,30.736056 ,76.209694,PM10,108,140,125
India,Punjab,Khanna,"Kalal Majra, Khanna - PPCB",23-11-2025 08:00:00,30.736056 ,76.209694,OZONE,24,26,25
India,Punjab,Mandi Gobindgarh,"RIMT University, Mandi Gobindgarh - PPCB",23-11-2025 08:00:00,30.649961,76.331442,SO2,6,19,10
India,Punjab,Patiala,"Model Town, Patiala - PPCB",23-11-2025 08:00:00,30.349388,76.366642,PM10,124,193,162
India,Punjab,Patiala,"Model Town, Patiala - PPCB",23-11-2025 08:00:00,30.349388,76.366642,SO2,9,69,29
India,Odisha,Baripada,"Meher Colony, Baripada - OSPCB",23-11-2025 08:00:00,21.941841,86.728318,PM2.5,135,301,207
India,Odisha,Baripada,"Meher Colony, Baripada - OSPCB",23-11-2025 08:00:00,21.941841,86.728318,PM10,111,177,136
India,Odisha,Baripada,"Meher Colony, Baripada - OSPCB",23-11-2025 08:00:00,21.941841,86.728318,CO,44,107,51
India,Odisha,Bhubaneswar,"Patia, Bhubaneswar - OSPCB",23-11-2025 08:00:00,20.34652,85.81630,NO2,7,44,20
India,Odisha,Bhubaneswar,"Patia, Bhubaneswar - OSPCB",23-11-2025 08:00:00,20.34652,85.81630,SO2,5,8,6
India,Odisha,Bileipada,"Tata Township, Bileipada - OSPCB",23-11-2025 08:00:00,22.06156703,85.47409613,PM10,90,175,136
India,Rajasthan,Chittorgarh,"Shastri Nagar, Chittorgarh - RSPCB",23-11-2025 08:00:00,24.892047,74.623527,OZONE,1,153,2
India,Rajasthan,Churu,"Subash Chowk, Churu - RSPCB",23-11-2025 08:00:00,28.296139,74.961696,NH3,5,8,7
India,Rajasthan,Dholpur,"Raja Ganj, Dholpur - RSPCB",23-11-2025 08:00:00,26.699557,77.898881,PM2.5,55,362,196
India,Rajasthan,Dholpur,"Raja Ganj, Dholpur - RSPCB",23-11-2025 08:00:00,26.699557,77.898881,NO2,20,147,52
India,Rajasthan,Ajmer,"Civil Lines,  Ajmer - RSPCB",23-11-2025 08:00:00,26.470859,74.646594,NO2,21,50,27
India,Rajasthan,Ajmer,"Civil Lines,  Ajmer - RSPCB",23-11-2025 08:00:00,26.470859,74.646594,SO2,10,32,19
India,Rajasthan,Ajmer,"Civil Lines,  Ajmer - RSPCB",23-11-2025 08:00:00,26.470859,74.646594,CO,18,43,25
India,Rajasthan,Banswara,"Rati Talai, Banswara - RSPCB",23-11-2025 08:00:00,23.555190,74.440010,NH3,5,11,7
India,Rajasthan,Banswara,"Rati Talai, Banswara - RSPCB",23-11-2025 08:00:00,23.555190,74.440010,CO,24,104,32
India,Rajasthan,Bikaner,"MM Ground, Bikaner - RSPCB",23-11-2025 08:00:00,28.018792,73.292658,CO,22,126,45
India,Rajasthan,Bundi,"New Colony, Bundi - RSPCB",23-11-2025 08:00:00,25.435774,75.644272,NO2,16,58,32
India,Rajasthan,Chittorgarh,"Shastri Nagar, Chittorgarh - RSPCB",23-11-2025 08:00:00,24.892047,74.623527,PM10,70,213,122
India,Odisha,Nayagarh,"Dabuna, Nayagarh - OSPCB",23-11-2025 08:00:00,21.847279,85.416905,OZONE,11,21,11
India,Odisha,Rourkela,"Fertilizer Township, Rourkela - OSPCB",23-11-2025 08:00:00,22.18972222,84.86277778,PM2.5,88,116,94
India,Odisha,Rourkela,"Fertilizer Township, Rourkela - OSPCB",23-11-2025 08:00:00,22.18972222,84.86277778,SO2,8,10,9
India,Rajasthan,Pali,"Indira Colony Vistar, Pali - RSPCB",23-11-2025 08:00:00,25.771061, 73.340227,OZONE,8,36,10
India,Rajasthan,Pratapgarh,"Pragati Nagar, Pratapgarh - RSPCB",23-11-2025 08:00:00,24.041198,74.780702,NH3,5,12,7
India,Rajasthan,Pratapgarh,"Pragati Nagar, Pratapgarh - RSPCB",23-11-2025 08:00:00,24.041198,74.780702,SO2,2,6,4
India,Rajasthan,Pratapgarh,"Pragati Nagar, Pratapgarh - RSPCB",23-11-2025 08:00:00,24.041198,74.780702,OZONE,25,165,28
India,Rajasthan,Rajsamand,"Dhoinda, Rajsamand - RSPCB",23-11-2025 08:00:00,25.036360,73.883502,NH3,8,16,13
India,Rajasthan,Rajsamand,"Dhoinda, Rajsamand - RSPCB",23-11-2025 08:00:00,25.036360,73.883502,CO,17,87,27
India,Rajasthan,Sawai Madhopur,"Sahu Nagar, Sawai Madhopur - RSPCB",23-11-2025 08:00:00,26.031443,76.359327,NH3,8,11,9
India,Rajasthan,Sirohi,"Vedhaynath Colony, Sirohi - RSPCB",23-11-2025 08:00:00,24.885261,72.857549,NO2,13,160,63
India,Rajasthan,Sirohi,"Vedhaynath Colony, Sirohi - RSPCB",23-11-2025 08:00:00,24.885261,72.857549,NH3,1,6,3
India,Rajasthan,Sirohi,"Vedhaynath Colony, Sirohi - RSPCB",23-11-2025 08:00:00,24.885261,72.857549,CO,31,73,40
India,Rajasthan,Tonk,"Shastri Nagar, Tonk - RSPCB",23-11-2025 08:00:00,26.159933,75.780517,PM2.5,126,452,300
India,Rajasthan,Tonk,"Shastri Nagar, Tonk - RSPCB",23-11-2025 08:00:00,26.159933,75.780517,OZONE,1,74,8
India,Rajasthan,Udaipur,"Ashok Nagar, Udaipur - RSPCB",23-11-2025 08:00:00,24.5886166,73.6321397,PM10,85,204,138
India,Rajasthan,Udaipur,"Ashok Nagar, Udaipur - RSPCB",23-11-2025 08:00:00,24.5886166,73.6321397,SO2,5,15,9
India,Rajasthan,Jhunjhunu,"Indra Nagar, Jhunjhunu - RSPCB",23-11-2025 08:00:00,28.108988,75.386577,NO2,15,153,72
India,Rajasthan,Jhunjhunu,"Indra Nagar, Jhunjhunu - RSPCB",23-11-2025 08:00:00,28.108988,75.386577,SO2,2,11,5
India,Rajasthan,Jodhpur,"Collectorate, Jodhpur - RSPCB",23-11-2025 08:00:00,26.268249,73.0193853,OZONE,8,122,30
India,Rajasthan,Jodhpur,"Digari Kalan, Jodhpur - RSPCB",23-11-2025 08:00:00,26.295810,73.082283,NH3,NA,NA,NA
India,Rajasthan,Jodhpur,"Digari Kalan, Jodhpur - RSPCB",23-11-2025 08:00:00,26.295810,73.082283,SO2,NA,NA,NA
India,Rajasthan,Jodhpur,"Digari Kalan, Jodhpur - RSPCB",23-11-2025 08:00:00,26.295810,73.082283,CO,NA,NA,NA
India,Rajasthan,Jodhpur,"Jhalamand, Jodhpur - RSPCB",23-11-2025 08:00:00,26.215415,73.070156,PM10,62,206,124
India,Rajasthan,Jodhpur,"Jhalamand, Jodhpur - RSPCB",23-11-2025 08:00:00,26.215415,73.070156,CO,6,80,32
India,Rajasthan,Jodhpur,"Mandor, Jodhpur - RSPCB",23-11-2025 08:00:00,26.358805,73.047444,PM10,66,147,100
India,Rajasthan,Jodhpur,"Mandor, Jodhpur - RSPCB",23-11-2025 08:00:00,26.358805,73.047444,OZONE,20,182,60
India,Rajasthan,Jodhpur,"Samrat Ashok Udhyan, Jodhpur - RSPCB",23-11-2025 08:00:00,26.253384,72.976571,PM10,61,237,124
India,Rajasthan,Karauli,"Satyawati Vihar, Karauli - RSPCB",23-11-2025 08:00:00,26.506177,77.025989,NH3,9,17,13
India,Rajasthan,Karauli,"Satyawati Vihar, Karauli - RSPCB",23-11-2025 08:00:00,26.506177,77.025989,SO2,1,5,3
India,Rajasthan,Kota,"Dhanmandi, Kota - RSPCB",23-11-2025 08:00:00,25.164090,75.858137,SO2,1,107,34
India,Rajasthan,Kota,"Dhanmandi, Kota - RSPCB",23-11-2025 08:00:00,25.164090,75.858137,CO,26,146,105
India,Rajasthan,Kota,"Nayapura, Kota - RSPCB",23-11-2025 08:00:00,25.196024,75.855668,PM10,105,240,159
India,Rajasthan,Kota,"Nayapura, Kota - RSPCB",23-11-2025 08:00:00,25.196024,75.855668,NO2,22,135,76
India,Rajasthan,Kota,"Nayapura, Kota - RSPCB",23-11-2025 08:00:00,25.196024,75.855668,OZONE,6,252,6
India,Rajasthan,Kota,"Shrinath Puram, Kota - RSPCB",23-11-2025 08:00:00,25.14389,75.821256,PM2.5,42,397,317
India,Rajasthan,Kota,"Shrinath Puram, Kota - RSPCB",23-11-2025 08:00:00,25.14389,75.821256,NO2,3,17,12
India,Rajasthan,Jaipur,"Adarsh Nagar, Jaipur - RSPCB",23-11-2025 08:00:00,26.902909,75.836858,PM10,123,208,150
India,Rajasthan,Jaipur,"Adarsh Nagar, Jaipur - RSPCB",23-11-2025 08:00:00,26.902909,75.836858,NH3,14,60,28
India,Rajasthan,Jaipur,"Adarsh Nagar, Jaipur - RSPCB",23-11-2025 08:00:00,26.902909,75.836858,SO2,14,31,23
India,Rajasthan,Jaipur,"Mansarovar Sector-12, Jaipur - RSPCB",23-11-2025 08:00:00,26.843698,75.766894,CO,43,114,104
India,Rajasthan,Jaipur,"Police Commissionerate, Jaipur - RSPCB",23-11-2025 08:00:00,26.9164092,75.7994901,NO2,37,159,108
India,Rajasthan,Jaipur,"Police Commissionerate, Jaipur - RSPCB",23-11-2025 08:00:00,26.9164092,75.7994901,CO,39,82,58
India,Rajasthan,Jaipur,"Sector-2 Murlipura, Jaipur - RSPCB",23-11-2025 08:00:00,26.960669,75.771817,NO2,24,160,89
India,Rajasthan,Jaipur,"Sector-2 Murlipura, Jaipur - RSPCB",23-11-2025 08:00:00,26.960669,75.771817,NH3,3,45,17
India,Rajasthan,Jaipur,"Shastri Nagar, Jaipur - RSPCB",23-11-2025 08:00:00,26.9502929,75.730943,PM10,128,238,162
India,Rajasthan,Jaisalmer,"Sadar Bazar, Jaisalmer - RSPCB",23-11-2025 08:00:00,26.912329,70.909168,NH3,13,21,17
India,Rajasthan,Jalore,"Mudtra Sili, Jalore - RSPCB",23-11-2025 08:00:00,25.344694,72.626208,PM2.5,55,337,152
India,TamilNadu,Ariyalur,"Keelapalur, Ariyalur - TNPCB",23-11-2025 08:00:00,11.06825,79.07033,PM2.5,7,24,14
India,TamilNadu,Chennai,"Arumbakkam, Chennai - TNPCB",23-11-2025 08:00:00,13.0664,80.2112 ,NH3,2,2,2
India,TamilNadu,Chennai,"Gandhi Nagar_Ennore, Chennai - TNPCB",23-11-2025 08:00:00,13.218341,80.32027,PM2.5,6,36,14
India,TamilNadu,Chennai,"Kodungaiyur, Chennai - TNPCB",23-11-2025 08:00:00,13.1278,80.2642,PM2.5,3,32,14
India,TamilNadu,Chennai,"Kodungaiyur, Chennai - TNPCB",23-11-2025 08:00:00,13.1278,80.2642,PM10,8,34,21
India,Rajasthan,Dungarpur,"Bhoiwada, Dungarpur - RSPCB",23-11-2025 08:00:00,23.837789,73.714926,PM10,108,186,142
India,Rajasthan,Hanumangarh,"Housing Board, Hanumangarh - RSPCB",23-11-2025 08:00:00,29.610750,74.283608,PM2.5,77,243,144
India,Rajasthan,Hanumangarh,"Housing Board, Hanumangarh - RSPCB",23-11-2025 08:00:00,29.610750,74.283608,NO2,16,84,39
India,Rajasthan,Hanumangarh,"Housing Board, Hanumangarh - RSPCB",23-11-2025 08:00:00,29.610750,74.283608,SO2,4,18,9
India,TamilNadu,Chennai,"Velachery Res. Area, Chennai - CPCB",23-11-2025 08:00:00,13.0052189,80.2398125,SO2,14,15,14
India,TamilNadu,Coimbatore,"SIDCO Kurichi, Coimbatore - TNPCB",23-11-2025 08:00:00,10.942451,76.978996,OZONE,1,10,1
India,TamilNadu,Cuddalore,"Semmandalam, Cuddalore - TNPCB",23-11-2025 08:00:00,11.7637683,79.7499835,PM10,5,57,23
India,TamilNadu,Cuddalore,"Semmandalam, Cuddalore - TNPCB",23-11-2025 08:00:00,11.7637683,79.7499835,NO2,1,14,6
India,TamilNadu,Dindigul,"Mendonsa Colony, Dindigul - TNPCB",23-11-2025 08:00:00,10.358535,77.984321,NH3,1,2,1
India,TamilNadu,Dindigul,"Mendonsa Colony, Dindigul - TNPCB",23-11-2025 08:00:00,10.358535,77.984321,SO2,20,24,22
India,TamilNadu,Gummidipoondi,"Anthoni Pillai Nagar, Gummidipoondi - TNPCB",23-11-2025 08:00:00,13.4127,80.1081,PM2.5,23,309,111
India,TamilNadu,Gummidipoondi,"Anthoni Pillai Nagar, Gummidipoondi - TNPCB",23-11-2025 08:00:00,13.4127,80.1081,SO2,24,51,32
India,Telangana,Hyderabad,"IDA Pashamylaram, Hyderabad - TSPCB",23-11-2025 08:00:00,17.5316895,78.218939,NO2,2,31,14
India,Telangana,Hyderabad,"IDA Pashamylaram, Hyderabad - TSPCB",23-11-2025 08:00:00,17.5316895,78.218939,OZONE,7,28,8
India,Telangana,Hyderabad,"IITH Kandi, Hyderabad - TSPCB",23-11-2025 08:00:00,17.585705,78.126199,NH3,1,3,2
India,Telangana,Hyderabad,"IITH Kandi, Hyderabad - TSPCB",23-11-2025 08:00:00,17.585705,78.126199,CO,16,41,35
India,Telangana,Hyderabad,"IITH Kandi, Hyderabad - TSPCB",23-11-2025 08:00:00,17.585705,78.126199,OZONE,16,28,16
India,Telangana,Hyderabad,"Kokapet, Hyderabad - TSPCB",23-11-2025 08:00:00,17.393559,78.339194,PM10,62,127,112
India,Telangana,Hyderabad,"Kokapet, Hyderabad - TSPCB",23-11-2025 08:00:00,17.393559,78.339194,NH3,2,3,2
India,Telangana,Hyderabad,"Kokapet, Hyderabad - TSPCB",23-11-2025 08:00:00,17.393559,78.339194,SO2,11,16,14
India,Telangana,Hyderabad,"Kompally Municipal Office, Hyderabad - TSPCB",23-11-2025 08:00:00,17.544899,78.486949,PM2.5,46,62,52
India,Uttar_Pradesh,Agra,"Rohta, Agra - UPPCB",23-11-2025 08:00:00,27.106972,78.000111,CO,34,103,71
India,Uttar_Pradesh,Agra,"Rohta, Agra - UPPCB",23-11-2025 08:00:00,27.106972,78.000111,OZONE,12,14,14
India,Uttar_Pradesh,Agra,"Shahjahan Garden, Agra - UPPCB",23-11-2025 08:00:00,27.169338,78.03582,PM10,123,283,191
India,Uttar_Pradesh,Agra,"Shastripuram, Agra - UPPCB",23-11-2025 08:00:00,27.19862,77.92066,PM10,114,348,185
India,Uttar_Pradesh,Agra,"Shastripuram, Agra - UPPCB",23-11-2025 08:00:00,27.19862,77.92066,NO2,40,41,41
India,Uttar_Pradesh,Agra,"Shastripuram, Agra - UPPCB",23-11-2025 08:00:00,27.19862,77.92066,NH3,3,3,3
India,Uttar_Pradesh,Baghpat,"Sardar Patel Inter College, Baghpat - UPPCB",23-11-2025 08:00:00,28.964949,77.278761,PM10,157,449,276
India,Telangana,Hyderabad,"Bollaram Industrial Area, Hyderabad - TSPCB",23-11-2025 08:00:00,17.540891,78.358528,NO2,26,77,47
India,Telangana,Hyderabad,"Bollaram Industrial Area, Hyderabad - TSPCB",23-11-2025 08:00:00,17.540891,78.358528,SO2,4,15,9
India,Telangana,Hyderabad,"Central University, Hyderabad - TSPCB",23-11-2025 08:00:00,17.460103,78.334361,PM2.5,35,80,54
India,Telangana,Hyderabad,"Central University, Hyderabad - TSPCB",23-11-2025 08:00:00,17.460103,78.334361,PM10,50,100,70
India,Telangana,Hyderabad,"Central University, Hyderabad - TSPCB",23-11-2025 08:00:00,17.460103,78.334361,SO2,1,10,6
India,Telangana,Hyderabad,"ECIL Kapra, Hyderabad - TSPCB",23-11-2025 08:00:00,17.470431,78.566959,NH3,3,5,5
India,Telangana,Hyderabad,"ICRISAT Patancheru, Hyderabad - TSPCB",23-11-2025 08:00:00,17.518400,78.278777,PM10,55,130,86
India,TamilNadu,Chennai,"Kodungaiyur, Chennai - TNPCB",23-11-2025 08:00:00,13.1278,80.2642,NO2,8,19,13
India,TamilNadu,Chennai,"Manali Village, Chennai - TNPCB",23-11-2025 08:00:00,13.1662,80.2584,NH3,1,8,2
India,TamilNadu,Chennai,"Manali, Chennai - CPCB",23-11-2025 08:00:00,13.164544,80.26285,PM2.5,4,27,16
India,TamilNadu,Chennai,"Perungudi, Chennai - TNPCB",23-11-2025 08:00:00,12.9533,80.2357,CO,26,86,74
India,TamilNadu,Chennai,"Perungudi, Chennai - TNPCB",23-11-2025 08:00:00,12.9533,80.2357,OZONE,2,21,7
India,TamilNadu,Chennai,"Velachery Res. Area, Chennai - CPCB",23-11-2025 08:00:00,13.0052189,80.2398125,PM2.5,15,50,26
India,TamilNadu,Thoothukudi,"Meelavittan, Thoothukudi - TNPCB",23-11-2025 08:00:00,8.816428 ,78.099039,SO2,5,7,6
India,TamilNadu,Thoothukudi,"Meelavittan, Thoothukudi - TNPCB",23-11-2025 08:00:00,8.816428 ,78.099039,CO,22,127,97
India,TamilNadu,Tirunelveli,"Municipal Corporation Office, Tirunelveli - TNPCB",23-11-2025 08:00:00,8.728442,77.6962,NO2,41,160,112
India,TamilNadu,Tirunelveli,"Municipal Corporation Office, Tirunelveli - TNPCB",23-11-2025 08:00:00,8.728442,77.6962,SO2,7,8,8
India,TamilNadu,Tirupur,"Kumaran College, Tirupur - TNPCB",23-11-2025 08:00:00,11.0973603,77.3228673,OZONE,3,3,3
India,Telangana,Hyderabad,"Somajiguda, Hyderabad - TSPCB",23-11-2025 08:00:00,17.417094,78.457437,SO2,16,22,18
India,Telangana,Hyderabad,"Zoo Park, Hyderabad - TSPCB",23-11-2025 08:00:00,17.349694,78.451437,SO2,2,4,4
India,Tripura,Agartala,"Bardowali, Agartala - Tripura SPCB",23-11-2025 08:00:00,23.8175497,91.2726974,PM2.5,NA,NA,NA
India,Tripura,Agartala,"Bardowali, Agartala - Tripura SPCB",23-11-2025 08:00:00,23.8175497,91.2726974,SO2,27,28,28
India,TamilNadu,Nagapattinam,"Velippalayam, Nagapattinam - TNPCB",23-11-2025 08:00:00,10.798548,79.838212,PM2.5,3,16,10
India,TamilNadu,Ooty,"Bombay Castel, Ooty - TNPCB",23-11-2025 08:00:00,11.4068288,76.7138973,PM10,6,45,20
India,TamilNadu,Palkalaiperur,"Bharathidasan University, Palkalaiperur - TNPCB",23-11-2025 08:00:00,10.681158,78.741746,PM2.5,6,38,22
India,TamilNadu,Perundurai,"SIPCOT Industrial Park, Perundurai - TNPCB",23-11-2025 08:00:00,11.258242,77.552761,PM10,13,53,33
India,TamilNadu,Perundurai,"SIPCOT Industrial Park, Perundurai - TNPCB",23-11-2025 08:00:00,11.258242,77.552761,CO,15,18,18
India,TamilNadu,Ramanathapuram,"Chalai Bazaar, Ramanathapuram - TNPCB",23-11-2025 08:00:00,9.36399,78.831977,PM10,2,18,9
India,Uttar_Pradesh,Kanpur,"NSI Kalyanpur, Kanpur - UPPCB",23-11-2025 08:00:00,26.509954,80.249612,NO2,22,22,22
India,Uttar_Pradesh,Kanpur,"NSI Kalyanpur, Kanpur - UPPCB",23-11-2025 08:00:00,26.509954,80.249612,OZONE,17,19,18
India,Uttar_Pradesh,Kanpur,"Nehru Nagar, Kanpur - UPPCB",23-11-2025 08:00:00,26.4703136,80.3229863,PM2.5,52,346,224
India,Uttar_Pradesh,Kanpur,"Nehru Nagar, Kanpur - UPPCB",23-11-2025 08:00:00,26.4703136,80.3229863,NO2,19,48,32
India,Uttar_Pradesh,Khurja,"Kalindi Kunj, Khurja - UPPCB",23-11-2025 08:00:00,28.2348927,77.8683002,PM10,137,450,257
India,Uttar_Pradesh,Khurja,"Kalindi Kunj, Khurja - UPPCB",23-11-2025 08:00:00,28.2348927,77.8683002,OZONE,79,285,168
India,Uttar_Pradesh,Lucknow,"B R Ambedkar University, Lucknow - UPPCB",23-11-2025 08:00:00,26.766433,80.927299,NO2,21,22,22
India,Uttar_Pradesh,Lucknow,"B R Ambedkar University, Lucknow - UPPCB",23-11-2025 08:00:00,26.766433,80.927299,CO,56,64,61
India,Uttar_Pradesh,Firozabad,"Vibhab Nagar, Firozabad - UPPCB",23-11-2025 08:00:00,27.1594,78.3953,PM10,70,139,105
India,Uttar_Pradesh,Firozabad,"Vibhab Nagar, Firozabad - UPPCB",23-11-2025 08:00:00,27.1594,78.3953,CO,10,48,40
India,Uttar_Pradesh,Ghaziabad,"Indirapuram, Ghaziabad - UPPCB",23-11-2025 08:00:00,28.646233,77.358075,SO2,19,39,25
India,Uttar_Pradesh,Ghaziabad,"Indirapuram, Ghaziabad - UPPCB",23-11-2025 08:00:00,28.646233,77.358075,CO,26,156,124
India,Uttar_Pradesh,Ghaziabad,"Loni, Ghaziabad - UPPCB",23-11-2025 08:00:00,28.757294,77.278792,PM2.5,324,500,465
India,Uttar_Pradesh,Ghaziabad,"Loni, Ghaziabad - UPPCB",23-11-2025 08:00:00,28.757294,77.278792,NO2,38,226,127
India,Uttar_Pradesh,Ghaziabad,"Loni, Ghaziabad - UPPCB",23-11-2025 08:00:00,28.757294,77.278792,NH3,3,20,10
India,Uttar_Pradesh,Greater Noida,"Knowledge Park - V, Greater Noida - UPPCB",23-11-2025 08:00:00,28.557054,77.453663,OZONE,3,262,5
India,Uttar_Pradesh,Hapur,"Anand Vihar, Hapur - UPPCB",23-11-2025 08:00:00,28.725645,77.749675,PM10,180,443,330
India,Uttar_Pradesh,Jhansi,"Shivaji Nagar, Jhansi - UPPCB",23-11-2025 08:00:00,25.4547,78.6039,PM2.5,28,60,44
India,Uttar_Pradesh,Kanpur,"FTI Kidwai Nagar, Kanpur - UPPCB",23-11-2025 08:00:00,26.428282,80.327067,NH3,2,2,2
India,Uttar_Pradesh,Kanpur,"FTI Kidwai Nagar, Kanpur - UPPCB",23-11-2025 08:00:00,26.428282,80.327067,OZONE,21,23,21
India,Uttar_Pradesh,Meerut,"Ganga Nagar, Meerut - UPPCB",23-11-2025 08:00:00,28.999264,77.7590354,PM10,195,481,357
India,Uttar_Pradesh,Meerut,"Jai Bhim Nagar, Meerut - UPPCB",23-11-2025 08:00:00,28.9535882,77.7622941,PM2.5,307,470,386
India,Uttar_Pradesh,Meerut,"Jai Bhim Nagar, Meerut - UPPCB",23-11-2025 08:00:00,28.9535882,77.7622941,OZONE,3,194,4
India,Uttar_Pradesh,Meerut,"Pallavpuram Phase 2, Meerut - UPPCB",23-11-2025 08:00:00,29.063510,77.709723,CO,14,132,75
India,Uttar_Pradesh,Moradabad,"Buddhi Vihar, Moradabad - UPPCB",23-11-2025 08:00:00,28.83526,78.74460,CO,57,104,84
India,Uttar_Pradesh,Moradabad,"Transport Nagar, Moradabad - UPPCB",23-11-2025 08:00:00,28.802625,78.753728,NH3,5,6,6
India,Uttar_Pradesh,Muzaffarnagar,"New Mandi, Muzaffarnagar - UPPCB",23-11-2025 08:00:00,29.4723508,77.7194031,NH3,14,20,16
India,Uttar_Pradesh,Muzaffarnagar,"New Mandi, Muzaffarnagar - UPPCB",23-11-2025 08:00:00,29.4723508,77.7194031,OZONE,13,20,16
India,Uttar_Pradesh,Noida,"Sector - 125, Noida - UPPCB",23-11-2025 08:00:00,28.5447608,77.3231257,PM2.5,316,500,437
India,Uttar_Pradesh,Noida,"Sector - 125, Noida - UPPCB",23-11-2025 08:00:00,28.5447608,77.3231257,CO,13,148,129
India,Uttar_Pradesh,Ghaziabad,"Sanjay Nagar, Ghaziabad - UPPCB",23-11-2025 08:00:00,28.685382,77.453839,SO2,10,28,19
India,Uttar_Pradesh,Ghaziabad,"Vasundhara, Ghaziabad - UPPCB",23-11-2025 08:00:00,28.6603346,77.3572563,PM10,NA,NA,NA
India,Uttar_Pradesh,Ghaziabad,"Vasundhara, Ghaziabad - UPPCB",23-11-2025 08:00:00,28.6603346,77.3572563,NH3,NA,NA,NA
India,Uttar_Pradesh,Ghaziabad,"Vasundhara, Ghaziabad - UPPCB",23-11-2025 08:00:00,28.6603346,77.3572563,OZONE,NA,NA,NA
India,Uttar_Pradesh,Gorakhpur,"Madan Mohan Malaviya University of Technology, Gorakhpur - UPPCB",23-11-2025 08:00:00,26.730136,83.433859,PM10,34,91,59
India,Uttar_Pradesh,Lucknow,"Gomti Nagar, Lucknow - UPPCB",23-11-2025 08:00:00,26.868120,81.005119,OZONE,28,40,30
India,Uttar_Pradesh,Lucknow,"Lalbagh, Lucknow - CPCB",23-11-2025 08:00:00,26.8458805,80.9365541,PM2.5,74,328,242
India,Uttar_Pradesh,Lucknow,"Lalbagh, Lucknow - CPCB",23-11-2025 08:00:00,26.8458805,80.9365541,PM10,135,459,258
India,Uttar_Pradesh,Lucknow,"Talkatora District Industries Center, Lucknow - CPCB",23-11-2025 08:00:00,26.83399722,80.8917361,SO2,3,24,8
India,Uttar_Pradesh,Moradabad,"Employment Office, Moradabad - UPPCB",23-11-2025 08:00:00,28.88528,78.73880,CO,22,95,55
India,Uttar_Pradesh,Moradabad,"Jigar Colony, Moradabad - UPPCB",23-11-2025 08:00:00,28.856664,78.772638,PM10,70,222,128
India,Uttar_Pradesh,Moradabad,"Kashiram Nagar, Moradabad - UPPCB",23-11-2025 08:00:00,28.849399,78.742362,CO,47,110,71
India,Uttar_Pradesh,Moradabad,"Kashiram Nagar, Moradabad - UPPCB",23-11-2025 08:00:00,28.849399,78.742362,OZONE,21,30,22
India,Uttar_Pradesh,Baghpat,"Sardar Patel Inter College, Baghpat - UPPCB",23-11-2025 08:00:00,28.964949,77.278761,SO2,11,54,19
India,Uttar_Pradesh,Baghpat,"Sardar Patel Inter College, Baghpat - UPPCB",23-11-2025 08:00:00,28.964949,77.278761,CO,16,76,20
India,Uttar_Pradesh,Bareilly,"Civil Lines, Bareilly - UPPCB",23-11-2025 08:00:00,28.359581,79.414455,CO,66,140,120
India,Uttar_Pradesh,Bareilly,"Civil Lines, Bareilly - UPPCB",23-11-2025 08:00:00,28.359581,79.414455,OZONE,14,306,29
India,West_Bengal,Howrah,"Belur Math, Howrah - WBPCB",23-11-2025 08:00:00,22.629801,88.352017,NH3,7,12,9
India,West_Bengal,Howrah,"Botanical Garden, Howrah - WBPCB",23-11-2025 08:00:00,22.554954,88.292568,PM10,85,208,137
India,West_Bengal,Howrah,"Botanical Garden, Howrah - WBPCB",23-11-2025 08:00:00,22.554954,88.292568,SO2,10,18,12
India,West_Bengal,Howrah,"Botanical Garden, Howrah - WBPCB",23-11-2025 08:00:00,22.554954,88.292568,CO,32,107,100
India,West_Bengal,Howrah,"Dasnagar, Howrah - WBPCB",23-11-2025 08:00:00,22.6025571,88.3105664,PM10,116,207,158
India,West_Bengal,Howrah,"Dasnagar, Howrah - WBPCB",23-11-2025 08:00:00,22.6025571,88.3105664,CO,23,108,81
India,West_Bengal,Howrah,"Ghusuri, Howrah - WBPCB",23-11-2025 08:00:00,22.611968,88.347422,NO2,21,38,26
India,West_Bengal,Howrah,"Ghusuri, Howrah - WBPCB",23-11-2025 08:00:00,22.611968,88.347422,NH3,7,15,11
India,West_Bengal,Howrah,"Ghusuri, Howrah - WBPCB",23-11-2025 08:00:00,22.611968,88.347422,CO,31,108,99
India,West_Bengal,Durgapur,"Mahishkapur Road_B-Zone, Durgapur - WBPCB",23-11-2025 08:00:00,23.567923,87.306843,NH3,1,5,2
India,West_Bengal,Durgapur,"PCBL Residential Complex, Durgapur - WBPCB",23-11-2025 08:00:00,23.5087640,87.3544400,CO,28,83,57
India,West_Bengal,Durgapur,"Womens College_City Center, Durgapur - WBPCB (Formerly known as Sidhu Kanhu Indoor Stadium)",23-11-2025 08:00:00,23.549395,87.300496,NO2,20,28,24
India,West_Bengal,Durgapur,"Womens College_City Center, Durgapur - WBPCB (Formerly known as Sidhu Kanhu Indoor Stadium)",23-11-2025 08:00:00,23.549395,87.300496,CO,30,76,48
India,West_Bengal,Haldia,"Priyambada Housing Estate, Haldia - WBPCB",23-11-2025 08:00:00,22.06047,88.109737,NO2,13,81,34
India,West_Bengal,Haldia,"Priyambada Housing Estate, Haldia - WBPCB",23-11-2025 08:00:00,22.06047,88.109737,NH3,2,8,3
India,Uttar_Pradesh,Noida,"Sector-1, Noida - UPPCB",23-11-2025 08:00:00,28.5898,77.3101,NH3,15,28,21
India,Uttar_Pradesh,Noida,"Sector-116, Noida - UPPCB",23-11-2025 08:00:00,28.569230,77.393848,NH3,NA,NA,NA
India,Uttar_Pradesh,Prayagraj,"Jhunsi, Prayagraj - UPPCB",23-11-2025 08:00:00,25.425602,81.917152,PM10,112,340,194
India,Uttar_Pradesh,Prayagraj,"Motilal Nehru NIT, Prayagraj - UPPCB",23-11-2025 08:00:00,25.494,81.863,PM10,126,283,196
India,Uttar_Pradesh,Prayagraj,"Motilal Nehru NIT, Prayagraj - UPPCB",23-11-2025 08:00:00,25.494,81.863,SO2,34,55,43
India,Uttar_Pradesh,Prayagraj,"Motilal Nehru NIT, Prayagraj - UPPCB",23-11-2025 08:00:00,25.494,81.863,OZONE,5,51,6
India,Uttar_Pradesh,Varanasi,"Maldahiya, Varanasi - UPPCB",23-11-2025 08:00:00,25.32393,82.99687,SO2,27,29,28
India,Uttar_Pradesh,Varanasi,"Maldahiya, Varanasi - UPPCB",23-11-2025 08:00:00,25.32393,82.99687,OZONE,1,10,1
India,Uttar_Pradesh,Vrindavan,"Omex Eternity, Vrindavan - UPPCB",23-11-2025 08:00:00,27.5714090,77.6557570,SO2,10,13,11
India,Uttarakhand,Rishikesh,"Shivaji Nagar, Rishikesh - UKPCB",23-11-2025 08:00:00,30.075911,78.2859547,PM2.5,84,153,121
India,West_Bengal,Howrah,"Padmapukur, Howrah - WBPCB",23-11-2025 08:00:00,22.5687319,88.2797276,PM2.5,NA,NA,NA
India,West_Bengal,Kolkata,"Fort William, Kolkata - WBPCB",23-11-2025 08:00:00,22.556640,88.342674,PM2.5,188,355,284
India,West_Bengal,Kolkata,"Fort William, Kolkata - WBPCB",23-11-2025 08:00:00,22.556640,88.342674,PM10,133,280,190
India,West_Bengal,Kolkata,"Fort William, Kolkata - WBPCB",23-11-2025 08:00:00,22.556640,88.342674,SO2,11,34,16
India,West_Bengal,Asansol,"Trivenidevi Bhalotia College, Asansol - WBPCB",23-11-2025 08:00:00,23.616515,87.119133,PM10,53,167,118
India,West_Bengal,Barrackpore,"SVSPA Campus, Barrackpore - WBPCB",23-11-2025 08:00:00,22.7605581,88.3617589,NH3,5,7,7
India,West_Bengal,Barrackpore,"SVSPA Campus, Barrackpore - WBPCB",23-11-2025 08:00:00,22.7605581,88.3617589,CO,51,103,99
India,Uttar_Pradesh,Varanasi,"Bhelupur, Varanasi - UPPCB",23-11-2025 08:00:00,25.301778,82.996789,NH3,1,1,1
India,Uttar_Pradesh,Varanasi,"Bhelupur, Varanasi - UPPCB",23-11-2025 08:00:00,25.301778,82.996789,OZONE,1,3,1
India,Uttar_Pradesh,Varanasi,"Maldahiya, Varanasi - UPPCB",23-11-2025 08:00:00,25.32393,82.99687,PM2.5,77,301,139
India,West_Bengal,Kolkata,"Rabindra Sarobar, Kolkata - WBPCB",23-11-2025 08:00:00,22.51106,88.35142,NH3,8,31,19
India,West_Bengal,Kolkata,"Victoria, Kolkata - WBPCB",23-11-2025 08:00:00,22.5448082,88.3403691,NO2,13,25,18
India,Uttarakhand,Rishikesh,"Shivaji Nagar, Rishikesh - UKPCB",23-11-2025 08:00:00,30.075911,78.2859547,CO,20,38,21
India,West_Bengal,Siliguri,"Ward-32 Bapupara, Siliguri - WBPCB",23-11-2025 08:00:00,26.6879226,88.4152495,OZONE,8,92,9
India,Bihar,Bettiah,"Kamalnath Nagar, Bettiah - BSPCB",23-11-2025 08:00:00,26.80365,84.51954,NH3,1,2,1
India,Bihar,Bettiah,"Kamalnath Nagar, Bettiah - BSPCB",23-11-2025 08:00:00,26.80365,84.51954,OZONE,22,23,22
India,Bihar,Bhagalpur,"DM Office_Kachari Chowk, Bhagalpur - BSPCB",23-11-2025 08:00:00,25.251013,86.989001,SO2,22,77,52
India,Bihar,Bhagalpur,"Mayaganj, Bhagalpur - BSPCB",23-11-2025 08:00:00,25.265194,87.012947,NO2,4,9,7
India,Bihar,Bhagalpur,"Mayaganj, Bhagalpur - BSPCB",23-11-2025 08:00:00,25.265194,87.012947,SO2,46,78,61
India,Bihar,Bihar Sharif,"D M Colony, Bihar Sharif - BSPCB",23-11-2025 08:00:00,25.204762,85.514960,NO2,9,10,9
India,Bihar,Buxar,"Charitra Van, Buxar - BSPCB",23-11-2025 08:00:00,25.567520,83.966379,NH3,3,3,3
India,Bihar,Buxar,"Charitra Van, Buxar - BSPCB",23-11-2025 08:00:00,25.567520,83.966379,CO,22,30,24
India,Bihar,Araria,"Kharahiya Basti, Araria - BSPCB",23-11-2025 08:00:00,26.146529,87.454184,NO2,1,77,15
India,Bihar,Araria,"Kharahiya Basti, Araria - BSPCB",23-11-2025 08:00:00,26.146529,87.454184,CO,26,34,32
India,Bihar,Arrah,"New DM Office, Arrah - BSPCB",23-11-2025 08:00:00,25.5626095,84.663264,PM10,111,197,152
India,Bihar,Aurangabad,"Gurdeo Nagar, Aurangabad - BSPCB",23-11-2025 08:00:00,24.75746,84.366208,PM10,NA,NA,NA
India,Bihar,Begusarai,"Lohiyanagar, Begusarai - BSPCB",23-11-2025 08:00:00,25.42742023,86.13886079,PM2.5,50,150,102
India,Bihar,Begusarai,"Lohiyanagar, Begusarai - BSPCB",23-11-2025 08:00:00,25.42742023,86.13886079,PM10,58,131,104
India,Bihar,Hajipur,"Industrial Area, Hajipur - BSPCB",23-11-2025 08:00:00,25.697189,85.245900,CO,26,116,73
India,Bihar,Hajipur,"Industrial Area, Hajipur - BSPCB",23-11-2025 08:00:00,25.697189,85.245900,OZONE,9,130,18
India,Bihar,Katihar,"Mirchaibari, Katihar - BSPCB",23-11-2025 08:00:00,25.560083,87.553265,PM2.5,30,113,74
India,Bihar,Kishanganj,"SDM Office_Khagra, Kishanganj - BSPCB",23-11-2025 08:00:00,26.0881305,87.93840336,SO2,6,10,7
India,Bihar,Manguraha,"Forest Rest House, Manguraha - BSPCB",23-11-2025 08:00:00,27.308328,84.531742,CO,8,56,46
India,Bihar,Munger,"Town Hall, Munger - BSPCB",23-11-2025 08:00:00,25.376776,86.471523,SO2,12,19,15
India,Bihar,Muzaffarpur,"Buddha Colony, Muzaffarpur - BSPCB",23-11-2025 08:00:00,26.11442,85.39813,CO,29,98,61
India,Bihar,Muzaffarpur,"MIT-Daudpur Kothi, Muzaffarpur - BSPCB",23-11-2025 08:00:00,26.1403345,85.3650192,PM2.5,80,107,95
India,Bihar,Muzaffarpur,"MIT-Daudpur Kothi, Muzaffarpur - BSPCB",23-11-2025 08:00:00,26.1403345,85.3650192,OZONE,41,61,43
India,Bihar,Patna,"DRM Office Danapur, Patna - BSPCB",23-11-2025 08:00:00,25.586562,85.043586,NH3,5,15,9
India,Andaman and Nicobar,Sri Vijaya Puram,"Police Line, Sri Vijaya Puram - ANPCC",23-11-2025 08:00:00,11.654054,92.734055,SO2,NA,NA,NA
India,Andhra_Pradesh,Amaravati,"Secretariat, Amaravati - APPCB",23-11-2025 08:00:00,16.5150833,80.5181667,CO,15,29,22
India,Andhra_Pradesh,Anantapur,"Gulzarpet, Anantapur - APPCB",23-11-2025 08:00:00,14.675886,77.593027,PM10,45,72,52
India,Andhra_Pradesh,Chittoor,"Gangineni Cheruvu, Chittoor - APPCB",23-11-2025 08:00:00,13.204880,79.097889,SO2,6,35,16
India,Arunachal_Pradesh,Naharlagun,"Naharlagun, Naharlagun - APSPCB",23-11-2025 08:00:00,27.103358,93.679645,PM10,11,152,70
India,Assam,Byrnihat,"Central Academy for SFS, Byrnihat - PCBA",23-11-2025 08:00:00,26.071318,91.87488,SO2,5,8,7
India,Assam,Byrnihat,"Central Academy for SFS, Byrnihat - PCBA",23-11-2025 08:00:00,26.071318,91.87488,OZONE,16,24,18
India,Assam,Guwahati,"Pan Bazaar, Guwahati - PCBA",23-11-2025 08:00:00,26.187500,91.744194,PM2.5,29,162,74
India,Andhra_Pradesh,Chittoor,"Gangineni Cheruvu, Chittoor - APPCB",23-11-2025 08:00:00,13.204880,79.097889,OZONE,51,59,54
India,Andhra_Pradesh,Kadapa,"Yerramukkapalli, Kadapa - APPCB",23-11-2025 08:00:00,14.465052,78.824187,PM2.5,34,70,42
India,Andhra_Pradesh,Kadapa,"Yerramukkapalli, Kadapa - APPCB",23-11-2025 08:00:00,14.465052,78.824187,PM10,45,71,49
India,Andhra_Pradesh,Kadapa,"Yerramukkapalli, Kadapa - APPCB",23-11-2025 08:00:00,14.465052,78.824187,CO,22,33,25
India,Andhra_Pradesh,Tirupati,"Vaikuntapuram, Tirupati - APPCB",23-11-2025 08:00:00,13.615387,79.409230,NO2,NA,NA,NA
India,Bihar,Chhapra,"Darshan Nagar, Chhapra - BSPCB",23-11-2025 08:00:00,25.7808257,84.7446768,NH3,4,8,6
India,Bihar,Gaya,"SFTI Kusdihra, Gaya - BSPCB",23-11-2025 08:00:00,24.762518,84.982348,NH3,3,4,3
India,Bihar,Gaya,"SFTI Kusdihra, Gaya - BSPCB",23-11-2025 08:00:00,24.762518,84.982348,OZONE,10,54,13
India,Bihar,Hajipur,"Industrial Area, Hajipur - BSPCB",23-11-2025 08:00:00,25.697189,85.245900,NO2,30,41,36
India,Andhra_Pradesh,Tirupati,"Vaikuntapuram, Tirupati - APPCB",23-11-2025 08:00:00,13.615387,79.409230,CO,NA,NA,NA
India,Andhra_Pradesh,Tirupati,"Vaikuntapuram, Tirupati - APPCB",23-11-2025 08:00:00,13.615387,79.409230,OZONE,NA,NA,NA
India,Andhra_Pradesh,Vijayawada,"Rajiv Nagar, Vijayawada - APPCB",23-11-2025 08:00:00,16.554731,80.649110,PM10,36,221,56
India,Andhra_Pradesh,Vijayawada,"Rajiv Nagar, Vijayawada - APPCB",23-11-2025 08:00:00,16.554731,80.649110,NO2,9,9,9
India,Andhra_Pradesh,Vijayawada,"Rajiv Nagar, Vijayawada - APPCB",23-11-2025 08:00:00,16.554731,80.649110,CO,18,36,23
India,Assam,Guwahati,"Railway Colony, Guwahati - PCBA",23-11-2025 08:00:00,26.181742,91.78063,CO,28,78,52
India,Assam,Nagaon,"Christianpatty, Nagaon - PCBA",23-11-2025 08:00:00,26.349082,92.68449,NO2,1,1,1
India,Assam,Nagaon,"Christianpatty, Nagaon - PCBA",23-11-2025 08:00:00,26.349082,92.68449,SO2,13,15,14
India,Assam,Nalbari,"Bata Chowk, Nalbari - PCBA",23-11-2025 08:00:00,26.446912,91.439057,CO,20,22,21
India,Bihar,Patna,"DRM Office Danapur, Patna - BSPCB",23-11-2025 08:00:00,25.586562,85.043586,CO,41,120,56
India,Bihar,Patna,"Govt. High School Shikarpur, Patna - BSPCB",23-11-2025 08:00:00,25.592539,85.227158,PM2.5,62,74,66
India,Bihar,Patna,"Govt. High School Shikarpur, Patna - BSPCB",23-11-2025 08:00:00,25.592539,85.227158,SO2,9,11,10
India,Bihar,Patna,"IGSC Planetarium Complex, Patna - BSPCB",23-11-2025 08:00:00,25.610369,85.132568,NO2,13,15,14
India,Bihar,Patna,"IGSC Planetarium Complex, Patna - BSPCB",23-11-2025 08:00:00,25.610369,85.132568,SO2,20,24,23
India,Bihar,Patna,"IGSC Planetarium Complex, Patna - BSPCB",23-11-2025 08:00:00,25.610369,85.132568,CO,58,63,62
India,Bihar,Patna,"Muradpur, Patna - BSPCB",23-11-2025 08:00:00,25.619651,85.147382,PM2.5,124,221,178
India,Bihar,Patna,"Muradpur, Patna - BSPCB",23-11-2025 08:00:00,25.619651,85.147382,NO2,10,11,11
India,Bihar,Patna,"Muradpur, Patna - BSPCB",23-11-2025 08:00:00,25.619651,85.147382,SO2,7,10,9
India,Delhi,Delhi,"Alipur, Delhi - DPCC",23-11-2025 08:00:00,28.815329,77.153010,PM10,175,481,380
India,Delhi,Delhi,"Alipur, Delhi - DPCC",23-11-2025 08:00:00,28.815329,77.153010,NH3,19,25,20
India,Delhi,Delhi,"Anand Vihar, Delhi - DPCC",23-11-2025 08:00:00,28.647622,77.3158090,PM10,204,500,408
India,Delhi,Delhi,"Anand Vihar, Delhi - DPCC",23-11-2025 08:00:00,28.647622,77.3158090,OZONE,15,24,17
India,Delhi,Delhi,"Ashok Vihar, Delhi - DPCC",23-11-2025 08:00:00,28.695381,77.181665,PM10,215,500,392
India,Delhi,Delhi,"Ashok Vihar, Delhi - DPCC",23-11-2025 08:00:00,28.695381,77.181665,NO2,44,245,122
India,Delhi,Delhi,"Ashok Vihar, Delhi - DPCC",23-11-2025 08:00:00,28.695381,77.181665,OZONE,2,142,2
India,Delhi,Delhi,"Aya Nagar, Delhi - IMD",23-11-2025 08:00:00,28.4706914,77.1099364,PM2.5,236,406,339
India,Delhi,Delhi,"Aya Nagar, Delhi - IMD",23-11-2025 08:00:00,28.4706914,77.1099364,PM10,165,440,339
India,Chhattisgarh,Raipur,"Bhatagaon New ISBT, Raipur - CECB",23-11-2025 08:00:00,21.219665,81.630094,NH3,2,2,2
India,Chhattisgarh,Raipur,"Krishak Nagar, Raipur - CECB",23-11-2025 08:00:00,21.237755,81.705301,PM10,26,65,46
India,Chhattisgarh,Raipur,"Krishak Nagar, Raipur - CECB",23-11-2025 08:00:00,21.237755,81.705301,NH3,2,2,2
India,Chhattisgarh,Raipur,"Krishak Nagar, Raipur - CECB",23-11-2025 08:00:00,21.237755,81.705301,CO,24,48,46
India,Chhattisgarh,Raipur,"Siltara Phase-II, Raipur - CECB",23-11-2025 08:00:00,21.371751,81.664929,PM10,38,157,100
India,Chhattisgarh,Raipur,"Siltara Phase-II, Raipur - CECB",23-11-2025 08:00:00,21.371751,81.664929,CO,34,36,35
India,Chhattisgarh,Tumidih,"OP Jindal Industrial Park, Tumidih - CECB",23-11-2025 08:00:00,22.06631475,83.33820077,OZONE,4,136,6
India,Chhattisgarh,Bhilai,"Civic Center, Bhilai - Bhilai Steel Plant",23-11-2025 08:00:00,21.185571,81.343175,NH3,3,3,3
India,Chhattisgarh,Bhilai,"Hathkhoj, Bhilai - CECB",23-11-2025 08:00:00,21.224231,81.408350,PM10,NA,NA,NA
India,Chhattisgarh,Bilaspur,"Mangala, Bilaspur - NTPC",23-11-2025 08:00:00,22.08815,82.13737,PM10,48,122,84
India,Chhattisgarh,Chhal,"Nawapara SECL Colony, Chhal - CECB",23-11-2025 08:00:00,22.118125,83.140608,NH3,5,5,5
India,Chhattisgarh,Korba,"Rampur, Korba - CECB",23-11-2025 08:00:00,22.368195,82.746431,SO2,8,20,10
India,Bihar,Saharsa,"Police Line, Saharsa - BSPCB",23-11-2025 08:00:00,25.892357,86.590325,OZONE,2,34,14
India,Bihar,Samastipur,"DM Office_Kasipur, Samastipur - BSPCB",23-11-2025 08:00:00,25.859655,85.77944,PM10,35,60,50
India,Bihar,Samastipur,"DM Office_Kasipur, Samastipur - BSPCB",23-11-2025 08:00:00,25.859655,85.77944,NO2,7,11,9
India,Bihar,Samastipur,"DM Office_Kasipur, Samastipur - BSPCB",23-11-2025 08:00:00,25.859655,85.77944,SO2,10,29,16
India,Bihar,Sasaram,"Dada Peer, Sasaram - BSPCB",23-11-2025 08:00:00,24.952822,84.002396,PM10,128,294,185
India,Chhattisgarh,Korba,"Urja Nagar, Korba - CECB",23-11-2025 08:00:00,22.348441,82.549611,CO,22,36,29
India,Chhattisgarh,Milupara,"Govt. Higher Secondary School, Milupara - CECB",23-11-2025 08:00:00,22.1910172,83.5197009,CO,NA,NA,NA
India,Chhattisgarh,Raipur,"AIIMS, Raipur - CECB",23-11-2025 08:00:00,21.258815,81.578979,CO,36,76,55
India,Chhattisgarh,Raipur,"Bhatagaon New ISBT, Raipur - CECB",23-11-2025 08:00:00,21.219665,81.630094,PM10,37,151,88
India,Bihar,Patna,"Muradpur, Patna - BSPCB",23-11-2025 08:00:00,25.619651,85.147382,OZONE,4,41,5
India,Bihar,Patna,"Rajbansi Nagar, Patna - BSPCB",23-11-2025 08:00:00,25.599486,85.113666,NO2,75,158,115
India,Bihar,Purnia,"Mariam Nagar, Purnia - BSPCB",23-11-2025 08:00:00,25.366336,87.117468,NH3,3,3,3
India,Bihar,Purnia,"Mariam Nagar, Purnia - BSPCB",23-11-2025 08:00:00,25.366336,87.117468,SO2,8,20,15
India,Bihar,Purnia,"Mariam Nagar, Purnia - BSPCB",23-11-2025 08:00:00,25.366336,87.117468,OZONE,22,38,23
India,Chhattisgarh,Bhilai,"32Bungalows, Bhilai - CECB",23-11-2025 08:00:00,21.194815,81.314770,PM2.5,32,56,42
India,Chhattisgarh,Bhilai,"32Bungalows, Bhilai - CECB",23-11-2025 08:00:00,21.194815,81.314770,PM10,51,106,71
India,Bihar,Rajgir,"Dangi Tola, Rajgir - BSPCB",23-11-2025 08:00:00,25.03280,85.41948,NO2,8,10,9
India,Bihar,Rajgir,"Dangi Tola, Rajgir - BSPCB",23-11-2025 08:00:00,25.03280,85.41948,SO2,20,23,21
India,Delhi,Delhi,"DTU, Delhi - CPCB",23-11-2025 08:00:00,28.7500499,77.1112615,SO2,29,43,34
India,Delhi,Delhi,"Dr. Karni Singh Shooting Range, Delhi - DPCC",23-11-2025 08:00:00,28.498571,77.264840,OZONE,4,103,9
India,Delhi,Delhi,"Dwarka-Sector 8, Delhi - DPCC ",23-11-2025 08:00:00,28.5710274,77.0719006,SO2,1,32,15
India,Delhi,Delhi,"Dwarka-Sector 8, Delhi - DPCC ",23-11-2025 08:00:00,28.5710274,77.0719006,OZONE,2,182,3
India,Delhi,Delhi,"IGI Airport (T3), Delhi - IMD",23-11-2025 08:00:00,28.5627763,77.1180053,NO2,96,304,216
India,Delhi,Delhi,"IGI Airport (T3), Delhi - IMD",23-11-2025 08:00:00,28.5627763,77.1180053,CO,24,154,141
India,Delhi,Delhi,"IHBAS, Dilshad Garden, Delhi - CPCB",23-11-2025 08:00:00,28.6811736,77.3025234,PM2.5,142,266,213
India,Delhi,Delhi,"R K Puram, Delhi - DPCC",23-11-2025 08:00:00,28.563262,77.186937,CO,50,190,122
India,Delhi,Delhi,"Rohini, Delhi - DPCC",23-11-2025 08:00:00,28.732528,77.119920,PM2.5,324,500,437
India,Delhi,Delhi,"Rohini, Delhi - DPCC",23-11-2025 08:00:00,28.732528,77.119920,NO2,31,127,76
India,Delhi,Delhi,"Shadipur, Delhi - CPCB",23-11-2025 08:00:00,28.6514781,77.1473105,OZONE,11,46,12
India,Delhi,Delhi,"Sirifort, Delhi - CPCB",23-11-2025 08:00:00,28.5504249,77.2159377,NH3,10,29,13
India,Delhi,Delhi,"Sonia Vihar, Delhi - DPCC",23-11-2025 08:00:00,28.710508,77.249485,NH3,6,8,7
India,Delhi,Delhi,"Sonia Vihar, Delhi - DPCC",23-11-2025 08:00:00,28.710508,77.249485,SO2,5,18,11
India,Delhi,Delhi,"Jawaharlal Nehru Stadium, Delhi - DPCC",23-11-2025 08:00:00,28.580280,77.233829,CO,37,166,147
India,Delhi,Delhi,"Lodhi Road, Delhi - IITM",23-11-2025 08:00:00,28.588333,77.221667,SO2,8,22,14
India,Delhi,Delhi,"Lodhi Road, Delhi - IMD",23-11-2025 08:00:00,28.5918245,77.2273074,OZONE,8,176,11
India,Delhi,Delhi,"Mandir Marg, Delhi - DPCC",23-11-2025 08:00:00,28.636429,77.201067,PM10,146,430,275
India,Delhi,Delhi,"Mandir Marg, Delhi - DPCC",23-11-2025 08:00:00,28.636429,77.201067,NO2,28,127,75
India,Delhi,Delhi,"Punjabi Bagh, Delhi - DPCC",23-11-2025 08:00:00,28.674045,77.131023,PM2.5,297,490,411
India,Delhi,Delhi,"Punjabi Bagh, Delhi - DPCC",23-11-2025 08:00:00,28.674045,77.131023,NO2,39,87,65
India,Delhi,Delhi,"Pusa, Delhi - DPCC",23-11-2025 08:00:00,28.639652,77.146275,NH3,2,9,7
India,Delhi,Delhi,"R K Puram, Delhi - DPCC",23-11-2025 08:00:00,28.563262,77.186937,PM2.5,304,456,397
India,Delhi,Delhi,"NSIT Dwarka, Delhi - CPCB",23-11-2025 08:00:00,28.60909,77.0325413,PM10,131,165,147
India,Delhi,Delhi,"NSIT Dwarka, Delhi - CPCB",23-11-2025 08:00:00,28.60909,77.0325413,OZONE,12,54,12
India,Delhi,Delhi,"Najafgarh, Delhi - DPCC",23-11-2025 08:00:00,28.570173,76.933762,PM2.5,280,385,339
India,Delhi,Delhi,"Najafgarh, Delhi - DPCC",23-11-2025 08:00:00,28.570173,76.933762,NH3,8,11,9
India,Delhi,Delhi,"Narela, Delhi - DPCC",23-11-2025 08:00:00,28.822836,77.101981,SO2,11,38,19
India,Delhi,Delhi,"Nehru Nagar, Delhi - DPCC",23-11-2025 08:00:00,28.567890,77.250515,PM2.5,290,500,407
India,Delhi,Delhi,"Nehru Nagar, Delhi - DPCC",23-11-2025 08:00:00,28.567890,77.250515,PM10,167,464,352
India,Delhi,Delhi,"Jahangirpuri, Delhi - DPCC",23-11-2025 08:00:00,28.732820,77.170633,SO2,14,62,42
India,Delhi,Delhi,"Jawaharlal Nehru Stadium, Delhi - DPCC",23-11-2025 08:00:00,28.580280,77.233829,PM2.5,290,422,366
India,Delhi,Delhi,"Bawana, Delhi - DPCC",23-11-2025 08:00:00,28.776200,77.051074,PM10,173,474,372
India,Delhi,Delhi,"Burari Crossing, Delhi - IMD",23-11-2025 08:00:00,28.7256504,77.2011573,PM2.5,324,473,401
India,Delhi,Delhi,"Nehru Nagar, Delhi - DPCC",23-11-2025 08:00:00,28.567890,77.250515,OZONE,4,226,4
India,Haryana,Karnal,"Sector-12, Karnal - HSPCB",23-11-2025 08:00:00,29.695300,77.002700,NO2,11,11,11
India,Haryana,Karnal,"Sector-12, Karnal - HSPCB",23-11-2025 08:00:00,29.695300,77.002700,SO2,4,75,29
India,Haryana,Kurukshetra,"Sector-7, Kurukshetra - HSPCB",23-11-2025 08:00:00,29.966942,76.875879,NH3,5,5,5
India,Haryana,Kurukshetra,"Sector-7, Kurukshetra - HSPCB",23-11-2025 08:00:00,29.966942,76.875879,OZONE,7,97,7
India,Haryana,Mandikhera,"General Hospital, Mandikhera - HSPCB",23-11-2025 08:00:00,27.9002,76.9938,PM2.5,49,212,92
India,Haryana,Mandikhera,"General Hospital, Mandikhera - HSPCB",23-11-2025 08:00:00,27.9002,76.9938,PM10,61,164,100
India,Haryana,Mandikhera,"General Hospital, Mandikhera - HSPCB",23-11-2025 08:00:00,27.9002,76.9938,CO,62,95,81
India,Haryana,Manesar,"Sector-2 IMT, Manesar - HSPCB",23-11-2025 08:00:00,28.360699,76.936090,PM2.5,94,483,295
India,Haryana,Bhiwani,"H.B. Colony, Bhiwani - HSPCB",23-11-2025 08:00:00,28.806223,76.141105,CO,5,13,11
India,Haryana,Bhiwani,"H.B. Colony, Bhiwani - HSPCB",23-11-2025 08:00:00,28.806223,76.141105,OZONE,5,16,11
India,Haryana,Charkhi Dadri,"Mini Secretariat, Charkhi Dadri - HSPCB",23-11-2025 08:00:00,28.593883,76.270653,NH3,5,8,6
India,Haryana,Dharuhera,"Municipal Corporation Office, Dharuhera -  HSPCB",23-11-2025 08:00:00,28.206800,76.799700,PM10,119,444,221
India,Haryana,Dharuhera,"Municipal Corporation Office, Dharuhera -  HSPCB",23-11-2025 08:00:00,28.206800,76.799700,SO2,1,22,14
India,Haryana,Dharuhera,"Municipal Corporation Office, Dharuhera -  HSPCB",23-11-2025 08:00:00,28.206800,76.799700,OZONE,6,46,8
India,Haryana,Faridabad,"New Industrial Town, Faridabad - HSPCB",23-11-2025 08:00:00,28.39072,77.30059,SO2,8,8,8
India,Haryana,Gurugram,"Vikas Sadan, Gurugram - HSPCB",23-11-2025 08:00:00,28.4501238,77.0263051,PM2.5,210,343,287
India,Haryana,Hisar,"Urban Estate-II, Hisar - HSPCB",23-11-2025 08:00:00,29.140560,75.744941,PM2.5,73,206,143
India,Haryana,Hisar,"Urban Estate-II, Hisar - HSPCB",23-11-2025 08:00:00,29.140560,75.744941,OZONE,48,118,51
India,Haryana,Jind,"Police Lines, Jind - HSPCB",23-11-2025 08:00:00,29.307814,76.337619,PM10,121,182,153
India,Haryana,Jind,"Police Lines, Jind - HSPCB",23-11-2025 08:00:00,29.307814,76.337619,NO2,40,57,48
India,Haryana,Jind,"Police Lines, Jind - HSPCB",23-11-2025 08:00:00,29.307814,76.337619,CO,NA,NA,NA
India,Haryana,Kaithal,"Rishi Nagar, Kaithal - HSPCB",23-11-2025 08:00:00,29.8006,76.4155,PM2.5,173,408,272
India,Haryana,Faridabad,"Sector 11, Faridabad - HSPCB",23-11-2025 08:00:00,28.376058,77.315741,PM2.5,26,306,227
India,Haryana,Faridabad,"Sector 11, Faridabad - HSPCB",23-11-2025 08:00:00,28.376058,77.315741,PM10,42,231,151
India,Haryana,Faridabad,"Sector 11, Faridabad - HSPCB",23-11-2025 08:00:00,28.376058,77.315741,OZONE,1,118,2
India,Haryana,Faridabad,"Sector 30, Faridabad - HSPCB",23-11-2025 08:00:00,28.4417,77.3217,PM2.5,175,272,196
India,Haryana,Faridabad,"Sector 30, Faridabad - HSPCB",23-11-2025 08:00:00,28.4417,77.3217,NO2,36,40,38
India,Haryana,Fatehabad,"Huda Sector, Fatehabad - HSPCB",23-11-2025 08:00:00,29.503664,75.467934,PM10,93,188,131
India,Haryana,Gurugram,"Sector-51, Gurugram - HSPCB",23-11-2025 08:00:00,28.4227,77.0667,NO2,4,9,6
India,Gujarat,Ahmedabad,"SAC ISRO Satellite, Ahmedabad - IITM",23-11-2025 08:00:00,23.023389,72.515201,OZONE,1,60,1
India,Gujarat,Ahmedabad,"SVPI Airport Hansol, Ahmedabad - IITM",23-11-2025 08:00:00,23.076793,72.627874,PM2.5,104,307,209
India,Gujarat,Ahmedabad,"SVPI Airport Hansol, Ahmedabad - IITM",23-11-2025 08:00:00,23.076793,72.627874,NO2,39,73,53
India,Gujarat,Ankleshwar,"GIDC, Ankleshwar - GPCB",23-11-2025 08:00:00,21.613267,73.010555,PM2.5,162,305,235
India,Gujarat,Ankleshwar,"GIDC, Ankleshwar - GPCB",23-11-2025 08:00:00,21.613267,73.010555,CO,59,107,94
India,Haryana,Ambala,"Patti Mehar, Ambala - HSPCB",23-11-2025 08:00:00,30.379589,76.778328,PM2.5,58,308,138
India,Haryana,Ambala,"Patti Mehar, Ambala - HSPCB",23-11-2025 08:00:00,30.379589,76.778328,SO2,31,32,31
India,Haryana,Bahadurgarh,"Arya Nagar, Bahadurgarh - HSPCB",23-11-2025 08:00:00,28.6701,76.9254,NO2,12,14,13
India,Haryana,Ballabgarh,"Nathu Colony, Ballabgarh - HSPCB",23-11-2025 08:00:00,28.3419248,77.319699,SO2,6,10,8
India,Delhi,Delhi,"Sri Aurobindo Marg, Delhi - DPCC",23-11-2025 08:00:00,28.531346,77.190156,PM10,155,384,220
India,Delhi,Delhi,"Vivek Vihar, Delhi - DPCC",23-11-2025 08:00:00,28.672342,77.315260,NO2,36,239,97
India,Delhi,Delhi,"Vivek Vihar, Delhi - DPCC",23-11-2025 08:00:00,28.672342,77.315260,NH3,11,15,13
India,Delhi,Delhi,"Vivek Vihar, Delhi - DPCC",23-11-2025 08:00:00,28.672342,77.315260,SO2,6,29,15
India,Gujarat,Gandhinagar,"IIPHG Lekawada, Gandhinagar - IITM",23-11-2025 08:00:00,23.243639,72.68994,PM10,101,148,124
India,Gujarat,Gandhinagar,"IIPHG Lekawada, Gandhinagar - IITM",23-11-2025 08:00:00,23.243639,72.68994,NO2,7,11,8
India,Gujarat,Vapi,"Phase-1 GIDC, Vapi - GPCB",23-11-2025 08:00:00,20.362421,72.918013,NH3,NA,NA,NA
India,Gujarat,Ahmedabad,"Chandkheda, Ahmedabad - IITM",23-11-2025 08:00:00,23.107969,72.574648,NH3,1,5,3
India,Gujarat,Ahmedabad,"Gyaspur, Ahmedabad - IITM",23-11-2025 08:00:00,22.977134,72.553024,OZONE,11,15,13
India,Gujarat,Ahmedabad,"Rakhial, Ahmedabad - IITM",23-11-2025 08:00:00,23.016834,72.625775,NH3,2,58,7
India,Karnataka,Chamarajanagar,"Urban, Chamarajanagar - KSPCB",23-11-2025 08:00:00,11.55358,76.55521,NO2,23,30,29
India,Karnataka,Chikkamagaluru,"Kalyana Nagara, Chikkamagaluru - KSPCB",23-11-2025 08:00:00,13.328028,75.797056,NO2,16,28,21
India,Karnataka,Davanagere,"Devaraj Urs Badavane, Davanagere - KSPCB",23-11-2025 08:00:00,14.475800,75.905200,PM2.5,5,92,32
India,Karnataka,Davanagere,"Devaraj Urs Badavane, Davanagere - KSPCB",23-11-2025 08:00:00,14.475800,75.905200,NO2,6,32,22
India,Karnataka,Davanagere,"Devaraj Urs Badavane, Davanagere - KSPCB",23-11-2025 08:00:00,14.475800,75.905200,OZONE,19,21,20
India,Karnataka,Dharwad,"Kalabhavan, Dharwad - KSPCB",23-11-2025 08:00:00,15.459706,75.008381,PM2.5,56,69,62
India,Karnataka,Dharwad,"Kalabhavan, Dharwad - KSPCB",23-11-2025 08:00:00,15.459706,75.008381,CO,50,111,72
India,Karnataka,Gadag,"Panchal Nagar, Gadag - KSPCB",23-11-2025 08:00:00,15.411456,75.638133,PM2.5,8,48,30
India,Karnataka,Koppal,"Diwator Nagar, Koppal - KSPCB",23-11-2025 08:00:00,15.347630,76.181767,SO2,19,32,26
India,Karnataka,Madikeri,"Stuart Hill, Madikeri - KSPCB",23-11-2025 08:00:00,12.415911,75.735050,PM10,11,33,23
India,Karnataka,Mysuru,"Hebbal 1st Stage, Mysuru - KSPCB",23-11-2025 08:00:00,12.21041,76.37376,PM2.5,10,26,15
India,Karnataka,Mysuru,"Hebbal 1st Stage, Mysuru - KSPCB",23-11-2025 08:00:00,12.21041,76.37376,PM10,25,68,44
India,Karnataka,Shivamogga,"Vinoba Nagara, Shivamogga - KSPCB",23-11-2025 08:00:00,13.940000,75.555917,PM2.5,25,36,30
India,Karnataka,Shivamogga,"Vinoba Nagara, Shivamogga - KSPCB",23-11-2025 08:00:00,13.940000,75.555917,NO2,16,21,17
India,Karnataka,Shivamogga,"Vinoba Nagara, Shivamogga - KSPCB",23-11-2025 08:00:00,13.940000,75.555917,NH3,3,4,3
India,Haryana,Rohtak,"MD University, Rohtak - HSPCB",23-11-2025 08:00:00,28.52123,76.37138,PM2.5,233,344,306
India,Haryana,Rohtak,"MD University, Rohtak - HSPCB",23-11-2025 08:00:00,28.52123,76.37138,CO,58,67,62
India,Haryana,Rohtak,"MD University, Rohtak - HSPCB",23-11-2025 08:00:00,28.52123,76.37138,OZONE,12,13,13
India,Haryana,Sirsa,"F-Block, Sirsa - HSPCB",23-11-2025 08:00:00,29.536400,75.015800,PM10,48,124,96
India,Haryana,Sonipat,"Murthal, Sonipat - HSPCB",23-11-2025 08:00:00,29.027200,77.062100,PM2.5,198,449,338
India,Haryana,Sonipat,"Murthal, Sonipat - HSPCB",23-11-2025 08:00:00,29.027200,77.062100,OZONE,25,26,26
India,Haryana,Yamuna Nagar,"Gobind Pura, Yamuna Nagar - HSPCB",23-11-2025 08:00:00,30.1480566,77.2893471,CO,14,151,61
India,Karnataka,Hubballi,"Lingaraj Nagar, Hubballi - KSPCB",23-11-2025 08:00:00,15.3714823,75.1160168,PM2.5,43,44,44
India,Karnataka,Hubballi,"Lingaraj Nagar, Hubballi - KSPCB",23-11-2025 08:00:00,15.3714823,75.1160168,PM10,58,59,59
India,Karnataka,Hubballi,"Lingaraj Nagar, Hubballi - KSPCB",23-11-2025 08:00:00,15.3714823,75.1160168,NH3,2,2,2
India,Karnataka,Hubballi,"Lingaraj Nagar, Hubballi - KSPCB",23-11-2025 08:00:00,15.3714823,75.1160168,OZONE,9,9,9
India,Karnataka,Kalaburagi,"Lal Bahadur Shastri Nagar, Kalaburagi - KSPCB",23-11-2025 08:00:00,17.321993,76.822628,NH3,1,1,1
India,Karnataka,Kalaburagi,"Lal Bahadur Shastri Nagar, Kalaburagi - KSPCB",23-11-2025 08:00:00,17.321993,76.822628,OZONE,20,67,23
India,Karnataka,Kalaburagi,"Mahatma Basaveswar Colony, Kalaburgi - KSPCB",23-11-2025 08:00:00,17.336318,76.847397,PM10,33,68,48
India,Haryana,Manesar,"Sector-2 IMT, Manesar - HSPCB",23-11-2025 08:00:00,28.360699,76.936090,NH3,16,19,17
India,Haryana,Manesar,"Sector-2 IMT, Manesar - HSPCB",23-11-2025 08:00:00,28.360699,76.936090,CO,27,82,58
India,Haryana,Palwal,"Shyam Nagar, Palwal - HSPCB",23-11-2025 08:00:00,28.1485564,77.3320667,SO2,12,13,13
India,Haryana,Palwal,"Shyam Nagar, Palwal - HSPCB",23-11-2025 08:00:00,28.1485564,77.3320667,CO,22,57,35
India,Haryana,Panchkula,"Sector-6, Panchkula - HSPCB ",23-11-2025 08:00:00,30.7057778,76.8531805555555,SO2,8,9,9
India,Haryana,Panipat,"Sector-18, Panipat - HSPCB",23-11-2025 08:00:00,29.432304,76.972765,NH3,NA,NA,NA
India,Jammu_and_Kashmir,Srinagar,"Rajbagh, Srinagar - JKSPCB",23-11-2025 08:00:00,34.066206,74.819820,SO2,3,4,3
India,Jharkhand,Dhanbad,"Sardar Patel Nagar, Dhanbad - JSPCB",23-11-2025 08:00:00,23.80569,86.44268,NO2,87,90,88
India,Jharkhand,Dhanbad,"Sardar Patel Nagar, Dhanbad - JSPCB",23-11-2025 08:00:00,23.80569,86.44268,SO2,15,118,60
India,Karnataka,Bagalkot,"Vidayagiri, Bagalkot - KSPCB",23-11-2025 08:00:00,16.172806,75.659694,OZONE,12,16,16
India,Karnataka,Bengaluru,"Jayanagar 5th Block, Bengaluru - KSPCB",23-11-2025 08:00:00,12.920984,77.584908,CO,NA,NA,NA
India,Karnataka,Bengaluru,"Jigani, Bengaluru - KSPCB",23-11-2025 08:00:00,12.7816279,77.6299145,PM2.5,41,42,41
India,Karnataka,Bengaluru,"Jigani, Bengaluru - KSPCB",23-11-2025 08:00:00,12.7816279,77.6299145,PM10,50,51,50
India,Karnataka,Bengaluru,"Peenya, Bengaluru - CPCB",23-11-2025 08:00:00,13.0270199,77.494094,PM2.5,18,42,26
India,Karnataka,Bengaluru,"RVCE-Mailasandra, Bengaluru - KSPCB",23-11-2025 08:00:00,12.921418,77.502466,CO,22,42,25
India,Himachal Pradesh,Baddi,"HIMUDA Complex Phase-1, Baddi - HPPCB",23-11-2025 08:00:00,30.943887,76.801991,PM2.5,47,345,197
India,Jammu_and_Kashmir,Srinagar,"Rajbagh, Srinagar - JKSPCB",23-11-2025 08:00:00,34.066206,74.819820,PM10,72,131,97
India,Karnataka,Bengaluru,"Hombegowda Nagar, Bengaluru - KSPCB",23-11-2025 08:00:00,12.938539,77.590100,NO2,9,23,16
India,Karnataka,Bengaluru,"Hombegowda Nagar, Bengaluru - KSPCB",23-11-2025 08:00:00,12.938539,77.590100,NH3,2,3,2
India,Madhya Pradesh,Indore,"Maguda Nagar, Indore - IMC",23-11-2025 08:00:00,22.7524,75.8872,NO2,2,2,2
India,Madhya Pradesh,Indore,"Regional Park, Indore - IMC",23-11-2025 08:00:00,22.6780,75.8559,PM2.5,NA,NA,NA
India,Madhya Pradesh,Indore,"Regional Park, Indore - IMC",23-11-2025 08:00:00,22.6780,75.8559,SO2,21,28,24
India,Madhya Pradesh,Indore,"Residency Area, Indore - IMC",23-11-2025 08:00:00,22.7084,75.8815,SO2,27,31,28
India,Madhya Pradesh,Jabalpur,"Govindh Bhavan Colony, Jabalpur - JMC",23-11-2025 08:00:00,23.163174,79.973061,PM10,78,133,108
India,Madhya Pradesh,Jabalpur,"Govindh Bhavan Colony, Jabalpur - JMC",23-11-2025 08:00:00,23.163174,79.973061,NH3,1,1,1
India,Madhya Pradesh,Jabalpur,"Gupteshwar, Jabalpur - JMC",23-11-2025 08:00:00,23.142888,79.916147,PM10,87,202,126
India,Madhya Pradesh,Jabalpur,"Gupteshwar, Jabalpur - JMC",23-11-2025 08:00:00,23.142888,79.916147,NH3,9,16,12
India,Madhya Pradesh,Jabalpur,"Gupteshwar, Jabalpur - JMC",23-11-2025 08:00:00,23.142888,79.916147,OZONE,3,108,12
India,Madhya Pradesh,Mandideep,"Sector-D Industrial Area, Mandideep - MPPCB",23-11-2025 08:00:00,23.108440,77.511428,NH3,1,9,5
India,Madhya Pradesh,Mandideep,"Sector-D Industrial Area, Mandideep - MPPCB",23-11-2025 08:00:00,23.108440,77.511428,CO,26,117,107
India,Madhya Pradesh,Ratlam,"Shasthri Nagar, Ratlam - IPCA Lab",23-11-2025 08:00:00,23.331731,75.045981,PM2.5,61,291,150
India,Madhya Pradesh,Sagar,"Civil Lines, Sagar - MPPCB",23-11-2025 08:00:00,23.838586,78.759431,PM10,106,247,152
India,Madhya Pradesh,Sagar,"Deen Dayal Nagar, Sagar - MPPCB",23-11-2025 08:00:00,23.8640158,78.80289321,CO,57,78,62
India,Madhya Pradesh,Satna,"Bandhavgar Colony, Satna - Birla Cement",23-11-2025 08:00:00,24.58434363,80.8549414,PM2.5,44,48,46
India,Kerala,Thiruvananthapuram,"Kariavattom, Thiruvananthapuram - Kerala PCB",23-11-2025 08:00:00,8.563700,76.886500,PM10,60,68,64
India,Kerala,Thiruvananthapuram,"Kariavattom, Thiruvananthapuram - Kerala PCB",23-11-2025 08:00:00,8.563700,76.886500,OZONE,36,36,36
India,Kerala,Thiruvananthapuram,"Plammoodu, Thiruvananthapuram - Kerala PCB",23-11-2025 08:00:00,8.5149093,76.9435879,PM2.5,6,27,14
India,Kerala,Thiruvananthapuram,"Plammoodu, Thiruvananthapuram - Kerala PCB",23-11-2025 08:00:00,8.5149093,76.9435879,PM10,9,41,21
India,Kerala,Thiruvananthapuram,"Plammoodu, Thiruvananthapuram - Kerala PCB",23-11-2025 08:00:00,8.5149093,76.9435879,NH3,2,3,2
India,Madhya Pradesh,Bhopal,"Idgah Hills, Bhopal - MPPCB",23-11-2025 08:00:00,23.264759,77.381568,PM10,131,326,212
India,Madhya Pradesh,Bhopal,"Idgah Hills, Bhopal - MPPCB",23-11-2025 08:00:00,23.264759,77.381568,SO2,9,15,12
India,Madhya Pradesh,Bhopal,"Paryavaran Parisar, Bhopal - MPPCB",23-11-2025 08:00:00,23.210494,77.425409,NH3,7,10,8
India,Madhya Pradesh,Bhopal,"Paryavaran Parisar, Bhopal - MPPCB",23-11-2025 08:00:00,23.210494,77.425409,SO2,1,19,8
India,Madhya Pradesh,Damoh,"Shrivastav Colony, Damoh - MPPCB",23-11-2025 08:00:00,23.81748678,79.446246,CO,20,26,21
India,Madhya Pradesh,Dewas,"Bhopal Chauraha, Dewas - MPPCB",23-11-2025 08:00:00,22.9682591,76.064118,PM2.5,108,305,209
