country,state,city,station,last_update,latitude,longitude,pollutant_id,min_value,max_value,avg_value
India,Bihar,Motihari,"Gandak Colony, Motihari - BSPCB",23-09-2025 07:00:00,26.63086,84.90051,SO2,2,3,3
India,Bihar,Motihari,"Gandak Colony, Motihari - BSPCB",23-09-2025 07:00:00,26.63086,84.90051,CO,14,26,18
India,Bihar,Munger,"Town Hall, Munger - BSPCB",23-09-2025 07:00:00,25.376776,86.471523,PM2.5,13,305,77
India,Bihar,Munger,"Town Hall, Munger - BSPCB",23-09-2025 07:00:00,25.376776,86.471523,SO2,16,19,17
India,Bihar,Muzaffarpur,"Buddha Colony, Muzaffarpur - BSPCB",23-09-2025 07:00:00,26.11442,85.39813,PM10,62,126,92
India,Bihar,Muzaffarpur,"Buddha Colony, Muzaffarpur - BSPCB",23-09-2025 07:00:00,26.11442,85.39813,NO2,12,24,18
India,Bihar,Muzaffarpur,"Buddha Colony, Muzaffarpur - BSPCB",23-09-2025 07:00:00,26.11442,85.39813,CO,22,102,40
India,Bihar,Muzaffarpur,"MIT-Daudpur Kothi, Muzaffarpur - BSPCB",23-09-2025 07:00:00,26.1403345,85.3650192,PM2.5,33,62,48
India,Bihar,Muzaffarpur,"MIT-Daudpur Kothi, Muzaffarpur - BSPCB",23-09-2025 07:00:00,26.1403345,85.3650192,OZONE,16,59,17
India,Bihar,Muzaffarpur,"Muzaffarpur Collectorate, Muzaffarpur - BSPCB",23-09-2025 07:00:00,26.1209,85.3647,OZONE,10,66,10
India,Bihar,Patna,"DRM Office Danapur, Patna - BSPCB",23-09-2025 07:00:00,25.586562,85.043586,PM10,70,233,126
India,Bihar,Patna,"DRM Office Danapur, Patna - BSPCB",23-09-2025 07:00:00,25.586562,85.043586,NH3,2,3,3
India,Bihar,Patna,"Govt. High School Shikarpur, Patna - BSPCB",23-09-2025 07:00:00,25.592539,85.227158,PM2.5,31,98,70
India,Bihar,Patna,"Govt. High School Shikarpur, Patna - BSPCB",23-09-2025 07:00:00,25.592539,85.227158,NH3,4,5,4
India,Bihar,Patna,"Muradpur, Patna - BSPCB",23-09-2025 07:00:00,25.619651,85.147382,NH3,5,11,6
India,Bihar,Patna,"Muradpur, Patna - BSPCB",23-09-2025 07:00:00,25.619651,85.147382,OZONE,5,40,6
India,Bihar,Patna,"Rajbansi Nagar, Patna - BSPCB",23-09-2025 07:00:00,25.599486,85.113666,PM2.5,28,73,55
India,Bihar,Patna,"Rajbansi Nagar, Patna - BSPCB",23-09-2025 07:00:00,25.599486,85.113666,PM10,39,73,59
India,Bihar,Patna,"Rajbansi Nagar, Patna - BSPCB",23-09-2025 07:00:00,25.599486,85.113666,NO2,21,26,23
India,Bihar,Patna,"Rajbansi Nagar, Patna - BSPCB",23-09-2025 07:00:00,25.599486,85.113666,SO2,6,11,8
India,Bihar,Patna,"Rajbansi Nagar, Patna - BSPCB",23-09-2025 07:00:00,25.599486,85.113666,CO,20,76,42
India,Bihar,Patna,"Samanpura, Patna - BSPCB",23-09-2025 07:00:00,25.596727,85.085624,PM2.5,NA,NA,NA
India,Bihar,Begusarai,"Lohiyanagar, Begusarai - BSPCB",23-09-2025 07:00:00,25.42742023,86.13886079,NH3,3,4,4
India,Bihar,Bettiah,"Kamalnath Nagar, Bettiah - BSPCB",23-09-2025 07:00:00,26.80365,84.51954,NO2,6,9,8
India,Bihar,Bettiah,"Kamalnath Nagar, Bettiah - BSPCB",23-09-2025 07:00:00,26.80365,84.51954,OZONE,18,29,23
India,Bihar,Bhagalpur,"DM Office_Kachari Chowk, Bhagalpur - BSPCB",23-09-2025 07:00:00,25.251013,86.989001,PM2.5,43,143,67
India,Bihar,Bhagalpur,"Mayaganj, Bhagalpur - BSPCB",23-09-2025 07:00:00,25.265194,87.012947,SO2,47,56,51
India,Bihar,Bhagalpur,"Mayaganj, Bhagalpur - BSPCB",23-09-2025 07:00:00,25.265194,87.012947,OZONE,26,31,28
India,Bihar,Bihar Sharif,"D M Colony, Bihar Sharif - BSPCB",23-09-2025 07:00:00,25.204762,85.514960,PM10,68,102,84
India,Assam,Guwahati,"LGBI Airport, Guwahati - PCBA",23-09-2025 07:00:00,26.10887,91.589544,SO2,5,22,11
India,Assam,Guwahati,"Railway Colony, Guwahati - PCBA",23-09-2025 07:00:00,26.181742,91.78063,PM2.5,15,59,31
India,Assam,Guwahati,"Railway Colony, Guwahati - PCBA",23-09-2025 07:00:00,26.181742,91.78063,NO2,3,3,3
India,Assam,Nagaon,"Christianpatty, Nagaon - PCBA",23-09-2025 07:00:00,26.349082,92.68449,PM10,45,87,50
India,Assam,Nalbari,"Bata Chowk, Nalbari - PCBA",23-09-2025 07:00:00,26.446912,91.439057,NO2,3,10,5
India,Assam,Nalbari,"Bata Chowk, Nalbari - PCBA",23-09-2025 07:00:00,26.446912,91.439057,NH3,1,3,2
India,Assam,Nalbari,"Bata Chowk, Nalbari - PCBA",23-09-2025 07:00:00,26.446912,91.439057,OZONE,10,250,31
India,Assam,Silchar,"Tarapur, Silchar - PCBA",23-09-2025 07:00:00,24.82827,92.79525,PM10,46,47,46
India,Bihar,Gaya,"SFTI Kusdihra, Gaya - BSPCB",23-09-2025 07:00:00,24.762518,84.982348,OZONE,9,19,10
India,Bihar,Hajipur,"Industrial Area, Hajipur - BSPCB",23-09-2025 07:00:00,25.697189,85.245900,PM10,42,107,77
India,Bihar,Katihar,"Mirchaibari, Katihar - BSPCB",23-09-2025 07:00:00,25.560083,87.553265,NO2,11,19,14
India,Bihar,Kishanganj,"SDM Office_Khagra, Kishanganj - BSPCB",23-09-2025 07:00:00,26.0881305,87.93840336,NH3,3,4,3
India,Bihar,Kishanganj,"SDM Office_Khagra, Kishanganj - BSPCB",23-09-2025 07:00:00,26.0881305,87.93840336,OZONE,15,19,16
India,Bihar,Motihari,"Gandak Colony, Motihari - BSPCB",23-09-2025 07:00:00,26.63086,84.90051,PM2.5,NA,NA,NA
India,Andhra_Pradesh,Amaravati,"Secretariat, Amaravati - APPCB",23-09-2025 07:00:00,16.5150833,80.5181667,NO2,NA,NA,NA
India,Andhra_Pradesh,Amaravati,"Secretariat, Amaravati - APPCB",23-09-2025 07:00:00,16.5150833,80.5181667,NH3,1,5,4
India,Andhra_Pradesh,Amaravati,"Secretariat, Amaravati - APPCB",23-09-2025 07:00:00,16.5150833,80.5181667,OZONE,6,24,20
India,Andhra_Pradesh,Anantapur,"Gulzarpet, Anantapur - APPCB",23-09-2025 07:00:00,14.675886,77.593027,SO2,9,16,14
India,Andhra_Pradesh,Anantapur,"Gulzarpet, Anantapur - APPCB",23-09-2025 07:00:00,14.675886,77.593027,CO,1,44,17
India,Andhra_Pradesh,Chittoor,"Gangineni Cheruvu, Chittoor - APPCB",23-09-2025 07:00:00,13.204880,79.097889,PM10,65,107,82
India,Andhra_Pradesh,Chittoor,"Gangineni Cheruvu, Chittoor - APPCB",23-09-2025 07:00:00,13.204880,79.097889,NO2,26,34,31
India,Bihar,Chhapra,"Darshan Nagar, Chhapra - BSPCB",23-09-2025 07:00:00,25.7808257,84.7446768,PM2.5,7,48,26
India,Bihar,Gaya,"Collectorate, Gaya - BSPCB",23-09-2025 07:00:00,24.7955,84.9994,SO2,NA,NA,NA
India,Bihar,Gaya,"Collectorate, Gaya - BSPCB",23-09-2025 07:00:00,24.7955,84.9994,CO,NA,NA,NA
India,Bihar,Gaya,"Collectorate, Gaya - BSPCB",23-09-2025 07:00:00,24.7955,84.9994,OZONE,NA,NA,NA
India,Bihar,Gaya,"Kareemganj, Gaya - BSPCB",23-09-2025 07:00:00,24.792403,84.992416,PM2.5,15,305,108
India,Bihar,Gaya,"Kareemganj, Gaya - BSPCB",23-09-2025 07:00:00,24.792403,84.992416,CO,38,45,40
India,Bihar,Arrah,"New DM Office, Arrah - BSPCB",23-09-2025 07:00:00,25.5626095,84.663264,PM10,27,28,28
India,Bihar,Arrah,"New DM Office, Arrah - BSPCB",23-09-2025 07:00:00,25.5626095,84.663264,CO,37,66,53
India,Bihar,Aurangabad,"Gurdeo Nagar, Aurangabad - BSPCB",23-09-2025 07:00:00,24.75746,84.366208,PM2.5,43,500,188
India,Bihar,Aurangabad,"Gurdeo Nagar, Aurangabad - BSPCB",23-09-2025 07:00:00,24.75746,84.366208,PM10,58,500,163
India,Bihar,Begusarai,"Lohiyanagar, Begusarai - BSPCB",23-09-2025 07:00:00,25.42742023,86.13886079,PM2.5,14,34,18
India,Andhra_Pradesh,Rajamahendravaram,"Anand Kala Kshetram, Rajamahendravaram - APPCB",23-09-2025 07:00:00,16.9872867,81.7363176,OZONE,8,81,10
India,Andhra_Pradesh,Tirupati,"Vaikuntapuram, Tirupati - APPCB",23-09-2025 07:00:00,13.615387,79.409230,PM2.5,NA,NA,NA
India,Andhra_Pradesh,Tirupati,"Vaikuntapuram, Tirupati - APPCB",23-09-2025 07:00:00,13.615387,79.409230,SO2,25,25,25
India,Andhra_Pradesh,Vijayawada,"HB Colony, Vijayawada - APPCB",23-09-2025 07:00:00,16.536107,80.594233,NH3,NA,NA,NA
India,Assam,Byrnihat,"Central Academy for SFS, Byrnihat - PCBA",23-09-2025 07:00:00,26.071318,91.87488,PM2.5,NA,NA,NA
India,Assam,Byrnihat,"Central Academy for SFS, Byrnihat - PCBA",23-09-2025 07:00:00,26.071318,91.87488,NO2,NA,NA,NA
India,Assam,Byrnihat,"Central Academy for SFS, Byrnihat - PCBA",23-09-2025 07:00:00,26.071318,91.87488,SO2,NA,NA,NA
India,Assam,Byrnihat,"Central Academy for SFS, Byrnihat - PCBA",23-09-2025 07:00:00,26.071318,91.87488,CO,NA,NA,NA
India,Assam,Guwahati,"IITG, Guwahati - PCBA",23-09-2025 07:00:00,26.2028636,91.70046436,NH3,5,5,5
India,Delhi,Delhi,"Chandni Chowk, Delhi - IITM",23-09-2025 07:00:00,28.656756,77.227234,OZONE,14,79,29
India,Delhi,Delhi,"DTU, Delhi - CPCB",23-09-2025 07:00:00,28.7500499,77.1112615,PM2.5,25,55,39
India,Delhi,Delhi,"Dr. Karni Singh Shooting Range, Delhi - DPCC",23-09-2025 07:00:00,28.498571,77.264840,OZONE,7,64,13
India,Delhi,Delhi,"Dwarka-Sector 8, Delhi - DPCC ",23-09-2025 07:00:00,28.5710274,77.0719006,PM2.5,38,120,54
India,Delhi,Delhi,"Dwarka-Sector 8, Delhi - DPCC ",23-09-2025 07:00:00,28.5710274,77.0719006,NO2,24,52,36
India,Delhi,Delhi,"IGI Airport (T3), Delhi - IMD",23-09-2025 07:00:00,28.5627763,77.1180053,OZONE,1,1,1
India,Delhi,Delhi,"IHBAS, Dilshad Garden, Delhi - CPCB",23-09-2025 07:00:00,28.6811736,77.3025234,PM2.5,65,91,81
India,Delhi,Delhi,"IHBAS, Dilshad Garden, Delhi - CPCB",23-09-2025 07:00:00,28.6811736,77.3025234,PM10,76,107,95
India,Delhi,Delhi,"Mandir Marg, Delhi - DPCC",23-09-2025 07:00:00,28.636429,77.201067,CO,10,38,25
India,Delhi,Delhi,"Mundka, Delhi - DPCC",23-09-2025 07:00:00,28.684678,77.076574,CO,28,46,36
India,Delhi,Delhi,"NSIT Dwarka, Delhi - CPCB",23-09-2025 07:00:00,28.60909,77.0325413,PM2.5,20,35,29
India,Delhi,Delhi,"Najafgarh, Delhi - DPCC",23-09-2025 07:00:00,28.570173,76.933762,PM2.5,20,77,44
India,Delhi,Delhi,"Najafgarh, Delhi - DPCC",23-09-2025 07:00:00,28.570173,76.933762,NH3,2,6,5
India,Delhi,Delhi,"Narela, Delhi - DPCC",23-09-2025 07:00:00,28.822836,77.101981,PM10,99,136,118
India,Delhi,Delhi,"Nehru Nagar, Delhi - DPCC",23-09-2025 07:00:00,28.567890,77.250515,PM2.5,32,157,63
India,Chhattisgarh,Bhilai,"32Bungalows, Bhilai - CECB",23-09-2025 07:00:00,21.194815,81.314770,PM10,25,62,44
India,Chhattisgarh,Bilaspur,"Mangala, Bilaspur - NTPC",23-09-2025 07:00:00,22.08815,82.13737,NO2,14,29,20
India,Chhattisgarh,Chhal,"Nawapara SECL Colony, Chhal - CECB",23-09-2025 07:00:00,22.118125,83.140608,PM2.5,8,51,24
India,Chhattisgarh,Chhal,"Nawapara SECL Colony, Chhal - CECB",23-09-2025 07:00:00,22.118125,83.140608,PM10,13,54,27
India,Chhattisgarh,Chhal,"Nawapara SECL Colony, Chhal - CECB",23-09-2025 07:00:00,22.118125,83.140608,NO2,4,9,6
India,Chhattisgarh,Chhal,"Nawapara SECL Colony, Chhal - CECB",23-09-2025 07:00:00,22.118125,83.140608,OZONE,30,64,33
India,Chhattisgarh,Korba,"Rampur, Korba - CECB",23-09-2025 07:00:00,22.368195,82.746431,SO2,7,23,10
India,Bihar,Samastipur,"DM Office_Kasipur, Samastipur - BSPCB",23-09-2025 07:00:00,25.859655,85.77944,CO,1,20,6
India,Bihar,Sasaram,"Dada Peer, Sasaram - BSPCB",23-09-2025 07:00:00,24.952822,84.002396,NO2,1,3,2
India,Bihar,Siwan,"Chitragupta Nagar, Siwan - BSPCB",23-09-2025 07:00:00,26.2271665,84.3570427,SO2,5,7,6
India,Chandigarh,Chandigarh,"Sector 22, Chandigarh - CPCC",23-09-2025 07:00:00,30.735567,76.775714,PM10,55,85,71
India,Chandigarh,Chandigarh,"Sector 22, Chandigarh - CPCC",23-09-2025 07:00:00,30.735567,76.775714,CO,39,71,59
India,Chandigarh,Chandigarh,"Sector-25, Chandigarh - CPCC",23-09-2025 07:00:00,30.751462,76.762879,SO2,1,5,1
India,Chhattisgarh,Raipur,"Siltara Phase-II, Raipur - CECB",23-09-2025 07:00:00,21.371751,81.664929,PM2.5,16,46,31
India,Chhattisgarh,Tumidih,"OP Jindal Industrial Park, Tumidih - CECB",23-09-2025 07:00:00,22.06631475,83.33820077,PM2.5,25,60,38
India,Chhattisgarh,Tumidih,"OP Jindal Industrial Park, Tumidih - CECB",23-09-2025 07:00:00,22.06631475,83.33820077,NH3,1,2,1
India,Chhattisgarh,Tumidih,"OP Jindal Industrial Park, Tumidih - CECB",23-09-2025 07:00:00,22.06631475,83.33820077,OZONE,4,33,6
India,Delhi,Delhi,"Alipur, Delhi - DPCC",23-09-2025 07:00:00,28.815329,77.153010,PM10,105,251,132
India,Delhi,Delhi,"Alipur, Delhi - DPCC",23-09-2025 07:00:00,28.815329,77.153010,SO2,3,9,6
India,Delhi,Delhi,"Alipur, Delhi - DPCC",23-09-2025 07:00:00,28.815329,77.153010,OZONE,2,35,5
India,Bihar,Patna,"Samanpura, Patna - BSPCB",23-09-2025 07:00:00,25.596727,85.085624,NH3,NA,NA,NA
India,Bihar,Purnia,"Mariam Nagar, Purnia - BSPCB",23-09-2025 07:00:00,25.366336,87.117468,NH3,3,3,3
India,Bihar,Saharsa,"Police Line, Saharsa - BSPCB",23-09-2025 07:00:00,25.892357,86.590325,NO2,3,13,7
India,Bihar,Saharsa,"Police Line, Saharsa - BSPCB",23-09-2025 07:00:00,25.892357,86.590325,NH3,4,4,4
India,Bihar,Samastipur,"DM Office_Kasipur, Samastipur - BSPCB",23-09-2025 07:00:00,25.859655,85.77944,PM2.5,23,329,129
India,Bihar,Samastipur,"DM Office_Kasipur, Samastipur - BSPCB",23-09-2025 07:00:00,25.859655,85.77944,NO2,1,8,4
India,Bihar,Samastipur,"DM Office_Kasipur, Samastipur - BSPCB",23-09-2025 07:00:00,25.859655,85.77944,NH3,2,2,2
India,Delhi,Delhi,"Anand Vihar, Delhi - DPCC",23-09-2025 07:00:00,28.647622,77.3158090,OZONE,2,16,5
India,Delhi,Delhi,"Aya Nagar, Delhi - IMD",23-09-2025 07:00:00,28.4706914,77.1099364,NO2,5,41,22
India,Delhi,Delhi,"Bawana, Delhi - DPCC",23-09-2025 07:00:00,28.776200,77.051074,PM2.5,40,157,82
India,Delhi,Delhi,"CRRI Mathura Road, Delhi - IMD",23-09-2025 07:00:00,28.5512005,77.2735737,CO,32,76,52
India,Delhi,Delhi,"Chandni Chowk, Delhi - IITM",23-09-2025 07:00:00,28.656756,77.227234,PM10,NA,NA,NA
India,Chhattisgarh,Korba,"Urja Nagar, Korba - CECB",23-09-2025 07:00:00,22.348441,82.549611,SO2,NA,NA,NA
India,Chhattisgarh,Korba,"Urja Nagar, Korba - CECB",23-09-2025 07:00:00,22.348441,82.549611,OZONE,35,36,35
India,Chhattisgarh,Kunjemura,"OP Jindal School, Kunjemura - CECB",23-09-2025 07:00:00,22.126650,83.483212,PM10,13,37,23
India,Chhattisgarh,Raipur,"AIIMS, Raipur - CECB",23-09-2025 07:00:00,21.258815,81.578979,NH3,5,5,5
India,Chhattisgarh,Raipur,"AIIMS, Raipur - CECB",23-09-2025 07:00:00,21.258815,81.578979,SO2,9,14,11
India,Chhattisgarh,Raipur,"AIIMS, Raipur - CECB",23-09-2025 07:00:00,21.258815,81.578979,CO,22,35,25
India,Delhi,Delhi,"ITO, Delhi - CPCB",23-09-2025 07:00:00,28.628624,77.241060,OZONE,39,48,40
India,Delhi,Delhi,"Jahangirpuri, Delhi - DPCC",23-09-2025 07:00:00,28.732820,77.170633,OZONE,15,70,21
India,Delhi,Delhi,"Jawaharlal Nehru Stadium, Delhi - DPCC",23-09-2025 07:00:00,28.580280,77.233829,NH3,5,11,7
India,Delhi,Delhi,"Jawaharlal Nehru Stadium, Delhi - DPCC",23-09-2025 07:00:00,28.580280,77.233829,OZONE,5,47,12
India,Delhi,Delhi,"Mandir Marg, Delhi - DPCC",23-09-2025 07:00:00,28.636429,77.201067,PM2.5,3,200,70
India,Himachal Pradesh,Baddi,"HIMUDA Complex Phase-1, Baddi - HPPCB",23-09-2025 07:00:00,30.943887,76.801991,OZONE,6,80,13
India,Jharkhand,Dhanbad,"Sardar Patel Nagar, Dhanbad - JSPCB",23-09-2025 07:00:00,23.80569,86.44268,OZONE,4,13,12
India,Karnataka,Bagalkot,"Vidayagiri, Bagalkot - KSPCB",23-09-2025 07:00:00,16.172806,75.659694,PM10,42,43,42
India,Karnataka,Bagalkot,"Vidayagiri, Bagalkot - KSPCB",23-09-2025 07:00:00,16.172806,75.659694,NH3,1,2,1
India,Karnataka,Bagalkot,"Vidayagiri, Bagalkot - KSPCB",23-09-2025 07:00:00,16.172806,75.659694,SO2,7,7,7
India,Karnataka,Bengaluru,"BTM Layout, Bengaluru - CPCB",23-09-2025 07:00:00,12.9135218,77.5950804,SO2,15,16,16
India,Karnataka,Bengaluru,"BTM Layout, Bengaluru - CPCB",23-09-2025 07:00:00,12.9135218,77.5950804,OZONE,22,23,22
India,Karnataka,Bengaluru,"Bapuji Nagar, Bengaluru - KSPCB",23-09-2025 07:00:00,12.951913,77.539784,NO2,3,9,6
India,Karnataka,Bengaluru,"Bapuji Nagar, Bengaluru - KSPCB",23-09-2025 07:00:00,12.951913,77.539784,SO2,2,8,4
India,Delhi,Delhi,"Nehru Nagar, Delhi - DPCC",23-09-2025 07:00:00,28.567890,77.250515,NO2,4,21,12
India,Delhi,Delhi,"North Campus, DU, Delhi - IMD",23-09-2025 07:00:00,28.6573814,77.1585447,PM10,87,154,118
India,Delhi,Delhi,"North Campus, DU, Delhi - IMD",23-09-2025 07:00:00,28.6573814,77.1585447,CO,NA,NA,NA
India,Delhi,Delhi,"Okhla Phase-2, Delhi - DPCC",23-09-2025 07:00:00,28.530785,77.271255,OZONE,4,77,29
India,Delhi,Delhi,"Patparganj, Delhi - DPCC",23-09-2025 07:00:00,28.623763,77.287209,PM2.5,47,98,68
India,Delhi,Delhi,"Patparganj, Delhi - DPCC",23-09-2025 07:00:00,28.623763,77.287209,OZONE,2,73,10
India,Delhi,Delhi,"Punjabi Bagh, Delhi - DPCC",23-09-2025 07:00:00,28.674045,77.131023,NH3,1,29,6
India,Karnataka,Bengaluru,"Hebbal, Bengaluru - KSPCB",23-09-2025 07:00:00,13.029152,77.585901,CO,12,32,21
India,Karnataka,Bengaluru,"Hombegowda Nagar, Bengaluru - KSPCB",23-09-2025 07:00:00,12.938539,77.590100,NH3,1,1,1
India,Karnataka,Bengaluru,"Hombegowda Nagar, Bengaluru - KSPCB",23-09-2025 07:00:00,12.938539,77.590100,CO,5,22,8
India,Karnataka,Bengaluru,"Jayanagar 5th Block, Bengaluru - KSPCB",23-09-2025 07:00:00,12.920984,77.584908,NH3,1,1,1
India,Karnataka,Bengaluru,"Jayanagar 5th Block, Bengaluru - KSPCB",23-09-2025 07:00:00,12.920984,77.584908,CO,2,24,6
India,Karnataka,Bengaluru,"Shivapura_Peenya, Bengaluru - KSPCB",23-09-2025 07:00:00,13.0246342,77.5080115,SO2,1,7,4
India,Karnataka,Chamarajanagar,"Urban, Chamarajanagar - KSPCB",23-09-2025 07:00:00,11.55358,76.55521,NH3,1,3,2
India,Gujarat,Ahmedabad,"Raikhad, Ahmedabad - IITM",23-09-2025 07:00:00,23.020509,72.579261,NH3,11,14,12
India,Gujarat,Ahmedabad,"Rakhial, Ahmedabad - IITM",23-09-2025 07:00:00,23.016834,72.625775,NO2,6,231,30
India,Gujarat,Ahmedabad,"Rakhial, Ahmedabad - IITM",23-09-2025 07:00:00,23.016834,72.625775,SO2,3,13,8
India,Gujarat,Ahmedabad,"SAC ISRO Bopal, Ahmedabad - IITM",23-09-2025 07:00:00,23.041137,72.456691,NH3,2,3,3
India,Gujarat,Ahmedabad,"SAC ISRO Bopal, Ahmedabad - IITM",23-09-2025 07:00:00,23.041137,72.456691,OZONE,1,25,7
India,Gujarat,Ahmedabad,"SAC ISRO Satellite, Ahmedabad - IITM",23-09-2025 07:00:00,23.023389,72.515201,NO2,11,44,23
India,Gujarat,Ahmedabad,"SAC ISRO Satellite, Ahmedabad - IITM",23-09-2025 07:00:00,23.023389,72.515201,NH3,3,4,3
India,Gujarat,Ahmedabad,"SAC ISRO Satellite, Ahmedabad - IITM",23-09-2025 07:00:00,23.023389,72.515201,SO2,2,9,4
India,Gujarat,Nandesari,"GIDC, Nandesari - Nandesari Ind. Association",23-09-2025 07:00:00,22.410802,73.097923,PM10,88,264,166
India,Gujarat,Vapi,"Phase-1 GIDC, Vapi - GPCB",23-09-2025 07:00:00,20.362421,72.918013,NH3,10,10,10
India,Gujarat,Vapi,"Phase-1 GIDC, Vapi - GPCB",23-09-2025 07:00:00,20.362421,72.918013,OZONE,2,2,2
India,Gujarat,Vatva,"Phase-4 GIDC, Vatva - GPCB",23-09-2025 07:00:00,22.969611,72.643500,PM10,59,110,74
India,Haryana,Panchgaon,"Amity University, Panchgaon - IITM",23-09-2025 07:00:00,28.3153,76.9143,SO2,1,14,4
India,Haryana,Panchgaon,"Amity University, Panchgaon - IITM",23-09-2025 07:00:00,28.3153,76.9143,CO,2,43,21
India,Delhi,Delhi,"Wazirpur, Delhi - DPCC",23-09-2025 07:00:00,28.699793,77.165453,PM10,115,230,162
India,Gujarat,Ahmedabad,"Chandkheda, Ahmedabad - IITM",23-09-2025 07:00:00,23.107969,72.574648,PM10,32,76,54
India,Gujarat,Ahmedabad,"Gyaspur, Ahmedabad - IITM",23-09-2025 07:00:00,22.977134,72.553024,PM10,47,99,74
India,Gujarat,Ahmedabad,"Maninagar, Ahmedabad - GPCB",23-09-2025 07:00:00,23.002657,72.591912,PM2.5,9,39,23
India,Gujarat,Ahmedabad,"Maninagar, Ahmedabad - GPCB",23-09-2025 07:00:00,23.002657,72.591912,PM10,14,47,27
India,Gujarat,Ahmedabad,"Maninagar, Ahmedabad - GPCB",23-09-2025 07:00:00,23.002657,72.591912,CO,21,50,34
India,Gujarat,Ahmedabad,"SVPI Airport Hansol, Ahmedabad - IITM",23-09-2025 07:00:00,23.076793,72.627874,NO2,6,34,16
India,Gujarat,Ahmedabad,"SVPI Airport Hansol, Ahmedabad - IITM",23-09-2025 07:00:00,23.076793,72.627874,SO2,1,7,3
India,Gujarat,Gandhinagar,"GIFT City, Gandhinagar - IITM",23-09-2025 07:00:00,23.163798,72.677768,PM2.5,17,39,27
India,Gujarat,Gandhinagar,"GIFT City, Gandhinagar - IITM",23-09-2025 07:00:00,23.163798,72.677768,NO2,7,27,16
India,Gujarat,Gandhinagar,"IIPHG Lekawada, Gandhinagar - IITM",23-09-2025 07:00:00,23.243639,72.68994,PM10,56,99,72
India,Gujarat,Gandhinagar,"IIPHG Lekawada, Gandhinagar - IITM",23-09-2025 07:00:00,23.243639,72.68994,NH3,1,2,1
India,Delhi,Delhi,"Pusa, Delhi - IMD",23-09-2025 07:00:00,28.636110,77.173332,PM10,NA,NA,NA
India,Delhi,Delhi,"Rohini, Delhi - DPCC",23-09-2025 07:00:00,28.732528,77.119920,PM10,88,172,124
India,Delhi,Delhi,"Rohini, Delhi - DPCC",23-09-2025 07:00:00,28.732528,77.119920,NH3,8,9,8
India,Delhi,Delhi,"Shadipur, Delhi - CPCB",23-09-2025 07:00:00,28.6514781,77.1473105,PM10,104,127,117
India,Delhi,Delhi,"Sonia Vihar, Delhi - DPCC",23-09-2025 07:00:00,28.710508,77.249485,CO,NA,NA,NA
India,Delhi,Delhi,"Sri Aurobindo Marg, Delhi - DPCC",23-09-2025 07:00:00,28.531346,77.190156,PM2.5,42,110,65
India,Delhi,Delhi,"Sri Aurobindo Marg, Delhi - DPCC",23-09-2025 07:00:00,28.531346,77.190156,PM10,55,149,100
India,Delhi,Delhi,"Sri Aurobindo Marg, Delhi - DPCC",23-09-2025 07:00:00,28.531346,77.190156,CO,22,46,32
India,Karnataka,Yadgir,"Collector Office, Yadgir - KSPCB",23-09-2025 07:00:00,16.7602,77.1428,NO2,28,46,35
India,Karnataka,Yadgir,"Collector Office, Yadgir - KSPCB",23-09-2025 07:00:00,16.7602,77.1428,CO,8,23,10
India,Kerala,Kannur,"Thavakkara, Kannur - Kerala PCB",23-09-2025 07:00:00,11.875000,75.373200,PM2.5,55,62,58
India,Kerala,Kollam,"Polayathode, Kollam - Kerala PCB",23-09-2025 07:00:00,8.8787,76.6073,PM10,NA,NA,NA
India,Kerala,Kollam,"Polayathode, Kollam - Kerala PCB",23-09-2025 07:00:00,8.8787,76.6073,CO,NA,NA,NA
India,Kerala,Thiruvananthapuram,"Kariavattom, Thiruvananthapuram - Kerala PCB",23-09-2025 07:00:00,8.563700,76.886500,PM10,56,71,63
India,Kerala,Thiruvananthapuram,"Kariavattom, Thiruvananthapuram - Kerala PCB",23-09-2025 07:00:00,8.563700,76.886500,CO,37,98,61
India,Kerala,Thiruvananthapuram,"Plammoodu, Thiruvananthapuram - Kerala PCB",23-09-2025 07:00:00,8.5149093,76.9435879,PM10,1,94,33
India,Kerala,Thiruvananthapuram,"Plammoodu, Thiruvananthapuram - Kerala PCB",23-09-2025 07:00:00,8.5149093,76.9435879,OZONE,14,20,18
India,Madhya Pradesh,Indore,"Regional Park, Indore - IMC",23-09-2025 07:00:00,22.6780,75.8559,PM2.5,15,51,24
India,Madhya Pradesh,Indore,"Residency Area, Indore - IMC",23-09-2025 07:00:00,22.7084,75.8815,PM10,18,58,36
India,Madhya Pradesh,Jabalpur,"Govindh Bhavan Colony, Jabalpur - JMC",23-09-2025 07:00:00,23.163174,79.973061,PM2.5,32,62,44
India,Madhya Pradesh,Jabalpur,"Gupteshwar, Jabalpur - JMC",23-09-2025 07:00:00,23.142888,79.916147,PM2.5,NA,NA,NA
India,Madhya Pradesh,Jabalpur,"Gupteshwar, Jabalpur - JMC",23-09-2025 07:00:00,23.142888,79.916147,PM10,NA,NA,NA
India,Madhya Pradesh,Jabalpur,"Gupteshwar, Jabalpur - JMC",23-09-2025 07:00:00,23.142888,79.916147,NO2,NA,NA,NA
India,Madhya Pradesh,Jabalpur,"Gupteshwar, Jabalpur - JMC",23-09-2025 07:00:00,23.142888,79.916147,NH3,NA,NA,NA
India,Madhya Pradesh,Jabalpur,"Gupteshwar, Jabalpur - JMC",23-09-2025 07:00:00,23.142888,79.916147,OZONE,NA,NA,NA
India,Madhya Pradesh,Jabalpur,"Marhatal, Jabalpur - MPPCB",23-09-2025 07:00:00,23.168606,79.932247,NO2,NA,NA,NA
India,Madhya Pradesh,Jabalpur,"Marhatal, Jabalpur - MPPCB",23-09-2025 07:00:00,23.168606,79.932247,CO,NA,NA,NA
India,Madhya Pradesh,Sagar,"Civil Lines, Sagar - MPPCB",23-09-2025 07:00:00,23.838586,78.759431,PM2.5,47,156,77
India,Madhya Pradesh,Satna,"Bandhavgar Colony, Satna - Birla Cement",23-09-2025 07:00:00,24.58434363,80.8549414,PM2.5,42,46,44
India,Madhya Pradesh,Satna,"Bandhavgar Colony, Satna - Birla Cement",23-09-2025 07:00:00,24.58434363,80.8549414,PM10,52,55,53
India,Madhya Pradesh,Satna,"Bandhavgar Colony, Satna - Birla Cement",23-09-2025 07:00:00,24.58434363,80.8549414,NO2,21,26,23
India,Madhya Pradesh,Singrauli,"Suryakiran Bhawan NCL, Singrauli - MPPCB",23-09-2025 07:00:00,24.108970,82.645580,NH3,NA,NA,NA
India,Maharashtra,Ahmednagar,"Tarakpur, Ahmednagar - MPCB",23-09-2025 07:00:00,19.10122,74.73339,NO2,17,26,22
India,Maharashtra,Ahmednagar,"Tarakpur, Ahmednagar - MPCB",23-09-2025 07:00:00,19.10122,74.73339,NH3,5,6,5
India,Madhya Pradesh,Gwalior,"City Center, Gwalior - MPPCB",23-09-2025 07:00:00,26.203442,78.193251,CO,4,86,19
India,Madhya Pradesh,Gwalior,"Deen Dayal Nagar, Gwalior - MPPCB",23-09-2025 07:00:00,26.259242,78.216432,NO2,4,76,16
India,Madhya Pradesh,Gwalior,"Deen Dayal Nagar, Gwalior - MPPCB",23-09-2025 07:00:00,26.259242,78.216432,NH3,2,8,5
India,Madhya Pradesh,Gwalior,"Deen Dayal Nagar, Gwalior - MPPCB",23-09-2025 07:00:00,26.259242,78.216432,CO,12,101,26
India,Madhya Pradesh,Indore,"Airport Area, Indore - IMC",23-09-2025 07:00:00,22.7289,75.8076,CO,6,6,6
India,Madhya Pradesh,Indore,"Chhoti Gwaltoli, Indore - MPPCB",23-09-2025 07:00:00,22.4310,75.5213,PM2.5,28,85,53
India,Madhya Pradesh,Indore,"Maguda Nagar, Indore - IMC",23-09-2025 07:00:00,22.7524,75.8872,NH3,NA,NA,NA
India,Karnataka,Hubballi,"Lingaraj Nagar, Hubballi - KSPCB",23-09-2025 07:00:00,15.3714823,75.1160168,CO,6,16,13
India,Karnataka,Hubballi,"Lingaraj Nagar, Hubballi - KSPCB",23-09-2025 07:00:00,15.3714823,75.1160168,OZONE,9,15,9
India,Karnataka,Kalaburagi,"Lal Bahadur Shastri Nagar, Kalaburagi - KSPCB",23-09-2025 07:00:00,17.321993,76.822628,NO2,11,12,12
India,Karnataka,Kalaburagi,"Lal Bahadur Shastri Nagar, Kalaburagi - KSPCB",23-09-2025 07:00:00,17.321993,76.822628,NH3,1,2,1
India,Karnataka,Kalaburagi,"Mahatma Basaveswar Colony, Kalaburgi - KSPCB",23-09-2025 07:00:00,17.336318,76.847397,SO2,2,18,5
India,Karnataka,Kalaburagi,"Mahatma Basaveswar Colony, Kalaburgi - KSPCB",23-09-2025 07:00:00,17.336318,76.847397,CO,34,46,35
India,Karnataka,Kalaburagi,"Mahatma Basaveswar Colony, Kalaburgi - KSPCB",23-09-2025 07:00:00,17.336318,76.847397,OZONE,8,15,14
India,Karnataka,Mangalore,"Kadri, Mangalore - KSPCB",23-09-2025 07:00:00,12.889250,74.853000,PM10,46,68,52
India,Karnataka,Mysuru,"Hebbal 1st Stage, Mysuru - KSPCB",23-09-2025 07:00:00,12.21041,76.37376,SO2,2,27,9
India,Karnataka,Mysuru,"Hebbal 1st Stage, Mysuru - KSPCB",23-09-2025 07:00:00,12.21041,76.37376,CO,2,19,7
India,Karnataka,Shivamogga,"Vinoba Nagara, Shivamogga - KSPCB",23-09-2025 07:00:00,13.940000,75.555917,OZONE,6,25,8
India,Karnataka,Vijayapura,"Ibrahimpur, Vijayapura - KSPCB",23-09-2025 07:00:00,16.802639,75.722694,OZONE,14,17,16
India,Karnataka,Davanagere,"Devaraj Urs Badavane, Davanagere - KSPCB",23-09-2025 07:00:00,14.475800,75.905200,NO2,10,21,14
India,Karnataka,Haveri,"Ashwini Nagar, Haveri - KSPCB",23-09-2025 07:00:00,14.791800,75.389600,PM10,30,49,36
India,Karnataka,Haveri,"Ashwini Nagar, Haveri - KSPCB",23-09-2025 07:00:00,14.791800,75.389600,OZONE,10,33,19
India,Madhya Pradesh,Mandideep,"Sector-D Industrial Area, Mandideep - MPPCB",23-09-2025 07:00:00,23.108440,77.511428,PM2.5,42,187,73
India,Madhya Pradesh,Mandideep,"Sector-D Industrial Area, Mandideep - MPPCB",23-09-2025 07:00:00,23.108440,77.511428,SO2,5,54,22
India,Madhya Pradesh,Mandideep,"Sector-D Industrial Area, Mandideep - MPPCB",23-09-2025 07:00:00,23.108440,77.511428,OZONE,19,77,31
India,Madhya Pradesh,Bhopal,"T T Nagar, Bhopal - MPPCB",23-09-2025 07:00:00,23.233584,77.400574,CO,25,108,33
India,Maharashtra,Kalyan,"Khadakpada, Kalyan - MPCB",23-09-2025 07:00:00,19.25292,73.142019,SO2,7,8,8
India,Maharashtra,Kolhapur,"Shivaji University, Kolhapur - MPCB",23-09-2025 07:00:00,16.6870449,74.2505872,SO2,2,5,3
India,Maharashtra,Kolhapur,"Sinchan Bhavan, Kolhapur - MPCB",23-09-2025 07:00:00,16.7143745,74.2426398,PM2.5,20,33,27
India,Maharashtra,Kolhapur,"Sinchan Bhavan, Kolhapur - MPCB",23-09-2025 07:00:00,16.7143745,74.2426398,CO,6,14,7
India,Maharashtra,Latur,"Sawe Wadi, Latur - MPCB",23-09-2025 07:00:00,18.39963,76.57452,NO2,3,37,12
India,Maharashtra,Latur,"Sawe Wadi, Latur - MPCB",23-09-2025 07:00:00,18.39963,76.57452,OZONE,10,34,24
India,Maharashtra,Mahad,"Kamble Tarf Birwadi, Mahad - MPCB",23-09-2025 07:00:00,18.1023399,73.4783687,NO2,23,37,26
India,Maharashtra,Chandrapur,"Chauhan Colony, Chandrapur - MPCB",23-09-2025 07:00:00,19.962900,79.298714,NH3,3,3,3
India,Maharashtra,Chandrapur,"Chauhan Colony, Chandrapur - MPCB",23-09-2025 07:00:00,19.962900,79.298714,SO2,34,34,34
India,Maharashtra,Chandrapur,"MIDC Khutala, Chandrapur - MPCB",23-09-2025 07:00:00,19.9775302,79.2337086,PM2.5,7,89,51
India,Maharashtra,Chandrapur,"MIDC Khutala, Chandrapur - MPCB",23-09-2025 07:00:00,19.9775302,79.2337086,NH3,1,5,3
India,Maharashtra,Dhule,"Deopur, Dhule - MPCB",23-09-2025 07:00:00,20.918946,74.776388,PM10,NA,NA,NA
India,Maharashtra,Jalgaon,"Prabhat Colony, Jalgaon - MPCB",23-09-2025 07:00:00,21.001264,75.565602,PM2.5,18,86,49
India,Maharashtra,Jalna,"Old MIDC, Jalna - MPCB",23-09-2025 07:00:00,19.854616,75.905894,SO2,12,22,17
India,Maharashtra,Mumbai,"Navy Nagar-Colaba, Mumbai - IITM",23-09-2025 07:00:00,18.897756,72.813320,PM2.5,28,68,47
India,Maharashtra,Mumbai,"Navy Nagar-Colaba, Mumbai - IITM",23-09-2025 07:00:00,18.897756,72.813320,PM10,22,75,50
India,Maharashtra,Mumbai,"Powai, Mumbai - MPCB",23-09-2025 07:00:00,19.137500,72.915056,OZONE,9,9,9
India,Maharashtra,Mumbai,"Shivaji Nagar, Mumbai - BMC",23-09-2025 07:00:00,19.060498,72.923356,CO,4,41,18
India,Maharashtra,Mumbai,"Siddharth Nagar-Worli, Mumbai - IITM",23-09-2025 07:00:00,19.000083,72.813993,PM2.5,8,31,21
India,Maharashtra,Mumbai,"Siddharth Nagar-Worli, Mumbai - IITM",23-09-2025 07:00:00,19.000083,72.813993,PM10,20,58,31
India,Maharashtra,Mumbai,"Vasai West, Mumbai - MPCB",23-09-2025 07:00:00,19.383200,72.820400,SO2,8,109,14
India,Maharashtra,Mumbai,"Deonar, Mumbai - IITM",23-09-2025 07:00:00,19.04946,72.9230,CO,16,71,31
India,Maharashtra,Mumbai,"Ghatkopar, Mumbai - BMC",23-09-2025 07:00:00,19.083694,72.920967,PM10,13,60,24
India,Maharashtra,Mumbai,"Ghatkopar, Mumbai - BMC",23-09-2025 07:00:00,19.083694,72.920967,SO2,8,10,9
India,Maharashtra,Mumbai,"Kandivali East, Mumbai - MPCB",23-09-2025 07:00:00,19.205800,72.868200,PM10,NA,NA,NA
India,Maharashtra,Mumbai,"Kandivali East, Mumbai - MPCB",23-09-2025 07:00:00,19.205800,72.868200,NH3,1,1,1
India,Maharashtra,Mumbai,"Kandivali East, Mumbai - MPCB",23-09-2025 07:00:00,19.205800,72.868200,SO2,NA,NA,NA
India,Maharashtra,Mumbai,"Kandivali West, Mumbai - BMC",23-09-2025 07:00:00,19.215859,72.831718,PM2.5,NA,NA,NA
India,Maharashtra,Mumbai,"Kandivali West, Mumbai - BMC",23-09-2025 07:00:00,19.215859,72.831718,NO2,NA,NA,NA
India,Maharashtra,Amravati,"Shivneri Colony, Amravati - MPCB",23-09-2025 07:00:00,20.9402359,77.7895248,NO2,5,27,11
India,Maharashtra,Amravati,"Shivneri Colony, Amravati - MPCB",23-09-2025 07:00:00,20.9402359,77.7895248,SO2,3,8,4
India,Maharashtra,Amravati,"Shri Shivaji Science College, Amravati - MPCB",23-09-2025 07:00:00,20.939198,77.765701,PM2.5,25,42,31
India,Maharashtra,Amravati,"Shri Shivaji Science College, Amravati - MPCB",23-09-2025 07:00:00,20.939198,77.765701,SO2,3,7,6
India,Maharashtra,Amravati,"Shri Shivaji Science College, Amravati - MPCB",23-09-2025 07:00:00,20.939198,77.765701,OZONE,3,49,22
India,Maharashtra,Aurangabad,"MIDC Chilkalthana, Aurangabad - MPCB",23-09-2025 07:00:00,19.875620,75.387310,PM10,19,72,43
India,Maharashtra,Mumbai,"Kurla, Mumbai - MPCB",23-09-2025 07:00:00,19.0863,72.8888,NO2,4,5,4
India,Maharashtra,Mumbai,"Mazgaon, Mumbai - IITM",23-09-2025 07:00:00,18.96702,72.84214,PM2.5,7,37,22
India,Maharashtra,Mumbai,"Mazgaon, Mumbai - IITM",23-09-2025 07:00:00,18.96702,72.84214,PM10,33,53,41
India,Maharashtra,Mumbai,"Mazgaon, Mumbai - IITM",23-09-2025 07:00:00,18.96702,72.84214,NH3,8,11,9
India,Maharashtra,Mumbai,"Mazgaon, Mumbai - IITM",23-09-2025 07:00:00,18.96702,72.84214,CO,1,73,14
India,Maharashtra,Mumbai,"Mindspace-Malad West, Mumbai - MPCB",23-09-2025 07:00:00,19.1878657,72.8304069,CO,30,30,30
India,Maharashtra,Mumbai,"Byculla, Mumbai - BMC",23-09-2025 07:00:00,18.9767,72.8380,PM2.5,12,39,20
India,Maharashtra,Mumbai,"Chakala-Andheri East, Mumbai - IITM",23-09-2025 07:00:00,19.11074,72.86084,PM2.5,9,38,25
India,Maharashtra,Mumbai,"Chembur, Mumbai - MPCB",23-09-2025 07:00:00,19.0364585,72.8954371,NO2,12,36,21
India,Maharashtra,Mumbai,"Chembur, Mumbai - MPCB",23-09-2025 07:00:00,19.0364585,72.8954371,NH3,5,8,6
India,Maharashtra,Mumbai,"Colaba, Mumbai - MPCB",23-09-2025 07:00:00,18.910000,72.820000,OZONE,8,13,11
India,Maharashtra,Malegaon,"Mahesh Nagar, Malegaon - MPCB",23-09-2025 07:00:00,20.555712,74.529236,OZONE,15,42,22
India,Maharashtra,Mira-Bhayandar,"Bhayandar West, Mira-Bhayandar - MPCB",23-09-2025 07:00:00,19.296481,72.840923,PM2.5,5,16,9
India,Maharashtra,Mumbai,"Bandra Kurla Complex, Mumbai - IITM",23-09-2025 07:00:00,19.053536,72.84643,NO2,9,26,5
India,Maharashtra,Mumbai,"Bandra Kurla Complex, Mumbai - MPCB",23-09-2025 07:00:00,19.065931,72.862131,NH3,NA,NA,NA
India,Maharashtra,Aurangabad,"Rachnakar Colony, Aurangabad - MPCB",23-09-2025 07:00:00,19.863756,75.321188,OZONE,10,56,13
India,Maharashtra,Badlapur,"Katrap, Badlapur - MPCB",23-09-2025 07:00:00,19.16485,73.23409,NO2,26,45,35
India,Maharashtra,Belapur,"CBD Belapur, Belapur - MPCB",23-09-2025 07:00:00,19.0243902,73.0406721,PM2.5,20,39,27
India,Maharashtra,Belapur,"CBD Belapur, Belapur - MPCB",23-09-2025 07:00:00,19.0243902,73.0406721,NO2,3,9,7
India,Maharashtra,Thane,"Kasarvadavali, Thane - MPCB",23-09-2025 07:00:00,19.26777,72.97182,NO2,10,17,13
India,Maharashtra,Thane,"Kasarvadavali, Thane - MPCB",23-09-2025 07:00:00,19.26777,72.97182,CO,16,48,20
India,Maharashtra,Thane,"Upvan Fort, Thane - MPCB",23-09-2025 07:00:00,19.222279,72.957979,PM10,16,50,33
India,Maharashtra,Thane,"Upvan Fort, Thane - MPCB",23-09-2025 07:00:00,19.222279,72.957979,NO2,2,25,12
India,Maharashtra,Thane,"Upvan Fort, Thane - MPCB",23-09-2025 07:00:00,19.222279,72.957979,SO2,3,5,4
India,Maharashtra,Ulhasnagar,"Sidhi Vinayak Nagar, Ulhasnagar - MPCB",23-09-2025 07:00:00,19.235581,73.159121,NH3,4,8,6
India,Maharashtra,Ulhasnagar,"Sidhi Vinayak Nagar, Ulhasnagar - MPCB",23-09-2025 07:00:00,19.235581,73.159121,SO2,5,22,12
India,Maharashtra,Ulhasnagar,"Sidhi Vinayak Nagar, Ulhasnagar - MPCB",23-09-2025 07:00:00,19.235581,73.159121,OZONE,10,38,12
India,Maharashtra,Virar,"Bolinj, Virar - MPCB",23-09-2025 07:00:00,19.4458210,72.7988231,PM2.5,6,26,14
India,Meghalaya,Shillong,"JN Stadium, Shillong - Meghalaya PCB",23-09-2025 07:00:00,25.5803419,91.8942571,PM2.5,NA,NA,NA
India,Maharashtra,Pimpri-Chinchwad,"Savta Mali Nagar, Pimpri-Chinchwad - IITM",23-09-2025 07:00:00,18.614767,73.799516,OZONE,2,23,8
India,Maharashtra,Pimpri-Chinchwad,"Thergaon, Pimpri Chinchwad - MPCB",23-09-2025 07:00:00,18.616318,73.765797,PM10,31,76,54
India,Maharashtra,Pimpri-Chinchwad,"Thergaon, Pimpri Chinchwad - MPCB",23-09-2025 07:00:00,18.616318,73.765797,NO2,9,17,13
India,Maharashtra,Pune,"Bhumkar Nagar, Pune - IITM",23-09-2025 07:00:00,18.605770,73.749976,PM10,25,60,40
India,Maharashtra,Pune,"Bhumkar Nagar, Pune - IITM",23-09-2025 07:00:00,18.605770,73.749976,NO2,3,15,8
India,Maharashtra,Pune,"Bhumkar Nagar, Pune - IITM",23-09-2025 07:00:00,18.605770,73.749976,OZONE,2,24,8
India,Maharashtra,Pune,"Katraj Dairy, Pune - MPCB",23-09-2025 07:00:00,18.454450,73.854155,PM10,17,54,32
India,Maharashtra,Pune,"Katraj Dairy, Pune - MPCB",23-09-2025 07:00:00,18.454450,73.854155,NO2,2,19,11
India,Maharashtra,Pune,"Mhada Colony, Pune - IITM",23-09-2025 07:00:00,18.573040,73.927715,NO2,44,68,58
India,Meghalaya,Shillong,"Lumpyngngad, Shillong - Meghalaya PCB",23-09-2025 07:00:00,25.5586,91.8985,PM10,1,11,7
India,Odisha,Angul,"Hakimapada, Angul - OSPCB",23-09-2025 07:00:00,20.832874,85.104082,SO2,7,103,22
India,Odisha,Angul,"Hakimapada, Angul - OSPCB",23-09-2025 07:00:00,20.832874,85.104082,OZONE,3,17,3
India,Odisha,Barbil,"Forest Office, Barbil - OSPCB",23-09-2025 07:00:00,22.1166054,85.3945546,NO2,16,121,37
India,Odisha,Barbil,"Forest Office, Barbil - OSPCB",23-09-2025 07:00:00,22.1166054,85.3945546,NH3,1,1,1
India,Odisha,Barbil,"Forest Office, Barbil - OSPCB",23-09-2025 07:00:00,22.1166054,85.3945546,CO,27,60,30
India,Odisha,Baripada,"Meher Colony, Baripada - OSPCB",23-09-2025 07:00:00,21.941841,86.728318,PM2.5,26,74,50
India,Maharashtra,Mumbai,"Worli, Mumbai - MPCB",23-09-2025 07:00:00,18.9936162,72.8128113,PM2.5,57,71,60
India,Maharashtra,Nagpur,"Mahal, Nagpur - MPCB",23-09-2025 07:00:00,21.14472,79.107595,NH3,3,4,3
India,Maharashtra,Nagpur,"Mahal, Nagpur - MPCB",23-09-2025 07:00:00,21.14472,79.107595,CO,14,116,33
India,Maharashtra,Nagpur,"Opp GPO Civil Lines, Nagpur - MPCB",23-09-2025 07:00:00,21.152875,79.0517531,SO2,1,11,6
India,Maharashtra,Nagpur,"Opp GPO Civil Lines, Nagpur - MPCB",23-09-2025 07:00:00,21.152875,79.0517531,CO,10,106,27
India,Maharashtra,Nagpur,"Ram Nagar, Nagpur - MPCB",23-09-2025 07:00:00,21.143383,79.048912,PM2.5,42,95,66
India,Maharashtra,Nagpur,"Ram Nagar, Nagpur - MPCB",23-09-2025 07:00:00,21.143383,79.048912,PM10,69,108,90
India,Maharashtra,Nashik,"Gangapur Road, Nashik - MPCB",23-09-2025 07:00:00,20.0073285,73.7762427,NO2,5,5,5
India,Maharashtra,Nashik,"Gangapur Road, Nashik - MPCB",23-09-2025 07:00:00,20.0073285,73.7762427,NH3,2,2,2
India,Maharashtra,Nashik,"Gangapur Road, Nashik - MPCB",23-09-2025 07:00:00,20.0073285,73.7762427,OZONE,14,18,16
India,Maharashtra,Nashik,"Hirawadi, Nashik - MPCB",23-09-2025 07:00:00,20.021503,73.813844,CO,18,28,20
India,Maharashtra,Nashik,"MIDC Ambad, Nashik - MPCB",23-09-2025 07:00:00,19.950220,73.731480,NH3,2,4,2
India,Maharashtra,Nashik,"Pandav Nagari, Nashik - MPCB",23-09-2025 07:00:00,19.9591346,73.7788008,PM10,13,40,25
India,Maharashtra,Nashik,"Pandav Nagari, Nashik - MPCB",23-09-2025 07:00:00,19.9591346,73.7788008,NH3,2,7,4
India,Maharashtra,Navi Mumbai,"Kopripada-Vashi, Navi Mumbai - MPCB",23-09-2025 07:00:00,19.090337,73.014232,PM2.5,9,34,22
India,Maharashtra,Navi Mumbai,"Kopripada-Vashi, Navi Mumbai - MPCB",23-09-2025 07:00:00,19.090337,73.014232,PM10,27,38,32
India,Maharashtra,Navi Mumbai,"Kopripada-Vashi, Navi Mumbai - MPCB",23-09-2025 07:00:00,19.090337,73.014232,SO2,23,29,24
India,Maharashtra,Navi Mumbai,"Kopripada-Vashi, Navi Mumbai - MPCB",23-09-2025 07:00:00,19.090337,73.014232,OZONE,2,22,5
India,Maharashtra,Navi Mumbai,"Nerul, Navi Mumbai - MPCB",23-09-2025 07:00:00,19.008751,73.016620,PM10,36,120,60
India,Maharashtra,Navi Mumbai,"Nerul, Navi Mumbai - MPCB",23-09-2025 07:00:00,19.008751,73.016620,SO2,NA,NA,NA
India,Maharashtra,Navi Mumbai,"Sanpada, Navi Mumbai - MPCB",23-09-2025 07:00:00,19.0575752,73.0151367,NH3,11,11,11
India,Maharashtra,Sangli,"Vijay Nagar, Sangli - MPCB",23-09-2025 07:00:00, 16.5038,74.3623,PM10,29,49,38
India,Maharashtra,Sangli,"Vijay Nagar, Sangli - MPCB",23-09-2025 07:00:00, 16.5038,74.3623,NO2,2,10,5
India,Maharashtra,Sangli,"Vijay Nagar, Sangli - MPCB",23-09-2025 07:00:00, 16.5038,74.3623,SO2,6,6,6
India,Maharashtra,Solapur,"Dnyaneshwar Nagar, Solapur - MPCB",23-09-2025 07:00:00,17.6336264,75.9132495,SO2,1,3,2
India,Maharashtra,Solapur,"Ratandeep Housing Society, Solapur - MPCB",23-09-2025 07:00:00,17.65439,75.90649,NO2,3,37,17
India,Maharashtra,Solapur,"Ratandeep Housing Society, Solapur - MPCB",23-09-2025 07:00:00,17.65439,75.90649,OZONE,5,34,19
India,Maharashtra,Navi Mumbai,"Sector-2E Kalamboli, Navi Mumbai - MPCB",23-09-2025 07:00:00,19.02579,73.10297,OZONE,4,67,5
India,Maharashtra,Parbhani,"Masoom Colony, Parbhani - MPCB",23-09-2025 07:00:00,19.265594,76.761463,PM10,52,83,66
India,Maharashtra,Parbhani,"Masoom Colony, Parbhani - MPCB",23-09-2025 07:00:00,19.265594,76.761463,CO,2,58,46
India,Maharashtra,Pimpri-Chinchwad,"Park Street Wakad, Pimpri Chinchwad - MPCB",23-09-2025 07:00:00,18.59051,73.77946,PM2.5,6,28,12
India,Maharashtra,Pimpri-Chinchwad,"Park Street Wakad, Pimpri Chinchwad - MPCB",23-09-2025 07:00:00,18.59051,73.77946,PM10,13,54,29
India,Odisha,Bhubaneswar,"Patia, Bhubaneswar - OSPCB",23-09-2025 07:00:00,20.34652,85.81630,NH3,6,13,8
India,Odisha,Bhubaneswar,"Patia, Bhubaneswar - OSPCB",23-09-2025 07:00:00,20.34652,85.81630,SO2,2,30,8
India,Odisha,Brajrajnagar,"GM Office, Brajrajnagar - OSPCB",23-09-2025 07:00:00,21.8004996,83.8396977,SO2,16,17,16
India,Punjab,Mandi Gobindgarh,"RIMT University, Mandi Gobindgarh - PPCB",23-09-2025 07:00:00,30.649961,76.331442,CO,8,82,26
India,Punjab,Patiala,"Model Town, Patiala - PPCB",23-09-2025 07:00:00,30.349388,76.366642,NO2,16,20,17
India,Punjab,Patiala,"Model Town, Patiala - PPCB",23-09-2025 07:00:00,30.349388,76.366642,SO2,10,18,14
India,Rajasthan,Ajmer,"Civil Lines,  Ajmer - RSPCB",23-09-2025 07:00:00,26.470859,74.646594,PM2.5,35,54,42
India,Rajasthan,Ajmer,"Civil Lines,  Ajmer - RSPCB",23-09-2025 07:00:00,26.470859,74.646594,SO2,2,41,13
India,Rajasthan,Ajmer,"Civil Lines,  Ajmer - RSPCB",23-09-2025 07:00:00,26.470859,74.646594,CO,70,98,84
India,Rajasthan,Alwar,"Moti Doongri, Alwar - RSPCB",23-09-2025 07:00:00,27.554793,76.611536,PM10,46,147,70
India,Rajasthan,Banswara,"Rati Talai, Banswara - RSPCB",23-09-2025 07:00:00,23.555190,74.440010,PM2.5,12,93,63
India,Rajasthan,Baran,"Bamboliya, Baran - RSPCB",23-09-2025 07:00:00,25.106006,76.469948,PM2.5,18,83,41
India,Rajasthan,Baran,"Bamboliya, Baran - RSPCB",23-09-2025 07:00:00,25.106006,76.469948,PM10,65,104,77
India,Rajasthan,Barmer,"Railway Colony, Barmer - RSPCB",23-09-2025 07:00:00,25.747299,71.393989,PM10,57,98,78
India,Rajasthan,Bharatpur,"Krishna Nagar, Bharatpur - RSPCB",23-09-2025 07:00:00,27.215415,77.50873,SO2,1,3,2
India,Rajasthan,Bhilwara,"Pratap Nagar, Bhilwara - RSPCB",23-09-2025 07:00:00,25.339605,74.618883,NO2,5,20,9
India,Rajasthan,Bhilwara,"Pratap Nagar, Bhilwara - RSPCB",23-09-2025 07:00:00,25.339605,74.618883,NH3,1,2,2
India,Rajasthan,Bhilwara,"Pratap Nagar, Bhilwara - RSPCB",23-09-2025 07:00:00,25.339605,74.618883,OZONE,10,47,19
India,Rajasthan,Bhiwadi,"RIICO Ind. Area III, Bhiwadi - RSPCB",23-09-2025 07:00:00,28.194909,76.862296,PM10,71,123,95
India,Rajasthan,Bhiwadi,"RIICO Ind. Area III, Bhiwadi - RSPCB",23-09-2025 07:00:00,28.194909,76.862296,NO2,17,40,30
India,Rajasthan,Bhiwadi,"RIICO Ind. Area III, Bhiwadi - RSPCB",23-09-2025 07:00:00,28.194909,76.862296,SO2,1,14,6
India,Rajasthan,Bhiwadi,"Vasundhara Nagar_UIT, Bhiwadi - RSPCB",23-09-2025 07:00:00,28.207266,76.829265,OZONE,6,33,16
India,Rajasthan,Bikaner,"MM Ground, Bikaner - RSPCB",23-09-2025 07:00:00,28.018792,73.292658,NH3,7,10,8
India,Rajasthan,Bundi,"New Colony, Bundi - RSPCB",23-09-2025 07:00:00,25.435774,75.644272,NO2,3,64,13
India,Rajasthan,Bundi,"New Colony, Bundi - RSPCB",23-09-2025 07:00:00,25.435774,75.644272,NH3,1,5,2
India,Rajasthan,Bundi,"New Colony, Bundi - RSPCB",23-09-2025 07:00:00,25.435774,75.644272,SO2,1,9,4
India,Rajasthan,Chittorgarh,"Shastri Nagar, Chittorgarh - RSPCB",23-09-2025 07:00:00,24.892047,74.623527,CO,8,44,10
India,Odisha,Byasanagar,"Ferro Chrome Colony, Byasanagar - OSPCB",23-09-2025 07:00:00,20.94185,86.11510,CO,4,50,22
India,Odisha,Cuttack,"CDA Area, Cuttack - OSPCB",23-09-2025 07:00:00,20.48891     ,85.84768     ,PM2.5,33,113,69
India,Odisha,Keonjhar,"Jagamohanpur, Keonjhar - OSPCB",23-09-2025 07:00:00,21.643900,85.599355,NO2,14,28,19
India,Odisha,Nayagarh,"Dabuna, Nayagarh - OSPCB",23-09-2025 07:00:00,21.847279,85.416905,SO2,2,7,4
India,Odisha,Rairangpur,"Divisional Forest Office, Rairangpur - OSPCB",23-09-2025 07:00:00,22.265816,86.174829,OZONE,18,30,20
India,Odisha,Rourkela,"Fertilizer Township, Rourkela - OSPCB",23-09-2025 07:00:00,22.18972222,84.86277778,PM10,57,65,60
India,Odisha,Talcher,"Talcher Coalfields,Talcher - OSPCB",23-09-2025 07:00:00,20.9360711,85.1707021,PM2.5,11,93,57
India,Odisha,Talcher,"Talcher Coalfields,Talcher - OSPCB",23-09-2025 07:00:00,20.9360711,85.1707021,NH3,4,7,6
India,Punjab,Amritsar,"Golden Temple, Amritsar - PPCB",23-09-2025 07:00:00,31.620000,74.876512,NH3,8,17,11
India,Punjab,Amritsar,"Golden Temple, Amritsar - PPCB",23-09-2025 07:00:00,31.620000,74.876512,CO,46,64,58
India,Rajasthan,Churu,"Subash Chowk, Churu - RSPCB",23-09-2025 07:00:00,28.296139,74.961696,PM10,42,118,81
India,Rajasthan,Dausa,"Khatikan Mohalla, Dausa - RSPCB",23-09-2025 07:00:00,26.895552,76.334753,SO2,2,6,3
India,Rajasthan,Dholpur,"Raja Ganj, Dholpur - RSPCB",23-09-2025 07:00:00,26.699557,77.898881,PM10,82,175,122
India,Rajasthan,Dholpur,"Raja Ganj, Dholpur - RSPCB",23-09-2025 07:00:00,26.699557,77.898881,NO2,8,23,14
India,Rajasthan,Dungarpur,"Bhoiwada, Dungarpur - RSPCB",23-09-2025 07:00:00,23.837789,73.714926,SO2,2,4,4
India,Punjab,Bathinda,"Hardev Nagar, Bathinda - PPCB",23-09-2025 07:00:00,30.233011,74.907758,CO,2,49,9
India,Punjab,Khanna,"Kalal Majra, Khanna - PPCB",23-09-2025 07:00:00,30.736056 ,76.209694,SO2,4,6,5
India,Punjab,Khanna,"Kalal Majra, Khanna - PPCB",23-09-2025 07:00:00,30.736056 ,76.209694,CO,2,56,37
India,Punjab,Khanna,"Kalal Majra, Khanna - PPCB",23-09-2025 07:00:00,30.736056 ,76.209694,OZONE,27,29,28
India,Punjab,Ludhiana,"Punjab Agricultural University, Ludhiana - PPCB",23-09-2025 07:00:00,30.9028,75.8086,OZONE,27,58,29
India,Rajasthan,Jaipur,"Mansarovar Sector-12, Jaipur - RSPCB",23-09-2025 07:00:00,26.843698,75.766894,PM10,14,197,84
India,Rajasthan,Jaipur,"Mansarovar Sector-12, Jaipur - RSPCB",23-09-2025 07:00:00,26.843698,75.766894,SO2,NA,NA,NA
India,Rajasthan,Jaipur,"Police Commissionerate, Jaipur - RSPCB",23-09-2025 07:00:00,26.9164092,75.7994901,PM10,46,154,97
India,Rajasthan,Jaipur,"RIICO Sitapura, Jaipur - RSPCB",23-09-2025 07:00:00,26.786682,75.827928,OZONE,2,208,7
India,Rajasthan,Jalore,"Mudtra Sili, Jalore - RSPCB",23-09-2025 07:00:00,25.344694,72.626208,OZONE,20,48,28
India,TamilNadu,Coimbatore,"PSG College of Arts and Science, Coimbatore - TNPCB",23-09-2025 07:00:00,11.0328,77.0349,PM2.5,42,117,67
India,TamilNadu,Coimbatore,"PSG College of Arts and Science, Coimbatore - TNPCB",23-09-2025 07:00:00,11.0328,77.0349,NH3,2,2,2
India,TamilNadu,Coimbatore,"PSG College of Arts and Science, Coimbatore - TNPCB",23-09-2025 07:00:00,11.0328,77.0349,SO2,9,10,9
India,TamilNadu,Coimbatore,"SIDCO Kurichi, Coimbatore - TNPCB",23-09-2025 07:00:00,10.942451,76.978996,NO2,17,21,19
India,TamilNadu,Coimbatore,"SIDCO Kurichi, Coimbatore - TNPCB",23-09-2025 07:00:00,10.942451,76.978996,OZONE,1,7,1
India,TamilNadu,Cuddalore,"Kudikadu, Cuddalore - TNPCB",23-09-2025 07:00:00,11.6829898,79.7532099,PM2.5,11,60,31
India,TamilNadu,Cuddalore,"Semmandalam, Cuddalore - TNPCB",23-09-2025 07:00:00,11.7637683,79.7499835,PM2.5,13,80,28
India,TamilNadu,Cuddalore,"Semmandalam, Cuddalore - TNPCB",23-09-2025 07:00:00,11.7637683,79.7499835,NO2,1,11,4
India,TamilNadu,Cuddalore,"Semmandalam, Cuddalore - TNPCB",23-09-2025 07:00:00,11.7637683,79.7499835,OZONE,1,2,2
India,TamilNadu,Dindigul,"Mendonsa Colony, Dindigul - TNPCB",23-09-2025 07:00:00,10.358535,77.984321,NH3,1,1,1
India,Rajasthan,Sikar,"Radhakishan Pura, Sikar - RSPCB",23-09-2025 07:00:00,27.608912,75.153302,CO,15,51,19
India,Rajasthan,Sirohi,"Vedhaynath Colony, Sirohi - RSPCB",23-09-2025 07:00:00,24.885261,72.857549,PM2.5,20,75,44
India,Rajasthan,Sirohi,"Vedhaynath Colony, Sirohi - RSPCB",23-09-2025 07:00:00,24.885261,72.857549,OZONE,4,35,12
India,Rajasthan,Sri Ganganagar,"Old City, Sri Ganganagar - RSPCB",23-09-2025 07:00:00,29.931624,73.864511,PM10,54,271,120
India,Rajasthan,Tonk,"Shastri Nagar, Tonk - RSPCB",23-09-2025 07:00:00,26.159933,75.780517,NH3,3,7,5
India,Rajasthan,Udaipur,"Ashok Nagar, Udaipur - RSPCB",23-09-2025 07:00:00,24.5886166,73.6321397,NH3,NA,NA,NA
India,Rajasthan,Udaipur,"Ashok Nagar, Udaipur - RSPCB",23-09-2025 07:00:00,24.5886166,73.6321397,SO2,NA,NA,NA
India,Rajasthan,Udaipur,"Ashok Nagar, Udaipur - RSPCB",23-09-2025 07:00:00,24.5886166,73.6321397,CO,4,54,17
India,Rajasthan,Udaipur,"Ashok Nagar, Udaipur - RSPCB",23-09-2025 07:00:00,24.5886166,73.6321397,OZONE,6,349,26
India,TamilNadu,Hosur,"SIPCOT Phase-1, Hosur - TNPCB",23-09-2025 07:00:00,12.746998,77.813811,SO2,51,54,53
India,TamilNadu,Karur,"Kamadenu Nagar, Karur - TNPCB",23-09-2025 07:00:00,10.967820,78.080882,PM2.5,18,46,27
India,TamilNadu,Karur,"Kamadenu Nagar, Karur - TNPCB",23-09-2025 07:00:00,10.967820,78.080882,PM10,19,47,29
India,TamilNadu,Karur,"Kamadenu Nagar, Karur - TNPCB",23-09-2025 07:00:00,10.967820,78.080882,OZONE,6,9,8
India,TamilNadu,Madurai,"Uchapatti, Madurai - TNPCB",23-09-2025 07:00:00,9.865935,78.022669,PM10,NA,NA,NA
India,TamilNadu,Madurai,"Uchapatti, Madurai - TNPCB",23-09-2025 07:00:00,9.865935,78.022669,NH3,NA,NA,NA
India,TamilNadu,Madurai,"Uchapatti, Madurai - TNPCB",23-09-2025 07:00:00,9.865935,78.022669,SO2,NA,NA,NA
India,TamilNadu,Madurai,"Uchapatti, Madurai - TNPCB",23-09-2025 07:00:00,9.865935,78.022669,CO,NA,NA,NA
India,TamilNadu,Ooty,"Bombay Castel, Ooty - TNPCB",23-09-2025 07:00:00,11.4068288,76.7138973,NO2,2,4,4
India,Rajasthan,Jodhpur,"Samrat Ashok Udhyan, Jodhpur - RSPCB",23-09-2025 07:00:00,26.253384,72.976571,PM10,36,103,68
India,Rajasthan,Jodhpur,"Samrat Ashok Udhyan, Jodhpur - RSPCB",23-09-2025 07:00:00,26.253384,72.976571,SO2,NA,NA,NA
India,Rajasthan,Karauli,"Satyawati Vihar, Karauli - RSPCB",23-09-2025 07:00:00,26.506177,77.025989,PM10,64,136,85
India,Rajasthan,Karauli,"Satyawati Vihar, Karauli - RSPCB",23-09-2025 07:00:00,26.506177,77.025989,NH3,3,5,5
India,Rajasthan,Karauli,"Satyawati Vihar, Karauli - RSPCB",23-09-2025 07:00:00,26.506177,77.025989,SO2,5,9,7
India,Rajasthan,Karauli,"Satyawati Vihar, Karauli - RSPCB",23-09-2025 07:00:00,26.506177,77.025989,OZONE,2,18,4
India,Rajasthan,Kota,"Dhanmandi, Kota - RSPCB",23-09-2025 07:00:00,25.164090,75.858137,OZONE,5,60,19
India,Rajasthan,Kota,"Nayapura, Kota - RSPCB",23-09-2025 07:00:00,25.196024,75.855668,NH3,1,6,2
India,Rajasthan,Kota,"Nayapura, Kota - RSPCB",23-09-2025 07:00:00,25.196024,75.855668,OZONE,5,57,19
India,Sikkim,Gangtok,"Zero Point GICI, Gangtok - SSPCB",23-09-2025 07:00:00,27.338530,88.614099,NO2,1,2,1
India,Sikkim,Gangtok,"Zero Point GICI, Gangtok - SSPCB",23-09-2025 07:00:00,27.338530,88.614099,NH3,1,1,1
India,Sikkim,Gangtok,"Zero Point GICI, Gangtok - SSPCB",23-09-2025 07:00:00,27.338530,88.614099,OZONE,19,49,20
India,TamilNadu,Chengalpattu,"Crescent University, Chengalpattu - TNPCB",23-09-2025 07:00:00,12.8777316,80.0834807,PM2.5,45,80,58
India,TamilNadu,Chengalpattu,"Crescent University, Chengalpattu - TNPCB",23-09-2025 07:00:00,12.8777316,80.0834807,NO2,3,4,4
India,TamilNadu,Chengalpattu,"Crescent University, Chengalpattu - TNPCB",23-09-2025 07:00:00,12.8777316,80.0834807,SO2,15,16,16
India,TamilNadu,Chennai,"Kodungaiyur, Chennai - TNPCB",23-09-2025 07:00:00,13.1278,80.2642,PM2.5,10,89,33
India,Rajasthan,Pali,"Indira Colony Vistar, Pali - RSPCB",23-09-2025 07:00:00,25.771061, 73.340227,NH3,5,12,8
India,Rajasthan,Pali,"Indira Colony Vistar, Pali - RSPCB",23-09-2025 07:00:00,25.771061, 73.340227,CO,4,41,22
India,Rajasthan,Pratapgarh,"Pragati Nagar, Pratapgarh - RSPCB",23-09-2025 07:00:00,24.041198,74.780702,PM2.5,13,48,29
India,Rajasthan,Pratapgarh,"Pragati Nagar, Pratapgarh - RSPCB",23-09-2025 07:00:00,24.041198,74.780702,PM10,17,81,42
India,Rajasthan,Rajsamand,"Dhoinda, Rajsamand - RSPCB",23-09-2025 07:00:00,25.036360,73.883502,SO2,6,7,6
India,Rajasthan,Sawai Madhopur,"Sahu Nagar, Sawai Madhopur - RSPCB",23-09-2025 07:00:00,26.031443,76.359327,PM10,54,173,93
India,TamilNadu,Chennai,"Manali, Chennai - CPCB",23-09-2025 07:00:00,13.164544,80.26285,PM10,65,66,66
India,TamilNadu,Chennai,"Manali, Chennai - CPCB",23-09-2025 07:00:00,13.164544,80.26285,NH3,6,7,6
India,TamilNadu,Chennai,"Perungudi, Chennai - TNPCB",23-09-2025 07:00:00,12.9533,80.2357,NO2,2,18,4
India,TamilNadu,Chennai,"Royapuram, Chennai - TNPCB",23-09-2025 07:00:00,13.1036,80.2909,NO2,10,43,21
India,TamilNadu,Chennai,"Velachery Res. Area, Chennai - CPCB",23-09-2025 07:00:00,13.0052189,80.2398125,PM2.5,29,58,44
India,TamilNadu,Chennai,"Velachery Res. Area, Chennai - CPCB",23-09-2025 07:00:00,13.0052189,80.2398125,NO2,14,17,15
India,Rajasthan,Jodhpur,"Collectorate, Jodhpur - RSPCB",23-09-2025 07:00:00,26.268249,73.0193853,NO2,7,27,13
India,Rajasthan,Jodhpur,"Collectorate, Jodhpur - RSPCB",23-09-2025 07:00:00,26.268249,73.0193853,SO2,1,62,10
India,Rajasthan,Jodhpur,"Collectorate, Jodhpur - RSPCB",23-09-2025 07:00:00,26.268249,73.0193853,OZONE,11,31,15
India,Rajasthan,Jodhpur,"Digari Kalan, Jodhpur - RSPCB",23-09-2025 07:00:00,26.295810,73.082283,CO,11,33,16
India,Rajasthan,Jodhpur,"Digari Kalan, Jodhpur - RSPCB",23-09-2025 07:00:00,26.295810,73.082283,OZONE,5,52,17
India,TamilNadu,Ooty,"Bombay Castel, Ooty - TNPCB",23-09-2025 07:00:00,11.4068288,76.7138973,OZONE,5,5,5
India,TamilNadu,Palkalaiperur,"Bharathidasan University, Palkalaiperur - TNPCB",23-09-2025 07:00:00,10.681158,78.741746,PM10,9,41,26
India,TamilNadu,Palkalaiperur,"Bharathidasan University, Palkalaiperur - TNPCB",23-09-2025 07:00:00,10.681158,78.741746,NH3,1,1,1
India,Uttar_Pradesh,Ghaziabad,"Indirapuram, Ghaziabad - UPPCB",23-09-2025 07:00:00,28.646233,77.358075,NH3,6,10,6
India,Uttar_Pradesh,Ghaziabad,"Indirapuram, Ghaziabad - UPPCB",23-09-2025 07:00:00,28.646233,77.358075,SO2,10,18,15
India,Uttar_Pradesh,Ghaziabad,"Indirapuram, Ghaziabad - UPPCB",23-09-2025 07:00:00,28.646233,77.358075,CO,34,74,47
India,Uttar_Pradesh,Ghaziabad,"Loni, Ghaziabad - UPPCB",23-09-2025 07:00:00,28.757294,77.278792,CO,54,118,66
India,Uttar_Pradesh,Ghaziabad,"Sanjay Nagar, Ghaziabad - UPPCB",23-09-2025 07:00:00,28.685382,77.453839,SO2,15,28,20
India,Uttar_Pradesh,Ghaziabad,"Vasundhara, Ghaziabad - UPPCB",23-09-2025 07:00:00,28.6603346,77.3572563,PM10,106,183,143
India,Uttar_Pradesh,Ghaziabad,"Vasundhara, Ghaziabad - UPPCB",23-09-2025 07:00:00,28.6603346,77.3572563,CO,16,48,24
India,Uttar_Pradesh,Gorakhpur,"Madan Mohan Malaviya University of Technology, Gorakhpur - UPPCB",23-09-2025 07:00:00,26.730136,83.433859,SO2,24,26,25
India,Uttar_Pradesh,Gorakhpur,"Madan Mohan Malaviya University of Technology, Gorakhpur - UPPCB",23-09-2025 07:00:00,26.730136,83.433859,CO,6,7,6
India,Uttar_Pradesh,Gorakhpur,"Madan Mohan Malaviya University of Technology, Gorakhpur - UPPCB",23-09-2025 07:00:00,26.730136,83.433859,OZONE,2,28,6
India,Uttar_Pradesh,Greater Noida,"Knowledge Park - III, Greater Noida - UPPCB",23-09-2025 07:00:00,28.47272,77.482000,PM2.5,41,148,62
India,Uttar_Pradesh,Greater Noida,"Knowledge Park - III, Greater Noida - UPPCB",23-09-2025 07:00:00,28.47272,77.482000,PM10,108,189,149
India,Uttar_Pradesh,Bareilly,"Civil Lines, Bareilly - UPPCB",23-09-2025 07:00:00,28.359581,79.414455,NO2,2,3,2
India,Uttar_Pradesh,Bareilly,"Rajendra Nagar, Bareilly - UPPCB",23-09-2025 07:00:00,28.38910936,79.42963708,CO,42,71,53
India,Uttar_Pradesh,Bulandshahr,"Yamunapuram, Bulandshahr - UPPCB",23-09-2025 07:00:00,28.406963,77.849831,PM10,106,210,150
India,Uttar_Pradesh,Bulandshahr,"Yamunapuram, Bulandshahr - UPPCB",23-09-2025 07:00:00,28.406963,77.849831,SO2,8,45,17
India,Uttar_Pradesh,Firozabad,"Nagla Bhau, Firozabad - UPPCB",23-09-2025 07:00:00,27.168897,78.376960,PM2.5,11,47,27
India,Uttar_Pradesh,Firozabad,"Vibhab Nagar, Firozabad - UPPCB",23-09-2025 07:00:00,27.1594,78.3953,NH3,2,2,2
India,Uttar_Pradesh,Firozabad,"Vibhab Nagar, Firozabad - UPPCB",23-09-2025 07:00:00,27.1594,78.3953,CO,6,16,9
India,Telangana,Hyderabad,"Bollaram Industrial Area, Hyderabad - TSPCB",23-09-2025 07:00:00,17.540891,78.358528,NH3,3,9,5
India,Telangana,Hyderabad,"Bollaram Industrial Area, Hyderabad - TSPCB",23-09-2025 07:00:00,17.540891,78.358528,SO2,4,14,8
India,Telangana,Hyderabad,"Bollaram Industrial Area, Hyderabad - TSPCB",23-09-2025 07:00:00,17.540891,78.358528,CO,18,60,23
India,Telangana,Hyderabad,"ICRISAT Patancheru, Hyderabad - TSPCB",23-09-2025 07:00:00,17.518400,78.278777,PM2.5,38,87,59
India,Telangana,Hyderabad,"ICRISAT Patancheru, Hyderabad - TSPCB",23-09-2025 07:00:00,17.518400,78.278777,PM10,31,60,43
India,Telangana,Hyderabad,"ICRISAT Patancheru, Hyderabad - TSPCB",23-09-2025 07:00:00,17.518400,78.278777,NO2,3,6,5
India,Telangana,Hyderabad,"IDA Pashamylaram, Hyderabad - TSPCB",23-09-2025 07:00:00,17.5316895,78.218939,PM10,56,97,75
India,Telangana,Hyderabad,"Somajiguda, Hyderabad - TSPCB",23-09-2025 07:00:00,17.417094,78.457437,PM2.5,NA,NA,NA
India,Telangana,Hyderabad,"Zoo Park, Hyderabad - TSPCB",23-09-2025 07:00:00,17.349694,78.451437,NO2,5,24,15
India,Tripura,Agartala,"Bardowali, Agartala - Tripura SPCB",23-09-2025 07:00:00,23.8175497,91.2726974,NH3,2,2,2
India,Uttar_Pradesh,Agra,"Manoharpur, Agra - UPPCB",23-09-2025 07:00:00,27.23711,78.01936,CO,8,16,8
India,Uttar_Pradesh,Agra,"Manoharpur, Agra - UPPCB",23-09-2025 07:00:00,27.23711,78.01936,OZONE,8,8,8
India,TamilNadu,Tiruchirappalli,"St Joseph College, Tiruchirappalli - TNPCB",23-09-2025 07:00:00,10.830158,78.691849,PM2.5,37,68,49
India,TamilNadu,Tiruchirappalli,"St Joseph College, Tiruchirappalli - TNPCB",23-09-2025 07:00:00,10.830158,78.691849,PM10,35,78,52
India,TamilNadu,Tirunelveli,"Municipal Corporation Office, Tirunelveli - TNPCB",23-09-2025 07:00:00,8.728442,77.6962,OZONE,6,7,6
India,TamilNadu,Virudhunagar,"Collectorate Office, Virudhunagar - TNPCB",23-09-2025 07:00:00,9.559382,77.948828,PM2.5,27,59,36
India,TamilNadu,Virudhunagar,"Collectorate Office, Virudhunagar - TNPCB",23-09-2025 07:00:00,9.559382,77.948828,PM10,29,68,40
India,Telangana,Hyderabad,"IITH Kandi, Hyderabad - TSPCB",23-09-2025 07:00:00,17.585705,78.126199,NH3,NA,NA,NA
India,Telangana,Hyderabad,"Kokapet, Hyderabad - TSPCB",23-09-2025 07:00:00,17.393559,78.339194,NH3,1,2,1
India,Telangana,Hyderabad,"Nacharam_TSIIC IALA, Hyderabad - TSPCB",23-09-2025 07:00:00,17.429398,78.569354,OZONE,28,35,28
India,Telangana,Hyderabad,"New Malakpet, Hyderabad - TSPCB",23-09-2025 07:00:00,17.37206,78.50864,OZONE,22,57,42
India,Telangana,Hyderabad,"Ramachandrapuram, Hyderabad - TSPCB",23-09-2025 07:00:00,17.528544,78.286195,NO2,9,10,9
India,Uttar_Pradesh,Agra,"Shahjahan Garden, Agra - UPPCB",23-09-2025 07:00:00,27.169338,78.03582,CO,6,22,15
India,Uttar_Pradesh,Agra,"Shastripuram, Agra - UPPCB",23-09-2025 07:00:00,27.19862,77.92066,NH3,3,3,3
India,Uttar_Pradesh,Agra,"Shastripuram, Agra - UPPCB",23-09-2025 07:00:00,27.19862,77.92066,CO,12,17,15
India,Uttar_Pradesh,Baghpat,"Sardar Patel Inter College, Baghpat - UPPCB",23-09-2025 07:00:00,28.964949,77.278761,SO2,NA,NA,NA
India,Uttar_Pradesh,Greater Noida,"Knowledge Park - V, Greater Noida - UPPCB",23-09-2025 07:00:00,28.557054,77.453663,OZONE,7,78,20
India,Uttar_Pradesh,Hapur,"Anand Vihar, Hapur - UPPCB",23-09-2025 07:00:00,28.725645,77.749675,NH3,5,11,8
India,Uttar_Pradesh,Jhansi,"Shivaji Nagar, Jhansi - UPPCB",23-09-2025 07:00:00,25.4547,78.6039,NH3,4,4,4
India,TamilNadu,Salem,"Sona College of Technology, Salem - TNPCB",23-09-2025 07:00:00,11.679111,78.125052,PM2.5,17,55,34
India,Uttar_Pradesh,Lucknow,"Kukrail Picnic Spot-1, Lucknow - UPPCB",23-09-2025 07:00:00,26.90723,80.98579,NO2,21,64,25
India,Uttar_Pradesh,Lucknow,"Kukrail Picnic Spot-1, Lucknow - UPPCB",23-09-2025 07:00:00,26.90723,80.98579,NH3,4,4,4
India,Uttar_Pradesh,Lucknow,"Lalbagh, Lucknow - CPCB",23-09-2025 07:00:00,26.8458805,80.9365541,NH3,14,23,17
India,Uttar_Pradesh,Lucknow,"Talkatora District Industries Center, Lucknow - CPCB",23-09-2025 07:00:00,26.83399722,80.8917361,PM2.5,58,95,80
India,Uttar_Pradesh,Lucknow,"Talkatora District Industries Center, Lucknow - CPCB",23-09-2025 07:00:00,26.83399722,80.8917361,PM10,60,90,73
India,Uttar_Pradesh,Lucknow,"Talkatora District Industries Center, Lucknow - CPCB",23-09-2025 07:00:00,26.83399722,80.8917361,NH3,9,18,13
India,Uttar_Pradesh,Lucknow,"Talkatora District Industries Center, Lucknow - CPCB",23-09-2025 07:00:00,26.83399722,80.8917361,OZONE,13,52,13
India,Uttar_Pradesh,Meerut,"Ganga Nagar, Meerut - UPPCB",23-09-2025 07:00:00,28.999264,77.7590354,NH3,4,8,6
India,Uttar_Pradesh,Meerut,"Ganga Nagar, Meerut - UPPCB",23-09-2025 07:00:00,28.999264,77.7590354,SO2,13,20,16
India,Uttar_Pradesh,Meerut,"Ganga Nagar, Meerut - UPPCB",23-09-2025 07:00:00,28.999264,77.7590354,CO,31,42,36
India,Uttar_Pradesh,Meerut,"Ganga Nagar, Meerut - UPPCB",23-09-2025 07:00:00,28.999264,77.7590354,OZONE,29,111,37
India,Uttar_Pradesh,Meerut,"Jai Bhim Nagar, Meerut - UPPCB",23-09-2025 07:00:00,28.9535882,77.7622941,PM2.5,35,78,48
India,Uttar_Pradesh,Meerut,"Jai Bhim Nagar, Meerut - UPPCB",23-09-2025 07:00:00,28.9535882,77.7622941,PM10,99,155,123
India,Uttar_Pradesh,Meerut,"Jai Bhim Nagar, Meerut - UPPCB",23-09-2025 07:00:00,28.9535882,77.7622941,SO2,9,24,13
India,Uttar_Pradesh,Meerut,"Jai Bhim Nagar, Meerut - UPPCB",23-09-2025 07:00:00,28.9535882,77.7622941,CO,27,50,31
India,Uttar_Pradesh,Kanpur,"NSI Kalyanpur, Kanpur - UPPCB",23-09-2025 07:00:00,26.509954,80.249612,OZONE,22,26,25
India,Uttar_Pradesh,Kanpur,"Nehru Nagar, Kanpur - UPPCB",23-09-2025 07:00:00,26.4703136,80.3229863,PM10,46,113,77
India,Uttar_Pradesh,Kanpur,"Nehru Nagar, Kanpur - UPPCB",23-09-2025 07:00:00,26.4703136,80.3229863,NO2,49,68,58
India,Uttar_Pradesh,Khurja,"Kalindi Kunj, Khurja - UPPCB",23-09-2025 07:00:00,28.2348927,77.8683002,PM2.5,18,57,38
India,Uttar_Pradesh,Khurja,"Kalindi Kunj, Khurja - UPPCB",23-09-2025 07:00:00,28.2348927,77.8683002,CO,6,50,40
India,Uttar_Pradesh,Khurja,"Kalindi Kunj, Khurja - UPPCB",23-09-2025 07:00:00,28.2348927,77.8683002,OZONE,4,27,4
India,Uttar_Pradesh,Lucknow,"B R Ambedkar University, Lucknow - UPPCB",23-09-2025 07:00:00,26.766433,80.927299,NH3,4,4,4
India,Uttar_Pradesh,Lucknow,"Gomti Nagar, Lucknow - UPPCB",23-09-2025 07:00:00,26.868120,81.005119,PM2.5,45,75,61
India,Uttar_Pradesh,Lucknow,"Gomti Nagar, Lucknow - UPPCB",23-09-2025 07:00:00,26.868120,81.005119,PM10,41,65,54
India,Uttar_Pradesh,Lucknow,"Gomti Nagar, Lucknow - UPPCB",23-09-2025 07:00:00,26.868120,81.005119,NO2,9,11,10
India,Uttar_Pradesh,Varanasi,"Bhelupur, Varanasi - UPPCB",23-09-2025 07:00:00,25.301778,82.996789,NO2,7,8,8
India,Uttar_Pradesh,Varanasi,"Bhelupur, Varanasi - UPPCB",23-09-2025 07:00:00,25.301778,82.996789,OZONE,7,11,8
India,Uttar_Pradesh,Varanasi,"IESD Banaras Hindu University, Varanasi - UPPCB",23-09-2025 07:00:00,25.262326,82.995408,CO,6,16,11
India,Uttar_Pradesh,Varanasi,"Maldahiya, Varanasi - UPPCB",23-09-2025 07:00:00,25.32393,82.99687,PM2.5,18,65,28
India,Uttar_Pradesh,Vrindavan,"Omex Eternity, Vrindavan - UPPCB",23-09-2025 07:00:00,27.5714090,77.6557570,PM2.5,NA,NA,NA
India,Uttarakhand,Dehradun,"Doon University, Dehradun - UKPCB",23-09-2025 07:00:00,30.269444,78.044167,SO2,NA,NA,NA
India,Uttarakhand,Kashipur,"Govt. Girls Inter College, Kashipur - UKPCB",23-09-2025 07:00:00,29.2124114,78.9611753,NH3,2,3,2
India,Uttarakhand,Kashipur,"Govt. Girls Inter College, Kashipur - UKPCB",23-09-2025 07:00:00,29.2124114,78.9611753,SO2,NA,NA,NA
India,Uttarakhand,Rishikesh,"Shivaji Nagar, Rishikesh - UKPCB",23-09-2025 07:00:00,30.075911,78.2859547,PM10,51,112,84
India,Uttarakhand,Rishikesh,"Shivaji Nagar, Rishikesh - UKPCB",23-09-2025 07:00:00,30.075911,78.2859547,NH3,5,9,7
India,Uttarakhand,Rishikesh,"Shivaji Nagar, Rishikesh - UKPCB",23-09-2025 07:00:00,30.075911,78.2859547,SO2,3,3,3
India,West_Bengal,Asansol,"Asansol Court Area, Asansol - WBPCB",23-09-2025 07:00:00,23.685297,86.945968,PM10,37,83,60
India,West_Bengal,Asansol,"Evelyn Lodge, Asansol - WBPCB",23-09-2025 07:00:00,23.6979360,86.9443950,NO2,4,20,10
India,West_Bengal,Asansol,"Mahabir Colliery, Asansol - WBPCB",23-09-2025 07:00:00,23.6181830,87.1057180,NH3,1,3,2
India,West_Bengal,Asansol,"Mahabir Colliery, Asansol - WBPCB",23-09-2025 07:00:00,23.6181830,87.1057180,SO2,4,8,5
India,West_Bengal,Howrah,"Botanical Garden, Howrah - WBPCB",23-09-2025 07:00:00,22.554954,88.292568,PM10,16,96,45
India,West_Bengal,Howrah,"Botanical Garden, Howrah - WBPCB",23-09-2025 07:00:00,22.554954,88.292568,NH3,1,2,1
India,West_Bengal,Howrah,"Botanical Garden, Howrah - WBPCB",23-09-2025 07:00:00,22.554954,88.292568,OZONE,21,37,28
India,West_Bengal,Howrah,"Dasnagar, Howrah - WBPCB",23-09-2025 07:00:00,22.6025571,88.3105664,PM2.5,16,171,58
India,West_Bengal,Howrah,"Ghusuri, Howrah - WBPCB",23-09-2025 07:00:00,22.611968,88.347422,PM10,26,150,80
India,West_Bengal,Howrah,"Ghusuri, Howrah - WBPCB",23-09-2025 07:00:00,22.611968,88.347422,NO2,21,27,23
India,West_Bengal,Kolkata,"Ballygunge, Kolkata - WBPCB",23-09-2025 07:00:00,22.5367507,88.3638022,PM10,21,80,47
India,Uttar_Pradesh,Moradabad,"Kashiram Nagar, Moradabad - UPPCB",23-09-2025 07:00:00,28.849399,78.742362,NO2,25,25,25
India,Uttar_Pradesh,Moradabad,"Transport Nagar, Moradabad - UPPCB",23-09-2025 07:00:00,28.802625,78.753728,NO2,27,27,27
India,Uttar_Pradesh,Moradabad,"Transport Nagar, Moradabad - UPPCB",23-09-2025 07:00:00,28.802625,78.753728,CO,40,45,43
India,Uttar_Pradesh,Muzaffarnagar,"New Mandi, Muzaffarnagar - UPPCB",23-09-2025 07:00:00,29.4723508,77.7194031,OZONE,20,103,29
India,Uttar_Pradesh,Noida,"Sector - 125, Noida - UPPCB",23-09-2025 07:00:00,28.5447608,77.3231257,NH3,8,11,9
India,Uttar_Pradesh,Noida,"Sector - 125, Noida - UPPCB",23-09-2025 07:00:00,28.5447608,77.3231257,CO,31,54,43
India,Uttar_Pradesh,Meerut,"Jai Bhim Nagar, Meerut - UPPCB",23-09-2025 07:00:00,28.9535882,77.7622941,OZONE,31,133,41
India,Uttar_Pradesh,Moradabad,"Buddhi Vihar, Moradabad - UPPCB",23-09-2025 07:00:00,28.83526,78.74460,NO2,25,29,28
India,Uttar_Pradesh,Moradabad,"Eco Herbal Park, Moradabad - UPPCB",23-09-2025 07:00:00,28.840739,78.697531,OZONE,15,113,33
India,Uttar_Pradesh,Moradabad,"Employment Office, Moradabad - UPPCB",23-09-2025 07:00:00,28.88528,78.73880,PM10,113,150,132
India,Uttar_Pradesh,Moradabad,"Jigar Colony, Moradabad - UPPCB",23-09-2025 07:00:00,28.856664,78.772638,NO2,24,25,25
India,Uttar_Pradesh,Noida,"Sector-1, Noida - UPPCB",23-09-2025 07:00:00,28.5898,77.3101,SO2,7,12,10
India,Uttar_Pradesh,Noida,"Sector-1, Noida - UPPCB",23-09-2025 07:00:00,28.5898,77.3101,CO,25,50,31
India,Uttar_Pradesh,Prayagraj,"Jhunsi, Prayagraj - UPPCB",23-09-2025 07:00:00,25.425602,81.917152,NH3,5,5,5
India,Uttar_Pradesh,Prayagraj,"Jhunsi, Prayagraj - UPPCB",23-09-2025 07:00:00,25.425602,81.917152,OZONE,20,52,25
India,Uttar_Pradesh,Prayagraj,"Motilal Nehru NIT, Prayagraj - UPPCB",23-09-2025 07:00:00,25.494,81.863,CO,10,21,16
India,Uttar_Pradesh,Prayagraj,"Nagar Nigam, Prayagraj - UPPCB",23-09-2025 07:00:00,25.44919916 ,81.82735986 ,PM10,70,133,97
India,West_Bengal,Durgapur,"PCBL Residential Complex, Durgapur - WBPCB",23-09-2025 07:00:00,23.5087640,87.3544400,OZONE,5,6,6
India,West_Bengal,Haldia,"Priyambada Housing Estate, Haldia - WBPCB",23-09-2025 07:00:00,22.06047,88.109737,SO2,12,17,14
India,West_Bengal,Kolkata,"Ballygunge, Kolkata - WBPCB",23-09-2025 07:00:00,22.5367507,88.3638022,OZONE,20,30,23
India,West_Bengal,Kolkata,"Bidhannagar, Kolkata - WBPCB",23-09-2025 07:00:00,22.58157048,88.41002457,SO2,5,9,7
India,West_Bengal,Kolkata,"Jadavpur, Kolkata - WBPCB",23-09-2025 07:00:00,22.49929,88.36917,PM2.5,31,94,60
India,West_Bengal,Kolkata,"Jadavpur, Kolkata - WBPCB",23-09-2025 07:00:00,22.49929,88.36917,PM10,26,100,60
India,West_Bengal,Kolkata,"Rabindra Bharati University, Kolkata - WBPCB",23-09-2025 07:00:00,22.627847,88.380669,NH3,8,8,8
India,West_Bengal,Kolkata,"Rabindra Bharati University, Kolkata - WBPCB",23-09-2025 07:00:00,22.627847,88.380669,CO,24,33,27
India,West_Bengal,Kolkata,"Rabindra Sarobar, Kolkata - WBPCB",23-09-2025 07:00:00,22.51106,88.35142,PM2.5,23,66,40
India,West_Bengal,Kolkata,"Rabindra Sarobar, Kolkata - WBPCB",23-09-2025 07:00:00,22.51106,88.35142,NO2,25,103,51
India,West_Bengal,Kolkata,"Rabindra Sarobar, Kolkata - WBPCB",23-09-2025 07:00:00,22.51106,88.35142,SO2,4,7,6
India,West_Bengal,Siliguri,"Ward-32 Bapupara, Siliguri - WBPCB",23-09-2025 07:00:00,26.6879226,88.4152495,PM2.5,23,54,35
India,Andhra_Pradesh,Kadapa,"Yerramukkapalli, Kadapa - APPCB",23-09-2025 07:00:00,14.465052,78.824187,OZONE,NA,NA,NA
India,Andhra_Pradesh,Rajamahendravaram,"Anand Kala Kshetram, Rajamahendravaram - APPCB",23-09-2025 07:00:00,16.9872867,81.7363176,PM10,22,51,35
India,Andhra_Pradesh,Rajamahendravaram,"Anand Kala Kshetram, Rajamahendravaram - APPCB",23-09-2025 07:00:00,16.9872867,81.7363176,NH3,2,9,3
India,Andhra_Pradesh,Rajamahendravaram,"Anand Kala Kshetram, Rajamahendravaram - APPCB",23-09-2025 07:00:00,16.9872867,81.7363176,CO,4,72,9
India,Andhra_Pradesh,Tirumala,"Toll Gate, Tirumala - APPCB",23-09-2025 07:00:00,13.67,79.35,PM2.5,9,33,20
India,Andhra_Pradesh,Tirumala,"Toll Gate, Tirumala - APPCB",23-09-2025 07:00:00,13.67,79.35,PM10,17,52,30
India,Andhra_Pradesh,Tirumala,"Toll Gate, Tirumala - APPCB",23-09-2025 07:00:00,13.67,79.35,NH3,1,2,1
India,Andhra_Pradesh,Tirupati,"Vaikuntapuram, Tirupati - APPCB",23-09-2025 07:00:00,13.615387,79.409230,NH3,5,6,5
India,Andhra_Pradesh,Vijayawada,"HB Colony, Vijayawada - APPCB",23-09-2025 07:00:00,16.536107,80.594233,PM10,NA,NA,NA
India,Andhra_Pradesh,Vijayawada,"Rajiv Nagar, Vijayawada - APPCB",23-09-2025 07:00:00,16.554731,80.649110,PM10,NA,NA,NA
India,Andhra_Pradesh,Vijayawada,"Rajiv Nagar, Vijayawada - APPCB",23-09-2025 07:00:00,16.554731,80.649110,SO2,NA,NA,NA
India,Andhra_Pradesh,Vijayawada,"Rajiv Nagar, Vijayawada - APPCB",23-09-2025 07:00:00,16.554731,80.649110,OZONE,NA,NA,NA
India,Andhra_Pradesh,Visakhapatnam,"GVM Corporation, Visakhapatnam - APPCB",23-09-2025 07:00:00,17.72,83.3,CO,24,98,35
India,Arunachal_Pradesh,Naharlagun,"Naharlagun, Naharlagun - APSPCB",23-09-2025 07:00:00,27.103358,93.679645,NO2,6,6,6
India,Arunachal_Pradesh,Naharlagun,"Naharlagun, Naharlagun - APSPCB",23-09-2025 07:00:00,27.103358,93.679645,OZONE,5,5,5
India,Assam,Byrnihat,"Central Academy for SFS, Byrnihat - PCBA",23-09-2025 07:00:00,26.071318,91.87488,OZONE,NA,NA,NA
India,Assam,Guwahati,"IITG, Guwahati - PCBA",23-09-2025 07:00:00,26.2028636,91.70046436,CO,2,10,5
India,Assam,Guwahati,"IITG, Guwahati - PCBA",23-09-2025 07:00:00,26.2028636,91.70046436,OZONE,1,35,4
India,Assam,Guwahati,"LGBI Airport, Guwahati - PCBA",23-09-2025 07:00:00,26.10887,91.589544,PM2.5,33,474,101
India,Assam,Guwahati,"LGBI Airport, Guwahati - PCBA",23-09-2025 07:00:00,26.10887,91.589544,PM10,30,437,80
India,Bihar,Begusarai,"Lohiyanagar, Begusarai - BSPCB",23-09-2025 07:00:00,25.42742023,86.13886079,CO,36,61,40
India,Bihar,Bhagalpur,"DM Office_Kachari Chowk, Bhagalpur - BSPCB",23-09-2025 07:00:00,25.251013,86.989001,PM10,40,134,71
India,Bihar,Bhagalpur,"DM Office_Kachari Chowk, Bhagalpur - BSPCB",23-09-2025 07:00:00,25.251013,86.989001,NH3,5,12,7
India,Bihar,Bhagalpur,"DM Office_Kachari Chowk, Bhagalpur - BSPCB",23-09-2025 07:00:00,25.251013,86.989001,CO,16,26,21
India,Bihar,Bhagalpur,"Mayaganj, Bhagalpur - BSPCB",23-09-2025 07:00:00,25.265194,87.012947,PM2.5,3,348,114
India,Bihar,Bhagalpur,"Mayaganj, Bhagalpur - BSPCB",23-09-2025 07:00:00,25.265194,87.012947,PM10,4,289,98
India,Bihar,Bihar Sharif,"D M Colony, Bihar Sharif - BSPCB",23-09-2025 07:00:00,25.204762,85.514960,NH3,2,5,3
India,Bihar,Bihar Sharif,"D M Colony, Bihar Sharif - BSPCB",23-09-2025 07:00:00,25.204762,85.514960,OZONE,4,44,27
India,Bihar,Gaya,"SFTI Kusdihra, Gaya - BSPCB",23-09-2025 07:00:00,24.762518,84.982348,SO2,6,9,7
India,Bihar,Hajipur,"Industrial Area, Hajipur - BSPCB",23-09-2025 07:00:00,25.697189,85.245900,PM2.5,50,162,99
India,Bihar,Hajipur,"Industrial Area, Hajipur - BSPCB",23-09-2025 07:00:00,25.697189,85.245900,NO2,4,17,9
India,Bihar,Katihar,"Mirchaibari, Katihar - BSPCB",23-09-2025 07:00:00,25.560083,87.553265,PM10,27,37,30
India,Bihar,Kishanganj,"SDM Office_Khagra, Kishanganj - BSPCB",23-09-2025 07:00:00,26.0881305,87.93840336,PM10,NA,NA,NA
India,Bihar,Manguraha,"Forest Rest House, Manguraha - BSPCB",23-09-2025 07:00:00,27.308328,84.531742,NH3,1,2,1
India,Assam,Sivasagar,"Girls College, Sivasagar - PCBA",23-09-2025 07:00:00,26.987634,94.636574,SO2,8,11,10
India,Bihar,Araria,"Kharahiya Basti, Araria - BSPCB",23-09-2025 07:00:00,26.146529,87.454184,SO2,2,25,13
India,Bihar,Arrah,"New DM Office, Arrah - BSPCB",23-09-2025 07:00:00,25.5626095,84.663264,NO2,5,9,7
India,Bihar,Aurangabad,"Gurdeo Nagar, Aurangabad - BSPCB",23-09-2025 07:00:00,24.75746,84.366208,NO2,7,8,8
India,Bihar,Aurangabad,"Gurdeo Nagar, Aurangabad - BSPCB",23-09-2025 07:00:00,24.75746,84.366208,SO2,11,30,14
India,Bihar,Begusarai,"Lohiyanagar, Begusarai - BSPCB",23-09-2025 07:00:00,25.42742023,86.13886079,PM10,19,49,26
India,Bihar,Patna,"DRM Office Danapur, Patna - BSPCB",23-09-2025 07:00:00,25.586562,85.043586,SO2,8,11,9
India,Bihar,Patna,"DRM Office Danapur, Patna - BSPCB",23-09-2025 07:00:00,25.586562,85.043586,CO,20,72,50
India,Bihar,Patna,"DRM Office Danapur, Patna - BSPCB",23-09-2025 07:00:00,25.586562,85.043586,OZONE,33,68,42
India,Bihar,Patna,"Govt. High School Shikarpur, Patna - BSPCB",23-09-2025 07:00:00,25.592539,85.227158,CO,18,105,50
India,Bihar,Patna,"Govt. High School Shikarpur, Patna - BSPCB",23-09-2025 07:00:00,25.592539,85.227158,OZONE,8,12,10
India,Bihar,Patna,"IGSC Planetarium Complex, Patna - BSPCB",23-09-2025 07:00:00,25.610369,85.132568,PM2.5,NA,NA,NA
India,Bihar,Patna,"Muradpur, Patna - BSPCB",23-09-2025 07:00:00,25.619651,85.147382,NO2,8,108,57
India,Assam,Guwahati,"Pan Bazaar, Guwahati - PCBA",23-09-2025 07:00:00,26.187500,91.744194,PM10,2,38,16
India,Assam,Guwahati,"Railway Colony, Guwahati - PCBA",23-09-2025 07:00:00,26.181742,91.78063,NH3,1,1,1
India,Assam,Nagaon,"Christianpatty, Nagaon - PCBA",23-09-2025 07:00:00,26.349082,92.68449,PM2.5,49,140,59
India,Assam,Nagaon,"Christianpatty, Nagaon - PCBA",23-09-2025 07:00:00,26.349082,92.68449,NH3,4,4,4
India,Assam,Nagaon,"Christianpatty, Nagaon - PCBA",23-09-2025 07:00:00,26.349082,92.68449,CO,7,44,29
India,Assam,Nagaon,"Christianpatty, Nagaon - PCBA",23-09-2025 07:00:00,26.349082,92.68449,OZONE,8,9,9
India,Assam,Nalbari,"Bata Chowk, Nalbari - PCBA",23-09-2025 07:00:00,26.446912,91.439057,SO2,7,8,8
India,Bihar,Buxar,"Charitra Van, Buxar - BSPCB",23-09-2025 07:00:00,25.567520,83.966379,PM10,68,71,71
India,Bihar,Buxar,"Charitra Van, Buxar - BSPCB",23-09-2025 07:00:00,25.567520,83.966379,NH3,3,3,3
India,Bihar,Buxar,"Charitra Van, Buxar - BSPCB",23-09-2025 07:00:00,25.567520,83.966379,SO2,NA,NA,NA
India,Bihar,Buxar,"Charitra Van, Buxar - BSPCB",23-09-2025 07:00:00,25.567520,83.966379,OZONE,1,146,2
India,Bihar,Chhapra,"Darshan Nagar, Chhapra - BSPCB",23-09-2025 07:00:00,25.7808257,84.7446768,NO2,1,1,1
India,Bihar,Gaya,"Collectorate, Gaya - BSPCB",23-09-2025 07:00:00,24.7955,84.9994,PM2.5,NA,NA,NA
India,Bihar,Gaya,"Kareemganj, Gaya - BSPCB",23-09-2025 07:00:00,24.792403,84.992416,NH3,4,7,5
India,Bihar,Munger,"Town Hall, Munger - BSPCB",23-09-2025 07:00:00,25.376776,86.471523,OZONE,10,13,10
India,Bihar,Muzaffarpur,"Buddha Colony, Muzaffarpur - BSPCB",23-09-2025 07:00:00,26.11442,85.39813,PM2.5,27,112,68
India,Bihar,Muzaffarpur,"Buddha Colony, Muzaffarpur - BSPCB",23-09-2025 07:00:00,26.11442,85.39813,NH3,3,4,4
India,Bihar,Muzaffarpur,"MIT-Daudpur Kothi, Muzaffarpur - BSPCB",23-09-2025 07:00:00,26.1403345,85.3650192,PM10,36,54,45
India,Bihar,Muzaffarpur,"MIT-Daudpur Kothi, Muzaffarpur - BSPCB",23-09-2025 07:00:00,26.1403345,85.3650192,NH3,1,1,1
India,Bihar,Muzaffarpur,"MIT-Daudpur Kothi, Muzaffarpur - BSPCB",23-09-2025 07:00:00,26.1403345,85.3650192,SO2,11,23,15
India,Andhra_Pradesh,Anantapur,"Gulzarpet, Anantapur - APPCB",23-09-2025 07:00:00,14.675886,77.593027,PM2.5,55,71,59
India,Andhra_Pradesh,Anantapur,"Gulzarpet, Anantapur - APPCB",23-09-2025 07:00:00,14.675886,77.593027,NO2,17,24,22
India,Bihar,Samastipur,"DM Office_Kasipur, Samastipur - BSPCB",23-09-2025 07:00:00,25.859655,85.77944,OZONE,5,12,10
India,Bihar,Sasaram,"Dada Peer, Sasaram - BSPCB",23-09-2025 07:00:00,24.952822,84.002396,PM2.5,NA,NA,NA
India,Bihar,Sasaram,"Dada Peer, Sasaram - BSPCB",23-09-2025 07:00:00,24.952822,84.002396,PM10,NA,NA,NA
India,Bihar,Siwan,"Chitragupta Nagar, Siwan - BSPCB",23-09-2025 07:00:00,26.2271665,84.3570427,PM2.5,30,140,65
India,Chandigarh,Chandigarh,"Sector 22, Chandigarh - CPCC",23-09-2025 07:00:00,30.735567,76.775714,NO2,10,39,20
India,Chandigarh,Chandigarh,"Sector 22, Chandigarh - CPCC",23-09-2025 07:00:00,30.735567,76.775714,NH3,24,42,32
India,Chandigarh,Chandigarh,"Sector 22, Chandigarh - CPCC",23-09-2025 07:00:00,30.735567,76.775714,OZONE,9,74,31
India,Chandigarh,Chandigarh,"Sector-25, Chandigarh - CPCC",23-09-2025 07:00:00,30.751462,76.762879,PM10,79,121,105
India,Chandigarh,Chandigarh,"Sector-53, Chandigarh - CPCC",23-09-2025 07:00:00,30.719859,76.738637,PM2.5,33,57,42
India,Chandigarh,Chandigarh,"Sector-53, Chandigarh - CPCC",23-09-2025 07:00:00,30.719859,76.738637,PM10,33,59,44
India,Chandigarh,Chandigarh,"Sector-53, Chandigarh - CPCC",23-09-2025 07:00:00,30.719859,76.738637,NO2,3,17,8
India,Delhi,Delhi,"Anand Vihar, Delhi - DPCC",23-09-2025 07:00:00,28.647622,77.3158090,SO2,16,32,25
India,Delhi,Delhi,"Anand Vihar, Delhi - DPCC",23-09-2025 07:00:00,28.647622,77.3158090,CO,70,100,80
India,Delhi,Delhi,"Ashok Vihar, Delhi - DPCC",23-09-2025 07:00:00,28.695381,77.181665,CO,30,65,52
India,Delhi,Delhi,"Aya Nagar, Delhi - IMD",23-09-2025 07:00:00,28.4706914,77.1099364,PM10,67,186,115
India,Delhi,Delhi,"Aya Nagar, Delhi - IMD",23-09-2025 07:00:00,28.4706914,77.1099364,CO,20,44,39
India,Delhi,Delhi,"Aya Nagar, Delhi - IMD",23-09-2025 07:00:00,28.4706914,77.1099364,OZONE,12,79,19
India,Delhi,Delhi,"CRRI Mathura Road, Delhi - IMD",23-09-2025 07:00:00,28.5512005,77.2735737,PM2.5,21,90,56
India,Delhi,Delhi,"CRRI Mathura Road, Delhi - IMD",23-09-2025 07:00:00,28.5512005,77.2735737,PM10,100,179,136
India,Delhi,Delhi,"CRRI Mathura Road, Delhi - IMD",23-09-2025 07:00:00,28.5512005,77.2735737,OZONE,18,58,19
India,Delhi,Delhi,"Chandni Chowk, Delhi - IITM",23-09-2025 07:00:00,28.656756,77.227234,PM2.5,NA,NA,NA
India,Delhi,Delhi,"Chandni Chowk, Delhi - IITM",23-09-2025 07:00:00,28.656756,77.227234,NH3,9,13,11
India,Delhi,Delhi,"ITO, Delhi - CPCB",23-09-2025 07:00:00,28.628624,77.241060,NO2,66,108,85
India,Delhi,Delhi,"ITO, Delhi - CPCB",23-09-2025 07:00:00,28.628624,77.241060,NH3,4,7,5
India,Delhi,Delhi,"Jahangirpuri, Delhi - DPCC",23-09-2025 07:00:00,28.732820,77.170633,PM2.5,88,316,230
India,Delhi,Delhi,"Jawaharlal Nehru Stadium, Delhi - DPCC",23-09-2025 07:00:00,28.580280,77.233829,CO,12,180,30
India,Delhi,Delhi,"Major Dhyan Chand National Stadium, Delhi - DPCC",23-09-2025 07:00:00,28.611281,77.237738,PM2.5,2,93,55
India,Delhi,Delhi,"Mandir Marg, Delhi - DPCC",23-09-2025 07:00:00,28.636429,77.201067,NO2,5,32,20
India,Delhi,Delhi,"Mandir Marg, Delhi - DPCC",23-09-2025 07:00:00,28.636429,77.201067,NH3,7,8,8
India,Delhi,Delhi,"Dr. Karni Singh Shooting Range, Delhi - DPCC",23-09-2025 07:00:00,28.498571,77.264840,PM2.5,37,83,52
India,Delhi,Delhi,"Dr. Karni Singh Shooting Range, Delhi - DPCC",23-09-2025 07:00:00,28.498571,77.264840,SO2,11,14,12
India,Delhi,Delhi,"Dr. Karni Singh Shooting Range, Delhi - DPCC",23-09-2025 07:00:00,28.498571,77.264840,CO,10,46,24
India,Delhi,Delhi,"Dwarka-Sector 8, Delhi - DPCC ",23-09-2025 07:00:00,28.5710274,77.0719006,SO2,9,15,12
India,Delhi,Delhi,"Dwarka-Sector 8, Delhi - DPCC ",23-09-2025 07:00:00,28.5710274,77.0719006,CO,30,74,44
India,Delhi,Delhi,"IGI Airport (T3), Delhi - IMD",23-09-2025 07:00:00,28.5627763,77.1180053,NO2,31,99,58
India,Delhi,Delhi,"IHBAS, Dilshad Garden, Delhi - CPCB",23-09-2025 07:00:00,28.6811736,77.3025234,NO2,44,53,48
India,Delhi,Delhi,"Mundka, Delhi - DPCC",23-09-2025 07:00:00,28.684678,77.076574,SO2,14,42,20
India,Delhi,Delhi,"NSIT Dwarka, Delhi - CPCB",23-09-2025 07:00:00,28.60909,77.0325413,SO2,15,41,26
India,Delhi,Delhi,"NSIT Dwarka, Delhi - CPCB",23-09-2025 07:00:00,28.60909,77.0325413,CO,18,98,43
India,Delhi,Delhi,"Najafgarh, Delhi - DPCC",23-09-2025 07:00:00,28.570173,76.933762,PM10,82,127,99
India,Delhi,Delhi,"Najafgarh, Delhi - DPCC",23-09-2025 07:00:00,28.570173,76.933762,CO,10,30,27
India,Delhi,Delhi,"Narela, Delhi - DPCC",23-09-2025 07:00:00,28.822836,77.101981,NO2,5,37,15
India,Delhi,Delhi,"Narela, Delhi - DPCC",23-09-2025 07:00:00,28.822836,77.101981,CO,56,58,56
India,Delhi,Delhi,"Narela, Delhi - DPCC",23-09-2025 07:00:00,28.822836,77.101981,OZONE,1,10,3
India,Chhattisgarh,Raipur,"Krishak Nagar, Raipur - CECB",23-09-2025 07:00:00,21.237755,81.705301,PM10,27,86,43
India,Chhattisgarh,Raipur,"Krishak Nagar, Raipur - CECB",23-09-2025 07:00:00,21.237755,81.705301,NO2,6,9,7
India,Chhattisgarh,Tumidih,"OP Jindal Industrial Park, Tumidih - CECB",23-09-2025 07:00:00,22.06631475,83.33820077,CO,16,74,31
India,Delhi,Delhi,"Anand Vihar, Delhi - DPCC",23-09-2025 07:00:00,28.647622,77.3158090,PM10,152,425,270
India,Delhi,Delhi,"Anand Vihar, Delhi - DPCC",23-09-2025 07:00:00,28.647622,77.3158090,NO2,26,64,40
India,Delhi,Delhi,"Anand Vihar, Delhi - DPCC",23-09-2025 07:00:00,28.647622,77.3158090,NH3,4,7,5
India,Chhattisgarh,Korba,"Urja Nagar, Korba - CECB",23-09-2025 07:00:00,22.348441,82.549611,CO,12,38,33
India,Chhattisgarh,Kunjemura,"OP Jindal School, Kunjemura - CECB",23-09-2025 07:00:00,22.126650,83.483212,NH3,2,2,2
India,Chhattisgarh,Kunjemura,"OP Jindal School, Kunjemura - CECB",23-09-2025 07:00:00,22.126650,83.483212,CO,24,32,28
India,Chhattisgarh,Raipur,"AIIMS, Raipur - CECB",23-09-2025 07:00:00,21.258815,81.578979,NO2,8,15,11
India,Chhattisgarh,Raipur,"AIIMS, Raipur - CECB",23-09-2025 07:00:00,21.258815,81.578979,OZONE,5,19,6
India,Chhattisgarh,Raipur,"Bhatagaon New ISBT, Raipur - CECB",23-09-2025 07:00:00,21.219665,81.630094,NO2,9,33,16
India,Bihar,Purnia,"Mariam Nagar, Purnia - BSPCB",23-09-2025 07:00:00,25.366336,87.117468,NO2,5,6,5
India,Bihar,Purnia,"Mariam Nagar, Purnia - BSPCB",23-09-2025 07:00:00,25.366336,87.117468,SO2,2,11,6
India,Bihar,Purnia,"Mariam Nagar, Purnia - BSPCB",23-09-2025 07:00:00,25.366336,87.117468,CO,1,40,9
India,Bihar,Rajgir,"Dangi Tola, Rajgir - BSPCB",23-09-2025 07:00:00,25.03280,85.41948,CO,66,100,89
India,Bihar,Rajgir,"Dangi Tola, Rajgir - BSPCB",23-09-2025 07:00:00,25.03280,85.41948,OZONE,21,52,31
India,Bihar,Samastipur,"DM Office_Kasipur, Samastipur - BSPCB",23-09-2025 07:00:00,25.859655,85.77944,PM10,33,433,174
India,Chhattisgarh,Bhilai,"32Bungalows, Bhilai - CECB",23-09-2025 07:00:00,21.194815,81.314770,SO2,6,10,8
India,Chhattisgarh,Bhilai,"Hathkhoj, Bhilai - CECB",23-09-2025 07:00:00,21.224231,81.408350,OZONE,11,33,16
India,Chhattisgarh,Chhal,"Nawapara SECL Colony, Chhal - CECB",23-09-2025 07:00:00,22.118125,83.140608,CO,10,36,22
India,Jharkhand,Dhanbad,"Sardar Patel Nagar, Dhanbad - JSPCB",23-09-2025 07:00:00,23.80569,86.44268,PM10,32,146,77
India,Jharkhand,Dhanbad,"Sardar Patel Nagar, Dhanbad - JSPCB",23-09-2025 07:00:00,23.80569,86.44268,NO2,91,149,100
India,Jharkhand,Dhanbad,"Sardar Patel Nagar, Dhanbad - JSPCB",23-09-2025 07:00:00,23.80569,86.44268,SO2,1,74,26
India,Jharkhand,Dhanbad,"Sardar Patel Nagar, Dhanbad - JSPCB",23-09-2025 07:00:00,23.80569,86.44268,CO,3,88,9
India,Karnataka,Bagalkot,"Vidayagiri, Bagalkot - KSPCB",23-09-2025 07:00:00,16.172806,75.659694,NO2,9,10,9
India,Karnataka,Bengaluru,"BTM Layout, Bengaluru - CPCB",23-09-2025 07:00:00,12.9135218,77.5950804,PM10,52,54,53
India,Karnataka,Bengaluru,"Bapuji Nagar, Bengaluru - KSPCB",23-09-2025 07:00:00,12.951913,77.539784,NH3,1,1,1
India,Karnataka,Bengaluru,"Hebbal, Bengaluru - KSPCB",23-09-2025 07:00:00,13.029152,77.585901,PM10,10,38,20
India,Gujarat,Vapi,"Phase-1 GIDC, Vapi - GPCB",23-09-2025 07:00:00,20.362421,72.918013,NO2,13,14,14
India,Gujarat,Vapi,"Phase-1 GIDC, Vapi - GPCB",23-09-2025 07:00:00,20.362421,72.918013,SO2,45,51,46
India,Gujarat,Vatva,"Phase-4 GIDC, Vatva - GPCB",23-09-2025 07:00:00,22.969611,72.643500,PM2.5,22,22,22
India,Gujarat,Vatva,"Phase-4 GIDC, Vatva - GPCB",23-09-2025 07:00:00,22.969611,72.643500,NH3,2,3,2
India,Gujarat,Vatva,"Phase-4 GIDC, Vatva - GPCB",23-09-2025 07:00:00,22.969611,72.643500,OZONE,8,50,10
India,Haryana,Panchgaon,"Amity University, Panchgaon - IITM",23-09-2025 07:00:00,28.3153,76.9143,OZONE,8,60,10
India,Himachal Pradesh,Baddi,"HIMUDA Complex Phase-1, Baddi - HPPCB",23-09-2025 07:00:00,30.943887,76.801991,SO2,19,62,34
India,Karnataka,Bengaluru,"Hombegowda Nagar, Bengaluru - KSPCB",23-09-2025 07:00:00,12.938539,77.590100,PM2.5,4,25,13
India,Karnataka,Bengaluru,"Hombegowda Nagar, Bengaluru - KSPCB",23-09-2025 07:00:00,12.938539,77.590100,PM10,17,46,29
India,Karnataka,Bengaluru,"Jayanagar 5th Block, Bengaluru - KSPCB",23-09-2025 07:00:00,12.920984,77.584908,NO2,8,57,22
India,Karnataka,Bengaluru,"Jayanagar 5th Block, Bengaluru - KSPCB",23-09-2025 07:00:00,12.920984,77.584908,SO2,1,5,4
India,Karnataka,Bengaluru,"Silk Board, Bengaluru - KSPCB",23-09-2025 07:00:00,12.917348,77.622813,NO2,1,12,6
India,Karnataka,Bengaluru,"Silk Board, Bengaluru - KSPCB",23-09-2025 07:00:00,12.917348,77.622813,NH3,NA,NA,NA
India,Karnataka,Chamarajanagar,"Urban, Chamarajanagar - KSPCB",23-09-2025 07:00:00,11.55358,76.55521,NO2,15,35,26
India,Delhi,Delhi,"R K Puram, Delhi - DPCC",23-09-2025 07:00:00,28.563262,77.186937,NO2,11,66,34
India,Delhi,Delhi,"R K Puram, Delhi - DPCC",23-09-2025 07:00:00,28.563262,77.186937,OZONE,16,81,25
India,Delhi,Delhi,"Rohini, Delhi - DPCC",23-09-2025 07:00:00,28.732528,77.119920,PM2.5,30,110,58
India,Delhi,Delhi,"Rohini, Delhi - DPCC",23-09-2025 07:00:00,28.732528,77.119920,SO2,2,4,3
India,Delhi,Delhi,"Rohini, Delhi - DPCC",23-09-2025 07:00:00,28.732528,77.119920,CO,9,22,12
India,Delhi,Delhi,"Shadipur, Delhi - CPCB",23-09-2025 07:00:00,28.6514781,77.1473105,PM2.5,98,202,140
India,Delhi,Delhi,"Shadipur, Delhi - CPCB",23-09-2025 07:00:00,28.6514781,77.1473105,NO2,68,138,87
India,Delhi,Delhi,"Shadipur, Delhi - CPCB",23-09-2025 07:00:00,28.6514781,77.1473105,SO2,3,18,12
India,Delhi,Delhi,"Sirifort, Delhi - CPCB",23-09-2025 07:00:00,28.5504249,77.2159377,SO2,21,30,27
India,Delhi,Delhi,"Sirifort, Delhi - CPCB",23-09-2025 07:00:00,28.5504249,77.2159377,CO,4,22,17
India,Delhi,Delhi,"Sonia Vihar, Delhi - DPCC",23-09-2025 07:00:00,28.710508,77.249485,NO2,NA,NA,NA
India,Delhi,Delhi,"Sonia Vihar, Delhi - DPCC",23-09-2025 07:00:00,28.710508,77.249485,OZONE,NA,NA,NA
India,Delhi,Delhi,"Vivek Vihar, Delhi - DPCC",23-09-2025 07:00:00,28.672342,77.315260,CO,42,103,85
India,Delhi,Delhi,"Wazirpur, Delhi - DPCC",23-09-2025 07:00:00,28.699793,77.165453,PM2.5,34,152,74
India,Gujarat,Ahmedabad,"Raikhad, Ahmedabad - IITM",23-09-2025 07:00:00,23.020509,72.579261,OZONE,7,15,9
India,Gujarat,Ahmedabad,"SAC ISRO Bopal, Ahmedabad - IITM",23-09-2025 07:00:00,23.041137,72.456691,PM2.5,25,90,48
India,Gujarat,Ahmedabad,"SAC ISRO Bopal, Ahmedabad - IITM",23-09-2025 07:00:00,23.041137,72.456691,PM10,27,90,52
India,Gujarat,Ahmedabad,"SAC ISRO Bopal, Ahmedabad - IITM",23-09-2025 07:00:00,23.041137,72.456691,SO2,1,1,1
India,Gujarat,Ahmedabad,"SVPI Airport Hansol, Ahmedabad - IITM",23-09-2025 07:00:00,23.076793,72.627874,PM10,38,77,56
India,Delhi,Delhi,"Patparganj, Delhi - DPCC",23-09-2025 07:00:00,28.623763,77.287209,NH3,5,7,6
India,Delhi,Delhi,"Punjabi Bagh, Delhi - DPCC",23-09-2025 07:00:00,28.674045,77.131023,PM2.5,30,110,57
India,Delhi,Delhi,"Punjabi Bagh, Delhi - DPCC",23-09-2025 07:00:00,28.674045,77.131023,NO2,13,42,28
India,Delhi,Delhi,"Punjabi Bagh, Delhi - DPCC",23-09-2025 07:00:00,28.674045,77.131023,SO2,3,7,4
India,Delhi,Delhi,"Punjabi Bagh, Delhi - DPCC",23-09-2025 07:00:00,28.674045,77.131023,OZONE,4,39,10
India,Gujarat,Ankleshwar,"GIDC, Ankleshwar - GPCB",23-09-2025 07:00:00,21.613267,73.010555,NH3,5,7,7
India,Gujarat,Gandhinagar,"GIFT City, Gandhinagar - IITM",23-09-2025 07:00:00,23.163798,72.677768,PM10,49,68,59
India,Gujarat,Gandhinagar,"IIPHG Lekawada, Gandhinagar - IITM",23-09-2025 07:00:00,23.243639,72.68994,NO2,3,7,5
India,Delhi,Delhi,"Wazirpur, Delhi - DPCC",23-09-2025 07:00:00,28.699793,77.165453,CO,1,49,3
India,Gujarat,Ahmedabad,"Gyaspur, Ahmedabad - IITM",23-09-2025 07:00:00,22.977134,72.553024,CO,32,45,35
India,Gujarat,Ahmedabad,"Maninagar, Ahmedabad - GPCB",23-09-2025 07:00:00,23.002657,72.591912,NO2,22,24,23
India,Karnataka,Mangalore,"Kadri, Mangalore - KSPCB",23-09-2025 07:00:00,12.889250,74.853000,OZONE,4,43,23
India,Karnataka,Mysuru,"Hebbal 1st Stage, Mysuru - KSPCB",23-09-2025 07:00:00,12.21041,76.37376,NH3,3,7,5
India,Karnataka,Ramanagara,"Vijay Nagar, Ramanagara - KSPCB",23-09-2025 07:00:00,12.733409,77.298051,PM2.5,NA,NA,NA
India,Karnataka,Ramanagara,"Vijay Nagar, Ramanagara - KSPCB",23-09-2025 07:00:00,12.733409,77.298051,SO2,NA,NA,NA
India,Karnataka,Shivamogga,"Vinoba Nagara, Shivamogga - KSPCB",23-09-2025 07:00:00,13.940000,75.555917,PM2.5,25,36,34
India,Karnataka,Shivamogga,"Vinoba Nagara, Shivamogga - KSPCB",23-09-2025 07:00:00,13.940000,75.555917,PM10,30,58,50
India,Karnataka,Shivamogga,"Vinoba Nagara, Shivamogga - KSPCB",23-09-2025 07:00:00,13.940000,75.555917,CO,14,42,20
India,Karnataka,Vijayapura,"Ibrahimpur, Vijayapura - KSPCB",23-09-2025 07:00:00,16.802639,75.722694,NO2,9,10,9
India,Karnataka,Vijayapura,"Ibrahimpur, Vijayapura - KSPCB",23-09-2025 07:00:00,16.802639,75.722694,CO,15,121,32
India,Karnataka,Yadgir,"Collector Office, Yadgir - KSPCB",23-09-2025 07:00:00,16.7602,77.1428,PM2.5,2,17,6
India,Madhya Pradesh,Jabalpur,"Suhagi, Jabalpur - JMC",23-09-2025 07:00:00,23.218135,79.957770,PM10,31,170,80
India,Madhya Pradesh,Jabalpur,"Suhagi, Jabalpur - JMC",23-09-2025 07:00:00,23.218135,79.957770,CO,17,111,32
India,Madhya Pradesh,Katni,"Gole Bazar, Katni - MPPCB",23-09-2025 07:00:00,23.50016,80.23284,PM2.5,20,87,44
India,Madhya Pradesh,Maihar,"Sahilara, Maihar - KJS Cements",23-09-2025 07:00:00,24.2613009,80.7231783,PM2.5,15,141,70
India,Madhya Pradesh,Maihar,"Sahilara, Maihar - KJS Cements",23-09-2025 07:00:00,24.2613009,80.7231783,PM10,54,91,72
India,Madhya Pradesh,Maihar,"Sahilara, Maihar - KJS Cements",23-09-2025 07:00:00,24.2613009,80.7231783,SO2,6,6,6
India,Madhya Pradesh,Mandideep,"Sector-D Industrial Area, Mandideep - MPPCB",23-09-2025 07:00:00,23.108440,77.511428,PM10,48,143,86
India,Madhya Pradesh,Ratlam,"Shasthri Nagar, Ratlam - IPCA Lab",23-09-2025 07:00:00,23.331731,75.045981,NO2,34,36,35
India,Madhya Pradesh,Sagar,"Civil Lines, Sagar - MPPCB",23-09-2025 07:00:00,23.838586,78.759431,PM10,70,102,86
India,Madhya Pradesh,Sagar,"Civil Lines, Sagar - MPPCB",23-09-2025 07:00:00,23.838586,78.759431,NH3,1,1,1
India,Madhya Pradesh,Sagar,"Civil Lines, Sagar - MPPCB",23-09-2025 07:00:00,23.838586,78.759431,SO2,7,19,12
India,Madhya Pradesh,Sagar,"Civil Lines, Sagar - MPPCB",23-09-2025 07:00:00,23.838586,78.759431,OZONE,21,80,32
India,Madhya Pradesh,Satna,"Bandhavgar Colony, Satna - Birla Cement",23-09-2025 07:00:00,24.58434363,80.8549414,OZONE,6,10,8
India,Madhya Pradesh,Singrauli,"Suryakiran Bhawan NCL, Singrauli - MPPCB",23-09-2025 07:00:00,24.108970,82.645580,PM2.5,NA,NA,NA
India,Maharashtra,Amravati,"Shivneri Colony, Amravati - MPCB",23-09-2025 07:00:00,20.9402359,77.7895248,PM2.5,26,58,40
India,Karnataka,Yadgir,"Collector Office, Yadgir - KSPCB",23-09-2025 07:00:00,16.7602,77.1428,NH3,2,2,2
India,Karnataka,Yadgir,"Collector Office, Yadgir - KSPCB",23-09-2025 07:00:00,16.7602,77.1428,SO2,10,22,18
India,Kerala,Kollam,"Polayathode, Kollam - Kerala PCB",23-09-2025 07:00:00,8.8787,76.6073,PM2.5,NA,NA,NA
India,Kerala,Kollam,"Polayathode, Kollam - Kerala PCB",23-09-2025 07:00:00,8.8787,76.6073,SO2,NA,NA,NA
India,Kerala,Thiruvananthapuram,"Kariavattom, Thiruvananthapuram - Kerala PCB",23-09-2025 07:00:00,8.563700,76.886500,NO2,6,7,6
India,Kerala,Thiruvananthapuram,"Plammoodu, Thiruvananthapuram - Kerala PCB",23-09-2025 07:00:00,8.5149093,76.9435879,CO,5,14,8
India,Kerala,Thrissur,"Corporation Ground, Thrissur - Kerala PCB",23-09-2025 07:00:00,10.532400,76.215900,NO2,6,8,7
India,Madhya Pradesh,Indore,"Regional Park, Indore - IMC",23-09-2025 07:00:00,22.6780,75.8559,NH3,1,1,1
India,Madhya Pradesh,Indore,"Residency Area, Indore - IMC",23-09-2025 07:00:00,22.7084,75.8815,NO2,13,21,16
India,Madhya Pradesh,Jabalpur,"Govindh Bhavan Colony, Jabalpur - JMC",23-09-2025 07:00:00,23.163174,79.973061,NO2,36,37,36
India,Madhya Pradesh,Jabalpur,"Govindh Bhavan Colony, Jabalpur - JMC",23-09-2025 07:00:00,23.163174,79.973061,SO2,26,26,26
India,Madhya Pradesh,Jabalpur,"Govindh Bhavan Colony, Jabalpur - JMC",23-09-2025 07:00:00,23.163174,79.973061,OZONE,5,102,9
India,Madhya Pradesh,Jabalpur,"Gupteshwar, Jabalpur - JMC",23-09-2025 07:00:00,23.142888,79.916147,SO2,NA,NA,NA
India,Madhya Pradesh,Jabalpur,"Suhagi, Jabalpur - JMC",23-09-2025 07:00:00,23.218135,79.957770,PM2.5,37,184,64
India,Kerala,Thrissur,"Corporation Ground, Thrissur - Kerala PCB",23-09-2025 07:00:00,10.532400,76.215900,OZONE,29,30,29
India,Madhya Pradesh,Bhopal,"Idgah Hills, Bhopal - MPPCB",23-09-2025 07:00:00,23.264759,77.381568,SO2,8,10,9
India,Madhya Pradesh,Bhopal,"Paryavaran Parisar, Bhopal - MPPCB",23-09-2025 07:00:00,23.210494,77.425409,CO,8,72,15
India,Madhya Pradesh,Bhopal,"T T Nagar, Bhopal - MPPCB",23-09-2025 07:00:00,23.233584,77.400574,PM10,49,155,83
India,Madhya Pradesh,Dewas,"Bhopal Chauraha, Dewas - MPPCB",23-09-2025 07:00:00,22.9682591,76.064118,SO2,NA,NA,NA
India,Madhya Pradesh,Dewas,"Bhopal Chauraha, Dewas - MPPCB",23-09-2025 07:00:00,22.9682591,76.064118,OZONE,11,31,13
India,Madhya Pradesh,Gwalior,"Maharaj Bada, Gwalior - MPPCB",23-09-2025 07:00:00,26.200388,78.147714,PM10,63,154,96
India,Madhya Pradesh,Gwalior,"Maharaj Bada, Gwalior - MPPCB",23-09-2025 07:00:00,26.200388,78.147714,OZONE,29,51,33
India,Madhya Pradesh,Indore,"Airport Area, Indore - IMC",23-09-2025 07:00:00,22.7289,75.8076,PM2.5,10,29,18
India,Madhya Pradesh,Indore,"Chhoti Gwaltoli, Indore - MPPCB",23-09-2025 07:00:00,22.4310,75.5213,SO2,8,11,9
India,Madhya Pradesh,Indore,"Chhoti Gwaltoli, Indore - MPPCB",23-09-2025 07:00:00,22.4310,75.5213,OZONE,12,66,25
India,Madhya Pradesh,Indore,"Maguda Nagar, Indore - IMC",23-09-2025 07:00:00,22.7524,75.8872,SO2,37,43,40
India,Karnataka,Chamarajanagar,"Urban, Chamarajanagar - KSPCB",23-09-2025 07:00:00,11.55358,76.55521,CO,15,120,31
India,Karnataka,Chikkaballapur,"Chikkaballapur Rural, Chikkaballapur - KSPCB",23-09-2025 07:00:00,13.428828,77.731418,PM10,3,44,22
India,Karnataka,Chikkaballapur,"Chikkaballapur Rural, Chikkaballapur - KSPCB",23-09-2025 07:00:00,13.428828,77.731418,NO2,6,22,11
India,Karnataka,Chikkamagaluru,"Kalyana Nagara, Chikkamagaluru - KSPCB",23-09-2025 07:00:00,13.328028,75.797056,PM10,26,46,30
India,Karnataka,Dharwad,"Kalabhavan, Dharwad - KSPCB",23-09-2025 07:00:00,15.459706,75.008381,PM10,NA,NA,NA
India,Karnataka,Hubballi,"Lingaraj Nagar, Hubballi - KSPCB",23-09-2025 07:00:00,15.3714823,75.1160168,NO2,7,8,7
India,Karnataka,Kalaburagi,"Mahatma Basaveswar Colony, Kalaburgi - KSPCB",23-09-2025 07:00:00,17.336318,76.847397,NO2,10,19,16
India,Karnataka,Karwar,"KHB Colony, Karwar - KSPCB",23-09-2025 07:00:00,14.816666,74.141003,PM10,3,16,11
India,Karnataka,Karwar,"KHB Colony, Karwar - KSPCB",23-09-2025 07:00:00,14.816666,74.141003,NH3,1,3,1
India,Karnataka,Karwar,"KHB Colony, Karwar - KSPCB",23-09-2025 07:00:00,14.816666,74.141003,CO,9,17,12
India,Maharashtra,Kalyan,"Khadakpada, Kalyan - MPCB",23-09-2025 07:00:00,19.25292,73.142019,NH3,1,2,2
India,Maharashtra,Kolhapur,"Shivaji University, Kolhapur - MPCB",23-09-2025 07:00:00,16.6870449,74.2505872,PM10,21,68,47
India,Maharashtra,Kolhapur,"Shivaji University, Kolhapur - MPCB",23-09-2025 07:00:00,16.6870449,74.2505872,OZONE,9,20,14
India,Maharashtra,Kolhapur,"Sinchan Bhavan, Kolhapur - MPCB",23-09-2025 07:00:00,16.7143745,74.2426398,PM10,32,47,39
India,Maharashtra,Kolhapur,"Sinchan Bhavan, Kolhapur - MPCB",23-09-2025 07:00:00,16.7143745,74.2426398,NH3,4,5,5
India,Maharashtra,Kolhapur,"Sinchan Bhavan, Kolhapur - MPCB",23-09-2025 07:00:00,16.7143745,74.2426398,OZONE,11,32,15
India,Maharashtra,Latur,"Sawe Wadi, Latur - MPCB",23-09-2025 07:00:00,18.39963,76.57452,PM10,15,25,21
India,Maharashtra,Mahad,"Kamble Tarf Birwadi, Mahad - MPCB",23-09-2025 07:00:00,18.1023399,73.4783687,PM2.5,8,57,25
India,Maharashtra,Mahad,"Kamble Tarf Birwadi, Mahad - MPCB",23-09-2025 07:00:00,18.1023399,73.4783687,NH3,3,6,4
India,Maharashtra,Mahad,"Kamble Tarf Birwadi, Mahad - MPCB",23-09-2025 07:00:00,18.1023399,73.4783687,SO2,22,63,31
India,Maharashtra,Chandrapur,"Chauhan Colony, Chandrapur - MPCB",23-09-2025 07:00:00,19.962900,79.298714,OZONE,23,23,23
India,Maharashtra,Chandrapur,"MIDC Khutala, Chandrapur - MPCB",23-09-2025 07:00:00,19.9775302,79.2337086,NO2,2,16,8
India,Maharashtra,Chandrapur,"MIDC Khutala, Chandrapur - MPCB",23-09-2025 07:00:00,19.9775302,79.2337086,SO2,10,13,11
India,Maharashtra,Dhule,"Deopur, Dhule - MPCB",23-09-2025 07:00:00,20.918946,74.776388,NH3,NA,NA,NA
India,Maharashtra,Jalgaon,"Prabhat Colony, Jalgaon - MPCB",23-09-2025 07:00:00,21.001264,75.565602,NH3,2,3,3
India,Maharashtra,Jalgaon,"Prabhat Colony, Jalgaon - MPCB",23-09-2025 07:00:00,21.001264,75.565602,CO,16,27,24
India,Maharashtra,Jalgaon,"Prabhat Colony, Jalgaon - MPCB",23-09-2025 07:00:00,21.001264,75.565602,OZONE,10,42,18
India,Maharashtra,Jalna,"Old MIDC, Jalna - MPCB",23-09-2025 07:00:00,19.854616,75.905894,PM2.5,12,36,23
India,Maharashtra,Jalna,"Old MIDC, Jalna - MPCB",23-09-2025 07:00:00,19.854616,75.905894,NO2,37,49,44
India,Maharashtra,Jalna,"Old MIDC, Jalna - MPCB",23-09-2025 07:00:00,19.854616,75.905894,CO,3,17,8
India,Maharashtra,Mumbai,"Borivali East, Mumbai - MPCB",23-09-2025 07:00:00,19.2243333,72.8658113,CO,2,2,2
India,Maharashtra,Mumbai,"Chakala-Andheri East, Mumbai - IITM",23-09-2025 07:00:00,19.11074,72.86084,NO2,27,44,33
India,Maharashtra,Mumbai,"Chakala-Andheri East, Mumbai - IITM",23-09-2025 07:00:00,19.11074,72.86084,CO,2,30,10
India,Maharashtra,Mumbai,"Chembur, Mumbai - MPCB",23-09-2025 07:00:00,19.0364585,72.8954371,PM2.5,9,33,22
India,Maharashtra,Mumbai,"Colaba, Mumbai - MPCB",23-09-2025 07:00:00,18.910000,72.820000,PM10,22,104,42
India,Maharashtra,Mumbai,"Colaba, Mumbai - MPCB",23-09-2025 07:00:00,18.910000,72.820000,NH3,3,3,3
India,Maharashtra,Mumbai,"Deonar, Mumbai - IITM",23-09-2025 07:00:00,19.04946,72.9230,PM2.5,4,57,21
India,Maharashtra,Aurangabad,"Rachnakar Colony, Aurangabad - MPCB",23-09-2025 07:00:00,19.863756,75.321188,SO2,10,27,19
India,Maharashtra,Aurangabad,"Rachnakar Colony, Aurangabad - MPCB",23-09-2025 07:00:00,19.863756,75.321188,CO,8,25,10
India,Maharashtra,Belapur,"CBD Belapur, Belapur - MPCB",23-09-2025 07:00:00,19.0243902,73.0406721,NH3,3,7,5
India,Maharashtra,Belapur,"CBD Belapur, Belapur - MPCB",23-09-2025 07:00:00,19.0243902,73.0406721,CO,2,52,6
India,Maharashtra,Bhiwandi,"Gokul Nagar, Bhiwandi - MPCB",23-09-2025 07:00:00,19.309073,73.057223,PM2.5,17,50,32
India,Maharashtra,Chandrapur,"Chauhan Colony, Chandrapur - MPCB",23-09-2025 07:00:00,19.962900,79.298714,NO2,7,26,12
India,Maharashtra,Mumbai,"Navy Nagar-Colaba, Mumbai - IITM",23-09-2025 07:00:00,18.897756,72.813320,SO2,4,8,7
India,Maharashtra,Mumbai,"Navy Nagar-Colaba, Mumbai - IITM",23-09-2025 07:00:00,18.897756,72.813320,CO,6,32,10
India,Maharashtra,Mumbai,"Powai, Mumbai - MPCB",23-09-2025 07:00:00,19.137500,72.915056,NO2,7,8,7
India,Maharashtra,Mumbai,"Powai, Mumbai - MPCB",23-09-2025 07:00:00,19.137500,72.915056,CO,23,24,24
India,Maharashtra,Mumbai,"Shivaji Nagar, Mumbai - BMC",23-09-2025 07:00:00,19.060498,72.923356,PM10,25,48,34
India,Maharashtra,Mumbai,"Vasai West, Mumbai - MPCB",23-09-2025 07:00:00,19.383200,72.820400,PM10,10,24,16
India,Maharashtra,Mumbai,"Vasai West, Mumbai - MPCB",23-09-2025 07:00:00,19.383200,72.820400,CO,44,56,52
India,Maharashtra,Malegaon,"Mahesh Nagar, Malegaon - MPCB",23-09-2025 07:00:00,20.555712,74.529236,PM2.5,27,40,33
India,Maharashtra,Malegaon,"Mahesh Nagar, Malegaon - MPCB",23-09-2025 07:00:00,20.555712,74.529236,PM10,48,68,58
India,Maharashtra,Malegaon,"Mahesh Nagar, Malegaon - MPCB",23-09-2025 07:00:00,20.555712,74.529236,NO2,6,37,21
India,Maharashtra,Mumbai,"Bandra Kurla Complex, Mumbai - IITM",23-09-2025 07:00:00,19.053536,72.84643,NH3,5,16,4
India,Maharashtra,Mumbai,"Bandra Kurla Complex, Mumbai - IITM",23-09-2025 07:00:00,19.053536,72.84643,OZONE,1,2,1
India,Maharashtra,Mumbai,"Borivali East, Mumbai - IITM",23-09-2025 07:00:00,19.23241,72.86895,PM10,41,93,60
India,Maharashtra,Mumbai,"Ghatkopar, Mumbai - BMC",23-09-2025 07:00:00,19.083694,72.920967,PM2.5,3,33,12
India,Maharashtra,Mumbai,"Ghatkopar, Mumbai - BMC",23-09-2025 07:00:00,19.083694,72.920967,CO,10,32,13
India,Maharashtra,Mumbai,"Kandivali West, Mumbai - BMC",23-09-2025 07:00:00,19.215859,72.831718,SO2,NA,NA,NA
India,Maharashtra,Mumbai,"Kandivali West, Mumbai - BMC",23-09-2025 07:00:00,19.215859,72.831718,CO,NA,NA,NA
India,Maharashtra,Mumbai,"Khindipada-Bhandup West, Mumbai - IITM",23-09-2025 07:00:00,19.1653323,72.922099,PM10,4,49,17
India,Maharashtra,Mumbai,"Khindipada-Bhandup West, Mumbai - IITM",23-09-2025 07:00:00,19.1653323,72.922099,SO2,2,20,8
India,Maharashtra,Mumbai,"Kurla, Mumbai - MPCB",23-09-2025 07:00:00,19.0863,72.8888,CO,4,9,7
India,Maharashtra,Mumbai,"Malad West, Mumbai - IITM",23-09-2025 07:00:00,19.19709,72.82204,PM2.5,3,44,14
India,Maharashtra,Mumbai,"Mazgaon, Mumbai - IITM",23-09-2025 07:00:00,18.96702,72.84214,SO2,8,12,10
India,Maharashtra,Mumbai,"Mindspace-Malad West, Mumbai - MPCB",23-09-2025 07:00:00,19.1878657,72.8304069,PM10,35,37,36
India,Maharashtra,Mumbai,"Mindspace-Malad West, Mumbai - MPCB",23-09-2025 07:00:00,19.1878657,72.8304069,SO2,6,7,6
India,Maharashtra,Amravati,"Shivneri Colony, Amravati - MPCB",23-09-2025 07:00:00,20.9402359,77.7895248,CO,8,69,14
India,Maharashtra,Amravati,"Shivneri Colony, Amravati - MPCB",23-09-2025 07:00:00,20.9402359,77.7895248,OZONE,2,44,19
India,Maharashtra,Aurangabad,"MIDC Chilkalthana, Aurangabad - MPCB",23-09-2025 07:00:00,19.875620,75.387310,PM2.5,22,82,49
India,Maharashtra,Aurangabad,"MIDC Chilkalthana, Aurangabad - MPCB",23-09-2025 07:00:00,19.875620,75.387310,NO2,8,28,15
India,Maharashtra,Aurangabad,"MIDC Chilkalthana, Aurangabad - MPCB",23-09-2025 07:00:00,19.875620,75.387310,SO2,1,2,2
India,Maharashtra,Navi Mumbai,"Sector-2E Kalamboli, Navi Mumbai - MPCB",23-09-2025 07:00:00,19.02579,73.10297,PM10,26,60,40
