country,state,city,station,last_update,latitude,longitude,pollutant_id,min_value,max_value,avg_value
India,Assam,Guwahati,"Pan Bazaar, Guwahati - PCBA",16-12-2025 08:00:00,26.187500,91.744194,SO2,NA,NA,NA
India,Assam,Guwahati,"Pan Bazaar, Guwahati - PCBA",16-12-2025 08:00:00,26.187500,91.744194,OZONE,17,18,17
India,Assam,Guwahati,"Railway Colony, Guwahati - PCBA",16-12-2025 08:00:00,26.181742,91.78063,SO2,33,36,35
India,Assam,Nagaon,"Christianpatty, Nagaon - PCBA",16-12-2025 08:00:00,26.349082,92.68449,PM2.5,68,183,117
India,Assam,Nagaon,"Christianpatty, Nagaon - PCBA",16-12-2025 08:00:00,26.349082,92.68449,PM10,74,128,104
India,Assam,Nagaon,"Christianpatty, Nagaon - PCBA",16-12-2025 08:00:00,26.349082,92.68449,CO,16,24,22
India,Assam,Nalbari,"Bata Chowk, Nalbari - PCBA",16-12-2025 08:00:00,26.446912,91.439057,PM10,107,126,116
India,Assam,Nalbari,"Bata Chowk, Nalbari - PCBA",16-12-2025 08:00:00,26.446912,91.439057,NO2,14,15,14
India,Assam,Nalbari,"Bata Chowk, Nalbari - PCBA",16-12-2025 08:00:00,26.446912,91.439057,NH3,6,7,6
India,Assam,Nalbari,"Bata Chowk, Nalbari - PCBA",16-12-2025 08:00:00,26.446912,91.439057,SO2,4,8,8
India,Bihar,Bettiah,"Kamalnath Nagar, Bettiah - BSPCB",16-12-2025 08:00:00,26.80365,84.51954,CO,52,138,98
India,Bihar,Bhagalpur,"DM Office_Kachari Chowk, Bhagalpur - BSPCB",16-12-2025 08:00:00,25.251013,86.989001,PM2.5,23,103,63
India,Bihar,Bhagalpur,"DM Office_Kachari Chowk, Bhagalpur - BSPCB",16-12-2025 08:00:00,25.251013,86.989001,PM10,24,119,79
India,Bihar,Bhagalpur,"DM Office_Kachari Chowk, Bhagalpur - BSPCB",16-12-2025 08:00:00,25.251013,86.989001,NH3,1,1,1
India,Bihar,Bhagalpur,"DM Office_Kachari Chowk, Bhagalpur - BSPCB",16-12-2025 08:00:00,25.251013,86.989001,CO,10,17,14
India,Bihar,Bhagalpur,"Mayaganj, Bhagalpur - BSPCB",16-12-2025 08:00:00,25.265194,87.012947,PM2.5,22,90,57
India,Bihar,Bhagalpur,"Mayaganj, Bhagalpur - BSPCB",16-12-2025 08:00:00,25.265194,87.012947,PM10,36,113,77
India,Bihar,Bihar Sharif,"D M Colony, Bihar Sharif - BSPCB",16-12-2025 08:00:00,25.204762,85.514960,NO2,9,10,10
India,Andhra_Pradesh,Vijayawada,"Rajiv Nagar, Vijayawada - APPCB",16-12-2025 08:00:00,16.554731,80.649110,SO2,14,18,17
India,Andhra_Pradesh,Vijayawada,"Rajiv Nagar, Vijayawada - APPCB",16-12-2025 08:00:00,16.554731,80.649110,CO,36,56,40
India,Andhra_Pradesh,Visakhapatnam,"GVM Corporation, Visakhapatnam - APPCB",16-12-2025 08:00:00,17.72,83.3,NH3,3,4,4
India,Arunachal_Pradesh,Naharlagun,"Naharlagun, Naharlagun - APSPCB",16-12-2025 08:00:00,27.103358,93.679645,NO2,6,7,7
India,Assam,Byrnihat,"Central Academy for SFS, Byrnihat - PCBA",16-12-2025 08:00:00,26.071318,91.87488,PM2.5,80,311,158
India,Assam,Byrnihat,"Central Academy for SFS, Byrnihat - PCBA",16-12-2025 08:00:00,26.071318,91.87488,CO,28,64,56
India,Andaman and Nicobar,Sri Vijaya Puram,"Police Line, Sri Vijaya Puram - ANPCC",16-12-2025 08:00:00,11.654054,92.734055,PM10,24,75,35
India,Andaman and Nicobar,Sri Vijaya Puram,"Police Line, Sri Vijaya Puram - ANPCC",16-12-2025 08:00:00,11.654054,92.734055,OZONE,1,17,1
India,Andhra_Pradesh,Amaravati,"Secretariat, Amaravati - APPCB",16-12-2025 08:00:00,16.5150833,80.5181667,CO,25,68,40
India,Andhra_Pradesh,Anantapur,"Gulzarpet, Anantapur - APPCB",16-12-2025 08:00:00,14.675886,77.593027,NO2,18,23,22
India,Andhra_Pradesh,Kadapa,"Yerramukkapalli, Kadapa - APPCB",16-12-2025 08:00:00,14.465052,78.824187,PM10,46,92,72
India,Andhra_Pradesh,Kadapa,"Yerramukkapalli, Kadapa - APPCB",16-12-2025 08:00:00,14.465052,78.824187,CO,29,44,37
India,Andhra_Pradesh,Kadapa,"Yerramukkapalli, Kadapa - APPCB",16-12-2025 08:00:00,14.465052,78.824187,OZONE,22,25,23
India,Andhra_Pradesh,Tirumala,"Toll Gate, Tirumala - APPCB",16-12-2025 08:00:00,13.67,79.35,NO2,13,22,19
India,Andhra_Pradesh,Tirumala,"Toll Gate, Tirumala - APPCB",16-12-2025 08:00:00,13.67,79.35,NH3,1,1,1
India,Assam,Silchar,"Tarapur, Silchar - PCBA",16-12-2025 08:00:00,24.82827,92.79525,NH3,1,1,1
India,Assam,Silchar,"Tarapur, Silchar - PCBA",16-12-2025 08:00:00,24.82827,92.79525,SO2,4,9,7
India,Assam,Sivasagar,"Girls College, Sivasagar - PCBA",16-12-2025 08:00:00,26.987634,94.636574,PM10,11,98,58
India,Bihar,Araria,"Kharahiya Basti, Araria - BSPCB",16-12-2025 08:00:00,26.146529,87.454184,PM2.5,37,287,133
India,Andhra_Pradesh,Tirupati,"Vaikuntapuram, Tirupati - APPCB",16-12-2025 08:00:00,13.615387,79.409230,CO,26,38,33
India,Andhra_Pradesh,Tirupati,"Vaikuntapuram, Tirupati - APPCB",16-12-2025 08:00:00,13.615387,79.409230,OZONE,16,17,16
India,Andhra_Pradesh,Vijayawada,"HB Colony, Vijayawada - APPCB",16-12-2025 08:00:00,16.536107,80.594233,NO2,12,16,15
India,Andhra_Pradesh,Vijayawada,"HB Colony, Vijayawada - APPCB",16-12-2025 08:00:00,16.536107,80.594233,CO,16,44,34
India,Andhra_Pradesh,Vijayawada,"Kanuru, Vijayawada - APPCB",16-12-2025 08:00:00,16.486692,80.699436,OZONE,NA,NA,NA
India,Andhra_Pradesh,Vijayawada,"Rajiv Gandhi Park, Vijayawada - APPCB",16-12-2025 08:00:00,16.509717,80.612222,NO2,40,97,63
India,Andhra_Pradesh,Vijayawada,"Rajiv Gandhi Park, Vijayawada - APPCB",16-12-2025 08:00:00,16.509717,80.612222,CO,32,52,35
India,Andhra_Pradesh,Vijayawada,"Kanuru, Vijayawada - APPCB",16-12-2025 08:00:00,16.486692,80.699436,NO2,NA,NA,NA
India,Bihar,Bettiah,"Kamalnath Nagar, Bettiah - BSPCB",16-12-2025 08:00:00,26.80365,84.51954,PM10,31,135,80
India,Bihar,Muzaffarpur,"MIT-Daudpur Kothi, Muzaffarpur - BSPCB",16-12-2025 08:00:00,26.1403345,85.3650192,OZONE,16,81,21
India,Bihar,Patna,"DRM Office Danapur, Patna - BSPCB",16-12-2025 08:00:00,25.586562,85.043586,PM10,80,278,159
India,Bihar,Patna,"DRM Office Danapur, Patna - BSPCB",16-12-2025 08:00:00,25.586562,85.043586,OZONE,7,26,7
India,Bihar,Patna,"Govt. High School Shikarpur, Patna - BSPCB",16-12-2025 08:00:00,25.592539,85.227158,NO2,2,40,21
India,Bihar,Patna,"Govt. High School Shikarpur, Patna - BSPCB",16-12-2025 08:00:00,25.592539,85.227158,SO2,12,17,14
India,Bihar,Patna,"IGSC Planetarium Complex, Patna - BSPCB",16-12-2025 08:00:00,25.610369,85.132568,PM2.5,NA,NA,NA
India,Bihar,Patna,"IGSC Planetarium Complex, Patna - BSPCB",16-12-2025 08:00:00,25.610369,85.132568,CO,NA,NA,NA
India,Bihar,Patna,"Muradpur, Patna - BSPCB",16-12-2025 08:00:00,25.619651,85.147382,NO2,5,8,7
India,Bihar,Patna,"Muradpur, Patna - BSPCB",16-12-2025 08:00:00,25.619651,85.147382,SO2,8,10,9
India,Bihar,Patna,"Rajbansi Nagar, Patna - BSPCB",16-12-2025 08:00:00,25.599486,85.113666,PM10,82,157,123
India,Bihar,Patna,"Samanpura, Patna - BSPCB",16-12-2025 08:00:00,25.596727,85.085624,NH3,5,5,5
India,Bihar,Patna,"Samanpura, Patna - BSPCB",16-12-2025 08:00:00,25.596727,85.085624,CO,47,134,73
India,Bihar,Patna,"Samanpura, Patna - BSPCB",16-12-2025 08:00:00,25.596727,85.085624,OZONE,10,92,13
India,Bihar,Purnia,"Mariam Nagar, Purnia - BSPCB",16-12-2025 08:00:00,25.366336,87.117468,PM2.5,17,127,70
India,Bihar,Chhapra,"Darshan Nagar, Chhapra - BSPCB",16-12-2025 08:00:00,25.7808257,84.7446768,SO2,31,53,45
India,Bihar,Gaya,"Collectorate, Gaya - BSPCB",16-12-2025 08:00:00,24.7955,84.9994,CO,29,108,47
India,Bihar,Gaya,"Collectorate, Gaya - BSPCB",16-12-2025 08:00:00,24.7955,84.9994,OZONE,19,21,19
India,Bihar,Gaya,"Kareemganj, Gaya - BSPCB",16-12-2025 08:00:00,24.792403,84.992416,NO2,2,7,4
India,Bihar,Gaya,"Kareemganj, Gaya - BSPCB",16-12-2025 08:00:00,24.792403,84.992416,NH3,4,6,5
India,Bihar,Gaya,"Kareemganj, Gaya - BSPCB",16-12-2025 08:00:00,24.792403,84.992416,CO,38,42,40
India,Bihar,Muzaffarpur,"Buddha Colony, Muzaffarpur - BSPCB",16-12-2025 08:00:00,26.11442,85.39813,NO2,19,49,30
India,Bihar,Muzaffarpur,"Buddha Colony, Muzaffarpur - BSPCB",16-12-2025 08:00:00,26.11442,85.39813,CO,52,116,113
India,Bihar,Muzaffarpur,"Buddha Colony, Muzaffarpur - BSPCB",16-12-2025 08:00:00,26.11442,85.39813,OZONE,11,59,15
India,Bihar,Muzaffarpur,"MIT-Daudpur Kothi, Muzaffarpur - BSPCB",16-12-2025 08:00:00,26.1403345,85.3650192,NO2,2,5,3
India,Bihar,Muzaffarpur,"MIT-Daudpur Kothi, Muzaffarpur - BSPCB",16-12-2025 08:00:00,26.1403345,85.3650192,SO2,6,26,17
India,Bihar,Motihari,"Gandak Colony, Motihari - BSPCB",16-12-2025 08:00:00,26.63086,84.90051,NO2,8,11,9
India,Bihar,Motihari,"Gandak Colony, Motihari - BSPCB",16-12-2025 08:00:00,26.63086,84.90051,NH3,3,3,3
India,Bihar,Motihari,"Gandak Colony, Motihari - BSPCB",16-12-2025 08:00:00,26.63086,84.90051,CO,34,51,40
India,Bihar,Munger,"Town Hall, Munger - BSPCB",16-12-2025 08:00:00,25.376776,86.471523,PM10,43,118,77
India,Bihar,Munger,"Town Hall, Munger - BSPCB",16-12-2025 08:00:00,25.376776,86.471523,OZONE,14,29,20
India,Bihar,Saharsa,"Police Line, Saharsa - BSPCB",16-12-2025 08:00:00,25.892357,86.590325,PM2.5,26,220,95
India,Bihar,Saharsa,"Police Line, Saharsa - BSPCB",16-12-2025 08:00:00,25.892357,86.590325,CO,38,45,42
India,Bihar,Samastipur,"DM Office_Kasipur, Samastipur - BSPCB",16-12-2025 08:00:00,25.859655,85.77944,PM10,18,144,47
India,Bihar,Sasaram,"Dada Peer, Sasaram - BSPCB",16-12-2025 08:00:00,24.952822,84.002396,SO2,3,5,4
India,Bihar,Buxar,"Charitra Van, Buxar - BSPCB",16-12-2025 08:00:00,25.567520,83.966379,NO2,9,10,10
India,Bihar,Buxar,"Charitra Van, Buxar - BSPCB",16-12-2025 08:00:00,25.567520,83.966379,OZONE,5,38,9
India,Bihar,Chhapra,"Darshan Nagar, Chhapra - BSPCB",16-12-2025 08:00:00,25.7808257,84.7446768,PM10,8,109,74
India,Bihar,Chhapra,"Darshan Nagar, Chhapra - BSPCB",16-12-2025 08:00:00,25.7808257,84.7446768,NO2,NA,NA,NA
India,Bihar,Gaya,"SFTI Kusdihra, Gaya - BSPCB",16-12-2025 08:00:00,24.762518,84.982348,NH3,4,4,4
India,Bihar,Hajipur,"Industrial Area, Hajipur - BSPCB",16-12-2025 08:00:00,25.697189,85.245900,NO2,31,60,44
India,Bihar,Hajipur,"Industrial Area, Hajipur - BSPCB",16-12-2025 08:00:00,25.697189,85.245900,CO,20,46,34
India,Chandigarh,Chandigarh,"Sector-25, Chandigarh - CPCC",16-12-2025 08:00:00,30.751462,76.762879,SO2,6,17,9
India,Chandigarh,Chandigarh,"Sector-53, Chandigarh - CPCC",16-12-2025 08:00:00,30.719859,76.738637,PM2.5,38,120,82
India,Chandigarh,Chandigarh,"Sector-53, Chandigarh - CPCC",16-12-2025 08:00:00,30.719859,76.738637,PM10,47,103,78
India,Delhi,Delhi,"DTU, Delhi - CPCB",16-12-2025 08:00:00,28.7500499,77.1112615,PM2.5,368,500,425
India,Delhi,Delhi,"DTU, Delhi - CPCB",16-12-2025 08:00:00,28.7500499,77.1112615,SO2,28,32,29
India,Delhi,Delhi,"Dr. Karni Singh Shooting Range, Delhi - DPCC",16-12-2025 08:00:00,28.498571,77.264840,PM10,149,412,291
India,Delhi,Delhi,"Dr. Karni Singh Shooting Range, Delhi - DPCC",16-12-2025 08:00:00,28.498571,77.264840,OZONE,11,238,20
India,Delhi,Delhi,"Dwarka-Sector 8, Delhi - DPCC ",16-12-2025 08:00:00,28.5710274,77.0719006,PM10,193,420,264
India,Delhi,Delhi,"Dwarka-Sector 8, Delhi - DPCC ",16-12-2025 08:00:00,28.5710274,77.0719006,NO2,60,129,82
India,Delhi,Delhi,"Dwarka-Sector 8, Delhi - DPCC ",16-12-2025 08:00:00,28.5710274,77.0719006,SO2,22,28,25
India,Chhattisgarh,Chhal,"Nawapara SECL Colony, Chhal - CECB",16-12-2025 08:00:00,22.118125,83.140608,NO2,7,31,12
India,Chhattisgarh,Chhal,"Nawapara SECL Colony, Chhal - CECB",16-12-2025 08:00:00,22.118125,83.140608,SO2,5,96,29
India,Chhattisgarh,Chhal,"Nawapara SECL Colony, Chhal - CECB",16-12-2025 08:00:00,22.118125,83.140608,OZONE,6,186,11
India,Chhattisgarh,Korba,"Urja Nagar, Korba - CECB",16-12-2025 08:00:00,22.348441,82.549611,PM10,NA,NA,NA
India,Chhattisgarh,Kunjemura,"OP Jindal School, Kunjemura - CECB",16-12-2025 08:00:00,22.126650,83.483212,PM10,38,102,74
India,Chhattisgarh,Bhilai,"Civic Center, Bhilai - Bhilai Steel Plant",16-12-2025 08:00:00,21.185571,81.343175,PM2.5,45,149,75
India,Chhattisgarh,Bhilai,"Hathkhoj, Bhilai - CECB",16-12-2025 08:00:00,21.224231,81.408350,CO,32,105,78
India,Chhattisgarh,Bhilai,"Hathkhoj, Bhilai - CECB",16-12-2025 08:00:00,21.224231,81.408350,OZONE,2,18,5
India,Chhattisgarh,Bilaspur,"Mangala, Bilaspur - NTPC",16-12-2025 08:00:00,22.08815,82.13737,PM2.5,75,302,148
India,Chhattisgarh,Milupara,"Govt. Higher Secondary School, Milupara - CECB",16-12-2025 08:00:00,22.1910172,83.5197009,SO2,NA,NA,NA
India,Chhattisgarh,Raipur,"AIIMS, Raipur - CECB",16-12-2025 08:00:00,21.258815,81.578979,SO2,5,11,8
India,Chhattisgarh,Raipur,"Bhatagaon New ISBT, Raipur - CECB",16-12-2025 08:00:00,21.219665,81.630094,OZONE,3,20,3
India,Delhi,Delhi,"CRRI Mathura Road, Delhi - IMD",16-12-2025 08:00:00,28.5512005,77.2735737,PM10,170,329,241
India,Delhi,Delhi,"CRRI Mathura Road, Delhi - IMD",16-12-2025 08:00:00,28.5512005,77.2735737,OZONE,8,60,10
India,Delhi,Delhi,"Chandni Chowk, Delhi - IITM",16-12-2025 08:00:00,28.656756,77.227234,PM10,202,438,342
India,Delhi,Delhi,"Chandni Chowk, Delhi - IITM",16-12-2025 08:00:00,28.656756,77.227234,SO2,6,7,6
India,Delhi,Delhi,"Anand Vihar, Delhi - DPCC",16-12-2025 08:00:00,28.647622,77.3158090,CO,90,144,106
India,Delhi,Delhi,"Ashok Vihar, Delhi - DPCC",16-12-2025 08:00:00,28.695381,77.181665,PM10,251,445,351
India,Delhi,Delhi,"Ashok Vihar, Delhi - DPCC",16-12-2025 08:00:00,28.695381,77.181665,NO2,51,145,90
India,Delhi,Delhi,"Ashok Vihar, Delhi - DPCC",16-12-2025 08:00:00,28.695381,77.181665,SO2,15,23,20
India,Delhi,Delhi,"Aya Nagar, Delhi - IMD",16-12-2025 08:00:00,28.4706914,77.1099364,PM2.5,315,412,339
India,Delhi,Delhi,"Bawana, Delhi - DPCC",16-12-2025 08:00:00,28.776200,77.051074,OZONE,3,78,6
India,Delhi,Delhi,"Alipur, Delhi - DPCC",16-12-2025 08:00:00,28.815329,77.153010,CO,58,109,70
India,Delhi,Delhi,"Anand Vihar, Delhi - DPCC",16-12-2025 08:00:00,28.647622,77.3158090,PM2.5,173,498,406
India,Chhattisgarh,Raipur,"Siltara Phase-II, Raipur - CECB",16-12-2025 08:00:00,21.371751,81.664929,PM10,35,144,106
India,Chhattisgarh,Raipur,"Siltara Phase-II, Raipur - CECB",16-12-2025 08:00:00,21.371751,81.664929,OZONE,3,4,3
India,Delhi,Delhi,"Wazirpur, Delhi - DPCC",16-12-2025 08:00:00,28.699793,77.165453,OZONE,1,85,10
India,Gujarat,Ahmedabad,"Chandkheda, Ahmedabad - IITM",16-12-2025 08:00:00,23.107969,72.574648,PM10,87,170,122
India,Gujarat,Ahmedabad,"Gyaspur, Ahmedabad - IITM",16-12-2025 08:00:00,22.977134,72.553024,PM2.5,69,256,144
India,Gujarat,Ahmedabad,"Maninagar, Ahmedabad - GPCB",16-12-2025 08:00:00,23.002657,72.591912,NO2,63,64,63
India,Gujarat,Ahmedabad,"Raikhad, Ahmedabad - IITM",16-12-2025 08:00:00,23.020509,72.579261,PM10,105,195,143
India,Delhi,Delhi,"Najafgarh, Delhi - DPCC",16-12-2025 08:00:00,28.570173,76.933762,PM2.5,316,403,348
India,Delhi,Delhi,"Najafgarh, Delhi - DPCC",16-12-2025 08:00:00,28.570173,76.933762,NH3,10,16,12
India,Delhi,Delhi,"Narela, Delhi - DPCC",16-12-2025 08:00:00,28.822836,77.101981,OZONE,8,106,28
India,Delhi,Delhi,"Nehru Nagar, Delhi - DPCC",16-12-2025 08:00:00,28.567890,77.250515,PM10,209,500,330
India,Delhi,Delhi,"Nehru Nagar, Delhi - DPCC",16-12-2025 08:00:00,28.567890,77.250515,OZONE,2,284,4
India,Delhi,Delhi,"North Campus, DU, Delhi - IMD",16-12-2025 08:00:00,28.6573814,77.1585447,PM2.5,323,429,380
India,Delhi,Delhi,"R K Puram, Delhi - DPCC",16-12-2025 08:00:00,28.563262,77.186937,NO2,47,126,88
India,Delhi,Delhi,"R K Puram, Delhi - DPCC",16-12-2025 08:00:00,28.563262,77.186937,SO2,3,30,17
India,Delhi,Delhi,"Rohini, Delhi - DPCC",16-12-2025 08:00:00,28.732528,77.119920,CO,52,123,76
India,Delhi,Delhi,"Shadipur, Delhi - CPCB",16-12-2025 08:00:00,28.6514781,77.1473105,PM10,175,472,295
India,Delhi,Delhi,"Shadipur, Delhi - CPCB",16-12-2025 08:00:00,28.6514781,77.1473105,SO2,15,25,20
India,Delhi,Delhi,"Okhla Phase-2, Delhi - DPCC",16-12-2025 08:00:00,28.530785,77.271255,PM10,186,433,297
India,Delhi,Delhi,"Okhla Phase-2, Delhi - DPCC",16-12-2025 08:00:00,28.530785,77.271255,NO2,106,210,165
India,Delhi,Delhi,"Okhla Phase-2, Delhi - DPCC",16-12-2025 08:00:00,28.530785,77.271255,SO2,6,15,12
India,Delhi,Delhi,"Patparganj, Delhi - DPCC",16-12-2025 08:00:00,28.623763,77.287209,PM2.5,324,456,394
India,Delhi,Delhi,"Punjabi Bagh, Delhi - DPCC",16-12-2025 08:00:00,28.674045,77.131023,PM10,204,417,315
India,Delhi,Delhi,"Sirifort, Delhi - CPCB",16-12-2025 08:00:00,28.5504249,77.2159377,OZONE,8,60,13
India,Delhi,Delhi,"Sonia Vihar, Delhi - DPCC",16-12-2025 08:00:00,28.710508,77.249485,CO,44,132,85
India,Delhi,Delhi,"Sri Aurobindo Marg, Delhi - DPCC",16-12-2025 08:00:00,28.531346,77.190156,PM2.5,316,420,348
India,Delhi,Delhi,"Sri Aurobindo Marg, Delhi - DPCC",16-12-2025 08:00:00,28.531346,77.190156,OZONE,1,110,2
India,Delhi,Delhi,"ITO, Delhi - CPCB",16-12-2025 08:00:00,28.628624,77.241060,PM10,202,422,305
India,Delhi,Delhi,"ITO, Delhi - CPCB",16-12-2025 08:00:00,28.628624,77.241060,OZONE,13,18,14
India,Delhi,Delhi,"Jahangirpuri, Delhi - DPCC",16-12-2025 08:00:00,28.732820,77.170633,NH3,5,7,6
India,Delhi,Delhi,"Jawaharlal Nehru Stadium, Delhi - DPCC",16-12-2025 08:00:00,28.580280,77.233829,OZONE,4,229,6
India,Delhi,Delhi,"Punjabi Bagh, Delhi - DPCC",16-12-2025 08:00:00,28.674045,77.131023,SO2,2,20,12
India,Delhi,Delhi,"Pusa, Delhi - DPCC",16-12-2025 08:00:00,28.639652,77.146275,CO,48,103,73
India,Delhi,Delhi,"Pusa, Delhi - DPCC",16-12-2025 08:00:00,28.639652,77.146275,OZONE,7,10,9
India,Delhi,Delhi,"Major Dhyan Chand National Stadium, Delhi - DPCC",16-12-2025 08:00:00,28.611281,77.237738,PM2.5,315,424,378
India,Gujarat,Ahmedabad,"Rakhial, Ahmedabad - IITM",16-12-2025 08:00:00,23.016834,72.625775,PM10,71,164,115
India,Gujarat,Vapi,"Phase-1 GIDC, Vapi - GPCB",16-12-2025 08:00:00,20.362421,72.918013,PM10,28,128,66
India,Gujarat,Vapi,"Phase-1 GIDC, Vapi - GPCB",16-12-2025 08:00:00,20.362421,72.918013,NH3,4,6,5
India,Gujarat,Vapi,"Phase-1 GIDC, Vapi - GPCB",16-12-2025 08:00:00,20.362421,72.918013,SO2,16,32,26
India,Gujarat,Vatva,"Phase-4 GIDC, Vatva - GPCB",16-12-2025 08:00:00,22.969611,72.643500,SO2,2,9,5
India,Haryana,Ambala,"Patti Mehar, Ambala - HSPCB",16-12-2025 08:00:00,30.379589,76.778328,PM10,56,216,130
India,Haryana,Ambala,"Patti Mehar, Ambala - HSPCB",16-12-2025 08:00:00,30.379589,76.778328,NH3,8,11,10
India,Haryana,Bahadurgarh,"Arya Nagar, Bahadurgarh - HSPCB",16-12-2025 08:00:00,28.6701,76.9254,PM2.5,34,500,305
India,Haryana,Bahadurgarh,"Arya Nagar, Bahadurgarh - HSPCB",16-12-2025 08:00:00,28.6701,76.9254,PM10,27,466,209
India,Haryana,Bahadurgarh,"Arya Nagar, Bahadurgarh - HSPCB",16-12-2025 08:00:00,28.6701,76.9254,OZONE,16,20,17
India,Gujarat,Ankleshwar,"GIDC, Ankleshwar - GPCB",16-12-2025 08:00:00,21.613267,73.010555,OZONE,32,63,33
India,Gujarat,Gandhinagar,"IIPHG Lekawada, Gandhinagar - IITM",16-12-2025 08:00:00,23.243639,72.68994,CO,1,84,53
India,Gujarat,Gandhinagar,"IIPHG Lekawada, Gandhinagar - IITM",16-12-2025 08:00:00,23.243639,72.68994,OZONE,2,44,3
India,Gujarat,Gandhinagar,"Sector-10, Gandhinagar - GPCB",16-12-2025 08:00:00,23.221714,72.654328,PM2.5,42,122,68
India,Gujarat,Gandhinagar,"Sector-10, Gandhinagar - GPCB",16-12-2025 08:00:00,23.221714,72.654328,CO,33,52,41
India,Gujarat,Surat,"Science Center, Surat - SMC",16-12-2025 08:00:00,21.170046,72.795405,PM10,12,88,48
India,Gujarat,Surat,"Science Center, Surat - SMC",16-12-2025 08:00:00,21.170046,72.795405,SO2,30,46,34
India,Haryana,Gurugram,"Teri Gram, Gurugram - HSPCB",16-12-2025 08:00:00,28.4275,77.1465,SO2,11,20,14
India,Haryana,Gurugram,"Vikas Sadan, Gurugram - HSPCB",16-12-2025 08:00:00,28.4501238,77.0263051,NO2,9,45,26
India,Haryana,Hisar,"Urban Estate-II, Hisar - HSPCB",16-12-2025 08:00:00,29.140560,75.744941,PM2.5,29,147,84
India,Haryana,Hisar,"Urban Estate-II, Hisar - HSPCB",16-12-2025 08:00:00,29.140560,75.744941,OZONE,36,79,46
India,Haryana,Jind,"Police Lines, Jind - HSPCB",16-12-2025 08:00:00,29.307814,76.337619,NH3,2,2,2
India,Haryana,Ballabgarh,"Nathu Colony, Ballabgarh - HSPCB",16-12-2025 08:00:00,28.3419248,77.319699,SO2,4,8,7
India,Haryana,Bhiwani,"H.B. Colony, Bhiwani - HSPCB",16-12-2025 08:00:00,28.806223,76.141105,PM10,77,230,93
India,Haryana,Charkhi Dadri,"Mini Secretariat, Charkhi Dadri - HSPCB",16-12-2025 08:00:00,28.593883,76.270653,PM10,87,258,152
India,Haryana,Dharuhera,"Municipal Corporation Office, Dharuhera -  HSPCB",16-12-2025 08:00:00,28.206800,76.799700,NH3,9,26,19
India,Haryana,Gurugram,"NISE Gwal Pahari, Gurugram - IMD",16-12-2025 08:00:00,28.422681,77.148944,CO,54,120,91
India,Haryana,Gurugram,"Sector-51, Gurugram - HSPCB",16-12-2025 08:00:00,28.4227,77.0667,NO2,2,10,6
India,Haryana,Gurugram,"Sector-51, Gurugram - HSPCB",16-12-2025 08:00:00,28.4227,77.0667,CO,2,38,7
India,Haryana,Faridabad,"Sector 30, Faridabad - HSPCB",16-12-2025 08:00:00,28.4417,77.3217,PM10,104,124,112
India,Haryana,Faridabad,"Sector 30, Faridabad - HSPCB",16-12-2025 08:00:00,28.4417,77.3217,NH3,10,12,11
India,Haryana,Faridabad,"Sector 30, Faridabad - HSPCB",16-12-2025 08:00:00,28.4417,77.3217,CO,22,65,56
India,Haryana,Faridabad,"Sector 30, Faridabad - HSPCB",16-12-2025 08:00:00,28.4417,77.3217,OZONE,18,19,19
India,Haryana,Dharuhera,"Municipal Corporation Office, Dharuhera -  HSPCB",16-12-2025 08:00:00,28.206800,76.799700,OZONE,7,58,9
India,Gujarat,Ahmedabad,"SAC ISRO Bopal, Ahmedabad - IITM",16-12-2025 08:00:00,23.041137,72.456691,NO2,31,54,40
India,Haryana,Faridabad,"New Industrial Town, Faridabad - HSPCB",16-12-2025 08:00:00,28.39072,77.30059,SO2,NA,NA,NA
India,Karnataka,Bengaluru,"Peenya, Bengaluru - CPCB",16-12-2025 08:00:00,13.0270199,77.494094,SO2,5,19,11
India,Karnataka,Bengaluru,"Peenya, Bengaluru - CPCB",16-12-2025 08:00:00,13.0270199,77.494094,CO,18,60,26
India,Karnataka,Bengaluru,"Sanegurava Halli, Bengaluru - KSPCB",16-12-2025 08:00:00,12.990328,77.5431385,SO2,7,7,7
India,Karnataka,Bengaluru,"Shivapura_Peenya, Bengaluru - KSPCB",16-12-2025 08:00:00,13.0246342,77.5080115,PM10,91,132,116
India,Karnataka,Bengaluru,"Silk Board, Bengaluru - KSPCB",16-12-2025 08:00:00,12.917348,77.622813,PM10,102,260,150
India,Karnataka,Bengaluru,"Silk Board, Bengaluru - KSPCB",16-12-2025 08:00:00,12.917348,77.622813,NO2,12,24,17
India,Karnataka,Bengaluru,"Silk Board, Bengaluru - KSPCB",16-12-2025 08:00:00,12.917348,77.622813,NH3,1,2,2
India,Karnataka,Chamarajanagar,"Urban, Chamarajanagar - KSPCB",16-12-2025 08:00:00,11.55358,76.55521,NO2,14,46,25
India,Karnataka,Chamarajanagar,"Urban, Chamarajanagar - KSPCB",16-12-2025 08:00:00,11.55358,76.55521,CO,18,120,32
India,Karnataka,Bengaluru,"Jayanagar 5th Block, Bengaluru - KSPCB",16-12-2025 08:00:00,12.920984,77.584908,NO2,6,41,23
India,Karnataka,Bengaluru,"Jayanagar 5th Block, Bengaluru - KSPCB",16-12-2025 08:00:00,12.920984,77.584908,CO,12,62,18
India,Karnataka,Bengaluru,"Jigani, Bengaluru - KSPCB",16-12-2025 08:00:00,12.7816279,77.6299145,PM10,53,131,95
India,Karnataka,Bengaluru,"Jigani, Bengaluru - KSPCB",16-12-2025 08:00:00,12.7816279,77.6299145,SO2,17,17,17
India,Karnataka,Bengaluru,"Jigani, Bengaluru - KSPCB",16-12-2025 08:00:00,12.7816279,77.6299145,CO,42,44,42
India,Karnataka,Bengaluru,"Kasturi Nagar, Bengaluru - KSPCB",16-12-2025 08:00:00,13.003872,77.664217,PM10,72,85,82
India,Karnataka,Bengaluru,"Kasturi Nagar, Bengaluru - KSPCB",16-12-2025 08:00:00,13.003872,77.664217,CO,41,53,44
India,Karnataka,Bengaluru,"Peenya, Bengaluru - CPCB",16-12-2025 08:00:00,13.0270199,77.494094,PM10,47,74,62
India,Karnataka,Bengaluru,"Peenya, Bengaluru - CPCB",16-12-2025 08:00:00,13.0270199,77.494094,NO2,22,29,25
India,Haryana,Panipat,"Sector-18, Panipat - HSPCB",16-12-2025 08:00:00,29.432304,76.972765,PM10,121,301,156
India,Haryana,Panipat,"Sector-18, Panipat - HSPCB",16-12-2025 08:00:00,29.432304,76.972765,CO,24,48,44
India,Haryana,Rohtak,"MD University, Rohtak - HSPCB",16-12-2025 08:00:00,28.52123,76.37138,PM2.5,124,460,381
India,Haryana,Rohtak,"MD University, Rohtak - HSPCB",16-12-2025 08:00:00,28.52123,76.37138,NO2,10,13,11
India,Haryana,Rohtak,"MD University, Rohtak - HSPCB",16-12-2025 08:00:00,28.52123,76.37138,OZONE,25,40,39
India,Haryana,Sirsa,"F-Block, Sirsa - HSPCB",16-12-2025 08:00:00,29.536400,75.015800,CO,58,103,79
India,Haryana,Sirsa,"F-Block, Sirsa - HSPCB",16-12-2025 08:00:00,29.536400,75.015800,OZONE,20,64,50
India,Haryana,Sonipat,"Murthal, Sonipat - HSPCB",16-12-2025 08:00:00,29.027200,77.062100,NO2,19,54,43
India,Karnataka,Koppal,"Diwator Nagar, Koppal - KSPCB",16-12-2025 08:00:00,15.347630,76.181767,PM10,40,94,61
India,Karnataka,Koppal,"Diwator Nagar, Koppal - KSPCB",16-12-2025 08:00:00,15.347630,76.181767,NH3,7,8,7
India,Karnataka,Koppal,"Diwator Nagar, Koppal - KSPCB",16-12-2025 08:00:00,15.347630,76.181767,OZONE,2,12,4
India,Karnataka,Mangalore,"Kadri, Mangalore - KSPCB",16-12-2025 08:00:00,12.889250,74.853000,PM2.5,75,235,124
India,Karnataka,Mangalore,"Kadri, Mangalore - KSPCB",16-12-2025 08:00:00,12.889250,74.853000,NH3,1,2,1
India,Karnataka,Mangalore,"Kadri, Mangalore - KSPCB",16-12-2025 08:00:00,12.889250,74.853000,SO2,16,17,17
India,Karnataka,Mysuru,"Hebbal 1st Stage, Mysuru - KSPCB",16-12-2025 08:00:00,12.21041,76.37376,SO2,1,22,7
India,Karnataka,Mysuru,"Hebbal 1st Stage, Mysuru - KSPCB",16-12-2025 08:00:00,12.21041,76.37376,CO,6,112,19
India,Karnataka,Mysuru,"Hebbal 1st Stage, Mysuru - KSPCB",16-12-2025 08:00:00,12.21041,76.37376,OZONE,5,102,27
India,Karnataka,Belgaum,"Ramteerth Nagar, Belgaum - KSPCB",16-12-2025 08:00:00,15.888653,74.541751,CO,7,10,8
India,Karnataka,Bengaluru,"BTM Layout, Bengaluru - CPCB",16-12-2025 08:00:00,12.9135218,77.5950804,SO2,13,17,16
India,Karnataka,Bengaluru,"BWSSB Kadabesanahalli, Bengaluru - CPCB",16-12-2025 08:00:00,12.9352049,77.6814488,SO2,2,12,4
India,Karnataka,Bengaluru,"City Railway Station, Bengaluru - KSPCB",16-12-2025 08:00:00,12.9756843,77.5660749,PM10,83,85,84
India,Karnataka,Bengaluru,"City Railway Station, Bengaluru - KSPCB",16-12-2025 08:00:00,12.9756843,77.5660749,NO2,31,32,31
India,Karnataka,Bengaluru,"Hebbal, Bengaluru - KSPCB",16-12-2025 08:00:00,13.029152,77.585901,NH3,NA,NA,NA
India,Karnataka,Bengaluru,"Hebbal, Bengaluru - KSPCB",16-12-2025 08:00:00,13.029152,77.585901,SO2,4,9,6
India,Karnataka,Chikkamagaluru,"Kalyana Nagara, Chikkamagaluru - KSPCB",16-12-2025 08:00:00,13.328028,75.797056,NH3,2,3,2
India,Karnataka,Dharwad,"Kalabhavan, Dharwad - KSPCB",16-12-2025 08:00:00,15.459706,75.008381,PM10,76,89,84
India,Karnataka,Hubballi,"Lingaraj Nagar, Hubballi - KSPCB",16-12-2025 08:00:00,15.3714823,75.1160168,NO2,9,13,10
India,Karnataka,Hubballi,"Lingaraj Nagar, Hubballi - KSPCB",16-12-2025 08:00:00,15.3714823,75.1160168,NH3,2,3,2
India,Karnataka,Kalaburagi,"Mahatma Basaveswar Colony, Kalaburgi - KSPCB",16-12-2025 08:00:00,17.336318,76.847397,PM2.5,23,64,40
India,Karnataka,Kalaburagi,"Mahatma Basaveswar Colony, Kalaburgi - KSPCB",16-12-2025 08:00:00,17.336318,76.847397,PM10,30,82,52
India,Haryana,Kaithal,"Rishi Nagar, Kaithal - HSPCB",16-12-2025 08:00:00,29.8006,76.4155,OZONE,4,20,7
India,Haryana,Karnal,"Sector-12, Karnal - HSPCB",16-12-2025 08:00:00,29.695300,77.002700,PM10,77,182,137
India,Haryana,Karnal,"Sector-12, Karnal - HSPCB",16-12-2025 08:00:00,29.695300,77.002700,NO2,6,7,6
India,Haryana,Kurukshetra,"Sector-7, Kurukshetra - HSPCB",16-12-2025 08:00:00,29.966942,76.875879,PM10,123,180,150
India,Haryana,Kurukshetra,"Sector-7, Kurukshetra - HSPCB",16-12-2025 08:00:00,29.966942,76.875879,SO2,3,23,9
India,Himachal Pradesh,Baddi,"HIMUDA Complex Phase-1, Baddi - HPPCB",16-12-2025 08:00:00,30.943887,76.801991,PM2.5,67,443,230
India,Himachal Pradesh,Baddi,"HIMUDA Complex Phase-1, Baddi - HPPCB",16-12-2025 08:00:00,30.943887,76.801991,OZONE,7,120,14
India,Jharkhand,Dhanbad,"Sardar Patel Nagar, Dhanbad - JSPCB",16-12-2025 08:00:00,23.80569,86.44268,OZONE,NA,NA,NA
India,Haryana,Narnaul,"Shastri Nagar, Narnaul - HSPCB",16-12-2025 08:00:00,28.060249,76.113115,NH3,28,58,43
India,Haryana,Narnaul,"Shastri Nagar, Narnaul - HSPCB",16-12-2025 08:00:00,28.060249,76.113115,CO,14,82,36
India,Kerala,Kollam,"Polayathode, Kollam - Kerala PCB",16-12-2025 08:00:00,8.8787,76.6073,SO2,2,3,2
India,Kerala,Kollam,"Polayathode, Kollam - Kerala PCB",16-12-2025 08:00:00,8.8787,76.6073,OZONE,26,34,28
India,Kerala,Thiruvananthapuram,"Kariavattom, Thiruvananthapuram - Kerala PCB",16-12-2025 08:00:00,8.563700,76.886500,OZONE,36,36,36
India,Kerala,Thrissur,"Corporation Ground, Thrissur - Kerala PCB",16-12-2025 08:00:00,10.532400,76.215900,OZONE,28,29,28
India,Madhya Pradesh,Bhopal,"Idgah Hills, Bhopal - MPPCB",16-12-2025 08:00:00,23.264759,77.381568,CO,24,56,30
India,Madhya Pradesh,Bhopal,"Idgah Hills, Bhopal - MPPCB",16-12-2025 08:00:00,23.264759,77.381568,OZONE,28,79,46
India,Madhya Pradesh,Bhopal,"T T Nagar, Bhopal - MPPCB",16-12-2025 08:00:00,23.233584,77.400574,CO,36,110,54
India,Madhya Pradesh,Damoh,"Shrivastav Colony, Damoh - MPPCB",16-12-2025 08:00:00,23.81748678,79.446246,SO2,4,17,9
India,Madhya Pradesh,Dewas,"Bhopal Chauraha, Dewas - MPPCB",16-12-2025 08:00:00,22.9682591,76.064118,PM10,87,314,145
India,Madhya Pradesh,Dewas,"Bhopal Chauraha, Dewas - MPPCB",16-12-2025 08:00:00,22.9682591,76.064118,OZONE,23,27,24
India,Madhya Pradesh,Gwalior,"City Center, Gwalior - MPPCB",16-12-2025 08:00:00,26.203442,78.193251,PM2.5,70,364,205
India,Madhya Pradesh,Gwalior,"City Center, Gwalior - MPPCB",16-12-2025 08:00:00,26.203442,78.193251,PM10,82,253,138
India,Madhya Pradesh,Gwalior,"Maharaj Bada, Gwalior - MPPCB",16-12-2025 08:00:00,26.200388,78.147714,NH3,6,6,6
India,Madhya Pradesh,Gwalior,"Maharaj Bada, Gwalior - MPPCB",16-12-2025 08:00:00,26.200388,78.147714,SO2,6,11,9
India,Madhya Pradesh,Indore,"Airport Area, Indore - IMC",16-12-2025 08:00:00,22.7289,75.8076,CO,7,12,10
India,Madhya Pradesh,Indore,"Chhoti Gwaltoli, Indore - MPPCB",16-12-2025 08:00:00,22.4310,75.5213,PM10,63,240,132
India,Madhya Pradesh,Indore,"Chhoti Gwaltoli, Indore - MPPCB",16-12-2025 08:00:00,22.4310,75.5213,NO2,67,158,114
India,Madhya Pradesh,Indore,"Chhoti Gwaltoli, Indore - MPPCB",16-12-2025 08:00:00,22.4310,75.5213,SO2,3,9,5
India,Karnataka,Yadgir,"Collector Office, Yadgir - KSPCB",16-12-2025 08:00:00,16.7602,77.1428,SO2,6,15,12
India,Karnataka,Yadgir,"Collector Office, Yadgir - KSPCB",16-12-2025 08:00:00,16.7602,77.1428,OZONE,18,21,19
India,Kerala,Kannur,"Thavakkara, Kannur - Kerala PCB",16-12-2025 08:00:00,11.875000,75.373200,NO2,15,18,17
India,Kerala,Kannur,"Thavakkara, Kannur - Kerala PCB",16-12-2025 08:00:00,11.875000,75.373200,SO2,8,11,10
India,Madhya Pradesh,Katni,"Gole Bazar, Katni - MPPCB",16-12-2025 08:00:00,23.50016,80.23284,CO,48,127,85
India,Madhya Pradesh,Mandideep,"Sector-D Industrial Area, Mandideep - MPPCB",16-12-2025 08:00:00,23.108440,77.511428,PM2.5,104,374,224
India,Madhya Pradesh,Mandideep,"Sector-D Industrial Area, Mandideep - MPPCB",16-12-2025 08:00:00,23.108440,77.511428,PM10,142,451,238
India,Madhya Pradesh,Jabalpur,"Govindh Bhavan Colony, Jabalpur - JMC",16-12-2025 08:00:00,23.163174,79.973061,PM10,76,153,110
India,Madhya Pradesh,Jabalpur,"Govindh Bhavan Colony, Jabalpur - JMC",16-12-2025 08:00:00,23.163174,79.973061,NH3,1,1,1
India,Madhya Pradesh,Jabalpur,"Govindh Bhavan Colony, Jabalpur - JMC",16-12-2025 08:00:00,23.163174,79.973061,SO2,11,15,14
India,Madhya Pradesh,Jabalpur,"Suhagi, Jabalpur - JMC",16-12-2025 08:00:00,23.218135,79.957770,NH3,3,9,6
India,Madhya Pradesh,Gwalior,"Deen Dayal Nagar, Gwalior - MPPCB",16-12-2025 08:00:00,26.259242,78.216432,NO2,10,149,59
India,Madhya Pradesh,Gwalior,"Deen Dayal Nagar, Gwalior - MPPCB",16-12-2025 08:00:00,26.259242,78.216432,OZONE,3,188,12
India,Madhya Pradesh,Bhopal,"Paryavaran Parisar, Bhopal - MPPCB",16-12-2025 08:00:00,23.210494,77.425409,OZONE,11,65,30
India,Madhya Pradesh,Katni,"Gole Bazar, Katni - MPPCB",16-12-2025 08:00:00,23.50016,80.23284,PM10,115,350,197
India,Madhya Pradesh,Singrauli,"Suryakiran Bhawan NCL, Singrauli - MPPCB",16-12-2025 08:00:00,24.108970,82.645580,PM2.5,198,424,268
India,Madhya Pradesh,Singrauli,"Suryakiran Bhawan NCL, Singrauli - MPPCB",16-12-2025 08:00:00,24.108970,82.645580,PM10,156,469,225
India,Madhya Pradesh,Singrauli,"Suryakiran Bhawan NCL, Singrauli - MPPCB",16-12-2025 08:00:00,24.108970,82.645580,NO2,82,133,109
India,Maharashtra,Ahmednagar,"Tarakpur, Ahmednagar - MPCB",16-12-2025 08:00:00,19.10122,74.73339,PM10,66,106,85
India,Maharashtra,Ahmednagar,"Tarakpur, Ahmednagar - MPCB",16-12-2025 08:00:00,19.10122,74.73339,NH3,2,27,12
India,Maharashtra,Ahmednagar,"Tarakpur, Ahmednagar - MPCB",16-12-2025 08:00:00,19.10122,74.73339,OZONE,11,86,19
India,Maharashtra,Akola,"Ramdaspeth, Akola - MPCB",16-12-2025 08:00:00,20.719516,77.000253,PM10,58,221,107
India,Maharashtra,Akola,"Ramdaspeth, Akola - MPCB",16-12-2025 08:00:00,20.719516,77.000253,CO,12,80,28
India,Maharashtra,Amravati,"Shivneri Colony, Amravati - MPCB",16-12-2025 08:00:00,20.9402359,77.7895248,NH3,3,5,4
India,Maharashtra,Mahad,"Kamble Tarf Birwadi, Mahad - MPCB",16-12-2025 08:00:00,18.1023399,73.4783687,OZONE,21,62,26
India,Maharashtra,Malegaon,"Mahesh Nagar, Malegaon - MPCB",16-12-2025 08:00:00,20.555712,74.529236,PM2.5,66,138,91
India,Maharashtra,Malegaon,"Mahesh Nagar, Malegaon - MPCB",16-12-2025 08:00:00,20.555712,74.529236,PM10,62,228,113
India,Maharashtra,Malegaon,"Mahesh Nagar, Malegaon - MPCB",16-12-2025 08:00:00,20.555712,74.529236,CO,9,107,45
India,Maharashtra,Mira-Bhayandar,"Bhayandar West, Mira-Bhayandar - MPCB",16-12-2025 08:00:00,19.296481,72.840923,NO2,20,103,54
India,Maharashtra,Mumbai,"Bandra Kurla Complex, Mumbai - MPCB",16-12-2025 08:00:00,19.065931,72.862131,NO2,33,98,69
India,Maharashtra,Jalgaon,"Prabhat Colony, Jalgaon - MPCB",16-12-2025 08:00:00,21.001264,75.565602,CO,20,60,23
India,Maharashtra,Kalyan,"Khadakpada, Kalyan - MPCB",16-12-2025 08:00:00,19.25292,73.142019,NO2,36,36,36
India,Maharashtra,Kalyan,"Khadakpada, Kalyan - MPCB",16-12-2025 08:00:00,19.25292,73.142019,NH3,1,1,1
India,Maharashtra,Kalyan,"Pimpleshwar Mandir, Kalyan - MPCB",16-12-2025 08:00:00,19.192056,72.9585188,PM2.5,NA,NA,NA
India,Maharashtra,Kolhapur,"Shivaji University, Kolhapur - MPCB",16-12-2025 08:00:00,16.6870449,74.2505872,PM10,45,145,83
India,Maharashtra,Boisar,"Khaira, Boisar - MPCB",16-12-2025 08:00:00,19.786089,72.757971,PM2.5,46,104,79
India,Maharashtra,Boisar,"Khaira, Boisar - MPCB",16-12-2025 08:00:00,19.786089,72.757971,NH3,3,10,5
India,Maharashtra,Chandrapur,"MIDC Khutala, Chandrapur - MPCB",16-12-2025 08:00:00,19.9775302,79.2337086,NH3,3,19,10
India,Maharashtra,Chandrapur,"MIDC Khutala, Chandrapur - MPCB",16-12-2025 08:00:00,19.9775302,79.2337086,OZONE,17,19,18
India,Maharashtra,Dhule,"Deopur, Dhule - MPCB",16-12-2025 08:00:00,20.918946,74.776388,PM10,51,99,73
India,Maharashtra,Kolhapur,"Sinchan Bhavan, Kolhapur - MPCB",16-12-2025 08:00:00,16.7143745,74.2426398,PM2.5,52,156,85
India,Maharashtra,Kolhapur,"Sinchan Bhavan, Kolhapur - MPCB",16-12-2025 08:00:00,16.7143745,74.2426398,OZONE,2,44,15
India,Maharashtra,Latur,"Sawe Wadi, Latur - MPCB",16-12-2025 08:00:00,18.39963,76.57452,CO,12,68,28
India,Maharashtra,Mahad,"Kamble Tarf Birwadi, Mahad - MPCB",16-12-2025 08:00:00,18.1023399,73.4783687,NH3,4,8,6
India,Maharashtra,Mumbai,"Bandra Kurla Complex, Mumbai - MPCB",16-12-2025 08:00:00,19.065931,72.862131,SO2,7,20,12
India,Maharashtra,Mumbai,"Borivali East, Mumbai - IITM",16-12-2025 08:00:00,19.23241,72.86895,NH3,2,5,3
India,Maharashtra,Mumbai,"Borivali East, Mumbai - MPCB",16-12-2025 08:00:00,19.2243333,72.8658113,PM10,NA,NA,NA
India,Maharashtra,Mumbai,"Byculla, Mumbai - BMC",16-12-2025 08:00:00,18.9767,72.8380,OZONE,1,54,3
India,Maharashtra,Aurangabad,"Rachnakar Colony, Aurangabad - MPCB",16-12-2025 08:00:00,19.863756,75.321188,PM10,67,230,123
India,Maharashtra,Badlapur,"Katrap, Badlapur - MPCB",16-12-2025 08:00:00,19.16485,73.23409,PM10,79,171,120
India,Maharashtra,Badlapur,"Katrap, Badlapur - MPCB",16-12-2025 08:00:00,19.16485,73.23409,NO2,17,33,24
India,Maharashtra,Belapur,"CBD Belapur, Belapur - MPCB",16-12-2025 08:00:00,19.0243902,73.0406721,SO2,10,33,19
India,Madhya Pradesh,Pithampur,"Sector-2 Industrial Area, Pithampur - MPPCB",16-12-2025 08:00:00,22.624758,75.675238,OZONE,22,76,28
India,Madhya Pradesh,Sagar,"Civil Lines, Sagar - MPPCB",16-12-2025 08:00:00,23.838586,78.759431,NO2,10,75,22
India,Maharashtra,Jalgaon,"Prabhat Colony, Jalgaon - MPCB",16-12-2025 08:00:00,21.001264,75.565602,NO2,5,35,11
India,Maharashtra,Mumbai,"Kurla, Mumbai - MPCB",16-12-2025 08:00:00,19.0863,72.8888,CO,10,24,15
India,Maharashtra,Mumbai,"Malad West, Mumbai - IITM",16-12-2025 08:00:00,19.19709,72.82204,NH3,6,36,13
India,Maharashtra,Mumbai,"Malad West, Mumbai - IITM",16-12-2025 08:00:00,19.19709,72.82204,OZONE,4,86,49
India,Maharashtra,Mumbai,"Mazgaon, Mumbai - IITM",16-12-2025 08:00:00,18.96702,72.84214,PM10,37,108,84
India,Maharashtra,Mumbai,"Mazgaon, Mumbai - IITM",16-12-2025 08:00:00,18.96702,72.84214,SO2,13,24,18
India,Maharashtra,Mumbai,"Siddharth Nagar-Worli, Mumbai - IITM",16-12-2025 08:00:00,19.000083,72.813993,NH3,4,10,6
India,Maharashtra,Mumbai,"Sion, Mumbai - MPCB",16-12-2025 08:00:00,19.047000,72.874600,PM2.5,15,135,49
India,Maharashtra,Mumbai,"Sion, Mumbai - MPCB",16-12-2025 08:00:00,19.047000,72.874600,NH3,NA,NA,NA
India,Maharashtra,Mumbai,"Vile Parle West, Mumbai - MPCB",16-12-2025 08:00:00,19.10861,72.83622,SO2,47,52,49
India,Maharashtra,Mumbai,"Kandivali West, Mumbai - BMC",16-12-2025 08:00:00,19.215859,72.831718,NH3,1,3,2
India,Maharashtra,Mumbai,"Kandivali West, Mumbai - BMC",16-12-2025 08:00:00,19.215859,72.831718,CO,10,112,31
India,Maharashtra,Mumbai,"Kherwadi_Bandra East, Mumbai - MPCB",16-12-2025 08:00:00,19.0632143,72.8456324,PM2.5,88,209,137
India,Maharashtra,Mumbai,"Kherwadi_Bandra East, Mumbai - MPCB",16-12-2025 08:00:00,19.0632143,72.8456324,NH3,15,21,18
India,Maharashtra,Mumbai,"Chembur, Mumbai - MPCB",16-12-2025 08:00:00,19.0364585,72.8954371,PM2.5,73,199,126
India,Maharashtra,Mumbai,"Chembur, Mumbai - MPCB",16-12-2025 08:00:00,19.0364585,72.8954371,PM10,78,128,112
India,Maharashtra,Mumbai,"Colaba, Mumbai - MPCB",16-12-2025 08:00:00,18.910000,72.820000,PM2.5,38,81,61
India,Maharashtra,Mumbai,"Colaba, Mumbai - MPCB",16-12-2025 08:00:00,18.910000,72.820000,PM10,90,134,112
India,Maharashtra,Mumbai,"Shivaji Nagar, Mumbai - BMC",16-12-2025 08:00:00,19.060498,72.923356,PM2.5,NA,NA,NA
India,Maharashtra,Mumbai,"Shivaji Nagar, Mumbai - BMC",16-12-2025 08:00:00,19.060498,72.923356,OZONE,NA,NA,NA
India,Maharashtra,Mumbai,"Khindipada-Bhandup West, Mumbai - IITM",16-12-2025 08:00:00,19.1653323,72.922099,NH3,1,3,2
India,Maharashtra,Mumbai,"Worli, Mumbai - MPCB",16-12-2025 08:00:00,18.9936162,72.8128113,SO2,18,26,21
India,Maharashtra,Nagpur,"Ambazari, Nagpur - MPCB",16-12-2025 08:00:00,21.121801,79.04952,NH3,2,33,8
India,Maharashtra,Mumbai,"Deonar, Mumbai - IITM",16-12-2025 08:00:00,19.04946,72.9230,OZONE,1,30,1
India,Maharashtra,Pimpri-Chinchwad,"Park Street Wakad, Pimpri Chinchwad - MPCB",16-12-2025 08:00:00,18.59051,73.77946,PM10,96,249,162
India,Maharashtra,Pimpri-Chinchwad,"Park Street Wakad, Pimpri Chinchwad - MPCB",16-12-2025 08:00:00,18.59051,73.77946,CO,22,118,79
India,Maharashtra,Pimpri-Chinchwad,"Savta Mali Nagar, Pimpri-Chinchwad - IITM",16-12-2025 08:00:00,18.614767,73.799516,PM2.5,34,312,145
India,Maharashtra,Pimpri-Chinchwad,"Thergaon, Pimpri Chinchwad - MPCB",16-12-2025 08:00:00,18.616318,73.765797,NO2,43,141,74
India,Maharashtra,Pimpri-Chinchwad,"Thergaon, Pimpri Chinchwad - MPCB",16-12-2025 08:00:00,18.616318,73.765797,SO2,2,8,4
India,Maharashtra,Pune,"Bhumkar Nagar, Pune - IITM",16-12-2025 08:00:00,18.605770,73.749976,PM10,152,347,231
India,Maharashtra,Pune,"Dhankawadi, Pune - IITM",16-12-2025 08:00:00,18.459883,73.852193,PM2.5,68,282,142
India,Maharashtra,Solapur,"Ratandeep Housing Society, Solapur - MPCB",16-12-2025 08:00:00,17.65439,75.90649,PM10,NA,NA,NA
India,Maharashtra,Solapur,"Ratandeep Housing Society, Solapur - MPCB",16-12-2025 08:00:00,17.65439,75.90649,NH3,NA,NA,NA
India,Maharashtra,Solapur,"Ratandeep Housing Society, Solapur - MPCB",16-12-2025 08:00:00,17.65439,75.90649,SO2,NA,NA,NA
India,Maharashtra,Thane,"Kasarvadavali, Thane - MPCB",16-12-2025 08:00:00,19.26777,72.97182,PM2.5,41,82,59
India,Maharashtra,Thane,"Kasarvadavali, Thane - MPCB",16-12-2025 08:00:00,19.26777,72.97182,NO2,16,81,44
India,Maharashtra,Thane,"Upvan Fort, Thane - MPCB",16-12-2025 08:00:00,19.222279,72.957979,PM10,61,128,87
India,Maharashtra,Ulhasnagar,"Sidhi Vinayak Nagar, Ulhasnagar - MPCB",16-12-2025 08:00:00,19.235581,73.159121,NO2,15,32,22
India,Maharashtra,Navi Mumbai,"Sanpada, Navi Mumbai - MPCB",16-12-2025 08:00:00,19.0575752,73.0151367,CO,20,146,95
India,Maharashtra,Navi Mumbai,"Sector-2E Kalamboli, Navi Mumbai - MPCB",16-12-2025 08:00:00,19.02579,73.10297,SO2,1,9,4
India,Maharashtra,Navi Mumbai,"Tondare-Taloja, Navi Mumbai - MPCB",16-12-2025 08:00:00,19.0630,73.1209,NH3,7,11,9
India,Maharashtra,Navi Mumbai,"Tondare-Taloja, Navi Mumbai - MPCB",16-12-2025 08:00:00,19.0630,73.1209,SO2,4,4,4
India,Maharashtra,Parbhani,"Masoom Colony, Parbhani - MPCB",16-12-2025 08:00:00,19.265594,76.761463,SO2,3,11,6
India,Maharashtra,Navi Mumbai,"Kopripada-Vashi, Navi Mumbai - MPCB",16-12-2025 08:00:00,19.090337,73.014232,SO2,23,42,32
India,Maharashtra,Navi Mumbai,"Mahape, Navi Mumbai - MPCB",16-12-2025 08:00:00,19.1135051,73.008978,PM2.5,13,36,19
India,Maharashtra,Navi Mumbai,"Mahape, Navi Mumbai - MPCB",16-12-2025 08:00:00,19.1135051,73.008978,NO2,34,36,35
India,Maharashtra,Navi Mumbai,"Mahape, Navi Mumbai - MPCB",16-12-2025 08:00:00,19.1135051,73.008978,NH3,3,3,3
India,Maharashtra,Navi Mumbai,"Mahape, Navi Mumbai - MPCB",16-12-2025 08:00:00,19.1135051,73.008978,SO2,21,24,23
India,Maharashtra,Navi Mumbai,"Mahape, Navi Mumbai - MPCB",16-12-2025 08:00:00,19.1135051,73.008978,CO,22,25,24
India,Maharashtra,Pune,"Revenue Colony-Shivajinagar, Pune - IITM",16-12-2025 08:00:00,18.530085,73.849598,CO,53,163,110
India,Maharashtra,Sangli,"Vijay Nagar, Sangli - MPCB",16-12-2025 08:00:00, 16.5038,74.3623,NO2,16,68,37
India,Maharashtra,Sangli,"Vijay Nagar, Sangli - MPCB",16-12-2025 08:00:00, 16.5038,74.3623,OZONE,17,58,31
India,Maharashtra,Solapur,"Dnyaneshwar Nagar, Solapur - MPCB",16-12-2025 08:00:00,17.6336264,75.9132495,PM2.5,60,97,77
India,Maharashtra,Pune,"Katraj Dairy, Pune - MPCB",16-12-2025 08:00:00,18.454450,73.854155,NH3,NA,NA,NA
India,Maharashtra,Pune,"Mhada Colony, Pune - IITM",16-12-2025 08:00:00,18.573040,73.927715,OZONE,14,108,20
India,Maharashtra,Pune,"Panchawati_Pashan, Pune - IITM",16-12-2025 08:00:00,18.536457,73.805454,PM2.5,38,293,142
India,Maharashtra,Pune,"Panchawati_Pashan, Pune - IITM",16-12-2025 08:00:00,18.536457,73.805454,PM10,78,150,115
India,Maharashtra,Pune,"Panchawati_Pashan, Pune - IITM",16-12-2025 08:00:00,18.536457,73.805454,NO2,15,67,25
India,Maharashtra,Nashik,"Gangapur Road, Nashik - MPCB",16-12-2025 08:00:00,20.0073285,73.7762427,PM10,40,154,75
India,Maharashtra,Nashik,"MIDC Ambad, Nashik - MPCB",16-12-2025 08:00:00,19.950220,73.731480,NH3,2,3,3
India,Maharashtra,Nashik,"MIDC Ambad, Nashik - MPCB",16-12-2025 08:00:00,19.950220,73.731480,CO,25,28,26
India,Maharashtra,Nashik,"MIDC Ambad, Nashik - MPCB",16-12-2025 08:00:00,19.950220,73.731480,OZONE,16,69,52
India,Maharashtra,Nagpur,"Ram Nagar, Nagpur - MPCB",16-12-2025 08:00:00,21.143383,79.048912,NH3,5,12,7
India,Maharashtra,Nanded,"Sneh Nagar, Nanded - MPCB",16-12-2025 08:00:00,19.173852,77.296291,PM2.5,2,215,50
India,Maharashtra,Pune,"Hadapsar, Pune - IITM",16-12-2025 08:00:00,18.501793,73.927532,CO,22,64,61
India,Nagaland,Kohima,"PWD Junction, Kohima - NPCB",16-12-2025 08:00:00,25.6635413,94.0989878,PM10,7,79,26
India,Nagaland,Kohima,"PWD Junction, Kohima - NPCB",16-12-2025 08:00:00,25.6635413,94.0989878,CO,4,22,6
India,Odisha,Angul,"Hakimapada, Angul - OSPCB",16-12-2025 08:00:00,20.832874,85.104082,NO2,23,97,49
India,Odisha,Angul,"Hakimapada, Angul - OSPCB",16-12-2025 08:00:00,20.832874,85.104082,CO,28,86,49
India,Odisha,Balasore,"Kalidaspur, Balasore - OSPCB",16-12-2025 08:00:00,21.51161,86.89088,PM2.5,103,332,202
India,Odisha,Balasore,"Kalidaspur, Balasore - OSPCB",16-12-2025 08:00:00,21.51161,86.89088,PM10,107,240,141
India,Odisha,Balasore,"Kalidaspur, Balasore - OSPCB",16-12-2025 08:00:00,21.51161,86.89088,CO,26,101,43
India,Odisha,Barbil,"Forest Office, Barbil - OSPCB",16-12-2025 08:00:00,22.1166054,85.3945546,OZONE,2,66,3
India,Odisha,Baripada,"Meher Colony, Baripada - OSPCB",16-12-2025 08:00:00,21.941841,86.728318,PM2.5,92,137,108
India,Odisha,Baripada,"Meher Colony, Baripada - OSPCB",16-12-2025 08:00:00,21.941841,86.728318,NO2,10,78,38
India,Odisha,Bhubaneswar,"Lingraj Mandir, Bhubaneswar - OSPCB",16-12-2025 08:00:00,20.240790,85.836784,CO,2,113,46
India,Odisha,Bhubaneswar,"Patia, Bhubaneswar - OSPCB",16-12-2025 08:00:00,20.34652,85.81630,PM10,103,315,165
India,Odisha,Bhubaneswar,"Patia, Bhubaneswar - OSPCB",16-12-2025 08:00:00,20.34652,85.81630,NO2,22,115,51
India,Odisha,Bileipada,"Tata Township, Bileipada - OSPCB",16-12-2025 08:00:00,22.06156703,85.47409613,PM2.5,NA,NA,NA
India,Odisha,Brajrajnagar,"GM Office, Brajrajnagar - OSPCB",16-12-2025 08:00:00,21.8004996,83.8396977,PM10,38,224,123
India,Odisha,Brajrajnagar,"GM Office, Brajrajnagar - OSPCB",16-12-2025 08:00:00,21.8004996,83.8396977,NH3,NA,NA,NA
India,Odisha,Byasanagar,"Ferro Chrome Colony, Byasanagar - OSPCB",16-12-2025 08:00:00,20.94185,86.11510,PM2.5,95,337,188
India,Odisha,Cuttack,"CDA Area, Cuttack - OSPCB",16-12-2025 08:00:00,20.48891     ,85.84768     ,PM10,NA,NA,NA
India,Odisha,Cuttack,"CDA Area, Cuttack - OSPCB",16-12-2025 08:00:00,20.48891     ,85.84768     ,SO2,4,54,17
India,Odisha,Keonjhar,"Jagamohanpur, Keonjhar - OSPCB",16-12-2025 08:00:00,21.643900,85.599355,PM2.5,55,84,69
India,Odisha,Keonjhar,"Jagamohanpur, Keonjhar - OSPCB",16-12-2025 08:00:00,21.643900,85.599355,NO2,28,67,44
India,Odisha,Keonjhar,"Jagamohanpur, Keonjhar - OSPCB",16-12-2025 08:00:00,21.643900,85.599355,OZONE,16,20,18
India,Odisha,Rourkela,"Fertilizer Township, Rourkela - OSPCB",16-12-2025 08:00:00,22.18972222,84.86277778,PM10,101,112,104
India,Odisha,Rourkela,"Fertilizer Township, Rourkela - OSPCB",16-12-2025 08:00:00,22.18972222,84.86277778,NO2,11,11,11
India,Odisha,Rourkela,"Fertilizer Township, Rourkela - OSPCB",16-12-2025 08:00:00,22.18972222,84.86277778,CO,8,103,38
India,Odisha,Rourkela,"Sector-2, Rourkela - OSPCB",16-12-2025 08:00:00,22.24500000,84.88111111,CO,NA,NA,NA
India,Odisha,Suakati,"OMC Colony, Suakati - OSPCB",16-12-2025 08:00:00,21.606865,85.510538,OZONE,18,20,19
India,Odisha,Talcher,"Talcher Coalfields,Talcher - OSPCB",16-12-2025 08:00:00,20.9360711,85.1707021,NH3,NA,NA,NA
India,Odisha,Talcher,"Talcher Coalfields,Talcher - OSPCB",16-12-2025 08:00:00,20.9360711,85.1707021,CO,NA,NA,NA
India,Maharashtra,Virar,"Bolinj, Virar - MPCB",16-12-2025 08:00:00,19.4458210,72.7988231,SO2,8,21,14
India,Maharashtra,Virar,"Bolinj, Virar - MPCB",16-12-2025 08:00:00,19.4458210,72.7988231,CO,12,144,50
India,Maharashtra,Virar,"Bolinj, Virar - MPCB",16-12-2025 08:00:00,19.4458210,72.7988231,OZONE,2,81,30
India,Meghalaya,Shillong,"JN Stadium, Shillong - Meghalaya PCB",16-12-2025 08:00:00,25.5803419,91.8942571,OZONE,1,1,1
India,Meghalaya,Shillong,"Lumpyngngad, Shillong - Meghalaya PCB",16-12-2025 08:00:00,25.5586,91.8985,PM2.5,NA,NA,NA
India,Punjab,Bathinda,"Hardev Nagar, Bathinda - PPCB",16-12-2025 08:00:00,30.233011,74.907758,SO2,12,17,16
India,Punjab,Jalandhar,"Civil Line, Jalandhar - PPCB",16-12-2025 08:00:00,31.321907,75.578914,PM2.5,50,140,86
India,Punjab,Amritsar,"Golden Temple, Amritsar - PPCB",16-12-2025 08:00:00,31.620000,74.876512,PM2.5,19,115,65
India,Punjab,Amritsar,"Golden Temple, Amritsar - PPCB",16-12-2025 08:00:00,31.620000,74.876512,PM10,27,108,71
India,Odisha,Tensa,"Barsua Iron Ore Mines, Tensa - OSPCB",16-12-2025 08:00:00,21.869985,85.167016,PM10,34,105,87
India,Punjab,Patiala,"Model Town, Patiala - PPCB",16-12-2025 08:00:00,30.349388,76.366642,NO2,16,19,17
India,Rajasthan,Bhiwadi,"RIICO Ind. Area III, Bhiwadi - RSPCB",16-12-2025 08:00:00,28.194909,76.862296,NO2,14,127,65
India,Rajasthan,Bhiwadi,"RIICO Ind. Area III, Bhiwadi - RSPCB",16-12-2025 08:00:00,28.194909,76.862296,SO2,18,35,22
India,Rajasthan,Bhiwadi,"RIICO Ind. Area III, Bhiwadi - RSPCB",16-12-2025 08:00:00,28.194909,76.862296,OZONE,3,39,5
India,Rajasthan,Bhiwadi,"Vasundhara Nagar_UIT, Bhiwadi - RSPCB",16-12-2025 08:00:00,28.207266,76.829265,PM2.5,96,436,243
India,Rajasthan,Bhiwadi,"Vasundhara Nagar_UIT, Bhiwadi - RSPCB",16-12-2025 08:00:00,28.207266,76.829265,NH3,1,7,5
India,Rajasthan,Bhiwadi,"Vasundhara Nagar_UIT, Bhiwadi - RSPCB",16-12-2025 08:00:00,28.207266,76.829265,SO2,3,28,9
India,Rajasthan,Bikaner,"MM Ground, Bikaner - RSPCB",16-12-2025 08:00:00,28.018792,73.292658,PM2.5,44,279,166
India,Rajasthan,Bikaner,"MM Ground, Bikaner - RSPCB",16-12-2025 08:00:00,28.018792,73.292658,PM10,76,191,137
India,Rajasthan,Bikaner,"MM Ground, Bikaner - RSPCB",16-12-2025 08:00:00,28.018792,73.292658,CO,13,84,68
India,Rajasthan,Dholpur,"Raja Ganj, Dholpur - RSPCB",16-12-2025 08:00:00,26.699557,77.898881,NH3,1,5,3
India,Rajasthan,Dholpur,"Raja Ganj, Dholpur - RSPCB",16-12-2025 08:00:00,26.699557,77.898881,SO2,1,9,4
India,Rajasthan,Dholpur,"Raja Ganj, Dholpur - RSPCB",16-12-2025 08:00:00,26.699557,77.898881,CO,29,103,42
India,Rajasthan,Dungarpur,"Bhoiwada, Dungarpur - RSPCB",16-12-2025 08:00:00,23.837789,73.714926,OZONE,2,143,8
India,Rajasthan,Jaipur,"Adarsh Nagar, Jaipur - RSPCB",16-12-2025 08:00:00,26.902909,75.836858,PM2.5,102,288,184
India,Rajasthan,Jaipur,"Adarsh Nagar, Jaipur - RSPCB",16-12-2025 08:00:00,26.902909,75.836858,NH3,15,43,25
India,Rajasthan,Jaipur,"Adarsh Nagar, Jaipur - RSPCB",16-12-2025 08:00:00,26.902909,75.836858,CO,39,103,61
India,Rajasthan,Bundi,"New Colony, Bundi - RSPCB",16-12-2025 08:00:00,25.435774,75.644272,NO2,14,103,31
India,Rajasthan,Chittorgarh,"Shastri Nagar, Chittorgarh - RSPCB",16-12-2025 08:00:00,24.892047,74.623527,PM2.5,83,290,165
India,Rajasthan,Churu,"Subash Chowk, Churu - RSPCB",16-12-2025 08:00:00,28.296139,74.961696,OZONE,5,127,18
India,Rajasthan,Dausa,"Khatikan Mohalla, Dausa - RSPCB",16-12-2025 08:00:00,26.895552,76.334753,PM10,56,199,124
India,Rajasthan,Dausa,"Khatikan Mohalla, Dausa - RSPCB",16-12-2025 08:00:00,26.895552,76.334753,NO2,26,141,62
India,Rajasthan,Banswara,"Rati Talai, Banswara - RSPCB",16-12-2025 08:00:00,23.555190,74.440010,OZONE,12,159,44
India,Rajasthan,Baran,"Bamboliya, Baran - RSPCB",16-12-2025 08:00:00,25.106006,76.469948,NO2,20,79,44
India,Rajasthan,Baran,"Bamboliya, Baran - RSPCB",16-12-2025 08:00:00,25.106006,76.469948,SO2,6,13,9
India,Rajasthan,Bharatpur,"Krishna Nagar, Bharatpur - RSPCB",16-12-2025 08:00:00,27.215415,77.50873,PM10,72,285,138
India,Rajasthan,Bhilwara,"Pratap Nagar, Bhilwara - RSPCB",16-12-2025 08:00:00,25.339605,74.618883,NO2,19,108,47
India,Rajasthan,Jaisalmer,"Sadar Bazar, Jaisalmer - RSPCB",16-12-2025 08:00:00,26.912329,70.909168,NO2,13,67,33
India,Rajasthan,Jalore,"Mudtra Sili, Jalore - RSPCB",16-12-2025 08:00:00,25.344694,72.626208,OZONE,5,116,38
India,Rajasthan,Jhalawar,"Rajlaxmi Nagar, Jhalawar - RSPCB",16-12-2025 08:00:00,24.588397,76.172782,OZONE,4,151,7
India,Rajasthan,Jhunjhunu,"Indra Nagar, Jhunjhunu - RSPCB",16-12-2025 08:00:00,28.108988,75.386577,PM10,88,411,189
India,Rajasthan,Jaipur,"Mansarovar Sector-12, Jaipur - RSPCB",16-12-2025 08:00:00,26.843698,75.766894,NO2,26,147,59
India,Rajasthan,Jaipur,"Mansarovar Sector-12, Jaipur - RSPCB",16-12-2025 08:00:00,26.843698,75.766894,OZONE,15,300,39
India,Rajasthan,Jaipur,"Police Commissionerate, Jaipur - RSPCB",16-12-2025 08:00:00,26.9164092,75.7994901,PM10,52,123,89
India,Rajasthan,Jaipur,"Sector-2 Murlipura, Jaipur - RSPCB",16-12-2025 08:00:00,26.960669,75.771817,SO2,3,4,4
India,Rajasthan,Jodhpur,"Collectorate, Jodhpur - RSPCB",16-12-2025 08:00:00,26.268249,73.0193853,OZONE,8,105,39
India,Rajasthan,Jodhpur,"Jhalamand, Jodhpur - RSPCB",16-12-2025 08:00:00,26.215415,73.070156,NO2,12,108,38
India,Rajasthan,Jodhpur,"Jhalamand, Jodhpur - RSPCB",16-12-2025 08:00:00,26.215415,73.070156,NH3,4,16,8
India,Rajasthan,Jodhpur,"Mandor, Jodhpur - RSPCB",16-12-2025 08:00:00,26.358805,73.047444,OZONE,30,137,68
India,Rajasthan,Ajmer,"Civil Lines,  Ajmer - RSPCB",16-12-2025 08:00:00,26.470859,74.646594,CO,5,12,5
India,Rajasthan,Alwar,"Moti Doongri, Alwar - RSPCB",16-12-2025 08:00:00,27.554793,76.611536,PM2.5,42,174,68
India,Rajasthan,Alwar,"Moti Doongri, Alwar - RSPCB",16-12-2025 08:00:00,27.554793,76.611536,NO2,46,84,68
India,Rajasthan,Jhunjhunu,"Indra Nagar, Jhunjhunu - RSPCB",16-12-2025 08:00:00,28.108988,75.386577,SO2,4,10,6
India,Rajasthan,Jodhpur,"Collectorate, Jodhpur - RSPCB",16-12-2025 08:00:00,26.268249,73.0193853,PM2.5,36,255,93
India,Rajasthan,Nagaur,"Karni Colony, Nagaur - RSPCB",16-12-2025 08:00:00,27.213494,73.734444,PM2.5,45,403,153
India,Rajasthan,Pali,"Indira Colony Vistar, Pali - RSPCB",16-12-2025 08:00:00,25.771061, 73.340227,PM2.5,113,303,185
India,Rajasthan,Pali,"Indira Colony Vistar, Pali - RSPCB",16-12-2025 08:00:00,25.771061, 73.340227,NH3,7,23,11
India,Rajasthan,Pali,"Indira Colony Vistar, Pali - RSPCB",16-12-2025 08:00:00,25.771061, 73.340227,SO2,7,13,9
India,Rajasthan,Pali,"Indira Colony Vistar, Pali - RSPCB",16-12-2025 08:00:00,25.771061, 73.340227,OZONE,7,94,10
India,Rajasthan,Pratapgarh,"Pragati Nagar, Pratapgarh - RSPCB",16-12-2025 08:00:00,24.041198,74.780702,NH3,2,6,4
India,Rajasthan,Rajsamand,"Dhoinda, Rajsamand - RSPCB",16-12-2025 08:00:00,25.036360,73.883502,NO2,14,77,30
India,Rajasthan,Jodhpur,"Samrat Ashok Udhyan, Jodhpur - RSPCB",16-12-2025 08:00:00,26.253384,72.976571,CO,20,59,33
India,Rajasthan,Karauli,"Satyawati Vihar, Karauli - RSPCB",16-12-2025 08:00:00,26.506177,77.025989,CO,48,118,66
India,Rajasthan,Kota,"Dhanmandi, Kota - RSPCB",16-12-2025 08:00:00,25.164090,75.858137,OZONE,4,174,7
India,Rajasthan,Kota,"Nayapura, Kota - RSPCB",16-12-2025 08:00:00,25.196024,75.855668,NH3,8,14,10
India,Rajasthan,Kota,"Nayapura, Kota - RSPCB",16-12-2025 08:00:00,25.196024,75.855668,CO,3,130,75
India,Rajasthan,Kota,"Nayapura, Kota - RSPCB",16-12-2025 08:00:00,25.196024,75.855668,OZONE,3,167,5
India,TamilNadu,Dindigul,"Mendonsa Colony, Dindigul - TNPCB",16-12-2025 08:00:00,10.358535,77.984321,NH3,NA,NA,NA
India,TamilNadu,Gummidipoondi,"Anthoni Pillai Nagar, Gummidipoondi - TNPCB",16-12-2025 08:00:00,13.4127,80.1081,NH3,3,3,3
India,TamilNadu,Karur,"Kamadenu Nagar, Karur - TNPCB",16-12-2025 08:00:00,10.967820,78.080882,OZONE,5,11,8
India,TamilNadu,Madurai,"Uchapatti, Madurai - TNPCB",16-12-2025 08:00:00,9.865935,78.022669,NO2,NA,NA,NA
India,TamilNadu,Madurai,"Uchapatti, Madurai - TNPCB",16-12-2025 08:00:00,9.865935,78.022669,OZONE,NA,NA,NA
India,Rajasthan,Tonk,"Shastri Nagar, Tonk - RSPCB",16-12-2025 08:00:00,26.159933,75.780517,OZONE,2,167,12
India,Rajasthan,Udaipur,"Ashok Nagar, Udaipur - RSPCB",16-12-2025 08:00:00,24.5886166,73.6321397,PM2.5,66,326,193
India,Rajasthan,Udaipur,"Ashok Nagar, Udaipur - RSPCB",16-12-2025 08:00:00,24.5886166,73.6321397,PM10,85,196,138
India,Sikkim,Gangtok,"Zero Point GICI, Gangtok - SSPCB",16-12-2025 08:00:00,27.338530,88.614099,PM10,13,31,20
India,Sikkim,Gangtok,"Zero Point GICI, Gangtok - SSPCB",16-12-2025 08:00:00,27.338530,88.614099,OZONE,8,12,12
India,TamilNadu,Ariyalur,"Keelapalur, Ariyalur - TNPCB",16-12-2025 08:00:00,11.06825,79.07033,NH3,NA,NA,NA
India,TamilNadu,Chennai,"Arumbakkam, Chennai - TNPCB",16-12-2025 08:00:00,13.0664,80.2112 ,NO2,14,25,19
India,TamilNadu,Chennai,"Kodungaiyur, Chennai - TNPCB",16-12-2025 08:00:00,13.1278,80.2642,PM2.5,151,308,205
India,TamilNadu,Chennai,"Kodungaiyur, Chennai - TNPCB",16-12-2025 08:00:00,13.1278,80.2642,NH3,1,3,2
India,TamilNadu,Chennai,"Manali Village, Chennai - TNPCB",16-12-2025 08:00:00,13.1662,80.2584,SO2,12,16,14
India,TamilNadu,Chennai,"Perungudi, Chennai - TNPCB",16-12-2025 08:00:00,12.9533,80.2357,SO2,1,9,4
India,TamilNadu,Coimbatore,"PSG College of Arts and Science, Coimbatore - TNPCB",16-12-2025 08:00:00,11.0328,77.0349,PM10,63,122,90
India,TamilNadu,Coimbatore,"PSG College of Arts and Science, Coimbatore - TNPCB",16-12-2025 08:00:00,11.0328,77.0349,NH3,1,1,1
India,TamilNadu,Coimbatore,"SIDCO Kurichi, Coimbatore - TNPCB",16-12-2025 08:00:00,10.942451,76.978996,OZONE,4,38,6
India,TamilNadu,Nagapattinam,"Velippalayam, Nagapattinam - TNPCB",16-12-2025 08:00:00,10.798548,79.838212,NH3,NA,NA,NA
India,TamilNadu,Nagapattinam,"Velippalayam, Nagapattinam - TNPCB",16-12-2025 08:00:00,10.798548,79.838212,SO2,NA,NA,NA
India,TamilNadu,Ooty,"Bombay Castel, Ooty - TNPCB",16-12-2025 08:00:00,11.4068288,76.7138973,PM10,NA,NA,NA
India,TamilNadu,Ooty,"Bombay Castel, Ooty - TNPCB",16-12-2025 08:00:00,11.4068288,76.7138973,NO2,2,5,3
India,TamilNadu,Ooty,"Bombay Castel, Ooty - TNPCB",16-12-2025 08:00:00,11.4068288,76.7138973,SO2,15,20,16
India,TamilNadu,Ramanathapuram,"Chalai Bazaar, Ramanathapuram - TNPCB",16-12-2025 08:00:00,9.36399,78.831977,PM10,56,89,70
India,TamilNadu,Thanjavur,"Parisutham Nagar, Thanjavur - TNPCB",16-12-2025 08:00:00,10.7654824,79.1389968,NO2,NA,NA,NA
India,TamilNadu,Thanjavur,"Parisutham Nagar, Thanjavur - TNPCB",16-12-2025 08:00:00,10.7654824,79.1389968,NH3,NA,NA,NA
India,TamilNadu,Thoothukudi,"Meelavittan, Thoothukudi - TNPCB",16-12-2025 08:00:00,8.816428 ,78.099039,OZONE,NA,NA,NA
India,Rajasthan,Sawai Madhopur,"Sahu Nagar, Sawai Madhopur - RSPCB",16-12-2025 08:00:00,26.031443,76.359327,NO2,13,56,26
India,Rajasthan,Sirohi,"Vedhaynath Colony, Sirohi - RSPCB",16-12-2025 08:00:00,24.885261,72.857549,SO2,2,14,6
India,Rajasthan,Sirohi,"Vedhaynath Colony, Sirohi - RSPCB",16-12-2025 08:00:00,24.885261,72.857549,CO,18,56,29
India,Uttar_Pradesh,Agra,"Shastripuram, Agra - UPPCB",16-12-2025 08:00:00,27.19862,77.92066,NH3,3,3,3
India,Uttar_Pradesh,Agra,"Shastripuram, Agra - UPPCB",16-12-2025 08:00:00,27.19862,77.92066,SO2,8,14,12
India,Uttar_Pradesh,Agra,"Shastripuram, Agra - UPPCB",16-12-2025 08:00:00,27.19862,77.92066,CO,26,79,36
India,Uttar_Pradesh,Bareilly,"Rajendra Nagar, Bareilly - UPPCB",16-12-2025 08:00:00,28.38910936,79.42963708,PM10,124,170,139
India,Uttar_Pradesh,Bulandshahr,"Yamunapuram, Bulandshahr - UPPCB",16-12-2025 08:00:00,28.406963,77.849831,PM2.5,292,360,326
India,Uttar_Pradesh,Bulandshahr,"Yamunapuram, Bulandshahr - UPPCB",16-12-2025 08:00:00,28.406963,77.849831,PM10,165,298,228
India,Uttar_Pradesh,Bulandshahr,"Yamunapuram, Bulandshahr - UPPCB",16-12-2025 08:00:00,28.406963,77.849831,NO2,41,118,85
India,Uttar_Pradesh,Bulandshahr,"Yamunapuram, Bulandshahr - UPPCB",16-12-2025 08:00:00,28.406963,77.849831,CO,24,101,85
India,Uttar_Pradesh,Bulandshahr,"Yamunapuram, Bulandshahr - UPPCB",16-12-2025 08:00:00,28.406963,77.849831,OZONE,2,93,3
India,Uttar_Pradesh,Firozabad,"Nagla Bhau, Firozabad - UPPCB",16-12-2025 08:00:00,27.168897,78.376960,PM10,47,118,90
India,Uttar_Pradesh,Agra,"Rohta, Agra - UPPCB",16-12-2025 08:00:00,27.106972,78.000111,NH3,6,7,6
India,Uttar_Pradesh,Agra,"Rohta, Agra - UPPCB",16-12-2025 08:00:00,27.106972,78.000111,CO,20,92,39
India,Uttar_Pradesh,Agra,"Sanjay Palace, Agra - UPPCB",16-12-2025 08:00:00,27.19865833,78.00598056,PM2.5,104,374,223
India,Uttar_Pradesh,Agra,"Sanjay Palace, Agra - UPPCB",16-12-2025 08:00:00,27.19865833,78.00598056,PM10,93,316,155
India,Uttar_Pradesh,Agra,"Sanjay Palace, Agra - UPPCB",16-12-2025 08:00:00,27.19865833,78.00598056,NO2,5,16,9
India,Uttar_Pradesh,Agra,"Sanjay Palace, Agra - UPPCB",16-12-2025 08:00:00,27.19865833,78.00598056,SO2,16,17,17
India,Uttar_Pradesh,Agra,"Sector-3B Avas Vikas Colony, Agra - UPPCB",16-12-2025 08:00:00,27.19412,77.96237,SO2,10,16,13
India,Uttar_Pradesh,Agra,"Sector-3B Avas Vikas Colony, Agra - UPPCB",16-12-2025 08:00:00,27.19412,77.96237,OZONE,6,55,14
India,Uttar_Pradesh,Agra,"Shahjahan Garden, Agra - UPPCB",16-12-2025 08:00:00,27.169338,78.03582,PM10,101,306,186
India,Uttar_Pradesh,Agra,"Shahjahan Garden, Agra - UPPCB",16-12-2025 08:00:00,27.169338,78.03582,OZONE,1,2,2
India,Telangana,Hyderabad,"ECIL Kapra, Hyderabad - TSPCB",16-12-2025 08:00:00,17.470431,78.566959,OZONE,9,57,12
India,Telangana,Hyderabad,"ICRISAT Patancheru, Hyderabad - TSPCB",16-12-2025 08:00:00,17.518400,78.278777,PM2.5,62,182,120
India,Telangana,Hyderabad,"ICRISAT Patancheru, Hyderabad - TSPCB",16-12-2025 08:00:00,17.518400,78.278777,CO,19,51,44
India,Telangana,Hyderabad,"IDA Pashamylaram, Hyderabad - TSPCB",16-12-2025 08:00:00,17.5316895,78.218939,SO2,1,14,8
India,Telangana,Hyderabad,"IITH Kandi, Hyderabad - TSPCB",16-12-2025 08:00:00,17.585705,78.126199,CO,13,56,30
India,Telangana,Hyderabad,"Kokapet, Hyderabad - TSPCB",16-12-2025 08:00:00,17.393559,78.339194,NH3,2,3,2
India,Telangana,Hyderabad,"Kompally Municipal Office, Hyderabad - TSPCB",16-12-2025 08:00:00,17.544899,78.486949,NO2,13,18,16
India,Telangana,Hyderabad,"Kompally Municipal Office, Hyderabad - TSPCB",16-12-2025 08:00:00,17.544899,78.486949,OZONE,33,42,41
India,Telangana,Hyderabad,"Nacharam_TSIIC IALA, Hyderabad - TSPCB",16-12-2025 08:00:00,17.429398,78.569354,NO2,9,13,10
India,Telangana,Hyderabad,"New Malakpet, Hyderabad - TSPCB",16-12-2025 08:00:00,17.37206,78.50864,PM10,80,100,88
India,Telangana,Hyderabad,"New Malakpet, Hyderabad - TSPCB",16-12-2025 08:00:00,17.37206,78.50864,NO2,11,17,13
India,Telangana,Hyderabad,"New Malakpet, Hyderabad - TSPCB",16-12-2025 08:00:00,17.37206,78.50864,SO2,12,20,16
India,Telangana,Hyderabad,"Somajiguda, Hyderabad - TSPCB",16-12-2025 08:00:00,17.417094,78.457437,NO2,12,13,13
India,Telangana,Hyderabad,"Zoo Park, Hyderabad - TSPCB",16-12-2025 08:00:00,17.349694,78.451437,PM10,84,155,120
India,Telangana,Hyderabad,"Zoo Park, Hyderabad - TSPCB",16-12-2025 08:00:00,17.349694,78.451437,SO2,4,22,12
India,Telangana,Hyderabad,"Zoo Park, Hyderabad - TSPCB",16-12-2025 08:00:00,17.349694,78.451437,OZONE,21,23,22
India,Tripura,Agartala,"Bardowali, Agartala - Tripura SPCB",16-12-2025 08:00:00,23.8175497,91.2726974,SO2,8,9,8
India,TamilNadu,Virudhunagar,"Collectorate Office, Virudhunagar - TNPCB",16-12-2025 08:00:00,9.559382,77.948828,NH3,NA,NA,NA
India,Telangana,Hyderabad,"Bollaram Industrial Area, Hyderabad - TSPCB",16-12-2025 08:00:00,17.540891,78.358528,PM10,98,148,124
India,TamilNadu,Tirunelveli,"Municipal Corporation Office, Tirunelveli - TNPCB",16-12-2025 08:00:00,8.728442,77.6962,CO,NA,NA,NA
India,TamilNadu,Tirupur,"Kumaran College, Tirupur - TNPCB",16-12-2025 08:00:00,11.0973603,77.3228673,PM2.5,NA,NA,NA
India,Telangana,Hyderabad,"Central University, Hyderabad - TSPCB",16-12-2025 08:00:00,17.460103,78.334361,CO,17,70,38
India,Telangana,Hyderabad,"ECIL Kapra, Hyderabad - TSPCB",16-12-2025 08:00:00,17.470431,78.566959,PM10,80,111,96
India,Uttar_Pradesh,Agra,"Manoharpur, Agra - UPPCB",16-12-2025 08:00:00,27.23711,78.01936,SO2,26,93,61
India,Uttar_Pradesh,Jhansi,"Shivaji Nagar, Jhansi - UPPCB",16-12-2025 08:00:00,25.4547,78.6039,CO,16,112,50
India,Uttar_Pradesh,Kanpur,"FTI Kidwai Nagar, Kanpur - UPPCB",16-12-2025 08:00:00,26.428282,80.327067,NO2,24,25,25
India,Uttar_Pradesh,Kanpur,"FTI Kidwai Nagar, Kanpur - UPPCB",16-12-2025 08:00:00,26.428282,80.327067,SO2,16,26,20
India,Uttar_Pradesh,Kanpur,"NSI Kalyanpur, Kanpur - UPPCB",16-12-2025 08:00:00,26.509954,80.249612,PM2.5,62,229,122
India,Uttar_Pradesh,Kanpur,"NSI Kalyanpur, Kanpur - UPPCB",16-12-2025 08:00:00,26.509954,80.249612,NO2,22,22,22
India,Uttar_Pradesh,Kanpur,"NSI Kalyanpur, Kanpur - UPPCB",16-12-2025 08:00:00,26.509954,80.249612,OZONE,16,18,17
India,Uttar_Pradesh,Kanpur,"Nehru Nagar, Kanpur - UPPCB",16-12-2025 08:00:00,26.4703136,80.3229863,OZONE,6,30,6
India,Uttar_Pradesh,Khurja,"Kalindi Kunj, Khurja - UPPCB",16-12-2025 08:00:00,28.2348927,77.8683002,OZONE,13,27,26
India,Uttar_Pradesh,Lucknow,"Lalbagh, Lucknow - CPCB",16-12-2025 08:00:00,26.8458805,80.9365541,SO2,2,17,7
India,Uttar_Pradesh,Lucknow,"Talkatora District Industries Center, Lucknow - CPCB",16-12-2025 08:00:00,26.83399722,80.8917361,CO,26,94,46
India,Uttar_Pradesh,Meerut,"Ganga Nagar, Meerut - UPPCB",16-12-2025 08:00:00,28.999264,77.7590354,NH3,3,7,4
India,Uttar_Pradesh,Meerut,"Jai Bhim Nagar, Meerut - UPPCB",16-12-2025 08:00:00,28.9535882,77.7622941,PM2.5,234,428,343
India,Uttar_Pradesh,Meerut,"Jai Bhim Nagar, Meerut - UPPCB",16-12-2025 08:00:00,28.9535882,77.7622941,PM10,165,418,259
India,Uttar_Pradesh,Greater Noida,"Knowledge Park - III, Greater Noida - UPPCB",16-12-2025 08:00:00,28.47272,77.482000,PM2.5,308,407,362
India,Uttar_Pradesh,Greater Noida,"Knowledge Park - III, Greater Noida - UPPCB",16-12-2025 08:00:00,28.47272,77.482000,CO,42,104,57
India,Uttar_Pradesh,Greater Noida,"Knowledge Park - V, Greater Noida - UPPCB",16-12-2025 08:00:00,28.557054,77.453663,NH3,15,27,20
India,Uttar_Pradesh,Hapur,"Anand Vihar, Hapur - UPPCB",16-12-2025 08:00:00,28.725645,77.749675,NO2,10,119,44
India,Uttar_Pradesh,Hapur,"Anand Vihar, Hapur - UPPCB",16-12-2025 08:00:00,28.725645,77.749675,CO,2,24,17
India,Uttar_Pradesh,Moradabad,"Buddhi Vihar, Moradabad - UPPCB",16-12-2025 08:00:00,28.83526,78.74460,NO2,29,29,29
India,Uttar_Pradesh,Moradabad,"Eco Herbal Park, Moradabad - UPPCB",16-12-2025 08:00:00,28.840739,78.697531,NO2,18,107,49
India,Uttar_Pradesh,Moradabad,"Eco Herbal Park, Moradabad - UPPCB",16-12-2025 08:00:00,28.840739,78.697531,NH3,9,26,14
India,Uttar_Pradesh,Moradabad,"Jigar Colony, Moradabad - UPPCB",16-12-2025 08:00:00,28.856664,78.772638,NH3,6,9,6
India,Uttar_Pradesh,Moradabad,"Kashiram Nagar, Moradabad - UPPCB",16-12-2025 08:00:00,28.849399,78.742362,CO,34,66,51
India,Uttar_Pradesh,Moradabad,"Transport Nagar, Moradabad - UPPCB",16-12-2025 08:00:00,28.802625,78.753728,PM10,74,171,108
India,Uttar_Pradesh,Noida,"Sector - 125, Noida - UPPCB",16-12-2025 08:00:00,28.5447608,77.3231257,PM2.5,331,500,411
India,Uttar_Pradesh,Firozabad,"Nagla Bhau, Firozabad - UPPCB",16-12-2025 08:00:00,27.168897,78.376960,OZONE,4,5,4
India,Uttar_Pradesh,Ghaziabad,"Loni, Ghaziabad - UPPCB",16-12-2025 08:00:00,28.757294,77.278792,NO2,37,172,92
India,Uttar_Pradesh,Ghaziabad,"Loni, Ghaziabad - UPPCB",16-12-2025 08:00:00,28.757294,77.278792,CO,26,142,64
India,Uttar_Pradesh,Ghaziabad,"Vasundhara, Ghaziabad - UPPCB",16-12-2025 08:00:00,28.6603346,77.3572563,SO2,6,24,11
India,Uttar_Pradesh,Ghaziabad,"Vasundhara, Ghaziabad - UPPCB",16-12-2025 08:00:00,28.6603346,77.3572563,OZONE,8,315,14
India,Uttar_Pradesh,Lucknow,"Kukrail Picnic Spot-1, Lucknow - UPPCB",16-12-2025 08:00:00,26.90723,80.98579,NO2,31,84,34
India,Uttar_Pradesh,Lucknow,"Kukrail Picnic Spot-1, Lucknow - UPPCB",16-12-2025 08:00:00,26.90723,80.98579,CO,10,18,16
India,Uttar_Pradesh,Moradabad,"Jigar Colony, Moradabad - UPPCB",16-12-2025 08:00:00,28.856664,78.772638,CO,40,40,40
India,Uttar_Pradesh,Varanasi,"IESD Banaras Hindu University, Varanasi - UPPCB",16-12-2025 08:00:00,25.262326,82.995408,PM10,103,177,130
India,Uttar_Pradesh,Varanasi,"Maldahiya, Varanasi - UPPCB",16-12-2025 08:00:00,25.32393,82.99687,SO2,26,31,28
India,Uttar_Pradesh,Vrindavan,"Omex Eternity, Vrindavan - UPPCB",16-12-2025 08:00:00,27.5714090,77.6557570,PM2.5,33,167,68
India,Uttar_Pradesh,Vrindavan,"Omex Eternity, Vrindavan - UPPCB",16-12-2025 08:00:00,27.5714090,77.6557570,NO2,12,12,12
India,Uttarakhand,Dehradun,"Doon University, Dehradun - UKPCB",16-12-2025 08:00:00,30.269444,78.044167,SO2,2,3,2
India,Uttar_Pradesh,Noida,"Sector-1, Noida - UPPCB",16-12-2025 08:00:00,28.5898,77.3101,OZONE,2,137,5
India,Uttar_Pradesh,Noida,"Sector-116, Noida - UPPCB",16-12-2025 08:00:00,28.569230,77.393848,NH3,26,44,33
India,Uttar_Pradesh,Noida,"Sector-116, Noida - UPPCB",16-12-2025 08:00:00,28.569230,77.393848,CO,14,131,45
India,Uttar_Pradesh,Prayagraj,"Jhunsi, Prayagraj - UPPCB",16-12-2025 08:00:00,25.425602,81.917152,PM10,81,192,125
India,Uttar_Pradesh,Varanasi,"Bhelupur, Varanasi - UPPCB",16-12-2025 08:00:00,25.301778,82.996789,PM10,74,176,111
India,Uttar_Pradesh,Varanasi,"Bhelupur, Varanasi - UPPCB",16-12-2025 08:00:00,25.301778,82.996789,NO2,7,8,8
India,Uttar_Pradesh,Varanasi,"Bhelupur, Varanasi - UPPCB",16-12-2025 08:00:00,25.301778,82.996789,SO2,28,31,29
India,Uttar_Pradesh,Varanasi,"IESD Banaras Hindu University, Varanasi - UPPCB",16-12-2025 08:00:00,25.262326,82.995408,PM2.5,45,180,86
India,Uttarakhand,Rishikesh,"Shivaji Nagar, Rishikesh - UKPCB",16-12-2025 08:00:00,30.075911,78.2859547,NH3,6,14,8
India,West_Bengal,Asansol,"Evelyn Lodge, Asansol - WBPCB",16-12-2025 08:00:00,23.6979360,86.9443950,PM10,57,136,102
India,Uttar_Pradesh,Prayagraj,"Motilal Nehru NIT, Prayagraj - UPPCB",16-12-2025 08:00:00,25.494,81.863,CO,33,68,53
India,Uttar_Pradesh,Prayagraj,"Nagar Nigam, Prayagraj - UPPCB",16-12-2025 08:00:00,25.44919916 ,81.82735986 ,OZONE,10,13,12
India,Uttar_Pradesh,Noida,"Sector - 125, Noida - UPPCB",16-12-2025 08:00:00,28.5447608,77.3231257,PM10,200,500,362
India,Uttar_Pradesh,Noida,"Sector - 125, Noida - UPPCB",16-12-2025 08:00:00,28.5447608,77.3231257,CO,10,132,51
India,Uttar_Pradesh,Noida,"Sector - 125, Noida - UPPCB",16-12-2025 08:00:00,28.5447608,77.3231257,OZONE,9,120,9
India,Uttar_Pradesh,Noida,"Sector - 62, Noida - IMD",16-12-2025 08:00:00,28.6245479,77.3577104,PM2.5,255,420,355
India,Uttar_Pradesh,Noida,"Sector-1, Noida - UPPCB",16-12-2025 08:00:00,28.5898,77.3101,PM10,231,422,341
India,Uttarakhand,Kashipur,"Govt. Girls Inter College, Kashipur - UKPCB",16-12-2025 08:00:00,29.2124114,78.9611753,CO,33,42,36
India,Uttar_Pradesh,Prayagraj,"Jhunsi, Prayagraj - UPPCB",16-12-2025 08:00:00,25.425602,81.917152,OZONE,16,28,17
India,West_Bengal,Asansol,"Trivenidevi Bhalotia College, Asansol - WBPCB",16-12-2025 08:00:00,23.616515,87.119133,OZONE,8,14,8
India,West_Bengal,Barrackpore,"SVSPA Campus, Barrackpore - WBPCB",16-12-2025 08:00:00,22.7605581,88.3617589,PM10,55,128,96
India,West_Bengal,Barrackpore,"SVSPA Campus, Barrackpore - WBPCB",16-12-2025 08:00:00,22.7605581,88.3617589,SO2,9,11,9
India,West_Bengal,Durgapur,"Mahishkapur Road_B-Zone, Durgapur - WBPCB",16-12-2025 08:00:00,23.567923,87.306843,PM2.5,52,200,114
India,West_Bengal,Durgapur,"Mahishkapur Road_B-Zone, Durgapur - WBPCB",16-12-2025 08:00:00,23.567923,87.306843,NO2,18,80,44
India,West_Bengal,Durgapur,"PCBL Residential Complex, Durgapur - WBPCB",16-12-2025 08:00:00,23.5087640,87.3544400,PM2.5,43,177,81
India,West_Bengal,Durgapur,"PCBL Residential Complex, Durgapur - WBPCB",16-12-2025 08:00:00,23.5087640,87.3544400,OZONE,7,17,9
India,West_Bengal,Durgapur,"Womens College_City Center, Durgapur - WBPCB (Formerly known as Sidhu Kanhu Indoor Stadium)",16-12-2025 08:00:00,23.549395,87.300496,PM2.5,34,233,106
India,West_Bengal,Durgapur,"Womens College_City Center, Durgapur - WBPCB (Formerly known as Sidhu Kanhu Indoor Stadium)",16-12-2025 08:00:00,23.549395,87.300496,CO,22,58,45
India,West_Bengal,Durgapur,"Womens College_City Center, Durgapur - WBPCB (Formerly known as Sidhu Kanhu Indoor Stadium)",16-12-2025 08:00:00,23.549395,87.300496,OZONE,2,73,2
India,West_Bengal,Howrah,"Botanical Garden, Howrah - WBPCB",16-12-2025 08:00:00,22.554954,88.292568,PM10,46,135,90
India,West_Bengal,Howrah,"Dasnagar, Howrah - WBPCB",16-12-2025 08:00:00,22.6025571,88.3105664,PM10,48,122,90
India,West_Bengal,Howrah,"Dasnagar, Howrah - WBPCB",16-12-2025 08:00:00,22.6025571,88.3105664,SO2,8,38,19
India,West_Bengal,Howrah,"Ghusuri, Howrah - WBPCB",16-12-2025 08:00:00,22.611968,88.347422,NH3,7,15,11
India,West_Bengal,Howrah,"Ghusuri, Howrah - WBPCB",16-12-2025 08:00:00,22.611968,88.347422,CO,12,84,55
India,West_Bengal,Howrah,"Padmapukur, Howrah - WBPCB",16-12-2025 08:00:00,22.5687319,88.2797276,PM2.5,42,290,145
India,West_Bengal,Howrah,"Padmapukur, Howrah - WBPCB",16-12-2025 08:00:00,22.5687319,88.2797276,PM10,87,316,203
India,West_Bengal,Howrah,"Padmapukur, Howrah - WBPCB",16-12-2025 08:00:00,22.5687319,88.2797276,NH3,2,2,2
India,West_Bengal,Kolkata,"Ballygunge, Kolkata - WBPCB",16-12-2025 08:00:00,22.5367507,88.3638022,PM10,69,164,111
India,West_Bengal,Kolkata,"Ballygunge, Kolkata - WBPCB",16-12-2025 08:00:00,22.5367507,88.3638022,SO2,6,34,19
India,West_Bengal,Kolkata,"Bidhannagar, Kolkata - WBPCB",16-12-2025 08:00:00,22.58157048,88.41002457,PM10,74,177,128
India,West_Bengal,Kolkata,"Fort William, Kolkata - WBPCB",16-12-2025 08:00:00,22.556640,88.342674,PM10,63,142,105
India,West_Bengal,Kolkata,"Jadavpur, Kolkata - WBPCB",16-12-2025 08:00:00,22.49929,88.36917,PM10,58,245,138
India,West_Bengal,Kolkata,"Jadavpur, Kolkata - WBPCB",16-12-2025 08:00:00,22.49929,88.36917,SO2,8,11,9
India,West_Bengal,Kolkata,"Rabindra Bharati University, Kolkata - WBPCB",16-12-2025 08:00:00,22.627847,88.380669,OZONE,8,65,9
India,West_Bengal,Kolkata,"Rabindra Sarobar, Kolkata - WBPCB",16-12-2025 08:00:00,22.51106,88.35142,OZONE,2,95,2
India,West_Bengal,Kolkata,"Victoria, Kolkata - WBPCB",16-12-2025 08:00:00,22.5448082,88.3403691,NH3,5,5,5
India,West_Bengal,Kolkata,"Victoria, Kolkata - WBPCB",16-12-2025 08:00:00,22.5448082,88.3403691,CO,15,83,31
India,West_Bengal,Siliguri,"Ward-32 Bapupara, Siliguri - WBPCB",16-12-2025 08:00:00,26.6879226,88.4152495,CO,14,90,55
India,West_Bengal,Siliguri,"Ward-32 Bapupara, Siliguri - WBPCB",16-12-2025 08:00:00,26.6879226,88.4152495,OZONE,21,87,42
India,Andhra_Pradesh,Vijayawada,"Rajiv Nagar, Vijayawada - APPCB",16-12-2025 08:00:00,16.554731,80.649110,PM10,44,55,49
India,Andhra_Pradesh,Visakhapatnam,"GVM Corporation, Visakhapatnam - APPCB",16-12-2025 08:00:00,17.72,83.3,PM10,116,204,152
India,Andhra_Pradesh,Visakhapatnam,"GVM Corporation, Visakhapatnam - APPCB",16-12-2025 08:00:00,17.72,83.3,CO,12,48,22
India,Arunachal_Pradesh,Naharlagun,"Naharlagun, Naharlagun - APSPCB",16-12-2025 08:00:00,27.103358,93.679645,PM2.5,39,385,147
India,Arunachal_Pradesh,Naharlagun,"Naharlagun, Naharlagun - APSPCB",16-12-2025 08:00:00,27.103358,93.679645,SO2,9,10,9
India,Andhra_Pradesh,Tirumala,"Toll Gate, Tirumala - APPCB",16-12-2025 08:00:00,13.67,79.35,OZONE,6,17,13
India,Andhra_Pradesh,Tirupati,"Vaikuntapuram, Tirupati - APPCB",16-12-2025 08:00:00,13.615387,79.409230,PM2.5,56,62,59
India,Andhra_Pradesh,Vijayawada,"HB Colony, Vijayawada - APPCB",16-12-2025 08:00:00,16.536107,80.594233,PM2.5,55,78,65
India,Andhra_Pradesh,Vijayawada,"HB Colony, Vijayawada - APPCB",16-12-2025 08:00:00,16.536107,80.594233,NH3,3,4,3
India,Bihar,Araria,"Kharahiya Basti, Araria - BSPCB",16-12-2025 08:00:00,26.146529,87.454184,NO2,2,55,15
India,Bihar,Arrah,"New DM Office, Arrah - BSPCB",16-12-2025 08:00:00,25.5626095,84.663264,NO2,4,9,7
India,Bihar,Aurangabad,"Gurdeo Nagar, Aurangabad - BSPCB",16-12-2025 08:00:00,24.75746,84.366208,PM10,98,177,132
India,Bihar,Aurangabad,"Gurdeo Nagar, Aurangabad - BSPCB",16-12-2025 08:00:00,24.75746,84.366208,NH3,1,2,2
India,Assam,Silchar,"Tarapur, Silchar - PCBA",16-12-2025 08:00:00,24.82827,92.79525,NO2,19,25,23
India,Assam,Silchar,"Tarapur, Silchar - PCBA",16-12-2025 08:00:00,24.82827,92.79525,OZONE,1,8,1
India,Assam,Sivasagar,"Girls College, Sivasagar - PCBA",16-12-2025 08:00:00,26.987634,94.636574,PM2.5,NA,NA,NA
India,Assam,Guwahati,"LGBI Airport, Guwahati - PCBA",16-12-2025 08:00:00,26.10887,91.589544,NO2,12,89,18
India,Assam,Guwahati,"LGBI Airport, Guwahati - PCBA",16-12-2025 08:00:00,26.10887,91.589544,NH3,5,11,5
India,Assam,Guwahati,"LGBI Airport, Guwahati - PCBA",16-12-2025 08:00:00,26.10887,91.589544,SO2,2,23,14
India,Assam,Guwahati,"LGBI Airport, Guwahati - PCBA",16-12-2025 08:00:00,26.10887,91.589544,OZONE,11,14,12
India,Andhra_Pradesh,Vijayawada,"Kanuru, Vijayawada - APPCB",16-12-2025 08:00:00,16.486692,80.699436,PM10,NA,NA,NA
India,Andhra_Pradesh,Vijayawada,"Rajiv Gandhi Park, Vijayawada - APPCB",16-12-2025 08:00:00,16.509717,80.612222,NH3,4,8,7
India,Andaman and Nicobar,Sri Vijaya Puram,"Police Line, Sri Vijaya Puram - ANPCC",16-12-2025 08:00:00,11.654054,92.734055,NO2,10,15,12
India,Andaman and Nicobar,Sri Vijaya Puram,"Police Line, Sri Vijaya Puram - ANPCC",16-12-2025 08:00:00,11.654054,92.734055,CO,14,26,17
India,Andhra_Pradesh,Rajamahendravaram,"Anand Kala Kshetram, Rajamahendravaram - APPCB",16-12-2025 08:00:00,16.9872867,81.7363176,NO2,15,76,40
India,Bihar,Bhagalpur,"DM Office_Kachari Chowk, Bhagalpur - BSPCB",16-12-2025 08:00:00,25.251013,86.989001,NO2,6,12,9
India,Assam,Nagaon,"Christianpatty, Nagaon - PCBA",16-12-2025 08:00:00,26.349082,92.68449,OZONE,9,9,9
India,Bihar,Gaya,"SFTI Kusdihra, Gaya - BSPCB",16-12-2025 08:00:00,24.762518,84.982348,OZONE,14,37,15
India,Bihar,Hajipur,"Industrial Area, Hajipur - BSPCB",16-12-2025 08:00:00,25.697189,85.245900,PM10,68,117,98
India,Bihar,Katihar,"Mirchaibari, Katihar - BSPCB",16-12-2025 08:00:00,25.560083,87.553265,PM10,29,103,75
India,Bihar,Katihar,"Mirchaibari, Katihar - BSPCB",16-12-2025 08:00:00,25.560083,87.553265,SO2,18,26,22
India,Bihar,Katihar,"Mirchaibari, Katihar - BSPCB",16-12-2025 08:00:00,25.560083,87.553265,CO,74,102,85
India,Bihar,Kishanganj,"SDM Office_Khagra, Kishanganj - BSPCB",16-12-2025 08:00:00,26.0881305,87.93840336,PM10,59,402,182
India,Bihar,Kishanganj,"SDM Office_Khagra, Kishanganj - BSPCB",16-12-2025 08:00:00,26.0881305,87.93840336,SO2,6,9,7
India,Bihar,Kishanganj,"SDM Office_Khagra, Kishanganj - BSPCB",16-12-2025 08:00:00,26.0881305,87.93840336,OZONE,16,19,16
India,Bihar,Manguraha,"Forest Rest House, Manguraha - BSPCB",16-12-2025 08:00:00,27.308328,84.531742,SO2,16,17,16
India,Bihar,Manguraha,"Forest Rest House, Manguraha - BSPCB",16-12-2025 08:00:00,27.308328,84.531742,CO,31,33,32
India,Bihar,Manguraha,"Forest Rest House, Manguraha - BSPCB",16-12-2025 08:00:00,27.308328,84.531742,OZONE,10,21,11
India,Bihar,Motihari,"Gandak Colony, Motihari - BSPCB",16-12-2025 08:00:00,26.63086,84.90051,PM10,33,159,104
India,Bihar,Motihari,"Gandak Colony, Motihari - BSPCB",16-12-2025 08:00:00,26.63086,84.90051,OZONE,3,6,3
India,Bihar,Munger,"Town Hall, Munger - BSPCB",16-12-2025 08:00:00,25.376776,86.471523,CO,15,50,20
India,Bihar,Muzaffarpur,"Buddha Colony, Muzaffarpur - BSPCB",16-12-2025 08:00:00,26.11442,85.39813,PM2.5,71,251,172
India,Bihar,Samastipur,"DM Office_Kasipur, Samastipur - BSPCB",16-12-2025 08:00:00,25.859655,85.77944,NH3,1,1,1
India,Bihar,Samastipur,"DM Office_Kasipur, Samastipur - BSPCB",16-12-2025 08:00:00,25.859655,85.77944,OZONE,7,9,8
India,Bihar,Sasaram,"Dada Peer, Sasaram - BSPCB",16-12-2025 08:00:00,24.952822,84.002396,PM10,70,183,110
India,Bihar,Sasaram,"Dada Peer, Sasaram - BSPCB",16-12-2025 08:00:00,24.952822,84.002396,CO,46,57,52
India,Chandigarh,Chandigarh,"Sector 22, Chandigarh - CPCC",16-12-2025 08:00:00,30.735567,76.775714,NH3,14,17,15
India,Chandigarh,Chandigarh,"Sector-53, Chandigarh - CPCC",16-12-2025 08:00:00,30.719859,76.738637,SO2,8,12,10
India,Chandigarh,Chandigarh,"Sector-53, Chandigarh - CPCC",16-12-2025 08:00:00,30.719859,76.738637,CO,30,74,53
India,Chhattisgarh,Bhilai,"32Bungalows, Bhilai - CECB",16-12-2025 08:00:00,21.194815,81.314770,PM2.5,24,46,32
India,Chhattisgarh,Bhilai,"32Bungalows, Bhilai - CECB",16-12-2025 08:00:00,21.194815,81.314770,NO2,30,112,61
India,Chhattisgarh,Bhilai,"Civic Center, Bhilai - Bhilai Steel Plant",16-12-2025 08:00:00,21.185571,81.343175,NH3,6,6,6
India,Bihar,Patna,"DRM Office Danapur, Patna - BSPCB",16-12-2025 08:00:00,25.586562,85.043586,SO2,10,18,14
India,Bihar,Patna,"DRM Office Danapur, Patna - BSPCB",16-12-2025 08:00:00,25.586562,85.043586,CO,34,120,57
India,Bihar,Patna,"Govt. High School Shikarpur, Patna - BSPCB",16-12-2025 08:00:00,25.592539,85.227158,PM10,83,175,124
India,Bihar,Patna,"Muradpur, Patna - BSPCB",16-12-2025 08:00:00,25.619651,85.147382,PM2.5,77,282,159
India,Bihar,Patna,"Muradpur, Patna - BSPCB",16-12-2025 08:00:00,25.619651,85.147382,PM10,60,253,115
India,Bihar,Purnia,"Mariam Nagar, Purnia - BSPCB",16-12-2025 08:00:00,25.366336,87.117468,NO2,5,6,6
India,Bihar,Purnia,"Mariam Nagar, Purnia - BSPCB",16-12-2025 08:00:00,25.366336,87.117468,NH3,3,3,3
India,Bihar,Purnia,"Mariam Nagar, Purnia - BSPCB",16-12-2025 08:00:00,25.366336,87.117468,CO,54,63,58
India,Bihar,Saharsa,"Police Line, Saharsa - BSPCB",16-12-2025 08:00:00,25.892357,86.590325,PM10,30,169,96
India,Bihar,Saharsa,"Police Line, Saharsa - BSPCB",16-12-2025 08:00:00,25.892357,86.590325,NH3,4,4,4
India,Bihar,Saharsa,"Police Line, Saharsa - BSPCB",16-12-2025 08:00:00,25.892357,86.590325,OZONE,6,13,10
India,Bihar,Chhapra,"Darshan Nagar, Chhapra - BSPCB",16-12-2025 08:00:00,25.7808257,84.7446768,NH3,5,9,6
India,Bihar,Chhapra,"Darshan Nagar, Chhapra - BSPCB",16-12-2025 08:00:00,25.7808257,84.7446768,CO,28,57,45
India,Bihar,Gaya,"Kareemganj, Gaya - BSPCB",16-12-2025 08:00:00,24.792403,84.992416,PM10,82,332,172
India,Bihar,Gaya,"SFTI Kusdihra, Gaya - BSPCB",16-12-2025 08:00:00,24.762518,84.982348,PM10,48,100,71
India,Bihar,Bhagalpur,"Mayaganj, Bhagalpur - BSPCB",16-12-2025 08:00:00,25.265194,87.012947,NH3,4,16,9
India,Bihar,Bhagalpur,"Mayaganj, Bhagalpur - BSPCB",16-12-2025 08:00:00,25.265194,87.012947,SO2,21,79,45
India,Bihar,Bihar Sharif,"D M Colony, Bihar Sharif - BSPCB",16-12-2025 08:00:00,25.204762,85.514960,SO2,10,10,10
India,Bihar,Patna,"Rajbansi Nagar, Patna - BSPCB",16-12-2025 08:00:00,25.599486,85.113666,NO2,9,147,79
India,Bihar,Patna,"Rajbansi Nagar, Patna - BSPCB",16-12-2025 08:00:00,25.599486,85.113666,SO2,6,8,7
India,Bihar,Patna,"Samanpura, Patna - BSPCB",16-12-2025 08:00:00,25.596727,85.085624,PM2.5,NA,NA,NA
India,Chhattisgarh,Raipur,"Bhatagaon New ISBT, Raipur - CECB",16-12-2025 08:00:00,21.219665,81.630094,SO2,6,26,10
India,Chhattisgarh,Raipur,"Krishak Nagar, Raipur - CECB",16-12-2025 08:00:00,21.237755,81.705301,PM2.5,70,137,108
India,Chhattisgarh,Raipur,"Krishak Nagar, Raipur - CECB",16-12-2025 08:00:00,21.237755,81.705301,OZONE,1,5,1
India,Chhattisgarh,Raipur,"Siltara Phase-II, Raipur - CECB",16-12-2025 08:00:00,21.371751,81.664929,NO2,9,29,18
India,Chhattisgarh,Tumidih,"OP Jindal Industrial Park, Tumidih - CECB",16-12-2025 08:00:00,22.06631475,83.33820077,NH3,1,2,2
India,Chhattisgarh,Kunjemura,"OP Jindal School, Kunjemura - CECB",16-12-2025 08:00:00,22.126650,83.483212,NH3,2,2,2
India,Chhattisgarh,Milupara,"Govt. Higher Secondary School, Milupara - CECB",16-12-2025 08:00:00,22.1910172,83.5197009,PM2.5,NA,NA,NA
India,Chhattisgarh,Milupara,"Govt. Higher Secondary School, Milupara - CECB",16-12-2025 08:00:00,22.1910172,83.5197009,CO,4,27,4
India,Chhattisgarh,Milupara,"Govt. Higher Secondary School, Milupara - CECB",16-12-2025 08:00:00,22.1910172,83.5197009,OZONE,2,100,10
India,Chhattisgarh,Raipur,"AIIMS, Raipur - CECB",16-12-2025 08:00:00,21.258815,81.578979,NH3,1,1,1
India,Chhattisgarh,Bhilai,"Hathkhoj, Bhilai - CECB",16-12-2025 08:00:00,21.224231,81.408350,PM2.5,59,178,103
India,Chhattisgarh,Bilaspur,"Mangala, Bilaspur - NTPC",16-12-2025 08:00:00,22.08815,82.13737,NO2,19,109,33
India,Chhattisgarh,Chhal,"Nawapara SECL Colony, Chhal - CECB",16-12-2025 08:00:00,22.118125,83.140608,PM2.5,47,231,124
India,Chhattisgarh,Korba,"Rampur, Korba - CECB",16-12-2025 08:00:00,22.368195,82.746431,PM10,65,87,67
India,Delhi,Delhi,"Bawana, Delhi - DPCC",16-12-2025 08:00:00,28.776200,77.051074,NO2,17,115,39
India,Delhi,Delhi,"Bawana, Delhi - DPCC",16-12-2025 08:00:00,28.776200,77.051074,NH3,7,13,9
India,Delhi,Delhi,"Burari Crossing, Delhi - IMD",16-12-2025 08:00:00,28.7256504,77.2011573,PM2.5,333,435,376
India,Delhi,Delhi,"Burari Crossing, Delhi - IMD",16-12-2025 08:00:00,28.7256504,77.2011573,NO2,94,270,137
India,Delhi,Delhi,"CRRI Mathura Road, Delhi - IMD",16-12-2025 08:00:00,28.5512005,77.2735737,CO,60,119,85
India,Delhi,Delhi,"DTU, Delhi - CPCB",16-12-2025 08:00:00,28.7500499,77.1112615,PM10,177,444,292
India,Delhi,Delhi,"Dwarka-Sector 8, Delhi - DPCC ",16-12-2025 08:00:00,28.5710274,77.0719006,PM2.5,348,455,391
India,Delhi,Delhi,"Dwarka-Sector 8, Delhi - DPCC ",16-12-2025 08:00:00,28.5710274,77.0719006,NH3,16,23,20
India,Delhi,Delhi,"IGI Airport (T3), Delhi - IMD",16-12-2025 08:00:00,28.5627763,77.1180053,PM10,180,341,237
India,Delhi,Delhi,"IHBAS, Dilshad Garden, Delhi - CPCB",16-12-2025 08:00:00,28.6811736,77.3025234,NO2,54,147,97
India,Delhi,Delhi,"IHBAS, Dilshad Garden, Delhi - CPCB",16-12-2025 08:00:00,28.6811736,77.3025234,NH3,9,15,11
India,Delhi,Delhi,"IIT Delhi, Delhi - IITM",16-12-2025 08:00:00,28.542460,77.191651,PM2.5,273,408,339
India,Delhi,Delhi,"Ashok Vihar, Delhi - DPCC",16-12-2025 08:00:00,28.695381,77.181665,CO,30,114,52
India,Delhi,Delhi,"Aya Nagar, Delhi - IMD",16-12-2025 08:00:00,28.4706914,77.1099364,OZONE,7,94,12
India,Chhattisgarh,Tumidih,"OP Jindal Industrial Park, Tumidih - CECB",16-12-2025 08:00:00,22.06631475,83.33820077,SO2,5,18,8
India,Chhattisgarh,Tumidih,"OP Jindal Industrial Park, Tumidih - CECB",16-12-2025 08:00:00,22.06631475,83.33820077,CO,32,80,56
India,Delhi,Delhi,"Chandni Chowk, Delhi - IITM",16-12-2025 08:00:00,28.656756,77.227234,NH3,6,10,8
India,Delhi,Delhi,"Mundka, Delhi - DPCC",16-12-2025 08:00:00,28.684678,77.076574,SO2,5,22,11
India,Delhi,Delhi,"Mundka, Delhi - DPCC",16-12-2025 08:00:00,28.684678,77.076574,CO,70,119,79
India,Delhi,Delhi,"NSIT Dwarka, Delhi - CPCB",16-12-2025 08:00:00,28.60909,77.0325413,PM10,159,479,262
India,Delhi,Delhi,"NSIT Dwarka, Delhi - CPCB",16-12-2025 08:00:00,28.60909,77.0325413,NH3,9,49,28
India,Delhi,Delhi,"NSIT Dwarka, Delhi - CPCB",16-12-2025 08:00:00,28.60909,77.0325413,SO2,7,23,16
India,Delhi,Delhi,"NSIT Dwarka, Delhi - CPCB",16-12-2025 08:00:00,28.60909,77.0325413,OZONE,20,44,23
India,Delhi,Delhi,"Najafgarh, Delhi - DPCC",16-12-2025 08:00:00,28.570173,76.933762,NO2,62,117,100
India,Delhi,Delhi,"Najafgarh, Delhi - DPCC",16-12-2025 08:00:00,28.570173,76.933762,CO,52,102,57
India,Delhi,Delhi,"Najafgarh, Delhi - DPCC",16-12-2025 08:00:00,28.570173,76.933762,OZONE,3,44,4
India,Delhi,Delhi,"Narela, Delhi - DPCC",16-12-2025 08:00:00,28.822836,77.101981,NH3,8,11,9
India,Delhi,Delhi,"Nehru Nagar, Delhi - DPCC",16-12-2025 08:00:00,28.567890,77.250515,PM2.5,349,500,415
India,Delhi,Delhi,"Sri Aurobindo Marg, Delhi - DPCC",16-12-2025 08:00:00,28.531346,77.190156,SO2,3,14,9
India,Delhi,Delhi,"Vivek Vihar, Delhi - DPCC",16-12-2025 08:00:00,28.672342,77.315260,PM2.5,352,470,411
India,Delhi,Delhi,"Vivek Vihar, Delhi - DPCC",16-12-2025 08:00:00,28.672342,77.315260,NO2,45,133,80
India,Delhi,Delhi,"Wazirpur, Delhi - DPCC",16-12-2025 08:00:00,28.699793,77.165453,NO2,72,210,114
India,Delhi,Delhi,"Wazirpur, Delhi - DPCC",16-12-2025 08:00:00,28.699793,77.165453,NH3,13,19,16
India,Gujarat,Ahmedabad,"Chandkheda, Ahmedabad - IITM",16-12-2025 08:00:00,23.107969,72.574648,PM2.5,39,127,75
India,Gujarat,Ahmedabad,"Chandkheda, Ahmedabad - IITM",16-12-2025 08:00:00,23.107969,72.574648,SO2,5,28,12
India,Gujarat,Ahmedabad,"Gyaspur, Ahmedabad - IITM",16-12-2025 08:00:00,22.977134,72.553024,NO2,33,134,77
India,Gujarat,Ahmedabad,"Gyaspur, Ahmedabad - IITM",16-12-2025 08:00:00,22.977134,72.553024,NH3,3,19,9
India,Delhi,Delhi,"Rohini, Delhi - DPCC",16-12-2025 08:00:00,28.732528,77.119920,NH3,22,27,24
India,Delhi,Delhi,"Shadipur, Delhi - CPCB",16-12-2025 08:00:00,28.6514781,77.1473105,NH3,12,18,15
India,Delhi,Delhi,"Shadipur, Delhi - CPCB",16-12-2025 08:00:00,28.6514781,77.1473105,OZONE,9,25,13
India,Delhi,Delhi,"Sirifort, Delhi - CPCB",16-12-2025 08:00:00,28.5504249,77.2159377,SO2,22,36,31
India,Delhi,Delhi,"Sonia Vihar, Delhi - DPCC",16-12-2025 08:00:00,28.710508,77.249485,PM2.5,340,460,393
India,Delhi,Delhi,"Sonia Vihar, Delhi - DPCC",16-12-2025 08:00:00,28.710508,77.249485,PM10,205,405,310
India,Delhi,Delhi,"Sri Aurobindo Marg, Delhi - DPCC",16-12-2025 08:00:00,28.531346,77.190156,PM10,161,322,216
India,Delhi,Delhi,"Sri Aurobindo Marg, Delhi - DPCC",16-12-2025 08:00:00,28.531346,77.190156,NO2,26,64,42
India,Gujarat,Ahmedabad,"SAC ISRO Satellite, Ahmedabad - IITM",16-12-2025 08:00:00,23.023389,72.515201,PM2.5,50,82,68
India,Gujarat,Ahmedabad,"SAC ISRO Satellite, Ahmedabad - IITM",16-12-2025 08:00:00,23.023389,72.515201,NH3,9,19,12
India,Gujarat,Ahmedabad,"SAC ISRO Satellite, Ahmedabad - IITM",16-12-2025 08:00:00,23.023389,72.515201,OZONE,6,63,19
India,Gujarat,Ahmedabad,"SVPI Airport Hansol, Ahmedabad - IITM",16-12-2025 08:00:00,23.076793,72.627874,CO,6,75,26
India,Gujarat,Ankleshwar,"GIDC, Ankleshwar - GPCB",16-12-2025 08:00:00,21.613267,73.010555,NO2,21,28,26
India,Gujarat,Ankleshwar,"GIDC, Ankleshwar - GPCB",16-12-2025 08:00:00,21.613267,73.010555,SO2,35,43,36
India,Gujarat,Gandhinagar,"IIPHG Lekawada, Gandhinagar - IITM",16-12-2025 08:00:00,23.243639,72.68994,PM2.5,49,241,123
India,Delhi,Delhi,"Punjabi Bagh, Delhi - DPCC",16-12-2025 08:00:00,28.674045,77.131023,NO2,33,78,52
India,Delhi,Delhi,"Pusa, Delhi - DPCC",16-12-2025 08:00:00,28.639652,77.146275,PM10,199,447,340
India,Delhi,Delhi,"Pusa, Delhi - IMD",16-12-2025 08:00:00,28.636110,77.173332,CO,57,136,81
India,Delhi,Delhi,"R K Puram, Delhi - DPCC",16-12-2025 08:00:00,28.563262,77.186937,PM2.5,339,446,397
India,Delhi,Delhi,"Rohini, Delhi - DPCC",16-12-2025 08:00:00,28.732528,77.119920,PM10,265,465,356
India,Delhi,Delhi,"Jawaharlal Nehru Stadium, Delhi - DPCC",16-12-2025 08:00:00,28.580280,77.233829,PM10,221,436,332
India,Delhi,Delhi,"Major Dhyan Chand National Stadium, Delhi - DPCC",16-12-2025 08:00:00,28.611281,77.237738,PM10,195,395,293
India,Delhi,Delhi,"Major Dhyan Chand National Stadium, Delhi - DPCC",16-12-2025 08:00:00,28.611281,77.237738,NH3,23,28,25
India,Delhi,Delhi,"Major Dhyan Chand National Stadium, Delhi - DPCC",16-12-2025 08:00:00,28.611281,77.237738,CO,2,108,51
India,Delhi,Delhi,"Mandir Marg, Delhi - DPCC",16-12-2025 08:00:00,28.636429,77.201067,CO,7,102,48
India,Delhi,Delhi,"Okhla Phase-2, Delhi - DPCC",16-12-2025 08:00:00,28.530785,77.271255,NH3,20,38,27
India,Delhi,Delhi,"Okhla Phase-2, Delhi - DPCC",16-12-2025 08:00:00,28.530785,77.271255,OZONE,5,167,9
India,Delhi,Delhi,"Patparganj, Delhi - DPCC",16-12-2025 08:00:00,28.623763,77.287209,PM10,186,401,278
India,Delhi,Delhi,"Patparganj, Delhi - DPCC",16-12-2025 08:00:00,28.623763,77.287209,NO2,41,148,99
India,Delhi,Delhi,"Punjabi Bagh, Delhi - DPCC",16-12-2025 08:00:00,28.674045,77.131023,PM2.5,348,456,405
India,Gujarat,Ahmedabad,"Gyaspur, Ahmedabad - IITM",16-12-2025 08:00:00,22.977134,72.553024,OZONE,1,64,17
India,Gujarat,Ahmedabad,"Maninagar, Ahmedabad - GPCB",16-12-2025 08:00:00,23.002657,72.591912,SO2,33,49,42
India,Gujarat,Ahmedabad,"Raikhad, Ahmedabad - IITM",16-12-2025 08:00:00,23.020509,72.579261,SO2,11,31,17
India,Gujarat,Ahmedabad,"Rakhial, Ahmedabad - IITM",16-12-2025 08:00:00,23.016834,72.625775,SO2,22,42,29
India,Gujarat,Ahmedabad,"Rakhial, Ahmedabad - IITM",16-12-2025 08:00:00,23.016834,72.625775,CO,2,56,17
India,Delhi,Delhi,"IIT Delhi, Delhi - IITM",16-12-2025 08:00:00,28.542460,77.191651,CO,28,94,55
India,Delhi,Delhi,"ITO, Delhi - CPCB",16-12-2025 08:00:00,28.628624,77.241060,NO2,62,130,84
India,Delhi,Delhi,"ITO, Delhi - CPCB",16-12-2025 08:00:00,28.628624,77.241060,CO,15,114,45
India,Delhi,Delhi,"Jahangirpuri, Delhi - DPCC",16-12-2025 08:00:00,28.732820,77.170633,PM10,263,437,349
India,Delhi,Delhi,"Jahangirpuri, Delhi - DPCC",16-12-2025 08:00:00,28.732820,77.170633,OZONE,5,116,9
India,Haryana,Bahadurgarh,"Arya Nagar, Bahadurgarh - HSPCB",16-12-2025 08:00:00,28.6701,76.9254,NO2,12,14,13
India,Haryana,Bahadurgarh,"Arya Nagar, Bahadurgarh - HSPCB",16-12-2025 08:00:00,28.6701,76.9254,NH3,12,13,13
India,Haryana,Bahadurgarh,"Arya Nagar, Bahadurgarh - HSPCB",16-12-2025 08:00:00,28.6701,76.9254,SO2,7,7,7
India,Haryana,Bahadurgarh,"Arya Nagar, Bahadurgarh - HSPCB",16-12-2025 08:00:00,28.6701,76.9254,CO,45,53,48
India,Haryana,Ballabgarh,"Nathu Colony, Ballabgarh - HSPCB",16-12-2025 08:00:00,28.3419248,77.319699,PM10,204,424,318
India,Haryana,Bhiwani,"H.B. Colony, Bhiwani - HSPCB",16-12-2025 08:00:00,28.806223,76.141105,NO2,1,35,31
India,Haryana,Bhiwani,"H.B. Colony, Bhiwani - HSPCB",16-12-2025 08:00:00,28.806223,76.141105,CO,12,14,12
India,Haryana,Bhiwani,"H.B. Colony, Bhiwani - HSPCB",16-12-2025 08:00:00,28.806223,76.141105,OZONE,5,21,15
India,Haryana,Fatehabad,"Huda Sector, Fatehabad - HSPCB",16-12-2025 08:00:00,29.503664,75.467934,NH3,13,15,14
India,Haryana,Fatehabad,"Huda Sector, Fatehabad - HSPCB",16-12-2025 08:00:00,29.503664,75.467934,CO,25,39,28
India,Haryana,Fatehabad,"Huda Sector, Fatehabad - HSPCB",16-12-2025 08:00:00,29.503664,75.467934,OZONE,15,80,61
India,Haryana,Gurugram,"NISE Gwal Pahari, Gurugram - IMD",16-12-2025 08:00:00,28.422681,77.148944,PM2.5,153,417,322
India,Haryana,Gurugram,"Sector-51, Gurugram - HSPCB",16-12-2025 08:00:00,28.4227,77.0667,PM2.5,92,500,342
India,Haryana,Gurugram,"Teri Gram, Gurugram - HSPCB",16-12-2025 08:00:00,28.4275,77.1465,PM10,130,440,259
India,Haryana,Kaithal,"Rishi Nagar, Kaithal - HSPCB",16-12-2025 08:00:00,29.8006,76.4155,PM2.5,94,214,131
India,Haryana,Kaithal,"Rishi Nagar, Kaithal - HSPCB",16-12-2025 08:00:00,29.8006,76.4155,PM10,117,173,136
India,Haryana,Kaithal,"Rishi Nagar, Kaithal - HSPCB",16-12-2025 08:00:00,29.8006,76.4155,CO,2,86,19
India,Haryana,Karnal,"Sector-12, Karnal - HSPCB",16-12-2025 08:00:00,29.695300,77.002700,CO,42,67,49
India,Haryana,Kurukshetra,"Sector-7, Kurukshetra - HSPCB",16-12-2025 08:00:00,29.966942,76.875879,PM2.5,126,275,192
India,Haryana,Kurukshetra,"Sector-7, Kurukshetra - HSPCB",16-12-2025 08:00:00,29.966942,76.875879,NO2,17,22,19
India,Gujarat,Gandhinagar,"Sector-10, Gandhinagar - GPCB",16-12-2025 08:00:00,23.221714,72.654328,PM10,52,124,82
India,Gujarat,Gandhinagar,"Sector-10, Gandhinagar - GPCB",16-12-2025 08:00:00,23.221714,72.654328,SO2,8,16,13
India,Gujarat,Surat,"Science Center, Surat - SMC",16-12-2025 08:00:00,21.170046,72.795405,NO2,1,18,9
India,Gujarat,Vatva,"Phase-4 GIDC, Vatva - GPCB",16-12-2025 08:00:00,22.969611,72.643500,PM10,35,147,86
India,Gujarat,Vatva,"Phase-4 GIDC, Vatva - GPCB",16-12-2025 08:00:00,22.969611,72.643500,OZONE,13,48,21
India,Haryana,Gurugram,"Teri Gram, Gurugram - HSPCB",16-12-2025 08:00:00,28.4275,77.1465,OZONE,10,36,12
India,Haryana,Gurugram,"Vikas Sadan, Gurugram - HSPCB",16-12-2025 08:00:00,28.4501238,77.0263051,PM2.5,323,349,336
India,Haryana,Gurugram,"Vikas Sadan, Gurugram - HSPCB",16-12-2025 08:00:00,28.4501238,77.0263051,SO2,2,8,5
India,Haryana,Faridabad,"New Industrial Town, Faridabad - HSPCB",16-12-2025 08:00:00,28.39072,77.30059,PM2.5,NA,NA,NA
India,Haryana,Faridabad,"New Industrial Town, Faridabad - HSPCB",16-12-2025 08:00:00,28.39072,77.30059,NO2,NA,NA,NA
India,Haryana,Faridabad,"Sector 11, Faridabad - HSPCB",16-12-2025 08:00:00,28.376058,77.315741,PM2.5,115,465,301
India,Haryana,Charkhi Dadri,"Mini Secretariat, Charkhi Dadri - HSPCB",16-12-2025 08:00:00,28.593883,76.270653,NH3,5,8,6
India,Haryana,Faridabad,"Sector 11, Faridabad - HSPCB",16-12-2025 08:00:00,28.376058,77.315741,SO2,4,6,5
India,Haryana,Faridabad,"Sector 30, Faridabad - HSPCB",16-12-2025 08:00:00,28.4417,77.3217,NO2,36,39,37
India,Karnataka,Haveri,"Ashwini Nagar, Haveri - KSPCB",16-12-2025 08:00:00,14.791800,75.389600,NH3,7,7,7
India,Karnataka,Haveri,"Ashwini Nagar, Haveri - KSPCB",16-12-2025 08:00:00,14.791800,75.389600,CO,38,38,38
India,Karnataka,Hubballi,"Lingaraj Nagar, Hubballi - KSPCB",16-12-2025 08:00:00,15.3714823,75.1160168,OZONE,17,30,18
India,Karnataka,Kalaburagi,"Mahatma Basaveswar Colony, Kalaburgi - KSPCB",16-12-2025 08:00:00,17.336318,76.847397,SO2,2,6,3
India,Karnataka,Kalaburagi,"Mahatma Basaveswar Colony, Kalaburgi - KSPCB",16-12-2025 08:00:00,17.336318,76.847397,OZONE,13,24,15
India,Karnataka,Koppal,"Diwator Nagar, Koppal - KSPCB",16-12-2025 08:00:00,15.347630,76.181767,NO2,31,37,34
India,Karnataka,Madikeri,"Stuart Hill, Madikeri - KSPCB",16-12-2025 08:00:00,12.415911,75.735050,PM2.5,42,417,71
India,Jammu_and_Kashmir,Srinagar,"Rajbagh, Srinagar - JKSPCB",16-12-2025 08:00:00,34.066206,74.819820,CO,14,26,21
India,Karnataka,Belgaum,"Ramteerth Nagar, Belgaum - KSPCB",16-12-2025 08:00:00,15.888653,74.541751,SO2,21,22,21
India,Karnataka,Bengaluru,"BTM Layout, Bengaluru - CPCB",16-12-2025 08:00:00,12.9135218,77.5950804,PM2.5,75,158,94
India,Karnataka,Bengaluru,"BTM Layout, Bengaluru - CPCB",16-12-2025 08:00:00,12.9135218,77.5950804,NH3,5,6,5
India,Karnataka,Bengaluru,"BWSSB Kadabesanahalli, Bengaluru - CPCB",16-12-2025 08:00:00,12.9352049,77.6814488,PM2.5,NA,NA,NA
India,Karnataka,Bengaluru,"BWSSB Kadabesanahalli, Bengaluru - CPCB",16-12-2025 08:00:00,12.9352049,77.6814488,NO2,8,29,20
India,Haryana,Kurukshetra,"Sector-7, Kurukshetra - HSPCB",16-12-2025 08:00:00,29.966942,76.875879,CO,14,46,43
India,Haryana,Mandikhera,"General Hospital, Mandikhera(Nuh) - HSPCB",16-12-2025 08:00:00,27.9002,76.9938,PM2.5,NA,NA,NA
India,Haryana,Mandikhera,"General Hospital, Mandikhera(Nuh) - HSPCB",16-12-2025 08:00:00,27.9002,76.9938,NO2,NA,NA,NA
India,Haryana,Mandikhera,"General Hospital, Mandikhera(Nuh) - HSPCB",16-12-2025 08:00:00,27.9002,76.9938,SO2,NA,NA,NA
India,Haryana,Mandikhera,"General Hospital, Mandikhera(Nuh) - HSPCB",16-12-2025 08:00:00,27.9002,76.9938,OZONE,NA,NA,NA
India,Haryana,Narnaul,"Shastri Nagar, Narnaul - HSPCB",16-12-2025 08:00:00,28.060249,76.113115,SO2,4,5,4
India,Haryana,Palwal,"Shyam Nagar, Palwal - HSPCB",16-12-2025 08:00:00,28.1485564,77.3320667,PM2.5,106,193,149
India,Karnataka,Bengaluru,"Silk Board, Bengaluru - KSPCB",16-12-2025 08:00:00,12.917348,77.622813,PM2.5,60,332,136
India,Karnataka,Chamarajanagar,"Urban, Chamarajanagar - KSPCB",16-12-2025 08:00:00,11.55358,76.55521,NH3,2,4,2
India,Karnataka,Chikkamagaluru,"Kalyana Nagara, Chikkamagaluru - KSPCB",16-12-2025 08:00:00,13.328028,75.797056,PM2.5,NA,NA,NA
India,Karnataka,Chikkamagaluru,"Kalyana Nagara, Chikkamagaluru - KSPCB",16-12-2025 08:00:00,13.328028,75.797056,CO,11,22,20
India,Karnataka,Dharwad,"Kalabhavan, Dharwad - KSPCB",16-12-2025 08:00:00,15.459706,75.008381,SO2,4,8,5
India,Karnataka,Bengaluru,"Kasturi Nagar, Bengaluru - KSPCB",16-12-2025 08:00:00,13.003872,77.664217,PM2.5,80,87,82
India,Karnataka,Bengaluru,"Kasturi Nagar, Bengaluru - KSPCB",16-12-2025 08:00:00,13.003872,77.664217,NH3,1,1,1
India,Karnataka,Bengaluru,"Kasturi Nagar, Bengaluru - KSPCB",16-12-2025 08:00:00,13.003872,77.664217,OZONE,20,21,20
India,Karnataka,Bengaluru,"Peenya, Bengaluru - CPCB",16-12-2025 08:00:00,13.0270199,77.494094,NH3,3,4,4
India,Karnataka,Bengaluru,"Peenya, Bengaluru - CPCB",16-12-2025 08:00:00,13.0270199,77.494094,OZONE,20,24,24
India,Karnataka,Bengaluru,"RVCE-Mailasandra, Bengaluru - KSPCB",16-12-2025 08:00:00,12.921418,77.502466,SO2,5,6,6
India,Karnataka,Bengaluru,"BWSSB Kadabesanahalli, Bengaluru - CPCB",16-12-2025 08:00:00,12.9352049,77.6814488,OZONE,12,52,35
India,Karnataka,Bengaluru,"Hebbal, Bengaluru - KSPCB",16-12-2025 08:00:00,13.029152,77.585901,PM10,70,129,103
India,Karnataka,Bengaluru,"Hebbal, Bengaluru - KSPCB",16-12-2025 08:00:00,13.029152,77.585901,NO2,NA,NA,NA
India,Karnataka,Bengaluru,"Hombegowda Nagar, Bengaluru - KSPCB",16-12-2025 08:00:00,12.938539,77.590100,NO2,15,84,31
India,Karnataka,Bengaluru,"Hombegowda Nagar, Bengaluru - KSPCB",16-12-2025 08:00:00,12.938539,77.590100,SO2,14,40,21
India,Haryana,Sirsa,"F-Block, Sirsa - HSPCB",16-12-2025 08:00:00,29.536400,75.015800,PM2.5,17,118,59
India,Haryana,Sirsa,"F-Block, Sirsa - HSPCB",16-12-2025 08:00:00,29.536400,75.015800,NH3,12,15,14
India,Haryana,Sirsa,"F-Block, Sirsa - HSPCB",16-12-2025 08:00:00,29.536400,75.015800,SO2,9,27,14
India,Himachal Pradesh,Baddi,"HIMUDA Complex Phase-1, Baddi - HPPCB",16-12-2025 08:00:00,30.943887,76.801991,CO,49,110,72
India,Haryana,Panchgaon,"Amity University, Panchgaon - IITM",16-12-2025 08:00:00,28.3153,76.9143,OZONE,NA,NA,NA
India,Haryana,Panchkula,"Sector-6, Panchkula - HSPCB ",16-12-2025 08:00:00,30.7057778,76.8531805555555,PM2.5,63,334,200
India,Haryana,Panchkula,"Sector-6, Panchkula - HSPCB ",16-12-2025 08:00:00,30.7057778,76.8531805555555,OZONE,26,40,30
India,Haryana,Panipat,"Sector-18, Panipat - HSPCB",16-12-2025 08:00:00,29.432304,76.972765,OZONE,30,31,30
India,Haryana,Rohtak,"MD University, Rohtak - HSPCB",16-12-2025 08:00:00,28.52123,76.37138,PM10,96,388,269
India,Madhya Pradesh,Indore,"Airport Area, Indore - IMC",16-12-2025 08:00:00,22.7289,75.8076,NO2,2,2,2
India,Madhya Pradesh,Indore,"Regional Park, Indore - IMC",16-12-2025 08:00:00,22.6780,75.8559,CO,26,48,39
India,Madhya Pradesh,Indore,"Regional Park, Indore - IMC",16-12-2025 08:00:00,22.6780,75.8559,OZONE,9,20,14
India,Madhya Pradesh,Jabalpur,"Govindh Bhavan Colony, Jabalpur - JMC",16-12-2025 08:00:00,23.163174,79.973061,PM2.5,82,267,148
India,Madhya Pradesh,Jabalpur,"Govindh Bhavan Colony, Jabalpur - JMC",16-12-2025 08:00:00,23.163174,79.973061,NO2,20,22,20
India,Madhya Pradesh,Dewas,"Bhopal Chauraha, Dewas - MPPCB",16-12-2025 08:00:00,22.9682591,76.064118,NH3,2,3,2
India,Madhya Pradesh,Gwalior,"City Center, Gwalior - MPPCB",16-12-2025 08:00:00,26.203442,78.193251,NO2,17,142,50
India,Madhya Pradesh,Gwalior,"City Center, Gwalior - MPPCB",16-12-2025 08:00:00,26.203442,78.193251,NH3,2,4,3
India,Madhya Pradesh,Gwalior,"City Center, Gwalior - MPPCB",16-12-2025 08:00:00,26.203442,78.193251,OZONE,26,75,39
India,Madhya Pradesh,Gwalior,"Deen Dayal Nagar, Gwalior - MPPCB",16-12-2025 08:00:00,26.259242,78.216432,SO2,10,14,12
India,Kerala,Thrissur,"Corporation Ground, Thrissur - Kerala PCB",16-12-2025 08:00:00,10.532400,76.215900,CO,24,32,27
India,Madhya Pradesh,Bhopal,"Idgah Hills, Bhopal - MPPCB",16-12-2025 08:00:00,23.264759,77.381568,PM2.5,103,391,286
India,Madhya Pradesh,Bhopal,"Paryavaran Parisar, Bhopal - MPPCB",16-12-2025 08:00:00,23.210494,77.425409,PM2.5,67,328,216
