country,state,city,station,last_update,latitude,longitude,pollutant_id,min_value,max_value,avg_value
India,Bihar,Bhagalpur,"DM Office_Kachari Chowk, Bhagalpur - BSPCB",21-01-2026 08:00:00,25.251013,86.989001,PM2.5,63,177,115
India,Bihar,Bhagalpur,"DM Office_Kachari Chowk, Bhagalpur - BSPCB",21-01-2026 08:00:00,25.251013,86.989001,CO,8,21,15
India,Bihar,Bhagalpur,"Mayaganj, Bhagalpur - BSPCB",21-01-2026 08:00:00,25.265194,87.012947,NH3,11,13,12
India,Bihar,Bhagalpur,"Mayaganj, Bhagalpur - BSPCB",21-01-2026 08:00:00,25.265194,87.012947,OZONE,12,61,14
India,Bihar,Bihar Sharif,"D M Colony, Bihar Sharif - BSPCB",21-01-2026 08:00:00,25.204762,85.514960,PM10,43,143,105
India,Bihar,Bihar Sharif,"D M Colony, Bihar Sharif - BSPCB",21-01-2026 08:00:00,25.204762,85.514960,CO,22,92,55
India,Bihar,Buxar,"Charitra Van, Buxar - BSPCB",21-01-2026 08:00:00,25.567520,83.966379,PM10,94,135,116
India,Bihar,Buxar,"Charitra Van, Buxar - BSPCB",21-01-2026 08:00:00,25.567520,83.966379,CO,22,26,24
India,Bihar,Chhapra,"Darshan Nagar, Chhapra - BSPCB",21-01-2026 08:00:00,25.7808257,84.7446768,PM10,103,285,171
India,Andhra_Pradesh,Tirumala,"Toll Gate, Tirumala - APPCB",21-01-2026 08:00:00,13.67,79.35,SO2,3,20,9
India,Andhra_Pradesh,Tirumala,"Toll Gate, Tirumala - APPCB",21-01-2026 08:00:00,13.67,79.35,OZONE,31,103,75
India,Andhra_Pradesh,Vijayawada,"HB Colony, Vijayawada - APPCB",21-01-2026 08:00:00,16.536107,80.594233,CO,16,42,36
India,Andhra_Pradesh,Vijayawada,"HB Colony, Vijayawada - APPCB",21-01-2026 08:00:00,16.536107,80.594233,OZONE,7,44,22
India,Andhra_Pradesh,Vijayawada,"Kanuru, Vijayawada - APPCB",21-01-2026 08:00:00,16.486692,80.699436,PM2.5,50,97,72
India,Andhra_Pradesh,Vijayawada,"Kanuru, Vijayawada - APPCB",21-01-2026 08:00:00,16.486692,80.699436,NO2,26,40,29
India,Andhra_Pradesh,Vijayawada,"Kanuru, Vijayawada - APPCB",21-01-2026 08:00:00,16.486692,80.699436,OZONE,25,39,25
India,Andhra_Pradesh,Vijayawada,"Rajiv Gandhi Park, Vijayawada - APPCB",21-01-2026 08:00:00,16.509717,80.612222,SO2,13,19,15
India,Andhra_Pradesh,Vijayawada,"Rajiv Nagar, Vijayawada - APPCB",21-01-2026 08:00:00,16.554731,80.649110,SO2,13,23,17
India,Andhra_Pradesh,Vijayawada,"Rajiv Nagar, Vijayawada - APPCB",21-01-2026 08:00:00,16.554731,80.649110,OZONE,18,29,27
India,Andhra_Pradesh,Visakhapatnam,"GVM Corporation, Visakhapatnam - APPCB",21-01-2026 08:00:00,17.72,83.3,NH3,3,4,4
India,Assam,Byrnihat,"Central Academy for SFS, Byrnihat - PCBA",21-01-2026 08:00:00,26.071318,91.87488,PM10,54,170,93
India,Assam,Byrnihat,"Central Academy for SFS, Byrnihat - PCBA",21-01-2026 08:00:00,26.071318,91.87488,NH3,4,4,4
India,Assam,Byrnihat,"Central Academy for SFS, Byrnihat - PCBA",21-01-2026 08:00:00,26.071318,91.87488,CO,20,86,50
India,Assam,Guwahati,"LGBI Airport, Guwahati - PCBA",21-01-2026 08:00:00,26.10887,91.589544,CO,28,64,37
India,Assam,Guwahati,"Pan Bazaar, Guwahati - PCBA",21-01-2026 08:00:00,26.187500,91.744194,PM10,55,153,114
India,Bihar,Arrah,"New DM Office, Arrah - BSPCB",21-01-2026 08:00:00,25.5626095,84.663264,PM10,62,130,95
India,Bihar,Arrah,"New DM Office, Arrah - BSPCB",21-01-2026 08:00:00,25.5626095,84.663264,NO2,5,9,7
India,Bihar,Arrah,"New DM Office, Arrah - BSPCB",21-01-2026 08:00:00,25.5626095,84.663264,NH3,1,1,1
India,Bihar,Arrah,"New DM Office, Arrah - BSPCB",21-01-2026 08:00:00,25.5626095,84.663264,CO,39,67,51
India,Bihar,Aurangabad,"Gurdeo Nagar, Aurangabad - BSPCB",21-01-2026 08:00:00,24.75746,84.366208,PM2.5,38,97,62
India,Bihar,Begusarai,"Lohiyanagar, Begusarai - BSPCB",21-01-2026 08:00:00,25.42742023,86.13886079,PM10,90,189,134
India,Bihar,Begusarai,"Lohiyanagar, Begusarai - BSPCB",21-01-2026 08:00:00,25.42742023,86.13886079,SO2,27,32,29
India,Bihar,Bettiah,"Kamalnath Nagar, Bettiah - BSPCB",21-01-2026 08:00:00,26.80365,84.51954,NH3,1,1,1
India,Andhra_Pradesh,Amaravati,"Secretariat, Amaravati - APPCB",21-01-2026 08:00:00,16.5150833,80.5181667,NH3,6,8,7
India,Andhra_Pradesh,Amaravati,"Secretariat, Amaravati - APPCB",21-01-2026 08:00:00,16.5150833,80.5181667,CO,1,28,18
India,Andhra_Pradesh,Anantapur,"Gulzarpet, Anantapur - APPCB",21-01-2026 08:00:00,14.675886,77.593027,PM2.5,70,92,78
India,Andhra_Pradesh,Anantapur,"Gulzarpet, Anantapur - APPCB",21-01-2026 08:00:00,14.675886,77.593027,PM10,71,91,78
India,Andhra_Pradesh,Anantapur,"Gulzarpet, Anantapur - APPCB",21-01-2026 08:00:00,14.675886,77.593027,NH3,5,5,5
India,Andhra_Pradesh,Anantapur,"Gulzarpet, Anantapur - APPCB",21-01-2026 08:00:00,14.675886,77.593027,OZONE,6,25,15
India,Andhra_Pradesh,Rajamahendravaram,"Anand Kala Kshetram, Rajamahendravaram - APPCB",21-01-2026 08:00:00,16.9872867,81.7363176,CO,32,72,40
India,Andhra_Pradesh,Rajamahendravaram,"Anand Kala Kshetram, Rajamahendravaram - APPCB",21-01-2026 08:00:00,16.9872867,81.7363176,OZONE,15,42,19
India,Bihar,Muzaffarpur,"MIT-Daudpur Kothi, Muzaffarpur - BSPCB",21-01-2026 08:00:00,26.1403345,85.3650192,NO2,1,2,1
India,Bihar,Muzaffarpur,"MIT-Daudpur Kothi, Muzaffarpur - BSPCB",21-01-2026 08:00:00,26.1403345,85.3650192,OZONE,11,42,12
India,Bihar,Muzaffarpur,"Muzaffarpur Collectorate, Muzaffarpur - BSPCB",21-01-2026 08:00:00,26.1209,85.3647,CO,14,43,14
India,Bihar,Patna,"DRM Office Danapur, Patna - BSPCB",21-01-2026 08:00:00,25.586562,85.043586,PM2.5,72,251,143
India,Bihar,Patna,"Govt. High School Shikarpur, Patna - BSPCB",21-01-2026 08:00:00,25.592539,85.227158,PM2.5,69,85,77
India,Bihar,Patna,"Muradpur, Patna - BSPCB",21-01-2026 08:00:00,25.619651,85.147382,NO2,5,9,7
India,Assam,Nagaon,"Christianpatty, Nagaon - PCBA",21-01-2026 08:00:00,26.349082,92.68449,PM10,NA,NA,NA
India,Assam,Nagaon,"Christianpatty, Nagaon - PCBA",21-01-2026 08:00:00,26.349082,92.68449,SO2,9,13,11
India,Assam,Nagaon,"Christianpatty, Nagaon - PCBA",21-01-2026 08:00:00,26.349082,92.68449,CO,10,24,22
India,Assam,Nalbari,"Bata Chowk, Nalbari - PCBA",21-01-2026 08:00:00,26.446912,91.439057,PM10,96,126,112
India,Assam,Nalbari,"Bata Chowk, Nalbari - PCBA",21-01-2026 08:00:00,26.446912,91.439057,SO2,6,8,8
India,Assam,Silchar,"Tarapur, Silchar - PCBA",21-01-2026 08:00:00,24.82827,92.79525,NH3,1,1,1
India,Assam,Sivasagar,"Girls College, Sivasagar - PCBA",21-01-2026 08:00:00,26.987634,94.636574,NH3,5,23,12
India,Bihar,Gaya,"Collectorate, Gaya - BSPCB",21-01-2026 08:00:00,24.7955,84.9994,OZONE,19,21,20
India,Bihar,Gaya,"Kareemganj, Gaya - BSPCB",21-01-2026 08:00:00,24.792403,84.992416,NO2,3,8,5
India,Bihar,Gaya,"SFTI Kusdihra, Gaya - BSPCB",21-01-2026 08:00:00,24.762518,84.982348,CO,20,56,46
India,Bihar,Katihar,"Mirchaibari, Katihar - BSPCB",21-01-2026 08:00:00,25.560083,87.553265,NO2,8,11,9
India,Bihar,Kishanganj,"SDM Office_Khagra, Kishanganj - BSPCB",21-01-2026 08:00:00,26.0881305,87.93840336,NH3,3,3,3
India,Bihar,Motihari,"Gandak Colony, Motihari - BSPCB",21-01-2026 08:00:00,26.63086,84.90051,PM2.5,58,273,135
India,Bihar,Motihari,"Gandak Colony, Motihari - BSPCB",21-01-2026 08:00:00,26.63086,84.90051,NO2,4,9,5
India,Bihar,Motihari,"Gandak Colony, Motihari - BSPCB",21-01-2026 08:00:00,26.63086,84.90051,NH3,3,3,3
India,Bihar,Motihari,"Gandak Colony, Motihari - BSPCB",21-01-2026 08:00:00,26.63086,84.90051,OZONE,2,8,3
India,Andaman and Nicobar,Sri Vijaya Puram,"Police Line, Sri Vijaya Puram - ANPCC",21-01-2026 08:00:00,11.654054,92.734055,PM10,NA,NA,NA
India,Delhi,Delhi,"Burari Crossing, Delhi - IMD",21-01-2026 08:00:00,28.7256504,77.2011573,PM10,146,449,298
India,Delhi,Delhi,"Burari Crossing, Delhi - IMD",21-01-2026 08:00:00,28.7256504,77.2011573,OZONE,5,118,45
India,Delhi,Delhi,"CRRI Mathura Road, Delhi - IMD",21-01-2026 08:00:00,28.5512005,77.2735737,PM2.5,84,388,289
India,Delhi,Delhi,"CRRI Mathura Road, Delhi - IMD",21-01-2026 08:00:00,28.5512005,77.2735737,PM10,127,429,287
India,Delhi,Delhi,"CRRI Mathura Road, Delhi - IMD",21-01-2026 08:00:00,28.5512005,77.2735737,OZONE,2,60,4
India,Delhi,Delhi,"Chandni Chowk, Delhi - IITM",21-01-2026 08:00:00,28.656756,77.227234,PM2.5,223,491,367
India,Delhi,Delhi,"DTU, Delhi - CPCB",21-01-2026 08:00:00,28.7500499,77.1112615,PM10,128,360,231
India,Delhi,Delhi,"DTU, Delhi - CPCB",21-01-2026 08:00:00,28.7500499,77.1112615,NH3,4,12,10
India,Delhi,Delhi,"Dr. Karni Singh Shooting Range, Delhi - DPCC",21-01-2026 08:00:00,28.498571,77.264840,NH3,10,16,13
India,Delhi,Delhi,"Dr. Karni Singh Shooting Range, Delhi - DPCC",21-01-2026 08:00:00,28.498571,77.264840,SO2,12,19,15
India,Delhi,Delhi,"Dwarka-Sector 8, Delhi - DPCC ",21-01-2026 08:00:00,28.5710274,77.0719006,NO2,47,132,83
India,Delhi,Delhi,"Alipur, Delhi - DPCC",21-01-2026 08:00:00,28.815329,77.153010,NO2,33,119,60
India,Delhi,Delhi,"Alipur, Delhi - DPCC",21-01-2026 08:00:00,28.815329,77.153010,SO2,9,17,12
India,Delhi,Delhi,"Alipur, Delhi - DPCC",21-01-2026 08:00:00,28.815329,77.153010,CO,40,106,75
India,Delhi,Delhi,"Anand Vihar, Delhi - DPCC",21-01-2026 08:00:00,28.647622,77.3158090,CO,62,136,113
India,Delhi,Delhi,"Anand Vihar, Delhi - DPCC",21-01-2026 08:00:00,28.647622,77.3158090,OZONE,2,27,11
India,Delhi,Delhi,"Ashok Vihar, Delhi - DPCC",21-01-2026 08:00:00,28.695381,77.181665,PM10,145,500,326
India,Delhi,Delhi,"Ashok Vihar, Delhi - DPCC",21-01-2026 08:00:00,28.695381,77.181665,OZONE,5,110,6
India,Delhi,Delhi,"Aya Nagar, Delhi - IMD",21-01-2026 08:00:00,28.4706914,77.1099364,PM2.5,78,392,283
India,Delhi,Delhi,"Aya Nagar, Delhi - IMD",21-01-2026 08:00:00,28.4706914,77.1099364,NO2,5,101,43
India,Delhi,Delhi,"Bawana, Delhi - DPCC",21-01-2026 08:00:00,28.776200,77.051074,NO2,10,89,36
India,Delhi,Delhi,"Bawana, Delhi - DPCC",21-01-2026 08:00:00,28.776200,77.051074,SO2,4,20,11
India,Chhattisgarh,Bilaspur,"Mangala, Bilaspur - NTPC",21-01-2026 08:00:00,22.08815,82.13737,CO,31,101,53
India,Chhattisgarh,Chhal,"Nawapara SECL Colony, Chhal - CECB",21-01-2026 08:00:00,22.118125,83.140608,SO2,1,72,15
India,Chhattisgarh,Chhal,"Nawapara SECL Colony, Chhal - CECB",21-01-2026 08:00:00,22.118125,83.140608,CO,26,48,34
India,Chhattisgarh,Korba,"Urja Nagar, Korba - CECB",21-01-2026 08:00:00,22.348441,82.549611,NO2,19,27,22
India,Chhattisgarh,Korba,"Urja Nagar, Korba - CECB",21-01-2026 08:00:00,22.348441,82.549611,SO2,8,17,12
India,Chhattisgarh,Kunjemura,"OP Jindal School, Kunjemura - CECB",21-01-2026 08:00:00,22.126650,83.483212,PM2.5,60,131,80
India,Chhattisgarh,Kunjemura,"OP Jindal School, Kunjemura - CECB",21-01-2026 08:00:00,22.126650,83.483212,NO2,28,70,48
India,Chhattisgarh,Kunjemura,"OP Jindal School, Kunjemura - CECB",21-01-2026 08:00:00,22.126650,83.483212,NH3,2,2,2
India,Chhattisgarh,Kunjemura,"OP Jindal School, Kunjemura - CECB",21-01-2026 08:00:00,22.126650,83.483212,CO,26,61,46
India,Chandigarh,Chandigarh,"Sector-53, Chandigarh - CPCC",21-01-2026 08:00:00,30.719859,76.738637,PM2.5,NA,NA,NA
India,Chandigarh,Chandigarh,"Sector-53, Chandigarh - CPCC",21-01-2026 08:00:00,30.719859,76.738637,NH3,NA,NA,NA
India,Chandigarh,Chandigarh,"Sector-53, Chandigarh - CPCC",21-01-2026 08:00:00,30.719859,76.738637,SO2,NA,NA,NA
India,Chhattisgarh,Bhilai,"32Bungalows, Bhilai - CECB",21-01-2026 08:00:00,21.194815,81.314770,NH3,4,7,6
India,Chhattisgarh,Bhilai,"Civic Center, Bhilai - Bhilai Steel Plant",21-01-2026 08:00:00,21.185571,81.343175,NH3,1,2,2
India,Chhattisgarh,Bhilai,"Civic Center, Bhilai - Bhilai Steel Plant",21-01-2026 08:00:00,21.185571,81.343175,SO2,6,11,9
India,Chhattisgarh,Bhilai,"Hathkhoj, Bhilai - CECB",21-01-2026 08:00:00,21.224231,81.408350,PM2.5,28,182,72
India,Chhattisgarh,Bhilai,"Hathkhoj, Bhilai - CECB",21-01-2026 08:00:00,21.224231,81.408350,NH3,3,6,4
India,Chhattisgarh,Bhilai,"Hathkhoj, Bhilai - CECB",21-01-2026 08:00:00,21.224231,81.408350,SO2,10,86,42
India,Delhi,Delhi,"Lodhi Road, Delhi - IMD",21-01-2026 08:00:00,28.5918245,77.2273074,CO,44,101,93
India,Delhi,Delhi,"Major Dhyan Chand National Stadium, Delhi - DPCC",21-01-2026 08:00:00,28.611281,77.237738,PM2.5,103,411,309
India,Delhi,Delhi,"Mandir Marg, Delhi - DPCC",21-01-2026 08:00:00,28.636429,77.201067,PM2.5,60,442,298
India,Delhi,Delhi,"Mandir Marg, Delhi - DPCC",21-01-2026 08:00:00,28.636429,77.201067,PM10,133,429,264
India,Delhi,Delhi,"Mandir Marg, Delhi - DPCC",21-01-2026 08:00:00,28.636429,77.201067,NH3,2,13,8
India,Delhi,Delhi,"Mundka, Delhi - DPCC",21-01-2026 08:00:00,28.684678,77.076574,SO2,9,17,12
India,Delhi,Delhi,"NSIT Dwarka, Delhi - CPCB",21-01-2026 08:00:00,28.60909,77.0325413,SO2,10,22,15
India,Chhattisgarh,Raipur,"Bhatagaon New ISBT, Raipur - CECB",21-01-2026 08:00:00,21.219665,81.630094,PM10,21,144,91
India,Chhattisgarh,Raipur,"Bhatagaon New ISBT, Raipur - CECB",21-01-2026 08:00:00,21.219665,81.630094,SO2,3,30,9
India,Chhattisgarh,Raipur,"Krishak Nagar, Raipur - CECB",21-01-2026 08:00:00,21.237755,81.705301,NO2,18,35,26
India,Chhattisgarh,Raipur,"Krishak Nagar, Raipur - CECB",21-01-2026 08:00:00,21.237755,81.705301,NH3,2,2,2
India,Chhattisgarh,Raipur,"Siltara Phase-II, Raipur - CECB",21-01-2026 08:00:00,21.371751,81.664929,NO2,53,67,59
India,Chhattisgarh,Tumidih,"OP Jindal Industrial Park, Tumidih - CECB",21-01-2026 08:00:00,22.06631475,83.33820077,NO2,42,95,69
India,Bihar,Patna,"Rajbansi Nagar, Patna - BSPCB",21-01-2026 08:00:00,25.599486,85.113666,OZONE,19,29,25
India,Bihar,Patna,"Samanpura, Patna - BSPCB",21-01-2026 08:00:00,25.596727,85.085624,NO2,21,24,22
India,Bihar,Patna,"Samanpura, Patna - BSPCB",21-01-2026 08:00:00,25.596727,85.085624,NH3,5,6,5
India,Bihar,Purnia,"Mariam Nagar, Purnia - BSPCB",21-01-2026 08:00:00,25.366336,87.117468,OZONE,19,51,21
India,Bihar,Rajgir,"Dangi Tola, Rajgir - BSPCB",21-01-2026 08:00:00,25.03280,85.41948,NH3,5,8,7
India,Bihar,Saharsa,"Police Line, Saharsa - BSPCB",21-01-2026 08:00:00,25.892357,86.590325,SO2,16,19,18
India,Bihar,Samastipur,"DM Office_Kasipur, Samastipur - BSPCB",21-01-2026 08:00:00,25.859655,85.77944,SO2,14,32,27
India,Bihar,Samastipur,"DM Office_Kasipur, Samastipur - BSPCB",21-01-2026 08:00:00,25.859655,85.77944,CO,6,12,9
India,Bihar,Sasaram,"Dada Peer, Sasaram - BSPCB",21-01-2026 08:00:00,24.952822,84.002396,OZONE,16,17,17
India,Bihar,Siwan,"Chitragupta Nagar, Siwan - BSPCB",21-01-2026 08:00:00,26.2271665,84.3570427,OZONE,12,13,12
India,Chandigarh,Chandigarh,"Sector-25, Chandigarh - CPCC",21-01-2026 08:00:00,30.751462,76.762879,PM2.5,74,263,134
India,Delhi,Delhi,"IIT Delhi, Delhi - IITM",21-01-2026 08:00:00,28.542460,77.191651,PM2.5,155,396,300
India,Delhi,Delhi,"IIT Delhi, Delhi - IITM",21-01-2026 08:00:00,28.542460,77.191651,PM10,143,412,213
India,Delhi,Delhi,"IIT Delhi, Delhi - IITM",21-01-2026 08:00:00,28.542460,77.191651,OZONE,NA,NA,NA
India,Delhi,Delhi,"ITO, Delhi - CPCB",21-01-2026 08:00:00,28.628624,77.241060,NO2,35,113,67
India,Delhi,Delhi,"Jahangirpuri, Delhi - DPCC",21-01-2026 08:00:00,28.732820,77.170633,NO2,82,139,112
India,Delhi,Delhi,"Jawaharlal Nehru Stadium, Delhi - DPCC",21-01-2026 08:00:00,28.580280,77.233829,SO2,5,22,14
India,Haryana,Dharuhera,"Municipal Corporation Office, Dharuhera -  HSPCB",21-01-2026 08:00:00,28.206800,76.799700,SO2,7,8,7
India,Haryana,Faridabad,"New Industrial Town, Faridabad - HSPCB",21-01-2026 08:00:00,28.39072,77.30059,NO2,24,27,25
India,Haryana,Faridabad,"Sector 30, Faridabad - HSPCB",21-01-2026 08:00:00,28.4417,77.3217,OZONE,17,19,18
India,Haryana,Fatehabad,"Huda Sector, Fatehabad - HSPCB",21-01-2026 08:00:00,29.503664,75.467934,PM10,132,463,209
India,Haryana,Fatehabad,"Huda Sector, Fatehabad - HSPCB",21-01-2026 08:00:00,29.503664,75.467934,NO2,18,20,19
India,Haryana,Fatehabad,"Huda Sector, Fatehabad - HSPCB",21-01-2026 08:00:00,29.503664,75.467934,SO2,10,11,10
India,Haryana,Gurugram,"NISE Gwal Pahari, Gurugram - IMD",21-01-2026 08:00:00,28.422681,77.148944,PM10,113,463,266
India,Delhi,Delhi,"Pusa, Delhi - DPCC",21-01-2026 08:00:00,28.639652,77.146275,PM10,199,460,300
India,Delhi,Delhi,"Pusa, Delhi - DPCC",21-01-2026 08:00:00,28.639652,77.146275,NH3,10,24,19
India,Delhi,Delhi,"Pusa, Delhi - IMD",21-01-2026 08:00:00,28.636110,77.173332,OZONE,NA,NA,NA
India,Delhi,Delhi,"R K Puram, Delhi - DPCC",21-01-2026 08:00:00,28.563262,77.186937,PM10,143,453,293
India,Delhi,Delhi,"R K Puram, Delhi - DPCC",21-01-2026 08:00:00,28.563262,77.186937,NH3,12,15,13
India,Delhi,Delhi,"R K Puram, Delhi - DPCC",21-01-2026 08:00:00,28.563262,77.186937,CO,8,146,97
India,Delhi,Delhi,"Rohini, Delhi - DPCC",21-01-2026 08:00:00,28.732528,77.119920,PM2.5,183,469,387
India,Delhi,Delhi,"Shadipur, Delhi - CPCB",21-01-2026 08:00:00,28.6514781,77.1473105,PM2.5,264,376,326
India,Haryana,Ambala,"Patti Mehar, Ambala - HSPCB",21-01-2026 08:00:00,30.379589,76.778328,NH3,9,11,10
India,Haryana,Ballabgarh,"Nathu Colony, Ballabgarh - HSPCB",21-01-2026 08:00:00,28.3419248,77.319699,SO2,2,7,5
India,Haryana,Bhiwani,"H.B. Colony, Bhiwani - HSPCB",21-01-2026 08:00:00,28.806223,76.141105,PM10,NA,NA,NA
India,Haryana,Charkhi Dadri,"Mini Secretariat, Charkhi Dadri - HSPCB",21-01-2026 08:00:00,28.593883,76.270653,SO2,10,11,10
India,Haryana,Charkhi Dadri,"Mini Secretariat, Charkhi Dadri - HSPCB",21-01-2026 08:00:00,28.593883,76.270653,OZONE,14,17,15
India,Haryana,Dharuhera,"Municipal Corporation Office, Dharuhera -  HSPCB",21-01-2026 08:00:00,28.206800,76.799700,NO2,17,62,46
India,Delhi,Delhi,"Nehru Nagar, Delhi - DPCC",21-01-2026 08:00:00,28.567890,77.250515,PM2.5,133,486,376
India,Delhi,Delhi,"Nehru Nagar, Delhi - DPCC",21-01-2026 08:00:00,28.567890,77.250515,NO2,30,106,62
India,Delhi,Delhi,"Nehru Nagar, Delhi - DPCC",21-01-2026 08:00:00,28.567890,77.250515,SO2,4,108,16
India,Delhi,Delhi,"Okhla Phase-2, Delhi - DPCC",21-01-2026 08:00:00,28.530785,77.271255,NO2,76,178,110
India,Delhi,Delhi,"Okhla Phase-2, Delhi - DPCC",21-01-2026 08:00:00,28.530785,77.271255,NH3,13,42,22
India,Delhi,Delhi,"Patparganj, Delhi - DPCC",21-01-2026 08:00:00,28.623763,77.287209,NO2,44,165,102
India,Delhi,Delhi,"Punjabi Bagh, Delhi - DPCC",21-01-2026 08:00:00,28.674045,77.131023,PM2.5,160,459,370
India,Delhi,Delhi,"Shadipur, Delhi - CPCB",21-01-2026 08:00:00,28.6514781,77.1473105,SO2,6,19,14
India,Delhi,Delhi,"Sirifort, Delhi - CPCB",21-01-2026 08:00:00,28.5504249,77.2159377,NO2,28,37,33
India,Delhi,Delhi,"Sonia Vihar, Delhi - DPCC",21-01-2026 08:00:00,28.710508,77.249485,PM10,125,439,292
India,Delhi,Delhi,"Sonia Vihar, Delhi - DPCC",21-01-2026 08:00:00,28.710508,77.249485,CO,40,182,182
India,Delhi,Delhi,"Sonia Vihar, Delhi - DPCC",21-01-2026 08:00:00,28.710508,77.249485,OZONE,6,146,13
India,Delhi,Delhi,"Vivek Vihar, Delhi - DPCC",21-01-2026 08:00:00,28.672342,77.315260,CO,22,126,68
India,Delhi,Delhi,"Vivek Vihar, Delhi - DPCC",21-01-2026 08:00:00,28.672342,77.315260,OZONE,1,124,1
India,Gujarat,Ahmedabad,"SAC ISRO Bopal, Ahmedabad - IITM",21-01-2026 08:00:00,23.041137,72.456691,NO2,20,54,34
India,Gujarat,Ahmedabad,"SAC ISRO Satellite, Ahmedabad - IITM",21-01-2026 08:00:00,23.023389,72.515201,PM10,65,127,88
India,Gujarat,Ankleshwar,"GIDC, Ankleshwar - GPCB",21-01-2026 08:00:00,21.613267,73.010555,PM10,86,196,129
India,Gujarat,Gandhinagar,"GIFT City, Gandhinagar - IITM",21-01-2026 08:00:00,23.163798,72.677768,CO,14,58,22
India,Gujarat,Ahmedabad,"Gyaspur, Ahmedabad - IITM",21-01-2026 08:00:00,22.977134,72.553024,NH3,5,32,18
India,Gujarat,Ahmedabad,"Gyaspur, Ahmedabad - IITM",21-01-2026 08:00:00,22.977134,72.553024,SO2,42,129,97
India,Gujarat,Ahmedabad,"Rakhial, Ahmedabad - IITM",21-01-2026 08:00:00,23.016834,72.625775,PM2.5,43,286,140
India,Gujarat,Ahmedabad,"Rakhial, Ahmedabad - IITM",21-01-2026 08:00:00,23.016834,72.625775,PM10,81,161,117
India,Gujarat,Gandhinagar,"IIPHG Lekawada, Gandhinagar - IITM",21-01-2026 08:00:00,23.243639,72.68994,PM2.5,38,243,113
India,Gujarat,Gandhinagar,"IIPHG Lekawada, Gandhinagar - IITM",21-01-2026 08:00:00,23.243639,72.68994,NO2,8,9,8
India,Gujarat,Gandhinagar,"Sector-10, Gandhinagar - GPCB",21-01-2026 08:00:00,23.221714,72.654328,PM2.5,NA,NA,NA
India,Gujarat,Vapi,"Phase-1 GIDC, Vapi - GPCB",21-01-2026 08:00:00,20.362421,72.918013,SO2,9,19,12
India,Gujarat,Vatva,"Phase-4 GIDC, Vatva - GPCB",21-01-2026 08:00:00,22.969611,72.643500,PM2.5,NA,NA,NA
India,Karnataka,Bengaluru,"BWSSB Kadabesanahalli, Bengaluru - CPCB",21-01-2026 08:00:00,12.9352049,77.6814488,NO2,8,43,23
India,Karnataka,Bengaluru,"BWSSB Kadabesanahalli, Bengaluru - CPCB",21-01-2026 08:00:00,12.9352049,77.6814488,OZONE,14,63,41
India,Karnataka,Bengaluru,"Bapuji Nagar, Bengaluru - KSPCB",21-01-2026 08:00:00,12.951913,77.539784,PM2.5,34,117,62
India,Karnataka,Bengaluru,"Bapuji Nagar, Bengaluru - KSPCB",21-01-2026 08:00:00,12.951913,77.539784,PM10,78,180,115
India,Karnataka,Bengaluru,"Bapuji Nagar, Bengaluru - KSPCB",21-01-2026 08:00:00,12.951913,77.539784,SO2,5,40,22
India,Karnataka,Bengaluru,"Bapuji Nagar, Bengaluru - KSPCB",21-01-2026 08:00:00,12.951913,77.539784,OZONE,13,41,27
India,Karnataka,Bengaluru,"City Railway Station, Bengaluru - KSPCB",21-01-2026 08:00:00,12.9756843,77.5660749,PM10,90,92,91
India,Karnataka,Bengaluru,"Hebbal, Bengaluru - KSPCB",21-01-2026 08:00:00,13.029152,77.585901,PM10,56,126,86
India,Karnataka,Bengaluru,"Hebbal, Bengaluru - KSPCB",21-01-2026 08:00:00,13.029152,77.585901,SO2,11,21,16
India,Karnataka,Bengaluru,"Hombegowda Nagar, Bengaluru - KSPCB",21-01-2026 08:00:00,12.938539,77.590100,PM2.5,32,80,58
India,Karnataka,Bengaluru,"Jayanagar 5th Block, Bengaluru - KSPCB",21-01-2026 08:00:00,12.920984,77.584908,PM2.5,62,108,87
India,Karnataka,Bengaluru,"Jayanagar 5th Block, Bengaluru - KSPCB",21-01-2026 08:00:00,12.920984,77.584908,PM10,66,136,95
India,Haryana,Gurugram,"Sector-51, Gurugram - HSPCB",21-01-2026 08:00:00,28.4227,77.0667,OZONE,3,16,3
India,Haryana,Gurugram,"Vikas Sadan, Gurugram - HSPCB",21-01-2026 08:00:00,28.4501238,77.0263051,PM2.5,315,500,409
India,Haryana,Gurugram,"Vikas Sadan, Gurugram - HSPCB",21-01-2026 08:00:00,28.4501238,77.0263051,CO,64,114,96
India,Haryana,Gurugram,"Vikas Sadan, Gurugram - HSPCB",21-01-2026 08:00:00,28.4501238,77.0263051,OZONE,4,31,11
India,Haryana,Hisar,"Urban Estate-II, Hisar - HSPCB",21-01-2026 08:00:00,29.140560,75.744941,NH3,10,11,11
India,Haryana,Hisar,"Urban Estate-II, Hisar - HSPCB",21-01-2026 08:00:00,29.140560,75.744941,SO2,6,15,10
India,Haryana,Hisar,"Urban Estate-II, Hisar - HSPCB",21-01-2026 08:00:00,29.140560,75.744941,OZONE,15,125,25
India,Haryana,Jind,"Police Lines, Jind - HSPCB",21-01-2026 08:00:00,29.307814,76.337619,PM10,117,223,141
India,Haryana,Kaithal,"Rishi Nagar, Kaithal - HSPCB",21-01-2026 08:00:00,29.8006,76.4155,NO2,29,33,32
India,Haryana,Kaithal,"Rishi Nagar, Kaithal - HSPCB",21-01-2026 08:00:00,29.8006,76.4155,CO,16,84,41
India,Haryana,Kaithal,"Rishi Nagar, Kaithal - HSPCB",21-01-2026 08:00:00,29.8006,76.4155,OZONE,4,28,6
India,Haryana,Karnal,"Sector-12, Karnal - HSPCB",21-01-2026 08:00:00,29.695300,77.002700,NH3,6,6,6
India,Haryana,Karnal,"Sector-12, Karnal - HSPCB",21-01-2026 08:00:00,29.695300,77.002700,OZONE,32,33,32
India,Haryana,Kurukshetra,"Sector-7, Kurukshetra - HSPCB",21-01-2026 08:00:00,29.966942,76.875879,PM2.5,125,310,187
India,Haryana,Mandikhera,"General Hospital, Mandikhera(Nuh) - HSPCB",21-01-2026 08:00:00,27.9002,76.9938,PM10,112,291,156
India,Haryana,Manesar,"Sector-2 IMT, Manesar - HSPCB",21-01-2026 08:00:00,28.360699,76.936090,NH3,10,12,11
India,Haryana,Manesar,"Sector-2 IMT, Manesar - HSPCB",21-01-2026 08:00:00,28.360699,76.936090,SO2,5,12,9
India,Haryana,Narnaul,"Shastri Nagar, Narnaul - HSPCB",21-01-2026 08:00:00,28.060249,76.113115,NH3,13,31,21
India,Haryana,Palwal,"Shyam Nagar, Palwal - HSPCB",21-01-2026 08:00:00,28.1485564,77.3320667,PM10,101,130,115
India,Karnataka,Bengaluru,"Shivapura_Peenya, Bengaluru - KSPCB",21-01-2026 08:00:00,13.0246342,77.5080115,PM2.5,18,336,44
India,Karnataka,Bengaluru,"Shivapura_Peenya, Bengaluru - KSPCB",21-01-2026 08:00:00,13.0246342,77.5080115,NO2,31,79,64
India,Karnataka,Bengaluru,"Shivapura_Peenya, Bengaluru - KSPCB",21-01-2026 08:00:00,13.0246342,77.5080115,NH3,4,8,6
India,Karnataka,Bengaluru,"Silk Board, Bengaluru - KSPCB",21-01-2026 08:00:00,12.917348,77.622813,PM10,73,166,109
India,Karnataka,Chamarajanagar,"Urban, Chamarajanagar - KSPCB",21-01-2026 08:00:00,11.55358,76.55521,NH3,2,3,2
India,Karnataka,Chamarajanagar,"Urban, Chamarajanagar - KSPCB",21-01-2026 08:00:00,11.55358,76.55521,CO,19,120,33
India,Haryana,Panchgaon,"Amity University, Panchgaon - IITM",21-01-2026 08:00:00,28.3153,76.9143,CO,8,108,19
India,Haryana,Panipat,"Sector-18, Panipat - HSPCB",21-01-2026 08:00:00,29.432304,76.972765,NH3,2,3,3
India,Haryana,Panipat,"Sector-18, Panipat - HSPCB",21-01-2026 08:00:00,29.432304,76.972765,CO,16,26,25
India,Haryana,Rohtak,"MD University, Rohtak - HSPCB",21-01-2026 08:00:00,28.52123,76.37138,SO2,11,13,12
India,Haryana,Sirsa,"F-Block, Sirsa - HSPCB",21-01-2026 08:00:00,29.536400,75.015800,CO,40,97,69
India,Haryana,Sonipat,"Murthal, Sonipat - HSPCB",21-01-2026 08:00:00,29.027200,77.062100,SO2,5,11,8
India,Haryana,Sonipat,"Murthal, Sonipat - HSPCB",21-01-2026 08:00:00,29.027200,77.062100,CO,34,47,39
India,Haryana,Yamuna Nagar,"Gobind Pura, Yamuna Nagar - HSPCB",21-01-2026 08:00:00,30.1480566,77.2893471,SO2,10,16,12
India,Haryana,Yamuna Nagar,"Gobind Pura, Yamuna Nagar - HSPCB",21-01-2026 08:00:00,30.1480566,77.2893471,CO,30,53,36
India,Jammu_and_Kashmir,Pampore,"Khrew, Pampore - JKPCC",21-01-2026 08:00:00,34.031606,75.009712,PM2.5,48,141,78
India,Karnataka,Bengaluru,"Jayanagar 5th Block, Bengaluru - KSPCB",21-01-2026 08:00:00,12.920984,77.584908,NH3,1,2,1
India,Karnataka,Bengaluru,"Kasturi Nagar, Bengaluru - KSPCB",21-01-2026 08:00:00,13.003872,77.664217,NO2,27,29,28
India,Karnataka,Bengaluru,"Peenya, Bengaluru - CPCB",21-01-2026 08:00:00,13.0270199,77.494094,CO,6,38,6
India,Karnataka,Bengaluru,"RVCE-Mailasandra, Bengaluru - KSPCB",21-01-2026 08:00:00,12.921418,77.502466,CO,1,37,12
India,Karnataka,Belgaum,"Ramteerth Nagar, Belgaum - KSPCB",21-01-2026 08:00:00,15.888653,74.541751,PM10,34,104,75
India,Karnataka,Belgaum,"Ramteerth Nagar, Belgaum - KSPCB",21-01-2026 08:00:00,15.888653,74.541751,SO2,29,30,29
India,Karnataka,Bengaluru,"BTM Layout, Bengaluru - CPCB",21-01-2026 08:00:00,12.9135218,77.5950804,SO2,NA,NA,NA
India,Jammu_and_Kashmir,Srinagar,"Rajbagh, Srinagar - JKPCC",21-01-2026 08:00:00,34.066206,74.819820,CO,10,18,12
India,Jharkhand,Dhanbad,"Sardar Patel Nagar, Dhanbad - JSPCB",21-01-2026 08:00:00,23.80569,86.44268,CO,4,44,21
India,Kerala,Eloor,"Udyogamandal, Eloor - Kerala PCB",21-01-2026 08:00:00,10.073232,76.302765,PM2.5,85,213,139
India,Kerala,Eloor,"Udyogamandal, Eloor - Kerala PCB",21-01-2026 08:00:00,10.073232,76.302765,PM10,66,106,86
India,Kerala,Kannur,"Thavakkara, Kannur - Kerala PCB",21-01-2026 08:00:00,11.875000,75.373200,PM2.5,80,117,98
India,Kerala,Kannur,"Thavakkara, Kannur - Kerala PCB",21-01-2026 08:00:00,11.875000,75.373200,NO2,15,17,17
India,Kerala,Kollam,"Polayathode, Kollam - Kerala PCB",21-01-2026 08:00:00,8.8787,76.6073,PM10,55,148,106
India,Kerala,Kollam,"Polayathode, Kollam - Kerala PCB",21-01-2026 08:00:00,8.8787,76.6073,NO2,9,10,9
India,Kerala,Kollam,"Polayathode, Kollam - Kerala PCB",21-01-2026 08:00:00,8.8787,76.6073,NH3,1,1,1
India,Kerala,Kollam,"Polayathode, Kollam - Kerala PCB",21-01-2026 08:00:00,8.8787,76.6073,SO2,2,3,2
India,Kerala,Thiruvananthapuram,"Kariavattom, Thiruvananthapuram - Kerala PCB",21-01-2026 08:00:00,8.563700,76.886500,NO2,7,8,8
India,Kerala,Thiruvananthapuram,"Kariavattom, Thiruvananthapuram - Kerala PCB",21-01-2026 08:00:00,8.563700,76.886500,OZONE,36,37,36
India,Kerala,Thiruvananthapuram,"Plammoodu, Thiruvananthapuram - Kerala PCB",21-01-2026 08:00:00,8.5149093,76.9435879,CO,8,60,14
India,Madhya Pradesh,Ratlam,"Shasthri Nagar, Ratlam - IPCA Lab",21-01-2026 08:00:00,23.331731,75.045981,NO2,16,40,24
India,Madhya Pradesh,Ratlam,"Shasthri Nagar, Ratlam - IPCA Lab",21-01-2026 08:00:00,23.331731,75.045981,SO2,32,40,34
India,Madhya Pradesh,Sagar,"Civil Lines, Sagar - MPPCB",21-01-2026 08:00:00,23.838586,78.759431,NH3,1,3,2
India,Madhya Pradesh,Sagar,"Deen Dayal Nagar, Sagar - MPPCB",21-01-2026 08:00:00,23.8640158,78.80289321,NO2,1,81,34
India,Madhya Pradesh,Sagar,"Deen Dayal Nagar, Sagar - MPPCB",21-01-2026 08:00:00,23.8640158,78.80289321,SO2,1,11,2
India,Madhya Pradesh,Singrauli,"Suryakiran Bhawan NCL, Singrauli - MPPCB",21-01-2026 08:00:00,24.108970,82.645580,PM10,162,417,257
India,Madhya Pradesh,Ujjain,"Mahashweta Nagar, Ujjain - MPPCB",21-01-2026 08:00:00,23.1633321,75.800225,OZONE,22,94,79
India,Maharashtra,Ahmednagar,"Tarakpur, Ahmednagar - MPCB",21-01-2026 08:00:00,19.10122,74.73339,PM2.5,48,123,79
India,Madhya Pradesh,Dewas,"Bhopal Chauraha, Dewas - MPPCB",21-01-2026 08:00:00,22.9682591,76.064118,OZONE,25,89,27
India,Madhya Pradesh,Gwalior,"City Center, Gwalior - MPPCB",21-01-2026 08:00:00,26.203442,78.193251,NO2,18,121,57
India,Madhya Pradesh,Gwalior,"City Center, Gwalior - MPPCB",21-01-2026 08:00:00,26.203442,78.193251,CO,19,132,88
India,Madhya Pradesh,Gwalior,"Deen Dayal Nagar, Gwalior - MPPCB",21-01-2026 08:00:00,26.259242,78.216432,NO2,NA,NA,NA
India,Madhya Pradesh,Gwalior,"Maharaj Bada, Gwalior - MPPCB",21-01-2026 08:00:00,26.200388,78.147714,NH3,6,7,7
India,Madhya Pradesh,Gwalior,"Maharaj Bada, Gwalior - MPPCB",21-01-2026 08:00:00,26.200388,78.147714,CO,9,140,35
India,Madhya Pradesh,Indore,"Airport Area, Indore - IMC",21-01-2026 08:00:00,22.7289,75.8076,PM2.5,7,316,149
India,Madhya Pradesh,Indore,"Airport Area, Indore - IMC",21-01-2026 08:00:00,22.7289,75.8076,NH3,NA,NA,NA
India,Madhya Pradesh,Indore,"Chhoti Gwaltoli, Indore - MPPCB",21-01-2026 08:00:00,22.4310,75.5213,NH3,1,7,4
India,Karnataka,Ramanagara,"Vijay Nagar, Ramanagara - KSPCB",21-01-2026 08:00:00,12.733409,77.298051,SO2,1,25,16
India,Karnataka,Shivamogga,"Vinoba Nagara, Shivamogga - KSPCB",21-01-2026 08:00:00,13.940000,75.555917,PM10,41,61,44
India,Karnataka,Shivamogga,"Vinoba Nagara, Shivamogga - KSPCB",21-01-2026 08:00:00,13.940000,75.555917,CO,12,34,17
India,Karnataka,Shivamogga,"Vinoba Nagara, Shivamogga - KSPCB",21-01-2026 08:00:00,13.940000,75.555917,OZONE,NA,NA,NA
India,Karnataka,Tumakuru,"Thimmalapura, Tumakuru - KSPCB",21-01-2026 08:00:00,13.377516,77.099072,PM2.5,86,147,111
India,Karnataka,Vijayapura,"Ibrahimpur, Vijayapura - KSPCB",21-01-2026 08:00:00,16.802639,75.722694,NO2,11,12,11
India,Karnataka,Vijayapura,"Ibrahimpur, Vijayapura - KSPCB",21-01-2026 08:00:00,16.802639,75.722694,NH3,1,2,1
India,Karnataka,Yadgir,"Collector Office, Yadgir - KSPCB",21-01-2026 08:00:00,16.7602,77.1428,PM2.5,47,163,80
India,Maharashtra,Ahmednagar,"Tarakpur, Ahmednagar - MPCB",21-01-2026 08:00:00,19.10122,74.73339,CO,6,131,34
India,Maharashtra,Akola,"Ramdaspeth, Akola - MPCB",21-01-2026 08:00:00,20.719516,77.000253,PM2.5,41,144,69
India,Maharashtra,Akola,"Ramdaspeth, Akola - MPCB",21-01-2026 08:00:00,20.719516,77.000253,PM10,58,145,96
India,Maharashtra,Akola,"Ramdaspeth, Akola - MPCB",21-01-2026 08:00:00,20.719516,77.000253,SO2,14,23,18
India,Maharashtra,Amravati,"Shri Shivaji Science College, Amravati - MPCB",21-01-2026 08:00:00,20.939198,77.765701,NH3,1,12,4
India,Maharashtra,Aurangabad,"MIDC Chilkalthana, Aurangabad - MPCB",21-01-2026 08:00:00,19.875620,75.387310,PM2.5,47,152,93
India,Maharashtra,Aurangabad,"MIDC Chilkalthana, Aurangabad - MPCB",21-01-2026 08:00:00,19.875620,75.387310,PM10,90,231,147
India,Maharashtra,Aurangabad,"MIDC Chilkalthana, Aurangabad - MPCB",21-01-2026 08:00:00,19.875620,75.387310,OZONE,6,84,18
India,Madhya Pradesh,Indore,"Chhoti Gwaltoli, Indore - MPPCB",21-01-2026 08:00:00,22.4310,75.5213,OZONE,18,77,45
India,Madhya Pradesh,Indore,"Maguda Nagar, Indore - IMC",21-01-2026 08:00:00,22.7524,75.8872,PM10,NA,NA,NA
India,Madhya Pradesh,Indore,"Maguda Nagar, Indore - IMC",21-01-2026 08:00:00,22.7524,75.8872,NO2,38,206,89
India,Madhya Pradesh,Indore,"Maguda Nagar, Indore - IMC",21-01-2026 08:00:00,22.7524,75.8872,SO2,1,54,14
India,Madhya Pradesh,Indore,"Regional Park, Indore - IMC",21-01-2026 08:00:00,22.6780,75.8559,NO2,14,24,20
India,Madhya Pradesh,Indore,"Residency Area, Indore - IMC",21-01-2026 08:00:00,22.7084,75.8815,PM10,26,81,52
India,Madhya Pradesh,Jabalpur,"Govindh Bhavan Colony, Jabalpur - JMC",21-01-2026 08:00:00,23.163174,79.973061,PM10,63,158,83
India,Madhya Pradesh,Jabalpur,"Govindh Bhavan Colony, Jabalpur - JMC",21-01-2026 08:00:00,23.163174,79.973061,CO,24,56,27
India,Madhya Pradesh,Jabalpur,"Gupteshwar, Jabalpur - JMC",21-01-2026 08:00:00,23.142888,79.916147,CO,38,118,60
India,Madhya Pradesh,Jabalpur,"Marhatal, Jabalpur - MPPCB",21-01-2026 08:00:00,23.168606,79.932247,PM10,82,184,121
India,Madhya Pradesh,Jabalpur,"Suhagi, Jabalpur - JMC",21-01-2026 08:00:00,23.218135,79.957770,PM2.5,50,261,124
India,Madhya Pradesh,Jabalpur,"Suhagi, Jabalpur - JMC",21-01-2026 08:00:00,23.218135,79.957770,CO,30,119,76
India,Madhya Pradesh,Katni,"Gole Bazar, Katni - MPPCB",21-01-2026 08:00:00,23.50016,80.23284,PM10,62,141,94
India,Madhya Pradesh,Pithampur,"Sector-2 Industrial Area, Pithampur - MPPCB",21-01-2026 08:00:00,22.624758,75.675238,NO2,17,26,21
India,Madhya Pradesh,Pithampur,"Sector-2 Industrial Area, Pithampur - MPPCB",21-01-2026 08:00:00,22.624758,75.675238,CO,6,41,18
India,Karnataka,Hubballi,"Lingaraj Nagar, Hubballi - KSPCB",21-01-2026 08:00:00,15.3714823,75.1160168,PM2.5,44,50,46
India,Karnataka,Hubballi,"Lingaraj Nagar, Hubballi - KSPCB",21-01-2026 08:00:00,15.3714823,75.1160168,CO,6,24,19
India,Karnataka,Kalaburagi,"Mahatma Basaveswar Colony, Kalaburgi - KSPCB",21-01-2026 08:00:00,17.336318,76.847397,PM10,15,67,50
India,Karnataka,Kalaburagi,"Mahatma Basaveswar Colony, Kalaburgi - KSPCB",21-01-2026 08:00:00,17.336318,76.847397,NH3,3,4,3
India,Karnataka,Kalaburagi,"Mahatma Basaveswar Colony, Kalaburgi - KSPCB",21-01-2026 08:00:00,17.336318,76.847397,SO2,2,4,3
India,Karnataka,Kalaburagi,"Mahatma Basaveswar Colony, Kalaburgi - KSPCB",21-01-2026 08:00:00,17.336318,76.847397,OZONE,11,13,13
India,Madhya Pradesh,Bhopal,"Idgah Hills, Bhopal - MPPCB",21-01-2026 08:00:00,23.264759,77.381568,PM2.5,53,130,82
India,Madhya Pradesh,Bhopal,"Idgah Hills, Bhopal - MPPCB",21-01-2026 08:00:00,23.264759,77.381568,SO2,11,19,14
India,Madhya Pradesh,Bhopal,"Paryavaran Parisar, Bhopal - MPPCB",21-01-2026 08:00:00,23.210494,77.425409,PM10,90,240,147
India,Madhya Pradesh,Bhopal,"Paryavaran Parisar, Bhopal - MPPCB",21-01-2026 08:00:00,23.210494,77.425409,NO2,1,105,54
India,Madhya Pradesh,Dewas,"Bhopal Chauraha, Dewas - MPPCB",21-01-2026 08:00:00,22.9682591,76.064118,NH3,5,8,6
India,Maharashtra,Aurangabad,"More Chowk Waluj, Aurangabad - MPCB",21-01-2026 08:00:00,19.8389439,75.244448,PM10,64,114,80
India,Maharashtra,Aurangabad,"More Chowk Waluj, Aurangabad - MPCB",21-01-2026 08:00:00,19.8389439,75.244448,NO2,14,26,19
India,Maharashtra,Aurangabad,"More Chowk Waluj, Aurangabad - MPCB",21-01-2026 08:00:00,19.8389439,75.244448,NH3,10,12,11
India,Maharashtra,Aurangabad,"Rachnakar Colony, Aurangabad - MPCB",21-01-2026 08:00:00,19.863756,75.321188,NO2,14,116,47
India,Maharashtra,Aurangabad,"Rachnakar Colony, Aurangabad - MPCB",21-01-2026 08:00:00,19.863756,75.321188,NH3,1,3,2
India,Maharashtra,Badlapur,"Katrap, Badlapur - MPCB",21-01-2026 08:00:00,19.16485,73.23409,PM2.5,53,136,98
India,Maharashtra,Badlapur,"Katrap, Badlapur - MPCB",21-01-2026 08:00:00,19.16485,73.23409,NH3,3,7,4
India,Maharashtra,Belapur,"CBD Belapur, Belapur - MPCB",21-01-2026 08:00:00,19.0243902,73.0406721,NO2,15,66,43
India,Maharashtra,Belapur,"CBD Belapur, Belapur - MPCB",21-01-2026 08:00:00,19.0243902,73.0406721,CO,6,45,24
India,Maharashtra,Bhiwandi,"Gokul Nagar, Bhiwandi - MPCB",21-01-2026 08:00:00,19.309073,73.057223,PM2.5,65,184,120
India,Maharashtra,Bhiwandi,"Gokul Nagar, Bhiwandi - MPCB",21-01-2026 08:00:00,19.309073,73.057223,NO2,19,37,29
India,Maharashtra,Boisar,"Khaira, Boisar - MPCB",21-01-2026 08:00:00,19.786089,72.757971,PM2.5,51,86,67
India,Maharashtra,Mumbai,"Mulund West, Mumbai - MPCB",21-01-2026 08:00:00,19.1750,72.9419,PM10,94,123,107
India,Maharashtra,Mumbai,"Mulund West, Mumbai - MPCB",21-01-2026 08:00:00,19.1750,72.9419,NH3,4,4,4
India,Maharashtra,Mumbai,"Navy Nagar-Colaba, Mumbai - IITM",21-01-2026 08:00:00,18.897756,72.813320,PM10,98,155,120
India,Maharashtra,Mumbai,"Navy Nagar-Colaba, Mumbai - IITM",21-01-2026 08:00:00,18.897756,72.813320,NH3,5,10,6
India,Maharashtra,Mumbai,"Navy Nagar-Colaba, Mumbai - IITM",21-01-2026 08:00:00,18.897756,72.813320,CO,22,78,63
India,Maharashtra,Mumbai,"Powai, Mumbai - MPCB",21-01-2026 08:00:00,19.137500,72.915056,PM10,39,81,56
India,Maharashtra,Mumbai,"Powai, Mumbai - MPCB",21-01-2026 08:00:00,19.137500,72.915056,NO2,7,8,8
India,Maharashtra,Mumbai,"Sewri, Mumbai - BMC",21-01-2026 08:00:00,19.000084,72.856730,PM10,105,171,131
India,Maharashtra,Mumbai,"Siddharth Nagar-Worli, Mumbai - IITM",21-01-2026 08:00:00,19.000083,72.813993,PM10,62,183,128
India,Maharashtra,Mumbai,"Siddharth Nagar-Worli, Mumbai - IITM",21-01-2026 08:00:00,19.000083,72.813993,NO2,NA,NA,NA
India,Maharashtra,Mumbai,"Colaba, Mumbai - MPCB",21-01-2026 08:00:00,18.910000,72.820000,OZONE,11,11,11
India,Maharashtra,Mumbai,"Deonar, Mumbai - IITM",21-01-2026 08:00:00,19.04946,72.9230,PM2.5,56,179,112
India,Maharashtra,Mumbai,"Ghatkopar, Mumbai - BMC",21-01-2026 08:00:00,19.083694,72.920967,SO2,1,5,3
India,Maharashtra,Mumbai,"Kandivali East, Mumbai - MPCB",21-01-2026 08:00:00,19.205800,72.868200,PM2.5,6,22,14
India,Maharashtra,Mumbai,"Kandivali East, Mumbai - MPCB",21-01-2026 08:00:00,19.205800,72.868200,PM10,103,151,119
India,Maharashtra,Mumbai,"Kandivali West, Mumbai - BMC",21-01-2026 08:00:00,19.215859,72.831718,PM10,90,116,110
India,Maharashtra,Mumbai,"Kandivali West, Mumbai - BMC",21-01-2026 08:00:00,19.215859,72.831718,CO,22,99,59
India,Maharashtra,Mumbai,"Kherwadi_Bandra East, Mumbai - MPCB",21-01-2026 08:00:00,19.0632143,72.8456324,PM10,93,201,135
India,Maharashtra,Mumbai,"Kherwadi_Bandra East, Mumbai - MPCB",21-01-2026 08:00:00,19.0632143,72.8456324,NH3,13,27,21
India,Maharashtra,Mumbai,"Khindipada-Bhandup West, Mumbai - IITM",21-01-2026 08:00:00,19.1653323,72.922099,SO2,7,26,14
India,Maharashtra,Mumbai,"Kurla, Mumbai - MPCB",21-01-2026 08:00:00,19.0863,72.8888,NO2,5,9,7
India,Maharashtra,Mumbai,"Kurla, Mumbai - MPCB",21-01-2026 08:00:00,19.0863,72.8888,CO,11,26,24
India,Maharashtra,Mumbai,"Malad West, Mumbai - IITM",21-01-2026 08:00:00,19.19709,72.82204,CO,12,80,56
India,Maharashtra,Mumbai,"Mazgaon, Mumbai - IITM",21-01-2026 08:00:00,18.96702,72.84214,PM2.5,65,155,103
India,Maharashtra,Mumbai,"Mazgaon, Mumbai - IITM",21-01-2026 08:00:00,18.96702,72.84214,CO,NA,NA,NA
India,Maharashtra,Mumbai,"Siddharth Nagar-Worli, Mumbai - IITM",21-01-2026 08:00:00,19.000083,72.813993,CO,19,74,66
India,Maharashtra,Mumbai,"Sion, Mumbai - MPCB",21-01-2026 08:00:00,19.047000,72.874600,PM10,66,200,132
India,Maharashtra,Mumbai,"Sion, Mumbai - MPCB",21-01-2026 08:00:00,19.047000,72.874600,SO2,4,14,9
India,Maharashtra,Mumbai,"Sion, Mumbai - MPCB",21-01-2026 08:00:00,19.047000,72.874600,OZONE,13,16,16
India,Maharashtra,Nagpur,"Ambazari, Nagpur - MPCB",21-01-2026 08:00:00,21.121801,79.04952,PM2.5,98,224,150
India,Maharashtra,Nagpur,"Ambazari, Nagpur - MPCB",21-01-2026 08:00:00,21.121801,79.04952,PM10,100,153,123
India,Maharashtra,Nagpur,"Opp GPO Civil Lines, Nagpur - MPCB",21-01-2026 08:00:00,21.152875,79.0517531,PM10,99,191,136
India,Maharashtra,Kalyan,"Pimpleshwar Mandir, Kalyan - MPCB",21-01-2026 08:00:00,19.192056,72.9585188,PM2.5,NA,NA,NA
India,Maharashtra,Kalyan,"Pimpleshwar Mandir, Kalyan - MPCB",21-01-2026 08:00:00,19.192056,72.9585188,NO2,NA,NA,NA
India,Maharashtra,Kalyan,"Pimpleshwar Mandir, Kalyan - MPCB",21-01-2026 08:00:00,19.192056,72.9585188,NH3,NA,NA,NA
India,Maharashtra,Kolhapur,"Shivaji University, Kolhapur - MPCB",21-01-2026 08:00:00,16.6870449,74.2505872,SO2,3,5,4
India,Maharashtra,Kolhapur,"Sinchan Bhavan, Kolhapur - MPCB",21-01-2026 08:00:00,16.7143745,74.2426398,OZONE,6,44,9
India,Maharashtra,Latur,"Sawe Wadi, Latur - MPCB",21-01-2026 08:00:00,18.39963,76.57452,CO,4,44,23
India,Maharashtra,Dhule,"Deopur, Dhule - MPCB",21-01-2026 08:00:00,20.918946,74.776388,PM2.5,NA,NA,NA
India,Maharashtra,Dhule,"Deopur, Dhule - MPCB",21-01-2026 08:00:00,20.918946,74.776388,NO2,9,87,24
India,Maharashtra,Dhule,"Deopur, Dhule - MPCB",21-01-2026 08:00:00,20.918946,74.776388,CO,18,54,24
India,Maharashtra,Dhule,"Deopur, Dhule - MPCB",21-01-2026 08:00:00,20.918946,74.776388,OZONE,16,65,60
India,Maharashtra,Jalgaon,"Prabhat Colony, Jalgaon - MPCB",21-01-2026 08:00:00,21.001264,75.565602,OZONE,17,74,43
India,Maharashtra,Jalna,"Old MIDC, Jalna - MPCB",21-01-2026 08:00:00,19.854616,75.905894,CO,20,43,33
India,Maharashtra,Mahad,"Kamble Tarf Birwadi, Mahad - MPCB",21-01-2026 08:00:00,18.1023399,73.4783687,PM10,52,255,104
India,Maharashtra,Mahad,"Kamble Tarf Birwadi, Mahad - MPCB",21-01-2026 08:00:00,18.1023399,73.4783687,OZONE,2,71,22
India,Maharashtra,Mumbai,"Bandra Kurla Complex, Mumbai - MPCB",21-01-2026 08:00:00,19.065931,72.862131,OZONE,1,94,1
India,Maharashtra,Mumbai,"Borivali East, Mumbai - IITM",21-01-2026 08:00:00,19.23241,72.86895,PM2.5,NA,NA,NA
India,Maharashtra,Mumbai,"Byculla, Mumbai - BMC",21-01-2026 08:00:00,18.9767,72.8380,NO2,43,139,88
India,Maharashtra,Mumbai,"Byculla, Mumbai - BMC",21-01-2026 08:00:00,18.9767,72.8380,NH3,9,38,22
India,Maharashtra,Mumbai,"Chakala-Andheri East, Mumbai - IITM",21-01-2026 08:00:00,19.11074,72.86084,CO,2,84,48
India,Maharashtra,Navi Mumbai,"Sector-2E Kalamboli, Navi Mumbai - MPCB",21-01-2026 08:00:00,19.02579,73.10297,NO2,13,65,41
India,Maharashtra,Navi Mumbai,"Sector-2E Kalamboli, Navi Mumbai - MPCB",21-01-2026 08:00:00,19.02579,73.10297,SO2,2,21,8
India,Maharashtra,Navi Mumbai,"Tondare-Taloja, Navi Mumbai - MPCB",21-01-2026 08:00:00,19.0630,73.1209,CO,25,42,36
India,Maharashtra,Navi Mumbai,"Tondare-Taloja, Navi Mumbai - MPCB",21-01-2026 08:00:00,19.0630,73.1209,OZONE,10,68,10
India,Maharashtra,Parbhani,"Masoom Colony, Parbhani - MPCB",21-01-2026 08:00:00,19.265594,76.761463,NO2,NA,NA,NA
India,Maharashtra,Pimpri-Chinchwad,"Gavalinagar, Pimpri Chinchwad - MPCB",21-01-2026 08:00:00,18.63673,73.82487,PM10,94,150,123
India,Maharashtra,Pimpri-Chinchwad,"Gavalinagar, Pimpri Chinchwad - MPCB",21-01-2026 08:00:00,18.63673,73.82487,NH3,9,21,12
India,Maharashtra,Pimpri-Chinchwad,"Park Street Wakad, Pimpri Chinchwad - MPCB",21-01-2026 08:00:00,18.59051,73.77946,NH3,3,9,4
India,Maharashtra,Sangli,"Vijay Nagar, Sangli - MPCB",21-01-2026 08:00:00, 16.5038,74.3623,NO2,16,113,52
India,Maharashtra,Solapur,"Dnyaneshwar Nagar, Solapur - MPCB",21-01-2026 08:00:00,17.6336264,75.9132495,PM10,54,125,86
India,Maharashtra,Solapur,"Dnyaneshwar Nagar, Solapur - MPCB",21-01-2026 08:00:00,17.6336264,75.9132495,NH3,7,29,13
India,Maharashtra,Solapur,"Dnyaneshwar Nagar, Solapur - MPCB",21-01-2026 08:00:00,17.6336264,75.9132495,OZONE,18,71,51
India,Maharashtra,Solapur,"Ratandeep Housing Society, Solapur - MPCB",21-01-2026 08:00:00,17.65439,75.90649,PM2.5,68,186,105
India,Maharashtra,Thane,"Kasarvadavali, Thane - MPCB",21-01-2026 08:00:00,19.26777,72.97182,PM2.5,43,111,69
India,Maharashtra,Thane,"Kasarvadavali, Thane - MPCB",21-01-2026 08:00:00,19.26777,72.97182,SO2,3,20,8
India,Maharashtra,Ulhasnagar,"Sidhi Vinayak Nagar, Ulhasnagar - MPCB",21-01-2026 08:00:00,19.235581,73.159121,NO2,10,38,26
India,Odisha,Angul,"Hakimapada, Angul - OSPCB",21-01-2026 08:00:00,20.832874,85.104082,PM10,101,274,166
India,Odisha,Angul,"Hakimapada, Angul - OSPCB",21-01-2026 08:00:00,20.832874,85.104082,NH3,4,13,9
India,Odisha,Angul,"Hakimapada, Angul - OSPCB",21-01-2026 08:00:00,20.832874,85.104082,CO,26,107,61
India,Odisha,Angul,"Hakimapada, Angul - OSPCB",21-01-2026 08:00:00,20.832874,85.104082,OZONE,3,311,21
India,Odisha,Balasore,"Kalidaspur, Balasore - OSPCB",21-01-2026 08:00:00,21.51161,86.89088,PM2.5,140,341,263
India,Odisha,Balasore,"Kalidaspur, Balasore - OSPCB",21-01-2026 08:00:00,21.51161,86.89088,OZONE,7,78,27
India,Odisha,Barbil,"Forest Office, Barbil - OSPCB",21-01-2026 08:00:00,22.1166054,85.3945546,SO2,12,37,17
India,Odisha,Baripada,"Meher Colony, Baripada - OSPCB",21-01-2026 08:00:00,21.941841,86.728318,PM2.5,126,337,248
India,Maharashtra,Pune,"Katraj Dairy, Pune - MPCB",21-01-2026 08:00:00,18.454450,73.854155,CO,45,91,70
India,Maharashtra,Pune,"Mhada Colony, Pune - IITM",21-01-2026 08:00:00,18.573040,73.927715,PM10,132,264,190
India,Maharashtra,Pune,"Panchawati_Pashan, Pune - IITM",21-01-2026 08:00:00,18.536457,73.805454,NO2,7,27,12
India,Maharashtra,Pune,"Panchawati_Pashan, Pune - IITM",21-01-2026 08:00:00,18.536457,73.805454,OZONE,1,37,2
India,Maharashtra,Pune,"Revenue Colony-Shivajinagar, Pune - IITM",21-01-2026 08:00:00,18.530085,73.849598,PM2.5,NA,NA,NA
India,Maharashtra,Pune,"Revenue Colony-Shivajinagar, Pune - IITM",21-01-2026 08:00:00,18.530085,73.849598,NO2,38,97,59
India,Maharashtra,Pune,"Revenue Colony-Shivajinagar, Pune - IITM",21-01-2026 08:00:00,18.530085,73.849598,CO,48,107,65
India,Maharashtra,Pune,"Transport Nagar-Nigdi, Pune - IITM",21-01-2026 08:00:00,18.664282,73.763966,PM10,NA,NA,NA
India,Maharashtra,Nagpur,"Opp GPO Civil Lines, Nagpur - MPCB",21-01-2026 08:00:00,21.152875,79.0517531,OZONE,1,23,4
India,Maharashtra,Nagpur,"Ram Nagar, Nagpur - MPCB",21-01-2026 08:00:00,21.143383,79.048912,PM10,107,219,144
India,Maharashtra,Nagpur,"Ram Nagar, Nagpur - MPCB",21-01-2026 08:00:00,21.143383,79.048912,NH3,4,4,4
India,Maharashtra,Nanded,"Sneh Nagar, Nanded - MPCB",21-01-2026 08:00:00,19.173852,77.296291,CO,18,26,22
India,Maharashtra,Nashik,"Gangapur Road, Nashik - MPCB",21-01-2026 08:00:00,20.0073285,73.7762427,PM2.5,70,239,126
India,Maharashtra,Nashik,"Gangapur Road, Nashik - MPCB",21-01-2026 08:00:00,20.0073285,73.7762427,OZONE,9,47,47
India,Maharashtra,Pimpri-Chinchwad,"Savta Mali Nagar, Pimpri-Chinchwad - IITM",21-01-2026 08:00:00,18.614767,73.799516,PM2.5,45,183,134
India,Maharashtra,Pimpri-Chinchwad,"Savta Mali Nagar, Pimpri-Chinchwad - IITM",21-01-2026 08:00:00,18.614767,73.799516,CO,14,117,80
India,Maharashtra,Pune,"Bhosari, Pune - IITM",21-01-2026 08:00:00,18.640051,73.848956,PM2.5,50,286,146
India,Maharashtra,Pune,"Bhumkar Nagar, Pune - IITM",21-01-2026 08:00:00,18.605770,73.749976,PM10,121,241,154
India,Maharashtra,Pune,"Katraj Dairy, Pune - MPCB",21-01-2026 08:00:00,18.454450,73.854155,PM2.5,45,76,54
India,Maharashtra,Virar,"Bolinj, Virar - MPCB",21-01-2026 08:00:00,19.4458210,72.7988231,PM10,83,174,110
India,Maharashtra,Virar,"Bolinj, Virar - MPCB",21-01-2026 08:00:00,19.4458210,72.7988231,SO2,4,23,13
India,Meghalaya,Shillong,"Lumpyngngad, Shillong - Meghalaya PCB",21-01-2026 08:00:00,25.5586,91.8985,OZONE,18,32,26
India,Nagaland,Kohima,"PWD Junction, Kohima - NPCB",21-01-2026 08:00:00,25.6635413,94.0989878,PM10,21,76,41
India,Maharashtra,Navi Mumbai,"Kopripada-Vashi, Navi Mumbai - MPCB",21-01-2026 08:00:00,19.090337,73.014232,SO2,NA,NA,NA
India,Maharashtra,Navi Mumbai,"Mahape, Navi Mumbai - MPCB",21-01-2026 08:00:00,19.1135051,73.008978,PM10,91,178,127
India,Maharashtra,Navi Mumbai,"Nerul, Navi Mumbai - MPCB",21-01-2026 08:00:00,19.008751,73.016620,SO2,NA,NA,NA
India,Maharashtra,Nashik,"MIDC Ambad, Nashik - MPCB",21-01-2026 08:00:00,19.950220,73.731480,SO2,14,20,16
India,Maharashtra,Nashik,"Pandav Nagari, Nashik - MPCB",21-01-2026 08:00:00,19.9591346,73.7788008,SO2,1,21,8
India,Odisha,Rourkela,"Raghunathpali, Rourkela - OSPCB",21-01-2026 08:00:00,22.220833,84.809444,PM10,80,255,165
India,Odisha,Rourkela,"Raghunathpali, Rourkela - OSPCB",21-01-2026 08:00:00,22.220833,84.809444,NH3,1,2,2
India,Odisha,Rourkela,"Raghunathpali, Rourkela - OSPCB",21-01-2026 08:00:00,22.220833,84.809444,OZONE,5,17,15
India,Odisha,Rourkela,"Sector-2, Rourkela - OSPCB",21-01-2026 08:00:00,22.24500000,84.88111111,PM10,79,144,112
India,Odisha,Suakati,"OMC Colony, Suakati - OSPCB",21-01-2026 08:00:00,21.606865,85.510538,NO2,13,13,13
India,Odisha,Suakati,"OMC Colony, Suakati - OSPCB",21-01-2026 08:00:00,21.606865,85.510538,NH3,6,6,6
India,Odisha,Suakati,"OMC Colony, Suakati - OSPCB",21-01-2026 08:00:00,21.606865,85.510538,SO2,2,15,7
India,Odisha,Talcher,"Talcher Coalfields,Talcher - OSPCB",21-01-2026 08:00:00,20.9360711,85.1707021,PM2.5,52,352,235
India,Odisha,Talcher,"Talcher Coalfields,Talcher - OSPCB",21-01-2026 08:00:00,20.9360711,85.1707021,PM10,67,264,161
India,Odisha,Talcher,"Talcher Coalfields,Talcher - OSPCB",21-01-2026 08:00:00,20.9360711,85.1707021,NH3,6,8,7
India,Puducherry,Puducherry,"Jawahar Nagar, Puducherry - PPCC",21-01-2026 08:00:00,11.9309,79.8027,OZONE,43,106,50
India,Punjab,Amritsar,"Golden Temple, Amritsar - PPCB",21-01-2026 08:00:00,31.620000,74.876512,NO2,11,118,64
India,Rajasthan,Jaipur,"Mansarovar Sector-12, Jaipur - RSPCB",21-01-2026 08:00:00,26.843698,75.766894,NH3,13,26,18
India,Rajasthan,Jaipur,"Mansarovar Sector-12, Jaipur - RSPCB",21-01-2026 08:00:00,26.843698,75.766894,CO,4,123,51
India,Rajasthan,Jaipur,"Police Commissionerate, Jaipur - RSPCB",21-01-2026 08:00:00,26.9164092,75.7994901,PM2.5,78,306,193
India,Rajasthan,Jaipur,"Police Commissionerate, Jaipur - RSPCB",21-01-2026 08:00:00,26.9164092,75.7994901,OZONE,15,69,15
India,Rajasthan,Jaipur,"RIICO Sitapura, Jaipur - RSPCB",21-01-2026 08:00:00,26.786682,75.827928,PM10,72,436,227
India,Rajasthan,Jaipur,"RIICO Sitapura, Jaipur - RSPCB",21-01-2026 08:00:00,26.786682,75.827928,NO2,20,178,82
India,Rajasthan,Jaipur,"Shastri Nagar, Jaipur - RSPCB",21-01-2026 08:00:00,26.9502929,75.730943,PM2.5,84,337,208
India,Rajasthan,Jaisalmer,"Sadar Bazar, Jaisalmer - RSPCB",21-01-2026 08:00:00,26.912329,70.909168,NO2,12,60,25
India,Punjab,Jalandhar,"Civil Line, Jalandhar - PPCB",21-01-2026 08:00:00,31.321907,75.578914,NH3,4,5,5
India,Punjab,Khanna,"Kalal Majra, Khanna - PPCB",21-01-2026 08:00:00,30.736056 ,76.209694,PM2.5,48,230,90
India,Punjab,Khanna,"Kalal Majra, Khanna - PPCB",21-01-2026 08:00:00,30.736056 ,76.209694,PM10,66,187,112
India,Punjab,Khanna,"Kalal Majra, Khanna - PPCB",21-01-2026 08:00:00,30.736056 ,76.209694,CO,51,80,65
India,Punjab,Mandi Gobindgarh,"RIMT University, Mandi Gobindgarh - PPCB",21-01-2026 08:00:00,30.649961,76.331442,PM2.5,43,381,207
India,Punjab,Mandi Gobindgarh,"RIMT University, Mandi Gobindgarh - PPCB",21-01-2026 08:00:00,30.649961,76.331442,NH3,6,6,6
India,Punjab,Patiala,"Model Town, Patiala - PPCB",21-01-2026 08:00:00,30.349388,76.366642,PM2.5,57,255,96
India,Punjab,Patiala,"Model Town, Patiala - PPCB",21-01-2026 08:00:00,30.349388,76.366642,PM10,94,195,119
India,Odisha,Bhubaneswar,"Lingraj Mandir, Bhubaneswar - OSPCB",21-01-2026 08:00:00,20.240790,85.836784,NH3,10,14,12
India,Odisha,Bhubaneswar,"Patia, Bhubaneswar - OSPCB",21-01-2026 08:00:00,20.34652,85.81630,PM2.5,77,302,161
India,Odisha,Bhubaneswar,"Patia, Bhubaneswar - OSPCB",21-01-2026 08:00:00,20.34652,85.81630,NH3,6,10,8
India,Odisha,Bhubaneswar,"Patia, Bhubaneswar - OSPCB",21-01-2026 08:00:00,20.34652,85.81630,OZONE,3,139,16
India,Odisha,Bileipada,"Tata Township, Bileipada - OSPCB",21-01-2026 08:00:00,22.06156703,85.47409613,PM10,98,210,152
India,Odisha,Brajrajnagar,"GM Office, Brajrajnagar - OSPCB",21-01-2026 08:00:00,21.8004996,83.8396977,SO2,20,24,22
India,Odisha,Brajrajnagar,"GM Office, Brajrajnagar - OSPCB",21-01-2026 08:00:00,21.8004996,83.8396977,CO,19,47,24
India,Rajasthan,Bhiwadi,"Vasundhara Nagar_UIT, Bhiwadi - RSPCB",21-01-2026 08:00:00,28.207266,76.829265,SO2,3,22,10
India,Rajasthan,Bikaner,"MM Ground, Bikaner - RSPCB",21-01-2026 08:00:00,28.018792,73.292658,PM2.5,62,359,286
India,Rajasthan,Bikaner,"MM Ground, Bikaner - RSPCB",21-01-2026 08:00:00,28.018792,73.292658,SO2,1,12,6
India,Rajasthan,Bundi,"New Colony, Bundi - RSPCB",21-01-2026 08:00:00,25.435774,75.644272,SO2,4,9,6
India,Rajasthan,Chittorgarh,"Shastri Nagar, Chittorgarh - RSPCB",21-01-2026 08:00:00,24.892047,74.623527,PM10,70,411,152
India,Rajasthan,Chittorgarh,"Shastri Nagar, Chittorgarh - RSPCB",21-01-2026 08:00:00,24.892047,74.623527,NO2,14,120,55
India,Rajasthan,Chittorgarh,"Shastri Nagar, Chittorgarh - RSPCB",21-01-2026 08:00:00,24.892047,74.623527,NH3,5,8,6
India,Rajasthan,Bharatpur,"Krishna Nagar, Bharatpur - RSPCB",21-01-2026 08:00:00,27.215415,77.50873,SO2,2,11,6
India,Rajasthan,Bharatpur,"Krishna Nagar, Bharatpur - RSPCB",21-01-2026 08:00:00,27.215415,77.50873,CO,32,144,56
India,Rajasthan,Bhilwara,"Pratap Nagar, Bhilwara - RSPCB",21-01-2026 08:00:00,25.339605,74.618883,NO2,15,90,34
India,Rajasthan,Bhilwara,"Pratap Nagar, Bhilwara - RSPCB",21-01-2026 08:00:00,25.339605,74.618883,NH3,3,15,5
India,Rajasthan,Bhiwadi,"RIICO Ind. Area III, Bhiwadi - RSPCB",21-01-2026 08:00:00,28.194909,76.862296,NO2,14,54,33
India,Rajasthan,Bhiwadi,"RIICO Ind. Area III, Bhiwadi - RSPCB",21-01-2026 08:00:00,28.194909,76.862296,SO2,1,21,8
India,Rajasthan,Bhiwadi,"RIICO Ind. Area III, Bhiwadi - RSPCB",21-01-2026 08:00:00,28.194909,76.862296,OZONE,6,52,9
India,Rajasthan,Churu,"Subash Chowk, Churu - RSPCB",21-01-2026 08:00:00,28.296139,74.961696,OZONE,4,126,39
India,Rajasthan,Dausa,"Khatikan Mohalla, Dausa - RSPCB",21-01-2026 08:00:00,26.895552,76.334753,PM10,54,179,121
India,Rajasthan,Dausa,"Khatikan Mohalla, Dausa - RSPCB",21-01-2026 08:00:00,26.895552,76.334753,NO2,13,103,49
India,Rajasthan,Dausa,"Khatikan Mohalla, Dausa - RSPCB",21-01-2026 08:00:00,26.895552,76.334753,OZONE,3,122,16
India,Rajasthan,Dungarpur,"Bhoiwada, Dungarpur - RSPCB",21-01-2026 08:00:00,23.837789,73.714926,CO,2,48,2
India,Odisha,Cuttack,"CDA Area, Cuttack - OSPCB",21-01-2026 08:00:00,20.48891     ,85.84768     ,NH3,4,7,6
India,Odisha,Keonjhar,"Jagamohanpur, Keonjhar - OSPCB",21-01-2026 08:00:00,21.643900,85.599355,PM10,101,208,134
India,Odisha,Keonjhar,"Jagamohanpur, Keonjhar - OSPCB",21-01-2026 08:00:00,21.643900,85.599355,CO,2,92,30
India,Odisha,Rairangpur,"Divisional Forest Office, Rairangpur - OSPCB",21-01-2026 08:00:00,22.265816,86.174829,PM2.5,24,99,62
India,Punjab,Rupnagar,"Ratanpura, Rupnagar - Ambuja Cements",21-01-2026 08:00:00,31.0325454,76.5623046,CO,36,81,40
India,Rajasthan,Ajmer,"Civil Lines,  Ajmer - RSPCB",21-01-2026 08:00:00,26.470859,74.646594,SO2,3,24,7
India,Rajasthan,Banswara,"Rati Talai, Banswara - RSPCB",21-01-2026 08:00:00,23.555190,74.440010,SO2,4,7,5
India,Rajasthan,Tonk,"Shastri Nagar, Tonk - RSPCB",21-01-2026 08:00:00,26.159933,75.780517,PM2.5,68,368,229
India,Rajasthan,Tonk,"Shastri Nagar, Tonk - RSPCB",21-01-2026 08:00:00,26.159933,75.780517,PM10,102,500,198
India,Rajasthan,Tonk,"Shastri Nagar, Tonk - RSPCB",21-01-2026 08:00:00,26.159933,75.780517,CO,17,118,42
India,Rajasthan,Tonk,"Shastri Nagar, Tonk - RSPCB",21-01-2026 08:00:00,26.159933,75.780517,OZONE,1,131,12
India,Rajasthan,Udaipur,"Ashok Nagar, Udaipur - RSPCB",21-01-2026 08:00:00,24.5886166,73.6321397,SO2,4,9,8
India,Rajasthan,Udaipur,"Ashok Nagar, Udaipur - RSPCB",21-01-2026 08:00:00,24.5886166,73.6321397,CO,11,66,24
India,Sikkim,Gangtok,"Zero Point GICI, Gangtok - SSPCB",21-01-2026 08:00:00,27.338530,88.614099,SO2,1,1,1
India,TamilNadu,Chennai,"Arumbakkam, Chennai - TNPCB",21-01-2026 08:00:00,13.0664,80.2112 ,PM2.5,96,303,161
India,TamilNadu,Chennai,"Arumbakkam, Chennai - TNPCB",21-01-2026 08:00:00,13.0664,80.2112 ,NH3,1,2,1
India,Rajasthan,Kota,"Nayapura, Kota - RSPCB",21-01-2026 08:00:00,25.196024,75.855668,NO2,19,106,51
India,Rajasthan,Kota,"Nayapura, Kota - RSPCB",21-01-2026 08:00:00,25.196024,75.855668,NH3,12,16,14
India,Rajasthan,Kota,"Nayapura, Kota - RSPCB",21-01-2026 08:00:00,25.196024,75.855668,SO2,2,11,7
India,Rajasthan,Kota,"Shrinath Puram, Kota - RSPCB",21-01-2026 08:00:00,25.14389,75.821256,CO,16,90,40
India,Rajasthan,Pali,"Indira Colony Vistar, Pali - RSPCB",21-01-2026 08:00:00,25.771061, 73.340227,NO2,35,78,47
India,Rajasthan,Pali,"Indira Colony Vistar, Pali - RSPCB",21-01-2026 08:00:00,25.771061, 73.340227,NH3,1,9,5
India,Rajasthan,Pali,"Indira Colony Vistar, Pali - RSPCB",21-01-2026 08:00:00,25.771061, 73.340227,CO,10,52,28
India,Rajasthan,Pratapgarh,"Pragati Nagar, Pratapgarh - RSPCB",21-01-2026 08:00:00,24.041198,74.780702,PM2.5,43,170,94
India,Rajasthan,Pratapgarh,"Pragati Nagar, Pratapgarh - RSPCB",21-01-2026 08:00:00,24.041198,74.780702,PM10,71,127,97
India,Rajasthan,Pratapgarh,"Pragati Nagar, Pratapgarh - RSPCB",21-01-2026 08:00:00,24.041198,74.780702,OZONE,44,107,48
India,Rajasthan,Rajsamand,"Dhoinda, Rajsamand - RSPCB",21-01-2026 08:00:00,25.036360,73.883502,PM10,38,175,82
India,Rajasthan,Sawai Madhopur,"Sahu Nagar, Sawai Madhopur - RSPCB",21-01-2026 08:00:00,26.031443,76.359327,NH3,1,13,7
India,Rajasthan,Sikar,"Radhakishan Pura, Sikar - RSPCB",21-01-2026 08:00:00,27.608912,75.153302,PM10,78,411,179
India,Rajasthan,Sirohi,"Vedhaynath Colony, Sirohi - RSPCB",21-01-2026 08:00:00,24.885261,72.857549,NH3,1,4,2
India,Rajasthan,Sri Ganganagar,"Old City, Sri Ganganagar - RSPCB",21-01-2026 08:00:00,29.931624,73.864511,PM10,110,455,213
India,TamilNadu,Madurai,"Uchapatti, Madurai - TNPCB",21-01-2026 08:00:00,9.865935,78.022669,PM10,68,113,87
India,TamilNadu,Nagapattinam,"Velippalayam, Nagapattinam - TNPCB",21-01-2026 08:00:00,10.798548,79.838212,PM10,51,103,66
India,TamilNadu,Nagapattinam,"Velippalayam, Nagapattinam - TNPCB",21-01-2026 08:00:00,10.798548,79.838212,SO2,4,11,8
India,TamilNadu,Nagapattinam,"Velippalayam, Nagapattinam - TNPCB",21-01-2026 08:00:00,10.798548,79.838212,CO,14,28,17
India,TamilNadu,Perundurai,"SIPCOT Industrial Park, Perundurai - TNPCB",21-01-2026 08:00:00,11.258242,77.552761,CO,24,30,27
India,TamilNadu,Pudukottai,"SIPCOT Nathampannai, Pudukottai - TNPCB",21-01-2026 08:00:00,10.423417,78.784889,PM2.5,58,169,85
India,TamilNadu,Chennai,"Velachery Res. Area, Chennai - CPCB",21-01-2026 08:00:00,13.0052189,80.2398125,PM10,63,116,92
India,TamilNadu,Chennai,"Velachery Res. Area, Chennai - CPCB",21-01-2026 08:00:00,13.0052189,80.2398125,OZONE,2,8,3
India,TamilNadu,Coimbatore,"PSG College of Arts and Science, Coimbatore - TNPCB",21-01-2026 08:00:00,11.0328,77.0349,OZONE,4,6,5
India,TamilNadu,Coimbatore,"SIDCO Kurichi, Coimbatore - TNPCB",21-01-2026 08:00:00,10.942451,76.978996,PM2.5,52,87,67
India,TamilNadu,Cuddalore,"Semmandalam, Cuddalore - TNPCB",21-01-2026 08:00:00,11.7637683,79.7499835,NH3,1,3,2
India,Rajasthan,Jalore,"Mudtra Sili, Jalore - RSPCB",21-01-2026 08:00:00,25.344694,72.626208,OZONE,7,85,42
India,Rajasthan,Jhalawar,"Rajlaxmi Nagar, Jhalawar - RSPCB",21-01-2026 08:00:00,24.588397,76.172782,NH3,2,8,5
India,Rajasthan,Jhunjhunu,"Indra Nagar, Jhunjhunu - RSPCB",21-01-2026 08:00:00,28.108988,75.386577,NH3,8,17,12
India,Rajasthan,Jodhpur,"Digari Kalan, Jodhpur - RSPCB",21-01-2026 08:00:00,26.295810,73.082283,NO2,15,126,50
India,Rajasthan,Jodhpur,"Digari Kalan, Jodhpur - RSPCB",21-01-2026 08:00:00,26.295810,73.082283,NH3,5,14,9
India,TamilNadu,Chennai,"Kodungaiyur, Chennai - TNPCB",21-01-2026 08:00:00,13.1278,80.2642,NH3,3,9,6
India,TamilNadu,Chennai,"Kodungaiyur, Chennai - TNPCB",21-01-2026 08:00:00,13.1278,80.2642,SO2,4,15,8
India,TamilNadu,Chennai,"Kodungaiyur, Chennai - TNPCB",21-01-2026 08:00:00,13.1278,80.2642,CO,42,64,52
India,TamilNadu,Chennai,"Manali, Chennai - CPCB",21-01-2026 08:00:00,13.164544,80.26285,SO2,NA,NA,NA
India,TamilNadu,Chennai,"Perungudi, Chennai - TNPCB",21-01-2026 08:00:00,12.9533,80.2357,NH3,1,3,1
India,TamilNadu,Chennai,"Royapuram, Chennai - TNPCB",21-01-2026 08:00:00,13.1036,80.2909,PM2.5,33,134,64
India,Rajasthan,Jodhpur,"Mandor, Jodhpur - RSPCB",21-01-2026 08:00:00,26.358805,73.047444,PM10,44,171,87
India,Rajasthan,Jodhpur,"Mandor, Jodhpur - RSPCB",21-01-2026 08:00:00,26.358805,73.047444,SO2,3,11,5
India,Rajasthan,Jodhpur,"Mandor, Jodhpur - RSPCB",21-01-2026 08:00:00,26.358805,73.047444,OZONE,9,99,69
India,Rajasthan,Jodhpur,"Samrat Ashok Udhyan, Jodhpur - RSPCB",21-01-2026 08:00:00,26.253384,72.976571,PM2.5,30,308,89
India,Rajasthan,Jodhpur,"Samrat Ashok Udhyan, Jodhpur - RSPCB",21-01-2026 08:00:00,26.253384,72.976571,CO,25,71,30
India,Rajasthan,Jodhpur,"Digari Kalan, Jodhpur - RSPCB",21-01-2026 08:00:00,26.295810,73.082283,CO,18,84,28
India,Rajasthan,Jodhpur,"Digari Kalan, Jodhpur - RSPCB",21-01-2026 08:00:00,26.295810,73.082283,OZONE,4,114,51
India,Rajasthan,Jodhpur,"Mandor, Jodhpur - RSPCB",21-01-2026 08:00:00,26.358805,73.047444,PM2.5,33,322,120
India,Uttar_Pradesh,Agra,"Sector-3B Avas Vikas Colony, Agra - UPPCB",21-01-2026 08:00:00,27.19412,77.96237,NO2,33,34,33
India,Uttar_Pradesh,Agra,"Shahjahan Garden, Agra - UPPCB",21-01-2026 08:00:00,27.169338,78.03582,PM2.5,21,303,130
India,Uttar_Pradesh,Agra,"Shahjahan Garden, Agra - UPPCB",21-01-2026 08:00:00,27.169338,78.03582,NH3,6,6,6
India,Uttar_Pradesh,Agra,"Shahjahan Garden, Agra - UPPCB",21-01-2026 08:00:00,27.169338,78.03582,SO2,22,33,29
India,Uttar_Pradesh,Agra,"Shastripuram, Agra - UPPCB",21-01-2026 08:00:00,27.19862,77.92066,SO2,14,25,19
India,Uttar_Pradesh,Agra,"Shastripuram, Agra - UPPCB",21-01-2026 08:00:00,27.19862,77.92066,OZONE,11,12,11
India,Uttar_Pradesh,Baghpat,"Sardar Patel Inter College, Baghpat - UPPCB",21-01-2026 08:00:00,28.964949,77.278761,PM2.5,94,341,249
India,Uttar_Pradesh,Baghpat,"Sardar Patel Inter College, Baghpat - UPPCB",21-01-2026 08:00:00,28.964949,77.278761,PM10,116,234,177
India,Uttar_Pradesh,Baghpat,"Sardar Patel Inter College, Baghpat - UPPCB",21-01-2026 08:00:00,28.964949,77.278761,NO2,12,35,22
India,Uttar_Pradesh,Bareilly,"Civil Lines, Bareilly - UPPCB",21-01-2026 08:00:00,28.359581,79.414455,PM2.5,11,54,31
India,Uttar_Pradesh,Bulandshahr,"Yamunapuram, Bulandshahr - UPPCB",21-01-2026 08:00:00,28.406963,77.849831,PM10,141,317,200
India,Uttar_Pradesh,Bulandshahr,"Yamunapuram, Bulandshahr - UPPCB",21-01-2026 08:00:00,28.406963,77.849831,NO2,40,137,85
India,Uttar_Pradesh,Firozabad,"Nagla Bhau, Firozabad - UPPCB",21-01-2026 08:00:00,27.168897,78.376960,PM2.5,34,94,63
India,Uttar_Pradesh,Firozabad,"Nagla Bhau, Firozabad - UPPCB",21-01-2026 08:00:00,27.168897,78.376960,NO2,17,17,17
India,Uttar_Pradesh,Firozabad,"Nagla Bhau, Firozabad - UPPCB",21-01-2026 08:00:00,27.168897,78.376960,SO2,20,71,51
India,Uttar_Pradesh,Firozabad,"Nagla Bhau, Firozabad - UPPCB",21-01-2026 08:00:00,27.168897,78.376960,CO,18,65,49
India,Uttar_Pradesh,Firozabad,"Nagla Bhau, Firozabad - UPPCB",21-01-2026 08:00:00,27.168897,78.376960,OZONE,14,15,14
India,Uttar_Pradesh,Ghaziabad,"Indirapuram, Ghaziabad - UPPCB",21-01-2026 08:00:00,28.646233,77.358075,PM10,150,500,341
India,Uttar_Pradesh,Ghaziabad,"Indirapuram, Ghaziabad - UPPCB",21-01-2026 08:00:00,28.646233,77.358075,NH3,7,14,8
India,Telangana,Hyderabad,"Nacharam_TSIIC IALA, Hyderabad - TSPCB",21-01-2026 08:00:00,17.429398,78.569354,NH3,4,8,6
India,Telangana,Hyderabad,"Nacharam_TSIIC IALA, Hyderabad - TSPCB",21-01-2026 08:00:00,17.429398,78.569354,CO,18,33,29
India,Telangana,Hyderabad,"New Malakpet, Hyderabad - TSPCB",21-01-2026 08:00:00,17.37206,78.50864,PM10,80,89,84
India,Telangana,Hyderabad,"New Malakpet, Hyderabad - TSPCB",21-01-2026 08:00:00,17.37206,78.50864,OZONE,15,42,17
India,Telangana,Hyderabad,"Sanathnagar, Hyderabad - TSPCB",21-01-2026 08:00:00,17.4559458,78.4332152,SO2,5,32,12
India,Telangana,Hyderabad,"Somajiguda, Hyderabad - TSPCB",21-01-2026 08:00:00,17.417094,78.457437,PM10,95,102,100
India,Telangana,Hyderabad,"Somajiguda, Hyderabad - TSPCB",21-01-2026 08:00:00,17.417094,78.457437,CO,15,31,20
India,Uttar_Pradesh,Hapur,"Anand Vihar, Hapur - UPPCB",21-01-2026 08:00:00,28.725645,77.749675,NO2,3,23,12
India,Uttar_Pradesh,Kanpur,"FTI Kidwai Nagar, Kanpur - UPPCB",21-01-2026 08:00:00,26.428282,80.327067,SO2,24,32,28
India,Uttar_Pradesh,Kanpur,"FTI Kidwai Nagar, Kanpur - UPPCB",21-01-2026 08:00:00,26.428282,80.327067,CO,37,60,49
India,Uttar_Pradesh,Kanpur,"FTI Kidwai Nagar, Kanpur - UPPCB",21-01-2026 08:00:00,26.428282,80.327067,OZONE,9,10,9
India,Uttar_Pradesh,Kanpur,"NSI Kalyanpur, Kanpur - UPPCB",21-01-2026 08:00:00,26.509954,80.249612,NH3,5,5,5
India,Uttar_Pradesh,Khurja,"Kalindi Kunj, Khurja - UPPCB",21-01-2026 08:00:00,28.2348927,77.8683002,PM10,91,287,172
India,Tripura,Agartala,"Bardowali, Agartala - Tripura SPCB",21-01-2026 08:00:00,23.8175497,91.2726974,PM2.5,16,62,34
India,Tripura,Agartala,"Bardowali, Agartala - Tripura SPCB",21-01-2026 08:00:00,23.8175497,91.2726974,NO2,13,13,13
India,Tripura,Agartala,"Bardowali, Agartala - Tripura SPCB",21-01-2026 08:00:00,23.8175497,91.2726974,CO,26,40,30
India,Uttar_Pradesh,Agra,"Manoharpur, Agra - UPPCB",21-01-2026 08:00:00,27.23711,78.01936,CO,20,25,22
India,Uttar_Pradesh,Agra,"Sanjay Palace, Agra - UPPCB",21-01-2026 08:00:00,27.19865833,78.00598056,PM10,101,453,192
India,Uttar_Pradesh,Agra,"Sanjay Palace, Agra - UPPCB",21-01-2026 08:00:00,27.19865833,78.00598056,SO2,17,19,18
India,TamilNadu,Pudukottai,"SIPCOT Nathampannai, Pudukottai - TNPCB",21-01-2026 08:00:00,10.423417,78.784889,NO2,3,17,7
India,TamilNadu,Thanjavur,"Parisutham Nagar, Thanjavur - TNPCB",21-01-2026 08:00:00,10.7654824,79.1389968,PM10,NA,NA,NA
India,Telangana,Hyderabad,"Central University, Hyderabad - TSPCB",21-01-2026 08:00:00,17.460103,78.334361,SO2,4,11,9
India,Telangana,Hyderabad,"Central University, Hyderabad - TSPCB",21-01-2026 08:00:00,17.460103,78.334361,OZONE,14,17,16
India,Telangana,Hyderabad,"ECIL Kapra, Hyderabad - TSPCB",21-01-2026 08:00:00,17.470431,78.566959,NH3,NA,NA,NA
India,Uttar_Pradesh,Lucknow,"B R Ambedkar University, Lucknow - UPPCB",21-01-2026 08:00:00,26.766433,80.927299,PM2.5,20,115,63
India,Uttar_Pradesh,Lucknow,"B R Ambedkar University, Lucknow - UPPCB",21-01-2026 08:00:00,26.766433,80.927299,PM10,50,121,87
India,Uttar_Pradesh,Lucknow,"Gomti Nagar, Lucknow - UPPCB",21-01-2026 08:00:00,26.868120,81.005119,PM2.5,57,215,114
India,Uttar_Pradesh,Lucknow,"Kendriya Vidyalaya, Lucknow - CPCB",21-01-2026 08:00:00,26.906111,80.948222,PM2.5,97,310,192
India,Uttar_Pradesh,Lucknow,"Kendriya Vidyalaya, Lucknow - CPCB",21-01-2026 08:00:00,26.906111,80.948222,PM10,136,191,164
India,Uttar_Pradesh,Lucknow,"Kendriya Vidyalaya, Lucknow - CPCB",21-01-2026 08:00:00,26.906111,80.948222,NO2,39,52,48
India,Telangana,Hyderabad,"ICRISAT Patancheru, Hyderabad - TSPCB",21-01-2026 08:00:00,17.518400,78.278777,CO,2,136,53
India,Telangana,Hyderabad,"IDA Pashamylaram, Hyderabad - TSPCB",21-01-2026 08:00:00,17.5316895,78.218939,PM2.5,NA,NA,NA
India,Telangana,Hyderabad,"IITH Kandi, Hyderabad - TSPCB",21-01-2026 08:00:00,17.585705,78.126199,PM2.5,29,61,46
India,Telangana,Hyderabad,"IITH Kandi, Hyderabad - TSPCB",21-01-2026 08:00:00,17.585705,78.126199,NO2,12,17,16
India,Uttar_Pradesh,Greater Noida,"Knowledge Park - III, Greater Noida - UPPCB",21-01-2026 08:00:00,28.47272,77.482000,SO2,7,17,12
India,Uttar_Pradesh,Greater Noida,"Knowledge Park - V, Greater Noida - UPPCB",21-01-2026 08:00:00,28.557054,77.453663,CO,22,120,48
India,Uttarakhand,Kashipur,"Govt. Girls Inter College, Kashipur - UKPCB",21-01-2026 08:00:00,29.2124114,78.9611753,PM10,58,132,94
India,West_Bengal,Asansol,"Asansol Court Area, Asansol - WBPCB",21-01-2026 08:00:00,23.685297,86.945968,PM2.5,79,343,254
India,West_Bengal,Asansol,"Asansol Court Area, Asansol - WBPCB",21-01-2026 08:00:00,23.685297,86.945968,NH3,2,9,5
India,West_Bengal,Asansol,"Evelyn Lodge, Asansol - WBPCB",21-01-2026 08:00:00,23.6979360,86.9443950,PM2.5,42,340,231
India,West_Bengal,Asansol,"Evelyn Lodge, Asansol - WBPCB",21-01-2026 08:00:00,23.6979360,86.9443950,OZONE,3,54,4
India,West_Bengal,Asansol,"Mahabir Colliery, Asansol - WBPCB",21-01-2026 08:00:00,23.6181830,87.1057180,SO2,6,20,11
India,West_Bengal,Asansol,"Mahabir Colliery, Asansol - WBPCB",21-01-2026 08:00:00,23.6181830,87.1057180,CO,16,137,89
India,West_Bengal,Asansol,"Trivenidevi Bhalotia College, Asansol - WBPCB",21-01-2026 08:00:00,23.616515,87.119133,PM2.5,72,347,233
India,West_Bengal,Asansol,"Trivenidevi Bhalotia College, Asansol - WBPCB",21-01-2026 08:00:00,23.616515,87.119133,NH3,7,8,8
India,Uttar_Pradesh,Lucknow,"Talkatora District Industries Center, Lucknow - CPCB",21-01-2026 08:00:00,26.83399722,80.8917361,PM10,107,170,138
India,Uttar_Pradesh,Meerut,"Ganga Nagar, Meerut - UPPCB",21-01-2026 08:00:00,28.999264,77.7590354,NO2,31,79,54
India,Uttar_Pradesh,Meerut,"Ganga Nagar, Meerut - UPPCB",21-01-2026 08:00:00,28.999264,77.7590354,NH3,12,16,14
India,Uttar_Pradesh,Meerut,"Jai Bhim Nagar, Meerut - UPPCB",21-01-2026 08:00:00,28.9535882,77.7622941,PM10,129,317,196
India,Uttar_Pradesh,Meerut,"Jai Bhim Nagar, Meerut - UPPCB",21-01-2026 08:00:00,28.9535882,77.7622941,NO2,11,39,22
India,Uttar_Pradesh,Meerut,"Pallavpuram Phase 2, Meerut - UPPCB",21-01-2026 08:00:00,29.063510,77.709723,PM2.5,91,399,281
India,Uttar_Pradesh,Meerut,"Pallavpuram Phase 2, Meerut - UPPCB",21-01-2026 08:00:00,29.063510,77.709723,NO2,12,25,19
India,Uttar_Pradesh,Meerut,"Pallavpuram Phase 2, Meerut - UPPCB",21-01-2026 08:00:00,29.063510,77.709723,CO,16,72,34
India,Uttar_Pradesh,Meerut,"Pallavpuram Phase 2, Meerut - UPPCB",21-01-2026 08:00:00,29.063510,77.709723,OZONE,2,120,9
India,Uttar_Pradesh,Moradabad,"Eco Herbal Park, Moradabad - UPPCB",21-01-2026 08:00:00,28.840739,78.697531,PM2.5,53,264,113
India,Uttar_Pradesh,Moradabad,"Eco Herbal Park, Moradabad - UPPCB",21-01-2026 08:00:00,28.840739,78.697531,NO2,21,63,34
India,Uttar_Pradesh,Moradabad,"Eco Herbal Park, Moradabad - UPPCB",21-01-2026 08:00:00,28.840739,78.697531,CO,33,77,64
India,Uttar_Pradesh,Moradabad,"Employment Office, Moradabad - UPPCB",21-01-2026 08:00:00,28.88528,78.73880,NH3,4,4,4
India,Uttar_Pradesh,Moradabad,"Jigar Colony, Moradabad - UPPCB",21-01-2026 08:00:00,28.856664,78.772638,SO2,39,74,49
India,Uttar_Pradesh,Moradabad,"Kashiram Nagar, Moradabad - UPPCB",21-01-2026 08:00:00,28.849399,78.742362,PM2.5,39,199,99
India,Uttar_Pradesh,Moradabad,"Kashiram Nagar, Moradabad - UPPCB",21-01-2026 08:00:00,28.849399,78.742362,PM10,63,142,108
India,Uttar_Pradesh,Moradabad,"Kashiram Nagar, Moradabad - UPPCB",21-01-2026 08:00:00,28.849399,78.742362,SO2,6,133,61
India,Uttar_Pradesh,Moradabad,"Transport Nagar, Moradabad - UPPCB",21-01-2026 08:00:00,28.802625,78.753728,PM10,54,129,90
India,Uttar_Pradesh,Varanasi,"IESD Banaras Hindu University, Varanasi - UPPCB",21-01-2026 08:00:00,25.262326,82.995408,NO2,2,2,2
India,Uttar_Pradesh,Varanasi,"IESD Banaras Hindu University, Varanasi - UPPCB",21-01-2026 08:00:00,25.262326,82.995408,OZONE,1,42,13
India,Uttar_Pradesh,Varanasi,"Maldahiya, Varanasi - UPPCB",21-01-2026 08:00:00,25.32393,82.99687,PM2.5,66,306,160
India,Uttar_Pradesh,Varanasi,"Maldahiya, Varanasi - UPPCB",21-01-2026 08:00:00,25.32393,82.99687,PM10,73,199,126
India,Uttar_Pradesh,Varanasi,"Maldahiya, Varanasi - UPPCB",21-01-2026 08:00:00,25.32393,82.99687,OZONE,1,3,1
India,Uttar_Pradesh,Vrindavan,"Omex Eternity, Vrindavan - UPPCB",21-01-2026 08:00:00,27.5714090,77.6557570,NO2,12,27,25
India,Uttar_Pradesh,Vrindavan,"Omex Eternity, Vrindavan - UPPCB",21-01-2026 08:00:00,27.5714090,77.6557570,NH3,2,10,8
India,Uttarakhand,Dehradun,"Doon University, Dehradun - UKPCB",21-01-2026 08:00:00,30.269444,78.044167,SO2,2,2,2
India,Uttarakhand,Dehradun,"Doon University, Dehradun - UKPCB",21-01-2026 08:00:00,30.269444,78.044167,CO,8,12,11
India,Uttar_Pradesh,Prayagraj,"Jhunsi, Prayagraj - UPPCB",21-01-2026 08:00:00,25.425602,81.917152,CO,14,52,34
India,Uttar_Pradesh,Prayagraj,"Motilal Nehru NIT, Prayagraj - UPPCB",21-01-2026 08:00:00,25.494,81.863,PM2.5,71,222,156
India,Uttar_Pradesh,Prayagraj,"Motilal Nehru NIT, Prayagraj - UPPCB",21-01-2026 08:00:00,25.494,81.863,NO2,11,12,12
India,Uttar_Pradesh,Prayagraj,"Nagar Nigam, Prayagraj - UPPCB",21-01-2026 08:00:00,25.44919916 ,81.82735986 ,NO2,5,5,5
India,Uttar_Pradesh,Varanasi,"Ardhali Bazar, Varanasi - UPPCB",21-01-2026 08:00:00,25.3505986,82.9083074,PM2.5,20,39,30
India,Uttar_Pradesh,Varanasi,"Ardhali Bazar, Varanasi - UPPCB",21-01-2026 08:00:00,25.3505986,82.9083074,NO2,55,96,68
India,Uttar_Pradesh,Varanasi,"Ardhali Bazar, Varanasi - UPPCB",21-01-2026 08:00:00,25.3505986,82.9083074,SO2,8,12,11
India,Uttar_Pradesh,Varanasi,"Ardhali Bazar, Varanasi - UPPCB",21-01-2026 08:00:00,25.3505986,82.9083074,OZONE,6,27,18
India,West_Bengal,Haldia,"Priyambada Housing Estate, Haldia - WBPCB",21-01-2026 08:00:00,22.06047,88.109737,OZONE,14,20,15
India,West_Bengal,Howrah,"Belur Math, Howrah - WBPCB",21-01-2026 08:00:00,22.629801,88.352017,PM2.5,175,343,272
India,West_Bengal,Howrah,"Belur Math, Howrah - WBPCB",21-01-2026 08:00:00,22.629801,88.352017,OZONE,24,66,28
India,West_Bengal,Howrah,"Dasnagar, Howrah - WBPCB",21-01-2026 08:00:00,22.6025571,88.3105664,SO2,15,101,42
India,West_Bengal,Howrah,"Ghusuri, Howrah - WBPCB",21-01-2026 08:00:00,22.611968,88.347422,PM2.5,186,438,331
India,West_Bengal,Howrah,"Ghusuri, Howrah - WBPCB",21-01-2026 08:00:00,22.611968,88.347422,NO2,5,37,23
India,West_Bengal,Howrah,"Padmapukur, Howrah - WBPCB",21-01-2026 08:00:00,22.5687319,88.2797276,PM10,153,466,309
India,West_Bengal,Asansol,"Trivenidevi Bhalotia College, Asansol - WBPCB",21-01-2026 08:00:00,23.616515,87.119133,SO2,10,21,13
India,West_Bengal,Barrackpore,"SVSPA Campus, Barrackpore - WBPCB",21-01-2026 08:00:00,22.7605581,88.3617589,CO,58,115,106
India,West_Bengal,Durgapur,"PCBL Residential Complex, Durgapur - WBPCB",21-01-2026 08:00:00,23.5087640,87.3544400,PM10,85,187,140
India,West_Bengal,Durgapur,"PCBL Residential Complex, Durgapur - WBPCB",21-01-2026 08:00:00,23.5087640,87.3544400,NO2,45,72,56
India,West_Bengal,Haldia,"Priyambada Housing Estate, Haldia - WBPCB",21-01-2026 08:00:00,22.06047,88.109737,NO2,15,81,35
India,Uttar_Pradesh,Muzaffarnagar,"New Mandi, Muzaffarnagar - UPPCB",21-01-2026 08:00:00,29.4723508,77.7194031,NO2,38,111,64
India,Uttar_Pradesh,Muzaffarnagar,"New Mandi, Muzaffarnagar - UPPCB",21-01-2026 08:00:00,29.4723508,77.7194031,NH3,14,22,16
India,Uttar_Pradesh,Muzaffarnagar,"New Mandi, Muzaffarnagar - UPPCB",21-01-2026 08:00:00,29.4723508,77.7194031,SO2,11,33,20
India,Uttar_Pradesh,Noida,"Sector - 125, Noida - UPPCB",21-01-2026 08:00:00,28.5447608,77.3231257,NO2,34,161,100
India,Uttar_Pradesh,Noida,"Sector - 62, Noida - IMD",21-01-2026 08:00:00,28.6245479,77.3577104,CO,20,66,37
India,Uttar_Pradesh,Noida,"Sector-116, Noida - UPPCB",21-01-2026 08:00:00,28.569230,77.393848,PM10,129,439,284
India,Uttar_Pradesh,Lucknow,"Kukrail Picnic Spot-1, Lucknow - UPPCB",21-01-2026 08:00:00,26.90723,80.98579,SO2,42,47,44
India,Uttar_Pradesh,Lucknow,"Lalbagh, Lucknow - CPCB",21-01-2026 08:00:00,26.8458805,80.9365541,PM2.5,67,435,209
India,West_Bengal,Howrah,"Padmapukur, Howrah - WBPCB",21-01-2026 08:00:00,22.5687319,88.2797276,CO,9,121,96
India,West_Bengal,Kolkata,"Bidhannagar, Kolkata - WBPCB",21-01-2026 08:00:00,22.58157048,88.41002457,NH3,5,53,13
India,West_Bengal,Kolkata,"Bidhannagar, Kolkata - WBPCB",21-01-2026 08:00:00,22.58157048,88.41002457,OZONE,13,57,14
India,West_Bengal,Kolkata,"Fort William, Kolkata - WBPCB",21-01-2026 08:00:00,22.556640,88.342674,PM10,119,210,167
India,West_Bengal,Kolkata,"Fort William, Kolkata - WBPCB",21-01-2026 08:00:00,22.556640,88.342674,NH3,9,11,10
India,West_Bengal,Kolkata,"Jadavpur, Kolkata - WBPCB",21-01-2026 08:00:00,22.49929,88.36917,PM10,149,403,245
India,West_Bengal,Kolkata,"Jadavpur, Kolkata - WBPCB",21-01-2026 08:00:00,22.49929,88.36917,NO2,34,99,64
India,West_Bengal,Kolkata,"Jadavpur, Kolkata - WBPCB",21-01-2026 08:00:00,22.49929,88.36917,NH3,6,17,11
India,West_Bengal,Kolkata,"Rabindra Bharati University, Kolkata - WBPCB",21-01-2026 08:00:00,22.627847,88.380669,NO2,70,225,160
India,West_Bengal,Kolkata,"Rabindra Bharati University, Kolkata - WBPCB",21-01-2026 08:00:00,22.627847,88.380669,CO,64,130,112
India,West_Bengal,Kolkata,"Rabindra Sarobar, Kolkata - WBPCB",21-01-2026 08:00:00,22.51106,88.35142,PM2.5,112,252,188
India,West_Bengal,Kolkata,"Rabindra Sarobar, Kolkata - WBPCB",21-01-2026 08:00:00,22.51106,88.35142,CO,65,129,113
India,West_Bengal,Siliguri,"Ward-32 Bapupara, Siliguri - WBPCB",21-01-2026 08:00:00,26.6879226,88.4152495,PM2.5,NA,NA,NA
India,West_Bengal,Siliguri,"Ward-32 Bapupara, Siliguri - WBPCB",21-01-2026 08:00:00,26.6879226,88.4152495,OZONE,NA,NA,NA
India,Andhra_Pradesh,Vijayawada,"HB Colony, Vijayawada - APPCB",21-01-2026 08:00:00,16.536107,80.594233,NH3,3,5,4
India,Andhra_Pradesh,Vijayawada,"Kanuru, Vijayawada - APPCB",21-01-2026 08:00:00,16.486692,80.699436,SO2,13,25,16
India,Andhra_Pradesh,Vijayawada,"Rajiv Gandhi Park, Vijayawada - APPCB",21-01-2026 08:00:00,16.509717,80.612222,PM10,63,106,91
India,Andhra_Pradesh,Vijayawada,"Rajiv Gandhi Park, Vijayawada - APPCB",21-01-2026 08:00:00,16.509717,80.612222,CO,27,36,30
India,Andhra_Pradesh,Vijayawada,"Rajiv Gandhi Park, Vijayawada - APPCB",21-01-2026 08:00:00,16.509717,80.612222,OZONE,1,46,4
India,Andhra_Pradesh,Vijayawada,"Rajiv Nagar, Vijayawada - APPCB",21-01-2026 08:00:00,16.554731,80.649110,NO2,15,28,19
India,Andhra_Pradesh,Visakhapatnam,"GVM Corporation, Visakhapatnam - APPCB",21-01-2026 08:00:00,17.72,83.3,PM2.5,122,342,251
India,Andhra_Pradesh,Visakhapatnam,"GVM Corporation, Visakhapatnam - APPCB",21-01-2026 08:00:00,17.72,83.3,PM10,131,479,240
India,Andhra_Pradesh,Visakhapatnam,"GVM Corporation, Visakhapatnam - APPCB",21-01-2026 08:00:00,17.72,83.3,OZONE,4,92,12
India,Andhra_Pradesh,Chittoor,"Gangineni Cheruvu, Chittoor - APPCB",21-01-2026 08:00:00,13.204880,79.097889,OZONE,49,67,52
India,Andhra_Pradesh,Kadapa,"Yerramukkapalli, Kadapa - APPCB",21-01-2026 08:00:00,14.465052,78.824187,CO,4,9,6
India,Andhra_Pradesh,Rajamahendravaram,"Anand Kala Kshetram, Rajamahendravaram - APPCB",21-01-2026 08:00:00,16.9872867,81.7363176,PM2.5,148,306,218
India,Andhra_Pradesh,Rajamahendravaram,"Anand Kala Kshetram, Rajamahendravaram - APPCB",21-01-2026 08:00:00,16.9872867,81.7363176,NH3,7,12,9
India,Andhra_Pradesh,Tirumala,"Toll Gate, Tirumala - APPCB",21-01-2026 08:00:00,13.67,79.35,PM2.5,40,167,98
India,Andhra_Pradesh,Tirumala,"Toll Gate, Tirumala - APPCB",21-01-2026 08:00:00,13.67,79.35,NO2,30,52,39
India,Andhra_Pradesh,Tirupati,"Vaikuntapuram, Tirupati - APPCB",21-01-2026 08:00:00,13.615387,79.409230,PM10,94,108,98
India,Bihar,Munger,"Town Hall, Munger - BSPCB",21-01-2026 08:00:00,25.376776,86.471523,PM2.5,47,140,64
India,Bihar,Munger,"Town Hall, Munger - BSPCB",21-01-2026 08:00:00,25.376776,86.471523,CO,25,39,30
India,Bihar,Muzaffarpur,"Buddha Colony, Muzaffarpur - BSPCB",21-01-2026 08:00:00,26.11442,85.39813,PM2.5,85,215,148
India,Bihar,Muzaffarpur,"Buddha Colony, Muzaffarpur - BSPCB",21-01-2026 08:00:00,26.11442,85.39813,NH3,9,13,10
India,Bihar,Muzaffarpur,"MIT-Daudpur Kothi, Muzaffarpur - BSPCB",21-01-2026 08:00:00,26.1403345,85.3650192,PM2.5,100,120,106
India,Bihar,Muzaffarpur,"MIT-Daudpur Kothi, Muzaffarpur - BSPCB",21-01-2026 08:00:00,26.1403345,85.3650192,NH3,2,2,2
India,Bihar,Muzaffarpur,"Muzaffarpur Collectorate, Muzaffarpur - BSPCB",21-01-2026 08:00:00,26.1209,85.3647,NO2,9,15,11
India,Bihar,Muzaffarpur,"Muzaffarpur Collectorate, Muzaffarpur - BSPCB",21-01-2026 08:00:00,26.1209,85.3647,SO2,4,6,5
India,Bihar,Bhagalpur,"Mayaganj, Bhagalpur - BSPCB",21-01-2026 08:00:00,25.265194,87.012947,PM2.5,58,137,99
India,Bihar,Bhagalpur,"Mayaganj, Bhagalpur - BSPCB",21-01-2026 08:00:00,25.265194,87.012947,PM10,103,159,139
India,Bihar,Bhagalpur,"Mayaganj, Bhagalpur - BSPCB",21-01-2026 08:00:00,25.265194,87.012947,NO2,6,8,7
India,Bihar,Bhagalpur,"Mayaganj, Bhagalpur - BSPCB",21-01-2026 08:00:00,25.265194,87.012947,SO2,53,64,58
India,Bihar,Bhagalpur,"Mayaganj, Bhagalpur - BSPCB",21-01-2026 08:00:00,25.265194,87.012947,CO,80,98,88
India,Bihar,Buxar,"Charitra Van, Buxar - BSPCB",21-01-2026 08:00:00,25.567520,83.966379,PM2.5,93,193,143
India,Bihar,Buxar,"Charitra Van, Buxar - BSPCB",21-01-2026 08:00:00,25.567520,83.966379,OZONE,3,22,9
India,Bihar,Gaya,"Kareemganj, Gaya - BSPCB",21-01-2026 08:00:00,24.792403,84.992416,PM10,108,344,193
India,Bihar,Gaya,"Kareemganj, Gaya - BSPCB",21-01-2026 08:00:00,24.792403,84.992416,NH3,4,6,5
India,Bihar,Gaya,"SFTI Kusdihra, Gaya - BSPCB",21-01-2026 08:00:00,24.762518,84.982348,PM10,57,106,72
India,Bihar,Katihar,"Mirchaibari, Katihar - BSPCB",21-01-2026 08:00:00,25.560083,87.553265,PM2.5,77,170,105
India,Bihar,Katihar,"Mirchaibari, Katihar - BSPCB",21-01-2026 08:00:00,25.560083,87.553265,NH3,1,1,1
India,Bihar,Katihar,"Mirchaibari, Katihar - BSPCB",21-01-2026 08:00:00,25.560083,87.553265,SO2,18,26,21
India,Bihar,Katihar,"Mirchaibari, Katihar - BSPCB",21-01-2026 08:00:00,25.560083,87.553265,CO,72,102,90
India,Bihar,Kishanganj,"SDM Office_Khagra, Kishanganj - BSPCB",21-01-2026 08:00:00,26.0881305,87.93840336,PM10,29,100,65
India,Bihar,Kishanganj,"SDM Office_Khagra, Kishanganj - BSPCB",21-01-2026 08:00:00,26.0881305,87.93840336,NO2,9,12,11
India,Bihar,Kishanganj,"SDM Office_Khagra, Kishanganj - BSPCB",21-01-2026 08:00:00,26.0881305,87.93840336,OZONE,16,18,16
India,Bihar,Aurangabad,"Gurdeo Nagar, Aurangabad - BSPCB",21-01-2026 08:00:00,24.75746,84.366208,PM10,101,166,131
India,Bihar,Aurangabad,"Gurdeo Nagar, Aurangabad - BSPCB",21-01-2026 08:00:00,24.75746,84.366208,CO,81,103,102
India,Bihar,Aurangabad,"Gurdeo Nagar, Aurangabad - BSPCB",21-01-2026 08:00:00,24.75746,84.366208,OZONE,2,51,8
India,Bihar,Bettiah,"Kamalnath Nagar, Bettiah - BSPCB",21-01-2026 08:00:00,26.80365,84.51954,PM10,64,147,110
India,Bihar,Bettiah,"Kamalnath Nagar, Bettiah - BSPCB",21-01-2026 08:00:00,26.80365,84.51954,SO2,11,31,20
India,Bihar,Bhagalpur,"DM Office_Kachari Chowk, Bhagalpur - BSPCB",21-01-2026 08:00:00,25.251013,86.989001,OZONE,10,23,17
India,Bihar,Patna,"DRM Office Danapur, Patna - BSPCB",21-01-2026 08:00:00,25.586562,85.043586,CO,10,121,40
India,Bihar,Patna,"DRM Office Danapur, Patna - BSPCB",21-01-2026 08:00:00,25.586562,85.043586,OZONE,3,31,15
India,Bihar,Patna,"IGSC Planetarium Complex, Patna - BSPCB",21-01-2026 08:00:00,25.610369,85.132568,SO2,1,32,9
India,Bihar,Patna,"IGSC Planetarium Complex, Patna - BSPCB",21-01-2026 08:00:00,25.610369,85.132568,OZONE,28,30,29
India,Bihar,Patna,"Rajbansi Nagar, Patna - BSPCB",21-01-2026 08:00:00,25.599486,85.113666,NO2,32,146,80
India,Bihar,Patna,"Rajbansi Nagar, Patna - BSPCB",21-01-2026 08:00:00,25.599486,85.113666,SO2,5,7,6
India,Bihar,Patna,"Rajbansi Nagar, Patna - BSPCB",21-01-2026 08:00:00,25.599486,85.113666,CO,28,92,47
India,Assam,Nagaon,"Christianpatty, Nagaon - PCBA",21-01-2026 08:00:00,26.349082,92.68449,OZONE,5,9,9
India,Assam,Nalbari,"Bata Chowk, Nalbari - PCBA",21-01-2026 08:00:00,26.446912,91.439057,NH3,6,6,6
India,Assam,Silchar,"Tarapur, Silchar - PCBA",21-01-2026 08:00:00,24.82827,92.79525,PM2.5,6,71,39
India,Bihar,Araria,"Kharahiya Basti, Araria - BSPCB",21-01-2026 08:00:00,26.146529,87.454184,PM2.5,22,267,141
India,Assam,Guwahati,"LGBI Airport, Guwahati - PCBA",21-01-2026 08:00:00,26.10887,91.589544,NO2,13,20,15
India,Assam,Guwahati,"LGBI Airport, Guwahati - PCBA",21-01-2026 08:00:00,26.10887,91.589544,SO2,7,13,12
India,Assam,Guwahati,"Pan Bazaar, Guwahati - PCBA",21-01-2026 08:00:00,26.187500,91.744194,PM2.5,71,305,186
India,Assam,Guwahati,"Railway Colony, Guwahati - PCBA",21-01-2026 08:00:00,26.181742,91.78063,CO,36,109,93
India,Andaman and Nicobar,Sri Vijaya Puram,"Police Line, Sri Vijaya Puram - ANPCC",21-01-2026 08:00:00,11.654054,92.734055,PM2.5,NA,NA,NA
India,Andaman and Nicobar,Sri Vijaya Puram,"Police Line, Sri Vijaya Puram - ANPCC",21-01-2026 08:00:00,11.654054,92.734055,SO2,NA,NA,NA
India,Chhattisgarh,Korba,"Rampur, Korba - CECB",21-01-2026 08:00:00,22.368195,82.746431,PM2.5,58,99,70
India,Chhattisgarh,Korba,"Rampur, Korba - CECB",21-01-2026 08:00:00,22.368195,82.746431,PM10,65,107,78
India,Chhattisgarh,Korba,"Rampur, Korba - CECB",21-01-2026 08:00:00,22.368195,82.746431,NH3,1,1,1
India,Chhattisgarh,Korba,"Urja Nagar, Korba - CECB",21-01-2026 08:00:00,22.348441,82.549611,PM2.5,1,419,117
India,Chhattisgarh,Korba,"Urja Nagar, Korba - CECB",21-01-2026 08:00:00,22.348441,82.549611,NH3,1,1,1
India,Chhattisgarh,Korba,"Urja Nagar, Korba - CECB",21-01-2026 08:00:00,22.348441,82.549611,OZONE,12,12,12
India,Chhattisgarh,Kunjemura,"OP Jindal School, Kunjemura - CECB",21-01-2026 08:00:00,22.126650,83.483212,SO2,NA,NA,NA
India,Chhattisgarh,Milupara,"Govt. Higher Secondary School, Milupara - CECB",21-01-2026 08:00:00,22.1910172,83.5197009,SO2,13,28,16
India,Chhattisgarh,Raipur,"AIIMS, Raipur - CECB",21-01-2026 08:00:00,21.258815,81.578979,NO2,50,61,54
India,Chhattisgarh,Raipur,"AIIMS, Raipur - CECB",21-01-2026 08:00:00,21.258815,81.578979,OZONE,1,2,1
India,Chhattisgarh,Raipur,"Bhatagaon New ISBT, Raipur - CECB",21-01-2026 08:00:00,21.219665,81.630094,PM2.5,25,94,64
India,Delhi,Delhi,"Major Dhyan Chand National Stadium, Delhi - DPCC",21-01-2026 08:00:00,28.611281,77.237738,SO2,4,12,8
India,Delhi,Delhi,"Major Dhyan Chand National Stadium, Delhi - DPCC",21-01-2026 08:00:00,28.611281,77.237738,OZONE,1,174,2
India,Delhi,Delhi,"Mandir Marg, Delhi - DPCC",21-01-2026 08:00:00,28.636429,77.201067,OZONE,8,151,10
India,Delhi,Delhi,"Mundka, Delhi - DPCC",21-01-2026 08:00:00,28.684678,77.076574,PM2.5,213,443,378
India,Delhi,Delhi,"Mundka, Delhi - DPCC",21-01-2026 08:00:00,28.684678,77.076574,PM10,157,423,303
India,Delhi,Delhi,"NSIT Dwarka, Delhi - CPCB",21-01-2026 08:00:00,28.60909,77.0325413,NO2,44,83,62
India,Delhi,Delhi,"NSIT Dwarka, Delhi - CPCB",21-01-2026 08:00:00,28.60909,77.0325413,NH3,6,10,7
India,Delhi,Delhi,"Najafgarh, Delhi - DPCC",21-01-2026 08:00:00,28.570173,76.933762,NO2,53,162,120
India,Delhi,Delhi,"Narela, Delhi - DPCC",21-01-2026 08:00:00,28.822836,77.101981,PM2.5,178,462,354
India,Delhi,Delhi,"Narela, Delhi - DPCC",21-01-2026 08:00:00,28.822836,77.101981,NH3,8,11,9
India,Delhi,Delhi,"IHBAS, Dilshad Garden, Delhi - CPCB",21-01-2026 08:00:00,28.6811736,77.3025234,CO,42,100,91
India,Delhi,Delhi,"IIT Delhi, Delhi - IITM",21-01-2026 08:00:00,28.542460,77.191651,CO,25,109,97
India,Delhi,Delhi,"ITO, Delhi - CPCB",21-01-2026 08:00:00,28.628624,77.241060,NH3,1,4,3
India,Delhi,Delhi,"ITO, Delhi - CPCB",21-01-2026 08:00:00,28.628624,77.241060,SO2,8,20,13
India,Delhi,Delhi,"Jahangirpuri, Delhi - DPCC",21-01-2026 08:00:00,28.732820,77.170633,PM10,135,460,312
India,Delhi,Delhi,"Jahangirpuri, Delhi - DPCC",21-01-2026 08:00:00,28.732820,77.170633,NH3,16,35,28
India,Delhi,Delhi,"Jahangirpuri, Delhi - DPCC",21-01-2026 08:00:00,28.732820,77.170633,OZONE,5,91,27
India,Delhi,Delhi,"Lodhi Road, Delhi - IMD",21-01-2026 08:00:00,28.5918245,77.2273074,PM2.5,129,361,286
India,Delhi,Delhi,"Lodhi Road, Delhi - IMD",21-01-2026 08:00:00,28.5918245,77.2273074,PM10,101,190,153
India,Bihar,Samastipur,"DM Office_Kasipur, Samastipur - BSPCB",21-01-2026 08:00:00,25.859655,85.77944,OZONE,7,8,8
India,Bihar,Sasaram,"Dada Peer, Sasaram - BSPCB",21-01-2026 08:00:00,24.952822,84.002396,PM2.5,29,60,43
India,Bihar,Sasaram,"Dada Peer, Sasaram - BSPCB",21-01-2026 08:00:00,24.952822,84.002396,NO2,2,3,2
India,Bihar,Siwan,"Chitragupta Nagar, Siwan - BSPCB",21-01-2026 08:00:00,26.2271665,84.3570427,PM2.5,50,160,92
India,Chandigarh,Chandigarh,"Sector 22, Chandigarh - CPCC",21-01-2026 08:00:00,30.735567,76.775714,SO2,3,24,11
India,Chandigarh,Chandigarh,"Sector 22, Chandigarh - CPCC",21-01-2026 08:00:00,30.735567,76.775714,OZONE,5,128,6
India,Chandigarh,Chandigarh,"Sector-25, Chandigarh - CPCC",21-01-2026 08:00:00,30.751462,76.762879,NO2,9,29,18
India,Chhattisgarh,Bhilai,"32Bungalows, Bhilai - CECB",21-01-2026 08:00:00,21.194815,81.314770,PM2.5,15,61,39
India,Chhattisgarh,Bhilai,"32Bungalows, Bhilai - CECB",21-01-2026 08:00:00,21.194815,81.314770,SO2,6,8,8
India,Chhattisgarh,Bhilai,"Civic Center, Bhilai - Bhilai Steel Plant",21-01-2026 08:00:00,21.185571,81.343175,PM10,28,117,67
India,Chhattisgarh,Bhilai,"Civic Center, Bhilai - Bhilai Steel Plant",21-01-2026 08:00:00,21.185571,81.343175,NO2,10,17,11
India,Chhattisgarh,Bilaspur,"Mangala, Bilaspur - NTPC",21-01-2026 08:00:00,22.08815,82.13737,PM2.5,61,117,87
India,Chhattisgarh,Bilaspur,"Mangala, Bilaspur - NTPC",21-01-2026 08:00:00,22.08815,82.13737,NO2,15,210,52
India,Chhattisgarh,Chhal,"Nawapara SECL Colony, Chhal - CECB",21-01-2026 08:00:00,22.118125,83.140608,NO2,6,26,11
India,Chhattisgarh,Chhal,"Nawapara SECL Colony, Chhal - CECB",21-01-2026 08:00:00,22.118125,83.140608,NH3,5,6,5
India,Delhi,Delhi,"Chandni Chowk, Delhi - IITM",21-01-2026 08:00:00,28.656756,77.227234,PM10,177,500,334
India,Delhi,Delhi,"DTU, Delhi - CPCB",21-01-2026 08:00:00,28.7500499,77.1112615,PM2.5,140,449,349
India,Delhi,Delhi,"DTU, Delhi - CPCB",21-01-2026 08:00:00,28.7500499,77.1112615,OZONE,16,33,17
India,Delhi,Delhi,"Dr. Karni Singh Shooting Range, Delhi - DPCC",21-01-2026 08:00:00,28.498571,77.264840,OZONE,2,136,2
India,Delhi,Delhi,"IGI Airport (T3), Delhi - IMD",21-01-2026 08:00:00,28.5627763,77.1180053,PM10,127,454,269
India,Delhi,Delhi,"IHBAS, Dilshad Garden, Delhi - CPCB",21-01-2026 08:00:00,28.6811736,77.3025234,PM2.5,123,398,320
India,Delhi,Delhi,"IHBAS, Dilshad Garden, Delhi - CPCB",21-01-2026 08:00:00,28.6811736,77.3025234,PM10,174,307,226
India,Chhattisgarh,Raipur,"Bhatagaon New ISBT, Raipur - CECB",21-01-2026 08:00:00,21.219665,81.630094,OZONE,2,13,3
India,Chhattisgarh,Raipur,"Krishak Nagar, Raipur - CECB",21-01-2026 08:00:00,21.237755,81.705301,PM2.5,37,107,63
India,Chhattisgarh,Raipur,"Krishak Nagar, Raipur - CECB",21-01-2026 08:00:00,21.237755,81.705301,OZONE,13,71,13
India,Chhattisgarh,Raipur,"Siltara Phase-II, Raipur - CECB",21-01-2026 08:00:00,21.371751,81.664929,NH3,2,2,2
India,Chhattisgarh,Raipur,"Siltara Phase-II, Raipur - CECB",21-01-2026 08:00:00,21.371751,81.664929,CO,34,36,35
India,Chhattisgarh,Tumidih,"OP Jindal Industrial Park, Tumidih - CECB",21-01-2026 08:00:00,22.06631475,83.33820077,PM2.5,48,192,108
India,Chhattisgarh,Tumidih,"OP Jindal Industrial Park, Tumidih - CECB",21-01-2026 08:00:00,22.06631475,83.33820077,CO,16,48,37
India,Bihar,Patna,"Samanpura, Patna - BSPCB",21-01-2026 08:00:00,25.596727,85.085624,OZONE,8,90,19
India,Bihar,Purnia,"Mariam Nagar, Purnia - BSPCB",21-01-2026 08:00:00,25.366336,87.117468,NH3,3,3,3
India,Bihar,Rajgir,"Dangi Tola, Rajgir - BSPCB",21-01-2026 08:00:00,25.03280,85.41948,CO,70,104,90
India,Bihar,Samastipur,"DM Office_Kasipur, Samastipur - BSPCB",21-01-2026 08:00:00,25.859655,85.77944,PM10,81,365,123
India,Delhi,Delhi,"Ashok Vihar, Delhi - DPCC",21-01-2026 08:00:00,28.695381,77.181665,NH3,8,9,8
India,Delhi,Delhi,"Aya Nagar, Delhi - IMD",21-01-2026 08:00:00,28.4706914,77.1099364,PM10,125,428,281
India,Delhi,Delhi,"Aya Nagar, Delhi - IMD",21-01-2026 08:00:00,28.4706914,77.1099364,CO,60,117,102
India,Delhi,Delhi,"Aya Nagar, Delhi - IMD",21-01-2026 08:00:00,28.4706914,77.1099364,OZONE,8,73,8
India,Delhi,Delhi,"Bawana, Delhi - DPCC",21-01-2026 08:00:00,28.776200,77.051074,NH3,10,22,12
India,Gujarat,Ahmedabad,"SAC ISRO Bopal, Ahmedabad - IITM",21-01-2026 08:00:00,23.041137,72.456691,CO,11,74,29
India,Gujarat,Ahmedabad,"SAC ISRO Bopal, Ahmedabad - IITM",21-01-2026 08:00:00,23.041137,72.456691,OZONE,1,56,6
India,Gujarat,Ahmedabad,"SAC ISRO Satellite, Ahmedabad - IITM",21-01-2026 08:00:00,23.023389,72.515201,SO2,5,73,17
India,Gujarat,Ahmedabad,"SAC ISRO Satellite, Ahmedabad - IITM",21-01-2026 08:00:00,23.023389,72.515201,CO,12,84,54
India,Gujarat,Ahmedabad,"SVPI Airport Hansol, Ahmedabad - IITM",21-01-2026 08:00:00,23.076793,72.627874,PM2.5,38,127,69
India,Gujarat,Ahmedabad,"SVPI Airport Hansol, Ahmedabad - IITM",21-01-2026 08:00:00,23.076793,72.627874,NO2,11,98,48
India,Gujarat,Ahmedabad,"SVPI Airport Hansol, Ahmedabad - IITM",21-01-2026 08:00:00,23.076793,72.627874,NH3,2,12,6
India,Gujarat,Ahmedabad,"SVPI Airport Hansol, Ahmedabad - IITM",21-01-2026 08:00:00,23.076793,72.627874,OZONE,2,65,28
India,Gujarat,Ankleshwar,"GIDC, Ankleshwar - GPCB",21-01-2026 08:00:00,21.613267,73.010555,SO2,23,40,26
India,Gujarat,Gandhinagar,"GIFT City, Gandhinagar - IITM",21-01-2026 08:00:00,23.163798,72.677768,PM2.5,31,148,82
India,Gujarat,Gandhinagar,"GIFT City, Gandhinagar - IITM",21-01-2026 08:00:00,23.163798,72.677768,NH3,5,13,8
India,Gujarat,Gandhinagar,"GIFT City, Gandhinagar - IITM",21-01-2026 08:00:00,23.163798,72.677768,OZONE,1,52,16
India,Gujarat,Gandhinagar,"IIPHG Lekawada, Gandhinagar - IITM",21-01-2026 08:00:00,23.243639,72.68994,SO2,8,12,9
India,Delhi,Delhi,"Nehru Nagar, Delhi - DPCC",21-01-2026 08:00:00,28.567890,77.250515,OZONE,3,301,4
India,Delhi,Delhi,"North Campus, DU, Delhi - IMD",21-01-2026 08:00:00,28.6573814,77.1585447,PM2.5,112,456,337
India,Delhi,Delhi,"Okhla Phase-2, Delhi - DPCC",21-01-2026 08:00:00,28.530785,77.271255,PM10,131,424,298
India,Delhi,Delhi,"Okhla Phase-2, Delhi - DPCC",21-01-2026 08:00:00,28.530785,77.271255,SO2,1,61,15
India,Delhi,Delhi,"Okhla Phase-2, Delhi - DPCC",21-01-2026 08:00:00,28.530785,77.271255,CO,57,139,119
India,Delhi,Delhi,"Patparganj, Delhi - DPCC",21-01-2026 08:00:00,28.623763,77.287209,PM2.5,157,459,365
India,Delhi,Delhi,"Patparganj, Delhi - DPCC",21-01-2026 08:00:00,28.623763,77.287209,PM10,133,401,257
India,Delhi,Delhi,"Patparganj, Delhi - DPCC",21-01-2026 08:00:00,28.623763,77.287209,CO,4,162,107
India,Delhi,Delhi,"Patparganj, Delhi - DPCC",21-01-2026 08:00:00,28.623763,77.287209,OZONE,4,276,7
India,Delhi,Delhi,"Punjabi Bagh, Delhi - DPCC",21-01-2026 08:00:00,28.674045,77.131023,NH3,6,8,7
India,Delhi,Delhi,"Punjabi Bagh, Delhi - DPCC",21-01-2026 08:00:00,28.674045,77.131023,SO2,5,18,10
India,Haryana,Faridabad,"New Industrial Town, Faridabad - HSPCB",21-01-2026 08:00:00,28.39072,77.30059,SO2,8,9,8
India,Haryana,Faridabad,"New Industrial Town, Faridabad - HSPCB",21-01-2026 08:00:00,28.39072,77.30059,CO,10,13,12
India,Haryana,Faridabad,"Sector 11, Faridabad - HSPCB",21-01-2026 08:00:00,28.376058,77.315741,OZONE,14,16,15
India,Haryana,Fatehabad,"Huda Sector, Fatehabad - HSPCB",21-01-2026 08:00:00,29.503664,75.467934,PM2.5,98,396,208
India,Haryana,Gurugram,"NISE Gwal Pahari, Gurugram - IMD",21-01-2026 08:00:00,28.422681,77.148944,PM2.5,150,431,326
India,Haryana,Gurugram,"NISE Gwal Pahari, Gurugram - IMD",21-01-2026 08:00:00,28.422681,77.148944,NO2,23,88,46
India,Haryana,Gurugram,"Sector-51, Gurugram - HSPCB",21-01-2026 08:00:00,28.4227,77.0667,NO2,1,1,1
India,Haryana,Gurugram,"Sector-51, Gurugram - HSPCB",21-01-2026 08:00:00,28.4227,77.0667,NH3,7,8,8
India,Haryana,Gurugram,"Sector-51, Gurugram - HSPCB",21-01-2026 08:00:00,28.4227,77.0667,CO,25,104,72
India,Delhi,Delhi,"Pusa, Delhi - DPCC",21-01-2026 08:00:00,28.639652,77.146275,NO2,31,164,94
India,Delhi,Delhi,"R K Puram, Delhi - DPCC",21-01-2026 08:00:00,28.563262,77.186937,NO2,68,159,100
India,Delhi,Delhi,"R K Puram, Delhi - DPCC",21-01-2026 08:00:00,28.563262,77.186937,SO2,2,88,31
India,Delhi,Delhi,"R K Puram, Delhi - DPCC",21-01-2026 08:00:00,28.563262,77.186937,OZONE,8,143,9
India,Delhi,Delhi,"Shadipur, Delhi - CPCB",21-01-2026 08:00:00,28.6514781,77.1473105,CO,38,123,80
India,Delhi,Delhi,"Sirifort, Delhi - CPCB",21-01-2026 08:00:00,28.5504249,77.2159377,PM10,159,483,330
India,Delhi,Delhi,"Sirifort, Delhi - CPCB",21-01-2026 08:00:00,28.5504249,77.2159377,NH3,3,9,6
India,Haryana,Bahadurgarh,"Arya Nagar, Bahadurgarh - HSPCB",21-01-2026 08:00:00,28.6701,76.9254,OZONE,14,20,17
India,Haryana,Charkhi Dadri,"Mini Secretariat, Charkhi Dadri - HSPCB",21-01-2026 08:00:00,28.593883,76.270653,NH3,5,8,6
India,Haryana,Charkhi Dadri,"Mini Secretariat, Charkhi Dadri - HSPCB",21-01-2026 08:00:00,28.593883,76.270653,CO,8,25,15
India,Haryana,Dharuhera,"Municipal Corporation Office, Dharuhera -  HSPCB",21-01-2026 08:00:00,28.206800,76.799700,PM10,188,425,313
India,Haryana,Dharuhera,"Municipal Corporation Office, Dharuhera -  HSPCB",21-01-2026 08:00:00,28.206800,76.799700,NH3,11,31,23
India,Gujarat,Vapi,"Phase-1 GIDC, Vapi - GPCB",21-01-2026 08:00:00,20.362421,72.918013,OZONE,5,24,8
India,Gujarat,Vatva,"Phase-4 GIDC, Vatva - GPCB",21-01-2026 08:00:00,22.969611,72.643500,NH3,8,16,11
India,Haryana,Ambala,"Patti Mehar, Ambala - HSPCB",21-01-2026 08:00:00,30.379589,76.778328,PM10,79,113,98
India,Haryana,Bahadurgarh,"Arya Nagar, Bahadurgarh - HSPCB",21-01-2026 08:00:00,28.6701,76.9254,PM2.5,54,308,187
India,Delhi,Delhi,"Sirifort, Delhi - CPCB",21-01-2026 08:00:00,28.5504249,77.2159377,OZONE,14,20,15
India,Delhi,Delhi,"Wazirpur, Delhi - DPCC",21-01-2026 08:00:00,28.699793,77.165453,NO2,76,186,132
India,Delhi,Delhi,"Wazirpur, Delhi - DPCC",21-01-2026 08:00:00,28.699793,77.165453,SO2,8,14,11
India,Gujarat,Ahmedabad,"Chandkheda, Ahmedabad - IITM",21-01-2026 08:00:00,23.107969,72.574648,PM10,82,199,132
India,Gujarat,Ahmedabad,"Gyaspur, Ahmedabad - IITM",21-01-2026 08:00:00,22.977134,72.553024,CO,24,96,49
India,Gujarat,Ahmedabad,"Raikhad, Ahmedabad - IITM",21-01-2026 08:00:00,23.020509,72.579261,NO2,17,127,61
India,Gujarat,Gandhinagar,"Sector-10, Gandhinagar - GPCB",21-01-2026 08:00:00,23.221714,72.654328,NO2,NA,NA,NA
India,Gujarat,Gandhinagar,"Sector-10, Gandhinagar - GPCB",21-01-2026 08:00:00,23.221714,72.654328,NH3,NA,NA,NA
India,Gujarat,Gandhinagar,"Sector-10, Gandhinagar - GPCB",21-01-2026 08:00:00,23.221714,72.654328,OZONE,NA,NA,NA
India,Karnataka,Bengaluru,"Silk Board, Bengaluru - KSPCB",21-01-2026 08:00:00,12.917348,77.622813,PM2.5,50,230,93
India,Karnataka,Bengaluru,"Silk Board, Bengaluru - KSPCB",21-01-2026 08:00:00,12.917348,77.622813,CO,21,96,31
India,Karnataka,Chamarajanagar,"Urban, Chamarajanagar - KSPCB",21-01-2026 08:00:00,11.55358,76.55521,SO2,2,8,5
India,Karnataka,Chikkaballapur,"Chikkaballapur Rural, Chikkaballapur - KSPCB",21-01-2026 08:00:00,13.428828,77.731418,PM10,NA,NA,NA
India,Karnataka,Chikkaballapur,"Chikkaballapur Rural, Chikkaballapur - KSPCB",21-01-2026 08:00:00,13.428828,77.731418,SO2,NA,NA,NA
India,Karnataka,Chikkaballapur,"Chikkaballapur Rural, Chikkaballapur - KSPCB",21-01-2026 08:00:00,13.428828,77.731418,OZONE,NA,NA,NA
India,Karnataka,Chikkamagaluru,"Kalyana Nagara, Chikkamagaluru - KSPCB",21-01-2026 08:00:00,13.328028,75.797056,SO2,8,18,12
India,Karnataka,Chikkamagaluru,"Kalyana Nagara, Chikkamagaluru - KSPCB",21-01-2026 08:00:00,13.328028,75.797056,OZONE,12,43,13
India,Karnataka,Davanagere,"Devaraj Urs Badavane, Davanagere - KSPCB",21-01-2026 08:00:00,14.475800,75.905200,NO2,16,41,29
India,Karnataka,Dharwad,"Kalabhavan, Dharwad - KSPCB",21-01-2026 08:00:00,15.459706,75.008381,PM10,62,114,99
India,Karnataka,Dharwad,"Kalabhavan, Dharwad - KSPCB",21-01-2026 08:00:00,15.459706,75.008381,NO2,22,26,25
India,Haryana,Mandikhera,"General Hospital, Mandikhera(Nuh) - HSPCB",21-01-2026 08:00:00,27.9002,76.9938,NO2,19,23,21
India,Haryana,Mandikhera,"General Hospital, Mandikhera(Nuh) - HSPCB",21-01-2026 08:00:00,27.9002,76.9938,SO2,31,37,34
India,Haryana,Manesar,"Sector-2 IMT, Manesar - HSPCB",21-01-2026 08:00:00,28.360699,76.936090,CO,30,107,60
India,Haryana,Narnaul,"Shastri Nagar, Narnaul - HSPCB",21-01-2026 08:00:00,28.060249,76.113115,CO,41,86,57
India,Haryana,Palwal,"Shyam Nagar, Palwal - HSPCB",21-01-2026 08:00:00,28.1485564,77.3320667,PM2.5,81,130,99
India,Haryana,Palwal,"Shyam Nagar, Palwal - HSPCB",21-01-2026 08:00:00,28.1485564,77.3320667,NO2,23,24,24
India,Haryana,Palwal,"Shyam Nagar, Palwal - HSPCB",21-01-2026 08:00:00,28.1485564,77.3320667,CO,13,57,30
India,Haryana,Panchgaon,"Amity University, Panchgaon - IITM",21-01-2026 08:00:00,28.3153,76.9143,PM2.5,35,372,121
India,Haryana,Panchgaon,"Amity University, Panchgaon - IITM",21-01-2026 08:00:00,28.3153,76.9143,NO2,20,78,40
India,Haryana,Yamuna Nagar,"Gobind Pura, Yamuna Nagar - HSPCB",21-01-2026 08:00:00,30.1480566,77.2893471,NO2,11,21,16
India,Himachal Pradesh,Baddi,"HIMUDA Complex Phase-1, Baddi - HPPCB",21-01-2026 08:00:00,30.943887,76.801991,SO2,27,113,51
India,Himachal Pradesh,Baddi,"HIMUDA Complex Phase-1, Baddi - HPPCB",21-01-2026 08:00:00,30.943887,76.801991,OZONE,9,118,39
India,Jammu_and_Kashmir,Pampore,"Khrew, Pampore - JKPCC",21-01-2026 08:00:00,34.031606,75.009712,SO2,1,3,2
India,Jammu_and_Kashmir,Srinagar,"Rajbagh, Srinagar - JKPCC",21-01-2026 08:00:00,34.066206,74.819820,PM10,21,43,31
India,Jharkhand,Dhanbad,"Sardar Patel Nagar, Dhanbad - JSPCB",21-01-2026 08:00:00,23.80569,86.44268,SO2,NA,NA,NA
India,Haryana,Panchgaon,"Amity University, Panchgaon - IITM",21-01-2026 08:00:00,28.3153,76.9143,OZONE,NA,NA,NA
India,Haryana,Panchkula,"Sector-6, Panchkula - HSPCB ",21-01-2026 08:00:00,30.7057778,76.8531805555555,PM2.5,17,252,110
India,Haryana,Panipat,"Sector-18, Panipat - HSPCB",21-01-2026 08:00:00,29.432304,76.972765,PM2.5,132,266,182
India,Haryana,Panipat,"Sector-18, Panipat - HSPCB",21-01-2026 08:00:00,29.432304,76.972765,OZONE,30,30,30
India,Haryana,Rohtak,"MD University, Rohtak - HSPCB",21-01-2026 08:00:00,28.52123,76.37138,PM10,70,448,139
India,Haryana,Sonipat,"Murthal, Sonipat - HSPCB",21-01-2026 08:00:00,29.027200,77.062100,NO2,20,49,34
India,Haryana,Sonipat,"Murthal, Sonipat - HSPCB",21-01-2026 08:00:00,29.027200,77.062100,OZONE,25,26,26
India,Karnataka,Bengaluru,"Jigani, Bengaluru - KSPCB",21-01-2026 08:00:00,12.7816279,77.6299145,OZONE,20,24,23
India,Karnataka,Bengaluru,"Peenya, Bengaluru - CPCB",21-01-2026 08:00:00,13.0270199,77.494094,NO2,23,29,25
India,Karnataka,Bengaluru,"RVCE-Mailasandra, Bengaluru - KSPCB",21-01-2026 08:00:00,12.921418,77.502466,NH3,2,3,3
