country,state,city,station,last_update,latitude,longitude,pollutant_id,min_value,max_value,avg_value
India,Assam,Nalbari,"Bata Chowk, Nalbari - PCBA",01-02-2026 09:00:00,26.446912,91.439057,NO2,14,15,14
India,Assam,Nalbari,"Bata Chowk, Nalbari - PCBA",01-02-2026 09:00:00,26.446912,91.439057,CO,20,22,20
India,Assam,Nalbari,"Bata Chowk, Nalbari - PCBA",01-02-2026 09:00:00,26.446912,91.439057,OZONE,6,16,16
India,Assam,Sivasagar,"Girls College, Sivasagar - PCBA",01-02-2026 09:00:00,26.987634,94.636574,SO2,11,12,12
India,Bihar,Araria,"Kharahiya Basti, Araria - BSPCB",01-02-2026 09:00:00,26.146529,87.454184,SO2,22,61,37
India,Bihar,Arrah,"New DM Office, Arrah - BSPCB",01-02-2026 09:00:00,25.5626095,84.663264,PM2.5,23,75,45
India,Bihar,Arrah,"New DM Office, Arrah - BSPCB",01-02-2026 09:00:00,25.5626095,84.663264,PM10,35,107,66
India,Bihar,Buxar,"Charitra Van, Buxar - BSPCB",01-02-2026 09:00:00,25.567520,83.966379,NH3,3,3,3
India,Bihar,Chhapra,"Darshan Nagar, Chhapra - BSPCB",01-02-2026 09:00:00,25.7808257,84.7446768,PM10,62,149,109
India,Bihar,Gaya,"Collectorate, Gaya - BSPCB",01-02-2026 09:00:00,24.7955,84.9994,NO2,9,9,9
India,Bihar,Gaya,"Kareemganj, Gaya - BSPCB",01-02-2026 09:00:00,24.792403,84.992416,PM10,173,339,241
India,Bihar,Gaya,"Kareemganj, Gaya - BSPCB",01-02-2026 09:00:00,24.792403,84.992416,CO,3,131,16
India,Bihar,Gaya,"SFTI Kusdihra, Gaya - BSPCB",01-02-2026 09:00:00,24.762518,84.982348,PM2.5,54,98,63
India,Andhra_Pradesh,Kadapa,"Yerramukkapalli, Kadapa - APPCB",01-02-2026 09:00:00,14.465052,78.824187,NO2,20,40,30
India,Andhra_Pradesh,Rajamahendravaram,"Anand Kala Kshetram, Rajamahendravaram - APPCB",01-02-2026 09:00:00,16.9872867,81.7363176,CO,12,50,35
India,Andhra_Pradesh,Tirumala,"Toll Gate, Tirumala - APPCB",01-02-2026 09:00:00,13.67,79.35,NO2,7,43,20
India,Andhra_Pradesh,Tirumala,"Toll Gate, Tirumala - APPCB",01-02-2026 09:00:00,13.67,79.35,CO,7,172,116
India,Andhra_Pradesh,Vijayawada,"HB Colony, Vijayawada - APPCB",01-02-2026 09:00:00,16.536107,80.594233,NO2,15,17,16
India,Bihar,Manguraha,"Forest Rest House, Manguraha - BSPCB",01-02-2026 09:00:00,27.308328,84.531742,OZONE,9,10,10
India,Bihar,Motihari,"Gandak Colony, Motihari - BSPCB",01-02-2026 09:00:00,26.63086,84.90051,NO2,6,9,7
India,Bihar,Munger,"Town Hall, Munger - BSPCB",01-02-2026 09:00:00,25.376776,86.471523,SO2,22,30,27
India,Bihar,Muzaffarpur,"Buddha Colony, Muzaffarpur - BSPCB",01-02-2026 09:00:00,26.11442,85.39813,CO,39,88,62
India,Bihar,Arrah,"New DM Office, Arrah - BSPCB",01-02-2026 09:00:00,25.5626095,84.663264,OZONE,7,8,8
India,Bihar,Bettiah,"Kamalnath Nagar, Bettiah - BSPCB",01-02-2026 09:00:00,26.80365,84.51954,OZONE,22,23,22
India,Bihar,Bhagalpur,"DM Office_Kachari Chowk, Bhagalpur - BSPCB",01-02-2026 09:00:00,25.251013,86.989001,PM2.5,45,93,72
India,Bihar,Bhagalpur,"Mayaganj, Bhagalpur - BSPCB",01-02-2026 09:00:00,25.265194,87.012947,NH3,10,12,11
India,Andhra_Pradesh,Anantapur,"Gulzarpet, Anantapur - APPCB",01-02-2026 09:00:00,14.675886,77.593027,CO,19,32,23
India,Andhra_Pradesh,Chittoor,"Gangineni Cheruvu, Chittoor - APPCB",01-02-2026 09:00:00,13.204880,79.097889,NH3,6,8,7
India,Andhra_Pradesh,Chittoor,"Gangineni Cheruvu, Chittoor - APPCB",01-02-2026 09:00:00,13.204880,79.097889,SO2,14,42,24
India,Assam,Guwahati,"LGBI Airport, Guwahati - PCBA",01-02-2026 09:00:00,26.10887,91.589544,NH3,5,36,7
India,Assam,Guwahati,"LGBI Airport, Guwahati - PCBA",01-02-2026 09:00:00,26.10887,91.589544,OZONE,8,15,12
India,Assam,Guwahati,"Railway Colony, Guwahati - PCBA",01-02-2026 09:00:00,26.181742,91.78063,PM2.5,190,383,311
India,Bihar,Muzaffarpur,"MIT-Daudpur Kothi, Muzaffarpur - BSPCB",01-02-2026 09:00:00,26.1403345,85.3650192,SO2,10,18,12
India,Bihar,Muzaffarpur,"Muzaffarpur Collectorate, Muzaffarpur - BSPCB",01-02-2026 09:00:00,26.1209,85.3647,OZONE,7,14,12
India,Bihar,Hajipur,"Industrial Area, Hajipur - BSPCB",01-02-2026 09:00:00,25.697189,85.245900,CO,20,64,42
India,Bihar,Katihar,"Mirchaibari, Katihar - BSPCB",01-02-2026 09:00:00,25.560083,87.553265,PM10,85,161,122
India,Arunachal_Pradesh,Naharlagun,"Naharlagun, Naharlagun - APSPCB",01-02-2026 09:00:00,27.103358,93.679645,PM10,90,500,174
India,Delhi,Delhi,"Dr. Karni Singh Shooting Range, Delhi - DPCC",01-02-2026 09:00:00,28.498571,77.264840,NO2,12,54,23
India,Delhi,Delhi,"Dwarka-Sector 8, Delhi - DPCC ",01-02-2026 09:00:00,28.5710274,77.0719006,PM2.5,309,401,343
India,Delhi,Delhi,"Dwarka-Sector 8, Delhi - DPCC ",01-02-2026 09:00:00,28.5710274,77.0719006,NO2,41,145,70
India,Delhi,Delhi,"IGI Airport (T3), Delhi - IMD",01-02-2026 09:00:00,28.5627763,77.1180053,NO2,39,106,60
India,Delhi,Delhi,"IHBAS, Dilshad Garden, Delhi - CPCB",01-02-2026 09:00:00,28.6811736,77.3025234,OZONE,58,72,65
India,Delhi,Delhi,"IIT Delhi, Delhi - IITM",01-02-2026 09:00:00,28.542460,77.191651,PM2.5,176,389,274
India,Delhi,Delhi,"IIT Delhi, Delhi - IITM",01-02-2026 09:00:00,28.542460,77.191651,PM10,117,406,180
India,Delhi,Delhi,"IIT Delhi, Delhi - IITM",01-02-2026 09:00:00,28.542460,77.191651,NO2,23,82,43
India,Delhi,Delhi,"IIT Delhi, Delhi - IITM",01-02-2026 09:00:00,28.542460,77.191651,OZONE,10,58,13
India,Delhi,Delhi,"Jahangirpuri, Delhi - DPCC",01-02-2026 09:00:00,28.732820,77.170633,PM10,152,369,244
India,Delhi,Delhi,"Aya Nagar, Delhi - IMD",01-02-2026 09:00:00,28.4706914,77.1099364,PM2.5,105,350,231
India,Delhi,Delhi,"Bawana, Delhi - DPCC",01-02-2026 09:00:00,28.776200,77.051074,NH3,7,11,9
India,Delhi,Delhi,"Burari Crossing, Delhi - IMD",01-02-2026 09:00:00,28.7256504,77.2011573,PM2.5,165,396,322
India,Delhi,Delhi,"DTU, Delhi - CPCB",01-02-2026 09:00:00,28.7500499,77.1112615,PM2.5,249,371,327
India,Delhi,Delhi,"DTU, Delhi - CPCB",01-02-2026 09:00:00,28.7500499,77.1112615,PM10,126,265,184
India,Delhi,Delhi,"DTU, Delhi - CPCB",01-02-2026 09:00:00,28.7500499,77.1112615,SO2,30,32,31
India,Delhi,Delhi,"DTU, Delhi - CPCB",01-02-2026 09:00:00,28.7500499,77.1112615,CO,38,72,49
India,Delhi,Delhi,"DTU, Delhi - CPCB",01-02-2026 09:00:00,28.7500499,77.1112615,OZONE,13,29,14
India,Delhi,Delhi,"Dr. Karni Singh Shooting Range, Delhi - DPCC",01-02-2026 09:00:00,28.498571,77.264840,PM10,124,362,183
India,Chhattisgarh,Kunjemura,"OP Jindal School, Kunjemura - CECB",01-02-2026 09:00:00,22.126650,83.483212,PM10,86,401,170
India,Chhattisgarh,Kunjemura,"OP Jindal School, Kunjemura - CECB",01-02-2026 09:00:00,22.126650,83.483212,SO2,1,101,26
India,Chhattisgarh,Milupara,"Govt. Higher Secondary School, Milupara - CECB",01-02-2026 09:00:00,22.1910172,83.5197009,PM2.5,51,85,67
India,Chhattisgarh,Milupara,"Govt. Higher Secondary School, Milupara - CECB",01-02-2026 09:00:00,22.1910172,83.5197009,SO2,13,29,17
India,Chhattisgarh,Milupara,"Govt. Higher Secondary School, Milupara - CECB",01-02-2026 09:00:00,22.1910172,83.5197009,OZONE,9,175,18
India,Chhattisgarh,Raipur,"AIIMS, Raipur - CECB",01-02-2026 09:00:00,21.258815,81.578979,NO2,NA,NA,NA
India,Chhattisgarh,Raipur,"AIIMS, Raipur - CECB",01-02-2026 09:00:00,21.258815,81.578979,SO2,NA,NA,NA
India,Chhattisgarh,Raipur,"Bhatagaon New ISBT, Raipur - CECB",01-02-2026 09:00:00,21.219665,81.630094,PM2.5,27,59,46
India,Bihar,Purnia,"Mariam Nagar, Purnia - BSPCB",01-02-2026 09:00:00,25.366336,87.117468,NO2,5,6,6
India,Bihar,Purnia,"Mariam Nagar, Purnia - BSPCB",01-02-2026 09:00:00,25.366336,87.117468,NH3,3,3,3
India,Bihar,Rajgir,"Dangi Tola, Rajgir - BSPCB",01-02-2026 09:00:00,25.03280,85.41948,NO2,7,10,9
India,Bihar,Rajgir,"Dangi Tola, Rajgir - BSPCB",01-02-2026 09:00:00,25.03280,85.41948,SO2,7,29,22
India,Bihar,Saharsa,"Police Line, Saharsa - BSPCB",01-02-2026 09:00:00,25.892357,86.590325,NH3,4,4,4
India,Bihar,Samastipur,"DM Office_Kasipur, Samastipur - BSPCB",01-02-2026 09:00:00,25.859655,85.77944,NH3,1,1,1
India,Bihar,Samastipur,"DM Office_Kasipur, Samastipur - BSPCB",01-02-2026 09:00:00,25.859655,85.77944,SO2,13,28,20
India,Chhattisgarh,Raipur,"Krishak Nagar, Raipur - CECB",01-02-2026 09:00:00,21.237755,81.705301,NO2,14,24,19
India,Chhattisgarh,Raipur,"Siltara Phase-II, Raipur - CECB",01-02-2026 09:00:00,21.371751,81.664929,OZONE,3,4,3
India,Delhi,Delhi,"Anand Vihar, Delhi - DPCC",01-02-2026 09:00:00,28.647622,77.3158090,OZONE,1,16,2
India,Delhi,Delhi,"Ashok Vihar, Delhi - DPCC",01-02-2026 09:00:00,28.695381,77.181665,PM2.5,303,484,370
India,Delhi,Delhi,"Ashok Vihar, Delhi - DPCC",01-02-2026 09:00:00,28.695381,77.181665,CO,25,98,41
India,Delhi,Delhi,"Ashok Vihar, Delhi - DPCC",01-02-2026 09:00:00,28.695381,77.181665,OZONE,9,73,11
India,Chhattisgarh,Bhilai,"Civic Center, Bhilai - Bhilai Steel Plant",01-02-2026 09:00:00,21.185571,81.343175,OZONE,9,12,10
India,Chhattisgarh,Bhilai,"Hathkhoj, Bhilai - CECB",01-02-2026 09:00:00,21.224231,81.408350,CO,15,59,35
India,Chhattisgarh,Bilaspur,"Mangala, Bilaspur - NTPC",01-02-2026 09:00:00,22.08815,82.13737,SO2,9,40,20
India,Chhattisgarh,Chhal,"Nawapara SECL Colony, Chhal - CECB",01-02-2026 09:00:00,22.118125,83.140608,PM2.5,50,185,96
India,Chhattisgarh,Chhal,"Nawapara SECL Colony, Chhal - CECB",01-02-2026 09:00:00,22.118125,83.140608,NO2,8,33,16
India,Bihar,Samastipur,"DM Office_Kasipur, Samastipur - BSPCB",01-02-2026 09:00:00,25.859655,85.77944,OZONE,7,11,8
India,Bihar,Siwan,"Chitragupta Nagar, Siwan - BSPCB",01-02-2026 09:00:00,26.2271665,84.3570427,SO2,8,9,9
India,Chandigarh,Chandigarh,"Sector-25, Chandigarh - CPCC",01-02-2026 09:00:00,30.751462,76.762879,PM10,62,163,115
India,Bihar,Patna,"Govt. High School Shikarpur, Patna - BSPCB",01-02-2026 09:00:00,25.592539,85.227158,NO2,14,17,16
India,Bihar,Patna,"Govt. High School Shikarpur, Patna - BSPCB",01-02-2026 09:00:00,25.592539,85.227158,CO,60,88,60
India,Bihar,Patna,"Govt. High School Shikarpur, Patna - BSPCB",01-02-2026 09:00:00,25.592539,85.227158,OZONE,7,12,10
India,Bihar,Patna,"Muradpur, Patna - BSPCB",01-02-2026 09:00:00,25.619651,85.147382,SO2,8,10,9
India,Chhattisgarh,Korba,"Rampur, Korba - CECB",01-02-2026 09:00:00,22.368195,82.746431,OZONE,NA,NA,NA
India,Delhi,Delhi,"NSIT Dwarka, Delhi - CPCB",01-02-2026 09:00:00,28.60909,77.0325413,PM10,100,289,146
India,Delhi,Delhi,"NSIT Dwarka, Delhi - CPCB",01-02-2026 09:00:00,28.60909,77.0325413,OZONE,19,38,23
India,Delhi,Delhi,"Najafgarh, Delhi - DPCC",01-02-2026 09:00:00,28.570173,76.933762,SO2,13,76,21
India,Delhi,Delhi,"Narela, Delhi - DPCC",01-02-2026 09:00:00,28.822836,77.101981,PM10,153,413,279
India,Delhi,Delhi,"Narela, Delhi - DPCC",01-02-2026 09:00:00,28.822836,77.101981,SO2,5,11,7
India,Delhi,Delhi,"North Campus, DU, Delhi - IMD",01-02-2026 09:00:00,28.6573814,77.1585447,PM10,114,440,227
India,Delhi,Delhi,"North Campus, DU, Delhi - IMD",01-02-2026 09:00:00,28.6573814,77.1585447,NO2,61,149,90
India,Delhi,Delhi,"North Campus, DU, Delhi - IMD",01-02-2026 09:00:00,28.6573814,77.1585447,CO,48,112,58
India,Delhi,Delhi,"North Campus, DU, Delhi - IMD",01-02-2026 09:00:00,28.6573814,77.1585447,OZONE,7,135,8
India,Delhi,Delhi,"Okhla Phase-2, Delhi - DPCC",01-02-2026 09:00:00,28.530785,77.271255,PM2.5,260,436,344
India,Gujarat,Ankleshwar,"GIDC, Ankleshwar - GPCB",01-02-2026 09:00:00,21.613267,73.010555,PM2.5,235,314,272
India,Gujarat,Ankleshwar,"GIDC, Ankleshwar - GPCB",01-02-2026 09:00:00,21.613267,73.010555,CO,40,68,52
India,Gujarat,Ankleshwar,"GIDC, Ankleshwar - GPCB",01-02-2026 09:00:00,21.613267,73.010555,OZONE,4,87,6
India,Gujarat,Bhavnagar,"Vidhyanagar, Bhavnagar - Nexteng Enviro",01-02-2026 09:00:00,21.755417,72.139056,PM10,NA,NA,NA
India,Gujarat,Gandhinagar,"GIFT City, Gandhinagar - IITM",01-02-2026 09:00:00,23.163798,72.677768,NO2,23,98,55
India,Gujarat,Gandhinagar,"GIFT City, Gandhinagar - IITM",01-02-2026 09:00:00,23.163798,72.677768,NH3,6,19,12
India,Gujarat,Gandhinagar,"IIPHG Lekawada, Gandhinagar - IITM",01-02-2026 09:00:00,23.243639,72.68994,PM2.5,101,304,216
India,Gujarat,Gandhinagar,"IIPHG Lekawada, Gandhinagar - IITM",01-02-2026 09:00:00,23.243639,72.68994,CO,6,98,36
India,Delhi,Delhi,"Wazirpur, Delhi - DPCC",01-02-2026 09:00:00,28.699793,77.165453,PM10,173,456,332
India,Gujarat,Ahmedabad,"Chandkheda, Ahmedabad - IITM",01-02-2026 09:00:00,23.107969,72.574648,PM10,NA,NA,NA
India,Gujarat,Ahmedabad,"Chandkheda, Ahmedabad - IITM",01-02-2026 09:00:00,23.107969,72.574648,OZONE,1,60,2
India,Gujarat,Ahmedabad,"Gyaspur, Ahmedabad - IITM",01-02-2026 09:00:00,22.977134,72.553024,NO2,64,187,115
India,Gujarat,Ahmedabad,"Maninagar, Ahmedabad - GPCB",01-02-2026 09:00:00,23.002657,72.591912,PM2.5,86,313,145
India,Gujarat,Ahmedabad,"Raikhad, Ahmedabad - IITM",01-02-2026 09:00:00,23.020509,72.579261,PM10,NA,NA,NA
India,Gujarat,Ahmedabad,"Raikhad, Ahmedabad - IITM",01-02-2026 09:00:00,23.020509,72.579261,SO2,12,91,30
India,Gujarat,Ahmedabad,"Raikhad, Ahmedabad - IITM",01-02-2026 09:00:00,23.020509,72.579261,OZONE,2,57,2
India,Delhi,Delhi,"Rohini, Delhi - DPCC",01-02-2026 09:00:00,28.732528,77.119920,NH3,12,22,16
India,Delhi,Delhi,"Sirifort, Delhi - CPCB",01-02-2026 09:00:00,28.5504249,77.2159377,PM2.5,303,418,355
India,Delhi,Delhi,"Sirifort, Delhi - CPCB",01-02-2026 09:00:00,28.5504249,77.2159377,OZONE,5,22,5
India,Delhi,Delhi,"Sonia Vihar, Delhi - DPCC",01-02-2026 09:00:00,28.710508,77.249485,SO2,8,31,14
India,Delhi,Delhi,"Sonia Vihar, Delhi - DPCC",01-02-2026 09:00:00,28.710508,77.249485,OZONE,2,83,4
India,Delhi,Delhi,"Sri Aurobindo Marg, Delhi - DPCC",01-02-2026 09:00:00,28.531346,77.190156,PM10,129,388,201
India,Delhi,Delhi,"Vivek Vihar, Delhi - DPCC",01-02-2026 09:00:00,28.672342,77.315260,CO,28,64,56
India,Delhi,Delhi,"Patparganj, Delhi - DPCC",01-02-2026 09:00:00,28.623763,77.287209,NH3,9,11,10
India,Delhi,Delhi,"Punjabi Bagh, Delhi - DPCC",01-02-2026 09:00:00,28.674045,77.131023,PM2.5,302,431,350
India,Delhi,Delhi,"Punjabi Bagh, Delhi - DPCC",01-02-2026 09:00:00,28.674045,77.131023,NH3,4,6,5
India,Delhi,Delhi,"Punjabi Bagh, Delhi - DPCC",01-02-2026 09:00:00,28.674045,77.131023,SO2,8,17,13
India,Delhi,Delhi,"R K Puram, Delhi - DPCC",01-02-2026 09:00:00,28.563262,77.186937,SO2,1,36,13
India,Delhi,Delhi,"R K Puram, Delhi - DPCC",01-02-2026 09:00:00,28.563262,77.186937,CO,7,122,46
India,Delhi,Delhi,"Rohini, Delhi - DPCC",01-02-2026 09:00:00,28.732528,77.119920,PM2.5,305,446,370
India,Delhi,Delhi,"Rohini, Delhi - DPCC",01-02-2026 09:00:00,28.732528,77.119920,PM10,156,416,285
India,Delhi,Delhi,"Jahangirpuri, Delhi - DPCC",01-02-2026 09:00:00,28.732820,77.170633,SO2,36,50,41
India,Delhi,Delhi,"Jahangirpuri, Delhi - DPCC",01-02-2026 09:00:00,28.732820,77.170633,CO,39,90,46
India,Delhi,Delhi,"Jawaharlal Nehru Stadium, Delhi - DPCC",01-02-2026 09:00:00,28.580280,77.233829,PM2.5,230,411,341
India,Delhi,Delhi,"Jawaharlal Nehru Stadium, Delhi - DPCC",01-02-2026 09:00:00,28.580280,77.233829,PM10,123,390,240
India,Delhi,Delhi,"Lodhi Road, Delhi - IMD",01-02-2026 09:00:00,28.5918245,77.2273074,CO,61,101,62
India,Delhi,Delhi,"Major Dhyan Chand National Stadium, Delhi - DPCC",01-02-2026 09:00:00,28.611281,77.237738,NO2,64,144,84
India,Gujarat,Vadodara,"Bapunagar, Vadodara - Nexteng Enviro",01-02-2026 09:00:00,22.320153,73.216285,NH3,1,2,2
India,Gujarat,Vapi,"Phase-1 GIDC, Vapi - GPCB",01-02-2026 09:00:00,20.362421,72.918013,SO2,12,27,15
India,Gujarat,Vatva,"Phase-4 GIDC, Vatva - GPCB",01-02-2026 09:00:00,22.969611,72.643500,OZONE,24,39,24
India,Haryana,Ambala,"Patti Mehar, Ambala - HSPCB",01-02-2026 09:00:00,30.379589,76.778328,NO2,19,23,22
India,Gujarat,Mehsana,"Sadanand Nagar, Mehsana - Nexteng Enviro",01-02-2026 09:00:00,23.593150,72.372792,NO2,NA,NA,NA
India,Gujarat,Mehsana,"Sadanand Nagar, Mehsana - Nexteng Enviro",01-02-2026 09:00:00,23.593150,72.372792,OZONE,NA,NA,NA
India,Gujarat,Surat,"Katargam, Surat - Nexteng Enviro",01-02-2026 09:00:00,21.217779 ,72.834787 ,CO,120,137,124
India,Gujarat,Vadodara,"Bapunagar, Vadodara - Nexteng Enviro",01-02-2026 09:00:00,22.320153,73.216285,PM2.5,141,423,321
India,Gujarat,Ahmedabad,"SAC ISRO Bopal, Ahmedabad - IITM",01-02-2026 09:00:00,23.041137,72.456691,PM2.5,NA,NA,NA
India,Gujarat,Ahmedabad,"SAC ISRO Bopal, Ahmedabad - IITM",01-02-2026 09:00:00,23.041137,72.456691,NH3,13,20,16
India,Gujarat,Ahmedabad,"SAC ISRO Bopal, Ahmedabad - IITM",01-02-2026 09:00:00,23.041137,72.456691,CO,24,68,42
India,Gujarat,Ahmedabad,"SAC ISRO Satellite, Ahmedabad - IITM",01-02-2026 09:00:00,23.023389,72.515201,NO2,9,45,26
India,Gujarat,Ahmedabad,"SAC ISRO Satellite, Ahmedabad - IITM",01-02-2026 09:00:00,23.023389,72.515201,NH3,8,28,15
India,Haryana,Hisar,"Urban Estate-II, Hisar - HSPCB",01-02-2026 09:00:00,29.140560,75.744941,NH3,10,11,11
India,Haryana,Hisar,"Urban Estate-II, Hisar - HSPCB",01-02-2026 09:00:00,29.140560,75.744941,SO2,8,13,10
India,Haryana,Jind,"Police Lines, Jind - HSPCB",01-02-2026 09:00:00,29.307814,76.337619,NH3,1,4,2
India,Haryana,Kaithal,"Rishi Nagar, Kaithal - HSPCB",01-02-2026 09:00:00,29.8006,76.4155,PM2.5,72,266,183
India,Haryana,Kaithal,"Rishi Nagar, Kaithal - HSPCB",01-02-2026 09:00:00,29.8006,76.4155,SO2,29,36,32
India,Haryana,Kaithal,"Rishi Nagar, Kaithal - HSPCB",01-02-2026 09:00:00,29.8006,76.4155,CO,29,86,47
India,Haryana,Kurukshetra,"Sector-7, Kurukshetra - HSPCB",01-02-2026 09:00:00,29.966942,76.875879,NO2,17,21,19
India,Haryana,Dharuhera,"Municipal Corporation Office, Dharuhera -  HSPCB",01-02-2026 09:00:00,28.206800,76.799700,CO,53,102,84
India,Haryana,Faridabad,"New Industrial Town, Faridabad - HSPCB",01-02-2026 09:00:00,28.39072,77.30059,CO,10,14,12
India,Haryana,Faridabad,"Sector 11, Faridabad - HSPCB",01-02-2026 09:00:00,28.376058,77.315741,PM10,77,254,143
India,Haryana,Faridabad,"Sector 30, Faridabad - HSPCB",01-02-2026 09:00:00,28.4417,77.3217,NO2,35,40,37
India,Haryana,Ambala,"Patti Mehar, Ambala - HSPCB",01-02-2026 09:00:00,30.379589,76.778328,NH3,9,11,10
India,Haryana,Bahadurgarh,"Arya Nagar, Bahadurgarh - HSPCB",01-02-2026 09:00:00,28.6701,76.9254,CO,44,50,47
India,Haryana,Charkhi Dadri,"Mini Secretariat, Charkhi Dadri - HSPCB",01-02-2026 09:00:00,28.593883,76.270653,PM10,83,447,168
India,Haryana,Charkhi Dadri,"Mini Secretariat, Charkhi Dadri - HSPCB",01-02-2026 09:00:00,28.593883,76.270653,NH3,5,8,6
India,Haryana,Fatehabad,"Huda Sector, Fatehabad - HSPCB",01-02-2026 09:00:00,29.503664,75.467934,SO2,10,11,10
India,Haryana,Gurugram,"Sector-51, Gurugram - HSPCB",01-02-2026 09:00:00,28.4227,77.0667,SO2,1,5,3
India,Haryana,Hisar,"Urban Estate-II, Hisar - HSPCB",01-02-2026 09:00:00,29.140560,75.744941,PM2.5,48,88,70
India,Haryana,Hisar,"Urban Estate-II, Hisar - HSPCB",01-02-2026 09:00:00,29.140560,75.744941,PM10,79,115,101
India,Haryana,Sirsa,"F-Block, Sirsa - HSPCB",01-02-2026 09:00:00,29.536400,75.015800,PM2.5,68,138,91
India,Haryana,Sirsa,"F-Block, Sirsa - HSPCB",01-02-2026 09:00:00,29.536400,75.015800,PM10,71,116,91
India,Haryana,Yamuna Nagar,"Gobind Pura, Yamuna Nagar - HSPCB",01-02-2026 09:00:00,30.1480566,77.2893471,OZONE,8,34,14
India,Himachal Pradesh,Baddi,"HIMUDA Complex Phase-1, Baddi - HPPCB",01-02-2026 09:00:00,30.943887,76.801991,OZONE,6,116,35
India,Jammu_and_Kashmir,Pampore,"Khrew, Pampore - JKPCC",01-02-2026 09:00:00,34.031606,75.009712,PM10,51,115,78
India,Haryana,Narnaul,"Shastri Nagar, Narnaul - HSPCB",01-02-2026 09:00:00,28.060249,76.113115,SO2,3,5,4
India,Haryana,Panchgaon,"Amity University, Panchgaon - IITM",01-02-2026 09:00:00,28.3153,76.9143,SO2,11,19,16
India,Haryana,Manesar,"Sector-2 IMT, Manesar - HSPCB",01-02-2026 09:00:00,28.360699,76.936090,CO,21,48,30
India,Haryana,Panipat,"Sector-18, Panipat - HSPCB",01-02-2026 09:00:00,29.432304,76.972765,NO2,31,32,31
India,Karnataka,Hubballi,"Lingaraj Nagar, Hubballi - KSPCB",01-02-2026 09:00:00,15.3714823,75.1160168,SO2,3,5,3
India,Karnataka,Hubballi,"Lingaraj Nagar, Hubballi - KSPCB",01-02-2026 09:00:00,15.3714823,75.1160168,OZONE,10,25,24
India,Karnataka,Kalaburagi,"Mahatma Basaveswar Colony, Kalaburgi - KSPCB",01-02-2026 09:00:00,17.336318,76.847397,PM10,50,73,58
India,Karnataka,Kalaburagi,"Mahatma Basaveswar Colony, Kalaburgi - KSPCB",01-02-2026 09:00:00,17.336318,76.847397,NH3,3,3,3
India,Karnataka,Madikeri,"Stuart Hill, Madikeri - KSPCB",01-02-2026 09:00:00,12.415911,75.735050,SO2,7,7,7
India,Karnataka,Mysuru,"Hebbal 1st Stage, Mysuru - KSPCB",01-02-2026 09:00:00,12.21041,76.37376,NH3,3,5,4
India,Karnataka,Mysuru,"Hebbal 1st Stage, Mysuru - KSPCB",01-02-2026 09:00:00,12.21041,76.37376,SO2,3,26,12
India,Karnataka,Mysuru,"Hebbal 1st Stage, Mysuru - KSPCB",01-02-2026 09:00:00,12.21041,76.37376,OZONE,6,102,19
India,Karnataka,Ramanagara,"Vijay Nagar, Ramanagara - KSPCB",01-02-2026 09:00:00,12.733409,77.298051,PM2.5,26,91,54
India,Karnataka,Ramanagara,"Vijay Nagar, Ramanagara - KSPCB",01-02-2026 09:00:00,12.733409,77.298051,SO2,2,19,13
India,Kerala,Thiruvananthapuram,"Kariavattom, Thiruvananthapuram - Kerala PCB",01-02-2026 09:00:00,8.563700,76.886500,OZONE,36,37,36
India,Kerala,Thrissur,"Corporation Ground, Thrissur - Kerala PCB",01-02-2026 09:00:00,10.532400,76.215900,PM2.5,60,109,77
India,Kerala,Thrissur,"Corporation Ground, Thrissur - Kerala PCB",01-02-2026 09:00:00,10.532400,76.215900,NO2,7,9,8
India,Madhya Pradesh,Bhopal,"Idgah Hills, Bhopal - MPPCB",01-02-2026 09:00:00,23.264759,77.381568,NH3,4,7,5
India,Madhya Pradesh,Bhopal,"Idgah Hills, Bhopal - MPPCB",01-02-2026 09:00:00,23.264759,77.381568,OZONE,1,47,24
India,Madhya Pradesh,Bhopal,"Paryavaran Parisar, Bhopal - MPPCB",01-02-2026 09:00:00,23.210494,77.425409,SO2,8,14,10
India,Madhya Pradesh,Bhopal,"Paryavaran Parisar, Bhopal - MPPCB",01-02-2026 09:00:00,23.210494,77.425409,CO,20,68,25
India,Madhya Pradesh,Bhopal,"T T Nagar, Bhopal - MPPCB",01-02-2026 09:00:00,23.233584,77.400574,NO2,26,54,36
India,Madhya Pradesh,Damoh,"Shrivastav Colony, Damoh - MPPCB",01-02-2026 09:00:00,23.81748678,79.446246,PM10,9,32,16
India,Madhya Pradesh,Gwalior,"City Center, Gwalior - MPPCB",01-02-2026 09:00:00,26.203442,78.193251,PM10,35,64,47
India,Madhya Pradesh,Gwalior,"City Center, Gwalior - MPPCB",01-02-2026 09:00:00,26.203442,78.193251,NH3,3,3,3
India,Madhya Pradesh,Gwalior,"City Center, Gwalior - MPPCB",01-02-2026 09:00:00,26.203442,78.193251,OZONE,8,50,8
India,Madhya Pradesh,Gwalior,"Deen Dayal Nagar, Gwalior - MPPCB",01-02-2026 09:00:00,26.259242,78.216432,SO2,NA,NA,NA
India,Madhya Pradesh,Gwalior,"Deen Dayal Nagar, Gwalior - MPPCB",01-02-2026 09:00:00,26.259242,78.216432,OZONE,46,78,46
India,Madhya Pradesh,Gwalior,"Maharaj Bada, Gwalior - MPPCB",01-02-2026 09:00:00,26.200388,78.147714,PM10,72,122,96
India,Madhya Pradesh,Gwalior,"Maharaj Bada, Gwalior - MPPCB",01-02-2026 09:00:00,26.200388,78.147714,NH3,2,3,3
India,Madhya Pradesh,Gwalior,"Maharaj Bada, Gwalior - MPPCB",01-02-2026 09:00:00,26.200388,78.147714,CO,1,88,18
India,Karnataka,Bengaluru,"Kasturi Nagar, Bengaluru - KSPCB",01-02-2026 09:00:00,13.003872,77.664217,SO2,11,15,12
India,Karnataka,Bengaluru,"Kasturi Nagar, Bengaluru - KSPCB",01-02-2026 09:00:00,13.003872,77.664217,CO,29,53,47
India,Karnataka,Bengaluru,"Peenya, Bengaluru - CPCB",01-02-2026 09:00:00,13.0270199,77.494094,NH3,3,5,4
India,Karnataka,Bengaluru,"RVCE-Mailasandra, Bengaluru - KSPCB",01-02-2026 09:00:00,12.921418,77.502466,NO2,19,24,24
India,Karnataka,Bengaluru,"RVCE-Mailasandra, Bengaluru - KSPCB",01-02-2026 09:00:00,12.921418,77.502466,CO,1,20,9
India,Karnataka,Bengaluru,"Sanegurava Halli, Bengaluru - KSPCB",01-02-2026 09:00:00,12.990328,77.5431385,SO2,6,7,6
India,Karnataka,Bengaluru,"Shivapura_Peenya, Bengaluru - KSPCB",01-02-2026 09:00:00,13.0246342,77.5080115,PM2.5,NA,NA,NA
India,Karnataka,Bengaluru,"Shivapura_Peenya, Bengaluru - KSPCB",01-02-2026 09:00:00,13.0246342,77.5080115,SO2,NA,NA,NA
India,Jammu_and_Kashmir,Srinagar,"Rajbagh, Srinagar - JKPCC",01-02-2026 09:00:00,34.066206,74.819820,PM10,24,38,31
India,Karnataka,Belgaum,"Ramteerth Nagar, Belgaum - KSPCB",01-02-2026 09:00:00,15.888653,74.541751,PM2.5,33,94,62
India,Karnataka,Belgaum,"Ramteerth Nagar, Belgaum - KSPCB",01-02-2026 09:00:00,15.888653,74.541751,PM10,44,115,80
India,Karnataka,Belgaum,"Ramteerth Nagar, Belgaum - KSPCB",01-02-2026 09:00:00,15.888653,74.541751,NH3,8,11,10
India,Karnataka,Bengaluru,"BWSSB Kadabesanahalli, Bengaluru - CPCB",01-02-2026 09:00:00,12.9352049,77.6814488,NO2,10,25,17
India,Karnataka,Bengaluru,"BWSSB Kadabesanahalli, Bengaluru - CPCB",01-02-2026 09:00:00,12.9352049,77.6814488,NH3,NA,NA,NA
India,Karnataka,Bengaluru,"BWSSB Kadabesanahalli, Bengaluru - CPCB",01-02-2026 09:00:00,12.9352049,77.6814488,CO,36,39,37
India,Karnataka,Bengaluru,"BWSSB Kadabesanahalli, Bengaluru - CPCB",01-02-2026 09:00:00,12.9352049,77.6814488,OZONE,20,50,43
India,Karnataka,Bengaluru,"Bapuji Nagar, Bengaluru - KSPCB",01-02-2026 09:00:00,12.951913,77.539784,PM2.5,25,88,54
India,Karnataka,Bengaluru,"Bapuji Nagar, Bengaluru - KSPCB",01-02-2026 09:00:00,12.951913,77.539784,PM10,73,155,113
India,Karnataka,Bengaluru,"Hebbal, Bengaluru - KSPCB",01-02-2026 09:00:00,13.029152,77.585901,PM2.5,28,97,56
India,Karnataka,Bengaluru,"Hebbal, Bengaluru - KSPCB",01-02-2026 09:00:00,13.029152,77.585901,OZONE,7,12,10
India,Karnataka,Bengaluru,"Hombegowda Nagar, Bengaluru - KSPCB",01-02-2026 09:00:00,12.938539,77.590100,NO2,19,69,30
India,Karnataka,Bengaluru,"Hombegowda Nagar, Bengaluru - KSPCB",01-02-2026 09:00:00,12.938539,77.590100,NH3,2,6,4
India,Karnataka,Bengaluru,"Jayanagar 5th Block, Bengaluru - KSPCB",01-02-2026 09:00:00,12.920984,77.584908,SO2,7,16,11
India,Karnataka,Bengaluru,"Jayanagar 5th Block, Bengaluru - KSPCB",01-02-2026 09:00:00,12.920984,77.584908,CO,9,53,15
India,Karnataka,Chikkamagaluru,"Kalyana Nagara, Chikkamagaluru - KSPCB",01-02-2026 09:00:00,13.328028,75.797056,PM10,31,68,40
India,Karnataka,Chikkamagaluru,"Kalyana Nagara, Chikkamagaluru - KSPCB",01-02-2026 09:00:00,13.328028,75.797056,SO2,2,89,10
India,Karnataka,Chikkamagaluru,"Kalyana Nagara, Chikkamagaluru - KSPCB",01-02-2026 09:00:00,13.328028,75.797056,CO,11,17,11
India,Karnataka,Davanagere,"Devaraj Urs Badavane, Davanagere - KSPCB",01-02-2026 09:00:00,14.475800,75.905200,PM10,51,102,75
India,Karnataka,Davanagere,"Devaraj Urs Badavane, Davanagere - KSPCB",01-02-2026 09:00:00,14.475800,75.905200,NO2,20,34,26
India,Karnataka,Tumakuru,"Thimmalapura, Tumakuru - KSPCB",01-02-2026 09:00:00,13.377516,77.099072,PM2.5,72,425,183
India,Karnataka,Tumakuru,"Thimmalapura, Tumakuru - KSPCB",01-02-2026 09:00:00,13.377516,77.099072,NH3,6,6,6
India,Karnataka,Yadgir,"Collector Office, Yadgir - KSPCB",01-02-2026 09:00:00,16.7602,77.1428,NH3,2,2,2
India,Kerala,Eloor,"Udyogamandal, Eloor - Kerala PCB",01-02-2026 09:00:00,10.073232,76.302765,SO2,NA,NA,NA
India,Maharashtra,Belapur,"CBD Belapur, Belapur - MPCB",01-02-2026 09:00:00,19.0243902,73.0406721,SO2,10,17,13
India,Maharashtra,Belapur,"CBD Belapur, Belapur - MPCB",01-02-2026 09:00:00,19.0243902,73.0406721,CO,14,35,17
India,Maharashtra,Bhiwandi,"Gokul Nagar, Bhiwandi - MPCB",01-02-2026 09:00:00,19.309073,73.057223,PM10,98,150,120
India,Maharashtra,Bhiwandi,"Gokul Nagar, Bhiwandi - MPCB",01-02-2026 09:00:00,19.309073,73.057223,CO,28,64,54
India,Maharashtra,Boisar,"Khaira, Boisar - MPCB",01-02-2026 09:00:00,19.786089,72.757971,OZONE,6,58,12
India,Maharashtra,Chandrapur,"Chauhan Colony, Chandrapur - MPCB",01-02-2026 09:00:00,19.962900,79.298714,NO2,29,32,31
India,Maharashtra,Chandrapur,"MIDC Khutala, Chandrapur - MPCB",01-02-2026 09:00:00,19.9775302,79.2337086,NO2,12,44,24
India,Maharashtra,Dhule,"Deopur, Dhule - MPCB",01-02-2026 09:00:00,20.918946,74.776388,PM2.5,13,324,153
India,Madhya Pradesh,Jabalpur,"Gupteshwar, Jabalpur - JMC",01-02-2026 09:00:00,23.142888,79.916147,OZONE,1,79,6
India,Madhya Pradesh,Jabalpur,"Suhagi, Jabalpur - JMC",01-02-2026 09:00:00,23.218135,79.957770,PM2.5,28,209,96
India,Madhya Pradesh,Jabalpur,"Suhagi, Jabalpur - JMC",01-02-2026 09:00:00,23.218135,79.957770,PM10,34,140,84
India,Madhya Pradesh,Katni,"Gole Bazar, Katni - MPPCB",01-02-2026 09:00:00,23.50016,80.23284,PM10,48,178,100
India,Madhya Pradesh,Katni,"Gole Bazar, Katni - MPPCB",01-02-2026 09:00:00,23.50016,80.23284,NH3,3,5,4
India,Madhya Pradesh,Mandideep,"Sector-D Industrial Area, Mandideep - MPPCB",01-02-2026 09:00:00,23.108440,77.511428,CO,27,51,45
India,Madhya Pradesh,Mandideep,"Sector-D Industrial Area, Mandideep - MPPCB",01-02-2026 09:00:00,23.108440,77.511428,OZONE,16,21,17
India,Madhya Pradesh,Ratlam,"Shasthri Nagar, Ratlam - IPCA Lab",01-02-2026 09:00:00,23.331731,75.045981,NO2,16,40,25
India,Madhya Pradesh,Indore,"Airport Area, Indore - IMC",01-02-2026 09:00:00,22.7289,75.8076,SO2,1,3,2
India,Madhya Pradesh,Indore,"Chhoti Gwaltoli, Indore - MPPCB",01-02-2026 09:00:00,22.4310,75.5213,PM10,56,159,115
India,Madhya Pradesh,Indore,"Maguda Nagar, Indore - IMC",01-02-2026 09:00:00,22.7524,75.8872,NO2,18,26,21
India,Madhya Pradesh,Indore,"Regional Park, Indore - IMC",01-02-2026 09:00:00,22.6780,75.8559,PM10,25,85,51
India,Madhya Pradesh,Indore,"Regional Park, Indore - IMC",01-02-2026 09:00:00,22.6780,75.8559,SO2,6,10,7
India,Madhya Pradesh,Indore,"Residency Area, Indore - IMC",01-02-2026 09:00:00,22.7084,75.8815,NO2,11,42,33
India,Madhya Pradesh,Jabalpur,"Govindh Bhavan Colony, Jabalpur - JMC",01-02-2026 09:00:00,23.163174,79.973061,NO2,12,18,15
India,Madhya Pradesh,Jabalpur,"Govindh Bhavan Colony, Jabalpur - JMC",01-02-2026 09:00:00,23.163174,79.973061,CO,18,27,23
India,Madhya Pradesh,Sagar,"Deen Dayal Nagar, Sagar - MPPCB",01-02-2026 09:00:00,23.8640158,78.80289321,PM10,51,104,81
India,Madhya Pradesh,Sagar,"Deen Dayal Nagar, Sagar - MPPCB",01-02-2026 09:00:00,23.8640158,78.80289321,NO2,9,32,14
India,Madhya Pradesh,Sagar,"Deen Dayal Nagar, Sagar - MPPCB",01-02-2026 09:00:00,23.8640158,78.80289321,CO,12,30,14
India,Madhya Pradesh,Singrauli,"Suryakiran Bhawan NCL, Singrauli - MPPCB",01-02-2026 09:00:00,24.108970,82.645580,PM10,151,258,191
India,Maharashtra,Ahmednagar,"Tarakpur, Ahmednagar - MPCB",01-02-2026 09:00:00,19.10122,74.73339,SO2,NA,NA,NA
India,Maharashtra,Ahmednagar,"Tarakpur, Ahmednagar - MPCB",01-02-2026 09:00:00,19.10122,74.73339,OZONE,4,104,40
India,Maharashtra,Jalna,"Old MIDC, Jalna - MPCB",01-02-2026 09:00:00,19.854616,75.905894,NO2,40,49,43
India,Maharashtra,Jalna,"Old MIDC, Jalna - MPCB",01-02-2026 09:00:00,19.854616,75.905894,OZONE,39,51,41
India,Maharashtra,Kalyan,"Khadakpada, Kalyan - MPCB",01-02-2026 09:00:00,19.25292,73.142019,NO2,36,36,36
India,Maharashtra,Kalyan,"Pimpleshwar Mandir, Kalyan - MPCB",01-02-2026 09:00:00,19.192056,72.9585188,PM10,126,208,155
India,Maharashtra,Kolhapur,"Sinchan Bhavan, Kolhapur - MPCB",01-02-2026 09:00:00,16.7143745,74.2426398,OZONE,1,36,6
India,Maharashtra,Amravati,"Shri Shivaji Science College, Amravati - MPCB",01-02-2026 09:00:00,20.939198,77.765701,PM2.5,56,97,77
India,Maharashtra,Aurangabad,"More Chowk Waluj, Aurangabad - MPCB",01-02-2026 09:00:00,19.8389439,75.244448,OZONE,14,85,36
India,Maharashtra,Aurangabad,"Rachnakar Colony, Aurangabad - MPCB",01-02-2026 09:00:00,19.863756,75.321188,PM2.5,93,219,131
India,Maharashtra,Dhule,"Deopur, Dhule - MPCB",01-02-2026 09:00:00,20.918946,74.776388,SO2,4,15,8
India,Maharashtra,Dhule,"Deopur, Dhule - MPCB",01-02-2026 09:00:00,20.918946,74.776388,CO,18,63,33
India,Maharashtra,Jalgaon,"Prabhat Colony, Jalgaon - MPCB",01-02-2026 09:00:00,21.001264,75.565602,SO2,7,14,9
India,Maharashtra,Jalna,"Old MIDC, Jalna - MPCB",01-02-2026 09:00:00,19.854616,75.905894,PM2.5,96,139,111
India,Maharashtra,Badlapur,"Katrap, Badlapur - MPCB",01-02-2026 09:00:00,19.16485,73.23409,PM2.5,28,254,163
India,Maharashtra,Latur,"Sawe Wadi, Latur - MPCB",01-02-2026 09:00:00,18.39963,76.57452,OZONE,21,57,33
India,Maharashtra,Mahad,"Kamble Tarf Birwadi, Mahad - MPCB",01-02-2026 09:00:00,18.1023399,73.4783687,PM2.5,91,167,118
India,Maharashtra,Malegaon,"Mahesh Nagar, Malegaon - MPCB",01-02-2026 09:00:00,20.555712,74.529236,OZONE,8,92,16
India,Maharashtra,Mira-Bhayandar,"Bhayandar West, Mira-Bhayandar - MPCB",01-02-2026 09:00:00,19.296481,72.840923,SO2,10,14,12
India,Maharashtra,Mira-Bhayandar,"Bhayandar West, Mira-Bhayandar - MPCB",01-02-2026 09:00:00,19.296481,72.840923,OZONE,1,27,1
India,Maharashtra,Mumbai,"Bandra Kurla Complex, Mumbai - MPCB",01-02-2026 09:00:00,19.065931,72.862131,NH3,NA,NA,NA
India,Maharashtra,Mumbai,"Borivali East, Mumbai - IITM",01-02-2026 09:00:00,19.23241,72.86895,PM2.5,72,130,90
India,Maharashtra,Nagpur,"Ambazari, Nagpur - MPCB",01-02-2026 09:00:00,21.121801,79.04952,PM10,66,130,105
India,Maharashtra,Nagpur,"Ambazari, Nagpur - MPCB",01-02-2026 09:00:00,21.121801,79.04952,SO2,10,72,24
India,Maharashtra,Nagpur,"Ambazari, Nagpur - MPCB",01-02-2026 09:00:00,21.121801,79.04952,CO,2,105,28
India,Maharashtra,Nagpur,"Opp GPO Civil Lines, Nagpur - MPCB",01-02-2026 09:00:00,21.152875,79.0517531,PM10,73,165,115
India,Maharashtra,Nagpur,"Opp GPO Civil Lines, Nagpur - MPCB",01-02-2026 09:00:00,21.152875,79.0517531,SO2,9,62,24
India,Maharashtra,Nagpur,"Ram Nagar, Nagpur - MPCB",01-02-2026 09:00:00,21.143383,79.048912,PM2.5,59,169,103
India,Maharashtra,Nagpur,"Ram Nagar, Nagpur - MPCB",01-02-2026 09:00:00,21.143383,79.048912,PM10,81,150,118
India,Maharashtra,Nagpur,"Ram Nagar, Nagpur - MPCB",01-02-2026 09:00:00,21.143383,79.048912,NH3,4,4,4
India,Maharashtra,Mumbai,"Borivali East, Mumbai - MPCB",01-02-2026 09:00:00,19.2243333,72.8658113,PM10,67,96,82
India,Maharashtra,Mumbai,"Byculla, Mumbai - BMC",01-02-2026 09:00:00,18.9767,72.8380,NO2,30,96,53
India,Maharashtra,Mumbai,"Byculla, Mumbai - BMC",01-02-2026 09:00:00,18.9767,72.8380,NH3,6,24,11
India,Maharashtra,Mumbai,"Chakala-Andheri East, Mumbai - IITM",01-02-2026 09:00:00,19.11074,72.86084,PM10,90,142,113
India,Maharashtra,Mumbai,"Chembur, Mumbai - MPCB",01-02-2026 09:00:00,19.0364585,72.8954371,PM2.5,55,110,77
India,Maharashtra,Mumbai,"Chembur, Mumbai - MPCB",01-02-2026 09:00:00,19.0364585,72.8954371,OZONE,1,57,4
India,Maharashtra,Mumbai,"Colaba, Mumbai - MPCB",01-02-2026 09:00:00,18.910000,72.820000,SO2,NA,NA,NA
India,Maharashtra,Mumbai,"Deonar, Mumbai - IITM",01-02-2026 09:00:00,19.04946,72.9230,PM2.5,76,155,114
India,Maharashtra,Mumbai,"Deonar, Mumbai - IITM",01-02-2026 09:00:00,19.04946,72.9230,NO2,13,45,27
India,Maharashtra,Mumbai,"Deonar, Mumbai - IITM",01-02-2026 09:00:00,19.04946,72.9230,NH3,15,17,16
India,Maharashtra,Mumbai,"Deonar, Mumbai - IITM",01-02-2026 09:00:00,19.04946,72.9230,OZONE,2,30,4
India,Maharashtra,Mumbai,"Kandivali East, Mumbai - MPCB",01-02-2026 09:00:00,19.205800,72.868200,PM10,72,150,115
India,Maharashtra,Mumbai,"Sewri, Mumbai - BMC",01-02-2026 09:00:00,19.000084,72.856730,PM10,64,108,85
India,Maharashtra,Mumbai,"Sewri, Mumbai - BMC",01-02-2026 09:00:00,19.000084,72.856730,SO2,NA,NA,NA
India,Maharashtra,Mumbai,"Shivaji Nagar, Mumbai - BMC",01-02-2026 09:00:00,19.060498,72.923356,SO2,NA,NA,NA
India,Maharashtra,Mumbai,"Siddharth Nagar-Worli, Mumbai - IITM",01-02-2026 09:00:00,19.000083,72.813993,PM10,NA,NA,NA
India,Maharashtra,Mumbai,"Sion, Mumbai - MPCB",01-02-2026 09:00:00,19.047000,72.874600,NH3,6,7,6
India,Maharashtra,Mumbai,"Kurla, Mumbai - MPCB",01-02-2026 09:00:00,19.0863,72.8888,NH3,NA,NA,NA
India,Maharashtra,Mumbai,"Kurla, Mumbai - MPCB",01-02-2026 09:00:00,19.0863,72.8888,OZONE,NA,NA,NA
India,Maharashtra,Mumbai,"Malad West, Mumbai - IITM",01-02-2026 09:00:00,19.19709,72.82204,NO2,32,63,47
India,Maharashtra,Mumbai,"Malad West, Mumbai - IITM",01-02-2026 09:00:00,19.19709,72.82204,CO,8,34,21
India,Maharashtra,Mumbai,"Mazgaon, Mumbai - IITM",01-02-2026 09:00:00,18.96702,72.84214,PM10,67,119,87
India,Maharashtra,Mumbai,"Kandivali East, Mumbai - MPCB",01-02-2026 09:00:00,19.205800,72.868200,CO,19,20,20
India,Maharashtra,Mumbai,"Kandivali West, Mumbai - BMC",01-02-2026 09:00:00,19.215859,72.831718,PM2.5,55,91,70
India,Maharashtra,Mumbai,"Kherwadi_Bandra East, Mumbai - MPCB",01-02-2026 09:00:00,19.0632143,72.8456324,CO,8,28,22
India,Maharashtra,Mumbai,"Mulund West, Mumbai - MPCB",01-02-2026 09:00:00,19.1750,72.9419,NH3,3,4,3
India,Maharashtra,Mumbai,"Navy Nagar-Colaba, Mumbai - IITM",01-02-2026 09:00:00,18.897756,72.813320,PM2.5,78,195,140
India,Maharashtra,Mumbai,"Khindipada-Bhandup West, Mumbai - IITM",01-02-2026 09:00:00,19.1653323,72.922099,OZONE,26,84,34
India,Maharashtra,Pune,"Katraj Dairy, Pune - MPCB",01-02-2026 09:00:00,18.454450,73.854155,CO,32,64,60
India,Maharashtra,Pune,"Mhada Colony, Pune - IITM",01-02-2026 09:00:00,18.573040,73.927715,CO,2,94,2
India,Maharashtra,Pune,"Mhada Colony, Pune - IITM",01-02-2026 09:00:00,18.573040,73.927715,OZONE,15,134,20
India,Maharashtra,Pune,"Panchawati_Pashan, Pune - IITM",01-02-2026 09:00:00,18.536457,73.805454,PM10,99,160,123
India,Maharashtra,Pune,"Panchawati_Pashan, Pune - IITM",01-02-2026 09:00:00,18.536457,73.805454,CO,19,42,26
India,Maharashtra,Pune,"Revenue Colony-Shivajinagar, Pune - IITM",01-02-2026 09:00:00,18.530085,73.849598,SO2,2,21,8
India,Maharashtra,Pune,"Savitribai Phule Pune University, Pune - MPCB",01-02-2026 09:00:00,18.547056,73.826908,CO,15,90,72
India,Maharashtra,Pune,"Savitribai Phule Pune University, Pune - MPCB",01-02-2026 09:00:00,18.547056,73.826908,OZONE,NA,NA,NA
India,Maharashtra,Pune,"Transport Nagar-Nigdi, Pune - IITM",01-02-2026 09:00:00,18.664282,73.763966,PM2.5,88,228,152
India,Maharashtra,Pune,"Transport Nagar-Nigdi, Pune - IITM",01-02-2026 09:00:00,18.664282,73.763966,PM10,142,242,172
India,Maharashtra,Sangli,"Vijay Nagar, Sangli - MPCB",01-02-2026 09:00:00, 16.5038,74.3623,NH3,1,2,1
India,Maharashtra,Sangli,"Vijay Nagar, Sangli - MPCB",01-02-2026 09:00:00, 16.5038,74.3623,OZONE,6,72,31
India,Maharashtra,Solapur,"Dnyaneshwar Nagar, Solapur - MPCB",01-02-2026 09:00:00,17.6336264,75.9132495,PM10,105,161,121
India,Maharashtra,Solapur,"Dnyaneshwar Nagar, Solapur - MPCB",01-02-2026 09:00:00,17.6336264,75.9132495,NH3,8,24,13
India,Maharashtra,Solapur,"Dnyaneshwar Nagar, Solapur - MPCB",01-02-2026 09:00:00,17.6336264,75.9132495,OZONE,34,74,46
India,Maharashtra,Solapur,"Ratandeep Housing Society, Solapur - MPCB",01-02-2026 09:00:00,17.65439,75.90649,NO2,13,139,35
India,Maharashtra,Thane,"Kasarvadavali, Thane - MPCB",01-02-2026 09:00:00,19.26777,72.97182,PM2.5,51,87,65
India,Maharashtra,Thane,"Kasarvadavali, Thane - MPCB",01-02-2026 09:00:00,19.26777,72.97182,NO2,23,78,49
India,Maharashtra,Thane,"Upvan Fort, Thane - MPCB",01-02-2026 09:00:00,19.222279,72.957979,PM10,62,136,97
India,Maharashtra,Thane,"Upvan Fort, Thane - MPCB",01-02-2026 09:00:00,19.222279,72.957979,NO2,2,15,8
India,Maharashtra,Ulhasnagar,"Sidhi Vinayak Nagar, Ulhasnagar - MPCB",01-02-2026 09:00:00,19.235581,73.159121,PM2.5,131,198,160
India,Maharashtra,Ulhasnagar,"Sidhi Vinayak Nagar, Ulhasnagar - MPCB",01-02-2026 09:00:00,19.235581,73.159121,NH3,3,7,5
India,Maharashtra,Nashik,"Gangapur Road, Nashik - MPCB",01-02-2026 09:00:00,20.0073285,73.7762427,NH3,3,3,3
India,Maharashtra,Nashik,"Gangapur Road, Nashik - MPCB",01-02-2026 09:00:00,20.0073285,73.7762427,OZONE,9,47,47
India,Maharashtra,Nashik,"Hirawadi, Nashik - MPCB",01-02-2026 09:00:00,20.021503,73.813844,PM10,NA,NA,NA
India,Maharashtra,Nashik,"MIDC Ambad, Nashik - MPCB",01-02-2026 09:00:00,19.950220,73.731480,SO2,NA,NA,NA
India,Maharashtra,Nashik,"MIDC Ambad, Nashik - MPCB",01-02-2026 09:00:00,19.950220,73.731480,OZONE,9,45,17
India,Maharashtra,Navi Mumbai,"Kopripada-Vashi, Navi Mumbai - MPCB",01-02-2026 09:00:00,19.090337,73.014232,PM2.5,57,171,86
India,Maharashtra,Navi Mumbai,"Kopripada-Vashi, Navi Mumbai - MPCB",01-02-2026 09:00:00,19.090337,73.014232,NO2,20,47,33
India,Maharashtra,Navi Mumbai,"Kopripada-Vashi, Navi Mumbai - MPCB",01-02-2026 09:00:00,19.090337,73.014232,OZONE,1,64,3
India,Maharashtra,Navi Mumbai,"Mahape, Navi Mumbai - MPCB",01-02-2026 09:00:00,19.1135051,73.008978,CO,18,20,20
India,Maharashtra,Pimpri-Chinchwad,"Savta Mali Nagar, Pimpri-Chinchwad - IITM",01-02-2026 09:00:00,18.614767,73.799516,PM10,101,170,145
India,Maharashtra,Pimpri-Chinchwad,"Savta Mali Nagar, Pimpri-Chinchwad - IITM",01-02-2026 09:00:00,18.614767,73.799516,CO,50,108,96
India,Maharashtra,Pimpri-Chinchwad,"Thergaon, Pimpri Chinchwad - MPCB",01-02-2026 09:00:00,18.616318,73.765797,PM2.5,91,298,150
India,Maharashtra,Pimpri-Chinchwad,"Thergaon, Pimpri Chinchwad - MPCB",01-02-2026 09:00:00,18.616318,73.765797,NH3,6,7,6
India,Maharashtra,Pimpri-Chinchwad,"Thergaon, Pimpri Chinchwad - MPCB",01-02-2026 09:00:00,18.616318,73.765797,SO2,1,3,2
India,Maharashtra,Pimpri-Chinchwad,"Thergaon, Pimpri Chinchwad - MPCB",01-02-2026 09:00:00,18.616318,73.765797,OZONE,2,70,12
India,Maharashtra,Pune,"Dhankawadi, Pune - IITM",01-02-2026 09:00:00,18.459883,73.852193,CO,34,118,89
India,Maharashtra,Pune,"Hadapsar, Pune - IITM",01-02-2026 09:00:00,18.501793,73.927532,PM10,NA,NA,NA
India,Maharashtra,Pune,"Hadapsar, Pune - IITM",01-02-2026 09:00:00,18.501793,73.927532,OZONE,3,144,11
India,Maharashtra,Navi Mumbai,"Nerul, Navi Mumbai - MPCB",01-02-2026 09:00:00,19.008751,73.016620,PM10,NA,NA,NA
India,Maharashtra,Navi Mumbai,"Sanpada, Navi Mumbai - MPCB",01-02-2026 09:00:00,19.0575752,73.0151367,NH3,13,13,13
India,Maharashtra,Navi Mumbai,"Sanpada, Navi Mumbai - MPCB",01-02-2026 09:00:00,19.0575752,73.0151367,OZONE,1,57,5
India,Maharashtra,Navi Mumbai,"Sector-2E Kalamboli, Navi Mumbai - MPCB",01-02-2026 09:00:00,19.02579,73.10297,PM10,58,91,70
India,Maharashtra,Navi Mumbai,"Tondare-Taloja, Navi Mumbai - MPCB",01-02-2026 09:00:00,19.0630,73.1209,PM2.5,NA,NA,NA
India,Maharashtra,Pimpri-Chinchwad,"Gavalinagar, Pimpri Chinchwad - MPCB",01-02-2026 09:00:00,18.63673,73.82487,SO2,1,3,1
India,Maharashtra,Ulhasnagar,"Sidhi Vinayak Nagar, Ulhasnagar - MPCB",01-02-2026 09:00:00,19.235581,73.159121,OZONE,12,82,14
India,Maharashtra,Virar,"Bolinj, Virar - MPCB",01-02-2026 09:00:00,19.4458210,72.7988231,NO2,8,55,18
India,Maharashtra,Virar,"Bolinj, Virar - MPCB",01-02-2026 09:00:00,19.4458210,72.7988231,OZONE,6,34,18
India,Nagaland,Kohima,"PWD Junction, Kohima - NPCB",01-02-2026 09:00:00,25.6635413,94.0989878,PM2.5,13,113,54
India,Odisha,Angul,"Hakimapada, Angul - OSPCB",01-02-2026 09:00:00,20.832874,85.104082,CO,4,113,53
India,Odisha,Balasore,"Kalidaspur, Balasore - OSPCB",01-02-2026 09:00:00,21.51161,86.89088,SO2,8,32,18
India,Odisha,Balasore,"Kalidaspur, Balasore - OSPCB",01-02-2026 09:00:00,21.51161,86.89088,CO,10,85,38
India,Odisha,Barbil,"Forest Office, Barbil - OSPCB",01-02-2026 09:00:00,22.1166054,85.3945546,NO2,25,73,41
India,Odisha,Barbil,"Forest Office, Barbil - OSPCB",01-02-2026 09:00:00,22.1166054,85.3945546,SO2,10,88,34
India,Odisha,Barbil,"Forest Office, Barbil - OSPCB",01-02-2026 09:00:00,22.1166054,85.3945546,CO,40,80,74
India,Maharashtra,Nashik,"Gangapur Road, Nashik - MPCB",01-02-2026 09:00:00,20.0073285,73.7762427,PM2.5,62,98,77
India,Odisha,Cuttack,"CDA Area, Cuttack - OSPCB",01-02-2026 09:00:00,20.48891     ,85.84768     ,CO,52,104,64
India,Odisha,Cuttack,"CDA Area, Cuttack - OSPCB",01-02-2026 09:00:00,20.48891     ,85.84768     ,OZONE,21,246,33
India,Odisha,Keonjhar,"Jagamohanpur, Keonjhar - OSPCB",01-02-2026 09:00:00,21.643900,85.599355,PM2.5,177,278,226
India,Odisha,Rairangpur,"Divisional Forest Office, Rairangpur - OSPCB",01-02-2026 09:00:00,22.265816,86.174829,PM2.5,38,96,68
India,Odisha,Rourkela,"Fertilizer Township, Rourkela - OSPCB",01-02-2026 09:00:00,22.18972222,84.86277778,PM2.5,96,144,113
India,Odisha,Rourkela,"Raghunathpali, Rourkela - OSPCB",01-02-2026 09:00:00,22.220833,84.809444,PM2.5,123,301,197
India,Odisha,Rourkela,"Raghunathpali, Rourkela - OSPCB",01-02-2026 09:00:00,22.220833,84.809444,OZONE,4,22,5
India,Rajasthan,Alwar,"Moti Doongri, Alwar - RSPCB",01-02-2026 09:00:00,27.554793,76.611536,PM10,97,148,123
India,Rajasthan,Alwar,"Moti Doongri, Alwar - RSPCB",01-02-2026 09:00:00,27.554793,76.611536,SO2,10,41,28
India,Rajasthan,Baran,"Bamboliya, Baran - RSPCB",01-02-2026 09:00:00,25.106006,76.469948,NH3,NA,NA,NA
India,Rajasthan,Baran,"Bamboliya, Baran - RSPCB",01-02-2026 09:00:00,25.106006,76.469948,OZONE,NA,NA,NA
India,Rajasthan,Barmer,"Railway Colony, Barmer - RSPCB",01-02-2026 09:00:00,25.747299,71.393989,NO2,9,80,24
India,Rajasthan,Barmer,"Railway Colony, Barmer - RSPCB",01-02-2026 09:00:00,25.747299,71.393989,CO,46,105,48
India,Rajasthan,Barmer,"Railway Colony, Barmer - RSPCB",01-02-2026 09:00:00,25.747299,71.393989,OZONE,38,141,80
India,Rajasthan,Bharatpur,"Krishna Nagar, Bharatpur - RSPCB",01-02-2026 09:00:00,27.215415,77.50873,PM2.5,52,87,65
India,Rajasthan,Bhilwara,"Pratap Nagar, Bhilwara - RSPCB",01-02-2026 09:00:00,25.339605,74.618883,PM2.5,88,300,141
India,Rajasthan,Bhilwara,"Pratap Nagar, Bhilwara - RSPCB",01-02-2026 09:00:00,25.339605,74.618883,OZONE,1,46,4
India,Rajasthan,Bhiwadi,"RIICO Ind. Area III, Bhiwadi - RSPCB",01-02-2026 09:00:00,28.194909,76.862296,PM2.5,123,373,238
India,Rajasthan,Bhiwadi,"RIICO Ind. Area III, Bhiwadi - RSPCB",01-02-2026 09:00:00,28.194909,76.862296,PM10,104,281,158
India,Rajasthan,Bhiwadi,"RIICO Ind. Area III, Bhiwadi - RSPCB",01-02-2026 09:00:00,28.194909,76.862296,NH3,6,20,12
India,Rajasthan,Bhiwadi,"RIICO Ind. Area III, Bhiwadi - RSPCB",01-02-2026 09:00:00,28.194909,76.862296,CO,6,115,67
India,Rajasthan,Bhiwadi,"RIICO Ind. Area III, Bhiwadi - RSPCB",01-02-2026 09:00:00,28.194909,76.862296,OZONE,5,44,8
India,Rajasthan,Bhiwadi,"Vasundhara Nagar_UIT, Bhiwadi - RSPCB",01-02-2026 09:00:00,28.207266,76.829265,CO,50,104,54
India,Puducherry,Puducherry,"Jawahar Nagar, Puducherry - PPCC",01-02-2026 09:00:00,11.9309,79.8027,NH3,2,4,3
India,Puducherry,Puducherry,"Jawahar Nagar, Puducherry - PPCC",01-02-2026 09:00:00,11.9309,79.8027,CO,16,27,20
India,Punjab,Bathinda,"Hardev Nagar, Bathinda - PPCB",01-02-2026 09:00:00,30.233011,74.907758,NO2,5,41,21
India,Punjab,Khanna,"Kalal Majra, Khanna - PPCB",01-02-2026 09:00:00,30.736056 ,76.209694,PM10,48,147,101
India,Odisha,Suakati,"OMC Colony, Suakati - OSPCB",01-02-2026 09:00:00,21.606865,85.510538,PM10,130,500,188
India,Odisha,Talcher,"Talcher Coalfields,Talcher - OSPCB",01-02-2026 09:00:00,20.9360711,85.1707021,CO,41,62,56
India,Puducherry,Puducherry,"Jawahar Nagar, Puducherry - PPCC",01-02-2026 09:00:00,11.9309,79.8027,PM2.5,18,90,42
India,Punjab,Ludhiana,"Punjab Agricultural University, Ludhiana - PPCB",01-02-2026 09:00:00,30.9028,75.8086,PM2.5,67,117,84
India,Punjab,Ludhiana,"Punjab Agricultural University, Ludhiana - PPCB",01-02-2026 09:00:00,30.9028,75.8086,OZONE,18,40,27
India,Punjab,Mandi Gobindgarh,"RIMT University, Mandi Gobindgarh - PPCB",01-02-2026 09:00:00,30.649961,76.331442,PM2.5,32,87,64
India,Punjab,Mandi Gobindgarh,"RIMT University, Mandi Gobindgarh - PPCB",01-02-2026 09:00:00,30.649961,76.331442,PM10,38,103,77
India,Punjab,Patiala,"Model Town, Patiala - PPCB",01-02-2026 09:00:00,30.349388,76.366642,OZONE,11,42,12
India,Rajasthan,Ajmer,"Civil Lines,  Ajmer - RSPCB",01-02-2026 09:00:00,26.470859,74.646594,PM2.5,63,108,86
India,Rajasthan,Ajmer,"Civil Lines,  Ajmer - RSPCB",01-02-2026 09:00:00,26.470859,74.646594,NO2,28,34,31
India,Rajasthan,Ajmer,"Civil Lines,  Ajmer - RSPCB",01-02-2026 09:00:00,26.470859,74.646594,NH3,3,4,4
India,Odisha,Brajrajnagar,"GM Office, Brajrajnagar - OSPCB",01-02-2026 09:00:00,21.8004996,83.8396977,NO2,3,65,32
India,Odisha,Byasanagar,"Ferro Chrome Colony, Byasanagar - OSPCB",01-02-2026 09:00:00,20.94185,86.11510,NH3,2,3,3
India,Odisha,Byasanagar,"Ferro Chrome Colony, Byasanagar - OSPCB",01-02-2026 09:00:00,20.94185,86.11510,SO2,3,8,6
India,Odisha,Baripada,"Meher Colony, Baripada - OSPCB",01-02-2026 09:00:00,21.941841,86.728318,NO2,1,54,16
India,Rajasthan,Jhalawar,"Rajlaxmi Nagar, Jhalawar - RSPCB",01-02-2026 09:00:00,24.588397,76.172782,OZONE,11,81,16
India,Rajasthan,Jhunjhunu,"Indra Nagar, Jhunjhunu - RSPCB",01-02-2026 09:00:00,28.108988,75.386577,NH3,9,35,13
India,Rajasthan,Jhunjhunu,"Indra Nagar, Jhunjhunu - RSPCB",01-02-2026 09:00:00,28.108988,75.386577,SO2,6,13,8
India,Rajasthan,Jhunjhunu,"Indra Nagar, Jhunjhunu - RSPCB",01-02-2026 09:00:00,28.108988,75.386577,OZONE,22,123,43
India,Rajasthan,Jodhpur,"Collectorate, Jodhpur - RSPCB",01-02-2026 09:00:00,26.268249,73.0193853,PM2.5,43,161,67
India,Rajasthan,Jodhpur,"Collectorate, Jodhpur - RSPCB",01-02-2026 09:00:00,26.268249,73.0193853,NO2,20,33,25
India,Rajasthan,Jodhpur,"Collectorate, Jodhpur - RSPCB",01-02-2026 09:00:00,26.268249,73.0193853,OZONE,27,92,48
India,Rajasthan,Jodhpur,"Digari Kalan, Jodhpur - RSPCB",01-02-2026 09:00:00,26.295810,73.082283,SO2,1,14,6
India,Rajasthan,Jodhpur,"Jhalamand, Jodhpur - RSPCB",01-02-2026 09:00:00,26.215415,73.070156,PM10,45,173,102
India,Rajasthan,Jodhpur,"Jhalamand, Jodhpur - RSPCB",01-02-2026 09:00:00,26.215415,73.070156,NO2,6,79,24
India,Rajasthan,Jodhpur,"Mandor, Jodhpur - RSPCB",01-02-2026 09:00:00,26.358805,73.047444,NH3,3,6,5
India,Rajasthan,Jodhpur,"Samrat Ashok Udhyan, Jodhpur - RSPCB",01-02-2026 09:00:00,26.253384,72.976571,OZONE,57,182,94
India,Rajasthan,Karauli,"Satyawati Vihar, Karauli - RSPCB",01-02-2026 09:00:00,26.506177,77.025989,NO2,8,35,19
India,Rajasthan,Karauli,"Satyawati Vihar, Karauli - RSPCB",01-02-2026 09:00:00,26.506177,77.025989,NH3,7,12,9
India,Rajasthan,Karauli,"Satyawati Vihar, Karauli - RSPCB",01-02-2026 09:00:00,26.506177,77.025989,SO2,10,16,13
India,Rajasthan,Karauli,"Satyawati Vihar, Karauli - RSPCB",01-02-2026 09:00:00,26.506177,77.025989,CO,9,52,16
India,Rajasthan,Kota,"Dhanmandi, Kota - RSPCB",01-02-2026 09:00:00,25.164090,75.858137,PM10,86,304,135
India,Rajasthan,Kota,"Dhanmandi, Kota - RSPCB",01-02-2026 09:00:00,25.164090,75.858137,NH3,7,12,9
India,Rajasthan,Kota,"Shrinath Puram, Kota - RSPCB",01-02-2026 09:00:00,25.14389,75.821256,PM10,103,157,129
India,Rajasthan,Kota,"Shrinath Puram, Kota - RSPCB",01-02-2026 09:00:00,25.14389,75.821256,NO2,7,16,13
India,Rajasthan,Jaipur,"Mansarovar Sector-12, Jaipur - RSPCB",01-02-2026 09:00:00,26.843698,75.766894,CO,50,84,57
India,Rajasthan,Jaipur,"Police Commissionerate, Jaipur - RSPCB",01-02-2026 09:00:00,26.9164092,75.7994901,CO,65,77,70
India,Rajasthan,Jaipur,"Police Commissionerate, Jaipur - RSPCB",01-02-2026 09:00:00,26.9164092,75.7994901,OZONE,15,58,20
India,Rajasthan,Jaipur,"RIICO Sitapura, Jaipur - RSPCB",01-02-2026 09:00:00,26.786682,75.827928,NH3,2,8,4
India,Rajasthan,Jaipur,"Sector-2 Murlipura, Jaipur - RSPCB",01-02-2026 09:00:00,26.960669,75.771817,PM10,67,150,93
India,Rajasthan,Jaipur,"Shastri Nagar, Jaipur - RSPCB",01-02-2026 09:00:00,26.9502929,75.730943,PM2.5,59,186,96
India,Rajasthan,Dholpur,"Raja Ganj, Dholpur - RSPCB",01-02-2026 09:00:00,26.699557,77.898881,NH3,9,13,11
India,Rajasthan,Dungarpur,"Bhoiwada, Dungarpur - RSPCB",01-02-2026 09:00:00,23.837789,73.714926,NO2,16,58,31
India,Rajasthan,Dungarpur,"Bhoiwada, Dungarpur - RSPCB",01-02-2026 09:00:00,23.837789,73.714926,NH3,7,11,9
India,Rajasthan,Dungarpur,"Bhoiwada, Dungarpur - RSPCB",01-02-2026 09:00:00,23.837789,73.714926,OZONE,3,95,4
India,Rajasthan,Hanumangarh,"Housing Board, Hanumangarh - RSPCB",01-02-2026 09:00:00,29.610750,74.283608,PM10,103,238,135
India,Rajasthan,Hanumangarh,"Housing Board, Hanumangarh - RSPCB",01-02-2026 09:00:00,29.610750,74.283608,SO2,4,16,8
India,Rajasthan,Bundi,"New Colony, Bundi - RSPCB",01-02-2026 09:00:00,25.435774,75.644272,SO2,6,26,9
India,Rajasthan,Bundi,"New Colony, Bundi - RSPCB",01-02-2026 09:00:00,25.435774,75.644272,CO,21,32,26
India,Rajasthan,Bundi,"New Colony, Bundi - RSPCB",01-02-2026 09:00:00,25.435774,75.644272,OZONE,16,79,31
India,Rajasthan,Chittorgarh,"Shastri Nagar, Chittorgarh - RSPCB",01-02-2026 09:00:00,24.892047,74.623527,SO2,6,108,18
India,Rajasthan,Sawai Madhopur,"Sahu Nagar, Sawai Madhopur - RSPCB",01-02-2026 09:00:00,26.031443,76.359327,CO,18,66,35
India,Rajasthan,Sawai Madhopur,"Sahu Nagar, Sawai Madhopur - RSPCB",01-02-2026 09:00:00,26.031443,76.359327,OZONE,8,126,17
India,Rajasthan,Sikar,"Radhakishan Pura, Sikar - RSPCB",01-02-2026 09:00:00,27.608912,75.153302,PM2.5,88,293,132
India,Rajasthan,Jaisalmer,"Sadar Bazar, Jaisalmer - RSPCB",01-02-2026 09:00:00,26.912329,70.909168,PM10,41,165,91
India,Rajasthan,Jaisalmer,"Sadar Bazar, Jaisalmer - RSPCB",01-02-2026 09:00:00,26.912329,70.909168,OZONE,10,85,72
India,Rajasthan,Jaipur,"Adarsh Nagar, Jaipur - RSPCB",01-02-2026 09:00:00,26.902909,75.836858,SO2,14,27,21
India,Rajasthan,Jaipur,"Adarsh Nagar, Jaipur - RSPCB",01-02-2026 09:00:00,26.902909,75.836858,CO,35,59,50
India,Rajasthan,Pratapgarh,"Pragati Nagar, Pratapgarh - RSPCB",01-02-2026 09:00:00,24.041198,74.780702,NH3,5,8,6
India,TamilNadu,Thoothukudi,"Meelavittan, Thoothukudi - TNPCB",01-02-2026 09:00:00,8.816428 ,78.099039,CO,16,42,35
India,Telangana,Hyderabad,"Bollaram Industrial Area, Hyderabad - TSPCB",01-02-2026 09:00:00,17.540891,78.358528,PM10,118,158,135
India,Telangana,Hyderabad,"Bollaram Industrial Area, Hyderabad - TSPCB",01-02-2026 09:00:00,17.540891,78.358528,NO2,2,48,30
India,Telangana,Hyderabad,"Central University, Hyderabad - TSPCB",01-02-2026 09:00:00,17.460103,78.334361,PM10,51,80,64
India,Telangana,Hyderabad,"Central University, Hyderabad - TSPCB",01-02-2026 09:00:00,17.460103,78.334361,NO2,18,31,24
India,Telangana,Hyderabad,"Central University, Hyderabad - TSPCB",01-02-2026 09:00:00,17.460103,78.334361,CO,23,42,28
India,Telangana,Hyderabad,"ECIL Kapra, Hyderabad - TSPCB",01-02-2026 09:00:00,17.470431,78.566959,NO2,12,32,21
India,Telangana,Hyderabad,"ECIL Kapra, Hyderabad - TSPCB",01-02-2026 09:00:00,17.470431,78.566959,CO,19,31,29
India,Telangana,Hyderabad,"ICRISAT Patancheru, Hyderabad - TSPCB",01-02-2026 09:00:00,17.518400,78.278777,PM2.5,80,180,119
India,Telangana,Hyderabad,"ICRISAT Patancheru, Hyderabad - TSPCB",01-02-2026 09:00:00,17.518400,78.278777,CO,10,52,28
India,Telangana,Hyderabad,"IDA Pashamylaram, Hyderabad - TSPCB",01-02-2026 09:00:00,17.5316895,78.218939,PM10,NA,NA,NA
India,Telangana,Hyderabad,"IDA Pashamylaram, Hyderabad - TSPCB",01-02-2026 09:00:00,17.5316895,78.218939,NO2,7,7,7
India,Telangana,Hyderabad,"IITH Kandi, Hyderabad - TSPCB",01-02-2026 09:00:00,17.585705,78.126199,PM10,74,82,79
India,Telangana,Hyderabad,"Kokapet, Hyderabad - TSPCB",01-02-2026 09:00:00,17.393559,78.339194,PM2.5,52,66,57
India,Telangana,Hyderabad,"Kompally Municipal Office, Hyderabad - TSPCB",01-02-2026 09:00:00,17.544899,78.486949,PM10,70,88,79
India,Telangana,Hyderabad,"Kompally Municipal Office, Hyderabad - TSPCB",01-02-2026 09:00:00,17.544899,78.486949,NH3,2,4,3
India,Telangana,Hyderabad,"Nacharam_TSIIC IALA, Hyderabad - TSPCB",01-02-2026 09:00:00,17.429398,78.569354,NO2,12,20,20
India,Telangana,Hyderabad,"Nacharam_TSIIC IALA, Hyderabad - TSPCB",01-02-2026 09:00:00,17.429398,78.569354,CO,9,32,30
India,Telangana,Hyderabad,"Nacharam_TSIIC IALA, Hyderabad - TSPCB",01-02-2026 09:00:00,17.429398,78.569354,OZONE,19,34,33
India,Telangana,Hyderabad,"New Malakpet, Hyderabad - TSPCB",01-02-2026 09:00:00,17.37206,78.50864,PM10,72,115,94
India,Telangana,Hyderabad,"Ramachandrapuram, Hyderabad - TSPCB",01-02-2026 09:00:00,17.528544,78.286195,PM2.5,43,59,49
India,Telangana,Hyderabad,"Ramachandrapuram, Hyderabad - TSPCB",01-02-2026 09:00:00,17.528544,78.286195,NH3,3,5,4
India,Telangana,Hyderabad,"Ramachandrapuram, Hyderabad - TSPCB",01-02-2026 09:00:00,17.528544,78.286195,SO2,10,15,13
India,Rajasthan,Sirohi,"Vedhaynath Colony, Sirohi - RSPCB",01-02-2026 09:00:00,24.885261,72.857549,NH3,NA,NA,NA
India,Rajasthan,Sri Ganganagar,"Old City, Sri Ganganagar - RSPCB",01-02-2026 09:00:00,29.931624,73.864511,PM2.5,60,373,99
India,Rajasthan,Sri Ganganagar,"Old City, Sri Ganganagar - RSPCB",01-02-2026 09:00:00,29.931624,73.864511,CO,22,78,26
India,Rajasthan,Udaipur,"Ashok Nagar, Udaipur - RSPCB",01-02-2026 09:00:00,24.5886166,73.6321397,PM10,97,182,142
India,Sikkim,Gangtok,"Zero Point GICI, Gangtok - SSPCB",01-02-2026 09:00:00,27.338530,88.614099,CO,9,62,18
India,Sikkim,Gangtok,"Zero Point GICI, Gangtok - SSPCB",01-02-2026 09:00:00,27.338530,88.614099,OZONE,19,22,20
India,TamilNadu,Chennai,"Arumbakkam, Chennai - TNPCB",01-02-2026 09:00:00,13.0664,80.2112 ,PM2.5,18,210,76
India,Telangana,Hyderabad,"Sanathnagar, Hyderabad - TSPCB",01-02-2026 09:00:00,17.4559458,78.4332152,NO2,21,43,28
India,Telangana,Hyderabad,"Sanathnagar, Hyderabad - TSPCB",01-02-2026 09:00:00,17.4559458,78.4332152,SO2,7,14,11
India,Telangana,Hyderabad,"Somajiguda, Hyderabad - TSPCB",01-02-2026 09:00:00,17.417094,78.457437,PM2.5,65,81,78
India,Telangana,Hyderabad,"Zoo Park, Hyderabad - TSPCB",01-02-2026 09:00:00,17.349694,78.451437,SO2,2,10,5
India,Telangana,Hyderabad,"Zoo Park, Hyderabad - TSPCB",01-02-2026 09:00:00,17.349694,78.451437,CO,6,92,34
India,Uttar_Pradesh,Agra,"Rohta, Agra - UPPCB",01-02-2026 09:00:00,27.106972,78.000111,PM2.5,39,119,59
India,Uttar_Pradesh,Agra,"Sanjay Palace, Agra - UPPCB",01-02-2026 09:00:00,27.19865833,78.00598056,PM10,60,164,107
India,Uttar_Pradesh,Agra,"Sanjay Palace, Agra - UPPCB",01-02-2026 09:00:00,27.19865833,78.00598056,SO2,17,19,18
India,TamilNadu,Coimbatore,"PSG College of Arts and Science, Coimbatore - TNPCB",01-02-2026 09:00:00,11.0328,77.0349,PM10,45,89,70
India,TamilNadu,Coimbatore,"PSG College of Arts and Science, Coimbatore - TNPCB",01-02-2026 09:00:00,11.0328,77.0349,NH3,1,1,1
India,TamilNadu,Coimbatore,"SIDCO Kurichi, Coimbatore - TNPCB",01-02-2026 09:00:00,10.942451,76.978996,PM2.5,40,75,56
India,TamilNadu,Coimbatore,"SIDCO Kurichi, Coimbatore - TNPCB",01-02-2026 09:00:00,10.942451,76.978996,SO2,21,24,22
India,TamilNadu,Gummidipoondi,"Anthoni Pillai Nagar, Gummidipoondi - TNPCB",01-02-2026 09:00:00,13.4127,80.1081,NO2,17,27,23
India,TamilNadu,Perundurai,"SIPCOT Industrial Park, Perundurai - TNPCB",01-02-2026 09:00:00,11.258242,77.552761,PM10,40,77,55
India,TamilNadu,Perundurai,"SIPCOT Industrial Park, Perundurai - TNPCB",01-02-2026 09:00:00,11.258242,77.552761,OZONE,21,21,21
India,TamilNadu,Chennai,"Kodungaiyur, Chennai - TNPCB",01-02-2026 09:00:00,13.1278,80.2642,NH3,3,5,4
India,TamilNadu,Chennai,"Kodungaiyur, Chennai - TNPCB",01-02-2026 09:00:00,13.1278,80.2642,CO,46,60,55
India,TamilNadu,Chennai,"Manali, Chennai - CPCB",01-02-2026 09:00:00,13.164544,80.26285,PM10,61,92,80
India,TamilNadu,Chennai,"Manali, Chennai - CPCB",01-02-2026 09:00:00,13.164544,80.26285,NH3,6,7,7
India,TamilNadu,Chennai,"Perungudi, Chennai - TNPCB",01-02-2026 09:00:00,12.9533,80.2357,PM10,43,329,79
India,TamilNadu,Chennai,"Perungudi, Chennai - TNPCB",01-02-2026 09:00:00,12.9533,80.2357,SO2,1,7,4
India,TamilNadu,Chennai,"Perungudi, Chennai - TNPCB",01-02-2026 09:00:00,12.9533,80.2357,OZONE,4,15,7
India,TamilNadu,Chennai,"Royapuram, Chennai - TNPCB",01-02-2026 09:00:00,13.1036,80.2909,PM10,34,362,90
India,TamilNadu,Chennai,"Royapuram, Chennai - TNPCB",01-02-2026 09:00:00,13.1036,80.2909,CO,41,64,57
India,Uttar_Pradesh,Agra,"Sanjay Palace, Agra - UPPCB",01-02-2026 09:00:00,27.19865833,78.00598056,OZONE,3,53,5
India,Uttar_Pradesh,Agra,"Sector-3B Avas Vikas Colony, Agra - UPPCB",01-02-2026 09:00:00,27.19412,77.96237,NH3,3,8,7
India,Uttar_Pradesh,Agra,"Sector-3B Avas Vikas Colony, Agra - UPPCB",01-02-2026 09:00:00,27.19412,77.96237,OZONE,NA,NA,NA
India,Uttar_Pradesh,Agra,"Shastripuram, Agra - UPPCB",01-02-2026 09:00:00,27.19862,77.92066,PM2.5,NA,NA,NA
India,Uttar_Pradesh,Baghpat,"Sardar Patel Inter College, Baghpat - UPPCB",01-02-2026 09:00:00,28.964949,77.278761,PM2.5,194,350,292
India,Uttar_Pradesh,Baghpat,"Sardar Patel Inter College, Baghpat - UPPCB",01-02-2026 09:00:00,28.964949,77.278761,OZONE,8,46,10
India,TamilNadu,Thanjavur,"Parisutham Nagar, Thanjavur - TNPCB",01-02-2026 09:00:00,10.7654824,79.1389968,SO2,17,17,17
India,TamilNadu,Thoothukudi,"Meelavittan, Thoothukudi - TNPCB",01-02-2026 09:00:00,8.816428 ,78.099039,PM10,33,67,49
India,TamilNadu,Thoothukudi,"Meelavittan, Thoothukudi - TNPCB",01-02-2026 09:00:00,8.816428 ,78.099039,SO2,7,19,13
India,Uttar_Pradesh,Bareilly,"Rajendra Nagar, Bareilly - UPPCB",01-02-2026 09:00:00,28.38910936,79.42963708,PM10,58,165,87
India,Uttar_Pradesh,Gorakhpur,"Madan Mohan Malaviya University of Technology, Gorakhpur - UPPCB",01-02-2026 09:00:00,26.730136,83.433859,PM10,60,142,101
India,Uttar_Pradesh,Gorakhpur,"Madan Mohan Malaviya University of Technology, Gorakhpur - UPPCB",01-02-2026 09:00:00,26.730136,83.433859,OZONE,1,3,3
India,Uttar_Pradesh,Greater Noida,"Knowledge Park - III, Greater Noida - UPPCB",01-02-2026 09:00:00,28.47272,77.482000,PM2.5,111,338,259
India,Uttar_Pradesh,Greater Noida,"Knowledge Park - V, Greater Noida - UPPCB",01-02-2026 09:00:00,28.557054,77.453663,SO2,NA,NA,NA
India,Uttar_Pradesh,Hapur,"Anand Vihar, Hapur - UPPCB",01-02-2026 09:00:00,28.725645,77.749675,NO2,23,33,26
India,Uttar_Pradesh,Hapur,"Anand Vihar, Hapur - UPPCB",01-02-2026 09:00:00,28.725645,77.749675,NH3,10,12,11
India,Uttar_Pradesh,Lucknow,"Lalbagh, Lucknow - CPCB",01-02-2026 09:00:00,26.8458805,80.9365541,OZONE,4,38,9
India,Uttar_Pradesh,Lucknow,"Talkatora District Industries Center, Lucknow - CPCB",01-02-2026 09:00:00,26.83399722,80.8917361,SO2,4,17,11
India,Uttar_Pradesh,Lucknow,"Talkatora District Industries Center, Lucknow - CPCB",01-02-2026 09:00:00,26.83399722,80.8917361,CO,8,90,38
India,Uttar_Pradesh,Lucknow,"Talkatora District Industries Center, Lucknow - CPCB",01-02-2026 09:00:00,26.83399722,80.8917361,OZONE,9,54,14
India,Uttar_Pradesh,Meerut,"Pallavpuram Phase 2, Meerut - UPPCB",01-02-2026 09:00:00,29.063510,77.709723,PM2.5,90,349,185
India,Uttar_Pradesh,Moradabad,"Buddhi Vihar, Moradabad - UPPCB",01-02-2026 09:00:00,28.83526,78.74460,PM2.5,41,88,68
India,Uttar_Pradesh,Hapur,"Anand Vihar, Hapur - UPPCB",01-02-2026 09:00:00,28.725645,77.749675,OZONE,4,25,11
India,Uttar_Pradesh,Kanpur,"FTI Kidwai Nagar, Kanpur - UPPCB",01-02-2026 09:00:00,26.428282,80.327067,PM10,55,158,92
India,Uttar_Pradesh,Kanpur,"FTI Kidwai Nagar, Kanpur - UPPCB",01-02-2026 09:00:00,26.428282,80.327067,SO2,25,29,27
India,Uttar_Pradesh,Kanpur,"FTI Kidwai Nagar, Kanpur - UPPCB",01-02-2026 09:00:00,26.428282,80.327067,CO,38,54,45
India,Uttar_Pradesh,Kanpur,"NSI Kalyanpur, Kanpur - UPPCB",01-02-2026 09:00:00,26.509954,80.249612,PM10,59,125,91
India,Uttar_Pradesh,Kanpur,"NSI Kalyanpur, Kanpur - UPPCB",01-02-2026 09:00:00,26.509954,80.249612,NO2,24,25,25
India,Uttar_Pradesh,Kanpur,"Nehru Nagar, Kanpur - UPPCB",01-02-2026 09:00:00,26.4703136,80.3229863,NO2,55,58,57
India,Uttar_Pradesh,Lucknow,"B R Ambedkar University, Lucknow - UPPCB",01-02-2026 09:00:00,26.766433,80.927299,PM10,41,112,69
India,Uttar_Pradesh,Lucknow,"Gomti Nagar, Lucknow - UPPCB",01-02-2026 09:00:00,26.868120,81.005119,PM10,43,104,73
India,Uttar_Pradesh,Lucknow,"Kendriya Vidyalaya, Lucknow - CPCB",01-02-2026 09:00:00,26.906111,80.948222,PM2.5,86,409,210
India,Uttar_Pradesh,Lucknow,"Kendriya Vidyalaya, Lucknow - CPCB",01-02-2026 09:00:00,26.906111,80.948222,NH3,12,17,15
India,Uttar_Pradesh,Lucknow,"Kukrail Picnic Spot-1, Lucknow - UPPCB",01-02-2026 09:00:00,26.90723,80.98579,PM2.5,23,77,49
India,Uttar_Pradesh,Moradabad,"Employment Office, Moradabad - UPPCB",01-02-2026 09:00:00,28.88528,78.73880,PM2.5,62,159,111
India,Uttar_Pradesh,Moradabad,"Employment Office, Moradabad - UPPCB",01-02-2026 09:00:00,28.88528,78.73880,NO2,16,16,16
India,Uttar_Pradesh,Moradabad,"Employment Office, Moradabad - UPPCB",01-02-2026 09:00:00,28.88528,78.73880,SO2,22,27,24
India,Uttar_Pradesh,Moradabad,"Jigar Colony, Moradabad - UPPCB",01-02-2026 09:00:00,28.856664,78.772638,NO2,25,25,25
India,Uttar_Pradesh,Bulandshahr,"Yamunapuram, Bulandshahr - UPPCB",01-02-2026 09:00:00,28.406963,77.849831,PM2.5,73,276,155
India,Uttar_Pradesh,Bulandshahr,"Yamunapuram, Bulandshahr - UPPCB",01-02-2026 09:00:00,28.406963,77.849831,NO2,8,37,21
India,Uttar_Pradesh,Firozabad,"Vibhab Nagar, Firozabad - UPPCB",01-02-2026 09:00:00,27.1594,78.3953,CO,14,18,14
India,Uttar_Pradesh,Moradabad,"Buddhi Vihar, Moradabad - UPPCB",01-02-2026 09:00:00,28.83526,78.74460,OZONE,11,21,12
India,Uttar_Pradesh,Moradabad,"Eco Herbal Park, Moradabad - UPPCB",01-02-2026 09:00:00,28.840739,78.697531,PM2.5,48,113,83
India,Uttar_Pradesh,Moradabad,"Transport Nagar, Moradabad - UPPCB",01-02-2026 09:00:00,28.802625,78.753728,PM10,38,114,68
India,Uttar_Pradesh,Lucknow,"Lalbagh, Lucknow - CPCB",01-02-2026 09:00:00,26.8458805,80.9365541,NH3,16,24,20
India,West_Bengal,Barrackpore,"SVSPA Campus, Barrackpore - WBPCB",01-02-2026 09:00:00,22.7605581,88.3617589,OZONE,1,54,6
India,West_Bengal,Durgapur,"Mahishkapur Road_B-Zone, Durgapur - WBPCB",01-02-2026 09:00:00,23.567923,87.306843,NH3,2,3,2
India,West_Bengal,Durgapur,"PCBL Residential Complex, Durgapur - WBPCB",01-02-2026 09:00:00,23.5087640,87.3544400,PM2.5,80,236,132
India,West_Bengal,Durgapur,"PCBL Residential Complex, Durgapur - WBPCB",01-02-2026 09:00:00,23.5087640,87.3544400,OZONE,2,50,14
India,West_Bengal,Durgapur,"Womens College_City Center, Durgapur - WBPCB",01-02-2026 09:00:00,23.549395,87.300496,PM10,96,142,117
India,West_Bengal,Haldia,"Priyambada Housing Estate, Haldia - WBPCB",01-02-2026 09:00:00,22.06047,88.109737,NO2,13,35,23
India,West_Bengal,Haldia,"Priyambada Housing Estate, Haldia - WBPCB",01-02-2026 09:00:00,22.06047,88.109737,CO,30,56,52
India,West_Bengal,Haldia,"Priyambada Housing Estate, Haldia - WBPCB",01-02-2026 09:00:00,22.06047,88.109737,OZONE,19,25,20
India,West_Bengal,Howrah,"Belur Math, Howrah - WBPCB",01-02-2026 09:00:00,22.629801,88.352017,PM2.5,85,176,101
India,West_Bengal,Howrah,"Belur Math, Howrah - WBPCB",01-02-2026 09:00:00,22.629801,88.352017,NO2,36,150,66
India,Uttar_Pradesh,Prayagraj,"Jhunsi, Prayagraj - UPPCB",01-02-2026 09:00:00,25.425602,81.917152,PM2.5,54,110,83
India,Uttar_Pradesh,Prayagraj,"Jhunsi, Prayagraj - UPPCB",01-02-2026 09:00:00,25.425602,81.917152,NH3,5,5,5
India,Uttar_Pradesh,Prayagraj,"Jhunsi, Prayagraj - UPPCB",01-02-2026 09:00:00,25.425602,81.917152,CO,14,34,25
India,Uttar_Pradesh,Prayagraj,"Motilal Nehru NIT, Prayagraj - UPPCB",01-02-2026 09:00:00,25.494,81.863,PM10,43,134,71
India,Uttar_Pradesh,Prayagraj,"Motilal Nehru NIT, Prayagraj - UPPCB",01-02-2026 09:00:00,25.494,81.863,CO,20,45,38
India,Uttar_Pradesh,Prayagraj,"Nagar Nigam, Prayagraj - UPPCB",01-02-2026 09:00:00,25.44919916 ,81.82735986 ,NH3,9,15,11
India,Uttar_Pradesh,Prayagraj,"Nagar Nigam, Prayagraj - UPPCB",01-02-2026 09:00:00,25.44919916 ,81.82735986 ,OZONE,11,28,13
India,Uttar_Pradesh,Varanasi,"Ardhali Bazar, Varanasi - UPPCB",01-02-2026 09:00:00,25.3505986,82.9083074,PM2.5,10,52,32
India,Uttar_Pradesh,Varanasi,"Ardhali Bazar, Varanasi - UPPCB",01-02-2026 09:00:00,25.3505986,82.9083074,PM10,14,70,43
India,Uttar_Pradesh,Varanasi,"Ardhali Bazar, Varanasi - UPPCB",01-02-2026 09:00:00,25.3505986,82.9083074,NO2,58,63,60
India,Uttar_Pradesh,Varanasi,"Bhelupur, Varanasi - UPPCB",01-02-2026 09:00:00,25.301778,82.996789,PM2.5,51,236,101
India,Uttar_Pradesh,Varanasi,"Bhelupur, Varanasi - UPPCB",01-02-2026 09:00:00,25.301778,82.996789,SO2,27,29,28
India,Uttar_Pradesh,Varanasi,"IESD Banaras Hindu University, Varanasi - UPPCB",01-02-2026 09:00:00,25.262326,82.995408,PM10,63,121,98
India,Uttar_Pradesh,Varanasi,"IESD Banaras Hindu University, Varanasi - UPPCB",01-02-2026 09:00:00,25.262326,82.995408,OZONE,1,15,12
India,Uttar_Pradesh,Varanasi,"Maldahiya, Varanasi - UPPCB",01-02-2026 09:00:00,25.32393,82.99687,PM10,50,103,76
India,Uttar_Pradesh,Vrindavan,"Omex Eternity, Vrindavan - UPPCB",01-02-2026 09:00:00,27.5714090,77.6557570,NH3,5,9,8
India,Uttar_Pradesh,Vrindavan,"Omex Eternity, Vrindavan - UPPCB",01-02-2026 09:00:00,27.5714090,77.6557570,SO2,15,25,17
India,Uttar_Pradesh,Vrindavan,"Omex Eternity, Vrindavan - UPPCB",01-02-2026 09:00:00,27.5714090,77.6557570,CO,30,44,36
India,Uttar_Pradesh,Vrindavan,"Omex Eternity, Vrindavan - UPPCB",01-02-2026 09:00:00,27.5714090,77.6557570,OZONE,15,15,15
India,Uttarakhand,Kashipur,"Govt. Girls Inter College, Kashipur - UKPCB",01-02-2026 09:00:00,29.2124114,78.9611753,PM2.5,NA,NA,NA
India,Uttarakhand,Kashipur,"Govt. Girls Inter College, Kashipur - UKPCB",01-02-2026 09:00:00,29.2124114,78.9611753,SO2,NA,NA,NA
India,Uttarakhand,Rishikesh,"Shivaji Nagar, Rishikesh - UKPCB",01-02-2026 09:00:00,30.075911,78.2859547,PM2.5,53,92,72
India,Uttarakhand,Rishikesh,"Shivaji Nagar, Rishikesh - UKPCB",01-02-2026 09:00:00,30.075911,78.2859547,CO,25,49,32
India,West_Bengal,Asansol,"Asansol Court Area, Asansol - WBPCB",01-02-2026 09:00:00,23.685297,86.945968,NO2,15,28,23
India,West_Bengal,Asansol,"Evelyn Lodge, Asansol - WBPCB",01-02-2026 09:00:00,23.6979360,86.9443950,NH3,5,6,6
India,West_Bengal,Asansol,"Mahabir Colliery, Asansol - WBPCB",01-02-2026 09:00:00,23.6181830,87.1057180,PM2.5,69,254,163
India,West_Bengal,Asansol,"Mahabir Colliery, Asansol - WBPCB",01-02-2026 09:00:00,23.6181830,87.1057180,NH3,1,2,1
India,West_Bengal,Asansol,"Trivenidevi Bhalotia College, Asansol - WBPCB",01-02-2026 09:00:00,23.616515,87.119133,PM10,81,130,105
India,West_Bengal,Kolkata,"Fort William, Kolkata - WBPCB",01-02-2026 09:00:00,22.556640,88.342674,PM2.5,77,119,94
India,West_Bengal,Kolkata,"Fort William, Kolkata - WBPCB",01-02-2026 09:00:00,22.556640,88.342674,NH3,9,10,9
India,West_Bengal,Kolkata,"Jadavpur, Kolkata - WBPCB",01-02-2026 09:00:00,22.49929,88.36917,SO2,13,139,20
India,West_Bengal,Kolkata,"Rabindra Bharati University, Kolkata - WBPCB",01-02-2026 09:00:00,22.627847,88.380669,NO2,45,165,76
India,West_Bengal,Kolkata,"Rabindra Bharati University, Kolkata - WBPCB",01-02-2026 09:00:00,22.627847,88.380669,NH3,12,12,12
India,West_Bengal,Kolkata,"Rabindra Bharati University, Kolkata - WBPCB",01-02-2026 09:00:00,22.627847,88.380669,CO,46,90,56
India,West_Bengal,Kolkata,"Rabindra Sarobar, Kolkata - WBPCB",01-02-2026 09:00:00,22.51106,88.35142,PM2.5,57,93,75
India,Uttar_Pradesh,Noida,"Sector - 125, Noida - UPPCB",01-02-2026 09:00:00,28.5447608,77.3231257,SO2,6,19,10
India,Uttar_Pradesh,Noida,"Sector - 125, Noida - UPPCB",01-02-2026 09:00:00,28.5447608,77.3231257,OZONE,10,13,10
India,Uttar_Pradesh,Noida,"Sector - 62, Noida - IMD",01-02-2026 09:00:00,28.6245479,77.3577104,PM10,90,327,181
India,Uttar_Pradesh,Noida,"Sector-1, Noida - UPPCB",01-02-2026 09:00:00,28.5898,77.3101,PM10,125,275,187
India,Uttar_Pradesh,Noida,"Sector-1, Noida - UPPCB",01-02-2026 09:00:00,28.5898,77.3101,NH3,15,21,18
India,West_Bengal,Asansol,"Trivenidevi Bhalotia College, Asansol - WBPCB",01-02-2026 09:00:00,23.616515,87.119133,OZONE,4,23,5
India,West_Bengal,Barrackpore,"SVSPA Campus, Barrackpore - WBPCB",01-02-2026 09:00:00,22.7605581,88.3617589,NH3,4,7,6
India,West_Bengal,Barrackpore,"SVSPA Campus, Barrackpore - WBPCB",01-02-2026 09:00:00,22.7605581,88.3617589,SO2,10,16,11
India,West_Bengal,Howrah,"Botanical Garden, Howrah - WBPCB",01-02-2026 09:00:00,22.554954,88.292568,NH3,1,2,2
India,West_Bengal,Howrah,"Ghusuri, Howrah - WBPCB",01-02-2026 09:00:00,22.611968,88.347422,NO2,20,30,25
India,West_Bengal,Kolkata,"Ballygunge, Kolkata - WBPCB",01-02-2026 09:00:00,22.5367507,88.3638022,NO2,30,92,49
India,West_Bengal,Kolkata,"Rabindra Sarobar, Kolkata - WBPCB",01-02-2026 09:00:00,22.51106,88.35142,CO,52,102,63
India,West_Bengal,Kolkata,"Victoria, Kolkata - WBPCB",01-02-2026 09:00:00,22.5448082,88.3403691,PM10,111,151,131
India,West_Bengal,Kolkata,"Victoria, Kolkata - WBPCB",01-02-2026 09:00:00,22.5448082,88.3403691,OZONE,6,54,11
India,Bihar,Motihari,"Gandak Colony, Motihari - BSPCB",01-02-2026 09:00:00,26.63086,84.90051,CO,26,40,28
India,Bihar,Motihari,"Gandak Colony, Motihari - BSPCB",01-02-2026 09:00:00,26.63086,84.90051,OZONE,3,5,4
India,Bihar,Munger,"Town Hall, Munger - BSPCB",01-02-2026 09:00:00,25.376776,86.471523,NO2,4,5,5
India,Bihar,Munger,"Town Hall, Munger - BSPCB",01-02-2026 09:00:00,25.376776,86.471523,NH3,5,7,6
India,Bihar,Muzaffarpur,"Buddha Colony, Muzaffarpur - BSPCB",01-02-2026 09:00:00,26.11442,85.39813,PM10,74,146,119
India,Bihar,Muzaffarpur,"Buddha Colony, Muzaffarpur - BSPCB",01-02-2026 09:00:00,26.11442,85.39813,NO2,20,67,37
India,Bihar,Muzaffarpur,"MIT-Daudpur Kothi, Muzaffarpur - BSPCB",01-02-2026 09:00:00,26.1403345,85.3650192,PM2.5,85,117,93
India,Bihar,Muzaffarpur,"MIT-Daudpur Kothi, Muzaffarpur - BSPCB",01-02-2026 09:00:00,26.1403345,85.3650192,PM10,62,74,66
India,Bihar,Muzaffarpur,"Muzaffarpur Collectorate, Muzaffarpur - BSPCB",01-02-2026 09:00:00,26.1209,85.3647,SO2,5,9,6
India,Bihar,Bhagalpur,"Mayaganj, Bhagalpur - BSPCB",01-02-2026 09:00:00,25.265194,87.012947,PM2.5,32,78,61
India,Bihar,Bhagalpur,"Mayaganj, Bhagalpur - BSPCB",01-02-2026 09:00:00,25.265194,87.012947,PM10,56,122,99
India,Bihar,Bihar Sharif,"D M Colony, Bihar Sharif - BSPCB",01-02-2026 09:00:00,25.204762,85.514960,PM10,36,113,76
India,Bihar,Buxar,"Charitra Van, Buxar - BSPCB",01-02-2026 09:00:00,25.567520,83.966379,OZONE,1,25,4
India,Bihar,Gaya,"Collectorate, Gaya - BSPCB",01-02-2026 09:00:00,24.7955,84.9994,PM2.5,134,355,281
India,Bihar,Gaya,"Collectorate, Gaya - BSPCB",01-02-2026 09:00:00,24.7955,84.9994,OZONE,NA,NA,NA
India,Andhra_Pradesh,Tirupati,"Vaikuntapuram, Tirupati - APPCB",01-02-2026 09:00:00,13.615387,79.409230,PM2.5,45,291,132
India,Andhra_Pradesh,Tirupati,"Vaikuntapuram, Tirupati - APPCB",01-02-2026 09:00:00,13.615387,79.409230,NH3,5,6,6
India,Andhra_Pradesh,Tirupati,"Vaikuntapuram, Tirupati - APPCB",01-02-2026 09:00:00,13.615387,79.409230,OZONE,12,17,14
India,Andhra_Pradesh,Vijayawada,"HB Colony, Vijayawada - APPCB",01-02-2026 09:00:00,16.536107,80.594233,PM2.5,49,92,65
India,Andhra_Pradesh,Vijayawada,"HB Colony, Vijayawada - APPCB",01-02-2026 09:00:00,16.536107,80.594233,PM10,41,90,59
India,Andhra_Pradesh,Vijayawada,"Rajiv Nagar, Vijayawada - APPCB",01-02-2026 09:00:00,16.554731,80.649110,NO2,NA,NA,NA
India,Andhra_Pradesh,Amaravati,"Secretariat, Amaravati - APPCB",01-02-2026 09:00:00,16.5150833,80.5181667,SO2,14,34,20
India,Andhra_Pradesh,Anantapur,"Gulzarpet, Anantapur - APPCB",01-02-2026 09:00:00,14.675886,77.593027,PM2.5,58,68,61
India,Andhra_Pradesh,Anantapur,"Gulzarpet, Anantapur - APPCB",01-02-2026 09:00:00,14.675886,77.593027,SO2,8,13,9
India,Andhra_Pradesh,Rajamahendravaram,"Anand Kala Kshetram, Rajamahendravaram - APPCB",01-02-2026 09:00:00,16.9872867,81.7363176,NH3,6,9,7
India,Andhra_Pradesh,Rajamahendravaram,"Anand Kala Kshetram, Rajamahendravaram - APPCB",01-02-2026 09:00:00,16.9872867,81.7363176,SO2,6,20,12
India,Bihar,Katihar,"Mirchaibari, Katihar - BSPCB",01-02-2026 09:00:00,25.560083,87.553265,SO2,19,23,21
India,Bihar,Kishanganj,"SDM Office_Khagra, Kishanganj - BSPCB",01-02-2026 09:00:00,26.0881305,87.93840336,NO2,8,11,10
India,Bihar,Manguraha,"Forest Rest House, Manguraha - BSPCB",01-02-2026 09:00:00,27.308328,84.531742,PM2.5,50,131,83
India,Bihar,Manguraha,"Forest Rest House, Manguraha - BSPCB",01-02-2026 09:00:00,27.308328,84.531742,PM10,63,138,104
India,Bihar,Manguraha,"Forest Rest House, Manguraha - BSPCB",01-02-2026 09:00:00,27.308328,84.531742,CO,32,34,32
India,Arunachal_Pradesh,Naharlagun,"Naharlagun, Naharlagun - APSPCB",01-02-2026 09:00:00,27.103358,93.679645,CO,12,54,18
India,Arunachal_Pradesh,Naharlagun,"Naharlagun, Naharlagun - APSPCB",01-02-2026 09:00:00,27.103358,93.679645,OZONE,5,6,6
India,Assam,Byrnihat,"Central Academy for SFS, Byrnihat - PCBA",01-02-2026 09:00:00,26.071318,91.87488,PM10,68,193,101
India,Assam,Byrnihat,"Central Academy for SFS, Byrnihat - PCBA",01-02-2026 09:00:00,26.071318,91.87488,OZONE,13,47,16
India,Assam,Guwahati,"Pan Bazaar, Guwahati - PCBA",01-02-2026 09:00:00,26.187500,91.744194,NH3,1,1,1
India,Bihar,Gaya,"Kareemganj, Gaya - BSPCB",01-02-2026 09:00:00,24.792403,84.992416,SO2,42,44,43
India,Bihar,Gaya,"SFTI Kusdihra, Gaya - BSPCB",01-02-2026 09:00:00,24.762518,84.982348,CO,20,56,44
India,Bihar,Hajipur,"Industrial Area, Hajipur - BSPCB",01-02-2026 09:00:00,25.697189,85.245900,PM10,75,185,120
India,Bihar,Katihar,"Mirchaibari, Katihar - BSPCB",01-02-2026 09:00:00,25.560083,87.553265,PM2.5,38,110,81
India,Bihar,Katihar,"Mirchaibari, Katihar - BSPCB",01-02-2026 09:00:00,25.560083,87.553265,NH3,1,1,1
India,Assam,Silchar,"Tarapur, Silchar - PCBA",01-02-2026 09:00:00,24.82827,92.79525,OZONE,2,3,2
India,Assam,Sivasagar,"Girls College, Sivasagar - PCBA",01-02-2026 09:00:00,26.987634,94.636574,NH3,5,34,12
India,Assam,Sivasagar,"Girls College, Sivasagar - PCBA",01-02-2026 09:00:00,26.987634,94.636574,OZONE,4,82,11
India,Bihar,Begusarai,"Lohiyanagar, Begusarai - BSPCB",01-02-2026 09:00:00,25.42742023,86.13886079,NO2,6,13,9
India,Assam,Nagaon,"Christianpatty, Nagaon - PCBA",01-02-2026 09:00:00,26.349082,92.68449,NO2,1,5,1
India,Assam,Nagaon,"Christianpatty, Nagaon - PCBA",01-02-2026 09:00:00,26.349082,92.68449,NH3,4,4,4
India,Assam,Nalbari,"Bata Chowk, Nalbari - PCBA",01-02-2026 09:00:00,26.446912,91.439057,SO2,3,8,8
India,Assam,Silchar,"Tarapur, Silchar - PCBA",01-02-2026 09:00:00,24.82827,92.79525,NO2,NA,NA,NA
India,Andhra_Pradesh,Amaravati,"Secretariat, Amaravati - APPCB",01-02-2026 09:00:00,16.5150833,80.5181667,PM2.5,76,310,173
India,Bihar,Rajgir,"Dangi Tola, Rajgir - BSPCB",01-02-2026 09:00:00,25.03280,85.41948,CO,31,106,88
India,Bihar,Saharsa,"Police Line, Saharsa - BSPCB",01-02-2026 09:00:00,25.892357,86.590325,CO,38,45,40
India,Bihar,Saharsa,"Police Line, Saharsa - BSPCB",01-02-2026 09:00:00,25.892357,86.590325,OZONE,10,11,10
India,Bihar,Sasaram,"Dada Peer, Sasaram - BSPCB",01-02-2026 09:00:00,24.952822,84.002396,PM10,49,115,72
India,Bihar,Sasaram,"Dada Peer, Sasaram - BSPCB",01-02-2026 09:00:00,24.952822,84.002396,NH3,2,5,3
India,Bihar,Sasaram,"Dada Peer, Sasaram - BSPCB",01-02-2026 09:00:00,24.952822,84.002396,SO2,4,5,5
India,Bihar,Siwan,"Chitragupta Nagar, Siwan - BSPCB",01-02-2026 09:00:00,26.2271665,84.3570427,OZONE,15,15,15
India,Chandigarh,Chandigarh,"Sector 22, Chandigarh - CPCC",01-02-2026 09:00:00,30.735567,76.775714,PM2.5,65,277,141
India,Chandigarh,Chandigarh,"Sector 22, Chandigarh - CPCC",01-02-2026 09:00:00,30.735567,76.775714,NO2,35,112,60
India,Chandigarh,Chandigarh,"Sector 22, Chandigarh - CPCC",01-02-2026 09:00:00,30.735567,76.775714,SO2,8,22,12
India,Delhi,Delhi,"Alipur, Delhi - DPCC",01-02-2026 09:00:00,28.815329,77.153010,NO2,29,100,54
India,Delhi,Delhi,"Alipur, Delhi - DPCC",01-02-2026 09:00:00,28.815329,77.153010,NH3,15,31,18
India,Delhi,Delhi,"Alipur, Delhi - DPCC",01-02-2026 09:00:00,28.815329,77.153010,SO2,3,13,5
India,Delhi,Delhi,"Anand Vihar, Delhi - DPCC",01-02-2026 09:00:00,28.647622,77.3158090,PM2.5,304,465,363
India,Delhi,Delhi,"Anand Vihar, Delhi - DPCC",01-02-2026 09:00:00,28.647622,77.3158090,NO2,20,92,45
India,Delhi,Delhi,"Ashok Vihar, Delhi - DPCC",01-02-2026 09:00:00,28.695381,77.181665,PM10,144,449,281
India,Delhi,Delhi,"Ashok Vihar, Delhi - DPCC",01-02-2026 09:00:00,28.695381,77.181665,NO2,40,136,73
India,Delhi,Delhi,"Bawana, Delhi - DPCC",01-02-2026 09:00:00,28.776200,77.051074,CO,52,107,62
India,Delhi,Delhi,"Burari Crossing, Delhi - IMD",01-02-2026 09:00:00,28.7256504,77.2011573,OZONE,8,148,10
India,Delhi,Delhi,"Chandni Chowk, Delhi - IITM",01-02-2026 09:00:00,28.656756,77.227234,NO2,19,121,55
India,Delhi,Delhi,"Chandni Chowk, Delhi - IITM",01-02-2026 09:00:00,28.656756,77.227234,NH3,8,14,11
India,Delhi,Delhi,"DTU, Delhi - CPCB",01-02-2026 09:00:00,28.7500499,77.1112615,NO2,56,56,56
India,Delhi,Delhi,"Dr. Karni Singh Shooting Range, Delhi - DPCC",01-02-2026 09:00:00,28.498571,77.264840,NH3,8,11,10
India,Delhi,Delhi,"Dr. Karni Singh Shooting Range, Delhi - DPCC",01-02-2026 09:00:00,28.498571,77.264840,OZONE,6,104,11
India,Delhi,Delhi,"Dwarka-Sector 8, Delhi - DPCC ",01-02-2026 09:00:00,28.5710274,77.0719006,PM10,137,315,200
India,Delhi,Delhi,"Dwarka-Sector 8, Delhi - DPCC ",01-02-2026 09:00:00,28.5710274,77.0719006,CO,22,102,27
India,Delhi,Delhi,"IGI Airport (T3), Delhi - IMD",01-02-2026 09:00:00,28.5627763,77.1180053,PM2.5,124,350,229
India,Chhattisgarh,Milupara,"Govt. Higher Secondary School, Milupara - CECB",01-02-2026 09:00:00,22.1910172,83.5197009,PM10,48,310,98
India,Chhattisgarh,Raipur,"AIIMS, Raipur - CECB",01-02-2026 09:00:00,21.258815,81.578979,PM2.5,NA,NA,NA
India,Chhattisgarh,Raipur,"AIIMS, Raipur - CECB",01-02-2026 09:00:00,21.258815,81.578979,PM10,NA,NA,NA
India,Chhattisgarh,Raipur,"Bhatagaon New ISBT, Raipur - CECB",01-02-2026 09:00:00,21.219665,81.630094,PM10,36,91,73
India,Chhattisgarh,Raipur,"Bhatagaon New ISBT, Raipur - CECB",01-02-2026 09:00:00,21.219665,81.630094,SO2,4,52,10
India,Chhattisgarh,Raipur,"Krishak Nagar, Raipur - CECB",01-02-2026 09:00:00,21.237755,81.705301,PM2.5,44,71,57
India,Chhattisgarh,Raipur,"Krishak Nagar, Raipur - CECB",01-02-2026 09:00:00,21.237755,81.705301,PM10,38,102,76
India,Chhattisgarh,Raipur,"Siltara Phase-II, Raipur - CECB",01-02-2026 09:00:00,21.371751,81.664929,PM2.5,36,310,136
India,Bihar,Patna,"DRM Office Danapur, Patna - BSPCB",01-02-2026 09:00:00,25.586562,85.043586,NO2,10,57,22
India,Bihar,Patna,"DRM Office Danapur, Patna - BSPCB",01-02-2026 09:00:00,25.586562,85.043586,SO2,5,9,6
India,Bihar,Patna,"DRM Office Danapur, Patna - BSPCB",01-02-2026 09:00:00,25.586562,85.043586,OZONE,17,43,23
India,Bihar,Patna,"Govt. High School Shikarpur, Patna - BSPCB",01-02-2026 09:00:00,25.592539,85.227158,NH3,4,6,5
India,Bihar,Patna,"IGSC Planetarium Complex, Patna - BSPCB",01-02-2026 09:00:00,25.610369,85.132568,SO2,10,12,11
India,Bihar,Patna,"Muradpur, Patna - BSPCB",01-02-2026 09:00:00,25.619651,85.147382,PM10,77,134,104
India,Chhattisgarh,Bhilai,"32Bungalows, Bhilai - CECB",01-02-2026 09:00:00,21.194815,81.314770,NO2,28,63,42
India,Chhattisgarh,Bhilai,"Civic Center, Bhilai - Bhilai Steel Plant",01-02-2026 09:00:00,21.185571,81.343175,PM10,31,126,58
India,Chhattisgarh,Bhilai,"Civic Center, Bhilai - Bhilai Steel Plant",01-02-2026 09:00:00,21.185571,81.343175,SO2,7,10,8
India,Chhattisgarh,Bhilai,"Hathkhoj, Bhilai - CECB",01-02-2026 09:00:00,21.224231,81.408350,PM2.5,31,72,43
India,Chhattisgarh,Bhilai,"Hathkhoj, Bhilai - CECB",01-02-2026 09:00:00,21.224231,81.408350,NO2,27,80,46
India,Chhattisgarh,Bhilai,"Hathkhoj, Bhilai - CECB",01-02-2026 09:00:00,21.224231,81.408350,SO2,17,63,35
India,Bihar,Patna,"Samanpura, Patna - BSPCB",01-02-2026 09:00:00,25.596727,85.085624,PM2.5,64,116,87
India,Bihar,Patna,"Samanpura, Patna - BSPCB",01-02-2026 09:00:00,25.596727,85.085624,PM10,117,189,150
India,Bihar,Patna,"Samanpura, Patna - BSPCB",01-02-2026 09:00:00,25.596727,85.085624,NO2,21,23,22
India,Bihar,Purnia,"Mariam Nagar, Purnia - BSPCB",01-02-2026 09:00:00,25.366336,87.117468,CO,22,72,66
India,Chhattisgarh,Chhal,"Nawapara SECL Colony, Chhal - CECB",01-02-2026 09:00:00,22.118125,83.140608,PM10,61,176,105
India,Chhattisgarh,Chhal,"Nawapara SECL Colony, Chhal - CECB",01-02-2026 09:00:00,22.118125,83.140608,SO2,3,86,24
India,Chhattisgarh,Korba,"Rampur, Korba - CECB",01-02-2026 09:00:00,22.368195,82.746431,CO,20,29,28
India,Chhattisgarh,Korba,"Urja Nagar, Korba - CECB",01-02-2026 09:00:00,22.348441,82.549611,NH3,1,1,1
India,Delhi,Delhi,"Major Dhyan Chand National Stadium, Delhi - DPCC",01-02-2026 09:00:00,28.611281,77.237738,PM10,145,352,226
India,Delhi,Delhi,"Major Dhyan Chand National Stadium, Delhi - DPCC",01-02-2026 09:00:00,28.611281,77.237738,OZONE,2,83,4
India,Delhi,Delhi,"Mandir Marg, Delhi - DPCC",01-02-2026 09:00:00,28.636429,77.201067,PM10,146,368,222
India,Delhi,Delhi,"Mandir Marg, Delhi - DPCC",01-02-2026 09:00:00,28.636429,77.201067,NH3,4,9,6
India,Delhi,Delhi,"Mandir Marg, Delhi - DPCC",01-02-2026 09:00:00,28.636429,77.201067,CO,88,110,97
India,Delhi,Delhi,"Mandir Marg, Delhi - DPCC",01-02-2026 09:00:00,28.636429,77.201067,OZONE,7,131,11
India,Delhi,Delhi,"Mundka, Delhi - DPCC",01-02-2026 09:00:00,28.684678,77.076574,PM10,175,445,322
India,Delhi,Delhi,"Mundka, Delhi - DPCC",01-02-2026 09:00:00,28.684678,77.076574,NO2,50,118,79
India,Delhi,Delhi,"Mundka, Delhi - DPCC",01-02-2026 09:00:00,28.684678,77.076574,NH3,14,20,17
India,Delhi,Delhi,"NSIT Dwarka, Delhi - CPCB",01-02-2026 09:00:00,28.60909,77.0325413,NO2,43,91,60
India,Delhi,Delhi,"Najafgarh, Delhi - DPCC",01-02-2026 09:00:00,28.570173,76.933762,NH3,12,15,14
India,Delhi,Delhi,"Najafgarh, Delhi - DPCC",01-02-2026 09:00:00,28.570173,76.933762,CO,25,119,50
India,Delhi,Delhi,"Narela, Delhi - DPCC",01-02-2026 09:00:00,28.822836,77.101981,PM2.5,133,362,281
India,Gujarat,Bhavnagar,"Vidhyanagar, Bhavnagar - Nexteng Enviro",01-02-2026 09:00:00,21.755417,72.139056,OZONE,10,35,10
India,Gujarat,Gandhinagar,"GIFT City, Gandhinagar - IITM",01-02-2026 09:00:00,23.163798,72.677768,PM2.5,54,299,145
India,Gujarat,Gandhinagar,"GIFT City, Gandhinagar - IITM",01-02-2026 09:00:00,23.163798,72.677768,CO,6,87,41
India,Gujarat,Gandhinagar,"IIPHG Lekawada, Gandhinagar - IITM",01-02-2026 09:00:00,23.243639,72.68994,NO2,2,46,21
India,Gujarat,Gandhinagar,"Sector-10, Gandhinagar - GPCB",01-02-2026 09:00:00,23.221714,72.654328,NO2,31,71,47
India,Gujarat,Gandhinagar,"Sector-10, Gandhinagar - GPCB",01-02-2026 09:00:00,23.221714,72.654328,CO,32,51,44
India,Gujarat,Gandhinagar,"Sector-10, Gandhinagar - GPCB",01-02-2026 09:00:00,23.221714,72.654328,OZONE,3,103,4
India,Gujarat,Mehsana,"Sadanand Nagar, Mehsana - Nexteng Enviro",01-02-2026 09:00:00,23.593150,72.372792,PM10,NA,NA,NA
India,Gujarat,Mehsana,"Sadanand Nagar, Mehsana - Nexteng Enviro",01-02-2026 09:00:00,23.593150,72.372792,NH3,NA,NA,NA
India,Gujarat,Mehsana,"Sadanand Nagar, Mehsana - Nexteng Enviro",01-02-2026 09:00:00,23.593150,72.372792,SO2,NA,NA,NA
India,Delhi,Delhi,"Pusa, Delhi - DPCC",01-02-2026 09:00:00,28.639652,77.146275,CO,62,98,74
India,Delhi,Delhi,"Pusa, Delhi - IMD",01-02-2026 09:00:00,28.636110,77.173332,PM10,134,345,201
India,Delhi,Delhi,"R K Puram, Delhi - DPCC",01-02-2026 09:00:00,28.563262,77.186937,OZONE,1,83,6
India,Delhi,Delhi,"Rohini, Delhi - DPCC",01-02-2026 09:00:00,28.732528,77.119920,SO2,7,15,9
India,Delhi,Delhi,"Shadipur, Delhi - CPCB",01-02-2026 09:00:00,28.6514781,77.1473105,SO2,2,20,13
India,Delhi,Delhi,"Shadipur, Delhi - CPCB",01-02-2026 09:00:00,28.6514781,77.1473105,CO,55,88,68
India,Delhi,Delhi,"Sirifort, Delhi - CPCB",01-02-2026 09:00:00,28.5504249,77.2159377,SO2,29,37,30
India,Delhi,Delhi,"Sirifort, Delhi - CPCB",01-02-2026 09:00:00,28.5504249,77.2159377,CO,28,134,48
India,Gujarat,Rajkot,"Mavdi, Rajkot - Nexteng Enviro ",01-02-2026 09:00:00,22.248853,70.776774,NH3,4,6,5
India,Gujarat,Surat,"Katargam, Surat - Nexteng Enviro",01-02-2026 09:00:00,21.217779 ,72.834787 ,PM2.5,152,397,273
India,Gujarat,Surat,"Science Center, Surat - SMC",01-02-2026 09:00:00,21.170046,72.795405,PM10,80,243,116
India,Gujarat,Vapi,"Phase-1 GIDC, Vapi - GPCB",01-02-2026 09:00:00,20.362421,72.918013,NO2,12,21,15
India,Gujarat,Vatva,"Phase-4 GIDC, Vatva - GPCB",01-02-2026 09:00:00,22.969611,72.643500,PM2.5,135,373,236
India,Gujarat,Vatva,"Phase-4 GIDC, Vatva - GPCB",01-02-2026 09:00:00,22.969611,72.643500,PM10,82,446,192
India,Delhi,Delhi,"Sonia Vihar, Delhi - DPCC",01-02-2026 09:00:00,28.710508,77.249485,NO2,37,92,59
India,Delhi,Delhi,"Sri Aurobindo Marg, Delhi - DPCC",01-02-2026 09:00:00,28.531346,77.190156,PM2.5,163,366,285
India,Delhi,Delhi,"Sri Aurobindo Marg, Delhi - DPCC",01-02-2026 09:00:00,28.531346,77.190156,CO,15,101,46
India,Delhi,Delhi,"Vivek Vihar, Delhi - DPCC",01-02-2026 09:00:00,28.672342,77.315260,PM10,126,439,263
India,Delhi,Delhi,"Vivek Vihar, Delhi - DPCC",01-02-2026 09:00:00,28.672342,77.315260,SO2,10,36,18
India,Delhi,Delhi,"Vivek Vihar, Delhi - DPCC",01-02-2026 09:00:00,28.672342,77.315260,OZONE,1,39,2
India,Gujarat,Ahmedabad,"Chandkheda, Ahmedabad - IITM",01-02-2026 09:00:00,23.107969,72.574648,NO2,27,105,58
India,Gujarat,Ahmedabad,"Gyaspur, Ahmedabad - IITM",01-02-2026 09:00:00,22.977134,72.553024,SO2,72,139,112
India,Gujarat,Ahmedabad,"Gyaspur, Ahmedabad - IITM",01-02-2026 09:00:00,22.977134,72.553024,OZONE,1,46,1
India,Gujarat,Ahmedabad,"Maninagar, Ahmedabad - GPCB",01-02-2026 09:00:00,23.002657,72.591912,NO2,124,144,132
India,Gujarat,Ahmedabad,"Maninagar, Ahmedabad - GPCB",01-02-2026 09:00:00,23.002657,72.591912,CO,10,42,26
India,Gujarat,Ahmedabad,"Maninagar, Ahmedabad - GPCB",01-02-2026 09:00:00,23.002657,72.591912,OZONE,33,102,36
India,Gujarat,Ahmedabad,"Raikhad, Ahmedabad - IITM",01-02-2026 09:00:00,23.020509,72.579261,CO,NA,NA,NA
India,Gujarat,Ahmedabad,"Rakhial, Ahmedabad - IITM",01-02-2026 09:00:00,23.016834,72.625775,PM10,NA,NA,NA
India,Delhi,Delhi,"Nehru Nagar, Delhi - DPCC",01-02-2026 09:00:00,28.567890,77.250515,PM2.5,253,455,349
India,Delhi,Delhi,"Okhla Phase-2, Delhi - DPCC",01-02-2026 09:00:00,28.530785,77.271255,SO2,12,74,21
India,Delhi,Delhi,"Okhla Phase-2, Delhi - DPCC",01-02-2026 09:00:00,28.530785,77.271255,CO,4,135,108
India,Delhi,Delhi,"Patparganj, Delhi - DPCC",01-02-2026 09:00:00,28.623763,77.287209,NO2,42,117,64
India,Delhi,Delhi,"Punjabi Bagh, Delhi - DPCC",01-02-2026 09:00:00,28.674045,77.131023,PM10,148,411,239
India,Delhi,Delhi,"IIT Delhi, Delhi - IITM",01-02-2026 09:00:00,28.542460,77.191651,CO,44,108,48
India,Delhi,Delhi,"ITO, Delhi - CPCB",01-02-2026 09:00:00,28.628624,77.241060,NH3,2,3,2
India,Delhi,Delhi,"Jahangirpuri, Delhi - DPCC",01-02-2026 09:00:00,28.732820,77.170633,NH3,39,46,42
India,Delhi,Delhi,"Jahangirpuri, Delhi - DPCC",01-02-2026 09:00:00,28.732820,77.170633,OZONE,2,57,3
India,Delhi,Delhi,"Jawaharlal Nehru Stadium, Delhi - DPCC",01-02-2026 09:00:00,28.580280,77.233829,OZONE,3,86,8
India,Gujarat,Ahmedabad,"SVPI Airport Hansol, Ahmedabad - IITM",01-02-2026 09:00:00,23.076793,72.627874,SO2,5,24,10
India,Haryana,Gurugram,"Sector-51, Gurugram - HSPCB",01-02-2026 09:00:00,28.4227,77.0667,NH3,9,14,12
India,Haryana,Gurugram,"Teri Gram, Gurugram - HSPCB",01-02-2026 09:00:00,28.4275,77.1465,NO2,50,102,71
India,Haryana,Gurugram,"Teri Gram, Gurugram - HSPCB",01-02-2026 09:00:00,28.4275,77.1465,CO,76,104,80
India,Haryana,Gurugram,"Vikas Sadan, Gurugram - HSPCB",01-02-2026 09:00:00,28.4501238,77.0263051,PM10,86,209,138
India,Haryana,Gurugram,"Vikas Sadan, Gurugram - HSPCB",01-02-2026 09:00:00,28.4501238,77.0263051,CO,66,114,98
India,Haryana,Hisar,"Urban Estate-II, Hisar - HSPCB",01-02-2026 09:00:00,29.140560,75.744941,NO2,26,27,26
India,Haryana,Hisar,"Urban Estate-II, Hisar - HSPCB",01-02-2026 09:00:00,29.140560,75.744941,OZONE,12,175,15
India,Haryana,Jind,"Police Lines, Jind - HSPCB",01-02-2026 09:00:00,29.307814,76.337619,CO,2,92,26
India,Haryana,Karnal,"Sector-12, Karnal - HSPCB",01-02-2026 09:00:00,29.695300,77.002700,NO2,6,7,6
India,Haryana,Kurukshetra,"Sector-7, Kurukshetra - HSPCB",01-02-2026 09:00:00,29.966942,76.875879,OZONE,2,26,10
India,Haryana,Mandikhera,"General Hospital, Mandikhera(Nuh) - HSPCB",01-02-2026 09:00:00,27.9002,76.9938,PM10,95,130,109
India,Haryana,Mandikhera,"General Hospital, Mandikhera(Nuh) - HSPCB",01-02-2026 09:00:00,27.9002,76.9938,SO2,31,38,34
India,Haryana,Manesar,"Sector-2 IMT, Manesar - HSPCB",01-02-2026 09:00:00,28.360699,76.936090,PM10,74,240,117
India,Haryana,Manesar,"Sector-2 IMT, Manesar - HSPCB",01-02-2026 09:00:00,28.360699,76.936090,SO2,4,10,7
India,Haryana,Ballabgarh,"Nathu Colony, Ballabgarh - HSPCB",01-02-2026 09:00:00,28.3419248,77.319699,PM2.5,66,202,123
India,Haryana,Ballabgarh,"Nathu Colony, Ballabgarh - HSPCB",01-02-2026 09:00:00,28.3419248,77.319699,NO2,19,21,20
India,Haryana,Ballabgarh,"Nathu Colony, Ballabgarh - HSPCB",01-02-2026 09:00:00,28.3419248,77.319699,NH3,3,3,3
India,Haryana,Ballabgarh,"Nathu Colony, Ballabgarh - HSPCB",01-02-2026 09:00:00,28.3419248,77.319699,CO,15,44,29
India,Haryana,Charkhi Dadri,"Mini Secretariat, Charkhi Dadri - HSPCB",01-02-2026 09:00:00,28.593883,76.270653,NO2,9,24,15
India,Haryana,Charkhi Dadri,"Mini Secretariat, Charkhi Dadri - HSPCB",01-02-2026 09:00:00,28.593883,76.270653,SO2,10,12,11
India,Himachal Pradesh,Baddi,"HIMUDA Complex Phase-1, Baddi - HPPCB",01-02-2026 09:00:00,30.943887,76.801991,SO2,35,125,58
India,Jammu_and_Kashmir,Srinagar,"Khunmoh, Srinagar - JKPCC",01-02-2026 09:00:00,34.06313,74.96017,SO2,NA,NA,NA
India,Jammu_and_Kashmir,Srinagar,"Rajbagh, Srinagar - JKPCC",01-02-2026 09:00:00,34.066206,74.819820,OZONE,NA,NA,NA
India,Haryana,Faridabad,"Sector 11, Faridabad - HSPCB",01-02-2026 09:00:00,28.376058,77.315741,NH3,9,10,10
India,Haryana,Fatehabad,"Huda Sector, Fatehabad - HSPCB",01-02-2026 09:00:00,29.503664,75.467934,CO,26,36,29
India,Haryana,Gurugram,"NISE Gwal Pahari, Gurugram - IMD",01-02-2026 09:00:00,28.422681,77.148944,PM10,117,297,186
India,Haryana,Sirsa,"F-Block, Sirsa - HSPCB",01-02-2026 09:00:00,29.536400,75.015800,NO2,16,27,21
India,Haryana,Sirsa,"F-Block, Sirsa - HSPCB",01-02-2026 09:00:00,29.536400,75.015800,CO,32,68,54
India,Haryana,Yamuna Nagar,"Gobind Pura, Yamuna Nagar - HSPCB",01-02-2026 09:00:00,30.1480566,77.2893471,SO2,10,15,12
India,Haryana,Yamuna Nagar,"Gobind Pura, Yamuna Nagar - HSPCB",01-02-2026 09:00:00,30.1480566,77.2893471,CO,28,52,38
India,Haryana,Panchgaon,"Amity University, Panchgaon - IITM",01-02-2026 09:00:00,28.3153,76.9143,NO2,5,19,10
India,Haryana,Panchkula,"Sector-6, Panchkula - HSPCB ",01-02-2026 09:00:00,30.7057778,76.8531805555555,PM2.5,11,70,36
India,Haryana,Panchkula,"Sector-6, Panchkula - HSPCB ",01-02-2026 09:00:00,30.7057778,76.8531805555555,SO2,14,16,15
India,Haryana,Manesar,"Sector-2 IMT, Manesar - HSPCB",01-02-2026 09:00:00,28.360699,76.936090,OZONE,4,23,7
India,Haryana,Palwal,"Shyam Nagar, Palwal - HSPCB",01-02-2026 09:00:00,28.1485564,77.3320667,PM2.5,54,75,67
India,Haryana,Panipat,"Sector-18, Panipat - HSPCB",01-02-2026 09:00:00,29.432304,76.972765,PM2.5,87,167,126
India,Haryana,Panipat,"Sector-18, Panipat - HSPCB",01-02-2026 09:00:00,29.432304,76.972765,PM10,95,136,115
India,Karnataka,Chikkamagaluru,"Kalyana Nagara, Chikkamagaluru - KSPCB",01-02-2026 09:00:00,13.328028,75.797056,OZONE,12,67,12
India,Karnataka,Dharwad,"Kalabhavan, Dharwad - KSPCB",01-02-2026 09:00:00,15.459706,75.008381,PM10,88,114,102
India,Karnataka,Dharwad,"Kalabhavan, Dharwad - KSPCB",01-02-2026 09:00:00,15.459706,75.008381,SO2,8,10,9
India,Karnataka,Hubballi,"Lingaraj Nagar, Hubballi - KSPCB",01-02-2026 09:00:00,15.3714823,75.1160168,NO2,7,13,10
India,Karnataka,Kalaburagi,"Mahatma Basaveswar Colony, Kalaburgi - KSPCB",01-02-2026 09:00:00,17.336318,76.847397,CO,34,46,41
India,Karnataka,Madikeri,"Stuart Hill, Madikeri - KSPCB",01-02-2026 09:00:00,12.415911,75.735050,PM10,22,62,35
India,Karnataka,Mysuru,"Hebbal 1st Stage, Mysuru - KSPCB",01-02-2026 09:00:00,12.21041,76.37376,PM2.5,37,60,46
India,Kerala,Eloor,"Udyogamandal, Eloor - Kerala PCB",01-02-2026 09:00:00,10.073232,76.302765,OZONE,NA,NA,NA
India,Kerala,Kannur,"Thavakkara, Kannur - Kerala PCB",01-02-2026 09:00:00,11.875000,75.373200,PM2.5,62,72,67
India,Kerala,Kollam,"Polayathode, Kollam - Kerala PCB",01-02-2026 09:00:00,8.8787,76.6073,OZONE,29,37,30
India,Kerala,Thiruvananthapuram,"Kariavattom, Thiruvananthapuram - Kerala PCB",01-02-2026 09:00:00,8.563700,76.886500,PM10,14,386,105
India,Kerala,Thiruvananthapuram,"Plammoodu, Thiruvananthapuram - Kerala PCB",01-02-2026 09:00:00,8.5149093,76.9435879,PM10,86,108,98
India,Kerala,Thiruvananthapuram,"Plammoodu, Thiruvananthapuram - Kerala PCB",01-02-2026 09:00:00,8.5149093,76.9435879,SO2,4,25,14
India,Kerala,Thrissur,"Corporation Ground, Thrissur - Kerala PCB",01-02-2026 09:00:00,10.532400,76.215900,OZONE,30,31,30
India,Karnataka,Bagalkot,"Vidayagiri, Bagalkot - KSPCB",01-02-2026 09:00:00,16.172806,75.659694,OZONE,12,12,12
India,Karnataka,Bengaluru,"Bapuji Nagar, Bengaluru - KSPCB",01-02-2026 09:00:00,12.951913,77.539784,NO2,6,12,9
India,Karnataka,Bengaluru,"Bapuji Nagar, Bengaluru - KSPCB",01-02-2026 09:00:00,12.951913,77.539784,NH3,2,4,3
India,Karnataka,Bengaluru,"Bapuji Nagar, Bengaluru - KSPCB",01-02-2026 09:00:00,12.951913,77.539784,SO2,7,25,18
India,Karnataka,Bengaluru,"City Railway Station, Bengaluru - KSPCB",01-02-2026 09:00:00,12.9756843,77.5660749,NO2,32,37,35
India,Karnataka,Bengaluru,"City Railway Station, Bengaluru - KSPCB",01-02-2026 09:00:00,12.9756843,77.5660749,SO2,21,22,22
India,Karnataka,Bengaluru,"City Railway Station, Bengaluru - KSPCB",01-02-2026 09:00:00,12.9756843,77.5660749,CO,74,82,75
India,Karnataka,Shivamogga,"Vinoba Nagara, Shivamogga - KSPCB",01-02-2026 09:00:00,13.940000,75.555917,PM10,NA,NA,NA
India,Karnataka,Tumakuru,"Thimmalapura, Tumakuru - KSPCB",01-02-2026 09:00:00,13.377516,77.099072,PM10,84,452,184
India,Karnataka,Tumakuru,"Thimmalapura, Tumakuru - KSPCB",01-02-2026 09:00:00,13.377516,77.099072,CO,52,54,53
India,Karnataka,Yadgir,"Collector Office, Yadgir - KSPCB",01-02-2026 09:00:00,16.7602,77.1428,NO2,7,28,14
India,Kerala,Eloor,"Udyogamandal, Eloor - Kerala PCB",01-02-2026 09:00:00,10.073232,76.302765,PM2.5,NA,NA,NA
India,Kerala,Eloor,"Udyogamandal, Eloor - Kerala PCB",01-02-2026 09:00:00,10.073232,76.302765,PM10,NA,NA,NA
India,Madhya Pradesh,Dewas,"Bhopal Chauraha, Dewas - MPPCB",01-02-2026 09:00:00,22.9682591,76.064118,OZONE,16,50,20
India,Madhya Pradesh,Gwalior,"City Center, Gwalior - MPPCB",01-02-2026 09:00:00,26.203442,78.193251,CO,35,61,47
India,Madhya Pradesh,Gwalior,"Deen Dayal Nagar, Gwalior - MPPCB",01-02-2026 09:00:00,26.259242,78.216432,NO2,NA,NA,NA
India,Madhya Pradesh,Gwalior,"Deen Dayal Nagar, Gwalior - MPPCB",01-02-2026 09:00:00,26.259242,78.216432,NH3,NA,NA,NA
India,Madhya Pradesh,Gwalior,"Deen Dayal Nagar, Gwalior - MPPCB",01-02-2026 09:00:00,26.259242,78.216432,CO,43,78,50
India,Madhya Pradesh,Indore,"Airport Area, Indore - IMC",01-02-2026 09:00:00,22.7289,75.8076,PM2.5,72,409,205
India,Karnataka,Bengaluru,"Jigani, Bengaluru - KSPCB",01-02-2026 09:00:00,12.7816279,77.6299145,OZONE,26,27,26
India,Karnataka,Bengaluru,"Kasturi Nagar, Bengaluru - KSPCB",01-02-2026 09:00:00,13.003872,77.664217,OZONE,23,24,23
India,Karnataka,Bengaluru,"Peenya, Bengaluru - CPCB",01-02-2026 09:00:00,13.0270199,77.494094,PM2.5,18,41,28
India,Karnataka,Bengaluru,"RVCE-Mailasandra, Bengaluru - KSPCB",01-02-2026 09:00:00,12.921418,77.502466,NH3,3,4,3
India,Karnataka,Bengaluru,"Silk Board, Bengaluru - KSPCB",01-02-2026 09:00:00,12.917348,77.622813,PM2.5,49,98,69
India,Karnataka,Chamarajanagar,"Urban, Chamarajanagar - KSPCB",01-02-2026 09:00:00,11.55358,76.55521,PM10,49,72,60
India,Karnataka,Chamarajanagar,"Urban, Chamarajanagar - KSPCB",01-02-2026 09:00:00,11.55358,76.55521,NH3,2,3,2
India,Karnataka,Chikkamagaluru,"Kalyana Nagara, Chikkamagaluru - KSPCB",01-02-2026 09:00:00,13.328028,75.797056,NH3,2,3,2
India,Karnataka,Bengaluru,"Hombegowda Nagar, Bengaluru - KSPCB",01-02-2026 09:00:00,12.938539,77.590100,OZONE,12,48,35
India,Karnataka,Bengaluru,"Jayanagar 5th Block, Bengaluru - KSPCB",01-02-2026 09:00:00,12.920984,77.584908,PM2.5,38,90,61
India,Karnataka,Bengaluru,"Jayanagar 5th Block, Bengaluru - KSPCB",01-02-2026 09:00:00,12.920984,77.584908,PM10,58,126,87
India,Karnataka,Bengaluru,"Jayanagar 5th Block, Bengaluru - KSPCB",01-02-2026 09:00:00,12.920984,77.584908,NH3,2,2,2
India,Karnataka,Bengaluru,"Jayanagar 5th Block, Bengaluru - KSPCB",01-02-2026 09:00:00,12.920984,77.584908,OZONE,16,90,76
India,Madhya Pradesh,Bhopal,"Paryavaran Parisar, Bhopal - MPPCB",01-02-2026 09:00:00,23.210494,77.425409,NH3,17,23,20
India,Madhya Pradesh,Bhopal,"T T Nagar, Bhopal - MPPCB",01-02-2026 09:00:00,23.233584,77.400574,PM2.5,34,115,66
India,Madhya Pradesh,Jabalpur,"Gupteshwar, Jabalpur - JMC",01-02-2026 09:00:00,23.142888,79.916147,CO,39,116,58
India,Madhya Pradesh,Jabalpur,"Marhatal, Jabalpur - MPPCB",01-02-2026 09:00:00,23.168606,79.932247,PM2.5,30,188,116
India,Madhya Pradesh,Jabalpur,"Marhatal, Jabalpur - MPPCB",01-02-2026 09:00:00,23.168606,79.932247,OZONE,33,112,36
India,Madhya Pradesh,Jabalpur,"Suhagi, Jabalpur - JMC",01-02-2026 09:00:00,23.218135,79.957770,OZONE,47,79,49
India,Madhya Pradesh,Katni,"Gole Bazar, Katni - MPPCB",01-02-2026 09:00:00,23.50016,80.23284,SO2,18,76,32
India,Madhya Pradesh,Katni,"Gole Bazar, Katni - MPPCB",01-02-2026 09:00:00,23.50016,80.23284,CO,15,81,38
India,Madhya Pradesh,Mandideep,"Sector-D Industrial Area, Mandideep - MPPCB",01-02-2026 09:00:00,23.108440,77.511428,NO2,114,140,130
India,Madhya Pradesh,Mandideep,"Sector-D Industrial Area, Mandideep - MPPCB",01-02-2026 09:00:00,23.108440,77.511428,NH3,5,6,6
India,Madhya Pradesh,Pithampur,"Sector-2 Industrial Area, Pithampur - MPPCB",01-02-2026 09:00:00,22.624758,75.675238,NO2,20,37,28
India,Madhya Pradesh,Pithampur,"Sector-2 Industrial Area, Pithampur - MPPCB",01-02-2026 09:00:00,22.624758,75.675238,SO2,6,22,14
India,Madhya Pradesh,Ratlam,"Shasthri Nagar, Ratlam - IPCA Lab",01-02-2026 09:00:00,23.331731,75.045981,PM2.5,60,261,104
India,Madhya Pradesh,Indore,"Airport Area, Indore - IMC",01-02-2026 09:00:00,22.7289,75.8076,PM10,56,409,141
India,Madhya Pradesh,Indore,"Chhoti Gwaltoli, Indore - MPPCB",01-02-2026 09:00:00,22.4310,75.5213,PM2.5,48,183,99
India,Madhya Pradesh,Indore,"Chhoti Gwaltoli, Indore - MPPCB",01-02-2026 09:00:00,22.4310,75.5213,NO2,65,140,94
India,Madhya Pradesh,Indore,"Chhoti Gwaltoli, Indore - MPPCB",01-02-2026 09:00:00,22.4310,75.5213,CO,34,79,49
India,Madhya Pradesh,Indore,"Maguda Nagar, Indore - IMC",01-02-2026 09:00:00,22.7524,75.8872,PM10,37,124,74
India,Madhya Pradesh,Indore,"Maguda Nagar, Indore - IMC",01-02-2026 09:00:00,22.7524,75.8872,SO2,NA,NA,NA
India,Madhya Pradesh,Indore,"Maguda Nagar, Indore - IMC",01-02-2026 09:00:00,22.7524,75.8872,CO,24,62,45
