country,state,city,station,last_update,latitude,longitude,pollutant_id,min_value,max_value,avg_value
India,Arunachal_Pradesh,Naharlagun,"Naharlagun, Naharlagun - APSPCB",02-10-2025 07:00:00,27.103358,93.679645,CO,5,12,7
India,Assam,Byrnihat,"Central Academy for SFS, Byrnihat - PCBA",02-10-2025 07:00:00,26.071318,91.87488,PM10,NA,NA,NA
India,Assam,Byrnihat,"Central Academy for SFS, Byrnihat - PCBA",02-10-2025 07:00:00,26.071318,91.87488,NH3,NA,NA,NA
India,Assam,Guwahati,"IITG, Guwahati - PCBA",02-10-2025 07:00:00,26.2028636,91.70046436,NO2,1,4,1
India,Assam,Guwahati,"IITG, Guwahati - PCBA",02-10-2025 07:00:00,26.2028636,91.70046436,CO,2,8,5
India,Assam,Guwahati,"IITG, Guwahati - PCBA",02-10-2025 07:00:00,26.2028636,91.70046436,OZONE,2,21,4
India,Assam,Guwahati,"LGBI Airport, Guwahati - PCBA",02-10-2025 07:00:00,26.10887,91.589544,NO2,12,74,19
India,Andaman and Nicobar,Sri Vijaya Puram,"Police Line, Sri Vijaya Puram - ANPCC",02-10-2025 07:00:00,11.654054,92.734055,PM2.5,NA,NA,NA
India,Andaman and Nicobar,Sri Vijaya Puram,"Police Line, Sri Vijaya Puram - ANPCC",02-10-2025 07:00:00,11.654054,92.734055,OZONE,NA,NA,NA
India,Andhra_Pradesh,Amaravati,"Secretariat, Amaravati - APPCB",02-10-2025 07:00:00,16.5150833,80.5181667,PM2.5,14,28,21
India,Andhra_Pradesh,Amaravati,"Secretariat, Amaravati - APPCB",02-10-2025 07:00:00,16.5150833,80.5181667,SO2,8,11,9
India,Andhra_Pradesh,Chittoor,"Gangineni Cheruvu, Chittoor - APPCB",02-10-2025 07:00:00,13.204880,79.097889,SO2,10,11,10
India,Andhra_Pradesh,Chittoor,"Gangineni Cheruvu, Chittoor - APPCB",02-10-2025 07:00:00,13.204880,79.097889,CO,27,36,32
India,Assam,Nalbari,"Bata Chowk, Nalbari - PCBA",02-10-2025 07:00:00,26.446912,91.439057,PM10,45,54,48
India,Assam,Sivasagar,"Girls College, Sivasagar - PCBA",02-10-2025 07:00:00,26.987634,94.636574,CO,14,32,22
India,Assam,Sivasagar,"Girls College, Sivasagar - PCBA",02-10-2025 07:00:00,26.987634,94.636574,OZONE,2,8,2
India,Bihar,Araria,"Kharahiya Basti, Araria - BSPCB",02-10-2025 07:00:00,26.146529,87.454184,PM2.5,42,72,50
India,Andhra_Pradesh,Vijayawada,"Rajiv Nagar, Vijayawada - APPCB",02-10-2025 07:00:00,16.554731,80.649110,NO2,6,7,6
India,Andhra_Pradesh,Visakhapatnam,"GVM Corporation, Visakhapatnam - APPCB",02-10-2025 07:00:00,17.72,83.3,NO2,21,70,48
India,Andhra_Pradesh,Visakhapatnam,"GVM Corporation, Visakhapatnam - APPCB",02-10-2025 07:00:00,17.72,83.3,CO,24,66,29
India,Andhra_Pradesh,Visakhapatnam,"GVM Corporation, Visakhapatnam - APPCB",02-10-2025 07:00:00,17.72,83.3,OZONE,6,28,7
India,Andhra_Pradesh,Rajamahendravaram,"Anand Kala Kshetram, Rajamahendravaram - APPCB",02-10-2025 07:00:00,16.9872867,81.7363176,OZONE,9,11,10
India,Andhra_Pradesh,Tirupati,"Vaikuntapuram, Tirupati - APPCB",02-10-2025 07:00:00,13.615387,79.409230,PM2.5,NA,NA,NA
India,Bihar,Aurangabad,"Gurdeo Nagar, Aurangabad - BSPCB",02-10-2025 07:00:00,24.75746,84.366208,NO2,7,8,8
India,Bihar,Aurangabad,"Gurdeo Nagar, Aurangabad - BSPCB",02-10-2025 07:00:00,24.75746,84.366208,NH3,1,2,1
India,Assam,Guwahati,"Railway Colony, Guwahati - PCBA",02-10-2025 07:00:00,26.181742,91.78063,CO,10,36,32
India,Assam,Guwahati,"Pan Bazaar, Guwahati - PCBA",02-10-2025 07:00:00,26.187500,91.744194,PM10,3,30,12
India,Assam,Nagaon,"Christianpatty, Nagaon - PCBA",02-10-2025 07:00:00,26.349082,92.68449,OZONE,7,10,9
India,Assam,Guwahati,"LGBI Airport, Guwahati - PCBA",02-10-2025 07:00:00,26.10887,91.589544,NH3,6,6,6
India,Bihar,Gaya,"Collectorate, Gaya - BSPCB",02-10-2025 07:00:00,24.7955,84.9994,PM2.5,NA,NA,NA
India,Bihar,Gaya,"Collectorate, Gaya - BSPCB",02-10-2025 07:00:00,24.7955,84.9994,SO2,NA,NA,NA
India,Bihar,Gaya,"Collectorate, Gaya - BSPCB",02-10-2025 07:00:00,24.7955,84.9994,CO,NA,NA,NA
India,Bihar,Gaya,"Kareemganj, Gaya - BSPCB",02-10-2025 07:00:00,24.792403,84.992416,PM10,20,98,49
India,Bihar,Gaya,"Kareemganj, Gaya - BSPCB",02-10-2025 07:00:00,24.792403,84.992416,NH3,4,6,5
India,Bihar,Gaya,"Kareemganj, Gaya - BSPCB",02-10-2025 07:00:00,24.792403,84.992416,SO2,16,17,16
India,Bihar,Gaya,"SFTI Kusdihra, Gaya - BSPCB",02-10-2025 07:00:00,24.762518,84.982348,PM2.5,5,35,17
India,Bihar,Gaya,"SFTI Kusdihra, Gaya - BSPCB",02-10-2025 07:00:00,24.762518,84.982348,PM10,10,27,19
India,Bihar,Gaya,"SFTI Kusdihra, Gaya - BSPCB",02-10-2025 07:00:00,24.762518,84.982348,NO2,17,19,18
India,Bihar,Gaya,"SFTI Kusdihra, Gaya - BSPCB",02-10-2025 07:00:00,24.762518,84.982348,NH3,3,4,3
India,Bihar,Hajipur,"Industrial Area, Hajipur - BSPCB",02-10-2025 07:00:00,25.697189,85.245900,SO2,1,6,4
India,Bihar,Rajgir,"Dangi Tola, Rajgir - BSPCB",02-10-2025 07:00:00,25.03280,85.41948,OZONE,28,45,32
India,Bihar,Samastipur,"DM Office_Kasipur, Samastipur - BSPCB",02-10-2025 07:00:00,25.859655,85.77944,NO2,2,7,5
India,Bihar,Samastipur,"DM Office_Kasipur, Samastipur - BSPCB",02-10-2025 07:00:00,25.859655,85.77944,SO2,27,35,31
India,Bihar,Sasaram,"Dada Peer, Sasaram - BSPCB",02-10-2025 07:00:00,24.952822,84.002396,NH3,3,12,3
India,Bihar,Siwan,"Chitragupta Nagar, Siwan - BSPCB",02-10-2025 07:00:00,26.2271665,84.3570427,NO2,NA,NA,NA
India,Bihar,Siwan,"Chitragupta Nagar, Siwan - BSPCB",02-10-2025 07:00:00,26.2271665,84.3570427,NH3,NA,NA,NA
India,Bihar,Bihar Sharif,"D M Colony, Bihar Sharif - BSPCB",02-10-2025 07:00:00,25.204762,85.514960,PM10,58,72,66
India,Bihar,Bihar Sharif,"D M Colony, Bihar Sharif - BSPCB",02-10-2025 07:00:00,25.204762,85.514960,NH3,2,2,2
India,Bihar,Bihar Sharif,"D M Colony, Bihar Sharif - BSPCB",02-10-2025 07:00:00,25.204762,85.514960,OZONE,9,56,29
India,Bihar,Buxar,"Charitra Van, Buxar - BSPCB",02-10-2025 07:00:00,25.567520,83.966379,SO2,NA,NA,NA
India,Bihar,Buxar,"Charitra Van, Buxar - BSPCB",02-10-2025 07:00:00,25.567520,83.966379,OZONE,1,120,1
India,Bihar,Chhapra,"Darshan Nagar, Chhapra - BSPCB",02-10-2025 07:00:00,25.7808257,84.7446768,OZONE,3,30,14
India,Bihar,Kishanganj,"SDM Office_Khagra, Kishanganj - BSPCB",02-10-2025 07:00:00,26.0881305,87.93840336,OZONE,15,17,16
India,Bihar,Manguraha,"Forest Rest House, Manguraha - BSPCB",02-10-2025 07:00:00,27.308328,84.531742,NO2,4,7,5
India,Bihar,Manguraha,"Forest Rest House, Manguraha - BSPCB",02-10-2025 07:00:00,27.308328,84.531742,SO2,16,17,17
India,Bihar,Motihari,"Gandak Colony, Motihari - BSPCB",02-10-2025 07:00:00,26.63086,84.90051,NO2,6,9,8
India,Bihar,Munger,"Town Hall, Munger - BSPCB",02-10-2025 07:00:00,25.376776,86.471523,NO2,4,5,5
India,Bihar,Munger,"Town Hall, Munger - BSPCB",02-10-2025 07:00:00,25.376776,86.471523,CO,16,32,27
India,Bihar,Muzaffarpur,"Buddha Colony, Muzaffarpur - BSPCB",02-10-2025 07:00:00,26.11442,85.39813,PM2.5,12,73,34
India,Bihar,Muzaffarpur,"Buddha Colony, Muzaffarpur - BSPCB",02-10-2025 07:00:00,26.11442,85.39813,NH3,7,9,8
India,Bihar,Muzaffarpur,"MIT-Daudpur Kothi, Muzaffarpur - BSPCB",02-10-2025 07:00:00,26.1403345,85.3650192,OZONE,13,19,15
India,Bihar,Muzaffarpur,"Muzaffarpur Collectorate, Muzaffarpur - BSPCB",02-10-2025 07:00:00,26.1209,85.3647,CO,12,41,25
India,Bihar,Begusarai,"Lohiyanagar, Begusarai - BSPCB",02-10-2025 07:00:00,25.42742023,86.13886079,CO,23,56,45
India,Bihar,Bettiah,"Kamalnath Nagar, Bettiah - BSPCB",02-10-2025 07:00:00,26.80365,84.51954,PM2.5,NA,NA,NA
India,Bihar,Bettiah,"Kamalnath Nagar, Bettiah - BSPCB",02-10-2025 07:00:00,26.80365,84.51954,NO2,5,11,8
India,Bihar,Bettiah,"Kamalnath Nagar, Bettiah - BSPCB",02-10-2025 07:00:00,26.80365,84.51954,OZONE,21,30,25
India,Bihar,Bhagalpur,"DM Office_Kachari Chowk, Bhagalpur - BSPCB",02-10-2025 07:00:00,25.251013,86.989001,PM2.5,32,88,52
India,Bihar,Patna,"Muradpur, Patna - BSPCB",02-10-2025 07:00:00,25.619651,85.147382,OZONE,4,40,5
India,Bihar,Patna,"Rajbansi Nagar, Patna - BSPCB",02-10-2025 07:00:00,25.599486,85.113666,PM2.5,15,52,31
India,Bihar,Rajgir,"Dangi Tola, Rajgir - BSPCB",02-10-2025 07:00:00,25.03280,85.41948,NH3,6,7,7
India,Bihar,Rajgir,"Dangi Tola, Rajgir - BSPCB",02-10-2025 07:00:00,25.03280,85.41948,SO2,19,24,21
India,Chandigarh,Chandigarh,"Sector 22, Chandigarh - CPCC",02-10-2025 07:00:00,30.735567,76.775714,PM2.5,28,92,61
India,Chhattisgarh,Bhilai,"32Bungalows, Bhilai - CECB",02-10-2025 07:00:00,21.194815,81.314770,PM10,7,39,18
India,Bihar,Bhagalpur,"DM Office_Kachari Chowk, Bhagalpur - BSPCB",02-10-2025 07:00:00,25.251013,86.989001,NH3,3,10,6
India,Bihar,Bhagalpur,"DM Office_Kachari Chowk, Bhagalpur - BSPCB",02-10-2025 07:00:00,25.251013,86.989001,SO2,45,74,58
India,Chhattisgarh,Chhal,"Nawapara SECL Colony, Chhal - CECB",02-10-2025 07:00:00,22.118125,83.140608,OZONE,33,139,43
India,Chhattisgarh,Korba,"Rampur, Korba - CECB",02-10-2025 07:00:00,22.368195,82.746431,PM10,13,19,14
India,Chhattisgarh,Korba,"Urja Nagar, Korba - CECB",02-10-2025 07:00:00,22.348441,82.549611,PM2.5,16,22,17
India,Chhattisgarh,Korba,"Urja Nagar, Korba - CECB",02-10-2025 07:00:00,22.348441,82.549611,NH3,1,2,2
India,Chhattisgarh,Milupara,"Govt. Higher Secondary School, Milupara - CECB",02-10-2025 07:00:00,22.1910172,83.5197009,SO2,NA,NA,NA
India,Delhi,Delhi,"Anand Vihar, Delhi - DPCC",02-10-2025 07:00:00,28.647622,77.3158090,OZONE,NA,NA,NA
India,Delhi,Delhi,"Ashok Vihar, Delhi - DPCC",02-10-2025 07:00:00,28.695381,77.181665,OZONE,2,151,6
India,Delhi,Delhi,"Aya Nagar, Delhi - IMD",02-10-2025 07:00:00,28.4706914,77.1099364,PM2.5,15,129,67
India,Delhi,Delhi,"Aya Nagar, Delhi - IMD",02-10-2025 07:00:00,28.4706914,77.1099364,CO,35,74,45
India,Delhi,Delhi,"Bawana, Delhi - DPCC",02-10-2025 07:00:00,28.776200,77.051074,NO2,5,53,20
India,Chhattisgarh,Tumidih,"OP Jindal Industrial Park, Tumidih - CECB",02-10-2025 07:00:00,22.06631475,83.33820077,NH3,1,2,1
India,Chhattisgarh,Tumidih,"OP Jindal Industrial Park, Tumidih - CECB",02-10-2025 07:00:00,22.06631475,83.33820077,OZONE,4,59,11
India,Delhi,Delhi,"Alipur, Delhi - DPCC",02-10-2025 07:00:00,28.815329,77.153010,PM10,74,163,107
India,Delhi,Delhi,"Alipur, Delhi - DPCC",02-10-2025 07:00:00,28.815329,77.153010,SO2,3,7,5
India,Delhi,Delhi,"Alipur, Delhi - DPCC",02-10-2025 07:00:00,28.815329,77.153010,CO,37,78,64
India,Delhi,Delhi,"DTU, Delhi - CPCB",02-10-2025 07:00:00,28.7500499,77.1112615,NH3,5,14,9
India,Delhi,Delhi,"DTU, Delhi - CPCB",02-10-2025 07:00:00,28.7500499,77.1112615,OZONE,9,35,19
India,Delhi,Delhi,"Dr. Karni Singh Shooting Range, Delhi - DPCC",02-10-2025 07:00:00,28.498571,77.264840,PM2.5,8,233,76
India,Delhi,Delhi,"Dr. Karni Singh Shooting Range, Delhi - DPCC",02-10-2025 07:00:00,28.498571,77.264840,PM10,34,177,86
India,Delhi,Delhi,"Dr. Karni Singh Shooting Range, Delhi - DPCC",02-10-2025 07:00:00,28.498571,77.264840,SO2,1,6,4
India,Chhattisgarh,Bhilai,"Civic Center, Bhilai - Bhilai Steel Plant",02-10-2025 07:00:00,21.185571,81.343175,PM2.5,15,65,37
India,Chhattisgarh,Bhilai,"Civic Center, Bhilai - Bhilai Steel Plant",02-10-2025 07:00:00,21.185571,81.343175,PM10,25,71,45
India,Chhattisgarh,Bhilai,"Civic Center, Bhilai - Bhilai Steel Plant",02-10-2025 07:00:00,21.185571,81.343175,SO2,8,9,8
India,Chhattisgarh,Bilaspur,"Mangala, Bilaspur - NTPC",02-10-2025 07:00:00,22.08815,82.13737,PM10,19,106,48
India,Delhi,Delhi,"CRRI Mathura Road, Delhi - IMD",02-10-2025 07:00:00,28.5512005,77.2735737,PM10,48,217,109
India,Delhi,Delhi,"Chandni Chowk, Delhi - IITM",02-10-2025 07:00:00,28.656756,77.227234,PM2.5,53,118,81
India,Delhi,Delhi,"Chandni Chowk, Delhi - IITM",02-10-2025 07:00:00,28.656756,77.227234,OZONE,1,178,6
India,Chhattisgarh,Milupara,"Govt. Higher Secondary School, Milupara - CECB",02-10-2025 07:00:00,22.1910172,83.5197009,CO,NA,NA,NA
India,Chhattisgarh,Raipur,"AIIMS, Raipur - CECB",02-10-2025 07:00:00,21.258815,81.578979,NH3,5,5,5
India,Delhi,Delhi,"Dwarka-Sector 8, Delhi - DPCC ",02-10-2025 07:00:00,28.5710274,77.0719006,PM10,73,384,156
India,Delhi,Delhi,"Dwarka-Sector 8, Delhi - DPCC ",02-10-2025 07:00:00,28.5710274,77.0719006,NH3,5,7,6
India,Delhi,Delhi,"ITO, Delhi - CPCB",02-10-2025 07:00:00,28.628624,77.241060,NO2,81,106,90
India,Gujarat,Ahmedabad,"Rakhial, Ahmedabad - IITM",02-10-2025 07:00:00,23.016834,72.625775,NO2,7,43,16
India,Gujarat,Ahmedabad,"Rakhial, Ahmedabad - IITM",02-10-2025 07:00:00,23.016834,72.625775,SO2,6,14,9
India,Gujarat,Ahmedabad,"Rakhial, Ahmedabad - IITM",02-10-2025 07:00:00,23.016834,72.625775,OZONE,3,21,6
India,Gujarat,Ahmedabad,"SAC ISRO Bopal, Ahmedabad - IITM",02-10-2025 07:00:00,23.041137,72.456691,NH3,2,3,3
India,Gujarat,Ahmedabad,"SAC ISRO Satellite, Ahmedabad - IITM",02-10-2025 07:00:00,23.023389,72.515201,PM2.5,24,54,35
India,Gujarat,Ahmedabad,"SAC ISRO Satellite, Ahmedabad - IITM",02-10-2025 07:00:00,23.023389,72.515201,NH3,3,4,3
India,Gujarat,Ahmedabad,"SAC ISRO Satellite, Ahmedabad - IITM",02-10-2025 07:00:00,23.023389,72.515201,OZONE,3,20,6
India,Gujarat,Ahmedabad,"SVPI Airport Hansol, Ahmedabad - IITM",02-10-2025 07:00:00,23.076793,72.627874,PM10,26,46,34
India,Gujarat,Ahmedabad,"SVPI Airport Hansol, Ahmedabad - IITM",02-10-2025 07:00:00,23.076793,72.627874,NH3,1,1,1
India,Delhi,Delhi,"Sri Aurobindo Marg, Delhi - DPCC",02-10-2025 07:00:00,28.531346,77.190156,PM10,19,122,77
India,Delhi,Delhi,"Vivek Vihar, Delhi - DPCC",02-10-2025 07:00:00,28.672342,77.315260,PM2.5,28,262,95
India,Delhi,Delhi,"Vivek Vihar, Delhi - DPCC",02-10-2025 07:00:00,28.672342,77.315260,SO2,14,21,17
India,Delhi,Delhi,"Vivek Vihar, Delhi - DPCC",02-10-2025 07:00:00,28.672342,77.315260,CO,41,101,52
India,Delhi,Delhi,"Wazirpur, Delhi - DPCC",02-10-2025 07:00:00,28.699793,77.165453,SO2,15,24,18
India,Gujarat,Ahmedabad,"Chandkheda, Ahmedabad - IITM",02-10-2025 07:00:00,23.107969,72.574648,CO,5,36,19
India,Delhi,Delhi,"Nehru Nagar, Delhi - DPCC",02-10-2025 07:00:00,28.567890,77.250515,CO,2,86,20
India,Delhi,Delhi,"Nehru Nagar, Delhi - DPCC",02-10-2025 07:00:00,28.567890,77.250515,OZONE,3,303,12
India,Delhi,Delhi,"North Campus, DU, Delhi - IMD",02-10-2025 07:00:00,28.6573814,77.1585447,PM2.5,43,152,91
India,Delhi,Delhi,"North Campus, DU, Delhi - IMD",02-10-2025 07:00:00,28.6573814,77.1585447,CO,26,118,56
India,Delhi,Delhi,"Okhla Phase-2, Delhi - DPCC",02-10-2025 07:00:00,28.530785,77.271255,NH3,6,8,7
India,Delhi,Delhi,"NSIT Dwarka, Delhi - CPCB",02-10-2025 07:00:00,28.60909,77.0325413,PM10,32,114,81
India,Delhi,Delhi,"NSIT Dwarka, Delhi - CPCB",02-10-2025 07:00:00,28.60909,77.0325413,SO2,6,16,12
India,Delhi,Delhi,"NSIT Dwarka, Delhi - CPCB",02-10-2025 07:00:00,28.60909,77.0325413,CO,37,66,58
India,Delhi,Delhi,"Najafgarh, Delhi - DPCC",02-10-2025 07:00:00,28.570173,76.933762,SO2,13,16,15
India,Delhi,Delhi,"Najafgarh, Delhi - DPCC",02-10-2025 07:00:00,28.570173,76.933762,OZONE,3,41,6
India,Delhi,Delhi,"Jahangirpuri, Delhi - DPCC",02-10-2025 07:00:00,28.732820,77.170633,NH3,5,7,6
India,Delhi,Delhi,"Jahangirpuri, Delhi - DPCC",02-10-2025 07:00:00,28.732820,77.170633,SO2,5,27,14
India,Delhi,Delhi,"Jahangirpuri, Delhi - DPCC",02-10-2025 07:00:00,28.732820,77.170633,CO,37,110,83
India,Delhi,Delhi,"Jawaharlal Nehru Stadium, Delhi - DPCC",02-10-2025 07:00:00,28.580280,77.233829,PM2.5,27,183,74
India,Delhi,Delhi,"Pusa, Delhi - DPCC",02-10-2025 07:00:00,28.639652,77.146275,SO2,3,43,14
India,Delhi,Delhi,"R K Puram, Delhi - DPCC",02-10-2025 07:00:00,28.563262,77.186937,PM2.5,NA,NA,NA
India,Delhi,Delhi,"Rohini, Delhi - DPCC",02-10-2025 07:00:00,28.732528,77.119920,PM2.5,60,200,99
India,Gujarat,Ahmedabad,"Gyaspur, Ahmedabad - IITM",02-10-2025 07:00:00,22.977134,72.553024,NH3,3,7,5
India,Gujarat,Ahmedabad,"Gyaspur, Ahmedabad - IITM",02-10-2025 07:00:00,22.977134,72.553024,CO,38,56,46
India,Gujarat,Ahmedabad,"Maninagar, Ahmedabad - GPCB",02-10-2025 07:00:00,23.002657,72.591912,SO2,17,32,26
India,Delhi,Delhi,"Rohini, Delhi - DPCC",02-10-2025 07:00:00,28.732528,77.119920,NH3,8,8,8
India,Delhi,Delhi,"Sonia Vihar, Delhi - DPCC",02-10-2025 07:00:00,28.710508,77.249485,NO2,14,58,32
India,Delhi,Delhi,"Sonia Vihar, Delhi - DPCC",02-10-2025 07:00:00,28.710508,77.249485,CO,40,110,72
India,Delhi,Delhi,"Narela, Delhi - DPCC",02-10-2025 07:00:00,28.822836,77.101981,NH3,15,18,16
India,Haryana,Kurukshetra,"Sector-7, Kurukshetra - HSPCB",02-10-2025 07:00:00,29.966942,76.875879,SO2,5,14,9
India,Haryana,Mandikhera,"General Hospital, Mandikhera - HSPCB",02-10-2025 07:00:00,27.9002,76.9938,NO2,24,97,32
India,Haryana,Mandikhera,"General Hospital, Mandikhera - HSPCB",02-10-2025 07:00:00,27.9002,76.9938,SO2,NA,NA,NA
India,Haryana,Mandikhera,"General Hospital, Mandikhera - HSPCB",02-10-2025 07:00:00,27.9002,76.9938,CO,38,108,100
India,Haryana,Mandikhera,"General Hospital, Mandikhera - HSPCB",02-10-2025 07:00:00,27.9002,76.9938,OZONE,4,31,16
India,Haryana,Narnaul,"Shastri Nagar, Narnaul - HSPCB",02-10-2025 07:00:00,28.060249,76.113115,SO2,11,12,11
India,Haryana,Palwal,"Shyam Nagar, Palwal - HSPCB",02-10-2025 07:00:00,28.1485564,77.3320667,SO2,12,13,13
India,Haryana,Panchgaon,"Amity University, Panchgaon - IITM",02-10-2025 07:00:00,28.3153,76.9143,PM2.5,28,72,46
India,Gujarat,Gandhinagar,"Sector-10, Gandhinagar - GPCB",02-10-2025 07:00:00,23.221714,72.654328,CO,4,32,30
India,Gujarat,Surat,"Science Center, Surat - SMC",02-10-2025 07:00:00,21.170046,72.795405,NO2,14,23,20
India,Gujarat,Vapi,"Phase-1 GIDC, Vapi - GPCB",02-10-2025 07:00:00,20.362421,72.918013,PM10,26,104,56
India,Gujarat,Vatva,"Phase-4 GIDC, Vatva - GPCB",02-10-2025 07:00:00,22.969611,72.643500,NO2,7,17,11
India,Gujarat,Vatva,"Phase-4 GIDC, Vatva - GPCB",02-10-2025 07:00:00,22.969611,72.643500,SO2,5,10,6
India,Gujarat,Vatva,"Phase-4 GIDC, Vatva - GPCB",02-10-2025 07:00:00,22.969611,72.643500,OZONE,12,33,14
India,Haryana,Panchgaon,"Amity University, Panchgaon - IITM",02-10-2025 07:00:00,28.3153,76.9143,PM10,31,98,57
India,Haryana,Panchgaon,"Amity University, Panchgaon - IITM",02-10-2025 07:00:00,28.3153,76.9143,NH3,2,7,4
India,Haryana,Panipat,"Sector-18, Panipat - HSPCB",02-10-2025 07:00:00,29.432304,76.972765,PM10,59,159,125
India,Haryana,Panipat,"Sector-18, Panipat - HSPCB",02-10-2025 07:00:00,29.432304,76.972765,OZONE,1,28,4
India,Haryana,Sirsa,"F-Block, Sirsa - HSPCB",02-10-2025 07:00:00,29.536400,75.015800,PM2.5,12,196,56
India,Haryana,Sirsa,"F-Block, Sirsa - HSPCB",02-10-2025 07:00:00,29.536400,75.015800,OZONE,12,86,29
India,Haryana,Gurugram,"Teri Gram, Gurugram - HSPCB",02-10-2025 07:00:00,28.4275,77.1465,PM2.5,NA,NA,NA
India,Haryana,Gurugram,"Teri Gram, Gurugram - HSPCB",02-10-2025 07:00:00,28.4275,77.1465,NH3,NA,NA,NA
India,Haryana,Jind,"Police Lines, Jind - HSPCB",02-10-2025 07:00:00,29.307814,76.337619,PM2.5,43,72,63
India,Haryana,Jind,"Police Lines, Jind - HSPCB",02-10-2025 07:00:00,29.307814,76.337619,NO2,12,14,13
India,Haryana,Jind,"Police Lines, Jind - HSPCB",02-10-2025 07:00:00,29.307814,76.337619,SO2,9,15,10
India,Haryana,Jind,"Police Lines, Jind - HSPCB",02-10-2025 07:00:00,29.307814,76.337619,CO,1,131,39
India,Haryana,Jind,"Police Lines, Jind - HSPCB",02-10-2025 07:00:00,29.307814,76.337619,OZONE,4,13,8
India,Haryana,Ambala,"Patti Mehar, Ambala - HSPCB",02-10-2025 07:00:00,30.379589,76.778328,NO2,10,20,12
India,Haryana,Bahadurgarh,"Arya Nagar, Bahadurgarh - HSPCB",02-10-2025 07:00:00,28.6701,76.9254,OZONE,16,26,19
India,Haryana,Bhiwani,"H.B. Colony, Bhiwani - HSPCB",02-10-2025 07:00:00,28.806223,76.141105,NO2,33,34,33
India,Haryana,Bhiwani,"H.B. Colony, Bhiwani - HSPCB",02-10-2025 07:00:00,28.806223,76.141105,OZONE,10,18,12
India,Haryana,Faridabad,"New Industrial Town, Faridabad - HSPCB",02-10-2025 07:00:00,28.39072,77.30059,NH3,11,12,11
India,Karnataka,Bagalkot,"Vidayagiri, Bagalkot - KSPCB",02-10-2025 07:00:00,16.172806,75.659694,OZONE,10,16,15
India,Karnataka,Bengaluru,"Bapuji Nagar, Bengaluru - KSPCB",02-10-2025 07:00:00,12.951913,77.539784,CO,8,62,15
India,Karnataka,Bengaluru,"City Railway Station, Bengaluru - KSPCB",02-10-2025 07:00:00,12.9756843,77.5660749,NO2,46,56,51
India,Karnataka,Bengaluru,"City Railway Station, Bengaluru - KSPCB",02-10-2025 07:00:00,12.9756843,77.5660749,CO,59,62,60
India,Karnataka,Bengaluru,"Hebbal, Bengaluru - KSPCB",02-10-2025 07:00:00,13.029152,77.585901,PM10,12,36,22
India,Haryana,Yamuna Nagar,"Gobind Pura, Yamuna Nagar - HSPCB",02-10-2025 07:00:00,30.1480566,77.2893471,PM2.5,NA,NA,NA
India,Jammu_and_Kashmir,Srinagar,"Rajbagh, Srinagar - JKSPCB",02-10-2025 07:00:00,34.066206,74.819820,PM2.5,32,77,54
India,Jharkhand,Jorapokhar,"Tata Stadium, Jorapokhar - JSPCB",02-10-2025 07:00:00,23.707909,86.414670,PM10,NA,NA,NA
India,Jharkhand,Jorapokhar,"Tata Stadium, Jorapokhar - JSPCB",02-10-2025 07:00:00,23.707909,86.414670,OZONE,NA,NA,NA
India,Haryana,Faridabad,"Sector 11, Faridabad - HSPCB",02-10-2025 07:00:00,28.376058,77.315741,NH3,6,7,6
India,Haryana,Faridabad,"Sector 30, Faridabad - HSPCB",02-10-2025 07:00:00,28.4417,77.3217,PM10,97,105,100
India,Haryana,Gurugram,"NISE Gwal Pahari, Gurugram - IMD",02-10-2025 07:00:00,28.422681,77.148944,PM2.5,26,275,80
India,Gujarat,Ankleshwar,"GIDC, Ankleshwar - GPCB",02-10-2025 07:00:00,21.613267,73.010555,NO2,17,22,19
India,Gujarat,Ankleshwar,"GIDC, Ankleshwar - GPCB",02-10-2025 07:00:00,21.613267,73.010555,SO2,63,73,67
India,Gujarat,Gandhinagar,"GIFT City, Gandhinagar - IITM",02-10-2025 07:00:00,23.163798,72.677768,CO,38,54,48
India,Karnataka,Bengaluru,"Shivapura_Peenya, Bengaluru - KSPCB",02-10-2025 07:00:00,13.0246342,77.5080115,NO2,23,25,24
India,Karnataka,Bengaluru,"Shivapura_Peenya, Bengaluru - KSPCB",02-10-2025 07:00:00,13.0246342,77.5080115,SO2,6,12,10
India,Karnataka,Bengaluru,"Shivapura_Peenya, Bengaluru - KSPCB",02-10-2025 07:00:00,13.0246342,77.5080115,CO,26,31,27
India,Karnataka,Chamarajanagar,"Urban, Chamarajanagar - KSPCB",02-10-2025 07:00:00,11.55358,76.55521,NO2,15,30,25
India,Karnataka,Chamarajanagar,"Urban, Chamarajanagar - KSPCB",02-10-2025 07:00:00,11.55358,76.55521,NH3,1,2,2
India,Karnataka,Chikkaballapur,"Chikkaballapur Rural, Chikkaballapur - KSPCB",02-10-2025 07:00:00,13.428828,77.731418,PM10,NA,NA,NA
India,Karnataka,Chikkamagaluru,"Kalyana Nagara, Chikkamagaluru - KSPCB",02-10-2025 07:00:00,13.328028,75.797056,PM2.5,5,39,17
India,Kerala,Kollam,"Polayathode, Kollam - Kerala PCB",02-10-2025 07:00:00,8.8787,76.6073,SO2,2,3,2
India,Kerala,Thiruvananthapuram,"Plammoodu, Thiruvananthapuram - Kerala PCB",02-10-2025 07:00:00,8.5149093,76.9435879,PM10,1,103,15
India,Kerala,Thrissur,"Corporation Ground, Thrissur - Kerala PCB",02-10-2025 07:00:00,10.532400,76.215900,CO,21,28,24
India,Madhya Pradesh,Bhopal,"Idgah Hills, Bhopal - MPPCB",02-10-2025 07:00:00,23.264759,77.381568,NH3,NA,NA,NA
India,Madhya Pradesh,Bhopal,"Paryavaran Parisar, Bhopal - MPPCB",02-10-2025 07:00:00,23.210494,77.425409,PM10,33,123,53
India,Madhya Pradesh,Bhopal,"T T Nagar, Bhopal - MPPCB",02-10-2025 07:00:00,23.233584,77.400574,NO2,18,42,29
India,Madhya Pradesh,Bhopal,"T T Nagar, Bhopal - MPPCB",02-10-2025 07:00:00,23.233584,77.400574,NH3,5,5,5
India,Madhya Pradesh,Bhopal,"T T Nagar, Bhopal - MPPCB",02-10-2025 07:00:00,23.233584,77.400574,OZONE,7,63,13
India,Madhya Pradesh,Dewas,"Bhopal Chauraha, Dewas - MPPCB",02-10-2025 07:00:00,22.9682591,76.064118,PM10,47,165,83
India,Madhya Pradesh,Dewas,"Bhopal Chauraha, Dewas - MPPCB",02-10-2025 07:00:00,22.9682591,76.064118,NO2,43,65,55
India,Madhya Pradesh,Dewas,"Bhopal Chauraha, Dewas - MPPCB",02-10-2025 07:00:00,22.9682591,76.064118,OZONE,28,30,29
India,Madhya Pradesh,Gwalior,"City Center, Gwalior - MPPCB",02-10-2025 07:00:00,26.203442,78.193251,PM2.5,5,52,18
India,Madhya Pradesh,Gwalior,"City Center, Gwalior - MPPCB",02-10-2025 07:00:00,26.203442,78.193251,NO2,9,10,10
India,Karnataka,Koppal,"Diwator Nagar, Koppal - KSPCB",02-10-2025 07:00:00,15.347630,76.181767,NO2,NA,NA,NA
India,Karnataka,Koppal,"Diwator Nagar, Koppal - KSPCB",02-10-2025 07:00:00,15.347630,76.181767,OZONE,8,14,10
India,Karnataka,Madikeri,"Stuart Hill, Madikeri - KSPCB",02-10-2025 07:00:00,12.415911,75.735050,OZONE,4,7,5
India,Karnataka,Mysuru,"Hebbal 1st Stage, Mysuru - KSPCB",02-10-2025 07:00:00,12.21041,76.37376,SO2,1,14,5
India,Karnataka,Mysuru,"Hebbal 1st Stage, Mysuru - KSPCB",02-10-2025 07:00:00,12.21041,76.37376,OZONE,10,56,12
India,Karnataka,Shivamogga,"Vinoba Nagara, Shivamogga - KSPCB",02-10-2025 07:00:00,13.940000,75.555917,NO2,12,25,19
India,Karnataka,Hubballi,"Lingaraj Nagar, Hubballi - KSPCB",02-10-2025 07:00:00,15.3714823,75.1160168,NO2,7,8,7
India,Karnataka,Hubballi,"Lingaraj Nagar, Hubballi - KSPCB",02-10-2025 07:00:00,15.3714823,75.1160168,SO2,NA,NA,NA
India,Karnataka,Hubballi,"Lingaraj Nagar, Hubballi - KSPCB",02-10-2025 07:00:00,15.3714823,75.1160168,CO,6,19,13
India,Karnataka,Kalaburagi,"Mahatma Basaveswar Colony, Kalaburgi - KSPCB",02-10-2025 07:00:00,17.336318,76.847397,SO2,3,9,4
India,Karnataka,Kalaburagi,"Mahatma Basaveswar Colony, Kalaburgi - KSPCB",02-10-2025 07:00:00,17.336318,76.847397,CO,30,42,32
India,Karnataka,Karwar,"KHB Colony, Karwar - KSPCB",02-10-2025 07:00:00,14.816666,74.141003,NO2,4,9,7
India,Madhya Pradesh,Gwalior,"Deen Dayal Nagar, Gwalior - MPPCB",02-10-2025 07:00:00,26.259242,78.216432,CO,31,106,48
India,Madhya Pradesh,Gwalior,"Deen Dayal Nagar, Gwalior - MPPCB",02-10-2025 07:00:00,26.259242,78.216432,OZONE,1,95,28
India,Madhya Pradesh,Gwalior,"Maharaj Bada, Gwalior - MPPCB",02-10-2025 07:00:00,26.200388,78.147714,NH3,2,2,2
India,Madhya Pradesh,Indore,"Regional Park, Indore - IMC",02-10-2025 07:00:00,22.6780,75.8559,SO2,21,25,23
India,Karnataka,Davanagere,"Devaraj Urs Badavane, Davanagere - KSPCB",02-10-2025 07:00:00,14.475800,75.905200,OZONE,24,25,24
India,Karnataka,Dharwad,"Kalabhavan, Dharwad - KSPCB",02-10-2025 07:00:00,15.459706,75.008381,CO,33,57,42
India,Karnataka,Haveri,"Ashwini Nagar, Haveri - KSPCB",02-10-2025 07:00:00,14.791800,75.389600,PM2.5,NA,NA,NA
India,Karnataka,Haveri,"Ashwini Nagar, Haveri - KSPCB",02-10-2025 07:00:00,14.791800,75.389600,NO2,NA,NA,NA
India,Karnataka,Haveri,"Ashwini Nagar, Haveri - KSPCB",02-10-2025 07:00:00,14.791800,75.389600,NH3,NA,NA,NA
India,Karnataka,Shivamogga,"Vinoba Nagara, Shivamogga - KSPCB",02-10-2025 07:00:00,13.940000,75.555917,NH3,2,6,4
India,Kerala,Kannur,"Thavakkara, Kannur - Kerala PCB",02-10-2025 07:00:00,11.875000,75.373200,PM2.5,NA,NA,NA
India,Kerala,Kollam,"Polayathode, Kollam - Kerala PCB",02-10-2025 07:00:00,8.8787,76.6073,NO2,8,10,9
India,Karnataka,Bengaluru,"Jayanagar 5th Block, Bengaluru - KSPCB",02-10-2025 07:00:00,12.920984,77.584908,PM2.5,8,43,22
India,Karnataka,Bengaluru,"RVCE-Mailasandra, Bengaluru - KSPCB",02-10-2025 07:00:00,12.921418,77.502466,OZONE,21,22,21
India,Karnataka,Bengaluru,"Sanegurava Halli, Bengaluru - KSPCB",02-10-2025 07:00:00,12.990328,77.5431385,NO2,17,19,18
India,Maharashtra,Kalyan,"Khadakpada, Kalyan - MPCB",02-10-2025 07:00:00,19.25292,73.142019,PM2.5,NA,NA,NA
India,Maharashtra,Kalyan,"Pimpleshwar Mandir, Kalyan - MPCB",02-10-2025 07:00:00,19.192056,72.9585188,PM2.5,16,79,38
India,Maharashtra,Kalyan,"Pimpleshwar Mandir, Kalyan - MPCB",02-10-2025 07:00:00,19.192056,72.9585188,NH3,5,5,5
India,Maharashtra,Kolhapur,"Shivaji University, Kolhapur - MPCB",02-10-2025 07:00:00,16.6870449,74.2505872,PM2.5,6,33,15
India,Maharashtra,Kolhapur,"Sinchan Bhavan, Kolhapur - MPCB",02-10-2025 07:00:00,16.7143745,74.2426398,NH3,5,10,6
India,Maharashtra,Kolhapur,"Sinchan Bhavan, Kolhapur - MPCB",02-10-2025 07:00:00,16.7143745,74.2426398,SO2,1,2,1
India,Maharashtra,Aurangabad,"More Chowk Waluj, Aurangabad - MPCB",02-10-2025 07:00:00,19.8389439,75.244448,NO2,14,23,19
India,Maharashtra,Aurangabad,"More Chowk Waluj, Aurangabad - MPCB",02-10-2025 07:00:00,19.8389439,75.244448,SO2,15,20,17
India,Maharashtra,Aurangabad,"More Chowk Waluj, Aurangabad - MPCB",02-10-2025 07:00:00,19.8389439,75.244448,OZONE,26,30,28
India,Maharashtra,Aurangabad,"Rachnakar Colony, Aurangabad - MPCB",02-10-2025 07:00:00,19.863756,75.321188,PM10,19,93,46
India,Maharashtra,Badlapur,"Katrap, Badlapur - MPCB",02-10-2025 07:00:00,19.16485,73.23409,PM10,33,104,53
India,Maharashtra,Badlapur,"Katrap, Badlapur - MPCB",02-10-2025 07:00:00,19.16485,73.23409,NO2,15,31,22
India,Madhya Pradesh,Indore,"Residency Area, Indore - IMC",02-10-2025 07:00:00,22.7084,75.8815,PM2.5,19,66,34
India,Madhya Pradesh,Indore,"Residency Area, Indore - IMC",02-10-2025 07:00:00,22.7084,75.8815,PM10,23,64,39
India,Madhya Pradesh,Indore,"Residency Area, Indore - IMC",02-10-2025 07:00:00,22.7084,75.8815,NO2,13,19,16
India,Madhya Pradesh,Jabalpur,"Govindh Bhavan Colony, Jabalpur - JMC",02-10-2025 07:00:00,23.163174,79.973061,NO2,19,20,20
India,Madhya Pradesh,Jabalpur,"Gupteshwar, Jabalpur - JMC",02-10-2025 07:00:00,23.142888,79.916147,NO2,11,22,14
India,Maharashtra,Chandrapur,"MIDC Khutala, Chandrapur - MPCB",02-10-2025 07:00:00,19.9775302,79.2337086,PM2.5,22,83,50
India,Maharashtra,Chandrapur,"MIDC Khutala, Chandrapur - MPCB",02-10-2025 07:00:00,19.9775302,79.2337086,NO2,NA,NA,NA
India,Maharashtra,Jalgaon,"Prabhat Colony, Jalgaon - MPCB",02-10-2025 07:00:00,21.001264,75.565602,CO,16,42,20
India,Maharashtra,Jalna,"Old MIDC, Jalna - MPCB",02-10-2025 07:00:00,19.854616,75.905894,PM2.5,NA,NA,NA
India,Maharashtra,Jalna,"Old MIDC, Jalna - MPCB",02-10-2025 07:00:00,19.854616,75.905894,NO2,NA,NA,NA
India,Maharashtra,Amravati,"Shivneri Colony, Amravati - MPCB",02-10-2025 07:00:00,20.9402359,77.7895248,NH3,2,2,2
India,Maharashtra,Amravati,"Shivneri Colony, Amravati - MPCB",02-10-2025 07:00:00,20.9402359,77.7895248,SO2,1,6,2
India,Maharashtra,Amravati,"Shivneri Colony, Amravati - MPCB",02-10-2025 07:00:00,20.9402359,77.7895248,CO,13,36,19
India,Maharashtra,Amravati,"Shivneri Colony, Amravati - MPCB",02-10-2025 07:00:00,20.9402359,77.7895248,OZONE,1,46,4
India,Maharashtra,Amravati,"Shri Shivaji Science College, Amravati - MPCB",02-10-2025 07:00:00,20.939198,77.765701,NO2,3,28,10
India,Maharashtra,Bhiwandi,"Gokul Nagar, Bhiwandi - MPCB",02-10-2025 07:00:00,19.309073,73.057223,OZONE,12,36,13
India,Maharashtra,Boisar,"Khaira, Boisar - MPCB",02-10-2025 07:00:00,19.786089,72.757971,NH3,4,11,6
India,Maharashtra,Boisar,"Khaira, Boisar - MPCB",02-10-2025 07:00:00,19.786089,72.757971,OZONE,30,31,30
India,Madhya Pradesh,Jabalpur,"Marhatal, Jabalpur - MPPCB",02-10-2025 07:00:00,23.168606,79.932247,SO2,10,23,15
India,Madhya Pradesh,Maihar,"Sahilara, Maihar - KJS Cements",02-10-2025 07:00:00,24.2613009,80.7231783,PM2.5,NA,NA,NA
India,Madhya Pradesh,Pithampur,"Sector-2 Industrial Area, Pithampur - MPPCB",02-10-2025 07:00:00,22.624758,75.675238,PM10,48,190,87
India,Madhya Pradesh,Singrauli,"Suryakiran Bhawan NCL, Singrauli - MPPCB",02-10-2025 07:00:00,24.108970,82.645580,PM10,NA,NA,NA
India,Maharashtra,Latur,"Sawe Wadi, Latur - MPCB",02-10-2025 07:00:00,18.39963,76.57452,NH3,1,12,4
India,Maharashtra,Latur,"Sawe Wadi, Latur - MPCB",02-10-2025 07:00:00,18.39963,76.57452,SO2,1,7,4
India,Maharashtra,Latur,"Sawe Wadi, Latur - MPCB",02-10-2025 07:00:00,18.39963,76.57452,CO,8,36,11
India,Maharashtra,Mahad,"Kamble Tarf Birwadi, Mahad - MPCB",02-10-2025 07:00:00,18.1023399,73.4783687,NO2,22,45,29
India,Maharashtra,Mahad,"Kamble Tarf Birwadi, Mahad - MPCB",02-10-2025 07:00:00,18.1023399,73.4783687,CO,22,44,34
India,Maharashtra,Malegaon,"Mahesh Nagar, Malegaon - MPCB",02-10-2025 07:00:00,20.555712,74.529236,CO,12,98,29
India,Maharashtra,Malegaon,"Mahesh Nagar, Malegaon - MPCB",02-10-2025 07:00:00,20.555712,74.529236,OZONE,11,50,17
India,Maharashtra,Mira-Bhayandar,"Bhayandar West, Mira-Bhayandar - MPCB",02-10-2025 07:00:00,19.296481,72.840923,PM10,33,47,39
India,Maharashtra,Mira-Bhayandar,"Bhayandar West, Mira-Bhayandar - MPCB",02-10-2025 07:00:00,19.296481,72.840923,NH3,1,5,2
India,Maharashtra,Mumbai,"Chembur, Mumbai - MPCB",02-10-2025 07:00:00,19.0364585,72.8954371,NH3,3,8,5
India,Maharashtra,Mumbai,"Chhatrapati Shivaji Intl. Airport (T2), Mumbai - MPCB",02-10-2025 07:00:00,19.10078,72.87462,PM2.5,32,41,36
India,Maharashtra,Mumbai,"Chhatrapati Shivaji Intl. Airport (T2), Mumbai - MPCB",02-10-2025 07:00:00,19.10078,72.87462,NH3,1,2,2
India,Maharashtra,Mumbai,"Chhatrapati Shivaji Intl. Airport (T2), Mumbai - MPCB",02-10-2025 07:00:00,19.10078,72.87462,CO,26,33,29
India,Maharashtra,Mumbai,"Colaba, Mumbai - MPCB",02-10-2025 07:00:00,18.910000,72.820000,CO,22,24,24
India,Maharashtra,Mumbai,"Deonar, Mumbai - IITM",02-10-2025 07:00:00,19.04946,72.9230,SO2,4,8,6
India,Maharashtra,Mumbai,"Deonar, Mumbai - IITM",02-10-2025 07:00:00,19.04946,72.9230,CO,10,42,27
India,Maharashtra,Mumbai,"Bandra Kurla Complex, Mumbai - IITM",02-10-2025 07:00:00,19.053536,72.84643,PM2.5,11,65,31
India,Maharashtra,Mumbai,"Bandra Kurla Complex, Mumbai - IITM",02-10-2025 07:00:00,19.053536,72.84643,OZONE,NA,NA,NA
India,Maharashtra,Mumbai,"Bandra Kurla Complex, Mumbai - MPCB",02-10-2025 07:00:00,19.065931,72.862131,CO,7,34,19
India,Maharashtra,Mumbai,"Bandra Kurla Complex, Mumbai - MPCB",02-10-2025 07:00:00,19.065931,72.862131,OZONE,1,18,5
India,Maharashtra,Mumbai,"Borivali East, Mumbai - IITM",02-10-2025 07:00:00,19.23241,72.86895,PM10,39,78,59
India,Maharashtra,Mumbai,"Chakala-Andheri East, Mumbai - IITM",02-10-2025 07:00:00,19.11074,72.86084,NO2,7,77,48
India,Maharashtra,Nagpur,"Opp GPO Civil Lines, Nagpur - MPCB",02-10-2025 07:00:00,21.152875,79.0517531,PM2.5,8,32,20
India,Maharashtra,Nagpur,"Opp GPO Civil Lines, Nagpur - MPCB",02-10-2025 07:00:00,21.152875,79.0517531,NO2,8,33,16
India,Maharashtra,Nagpur,"Ram Nagar, Nagpur - MPCB",02-10-2025 07:00:00,21.143383,79.048912,SO2,14,18,16
India,Maharashtra,Nagpur,"Ram Nagar, Nagpur - MPCB",02-10-2025 07:00:00,21.143383,79.048912,OZONE,5,38,6
India,Maharashtra,Nanded,"Sneh Nagar, Nanded - MPCB",02-10-2025 07:00:00,19.173852,77.296291,PM2.5,5,26,17
India,Maharashtra,Nanded,"Sneh Nagar, Nanded - MPCB",02-10-2025 07:00:00,19.173852,77.296291,OZONE,7,41,12
India,Maharashtra,Mumbai,"Khindipada-Bhandup West, Mumbai - IITM",02-10-2025 07:00:00,19.1653323,72.922099,NH3,3,5,4
India,Maharashtra,Mumbai,"Khindipada-Bhandup West, Mumbai - IITM",02-10-2025 07:00:00,19.1653323,72.922099,SO2,1,17,9
India,Maharashtra,Mumbai,"Khindipada-Bhandup West, Mumbai - IITM",02-10-2025 07:00:00,19.1653323,72.922099,CO,24,53,39
India,Maharashtra,Mumbai,"Kurla, Mumbai - MPCB",02-10-2025 07:00:00,19.0863,72.8888,OZONE,23,38,28
India,Maharashtra,Mumbai,"Malad West, Mumbai - IITM",02-10-2025 07:00:00,19.19709,72.82204,SO2,5,8,6
India,Maharashtra,Mumbai,"Shivaji Nagar, Mumbai - BMC",02-10-2025 07:00:00,19.060498,72.923356,SO2,11,12,12
India,Maharashtra,Mumbai,"Shivaji Nagar, Mumbai - BMC",02-10-2025 07:00:00,19.060498,72.923356,CO,5,46,21
India,Maharashtra,Mumbai,"Sion, Mumbai - MPCB",02-10-2025 07:00:00,19.047000,72.874600,PM2.5,NA,NA,NA
India,Maharashtra,Mumbai,"Vasai West, Mumbai - MPCB",02-10-2025 07:00:00,19.383200,72.820400,PM10,31,71,43
India,Maharashtra,Mumbai,"Vasai West, Mumbai - MPCB",02-10-2025 07:00:00,19.383200,72.820400,OZONE,15,23,18
India,Maharashtra,Mumbai,"Vile Parle West, Mumbai - MPCB",02-10-2025 07:00:00,19.10861,72.83622,SO2,11,59,41
India,Maharashtra,Mumbai,"Worli, Mumbai - MPCB",02-10-2025 07:00:00,18.9936162,72.8128113,OZONE,20,21,20
India,Maharashtra,Nagpur,"Ambazari, Nagpur - MPCB",02-10-2025 07:00:00,21.121801,79.04952,NH3,1,11,4
India,Maharashtra,Nagpur,"Ambazari, Nagpur - MPCB",02-10-2025 07:00:00,21.121801,79.04952,SO2,8,19,14
India,Maharashtra,Mumbai,"Powai, Mumbai - MPCB",02-10-2025 07:00:00,19.137500,72.915056,PM2.5,18,28,22
India,Maharashtra,Mumbai,"Sewri, Mumbai - BMC",02-10-2025 07:00:00,19.000084,72.856730,NO2,1,9,3
India,Maharashtra,Mumbai,"Shivaji Nagar, Mumbai - BMC",02-10-2025 07:00:00,19.060498,72.923356,PM2.5,17,52,32
India,Maharashtra,Mumbai,"Shivaji Nagar, Mumbai - BMC",02-10-2025 07:00:00,19.060498,72.923356,NO2,19,55,34
India,Maharashtra,Mumbai,"Ghatkopar, Mumbai - BMC",02-10-2025 07:00:00,19.083694,72.920967,PM10,25,55,43
India,Maharashtra,Mumbai,"Ghatkopar, Mumbai - BMC",02-10-2025 07:00:00,19.083694,72.920967,NH3,1,5,3
India,Maharashtra,Mumbai,"Kherwadi_Bandra East, Mumbai - MPCB",02-10-2025 07:00:00,19.0632143,72.8456324,PM10,30,65,48
India,Maharashtra,Mumbai,"Kherwadi_Bandra East, Mumbai - MPCB",02-10-2025 07:00:00,19.0632143,72.8456324,NO2,1,22,11
India,Maharashtra,Navi Mumbai,"Sector-2E Kalamboli, Navi Mumbai - MPCB",02-10-2025 07:00:00,19.02579,73.10297,NO2,15,94,29
India,Maharashtra,Navi Mumbai,"Sector-2E Kalamboli, Navi Mumbai - MPCB",02-10-2025 07:00:00,19.02579,73.10297,SO2,1,4,2
India,Maharashtra,Navi Mumbai,"Sector-2E Kalamboli, Navi Mumbai - MPCB",02-10-2025 07:00:00,19.02579,73.10297,OZONE,1,23,2
India,Maharashtra,Navi Mumbai,"Tondare-Taloja, Navi Mumbai - MPCB",02-10-2025 07:00:00,19.0630,73.1209,OZONE,1,43,8
India,Maharashtra,Parbhani,"Masoom Colony, Parbhani - MPCB",02-10-2025 07:00:00,19.265594,76.761463,PM10,27,67,44
India,Maharashtra,Parbhani,"Masoom Colony, Parbhani - MPCB",02-10-2025 07:00:00,19.265594,76.761463,SO2,11,23,17
India,Maharashtra,Pimpri-Chinchwad,"Gavalinagar, Pimpri Chinchwad - MPCB",02-10-2025 07:00:00,18.63673,73.82487,PM2.5,11,49,28
India,Maharashtra,Pimpri-Chinchwad,"Gavalinagar, Pimpri Chinchwad - MPCB",02-10-2025 07:00:00,18.63673,73.82487,SO2,1,3,2
India,Meghalaya,Shillong,"JN Stadium, Shillong - Meghalaya PCB",02-10-2025 07:00:00,25.5803419,91.8942571,PM2.5,NA,NA,NA
India,Meghalaya,Shillong,"JN Stadium, Shillong - Meghalaya PCB",02-10-2025 07:00:00,25.5803419,91.8942571,NH3,7,14,10
India,Meghalaya,Shillong,"Lumpyngngad, Shillong - Meghalaya PCB",02-10-2025 07:00:00,25.5586,91.8985,CO,1,4,3
India,Nagaland,Kohima,"PWD Junction, Kohima - NPCB",02-10-2025 07:00:00,25.6635413,94.0989878,NO2,3,4,4
India,Odisha,Angul,"Hakimapada, Angul - OSPCB",02-10-2025 07:00:00,20.832874,85.104082,PM2.5,3,233,52
India,Odisha,Angul,"Hakimapada, Angul - OSPCB",02-10-2025 07:00:00,20.832874,85.104082,CO,12,90,47
India,Maharashtra,Pimpri-Chinchwad,"Park Street Wakad, Pimpri Chinchwad - MPCB",02-10-2025 07:00:00,18.59051,73.77946,CO,8,49,20
India,Maharashtra,Pimpri-Chinchwad,"Savta Mali Nagar, Pimpri-Chinchwad - IITM",02-10-2025 07:00:00,18.614767,73.799516,OZONE,2,21,8
India,Maharashtra,Pimpri-Chinchwad,"Thergaon, Pimpri Chinchwad - MPCB",02-10-2025 07:00:00,18.616318,73.765797,OZONE,4,12,8
India,Maharashtra,Pune,"Bhumkar Nagar, Pune - IITM",02-10-2025 07:00:00,18.605770,73.749976,PM10,42,79,58
India,Maharashtra,Pune,"Dhankawadi, Pune - IITM",02-10-2025 07:00:00,18.459883,73.852193,NO2,9,10,10
India,Maharashtra,Pune,"Katraj Dairy, Pune - MPCB",02-10-2025 07:00:00,18.454450,73.854155,SO2,1,96,13
India,Maharashtra,Pune,"Katraj Dairy, Pune - MPCB",02-10-2025 07:00:00,18.454450,73.854155,CO,5,62,19
India,Maharashtra,Pune,"Panchawati_Pashan, Pune - IITM",02-10-2025 07:00:00,18.536457,73.805454,NO2,9,22,12
India,Maharashtra,Pune,"Panchawati_Pashan, Pune - IITM",02-10-2025 07:00:00,18.536457,73.805454,CO,41,77,65
India,Maharashtra,Pune,"Panchawati_Pashan, Pune - IITM",02-10-2025 07:00:00,18.536457,73.805454,OZONE,2,41,12
India,Maharashtra,Pune,"Revenue Colony-Shivajinagar, Pune - IITM",02-10-2025 07:00:00,18.530085,73.849598,NO2,10,19,14
India,Maharashtra,Pune,"Revenue Colony-Shivajinagar, Pune - IITM",02-10-2025 07:00:00,18.530085,73.849598,OZONE,NA,NA,NA
India,Maharashtra,Navi Mumbai,"Mahape, Navi Mumbai - MPCB",02-10-2025 07:00:00,19.1135051,73.008978,PM10,32,62,47
India,Maharashtra,Navi Mumbai,"Mahape, Navi Mumbai - MPCB",02-10-2025 07:00:00,19.1135051,73.008978,NH3,3,3,3
India,Maharashtra,Navi Mumbai,"Mahape, Navi Mumbai - MPCB",02-10-2025 07:00:00,19.1135051,73.008978,OZONE,7,11,10
India,Maharashtra,Navi Mumbai,"Sanpada, Navi Mumbai - MPCB",02-10-2025 07:00:00,19.0575752,73.0151367,NO2,3,19,9
India,Maharashtra,Navi Mumbai,"Sector-2E Kalamboli, Navi Mumbai - MPCB",02-10-2025 07:00:00,19.02579,73.10297,PM2.5,15,45,32
India,Odisha,Angul,"Hakimapada, Angul - OSPCB",02-10-2025 07:00:00,20.832874,85.104082,OZONE,2,15,3
India,Odisha,Balasore,"Kalidaspur, Balasore - OSPCB",02-10-2025 07:00:00,21.51161,86.89088,SO2,4,5,5
India,Odisha,Barbil,"Forest Office, Barbil - OSPCB",02-10-2025 07:00:00,22.1166054,85.3945546,PM10,28,162,69
India,Odisha,Baripada,"Meher Colony, Baripada - OSPCB",02-10-2025 07:00:00,21.941841,86.728318,CO,NA,NA,NA
India,Maharashtra,Nashik,"Hirawadi, Nashik - MPCB",02-10-2025 07:00:00,20.021503,73.813844,SO2,1,23,4
India,Maharashtra,Nashik,"Hirawadi, Nashik - MPCB",02-10-2025 07:00:00,20.021503,73.813844,CO,27,48,33
India,Maharashtra,Nashik,"MIDC Ambad, Nashik - MPCB",02-10-2025 07:00:00,19.950220,73.731480,PM10,30,85,54
India,Maharashtra,Nashik,"Pandav Nagari, Nashik - MPCB",02-10-2025 07:00:00,19.9591346,73.7788008,PM2.5,8,24,15
India,Maharashtra,Nashik,"Pandav Nagari, Nashik - MPCB",02-10-2025 07:00:00,19.9591346,73.7788008,CO,6,20,8
India,Maharashtra,Solapur,"Ratandeep Housing Society, Solapur - MPCB",02-10-2025 07:00:00,17.65439,75.90649,CO,8,76,15
India,Maharashtra,Ulhasnagar,"Sidhi Vinayak Nagar, Ulhasnagar - MPCB",02-10-2025 07:00:00,19.235581,73.159121,SO2,3,20,9
India,Maharashtra,Virar,"Bolinj, Virar - MPCB",02-10-2025 07:00:00,19.4458210,72.7988231,PM2.5,NA,NA,NA
India,Maharashtra,Virar,"Bolinj, Virar - MPCB",02-10-2025 07:00:00,19.4458210,72.7988231,PM10,27,48,38
India,Maharashtra,Pune,"Transport Nagar-Nigdi, Pune - IITM",02-10-2025 07:00:00,18.664282,73.763966,CO,22,98,94
India,Maharashtra,Pune,"Transport Nagar-Nigdi, Pune - IITM",02-10-2025 07:00:00,18.664282,73.763966,OZONE,7,25,12
India,Maharashtra,Sangli,"Vijay Nagar, Sangli - MPCB",02-10-2025 07:00:00, 16.5038,74.3623,PM2.5,16,61,33
India,Maharashtra,Solapur,"Dnyaneshwar Nagar, Solapur - MPCB",02-10-2025 07:00:00,17.6336264,75.9132495,OZONE,6,20,7
India,Rajasthan,Jaipur,"Police Commissionerate, Jaipur - RSPCB",02-10-2025 07:00:00,26.9164092,75.7994901,NO2,78,98,90
India,Rajasthan,Jaipur,"RIICO Sitapura, Jaipur - RSPCB",02-10-2025 07:00:00,26.786682,75.827928,SO2,NA,NA,NA
India,Rajasthan,Jaipur,"RIICO Sitapura, Jaipur - RSPCB",02-10-2025 07:00:00,26.786682,75.827928,CO,18,105,33
India,Rajasthan,Jaipur,"Shastri Nagar, Jaipur - RSPCB",02-10-2025 07:00:00,26.9502929,75.730943,PM10,28,99,62
India,Rajasthan,Jaipur,"Shastri Nagar, Jaipur - RSPCB",02-10-2025 07:00:00,26.9502929,75.730943,NO2,47,87,62
India,Rajasthan,Jaipur,"Shastri Nagar, Jaipur - RSPCB",02-10-2025 07:00:00,26.9502929,75.730943,SO2,4,38,21
India,Rajasthan,Jaisalmer,"Sadar Bazar, Jaisalmer - RSPCB",02-10-2025 07:00:00,26.912329,70.909168,PM2.5,10,43,21
India,Rajasthan,Jaisalmer,"Sadar Bazar, Jaisalmer - RSPCB",02-10-2025 07:00:00,26.912329,70.909168,PM10,25,401,74
India,Rajasthan,Jaisalmer,"Sadar Bazar, Jaisalmer - RSPCB",02-10-2025 07:00:00,26.912329,70.909168,NH3,3,24,10
India,Rajasthan,Jaisalmer,"Sadar Bazar, Jaisalmer - RSPCB",02-10-2025 07:00:00,26.912329,70.909168,CO,8,47,17
India,Rajasthan,Jaisalmer,"Sadar Bazar, Jaisalmer - RSPCB",02-10-2025 07:00:00,26.912329,70.909168,OZONE,6,86,34
India,Odisha,Cuttack,"CDA Area, Cuttack - OSPCB",02-10-2025 07:00:00,20.48891     ,85.84768     ,PM10,15,73,37
India,Odisha,Nayagarh,"Dabuna, Nayagarh - OSPCB",02-10-2025 07:00:00,21.847279,85.416905,PM2.5,17,31,22
India,Odisha,Rairangpur,"Divisional Forest Office, Rairangpur - OSPCB",02-10-2025 07:00:00,22.265816,86.174829,CO,14,36,21
India,Odisha,Rairangpur,"Divisional Forest Office, Rairangpur - OSPCB",02-10-2025 07:00:00,22.265816,86.174829,OZONE,17,23,19
India,Odisha,Rourkela,"Fertilizer Township, Rourkela - OSPCB",02-10-2025 07:00:00,22.18972222,84.86277778,PM10,57,66,59
India,Odisha,Rourkela,"Raghunathpali, Rourkela - OSPCB",02-10-2025 07:00:00,22.220833,84.809444,NH3,1,2,1
India,Punjab,Khanna,"Kalal Majra, Khanna - PPCB",02-10-2025 07:00:00,30.736056 ,76.209694,NO2,26,30,28
India,Punjab,Khanna,"Kalal Majra, Khanna - PPCB",02-10-2025 07:00:00,30.736056 ,76.209694,CO,54,70,66
India,Punjab,Ludhiana,"Punjab Agricultural University, Ludhiana - PPCB",02-10-2025 07:00:00,30.9028,75.8086,PM10,91,112,104
India,Punjab,Ludhiana,"Punjab Agricultural University, Ludhiana - PPCB",02-10-2025 07:00:00,30.9028,75.8086,SO2,8,18,12
India,Punjab,Ludhiana,"Punjab Agricultural University, Ludhiana - PPCB",02-10-2025 07:00:00,30.9028,75.8086,OZONE,42,68,51
India,Punjab,Mandi Gobindgarh,"RIMT University, Mandi Gobindgarh - PPCB",02-10-2025 07:00:00,30.649961,76.331442,OZONE,47,52,48
India,Rajasthan,Dausa,"Khatikan Mohalla, Dausa - RSPCB",02-10-2025 07:00:00,26.895552,76.334753,SO2,2,4,3
India,Rajasthan,Hanumangarh,"Housing Board, Hanumangarh - RSPCB",02-10-2025 07:00:00,29.610750,74.283608,NO2,10,35,17
India,Rajasthan,Hanumangarh,"Housing Board, Hanumangarh - RSPCB",02-10-2025 07:00:00,29.610750,74.283608,OZONE,24,79,43
India,Rajasthan,Jaipur,"Adarsh Nagar, Jaipur - RSPCB",02-10-2025 07:00:00,26.902909,75.836858,PM2.5,21,83,48
India,Rajasthan,Jaipur,"Adarsh Nagar, Jaipur - RSPCB",02-10-2025 07:00:00,26.902909,75.836858,PM10,26,74,45
India,Rajasthan,Jaipur,"Adarsh Nagar, Jaipur - RSPCB",02-10-2025 07:00:00,26.902909,75.836858,NH3,4,33,12
India,Odisha,Talcher,"Talcher Coalfields,Talcher - OSPCB",02-10-2025 07:00:00,20.9360711,85.1707021,NO2,39,50,45
India,Punjab,Amritsar,"Golden Temple, Amritsar - PPCB",02-10-2025 07:00:00,31.620000,74.876512,SO2,16,24,19
India,Punjab,Amritsar,"Golden Temple, Amritsar - PPCB",02-10-2025 07:00:00,31.620000,74.876512,CO,46,68,56
India,Punjab,Bathinda,"Hardev Nagar, Bathinda - PPCB",02-10-2025 07:00:00,30.233011,74.907758,SO2,1,26,11
India,Punjab,Jalandhar,"Civil Line, Jalandhar - PPCB",02-10-2025 07:00:00,31.321907,75.578914,OZONE,41,49,47
India,Odisha,Bhubaneswar,"Patia, Bhubaneswar - OSPCB",02-10-2025 07:00:00,20.34652,85.81630,NO2,12,19,15
India,Odisha,Bhubaneswar,"Patia, Bhubaneswar - OSPCB",02-10-2025 07:00:00,20.34652,85.81630,OZONE,3,24,12
India,Odisha,Brajrajnagar,"GM Office, Brajrajnagar - OSPCB",02-10-2025 07:00:00,21.8004996,83.8396977,PM2.5,NA,NA,NA
India,Odisha,Brajrajnagar,"GM Office, Brajrajnagar - OSPCB",02-10-2025 07:00:00,21.8004996,83.8396977,OZONE,NA,NA,NA
India,Odisha,Byasanagar,"Ferro Chrome Colony, Byasanagar - OSPCB",02-10-2025 07:00:00,20.94185,86.11510,PM10,4,47,19
India,Odisha,Byasanagar,"Ferro Chrome Colony, Byasanagar - OSPCB",02-10-2025 07:00:00,20.94185,86.11510,NO2,1,9,4
India,Rajasthan,Baran,"Bamboliya, Baran - RSPCB",02-10-2025 07:00:00,25.106006,76.469948,CO,16,42,21
India,Rajasthan,Barmer,"Railway Colony, Barmer - RSPCB",02-10-2025 07:00:00,25.747299,71.393989,NO2,6,20,11
India,Rajasthan,Barmer,"Railway Colony, Barmer - RSPCB",02-10-2025 07:00:00,25.747299,71.393989,SO2,2,4,3
India,Rajasthan,Bharatpur,"Krishna Nagar, Bharatpur - RSPCB",02-10-2025 07:00:00,27.215415,77.50873,OZONE,18,75,30
India,Rajasthan,Bhilwara,"Pratap Nagar, Bhilwara - RSPCB",02-10-2025 07:00:00,25.339605,74.618883,CO,10,26,15
India,Rajasthan,Bhiwadi,"Vasundhara Nagar_UIT, Bhiwadi - RSPCB",02-10-2025 07:00:00,28.207266,76.829265,OZONE,8,72,16
India,Rajasthan,Churu,"Subash Chowk, Churu - RSPCB",02-10-2025 07:00:00,28.296139,74.961696,OZONE,12,60,26
India,Rajasthan,Dausa,"Khatikan Mohalla, Dausa - RSPCB",02-10-2025 07:00:00,26.895552,76.334753,PM2.5,5,25,11
India,Rajasthan,Ajmer,"Civil Lines,  Ajmer - RSPCB",02-10-2025 07:00:00,26.470859,74.646594,SO2,3,46,15
India,Rajasthan,Alwar,"Moti Doongri, Alwar - RSPCB",02-10-2025 07:00:00,27.554793,76.611536,NO2,20,51,44
India,Rajasthan,Banswara,"Rati Talai, Banswara - RSPCB",02-10-2025 07:00:00,23.555190,74.440010,NO2,4,48,19
India,Rajasthan,Sikar,"Radhakishan Pura, Sikar - RSPCB",02-10-2025 07:00:00,27.608912,75.153302,NO2,8,50,22
India,Rajasthan,Sirohi,"Vedhaynath Colony, Sirohi - RSPCB",02-10-2025 07:00:00,24.885261,72.857549,PM10,31,53,40
India,Rajasthan,Sirohi,"Vedhaynath Colony, Sirohi - RSPCB",02-10-2025 07:00:00,24.885261,72.857549,NO2,4,12,8
India,Rajasthan,Sirohi,"Vedhaynath Colony, Sirohi - RSPCB",02-10-2025 07:00:00,24.885261,72.857549,SO2,4,5,5
India,Rajasthan,Sri Ganganagar,"Old City, Sri Ganganagar - RSPCB",02-10-2025 07:00:00,29.931624,73.864511,PM2.5,40,133,57
India,Rajasthan,Sri Ganganagar,"Old City, Sri Ganganagar - RSPCB",02-10-2025 07:00:00,29.931624,73.864511,NO2,11,31,20
India,Rajasthan,Tonk,"Shastri Nagar, Tonk - RSPCB",02-10-2025 07:00:00,26.159933,75.780517,PM2.5,38,83,60
India,Rajasthan,Tonk,"Shastri Nagar, Tonk - RSPCB",02-10-2025 07:00:00,26.159933,75.780517,SO2,1,3,1
India,Rajasthan,Udaipur,"Ashok Nagar, Udaipur - RSPCB",02-10-2025 07:00:00,24.5886166,73.6321397,OZONE,3,62,5
India,Sikkim,Gangtok,"Zero Point GICI, Gangtok - SSPCB",02-10-2025 07:00:00,27.338530,88.614099,PM10,9,29,17
India,Sikkim,Gangtok,"Zero Point GICI, Gangtok - SSPCB",02-10-2025 07:00:00,27.338530,88.614099,NH3,1,1,1
India,TamilNadu,Ariyalur,"Keelapalur, Ariyalur - TNPCB",02-10-2025 07:00:00,11.06825,79.07033,NO2,9,9,9
India,TamilNadu,Chengalpattu,"Crescent University, Chengalpattu - TNPCB",02-10-2025 07:00:00,12.8777316,80.0834807,NH3,1,1,1
India,TamilNadu,Chengalpattu,"Crescent University, Chengalpattu - TNPCB",02-10-2025 07:00:00,12.8777316,80.0834807,OZONE,9,36,16
India,Rajasthan,Pali,"Indira Colony Vistar, Pali - RSPCB",02-10-2025 07:00:00,25.771061, 73.340227,PM2.5,46,100,67
India,Rajasthan,Pali,"Indira Colony Vistar, Pali - RSPCB",02-10-2025 07:00:00,25.771061, 73.340227,PM10,47,110,82
India,Rajasthan,Pali,"Indira Colony Vistar, Pali - RSPCB",02-10-2025 07:00:00,25.771061, 73.340227,CO,16,45,23
India,Rajasthan,Pratapgarh,"Pragati Nagar, Pratapgarh - RSPCB",02-10-2025 07:00:00,24.041198,74.780702,NH3,3,5,4
India,Rajasthan,Rajsamand,"Dhoinda, Rajsamand - RSPCB",02-10-2025 07:00:00,25.036360,73.883502,PM2.5,2,40,14
India,Rajasthan,Rajsamand,"Dhoinda, Rajsamand - RSPCB",02-10-2025 07:00:00,25.036360,73.883502,PM10,16,41,28
India,Rajasthan,Rajsamand,"Dhoinda, Rajsamand - RSPCB",02-10-2025 07:00:00,25.036360,73.883502,NH3,8,10,8
India,TamilNadu,Chennai,"Manali, Chennai - CPCB",02-10-2025 07:00:00,13.164544,80.26285,OZONE,26,28,28
India,TamilNadu,Chennai,"Velachery Res. Area, Chennai - CPCB",02-10-2025 07:00:00,13.0052189,80.2398125,PM10,50,84,64
India,TamilNadu,Chennai,"Velachery Res. Area, Chennai - CPCB",02-10-2025 07:00:00,13.0052189,80.2398125,NO2,16,17,16
India,TamilNadu,Chennai,"Velachery Res. Area, Chennai - CPCB",02-10-2025 07:00:00,13.0052189,80.2398125,CO,49,72,53
India,TamilNadu,Chennai,"Velachery Res. Area, Chennai - CPCB",02-10-2025 07:00:00,13.0052189,80.2398125,OZONE,7,11,8
India,TamilNadu,Coimbatore,"PSG College of Arts and Science, Coimbatore - TNPCB",02-10-2025 07:00:00,11.0328,77.0349,OZONE,4,6,5
India,Rajasthan,Kota,"Dhanmandi, Kota - RSPCB",02-10-2025 07:00:00,25.164090,75.858137,PM10,41,124,62
India,Rajasthan,Kota,"Dhanmandi, Kota - RSPCB",02-10-2025 07:00:00,25.164090,75.858137,CO,4,42,20
India,Rajasthan,Kota,"Nayapura, Kota - RSPCB",02-10-2025 07:00:00,25.196024,75.855668,SO2,9,14,12
India,Rajasthan,Kota,"Nayapura, Kota - RSPCB",02-10-2025 07:00:00,25.196024,75.855668,OZONE,2,100,12
India,Rajasthan,Kota,"Shrinath Puram, Kota - RSPCB",02-10-2025 07:00:00,25.14389,75.821256,NH3,1,2,2
India,Rajasthan,Nagaur,"Karni Colony, Nagaur - RSPCB",02-10-2025 07:00:00,27.213494,73.734444,SO2,2,6,3
India,Rajasthan,Jodhpur,"Jhalamand, Jodhpur - RSPCB",02-10-2025 07:00:00,26.215415,73.070156,SO2,3,5,4
India,Rajasthan,Jodhpur,"Mandor, Jodhpur - RSPCB",02-10-2025 07:00:00,26.358805,73.047444,OZONE,13,78,33
India,Rajasthan,Jodhpur,"Samrat Ashok Udhyan, Jodhpur - RSPCB",02-10-2025 07:00:00,26.253384,72.976571,CO,20,28,22
India,Rajasthan,Karauli,"Satyawati Vihar, Karauli - RSPCB",02-10-2025 07:00:00,26.506177,77.025989,NH3,NA,NA,NA
India,TamilNadu,Chennai,"Kodungaiyur, Chennai - TNPCB",02-10-2025 07:00:00,13.1278,80.2642,NO2,5,19,10
India,TamilNadu,Chennai,"Manali Village, Chennai - TNPCB",02-10-2025 07:00:00,13.1662,80.2584,CO,16,102,65
India,TamilNadu,Chennai,"Manali, Chennai - CPCB",02-10-2025 07:00:00,13.164544,80.26285,PM10,38,93,63
India,TamilNadu,Chennai,"Manali, Chennai - CPCB",02-10-2025 07:00:00,13.164544,80.26285,NO2,1,6,3
India,Rajasthan,Jhunjhunu,"Indra Nagar, Jhunjhunu - RSPCB",02-10-2025 07:00:00,28.108988,75.386577,PM10,30,181,70
India,Rajasthan,Jhunjhunu,"Indra Nagar, Jhunjhunu - RSPCB",02-10-2025 07:00:00,28.108988,75.386577,NH3,2,7,5
India,Rajasthan,Jhunjhunu,"Indra Nagar, Jhunjhunu - RSPCB",02-10-2025 07:00:00,28.108988,75.386577,SO2,3,4,3
India,Rajasthan,Jodhpur,"Collectorate, Jodhpur - RSPCB",02-10-2025 07:00:00,26.268249,73.0193853,SO2,1,11,6
India,Rajasthan,Udaipur,"Ashok Nagar, Udaipur - RSPCB",02-10-2025 07:00:00,24.5886166,73.6321397,NO2,6,178,34
India,TamilNadu,Nagapattinam,"Velippalayam, Nagapattinam - TNPCB",02-10-2025 07:00:00,10.798548,79.838212,NO2,5,5,5
India,TamilNadu,Nagapattinam,"Velippalayam, Nagapattinam - TNPCB",02-10-2025 07:00:00,10.798548,79.838212,NH3,2,2,2
India,TamilNadu,Namakkal,"Ponnusamy Nagar, Namakkal - TNPCB",02-10-2025 07:00:00,11.273992,78.163545,PM2.5,26,494,60
India,TamilNadu,Namakkal,"Ponnusamy Nagar, Namakkal - TNPCB",02-10-2025 07:00:00,11.273992,78.163545,NH3,1,1,1
India,TamilNadu,Ooty,"Bombay Castel, Ooty - TNPCB",02-10-2025 07:00:00,11.4068288,76.7138973,PM10,NA,NA,NA
India,TamilNadu,Ooty,"Bombay Castel, Ooty - TNPCB",02-10-2025 07:00:00,11.4068288,76.7138973,NO2,NA,NA,NA
India,TamilNadu,Ooty,"Bombay Castel, Ooty - TNPCB",02-10-2025 07:00:00,11.4068288,76.7138973,CO,NA,NA,NA
India,TamilNadu,Ooty,"Bombay Castel, Ooty - TNPCB",02-10-2025 07:00:00,11.4068288,76.7138973,OZONE,NA,NA,NA
India,TamilNadu,Palkalaiperur,"Bharathidasan University, Palkalaiperur - TNPCB",02-10-2025 07:00:00,10.681158,78.741746,PM10,25,67,43
India,TamilNadu,Palkalaiperur,"Bharathidasan University, Palkalaiperur - TNPCB",02-10-2025 07:00:00,10.681158,78.741746,SO2,5,6,6
India,Telangana,Hyderabad,"Zoo Park, Hyderabad - TSPCB",02-10-2025 07:00:00,17.349694,78.451437,CO,8,30,11
India,Tripura,Agartala,"Bardowali, Agartala - Tripura SPCB",02-10-2025 07:00:00,23.8175497,91.2726974,NH3,2,2,2
India,Tripura,Agartala,"Bardowali, Agartala - Tripura SPCB",02-10-2025 07:00:00,23.8175497,91.2726974,SO2,26,26,26
India,Uttar_Pradesh,Agra,"Manoharpur, Agra - UPPCB",02-10-2025 07:00:00,27.23711,78.01936,NO2,17,17,17
India,Uttar_Pradesh,Agra,"Rohta, Agra - UPPCB",02-10-2025 07:00:00,27.106972,78.000111,NO2,20,20,20
India,Uttar_Pradesh,Agra,"Sanjay Palace, Agra - UPPCB",02-10-2025 07:00:00,27.19865833,78.00598056,NO2,1,12,4
India,Uttar_Pradesh,Agra,"Sanjay Palace, Agra - UPPCB",02-10-2025 07:00:00,27.19865833,78.00598056,SO2,15,17,16
India,TamilNadu,Pudukottai,"SIPCOT Nathampannai, Pudukottai - TNPCB",02-10-2025 07:00:00,10.423417,78.784889,PM10,17,56,33
India,TamilNadu,Ramanathapuram,"Chalai Bazaar, Ramanathapuram - TNPCB",02-10-2025 07:00:00,9.36399,78.831977,SO2,13,15,14
India,TamilNadu,Ranipet,"VOC Nagar_SIPCOT, Ranipet - TNPCB",02-10-2025 07:00:00,12.952707,79.30394,NO2,1,2,1
India,TamilNadu,Ranipet,"VOC Nagar_SIPCOT, Ranipet - TNPCB",02-10-2025 07:00:00,12.952707,79.30394,CO,18,20,19
India,TamilNadu,Ranipet,"VOC Nagar_SIPCOT, Ranipet - TNPCB",02-10-2025 07:00:00,12.952707,79.30394,OZONE,NA,NA,NA
India,TamilNadu,Salem,"Sona College of Technology, Salem - TNPCB",02-10-2025 07:00:00,11.679111,78.125052,SO2,30,31,31
India,TamilNadu,Salem,"Sona College of Technology, Salem - TNPCB",02-10-2025 07:00:00,11.679111,78.125052,CO,18,19,18
India,TamilNadu,Thanjavur,"Parisutham Nagar, Thanjavur - TNPCB",02-10-2025 07:00:00,10.7654824,79.1389968,CO,8,10,8
India,TamilNadu,Thoothukudi,"Meelavittan, Thoothukudi - TNPCB",02-10-2025 07:00:00,8.816428 ,78.099039,PM10,34,500,92
India,TamilNadu,Thoothukudi,"Meelavittan, Thoothukudi - TNPCB",02-10-2025 07:00:00,8.816428 ,78.099039,SO2,1,9,6
India,TamilNadu,Tiruchirappalli,"St Joseph College, Tiruchirappalli - TNPCB",02-10-2025 07:00:00,10.830158,78.691849,CO,5,10,8
India,TamilNadu,Tirunelveli,"Municipal Corporation Office, Tirunelveli - TNPCB",02-10-2025 07:00:00,8.728442,77.6962,PM2.5,17,36,25
India,TamilNadu,Tirunelveli,"Municipal Corporation Office, Tirunelveli - TNPCB",02-10-2025 07:00:00,8.728442,77.6962,OZONE,6,7,6
India,Telangana,Hyderabad,"ICRISAT Patancheru, Hyderabad - TSPCB",02-10-2025 07:00:00,17.518400,78.278777,PM2.5,33,157,71
India,Telangana,Hyderabad,"ICRISAT Patancheru, Hyderabad - TSPCB",02-10-2025 07:00:00,17.518400,78.278777,NO2,3,9,5
India,Telangana,Hyderabad,"ICRISAT Patancheru, Hyderabad - TSPCB",02-10-2025 07:00:00,17.518400,78.278777,NH3,1,2,1
India,Telangana,Hyderabad,"ICRISAT Patancheru, Hyderabad - TSPCB",02-10-2025 07:00:00,17.518400,78.278777,OZONE,2,31,11
India,Telangana,Hyderabad,"IDA Pashamylaram, Hyderabad - TSPCB",02-10-2025 07:00:00,17.5316895,78.218939,PM10,NA,NA,NA
India,Telangana,Hyderabad,"IDA Pashamylaram, Hyderabad - TSPCB",02-10-2025 07:00:00,17.5316895,78.218939,NO2,NA,NA,NA
India,Telangana,Hyderabad,"IDA Pashamylaram, Hyderabad - TSPCB",02-10-2025 07:00:00,17.5316895,78.218939,SO2,NA,NA,NA
India,Telangana,Hyderabad,"Kompally Municipal Office, Hyderabad - TSPCB",02-10-2025 07:00:00,17.544899,78.486949,PM10,74,78,76
India,TamilNadu,Coimbatore,"SIDCO Kurichi, Coimbatore - TNPCB",02-10-2025 07:00:00,10.942451,76.978996,SO2,19,21,21
India,TamilNadu,Cuddalore,"Semmandalam, Cuddalore - TNPCB",02-10-2025 07:00:00,11.7637683,79.7499835,PM10,20,295,53
India,TamilNadu,Dindigul,"Mendonsa Colony, Dindigul - TNPCB",02-10-2025 07:00:00,10.358535,77.984321,CO,8,16,11
India,TamilNadu,Dindigul,"Mendonsa Colony, Dindigul - TNPCB",02-10-2025 07:00:00,10.358535,77.984321,OZONE,9,43,29
India,TamilNadu,Gummidipoondi,"Anthoni Pillai Nagar, Gummidipoondi - TNPCB",02-10-2025 07:00:00,13.4127,80.1081,NO2,1,21,8
India,TamilNadu,Hosur,"SIPCOT Phase-1, Hosur - TNPCB",02-10-2025 07:00:00,12.746998,77.813811,PM10,15,54,37
India,TamilNadu,Kanchipuram,"Kilambi, Kanchipuram - TNPCB",02-10-2025 07:00:00,12.864618,79.659968,PM2.5,NA,NA,NA
India,TamilNadu,Kanchipuram,"Kilambi, Kanchipuram - TNPCB",02-10-2025 07:00:00,12.864618,79.659968,NO2,NA,NA,NA
India,TamilNadu,Kanchipuram,"Kilambi, Kanchipuram - TNPCB",02-10-2025 07:00:00,12.864618,79.659968,CO,19,21,20
India,TamilNadu,Karur,"Kamadenu Nagar, Karur - TNPCB",02-10-2025 07:00:00,10.967820,78.080882,NO2,5,6,6
India,TamilNadu,Madurai,"Uchapatti, Madurai - TNPCB",02-10-2025 07:00:00,9.865935,78.022669,SO2,13,14,13
India,TamilNadu,Virudhunagar,"Collectorate Office, Virudhunagar - TNPCB",02-10-2025 07:00:00,9.559382,77.948828,SO2,20,21,21
India,Telangana,Hyderabad,"Bollaram Industrial Area, Hyderabad - TSPCB",02-10-2025 07:00:00,17.540891,78.358528,NH3,3,5,4
India,Telangana,Hyderabad,"Central University, Hyderabad - TSPCB",02-10-2025 07:00:00,17.460103,78.334361,NH3,3,12,6
India,Telangana,Hyderabad,"ECIL Kapra, Hyderabad - TSPCB",02-10-2025 07:00:00,17.470431,78.566959,NO2,10,30,18
India,Telangana,Hyderabad,"Nacharam_TSIIC IALA, Hyderabad - TSPCB",02-10-2025 07:00:00,17.429398,78.569354,CO,24,46,38
India,Telangana,Hyderabad,"Ramachandrapuram, Hyderabad - TSPCB",02-10-2025 07:00:00,17.528544,78.286195,NO2,NA,NA,NA
India,Telangana,Hyderabad,"Sanathnagar, Hyderabad - TSPCB",02-10-2025 07:00:00,17.4559458,78.4332152,NO2,24,30,28
India,Telangana,Hyderabad,"Sanathnagar, Hyderabad - TSPCB",02-10-2025 07:00:00,17.4559458,78.4332152,OZONE,12,16,15
India,Uttar_Pradesh,Agra,"Sector-3B Avas Vikas Colony, Agra - UPPCB",02-10-2025 07:00:00,27.19412,77.96237,OZONE,7,8,8
India,Uttar_Pradesh,Agra,"Shahjahan Garden, Agra - UPPCB",02-10-2025 07:00:00,27.169338,78.03582,PM2.5,23,79,48
India,Uttar_Pradesh,Agra,"Shahjahan Garden, Agra - UPPCB",02-10-2025 07:00:00,27.169338,78.03582,NO2,33,34,33
India,Uttar_Pradesh,Agra,"Shastripuram, Agra - UPPCB",02-10-2025 07:00:00,27.19862,77.92066,NO2,33,33,33
India,Uttar_Pradesh,Agra,"Shastripuram, Agra - UPPCB",02-10-2025 07:00:00,27.19862,77.92066,NH3,3,3,3
India,Uttar_Pradesh,Agra,"Shastripuram, Agra - UPPCB",02-10-2025 07:00:00,27.19862,77.92066,SO2,16,24,20
India,Uttar_Pradesh,Agra,"Shastripuram, Agra - UPPCB",02-10-2025 07:00:00,27.19862,77.92066,OZONE,3,4,3
India,Uttar_Pradesh,Bareilly,"Civil Lines, Bareilly - UPPCB",02-10-2025 07:00:00,28.359581,79.414455,SO2,28,49,37
India,Uttar_Pradesh,Bareilly,"Civil Lines, Bareilly - UPPCB",02-10-2025 07:00:00,28.359581,79.414455,CO,3,10,6
India,Uttar_Pradesh,Moradabad,"Buddhi Vihar, Moradabad - UPPCB",02-10-2025 07:00:00,28.83526,78.74460,NO2,28,29,29
India,Uttar_Pradesh,Moradabad,"Buddhi Vihar, Moradabad - UPPCB",02-10-2025 07:00:00,28.83526,78.74460,NH3,5,5,5
India,Uttar_Pradesh,Moradabad,"Eco Herbal Park, Moradabad - UPPCB",02-10-2025 07:00:00,28.840739,78.697531,OZONE,13,91,22
India,Uttar_Pradesh,Moradabad,"Employment Office, Moradabad - UPPCB",02-10-2025 07:00:00,28.88528,78.73880,NO2,16,16,16
India,Uttar_Pradesh,Moradabad,"Jigar Colony, Moradabad - UPPCB",02-10-2025 07:00:00,28.856664,78.772638,PM10,54,107,78
India,Uttar_Pradesh,Moradabad,"Jigar Colony, Moradabad - UPPCB",02-10-2025 07:00:00,28.856664,78.772638,OZONE,19,21,19
India,Uttar_Pradesh,Moradabad,"Kashiram Nagar, Moradabad - UPPCB",02-10-2025 07:00:00,28.849399,78.742362,PM10,53,143,93
India,Uttar_Pradesh,Kanpur,"Nehru Nagar, Kanpur - UPPCB",02-10-2025 07:00:00,26.4703136,80.3229863,CO,46,75,70
India,Uttar_Pradesh,Lucknow,"B R Ambedkar University, Lucknow - UPPCB",02-10-2025 07:00:00,26.766433,80.927299,PM2.5,34,334,68
India,Uttar_Pradesh,Lucknow,"B R Ambedkar University, Lucknow - UPPCB",02-10-2025 07:00:00,26.766433,80.927299,NH3,4,4,4
India,Uttar_Pradesh,Lucknow,"B R Ambedkar University, Lucknow - UPPCB",02-10-2025 07:00:00,26.766433,80.927299,OZONE,28,31,30
India,Uttar_Pradesh,Lucknow,"Gomti Nagar, Lucknow - UPPCB",02-10-2025 07:00:00,26.868120,81.005119,SO2,9,11,10
India,Uttar_Pradesh,Lucknow,"Kendriya Vidyalaya, Lucknow - CPCB",02-10-2025 07:00:00,26.906111,80.948222,PM2.5,17,202,53
India,Uttar_Pradesh,Lucknow,"Kendriya Vidyalaya, Lucknow - CPCB",02-10-2025 07:00:00,26.906111,80.948222,OZONE,10,78,14
India,Uttar_Pradesh,Bareilly,"Rajendra Nagar, Bareilly - UPPCB",02-10-2025 07:00:00,28.38910936,79.42963708,OZONE,NA,NA,NA
India,Uttar_Pradesh,Bulandshahr,"Yamunapuram, Bulandshahr - UPPCB",02-10-2025 07:00:00,28.406963,77.849831,PM2.5,44,123,66
India,Uttar_Pradesh,Bulandshahr,"Yamunapuram, Bulandshahr - UPPCB",02-10-2025 07:00:00,28.406963,77.849831,NO2,18,79,36
India,Uttar_Pradesh,Firozabad,"Nagla Bhau, Firozabad - UPPCB",02-10-2025 07:00:00,27.168897,78.376960,PM2.5,11,30,18
India,Uttar_Pradesh,Firozabad,"Nagla Bhau, Firozabad - UPPCB",02-10-2025 07:00:00,27.168897,78.376960,NH3,2,2,2
India,Uttar_Pradesh,Firozabad,"Vibhab Nagar, Firozabad - UPPCB",02-10-2025 07:00:00,27.1594,78.3953,SO2,8,20,13
India,Uttar_Pradesh,Noida,"Sector-1, Noida - UPPCB",02-10-2025 07:00:00,28.5898,77.3101,OZONE,2,252,9
India,Uttar_Pradesh,Noida,"Sector-116, Noida - UPPCB",02-10-2025 07:00:00,28.569230,77.393848,NH3,8,11,10
India,Uttar_Pradesh,Prayagraj,"Jhunsi, Prayagraj - UPPCB",02-10-2025 07:00:00,25.425602,81.917152,NO2,6,6,6
India,Uttar_Pradesh,Prayagraj,"Jhunsi, Prayagraj - UPPCB",02-10-2025 07:00:00,25.425602,81.917152,NH3,5,5,5
India,Uttar_Pradesh,Prayagraj,"Motilal Nehru NIT, Prayagraj - UPPCB",02-10-2025 07:00:00,25.494,81.863,CO,3,14,9
India,Uttar_Pradesh,Prayagraj,"Nagar Nigam, Prayagraj - UPPCB",02-10-2025 07:00:00,25.44919916 ,81.82735986 ,PM2.5,15,66,33
India,Uttar_Pradesh,Ghaziabad,"Sanjay Nagar, Ghaziabad - UPPCB",02-10-2025 07:00:00,28.685382,77.453839,NO2,30,117,58
India,Uttar_Pradesh,Ghaziabad,"Sanjay Nagar, Ghaziabad - UPPCB",02-10-2025 07:00:00,28.685382,77.453839,CO,2,116,29
India,Uttar_Pradesh,Greater Noida,"Knowledge Park - III, Greater Noida - UPPCB",02-10-2025 07:00:00,28.47272,77.482000,PM2.5,58,144,89
India,Uttar_Pradesh,Greater Noida,"Knowledge Park - V, Greater Noida - UPPCB",02-10-2025 07:00:00,28.557054,77.453663,NH3,6,8,7
India,Uttar_Pradesh,Moradabad,"Kashiram Nagar, Moradabad - UPPCB",02-10-2025 07:00:00,28.849399,78.742362,SO2,28,51,41
India,Uttar_Pradesh,Moradabad,"Transport Nagar, Moradabad - UPPCB",02-10-2025 07:00:00,28.802625,78.753728,PM2.5,30,160,72
India,Uttar_Pradesh,Moradabad,"Transport Nagar, Moradabad - UPPCB",02-10-2025 07:00:00,28.802625,78.753728,OZONE,28,47,31
India,Uttar_Pradesh,Noida,"Sector - 62, Noida - IMD",02-10-2025 07:00:00,28.6245479,77.3577104,OZONE,19,191,30
India,Uttar_Pradesh,Hapur,"Anand Vihar, Hapur - UPPCB",02-10-2025 07:00:00,28.725645,77.749675,NH3,11,15,13
India,Uttar_Pradesh,Kanpur,"FTI Kidwai Nagar, Kanpur - UPPCB",02-10-2025 07:00:00,26.428282,80.327067,PM10,14,51,30
India,Uttar_Pradesh,Lucknow,"Kukrail Picnic Spot-1, Lucknow - UPPCB",02-10-2025 07:00:00,26.90723,80.98579,PM10,24,48,38
India,Uttar_Pradesh,Lucknow,"Kukrail Picnic Spot-1, Lucknow - UPPCB",02-10-2025 07:00:00,26.90723,80.98579,NO2,22,31,23
India,Uttar_Pradesh,Varanasi,"Ardhali Bazar, Varanasi - UPPCB",02-10-2025 07:00:00,25.3505986,82.9083074,PM10,12,53,30
India,Uttar_Pradesh,Varanasi,"Bhelupur, Varanasi - UPPCB",02-10-2025 07:00:00,25.301778,82.996789,PM10,15,76,41
India,Uttar_Pradesh,Varanasi,"Bhelupur, Varanasi - UPPCB",02-10-2025 07:00:00,25.301778,82.996789,NO2,8,8,8
India,Uttar_Pradesh,Varanasi,"IESD Banaras Hindu University, Varanasi - UPPCB",02-10-2025 07:00:00,25.262326,82.995408,PM10,5,55,29
India,Uttar_Pradesh,Varanasi,"IESD Banaras Hindu University, Varanasi - UPPCB",02-10-2025 07:00:00,25.262326,82.995408,SO2,26,27,27
India,Uttar_Pradesh,Varanasi,"IESD Banaras Hindu University, Varanasi - UPPCB",02-10-2025 07:00:00,25.262326,82.995408,CO,4,6,5
India,Uttar_Pradesh,Varanasi,"Maldahiya, Varanasi - UPPCB",02-10-2025 07:00:00,25.32393,82.99687,PM2.5,6,25,13
India,Uttar_Pradesh,Varanasi,"Maldahiya, Varanasi - UPPCB",02-10-2025 07:00:00,25.32393,82.99687,CO,8,61,44
India,Uttarakhand,Kashipur,"Govt. Girls Inter College, Kashipur - UKPCB",02-10-2025 07:00:00,29.2124114,78.9611753,PM2.5,22,85,45
India,Uttarakhand,Kashipur,"Govt. Girls Inter College, Kashipur - UKPCB",02-10-2025 07:00:00,29.2124114,78.9611753,CO,15,22,18
India,Uttarakhand,Rishikesh,"Shivaji Nagar, Rishikesh - UKPCB",02-10-2025 07:00:00,30.075911,78.2859547,PM10,31,178,72
India,West_Bengal,Asansol,"Asansol Court Area, Asansol - WBPCB",02-10-2025 07:00:00,23.685297,86.945968,PM2.5,21,143,73
India,West_Bengal,Asansol,"Asansol Court Area, Asansol - WBPCB",02-10-2025 07:00:00,23.685297,86.945968,NO2,19,104,39
India,West_Bengal,Asansol,"Mahabir Colliery, Asansol - WBPCB",02-10-2025 07:00:00,23.6181830,87.1057180,OZONE,16,68,18
India,West_Bengal,Asansol,"Trivenidevi Bhalotia College, Asansol - WBPCB",02-10-2025 07:00:00,23.616515,87.119133,PM10,24,112,80
India,West_Bengal,Asansol,"Trivenidevi Bhalotia College, Asansol - WBPCB",02-10-2025 07:00:00,23.616515,87.119133,NH3,1,1,1
India,West_Bengal,Asansol,"Trivenidevi Bhalotia College, Asansol - WBPCB",02-10-2025 07:00:00,23.616515,87.119133,SO2,15,19,17
India,West_Bengal,Asansol,"Trivenidevi Bhalotia College, Asansol - WBPCB",02-10-2025 07:00:00,23.616515,87.119133,CO,54,105,59
India,West_Bengal,Barrackpore,"SVSPA Campus, Barrackpore - WBPCB",02-10-2025 07:00:00,22.7605581,88.3617589,PM10,10,57,30
India,West_Bengal,Barrackpore,"SVSPA Campus, Barrackpore - WBPCB",02-10-2025 07:00:00,22.7605581,88.3617589,NO2,9,28,16
India,West_Bengal,Barrackpore,"SVSPA Campus, Barrackpore - WBPCB",02-10-2025 07:00:00,22.7605581,88.3617589,NH3,4,5,4
India,West_Bengal,Haldia,"Priyambada Housing Estate, Haldia - WBPCB",02-10-2025 07:00:00,22.06047,88.109737,NO2,5,13,8
India,West_Bengal,Howrah,"Belur Math, Howrah - WBPCB",02-10-2025 07:00:00,22.629801,88.352017,CO,14,40,18
India,West_Bengal,Howrah,"Belur Math, Howrah - WBPCB",02-10-2025 07:00:00,22.629801,88.352017,OZONE,33,45,36
India,West_Bengal,Howrah,"Botanical Garden, Howrah - WBPCB",02-10-2025 07:00:00,22.554954,88.292568,PM2.5,20,51,35
India,West_Bengal,Howrah,"Botanical Garden, Howrah - WBPCB",02-10-2025 07:00:00,22.554954,88.292568,NO2,11,31,19
India,West_Bengal,Howrah,"Botanical Garden, Howrah - WBPCB",02-10-2025 07:00:00,22.554954,88.292568,NH3,2,2,2
India,West_Bengal,Howrah,"Botanical Garden, Howrah - WBPCB",02-10-2025 07:00:00,22.554954,88.292568,SO2,14,15,14
India,West_Bengal,Howrah,"Botanical Garden, Howrah - WBPCB",02-10-2025 07:00:00,22.554954,88.292568,OZONE,20,41,24
India,West_Bengal,Howrah,"Ghusuri, Howrah - WBPCB",02-10-2025 07:00:00,22.611968,88.347422,PM2.5,6,38,19
India,West_Bengal,Howrah,"Ghusuri, Howrah - WBPCB",02-10-2025 07:00:00,22.611968,88.347422,NH3,9,10,10
India,West_Bengal,Kolkata,"Bidhannagar, Kolkata - WBPCB",02-10-2025 07:00:00,22.58157048,88.41002457,PM2.5,3,23,14
India,West_Bengal,Kolkata,"Bidhannagar, Kolkata - WBPCB",02-10-2025 07:00:00,22.58157048,88.41002457,PM10,25,44,36
India,West_Bengal,Kolkata,"Bidhannagar, Kolkata - WBPCB",02-10-2025 07:00:00,22.58157048,88.41002457,OZONE,20,29,21
India,West_Bengal,Kolkata,"Fort William, Kolkata - WBPCB",02-10-2025 07:00:00,22.556640,88.342674,NH3,5,6,5
India,West_Bengal,Kolkata,"Fort William, Kolkata - WBPCB",02-10-2025 07:00:00,22.556640,88.342674,SO2,8,10,9
India,West_Bengal,Kolkata,"Fort William, Kolkata - WBPCB",02-10-2025 07:00:00,22.556640,88.342674,CO,20,43,23
India,West_Bengal,Kolkata,"Rabindra Bharati University, Kolkata - WBPCB",02-10-2025 07:00:00,22.627847,88.380669,PM2.5,3,35,18
India,West_Bengal,Kolkata,"Victoria, Kolkata - WBPCB",02-10-2025 07:00:00,22.5448082,88.3403691,PM2.5,32,500,72
India,West_Bengal,Kolkata,"Victoria, Kolkata - WBPCB",02-10-2025 07:00:00,22.5448082,88.3403691,NH3,4,5,4
India,West_Bengal,Kolkata,"Victoria, Kolkata - WBPCB",02-10-2025 07:00:00,22.5448082,88.3403691,OZONE,10,46,12
India,West_Bengal,Siliguri,"Ward-32 Bapupara, Siliguri - WBPCB",02-10-2025 07:00:00,26.6879226,88.4152495,PM2.5,26,37,30
India,West_Bengal,Siliguri,"Ward-32 Bapupara, Siliguri - WBPCB",02-10-2025 07:00:00,26.6879226,88.4152495,NO2,17,22,20
India,West_Bengal,Siliguri,"Ward-32 Bapupara, Siliguri - WBPCB",02-10-2025 07:00:00,26.6879226,88.4152495,SO2,10,12,11
India,Andaman and Nicobar,Sri Vijaya Puram,"Police Line, Sri Vijaya Puram - ANPCC",02-10-2025 07:00:00,11.654054,92.734055,NO2,NA,NA,NA
India,Andaman and Nicobar,Sri Vijaya Puram,"Police Line, Sri Vijaya Puram - ANPCC",02-10-2025 07:00:00,11.654054,92.734055,SO2,NA,NA,NA
India,Andaman and Nicobar,Sri Vijaya Puram,"Police Line, Sri Vijaya Puram - ANPCC",02-10-2025 07:00:00,11.654054,92.734055,CO,NA,NA,NA
India,Andhra_Pradesh,Chittoor,"Gangineni Cheruvu, Chittoor - APPCB",02-10-2025 07:00:00,13.204880,79.097889,PM2.5,61,102,81
India,Andhra_Pradesh,Vijayawada,"HB Colony, Vijayawada - APPCB",02-10-2025 07:00:00,16.536107,80.594233,OZONE,28,28,28
India,Andhra_Pradesh,Vijayawada,"Rajiv Nagar, Vijayawada - APPCB",02-10-2025 07:00:00,16.554731,80.649110,PM10,35,56,41
India,Andhra_Pradesh,Visakhapatnam,"GVM Corporation, Visakhapatnam - APPCB",02-10-2025 07:00:00,17.72,83.3,PM2.5,41,82,60
India,Andhra_Pradesh,Rajamahendravaram,"Anand Kala Kshetram, Rajamahendravaram - APPCB",02-10-2025 07:00:00,16.9872867,81.7363176,NH3,2,3,2
India,Andhra_Pradesh,Tirumala,"Toll Gate, Tirumala - APPCB",02-10-2025 07:00:00,13.67,79.35,PM2.5,12,38,22
India,Andhra_Pradesh,Tirumala,"Toll Gate, Tirumala - APPCB",02-10-2025 07:00:00,13.67,79.35,NO2,9,40,17
India,Bihar,Araria,"Kharahiya Basti, Araria - BSPCB",02-10-2025 07:00:00,26.146529,87.454184,NO2,3,60,28
India,Bihar,Araria,"Kharahiya Basti, Araria - BSPCB",02-10-2025 07:00:00,26.146529,87.454184,CO,4,36,26
India,Bihar,Arrah,"New DM Office, Arrah - BSPCB",02-10-2025 07:00:00,25.5626095,84.663264,PM2.5,28,30,29
India,Bihar,Arrah,"New DM Office, Arrah - BSPCB",02-10-2025 07:00:00,25.5626095,84.663264,SO2,8,10,10
India,Assam,Nalbari,"Bata Chowk, Nalbari - PCBA",02-10-2025 07:00:00,26.446912,91.439057,SO2,13,21,19
India,Assam,Silchar,"Tarapur, Silchar - PCBA",02-10-2025 07:00:00,24.82827,92.79525,SO2,5,5,5
India,Assam,Sivasagar,"Girls College, Sivasagar - PCBA",02-10-2025 07:00:00,26.987634,94.636574,NO2,11,19,15
India,Bihar,Begusarai,"Lohiyanagar, Begusarai - BSPCB",02-10-2025 07:00:00,25.42742023,86.13886079,OZONE,17,49,26
India,Bihar,Bettiah,"Kamalnath Nagar, Bettiah - BSPCB",02-10-2025 07:00:00,26.80365,84.51954,PM10,41,103,62
India,Bihar,Bettiah,"Kamalnath Nagar, Bettiah - BSPCB",02-10-2025 07:00:00,26.80365,84.51954,SO2,2,14,8
India,Assam,Byrnihat,"Central Academy for SFS, Byrnihat - PCBA",02-10-2025 07:00:00,26.071318,91.87488,NO2,NA,NA,NA
India,Assam,Byrnihat,"Central Academy for SFS, Byrnihat - PCBA",02-10-2025 07:00:00,26.071318,91.87488,OZONE,NA,NA,NA
India,Assam,Guwahati,"IITG, Guwahati - PCBA",02-10-2025 07:00:00,26.2028636,91.70046436,SO2,21,25,22
India,Assam,Guwahati,"LGBI Airport, Guwahati - PCBA",02-10-2025 07:00:00,26.10887,91.589544,CO,26,59,36
India,Assam,Guwahati,"LGBI Airport, Guwahati - PCBA",02-10-2025 07:00:00,26.10887,91.589544,OZONE,4,17,16
India,Assam,Guwahati,"Pan Bazaar, Guwahati - PCBA",02-10-2025 07:00:00,26.187500,91.744194,PM2.5,5,39,15
India,Assam,Guwahati,"Railway Colony, Guwahati - PCBA",02-10-2025 07:00:00,26.181742,91.78063,PM10,4,51,20
India,Assam,Nagaon,"Christianpatty, Nagaon - PCBA",02-10-2025 07:00:00,26.349082,92.68449,PM2.5,48,79,56
India,Assam,Nagaon,"Christianpatty, Nagaon - PCBA",02-10-2025 07:00:00,26.349082,92.68449,NO2,1,2,1
India,Assam,Nagaon,"Christianpatty, Nagaon - PCBA",02-10-2025 07:00:00,26.349082,92.68449,CO,30,62,38
India,Bihar,Muzaffarpur,"Buddha Colony, Muzaffarpur - BSPCB",02-10-2025 07:00:00,26.11442,85.39813,NO2,7,21,16
India,Bihar,Muzaffarpur,"Muzaffarpur Collectorate, Muzaffarpur - BSPCB",02-10-2025 07:00:00,26.1209,85.3647,PM2.5,30,58,43
India,Bihar,Patna,"DRM Office Danapur, Patna - BSPCB",02-10-2025 07:00:00,25.586562,85.043586,PM2.5,6,66,25
India,Bihar,Patna,"DRM Office Danapur, Patna - BSPCB",02-10-2025 07:00:00,25.586562,85.043586,NO2,22,85,48
India,Bihar,Patna,"DRM Office Danapur, Patna - BSPCB",02-10-2025 07:00:00,25.586562,85.043586,NH3,4,6,5
India,Bihar,Gaya,"Kareemganj, Gaya - BSPCB",02-10-2025 07:00:00,24.792403,84.992416,NO2,2,6,4
India,Bihar,Gaya,"Kareemganj, Gaya - BSPCB",02-10-2025 07:00:00,24.792403,84.992416,OZONE,1,53,8
India,Bihar,Hajipur,"Industrial Area, Hajipur - BSPCB",02-10-2025 07:00:00,25.697189,85.245900,PM10,16,66,35
India,Bihar,Kishanganj,"SDM Office_Khagra, Kishanganj - BSPCB",02-10-2025 07:00:00,26.0881305,87.93840336,PM2.5,60,113,78
India,Bihar,Patna,"Muradpur, Patna - BSPCB",02-10-2025 07:00:00,25.619651,85.147382,NH3,5,8,5
India,Bihar,Purnia,"Mariam Nagar, Purnia - BSPCB",02-10-2025 07:00:00,25.366336,87.117468,PM2.5,3,80,21
India,Bihar,Purnia,"Mariam Nagar, Purnia - BSPCB",02-10-2025 07:00:00,25.366336,87.117468,SO2,NA,NA,NA
India,Bihar,Rajgir,"Dangi Tola, Rajgir - BSPCB",02-10-2025 07:00:00,25.03280,85.41948,PM2.5,NA,NA,NA
India,Bihar,Manguraha,"Forest Rest House, Manguraha - BSPCB",02-10-2025 07:00:00,27.308328,84.531742,CO,32,34,32
India,Bihar,Manguraha,"Forest Rest House, Manguraha - BSPCB",02-10-2025 07:00:00,27.308328,84.531742,OZONE,9,18,10
India,Bihar,Motihari,"Gandak Colony, Motihari - BSPCB",02-10-2025 07:00:00,26.63086,84.90051,PM10,5,105,26
India,Bihar,Motihari,"Gandak Colony, Motihari - BSPCB",02-10-2025 07:00:00,26.63086,84.90051,OZONE,2,2,2
India,Bihar,Sasaram,"Dada Peer, Sasaram - BSPCB",02-10-2025 07:00:00,24.952822,84.002396,PM2.5,NA,NA,NA
India,Bihar,Sasaram,"Dada Peer, Sasaram - BSPCB",02-10-2025 07:00:00,24.952822,84.002396,SO2,2,5,4
India,Bihar,Siwan,"Chitragupta Nagar, Siwan - BSPCB",02-10-2025 07:00:00,26.2271665,84.3570427,PM2.5,NA,NA,NA
India,Bihar,Siwan,"Chitragupta Nagar, Siwan - BSPCB",02-10-2025 07:00:00,26.2271665,84.3570427,SO2,NA,NA,NA
India,Bihar,Siwan,"Chitragupta Nagar, Siwan - BSPCB",02-10-2025 07:00:00,26.2271665,84.3570427,OZONE,NA,NA,NA
India,Bihar,Bhagalpur,"Mayaganj, Bhagalpur - BSPCB",02-10-2025 07:00:00,25.265194,87.012947,CO,46,82,52
India,Bihar,Bhagalpur,"Mayaganj, Bhagalpur - BSPCB",02-10-2025 07:00:00,25.265194,87.012947,OZONE,28,50,32
India,Bihar,Bihar Sharif,"D M Colony, Bihar Sharif - BSPCB",02-10-2025 07:00:00,25.204762,85.514960,SO2,10,10,10
India,Bihar,Bihar Sharif,"D M Colony, Bihar Sharif - BSPCB",02-10-2025 07:00:00,25.204762,85.514960,CO,2,18,8
India,Bihar,Patna,"DRM Office Danapur, Patna - BSPCB",02-10-2025 07:00:00,25.586562,85.043586,SO2,8,15,10
India,Bihar,Patna,"DRM Office Danapur, Patna - BSPCB",02-10-2025 07:00:00,25.586562,85.043586,CO,23,42,32
India,Bihar,Patna,"Govt. High School Shikarpur, Patna - BSPCB",02-10-2025 07:00:00,25.592539,85.227158,PM2.5,19,65,32
India,Bihar,Patna,"IGSC Planetarium Complex, Patna - BSPCB",02-10-2025 07:00:00,25.610369,85.132568,CO,34,62,61
India,Bihar,Patna,"Muradpur, Patna - BSPCB",02-10-2025 07:00:00,25.619651,85.147382,PM2.5,47,56,52
India,Bihar,Patna,"Muradpur, Patna - BSPCB",02-10-2025 07:00:00,25.619651,85.147382,NO2,61,95,74
India,Bihar,Bhagalpur,"DM Office_Kachari Chowk, Bhagalpur - BSPCB",02-10-2025 07:00:00,25.251013,86.989001,NO2,15,19,17
India,Bihar,Bhagalpur,"Mayaganj, Bhagalpur - BSPCB",02-10-2025 07:00:00,25.265194,87.012947,PM10,1,72,38
India,Chandigarh,Chandigarh,"Sector 22, Chandigarh - CPCC",02-10-2025 07:00:00,30.735567,76.775714,PM10,32,105,67
India,Chandigarh,Chandigarh,"Sector 22, Chandigarh - CPCC",02-10-2025 07:00:00,30.735567,76.775714,NO2,18,97,36
India,Chandigarh,Chandigarh,"Sector-25, Chandigarh - CPCC",02-10-2025 07:00:00,30.751462,76.762879,PM10,45,108,81
India,Chandigarh,Chandigarh,"Sector-25, Chandigarh - CPCC",02-10-2025 07:00:00,30.751462,76.762879,CO,17,44,32
India,Chandigarh,Chandigarh,"Sector-25, Chandigarh - CPCC",02-10-2025 07:00:00,30.751462,76.762879,OZONE,5,47,9
India,Chandigarh,Chandigarh,"Sector-53, Chandigarh - CPCC",02-10-2025 07:00:00,30.719859,76.738637,SO2,10,20,14
India,Delhi,Delhi,"Burari Crossing, Delhi - IMD",02-10-2025 07:00:00,28.7256504,77.2011573,PM10,59,144,88
India,Delhi,Delhi,"CRRI Mathura Road, Delhi - IMD",02-10-2025 07:00:00,28.5512005,77.2735737,CO,35,100,59
India,Delhi,Delhi,"Chandni Chowk, Delhi - IITM",02-10-2025 07:00:00,28.656756,77.227234,PM10,58,125,86
India,Delhi,Delhi,"Chandni Chowk, Delhi - IITM",02-10-2025 07:00:00,28.656756,77.227234,NO2,12,87,34
India,Delhi,Delhi,"Chandni Chowk, Delhi - IITM",02-10-2025 07:00:00,28.656756,77.227234,NH3,9,13,10
India,Delhi,Delhi,"Dr. Karni Singh Shooting Range, Delhi - DPCC",02-10-2025 07:00:00,28.498571,77.264840,CO,20,97,32
India,Delhi,Delhi,"Dr. Karni Singh Shooting Range, Delhi - DPCC",02-10-2025 07:00:00,28.498571,77.264840,OZONE,5,128,16
India,Delhi,Delhi,"Dwarka-Sector 8, Delhi - DPCC ",02-10-2025 07:00:00,28.5710274,77.0719006,NO2,23,138,68
India,Delhi,Delhi,"IGI Airport (T3), Delhi - IMD",02-10-2025 07:00:00,28.5627763,77.1180053,PM2.5,35,104,65
India,Chhattisgarh,Korba,"Rampur, Korba - CECB",02-10-2025 07:00:00,22.368195,82.746431,NO2,5,11,8
India,Chhattisgarh,Korba,"Rampur, Korba - CECB",02-10-2025 07:00:00,22.368195,82.746431,NH3,1,1,1
India,Chhattisgarh,Korba,"Rampur, Korba - CECB",02-10-2025 07:00:00,22.368195,82.746431,CO,1,21,12
India,Chhattisgarh,Korba,"Urja Nagar, Korba - CECB",02-10-2025 07:00:00,22.348441,82.549611,PM10,24,25,25
India,Chhattisgarh,Korba,"Urja Nagar, Korba - CECB",02-10-2025 07:00:00,22.348441,82.549611,CO,10,22,18
India,Chhattisgarh,Korba,"Urja Nagar, Korba - CECB",02-10-2025 07:00:00,22.348441,82.549611,OZONE,34,36,36
India,Delhi,Delhi,"Anand Vihar, Delhi - DPCC",02-10-2025 07:00:00,28.647622,77.3158090,NH3,1,2,2
India,Delhi,Delhi,"Anand Vihar, Delhi - DPCC",02-10-2025 07:00:00,28.647622,77.3158090,SO2,2,101,26
India,Delhi,Delhi,"Ashok Vihar, Delhi - DPCC",02-10-2025 07:00:00,28.695381,77.181665,PM2.5,45,170,100
India,Delhi,Delhi,"Aya Nagar, Delhi - IMD",02-10-2025 07:00:00,28.4706914,77.1099364,PM10,20,138,93
India,Chhattisgarh,Bhilai,"32Bungalows, Bhilai - CECB",02-10-2025 07:00:00,21.194815,81.314770,CO,4,26,11
India,Chhattisgarh,Bhilai,"32Bungalows, Bhilai - CECB",02-10-2025 07:00:00,21.194815,81.314770,OZONE,2,21,4
India,Chhattisgarh,Bhilai,"Civic Center, Bhilai - Bhilai Steel Plant",02-10-2025 07:00:00,21.185571,81.343175,NO2,7,11,10
India,Chhattisgarh,Bhilai,"Hathkhoj, Bhilai - CECB",02-10-2025 07:00:00,21.224231,81.408350,SO2,5,10,7
India,Chhattisgarh,Raipur,"AIIMS, Raipur - CECB",02-10-2025 07:00:00,21.258815,81.578979,PM10,19,59,36
India,Chhattisgarh,Raipur,"Siltara Phase-II, Raipur - CECB",02-10-2025 07:00:00,21.371751,81.664929,PM2.5,9,28,18
India,Chhattisgarh,Raipur,"Siltara Phase-II, Raipur - CECB",02-10-2025 07:00:00,21.371751,81.664929,PM10,15,93,44
India,Chhattisgarh,Raipur,"Siltara Phase-II, Raipur - CECB",02-10-2025 07:00:00,21.371751,81.664929,CO,14,40,22
India,Delhi,Delhi,"Alipur, Delhi - DPCC",02-10-2025 07:00:00,28.815329,77.153010,NO2,11,49,26
India,Delhi,Delhi,"DTU, Delhi - CPCB",02-10-2025 07:00:00,28.7500499,77.1112615,NO2,25,68,56
India,Delhi,Delhi,"Pusa, Delhi - DPCC",02-10-2025 07:00:00,28.639652,77.146275,PM2.5,38,147,82
India,Delhi,Delhi,"Pusa, Delhi - DPCC",02-10-2025 07:00:00,28.639652,77.146275,OZONE,3,153,4
India,Delhi,Delhi,"Pusa, Delhi - IMD",02-10-2025 07:00:00,28.636110,77.173332,PM10,NA,NA,NA
India,Delhi,Delhi,"Pusa, Delhi - IMD",02-10-2025 07:00:00,28.636110,77.173332,NO2,NA,NA,NA
India,Delhi,Delhi,"R K Puram, Delhi - DPCC",02-10-2025 07:00:00,28.563262,77.186937,NO2,NA,NA,NA
India,Delhi,Delhi,"R K Puram, Delhi - DPCC",02-10-2025 07:00:00,28.563262,77.186937,CO,1,103,6
India,Delhi,Delhi,"R K Puram, Delhi - DPCC",02-10-2025 07:00:00,28.563262,77.186937,OZONE,17,211,22
India,Delhi,Delhi,"Rohini, Delhi - DPCC",02-10-2025 07:00:00,28.732528,77.119920,PM10,61,218,123
India,Delhi,Delhi,"IGI Airport (T3), Delhi - IMD",02-10-2025 07:00:00,28.5627763,77.1180053,PM10,61,160,108
India,Delhi,Delhi,"IHBAS, Dilshad Garden, Delhi - CPCB",02-10-2025 07:00:00,28.6811736,77.3025234,PM2.5,86,173,131
India,Delhi,Delhi,"IHBAS, Dilshad Garden, Delhi - CPCB",02-10-2025 07:00:00,28.6811736,77.3025234,PM10,98,147,127
India,Delhi,Delhi,"IHBAS, Dilshad Garden, Delhi - CPCB",02-10-2025 07:00:00,28.6811736,77.3025234,SO2,15,29,21
India,Delhi,Delhi,"IHBAS, Dilshad Garden, Delhi - CPCB",02-10-2025 07:00:00,28.6811736,77.3025234,CO,36,69,53
India,Delhi,Delhi,"ITO, Delhi - CPCB",02-10-2025 07:00:00,28.628624,77.241060,PM2.5,50,267,113
India,Delhi,Delhi,"Jahangirpuri, Delhi - DPCC",02-10-2025 07:00:00,28.732820,77.170633,PM2.5,NA,NA,NA
India,Delhi,Delhi,"Jahangirpuri, Delhi - DPCC",02-10-2025 07:00:00,28.732820,77.170633,NO2,38,101,60
India,Delhi,Delhi,"Jawaharlal Nehru Stadium, Delhi - DPCC",02-10-2025 07:00:00,28.580280,77.233829,SO2,1,21,9
India,Delhi,Delhi,"Lodhi Road, Delhi - IITM",02-10-2025 07:00:00,28.588333,77.221667,PM10,38,110,69
India,Delhi,Delhi,"Lodhi Road, Delhi - IMD",02-10-2025 07:00:00,28.5918245,77.2273074,CO,19,64,37
India,Delhi,Delhi,"Major Dhyan Chand National Stadium, Delhi - DPCC",02-10-2025 07:00:00,28.611281,77.237738,PM10,42,157,104
India,Delhi,Delhi,"Major Dhyan Chand National Stadium, Delhi - DPCC",02-10-2025 07:00:00,28.611281,77.237738,NO2,21,116,46
India,Delhi,Delhi,"Mandir Marg, Delhi - DPCC",02-10-2025 07:00:00,28.636429,77.201067,PM2.5,18,173,82
India,Delhi,Delhi,"Mandir Marg, Delhi - DPCC",02-10-2025 07:00:00,28.636429,77.201067,NH3,4,13,9
India,Delhi,Delhi,"Mundka, Delhi - DPCC",02-10-2025 07:00:00,28.684678,77.076574,PM10,55,404,134
India,Delhi,Delhi,"Shadipur, Delhi - CPCB",02-10-2025 07:00:00,28.6514781,77.1473105,CO,36,105,50
India,Delhi,Delhi,"Sirifort, Delhi - CPCB",02-10-2025 07:00:00,28.5504249,77.2159377,PM2.5,38,125,65
India,Delhi,Delhi,"Sirifort, Delhi - CPCB",02-10-2025 07:00:00,28.5504249,77.2159377,PM10,61,200,116
India,Delhi,Delhi,"Sirifort, Delhi - CPCB",02-10-2025 07:00:00,28.5504249,77.2159377,NO2,7,50,24
India,Delhi,Delhi,"Sonia Vihar, Delhi - DPCC",02-10-2025 07:00:00,28.710508,77.249485,PM2.5,37,213,113
India,Delhi,Delhi,"North Campus, DU, Delhi - IMD",02-10-2025 07:00:00,28.6573814,77.1585447,OZONE,9,309,14
India,Delhi,Delhi,"Okhla Phase-2, Delhi - DPCC",02-10-2025 07:00:00,28.530785,77.271255,SO2,7,13,9
India,Delhi,Delhi,"Okhla Phase-2, Delhi - DPCC",02-10-2025 07:00:00,28.530785,77.271255,CO,37,106,53
India,Delhi,Delhi,"Punjabi Bagh, Delhi - DPCC",02-10-2025 07:00:00,28.674045,77.131023,NO2,21,67,41
India,Delhi,Delhi,"Vivek Vihar, Delhi - DPCC",02-10-2025 07:00:00,28.672342,77.315260,OZONE,8,20,10
India,Delhi,Delhi,"Wazirpur, Delhi - DPCC",02-10-2025 07:00:00,28.699793,77.165453,PM10,110,363,162
India,Gujarat,Ahmedabad,"Chandkheda, Ahmedabad - IITM",02-10-2025 07:00:00,23.107969,72.574648,NH3,7,20,12
India,Gujarat,Ahmedabad,"Chandkheda, Ahmedabad - IITM",02-10-2025 07:00:00,23.107969,72.574648,OZONE,2,30,5
India,Delhi,Delhi,"Narela, Delhi - DPCC",02-10-2025 07:00:00,28.822836,77.101981,OZONE,NA,NA,NA
India,Delhi,Delhi,"Nehru Nagar, Delhi - DPCC",02-10-2025 07:00:00,28.567890,77.250515,PM10,40,178,97
India,Delhi,Delhi,"Nehru Nagar, Delhi - DPCC",02-10-2025 07:00:00,28.567890,77.250515,NH3,5,11,8
India,Delhi,Delhi,"NSIT Dwarka, Delhi - CPCB",02-10-2025 07:00:00,28.60909,77.0325413,NO2,29,84,52
India,Delhi,Delhi,"Najafgarh, Delhi - DPCC",02-10-2025 07:00:00,28.570173,76.933762,PM10,38,131,85
India,Haryana,Faridabad,"Sector 11, Faridabad - HSPCB",02-10-2025 07:00:00,28.376058,77.315741,PM2.5,10,500,126
India,Haryana,Faridabad,"Sector 11, Faridabad - HSPCB",02-10-2025 07:00:00,28.376058,77.315741,PM10,12,340,82
India,Haryana,Faridabad,"Sector 11, Faridabad - HSPCB",02-10-2025 07:00:00,28.376058,77.315741,NO2,29,32,31
India,Haryana,Faridabad,"Sector 11, Faridabad - HSPCB",02-10-2025 07:00:00,28.376058,77.315741,SO2,8,9,8
India,Haryana,Faridabad,"Sector 30, Faridabad - HSPCB",02-10-2025 07:00:00,28.4417,77.3217,PM2.5,40,72,43
India,Haryana,Faridabad,"Sector 30, Faridabad - HSPCB",02-10-2025 07:00:00,28.4417,77.3217,CO,40,65,62
India,Haryana,Faridabad,"Sector 30, Faridabad - HSPCB",02-10-2025 07:00:00,28.4417,77.3217,OZONE,17,19,18
India,Haryana,Gurugram,"NISE Gwal Pahari, Gurugram - IMD",02-10-2025 07:00:00,28.422681,77.148944,OZONE,6,61,14
India,Gujarat,Ahmedabad,"Raikhad, Ahmedabad - IITM",02-10-2025 07:00:00,23.020509,72.579261,CO,11,28,15
India,Gujarat,Ahmedabad,"Rakhial, Ahmedabad - IITM",02-10-2025 07:00:00,23.016834,72.625775,PM10,26,56,43
India,Gujarat,Ahmedabad,"Rakhial, Ahmedabad - IITM",02-10-2025 07:00:00,23.016834,72.625775,CO,22,27,23
India,Gujarat,Ahmedabad,"SAC ISRO Bopal, Ahmedabad - IITM",02-10-2025 07:00:00,23.041137,72.456691,NO2,17,35,23
India,Gujarat,Ahmedabad,"SAC ISRO Bopal, Ahmedabad - IITM",02-10-2025 07:00:00,23.041137,72.456691,CO,16,38,23
India,Gujarat,Ahmedabad,"SAC ISRO Satellite, Ahmedabad - IITM",02-10-2025 07:00:00,23.023389,72.515201,PM10,33,69,46
India,Gujarat,Ahmedabad,"SVPI Airport Hansol, Ahmedabad - IITM",02-10-2025 07:00:00,23.076793,72.627874,CO,4,20,9
India,Haryana,Ambala,"Patti Mehar, Ambala - HSPCB",02-10-2025 07:00:00,30.379589,76.778328,PM10,61,161,81
India,Haryana,Ambala,"Patti Mehar, Ambala - HSPCB",02-10-2025 07:00:00,30.379589,76.778328,SO2,NA,NA,NA
India,Haryana,Bahadurgarh,"Arya Nagar, Bahadurgarh - HSPCB",02-10-2025 07:00:00,28.6701,76.9254,NO2,11,17,14
India,Haryana,Bahadurgarh,"Arya Nagar, Bahadurgarh - HSPCB",02-10-2025 07:00:00,28.6701,76.9254,NH3,11,14,12
India,Haryana,Bhiwani,"H.B. Colony, Bhiwani - HSPCB",02-10-2025 07:00:00,28.806223,76.141105,SO2,12,13,12
India,Haryana,Faridabad,"New Industrial Town, Faridabad - HSPCB",02-10-2025 07:00:00,28.39072,77.30059,PM10,109,116,113
India,Gujarat,Ankleshwar,"GIDC, Ankleshwar - GPCB",02-10-2025 07:00:00,21.613267,73.010555,NH3,4,6,5
India,Gujarat,Gandhinagar,"GIFT City, Gandhinagar - IITM",02-10-2025 07:00:00,23.163798,72.677768,PM2.5,13,31,22
India,Gujarat,Gandhinagar,"GIFT City, Gandhinagar - IITM",02-10-2025 07:00:00,23.163798,72.677768,SO2,4,13,7
India,Gujarat,Gandhinagar,"GIFT City, Gandhinagar - IITM",02-10-2025 07:00:00,23.163798,72.677768,OZONE,1,19,2
India,Gujarat,Gandhinagar,"IIPHG Lekawada, Gandhinagar - IITM",02-10-2025 07:00:00,23.243639,72.68994,NO2,3,7,4
India,Gujarat,Gandhinagar,"IIPHG Lekawada, Gandhinagar - IITM",02-10-2025 07:00:00,23.243639,72.68994,CO,45,72,50
India,Haryana,Panchgaon,"Amity University, Panchgaon - IITM",02-10-2025 07:00:00,28.3153,76.9143,CO,2,24,10
India,Haryana,Panipat,"Sector-18, Panipat - HSPCB",02-10-2025 07:00:00,29.432304,76.972765,NO2,8,178,31
India,Haryana,Rohtak,"MD University, Rohtak - HSPCB",02-10-2025 07:00:00,28.52123,76.37138,NO2,32,39,36
India,Haryana,Rohtak,"MD University, Rohtak - HSPCB",02-10-2025 07:00:00,28.52123,76.37138,OZONE,43,53,49
India,Haryana,Sirsa,"F-Block, Sirsa - HSPCB",02-10-2025 07:00:00,29.536400,75.015800,CO,30,64,54
India,Haryana,Mandikhera,"General Hospital, Mandikhera - HSPCB",02-10-2025 07:00:00,27.9002,76.9938,NH3,1,84,8
India,Haryana,Narnaul,"Shastri Nagar, Narnaul - HSPCB",02-10-2025 07:00:00,28.060249,76.113115,OZONE,13,29,13
India,Haryana,Palwal,"Shyam Nagar, Palwal - HSPCB",02-10-2025 07:00:00,28.1485564,77.3320667,PM10,111,120,116
India,Gujarat,Surat,"Science Center, Surat - SMC",02-10-2025 07:00:00,21.170046,72.795405,SO2,18,24,20
India,Gujarat,Vapi,"Phase-1 GIDC, Vapi - GPCB",02-10-2025 07:00:00,20.362421,72.918013,PM2.5,13,59,29
India,Gujarat,Vapi,"Phase-1 GIDC, Vapi - GPCB",02-10-2025 07:00:00,20.362421,72.918013,NO2,13,14,14
India,Gujarat,Ahmedabad,"Maninagar, Ahmedabad - GPCB",02-10-2025 07:00:00,23.002657,72.591912,PM10,9,22,14
India,Gujarat,Ahmedabad,"Maninagar, Ahmedabad - GPCB",02-10-2025 07:00:00,23.002657,72.591912,CO,32,50,42
India,Gujarat,Ahmedabad,"Raikhad, Ahmedabad - IITM",02-10-2025 07:00:00,23.020509,72.579261,PM2.5,20,54,32
India,Haryana,Gurugram,"Sector-51, Gurugram - HSPCB",02-10-2025 07:00:00,28.4227,77.0667,SO2,1,109,21
India,Haryana,Kurukshetra,"Sector-7, Kurukshetra - HSPCB",02-10-2025 07:00:00,29.966942,76.875879,NH3,5,5,5
India,Karnataka,Bengaluru,"Hombegowda Nagar, Bengaluru - KSPCB",02-10-2025 07:00:00,12.938539,77.590100,OZONE,6,23,9
India,Karnataka,Bengaluru,"Jayanagar 5th Block, Bengaluru - KSPCB",02-10-2025 07:00:00,12.920984,77.584908,PM10,19,53,33
India,Karnataka,Bengaluru,"Jayanagar 5th Block, Bengaluru - KSPCB",02-10-2025 07:00:00,12.920984,77.584908,NO2,10,163,46
India,Karnataka,Bengaluru,"Jayanagar 5th Block, Bengaluru - KSPCB",02-10-2025 07:00:00,12.920984,77.584908,NH3,1,8,2
India,Karnataka,Bengaluru,"Peenya, Bengaluru - CPCB",02-10-2025 07:00:00,13.0270199,77.494094,NO2,18,24,21
India,Karnataka,Bengaluru,"Peenya, Bengaluru - CPCB",02-10-2025 07:00:00,13.0270199,77.494094,NH3,2,3,3
India,Karnataka,Bengaluru,"RVCE-Mailasandra, Bengaluru - KSPCB",02-10-2025 07:00:00,12.921418,77.502466,NO2,36,38,37
India,Karnataka,Bengaluru,"RVCE-Mailasandra, Bengaluru - KSPCB",02-10-2025 07:00:00,12.921418,77.502466,CO,22,40,36
India,Karnataka,Bengaluru,"Sanegurava Halli, Bengaluru - KSPCB",02-10-2025 07:00:00,12.990328,77.5431385,SO2,7,7,7
India,Karnataka,Bengaluru,"Shivapura_Peenya, Bengaluru - KSPCB",02-10-2025 07:00:00,13.0246342,77.5080115,OZONE,23,25,24
India,Karnataka,Bengaluru,"Silk Board, Bengaluru - KSPCB",02-10-2025 07:00:00,12.917348,77.622813,PM2.5,8,32,20
India,Karnataka,Bengaluru,"Silk Board, Bengaluru - KSPCB",02-10-2025 07:00:00,12.917348,77.622813,PM10,86,118,103
India,Karnataka,Chamarajanagar,"Urban, Chamarajanagar - KSPCB",02-10-2025 07:00:00,11.55358,76.55521,PM10,29,46,34
India,Karnataka,Chikkaballapur,"Chikkaballapur Rural, Chikkaballapur - KSPCB",02-10-2025 07:00:00,13.428828,77.731418,NH3,NA,NA,NA
India,Karnataka,Chikkaballapur,"Chikkaballapur Rural, Chikkaballapur - KSPCB",02-10-2025 07:00:00,13.428828,77.731418,CO,NA,NA,NA
India,Karnataka,Chikkaballapur,"Chikkaballapur Rural, Chikkaballapur - KSPCB",02-10-2025 07:00:00,13.428828,77.731418,OZONE,NA,NA,NA
India,Kerala,Kollam,"Polayathode, Kollam - Kerala PCB",02-10-2025 07:00:00,8.8787,76.6073,CO,13,18,15
India,Kerala,Thiruvananthapuram,"Plammoodu, Thiruvananthapuram - Kerala PCB",02-10-2025 07:00:00,8.5149093,76.9435879,CO,5,12,8
India,Kerala,Thiruvananthapuram,"Plammoodu, Thiruvananthapuram - Kerala PCB",02-10-2025 07:00:00,8.5149093,76.9435879,OZONE,13,17,16
India,Kerala,Thrissur,"Corporation Ground, Thrissur - Kerala PCB",02-10-2025 07:00:00,10.532400,76.215900,NO2,7,8,7
India,Madhya Pradesh,Bhopal,"Paryavaran Parisar, Bhopal - MPPCB",02-10-2025 07:00:00,23.210494,77.425409,PM2.5,20,50,35
India,Karnataka,Bagalkot,"Vidayagiri, Bagalkot - KSPCB",02-10-2025 07:00:00,16.172806,75.659694,NH3,1,2,1
India,Karnataka,Bengaluru,"City Railway Station, Bengaluru - KSPCB",02-10-2025 07:00:00,12.9756843,77.5660749,PM10,82,99,89
India,Karnataka,Bengaluru,"Hombegowda Nagar, Bengaluru - KSPCB",02-10-2025 07:00:00,12.938539,77.590100,PM2.5,9,28,16
India,Karnataka,Bengaluru,"Hombegowda Nagar, Bengaluru - KSPCB",02-10-2025 07:00:00,12.938539,77.590100,PM10,23,52,34
India,Karnataka,Shivamogga,"Vinoba Nagara, Shivamogga - KSPCB",02-10-2025 07:00:00,13.940000,75.555917,SO2,3,6,4
India,Karnataka,Yadgir,"Collector Office, Yadgir - KSPCB",02-10-2025 07:00:00,16.7602,77.1428,PM2.5,2,22,12
India,Karnataka,Yadgir,"Collector Office, Yadgir - KSPCB",02-10-2025 07:00:00,16.7602,77.1428,PM10,7,34,19
India,Kerala,Eloor,"Udyogamandal, Eloor - Kerala PCB",02-10-2025 07:00:00,10.073232,76.302765,SO2,1,1,1
India,Karnataka,Davanagere,"Devaraj Urs Badavane, Davanagere - KSPCB",02-10-2025 07:00:00,14.475800,75.905200,PM2.5,9,46,24
India,Karnataka,Dharwad,"Kalabhavan, Dharwad - KSPCB",02-10-2025 07:00:00,15.459706,75.008381,SO2,2,3,3
India,Karnataka,Haveri,"Ashwini Nagar, Haveri - KSPCB",02-10-2025 07:00:00,14.791800,75.389600,SO2,NA,NA,NA
India,Karnataka,Mysuru,"Hebbal 1st Stage, Mysuru - KSPCB",02-10-2025 07:00:00,12.21041,76.37376,NH3,3,6,5
India,Karnataka,Mysuru,"Hebbal 1st Stage, Mysuru - KSPCB",02-10-2025 07:00:00,12.21041,76.37376,CO,4,35,6
India,Karnataka,Shivamogga,"Vinoba Nagara, Shivamogga - KSPCB",02-10-2025 07:00:00,13.940000,75.555917,PM2.5,24,37,30
India,Karnataka,Karwar,"KHB Colony, Karwar - KSPCB",02-10-2025 07:00:00,14.816666,74.141003,NH3,1,2,1
India,Karnataka,Karwar,"KHB Colony, Karwar - KSPCB",02-10-2025 07:00:00,14.816666,74.141003,CO,11,12,11
India,Haryana,Yamuna Nagar,"Gobind Pura, Yamuna Nagar - HSPCB",02-10-2025 07:00:00,30.1480566,77.2893471,NH3,NA,NA,NA
India,Madhya Pradesh,Bhopal,"T T Nagar, Bhopal - MPPCB",02-10-2025 07:00:00,23.233584,77.400574,PM10,40,93,68
India,Madhya Pradesh,Bhopal,"T T Nagar, Bhopal - MPPCB",02-10-2025 07:00:00,23.233584,77.400574,SO2,8,11,10
India,Madhya Pradesh,Damoh,"Shrivastav Colony, Damoh - MPPCB",02-10-2025 07:00:00,23.81748678,79.446246,PM2.5,3,86,28
India,Madhya Pradesh,Damoh,"Shrivastav Colony, Damoh - MPPCB",02-10-2025 07:00:00,23.81748678,79.446246,CO,21,27,26
India,Madhya Pradesh,Dewas,"Bhopal Chauraha, Dewas - MPPCB",02-10-2025 07:00:00,22.9682591,76.064118,NH3,2,3,2
India,Madhya Pradesh,Dewas,"Bhopal Chauraha, Dewas - MPPCB",02-10-2025 07:00:00,22.9682591,76.064118,SO2,19,46,32
India,Madhya Pradesh,Gwalior,"City Center, Gwalior - MPPCB",02-10-2025 07:00:00,26.203442,78.193251,NH3,1,1,1
India,Madhya Pradesh,Gwalior,"Deen Dayal Nagar, Gwalior - MPPCB",02-10-2025 07:00:00,26.259242,78.216432,PM10,7,140,34
India,Madhya Pradesh,Mandideep,"Sector-D Industrial Area, Mandideep - MPPCB",02-10-2025 07:00:00,23.108440,77.511428,OZONE,10,62,16
India,Madhya Pradesh,Pithampur,"Sector-2 Industrial Area, Pithampur - MPPCB",02-10-2025 07:00:00,22.624758,75.675238,PM2.5,31,327,90
India,Madhya Pradesh,Pithampur,"Sector-2 Industrial Area, Pithampur - MPPCB",02-10-2025 07:00:00,22.624758,75.675238,NO2,6,37,17
India,Madhya Pradesh,Pithampur,"Sector-2 Industrial Area, Pithampur - MPPCB",02-10-2025 07:00:00,22.624758,75.675238,NH3,3,5,4
India,Madhya Pradesh,Ratlam,"Shasthri Nagar, Ratlam - IPCA Lab",02-10-2025 07:00:00,23.331731,75.045981,PM10,13,162,72
India,Madhya Pradesh,Ratlam,"Shasthri Nagar, Ratlam - IPCA Lab",02-10-2025 07:00:00,23.331731,75.045981,NO2,33,36,35
India,Madhya Pradesh,Ratlam,"Shasthri Nagar, Ratlam - IPCA Lab",02-10-2025 07:00:00,23.331731,75.045981,SO2,11,24,15
India,Madhya Pradesh,Sagar,"Civil Lines, Sagar - MPPCB",02-10-2025 07:00:00,23.838586,78.759431,PM2.5,18,79,37
India,Maharashtra,Belapur,"CBD Belapur, Belapur - MPCB",02-10-2025 07:00:00,19.0243902,73.0406721,CO,3,26,7
India,Maharashtra,Bhiwandi,"Gokul Nagar, Bhiwandi - MPCB",02-10-2025 07:00:00,19.309073,73.057223,CO,32,49,43
India,Maharashtra,Boisar,"Khaira, Boisar - MPCB",02-10-2025 07:00:00,19.786089,72.757971,NO2,1,6,2
India,Maharashtra,Boisar,"Khaira, Boisar - MPCB",02-10-2025 07:00:00,19.786089,72.757971,SO2,19,21,20
India,Maharashtra,Boisar,"Khaira, Boisar - MPCB",02-10-2025 07:00:00,19.786089,72.757971,CO,12,33,22
India,Maharashtra,Chandrapur,"Chauhan Colony, Chandrapur - MPCB",02-10-2025 07:00:00,19.962900,79.298714,PM2.5,2,98,25
India,Maharashtra,Chandrapur,"Chauhan Colony, Chandrapur - MPCB",02-10-2025 07:00:00,19.962900,79.298714,PM10,16,182,69
India,Maharashtra,Chandrapur,"Chauhan Colony, Chandrapur - MPCB",02-10-2025 07:00:00,19.962900,79.298714,NO2,7,14,11
India,Maharashtra,Aurangabad,"Rachnakar Colony, Aurangabad - MPCB",02-10-2025 07:00:00,19.863756,75.321188,PM2.5,20,98,48
India,Maharashtra,Aurangabad,"Rachnakar Colony, Aurangabad - MPCB",02-10-2025 07:00:00,19.863756,75.321188,SO2,6,26,17
India,Maharashtra,Aurangabad,"Rachnakar Colony, Aurangabad - MPCB",02-10-2025 07:00:00,19.863756,75.321188,CO,6,42,16
India,Maharashtra,Badlapur,"Katrap, Badlapur - MPCB",02-10-2025 07:00:00,19.16485,73.23409,CO,23,46,30
India,Maharashtra,Badlapur,"Katrap, Badlapur - MPCB",02-10-2025 07:00:00,19.16485,73.23409,OZONE,11,36,13
India,Maharashtra,Belapur,"CBD Belapur, Belapur - MPCB",02-10-2025 07:00:00,19.0243902,73.0406721,PM10,28,55,44
India,Maharashtra,Belapur,"CBD Belapur, Belapur - MPCB",02-10-2025 07:00:00,19.0243902,73.0406721,NO2,5,8,6
India,Madhya Pradesh,Gwalior,"Deen Dayal Nagar, Gwalior - MPPCB",02-10-2025 07:00:00,26.259242,78.216432,NO2,2,66,22
India,Madhya Pradesh,Indore,"Chhoti Gwaltoli, Indore - MPPCB",02-10-2025 07:00:00,22.4310,75.5213,PM2.5,37,135,62
India,Madhya Pradesh,Indore,"Chhoti Gwaltoli, Indore - MPPCB",02-10-2025 07:00:00,22.4310,75.5213,NO2,68,103,84
India,Madhya Pradesh,Indore,"Maguda Nagar, Indore - IMC",02-10-2025 07:00:00,22.7524,75.8872,NO2,2,2,2
India,Madhya Pradesh,Indore,"Regional Park, Indore - IMC",02-10-2025 07:00:00,22.6780,75.8559,NH3,1,1,1
India,Madhya Pradesh,Indore,"Regional Park, Indore - IMC",02-10-2025 07:00:00,22.6780,75.8559,CO,14,24,22
India,Madhya Pradesh,Jabalpur,"Suhagi, Jabalpur - JMC",02-10-2025 07:00:00,23.218135,79.957770,PM2.5,NA,NA,NA
India,Madhya Pradesh,Jabalpur,"Suhagi, Jabalpur - JMC",02-10-2025 07:00:00,23.218135,79.957770,NH3,2,2,2
India,Madhya Pradesh,Jabalpur,"Suhagi, Jabalpur - JMC",02-10-2025 07:00:00,23.218135,79.957770,OZONE,16,73,47
India,Madhya Pradesh,Katni,"Gole Bazar, Katni - MPPCB",02-10-2025 07:00:00,23.50016,80.23284,NO2,34,37,35
India,Madhya Pradesh,Katni,"Gole Bazar, Katni - MPPCB",02-10-2025 07:00:00,23.50016,80.23284,NH3,3,3,3
India,Madhya Pradesh,Maihar,"Sahilara, Maihar - KJS Cements",02-10-2025 07:00:00,24.2613009,80.7231783,PM10,4,442,201
India,Maharashtra,Akola,"Ramdaspeth, Akola - MPCB",02-10-2025 07:00:00,20.719516,77.000253,PM10,22,90,48
India,Maharashtra,Amravati,"Shivneri Colony, Amravati - MPCB",02-10-2025 07:00:00,20.9402359,77.7895248,NO2,8,22,12
India,Maharashtra,Amravati,"Shri Shivaji Science College, Amravati - MPCB",02-10-2025 07:00:00,20.939198,77.765701,SO2,12,19,15
India,Maharashtra,Aurangabad,"MIDC Chilkalthana, Aurangabad - MPCB",02-10-2025 07:00:00,19.875620,75.387310,PM2.5,5,74,37
India,Madhya Pradesh,Satna,"Bandhavgar Colony, Satna - Birla Cement",02-10-2025 07:00:00,24.58434363,80.8549414,SO2,18,19,18
India,Madhya Pradesh,Singrauli,"Suryakiran Bhawan NCL, Singrauli - MPPCB",02-10-2025 07:00:00,24.108970,82.645580,NH3,NA,NA,NA
India,Maharashtra,Ahmednagar,"Tarakpur, Ahmednagar - MPCB",02-10-2025 07:00:00,19.10122,74.73339,PM10,25,66,42
India,Madhya Pradesh,Indore,"Residency Area, Indore - IMC",02-10-2025 07:00:00,22.7084,75.8815,SO2,21,49,30
India,Madhya Pradesh,Jabalpur,"Govindh Bhavan Colony, Jabalpur - JMC",02-10-2025 07:00:00,23.163174,79.973061,SO2,11,11,11
India,Maharashtra,Jalna,"Old MIDC, Jalna - MPCB",02-10-2025 07:00:00,19.854616,75.905894,CO,NA,NA,NA
India,Maharashtra,Kalyan,"Khadakpada, Kalyan - MPCB",02-10-2025 07:00:00,19.25292,73.142019,NO2,NA,NA,NA
India,Maharashtra,Kalyan,"Khadakpada, Kalyan - MPCB",02-10-2025 07:00:00,19.25292,73.142019,SO2,NA,NA,NA
India,Maharashtra,Kalyan,"Pimpleshwar Mandir, Kalyan - MPCB",02-10-2025 07:00:00,19.192056,72.9585188,PM10,15,76,37
India,Maharashtra,Kalyan,"Pimpleshwar Mandir, Kalyan - MPCB",02-10-2025 07:00:00,19.192056,72.9585188,OZONE,3,5,4
India,Maharashtra,Kolhapur,"Shivaji University, Kolhapur - MPCB",02-10-2025 07:00:00,16.6870449,74.2505872,PM10,18,46,30
India,Maharashtra,Kolhapur,"Shivaji University, Kolhapur - MPCB",02-10-2025 07:00:00,16.6870449,74.2505872,NO2,7,27,15
India,Maharashtra,Kolhapur,"Shivaji University, Kolhapur - MPCB",02-10-2025 07:00:00,16.6870449,74.2505872,NH3,3,3,3
India,Maharashtra,Kolhapur,"Shivaji University, Kolhapur - MPCB",02-10-2025 07:00:00,16.6870449,74.2505872,SO2,1,5,3
India,Maharashtra,Kolhapur,"Shivaji University, Kolhapur - MPCB",02-10-2025 07:00:00,16.6870449,74.2505872,CO,2,34,10
