country,state,city,station,last_update,latitude,longitude,pollutant_id,min_value,max_value,avg_value
India,Bihar,Katihar,"Mirchaibari, Katihar - BSPCB",25-01-2026 08:00:00,25.560083,87.553265,NO2,7,10,9
India,Bihar,Katihar,"Mirchaibari, Katihar - BSPCB",25-01-2026 08:00:00,25.560083,87.553265,SO2,16,27,22
India,Bihar,Katihar,"Mirchaibari, Katihar - BSPCB",25-01-2026 08:00:00,25.560083,87.553265,OZONE,23,33,25
India,Bihar,Kishanganj,"SDM Office_Khagra, Kishanganj - BSPCB",25-01-2026 08:00:00,26.0881305,87.93840336,SO2,6,9,7
India,Bihar,Manguraha,"Forest Rest House, Manguraha - BSPCB",25-01-2026 08:00:00,27.308328,84.531742,NO2,3,10,5
India,Bihar,Motihari,"Gandak Colony, Motihari - BSPCB",25-01-2026 08:00:00,26.63086,84.90051,NH3,NA,NA,NA
India,Bihar,Motihari,"Gandak Colony, Motihari - BSPCB",25-01-2026 08:00:00,26.63086,84.90051,CO,NA,NA,NA
India,Bihar,Motihari,"Gandak Colony, Motihari - BSPCB",25-01-2026 08:00:00,26.63086,84.90051,OZONE,NA,NA,NA
India,Bihar,Munger,"Town Hall, Munger - BSPCB",25-01-2026 08:00:00,25.376776,86.471523,CO,10,78,53
India,Bihar,Munger,"Town Hall, Munger - BSPCB",25-01-2026 08:00:00,25.376776,86.471523,OZONE,7,10,9
India,Bihar,Muzaffarpur,"Buddha Colony, Muzaffarpur - BSPCB",25-01-2026 08:00:00,26.11442,85.39813,PM10,59,131,98
India,Bihar,Muzaffarpur,"Buddha Colony, Muzaffarpur - BSPCB",25-01-2026 08:00:00,26.11442,85.39813,NO2,34,80,46
India,Bihar,Muzaffarpur,"Buddha Colony, Muzaffarpur - BSPCB",25-01-2026 08:00:00,26.11442,85.39813,CO,40,104,102
India,Assam,Guwahati,"Railway Colony, Guwahati - PCBA",25-01-2026 08:00:00,26.181742,91.78063,PM10,69,309,179
India,Assam,Nagaon,"Christianpatty, Nagaon - PCBA",25-01-2026 08:00:00,26.349082,92.68449,PM2.5,87,233,146
India,Assam,Nagaon,"Christianpatty, Nagaon - PCBA",25-01-2026 08:00:00,26.349082,92.68449,OZONE,8,9,9
India,Assam,Nalbari,"Bata Chowk, Nalbari - PCBA",25-01-2026 08:00:00,26.446912,91.439057,SO2,4,8,8
India,Assam,Nalbari,"Bata Chowk, Nalbari - PCBA",25-01-2026 08:00:00,26.446912,91.439057,CO,20,22,21
India,Assam,Silchar,"Tarapur, Silchar - PCBA",25-01-2026 08:00:00,24.82827,92.79525,PM2.5,7,98,58
India,Assam,Sivasagar,"Girls College, Sivasagar - PCBA",25-01-2026 08:00:00,26.987634,94.636574,CO,17,78,52
India,Bihar,Araria,"Kharahiya Basti, Araria - BSPCB",25-01-2026 08:00:00,26.146529,87.454184,NH3,4,5,4
India,Andhra_Pradesh,Visakhapatnam,"GVM Corporation, Visakhapatnam - APPCB",25-01-2026 08:00:00,17.72,83.3,NO2,9,128,34
India,Andhra_Pradesh,Visakhapatnam,"GVM Corporation, Visakhapatnam - APPCB",25-01-2026 08:00:00,17.72,83.3,NH3,3,4,4
India,Andhra_Pradesh,Visakhapatnam,"GVM Corporation, Visakhapatnam - APPCB",25-01-2026 08:00:00,17.72,83.3,OZONE,24,74,51
India,Arunachal_Pradesh,Naharlagun,"Naharlagun, Naharlagun - APSPCB",25-01-2026 08:00:00,27.103358,93.679645,NO2,7,7,7
India,Assam,Byrnihat,"Central Academy for SFS, Byrnihat - PCBA",25-01-2026 08:00:00,26.071318,91.87488,NH3,4,4,4
India,Assam,Byrnihat,"Central Academy for SFS, Byrnihat - PCBA",25-01-2026 08:00:00,26.071318,91.87488,SO2,31,32,32
India,Assam,Guwahati,"LGBI Airport, Guwahati - PCBA",25-01-2026 08:00:00,26.10887,91.589544,PM2.5,39,158,83
India,Assam,Guwahati,"Pan Bazaar, Guwahati - PCBA",25-01-2026 08:00:00,26.187500,91.744194,PM10,62,165,106
India,Bihar,Muzaffarpur,"MIT-Daudpur Kothi, Muzaffarpur - BSPCB",25-01-2026 08:00:00,26.1403345,85.3650192,NO2,2,4,2
India,Bihar,Patna,"DRM Office Danapur, Patna - BSPCB",25-01-2026 08:00:00,25.586562,85.043586,NO2,17,107,43
India,Bihar,Patna,"DRM Office Danapur, Patna - BSPCB",25-01-2026 08:00:00,25.586562,85.043586,OZONE,2,30,14
India,Bihar,Patna,"Govt. High School Shikarpur, Patna - BSPCB",25-01-2026 08:00:00,25.592539,85.227158,NH3,4,5,5
India,Bihar,Patna,"Govt. High School Shikarpur, Patna - BSPCB",25-01-2026 08:00:00,25.592539,85.227158,CO,62,110,101
India,Bihar,Patna,"Muradpur, Patna - BSPCB",25-01-2026 08:00:00,25.619651,85.147382,PM2.5,79,158,115
India,Bihar,Patna,"Muradpur, Patna - BSPCB",25-01-2026 08:00:00,25.619651,85.147382,SO2,8,10,8
India,Bihar,Patna,"Rajbansi Nagar, Patna - BSPCB",25-01-2026 08:00:00,25.599486,85.113666,SO2,5,7,6
India,Bihar,Patna,"Rajbansi Nagar, Patna - BSPCB",25-01-2026 08:00:00,25.599486,85.113666,CO,13,94,36
India,Bihar,Siwan,"Chitragupta Nagar, Siwan - BSPCB",25-01-2026 08:00:00,26.2271665,84.3570427,SO2,6,7,6
India,Chandigarh,Chandigarh,"Sector 22, Chandigarh - CPCC",25-01-2026 08:00:00,30.735567,76.775714,NO2,28,87,44
India,Chandigarh,Chandigarh,"Sector 22, Chandigarh - CPCC",25-01-2026 08:00:00,30.735567,76.775714,CO,64,102,71
India,Chandigarh,Chandigarh,"Sector-25, Chandigarh - CPCC",25-01-2026 08:00:00,30.751462,76.762879,NH3,9,9,9
India,Chandigarh,Chandigarh,"Sector-25, Chandigarh - CPCC",25-01-2026 08:00:00,30.751462,76.762879,OZONE,2,34,8
India,Chandigarh,Chandigarh,"Sector-53, Chandigarh - CPCC",25-01-2026 08:00:00,30.719859,76.738637,SO2,8,78,56
India,Chhattisgarh,Bhilai,"32Bungalows, Bhilai - CECB",25-01-2026 08:00:00,21.194815,81.314770,PM2.5,25,51,35
India,Chhattisgarh,Bhilai,"32Bungalows, Bhilai - CECB",25-01-2026 08:00:00,21.194815,81.314770,CO,26,44,42
India,Bihar,Bihar Sharif,"D M Colony, Bihar Sharif - BSPCB",25-01-2026 08:00:00,25.204762,85.514960,CO,42,98,54
India,Bihar,Bihar Sharif,"D M Colony, Bihar Sharif - BSPCB",25-01-2026 08:00:00,25.204762,85.514960,OZONE,2,8,7
India,Bihar,Chhapra,"Darshan Nagar, Chhapra - BSPCB",25-01-2026 08:00:00,25.7808257,84.7446768,NH3,6,12,9
India,Bihar,Gaya,"Collectorate, Gaya - BSPCB",25-01-2026 08:00:00,24.7955,84.9994,SO2,5,8,6
India,Bihar,Gaya,"Kareemganj, Gaya - BSPCB",25-01-2026 08:00:00,24.792403,84.992416,OZONE,1,18,1
India,Bihar,Gaya,"SFTI Kusdihra, Gaya - BSPCB",25-01-2026 08:00:00,24.762518,84.982348,OZONE,NA,NA,NA
India,Bihar,Hajipur,"Industrial Area, Hajipur - BSPCB",25-01-2026 08:00:00,25.697189,85.245900,NH3,12,16,14
India,Bihar,Arrah,"New DM Office, Arrah - BSPCB",25-01-2026 08:00:00,25.5626095,84.663264,PM2.5,32,107,70
India,Bihar,Arrah,"New DM Office, Arrah - BSPCB",25-01-2026 08:00:00,25.5626095,84.663264,OZONE,6,10,8
India,Bihar,Begusarai,"Lohiyanagar, Begusarai - BSPCB",25-01-2026 08:00:00,25.42742023,86.13886079,SO2,27,32,29
India,Bihar,Begusarai,"Lohiyanagar, Begusarai - BSPCB",25-01-2026 08:00:00,25.42742023,86.13886079,OZONE,14,19,15
India,Bihar,Bettiah,"Kamalnath Nagar, Bettiah - BSPCB",25-01-2026 08:00:00,26.80365,84.51954,SO2,4,90,57
India,Bihar,Bhagalpur,"Mayaganj, Bhagalpur - BSPCB",25-01-2026 08:00:00,25.265194,87.012947,PM2.5,35,150,73
India,Bihar,Bhagalpur,"Mayaganj, Bhagalpur - BSPCB",25-01-2026 08:00:00,25.265194,87.012947,SO2,52,63,58
India,Bihar,Bhagalpur,"Mayaganj, Bhagalpur - BSPCB",25-01-2026 08:00:00,25.265194,87.012947,CO,79,97,88
India,Andhra_Pradesh,Tirumala,"Toll Gate, Tirumala - APPCB",25-01-2026 08:00:00,13.67,79.35,OZONE,20,53,42
India,Andhra_Pradesh,Tirupati,"Vaikuntapuram, Tirupati - APPCB",25-01-2026 08:00:00,13.615387,79.409230,OZONE,13,30,14
India,Andhra_Pradesh,Vijayawada,"Kanuru, Vijayawada - APPCB",25-01-2026 08:00:00,16.486692,80.699436,PM2.5,53,81,62
India,Andhra_Pradesh,Vijayawada,"Kanuru, Vijayawada - APPCB",25-01-2026 08:00:00,16.486692,80.699436,PM10,49,81,58
India,Andhra_Pradesh,Vijayawada,"Kanuru, Vijayawada - APPCB",25-01-2026 08:00:00,16.486692,80.699436,SO2,15,23,18
India,Andhra_Pradesh,Vijayawada,"Kanuru, Vijayawada - APPCB",25-01-2026 08:00:00,16.486692,80.699436,CO,44,57,48
India,Andhra_Pradesh,Amaravati,"Secretariat, Amaravati - APPCB",25-01-2026 08:00:00,16.5150833,80.5181667,OZONE,25,60,29
India,Andhra_Pradesh,Chittoor,"Gangineni Cheruvu, Chittoor - APPCB",25-01-2026 08:00:00,13.204880,79.097889,CO,46,68,49
India,Andhra_Pradesh,Chittoor,"Gangineni Cheruvu, Chittoor - APPCB",25-01-2026 08:00:00,13.204880,79.097889,OZONE,46,59,49
India,Andhra_Pradesh,Kadapa,"Yerramukkapalli, Kadapa - APPCB",25-01-2026 08:00:00,14.465052,78.824187,PM2.5,51,104,78
India,Andhra_Pradesh,Kadapa,"Yerramukkapalli, Kadapa - APPCB",25-01-2026 08:00:00,14.465052,78.824187,NH3,4,5,4
India,Bihar,Patna,"Samanpura, Patna - BSPCB",25-01-2026 08:00:00,25.596727,85.085624,CO,12,121,114
India,Bihar,Purnia,"Mariam Nagar, Purnia - BSPCB",25-01-2026 08:00:00,25.366336,87.117468,NH3,3,3,3
India,Bihar,Rajgir,"Dangi Tola, Rajgir - BSPCB",25-01-2026 08:00:00,25.03280,85.41948,PM10,31,172,101
India,Bihar,Rajgir,"Dangi Tola, Rajgir - BSPCB",25-01-2026 08:00:00,25.03280,85.41948,NO2,8,10,9
India,Chhattisgarh,Milupara,"Govt. Higher Secondary School, Milupara - CECB",25-01-2026 08:00:00,22.1910172,83.5197009,PM2.5,52,139,86
India,Chhattisgarh,Milupara,"Govt. Higher Secondary School, Milupara - CECB",25-01-2026 08:00:00,22.1910172,83.5197009,SO2,13,58,20
India,Chhattisgarh,Milupara,"Govt. Higher Secondary School, Milupara - CECB",25-01-2026 08:00:00,22.1910172,83.5197009,CO,24,96,30
India,Chhattisgarh,Raipur,"AIIMS, Raipur - CECB",25-01-2026 08:00:00,21.258815,81.578979,NH3,4,4,4
India,Chhattisgarh,Raipur,"AIIMS, Raipur - CECB",25-01-2026 08:00:00,21.258815,81.578979,SO2,4,7,5
India,Chhattisgarh,Raipur,"AIIMS, Raipur - CECB",25-01-2026 08:00:00,21.258815,81.578979,OZONE,1,2,1
India,Chhattisgarh,Raipur,"Bhatagaon New ISBT, Raipur - CECB",25-01-2026 08:00:00,21.219665,81.630094,NH3,NA,NA,NA
India,Chhattisgarh,Raipur,"Krishak Nagar, Raipur - CECB",25-01-2026 08:00:00,21.237755,81.705301,OZONE,11,19,11
India,Chhattisgarh,Raipur,"Siltara Phase-II, Raipur - CECB",25-01-2026 08:00:00,21.371751,81.664929,PM2.5,55,250,122
India,Chhattisgarh,Raipur,"Siltara Phase-II, Raipur - CECB",25-01-2026 08:00:00,21.371751,81.664929,OZONE,3,3,3
India,Chhattisgarh,Tumidih,"OP Jindal Industrial Park, Tumidih - CECB",25-01-2026 08:00:00,22.06631475,83.33820077,NH3,1,2,2
India,Delhi,Delhi,"Vivek Vihar, Delhi - DPCC",25-01-2026 08:00:00,28.672342,77.315260,NH3,9,10,10
India,Delhi,Delhi,"Wazirpur, Delhi - DPCC",25-01-2026 08:00:00,28.699793,77.165453,NO2,56,328,219
India,Delhi,Delhi,"Wazirpur, Delhi - DPCC",25-01-2026 08:00:00,28.699793,77.165453,NH3,9,13,11
India,Delhi,Delhi,"Wazirpur, Delhi - DPCC",25-01-2026 08:00:00,28.699793,77.165453,CO,32,54,39
India,Delhi,Delhi,"Wazirpur, Delhi - DPCC",25-01-2026 08:00:00,28.699793,77.165453,OZONE,16,59,36
India,Gujarat,Ahmedabad,"Chandkheda, Ahmedabad - IITM",25-01-2026 08:00:00,23.107969,72.574648,PM2.5,21,142,53
India,Gujarat,Ahmedabad,"Chandkheda, Ahmedabad - IITM",25-01-2026 08:00:00,23.107969,72.574648,SO2,6,51,16
India,Gujarat,Ahmedabad,"Chandkheda, Ahmedabad - IITM",25-01-2026 08:00:00,23.107969,72.574648,OZONE,2,44,16
India,Gujarat,Ahmedabad,"Gyaspur, Ahmedabad - IITM",25-01-2026 08:00:00,22.977134,72.553024,CO,12,60,34
India,Gujarat,Ahmedabad,"Maninagar, Ahmedabad - GPCB",25-01-2026 08:00:00,23.002657,72.591912,OZONE,31,80,36
India,Gujarat,Ahmedabad,"Raikhad, Ahmedabad - IITM",25-01-2026 08:00:00,23.020509,72.579261,OZONE,3,69,26
India,Delhi,Delhi,"Nehru Nagar, Delhi - DPCC",25-01-2026 08:00:00,28.567890,77.250515,NO2,24,64,37
India,Delhi,Delhi,"North Campus, DU, Delhi - IMD",25-01-2026 08:00:00,28.6573814,77.1585447,PM10,124,168,141
India,Delhi,Delhi,"Okhla Phase-2, Delhi - DPCC",25-01-2026 08:00:00,28.530785,77.271255,PM2.5,50,147,85
India,Delhi,Delhi,"Okhla Phase-2, Delhi - DPCC",25-01-2026 08:00:00,28.530785,77.271255,SO2,5,63,11
India,Delhi,Delhi,"Okhla Phase-2, Delhi - DPCC",25-01-2026 08:00:00,28.530785,77.271255,OZONE,13,140,41
India,Delhi,Delhi,"Punjabi Bagh, Delhi - DPCC",25-01-2026 08:00:00,28.674045,77.131023,PM2.5,58,180,115
India,Delhi,Delhi,"Pusa, Delhi - DPCC",25-01-2026 08:00:00,28.639652,77.146275,CO,50,90,59
India,Delhi,Delhi,"Pusa, Delhi - DPCC",25-01-2026 08:00:00,28.639652,77.146275,OZONE,5,30,13
India,Delhi,Delhi,"Pusa, Delhi - IMD",25-01-2026 08:00:00,28.636110,77.173332,NO2,41,80,59
India,Delhi,Delhi,"R K Puram, Delhi - DPCC",25-01-2026 08:00:00,28.563262,77.186937,PM2.5,63,193,116
India,Delhi,Delhi,"Anand Vihar, Delhi - DPCC",25-01-2026 08:00:00,28.647622,77.3158090,PM10,137,456,224
India,Delhi,Delhi,"Anand Vihar, Delhi - DPCC",25-01-2026 08:00:00,28.647622,77.3158090,CO,37,64,47
India,Delhi,Delhi,"Ashok Vihar, Delhi - DPCC",25-01-2026 08:00:00,28.695381,77.181665,NH3,8,9,8
India,Delhi,Delhi,"Ashok Vihar, Delhi - DPCC",25-01-2026 08:00:00,28.695381,77.181665,SO2,7,20,12
India,Delhi,Delhi,"Aya Nagar, Delhi - IMD",25-01-2026 08:00:00,28.4706914,77.1099364,OZONE,11,49,15
India,Delhi,Delhi,"Bawana, Delhi - DPCC",25-01-2026 08:00:00,28.776200,77.051074,NH3,6,8,6
India,Delhi,Delhi,"Bawana, Delhi - DPCC",25-01-2026 08:00:00,28.776200,77.051074,SO2,6,17,9
India,Delhi,Delhi,"Burari Crossing, Delhi - IMD",25-01-2026 08:00:00,28.7256504,77.2011573,PM2.5,56,214,113
India,Delhi,Delhi,"CRRI Mathura Road, Delhi - IMD",25-01-2026 08:00:00,28.5512005,77.2735737,NO2,5,31,22
India,Delhi,Delhi,"CRRI Mathura Road, Delhi - IMD",25-01-2026 08:00:00,28.5512005,77.2735737,CO,4,65,32
India,Delhi,Delhi,"DTU, Delhi - CPCB",25-01-2026 08:00:00,28.7500499,77.1112615,CO,1,12,7
India,Delhi,Delhi,"Dr. Karni Singh Shooting Range, Delhi - DPCC",25-01-2026 08:00:00,28.498571,77.264840,PM2.5,48,167,89
India,Delhi,Delhi,"Dr. Karni Singh Shooting Range, Delhi - DPCC",25-01-2026 08:00:00,28.498571,77.264840,NH3,5,7,6
India,Delhi,Delhi,"Dwarka-Sector 8, Delhi - DPCC ",25-01-2026 08:00:00,28.5710274,77.0719006,SO2,24,39,32
India,Delhi,Delhi,"IGI Airport (T3), Delhi - IMD",25-01-2026 08:00:00,28.5627763,77.1180053,PM2.5,40,92,71
India,Delhi,Delhi,"Mandir Marg, Delhi - DPCC",25-01-2026 08:00:00,28.636429,77.201067,PM10,95,199,149
India,Delhi,Delhi,"Mandir Marg, Delhi - DPCC",25-01-2026 08:00:00,28.636429,77.201067,NH3,3,7,4
India,Delhi,Delhi,"Mandir Marg, Delhi - DPCC",25-01-2026 08:00:00,28.636429,77.201067,SO2,9,55,32
India,Delhi,Delhi,"NSIT Dwarka, Delhi - CPCB",25-01-2026 08:00:00,28.60909,77.0325413,PM2.5,34,97,50
India,Delhi,Delhi,"Najafgarh, Delhi - DPCC",25-01-2026 08:00:00,28.570173,76.933762,SO2,19,42,28
India,Delhi,Delhi,"Najafgarh, Delhi - DPCC",25-01-2026 08:00:00,28.570173,76.933762,OZONE,3,73,4
India,Delhi,Delhi,"Narela, Delhi - DPCC",25-01-2026 08:00:00,28.822836,77.101981,NH3,6,7,7
India,Chhattisgarh,Chhal,"Nawapara SECL Colony, Chhal - CECB",25-01-2026 08:00:00,22.118125,83.140608,PM10,84,120,100
India,Chhattisgarh,Korba,"Rampur, Korba - CECB",25-01-2026 08:00:00,22.368195,82.746431,PM10,54,139,80
India,Chhattisgarh,Korba,"Rampur, Korba - CECB",25-01-2026 08:00:00,22.368195,82.746431,CO,19,32,28
India,Chhattisgarh,Korba,"Urja Nagar, Korba - CECB",25-01-2026 08:00:00,22.348441,82.549611,SO2,1,29,12
India,Chhattisgarh,Kunjemura,"OP Jindal School, Kunjemura - CECB",25-01-2026 08:00:00,22.126650,83.483212,NO2,21,89,46
India,Delhi,Delhi,"R K Puram, Delhi - DPCC",25-01-2026 08:00:00,28.563262,77.186937,OZONE,7,101,27
India,Delhi,Delhi,"Rohini, Delhi - DPCC",25-01-2026 08:00:00,28.732528,77.119920,PM2.5,65,213,114
India,Delhi,Delhi,"Rohini, Delhi - DPCC",25-01-2026 08:00:00,28.732528,77.119920,PM10,119,219,151
India,Delhi,Delhi,"Shadipur, Delhi - CPCB",25-01-2026 08:00:00,28.6514781,77.1473105,SO2,6,22,16
India,Delhi,Delhi,"Sirifort, Delhi - CPCB",25-01-2026 08:00:00,28.5504249,77.2159377,NO2,25,29,27
India,Delhi,Delhi,"ITO, Delhi - CPCB",25-01-2026 08:00:00,28.628624,77.241060,PM2.5,60,172,103
India,Delhi,Delhi,"ITO, Delhi - CPCB",25-01-2026 08:00:00,28.628624,77.241060,CO,31,50,38
India,Delhi,Delhi,"Lodhi Road, Delhi - IMD",25-01-2026 08:00:00,28.5918245,77.2273074,PM10,108,192,142
India,Delhi,Delhi,"Lodhi Road, Delhi - IMD",25-01-2026 08:00:00,28.5918245,77.2273074,CO,40,49,44
India,Delhi,Delhi,"Major Dhyan Chand National Stadium, Delhi - DPCC",25-01-2026 08:00:00,28.611281,77.237738,PM2.5,33,95,62
India,Haryana,Ballabgarh,"Nathu Colony, Ballabgarh - HSPCB",25-01-2026 08:00:00,28.3419248,77.319699,PM10,161,335,244
India,Haryana,Ballabgarh,"Nathu Colony, Ballabgarh - HSPCB",25-01-2026 08:00:00,28.3419248,77.319699,NO2,19,21,20
India,Haryana,Ballabgarh,"Nathu Colony, Ballabgarh - HSPCB",25-01-2026 08:00:00,28.3419248,77.319699,NH3,3,3,3
India,Haryana,Bhiwani,"H.B. Colony, Bhiwani - HSPCB",25-01-2026 08:00:00,28.806223,76.141105,PM2.5,154,500,269
India,Haryana,Bhiwani,"H.B. Colony, Bhiwani - HSPCB",25-01-2026 08:00:00,28.806223,76.141105,NO2,1,34,31
India,Haryana,Charkhi Dadri,"Mini Secretariat, Charkhi Dadri - HSPCB",25-01-2026 08:00:00,28.593883,76.270653,PM10,60,142,96
India,Haryana,Charkhi Dadri,"Mini Secretariat, Charkhi Dadri - HSPCB",25-01-2026 08:00:00,28.593883,76.270653,OZONE,13,18,15
India,Haryana,Dharuhera,"Municipal Corporation Office, Dharuhera -  HSPCB",25-01-2026 08:00:00,28.206800,76.799700,PM10,62,110,89
India,Haryana,Dharuhera,"Municipal Corporation Office, Dharuhera -  HSPCB",25-01-2026 08:00:00,28.206800,76.799700,NH3,9,27,19
India,Haryana,Dharuhera,"Municipal Corporation Office, Dharuhera -  HSPCB",25-01-2026 08:00:00,28.206800,76.799700,CO,54,102,90
India,Haryana,Faridabad,"New Industrial Town, Faridabad - HSPCB",25-01-2026 08:00:00,28.39072,77.30059,NH3,10,12,11
India,Haryana,Faridabad,"Sector 11, Faridabad - HSPCB",25-01-2026 08:00:00,28.376058,77.315741,PM2.5,60,218,122
India,Haryana,Faridabad,"Sector 11, Faridabad - HSPCB",25-01-2026 08:00:00,28.376058,77.315741,PM10,60,139,102
India,Gujarat,Ahmedabad,"Rakhial, Ahmedabad - IITM",25-01-2026 08:00:00,23.016834,72.625775,CO,27,80,38
India,Gujarat,Ahmedabad,"SAC ISRO Bopal, Ahmedabad - IITM",25-01-2026 08:00:00,23.041137,72.456691,PM2.5,80,196,158
India,Gujarat,Ahmedabad,"SAC ISRO Bopal, Ahmedabad - IITM",25-01-2026 08:00:00,23.041137,72.456691,NO2,19,41,27
India,Gujarat,Ahmedabad,"SVPI Airport Hansol, Ahmedabad - IITM",25-01-2026 08:00:00,23.076793,72.627874,PM2.5,25,73,44
India,Gujarat,Ahmedabad,"SVPI Airport Hansol, Ahmedabad - IITM",25-01-2026 08:00:00,23.076793,72.627874,NH3,2,9,4
India,Gujarat,Ahmedabad,"SVPI Airport Hansol, Ahmedabad - IITM",25-01-2026 08:00:00,23.076793,72.627874,CO,16,54,30
India,Gujarat,Ankleshwar,"GIDC, Ankleshwar - GPCB",25-01-2026 08:00:00,21.613267,73.010555,NO2,16,17,16
India,Gujarat,Ankleshwar,"GIDC, Ankleshwar - GPCB",25-01-2026 08:00:00,21.613267,73.010555,SO2,22,23,22
India,Gujarat,Gandhinagar,"GIFT City, Gandhinagar - IITM",25-01-2026 08:00:00,23.163798,72.677768,PM2.5,31,125,74
India,Gujarat,Gandhinagar,"IIPHG Lekawada, Gandhinagar - IITM",25-01-2026 08:00:00,23.243639,72.68994,PM10,78,128,100
India,Gujarat,Gandhinagar,"IIPHG Lekawada, Gandhinagar - IITM",25-01-2026 08:00:00,23.243639,72.68994,NO2,9,31,16
India,Haryana,Yamuna Nagar,"Gobind Pura, Yamuna Nagar - HSPCB",25-01-2026 08:00:00,30.1480566,77.2893471,OZONE,8,34,11
India,Himachal Pradesh,Baddi,"HIMUDA Complex Phase-1, Baddi - HPPCB",25-01-2026 08:00:00,30.943887,76.801991,NO2,6,26,17
India,Jammu_and_Kashmir,Srinagar,"Rajbagh, Srinagar - JKPCC",25-01-2026 08:00:00,34.066206,74.819820,PM2.5,14,35,21
India,Jammu_and_Kashmir,Srinagar,"Rajbagh, Srinagar - JKPCC",25-01-2026 08:00:00,34.066206,74.819820,PM10,23,55,33
India,Jammu_and_Kashmir,Srinagar,"Rajbagh, Srinagar - JKPCC",25-01-2026 08:00:00,34.066206,74.819820,SO2,3,4,3
India,Jharkhand,Dhanbad,"Sardar Patel Nagar, Dhanbad - JSPCB",25-01-2026 08:00:00,23.80569,86.44268,CO,3,34,26
India,Karnataka,Bagalkot,"Vidayagiri, Bagalkot - KSPCB",25-01-2026 08:00:00,16.172806,75.659694,OZONE,12,12,12
India,Karnataka,Belgaum,"Ramteerth Nagar, Belgaum - KSPCB",25-01-2026 08:00:00,15.888653,74.541751,SO2,29,30,30
India,Karnataka,Bengaluru,"Jigani, Bengaluru - KSPCB",25-01-2026 08:00:00,12.7816279,77.6299145,PM10,60,102,79
India,Karnataka,Bengaluru,"Kasturi Nagar, Bengaluru - KSPCB",25-01-2026 08:00:00,13.003872,77.664217,NH3,4,4,4
India,Karnataka,Bengaluru,"Kasturi Nagar, Bengaluru - KSPCB",25-01-2026 08:00:00,13.003872,77.664217,OZONE,26,27,26
India,Karnataka,Bengaluru,"Peenya, Bengaluru - CPCB",25-01-2026 08:00:00,13.0270199,77.494094,PM10,67,103,89
India,Karnataka,Bengaluru,"Peenya, Bengaluru - CPCB",25-01-2026 08:00:00,13.0270199,77.494094,NO2,21,28,25
India,Karnataka,Bengaluru,"RVCE-Mailasandra, Bengaluru - KSPCB",25-01-2026 08:00:00,12.921418,77.502466,CO,14,28,21
India,Karnataka,Bengaluru,"Sanegurava Halli, Bengaluru - KSPCB",25-01-2026 08:00:00,12.990328,77.5431385,CO,21,37,28
India,Karnataka,Bengaluru,"Shivapura_Peenya, Bengaluru - KSPCB",25-01-2026 08:00:00,13.0246342,77.5080115,NH3,7,8,7
India,Karnataka,Bengaluru,"Shivapura_Peenya, Bengaluru - KSPCB",25-01-2026 08:00:00,13.0246342,77.5080115,CO,4,4,4
India,Karnataka,Bengaluru,"Silk Board, Bengaluru - KSPCB",25-01-2026 08:00:00,12.917348,77.622813,SO2,5,12,8
India,Haryana,Kaithal,"Rishi Nagar, Kaithal - HSPCB",25-01-2026 08:00:00,29.8006,76.4155,PM10,69,92,81
India,Haryana,Kaithal,"Rishi Nagar, Kaithal - HSPCB",25-01-2026 08:00:00,29.8006,76.4155,SO2,29,35,31
India,Haryana,Kaithal,"Rishi Nagar, Kaithal - HSPCB",25-01-2026 08:00:00,29.8006,76.4155,OZONE,6,24,7
India,Haryana,Karnal,"Sector-12, Karnal - HSPCB",25-01-2026 08:00:00,29.695300,77.002700,PM10,47,89,71
India,Haryana,Kurukshetra,"Sector-7, Kurukshetra - HSPCB",25-01-2026 08:00:00,29.966942,76.875879,SO2,5,25,12
India,Haryana,Kurukshetra,"Sector-7, Kurukshetra - HSPCB",25-01-2026 08:00:00,29.966942,76.875879,CO,4,20,18
India,Haryana,Mandikhera,"General Hospital, Mandikhera(Nuh) - HSPCB",25-01-2026 08:00:00,27.9002,76.9938,NO2,19,23,21
India,Haryana,Mandikhera,"General Hospital, Mandikhera(Nuh) - HSPCB",25-01-2026 08:00:00,27.9002,76.9938,CO,55,90,55
India,Haryana,Manesar,"Sector-2 IMT, Manesar - HSPCB",25-01-2026 08:00:00,28.360699,76.936090,PM2.5,99,281,161
India,Karnataka,Bengaluru,"BTM Layout, Bengaluru - CPCB",25-01-2026 08:00:00,12.9135218,77.5950804,NH3,NA,NA,NA
India,Karnataka,Bengaluru,"BTM Layout, Bengaluru - CPCB",25-01-2026 08:00:00,12.9135218,77.5950804,CO,NA,NA,NA
India,Karnataka,Bengaluru,"BWSSB Kadabesanahalli, Bengaluru - CPCB",25-01-2026 08:00:00,12.9352049,77.6814488,SO2,4,5,5
India,Karnataka,Bengaluru,"BWSSB Kadabesanahalli, Bengaluru - CPCB",25-01-2026 08:00:00,12.9352049,77.6814488,CO,26,38,37
India,Karnataka,Bengaluru,"Bapuji Nagar, Bengaluru - KSPCB",25-01-2026 08:00:00,12.951913,77.539784,CO,3,53,10
India,Karnataka,Bengaluru,"Hebbal, Bengaluru - KSPCB",25-01-2026 08:00:00,13.029152,77.585901,OZONE,6,10,7
India,Karnataka,Bengaluru,"Hombegowda Nagar, Bengaluru - KSPCB",25-01-2026 08:00:00,12.938539,77.590100,SO2,9,14,12
India,Karnataka,Bengaluru,"Jayanagar 5th Block, Bengaluru - KSPCB",25-01-2026 08:00:00,12.920984,77.584908,PM2.5,38,112,65
India,Karnataka,Bengaluru,"Jayanagar 5th Block, Bengaluru - KSPCB",25-01-2026 08:00:00,12.920984,77.584908,OZONE,44,72,62
India,Haryana,Narnaul,"Shastri Nagar, Narnaul - HSPCB",25-01-2026 08:00:00,28.060249,76.113115,CO,32,44,40
India,Haryana,Palwal,"Shyam Nagar, Palwal - HSPCB",25-01-2026 08:00:00,28.1485564,77.3320667,PM2.5,63,75,69
India,Haryana,Palwal,"Shyam Nagar, Palwal - HSPCB",25-01-2026 08:00:00,28.1485564,77.3320667,NH3,8,9,9
India,Haryana,Panchgaon,"Amity University, Panchgaon - IITM",25-01-2026 08:00:00,28.3153,76.9143,PM2.5,1,272,35
India,Haryana,Rohtak,"MD University, Rohtak - HSPCB",25-01-2026 08:00:00,28.52123,76.37138,NO2,11,12,11
India,Haryana,Rohtak,"MD University, Rohtak - HSPCB",25-01-2026 08:00:00,28.52123,76.37138,SO2,11,13,12
India,Haryana,Sonipat,"Murthal, Sonipat - HSPCB",25-01-2026 08:00:00,29.027200,77.062100,PM2.5,55,265,128
India,Haryana,Sonipat,"Murthal, Sonipat - HSPCB",25-01-2026 08:00:00,29.027200,77.062100,SO2,4,10,7
India,Haryana,Faridabad,"Sector 30, Faridabad - HSPCB",25-01-2026 08:00:00,28.4417,77.3217,NH3,10,12,11
India,Haryana,Fatehabad,"Huda Sector, Fatehabad - HSPCB",25-01-2026 08:00:00,29.503664,75.467934,OZONE,48,83,49
India,Haryana,Gurugram,"Sector-51, Gurugram - HSPCB",25-01-2026 08:00:00,28.4227,77.0667,NO2,6,15,9
India,Haryana,Gurugram,"Sector-51, Gurugram - HSPCB",25-01-2026 08:00:00,28.4227,77.0667,NH3,9,14,12
India,Haryana,Hisar,"Urban Estate-II, Hisar - HSPCB",25-01-2026 08:00:00,29.140560,75.744941,NO2,26,27,27
India,Haryana,Hisar,"Urban Estate-II, Hisar - HSPCB",25-01-2026 08:00:00,29.140560,75.744941,CO,28,45,30
India,Haryana,Hisar,"Urban Estate-II, Hisar - HSPCB",25-01-2026 08:00:00,29.140560,75.744941,OZONE,35,85,42
India,Haryana,Jind,"Police Lines, Jind - HSPCB",25-01-2026 08:00:00,29.307814,76.337619,SO2,1,2,2
India,Gujarat,Gandhinagar,"Sector-10, Gandhinagar - GPCB",25-01-2026 08:00:00,23.221714,72.654328,NH3,2,6,3
India,Gujarat,Gandhinagar,"Sector-10, Gandhinagar - GPCB",25-01-2026 08:00:00,23.221714,72.654328,OZONE,4,74,19
India,Gujarat,Vapi,"Phase-1 GIDC, Vapi - GPCB",25-01-2026 08:00:00,20.362421,72.918013,PM10,32,100,62
India,Gujarat,Vapi,"Phase-1 GIDC, Vapi - GPCB",25-01-2026 08:00:00,20.362421,72.918013,SO2,11,25,15
India,Gujarat,Vatva,"Phase-4 GIDC, Vatva - GPCB",25-01-2026 08:00:00,22.969611,72.643500,NO2,43,70,60
India,Gujarat,Vatva,"Phase-4 GIDC, Vatva - GPCB",25-01-2026 08:00:00,22.969611,72.643500,NH3,3,7,5
India,Gujarat,Vatva,"Phase-4 GIDC, Vatva - GPCB",25-01-2026 08:00:00,22.969611,72.643500,SO2,31,38,34
India,Haryana,Bahadurgarh,"Arya Nagar, Bahadurgarh - HSPCB",25-01-2026 08:00:00,28.6701,76.9254,PM2.5,54,308,187
India,Madhya Pradesh,Satna,"Bandhavgar Colony, Satna - Birla Cement",25-01-2026 08:00:00,24.58434363,80.8549414,SO2,19,23,21
India,Madhya Pradesh,Satna,"Bandhavgar Colony, Satna - Birla Cement",25-01-2026 08:00:00,24.58434363,80.8549414,OZONE,31,39,34
India,Madhya Pradesh,Singrauli,"Suryakiran Bhawan NCL, Singrauli - MPPCB",25-01-2026 08:00:00,24.108970,82.645580,PM2.5,169,449,316
India,Madhya Pradesh,Singrauli,"Suryakiran Bhawan NCL, Singrauli - MPPCB",25-01-2026 08:00:00,24.108970,82.645580,CO,30,112,62
India,Madhya Pradesh,Ujjain,"Mahashweta Nagar, Ujjain - MPPCB",25-01-2026 08:00:00,23.1633321,75.800225,NO2,19,44,31
India,Madhya Pradesh,Ujjain,"Mahashweta Nagar, Ujjain - MPPCB",25-01-2026 08:00:00,23.1633321,75.800225,SO2,1,13,4
India,Maharashtra,Ahmednagar,"Tarakpur, Ahmednagar - MPCB",25-01-2026 08:00:00,19.10122,74.73339,SO2,3,14,7
India,Maharashtra,Akola,"Ramdaspeth, Akola - MPCB",25-01-2026 08:00:00,20.719516,77.000253,NO2,11,96,35
India,Maharashtra,Amravati,"Shivneri Colony, Amravati - MPCB",25-01-2026 08:00:00,20.9402359,77.7895248,NO2,5,35,16
India,Karnataka,Bengaluru,"Silk Board, Bengaluru - KSPCB",25-01-2026 08:00:00,12.917348,77.622813,OZONE,33,74,38
India,Karnataka,Chamarajanagar,"Urban, Chamarajanagar - KSPCB",25-01-2026 08:00:00,11.55358,76.55521,NO2,24,30,28
India,Karnataka,Chikkamagaluru,"Kalyana Nagara, Chikkamagaluru - KSPCB",25-01-2026 08:00:00,13.328028,75.797056,OZONE,12,42,12
India,Karnataka,Davanagere,"Devaraj Urs Badavane, Davanagere - KSPCB",25-01-2026 08:00:00,14.475800,75.905200,NO2,24,35,28
India,Karnataka,Davanagere,"Devaraj Urs Badavane, Davanagere - KSPCB",25-01-2026 08:00:00,14.475800,75.905200,OZONE,19,21,20
India,Karnataka,Dharwad,"Kalabhavan, Dharwad - KSPCB",25-01-2026 08:00:00,15.459706,75.008381,PM10,86,119,103
India,Karnataka,Dharwad,"Kalabhavan, Dharwad - KSPCB",25-01-2026 08:00:00,15.459706,75.008381,CO,48,115,86
India,Karnataka,Dharwad,"Kalabhavan, Dharwad - KSPCB",25-01-2026 08:00:00,15.459706,75.008381,OZONE,17,17,17
India,Karnataka,Hubballi,"Lingaraj Nagar, Hubballi - KSPCB",25-01-2026 08:00:00,15.3714823,75.1160168,PM2.5,43,47,43
India,Karnataka,Kalaburagi,"Mahatma Basaveswar Colony, Kalaburgi - KSPCB",25-01-2026 08:00:00,17.336318,76.847397,NO2,13,23,16
India,Karnataka,Kalaburagi,"Mahatma Basaveswar Colony, Kalaburgi - KSPCB",25-01-2026 08:00:00,17.336318,76.847397,SO2,3,7,4
India,Karnataka,Madikeri,"Stuart Hill, Madikeri - KSPCB",25-01-2026 08:00:00,12.415911,75.735050,OZONE,2,6,3
India,Karnataka,Mysuru,"Hebbal 1st Stage, Mysuru - KSPCB",25-01-2026 08:00:00,12.21041,76.37376,CO,16,48,19
India,Karnataka,Ramanagara,"Vijay Nagar, Ramanagara - KSPCB",25-01-2026 08:00:00,12.733409,77.298051,PM2.5,31,155,69
India,Karnataka,Ramanagara,"Vijay Nagar, Ramanagara - KSPCB",25-01-2026 08:00:00,12.733409,77.298051,NH3,1,2,2
India,Karnataka,Ramanagara,"Vijay Nagar, Ramanagara - KSPCB",25-01-2026 08:00:00,12.733409,77.298051,SO2,11,19,15
India,Karnataka,Shivamogga,"Vinoba Nagara, Shivamogga - KSPCB",25-01-2026 08:00:00,13.940000,75.555917,PM10,35,53,41
India,Karnataka,Shivamogga,"Vinoba Nagara, Shivamogga - KSPCB",25-01-2026 08:00:00,13.940000,75.555917,SO2,3,7,5
India,Madhya Pradesh,Indore,"Chhoti Gwaltoli, Indore - MPPCB",25-01-2026 08:00:00,22.4310,75.5213,SO2,20,34,24
India,Madhya Pradesh,Indore,"Maguda Nagar, Indore - IMC",25-01-2026 08:00:00,22.7524,75.8872,NO2,10,57,34
India,Madhya Pradesh,Indore,"Maguda Nagar, Indore - IMC",25-01-2026 08:00:00,22.7524,75.8872,CO,8,30,29
India,Madhya Pradesh,Indore,"Regional Park, Indore - IMC",25-01-2026 08:00:00,22.6780,75.8559,PM2.5,49,92,70
India,Madhya Pradesh,Indore,"Regional Park, Indore - IMC",25-01-2026 08:00:00,22.6780,75.8559,CO,2,18,16
India,Madhya Pradesh,Indore,"Residency Area, Indore - IMC",25-01-2026 08:00:00,22.7084,75.8815,PM2.5,38,82,57
India,Madhya Pradesh,Indore,"Residency Area, Indore - IMC",25-01-2026 08:00:00,22.7084,75.8815,PM10,45,80,61
India,Madhya Pradesh,Indore,"Residency Area, Indore - IMC",25-01-2026 08:00:00,22.7084,75.8815,NO2,20,39,31
India,Madhya Pradesh,Indore,"Residency Area, Indore - IMC",25-01-2026 08:00:00,22.7084,75.8815,CO,22,36,32
India,Madhya Pradesh,Jabalpur,"Gupteshwar, Jabalpur - JMC",25-01-2026 08:00:00,23.142888,79.916147,CO,42,103,47
India,Madhya Pradesh,Jabalpur,"Suhagi, Jabalpur - JMC",25-01-2026 08:00:00,23.218135,79.957770,NO2,26,105,50
India,Madhya Pradesh,Jabalpur,"Suhagi, Jabalpur - JMC",25-01-2026 08:00:00,23.218135,79.957770,NH3,6,10,8
India,Madhya Pradesh,Jabalpur,"Suhagi, Jabalpur - JMC",25-01-2026 08:00:00,23.218135,79.957770,CO,49,130,55
India,Madhya Pradesh,Mandideep,"Sector-D Industrial Area, Mandideep - MPPCB",25-01-2026 08:00:00,23.108440,77.511428,PM2.5,95,276,185
India,Madhya Pradesh,Pithampur,"Sector-2 Industrial Area, Pithampur - MPPCB",25-01-2026 08:00:00,22.624758,75.675238,NO2,12,18,15
India,Madhya Pradesh,Pithampur,"Sector-2 Industrial Area, Pithampur - MPPCB",25-01-2026 08:00:00,22.624758,75.675238,NH3,2,3,3
India,Madhya Pradesh,Sagar,"Civil Lines, Sagar - MPPCB",25-01-2026 08:00:00,23.838586,78.759431,NH3,1,2,1
India,Madhya Pradesh,Sagar,"Deen Dayal Nagar, Sagar - MPPCB",25-01-2026 08:00:00,23.8640158,78.80289321,PM10,106,166,126
India,Karnataka,Tumakuru,"Thimmalapura, Tumakuru - KSPCB",25-01-2026 08:00:00,13.377516,77.099072,PM10,87,481,149
India,Karnataka,Tumakuru,"Thimmalapura, Tumakuru - KSPCB",25-01-2026 08:00:00,13.377516,77.099072,NO2,31,32,32
India,Karnataka,Yadgir,"Collector Office, Yadgir - KSPCB",25-01-2026 08:00:00,16.7602,77.1428,PM10,62,192,102
India,Kerala,Kannur,"Thavakkara, Kannur - Kerala PCB",25-01-2026 08:00:00,11.875000,75.373200,PM10,75,112,100
India,Kerala,Kannur,"Thavakkara, Kannur - Kerala PCB",25-01-2026 08:00:00,11.875000,75.373200,NH3,2,2,2
India,Kerala,Kollam,"Polayathode, Kollam - Kerala PCB",25-01-2026 08:00:00,8.8787,76.6073,PM2.5,41,232,120
India,Kerala,Kollam,"Polayathode, Kollam - Kerala PCB",25-01-2026 08:00:00,8.8787,76.6073,SO2,2,3,2
India,Kerala,Thiruvananthapuram,"Kariavattom, Thiruvananthapuram - Kerala PCB",25-01-2026 08:00:00,8.563700,76.886500,NO2,9,10,9
India,Maharashtra,Aurangabad,"MIDC Chilkalthana, Aurangabad - MPCB",25-01-2026 08:00:00,19.875620,75.387310,PM2.5,66,235,141
India,Maharashtra,Aurangabad,"MIDC Chilkalthana, Aurangabad - MPCB",25-01-2026 08:00:00,19.875620,75.387310,NO2,17,187,69
India,Maharashtra,Aurangabad,"More Chowk Waluj, Aurangabad - MPCB",25-01-2026 08:00:00,19.8389439,75.244448,PM2.5,59,105,73
India,Maharashtra,Aurangabad,"Rachnakar Colony, Aurangabad - MPCB",25-01-2026 08:00:00,19.863756,75.321188,PM10,69,411,149
India,Maharashtra,Badlapur,"Katrap, Badlapur - MPCB",25-01-2026 08:00:00,19.16485,73.23409,PM2.5,67,202,105
India,Maharashtra,Badlapur,"Katrap, Badlapur - MPCB",25-01-2026 08:00:00,19.16485,73.23409,NH3,3,7,6
India,Maharashtra,Belapur,"CBD Belapur, Belapur - MPCB",25-01-2026 08:00:00,19.0243902,73.0406721,SO2,1,23,14
India,Madhya Pradesh,Dewas,"Bhopal Chauraha, Dewas - MPPCB",25-01-2026 08:00:00,22.9682591,76.064118,NO2,37,75,64
India,Madhya Pradesh,Gwalior,"Maharaj Bada, Gwalior - MPPCB",25-01-2026 08:00:00,26.200388,78.147714,NO2,21,42,30
India,Madhya Pradesh,Indore,"Airport Area, Indore - IMC",25-01-2026 08:00:00,22.7289,75.8076,CO,1,17,15
India,Madhya Pradesh,Indore,"Chhoti Gwaltoli, Indore - MPPCB",25-01-2026 08:00:00,22.4310,75.5213,PM10,70,125,98
India,Madhya Pradesh,Bhopal,"Idgah Hills, Bhopal - MPPCB",25-01-2026 08:00:00,23.264759,77.381568,NO2,16,34,21
India,Madhya Pradesh,Bhopal,"Idgah Hills, Bhopal - MPPCB",25-01-2026 08:00:00,23.264759,77.381568,SO2,9,14,11
India,Madhya Pradesh,Bhopal,"Paryavaran Parisar, Bhopal - MPPCB",25-01-2026 08:00:00,23.210494,77.425409,PM10,96,199,140
India,Maharashtra,Jalna,"Old MIDC, Jalna - MPCB",25-01-2026 08:00:00,19.854616,75.905894,NH3,3,5,4
India,Maharashtra,Jalna,"Old MIDC, Jalna - MPCB",25-01-2026 08:00:00,19.854616,75.905894,CO,20,64,27
India,Maharashtra,Jalna,"Old MIDC, Jalna - MPCB",25-01-2026 08:00:00,19.854616,75.905894,OZONE,24,58,28
India,Maharashtra,Kalyan,"Khadakpada, Kalyan - MPCB",25-01-2026 08:00:00,19.25292,73.142019,PM10,65,134,96
India,Maharashtra,Kalyan,"Khadakpada, Kalyan - MPCB",25-01-2026 08:00:00,19.25292,73.142019,NO2,36,36,36
India,Maharashtra,Kalyan,"Pimpleshwar Mandir, Kalyan - MPCB",25-01-2026 08:00:00,19.192056,72.9585188,PM2.5,50,93,67
India,Maharashtra,Kalyan,"Pimpleshwar Mandir, Kalyan - MPCB",25-01-2026 08:00:00,19.192056,72.9585188,NH3,1,3,1
India,Maharashtra,Kalyan,"Pimpleshwar Mandir, Kalyan - MPCB",25-01-2026 08:00:00,19.192056,72.9585188,SO2,13,64,24
India,Maharashtra,Kolhapur,"Shivaji University, Kolhapur - MPCB",25-01-2026 08:00:00,16.6870449,74.2505872,PM10,54,126,84
India,Maharashtra,Kolhapur,"Shivaji University, Kolhapur - MPCB",25-01-2026 08:00:00,16.6870449,74.2505872,CO,10,58,29
India,Maharashtra,Kolhapur,"Sinchan Bhavan, Kolhapur - MPCB",25-01-2026 08:00:00,16.7143745,74.2426398,CO,NA,NA,NA
India,Maharashtra,Kolhapur,"Sinchan Bhavan, Kolhapur - MPCB",25-01-2026 08:00:00,16.7143745,74.2426398,OZONE,NA,NA,NA
India,Maharashtra,Latur,"Sawe Wadi, Latur - MPCB",25-01-2026 08:00:00,18.39963,76.57452,PM2.5,61,128,88
India,Maharashtra,Latur,"Sawe Wadi, Latur - MPCB",25-01-2026 08:00:00,18.39963,76.57452,PM10,63,123,89
India,Maharashtra,Latur,"Sawe Wadi, Latur - MPCB",25-01-2026 08:00:00,18.39963,76.57452,NH3,4,41,13
India,Maharashtra,Latur,"Sawe Wadi, Latur - MPCB",25-01-2026 08:00:00,18.39963,76.57452,CO,13,104,20
India,Maharashtra,Belapur,"CBD Belapur, Belapur - MPCB",25-01-2026 08:00:00,19.0243902,73.0406721,OZONE,1,55,7
India,Maharashtra,Bhiwandi,"Gokul Nagar, Bhiwandi - MPCB",25-01-2026 08:00:00,19.309073,73.057223,PM10,84,154,117
India,Maharashtra,Bhiwandi,"Gokul Nagar, Bhiwandi - MPCB",25-01-2026 08:00:00,19.309073,73.057223,NH3,4,5,4
India,Maharashtra,Bhiwandi,"Gokul Nagar, Bhiwandi - MPCB",25-01-2026 08:00:00,19.309073,73.057223,OZONE,15,75,16
India,Maharashtra,Chandrapur,"Chauhan Colony, Chandrapur - MPCB",25-01-2026 08:00:00,19.962900,79.298714,PM10,89,211,140
India,Maharashtra,Chandrapur,"Chauhan Colony, Chandrapur - MPCB",25-01-2026 08:00:00,19.962900,79.298714,NH3,2,2,2
India,Maharashtra,Chandrapur,"MIDC Khutala, Chandrapur - MPCB",25-01-2026 08:00:00,19.9775302,79.2337086,PM10,103,295,162
India,Maharashtra,Dhule,"Deopur, Dhule - MPCB",25-01-2026 08:00:00,20.918946,74.776388,CO,20,49,23
India,Maharashtra,Jalgaon,"Prabhat Colony, Jalgaon - MPCB",25-01-2026 08:00:00,21.001264,75.565602,PM10,57,139,94
India,Maharashtra,Mumbai,"Kandivali East, Mumbai - MPCB",25-01-2026 08:00:00,19.205800,72.868200,NH3,3,3,3
India,Maharashtra,Mumbai,"Kandivali East, Mumbai - MPCB",25-01-2026 08:00:00,19.205800,72.868200,SO2,23,27,25
India,Maharashtra,Mumbai,"Kandivali East, Mumbai - MPCB",25-01-2026 08:00:00,19.205800,72.868200,CO,19,20,20
India,Maharashtra,Mumbai,"Kandivali West, Mumbai - BMC",25-01-2026 08:00:00,19.215859,72.831718,PM2.5,49,68,59
India,Maharashtra,Mumbai,"Kherwadi_Bandra East, Mumbai - MPCB",25-01-2026 08:00:00,19.0632143,72.8456324,PM10,65,106,87
India,Maharashtra,Mumbai,"Kherwadi_Bandra East, Mumbai - MPCB",25-01-2026 08:00:00,19.0632143,72.8456324,CO,8,36,30
India,Maharashtra,Mumbai,"Kurla, Mumbai - MPCB",25-01-2026 08:00:00,19.0863,72.8888,SO2,36,37,37
India,Maharashtra,Mumbai,"Kurla, Mumbai - MPCB",25-01-2026 08:00:00,19.0863,72.8888,CO,10,17,16
India,Maharashtra,Mumbai,"Kurla, Mumbai - MPCB",25-01-2026 08:00:00,19.0863,72.8888,OZONE,28,29,28
India,Maharashtra,Mumbai,"Malad West, Mumbai - IITM",25-01-2026 08:00:00,19.19709,72.82204,PM10,86,127,104
India,Maharashtra,Mumbai,"Borivali East, Mumbai - MPCB",25-01-2026 08:00:00,19.2243333,72.8658113,PM2.5,21,42,35
India,Maharashtra,Mumbai,"Borivali East, Mumbai - MPCB",25-01-2026 08:00:00,19.2243333,72.8658113,OZONE,17,19,18
India,Maharashtra,Mumbai,"Byculla, Mumbai - BMC",25-01-2026 08:00:00,18.9767,72.8380,PM2.5,46,87,65
India,Maharashtra,Mumbai,"Byculla, Mumbai - BMC",25-01-2026 08:00:00,18.9767,72.8380,SO2,1,2,1
India,Maharashtra,Mumbai,"Chembur, Mumbai - MPCB",25-01-2026 08:00:00,19.0364585,72.8954371,NH3,12,17,14
India,Maharashtra,Mumbai,"Chembur, Mumbai - MPCB",25-01-2026 08:00:00,19.0364585,72.8954371,CO,24,62,52
India,Maharashtra,Mumbai,"Chhatrapati Shivaji Intl. Airport (T2), Mumbai - MPCB",25-01-2026 08:00:00,19.10078,72.87462,PM10,72,120,104
India,Maharashtra,Mumbai,"Colaba, Mumbai - MPCB",25-01-2026 08:00:00,18.910000,72.820000,PM2.5,37,135,61
India,Maharashtra,Mumbai,"Colaba, Mumbai - MPCB",25-01-2026 08:00:00,18.910000,72.820000,PM10,44,128,72
India,Maharashtra,Mumbai,"Mazgaon, Mumbai - IITM",25-01-2026 08:00:00,18.96702,72.84214,PM2.5,48,86,66
India,Maharashtra,Mumbai,"Mazgaon, Mumbai - IITM",25-01-2026 08:00:00,18.96702,72.84214,SO2,9,16,13
India,Maharashtra,Mumbai,"Mindspace-Malad West, Mumbai - MPCB",25-01-2026 08:00:00,19.1878657,72.8304069,NH3,2,14,5
India,Maharashtra,Mumbai,"Mindspace-Malad West, Mumbai - MPCB",25-01-2026 08:00:00,19.1878657,72.8304069,CO,18,51,28
India,Maharashtra,Mumbai,"Mulund West, Mumbai - MPCB",25-01-2026 08:00:00,19.1750,72.9419,PM2.5,41,67,54
India,Maharashtra,Mumbai,"Mulund West, Mumbai - MPCB",25-01-2026 08:00:00,19.1750,72.9419,SO2,NA,NA,NA
India,Maharashtra,Mumbai,"Navy Nagar-Colaba, Mumbai - IITM",25-01-2026 08:00:00,18.897756,72.813320,PM10,80,132,102
India,Maharashtra,Mumbai,"Navy Nagar-Colaba, Mumbai - IITM",25-01-2026 08:00:00,18.897756,72.813320,SO2,20,100,37
India,Maharashtra,Mumbai,"Sewri, Mumbai - BMC",25-01-2026 08:00:00,19.000084,72.856730,PM10,NA,NA,NA
India,Maharashtra,Nagpur,"Mahal, Nagpur - MPCB",25-01-2026 08:00:00,21.14472,79.107595,CO,32,115,114
India,Maharashtra,Nagpur,"Mahal, Nagpur - MPCB",25-01-2026 08:00:00,21.14472,79.107595,OZONE,10,40,17
India,Maharashtra,Nagpur,"Opp GPO Civil Lines, Nagpur - MPCB",25-01-2026 08:00:00,21.152875,79.0517531,SO2,8,38,16
India,Maharashtra,Nagpur,"Ram Nagar, Nagpur - MPCB",25-01-2026 08:00:00,21.143383,79.048912,PM10,128,195,166
India,Maharashtra,Nagpur,"Ram Nagar, Nagpur - MPCB",25-01-2026 08:00:00,21.143383,79.048912,NH3,4,4,4
India,Maharashtra,Nashik,"Gangapur Road, Nashik - MPCB",25-01-2026 08:00:00,20.0073285,73.7762427,NH3,3,3,3
India,Maharashtra,Nashik,"Hirawadi, Nashik - MPCB",25-01-2026 08:00:00,20.021503,73.813844,NO2,5,32,14
India,Maharashtra,Mumbai,"Shivaji Nagar, Mumbai - BMC",25-01-2026 08:00:00,19.060498,72.923356,PM10,80,136,106
India,Maharashtra,Mumbai,"Shivaji Nagar, Mumbai - BMC",25-01-2026 08:00:00,19.060498,72.923356,NH3,2,3,3
India,Maharashtra,Mumbai,"Sion, Mumbai - MPCB",25-01-2026 08:00:00,19.047000,72.874600,CO,10,17,16
India,Maharashtra,Mumbai,"Vile Parle West, Mumbai - MPCB",25-01-2026 08:00:00,19.10861,72.83622,NO2,11,11,11
India,Maharashtra,Nagpur,"Ambazari, Nagpur - MPCB",25-01-2026 08:00:00,21.121801,79.04952,PM10,110,175,143
India,Maharashtra,Nagpur,"Mahal, Nagpur - MPCB",25-01-2026 08:00:00,21.14472,79.107595,PM10,111,189,152
India,Maharashtra,Navi Mumbai,"Kopripada-Vashi, Navi Mumbai - MPCB",25-01-2026 08:00:00,19.090337,73.014232,SO2,2,10,4
India,Maharashtra,Navi Mumbai,"Mahape, Navi Mumbai - MPCB",25-01-2026 08:00:00,19.1135051,73.008978,PM2.5,53,77,63
India,Maharashtra,Navi Mumbai,"Nerul, Navi Mumbai - MPCB",25-01-2026 08:00:00,19.008751,73.016620,SO2,NA,NA,NA
India,Maharashtra,Navi Mumbai,"Sanpada, Navi Mumbai - MPCB",25-01-2026 08:00:00,19.0575752,73.0151367,SO2,10,26,16
India,Maharashtra,Navi Mumbai,"Sanpada, Navi Mumbai - MPCB",25-01-2026 08:00:00,19.0575752,73.0151367,OZONE,15,74,27
India,Maharashtra,Malegaon,"Mahesh Nagar, Malegaon - MPCB",25-01-2026 08:00:00,20.555712,74.529236,NO2,4,14,7
India,Maharashtra,Mumbai,"Bandra Kurla Complex, Mumbai - IITM",25-01-2026 08:00:00,19.053536,72.84643,NO2,NA,NA,NA
India,Maharashtra,Mumbai,"Bandra Kurla Complex, Mumbai - MPCB",25-01-2026 08:00:00,19.065931,72.862131,NH3,8,9,9
India,Maharashtra,Mumbai,"Bandra Kurla Complex, Mumbai - MPCB",25-01-2026 08:00:00,19.065931,72.862131,CO,14,20,16
India,Maharashtra,Thane,"Kasarvadavali, Thane - MPCB",25-01-2026 08:00:00,19.26777,72.97182,OZONE,1,60,11
India,Maharashtra,Ulhasnagar,"Sidhi Vinayak Nagar, Ulhasnagar - MPCB",25-01-2026 08:00:00,19.235581,73.159121,NO2,16,24,18
India,Maharashtra,Virar,"Bolinj, Virar - MPCB",25-01-2026 08:00:00,19.4458210,72.7988231,NO2,14,43,22
India,Maharashtra,Virar,"Bolinj, Virar - MPCB",25-01-2026 08:00:00,19.4458210,72.7988231,CO,18,62,34
India,Meghalaya,Shillong,"Lumpyngngad, Shillong - Meghalaya PCB",25-01-2026 08:00:00,25.5586,91.8985,CO,6,20,9
India,Mizoram,Aizawl,"Sikulpuikawn, Aizawl - Mizoram PCB",25-01-2026 08:00:00,23.7176342,92.7192841,PM2.5,53,59,56
India,Mizoram,Aizawl,"Sikulpuikawn, Aizawl - Mizoram PCB",25-01-2026 08:00:00,23.7176342,92.7192841,SO2,15,16,16
India,Mizoram,Aizawl,"Sikulpuikawn, Aizawl - Mizoram PCB",25-01-2026 08:00:00,23.7176342,92.7192841,CO,3,3,3
India,Nagaland,Kohima,"PWD Junction, Kohima - NPCB",25-01-2026 08:00:00,25.6635413,94.0989878,PM10,14,78,31
India,Nagaland,Kohima,"PWD Junction, Kohima - NPCB",25-01-2026 08:00:00,25.6635413,94.0989878,SO2,76,79,77
India,Nagaland,Kohima,"PWD Junction, Kohima - NPCB",25-01-2026 08:00:00,25.6635413,94.0989878,CO,4,26,6
India,Nagaland,Kohima,"PWD Junction, Kohima - NPCB",25-01-2026 08:00:00,25.6635413,94.0989878,OZONE,2,10,3
India,Odisha,Angul,"Hakimapada, Angul - OSPCB",25-01-2026 08:00:00,20.832874,85.104082,PM10,96,288,152
India,Odisha,Angul,"Hakimapada, Angul - OSPCB",25-01-2026 08:00:00,20.832874,85.104082,NO2,27,148,67
India,Maharashtra,Pune,"Savitribai Phule Pune University, Pune - MPCB",25-01-2026 08:00:00,18.547056,73.826908,PM10,69,115,97
India,Maharashtra,Pune,"Savitribai Phule Pune University, Pune - MPCB",25-01-2026 08:00:00,18.547056,73.826908,NH3,1,7,2
India,Maharashtra,Pune,"Transport Nagar-Nigdi, Pune - IITM",25-01-2026 08:00:00,18.664282,73.763966,NO2,NA,NA,NA
India,Maharashtra,Pune,"Transport Nagar-Nigdi, Pune - IITM",25-01-2026 08:00:00,18.664282,73.763966,CO,NA,NA,NA
India,Maharashtra,Pune,"Transport Nagar-Nigdi, Pune - IITM",25-01-2026 08:00:00,18.664282,73.763966,OZONE,NA,NA,NA
India,Maharashtra,Solapur,"Dnyaneshwar Nagar, Solapur - MPCB",25-01-2026 08:00:00,17.6336264,75.9132495,SO2,1,15,4
India,Maharashtra,Solapur,"Ratandeep Housing Society, Solapur - MPCB",25-01-2026 08:00:00,17.65439,75.90649,PM2.5,65,298,144
India,Maharashtra,Solapur,"Ratandeep Housing Society, Solapur - MPCB",25-01-2026 08:00:00,17.65439,75.90649,NH3,2,57,13
India,Maharashtra,Solapur,"Ratandeep Housing Society, Solapur - MPCB",25-01-2026 08:00:00,17.65439,75.90649,SO2,2,24,10
India,Maharashtra,Solapur,"Ratandeep Housing Society, Solapur - MPCB",25-01-2026 08:00:00,17.65439,75.90649,OZONE,2,315,20
India,Maharashtra,Thane,"Kasarvadavali, Thane - MPCB",25-01-2026 08:00:00,19.26777,72.97182,PM10,56,106,85
India,Maharashtra,Thane,"Kasarvadavali, Thane - MPCB",25-01-2026 08:00:00,19.26777,72.97182,CO,16,36,29
India,Maharashtra,Pune,"Bhosari, Pune - IITM",25-01-2026 08:00:00,18.640051,73.848956,OZONE,5,106,16
India,Maharashtra,Pune,"Bhumkar Nagar, Pune - IITM",25-01-2026 08:00:00,18.605770,73.749976,PM10,131,218,157
India,Maharashtra,Pune,"Bhumkar Nagar, Pune - IITM",25-01-2026 08:00:00,18.605770,73.749976,CO,17,118,55
India,Maharashtra,Pune,"Dhankawadi, Pune - IITM",25-01-2026 08:00:00,18.459883,73.852193,CO,1,86,29
India,Maharashtra,Pune,"Hadapsar, Pune - IITM",25-01-2026 08:00:00,18.501793,73.927532,PM2.5,NA,NA,NA
India,Maharashtra,Pune,"Katraj Dairy, Pune - MPCB",25-01-2026 08:00:00,18.454450,73.854155,CO,NA,NA,NA
India,Maharashtra,Pune,"Mhada Colony, Pune - IITM",25-01-2026 08:00:00,18.573040,73.927715,PM10,129,219,177
India,Maharashtra,Pune,"Panchawati_Pashan, Pune - IITM",25-01-2026 08:00:00,18.536457,73.805454,PM10,87,125,105
India,Maharashtra,Pune,"Panchawati_Pashan, Pune - IITM",25-01-2026 08:00:00,18.536457,73.805454,OZONE,2,34,2
India,Maharashtra,Pune,"Revenue Colony-Shivajinagar, Pune - IITM",25-01-2026 08:00:00,18.530085,73.849598,PM2.5,61,138,90
India,Maharashtra,Pune,"Revenue Colony-Shivajinagar, Pune - IITM",25-01-2026 08:00:00,18.530085,73.849598,PM10,41,490,139
India,Maharashtra,Navi Mumbai,"Tondare-Taloja, Navi Mumbai - MPCB",25-01-2026 08:00:00,19.0630,73.1209,PM2.5,66,125,81
India,Maharashtra,Navi Mumbai,"Tondare-Taloja, Navi Mumbai - MPCB",25-01-2026 08:00:00,19.0630,73.1209,SO2,3,4,4
India,Maharashtra,Parbhani,"Masoom Colony, Parbhani - MPCB",25-01-2026 08:00:00,19.265594,76.761463,PM2.5,60,128,92
India,Maharashtra,Parbhani,"Masoom Colony, Parbhani - MPCB",25-01-2026 08:00:00,19.265594,76.761463,PM10,74,125,100
India,Maharashtra,Pimpri-Chinchwad,"Gavalinagar, Pimpri Chinchwad - MPCB",25-01-2026 08:00:00,18.63673,73.82487,NO2,20,91,44
India,Maharashtra,Pimpri-Chinchwad,"Gavalinagar, Pimpri Chinchwad - MPCB",25-01-2026 08:00:00,18.63673,73.82487,OZONE,12,13,12
India,Maharashtra,Pimpri-Chinchwad,"Park Street Wakad, Pimpri Chinchwad - MPCB",25-01-2026 08:00:00,18.59051,73.77946,CO,30,91,58
India,Maharashtra,Pimpri-Chinchwad,"Savta Mali Nagar, Pimpri-Chinchwad - IITM",25-01-2026 08:00:00,18.614767,73.799516,PM2.5,69,179,122
India,Maharashtra,Pimpri-Chinchwad,"Savta Mali Nagar, Pimpri-Chinchwad - IITM",25-01-2026 08:00:00,18.614767,73.799516,OZONE,3,52,14
India,Maharashtra,Pimpri-Chinchwad,"Thergaon, Pimpri Chinchwad - MPCB",25-01-2026 08:00:00,18.616318,73.765797,PM2.5,42,323,91
India,Odisha,Brajrajnagar,"GM Office, Brajrajnagar - OSPCB",25-01-2026 08:00:00,21.8004996,83.8396977,SO2,20,24,22
India,Odisha,Byasanagar,"Ferro Chrome Colony, Byasanagar - OSPCB",25-01-2026 08:00:00,20.94185,86.11510,NO2,14,52,26
India,Odisha,Byasanagar,"Ferro Chrome Colony, Byasanagar - OSPCB",25-01-2026 08:00:00,20.94185,86.11510,NH3,2,3,3
India,Odisha,Cuttack,"CDA Area, Cuttack - OSPCB",25-01-2026 08:00:00,20.48891     ,85.84768     ,CO,50,102,71
India,Odisha,Keonjhar,"Jagamohanpur, Keonjhar - OSPCB",25-01-2026 08:00:00,21.643900,85.599355,SO2,6,18,11
India,Odisha,Rourkela,"Fertilizer Township, Rourkela - OSPCB",25-01-2026 08:00:00,22.18972222,84.86277778,NO2,11,11,11
India,Odisha,Rourkela,"Raghunathpali, Rourkela - OSPCB",25-01-2026 08:00:00,22.220833,84.809444,CO,32,112,94
India,Odisha,Angul,"Hakimapada, Angul - OSPCB",25-01-2026 08:00:00,20.832874,85.104082,CO,14,132,79
India,Odisha,Balasore,"Kalidaspur, Balasore - OSPCB",25-01-2026 08:00:00,21.51161,86.89088,PM2.5,93,223,142
India,Odisha,Baripada,"Meher Colony, Baripada - OSPCB",25-01-2026 08:00:00,21.941841,86.728318,PM10,75,154,117
India,Odisha,Bhubaneswar,"Lingraj Mandir, Bhubaneswar - OSPCB",25-01-2026 08:00:00,20.240790,85.836784,PM2.5,58,177,127
India,Odisha,Bhubaneswar,"Lingraj Mandir, Bhubaneswar - OSPCB",25-01-2026 08:00:00,20.240790,85.836784,SO2,11,21,15
India,Odisha,Bhubaneswar,"Patia, Bhubaneswar - OSPCB",25-01-2026 08:00:00,20.34652,85.81630,NH3,5,13,8
India,Odisha,Bileipada,"Tata Township, Bileipada - OSPCB",25-01-2026 08:00:00,22.06156703,85.47409613,PM2.5,116,344,224
India,Punjab,Jalandhar,"Civil Line, Jalandhar - PPCB",25-01-2026 08:00:00,31.321907,75.578914,OZONE,47,82,55
India,Punjab,Ludhiana,"Punjab Agricultural University, Ludhiana - PPCB",25-01-2026 08:00:00,30.9028,75.8086,CO,26,60,32
India,Punjab,Patiala,"Model Town, Patiala - PPCB",25-01-2026 08:00:00,30.349388,76.366642,PM2.5,42,55,48
India,Rajasthan,Ajmer,"Civil Lines,  Ajmer - RSPCB",25-01-2026 08:00:00,26.470859,74.646594,PM10,102,164,128
India,Rajasthan,Ajmer,"Civil Lines,  Ajmer - RSPCB",25-01-2026 08:00:00,26.470859,74.646594,SO2,3,13,6
India,Rajasthan,Alwar,"Moti Doongri, Alwar - RSPCB",25-01-2026 08:00:00,27.554793,76.611536,PM10,103,166,122
India,Rajasthan,Alwar,"Moti Doongri, Alwar - RSPCB",25-01-2026 08:00:00,27.554793,76.611536,OZONE,8,87,16
India,Rajasthan,Baran,"Bamboliya, Baran - RSPCB",25-01-2026 08:00:00,25.106006,76.469948,PM10,56,165,116
India,Rajasthan,Barmer,"Railway Colony, Barmer - RSPCB",25-01-2026 08:00:00,25.747299,71.393989,NH3,2,4,3
India,Rajasthan,Bharatpur,"Krishna Nagar, Bharatpur - RSPCB",25-01-2026 08:00:00,27.215415,77.50873,OZONE,2,95,38
India,Odisha,Suakati,"OMC Colony, Suakati - OSPCB",25-01-2026 08:00:00,21.606865,85.510538,NO2,8,8,8
India,Odisha,Suakati,"OMC Colony, Suakati - OSPCB",25-01-2026 08:00:00,21.606865,85.510538,OZONE,37,124,52
India,Odisha,Talcher,"Talcher Coalfields,Talcher - OSPCB",25-01-2026 08:00:00,20.9360711,85.1707021,PM10,63,355,172
India,Punjab,Jalandhar,"Civil Line, Jalandhar - PPCB",25-01-2026 08:00:00,31.321907,75.578914,SO2,18,19,19
India,Rajasthan,Pali,"Indira Colony Vistar, Pali - RSPCB",25-01-2026 08:00:00,25.771061, 73.340227,PM10,95,203,128
India,Rajasthan,Pali,"Indira Colony Vistar, Pali - RSPCB",25-01-2026 08:00:00,25.771061, 73.340227,CO,3,44,24
India,Rajasthan,Pratapgarh,"Pragati Nagar, Pratapgarh - RSPCB",25-01-2026 08:00:00,24.041198,74.780702,NO2,13,32,18
India,Rajasthan,Pratapgarh,"Pragati Nagar, Pratapgarh - RSPCB",25-01-2026 08:00:00,24.041198,74.780702,NH3,2,5,4
India,Rajasthan,Rajsamand,"Dhoinda, Rajsamand - RSPCB",25-01-2026 08:00:00,25.036360,73.883502,NO2,9,45,16
India,Rajasthan,Sawai Madhopur,"Sahu Nagar, Sawai Madhopur - RSPCB",25-01-2026 08:00:00,26.031443,76.359327,NH3,NA,NA,NA
India,Rajasthan,Sawai Madhopur,"Sahu Nagar, Sawai Madhopur - RSPCB",25-01-2026 08:00:00,26.031443,76.359327,CO,10,54,20
India,Rajasthan,Sikar,"Radhakishan Pura, Sikar - RSPCB",25-01-2026 08:00:00,27.608912,75.153302,PM10,104,374,162
India,Rajasthan,Sikar,"Radhakishan Pura, Sikar - RSPCB",25-01-2026 08:00:00,27.608912,75.153302,NO2,15,47,23
India,Rajasthan,Sikar,"Radhakishan Pura, Sikar - RSPCB",25-01-2026 08:00:00,27.608912,75.153302,OZONE,27,84,54
India,Rajasthan,Sri Ganganagar,"Old City, Sri Ganganagar - RSPCB",25-01-2026 08:00:00,29.931624,73.864511,NH3,1,7,3
India,Rajasthan,Sri Ganganagar,"Old City, Sri Ganganagar - RSPCB",25-01-2026 08:00:00,29.931624,73.864511,CO,34,112,48
India,Rajasthan,Tonk,"Shastri Nagar, Tonk - RSPCB",25-01-2026 08:00:00,26.159933,75.780517,NO2,15,74,27
India,Rajasthan,Tonk,"Shastri Nagar, Tonk - RSPCB",25-01-2026 08:00:00,26.159933,75.780517,OZONE,7,63,16
India,Rajasthan,Udaipur,"Ashok Nagar, Udaipur - RSPCB",25-01-2026 08:00:00,24.5886166,73.6321397,NH3,5,12,6
India,Rajasthan,Udaipur,"Ashok Nagar, Udaipur - RSPCB",25-01-2026 08:00:00,24.5886166,73.6321397,SO2,7,9,8
India,Rajasthan,Udaipur,"Ashok Nagar, Udaipur - RSPCB",25-01-2026 08:00:00,24.5886166,73.6321397,OZONE,16,64,48
India,TamilNadu,Chennai,"Arumbakkam, Chennai - TNPCB",25-01-2026 08:00:00,13.0664,80.2112 ,PM2.5,43,86,68
India,TamilNadu,Chennai,"Arumbakkam, Chennai - TNPCB",25-01-2026 08:00:00,13.0664,80.2112 ,PM10,54,112,84
India,TamilNadu,Chennai,"Kodungaiyur, Chennai - TNPCB",25-01-2026 08:00:00,13.1278,80.2642,PM10,42,95,64
India,Rajasthan,Dausa,"Khatikan Mohalla, Dausa - RSPCB",25-01-2026 08:00:00,26.895552,76.334753,NH3,4,24,8
India,Rajasthan,Dholpur,"Raja Ganj, Dholpur - RSPCB",25-01-2026 08:00:00,26.699557,77.898881,NH3,6,11,8
India,Rajasthan,Dungarpur,"Bhoiwada, Dungarpur - RSPCB",25-01-2026 08:00:00,23.837789,73.714926,PM10,64,150,102
India,Rajasthan,Dungarpur,"Bhoiwada, Dungarpur - RSPCB",25-01-2026 08:00:00,23.837789,73.714926,SO2,4,11,7
India,Rajasthan,Jaipur,"Adarsh Nagar, Jaipur - RSPCB",25-01-2026 08:00:00,26.902909,75.836858,NO2,20,68,38
India,Rajasthan,Jaipur,"Mansarovar Sector-12, Jaipur - RSPCB",25-01-2026 08:00:00,26.843698,75.766894,PM2.5,23,83,46
India,Rajasthan,Jaipur,"Mansarovar Sector-12, Jaipur - RSPCB",25-01-2026 08:00:00,26.843698,75.766894,PM10,81,169,128
India,Rajasthan,Jaipur,"Mansarovar Sector-12, Jaipur - RSPCB",25-01-2026 08:00:00,26.843698,75.766894,NO2,13,56,28
India,Rajasthan,Jaipur,"Mansarovar Sector-12, Jaipur - RSPCB",25-01-2026 08:00:00,26.843698,75.766894,CO,45,78,57
India,Rajasthan,Jaipur,"Mansarovar Sector-12, Jaipur - RSPCB",25-01-2026 08:00:00,26.843698,75.766894,OZONE,30,174,83
India,Rajasthan,Jaipur,"Police Commissionerate, Jaipur - RSPCB",25-01-2026 08:00:00,26.9164092,75.7994901,PM10,34,102,70
India,Rajasthan,Jaipur,"RIICO Sitapura, Jaipur - RSPCB",25-01-2026 08:00:00,26.786682,75.827928,NO2,19,90,36
India,Rajasthan,Jaipur,"Sector-2 Murlipura, Jaipur - RSPCB",25-01-2026 08:00:00,26.960669,75.771817,PM2.5,50,189,93
India,Rajasthan,Jaipur,"Sector-2 Murlipura, Jaipur - RSPCB",25-01-2026 08:00:00,26.960669,75.771817,NO2,14,78,38
India,Rajasthan,Jaipur,"Shastri Nagar, Jaipur - RSPCB",25-01-2026 08:00:00,26.9502929,75.730943,PM2.5,54,128,86
India,Rajasthan,Jaipur,"Shastri Nagar, Jaipur - RSPCB",25-01-2026 08:00:00,26.9502929,75.730943,PM10,83,148,118
India,Rajasthan,Jaisalmer,"Sadar Bazar, Jaisalmer - RSPCB",25-01-2026 08:00:00,26.912329,70.909168,NH3,5,7,6
India,Rajasthan,Jalore,"Mudtra Sili, Jalore - RSPCB",25-01-2026 08:00:00,25.344694,72.626208,PM2.5,15,88,46
India,TamilNadu,Coimbatore,"SIDCO Kurichi, Coimbatore - TNPCB",25-01-2026 08:00:00,10.942451,76.978996,NH3,1,3,2
India,TamilNadu,Cuddalore,"Kudikadu, Cuddalore - TNPCB",25-01-2026 08:00:00,11.6829898,79.7532099,NO2,19,20,19
India,TamilNadu,Madurai,"Uchapatti, Madurai - TNPCB",25-01-2026 08:00:00,9.865935,78.022669,NH3,9,9,9
India,TamilNadu,Madurai,"Uchapatti, Madurai - TNPCB",25-01-2026 08:00:00,9.865935,78.022669,OZONE,1,2,1
India,TamilNadu,Perundurai,"SIPCOT Industrial Park, Perundurai - TNPCB",25-01-2026 08:00:00,11.258242,77.552761,PM2.5,27,27,27
India,TamilNadu,Perundurai,"SIPCOT Industrial Park, Perundurai - TNPCB",25-01-2026 08:00:00,11.258242,77.552761,CO,26,28,27
India,TamilNadu,Pudukottai,"SIPCOT Nathampannai, Pudukottai - TNPCB",25-01-2026 08:00:00,10.423417,78.784889,PM10,57,112,71
India,TamilNadu,Pudukottai,"SIPCOT Nathampannai, Pudukottai - TNPCB",25-01-2026 08:00:00,10.423417,78.784889,NH3,NA,NA,NA
India,Rajasthan,Jhalawar,"Rajlaxmi Nagar, Jhalawar - RSPCB",25-01-2026 08:00:00,24.588397,76.172782,NH3,4,6,5
India,Rajasthan,Jhunjhunu,"Indra Nagar, Jhunjhunu - RSPCB",25-01-2026 08:00:00,28.108988,75.386577,PM2.5,28,90,51
India,Rajasthan,Jhunjhunu,"Indra Nagar, Jhunjhunu - RSPCB",25-01-2026 08:00:00,28.108988,75.386577,NO2,21,95,33
India,Rajasthan,Jhunjhunu,"Indra Nagar, Jhunjhunu - RSPCB",25-01-2026 08:00:00,28.108988,75.386577,NH3,2,6,4
India,Rajasthan,Jhunjhunu,"Indra Nagar, Jhunjhunu - RSPCB",25-01-2026 08:00:00,28.108988,75.386577,CO,15,70,20
India,Rajasthan,Jodhpur,"Collectorate, Jodhpur - RSPCB",25-01-2026 08:00:00,26.268249,73.0193853,SO2,1,19,9
India,Rajasthan,Jodhpur,"Jhalamand, Jodhpur - RSPCB",25-01-2026 08:00:00,26.215415,73.070156,SO2,1,5,3
India,Rajasthan,Jodhpur,"Mandor, Jodhpur - RSPCB",25-01-2026 08:00:00,26.358805,73.047444,NO2,8,14,12
India,Rajasthan,Jodhpur,"Mandor, Jodhpur - RSPCB",25-01-2026 08:00:00,26.358805,73.047444,NH3,1,3,2
India,Rajasthan,Jodhpur,"Samrat Ashok Udhyan, Jodhpur - RSPCB",25-01-2026 08:00:00,26.253384,72.976571,OZONE,70,118,79
India,Rajasthan,Karauli,"Satyawati Vihar, Karauli - RSPCB",25-01-2026 08:00:00,26.506177,77.025989,NO2,28,47,36
India,Rajasthan,Karauli,"Satyawati Vihar, Karauli - RSPCB",25-01-2026 08:00:00,26.506177,77.025989,CO,32,46,35
India,Rajasthan,Kota,"Dhanmandi, Kota - RSPCB",25-01-2026 08:00:00,25.164090,75.858137,PM2.5,35,193,88
India,Rajasthan,Kota,"Dhanmandi, Kota - RSPCB",25-01-2026 08:00:00,25.164090,75.858137,SO2,5,12,6
India,Rajasthan,Kota,"Nayapura, Kota - RSPCB",25-01-2026 08:00:00,25.196024,75.855668,CO,27,68,30
India,Rajasthan,Kota,"Shrinath Puram, Kota - RSPCB",25-01-2026 08:00:00,25.14389,75.821256,PM2.5,59,167,107
India,Rajasthan,Kota,"Shrinath Puram, Kota - RSPCB",25-01-2026 08:00:00,25.14389,75.821256,OZONE,10,40,24
India,TamilNadu,Chennai,"Manali Village, Chennai - TNPCB",25-01-2026 08:00:00,13.1662,80.2584,NO2,4,10,5
India,TamilNadu,Chennai,"Manali, Chennai - CPCB",25-01-2026 08:00:00,13.164544,80.26285,SO2,4,18,12
India,TamilNadu,Chennai,"Manali, Chennai - CPCB",25-01-2026 08:00:00,13.164544,80.26285,OZONE,10,11,10
India,TamilNadu,Chennai,"Perungudi, Chennai - TNPCB",25-01-2026 08:00:00,12.9533,80.2357,SO2,1,10,5
India,TamilNadu,Chennai,"Royapuram, Chennai - TNPCB",25-01-2026 08:00:00,13.1036,80.2909,PM10,36,362,82
India,TamilNadu,Chennai,"Royapuram, Chennai - TNPCB",25-01-2026 08:00:00,13.1036,80.2909,NH3,NA,NA,NA
India,TamilNadu,Chennai,"Royapuram, Chennai - TNPCB",25-01-2026 08:00:00,13.1036,80.2909,SO2,5,7,6
India,TamilNadu,Chennai,"Royapuram, Chennai - TNPCB",25-01-2026 08:00:00,13.1036,80.2909,CO,44,61,54
India,Rajasthan,Bhiwadi,"RIICO Ind. Area III, Bhiwadi - RSPCB",25-01-2026 08:00:00,28.194909,76.862296,SO2,5,52,24
India,Rajasthan,Bhiwadi,"Vasundhara Nagar_UIT, Bhiwadi - RSPCB",25-01-2026 08:00:00,28.207266,76.829265,PM2.5,110,336,198
India,Rajasthan,Bhiwadi,"Vasundhara Nagar_UIT, Bhiwadi - RSPCB",25-01-2026 08:00:00,28.207266,76.829265,SO2,3,27,8
India,Rajasthan,Bikaner,"MM Ground, Bikaner - RSPCB",25-01-2026 08:00:00,28.018792,73.292658,PM10,106,414,167
India,Rajasthan,Churu,"Subash Chowk, Churu - RSPCB",25-01-2026 08:00:00,28.296139,74.961696,PM10,110,187,140
India,Rajasthan,Churu,"Subash Chowk, Churu - RSPCB",25-01-2026 08:00:00,28.296139,74.961696,CO,28,55,32
India,TamilNadu,Thoothukudi,"Meelavittan, Thoothukudi - TNPCB",25-01-2026 08:00:00,8.816428 ,78.099039,CO,20,48,34
India,TamilNadu,Thoothukudi,"Meelavittan, Thoothukudi - TNPCB",25-01-2026 08:00:00,8.816428 ,78.099039,OZONE,1,29,4
India,Telangana,Hyderabad,"Bollaram Industrial Area, Hyderabad - TSPCB",25-01-2026 08:00:00,17.540891,78.358528,PM2.5,83,187,137
India,Telangana,Hyderabad,"Bollaram Industrial Area, Hyderabad - TSPCB",25-01-2026 08:00:00,17.540891,78.358528,PM10,100,139,122
India,Telangana,Hyderabad,"Bollaram Industrial Area, Hyderabad - TSPCB",25-01-2026 08:00:00,17.540891,78.358528,NO2,16,41,30
India,Telangana,Hyderabad,"Bollaram Industrial Area, Hyderabad - TSPCB",25-01-2026 08:00:00,17.540891,78.358528,NH3,2,6,4
India,Telangana,Hyderabad,"Bollaram Industrial Area, Hyderabad - TSPCB",25-01-2026 08:00:00,17.540891,78.358528,CO,16,42,26
India,Telangana,Hyderabad,"Central University, Hyderabad - TSPCB",25-01-2026 08:00:00,17.460103,78.334361,PM2.5,52,88,72
India,Telangana,Hyderabad,"Central University, Hyderabad - TSPCB",25-01-2026 08:00:00,17.460103,78.334361,NH3,2,5,4
India,Telangana,Hyderabad,"ECIL Kapra, Hyderabad - TSPCB",25-01-2026 08:00:00,17.470431,78.566959,NO2,17,49,31
India,Telangana,Hyderabad,"ICRISAT Patancheru, Hyderabad - TSPCB",25-01-2026 08:00:00,17.518400,78.278777,NO2,1,78,13
India,Telangana,Hyderabad,"ICRISAT Patancheru, Hyderabad - TSPCB",25-01-2026 08:00:00,17.518400,78.278777,CO,10,36,31
India,Telangana,Hyderabad,"IDA Pashamylaram, Hyderabad - TSPCB",25-01-2026 08:00:00,17.5316895,78.218939,PM10,49,80,65
India,Uttar_Pradesh,Meerut,"Pallavpuram Phase 2, Meerut - UPPCB",25-01-2026 08:00:00,29.063510,77.709723,NO2,4,64,16
India,Uttar_Pradesh,Meerut,"Pallavpuram Phase 2, Meerut - UPPCB",25-01-2026 08:00:00,29.063510,77.709723,OZONE,12,69,19
India,Uttar_Pradesh,Moradabad,"Buddhi Vihar, Moradabad - UPPCB",25-01-2026 08:00:00,28.83526,78.74460,PM10,NA,NA,NA
India,Uttar_Pradesh,Moradabad,"Buddhi Vihar, Moradabad - UPPCB",25-01-2026 08:00:00,28.83526,78.74460,NO2,NA,NA,NA
India,Uttar_Pradesh,Moradabad,"Eco Herbal Park, Moradabad - UPPCB",25-01-2026 08:00:00,28.840739,78.697531,PM2.5,28,80,57
India,Uttar_Pradesh,Moradabad,"Eco Herbal Park, Moradabad - UPPCB",25-01-2026 08:00:00,28.840739,78.697531,SO2,8,14,11
India,Uttar_Pradesh,Moradabad,"Employment Office, Moradabad - UPPCB",25-01-2026 08:00:00,28.88528,78.73880,PM2.5,45,94,68
India,Uttar_Pradesh,Moradabad,"Employment Office, Moradabad - UPPCB",25-01-2026 08:00:00,28.88528,78.73880,NH3,4,4,4
India,Uttar_Pradesh,Moradabad,"Kashiram Nagar, Moradabad - UPPCB",25-01-2026 08:00:00,28.849399,78.742362,PM2.5,32,97,45
India,Uttar_Pradesh,Moradabad,"Transport Nagar, Moradabad - UPPCB",25-01-2026 08:00:00,28.802625,78.753728,PM10,34,76,51
India,Uttar_Pradesh,Lucknow,"Kendriya Vidyalaya, Lucknow - CPCB",25-01-2026 08:00:00,26.906111,80.948222,NO2,34,43,40
India,Uttar_Pradesh,Lucknow,"Kendriya Vidyalaya, Lucknow - CPCB",25-01-2026 08:00:00,26.906111,80.948222,NH3,12,18,15
India,Uttar_Pradesh,Lucknow,"Kendriya Vidyalaya, Lucknow - CPCB",25-01-2026 08:00:00,26.906111,80.948222,SO2,2,25,7
India,Uttar_Pradesh,Lucknow,"Lalbagh, Lucknow - CPCB",25-01-2026 08:00:00,26.8458805,80.9365541,PM2.5,32,397,159
India,Uttar_Pradesh,Lucknow,"Talkatora District Industries Center, Lucknow - CPCB",25-01-2026 08:00:00,26.83399722,80.8917361,PM2.5,95,289,195
India,Uttar_Pradesh,Lucknow,"Talkatora District Industries Center, Lucknow - CPCB",25-01-2026 08:00:00,26.83399722,80.8917361,NO2,37,45,40
India,Uttar_Pradesh,Meerut,"Ganga Nagar, Meerut - UPPCB",25-01-2026 08:00:00,28.999264,77.7590354,CO,14,32,24
India,Uttar_Pradesh,Meerut,"Jai Bhim Nagar, Meerut - UPPCB",25-01-2026 08:00:00,28.9535882,77.7622941,PM2.5,22,93,56
India,Uttar_Pradesh,Meerut,"Jai Bhim Nagar, Meerut - UPPCB",25-01-2026 08:00:00,28.9535882,77.7622941,NO2,8,21,14
India,Uttar_Pradesh,Meerut,"Jai Bhim Nagar, Meerut - UPPCB",25-01-2026 08:00:00,28.9535882,77.7622941,OZONE,15,79,27
India,Uttar_Pradesh,Kanpur,"FTI Kidwai Nagar, Kanpur - UPPCB",25-01-2026 08:00:00,26.428282,80.327067,NH3,5,5,5
India,Uttar_Pradesh,Kanpur,"NSI Kalyanpur, Kanpur - UPPCB",25-01-2026 08:00:00,26.509954,80.249612,PM10,83,134,108
India,Uttar_Pradesh,Kanpur,"NSI Kalyanpur, Kanpur - UPPCB",25-01-2026 08:00:00,26.509954,80.249612,SO2,21,23,22
India,Uttar_Pradesh,Kanpur,"NSI Kalyanpur, Kanpur - UPPCB",25-01-2026 08:00:00,26.509954,80.249612,CO,28,48,31
India,Uttar_Pradesh,Kanpur,"Nehru Nagar, Kanpur - UPPCB",25-01-2026 08:00:00,26.4703136,80.3229863,PM2.5,39,170,84
India,Uttar_Pradesh,Khurja,"Kalindi Kunj, Khurja - UPPCB",25-01-2026 08:00:00,28.2348927,77.8683002,PM2.5,2,44,17
India,Uttar_Pradesh,Lucknow,"Gomti Nagar, Lucknow - UPPCB",25-01-2026 08:00:00,26.868120,81.005119,PM10,30,102,54
India,Uttar_Pradesh,Lucknow,"Kendriya Vidyalaya, Lucknow - CPCB",25-01-2026 08:00:00,26.906111,80.948222,PM10,61,135,106
India,Uttar_Pradesh,Bulandshahr,"Yamunapuram, Bulandshahr - UPPCB",25-01-2026 08:00:00,28.406963,77.849831,SO2,4,21,12
India,Uttar_Pradesh,Firozabad,"Nagla Bhau, Firozabad - UPPCB",25-01-2026 08:00:00,27.168897,78.376960,NH3,2,2,2
India,Uttar_Pradesh,Firozabad,"Vibhab Nagar, Firozabad - UPPCB",25-01-2026 08:00:00,27.1594,78.3953,NO2,15,15,15
India,Uttar_Pradesh,Ghaziabad,"Indirapuram, Ghaziabad - UPPCB",25-01-2026 08:00:00,28.646233,77.358075,NH3,15,18,16
India,Uttar_Pradesh,Ghaziabad,"Indirapuram, Ghaziabad - UPPCB",25-01-2026 08:00:00,28.646233,77.358075,SO2,7,17,12
India,Uttar_Pradesh,Ghaziabad,"Indirapuram, Ghaziabad - UPPCB",25-01-2026 08:00:00,28.646233,77.358075,OZONE,9,23,14
India,Uttar_Pradesh,Ghaziabad,"Loni, Ghaziabad - UPPCB",25-01-2026 08:00:00,28.757294,77.278792,CO,NA,NA,NA
India,Uttar_Pradesh,Ghaziabad,"Sanjay Nagar, Ghaziabad - UPPCB",25-01-2026 08:00:00,28.685382,77.453839,OZONE,10,48,20
India,Uttar_Pradesh,Gorakhpur,"Madan Mohan Malaviya University of Technology, Gorakhpur - UPPCB",25-01-2026 08:00:00,26.730136,83.433859,PM2.5,67,150,96
India,Uttar_Pradesh,Gorakhpur,"Madan Mohan Malaviya University of Technology, Gorakhpur - UPPCB",25-01-2026 08:00:00,26.730136,83.433859,NH3,1,1,1
India,Uttar_Pradesh,Greater Noida,"Knowledge Park - III, Greater Noida - UPPCB",25-01-2026 08:00:00,28.47272,77.482000,PM10,106,202,149
India,Uttar_Pradesh,Hapur,"Anand Vihar, Hapur - UPPCB",25-01-2026 08:00:00,28.725645,77.749675,PM2.5,26,71,48
India,Uttar_Pradesh,Hapur,"Anand Vihar, Hapur - UPPCB",25-01-2026 08:00:00,28.725645,77.749675,NH3,6,17,8
India,Uttar_Pradesh,Hapur,"Anand Vihar, Hapur - UPPCB",25-01-2026 08:00:00,28.725645,77.749675,SO2,19,32,26
India,Uttar_Pradesh,Jhansi,"Shivaji Nagar, Jhansi - UPPCB",25-01-2026 08:00:00,25.4547,78.6039,PM2.5,30,104,67
India,Telangana,Hyderabad,"Zoo Park, Hyderabad - TSPCB",25-01-2026 08:00:00,17.349694,78.451437,NO2,8,17,13
India,Telangana,Hyderabad,"Zoo Park, Hyderabad - TSPCB",25-01-2026 08:00:00,17.349694,78.451437,SO2,2,11,7
India,Telangana,Hyderabad,"Zoo Park, Hyderabad - TSPCB",25-01-2026 08:00:00,17.349694,78.451437,CO,6,71,14
India,Uttar_Pradesh,Agra,"Manoharpur, Agra - UPPCB",25-01-2026 08:00:00,27.23711,78.01936,CO,19,29,21
India,Uttar_Pradesh,Agra,"Manoharpur, Agra - UPPCB",25-01-2026 08:00:00,27.23711,78.01936,OZONE,6,18,8
India,Uttar_Pradesh,Agra,"Rohta, Agra - UPPCB",25-01-2026 08:00:00,27.106972,78.000111,PM2.5,26,98,44
India,Uttar_Pradesh,Agra,"Rohta, Agra - UPPCB",25-01-2026 08:00:00,27.106972,78.000111,SO2,7,13,9
India,Uttar_Pradesh,Agra,"Sanjay Palace, Agra - UPPCB",25-01-2026 08:00:00,27.19865833,78.00598056,PM2.5,32,217,83
India,Uttar_Pradesh,Agra,"Sector-3B Avas Vikas Colony, Agra - UPPCB",25-01-2026 08:00:00,27.19412,77.96237,PM2.5,41,146,77
India,Uttar_Pradesh,Agra,"Shahjahan Garden, Agra - UPPCB",25-01-2026 08:00:00,27.169338,78.03582,PM10,101,159,126
India,Uttar_Pradesh,Agra,"Shastripuram, Agra - UPPCB",25-01-2026 08:00:00,27.19862,77.92066,CO,10,20,11
India,Uttar_Pradesh,Baghpat,"Sardar Patel Inter College, Baghpat - UPPCB",25-01-2026 08:00:00,28.964949,77.278761,PM2.5,28,71,51
India,Uttar_Pradesh,Baghpat,"Sardar Patel Inter College, Baghpat - UPPCB",25-01-2026 08:00:00,28.964949,77.278761,NO2,7,13,10
India,Uttar_Pradesh,Bareilly,"Civil Lines, Bareilly - UPPCB",25-01-2026 08:00:00,28.359581,79.414455,SO2,33,47,40
India,Telangana,Hyderabad,"IDA Pashamylaram, Hyderabad - TSPCB",25-01-2026 08:00:00,17.5316895,78.218939,OZONE,11,14,14
India,Telangana,Hyderabad,"Kokapet, Hyderabad - TSPCB",25-01-2026 08:00:00,17.393559,78.339194,PM10,86,102,94
India,Telangana,Hyderabad,"Kokapet, Hyderabad - TSPCB",25-01-2026 08:00:00,17.393559,78.339194,CO,24,37,26
India,Telangana,Hyderabad,"Nacharam_TSIIC IALA, Hyderabad - TSPCB",25-01-2026 08:00:00,17.429398,78.569354,PM2.5,62,69,65
India,Telangana,Hyderabad,"Ramachandrapuram, Hyderabad - TSPCB",25-01-2026 08:00:00,17.528544,78.286195,PM10,66,83,80
India,Uttar_Pradesh,Noida,"Sector - 125, Noida - UPPCB",25-01-2026 08:00:00,28.5447608,77.3231257,NO2,20,64,42
India,Uttar_Pradesh,Noida,"Sector - 125, Noida - UPPCB",25-01-2026 08:00:00,28.5447608,77.3231257,NH3,3,3,3
India,Uttar_Pradesh,Noida,"Sector - 125, Noida - UPPCB",25-01-2026 08:00:00,28.5447608,77.3231257,SO2,7,17,12
India,Uttar_Pradesh,Noida,"Sector - 62, Noida - IMD",25-01-2026 08:00:00,28.6245479,77.3577104,NO2,11,20,14
India,Uttar_Pradesh,Noida,"Sector-1, Noida - UPPCB",25-01-2026 08:00:00,28.5898,77.3101,CO,22,64,36
India,Uttar_Pradesh,Noida,"Sector-1, Noida - UPPCB",25-01-2026 08:00:00,28.5898,77.3101,OZONE,2,23,10
India,Uttar_Pradesh,Noida,"Sector-116, Noida - UPPCB",25-01-2026 08:00:00,28.569230,77.393848,CO,18,54,33
India,Uttar_Pradesh,Noida,"Sector-116, Noida - UPPCB",25-01-2026 08:00:00,28.569230,77.393848,OZONE,18,100,38
India,Uttar_Pradesh,Prayagraj,"Jhunsi, Prayagraj - UPPCB",25-01-2026 08:00:00,25.425602,81.917152,PM10,61,131,93
India,Uttar_Pradesh,Prayagraj,"Jhunsi, Prayagraj - UPPCB",25-01-2026 08:00:00,25.425602,81.917152,NH3,5,5,5
India,Uttar_Pradesh,Prayagraj,"Motilal Nehru NIT, Prayagraj - UPPCB",25-01-2026 08:00:00,25.494,81.863,NH3,7,8,8
India,Uttar_Pradesh,Prayagraj,"Motilal Nehru NIT, Prayagraj - UPPCB",25-01-2026 08:00:00,25.494,81.863,OZONE,8,39,8
India,Uttar_Pradesh,Prayagraj,"Nagar Nigam, Prayagraj - UPPCB",25-01-2026 08:00:00,25.44919916 ,81.82735986 ,PM2.5,55,94,74
India,Uttar_Pradesh,Prayagraj,"Nagar Nigam, Prayagraj - UPPCB",25-01-2026 08:00:00,25.44919916 ,81.82735986 ,SO2,9,49,27
India,Uttar_Pradesh,Varanasi,"Ardhali Bazar, Varanasi - UPPCB",25-01-2026 08:00:00,25.3505986,82.9083074,SO2,10,13,11
India,Uttar_Pradesh,Varanasi,"IESD Banaras Hindu University, Varanasi - UPPCB",25-01-2026 08:00:00,25.262326,82.995408,PM2.5,41,180,95
India,Uttar_Pradesh,Varanasi,"IESD Banaras Hindu University, Varanasi - UPPCB",25-01-2026 08:00:00,25.262326,82.995408,SO2,29,31,30
India,Uttar_Pradesh,Varanasi,"Maldahiya, Varanasi - UPPCB",25-01-2026 08:00:00,25.32393,82.99687,PM10,68,116,95
India,Uttar_Pradesh,Varanasi,"Maldahiya, Varanasi - UPPCB",25-01-2026 08:00:00,25.32393,82.99687,SO2,28,29,28
India,Uttar_Pradesh,Vrindavan,"Omex Eternity, Vrindavan - UPPCB",25-01-2026 08:00:00,27.5714090,77.6557570,PM2.5,10,50,20
India,Uttar_Pradesh,Vrindavan,"Omex Eternity, Vrindavan - UPPCB",25-01-2026 08:00:00,27.5714090,77.6557570,NO2,27,27,27
India,Uttar_Pradesh,Vrindavan,"Omex Eternity, Vrindavan - UPPCB",25-01-2026 08:00:00,27.5714090,77.6557570,SO2,19,21,20
India,Uttar_Pradesh,Vrindavan,"Omex Eternity, Vrindavan - UPPCB",25-01-2026 08:00:00,27.5714090,77.6557570,OZONE,15,15,15
India,West_Bengal,Asansol,"Asansol Court Area, Asansol - WBPCB",25-01-2026 08:00:00,23.685297,86.945968,PM2.5,99,325,243
India,West_Bengal,Asansol,"Mahabir Colliery, Asansol - WBPCB",25-01-2026 08:00:00,23.6181830,87.1057180,NO2,11,24,17
India,West_Bengal,Asansol,"Mahabir Colliery, Asansol - WBPCB",25-01-2026 08:00:00,23.6181830,87.1057180,CO,60,130,104
India,West_Bengal,Asansol,"Trivenidevi Bhalotia College, Asansol - WBPCB",25-01-2026 08:00:00,23.616515,87.119133,NH3,5,8,7
India,West_Bengal,Asansol,"Trivenidevi Bhalotia College, Asansol - WBPCB",25-01-2026 08:00:00,23.616515,87.119133,CO,42,111,80
India,West_Bengal,Barrackpore,"SVSPA Campus, Barrackpore - WBPCB",25-01-2026 08:00:00,22.7605581,88.3617589,NO2,12,48,28
India,West_Bengal,Durgapur,"Mahishkapur Road_B-Zone, Durgapur - WBPCB",25-01-2026 08:00:00,23.567923,87.306843,CO,31,106,42
India,West_Bengal,Durgapur,"PCBL Residential Complex, Durgapur - WBPCB",25-01-2026 08:00:00,23.5087640,87.3544400,CO,60,113,79
India,West_Bengal,Durgapur,"Womens College_City Center, Durgapur - WBPCB",25-01-2026 08:00:00,23.549395,87.300496,PM10,125,298,187
India,West_Bengal,Durgapur,"Womens College_City Center, Durgapur - WBPCB",25-01-2026 08:00:00,23.549395,87.300496,CO,54,112,66
India,West_Bengal,Howrah,"Belur Math, Howrah - WBPCB",25-01-2026 08:00:00,22.629801,88.352017,PM10,107,434,190
India,West_Bengal,Howrah,"Belur Math, Howrah - WBPCB",25-01-2026 08:00:00,22.629801,88.352017,CO,18,118,72
India,West_Bengal,Howrah,"Botanical Garden, Howrah - WBPCB",25-01-2026 08:00:00,22.554954,88.292568,PM2.5,51,252,160
India,West_Bengal,Howrah,"Botanical Garden, Howrah - WBPCB",25-01-2026 08:00:00,22.554954,88.292568,CO,41,117,93
India,West_Bengal,Howrah,"Botanical Garden, Howrah - WBPCB",25-01-2026 08:00:00,22.554954,88.292568,OZONE,5,28,5
India,West_Bengal,Howrah,"Dasnagar, Howrah - WBPCB",25-01-2026 08:00:00,22.6025571,88.3105664,CO,7,140,64
India,West_Bengal,Howrah,"Padmapukur, Howrah - WBPCB",25-01-2026 08:00:00,22.5687319,88.2797276,PM2.5,76,330,209
India,West_Bengal,Howrah,"Padmapukur, Howrah - WBPCB",25-01-2026 08:00:00,22.5687319,88.2797276,PM10,124,401,205
India,West_Bengal,Kolkata,"Ballygunge, Kolkata - WBPCB",25-01-2026 08:00:00,22.5367507,88.3638022,CO,24,134,88
India,West_Bengal,Kolkata,"Bidhannagar, Kolkata - WBPCB",25-01-2026 08:00:00,22.58157048,88.41002457,SO2,7,50,14
India,West_Bengal,Kolkata,"Bidhannagar, Kolkata - WBPCB",25-01-2026 08:00:00,22.58157048,88.41002457,OZONE,13,56,14
India,West_Bengal,Kolkata,"Fort William, Kolkata - WBPCB",25-01-2026 08:00:00,22.556640,88.342674,PM2.5,63,320,202
India,West_Bengal,Kolkata,"Fort William, Kolkata - WBPCB",25-01-2026 08:00:00,22.556640,88.342674,CO,19,128,82
India,West_Bengal,Kolkata,"Jadavpur, Kolkata - WBPCB",25-01-2026 08:00:00,22.49929,88.36917,SO2,12,15,13
India,West_Bengal,Kolkata,"Jadavpur, Kolkata - WBPCB",25-01-2026 08:00:00,22.49929,88.36917,CO,14,116,92
India,West_Bengal,Kolkata,"Rabindra Bharati University, Kolkata - WBPCB",25-01-2026 08:00:00,22.627847,88.380669,CO,46,125,95
India,West_Bengal,Kolkata,"Rabindra Sarobar, Kolkata - WBPCB",25-01-2026 08:00:00,22.51106,88.35142,CO,43,115,79
India,West_Bengal,Kolkata,"Victoria, Kolkata - WBPCB",25-01-2026 08:00:00,22.5448082,88.3403691,NO2,37,52,43
India,Bihar,Muzaffarpur,"MIT-Daudpur Kothi, Muzaffarpur - BSPCB",25-01-2026 08:00:00,26.1403345,85.3650192,OZONE,16,61,16
India,Bihar,Muzaffarpur,"Muzaffarpur Collectorate, Muzaffarpur - BSPCB",25-01-2026 08:00:00,26.1209,85.3647,OZONE,8,23,8
India,Bihar,Patna,"DRM Office Danapur, Patna - BSPCB",25-01-2026 08:00:00,25.586562,85.043586,PM2.5,56,304,195
India,Bihar,Patna,"DRM Office Danapur, Patna - BSPCB",25-01-2026 08:00:00,25.586562,85.043586,PM10,72,318,168
India,Bihar,Patna,"DRM Office Danapur, Patna - BSPCB",25-01-2026 08:00:00,25.586562,85.043586,NH3,6,15,10
India,Bihar,Patna,"DRM Office Danapur, Patna - BSPCB",25-01-2026 08:00:00,25.586562,85.043586,CO,7,112,65
India,Bihar,Patna,"Govt. High School Shikarpur, Patna - BSPCB",25-01-2026 08:00:00,25.592539,85.227158,SO2,14,18,16
India,Bihar,Patna,"IGSC Planetarium Complex, Patna - BSPCB",25-01-2026 08:00:00,25.610369,85.132568,NO2,1,23,7
India,Bihar,Patna,"Muradpur, Patna - BSPCB",25-01-2026 08:00:00,25.619651,85.147382,NO2,6,10,7
India,Bihar,Patna,"Muradpur, Patna - BSPCB",25-01-2026 08:00:00,25.619651,85.147382,NH3,4,5,5
India,Bihar,Patna,"Muradpur, Patna - BSPCB",25-01-2026 08:00:00,25.619651,85.147382,CO,56,88,62
India,Bihar,Patna,"Rajbansi Nagar, Patna - BSPCB",25-01-2026 08:00:00,25.599486,85.113666,PM10,68,154,118
India,Bihar,Patna,"Rajbansi Nagar, Patna - BSPCB",25-01-2026 08:00:00,25.599486,85.113666,NH3,3,6,5
India,Bihar,Patna,"Samanpura, Patna - BSPCB",25-01-2026 08:00:00,25.596727,85.085624,PM10,100,220,155
India,Bihar,Purnia,"Mariam Nagar, Purnia - BSPCB",25-01-2026 08:00:00,25.366336,87.117468,PM10,65,111,92
India,Bihar,Purnia,"Mariam Nagar, Purnia - BSPCB",25-01-2026 08:00:00,25.366336,87.117468,CO,16,80,59
India,Bihar,Purnia,"Mariam Nagar, Purnia - BSPCB",25-01-2026 08:00:00,25.366336,87.117468,OZONE,19,46,21
India,Bihar,Rajgir,"Dangi Tola, Rajgir - BSPCB",25-01-2026 08:00:00,25.03280,85.41948,SO2,16,25,21
India,Bihar,Rajgir,"Dangi Tola, Rajgir - BSPCB",25-01-2026 08:00:00,25.03280,85.41948,OZONE,30,35,32
India,Bihar,Saharsa,"Police Line, Saharsa - BSPCB",25-01-2026 08:00:00,25.892357,86.590325,CO,38,44,40
India,Bihar,Samastipur,"DM Office_Kasipur, Samastipur - BSPCB",25-01-2026 08:00:00,25.859655,85.77944,NO2,8,9,8
India,Bihar,Sasaram,"Dada Peer, Sasaram - BSPCB",25-01-2026 08:00:00,24.952822,84.002396,PM2.5,22,78,45
India,Bihar,Sasaram,"Dada Peer, Sasaram - BSPCB",25-01-2026 08:00:00,24.952822,84.002396,SO2,1,5,3
India,Bihar,Siwan,"Chitragupta Nagar, Siwan - BSPCB",25-01-2026 08:00:00,26.2271665,84.3570427,NO2,1,4,3
India,Bihar,Siwan,"Chitragupta Nagar, Siwan - BSPCB",25-01-2026 08:00:00,26.2271665,84.3570427,NH3,1,2,1
India,Bihar,Katihar,"Mirchaibari, Katihar - BSPCB",25-01-2026 08:00:00,25.560083,87.553265,CO,63,102,71
India,Bihar,Manguraha,"Forest Rest House, Manguraha - BSPCB",25-01-2026 08:00:00,27.308328,84.531742,PM10,46,237,95
India,Bihar,Manguraha,"Forest Rest House, Manguraha - BSPCB",25-01-2026 08:00:00,27.308328,84.531742,NH3,1,1,1
India,Bihar,Manguraha,"Forest Rest House, Manguraha - BSPCB",25-01-2026 08:00:00,27.308328,84.531742,CO,16,33,33
India,Bihar,Manguraha,"Forest Rest House, Manguraha - BSPCB",25-01-2026 08:00:00,27.308328,84.531742,OZONE,9,11,10
India,Bihar,Munger,"Town Hall, Munger - BSPCB",25-01-2026 08:00:00,25.376776,86.471523,NO2,4,5,5
India,Bihar,Munger,"Town Hall, Munger - BSPCB",25-01-2026 08:00:00,25.376776,86.471523,NH3,5,7,6
India,Bihar,Muzaffarpur,"Buddha Colony, Muzaffarpur - BSPCB",25-01-2026 08:00:00,26.11442,85.39813,PM2.5,77,282,167
India,Bihar,Muzaffarpur,"Buddha Colony, Muzaffarpur - BSPCB",25-01-2026 08:00:00,26.11442,85.39813,OZONE,21,83,31
India,Bihar,Muzaffarpur,"MIT-Daudpur Kothi, Muzaffarpur - BSPCB",25-01-2026 08:00:00,26.1403345,85.3650192,PM2.5,88,110,94
India,Andhra_Pradesh,Amaravati,"Secretariat, Amaravati - APPCB",25-01-2026 08:00:00,16.5150833,80.5181667,PM10,42,378,149
India,Andhra_Pradesh,Amaravati,"Secretariat, Amaravati - APPCB",25-01-2026 08:00:00,16.5150833,80.5181667,NO2,21,40,26
India,Andhra_Pradesh,Amaravati,"Secretariat, Amaravati - APPCB",25-01-2026 08:00:00,16.5150833,80.5181667,CO,2,36,25
India,Andhra_Pradesh,Anantapur,"Gulzarpet, Anantapur - APPCB",25-01-2026 08:00:00,14.675886,77.593027,PM2.5,75,98,82
India,Andhra_Pradesh,Anantapur,"Gulzarpet, Anantapur - APPCB",25-01-2026 08:00:00,14.675886,77.593027,NH3,5,5,5
India,Andhra_Pradesh,Anantapur,"Gulzarpet, Anantapur - APPCB",25-01-2026 08:00:00,14.675886,77.593027,SO2,9,17,12
India,Andhra_Pradesh,Anantapur,"Gulzarpet, Anantapur - APPCB",25-01-2026 08:00:00,14.675886,77.593027,CO,18,45,22
India,Andhra_Pradesh,Anantapur,"Gulzarpet, Anantapur - APPCB",25-01-2026 08:00:00,14.675886,77.593027,OZONE,5,21,12
India,Andhra_Pradesh,Chittoor,"Gangineni Cheruvu, Chittoor - APPCB",25-01-2026 08:00:00,13.204880,79.097889,PM10,54,125,76
India,Andhra_Pradesh,Kadapa,"Yerramukkapalli, Kadapa - APPCB",25-01-2026 08:00:00,14.465052,78.824187,CO,8,20,15
India,Bihar,Buxar,"Charitra Van, Buxar - BSPCB",25-01-2026 08:00:00,25.567520,83.966379,PM2.5,83,250,149
India,Bihar,Buxar,"Charitra Van, Buxar - BSPCB",25-01-2026 08:00:00,25.567520,83.966379,NH3,3,3,3
India,Bihar,Buxar,"Charitra Van, Buxar - BSPCB",25-01-2026 08:00:00,25.567520,83.966379,SO2,2,57,26
India,Bihar,Chhapra,"Darshan Nagar, Chhapra - BSPCB",25-01-2026 08:00:00,25.7808257,84.7446768,PM10,116,335,219
India,Bihar,Chhapra,"Darshan Nagar, Chhapra - BSPCB",25-01-2026 08:00:00,25.7808257,84.7446768,NO2,NA,NA,NA
India,Bihar,Chhapra,"Darshan Nagar, Chhapra - BSPCB",25-01-2026 08:00:00,25.7808257,84.7446768,OZONE,17,22,20
India,Bihar,Gaya,"SFTI Kusdihra, Gaya - BSPCB",25-01-2026 08:00:00,24.762518,84.982348,PM2.5,NA,NA,NA
India,Bihar,Gaya,"SFTI Kusdihra, Gaya - BSPCB",25-01-2026 08:00:00,24.762518,84.982348,NO2,NA,NA,NA
India,Bihar,Katihar,"Mirchaibari, Katihar - BSPCB",25-01-2026 08:00:00,25.560083,87.553265,PM2.5,53,277,108
India,Bihar,Katihar,"Mirchaibari, Katihar - BSPCB",25-01-2026 08:00:00,25.560083,87.553265,PM10,55,159,95
India,Chandigarh,Chandigarh,"Sector 22, Chandigarh - CPCC",25-01-2026 08:00:00,30.735567,76.775714,NH3,12,16,14
India,Chandigarh,Chandigarh,"Sector-25, Chandigarh - CPCC",25-01-2026 08:00:00,30.751462,76.762879,NO2,7,13,9
India,Chandigarh,Chandigarh,"Sector-53, Chandigarh - CPCC",25-01-2026 08:00:00,30.719859,76.738637,NO2,19,64,37
India,Chandigarh,Chandigarh,"Sector-53, Chandigarh - CPCC",25-01-2026 08:00:00,30.719859,76.738637,NH3,4,7,6
India,Chhattisgarh,Bhilai,"Civic Center, Bhilai - Bhilai Steel Plant",25-01-2026 08:00:00,21.185571,81.343175,OZONE,9,12,11
India,Chhattisgarh,Bhilai,"Hathkhoj, Bhilai - CECB",25-01-2026 08:00:00,21.224231,81.408350,PM2.5,38,92,60
India,Chhattisgarh,Bhilai,"Hathkhoj, Bhilai - CECB",25-01-2026 08:00:00,21.224231,81.408350,NO2,27,69,49
India,Bihar,Aurangabad,"Gurdeo Nagar, Aurangabad - BSPCB",25-01-2026 08:00:00,24.75746,84.366208,NH3,1,2,2
India,Bihar,Aurangabad,"Gurdeo Nagar, Aurangabad - BSPCB",25-01-2026 08:00:00,24.75746,84.366208,SO2,9,17,13
India,Bihar,Begusarai,"Lohiyanagar, Begusarai - BSPCB",25-01-2026 08:00:00,25.42742023,86.13886079,PM10,63,155,115
India,Bihar,Bettiah,"Kamalnath Nagar, Bettiah - BSPCB",25-01-2026 08:00:00,26.80365,84.51954,PM10,62,135,93
India,Bihar,Bettiah,"Kamalnath Nagar, Bettiah - BSPCB",25-01-2026 08:00:00,26.80365,84.51954,CO,70,120,76
India,Bihar,Bettiah,"Kamalnath Nagar, Bettiah - BSPCB",25-01-2026 08:00:00,26.80365,84.51954,OZONE,22,24,23
India,Bihar,Bihar Sharif,"D M Colony, Bihar Sharif - BSPCB",25-01-2026 08:00:00,25.204762,85.514960,PM2.5,72,237,147
India,Andhra_Pradesh,Vijayawada,"Rajiv Nagar, Vijayawada - APPCB",25-01-2026 08:00:00,16.554731,80.649110,PM10,68,100,87
India,Andhra_Pradesh,Vijayawada,"Rajiv Nagar, Vijayawada - APPCB",25-01-2026 08:00:00,16.554731,80.649110,NH3,4,5,5
India,Andhra_Pradesh,Vijayawada,"Rajiv Nagar, Vijayawada - APPCB",25-01-2026 08:00:00,16.554731,80.649110,CO,5,46,40
India,Arunachal_Pradesh,Naharlagun,"Naharlagun, Naharlagun - APSPCB",25-01-2026 08:00:00,27.103358,93.679645,CO,12,55,24
India,Assam,Byrnihat,"Central Academy for SFS, Byrnihat - PCBA",25-01-2026 08:00:00,26.071318,91.87488,NO2,5,9,7
India,Assam,Guwahati,"LGBI Airport, Guwahati - PCBA",25-01-2026 08:00:00,26.10887,91.589544,CO,12,58,33
India,Assam,Nagaon,"Christianpatty, Nagaon - PCBA",25-01-2026 08:00:00,26.349082,92.68449,NH3,4,4,4
India,Assam,Nalbari,"Bata Chowk, Nalbari - PCBA",25-01-2026 08:00:00,26.446912,91.439057,NO2,13,15,14
India,Assam,Nalbari,"Bata Chowk, Nalbari - PCBA",25-01-2026 08:00:00,26.446912,91.439057,OZONE,8,16,16
India,Assam,Sivasagar,"Girls College, Sivasagar - PCBA",25-01-2026 08:00:00,26.987634,94.636574,PM10,38,97,69
India,Bihar,Araria,"Kharahiya Basti, Araria - BSPCB",25-01-2026 08:00:00,26.146529,87.454184,PM10,51,125,86
India,Bihar,Araria,"Kharahiya Basti, Araria - BSPCB",25-01-2026 08:00:00,26.146529,87.454184,SO2,NA,NA,NA
India,Bihar,Araria,"Kharahiya Basti, Araria - BSPCB",25-01-2026 08:00:00,26.146529,87.454184,OZONE,9,11,10
India,Andhra_Pradesh,Rajamahendravaram,"Anand Kala Kshetram, Rajamahendravaram - APPCB",25-01-2026 08:00:00,16.9872867,81.7363176,SO2,5,20,12
India,Andhra_Pradesh,Rajamahendravaram,"Anand Kala Kshetram, Rajamahendravaram - APPCB",25-01-2026 08:00:00,16.9872867,81.7363176,CO,27,51,36
India,Andhra_Pradesh,Vijayawada,"HB Colony, Vijayawada - APPCB",25-01-2026 08:00:00,16.536107,80.594233,CO,20,44,33
India,Andhra_Pradesh,Vijayawada,"Rajiv Gandhi Park, Vijayawada - APPCB",25-01-2026 08:00:00,16.509717,80.612222,NO2,46,81,58
India,Delhi,Delhi,"IHBAS, Dilshad Garden, Delhi - CPCB",25-01-2026 08:00:00,28.6811736,77.3025234,NH3,6,12,9
India,Delhi,Delhi,"IIT Delhi, Delhi - IITM",25-01-2026 08:00:00,28.542460,77.191651,PM10,124,195,146
India,Delhi,Delhi,"IIT Delhi, Delhi - IITM",25-01-2026 08:00:00,28.542460,77.191651,OZONE,4,61,17
India,Delhi,Delhi,"ITO, Delhi - CPCB",25-01-2026 08:00:00,28.628624,77.241060,NO2,33,60,46
India,Delhi,Delhi,"ITO, Delhi - CPCB",25-01-2026 08:00:00,28.628624,77.241060,NH3,1,2,2
India,Delhi,Delhi,"ITO, Delhi - CPCB",25-01-2026 08:00:00,28.628624,77.241060,SO2,3,17,9
India,Delhi,Delhi,"ITO, Delhi - CPCB",25-01-2026 08:00:00,28.628624,77.241060,OZONE,5,27,9
India,Delhi,Delhi,"Jahangirpuri, Delhi - DPCC",25-01-2026 08:00:00,28.732820,77.170633,PM2.5,63,353,164
India,Delhi,Delhi,"Jahangirpuri, Delhi - DPCC",25-01-2026 08:00:00,28.732820,77.170633,NO2,77,111,96
India,Delhi,Delhi,"Jawaharlal Nehru Stadium, Delhi - DPCC",25-01-2026 08:00:00,28.580280,77.233829,PM2.5,50,127,83
India,Delhi,Delhi,"Jawaharlal Nehru Stadium, Delhi - DPCC",25-01-2026 08:00:00,28.580280,77.233829,NH3,4,13,12
India,Delhi,Delhi,"Jawaharlal Nehru Stadium, Delhi - DPCC",25-01-2026 08:00:00,28.580280,77.233829,CO,44,80,51
India,Delhi,Delhi,"Major Dhyan Chand National Stadium, Delhi - DPCC",25-01-2026 08:00:00,28.611281,77.237738,SO2,5,13,9
India,Delhi,Delhi,"Major Dhyan Chand National Stadium, Delhi - DPCC",25-01-2026 08:00:00,28.611281,77.237738,CO,37,50,40
India,Delhi,Delhi,"Mandir Marg, Delhi - DPCC",25-01-2026 08:00:00,28.636429,77.201067,PM2.5,2,67,26
India,Delhi,Delhi,"CRRI Mathura Road, Delhi - IMD",25-01-2026 08:00:00,28.5512005,77.2735737,OZONE,4,40,6
India,Delhi,Delhi,"Chandni Chowk, Delhi - IITM",25-01-2026 08:00:00,28.656756,77.227234,NH3,7,13,11
India,Delhi,Delhi,"DTU, Delhi - CPCB",25-01-2026 08:00:00,28.7500499,77.1112615,PM10,104,187,128
India,Delhi,Delhi,"DTU, Delhi - CPCB",25-01-2026 08:00:00,28.7500499,77.1112615,SO2,30,35,32
India,Delhi,Delhi,"DTU, Delhi - CPCB",25-01-2026 08:00:00,28.7500499,77.1112615,OZONE,4,25,10
India,Delhi,Delhi,"Dr. Karni Singh Shooting Range, Delhi - DPCC",25-01-2026 08:00:00,28.498571,77.264840,PM10,121,205,156
India,Delhi,Delhi,"Dr. Karni Singh Shooting Range, Delhi - DPCC",25-01-2026 08:00:00,28.498571,77.264840,SO2,8,15,11
India,Delhi,Delhi,"Dwarka-Sector 8, Delhi - DPCC ",25-01-2026 08:00:00,28.5710274,77.0719006,OZONE,5,24,8
India,Delhi,Delhi,"IGI Airport (T3), Delhi - IMD",25-01-2026 08:00:00,28.5627763,77.1180053,CO,1,20,11
India,Delhi,Delhi,"IHBAS, Dilshad Garden, Delhi - CPCB",25-01-2026 08:00:00,28.6811736,77.3025234,PM2.5,44,133,78
India,Delhi,Delhi,"Rohini, Delhi - DPCC",25-01-2026 08:00:00,28.732528,77.119920,NO2,15,41,23
India,Delhi,Delhi,"Rohini, Delhi - DPCC",25-01-2026 08:00:00,28.732528,77.119920,SO2,8,16,11
India,Delhi,Delhi,"Shadipur, Delhi - CPCB",25-01-2026 08:00:00,28.6514781,77.1473105,PM2.5,32,54,44
India,Delhi,Delhi,"Sirifort, Delhi - CPCB",25-01-2026 08:00:00,28.5504249,77.2159377,NH3,2,6,4
India,Delhi,Delhi,"Sirifort, Delhi - CPCB",25-01-2026 08:00:00,28.5504249,77.2159377,CO,2,24,12
India,Delhi,Delhi,"Sirifort, Delhi - CPCB",25-01-2026 08:00:00,28.5504249,77.2159377,OZONE,12,19,12
India,Delhi,Delhi,"Sonia Vihar, Delhi - DPCC",25-01-2026 08:00:00,28.710508,77.249485,NH3,5,6,6
India,Delhi,Delhi,"Sonia Vihar, Delhi - DPCC",25-01-2026 08:00:00,28.710508,77.249485,CO,52,82,64
India,Delhi,Delhi,"Sonia Vihar, Delhi - DPCC",25-01-2026 08:00:00,28.710508,77.249485,OZONE,18,85,32
India,Delhi,Delhi,"Sri Aurobindo Marg, Delhi - DPCC",25-01-2026 08:00:00,28.531346,77.190156,SO2,8,13,11
India,Delhi,Delhi,"Vivek Vihar, Delhi - DPCC",25-01-2026 08:00:00,28.672342,77.315260,PM10,118,272,157
India,Delhi,Delhi,"Vivek Vihar, Delhi - DPCC",25-01-2026 08:00:00,28.672342,77.315260,CO,45,64,54
India,Delhi,Delhi,"Patparganj, Delhi - DPCC",25-01-2026 08:00:00,28.623763,77.287209,PM2.5,42,157,94
India,Delhi,Delhi,"Patparganj, Delhi - DPCC",25-01-2026 08:00:00,28.623763,77.287209,PM10,108,177,140
India,Delhi,Delhi,"Patparganj, Delhi - DPCC",25-01-2026 08:00:00,28.623763,77.287209,NH3,8,9,8
India,Delhi,Delhi,"Patparganj, Delhi - DPCC",25-01-2026 08:00:00,28.623763,77.287209,OZONE,10,102,34
India,Delhi,Delhi,"Punjabi Bagh, Delhi - DPCC",25-01-2026 08:00:00,28.674045,77.131023,NO2,30,52,37
India,Delhi,Delhi,"Punjabi Bagh, Delhi - DPCC",25-01-2026 08:00:00,28.674045,77.131023,NH3,4,5,4
India,Delhi,Delhi,"Punjabi Bagh, Delhi - DPCC",25-01-2026 08:00:00,28.674045,77.131023,OZONE,13,48,21
India,Delhi,Delhi,"Pusa, Delhi - DPCC",25-01-2026 08:00:00,28.639652,77.146275,PM2.5,70,230,136
India,Delhi,Delhi,"Pusa, Delhi - IMD",25-01-2026 08:00:00,28.636110,77.173332,PM10,50,216,138
India,Delhi,Delhi,"Pusa, Delhi - IMD",25-01-2026 08:00:00,28.636110,77.173332,OZONE,44,135,64
India,Delhi,Delhi,"R K Puram, Delhi - DPCC",25-01-2026 08:00:00,28.563262,77.186937,NH3,6,10,8
India,Chhattisgarh,Raipur,"AIIMS, Raipur - CECB",25-01-2026 08:00:00,21.258815,81.578979,NO2,46,55,52
India,Chhattisgarh,Raipur,"Bhatagaon New ISBT, Raipur - CECB",25-01-2026 08:00:00,21.219665,81.630094,PM10,NA,NA,NA
India,Chhattisgarh,Raipur,"Krishak Nagar, Raipur - CECB",25-01-2026 08:00:00,21.237755,81.705301,PM10,40,105,75
India,Chhattisgarh,Raipur,"Krishak Nagar, Raipur - CECB",25-01-2026 08:00:00,21.237755,81.705301,SO2,4,6,5
India,Chhattisgarh,Raipur,"Siltara Phase-II, Raipur - CECB",25-01-2026 08:00:00,21.371751,81.664929,PM10,73,161,114
India,Chhattisgarh,Raipur,"Siltara Phase-II, Raipur - CECB",25-01-2026 08:00:00,21.371751,81.664929,SO2,3,6,4
India,Delhi,Delhi,"Alipur, Delhi - DPCC",25-01-2026 08:00:00,28.815329,77.153010,PM2.5,47,312,94
India,Delhi,Delhi,"Alipur, Delhi - DPCC",25-01-2026 08:00:00,28.815329,77.153010,NO2,21,39,29
India,Delhi,Delhi,"Mandir Marg, Delhi - DPCC",25-01-2026 08:00:00,28.636429,77.201067,NO2,51,80,68
India,Delhi,Delhi,"Mandir Marg, Delhi - DPCC",25-01-2026 08:00:00,28.636429,77.201067,CO,70,92,74
India,Delhi,Delhi,"Mundka, Delhi - DPCC",25-01-2026 08:00:00,28.684678,77.076574,NO2,44,64,49
India,Delhi,Delhi,"Mundka, Delhi - DPCC",25-01-2026 08:00:00,28.684678,77.076574,OZONE,11,52,20
India,Delhi,Delhi,"NSIT Dwarka, Delhi - CPCB",25-01-2026 08:00:00,28.60909,77.0325413,CO,44,90,57
India,Delhi,Delhi,"Najafgarh, Delhi - DPCC",25-01-2026 08:00:00,28.570173,76.933762,NO2,11,96,76
India,Delhi,Delhi,"Nehru Nagar, Delhi - DPCC",25-01-2026 08:00:00,28.567890,77.250515,CO,18,116,39
India,Chhattisgarh,Bilaspur,"Mangala, Bilaspur - NTPC",25-01-2026 08:00:00,22.08815,82.13737,PM2.5,54,231,115
India,Chhattisgarh,Korba,"Rampur, Korba - CECB",25-01-2026 08:00:00,22.368195,82.746431,SO2,13,23,17
India,Chhattisgarh,Korba,"Urja Nagar, Korba - CECB",25-01-2026 08:00:00,22.348441,82.549611,CO,24,50,32
India,Chhattisgarh,Kunjemura,"OP Jindal School, Kunjemura - CECB",25-01-2026 08:00:00,22.126650,83.483212,PM10,88,401,167
India,Chhattisgarh,Kunjemura,"OP Jindal School, Kunjemura - CECB",25-01-2026 08:00:00,22.126650,83.483212,OZONE,1,79,2
India,Delhi,Delhi,"Wazirpur, Delhi - DPCC",25-01-2026 08:00:00,28.699793,77.165453,PM10,126,238,182
India,Gujarat,Ahmedabad,"Gyaspur, Ahmedabad - IITM",25-01-2026 08:00:00,22.977134,72.553024,PM2.5,58,141,98
India,Gujarat,Ahmedabad,"Gyaspur, Ahmedabad - IITM",25-01-2026 08:00:00,22.977134,72.553024,NH3,4,15,9
India,Gujarat,Ahmedabad,"Gyaspur, Ahmedabad - IITM",25-01-2026 08:00:00,22.977134,72.553024,OZONE,2,105,16
India,Gujarat,Ahmedabad,"Maninagar, Ahmedabad - GPCB",25-01-2026 08:00:00,23.002657,72.591912,PM10,80,153,107
India,Gujarat,Ahmedabad,"Maninagar, Ahmedabad - GPCB",25-01-2026 08:00:00,23.002657,72.591912,SO2,25,39,33
India,Delhi,Delhi,"Alipur, Delhi - DPCC",25-01-2026 08:00:00,28.815329,77.153010,SO2,5,10,7
India,Delhi,Delhi,"Anand Vihar, Delhi - DPCC",25-01-2026 08:00:00,28.647622,77.3158090,NO2,30,64,48
India,Delhi,Delhi,"Ashok Vihar, Delhi - DPCC",25-01-2026 08:00:00,28.695381,77.181665,PM10,114,211,162
India,Delhi,Delhi,"Ashok Vihar, Delhi - DPCC",25-01-2026 08:00:00,28.695381,77.181665,OZONE,19,76,30
India,Delhi,Delhi,"Bawana, Delhi - DPCC",25-01-2026 08:00:00,28.776200,77.051074,PM2.5,63,342,136
India,Haryana,Fatehabad,"Huda Sector, Fatehabad - HSPCB",25-01-2026 08:00:00,29.503664,75.467934,PM2.5,66,96,82
India,Haryana,Fatehabad,"Huda Sector, Fatehabad - HSPCB",25-01-2026 08:00:00,29.503664,75.467934,NH3,13,14,14
India,Haryana,Gurugram,"NISE Gwal Pahari, Gurugram - IMD",25-01-2026 08:00:00,28.422681,77.148944,PM10,110,214,158
India,Haryana,Gurugram,"NISE Gwal Pahari, Gurugram - IMD",25-01-2026 08:00:00,28.422681,77.148944,NO2,27,43,33
India,Haryana,Gurugram,"NISE Gwal Pahari, Gurugram - IMD",25-01-2026 08:00:00,28.422681,77.148944,CO,14,30,21
India,Haryana,Gurugram,"Sector-51, Gurugram - HSPCB",25-01-2026 08:00:00,28.4227,77.0667,PM2.5,121,258,190
India,Haryana,Gurugram,"Sector-51, Gurugram - HSPCB",25-01-2026 08:00:00,28.4227,77.0667,PM10,117,152,130
India,Haryana,Gurugram,"Sector-51, Gurugram - HSPCB",25-01-2026 08:00:00,28.4227,77.0667,SO2,3,6,4
India,Haryana,Gurugram,"Vikas Sadan, Gurugram - HSPCB",25-01-2026 08:00:00,28.4501238,77.0263051,PM2.5,95,324,241
India,Haryana,Gurugram,"Vikas Sadan, Gurugram - HSPCB",25-01-2026 08:00:00,28.4501238,77.0263051,PM10,92,196,149
India,Haryana,Hisar,"Urban Estate-II, Hisar - HSPCB",25-01-2026 08:00:00,29.140560,75.744941,PM10,60,74,65
India,Haryana,Hisar,"Urban Estate-II, Hisar - HSPCB",25-01-2026 08:00:00,29.140560,75.744941,NH3,10,11,11
India,Haryana,Jind,"Police Lines, Jind - HSPCB",25-01-2026 08:00:00,29.307814,76.337619,PM10,77,103,89
India,Haryana,Jind,"Police Lines, Jind - HSPCB",25-01-2026 08:00:00,29.307814,76.337619,NO2,30,47,40
India,Gujarat,Ahmedabad,"SAC ISRO Bopal, Ahmedabad - IITM",25-01-2026 08:00:00,23.041137,72.456691,OZONE,3,52,9
India,Gujarat,Ahmedabad,"SAC ISRO Satellite, Ahmedabad - IITM",25-01-2026 08:00:00,23.023389,72.515201,SO2,4,45,10
India,Gujarat,Ahmedabad,"SAC ISRO Satellite, Ahmedabad - IITM",25-01-2026 08:00:00,23.023389,72.515201,OZONE,1,32,11
India,Gujarat,Ahmedabad,"SVPI Airport Hansol, Ahmedabad - IITM",25-01-2026 08:00:00,23.076793,72.627874,NO2,15,77,36
India,Gujarat,Ankleshwar,"GIDC, Ankleshwar - GPCB",25-01-2026 08:00:00,21.613267,73.010555,NH3,5,5,5
India,Gujarat,Gandhinagar,"GIFT City, Gandhinagar - IITM",25-01-2026 08:00:00,23.163798,72.677768,PM10,100,159,130
India,Gujarat,Gandhinagar,"GIFT City, Gandhinagar - IITM",25-01-2026 08:00:00,23.163798,72.677768,NH3,5,10,7
India,Gujarat,Gandhinagar,"GIFT City, Gandhinagar - IITM",25-01-2026 08:00:00,23.163798,72.677768,OZONE,1,65,19
India,Gujarat,Gandhinagar,"IIPHG Lekawada, Gandhinagar - IITM",25-01-2026 08:00:00,23.243639,72.68994,OZONE,3,41,9
India,Gujarat,Gandhinagar,"Sector-10, Gandhinagar - GPCB",25-01-2026 08:00:00,23.221714,72.654328,NO2,25,65,34
India,Himachal Pradesh,Baddi,"HIMUDA Complex Phase-1, Baddi - HPPCB",25-01-2026 08:00:00,30.943887,76.801991,CO,36,78,63
India,Himachal Pradesh,Baddi,"HIMUDA Complex Phase-1, Baddi - HPPCB",25-01-2026 08:00:00,30.943887,76.801991,OZONE,7,64,14
India,Jammu_and_Kashmir,Srinagar,"Rajbagh, Srinagar - JKPCC",25-01-2026 08:00:00,34.066206,74.819820,OZONE,1,6,1
India,Jharkhand,Dhanbad,"Sardar Patel Nagar, Dhanbad - JSPCB",25-01-2026 08:00:00,23.80569,86.44268,SO2,NA,NA,NA
India,Karnataka,Bagalkot,"Vidayagiri, Bagalkot - KSPCB",25-01-2026 08:00:00,16.172806,75.659694,PM10,45,47,46
India,Karnataka,Bagalkot,"Vidayagiri, Bagalkot - KSPCB",25-01-2026 08:00:00,16.172806,75.659694,NO2,11,12,12
India,Karnataka,Belgaum,"Ramteerth Nagar, Belgaum - KSPCB",25-01-2026 08:00:00,15.888653,74.541751,PM2.5,40,203,75
India,Karnataka,Bengaluru,"BTM Layout, Bengaluru - CPCB",25-01-2026 08:00:00,12.9135218,77.5950804,PM10,NA,NA,NA
India,Haryana,Palwal,"Shyam Nagar, Palwal - HSPCB",25-01-2026 08:00:00,28.1485564,77.3320667,PM10,77,93,85
India,Haryana,Palwal,"Shyam Nagar, Palwal - HSPCB",25-01-2026 08:00:00,28.1485564,77.3320667,SO2,13,82,17
India,Haryana,Panchgaon,"Amity University, Panchgaon - IITM",25-01-2026 08:00:00,28.3153,76.9143,NH3,3,6,5
India,Haryana,Panipat,"Sector-18, Panipat - HSPCB",25-01-2026 08:00:00,29.432304,76.972765,NO2,31,32,31
India,Haryana,Panipat,"Sector-18, Panipat - HSPCB",25-01-2026 08:00:00,29.432304,76.972765,CO,17,26,25
India,Haryana,Rohtak,"MD University, Rohtak - HSPCB",25-01-2026 08:00:00,28.52123,76.37138,CO,30,40,34
India,Haryana,Sirsa,"F-Block, Sirsa - HSPCB",25-01-2026 08:00:00,29.536400,75.015800,PM2.5,41,123,85
India,Haryana,Sirsa,"F-Block, Sirsa - HSPCB",25-01-2026 08:00:00,29.536400,75.015800,SO2,3,20,12
India,Haryana,Yamuna Nagar,"Gobind Pura, Yamuna Nagar - HSPCB",25-01-2026 08:00:00,30.1480566,77.2893471,NH3,1,6,4
India,Haryana,Karnal,"Sector-12, Karnal - HSPCB",25-01-2026 08:00:00,29.695300,77.002700,NO2,6,7,6
India,Haryana,Karnal,"Sector-12, Karnal - HSPCB",25-01-2026 08:00:00,29.695300,77.002700,NH3,6,7,6
India,Haryana,Kurukshetra,"Sector-7, Kurukshetra - HSPCB",25-01-2026 08:00:00,29.966942,76.875879,PM2.5,62,96,82
India,Haryana,Kurukshetra,"Sector-7, Kurukshetra - HSPCB",25-01-2026 08:00:00,29.966942,76.875879,PM10,109,122,116
India,Haryana,Mandikhera,"General Hospital, Mandikhera(Nuh) - HSPCB",25-01-2026 08:00:00,27.9002,76.9938,NH3,12,14,13
India,Haryana,Manesar,"Sector-2 IMT, Manesar - HSPCB",25-01-2026 08:00:00,28.360699,76.936090,PM10,91,151,113
India,Haryana,Manesar,"Sector-2 IMT, Manesar - HSPCB",25-01-2026 08:00:00,28.360699,76.936090,NH3,10,12,11
India,Haryana,Narnaul,"Shastri Nagar, Narnaul - HSPCB",25-01-2026 08:00:00,28.060249,76.113115,PM2.5,72,173,120
India,Haryana,Narnaul,"Shastri Nagar, Narnaul - HSPCB",25-01-2026 08:00:00,28.060249,76.113115,NH3,16,27,20
India,Karnataka,Bengaluru,"Kasturi Nagar, Bengaluru - KSPCB",25-01-2026 08:00:00,13.003872,77.664217,PM2.5,64,65,65
India,Karnataka,Bengaluru,"Kasturi Nagar, Bengaluru - KSPCB",25-01-2026 08:00:00,13.003872,77.664217,CO,38,45,43
India,Karnataka,Bengaluru,"RVCE-Mailasandra, Bengaluru - KSPCB",25-01-2026 08:00:00,12.921418,77.502466,NO2,16,21,21
India,Karnataka,Bengaluru,"RVCE-Mailasandra, Bengaluru - KSPCB",25-01-2026 08:00:00,12.921418,77.502466,SO2,5,6,6
India,Karnataka,Bengaluru,"Sanegurava Halli, Bengaluru - KSPCB",25-01-2026 08:00:00,12.990328,77.5431385,NO2,17,18,18
India,Karnataka,Bengaluru,"Sanegurava Halli, Bengaluru - KSPCB",25-01-2026 08:00:00,12.990328,77.5431385,SO2,6,6,6
India,Karnataka,Bengaluru,"Shivapura_Peenya, Bengaluru - KSPCB",25-01-2026 08:00:00,13.0246342,77.5080115,PM2.5,20,35,25
India,Karnataka,Bengaluru,"Shivapura_Peenya, Bengaluru - KSPCB",25-01-2026 08:00:00,13.0246342,77.5080115,SO2,3,6,5
India,Karnataka,Bengaluru,"Silk Board, Bengaluru - KSPCB",25-01-2026 08:00:00,12.917348,77.622813,NO2,34,62,48
India,Gujarat,Gandhinagar,"Sector-10, Gandhinagar - GPCB",25-01-2026 08:00:00,23.221714,72.654328,CO,29,46,32
India,Gujarat,Surat,"Science Center, Surat - SMC",25-01-2026 08:00:00,21.170046,72.795405,NO2,17,77,40
India,Gujarat,Vapi,"Phase-1 GIDC, Vapi - GPCB",25-01-2026 08:00:00,20.362421,72.918013,PM2.5,18,82,42
India,Gujarat,Vapi,"Phase-1 GIDC, Vapi - GPCB",25-01-2026 08:00:00,20.362421,72.918013,NO2,1,3,1
India,Haryana,Ambala,"Patti Mehar, Ambala - HSPCB",25-01-2026 08:00:00,30.379589,76.778328,NH3,9,11,10
India,Haryana,Ambala,"Patti Mehar, Ambala - HSPCB",25-01-2026 08:00:00,30.379589,76.778328,CO,26,44,27
India,Haryana,Bahadurgarh,"Arya Nagar, Bahadurgarh - HSPCB",25-01-2026 08:00:00,28.6701,76.9254,CO,43,50,47
India,Haryana,Bhiwani,"H.B. Colony, Bhiwani - HSPCB",25-01-2026 08:00:00,28.806223,76.141105,CO,11,14,12
India,Haryana,Charkhi Dadri,"Mini Secretariat, Charkhi Dadri - HSPCB",25-01-2026 08:00:00,28.593883,76.270653,PM2.5,71,279,137
India,Haryana,Charkhi Dadri,"Mini Secretariat, Charkhi Dadri - HSPCB",25-01-2026 08:00:00,28.593883,76.270653,NO2,9,25,15
India,Haryana,Charkhi Dadri,"Mini Secretariat, Charkhi Dadri - HSPCB",25-01-2026 08:00:00,28.593883,76.270653,SO2,9,12,10
India,Haryana,Faridabad,"New Industrial Town, Faridabad - HSPCB",25-01-2026 08:00:00,28.39072,77.30059,NO2,24,27,25
India,Haryana,Faridabad,"Sector 11, Faridabad - HSPCB",25-01-2026 08:00:00,28.376058,77.315741,NO2,30,33,31
India,Haryana,Faridabad,"Sector 30, Faridabad - HSPCB",25-01-2026 08:00:00,28.4417,77.3217,PM2.5,64,226,133
India,Karnataka,Bengaluru,"BWSSB Kadabesanahalli, Bengaluru - CPCB",25-01-2026 08:00:00,12.9352049,77.6814488,OZONE,23,45,37
India,Karnataka,Bengaluru,"Bapuji Nagar, Bengaluru - KSPCB",25-01-2026 08:00:00,12.951913,77.539784,OZONE,17,29,24
India,Karnataka,Bengaluru,"Jayanagar 5th Block, Bengaluru - KSPCB",25-01-2026 08:00:00,12.920984,77.584908,PM10,54,135,90
India,Karnataka,Bengaluru,"Jayanagar 5th Block, Bengaluru - KSPCB",25-01-2026 08:00:00,12.920984,77.584908,CO,8,60,12
India,Karnataka,Bengaluru,"Jigani, Bengaluru - KSPCB",25-01-2026 08:00:00,12.7816279,77.6299145,PM2.5,42,59,50
India,Karnataka,Bengaluru,"Jigani, Bengaluru - KSPCB",25-01-2026 08:00:00,12.7816279,77.6299145,NH3,2,3,3
India,Karnataka,Vijayapura,"Ibrahimpur, Vijayapura - KSPCB",25-01-2026 08:00:00,16.802639,75.722694,NO2,11,12,11
India,Karnataka,Vijayapura,"Ibrahimpur, Vijayapura - KSPCB",25-01-2026 08:00:00,16.802639,75.722694,NH3,1,2,1
India,Karnataka,Yadgir,"Collector Office, Yadgir - KSPCB",25-01-2026 08:00:00,16.7602,77.1428,CO,2,32,14
India,Karnataka,Yadgir,"Collector Office, Yadgir - KSPCB",25-01-2026 08:00:00,16.7602,77.1428,OZONE,18,20,18
India,Kerala,Eloor,"Udyogamandal, Eloor - Kerala PCB",25-01-2026 08:00:00,10.073232,76.302765,NO2,NA,NA,NA
India,Kerala,Kannur,"Thavakkara, Kannur - Kerala PCB",25-01-2026 08:00:00,11.875000,75.373200,PM2.5,82,98,90
India,Kerala,Kannur,"Thavakkara, Kannur - Kerala PCB",25-01-2026 08:00:00,11.875000,75.373200,NO2,16,17,17
India,Kerala,Kollam,"Polayathode, Kollam - Kerala PCB",25-01-2026 08:00:00,8.8787,76.6073,NH3,1,1,1
India,Kerala,Thiruvananthapuram,"Kariavattom, Thiruvananthapuram - Kerala PCB",25-01-2026 08:00:00,8.563700,76.886500,NH3,1,1,1
India,Kerala,Thiruvananthapuram,"Kariavattom, Thiruvananthapuram - Kerala PCB",25-01-2026 08:00:00,8.563700,76.886500,CO,40,102,56
India,Kerala,Thiruvananthapuram,"Plammoodu, Thiruvananthapuram - Kerala PCB",25-01-2026 08:00:00,8.5149093,76.9435879,PM2.5,27,58,40
India,Madhya Pradesh,Jabalpur,"Suhagi, Jabalpur - JMC",25-01-2026 08:00:00,23.218135,79.957770,OZONE,48,95,53
