country,state,city,station,last_update,latitude,longitude,pollutant_id,min_value,max_value,avg_value
India,Bihar,Bhagalpur,"Mayaganj, Bhagalpur - BSPCB",22-02-2026 08:00:00,25.265194,87.012947,SO2,52,63,58
India,Bihar,Bhagalpur,"Mayaganj, Bhagalpur - BSPCB",22-02-2026 08:00:00,25.265194,87.012947,CO,79,96,88
India,Bihar,Bihar Sharif,"D M Colony, Bihar Sharif - BSPCB",22-02-2026 08:00:00,25.204762,85.514960,NO2,NA,NA,NA
India,Bihar,Bihar Sharif,"D M Colony, Bihar Sharif - BSPCB",22-02-2026 08:00:00,25.204762,85.514960,NH3,NA,NA,NA
India,Bihar,Buxar,"Charitra Van, Buxar - BSPCB",22-02-2026 08:00:00,25.567520,83.966379,PM2.5,50,113,72
India,Bihar,Buxar,"Charitra Van, Buxar - BSPCB",22-02-2026 08:00:00,25.567520,83.966379,OZONE,3,20,6
India,Bihar,Chhapra,"Darshan Nagar, Chhapra - BSPCB",22-02-2026 08:00:00,25.7808257,84.7446768,PM2.5,20,123,45
India,Bihar,Chhapra,"Darshan Nagar, Chhapra - BSPCB",22-02-2026 08:00:00,25.7808257,84.7446768,PM10,28,139,62
India,Bihar,Chhapra,"Darshan Nagar, Chhapra - BSPCB",22-02-2026 08:00:00,25.7808257,84.7446768,SO2,22,32,27
India,Bihar,Gaya,"Kareemganj, Gaya - BSPCB",22-02-2026 08:00:00,24.792403,84.992416,NO2,NA,NA,NA
India,Bihar,Gaya,"Kareemganj, Gaya - BSPCB",22-02-2026 08:00:00,24.792403,84.992416,NH3,1,2,1
India,Bihar,Gaya,"Kareemganj, Gaya - BSPCB",22-02-2026 08:00:00,24.792403,84.992416,SO2,44,47,45
India,Bihar,Patna,"DRM Office Danapur, Patna - BSPCB",22-02-2026 08:00:00,25.586562,85.043586,OZONE,8,34,8
India,Bihar,Patna,"Govt. High School Shikarpur, Patna - BSPCB",22-02-2026 08:00:00,25.592539,85.227158,NH3,4,6,5
India,Bihar,Patna,"Govt. High School Shikarpur, Patna - BSPCB",22-02-2026 08:00:00,25.592539,85.227158,SO2,3,6,5
India,Bihar,Patna,"IGSC Planetarium Complex, Patna - BSPCB",22-02-2026 08:00:00,25.610369,85.132568,SO2,1,23,14
India,Bihar,Patna,"Muradpur, Patna - BSPCB",22-02-2026 08:00:00,25.619651,85.147382,NO2,9,12,11
India,Bihar,Patna,"Rajbansi Nagar, Patna - BSPCB",22-02-2026 08:00:00,25.599486,85.113666,CO,28,56,42
India,Bihar,Patna,"Rajbansi Nagar, Patna - BSPCB",22-02-2026 08:00:00,25.599486,85.113666,OZONE,2,29,3
India,Bihar,Patna,"Samanpura, Patna - BSPCB",22-02-2026 08:00:00,25.596727,85.085624,PM2.5,51,86,72
India,Bihar,Patna,"Samanpura, Patna - BSPCB",22-02-2026 08:00:00,25.596727,85.085624,PM10,108,135,126
India,Bihar,Patna,"Samanpura, Patna - BSPCB",22-02-2026 08:00:00,25.596727,85.085624,NO2,36,48,42
India,Bihar,Patna,"Samanpura, Patna - BSPCB",22-02-2026 08:00:00,25.596727,85.085624,SO2,2,4,3
India,Bihar,Patna,"Samanpura, Patna - BSPCB",22-02-2026 08:00:00,25.596727,85.085624,OZONE,12,74,14
India,Arunachal_Pradesh,Naharlagun,"Naharlagun, Naharlagun - APSPCB",22-02-2026 08:00:00,27.103358,93.679645,NO2,7,8,7
India,Arunachal_Pradesh,Naharlagun,"Naharlagun, Naharlagun - APSPCB",22-02-2026 08:00:00,27.103358,93.679645,NH3,1,1,1
India,Assam,Byrnihat,"Central Academy for SFS, Byrnihat - PCBA",22-02-2026 08:00:00,26.071318,91.87488,PM10,67,149,93
India,Assam,Byrnihat,"Central Academy for SFS, Byrnihat - PCBA",22-02-2026 08:00:00,26.071318,91.87488,NO2,4,10,7
India,Assam,Byrnihat,"Central Academy for SFS, Byrnihat - PCBA",22-02-2026 08:00:00,26.071318,91.87488,NH3,2,4,4
India,Assam,Byrnihat,"Central Academy for SFS, Byrnihat - PCBA",22-02-2026 08:00:00,26.071318,91.87488,SO2,32,33,32
India,Assam,Guwahati,"LGBI Airport, Guwahati - PCBA",22-02-2026 08:00:00,26.10887,91.589544,SO2,3,34,20
India,Assam,Guwahati,"Pan Bazaar, Guwahati - PCBA",22-02-2026 08:00:00,26.187500,91.744194,NH3,1,1,1
India,Assam,Guwahati,"Railway Colony, Guwahati - PCBA",22-02-2026 08:00:00,26.181742,91.78063,NO2,3,4,3
India,Assam,Guwahati,"Railway Colony, Guwahati - PCBA",22-02-2026 08:00:00,26.181742,91.78063,SO2,24,26,25
India,Assam,Guwahati,"Railway Colony, Guwahati - PCBA",22-02-2026 08:00:00,26.181742,91.78063,CO,4,22,12
India,Bihar,Gaya,"SFTI Kusdihra, Gaya - BSPCB",22-02-2026 08:00:00,24.762518,84.982348,OZONE,10,54,12
India,Bihar,Hajipur,"Industrial Area, Hajipur - BSPCB",22-02-2026 08:00:00,25.697189,85.245900,PM2.5,74,168,118
India,Bihar,Hajipur,"Industrial Area, Hajipur - BSPCB",22-02-2026 08:00:00,25.697189,85.245900,PM10,86,176,125
India,Bihar,Katihar,"Mirchaibari, Katihar - BSPCB",22-02-2026 08:00:00,25.560083,87.553265,PM2.5,38,68,50
India,Bihar,Katihar,"Mirchaibari, Katihar - BSPCB",22-02-2026 08:00:00,25.560083,87.553265,CO,52,77,67
India,Bihar,Kishanganj,"SDM Office_Khagra, Kishanganj - BSPCB",22-02-2026 08:00:00,26.0881305,87.93840336,OZONE,31,33,32
India,Bihar,Manguraha,"Forest Rest House, Manguraha - BSPCB",22-02-2026 08:00:00,27.308328,84.531742,PM2.5,50,227,90
India,Bihar,Motihari,"Gandak Colony, Motihari - BSPCB",22-02-2026 08:00:00,26.63086,84.90051,PM10,30,137,77
India,Bihar,Aurangabad,"Gurdeo Nagar, Aurangabad - BSPCB",22-02-2026 08:00:00,24.75746,84.366208,PM10,46,117,78
India,Bihar,Begusarai,"Lohiyanagar, Begusarai - BSPCB",22-02-2026 08:00:00,25.42742023,86.13886079,PM2.5,42,103,71
India,Bihar,Begusarai,"Lohiyanagar, Begusarai - BSPCB",22-02-2026 08:00:00,25.42742023,86.13886079,NO2,4,13,9
India,Bihar,Bettiah,"Kamalnath Nagar, Bettiah - BSPCB",22-02-2026 08:00:00,26.80365,84.51954,NO2,7,9,8
India,Bihar,Bettiah,"Kamalnath Nagar, Bettiah - BSPCB",22-02-2026 08:00:00,26.80365,84.51954,OZONE,22,23,22
India,Bihar,Bhagalpur,"DM Office_Kachari Chowk, Bhagalpur - BSPCB",22-02-2026 08:00:00,25.251013,86.989001,PM10,52,117,74
India,Andhra_Pradesh,Amaravati,"Secretariat, Amaravati - APPCB",22-02-2026 08:00:00,16.5150833,80.5181667,NH3,3,5,4
India,Andhra_Pradesh,Amaravati,"Secretariat, Amaravati - APPCB",22-02-2026 08:00:00,16.5150833,80.5181667,CO,10,42,24
India,Andhra_Pradesh,Anantapur,"Gulzarpet, Anantapur - APPCB",22-02-2026 08:00:00,14.675886,77.593027,PM2.5,55,81,64
India,Andhra_Pradesh,Anantapur,"Gulzarpet, Anantapur - APPCB",22-02-2026 08:00:00,14.675886,77.593027,NO2,19,25,21
India,Andhra_Pradesh,Anantapur,"Gulzarpet, Anantapur - APPCB",22-02-2026 08:00:00,14.675886,77.593027,OZONE,24,24,24
India,Andhra_Pradesh,Chittoor,"Gangineni Cheruvu, Chittoor - APPCB",22-02-2026 08:00:00,13.204880,79.097889,PM10,43,55,49
India,Andhra_Pradesh,Chittoor,"Gangineni Cheruvu, Chittoor - APPCB",22-02-2026 08:00:00,13.204880,79.097889,NO2,16,25,19
India,Assam,Nagaon,"Christianpatty, Nagaon - PCBA",22-02-2026 08:00:00,26.349082,92.68449,OZONE,8,9,9
India,Assam,Nalbari,"Bata Chowk, Nalbari - PCBA",22-02-2026 08:00:00,26.446912,91.439057,NH3,6,6,6
India,Assam,Silchar,"Tarapur, Silchar - PCBA",22-02-2026 08:00:00,24.82827,92.79525,NO2,23,32,30
India,Bihar,Araria,"Kharahiya Basti, Araria - BSPCB",22-02-2026 08:00:00,26.146529,87.454184,PM10,12,86,62
India,Bihar,Araria,"Kharahiya Basti, Araria - BSPCB",22-02-2026 08:00:00,26.146529,87.454184,CO,2,54,40
India,Andhra_Pradesh,Kadapa,"Yerramukkapalli, Kadapa - APPCB",22-02-2026 08:00:00,14.465052,78.824187,NH3,3,5,4
India,Andhra_Pradesh,Rajamahendravaram,"Anand Kala Kshetram, Rajamahendravaram - APPCB",22-02-2026 08:00:00,16.9872867,81.7363176,NH3,3,6,5
India,Andhra_Pradesh,Tirumala,"Toll Gate, Tirumala - APPCB",22-02-2026 08:00:00,13.67,79.35,PM2.5,29,77,51
India,Andhra_Pradesh,Tirupati,"Vaikuntapuram, Tirupati - APPCB",22-02-2026 08:00:00,13.615387,79.409230,PM2.5,NA,NA,NA
India,Bihar,Munger,"Town Hall, Munger - BSPCB",22-02-2026 08:00:00,25.376776,86.471523,NH3,1,6,3
India,Bihar,Muzaffarpur,"Buddha Colony, Muzaffarpur - BSPCB",22-02-2026 08:00:00,26.11442,85.39813,NH3,12,19,16
India,Bihar,Muzaffarpur,"Buddha Colony, Muzaffarpur - BSPCB",22-02-2026 08:00:00,26.11442,85.39813,SO2,3,5,4
India,Bihar,Muzaffarpur,"Muzaffarpur Collectorate, Muzaffarpur - BSPCB",22-02-2026 08:00:00,26.1209,85.3647,SO2,4,9,5
India,Bihar,Patna,"DRM Office Danapur, Patna - BSPCB",22-02-2026 08:00:00,25.586562,85.043586,SO2,4,9,6
India,Andhra_Pradesh,Vijayawada,"Rajiv Gandhi Park, Vijayawada - APPCB",22-02-2026 08:00:00,16.509717,80.612222,NH3,NA,NA,NA
India,Andhra_Pradesh,Vijayawada,"Rajiv Nagar, Vijayawada - APPCB",22-02-2026 08:00:00,16.554731,80.649110,SO2,14,24,18
India,Andhra_Pradesh,Vijayawada,"Rajiv Nagar, Vijayawada - APPCB",22-02-2026 08:00:00,16.554731,80.649110,CO,22,42,38
India,Andhra_Pradesh,Visakhapatnam,"GVM Corporation, Visakhapatnam - APPCB",22-02-2026 08:00:00,17.72,83.3,SO2,NA,NA,NA
India,Andhra_Pradesh,Visakhapatnam,"GVM Corporation, Visakhapatnam - APPCB",22-02-2026 08:00:00,17.72,83.3,OZONE,4,65,12
India,Delhi,Delhi,"Bawana, Delhi - DPCC",22-02-2026 08:00:00,28.776200,77.051074,SO2,6,25,13
India,Delhi,Delhi,"Bawana, Delhi - DPCC",22-02-2026 08:00:00,28.776200,77.051074,CO,31,78,57
India,Delhi,Delhi,"Burari Crossing, Delhi - IMD",22-02-2026 08:00:00,28.7256504,77.2011573,NO2,80,164,113
India,Delhi,Delhi,"Burari Crossing, Delhi - IMD",22-02-2026 08:00:00,28.7256504,77.2011573,CO,18,103,56
India,Delhi,Delhi,"CRRI Mathura Road, Delhi - IMD",22-02-2026 08:00:00,28.5512005,77.2735737,CO,24,110,88
India,Delhi,Delhi,"Chandni Chowk, Delhi - IITM",22-02-2026 08:00:00,28.656756,77.227234,NO2,15,38,31
India,Delhi,Delhi,"Chandni Chowk, Delhi - IITM",22-02-2026 08:00:00,28.656756,77.227234,CO,90,132,110
India,Delhi,Delhi,"DTU, Delhi - CPCB",22-02-2026 08:00:00,28.7500499,77.1112615,OZONE,15,24,21
India,Delhi,Delhi,"Dr. Karni Singh Shooting Range, Delhi - DPCC",22-02-2026 08:00:00,28.498571,77.264840,PM2.5,98,342,257
India,Delhi,Delhi,"Dr. Karni Singh Shooting Range, Delhi - DPCC",22-02-2026 08:00:00,28.498571,77.264840,PM10,116,352,197
India,Delhi,Delhi,"Dr. Karni Singh Shooting Range, Delhi - DPCC",22-02-2026 08:00:00,28.498571,77.264840,NO2,8,99,46
India,Delhi,Delhi,"Dr. Karni Singh Shooting Range, Delhi - DPCC",22-02-2026 08:00:00,28.498571,77.264840,NH3,8,12,10
India,Delhi,Delhi,"Dr. Karni Singh Shooting Range, Delhi - DPCC",22-02-2026 08:00:00,28.498571,77.264840,CO,36,123,54
India,Delhi,Delhi,"Dr. Karni Singh Shooting Range, Delhi - DPCC",22-02-2026 08:00:00,28.498571,77.264840,OZONE,4,173,13
India,Chhattisgarh,Bhilai,"Hathkhoj, Bhilai - CECB",22-02-2026 08:00:00,21.224231,81.408350,PM2.5,4,67,36
India,Chhattisgarh,Bhilai,"Hathkhoj, Bhilai - CECB",22-02-2026 08:00:00,21.224231,81.408350,PM10,41,103,62
India,Chhattisgarh,Bhilai,"Hathkhoj, Bhilai - CECB",22-02-2026 08:00:00,21.224231,81.408350,SO2,28,96,56
India,Chhattisgarh,Bilaspur,"Mangala, Bilaspur - NTPC",22-02-2026 08:00:00,22.08815,82.13737,PM10,57,123,92
India,Chhattisgarh,Bilaspur,"Mangala, Bilaspur - NTPC",22-02-2026 08:00:00,22.08815,82.13737,CO,24,101,34
India,Chhattisgarh,Chhal,"Nawapara SECL Colony, Chhal - CECB",22-02-2026 08:00:00,22.118125,83.140608,PM10,48,93,67
India,Chhattisgarh,Korba,"Rampur, Korba - CECB",22-02-2026 08:00:00,22.368195,82.746431,PM10,52,82,64
India,Chhattisgarh,Korba,"Urja Nagar, Korba - CECB",22-02-2026 08:00:00,22.348441,82.549611,CO,22,41,33
India,Chhattisgarh,Kunjemura,"OP Jindal School, Kunjemura - CECB",22-02-2026 08:00:00,22.126650,83.483212,PM2.5,54,95,74
India,Delhi,Delhi,"Jawaharlal Nehru Stadium, Delhi - DPCC",22-02-2026 08:00:00,28.580280,77.233829,PM2.5,80,359,256
India,Delhi,Delhi,"Lodhi Road, Delhi - IMD",22-02-2026 08:00:00,28.5918245,77.2273074,PM2.5,84,262,152
India,Delhi,Delhi,"Lodhi Road, Delhi - IMD",22-02-2026 08:00:00,28.5918245,77.2273074,CO,25,68,60
India,Delhi,Delhi,"Major Dhyan Chand National Stadium, Delhi - DPCC",22-02-2026 08:00:00,28.611281,77.237738,PM2.5,85,325,232
India,Delhi,Delhi,"Mandir Marg, Delhi - DPCC",22-02-2026 08:00:00,28.636429,77.201067,SO2,8,53,30
India,Delhi,Delhi,"Mandir Marg, Delhi - DPCC",22-02-2026 08:00:00,28.636429,77.201067,OZONE,4,85,6
India,Delhi,Delhi,"Mundka, Delhi - DPCC",22-02-2026 08:00:00,28.684678,77.076574,SO2,15,48,22
India,Delhi,Delhi,"NSIT Dwarka, Delhi - CPCB",22-02-2026 08:00:00,28.60909,77.0325413,PM2.5,124,182,136
India,Delhi,Delhi,"Dwarka-Sector 8, Delhi - DPCC ",22-02-2026 08:00:00,28.5710274,77.0719006,NH3,15,25,20
India,Delhi,Delhi,"Dwarka-Sector 8, Delhi - DPCC ",22-02-2026 08:00:00,28.5710274,77.0719006,CO,22,137,61
India,Delhi,Delhi,"IGI Airport (T3), Delhi - IMD",22-02-2026 08:00:00,28.5627763,77.1180053,PM2.5,69,304,186
India,Delhi,Delhi,"IGI Airport (T3), Delhi - IMD",22-02-2026 08:00:00,28.5627763,77.1180053,CO,24,100,80
India,Delhi,Delhi,"IHBAS, Dilshad Garden, Delhi - CPCB",22-02-2026 08:00:00,28.6811736,77.3025234,NH3,8,11,10
India,Delhi,Delhi,"IHBAS, Dilshad Garden, Delhi - CPCB",22-02-2026 08:00:00,28.6811736,77.3025234,SO2,7,33,19
India,Delhi,Delhi,"ITO, Delhi - CPCB",22-02-2026 08:00:00,28.628624,77.241060,SO2,11,21,17
India,Delhi,Delhi,"Jahangirpuri, Delhi - DPCC",22-02-2026 08:00:00,28.732820,77.170633,PM2.5,92,416,306
India,Chhattisgarh,Tumidih,"OP Jindal Industrial Park, Tumidih - CECB",22-02-2026 08:00:00,22.06631475,83.33820077,OZONE,5,105,11
India,Delhi,Delhi,"Alipur, Delhi - DPCC",22-02-2026 08:00:00,28.815329,77.153010,PM10,109,416,210
India,Delhi,Delhi,"Alipur, Delhi - DPCC",22-02-2026 08:00:00,28.815329,77.153010,NO2,24,104,53
India,Delhi,Delhi,"Alipur, Delhi - DPCC",22-02-2026 08:00:00,28.815329,77.153010,NH3,15,16,15
India,Delhi,Delhi,"Ashok Vihar, Delhi - DPCC",22-02-2026 08:00:00,28.695381,77.181665,PM10,115,250,192
India,Delhi,Delhi,"Ashok Vihar, Delhi - DPCC",22-02-2026 08:00:00,28.695381,77.181665,NO2,19,150,73
India,Delhi,Delhi,"Ashok Vihar, Delhi - DPCC",22-02-2026 08:00:00,28.695381,77.181665,SO2,5,35,19
India,Delhi,Delhi,"Bawana, Delhi - DPCC",22-02-2026 08:00:00,28.776200,77.051074,NO2,7,64,30
India,Bihar,Sasaram,"Dada Peer, Sasaram - BSPCB",22-02-2026 08:00:00,24.952822,84.002396,OZONE,16,17,17
India,Bihar,Siwan,"Chitragupta Nagar, Siwan - BSPCB",22-02-2026 08:00:00,26.2271665,84.3570427,PM10,45,81,63
India,Bihar,Siwan,"Chitragupta Nagar, Siwan - BSPCB",22-02-2026 08:00:00,26.2271665,84.3570427,OZONE,12,13,12
India,Chandigarh,Chandigarh,"Sector-25, Chandigarh - CPCC",22-02-2026 08:00:00,30.751462,76.762879,PM10,84,125,106
India,Chandigarh,Chandigarh,"Sector-25, Chandigarh - CPCC",22-02-2026 08:00:00,30.751462,76.762879,CO,20,39,26
India,Chhattisgarh,Bhilai,"Civic Center, Bhilai - Bhilai Steel Plant",22-02-2026 08:00:00,21.185571,81.343175,PM2.5,20,96,53
India,Chhattisgarh,Kunjemura,"OP Jindal School, Kunjemura - CECB",22-02-2026 08:00:00,22.126650,83.483212,NH3,2,2,2
India,Chhattisgarh,Raipur,"AIIMS, Raipur - CECB",22-02-2026 08:00:00,21.258815,81.578979,PM10,51,141,90
India,Chhattisgarh,Raipur,"Bhatagaon New ISBT, Raipur - CECB",22-02-2026 08:00:00,21.219665,81.630094,CO,31,113,83
India,Chhattisgarh,Raipur,"Siltara Phase-II, Raipur - CECB",22-02-2026 08:00:00,21.371751,81.664929,PM10,76,163,121
India,Chhattisgarh,Raipur,"Siltara Phase-II, Raipur - CECB",22-02-2026 08:00:00,21.371751,81.664929,CO,16,26,24
India,Delhi,Delhi,"Najafgarh, Delhi - DPCC",22-02-2026 08:00:00,28.570173,76.933762,PM10,59,195,109
India,Delhi,Delhi,"Narela, Delhi - DPCC",22-02-2026 08:00:00,28.822836,77.101981,NO2,12,45,28
India,Delhi,Delhi,"Nehru Nagar, Delhi - DPCC",22-02-2026 08:00:00,28.567890,77.250515,PM10,111,301,195
India,Delhi,Delhi,"North Campus, DU, Delhi - IMD",22-02-2026 08:00:00,28.6573814,77.1585447,PM2.5,81,320,243
India,Bihar,Saharsa,"Police Line, Saharsa - BSPCB",22-02-2026 08:00:00,25.892357,86.590325,OZONE,9,11,10
India,Bihar,Samastipur,"DM Office_Kasipur, Samastipur - BSPCB",22-02-2026 08:00:00,25.859655,85.77944,PM2.5,NA,NA,NA
India,Bihar,Samastipur,"DM Office_Kasipur, Samastipur - BSPCB",22-02-2026 08:00:00,25.859655,85.77944,NH3,NA,NA,NA
India,Delhi,Delhi,"Pusa, Delhi - IMD",22-02-2026 08:00:00,28.636110,77.173332,OZONE,18,310,47
India,Delhi,Delhi,"R K Puram, Delhi - DPCC",22-02-2026 08:00:00,28.563262,77.186937,NO2,9,122,54
India,Delhi,Delhi,"R K Puram, Delhi - DPCC",22-02-2026 08:00:00,28.563262,77.186937,SO2,20,39,29
India,Delhi,Delhi,"Rohini, Delhi - DPCC",22-02-2026 08:00:00,28.732528,77.119920,NH3,9,16,12
India,Delhi,Delhi,"Rohini, Delhi - DPCC",22-02-2026 08:00:00,28.732528,77.119920,CO,5,94,52
India,Delhi,Delhi,"Shadipur, Delhi - CPCB",22-02-2026 08:00:00,28.6514781,77.1473105,OZONE,8,12,8
India,Delhi,Delhi,"Sirifort, Delhi - CPCB",22-02-2026 08:00:00,28.5504249,77.2159377,PM2.5,103,342,276
India,Delhi,Delhi,"Sirifort, Delhi - CPCB",22-02-2026 08:00:00,28.5504249,77.2159377,PM10,124,430,222
India,Delhi,Delhi,"Sonia Vihar, Delhi - DPCC",22-02-2026 08:00:00,28.710508,77.249485,NH3,6,8,7
India,Delhi,Delhi,"Sonia Vihar, Delhi - DPCC",22-02-2026 08:00:00,28.710508,77.249485,CO,88,186,110
India,Delhi,Delhi,"Sonia Vihar, Delhi - DPCC",22-02-2026 08:00:00,28.710508,77.249485,OZONE,1,146,2
India,Haryana,Ballabgarh,"Nathu Colony, Ballabgarh - HSPCB",22-02-2026 08:00:00,28.3419248,77.319699,NO2,19,21,20
India,Haryana,Ballabgarh,"Nathu Colony, Ballabgarh - HSPCB",22-02-2026 08:00:00,28.3419248,77.319699,SO2,3,7,4
India,Haryana,Bhiwani,"H.B. Colony, Bhiwani - HSPCB",22-02-2026 08:00:00,28.806223,76.141105,OZONE,7,18,14
India,Haryana,Charkhi Dadri,"Mini Secretariat, Charkhi Dadri - HSPCB",22-02-2026 08:00:00,28.593883,76.270653,PM2.5,254,308,290
India,Haryana,Charkhi Dadri,"Mini Secretariat, Charkhi Dadri - HSPCB",22-02-2026 08:00:00,28.593883,76.270653,NO2,9,23,15
India,Haryana,Dharuhera,"Municipal Corporation Office, Dharuhera -  HSPCB",22-02-2026 08:00:00,28.206800,76.799700,SO2,3,17,10
India,Haryana,Faridabad,"New Industrial Town, Faridabad - HSPCB",22-02-2026 08:00:00,28.39072,77.30059,PM2.5,184,202,193
India,Haryana,Faridabad,"New Industrial Town, Faridabad - HSPCB",22-02-2026 08:00:00,28.39072,77.30059,PM10,130,136,133
India,Gujarat,Bhavnagar,"Vidhyanagar, Bhavnagar - Nexteng Enviro",22-02-2026 08:00:00,21.755417,72.139056,NO2,51,67,56
India,Gujarat,Gandhinagar,"GIFT City, Gandhinagar - IITM",22-02-2026 08:00:00,23.163798,72.677768,PM10,107,177,142
India,Gujarat,Gandhinagar,"IIPHG Lekawada, Gandhinagar - IITM",22-02-2026 08:00:00,23.243639,72.68994,PM10,86,141,110
India,Gujarat,Gandhinagar,"IIPHG Lekawada, Gandhinagar - IITM",22-02-2026 08:00:00,23.243639,72.68994,NO2,8,36,19
India,Gujarat,Gandhinagar,"Sector-10, Gandhinagar - GPCB",22-02-2026 08:00:00,23.221714,72.654328,PM2.5,52,114,87
India,Gujarat,Gandhinagar,"Sector-10, Gandhinagar - GPCB",22-02-2026 08:00:00,23.221714,72.654328,NO2,23,39,31
India,Gujarat,Gandhinagar,"Sector-10, Gandhinagar - GPCB",22-02-2026 08:00:00,23.221714,72.654328,CO,34,41,36
India,Gujarat,Mehsana,"Sadanand Nagar, Mehsana - Nexteng Enviro",22-02-2026 08:00:00,23.593150,72.372792,PM2.5,81,297,167
India,Gujarat,Mehsana,"Sadanand Nagar, Mehsana - Nexteng Enviro",22-02-2026 08:00:00,23.593150,72.372792,SO2,4,15,9
India,Gujarat,Rajkot,"Mavdi, Rajkot - Nexteng Enviro ",22-02-2026 08:00:00,22.248853,70.776774,PM10,53,176,111
India,Gujarat,Rajkot,"Mavdi, Rajkot - Nexteng Enviro ",22-02-2026 08:00:00,22.248853,70.776774,NO2,10,72,31
India,Gujarat,Rajkot,"Mavdi, Rajkot - Nexteng Enviro ",22-02-2026 08:00:00,22.248853,70.776774,NH3,3,5,4
India,Gujarat,Rajkot,"Mavdi, Rajkot - Nexteng Enviro ",22-02-2026 08:00:00,22.248853,70.776774,SO2,9,92,36
India,Gujarat,Surat,"Katargam, Surat - Nexteng Enviro",22-02-2026 08:00:00,21.217779 ,72.834787 ,PM10,91,184,138
India,Gujarat,Ahmedabad,"Rakhial, Ahmedabad - IITM",22-02-2026 08:00:00,23.016834,72.625775,PM2.5,82,213,128
India,Gujarat,Ahmedabad,"Rakhial, Ahmedabad - IITM",22-02-2026 08:00:00,23.016834,72.625775,OZONE,2,89,12
India,Gujarat,Ahmedabad,"SAC ISRO Bopal, Ahmedabad - IITM",22-02-2026 08:00:00,23.041137,72.456691,PM2.5,84,196,143
India,Gujarat,Ahmedabad,"SAC ISRO Satellite, Ahmedabad - IITM",22-02-2026 08:00:00,23.023389,72.515201,NO2,6,26,12
India,Gujarat,Ahmedabad,"SVPI Airport Hansol, Ahmedabad - IITM",22-02-2026 08:00:00,23.076793,72.627874,PM2.5,61,148,87
India,Gujarat,Ahmedabad,"SVPI Airport Hansol, Ahmedabad - IITM",22-02-2026 08:00:00,23.076793,72.627874,NO2,12,109,44
India,Gujarat,Vadodara,"Bapunagar, Vadodara - Nexteng Enviro",22-02-2026 08:00:00,22.320153,73.216285,NO2,8,92,34
India,Gujarat,Vatva,"Phase-4 GIDC, Vatva - GPCB",22-02-2026 08:00:00,22.969611,72.643500,NO2,10,58,34
India,Gujarat,Vatva,"Phase-4 GIDC, Vatva - GPCB",22-02-2026 08:00:00,22.969611,72.643500,CO,16,48,21
India,Haryana,Ambala,"Patti Mehar, Ambala - HSPCB",22-02-2026 08:00:00,30.379589,76.778328,PM2.5,65,136,95
India,Haryana,Ambala,"Patti Mehar, Ambala - HSPCB",22-02-2026 08:00:00,30.379589,76.778328,SO2,12,12,12
India,Haryana,Ambala,"Patti Mehar, Ambala - HSPCB",22-02-2026 08:00:00,30.379589,76.778328,OZONE,11,23,19
India,Gujarat,Ahmedabad,"Gyaspur, Ahmedabad - IITM",22-02-2026 08:00:00,22.977134,72.553024,NH3,4,53,14
India,Gujarat,Ahmedabad,"Gyaspur, Ahmedabad - IITM",22-02-2026 08:00:00,22.977134,72.553024,CO,26,106,84
India,Gujarat,Ahmedabad,"Gyaspur, Ahmedabad - IITM",22-02-2026 08:00:00,22.977134,72.553024,OZONE,1,92,1
India,Gujarat,Ahmedabad,"Maninagar, Ahmedabad - GPCB",22-02-2026 08:00:00,23.002657,72.591912,PM10,79,166,120
India,Gujarat,Ahmedabad,"Maninagar, Ahmedabad - GPCB",22-02-2026 08:00:00,23.002657,72.591912,CO,12,29,24
India,Gujarat,Ahmedabad,"Raikhad, Ahmedabad - IITM",22-02-2026 08:00:00,23.020509,72.579261,OZONE,1,74,21
India,Delhi,Delhi,"Vivek Vihar, Delhi - DPCC",22-02-2026 08:00:00,28.672342,77.315260,SO2,9,38,20
India,Delhi,Delhi,"Wazirpur, Delhi - DPCC",22-02-2026 08:00:00,28.699793,77.165453,CO,57,97,87
India,Delhi,Delhi,"Wazirpur, Delhi - DPCC",22-02-2026 08:00:00,28.699793,77.165453,OZONE,17,21,19
India,Gujarat,Ahmedabad,"Chandkheda, Ahmedabad - IITM",22-02-2026 08:00:00,23.107969,72.574648,NH3,2,5,4
India,Delhi,Delhi,"Patparganj, Delhi - DPCC",22-02-2026 08:00:00,28.623763,77.287209,PM10,123,285,204
India,Karnataka,Bengaluru,"RVCE-Mailasandra, Bengaluru - KSPCB",22-02-2026 08:00:00,12.921418,77.502466,CO,4,30,14
India,Karnataka,Bengaluru,"Shivapura_Peenya, Bengaluru - KSPCB",22-02-2026 08:00:00,13.0246342,77.5080115,PM2.5,NA,NA,NA
India,Karnataka,Bengaluru,"Shivapura_Peenya, Bengaluru - KSPCB",22-02-2026 08:00:00,13.0246342,77.5080115,PM10,NA,NA,NA
India,Karnataka,Bengaluru,"Shivapura_Peenya, Bengaluru - KSPCB",22-02-2026 08:00:00,13.0246342,77.5080115,NO2,NA,NA,NA
India,Karnataka,Bengaluru,"Silk Board, Bengaluru - KSPCB",22-02-2026 08:00:00,12.917348,77.622813,PM10,40,112,79
India,Karnataka,Bengaluru,"Silk Board, Bengaluru - KSPCB",22-02-2026 08:00:00,12.917348,77.622813,NO2,34,67,48
India,Karnataka,Bengaluru,"Silk Board, Bengaluru - KSPCB",22-02-2026 08:00:00,12.917348,77.622813,NH3,4,5,5
India,Karnataka,Bengaluru,"Silk Board, Bengaluru - KSPCB",22-02-2026 08:00:00,12.917348,77.622813,SO2,1,5,3
India,Karnataka,Bengaluru,"Silk Board, Bengaluru - KSPCB",22-02-2026 08:00:00,12.917348,77.622813,CO,24,56,28
India,Karnataka,Bidar,"Naubad, Bidar - KSPCB",22-02-2026 08:00:00,17.930306,77.482194,PM10,NA,NA,NA
India,Karnataka,Chamarajanagar,"Urban, Chamarajanagar - KSPCB",22-02-2026 08:00:00,11.55358,76.55521,NH3,1,3,3
India,Karnataka,Chamarajanagar,"Urban, Chamarajanagar - KSPCB",22-02-2026 08:00:00,11.55358,76.55521,CO,16,25,23
India,Karnataka,Chikkaballapur,"Chikkaballapur Rural, Chikkaballapur - KSPCB",22-02-2026 08:00:00,13.428828,77.731418,PM2.5,20,61,38
India,Karnataka,Chikkaballapur,"Chikkaballapur Rural, Chikkaballapur - KSPCB",22-02-2026 08:00:00,13.428828,77.731418,CO,4,22,18
India,Haryana,Sirsa,"F-Block, Sirsa - HSPCB",22-02-2026 08:00:00,29.536400,75.015800,CO,46,100,88
India,Haryana,Sonipat,"Murthal, Sonipat - HSPCB",22-02-2026 08:00:00,29.027200,77.062100,NO2,12,13,12
India,Haryana,Sonipat,"Murthal, Sonipat - HSPCB",22-02-2026 08:00:00,29.027200,77.062100,NH3,11,11,11
India,Haryana,Sonipat,"Murthal, Sonipat - HSPCB",22-02-2026 08:00:00,29.027200,77.062100,SO2,6,10,8
India,Haryana,Sonipat,"Murthal, Sonipat - HSPCB",22-02-2026 08:00:00,29.027200,77.062100,OZONE,25,26,26
India,Haryana,Yamuna Nagar,"Gobind Pura, Yamuna Nagar - HSPCB",22-02-2026 08:00:00,30.1480566,77.2893471,OZONE,8,34,9
India,Jharkhand,Dhanbad,"Sardar Patel Nagar, Dhanbad - JSPCB",22-02-2026 08:00:00,23.80569,86.44268,PM10,47,279,126
India,Jharkhand,Dhanbad,"Sardar Patel Nagar, Dhanbad - JSPCB",22-02-2026 08:00:00,23.80569,86.44268,SO2,NA,NA,NA
India,Haryana,Karnal,"Sector-12, Karnal - HSPCB",22-02-2026 08:00:00,29.695300,77.002700,CO,1,11,1
India,Haryana,Kurukshetra,"Sector-7, Kurukshetra - HSPCB",22-02-2026 08:00:00,29.966942,76.875879,CO,22,43,30
India,Haryana,Mandikhera,"General Hospital, Mandikhera(Nuh) - HSPCB",22-02-2026 08:00:00,27.9002,76.9938,PM10,51,102,80
India,Haryana,Mandikhera,"General Hospital, Mandikhera(Nuh) - HSPCB",22-02-2026 08:00:00,27.9002,76.9938,CO,62,91,76
India,Haryana,Manesar,"Sector-2 IMT, Manesar - HSPCB",22-02-2026 08:00:00,28.360699,76.936090,NO2,61,71,66
India,Haryana,Manesar,"Sector-2 IMT, Manesar - HSPCB",22-02-2026 08:00:00,28.360699,76.936090,NH3,10,12,11
India,Haryana,Narnaul,"Shastri Nagar, Narnaul - HSPCB",22-02-2026 08:00:00,28.060249,76.113115,OZONE,2,26,3
India,Haryana,Gurugram,"NISE Gwal Pahari, Gurugram - IMD",22-02-2026 08:00:00,28.422681,77.148944,PM10,109,237,176
India,Haryana,Gurugram,"Sector-51, Gurugram - HSPCB",22-02-2026 08:00:00,28.4227,77.0667,PM2.5,55,427,294
India,Haryana,Gurugram,"Sector-51, Gurugram - HSPCB",22-02-2026 08:00:00,28.4227,77.0667,SO2,7,12,9
India,Haryana,Gurugram,"Vikas Sadan, Gurugram - HSPCB",22-02-2026 08:00:00,28.4501238,77.0263051,NO2,9,45,26
India,Haryana,Hisar,"Urban Estate-II, Hisar - HSPCB",22-02-2026 08:00:00,29.140560,75.744941,PM10,81,128,105
India,Haryana,Hisar,"Urban Estate-II, Hisar - HSPCB",22-02-2026 08:00:00,29.140560,75.744941,OZONE,13,124,32
India,Karnataka,Bagalkot,"Vidayagiri, Bagalkot - KSPCB",22-02-2026 08:00:00,16.172806,75.659694,PM2.5,35,36,35
India,Karnataka,Bengaluru,"Bapuji Nagar, Bengaluru - KSPCB",22-02-2026 08:00:00,12.951913,77.539784,NO2,47,117,85
India,Karnataka,Bengaluru,"Bapuji Nagar, Bengaluru - KSPCB",22-02-2026 08:00:00,12.951913,77.539784,CO,8,54,28
India,Karnataka,Bengaluru,"City Railway Station, Bengaluru - KSPCB",22-02-2026 08:00:00,12.9756843,77.5660749,CO,51,60,53
India,Karnataka,Bengaluru,"Hombegowda Nagar, Bengaluru - KSPCB",22-02-2026 08:00:00,12.938539,77.590100,PM10,40,67,52
India,Karnataka,Bengaluru,"Jayanagar 5th Block, Bengaluru - KSPCB",22-02-2026 08:00:00,12.920984,77.584908,OZONE,11,47,19
India,Karnataka,Bengaluru,"Jigani, Bengaluru - KSPCB",22-02-2026 08:00:00,12.7816279,77.6299145,PM2.5,38,62,51
India,Karnataka,Bengaluru,"Jigani, Bengaluru - KSPCB",22-02-2026 08:00:00,12.7816279,77.6299145,NH3,3,4,3
India,Haryana,Palwal,"Shyam Nagar, Palwal - HSPCB",22-02-2026 08:00:00,28.1485564,77.3320667,CO,16,46,26
India,Haryana,Panipat,"Sector-18, Panipat - HSPCB",22-02-2026 08:00:00,29.432304,76.972765,SO2,NA,NA,NA
India,Haryana,Sirsa,"F-Block, Sirsa - HSPCB",22-02-2026 08:00:00,29.536400,75.015800,PM10,173,272,219
India,Haryana,Sirsa,"F-Block, Sirsa - HSPCB",22-02-2026 08:00:00,29.536400,75.015800,NO2,18,20,19
India,Haryana,Faridabad,"New Industrial Town, Faridabad - HSPCB",22-02-2026 08:00:00,28.39072,77.30059,NH3,11,12,11
India,Haryana,Faridabad,"Sector 11, Faridabad - HSPCB",22-02-2026 08:00:00,28.376058,77.315741,SO2,9,10,9
India,Haryana,Faridabad,"Sector 30, Faridabad - HSPCB",22-02-2026 08:00:00,28.4417,77.3217,PM2.5,111,121,115
India,Haryana,Karnal,"Sector-12, Karnal - HSPCB",22-02-2026 08:00:00,29.695300,77.002700,PM10,77,139,105
India,Karnataka,Chikkamagaluru,"Kalyana Nagara, Chikkamagaluru - KSPCB",22-02-2026 08:00:00,13.328028,75.797056,PM10,43,66,50
India,Karnataka,Chikkamagaluru,"Kalyana Nagara, Chikkamagaluru - KSPCB",22-02-2026 08:00:00,13.328028,75.797056,NO2,19,26,22
India,Karnataka,Chikkamagaluru,"Kalyana Nagara, Chikkamagaluru - KSPCB",22-02-2026 08:00:00,13.328028,75.797056,OZONE,15,63,15
India,Karnataka,Dharwad,"Kalabhavan, Dharwad - KSPCB",22-02-2026 08:00:00,15.459706,75.008381,NO2,30,30,30
India,Karnataka,Kalaburagi,"Mahatma Basaveswar Colony, Kalaburgi - KSPCB",22-02-2026 08:00:00,17.336318,76.847397,PM2.5,11,63,42
India,Karnataka,Kalaburagi,"Mahatma Basaveswar Colony, Kalaburgi - KSPCB",22-02-2026 08:00:00,17.336318,76.847397,NH3,2,4,3
India,Karnataka,Kalaburagi,"Mahatma Basaveswar Colony, Kalaburgi - KSPCB",22-02-2026 08:00:00,17.336318,76.847397,SO2,2,3,2
India,Karnataka,Mysuru,"Hebbal 1st Stage, Mysuru - KSPCB",22-02-2026 08:00:00,12.21041,76.37376,PM2.5,25,47,36
India,Karnataka,Mysuru,"Hebbal 1st Stage, Mysuru - KSPCB",22-02-2026 08:00:00,12.21041,76.37376,PM10,46,84,63
India,Karnataka,Mysuru,"Hebbal 1st Stage, Mysuru - KSPCB",22-02-2026 08:00:00,12.21041,76.37376,NO2,18,24,20
India,Karnataka,Mysuru,"Hebbal 1st Stage, Mysuru - KSPCB",22-02-2026 08:00:00,12.21041,76.37376,NH3,4,6,5
India,Karnataka,Mysuru,"Hebbal 1st Stage, Mysuru - KSPCB",22-02-2026 08:00:00,12.21041,76.37376,SO2,1,5,3
India,Madhya Pradesh,Indore,"Chhoti Gwaltoli, Indore - MPPCB",22-02-2026 08:00:00,22.4310,75.5213,CO,28,109,77
India,Madhya Pradesh,Indore,"Maguda Nagar, Indore - IMC",22-02-2026 08:00:00,22.7524,75.8872,PM10,24,118,66
India,Madhya Pradesh,Indore,"Maguda Nagar, Indore - IMC",22-02-2026 08:00:00,22.7524,75.8872,CO,12,52,45
India,Madhya Pradesh,Indore,"Residency Area, Indore - IMC",22-02-2026 08:00:00,22.7084,75.8815,PM10,46,125,87
India,Madhya Pradesh,Jabalpur,"Govindh Bhavan Colony, Jabalpur - JMC",22-02-2026 08:00:00,23.163174,79.973061,NH3,2,2,2
India,Madhya Pradesh,Jabalpur,"Govindh Bhavan Colony, Jabalpur - JMC",22-02-2026 08:00:00,23.163174,79.973061,SO2,5,9,7
India,Madhya Pradesh,Jabalpur,"Govindh Bhavan Colony, Jabalpur - JMC",22-02-2026 08:00:00,23.163174,79.973061,CO,4,32,21
India,Madhya Pradesh,Jabalpur,"Govindh Bhavan Colony, Jabalpur - JMC",22-02-2026 08:00:00,23.163174,79.973061,OZONE,5,104,5
India,Madhya Pradesh,Jabalpur,"Gupteshwar, Jabalpur - JMC",22-02-2026 08:00:00,23.142888,79.916147,NH3,2,2,2
India,Madhya Pradesh,Jabalpur,"Gupteshwar, Jabalpur - JMC",22-02-2026 08:00:00,23.142888,79.916147,SO2,1,9,4
India,Madhya Pradesh,Jabalpur,"Gupteshwar, Jabalpur - JMC",22-02-2026 08:00:00,23.142888,79.916147,CO,41,104,64
India,Madhya Pradesh,Ratlam,"Shasthri Nagar, Ratlam - IPCA Lab",22-02-2026 08:00:00,23.331731,75.045981,PM2.5,51,213,105
India,Madhya Pradesh,Ratlam,"Shasthri Nagar, Ratlam - IPCA Lab",22-02-2026 08:00:00,23.331731,75.045981,NO2,15,43,27
India,Madhya Pradesh,Sagar,"Civil Lines, Sagar - MPPCB",22-02-2026 08:00:00,23.838586,78.759431,OZONE,63,117,82
India,Madhya Pradesh,Sagar,"Deen Dayal Nagar, Sagar - MPPCB",22-02-2026 08:00:00,23.8640158,78.80289321,PM2.5,32,75,56
India,Madhya Pradesh,Sagar,"Deen Dayal Nagar, Sagar - MPPCB",22-02-2026 08:00:00,23.8640158,78.80289321,SO2,2,6,3
India,Madhya Pradesh,Satna,"Bandhavgar Colony, Satna - Birla Cement",22-02-2026 08:00:00,24.58434363,80.8549414,NO2,12,13,13
India,Madhya Pradesh,Satna,"Bandhavgar Colony, Satna - Birla Cement",22-02-2026 08:00:00,24.58434363,80.8549414,CO,18,43,30
India,Madhya Pradesh,Ujjain,"Mahashweta Nagar, Ujjain - MPPCB",22-02-2026 08:00:00,23.1633321,75.800225,PM2.5,86,329,200
India,Madhya Pradesh,Ujjain,"Mahashweta Nagar, Ujjain - MPPCB",22-02-2026 08:00:00,23.1633321,75.800225,PM10,78,172,124
India,Karnataka,Yadgir,"Collector Office, Yadgir - KSPCB",22-02-2026 08:00:00,16.7602,77.1428,NH3,2,2,2
India,Kerala,Kannur,"Thavakkara, Kannur - Kerala PCB",22-02-2026 08:00:00,11.875000,75.373200,PM10,73,98,91
India,Kerala,Kollam,"Polayathode, Kollam - Kerala PCB",22-02-2026 08:00:00,8.8787,76.6073,PM2.5,NA,NA,NA
India,Kerala,Kollam,"Polayathode, Kollam - Kerala PCB",22-02-2026 08:00:00,8.8787,76.6073,SO2,NA,NA,NA
India,Kerala,Kollam,"Polayathode, Kollam - Kerala PCB",22-02-2026 08:00:00,8.8787,76.6073,CO,NA,NA,NA
India,Kerala,Thiruvananthapuram,"Kariavattom, Thiruvananthapuram - Kerala PCB",22-02-2026 08:00:00,8.563700,76.886500,NO2,9,10,9
India,Kerala,Thiruvananthapuram,"Plammoodu, Thiruvananthapuram - Kerala PCB",22-02-2026 08:00:00,8.5149093,76.9435879,SO2,6,30,17
India,Kerala,Thrissur,"Corporation Ground, Thrissur - Kerala PCB",22-02-2026 08:00:00,10.532400,76.215900,NO2,7,9,8
India,Madhya Pradesh,Bhopal,"Idgah Hills, Bhopal - MPPCB",22-02-2026 08:00:00,23.264759,77.381568,CO,24,64,40
India,Madhya Pradesh,Damoh,"Shrivastav Colony, Damoh - MPPCB",22-02-2026 08:00:00,23.81748678,79.446246,PM10,8,128,23
India,Madhya Pradesh,Dewas,"Bhopal Chauraha, Dewas - MPPCB",22-02-2026 08:00:00,22.9682591,76.064118,NO2,31,120,105
India,Madhya Pradesh,Dewas,"Bhopal Chauraha, Dewas - MPPCB",22-02-2026 08:00:00,22.9682591,76.064118,NH3,2,6,3
India,Maharashtra,Ahmednagar,"Tarakpur, Ahmednagar - MPCB",22-02-2026 08:00:00,19.10122,74.73339,NO2,19,33,22
India,Maharashtra,Ahmednagar,"Tarakpur, Ahmednagar - MPCB",22-02-2026 08:00:00,19.10122,74.73339,NH3,4,7,6
India,Maharashtra,Akola,"Ramdaspeth, Akola - MPCB",22-02-2026 08:00:00,20.719516,77.000253,PM2.5,15,119,57
India,Maharashtra,Akola,"Ramdaspeth, Akola - MPCB",22-02-2026 08:00:00,20.719516,77.000253,PM10,1,120,99
India,Maharashtra,Amravati,"Shivneri Colony, Amravati - MPCB",22-02-2026 08:00:00,20.9402359,77.7895248,PM2.5,64,108,84
India,Maharashtra,Amravati,"Shivneri Colony, Amravati - MPCB",22-02-2026 08:00:00,20.9402359,77.7895248,SO2,10,48,20
India,Madhya Pradesh,Dewas,"Bhopal Chauraha, Dewas - MPPCB",22-02-2026 08:00:00,22.9682591,76.064118,CO,24,106,30
India,Madhya Pradesh,Gwalior,"City Center, Gwalior - MPPCB",22-02-2026 08:00:00,26.203442,78.193251,SO2,5,18,12
India,Madhya Pradesh,Gwalior,"City Center, Gwalior - MPPCB",22-02-2026 08:00:00,26.203442,78.193251,CO,8,110,28
India,Madhya Pradesh,Gwalior,"Deen Dayal Nagar, Gwalior - MPPCB",22-02-2026 08:00:00,26.259242,78.216432,CO,35,116,62
India,Madhya Pradesh,Indore,"Chhoti Gwaltoli, Indore - MPPCB",22-02-2026 08:00:00,22.4310,75.5213,SO2,13,34,25
India,Madhya Pradesh,Jabalpur,"Marhatal, Jabalpur - MPPCB",22-02-2026 08:00:00,23.168606,79.932247,PM10,94,267,152
India,Madhya Pradesh,Jabalpur,"Suhagi, Jabalpur - JMC",22-02-2026 08:00:00,23.218135,79.957770,PM2.5,40,199,86
India,Madhya Pradesh,Mandideep,"Sector-D Industrial Area, Mandideep - MPPCB",22-02-2026 08:00:00,23.108440,77.511428,OZONE,4,29,5
India,Madhya Pradesh,Pithampur,"Sector-2 Industrial Area, Pithampur - MPPCB",22-02-2026 08:00:00,22.624758,75.675238,NO2,NA,NA,NA
India,Karnataka,Tumakuru,"Thimmalapura, Tumakuru - KSPCB",22-02-2026 08:00:00,13.377516,77.099072,OZONE,23,23,23
India,Karnataka,Vijayapura,"Ibrahimpur, Vijayapura - KSPCB",22-02-2026 08:00:00,16.802639,75.722694,NO2,11,12,11
India,Karnataka,Yadgir,"Collector Office, Yadgir - KSPCB",22-02-2026 08:00:00,16.7602,77.1428,PM2.5,25,110,54
India,Maharashtra,Mumbai,"Borivali East, Mumbai - IITM",22-02-2026 08:00:00,19.23241,72.86895,OZONE,16,69,54
India,Maharashtra,Mumbai,"Borivali East, Mumbai - MPCB",22-02-2026 08:00:00,19.2243333,72.8658113,PM2.5,27,66,45
India,Maharashtra,Mumbai,"Borivali East, Mumbai - MPCB",22-02-2026 08:00:00,19.2243333,72.8658113,PM10,39,97,65
India,Maharashtra,Mumbai,"Borivali East, Mumbai - MPCB",22-02-2026 08:00:00,19.2243333,72.8658113,NH3,1,8,4
India,Maharashtra,Mumbai,"Byculla, Mumbai - BMC",22-02-2026 08:00:00,18.9767,72.8380,PM2.5,26,79,49
India,Maharashtra,Mumbai,"Byculla, Mumbai - BMC",22-02-2026 08:00:00,18.9767,72.8380,NH3,7,39,18
India,Maharashtra,Mumbai,"Chakala-Andheri East, Mumbai - IITM",22-02-2026 08:00:00,19.11074,72.86084,PM2.5,125,189,164
India,Maharashtra,Mumbai,"Chakala-Andheri East, Mumbai - IITM",22-02-2026 08:00:00,19.11074,72.86084,PM10,136,169,151
India,Maharashtra,Mumbai,"Chakala-Andheri East, Mumbai - IITM",22-02-2026 08:00:00,19.11074,72.86084,SO2,1,22,8
India,Maharashtra,Mumbai,"Chembur, Mumbai - MPCB",22-02-2026 08:00:00,19.0364585,72.8954371,PM2.5,NA,NA,NA
India,Maharashtra,Mumbai,"Mindspace-Malad West, Mumbai - MPCB",22-02-2026 08:00:00,19.1878657,72.8304069,CO,26,102,82
India,Maharashtra,Mumbai,"Mulund West, Mumbai - MPCB",22-02-2026 08:00:00,19.1750,72.9419,PM2.5,55,121,79
India,Maharashtra,Mumbai,"Mulund West, Mumbai - MPCB",22-02-2026 08:00:00,19.1750,72.9419,NO2,19,27,23
India,Maharashtra,Mumbai,"Navy Nagar-Colaba, Mumbai - IITM",22-02-2026 08:00:00,18.897756,72.813320,PM2.5,NA,NA,NA
India,Maharashtra,Mumbai,"Navy Nagar-Colaba, Mumbai - IITM",22-02-2026 08:00:00,18.897756,72.813320,NO2,24,69,41
India,Maharashtra,Mumbai,"Sewri, Mumbai - BMC",22-02-2026 08:00:00,19.000084,72.856730,PM2.5,86,165,111
India,Maharashtra,Mumbai,"Sewri, Mumbai - BMC",22-02-2026 08:00:00,19.000084,72.856730,SO2,1,16,5
India,Maharashtra,Mumbai,"Shivaji Nagar, Mumbai - BMC",22-02-2026 08:00:00,19.060498,72.923356,PM2.5,56,93,77
India,Maharashtra,Mumbai,"Shivaji Nagar, Mumbai - BMC",22-02-2026 08:00:00,19.060498,72.923356,NO2,11,41,24
India,Maharashtra,Mumbai,"Kherwadi_Bandra East, Mumbai - MPCB",22-02-2026 08:00:00,19.0632143,72.8456324,OZONE,NA,NA,NA
India,Maharashtra,Mumbai,"Khindipada-Bhandup West, Mumbai - IITM",22-02-2026 08:00:00,19.1653323,72.922099,NO2,20,59,36
India,Maharashtra,Mumbai,"Khindipada-Bhandup West, Mumbai - IITM",22-02-2026 08:00:00,19.1653323,72.922099,CO,2,22,16
India,Maharashtra,Mumbai,"Kurla, Mumbai - MPCB",22-02-2026 08:00:00,19.0863,72.8888,PM10,NA,NA,NA
India,Maharashtra,Mumbai,"Malad West, Mumbai - IITM",22-02-2026 08:00:00,19.19709,72.82204,PM2.5,51,176,105
India,Maharashtra,Mumbai,"Malad West, Mumbai - IITM",22-02-2026 08:00:00,19.19709,72.82204,PM10,133,200,161
India,Maharashtra,Mumbai,"Malad West, Mumbai - IITM",22-02-2026 08:00:00,19.19709,72.82204,NO2,46,115,79
India,Maharashtra,Mumbai,"Mazgaon, Mumbai - IITM",22-02-2026 08:00:00,18.96702,72.84214,PM2.5,89,188,134
India,Maharashtra,Boisar,"Khaira, Boisar - MPCB",22-02-2026 08:00:00,19.786089,72.757971,PM10,65,161,130
India,Maharashtra,Boisar,"Khaira, Boisar - MPCB",22-02-2026 08:00:00,19.786089,72.757971,SO2,NA,NA,NA
India,Maharashtra,Chandrapur,"Chauhan Colony, Chandrapur - MPCB",22-02-2026 08:00:00,19.962900,79.298714,PM2.5,58,137,78
India,Maharashtra,Chandrapur,"MIDC Khutala, Chandrapur - MPCB",22-02-2026 08:00:00,19.9775302,79.2337086,NH3,1,2,2
India,Maharashtra,Dhule,"Deopur, Dhule - MPCB",22-02-2026 08:00:00,20.918946,74.776388,SO2,1,15,6
India,Maharashtra,Jalgaon,"Prabhat Colony, Jalgaon - MPCB",22-02-2026 08:00:00,21.001264,75.565602,PM2.5,83,243,145
India,Maharashtra,Jalgaon,"Prabhat Colony, Jalgaon - MPCB",22-02-2026 08:00:00,21.001264,75.565602,SO2,6,17,10
India,Maharashtra,Aurangabad,"More Chowk Waluj, Aurangabad - MPCB",22-02-2026 08:00:00,19.8389439,75.244448,PM2.5,47,313,122
India,Maharashtra,Aurangabad,"More Chowk Waluj, Aurangabad - MPCB",22-02-2026 08:00:00,19.8389439,75.244448,CO,2,111,54
India,Maharashtra,Aurangabad,"More Chowk Waluj, Aurangabad - MPCB",22-02-2026 08:00:00,19.8389439,75.244448,OZONE,7,84,11
India,Maharashtra,Badlapur,"Katrap, Badlapur - MPCB",22-02-2026 08:00:00,19.16485,73.23409,PM10,34,207,128
India,Maharashtra,Belapur,"CBD Belapur, Belapur - MPCB",22-02-2026 08:00:00,19.0243902,73.0406721,PM2.5,44,307,114
India,Maharashtra,Belapur,"CBD Belapur, Belapur - MPCB",22-02-2026 08:00:00,19.0243902,73.0406721,PM10,45,185,124
India,Maharashtra,Boisar,"Khaira, Boisar - MPCB",22-02-2026 08:00:00,19.786089,72.757971,PM2.5,7,294,129
India,Maharashtra,Latur,"Sawe Wadi, Latur - MPCB",22-02-2026 08:00:00,18.39963,76.57452,OZONE,6,35,18
India,Maharashtra,Mahad,"Kamble Tarf Birwadi, Mahad - MPCB",22-02-2026 08:00:00,18.1023399,73.4783687,NH3,7,8,8
India,Maharashtra,Malegaon,"Mahesh Nagar, Malegaon - MPCB",22-02-2026 08:00:00,20.555712,74.529236,CO,18,84,24
India,Maharashtra,Mumbai,"Bandra Kurla Complex, Mumbai - IITM",22-02-2026 08:00:00,19.053536,72.84643,NO2,39,100,64
India,Maharashtra,Mumbai,"Bandra Kurla Complex, Mumbai - MPCB",22-02-2026 08:00:00,19.065931,72.862131,NH3,10,10,10
India,Maharashtra,Mumbai,"Bandra Kurla Complex, Mumbai - MPCB",22-02-2026 08:00:00,19.065931,72.862131,SO2,7,25,11
India,Maharashtra,Mumbai,"Chhatrapati Shivaji Intl. Airport (T2), Mumbai - MPCB",22-02-2026 08:00:00,19.10078,72.87462,PM10,78,175,115
India,Maharashtra,Mumbai,"Deonar, Mumbai - IITM",22-02-2026 08:00:00,19.04946,72.9230,PM10,124,191,154
India,Maharashtra,Mumbai,"Deonar, Mumbai - IITM",22-02-2026 08:00:00,19.04946,72.9230,CO,24,92,64
India,Maharashtra,Mumbai,"Ghatkopar, Mumbai - BMC",22-02-2026 08:00:00,19.083694,72.920967,SO2,1,9,4
India,Maharashtra,Mumbai,"Kandivali East, Mumbai - MPCB",22-02-2026 08:00:00,19.205800,72.868200,OZONE,18,18,18
India,Maharashtra,Mumbai,"Kandivali West, Mumbai - BMC",22-02-2026 08:00:00,19.215859,72.831718,NO2,13,72,36
India,Maharashtra,Jalna,"Old MIDC, Jalna - MPCB",22-02-2026 08:00:00,19.854616,75.905894,OZONE,5,92,31
India,Maharashtra,Kalyan,"Khadakpada, Kalyan - MPCB",22-02-2026 08:00:00,19.25292,73.142019,PM10,46,143,97
India,Maharashtra,Kalyan,"Pimpleshwar Mandir, Kalyan - MPCB",22-02-2026 08:00:00,19.192056,72.9585188,PM10,51,193,149
India,Maharashtra,Kolhapur,"Shivaji University, Kolhapur - MPCB",22-02-2026 08:00:00,16.6870449,74.2505872,PM2.5,11,49,30
India,Maharashtra,Kolhapur,"Sinchan Bhavan, Kolhapur - MPCB",22-02-2026 08:00:00,16.7143745,74.2426398,NH3,NA,NA,NA
India,Maharashtra,Mumbai,"Siddharth Nagar-Worli, Mumbai - IITM",22-02-2026 08:00:00,19.000083,72.813993,PM10,93,167,123
India,Maharashtra,Mumbai,"Sion, Mumbai - MPCB",22-02-2026 08:00:00,19.047000,72.874600,SO2,NA,NA,NA
India,Maharashtra,Mumbai,"Vile Parle West, Mumbai - MPCB",22-02-2026 08:00:00,19.10861,72.83622,NO2,11,11,11
India,Maharashtra,Mumbai,"Worli, Mumbai -MPCB",22-02-2026 08:00:00,18.9942180,72.8158167,CO,1,72,11
India,Maharashtra,Nagpur,"Ambazari, Nagpur - MPCB",22-02-2026 08:00:00,21.121801,79.04952,NO2,13,89,35
India,Maharashtra,Navi Mumbai,"Tondare-Taloja, Navi Mumbai - MPCB",22-02-2026 08:00:00,19.0630,73.1209,NH3,5,14,8
India,Maharashtra,Parbhani,"Masoom Colony, Parbhani - MPCB",22-02-2026 08:00:00,19.265594,76.761463,SO2,10,19,14
India,Maharashtra,Pimpri-Chinchwad,"Park Street Wakad, Pimpri Chinchwad - MPCB",22-02-2026 08:00:00,18.59051,73.77946,PM2.5,NA,NA,NA
India,Maharashtra,Pimpri-Chinchwad,"Park Street Wakad, Pimpri Chinchwad - MPCB",22-02-2026 08:00:00,18.59051,73.77946,NO2,NA,NA,NA
India,Maharashtra,Pimpri-Chinchwad,"Park Street Wakad, Pimpri Chinchwad - MPCB",22-02-2026 08:00:00,18.59051,73.77946,SO2,NA,NA,NA
India,Maharashtra,Pimpri-Chinchwad,"Savta Mali Nagar, Pimpri-Chinchwad - IITM",22-02-2026 08:00:00,18.614767,73.799516,PM2.5,75,301,176
India,Maharashtra,Pimpri-Chinchwad,"Savta Mali Nagar, Pimpri-Chinchwad - IITM",22-02-2026 08:00:00,18.614767,73.799516,PM10,69,180,117
India,Maharashtra,Pimpri-Chinchwad,"Savta Mali Nagar, Pimpri-Chinchwad - IITM",22-02-2026 08:00:00,18.614767,73.799516,OZONE,4,33,7
India,Maharashtra,Pimpri-Chinchwad,"Thergaon, Pimpri Chinchwad - MPCB",22-02-2026 08:00:00,18.616318,73.765797,NO2,15,113,64
India,Maharashtra,Pimpri-Chinchwad,"Thergaon, Pimpri Chinchwad - MPCB",22-02-2026 08:00:00,18.616318,73.765797,CO,18,79,62
India,Maharashtra,Pune,"Bhosari, Pune - IITM",22-02-2026 08:00:00,18.640051,73.848956,PM2.5,NA,NA,NA
India,Maharashtra,Pune,"Bhosari, Pune - IITM",22-02-2026 08:00:00,18.640051,73.848956,PM10,NA,NA,NA
India,Maharashtra,Pune,"Bhosari, Pune - IITM",22-02-2026 08:00:00,18.640051,73.848956,NO2,NA,NA,NA
India,Maharashtra,Thane,"Kasarvadavali, Thane - MPCB",22-02-2026 08:00:00,19.26777,72.97182,SO2,5,18,10
India,Maharashtra,Thane,"Kasarvadavali, Thane - MPCB",22-02-2026 08:00:00,19.26777,72.97182,CO,11,66,49
India,Maharashtra,Thane,"Upvan Fort, Thane - MPCB",22-02-2026 08:00:00,19.222279,72.957979,NO2,13,88,47
India,Maharashtra,Ulhasnagar,"Sidhi Vinayak Nagar, Ulhasnagar - MPCB",22-02-2026 08:00:00,19.235581,73.159121,PM10,103,210,148
India,Maharashtra,Ulhasnagar,"Sidhi Vinayak Nagar, Ulhasnagar - MPCB",22-02-2026 08:00:00,19.235581,73.159121,CO,11,99,58
India,Maharashtra,Virar,"Bolinj, Virar - MPCB",22-02-2026 08:00:00,19.4458210,72.7988231,PM2.5,35,124,73
India,Maharashtra,Virar,"Bolinj, Virar - MPCB",22-02-2026 08:00:00,19.4458210,72.7988231,OZONE,1,43,3
India,Meghalaya,Shillong,"Lumpyngngad, Shillong - Meghalaya PCB",22-02-2026 08:00:00,25.5586,91.8985,OZONE,34,55,47
India,Nagaland,Kohima,"PWD Junction, Kohima - NPCB",22-02-2026 08:00:00,25.6635413,94.0989878,PM2.5,1,92,59
India,Nagaland,Kohima,"PWD Junction, Kohima - NPCB",22-02-2026 08:00:00,25.6635413,94.0989878,OZONE,3,17,6
India,Maharashtra,Pune,"Savitribai Phule Pune University, Pune - MPCB",22-02-2026 08:00:00,18.547056,73.826908,PM2.5,47,114,73
India,Maharashtra,Pune,"Savitribai Phule Pune University, Pune - MPCB",22-02-2026 08:00:00,18.547056,73.826908,PM10,68,133,95
India,Maharashtra,Pune,"Transport Nagar-Nigdi, Pune - IITM",22-02-2026 08:00:00,18.664282,73.763966,PM2.5,60,171,105
India,Maharashtra,Pune,"Transport Nagar-Nigdi, Pune - IITM",22-02-2026 08:00:00,18.664282,73.763966,CO,40,62,50
India,Maharashtra,Sangli,"Vijay Nagar, Sangli - MPCB",22-02-2026 08:00:00, 16.5038,74.3623,PM10,40,91,61
India,Maharashtra,Solapur,"Dnyaneshwar Nagar, Solapur - MPCB",22-02-2026 08:00:00,17.6336264,75.9132495,PM10,52,144,89
India,Maharashtra,Solapur,"Ratandeep Housing Society, Solapur - MPCB",22-02-2026 08:00:00,17.65439,75.90649,NO2,11,121,49
India,Maharashtra,Solapur,"Ratandeep Housing Society, Solapur - MPCB",22-02-2026 08:00:00,17.65439,75.90649,NH3,2,35,9
India,Maharashtra,Solapur,"Ratandeep Housing Society, Solapur - MPCB",22-02-2026 08:00:00,17.65439,75.90649,CO,14,140,22
India,Maharashtra,Thane,"Kasarvadavali, Thane - MPCB",22-02-2026 08:00:00,19.26777,72.97182,PM2.5,35,178,73
India,Odisha,Bileipada,"Tata Township, Bileipada - OSPCB",22-02-2026 08:00:00,22.06156703,85.47409613,NH3,NA,NA,NA
India,Odisha,Bileipada,"Tata Township, Bileipada - OSPCB",22-02-2026 08:00:00,22.06156703,85.47409613,OZONE,7,20,13
India,Odisha,Brajrajnagar,"GM Office, Brajrajnagar - OSPCB",22-02-2026 08:00:00,21.8004996,83.8396977,CO,20,55,36
India,Odisha,Byasanagar,"Ferro Chrome Colony, Byasanagar - OSPCB",22-02-2026 08:00:00,20.94185,86.11510,PM10,123,200,161
India,Odisha,Cuttack,"CDA Area, Cuttack - OSPCB",22-02-2026 08:00:00,20.48891     ,85.84768     ,OZONE,6,308,31
India,Odisha,Keonjhar,"Jagamohanpur, Keonjhar - OSPCB",22-02-2026 08:00:00,21.643900,85.599355,PM2.5,73,91,83
India,Odisha,Keonjhar,"Jagamohanpur, Keonjhar - OSPCB",22-02-2026 08:00:00,21.643900,85.599355,NO2,8,11,9
India,Odisha,Balasore,"Kalidaspur, Balasore - OSPCB",22-02-2026 08:00:00,21.51161,86.89088,CO,48,75,52
India,Odisha,Barbil,"Forest Office, Barbil - OSPCB",22-02-2026 08:00:00,22.1166054,85.3945546,PM10,89,309,182
India,Odisha,Barbil,"Forest Office, Barbil - OSPCB",22-02-2026 08:00:00,22.1166054,85.3945546,NO2,19,106,52
India,Odisha,Barbil,"Forest Office, Barbil - OSPCB",22-02-2026 08:00:00,22.1166054,85.3945546,NH3,1,3,2
India,Odisha,Barbil,"Forest Office, Barbil - OSPCB",22-02-2026 08:00:00,22.1166054,85.3945546,CO,15,57,48
India,Odisha,Bhubaneswar,"Lingraj Mandir, Bhubaneswar - OSPCB",22-02-2026 08:00:00,20.240790,85.836784,CO,37,96,49
India,Odisha,Bhubaneswar,"Patia, Bhubaneswar - OSPCB",22-02-2026 08:00:00,20.34652,85.81630,PM10,98,193,139
India,Odisha,Bhubaneswar,"Patia, Bhubaneswar - OSPCB",22-02-2026 08:00:00,20.34652,85.81630,NH3,5,10,7
India,Maharashtra,Nagpur,"Ram Nagar, Nagpur - MPCB",22-02-2026 08:00:00,21.143383,79.048912,NO2,15,74,30
India,Maharashtra,Nanded,"Sneh Nagar, Nanded - MPCB",22-02-2026 08:00:00,19.173852,77.296291,PM10,68,159,95
India,Maharashtra,Nanded,"Sneh Nagar, Nanded - MPCB",22-02-2026 08:00:00,19.173852,77.296291,CO,17,30,23
India,Maharashtra,Nashik,"Gangapur Road, Nashik - MPCB",22-02-2026 08:00:00,20.0073285,73.7762427,CO,21,22,22
India,Maharashtra,Nashik,"Hirawadi, Nashik - MPCB",22-02-2026 08:00:00,20.021503,73.813844,PM10,73,125,97
India,Maharashtra,Nashik,"Hirawadi, Nashik - MPCB",22-02-2026 08:00:00,20.021503,73.813844,NH3,1,12,3
India,Maharashtra,Nashik,"Hirawadi, Nashik - MPCB",22-02-2026 08:00:00,20.021503,73.813844,SO2,1,88,19
India,Maharashtra,Nashik,"Pandav Nagari, Nashik - MPCB",22-02-2026 08:00:00,19.9591346,73.7788008,PM10,83,119,103
India,Maharashtra,Navi Mumbai,"Kopripada-Vashi, Navi Mumbai - MPCB",22-02-2026 08:00:00,19.090337,73.014232,PM2.5,52,327,106
India,Maharashtra,Navi Mumbai,"Mahape, Navi Mumbai - MPCB",22-02-2026 08:00:00,19.1135051,73.008978,NO2,84,86,85
India,Maharashtra,Navi Mumbai,"Nerul, Navi Mumbai - MPCB",22-02-2026 08:00:00,19.008751,73.016620,NH3,5,5,5
India,Maharashtra,Navi Mumbai,"Sanpada, Navi Mumbai - MPCB",22-02-2026 08:00:00,19.0575752,73.0151367,OZONE,43,43,43
India,Odisha,Rairangpur,"Divisional Forest Office, Rairangpur - OSPCB",22-02-2026 08:00:00,22.265816,86.174829,PM10,86,129,103
India,Odisha,Rourkela,"Fertilizer Township, Rourkela - OSPCB",22-02-2026 08:00:00,22.18972222,84.86277778,NO2,11,11,11
India,Odisha,Rourkela,"Raghunathpali, Rourkela - OSPCB",22-02-2026 08:00:00,22.220833,84.809444,NH3,1,2,1
India,Odisha,Tensa,"Barsua Iron Ore Mines, Tensa - OSPCB",22-02-2026 08:00:00,21.869985,85.167016,PM2.5,5,114,73
India,Odisha,Tensa,"Barsua Iron Ore Mines, Tensa - OSPCB",22-02-2026 08:00:00,21.869985,85.167016,PM10,7,102,85
India,Maharashtra,Pune,"Bhumkar Nagar, Pune - IITM",22-02-2026 08:00:00,18.605770,73.749976,PM2.5,70,330,174
India,Maharashtra,Pune,"Dhankawadi, Pune - IITM",22-02-2026 08:00:00,18.459883,73.852193,OZONE,14,100,26
India,Maharashtra,Pune,"Hadapsar, Pune - IITM",22-02-2026 08:00:00,18.501793,73.927532,NO2,76,159,117
India,Maharashtra,Pune,"Katraj Dairy, Pune - MPCB",22-02-2026 08:00:00,18.454450,73.854155,NO2,22,412,73
India,Maharashtra,Pune,"Katraj Dairy, Pune - MPCB",22-02-2026 08:00:00,18.454450,73.854155,CO,32,111,101
India,Maharashtra,Pune,"Panchawati_Pashan, Pune - IITM",22-02-2026 08:00:00,18.536457,73.805454,PM10,76,140,105
India,Rajasthan,Bhiwadi,"RIICO Ind. Area III, Bhiwadi - RSPCB",22-02-2026 08:00:00,28.194909,76.862296,PM2.5,97,384,258
India,Rajasthan,Bhiwadi,"RIICO Ind. Area III, Bhiwadi - RSPCB",22-02-2026 08:00:00,28.194909,76.862296,PM10,99,434,190
India,Rajasthan,Bhiwadi,"RIICO Ind. Area III, Bhiwadi - RSPCB",22-02-2026 08:00:00,28.194909,76.862296,CO,2,124,41
India,Rajasthan,Bhiwadi,"Vasundhara Nagar_UIT, Bhiwadi - RSPCB",22-02-2026 08:00:00,28.207266,76.829265,PM2.5,133,400,292
India,Rajasthan,Bikaner,"MM Ground, Bikaner - RSPCB",22-02-2026 08:00:00,28.018792,73.292658,PM2.5,33,230,85
India,Rajasthan,Bikaner,"MM Ground, Bikaner - RSPCB",22-02-2026 08:00:00,28.018792,73.292658,PM10,38,421,153
India,Rajasthan,Bundi,"New Colony, Bundi - RSPCB",22-02-2026 08:00:00,25.435774,75.644272,NO2,16,71,34
India,Rajasthan,Bundi,"New Colony, Bundi - RSPCB",22-02-2026 08:00:00,25.435774,75.644272,OZONE,11,126,25
India,Rajasthan,Chittorgarh,"Shastri Nagar, Chittorgarh - RSPCB",22-02-2026 08:00:00,24.892047,74.623527,PM10,67,395,130
India,Rajasthan,Chittorgarh,"Shastri Nagar, Chittorgarh - RSPCB",22-02-2026 08:00:00,24.892047,74.623527,NH3,13,19,15
India,Rajasthan,Chittorgarh,"Shastri Nagar, Chittorgarh - RSPCB",22-02-2026 08:00:00,24.892047,74.623527,OZONE,2,128,6
India,Punjab,Khanna,"Kalal Majra, Khanna - PPCB",22-02-2026 08:00:00,30.736056 ,76.209694,CO,7,37,25
India,Punjab,Ludhiana,"Punjab Agricultural University, Ludhiana - PPCB",22-02-2026 08:00:00,30.9028,75.8086,CO,24,74,49
India,Punjab,Mandi Gobindgarh,"RIMT University, Mandi Gobindgarh - PPCB",22-02-2026 08:00:00,30.649961,76.331442,CO,11,96,42
India,Punjab,Patiala,"Model Town, Patiala - PPCB",22-02-2026 08:00:00,30.349388,76.366642,SO2,6,28,17
India,Punjab,Patiala,"Model Town, Patiala - PPCB",22-02-2026 08:00:00,30.349388,76.366642,OZONE,10,42,12
India,Punjab,Rupnagar,"Ratanpura, Rupnagar - Ambuja Cements",22-02-2026 08:00:00,31.0325454,76.5623046,SO2,8,15,12
India,Punjab,Rupnagar,"Ratanpura, Rupnagar - Ambuja Cements",22-02-2026 08:00:00,31.0325454,76.5623046,CO,25,30,27
India,Rajasthan,Ajmer,"Civil Lines,  Ajmer - RSPCB",22-02-2026 08:00:00,26.470859,74.646594,SO2,3,6,4
India,Rajasthan,Alwar,"Moti Doongri, Alwar - RSPCB",22-02-2026 08:00:00,27.554793,76.611536,NH3,9,20,14
India,Rajasthan,Alwar,"Moti Doongri, Alwar - RSPCB",22-02-2026 08:00:00,27.554793,76.611536,OZONE,6,83,28
India,Rajasthan,Banswara,"Rati Talai, Banswara - RSPCB",22-02-2026 08:00:00,23.555190,74.440010,NO2,16,113,43
India,Rajasthan,Baran,"Bamboliya, Baran - RSPCB",22-02-2026 08:00:00,25.106006,76.469948,PM2.5,47,170,90
India,Rajasthan,Barmer,"Railway Colony, Barmer - RSPCB",22-02-2026 08:00:00,25.747299,71.393989,NH3,5,8,6
India,Rajasthan,Bharatpur,"Krishna Nagar, Bharatpur - RSPCB",22-02-2026 08:00:00,27.215415,77.50873,PM10,44,130,89
India,Rajasthan,Bhilwara,"Pratap Nagar, Bhilwara - RSPCB",22-02-2026 08:00:00,25.339605,74.618883,PM2.5,67,309,148
India,Rajasthan,Bhilwara,"Pratap Nagar, Bhilwara - RSPCB",22-02-2026 08:00:00,25.339605,74.618883,PM10,71,220,128
India,Odisha,Tensa,"Barsua Iron Ore Mines, Tensa - OSPCB",22-02-2026 08:00:00,21.869985,85.167016,CO,30,68,48
India,Punjab,Amritsar,"Golden Temple, Amritsar - PPCB",22-02-2026 08:00:00,31.620000,74.876512,PM10,66,107,80
India,Punjab,Amritsar,"Golden Temple, Amritsar - PPCB",22-02-2026 08:00:00,31.620000,74.876512,OZONE,31,41,36
India,Punjab,Bathinda,"Hardev Nagar, Bathinda - PPCB",22-02-2026 08:00:00,30.233011,74.907758,PM10,32,111,74
India,Punjab,Jalandhar,"Civil Line, Jalandhar - PPCB",22-02-2026 08:00:00,31.321907,75.578914,NO2,37,42,40
India,Punjab,Jalandhar,"Civil Line, Jalandhar - PPCB",22-02-2026 08:00:00,31.321907,75.578914,SO2,18,19,19
India,Punjab,Jalandhar,"Civil Line, Jalandhar - PPCB",22-02-2026 08:00:00,31.321907,75.578914,OZONE,55,95,70
India,Punjab,Khanna,"Kalal Majra, Khanna - PPCB",22-02-2026 08:00:00,30.736056 ,76.209694,NH3,7,7,7
India,Rajasthan,Churu,"Subash Chowk, Churu - RSPCB",22-02-2026 08:00:00,28.296139,74.961696,NO2,12,55,25
India,Rajasthan,Churu,"Subash Chowk, Churu - RSPCB",22-02-2026 08:00:00,28.296139,74.961696,CO,24,66,28
India,Rajasthan,Dausa,"Khatikan Mohalla, Dausa - RSPCB",22-02-2026 08:00:00,26.895552,76.334753,NH3,4,9,6
India,Rajasthan,Dholpur,"Raja Ganj, Dholpur - RSPCB",22-02-2026 08:00:00,26.699557,77.898881,NO2,21,58,35
India,Rajasthan,Hanumangarh,"Housing Board, Hanumangarh - RSPCB",22-02-2026 08:00:00,29.610750,74.283608,PM2.5,41,210,93
India,Rajasthan,Hanumangarh,"Housing Board, Hanumangarh - RSPCB",22-02-2026 08:00:00,29.610750,74.283608,SO2,1,24,9
India,Rajasthan,Hanumangarh,"Housing Board, Hanumangarh - RSPCB",22-02-2026 08:00:00,29.610750,74.283608,OZONE,12,94,31
India,Rajasthan,Jodhpur,"Collectorate, Jodhpur - RSPCB",22-02-2026 08:00:00,26.268249,73.0193853,NO2,17,35,24
India,Rajasthan,Jodhpur,"Digari Kalan, Jodhpur - RSPCB",22-02-2026 08:00:00,26.295810,73.082283,NH3,5,10,6
India,Rajasthan,Jodhpur,"Digari Kalan, Jodhpur - RSPCB",22-02-2026 08:00:00,26.295810,73.082283,CO,20,62,30
India,Rajasthan,Jodhpur,"Jhalamand, Jodhpur - RSPCB",22-02-2026 08:00:00,26.215415,73.070156,NO2,7,94,39
India,Rajasthan,Jodhpur,"Mandor, Jodhpur - RSPCB",22-02-2026 08:00:00,26.358805,73.047444,PM2.5,37,93,62
India,Rajasthan,Jodhpur,"Samrat Ashok Udhyan, Jodhpur - RSPCB",22-02-2026 08:00:00,26.253384,72.976571,PM2.5,40,253,98
India,Rajasthan,Jaipur,"Adarsh Nagar, Jaipur - RSPCB",22-02-2026 08:00:00,26.902909,75.836858,CO,39,112,68
India,Rajasthan,Jaipur,"Mansarovar Sector-12, Jaipur - RSPCB",22-02-2026 08:00:00,26.843698,75.766894,NH3,9,16,13
India,Rajasthan,Jaipur,"RIICO Sitapura, Jaipur - RSPCB",22-02-2026 08:00:00,26.786682,75.827928,PM10,62,382,160
India,Rajasthan,Jaipur,"RIICO Sitapura, Jaipur - RSPCB",22-02-2026 08:00:00,26.786682,75.827928,CO,16,116,72
India,Rajasthan,Jaipur,"RIICO Sitapura, Jaipur - RSPCB",22-02-2026 08:00:00,26.786682,75.827928,OZONE,7,133,20
India,Rajasthan,Jaipur,"Sector-2 Murlipura, Jaipur - RSPCB",22-02-2026 08:00:00,26.960669,75.771817,SO2,4,13,7
India,Rajasthan,Jalore,"Mudtra Sili, Jalore - RSPCB",22-02-2026 08:00:00,25.344694,72.626208,NH3,4,7,5
India,Rajasthan,Jalore,"Mudtra Sili, Jalore - RSPCB",22-02-2026 08:00:00,25.344694,72.626208,SO2,4,14,7
India,Rajasthan,Jhunjhunu,"Indra Nagar, Jhunjhunu - RSPCB",22-02-2026 08:00:00,28.108988,75.386577,PM2.5,27,241,82
India,Rajasthan,Sikar,"Radhakishan Pura, Sikar - RSPCB",22-02-2026 08:00:00,27.608912,75.153302,OZONE,20,114,38
India,Rajasthan,Sirohi,"Vedhaynath Colony, Sirohi - RSPCB",22-02-2026 08:00:00,24.885261,72.857549,SO2,4,37,11
India,Rajasthan,Sri Ganganagar,"Old City, Sri Ganganagar - RSPCB",22-02-2026 08:00:00,29.931624,73.864511,PM10,55,374,143
India,Rajasthan,Sri Ganganagar,"Old City, Sri Ganganagar - RSPCB",22-02-2026 08:00:00,29.931624,73.864511,CO,34,157,62
India,Rajasthan,Sri Ganganagar,"Old City, Sri Ganganagar - RSPCB",22-02-2026 08:00:00,29.931624,73.864511,OZONE,16,193,39
India,Rajasthan,Tonk,"Shastri Nagar, Tonk - RSPCB",22-02-2026 08:00:00,26.159933,75.780517,SO2,2,7,4
India,Sikkim,Gangtok,"Zero Point GICI, Gangtok - SSPCB",22-02-2026 08:00:00,27.338530,88.614099,PM10,32,66,51
India,TamilNadu,Chennai,"Arumbakkam, Chennai - TNPCB",22-02-2026 08:00:00,13.0664,80.2112 ,PM10,55,102,78
India,TamilNadu,Chennai,"Arumbakkam, Chennai - TNPCB",22-02-2026 08:00:00,13.0664,80.2112 ,NO2,8,18,12
India,TamilNadu,Chennai,"Manali Village, Chennai - TNPCB",22-02-2026 08:00:00,13.1662,80.2584,NH3,1,6,2
India,TamilNadu,Chennai,"Manali Village, Chennai - TNPCB",22-02-2026 08:00:00,13.1662,80.2584,SO2,13,24,16
India,TamilNadu,Chennai,"Manali Village, Chennai - TNPCB",22-02-2026 08:00:00,13.1662,80.2584,CO,23,48,42
India,TamilNadu,Chennai,"Manali Village, Chennai - TNPCB",22-02-2026 08:00:00,13.1662,80.2584,OZONE,15,36,32
India,TamilNadu,Chennai,"Manali, Chennai - CPCB",22-02-2026 08:00:00,13.164544,80.26285,OZONE,10,10,10
India,TamilNadu,Chennai,"Perungudi, Chennai - TNPCB",22-02-2026 08:00:00,12.9533,80.2357,PM2.5,28,78,48
India,TamilNadu,Chennai,"Perungudi, Chennai - TNPCB",22-02-2026 08:00:00,12.9533,80.2357,NH3,1,1,1
India,TamilNadu,Chennai,"Perungudi, Chennai - TNPCB",22-02-2026 08:00:00,12.9533,80.2357,CO,33,44,39
India,TamilNadu,Chennai,"Perungudi, Chennai - TNPCB",22-02-2026 08:00:00,12.9533,80.2357,OZONE,1,7,2
India,TamilNadu,Chennai,"Royapuram, Chennai - TNPCB",22-02-2026 08:00:00,13.1036,80.2909,NO2,1,9,2
India,TamilNadu,Chennai,"Velachery Res. Area, Chennai - CPCB",22-02-2026 08:00:00,13.0052189,80.2398125,PM2.5,NA,NA,NA
India,TamilNadu,Chennai,"Velachery Res. Area, Chennai - CPCB",22-02-2026 08:00:00,13.0052189,80.2398125,PM10,NA,NA,NA
India,Rajasthan,Jodhpur,"Samrat Ashok Udhyan, Jodhpur - RSPCB",22-02-2026 08:00:00,26.253384,72.976571,NO2,10,124,50
India,Rajasthan,Karauli,"Satyawati Vihar, Karauli - RSPCB",22-02-2026 08:00:00,26.506177,77.025989,NO2,NA,NA,NA
India,Rajasthan,Karauli,"Satyawati Vihar, Karauli - RSPCB",22-02-2026 08:00:00,26.506177,77.025989,CO,9,181,181
India,Rajasthan,Karauli,"Satyawati Vihar, Karauli - RSPCB",22-02-2026 08:00:00,26.506177,77.025989,OZONE,1,117,17
India,Rajasthan,Kota,"Dhanmandi, Kota - RSPCB",22-02-2026 08:00:00,25.164090,75.858137,OZONE,6,134,6
India,Rajasthan,Kota,"Nayapura, Kota - RSPCB",22-02-2026 08:00:00,25.196024,75.855668,SO2,3,31,11
India,Rajasthan,Kota,"Nayapura, Kota - RSPCB",22-02-2026 08:00:00,25.196024,75.855668,CO,16,112,52
India,Rajasthan,Kota,"Shrinath Puram, Kota - RSPCB",22-02-2026 08:00:00,25.14389,75.821256,PM2.5,127,319,210
India,Rajasthan,Kota,"Shrinath Puram, Kota - RSPCB",22-02-2026 08:00:00,25.14389,75.821256,PM10,80,185,124
India,Rajasthan,Kota,"Shrinath Puram, Kota - RSPCB",22-02-2026 08:00:00,25.14389,75.821256,CO,11,106,40
India,Tripura,Agartala,"Bardowali, Agartala - Tripura SPCB",22-02-2026 08:00:00,23.8175497,91.2726974,SO2,8,10,9
India,Tripura,Agartala,"Bardowali, Agartala - Tripura SPCB",22-02-2026 08:00:00,23.8175497,91.2726974,CO,18,38,19
India,Tripura,Agartala,"Bardowali, Agartala - Tripura SPCB",22-02-2026 08:00:00,23.8175497,91.2726974,OZONE,2,8,2
India,Uttar_Pradesh,Agra,"Manoharpur, Agra - UPPCB",22-02-2026 08:00:00,27.23711,78.01936,NO2,26,26,26
India,Uttar_Pradesh,Agra,"Sanjay Palace, Agra - UPPCB",22-02-2026 08:00:00,27.19865833,78.00598056,PM2.5,40,310,132
India,Uttar_Pradesh,Agra,"Sanjay Palace, Agra - UPPCB",22-02-2026 08:00:00,27.19865833,78.00598056,PM10,49,137,89
India,Uttar_Pradesh,Agra,"Sanjay Palace, Agra - UPPCB",22-02-2026 08:00:00,27.19865833,78.00598056,NO2,2,12,6
India,Uttar_Pradesh,Agra,"Sector-3B Avas Vikas Colony, Agra - UPPCB",22-02-2026 08:00:00,27.19412,77.96237,NH3,5,5,5
India,Telangana,Hyderabad,"Kompally Municipal Office, Hyderabad - TSPCB",22-02-2026 08:00:00,17.544899,78.486949,OZONE,27,39,38
India,Telangana,Hyderabad,"Nacharam_TSIIC IALA, Hyderabad - TSPCB",22-02-2026 08:00:00,17.429398,78.569354,NO2,11,17,14
India,Telangana,Hyderabad,"New Malakpet, Hyderabad - TSPCB",22-02-2026 08:00:00,17.37206,78.50864,CO,26,45,27
India,Telangana,Hyderabad,"Sanathnagar, Hyderabad - TSPCB",22-02-2026 08:00:00,17.4559458,78.4332152,PM2.5,30,65,40
India,Telangana,Hyderabad,"Sanathnagar, Hyderabad - TSPCB",22-02-2026 08:00:00,17.4559458,78.4332152,CO,42,55,47
India,Telangana,Hyderabad,"Somajiguda, Hyderabad - TSPCB",22-02-2026 08:00:00,17.417094,78.457437,PM10,80,105,87
India,Telangana,Hyderabad,"Zoo Park, Hyderabad - TSPCB",22-02-2026 08:00:00,17.349694,78.451437,NH3,3,3,3
India,Telangana,Hyderabad,"ICRISAT Patancheru, Hyderabad - TSPCB",22-02-2026 08:00:00,17.518400,78.278777,NH3,1,3,2
India,Telangana,Hyderabad,"ICRISAT Patancheru, Hyderabad - TSPCB",22-02-2026 08:00:00,17.518400,78.278777,CO,4,39,12
India,Telangana,Hyderabad,"IITH Kandi, Hyderabad - TSPCB",22-02-2026 08:00:00,17.585705,78.126199,PM10,NA,NA,NA
India,Telangana,Hyderabad,"IITH Kandi, Hyderabad - TSPCB",22-02-2026 08:00:00,17.585705,78.126199,NO2,17,22,19
India,Telangana,Hyderabad,"IITH Kandi, Hyderabad - TSPCB",22-02-2026 08:00:00,17.585705,78.126199,OZONE,18,36,23
India,Telangana,Hyderabad,"Kokapet, Hyderabad - TSPCB",22-02-2026 08:00:00,17.393559,78.339194,PM10,82,100,93
India,Telangana,Hyderabad,"Kokapet, Hyderabad - TSPCB",22-02-2026 08:00:00,17.393559,78.339194,SO2,13,20,16
India,Telangana,Hyderabad,"Kokapet, Hyderabad - TSPCB",22-02-2026 08:00:00,17.393559,78.339194,OZONE,17,33,18
India,Telangana,Hyderabad,"Kompally Municipal Office, Hyderabad - TSPCB",22-02-2026 08:00:00,17.544899,78.486949,SO2,10,17,15
India,Uttar_Pradesh,Agra,"Shahjahan Garden, Agra - UPPCB",22-02-2026 08:00:00,27.169338,78.03582,PM2.5,11,80,46
India,Uttar_Pradesh,Agra,"Shastripuram, Agra - UPPCB",22-02-2026 08:00:00,27.19862,77.92066,SO2,29,54,40
India,Uttar_Pradesh,Baghpat,"Sardar Patel Inter College, Baghpat - UPPCB",22-02-2026 08:00:00,28.964949,77.278761,NO2,16,57,34
India,Uttar_Pradesh,Bareilly,"Rajendra Nagar, Bareilly - UPPCB",22-02-2026 08:00:00,28.38910936,79.42963708,NO2,9,10,10
India,Uttar_Pradesh,Bareilly,"Rajendra Nagar, Bareilly - UPPCB",22-02-2026 08:00:00,28.38910936,79.42963708,SO2,38,39,38
India,Uttar_Pradesh,Bulandshahr,"Yamunapuram, Bulandshahr - UPPCB",22-02-2026 08:00:00,28.406963,77.849831,PM10,NA,NA,NA
India,Rajasthan,Pali,"Indira Colony Vistar, Pali - RSPCB",22-02-2026 08:00:00,25.771061, 73.340227,SO2,5,10,9
India,Rajasthan,Pali,"Indira Colony Vistar, Pali - RSPCB",22-02-2026 08:00:00,25.771061, 73.340227,OZONE,1,48,5
India,Rajasthan,Pratapgarh,"Pragati Nagar, Pratapgarh - RSPCB",22-02-2026 08:00:00,24.041198,74.780702,NH3,5,8,6
India,Rajasthan,Pratapgarh,"Pragati Nagar, Pratapgarh - RSPCB",22-02-2026 08:00:00,24.041198,74.780702,CO,20,42,23
India,Rajasthan,Sawai Madhopur,"Sahu Nagar, Sawai Madhopur - RSPCB",22-02-2026 08:00:00,26.031443,76.359327,CO,13,100,48
India,TamilNadu,Thoothukudi,"Meelavittan, Thoothukudi - TNPCB",22-02-2026 08:00:00,8.816428 ,78.099039,PM10,37,119,55
India,Uttarakhand,Dehradun,"Doon University, Dehradun - UKPCB",22-02-2026 08:00:00,30.269444,78.044167,CO,7,8,8
India,Uttarakhand,Kashipur,"Govt. Girls Inter College, Kashipur - UKPCB",22-02-2026 08:00:00,29.2124114,78.9611753,PM2.5,NA,NA,NA
India,Uttarakhand,Kashipur,"Govt. Girls Inter College, Kashipur - UKPCB",22-02-2026 08:00:00,29.2124114,78.9611753,SO2,NA,NA,NA
India,Uttarakhand,Kashipur,"Govt. Girls Inter College, Kashipur - UKPCB",22-02-2026 08:00:00,29.2124114,78.9611753,CO,16,21,18
India,Uttarakhand,Kashipur,"Govt. Girls Inter College, Kashipur - UKPCB",22-02-2026 08:00:00,29.2124114,78.9611753,OZONE,4,7,5
India,Uttarakhand,Rishikesh,"Shivaji Nagar, Rishikesh - UKPCB",22-02-2026 08:00:00,30.075911,78.2859547,NO2,21,21,21
India,West_Bengal,Asansol,"Asansol Court Area, Asansol - WBPCB",22-02-2026 08:00:00,23.685297,86.945968,NH3,2,9,5
India,West_Bengal,Asansol,"Asansol Court Area, Asansol - WBPCB",22-02-2026 08:00:00,23.685297,86.945968,OZONE,11,34,13
India,West_Bengal,Asansol,"Evelyn Lodge, Asansol - WBPCB",22-02-2026 08:00:00,23.6979360,86.9443950,NO2,11,64,31
India,West_Bengal,Asansol,"Evelyn Lodge, Asansol - WBPCB",22-02-2026 08:00:00,23.6979360,86.9443950,OZONE,3,45,3
India,West_Bengal,Asansol,"Mahabir Colliery, Asansol - WBPCB",22-02-2026 08:00:00,23.6181830,87.1057180,PM2.5,31,312,176
India,West_Bengal,Asansol,"Mahabir Colliery, Asansol - WBPCB",22-02-2026 08:00:00,23.6181830,87.1057180,PM10,58,180,128
India,West_Bengal,Asansol,"Mahabir Colliery, Asansol - WBPCB",22-02-2026 08:00:00,23.6181830,87.1057180,NO2,8,23,16
India,West_Bengal,Asansol,"Mahabir Colliery, Asansol - WBPCB",22-02-2026 08:00:00,23.6181830,87.1057180,SO2,5,9,7
India,Uttar_Pradesh,Prayagraj,"Nagar Nigam, Prayagraj - UPPCB",22-02-2026 08:00:00,25.44919916 ,81.82735986 ,CO,22,59,36
India,Uttar_Pradesh,Varanasi,"Ardhali Bazar, Varanasi - UPPCB",22-02-2026 08:00:00,25.3505986,82.9083074,PM2.5,14,73,45
India,Uttar_Pradesh,Varanasi,"Ardhali Bazar, Varanasi - UPPCB",22-02-2026 08:00:00,25.3505986,82.9083074,PM10,20,98,62
India,Uttar_Pradesh,Varanasi,"Ardhali Bazar, Varanasi - UPPCB",22-02-2026 08:00:00,25.3505986,82.9083074,CO,8,19,14
India,Uttar_Pradesh,Varanasi,"Bhelupur, Varanasi - UPPCB",22-02-2026 08:00:00,25.301778,82.996789,SO2,26,31,28
India,Uttar_Pradesh,Varanasi,"IESD Banaras Hindu University, Varanasi - UPPCB",22-02-2026 08:00:00,25.262326,82.995408,PM2.5,2,71,31
India,Uttar_Pradesh,Varanasi,"IESD Banaras Hindu University, Varanasi - UPPCB",22-02-2026 08:00:00,25.262326,82.995408,PM10,28,109,60
India,Uttar_Pradesh,Varanasi,"IESD Banaras Hindu University, Varanasi - UPPCB",22-02-2026 08:00:00,25.262326,82.995408,NH3,1,4,2
India,Uttar_Pradesh,Varanasi,"Maldahiya, Varanasi - UPPCB",22-02-2026 08:00:00,25.32393,82.99687,PM10,28,75,49
India,Uttar_Pradesh,Varanasi,"Maldahiya, Varanasi - UPPCB",22-02-2026 08:00:00,25.32393,82.99687,NO2,2,5,2
India,Uttar_Pradesh,Vrindavan,"Omex Eternity, Vrindavan - UPPCB",22-02-2026 08:00:00,27.5714090,77.6557570,NO2,27,28,27
India,Uttarakhand,Dehradun,"Doon University, Dehradun - UKPCB",22-02-2026 08:00:00,30.269444,78.044167,PM10,59,121,105
India,Uttar_Pradesh,Meerut,"Ganga Nagar, Meerut - UPPCB",22-02-2026 08:00:00,28.999264,77.7590354,SO2,17,21,18
India,Uttar_Pradesh,Meerut,"Jai Bhim Nagar, Meerut - UPPCB",22-02-2026 08:00:00,28.9535882,77.7622941,PM10,111,166,137
India,Uttar_Pradesh,Meerut,"Jai Bhim Nagar, Meerut - UPPCB",22-02-2026 08:00:00,28.9535882,77.7622941,NO2,33,59,46
India,Uttar_Pradesh,Meerut,"Pallavpuram Phase 2, Meerut - UPPCB",22-02-2026 08:00:00,29.063510,77.709723,NO2,31,86,51
India,Uttar_Pradesh,Meerut,"Pallavpuram Phase 2, Meerut - UPPCB",22-02-2026 08:00:00,29.063510,77.709723,OZONE,13,155,25
India,Uttar_Pradesh,Moradabad,"Buddhi Vihar, Moradabad - UPPCB",22-02-2026 08:00:00,28.83526,78.74460,PM10,71,149,91
India,Uttar_Pradesh,Moradabad,"Buddhi Vihar, Moradabad - UPPCB",22-02-2026 08:00:00,28.83526,78.74460,SO2,18,53,29
India,Uttar_Pradesh,Moradabad,"Eco Herbal Park, Moradabad - UPPCB",22-02-2026 08:00:00,28.840739,78.697531,NH3,4,7,5
India,Uttar_Pradesh,Moradabad,"Eco Herbal Park, Moradabad - UPPCB",22-02-2026 08:00:00,28.840739,78.697531,CO,40,101,45
India,Uttar_Pradesh,Moradabad,"Eco Herbal Park, Moradabad - UPPCB",22-02-2026 08:00:00,28.840739,78.697531,OZONE,8,71,15
India,Uttar_Pradesh,Moradabad,"Employment Office, Moradabad - UPPCB",22-02-2026 08:00:00,28.88528,78.73880,PM10,100,149,116
India,Uttar_Pradesh,Moradabad,"Employment Office, Moradabad - UPPCB",22-02-2026 08:00:00,28.88528,78.73880,SO2,25,28,25
India,Uttar_Pradesh,Moradabad,"Employment Office, Moradabad - UPPCB",22-02-2026 08:00:00,28.88528,78.73880,CO,2,68,30
India,Uttar_Pradesh,Moradabad,"Employment Office, Moradabad - UPPCB",22-02-2026 08:00:00,28.88528,78.73880,OZONE,16,21,17
India,Uttar_Pradesh,Moradabad,"Jigar Colony, Moradabad - UPPCB",22-02-2026 08:00:00,28.856664,78.772638,NO2,24,25,25
India,Uttar_Pradesh,Moradabad,"Jigar Colony, Moradabad - UPPCB",22-02-2026 08:00:00,28.856664,78.772638,SO2,32,43,36
India,Uttar_Pradesh,Moradabad,"Jigar Colony, Moradabad - UPPCB",22-02-2026 08:00:00,28.856664,78.772638,CO,40,40,40
India,Uttar_Pradesh,Moradabad,"Transport Nagar, Moradabad - UPPCB",22-02-2026 08:00:00,28.802625,78.753728,PM10,59,103,79
India,Uttar_Pradesh,Moradabad,"Transport Nagar, Moradabad - UPPCB",22-02-2026 08:00:00,28.802625,78.753728,SO2,39,43,41
India,Uttar_Pradesh,Muzaffarnagar,"New Mandi, Muzaffarnagar - UPPCB",22-02-2026 08:00:00,29.4723508,77.7194031,PM2.5,80,256,161
India,Uttar_Pradesh,Noida,"Sector - 125, Noida - UPPCB",22-02-2026 08:00:00,28.5447608,77.3231257,PM10,89,198,143
India,Uttar_Pradesh,Noida,"Sector - 125, Noida - UPPCB",22-02-2026 08:00:00,28.5447608,77.3231257,OZONE,8,10,9
India,Uttar_Pradesh,Lucknow,"B R Ambedkar University, Lucknow - UPPCB",22-02-2026 08:00:00,26.766433,80.927299,CO,16,20,19
India,Uttar_Pradesh,Lucknow,"B R Ambedkar University, Lucknow - UPPCB",22-02-2026 08:00:00,26.766433,80.927299,OZONE,21,87,28
India,Uttar_Pradesh,Lucknow,"Gomti Nagar, Lucknow - UPPCB",22-02-2026 08:00:00,26.868120,81.005119,PM2.5,68,182,104
India,Uttar_Pradesh,Lucknow,"Kukrail Picnic Spot-1, Lucknow - UPPCB",22-02-2026 08:00:00,26.90723,80.98579,PM10,45,100,64
India,Uttar_Pradesh,Lucknow,"Kukrail Picnic Spot-1, Lucknow - UPPCB",22-02-2026 08:00:00,26.90723,80.98579,NO2,32,33,32
India,Uttar_Pradesh,Lucknow,"Lalbagh, Lucknow - CPCB",22-02-2026 08:00:00,26.8458805,80.9365541,NH3,13,21,17
India,Uttar_Pradesh,Lucknow,"Lalbagh, Lucknow - CPCB",22-02-2026 08:00:00,26.8458805,80.9365541,OZONE,17,47,22
India,Uttar_Pradesh,Lucknow,"Talkatora District Industries Center, Lucknow - CPCB",22-02-2026 08:00:00,26.83399722,80.8917361,PM10,124,149,134
India,Uttar_Pradesh,Noida,"Sector - 62, Noida - IMD",22-02-2026 08:00:00,28.6245479,77.3577104,PM10,119,228,170
India,Uttar_Pradesh,Noida,"Sector-1, Noida - UPPCB",22-02-2026 08:00:00,28.5898,77.3101,NO2,29,89,54
India,Uttar_Pradesh,Noida,"Sector-1, Noida - UPPCB",22-02-2026 08:00:00,28.5898,77.3101,CO,42,107,75
India,Uttar_Pradesh,Noida,"Sector-116, Noida - UPPCB",22-02-2026 08:00:00,28.569230,77.393848,NO2,41,147,98
India,Uttar_Pradesh,Noida,"Sector-116, Noida - UPPCB",22-02-2026 08:00:00,28.569230,77.393848,SO2,8,18,12
India,Uttar_Pradesh,Prayagraj,"Jhunsi, Prayagraj - UPPCB",22-02-2026 08:00:00,25.425602,81.917152,NH3,5,5,5
India,Uttar_Pradesh,Prayagraj,"Jhunsi, Prayagraj - UPPCB",22-02-2026 08:00:00,25.425602,81.917152,OZONE,18,39,18
India,Uttar_Pradesh,Prayagraj,"Nagar Nigam, Prayagraj - UPPCB",22-02-2026 08:00:00,25.44919916 ,81.82735986 ,PM2.5,27,70,44
India,Uttar_Pradesh,Prayagraj,"Nagar Nigam, Prayagraj - UPPCB",22-02-2026 08:00:00,25.44919916 ,81.82735986 ,NO2,5,5,5
India,Uttar_Pradesh,Jhansi,"Shivaji Nagar, Jhansi - UPPCB",22-02-2026 08:00:00,25.4547,78.6039,NH3,4,4,4
India,Uttar_Pradesh,Jhansi,"Shivaji Nagar, Jhansi - UPPCB",22-02-2026 08:00:00,25.4547,78.6039,CO,10,47,24
India,Uttar_Pradesh,Kanpur,"FTI Kidwai Nagar, Kanpur - UPPCB",22-02-2026 08:00:00,26.428282,80.327067,PM2.5,40,186,94
India,Uttar_Pradesh,Kanpur,"NSI Kalyanpur, Kanpur - UPPCB",22-02-2026 08:00:00,26.509954,80.249612,PM2.5,48,92,71
India,Uttar_Pradesh,Kanpur,"NSI Kalyanpur, Kanpur - UPPCB",22-02-2026 08:00:00,26.509954,80.249612,NH3,5,5,5
India,Uttar_Pradesh,Kanpur,"NSI Kalyanpur, Kanpur - UPPCB",22-02-2026 08:00:00,26.509954,80.249612,CO,30,48,38
India,Uttar_Pradesh,Khurja,"Kalindi Kunj, Khurja - UPPCB",22-02-2026 08:00:00,28.2348927,77.8683002,SO2,14,14,14
India,Uttar_Pradesh,Lucknow,"B R Ambedkar University, Lucknow - UPPCB",22-02-2026 08:00:00,26.766433,80.927299,NO2,12,12,12
India,Uttar_Pradesh,Ghaziabad,"Vasundhara, Ghaziabad - UPPCB",22-02-2026 08:00:00,28.6603346,77.3572563,SO2,1,58,21
India,Uttar_Pradesh,Ghaziabad,"Vasundhara, Ghaziabad - UPPCB",22-02-2026 08:00:00,28.6603346,77.3572563,CO,10,104,47
India,Uttar_Pradesh,Gorakhpur,"Madan Mohan Malaviya University of Technology, Gorakhpur - UPPCB",22-02-2026 08:00:00,26.730136,83.433859,NH3,1,1,1
India,Uttar_Pradesh,Greater Noida,"Knowledge Park - V, Greater Noida - UPPCB",22-02-2026 08:00:00,28.557054,77.453663,PM2.5,88,339,249
India,Uttar_Pradesh,Greater Noida,"Knowledge Park - V, Greater Noida - UPPCB",22-02-2026 08:00:00,28.557054,77.453663,SO2,12,31,19
India,Uttar_Pradesh,Hapur,"Anand Vihar, Hapur - UPPCB",22-02-2026 08:00:00,28.725645,77.749675,PM2.5,89,325,242
India,Uttar_Pradesh,Bulandshahr,"Yamunapuram, Bulandshahr - UPPCB",22-02-2026 08:00:00,28.406963,77.849831,SO2,NA,NA,NA
India,Uttar_Pradesh,Firozabad,"Nagla Bhau, Firozabad - UPPCB",22-02-2026 08:00:00,27.168897,78.376960,NH3,2,2,2
India,Uttar_Pradesh,Firozabad,"Nagla Bhau, Firozabad - UPPCB",22-02-2026 08:00:00,27.168897,78.376960,CO,8,66,16
India,Uttar_Pradesh,Ghaziabad,"Indirapuram, Ghaziabad - UPPCB",22-02-2026 08:00:00,28.646233,77.358075,OZONE,13,27,13
India,Uttar_Pradesh,Ghaziabad,"Loni, Ghaziabad - UPPCB",22-02-2026 08:00:00,28.757294,77.278792,OZONE,2,78,6
India,Uttar_Pradesh,Ghaziabad,"Sanjay Nagar, Ghaziabad - UPPCB",22-02-2026 08:00:00,28.685382,77.453839,SO2,4,28,13
India,West_Bengal,Barrackpore,"SVSPA Campus, Barrackpore - WBPCB",22-02-2026 08:00:00,22.7605581,88.3617589,PM2.5,51,160,101
India,West_Bengal,Barrackpore,"SVSPA Campus, Barrackpore - WBPCB",22-02-2026 08:00:00,22.7605581,88.3617589,PM10,43,132,91
India,West_Bengal,Durgapur,"Mahishkapur Road_B-Zone, Durgapur - WBPCB",22-02-2026 08:00:00,23.567923,87.306843,PM2.5,38,239,116
India,West_Bengal,Durgapur,"Mahishkapur Road_B-Zone, Durgapur - WBPCB",22-02-2026 08:00:00,23.567923,87.306843,PM10,42,135,100
India,West_Bengal,Durgapur,"Mahishkapur Road_B-Zone, Durgapur - WBPCB",22-02-2026 08:00:00,23.567923,87.306843,OZONE,10,38,14
India,West_Bengal,Durgapur,"PCBL Residential Complex, Durgapur - WBPCB",22-02-2026 08:00:00,23.5087640,87.3544400,PM2.5,57,328,195
India,West_Bengal,Durgapur,"PCBL Residential Complex, Durgapur - WBPCB",22-02-2026 08:00:00,23.5087640,87.3544400,PM10,54,190,126
India,West_Bengal,Durgapur,"PCBL Residential Complex, Durgapur - WBPCB",22-02-2026 08:00:00,23.5087640,87.3544400,NO2,19,142,73
India,West_Bengal,Durgapur,"Womens College_City Center, Durgapur - WBPCB",22-02-2026 08:00:00,23.549395,87.300496,NO2,23,35,28
India,West_Bengal,Haldia,"Priyambada Housing Estate, Haldia - WBPCB",22-02-2026 08:00:00,22.06047,88.109737,PM2.5,68,188,134
India,West_Bengal,Haldia,"Priyambada Housing Estate, Haldia - WBPCB",22-02-2026 08:00:00,22.06047,88.109737,NH3,7,8,8
India,West_Bengal,Howrah,"Belur Math, Howrah - WBPCB",22-02-2026 08:00:00,22.629801,88.352017,PM10,88,258,162
India,West_Bengal,Howrah,"Belur Math, Howrah - WBPCB",22-02-2026 08:00:00,22.629801,88.352017,CO,20,101,71
India,West_Bengal,Howrah,"Dasnagar, Howrah - WBPCB",22-02-2026 08:00:00,22.6025571,88.3105664,PM10,58,191,125
India,West_Bengal,Howrah,"Dasnagar, Howrah - WBPCB",22-02-2026 08:00:00,22.6025571,88.3105664,SO2,11,64,26
India,West_Bengal,Howrah,"Ghusuri, Howrah - WBPCB",22-02-2026 08:00:00,22.611968,88.347422,NH3,7,19,12
India,West_Bengal,Howrah,"Ghusuri, Howrah - WBPCB",22-02-2026 08:00:00,22.611968,88.347422,SO2,9,20,14
India,West_Bengal,Howrah,"Padmapukur, Howrah - WBPCB",22-02-2026 08:00:00,22.5687319,88.2797276,PM10,104,264,170
India,West_Bengal,Howrah,"Padmapukur, Howrah - WBPCB",22-02-2026 08:00:00,22.5687319,88.2797276,NH3,4,32,10
India,West_Bengal,Howrah,"Padmapukur, Howrah - WBPCB",22-02-2026 08:00:00,22.5687319,88.2797276,SO2,4,12,8
India,West_Bengal,Howrah,"Padmapukur, Howrah - WBPCB",22-02-2026 08:00:00,22.5687319,88.2797276,OZONE,11,56,13
India,West_Bengal,Kolkata,"Ballygunge, Kolkata - WBPCB",22-02-2026 08:00:00,22.5367507,88.3638022,PM10,107,207,144
India,West_Bengal,Kolkata,"Bidhannagar, Kolkata - WBPCB",22-02-2026 08:00:00,22.58157048,88.41002457,NO2,13,16,14
India,West_Bengal,Kolkata,"Bidhannagar, Kolkata - WBPCB",22-02-2026 08:00:00,22.58157048,88.41002457,SO2,8,15,11
India,West_Bengal,Kolkata,"Fort William, Kolkata - WBPCB",22-02-2026 08:00:00,22.556640,88.342674,PM10,82,176,130
India,West_Bengal,Kolkata,"Jadavpur, Kolkata - WBPCB",22-02-2026 08:00:00,22.49929,88.36917,PM2.5,88,350,222
India,West_Bengal,Kolkata,"Jadavpur, Kolkata - WBPCB",22-02-2026 08:00:00,22.49929,88.36917,NH3,6,12,8
India,West_Bengal,Kolkata,"Jadavpur, Kolkata - WBPCB",22-02-2026 08:00:00,22.49929,88.36917,SO2,2,6,4
India,West_Bengal,Kolkata,"Rabindra Bharati University, Kolkata - WBPCB",22-02-2026 08:00:00,22.627847,88.380669,PM2.5,110,335,226
India,West_Bengal,Kolkata,"Rabindra Bharati University, Kolkata - WBPCB",22-02-2026 08:00:00,22.627847,88.380669,SO2,5,9,7
India,West_Bengal,Siliguri,"Ward-32 Bapupara, Siliguri - WBPCB",22-02-2026 08:00:00,26.6879226,88.4152495,PM10,85,160,122
India,Andhra_Pradesh,Chittoor,"Gangineni Cheruvu, Chittoor - APPCB",22-02-2026 08:00:00,13.204880,79.097889,OZONE,41,57,43
India,Andhra_Pradesh,Kadapa,"Yerramukkapalli, Kadapa - APPCB",22-02-2026 08:00:00,14.465052,78.824187,PM10,60,134,79
India,Andhra_Pradesh,Kadapa,"Yerramukkapalli, Kadapa - APPCB",22-02-2026 08:00:00,14.465052,78.824187,CO,26,44,39
India,Andhra_Pradesh,Kadapa,"Yerramukkapalli, Kadapa - APPCB",22-02-2026 08:00:00,14.465052,78.824187,OZONE,13,16,14
India,Andhra_Pradesh,Rajamahendravaram,"Anand Kala Kshetram, Rajamahendravaram - APPCB",22-02-2026 08:00:00,16.9872867,81.7363176,PM2.5,35,203,85
India,Andhra_Pradesh,Rajamahendravaram,"Anand Kala Kshetram, Rajamahendravaram - APPCB",22-02-2026 08:00:00,16.9872867,81.7363176,PM10,NA,NA,NA
India,Andhra_Pradesh,Tirumala,"Toll Gate, Tirumala - APPCB",22-02-2026 08:00:00,13.67,79.35,CO,14,42,20
India,Andhra_Pradesh,Tirumala,"Toll Gate, Tirumala - APPCB",22-02-2026 08:00:00,13.67,79.35,OZONE,13,37,24
India,Andhra_Pradesh,Tirupati,"Vaikuntapuram, Tirupati - APPCB",22-02-2026 08:00:00,13.615387,79.409230,NO2,31,37,35
India,Andhra_Pradesh,Vijayawada,"HB Colony, Vijayawada - APPCB",22-02-2026 08:00:00,16.536107,80.594233,NH3,4,5,5
India,Assam,Nagaon,"Christianpatty, Nagaon - PCBA",22-02-2026 08:00:00,26.349082,92.68449,NH3,4,4,4
India,Assam,Nalbari,"Bata Chowk, Nalbari - PCBA",22-02-2026 08:00:00,26.446912,91.439057,SO2,7,9,8
India,Assam,Nalbari,"Bata Chowk, Nalbari - PCBA",22-02-2026 08:00:00,26.446912,91.439057,CO,20,23,21
India,Assam,Silchar,"Tarapur, Silchar - PCBA",22-02-2026 08:00:00,24.82827,92.79525,CO,24,81,67
India,Assam,Sivasagar,"Girls College, Sivasagar - PCBA",22-02-2026 08:00:00,26.987634,94.636574,PM2.5,40,99,67
India,Bihar,Araria,"Kharahiya Basti, Araria - BSPCB",22-02-2026 08:00:00,26.146529,87.454184,PM2.5,13,100,71
India,Bihar,Araria,"Kharahiya Basti, Araria - BSPCB",22-02-2026 08:00:00,26.146529,87.454184,NO2,1,7,2
India,Bihar,Arrah,"New DM Office, Arrah - BSPCB",22-02-2026 08:00:00,25.5626095,84.663264,PM10,36,97,61
India,Bihar,Munger,"Town Hall, Munger - BSPCB",22-02-2026 08:00:00,25.376776,86.471523,NO2,4,5,5
India,Bihar,Munger,"Town Hall, Munger - BSPCB",22-02-2026 08:00:00,25.376776,86.471523,OZONE,9,10,10
India,Bihar,Muzaffarpur,"Buddha Colony, Muzaffarpur - BSPCB",22-02-2026 08:00:00,26.11442,85.39813,PM10,77,125,106
India,Bihar,Muzaffarpur,"Buddha Colony, Muzaffarpur - BSPCB",22-02-2026 08:00:00,26.11442,85.39813,NO2,5,40,24
India,Bihar,Muzaffarpur,"Buddha Colony, Muzaffarpur - BSPCB",22-02-2026 08:00:00,26.11442,85.39813,CO,14,48,26
India,Bihar,Muzaffarpur,"MIT-Daudpur Kothi, Muzaffarpur - BSPCB",22-02-2026 08:00:00,26.1403345,85.3650192,NO2,2,6,5
India,Bihar,Muzaffarpur,"Muzaffarpur Collectorate, Muzaffarpur - BSPCB",22-02-2026 08:00:00,26.1209,85.3647,NO2,8,19,13
India,Bihar,Muzaffarpur,"Muzaffarpur Collectorate, Muzaffarpur - BSPCB",22-02-2026 08:00:00,26.1209,85.3647,CO,22,41,22
India,Bihar,Patna,"DRM Office Danapur, Patna - BSPCB",22-02-2026 08:00:00,25.586562,85.043586,NH3,10,11,11
India,Bihar,Hajipur,"Industrial Area, Hajipur - BSPCB",22-02-2026 08:00:00,25.697189,85.245900,NH3,20,26,23
India,Bihar,Katihar,"Mirchaibari, Katihar - BSPCB",22-02-2026 08:00:00,25.560083,87.553265,PM10,39,70,52
India,Bihar,Katihar,"Mirchaibari, Katihar - BSPCB",22-02-2026 08:00:00,25.560083,87.553265,NO2,9,10,9
India,Bihar,Kishanganj,"SDM Office_Khagra, Kishanganj - BSPCB",22-02-2026 08:00:00,26.0881305,87.93840336,SO2,5,7,6
India,Bihar,Manguraha,"Forest Rest House, Manguraha - BSPCB",22-02-2026 08:00:00,27.308328,84.531742,NO2,4,10,6
India,Bihar,Manguraha,"Forest Rest House, Manguraha - BSPCB",22-02-2026 08:00:00,27.308328,84.531742,NH3,1,1,1
India,Bihar,Manguraha,"Forest Rest House, Manguraha - BSPCB",22-02-2026 08:00:00,27.308328,84.531742,SO2,16,17,16
India,Bihar,Motihari,"Gandak Colony, Motihari - BSPCB",22-02-2026 08:00:00,26.63086,84.90051,PM2.5,27,177,72
India,Bihar,Bihar Sharif,"D M Colony, Bihar Sharif - BSPCB",22-02-2026 08:00:00,25.204762,85.514960,PM2.5,NA,NA,NA
India,Bihar,Buxar,"Charitra Van, Buxar - BSPCB",22-02-2026 08:00:00,25.567520,83.966379,NH3,3,3,3
India,Bihar,Chhapra,"Darshan Nagar, Chhapra - BSPCB",22-02-2026 08:00:00,25.7808257,84.7446768,NO2,1,1,1
India,Bihar,Chhapra,"Darshan Nagar, Chhapra - BSPCB",22-02-2026 08:00:00,25.7808257,84.7446768,NH3,4,16,8
India,Bihar,Chhapra,"Darshan Nagar, Chhapra - BSPCB",22-02-2026 08:00:00,25.7808257,84.7446768,CO,26,52,46
India,Bihar,Gaya,"Kareemganj, Gaya - BSPCB",22-02-2026 08:00:00,24.792403,84.992416,PM2.5,43,207,99
India,Bihar,Gaya,"Kareemganj, Gaya - BSPCB",22-02-2026 08:00:00,24.792403,84.992416,PM10,91,225,135
India,Bihar,Patna,"Govt. High School Shikarpur, Patna - BSPCB",22-02-2026 08:00:00,25.592539,85.227158,OZONE,9,12,11
India,Bihar,Patna,"Muradpur, Patna - BSPCB",22-02-2026 08:00:00,25.619651,85.147382,PM10,92,153,122
India,Bihar,Patna,"Rajbansi Nagar, Patna - BSPCB",22-02-2026 08:00:00,25.599486,85.113666,PM10,85,165,113
India,Bihar,Patna,"Rajbansi Nagar, Patna - BSPCB",22-02-2026 08:00:00,25.599486,85.113666,NO2,37,93,51
India,Bihar,Patna,"Rajbansi Nagar, Patna - BSPCB",22-02-2026 08:00:00,25.599486,85.113666,SO2,3,9,6
India,Andhra_Pradesh,Vijayawada,"Kanuru, Vijayawada - APPCB",22-02-2026 08:00:00,16.486692,80.699436,PM10,38,45,43
India,Andhra_Pradesh,Vijayawada,"Rajiv Gandhi Park, Vijayawada - APPCB",22-02-2026 08:00:00,16.509717,80.612222,PM2.5,NA,NA,NA
India,Andhra_Pradesh,Visakhapatnam,"GVM Corporation, Visakhapatnam - APPCB",22-02-2026 08:00:00,17.72,83.3,PM2.5,15,168,74
India,Andhra_Pradesh,Visakhapatnam,"GVM Corporation, Visakhapatnam - APPCB",22-02-2026 08:00:00,17.72,83.3,PM10,61,238,119
India,Arunachal_Pradesh,Naharlagun,"Naharlagun, Naharlagun - APSPCB",22-02-2026 08:00:00,27.103358,93.679645,SO2,10,11,10
India,Assam,Guwahati,"LGBI Airport, Guwahati - PCBA",22-02-2026 08:00:00,26.10887,91.589544,OZONE,11,15,13
India,Assam,Guwahati,"Pan Bazaar, Guwahati - PCBA",22-02-2026 08:00:00,26.187500,91.744194,PM2.5,60,268,139
India,Assam,Guwahati,"Pan Bazaar, Guwahati - PCBA",22-02-2026 08:00:00,26.187500,91.744194,SO2,34,71,53
India,Bihar,Aurangabad,"Gurdeo Nagar, Aurangabad - BSPCB",22-02-2026 08:00:00,24.75746,84.366208,SO2,5,19,12
India,Bihar,Aurangabad,"Gurdeo Nagar, Aurangabad - BSPCB",22-02-2026 08:00:00,24.75746,84.366208,CO,100,104,102
India,Bihar,Bhagalpur,"DM Office_Kachari Chowk, Bhagalpur - BSPCB",22-02-2026 08:00:00,25.251013,86.989001,NH3,1,1,1
India,Andhra_Pradesh,Amaravati,"Secretariat, Amaravati - APPCB",22-02-2026 08:00:00,16.5150833,80.5181667,OZONE,2,54,8
India,Andhra_Pradesh,Anantapur,"Gulzarpet, Anantapur - APPCB",22-02-2026 08:00:00,14.675886,77.593027,NH3,5,5,5
India,Bihar,Purnia,"Mariam Nagar, Purnia - BSPCB",22-02-2026 08:00:00,25.366336,87.117468,PM2.5,68,95,79
India,Bihar,Purnia,"Mariam Nagar, Purnia - BSPCB",22-02-2026 08:00:00,25.366336,87.117468,PM10,54,75,62
India,Bihar,Purnia,"Mariam Nagar, Purnia - BSPCB",22-02-2026 08:00:00,25.366336,87.117468,NH3,3,3,3
India,Bihar,Purnia,"Mariam Nagar, Purnia - BSPCB",22-02-2026 08:00:00,25.366336,87.117468,CO,NA,NA,NA
India,Bihar,Rajgir,"Dangi Tola, Rajgir - BSPCB",22-02-2026 08:00:00,25.03280,85.41948,PM2.5,25,80,54
India,Bihar,Rajgir,"Dangi Tola, Rajgir - BSPCB",22-02-2026 08:00:00,25.03280,85.41948,NH3,3,3,3
India,Bihar,Rajgir,"Dangi Tola, Rajgir - BSPCB",22-02-2026 08:00:00,25.03280,85.41948,OZONE,23,29,27
India,Bihar,Saharsa,"Police Line, Saharsa - BSPCB",22-02-2026 08:00:00,25.892357,86.590325,PM2.5,30,113,62
India,Bihar,Samastipur,"DM Office_Kasipur, Samastipur - BSPCB",22-02-2026 08:00:00,25.859655,85.77944,PM10,NA,NA,NA
India,Bihar,Sasaram,"Dada Peer, Sasaram - BSPCB",22-02-2026 08:00:00,24.952822,84.002396,PM10,42,102,66
India,Bihar,Sasaram,"Dada Peer, Sasaram - BSPCB",22-02-2026 08:00:00,24.952822,84.002396,SO2,4,6,5
India,Chandigarh,Chandigarh,"Sector 22, Chandigarh - CPCC",22-02-2026 08:00:00,30.735567,76.775714,NO2,5,24,10
India,Chandigarh,Chandigarh,"Sector 22, Chandigarh - CPCC",22-02-2026 08:00:00,30.735567,76.775714,SO2,9,18,12
India,Chandigarh,Chandigarh,"Sector 22, Chandigarh - CPCC",22-02-2026 08:00:00,30.735567,76.775714,CO,49,72,52
India,Chandigarh,Chandigarh,"Sector 22, Chandigarh - CPCC",22-02-2026 08:00:00,30.735567,76.775714,OZONE,9,137,42
India,Chandigarh,Chandigarh,"Sector-25, Chandigarh - CPCC",22-02-2026 08:00:00,30.751462,76.762879,PM2.5,101,193,137
India,Chandigarh,Chandigarh,"Sector-25, Chandigarh - CPCC",22-02-2026 08:00:00,30.751462,76.762879,SO2,2,12,6
India,Chhattisgarh,Bhilai,"32Bungalows, Bhilai - CECB",22-02-2026 08:00:00,21.194815,81.314770,NO2,36,46,41
India,Chhattisgarh,Bhilai,"Civic Center, Bhilai - Bhilai Steel Plant",22-02-2026 08:00:00,21.185571,81.343175,CO,26,34,33
India,Chhattisgarh,Bhilai,"Civic Center, Bhilai - Bhilai Steel Plant",22-02-2026 08:00:00,21.185571,81.343175,OZONE,9,13,11
India,Chhattisgarh,Kunjemura,"OP Jindal School, Kunjemura - CECB",22-02-2026 08:00:00,22.126650,83.483212,CO,18,47,43
India,Chhattisgarh,Raipur,"AIIMS, Raipur - CECB",22-02-2026 08:00:00,21.258815,81.578979,NO2,48,55,50
India,Chhattisgarh,Raipur,"Bhatagaon New ISBT, Raipur - CECB",22-02-2026 08:00:00,21.219665,81.630094,PM2.5,39,93,66
India,Chhattisgarh,Raipur,"Bhatagaon New ISBT, Raipur - CECB",22-02-2026 08:00:00,21.219665,81.630094,PM10,57,141,96
India,Chhattisgarh,Raipur,"Krishak Nagar, Raipur - CECB",22-02-2026 08:00:00,21.237755,81.705301,PM2.5,63,90,76
India,Chhattisgarh,Raipur,"Siltara Phase-II, Raipur - CECB",22-02-2026 08:00:00,21.371751,81.664929,NO2,10,29,18
India,Chhattisgarh,Tumidih,"OP Jindal Industrial Park, Tumidih - CECB",22-02-2026 08:00:00,22.06631475,83.33820077,NO2,39,99,70
India,Delhi,Delhi,"CRRI Mathura Road, Delhi - IMD",22-02-2026 08:00:00,28.5512005,77.2735737,PM10,101,341,185
India,Delhi,Delhi,"CRRI Mathura Road, Delhi - IMD",22-02-2026 08:00:00,28.5512005,77.2735737,NO2,6,92,33
India,Delhi,Delhi,"Chandni Chowk, Delhi - IITM",22-02-2026 08:00:00,28.656756,77.227234,SO2,10,41,26
India,Delhi,Delhi,"DTU, Delhi - CPCB",22-02-2026 08:00:00,28.7500499,77.1112615,SO2,29,32,30
India,Delhi,Delhi,"Dwarka-Sector 8, Delhi - DPCC ",22-02-2026 08:00:00,28.5710274,77.0719006,PM2.5,107,363,263
India,Delhi,Delhi,"Dwarka-Sector 8, Delhi - DPCC ",22-02-2026 08:00:00,28.5710274,77.0719006,PM10,125,394,217
India,Delhi,Delhi,"Dwarka-Sector 8, Delhi - DPCC ",22-02-2026 08:00:00,28.5710274,77.0719006,NO2,36,134,79
India,Delhi,Delhi,"Jawaharlal Nehru Stadium, Delhi - DPCC",22-02-2026 08:00:00,28.580280,77.233829,OZONE,1,233,2
India,Delhi,Delhi,"Lodhi Road, Delhi - IMD",22-02-2026 08:00:00,28.5918245,77.2273074,NO2,14,49,23
India,Delhi,Delhi,"Major Dhyan Chand National Stadium, Delhi - DPCC",22-02-2026 08:00:00,28.611281,77.237738,NO2,40,152,91
India,Delhi,Delhi,"Mandir Marg, Delhi - DPCC",22-02-2026 08:00:00,28.636429,77.201067,NO2,32,60,43
India,Delhi,Delhi,"Mundka, Delhi - DPCC",22-02-2026 08:00:00,28.684678,77.076574,PM2.5,160,372,296
India,Delhi,Delhi,"Mundka, Delhi - DPCC",22-02-2026 08:00:00,28.684678,77.076574,PM10,135,462,227
India,Delhi,Delhi,"Najafgarh, Delhi - DPCC",22-02-2026 08:00:00,28.570173,76.933762,NO2,81,114,95
India,Delhi,Delhi,"Najafgarh, Delhi - DPCC",22-02-2026 08:00:00,28.570173,76.933762,OZONE,3,132,6
India,Delhi,Delhi,"Narela, Delhi - DPCC",22-02-2026 08:00:00,28.822836,77.101981,PM2.5,75,360,219
India,Delhi,Delhi,"Narela, Delhi - DPCC",22-02-2026 08:00:00,28.822836,77.101981,NH3,6,7,7
India,Delhi,Delhi,"Nehru Nagar, Delhi - DPCC",22-02-2026 08:00:00,28.567890,77.250515,NH3,NA,NA,NA
India,Delhi,Delhi,"Nehru Nagar, Delhi - DPCC",22-02-2026 08:00:00,28.567890,77.250515,CO,58,152,110
India,Delhi,Delhi,"North Campus, DU, Delhi - IMD",22-02-2026 08:00:00,28.6573814,77.1585447,PM10,95,262,186
India,Delhi,Delhi,"IGI Airport (T3), Delhi - IMD",22-02-2026 08:00:00,28.5627763,77.1180053,NO2,42,100,69
India,Delhi,Delhi,"IHBAS, Dilshad Garden, Delhi - CPCB",22-02-2026 08:00:00,28.6811736,77.3025234,PM2.5,90,249,166
India,Delhi,Delhi,"IHBAS, Dilshad Garden, Delhi - CPCB",22-02-2026 08:00:00,28.6811736,77.3025234,CO,61,114,109
India,Delhi,Delhi,"IIT Delhi, Delhi - IITM",22-02-2026 08:00:00,28.542460,77.191651,CO,34,101,82
India,Delhi,Delhi,"ITO, Delhi - CPCB",22-02-2026 08:00:00,28.628624,77.241060,PM2.5,89,298,192
India,Delhi,Delhi,"ITO, Delhi - CPCB",22-02-2026 08:00:00,28.628624,77.241060,PM10,74,138,108
India,Delhi,Delhi,"ITO, Delhi - CPCB",22-02-2026 08:00:00,28.628624,77.241060,CO,30,110,60
India,Chhattisgarh,Tumidih,"OP Jindal Industrial Park, Tumidih - CECB",22-02-2026 08:00:00,22.06631475,83.33820077,NH3,1,2,2
India,Chhattisgarh,Tumidih,"OP Jindal Industrial Park, Tumidih - CECB",22-02-2026 08:00:00,22.06631475,83.33820077,SO2,5,33,10
India,Delhi,Delhi,"Ashok Vihar, Delhi - DPCC",22-02-2026 08:00:00,28.695381,77.181665,NH3,8,8,8
India,Delhi,Delhi,"Aya Nagar, Delhi - IMD",22-02-2026 08:00:00,28.4706914,77.1099364,NO2,8,116,48
India,Delhi,Delhi,"Bawana, Delhi - DPCC",22-02-2026 08:00:00,28.776200,77.051074,NH3,6,10,8
India,Chhattisgarh,Bhilai,"Hathkhoj, Bhilai - CECB",22-02-2026 08:00:00,21.224231,81.408350,OZONE,7,18,9
India,Chhattisgarh,Chhal,"Nawapara SECL Colony, Chhal - CECB",22-02-2026 08:00:00,22.118125,83.140608,NH3,5,5,5
India,Chhattisgarh,Chhal,"Nawapara SECL Colony, Chhal - CECB",22-02-2026 08:00:00,22.118125,83.140608,CO,22,47,34
India,Chhattisgarh,Korba,"Rampur, Korba - CECB",22-02-2026 08:00:00,22.368195,82.746431,SO2,6,17,9
India,Chhattisgarh,Korba,"Rampur, Korba - CECB",22-02-2026 08:00:00,22.368195,82.746431,CO,18,25,21
India,Gujarat,Ahmedabad,"Rakhial, Ahmedabad - IITM",22-02-2026 08:00:00,23.016834,72.625775,PM10,NA,NA,NA
India,Gujarat,Ahmedabad,"Rakhial, Ahmedabad - IITM",22-02-2026 08:00:00,23.016834,72.625775,NO2,32,145,73
India,Gujarat,Ahmedabad,"Rakhial, Ahmedabad - IITM",22-02-2026 08:00:00,23.016834,72.625775,NH3,6,10,8
India,Gujarat,Ahmedabad,"SAC ISRO Bopal, Ahmedabad - IITM",22-02-2026 08:00:00,23.041137,72.456691,NO2,15,44,30
India,Gujarat,Ahmedabad,"SAC ISRO Bopal, Ahmedabad - IITM",22-02-2026 08:00:00,23.041137,72.456691,SO2,9,35,14
India,Gujarat,Ahmedabad,"SAC ISRO Bopal, Ahmedabad - IITM",22-02-2026 08:00:00,23.041137,72.456691,OZONE,1,168,8
India,Gujarat,Ahmedabad,"SAC ISRO Satellite, Ahmedabad - IITM",22-02-2026 08:00:00,23.023389,72.515201,PM2.5,86,199,122
India,Gujarat,Ahmedabad,"SAC ISRO Satellite, Ahmedabad - IITM",22-02-2026 08:00:00,23.023389,72.515201,CO,34,73,50
India,Gujarat,Ahmedabad,"SVPI Airport Hansol, Ahmedabad - IITM",22-02-2026 08:00:00,23.076793,72.627874,CO,13,65,28
India,Gujarat,Ankleshwar,"GIDC, Ankleshwar - GPCB",22-02-2026 08:00:00,21.613267,73.010555,PM2.5,49,160,96
India,Gujarat,Ankleshwar,"GIDC, Ankleshwar - GPCB",22-02-2026 08:00:00,21.613267,73.010555,PM10,74,133,108
India,Gujarat,Ankleshwar,"GIDC, Ankleshwar - GPCB",22-02-2026 08:00:00,21.613267,73.010555,NH3,7,7,7
India,Delhi,Delhi,"R K Puram, Delhi - DPCC",22-02-2026 08:00:00,28.563262,77.186937,PM10,123,318,191
India,Delhi,Delhi,"R K Puram, Delhi - DPCC",22-02-2026 08:00:00,28.563262,77.186937,CO,42,138,91
India,Delhi,Delhi,"Rohini, Delhi - DPCC",22-02-2026 08:00:00,28.732528,77.119920,NO2,13,83,48
India,Delhi,Delhi,"Shadipur, Delhi - CPCB",22-02-2026 08:00:00,28.6514781,77.1473105,PM2.5,100,298,195
India,Delhi,Delhi,"Shadipur, Delhi - CPCB",22-02-2026 08:00:00,28.6514781,77.1473105,NO2,53,137,80
India,Delhi,Delhi,"Sirifort, Delhi - CPCB",22-02-2026 08:00:00,28.5504249,77.2159377,NH3,6,12,8
India,Delhi,Delhi,"Sirifort, Delhi - CPCB",22-02-2026 08:00:00,28.5504249,77.2159377,CO,17,101,88
India,Delhi,Delhi,"Sirifort, Delhi - CPCB",22-02-2026 08:00:00,28.5504249,77.2159377,OZONE,13,32,13
India,Delhi,Delhi,"Sonia Vihar, Delhi - DPCC",22-02-2026 08:00:00,28.710508,77.249485,PM10,102,368,199
India,Haryana,Bahadurgarh,"Arya Nagar, Bahadurgarh - HSPCB",22-02-2026 08:00:00,28.6701,76.9254,SO2,NA,NA,NA
India,Haryana,Ballabgarh,"Nathu Colony, Ballabgarh - HSPCB",22-02-2026 08:00:00,28.3419248,77.319699,CO,16,87,42
India,Haryana,Bhiwani,"H.B. Colony, Bhiwani - HSPCB",22-02-2026 08:00:00,28.806223,76.141105,NO2,6,10,9
India,Haryana,Bhiwani,"H.B. Colony, Bhiwani - HSPCB",22-02-2026 08:00:00,28.806223,76.141105,NH3,2,4,3
India,Haryana,Charkhi Dadri,"Mini Secretariat, Charkhi Dadri - HSPCB",22-02-2026 08:00:00,28.593883,76.270653,NH3,5,8,6
India,Haryana,Charkhi Dadri,"Mini Secretariat, Charkhi Dadri - HSPCB",22-02-2026 08:00:00,28.593883,76.270653,CO,8,25,14
India,Haryana,Dharuhera,"Municipal Corporation Office, Dharuhera -  HSPCB",22-02-2026 08:00:00,28.206800,76.799700,NH3,8,29,20
India,Gujarat,Bhavnagar,"Vidhyanagar, Bhavnagar - Nexteng Enviro",22-02-2026 08:00:00,21.755417,72.139056,PM10,118,250,156
India,Gujarat,Bhavnagar,"Vidhyanagar, Bhavnagar - Nexteng Enviro",22-02-2026 08:00:00,21.755417,72.139056,SO2,12,46,27
India,Gujarat,Bhavnagar,"Vidhyanagar, Bhavnagar - Nexteng Enviro",22-02-2026 08:00:00,21.755417,72.139056,OZONE,9,26,11
India,Gujarat,Gandhinagar,"GIFT City, Gandhinagar - IITM",22-02-2026 08:00:00,23.163798,72.677768,NO2,19,101,43
India,Gujarat,Gandhinagar,"GIFT City, Gandhinagar - IITM",22-02-2026 08:00:00,23.163798,72.677768,NH3,5,17,9
India,Gujarat,Gandhinagar,"IIPHG Lekawada, Gandhinagar - IITM",22-02-2026 08:00:00,23.243639,72.68994,OZONE,1,29,4
India,Gujarat,Gandhinagar,"Sector-10, Gandhinagar - GPCB",22-02-2026 08:00:00,23.221714,72.654328,SO2,3,6,5
India,Delhi,Delhi,"Sri Aurobindo Marg, Delhi - DPCC",22-02-2026 08:00:00,28.531346,77.190156,CO,27,80,63
India,Delhi,Delhi,"Vivek Vihar, Delhi - DPCC",22-02-2026 08:00:00,28.672342,77.315260,PM2.5,90,349,276
India,Delhi,Delhi,"Vivek Vihar, Delhi - DPCC",22-02-2026 08:00:00,28.672342,77.315260,OZONE,4,87,5
India,Delhi,Delhi,"Wazirpur, Delhi - DPCC",22-02-2026 08:00:00,28.699793,77.165453,NO2,109,165,127
India,Delhi,Delhi,"Wazirpur, Delhi - DPCC",22-02-2026 08:00:00,28.699793,77.165453,SO2,8,18,12
India,Gujarat,Ahmedabad,"Chandkheda, Ahmedabad - IITM",22-02-2026 08:00:00,23.107969,72.574648,PM10,96,167,126
India,Gujarat,Ahmedabad,"Chandkheda, Ahmedabad - IITM",22-02-2026 08:00:00,23.107969,72.574648,NO2,15,97,37
India,Gujarat,Mehsana,"Sadanand Nagar, Mehsana - Nexteng Enviro",22-02-2026 08:00:00,23.593150,72.372792,NH3,1,4,3
India,Gujarat,Nandesari,"GIDC, Nandesari - Nandesari Ind. Association",22-02-2026 08:00:00,22.410802,73.097923,PM2.5,158,360,264
India,Gujarat,Nandesari,"GIDC, Nandesari - Nandesari Ind. Association",22-02-2026 08:00:00,22.410802,73.097923,SO2,3,4,3
India,Gujarat,Surat,"Katargam, Surat - Nexteng Enviro",22-02-2026 08:00:00,21.217779 ,72.834787 ,SO2,16,72,40
India,Gujarat,Vadodara,"Bapunagar, Vadodara - Nexteng Enviro",22-02-2026 08:00:00,22.320153,73.216285,PM2.5,64,341,178
India,Gujarat,Vadodara,"Bapunagar, Vadodara - Nexteng Enviro",22-02-2026 08:00:00,22.320153,73.216285,PM10,92,189,126
India,Delhi,Delhi,"Okhla Phase-2, Delhi - DPCC",22-02-2026 08:00:00,28.530785,77.271255,NH3,9,14,11
India,Delhi,Delhi,"Okhla Phase-2, Delhi - DPCC",22-02-2026 08:00:00,28.530785,77.271255,SO2,1,19,8
India,Delhi,Delhi,"Patparganj, Delhi - DPCC",22-02-2026 08:00:00,28.623763,77.287209,NO2,15,133,73
India,Delhi,Delhi,"Patparganj, Delhi - DPCC",22-02-2026 08:00:00,28.623763,77.287209,NH3,8,10,9
India,Delhi,Delhi,"Punjabi Bagh, Delhi - DPCC",22-02-2026 08:00:00,28.674045,77.131023,OZONE,8,76,10
India,Delhi,Delhi,"Pusa, Delhi - DPCC",22-02-2026 08:00:00,28.639652,77.146275,PM10,113,402,205
India,Delhi,Delhi,"Pusa, Delhi - DPCC",22-02-2026 08:00:00,28.639652,77.146275,NO2,39,149,83
India,Delhi,Delhi,"Pusa, Delhi - DPCC",22-02-2026 08:00:00,28.639652,77.146275,NH3,4,30,18
India,Gujarat,Vadodara,"Bapunagar, Vadodara - Nexteng Enviro",22-02-2026 08:00:00,22.320153,73.216285,OZONE,2,30,4
India,Gujarat,Vatva,"Phase-4 GIDC, Vatva - GPCB",22-02-2026 08:00:00,22.969611,72.643500,PM2.5,84,313,196
India,Gujarat,Vatva,"Phase-4 GIDC, Vatva - GPCB",22-02-2026 08:00:00,22.969611,72.643500,SO2,21,41,27
India,Haryana,Ambala,"Patti Mehar, Ambala - HSPCB",22-02-2026 08:00:00,30.379589,76.778328,CO,21,49,22
India,Gujarat,Ahmedabad,"Chandkheda, Ahmedabad - IITM",22-02-2026 08:00:00,23.107969,72.574648,CO,30,68,35
India,Gujarat,Ahmedabad,"Maninagar, Ahmedabad - GPCB",22-02-2026 08:00:00,23.002657,72.591912,NO2,97,106,103
India,Gujarat,Ahmedabad,"Raikhad, Ahmedabad - IITM",22-02-2026 08:00:00,23.020509,72.579261,NO2,30,192,84
India,Haryana,Yamuna Nagar,"Gobind Pura, Yamuna Nagar - HSPCB",22-02-2026 08:00:00,30.1480566,77.2893471,NO2,29,38,36
India,Haryana,Yamuna Nagar,"Gobind Pura, Yamuna Nagar - HSPCB",22-02-2026 08:00:00,30.1480566,77.2893471,SO2,10,15,11
India,Himachal Pradesh,Baddi,"HIMUDA Complex Phase-1, Baddi - HPPCB",22-02-2026 08:00:00,30.943887,76.801991,NO2,14,86,39
India,Himachal Pradesh,Baddi,"HIMUDA Complex Phase-1, Baddi - HPPCB",22-02-2026 08:00:00,30.943887,76.801991,CO,52,101,69
India,Himachal Pradesh,Baddi,"HIMUDA Complex Phase-1, Baddi - HPPCB",22-02-2026 08:00:00,30.943887,76.801991,OZONE,13,137,45
India,Jammu_and_Kashmir,Pampore,"Khrew, Pampore - JKPCC",22-02-2026 08:00:00,34.031606,75.009712,SO2,2,3,2
India,Jammu_and_Kashmir,Srinagar,"Khunmoh, Srinagar - JKPCC",22-02-2026 08:00:00,34.06313,74.96017,NO2,9,48,24
India,Jharkhand,Dhanbad,"Sardar Patel Nagar, Dhanbad - JSPCB",22-02-2026 08:00:00,23.80569,86.44268,CO,2,80,29
India,Jharkhand,Dhanbad,"Sardar Patel Nagar, Dhanbad - JSPCB",22-02-2026 08:00:00,23.80569,86.44268,OZONE,1,18,1
India,Haryana,Palwal,"Shyam Nagar, Palwal - HSPCB",22-02-2026 08:00:00,28.1485564,77.3320667,NO2,23,24,24
India,Haryana,Palwal,"Shyam Nagar, Palwal - HSPCB",22-02-2026 08:00:00,28.1485564,77.3320667,OZONE,8,8,8
India,Haryana,Panchgaon,"Amity University, Panchgaon - IITM",22-02-2026 08:00:00,28.3153,76.9143,PM2.5,78,275,155
India,Haryana,Panchgaon,"Amity University, Panchgaon - IITM",22-02-2026 08:00:00,28.3153,76.9143,PM10,75,138,104
India,Haryana,Panchkula,"Sector-6, Panchkula - HSPCB ",22-02-2026 08:00:00,30.7057778,76.8531805555555,SO2,14,15,15
India,Haryana,Panchkula,"Sector-6, Panchkula - HSPCB ",22-02-2026 08:00:00,30.7057778,76.8531805555555,CO,9,28,23
India,Haryana,Panipat,"Sector-18, Panipat - HSPCB",22-02-2026 08:00:00,29.432304,76.972765,PM2.5,NA,NA,NA
India,Haryana,Panipat,"Sector-18, Panipat - HSPCB",22-02-2026 08:00:00,29.432304,76.972765,PM10,NA,NA,NA
India,Haryana,Rohtak,"MD University, Rohtak - HSPCB",22-02-2026 08:00:00,28.52123,76.37138,PM2.5,35,112,69
India,Karnataka,Bagalkot,"Vidayagiri, Bagalkot - KSPCB",22-02-2026 08:00:00,16.172806,75.659694,NO2,11,12,12
India,Karnataka,Bagalkot,"Vidayagiri, Bagalkot - KSPCB",22-02-2026 08:00:00,16.172806,75.659694,NH3,1,2,1
India,Karnataka,Bengaluru,"BTM Layout, Bengaluru - CPCB",22-02-2026 08:00:00,12.9135218,77.5950804,NO2,NA,NA,NA
India,Karnataka,Bengaluru,"BWSSB Kadabesanahalli, Bengaluru - CPCB",22-02-2026 08:00:00,12.9352049,77.6814488,OZONE,11,26,14
India,Karnataka,Bengaluru,"City Railway Station, Bengaluru - KSPCB",22-02-2026 08:00:00,12.9756843,77.5660749,SO2,15,16,16
India,Karnataka,Bengaluru,"Hebbal, Bengaluru - KSPCB",22-02-2026 08:00:00,13.029152,77.585901,PM2.5,23,54,39
India,Karnataka,Bengaluru,"Hebbal, Bengaluru - KSPCB",22-02-2026 08:00:00,13.029152,77.585901,NH3,1,1,1
India,Karnataka,Bengaluru,"Hebbal, Bengaluru - KSPCB",22-02-2026 08:00:00,13.029152,77.585901,SO2,7,17,13
India,Haryana,Faridabad,"New Industrial Town, Faridabad - HSPCB",22-02-2026 08:00:00,28.39072,77.30059,NO2,24,27,25
India,Haryana,Faridabad,"Sector 11, Faridabad - HSPCB",22-02-2026 08:00:00,28.376058,77.315741,NO2,30,33,31
