country,state,city,station,last_update,latitude,longitude,pollutant_id,min_value,max_value,avg_value
India,Bihar,Bhagalpur,"Mayaganj, Bhagalpur - BSPCB",15-09-2025 07:00:00,25.265194,87.012947,NH3,NA,NA,NA
India,Bihar,Bhagalpur,"Mayaganj, Bhagalpur - BSPCB",15-09-2025 07:00:00,25.265194,87.012947,CO,42,86,52
India,Bihar,Bihar Sharif,"D M Colony, Bihar Sharif - BSPCB",15-09-2025 07:00:00,25.204762,85.514960,PM2.5,90,143,110
India,Bihar,Bihar Sharif,"D M Colony, Bihar Sharif - BSPCB",15-09-2025 07:00:00,25.204762,85.514960,PM10,86,111,98
India,Bihar,Bihar Sharif,"D M Colony, Bihar Sharif - BSPCB",15-09-2025 07:00:00,25.204762,85.514960,CO,2,7,3
India,Bihar,Buxar,"Charitra Van, Buxar - BSPCB",15-09-2025 07:00:00,25.567520,83.966379,PM10,58,71,70
India,Bihar,Buxar,"Charitra Van, Buxar - BSPCB",15-09-2025 07:00:00,25.567520,83.966379,NH3,3,3,3
India,Bihar,Buxar,"Charitra Van, Buxar - BSPCB",15-09-2025 07:00:00,25.567520,83.966379,CO,21,27,24
India,Bihar,Gaya,"Collectorate, Gaya - BSPCB",15-09-2025 07:00:00,24.7955,84.9994,NO2,8,10,9
India,Bihar,Gaya,"Collectorate, Gaya - BSPCB",15-09-2025 07:00:00,24.7955,84.9994,SO2,10,21,16
India,Bihar,Gaya,"Collectorate, Gaya - BSPCB",15-09-2025 07:00:00,24.7955,84.9994,OZONE,19,21,20
India,Bihar,Gaya,"Kareemganj, Gaya - BSPCB",15-09-2025 07:00:00,24.792403,84.992416,SO2,16,18,16
India,Bihar,Gaya,"Kareemganj, Gaya - BSPCB",15-09-2025 07:00:00,24.792403,84.992416,OZONE,4,125,44
India,Bihar,Patna,"Govt. High School Shikarpur, Patna - BSPCB",15-09-2025 07:00:00,25.592539,85.227158,NO2,4,6,5
India,Bihar,Patna,"Govt. High School Shikarpur, Patna - BSPCB",15-09-2025 07:00:00,25.592539,85.227158,SO2,NA,NA,NA
India,Bihar,Patna,"Govt. High School Shikarpur, Patna - BSPCB",15-09-2025 07:00:00,25.592539,85.227158,CO,18,67,27
India,Bihar,Patna,"IGSC Planetarium Complex, Patna - BSPCB",15-09-2025 07:00:00,25.610369,85.132568,PM2.5,21,120,50
India,Bihar,Patna,"IGSC Planetarium Complex, Patna - BSPCB",15-09-2025 07:00:00,25.610369,85.132568,NO2,9,15,13
India,Bihar,Patna,"Rajbansi Nagar, Patna - BSPCB",15-09-2025 07:00:00,25.599486,85.113666,SO2,5,8,7
India,Bihar,Patna,"Rajbansi Nagar, Patna - BSPCB",15-09-2025 07:00:00,25.599486,85.113666,OZONE,17,46,17
India,Bihar,Patna,"Samanpura, Patna - BSPCB",15-09-2025 07:00:00,25.596727,85.085624,PM10,64,124,84
India,Bihar,Patna,"Samanpura, Patna - BSPCB",15-09-2025 07:00:00,25.596727,85.085624,SO2,1,1,1
India,Bihar,Patna,"Samanpura, Patna - BSPCB",15-09-2025 07:00:00,25.596727,85.085624,CO,10,50,39
India,Bihar,Patna,"Samanpura, Patna - BSPCB",15-09-2025 07:00:00,25.596727,85.085624,OZONE,22,28,24
India,Bihar,Purnia,"Mariam Nagar, Purnia - BSPCB",15-09-2025 07:00:00,25.366336,87.117468,PM10,6,52,36
India,Bihar,Motihari,"Gandak Colony, Motihari - BSPCB",15-09-2025 07:00:00,26.63086,84.90051,NH3,3,3,3
India,Bihar,Motihari,"Gandak Colony, Motihari - BSPCB",15-09-2025 07:00:00,26.63086,84.90051,CO,1,9,1
India,Bihar,Motihari,"Gandak Colony, Motihari - BSPCB",15-09-2025 07:00:00,26.63086,84.90051,OZONE,1,5,2
India,Bihar,Munger,"Town Hall, Munger - BSPCB",15-09-2025 07:00:00,25.376776,86.471523,NH3,5,7,6
India,Bihar,Muzaffarpur,"Buddha Colony, Muzaffarpur - BSPCB",15-09-2025 07:00:00,26.11442,85.39813,NH3,5,8,7
India,Bihar,Muzaffarpur,"Buddha Colony, Muzaffarpur - BSPCB",15-09-2025 07:00:00,26.11442,85.39813,SO2,2,6,4
India,Bihar,Muzaffarpur,"Buddha Colony, Muzaffarpur - BSPCB",15-09-2025 07:00:00,26.11442,85.39813,CO,2,32,17
India,Bihar,Muzaffarpur,"MIT-Daudpur Kothi, Muzaffarpur - BSPCB",15-09-2025 07:00:00,26.1403345,85.3650192,NO2,4,12,9
India,Bihar,Patna,"DRM Office Danapur, Patna - BSPCB",15-09-2025 07:00:00,25.586562,85.043586,PM2.5,3,63,17
India,Bihar,Patna,"DRM Office Danapur, Patna - BSPCB",15-09-2025 07:00:00,25.586562,85.043586,PM10,18,41,28
India,Bihar,Patna,"DRM Office Danapur, Patna - BSPCB",15-09-2025 07:00:00,25.586562,85.043586,SO2,6,10,8
India,Andhra_Pradesh,Anantapur,"Gulzarpet, Anantapur - APPCB",15-09-2025 07:00:00,14.675886,77.593027,PM2.5,47,77,58
India,Andhra_Pradesh,Anantapur,"Gulzarpet, Anantapur - APPCB",15-09-2025 07:00:00,14.675886,77.593027,NO2,18,19,18
India,Andhra_Pradesh,Anantapur,"Gulzarpet, Anantapur - APPCB",15-09-2025 07:00:00,14.675886,77.593027,NH3,5,6,5
India,Andhra_Pradesh,Chittoor,"Gangineni Cheruvu, Chittoor - APPCB",15-09-2025 07:00:00,13.204880,79.097889,PM2.5,58,248,134
India,Andhra_Pradesh,Chittoor,"Gangineni Cheruvu, Chittoor - APPCB",15-09-2025 07:00:00,13.204880,79.097889,PM10,59,144,101
India,Andhra_Pradesh,Chittoor,"Gangineni Cheruvu, Chittoor - APPCB",15-09-2025 07:00:00,13.204880,79.097889,NH3,5,7,6
India,Andhra_Pradesh,Chittoor,"Gangineni Cheruvu, Chittoor - APPCB",15-09-2025 07:00:00,13.204880,79.097889,OZONE,47,65,55
India,Andhra_Pradesh,Kadapa,"Yerramukkapalli, Kadapa - APPCB",15-09-2025 07:00:00,14.465052,78.824187,SO2,19,21,21
India,Andhra_Pradesh,Kadapa,"Yerramukkapalli, Kadapa - APPCB",15-09-2025 07:00:00,14.465052,78.824187,OZONE,30,40,37
India,Andhra_Pradesh,Tirumala,"Toll Gate, Tirumala - APPCB",15-09-2025 07:00:00,13.67,79.35,PM2.5,NA,NA,NA
India,Andhra_Pradesh,Tirumala,"Toll Gate, Tirumala - APPCB",15-09-2025 07:00:00,13.67,79.35,SO2,NA,NA,NA
India,Assam,Nagaon,"Christianpatty, Nagaon - PCBA",15-09-2025 07:00:00,26.349082,92.68449,PM2.5,39,64,55
India,Assam,Nagaon,"Christianpatty, Nagaon - PCBA",15-09-2025 07:00:00,26.349082,92.68449,PM10,29,53,46
India,Assam,Nalbari,"Bata Chowk, Nalbari - PCBA",15-09-2025 07:00:00,26.446912,91.439057,PM2.5,37,40,38
India,Assam,Nalbari,"Bata Chowk, Nalbari - PCBA",15-09-2025 07:00:00,26.446912,91.439057,NO2,3,11,5
India,Assam,Silchar,"Tarapur, Silchar - PCBA",15-09-2025 07:00:00,24.82827,92.79525,PM10,44,44,44
India,Assam,Silchar,"Tarapur, Silchar - PCBA",15-09-2025 07:00:00,24.82827,92.79525,OZONE,1,4,1
India,Assam,Sivasagar,"Girls College, Sivasagar - PCBA",15-09-2025 07:00:00,26.987634,94.636574,PM2.5,27,31,28
India,Assam,Sivasagar,"Girls College, Sivasagar - PCBA",15-09-2025 07:00:00,26.987634,94.636574,NH3,3,4,3
India,Assam,Sivasagar,"Girls College, Sivasagar - PCBA",15-09-2025 07:00:00,26.987634,94.636574,OZONE,2,9,3
India,Bihar,Araria,"Kharahiya Basti, Araria - BSPCB",15-09-2025 07:00:00,26.146529,87.454184,SO2,10,27,18
India,Andhra_Pradesh,Tirupati,"Vaikuntapuram, Tirupati - APPCB",15-09-2025 07:00:00,13.615387,79.409230,NH3,NA,NA,NA
India,Andhra_Pradesh,Tirupati,"Vaikuntapuram, Tirupati - APPCB",15-09-2025 07:00:00,13.615387,79.409230,OZONE,30,30,30
India,Andhra_Pradesh,Vijayawada,"HB Colony, Vijayawada - APPCB",15-09-2025 07:00:00,16.536107,80.594233,CO,39,40,40
India,Andhra_Pradesh,Vijayawada,"HB Colony, Vijayawada - APPCB",15-09-2025 07:00:00,16.536107,80.594233,OZONE,NA,NA,NA
India,Andhra_Pradesh,Vijayawada,"Rajiv Gandhi Park, Vijayawada - APPCB",15-09-2025 07:00:00,16.509717,80.612222,OZONE,22,41,26
India,Andhra_Pradesh,Vijayawada,"Rajiv Nagar, Vijayawada - APPCB",15-09-2025 07:00:00,16.554731,80.649110,SO2,19,37,24
India,Andhra_Pradesh,Visakhapatnam,"GVM Corporation, Visakhapatnam - APPCB",15-09-2025 07:00:00,17.72,83.3,OZONE,124,353,312
India,Arunachal_Pradesh,Naharlagun,"Naharlagun, Naharlagun - APSPCB",15-09-2025 07:00:00,27.103358,93.679645,SO2,7,8,7
India,Assam,Byrnihat,"Central Academy for SFS, Byrnihat - PCBA",15-09-2025 07:00:00,26.071318,91.87488,PM2.5,NA,NA,NA
India,Assam,Byrnihat,"Central Academy for SFS, Byrnihat - PCBA",15-09-2025 07:00:00,26.071318,91.87488,SO2,NA,NA,NA
India,Assam,Guwahati,"IITG, Guwahati - PCBA",15-09-2025 07:00:00,26.2028636,91.70046436,NO2,1,5,2
India,Assam,Guwahati,"IITG, Guwahati - PCBA",15-09-2025 07:00:00,26.2028636,91.70046436,OZONE,1,37,4
India,Assam,Guwahati,"LGBI Airport, Guwahati - PCBA",15-09-2025 07:00:00,26.10887,91.589544,OZONE,11,17,15
India,Assam,Guwahati,"Pan Bazaar, Guwahati - PCBA",15-09-2025 07:00:00,26.187500,91.744194,PM2.5,3,34,13
India,Assam,Guwahati,"Railway Colony, Guwahati - PCBA",15-09-2025 07:00:00,26.181742,91.78063,PM10,NA,NA,NA
India,Assam,Guwahati,"Railway Colony, Guwahati - PCBA",15-09-2025 07:00:00,26.181742,91.78063,NO2,3,4,3
India,Bihar,Begusarai,"Lohiyanagar, Begusarai - BSPCB",15-09-2025 07:00:00,25.42742023,86.13886079,PM2.5,12,34,19
India,Bihar,Begusarai,"Lohiyanagar, Begusarai - BSPCB",15-09-2025 07:00:00,25.42742023,86.13886079,NO2,8,21,15
India,Bihar,Begusarai,"Lohiyanagar, Begusarai - BSPCB",15-09-2025 07:00:00,25.42742023,86.13886079,NH3,3,7,4
India,Bihar,Begusarai,"Lohiyanagar, Begusarai - BSPCB",15-09-2025 07:00:00,25.42742023,86.13886079,SO2,7,49,32
India,Bihar,Bettiah,"Kamalnath Nagar, Bettiah - BSPCB",15-09-2025 07:00:00,26.80365,84.51954,PM2.5,3,30,12
India,Bihar,Bettiah,"Kamalnath Nagar, Bettiah - BSPCB",15-09-2025 07:00:00,26.80365,84.51954,PM10,NA,NA,NA
India,Bihar,Katihar,"Mirchaibari, Katihar - BSPCB",15-09-2025 07:00:00,25.560083,87.553265,NH3,1,1,1
India,Bihar,Kishanganj,"SDM Office_Khagra, Kishanganj - BSPCB",15-09-2025 07:00:00,26.0881305,87.93840336,NO2,NA,NA,NA
India,Bihar,Manguraha,"Forest Rest House, Manguraha - BSPCB",15-09-2025 07:00:00,27.308328,84.531742,CO,16,32,30
India,Andhra_Pradesh,Amaravati,"Secretariat, Amaravati - APPCB",15-09-2025 07:00:00,16.5150833,80.5181667,NH3,4,5,5
India,Chhattisgarh,Raipur,"AIIMS, Raipur - CECB",15-09-2025 07:00:00,21.258815,81.578979,PM2.5,5,35,15
India,Chhattisgarh,Raipur,"AIIMS, Raipur - CECB",15-09-2025 07:00:00,21.258815,81.578979,PM10,6,71,28
India,Chhattisgarh,Raipur,"AIIMS, Raipur - CECB",15-09-2025 07:00:00,21.258815,81.578979,NO2,7,19,10
India,Chhattisgarh,Raipur,"AIIMS, Raipur - CECB",15-09-2025 07:00:00,21.258815,81.578979,NH3,5,5,5
India,Chhattisgarh,Raipur,"Bhatagaon New ISBT, Raipur - CECB",15-09-2025 07:00:00,21.219665,81.630094,SO2,5,7,6
India,Chhattisgarh,Raipur,"Bhatagaon New ISBT, Raipur - CECB",15-09-2025 07:00:00,21.219665,81.630094,CO,8,31,12
India,Chhattisgarh,Raipur,"Krishak Nagar, Raipur - CECB",15-09-2025 07:00:00,21.237755,81.705301,PM10,3,10,5
India,Chhattisgarh,Raipur,"Krishak Nagar, Raipur - CECB",15-09-2025 07:00:00,21.237755,81.705301,NO2,9,11,10
India,Chhattisgarh,Raipur,"Siltara Phase-II, Raipur - CECB",15-09-2025 07:00:00,21.371751,81.664929,CO,12,30,15
India,Chhattisgarh,Tumidih,"OP Jindal Industrial Park, Tumidih - CECB",15-09-2025 07:00:00,22.06631475,83.33820077,PM2.5,24,117,48
India,Chhattisgarh,Tumidih,"OP Jindal Industrial Park, Tumidih - CECB",15-09-2025 07:00:00,22.06631475,83.33820077,NO2,9,40,19
India,Chhattisgarh,Tumidih,"OP Jindal Industrial Park, Tumidih - CECB",15-09-2025 07:00:00,22.06631475,83.33820077,NH3,1,2,2
India,Chhattisgarh,Tumidih,"OP Jindal Industrial Park, Tumidih - CECB",15-09-2025 07:00:00,22.06631475,83.33820077,OZONE,4,23,5
India,Delhi,Delhi,"CRRI Mathura Road, Delhi - IMD",15-09-2025 07:00:00,28.5512005,77.2735737,PM2.5,17,108,61
India,Delhi,Delhi,"CRRI Mathura Road, Delhi - IMD",15-09-2025 07:00:00,28.5512005,77.2735737,OZONE,13,87,20
India,Delhi,Delhi,"Chandni Chowk, Delhi - IITM",15-09-2025 07:00:00,28.656756,77.227234,PM2.5,30,54,45
India,Delhi,Delhi,"Chandni Chowk, Delhi - IITM",15-09-2025 07:00:00,28.656756,77.227234,PM10,67,304,102
India,Delhi,Delhi,"Chandni Chowk, Delhi - IITM",15-09-2025 07:00:00,28.656756,77.227234,SO2,11,18,14
India,Delhi,Delhi,"Chandni Chowk, Delhi - IITM",15-09-2025 07:00:00,28.656756,77.227234,OZONE,1,39,1
India,Delhi,Delhi,"Dr. Karni Singh Shooting Range, Delhi - DPCC",15-09-2025 07:00:00,28.498571,77.264840,OZONE,7,47,10
India,Delhi,Delhi,"Dwarka-Sector 8, Delhi - DPCC ",15-09-2025 07:00:00,28.5710274,77.0719006,CO,18,108,59
India,Chhattisgarh,Bhilai,"Hathkhoj, Bhilai - CECB",15-09-2025 07:00:00,21.224231,81.408350,SO2,6,8,7
India,Chhattisgarh,Bilaspur,"Mangala, Bilaspur - NTPC",15-09-2025 07:00:00,22.08815,82.13737,PM2.5,21,40,31
India,Chhattisgarh,Bilaspur,"Mangala, Bilaspur - NTPC",15-09-2025 07:00:00,22.08815,82.13737,CO,32,40,38
India,Chhattisgarh,Korba,"Rampur, Korba - CECB",15-09-2025 07:00:00,22.368195,82.746431,PM2.5,25,39,26
India,Chhattisgarh,Korba,"Rampur, Korba - CECB",15-09-2025 07:00:00,22.368195,82.746431,PM10,25,40,27
India,Chhattisgarh,Korba,"Rampur, Korba - CECB",15-09-2025 07:00:00,22.368195,82.746431,NH3,1,1,1
India,Chhattisgarh,Korba,"Rampur, Korba - CECB",15-09-2025 07:00:00,22.368195,82.746431,SO2,4,10,8
India,Chhattisgarh,Kunjemura,"OP Jindal School, Kunjemura - CECB",15-09-2025 07:00:00,22.126650,83.483212,NH3,2,2,2
India,Delhi,Delhi,"Alipur, Delhi - DPCC",15-09-2025 07:00:00,28.815329,77.153010,PM2.5,23,133,71
India,Delhi,Delhi,"Alipur, Delhi - DPCC",15-09-2025 07:00:00,28.815329,77.153010,CO,24,57,47
India,Delhi,Delhi,"Ashok Vihar, Delhi - DPCC",15-09-2025 07:00:00,28.695381,77.181665,NO2,12,55,30
India,Delhi,Delhi,"Ashok Vihar, Delhi - DPCC",15-09-2025 07:00:00,28.695381,77.181665,NH3,4,6,5
India,Delhi,Delhi,"Aya Nagar, Delhi - IMD",15-09-2025 07:00:00,28.4706914,77.1099364,PM10,45,163,89
India,Delhi,Delhi,"Bawana, Delhi - DPCC",15-09-2025 07:00:00,28.776200,77.051074,SO2,6,22,9
India,Delhi,Delhi,"Burari Crossing, Delhi - IMD",15-09-2025 07:00:00,28.7256504,77.2011573,PM2.5,2,71,44
India,Chandigarh,Chandigarh,"Sector 22, Chandigarh - CPCC",15-09-2025 07:00:00,30.735567,76.775714,PM10,13,50,28
India,Chandigarh,Chandigarh,"Sector 22, Chandigarh - CPCC",15-09-2025 07:00:00,30.735567,76.775714,NO2,9,43,25
India,Chandigarh,Chandigarh,"Sector 22, Chandigarh - CPCC",15-09-2025 07:00:00,30.735567,76.775714,CO,34,68,54
India,Chandigarh,Chandigarh,"Sector-25, Chandigarh - CPCC",15-09-2025 07:00:00,30.751462,76.762879,PM2.5,32,60,47
India,Chandigarh,Chandigarh,"Sector-25, Chandigarh - CPCC",15-09-2025 07:00:00,30.751462,76.762879,NO2,1,14,7
India,Chhattisgarh,Bhilai,"32Bungalows, Bhilai - CECB",15-09-2025 07:00:00,21.194815,81.314770,NO2,6,53,23
India,Chhattisgarh,Bhilai,"32Bungalows, Bhilai - CECB",15-09-2025 07:00:00,21.194815,81.314770,SO2,NA,NA,NA
India,Chhattisgarh,Bhilai,"32Bungalows, Bhilai - CECB",15-09-2025 07:00:00,21.194815,81.314770,CO,5,40,9
India,Bihar,Purnia,"Mariam Nagar, Purnia - BSPCB",15-09-2025 07:00:00,25.366336,87.117468,NO2,5,6,6
India,Bihar,Rajgir,"Dangi Tola, Rajgir - BSPCB",15-09-2025 07:00:00,25.03280,85.41948,PM2.5,NA,NA,NA
India,Bihar,Rajgir,"Dangi Tola, Rajgir - BSPCB",15-09-2025 07:00:00,25.03280,85.41948,CO,80,101,89
India,Bihar,Saharsa,"Police Line, Saharsa - BSPCB",15-09-2025 07:00:00,25.892357,86.590325,PM2.5,NA,NA,NA
India,Bihar,Sasaram,"Dada Peer, Sasaram - BSPCB",15-09-2025 07:00:00,24.952822,84.002396,NO2,1,3,2
India,Delhi,Delhi,"Mandir Marg, Delhi - DPCC",15-09-2025 07:00:00,28.636429,77.201067,PM2.5,5,133,68
India,Delhi,Delhi,"Mundka, Delhi - DPCC",15-09-2025 07:00:00,28.684678,77.076574,PM10,77,255,128
India,Delhi,Delhi,"Mundka, Delhi - DPCC",15-09-2025 07:00:00,28.684678,77.076574,NO2,26,71,44
India,Delhi,Delhi,"NSIT Dwarka, Delhi - CPCB",15-09-2025 07:00:00,28.60909,77.0325413,CO,14,41,25
India,Delhi,Delhi,"Narela, Delhi - DPCC",15-09-2025 07:00:00,28.822836,77.101981,PM10,61,127,94
India,Delhi,Delhi,"Jahangirpuri, Delhi - DPCC",15-09-2025 07:00:00,28.732820,77.170633,NO2,2,18,10
India,Delhi,Delhi,"Major Dhyan Chand National Stadium, Delhi - DPCC",15-09-2025 07:00:00,28.611281,77.237738,PM10,75,143,108
India,Delhi,Delhi,"Major Dhyan Chand National Stadium, Delhi - DPCC",15-09-2025 07:00:00,28.611281,77.237738,NO2,20,82,49
India,Delhi,Delhi,"Major Dhyan Chand National Stadium, Delhi - DPCC",15-09-2025 07:00:00,28.611281,77.237738,SO2,3,12,7
India,Delhi,Delhi,"Major Dhyan Chand National Stadium, Delhi - DPCC",15-09-2025 07:00:00,28.611281,77.237738,OZONE,2,53,5
India,Delhi,Delhi,"IHBAS, Dilshad Garden, Delhi - CPCB",15-09-2025 07:00:00,28.6811736,77.3025234,PM2.5,50,82,60
India,Delhi,Delhi,"ITO, Delhi - CPCB",15-09-2025 07:00:00,28.628624,77.241060,NO2,71,92,80
India,Delhi,Delhi,"ITO, Delhi - CPCB",15-09-2025 07:00:00,28.628624,77.241060,SO2,5,20,13
India,Haryana,Panchgaon,"Amity University, Panchgaon - IITM",15-09-2025 07:00:00,28.3153,76.9143,SO2,3,16,10
India,Haryana,Panchgaon,"Amity University, Panchgaon - IITM",15-09-2025 07:00:00,28.3153,76.9143,CO,4,78,40
India,Himachal Pradesh,Baddi,"HIMUDA Complex Phase-1, Baddi - HPPCB",15-09-2025 07:00:00,30.943887,76.801991,PM2.5,42,207,84
India,Himachal Pradesh,Baddi,"HIMUDA Complex Phase-1, Baddi - HPPCB",15-09-2025 07:00:00,30.943887,76.801991,PM10,83,255,138
India,Jharkhand,Dhanbad,"Sardar Patel Nagar, Dhanbad - JSPCB",15-09-2025 07:00:00,23.80569,86.44268,CO,2,111,47
India,Jharkhand,Dhanbad,"Sardar Patel Nagar, Dhanbad - JSPCB",15-09-2025 07:00:00,23.80569,86.44268,OZONE,2,12,4
India,Jharkhand,Jorapokhar,"Tata Stadium, Jorapokhar - JSPCB",15-09-2025 07:00:00,23.707909,86.414670,OZONE,NA,NA,NA
India,Karnataka,Bagalkot,"Vidayagiri, Bagalkot - KSPCB",15-09-2025 07:00:00,16.172806,75.659694,NO2,9,10,9
India,Karnataka,Bengaluru,"Shivapura_Peenya, Bengaluru - KSPCB",15-09-2025 07:00:00,13.0246342,77.5080115,PM10,50,85,67
India,Karnataka,Bengaluru,"Shivapura_Peenya, Bengaluru - KSPCB",15-09-2025 07:00:00,13.0246342,77.5080115,NH3,4,4,4
India,Karnataka,Bengaluru,"Shivapura_Peenya, Bengaluru - KSPCB",15-09-2025 07:00:00,13.0246342,77.5080115,CO,25,33,29
India,Karnataka,Bengaluru,"Silk Board, Bengaluru - KSPCB",15-09-2025 07:00:00,12.917348,77.622813,NO2,6,16,10
India,Karnataka,Chamarajanagar,"Urban, Chamarajanagar - KSPCB",15-09-2025 07:00:00,11.55358,76.55521,PM10,37,53,44
India,Karnataka,Chamarajanagar,"Urban, Chamarajanagar - KSPCB",15-09-2025 07:00:00,11.55358,76.55521,NH3,1,3,2
India,Karnataka,Chamarajanagar,"Urban, Chamarajanagar - KSPCB",15-09-2025 07:00:00,11.55358,76.55521,OZONE,13,39,15
India,Karnataka,Chikkaballapur,"Chikkaballapur Rural, Chikkaballapur - KSPCB",15-09-2025 07:00:00,13.428828,77.731418,PM2.5,8,55,24
India,Karnataka,Chikkaballapur,"Chikkaballapur Rural, Chikkaballapur - KSPCB",15-09-2025 07:00:00,13.428828,77.731418,OZONE,19,24,22
India,Delhi,Delhi,"Nehru Nagar, Delhi - DPCC",15-09-2025 07:00:00,28.567890,77.250515,PM2.5,32,217,72
India,Delhi,Delhi,"Nehru Nagar, Delhi - DPCC",15-09-2025 07:00:00,28.567890,77.250515,NH3,3,5,4
India,Delhi,Delhi,"Nehru Nagar, Delhi - DPCC",15-09-2025 07:00:00,28.567890,77.250515,OZONE,4,82,5
India,Delhi,Delhi,"Okhla Phase-2, Delhi - DPCC",15-09-2025 07:00:00,28.530785,77.271255,NO2,25,71,44
India,Delhi,Delhi,"Okhla Phase-2, Delhi - DPCC",15-09-2025 07:00:00,28.530785,77.271255,SO2,2,7,3
India,Delhi,Delhi,"Patparganj, Delhi - DPCC",15-09-2025 07:00:00,28.623763,77.287209,SO2,7,10,9
India,Delhi,Delhi,"Patparganj, Delhi - DPCC",15-09-2025 07:00:00,28.623763,77.287209,CO,30,74,56
India,Delhi,Delhi,"Punjabi Bagh, Delhi - DPCC",15-09-2025 07:00:00,28.674045,77.131023,PM2.5,15,127,56
India,Delhi,Delhi,"Punjabi Bagh, Delhi - DPCC",15-09-2025 07:00:00,28.674045,77.131023,NH3,2,3,3
India,Delhi,Delhi,"Punjabi Bagh, Delhi - DPCC",15-09-2025 07:00:00,28.674045,77.131023,SO2,8,12,11
India,Karnataka,Bengaluru,"Bapuji Nagar, Bengaluru - KSPCB",15-09-2025 07:00:00,12.951913,77.539784,PM2.5,17,92,35
India,Karnataka,Bengaluru,"City Railway Station, Bengaluru - KSPCB",15-09-2025 07:00:00,12.9756843,77.5660749,NO2,46,54,49
India,Karnataka,Bengaluru,"City Railway Station, Bengaluru - KSPCB",15-09-2025 07:00:00,12.9756843,77.5660749,SO2,7,11,9
India,Karnataka,Bengaluru,"Hebbal, Bengaluru - KSPCB",15-09-2025 07:00:00,13.029152,77.585901,PM2.5,2,33,14
India,Karnataka,Bengaluru,"Hebbal, Bengaluru - KSPCB",15-09-2025 07:00:00,13.029152,77.585901,OZONE,7,8,8
India,Karnataka,Bengaluru,"Hombegowda Nagar, Bengaluru - KSPCB",15-09-2025 07:00:00,12.938539,77.590100,OZONE,2,26,10
India,Karnataka,Bengaluru,"Jayanagar 5th Block, Bengaluru - KSPCB",15-09-2025 07:00:00,12.920984,77.584908,PM10,NA,NA,NA
India,Karnataka,Bengaluru,"Jayanagar 5th Block, Bengaluru - KSPCB",15-09-2025 07:00:00,12.920984,77.584908,NO2,NA,NA,NA
India,Gujarat,Ahmedabad,"SAC ISRO Bopal, Ahmedabad - IITM",15-09-2025 07:00:00,23.041137,72.456691,SO2,1,1,1
India,Gujarat,Ahmedabad,"SAC ISRO Satellite, Ahmedabad - IITM",15-09-2025 07:00:00,23.023389,72.515201,NH3,4,5,4
India,Gujarat,Ahmedabad,"SAC ISRO Satellite, Ahmedabad - IITM",15-09-2025 07:00:00,23.023389,72.515201,CO,2,26,6
India,Gujarat,Ahmedabad,"SVPI Airport Hansol, Ahmedabad - IITM",15-09-2025 07:00:00,23.076793,72.627874,PM2.5,22,43,29
India,Gujarat,Ahmedabad,"SVPI Airport Hansol, Ahmedabad - IITM",15-09-2025 07:00:00,23.076793,72.627874,PM10,40,70,52
India,Gujarat,Ankleshwar,"GIDC, Ankleshwar - GPCB",15-09-2025 07:00:00,21.613267,73.010555,PM10,64,64,64
India,Gujarat,Ahmedabad,"Raikhad, Ahmedabad - IITM",15-09-2025 07:00:00,23.020509,72.579261,PM10,56,109,76
India,Gujarat,Ahmedabad,"Rakhial, Ahmedabad - IITM",15-09-2025 07:00:00,23.016834,72.625775,NH3,NA,NA,NA
India,Gujarat,Ahmedabad,"Rakhial, Ahmedabad - IITM",15-09-2025 07:00:00,23.016834,72.625775,SO2,9,53,20
India,Gujarat,Ahmedabad,"Rakhial, Ahmedabad - IITM",15-09-2025 07:00:00,23.016834,72.625775,CO,32,46,39
India,Gujarat,Ahmedabad,"SAC ISRO Bopal, Ahmedabad - IITM",15-09-2025 07:00:00,23.041137,72.456691,PM2.5,26,75,42
India,Gujarat,Ahmedabad,"SAC ISRO Bopal, Ahmedabad - IITM",15-09-2025 07:00:00,23.041137,72.456691,PM10,30,81,48
India,Gujarat,Ahmedabad,"SAC ISRO Bopal, Ahmedabad - IITM",15-09-2025 07:00:00,23.041137,72.456691,NO2,18,26,22
India,Delhi,Delhi,"Sirifort, Delhi - CPCB",15-09-2025 07:00:00,28.5504249,77.2159377,OZONE,20,38,37
India,Delhi,Delhi,"Sri Aurobindo Marg, Delhi - DPCC",15-09-2025 07:00:00,28.531346,77.190156,NH3,3,5,4
India,Delhi,Delhi,"Vivek Vihar, Delhi - DPCC",15-09-2025 07:00:00,28.672342,77.315260,PM10,88,109,96
India,Delhi,Delhi,"Vivek Vihar, Delhi - DPCC",15-09-2025 07:00:00,28.672342,77.315260,SO2,6,27,13
India,Delhi,Delhi,"Wazirpur, Delhi - DPCC",15-09-2025 07:00:00,28.699793,77.165453,OZONE,5,27,19
India,Gujarat,Gandhinagar,"IIPHG Lekawada, Gandhinagar - IITM",15-09-2025 07:00:00,23.243639,72.68994,NH3,1,1,1
India,Gujarat,Gandhinagar,"Sector-10, Gandhinagar - GPCB",15-09-2025 07:00:00,23.221714,72.654328,PM2.5,20,53,40
India,Gujarat,Nandesari,"GIDC, Nandesari - Nandesari Ind. Association",15-09-2025 07:00:00,22.410802,73.097923,NO2,NA,NA,NA
India,Delhi,Delhi,"Pusa, Delhi - DPCC",15-09-2025 07:00:00,28.639652,77.146275,SO2,7,16,11
India,Delhi,Delhi,"Pusa, Delhi - IMD",15-09-2025 07:00:00,28.636110,77.173332,CO,18,54,43
India,Delhi,Delhi,"Pusa, Delhi - IMD",15-09-2025 07:00:00,28.636110,77.173332,OZONE,26,43,27
India,Delhi,Delhi,"R K Puram, Delhi - DPCC",15-09-2025 07:00:00,28.563262,77.186937,PM10,67,162,112
India,Karnataka,Tumakuru,"Thimmalapura, Tumakuru - KSPCB",15-09-2025 07:00:00,13.377516,77.099072,PM10,NA,NA,NA
India,Karnataka,Tumakuru,"Thimmalapura, Tumakuru - KSPCB",15-09-2025 07:00:00,13.377516,77.099072,CO,22,32,27
India,Karnataka,Vijayapura,"Ibrahimpur, Vijayapura - KSPCB",15-09-2025 07:00:00,16.802639,75.722694,NO2,9,10,9
India,Karnataka,Vijayapura,"Ibrahimpur, Vijayapura - KSPCB",15-09-2025 07:00:00,16.802639,75.722694,NH3,1,2,1
India,Karnataka,Yadgir,"Collector Office, Yadgir - KSPCB",15-09-2025 07:00:00,16.7602,77.1428,NO2,NA,NA,NA
India,Kerala,Eloor,"Udyogamandal, Eloor - Kerala PCB",15-09-2025 07:00:00,10.073232,76.302765,PM10,43,79,56
India,Kerala,Eloor,"Udyogamandal, Eloor - Kerala PCB",15-09-2025 07:00:00,10.073232,76.302765,NO2,7,8,8
India,Kerala,Kannur,"Thavakkara, Kannur - Kerala PCB",15-09-2025 07:00:00,11.875000,75.373200,NH3,2,2,2
India,Kerala,Kannur,"Thavakkara, Kannur - Kerala PCB",15-09-2025 07:00:00,11.875000,75.373200,CO,12,15,14
India,Madhya Pradesh,Gwalior,"Deen Dayal Nagar, Gwalior - MPPCB",15-09-2025 07:00:00,26.259242,78.216432,CO,7,48,19
India,Madhya Pradesh,Gwalior,"Deen Dayal Nagar, Gwalior - MPPCB",15-09-2025 07:00:00,26.259242,78.216432,OZONE,24,112,44
India,Madhya Pradesh,Indore,"Airport Area, Indore - IMC",15-09-2025 07:00:00,22.7289,75.8076,PM10,36,105,56
India,Madhya Pradesh,Indore,"Airport Area, Indore - IMC",15-09-2025 07:00:00,22.7289,75.8076,SO2,21,22,21
India,Madhya Pradesh,Indore,"Maguda Nagar, Indore - IMC",15-09-2025 07:00:00,22.7524,75.8872,NH3,1,1,1
India,Madhya Pradesh,Indore,"Regional Park, Indore - IMC",15-09-2025 07:00:00,22.6780,75.8559,NO2,14,19,16
India,Madhya Pradesh,Indore,"Regional Park, Indore - IMC",15-09-2025 07:00:00,22.6780,75.8559,SO2,23,26,25
India,Madhya Pradesh,Indore,"Residency Area, Indore - IMC",15-09-2025 07:00:00,22.7084,75.8815,PM10,21,96,54
India,Madhya Pradesh,Katni,"Gole Bazar, Katni - MPPCB",15-09-2025 07:00:00,23.50016,80.23284,OZONE,10,59,12
India,Madhya Pradesh,Mandideep,"Sector-D Industrial Area, Mandideep - MPPCB",15-09-2025 07:00:00,23.108440,77.511428,SO2,8,104,43
India,Madhya Pradesh,Pithampur,"Sector-2 Industrial Area, Pithampur - MPPCB",15-09-2025 07:00:00,22.624758,75.675238,SO2,14,15,14
India,Madhya Pradesh,Sagar,"Civil Lines, Sagar - MPPCB",15-09-2025 07:00:00,23.838586,78.759431,NO2,3,4,3
India,Madhya Pradesh,Sagar,"Civil Lines, Sagar - MPPCB",15-09-2025 07:00:00,23.838586,78.759431,CO,24,38,32
India,Madhya Pradesh,Satna,"Bandhavgar Colony, Satna - Birla Cement",15-09-2025 07:00:00,24.58434363,80.8549414,NO2,18,22,20
India,Karnataka,Madikeri,"Stuart Hill, Madikeri - KSPCB",15-09-2025 07:00:00,12.415911,75.735050,PM2.5,2,18,9
India,Karnataka,Mangalore,"Kadri, Mangalore - KSPCB",15-09-2025 07:00:00,12.889250,74.853000,PM10,34,44,38
India,Karnataka,Mangalore,"Kadri, Mangalore - KSPCB",15-09-2025 07:00:00,12.889250,74.853000,NH3,NA,NA,NA
India,Karnataka,Mangalore,"Kadri, Mangalore - KSPCB",15-09-2025 07:00:00,12.889250,74.853000,OZONE,6,43,21
India,Karnataka,Ramanagara,"Vijay Nagar, Ramanagara - KSPCB",15-09-2025 07:00:00,12.733409,77.298051,NO2,NA,NA,NA
India,Karnataka,Ramanagara,"Vijay Nagar, Ramanagara - KSPCB",15-09-2025 07:00:00,12.733409,77.298051,NH3,NA,NA,NA
India,Karnataka,Ramanagara,"Vijay Nagar, Ramanagara - KSPCB",15-09-2025 07:00:00,12.733409,77.298051,CO,NA,NA,NA
India,Karnataka,Shivamogga,"Vinoba Nagara, Shivamogga - KSPCB",15-09-2025 07:00:00,13.940000,75.555917,PM2.5,23,30,25
India,Madhya Pradesh,Bhopal,"Paryavaran Parisar, Bhopal - MPPCB",15-09-2025 07:00:00,23.210494,77.425409,SO2,13,18,14
India,Madhya Pradesh,Bhopal,"T T Nagar, Bhopal - MPPCB",15-09-2025 07:00:00,23.233584,77.400574,NH3,5,6,6
India,Madhya Pradesh,Damoh,"Shrivastav Colony, Damoh - MPPCB",15-09-2025 07:00:00,23.81748678,79.446246,PM2.5,NA,NA,NA
India,Madhya Pradesh,Damoh,"Shrivastav Colony, Damoh - MPPCB",15-09-2025 07:00:00,23.81748678,79.446246,CO,NA,NA,NA
India,Madhya Pradesh,Dewas,"Bhopal Chauraha, Dewas - MPPCB",15-09-2025 07:00:00,22.9682591,76.064118,NO2,40,63,49
India,Madhya Pradesh,Gwalior,"Deen Dayal Nagar, Gwalior - MPPCB",15-09-2025 07:00:00,26.259242,78.216432,SO2,2,10,5
India,Madhya Pradesh,Jabalpur,"Govindh Bhavan Colony, Jabalpur - JMC",15-09-2025 07:00:00,23.163174,79.973061,PM2.5,10,55,39
India,Madhya Pradesh,Jabalpur,"Marhatal, Jabalpur - MPPCB",15-09-2025 07:00:00,23.168606,79.932247,PM10,22,96,52
India,Madhya Pradesh,Jabalpur,"Marhatal, Jabalpur - MPPCB",15-09-2025 07:00:00,23.168606,79.932247,SO2,12,17,15
India,Madhya Pradesh,Jabalpur,"Marhatal, Jabalpur - MPPCB",15-09-2025 07:00:00,23.168606,79.932247,OZONE,31,32,31
India,Madhya Pradesh,Jabalpur,"Suhagi, Jabalpur - JMC",15-09-2025 07:00:00,23.218135,79.957770,CO,18,70,43
India,Madhya Pradesh,Jabalpur,"Suhagi, Jabalpur - JMC",15-09-2025 07:00:00,23.218135,79.957770,OZONE,9,50,10
India,Madhya Pradesh,Katni,"Gole Bazar, Katni - MPPCB",15-09-2025 07:00:00,23.50016,80.23284,PM2.5,27,73,57
India,Kerala,Thiruvananthapuram,"Plammoodu, Thiruvananthapuram - Kerala PCB",15-09-2025 07:00:00,8.5149093,76.9435879,NO2,48,86,65
India,Kerala,Thrissur,"Corporation Ground, Thrissur - Kerala PCB",15-09-2025 07:00:00,10.532400,76.215900,CO,18,23,21
India,Kerala,Thrissur,"Corporation Ground, Thrissur - Kerala PCB",15-09-2025 07:00:00,10.532400,76.215900,OZONE,28,29,28
India,Madhya Pradesh,Bhopal,"Idgah Hills, Bhopal - MPPCB",15-09-2025 07:00:00,23.264759,77.381568,PM10,36,103,56
India,Madhya Pradesh,Bhopal,"Idgah Hills, Bhopal - MPPCB",15-09-2025 07:00:00,23.264759,77.381568,NH3,4,7,5
India,Madhya Pradesh,Singrauli,"Suryakiran Bhawan NCL, Singrauli - MPPCB",15-09-2025 07:00:00,24.108970,82.645580,SO2,27,90,42
India,Madhya Pradesh,Singrauli,"Suryakiran Bhawan NCL, Singrauli - MPPCB",15-09-2025 07:00:00,24.108970,82.645580,CO,12,15,12
India,Maharashtra,Ahmednagar,"Tarakpur, Ahmednagar - MPCB",15-09-2025 07:00:00,19.10122,74.73339,PM2.5,10,56,29
India,Maharashtra,Amravati,"Shri Shivaji Science College, Amravati - MPCB",15-09-2025 07:00:00,20.939198,77.765701,OZONE,1,50,5
India,Kerala,Kollam,"Polayathode, Kollam - Kerala PCB",15-09-2025 07:00:00,8.8787,76.6073,PM10,52,67,59
India,Kerala,Kollam,"Polayathode, Kollam - Kerala PCB",15-09-2025 07:00:00,8.8787,76.6073,CO,14,16,16
India,Maharashtra,Mumbai,"Borivali East, Mumbai - MPCB",15-09-2025 07:00:00,19.2243333,72.8658113,CO,2,3,2
India,Maharashtra,Mumbai,"Byculla, Mumbai - BMC",15-09-2025 07:00:00,18.9767,72.8380,NO2,1,37,9
India,Maharashtra,Mumbai,"Chakala-Andheri East, Mumbai - IITM",15-09-2025 07:00:00,19.11074,72.86084,PM2.5,16,52,39
India,Maharashtra,Mumbai,"Chakala-Andheri East, Mumbai - IITM",15-09-2025 07:00:00,19.11074,72.86084,PM10,24,72,49
India,Maharashtra,Mumbai,"Chakala-Andheri East, Mumbai - IITM",15-09-2025 07:00:00,19.11074,72.86084,CO,2,23,8
India,Maharashtra,Mumbai,"Chakala-Andheri East, Mumbai - IITM",15-09-2025 07:00:00,19.11074,72.86084,OZONE,2,48,11
India,Maharashtra,Mumbai,"Chembur, Mumbai - MPCB",15-09-2025 07:00:00,19.0364585,72.8954371,NH3,3,6,4
India,Maharashtra,Mumbai,"Chhatrapati Shivaji Intl. Airport (T2), Mumbai - MPCB",15-09-2025 07:00:00,19.10078,72.87462,NH3,1,2,1
India,Maharashtra,Mumbai,"Chhatrapati Shivaji Intl. Airport (T2), Mumbai - MPCB",15-09-2025 07:00:00,19.10078,72.87462,SO2,20,21,20
India,Maharashtra,Mumbai,"Chhatrapati Shivaji Intl. Airport (T2), Mumbai - MPCB",15-09-2025 07:00:00,19.10078,72.87462,OZONE,7,8,7
India,Maharashtra,Mumbai,"Colaba, Mumbai - MPCB",15-09-2025 07:00:00,18.910000,72.820000,PM2.5,NA,NA,NA
India,Maharashtra,Aurangabad,"MIDC Chilkalthana, Aurangabad - MPCB",15-09-2025 07:00:00,19.875620,75.387310,NH3,2,3,2
India,Maharashtra,Aurangabad,"MIDC Chilkalthana, Aurangabad - MPCB",15-09-2025 07:00:00,19.875620,75.387310,OZONE,2,85,31
India,Maharashtra,Aurangabad,"More Chowk Waluj, Aurangabad - MPCB",15-09-2025 07:00:00,19.8389439,75.244448,NO2,15,22,18
India,Maharashtra,Aurangabad,"More Chowk Waluj, Aurangabad - MPCB",15-09-2025 07:00:00,19.8389439,75.244448,NH3,10,11,11
India,Maharashtra,Aurangabad,"Rachnakar Colony, Aurangabad - MPCB",15-09-2025 07:00:00,19.863756,75.321188,SO2,10,28,20
India,Maharashtra,Badlapur,"Katrap, Badlapur - MPCB",15-09-2025 07:00:00,19.16485,73.23409,PM2.5,20,57,43
India,Maharashtra,Badlapur,"Katrap, Badlapur - MPCB",15-09-2025 07:00:00,19.16485,73.23409,NH3,4,10,7
India,Maharashtra,Belapur,"CBD Belapur, Belapur - MPCB",15-09-2025 07:00:00,19.0243902,73.0406721,PM10,16,134,48
India,Maharashtra,Belapur,"CBD Belapur, Belapur - MPCB",15-09-2025 07:00:00,19.0243902,73.0406721,NH3,3,5,4
India,Maharashtra,Bhiwandi,"Gokul Nagar, Bhiwandi - MPCB",15-09-2025 07:00:00,19.309073,73.057223,NO2,NA,NA,NA
India,Maharashtra,Chandrapur,"MIDC Khutala, Chandrapur - MPCB",15-09-2025 07:00:00,19.9775302,79.2337086,PM10,37,71,55
India,Maharashtra,Chandrapur,"MIDC Khutala, Chandrapur - MPCB",15-09-2025 07:00:00,19.9775302,79.2337086,NO2,2,7,4
India,Maharashtra,Dhule,"Deopur, Dhule - MPCB",15-09-2025 07:00:00,20.918946,74.776388,SO2,1,12,8
India,Maharashtra,Jalgaon,"Prabhat Colony, Jalgaon - MPCB",15-09-2025 07:00:00,21.001264,75.565602,PM2.5,47,129,71
India,Maharashtra,Jalgaon,"Prabhat Colony, Jalgaon - MPCB",15-09-2025 07:00:00,21.001264,75.565602,NH3,2,3,2
India,Maharashtra,Jalna,"Old MIDC, Jalna - MPCB",15-09-2025 07:00:00,19.854616,75.905894,PM2.5,36,83,56
India,Maharashtra,Jalna,"Old MIDC, Jalna - MPCB",15-09-2025 07:00:00,19.854616,75.905894,NH3,2,5,4
India,Maharashtra,Jalna,"Old MIDC, Jalna - MPCB",15-09-2025 07:00:00,19.854616,75.905894,CO,6,40,9
India,Maharashtra,Kalyan,"Khadakpada, Kalyan - MPCB",15-09-2025 07:00:00,19.25292,73.142019,NH3,1,2,1
India,Maharashtra,Kalyan,"Khadakpada, Kalyan - MPCB",15-09-2025 07:00:00,19.25292,73.142019,SO2,6,7,6
India,Maharashtra,Mumbai,"Colaba, Mumbai - MPCB",15-09-2025 07:00:00,18.910000,72.820000,NH3,3,3,3
India,Maharashtra,Mumbai,"Colaba, Mumbai - MPCB",15-09-2025 07:00:00,18.910000,72.820000,CO,22,24,22
India,Maharashtra,Mumbai,"Colaba, Mumbai - MPCB",15-09-2025 07:00:00,18.910000,72.820000,OZONE,9,12,11
India,Maharashtra,Mumbai,"Deonar, Mumbai - IITM",15-09-2025 07:00:00,19.04946,72.9230,NH3,10,12,11
India,Maharashtra,Mumbai,"Ghatkopar, Mumbai - BMC",15-09-2025 07:00:00,19.083694,72.920967,PM2.5,9,46,23
India,Maharashtra,Mumbai,"Ghatkopar, Mumbai - BMC",15-09-2025 07:00:00,19.083694,72.920967,SO2,9,10,9
India,Maharashtra,Mumbai,"Kandivali East, Mumbai - MPCB",15-09-2025 07:00:00,19.205800,72.868200,PM2.5,30,30,30
India,Maharashtra,Mumbai,"Kandivali East, Mumbai - MPCB",15-09-2025 07:00:00,19.205800,72.868200,SO2,NA,NA,NA
India,Maharashtra,Mumbai,"Kandivali West, Mumbai - BMC",15-09-2025 07:00:00,19.215859,72.831718,PM2.5,NA,NA,NA
India,Maharashtra,Mumbai,"Kandivali West, Mumbai - BMC",15-09-2025 07:00:00,19.215859,72.831718,OZONE,8,43,17
India,Maharashtra,Malegaon,"Mahesh Nagar, Malegaon - MPCB",15-09-2025 07:00:00,20.555712,74.529236,OZONE,10,34,18
India,Maharashtra,Mira-Bhayandar,"Bhayandar West, Mira-Bhayandar - MPCB",15-09-2025 07:00:00,19.296481,72.840923,PM2.5,14,32,21
India,Maharashtra,Mumbai,"Bandra Kurla Complex, Mumbai - IITM",15-09-2025 07:00:00,19.053536,72.84643,PM2.5,31,99,64
India,Maharashtra,Mumbai,"Bandra Kurla Complex, Mumbai - IITM",15-09-2025 07:00:00,19.053536,72.84643,PM10,34,119,77
India,Maharashtra,Mumbai,"Bandra Kurla Complex, Mumbai - IITM",15-09-2025 07:00:00,19.053536,72.84643,NO2,15,26,20
India,Maharashtra,Mumbai,"Bandra Kurla Complex, Mumbai - MPCB",15-09-2025 07:00:00,19.065931,72.862131,SO2,2,4,3
India,Maharashtra,Mumbai,"Borivali East, Mumbai - IITM",15-09-2025 07:00:00,19.23241,72.86895,PM2.5,32,64,45
India,Maharashtra,Kalyan,"Khadakpada, Kalyan - MPCB",15-09-2025 07:00:00,19.25292,73.142019,OZONE,16,16,16
India,Maharashtra,Kolhapur,"Shivaji University, Kolhapur - MPCB",15-09-2025 07:00:00,16.6870449,74.2505872,SO2,NA,NA,NA
India,Maharashtra,Kolhapur,"Sinchan Bhavan, Kolhapur - MPCB",15-09-2025 07:00:00,16.7143745,74.2426398,PM2.5,NA,NA,NA
India,Maharashtra,Kolhapur,"Sinchan Bhavan, Kolhapur - MPCB",15-09-2025 07:00:00,16.7143745,74.2426398,NH3,NA,NA,NA
India,Maharashtra,Latur,"Sawe Wadi, Latur - MPCB",15-09-2025 07:00:00,18.39963,76.57452,PM2.5,14,40,28
India,Maharashtra,Latur,"Sawe Wadi, Latur - MPCB",15-09-2025 07:00:00,18.39963,76.57452,OZONE,11,37,17
India,Maharashtra,Mumbai,"Mindspace-Malad West, Mumbai - MPCB",15-09-2025 07:00:00,19.1878657,72.8304069,OZONE,29,31,30
India,Maharashtra,Mumbai,"Navy Nagar-Colaba, Mumbai - IITM",15-09-2025 07:00:00,18.897756,72.813320,PM2.5,36,91,62
India,Maharashtra,Mumbai,"Sewri, Mumbai - BMC",15-09-2025 07:00:00,19.000084,72.856730,NO2,NA,NA,NA
India,Maharashtra,Mumbai,"Sewri, Mumbai - BMC",15-09-2025 07:00:00,19.000084,72.856730,SO2,NA,NA,NA
India,Maharashtra,Mumbai,"Sewri, Mumbai - BMC",15-09-2025 07:00:00,19.000084,72.856730,OZONE,NA,NA,NA
India,Maharashtra,Mumbai,"Siddharth Nagar-Worli, Mumbai - IITM",15-09-2025 07:00:00,19.000083,72.813993,NO2,59,92,70
India,Maharashtra,Mumbai,"Vasai West, Mumbai - MPCB",15-09-2025 07:00:00,19.383200,72.820400,PM2.5,16,72,42
India,Maharashtra,Nagpur,"Ambazari, Nagpur - MPCB",15-09-2025 07:00:00,21.121801,79.04952,NO2,5,15,10
India,Maharashtra,Nagpur,"Mahal, Nagpur - MPCB",15-09-2025 07:00:00,21.14472,79.107595,CO,22,128,43
India,Maharashtra,Nagpur,"Opp GPO Civil Lines, Nagpur - MPCB",15-09-2025 07:00:00,21.152875,79.0517531,NH3,2,3,2
India,Maharashtra,Nagpur,"Opp GPO Civil Lines, Nagpur - MPCB",15-09-2025 07:00:00,21.152875,79.0517531,SO2,3,7,5
India,Maharashtra,Mumbai,"Kherwadi_Bandra East, Mumbai - MPCB",15-09-2025 07:00:00,19.0632143,72.8456324,SO2,2,3,3
India,Maharashtra,Mumbai,"Khindipada-Bhandup West, Mumbai - IITM",15-09-2025 07:00:00,19.1653323,72.922099,CO,12,18,15
India,Maharashtra,Mumbai,"Kurla, Mumbai - MPCB",15-09-2025 07:00:00,19.0863,72.8888,CO,4,12,8
India,Maharashtra,Mumbai,"Kurla, Mumbai - MPCB",15-09-2025 07:00:00,19.0863,72.8888,OZONE,27,29,28
India,Maharashtra,Mumbai,"Mazgaon, Mumbai - IITM",15-09-2025 07:00:00,18.96702,72.84214,PM2.5,NA,NA,NA
India,Maharashtra,Navi Mumbai,"Sanpada, Navi Mumbai - MPCB",15-09-2025 07:00:00,19.0575752,73.0151367,CO,8,46,16
India,Maharashtra,Navi Mumbai,"Sanpada, Navi Mumbai - MPCB",15-09-2025 07:00:00,19.0575752,73.0151367,OZONE,12,12,12
India,Maharashtra,Navi Mumbai,"Sector-2E Kalamboli, Navi Mumbai - MPCB",15-09-2025 07:00:00,19.02579,73.10297,OZONE,4,85,10
India,Maharashtra,Parbhani,"Masoom Colony, Parbhani - MPCB",15-09-2025 07:00:00,19.265594,76.761463,NO2,1,4,3
India,Maharashtra,Pimpri-Chinchwad,"Gavalinagar, Pimpri Chinchwad - MPCB",15-09-2025 07:00:00,18.63673,73.82487,CO,6,21,11
India,Maharashtra,Pimpri-Chinchwad,"Park Street Wakad, Pimpri Chinchwad - MPCB",15-09-2025 07:00:00,18.59051,73.77946,PM10,9,46,29
India,Maharashtra,Sangli,"Vijay Nagar, Sangli - MPCB",15-09-2025 07:00:00, 16.5038,74.3623,SO2,6,7,6
India,Maharashtra,Solapur,"Dnyaneshwar Nagar, Solapur - MPCB",15-09-2025 07:00:00,17.6336264,75.9132495,OZONE,5,28,23
India,Maharashtra,Solapur,"Ratandeep Housing Society, Solapur - MPCB",15-09-2025 07:00:00,17.65439,75.90649,NO2,2,38,19
India,Maharashtra,Thane,"Kasarvadavali, Thane - MPCB",15-09-2025 07:00:00,19.26777,72.97182,OZONE,32,44,34
India,Maharashtra,Thane,"Upvan Fort, Thane - MPCB",15-09-2025 07:00:00,19.222279,72.957979,PM2.5,32,69,46
India,Maharashtra,Thane,"Upvan Fort, Thane - MPCB",15-09-2025 07:00:00,19.222279,72.957979,NH3,1,7,1
India,Odisha,Angul,"Hakimapada, Angul - OSPCB",15-09-2025 07:00:00,20.832874,85.104082,NH3,3,4,4
India,Odisha,Balasore,"Kalidaspur, Balasore - OSPCB",15-09-2025 07:00:00,21.51161,86.89088,NO2,1,33,13
India,Odisha,Balasore,"Kalidaspur, Balasore - OSPCB",15-09-2025 07:00:00,21.51161,86.89088,NH3,2,4,3
India,Odisha,Balasore,"Kalidaspur, Balasore - OSPCB",15-09-2025 07:00:00,21.51161,86.89088,OZONE,1,30,7
India,Odisha,Barbil,"Forest Office, Barbil - OSPCB",15-09-2025 07:00:00,22.1166054,85.3945546,OZONE,4,32,8
India,Odisha,Baripada,"Meher Colony, Baripada - OSPCB",15-09-2025 07:00:00,21.941841,86.728318,SO2,4,9,6
India,Odisha,Baripada,"Meher Colony, Baripada - OSPCB",15-09-2025 07:00:00,21.941841,86.728318,OZONE,3,21,9
India,Maharashtra,Pimpri-Chinchwad,"Savta Mali Nagar, Pimpri-Chinchwad - IITM",15-09-2025 07:00:00,18.614767,73.799516,NO2,20,42,29
India,Maharashtra,Pimpri-Chinchwad,"Thergaon, Pimpri Chinchwad - MPCB",15-09-2025 07:00:00,18.616318,73.765797,NH3,1,3,1
India,Maharashtra,Pune,"Bhumkar Nagar, Pune - IITM",15-09-2025 07:00:00,18.605770,73.749976,PM10,25,65,42
India,Maharashtra,Pune,"Bhumkar Nagar, Pune - IITM",15-09-2025 07:00:00,18.605770,73.749976,CO,11,54,25
India,Maharashtra,Pune,"Dhankawadi, Pune - IITM",15-09-2025 07:00:00,18.459883,73.852193,PM2.5,5,37,22
India,Maharashtra,Nanded,"Sneh Nagar, Nanded - MPCB",15-09-2025 07:00:00,19.173852,77.296291,SO2,8,8,8
India,Maharashtra,Nanded,"Sneh Nagar, Nanded - MPCB",15-09-2025 07:00:00,19.173852,77.296291,CO,28,78,51
India,Maharashtra,Nanded,"Sneh Nagar, Nanded - MPCB",15-09-2025 07:00:00,19.173852,77.296291,OZONE,5,36,13
India,Maharashtra,Nashik,"Gangapur Road, Nashik - MPCB",15-09-2025 07:00:00,20.0073285,73.7762427,PM2.5,24,61,41
India,Maharashtra,Nashik,"Gangapur Road, Nashik - MPCB",15-09-2025 07:00:00,20.0073285,73.7762427,NO2,5,5,5
India,Maharashtra,Nashik,"Hirawadi, Nashik - MPCB",15-09-2025 07:00:00,20.021503,73.813844,OZONE,14,54,33
India,Maharashtra,Nashik,"MIDC Ambad, Nashik - MPCB",15-09-2025 07:00:00,19.950220,73.731480,NO2,2,13,5
India,Maharashtra,Navi Mumbai,"Kopripada-Vashi, Navi Mumbai - MPCB",15-09-2025 07:00:00,19.090337,73.014232,CO,14,38,22
India,Maharashtra,Navi Mumbai,"Mahape, Navi Mumbai - MPCB",15-09-2025 07:00:00,19.1135051,73.008978,PM10,NA,NA,NA
India,Maharashtra,Navi Mumbai,"Mahape, Navi Mumbai - MPCB",15-09-2025 07:00:00,19.1135051,73.008978,OZONE,8,11,10
India,Maharashtra,Pune,"Katraj Dairy, Pune - MPCB",15-09-2025 07:00:00,18.454450,73.854155,SO2,3,50,14
India,Maharashtra,Pune,"Katraj Dairy, Pune - MPCB",15-09-2025 07:00:00,18.454450,73.854155,OZONE,27,68,27
India,Maharashtra,Pune,"Mhada Colony, Pune - IITM",15-09-2025 07:00:00,18.573040,73.927715,OZONE,16,52,24
India,Maharashtra,Pune,"Transport Nagar-Nigdi, Pune - IITM",15-09-2025 07:00:00,18.664282,73.763966,NO2,22,36,28
India,Maharashtra,Pune,"Dhankawadi, Pune - IITM",15-09-2025 07:00:00,18.459883,73.852193,CO,4,113,20
India,Maharashtra,Pune,"Dhankawadi, Pune - IITM",15-09-2025 07:00:00,18.459883,73.852193,OZONE,1,1,1
India,Meghalaya,Shillong,"Lumpyngngad, Shillong - Meghalaya PCB",15-09-2025 07:00:00,25.5586,91.8985,NO2,NA,NA,NA
India,Rajasthan,Bhiwadi,"Vasundhara Nagar_UIT, Bhiwadi - RSPCB",15-09-2025 07:00:00,28.207266,76.829265,OZONE,2,23,4
India,Rajasthan,Bikaner,"MM Ground, Bikaner - RSPCB",15-09-2025 07:00:00,28.018792,73.292658,NH3,7,10,8
India,Rajasthan,Bikaner,"MM Ground, Bikaner - RSPCB",15-09-2025 07:00:00,28.018792,73.292658,CO,9,51,11
India,Rajasthan,Bundi,"New Colony, Bundi - RSPCB",15-09-2025 07:00:00,25.435774,75.644272,PM2.5,13,73,29
India,Rajasthan,Bundi,"New Colony, Bundi - RSPCB",15-09-2025 07:00:00,25.435774,75.644272,PM10,34,107,52
India,Rajasthan,Chittorgarh,"Shastri Nagar, Chittorgarh - RSPCB",15-09-2025 07:00:00,24.892047,74.623527,CO,4,38,15
India,Rajasthan,Chittorgarh,"Shastri Nagar, Chittorgarh - RSPCB",15-09-2025 07:00:00,24.892047,74.623527,OZONE,1,66,4
India,Rajasthan,Churu,"Subash Chowk, Churu - RSPCB",15-09-2025 07:00:00,28.296139,74.961696,NO2,2,9,6
India,Rajasthan,Churu,"Subash Chowk, Churu - RSPCB",15-09-2025 07:00:00,28.296139,74.961696,NH3,3,5,3
India,Rajasthan,Churu,"Subash Chowk, Churu - RSPCB",15-09-2025 07:00:00,28.296139,74.961696,SO2,2,5,3
India,Rajasthan,Churu,"Subash Chowk, Churu - RSPCB",15-09-2025 07:00:00,28.296139,74.961696,CO,6,14,9
India,Rajasthan,Dausa,"Khatikan Mohalla, Dausa - RSPCB",15-09-2025 07:00:00,26.895552,76.334753,PM10,28,104,53
India,Rajasthan,Dausa,"Khatikan Mohalla, Dausa - RSPCB",15-09-2025 07:00:00,26.895552,76.334753,SO2,2,9,4
India,Rajasthan,Dholpur,"Raja Ganj, Dholpur - RSPCB",15-09-2025 07:00:00,26.699557,77.898881,NO2,8,20,13
India,Rajasthan,Dholpur,"Raja Ganj, Dholpur - RSPCB",15-09-2025 07:00:00,26.699557,77.898881,NH3,2,4,3
India,Rajasthan,Dholpur,"Raja Ganj, Dholpur - RSPCB",15-09-2025 07:00:00,26.699557,77.898881,SO2,3,5,4
India,Rajasthan,Dungarpur,"Bhoiwada, Dungarpur - RSPCB",15-09-2025 07:00:00,23.837789,73.714926,PM10,29,55,42
India,Rajasthan,Dungarpur,"Bhoiwada, Dungarpur - RSPCB",15-09-2025 07:00:00,23.837789,73.714926,NO2,2,10,5
India,Rajasthan,Dungarpur,"Bhoiwada, Dungarpur - RSPCB",15-09-2025 07:00:00,23.837789,73.714926,SO2,2,9,6
India,Rajasthan,Dungarpur,"Bhoiwada, Dungarpur - RSPCB",15-09-2025 07:00:00,23.837789,73.714926,OZONE,12,68,25
India,Rajasthan,Hanumangarh,"Housing Board, Hanumangarh - RSPCB",15-09-2025 07:00:00,29.610750,74.283608,OZONE,15,33,20
India,Rajasthan,Jaipur,"Adarsh Nagar, Jaipur - RSPCB",15-09-2025 07:00:00,26.902909,75.836858,NH3,5,19,10
India,Rajasthan,Jaipur,"Mansarovar Sector-12, Jaipur - RSPCB",15-09-2025 07:00:00,26.843698,75.766894,SO2,1,3,2
India,Punjab,Bathinda,"Hardev Nagar, Bathinda - PPCB",15-09-2025 07:00:00,30.233011,74.907758,CO,2,45,22
India,Punjab,Jalandhar,"Civil Line, Jalandhar - PPCB",15-09-2025 07:00:00,31.321907,75.578914,PM2.5,33,50,39
India,Punjab,Khanna,"Kalal Majra, Khanna - PPCB",15-09-2025 07:00:00,30.736056 ,76.209694,NO2,27,31,29
India,Punjab,Khanna,"Kalal Majra, Khanna - PPCB",15-09-2025 07:00:00,30.736056 ,76.209694,SO2,5,6,5
India,Punjab,Ludhiana,"Punjab Agricultural University, Ludhiana - PPCB",15-09-2025 07:00:00,30.9028,75.8086,PM2.5,36,62,48
India,Punjab,Ludhiana,"Punjab Agricultural University, Ludhiana - PPCB",15-09-2025 07:00:00,30.9028,75.8086,OZONE,31,64,36
India,Punjab,Mandi Gobindgarh,"RIMT University, Mandi Gobindgarh - PPCB",15-09-2025 07:00:00,30.649961,76.331442,SO2,3,32,13
India,Odisha,Nayagarh,"Dabuna, Nayagarh - OSPCB",15-09-2025 07:00:00,21.847279,85.416905,SO2,2,5,4
India,Odisha,Nayagarh,"Dabuna, Nayagarh - OSPCB",15-09-2025 07:00:00,21.847279,85.416905,OZONE,13,17,14
India,Odisha,Rourkela,"Raghunathpali, Rourkela - OSPCB",15-09-2025 07:00:00,22.220833,84.809444,PM10,32,71,46
India,Odisha,Rourkela,"Raghunathpali, Rourkela - OSPCB",15-09-2025 07:00:00,22.220833,84.809444,SO2,5,8,6
India,Odisha,Rourkela,"Raghunathpali, Rourkela - OSPCB",15-09-2025 07:00:00,22.220833,84.809444,OZONE,5,18,7
India,Odisha,Suakati,"OMC Colony, Suakati - OSPCB",15-09-2025 07:00:00,21.606865,85.510538,SO2,25,29,27
India,Punjab,Amritsar,"Golden Temple, Amritsar - PPCB",15-09-2025 07:00:00,31.620000,74.876512,PM2.5,35,57,46
India,Rajasthan,Jaipur,"Mansarovar Sector-12, Jaipur - RSPCB",15-09-2025 07:00:00,26.843698,75.766894,OZONE,33,138,46
India,Rajasthan,Jaipur,"Police Commissionerate, Jaipur - RSPCB",15-09-2025 07:00:00,26.9164092,75.7994901,PM2.5,40,96,63
India,Rajasthan,Jaipur,"RIICO Sitapura, Jaipur - RSPCB",15-09-2025 07:00:00,26.786682,75.827928,PM2.5,22,73,39
India,Rajasthan,Jaipur,"Sector-2 Murlipura, Jaipur - RSPCB",15-09-2025 07:00:00,26.960669,75.771817,SO2,5,9,7
India,Rajasthan,Jaipur,"Sector-2 Murlipura, Jaipur - RSPCB",15-09-2025 07:00:00,26.960669,75.771817,CO,7,34,10
India,Rajasthan,Jaipur,"Shastri Nagar, Jaipur - RSPCB",15-09-2025 07:00:00,26.9502929,75.730943,PM2.5,32,92,62
India,Odisha,Bhubaneswar,"Patia, Bhubaneswar - OSPCB",15-09-2025 07:00:00,20.34652,85.81630,CO,31,66,43
India,Odisha,Bileipada,"Tata Township, Bileipada - OSPCB",15-09-2025 07:00:00,22.06156703,85.47409613,PM2.5,18,142,51
India,Odisha,Bileipada,"Tata Township, Bileipada - OSPCB",15-09-2025 07:00:00,22.06156703,85.47409613,PM10,35,158,71
India,Odisha,Bileipada,"Tata Township, Bileipada - OSPCB",15-09-2025 07:00:00,22.06156703,85.47409613,NO2,6,7,7
India,Odisha,Bileipada,"Tata Township, Bileipada - OSPCB",15-09-2025 07:00:00,22.06156703,85.47409613,NH3,4,4,4
India,Odisha,Bileipada,"Tata Township, Bileipada - OSPCB",15-09-2025 07:00:00,22.06156703,85.47409613,CO,36,48,45
India,Odisha,Cuttack,"CDA Area, Cuttack - OSPCB",15-09-2025 07:00:00,20.48891     ,85.84768     ,PM10,13,91,29
India,Punjab,Rupnagar,"Ratanpura, Rupnagar - Ambuja Cements",15-09-2025 07:00:00,31.0325454,76.5623046,PM2.5,26,164,58
India,Punjab,Rupnagar,"Ratanpura, Rupnagar - Ambuja Cements",15-09-2025 07:00:00,31.0325454,76.5623046,SO2,4,12,8
India,Rajasthan,Alwar,"Moti Doongri, Alwar - RSPCB",15-09-2025 07:00:00,27.554793,76.611536,PM2.5,26,45,32
India,Rajasthan,Alwar,"Moti Doongri, Alwar - RSPCB",15-09-2025 07:00:00,27.554793,76.611536,NO2,50,70,62
India,Rajasthan,Banswara,"Rati Talai, Banswara - RSPCB",15-09-2025 07:00:00,23.555190,74.440010,PM2.5,NA,NA,NA
India,Rajasthan,Banswara,"Rati Talai, Banswara - RSPCB",15-09-2025 07:00:00,23.555190,74.440010,OZONE,4,96,5
India,Rajasthan,Baran,"Bamboliya, Baran - RSPCB",15-09-2025 07:00:00,25.106006,76.469948,SO2,1,3,1
India,Rajasthan,Barmer,"Railway Colony, Barmer - RSPCB",15-09-2025 07:00:00,25.747299,71.393989,CO,8,32,12
India,Rajasthan,Bhilwara,"Pratap Nagar, Bhilwara - RSPCB",15-09-2025 07:00:00,25.339605,74.618883,OZONE,5,31,10
India,Rajasthan,Bhiwadi,"RIICO Ind. Area III, Bhiwadi - RSPCB",15-09-2025 07:00:00,28.194909,76.862296,PM10,40,95,59
India,Rajasthan,Bhiwadi,"RIICO Ind. Area III, Bhiwadi - RSPCB",15-09-2025 07:00:00,28.194909,76.862296,NO2,15,41,29
India,Punjab,Patiala,"Model Town, Patiala - PPCB",15-09-2025 07:00:00,30.349388,76.366642,PM10,27,56,38
India,Punjab,Patiala,"Model Town, Patiala - PPCB",15-09-2025 07:00:00,30.349388,76.366642,CO,10,26,17
India,TamilNadu,Chennai,"Perungudi, Chennai - TNPCB",15-09-2025 07:00:00,12.9533,80.2357,CO,23,43,28
India,TamilNadu,Chennai,"Royapuram, Chennai - TNPCB",15-09-2025 07:00:00,13.1036,80.2909,SO2,1,4,2
India,TamilNadu,Chennai,"Velachery Res. Area, Chennai - CPCB",15-09-2025 07:00:00,13.0052189,80.2398125,PM2.5,34,66,51
India,TamilNadu,Chennai,"Velachery Res. Area, Chennai - CPCB",15-09-2025 07:00:00,13.0052189,80.2398125,CO,40,60,53
India,TamilNadu,Chennai,"Velachery Res. Area, Chennai - CPCB",15-09-2025 07:00:00,13.0052189,80.2398125,OZONE,6,12,8
India,TamilNadu,Coimbatore,"PSG College of Arts and Science, Coimbatore - TNPCB",15-09-2025 07:00:00,11.0328,77.0349,NH3,2,2,2
India,TamilNadu,Coimbatore,"SIDCO Kurichi, Coimbatore - TNPCB",15-09-2025 07:00:00,10.942451,76.978996,PM2.5,NA,NA,NA
India,TamilNadu,Coimbatore,"SIDCO Kurichi, Coimbatore - TNPCB",15-09-2025 07:00:00,10.942451,76.978996,PM10,NA,NA,NA
India,TamilNadu,Coimbatore,"SIDCO Kurichi, Coimbatore - TNPCB",15-09-2025 07:00:00,10.942451,76.978996,NH3,1,1,1
India,TamilNadu,Cuddalore,"Kudikadu, Cuddalore - TNPCB",15-09-2025 07:00:00,11.6829898,79.7532099,NO2,19,19,19
India,Rajasthan,Rajsamand,"Dhoinda, Rajsamand - RSPCB",15-09-2025 07:00:00,25.036360,73.883502,OZONE,21,98,39
India,Rajasthan,Sawai Madhopur,"Sahu Nagar, Sawai Madhopur - RSPCB",15-09-2025 07:00:00,26.031443,76.359327,PM10,39,194,72
India,Rajasthan,Sawai Madhopur,"Sahu Nagar, Sawai Madhopur - RSPCB",15-09-2025 07:00:00,26.031443,76.359327,NO2,3,198,34
India,Rajasthan,Sikar,"Radhakishan Pura, Sikar - RSPCB",15-09-2025 07:00:00,27.608912,75.153302,NH3,4,6,4
India,Rajasthan,Sirohi,"Vedhaynath Colony, Sirohi - RSPCB",15-09-2025 07:00:00,24.885261,72.857549,NH3,2,4,3
India,Rajasthan,Sri Ganganagar,"Old City, Sri Ganganagar - RSPCB",15-09-2025 07:00:00,29.931624,73.864511,PM2.5,20,183,48
India,Rajasthan,Sri Ganganagar,"Old City, Sri Ganganagar - RSPCB",15-09-2025 07:00:00,29.931624,73.864511,CO,35,67,48
India,Rajasthan,Kota,"Shrinath Puram, Kota - RSPCB",15-09-2025 07:00:00,25.14389,75.821256,PM2.5,38,152,67
India,Rajasthan,Nagaur,"Karni Colony, Nagaur - RSPCB",15-09-2025 07:00:00,27.213494,73.734444,PM2.5,12,52,27
India,Rajasthan,Nagaur,"Karni Colony, Nagaur - RSPCB",15-09-2025 07:00:00,27.213494,73.734444,NH3,2,6,4
India,Rajasthan,Nagaur,"Karni Colony, Nagaur - RSPCB",15-09-2025 07:00:00,27.213494,73.734444,OZONE,18,56,29
India,Rajasthan,Pali,"Indira Colony Vistar, Pali - RSPCB",15-09-2025 07:00:00,25.771061, 73.340227,SO2,8,11,9
India,Rajasthan,Pratapgarh,"Pragati Nagar, Pratapgarh - RSPCB",15-09-2025 07:00:00,24.041198,74.780702,OZONE,6,85,29
India,Rajasthan,Rajsamand,"Dhoinda, Rajsamand - RSPCB",15-09-2025 07:00:00,25.036360,73.883502,PM10,27,70,39
India,Rajasthan,Tonk,"Shastri Nagar, Tonk - RSPCB",15-09-2025 07:00:00,26.159933,75.780517,NO2,2,23,8
India,Sikkim,Gangtok,"Zero Point GICI, Gangtok - SSPCB",15-09-2025 07:00:00,27.338530,88.614099,NH3,1,1,1
India,Sikkim,Gangtok,"Zero Point GICI, Gangtok - SSPCB",15-09-2025 07:00:00,27.338530,88.614099,OZONE,21,39,25
India,TamilNadu,Ariyalur,"Keelapalur, Ariyalur - TNPCB",15-09-2025 07:00:00,11.06825,79.07033,NO2,9,9,9
India,TamilNadu,Ariyalur,"Keelapalur, Ariyalur - TNPCB",15-09-2025 07:00:00,11.06825,79.07033,SO2,9,22,13
India,TamilNadu,Chengalpattu,"Crescent University, Chengalpattu - TNPCB",15-09-2025 07:00:00,12.8777316,80.0834807,PM10,37,66,51
India,TamilNadu,Chengalpattu,"Crescent University, Chengalpattu - TNPCB",15-09-2025 07:00:00,12.8777316,80.0834807,NH3,2,5,3
India,TamilNadu,Chennai,"Alandur Bus Depot, Chennai - CPCB",15-09-2025 07:00:00,12.9099161,80.1076538,NO2,19,33,22
India,TamilNadu,Chennai,"Alandur Bus Depot, Chennai - CPCB",15-09-2025 07:00:00,12.9099161,80.1076538,OZONE,8,27,20
India,TamilNadu,Chennai,"Arumbakkam, Chennai - TNPCB",15-09-2025 07:00:00,13.0664,80.2112 ,SO2,1,2,2
India,TamilNadu,Chennai,"Kodungaiyur, Chennai - TNPCB",15-09-2025 07:00:00,13.1278,80.2642,NO2,5,10,8
India,TamilNadu,Chennai,"Manali Village, Chennai - TNPCB",15-09-2025 07:00:00,13.1662,80.2584,OZONE,32,61,50
India,TamilNadu,Chennai,"Manali, Chennai - CPCB",15-09-2025 07:00:00,13.164544,80.26285,SO2,NA,NA,NA
India,TamilNadu,Chennai,"Perungudi, Chennai - TNPCB",15-09-2025 07:00:00,12.9533,80.2357,PM2.5,18,74,53
India,TamilNadu,Cuddalore,"Semmandalam, Cuddalore - TNPCB",15-09-2025 07:00:00,11.7637683,79.7499835,PM2.5,NA,NA,NA
India,TamilNadu,Cuddalore,"Semmandalam, Cuddalore - TNPCB",15-09-2025 07:00:00,11.7637683,79.7499835,PM10,NA,NA,NA
India,TamilNadu,Dindigul,"Mendonsa Colony, Dindigul - TNPCB",15-09-2025 07:00:00,10.358535,77.984321,PM2.5,5,40,29
India,TamilNadu,Dindigul,"Mendonsa Colony, Dindigul - TNPCB",15-09-2025 07:00:00,10.358535,77.984321,OZONE,5,39,21
India,TamilNadu,Hosur,"SIPCOT Phase-1, Hosur - TNPCB",15-09-2025 07:00:00,12.746998,77.813811,CO,16,34,24
India,TamilNadu,Hosur,"SIPCOT Phase-1, Hosur - TNPCB",15-09-2025 07:00:00,12.746998,77.813811,OZONE,9,11,10
India,TamilNadu,Kanchipuram,"Kilambi, Kanchipuram - TNPCB",15-09-2025 07:00:00,12.864618,79.659968,NH3,4,4,4
India,TamilNadu,Kanchipuram,"Kilambi, Kanchipuram - TNPCB",15-09-2025 07:00:00,12.864618,79.659968,CO,19,22,20
India,TamilNadu,Karur,"Kamadenu Nagar, Karur - TNPCB",15-09-2025 07:00:00,10.967820,78.080882,NO2,5,6,6
India,TamilNadu,Karur,"Kamadenu Nagar, Karur - TNPCB",15-09-2025 07:00:00,10.967820,78.080882,NH3,3,3,3
India,TamilNadu,Nagapattinam,"Velippalayam, Nagapattinam - TNPCB",15-09-2025 07:00:00,10.798548,79.838212,PM10,24,49,36
India,TamilNadu,Ooty,"Bombay Castel, Ooty - TNPCB",15-09-2025 07:00:00,11.4068288,76.7138973,PM10,NA,NA,NA
India,TamilNadu,Ooty,"Bombay Castel, Ooty - TNPCB",15-09-2025 07:00:00,11.4068288,76.7138973,OZONE,5,5,5
India,Rajasthan,Jalore,"Mudtra Sili, Jalore - RSPCB",15-09-2025 07:00:00,25.344694,72.626208,NO2,1,25,10
India,Rajasthan,Jhalawar,"Rajlaxmi Nagar, Jhalawar - RSPCB",15-09-2025 07:00:00,24.588397,76.172782,PM10,43,84,60
India,Rajasthan,Jhunjhunu,"Indra Nagar, Jhunjhunu - RSPCB",15-09-2025 07:00:00,28.108988,75.386577,CO,12,34,20
India,Rajasthan,Jodhpur,"Collectorate, Jodhpur - RSPCB",15-09-2025 07:00:00,26.268249,73.0193853,CO,5,101,12
India,Rajasthan,Jodhpur,"Digari Kalan, Jodhpur - RSPCB",15-09-2025 07:00:00,26.295810,73.082283,PM10,NA,NA,NA
India,Rajasthan,Jodhpur,"Jhalamand, Jodhpur - RSPCB",15-09-2025 07:00:00,26.215415,73.070156,PM2.5,13,75,33
India,Rajasthan,Jodhpur,"Mandor, Jodhpur - RSPCB",15-09-2025 07:00:00,26.358805,73.047444,NO2,8,24,11
India,Rajasthan,Jodhpur,"Samrat Ashok Udhyan, Jodhpur - RSPCB",15-09-2025 07:00:00,26.253384,72.976571,SO2,1,8,2
India,Rajasthan,Karauli,"Satyawati Vihar, Karauli - RSPCB",15-09-2025 07:00:00,26.506177,77.025989,NH3,7,9,8
India,Rajasthan,Kota,"Dhanmandi, Kota - RSPCB",15-09-2025 07:00:00,25.164090,75.858137,OZONE,8,66,20
India,TamilNadu,Palkalaiperur,"Bharathidasan University, Palkalaiperur - TNPCB",15-09-2025 07:00:00,10.681158,78.741746,OZONE,12,13,13
India,TamilNadu,Ramanathapuram,"Chalai Bazaar, Ramanathapuram - TNPCB",15-09-2025 07:00:00,9.36399,78.831977,PM2.5,23,52,35
India,TamilNadu,Ramanathapuram,"Chalai Bazaar, Ramanathapuram - TNPCB",15-09-2025 07:00:00,9.36399,78.831977,NH3,2,2,2
India,TamilNadu,Ramanathapuram,"Chalai Bazaar, Ramanathapuram - TNPCB",15-09-2025 07:00:00,9.36399,78.831977,CO,22,28,24
India,TamilNadu,Ramanathapuram,"Chalai Bazaar, Ramanathapuram - TNPCB",15-09-2025 07:00:00,9.36399,78.831977,OZONE,4,5,4
India,TamilNadu,Salem,"Sona College of Technology, Salem - TNPCB",15-09-2025 07:00:00,11.679111,78.125052,SO2,83,85,84
India,TamilNadu,Salem,"Sona College of Technology, Salem - TNPCB",15-09-2025 07:00:00,11.679111,78.125052,OZONE,20,20,20
India,TamilNadu,Thanjavur,"Parisutham Nagar, Thanjavur - TNPCB",15-09-2025 07:00:00,10.7654824,79.1389968,NO2,3,4,3
India,TamilNadu,Thanjavur,"Parisutham Nagar, Thanjavur - TNPCB",15-09-2025 07:00:00,10.7654824,79.1389968,NH3,1,1,1
India,Uttar_Pradesh,Gorakhpur,"Madan Mohan Malaviya University of Technology, Gorakhpur - UPPCB",15-09-2025 07:00:00,26.730136,83.433859,CO,4,6,5
India,Uttar_Pradesh,Greater Noida,"Knowledge Park - III, Greater Noida - UPPCB",15-09-2025 07:00:00,28.47272,77.482000,PM2.5,NA,NA,NA
India,Uttar_Pradesh,Greater Noida,"Knowledge Park - III, Greater Noida - UPPCB",15-09-2025 07:00:00,28.47272,77.482000,SO2,NA,NA,NA
India,Uttar_Pradesh,Hapur,"Anand Vihar, Hapur - UPPCB",15-09-2025 07:00:00,28.725645,77.749675,NO2,20,98,52
India,Uttar_Pradesh,Hapur,"Anand Vihar, Hapur - UPPCB",15-09-2025 07:00:00,28.725645,77.749675,SO2,19,37,24
India,Uttar_Pradesh,Hapur,"Anand Vihar, Hapur - UPPCB",15-09-2025 07:00:00,28.725645,77.749675,CO,36,79,61
India,Uttar_Pradesh,Hapur,"Anand Vihar, Hapur - UPPCB",15-09-2025 07:00:00,28.725645,77.749675,OZONE,17,30,18
India,Uttar_Pradesh,Jhansi,"Shivaji Nagar, Jhansi - UPPCB",15-09-2025 07:00:00,25.4547,78.6039,PM2.5,51,164,84
India,Telangana,Hyderabad,"IITH Kandi, Hyderabad - TSPCB",15-09-2025 07:00:00,17.585705,78.126199,SO2,7,9,8
India,Telangana,Hyderabad,"Kokapet, Hyderabad - TSPCB",15-09-2025 07:00:00,17.393559,78.339194,NO2,13,14,14
India,Telangana,Hyderabad,"Kokapet, Hyderabad - TSPCB",15-09-2025 07:00:00,17.393559,78.339194,SO2,8,11,10
India,Telangana,Hyderabad,"Kokapet, Hyderabad - TSPCB",15-09-2025 07:00:00,17.393559,78.339194,OZONE,21,31,22
India,Telangana,Hyderabad,"New Malakpet, Hyderabad - TSPCB",15-09-2025 07:00:00,17.37206,78.50864,SO2,15,17,16
India,Telangana,Hyderabad,"New Malakpet, Hyderabad - TSPCB",15-09-2025 07:00:00,17.37206,78.50864,CO,22,29,24
India,Telangana,Hyderabad,"Sanathnagar, Hyderabad - TSPCB",15-09-2025 07:00:00,17.4559458,78.4332152,NO2,25,31,28
India,Telangana,Hyderabad,"Sanathnagar, Hyderabad - TSPCB",15-09-2025 07:00:00,17.4559458,78.4332152,SO2,1,5,3
India,Telangana,Hyderabad,"Somajiguda, Hyderabad - TSPCB",15-09-2025 07:00:00,17.417094,78.457437,CO,8,34,16
India,Uttar_Pradesh,Agra,"Sanjay Palace, Agra - UPPCB",15-09-2025 07:00:00,27.19865833,78.00598056,CO,32,42,39
India,Uttar_Pradesh,Agra,"Sector-3B Avas Vikas Colony, Agra - UPPCB",15-09-2025 07:00:00,27.19412,77.96237,NO2,19,24,22
India,Uttar_Pradesh,Agra,"Sector-3B Avas Vikas Colony, Agra - UPPCB",15-09-2025 07:00:00,27.19412,77.96237,NH3,2,3,3
India,Uttar_Pradesh,Agra,"Shahjahan Garden, Agra - UPPCB",15-09-2025 07:00:00,27.169338,78.03582,PM2.5,26,77,55
India,Uttar_Pradesh,Baghpat,"Sardar Patel Inter College, Baghpat - UPPCB",15-09-2025 07:00:00,28.964949,77.278761,PM10,NA,NA,NA
India,Uttar_Pradesh,Bareilly,"Civil Lines, Bareilly - UPPCB",15-09-2025 07:00:00,28.359581,79.414455,PM2.5,3,17,8
India,Telangana,Hyderabad,"Zoo Park, Hyderabad - TSPCB",15-09-2025 07:00:00,17.349694,78.451437,PM2.5,53,165,82
India,Telangana,Hyderabad,"Zoo Park, Hyderabad - TSPCB",15-09-2025 07:00:00,17.349694,78.451437,NO2,13,22,15
India,Telangana,Hyderabad,"Zoo Park, Hyderabad - TSPCB",15-09-2025 07:00:00,17.349694,78.451437,CO,9,24,18
India,Uttar_Pradesh,Agra,"Manoharpur, Agra - UPPCB",15-09-2025 07:00:00,27.23711,78.01936,NH3,1,1,1
India,Uttar_Pradesh,Agra,"Manoharpur, Agra - UPPCB",15-09-2025 07:00:00,27.23711,78.01936,SO2,3,21,13
India,Uttar_Pradesh,Agra,"Rohta, Agra - UPPCB",15-09-2025 07:00:00,27.106972,78.000111,CO,23,29,26
India,Uttar_Pradesh,Agra,"Sanjay Palace, Agra - UPPCB",15-09-2025 07:00:00,27.19865833,78.00598056,PM2.5,20,75,43
India,Uttar_Pradesh,Bareilly,"Civil Lines, Bareilly - UPPCB",15-09-2025 07:00:00,28.359581,79.414455,NH3,2,3,2
India,Uttar_Pradesh,Bareilly,"Rajendra Nagar, Bareilly - UPPCB",15-09-2025 07:00:00,28.38910936,79.42963708,PM2.5,47,89,64
India,Uttar_Pradesh,Bareilly,"Rajendra Nagar, Bareilly - UPPCB",15-09-2025 07:00:00,28.38910936,79.42963708,CO,51,100,55
India,Uttar_Pradesh,Bulandshahr,"Yamunapuram, Bulandshahr - UPPCB",15-09-2025 07:00:00,28.406963,77.849831,CO,20,47,31
India,Uttar_Pradesh,Firozabad,"Nagla Bhau, Firozabad - UPPCB",15-09-2025 07:00:00,27.168897,78.376960,PM2.5,9,37,19
India,Uttar_Pradesh,Firozabad,"Nagla Bhau, Firozabad - UPPCB",15-09-2025 07:00:00,27.168897,78.376960,NO2,17,17,17
India,TamilNadu,Virudhunagar,"Collectorate Office, Virudhunagar - TNPCB",15-09-2025 07:00:00,9.559382,77.948828,NO2,19,19,19
India,TamilNadu,Virudhunagar,"Collectorate Office, Virudhunagar - TNPCB",15-09-2025 07:00:00,9.559382,77.948828,NH3,6,7,6
India,Telangana,Hyderabad,"Bollaram Industrial Area, Hyderabad - TSPCB",15-09-2025 07:00:00,17.540891,78.358528,PM10,14,62,35
India,Telangana,Hyderabad,"Bollaram Industrial Area, Hyderabad - TSPCB",15-09-2025 07:00:00,17.540891,78.358528,SO2,4,7,6
India,Telangana,Hyderabad,"ECIL Kapra, Hyderabad - TSPCB",15-09-2025 07:00:00,17.470431,78.566959,PM2.5,51,58,54
India,Telangana,Hyderabad,"ECIL Kapra, Hyderabad - TSPCB",15-09-2025 07:00:00,17.470431,78.566959,CO,13,26,18
India,Uttar_Pradesh,Ghaziabad,"Indirapuram, Ghaziabad - UPPCB",15-09-2025 07:00:00,28.646233,77.358075,CO,18,57,40
India,Uttar_Pradesh,Ghaziabad,"Sanjay Nagar, Ghaziabad - UPPCB",15-09-2025 07:00:00,28.685382,77.453839,NH3,3,6,4
India,Uttar_Pradesh,Ghaziabad,"Vasundhara, Ghaziabad - UPPCB",15-09-2025 07:00:00,28.6603346,77.3572563,NO2,20,73,47
India,Uttar_Pradesh,Ghaziabad,"Vasundhara, Ghaziabad - UPPCB",15-09-2025 07:00:00,28.6603346,77.3572563,CO,34,72,64
India,Uttar_Pradesh,Gorakhpur,"Madan Mohan Malaviya University of Technology, Gorakhpur - UPPCB",15-09-2025 07:00:00,26.730136,83.433859,NO2,11,12,11
India,TamilNadu,Tiruchirappalli,"St Joseph College, Tiruchirappalli - TNPCB",15-09-2025 07:00:00,10.830158,78.691849,PM2.5,29,64,47
India,TamilNadu,Tiruchirappalli,"St Joseph College, Tiruchirappalli - TNPCB",15-09-2025 07:00:00,10.830158,78.691849,NO2,4,21,8
India,TamilNadu,Tirupur,"Kumaran College, Tirupur - TNPCB",15-09-2025 07:00:00,11.0973603,77.3228673,PM2.5,5,14,7
India,TamilNadu,Tirupur,"Kumaran College, Tirupur - TNPCB",15-09-2025 07:00:00,11.0973603,77.3228673,CO,13,16,14
India,Uttar_Pradesh,Noida,"Sector - 62, Noida - IMD",15-09-2025 07:00:00,28.6245479,77.3577104,OZONE,8,64,13
India,Uttar_Pradesh,Noida,"Sector-1, Noida - UPPCB",15-09-2025 07:00:00,28.5898,77.3101,CO,22,86,56
India,Uttar_Pradesh,Noida,"Sector-116, Noida - UPPCB",15-09-2025 07:00:00,28.569230,77.393848,CO,6,102,47
India,Uttar_Pradesh,Prayagraj,"Jhunsi, Prayagraj - UPPCB",15-09-2025 07:00:00,25.425602,81.917152,PM10,NA,NA,NA
India,Uttar_Pradesh,Prayagraj,"Motilal Nehru NIT, Prayagraj - UPPCB",15-09-2025 07:00:00,25.494,81.863,SO2,11,105,38
India,Uttar_Pradesh,Prayagraj,"Motilal Nehru NIT, Prayagraj - UPPCB",15-09-2025 07:00:00,25.494,81.863,CO,4,12,10
India,Uttar_Pradesh,Prayagraj,"Nagar Nigam, Prayagraj - UPPCB",15-09-2025 07:00:00,25.44919916 ,81.82735986 ,PM10,46,107,69
India,Uttar_Pradesh,Meerut,"Pallavpuram Phase 2, Meerut - UPPCB",15-09-2025 07:00:00,29.063510,77.709723,NH3,4,10,7
India,Uttar_Pradesh,Moradabad,"Buddhi Vihar, Moradabad - UPPCB",15-09-2025 07:00:00,28.83526,78.74460,PM10,64,119,90
India,Uttar_Pradesh,Moradabad,"Buddhi Vihar, Moradabad - UPPCB",15-09-2025 07:00:00,28.83526,78.74460,SO2,27,28,28
India,Uttar_Pradesh,Moradabad,"Eco Herbal Park, Moradabad - UPPCB",15-09-2025 07:00:00,28.840739,78.697531,PM10,46,104,73
India,Uttar_Pradesh,Moradabad,"Eco Herbal Park, Moradabad - UPPCB",15-09-2025 07:00:00,28.840739,78.697531,CO,30,58,36
India,Uttar_Pradesh,Moradabad,"Employment Office, Moradabad - UPPCB",15-09-2025 07:00:00,28.88528,78.73880,PM10,71,117,95
India,Uttar_Pradesh,Moradabad,"Kashiram Nagar, Moradabad - UPPCB",15-09-2025 07:00:00,28.849399,78.742362,SO2,59,91,76
India,Uttar_Pradesh,Moradabad,"Transport Nagar, Moradabad - UPPCB",15-09-2025 07:00:00,28.802625,78.753728,PM2.5,NA,NA,NA
India,Uttar_Pradesh,Moradabad,"Transport Nagar, Moradabad - UPPCB",15-09-2025 07:00:00,28.802625,78.753728,NO2,23,28,27
India,Uttar_Pradesh,Muzaffarnagar,"New Mandi, Muzaffarnagar - UPPCB",15-09-2025 07:00:00,29.4723508,77.7194031,OZONE,5,62,15
India,Uttar_Pradesh,Noida,"Sector - 125, Noida - UPPCB",15-09-2025 07:00:00,28.5447608,77.3231257,SO2,14,28,19
India,Uttar_Pradesh,Lucknow,"Lalbagh, Lucknow - CPCB",15-09-2025 07:00:00,26.8458805,80.9365541,SO2,1,43,8
India,Uttar_Pradesh,Lucknow,"Lalbagh, Lucknow - CPCB",15-09-2025 07:00:00,26.8458805,80.9365541,CO,10,121,39
India,Uttar_Pradesh,Lucknow,"Lalbagh, Lucknow - CPCB",15-09-2025 07:00:00,26.8458805,80.9365541,OZONE,13,58,17
India,Uttar_Pradesh,Meerut,"Jai Bhim Nagar, Meerut - UPPCB",15-09-2025 07:00:00,28.9535882,77.7622941,PM10,41,180,110
India,Uttar_Pradesh,Meerut,"Pallavpuram Phase 2, Meerut - UPPCB",15-09-2025 07:00:00,29.063510,77.709723,PM2.5,15,94,56
India,Uttar_Pradesh,Varanasi,"IESD Banaras Hindu University, Varanasi - UPPCB",15-09-2025 07:00:00,25.262326,82.995408,OZONE,11,16,15
India,Uttar_Pradesh,Varanasi,"Maldahiya, Varanasi - UPPCB",15-09-2025 07:00:00,25.32393,82.99687,PM2.5,10,34,18
India,Uttar_Pradesh,Varanasi,"Maldahiya, Varanasi - UPPCB",15-09-2025 07:00:00,25.32393,82.99687,SO2,29,29,29
India,Uttar_Pradesh,Varanasi,"Maldahiya, Varanasi - UPPCB",15-09-2025 07:00:00,25.32393,82.99687,CO,10,24,15
India,Uttarakhand,Dehradun,"Doon University, Dehradun - UKPCB",15-09-2025 07:00:00,30.269444,78.044167,NO2,1,1,1
India,Uttar_Pradesh,Khurja,"Kalindi Kunj, Khurja - UPPCB",15-09-2025 07:00:00,28.2348927,77.8683002,NH3,1,1,1
India,Uttar_Pradesh,Khurja,"Kalindi Kunj, Khurja - UPPCB",15-09-2025 07:00:00,28.2348927,77.8683002,OZONE,4,5,4
India,Uttar_Pradesh,Lucknow,"B R Ambedkar University, Lucknow - UPPCB",15-09-2025 07:00:00,26.766433,80.927299,OZONE,26,31,28
India,Uttar_Pradesh,Lucknow,"Gomti Nagar, Lucknow - UPPCB",15-09-2025 07:00:00,26.868120,81.005119,PM2.5,25,80,52
India,Uttar_Pradesh,Lucknow,"Gomti Nagar, Lucknow - UPPCB",15-09-2025 07:00:00,26.868120,81.005119,OZONE,40,49,40
India,Uttar_Pradesh,Kanpur,"NSI Kalyanpur, Kanpur - UPPCB",15-09-2025 07:00:00,26.509954,80.249612,PM10,43,117,78
India,Uttar_Pradesh,Kanpur,"NSI Kalyanpur, Kanpur - UPPCB",15-09-2025 07:00:00,26.509954,80.249612,OZONE,16,18,17
India,Uttar_Pradesh,Kanpur,"Nehru Nagar, Kanpur - UPPCB",15-09-2025 07:00:00,26.4703136,80.3229863,CO,45,70,68
India,Uttar_Pradesh,Khurja,"Kalindi Kunj, Khurja - UPPCB",15-09-2025 07:00:00,28.2348927,77.8683002,PM10,40,109,59
India,Uttarakhand,Rishikesh,"Shivaji Nagar, Rishikesh - UKPCB",15-09-2025 07:00:00,30.075911,78.2859547,NO2,14,17,16
India,Uttarakhand,Rishikesh,"Shivaji Nagar, Rishikesh - UKPCB",15-09-2025 07:00:00,30.075911,78.2859547,CO,17,31,24
India,West_Bengal,Asansol,"Mahabir Colliery, Asansol - WBPCB",15-09-2025 07:00:00,23.6181830,87.1057180,PM2.5,6,62,27
India,Uttar_Pradesh,Lucknow,"Kendriya Vidyalaya, Lucknow - CPCB",15-09-2025 07:00:00,26.906111,80.948222,NH3,12,18,15
India,Uttar_Pradesh,Lucknow,"Kendriya Vidyalaya, Lucknow - CPCB",15-09-2025 07:00:00,26.906111,80.948222,SO2,8,16,12
India,West_Bengal,Asansol,"Mahabir Colliery, Asansol - WBPCB",15-09-2025 07:00:00,23.6181830,87.1057180,OZONE,11,32,15
India,West_Bengal,Barrackpore,"SVSPA Campus, Barrackpore - WBPCB",15-09-2025 07:00:00,22.7605581,88.3617589,PM10,19,54,32
India,West_Bengal,Durgapur,"PCBL Residential Complex, Durgapur - WBPCB",15-09-2025 07:00:00,23.5087640,87.3544400,PM10,32,88,49
India,West_Bengal,Durgapur,"PCBL Residential Complex, Durgapur - WBPCB",15-09-2025 07:00:00,23.5087640,87.3544400,NO2,6,12,9
India,West_Bengal,Durgapur,"Womens College_City Center, Durgapur - WBPCB (Formerly known as Sidhu Kanhu Indoor Stadium)",15-09-2025 07:00:00,23.549395,87.300496,OZONE,7,33,10
India,West_Bengal,Haldia,"Priyambada Housing Estate, Haldia - WBPCB",15-09-2025 07:00:00,22.06047,88.109737,SO2,11,18,14
India,West_Bengal,Howrah,"Belur Math, Howrah - WBPCB",15-09-2025 07:00:00,22.629801,88.352017,NH3,1,4,3
India,West_Bengal,Howrah,"Botanical Garden, Howrah - WBPCB",15-09-2025 07:00:00,22.554954,88.292568,PM10,21,70,32
India,West_Bengal,Howrah,"Botanical Garden, Howrah - WBPCB",15-09-2025 07:00:00,22.554954,88.292568,NO2,12,103,59
India,West_Bengal,Howrah,"Botanical Garden, Howrah - WBPCB",15-09-2025 07:00:00,22.554954,88.292568,NH3,1,3,2
India,West_Bengal,Howrah,"Botanical Garden, Howrah - WBPCB",15-09-2025 07:00:00,22.554954,88.292568,OZONE,20,30,21
India,West_Bengal,Howrah,"Dasnagar, Howrah - WBPCB",15-09-2025 07:00:00,22.6025571,88.3105664,PM2.5,4,45,22
India,West_Bengal,Howrah,"Dasnagar, Howrah - WBPCB",15-09-2025 07:00:00,22.6025571,88.3105664,NH3,NA,NA,NA
India,West_Bengal,Howrah,"Ghusuri, Howrah - WBPCB",15-09-2025 07:00:00,22.611968,88.347422,SO2,9,13,11
India,West_Bengal,Howrah,"Ghusuri, Howrah - WBPCB",15-09-2025 07:00:00,22.611968,88.347422,CO,9,38,10
India,West_Bengal,Howrah,"Padmapukur, Howrah - WBPCB",15-09-2025 07:00:00,22.5687319,88.2797276,NH3,3,11,7
India,West_Bengal,Kolkata,"Ballygunge, Kolkata - WBPCB",15-09-2025 07:00:00,22.5367507,88.3638022,PM2.5,15,23,19
India,West_Bengal,Kolkata,"Ballygunge, Kolkata - WBPCB",15-09-2025 07:00:00,22.5367507,88.3638022,NO2,27,64,47
India,West_Bengal,Kolkata,"Ballygunge, Kolkata - WBPCB",15-09-2025 07:00:00,22.5367507,88.3638022,OZONE,18,28,22
India,West_Bengal,Kolkata,"Fort William, Kolkata - WBPCB",15-09-2025 07:00:00,22.556640,88.342674,PM2.5,18,26,23
India,West_Bengal,Kolkata,"Jadavpur, Kolkata - WBPCB",15-09-2025 07:00:00,22.49929,88.36917,NO2,39,53,44
India,West_Bengal,Kolkata,"Jadavpur, Kolkata - WBPCB",15-09-2025 07:00:00,22.49929,88.36917,SO2,5,7,6
India,West_Bengal,Kolkata,"Rabindra Bharati University, Kolkata - WBPCB",15-09-2025 07:00:00,22.627847,88.380669,PM10,13,39,24
India,West_Bengal,Kolkata,"Rabindra Bharati University, Kolkata - WBPCB",15-09-2025 07:00:00,22.627847,88.380669,OZONE,11,50,27
India,West_Bengal,Kolkata,"Rabindra Sarobar, Kolkata - WBPCB",15-09-2025 07:00:00,22.51106,88.35142,PM2.5,21,30,24
India,West_Bengal,Kolkata,"Rabindra Sarobar, Kolkata - WBPCB",15-09-2025 07:00:00,22.51106,88.35142,NH3,7,11,8
India,West_Bengal,Kolkata,"Rabindra Sarobar, Kolkata - WBPCB",15-09-2025 07:00:00,22.51106,88.35142,SO2,4,7,5
India,West_Bengal,Kolkata,"Rabindra Sarobar, Kolkata - WBPCB",15-09-2025 07:00:00,22.51106,88.35142,CO,12,24,15
India,West_Bengal,Kolkata,"Rabindra Sarobar, Kolkata - WBPCB",15-09-2025 07:00:00,22.51106,88.35142,OZONE,5,6,5
India,West_Bengal,Siliguri,"Ward-32 Bapupara, Siliguri - WBPCB",15-09-2025 07:00:00,26.6879226,88.4152495,PM2.5,21,36,28
India,Bihar,Motihari,"Gandak Colony, Motihari - BSPCB",15-09-2025 07:00:00,26.63086,84.90051,SO2,2,4,2
India,Bihar,Munger,"Town Hall, Munger - BSPCB",15-09-2025 07:00:00,25.376776,86.471523,SO2,18,21,19
India,Bihar,Muzaffarpur,"Buddha Colony, Muzaffarpur - BSPCB",15-09-2025 07:00:00,26.11442,85.39813,PM2.5,13,44,23
India,Bihar,Muzaffarpur,"Buddha Colony, Muzaffarpur - BSPCB",15-09-2025 07:00:00,26.11442,85.39813,OZONE,33,82,65
India,Bihar,Muzaffarpur,"MIT-Daudpur Kothi, Muzaffarpur - BSPCB",15-09-2025 07:00:00,26.1403345,85.3650192,CO,30,76,30
India,Bihar,Muzaffarpur,"Muzaffarpur Collectorate, Muzaffarpur - BSPCB",15-09-2025 07:00:00,26.1209,85.3647,OZONE,13,33,13
India,Bihar,Patna,"DRM Office Danapur, Patna - BSPCB",15-09-2025 07:00:00,25.586562,85.043586,NH3,2,3,3
India,Bihar,Aurangabad,"Gurdeo Nagar, Aurangabad - BSPCB",15-09-2025 07:00:00,24.75746,84.366208,PM10,19,447,105
India,Bihar,Aurangabad,"Gurdeo Nagar, Aurangabad - BSPCB",15-09-2025 07:00:00,24.75746,84.366208,NH3,1,2,1
India,Bihar,Aurangabad,"Gurdeo Nagar, Aurangabad - BSPCB",15-09-2025 07:00:00,24.75746,84.366208,CO,13,38,31
India,Bihar,Bettiah,"Kamalnath Nagar, Bettiah - BSPCB",15-09-2025 07:00:00,26.80365,84.51954,NO2,7,12,9
India,Bihar,Bettiah,"Kamalnath Nagar, Bettiah - BSPCB",15-09-2025 07:00:00,26.80365,84.51954,CO,38,68,48
India,Bihar,Bettiah,"Kamalnath Nagar, Bettiah - BSPCB",15-09-2025 07:00:00,26.80365,84.51954,OZONE,19,27,25
India,Bihar,Bhagalpur,"DM Office_Kachari Chowk, Bhagalpur - BSPCB",15-09-2025 07:00:00,25.251013,86.989001,OZONE,10,36,15
India,Bihar,Bhagalpur,"Mayaganj, Bhagalpur - BSPCB",15-09-2025 07:00:00,25.265194,87.012947,PM2.5,12,82,44
India,Bihar,Gaya,"SFTI Kusdihra, Gaya - BSPCB",15-09-2025 07:00:00,24.762518,84.982348,PM10,16,45,28
India,Bihar,Gaya,"SFTI Kusdihra, Gaya - BSPCB",15-09-2025 07:00:00,24.762518,84.982348,NH3,3,4,3
India,Bihar,Hajipur,"Industrial Area, Hajipur - BSPCB",15-09-2025 07:00:00,25.697189,85.245900,CO,32,50,36
India,Bihar,Katihar,"Mirchaibari, Katihar - BSPCB",15-09-2025 07:00:00,25.560083,87.553265,NO2,12,16,14
India,Bihar,Katihar,"Mirchaibari, Katihar - BSPCB",15-09-2025 07:00:00,25.560083,87.553265,SO2,18,25,21
India,Bihar,Motihari,"Gandak Colony, Motihari - BSPCB",15-09-2025 07:00:00,26.63086,84.90051,PM2.5,NA,NA,NA
India,Bihar,Motihari,"Gandak Colony, Motihari - BSPCB",15-09-2025 07:00:00,26.63086,84.90051,NO2,NA,NA,NA
India,Andhra_Pradesh,Anantapur,"Gulzarpet, Anantapur - APPCB",15-09-2025 07:00:00,14.675886,77.593027,CO,16,100,21
India,Andhra_Pradesh,Chittoor,"Gangineni Cheruvu, Chittoor - APPCB",15-09-2025 07:00:00,13.204880,79.097889,NO2,31,42,37
India,Andhra_Pradesh,Chittoor,"Gangineni Cheruvu, Chittoor - APPCB",15-09-2025 07:00:00,13.204880,79.097889,SO2,21,22,22
India,Andhra_Pradesh,Kadapa,"Yerramukkapalli, Kadapa - APPCB",15-09-2025 07:00:00,14.465052,78.824187,NO2,10,13,10
India,Andhra_Pradesh,Kadapa,"Yerramukkapalli, Kadapa - APPCB",15-09-2025 07:00:00,14.465052,78.824187,CO,30,50,33
India,Andhra_Pradesh,Tirumala,"Toll Gate, Tirumala - APPCB",15-09-2025 07:00:00,13.67,79.35,PM10,NA,NA,NA
India,Andhra_Pradesh,Tirumala,"Toll Gate, Tirumala - APPCB",15-09-2025 07:00:00,13.67,79.35,CO,NA,NA,NA
India,Arunachal_Pradesh,Naharlagun,"Naharlagun, Naharlagun - APSPCB",15-09-2025 07:00:00,27.103358,93.679645,CO,4,16,8
India,Assam,Byrnihat,"Central Academy for SFS, Byrnihat - PCBA",15-09-2025 07:00:00,26.071318,91.87488,CO,40,62,53
India,Assam,Guwahati,"IITG, Guwahati - PCBA",15-09-2025 07:00:00,26.2028636,91.70046436,SO2,21,25,23
India,Assam,Guwahati,"Pan Bazaar, Guwahati - PCBA",15-09-2025 07:00:00,26.187500,91.744194,PM10,2,25,13
India,Assam,Guwahati,"Pan Bazaar, Guwahati - PCBA",15-09-2025 07:00:00,26.187500,91.744194,SO2,32,54,41
India,Assam,Guwahati,"Pan Bazaar, Guwahati - PCBA",15-09-2025 07:00:00,26.187500,91.744194,OZONE,18,18,18
India,Andhra_Pradesh,Vijayawada,"HB Colony, Vijayawada - APPCB",15-09-2025 07:00:00,16.536107,80.594233,PM2.5,40,84,64
India,Andhra_Pradesh,Vijayawada,"HB Colony, Vijayawada - APPCB",15-09-2025 07:00:00,16.536107,80.594233,PM10,37,82,61
India,Andhra_Pradesh,Vijayawada,"HB Colony, Vijayawada - APPCB",15-09-2025 07:00:00,16.536107,80.594233,SO2,13,14,13
India,Andhra_Pradesh,Vijayawada,"Rajiv Nagar, Vijayawada - APPCB",15-09-2025 07:00:00,16.554731,80.649110,CO,17,30,22
India,Andhra_Pradesh,Visakhapatnam,"GVM Corporation, Visakhapatnam - APPCB",15-09-2025 07:00:00,17.72,83.3,NH3,3,15,5
India,Andhra_Pradesh,Visakhapatnam,"GVM Corporation, Visakhapatnam - APPCB",15-09-2025 07:00:00,17.72,83.3,CO,1,72,27
India,Assam,Nalbari,"Bata Chowk, Nalbari - PCBA",15-09-2025 07:00:00,26.446912,91.439057,NH3,1,3,2
India,Assam,Nalbari,"Bata Chowk, Nalbari - PCBA",15-09-2025 07:00:00,26.446912,91.439057,SO2,8,8,8
India,Assam,Sivasagar,"Girls College, Sivasagar - PCBA",15-09-2025 07:00:00,26.987634,94.636574,CO,12,18,16
India,Bihar,Araria,"Kharahiya Basti, Araria - BSPCB",15-09-2025 07:00:00,26.146529,87.454184,CO,16,42,24
India,Bihar,Bhagalpur,"Mayaganj, Bhagalpur - BSPCB",15-09-2025 07:00:00,25.265194,87.012947,NO2,8,10,10
India,Bihar,Bihar Sharif,"D M Colony, Bihar Sharif - BSPCB",15-09-2025 07:00:00,25.204762,85.514960,NH3,2,3,3
India,Bihar,Bihar Sharif,"D M Colony, Bihar Sharif - BSPCB",15-09-2025 07:00:00,25.204762,85.514960,SO2,NA,NA,NA
India,Bihar,Buxar,"Charitra Van, Buxar - BSPCB",15-09-2025 07:00:00,25.567520,83.966379,NO2,9,10,10
India,Bihar,Patna,"Govt. High School Shikarpur, Patna - BSPCB",15-09-2025 07:00:00,25.592539,85.227158,OZONE,9,12,10
India,Bihar,Patna,"Muradpur, Patna - BSPCB",15-09-2025 07:00:00,25.619651,85.147382,NO2,8,11,9
India,Bihar,Patna,"Muradpur, Patna - BSPCB",15-09-2025 07:00:00,25.619651,85.147382,NH3,4,5,5
India,Bihar,Patna,"Samanpura, Patna - BSPCB",15-09-2025 07:00:00,25.596727,85.085624,NH3,6,7,6
India,Andhra_Pradesh,Amaravati,"Secretariat, Amaravati - APPCB",15-09-2025 07:00:00,16.5150833,80.5181667,SO2,7,10,9
India,Bihar,Siwan,"Chitragupta Nagar, Siwan - BSPCB",15-09-2025 07:00:00,26.2271665,84.3570427,CO,72,106,79
India,Bihar,Siwan,"Chitragupta Nagar, Siwan - BSPCB",15-09-2025 07:00:00,26.2271665,84.3570427,OZONE,6,10,7
India,Chandigarh,Chandigarh,"Sector 22, Chandigarh - CPCC",15-09-2025 07:00:00,30.735567,76.775714,SO2,1,4,3
India,Chandigarh,Chandigarh,"Sector-25, Chandigarh - CPCC",15-09-2025 07:00:00,30.751462,76.762879,OZONE,7,81,17
India,Chandigarh,Chandigarh,"Sector-53, Chandigarh - CPCC",15-09-2025 07:00:00,30.719859,76.738637,CO,33,84,58
India,Chhattisgarh,Bhilai,"32Bungalows, Bhilai - CECB",15-09-2025 07:00:00,21.194815,81.314770,PM2.5,8,29,17
India,Chhattisgarh,Bhilai,"32Bungalows, Bhilai - CECB",15-09-2025 07:00:00,21.194815,81.314770,NH3,3,4,3
India,Chhattisgarh,Bhilai,"Civic Center, Bhilai - Bhilai Steel Plant",15-09-2025 07:00:00,21.185571,81.343175,PM2.5,13,58,30
India,Chhattisgarh,Bhilai,"Civic Center, Bhilai - Bhilai Steel Plant",15-09-2025 07:00:00,21.185571,81.343175,NO2,8,9,9
India,Bihar,Purnia,"Mariam Nagar, Purnia - BSPCB",15-09-2025 07:00:00,25.366336,87.117468,CO,4,7,6
India,Bihar,Purnia,"Mariam Nagar, Purnia - BSPCB",15-09-2025 07:00:00,25.366336,87.117468,OZONE,15,31,21
India,Bihar,Rajgir,"Dangi Tola, Rajgir - BSPCB",15-09-2025 07:00:00,25.03280,85.41948,NH3,6,8,6
India,Bihar,Saharsa,"Police Line, Saharsa - BSPCB",15-09-2025 07:00:00,25.892357,86.590325,NO2,NA,NA,NA
India,Bihar,Samastipur,"DM Office_Kasipur, Samastipur - BSPCB",15-09-2025 07:00:00,25.859655,85.77944,NH3,2,2,2
India,Bihar,Sasaram,"Dada Peer, Sasaram - BSPCB",15-09-2025 07:00:00,24.952822,84.002396,NH3,3,5,3
India,Bihar,Sasaram,"Dada Peer, Sasaram - BSPCB",15-09-2025 07:00:00,24.952822,84.002396,SO2,1,5,3
India,Bihar,Siwan,"Chitragupta Nagar, Siwan - BSPCB",15-09-2025 07:00:00,26.2271665,84.3570427,PM2.5,15,55,31
India,Bihar,Siwan,"Chitragupta Nagar, Siwan - BSPCB",15-09-2025 07:00:00,26.2271665,84.3570427,PM10,17,434,86
India,Delhi,Delhi,"Ashok Vihar, Delhi - DPCC",15-09-2025 07:00:00,28.695381,77.181665,SO2,8,20,14
India,Delhi,Delhi,"Ashok Vihar, Delhi - DPCC",15-09-2025 07:00:00,28.695381,77.181665,CO,32,70,57
India,Delhi,Delhi,"Ashok Vihar, Delhi - DPCC",15-09-2025 07:00:00,28.695381,77.181665,OZONE,5,45,10
India,Delhi,Delhi,"Aya Nagar, Delhi - IMD",15-09-2025 07:00:00,28.4706914,77.1099364,PM2.5,19,99,54
India,Delhi,Delhi,"Aya Nagar, Delhi - IMD",15-09-2025 07:00:00,28.4706914,77.1099364,CO,16,66,43
India,Delhi,Delhi,"Bawana, Delhi - DPCC",15-09-2025 07:00:00,28.776200,77.051074,NH3,3,6,4
India,Delhi,Delhi,"Bawana, Delhi - DPCC",15-09-2025 07:00:00,28.776200,77.051074,CO,87,106,99
India,Delhi,Delhi,"DTU, Delhi - CPCB",15-09-2025 07:00:00,28.7500499,77.1112615,PM10,59,127,92
India,Delhi,Delhi,"DTU, Delhi - CPCB",15-09-2025 07:00:00,28.7500499,77.1112615,SO2,26,40,31
India,Delhi,Delhi,"Dr. Karni Singh Shooting Range, Delhi - DPCC",15-09-2025 07:00:00,28.498571,77.264840,NO2,28,60,39
India,Delhi,Delhi,"Dr. Karni Singh Shooting Range, Delhi - DPCC",15-09-2025 07:00:00,28.498571,77.264840,NH3,3,7,5
India,Delhi,Delhi,"Dwarka-Sector 8, Delhi - DPCC ",15-09-2025 07:00:00,28.5710274,77.0719006,PM10,97,222,141
India,Delhi,Delhi,"Dwarka-Sector 8, Delhi - DPCC ",15-09-2025 07:00:00,28.5710274,77.0719006,SO2,1,4,2
India,Chhattisgarh,Kunjemura,"OP Jindal School, Kunjemura - CECB",15-09-2025 07:00:00,22.126650,83.483212,CO,24,40,28
India,Chhattisgarh,Raipur,"Krishak Nagar, Raipur - CECB",15-09-2025 07:00:00,21.237755,81.705301,SO2,5,8,7
India,Chhattisgarh,Raipur,"Siltara Phase-II, Raipur - CECB",15-09-2025 07:00:00,21.371751,81.664929,NO2,3,93,14
India,Chhattisgarh,Raipur,"Siltara Phase-II, Raipur - CECB",15-09-2025 07:00:00,21.371751,81.664929,OZONE,5,77,27
India,Delhi,Delhi,"Jahangirpuri, Delhi - DPCC",15-09-2025 07:00:00,28.732820,77.170633,CO,24,62,40
India,Delhi,Delhi,"Jawaharlal Nehru Stadium, Delhi - DPCC",15-09-2025 07:00:00,28.580280,77.233829,NO2,39,113,67
India,Delhi,Delhi,"Jawaharlal Nehru Stadium, Delhi - DPCC",15-09-2025 07:00:00,28.580280,77.233829,SO2,1,25,11
India,Delhi,Delhi,"Major Dhyan Chand National Stadium, Delhi - DPCC",15-09-2025 07:00:00,28.611281,77.237738,PM2.5,23,92,61
India,Chhattisgarh,Bhilai,"Hathkhoj, Bhilai - CECB",15-09-2025 07:00:00,21.224231,81.408350,OZONE,10,19,11
India,Chhattisgarh,Chhal,"Nawapara SECL Colony, Chhal - CECB",15-09-2025 07:00:00,22.118125,83.140608,PM10,NA,NA,NA
India,Chhattisgarh,Chhal,"Nawapara SECL Colony, Chhal - CECB",15-09-2025 07:00:00,22.118125,83.140608,CO,20,20,20
India,Chhattisgarh,Korba,"Rampur, Korba - CECB",15-09-2025 07:00:00,22.368195,82.746431,NO2,5,11,7
India,Delhi,Delhi,"IHBAS, Dilshad Garden, Delhi - CPCB",15-09-2025 07:00:00,28.6811736,77.3025234,SO2,16,31,22
India,Delhi,Delhi,"ITO, Delhi - CPCB",15-09-2025 07:00:00,28.628624,77.241060,NH3,4,5,4
India,Delhi,Delhi,"ITO, Delhi - CPCB",15-09-2025 07:00:00,28.628624,77.241060,CO,32,100,69
India,Delhi,Delhi,"ITO, Delhi - CPCB",15-09-2025 07:00:00,28.628624,77.241060,OZONE,16,20,16
India,Delhi,Delhi,"Mandir Marg, Delhi - DPCC",15-09-2025 07:00:00,28.636429,77.201067,PM10,41,137,85
India,Delhi,Delhi,"Mandir Marg, Delhi - DPCC",15-09-2025 07:00:00,28.636429,77.201067,NO2,1,6,2
India,Delhi,Delhi,"Narela, Delhi - DPCC",15-09-2025 07:00:00,28.822836,77.101981,NO2,6,42,20
India,Haryana,Gurugram,"NISE Gwal Pahari, Gurugram - IMD",15-09-2025 07:00:00,28.422681,77.148944,CO,52,101,62
India,Haryana,Gurugram,"NISE Gwal Pahari, Gurugram - IMD",15-09-2025 07:00:00,28.422681,77.148944,OZONE,12,34,12
India,Haryana,Panchgaon,"Amity University, Panchgaon - IITM",15-09-2025 07:00:00,28.3153,76.9143,PM2.5,29,214,53
India,Haryana,Panchgaon,"Amity University, Panchgaon - IITM",15-09-2025 07:00:00,28.3153,76.9143,OZONE,2,45,3
India,Himachal Pradesh,Baddi,"HIMUDA Complex Phase-1, Baddi - HPPCB",15-09-2025 07:00:00,30.943887,76.801991,NH3,6,8,7
India,Himachal Pradesh,Baddi,"HIMUDA Complex Phase-1, Baddi - HPPCB",15-09-2025 07:00:00,30.943887,76.801991,SO2,13,101,34
India,Jammu_and_Kashmir,Srinagar,"Rajbagh, Srinagar - JKSPCB",15-09-2025 07:00:00,34.066206,74.819820,PM2.5,NA,NA,NA
India,Jammu_and_Kashmir,Srinagar,"Rajbagh, Srinagar - JKSPCB",15-09-2025 07:00:00,34.066206,74.819820,SO2,NA,NA,NA
India,Jharkhand,Dhanbad,"Sardar Patel Nagar, Dhanbad - JSPCB",15-09-2025 07:00:00,23.80569,86.44268,PM10,8,82,47
India,Jharkhand,Dhanbad,"Sardar Patel Nagar, Dhanbad - JSPCB",15-09-2025 07:00:00,23.80569,86.44268,SO2,18,27,23
India,Karnataka,Bagalkot,"Vidayagiri, Bagalkot - KSPCB",15-09-2025 07:00:00,16.172806,75.659694,PM2.5,33,34,34
India,Karnataka,Bagalkot,"Vidayagiri, Bagalkot - KSPCB",15-09-2025 07:00:00,16.172806,75.659694,SO2,7,7,7
India,Gujarat,Gandhinagar,"IIPHG Lekawada, Gandhinagar - IITM",15-09-2025 07:00:00,23.243639,72.68994,CO,25,51,29
India,Gujarat,Gandhinagar,"Sector-10, Gandhinagar - GPCB",15-09-2025 07:00:00,23.221714,72.654328,PM10,19,59,38
India,Gujarat,Gandhinagar,"Sector-10, Gandhinagar - GPCB",15-09-2025 07:00:00,23.221714,72.654328,CO,2,30,15
India,Gujarat,Surat,"Science Center, Surat - SMC",15-09-2025 07:00:00,21.170046,72.795405,PM2.5,23,71,40
India,Gujarat,Surat,"Science Center, Surat - SMC",15-09-2025 07:00:00,21.170046,72.795405,PM10,18,103,51
India,Gujarat,Surat,"Science Center, Surat - SMC",15-09-2025 07:00:00,21.170046,72.795405,SO2,17,21,18
India,Gujarat,Surat,"Science Center, Surat - SMC",15-09-2025 07:00:00,21.170046,72.795405,CO,36,38,36
India,Gujarat,Vapi,"Phase-1 GIDC, Vapi - GPCB",15-09-2025 07:00:00,20.362421,72.918013,SO2,45,46,46
India,Gujarat,Vapi,"Phase-1 GIDC, Vapi - GPCB",15-09-2025 07:00:00,20.362421,72.918013,OZONE,2,2,2
India,Haryana,Gurugram,"NISE Gwal Pahari, Gurugram - IMD",15-09-2025 07:00:00,28.422681,77.148944,PM2.5,NA,NA,NA
India,Haryana,Gurugram,"NISE Gwal Pahari, Gurugram - IMD",15-09-2025 07:00:00,28.422681,77.148944,NO2,NA,NA,NA
India,Delhi,Delhi,"Sirifort, Delhi - CPCB",15-09-2025 07:00:00,28.5504249,77.2159377,CO,4,101,74
India,Delhi,Delhi,"Sonia Vihar, Delhi - DPCC",15-09-2025 07:00:00,28.710508,77.249485,OZONE,1,40,3
India,Delhi,Delhi,"Sri Aurobindo Marg, Delhi - DPCC",15-09-2025 07:00:00,28.531346,77.190156,NO2,4,20,10
India,Delhi,Delhi,"Sri Aurobindo Marg, Delhi - DPCC",15-09-2025 07:00:00,28.531346,77.190156,CO,18,60,45
India,Delhi,Delhi,"Vivek Vihar, Delhi - DPCC",15-09-2025 07:00:00,28.672342,77.315260,CO,10,102,34
India,Delhi,Delhi,"Vivek Vihar, Delhi - DPCC",15-09-2025 07:00:00,28.672342,77.315260,OZONE,5,27,6
India,Gujarat,Ahmedabad,"Chandkheda, Ahmedabad - IITM",15-09-2025 07:00:00,23.107969,72.574648,PM2.5,30,52,39
India,Delhi,Delhi,"Narela, Delhi - DPCC",15-09-2025 07:00:00,28.822836,77.101981,CO,36,86,63
India,Delhi,Delhi,"Nehru Nagar, Delhi - DPCC",15-09-2025 07:00:00,28.567890,77.250515,PM10,57,140,104
India,Delhi,Delhi,"Nehru Nagar, Delhi - DPCC",15-09-2025 07:00:00,28.567890,77.250515,SO2,2,10,6
India,Delhi,Delhi,"Nehru Nagar, Delhi - DPCC",15-09-2025 07:00:00,28.567890,77.250515,CO,2,60,22
India,Delhi,Delhi,"North Campus, DU, Delhi - IMD",15-09-2025 07:00:00,28.6573814,77.1585447,PM10,65,134,95
India,Delhi,Delhi,"North Campus, DU, Delhi - IMD",15-09-2025 07:00:00,28.6573814,77.1585447,NO2,5,44,17
India,Delhi,Delhi,"North Campus, DU, Delhi - IMD",15-09-2025 07:00:00,28.6573814,77.1585447,OZONE,1,82,3
India,Delhi,Delhi,"Okhla Phase-2, Delhi - DPCC",15-09-2025 07:00:00,28.530785,77.271255,PM2.5,23,95,55
India,Gujarat,Ahmedabad,"SAC ISRO Bopal, Ahmedabad - IITM",15-09-2025 07:00:00,23.041137,72.456691,CO,20,32,27
India,Gujarat,Ahmedabad,"SVPI Airport Hansol, Ahmedabad - IITM",15-09-2025 07:00:00,23.076793,72.627874,NO2,6,21,13
India,Gujarat,Ankleshwar,"GIDC, Ankleshwar - GPCB",15-09-2025 07:00:00,21.613267,73.010555,PM2.5,47,77,59
India,Gujarat,Ankleshwar,"GIDC, Ankleshwar - GPCB",15-09-2025 07:00:00,21.613267,73.010555,NO2,31,31,31
India,Gujarat,Gandhinagar,"GIFT City, Gandhinagar - IITM",15-09-2025 07:00:00,23.163798,72.677768,OZONE,1,26,2
India,Gujarat,Gandhinagar,"IIPHG Lekawada, Gandhinagar - IITM",15-09-2025 07:00:00,23.243639,72.68994,PM2.5,29,47,39
India,Delhi,Delhi,"Pusa, Delhi - DPCC",15-09-2025 07:00:00,28.639652,77.146275,NO2,37,94,54
India,Delhi,Delhi,"R K Puram, Delhi - DPCC",15-09-2025 07:00:00,28.563262,77.186937,NH3,3,5,4
India,Delhi,Delhi,"R K Puram, Delhi - DPCC",15-09-2025 07:00:00,28.563262,77.186937,SO2,NA,NA,NA
India,Delhi,Delhi,"Rohini, Delhi - DPCC",15-09-2025 07:00:00,28.732528,77.119920,PM10,64,164,108
India,Delhi,Delhi,"Rohini, Delhi - DPCC",15-09-2025 07:00:00,28.732528,77.119920,NO2,3,36,12
India,Delhi,Delhi,"Rohini, Delhi - DPCC",15-09-2025 07:00:00,28.732528,77.119920,CO,7,30,22
India,Delhi,Delhi,"Shadipur, Delhi - CPCB",15-09-2025 07:00:00,28.6514781,77.1473105,PM2.5,100,192,151
India,Delhi,Delhi,"Shadipur, Delhi - CPCB",15-09-2025 07:00:00,28.6514781,77.1473105,NH3,5,9,7
India,Gujarat,Ahmedabad,"Chandkheda, Ahmedabad - IITM",15-09-2025 07:00:00,23.107969,72.574648,CO,10,33,27
India,Gujarat,Ahmedabad,"Gyaspur, Ahmedabad - IITM",15-09-2025 07:00:00,22.977134,72.553024,NH3,1,1,1
India,Gujarat,Ahmedabad,"Maninagar, Ahmedabad - GPCB",15-09-2025 07:00:00,23.002657,72.591912,PM2.5,6,63,32
India,Gujarat,Ahmedabad,"Maninagar, Ahmedabad - GPCB",15-09-2025 07:00:00,23.002657,72.591912,OZONE,20,40,26
India,Gujarat,Ahmedabad,"Raikhad, Ahmedabad - IITM",15-09-2025 07:00:00,23.020509,72.579261,CO,24,42,30
India,Karnataka,Bengaluru,"Bapuji Nagar, Bengaluru - KSPCB",15-09-2025 07:00:00,12.951913,77.539784,OZONE,1,38,6
India,Karnataka,Bengaluru,"Hombegowda Nagar, Bengaluru - KSPCB",15-09-2025 07:00:00,12.938539,77.590100,PM2.5,13,37,19
India,Karnataka,Bengaluru,"Hombegowda Nagar, Bengaluru - KSPCB",15-09-2025 07:00:00,12.938539,77.590100,NH3,2,2,2
India,Karnataka,Bengaluru,"Hombegowda Nagar, Bengaluru - KSPCB",15-09-2025 07:00:00,12.938539,77.590100,SO2,2,17,10
India,Karnataka,Bengaluru,"Jayanagar 5th Block, Bengaluru - KSPCB",15-09-2025 07:00:00,12.920984,77.584908,SO2,NA,NA,NA
India,Karnataka,Bengaluru,"Sanegurava Halli, Bengaluru - KSPCB",15-09-2025 07:00:00,12.990328,77.5431385,PM10,39,42,40
India,Karnataka,Bengaluru,"Silk Board, Bengaluru - KSPCB",15-09-2025 07:00:00,12.917348,77.622813,CO,30,40,35
India,Karnataka,Chikkaballapur,"Chikkaballapur Rural, Chikkaballapur - KSPCB",15-09-2025 07:00:00,13.428828,77.731418,CO,10,30,19
India,Karnataka,Chikkamagaluru,"Kalyana Nagara, Chikkamagaluru - KSPCB",15-09-2025 07:00:00,13.328028,75.797056,CO,11,12,11
India,Karnataka,Davanagere,"Devaraj Urs Badavane, Davanagere - KSPCB",15-09-2025 07:00:00,14.475800,75.905200,NO2,10,22,16
India,Karnataka,Davanagere,"Devaraj Urs Badavane, Davanagere - KSPCB",15-09-2025 07:00:00,14.475800,75.905200,CO,8,34,10
India,Karnataka,Haveri,"Ashwini Nagar, Haveri - KSPCB",15-09-2025 07:00:00,14.791800,75.389600,PM2.5,NA,NA,NA
India,Karnataka,Hubballi,"Lingaraj Nagar, Hubballi - KSPCB",15-09-2025 07:00:00,15.3714823,75.1160168,PM2.5,27,27,27
India,Karnataka,Hubballi,"Lingaraj Nagar, Hubballi - KSPCB",15-09-2025 07:00:00,15.3714823,75.1160168,NH3,1,1,1
India,Karnataka,Hubballi,"Lingaraj Nagar, Hubballi - KSPCB",15-09-2025 07:00:00,15.3714823,75.1160168,CO,12,16,13
India,Karnataka,Kalaburagi,"Lal Bahadur Shastri Nagar, Kalaburagi - KSPCB",15-09-2025 07:00:00,17.321993,76.822628,PM10,29,62,51
India,Karnataka,Kalaburagi,"Mahatma Basaveswar Colony, Kalaburgi - KSPCB",15-09-2025 07:00:00,17.336318,76.847397,NO2,12,16,14
India,Karnataka,Kalaburagi,"Mahatma Basaveswar Colony, Kalaburgi - KSPCB",15-09-2025 07:00:00,17.336318,76.847397,NH3,2,3,3
India,Madhya Pradesh,Indore,"Residency Area, Indore - IMC",15-09-2025 07:00:00,22.7084,75.8815,CO,13,18,16
India,Madhya Pradesh,Indore,"Residency Area, Indore - IMC",15-09-2025 07:00:00,22.7084,75.8815,OZONE,8,14,10
India,Madhya Pradesh,Jabalpur,"Govindh Bhavan Colony, Jabalpur - JMC",15-09-2025 07:00:00,23.163174,79.973061,NO2,35,37,36
India,Madhya Pradesh,Jabalpur,"Gupteshwar, Jabalpur - JMC",15-09-2025 07:00:00,23.142888,79.916147,PM2.5,NA,NA,NA
India,Madhya Pradesh,Jabalpur,"Gupteshwar, Jabalpur - JMC",15-09-2025 07:00:00,23.142888,79.916147,NO2,10,34,20
India,Madhya Pradesh,Jabalpur,"Gupteshwar, Jabalpur - JMC",15-09-2025 07:00:00,23.142888,79.916147,NH3,5,7,6
India,Madhya Pradesh,Jabalpur,"Gupteshwar, Jabalpur - JMC",15-09-2025 07:00:00,23.142888,79.916147,CO,26,101,60
India,Madhya Pradesh,Jabalpur,"Marhatal, Jabalpur - MPPCB",15-09-2025 07:00:00,23.168606,79.932247,NO2,22,54,34
India,Madhya Pradesh,Jabalpur,"Marhatal, Jabalpur - MPPCB",15-09-2025 07:00:00,23.168606,79.932247,NH3,1,2,1
India,Madhya Pradesh,Jabalpur,"Suhagi, Jabalpur - JMC",15-09-2025 07:00:00,23.218135,79.957770,NO2,15,34,24
India,Madhya Pradesh,Jabalpur,"Suhagi, Jabalpur - JMC",15-09-2025 07:00:00,23.218135,79.957770,NH3,2,2,2
India,Madhya Pradesh,Bhopal,"Paryavaran Parisar, Bhopal - MPPCB",15-09-2025 07:00:00,23.210494,77.425409,NO2,11,35,18
India,Madhya Pradesh,Bhopal,"T T Nagar, Bhopal - MPPCB",15-09-2025 07:00:00,23.233584,77.400574,CO,16,115,41
India,Madhya Pradesh,Bhopal,"T T Nagar, Bhopal - MPPCB",15-09-2025 07:00:00,23.233584,77.400574,OZONE,15,46,21
India,Madhya Pradesh,Damoh,"Shrivastav Colony, Damoh - MPPCB",15-09-2025 07:00:00,23.81748678,79.446246,SO2,NA,NA,NA
India,Madhya Pradesh,Dewas,"Bhopal Chauraha, Dewas - MPPCB",15-09-2025 07:00:00,22.9682591,76.064118,PM2.5,14,128,54
India,Madhya Pradesh,Dewas,"Bhopal Chauraha, Dewas - MPPCB",15-09-2025 07:00:00,22.9682591,76.064118,SO2,20,37,26
India,Madhya Pradesh,Gwalior,"City Center, Gwalior - MPPCB",15-09-2025 07:00:00,26.203442,78.193251,PM2.5,23,57,38
India,Madhya Pradesh,Gwalior,"City Center, Gwalior - MPPCB",15-09-2025 07:00:00,26.203442,78.193251,OZONE,23,51,29
India,Kerala,Thiruvananthapuram,"Kariavattom, Thiruvananthapuram - Kerala PCB",15-09-2025 07:00:00,8.563700,76.886500,SO2,1,15,5
India,Kerala,Thiruvananthapuram,"Kariavattom, Thiruvananthapuram - Kerala PCB",15-09-2025 07:00:00,8.563700,76.886500,OZONE,36,37,36
India,Kerala,Thiruvananthapuram,"Plammoodu, Thiruvananthapuram - Kerala PCB",15-09-2025 07:00:00,8.5149093,76.9435879,PM10,1,70,20
India,Kerala,Thrissur,"Corporation Ground, Thrissur - Kerala PCB",15-09-2025 07:00:00,10.532400,76.215900,PM10,51,58,55
India,Kerala,Thrissur,"Corporation Ground, Thrissur - Kerala PCB",15-09-2025 07:00:00,10.532400,76.215900,NO2,7,8,7
India,Madhya Pradesh,Bhopal,"Idgah Hills, Bhopal - MPPCB",15-09-2025 07:00:00,23.264759,77.381568,NO2,9,36,20
India,Madhya Pradesh,Bhopal,"Idgah Hills, Bhopal - MPPCB",15-09-2025 07:00:00,23.264759,77.381568,SO2,8,14,10
India,Karnataka,Shivamogga,"Vinoba Nagara, Shivamogga - KSPCB",15-09-2025 07:00:00,13.940000,75.555917,CO,11,32,17
India,Karnataka,Shivamogga,"Vinoba Nagara, Shivamogga - KSPCB",15-09-2025 07:00:00,13.940000,75.555917,OZONE,32,52,37
India,Karnataka,Tumakuru,"Thimmalapura, Tumakuru - KSPCB",15-09-2025 07:00:00,13.377516,77.099072,NH3,NA,NA,NA
India,Karnataka,Tumakuru,"Thimmalapura, Tumakuru - KSPCB",15-09-2025 07:00:00,13.377516,77.099072,SO2,NA,NA,NA
India,Karnataka,Vijayapura,"Ibrahimpur, Vijayapura - KSPCB",15-09-2025 07:00:00,16.802639,75.722694,PM2.5,30,38,37
India,Karnataka,Yadgir,"Collector Office, Yadgir - KSPCB",15-09-2025 07:00:00,16.7602,77.1428,PM2.5,NA,NA,NA
India,Karnataka,Yadgir,"Collector Office, Yadgir - KSPCB",15-09-2025 07:00:00,16.7602,77.1428,NH3,NA,NA,NA
India,Madhya Pradesh,Katni,"Gole Bazar, Katni - MPPCB",15-09-2025 07:00:00,23.50016,80.23284,NH3,3,3,3
India,Madhya Pradesh,Katni,"Gole Bazar, Katni - MPPCB",15-09-2025 07:00:00,23.50016,80.23284,CO,27,36,31
India,Madhya Pradesh,Mandideep,"Sector-D Industrial Area, Mandideep - MPPCB",15-09-2025 07:00:00,23.108440,77.511428,CO,15,40,19
India,Madhya Pradesh,Pithampur,"Sector-2 Industrial Area, Pithampur - MPPCB",15-09-2025 07:00:00,22.624758,75.675238,NH3,3,4,3
India,Madhya Pradesh,Sagar,"Civil Lines, Sagar - MPPCB",15-09-2025 07:00:00,23.838586,78.759431,NH3,1,1,1
India,Karnataka,Karwar,"KHB Colony, Karwar - KSPCB",15-09-2025 07:00:00,14.816666,74.141003,NO2,5,7,7
India,Karnataka,Karwar,"KHB Colony, Karwar - KSPCB",15-09-2025 07:00:00,14.816666,74.141003,NH3,1,1,1
India,Karnataka,Madikeri,"Stuart Hill, Madikeri - KSPCB",15-09-2025 07:00:00,12.415911,75.735050,PM10,2,26,13
India,Karnataka,Madikeri,"Stuart Hill, Madikeri - KSPCB",15-09-2025 07:00:00,12.415911,75.735050,SO2,7,7,7
India,Karnataka,Mysuru,"Hebbal 1st Stage, Mysuru - KSPCB",15-09-2025 07:00:00,12.21041,76.37376,PM10,18,139,48
India,Karnataka,Mysuru,"Hebbal 1st Stage, Mysuru - KSPCB",15-09-2025 07:00:00,12.21041,76.37376,OZONE,9,20,13
India,Madhya Pradesh,Indore,"Chhoti Gwaltoli, Indore - MPPCB",15-09-2025 07:00:00,22.4310,75.5213,NO2,59,109,75
India,Madhya Pradesh,Indore,"Chhoti Gwaltoli, Indore - MPPCB",15-09-2025 07:00:00,22.4310,75.5213,NH3,4,7,6
India,Madhya Pradesh,Indore,"Chhoti Gwaltoli, Indore - MPPCB",15-09-2025 07:00:00,22.4310,75.5213,OZONE,10,65,29
India,Madhya Pradesh,Indore,"Maguda Nagar, Indore - IMC",15-09-2025 07:00:00,22.7524,75.8872,PM10,9,64,39
India,Kerala,Kollam,"Polayathode, Kollam - Kerala PCB",15-09-2025 07:00:00,8.8787,76.6073,NO2,8,10,9
India,Kerala,Kollam,"Polayathode, Kollam - Kerala PCB",15-09-2025 07:00:00,8.8787,76.6073,NH3,1,1,1
India,Kerala,Kollam,"Polayathode, Kollam - Kerala PCB",15-09-2025 07:00:00,8.8787,76.6073,SO2,2,3,2
India,Maharashtra,Malegaon,"Mahesh Nagar, Malegaon - MPCB",15-09-2025 07:00:00,20.555712,74.529236,SO2,1,12,7
India,Maharashtra,Mira-Bhayandar,"Bhayandar West, Mira-Bhayandar - MPCB",15-09-2025 07:00:00,19.296481,72.840923,SO2,1,3,2
India,Maharashtra,Mira-Bhayandar,"Bhayandar West, Mira-Bhayandar - MPCB",15-09-2025 07:00:00,19.296481,72.840923,CO,31,70,41
India,Maharashtra,Mumbai,"Bandra Kurla Complex, Mumbai - IITM",15-09-2025 07:00:00,19.053536,72.84643,SO2,2,5,4
India,Maharashtra,Mumbai,"Bandra Kurla Complex, Mumbai - IITM",15-09-2025 07:00:00,19.053536,72.84643,OZONE,1,9,5
India,Maharashtra,Mumbai,"Bandra Kurla Complex, Mumbai - MPCB",15-09-2025 07:00:00,19.065931,72.862131,PM10,NA,NA,NA
India,Maharashtra,Mumbai,"Bandra Kurla Complex, Mumbai - MPCB",15-09-2025 07:00:00,19.065931,72.862131,CO,1,18,6
India,Maharashtra,Mumbai,"Borivali East, Mumbai - MPCB",15-09-2025 07:00:00,19.2243333,72.8658113,PM2.5,17,56,40
India,Maharashtra,Mumbai,"Borivali East, Mumbai - MPCB",15-09-2025 07:00:00,19.2243333,72.8658113,NO2,2,6,4
India,Maharashtra,Mumbai,"Mindspace-Malad West, Mumbai - MPCB",15-09-2025 07:00:00,19.1878657,72.8304069,PM2.5,32,34,33
India,Maharashtra,Mumbai,"Mindspace-Malad West, Mumbai - MPCB",15-09-2025 07:00:00,19.1878657,72.8304069,PM10,35,37,36
India,Maharashtra,Mumbai,"Mindspace-Malad West, Mumbai - MPCB",15-09-2025 07:00:00,19.1878657,72.8304069,CO,30,30,30
India,Maharashtra,Mumbai,"Mulund West, Mumbai - MPCB",15-09-2025 07:00:00,19.1750,72.9419,PM10,NA,NA,NA
India,Maharashtra,Mumbai,"Mulund West, Mumbai - MPCB",15-09-2025 07:00:00,19.1750,72.9419,NO2,11,12,12
India,Maharashtra,Mumbai,"Navy Nagar-Colaba, Mumbai - IITM",15-09-2025 07:00:00,18.897756,72.813320,NO2,11,103,31
India,Maharashtra,Mumbai,"Navy Nagar-Colaba, Mumbai - IITM",15-09-2025 07:00:00,18.897756,72.813320,CO,1,5,1
India,Maharashtra,Mumbai,"Siddharth Nagar-Worli, Mumbai - IITM",15-09-2025 07:00:00,19.000083,72.813993,PM10,29,171,46
India,Maharashtra,Mumbai,"Siddharth Nagar-Worli, Mumbai - IITM",15-09-2025 07:00:00,19.000083,72.813993,NH3,5,6,5
India,Maharashtra,Bhiwandi,"Gokul Nagar, Bhiwandi - MPCB",15-09-2025 07:00:00,19.309073,73.057223,OZONE,NA,NA,NA
India,Maharashtra,Dhule,"Deopur, Dhule - MPCB",15-09-2025 07:00:00,20.918946,74.776388,PM10,NA,NA,NA
India,Maharashtra,Dhule,"Deopur, Dhule - MPCB",15-09-2025 07:00:00,20.918946,74.776388,NH3,4,7,5
India,Maharashtra,Jalgaon,"Prabhat Colony, Jalgaon - MPCB",15-09-2025 07:00:00,21.001264,75.565602,CO,12,28,15
India,Maharashtra,Jalgaon,"Prabhat Colony, Jalgaon - MPCB",15-09-2025 07:00:00,21.001264,75.565602,OZONE,26,93,31
India,Maharashtra,Jalna,"Old MIDC, Jalna - MPCB",15-09-2025 07:00:00,19.854616,75.905894,OZONE,12,52,24
India,Maharashtra,Kalyan,"Khadakpada, Kalyan - MPCB",15-09-2025 07:00:00,19.25292,73.142019,PM10,39,138,91
India,Maharashtra,Kolhapur,"Shivaji University, Kolhapur - MPCB",15-09-2025 07:00:00,16.6870449,74.2505872,PM2.5,22,27,23
India,Maharashtra,Kolhapur,"Sinchan Bhavan, Kolhapur - MPCB",15-09-2025 07:00:00,16.7143745,74.2426398,OZONE,23,43,29
India,Maharashtra,Latur,"Sawe Wadi, Latur - MPCB",15-09-2025 07:00:00,18.39963,76.57452,NO2,5,16,8
India,Maharashtra,Latur,"Sawe Wadi, Latur - MPCB",15-09-2025 07:00:00,18.39963,76.57452,NH3,1,5,3
India,Maharashtra,Latur,"Sawe Wadi, Latur - MPCB",15-09-2025 07:00:00,18.39963,76.57452,CO,8,18,14
India,Maharashtra,Malegaon,"Mahesh Nagar, Malegaon - MPCB",15-09-2025 07:00:00,20.555712,74.529236,PM10,47,70,58
India,Maharashtra,Mumbai,"Byculla, Mumbai - BMC",15-09-2025 07:00:00,18.9767,72.8380,PM10,NA,NA,NA
India,Maharashtra,Mumbai,"Chakala-Andheri East, Mumbai - IITM",15-09-2025 07:00:00,19.11074,72.86084,NO2,14,40,25
India,Maharashtra,Mumbai,"Chembur, Mumbai - MPCB",15-09-2025 07:00:00,19.0364585,72.8954371,PM2.5,36,52,42
India,Maharashtra,Mumbai,"Chembur, Mumbai - MPCB",15-09-2025 07:00:00,19.0364585,72.8954371,SO2,2,3,3
India,Maharashtra,Mumbai,"Chhatrapati Shivaji Intl. Airport (T2), Mumbai - MPCB",15-09-2025 07:00:00,19.10078,72.87462,PM2.5,33,40,37
India,Maharashtra,Mumbai,"Chhatrapati Shivaji Intl. Airport (T2), Mumbai - MPCB",15-09-2025 07:00:00,19.10078,72.87462,CO,24,30,27
India,Maharashtra,Mumbai,"Deonar, Mumbai - IITM",15-09-2025 07:00:00,19.04946,72.9230,CO,12,40,23
India,Maharashtra,Mumbai,"Deonar, Mumbai - IITM",15-09-2025 07:00:00,19.04946,72.9230,OZONE,1,22,4
India,Maharashtra,Mumbai,"Kandivali East, Mumbai - MPCB",15-09-2025 07:00:00,19.205800,72.868200,NH3,1,1,1
India,Maharashtra,Mumbai,"Kandivali West, Mumbai - BMC",15-09-2025 07:00:00,19.215859,72.831718,CO,2,18,7
India,Maharashtra,Mumbai,"Kherwadi_Bandra East, Mumbai - MPCB",15-09-2025 07:00:00,19.0632143,72.8456324,PM10,27,56,39
India,Maharashtra,Mumbai,"Kherwadi_Bandra East, Mumbai - MPCB",15-09-2025 07:00:00,19.0632143,72.8456324,NO2,16,16,16
India,Madhya Pradesh,Satna,"Bandhavgar Colony, Satna - Birla Cement",15-09-2025 07:00:00,24.58434363,80.8549414,OZONE,6,14,7
India,Maharashtra,Akola,"Ramdaspeth, Akola - MPCB",15-09-2025 07:00:00,20.719516,77.000253,PM10,28,55,41
India,Maharashtra,Akola,"Ramdaspeth, Akola - MPCB",15-09-2025 07:00:00,20.719516,77.000253,NO2,12,27,17
India,Maharashtra,Akola,"Ramdaspeth, Akola - MPCB",15-09-2025 07:00:00,20.719516,77.000253,SO2,10,16,13
