country,state,city,station,last_update,latitude,longitude,pollutant_id,min_value,max_value,avg_value
India,Arunachal_Pradesh,Naharlagun,"Naharlagun, Naharlagun - APSPCB",13-09-2025 07:00:00,27.103358,93.679645,OZONE,4,5,5
India,Assam,Byrnihat,"Central Academy for SFS, Byrnihat - PCBA",13-09-2025 07:00:00,26.071318,91.87488,NH3,NA,NA,NA
India,Assam,Guwahati,"IITG, Guwahati - PCBA",13-09-2025 07:00:00,26.2028636,91.70046436,NO2,1,6,4
India,Assam,Guwahati,"LGBI Airport, Guwahati - PCBA",13-09-2025 07:00:00,26.10887,91.589544,NO2,10,17,14
India,Assam,Guwahati,"LGBI Airport, Guwahati - PCBA",13-09-2025 07:00:00,26.10887,91.589544,SO2,5,15,12
India,Assam,Guwahati,"Pan Bazaar, Guwahati - PCBA",13-09-2025 07:00:00,26.187500,91.744194,PM10,11,42,30
India,Assam,Guwahati,"Pan Bazaar, Guwahati - PCBA",13-09-2025 07:00:00,26.187500,91.744194,SO2,32,64,48
India,Assam,Guwahati,"Pan Bazaar, Guwahati - PCBA",13-09-2025 07:00:00,26.187500,91.744194,OZONE,18,18,18
India,Assam,Guwahati,"Railway Colony, Guwahati - PCBA",13-09-2025 07:00:00,26.181742,91.78063,PM2.5,32,78,58
India,Andhra_Pradesh,Amaravati,"Secretariat, Amaravati - APPCB",13-09-2025 07:00:00,16.5150833,80.5181667,OZONE,4,21,6
India,Andhra_Pradesh,Anantapur,"Gulzarpet, Anantapur - APPCB",13-09-2025 07:00:00,14.675886,77.593027,NO2,19,20,19
India,Andhra_Pradesh,Anantapur,"Gulzarpet, Anantapur - APPCB",13-09-2025 07:00:00,14.675886,77.593027,CO,18,49,26
India,Andhra_Pradesh,Kadapa,"Yerramukkapalli, Kadapa - APPCB",13-09-2025 07:00:00,14.465052,78.824187,PM10,56,183,84
India,Andhra_Pradesh,Kadapa,"Yerramukkapalli, Kadapa - APPCB",13-09-2025 07:00:00,14.465052,78.824187,OZONE,32,41,37
India,Andhra_Pradesh,Rajamahendravaram,"Anand Kala Kshetram, Rajamahendravaram - APPCB",13-09-2025 07:00:00,16.9872867,81.7363176,NO2,5,47,18
India,Andhra_Pradesh,Rajamahendravaram,"Anand Kala Kshetram, Rajamahendravaram - APPCB",13-09-2025 07:00:00,16.9872867,81.7363176,CO,6,29,9
India,Andhra_Pradesh,Tirumala,"Toll Gate, Tirumala - APPCB",13-09-2025 07:00:00,13.67,79.35,PM10,31,104,45
India,Andhra_Pradesh,Tirumala,"Toll Gate, Tirumala - APPCB",13-09-2025 07:00:00,13.67,79.35,NO2,11,22,17
India,Andhra_Pradesh,Tirumala,"Toll Gate, Tirumala - APPCB",13-09-2025 07:00:00,13.67,79.35,CO,2,120,36
India,Andhra_Pradesh,Tirupati,"Vaikuntapuram, Tirupati - APPCB",13-09-2025 07:00:00,13.615387,79.409230,OZONE,30,31,30
India,Andhra_Pradesh,Vijayawada,"HB Colony, Vijayawada - APPCB",13-09-2025 07:00:00,16.536107,80.594233,CO,39,40,39
India,Andhra_Pradesh,Vijayawada,"Rajiv Gandhi Park, Vijayawada - APPCB",13-09-2025 07:00:00,16.509717,80.612222,NO2,36,51,44
India,Andhra_Pradesh,Vijayawada,"Rajiv Nagar, Vijayawada - APPCB",13-09-2025 07:00:00,16.554731,80.649110,PM10,39,58,45
India,Andhra_Pradesh,Vijayawada,"Rajiv Nagar, Vijayawada - APPCB",13-09-2025 07:00:00,16.554731,80.649110,CO,20,37,24
India,Andhra_Pradesh,Visakhapatnam,"GVM Corporation, Visakhapatnam - APPCB",13-09-2025 07:00:00,17.72,83.3,PM2.5,20,415,103
India,Bihar,Bhagalpur,"DM Office_Kachari Chowk, Bhagalpur - BSPCB",13-09-2025 07:00:00,25.251013,86.989001,NO2,13,16,15
India,Bihar,Bhagalpur,"Mayaganj, Bhagalpur - BSPCB",13-09-2025 07:00:00,25.265194,87.012947,NH3,2,5,4
India,Bihar,Bihar Sharif,"D M Colony, Bihar Sharif - BSPCB",13-09-2025 07:00:00,25.204762,85.514960,PM10,NA,NA,NA
India,Bihar,Buxar,"Charitra Van, Buxar - BSPCB",13-09-2025 07:00:00,25.567520,83.966379,NO2,7,10,9
India,Bihar,Buxar,"Charitra Van, Buxar - BSPCB",13-09-2025 07:00:00,25.567520,83.966379,SO2,1,18,10
India,Bihar,Chhapra,"Darshan Nagar, Chhapra - BSPCB",13-09-2025 07:00:00,25.7808257,84.7446768,PM2.5,37,300,150
India,Bihar,Katihar,"Mirchaibari, Katihar - BSPCB",13-09-2025 07:00:00,25.560083,87.553265,OZONE,1,31,7
India,Bihar,Kishanganj,"SDM Office_Khagra, Kishanganj - BSPCB",13-09-2025 07:00:00,26.0881305,87.93840336,SO2,5,9,8
India,Bihar,Motihari,"Gandak Colony, Motihari - BSPCB",13-09-2025 07:00:00,26.63086,84.90051,PM10,NA,NA,NA
India,Bihar,Motihari,"Gandak Colony, Motihari - BSPCB",13-09-2025 07:00:00,26.63086,84.90051,CO,1,8,2
India,Bihar,Munger,"Town Hall, Munger - BSPCB",13-09-2025 07:00:00,25.376776,86.471523,SO2,16,20,18
India,Bihar,Munger,"Town Hall, Munger - BSPCB",13-09-2025 07:00:00,25.376776,86.471523,CO,21,41,30
India,Bihar,Gaya,"Kareemganj, Gaya - BSPCB",13-09-2025 07:00:00,24.792403,84.992416,PM2.5,15,90,46
India,Bihar,Gaya,"Kareemganj, Gaya - BSPCB",13-09-2025 07:00:00,24.792403,84.992416,PM10,28,145,84
India,Bihar,Gaya,"Kareemganj, Gaya - BSPCB",13-09-2025 07:00:00,24.792403,84.992416,NH3,4,6,5
India,Bihar,Gaya,"Kareemganj, Gaya - BSPCB",13-09-2025 07:00:00,24.792403,84.992416,SO2,15,18,17
India,Bihar,Gaya,"SFTI Kusdihra, Gaya - BSPCB",13-09-2025 07:00:00,24.762518,84.982348,NH3,3,4,3
India,Bihar,Hajipur,"Industrial Area, Hajipur - BSPCB",13-09-2025 07:00:00,25.697189,85.245900,PM10,34,110,66
India,Bihar,Hajipur,"Industrial Area, Hajipur - BSPCB",13-09-2025 07:00:00,25.697189,85.245900,SO2,1,5,4
India,Bihar,Arrah,"New DM Office, Arrah - BSPCB",13-09-2025 07:00:00,25.5626095,84.663264,NH3,1,1,1
India,Bihar,Arrah,"New DM Office, Arrah - BSPCB",13-09-2025 07:00:00,25.5626095,84.663264,CO,24,66,54
India,Bihar,Aurangabad,"Gurdeo Nagar, Aurangabad - BSPCB",13-09-2025 07:00:00,24.75746,84.366208,PM2.5,57,500,183
India,Bihar,Aurangabad,"Gurdeo Nagar, Aurangabad - BSPCB",13-09-2025 07:00:00,24.75746,84.366208,OZONE,2,37,2
India,Bihar,Begusarai,"Lohiyanagar, Begusarai - BSPCB",13-09-2025 07:00:00,25.42742023,86.13886079,PM10,12,43,24
India,Assam,Guwahati,"Railway Colony, Guwahati - PCBA",13-09-2025 07:00:00,26.181742,91.78063,NO2,3,4,3
India,Assam,Nagaon,"Christianpatty, Nagaon - PCBA",13-09-2025 07:00:00,26.349082,92.68449,NH3,3,4,4
India,Assam,Nalbari,"Bata Chowk, Nalbari - PCBA",13-09-2025 07:00:00,26.446912,91.439057,PM2.5,29,39,36
India,Assam,Nalbari,"Bata Chowk, Nalbari - PCBA",13-09-2025 07:00:00,26.446912,91.439057,NH3,1,4,2
India,Bihar,Muzaffarpur,"MIT-Daudpur Kothi, Muzaffarpur - BSPCB",13-09-2025 07:00:00,26.1403345,85.3650192,NO2,4,12,9
India,Assam,Silchar,"Tarapur, Silchar - PCBA",13-09-2025 07:00:00,24.82827,92.79525,SO2,1,9,5
India,Bihar,Rajgir,"Dangi Tola, Rajgir - BSPCB",13-09-2025 07:00:00,25.03280,85.41948,SO2,19,23,21
India,Bihar,Saharsa,"Police Line, Saharsa - BSPCB",13-09-2025 07:00:00,25.892357,86.590325,PM2.5,3,57,26
India,Bihar,Samastipur,"DM Office_Kasipur, Samastipur - BSPCB",13-09-2025 07:00:00,25.859655,85.77944,OZONE,8,12,10
India,Bihar,Sasaram,"Dada Peer, Sasaram - BSPCB",13-09-2025 07:00:00,24.952822,84.002396,NH3,3,4,3
India,Bihar,Sasaram,"Dada Peer, Sasaram - BSPCB",13-09-2025 07:00:00,24.952822,84.002396,SO2,4,5,4
India,Bihar,Siwan,"Chitragupta Nagar, Siwan - BSPCB",13-09-2025 07:00:00,26.2271665,84.3570427,NO2,1,1,1
India,Bihar,Siwan,"Chitragupta Nagar, Siwan - BSPCB",13-09-2025 07:00:00,26.2271665,84.3570427,CO,80,145,91
India,Chandigarh,Chandigarh,"Sector 22, Chandigarh - CPCC",13-09-2025 07:00:00,30.735567,76.775714,PM2.5,7,27,18
India,Chhattisgarh,Kunjemura,"OP Jindal School, Kunjemura - CECB",13-09-2025 07:00:00,22.126650,83.483212,NO2,3,3,3
India,Chhattisgarh,Milupara,"Govt. Higher Secondary School, Milupara - CECB",13-09-2025 07:00:00,22.1910172,83.5197009,PM2.5,NA,NA,NA
India,Chhattisgarh,Raipur,"AIIMS, Raipur - CECB",13-09-2025 07:00:00,21.258815,81.578979,PM10,36,102,59
India,Chhattisgarh,Raipur,"AIIMS, Raipur - CECB",13-09-2025 07:00:00,21.258815,81.578979,NO2,9,18,14
India,Chhattisgarh,Raipur,"AIIMS, Raipur - CECB",13-09-2025 07:00:00,21.258815,81.578979,NH3,4,5,5
India,Chhattisgarh,Raipur,"Krishak Nagar, Raipur - CECB",13-09-2025 07:00:00,21.237755,81.705301,PM2.5,5,10,7
India,Chhattisgarh,Raipur,"Krishak Nagar, Raipur - CECB",13-09-2025 07:00:00,21.237755,81.705301,NO2,10,14,12
India,Chhattisgarh,Raipur,"Krishak Nagar, Raipur - CECB",13-09-2025 07:00:00,21.237755,81.705301,CO,10,15,13
India,Chhattisgarh,Raipur,"Siltara Phase-II, Raipur - CECB",13-09-2025 07:00:00,21.371751,81.664929,NH3,3,3,3
India,Chhattisgarh,Tumidih,"OP Jindal Industrial Park, Tumidih - CECB",13-09-2025 07:00:00,22.06631475,83.33820077,PM2.5,2,336,40
India,Chhattisgarh,Tumidih,"OP Jindal Industrial Park, Tumidih - CECB",13-09-2025 07:00:00,22.06631475,83.33820077,PM10,10,358,54
India,Chhattisgarh,Tumidih,"OP Jindal Industrial Park, Tumidih - CECB",13-09-2025 07:00:00,22.06631475,83.33820077,NH3,1,2,2
India,Chhattisgarh,Tumidih,"OP Jindal Industrial Park, Tumidih - CECB",13-09-2025 07:00:00,22.06631475,83.33820077,CO,14,60,16
India,Chhattisgarh,Tumidih,"OP Jindal Industrial Park, Tumidih - CECB",13-09-2025 07:00:00,22.06631475,83.33820077,OZONE,4,24,6
India,Delhi,Delhi,"Alipur, Delhi - DPCC",13-09-2025 07:00:00,28.815329,77.153010,PM10,58,224,122
India,Delhi,Delhi,"Alipur, Delhi - DPCC",13-09-2025 07:00:00,28.815329,77.153010,NO2,9,37,21
India,Delhi,Delhi,"Alipur, Delhi - DPCC",13-09-2025 07:00:00,28.815329,77.153010,CO,30,52,42
India,Chandigarh,Chandigarh,"Sector 22, Chandigarh - CPCC",13-09-2025 07:00:00,30.735567,76.775714,SO2,2,7,4
India,Chandigarh,Chandigarh,"Sector 22, Chandigarh - CPCC",13-09-2025 07:00:00,30.735567,76.775714,OZONE,2,37,14
India,Chandigarh,Chandigarh,"Sector-53, Chandigarh - CPCC",13-09-2025 07:00:00,30.719859,76.738637,CO,34,52,43
India,Chhattisgarh,Bhilai,"32Bungalows, Bhilai - CECB",13-09-2025 07:00:00,21.194815,81.314770,PM10,16,47,32
India,Chhattisgarh,Bhilai,"32Bungalows, Bhilai - CECB",13-09-2025 07:00:00,21.194815,81.314770,NO2,13,64,32
India,Chhattisgarh,Bhilai,"32Bungalows, Bhilai - CECB",13-09-2025 07:00:00,21.194815,81.314770,SO2,6,8,7
India,Chhattisgarh,Bhilai,"32Bungalows, Bhilai - CECB",13-09-2025 07:00:00,21.194815,81.314770,CO,10,28,12
India,Chhattisgarh,Bhilai,"32Bungalows, Bhilai - CECB",13-09-2025 07:00:00,21.194815,81.314770,OZONE,5,28,9
India,Delhi,Delhi,"Aya Nagar, Delhi - IMD",13-09-2025 07:00:00,28.4706914,77.1099364,OZONE,10,54,15
India,Delhi,Delhi,"Bawana, Delhi - DPCC",13-09-2025 07:00:00,28.776200,77.051074,PM2.5,37,110,61
India,Delhi,Delhi,"Burari Crossing, Delhi - IMD",13-09-2025 07:00:00,28.7256504,77.2011573,CO,28,54,40
India,Delhi,Delhi,"CRRI Mathura Road, Delhi - IMD",13-09-2025 07:00:00,28.5512005,77.2735737,PM2.5,29,91,53
India,Delhi,Delhi,"CRRI Mathura Road, Delhi - IMD",13-09-2025 07:00:00,28.5512005,77.2735737,OZONE,17,57,44
India,Delhi,Delhi,"Chandni Chowk, Delhi - IITM",13-09-2025 07:00:00,28.656756,77.227234,NH3,NA,NA,NA
India,Delhi,Delhi,"Chandni Chowk, Delhi - IITM",13-09-2025 07:00:00,28.656756,77.227234,OZONE,NA,NA,NA
India,Chhattisgarh,Bhilai,"Civic Center, Bhilai - Bhilai Steel Plant",13-09-2025 07:00:00,21.185571,81.343175,OZONE,8,12,9
India,Chhattisgarh,Bhilai,"Hathkhoj, Bhilai - CECB",13-09-2025 07:00:00,21.224231,81.408350,PM2.5,21,83,40
India,Chhattisgarh,Bhilai,"Hathkhoj, Bhilai - CECB",13-09-2025 07:00:00,21.224231,81.408350,NO2,12,45,21
India,Chhattisgarh,Bhilai,"Hathkhoj, Bhilai - CECB",13-09-2025 07:00:00,21.224231,81.408350,SO2,8,11,9
India,Chhattisgarh,Bilaspur,"Mangala, Bilaspur - NTPC",13-09-2025 07:00:00,22.08815,82.13737,SO2,3,33,22
India,Chhattisgarh,Korba,"Rampur, Korba - CECB",13-09-2025 07:00:00,22.368195,82.746431,NH3,1,1,1
India,Bihar,Muzaffarpur,"Muzaffarpur Collectorate, Muzaffarpur - BSPCB",13-09-2025 07:00:00,26.1209,85.3647,CO,16,45,18
India,Bihar,Patna,"DRM Office Danapur, Patna - BSPCB",13-09-2025 07:00:00,25.586562,85.043586,PM2.5,NA,NA,NA
India,Bihar,Patna,"DRM Office Danapur, Patna - BSPCB",13-09-2025 07:00:00,25.586562,85.043586,NO2,27,34,31
India,Bihar,Patna,"Govt. High School Shikarpur, Patna - BSPCB",13-09-2025 07:00:00,25.592539,85.227158,NO2,4,6,5
India,Bihar,Patna,"Govt. High School Shikarpur, Patna - BSPCB",13-09-2025 07:00:00,25.592539,85.227158,OZONE,7,13,10
India,Bihar,Patna,"IGSC Planetarium Complex, Patna - BSPCB",13-09-2025 07:00:00,25.610369,85.132568,NO2,12,16,14
India,Bihar,Patna,"IGSC Planetarium Complex, Patna - BSPCB",13-09-2025 07:00:00,25.610369,85.132568,CO,81,98,86
India,Bihar,Patna,"Muradpur, Patna - BSPCB",13-09-2025 07:00:00,25.619651,85.147382,SO2,8,11,9
India,Bihar,Patna,"Rajbansi Nagar, Patna - BSPCB",13-09-2025 07:00:00,25.599486,85.113666,SO2,5,9,7
India,Bihar,Patna,"Samanpura, Patna - BSPCB",13-09-2025 07:00:00,25.596727,85.085624,PM10,101,225,157
India,Delhi,Delhi,"DTU, Delhi - CPCB",13-09-2025 07:00:00,28.7500499,77.1112615,NH3,9,9,9
India,Delhi,Delhi,"DTU, Delhi - CPCB",13-09-2025 07:00:00,28.7500499,77.1112615,CO,6,27,24
India,Delhi,Delhi,"Dr. Karni Singh Shooting Range, Delhi - DPCC",13-09-2025 07:00:00,28.498571,77.264840,PM2.5,23,78,44
India,Delhi,Delhi,"IHBAS, Dilshad Garden, Delhi - CPCB",13-09-2025 07:00:00,28.6811736,77.3025234,PM2.5,59,71,64
India,Delhi,Delhi,"IHBAS, Dilshad Garden, Delhi - CPCB",13-09-2025 07:00:00,28.6811736,77.3025234,CO,16,26,23
India,Delhi,Delhi,"Sirifort, Delhi - CPCB",13-09-2025 07:00:00,28.5504249,77.2159377,SO2,25,26,25
India,Delhi,Delhi,"Sonia Vihar, Delhi - DPCC",13-09-2025 07:00:00,28.710508,77.249485,PM10,66,131,93
India,Delhi,Delhi,"Sonia Vihar, Delhi - DPCC",13-09-2025 07:00:00,28.710508,77.249485,NH3,6,8,7
India,Delhi,Delhi,"Sri Aurobindo Marg, Delhi - DPCC",13-09-2025 07:00:00,28.531346,77.190156,NO2,2,17,9
India,Delhi,Delhi,"Vivek Vihar, Delhi - DPCC",13-09-2025 07:00:00,28.672342,77.315260,SO2,7,22,11
India,Delhi,Delhi,"Wazirpur, Delhi - DPCC",13-09-2025 07:00:00,28.699793,77.165453,NO2,12,48,29
India,Gujarat,Ahmedabad,"SAC ISRO Bopal, Ahmedabad - IITM",13-09-2025 07:00:00,23.041137,72.456691,CO,22,53,32
India,Gujarat,Ahmedabad,"SAC ISRO Satellite, Ahmedabad - IITM",13-09-2025 07:00:00,23.023389,72.515201,NH3,4,6,4
India,Gujarat,Ahmedabad,"SVPI Airport Hansol, Ahmedabad - IITM",13-09-2025 07:00:00,23.076793,72.627874,PM2.5,14,54,32
India,Gujarat,Ankleshwar,"GIDC, Ankleshwar - GPCB",13-09-2025 07:00:00,21.613267,73.010555,NH3,5,7,7
India,Gujarat,Ankleshwar,"GIDC, Ankleshwar - GPCB",13-09-2025 07:00:00,21.613267,73.010555,SO2,65,83,79
India,Delhi,Delhi,"Mandir Marg, Delhi - DPCC",13-09-2025 07:00:00,28.636429,77.201067,CO,26,71,55
India,Delhi,Delhi,"Mundka, Delhi - DPCC",13-09-2025 07:00:00,28.684678,77.076574,NH3,2,3,3
India,Delhi,Delhi,"NSIT Dwarka, Delhi - CPCB",13-09-2025 07:00:00,28.60909,77.0325413,SO2,2,68,32
India,Delhi,Delhi,"Narela, Delhi - DPCC",13-09-2025 07:00:00,28.822836,77.101981,SO2,5,11,7
India,Delhi,Delhi,"Nehru Nagar, Delhi - DPCC",13-09-2025 07:00:00,28.567890,77.250515,PM10,57,194,97
India,Delhi,Delhi,"ITO, Delhi - CPCB",13-09-2025 07:00:00,28.628624,77.241060,PM10,10,65,43
India,Delhi,Delhi,"ITO, Delhi - CPCB",13-09-2025 07:00:00,28.628624,77.241060,NH3,4,6,5
India,Delhi,Delhi,"ITO, Delhi - CPCB",13-09-2025 07:00:00,28.628624,77.241060,CO,33,95,64
India,Delhi,Delhi,"Jawaharlal Nehru Stadium, Delhi - DPCC",13-09-2025 07:00:00,28.580280,77.233829,NO2,46,161,85
India,Delhi,Delhi,"Jawaharlal Nehru Stadium, Delhi - DPCC",13-09-2025 07:00:00,28.580280,77.233829,SO2,5,26,12
India,Delhi,Delhi,"Jawaharlal Nehru Stadium, Delhi - DPCC",13-09-2025 07:00:00,28.580280,77.233829,CO,135,196,194
India,Delhi,Delhi,"Nehru Nagar, Delhi - DPCC",13-09-2025 07:00:00,28.567890,77.250515,SO2,2,21,8
India,Delhi,Delhi,"Okhla Phase-2, Delhi - DPCC",13-09-2025 07:00:00,28.530785,77.271255,SO2,3,9,6
India,Delhi,Delhi,"Patparganj, Delhi - DPCC",13-09-2025 07:00:00,28.623763,77.287209,CO,28,56,46
India,Delhi,Delhi,"Patparganj, Delhi - DPCC",13-09-2025 07:00:00,28.623763,77.287209,OZONE,3,51,4
India,Delhi,Delhi,"Punjabi Bagh, Delhi - DPCC",13-09-2025 07:00:00,28.674045,77.131023,SO2,8,11,9
India,Gujarat,Gandhinagar,"IIPHG Lekawada, Gandhinagar - IITM",13-09-2025 07:00:00,23.243639,72.68994,PM2.5,28,134,57
India,Gujarat,Gandhinagar,"Sector-10, Gandhinagar - GPCB",13-09-2025 07:00:00,23.221714,72.654328,NH3,2,3,3
India,Gujarat,Surat,"Science Center, Surat - SMC",13-09-2025 07:00:00,21.170046,72.795405,PM10,16,69,44
India,Gujarat,Surat,"Science Center, Surat - SMC",13-09-2025 07:00:00,21.170046,72.795405,SO2,15,21,17
India,Delhi,Delhi,"Pusa, Delhi - IMD",13-09-2025 07:00:00,28.636110,77.173332,CO,28,65,49
India,Delhi,Delhi,"R K Puram, Delhi - DPCC",13-09-2025 07:00:00,28.563262,77.186937,PM2.5,35,111,60
India,Delhi,Delhi,"Rohini, Delhi - DPCC",13-09-2025 07:00:00,28.732528,77.119920,NH3,10,12,12
India,Delhi,Delhi,"Rohini, Delhi - DPCC",13-09-2025 07:00:00,28.732528,77.119920,CO,8,39,20
India,Delhi,Delhi,"Rohini, Delhi - DPCC",13-09-2025 07:00:00,28.732528,77.119920,OZONE,5,12,7
India,Gujarat,Ahmedabad,"Chandkheda, Ahmedabad - IITM",13-09-2025 07:00:00,23.107969,72.574648,PM2.5,20,49,34
India,Gujarat,Ahmedabad,"Maninagar, Ahmedabad - GPCB",13-09-2025 07:00:00,23.002657,72.591912,PM10,NA,NA,NA
India,Gujarat,Ahmedabad,"Raikhad, Ahmedabad - IITM",13-09-2025 07:00:00,23.020509,72.579261,CO,NA,NA,NA
India,Gujarat,Ahmedabad,"SAC ISRO Bopal, Ahmedabad - IITM",13-09-2025 07:00:00,23.041137,72.456691,NO2,19,26,22
India,Karnataka,Yadgir,"Collector Office, Yadgir - KSPCB",13-09-2025 07:00:00,16.7602,77.1428,PM10,16,58,34
India,Kerala,Eloor,"Udyogamandal, Eloor - Kerala PCB",13-09-2025 07:00:00,10.073232,76.302765,NO2,NA,NA,NA
India,Kerala,Eloor,"Udyogamandal, Eloor - Kerala PCB",13-09-2025 07:00:00,10.073232,76.302765,OZONE,11,15,12
India,Kerala,Kannur,"Thavakkara, Kannur - Kerala PCB",13-09-2025 07:00:00,11.875000,75.373200,PM2.5,54,59,56
India,Kerala,Kannur,"Thavakkara, Kannur - Kerala PCB",13-09-2025 07:00:00,11.875000,75.373200,PM10,55,59,56
India,Kerala,Kollam,"Polayathode, Kollam - Kerala PCB",13-09-2025 07:00:00,8.8787,76.6073,SO2,2,3,2
India,Kerala,Thiruvananthapuram,"Kariavattom, Thiruvananthapuram - Kerala PCB",13-09-2025 07:00:00,8.563700,76.886500,PM10,67,74,70
India,Kerala,Thiruvananthapuram,"Kariavattom, Thiruvananthapuram - Kerala PCB",13-09-2025 07:00:00,8.563700,76.886500,CO,30,60,40
India,Kerala,Thiruvananthapuram,"Kariavattom, Thiruvananthapuram - Kerala PCB",13-09-2025 07:00:00,8.563700,76.886500,OZONE,36,37,36
India,Kerala,Thiruvananthapuram,"Plammoodu, Thiruvananthapuram - Kerala PCB",13-09-2025 07:00:00,8.5149093,76.9435879,PM2.5,10,92,38
India,Jammu_and_Kashmir,Srinagar,"Rajbagh, Srinagar - JKSPCB",13-09-2025 07:00:00,34.066206,74.819820,PM2.5,28,44,36
India,Jammu_and_Kashmir,Srinagar,"Rajbagh, Srinagar - JKSPCB",13-09-2025 07:00:00,34.066206,74.819820,PM10,35,55,45
India,Jammu_and_Kashmir,Srinagar,"Rajbagh, Srinagar - JKSPCB",13-09-2025 07:00:00,34.066206,74.819820,OZONE,1,20,2
India,Jharkhand,Jorapokhar,"Tata Stadium, Jorapokhar - JSPCB",13-09-2025 07:00:00,23.707909,86.414670,OZONE,NA,NA,NA
India,Karnataka,Bagalkot,"Vidayagiri, Bagalkot - KSPCB",13-09-2025 07:00:00,16.172806,75.659694,PM10,42,43,42
India,Karnataka,Bagalkot,"Vidayagiri, Bagalkot - KSPCB",13-09-2025 07:00:00,16.172806,75.659694,NO2,9,11,9
India,Karnataka,Bengaluru,"BTM Layout, Bengaluru - CPCB",13-09-2025 07:00:00,12.9135218,77.5950804,PM10,48,49,48
India,Karnataka,Bengaluru,"Bapuji Nagar, Bengaluru - KSPCB",13-09-2025 07:00:00,12.951913,77.539784,PM2.5,53,113,73
India,Karnataka,Bengaluru,"Bapuji Nagar, Bengaluru - KSPCB",13-09-2025 07:00:00,12.951913,77.539784,NO2,4,20,11
India,Karnataka,Bengaluru,"Bapuji Nagar, Bengaluru - KSPCB",13-09-2025 07:00:00,12.951913,77.539784,SO2,1,21,11
India,Karnataka,Kalaburagi,"Lal Bahadur Shastri Nagar, Kalaburagi - KSPCB",13-09-2025 07:00:00,17.321993,76.822628,OZONE,20,20,20
India,Karnataka,Kalaburagi,"Mahatma Basaveswar Colony, Kalaburgi - KSPCB",13-09-2025 07:00:00,17.336318,76.847397,PM10,20,50,36
India,Karnataka,Kalaburagi,"Mahatma Basaveswar Colony, Kalaburgi - KSPCB",13-09-2025 07:00:00,17.336318,76.847397,OZONE,NA,NA,NA
India,Karnataka,Karwar,"KHB Colony, Karwar - KSPCB",13-09-2025 07:00:00,14.816666,74.141003,SO2,26,37,27
India,Karnataka,Koppal,"Diwator Nagar, Koppal - KSPCB",13-09-2025 07:00:00,15.347630,76.181767,NO2,NA,NA,NA
India,Karnataka,Koppal,"Diwator Nagar, Koppal - KSPCB",13-09-2025 07:00:00,15.347630,76.181767,NH3,NA,NA,NA
India,Karnataka,Madikeri,"Stuart Hill, Madikeri - KSPCB",13-09-2025 07:00:00,12.415911,75.735050,PM10,23,37,29
India,Karnataka,Madikeri,"Stuart Hill, Madikeri - KSPCB",13-09-2025 07:00:00,12.415911,75.735050,SO2,7,8,7
India,Karnataka,Madikeri,"Stuart Hill, Madikeri - KSPCB",13-09-2025 07:00:00,12.415911,75.735050,OZONE,4,6,5
India,Karnataka,Mangalore,"Kadri, Mangalore - KSPCB",13-09-2025 07:00:00,12.889250,74.853000,PM10,35,47,41
India,Gujarat,Vatva,"Phase-4 GIDC, Vatva - GPCB",13-09-2025 07:00:00,22.969611,72.643500,PM2.5,21,38,27
India,Haryana,Gurugram,"NISE Gwal Pahari, Gurugram - IMD",13-09-2025 07:00:00,28.422681,77.148944,CO,41,58,56
India,Haryana,Gurugram,"NISE Gwal Pahari, Gurugram - IMD",13-09-2025 07:00:00,28.422681,77.148944,OZONE,10,43,12
India,Haryana,Panchgaon,"Amity University, Panchgaon - IITM",13-09-2025 07:00:00,28.3153,76.9143,PM2.5,38,61,46
India,Himachal Pradesh,Baddi,"HIMUDA Complex Phase-1, Baddi - HPPCB",13-09-2025 07:00:00,30.943887,76.801991,NH3,7,9,8
India,Himachal Pradesh,Baddi,"HIMUDA Complex Phase-1, Baddi - HPPCB",13-09-2025 07:00:00,30.943887,76.801991,SO2,19,68,31
India,Himachal Pradesh,Baddi,"HIMUDA Complex Phase-1, Baddi - HPPCB",13-09-2025 07:00:00,30.943887,76.801991,CO,40,84,49
India,Kerala,Thiruvananthapuram,"Plammoodu, Thiruvananthapuram - Kerala PCB",13-09-2025 07:00:00,8.5149093,76.9435879,CO,4,54,7
India,Kerala,Thiruvananthapuram,"Plammoodu, Thiruvananthapuram - Kerala PCB",13-09-2025 07:00:00,8.5149093,76.9435879,OZONE,13,18,15
India,Kerala,Thrissur,"Corporation Ground, Thrissur - Kerala PCB",13-09-2025 07:00:00,10.532400,76.215900,PM10,47,61,55
India,Kerala,Thrissur,"Corporation Ground, Thrissur - Kerala PCB",13-09-2025 07:00:00,10.532400,76.215900,CO,18,30,21
India,Kerala,Thrissur,"Corporation Ground, Thrissur - Kerala PCB",13-09-2025 07:00:00,10.532400,76.215900,OZONE,28,30,28
India,Madhya Pradesh,Bhopal,"Paryavaran Parisar, Bhopal - MPPCB",13-09-2025 07:00:00,23.210494,77.425409,OZONE,40,60,42
India,Karnataka,Bengaluru,"RVCE-Mailasandra, Bengaluru - KSPCB",13-09-2025 07:00:00,12.921418,77.502466,OZONE,20,22,21
India,Karnataka,Bengaluru,"Sanegurava Halli, Bengaluru - KSPCB",13-09-2025 07:00:00,12.990328,77.5431385,PM10,39,44,40
India,Karnataka,Bengaluru,"Shivapura_Peenya, Bengaluru - KSPCB",13-09-2025 07:00:00,13.0246342,77.5080115,OZONE,23,25,24
India,Karnataka,Bengaluru,"Silk Board, Bengaluru - KSPCB",13-09-2025 07:00:00,12.917348,77.622813,SO2,8,12,10
India,Karnataka,Bengaluru,"Silk Board, Bengaluru - KSPCB",13-09-2025 07:00:00,12.917348,77.622813,CO,30,61,33
India,Karnataka,Mysuru,"Hebbal 1st Stage, Mysuru - KSPCB",13-09-2025 07:00:00,12.21041,76.37376,PM10,45,71,58
India,Karnataka,Mysuru,"Hebbal 1st Stage, Mysuru - KSPCB",13-09-2025 07:00:00,12.21041,76.37376,NO2,9,36,22
India,Karnataka,Ramanagara,"Vijay Nagar, Ramanagara - KSPCB",13-09-2025 07:00:00,12.733409,77.298051,PM2.5,NA,NA,NA
India,Karnataka,Vijayapura,"Ibrahimpur, Vijayapura - KSPCB",13-09-2025 07:00:00,16.802639,75.722694,PM10,43,44,44
India,Karnataka,Vijayapura,"Ibrahimpur, Vijayapura - KSPCB",13-09-2025 07:00:00,16.802639,75.722694,NH3,1,2,1
India,Karnataka,Chikkaballapur,"Chikkaballapur Rural, Chikkaballapur - KSPCB",13-09-2025 07:00:00,13.428828,77.731418,OZONE,18,22,20
India,Karnataka,Chikkamagaluru,"Kalyana Nagara, Chikkamagaluru - KSPCB",13-09-2025 07:00:00,13.328028,75.797056,NO2,21,38,26
India,Karnataka,Chikkamagaluru,"Kalyana Nagara, Chikkamagaluru - KSPCB",13-09-2025 07:00:00,13.328028,75.797056,NH3,2,10,4
India,Karnataka,Hubballi,"Lingaraj Nagar, Hubballi - KSPCB",13-09-2025 07:00:00,15.3714823,75.1160168,NO2,7,7,7
India,Karnataka,Bengaluru,"Hebbal, Bengaluru - KSPCB",13-09-2025 07:00:00,13.029152,77.585901,CO,12,23,14
India,Karnataka,Bengaluru,"Hebbal, Bengaluru - KSPCB",13-09-2025 07:00:00,13.029152,77.585901,OZONE,7,9,8
India,Karnataka,Bengaluru,"Jayanagar 5th Block, Bengaluru - KSPCB",13-09-2025 07:00:00,12.920984,77.584908,PM2.5,28,78,41
India,Karnataka,Bengaluru,"Jayanagar 5th Block, Bengaluru - KSPCB",13-09-2025 07:00:00,12.920984,77.584908,NH3,1,1,1
India,Karnataka,Bengaluru,"RVCE-Mailasandra, Bengaluru - KSPCB",13-09-2025 07:00:00,12.921418,77.502466,NO2,35,38,37
India,Madhya Pradesh,Damoh,"Shrivastav Colony, Damoh - MPPCB",13-09-2025 07:00:00,23.81748678,79.446246,SO2,14,40,25
India,Madhya Pradesh,Dewas,"Bhopal Chauraha, Dewas - MPPCB",13-09-2025 07:00:00,22.9682591,76.064118,PM2.5,29,54,37
India,Madhya Pradesh,Dewas,"Bhopal Chauraha, Dewas - MPPCB",13-09-2025 07:00:00,22.9682591,76.064118,NH3,3,5,4
India,Madhya Pradesh,Dewas,"Bhopal Chauraha, Dewas - MPPCB",13-09-2025 07:00:00,22.9682591,76.064118,CO,10,24,13
India,Madhya Pradesh,Gwalior,"City Center, Gwalior - MPPCB",13-09-2025 07:00:00,26.203442,78.193251,PM2.5,27,76,40
India,Madhya Pradesh,Gwalior,"City Center, Gwalior - MPPCB",13-09-2025 07:00:00,26.203442,78.193251,PM10,27,100,55
India,Madhya Pradesh,Gwalior,"City Center, Gwalior - MPPCB",13-09-2025 07:00:00,26.203442,78.193251,SO2,7,26,19
India,Madhya Pradesh,Gwalior,"City Center, Gwalior - MPPCB",13-09-2025 07:00:00,26.203442,78.193251,OZONE,23,45,29
India,Madhya Pradesh,Gwalior,"Deen Dayal Nagar, Gwalior - MPPCB",13-09-2025 07:00:00,26.259242,78.216432,OZONE,53,98,60
India,Madhya Pradesh,Gwalior,"Maharaj Bada, Gwalior - MPPCB",13-09-2025 07:00:00,26.200388,78.147714,CO,2,94,20
India,Madhya Pradesh,Gwalior,"Maharaj Bada, Gwalior - MPPCB",13-09-2025 07:00:00,26.200388,78.147714,OZONE,16,27,19
India,Madhya Pradesh,Indore,"Airport Area, Indore - IMC",13-09-2025 07:00:00,22.7289,75.8076,PM10,34,51,43
India,Maharashtra,Aurangabad,"More Chowk Waluj, Aurangabad - MPCB",13-09-2025 07:00:00,19.8389439,75.244448,NH3,10,12,11
India,Maharashtra,Aurangabad,"More Chowk Waluj, Aurangabad - MPCB",13-09-2025 07:00:00,19.8389439,75.244448,CO,1,106,34
India,Maharashtra,Aurangabad,"Rachnakar Colony, Aurangabad - MPCB",13-09-2025 07:00:00,19.863756,75.321188,PM2.5,23,46,34
India,Maharashtra,Aurangabad,"Rachnakar Colony, Aurangabad - MPCB",13-09-2025 07:00:00,19.863756,75.321188,PM10,44,98,56
India,Maharashtra,Aurangabad,"Rachnakar Colony, Aurangabad - MPCB",13-09-2025 07:00:00,19.863756,75.321188,SO2,7,27,15
India,Maharashtra,Belapur,"CBD Belapur, Belapur - MPCB",13-09-2025 07:00:00,19.0243902,73.0406721,SO2,1,6,3
India,Maharashtra,Belapur,"CBD Belapur, Belapur - MPCB",13-09-2025 07:00:00,19.0243902,73.0406721,CO,7,37,18
India,Maharashtra,Bhiwandi,"Gokul Nagar, Bhiwandi - MPCB",13-09-2025 07:00:00,19.309073,73.057223,SO2,5,19,11
India,Maharashtra,Boisar,"Khaira, Boisar - MPCB",13-09-2025 07:00:00,19.786089,72.757971,PM2.5,4,49,27
India,Maharashtra,Ahmednagar,"Tarakpur, Ahmednagar - MPCB",13-09-2025 07:00:00,19.10122,74.73339,OZONE,6,31,11
India,Maharashtra,Akola,"Ramdaspeth, Akola - MPCB",13-09-2025 07:00:00,20.719516,77.000253,PM2.5,23,52,37
India,Maharashtra,Akola,"Ramdaspeth, Akola - MPCB",13-09-2025 07:00:00,20.719516,77.000253,NH3,5,7,6
India,Maharashtra,Amravati,"Shivneri Colony, Amravati - MPCB",13-09-2025 07:00:00,20.9402359,77.7895248,PM2.5,29,64,47
India,Maharashtra,Amravati,"Shivneri Colony, Amravati - MPCB",13-09-2025 07:00:00,20.9402359,77.7895248,NH3,2,3,3
India,Maharashtra,Amravati,"Shri Shivaji Science College, Amravati - MPCB",13-09-2025 07:00:00,20.939198,77.765701,PM2.5,32,59,45
India,Maharashtra,Aurangabad,"MIDC Chilkalthana, Aurangabad - MPCB",13-09-2025 07:00:00,19.875620,75.387310,NO2,8,43,18
India,Maharashtra,Aurangabad,"MIDC Chilkalthana, Aurangabad - MPCB",13-09-2025 07:00:00,19.875620,75.387310,OZONE,12,54,27
India,Maharashtra,Boisar,"Khaira, Boisar - MPCB",13-09-2025 07:00:00,19.786089,72.757971,SO2,4,15,8
India,Maharashtra,Chandrapur,"Chauhan Colony, Chandrapur - MPCB",13-09-2025 07:00:00,19.962900,79.298714,CO,22,30,24
India,Maharashtra,Chandrapur,"MIDC Khutala, Chandrapur - MPCB",13-09-2025 07:00:00,19.9775302,79.2337086,SO2,1,7,3
India,Maharashtra,Chandrapur,"MIDC Khutala, Chandrapur - MPCB",13-09-2025 07:00:00,19.9775302,79.2337086,CO,45,60,58
India,Maharashtra,Chandrapur,"MIDC Khutala, Chandrapur - MPCB",13-09-2025 07:00:00,19.9775302,79.2337086,OZONE,18,44,27
India,Maharashtra,Dhule,"Deopur, Dhule - MPCB",13-09-2025 07:00:00,20.918946,74.776388,PM2.5,26,74,50
India,Maharashtra,Jalgaon,"Prabhat Colony, Jalgaon - MPCB",13-09-2025 07:00:00,21.001264,75.565602,PM2.5,38,87,65
India,Maharashtra,Jalgaon,"Prabhat Colony, Jalgaon - MPCB",13-09-2025 07:00:00,21.001264,75.565602,OZONE,19,59,28
India,Madhya Pradesh,Pithampur,"Sector-2 Industrial Area, Pithampur - MPPCB",13-09-2025 07:00:00,22.624758,75.675238,SO2,15,20,17
India,Madhya Pradesh,Ratlam,"Shasthri Nagar, Ratlam - IPCA Lab",13-09-2025 07:00:00,23.331731,75.045981,PM10,46,125,72
India,Madhya Pradesh,Satna,"Bandhavgar Colony, Satna - Birla Cement",13-09-2025 07:00:00,24.58434363,80.8549414,NO2,13,36,26
India,Madhya Pradesh,Singrauli,"Suryakiran Bhawan NCL, Singrauli - MPPCB",13-09-2025 07:00:00,24.108970,82.645580,PM10,82,406,125
India,Madhya Pradesh,Singrauli,"Suryakiran Bhawan NCL, Singrauli - MPPCB",13-09-2025 07:00:00,24.108970,82.645580,OZONE,11,50,15
India,Maharashtra,Kalyan,"Khadakpada, Kalyan - MPCB",13-09-2025 07:00:00,19.25292,73.142019,NO2,8,11,9
India,Maharashtra,Kalyan,"Khadakpada, Kalyan - MPCB",13-09-2025 07:00:00,19.25292,73.142019,CO,10,15,12
India,Maharashtra,Kolhapur,"Shivaji University, Kolhapur - MPCB",13-09-2025 07:00:00,16.6870449,74.2505872,PM2.5,5,36,22
India,Maharashtra,Kolhapur,"Shivaji University, Kolhapur - MPCB",13-09-2025 07:00:00,16.6870449,74.2505872,SO2,1,3,2
India,Maharashtra,Kolhapur,"Sinchan Bhavan, Kolhapur - MPCB",13-09-2025 07:00:00,16.7143745,74.2426398,PM10,18,84,48
India,Maharashtra,Latur,"Sawe Wadi, Latur - MPCB",13-09-2025 07:00:00,18.39963,76.57452,CO,14,50,50
India,Madhya Pradesh,Jabalpur,"Gupteshwar, Jabalpur - JMC",13-09-2025 07:00:00,23.142888,79.916147,NH3,5,7,6
India,Madhya Pradesh,Jabalpur,"Marhatal, Jabalpur - MPPCB",13-09-2025 07:00:00,23.168606,79.932247,NO2,NA,NA,NA
India,Madhya Pradesh,Jabalpur,"Suhagi, Jabalpur - JMC",13-09-2025 07:00:00,23.218135,79.957770,PM10,12,74,40
India,Madhya Pradesh,Katni,"Gole Bazar, Katni - MPPCB",13-09-2025 07:00:00,23.50016,80.23284,PM2.5,22,47,31
India,Madhya Pradesh,Pithampur,"Sector-2 Industrial Area, Pithampur - MPPCB",13-09-2025 07:00:00,22.624758,75.675238,PM10,49,111,83
India,Madhya Pradesh,Indore,"Chhoti Gwaltoli, Indore - MPPCB",13-09-2025 07:00:00,22.4310,75.5213,PM2.5,44,61,51
India,Madhya Pradesh,Indore,"Maguda Nagar, Indore - IMC",13-09-2025 07:00:00,22.7524,75.8872,NO2,1,2,2
India,Madhya Pradesh,Indore,"Residency Area, Indore - IMC",13-09-2025 07:00:00,22.7084,75.8815,OZONE,8,13,11
India,Madhya Pradesh,Jabalpur,"Govindh Bhavan Colony, Jabalpur - JMC",13-09-2025 07:00:00,23.163174,79.973061,PM2.5,17,43,30
India,Madhya Pradesh,Jabalpur,"Govindh Bhavan Colony, Jabalpur - JMC",13-09-2025 07:00:00,23.163174,79.973061,PM10,24,72,42
India,Maharashtra,Mumbai,"Bandra Kurla Complex, Mumbai - MPCB",13-09-2025 07:00:00,19.065931,72.862131,PM2.5,NA,NA,NA
India,Maharashtra,Mumbai,"Bandra Kurla Complex, Mumbai - MPCB",13-09-2025 07:00:00,19.065931,72.862131,NH3,4,29,16
India,Maharashtra,Mumbai,"Bandra Kurla Complex, Mumbai - MPCB",13-09-2025 07:00:00,19.065931,72.862131,OZONE,1,18,1
India,Maharashtra,Mumbai,"Kandivali West, Mumbai - BMC",13-09-2025 07:00:00,19.215859,72.831718,PM10,12,37,23
India,Maharashtra,Mumbai,"Kandivali West, Mumbai - BMC",13-09-2025 07:00:00,19.215859,72.831718,NO2,4,22,13
India,Maharashtra,Mumbai,"Kandivali West, Mumbai - BMC",13-09-2025 07:00:00,19.215859,72.831718,SO2,1,4,2
India,Maharashtra,Mumbai,"Kherwadi_Bandra East, Mumbai - MPCB",13-09-2025 07:00:00,19.0632143,72.8456324,SO2,3,4,3
India,Maharashtra,Mumbai,"Khindipada-Bhandup West, Mumbai - IITM",13-09-2025 07:00:00,19.1653323,72.922099,PM10,10,52,26
India,Maharashtra,Mumbai,"Khindipada-Bhandup West, Mumbai - IITM",13-09-2025 07:00:00,19.1653323,72.922099,NO2,2,8,5
India,Maharashtra,Mumbai,"Kurla, Mumbai - MPCB",13-09-2025 07:00:00,19.0863,72.8888,SO2,36,37,37
India,Maharashtra,Mumbai,"Kurla, Mumbai - MPCB",13-09-2025 07:00:00,19.0863,72.8888,OZONE,28,29,28
India,Maharashtra,Mumbai,"Malad West, Mumbai - IITM",13-09-2025 07:00:00,19.19709,72.82204,NH3,7,11,9
India,Maharashtra,Mumbai,"Malad West, Mumbai - IITM",13-09-2025 07:00:00,19.19709,72.82204,CO,2,45,6
India,Maharashtra,Mumbai,"Mazgaon, Mumbai - IITM",13-09-2025 07:00:00,18.96702,72.84214,PM2.5,8,66,28
India,Maharashtra,Mumbai,"Mazgaon, Mumbai - IITM",13-09-2025 07:00:00,18.96702,72.84214,PM10,20,65,34
India,Maharashtra,Pimpri-Chinchwad,"Gavalinagar, Pimpri Chinchwad - MPCB",13-09-2025 07:00:00,18.63673,73.82487,OZONE,7,42,11
India,Maharashtra,Pimpri-Chinchwad,"Park Street Wakad, Pimpri Chinchwad - MPCB",13-09-2025 07:00:00,18.59051,73.77946,PM10,47,91,70
India,Maharashtra,Pimpri-Chinchwad,"Park Street Wakad, Pimpri Chinchwad - MPCB",13-09-2025 07:00:00,18.59051,73.77946,NO2,11,30,18
India,Maharashtra,Pimpri-Chinchwad,"Savta Mali Nagar, Pimpri-Chinchwad - IITM",13-09-2025 07:00:00,18.614767,73.799516,CO,53,84,67
India,Maharashtra,Pimpri-Chinchwad,"Thergaon, Pimpri Chinchwad - MPCB",13-09-2025 07:00:00,18.616318,73.765797,PM2.5,30,61,44
India,Maharashtra,Pimpri-Chinchwad,"Thergaon, Pimpri Chinchwad - MPCB",13-09-2025 07:00:00,18.616318,73.765797,NO2,13,39,20
India,Maharashtra,Pimpri-Chinchwad,"Thergaon, Pimpri Chinchwad - MPCB",13-09-2025 07:00:00,18.616318,73.765797,OZONE,14,36,17
India,Maharashtra,Pune,"Bhosari, Pune - IITM",13-09-2025 07:00:00,18.640051,73.848956,OZONE,7,49,16
India,Maharashtra,Pune,"Bhumkar Nagar, Pune - IITM",13-09-2025 07:00:00,18.605770,73.749976,PM2.5,19,41,27
India,Maharashtra,Mumbai,"Borivali East, Mumbai - IITM",13-09-2025 07:00:00,19.23241,72.86895,CO,9,28,12
India,Maharashtra,Mumbai,"Byculla, Mumbai - BMC",13-09-2025 07:00:00,18.9767,72.8380,PM10,26,83,47
India,Maharashtra,Mumbai,"Byculla, Mumbai - BMC",13-09-2025 07:00:00,18.9767,72.8380,NH3,3,21,9
India,Maharashtra,Mumbai,"Byculla, Mumbai - BMC",13-09-2025 07:00:00,18.9767,72.8380,CO,4,28,24
India,Maharashtra,Mumbai,"Chakala-Andheri East, Mumbai - IITM",13-09-2025 07:00:00,19.11074,72.86084,SO2,1,38,16
India,Maharashtra,Mumbai,"Chembur, Mumbai - MPCB",13-09-2025 07:00:00,19.0364585,72.8954371,NO2,1,47,11
India,Maharashtra,Mumbai,"Chembur, Mumbai - MPCB",13-09-2025 07:00:00,19.0364585,72.8954371,NH3,5,9,6
India,Maharashtra,Mumbai,"Chembur, Mumbai - MPCB",13-09-2025 07:00:00,19.0364585,72.8954371,OZONE,2,32,4
India,Maharashtra,Mumbai,"Chhatrapati Shivaji Intl. Airport (T2), Mumbai - MPCB",13-09-2025 07:00:00,19.10078,72.87462,PM2.5,34,48,40
India,Maharashtra,Navi Mumbai,"Mahape, Navi Mumbai - MPCB",13-09-2025 07:00:00,19.1135051,73.008978,OZONE,7,11,10
India,Maharashtra,Navi Mumbai,"Sanpada, Navi Mumbai - MPCB",13-09-2025 07:00:00,19.0575752,73.0151367,NO2,1,17,9
India,Maharashtra,Navi Mumbai,"Sector-2E Kalamboli, Navi Mumbai - MPCB",13-09-2025 07:00:00,19.02579,73.10297,PM2.5,39,73,53
India,Maharashtra,Navi Mumbai,"Sector-2E Kalamboli, Navi Mumbai - MPCB",13-09-2025 07:00:00,19.02579,73.10297,PM10,43,99,68
India,Maharashtra,Navi Mumbai,"Sector-2E Kalamboli, Navi Mumbai - MPCB",13-09-2025 07:00:00,19.02579,73.10297,OZONE,5,37,15
India,Maharashtra,Navi Mumbai,"Tondare-Taloja, Navi Mumbai - MPCB",13-09-2025 07:00:00,19.0630,73.1209,NH3,3,6,4
India,Maharashtra,Navi Mumbai,"Tondare-Taloja, Navi Mumbai - MPCB",13-09-2025 07:00:00,19.0630,73.1209,SO2,14,16,15
India,Maharashtra,Parbhani,"Masoom Colony, Parbhani - MPCB",13-09-2025 07:00:00,19.265594,76.761463,PM2.5,14,54,28
India,Maharashtra,Mumbai,"Mazgaon, Mumbai - IITM",13-09-2025 07:00:00,18.96702,72.84214,CO,22,91,75
India,Maharashtra,Mumbai,"Mindspace-Malad West, Mumbai - MPCB",13-09-2025 07:00:00,19.1878657,72.8304069,CO,30,31,30
India,Maharashtra,Mumbai,"Mulund West, Mumbai - MPCB",13-09-2025 07:00:00,19.1750,72.9419,NH3,4,4,4
India,Maharashtra,Mumbai,"Navy Nagar-Colaba, Mumbai - IITM",13-09-2025 07:00:00,18.897756,72.813320,NO2,15,130,66
India,Maharashtra,Mumbai,"Sewri, Mumbai - BMC",13-09-2025 07:00:00,19.000084,72.856730,NO2,1,9,3
India,Maharashtra,Mumbai,"Sewri, Mumbai - BMC",13-09-2025 07:00:00,19.000084,72.856730,NH3,4,16,7
India,Maharashtra,Mumbai,"Shivaji Nagar, Mumbai - BMC",13-09-2025 07:00:00,19.060498,72.923356,NH3,3,4,3
India,Maharashtra,Nagpur,"Mahal, Nagpur - MPCB",13-09-2025 07:00:00,21.14472,79.107595,OZONE,2,13,4
India,Maharashtra,Nanded,"Sneh Nagar, Nanded - MPCB",13-09-2025 07:00:00,19.173852,77.296291,PM10,NA,NA,NA
India,Maharashtra,Nanded,"Sneh Nagar, Nanded - MPCB",13-09-2025 07:00:00,19.173852,77.296291,OZONE,NA,NA,NA
India,Maharashtra,Nashik,"Gangapur Road, Nashik - MPCB",13-09-2025 07:00:00,20.0073285,73.7762427,PM2.5,22,56,40
India,Maharashtra,Nashik,"Gangapur Road, Nashik - MPCB",13-09-2025 07:00:00,20.0073285,73.7762427,SO2,1,9,5
India,Maharashtra,Nashik,"Gangapur Road, Nashik - MPCB",13-09-2025 07:00:00,20.0073285,73.7762427,OZONE,21,23,22
India,Maharashtra,Nashik,"Hirawadi, Nashik - MPCB",13-09-2025 07:00:00,20.021503,73.813844,PM2.5,19,43,29
India,Maharashtra,Nashik,"Hirawadi, Nashik - MPCB",13-09-2025 07:00:00,20.021503,73.813844,PM10,40,73,57
India,Maharashtra,Nashik,"Hirawadi, Nashik - MPCB",13-09-2025 07:00:00,20.021503,73.813844,SO2,1,6,3
India,Maharashtra,Nashik,"Hirawadi, Nashik - MPCB",13-09-2025 07:00:00,20.021503,73.813844,CO,9,19,12
India,Maharashtra,Nashik,"MIDC Ambad, Nashik - MPCB",13-09-2025 07:00:00,19.950220,73.731480,OZONE,6,20,10
India,Maharashtra,Nashik,"Pandav Nagari, Nashik - MPCB",13-09-2025 07:00:00,19.9591346,73.7788008,NO2,1,8,4
India,Maharashtra,Navi Mumbai,"Kopripada-Vashi, Navi Mumbai - MPCB",13-09-2025 07:00:00,19.090337,73.014232,PM10,17,80,39
India,Maharashtra,Navi Mumbai,"Kopripada-Vashi, Navi Mumbai - MPCB",13-09-2025 07:00:00,19.090337,73.014232,NO2,6,32,14
India,Maharashtra,Navi Mumbai,"Kopripada-Vashi, Navi Mumbai - MPCB",13-09-2025 07:00:00,19.090337,73.014232,NH3,3,6,4
India,Maharashtra,Mumbai,"Siddharth Nagar-Worli, Mumbai - IITM",13-09-2025 07:00:00,19.000083,72.813993,PM10,32,81,54
India,Maharashtra,Mumbai,"Siddharth Nagar-Worli, Mumbai - IITM",13-09-2025 07:00:00,19.000083,72.813993,NH3,5,6,6
India,Maharashtra,Mumbai,"Siddharth Nagar-Worli, Mumbai - IITM",13-09-2025 07:00:00,19.000083,72.813993,CO,2,84,2
India,Maharashtra,Mumbai,"Vasai West, Mumbai - MPCB",13-09-2025 07:00:00,19.383200,72.820400,NO2,16,37,28
India,Maharashtra,Nagpur,"Mahal, Nagpur - MPCB",13-09-2025 07:00:00,21.14472,79.107595,CO,14,82,34
India,Maharashtra,Mumbai,"Colaba, Mumbai - MPCB",13-09-2025 07:00:00,18.910000,72.820000,PM2.5,NA,NA,NA
India,Maharashtra,Mumbai,"Colaba, Mumbai - MPCB",13-09-2025 07:00:00,18.910000,72.820000,OZONE,NA,NA,NA
India,Maharashtra,Mumbai,"Deonar, Mumbai - IITM",13-09-2025 07:00:00,19.04946,72.9230,PM2.5,7,47,24
India,Maharashtra,Mumbai,"Ghatkopar, Mumbai - BMC",13-09-2025 07:00:00,19.083694,72.920967,PM2.5,5,34,16
India,Maharashtra,Mumbai,"Ghatkopar, Mumbai - BMC",13-09-2025 07:00:00,19.083694,72.920967,NH3,1,9,4
India,Punjab,Khanna,"Kalal Majra, Khanna - PPCB",13-09-2025 07:00:00,30.736056 ,76.209694,PM10,29,66,47
India,Punjab,Khanna,"Kalal Majra, Khanna - PPCB",13-09-2025 07:00:00,30.736056 ,76.209694,NH3,7,8,7
India,Punjab,Khanna,"Kalal Majra, Khanna - PPCB",13-09-2025 07:00:00,30.736056 ,76.209694,OZONE,30,34,32
India,Punjab,Ludhiana,"Punjab Agricultural University, Ludhiana - PPCB",13-09-2025 07:00:00,30.9028,75.8086,PM2.5,36,62,52
India,Punjab,Mandi Gobindgarh,"RIMT University, Mandi Gobindgarh - PPCB",13-09-2025 07:00:00,30.649961,76.331442,CO,8,42,22
India,Punjab,Patiala,"Model Town, Patiala - PPCB",13-09-2025 07:00:00,30.349388,76.366642,PM10,36,56,44
India,Punjab,Patiala,"Model Town, Patiala - PPCB",13-09-2025 07:00:00,30.349388,76.366642,NO2,16,18,17
India,Punjab,Patiala,"Model Town, Patiala - PPCB",13-09-2025 07:00:00,30.349388,76.366642,NH3,6,7,6
India,Nagaland,Kohima,"PWD Junction, Kohima - NPCB",13-09-2025 07:00:00,25.6635413,94.0989878,OZONE,6,19,7
India,Odisha,Angul,"Hakimapada, Angul - OSPCB",13-09-2025 07:00:00,20.832874,85.104082,NH3,2,3,3
India,Odisha,Angul,"Hakimapada, Angul - OSPCB",13-09-2025 07:00:00,20.832874,85.104082,CO,21,86,58
India,Odisha,Balasore,"Kalidaspur, Balasore - OSPCB",13-09-2025 07:00:00,21.51161,86.89088,NH3,3,4,3
India,Odisha,Baripada,"Meher Colony, Baripada - OSPCB",13-09-2025 07:00:00,21.941841,86.728318,PM2.5,25,49,36
India,Odisha,Bhubaneswar,"Lingraj Mandir, Bhubaneswar - OSPCB",13-09-2025 07:00:00,20.240790,85.836784,PM10,13,51,25
India,Odisha,Bhubaneswar,"Lingraj Mandir, Bhubaneswar - OSPCB",13-09-2025 07:00:00,20.240790,85.836784,NO2,5,29,10
India,Odisha,Bhubaneswar,"Patia, Bhubaneswar - OSPCB",13-09-2025 07:00:00,20.34652,85.81630,SO2,2,4,3
India,Odisha,Bileipada,"Tata Township, Bileipada - OSPCB",13-09-2025 07:00:00,22.06156703,85.47409613,PM10,52,141,90
India,Odisha,Brajrajnagar,"GM Office, Brajrajnagar - OSPCB",13-09-2025 07:00:00,21.8004996,83.8396977,OZONE,24,26,25
India,Odisha,Byasanagar,"Ferro Chrome Colony, Byasanagar - OSPCB",13-09-2025 07:00:00,20.94185,86.11510,PM10,12,38,25
India,Maharashtra,Pune,"Transport Nagar-Nigdi, Pune - IITM",13-09-2025 07:00:00,18.664282,73.763966,OZONE,2,53,13
India,Maharashtra,Sangli,"Vijay Nagar, Sangli - MPCB",13-09-2025 07:00:00, 16.5038,74.3623,PM2.5,50,71,59
India,Maharashtra,Solapur,"Dnyaneshwar Nagar, Solapur - MPCB",13-09-2025 07:00:00,17.6336264,75.9132495,OZONE,4,26,6
India,Maharashtra,Solapur,"Ratandeep Housing Society, Solapur - MPCB",13-09-2025 07:00:00,17.65439,75.90649,PM2.5,29,52,39
India,Maharashtra,Thane,"Kasarvadavali, Thane - MPCB",13-09-2025 07:00:00,19.26777,72.97182,NO2,8,24,15
India,Odisha,Rourkela,"Raghunathpali, Rourkela - OSPCB",13-09-2025 07:00:00,22.220833,84.809444,NO2,NA,NA,NA
India,Odisha,Rourkela,"Raghunathpali, Rourkela - OSPCB",13-09-2025 07:00:00,22.220833,84.809444,OZONE,4,16,7
India,Odisha,Suakati,"OMC Colony, Suakati - OSPCB",13-09-2025 07:00:00,21.606865,85.510538,PM2.5,26,61,42
India,Odisha,Suakati,"OMC Colony, Suakati - OSPCB",13-09-2025 07:00:00,21.606865,85.510538,PM10,33,66,50
India,Odisha,Tensa,"Barsua Iron Ore Mines, Tensa - OSPCB",13-09-2025 07:00:00,21.869985,85.167016,PM2.5,NA,NA,NA
India,Punjab,Bathinda,"Hardev Nagar, Bathinda - PPCB",13-09-2025 07:00:00,30.233011,74.907758,PM10,12,66,33
India,Rajasthan,Ajmer,"Civil Lines,  Ajmer - RSPCB",13-09-2025 07:00:00,26.470859,74.646594,PM2.5,37,53,43
India,Rajasthan,Alwar,"Moti Doongri, Alwar - RSPCB",13-09-2025 07:00:00,27.554793,76.611536,CO,16,53,38
India,Rajasthan,Alwar,"Moti Doongri, Alwar - RSPCB",13-09-2025 07:00:00,27.554793,76.611536,OZONE,20,65,31
India,Rajasthan,Banswara,"Rati Talai, Banswara - RSPCB",13-09-2025 07:00:00,23.555190,74.440010,CO,11,52,18
India,Rajasthan,Baran,"Bamboliya, Baran - RSPCB",13-09-2025 07:00:00,25.106006,76.469948,NH3,3,4,3
India,Rajasthan,Baran,"Bamboliya, Baran - RSPCB",13-09-2025 07:00:00,25.106006,76.469948,CO,13,31,22
India,Maharashtra,Thane,"Upvan Fort, Thane - MPCB",13-09-2025 07:00:00,19.222279,72.957979,NH3,1,7,2
India,Maharashtra,Thane,"Upvan Fort, Thane - MPCB",13-09-2025 07:00:00,19.222279,72.957979,OZONE,1,11,2
India,Maharashtra,Ulhasnagar,"Sidhi Vinayak Nagar, Ulhasnagar - MPCB",13-09-2025 07:00:00,19.235581,73.159121,SO2,6,23,14
India,Maharashtra,Virar,"Bolinj, Virar - MPCB",13-09-2025 07:00:00,19.4458210,72.7988231,OZONE,3,20,4
India,Maharashtra,Pune,"Bhumkar Nagar, Pune - IITM",13-09-2025 07:00:00,18.605770,73.749976,PM10,56,86,70
India,Maharashtra,Pune,"Katraj Dairy, Pune - MPCB",13-09-2025 07:00:00,18.454450,73.854155,SO2,3,4,4
India,Maharashtra,Pune,"Katraj Dairy, Pune - MPCB",13-09-2025 07:00:00,18.454450,73.854155,CO,6,100,24
India,Maharashtra,Pune,"Mhada Colony, Pune - IITM",13-09-2025 07:00:00,18.573040,73.927715,PM10,78,110,99
India,Odisha,Keonjhar,"Jagamohanpur, Keonjhar - OSPCB",13-09-2025 07:00:00,21.643900,85.599355,CO,2,106,64
India,Odisha,Nayagarh,"Dabuna, Nayagarh - OSPCB",13-09-2025 07:00:00,21.847279,85.416905,NO2,7,35,21
India,Odisha,Nayagarh,"Dabuna, Nayagarh - OSPCB",13-09-2025 07:00:00,21.847279,85.416905,NH3,5,9,6
India,Odisha,Nayagarh,"Dabuna, Nayagarh - OSPCB",13-09-2025 07:00:00,21.847279,85.416905,CO,16,22,20
India,Rajasthan,Bharatpur,"Krishna Nagar, Bharatpur - RSPCB",13-09-2025 07:00:00,27.215415,77.50873,PM2.5,25,50,33
India,Rajasthan,Bharatpur,"Krishna Nagar, Bharatpur - RSPCB",13-09-2025 07:00:00,27.215415,77.50873,NH3,6,13,8
India,Rajasthan,Bharatpur,"Krishna Nagar, Bharatpur - RSPCB",13-09-2025 07:00:00,27.215415,77.50873,OZONE,33,46,36
India,Rajasthan,Bhilwara,"Pratap Nagar, Bhilwara - RSPCB",13-09-2025 07:00:00,25.339605,74.618883,NH3,1,1,1
India,Rajasthan,Bhiwadi,"Vasundhara Nagar_UIT, Bhiwadi - RSPCB",13-09-2025 07:00:00,28.207266,76.829265,NO2,6,50,22
India,Rajasthan,Bhiwadi,"Vasundhara Nagar_UIT, Bhiwadi - RSPCB",13-09-2025 07:00:00,28.207266,76.829265,NH3,5,7,6
India,Rajasthan,Bhiwadi,"Vasundhara Nagar_UIT, Bhiwadi - RSPCB",13-09-2025 07:00:00,28.207266,76.829265,SO2,13,25,19
India,Rajasthan,Bikaner,"MM Ground, Bikaner - RSPCB",13-09-2025 07:00:00,28.018792,73.292658,PM2.5,3,62,18
India,Rajasthan,Bikaner,"MM Ground, Bikaner - RSPCB",13-09-2025 07:00:00,28.018792,73.292658,NO2,5,19,10
India,Rajasthan,Bikaner,"MM Ground, Bikaner - RSPCB",13-09-2025 07:00:00,28.018792,73.292658,SO2,2,4,3
India,Rajasthan,Bundi,"New Colony, Bundi - RSPCB",13-09-2025 07:00:00,25.435774,75.644272,OZONE,6,56,27
India,Rajasthan,Chittorgarh,"Shastri Nagar, Chittorgarh - RSPCB",13-09-2025 07:00:00,24.892047,74.623527,CO,5,34,10
India,Rajasthan,Chittorgarh,"Shastri Nagar, Chittorgarh - RSPCB",13-09-2025 07:00:00,24.892047,74.623527,OZONE,2,44,8
India,Rajasthan,Churu,"Subash Chowk, Churu - RSPCB",13-09-2025 07:00:00,28.296139,74.961696,OZONE,19,46,26
India,Rajasthan,Dausa,"Khatikan Mohalla, Dausa - RSPCB",13-09-2025 07:00:00,26.895552,76.334753,NH3,7,11,9
India,Rajasthan,Dausa,"Khatikan Mohalla, Dausa - RSPCB",13-09-2025 07:00:00,26.895552,76.334753,CO,17,76,23
India,Rajasthan,Karauli,"Satyawati Vihar, Karauli - RSPCB",13-09-2025 07:00:00,26.506177,77.025989,CO,7,48,41
India,Rajasthan,Kota,"Dhanmandi, Kota - RSPCB",13-09-2025 07:00:00,25.164090,75.858137,CO,4,52,21
India,Rajasthan,Kota,"Nayapura, Kota - RSPCB",13-09-2025 07:00:00,25.196024,75.855668,NO2,9,57,22
India,Rajasthan,Kota,"Nayapura, Kota - RSPCB",13-09-2025 07:00:00,25.196024,75.855668,OZONE,3,56,14
India,Rajasthan,Nagaur,"Karni Colony, Nagaur - RSPCB",13-09-2025 07:00:00,27.213494,73.734444,SO2,5,8,6
India,Rajasthan,Nagaur,"Karni Colony, Nagaur - RSPCB",13-09-2025 07:00:00,27.213494,73.734444,CO,7,24,18
India,Rajasthan,Pali,"Indira Colony Vistar, Pali - RSPCB",13-09-2025 07:00:00,25.771061, 73.340227,PM10,51,102,74
India,Rajasthan,Pratapgarh,"Pragati Nagar, Pratapgarh - RSPCB",13-09-2025 07:00:00,24.041198,74.780702,PM10,38,189,96
India,Rajasthan,Pratapgarh,"Pragati Nagar, Pratapgarh - RSPCB",13-09-2025 07:00:00,24.041198,74.780702,SO2,1,5,2
India,Rajasthan,Pratapgarh,"Pragati Nagar, Pratapgarh - RSPCB",13-09-2025 07:00:00,24.041198,74.780702,CO,8,22,11
India,Rajasthan,Rajsamand,"Dhoinda, Rajsamand - RSPCB",13-09-2025 07:00:00,25.036360,73.883502,OZONE,13,81,22
India,Rajasthan,Sikar,"Radhakishan Pura, Sikar - RSPCB",13-09-2025 07:00:00,27.608912,75.153302,NO2,9,28,15
India,Rajasthan,Sirohi,"Vedhaynath Colony, Sirohi - RSPCB",13-09-2025 07:00:00,24.885261,72.857549,PM2.5,35,60,47
India,Rajasthan,Sirohi,"Vedhaynath Colony, Sirohi - RSPCB",13-09-2025 07:00:00,24.885261,72.857549,NH3,2,4,3
India,Rajasthan,Jodhpur,"Digari Kalan, Jodhpur - RSPCB",13-09-2025 07:00:00,26.295810,73.082283,PM2.5,18,43,28
India,Rajasthan,Jodhpur,"Digari Kalan, Jodhpur - RSPCB",13-09-2025 07:00:00,26.295810,73.082283,NO2,6,47,22
India,Rajasthan,Jodhpur,"Digari Kalan, Jodhpur - RSPCB",13-09-2025 07:00:00,26.295810,73.082283,NH3,2,5,3
India,Rajasthan,Jodhpur,"Jhalamand, Jodhpur - RSPCB",13-09-2025 07:00:00,26.215415,73.070156,OZONE,8,41,12
India,Rajasthan,Jodhpur,"Mandor, Jodhpur - RSPCB",13-09-2025 07:00:00,26.358805,73.047444,SO2,2,4,3
India,Rajasthan,Jodhpur,"Mandor, Jodhpur - RSPCB",13-09-2025 07:00:00,26.358805,73.047444,CO,13,24,15
India,Rajasthan,Jodhpur,"Samrat Ashok Udhyan, Jodhpur - RSPCB",13-09-2025 07:00:00,26.253384,72.976571,PM10,25,92,47
India,Rajasthan,Jodhpur,"Samrat Ashok Udhyan, Jodhpur - RSPCB",13-09-2025 07:00:00,26.253384,72.976571,SO2,2,17,8
India,Rajasthan,Jaipur,"Mansarovar Sector-12, Jaipur - RSPCB",13-09-2025 07:00:00,26.843698,75.766894,NH3,5,8,7
India,Rajasthan,Jaipur,"Police Commissionerate, Jaipur - RSPCB",13-09-2025 07:00:00,26.9164092,75.7994901,SO2,9,18,14
India,Rajasthan,Jaipur,"Police Commissionerate, Jaipur - RSPCB",13-09-2025 07:00:00,26.9164092,75.7994901,CO,5,120,52
India,Rajasthan,Jaipur,"RIICO Sitapura, Jaipur - RSPCB",13-09-2025 07:00:00,26.786682,75.827928,SO2,1,4,2
India,Rajasthan,Jaipur,"Sector-2 Murlipura, Jaipur - RSPCB",13-09-2025 07:00:00,26.960669,75.771817,PM2.5,30,71,44
India,Rajasthan,Jaipur,"Sector-2 Murlipura, Jaipur - RSPCB",13-09-2025 07:00:00,26.960669,75.771817,NO2,14,58,25
India,Rajasthan,Sri Ganganagar,"Old City, Sri Ganganagar - RSPCB",13-09-2025 07:00:00,29.931624,73.864511,PM2.5,13,187,57
India,Rajasthan,Sri Ganganagar,"Old City, Sri Ganganagar - RSPCB",13-09-2025 07:00:00,29.931624,73.864511,SO2,NA,NA,NA
India,Rajasthan,Udaipur,"Ashok Nagar, Udaipur - RSPCB",13-09-2025 07:00:00,24.5886166,73.6321397,OZONE,6,31,17
India,Sikkim,Gangtok,"Zero Point GICI, Gangtok - SSPCB",13-09-2025 07:00:00,27.338530,88.614099,PM2.5,7,26,16
India,TamilNadu,Ariyalur,"Keelapalur, Ariyalur - TNPCB",13-09-2025 07:00:00,11.06825,79.07033,SO2,12,13,13
India,Rajasthan,Jalore,"Mudtra Sili, Jalore - RSPCB",13-09-2025 07:00:00,25.344694,72.626208,PM10,38,101,70
India,Rajasthan,Jalore,"Mudtra Sili, Jalore - RSPCB",13-09-2025 07:00:00,25.344694,72.626208,NO2,2,23,10
India,Rajasthan,Jalore,"Mudtra Sili, Jalore - RSPCB",13-09-2025 07:00:00,25.344694,72.626208,NH3,3,5,4
India,Rajasthan,Jhalawar,"Rajlaxmi Nagar, Jhalawar - RSPCB",13-09-2025 07:00:00,24.588397,76.172782,PM2.5,22,98,49
India,Rajasthan,Jodhpur,"Collectorate, Jodhpur - RSPCB",13-09-2025 07:00:00,26.268249,73.0193853,PM2.5,23,99,62
India,Rajasthan,Jodhpur,"Collectorate, Jodhpur - RSPCB",13-09-2025 07:00:00,26.268249,73.0193853,PM10,36,149,67
India,Rajasthan,Hanumangarh,"Housing Board, Hanumangarh - RSPCB",13-09-2025 07:00:00,29.610750,74.283608,PM10,26,70,42
India,Rajasthan,Hanumangarh,"Housing Board, Hanumangarh - RSPCB",13-09-2025 07:00:00,29.610750,74.283608,OZONE,8,28,18
India,TamilNadu,Perundurai,"SIPCOT Industrial Park, Perundurai - TNPCB",13-09-2025 07:00:00,11.258242,77.552761,SO2,NA,NA,NA
India,TamilNadu,Perundurai,"SIPCOT Industrial Park, Perundurai - TNPCB",13-09-2025 07:00:00,11.258242,77.552761,CO,NA,NA,NA
India,TamilNadu,Pudukottai,"SIPCOT Nathampannai, Pudukottai - TNPCB",13-09-2025 07:00:00,10.423417,78.784889,NH3,2,4,3
India,TamilNadu,Ramanathapuram,"Chalai Bazaar, Ramanathapuram - TNPCB",13-09-2025 07:00:00,9.36399,78.831977,PM2.5,29,49,38
India,TamilNadu,Ramanathapuram,"Chalai Bazaar, Ramanathapuram - TNPCB",13-09-2025 07:00:00,9.36399,78.831977,PM10,29,59,42
India,TamilNadu,Ramanathapuram,"Chalai Bazaar, Ramanathapuram - TNPCB",13-09-2025 07:00:00,9.36399,78.831977,SO2,10,22,14
India,TamilNadu,Salem,"Sona College of Technology, Salem - TNPCB",13-09-2025 07:00:00,11.679111,78.125052,PM2.5,28,153,50
India,TamilNadu,Thanjavur,"Parisutham Nagar, Thanjavur - TNPCB",13-09-2025 07:00:00,10.7654824,79.1389968,CO,8,11,10
India,TamilNadu,Karur,"Kamadenu Nagar, Karur - TNPCB",13-09-2025 07:00:00,10.967820,78.080882,SO2,14,37,16
India,TamilNadu,Karur,"Kamadenu Nagar, Karur - TNPCB",13-09-2025 07:00:00,10.967820,78.080882,OZONE,7,10,8
India,TamilNadu,Madurai,"Uchapatti, Madurai - TNPCB",13-09-2025 07:00:00,9.865935,78.022669,NO2,16,16,16
India,TamilNadu,Madurai,"Uchapatti, Madurai - TNPCB",13-09-2025 07:00:00,9.865935,78.022669,NH3,4,4,4
India,TamilNadu,Madurai,"Uchapatti, Madurai - TNPCB",13-09-2025 07:00:00,9.865935,78.022669,OZONE,6,6,6
India,TamilNadu,Nagapattinam,"Velippalayam, Nagapattinam - TNPCB",13-09-2025 07:00:00,10.798548,79.838212,PM2.5,22,40,30
India,TamilNadu,Nagapattinam,"Velippalayam, Nagapattinam - TNPCB",13-09-2025 07:00:00,10.798548,79.838212,NO2,5,6,5
India,TamilNadu,Nagapattinam,"Velippalayam, Nagapattinam - TNPCB",13-09-2025 07:00:00,10.798548,79.838212,NH3,2,2,2
India,TamilNadu,Nagapattinam,"Velippalayam, Nagapattinam - TNPCB",13-09-2025 07:00:00,10.798548,79.838212,CO,10,20,14
India,TamilNadu,Palkalaiperur,"Bharathidasan University, Palkalaiperur - TNPCB",13-09-2025 07:00:00,10.681158,78.741746,NH3,1,1,1
India,TamilNadu,Cuddalore,"Kudikadu, Cuddalore - TNPCB",13-09-2025 07:00:00,11.6829898,79.7532099,OZONE,6,9,8
India,TamilNadu,Cuddalore,"Semmandalam, Cuddalore - TNPCB",13-09-2025 07:00:00,11.7637683,79.7499835,OZONE,1,2,2
India,TamilNadu,Dindigul,"Mendonsa Colony, Dindigul - TNPCB",13-09-2025 07:00:00,10.358535,77.984321,CO,6,21,8
India,TamilNadu,Gummidipoondi,"Anthoni Pillai Nagar, Gummidipoondi - TNPCB",13-09-2025 07:00:00,13.4127,80.1081,PM10,84,177,128
India,TamilNadu,Hosur,"SIPCOT Phase-1, Hosur - TNPCB",13-09-2025 07:00:00,12.746998,77.813811,NH3,1,1,1
India,TamilNadu,Hosur,"SIPCOT Phase-1, Hosur - TNPCB",13-09-2025 07:00:00,12.746998,77.813811,OZONE,3,19,8
India,TamilNadu,Kanchipuram,"Kilambi, Kanchipuram - TNPCB",13-09-2025 07:00:00,12.864618,79.659968,SO2,NA,NA,NA
India,Telangana,Hyderabad,"Central University, Hyderabad - TSPCB",13-09-2025 07:00:00,17.460103,78.334361,PM2.5,NA,NA,NA
India,Telangana,Hyderabad,"ECIL Kapra, Hyderabad - TSPCB",13-09-2025 07:00:00,17.470431,78.566959,PM10,57,72,62
India,Telangana,Hyderabad,"ECIL Kapra, Hyderabad - TSPCB",13-09-2025 07:00:00,17.470431,78.566959,SO2,8,16,11
India,Telangana,Hyderabad,"ICRISAT Patancheru, Hyderabad - TSPCB",13-09-2025 07:00:00,17.518400,78.278777,OZONE,19,34,27
India,Telangana,Hyderabad,"IITH Kandi, Hyderabad - TSPCB",13-09-2025 07:00:00,17.585705,78.126199,NO2,11,13,13
India,Telangana,Hyderabad,"IITH Kandi, Hyderabad - TSPCB",13-09-2025 07:00:00,17.585705,78.126199,CO,18,38,25
India,Telangana,Hyderabad,"IITH Kandi, Hyderabad - TSPCB",13-09-2025 07:00:00,17.585705,78.126199,OZONE,15,29,29
India,Telangana,Hyderabad,"Kokapet, Hyderabad - TSPCB",13-09-2025 07:00:00,17.393559,78.339194,PM2.5,40,51,43
India,TamilNadu,Tirunelveli,"Municipal Corporation Office, Tirunelveli - TNPCB",13-09-2025 07:00:00,8.728442,77.6962,PM2.5,14,48,25
India,TamilNadu,Tirunelveli,"Municipal Corporation Office, Tirunelveli - TNPCB",13-09-2025 07:00:00,8.728442,77.6962,CO,20,22,20
India,TamilNadu,Tirupur,"Kumaran College, Tirupur - TNPCB",13-09-2025 07:00:00,11.0973603,77.3228673,CO,14,24,15
India,TamilNadu,Virudhunagar,"Collectorate Office, Virudhunagar - TNPCB",13-09-2025 07:00:00,9.559382,77.948828,NO2,19,19,19
India,Telangana,Hyderabad,"Bollaram Industrial Area, Hyderabad - TSPCB",13-09-2025 07:00:00,17.540891,78.358528,PM10,18,65,36
India,Telangana,Hyderabad,"Bollaram Industrial Area, Hyderabad - TSPCB",13-09-2025 07:00:00,17.540891,78.358528,NH3,3,7,4
India,TamilNadu,Chennai,"Alandur Bus Depot, Chennai - CPCB",13-09-2025 07:00:00,12.9099161,80.1076538,PM2.5,17,18,17
India,TamilNadu,Chennai,"Alandur Bus Depot, Chennai - CPCB",13-09-2025 07:00:00,12.9099161,80.1076538,OZONE,3,16,8
India,TamilNadu,Chennai,"Arumbakkam, Chennai - TNPCB",13-09-2025 07:00:00,13.0664,80.2112 ,SO2,1,3,2
India,TamilNadu,Chennai,"Kodungaiyur, Chennai - TNPCB",13-09-2025 07:00:00,13.1278,80.2642,NO2,7,103,16
India,TamilNadu,Chennai,"Manali Village, Chennai - TNPCB",13-09-2025 07:00:00,13.1662,80.2584,SO2,17,20,18
India,TamilNadu,Chennai,"Manali Village, Chennai - TNPCB",13-09-2025 07:00:00,13.1662,80.2584,OZONE,30,49,46
India,TamilNadu,Chennai,"Manali, Chennai - CPCB",13-09-2025 07:00:00,13.164544,80.26285,CO,11,47,26
India,TamilNadu,Chennai,"Perungudi, Chennai - TNPCB",13-09-2025 07:00:00,12.9533,80.2357,PM2.5,33,85,52
India,TamilNadu,Chennai,"Royapuram, Chennai - TNPCB",13-09-2025 07:00:00,13.1036,80.2909,PM2.5,32,71,49
India,TamilNadu,Chennai,"Royapuram, Chennai - TNPCB",13-09-2025 07:00:00,13.1036,80.2909,SO2,2,4,3
India,TamilNadu,Chennai,"Royapuram, Chennai - TNPCB",13-09-2025 07:00:00,13.1036,80.2909,OZONE,8,11,9
India,TamilNadu,Chennai,"Velachery Res. Area, Chennai - CPCB",13-09-2025 07:00:00,13.0052189,80.2398125,OZONE,8,12,8
India,TamilNadu,Coimbatore,"SIDCO Kurichi, Coimbatore - TNPCB",13-09-2025 07:00:00,10.942451,76.978996,PM10,NA,NA,NA
India,TamilNadu,Coimbatore,"SIDCO Kurichi, Coimbatore - TNPCB",13-09-2025 07:00:00,10.942451,76.978996,CO,1,146,73
India,Telangana,Hyderabad,"Kokapet, Hyderabad - TSPCB",13-09-2025 07:00:00,17.393559,78.339194,NO2,11,15,12
India,Telangana,Hyderabad,"Kokapet, Hyderabad - TSPCB",13-09-2025 07:00:00,17.393559,78.339194,CO,23,30,29
India,Telangana,Hyderabad,"Kokapet, Hyderabad - TSPCB",13-09-2025 07:00:00,17.393559,78.339194,OZONE,21,31,22
India,Telangana,Hyderabad,"Kompally Municipal Office, Hyderabad - TSPCB",13-09-2025 07:00:00,17.544899,78.486949,NO2,17,21,20
India,Telangana,Hyderabad,"New Malakpet, Hyderabad - TSPCB",13-09-2025 07:00:00,17.37206,78.50864,PM10,63,72,67
India,Telangana,Hyderabad,"New Malakpet, Hyderabad - TSPCB",13-09-2025 07:00:00,17.37206,78.50864,NO2,14,17,15
India,Telangana,Hyderabad,"New Malakpet, Hyderabad - TSPCB",13-09-2025 07:00:00,17.37206,78.50864,NH3,3,4,3
India,Uttar_Pradesh,Ghaziabad,"Sanjay Nagar, Ghaziabad - UPPCB",13-09-2025 07:00:00,28.685382,77.453839,PM2.5,20,113,55
India,Uttar_Pradesh,Ghaziabad,"Sanjay Nagar, Ghaziabad - UPPCB",13-09-2025 07:00:00,28.685382,77.453839,NH3,3,5,3
India,Uttar_Pradesh,Ghaziabad,"Vasundhara, Ghaziabad - UPPCB",13-09-2025 07:00:00,28.6603346,77.3572563,PM2.5,32,92,53
India,Uttar_Pradesh,Gorakhpur,"Madan Mohan Malaviya University of Technology, Gorakhpur - UPPCB",13-09-2025 07:00:00,26.730136,83.433859,PM2.5,16,302,70
India,Uttar_Pradesh,Greater Noida,"Knowledge Park - III, Greater Noida - UPPCB",13-09-2025 07:00:00,28.47272,77.482000,PM10,93,432,183
India,Uttar_Pradesh,Greater Noida,"Knowledge Park - III, Greater Noida - UPPCB",13-09-2025 07:00:00,28.47272,77.482000,CO,13,125,79
India,Uttar_Pradesh,Greater Noida,"Knowledge Park - V, Greater Noida - UPPCB",13-09-2025 07:00:00,28.557054,77.453663,PM2.5,29,110,59
India,Uttar_Pradesh,Greater Noida,"Knowledge Park - V, Greater Noida - UPPCB",13-09-2025 07:00:00,28.557054,77.453663,NO2,34,104,62
India,Telangana,Hyderabad,"Zoo Park, Hyderabad - TSPCB",13-09-2025 07:00:00,17.349694,78.451437,SO2,3,8,5
India,Tripura,Agartala,"Bardowali, Agartala - Tripura SPCB",13-09-2025 07:00:00,23.8175497,91.2726974,NO2,3,11,5
India,Uttar_Pradesh,Agra,"Manoharpur, Agra - UPPCB",13-09-2025 07:00:00,27.23711,78.01936,OZONE,8,8,8
India,Uttar_Pradesh,Agra,"Rohta, Agra - UPPCB",13-09-2025 07:00:00,27.106972,78.000111,NH3,5,5,5
India,Uttar_Pradesh,Agra,"Rohta, Agra - UPPCB",13-09-2025 07:00:00,27.106972,78.000111,OZONE,11,13,12
India,Uttar_Pradesh,Agra,"Sanjay Palace, Agra - UPPCB",13-09-2025 07:00:00,27.19865833,78.00598056,SO2,15,20,17
India,Uttar_Pradesh,Agra,"Sanjay Palace, Agra - UPPCB",13-09-2025 07:00:00,27.19865833,78.00598056,CO,34,60,50
India,Uttar_Pradesh,Agra,"Sector-3B Avas Vikas Colony, Agra - UPPCB",13-09-2025 07:00:00,27.19412,77.96237,PM10,75,140,104
India,Uttar_Pradesh,Agra,"Shahjahan Garden, Agra - UPPCB",13-09-2025 07:00:00,27.169338,78.03582,PM10,38,144,104
India,Uttar_Pradesh,Agra,"Shahjahan Garden, Agra - UPPCB",13-09-2025 07:00:00,27.169338,78.03582,NO2,38,38,38
India,Uttar_Pradesh,Agra,"Shahjahan Garden, Agra - UPPCB",13-09-2025 07:00:00,27.169338,78.03582,NH3,1,1,1
India,Uttar_Pradesh,Agra,"Shastripuram, Agra - UPPCB",13-09-2025 07:00:00,27.19862,77.92066,PM2.5,22,152,57
India,Uttar_Pradesh,Agra,"Shastripuram, Agra - UPPCB",13-09-2025 07:00:00,27.19862,77.92066,PM10,66,167,96
India,Uttar_Pradesh,Agra,"Shastripuram, Agra - UPPCB",13-09-2025 07:00:00,27.19862,77.92066,SO2,18,36,27
India,Uttar_Pradesh,Bareilly,"Civil Lines, Bareilly - UPPCB",13-09-2025 07:00:00,28.359581,79.414455,NH3,2,2,2
India,Uttar_Pradesh,Bareilly,"Civil Lines, Bareilly - UPPCB",13-09-2025 07:00:00,28.359581,79.414455,SO2,24,39,31
India,Uttar_Pradesh,Bareilly,"Civil Lines, Bareilly - UPPCB",13-09-2025 07:00:00,28.359581,79.414455,CO,4,14,11
India,Uttar_Pradesh,Bareilly,"Rajendra Nagar, Bareilly - UPPCB",13-09-2025 07:00:00,28.38910936,79.42963708,NO2,9,10,9
India,Uttar_Pradesh,Kanpur,"NSI Kalyanpur, Kanpur - UPPCB",13-09-2025 07:00:00,26.509954,80.249612,SO2,9,58,36
India,Uttar_Pradesh,Kanpur,"Nehru Nagar, Kanpur - UPPCB",13-09-2025 07:00:00,26.4703136,80.3229863,OZONE,6,61,6
India,Uttar_Pradesh,Khurja,"Kalindi Kunj, Khurja - UPPCB",13-09-2025 07:00:00,28.2348927,77.8683002,NH3,1,1,1
India,Uttar_Pradesh,Khurja,"Kalindi Kunj, Khurja - UPPCB",13-09-2025 07:00:00,28.2348927,77.8683002,CO,9,41,33
India,Uttar_Pradesh,Lucknow,"B R Ambedkar University, Lucknow - UPPCB",13-09-2025 07:00:00,26.766433,80.927299,PM2.5,54,203,128
India,Uttar_Pradesh,Lucknow,"B R Ambedkar University, Lucknow - UPPCB",13-09-2025 07:00:00,26.766433,80.927299,NH3,4,5,4
India,Uttar_Pradesh,Lucknow,"Kendriya Vidyalaya, Lucknow - CPCB",13-09-2025 07:00:00,26.906111,80.948222,OZONE,10,78,14
India,Uttar_Pradesh,Lucknow,"Kukrail Picnic Spot-1, Lucknow - UPPCB",13-09-2025 07:00:00,26.90723,80.98579,NH3,4,4,4
India,Uttar_Pradesh,Lucknow,"Lalbagh, Lucknow - CPCB",13-09-2025 07:00:00,26.8458805,80.9365541,PM2.5,NA,NA,NA
India,Uttar_Pradesh,Lucknow,"Lalbagh, Lucknow - CPCB",13-09-2025 07:00:00,26.8458805,80.9365541,PM10,32,82,63
India,Uttar_Pradesh,Lucknow,"Lalbagh, Lucknow - CPCB",13-09-2025 07:00:00,26.8458805,80.9365541,NH3,17,26,20
India,Uttar_Pradesh,Lucknow,"Talkatora District Industries Center, Lucknow - CPCB",13-09-2025 07:00:00,26.83399722,80.8917361,PM2.5,21,45,30
India,Uttar_Pradesh,Meerut,"Ganga Nagar, Meerut - UPPCB",13-09-2025 07:00:00,28.999264,77.7590354,NH3,4,4,4
India,Uttar_Pradesh,Meerut,"Jai Bhim Nagar, Meerut - UPPCB",13-09-2025 07:00:00,28.9535882,77.7622941,CO,23,40,33
India,Uttar_Pradesh,Firozabad,"Nagla Bhau, Firozabad - UPPCB",13-09-2025 07:00:00,27.168897,78.376960,SO2,21,35,29
India,Uttar_Pradesh,Firozabad,"Vibhab Nagar, Firozabad - UPPCB",13-09-2025 07:00:00,27.1594,78.3953,NH3,2,2,2
India,Uttar_Pradesh,Firozabad,"Vibhab Nagar, Firozabad - UPPCB",13-09-2025 07:00:00,27.1594,78.3953,OZONE,3,24,4
India,Uttar_Pradesh,Ghaziabad,"Indirapuram, Ghaziabad - UPPCB",13-09-2025 07:00:00,28.646233,77.358075,PM10,84,199,125
India,Uttar_Pradesh,Ghaziabad,"Indirapuram, Ghaziabad - UPPCB",13-09-2025 07:00:00,28.646233,77.358075,NO2,26,71,46
India,Uttar_Pradesh,Ghaziabad,"Loni, Ghaziabad - UPPCB",13-09-2025 07:00:00,28.757294,77.278792,SO2,6,17,12
India,Uttar_Pradesh,Ghaziabad,"Loni, Ghaziabad - UPPCB",13-09-2025 07:00:00,28.757294,77.278792,CO,10,84,61
India,Uttar_Pradesh,Meerut,"Pallavpuram Phase 2, Meerut - UPPCB",13-09-2025 07:00:00,29.063510,77.709723,PM10,68,115,91
India,Uttar_Pradesh,Moradabad,"Eco Herbal Park, Moradabad - UPPCB",13-09-2025 07:00:00,28.840739,78.697531,PM2.5,21,111,53
India,Uttar_Pradesh,Moradabad,"Eco Herbal Park, Moradabad - UPPCB",13-09-2025 07:00:00,28.840739,78.697531,CO,12,54,35
India,Uttar_Pradesh,Moradabad,"Employment Office, Moradabad - UPPCB",13-09-2025 07:00:00,28.88528,78.73880,CO,23,89,52
India,Uttar_Pradesh,Moradabad,"Jigar Colony, Moradabad - UPPCB",13-09-2025 07:00:00,28.856664,78.772638,NO2,24,25,25
India,Uttar_Pradesh,Moradabad,"Jigar Colony, Moradabad - UPPCB",13-09-2025 07:00:00,28.856664,78.772638,SO2,33,63,46
India,Uttar_Pradesh,Hapur,"Anand Vihar, Hapur - UPPCB",13-09-2025 07:00:00,28.725645,77.749675,PM10,70,218,110
India,Uttar_Pradesh,Hapur,"Anand Vihar, Hapur - UPPCB",13-09-2025 07:00:00,28.725645,77.749675,NH3,6,9,7
India,Uttar_Pradesh,Hapur,"Anand Vihar, Hapur - UPPCB",13-09-2025 07:00:00,28.725645,77.749675,CO,26,92,78
India,Uttar_Pradesh,Kanpur,"FTI Kidwai Nagar, Kanpur - UPPCB",13-09-2025 07:00:00,26.428282,80.327067,PM10,47,110,74
India,Telangana,Hyderabad,"Ramachandrapuram, Hyderabad - TSPCB",13-09-2025 07:00:00,17.528544,78.286195,OZONE,NA,NA,NA
India,Telangana,Hyderabad,"Somajiguda, Hyderabad - TSPCB",13-09-2025 07:00:00,17.417094,78.457437,SO2,NA,NA,NA
India,West_Bengal,Kolkata,"Bidhannagar, Kolkata - WBPCB",13-09-2025 07:00:00,22.58157048,88.41002457,OZONE,21,28,24
India,West_Bengal,Kolkata,"Fort William, Kolkata - WBPCB",13-09-2025 07:00:00,22.556640,88.342674,CO,18,33,20
India,West_Bengal,Kolkata,"Jadavpur, Kolkata - WBPCB",13-09-2025 07:00:00,22.49929,88.36917,SO2,6,8,7
India,West_Bengal,Kolkata,"Rabindra Bharati University, Kolkata - WBPCB",13-09-2025 07:00:00,22.627847,88.380669,PM2.5,15,36,21
India,West_Bengal,Kolkata,"Rabindra Sarobar, Kolkata - WBPCB",13-09-2025 07:00:00,22.51106,88.35142,PM10,24,35,28
India,West_Bengal,Kolkata,"Rabindra Sarobar, Kolkata - WBPCB",13-09-2025 07:00:00,22.51106,88.35142,SO2,3,7,5
India,West_Bengal,Kolkata,"Rabindra Sarobar, Kolkata - WBPCB",13-09-2025 07:00:00,22.51106,88.35142,OZONE,5,19,5
India,West_Bengal,Kolkata,"Victoria, Kolkata - WBPCB",13-09-2025 07:00:00,22.5448082,88.3403691,PM2.5,33,65,49
India,West_Bengal,Kolkata,"Victoria, Kolkata - WBPCB",13-09-2025 07:00:00,22.5448082,88.3403691,NO2,12,25,18
India,West_Bengal,Howrah,"Dasnagar, Howrah - WBPCB",13-09-2025 07:00:00,22.6025571,88.3105664,NH3,1,1,1
India,West_Bengal,Howrah,"Ghusuri, Howrah - WBPCB",13-09-2025 07:00:00,22.611968,88.347422,PM2.5,14,70,33
India,West_Bengal,Howrah,"Ghusuri, Howrah - WBPCB",13-09-2025 07:00:00,22.611968,88.347422,PM10,28,414,101
India,West_Bengal,Howrah,"Padmapukur, Howrah - WBPCB",13-09-2025 07:00:00,22.5687319,88.2797276,NO2,11,23,16
India,West_Bengal,Howrah,"Padmapukur, Howrah - WBPCB",13-09-2025 07:00:00,22.5687319,88.2797276,NH3,3,11,7
India,West_Bengal,Howrah,"Padmapukur, Howrah - WBPCB",13-09-2025 07:00:00,22.5687319,88.2797276,SO2,4,12,7
India,West_Bengal,Howrah,"Padmapukur, Howrah - WBPCB",13-09-2025 07:00:00,22.5687319,88.2797276,OZONE,13,32,16
India,West_Bengal,Kolkata,"Ballygunge, Kolkata - WBPCB",13-09-2025 07:00:00,22.5367507,88.3638022,OZONE,18,27,21
India,West_Bengal,Kolkata,"Bidhannagar, Kolkata - WBPCB",13-09-2025 07:00:00,22.58157048,88.41002457,NO2,13,16,15
India,West_Bengal,Asansol,"Evelyn Lodge, Asansol - WBPCB",13-09-2025 07:00:00,23.6979360,86.9443950,PM10,18,107,50
India,West_Bengal,Asansol,"Evelyn Lodge, Asansol - WBPCB",13-09-2025 07:00:00,23.6979360,86.9443950,SO2,4,6,5
India,West_Bengal,Asansol,"Mahabir Colliery, Asansol - WBPCB",13-09-2025 07:00:00,23.6181830,87.1057180,NO2,5,20,12
India,West_Bengal,Asansol,"Mahabir Colliery, Asansol - WBPCB",13-09-2025 07:00:00,23.6181830,87.1057180,OZONE,10,53,12
India,West_Bengal,Asansol,"Trivenidevi Bhalotia College, Asansol - WBPCB",13-09-2025 07:00:00,23.616515,87.119133,PM10,33,118,64
India,West_Bengal,Asansol,"Trivenidevi Bhalotia College, Asansol - WBPCB",13-09-2025 07:00:00,23.616515,87.119133,SO2,13,17,15
India,West_Bengal,Barrackpore,"SVSPA Campus, Barrackpore - WBPCB",13-09-2025 07:00:00,22.7605581,88.3617589,PM10,19,78,42
India,Uttar_Pradesh,Prayagraj,"Nagar Nigam, Prayagraj - UPPCB",13-09-2025 07:00:00,25.44919916 ,81.82735986 ,PM2.5,35,88,49
India,Uttar_Pradesh,Varanasi,"Ardhali Bazar, Varanasi - UPPCB",13-09-2025 07:00:00,25.3505986,82.9083074,PM10,25,85,56
India,Uttar_Pradesh,Varanasi,"Bhelupur, Varanasi - UPPCB",13-09-2025 07:00:00,25.301778,82.996789,PM10,61,114,89
India,Uttar_Pradesh,Varanasi,"Bhelupur, Varanasi - UPPCB",13-09-2025 07:00:00,25.301778,82.996789,SO2,25,29,27
India,Uttar_Pradesh,Varanasi,"Bhelupur, Varanasi - UPPCB",13-09-2025 07:00:00,25.301778,82.996789,CO,12,41,23
India,Uttar_Pradesh,Varanasi,"IESD Banaras Hindu University, Varanasi - UPPCB",13-09-2025 07:00:00,25.262326,82.995408,NO2,2,3,2
India,Uttar_Pradesh,Varanasi,"IESD Banaras Hindu University, Varanasi - UPPCB",13-09-2025 07:00:00,25.262326,82.995408,NH3,1,2,2
India,Uttar_Pradesh,Noida,"Sector - 62, Noida - IMD",13-09-2025 07:00:00,28.6245479,77.3577104,CO,20,48,43
India,Uttar_Pradesh,Noida,"Sector - 62, Noida - IMD",13-09-2025 07:00:00,28.6245479,77.3577104,OZONE,8,63,12
India,Uttar_Pradesh,Noida,"Sector-1, Noida - UPPCB",13-09-2025 07:00:00,28.5898,77.3101,PM10,74,137,113
India,Uttar_Pradesh,Noida,"Sector-1, Noida - UPPCB",13-09-2025 07:00:00,28.5898,77.3101,NO2,19,48,32
India,Uttar_Pradesh,Noida,"Sector-1, Noida - UPPCB",13-09-2025 07:00:00,28.5898,77.3101,CO,21,65,48
India,Uttar_Pradesh,Noida,"Sector-116, Noida - UPPCB",13-09-2025 07:00:00,28.569230,77.393848,CO,13,97,42
India,Uttar_Pradesh,Prayagraj,"Jhunsi, Prayagraj - UPPCB",13-09-2025 07:00:00,25.425602,81.917152,NO2,6,6,6
India,Uttar_Pradesh,Prayagraj,"Jhunsi, Prayagraj - UPPCB",13-09-2025 07:00:00,25.425602,81.917152,NH3,5,5,5
India,Uttar_Pradesh,Moradabad,"Jigar Colony, Moradabad - UPPCB",13-09-2025 07:00:00,28.856664,78.772638,OZONE,18,20,19
India,Uttar_Pradesh,Moradabad,"Kashiram Nagar, Moradabad - UPPCB",13-09-2025 07:00:00,28.849399,78.742362,NO2,25,25,25
India,Uttar_Pradesh,Moradabad,"Kashiram Nagar, Moradabad - UPPCB",13-09-2025 07:00:00,28.849399,78.742362,NH3,4,4,4
India,Uttar_Pradesh,Moradabad,"Transport Nagar, Moradabad - UPPCB",13-09-2025 07:00:00,28.802625,78.753728,CO,31,57,50
India,Uttar_Pradesh,Muzaffarnagar,"New Mandi, Muzaffarnagar - UPPCB",13-09-2025 07:00:00,29.4723508,77.7194031,PM2.5,32,88,48
India,Uttar_Pradesh,Muzaffarnagar,"New Mandi, Muzaffarnagar - UPPCB",13-09-2025 07:00:00,29.4723508,77.7194031,CO,30,50,37
India,West_Bengal,Durgapur,"PCBL Residential Complex, Durgapur - WBPCB",13-09-2025 07:00:00,23.5087640,87.3544400,OZONE,5,6,6
India,West_Bengal,Durgapur,"Womens College_City Center, Durgapur - WBPCB (Formerly known as Sidhu Kanhu Indoor Stadium)",13-09-2025 07:00:00,23.549395,87.300496,PM10,60,104,80
India,West_Bengal,Howrah,"Belur Math, Howrah - WBPCB",13-09-2025 07:00:00,22.629801,88.352017,PM2.5,6,90,34
India,West_Bengal,Howrah,"Botanical Garden, Howrah - WBPCB",13-09-2025 07:00:00,22.554954,88.292568,PM2.5,29,49,37
India,Uttarakhand,Dehradun,"Doon University, Dehradun - UKPCB",13-09-2025 07:00:00,30.269444,78.044167,OZONE,14,23,18
India,Uttarakhand,Rishikesh,"Shivaji Nagar, Rishikesh - UKPCB",13-09-2025 07:00:00,30.075911,78.2859547,PM2.5,6,61,25
India,Uttarakhand,Rishikesh,"Shivaji Nagar, Rishikesh - UKPCB",13-09-2025 07:00:00,30.075911,78.2859547,PM10,19,87,48
India,West_Bengal,Asansol,"Asansol Court Area, Asansol - WBPCB",13-09-2025 07:00:00,23.685297,86.945968,PM10,13,138,54
India,West_Bengal,Kolkata,"Victoria, Kolkata - WBPCB",13-09-2025 07:00:00,22.5448082,88.3403691,SO2,4,12,8
India,West_Bengal,Siliguri,"Ward-32 Bapupara, Siliguri - WBPCB",13-09-2025 07:00:00,26.6879226,88.4152495,SO2,10,13,11
India,West_Bengal,Siliguri,"Ward-32 Bapupara, Siliguri - WBPCB",13-09-2025 07:00:00,26.6879226,88.4152495,OZONE,26,31,29
India,Andhra_Pradesh,Chittoor,"Gangineni Cheruvu, Chittoor - APPCB",13-09-2025 07:00:00,13.204880,79.097889,PM10,67,120,91
India,Andhra_Pradesh,Chittoor,"Gangineni Cheruvu, Chittoor - APPCB",13-09-2025 07:00:00,13.204880,79.097889,CO,26,54,36
India,Andhra_Pradesh,Kadapa,"Yerramukkapalli, Kadapa - APPCB",13-09-2025 07:00:00,14.465052,78.824187,NO2,10,15,11
India,Andhra_Pradesh,Rajamahendravaram,"Anand Kala Kshetram, Rajamahendravaram - APPCB",13-09-2025 07:00:00,16.9872867,81.7363176,PM2.5,5,51,28
India,Andhra_Pradesh,Rajamahendravaram,"Anand Kala Kshetram, Rajamahendravaram - APPCB",13-09-2025 07:00:00,16.9872867,81.7363176,PM10,12,66,33
India,Andhra_Pradesh,Rajamahendravaram,"Anand Kala Kshetram, Rajamahendravaram - APPCB",13-09-2025 07:00:00,16.9872867,81.7363176,NH3,2,3,2
India,Andhra_Pradesh,Tirumala,"Toll Gate, Tirumala - APPCB",13-09-2025 07:00:00,13.67,79.35,NH3,1,2,1
India,Andhra_Pradesh,Tirupati,"Vaikuntapuram, Tirupati - APPCB",13-09-2025 07:00:00,13.615387,79.409230,PM10,NA,NA,NA
India,Andhra_Pradesh,Tirupati,"Vaikuntapuram, Tirupati - APPCB",13-09-2025 07:00:00,13.615387,79.409230,NH3,7,7,7
India,Andhra_Pradesh,Vijayawada,"HB Colony, Vijayawada - APPCB",13-09-2025 07:00:00,16.536107,80.594233,SO2,23,28,26
India,Andhra_Pradesh,Vijayawada,"Rajiv Gandhi Park, Vijayawada - APPCB",13-09-2025 07:00:00,16.509717,80.612222,PM2.5,32,92,63
India,Andhra_Pradesh,Vijayawada,"Rajiv Gandhi Park, Vijayawada - APPCB",13-09-2025 07:00:00,16.509717,80.612222,PM10,31,91,62
India,Andhra_Pradesh,Vijayawada,"Rajiv Gandhi Park, Vijayawada - APPCB",13-09-2025 07:00:00,16.509717,80.612222,SO2,7,17,10
India,Andhra_Pradesh,Vijayawada,"Rajiv Gandhi Park, Vijayawada - APPCB",13-09-2025 07:00:00,16.509717,80.612222,OZONE,23,29,24
India,Andhra_Pradesh,Vijayawada,"Rajiv Nagar, Vijayawada - APPCB",13-09-2025 07:00:00,16.554731,80.649110,SO2,18,31,23
India,Andhra_Pradesh,Visakhapatnam,"GVM Corporation, Visakhapatnam - APPCB",13-09-2025 07:00:00,17.72,83.3,CO,6,70,11
India,Arunachal_Pradesh,Naharlagun,"Naharlagun, Naharlagun - APSPCB",13-09-2025 07:00:00,27.103358,93.679645,SO2,7,8,8
India,Arunachal_Pradesh,Naharlagun,"Naharlagun, Naharlagun - APSPCB",13-09-2025 07:00:00,27.103358,93.679645,CO,4,29,10
India,Bihar,Bihar Sharif,"D M Colony, Bihar Sharif - BSPCB",13-09-2025 07:00:00,25.204762,85.514960,NH3,NA,NA,NA
India,Bihar,Bihar Sharif,"D M Colony, Bihar Sharif - BSPCB",13-09-2025 07:00:00,25.204762,85.514960,OZONE,2,44,28
India,Bihar,Buxar,"Charitra Van, Buxar - BSPCB",13-09-2025 07:00:00,25.567520,83.966379,CO,12,28,25
India,Bihar,Buxar,"Charitra Van, Buxar - BSPCB",13-09-2025 07:00:00,25.567520,83.966379,OZONE,1,131,2
India,Bihar,Chhapra,"Darshan Nagar, Chhapra - BSPCB",13-09-2025 07:00:00,25.7808257,84.7446768,PM10,39,177,115
India,Bihar,Chhapra,"Darshan Nagar, Chhapra - BSPCB",13-09-2025 07:00:00,25.7808257,84.7446768,NH3,3,4,4
India,Bihar,Chhapra,"Darshan Nagar, Chhapra - BSPCB",13-09-2025 07:00:00,25.7808257,84.7446768,SO2,9,9,9
India,Bihar,Chhapra,"Darshan Nagar, Chhapra - BSPCB",13-09-2025 07:00:00,25.7808257,84.7446768,OZONE,1,40,2
India,Bihar,Gaya,"Collectorate, Gaya - BSPCB",13-09-2025 07:00:00,24.7955,84.9994,CO,7,66,22
India,Bihar,Gaya,"Kareemganj, Gaya - BSPCB",13-09-2025 07:00:00,24.792403,84.992416,NO2,1,8,4
India,Bihar,Motihari,"Gandak Colony, Motihari - BSPCB",13-09-2025 07:00:00,26.63086,84.90051,PM2.5,NA,NA,NA
India,Bihar,Munger,"Town Hall, Munger - BSPCB",13-09-2025 07:00:00,25.376776,86.471523,PM2.5,13,273,66
India,Bihar,Muzaffarpur,"Buddha Colony, Muzaffarpur - BSPCB",13-09-2025 07:00:00,26.11442,85.39813,PM10,27,116,63
India,Bihar,Muzaffarpur,"Buddha Colony, Muzaffarpur - BSPCB",13-09-2025 07:00:00,26.11442,85.39813,NH3,4,5,5
India,Bihar,Muzaffarpur,"Buddha Colony, Muzaffarpur - BSPCB",13-09-2025 07:00:00,26.11442,85.39813,SO2,1,6,4
India,Bihar,Muzaffarpur,"MIT-Daudpur Kothi, Muzaffarpur - BSPCB",13-09-2025 07:00:00,26.1403345,85.3650192,CO,30,87,31
India,Bihar,Muzaffarpur,"Muzaffarpur Collectorate, Muzaffarpur - BSPCB",13-09-2025 07:00:00,26.1209,85.3647,PM2.5,33,58,42
India,Bihar,Muzaffarpur,"Muzaffarpur Collectorate, Muzaffarpur - BSPCB",13-09-2025 07:00:00,26.1209,85.3647,NO2,10,16,12
India,Bihar,Aurangabad,"Gurdeo Nagar, Aurangabad - BSPCB",13-09-2025 07:00:00,24.75746,84.366208,PM10,77,500,176
India,Bihar,Aurangabad,"Gurdeo Nagar, Aurangabad - BSPCB",13-09-2025 07:00:00,24.75746,84.366208,CO,24,48,33
India,Bihar,Begusarai,"Lohiyanagar, Begusarai - BSPCB",13-09-2025 07:00:00,25.42742023,86.13886079,NH3,3,5,4
India,Bihar,Bettiah,"Kamalnath Nagar, Bettiah - BSPCB",13-09-2025 07:00:00,26.80365,84.51954,NO2,6,12,9
India,Bihar,Bhagalpur,"DM Office_Kachari Chowk, Bhagalpur - BSPCB",13-09-2025 07:00:00,25.251013,86.989001,PM2.5,2,47,25
India,Bihar,Bhagalpur,"Mayaganj, Bhagalpur - BSPCB",13-09-2025 07:00:00,25.265194,87.012947,PM2.5,12,32,20
India,Assam,Sivasagar,"Girls College, Sivasagar - PCBA",13-09-2025 07:00:00,26.987634,94.636574,PM10,NA,NA,NA
India,Bihar,Araria,"Kharahiya Basti, Araria - BSPCB",13-09-2025 07:00:00,26.146529,87.454184,PM2.5,42,55,49
India,Bihar,Araria,"Kharahiya Basti, Araria - BSPCB",13-09-2025 07:00:00,26.146529,87.454184,PM10,29,46,39
India,Bihar,Araria,"Kharahiya Basti, Araria - BSPCB",13-09-2025 07:00:00,26.146529,87.454184,NH3,5,5,5
India,Bihar,Araria,"Kharahiya Basti, Araria - BSPCB",13-09-2025 07:00:00,26.146529,87.454184,SO2,12,23,18
India,Bihar,Arrah,"New DM Office, Arrah - BSPCB",13-09-2025 07:00:00,25.5626095,84.663264,PM10,27,28,27
India,Assam,Byrnihat,"Central Academy for SFS, Byrnihat - PCBA",13-09-2025 07:00:00,26.071318,91.87488,SO2,NA,NA,NA
India,Assam,Guwahati,"IITG, Guwahati - PCBA",13-09-2025 07:00:00,26.2028636,91.70046436,PM2.5,NA,NA,NA
India,Assam,Guwahati,"IITG, Guwahati - PCBA",13-09-2025 07:00:00,26.2028636,91.70046436,NH3,5,5,5
India,Assam,Guwahati,"LGBI Airport, Guwahati - PCBA",13-09-2025 07:00:00,26.10887,91.589544,NH3,6,6,6
India,Assam,Nagaon,"Christianpatty, Nagaon - PCBA",13-09-2025 07:00:00,26.349082,92.68449,PM10,38,96,50
India,Bihar,Gaya,"SFTI Kusdihra, Gaya - BSPCB",13-09-2025 07:00:00,24.762518,84.982348,SO2,6,8,7
India,Bihar,Hajipur,"Industrial Area, Hajipur - BSPCB",13-09-2025 07:00:00,25.697189,85.245900,OZONE,7,75,10
India,Bihar,Manguraha,"Forest Rest House, Manguraha - BSPCB",13-09-2025 07:00:00,27.308328,84.531742,NO2,2,8,5
India,Andhra_Pradesh,Amaravati,"Secretariat, Amaravati - APPCB",13-09-2025 07:00:00,16.5150833,80.5181667,PM2.5,2,68,39
India,Andhra_Pradesh,Amaravati,"Secretariat, Amaravati - APPCB",13-09-2025 07:00:00,16.5150833,80.5181667,NH3,4,5,4
India,Andhra_Pradesh,Amaravati,"Secretariat, Amaravati - APPCB",13-09-2025 07:00:00,16.5150833,80.5181667,CO,11,28,22
India,Assam,Nalbari,"Bata Chowk, Nalbari - PCBA",13-09-2025 07:00:00,26.446912,91.439057,CO,8,28,24
India,Bihar,Patna,"Rajbansi Nagar, Patna - BSPCB",13-09-2025 07:00:00,25.599486,85.113666,OZONE,17,50,17
India,Bihar,Patna,"Samanpura, Patna - BSPCB",13-09-2025 07:00:00,25.596727,85.085624,SO2,1,1,1
India,Bihar,Patna,"Samanpura, Patna - BSPCB",13-09-2025 07:00:00,25.596727,85.085624,CO,26,64,42
India,Bihar,Purnia,"Mariam Nagar, Purnia - BSPCB",13-09-2025 07:00:00,25.366336,87.117468,NH3,3,3,3
India,Bihar,Purnia,"Mariam Nagar, Purnia - BSPCB",13-09-2025 07:00:00,25.366336,87.117468,SO2,NA,NA,NA
India,Bihar,Rajgir,"Dangi Tola, Rajgir - BSPCB",13-09-2025 07:00:00,25.03280,85.41948,NO2,8,10,9
India,Bihar,Rajgir,"Dangi Tola, Rajgir - BSPCB",13-09-2025 07:00:00,25.03280,85.41948,NH3,6,7,6
India,Bihar,Rajgir,"Dangi Tola, Rajgir - BSPCB",13-09-2025 07:00:00,25.03280,85.41948,OZONE,29,41,32
India,Bihar,Saharsa,"Police Line, Saharsa - BSPCB",13-09-2025 07:00:00,25.892357,86.590325,CO,36,41,40
India,Bihar,Saharsa,"Police Line, Saharsa - BSPCB",13-09-2025 07:00:00,25.892357,86.590325,OZONE,7,61,13
India,Bihar,Samastipur,"DM Office_Kasipur, Samastipur - BSPCB",13-09-2025 07:00:00,25.859655,85.77944,PM2.5,15,203,78
India,Bihar,Samastipur,"DM Office_Kasipur, Samastipur - BSPCB",13-09-2025 07:00:00,25.859655,85.77944,NO2,NA,NA,NA
India,Bihar,Samastipur,"DM Office_Kasipur, Samastipur - BSPCB",13-09-2025 07:00:00,25.859655,85.77944,SO2,25,29,27
India,Bihar,Sasaram,"Dada Peer, Sasaram - BSPCB",13-09-2025 07:00:00,24.952822,84.002396,PM10,NA,NA,NA
India,Bihar,Sasaram,"Dada Peer, Sasaram - BSPCB",13-09-2025 07:00:00,24.952822,84.002396,CO,50,58,52
India,Bihar,Siwan,"Chitragupta Nagar, Siwan - BSPCB",13-09-2025 07:00:00,26.2271665,84.3570427,PM10,23,447,81
India,Chandigarh,Chandigarh,"Sector 22, Chandigarh - CPCC",13-09-2025 07:00:00,30.735567,76.775714,PM10,11,43,32
India,Chandigarh,Chandigarh,"Sector 22, Chandigarh - CPCC",13-09-2025 07:00:00,30.735567,76.775714,NO2,12,37,20
India,Chandigarh,Chandigarh,"Sector 22, Chandigarh - CPCC",13-09-2025 07:00:00,30.735567,76.775714,NH3,7,13,10
India,Chandigarh,Chandigarh,"Sector-25, Chandigarh - CPCC",13-09-2025 07:00:00,30.751462,76.762879,NO2,1,7,4
India,Chandigarh,Chandigarh,"Sector-25, Chandigarh - CPCC",13-09-2025 07:00:00,30.751462,76.762879,NH3,10,14,12
India,Delhi,Delhi,"Dwarka-Sector 8, Delhi - DPCC ",13-09-2025 07:00:00,28.5710274,77.0719006,SO2,2,15,9
India,Delhi,Delhi,"Dwarka-Sector 8, Delhi - DPCC ",13-09-2025 07:00:00,28.5710274,77.0719006,OZONE,5,32,9
India,Delhi,Delhi,"IGI Airport (T3), Delhi - IMD",13-09-2025 07:00:00,28.5627763,77.1180053,PM10,100,149,120
India,Delhi,Delhi,"IHBAS, Dilshad Garden, Delhi - CPCB",13-09-2025 07:00:00,28.6811736,77.3025234,NO2,NA,NA,NA
India,Delhi,Delhi,"ITO, Delhi - CPCB",13-09-2025 07:00:00,28.628624,77.241060,OZONE,15,19,16
India,Delhi,Delhi,"Jahangirpuri, Delhi - DPCC",13-09-2025 07:00:00,28.732820,77.170633,NO2,7,50,27
India,Delhi,Delhi,"Jahangirpuri, Delhi - DPCC",13-09-2025 07:00:00,28.732820,77.170633,NH3,6,7,7
India,Delhi,Delhi,"Jahangirpuri, Delhi - DPCC",13-09-2025 07:00:00,28.732820,77.170633,SO2,1,11,7
India,Chhattisgarh,Chhal,"Nawapara SECL Colony, Chhal - CECB",13-09-2025 07:00:00,22.118125,83.140608,PM2.5,3,23,10
India,Chhattisgarh,Kunjemura,"OP Jindal School, Kunjemura - CECB",13-09-2025 07:00:00,22.126650,83.483212,PM2.5,2,19,9
India,Chhattisgarh,Kunjemura,"OP Jindal School, Kunjemura - CECB",13-09-2025 07:00:00,22.126650,83.483212,PM10,9,138,31
India,Chhattisgarh,Kunjemura,"OP Jindal School, Kunjemura - CECB",13-09-2025 07:00:00,22.126650,83.483212,SO2,2,13,8
India,Chhattisgarh,Milupara,"Govt. Higher Secondary School, Milupara - CECB",13-09-2025 07:00:00,22.1910172,83.5197009,PM10,NA,NA,NA
India,Chandigarh,Chandigarh,"Sector-53, Chandigarh - CPCC",13-09-2025 07:00:00,30.719859,76.738637,OZONE,2,24,6
India,Chhattisgarh,Bhilai,"Civic Center, Bhilai - Bhilai Steel Plant",13-09-2025 07:00:00,21.185571,81.343175,PM2.5,25,74,44
India,Chhattisgarh,Bhilai,"Civic Center, Bhilai - Bhilai Steel Plant",13-09-2025 07:00:00,21.185571,81.343175,PM10,39,90,59
India,Chhattisgarh,Bhilai,"Civic Center, Bhilai - Bhilai Steel Plant",13-09-2025 07:00:00,21.185571,81.343175,NH3,3,3,3
India,Chhattisgarh,Bhilai,"Hathkhoj, Bhilai - CECB",13-09-2025 07:00:00,21.224231,81.408350,OZONE,9,24,12
India,Bihar,Patna,"Govt. High School Shikarpur, Patna - BSPCB",13-09-2025 07:00:00,25.592539,85.227158,PM10,33,51,41
India,Bihar,Patna,"Govt. High School Shikarpur, Patna - BSPCB",13-09-2025 07:00:00,25.592539,85.227158,NH3,4,5,5
India,Bihar,Patna,"Govt. High School Shikarpur, Patna - BSPCB",13-09-2025 07:00:00,25.592539,85.227158,SO2,8,12,10
India,Bihar,Patna,"IGSC Planetarium Complex, Patna - BSPCB",13-09-2025 07:00:00,25.610369,85.132568,PM2.5,50,115,76
India,Bihar,Patna,"Rajbansi Nagar, Patna - BSPCB",13-09-2025 07:00:00,25.599486,85.113666,NH3,1,2,2
India,Delhi,Delhi,"CRRI Mathura Road, Delhi - IMD",13-09-2025 07:00:00,28.5512005,77.2735737,PM10,94,228,155
India,Delhi,Delhi,"DTU, Delhi - CPCB",13-09-2025 07:00:00,28.7500499,77.1112615,SO2,14,36,27
India,Delhi,Delhi,"Dr. Karni Singh Shooting Range, Delhi - DPCC",13-09-2025 07:00:00,28.498571,77.264840,CO,12,83,32
India,Delhi,Delhi,"Dwarka-Sector 8, Delhi - DPCC ",13-09-2025 07:00:00,28.5710274,77.0719006,PM2.5,18,157,46
India,Delhi,Delhi,"Anand Vihar, Delhi - DPCC",13-09-2025 07:00:00,28.647622,77.3158090,PM2.5,85,320,168
India,Delhi,Delhi,"Anand Vihar, Delhi - DPCC",13-09-2025 07:00:00,28.647622,77.3158090,NH3,2,5,4
India,Delhi,Delhi,"Aya Nagar, Delhi - IMD",13-09-2025 07:00:00,28.4706914,77.1099364,PM10,41,126,77
India,Delhi,Delhi,"Bawana, Delhi - DPCC",13-09-2025 07:00:00,28.776200,77.051074,CO,86,103,91
India,Chhattisgarh,Tumidih,"OP Jindal Industrial Park, Tumidih - CECB",13-09-2025 07:00:00,22.06631475,83.33820077,NO2,7,76,18
India,Chhattisgarh,Tumidih,"OP Jindal Industrial Park, Tumidih - CECB",13-09-2025 07:00:00,22.06631475,83.33820077,SO2,5,16,6
India,Delhi,Delhi,"Alipur, Delhi - DPCC",13-09-2025 07:00:00,28.815329,77.153010,PM2.5,30,147,59
India,Gujarat,Ahmedabad,"SVPI Airport Hansol, Ahmedabad - IITM",13-09-2025 07:00:00,23.076793,72.627874,CO,21,105,91
India,Gujarat,Ankleshwar,"GIDC, Ankleshwar - GPCB",13-09-2025 07:00:00,21.613267,73.010555,CO,24,55,48
India,Gujarat,Gandhinagar,"GIFT City, Gandhinagar - IITM",13-09-2025 07:00:00,23.163798,72.677768,NH3,2,12,5
India,Gujarat,Gandhinagar,"GIFT City, Gandhinagar - IITM",13-09-2025 07:00:00,23.163798,72.677768,SO2,1,12,6
India,Gujarat,Gandhinagar,"GIFT City, Gandhinagar - IITM",13-09-2025 07:00:00,23.163798,72.677768,CO,54,88,72
India,Gujarat,Gandhinagar,"GIFT City, Gandhinagar - IITM",13-09-2025 07:00:00,23.163798,72.677768,OZONE,NA,NA,NA
India,Gujarat,Gandhinagar,"IIPHG Lekawada, Gandhinagar - IITM",13-09-2025 07:00:00,23.243639,72.68994,PM10,57,123,85
India,Gujarat,Gandhinagar,"IIPHG Lekawada, Gandhinagar - IITM",13-09-2025 07:00:00,23.243639,72.68994,NH3,1,1,1
India,Gujarat,Gandhinagar,"IIPHG Lekawada, Gandhinagar - IITM",13-09-2025 07:00:00,23.243639,72.68994,OZONE,1,14,1
India,Gujarat,Gandhinagar,"Sector-10, Gandhinagar - GPCB",13-09-2025 07:00:00,23.221714,72.654328,SO2,4,7,5
India,Delhi,Delhi,"Sri Aurobindo Marg, Delhi - DPCC",13-09-2025 07:00:00,28.531346,77.190156,CO,18,70,42
India,Delhi,Delhi,"Sri Aurobindo Marg, Delhi - DPCC",13-09-2025 07:00:00,28.531346,77.190156,OZONE,7,37,9
India,Delhi,Delhi,"Wazirpur, Delhi - DPCC",13-09-2025 07:00:00,28.699793,77.165453,PM2.5,31,65,48
India,Delhi,Delhi,"Wazirpur, Delhi - DPCC",13-09-2025 07:00:00,28.699793,77.165453,SO2,6,14,11
India,Delhi,Delhi,"Wazirpur, Delhi - DPCC",13-09-2025 07:00:00,28.699793,77.165453,CO,NA,NA,NA
India,Gujarat,Ahmedabad,"Chandkheda, Ahmedabad - IITM",13-09-2025 07:00:00,23.107969,72.574648,PM10,29,86,58
India,Gujarat,Ahmedabad,"Chandkheda, Ahmedabad - IITM",13-09-2025 07:00:00,23.107969,72.574648,OZONE,NA,NA,NA
India,Gujarat,Ahmedabad,"Gyaspur, Ahmedabad - IITM",13-09-2025 07:00:00,22.977134,72.553024,NH3,1,1,1
India,Gujarat,Ahmedabad,"Gyaspur, Ahmedabad - IITM",13-09-2025 07:00:00,22.977134,72.553024,OZONE,3,9,4
India,Gujarat,Ahmedabad,"Maninagar, Ahmedabad - GPCB",13-09-2025 07:00:00,23.002657,72.591912,NO2,24,29,26
India,Delhi,Delhi,"Rohini, Delhi - DPCC",13-09-2025 07:00:00,28.732528,77.119920,PM10,72,408,122
India,Delhi,Delhi,"Shadipur, Delhi - CPCB",13-09-2025 07:00:00,28.6514781,77.1473105,PM2.5,91,239,145
India,Delhi,Delhi,"Shadipur, Delhi - CPCB",13-09-2025 07:00:00,28.6514781,77.1473105,PM10,76,127,97
India,Delhi,Delhi,"Shadipur, Delhi - CPCB",13-09-2025 07:00:00,28.6514781,77.1473105,OZONE,4,8,7
India,Delhi,Delhi,"Sirifort, Delhi - CPCB",13-09-2025 07:00:00,28.5504249,77.2159377,NO2,NA,NA,NA
India,Delhi,Delhi,"Sirifort, Delhi - CPCB",13-09-2025 07:00:00,28.5504249,77.2159377,NH3,NA,NA,NA
India,Delhi,Delhi,"Sonia Vihar, Delhi - DPCC",13-09-2025 07:00:00,28.710508,77.249485,PM2.5,13,60,34
India,Delhi,Delhi,"Sri Aurobindo Marg, Delhi - DPCC",13-09-2025 07:00:00,28.531346,77.190156,NH3,3,4,4
India,Delhi,Delhi,"Punjabi Bagh, Delhi - DPCC",13-09-2025 07:00:00,28.674045,77.131023,PM2.5,8,103,40
India,Delhi,Delhi,"Punjabi Bagh, Delhi - DPCC",13-09-2025 07:00:00,28.674045,77.131023,CO,42,81,53
India,Delhi,Delhi,"Pusa, Delhi - DPCC",13-09-2025 07:00:00,28.639652,77.146275,PM10,70,211,125
India,Delhi,Delhi,"Pusa, Delhi - DPCC",13-09-2025 07:00:00,28.639652,77.146275,NO2,28,74,46
India,Delhi,Delhi,"Pusa, Delhi - DPCC",13-09-2025 07:00:00,28.639652,77.146275,CO,20,110,51
India,Delhi,Delhi,"Pusa, Delhi - DPCC",13-09-2025 07:00:00,28.639652,77.146275,OZONE,2,22,3
India,Delhi,Delhi,"Pusa, Delhi - IMD",13-09-2025 07:00:00,28.636110,77.173332,PM10,NA,NA,NA
India,Delhi,Delhi,"R K Puram, Delhi - DPCC",13-09-2025 07:00:00,28.563262,77.186937,PM10,66,128,100
India,Delhi,Delhi,"R K Puram, Delhi - DPCC",13-09-2025 07:00:00,28.563262,77.186937,SO2,1,12,5
India,Delhi,Delhi,"Najafgarh, Delhi - DPCC",13-09-2025 07:00:00,28.570173,76.933762,SO2,43,46,44
India,Delhi,Delhi,"Narela, Delhi - DPCC",13-09-2025 07:00:00,28.822836,77.101981,OZONE,2,21,7
India,Delhi,Delhi,"Nehru Nagar, Delhi - DPCC",13-09-2025 07:00:00,28.567890,77.250515,CO,12,66,19
India,Delhi,Delhi,"Nehru Nagar, Delhi - DPCC",13-09-2025 07:00:00,28.567890,77.250515,OZONE,4,76,5
India,Delhi,Delhi,"North Campus, DU, Delhi - IMD",13-09-2025 07:00:00,28.6573814,77.1585447,CO,4,98,46
India,Gujarat,Gandhinagar,"Sector-10, Gandhinagar - GPCB",13-09-2025 07:00:00,23.221714,72.654328,OZONE,6,19,7
India,Gujarat,Vapi,"Phase-1 GIDC, Vapi - GPCB",13-09-2025 07:00:00,20.362421,72.918013,SO2,43,47,45
India,Haryana,Gurugram,"NISE Gwal Pahari, Gurugram - IMD",13-09-2025 07:00:00,28.422681,77.148944,PM10,51,156,87
India,Haryana,Gurugram,"NISE Gwal Pahari, Gurugram - IMD",13-09-2025 07:00:00,28.422681,77.148944,NO2,8,15,10
India,Gujarat,Ahmedabad,"SAC ISRO Satellite, Ahmedabad - IITM",13-09-2025 07:00:00,23.023389,72.515201,PM2.5,37,74,52
India,Gujarat,Ahmedabad,"SAC ISRO Satellite, Ahmedabad - IITM",13-09-2025 07:00:00,23.023389,72.515201,PM10,47,90,64
India,Gujarat,Ahmedabad,"SAC ISRO Satellite, Ahmedabad - IITM",13-09-2025 07:00:00,23.023389,72.515201,CO,1,10,2
India,Gujarat,Ahmedabad,"SAC ISRO Satellite, Ahmedabad - IITM",13-09-2025 07:00:00,23.023389,72.515201,OZONE,1,44,7
India,Gujarat,Ahmedabad,"SVPI Airport Hansol, Ahmedabad - IITM",13-09-2025 07:00:00,23.076793,72.627874,PM10,44,93,62
India,Delhi,Delhi,"Major Dhyan Chand National Stadium, Delhi - DPCC",13-09-2025 07:00:00,28.611281,77.237738,PM10,87,130,105
India,Delhi,Delhi,"Mandir Marg, Delhi - DPCC",13-09-2025 07:00:00,28.636429,77.201067,NH3,5,6,6
India,Delhi,Delhi,"Mundka, Delhi - DPCC",13-09-2025 07:00:00,28.684678,77.076574,PM2.5,12,75,39
India,Delhi,Delhi,"Mundka, Delhi - DPCC",13-09-2025 07:00:00,28.684678,77.076574,OZONE,1,33,1
India,Gujarat,Ahmedabad,"Raikhad, Ahmedabad - IITM",13-09-2025 07:00:00,23.020509,72.579261,PM10,57,97,70
India,Gujarat,Ahmedabad,"Raikhad, Ahmedabad - IITM",13-09-2025 07:00:00,23.020509,72.579261,NO2,NA,NA,NA
India,Gujarat,Ahmedabad,"Rakhial, Ahmedabad - IITM",13-09-2025 07:00:00,23.016834,72.625775,PM10,59,127,91
India,Karnataka,Vijayapura,"Ibrahimpur, Vijayapura - KSPCB",13-09-2025 07:00:00,16.802639,75.722694,NO2,9,10,9
India,Karnataka,Yadgir,"Collector Office, Yadgir - KSPCB",13-09-2025 07:00:00,16.7602,77.1428,PM2.5,9,48,27
India,Karnataka,Yadgir,"Collector Office, Yadgir - KSPCB",13-09-2025 07:00:00,16.7602,77.1428,NO2,28,54,39
India,Karnataka,Yadgir,"Collector Office, Yadgir - KSPCB",13-09-2025 07:00:00,16.7602,77.1428,SO2,13,30,19
India,Kerala,Eloor,"Udyogamandal, Eloor - Kerala PCB",13-09-2025 07:00:00,10.073232,76.302765,PM10,NA,NA,NA
India,Kerala,Kannur,"Thavakkara, Kannur - Kerala PCB",13-09-2025 07:00:00,11.875000,75.373200,NO2,15,17,16
India,Kerala,Kannur,"Thavakkara, Kannur - Kerala PCB",13-09-2025 07:00:00,11.875000,75.373200,SO2,4,5,4
India,Kerala,Kollam,"Polayathode, Kollam - Kerala PCB",13-09-2025 07:00:00,8.8787,76.6073,PM10,45,85,66
India,Kerala,Kollam,"Polayathode, Kollam - Kerala PCB",13-09-2025 07:00:00,8.8787,76.6073,NO2,9,10,9
India,Kerala,Kollam,"Polayathode, Kollam - Kerala PCB",13-09-2025 07:00:00,8.8787,76.6073,OZONE,29,35,30
India,Karnataka,Mangalore,"Kadri, Mangalore - KSPCB",13-09-2025 07:00:00,12.889250,74.853000,PM2.5,25,37,31
India,Karnataka,Mangalore,"Kadri, Mangalore - KSPCB",13-09-2025 07:00:00,12.889250,74.853000,NO2,2,7,5
India,Karnataka,Mangalore,"Kadri, Mangalore - KSPCB",13-09-2025 07:00:00,12.889250,74.853000,NH3,NA,NA,NA
India,Karnataka,Mysuru,"Hebbal 1st Stage, Mysuru - KSPCB",13-09-2025 07:00:00,12.21041,76.37376,SO2,1,26,10
India,Karnataka,Ramanagara,"Vijay Nagar, Ramanagara - KSPCB",13-09-2025 07:00:00,12.733409,77.298051,NO2,NA,NA,NA
India,Karnataka,Ramanagara,"Vijay Nagar, Ramanagara - KSPCB",13-09-2025 07:00:00,12.733409,77.298051,SO2,NA,NA,NA
India,Karnataka,Ramanagara,"Vijay Nagar, Ramanagara - KSPCB",13-09-2025 07:00:00,12.733409,77.298051,CO,NA,NA,NA
India,Karnataka,Shivamogga,"Vinoba Nagara, Shivamogga - KSPCB",13-09-2025 07:00:00,13.940000,75.555917,NO2,12,67,32
India,Karnataka,Shivamogga,"Vinoba Nagara, Shivamogga - KSPCB",13-09-2025 07:00:00,13.940000,75.555917,CO,22,35,31
India,Karnataka,Tumakuru,"Thimmalapura, Tumakuru - KSPCB",13-09-2025 07:00:00,13.377516,77.099072,OZONE,15,15,15
India,Karnataka,Chamarajanagar,"Urban, Chamarajanagar - KSPCB",13-09-2025 07:00:00,11.55358,76.55521,SO2,2,8,4
India,Karnataka,Chamarajanagar,"Urban, Chamarajanagar - KSPCB",13-09-2025 07:00:00,11.55358,76.55521,CO,14,120,33
India,Karnataka,Chamarajanagar,"Urban, Chamarajanagar - KSPCB",13-09-2025 07:00:00,11.55358,76.55521,OZONE,21,38,26
India,Karnataka,Chikkamagaluru,"Kalyana Nagara, Chikkamagaluru - KSPCB",13-09-2025 07:00:00,13.328028,75.797056,OZONE,12,50,30
India,Karnataka,Davanagere,"Devaraj Urs Badavane, Davanagere - KSPCB",13-09-2025 07:00:00,14.475800,75.905200,PM2.5,15,49,35
India,Karnataka,Davanagere,"Devaraj Urs Badavane, Davanagere - KSPCB",13-09-2025 07:00:00,14.475800,75.905200,SO2,1,5,3
India,Karnataka,Davanagere,"Devaraj Urs Badavane, Davanagere - KSPCB",13-09-2025 07:00:00,14.475800,75.905200,CO,6,22,9
India,Karnataka,Hassan,"B.Katihalli, Hassan - KSPCB",13-09-2025 07:00:00,13.008556,76.125258,SO2,NA,NA,NA
India,Haryana,Panchgaon,"Amity University, Panchgaon - IITM",13-09-2025 07:00:00,28.3153,76.9143,CO,16,70,35
India,Jharkhand,Dhanbad,"Sardar Patel Nagar, Dhanbad - JSPCB",13-09-2025 07:00:00,23.80569,86.44268,PM2.5,1,87,33
India,Jharkhand,Dhanbad,"Sardar Patel Nagar, Dhanbad - JSPCB",13-09-2025 07:00:00,23.80569,86.44268,NO2,78,136,85
India,Jharkhand,Dhanbad,"Sardar Patel Nagar, Dhanbad - JSPCB",13-09-2025 07:00:00,23.80569,86.44268,SO2,2,54,20
India,Karnataka,Bagalkot,"Vidayagiri, Bagalkot - KSPCB",13-09-2025 07:00:00,16.172806,75.659694,SO2,7,7,7
India,Karnataka,Bengaluru,"BTM Layout, Bengaluru - CPCB",13-09-2025 07:00:00,12.9135218,77.5950804,NH3,7,7,7
India,Karnataka,Bengaluru,"BTM Layout, Bengaluru - CPCB",13-09-2025 07:00:00,12.9135218,77.5950804,SO2,19,20,19
India,Madhya Pradesh,Dewas,"Bhopal Chauraha, Dewas - MPPCB",13-09-2025 07:00:00,22.9682591,76.064118,OZONE,26,31,30
India,Madhya Pradesh,Gwalior,"City Center, Gwalior - MPPCB",13-09-2025 07:00:00,26.203442,78.193251,NH3,2,2,2
India,Madhya Pradesh,Gwalior,"Deen Dayal Nagar, Gwalior - MPPCB",13-09-2025 07:00:00,26.259242,78.216432,PM2.5,28,97,70
India,Madhya Pradesh,Gwalior,"Deen Dayal Nagar, Gwalior - MPPCB",13-09-2025 07:00:00,26.259242,78.216432,NH3,3,4,3
India,Madhya Pradesh,Gwalior,"Deen Dayal Nagar, Gwalior - MPPCB",13-09-2025 07:00:00,26.259242,78.216432,CO,22,54,28
India,Madhya Pradesh,Gwalior,"Maharaj Bada, Gwalior - MPPCB",13-09-2025 07:00:00,26.200388,78.147714,PM2.5,33,73,49
India,Madhya Pradesh,Gwalior,"Maharaj Bada, Gwalior - MPPCB",13-09-2025 07:00:00,26.200388,78.147714,SO2,4,9,6
India,Karnataka,Hubballi,"Lingaraj Nagar, Hubballi - KSPCB",13-09-2025 07:00:00,15.3714823,75.1160168,SO2,1,2,1
India,Karnataka,Kalaburagi,"Lal Bahadur Shastri Nagar, Kalaburagi - KSPCB",13-09-2025 07:00:00,17.321993,76.822628,PM10,38,69,57
India,Karnataka,Kalaburagi,"Lal Bahadur Shastri Nagar, Kalaburagi - KSPCB",13-09-2025 07:00:00,17.321993,76.822628,SO2,52,55,53
India,Karnataka,Kalaburagi,"Mahatma Basaveswar Colony, Kalaburgi - KSPCB",13-09-2025 07:00:00,17.336318,76.847397,PM2.5,15,38,27
India,Karnataka,Kalaburagi,"Mahatma Basaveswar Colony, Kalaburgi - KSPCB",13-09-2025 07:00:00,17.336318,76.847397,NO2,9,16,12
India,Karnataka,Madikeri,"Stuart Hill, Madikeri - KSPCB",13-09-2025 07:00:00,12.415911,75.735050,PM2.5,15,25,19
India,Kerala,Thiruvananthapuram,"Plammoodu, Thiruvananthapuram - Kerala PCB",13-09-2025 07:00:00,8.5149093,76.9435879,NH3,7,26,10
India,Madhya Pradesh,Bhopal,"Idgah Hills, Bhopal - MPPCB",13-09-2025 07:00:00,23.264759,77.381568,PM10,40,87,57
India,Madhya Pradesh,Bhopal,"Idgah Hills, Bhopal - MPPCB",13-09-2025 07:00:00,23.264759,77.381568,NO2,8,14,11
India,Madhya Pradesh,Bhopal,"Idgah Hills, Bhopal - MPPCB",13-09-2025 07:00:00,23.264759,77.381568,SO2,8,11,10
India,Madhya Pradesh,Bhopal,"T T Nagar, Bhopal - MPPCB",13-09-2025 07:00:00,23.233584,77.400574,PM2.5,39,78,53
India,Madhya Pradesh,Bhopal,"T T Nagar, Bhopal - MPPCB",13-09-2025 07:00:00,23.233584,77.400574,PM10,67,119,91
India,Madhya Pradesh,Bhopal,"T T Nagar, Bhopal - MPPCB",13-09-2025 07:00:00,23.233584,77.400574,NH3,5,6,5
India,Karnataka,Bengaluru,"Bapuji Nagar, Bengaluru - KSPCB",13-09-2025 07:00:00,12.951913,77.539784,OZONE,4,37,17
India,Karnataka,Bengaluru,"City Railway Station, Bengaluru - KSPCB",13-09-2025 07:00:00,12.9756843,77.5660749,NO2,43,51,48
India,Karnataka,Bengaluru,"Hebbal, Bengaluru - KSPCB",13-09-2025 07:00:00,13.029152,77.585901,NO2,18,20,19
India,Karnataka,Bengaluru,"Hombegowda Nagar, Bengaluru - KSPCB",13-09-2025 07:00:00,12.938539,77.590100,NH3,1,2,2
India,Karnataka,Bengaluru,"Hombegowda Nagar, Bengaluru - KSPCB",13-09-2025 07:00:00,12.938539,77.590100,SO2,3,15,9
India,Karnataka,Bengaluru,"Jayanagar 5th Block, Bengaluru - KSPCB",13-09-2025 07:00:00,12.920984,77.584908,OZONE,1,2,1
India,Karnataka,Bengaluru,"Sanegurava Halli, Bengaluru - KSPCB",13-09-2025 07:00:00,12.990328,77.5431385,NO2,16,20,19
India,Karnataka,Bengaluru,"Sanegurava Halli, Bengaluru - KSPCB",13-09-2025 07:00:00,12.990328,77.5431385,CO,20,48,25
India,Karnataka,Bengaluru,"Silk Board, Bengaluru - KSPCB",13-09-2025 07:00:00,12.917348,77.622813,OZONE,39,39,39
India,Madhya Pradesh,Jabalpur,"Govindh Bhavan Colony, Jabalpur - JMC",13-09-2025 07:00:00,23.163174,79.973061,CO,26,34,28
India,Madhya Pradesh,Jabalpur,"Govindh Bhavan Colony, Jabalpur - JMC",13-09-2025 07:00:00,23.163174,79.973061,OZONE,6,30,13
India,Madhya Pradesh,Jabalpur,"Gupteshwar, Jabalpur - JMC",13-09-2025 07:00:00,23.142888,79.916147,NO2,11,24,15
India,Madhya Pradesh,Jabalpur,"Gupteshwar, Jabalpur - JMC",13-09-2025 07:00:00,23.142888,79.916147,CO,35,54,38
India,Madhya Pradesh,Jabalpur,"Marhatal, Jabalpur - MPPCB",13-09-2025 07:00:00,23.168606,79.932247,PM10,NA,NA,NA
India,Madhya Pradesh,Jabalpur,"Marhatal, Jabalpur - MPPCB",13-09-2025 07:00:00,23.168606,79.932247,OZONE,13,65,32
India,Madhya Pradesh,Jabalpur,"Suhagi, Jabalpur - JMC",13-09-2025 07:00:00,23.218135,79.957770,NH3,2,2,2
India,Madhya Pradesh,Mandideep,"Sector-D Industrial Area, Mandideep - MPPCB",13-09-2025 07:00:00,23.108440,77.511428,PM2.5,NA,NA,NA
India,Madhya Pradesh,Mandideep,"Sector-D Industrial Area, Mandideep - MPPCB",13-09-2025 07:00:00,23.108440,77.511428,NO2,NA,NA,NA
India,Madhya Pradesh,Mandideep,"Sector-D Industrial Area, Mandideep - MPPCB",13-09-2025 07:00:00,23.108440,77.511428,CO,NA,NA,NA
India,Maharashtra,Aurangabad,"More Chowk Waluj, Aurangabad - MPCB",13-09-2025 07:00:00,19.8389439,75.244448,SO2,13,17,14
India,Maharashtra,Aurangabad,"More Chowk Waluj, Aurangabad - MPCB",13-09-2025 07:00:00,19.8389439,75.244448,OZONE,23,49,25
India,Maharashtra,Aurangabad,"Rachnakar Colony, Aurangabad - MPCB",13-09-2025 07:00:00,19.863756,75.321188,CO,10,24,16
India,Maharashtra,Badlapur,"Katrap, Badlapur - MPCB",13-09-2025 07:00:00,19.16485,73.23409,NH3,5,9,7
India,Maharashtra,Belapur,"CBD Belapur, Belapur - MPCB",13-09-2025 07:00:00,19.0243902,73.0406721,NH3,4,6,5
India,Maharashtra,Bhiwandi,"Gokul Nagar, Bhiwandi - MPCB",13-09-2025 07:00:00,19.309073,73.057223,PM2.5,19,77,41
India,Maharashtra,Bhiwandi,"Gokul Nagar, Bhiwandi - MPCB",13-09-2025 07:00:00,19.309073,73.057223,PM10,26,102,56
India,Maharashtra,Bhiwandi,"Gokul Nagar, Bhiwandi - MPCB",13-09-2025 07:00:00,19.309073,73.057223,NO2,25,57,39
India,Madhya Pradesh,Pithampur,"Sector-2 Industrial Area, Pithampur - MPPCB",13-09-2025 07:00:00,22.624758,75.675238,PM2.5,43,87,67
India,Madhya Pradesh,Pithampur,"Sector-2 Industrial Area, Pithampur - MPPCB",13-09-2025 07:00:00,22.624758,75.675238,NO2,3,11,8
India,Madhya Pradesh,Pithampur,"Sector-2 Industrial Area, Pithampur - MPPCB",13-09-2025 07:00:00,22.624758,75.675238,NH3,3,3,3
India,Madhya Pradesh,Ratlam,"Shasthri Nagar, Ratlam - IPCA Lab",13-09-2025 07:00:00,23.331731,75.045981,PM2.5,8,71,35
India,Madhya Pradesh,Ratlam,"Shasthri Nagar, Ratlam - IPCA Lab",13-09-2025 07:00:00,23.331731,75.045981,SO2,26,27,26
India,Madhya Pradesh,Sagar,"Civil Lines, Sagar - MPPCB",13-09-2025 07:00:00,23.838586,78.759431,OZONE,25,50,32
India,Madhya Pradesh,Satna,"Bandhavgar Colony, Satna - Birla Cement",13-09-2025 07:00:00,24.58434363,80.8549414,SO2,17,19,19
India,Maharashtra,Boisar,"Khaira, Boisar - MPCB",13-09-2025 07:00:00,19.786089,72.757971,OZONE,30,31,31
India,Maharashtra,Chandrapur,"Chauhan Colony, Chandrapur - MPCB",13-09-2025 07:00:00,19.962900,79.298714,NH3,2,2,2
India,Maharashtra,Chandrapur,"MIDC Khutala, Chandrapur - MPCB",13-09-2025 07:00:00,19.9775302,79.2337086,PM10,17,92,46
India,Maharashtra,Dhule,"Deopur, Dhule - MPCB",13-09-2025 07:00:00,20.918946,74.776388,SO2,1,6,2
India,Maharashtra,Jalgaon,"Prabhat Colony, Jalgaon - MPCB",13-09-2025 07:00:00,21.001264,75.565602,PM10,34,78,59
India,Maharashtra,Jalgaon,"Prabhat Colony, Jalgaon - MPCB",13-09-2025 07:00:00,21.001264,75.565602,NO2,4,18,7
