country,state,city,station,last_update,latitude,longitude,pollutant_id,min_value,max_value,avg_value
India,Bihar,Hajipur,"Industrial Area, Hajipur - BSPCB",18-12-2025 07:00:00,25.697189,85.245900,SO2,6,10,8
India,Bihar,Hajipur,"Industrial Area, Hajipur - BSPCB",18-12-2025 07:00:00,25.697189,85.245900,CO,28,96,77
India,Bihar,Hajipur,"Industrial Area, Hajipur - BSPCB",18-12-2025 07:00:00,25.697189,85.245900,OZONE,6,132,13
India,Bihar,Katihar,"Mirchaibari, Katihar - BSPCB",18-12-2025 07:00:00,25.560083,87.553265,PM2.5,65,220,143
India,Bihar,Katihar,"Mirchaibari, Katihar - BSPCB",18-12-2025 07:00:00,25.560083,87.553265,OZONE,5,13,6
India,Bihar,Kishanganj,"SDM Office_Khagra, Kishanganj - BSPCB",18-12-2025 07:00:00,26.0881305,87.93840336,PM2.5,37,52,43
India,Bihar,Kishanganj,"SDM Office_Khagra, Kishanganj - BSPCB",18-12-2025 07:00:00,26.0881305,87.93840336,PM10,49,443,206
India,Bihar,Kishanganj,"SDM Office_Khagra, Kishanganj - BSPCB",18-12-2025 07:00:00,26.0881305,87.93840336,SO2,5,10,8
India,Bihar,Manguraha,"Forest Rest House, Manguraha - BSPCB",18-12-2025 07:00:00,27.308328,84.531742,SO2,16,17,16
India,Bihar,Manguraha,"Forest Rest House, Manguraha - BSPCB",18-12-2025 07:00:00,27.308328,84.531742,CO,32,33,32
India,Andhra_Pradesh,Kadapa,"Yerramukkapalli, Kadapa - APPCB",18-12-2025 07:00:00,14.465052,78.824187,PM2.5,46,94,70
India,Andhra_Pradesh,Kadapa,"Yerramukkapalli, Kadapa - APPCB",18-12-2025 07:00:00,14.465052,78.824187,PM10,42,94,68
India,Andhra_Pradesh,Kadapa,"Yerramukkapalli, Kadapa - APPCB",18-12-2025 07:00:00,14.465052,78.824187,NO2,23,26,25
India,Andhra_Pradesh,Rajamahendravaram,"Anand Kala Kshetram, Rajamahendravaram - APPCB",18-12-2025 07:00:00,16.9872867,81.7363176,NO2,17,81,46
India,Andhra_Pradesh,Rajamahendravaram,"Anand Kala Kshetram, Rajamahendravaram - APPCB",18-12-2025 07:00:00,16.9872867,81.7363176,SO2,1,39,16
India,Andhra_Pradesh,Rajamahendravaram,"Anand Kala Kshetram, Rajamahendravaram - APPCB",18-12-2025 07:00:00,16.9872867,81.7363176,CO,32,77,65
India,Andhra_Pradesh,Rajamahendravaram,"Anand Kala Kshetram, Rajamahendravaram - APPCB",18-12-2025 07:00:00,16.9872867,81.7363176,OZONE,9,34,12
India,Andhra_Pradesh,Tirumala,"Toll Gate, Tirumala - APPCB",18-12-2025 07:00:00,13.67,79.35,NO2,9,22,15
India,Assam,Nalbari,"Bata Chowk, Nalbari - PCBA",18-12-2025 07:00:00,26.446912,91.439057,NO2,14,15,14
India,Assam,Nalbari,"Bata Chowk, Nalbari - PCBA",18-12-2025 07:00:00,26.446912,91.439057,CO,20,22,21
India,Assam,Silchar,"Tarapur, Silchar - PCBA",18-12-2025 07:00:00,24.82827,92.79525,PM10,45,95,64
India,Assam,Silchar,"Tarapur, Silchar - PCBA",18-12-2025 07:00:00,24.82827,92.79525,CO,8,42,29
India,Assam,Sivasagar,"Girls College, Sivasagar - PCBA",18-12-2025 07:00:00,26.987634,94.636574,PM10,28,77,47
India,Assam,Sivasagar,"Girls College, Sivasagar - PCBA",18-12-2025 07:00:00,26.987634,94.636574,SO2,12,18,16
India,Bihar,Araria,"Kharahiya Basti, Araria - BSPCB",18-12-2025 07:00:00,26.146529,87.454184,PM2.5,38,309,156
India,Bihar,Munger,"Town Hall, Munger - BSPCB",18-12-2025 07:00:00,25.376776,86.471523,NO2,4,5,5
India,Bihar,Munger,"Town Hall, Munger - BSPCB",18-12-2025 07:00:00,25.376776,86.471523,OZONE,13,25,15
India,Bihar,Muzaffarpur,"MIT-Daudpur Kothi, Muzaffarpur - BSPCB",18-12-2025 07:00:00,26.1403345,85.3650192,PM2.5,100,127,113
India,Bihar,Muzaffarpur,"MIT-Daudpur Kothi, Muzaffarpur - BSPCB",18-12-2025 07:00:00,26.1403345,85.3650192,PM10,65,79,75
India,Bihar,Muzaffarpur,"MIT-Daudpur Kothi, Muzaffarpur - BSPCB",18-12-2025 07:00:00,26.1403345,85.3650192,SO2,13,26,19
India,Bihar,Muzaffarpur,"Muzaffarpur Collectorate, Muzaffarpur - BSPCB",18-12-2025 07:00:00,26.1209,85.3647,PM2.5,100,150,127
India,Bihar,Bhagalpur,"DM Office_Kachari Chowk, Bhagalpur - BSPCB",18-12-2025 07:00:00,25.251013,86.989001,SO2,23,48,36
India,Bihar,Bhagalpur,"DM Office_Kachari Chowk, Bhagalpur - BSPCB",18-12-2025 07:00:00,25.251013,86.989001,OZONE,9,20,15
India,Bihar,Bihar Sharif,"D M Colony, Bihar Sharif - BSPCB",18-12-2025 07:00:00,25.204762,85.514960,PM2.5,140,322,259
India,Bihar,Bihar Sharif,"D M Colony, Bihar Sharif - BSPCB",18-12-2025 07:00:00,25.204762,85.514960,CO,9,130,120
India,Bihar,Buxar,"Charitra Van, Buxar - BSPCB",18-12-2025 07:00:00,25.567520,83.966379,PM10,94,153,126
India,Andaman and Nicobar,Sri Vijaya Puram,"Police Line, Sri Vijaya Puram - ANPCC",18-12-2025 07:00:00,11.654054,92.734055,CO,14,28,16
India,Andhra_Pradesh,Amaravati,"Secretariat, Amaravati - APPCB",18-12-2025 07:00:00,16.5150833,80.5181667,PM2.5,82,278,154
India,Andhra_Pradesh,Anantapur,"Gulzarpet, Anantapur - APPCB",18-12-2025 07:00:00,14.675886,77.593027,NH3,6,7,6
India,Andhra_Pradesh,Anantapur,"Gulzarpet, Anantapur - APPCB",18-12-2025 07:00:00,14.675886,77.593027,OZONE,15,56,22
India,Andhra_Pradesh,Visakhapatnam,"GVM Corporation, Visakhapatnam - APPCB",18-12-2025 07:00:00,17.72,83.3,SO2,7,28,18
India,Andhra_Pradesh,Visakhapatnam,"GVM Corporation, Visakhapatnam - APPCB",18-12-2025 07:00:00,17.72,83.3,CO,4,106,43
India,Arunachal_Pradesh,Naharlagun,"Naharlagun, Naharlagun - APSPCB",18-12-2025 07:00:00,27.103358,93.679645,NO2,NA,NA,NA
India,Assam,Byrnihat,"Central Academy for SFS, Byrnihat - PCBA",18-12-2025 07:00:00,26.071318,91.87488,PM2.5,97,343,163
India,Bihar,Araria,"Kharahiya Basti, Araria - BSPCB",18-12-2025 07:00:00,26.146529,87.454184,NH3,5,5,5
India,Bihar,Arrah,"New DM Office, Arrah - BSPCB",18-12-2025 07:00:00,25.5626095,84.663264,NH3,1,1,1
India,Bihar,Aurangabad,"Gurdeo Nagar, Aurangabad - BSPCB",18-12-2025 07:00:00,24.75746,84.366208,SO2,12,17,15
India,Bihar,Aurangabad,"Gurdeo Nagar, Aurangabad - BSPCB",18-12-2025 07:00:00,24.75746,84.366208,CO,101,103,102
India,Andhra_Pradesh,Vijayawada,"HB Colony, Vijayawada - APPCB",18-12-2025 07:00:00,16.536107,80.594233,CO,40,45,44
India,Andhra_Pradesh,Vijayawada,"HB Colony, Vijayawada - APPCB",18-12-2025 07:00:00,16.536107,80.594233,OZONE,NA,NA,NA
India,Andhra_Pradesh,Vijayawada,"Kanuru, Vijayawada - APPCB",18-12-2025 07:00:00,16.486692,80.699436,PM10,31,76,52
India,Andhra_Pradesh,Vijayawada,"Rajiv Gandhi Park, Vijayawada - APPCB",18-12-2025 07:00:00,16.509717,80.612222,PM2.5,NA,NA,NA
India,Bihar,Gaya,"SFTI Kusdihra, Gaya - BSPCB",18-12-2025 07:00:00,24.762518,84.982348,SO2,7,13,8
India,Bihar,Gaya,"SFTI Kusdihra, Gaya - BSPCB",18-12-2025 07:00:00,24.762518,84.982348,CO,19,49,39
India,Delhi,Delhi,"Alipur, Delhi - DPCC",18-12-2025 07:00:00,28.815329,77.153010,CO,60,102,94
India,Delhi,Delhi,"Anand Vihar, Delhi - DPCC",18-12-2025 07:00:00,28.647622,77.3158090,PM2.5,308,500,416
India,Delhi,Delhi,"Anand Vihar, Delhi - DPCC",18-12-2025 07:00:00,28.647622,77.3158090,PM10,200,500,395
India,Delhi,Delhi,"Anand Vihar, Delhi - DPCC",18-12-2025 07:00:00,28.647622,77.3158090,NH3,9,17,14
India,Delhi,Delhi,"Ashok Vihar, Delhi - DPCC",18-12-2025 07:00:00,28.695381,77.181665,NH3,7,9,8
India,Delhi,Delhi,"Aya Nagar, Delhi - IMD",18-12-2025 07:00:00,28.4706914,77.1099364,PM10,158,446,240
India,Delhi,Delhi,"Aya Nagar, Delhi - IMD",18-12-2025 07:00:00,28.4706914,77.1099364,OZONE,6,77,7
India,Delhi,Delhi,"Bawana, Delhi - DPCC",18-12-2025 07:00:00,28.776200,77.051074,PM10,155,462,281
India,Bihar,Muzaffarpur,"Muzaffarpur Collectorate, Muzaffarpur - BSPCB",18-12-2025 07:00:00,26.1209,85.3647,CO,22,48,30
India,Bihar,Patna,"DRM Office Danapur, Patna - BSPCB",18-12-2025 07:00:00,25.586562,85.043586,PM2.5,80,306,216
India,Bihar,Patna,"Govt. High School Shikarpur, Patna - BSPCB",18-12-2025 07:00:00,25.592539,85.227158,PM10,84,213,142
India,Bihar,Patna,"IGSC Planetarium Complex, Patna - BSPCB",18-12-2025 07:00:00,25.610369,85.132568,SO2,NA,NA,NA
India,Bihar,Patna,"IGSC Planetarium Complex, Patna - BSPCB",18-12-2025 07:00:00,25.610369,85.132568,CO,NA,NA,NA
India,Bihar,Patna,"IGSC Planetarium Complex, Patna - BSPCB",18-12-2025 07:00:00,25.610369,85.132568,OZONE,NA,NA,NA
India,Chhattisgarh,Bhilai,"Civic Center, Bhilai - Bhilai Steel Plant",18-12-2025 07:00:00,21.185571,81.343175,NO2,22,22,22
India,Chhattisgarh,Bhilai,"Civic Center, Bhilai - Bhilai Steel Plant",18-12-2025 07:00:00,21.185571,81.343175,CO,21,22,22
India,Chhattisgarh,Bhilai,"Hathkhoj, Bhilai - CECB",18-12-2025 07:00:00,21.224231,81.408350,NH3,2,10,5
India,Chhattisgarh,Chhal,"Nawapara SECL Colony, Chhal - CECB",18-12-2025 07:00:00,22.118125,83.140608,PM2.5,50,97,74
India,Chhattisgarh,Korba,"Rampur, Korba - CECB",18-12-2025 07:00:00,22.368195,82.746431,PM2.5,57,87,60
India,Chhattisgarh,Raipur,"AIIMS, Raipur - CECB",18-12-2025 07:00:00,21.258815,81.578979,PM10,35,121,82
India,Chhattisgarh,Raipur,"AIIMS, Raipur - CECB",18-12-2025 07:00:00,21.258815,81.578979,CO,44,116,105
India,Chhattisgarh,Raipur,"Krishak Nagar, Raipur - CECB",18-12-2025 07:00:00,21.237755,81.705301,PM2.5,29,54,39
India,Chhattisgarh,Raipur,"Krishak Nagar, Raipur - CECB",18-12-2025 07:00:00,21.237755,81.705301,PM10,32,108,51
India,Chhattisgarh,Raipur,"Krishak Nagar, Raipur - CECB",18-12-2025 07:00:00,21.237755,81.705301,NO2,19,34,25
India,Bihar,Saharsa,"Police Line, Saharsa - BSPCB",18-12-2025 07:00:00,25.892357,86.590325,OZONE,7,17,10
India,Bihar,Samastipur,"DM Office_Kasipur, Samastipur - BSPCB",18-12-2025 07:00:00,25.859655,85.77944,CO,NA,NA,NA
India,Bihar,Sasaram,"Dada Peer, Sasaram - BSPCB",18-12-2025 07:00:00,24.952822,84.002396,SO2,2,5,4
India,Bihar,Patna,"Rajbansi Nagar, Patna - BSPCB",18-12-2025 07:00:00,25.599486,85.113666,NO2,4,142,64
India,Bihar,Purnia,"Mariam Nagar, Purnia - BSPCB",18-12-2025 07:00:00,25.366336,87.117468,PM10,22,110,75
India,Bihar,Rajgir,"Dangi Tola, Rajgir - BSPCB",18-12-2025 07:00:00,25.03280,85.41948,NO2,3,10,9
India,Chhattisgarh,Bhilai,"32Bungalows, Bhilai - CECB",18-12-2025 07:00:00,21.194815,81.314770,PM2.5,26,46,37
India,Chhattisgarh,Bhilai,"32Bungalows, Bhilai - CECB",18-12-2025 07:00:00,21.194815,81.314770,SO2,6,8,6
India,Chhattisgarh,Bhilai,"32Bungalows, Bhilai - CECB",18-12-2025 07:00:00,21.194815,81.314770,OZONE,1,5,2
India,Chhattisgarh,Korba,"Urja Nagar, Korba - CECB",18-12-2025 07:00:00,22.348441,82.549611,NO2,25,32,27
India,Delhi,Delhi,"Alipur, Delhi - DPCC",18-12-2025 07:00:00,28.815329,77.153010,PM2.5,200,404,307
India,Delhi,Delhi,"IHBAS, Dilshad Garden, Delhi - CPCB",18-12-2025 07:00:00,28.6811736,77.3025234,OZONE,9,40,10
India,Delhi,Delhi,"IIT Delhi, Delhi - IITM",18-12-2025 07:00:00,28.542460,77.191651,PM10,140,361,213
India,Delhi,Delhi,"ITO, Delhi - CPCB",18-12-2025 07:00:00,28.628624,77.241060,PM10,168,455,318
India,Delhi,Delhi,"ITO, Delhi - CPCB",18-12-2025 07:00:00,28.628624,77.241060,NO2,57,178,94
India,Delhi,Delhi,"ITO, Delhi - CPCB",18-12-2025 07:00:00,28.628624,77.241060,NH3,3,7,4
India,Delhi,Delhi,"ITO, Delhi - CPCB",18-12-2025 07:00:00,28.628624,77.241060,SO2,7,24,17
India,Delhi,Delhi,"ITO, Delhi - CPCB",18-12-2025 07:00:00,28.628624,77.241060,OZONE,13,21,14
India,Delhi,Delhi,"Jahangirpuri, Delhi - DPCC",18-12-2025 07:00:00,28.732820,77.170633,PM10,184,467,318
India,Delhi,Delhi,"Jahangirpuri, Delhi - DPCC",18-12-2025 07:00:00,28.732820,77.170633,NO2,93,156,114
India,Delhi,Delhi,"Jahangirpuri, Delhi - DPCC",18-12-2025 07:00:00,28.732820,77.170633,OZONE,5,111,6
India,Delhi,Delhi,"Jawaharlal Nehru Stadium, Delhi - DPCC",18-12-2025 07:00:00,28.580280,77.233829,NO2,41,133,69
India,Delhi,Delhi,"Jawaharlal Nehru Stadium, Delhi - DPCC",18-12-2025 07:00:00,28.580280,77.233829,NH3,17,26,21
India,Delhi,Delhi,"Jawaharlal Nehru Stadium, Delhi - DPCC",18-12-2025 07:00:00,28.580280,77.233829,SO2,1,11,5
India,Delhi,Delhi,"Pusa, Delhi - DPCC",18-12-2025 07:00:00,28.639652,77.146275,NO2,48,159,106
India,Delhi,Delhi,"Pusa, Delhi - DPCC",18-12-2025 07:00:00,28.639652,77.146275,SO2,2,12,6
India,Delhi,Delhi,"Pusa, Delhi - DPCC",18-12-2025 07:00:00,28.639652,77.146275,CO,64,102,79
India,Delhi,Delhi,"Pusa, Delhi - DPCC",18-12-2025 07:00:00,28.639652,77.146275,OZONE,6,9,7
India,Delhi,Delhi,"Pusa, Delhi - IMD",18-12-2025 07:00:00,28.636110,77.173332,CO,44,150,111
India,Delhi,Delhi,"R K Puram, Delhi - DPCC",18-12-2025 07:00:00,28.563262,77.186937,PM2.5,220,500,379
India,Delhi,Delhi,"R K Puram, Delhi - DPCC",18-12-2025 07:00:00,28.563262,77.186937,NH3,9,11,10
India,Delhi,Delhi,"Rohini, Delhi - DPCC",18-12-2025 07:00:00,28.732528,77.119920,NO2,26,108,53
India,Delhi,Delhi,"Shadipur, Delhi - CPCB",18-12-2025 07:00:00,28.6514781,77.1473105,PM2.5,297,342,309
India,Delhi,Delhi,"Shadipur, Delhi - CPCB",18-12-2025 07:00:00,28.6514781,77.1473105,PM10,179,470,289
India,Delhi,Delhi,"Vivek Vihar, Delhi - DPCC",18-12-2025 07:00:00,28.672342,77.315260,SO2,12,27,15
India,Delhi,Delhi,"Wazirpur, Delhi - DPCC",18-12-2025 07:00:00,28.699793,77.165453,PM2.5,280,500,404
India,Gujarat,Ahmedabad,"Chandkheda, Ahmedabad - IITM",18-12-2025 07:00:00,23.107969,72.574648,NO2,18,85,40
India,Gujarat,Ahmedabad,"Chandkheda, Ahmedabad - IITM",18-12-2025 07:00:00,23.107969,72.574648,NH3,4,8,6
India,Gujarat,Ahmedabad,"Gyaspur, Ahmedabad - IITM",18-12-2025 07:00:00,22.977134,72.553024,PM2.5,124,328,212
India,Gujarat,Ahmedabad,"Gyaspur, Ahmedabad - IITM",18-12-2025 07:00:00,22.977134,72.553024,PM10,148,189,170
India,Gujarat,Ahmedabad,"Gyaspur, Ahmedabad - IITM",18-12-2025 07:00:00,22.977134,72.553024,NH3,6,32,15
India,Gujarat,Ahmedabad,"Maninagar, Ahmedabad - GPCB",18-12-2025 07:00:00,23.002657,72.591912,PM2.5,31,110,76
India,Delhi,Delhi,"Dr. Karni Singh Shooting Range, Delhi - DPCC",18-12-2025 07:00:00,28.498571,77.264840,PM10,156,436,258
India,Delhi,Delhi,"Dr. Karni Singh Shooting Range, Delhi - DPCC",18-12-2025 07:00:00,28.498571,77.264840,SO2,10,17,13
India,Delhi,Delhi,"Dr. Karni Singh Shooting Range, Delhi - DPCC",18-12-2025 07:00:00,28.498571,77.264840,OZONE,9,314,13
India,Delhi,Delhi,"Dwarka-Sector 8, Delhi - DPCC ",18-12-2025 07:00:00,28.5710274,77.0719006,CO,26,140,108
India,Delhi,Delhi,"Dwarka-Sector 8, Delhi - DPCC ",18-12-2025 07:00:00,28.5710274,77.0719006,OZONE,7,110,9
India,Delhi,Delhi,"IGI Airport (T3), Delhi - IMD",18-12-2025 07:00:00,28.5627763,77.1180053,PM2.5,119,420,273
India,Delhi,Delhi,"IHBAS, Dilshad Garden, Delhi - CPCB",18-12-2025 07:00:00,28.6811736,77.3025234,SO2,15,23,19
India,Delhi,Delhi,"Lodhi Road, Delhi - IMD",18-12-2025 07:00:00,28.5918245,77.2273074,PM10,164,426,249
India,Delhi,Delhi,"Lodhi Road, Delhi - IMD",18-12-2025 07:00:00,28.5918245,77.2273074,CO,32,74,64
India,Delhi,Delhi,"Major Dhyan Chand National Stadium, Delhi - DPCC",18-12-2025 07:00:00,28.611281,77.237738,NH3,22,36,24
India,Delhi,Delhi,"Mandir Marg, Delhi - DPCC",18-12-2025 07:00:00,28.636429,77.201067,PM10,142,443,269
India,Delhi,Delhi,"Mandir Marg, Delhi - DPCC",18-12-2025 07:00:00,28.636429,77.201067,OZONE,8,82,11
India,Delhi,Delhi,"Mundka, Delhi - DPCC",18-12-2025 07:00:00,28.684678,77.076574,NO2,48,124,76
India,Delhi,Delhi,"NSIT Dwarka, Delhi - CPCB",18-12-2025 07:00:00,28.60909,77.0325413,CO,54,101,72
India,Delhi,Delhi,"NSIT Dwarka, Delhi - CPCB",18-12-2025 07:00:00,28.60909,77.0325413,OZONE,23,74,25
India,Delhi,Delhi,"Najafgarh, Delhi - DPCC",18-12-2025 07:00:00,28.570173,76.933762,PM2.5,187,367,289
India,Delhi,Delhi,"Najafgarh, Delhi - DPCC",18-12-2025 07:00:00,28.570173,76.933762,PM10,111,185,144
India,Delhi,Delhi,"Narela, Delhi - DPCC",18-12-2025 07:00:00,28.822836,77.101981,PM10,153,449,273
India,Delhi,Delhi,"Narela, Delhi - DPCC",18-12-2025 07:00:00,28.822836,77.101981,NO2,19,67,34
India,Delhi,Delhi,"Narela, Delhi - DPCC",18-12-2025 07:00:00,28.822836,77.101981,NH3,8,11,9
India,Delhi,Delhi,"North Campus, DU, Delhi - IMD",18-12-2025 07:00:00,28.6573814,77.1585447,CO,22,140,106
India,Delhi,Delhi,"Patparganj, Delhi - DPCC",18-12-2025 07:00:00,28.623763,77.287209,NH3,10,17,14
India,Delhi,Delhi,"Punjabi Bagh, Delhi - DPCC",18-12-2025 07:00:00,28.674045,77.131023,PM10,168,500,309
India,Delhi,Delhi,"CRRI Mathura Road, Delhi - IMD",18-12-2025 07:00:00,28.5512005,77.2735737,PM10,158,386,234
India,Delhi,Delhi,"Chandni Chowk, Delhi - IITM",18-12-2025 07:00:00,28.656756,77.227234,NH3,7,20,11
India,Delhi,Delhi,"DTU, Delhi - CPCB",18-12-2025 07:00:00,28.7500499,77.1112615,PM10,135,429,248
India,Delhi,Delhi,"Shadipur, Delhi - CPCB",18-12-2025 07:00:00,28.6514781,77.1473105,OZONE,9,23,11
India,Delhi,Delhi,"Sonia Vihar, Delhi - DPCC",18-12-2025 07:00:00,28.710508,77.249485,CO,98,138,117
India,Haryana,Charkhi Dadri,"Mini Secretariat, Charkhi Dadri - HSPCB",18-12-2025 07:00:00,28.593883,76.270653,NO2,9,22,15
India,Haryana,Dharuhera,"Municipal Corporation Office, Dharuhera -  HSPCB",18-12-2025 07:00:00,28.206800,76.799700,PM10,NA,NA,NA
India,Haryana,Dharuhera,"Municipal Corporation Office, Dharuhera -  HSPCB",18-12-2025 07:00:00,28.206800,76.799700,NH3,NA,NA,NA
India,Haryana,Dharuhera,"Municipal Corporation Office, Dharuhera -  HSPCB",18-12-2025 07:00:00,28.206800,76.799700,SO2,NA,NA,NA
India,Haryana,Dharuhera,"Municipal Corporation Office, Dharuhera -  HSPCB",18-12-2025 07:00:00,28.206800,76.799700,OZONE,NA,NA,NA
India,Haryana,Faridabad,"New Industrial Town, Faridabad - HSPCB",18-12-2025 07:00:00,28.39072,77.30059,PM2.5,204,221,213
India,Haryana,Faridabad,"New Industrial Town, Faridabad - HSPCB",18-12-2025 07:00:00,28.39072,77.30059,NH3,11,12,11
India,Haryana,Faridabad,"New Industrial Town, Faridabad - HSPCB",18-12-2025 07:00:00,28.39072,77.30059,SO2,8,8,8
India,Haryana,Faridabad,"Sector 11, Faridabad - HSPCB",18-12-2025 07:00:00,28.376058,77.315741,PM2.5,64,411,270
India,Haryana,Faridabad,"Sector 11, Faridabad - HSPCB",18-12-2025 07:00:00,28.376058,77.315741,PM10,64,406,198
India,Haryana,Faridabad,"Sector 11, Faridabad - HSPCB",18-12-2025 07:00:00,28.376058,77.315741,NO2,29,33,31
India,Haryana,Faridabad,"Sector 11, Faridabad - HSPCB",18-12-2025 07:00:00,28.376058,77.315741,SO2,4,5,4
India,Haryana,Faridabad,"Sector 11, Faridabad - HSPCB",18-12-2025 07:00:00,28.376058,77.315741,OZONE,14,16,15
India,Haryana,Fatehabad,"Huda Sector, Fatehabad - HSPCB",18-12-2025 07:00:00,29.503664,75.467934,PM10,126,188,156
India,Haryana,Fatehabad,"Huda Sector, Fatehabad - HSPCB",18-12-2025 07:00:00,29.503664,75.467934,CO,25,33,26
India,Haryana,Gurugram,"NISE Gwal Pahari, Gurugram - IMD",18-12-2025 07:00:00,28.422681,77.148944,CO,40,102,93
India,Haryana,Gurugram,"NISE Gwal Pahari, Gurugram - IMD",18-12-2025 07:00:00,28.422681,77.148944,OZONE,4,63,8
India,Haryana,Gurugram,"Sector-51, Gurugram - HSPCB",18-12-2025 07:00:00,28.4227,77.0667,PM2.5,96,425,290
India,Haryana,Gurugram,"Sector-51, Gurugram - HSPCB",18-12-2025 07:00:00,28.4227,77.0667,NO2,4,10,6
India,Haryana,Gurugram,"Sector-51, Gurugram - HSPCB",18-12-2025 07:00:00,28.4227,77.0667,SO2,2,23,13
India,Gujarat,Gandhinagar,"Sector-10, Gandhinagar - GPCB",18-12-2025 07:00:00,23.221714,72.654328,CO,32,42,38
India,Gujarat,Surat,"Science Center, Surat - SMC",18-12-2025 07:00:00,21.170046,72.795405,PM2.5,NA,NA,NA
India,Gujarat,Vapi,"Phase-1 GIDC, Vapi - GPCB",18-12-2025 07:00:00,20.362421,72.918013,PM10,47,484,105
India,Gujarat,Vatva,"Phase-4 GIDC, Vatva - GPCB",18-12-2025 07:00:00,22.969611,72.643500,PM2.5,50,211,98
India,Gujarat,Vatva,"Phase-4 GIDC, Vatva - GPCB",18-12-2025 07:00:00,22.969611,72.643500,PM10,49,272,97
India,Gujarat,Vatva,"Phase-4 GIDC, Vatva - GPCB",18-12-2025 07:00:00,22.969611,72.643500,NH3,3,7,5
India,Haryana,Ambala,"Patti Mehar, Ambala - HSPCB",18-12-2025 07:00:00,30.379589,76.778328,CO,74,76,75
India,Haryana,Bahadurgarh,"Arya Nagar, Bahadurgarh - HSPCB",18-12-2025 07:00:00,28.6701,76.9254,PM10,45,339,184
India,Haryana,Bahadurgarh,"Arya Nagar, Bahadurgarh - HSPCB",18-12-2025 07:00:00,28.6701,76.9254,SO2,7,7,7
India,Haryana,Charkhi Dadri,"Mini Secretariat, Charkhi Dadri - HSPCB",18-12-2025 07:00:00,28.593883,76.270653,PM2.5,89,288,154
India,Gujarat,Ahmedabad,"Maninagar, Ahmedabad - GPCB",18-12-2025 07:00:00,23.002657,72.591912,SO2,41,51,46
India,Gujarat,Ahmedabad,"Rakhial, Ahmedabad - IITM",18-12-2025 07:00:00,23.016834,72.625775,CO,2,66,11
India,Gujarat,Ahmedabad,"SAC ISRO Satellite, Ahmedabad - IITM",18-12-2025 07:00:00,23.023389,72.515201,NH3,11,17,13
India,Haryana,Gurugram,"Teri Gram, Gurugram - HSPCB",18-12-2025 07:00:00,28.4275,77.1465,CO,24,70,66
India,Haryana,Gurugram,"Teri Gram, Gurugram - HSPCB",18-12-2025 07:00:00,28.4275,77.1465,OZONE,10,43,12
India,Haryana,Gurugram,"Vikas Sadan, Gurugram - HSPCB",18-12-2025 07:00:00,28.4501238,77.0263051,NO2,3,16,9
India,Haryana,Jind,"Police Lines, Jind - HSPCB",18-12-2025 07:00:00,29.307814,76.337619,OZONE,4,46,7
India,Haryana,Kurukshetra,"Sector-7, Kurukshetra - HSPCB",18-12-2025 07:00:00,29.966942,76.875879,PM10,172,233,196
India,Haryana,Mandikhera,"General Hospital, Mandikhera(Nuh) - HSPCB",18-12-2025 07:00:00,27.9002,76.9938,SO2,31,37,34
India,Haryana,Manesar,"Sector-2 IMT, Manesar - HSPCB",18-12-2025 07:00:00,28.360699,76.936090,SO2,10,19,14
India,Gujarat,Gandhinagar,"GIFT City, Gandhinagar - IITM",18-12-2025 07:00:00,23.163798,72.677768,PM2.5,83,114,100
India,Gujarat,Gandhinagar,"IIPHG Lekawada, Gandhinagar - IITM",18-12-2025 07:00:00,23.243639,72.68994,OZONE,3,51,4
India,Haryana,Sirsa,"F-Block, Sirsa - HSPCB",18-12-2025 07:00:00,29.536400,75.015800,PM10,6,121,36
India,Haryana,Sirsa,"F-Block, Sirsa - HSPCB",18-12-2025 07:00:00,29.536400,75.015800,NH3,11,16,13
India,Haryana,Sirsa,"F-Block, Sirsa - HSPCB",18-12-2025 07:00:00,29.536400,75.015800,OZONE,40,83,49
India,Haryana,Sonipat,"Murthal, Sonipat - HSPCB",18-12-2025 07:00:00,29.027200,77.062100,SO2,6,11,8
India,Haryana,Sonipat,"Murthal, Sonipat - HSPCB",18-12-2025 07:00:00,29.027200,77.062100,CO,40,89,78
India,Haryana,Yamuna Nagar,"Gobind Pura, Yamuna Nagar - HSPCB",18-12-2025 07:00:00,30.1480566,77.2893471,PM10,121,213,163
India,Haryana,Yamuna Nagar,"Gobind Pura, Yamuna Nagar - HSPCB",18-12-2025 07:00:00,30.1480566,77.2893471,NO2,12,20,17
India,Haryana,Yamuna Nagar,"Gobind Pura, Yamuna Nagar - HSPCB",18-12-2025 07:00:00,30.1480566,77.2893471,CO,29,64,43
India,Himachal Pradesh,Baddi,"HIMUDA Complex Phase-1, Baddi - HPPCB",18-12-2025 07:00:00,30.943887,76.801991,SO2,28,103,54
India,Jammu_and_Kashmir,Srinagar,"Khunmoh, Srinagar - JKPCC",18-12-2025 07:00:00,34.06313,74.96017,NO2,9,57,14
India,Jammu_and_Kashmir,Srinagar,"Rajbagh, Srinagar - JKPCC",18-12-2025 07:00:00,34.066206,74.819820,NO2,NA,NA,NA
India,Jammu_and_Kashmir,Srinagar,"Rajbagh, Srinagar - JKPCC",18-12-2025 07:00:00,34.066206,74.819820,CO,20,29,25
India,Jharkhand,Dhanbad,"Sardar Patel Nagar, Dhanbad - JSPCB",18-12-2025 07:00:00,23.80569,86.44268,OZONE,NA,NA,NA
India,Karnataka,Belgaum,"Ramteerth Nagar, Belgaum - KSPCB",18-12-2025 07:00:00,15.888653,74.541751,PM10,40,114,76
India,Karnataka,Belgaum,"Ramteerth Nagar, Belgaum - KSPCB",18-12-2025 07:00:00,15.888653,74.541751,SO2,21,22,22
India,Karnataka,Bengaluru,"BTM Layout, Bengaluru - CPCB",18-12-2025 07:00:00,12.9135218,77.5950804,PM10,91,92,91
India,Karnataka,Bengaluru,"BTM Layout, Bengaluru - CPCB",18-12-2025 07:00:00,12.9135218,77.5950804,NH3,5,6,6
India,Karnataka,Kalaburagi,"Mahatma Basaveswar Colony, Kalaburgi - KSPCB",18-12-2025 07:00:00,17.336318,76.847397,NH3,3,4,3
India,Karnataka,Kalaburagi,"Mahatma Basaveswar Colony, Kalaburgi - KSPCB",18-12-2025 07:00:00,17.336318,76.847397,CO,39,64,51
India,Karnataka,Madikeri,"Stuart Hill, Madikeri - KSPCB",18-12-2025 07:00:00,12.415911,75.735050,PM10,25,49,35
India,Karnataka,Mangalore,"Kadri, Mangalore - KSPCB",18-12-2025 07:00:00,12.889250,74.853000,OZONE,4,43,17
India,Karnataka,Mysuru,"Hebbal 1st Stage, Mysuru - KSPCB",18-12-2025 07:00:00,12.21041,76.37376,PM2.5,15,44,27
India,Karnataka,Mysuru,"Hebbal 1st Stage, Mysuru - KSPCB",18-12-2025 07:00:00,12.21041,76.37376,PM10,42,56,50
India,Karnataka,Mysuru,"Hebbal 1st Stage, Mysuru - KSPCB",18-12-2025 07:00:00,12.21041,76.37376,NH3,3,7,5
India,Karnataka,Chamarajanagar,"Urban, Chamarajanagar - KSPCB",18-12-2025 07:00:00,11.55358,76.55521,CO,14,120,30
India,Karnataka,Chikkamagaluru,"Kalyana Nagara, Chikkamagaluru - KSPCB",18-12-2025 07:00:00,13.328028,75.797056,PM2.5,32,112,57
India,Karnataka,Davanagere,"Devaraj Urs Badavane, Davanagere - KSPCB",18-12-2025 07:00:00,14.475800,75.905200,NO2,7,34,28
India,Karnataka,Dharwad,"Kalabhavan, Dharwad - KSPCB",18-12-2025 07:00:00,15.459706,75.008381,SO2,2,5,3
India,Karnataka,Hubballi,"Lingaraj Nagar, Hubballi - KSPCB",18-12-2025 07:00:00,15.3714823,75.1160168,NH3,1,2,2
India,Karnataka,Bengaluru,"BWSSB Kadabesanahalli, Bengaluru - CPCB",18-12-2025 07:00:00,12.9352049,77.6814488,SO2,1,10,5
India,Karnataka,Bengaluru,"BWSSB Kadabesanahalli, Bengaluru - CPCB",18-12-2025 07:00:00,12.9352049,77.6814488,CO,21,133,133
India,Karnataka,Bengaluru,"City Railway Station, Bengaluru - KSPCB",18-12-2025 07:00:00,12.9756843,77.5660749,CO,86,89,87
India,Karnataka,Bengaluru,"Hebbal, Bengaluru - KSPCB",18-12-2025 07:00:00,13.029152,77.585901,CO,6,50,18
India,Karnataka,Bengaluru,"Jayanagar 5th Block, Bengaluru - KSPCB",18-12-2025 07:00:00,12.920984,77.584908,NH3,1,2,1
India,Karnataka,Mysuru,"Hebbal 1st Stage, Mysuru - KSPCB",18-12-2025 07:00:00,12.21041,76.37376,CO,6,38,19
India,Karnataka,Tumakuru,"Thimmalapura, Tumakuru - KSPCB",18-12-2025 07:00:00,13.377516,77.099072,NO2,NA,NA,NA
India,Kerala,Kannur,"Thavakkara, Kannur - Kerala PCB",18-12-2025 07:00:00,11.875000,75.373200,NO2,16,18,17
India,Kerala,Kollam,"Polayathode, Kollam - Kerala PCB",18-12-2025 07:00:00,8.8787,76.6073,PM2.5,NA,NA,NA
India,Karnataka,Bengaluru,"Peenya, Bengaluru - CPCB",18-12-2025 07:00:00,13.0270199,77.494094,SO2,4,18,9
India,Karnataka,Bengaluru,"Peenya, Bengaluru - CPCB",18-12-2025 07:00:00,13.0270199,77.494094,CO,26,60,31
India,Karnataka,Bengaluru,"RVCE-Mailasandra, Bengaluru - KSPCB",18-12-2025 07:00:00,12.921418,77.502466,CO,24,45,41
India,Karnataka,Bengaluru,"Silk Board, Bengaluru - KSPCB",18-12-2025 07:00:00,12.917348,77.622813,OZONE,15,28,21
India,Haryana,Panchkula,"Sector-6, Panchkula - HSPCB ",18-12-2025 07:00:00,30.7057778,76.8531805555555,NO2,24,26,25
India,Haryana,Panchkula,"Sector-6, Panchkula - HSPCB ",18-12-2025 07:00:00,30.7057778,76.8531805555555,SO2,8,10,9
India,Haryana,Panipat,"Sector-18, Panipat - HSPCB",18-12-2025 07:00:00,29.432304,76.972765,SO2,11,11,11
India,Haryana,Panipat,"Sector-18, Panipat - HSPCB",18-12-2025 07:00:00,29.432304,76.972765,CO,47,48,48
India,Karnataka,Bengaluru,"Jigani, Bengaluru - KSPCB",18-12-2025 07:00:00,12.7816279,77.6299145,PM2.5,33,63,51
India,Karnataka,Bengaluru,"Jigani, Bengaluru - KSPCB",18-12-2025 07:00:00,12.7816279,77.6299145,OZONE,23,26,24
India,Karnataka,Bengaluru,"Kasturi Nagar, Bengaluru - KSPCB",18-12-2025 07:00:00,13.003872,77.664217,NO2,31,33,32
India,Karnataka,Bengaluru,"Kasturi Nagar, Bengaluru - KSPCB",18-12-2025 07:00:00,13.003872,77.664217,SO2,10,11,11
India,Madhya Pradesh,Sagar,"Civil Lines, Sagar - MPPCB",18-12-2025 07:00:00,23.838586,78.759431,NO2,10,44,21
India,Madhya Pradesh,Sagar,"Civil Lines, Sagar - MPPCB",18-12-2025 07:00:00,23.838586,78.759431,SO2,4,38,9
India,Madhya Pradesh,Sagar,"Civil Lines, Sagar - MPPCB",18-12-2025 07:00:00,23.838586,78.759431,CO,19,72,42
India,Madhya Pradesh,Sagar,"Deen Dayal Nagar, Sagar - MPPCB",18-12-2025 07:00:00,23.8640158,78.80289321,CO,51,109,99
India,Madhya Pradesh,Satna,"Bandhavgar Colony, Satna - Birla Cement",18-12-2025 07:00:00,24.58434363,80.8549414,NO2,12,13,12
India,Madhya Pradesh,Satna,"Bandhavgar Colony, Satna - Birla Cement",18-12-2025 07:00:00,24.58434363,80.8549414,OZONE,1,42,3
India,Madhya Pradesh,Singrauli,"Suryakiran Bhawan NCL, Singrauli - MPPCB",18-12-2025 07:00:00,24.108970,82.645580,NO2,75,118,97
India,Madhya Pradesh,Indore,"Maguda Nagar, Indore - IMC",18-12-2025 07:00:00,22.7524,75.8872,NO2,NA,NA,NA
India,Madhya Pradesh,Indore,"Maguda Nagar, Indore - IMC",18-12-2025 07:00:00,22.7524,75.8872,NH3,NA,NA,NA
India,Madhya Pradesh,Indore,"Regional Park, Indore - IMC",18-12-2025 07:00:00,22.6780,75.8559,CO,16,50,42
India,Madhya Pradesh,Indore,"Residency Area, Indore - IMC",18-12-2025 07:00:00,22.7084,75.8815,CO,19,44,24
India,Madhya Pradesh,Jabalpur,"Govindh Bhavan Colony, Jabalpur - JMC",18-12-2025 07:00:00,23.163174,79.973061,PM2.5,28,87,46
India,Madhya Pradesh,Jabalpur,"Govindh Bhavan Colony, Jabalpur - JMC",18-12-2025 07:00:00,23.163174,79.973061,OZONE,23,24,24
India,Madhya Pradesh,Jabalpur,"Gupteshwar, Jabalpur - JMC",18-12-2025 07:00:00,23.142888,79.916147,NO2,22,102,44
India,Kerala,Kollam,"Polayathode, Kollam - Kerala PCB",18-12-2025 07:00:00,8.8787,76.6073,NO2,NA,NA,NA
India,Kerala,Thrissur,"Corporation Ground, Thrissur - Kerala PCB",18-12-2025 07:00:00,10.532400,76.215900,NO2,7,9,8
India,Kerala,Thrissur,"Corporation Ground, Thrissur - Kerala PCB",18-12-2025 07:00:00,10.532400,76.215900,CO,20,30,28
India,Madhya Pradesh,Bhopal,"Idgah Hills, Bhopal - MPPCB",18-12-2025 07:00:00,23.264759,77.381568,PM10,81,184,127
India,Madhya Pradesh,Bhopal,"Idgah Hills, Bhopal - MPPCB",18-12-2025 07:00:00,23.264759,77.381568,SO2,9,12,11
India,Madhya Pradesh,Bhopal,"Idgah Hills, Bhopal - MPPCB",18-12-2025 07:00:00,23.264759,77.381568,CO,24,73,37
India,Madhya Pradesh,Jabalpur,"Marhatal, Jabalpur - MPPCB",18-12-2025 07:00:00,23.168606,79.932247,PM2.5,46,379,150
India,Madhya Pradesh,Jabalpur,"Marhatal, Jabalpur - MPPCB",18-12-2025 07:00:00,23.168606,79.932247,SO2,8,28,14
India,Madhya Pradesh,Jabalpur,"Suhagi, Jabalpur - JMC",18-12-2025 07:00:00,23.218135,79.957770,SO2,6,8,7
India,Madhya Pradesh,Maihar,"Sahilara, Maihar - KJS Cements",18-12-2025 07:00:00,24.2613009,80.7231783,PM2.5,2,50,16
India,Madhya Pradesh,Maihar,"Sahilara, Maihar - KJS Cements",18-12-2025 07:00:00,24.2613009,80.7231783,NO2,40,142,70
India,Madhya Pradesh,Maihar,"Sahilara, Maihar - KJS Cements",18-12-2025 07:00:00,24.2613009,80.7231783,CO,26,32,27
India,Madhya Pradesh,Gwalior,"Maharaj Bada, Gwalior - MPPCB",18-12-2025 07:00:00,26.200388,78.147714,PM2.5,73,343,149
India,Madhya Pradesh,Gwalior,"Maharaj Bada, Gwalior - MPPCB",18-12-2025 07:00:00,26.200388,78.147714,PM10,72,230,116
India,Madhya Pradesh,Gwalior,"Maharaj Bada, Gwalior - MPPCB",18-12-2025 07:00:00,26.200388,78.147714,SO2,5,12,9
India,Madhya Pradesh,Indore,"Airport Area, Indore - IMC",18-12-2025 07:00:00,22.7289,75.8076,NO2,2,2,2
India,Madhya Pradesh,Indore,"Airport Area, Indore - IMC",18-12-2025 07:00:00,22.7289,75.8076,OZONE,4,12,5
India,Madhya Pradesh,Indore,"Chhoti Gwaltoli, Indore - MPPCB",18-12-2025 07:00:00,22.4310,75.5213,OZONE,3,62,12
India,Maharashtra,Ahmednagar,"Tarakpur, Ahmednagar - MPCB",18-12-2025 07:00:00,19.10122,74.73339,OZONE,1,140,7
India,Maharashtra,Akola,"Ramdaspeth, Akola - MPCB",18-12-2025 07:00:00,20.719516,77.000253,PM2.5,35,265,96
India,Maharashtra,Akola,"Ramdaspeth, Akola - MPCB",18-12-2025 07:00:00,20.719516,77.000253,SO2,1,29,14
India,Maharashtra,Akola,"Ramdaspeth, Akola - MPCB",18-12-2025 07:00:00,20.719516,77.000253,CO,13,106,33
India,Maharashtra,Amravati,"Shivneri Colony, Amravati - MPCB",18-12-2025 07:00:00,20.9402359,77.7895248,OZONE,2,82,12
India,Madhya Pradesh,Bhopal,"Paryavaran Parisar, Bhopal - MPPCB",18-12-2025 07:00:00,23.210494,77.425409,PM2.5,20,398,179
India,Madhya Pradesh,Bhopal,"Paryavaran Parisar, Bhopal - MPPCB",18-12-2025 07:00:00,23.210494,77.425409,NH3,1,1,1
India,Madhya Pradesh,Bhopal,"T T Nagar, Bhopal - MPPCB",18-12-2025 07:00:00,23.233584,77.400574,PM2.5,48,284,125
India,Madhya Pradesh,Bhopal,"T T Nagar, Bhopal - MPPCB",18-12-2025 07:00:00,23.233584,77.400574,CO,28,123,68
India,Maharashtra,Amravati,"Shri Shivaji Science College, Amravati - MPCB",18-12-2025 07:00:00,20.939198,77.765701,CO,28,126,51
India,Madhya Pradesh,Mandideep,"Sector-D Industrial Area, Mandideep - MPPCB",18-12-2025 07:00:00,23.108440,77.511428,PM10,NA,NA,NA
India,Maharashtra,Mumbai,"Kurla, Mumbai - MPCB",18-12-2025 07:00:00,19.0863,72.8888,OZONE,NA,NA,NA
India,Maharashtra,Mumbai,"Malad West, Mumbai - IITM",18-12-2025 07:00:00,19.19709,72.82204,PM2.5,40,161,106
India,Maharashtra,Mumbai,"Malad West, Mumbai - IITM",18-12-2025 07:00:00,19.19709,72.82204,SO2,1,27,10
India,Maharashtra,Mumbai,"Malad West, Mumbai - IITM",18-12-2025 07:00:00,19.19709,72.82204,CO,6,100,73
India,Maharashtra,Mumbai,"Mazgaon, Mumbai - IITM",18-12-2025 07:00:00,18.96702,72.84214,PM2.5,87,145,116
India,Maharashtra,Mumbai,"Mazgaon, Mumbai - IITM",18-12-2025 07:00:00,18.96702,72.84214,NH3,14,27,19
India,Maharashtra,Mumbai,"Mazgaon, Mumbai - IITM",18-12-2025 07:00:00,18.96702,72.84214,SO2,10,31,16
India,Maharashtra,Mumbai,"Mindspace-Malad West, Mumbai - MPCB",18-12-2025 07:00:00,19.1878657,72.8304069,PM2.5,64,335,187
India,Maharashtra,Mumbai,"Mindspace-Malad West, Mumbai - MPCB",18-12-2025 07:00:00,19.1878657,72.8304069,PM10,92,283,164
India,Maharashtra,Mumbai,"Mindspace-Malad West, Mumbai - MPCB",18-12-2025 07:00:00,19.1878657,72.8304069,OZONE,1,78,1
India,Maharashtra,Chandrapur,"MIDC Khutala, Chandrapur - MPCB",18-12-2025 07:00:00,19.9775302,79.2337086,SO2,8,10,9
India,Maharashtra,Dhule,"Deopur, Dhule - MPCB",18-12-2025 07:00:00,20.918946,74.776388,PM2.5,81,326,171
India,Maharashtra,Dhule,"Deopur, Dhule - MPCB",18-12-2025 07:00:00,20.918946,74.776388,PM10,60,175,101
India,Maharashtra,Jalgaon,"Prabhat Colony, Jalgaon - MPCB",18-12-2025 07:00:00,21.001264,75.565602,SO2,1,21,5
India,Maharashtra,Kalyan,"Pimpleshwar Mandir, Kalyan - MPCB",18-12-2025 07:00:00,19.192056,72.9585188,PM2.5,76,232,131
India,Maharashtra,Kalyan,"Pimpleshwar Mandir, Kalyan - MPCB",18-12-2025 07:00:00,19.192056,72.9585188,NO2,16,40,27
India,Maharashtra,Mumbai,"Deonar, Mumbai - IITM",18-12-2025 07:00:00,19.04946,72.9230,OZONE,NA,NA,NA
India,Maharashtra,Mumbai,"Ghatkopar, Mumbai - BMC",18-12-2025 07:00:00,19.083694,72.920967,NH3,1,6,4
India,Maharashtra,Mumbai,"Kherwadi_Bandra East, Mumbai - MPCB",18-12-2025 07:00:00,19.0632143,72.8456324,PM2.5,147,245,179
India,Maharashtra,Mumbai,"Kherwadi_Bandra East, Mumbai - MPCB",18-12-2025 07:00:00,19.0632143,72.8456324,CO,16,64,45
India,Maharashtra,Mumbai,"Khindipada-Bhandup West, Mumbai - IITM",18-12-2025 07:00:00,19.1653323,72.922099,SO2,5,25,14
India,Maharashtra,Mumbai,"Khindipada-Bhandup West, Mumbai - IITM",18-12-2025 07:00:00,19.1653323,72.922099,CO,36,64,50
India,Maharashtra,Bhiwandi,"Gokul Nagar, Bhiwandi - MPCB",18-12-2025 07:00:00,19.309073,73.057223,PM2.5,47,214,128
India,Maharashtra,Bhiwandi,"Gokul Nagar, Bhiwandi - MPCB",18-12-2025 07:00:00,19.309073,73.057223,CO,8,57,40
India,Maharashtra,Bhiwandi,"Gokul Nagar, Bhiwandi - MPCB",18-12-2025 07:00:00,19.309073,73.057223,OZONE,12,141,15
India,Maharashtra,Chandrapur,"Chauhan Colony, Chandrapur - MPCB",18-12-2025 07:00:00,19.962900,79.298714,PM10,NA,NA,NA
India,Maharashtra,Chandrapur,"Chauhan Colony, Chandrapur - MPCB",18-12-2025 07:00:00,19.962900,79.298714,CO,NA,NA,NA
India,Maharashtra,Chandrapur,"MIDC Khutala, Chandrapur - MPCB",18-12-2025 07:00:00,19.9775302,79.2337086,NH3,3,20,9
India,Maharashtra,Mumbai,"Mulund West, Mumbai - MPCB",18-12-2025 07:00:00,19.1750,72.9419,SO2,NA,NA,NA
India,Maharashtra,Mumbai,"Sewri, Mumbai - BMC",18-12-2025 07:00:00,19.000084,72.856730,PM2.5,1,169,40
India,Maharashtra,Mumbai,"Sewri, Mumbai - BMC",18-12-2025 07:00:00,19.000084,72.856730,NH3,11,41,29
India,Maharashtra,Mumbai,"Sewri, Mumbai - BMC",18-12-2025 07:00:00,19.000084,72.856730,OZONE,95,178,151
India,Maharashtra,Mumbai,"Siddharth Nagar-Worli, Mumbai - IITM",18-12-2025 07:00:00,19.000083,72.813993,PM10,101,156,137
India,Maharashtra,Mumbai,"Siddharth Nagar-Worli, Mumbai - IITM",18-12-2025 07:00:00,19.000083,72.813993,NO2,50,115,76
India,Maharashtra,Mira-Bhayandar,"Bhayandar West, Mira-Bhayandar - MPCB",18-12-2025 07:00:00,19.296481,72.840923,SO2,4,4,4
India,Maharashtra,Mira-Bhayandar,"Bhayandar West, Mira-Bhayandar - MPCB",18-12-2025 07:00:00,19.296481,72.840923,OZONE,5,98,27
India,Maharashtra,Mumbai,"Bandra Kurla Complex, Mumbai - MPCB",18-12-2025 07:00:00,19.065931,72.862131,NH3,13,18,15
India,Maharashtra,Mumbai,"Bandra Kurla Complex, Mumbai - MPCB",18-12-2025 07:00:00,19.065931,72.862131,OZONE,1,105,3
India,Maharashtra,Mumbai,"Borivali East, Mumbai - IITM",18-12-2025 07:00:00,19.23241,72.86895,OZONE,26,59,36
India,Maharashtra,Mumbai,"Chakala-Andheri East, Mumbai - IITM",18-12-2025 07:00:00,19.11074,72.86084,OZONE,5,68,23
India,Maharashtra,Mumbai,"Colaba, Mumbai - MPCB",18-12-2025 07:00:00,18.910000,72.820000,PM10,119,177,141
India,Maharashtra,Mumbai,"Colaba, Mumbai - MPCB",18-12-2025 07:00:00,18.910000,72.820000,SO2,NA,NA,NA
India,Maharashtra,Mumbai,"Deonar, Mumbai - IITM",18-12-2025 07:00:00,19.04946,72.9230,PM10,107,185,141
India,Maharashtra,Mumbai,"Deonar, Mumbai - IITM",18-12-2025 07:00:00,19.04946,72.9230,SO2,6,14,9
India,Maharashtra,Aurangabad,"More Chowk Waluj, Aurangabad - MPCB",18-12-2025 07:00:00,19.8389439,75.244448,PM10,NA,NA,NA
India,Maharashtra,Aurangabad,"More Chowk Waluj, Aurangabad - MPCB",18-12-2025 07:00:00,19.8389439,75.244448,CO,NA,NA,NA
India,Maharashtra,Aurangabad,"Rachnakar Colony, Aurangabad - MPCB",18-12-2025 07:00:00,19.863756,75.321188,PM2.5,103,302,189
India,Maharashtra,Belapur,"CBD Belapur, Belapur - MPCB",18-12-2025 07:00:00,19.0243902,73.0406721,PM2.5,35,57,45
India,Maharashtra,Kolhapur,"Sinchan Bhavan, Kolhapur - MPCB",18-12-2025 07:00:00,16.7143745,74.2426398,PM2.5,56,129,84
India,Maharashtra,Mahad,"Kamble Tarf Birwadi, Mahad - MPCB",18-12-2025 07:00:00,18.1023399,73.4783687,CO,34,93,39
India,Maharashtra,Nashik,"MIDC Ambad, Nashik - MPCB",18-12-2025 07:00:00,19.950220,73.731480,PM10,105,302,140
India,Maharashtra,Nashik,"MIDC Ambad, Nashik - MPCB",18-12-2025 07:00:00,19.950220,73.731480,NH3,1,3,3
India,Maharashtra,Nashik,"MIDC Ambad, Nashik - MPCB",18-12-2025 07:00:00,19.950220,73.731480,SO2,15,41,22
India,Maharashtra,Nashik,"MIDC Ambad, Nashik - MPCB",18-12-2025 07:00:00,19.950220,73.731480,OZONE,12,71,39
India,Maharashtra,Nashik,"Pandav Nagari, Nashik - MPCB",18-12-2025 07:00:00,19.9591346,73.7788008,NH3,4,8,5
India,Maharashtra,Nashik,"Pandav Nagari, Nashik - MPCB",18-12-2025 07:00:00,19.9591346,73.7788008,CO,25,96,38
India,Maharashtra,Navi Mumbai,"Kopripada-Vashi, Navi Mumbai - MPCB",18-12-2025 07:00:00,19.090337,73.014232,SO2,20,32,26
India,Maharashtra,Navi Mumbai,"Mahape, Navi Mumbai - MPCB",18-12-2025 07:00:00,19.1135051,73.008978,NO2,34,36,35
India,Maharashtra,Navi Mumbai,"Mahape, Navi Mumbai - MPCB",18-12-2025 07:00:00,19.1135051,73.008978,NH3,3,4,3
India,Maharashtra,Navi Mumbai,"Mahape, Navi Mumbai - MPCB",18-12-2025 07:00:00,19.1135051,73.008978,CO,22,25,22
India,Maharashtra,Navi Mumbai,"Nerul, Navi Mumbai - MPCB",18-12-2025 07:00:00,19.008751,73.016620,PM2.5,70,275,161
India,Maharashtra,Pune,"Hadapsar, Pune - IITM",18-12-2025 07:00:00,18.501793,73.927532,CO,55,99,91
India,Maharashtra,Pune,"Hadapsar, Pune - IITM",18-12-2025 07:00:00,18.501793,73.927532,OZONE,8,52,9
India,Maharashtra,Pune,"Katraj Dairy, Pune - MPCB",18-12-2025 07:00:00,18.454450,73.854155,NO2,24,89,55
India,Maharashtra,Pune,"Katraj Dairy, Pune - MPCB",18-12-2025 07:00:00,18.454450,73.854155,NH3,2,13,7
India,Maharashtra,Pune,"Katraj Dairy, Pune - MPCB",18-12-2025 07:00:00,18.454450,73.854155,SO2,2,4,3
India,Maharashtra,Pune,"Panchawati_Pashan, Pune - IITM",18-12-2025 07:00:00,18.536457,73.805454,PM2.5,100,274,186
India,Maharashtra,Pune,"Revenue Colony-Shivajinagar, Pune - IITM",18-12-2025 07:00:00,18.530085,73.849598,SO2,1,46,20
India,Maharashtra,Pune,"Revenue Colony-Shivajinagar, Pune - IITM",18-12-2025 07:00:00,18.530085,73.849598,CO,70,179,137
India,Maharashtra,Pune,"Revenue Colony-Shivajinagar, Pune - IITM",18-12-2025 07:00:00,18.530085,73.849598,OZONE,2,79,6
India,Maharashtra,Pune,"Savitribai Phule Pune University, Pune - MPCB",18-12-2025 07:00:00,18.547056,73.826908,PM2.5,59,187,115
India,Maharashtra,Pimpri-Chinchwad,"Park Street Wakad, Pimpri Chinchwad - MPCB",18-12-2025 07:00:00,18.59051,73.77946,CO,32,141,126
India,Maharashtra,Pimpri-Chinchwad,"Park Street Wakad, Pimpri Chinchwad - MPCB",18-12-2025 07:00:00,18.59051,73.77946,OZONE,3,121,3
India,Maharashtra,Pimpri-Chinchwad,"Savta Mali Nagar, Pimpri-Chinchwad - IITM",18-12-2025 07:00:00,18.614767,73.799516,PM2.5,97,308,208
India,Maharashtra,Pimpri-Chinchwad,"Savta Mali Nagar, Pimpri-Chinchwad - IITM",18-12-2025 07:00:00,18.614767,73.799516,OZONE,2,66,3
India,Maharashtra,Pimpri-Chinchwad,"Thergaon, Pimpri Chinchwad - MPCB",18-12-2025 07:00:00,18.616318,73.765797,PM2.5,87,317,220
India,Maharashtra,Pimpri-Chinchwad,"Thergaon, Pimpri Chinchwad - MPCB",18-12-2025 07:00:00,18.616318,73.765797,NO2,48,130,85
India,Maharashtra,Pimpri-Chinchwad,"Thergaon, Pimpri Chinchwad - MPCB",18-12-2025 07:00:00,18.616318,73.765797,SO2,1,5,3
India,Maharashtra,Nagpur,"Ambazari, Nagpur - MPCB",18-12-2025 07:00:00,21.121801,79.04952,NO2,14,108,50
India,Maharashtra,Nagpur,"Ambazari, Nagpur - MPCB",18-12-2025 07:00:00,21.121801,79.04952,SO2,23,130,57
India,Maharashtra,Nagpur,"Mahal, Nagpur - MPCB",18-12-2025 07:00:00,21.14472,79.107595,PM2.5,59,320,140
India,Maharashtra,Nagpur,"Mahal, Nagpur - MPCB",18-12-2025 07:00:00,21.14472,79.107595,PM10,42,379,130
India,Maharashtra,Nagpur,"Mahal, Nagpur - MPCB",18-12-2025 07:00:00,21.14472,79.107595,NH3,4,9,6
India,Maharashtra,Nagpur,"Mahal, Nagpur - MPCB",18-12-2025 07:00:00,21.14472,79.107595,SO2,11,125,60
India,Maharashtra,Nagpur,"Opp GPO Civil Lines, Nagpur - MPCB",18-12-2025 07:00:00,21.152875,79.0517531,PM10,69,178,122
India,Maharashtra,Navi Mumbai,"Nerul, Navi Mumbai - MPCB",18-12-2025 07:00:00,19.008751,73.016620,SO2,NA,NA,NA
India,Maharashtra,Navi Mumbai,"Sanpada, Navi Mumbai - MPCB",18-12-2025 07:00:00,19.0575752,73.0151367,CO,34,151,115
India,Maharashtra,Navi Mumbai,"Sector-2E Kalamboli, Navi Mumbai - MPCB",18-12-2025 07:00:00,19.02579,73.10297,NO2,4,61,30
India,Maharashtra,Navi Mumbai,"Sector-2E Kalamboli, Navi Mumbai - MPCB",18-12-2025 07:00:00,19.02579,73.10297,OZONE,NA,NA,NA
India,Maharashtra,Parbhani,"Masoom Colony, Parbhani - MPCB",18-12-2025 07:00:00,19.265594,76.761463,PM2.5,90,295,179
India,Maharashtra,Nagpur,"Ram Nagar, Nagpur - MPCB",18-12-2025 07:00:00,21.143383,79.048912,PM2.5,75,186,122
India,Maharashtra,Nanded,"Sneh Nagar, Nanded - MPCB",18-12-2025 07:00:00,19.173852,77.296291,PM10,103,170,128
India,Maharashtra,Nanded,"Sneh Nagar, Nanded - MPCB",18-12-2025 07:00:00,19.173852,77.296291,NH3,3,5,4
India,Maharashtra,Nanded,"Sneh Nagar, Nanded - MPCB",18-12-2025 07:00:00,19.173852,77.296291,OZONE,6,123,19
India,Maharashtra,Nashik,"Gangapur Road, Nashik - MPCB",18-12-2025 07:00:00,20.0073285,73.7762427,NO2,5,5,5
India,Maharashtra,Nashik,"Gangapur Road, Nashik - MPCB",18-12-2025 07:00:00,20.0073285,73.7762427,OZONE,9,75,27
India,Maharashtra,Mumbai,"Sion, Mumbai - MPCB",18-12-2025 07:00:00,19.047000,72.874600,NO2,12,33,20
India,Maharashtra,Mumbai,"Sion, Mumbai - MPCB",18-12-2025 07:00:00,19.047000,72.874600,OZONE,8,12,12
India,Maharashtra,Mumbai,"Vile Parle West, Mumbai - MPCB",18-12-2025 07:00:00,19.10861,72.83622,NO2,NA,NA,NA
India,Maharashtra,Mumbai,"Vile Parle West, Mumbai - MPCB",18-12-2025 07:00:00,19.10861,72.83622,CO,NA,NA,NA
India,Maharashtra,Mumbai,"Worli, Mumbai - MPCB",18-12-2025 07:00:00,18.9936162,72.8128113,PM2.5,NA,NA,NA
India,Maharashtra,Mumbai,"Worli, Mumbai - MPCB",18-12-2025 07:00:00,18.9936162,72.8128113,SO2,NA,NA,NA
India,Maharashtra,Pune,"Dhankawadi, Pune - IITM",18-12-2025 07:00:00,18.459883,73.852193,PM2.5,64,349,220
India,Maharashtra,Pune,"Dhankawadi, Pune - IITM",18-12-2025 07:00:00,18.459883,73.852193,PM10,102,213,147
India,Maharashtra,Pune,"Dhankawadi, Pune - IITM",18-12-2025 07:00:00,18.459883,73.852193,OZONE,NA,NA,NA
India,Maharashtra,Pune,"Hadapsar, Pune - IITM",18-12-2025 07:00:00,18.501793,73.927532,NO2,22,48,33
India,Maharashtra,Parbhani,"Masoom Colony, Parbhani - MPCB",18-12-2025 07:00:00,19.265594,76.761463,SO2,1,11,7
India,Maharashtra,Parbhani,"Masoom Colony, Parbhani - MPCB",18-12-2025 07:00:00,19.265594,76.761463,CO,8,15,12
India,Odisha,Cuttack,"CDA Area, Cuttack - OSPCB",18-12-2025 07:00:00,20.48891     ,85.84768     ,NH3,5,9,6
India,Odisha,Cuttack,"CDA Area, Cuttack - OSPCB",18-12-2025 07:00:00,20.48891     ,85.84768     ,CO,36,126,55
India,Odisha,Keonjhar,"Jagamohanpur, Keonjhar - OSPCB",18-12-2025 07:00:00,21.643900,85.599355,PM10,56,136,93
India,Odisha,Keonjhar,"Jagamohanpur, Keonjhar - OSPCB",18-12-2025 07:00:00,21.643900,85.599355,NO2,27,74,45
India,Odisha,Rourkela,"Fertilizer Township, Rourkela - OSPCB",18-12-2025 07:00:00,22.18972222,84.86277778,PM10,NA,NA,NA
India,Odisha,Rourkela,"Fertilizer Township, Rourkela - OSPCB",18-12-2025 07:00:00,22.18972222,84.86277778,NO2,NA,NA,NA
India,Odisha,Rourkela,"Fertilizer Township, Rourkela - OSPCB",18-12-2025 07:00:00,22.18972222,84.86277778,CO,NA,NA,NA
India,Odisha,Rourkela,"Raghunathpali, Rourkela - OSPCB",18-12-2025 07:00:00,22.220833,84.809444,PM10,46,312,129
India,Odisha,Rourkela,"Raghunathpali, Rourkela - OSPCB",18-12-2025 07:00:00,22.220833,84.809444,NH3,2,2,2
India,Odisha,Rourkela,"Raghunathpali, Rourkela - OSPCB",18-12-2025 07:00:00,22.220833,84.809444,SO2,4,9,6
India,Odisha,Suakati,"OMC Colony, Suakati - OSPCB",18-12-2025 07:00:00,21.606865,85.510538,PM2.5,73,154,102
India,Odisha,Suakati,"OMC Colony, Suakati - OSPCB",18-12-2025 07:00:00,21.606865,85.510538,PM10,75,180,112
India,Odisha,Suakati,"OMC Colony, Suakati - OSPCB",18-12-2025 07:00:00,21.606865,85.510538,SO2,4,14,8
India,Odisha,Talcher,"Talcher Coalfields,Talcher - OSPCB",18-12-2025 07:00:00,20.9360711,85.1707021,CO,46,106,66
India,Odisha,Tensa,"Barsua Iron Ore Mines, Tensa - OSPCB",18-12-2025 07:00:00,21.869985,85.167016,PM2.5,NA,NA,NA
India,Odisha,Tensa,"Barsua Iron Ore Mines, Tensa - OSPCB",18-12-2025 07:00:00,21.869985,85.167016,PM10,87,145,125
India,Puducherry,Puducherry,"Jawahar Nagar, Puducherry - PPCC",18-12-2025 07:00:00,11.9309,79.8027,PM10,24,112,54
India,Puducherry,Puducherry,"Jawahar Nagar, Puducherry - PPCC",18-12-2025 07:00:00,11.9309,79.8027,NH3,2,4,3
India,Maharashtra,Pune,"Savitribai Phule Pune University, Pune - MPCB",18-12-2025 07:00:00,18.547056,73.826908,OZONE,NA,NA,NA
India,Maharashtra,Pune,"Transport Nagar-Nigdi, Pune - IITM",18-12-2025 07:00:00,18.664282,73.763966,PM10,154,354,211
India,Maharashtra,Pune,"Transport Nagar-Nigdi, Pune - IITM",18-12-2025 07:00:00,18.664282,73.763966,NO2,42,193,103
India,Maharashtra,Pune,"Transport Nagar-Nigdi, Pune - IITM",18-12-2025 07:00:00,18.664282,73.763966,OZONE,10,86,13
India,Maharashtra,Sangli,"Vijay Nagar, Sangli - MPCB",18-12-2025 07:00:00, 16.5038,74.3623,PM10,102,179,129
India,Maharashtra,Sangli,"Vijay Nagar, Sangli - MPCB",18-12-2025 07:00:00, 16.5038,74.3623,NH3,1,6,4
India,Maharashtra,Sangli,"Vijay Nagar, Sangli - MPCB",18-12-2025 07:00:00, 16.5038,74.3623,OZONE,2,55,9
India,Maharashtra,Solapur,"Dnyaneshwar Nagar, Solapur - MPCB",18-12-2025 07:00:00,17.6336264,75.9132495,SO2,1,4,2
India,Odisha,Balasore,"Kalidaspur, Balasore - OSPCB",18-12-2025 07:00:00,21.51161,86.89088,PM2.5,NA,NA,NA
India,Odisha,Balasore,"Kalidaspur, Balasore - OSPCB",18-12-2025 07:00:00,21.51161,86.89088,PM10,124,228,152
India,Odisha,Barbil,"Forest Office, Barbil - OSPCB",18-12-2025 07:00:00,22.1166054,85.3945546,PM2.5,100,370,255
India,Odisha,Barbil,"Forest Office, Barbil - OSPCB",18-12-2025 07:00:00,22.1166054,85.3945546,PM10,94,309,163
India,Odisha,Barbil,"Forest Office, Barbil - OSPCB",18-12-2025 07:00:00,22.1166054,85.3945546,NO2,16,70,29
India,Odisha,Barbil,"Forest Office, Barbil - OSPCB",18-12-2025 07:00:00,22.1166054,85.3945546,CO,24,100,72
India,Odisha,Baripada,"Meher Colony, Baripada - OSPCB",18-12-2025 07:00:00,21.941841,86.728318,PM10,113,150,132
India,Punjab,Amritsar,"Golden Temple, Amritsar - PPCB",18-12-2025 07:00:00,31.620000,74.876512,OZONE,32,42,38
India,Punjab,Jalandhar,"Civil Line, Jalandhar - PPCB",18-12-2025 07:00:00,31.321907,75.578914,PM10,130,193,171
India,Punjab,Jalandhar,"Civil Line, Jalandhar - PPCB",18-12-2025 07:00:00,31.321907,75.578914,NH3,3,3,3
India,Punjab,Jalandhar,"Civil Line, Jalandhar - PPCB",18-12-2025 07:00:00,31.321907,75.578914,CO,55,66,63
India,Punjab,Khanna,"Kalal Majra, Khanna - PPCB",18-12-2025 07:00:00,30.736056 ,76.209694,PM2.5,79,341,191
India,Punjab,Khanna,"Kalal Majra, Khanna - PPCB",18-12-2025 07:00:00,30.736056 ,76.209694,PM10,102,331,164
India,Punjab,Khanna,"Kalal Majra, Khanna - PPCB",18-12-2025 07:00:00,30.736056 ,76.209694,CO,8,52,37
India,Meghalaya,Shillong,"JN Stadium, Shillong - Meghalaya PCB",18-12-2025 07:00:00,25.5803419,91.8942571,PM2.5,18,346,127
India,Meghalaya,Shillong,"JN Stadium, Shillong - Meghalaya PCB",18-12-2025 07:00:00,25.5803419,91.8942571,SO2,3,19,11
India,Mizoram,Aizawl,"Sikulpuikawn, Aizawl - Mizoram PCB",18-12-2025 07:00:00,23.7176342,92.7192841,SO2,14,15,14
India,Nagaland,Kohima,"PWD Junction, Kohima - NPCB",18-12-2025 07:00:00,25.6635413,94.0989878,NH3,1,1,1
India,Odisha,Angul,"Hakimapada, Angul - OSPCB",18-12-2025 07:00:00,20.832874,85.104082,NH3,11,15,13
India,Odisha,Bhubaneswar,"Patia, Bhubaneswar - OSPCB",18-12-2025 07:00:00,20.34652,85.81630,NO2,26,140,60
India,Odisha,Bhubaneswar,"Patia, Bhubaneswar - OSPCB",18-12-2025 07:00:00,20.34652,85.81630,SO2,3,90,30
India,Odisha,Bhubaneswar,"Patia, Bhubaneswar - OSPCB",18-12-2025 07:00:00,20.34652,85.81630,OZONE,3,211,11
India,Odisha,Bileipada,"Tata Township, Bileipada - OSPCB",18-12-2025 07:00:00,22.06156703,85.47409613,PM10,150,235,188
India,Odisha,Brajrajnagar,"GM Office, Brajrajnagar - OSPCB",18-12-2025 07:00:00,21.8004996,83.8396977,PM10,61,192,110
India,Maharashtra,Thane,"Kasarvadavali, Thane - MPCB",18-12-2025 07:00:00,19.26777,72.97182,PM2.5,45,93,63
India,Maharashtra,Virar,"Bolinj, Virar - MPCB",18-12-2025 07:00:00,19.4458210,72.7988231,PM2.5,78,220,121
India,Maharashtra,Virar,"Bolinj, Virar - MPCB",18-12-2025 07:00:00,19.4458210,72.7988231,NO2,13,92,39
India,Maharashtra,Virar,"Bolinj, Virar - MPCB",18-12-2025 07:00:00,19.4458210,72.7988231,NH3,1,9,4
India,Odisha,Byasanagar,"Ferro Chrome Colony, Byasanagar - OSPCB",18-12-2025 07:00:00,20.94185,86.11510,PM10,141,262,168
India,Odisha,Cuttack,"CDA Area, Cuttack - OSPCB",18-12-2025 07:00:00,20.48891     ,85.84768     ,PM10,140,366,203
India,Rajasthan,Jaipur,"Adarsh Nagar, Jaipur - RSPCB",18-12-2025 07:00:00,26.902909,75.836858,CO,42,116,66
India,Rajasthan,Jaipur,"Mansarovar Sector-12, Jaipur - RSPCB",18-12-2025 07:00:00,26.843698,75.766894,NH3,9,18,15
India,Rajasthan,Jaipur,"Mansarovar Sector-12, Jaipur - RSPCB",18-12-2025 07:00:00,26.843698,75.766894,SO2,2,34,10
India,Rajasthan,Jaipur,"Police Commissionerate, Jaipur - RSPCB",18-12-2025 07:00:00,26.9164092,75.7994901,PM2.5,47,212,124
India,Rajasthan,Jaipur,"Police Commissionerate, Jaipur - RSPCB",18-12-2025 07:00:00,26.9164092,75.7994901,NO2,53,135,100
India,Rajasthan,Jaipur,"Police Commissionerate, Jaipur - RSPCB",18-12-2025 07:00:00,26.9164092,75.7994901,SO2,17,19,18
India,Rajasthan,Jaipur,"Police Commissionerate, Jaipur - RSPCB",18-12-2025 07:00:00,26.9164092,75.7994901,CO,54,64,57
India,Rajasthan,Jaipur,"RIICO Sitapura, Jaipur - RSPCB",18-12-2025 07:00:00,26.786682,75.827928,SO2,2,8,5
India,Rajasthan,Jaipur,"Sector-2 Murlipura, Jaipur - RSPCB",18-12-2025 07:00:00,26.960669,75.771817,SO2,3,4,4
India,Rajasthan,Jaipur,"Shastri Nagar, Jaipur - RSPCB",18-12-2025 07:00:00,26.9502929,75.730943,PM10,67,347,152
India,Rajasthan,Jaisalmer,"Sadar Bazar, Jaisalmer - RSPCB",18-12-2025 07:00:00,26.912329,70.909168,PM10,68,339,155
India,Rajasthan,Jaisalmer,"Sadar Bazar, Jaisalmer - RSPCB",18-12-2025 07:00:00,26.912329,70.909168,NH3,13,19,15
India,Rajasthan,Jaisalmer,"Sadar Bazar, Jaisalmer - RSPCB",18-12-2025 07:00:00,26.912329,70.909168,OZONE,1,76,3
India,Rajasthan,Jhalawar,"Rajlaxmi Nagar, Jhalawar - RSPCB",18-12-2025 07:00:00,24.588397,76.172782,PM2.5,35,313,160
India,Rajasthan,Jhalawar,"Rajlaxmi Nagar, Jhalawar - RSPCB",18-12-2025 07:00:00,24.588397,76.172782,PM10,43,170,104
India,Rajasthan,Jhalawar,"Rajlaxmi Nagar, Jhalawar - RSPCB",18-12-2025 07:00:00,24.588397,76.172782,CO,50,142,84
India,Rajasthan,Jhalawar,"Rajlaxmi Nagar, Jhalawar - RSPCB",18-12-2025 07:00:00,24.588397,76.172782,OZONE,1,141,2
India,Punjab,Ludhiana,"Punjab Agricultural University, Ludhiana - PPCB",18-12-2025 07:00:00,30.9028,75.8086,OZONE,15,29,20
India,Punjab,Mandi Gobindgarh,"RIMT University, Mandi Gobindgarh - PPCB",18-12-2025 07:00:00,30.649961,76.331442,PM10,63,432,218
India,Punjab,Mandi Gobindgarh,"RIMT University, Mandi Gobindgarh - PPCB",18-12-2025 07:00:00,30.649961,76.331442,SO2,5,103,24
India,Punjab,Patiala,"Model Town, Patiala - PPCB",18-12-2025 07:00:00,30.349388,76.366642,PM2.5,56,128,90
India,Punjab,Rupnagar,"Ratanpura, Rupnagar - Ambuja Cements",18-12-2025 07:00:00,31.0325454,76.5623046,CO,54,78,67
India,Rajasthan,Jodhpur,"Mandor, Jodhpur - RSPCB",18-12-2025 07:00:00,26.358805,73.047444,OZONE,6,112,22
India,Rajasthan,Jodhpur,"Samrat Ashok Udhyan, Jodhpur - RSPCB",18-12-2025 07:00:00,26.253384,72.976571,NH3,5,17,8
India,Rajasthan,Karauli,"Satyawati Vihar, Karauli - RSPCB",18-12-2025 07:00:00,26.506177,77.025989,PM2.5,23,311,89
India,Rajasthan,Karauli,"Satyawati Vihar, Karauli - RSPCB",18-12-2025 07:00:00,26.506177,77.025989,NO2,24,106,44
India,Rajasthan,Karauli,"Satyawati Vihar, Karauli - RSPCB",18-12-2025 07:00:00,26.506177,77.025989,CO,37,125,57
India,Rajasthan,Kota,"Nayapura, Kota - RSPCB",18-12-2025 07:00:00,25.196024,75.855668,NO2,25,125,69
India,Rajasthan,Dholpur,"Raja Ganj, Dholpur - RSPCB",18-12-2025 07:00:00,26.699557,77.898881,SO2,NA,NA,NA
India,Rajasthan,Dungarpur,"Bhoiwada, Dungarpur - RSPCB",18-12-2025 07:00:00,23.837789,73.714926,OZONE,2,141,3
India,Rajasthan,Hanumangarh,"Housing Board, Hanumangarh - RSPCB",18-12-2025 07:00:00,29.610750,74.283608,PM10,116,187,148
India,Rajasthan,Hanumangarh,"Housing Board, Hanumangarh - RSPCB",18-12-2025 07:00:00,29.610750,74.283608,NH3,17,69,52
India,Rajasthan,Jaipur,"Adarsh Nagar, Jaipur - RSPCB",18-12-2025 07:00:00,26.902909,75.836858,PM10,89,228,149
India,Rajasthan,Jhunjhunu,"Indra Nagar, Jhunjhunu - RSPCB",18-12-2025 07:00:00,28.108988,75.386577,NH3,1,15,9
India,Rajasthan,Jodhpur,"Collectorate, Jodhpur - RSPCB",18-12-2025 07:00:00,26.268249,73.0193853,OZONE,10,86,14
India,Rajasthan,Jodhpur,"Jhalamand, Jodhpur - RSPCB",18-12-2025 07:00:00,26.215415,73.070156,NO2,12,88,42
India,Rajasthan,Jodhpur,"Mandor, Jodhpur - RSPCB",18-12-2025 07:00:00,26.358805,73.047444,PM2.5,38,227,89
India,Rajasthan,Baran,"Bamboliya, Baran - RSPCB",18-12-2025 07:00:00,25.106006,76.469948,PM2.5,3,97,46
India,Rajasthan,Barmer,"Railway Colony, Barmer - RSPCB",18-12-2025 07:00:00,25.747299,71.393989,OZONE,4,87,29
India,Rajasthan,Bhilwara,"Pratap Nagar, Bhilwara - RSPCB",18-12-2025 07:00:00,25.339605,74.618883,PM10,73,289,150
India,Rajasthan,Bhilwara,"Pratap Nagar, Bhilwara - RSPCB",18-12-2025 07:00:00,25.339605,74.618883,SO2,2,46,21
India,Rajasthan,Bundi,"New Colony, Bundi - RSPCB",18-12-2025 07:00:00,25.435774,75.644272,SO2,3,46,12
India,Rajasthan,Chittorgarh,"Shastri Nagar, Chittorgarh - RSPCB",18-12-2025 07:00:00,24.892047,74.623527,PM2.5,47,312,136
India,Rajasthan,Chittorgarh,"Shastri Nagar, Chittorgarh - RSPCB",18-12-2025 07:00:00,24.892047,74.623527,CO,15,84,49
India,Rajasthan,Chittorgarh,"Shastri Nagar, Chittorgarh - RSPCB",18-12-2025 07:00:00,24.892047,74.623527,OZONE,1,99,1
India,Rajasthan,Ajmer,"Civil Lines,  Ajmer - RSPCB",18-12-2025 07:00:00,26.470859,74.646594,CO,28,54,34
India,Rajasthan,Alwar,"Moti Doongri, Alwar - RSPCB",18-12-2025 07:00:00,27.554793,76.611536,NH3,11,17,14
India,TamilNadu,Chennai,"Kodungaiyur, Chennai - TNPCB",18-12-2025 07:00:00,13.1278,80.2642,NO2,9,34,20
India,TamilNadu,Chennai,"Kodungaiyur, Chennai - TNPCB",18-12-2025 07:00:00,13.1278,80.2642,NH3,2,5,4
India,TamilNadu,Chennai,"Manali Village, Chennai - TNPCB",18-12-2025 07:00:00,13.1662,80.2584,PM10,38,102,69
India,TamilNadu,Chennai,"Manali, Chennai - CPCB",18-12-2025 07:00:00,13.164544,80.26285,NO2,7,14,11
India,TamilNadu,Chennai,"Manali, Chennai - CPCB",18-12-2025 07:00:00,13.164544,80.26285,CO,13,62,34
India,TamilNadu,Chennai,"Perungudi, Chennai - TNPCB",18-12-2025 07:00:00,12.9533,80.2357,NH3,3,4,4
India,TamilNadu,Chennai,"Perungudi, Chennai - TNPCB",18-12-2025 07:00:00,12.9533,80.2357,SO2,2,8,5
India,TamilNadu,Chennai,"Perungudi, Chennai - TNPCB",18-12-2025 07:00:00,12.9533,80.2357,OZONE,3,14,9
India,TamilNadu,Chennai,"Royapuram, Chennai - TNPCB",18-12-2025 07:00:00,13.1036,80.2909,PM10,6,59,31
India,Rajasthan,Rajsamand,"Dhoinda, Rajsamand - RSPCB",18-12-2025 07:00:00,25.036360,73.883502,NH3,8,14,11
India,Rajasthan,Sawai Madhopur,"Sahu Nagar, Sawai Madhopur - RSPCB",18-12-2025 07:00:00,26.031443,76.359327,NO2,14,66,31
India,Rajasthan,Sawai Madhopur,"Sahu Nagar, Sawai Madhopur - RSPCB",18-12-2025 07:00:00,26.031443,76.359327,NH3,6,9,8
India,Rajasthan,Sawai Madhopur,"Sahu Nagar, Sawai Madhopur - RSPCB",18-12-2025 07:00:00,26.031443,76.359327,SO2,1,17,5
India,Rajasthan,Sawai Madhopur,"Sahu Nagar, Sawai Madhopur - RSPCB",18-12-2025 07:00:00,26.031443,76.359327,OZONE,1,97,2
India,Rajasthan,Sikar,"Radhakishan Pura, Sikar - RSPCB",18-12-2025 07:00:00,27.608912,75.153302,PM10,89,500,236
India,Rajasthan,Sikar,"Radhakishan Pura, Sikar - RSPCB",18-12-2025 07:00:00,27.608912,75.153302,SO2,2,50,12
India,Rajasthan,Sirohi,"Vedhaynath Colony, Sirohi - RSPCB",18-12-2025 07:00:00,24.885261,72.857549,NH3,1,4,3
India,Rajasthan,Sri Ganganagar,"Old City, Sri Ganganagar - RSPCB",18-12-2025 07:00:00,29.931624,73.864511,NO2,27,116,52
India,Rajasthan,Sri Ganganagar,"Old City, Sri Ganganagar - RSPCB",18-12-2025 07:00:00,29.931624,73.864511,CO,42,179,67
India,Rajasthan,Tonk,"Shastri Nagar, Tonk - RSPCB",18-12-2025 07:00:00,26.159933,75.780517,CO,20,125,29
India,Rajasthan,Udaipur,"Ashok Nagar, Udaipur - RSPCB",18-12-2025 07:00:00,24.5886166,73.6321397,OZONE,1,60,2
India,TamilNadu,Chennai,"Arumbakkam, Chennai - TNPCB",18-12-2025 07:00:00,13.0664,80.2112 ,SO2,1,4,2
India,TamilNadu,Chennai,"Gandhi Nagar_Ennore, Chennai - TNPCB",18-12-2025 07:00:00,13.218341,80.32027,PM2.5,NA,NA,NA
India,TamilNadu,Chennai,"Royapuram, Chennai - TNPCB",18-12-2025 07:00:00,13.1036,80.2909,CO,42,58,50
India,TamilNadu,Chennai,"Royapuram, Chennai - TNPCB",18-12-2025 07:00:00,13.1036,80.2909,OZONE,16,18,17
India,TamilNadu,Chennai,"Velachery Res. Area, Chennai - CPCB",18-12-2025 07:00:00,13.0052189,80.2398125,PM10,59,116,82
India,TamilNadu,Coimbatore,"SIDCO Kurichi, Coimbatore - TNPCB",18-12-2025 07:00:00,10.942451,76.978996,PM10,26,48,39
India,TamilNadu,Coimbatore,"SIDCO Kurichi, Coimbatore - TNPCB",18-12-2025 07:00:00,10.942451,76.978996,CO,20,30,24
India,TamilNadu,Coimbatore,"SIDCO Kurichi, Coimbatore - TNPCB",18-12-2025 07:00:00,10.942451,76.978996,OZONE,2,8,3
India,TamilNadu,Cuddalore,"Kudikadu, Cuddalore - TNPCB",18-12-2025 07:00:00,11.6829898,79.7532099,NH3,5,5,5
India,TamilNadu,Cuddalore,"Semmandalam, Cuddalore - TNPCB",18-12-2025 07:00:00,11.7637683,79.7499835,OZONE,1,2,2
India,TamilNadu,Karur,"Kamadenu Nagar, Karur - TNPCB",18-12-2025 07:00:00,10.967820,78.080882,NH3,3,3,3
India,TamilNadu,Karur,"Kamadenu Nagar, Karur - TNPCB",18-12-2025 07:00:00,10.967820,78.080882,OZONE,6,10,9
India,TamilNadu,Madurai,"Uchapatti, Madurai - TNPCB",18-12-2025 07:00:00,9.865935,78.022669,NH3,NA,NA,NA
India,TamilNadu,Madurai,"Uchapatti, Madurai - TNPCB",18-12-2025 07:00:00,9.865935,78.022669,SO2,NA,NA,NA
India,Rajasthan,Kota,"Shrinath Puram, Kota - RSPCB",18-12-2025 07:00:00,25.14389,75.821256,NO2,13,16,15
India,Rajasthan,Kota,"Shrinath Puram, Kota - RSPCB",18-12-2025 07:00:00,25.14389,75.821256,OZONE,4,17,10
India,Rajasthan,Pali,"Indira Colony Vistar, Pali - RSPCB",18-12-2025 07:00:00,25.771061, 73.340227,CO,8,66,33
India,Rajasthan,Pratapgarh,"Pragati Nagar, Pratapgarh - RSPCB",18-12-2025 07:00:00,24.041198,74.780702,SO2,3,10,5
India,Telangana,Hyderabad,"Bollaram Industrial Area, Hyderabad - TSPCB",18-12-2025 07:00:00,17.540891,78.358528,NO2,26,44,36
India,Telangana,Hyderabad,"Central University, Hyderabad - TSPCB",18-12-2025 07:00:00,17.460103,78.334361,SO2,11,28,16
India,Telangana,Hyderabad,"ICRISAT Patancheru, Hyderabad - TSPCB",18-12-2025 07:00:00,17.518400,78.278777,PM2.5,72,185,139
India,Telangana,Hyderabad,"ICRISAT Patancheru, Hyderabad - TSPCB",18-12-2025 07:00:00,17.518400,78.278777,CO,26,78,59
India,TamilNadu,Thoothukudi,"Meelavittan, Thoothukudi - TNPCB",18-12-2025 07:00:00,8.816428 ,78.099039,PM10,7,48,26
India,TamilNadu,Tirupur,"Kumaran College, Tirupur - TNPCB",18-12-2025 07:00:00,11.0973603,77.3228673,NO2,8,14,10
India,Telangana,Hyderabad,"IITH Kandi, Hyderabad - TSPCB",18-12-2025 07:00:00,17.585705,78.126199,NO2,10,15,13
India,Telangana,Hyderabad,"Nacharam_TSIIC IALA, Hyderabad - TSPCB",18-12-2025 07:00:00,17.429398,78.569354,PM2.5,42,66,50
India,Telangana,Hyderabad,"Nacharam_TSIIC IALA, Hyderabad - TSPCB",18-12-2025 07:00:00,17.429398,78.569354,NO2,8,17,10
India,Telangana,Hyderabad,"Nacharam_TSIIC IALA, Hyderabad - TSPCB",18-12-2025 07:00:00,17.429398,78.569354,OZONE,15,36,21
India,Telangana,Hyderabad,"New Malakpet, Hyderabad - TSPCB",18-12-2025 07:00:00,17.37206,78.50864,NO2,9,14,12
India,Telangana,Hyderabad,"New Malakpet, Hyderabad - TSPCB",18-12-2025 07:00:00,17.37206,78.50864,SO2,15,20,17
India,Telangana,Hyderabad,"New Malakpet, Hyderabad - TSPCB",18-12-2025 07:00:00,17.37206,78.50864,OZONE,10,49,10
India,Uttar_Pradesh,Bareilly,"Civil Lines, Bareilly - UPPCB",18-12-2025 07:00:00,28.359581,79.414455,PM2.5,20,71,48
India,Uttar_Pradesh,Bareilly,"Civil Lines, Bareilly - UPPCB",18-12-2025 07:00:00,28.359581,79.414455,PM10,57,99,74
India,Uttar_Pradesh,Bareilly,"Rajendra Nagar, Bareilly - UPPCB",18-12-2025 07:00:00,28.38910936,79.42963708,NO2,9,10,9
India,Uttar_Pradesh,Bulandshahr,"Yamunapuram, Bulandshahr - UPPCB",18-12-2025 07:00:00,28.406963,77.849831,PM10,126,293,198
India,Uttar_Pradesh,Kanpur,"FTI Kidwai Nagar, Kanpur - UPPCB",18-12-2025 07:00:00,26.428282,80.327067,PM2.5,79,178,110
India,Uttar_Pradesh,Kanpur,"FTI Kidwai Nagar, Kanpur - UPPCB",18-12-2025 07:00:00,26.428282,80.327067,SO2,13,17,15
India,Uttar_Pradesh,Khurja,"Kalindi Kunj, Khurja - UPPCB",18-12-2025 07:00:00,28.2348927,77.8683002,PM2.5,88,336,238
India,Uttar_Pradesh,Khurja,"Kalindi Kunj, Khurja - UPPCB",18-12-2025 07:00:00,28.2348927,77.8683002,NO2,6,7,6
India,Uttar_Pradesh,Khurja,"Kalindi Kunj, Khurja - UPPCB",18-12-2025 07:00:00,28.2348927,77.8683002,NH3,1,1,1
India,Uttar_Pradesh,Ghaziabad,"Indirapuram, Ghaziabad - UPPCB",18-12-2025 07:00:00,28.646233,77.358075,SO2,18,27,21
India,Uttar_Pradesh,Ghaziabad,"Sanjay Nagar, Ghaziabad - UPPCB",18-12-2025 07:00:00,28.685382,77.453839,SO2,11,18,13
India,Uttar_Pradesh,Ghaziabad,"Sanjay Nagar, Ghaziabad - UPPCB",18-12-2025 07:00:00,28.685382,77.453839,CO,39,111,69
India,Uttar_Pradesh,Gorakhpur,"Madan Mohan Malaviya University of Technology, Gorakhpur - UPPCB",18-12-2025 07:00:00,26.730136,83.433859,NO2,10,12,11
India,Uttar_Pradesh,Greater Noida,"Knowledge Park - V, Greater Noida - UPPCB",18-12-2025 07:00:00,28.557054,77.453663,OZONE,2,180,4
India,Uttar_Pradesh,Hapur,"Anand Vihar, Hapur - UPPCB",18-12-2025 07:00:00,28.725645,77.749675,NO2,5,28,14
India,Uttar_Pradesh,Jhansi,"Shivaji Nagar, Jhansi - UPPCB",18-12-2025 07:00:00,25.4547,78.6039,NO2,6,6,6
India,Telangana,Hyderabad,"Sanathnagar, Hyderabad - TSPCB",18-12-2025 07:00:00,17.4559458,78.4332152,NO2,NA,NA,NA
India,Telangana,Hyderabad,"Somajiguda, Hyderabad - TSPCB",18-12-2025 07:00:00,17.417094,78.457437,SO2,3,23,18
India,Telangana,Hyderabad,"Zoo Park, Hyderabad - TSPCB",18-12-2025 07:00:00,17.349694,78.451437,NO2,10,35,21
India,Telangana,Hyderabad,"Zoo Park, Hyderabad - TSPCB",18-12-2025 07:00:00,17.349694,78.451437,OZONE,21,24,22
India,Uttar_Pradesh,Greater Noida,"Knowledge Park - III, Greater Noida - UPPCB",18-12-2025 07:00:00,28.47272,77.482000,PM2.5,147,410,305
India,Uttar_Pradesh,Greater Noida,"Knowledge Park - III, Greater Noida - UPPCB",18-12-2025 07:00:00,28.47272,77.482000,CO,15,98,49
India,Uttar_Pradesh,Greater Noida,"Knowledge Park - V, Greater Noida - UPPCB",18-12-2025 07:00:00,28.557054,77.453663,PM10,179,425,255
India,Uttar_Pradesh,Agra,"Shahjahan Garden, Agra - UPPCB",18-12-2025 07:00:00,27.169338,78.03582,NH3,4,5,4
India,Uttar_Pradesh,Agra,"Shastripuram, Agra - UPPCB",18-12-2025 07:00:00,27.19862,77.92066,PM10,31,196,138
India,Uttar_Pradesh,Agra,"Shastripuram, Agra - UPPCB",18-12-2025 07:00:00,27.19862,77.92066,NO2,35,36,36
India,Uttar_Pradesh,Agra,"Shastripuram, Agra - UPPCB",18-12-2025 07:00:00,27.19862,77.92066,NH3,3,3,3
India,Uttar_Pradesh,Agra,"Rohta, Agra - UPPCB",18-12-2025 07:00:00,27.106972,78.000111,NO2,15,18,15
India,Uttar_Pradesh,Agra,"Sanjay Palace, Agra - UPPCB",18-12-2025 07:00:00,27.19865833,78.00598056,NO2,3,18,8
India,Uttar_Pradesh,Moradabad,"Buddhi Vihar, Moradabad - UPPCB",18-12-2025 07:00:00,28.83526,78.74460,NH3,5,5,5
India,Uttar_Pradesh,Moradabad,"Employment Office, Moradabad - UPPCB",18-12-2025 07:00:00,28.88528,78.73880,NH3,4,4,4
India,Uttar_Pradesh,Moradabad,"Jigar Colony, Moradabad - UPPCB",18-12-2025 07:00:00,28.856664,78.772638,PM10,93,178,132
India,Uttar_Pradesh,Moradabad,"Jigar Colony, Moradabad - UPPCB",18-12-2025 07:00:00,28.856664,78.772638,SO2,2,54,40
India,Uttar_Pradesh,Moradabad,"Jigar Colony, Moradabad - UPPCB",18-12-2025 07:00:00,28.856664,78.772638,OZONE,11,18,18
India,Uttar_Pradesh,Moradabad,"Kashiram Nagar, Moradabad - UPPCB",18-12-2025 07:00:00,28.849399,78.742362,PM10,83,189,137
India,Uttar_Pradesh,Moradabad,"Kashiram Nagar, Moradabad - UPPCB",18-12-2025 07:00:00,28.849399,78.742362,SO2,90,112,104
India,Uttar_Pradesh,Moradabad,"Transport Nagar, Moradabad - UPPCB",18-12-2025 07:00:00,28.802625,78.753728,NO2,29,30,29
India,Uttar_Pradesh,Muzaffarnagar,"New Mandi, Muzaffarnagar - UPPCB",18-12-2025 07:00:00,29.4723508,77.7194031,NH3,14,27,20
India,Uttar_Pradesh,Muzaffarnagar,"New Mandi, Muzaffarnagar - UPPCB",18-12-2025 07:00:00,29.4723508,77.7194031,SO2,1,18,11
India,Uttar_Pradesh,Noida,"Sector - 125, Noida - UPPCB",18-12-2025 07:00:00,28.5447608,77.3231257,PM10,142,451,290
India,Uttar_Pradesh,Noida,"Sector - 62, Noida - IMD",18-12-2025 07:00:00,28.6245479,77.3577104,NO2,26,86,44
India,Uttar_Pradesh,Noida,"Sector - 62, Noida - IMD",18-12-2025 07:00:00,28.6245479,77.3577104,OZONE,26,97,35
India,Uttar_Pradesh,Lucknow,"Talkatora District Industries Center, Lucknow - CPCB",18-12-2025 07:00:00,26.83399722,80.8917361,PM10,118,256,172
India,Uttar_Pradesh,Meerut,"Ganga Nagar, Meerut - UPPCB",18-12-2025 07:00:00,28.999264,77.7590354,CO,57,100,63
India,Uttar_Pradesh,Meerut,"Jai Bhim Nagar, Meerut - UPPCB",18-12-2025 07:00:00,28.9535882,77.7622941,PM2.5,133,425,316
India,Uttar_Pradesh,Meerut,"Jai Bhim Nagar, Meerut - UPPCB",18-12-2025 07:00:00,28.9535882,77.7622941,OZONE,11,73,19
India,Uttar_Pradesh,Meerut,"Pallavpuram Phase 2, Meerut - UPPCB",18-12-2025 07:00:00,29.063510,77.709723,NO2,23,41,32
India,Uttar_Pradesh,Varanasi,"IESD Banaras Hindu University, Varanasi - UPPCB",18-12-2025 07:00:00,25.262326,82.995408,NH3,1,4,2
India,Uttar_Pradesh,Varanasi,"Maldahiya, Varanasi - UPPCB",18-12-2025 07:00:00,25.32393,82.99687,OZONE,1,10,2
India,Uttar_Pradesh,Vrindavan,"Omex Eternity, Vrindavan - UPPCB",18-12-2025 07:00:00,27.5714090,77.6557570,OZONE,15,16,15
India,Uttarakhand,Dehradun,"Doon University, Dehradun - UKPCB",18-12-2025 07:00:00,30.269444,78.044167,SO2,2,2,2
India,Uttarakhand,Dehradun,"Doon University, Dehradun - UKPCB",18-12-2025 07:00:00,30.269444,78.044167,CO,38,44,40
India,Uttar_Pradesh,Lucknow,"B R Ambedkar University, Lucknow - UPPCB",18-12-2025 07:00:00,26.766433,80.927299,PM2.5,51,250,114
India,Uttar_Pradesh,Lucknow,"B R Ambedkar University, Lucknow - UPPCB",18-12-2025 07:00:00,26.766433,80.927299,NO2,3,22,11
India,Uttar_Pradesh,Lucknow,"Gomti Nagar, Lucknow - UPPCB",18-12-2025 07:00:00,26.868120,81.005119,PM10,58,133,108
India,Uttar_Pradesh,Lucknow,"Kendriya Vidyalaya, Lucknow - CPCB",18-12-2025 07:00:00,26.906111,80.948222,OZONE,10,79,14
India,Uttar_Pradesh,Lucknow,"Lalbagh, Lucknow - CPCB",18-12-2025 07:00:00,26.8458805,80.9365541,CO,25,72,49
India,Uttar_Pradesh,Prayagraj,"Motilal Nehru NIT, Prayagraj - UPPCB",18-12-2025 07:00:00,25.494,81.863,CO,24,56,50
India,Uttar_Pradesh,Varanasi,"Ardhali Bazar, Varanasi - UPPCB",18-12-2025 07:00:00,25.3505986,82.9083074,OZONE,6,23,15
India,Uttar_Pradesh,Varanasi,"Bhelupur, Varanasi - UPPCB",18-12-2025 07:00:00,25.301778,82.996789,NO2,8,8,8
India,Uttar_Pradesh,Varanasi,"IESD Banaras Hindu University, Varanasi - UPPCB",18-12-2025 07:00:00,25.262326,82.995408,PM2.5,49,156,87
India,Uttarakhand,Rishikesh,"Shivaji Nagar, Rishikesh - UKPCB",18-12-2025 07:00:00,30.075911,78.2859547,NO2,19,24,22
India,Uttarakhand,Rishikesh,"Shivaji Nagar, Rishikesh - UKPCB",18-12-2025 07:00:00,30.075911,78.2859547,CO,39,68,49
India,West_Bengal,Asansol,"Asansol Court Area, Asansol - WBPCB",18-12-2025 07:00:00,23.685297,86.945968,NO2,15,27,23
India,Uttar_Pradesh,Noida,"Sector-116, Noida - UPPCB",18-12-2025 07:00:00,28.569230,77.393848,NH3,15,31,25
India,Uttar_Pradesh,Noida,"Sector-116, Noida - UPPCB",18-12-2025 07:00:00,28.569230,77.393848,OZONE,7,277,9
India,West_Bengal,Asansol,"Evelyn Lodge, Asansol - WBPCB",18-12-2025 07:00:00,23.6979360,86.9443950,OZONE,9,53,15
India,West_Bengal,Asansol,"Trivenidevi Bhalotia College, Asansol - WBPCB",18-12-2025 07:00:00,23.616515,87.119133,PM10,93,179,135
India,West_Bengal,Asansol,"Trivenidevi Bhalotia College, Asansol - WBPCB",18-12-2025 07:00:00,23.616515,87.119133,SO2,5,17,12
India,West_Bengal,Asansol,"Trivenidevi Bhalotia College, Asansol - WBPCB",18-12-2025 07:00:00,23.616515,87.119133,OZONE,8,18,10
India,West_Bengal,Barrackpore,"SVSPA Campus, Barrackpore - WBPCB",18-12-2025 07:00:00,22.7605581,88.3617589,PM2.5,126,226,164
India,West_Bengal,Barrackpore,"SVSPA Campus, Barrackpore - WBPCB",18-12-2025 07:00:00,22.7605581,88.3617589,NH3,9,11,10
India,West_Bengal,Barrackpore,"SVSPA Campus, Barrackpore - WBPCB",18-12-2025 07:00:00,22.7605581,88.3617589,SO2,9,12,10
India,West_Bengal,Durgapur,"Mahishkapur Road_B-Zone, Durgapur - WBPCB",18-12-2025 07:00:00,23.567923,87.306843,OZONE,22,101,36
India,West_Bengal,Durgapur,"PCBL Residential Complex, Durgapur - WBPCB",18-12-2025 07:00:00,23.5087640,87.3544400,PM10,86,155,118
India,West_Bengal,Durgapur,"Womens College_City Center, Durgapur - WBPCB (Formerly known as Sidhu Kanhu Indoor Stadium)",18-12-2025 07:00:00,23.549395,87.300496,PM2.5,78,255,157
India,West_Bengal,Durgapur,"Womens College_City Center, Durgapur - WBPCB (Formerly known as Sidhu Kanhu Indoor Stadium)",18-12-2025 07:00:00,23.549395,87.300496,NH3,1,76,6
India,West_Bengal,Howrah,"Belur Math, Howrah - WBPCB",18-12-2025 07:00:00,22.629801,88.352017,CO,24,97,38
India,West_Bengal,Howrah,"Belur Math, Howrah - WBPCB",18-12-2025 07:00:00,22.629801,88.352017,OZONE,14,51,17
India,West_Bengal,Howrah,"Botanical Garden, Howrah - WBPCB",18-12-2025 07:00:00,22.554954,88.292568,NH3,2,89,17
India,West_Bengal,Howrah,"Dasnagar, Howrah - WBPCB",18-12-2025 07:00:00,22.6025571,88.3105664,SO2,3,50,15
India,West_Bengal,Howrah,"Dasnagar, Howrah - WBPCB",18-12-2025 07:00:00,22.6025571,88.3105664,CO,11,90,38
India,West_Bengal,Howrah,"Dasnagar, Howrah - WBPCB",18-12-2025 07:00:00,22.6025571,88.3105664,OZONE,7,141,10
India,West_Bengal,Howrah,"Ghusuri, Howrah - WBPCB",18-12-2025 07:00:00,22.611968,88.347422,CO,26,72,47
India,West_Bengal,Howrah,"Padmapukur, Howrah - WBPCB",18-12-2025 07:00:00,22.5687319,88.2797276,PM10,158,295,221
India,West_Bengal,Howrah,"Padmapukur, Howrah - WBPCB",18-12-2025 07:00:00,22.5687319,88.2797276,OZONE,3,101,8
India,West_Bengal,Kolkata,"Ballygunge, Kolkata - WBPCB",18-12-2025 07:00:00,22.5367507,88.3638022,PM10,105,244,137
India,West_Bengal,Kolkata,"Ballygunge, Kolkata - WBPCB",18-12-2025 07:00:00,22.5367507,88.3638022,NO2,27,66,47
India,West_Bengal,Kolkata,"Bidhannagar, Kolkata - WBPCB",18-12-2025 07:00:00,22.58157048,88.41002457,OZONE,10,38,14
India,West_Bengal,Kolkata,"Fort William, Kolkata - WBPCB",18-12-2025 07:00:00,22.556640,88.342674,PM2.5,74,186,112
India,West_Bengal,Kolkata,"Fort William, Kolkata - WBPCB",18-12-2025 07:00:00,22.556640,88.342674,PM10,94,155,121
India,West_Bengal,Kolkata,"Fort William, Kolkata - WBPCB",18-12-2025 07:00:00,22.556640,88.342674,NO2,15,19,17
India,West_Bengal,Kolkata,"Jadavpur, Kolkata - WBPCB",18-12-2025 07:00:00,22.49929,88.36917,CO,8,81,54
India,West_Bengal,Kolkata,"Rabindra Bharati University, Kolkata - WBPCB",18-12-2025 07:00:00,22.627847,88.380669,CO,37,88,58
India,West_Bengal,Kolkata,"Rabindra Sarobar, Kolkata - WBPCB",18-12-2025 07:00:00,22.51106,88.35142,PM2.5,60,119,81
India,West_Bengal,Kolkata,"Rabindra Sarobar, Kolkata - WBPCB",18-12-2025 07:00:00,22.51106,88.35142,SO2,9,37,16
India,West_Bengal,Kolkata,"Rabindra Sarobar, Kolkata - WBPCB",18-12-2025 07:00:00,22.51106,88.35142,CO,30,112,56
India,West_Bengal,Kolkata,"Victoria, Kolkata - WBPCB",18-12-2025 07:00:00,22.5448082,88.3403691,PM2.5,231,367,308
India,West_Bengal,Kolkata,"Victoria, Kolkata - WBPCB",18-12-2025 07:00:00,22.5448082,88.3403691,PM10,127,283,174
India,West_Bengal,Kolkata,"Victoria, Kolkata - WBPCB",18-12-2025 07:00:00,22.5448082,88.3403691,NH3,5,5,5
India,West_Bengal,Siliguri,"Ward-32 Bapupara, Siliguri - WBPCB",18-12-2025 07:00:00,26.6879226,88.4152495,NO2,12,18,15
India,West_Bengal,Siliguri,"Ward-32 Bapupara, Siliguri - WBPCB",18-12-2025 07:00:00,26.6879226,88.4152495,NH3,11,12,11
India,Bihar,Araria,"Kharahiya Basti, Araria - BSPCB",18-12-2025 07:00:00,26.146529,87.454184,OZONE,9,10,10
India,Bihar,Arrah,"New DM Office, Arrah - BSPCB",18-12-2025 07:00:00,25.5626095,84.663264,PM2.5,45,140,86
India,Bihar,Arrah,"New DM Office, Arrah - BSPCB",18-12-2025 07:00:00,25.5626095,84.663264,SO2,10,10,10
India,Bihar,Aurangabad,"Gurdeo Nagar, Aurangabad - BSPCB",18-12-2025 07:00:00,24.75746,84.366208,PM2.5,NA,NA,NA
India,Bihar,Begusarai,"Lohiyanagar, Begusarai - BSPCB",18-12-2025 07:00:00,25.42742023,86.13886079,PM10,110,204,151
India,Bihar,Begusarai,"Lohiyanagar, Begusarai - BSPCB",18-12-2025 07:00:00,25.42742023,86.13886079,OZONE,10,53,12
India,Bihar,Bettiah,"Kamalnath Nagar, Bettiah - BSPCB",18-12-2025 07:00:00,26.80365,84.51954,NH3,1,1,1
India,Bihar,Bettiah,"Kamalnath Nagar, Bettiah - BSPCB",18-12-2025 07:00:00,26.80365,84.51954,OZONE,22,25,23
India,Bihar,Bhagalpur,"DM Office_Kachari Chowk, Bhagalpur - BSPCB",18-12-2025 07:00:00,25.251013,86.989001,PM2.5,62,257,175
India,Bihar,Bhagalpur,"DM Office_Kachari Chowk, Bhagalpur - BSPCB",18-12-2025 07:00:00,25.251013,86.989001,PM10,121,181,148
India,Andhra_Pradesh,Chittoor,"Gangineni Cheruvu, Chittoor - APPCB",18-12-2025 07:00:00,13.204880,79.097889,OZONE,48,56,52
India,Andhra_Pradesh,Rajamahendravaram,"Anand Kala Kshetram, Rajamahendravaram - APPCB",18-12-2025 07:00:00,16.9872867,81.7363176,PM2.5,158,326,241
India,Andhra_Pradesh,Rajamahendravaram,"Anand Kala Kshetram, Rajamahendravaram - APPCB",18-12-2025 07:00:00,16.9872867,81.7363176,NH3,3,11,6
India,Andhra_Pradesh,Tirumala,"Toll Gate, Tirumala - APPCB",18-12-2025 07:00:00,13.67,79.35,PM10,55,143,105
India,Andhra_Pradesh,Tirumala,"Toll Gate, Tirumala - APPCB",18-12-2025 07:00:00,13.67,79.35,NH3,1,1,1
India,Andhra_Pradesh,Tirumala,"Toll Gate, Tirumala - APPCB",18-12-2025 07:00:00,13.67,79.35,OZONE,1,85,60
India,Andhra_Pradesh,Tirupati,"Vaikuntapuram, Tirupati - APPCB",18-12-2025 07:00:00,13.615387,79.409230,SO2,15,19,17
India,Andhra_Pradesh,Tirupati,"Vaikuntapuram, Tirupati - APPCB",18-12-2025 07:00:00,13.615387,79.409230,CO,24,38,27
India,Andhra_Pradesh,Vijayawada,"HB Colony, Vijayawada - APPCB",18-12-2025 07:00:00,16.536107,80.594233,SO2,12,16,15
India,Andhra_Pradesh,Vijayawada,"Kanuru, Vijayawada - APPCB",18-12-2025 07:00:00,16.486692,80.699436,NH3,2,3,3
India,Andhra_Pradesh,Vijayawada,"Rajiv Gandhi Park, Vijayawada - APPCB",18-12-2025 07:00:00,16.509717,80.612222,PM10,NA,NA,NA
India,Andhra_Pradesh,Vijayawada,"Rajiv Gandhi Park, Vijayawada - APPCB",18-12-2025 07:00:00,16.509717,80.612222,SO2,NA,NA,NA
India,Andhra_Pradesh,Vijayawada,"Rajiv Nagar, Vijayawada - APPCB",18-12-2025 07:00:00,16.554731,80.649110,NO2,7,8,7
India,Andhra_Pradesh,Visakhapatnam,"GVM Corporation, Visakhapatnam - APPCB",18-12-2025 07:00:00,17.72,83.3,PM2.5,148,352,266
India,Andhra_Pradesh,Visakhapatnam,"GVM Corporation, Visakhapatnam - APPCB",18-12-2025 07:00:00,17.72,83.3,NO2,14,258,128
India,Andhra_Pradesh,Visakhapatnam,"GVM Corporation, Visakhapatnam - APPCB",18-12-2025 07:00:00,17.72,83.3,NH3,3,5,4
India,Andaman and Nicobar,Sri Vijaya Puram,"Police Line, Sri Vijaya Puram - ANPCC",18-12-2025 07:00:00,11.654054,92.734055,NH3,6,11,8
India,Andaman and Nicobar,Sri Vijaya Puram,"Police Line, Sri Vijaya Puram - ANPCC",18-12-2025 07:00:00,11.654054,92.734055,OZONE,1,14,1
India,Andhra_Pradesh,Amaravati,"Secretariat, Amaravati - APPCB",18-12-2025 07:00:00,16.5150833,80.5181667,PM10,105,408,179
India,Andhra_Pradesh,Anantapur,"Gulzarpet, Anantapur - APPCB",18-12-2025 07:00:00,14.675886,77.593027,SO2,11,13,11
India,Andhra_Pradesh,Chittoor,"Gangineni Cheruvu, Chittoor - APPCB",18-12-2025 07:00:00,13.204880,79.097889,NO2,28,38,36
India,Bihar,Bhagalpur,"Mayaganj, Bhagalpur - BSPCB",18-12-2025 07:00:00,25.265194,87.012947,NO2,4,12,7
India,Bihar,Bhagalpur,"Mayaganj, Bhagalpur - BSPCB",18-12-2025 07:00:00,25.265194,87.012947,OZONE,8,73,10
India,Bihar,Buxar,"Charitra Van, Buxar - BSPCB",18-12-2025 07:00:00,25.567520,83.966379,NH3,3,3,3
India,Bihar,Buxar,"Charitra Van, Buxar - BSPCB",18-12-2025 07:00:00,25.567520,83.966379,CO,22,29,25
India,Bihar,Buxar,"Charitra Van, Buxar - BSPCB",18-12-2025 07:00:00,25.567520,83.966379,OZONE,1,14,2
India,Bihar,Chhapra,"Darshan Nagar, Chhapra - BSPCB",18-12-2025 07:00:00,25.7808257,84.7446768,NH3,6,11,8
India,Bihar,Chhapra,"Darshan Nagar, Chhapra - BSPCB",18-12-2025 07:00:00,25.7808257,84.7446768,CO,42,62,45
India,Assam,Nalbari,"Bata Chowk, Nalbari - PCBA",18-12-2025 07:00:00,26.446912,91.439057,PM2.5,132,165,149
India,Assam,Nalbari,"Bata Chowk, Nalbari - PCBA",18-12-2025 07:00:00,26.446912,91.439057,OZONE,14,17,15
India,Assam,Silchar,"Tarapur, Silchar - PCBA",18-12-2025 07:00:00,24.82827,92.79525,SO2,4,7,5
India,Assam,Silchar,"Tarapur, Silchar - PCBA",18-12-2025 07:00:00,24.82827,92.79525,OZONE,NA,NA,NA
India,Assam,Sivasagar,"Girls College, Sivasagar - PCBA",18-12-2025 07:00:00,26.987634,94.636574,PM2.5,20,92,52
India,Assam,Sivasagar,"Girls College, Sivasagar - PCBA",18-12-2025 07:00:00,26.987634,94.636574,CO,14,113,68
India,Assam,Sivasagar,"Girls College, Sivasagar - PCBA",18-12-2025 07:00:00,26.987634,94.636574,OZONE,4,69,4
India,Assam,Guwahati,"Railway Colony, Guwahati - PCBA",18-12-2025 07:00:00,26.181742,91.78063,NO2,3,3,3
India,Assam,Guwahati,"Railway Colony, Guwahati - PCBA",18-12-2025 07:00:00,26.181742,91.78063,SO2,34,37,35
India,Assam,Nagaon,"Christianpatty, Nagaon - PCBA",18-12-2025 07:00:00,26.349082,92.68449,PM10,56,135,100
India,Assam,Nagaon,"Christianpatty, Nagaon - PCBA",18-12-2025 07:00:00,26.349082,92.68449,NH3,4,4,4
India,Assam,Nagaon,"Christianpatty, Nagaon - PCBA",18-12-2025 07:00:00,26.349082,92.68449,SO2,10,15,13
India,Assam,Nagaon,"Christianpatty, Nagaon - PCBA",18-12-2025 07:00:00,26.349082,92.68449,CO,12,26,22
India,Arunachal_Pradesh,Naharlagun,"Naharlagun, Naharlagun - APSPCB",18-12-2025 07:00:00,27.103358,93.679645,NH3,NA,NA,NA
India,Arunachal_Pradesh,Naharlagun,"Naharlagun, Naharlagun - APSPCB",18-12-2025 07:00:00,27.103358,93.679645,OZONE,NA,NA,NA
India,Assam,Byrnihat,"Central Academy for SFS, Byrnihat - PCBA",18-12-2025 07:00:00,26.071318,91.87488,NH3,4,4,4
India,Assam,Byrnihat,"Central Academy for SFS, Byrnihat - PCBA",18-12-2025 07:00:00,26.071318,91.87488,SO2,5,14,7
India,Bihar,Gaya,"Collectorate, Gaya - BSPCB",18-12-2025 07:00:00,24.7955,84.9994,NO2,9,9,9
India,Bihar,Gaya,"Kareemganj, Gaya - BSPCB",18-12-2025 07:00:00,24.792403,84.992416,PM2.5,67,302,152
India,Bihar,Hajipur,"Industrial Area, Hajipur - BSPCB",18-12-2025 07:00:00,25.697189,85.245900,NH3,4,10,8
India,Assam,Guwahati,"LGBI Airport, Guwahati - PCBA",18-12-2025 07:00:00,26.10887,91.589544,SO2,NA,NA,NA
India,Bihar,Sasaram,"Dada Peer, Sasaram - BSPCB",18-12-2025 07:00:00,24.952822,84.002396,PM10,82,226,141
India,Bihar,Sasaram,"Dada Peer, Sasaram - BSPCB",18-12-2025 07:00:00,24.952822,84.002396,OZONE,16,21,18
India,Bihar,Siwan,"Chitragupta Nagar, Siwan - BSPCB",18-12-2025 07:00:00,26.2271665,84.3570427,PM10,101,117,109
India,Bihar,Siwan,"Chitragupta Nagar, Siwan - BSPCB",18-12-2025 07:00:00,26.2271665,84.3570427,NO2,1,3,1
India,Chandigarh,Chandigarh,"Sector 22, Chandigarh - CPCC",18-12-2025 07:00:00,30.735567,76.775714,PM10,109,292,167
India,Chandigarh,Chandigarh,"Sector 22, Chandigarh - CPCC",18-12-2025 07:00:00,30.735567,76.775714,OZONE,4,178,5
India,Chandigarh,Chandigarh,"Sector-25, Chandigarh - CPCC",18-12-2025 07:00:00,30.751462,76.762879,NH3,2,3,2
India,Chhattisgarh,Bhilai,"Hathkhoj, Bhilai - CECB",18-12-2025 07:00:00,21.224231,81.408350,PM10,39,160,80
India,Chhattisgarh,Bhilai,"Hathkhoj, Bhilai - CECB",18-12-2025 07:00:00,21.224231,81.408350,NO2,32,95,55
India,Chhattisgarh,Bhilai,"Hathkhoj, Bhilai - CECB",18-12-2025 07:00:00,21.224231,81.408350,SO2,10,76,31
India,Chhattisgarh,Bilaspur,"Mangala, Bilaspur - NTPC",18-12-2025 07:00:00,22.08815,82.13737,NO2,18,78,27
India,Chhattisgarh,Chhal,"Nawapara SECL Colony, Chhal - CECB",18-12-2025 07:00:00,22.118125,83.140608,NH3,5,5,5
India,Chhattisgarh,Korba,"Rampur, Korba - CECB",18-12-2025 07:00:00,22.368195,82.746431,SO2,3,21,9
India,Chhattisgarh,Korba,"Rampur, Korba - CECB",18-12-2025 07:00:00,22.368195,82.746431,OZONE,NA,NA,NA
India,Chhattisgarh,Korba,"Urja Nagar, Korba - CECB",18-12-2025 07:00:00,22.348441,82.549611,OZONE,35,36,36
India,Chhattisgarh,Kunjemura,"OP Jindal School, Kunjemura - CECB",18-12-2025 07:00:00,22.126650,83.483212,PM2.5,38,58,48
India,Chhattisgarh,Kunjemura,"OP Jindal School, Kunjemura - CECB",18-12-2025 07:00:00,22.126650,83.483212,PM10,43,195,76
India,Chhattisgarh,Milupara,"Govt. Higher Secondary School, Milupara - CECB",18-12-2025 07:00:00,22.1910172,83.5197009,NH3,NA,NA,NA
India,Chhattisgarh,Milupara,"Govt. Higher Secondary School, Milupara - CECB",18-12-2025 07:00:00,22.1910172,83.5197009,OZONE,NA,NA,NA
India,Chhattisgarh,Raipur,"Bhatagaon New ISBT, Raipur - CECB",18-12-2025 07:00:00,21.219665,81.630094,PM2.5,37,71,51
India,Bihar,Purnia,"Mariam Nagar, Purnia - BSPCB",18-12-2025 07:00:00,25.366336,87.117468,CO,36,62,56
India,Bihar,Rajgir,"Dangi Tola, Rajgir - BSPCB",18-12-2025 07:00:00,25.03280,85.41948,OZONE,30,37,32
India,Bihar,Saharsa,"Police Line, Saharsa - BSPCB",18-12-2025 07:00:00,25.892357,86.590325,NH3,4,4,4
India,Bihar,Samastipur,"DM Office_Kasipur, Samastipur - BSPCB",18-12-2025 07:00:00,25.859655,85.77944,PM2.5,NA,NA,NA
India,Chhattisgarh,Raipur,"Krishak Nagar, Raipur - CECB",18-12-2025 07:00:00,21.237755,81.705301,SO2,4,18,7
India,Chhattisgarh,Raipur,"Siltara Phase-II, Raipur - CECB",18-12-2025 07:00:00,21.371751,81.664929,PM2.5,40,309,176
India,Chhattisgarh,Raipur,"Siltara Phase-II, Raipur - CECB",18-12-2025 07:00:00,21.371751,81.664929,CO,34,36,35
India,Chhattisgarh,Tumidih,"OP Jindal Industrial Park, Tumidih - CECB",18-12-2025 07:00:00,22.06631475,83.33820077,PM10,59,237,117
India,Bihar,Munger,"Town Hall, Munger - BSPCB",18-12-2025 07:00:00,25.376776,86.471523,NH3,5,7,6
India,Bihar,Munger,"Town Hall, Munger - BSPCB",18-12-2025 07:00:00,25.376776,86.471523,CO,12,50,25
India,Bihar,Muzaffarpur,"Buddha Colony, Muzaffarpur - BSPCB",18-12-2025 07:00:00,26.11442,85.39813,PM10,85,198,126
India,Bihar,Muzaffarpur,"Muzaffarpur Collectorate, Muzaffarpur - BSPCB",18-12-2025 07:00:00,26.1209,85.3647,OZONE,8,37,8
India,Chandigarh,Chandigarh,"Sector-53, Chandigarh - CPCC",18-12-2025 07:00:00,30.719859,76.738637,NH3,9,15,12
India,Chhattisgarh,Bhilai,"32Bungalows, Bhilai - CECB",18-12-2025 07:00:00,21.194815,81.314770,CO,36,91,73
India,Chhattisgarh,Bhilai,"Civic Center, Bhilai - Bhilai Steel Plant",18-12-2025 07:00:00,21.185571,81.343175,PM10,49,120,82
India,Bihar,Patna,"Govt. High School Shikarpur, Patna - BSPCB",18-12-2025 07:00:00,25.592539,85.227158,CO,80,119,112
India,Bihar,Patna,"Muradpur, Patna - BSPCB",18-12-2025 07:00:00,25.619651,85.147382,CO,32,73,51
India,Bihar,Motihari,"Gandak Colony, Motihari - BSPCB",18-12-2025 07:00:00,26.63086,84.90051,PM10,55,151,93
India,Bihar,Motihari,"Gandak Colony, Motihari - BSPCB",18-12-2025 07:00:00,26.63086,84.90051,NO2,4,11,6
India,Delhi,Delhi,"Major Dhyan Chand National Stadium, Delhi - DPCC",18-12-2025 07:00:00,28.611281,77.237738,NO2,46,159,85
India,Delhi,Delhi,"Major Dhyan Chand National Stadium, Delhi - DPCC",18-12-2025 07:00:00,28.611281,77.237738,CO,10,116,71
India,Delhi,Delhi,"Mandir Marg, Delhi - DPCC",18-12-2025 07:00:00,28.636429,77.201067,NH3,6,14,9
India,Delhi,Delhi,"Mundka, Delhi - DPCC",18-12-2025 07:00:00,28.684678,77.076574,PM2.5,297,500,398
India,Delhi,Delhi,"Mundka, Delhi - DPCC",18-12-2025 07:00:00,28.684678,77.076574,CO,57,123,95
India,Delhi,Delhi,"NSIT Dwarka, Delhi - CPCB",18-12-2025 07:00:00,28.60909,77.0325413,PM2.5,310,458,366
India,Delhi,Delhi,"NSIT Dwarka, Delhi - CPCB",18-12-2025 07:00:00,28.60909,77.0325413,PM10,281,441,373
India,Delhi,Delhi,"Dwarka-Sector 8, Delhi - DPCC ",18-12-2025 07:00:00,28.5710274,77.0719006,PM10,155,424,259
India,Delhi,Delhi,"Dwarka-Sector 8, Delhi - DPCC ",18-12-2025 07:00:00,28.5710274,77.0719006,NO2,43,135,79
India,Delhi,Delhi,"IGI Airport (T3), Delhi - IMD",18-12-2025 07:00:00,28.5627763,77.1180053,PM10,129,427,240
India,Delhi,Delhi,"IHBAS, Dilshad Garden, Delhi - CPCB",18-12-2025 07:00:00,28.6811736,77.3025234,NO2,47,110,86
India,Delhi,Delhi,"IIT Delhi, Delhi - IITM",18-12-2025 07:00:00,28.542460,77.191651,PM2.5,189,418,323
India,Delhi,Delhi,"IIT Delhi, Delhi - IITM",18-12-2025 07:00:00,28.542460,77.191651,NO2,NA,NA,NA
India,Delhi,Delhi,"IIT Delhi, Delhi - IITM",18-12-2025 07:00:00,28.542460,77.191651,OZONE,6,59,8
India,Delhi,Delhi,"Okhla Phase-2, Delhi - DPCC",18-12-2025 07:00:00,28.530785,77.271255,OZONE,7,163,10
India,Delhi,Delhi,"Patparganj, Delhi - DPCC",18-12-2025 07:00:00,28.623763,77.287209,PM10,157,446,296
India,Delhi,Delhi,"Patparganj, Delhi - DPCC",18-12-2025 07:00:00,28.623763,77.287209,CO,10,161,114
India,Delhi,Delhi,"Punjabi Bagh, Delhi - DPCC",18-12-2025 07:00:00,28.674045,77.131023,NO2,25,72,43
India,Delhi,Delhi,"Punjabi Bagh, Delhi - DPCC",18-12-2025 07:00:00,28.674045,77.131023,SO2,1,9,4
India,Delhi,Delhi,"Pusa, Delhi - DPCC",18-12-2025 07:00:00,28.639652,77.146275,PM10,183,432,299
India,Delhi,Delhi,"Pusa, Delhi - IMD",18-12-2025 07:00:00,28.636110,77.173332,PM10,142,419,272
India,Delhi,Delhi,"Najafgarh, Delhi - DPCC",18-12-2025 07:00:00,28.570173,76.933762,NH3,10,13,11
India,Delhi,Delhi,"Narela, Delhi - DPCC",18-12-2025 07:00:00,28.822836,77.101981,CO,46,100,66
India,Delhi,Delhi,"Nehru Nagar, Delhi - DPCC",18-12-2025 07:00:00,28.567890,77.250515,NH3,NA,NA,NA
India,Delhi,Delhi,"North Campus, DU, Delhi - IMD",18-12-2025 07:00:00,28.6573814,77.1585447,PM2.5,228,500,361
India,Delhi,Delhi,"Okhla Phase-2, Delhi - DPCC",18-12-2025 07:00:00,28.530785,77.271255,PM2.5,237,489,365
India,Delhi,Delhi,"Okhla Phase-2, Delhi - DPCC",18-12-2025 07:00:00,28.530785,77.271255,NH3,18,27,22
India,Delhi,Delhi,"Sirifort, Delhi - CPCB",18-12-2025 07:00:00,28.5504249,77.2159377,CO,26,106,102
India,Delhi,Delhi,"Sirifort, Delhi - CPCB",18-12-2025 07:00:00,28.5504249,77.2159377,OZONE,8,32,23
India,Delhi,Delhi,"Sonia Vihar, Delhi - DPCC",18-12-2025 07:00:00,28.710508,77.249485,PM10,163,500,301
India,Delhi,Delhi,"Sonia Vihar, Delhi - DPCC",18-12-2025 07:00:00,28.710508,77.249485,NO2,31,86,47
India,Delhi,Delhi,"Sri Aurobindo Marg, Delhi - DPCC",18-12-2025 07:00:00,28.531346,77.190156,SO2,4,11,8
India,Delhi,Delhi,"Wazirpur, Delhi - DPCC",18-12-2025 07:00:00,28.699793,77.165453,PM10,207,500,374
India,Delhi,Delhi,"R K Puram, Delhi - DPCC",18-12-2025 07:00:00,28.563262,77.186937,PM10,156,446,282
India,Delhi,Delhi,"R K Puram, Delhi - DPCC",18-12-2025 07:00:00,28.563262,77.186937,NO2,23,134,65
India,Delhi,Delhi,"R K Puram, Delhi - DPCC",18-12-2025 07:00:00,28.563262,77.186937,CO,44,164,118
India,Delhi,Delhi,"Rohini, Delhi - DPCC",18-12-2025 07:00:00,28.732528,77.119920,NH3,15,23,18
India,Delhi,Delhi,"Rohini, Delhi - DPCC",18-12-2025 07:00:00,28.732528,77.119920,SO2,12,22,16
India,Delhi,Delhi,"Shadipur, Delhi - CPCB",18-12-2025 07:00:00,28.6514781,77.1473105,CO,35,128,89
India,Delhi,Delhi,"CRRI Mathura Road, Delhi - IMD",18-12-2025 07:00:00,28.5512005,77.2735737,CO,52,111,97
India,Delhi,Delhi,"Chandni Chowk, Delhi - IITM",18-12-2025 07:00:00,28.656756,77.227234,PM2.5,318,483,386
India,Delhi,Delhi,"Chandni Chowk, Delhi - IITM",18-12-2025 07:00:00,28.656756,77.227234,SO2,14,15,14
India,Delhi,Delhi,"DTU, Delhi - CPCB",18-12-2025 07:00:00,28.7500499,77.1112615,PM2.5,227,500,381
India,Delhi,Delhi,"Jawaharlal Nehru Stadium, Delhi - DPCC",18-12-2025 07:00:00,28.580280,77.233829,CO,40,119,107
India,Delhi,Delhi,"Lodhi Road, Delhi - IMD",18-12-2025 07:00:00,28.5918245,77.2273074,PM2.5,211,407,315
India,Delhi,Delhi,"Lodhi Road, Delhi - IMD",18-12-2025 07:00:00,28.5918245,77.2273074,NO2,16,60,31
India,Delhi,Delhi,"Ashok Vihar, Delhi - DPCC",18-12-2025 07:00:00,28.695381,77.181665,PM2.5,290,500,394
India,Delhi,Delhi,"Bawana, Delhi - DPCC",18-12-2025 07:00:00,28.776200,77.051074,NH3,8,13,10
India,Delhi,Delhi,"Bawana, Delhi - DPCC",18-12-2025 07:00:00,28.776200,77.051074,OZONE,3,102,3
India,Haryana,Kaithal,"Rishi Nagar, Kaithal - HSPCB",18-12-2025 07:00:00,29.8006,76.4155,NO2,30,34,32
India,Haryana,Kaithal,"Rishi Nagar, Kaithal - HSPCB",18-12-2025 07:00:00,29.8006,76.4155,NH3,5,6,6
India,Haryana,Karnal,"Sector-12, Karnal - HSPCB",18-12-2025 07:00:00,29.695300,77.002700,NO2,6,7,6
India,Haryana,Karnal,"Sector-12, Karnal - HSPCB",18-12-2025 07:00:00,29.695300,77.002700,NH3,5,7,6
India,Haryana,Kurukshetra,"Sector-7, Kurukshetra - HSPCB",18-12-2025 07:00:00,29.966942,76.875879,PM2.5,162,313,258
India,Haryana,Mandikhera,"General Hospital, Mandikhera(Nuh) - HSPCB",18-12-2025 07:00:00,27.9002,76.9938,PM2.5,71,143,102
India,Haryana,Mandikhera,"General Hospital, Mandikhera(Nuh) - HSPCB",18-12-2025 07:00:00,27.9002,76.9938,NO2,20,23,22
India,Haryana,Mandikhera,"General Hospital, Mandikhera(Nuh) - HSPCB",18-12-2025 07:00:00,27.9002,76.9938,NH3,12,14,13
India,Haryana,Mandikhera,"General Hospital, Mandikhera(Nuh) - HSPCB",18-12-2025 07:00:00,27.9002,76.9938,CO,58,88,77
India,Gujarat,Ankleshwar,"GIDC, Ankleshwar - GPCB",18-12-2025 07:00:00,21.613267,73.010555,CO,36,96,75
India,Gujarat,Gandhinagar,"GIFT City, Gandhinagar - IITM",18-12-2025 07:00:00,23.163798,72.677768,SO2,8,14,11
India,Gujarat,Gandhinagar,"GIFT City, Gandhinagar - IITM",18-12-2025 07:00:00,23.163798,72.677768,CO,54,74,61
India,Gujarat,Gandhinagar,"IIPHG Lekawada, Gandhinagar - IITM",18-12-2025 07:00:00,23.243639,72.68994,SO2,4,9,6
India,Gujarat,Gandhinagar,"Sector-10, Gandhinagar - GPCB",18-12-2025 07:00:00,23.221714,72.654328,PM10,64,127,92
India,Gujarat,Gandhinagar,"Sector-10, Gandhinagar - GPCB",18-12-2025 07:00:00,23.221714,72.654328,NO2,15,24,17
India,Gujarat,Surat,"Science Center, Surat - SMC",18-12-2025 07:00:00,21.170046,72.795405,PM10,NA,NA,NA
India,Gujarat,Surat,"Science Center, Surat - SMC",18-12-2025 07:00:00,21.170046,72.795405,NO2,NA,NA,NA
India,Haryana,Fatehabad,"Huda Sector, Fatehabad - HSPCB",18-12-2025 07:00:00,29.503664,75.467934,PM2.5,92,208,147
India,Haryana,Fatehabad,"Huda Sector, Fatehabad - HSPCB",18-12-2025 07:00:00,29.503664,75.467934,NH3,13,15,14
India,Haryana,Fatehabad,"Huda Sector, Fatehabad - HSPCB",18-12-2025 07:00:00,29.503664,75.467934,SO2,10,11,10
India,Haryana,Gurugram,"NISE Gwal Pahari, Gurugram - IMD",18-12-2025 07:00:00,28.422681,77.148944,NO2,22,45,32
India,Haryana,Gurugram,"Sector-51, Gurugram - HSPCB",18-12-2025 07:00:00,28.4227,77.0667,PM10,96,430,239
India,Haryana,Gurugram,"Sector-51, Gurugram - HSPCB",18-12-2025 07:00:00,28.4227,77.0667,OZONE,10,45,12
India,Haryana,Gurugram,"Teri Gram, Gurugram - HSPCB",18-12-2025 07:00:00,28.4275,77.1465,NH3,11,20,14
India,Haryana,Bahadurgarh,"Arya Nagar, Bahadurgarh - HSPCB",18-12-2025 07:00:00,28.6701,76.9254,OZONE,16,20,18
India,Haryana,Ballabgarh,"Nathu Colony, Ballabgarh - HSPCB",18-12-2025 07:00:00,28.3419248,77.319699,SO2,5,10,7
India,Haryana,Ballabgarh,"Nathu Colony, Ballabgarh - HSPCB",18-12-2025 07:00:00,28.3419248,77.319699,CO,15,101,34
India,Haryana,Bhiwani,"H.B. Colony, Bhiwani - HSPCB",18-12-2025 07:00:00,28.806223,76.141105,PM10,81,138,96
India,Haryana,Bhiwani,"H.B. Colony, Bhiwani - HSPCB",18-12-2025 07:00:00,28.806223,76.141105,NH3,1,9,8
India,Haryana,Bhiwani,"H.B. Colony, Bhiwani - HSPCB",18-12-2025 07:00:00,28.806223,76.141105,CO,11,14,12
India,Haryana,Bhiwani,"H.B. Colony, Bhiwani - HSPCB",18-12-2025 07:00:00,28.806223,76.141105,OZONE,8,18,12
India,Gujarat,Ahmedabad,"Rakhial, Ahmedabad - IITM",18-12-2025 07:00:00,23.016834,72.625775,SO2,24,52,31
India,Gujarat,Ahmedabad,"SAC ISRO Satellite, Ahmedabad - IITM",18-12-2025 07:00:00,23.023389,72.515201,PM10,64,105,86
India,Gujarat,Ahmedabad,"SAC ISRO Satellite, Ahmedabad - IITM",18-12-2025 07:00:00,23.023389,72.515201,SO2,6,59,15
India,Gujarat,Ahmedabad,"SVPI Airport Hansol, Ahmedabad - IITM",18-12-2025 07:00:00,23.076793,72.627874,NO2,39,173,98
India,Gujarat,Ahmedabad,"SVPI Airport Hansol, Ahmedabad - IITM",18-12-2025 07:00:00,23.076793,72.627874,OZONE,13,57,17
India,Gujarat,Ankleshwar,"GIDC, Ankleshwar - GPCB",18-12-2025 07:00:00,21.613267,73.010555,PM2.5,98,310,209
India,Haryana,Charkhi Dadri,"Mini Secretariat, Charkhi Dadri - HSPCB",18-12-2025 07:00:00,28.593883,76.270653,CO,8,25,16
India,Haryana,Dharuhera,"Municipal Corporation Office, Dharuhera -  HSPCB",18-12-2025 07:00:00,28.206800,76.799700,NO2,NA,NA,NA
India,Haryana,Faridabad,"New Industrial Town, Faridabad - HSPCB",18-12-2025 07:00:00,28.39072,77.30059,PM10,169,177,173
India,Haryana,Faridabad,"New Industrial Town, Faridabad - HSPCB",18-12-2025 07:00:00,28.39072,77.30059,OZONE,25,34,30
India,Haryana,Faridabad,"Sector 30, Faridabad - HSPCB",18-12-2025 07:00:00,28.4417,77.3217,NO2,36,39,37
India,Gujarat,Surat,"Science Center, Surat - SMC",18-12-2025 07:00:00,21.170046,72.795405,SO2,NA,NA,NA
India,Gujarat,Surat,"Science Center, Surat - SMC",18-12-2025 07:00:00,21.170046,72.795405,CO,NA,NA,NA
India,Gujarat,Vatva,"Phase-4 GIDC, Vatva - GPCB",18-12-2025 07:00:00,22.969611,72.643500,NO2,32,42,37
India,Haryana,Ambala,"Patti Mehar, Ambala - HSPCB",18-12-2025 07:00:00,30.379589,76.778328,OZONE,48,52,50
India,Haryana,Bahadurgarh,"Arya Nagar, Bahadurgarh - HSPCB",18-12-2025 07:00:00,28.6701,76.9254,PM2.5,56,423,291
India,Haryana,Gurugram,"Vikas Sadan, Gurugram - HSPCB",18-12-2025 07:00:00,28.4501238,77.0263051,PM10,135,167,148
India,Haryana,Hisar,"Urban Estate-II, Hisar - HSPCB",18-12-2025 07:00:00,29.140560,75.744941,PM10,NA,NA,NA
India,Haryana,Hisar,"Urban Estate-II, Hisar - HSPCB",18-12-2025 07:00:00,29.140560,75.744941,NO2,NA,NA,NA
India,Haryana,Jind,"Police Lines, Jind - HSPCB",18-12-2025 07:00:00,29.307814,76.337619,NO2,40,51,44
India,Haryana,Kaithal,"Rishi Nagar, Kaithal - HSPCB",18-12-2025 07:00:00,29.8006,76.4155,PM2.5,67,180,115
India,Gujarat,Ahmedabad,"Chandkheda, Ahmedabad - IITM",18-12-2025 07:00:00,23.107969,72.574648,PM2.5,80,137,101
India,Gujarat,Ahmedabad,"Gyaspur, Ahmedabad - IITM",18-12-2025 07:00:00,22.977134,72.553024,CO,14,120,56
India,Gujarat,Ahmedabad,"Maninagar, Ahmedabad - GPCB",18-12-2025 07:00:00,23.002657,72.591912,NO2,63,64,63
India,Gujarat,Ahmedabad,"Maninagar, Ahmedabad - GPCB",18-12-2025 07:00:00,23.002657,72.591912,CO,14,34,24
India,Himachal Pradesh,Baddi,"HIMUDA Complex Phase-1, Baddi - HPPCB",18-12-2025 07:00:00,30.943887,76.801991,PM10,129,426,238
India,Himachal Pradesh,Baddi,"HIMUDA Complex Phase-1, Baddi - HPPCB",18-12-2025 07:00:00,30.943887,76.801991,CO,10,111,65
India,Jammu_and_Kashmir,Srinagar,"Khunmoh, Srinagar - JKPCC",18-12-2025 07:00:00,34.06313,74.96017,PM2.5,192,239,215
India,Jammu_and_Kashmir,Srinagar,"Rajbagh, Srinagar - JKPCC",18-12-2025 07:00:00,34.066206,74.819820,PM2.5,72,252,161
India,Jammu_and_Kashmir,Srinagar,"Rajbagh, Srinagar - JKPCC",18-12-2025 07:00:00,34.066206,74.819820,OZONE,NA,NA,NA
India,Jharkhand,Dhanbad,"Sardar Patel Nagar, Dhanbad - JSPCB",18-12-2025 07:00:00,23.80569,86.44268,PM10,96,292,188
India,Jharkhand,Dhanbad,"Sardar Patel Nagar, Dhanbad - JSPCB",18-12-2025 07:00:00,23.80569,86.44268,NO2,57,81,62
India,Haryana,Manesar,"Sector-2 IMT, Manesar - HSPCB",18-12-2025 07:00:00,28.360699,76.936090,PM2.5,198,358,271
India,Haryana,Manesar,"Sector-2 IMT, Manesar - HSPCB",18-12-2025 07:00:00,28.360699,76.936090,CO,24,88,53
India,Haryana,Narnaul,"Shastri Nagar, Narnaul - HSPCB",18-12-2025 07:00:00,28.060249,76.113115,PM10,153,242,196
India,Haryana,Narnaul,"Shastri Nagar, Narnaul - HSPCB",18-12-2025 07:00:00,28.060249,76.113115,SO2,3,5,4
India,Haryana,Palwal,"Shyam Nagar, Palwal - HSPCB",18-12-2025 07:00:00,28.1485564,77.3320667,CO,22,54,40
India,Haryana,Panchgaon,"Amity University, Panchgaon - IITM",18-12-2025 07:00:00,28.3153,76.9143,PM10,50,500,148
India,Haryana,Panchgaon,"Amity University, Panchgaon - IITM",18-12-2025 07:00:00,28.3153,76.9143,NO2,5,24,14
India,Haryana,Panchgaon,"Amity University, Panchgaon - IITM",18-12-2025 07:00:00,28.3153,76.9143,SO2,5,20,10
India,Karnataka,Belgaum,"Ramteerth Nagar, Belgaum - KSPCB",18-12-2025 07:00:00,15.888653,74.541751,OZONE,19,20,19
India,Karnataka,Bengaluru,"BTM Layout, Bengaluru - CPCB",18-12-2025 07:00:00,12.9135218,77.5950804,PM2.5,70,94,79
India,Karnataka,Bengaluru,"BTM Layout, Bengaluru - CPCB",18-12-2025 07:00:00,12.9135218,77.5950804,SO2,19,20,19
India,Karnataka,Bengaluru,"BTM Layout, Bengaluru - CPCB",18-12-2025 07:00:00,12.9135218,77.5950804,CO,44,54,46
India,Karnataka,Bengaluru,"BTM Layout, Bengaluru - CPCB",18-12-2025 07:00:00,12.9135218,77.5950804,OZONE,21,22,21
India,Karnataka,Bengaluru,"BWSSB Kadabesanahalli, Bengaluru - CPCB",18-12-2025 07:00:00,12.9352049,77.6814488,NO2,13,25,18
India,Karnataka,Bengaluru,"City Railway Station, Bengaluru - KSPCB",18-12-2025 07:00:00,12.9756843,77.5660749,SO2,20,21,21
India,Karnataka,Bengaluru,"Hebbal, Bengaluru - KSPCB",18-12-2025 07:00:00,13.029152,77.585901,NH3,NA,NA,NA
India,Haryana,Panchgaon,"Amity University, Panchgaon - IITM",18-12-2025 07:00:00,28.3153,76.9143,OZONE,NA,NA,NA
India,Haryana,Panipat,"Sector-18, Panipat - HSPCB",18-12-2025 07:00:00,29.432304,76.972765,PM10,94,244,151
India,Haryana,Rohtak,"MD University, Rohtak - HSPCB",18-12-2025 07:00:00,28.52123,76.37138,PM10,210,384,288
India,Haryana,Sirsa,"F-Block, Sirsa - HSPCB",18-12-2025 07:00:00,29.536400,75.015800,CO,34,88,70
India,Haryana,Sonipat,"Murthal, Sonipat - HSPCB",18-12-2025 07:00:00,29.027200,77.062100,PM2.5,130,404,289
India,Haryana,Sonipat,"Murthal, Sonipat - HSPCB",18-12-2025 07:00:00,29.027200,77.062100,NH3,14,49,23
India,Karnataka,Bengaluru,"Kasturi Nagar, Bengaluru - KSPCB",18-12-2025 07:00:00,13.003872,77.664217,PM2.5,70,71,70
India,Karnataka,Bengaluru,"Peenya, Bengaluru - CPCB",18-12-2025 07:00:00,13.0270199,77.494094,PM2.5,18,40,27
India,Karnataka,Bengaluru,"Peenya, Bengaluru - CPCB",18-12-2025 07:00:00,13.0270199,77.494094,PM10,77,131,100
India,Karnataka,Bengaluru,"RVCE-Mailasandra, Bengaluru - KSPCB",18-12-2025 07:00:00,12.921418,77.502466,PM10,56,125,90
India,Karnataka,Bengaluru,"RVCE-Mailasandra, Bengaluru - KSPCB",18-12-2025 07:00:00,12.921418,77.502466,NO2,23,31,30
India,Karnataka,Bengaluru,"RVCE-Mailasandra, Bengaluru - KSPCB",18-12-2025 07:00:00,12.921418,77.502466,NH3,2,2,2
India,Karnataka,Bengaluru,"Sanegurava Halli, Bengaluru - KSPCB",18-12-2025 07:00:00,12.990328,77.5431385,NO2,20,21,20
India,Karnataka,Bengaluru,"Shivapura_Peenya, Bengaluru - KSPCB",18-12-2025 07:00:00,13.0246342,77.5080115,PM2.5,43,150,88
India,Karnataka,Bengaluru,"Shivapura_Peenya, Bengaluru - KSPCB",18-12-2025 07:00:00,13.0246342,77.5080115,OZONE,19,20,20
India,Karnataka,Bengaluru,"Silk Board, Bengaluru - KSPCB",18-12-2025 07:00:00,12.917348,77.622813,CO,18,38,25
India,Karnataka,Chamarajanagar,"Urban, Chamarajanagar - KSPCB",18-12-2025 07:00:00,11.55358,76.55521,PM10,28,69,44
India,Karnataka,Chikkamagaluru,"Kalyana Nagara, Chikkamagaluru - KSPCB",18-12-2025 07:00:00,13.328028,75.797056,OZONE,9,37,37
India,Karnataka,Davanagere,"Devaraj Urs Badavane, Davanagere - KSPCB",18-12-2025 07:00:00,14.475800,75.905200,SO2,3,6,5
India,Karnataka,Dharwad,"Kalabhavan, Dharwad - KSPCB",18-12-2025 07:00:00,15.459706,75.008381,PM10,62,94,75
India,Karnataka,Kalaburagi,"Mahatma Basaveswar Colony, Kalaburgi - KSPCB",18-12-2025 07:00:00,17.336318,76.847397,NO2,12,17,14
India,Karnataka,Madikeri,"Stuart Hill, Madikeri - KSPCB",18-12-2025 07:00:00,12.415911,75.735050,OZONE,3,6,4
India,Karnataka,Mangalore,"Kadri, Mangalore - KSPCB",18-12-2025 07:00:00,12.889250,74.853000,SO2,17,17,17
India,Karnataka,Shivamogga,"Vinoba Nagara, Shivamogga - KSPCB",18-12-2025 07:00:00,13.940000,75.555917,CO,8,26,12
