country,state,city,station,last_update,latitude,longitude,pollutant_id,min_value,max_value,avg_value
India,Assam,Nagaon,"Christianpatty, Nagaon - PCBA",28-12-2025 08:00:00,26.349082,92.68449,OZONE,8,9,9
India,Assam,Nalbari,"Bata Chowk, Nalbari - PCBA",28-12-2025 08:00:00,26.446912,91.439057,NO2,13,15,14
India,Assam,Nalbari,"Bata Chowk, Nalbari - PCBA",28-12-2025 08:00:00,26.446912,91.439057,NH3,6,7,6
India,Assam,Nalbari,"Bata Chowk, Nalbari - PCBA",28-12-2025 08:00:00,26.446912,91.439057,CO,20,23,21
India,Assam,Silchar,"Tarapur, Silchar - PCBA",28-12-2025 08:00:00,24.82827,92.79525,PM10,27,95,55
India,Assam,Silchar,"Tarapur, Silchar - PCBA",28-12-2025 08:00:00,24.82827,92.79525,NO2,20,27,24
India,Assam,Silchar,"Tarapur, Silchar - PCBA",28-12-2025 08:00:00,24.82827,92.79525,OZONE,NA,NA,NA
India,Assam,Sivasagar,"Girls College, Sivasagar - PCBA",28-12-2025 08:00:00,26.987634,94.636574,PM10,40,99,60
India,Assam,Sivasagar,"Girls College, Sivasagar - PCBA",28-12-2025 08:00:00,26.987634,94.636574,OZONE,3,85,6
India,Andhra_Pradesh,Tirumala,"Toll Gate, Tirumala - APPCB",28-12-2025 08:00:00,13.67,79.35,NO2,14,35,23
India,Andhra_Pradesh,Tirupati,"Vaikuntapuram, Tirupati - APPCB",28-12-2025 08:00:00,13.615387,79.409230,PM10,36,139,96
India,Andhra_Pradesh,Tirupati,"Vaikuntapuram, Tirupati - APPCB",28-12-2025 08:00:00,13.615387,79.409230,NH3,4,4,4
India,Andhra_Pradesh,Tirupati,"Vaikuntapuram, Tirupati - APPCB",28-12-2025 08:00:00,13.615387,79.409230,OZONE,13,28,14
India,Andhra_Pradesh,Vijayawada,"HB Colony, Vijayawada - APPCB",28-12-2025 08:00:00,16.536107,80.594233,PM2.5,58,71,64
India,Andhra_Pradesh,Vijayawada,"HB Colony, Vijayawada - APPCB",28-12-2025 08:00:00,16.536107,80.594233,NH3,3,5,3
India,Andhra_Pradesh,Vijayawada,"HB Colony, Vijayawada - APPCB",28-12-2025 08:00:00,16.536107,80.594233,OZONE,NA,NA,NA
India,Andhra_Pradesh,Vijayawada,"Kanuru, Vijayawada - APPCB",28-12-2025 08:00:00,16.486692,80.699436,CO,NA,NA,NA
India,Bihar,Araria,"Kharahiya Basti, Araria - BSPCB",28-12-2025 08:00:00,26.146529,87.454184,NH3,4,4,4
India,Bihar,Araria,"Kharahiya Basti, Araria - BSPCB",28-12-2025 08:00:00,26.146529,87.454184,SO2,19,37,29
India,Bihar,Araria,"Kharahiya Basti, Araria - BSPCB",28-12-2025 08:00:00,26.146529,87.454184,CO,30,58,44
India,Bihar,Arrah,"New DM Office, Arrah - BSPCB",28-12-2025 08:00:00,25.5626095,84.663264,PM2.5,67,277,150
India,Bihar,Arrah,"New DM Office, Arrah - BSPCB",28-12-2025 08:00:00,25.5626095,84.663264,NO2,4,8,7
India,Bihar,Arrah,"New DM Office, Arrah - BSPCB",28-12-2025 08:00:00,25.5626095,84.663264,NH3,1,1,1
India,Bihar,Arrah,"New DM Office, Arrah - BSPCB",28-12-2025 08:00:00,25.5626095,84.663264,SO2,10,10,10
India,Bihar,Aurangabad,"Gurdeo Nagar, Aurangabad - BSPCB",28-12-2025 08:00:00,24.75746,84.366208,CO,101,103,102
India,Andhra_Pradesh,Vijayawada,"Rajiv Gandhi Park, Vijayawada - APPCB",28-12-2025 08:00:00,16.509717,80.612222,NO2,36,93,59
India,Andhra_Pradesh,Vijayawada,"Rajiv Gandhi Park, Vijayawada - APPCB",28-12-2025 08:00:00,16.509717,80.612222,CO,16,40,16
India,Andhra_Pradesh,Vijayawada,"Rajiv Nagar, Vijayawada - APPCB",28-12-2025 08:00:00,16.554731,80.649110,NO2,17,28,22
India,Andhra_Pradesh,Vijayawada,"Rajiv Nagar, Vijayawada - APPCB",28-12-2025 08:00:00,16.554731,80.649110,NH3,4,7,6
India,Assam,Byrnihat,"Central Academy for SFS, Byrnihat - PCBA",28-12-2025 08:00:00,26.071318,91.87488,PM2.5,96,304,164
India,Bihar,Begusarai,"Lohiyanagar, Begusarai - BSPCB",28-12-2025 08:00:00,25.42742023,86.13886079,CO,NA,NA,NA
India,Bihar,Bettiah,"Kamalnath Nagar, Bettiah - BSPCB",28-12-2025 08:00:00,26.80365,84.51954,CO,60,101,65
India,Bihar,Bhagalpur,"DM Office_Kachari Chowk, Bhagalpur - BSPCB",28-12-2025 08:00:00,25.251013,86.989001,SO2,29,76,53
India,Bihar,Bhagalpur,"Mayaganj, Bhagalpur - BSPCB",28-12-2025 08:00:00,25.265194,87.012947,NH3,11,12,11
India,Bihar,Bhagalpur,"Mayaganj, Bhagalpur - BSPCB",28-12-2025 08:00:00,25.265194,87.012947,CO,80,88,84
India,Assam,Byrnihat,"Central Academy for SFS, Byrnihat - PCBA",28-12-2025 08:00:00,26.071318,91.87488,NH3,4,4,4
India,Assam,Guwahati,"LGBI Airport, Guwahati - PCBA",28-12-2025 08:00:00,26.10887,91.589544,PM10,55,137,104
India,Assam,Guwahati,"Pan Bazaar, Guwahati - PCBA",28-12-2025 08:00:00,26.187500,91.744194,PM2.5,1,1,1
India,Assam,Nagaon,"Christianpatty, Nagaon - PCBA",28-12-2025 08:00:00,26.349082,92.68449,PM10,73,130,108
India,Assam,Nagaon,"Christianpatty, Nagaon - PCBA",28-12-2025 08:00:00,26.349082,92.68449,NH3,4,4,4
India,Andhra_Pradesh,Chittoor,"Gangineni Cheruvu, Chittoor - APPCB",28-12-2025 08:00:00,13.204880,79.097889,PM10,36,200,133
India,Andhra_Pradesh,Chittoor,"Gangineni Cheruvu, Chittoor - APPCB",28-12-2025 08:00:00,13.204880,79.097889,CO,23,42,25
India,Andhra_Pradesh,Rajamahendravaram,"Anand Kala Kshetram, Rajamahendravaram - APPCB",28-12-2025 08:00:00,16.9872867,81.7363176,PM10,114,206,150
India,Andhra_Pradesh,Rajamahendravaram,"Anand Kala Kshetram, Rajamahendravaram - APPCB",28-12-2025 08:00:00,16.9872867,81.7363176,NO2,15,91,37
India,Bihar,Gaya,"Collectorate, Gaya - BSPCB",28-12-2025 08:00:00,24.7955,84.9994,NO2,NA,NA,NA
India,Bihar,Gaya,"Kareemganj, Gaya - BSPCB",28-12-2025 08:00:00,24.792403,84.992416,NO2,2,7,5
India,Bihar,Gaya,"SFTI Kusdihra, Gaya - BSPCB",28-12-2025 08:00:00,24.762518,84.982348,CO,24,54,44
India,Bihar,Gaya,"SFTI Kusdihra, Gaya - BSPCB",28-12-2025 08:00:00,24.762518,84.982348,OZONE,10,52,13
India,Bihar,Buxar,"Charitra Van, Buxar - BSPCB",28-12-2025 08:00:00,25.567520,83.966379,PM2.5,NA,NA,NA
India,Bihar,Gaya,"Collectorate, Gaya - BSPCB",28-12-2025 08:00:00,24.7955,84.9994,PM2.5,NA,NA,NA
India,Andhra_Pradesh,Amaravati,"Secretariat, Amaravati - APPCB",28-12-2025 08:00:00,16.5150833,80.5181667,OZONE,1,56,6
India,Bihar,Purnia,"Mariam Nagar, Purnia - BSPCB",28-12-2025 08:00:00,25.366336,87.117468,OZONE,24,28,24
India,Bihar,Rajgir,"Dangi Tola, Rajgir - BSPCB",28-12-2025 08:00:00,25.03280,85.41948,PM2.5,37,358,137
India,Bihar,Rajgir,"Dangi Tola, Rajgir - BSPCB",28-12-2025 08:00:00,25.03280,85.41948,NH3,3,8,6
India,Bihar,Saharsa,"Police Line, Saharsa - BSPCB",28-12-2025 08:00:00,25.892357,86.590325,NH3,4,4,4
India,Bihar,Saharsa,"Police Line, Saharsa - BSPCB",28-12-2025 08:00:00,25.892357,86.590325,SO2,14,18,16
India,Bihar,Samastipur,"DM Office_Kasipur, Samastipur - BSPCB",28-12-2025 08:00:00,25.859655,85.77944,NO2,7,9,8
India,Bihar,Samastipur,"DM Office_Kasipur, Samastipur - BSPCB",28-12-2025 08:00:00,25.859655,85.77944,NH3,1,1,1
India,Bihar,Sasaram,"Dada Peer, Sasaram - BSPCB",28-12-2025 08:00:00,24.952822,84.002396,PM2.5,37,118,64
India,Bihar,Sasaram,"Dada Peer, Sasaram - BSPCB",28-12-2025 08:00:00,24.952822,84.002396,NH3,3,3,3
India,Bihar,Katihar,"Mirchaibari, Katihar - BSPCB",28-12-2025 08:00:00,25.560083,87.553265,NH3,1,1,1
India,Bihar,Katihar,"Mirchaibari, Katihar - BSPCB",28-12-2025 08:00:00,25.560083,87.553265,CO,73,101,88
India,Bihar,Kishanganj,"SDM Office_Khagra, Kishanganj - BSPCB",28-12-2025 08:00:00,26.0881305,87.93840336,NO2,8,9,8
India,Bihar,Kishanganj,"SDM Office_Khagra, Kishanganj - BSPCB",28-12-2025 08:00:00,26.0881305,87.93840336,NH3,3,3,3
India,Bihar,Kishanganj,"SDM Office_Khagra, Kishanganj - BSPCB",28-12-2025 08:00:00,26.0881305,87.93840336,CO,14,16,15
India,Bihar,Motihari,"Gandak Colony, Motihari - BSPCB",28-12-2025 08:00:00,26.63086,84.90051,PM10,6,107,72
India,Bihar,Motihari,"Gandak Colony, Motihari - BSPCB",28-12-2025 08:00:00,26.63086,84.90051,NH3,3,3,3
India,Bihar,Motihari,"Gandak Colony, Motihari - BSPCB",28-12-2025 08:00:00,26.63086,84.90051,SO2,2,3,3
India,Chhattisgarh,Bilaspur,"Mangala, Bilaspur - NTPC",28-12-2025 08:00:00,22.08815,82.13737,PM2.5,46,156,81
India,Chhattisgarh,Bilaspur,"Mangala, Bilaspur - NTPC",28-12-2025 08:00:00,22.08815,82.13737,NO2,13,76,27
India,Chhattisgarh,Chhal,"Nawapara SECL Colony, Chhal - CECB",28-12-2025 08:00:00,22.118125,83.140608,PM10,NA,NA,NA
India,Chhattisgarh,Chhal,"Nawapara SECL Colony, Chhal - CECB",28-12-2025 08:00:00,22.118125,83.140608,NH3,NA,NA,NA
India,Chhattisgarh,Chhal,"Nawapara SECL Colony, Chhal - CECB",28-12-2025 08:00:00,22.118125,83.140608,OZONE,NA,NA,NA
India,Chhattisgarh,Korba,"Rampur, Korba - CECB",28-12-2025 08:00:00,22.368195,82.746431,OZONE,4,14,4
India,Chhattisgarh,Korba,"Urja Nagar, Korba - CECB",28-12-2025 08:00:00,22.348441,82.549611,PM2.5,16,277,81
India,Bihar,Muzaffarpur,"Buddha Colony, Muzaffarpur - BSPCB",28-12-2025 08:00:00,26.11442,85.39813,PM2.5,72,153,104
India,Bihar,Muzaffarpur,"Buddha Colony, Muzaffarpur - BSPCB",28-12-2025 08:00:00,26.11442,85.39813,NH3,6,8,6
India,Bihar,Muzaffarpur,"Buddha Colony, Muzaffarpur - BSPCB",28-12-2025 08:00:00,26.11442,85.39813,SO2,1,6,3
India,Bihar,Muzaffarpur,"MIT-Daudpur Kothi, Muzaffarpur - BSPCB",28-12-2025 08:00:00,26.1403345,85.3650192,PM2.5,85,97,91
India,Bihar,Muzaffarpur,"MIT-Daudpur Kothi, Muzaffarpur - BSPCB",28-12-2025 08:00:00,26.1403345,85.3650192,PM10,57,66,60
India,Bihar,Muzaffarpur,"MIT-Daudpur Kothi, Muzaffarpur - BSPCB",28-12-2025 08:00:00,26.1403345,85.3650192,NH3,1,4,3
India,Bihar,Muzaffarpur,"Muzaffarpur Collectorate, Muzaffarpur - BSPCB",28-12-2025 08:00:00,26.1209,85.3647,NO2,10,16,12
India,Chandigarh,Chandigarh,"Sector-53, Chandigarh - CPCC",28-12-2025 08:00:00,30.719859,76.738637,PM2.5,68,305,203
India,Chandigarh,Chandigarh,"Sector-53, Chandigarh - CPCC",28-12-2025 08:00:00,30.719859,76.738637,NH3,11,16,14
India,Chandigarh,Chandigarh,"Sector-53, Chandigarh - CPCC",28-12-2025 08:00:00,30.719859,76.738637,SO2,9,20,12
India,Chandigarh,Chandigarh,"Sector-53, Chandigarh - CPCC",28-12-2025 08:00:00,30.719859,76.738637,OZONE,2,55,2
India,Chhattisgarh,Bhilai,"32Bungalows, Bhilai - CECB",28-12-2025 08:00:00,21.194815,81.314770,PM10,20,115,50
India,Chhattisgarh,Bhilai,"Civic Center, Bhilai - Bhilai Steel Plant",28-12-2025 08:00:00,21.185571,81.343175,OZONE,1,14,11
India,Bihar,Patna,"Govt. High School Shikarpur, Patna - BSPCB",28-12-2025 08:00:00,25.592539,85.227158,PM10,109,156,135
India,Bihar,Patna,"Govt. High School Shikarpur, Patna - BSPCB",28-12-2025 08:00:00,25.592539,85.227158,SO2,11,14,12
India,Bihar,Patna,"Govt. High School Shikarpur, Patna - BSPCB",28-12-2025 08:00:00,25.592539,85.227158,CO,28,56,32
India,Bihar,Patna,"IGSC Planetarium Complex, Patna - BSPCB",28-12-2025 08:00:00,25.610369,85.132568,PM2.5,62,165,105
India,Bihar,Patna,"Muradpur, Patna - BSPCB",28-12-2025 08:00:00,25.619651,85.147382,PM10,77,123,98
India,Bihar,Patna,"Muradpur, Patna - BSPCB",28-12-2025 08:00:00,25.619651,85.147382,NO2,NA,NA,NA
India,Bihar,Patna,"Rajbansi Nagar, Patna - BSPCB",28-12-2025 08:00:00,25.599486,85.113666,NO2,3,92,41
India,Bihar,Patna,"Rajbansi Nagar, Patna - BSPCB",28-12-2025 08:00:00,25.599486,85.113666,NH3,2,6,4
India,Bihar,Patna,"Samanpura, Patna - BSPCB",28-12-2025 08:00:00,25.596727,85.085624,NO2,20,23,22
India,Bihar,Patna,"Samanpura, Patna - BSPCB",28-12-2025 08:00:00,25.596727,85.085624,CO,100,108,105
India,Bihar,Purnia,"Mariam Nagar, Purnia - BSPCB",28-12-2025 08:00:00,25.366336,87.117468,PM10,31,64,50
India,Bihar,Purnia,"Mariam Nagar, Purnia - BSPCB",28-12-2025 08:00:00,25.366336,87.117468,SO2,16,17,16
India,Chhattisgarh,Korba,"Urja Nagar, Korba - CECB",28-12-2025 08:00:00,22.348441,82.549611,SO2,1,18,11
India,Chhattisgarh,Kunjemura,"OP Jindal School, Kunjemura - CECB",28-12-2025 08:00:00,22.126650,83.483212,PM10,31,90,57
India,Chhattisgarh,Kunjemura,"OP Jindal School, Kunjemura - CECB",28-12-2025 08:00:00,22.126650,83.483212,SO2,2,82,28
India,Chhattisgarh,Kunjemura,"OP Jindal School, Kunjemura - CECB",28-12-2025 08:00:00,22.126650,83.483212,CO,30,64,50
India,Chhattisgarh,Raipur,"AIIMS, Raipur - CECB",28-12-2025 08:00:00,21.258815,81.578979,NH3,4,4,4
India,Bihar,Sasaram,"Dada Peer, Sasaram - BSPCB",28-12-2025 08:00:00,24.952822,84.002396,OZONE,16,17,17
India,Chandigarh,Chandigarh,"Sector 22, Chandigarh - CPCC",28-12-2025 08:00:00,30.735567,76.775714,NH3,6,25,20
India,Chandigarh,Chandigarh,"Sector 22, Chandigarh - CPCC",28-12-2025 08:00:00,30.735567,76.775714,CO,68,122,91
India,Chandigarh,Chandigarh,"Sector-25, Chandigarh - CPCC",28-12-2025 08:00:00,30.751462,76.762879,PM10,94,163,138
India,Chhattisgarh,Raipur,"AIIMS, Raipur - CECB",28-12-2025 08:00:00,21.258815,81.578979,OZONE,1,3,1
India,Chhattisgarh,Raipur,"Bhatagaon New ISBT, Raipur - CECB",28-12-2025 08:00:00,21.219665,81.630094,PM2.5,NA,NA,NA
India,Chhattisgarh,Raipur,"Krishak Nagar, Raipur - CECB",28-12-2025 08:00:00,21.237755,81.705301,PM2.5,23,90,61
India,Chhattisgarh,Raipur,"Siltara Phase-II, Raipur - CECB",28-12-2025 08:00:00,21.371751,81.664929,PM10,71,138,99
India,Chhattisgarh,Raipur,"Siltara Phase-II, Raipur - CECB",28-12-2025 08:00:00,21.371751,81.664929,NH3,2,2,2
India,Chhattisgarh,Tumidih,"OP Jindal Industrial Park, Tumidih - CECB",28-12-2025 08:00:00,22.06631475,83.33820077,NH3,1,2,2
India,Delhi,Delhi,"Major Dhyan Chand National Stadium, Delhi - DPCC",28-12-2025 08:00:00,28.611281,77.237738,NO2,49,128,81
India,Delhi,Delhi,"Major Dhyan Chand National Stadium, Delhi - DPCC",28-12-2025 08:00:00,28.611281,77.237738,NH3,22,28,25
India,Delhi,Delhi,"Major Dhyan Chand National Stadium, Delhi - DPCC",28-12-2025 08:00:00,28.611281,77.237738,SO2,24,33,29
India,Delhi,Delhi,"Mandir Marg, Delhi - DPCC",28-12-2025 08:00:00,28.636429,77.201067,NH3,11,17,14
India,Delhi,Delhi,"Mundka, Delhi - DPCC",28-12-2025 08:00:00,28.684678,77.076574,NO2,49,125,84
India,Delhi,Delhi,"Mundka, Delhi - DPCC",28-12-2025 08:00:00,28.684678,77.076574,SO2,12,37,20
India,Delhi,Delhi,"Mundka, Delhi - DPCC",28-12-2025 08:00:00,28.684678,77.076574,CO,24,122,94
India,Delhi,Delhi,"Mundka, Delhi - DPCC",28-12-2025 08:00:00,28.684678,77.076574,OZONE,9,95,12
India,Delhi,Delhi,"NSIT Dwarka, Delhi - CPCB",28-12-2025 08:00:00,28.60909,77.0325413,CO,56,106,69
India,Delhi,Delhi,"Najafgarh, Delhi - DPCC",28-12-2025 08:00:00,28.570173,76.933762,NO2,72,107,92
India,Delhi,Delhi,"Najafgarh, Delhi - DPCC",28-12-2025 08:00:00,28.570173,76.933762,NH3,11,15,13
India,Delhi,Delhi,"Najafgarh, Delhi - DPCC",28-12-2025 08:00:00,28.570173,76.933762,CO,32,114,68
India,Delhi,Delhi,"Narela, Delhi - DPCC",28-12-2025 08:00:00,28.822836,77.101981,SO2,1,45,17
India,Delhi,Delhi,"Nehru Nagar, Delhi - DPCC",28-12-2025 08:00:00,28.567890,77.250515,PM10,183,431,356
India,Delhi,Delhi,"IGI Airport (T3), Delhi - IMD",28-12-2025 08:00:00,28.5627763,77.1180053,OZONE,8,70,10
India,Delhi,Delhi,"IHBAS, Dilshad Garden, Delhi - CPCB",28-12-2025 08:00:00,28.6811736,77.3025234,PM10,187,308,265
India,Delhi,Delhi,"IHBAS, Dilshad Garden, Delhi - CPCB",28-12-2025 08:00:00,28.6811736,77.3025234,OZONE,16,21,16
India,Delhi,Delhi,"IIT Delhi, Delhi - IITM",28-12-2025 08:00:00,28.542460,77.191651,OZONE,6,48,10
India,Delhi,Delhi,"ITO, Delhi - CPCB",28-12-2025 08:00:00,28.628624,77.241060,PM2.5,316,462,401
India,Delhi,Delhi,"Nehru Nagar, Delhi - DPCC",28-12-2025 08:00:00,28.567890,77.250515,NH3,6,8,7
India,Delhi,Delhi,"Nehru Nagar, Delhi - DPCC",28-12-2025 08:00:00,28.567890,77.250515,OZONE,2,219,2
India,Delhi,Delhi,"North Campus, DU, Delhi - IMD",28-12-2025 08:00:00,28.6573814,77.1585447,OZONE,8,183,12
India,Delhi,Delhi,"Patparganj, Delhi - DPCC",28-12-2025 08:00:00,28.623763,77.287209,NH3,17,22,19
India,Delhi,Delhi,"Patparganj, Delhi - DPCC",28-12-2025 08:00:00,28.623763,77.287209,SO2,10,14,12
India,Chhattisgarh,Tumidih,"OP Jindal Industrial Park, Tumidih - CECB",28-12-2025 08:00:00,22.06631475,83.33820077,SO2,5,14,8
India,Delhi,Delhi,"Alipur, Delhi - DPCC",28-12-2025 08:00:00,28.815329,77.153010,CO,49,118,107
India,Delhi,Delhi,"Anand Vihar, Delhi - DPCC",28-12-2025 08:00:00,28.647622,77.3158090,SO2,33,42,37
India,Delhi,Delhi,"Chandni Chowk, Delhi - IITM",28-12-2025 08:00:00,28.656756,77.227234,CO,116,194,159
India,Delhi,Delhi,"DTU, Delhi - CPCB",28-12-2025 08:00:00,28.7500499,77.1112615,SO2,32,38,34
India,Delhi,Delhi,"Dr. Karni Singh Shooting Range, Delhi - DPCC",28-12-2025 08:00:00,28.498571,77.264840,NH3,10,13,12
India,Delhi,Delhi,"Aya Nagar, Delhi - IMD",28-12-2025 08:00:00,28.4706914,77.1099364,CO,34,117,90
India,Delhi,Delhi,"Aya Nagar, Delhi - IMD",28-12-2025 08:00:00,28.4706914,77.1099364,OZONE,8,89,8
India,Delhi,Delhi,"Bawana, Delhi - DPCC",28-12-2025 08:00:00,28.776200,77.051074,NO2,12,75,35
India,Delhi,Delhi,"Bawana, Delhi - DPCC",28-12-2025 08:00:00,28.776200,77.051074,SO2,9,18,12
India,Delhi,Delhi,"ITO, Delhi - CPCB",28-12-2025 08:00:00,28.628624,77.241060,CO,20,132,91
India,Delhi,Delhi,"Jawaharlal Nehru Stadium, Delhi - DPCC",28-12-2025 08:00:00,28.580280,77.233829,SO2,1,39,14
India,Delhi,Delhi,"Jawaharlal Nehru Stadium, Delhi - DPCC",28-12-2025 08:00:00,28.580280,77.233829,CO,41,153,132
India,Gujarat,Gandhinagar,"GIFT City, Gandhinagar - IITM",28-12-2025 08:00:00,23.163798,72.677768,OZONE,1,79,7
India,Gujarat,Gandhinagar,"IIPHG Lekawada, Gandhinagar - IITM",28-12-2025 08:00:00,23.243639,72.68994,PM2.5,62,179,98
India,Gujarat,Gandhinagar,"IIPHG Lekawada, Gandhinagar - IITM",28-12-2025 08:00:00,23.243639,72.68994,PM10,75,136,99
India,Gujarat,Gandhinagar,"IIPHG Lekawada, Gandhinagar - IITM",28-12-2025 08:00:00,23.243639,72.68994,SO2,4,10,7
India,Gujarat,Gandhinagar,"IIPHG Lekawada, Gandhinagar - IITM",28-12-2025 08:00:00,23.243639,72.68994,CO,20,85,53
India,Gujarat,Gandhinagar,"Sector-10, Gandhinagar - GPCB",28-12-2025 08:00:00,23.221714,72.654328,PM10,53,119,81
India,Gujarat,Gandhinagar,"Sector-10, Gandhinagar - GPCB",28-12-2025 08:00:00,23.221714,72.654328,NH3,2,4,3
India,Gujarat,Gandhinagar,"Sector-10, Gandhinagar - GPCB",28-12-2025 08:00:00,23.221714,72.654328,OZONE,4,85,13
India,Gujarat,Surat,"Science Center, Surat - SMC",28-12-2025 08:00:00,21.170046,72.795405,PM2.5,54,140,92
India,Gujarat,Surat,"Science Center, Surat - SMC",28-12-2025 08:00:00,21.170046,72.795405,CO,36,43,40
India,Gujarat,Vapi,"Phase-1 GIDC, Vapi - GPCB",28-12-2025 08:00:00,20.362421,72.918013,PM2.5,40,213,104
India,Gujarat,Vapi,"Phase-1 GIDC, Vapi - GPCB",28-12-2025 08:00:00,20.362421,72.918013,PM10,30,500,98
India,Gujarat,Ahmedabad,"SAC ISRO Satellite, Ahmedabad - IITM",28-12-2025 08:00:00,23.023389,72.515201,NO2,16,55,28
India,Gujarat,Ahmedabad,"SAC ISRO Satellite, Ahmedabad - IITM",28-12-2025 08:00:00,23.023389,72.515201,OZONE,4,63,13
India,Gujarat,Ahmedabad,"SVPI Airport Hansol, Ahmedabad - IITM",28-12-2025 08:00:00,23.076793,72.627874,PM10,90,152,113
India,Gujarat,Ahmedabad,"SVPI Airport Hansol, Ahmedabad - IITM",28-12-2025 08:00:00,23.076793,72.627874,OZONE,4,53,20
India,Gujarat,Ankleshwar,"GIDC, Ankleshwar - GPCB",28-12-2025 08:00:00,21.613267,73.010555,PM2.5,77,168,129
India,Gujarat,Ankleshwar,"GIDC, Ankleshwar - GPCB",28-12-2025 08:00:00,21.613267,73.010555,CO,38,81,59
India,Gujarat,Gandhinagar,"GIFT City, Gandhinagar - IITM",28-12-2025 08:00:00,23.163798,72.677768,PM2.5,42,104,67
India,Gujarat,Gandhinagar,"GIFT City, Gandhinagar - IITM",28-12-2025 08:00:00,23.163798,72.677768,CO,62,92,71
India,Gujarat,Vatva,"Phase-4 GIDC, Vatva - GPCB",28-12-2025 08:00:00,22.969611,72.643500,CO,10,27,12
India,Haryana,Ambala,"Patti Mehar, Ambala - HSPCB",28-12-2025 08:00:00,30.379589,76.778328,SO2,31,32,31
India,Haryana,Ambala,"Patti Mehar, Ambala - HSPCB",28-12-2025 08:00:00,30.379589,76.778328,CO,74,76,75
India,Haryana,Bahadurgarh,"Arya Nagar, Bahadurgarh - HSPCB",28-12-2025 08:00:00,28.6701,76.9254,PM10,NA,NA,NA
India,Haryana,Ballabgarh,"Nathu Colony, Ballabgarh - HSPCB",28-12-2025 08:00:00,28.3419248,77.319699,NO2,19,21,20
India,Haryana,Ballabgarh,"Nathu Colony, Ballabgarh - HSPCB",28-12-2025 08:00:00,28.3419248,77.319699,SO2,2,8,5
India,Delhi,Delhi,"Patparganj, Delhi - DPCC",28-12-2025 08:00:00,28.623763,77.287209,OZONE,2,183,3
India,Delhi,Delhi,"Punjabi Bagh, Delhi - DPCC",28-12-2025 08:00:00,28.674045,77.131023,NH3,6,8,7
India,Delhi,Delhi,"Pusa, Delhi - DPCC",28-12-2025 08:00:00,28.639652,77.146275,SO2,4,10,7
India,Delhi,Delhi,"Pusa, Delhi - DPCC",28-12-2025 08:00:00,28.639652,77.146275,OZONE,1,9,5
India,Delhi,Delhi,"Pusa, Delhi - IMD",28-12-2025 08:00:00,28.636110,77.173332,PM2.5,225,443,366
India,Delhi,Delhi,"Pusa, Delhi - IMD",28-12-2025 08:00:00,28.636110,77.173332,NO2,11,117,49
India,Delhi,Delhi,"Pusa, Delhi - IMD",28-12-2025 08:00:00,28.636110,77.173332,CO,59,152,130
India,Gujarat,Ahmedabad,"Maninagar, Ahmedabad - GPCB",28-12-2025 08:00:00,23.002657,72.591912,OZONE,32,84,47
India,Gujarat,Ahmedabad,"Raikhad, Ahmedabad - IITM",28-12-2025 08:00:00,23.020509,72.579261,NO2,17,98,44
India,Gujarat,Ahmedabad,"Rakhial, Ahmedabad - IITM",28-12-2025 08:00:00,23.016834,72.625775,PM2.5,52,150,82
India,Gujarat,Ahmedabad,"Rakhial, Ahmedabad - IITM",28-12-2025 08:00:00,23.016834,72.625775,NH3,3,7,4
India,Gujarat,Ahmedabad,"SAC ISRO Satellite, Ahmedabad - IITM",28-12-2025 08:00:00,23.023389,72.515201,PM10,47,113,81
India,Delhi,Delhi,"R K Puram, Delhi - DPCC",28-12-2025 08:00:00,28.563262,77.186937,PM10,145,500,343
India,Delhi,Delhi,"R K Puram, Delhi - DPCC",28-12-2025 08:00:00,28.563262,77.186937,NO2,29,115,64
India,Delhi,Delhi,"Shadipur, Delhi - CPCB",28-12-2025 08:00:00,28.6514781,77.1473105,OZONE,28,55,38
India,Delhi,Delhi,"Sirifort, Delhi - CPCB",28-12-2025 08:00:00,28.5504249,77.2159377,PM2.5,257,451,393
India,Delhi,Delhi,"Sonia Vihar, Delhi - DPCC",28-12-2025 08:00:00,28.710508,77.249485,PM10,167,463,301
India,Delhi,Delhi,"Sonia Vihar, Delhi - DPCC",28-12-2025 08:00:00,28.710508,77.249485,OZONE,2,165,4
India,Delhi,Delhi,"Sri Aurobindo Marg, Delhi - DPCC",28-12-2025 08:00:00,28.531346,77.190156,PM2.5,237,433,354
India,Delhi,Delhi,"Sri Aurobindo Marg, Delhi - DPCC",28-12-2025 08:00:00,28.531346,77.190156,PM10,143,336,237
India,Delhi,Delhi,"Sri Aurobindo Marg, Delhi - DPCC",28-12-2025 08:00:00,28.531346,77.190156,CO,52,120,108
India,Haryana,Ballabgarh,"Nathu Colony, Ballabgarh - HSPCB",28-12-2025 08:00:00,28.3419248,77.319699,CO,16,110,51
India,Haryana,Ballabgarh,"Nathu Colony, Ballabgarh - HSPCB",28-12-2025 08:00:00,28.3419248,77.319699,OZONE,14,15,15
India,Haryana,Charkhi Dadri,"Mini Secretariat, Charkhi Dadri - HSPCB",28-12-2025 08:00:00,28.593883,76.270653,NH3,5,8,6
India,Delhi,Delhi,"Wazirpur, Delhi - DPCC",28-12-2025 08:00:00,28.699793,77.165453,NH3,10,17,12
India,Gujarat,Ahmedabad,"Gyaspur, Ahmedabad - IITM",28-12-2025 08:00:00,22.977134,72.553024,PM2.5,84,201,131
India,Haryana,Gurugram,"NISE Gwal Pahari, Gurugram - IMD",28-12-2025 08:00:00,28.422681,77.148944,PM10,161,416,302
India,Haryana,Gurugram,"Sector-51, Gurugram - HSPCB",28-12-2025 08:00:00,28.4227,77.0667,PM2.5,205,500,355
India,Haryana,Gurugram,"Sector-51, Gurugram - HSPCB",28-12-2025 08:00:00,28.4227,77.0667,OZONE,10,45,11
India,Haryana,Gurugram,"Teri Gram, Gurugram - HSPCB",28-12-2025 08:00:00,28.4275,77.1465,PM10,149,360,252
India,Haryana,Gurugram,"Teri Gram, Gurugram - HSPCB",28-12-2025 08:00:00,28.4275,77.1465,OZONE,10,43,12
India,Haryana,Gurugram,"Vikas Sadan, Gurugram - HSPCB",28-12-2025 08:00:00,28.4501238,77.0263051,PM10,112,240,185
India,Haryana,Gurugram,"Vikas Sadan, Gurugram - HSPCB",28-12-2025 08:00:00,28.4501238,77.0263051,NO2,9,38,25
India,Haryana,Jind,"Police Lines, Jind - HSPCB",28-12-2025 08:00:00,29.307814,76.337619,PM2.5,248,332,296
India,Jammu_and_Kashmir,Srinagar,"Rajbagh, Srinagar - JKPCC",28-12-2025 08:00:00,34.066206,74.819820,CO,11,18,11
India,Jharkhand,Dhanbad,"Sardar Patel Nagar, Dhanbad - JSPCB",28-12-2025 08:00:00,23.80569,86.44268,PM2.5,59,329,156
India,Jharkhand,Dhanbad,"Sardar Patel Nagar, Dhanbad - JSPCB",28-12-2025 08:00:00,23.80569,86.44268,NO2,51,52,52
India,Karnataka,Bagalkot,"Vidayagiri, Bagalkot - KSPCB",28-12-2025 08:00:00,16.172806,75.659694,NO2,NA,NA,NA
India,Karnataka,Belgaum,"Ramteerth Nagar, Belgaum - KSPCB",28-12-2025 08:00:00,15.888653,74.541751,NO2,39,115,64
India,Haryana,Faridabad,"New Industrial Town, Faridabad - HSPCB",28-12-2025 08:00:00,28.39072,77.30059,PM2.5,203,222,212
India,Haryana,Faridabad,"Sector 11, Faridabad - HSPCB",28-12-2025 08:00:00,28.376058,77.315741,PM2.5,127,412,304
India,Haryana,Faridabad,"Sector 11, Faridabad - HSPCB",28-12-2025 08:00:00,28.376058,77.315741,PM10,109,407,227
India,Haryana,Faridabad,"Sector 30, Faridabad - HSPCB",28-12-2025 08:00:00,28.4417,77.3217,NO2,36,39,38
India,Haryana,Faridabad,"Sector 30, Faridabad - HSPCB",28-12-2025 08:00:00,28.4417,77.3217,SO2,6,6,6
India,Haryana,Fatehabad,"Huda Sector, Fatehabad - HSPCB",28-12-2025 08:00:00,29.503664,75.467934,NH3,13,14,14
India,Himachal Pradesh,Baddi,"HIMUDA Complex Phase-1, Baddi - HPPCB",28-12-2025 08:00:00,30.943887,76.801991,PM2.5,180,402,294
India,Himachal Pradesh,Baddi,"HIMUDA Complex Phase-1, Baddi - HPPCB",28-12-2025 08:00:00,30.943887,76.801991,SO2,35,130,72
India,Himachal Pradesh,Baddi,"HIMUDA Complex Phase-1, Baddi - HPPCB",28-12-2025 08:00:00,30.943887,76.801991,OZONE,7,90,13
India,Jammu_and_Kashmir,Srinagar,"Khunmoh, Srinagar - JKPCC",28-12-2025 08:00:00,34.06313,74.96017,NO2,3,10,4
India,Jammu_and_Kashmir,Srinagar,"Rajbagh, Srinagar - JKPCC",28-12-2025 08:00:00,34.066206,74.819820,PM10,29,87,56
India,Haryana,Palwal,"Shyam Nagar, Palwal - HSPCB",28-12-2025 08:00:00,28.1485564,77.3320667,CO,17,56,43
India,Haryana,Panchgaon,"Amity University, Panchgaon - IITM",28-12-2025 08:00:00,28.3153,76.9143,PM10,56,117,84
India,Haryana,Panchkula,"Sector-6, Panchkula - HSPCB ",28-12-2025 08:00:00,30.7057778,76.8531805555555,CO,NA,NA,NA
India,Haryana,Panchkula,"Sector-6, Panchkula - HSPCB ",28-12-2025 08:00:00,30.7057778,76.8531805555555,OZONE,NA,NA,NA
India,Haryana,Rohtak,"MD University, Rohtak - HSPCB",28-12-2025 08:00:00,28.52123,76.37138,SO2,10,13,11
India,Karnataka,Bengaluru,"BTM Layout, Bengaluru - CPCB",28-12-2025 08:00:00,12.9135218,77.5950804,CO,NA,NA,NA
India,Karnataka,Bengaluru,"BWSSB Kadabesanahalli, Bengaluru - CPCB",28-12-2025 08:00:00,12.9352049,77.6814488,NO2,NA,NA,NA
India,Karnataka,Bengaluru,"BWSSB Kadabesanahalli, Bengaluru - CPCB",28-12-2025 08:00:00,12.9352049,77.6814488,NH3,NA,NA,NA
India,Karnataka,Bengaluru,"City Railway Station, Bengaluru - KSPCB",28-12-2025 08:00:00,12.9756843,77.5660749,PM10,76,80,78
India,Karnataka,Bengaluru,"Hebbal, Bengaluru - KSPCB",28-12-2025 08:00:00,13.029152,77.585901,NH3,1,2,1
India,Haryana,Mandikhera,"General Hospital, Mandikhera(Nuh) - HSPCB",28-12-2025 08:00:00,27.9002,76.9938,PM10,96,153,126
India,Haryana,Manesar,"Sector-2 IMT, Manesar - HSPCB",28-12-2025 08:00:00,28.360699,76.936090,NH3,6,16,14
India,Haryana,Manesar,"Sector-2 IMT, Manesar - HSPCB",28-12-2025 08:00:00,28.360699,76.936090,SO2,7,13,10
India,Haryana,Narnaul,"Shastri Nagar, Narnaul - HSPCB",28-12-2025 08:00:00,28.060249,76.113115,PM2.5,216,395,313
India,Haryana,Jind,"Police Lines, Jind - HSPCB",28-12-2025 08:00:00,29.307814,76.337619,NH3,1,3,2
India,Haryana,Jind,"Police Lines, Jind - HSPCB",28-12-2025 08:00:00,29.307814,76.337619,OZONE,4,44,5
India,Haryana,Kaithal,"Rishi Nagar, Kaithal - HSPCB",28-12-2025 08:00:00,29.8006,76.4155,CO,31,135,51
India,Karnataka,Bengaluru,"Jigani, Bengaluru - KSPCB",28-12-2025 08:00:00,12.7816279,77.6299145,NO2,27,28,28
India,Karnataka,Bengaluru,"Jigani, Bengaluru - KSPCB",28-12-2025 08:00:00,12.7816279,77.6299145,NH3,5,5,5
India,Madhya Pradesh,Dewas,"Bhopal Chauraha, Dewas - MPPCB",28-12-2025 08:00:00,22.9682591,76.064118,PM2.5,45,111,67
India,Madhya Pradesh,Gwalior,"City Center, Gwalior - MPPCB",28-12-2025 08:00:00,26.203442,78.193251,CO,38,138,81
India,Madhya Pradesh,Gwalior,"Deen Dayal Nagar, Gwalior - MPPCB",28-12-2025 08:00:00,26.259242,78.216432,PM2.5,82,380,226
India,Madhya Pradesh,Gwalior,"Deen Dayal Nagar, Gwalior - MPPCB",28-12-2025 08:00:00,26.259242,78.216432,PM10,85,389,182
India,Madhya Pradesh,Gwalior,"Deen Dayal Nagar, Gwalior - MPPCB",28-12-2025 08:00:00,26.259242,78.216432,NH3,7,12,9
India,Madhya Pradesh,Gwalior,"Maharaj Bada, Gwalior - MPPCB",28-12-2025 08:00:00,26.200388,78.147714,PM2.5,60,373,216
India,Madhya Pradesh,Gwalior,"Maharaj Bada, Gwalior - MPPCB",28-12-2025 08:00:00,26.200388,78.147714,NH3,6,6,6
India,Karnataka,Hubballi,"Lingaraj Nagar, Hubballi - KSPCB",28-12-2025 08:00:00,15.3714823,75.1160168,OZONE,16,16,16
India,Karnataka,Koppal,"Diwator Nagar, Koppal - KSPCB",28-12-2025 08:00:00,15.347630,76.181767,NO2,NA,NA,NA
India,Karnataka,Madikeri,"Stuart Hill, Madikeri - KSPCB",28-12-2025 08:00:00,12.415911,75.735050,PM2.5,36,85,50
India,Karnataka,Madikeri,"Stuart Hill, Madikeri - KSPCB",28-12-2025 08:00:00,12.415911,75.735050,PM10,32,76,45
India,Karnataka,Mangalore,"Kadri, Mangalore - KSPCB",28-12-2025 08:00:00,12.889250,74.853000,NO2,8,10,9
India,Karnataka,Mangalore,"Kadri, Mangalore - KSPCB",28-12-2025 08:00:00,12.889250,74.853000,SO2,10,10,10
India,Kerala,Eloor,"Udyogamandal, Eloor - Kerala PCB",28-12-2025 08:00:00,10.073232,76.302765,PM10,50,85,67
India,Kerala,Eloor,"Udyogamandal, Eloor - Kerala PCB",28-12-2025 08:00:00,10.073232,76.302765,OZONE,10,19,13
India,Kerala,Thiruvananthapuram,"Kariavattom, Thiruvananthapuram - Kerala PCB",28-12-2025 08:00:00,8.563700,76.886500,NO2,7,8,8
India,Kerala,Thiruvananthapuram,"Plammoodu, Thiruvananthapuram - Kerala PCB",28-12-2025 08:00:00,8.5149093,76.9435879,PM10,46,111,66
India,Kerala,Thiruvananthapuram,"Plammoodu, Thiruvananthapuram - Kerala PCB",28-12-2025 08:00:00,8.5149093,76.9435879,NH3,1,2,1
India,Kerala,Thiruvananthapuram,"Plammoodu, Thiruvananthapuram - Kerala PCB",28-12-2025 08:00:00,8.5149093,76.9435879,SO2,8,24,18
India,Karnataka,Mysuru,"Hebbal 1st Stage, Mysuru - KSPCB",28-12-2025 08:00:00,12.21041,76.37376,NO2,16,23,19
India,Karnataka,Mysuru,"Hebbal 1st Stage, Mysuru - KSPCB",28-12-2025 08:00:00,12.21041,76.37376,SO2,2,9,5
India,Karnataka,Shivamogga,"Vinoba Nagara, Shivamogga - KSPCB",28-12-2025 08:00:00,13.940000,75.555917,PM10,41,61,53
India,Karnataka,Shivamogga,"Vinoba Nagara, Shivamogga - KSPCB",28-12-2025 08:00:00,13.940000,75.555917,SO2,2,7,4
India,Karnataka,Tumakuru,"Thimmalapura, Tumakuru - KSPCB",28-12-2025 08:00:00,13.377516,77.099072,OZONE,23,23,23
India,Karnataka,Bengaluru,"Silk Board, Bengaluru - KSPCB",28-12-2025 08:00:00,12.917348,77.622813,PM10,90,145,108
India,Karnataka,Bengaluru,"Silk Board, Bengaluru - KSPCB",28-12-2025 08:00:00,12.917348,77.622813,NO2,NA,NA,NA
India,Karnataka,Davanagere,"Devaraj Urs Badavane, Davanagere - KSPCB",28-12-2025 08:00:00,14.475800,75.905200,PM2.5,NA,NA,NA
India,Karnataka,Davanagere,"Devaraj Urs Badavane, Davanagere - KSPCB",28-12-2025 08:00:00,14.475800,75.905200,NH3,2,4,2
India,Karnataka,Davanagere,"Devaraj Urs Badavane, Davanagere - KSPCB",28-12-2025 08:00:00,14.475800,75.905200,CO,42,44,43
India,Karnataka,Davanagere,"Devaraj Urs Badavane, Davanagere - KSPCB",28-12-2025 08:00:00,14.475800,75.905200,OZONE,19,20,20
India,Karnataka,Bengaluru,"Peenya, Bengaluru - CPCB",28-12-2025 08:00:00,13.0270199,77.494094,NO2,21,28,25
India,Karnataka,Bengaluru,"Sanegurava Halli, Bengaluru - KSPCB",28-12-2025 08:00:00,12.990328,77.5431385,NO2,17,19,18
India,Karnataka,Bengaluru,"Sanegurava Halli, Bengaluru - KSPCB",28-12-2025 08:00:00,12.990328,77.5431385,CO,4,170,12
India,Karnataka,Bengaluru,"Shivapura_Peenya, Bengaluru - KSPCB",28-12-2025 08:00:00,13.0246342,77.5080115,PM2.5,59,500,151
India,Karnataka,Bengaluru,"Shivapura_Peenya, Bengaluru - KSPCB",28-12-2025 08:00:00,13.0246342,77.5080115,NO2,30,33,32
India,Madhya Pradesh,Bhopal,"Paryavaran Parisar, Bhopal - MPPCB",28-12-2025 08:00:00,23.210494,77.425409,SO2,3,11,6
India,Madhya Pradesh,Bhopal,"Paryavaran Parisar, Bhopal - MPPCB",28-12-2025 08:00:00,23.210494,77.425409,OZONE,5,78,25
India,Madhya Pradesh,Bhopal,"T T Nagar, Bhopal - MPPCB",28-12-2025 08:00:00,23.233584,77.400574,PM2.5,37,304,125
India,Madhya Pradesh,Damoh,"Shrivastav Colony, Damoh - MPPCB",28-12-2025 08:00:00,23.81748678,79.446246,PM10,9,64,24
India,Madhya Pradesh,Jabalpur,"Gupteshwar, Jabalpur - JMC",28-12-2025 08:00:00,23.142888,79.916147,NO2,21,90,40
India,Madhya Pradesh,Jabalpur,"Marhatal, Jabalpur - MPPCB",28-12-2025 08:00:00,23.168606,79.932247,NH3,1,2,2
India,Madhya Pradesh,Jabalpur,"Marhatal, Jabalpur - MPPCB",28-12-2025 08:00:00,23.168606,79.932247,SO2,11,19,16
India,Madhya Pradesh,Jabalpur,"Suhagi, Jabalpur - JMC",28-12-2025 08:00:00,23.218135,79.957770,PM10,25,101,56
India,Madhya Pradesh,Jabalpur,"Suhagi, Jabalpur - JMC",28-12-2025 08:00:00,23.218135,79.957770,NO2,19,128,40
India,Madhya Pradesh,Indore,"Regional Park, Indore - IMC",28-12-2025 08:00:00,22.6780,75.8559,SO2,NA,NA,NA
India,Madhya Pradesh,Indore,"Regional Park, Indore - IMC",28-12-2025 08:00:00,22.6780,75.8559,OZONE,NA,NA,NA
India,Madhya Pradesh,Jabalpur,"Govindh Bhavan Colony, Jabalpur - JMC",28-12-2025 08:00:00,23.163174,79.973061,NO2,16,23,20
India,Maharashtra,Kolhapur,"Shivaji University, Kolhapur - MPCB",28-12-2025 08:00:00,16.6870449,74.2505872,PM10,48,121,82
India,Maharashtra,Kolhapur,"Sinchan Bhavan, Kolhapur - MPCB",28-12-2025 08:00:00,16.7143745,74.2426398,PM2.5,84,198,143
India,Maharashtra,Kolhapur,"Sinchan Bhavan, Kolhapur - MPCB",28-12-2025 08:00:00,16.7143745,74.2426398,OZONE,1,47,4
India,Maharashtra,Latur,"Sawe Wadi, Latur - MPCB",28-12-2025 08:00:00,18.39963,76.57452,PM10,55,117,92
India,Maharashtra,Latur,"Sawe Wadi, Latur - MPCB",28-12-2025 08:00:00,18.39963,76.57452,NO2,18,79,40
India,Maharashtra,Mahad,"Kamble Tarf Birwadi, Mahad - MPCB",28-12-2025 08:00:00,18.1023399,73.4783687,PM2.5,78,197,103
India,Maharashtra,Mahad,"Kamble Tarf Birwadi, Mahad - MPCB",28-12-2025 08:00:00,18.1023399,73.4783687,PM10,66,123,97
India,Maharashtra,Mahad,"Kamble Tarf Birwadi, Mahad - MPCB",28-12-2025 08:00:00,18.1023399,73.4783687,SO2,17,43,22
India,Maharashtra,Akola,"Ramdaspeth, Akola - MPCB",28-12-2025 08:00:00,20.719516,77.000253,OZONE,6,80,9
India,Maharashtra,Amravati,"Shivneri Colony, Amravati - MPCB",28-12-2025 08:00:00,20.9402359,77.7895248,PM2.5,72,174,98
India,Maharashtra,Amravati,"Shivneri Colony, Amravati - MPCB",28-12-2025 08:00:00,20.9402359,77.7895248,NH3,2,2,2
India,Maharashtra,Amravati,"Shri Shivaji Science College, Amravati - MPCB",28-12-2025 08:00:00,20.939198,77.765701,PM10,66,193,110
India,Maharashtra,Amravati,"Shri Shivaji Science College, Amravati - MPCB",28-12-2025 08:00:00,20.939198,77.765701,OZONE,1,112,18
India,Maharashtra,Aurangabad,"MIDC Chilkalthana, Aurangabad - MPCB",28-12-2025 08:00:00,19.875620,75.387310,NH3,1,2,2
India,Madhya Pradesh,Mandideep,"Sector-D Industrial Area, Mandideep - MPPCB",28-12-2025 08:00:00,23.108440,77.511428,SO2,14,118,58
India,Madhya Pradesh,Pithampur,"Sector-2 Industrial Area, Pithampur - MPPCB",28-12-2025 08:00:00,22.624758,75.675238,OZONE,22,46,28
India,Madhya Pradesh,Ratlam,"Shasthri Nagar, Ratlam - IPCA Lab",28-12-2025 08:00:00,23.331731,75.045981,SO2,31,33,32
India,Madhya Pradesh,Sagar,"Civil Lines, Sagar - MPPCB",28-12-2025 08:00:00,23.838586,78.759431,PM2.5,32,283,114
India,Madhya Pradesh,Sagar,"Civil Lines, Sagar - MPPCB",28-12-2025 08:00:00,23.838586,78.759431,PM10,48,144,93
India,Madhya Pradesh,Satna,"Bandhavgar Colony, Satna - Birla Cement",28-12-2025 08:00:00,24.58434363,80.8549414,PM10,73,76,74
India,Madhya Pradesh,Satna,"Bandhavgar Colony, Satna - Birla Cement",28-12-2025 08:00:00,24.58434363,80.8549414,NO2,12,13,12
India,Madhya Pradesh,Satna,"Bandhavgar Colony, Satna - Birla Cement",28-12-2025 08:00:00,24.58434363,80.8549414,CO,24,56,38
India,Madhya Pradesh,Singrauli,"Suryakiran Bhawan NCL, Singrauli - MPPCB",28-12-2025 08:00:00,24.108970,82.645580,NH3,NA,NA,NA
India,Maharashtra,Ahmednagar,"Tarakpur, Ahmednagar - MPCB",28-12-2025 08:00:00,19.10122,74.73339,CO,30,122,56
India,Maharashtra,Aurangabad,"More Chowk Waluj, Aurangabad - MPCB",28-12-2025 08:00:00,19.8389439,75.244448,NH3,10,11,11
India,Maharashtra,Aurangabad,"More Chowk Waluj, Aurangabad - MPCB",28-12-2025 08:00:00,19.8389439,75.244448,SO2,1,35,16
India,Maharashtra,Badlapur,"Katrap, Badlapur - MPCB",28-12-2025 08:00:00,19.16485,73.23409,OZONE,16,87,17
India,Maharashtra,Bhiwandi,"Gokul Nagar, Bhiwandi - MPCB",28-12-2025 08:00:00,19.309073,73.057223,SO2,6,15,8
India,Maharashtra,Bhiwandi,"Gokul Nagar, Bhiwandi - MPCB",28-12-2025 08:00:00,19.309073,73.057223,CO,22,69,51
India,Maharashtra,Boisar,"Khaira, Boisar - MPCB",28-12-2025 08:00:00,19.786089,72.757971,NH3,5,10,8
India,Maharashtra,Chandrapur,"Chauhan Colony, Chandrapur - MPCB",28-12-2025 08:00:00,19.962900,79.298714,PM2.5,25,128,61
India,Maharashtra,Chandrapur,"MIDC Khutala, Chandrapur - MPCB",28-12-2025 08:00:00,19.9775302,79.2337086,PM10,37,124,82
India,Maharashtra,Chandrapur,"MIDC Khutala, Chandrapur - MPCB",28-12-2025 08:00:00,19.9775302,79.2337086,NO2,16,48,27
India,Maharashtra,Jalgaon,"Prabhat Colony, Jalgaon - MPCB",28-12-2025 08:00:00,21.001264,75.565602,PM10,65,150,109
India,Maharashtra,Jalgaon,"Prabhat Colony, Jalgaon - MPCB",28-12-2025 08:00:00,21.001264,75.565602,SO2,5,30,13
India,Maharashtra,Jalna,"Old MIDC, Jalna - MPCB",28-12-2025 08:00:00,19.854616,75.905894,CO,22,60,35
India,Maharashtra,Kalyan,"Khadakpada, Kalyan - MPCB",28-12-2025 08:00:00,19.25292,73.142019,PM10,71,158,123
India,Maharashtra,Malegaon,"Mahesh Nagar, Malegaon - MPCB",28-12-2025 08:00:00,20.555712,74.529236,NO2,12,84,37
India,Maharashtra,Mira-Bhayandar,"Bhayandar West, Mira-Bhayandar - MPCB",28-12-2025 08:00:00,19.296481,72.840923,NH3,1,9,3
India,Maharashtra,Mumbai,"Bandra Kurla Complex, Mumbai - IITM",28-12-2025 08:00:00,19.053536,72.84643,SO2,6,27,17
India,Maharashtra,Mumbai,"Borivali East, Mumbai - IITM",28-12-2025 08:00:00,19.23241,72.86895,NO2,22,137,63
India,Maharashtra,Mumbai,"Borivali East, Mumbai - IITM",28-12-2025 08:00:00,19.23241,72.86895,CO,30,74,50
India,Maharashtra,Mumbai,"Borivali East, Mumbai - IITM",28-12-2025 08:00:00,19.23241,72.86895,OZONE,11,62,39
India,Maharashtra,Mumbai,"Borivali East, Mumbai - MPCB",28-12-2025 08:00:00,19.2243333,72.8658113,SO2,15,19,17
India,Maharashtra,Mumbai,"Mulund West, Mumbai - MPCB",28-12-2025 08:00:00,19.1750,72.9419,PM10,NA,NA,NA
India,Maharashtra,Mumbai,"Navy Nagar-Colaba, Mumbai - IITM",28-12-2025 08:00:00,18.897756,72.813320,PM2.5,84,194,135
India,Maharashtra,Mumbai,"Powai, Mumbai - MPCB",28-12-2025 08:00:00,19.137500,72.915056,PM2.5,80,225,132
India,Maharashtra,Mumbai,"Powai, Mumbai - MPCB",28-12-2025 08:00:00,19.137500,72.915056,NO2,7,8,8
India,Maharashtra,Mumbai,"Sewri, Mumbai - BMC",28-12-2025 08:00:00,19.000084,72.856730,PM2.5,NA,NA,NA
India,Maharashtra,Mumbai,"Sewri, Mumbai - BMC",28-12-2025 08:00:00,19.000084,72.856730,NO2,2,20,7
India,Maharashtra,Mumbai,"Shivaji Nagar, Mumbai - BMC",28-12-2025 08:00:00,19.060498,72.923356,PM2.5,28,42,36
India,Maharashtra,Mumbai,"Khindipada-Bhandup West, Mumbai - IITM",28-12-2025 08:00:00,19.1653323,72.922099,NH3,3,5,4
India,Maharashtra,Mumbai,"Khindipada-Bhandup West, Mumbai - IITM",28-12-2025 08:00:00,19.1653323,72.922099,CO,9,36,25
India,Maharashtra,Mumbai,"Kurla, Mumbai - MPCB",28-12-2025 08:00:00,19.0863,72.8888,PM2.5,NA,NA,NA
India,Maharashtra,Mumbai,"Kurla, Mumbai - MPCB",28-12-2025 08:00:00,19.0863,72.8888,SO2,NA,NA,NA
India,Maharashtra,Mumbai,"Malad West, Mumbai - IITM",28-12-2025 08:00:00,19.19709,72.82204,PM2.5,42,154,90
India,Maharashtra,Mumbai,"Malad West, Mumbai - IITM",28-12-2025 08:00:00,19.19709,72.82204,PM10,111,182,136
India,Maharashtra,Nagpur,"Mahal, Nagpur - MPCB",28-12-2025 08:00:00,21.14472,79.107595,NH3,5,6,5
India,Maharashtra,Nagpur,"Ram Nagar, Nagpur - MPCB",28-12-2025 08:00:00,21.143383,79.048912,PM10,113,220,135
India,Maharashtra,Nagpur,"Ram Nagar, Nagpur - MPCB",28-12-2025 08:00:00,21.143383,79.048912,SO2,2,122,24
India,Maharashtra,Nagpur,"Ram Nagar, Nagpur - MPCB",28-12-2025 08:00:00,21.143383,79.048912,OZONE,4,76,8
India,Maharashtra,Nanded,"Sneh Nagar, Nanded - MPCB",28-12-2025 08:00:00,19.173852,77.296291,NO2,10,47,27
India,Maharashtra,Nashik,"Gangapur Road, Nashik - MPCB",28-12-2025 08:00:00,20.0073285,73.7762427,NH3,NA,NA,NA
India,Maharashtra,Nashik,"Hirawadi, Nashik - MPCB",28-12-2025 08:00:00,20.021503,73.813844,NO2,8,45,21
India,Maharashtra,Nashik,"Hirawadi, Nashik - MPCB",28-12-2025 08:00:00,20.021503,73.813844,OZONE,3,86,19
India,Maharashtra,Nashik,"MIDC Ambad, Nashik - MPCB",28-12-2025 08:00:00,19.950220,73.731480,NO2,16,105,44
India,Maharashtra,Nashik,"MIDC Ambad, Nashik - MPCB",28-12-2025 08:00:00,19.950220,73.731480,NH3,2,3,2
India,Maharashtra,Mumbai,"Siddharth Nagar-Worli, Mumbai - IITM",28-12-2025 08:00:00,19.000083,72.813993,PM10,102,177,140
India,Maharashtra,Mumbai,"Siddharth Nagar-Worli, Mumbai - IITM",28-12-2025 08:00:00,19.000083,72.813993,NO2,45,107,67
India,Maharashtra,Mumbai,"Siddharth Nagar-Worli, Mumbai - IITM",28-12-2025 08:00:00,19.000083,72.813993,OZONE,10,87,16
India,Maharashtra,Mumbai,"Vile Parle West, Mumbai - MPCB",28-12-2025 08:00:00,19.10861,72.83622,NO2,11,11,11
India,Maharashtra,Mumbai,"Vile Parle West, Mumbai - MPCB",28-12-2025 08:00:00,19.10861,72.83622,CO,54,76,64
India,Maharashtra,Navi Mumbai,"Sector-2E Kalamboli, Navi Mumbai - MPCB",28-12-2025 08:00:00,19.02579,73.10297,NO2,NA,NA,NA
India,Maharashtra,Navi Mumbai,"Sector-2E Kalamboli, Navi Mumbai - MPCB",28-12-2025 08:00:00,19.02579,73.10297,NH3,5,22,12
India,Maharashtra,Navi Mumbai,"Tondare-Taloja, Navi Mumbai - MPCB",28-12-2025 08:00:00,19.0630,73.1209,NO2,7,32,21
India,Maharashtra,Parbhani,"Masoom Colony, Parbhani - MPCB",28-12-2025 08:00:00,19.265594,76.761463,PM10,59,435,128
India,Maharashtra,Nashik,"Pandav Nagari, Nashik - MPCB",28-12-2025 08:00:00,19.9591346,73.7788008,SO2,2,26,10
India,Maharashtra,Navi Mumbai,"Kopripada-Vashi, Navi Mumbai - MPCB",28-12-2025 08:00:00,19.090337,73.014232,PM2.5,65,88,75
India,Maharashtra,Navi Mumbai,"Kopripada-Vashi, Navi Mumbai - MPCB",28-12-2025 08:00:00,19.090337,73.014232,OZONE,6,82,8
India,Maharashtra,Navi Mumbai,"Nerul, Navi Mumbai - MPCB",28-12-2025 08:00:00,19.008751,73.016620,SO2,NA,NA,NA
India,Maharashtra,Mumbai,"Colaba, Mumbai - MPCB",28-12-2025 08:00:00,18.910000,72.820000,PM2.5,40,75,51
India,Maharashtra,Mumbai,"Colaba, Mumbai - MPCB",28-12-2025 08:00:00,18.910000,72.820000,SO2,NA,NA,NA
India,Maharashtra,Mumbai,"Colaba, Mumbai - MPCB",28-12-2025 08:00:00,18.910000,72.820000,CO,57,65,63
India,Maharashtra,Mumbai,"Deonar, Mumbai - IITM",28-12-2025 08:00:00,19.04946,72.9230,SO2,4,12,7
India,Maharashtra,Mumbai,"Kandivali West, Mumbai - BMC",28-12-2025 08:00:00,19.215859,72.831718,SO2,3,11,7
India,Maharashtra,Mumbai,"Khindipada-Bhandup West, Mumbai - IITM",28-12-2025 08:00:00,19.1653323,72.922099,PM10,91,163,116
India,Odisha,Balasore,"Kalidaspur, Balasore - OSPCB",28-12-2025 08:00:00,21.51161,86.89088,NO2,17,128,46
India,Odisha,Barbil,"Forest Office, Barbil - OSPCB",28-12-2025 08:00:00,22.1166054,85.3945546,NH3,1,2,1
India,Odisha,Barbil,"Forest Office, Barbil - OSPCB",28-12-2025 08:00:00,22.1166054,85.3945546,SO2,8,66,24
India,Odisha,Barbil,"Forest Office, Barbil - OSPCB",28-12-2025 08:00:00,22.1166054,85.3945546,OZONE,5,98,8
India,Odisha,Baripada,"Meher Colony, Baripada - OSPCB",28-12-2025 08:00:00,21.941841,86.728318,PM2.5,124,249,181
India,Odisha,Bhubaneswar,"Lingraj Mandir, Bhubaneswar - OSPCB",28-12-2025 08:00:00,20.240790,85.836784,PM2.5,190,384,308
India,Odisha,Bhubaneswar,"Lingraj Mandir, Bhubaneswar - OSPCB",28-12-2025 08:00:00,20.240790,85.836784,SO2,6,60,19
India,Odisha,Bhubaneswar,"Lingraj Mandir, Bhubaneswar - OSPCB",28-12-2025 08:00:00,20.240790,85.836784,CO,29,76,39
India,Odisha,Bhubaneswar,"Patia, Bhubaneswar - OSPCB",28-12-2025 08:00:00,20.34652,85.81630,PM10,123,340,164
India,Odisha,Byasanagar,"Ferro Chrome Colony, Byasanagar - OSPCB",28-12-2025 08:00:00,20.94185,86.11510,SO2,7,12,10
India,Odisha,Keonjhar,"Jagamohanpur, Keonjhar - OSPCB",28-12-2025 08:00:00,21.643900,85.599355,NO2,22,61,40
India,Odisha,Keonjhar,"Jagamohanpur, Keonjhar - OSPCB",28-12-2025 08:00:00,21.643900,85.599355,NH3,6,24,13
India,Odisha,Keonjhar,"Jagamohanpur, Keonjhar - OSPCB",28-12-2025 08:00:00,21.643900,85.599355,SO2,1,31,10
India,Odisha,Keonjhar,"Jagamohanpur, Keonjhar - OSPCB",28-12-2025 08:00:00,21.643900,85.599355,CO,1,94,46
India,Odisha,Nayagarh,"Dabuna, Nayagarh - OSPCB",28-12-2025 08:00:00,21.847279,85.416905,PM2.5,NA,NA,NA
India,Odisha,Nayagarh,"Dabuna, Nayagarh - OSPCB",28-12-2025 08:00:00,21.847279,85.416905,NH3,NA,NA,NA
India,Odisha,Nayagarh,"Dabuna, Nayagarh - OSPCB",28-12-2025 08:00:00,21.847279,85.416905,CO,NA,NA,NA
India,Odisha,Nayagarh,"Dabuna, Nayagarh - OSPCB",28-12-2025 08:00:00,21.847279,85.416905,OZONE,NA,NA,NA
India,Odisha,Rairangpur,"Divisional Forest Office, Rairangpur - OSPCB",28-12-2025 08:00:00,22.265816,86.174829,PM2.5,37,162,95
India,Meghalaya,Shillong,"Lumpyngngad, Shillong - Meghalaya PCB",28-12-2025 08:00:00,25.5586,91.8985,CO,3,16,5
India,Mizoram,Aizawl,"Sikulpuikawn, Aizawl - Mizoram PCB",28-12-2025 08:00:00,23.7176342,92.7192841,OZONE,2,4,2
India,Nagaland,Kohima,"PWD Junction, Kohima - NPCB",28-12-2025 08:00:00,25.6635413,94.0989878,NO2,3,4,3
India,Odisha,Angul,"Hakimapada, Angul - OSPCB",28-12-2025 08:00:00,20.832874,85.104082,CO,2,114,51
India,Odisha,Balasore,"Kalidaspur, Balasore - OSPCB",28-12-2025 08:00:00,21.51161,86.89088,PM10,102,285,147
India,Maharashtra,Sangli,"Vijay Nagar, Sangli - MPCB",28-12-2025 08:00:00, 16.5038,74.3623,SO2,2,23,12
India,Maharashtra,Solapur,"Dnyaneshwar Nagar, Solapur - MPCB",28-12-2025 08:00:00,17.6336264,75.9132495,SO2,1,4,2
India,Maharashtra,Solapur,"Ratandeep Housing Society, Solapur - MPCB",28-12-2025 08:00:00,17.65439,75.90649,NH3,2,20,5
India,Maharashtra,Thane,"Kasarvadavali, Thane - MPCB",28-12-2025 08:00:00,19.26777,72.97182,NO2,19,94,51
India,Maharashtra,Thane,"Kasarvadavali, Thane - MPCB",28-12-2025 08:00:00,19.26777,72.97182,SO2,3,19,8
India,Maharashtra,Thane,"Kasarvadavali, Thane - MPCB",28-12-2025 08:00:00,19.26777,72.97182,CO,12,76,40
India,Maharashtra,Pimpri-Chinchwad,"Park Street Wakad, Pimpri Chinchwad - MPCB",28-12-2025 08:00:00,18.59051,73.77946,PM2.5,62,314,187
India,Maharashtra,Pimpri-Chinchwad,"Savta Mali Nagar, Pimpri-Chinchwad - IITM",28-12-2025 08:00:00,18.614767,73.799516,PM10,NA,NA,NA
India,Maharashtra,Pimpri-Chinchwad,"Thergaon, Pimpri Chinchwad - MPCB",28-12-2025 08:00:00,18.616318,73.765797,SO2,1,5,3
India,Maharashtra,Pimpri-Chinchwad,"Thergaon, Pimpri Chinchwad - MPCB",28-12-2025 08:00:00,18.616318,73.765797,CO,17,108,98
India,Maharashtra,Pune,"Bhumkar Nagar, Pune - IITM",28-12-2025 08:00:00,18.605770,73.749976,NO2,11,32,19
India,Odisha,Bileipada,"Tata Township, Bileipada - OSPCB",28-12-2025 08:00:00,22.06156703,85.47409613,NO2,6,7,6
India,Odisha,Bileipada,"Tata Township, Bileipada - OSPCB",28-12-2025 08:00:00,22.06156703,85.47409613,CO,28,44,34
India,Odisha,Brajrajnagar,"GM Office, Brajrajnagar - OSPCB",28-12-2025 08:00:00,21.8004996,83.8396977,NH3,1,3,2
India,Odisha,Brajrajnagar,"GM Office, Brajrajnagar - OSPCB",28-12-2025 08:00:00,21.8004996,83.8396977,CO,2,33,14
India,Odisha,Brajrajnagar,"GM Office, Brajrajnagar - OSPCB",28-12-2025 08:00:00,21.8004996,83.8396977,OZONE,25,27,26
India,Odisha,Byasanagar,"Ferro Chrome Colony, Byasanagar - OSPCB",28-12-2025 08:00:00,20.94185,86.11510,NO2,12,40,21
India,Maharashtra,Pune,"Revenue Colony-Shivajinagar, Pune - IITM",28-12-2025 08:00:00,18.530085,73.849598,PM2.5,97,347,262
India,Maharashtra,Pune,"Revenue Colony-Shivajinagar, Pune - IITM",28-12-2025 08:00:00,18.530085,73.849598,NO2,51,161,111
India,Maharashtra,Pune,"Savitribai Phule Pune University, Pune - MPCB",28-12-2025 08:00:00,18.547056,73.826908,PM2.5,47,158,102
India,Maharashtra,Pune,"Savitribai Phule Pune University, Pune - MPCB",28-12-2025 08:00:00,18.547056,73.826908,SO2,1,5,3
India,Maharashtra,Pune,"Transport Nagar-Nigdi, Pune - IITM",28-12-2025 08:00:00,18.664282,73.763966,PM2.5,63,283,168
India,Maharashtra,Thane,"Upvan Fort, Thane - MPCB",28-12-2025 08:00:00,19.222279,72.957979,PM10,98,118,107
India,Maharashtra,Thane,"Upvan Fort, Thane - MPCB",28-12-2025 08:00:00,19.222279,72.957979,OZONE,29,109,43
India,Maharashtra,Ulhasnagar,"Sidhi Vinayak Nagar, Ulhasnagar - MPCB",28-12-2025 08:00:00,19.235581,73.159121,NH3,4,6,5
India,Maharashtra,Virar,"Bolinj, Virar - MPCB",28-12-2025 08:00:00,19.4458210,72.7988231,NH3,1,4,3
India,Maharashtra,Pune,"Dhankawadi, Pune - IITM",28-12-2025 08:00:00,18.459883,73.852193,NO2,NA,NA,NA
India,Maharashtra,Pune,"Mhada Colony, Pune - IITM",28-12-2025 08:00:00,18.573040,73.927715,PM10,133,310,228
India,Maharashtra,Pune,"Mhada Colony, Pune - IITM",28-12-2025 08:00:00,18.573040,73.927715,CO,22,113,103
India,Maharashtra,Pune,"Panchawati_Pashan, Pune - IITM",28-12-2025 08:00:00,18.536457,73.805454,PM10,94,154,125
India,Odisha,Rairangpur,"Divisional Forest Office, Rairangpur - OSPCB",28-12-2025 08:00:00,22.265816,86.174829,SO2,NA,NA,NA
India,Odisha,Rourkela,"Fertilizer Township, Rourkela - OSPCB",28-12-2025 08:00:00,22.18972222,84.86277778,NO2,11,11,11
India,Odisha,Rourkela,"Fertilizer Township, Rourkela - OSPCB",28-12-2025 08:00:00,22.18972222,84.86277778,CO,19,30,22
India,Odisha,Rourkela,"Raghunathpali, Rourkela - OSPCB",28-12-2025 08:00:00,22.220833,84.809444,PM2.5,23,316,189
India,Odisha,Rourkela,"Raghunathpali, Rourkela - OSPCB",28-12-2025 08:00:00,22.220833,84.809444,SO2,4,9,6
India,Odisha,Suakati,"OMC Colony, Suakati - OSPCB",28-12-2025 08:00:00,21.606865,85.510538,PM2.5,43,89,67
India,Odisha,Suakati,"OMC Colony, Suakati - OSPCB",28-12-2025 08:00:00,21.606865,85.510538,SO2,4,23,8
India,Odisha,Talcher,"Talcher Coalfields,Talcher - OSPCB",28-12-2025 08:00:00,20.9360711,85.1707021,PM10,104,367,222
India,Odisha,Talcher,"Talcher Coalfields,Talcher - OSPCB",28-12-2025 08:00:00,20.9360711,85.1707021,SO2,29,101,52
India,Odisha,Talcher,"Talcher Coalfields,Talcher - OSPCB",28-12-2025 08:00:00,20.9360711,85.1707021,CO,48,147,71
India,Odisha,Talcher,"Talcher Coalfields,Talcher - OSPCB",28-12-2025 08:00:00,20.9360711,85.1707021,OZONE,4,20,15
India,Odisha,Tensa,"Barsua Iron Ore Mines, Tensa - OSPCB",28-12-2025 08:00:00,21.869985,85.167016,PM2.5,NA,NA,NA
India,Odisha,Tensa,"Barsua Iron Ore Mines, Tensa - OSPCB",28-12-2025 08:00:00,21.869985,85.167016,SO2,20,97,34
India,Punjab,Amritsar,"Golden Temple, Amritsar - PPCB",28-12-2025 08:00:00,31.620000,74.876512,NH3,5,8,6
India,Punjab,Jalandhar,"Civil Line, Jalandhar - PPCB",28-12-2025 08:00:00,31.321907,75.578914,OZONE,43,99,46
India,Punjab,Khanna,"Kalal Majra, Khanna - PPCB",28-12-2025 08:00:00,30.736056 ,76.209694,SO2,NA,NA,NA
India,Punjab,Khanna,"Kalal Majra, Khanna - PPCB",28-12-2025 08:00:00,30.736056 ,76.209694,CO,40,100,60
India,Punjab,Ludhiana,"Punjab Agricultural University, Ludhiana - PPCB",28-12-2025 08:00:00,30.9028,75.8086,PM2.5,100,166,124
India,Punjab,Ludhiana,"Punjab Agricultural University, Ludhiana - PPCB",28-12-2025 08:00:00,30.9028,75.8086,PM10,113,140,123
India,Punjab,Mandi Gobindgarh,"RIMT University, Mandi Gobindgarh - PPCB",28-12-2025 08:00:00,30.649961,76.331442,NO2,23,24,24
India,Rajasthan,Jaipur,"Adarsh Nagar, Jaipur - RSPCB",28-12-2025 08:00:00,26.902909,75.836858,SO2,14,29,21
India,Rajasthan,Jaipur,"Adarsh Nagar, Jaipur - RSPCB",28-12-2025 08:00:00,26.902909,75.836858,OZONE,13,81,19
India,Rajasthan,Jaipur,"Mansarovar Sector-12, Jaipur - RSPCB",28-12-2025 08:00:00,26.843698,75.766894,CO,26,153,78
India,Rajasthan,Jaipur,"Police Commissionerate, Jaipur - RSPCB",28-12-2025 08:00:00,26.9164092,75.7994901,NO2,87,144,117
India,Rajasthan,Jaipur,"RIICO Sitapura, Jaipur - RSPCB",28-12-2025 08:00:00,26.786682,75.827928,NO2,30,150,80
India,Rajasthan,Jaipur,"Sector-2 Murlipura, Jaipur - RSPCB",28-12-2025 08:00:00,26.960669,75.771817,NH3,5,8,7
India,Rajasthan,Alwar,"Moti Doongri, Alwar - RSPCB",28-12-2025 08:00:00,27.554793,76.611536,OZONE,14,34,18
India,Rajasthan,Banswara,"Rati Talai, Banswara - RSPCB",28-12-2025 08:00:00,23.555190,74.440010,PM10,39,179,81
India,Rajasthan,Banswara,"Rati Talai, Banswara - RSPCB",28-12-2025 08:00:00,23.555190,74.440010,NH3,4,14,8
India,Rajasthan,Baran,"Bamboliya, Baran - RSPCB",28-12-2025 08:00:00,25.106006,76.469948,CO,12,73,34
India,Rajasthan,Baran,"Bamboliya, Baran - RSPCB",28-12-2025 08:00:00,25.106006,76.469948,OZONE,6,72,6
India,Rajasthan,Barmer,"Railway Colony, Barmer - RSPCB",28-12-2025 08:00:00,25.747299,71.393989,NH3,5,8,6
India,Rajasthan,Barmer,"Railway Colony, Barmer - RSPCB",28-12-2025 08:00:00,25.747299,71.393989,OZONE,25,158,67
India,Rajasthan,Chittorgarh,"Shastri Nagar, Chittorgarh - RSPCB",28-12-2025 08:00:00,24.892047,74.623527,PM2.5,65,322,206
India,Rajasthan,Chittorgarh,"Shastri Nagar, Chittorgarh - RSPCB",28-12-2025 08:00:00,24.892047,74.623527,NH3,8,23,15
India,Rajasthan,Churu,"Subash Chowk, Churu - RSPCB",28-12-2025 08:00:00,28.296139,74.961696,NO2,14,76,36
India,Rajasthan,Churu,"Subash Chowk, Churu - RSPCB",28-12-2025 08:00:00,28.296139,74.961696,NH3,4,5,5
India,Rajasthan,Churu,"Subash Chowk, Churu - RSPCB",28-12-2025 08:00:00,28.296139,74.961696,CO,22,87,37
India,Rajasthan,Churu,"Subash Chowk, Churu - RSPCB",28-12-2025 08:00:00,28.296139,74.961696,OZONE,21,126,40
India,Rajasthan,Dausa,"Khatikan Mohalla, Dausa - RSPCB",28-12-2025 08:00:00,26.895552,76.334753,PM2.5,40,290,132
India,Punjab,Mandi Gobindgarh,"RIMT University, Mandi Gobindgarh - PPCB",28-12-2025 08:00:00,30.649961,76.331442,OZONE,32,35,33
India,Punjab,Patiala,"Model Town, Patiala - PPCB",28-12-2025 08:00:00,30.349388,76.366642,NO2,16,19,17
India,Punjab,Patiala,"Model Town, Patiala - PPCB",28-12-2025 08:00:00,30.349388,76.366642,SO2,11,29,19
India,Rajasthan,Ajmer,"Civil Lines,  Ajmer - RSPCB",28-12-2025 08:00:00,26.470859,74.646594,NH3,3,4,4
India,Rajasthan,Alwar,"Moti Doongri, Alwar - RSPCB",28-12-2025 08:00:00,27.554793,76.611536,PM2.5,72,131,93
India,Rajasthan,Hanumangarh,"Housing Board, Hanumangarh - RSPCB",28-12-2025 08:00:00,29.610750,74.283608,PM2.5,37,158,81
India,Rajasthan,Hanumangarh,"Housing Board, Hanumangarh - RSPCB",28-12-2025 08:00:00,29.610750,74.283608,NH3,3,21,11
India,Rajasthan,Hanumangarh,"Housing Board, Hanumangarh - RSPCB",28-12-2025 08:00:00,29.610750,74.283608,SO2,5,18,7
India,Rajasthan,Bhiwadi,"RIICO Ind. Area III, Bhiwadi - RSPCB",28-12-2025 08:00:00,28.194909,76.862296,SO2,1,18,9
India,Rajasthan,Bhiwadi,"RIICO Ind. Area III, Bhiwadi - RSPCB",28-12-2025 08:00:00,28.194909,76.862296,CO,24,128,96
India,TamilNadu,Dindigul,"Mendonsa Colony, Dindigul - TNPCB",28-12-2025 08:00:00,10.358535,77.984321,PM10,37,75,54
India,TamilNadu,Dindigul,"Mendonsa Colony, Dindigul - TNPCB",28-12-2025 08:00:00,10.358535,77.984321,NO2,NA,NA,NA
India,TamilNadu,Gummidipoondi,"Anthoni Pillai Nagar, Gummidipoondi - TNPCB",28-12-2025 08:00:00,13.4127,80.1081,NO2,1,4,2
India,TamilNadu,Gummidipoondi,"Anthoni Pillai Nagar, Gummidipoondi - TNPCB",28-12-2025 08:00:00,13.4127,80.1081,NH3,3,3,3
India,TamilNadu,Perundurai,"SIPCOT Industrial Park, Perundurai - TNPCB",28-12-2025 08:00:00,11.258242,77.552761,PM10,38,101,61
India,TamilNadu,Perundurai,"SIPCOT Industrial Park, Perundurai - TNPCB",28-12-2025 08:00:00,11.258242,77.552761,SO2,13,13,13
India,TamilNadu,Perundurai,"SIPCOT Industrial Park, Perundurai - TNPCB",28-12-2025 08:00:00,11.258242,77.552761,OZONE,21,24,23
India,TamilNadu,Salem,"Sona College of Technology, Salem - TNPCB",28-12-2025 08:00:00,11.679111,78.125052,PM2.5,73,160,102
India,Rajasthan,Rajsamand,"Dhoinda, Rajsamand - RSPCB",28-12-2025 08:00:00,25.036360,73.883502,NH3,15,32,19
India,Rajasthan,Rajsamand,"Dhoinda, Rajsamand - RSPCB",28-12-2025 08:00:00,25.036360,73.883502,CO,10,103,20
India,Rajasthan,Sawai Madhopur,"Sahu Nagar, Sawai Madhopur - RSPCB",28-12-2025 08:00:00,26.031443,76.359327,PM2.5,25,367,104
India,Rajasthan,Sawai Madhopur,"Sahu Nagar, Sawai Madhopur - RSPCB",28-12-2025 08:00:00,26.031443,76.359327,SO2,2,22,5
India,Rajasthan,Sawai Madhopur,"Sahu Nagar, Sawai Madhopur - RSPCB",28-12-2025 08:00:00,26.031443,76.359327,CO,20,146,49
India,Rajasthan,Sawai Madhopur,"Sahu Nagar, Sawai Madhopur - RSPCB",28-12-2025 08:00:00,26.031443,76.359327,OZONE,1,95,3
India,Rajasthan,Sirohi,"Vedhaynath Colony, Sirohi - RSPCB",28-12-2025 08:00:00,24.885261,72.857549,PM10,25,128,81
India,Rajasthan,Jhunjhunu,"Indra Nagar, Jhunjhunu - RSPCB",28-12-2025 08:00:00,28.108988,75.386577,OZONE,4,136,19
India,Rajasthan,Jodhpur,"Collectorate, Jodhpur - RSPCB",28-12-2025 08:00:00,26.268249,73.0193853,PM10,60,262,123
India,Rajasthan,Jodhpur,"Collectorate, Jodhpur - RSPCB",28-12-2025 08:00:00,26.268249,73.0193853,NH3,8,51,16
India,Rajasthan,Jodhpur,"Jhalamand, Jodhpur - RSPCB",28-12-2025 08:00:00,26.215415,73.070156,NH3,7,15,11
India,Rajasthan,Jodhpur,"Jhalamand, Jodhpur - RSPCB",28-12-2025 08:00:00,26.215415,73.070156,OZONE,8,85,36
India,Rajasthan,Jodhpur,"Mandor, Jodhpur - RSPCB",28-12-2025 08:00:00,26.358805,73.047444,NH3,3,7,4
India,Rajasthan,Jodhpur,"Mandor, Jodhpur - RSPCB",28-12-2025 08:00:00,26.358805,73.047444,SO2,4,10,7
India,TamilNadu,Chennai,"Kodungaiyur, Chennai - TNPCB",28-12-2025 08:00:00,13.1278,80.2642,CO,20,54,36
India,TamilNadu,Chennai,"Manali Village, Chennai - TNPCB",28-12-2025 08:00:00,13.1662,80.2584,NH3,NA,NA,NA
India,TamilNadu,Chennai,"Manali Village, Chennai - TNPCB",28-12-2025 08:00:00,13.1662,80.2584,SO2,NA,NA,NA
India,TamilNadu,Chennai,"Manali, Chennai - CPCB",28-12-2025 08:00:00,13.164544,80.26285,PM2.5,58,234,106
India,TamilNadu,Chennai,"Perungudi, Chennai - TNPCB",28-12-2025 08:00:00,12.9533,80.2357,PM10,74,149,103
India,TamilNadu,Chennai,"Perungudi, Chennai - TNPCB",28-12-2025 08:00:00,12.9533,80.2357,NO2,3,8,6
India,TamilNadu,Chennai,"Perungudi, Chennai - TNPCB",28-12-2025 08:00:00,12.9533,80.2357,NH3,3,4,4
India,Rajasthan,Jalore,"Mudtra Sili, Jalore - RSPCB",28-12-2025 08:00:00,25.344694,72.626208,NO2,26,138,60
India,Rajasthan,Jhalawar,"Rajlaxmi Nagar, Jhalawar - RSPCB",28-12-2025 08:00:00,24.588397,76.172782,PM2.5,30,357,166
India,Rajasthan,Jhalawar,"Rajlaxmi Nagar, Jhalawar - RSPCB",28-12-2025 08:00:00,24.588397,76.172782,PM10,41,297,115
India,Rajasthan,Jhunjhunu,"Indra Nagar, Jhunjhunu - RSPCB",28-12-2025 08:00:00,28.108988,75.386577,PM10,56,368,193
India,Rajasthan,Jhunjhunu,"Indra Nagar, Jhunjhunu - RSPCB",28-12-2025 08:00:00,28.108988,75.386577,SO2,3,25,10
India,Rajasthan,Jhunjhunu,"Indra Nagar, Jhunjhunu - RSPCB",28-12-2025 08:00:00,28.108988,75.386577,CO,11,113,51
India,TamilNadu,Chennai,"Perungudi, Chennai - TNPCB",28-12-2025 08:00:00,12.9533,80.2357,OZONE,3,17,5
India,TamilNadu,Chennai,"Royapuram, Chennai - TNPCB",28-12-2025 08:00:00,13.1036,80.2909,NH3,3,8,4
India,TamilNadu,Chennai,"Royapuram, Chennai - TNPCB",28-12-2025 08:00:00,13.1036,80.2909,CO,44,62,53
India,TamilNadu,Chennai,"Royapuram, Chennai - TNPCB",28-12-2025 08:00:00,13.1036,80.2909,OZONE,16,19,18
India,TamilNadu,Coimbatore,"SIDCO Kurichi, Coimbatore - TNPCB",28-12-2025 08:00:00,10.942451,76.978996,NH3,2,3,2
India,Rajasthan,Jodhpur,"Samrat Ashok Udhyan, Jodhpur - RSPCB",28-12-2025 08:00:00,26.253384,72.976571,NH3,1,5,4
India,Rajasthan,Karauli,"Satyawati Vihar, Karauli - RSPCB",28-12-2025 08:00:00,26.506177,77.025989,PM2.5,42,306,115
India,Rajasthan,Karauli,"Satyawati Vihar, Karauli - RSPCB",28-12-2025 08:00:00,26.506177,77.025989,NH3,12,23,16
India,Rajasthan,Kota,"Dhanmandi, Kota - RSPCB",28-12-2025 08:00:00,25.164090,75.858137,OZONE,3,110,3
India,Rajasthan,Sirohi,"Vedhaynath Colony, Sirohi - RSPCB",28-12-2025 08:00:00,24.885261,72.857549,SO2,7,22,12
India,Rajasthan,Sri Ganganagar,"Old City, Sri Ganganagar - RSPCB",28-12-2025 08:00:00,29.931624,73.864511,CO,105,180,124
India,Rajasthan,Udaipur,"Ashok Nagar, Udaipur - RSPCB",28-12-2025 08:00:00,24.5886166,73.6321397,PM2.5,64,212,105
India,Rajasthan,Kota,"Shrinath Puram, Kota - RSPCB",28-12-2025 08:00:00,25.14389,75.821256,PM10,85,211,128
India,Rajasthan,Pali,"Indira Colony Vistar, Pali - RSPCB",28-12-2025 08:00:00,25.771061, 73.340227,SO2,2,9,6
India,Rajasthan,Pratapgarh,"Pragati Nagar, Pratapgarh - RSPCB",28-12-2025 08:00:00,24.041198,74.780702,PM10,56,107,80
India,Telangana,Hyderabad,"Sanathnagar, Hyderabad - TSPCB",28-12-2025 08:00:00,17.4559458,78.4332152,CO,40,62,57
India,Telangana,Hyderabad,"Sanathnagar, Hyderabad - TSPCB",28-12-2025 08:00:00,17.4559458,78.4332152,OZONE,13,15,14
India,Telangana,Hyderabad,"Somajiguda, Hyderabad - TSPCB",28-12-2025 08:00:00,17.417094,78.457437,PM10,87,102,94
India,Telangana,Hyderabad,"Somajiguda, Hyderabad - TSPCB",28-12-2025 08:00:00,17.417094,78.457437,OZONE,15,30,16
India,Telangana,Hyderabad,"Zoo Park, Hyderabad - TSPCB",28-12-2025 08:00:00,17.349694,78.451437,NO2,10,36,21
India,Telangana,Hyderabad,"Zoo Park, Hyderabad - TSPCB",28-12-2025 08:00:00,17.349694,78.451437,NH3,3,4,3
India,Telangana,Hyderabad,"Zoo Park, Hyderabad - TSPCB",28-12-2025 08:00:00,17.349694,78.451437,CO,1,63,5
India,Tripura,Agartala,"Bardowali, Agartala - Tripura SPCB",28-12-2025 08:00:00,23.8175497,91.2726974,PM2.5,1,51,24
India,Uttar_Pradesh,Agra,"Manoharpur, Agra - UPPCB",28-12-2025 08:00:00,27.23711,78.01936,PM2.5,99,334,202
India,Uttar_Pradesh,Greater Noida,"Knowledge Park - III, Greater Noida - UPPCB",28-12-2025 08:00:00,28.47272,77.482000,NH3,3,11,8
India,Uttar_Pradesh,Greater Noida,"Knowledge Park - III, Greater Noida - UPPCB",28-12-2025 08:00:00,28.47272,77.482000,SO2,6,40,27
India,Uttar_Pradesh,Greater Noida,"Knowledge Park - III, Greater Noida - UPPCB",28-12-2025 08:00:00,28.47272,77.482000,CO,35,152,83
India,Uttar_Pradesh,Greater Noida,"Knowledge Park - V, Greater Noida - UPPCB",28-12-2025 08:00:00,28.557054,77.453663,SO2,9,17,12
India,Uttar_Pradesh,Hapur,"Anand Vihar, Hapur - UPPCB",28-12-2025 08:00:00,28.725645,77.749675,NH3,5,6,5
India,Uttar_Pradesh,Hapur,"Anand Vihar, Hapur - UPPCB",28-12-2025 08:00:00,28.725645,77.749675,OZONE,14,47,18
India,Uttar_Pradesh,Jhansi,"Shivaji Nagar, Jhansi - UPPCB",28-12-2025 08:00:00,25.4547,78.6039,NO2,6,6,6
India,Uttar_Pradesh,Jhansi,"Shivaji Nagar, Jhansi - UPPCB",28-12-2025 08:00:00,25.4547,78.6039,CO,12,90,41
India,Telangana,Hyderabad,"Kompally Municipal Office, Hyderabad - TSPCB",28-12-2025 08:00:00,17.544899,78.486949,NO2,14,19,18
India,Telangana,Hyderabad,"Kompally Municipal Office, Hyderabad - TSPCB",28-12-2025 08:00:00,17.544899,78.486949,NH3,3,4,3
India,Telangana,Hyderabad,"Kompally Municipal Office, Hyderabad - TSPCB",28-12-2025 08:00:00,17.544899,78.486949,OZONE,5,48,10
India,Telangana,Hyderabad,"Nacharam_TSIIC IALA, Hyderabad - TSPCB",28-12-2025 08:00:00,17.429398,78.569354,PM2.5,48,65,56
India,Telangana,Hyderabad,"Nacharam_TSIIC IALA, Hyderabad - TSPCB",28-12-2025 08:00:00,17.429398,78.569354,PM10,71,90,80
India,Telangana,Hyderabad,"Nacharam_TSIIC IALA, Hyderabad - TSPCB",28-12-2025 08:00:00,17.429398,78.569354,SO2,10,16,12
India,Telangana,Hyderabad,"New Malakpet, Hyderabad - TSPCB",28-12-2025 08:00:00,17.37206,78.50864,PM2.5,46,74,61
India,Uttar_Pradesh,Agra,"Shahjahan Garden, Agra - UPPCB",28-12-2025 08:00:00,27.169338,78.03582,SO2,15,23,19
India,Uttar_Pradesh,Agra,"Shahjahan Garden, Agra - UPPCB",28-12-2025 08:00:00,27.169338,78.03582,CO,30,71,55
India,Uttar_Pradesh,Bareilly,"Civil Lines, Bareilly - UPPCB",28-12-2025 08:00:00,28.359581,79.414455,NH3,1,9,2
India,Uttar_Pradesh,Bareilly,"Civil Lines, Bareilly - UPPCB",28-12-2025 08:00:00,28.359581,79.414455,CO,68,90,76
India,Uttar_Pradesh,Bareilly,"Rajendra Nagar, Bareilly - UPPCB",28-12-2025 08:00:00,28.38910936,79.42963708,NO2,9,10,10
India,Uttar_Pradesh,Bareilly,"Rajendra Nagar, Bareilly - UPPCB",28-12-2025 08:00:00,28.38910936,79.42963708,CO,14,32,21
India,Uttar_Pradesh,Ghaziabad,"Loni, Ghaziabad - UPPCB",28-12-2025 08:00:00,28.757294,77.278792,CO,32,137,102
India,Uttar_Pradesh,Ghaziabad,"Loni, Ghaziabad - UPPCB",28-12-2025 08:00:00,28.757294,77.278792,OZONE,1,51,1
India,Uttar_Pradesh,Ghaziabad,"Vasundhara, Ghaziabad - UPPCB",28-12-2025 08:00:00,28.6603346,77.3572563,SO2,4,20,12
India,Uttar_Pradesh,Ghaziabad,"Vasundhara, Ghaziabad - UPPCB",28-12-2025 08:00:00,28.6603346,77.3572563,OZONE,8,132,10
India,Uttar_Pradesh,Greater Noida,"Knowledge Park - III, Greater Noida - UPPCB",28-12-2025 08:00:00,28.47272,77.482000,PM2.5,305,457,387
India,Telangana,Hyderabad,"ICRISAT Patancheru, Hyderabad - TSPCB",28-12-2025 08:00:00,17.518400,78.278777,CO,29,74,57
India,Telangana,Hyderabad,"IDA Pashamylaram, Hyderabad - TSPCB",28-12-2025 08:00:00,17.5316895,78.218939,SO2,7,23,14
India,Telangana,Hyderabad,"IDA Pashamylaram, Hyderabad - TSPCB",28-12-2025 08:00:00,17.5316895,78.218939,CO,44,80,69
India,Telangana,Hyderabad,"IITH Kandi, Hyderabad - TSPCB",28-12-2025 08:00:00,17.585705,78.126199,NO2,10,19,13
India,Telangana,Hyderabad,"Kokapet, Hyderabad - TSPCB",28-12-2025 08:00:00,17.393559,78.339194,NO2,14,16,15
India,Uttar_Pradesh,Firozabad,"Nagla Bhau, Firozabad - UPPCB",28-12-2025 08:00:00,27.168897,78.376960,OZONE,NA,NA,NA
India,Uttar_Pradesh,Ghaziabad,"Indirapuram, Ghaziabad - UPPCB",28-12-2025 08:00:00,28.646233,77.358075,PM10,213,500,394
India,Uttar_Pradesh,Ghaziabad,"Indirapuram, Ghaziabad - UPPCB",28-12-2025 08:00:00,28.646233,77.358075,CO,40,108,59
India,Uttar_Pradesh,Ghaziabad,"Loni, Ghaziabad - UPPCB",28-12-2025 08:00:00,28.757294,77.278792,PM10,282,500,426
India,Uttar_Pradesh,Agra,"Manoharpur, Agra - UPPCB",28-12-2025 08:00:00,27.23711,78.01936,SO2,52,84,66
India,Uttar_Pradesh,Agra,"Sanjay Palace, Agra - UPPCB",28-12-2025 08:00:00,27.19865833,78.00598056,PM2.5,74,348,205
India,Uttar_Pradesh,Agra,"Sanjay Palace, Agra - UPPCB",28-12-2025 08:00:00,27.19865833,78.00598056,SO2,16,17,16
India,Uttar_Pradesh,Agra,"Shahjahan Garden, Agra - UPPCB",28-12-2025 08:00:00,27.169338,78.03582,PM2.5,51,345,132
India,Telangana,Hyderabad,"Central University, Hyderabad - TSPCB",28-12-2025 08:00:00,17.460103,78.334361,PM10,106,149,126
India,Telangana,Hyderabad,"ECIL Kapra, Hyderabad - TSPCB",28-12-2025 08:00:00,17.470431,78.566959,PM2.5,37,49,43
India,Telangana,Hyderabad,"ECIL Kapra, Hyderabad - TSPCB",28-12-2025 08:00:00,17.470431,78.566959,NH3,3,6,5
India,Uttar_Pradesh,Varanasi,"IESD Banaras Hindu University, Varanasi - UPPCB",28-12-2025 08:00:00,25.262326,82.995408,SO2,35,39,37
India,Uttar_Pradesh,Varanasi,"IESD Banaras Hindu University, Varanasi - UPPCB",28-12-2025 08:00:00,25.262326,82.995408,OZONE,6,35,25
India,Uttar_Pradesh,Varanasi,"Maldahiya, Varanasi - UPPCB",28-12-2025 08:00:00,25.32393,82.99687,CO,6,48,35
India,Uttarakhand,Dehradun,"Doon University, Dehradun - UKPCB",28-12-2025 08:00:00,30.269444,78.044167,NO2,1,4,2
India,Uttarakhand,Dehradun,"Doon University, Dehradun - UKPCB",28-12-2025 08:00:00,30.269444,78.044167,CO,8,32,9
India,Uttarakhand,Dehradun,"Doon University, Dehradun - UKPCB",28-12-2025 08:00:00,30.269444,78.044167,OZONE,10,65,24
India,Uttarakhand,Kashipur,"Govt. Girls Inter College, Kashipur - UKPCB",28-12-2025 08:00:00,29.2124114,78.9611753,PM10,123,174,153
India,Uttarakhand,Rishikesh,"Shivaji Nagar, Rishikesh - UKPCB",28-12-2025 08:00:00,30.075911,78.2859547,PM2.5,48,151,93
India,Uttar_Pradesh,Prayagraj,"Nagar Nigam, Prayagraj - UPPCB",28-12-2025 08:00:00,25.44919916 ,81.82735986 ,NO2,5,5,5
India,Uttar_Pradesh,Prayagraj,"Nagar Nigam, Prayagraj - UPPCB",28-12-2025 08:00:00,25.44919916 ,81.82735986 ,CO,36,123,74
India,Uttar_Pradesh,Prayagraj,"Nagar Nigam, Prayagraj - UPPCB",28-12-2025 08:00:00,25.44919916 ,81.82735986 ,OZONE,10,84,11
India,Uttar_Pradesh,Varanasi,"Ardhali Bazar, Varanasi - UPPCB",28-12-2025 08:00:00,25.3505986,82.9083074,PM10,90,162,124
India,Uttar_Pradesh,Varanasi,"Bhelupur, Varanasi - UPPCB",28-12-2025 08:00:00,25.301778,82.996789,CO,18,55,35
India,Uttar_Pradesh,Varanasi,"IESD Banaras Hindu University, Varanasi - UPPCB",28-12-2025 08:00:00,25.262326,82.995408,PM2.5,11,133,72
India,Uttar_Pradesh,Varanasi,"IESD Banaras Hindu University, Varanasi - UPPCB",28-12-2025 08:00:00,25.262326,82.995408,NO2,2,2,2
India,Uttar_Pradesh,Moradabad,"Kashiram Nagar, Moradabad - UPPCB",28-12-2025 08:00:00,28.849399,78.742362,NH3,4,4,4
India,Uttar_Pradesh,Moradabad,"Kashiram Nagar, Moradabad - UPPCB",28-12-2025 08:00:00,28.849399,78.742362,OZONE,10,16,10
India,Uttar_Pradesh,Moradabad,"Transport Nagar, Moradabad - UPPCB",28-12-2025 08:00:00,28.802625,78.753728,CO,38,66,60
India,Uttar_Pradesh,Moradabad,"Transport Nagar, Moradabad - UPPCB",28-12-2025 08:00:00,28.802625,78.753728,OZONE,26,31,28
India,Uttar_Pradesh,Muzaffarnagar,"New Mandi, Muzaffarnagar - UPPCB",28-12-2025 08:00:00,29.4723508,77.7194031,OZONE,2,77,7
India,Uttar_Pradesh,Noida,"Sector - 125, Noida - UPPCB",28-12-2025 08:00:00,28.5447608,77.3231257,NH3,2,4,3
India,Uttar_Pradesh,Noida,"Sector - 125, Noida - UPPCB",28-12-2025 08:00:00,28.5447608,77.3231257,SO2,6,19,12
India,Uttar_Pradesh,Noida,"Sector - 62, Noida - IMD",28-12-2025 08:00:00,28.6245479,77.3577104,PM2.5,225,490,375
India,Uttar_Pradesh,Noida,"Sector-1, Noida - UPPCB",28-12-2025 08:00:00,28.5898,77.3101,PM2.5,341,500,441
India,Uttar_Pradesh,Noida,"Sector-116, Noida - UPPCB",28-12-2025 08:00:00,28.569230,77.393848,NH3,5,12,7
India,Uttar_Pradesh,Noida,"Sector-116, Noida - UPPCB",28-12-2025 08:00:00,28.569230,77.393848,CO,18,156,105
India,Uttar_Pradesh,Prayagraj,"Jhunsi, Prayagraj - UPPCB",28-12-2025 08:00:00,25.425602,81.917152,NH3,5,5,5
India,Uttar_Pradesh,Prayagraj,"Jhunsi, Prayagraj - UPPCB",28-12-2025 08:00:00,25.425602,81.917152,SO2,34,34,34
India,Uttar_Pradesh,Kanpur,"FTI Kidwai Nagar, Kanpur - UPPCB",28-12-2025 08:00:00,26.428282,80.327067,SO2,19,23,21
India,Uttar_Pradesh,Kanpur,"Nehru Nagar, Kanpur - UPPCB",28-12-2025 08:00:00,26.4703136,80.3229863,SO2,5,16,13
India,Uttar_Pradesh,Khurja,"Kalindi Kunj, Khurja - UPPCB",28-12-2025 08:00:00,28.2348927,77.8683002,PM10,89,432,247
India,Uttar_Pradesh,Lucknow,"B R Ambedkar University, Lucknow - UPPCB",28-12-2025 08:00:00,26.766433,80.927299,PM10,51,113,79
India,Uttar_Pradesh,Lucknow,"B R Ambedkar University, Lucknow - UPPCB",28-12-2025 08:00:00,26.766433,80.927299,SO2,24,25,24
India,West_Bengal,Asansol,"Asansol Court Area, Asansol - WBPCB",28-12-2025 08:00:00,23.685297,86.945968,PM10,82,147,118
India,West_Bengal,Asansol,"Asansol Court Area, Asansol - WBPCB",28-12-2025 08:00:00,23.685297,86.945968,NO2,15,28,23
India,West_Bengal,Asansol,"Asansol Court Area, Asansol - WBPCB",28-12-2025 08:00:00,23.685297,86.945968,NH3,2,9,5
India,West_Bengal,Asansol,"Evelyn Lodge, Asansol - WBPCB",28-12-2025 08:00:00,23.6979360,86.9443950,PM10,69,142,110
India,West_Bengal,Asansol,"Evelyn Lodge, Asansol - WBPCB",28-12-2025 08:00:00,23.6979360,86.9443950,NO2,9,31,16
India,West_Bengal,Asansol,"Mahabir Colliery, Asansol - WBPCB",28-12-2025 08:00:00,23.6181830,87.1057180,SO2,7,13,9
India,Uttar_Pradesh,Lucknow,"Gomti Nagar, Lucknow - UPPCB",28-12-2025 08:00:00,26.868120,81.005119,PM2.5,38,250,121
India,Uttar_Pradesh,Lucknow,"Kendriya Vidyalaya, Lucknow - CPCB",28-12-2025 08:00:00,26.906111,80.948222,PM10,43,176,152
India,Uttar_Pradesh,Lucknow,"Kendriya Vidyalaya, Lucknow - CPCB",28-12-2025 08:00:00,26.906111,80.948222,OZONE,10,80,14
India,Uttar_Pradesh,Lucknow,"Kukrail Picnic Spot-1, Lucknow - UPPCB",28-12-2025 08:00:00,26.90723,80.98579,SO2,37,39,38
India,Uttar_Pradesh,Lucknow,"Lalbagh, Lucknow - CPCB",28-12-2025 08:00:00,26.8458805,80.9365541,PM10,80,500,244
India,Uttar_Pradesh,Lucknow,"Talkatora District Industries Center, Lucknow - CPCB",28-12-2025 08:00:00,26.83399722,80.8917361,PM2.5,104,329,228
India,Uttar_Pradesh,Meerut,"Jai Bhim Nagar, Meerut - UPPCB",28-12-2025 08:00:00,28.9535882,77.7622941,PM2.5,235,437,357
India,Uttar_Pradesh,Meerut,"Jai Bhim Nagar, Meerut - UPPCB",28-12-2025 08:00:00,28.9535882,77.7622941,SO2,4,11,7
India,Uttar_Pradesh,Meerut,"Jai Bhim Nagar, Meerut - UPPCB",28-12-2025 08:00:00,28.9535882,77.7622941,CO,52,115,75
India,Uttar_Pradesh,Moradabad,"Buddhi Vihar, Moradabad - UPPCB",28-12-2025 08:00:00,28.83526,78.74460,PM2.5,62,288,134
India,Uttar_Pradesh,Moradabad,"Employment Office, Moradabad - UPPCB",28-12-2025 08:00:00,28.88528,78.73880,NH3,4,4,4
India,West_Bengal,Asansol,"Trivenidevi Bhalotia College, Asansol - WBPCB",28-12-2025 08:00:00,23.616515,87.119133,CO,4,69,31
India,West_Bengal,Barrackpore,"SVSPA Campus, Barrackpore - WBPCB",28-12-2025 08:00:00,22.7605581,88.3617589,SO2,9,15,11
India,West_Bengal,Barrackpore,"SVSPA Campus, Barrackpore - WBPCB",28-12-2025 08:00:00,22.7605581,88.3617589,OZONE,3,57,6
India,West_Bengal,Durgapur,"Mahishkapur Road_B-Zone, Durgapur - WBPCB",28-12-2025 08:00:00,23.567923,87.306843,NH3,2,2,2
India,West_Bengal,Durgapur,"PCBL Residential Complex, Durgapur - WBPCB",28-12-2025 08:00:00,23.5087640,87.3544400,PM2.5,51,229,128
India,West_Bengal,Durgapur,"PCBL Residential Complex, Durgapur - WBPCB",28-12-2025 08:00:00,23.5087640,87.3544400,NO2,22,61,33
India,West_Bengal,Durgapur,"PCBL Residential Complex, Durgapur - WBPCB",28-12-2025 08:00:00,23.5087640,87.3544400,SO2,1,7,2
India,West_Bengal,Durgapur,"PCBL Residential Complex, Durgapur - WBPCB",28-12-2025 08:00:00,23.5087640,87.3544400,OZONE,3,6,3
India,West_Bengal,Durgapur,"Womens College_City Center, Durgapur - WBPCB (Formerly known as Sidhu Kanhu Indoor Stadium)",28-12-2025 08:00:00,23.549395,87.300496,PM10,83,175,127
India,West_Bengal,Durgapur,"Womens College_City Center, Durgapur - WBPCB (Formerly known as Sidhu Kanhu Indoor Stadium)",28-12-2025 08:00:00,23.549395,87.300496,NO2,23,39,28
India,West_Bengal,Durgapur,"Womens College_City Center, Durgapur - WBPCB (Formerly known as Sidhu Kanhu Indoor Stadium)",28-12-2025 08:00:00,23.549395,87.300496,NH3,1,4,4
India,West_Bengal,Haldia,"Priyambada Housing Estate, Haldia - WBPCB",28-12-2025 08:00:00,22.06047,88.109737,SO2,14,23,16
India,West_Bengal,Haldia,"Priyambada Housing Estate, Haldia - WBPCB",28-12-2025 08:00:00,22.06047,88.109737,CO,37,70,58
India,West_Bengal,Haldia,"Priyambada Housing Estate, Haldia - WBPCB",28-12-2025 08:00:00,22.06047,88.109737,OZONE,15,20,16
India,West_Bengal,Howrah,"Belur Math, Howrah - WBPCB",28-12-2025 08:00:00,22.629801,88.352017,CO,27,103,39
India,West_Bengal,Howrah,"Botanical Garden, Howrah - WBPCB",28-12-2025 08:00:00,22.554954,88.292568,NO2,7,36,15
India,West_Bengal,Howrah,"Ghusuri, Howrah - WBPCB",28-12-2025 08:00:00,22.611968,88.347422,CO,38,111,61
India,West_Bengal,Howrah,"Padmapukur, Howrah - WBPCB",28-12-2025 08:00:00,22.5687319,88.2797276,PM2.5,135,330,238
India,West_Bengal,Howrah,"Padmapukur, Howrah - WBPCB",28-12-2025 08:00:00,22.5687319,88.2797276,NO2,8,24,15
India,West_Bengal,Kolkata,"Ballygunge, Kolkata - WBPCB",28-12-2025 08:00:00,22.5367507,88.3638022,SO2,6,29,15
India,West_Bengal,Kolkata,"Ballygunge, Kolkata - WBPCB",28-12-2025 08:00:00,22.5367507,88.3638022,OZONE,5,29,6
India,West_Bengal,Kolkata,"Fort William, Kolkata - WBPCB",28-12-2025 08:00:00,22.556640,88.342674,OZONE,27,84,38
India,West_Bengal,Kolkata,"Jadavpur, Kolkata - WBPCB",28-12-2025 08:00:00,22.49929,88.36917,PM2.5,156,344,244
India,West_Bengal,Kolkata,"Jadavpur, Kolkata - WBPCB",28-12-2025 08:00:00,22.49929,88.36917,NH3,6,14,9
India,West_Bengal,Kolkata,"Rabindra Bharati University, Kolkata - WBPCB",28-12-2025 08:00:00,22.627847,88.380669,OZONE,14,109,26
India,West_Bengal,Kolkata,"Rabindra Sarobar, Kolkata - WBPCB",28-12-2025 08:00:00,22.51106,88.35142,SO2,5,25,12
India,West_Bengal,Kolkata,"Rabindra Sarobar, Kolkata - WBPCB",28-12-2025 08:00:00,22.51106,88.35142,CO,60,124,78
India,West_Bengal,Kolkata,"Victoria, Kolkata - WBPCB",28-12-2025 08:00:00,22.5448082,88.3403691,PM10,121,211,156
India,West_Bengal,Siliguri,"Ward-32 Bapupara, Siliguri - WBPCB",28-12-2025 08:00:00,26.6879226,88.4152495,CO,52,78,64
India,Bihar,Gaya,"Kareemganj, Gaya - BSPCB",28-12-2025 08:00:00,24.792403,84.992416,SO2,5,17,13
India,Bihar,Gaya,"SFTI Kusdihra, Gaya - BSPCB",28-12-2025 08:00:00,24.762518,84.982348,PM2.5,80,115,91
India,Bihar,Gaya,"SFTI Kusdihra, Gaya - BSPCB",28-12-2025 08:00:00,24.762518,84.982348,PM10,77,104,90
India,Bihar,Gaya,"SFTI Kusdihra, Gaya - BSPCB",28-12-2025 08:00:00,24.762518,84.982348,NO2,19,24,21
India,Bihar,Hajipur,"Industrial Area, Hajipur - BSPCB",28-12-2025 08:00:00,25.697189,85.245900,PM2.5,100,207,167
India,Bihar,Hajipur,"Industrial Area, Hajipur - BSPCB",28-12-2025 08:00:00,25.697189,85.245900,NH3,4,5,5
India,Andhra_Pradesh,Vijayawada,"Rajiv Nagar, Vijayawada - APPCB",28-12-2025 08:00:00,16.554731,80.649110,CO,35,46,39
India,Andhra_Pradesh,Visakhapatnam,"GVM Corporation, Visakhapatnam - APPCB",28-12-2025 08:00:00,17.72,83.3,SO2,4,40,16
India,Andhra_Pradesh,Visakhapatnam,"GVM Corporation, Visakhapatnam - APPCB",28-12-2025 08:00:00,17.72,83.3,CO,42,92,72
India,Arunachal_Pradesh,Naharlagun,"Naharlagun, Naharlagun - APSPCB",28-12-2025 08:00:00,27.103358,93.679645,PM2.5,39,350,142
India,Assam,Byrnihat,"Central Academy for SFS, Byrnihat - PCBA",28-12-2025 08:00:00,26.071318,91.87488,SO2,14,32,31
India,Assam,Byrnihat,"Central Academy for SFS, Byrnihat - PCBA",28-12-2025 08:00:00,26.071318,91.87488,OZONE,14,31,16
India,Assam,Guwahati,"LGBI Airport, Guwahati - PCBA",28-12-2025 08:00:00,26.10887,91.589544,NO2,14,168,27
India,Assam,Guwahati,"LGBI Airport, Guwahati - PCBA",28-12-2025 08:00:00,26.10887,91.589544,NH3,5,18,6
India,Assam,Guwahati,"Pan Bazaar, Guwahati - PCBA",28-12-2025 08:00:00,26.187500,91.744194,CO,31,104,47
India,Andhra_Pradesh,Anantapur,"Gulzarpet, Anantapur - APPCB",28-12-2025 08:00:00,14.675886,77.593027,CO,NA,NA,NA
India,Andhra_Pradesh,Chittoor,"Gangineni Cheruvu, Chittoor - APPCB",28-12-2025 08:00:00,13.204880,79.097889,NH3,4,5,5
India,Andhra_Pradesh,Kadapa,"Yerramukkapalli, Kadapa - APPCB",28-12-2025 08:00:00,14.465052,78.824187,NO2,20,27,22
India,Andhra_Pradesh,Kadapa,"Yerramukkapalli, Kadapa - APPCB",28-12-2025 08:00:00,14.465052,78.824187,SO2,12,18,14
India,Bihar,Buxar,"Charitra Van, Buxar - BSPCB",28-12-2025 08:00:00,25.567520,83.966379,NO2,7,10,9
India,Bihar,Buxar,"Charitra Van, Buxar - BSPCB",28-12-2025 08:00:00,25.567520,83.966379,SO2,NA,NA,NA
India,Bihar,Chhapra,"Darshan Nagar, Chhapra - BSPCB",28-12-2025 08:00:00,25.7808257,84.7446768,PM2.5,NA,NA,NA
India,Bihar,Chhapra,"Darshan Nagar, Chhapra - BSPCB",28-12-2025 08:00:00,25.7808257,84.7446768,PM10,NA,NA,NA
India,Bihar,Chhapra,"Darshan Nagar, Chhapra - BSPCB",28-12-2025 08:00:00,25.7808257,84.7446768,SO2,NA,NA,NA
India,Bihar,Bettiah,"Kamalnath Nagar, Bettiah - BSPCB",28-12-2025 08:00:00,26.80365,84.51954,PM10,16,136,72
India,Bihar,Bettiah,"Kamalnath Nagar, Bettiah - BSPCB",28-12-2025 08:00:00,26.80365,84.51954,NO2,8,9,8
India,Bihar,Bhagalpur,"Mayaganj, Bhagalpur - BSPCB",28-12-2025 08:00:00,25.265194,87.012947,PM10,110,153,127
India,Bihar,Bhagalpur,"Mayaganj, Bhagalpur - BSPCB",28-12-2025 08:00:00,25.265194,87.012947,OZONE,8,10,9
India,Bihar,Aurangabad,"Gurdeo Nagar, Aurangabad - BSPCB",28-12-2025 08:00:00,24.75746,84.366208,NO2,7,8,8
India,Bihar,Aurangabad,"Gurdeo Nagar, Aurangabad - BSPCB",28-12-2025 08:00:00,24.75746,84.366208,NH3,1,2,2
India,Bihar,Begusarai,"Lohiyanagar, Begusarai - BSPCB",28-12-2025 08:00:00,25.42742023,86.13886079,PM10,NA,NA,NA
India,Assam,Nalbari,"Bata Chowk, Nalbari - PCBA",28-12-2025 08:00:00,26.446912,91.439057,OZONE,15,16,16
India,Bihar,Araria,"Kharahiya Basti, Araria - BSPCB",28-12-2025 08:00:00,26.146529,87.454184,PM10,37,182,133
India,Andhra_Pradesh,Tirumala,"Toll Gate, Tirumala - APPCB",28-12-2025 08:00:00,13.67,79.35,SO2,1,8,5
India,Andhra_Pradesh,Vijayawada,"Kanuru, Vijayawada - APPCB",28-12-2025 08:00:00,16.486692,80.699436,SO2,NA,NA,NA
India,Andhra_Pradesh,Anantapur,"Gulzarpet, Anantapur - APPCB",28-12-2025 08:00:00,14.675886,77.593027,NH3,NA,NA,NA
India,Bihar,Munger,"Town Hall, Munger - BSPCB",28-12-2025 08:00:00,25.376776,86.471523,PM2.5,97,237,177
India,Bihar,Munger,"Town Hall, Munger - BSPCB",28-12-2025 08:00:00,25.376776,86.471523,NO2,4,5,5
India,Bihar,Munger,"Town Hall, Munger - BSPCB",28-12-2025 08:00:00,25.376776,86.471523,NH3,4,10,6
India,Bihar,Munger,"Town Hall, Munger - BSPCB",28-12-2025 08:00:00,25.376776,86.471523,SO2,38,58,44
India,Bihar,Munger,"Town Hall, Munger - BSPCB",28-12-2025 08:00:00,25.376776,86.471523,CO,18,87,30
India,Bihar,Munger,"Town Hall, Munger - BSPCB",28-12-2025 08:00:00,25.376776,86.471523,OZONE,14,23,16
India,Bihar,Muzaffarpur,"Buddha Colony, Muzaffarpur - BSPCB",28-12-2025 08:00:00,26.11442,85.39813,PM10,49,96,74
India,Bihar,Muzaffarpur,"MIT-Daudpur Kothi, Muzaffarpur - BSPCB",28-12-2025 08:00:00,26.1403345,85.3650192,OZONE,17,37,27
India,Bihar,Muzaffarpur,"Muzaffarpur Collectorate, Muzaffarpur - BSPCB",28-12-2025 08:00:00,26.1209,85.3647,SO2,5,6,5
India,Bihar,Sasaram,"Dada Peer, Sasaram - BSPCB",28-12-2025 08:00:00,24.952822,84.002396,CO,48,55,52
India,Bihar,Siwan,"Chitragupta Nagar, Siwan - BSPCB",28-12-2025 08:00:00,26.2271665,84.3570427,PM2.5,NA,NA,NA
India,Bihar,Siwan,"Chitragupta Nagar, Siwan - BSPCB",28-12-2025 08:00:00,26.2271665,84.3570427,PM10,NA,NA,NA
India,Bihar,Siwan,"Chitragupta Nagar, Siwan - BSPCB",28-12-2025 08:00:00,26.2271665,84.3570427,OZONE,NA,NA,NA
India,Chandigarh,Chandigarh,"Sector 22, Chandigarh - CPCC",28-12-2025 08:00:00,30.735567,76.775714,PM2.5,95,309,210
India,Chandigarh,Chandigarh,"Sector-25, Chandigarh - CPCC",28-12-2025 08:00:00,30.751462,76.762879,CO,36,88,56
India,Chandigarh,Chandigarh,"Sector-25, Chandigarh - CPCC",28-12-2025 08:00:00,30.751462,76.762879,OZONE,1,39,1
India,Bihar,Patna,"DRM Office Danapur, Patna - BSPCB",28-12-2025 08:00:00,25.586562,85.043586,PM10,80,123,105
India,Bihar,Patna,"DRM Office Danapur, Patna - BSPCB",28-12-2025 08:00:00,25.586562,85.043586,NO2,28,68,43
India,Bihar,Patna,"DRM Office Danapur, Patna - BSPCB",28-12-2025 08:00:00,25.586562,85.043586,OZONE,34,51,48
India,Bihar,Patna,"Govt. High School Shikarpur, Patna - BSPCB",28-12-2025 08:00:00,25.592539,85.227158,PM2.5,91,262,191
India,Bihar,Patna,"IGSC Planetarium Complex, Patna - BSPCB",28-12-2025 08:00:00,25.610369,85.132568,CO,78,80,80
India,Bihar,Patna,"IGSC Planetarium Complex, Patna - BSPCB",28-12-2025 08:00:00,25.610369,85.132568,OZONE,28,30,29
India,Bihar,Patna,"Muradpur, Patna - BSPCB",28-12-2025 08:00:00,25.619651,85.147382,PM2.5,79,196,137
India,Bihar,Patna,"Muradpur, Patna - BSPCB",28-12-2025 08:00:00,25.619651,85.147382,SO2,7,10,9
India,Bihar,Patna,"Muradpur, Patna - BSPCB",28-12-2025 08:00:00,25.619651,85.147382,CO,32,90,52
India,Bihar,Patna,"Rajbansi Nagar, Patna - BSPCB",28-12-2025 08:00:00,25.599486,85.113666,PM10,58,133,104
India,Bihar,Patna,"Samanpura, Patna - BSPCB",28-12-2025 08:00:00,25.596727,85.085624,PM10,78,113,98
India,Bihar,Purnia,"Mariam Nagar, Purnia - BSPCB",28-12-2025 08:00:00,25.366336,87.117468,PM2.5,42,85,67
India,Bihar,Purnia,"Mariam Nagar, Purnia - BSPCB",28-12-2025 08:00:00,25.366336,87.117468,NO2,5,6,6
India,Bihar,Katihar,"Mirchaibari, Katihar - BSPCB",28-12-2025 08:00:00,25.560083,87.553265,OZONE,6,15,6
India,Bihar,Kishanganj,"SDM Office_Khagra, Kishanganj - BSPCB",28-12-2025 08:00:00,26.0881305,87.93840336,OZONE,16,18,16
India,Bihar,Manguraha,"Forest Rest House, Manguraha - BSPCB",28-12-2025 08:00:00,27.308328,84.531742,PM2.5,58,250,111
India,Bihar,Manguraha,"Forest Rest House, Manguraha - BSPCB",28-12-2025 08:00:00,27.308328,84.531742,NO2,5,7,6
India,Bihar,Manguraha,"Forest Rest House, Manguraha - BSPCB",28-12-2025 08:00:00,27.308328,84.531742,CO,32,34,32
India,Chhattisgarh,Bhilai,"Hathkhoj, Bhilai - CECB",28-12-2025 08:00:00,21.224231,81.408350,SO2,12,109,41
India,Chhattisgarh,Bhilai,"Hathkhoj, Bhilai - CECB",28-12-2025 08:00:00,21.224231,81.408350,CO,20,122,45
India,Chhattisgarh,Bhilai,"Hathkhoj, Bhilai - CECB",28-12-2025 08:00:00,21.224231,81.408350,OZONE,2,10,4
India,Chhattisgarh,Bilaspur,"Mangala, Bilaspur - NTPC",28-12-2025 08:00:00,22.08815,82.13737,PM10,55,135,94
India,Chhattisgarh,Korba,"Rampur, Korba - CECB",28-12-2025 08:00:00,22.368195,82.746431,CO,28,38,33
India,Chhattisgarh,Korba,"Urja Nagar, Korba - CECB",28-12-2025 08:00:00,22.348441,82.549611,OZONE,28,35,29
India,Chhattisgarh,Milupara,"Govt. Higher Secondary School, Milupara - CECB",28-12-2025 08:00:00,22.1910172,83.5197009,NO2,NA,NA,NA
India,Chhattisgarh,Milupara,"Govt. Higher Secondary School, Milupara - CECB",28-12-2025 08:00:00,22.1910172,83.5197009,NH3,NA,NA,NA
India,Chhattisgarh,Milupara,"Govt. Higher Secondary School, Milupara - CECB",28-12-2025 08:00:00,22.1910172,83.5197009,SO2,NA,NA,NA
India,Chhattisgarh,Bhilai,"32Bungalows, Bhilai - CECB",28-12-2025 08:00:00,21.194815,81.314770,SO2,6,58,15
India,Chhattisgarh,Bhilai,"Civic Center, Bhilai - Bhilai Steel Plant",28-12-2025 08:00:00,21.185571,81.343175,PM2.5,21,102,63
India,Chhattisgarh,Bhilai,"Hathkhoj, Bhilai - CECB",28-12-2025 08:00:00,21.224231,81.408350,NO2,22,84,47
India,Bihar,Rajgir,"Dangi Tola, Rajgir - BSPCB",28-12-2025 08:00:00,25.03280,85.41948,NO2,8,11,9
India,Bihar,Samastipur,"DM Office_Kasipur, Samastipur - BSPCB",28-12-2025 08:00:00,25.859655,85.77944,PM2.5,37,140,88
India,Bihar,Samastipur,"DM Office_Kasipur, Samastipur - BSPCB",28-12-2025 08:00:00,25.859655,85.77944,SO2,22,30,27
India,Delhi,Delhi,"Dwarka-Sector 8, Delhi - DPCC ",28-12-2025 08:00:00,28.5710274,77.0719006,SO2,24,40,31
India,Delhi,Delhi,"Dwarka-Sector 8, Delhi - DPCC ",28-12-2025 08:00:00,28.5710274,77.0719006,CO,59,176,105
India,Delhi,Delhi,"IHBAS, Dilshad Garden, Delhi - CPCB",28-12-2025 08:00:00,28.6811736,77.3025234,PM2.5,305,443,382
India,Delhi,Delhi,"IHBAS, Dilshad Garden, Delhi - CPCB",28-12-2025 08:00:00,28.6811736,77.3025234,NH3,13,34,16
India,Delhi,Delhi,"IIT Delhi, Delhi - IITM",28-12-2025 08:00:00,28.542460,77.191651,PM2.5,186,405,339
India,Delhi,Delhi,"IIT Delhi, Delhi - IITM",28-12-2025 08:00:00,28.542460,77.191651,PM10,146,295,230
India,Delhi,Delhi,"IIT Delhi, Delhi - IITM",28-12-2025 08:00:00,28.542460,77.191651,CO,27,104,94
India,Delhi,Delhi,"ITO, Delhi - CPCB",28-12-2025 08:00:00,28.628624,77.241060,NO2,42,157,95
India,Chhattisgarh,Tumidih,"OP Jindal Industrial Park, Tumidih - CECB",28-12-2025 08:00:00,22.06631475,83.33820077,OZONE,4,140,7
India,Delhi,Delhi,"Alipur, Delhi - DPCC",28-12-2025 08:00:00,28.815329,77.153010,PM2.5,230,500,398
India,Delhi,Delhi,"Alipur, Delhi - DPCC",28-12-2025 08:00:00,28.815329,77.153010,NH3,1,2,1
India,Delhi,Delhi,"Anand Vihar, Delhi - DPCC",28-12-2025 08:00:00,28.647622,77.3158090,PM2.5,325,500,445
India,Delhi,Delhi,"Anand Vihar, Delhi - DPCC",28-12-2025 08:00:00,28.647622,77.3158090,PM10,257,500,420
India,Delhi,Delhi,"Anand Vihar, Delhi - DPCC",28-12-2025 08:00:00,28.647622,77.3158090,CO,63,157,148
India,Delhi,Delhi,"Ashok Vihar, Delhi - DPCC",28-12-2025 08:00:00,28.695381,77.181665,NO2,37,132,70
India,Delhi,Delhi,"Aya Nagar, Delhi - IMD",28-12-2025 08:00:00,28.4706914,77.1099364,PM2.5,266,416,344
India,Delhi,Delhi,"Aya Nagar, Delhi - IMD",28-12-2025 08:00:00,28.4706914,77.1099364,NO2,26,115,58
India,Delhi,Delhi,"Bawana, Delhi - DPCC",28-12-2025 08:00:00,28.776200,77.051074,NH3,9,14,11
India,Delhi,Delhi,"Burari Crossing, Delhi - IMD",28-12-2025 08:00:00,28.7256504,77.2011573,PM10,158,453,318
India,Delhi,Delhi,"Burari Crossing, Delhi - IMD",28-12-2025 08:00:00,28.7256504,77.2011573,OZONE,11,90,13
India,Delhi,Delhi,"CRRI Mathura Road, Delhi - IMD",28-12-2025 08:00:00,28.5512005,77.2735737,CO,36,141,126
India,Chhattisgarh,Raipur,"AIIMS, Raipur - CECB",28-12-2025 08:00:00,21.258815,81.578979,CO,37,101,78
India,Chhattisgarh,Raipur,"Bhatagaon New ISBT, Raipur - CECB",28-12-2025 08:00:00,21.219665,81.630094,NO2,NA,NA,NA
India,Chhattisgarh,Raipur,"Krishak Nagar, Raipur - CECB",28-12-2025 08:00:00,21.237755,81.705301,SO2,2,19,5
India,Chhattisgarh,Raipur,"Siltara Phase-II, Raipur - CECB",28-12-2025 08:00:00,21.371751,81.664929,NO2,30,39,34
India,Chhattisgarh,Raipur,"Siltara Phase-II, Raipur - CECB",28-12-2025 08:00:00,21.371751,81.664929,CO,34,36,35
India,Chhattisgarh,Raipur,"Siltara Phase-II, Raipur - CECB",28-12-2025 08:00:00,21.371751,81.664929,OZONE,3,3,3
India,Delhi,Delhi,"Jahangirpuri, Delhi - DPCC",28-12-2025 08:00:00,28.732820,77.170633,NH3,1,5,3
India,Delhi,Delhi,"Jahangirpuri, Delhi - DPCC",28-12-2025 08:00:00,28.732820,77.170633,SO2,10,34,19
India,Delhi,Delhi,"Jawaharlal Nehru Stadium, Delhi - DPCC",28-12-2025 08:00:00,28.580280,77.233829,PM10,186,444,344
India,Delhi,Delhi,"Jawaharlal Nehru Stadium, Delhi - DPCC",28-12-2025 08:00:00,28.580280,77.233829,NO2,45,139,80
India,Delhi,Delhi,"Lodhi Road, Delhi - IMD",28-12-2025 08:00:00,28.5918245,77.2273074,PM2.5,228,411,339
India,Delhi,Delhi,"NSIT Dwarka, Delhi - CPCB",28-12-2025 08:00:00,28.60909,77.0325413,PM10,105,334,200
India,Delhi,Delhi,"Narela, Delhi - DPCC",28-12-2025 08:00:00,28.822836,77.101981,CO,50,106,88
India,Delhi,Delhi,"Nehru Nagar, Delhi - DPCC",28-12-2025 08:00:00,28.567890,77.250515,PM2.5,333,500,431
India,Delhi,Delhi,"DTU, Delhi - CPCB",28-12-2025 08:00:00,28.7500499,77.1112615,NO2,33,72,63
India,Delhi,Delhi,"Dr. Karni Singh Shooting Range, Delhi - DPCC",28-12-2025 08:00:00,28.498571,77.264840,NO2,52,134,93
India,Delhi,Delhi,"Mandir Marg, Delhi - DPCC",28-12-2025 08:00:00,28.636429,77.201067,CO,16,123,105
India,Delhi,Delhi,"NSIT Dwarka, Delhi - CPCB",28-12-2025 08:00:00,28.60909,77.0325413,PM2.5,85,419,209
India,Delhi,Delhi,"Ashok Vihar, Delhi - DPCC",28-12-2025 08:00:00,28.695381,77.181665,NH3,8,9,8
India,Delhi,Delhi,"Ashok Vihar, Delhi - DPCC",28-12-2025 08:00:00,28.695381,77.181665,SO2,5,24,13
India,Haryana,Bhiwani,"H.B. Colony, Bhiwani - HSPCB",28-12-2025 08:00:00,28.806223,76.141105,PM10,90,127,103
India,Haryana,Bhiwani,"H.B. Colony, Bhiwani - HSPCB",28-12-2025 08:00:00,28.806223,76.141105,NO2,1,34,31
India,Haryana,Bhiwani,"H.B. Colony, Bhiwani - HSPCB",28-12-2025 08:00:00,28.806223,76.141105,OZONE,6,19,15
India,Haryana,Charkhi Dadri,"Mini Secretariat, Charkhi Dadri - HSPCB",28-12-2025 08:00:00,28.593883,76.270653,OZONE,14,17,15
India,Haryana,Dharuhera,"Municipal Corporation Office, Dharuhera -  HSPCB",28-12-2025 08:00:00,28.206800,76.799700,PM10,171,500,317
India,Haryana,Dharuhera,"Municipal Corporation Office, Dharuhera -  HSPCB",28-12-2025 08:00:00,28.206800,76.799700,NH3,5,14,10
India,Gujarat,Ahmedabad,"Raikhad, Ahmedabad - IITM",28-12-2025 08:00:00,23.020509,72.579261,CO,11,80,23
India,Gujarat,Ahmedabad,"Rakhial, Ahmedabad - IITM",28-12-2025 08:00:00,23.016834,72.625775,PM10,80,173,124
India,Gujarat,Ahmedabad,"Rakhial, Ahmedabad - IITM",28-12-2025 08:00:00,23.016834,72.625775,OZONE,6,81,37
India,Gujarat,Ahmedabad,"SAC ISRO Bopal, Ahmedabad - IITM",28-12-2025 08:00:00,23.041137,72.456691,PM2.5,83,200,151
India,Gujarat,Ahmedabad,"SAC ISRO Bopal, Ahmedabad - IITM",28-12-2025 08:00:00,23.041137,72.456691,CO,8,33,26
India,Gujarat,Ahmedabad,"SAC ISRO Satellite, Ahmedabad - IITM",28-12-2025 08:00:00,23.023389,72.515201,PM2.5,37,95,66
India,Gujarat,Ahmedabad,"SAC ISRO Satellite, Ahmedabad - IITM",28-12-2025 08:00:00,23.023389,72.515201,SO2,8,76,19
India,Gujarat,Ahmedabad,"SVPI Airport Hansol, Ahmedabad - IITM",28-12-2025 08:00:00,23.076793,72.627874,SO2,5,14,8
India,Gujarat,Ankleshwar,"GIDC, Ankleshwar - GPCB",28-12-2025 08:00:00,21.613267,73.010555,OZONE,32,38,34
India,Gujarat,Gandhinagar,"GIFT City, Gandhinagar - IITM",28-12-2025 08:00:00,23.163798,72.677768,NH3,3,11,6
India,Gujarat,Gandhinagar,"GIFT City, Gandhinagar - IITM",28-12-2025 08:00:00,23.163798,72.677768,SO2,6,13,9
India,Delhi,Delhi,"Wazirpur, Delhi - DPCC",28-12-2025 08:00:00,28.699793,77.165453,OZONE,24,48,38
India,Gujarat,Ahmedabad,"Chandkheda, Ahmedabad - IITM",28-12-2025 08:00:00,23.107969,72.574648,PM10,87,167,115
India,Gujarat,Ahmedabad,"Chandkheda, Ahmedabad - IITM",28-12-2025 08:00:00,23.107969,72.574648,OZONE,6,61,21
India,Gujarat,Ahmedabad,"Gyaspur, Ahmedabad - IITM",28-12-2025 08:00:00,22.977134,72.553024,NH3,4,17,10
India,Gujarat,Ahmedabad,"Maninagar, Ahmedabad - GPCB",28-12-2025 08:00:00,23.002657,72.591912,NO2,64,64,64
India,Delhi,Delhi,"Sonia Vihar, Delhi - DPCC",28-12-2025 08:00:00,28.710508,77.249485,NO2,27,78,42
India,Delhi,Delhi,"Sonia Vihar, Delhi - DPCC",28-12-2025 08:00:00,28.710508,77.249485,SO2,1,11,4
India,Delhi,Delhi,"Vivek Vihar, Delhi - DPCC",28-12-2025 08:00:00,28.672342,77.315260,PM2.5,327,479,428
India,Delhi,Delhi,"Vivek Vihar, Delhi - DPCC",28-12-2025 08:00:00,28.672342,77.315260,OZONE,2,126,3
India,Delhi,Delhi,"Wazirpur, Delhi - DPCC",28-12-2025 08:00:00,28.699793,77.165453,PM2.5,316,500,437
India,Delhi,Delhi,"R K Puram, Delhi - DPCC",28-12-2025 08:00:00,28.563262,77.186937,SO2,8,59,26
India,Delhi,Delhi,"Rohini, Delhi - DPCC",28-12-2025 08:00:00,28.732528,77.119920,PM2.5,323,500,429
India,Delhi,Delhi,"Shadipur, Delhi - CPCB",28-12-2025 08:00:00,28.6514781,77.1473105,NO2,36,105,64
India,Delhi,Delhi,"Sirifort, Delhi - CPCB",28-12-2025 08:00:00,28.5504249,77.2159377,NH3,NA,NA,NA
India,Gujarat,Gandhinagar,"Sector-10, Gandhinagar - GPCB",28-12-2025 08:00:00,23.221714,72.654328,PM2.5,50,88,68
India,Gujarat,Gandhinagar,"Sector-10, Gandhinagar - GPCB",28-12-2025 08:00:00,23.221714,72.654328,CO,32,50,37
India,Gujarat,Vapi,"Phase-1 GIDC, Vapi - GPCB",28-12-2025 08:00:00,20.362421,72.918013,NO2,1,6,3
India,Delhi,Delhi,"Pusa, Delhi - DPCC",28-12-2025 08:00:00,28.639652,77.146275,PM10,227,441,328
India,Delhi,Delhi,"Pusa, Delhi - DPCC",28-12-2025 08:00:00,28.639652,77.146275,CO,56,103,89
India,Haryana,Ambala,"Patti Mehar, Ambala - HSPCB",28-12-2025 08:00:00,30.379589,76.778328,PM2.5,71,269,141
India,Haryana,Rohtak,"MD University, Rohtak - HSPCB",28-12-2025 08:00:00,28.52123,76.37138,OZONE,39,40,39
India,Haryana,Sirsa,"F-Block, Sirsa - HSPCB",28-12-2025 08:00:00,29.536400,75.015800,PM2.5,75,268,164
India,Haryana,Sirsa,"F-Block, Sirsa - HSPCB",28-12-2025 08:00:00,29.536400,75.015800,PM10,71,150,115
India,Haryana,Sirsa,"F-Block, Sirsa - HSPCB",28-12-2025 08:00:00,29.536400,75.015800,SO2,5,19,12
India,Himachal Pradesh,Baddi,"HIMUDA Complex Phase-1, Baddi - HPPCB",28-12-2025 08:00:00,30.943887,76.801991,PM10,127,374,222
India,Jammu_and_Kashmir,Srinagar,"Khunmoh, Srinagar - JKPCC",28-12-2025 08:00:00,34.06313,74.96017,PM2.5,82,146,104
India,Haryana,Faridabad,"New Industrial Town, Faridabad - HSPCB",28-12-2025 08:00:00,28.39072,77.30059,NO2,24,26,25
India,Haryana,Faridabad,"Sector 11, Faridabad - HSPCB",28-12-2025 08:00:00,28.376058,77.315741,OZONE,15,16,15
India,Haryana,Faridabad,"Sector 30, Faridabad - HSPCB",28-12-2025 08:00:00,28.4417,77.3217,NH3,10,12,11
India,Haryana,Faridabad,"Sector 30, Faridabad - HSPCB",28-12-2025 08:00:00,28.4417,77.3217,OZONE,17,19,18
India,Haryana,Fatehabad,"Huda Sector, Fatehabad - HSPCB",28-12-2025 08:00:00,29.503664,75.467934,PM2.5,91,314,178
India,Haryana,Fatehabad,"Huda Sector, Fatehabad - HSPCB",28-12-2025 08:00:00,29.503664,75.467934,PM10,125,296,175
India,Haryana,Gurugram,"NISE Gwal Pahari, Gurugram - IMD",28-12-2025 08:00:00,28.422681,77.148944,CO,38,111,107
India,Haryana,Gurugram,"NISE Gwal Pahari, Gurugram - IMD",28-12-2025 08:00:00,28.422681,77.148944,OZONE,6,57,7
India,Haryana,Gurugram,"Sector-51, Gurugram - HSPCB",28-12-2025 08:00:00,28.4227,77.0667,NH3,6,10,8
India,Haryana,Gurugram,"Teri Gram, Gurugram - HSPCB",28-12-2025 08:00:00,28.4275,77.1465,CO,50,98,85
India,Haryana,Gurugram,"Vikas Sadan, Gurugram - HSPCB",28-12-2025 08:00:00,28.4501238,77.0263051,PM2.5,191,373,314
India,Haryana,Gurugram,"Vikas Sadan, Gurugram - HSPCB",28-12-2025 08:00:00,28.4501238,77.0263051,SO2,2,8,5
India,Haryana,Palwal,"Shyam Nagar, Palwal - HSPCB",28-12-2025 08:00:00,28.1485564,77.3320667,PM2.5,66,115,88
India,Haryana,Palwal,"Shyam Nagar, Palwal - HSPCB",28-12-2025 08:00:00,28.1485564,77.3320667,NH3,8,9,9
India,Haryana,Panchgaon,"Amity University, Panchgaon - IITM",28-12-2025 08:00:00,28.3153,76.9143,SO2,2,21,8
India,Haryana,Panchkula,"Sector-6, Panchkula - HSPCB ",28-12-2025 08:00:00,30.7057778,76.8531805555555,PM2.5,NA,NA,NA
India,Haryana,Rohtak,"MD University, Rohtak - HSPCB",28-12-2025 08:00:00,28.52123,76.37138,PM10,42,479,158
India,Jharkhand,Dhanbad,"Sardar Patel Nagar, Dhanbad - JSPCB",28-12-2025 08:00:00,23.80569,86.44268,PM10,86,304,164
India,Karnataka,Bagalkot,"Vidayagiri, Bagalkot - KSPCB",28-12-2025 08:00:00,16.172806,75.659694,PM10,NA,NA,NA
India,Karnataka,Belgaum,"Ramteerth Nagar, Belgaum - KSPCB",28-12-2025 08:00:00,15.888653,74.541751,PM10,52,129,91
India,Karnataka,Belgaum,"Ramteerth Nagar, Belgaum - KSPCB",28-12-2025 08:00:00,15.888653,74.541751,CO,4,8,5
India,Karnataka,Belgaum,"Ramteerth Nagar, Belgaum - KSPCB",28-12-2025 08:00:00,15.888653,74.541751,OZONE,19,20,19
India,Haryana,Kurukshetra,"Sector-7, Kurukshetra - HSPCB",28-12-2025 08:00:00,29.966942,76.875879,NH3,5,5,5
India,Haryana,Kurukshetra,"Sector-7, Kurukshetra - HSPCB",28-12-2025 08:00:00,29.966942,76.875879,CO,30,102,51
India,Haryana,Mandikhera,"General Hospital, Mandikhera(Nuh) - HSPCB",28-12-2025 08:00:00,27.9002,76.9938,NO2,20,24,22
India,Haryana,Manesar,"Sector-2 IMT, Manesar - HSPCB",28-12-2025 08:00:00,28.360699,76.936090,NO2,21,56,50
India,Haryana,Jind,"Police Lines, Jind - HSPCB",28-12-2025 08:00:00,29.307814,76.337619,CO,3,112,24
India,Haryana,Kaithal,"Rishi Nagar, Kaithal - HSPCB",28-12-2025 08:00:00,29.8006,76.4155,OZONE,3,19,5
India,Haryana,Karnal,"Sector-12, Karnal - HSPCB",28-12-2025 08:00:00,29.695300,77.002700,PM2.5,216,313,267
India,Karnataka,Bengaluru,"BWSSB Kadabesanahalli, Bengaluru - CPCB",28-12-2025 08:00:00,12.9352049,77.6814488,SO2,2,23,8
India,Karnataka,Bengaluru,"Hebbal, Bengaluru - KSPCB",28-12-2025 08:00:00,13.029152,77.585901,PM2.5,68,203,96
India,Karnataka,Bengaluru,"Hebbal, Bengaluru - KSPCB",28-12-2025 08:00:00,13.029152,77.585901,NO2,6,9,7
India,Karnataka,Bengaluru,"Hombegowda Nagar, Bengaluru - KSPCB",28-12-2025 08:00:00,12.938539,77.590100,CO,15,46,18
India,Karnataka,Bengaluru,"Jayanagar 5th Block, Bengaluru - KSPCB",28-12-2025 08:00:00,12.920984,77.584908,SO2,1,19,8
India,Karnataka,Bengaluru,"Jayanagar 5th Block, Bengaluru - KSPCB",28-12-2025 08:00:00,12.920984,77.584908,CO,8,47,12
India,Madhya Pradesh,Gwalior,"Maharaj Bada, Gwalior - MPPCB",28-12-2025 08:00:00,26.200388,78.147714,OZONE,19,57,20
India,Madhya Pradesh,Indore,"Airport Area, Indore - IMC",28-12-2025 08:00:00,22.7289,75.8076,SO2,18,18,18
India,Madhya Pradesh,Indore,"Chhoti Gwaltoli, Indore - MPPCB",28-12-2025 08:00:00,22.4310,75.5213,PM2.5,60,176,95
India,Madhya Pradesh,Indore,"Chhoti Gwaltoli, Indore - MPPCB",28-12-2025 08:00:00,22.4310,75.5213,OZONE,11,78,33
India,Madhya Pradesh,Indore,"Regional Park, Indore - IMC",28-12-2025 08:00:00,22.6780,75.8559,CO,NA,NA,NA
India,Madhya Pradesh,Jabalpur,"Govindh Bhavan Colony, Jabalpur - JMC",28-12-2025 08:00:00,23.163174,79.973061,PM2.5,17,60,33
India,Madhya Pradesh,Jabalpur,"Govindh Bhavan Colony, Jabalpur - JMC",28-12-2025 08:00:00,23.163174,79.973061,NH3,1,1,1
India,Madhya Pradesh,Jabalpur,"Gupteshwar, Jabalpur - JMC",28-12-2025 08:00:00,23.142888,79.916147,PM2.5,22,209,72
India,Madhya Pradesh,Jabalpur,"Gupteshwar, Jabalpur - JMC",28-12-2025 08:00:00,23.142888,79.916147,PM10,38,159,79
India,Madhya Pradesh,Jabalpur,"Gupteshwar, Jabalpur - JMC",28-12-2025 08:00:00,23.142888,79.916147,OZONE,1,62,2
India,Madhya Pradesh,Jabalpur,"Marhatal, Jabalpur - MPPCB",28-12-2025 08:00:00,23.168606,79.932247,NO2,9,51,24
India,Madhya Pradesh,Jabalpur,"Marhatal, Jabalpur - MPPCB",28-12-2025 08:00:00,23.168606,79.932247,OZONE,2,167,3
India,Madhya Pradesh,Jabalpur,"Suhagi, Jabalpur - JMC",28-12-2025 08:00:00,23.218135,79.957770,SO2,7,8,7
India,Madhya Pradesh,Jabalpur,"Suhagi, Jabalpur - JMC",28-12-2025 08:00:00,23.218135,79.957770,CO,28,107,49
India,Madhya Pradesh,Katni,"Gole Bazar, Katni - MPPCB",28-12-2025 08:00:00,23.50016,80.23284,PM10,42,197,115
India,Kerala,Thrissur,"Corporation Ground, Thrissur - Kerala PCB",28-12-2025 08:00:00,10.532400,76.215900,PM10,52,63,57
India,Kerala,Thrissur,"Corporation Ground, Thrissur - Kerala PCB",28-12-2025 08:00:00,10.532400,76.215900,NO2,8,10,9
India,Kerala,Thrissur,"Corporation Ground, Thrissur - Kerala PCB",28-12-2025 08:00:00,10.532400,76.215900,CO,26,34,30
India,Madhya Pradesh,Bhopal,"Paryavaran Parisar, Bhopal - MPPCB",28-12-2025 08:00:00,23.210494,77.425409,CO,8,114,30
India,Madhya Pradesh,Bhopal,"T T Nagar, Bhopal - MPPCB",28-12-2025 08:00:00,23.233584,77.400574,PM10,84,238,138
India,Madhya Pradesh,Damoh,"Shrivastav Colony, Damoh - MPPCB",28-12-2025 08:00:00,23.81748678,79.446246,PM2.5,7,43,16
India,Karnataka,Hubballi,"Lingaraj Nagar, Hubballi - KSPCB",28-12-2025 08:00:00,15.3714823,75.1160168,NO2,11,11,11
India,Karnataka,Hubballi,"Lingaraj Nagar, Hubballi - KSPCB",28-12-2025 08:00:00,15.3714823,75.1160168,SO2,1,3,2
India,Karnataka,Kalaburagi,"Mahatma Basaveswar Colony, Kalaburgi - KSPCB",28-12-2025 08:00:00,17.336318,76.847397,NO2,12,16,13
India,Karnataka,Kalaburagi,"Mahatma Basaveswar Colony, Kalaburgi - KSPCB",28-12-2025 08:00:00,17.336318,76.847397,NH3,3,3,3
India,Karnataka,Koppal,"Diwator Nagar, Koppal - KSPCB",28-12-2025 08:00:00,15.347630,76.181767,OZONE,1,7,2
India,Karnataka,Mangalore,"Kadri, Mangalore - KSPCB",28-12-2025 08:00:00,12.889250,74.853000,PM10,48,116,73
India,Karnataka,Mangalore,"Kadri, Mangalore - KSPCB",28-12-2025 08:00:00,12.889250,74.853000,OZONE,5,45,29
India,Karnataka,Mysuru,"Hebbal 1st Stage, Mysuru - KSPCB",28-12-2025 08:00:00,12.21041,76.37376,OZONE,5,95,13
India,Karnataka,Shivamogga,"Vinoba Nagara, Shivamogga - KSPCB",28-12-2025 08:00:00,13.940000,75.555917,OZONE,7,72,16
