country,state,city,station,last_update,latitude,longitude,pollutant_id,min_value,max_value,avg_value
India,Andhra_Pradesh,Amaravati,"Secretariat, Amaravati - APPCB",25-03-2026 08:00:00,16.5150833,80.5181667,PM10,29,96,49
India,Andhra_Pradesh,Amaravati,"Secretariat, Amaravati - APPCB",25-03-2026 08:00:00,16.5150833,80.5181667,NO2,7,12,9
India,Andhra_Pradesh,Amaravati,"Secretariat, Amaravati - APPCB",25-03-2026 08:00:00,16.5150833,80.5181667,CO,4,33,12
India,Andhra_Pradesh,Anantapur,"Gulzarpet, Anantapur - APPCB",25-03-2026 08:00:00,14.675886,77.593027,PM2.5,55,79,64
India,Andhra_Pradesh,Anantapur,"Gulzarpet, Anantapur - APPCB",25-03-2026 08:00:00,14.675886,77.593027,SO2,4,12,6
India,Andhra_Pradesh,Anantapur,"Gulzarpet, Anantapur - APPCB",25-03-2026 08:00:00,14.675886,77.593027,OZONE,28,59,33
India,Andhra_Pradesh,Chittoor,"Gangineni Cheruvu, Chittoor - APPCB",25-03-2026 08:00:00,13.204880,79.097889,NH3,6,7,6
India,Andhra_Pradesh,Eluru,"District Court, Eluru - APPCB",25-03-2026 08:00:00,16.711754,81.092095,PM2.5,36,65,47
India,Andhra_Pradesh,Eluru,"District Court, Eluru - APPCB",25-03-2026 08:00:00,16.711754,81.092095,PM10,29,73,46
India,Andhra_Pradesh,Eluru,"District Court, Eluru - APPCB",25-03-2026 08:00:00,16.711754,81.092095,CO,14,50,23
India,Andhra_Pradesh,Guntur,"Rajendra Nagar North, Guntur - APPCB",25-03-2026 08:00:00,16.316553,80.413302,PM2.5,47,65,58
India,Andhra_Pradesh,Guntur,"Rajendra Nagar North, Guntur - APPCB",25-03-2026 08:00:00,16.316553,80.413302,NO2,14,22,16
India,Andhra_Pradesh,Vijayawada,"HB Colony, Vijayawada - APPCB",25-03-2026 08:00:00,16.536107,80.594233,OZONE,17,44,35
India,Andhra_Pradesh,Vijayawada,"Kanuru, Vijayawada - APPCB",25-03-2026 08:00:00,16.486692,80.699436,PM10,41,110,63
India,Andhra_Pradesh,Vijayawada,"Kanuru, Vijayawada - APPCB",25-03-2026 08:00:00,16.486692,80.699436,NH3,4,6,4
India,Andhra_Pradesh,Vijayawada,"Kanuru, Vijayawada - APPCB",25-03-2026 08:00:00,16.486692,80.699436,SO2,4,25,19
India,Andhra_Pradesh,Vijayawada,"Rajiv Gandhi Park, Vijayawada - APPCB",25-03-2026 08:00:00,16.509717,80.612222,SO2,13,20,15
India,Andhra_Pradesh,Vijayawada,"Rajiv Gandhi Park, Vijayawada - APPCB",25-03-2026 08:00:00,16.509717,80.612222,OZONE,41,60,41
India,Andhra_Pradesh,Vijayawada,"Rajiv Nagar, Vijayawada - APPCB",25-03-2026 08:00:00,16.554731,80.649110,PM2.5,43,57,50
India,Andhra_Pradesh,Vijayawada,"Rajiv Nagar, Vijayawada - APPCB",25-03-2026 08:00:00,16.554731,80.649110,PM10,49,64,57
India,Andhra_Pradesh,Vijayawada,"Rajiv Nagar, Vijayawada - APPCB",25-03-2026 08:00:00,16.554731,80.649110,SO2,NA,NA,NA
India,Andhra_Pradesh,Vijayawada,"Rajiv Nagar, Vijayawada - APPCB",25-03-2026 08:00:00,16.554731,80.649110,OZONE,NA,NA,NA
India,Andhra_Pradesh,Visakhapatnam,"GVM Corporation, Visakhapatnam - APPCB",25-03-2026 08:00:00,17.72,83.3,OZONE,4,32,6
India,Andhra_Pradesh,Machilipatnam,"Srinivas Nagar Colony, Machilipatnam - APPCB",25-03-2026 08:00:00,16.186555,81.13219,NO2,5,32,17
India,Andhra_Pradesh,Nellore,"Ambedkar Nagar, Nellore - APPCB ",25-03-2026 08:00:00,14.438164 ,79.966814 ,NO2,14,24,17
India,Andhra_Pradesh,Nellore,"Ambedkar Nagar, Nellore - APPCB ",25-03-2026 08:00:00,14.438164 ,79.966814 ,CO,8,24,15
India,Andhra_Pradesh,Rajamahendravaram,"Anand Kala Kshetram, Rajamahendravaram - APPCB",25-03-2026 08:00:00,16.9872867,81.7363176,PM10,21,58,38
India,Andhra_Pradesh,Rajamahendravaram,"Anand Kala Kshetram, Rajamahendravaram - APPCB",25-03-2026 08:00:00,16.9872867,81.7363176,SO2,3,14,7
India,Andhra_Pradesh,Tirumala,"Toll Gate, Tirumala - APPCB",25-03-2026 08:00:00,13.67,79.35,SO2,1,14,5
India,Andhra_Pradesh,Tirupati,"Vaikuntapuram, Tirupati - APPCB",25-03-2026 08:00:00,13.615387,79.409230,SO2,10,22,15
India,Arunachal_Pradesh,Naharlagun,"Naharlagun, Naharlagun - APSPCB",25-03-2026 08:00:00,27.103358,93.679645,CO,4,17,8
India,Assam,Guwahati,"IITG, Guwahati - PCBA",25-03-2026 08:00:00,26.2028636,91.70046436,PM10,13,70,38
India,Assam,Guwahati,"IITG, Guwahati - PCBA",25-03-2026 08:00:00,26.2028636,91.70046436,NH3,4,5,5
India,Assam,Guwahati,"LGBI Airport, Guwahati - PCBA",25-03-2026 08:00:00,26.10887,91.589544,NO2,7,24,15
India,Assam,Guwahati,"LGBI Airport, Guwahati - PCBA",25-03-2026 08:00:00,26.10887,91.589544,SO2,6,21,12
India,Assam,Guwahati,"Pan Bazaar, Guwahati - PCBA",25-03-2026 08:00:00,26.187500,91.744194,OZONE,9,20,10
India,Assam,Nagaon,"Christianpatty, Nagaon - PCBA",25-03-2026 08:00:00,26.349082,92.68449,PM2.5,16,49,35
India,Bihar,Aurangabad,"Gurdeo Nagar, Aurangabad - BSPCB",25-03-2026 08:00:00,24.75746,84.366208,NH3,1,2,1
India,Bihar,Aurangabad,"Gurdeo Nagar, Aurangabad - BSPCB",25-03-2026 08:00:00,24.75746,84.366208,SO2,8,15,12
India,Bihar,Begusarai,"Lohiyanagar, Begusarai - BSPCB",25-03-2026 08:00:00,25.42742023,86.13886079,PM2.5,35,243,109
India,Bihar,Bettiah,"Kamalnath Nagar, Bettiah - BSPCB",25-03-2026 08:00:00,26.80365,84.51954,PM2.5,8,63,28
India,Bihar,Bettiah,"Kamalnath Nagar, Bettiah - BSPCB",25-03-2026 08:00:00,26.80365,84.51954,PM10,10,75,34
India,Bihar,Bhagalpur,"Mayaganj, Bhagalpur - BSPCB",25-03-2026 08:00:00,25.265194,87.012947,SO2,53,64,59
India,Bihar,Bhagalpur,"Mayaganj, Bhagalpur - BSPCB",25-03-2026 08:00:00,25.265194,87.012947,CO,80,98,89
India,Assam,Nagaon,"Christianpatty, Nagaon - PCBA",25-03-2026 08:00:00,26.349082,92.68449,SO2,9,13,12
India,Assam,Nalbari,"Bata Chowk, Nalbari - PCBA",25-03-2026 08:00:00,26.446912,91.439057,NH3,6,7,6
India,Assam,Silchar,"Tarapur, Silchar - PCBA",25-03-2026 08:00:00,24.82827,92.79525,OZONE,2,7,2
India,Bihar,Araria,"Kharahiya Basti, Araria - BSPCB",25-03-2026 08:00:00,26.146529,87.454184,OZONE,10,11,10
India,Bihar,Arrah,"New DM Office, Arrah - BSPCB",25-03-2026 08:00:00,25.5626095,84.663264,SO2,NA,NA,NA
India,Bihar,Arrah,"New DM Office, Arrah - BSPCB",25-03-2026 08:00:00,25.5626095,84.663264,CO,NA,NA,NA
India,Bihar,Chhapra,"Darshan Nagar, Chhapra - BSPCB",25-03-2026 08:00:00,25.7808257,84.7446768,PM2.5,22,87,45
India,Bihar,Chhapra,"Darshan Nagar, Chhapra - BSPCB",25-03-2026 08:00:00,25.7808257,84.7446768,PM10,30,115,63
India,Bihar,Chhapra,"Darshan Nagar, Chhapra - BSPCB",25-03-2026 08:00:00,25.7808257,84.7446768,CO,6,12,8
India,Bihar,Bihar Sharif,"D M Colony, Bihar Sharif - BSPCB",25-03-2026 08:00:00,25.204762,85.514960,PM10,18,81,35
India,Bihar,Bihar Sharif,"D M Colony, Bihar Sharif - BSPCB",25-03-2026 08:00:00,25.204762,85.514960,NO2,9,10,9
India,Andhra_Pradesh,Kadapa,"Yerramukkapalli, Kadapa - APPCB",25-03-2026 08:00:00,14.465052,78.824187,PM2.5,48,88,72
India,Andhra_Pradesh,Kadapa,"Yerramukkapalli, Kadapa - APPCB",25-03-2026 08:00:00,14.465052,78.824187,NO2,16,24,22
India,Bihar,Aurangabad,"Gurdeo Nagar, Aurangabad - BSPCB",25-03-2026 08:00:00,24.75746,84.366208,PM10,44,138,82
India,Bihar,Sasaram,"Dada Peer, Sasaram - BSPCB",25-03-2026 08:00:00,24.952822,84.002396,OZONE,13,35,22
India,Bihar,Siwan,"Chitragupta Nagar, Siwan - BSPCB",25-03-2026 08:00:00,26.2271665,84.3570427,NH3,1,1,1
India,Chandigarh,Chandigarh,"Sector 22, Chandigarh - CPCC",25-03-2026 08:00:00,30.735567,76.775714,PM2.5,40,257,81
India,Chandigarh,Chandigarh,"Sector 22, Chandigarh - CPCC",25-03-2026 08:00:00,30.735567,76.775714,PM10,48,136,80
India,Chandigarh,Chandigarh,"Sector-53, Chandigarh - CPCC",25-03-2026 08:00:00,30.719859,76.738637,NO2,14,72,31
India,Chandigarh,Chandigarh,"Sector-53, Chandigarh - CPCC",25-03-2026 08:00:00,30.719859,76.738637,CO,22,50,40
India,Chhattisgarh,Bhilai,"32Bungalows, Bhilai - CECB",25-03-2026 08:00:00,21.194815,81.314770,PM10,28,50,37
India,Chhattisgarh,Bhilai,"32Bungalows, Bhilai - CECB",25-03-2026 08:00:00,21.194815,81.314770,NO2,28,47,33
India,Bihar,Patna,"IGSC Planetarium Complex, Patna - BSPCB",25-03-2026 08:00:00,25.610369,85.132568,PM2.5,NA,NA,NA
India,Bihar,Patna,"IGSC Planetarium Complex, Patna - BSPCB",25-03-2026 08:00:00,25.610369,85.132568,OZONE,47,49,48
India,Bihar,Patna,"Muradpur, Patna - BSPCB",25-03-2026 08:00:00,25.619651,85.147382,CO,3,50,26
India,Bihar,Patna,"Rajbansi Nagar, Patna - BSPCB",25-03-2026 08:00:00,25.599486,85.113666,SO2,1,10,4
India,Bihar,Patna,"Rajbansi Nagar, Patna - BSPCB",25-03-2026 08:00:00,25.599486,85.113666,OZONE,7,12,10
India,Bihar,Patna,"Samanpura, Patna - BSPCB",25-03-2026 08:00:00,25.596727,85.085624,OZONE,76,194,194
India,Bihar,Kishanganj,"SDM Office_Khagra, Kishanganj - BSPCB",25-03-2026 08:00:00,26.0881305,87.93840336,CO,16,20,17
India,Bihar,Manguraha,"Forest Rest House, Manguraha - BSPCB",25-03-2026 08:00:00,27.308328,84.531742,PM2.5,42,302,71
India,Bihar,Manguraha,"Forest Rest House, Manguraha - BSPCB",25-03-2026 08:00:00,27.308328,84.531742,CO,31,33,32
India,Bihar,Motihari,"Gandak Colony, Motihari - BSPCB",25-03-2026 08:00:00,26.63086,84.90051,PM2.5,18,160,72
India,Bihar,Motihari,"Gandak Colony, Motihari - BSPCB",25-03-2026 08:00:00,26.63086,84.90051,SO2,3,3,3
India,Bihar,Saharsa,"Police Line, Saharsa - BSPCB",25-03-2026 08:00:00,25.892357,86.590325,CO,34,47,36
India,Bihar,Samastipur,"DM Office_Kasipur, Samastipur - BSPCB",25-03-2026 08:00:00,25.859655,85.77944,PM2.5,30,317,116
India,Bihar,Samastipur,"DM Office_Kasipur, Samastipur - BSPCB",25-03-2026 08:00:00,25.859655,85.77944,NO2,8,32,9
India,Bihar,Samastipur,"DM Office_Kasipur, Samastipur - BSPCB",25-03-2026 08:00:00,25.859655,85.77944,NH3,1,17,2
India,Bihar,Samastipur,"DM Office_Kasipur, Samastipur - BSPCB",25-03-2026 08:00:00,25.859655,85.77944,SO2,NA,NA,NA
India,Bihar,Munger,"Town Hall, Munger - BSPCB",25-03-2026 08:00:00,25.376776,86.471523,NO2,4,5,5
India,Bihar,Muzaffarpur,"Buddha Colony, Muzaffarpur - BSPCB",25-03-2026 08:00:00,26.11442,85.39813,CO,7,103,24
India,Bihar,Muzaffarpur,"Buddha Colony, Muzaffarpur - BSPCB",25-03-2026 08:00:00,26.11442,85.39813,OZONE,15,95,30
India,Bihar,Muzaffarpur,"MIT-Daudpur Kothi, Muzaffarpur - BSPCB",25-03-2026 08:00:00,26.1403345,85.3650192,NH3,1,1,1
India,Bihar,Purnia,"Mariam Nagar, Purnia - BSPCB",25-03-2026 08:00:00,25.366336,87.117468,NO2,5,6,6
India,Bihar,Purnia,"Mariam Nagar, Purnia - BSPCB",25-03-2026 08:00:00,25.366336,87.117468,NH3,2,2,2
India,Bihar,Purnia,"Mariam Nagar, Purnia - BSPCB",25-03-2026 08:00:00,25.366336,87.117468,CO,54,58,56
India,Bihar,Rajgir,"Dangi Tola, Rajgir - BSPCB",25-03-2026 08:00:00,25.03280,85.41948,CO,38,46,42
India,Bihar,Katihar,"Mirchaibari, Katihar - BSPCB",25-03-2026 08:00:00,25.560083,87.553265,PM10,20,274,80
India,Bihar,Katihar,"Mirchaibari, Katihar - BSPCB",25-03-2026 08:00:00,25.560083,87.553265,SO2,14,22,18
India,Bihar,Kishanganj,"SDM Office_Khagra, Kishanganj - BSPCB",25-03-2026 08:00:00,26.0881305,87.93840336,PM10,22,164,46
India,Bihar,Muzaffarpur,"MIT-Daudpur Kothi, Muzaffarpur - BSPCB",25-03-2026 08:00:00,26.1403345,85.3650192,CO,41,64,42
India,Bihar,Muzaffarpur,"Muzaffarpur Collectorate, Muzaffarpur - BSPCB",25-03-2026 08:00:00,26.1209,85.3647,PM2.5,60,130,92
India,Bihar,Gaya,"Kareemganj, Gaya - BSPCB",25-03-2026 08:00:00,24.792403,84.992416,PM10,90,350,176
India,Bihar,Hajipur,"Industrial Area, Hajipur - BSPCB",25-03-2026 08:00:00,25.697189,85.245900,PM10,36,179,99
India,Delhi,Delhi,"Dwarka-Sector 8, Delhi - DPCC ",25-03-2026 08:00:00,28.5710274,77.0719006,PM10,115,339,198
India,Delhi,Delhi,"IGI Airport (T3), Delhi - IMD",25-03-2026 08:00:00,28.5627763,77.1180053,PM2.5,53,267,130
India,Delhi,Delhi,"IGI Airport (T3), Delhi - IMD",25-03-2026 08:00:00,28.5627763,77.1180053,CO,27,71,62
India,Delhi,Delhi,"IGNOU_Maidan Garhi, Delhi - DPCC",25-03-2026 08:00:00,28.493624 ,77.201159 ,PM10,67,335,157
India,Delhi,Delhi,"IGNOU_Maidan Garhi, Delhi - DPCC",25-03-2026 08:00:00,28.493624 ,77.201159 ,SO2,57,59,58
India,Delhi,Delhi,"IHBAS, Dilshad Garden, Delhi - CPCB",25-03-2026 08:00:00,28.6811736,77.3025234,PM2.5,28,304,77
India,Delhi,Delhi,"IIT Delhi, Delhi - IITM",25-03-2026 08:00:00,28.542460,77.191651,PM2.5,50,221,103
India,Delhi,Delhi,"IIT Delhi, Delhi - IITM",25-03-2026 08:00:00,28.542460,77.191651,CO,38,82,69
India,Delhi,Delhi,"ITO, Delhi - CPCB",25-03-2026 08:00:00,28.628624,77.241060,PM2.5,51,248,107
India,Delhi,Delhi,"ITO, Delhi - CPCB",25-03-2026 08:00:00,28.628624,77.241060,SO2,11,35,25
India,Delhi,Delhi,"Ashok Vihar, Delhi - DPCC",25-03-2026 08:00:00,28.695381,77.181665,NO2,18,99,55
India,Delhi,Delhi,"Bawana, Delhi - DPCC",25-03-2026 08:00:00,28.776200,77.051074,PM2.5,58,465,241
India,Delhi,Delhi,"Bawana, Delhi - DPCC",25-03-2026 08:00:00,28.776200,77.051074,NH3,6,8,7
India,Delhi,Delhi,"Bawana, Delhi - DPCC",25-03-2026 08:00:00,28.776200,77.051074,SO2,9,89,24
India,Delhi,Delhi,"Burari Crossing, Delhi - IMD",25-03-2026 08:00:00,28.7256504,77.2011573,PM2.5,5,369,194
India,Delhi,Delhi,"Burari Crossing, Delhi - IMD",25-03-2026 08:00:00,28.7256504,77.2011573,CO,58,102,85
India,Delhi,Delhi,"Burari Crossing, Delhi - IMD",25-03-2026 08:00:00,28.7256504,77.2011573,OZONE,27,82,36
India,Delhi,Delhi,"CRRI Mathura Road, Delhi - IMD",25-03-2026 08:00:00,28.5512005,77.2735737,NO2,NA,NA,NA
India,Chhattisgarh,Bhilai,"32Bungalows, Bhilai - CECB",25-03-2026 08:00:00,21.194815,81.314770,NH3,1,2,1
India,Chhattisgarh,Bhilai,"Civic Center, Bhilai - Bhilai Steel Plant",25-03-2026 08:00:00,21.185571,81.343175,PM2.5,18,51,34
India,Chhattisgarh,Bhilai,"Hathkhoj, Bhilai - CECB",25-03-2026 08:00:00,21.224231,81.408350,SO2,20,75,38
India,Chhattisgarh,Chhal,"Nawapara SECL Colony, Chhal - CECB",25-03-2026 08:00:00,22.118125,83.140608,PM10,65,127,104
India,Chhattisgarh,Raipur,"Siltara Phase-II, Raipur - CECB",25-03-2026 08:00:00,21.371751,81.664929,PM10,47,145,94
India,Chhattisgarh,Raipur,"Siltara Phase-II, Raipur - CECB",25-03-2026 08:00:00,21.371751,81.664929,NO2,16,46,23
India,Chhattisgarh,Raipur,"Siltara Phase-II, Raipur - CECB",25-03-2026 08:00:00,21.371751,81.664929,NH3,2,2,2
India,Chhattisgarh,Tumidih,"OP Jindal Industrial Park, Tumidih - CECB",25-03-2026 08:00:00,22.06631475,83.33820077,PM2.5,45,305,100
India,Chhattisgarh,Korba,"Urja Nagar, Korba - CECB",25-03-2026 08:00:00,22.348441,82.549611,SO2,2,22,13
India,Chhattisgarh,Korba,"Urja Nagar, Korba - CECB",25-03-2026 08:00:00,22.348441,82.549611,OZONE,2,45,2
India,Chhattisgarh,Kunjemura,"OP Jindal School, Kunjemura - CECB",25-03-2026 08:00:00,22.126650,83.483212,CO,25,78,56
India,Chhattisgarh,Raipur,"Bhatagaon New ISBT, Raipur - CECB",25-03-2026 08:00:00,21.219665,81.630094,NO2,30,57,42
India,Delhi,Delhi,"Cantonment Area, Delhi - DPCC ",25-03-2026 08:00:00,28.594169 ,77.125100 ,PM10,62,223,139
India,Delhi,Delhi,"Cantonment Area, Delhi - DPCC ",25-03-2026 08:00:00,28.594169 ,77.125100 ,OZONE,1,44,2
India,Delhi,Delhi,"DTU, Delhi - CPCB",25-03-2026 08:00:00,28.7500499,77.1112615,CO,12,99,30
India,Chhattisgarh,Raipur,"Siltara Phase-II, Raipur - CECB",25-03-2026 08:00:00,21.371751,81.664929,PM2.5,40,120,64
India,Chhattisgarh,Raipur,"Krishak Nagar, Raipur - CECB",25-03-2026 08:00:00,21.237755,81.705301,NH3,2,2,2
India,Delhi,Delhi,"Anand Vihar, Delhi - DPCC",25-03-2026 08:00:00,28.647622,77.3158090,PM10,103,409,247
India,Delhi,Delhi,"Mandir Marg, Delhi - DPCC",25-03-2026 08:00:00,28.636429,77.201067,SO2,5,43,29
India,Delhi,Delhi,"Mandir Marg, Delhi - DPCC",25-03-2026 08:00:00,28.636429,77.201067,OZONE,3,109,6
India,Delhi,Delhi,"Mundka, Delhi - DPCC",25-03-2026 08:00:00,28.684678,77.076574,PM2.5,50,455,238
India,Delhi,Delhi,"Mundka, Delhi - DPCC",25-03-2026 08:00:00,28.684678,77.076574,NO2,62,104,86
India,Delhi,Delhi,"Mundka, Delhi - DPCC",25-03-2026 08:00:00,28.684678,77.076574,NH3,7,15,11
India,Delhi,Delhi,"Mundka, Delhi - DPCC",25-03-2026 08:00:00,28.684678,77.076574,OZONE,3,63,8
India,Delhi,Delhi,"NSIT Dwarka, Delhi - CPCB",25-03-2026 08:00:00,28.60909,77.0325413,NO2,85,153,116
India,Delhi,Delhi,"NSIT Dwarka, Delhi - CPCB",25-03-2026 08:00:00,28.60909,77.0325413,SO2,11,21,15
India,Delhi,Delhi,"NSUT Jaffarpur, Delhi - DPCC",25-03-2026 08:00:00,28.594004 ,76.909423 ,PM10,53,235,136
India,Delhi,Delhi,"NSUT Jaffarpur, Delhi - DPCC",25-03-2026 08:00:00,28.594004 ,76.909423 ,NH3,12,16,14
India,Delhi,Delhi,"Najafgarh, Delhi - DPCC",25-03-2026 08:00:00,28.570173,76.933762,PM2.5,48,319,198
India,Gujarat,Ahmedabad,"Chandkheda, Ahmedabad - IITM",25-03-2026 08:00:00,23.107969,72.574648,PM2.5,26,66,40
India,Gujarat,Ahmedabad,"Chandkheda, Ahmedabad - IITM",25-03-2026 08:00:00,23.107969,72.574648,NO2,9,53,22
India,Gujarat,Ahmedabad,"Chandkheda, Ahmedabad - IITM",25-03-2026 08:00:00,23.107969,72.574648,SO2,4,15,8
India,Gujarat,Ahmedabad,"Chandkheda, Ahmedabad - IITM",25-03-2026 08:00:00,23.107969,72.574648,CO,10,52,20
India,Gujarat,Ahmedabad,"Chandkheda, Ahmedabad - IITM",25-03-2026 08:00:00,23.107969,72.574648,OZONE,24,114,31
India,Gujarat,Ahmedabad,"Gyaspur, Ahmedabad - IITM",25-03-2026 08:00:00,22.977134,72.553024,PM2.5,27,255,104
India,Gujarat,Ahmedabad,"Raikhad, Ahmedabad - IITM",25-03-2026 08:00:00,23.020509,72.579261,PM10,83,500,173
India,Gujarat,Ahmedabad,"Raikhad, Ahmedabad - IITM",25-03-2026 08:00:00,23.020509,72.579261,SO2,6,16,10
India,Gujarat,Ahmedabad,"Rakhial, Ahmedabad - IITM",25-03-2026 08:00:00,23.016834,72.625775,NO2,40,427,135
India,Gujarat,Ahmedabad,"Rakhial, Ahmedabad - IITM",25-03-2026 08:00:00,23.016834,72.625775,OZONE,1,76,4
India,Gujarat,Ahmedabad,"SAC ISRO Bopal, Ahmedabad - IITM",25-03-2026 08:00:00,23.041137,72.456691,PM2.5,14,309,97
India,Gujarat,Ahmedabad,"SAC ISRO Bopal, Ahmedabad - IITM",25-03-2026 08:00:00,23.041137,72.456691,OZONE,6,82,16
India,Gujarat,Ahmedabad,"SVPI Airport Hansol, Ahmedabad - IITM",25-03-2026 08:00:00,23.076793,72.627874,PM10,50,141,94
India,Gujarat,Ankleshwar,"GIDC, Ankleshwar - GPCB",25-03-2026 08:00:00,21.613267,73.010555,PM10,63,123,93
India,Gujarat,Ankleshwar,"GIDC, Ankleshwar - GPCB",25-03-2026 08:00:00,21.613267,73.010555,NO2,20,25,24
India,Gujarat,Ankleshwar,"GIDC, Ankleshwar - GPCB",25-03-2026 08:00:00,21.613267,73.010555,NH3,5,7,6
India,Gujarat,Ankleshwar,"GIDC, Ankleshwar - GPCB",25-03-2026 08:00:00,21.613267,73.010555,CO,36,86,54
India,Gujarat,Bhavnagar,"Vidhyanagar, Bhavnagar - Nexteng Enviro",25-03-2026 08:00:00,21.755417,72.139056,CO,55,60,57
India,Gujarat,Gandhinagar,"GIFT City, Gandhinagar - IITM",25-03-2026 08:00:00,23.163798,72.677768,PM10,81,431,167
India,Delhi,Delhi,"Pusa, Delhi - DPCC",25-03-2026 08:00:00,28.639652,77.146275,PM2.5,50,335,166
India,Delhi,Delhi,"Pusa, Delhi - DPCC",25-03-2026 08:00:00,28.639652,77.146275,SO2,11,44,21
India,Delhi,Delhi,"Pusa, Delhi - IMD",25-03-2026 08:00:00,28.636110,77.173332,PM10,74,207,134
India,Delhi,Delhi,"R K Puram, Delhi - DPCC",25-03-2026 08:00:00,28.563262,77.186937,PM2.5,42,367,193
India,Delhi,Delhi,"R K Puram, Delhi - DPCC",25-03-2026 08:00:00,28.563262,77.186937,NH3,6,8,7
India,Delhi,Delhi,"R K Puram, Delhi - DPCC",25-03-2026 08:00:00,28.563262,77.186937,OZONE,1,72,1
India,Delhi,Delhi,"Rohini, Delhi - DPCC",25-03-2026 08:00:00,28.732528,77.119920,NO2,9,94,42
India,Delhi,Delhi,"Rohini, Delhi - DPCC",25-03-2026 08:00:00,28.732528,77.119920,OZONE,9,139,18
India,Delhi,Delhi,"Shadipur, Delhi - CPCB",25-03-2026 08:00:00,28.6514781,77.1473105,CO,20,84,52
India,Delhi,Delhi,"JNU, Delhi - DPCC",25-03-2026 08:00:00,28.540721 ,77.168544 ,CO,103,119,117
India,Delhi,Delhi,"JNU, Delhi - DPCC",25-03-2026 08:00:00,28.540721 ,77.168544 ,OZONE,1,33,3
India,Delhi,Delhi,"Jawaharlal Nehru Stadium, Delhi - DPCC",25-03-2026 08:00:00,28.580280,77.233829,SO2,12,26,17
India,Delhi,Delhi,"Major Dhyan Chand National Stadium, Delhi - DPCC",25-03-2026 08:00:00,28.611281,77.237738,PM10,81,298,143
India,Delhi,Delhi,"Major Dhyan Chand National Stadium, Delhi - DPCC",25-03-2026 08:00:00,28.611281,77.237738,SO2,9,25,15
India,Delhi,Delhi,"Mandir Marg, Delhi - DPCC",25-03-2026 08:00:00,28.636429,77.201067,PM10,90,209,134
India,Delhi,Delhi,"Sonia Vihar, Delhi - DPCC",25-03-2026 08:00:00,28.710508,77.249485,NO2,13,73,39
India,Delhi,Delhi,"Sri Aurobindo Marg, Delhi - DPCC",25-03-2026 08:00:00,28.531346,77.190156,PM2.5,52,253,113
India,Delhi,Delhi,"Talkatora Garden, Delhi - DPCC",25-03-2026 08:00:00,28.621810,77.1944633,PM10,61,195,123
India,Delhi,Delhi,"Talkatora Garden, Delhi - DPCC",25-03-2026 08:00:00,28.621810,77.1944633,NO2,7,28,16
India,Delhi,Delhi,"Vivek Vihar, Delhi - DPCC",25-03-2026 08:00:00,28.672342,77.315260,NH3,5,7,6
India,Delhi,Delhi,"Vivek Vihar, Delhi - DPCC",25-03-2026 08:00:00,28.672342,77.315260,SO2,7,19,12
India,Delhi,Delhi,"New Moti Bagh, Delhi - MHUA",25-03-2026 08:00:00,28.57834,77.18400,NO2,8,9,9
India,Delhi,Delhi,"North Campus, DU, Delhi - IMD",25-03-2026 08:00:00,28.6573814,77.1585447,CO,8,109,40
India,Delhi,Delhi,"Okhla Phase-2, Delhi - DPCC",25-03-2026 08:00:00,28.530785,77.271255,OZONE,4,90,7
India,Delhi,Delhi,"Patparganj, Delhi - DPCC",25-03-2026 08:00:00,28.623763,77.287209,NO2,17,122,72
India,Gujarat,Mehsana,"Sadanand Nagar, Mehsana - Nexteng Enviro",25-03-2026 08:00:00,23.593150,72.372792,CO,57,105,58
India,Gujarat,Mehsana,"Sadanand Nagar, Mehsana - Nexteng Enviro",25-03-2026 08:00:00,23.593150,72.372792,OZONE,8,9,8
India,Gujarat,Surat,"Katargam, Surat - Nexteng Enviro",25-03-2026 08:00:00,21.217779 ,72.834787 ,PM10,50,144,81
India,Gujarat,Surat,"Katargam, Surat - Nexteng Enviro",25-03-2026 08:00:00,21.217779 ,72.834787 ,NH3,1,3,2
India,Gujarat,Gandhinagar,"IIPHG Lekawada, Gandhinagar - IITM",25-03-2026 08:00:00,23.243639,72.68994,NH3,5,9,6
India,Gujarat,Gandhinagar,"IIPHG Lekawada, Gandhinagar - IITM",25-03-2026 08:00:00,23.243639,72.68994,CO,2,40,20
India,Gujarat,Gandhinagar,"IIPHG Lekawada, Gandhinagar - IITM",25-03-2026 08:00:00,23.243639,72.68994,OZONE,2,20,2
India,Haryana,Faridabad,"Sector 11, Faridabad - HSPCB",25-03-2026 08:00:00,28.376058,77.315741,SO2,3,45,5
India,Haryana,Faridabad,"Sector 11, Faridabad - HSPCB",25-03-2026 08:00:00,28.376058,77.315741,CO,21,65,54
India,Haryana,Faridabad,"Sector 11, Faridabad - HSPCB",25-03-2026 08:00:00,28.376058,77.315741,OZONE,15,16,15
India,Haryana,Faridabad,"Sector 30, Faridabad - HSPCB",25-03-2026 08:00:00,28.4417,77.3217,PM2.5,115,118,117
India,Haryana,Faridabad,"Sector 30, Faridabad - HSPCB",25-03-2026 08:00:00,28.4417,77.3217,NO2,36,40,37
India,Haryana,Faridabad,"Sector 30, Faridabad - HSPCB",25-03-2026 08:00:00,28.4417,77.3217,CO,22,64,62
India,Haryana,Fatehabad,"Huda Sector, Fatehabad - HSPCB",25-03-2026 08:00:00,29.503664,75.467934,OZONE,55,103,67
India,Haryana,Gurugram,"NISE Gwal Pahari, Gurugram - IMD",25-03-2026 08:00:00,28.422681,77.148944,NO2,11,49,26
India,Haryana,Gurugram,"Sector-51, Gurugram - HSPCB",25-03-2026 08:00:00,28.4227,77.0667,NO2,4,10,6
India,Haryana,Gurugram,"Sector-51, Gurugram - HSPCB",25-03-2026 08:00:00,28.4227,77.0667,SO2,1,7,4
India,Haryana,Gurugram,"Teri Gram, Gurugram - HSPCB",25-03-2026 08:00:00,28.4275,77.1465,PM10,24,242,105
India,Haryana,Gurugram,"Teri Gram, Gurugram - HSPCB",25-03-2026 08:00:00,28.4275,77.1465,NH3,11,20,15
India,Jammu_and_Kashmir,Srinagar,"Rajbagh, Srinagar - JKPCC",25-03-2026 08:00:00,34.066206,74.819820,CO,11,22,14
India,Jammu_and_Kashmir,Srinagar,"Rajbagh, Srinagar - JKPCC",25-03-2026 08:00:00,34.066206,74.819820,OZONE,NA,NA,NA
India,Jharkhand,Dhanbad,"Sardar Patel Nagar, Dhanbad - JSPCB",25-03-2026 08:00:00,23.80569,86.44268,OZONE,1,34,3
India,Karnataka,Bagalkot,"Vidayagiri, Bagalkot - KSPCB",25-03-2026 08:00:00,16.172806,75.659694,NH3,1,1,1
India,Karnataka,Bengaluru,"BTM Layout, Bengaluru - CPCB",25-03-2026 08:00:00,12.9135218,77.5950804,NO2,NA,NA,NA
India,Karnataka,Bengaluru,"BWSSB Kadabesanahalli, Bengaluru - CPCB",25-03-2026 08:00:00,12.9352049,77.6814488,PM2.5,59,289,181
India,Karnataka,Bengaluru,"BWSSB Kadabesanahalli, Bengaluru - CPCB",25-03-2026 08:00:00,12.9352049,77.6814488,SO2,1,11,5
India,Karnataka,Bengaluru,"BWSSB Kadabesanahalli, Bengaluru - CPCB",25-03-2026 08:00:00,12.9352049,77.6814488,OZONE,11,37,17
India,Karnataka,Bengaluru,"Bapuji Nagar, Bengaluru - KSPCB",25-03-2026 08:00:00,12.951913,77.539784,PM10,56,128,92
India,Karnataka,Bengaluru,"City Railway Station, Bengaluru - KSPCB",25-03-2026 08:00:00,12.9756843,77.5660749,CO,NA,NA,NA
India,Karnataka,Bengaluru,"Hebbal, Bengaluru - KSPCB",25-03-2026 08:00:00,13.029152,77.585901,PM2.5,45,102,73
India,Karnataka,Bengaluru,"Hombegowda Nagar, Bengaluru - KSPCB",25-03-2026 08:00:00,12.938539,77.590100,NO2,15,51,28
India,Karnataka,Bengaluru,"Hombegowda Nagar, Bengaluru - KSPCB",25-03-2026 08:00:00,12.938539,77.590100,NH3,4,19,6
India,Karnataka,Bengaluru,"Jayanagar 5th Block, Bengaluru - KSPCB",25-03-2026 08:00:00,12.920984,77.584908,PM10,62,125,98
India,Karnataka,Bengaluru,"Jayanagar 5th Block, Bengaluru - KSPCB",25-03-2026 08:00:00,12.920984,77.584908,NO2,13,20,16
India,Karnataka,Bengaluru,"Jigani, Bengaluru - KSPCB",25-03-2026 08:00:00,12.7816279,77.6299145,NO2,22,23,22
India,Karnataka,Bengaluru,"Jigani, Bengaluru - KSPCB",25-03-2026 08:00:00,12.7816279,77.6299145,CO,42,44,43
India,Karnataka,Bengaluru,"Shivapura_Peenya, Bengaluru - KSPCB",25-03-2026 08:00:00,13.0246342,77.5080115,NH3,4,4,4
India,Karnataka,Bengaluru,"Shivapura_Peenya, Bengaluru - KSPCB",25-03-2026 08:00:00,13.0246342,77.5080115,CO,NA,NA,NA
India,Haryana,Sirsa,"F-Block, Sirsa - HSPCB",25-03-2026 08:00:00,29.536400,75.015800,SO2,3,27,10
India,Haryana,Sonipat,"Murthal, Sonipat - HSPCB",25-03-2026 08:00:00,29.027200,77.062100,NO2,NA,NA,NA
India,Haryana,Sonipat,"Murthal, Sonipat - HSPCB",25-03-2026 08:00:00,29.027200,77.062100,NH3,NA,NA,NA
India,Haryana,Yamuna Nagar,"Gobind Pura, Yamuna Nagar - HSPCB",25-03-2026 08:00:00,30.1480566,77.2893471,PM2.5,NA,NA,NA
India,Haryana,Yamuna Nagar,"Gobind Pura, Yamuna Nagar - HSPCB",25-03-2026 08:00:00,30.1480566,77.2893471,PM10,NA,NA,NA
India,Himachal Pradesh,Baddi,"HIMUDA Complex Phase-1, Baddi - HPPCB",25-03-2026 08:00:00,30.943887,76.801991,PM10,96,272,157
India,Himachal Pradesh,Baddi,"HIMUDA Complex Phase-1, Baddi - HPPCB",25-03-2026 08:00:00,30.943887,76.801991,NO2,6,57,24
India,Jammu_and_Kashmir,Srinagar,"Khunmoh, Srinagar - JKPCC",25-03-2026 08:00:00,34.06313,74.96017,PM10,19,43,33
India,Jammu_and_Kashmir,Srinagar,"Khunmoh, Srinagar - JKPCC",25-03-2026 08:00:00,34.06313,74.96017,NO2,6,39,17
India,Haryana,Ballabgarh,"Nathu Colony, Ballabgarh - HSPCB",25-03-2026 08:00:00,28.3419248,77.319699,NO2,19,21,20
India,Haryana,Ballabgarh,"Nathu Colony, Ballabgarh - HSPCB",25-03-2026 08:00:00,28.3419248,77.319699,OZONE,1,6,1
India,Haryana,Bhiwani,"H.B. Colony, Bhiwani - HSPCB",25-03-2026 08:00:00,28.806223,76.141105,PM2.5,44,191,80
India,Haryana,Bhiwani,"H.B. Colony, Bhiwani - HSPCB",25-03-2026 08:00:00,28.806223,76.141105,OZONE,1,18,9
India,Haryana,Charkhi Dadri,"Mini Secretariat, Charkhi Dadri - HSPCB",25-03-2026 08:00:00,28.593883,76.270653,NO2,9,26,16
India,Haryana,Dharuhera,"Municipal Corporation Office, Dharuhera -  HSPCB",25-03-2026 08:00:00,28.206800,76.799700,PM10,46,160,98
India,Haryana,Faridabad,"New Industrial Town, Faridabad - HSPCB",25-03-2026 08:00:00,28.39072,77.30059,PM10,129,137,133
India,Haryana,Faridabad,"New Industrial Town, Faridabad - HSPCB",25-03-2026 08:00:00,28.39072,77.30059,SO2,8,8,8
India,Haryana,Gurugram,"Teri Gram, Gurugram - HSPCB",25-03-2026 08:00:00,28.4275,77.1465,OZONE,10,37,11
India,Haryana,Gurugram,"Vikas Sadan, Gurugram - HSPCB",25-03-2026 08:00:00,28.4501238,77.0263051,PM10,92,421,134
India,Haryana,Gurugram,"Vikas Sadan, Gurugram - HSPCB",25-03-2026 08:00:00,28.4501238,77.0263051,NO2,9,46,26
India,Haryana,Gurugram,"Vikas Sadan, Gurugram - HSPCB",25-03-2026 08:00:00,28.4501238,77.0263051,OZONE,5,31,11
India,Haryana,Hisar,"Urban Estate-II, Hisar - HSPCB",25-03-2026 08:00:00,29.140560,75.744941,NO2,26,27,27
India,Haryana,Jind,"Police Lines, Jind - HSPCB",25-03-2026 08:00:00,29.307814,76.337619,PM2.5,80,186,111
India,Haryana,Kaithal,"Rishi Nagar, Kaithal - HSPCB",25-03-2026 08:00:00,29.8006,76.4155,CO,10,66,33
India,Haryana,Karnal,"Sector-12, Karnal - HSPCB",25-03-2026 08:00:00,29.695300,77.002700,NO2,6,7,6
India,Haryana,Kurukshetra,"Sector-7, Kurukshetra - HSPCB",25-03-2026 08:00:00,29.966942,76.875879,PM2.5,73,158,96
India,Haryana,Kurukshetra,"Sector-7, Kurukshetra - HSPCB",25-03-2026 08:00:00,29.966942,76.875879,NO2,4,4,4
India,Haryana,Kurukshetra,"Sector-7, Kurukshetra - HSPCB",25-03-2026 08:00:00,29.966942,76.875879,SO2,2,11,5
India,Haryana,Kurukshetra,"Sector-7, Kurukshetra - HSPCB",25-03-2026 08:00:00,29.966942,76.875879,OZONE,15,83,32
India,Haryana,Mandikhera,"General Hospital, Mandikhera(Nuh) - HSPCB",25-03-2026 08:00:00,27.9002,76.9938,PM2.5,36,353,94
India,Haryana,Mandikhera,"General Hospital, Mandikhera(Nuh) - HSPCB",25-03-2026 08:00:00,27.9002,76.9938,PM10,42,326,95
India,Haryana,Mandikhera,"General Hospital, Mandikhera(Nuh) - HSPCB",25-03-2026 08:00:00,27.9002,76.9938,OZONE,21,86,21
India,Gujarat,Surat,"Science Center, Surat - SMC",25-03-2026 08:00:00,21.170046,72.795405,CO,68,101,87
India,Gujarat,Vapi,"Phase-1 GIDC, Vapi - GPCB",25-03-2026 08:00:00,20.362421,72.918013,NH3,4,4,4
India,Gujarat,Vapi,"Phase-1 GIDC, Vapi - GPCB",25-03-2026 08:00:00,20.362421,72.918013,SO2,18,24,22
India,Gujarat,Vatva,"Phase-4 GIDC, Vatva - GPCB",25-03-2026 08:00:00,22.969611,72.643500,PM2.5,29,413,157
India,Gujarat,Vatva,"Phase-4 GIDC, Vatva - GPCB",25-03-2026 08:00:00,22.969611,72.643500,SO2,31,39,35
India,Gujarat,Vatva,"Phase-4 GIDC, Vatva - GPCB",25-03-2026 08:00:00,22.969611,72.643500,CO,13,28,13
India,Haryana,Palwal,"Shyam Nagar, Palwal - HSPCB",25-03-2026 08:00:00,28.1485564,77.3320667,PM2.5,65,86,78
India,Haryana,Palwal,"Shyam Nagar, Palwal - HSPCB",25-03-2026 08:00:00,28.1485564,77.3320667,PM10,76,102,93
India,Haryana,Panchgaon,"Amity University, Panchgaon - IITM",25-03-2026 08:00:00,28.3153,76.9143,OZONE,1,85,4
India,Karnataka,Hubballi,"Lingaraj Nagar, Hubballi - KSPCB",25-03-2026 08:00:00,15.3714823,75.1160168,NO2,7,11,9
India,Karnataka,Kalaburagi,"Mahatma Basaveswar Colony, Kalaburgi - KSPCB",25-03-2026 08:00:00,17.336318,76.847397,PM2.5,13,48,29
India,Karnataka,Kalaburagi,"Mahatma Basaveswar Colony, Kalaburgi - KSPCB",25-03-2026 08:00:00,17.336318,76.847397,SO2,2,12,4
India,Karnataka,Koppal,"Diwator Nagar, Koppal - KSPCB",25-03-2026 08:00:00,15.347630,76.181767,NH3,8,8,8
India,Karnataka,Madikeri,"Stuart Hill, Madikeri - KSPCB",25-03-2026 08:00:00,12.415911,75.735050,SO2,7,7,7
India,Karnataka,Mangalore,"Kadri, Mangalore - KSPCB",25-03-2026 08:00:00,12.889250,74.853000,OZONE,6,68,30
India,Karnataka,Mysuru,"Hebbal 1st Stage, Mysuru - KSPCB",25-03-2026 08:00:00,12.21041,76.37376,SO2,2,4,3
India,Karnataka,Mysuru,"Hebbal 1st Stage, Mysuru - KSPCB",25-03-2026 08:00:00,12.21041,76.37376,OZONE,15,66,17
India,Karnataka,Ramanagara,"Vijay Nagar, Ramanagara - KSPCB",25-03-2026 08:00:00,12.733409,77.298051,PM2.5,30,176,78
India,Karnataka,Ramanagara,"Vijay Nagar, Ramanagara - KSPCB",25-03-2026 08:00:00,12.733409,77.298051,PM10,48,125,75
India,Madhya Pradesh,Gwalior,"Maharaj Bada, Gwalior - MPPCB",25-03-2026 08:00:00,26.200388,78.147714,NO2,25,132,76
India,Madhya Pradesh,Gwalior,"Maharaj Bada, Gwalior - MPPCB",25-03-2026 08:00:00,26.200388,78.147714,OZONE,2,118,24
India,Madhya Pradesh,Indore,"Airport Area, Indore - IMC",25-03-2026 08:00:00,22.7289,75.8076,PM2.5,54,290,110
India,Madhya Pradesh,Indore,"Airport Area, Indore - IMC",25-03-2026 08:00:00,22.7289,75.8076,PM10,52,153,101
India,Madhya Pradesh,Indore,"Chhoti Gwaltoli, Indore - MPPCB",25-03-2026 08:00:00,22.4310,75.5213,NH3,19,24,21
India,Madhya Pradesh,Indore,"Maguda Nagar, Indore - IMC",25-03-2026 08:00:00,22.7524,75.8872,NO2,20,96,41
India,Madhya Pradesh,Indore,"Regional Park, Indore - IMC",25-03-2026 08:00:00,22.6780,75.8559,NO2,19,28,23
India,Madhya Pradesh,Indore,"Regional Park, Indore - IMC",25-03-2026 08:00:00,22.6780,75.8559,OZONE,4,11,5
India,Madhya Pradesh,Indore,"Residency Area, Indore - IMC",25-03-2026 08:00:00,22.7084,75.8815,PM10,26,139,72
India,Madhya Pradesh,Indore,"Residency Area, Indore - IMC",25-03-2026 08:00:00,22.7084,75.8815,SO2,2,4,3
India,Karnataka,Bidar,"Naubad, Bidar - KSPCB",25-03-2026 08:00:00,17.930306,77.482194,PM10,29,93,56
India,Karnataka,Bidar,"Naubad, Bidar - KSPCB",25-03-2026 08:00:00,17.930306,77.482194,NO2,12,16,14
India,Karnataka,Bidar,"Naubad, Bidar - KSPCB",25-03-2026 08:00:00,17.930306,77.482194,NH3,4,4,4
India,Karnataka,Bidar,"Naubad, Bidar - KSPCB",25-03-2026 08:00:00,17.930306,77.482194,CO,4,26,7
India,Karnataka,Chamarajanagar,"Urban, Chamarajanagar - KSPCB",25-03-2026 08:00:00,11.55358,76.55521,PM2.5,20,48,34
India,Karnataka,Chamarajanagar,"Urban, Chamarajanagar - KSPCB",25-03-2026 08:00:00,11.55358,76.55521,PM10,32,58,44
India,Karnataka,Chamarajanagar,"Urban, Chamarajanagar - KSPCB",25-03-2026 08:00:00,11.55358,76.55521,NO2,14,35,23
India,Karnataka,Chikkamagaluru,"Kalyana Nagara, Chikkamagaluru - KSPCB",25-03-2026 08:00:00,13.328028,75.797056,PM2.5,37,203,85
India,Karnataka,Chikkamagaluru,"Kalyana Nagara, Chikkamagaluru - KSPCB",25-03-2026 08:00:00,13.328028,75.797056,SO2,NA,NA,NA
India,Karnataka,Dharwad,"Kalabhavan, Dharwad - KSPCB",25-03-2026 08:00:00,15.459706,75.008381,PM10,50,89,66
India,Karnataka,Dharwad,"Kalabhavan, Dharwad - KSPCB",25-03-2026 08:00:00,15.459706,75.008381,SO2,6,8,7
India,Kerala,Kannur,"Thavakkara, Kannur - Kerala PCB",25-03-2026 08:00:00,11.875000,75.373200,OZONE,27,32,27
India,Kerala,Thiruvananthapuram,"Kariavattom, Thiruvananthapuram - Kerala PCB",25-03-2026 08:00:00,8.563700,76.886500,PM10,30,102,65
India,Kerala,Thrissur,"Corporation Ground, Thrissur - Kerala PCB",25-03-2026 08:00:00,10.532400,76.215900,PM10,62,76,70
India,Kerala,Thrissur,"Corporation Ground, Thrissur - Kerala PCB",25-03-2026 08:00:00,10.532400,76.215900,CO,12,21,19
India,Madhya Pradesh,Bhopal,"Idgah Hills, Bhopal - MPPCB",25-03-2026 08:00:00,23.264759,77.381568,PM10,67,132,96
India,Madhya Pradesh,Bhopal,"Idgah Hills, Bhopal - MPPCB",25-03-2026 08:00:00,23.264759,77.381568,NH3,6,8,7
India,Madhya Pradesh,Bhopal,"Idgah Hills, Bhopal - MPPCB",25-03-2026 08:00:00,23.264759,77.381568,SO2,10,15,12
India,Madhya Pradesh,Bhopal,"Paryavaran Parisar, Bhopal - MPPCB",25-03-2026 08:00:00,23.210494,77.425409,NH3,5,7,6
India,Madhya Pradesh,Pithampur,"Sector-2 Industrial Area, Pithampur - MPPCB",25-03-2026 08:00:00,22.624758,75.675238,OZONE,44,94,72
India,Madhya Pradesh,Ratlam,"Shasthri Nagar, Ratlam - IPCA Lab",25-03-2026 08:00:00,23.331731,75.045981,PM2.5,15,119,38
India,Madhya Pradesh,Sagar,"Civil Lines, Sagar - MPPCB",25-03-2026 08:00:00,23.838586,78.759431,PM10,41,92,68
India,Madhya Pradesh,Sagar,"Deen Dayal Nagar, Sagar - MPPCB",25-03-2026 08:00:00,23.8640158,78.80289321,NO2,NA,NA,NA
India,Madhya Pradesh,Sagar,"Deen Dayal Nagar, Sagar - MPPCB",25-03-2026 08:00:00,23.8640158,78.80289321,CO,NA,NA,NA
India,Madhya Pradesh,Satna,"Bandhavgar Colony, Satna - Birla Cement",25-03-2026 08:00:00,24.58434363,80.8549414,CO,18,44,32
India,Madhya Pradesh,Ujjain,"Mahashweta Nagar, Ujjain - MPPCB",25-03-2026 08:00:00,23.1633321,75.800225,PM10,NA,NA,NA
India,Karnataka,Shivamogga,"Vinoba Nagara, Shivamogga - KSPCB",25-03-2026 08:00:00,13.940000,75.555917,PM10,50,51,50
India,Karnataka,Shivamogga,"Vinoba Nagara, Shivamogga - KSPCB",25-03-2026 08:00:00,13.940000,75.555917,CO,25,34,33
India,Karnataka,Yadgir,"Collector Office, Yadgir - KSPCB",25-03-2026 08:00:00,16.7602,77.1428,PM10,32,120,70
India,Kerala,Eloor,"Udyogamandal, Eloor - Kerala PCB",25-03-2026 08:00:00,10.073232,76.302765,PM10,68,77,73
India,Kerala,Eloor,"Udyogamandal, Eloor - Kerala PCB",25-03-2026 08:00:00,10.073232,76.302765,NO2,6,6,6
India,Kerala,Kannur,"Thavakkara, Kannur - Kerala PCB",25-03-2026 08:00:00,11.875000,75.373200,NH3,2,2,2
India,Kerala,Kannur,"Thavakkara, Kannur - Kerala PCB",25-03-2026 08:00:00,11.875000,75.373200,SO2,1,14,3
India,Madhya Pradesh,Jabalpur,"Gupteshwar, Jabalpur - JMC",25-03-2026 08:00:00,23.142888,79.916147,PM2.5,41,167,74
India,Madhya Pradesh,Jabalpur,"Gupteshwar, Jabalpur - JMC",25-03-2026 08:00:00,23.142888,79.916147,SO2,10,17,14
India,Madhya Pradesh,Jabalpur,"Gupteshwar, Jabalpur - JMC",25-03-2026 08:00:00,23.142888,79.916147,OZONE,9,121,35
India,Madhya Pradesh,Jabalpur,"Marhatal, Jabalpur - MPPCB",25-03-2026 08:00:00,23.168606,79.932247,PM10,70,162,115
India,Madhya Pradesh,Jabalpur,"Marhatal, Jabalpur - MPPCB",25-03-2026 08:00:00,23.168606,79.932247,NH3,2,4,3
India,Madhya Pradesh,Jabalpur,"Suhagi, Jabalpur - JMC",25-03-2026 08:00:00,23.218135,79.957770,NO2,28,88,48
India,Madhya Pradesh,Jabalpur,"Suhagi, Jabalpur - JMC",25-03-2026 08:00:00,23.218135,79.957770,SO2,8,15,12
India,Madhya Pradesh,Bhopal,"T T Nagar, Bhopal - MPPCB",25-03-2026 08:00:00,23.233584,77.400574,NO2,18,83,42
India,Madhya Pradesh,Bhopal,"T T Nagar, Bhopal - MPPCB",25-03-2026 08:00:00,23.233584,77.400574,NH3,4,7,5
India,Madhya Pradesh,Dewas,"Bhopal Chauraha, Dewas - MPPCB",25-03-2026 08:00:00,22.9682591,76.064118,NH3,7,15,11
India,Madhya Pradesh,Gwalior,"City Center, Gwalior - MPPCB",25-03-2026 08:00:00,26.203442,78.193251,PM10,34,188,106
India,Madhya Pradesh,Gwalior,"Maharaj Bada, Gwalior - MPPCB",25-03-2026 08:00:00,26.200388,78.147714,PM10,63,326,158
India,Madhya Pradesh,Mandideep,"Sector-D Industrial Area, Mandideep - MPPCB",25-03-2026 08:00:00,23.108440,77.511428,NH3,4,8,6
India,Maharashtra,Boisar,"Khaira, Boisar - MPCB",25-03-2026 08:00:00,19.786089,72.757971,PM2.5,42,100,67
India,Maharashtra,Boisar,"Khaira, Boisar - MPCB",25-03-2026 08:00:00,19.786089,72.757971,NH3,3,13,7
India,Maharashtra,Boisar,"Khaira, Boisar - MPCB",25-03-2026 08:00:00,19.786089,72.757971,SO2,33,93,48
India,Maharashtra,Boisar,"Khaira, Boisar - MPCB",25-03-2026 08:00:00,19.786089,72.757971,CO,13,74,34
India,Maharashtra,Boisar,"Khaira, Boisar - MPCB",25-03-2026 08:00:00,19.786089,72.757971,OZONE,3,61,11
India,Maharashtra,Chandrapur,"MIDC Khutala, Chandrapur - MPCB",25-03-2026 08:00:00,19.9775302,79.2337086,PM2.5,36,177,77
India,Maharashtra,Chandrapur,"MIDC Khutala, Chandrapur - MPCB",25-03-2026 08:00:00,19.9775302,79.2337086,NH3,2,7,4
India,Maharashtra,Dhule,"Deopur, Dhule - MPCB",25-03-2026 08:00:00,20.918946,74.776388,NH3,1,2,1
India,Maharashtra,Dhule,"Deopur, Dhule - MPCB",25-03-2026 08:00:00,20.918946,74.776388,OZONE,14,68,18
India,Maharashtra,Dombivli,"Kalu Nagar, Dombivli - MPCB",25-03-2026 08:00:00,19.2268427 ,73.0788456 ,NO2,15,72,38
India,Maharashtra,Dombivli,"Kalu Nagar, Dombivli - MPCB",25-03-2026 08:00:00,19.2268427 ,73.0788456 ,CO,14,68,32
India,Maharashtra,Hingoli,"Ashta Vinayak Nagar, Hingoli - MPCB",25-03-2026 08:00:00,19.710842,77.151824,PM2.5,25,140,65
India,Maharashtra,Hingoli,"Ashta Vinayak Nagar, Hingoli - MPCB",25-03-2026 08:00:00,19.710842,77.151824,PM10,39,126,82
India,Maharashtra,Hingoli,"Ashta Vinayak Nagar, Hingoli - MPCB",25-03-2026 08:00:00,19.710842,77.151824,SO2,1,17,5
India,Maharashtra,Jalgaon,"Prabhat Colony, Jalgaon - MPCB",25-03-2026 08:00:00,21.001264,75.565602,PM10,59,103,83
India,Maharashtra,Jalgaon,"Prabhat Colony, Jalgaon - MPCB",25-03-2026 08:00:00,21.001264,75.565602,NH3,2,3,2
India,Maharashtra,Jalgaon,"Prabhat Colony, Jalgaon - MPCB",25-03-2026 08:00:00,21.001264,75.565602,OZONE,19,74,35
India,Maharashtra,Jalna,"Old MIDC, Jalna - MPCB",25-03-2026 08:00:00,19.854616,75.905894,OZONE,3,52,11
India,Maharashtra,Kalyan,"Khadakpada, Kalyan - MPCB",25-03-2026 08:00:00,19.25292,73.142019,PM2.5,24,100,61
India,Maharashtra,Kalyan,"Pimpleshwar Mandir, Kalyan - MPCB",25-03-2026 08:00:00,19.192056,72.9585188,NO2,11,17,12
India,Maharashtra,Kalyan,"Pimpleshwar Mandir, Kalyan - MPCB",25-03-2026 08:00:00,19.192056,72.9585188,CO,24,56,36
India,Maharashtra,Kalyan,"Pimpleshwar Mandir, Kalyan - MPCB",25-03-2026 08:00:00,19.192056,72.9585188,OZONE,2,54,3
India,Maharashtra,Aurangabad,"More Chowk Waluj, Aurangabad - MPCB",25-03-2026 08:00:00,19.8389439,75.244448,PM2.5,NA,NA,NA
India,Maharashtra,Badlapur,"Katrap, Badlapur - MPCB",25-03-2026 08:00:00,19.16485,73.23409,NO2,10,48,23
India,Maharashtra,Badlapur,"Katrap, Badlapur - MPCB",25-03-2026 08:00:00,19.16485,73.23409,SO2,3,15,8
India,Maharashtra,Beed,"Bir, Beed - MPCB",25-03-2026 08:00:00,18.988474,75.753873,CO,19,105,30
India,Maharashtra,Belapur,"CBD Belapur, Belapur - MPCB",25-03-2026 08:00:00,19.0243902,73.0406721,PM2.5,56,194,107
India,Maharashtra,Belapur,"CBD Belapur, Belapur - MPCB",25-03-2026 08:00:00,19.0243902,73.0406721,PM10,97,145,114
India,Maharashtra,Belapur,"CBD Belapur, Belapur - MPCB",25-03-2026 08:00:00,19.0243902,73.0406721,SO2,20,37,28
India,Maharashtra,Belapur,"CBD Belapur, Belapur - MPCB",25-03-2026 08:00:00,19.0243902,73.0406721,CO,NA,NA,NA
India,Maharashtra,Belapur,"CBD Belapur, Belapur - MPCB",25-03-2026 08:00:00,19.0243902,73.0406721,OZONE,NA,NA,NA
India,Maharashtra,Bhiwandi,"Gokul Nagar, Bhiwandi - MPCB",25-03-2026 08:00:00,19.309073,73.057223,NO2,12,40,23
India,Maharashtra,Mumbai,"Ghatkopar, Mumbai - BMC",25-03-2026 08:00:00,19.083694,72.920967,CO,2,15,7
India,Maharashtra,Mumbai,"Ghatkopar, Mumbai - BMC",25-03-2026 08:00:00,19.083694,72.920967,OZONE,5,98,8
India,Maharashtra,Mumbai,"Kandivali East, Mumbai - MPCB",25-03-2026 08:00:00,19.205800,72.868200,PM2.5,5,35,26
India,Maharashtra,Mumbai,"Kherwadi_Bandra East, Mumbai - MPCB",25-03-2026 08:00:00,19.0632143,72.8456324,PM2.5,13,44,26
India,Maharashtra,Mumbai,"Kherwadi_Bandra East, Mumbai - MPCB",25-03-2026 08:00:00,19.0632143,72.8456324,NO2,2,48,17
India,Maharashtra,Mumbai,"Kherwadi_Bandra East, Mumbai - MPCB",25-03-2026 08:00:00,19.0632143,72.8456324,CO,29,32,30
India,Maharashtra,Mumbai,"Khindipada-Bhandup West, Mumbai - IITM",25-03-2026 08:00:00,19.1653323,72.922099,PM10,40,113,72
India,Maharashtra,Mumbai,"Khindipada-Bhandup West, Mumbai - IITM",25-03-2026 08:00:00,19.1653323,72.922099,SO2,1,11,3
India,Maharashtra,Mumbai,"Khindipada-Bhandup West, Mumbai - IITM",25-03-2026 08:00:00,19.1653323,72.922099,OZONE,14,78,47
India,Maharashtra,Mumbai,"Kurla, Mumbai - MPCB",25-03-2026 08:00:00,19.0863,72.8888,PM10,41,144,88
India,Maharashtra,Mira-Bhayandar,"Bhayandar West, Mira-Bhayandar - MPCB",25-03-2026 08:00:00,19.296481,72.840923,CO,40,41,40
India,Maharashtra,Mumbai,"Bandra Kurla Complex, Mumbai - MPCB",25-03-2026 08:00:00,19.065931,72.862131,PM10,53,129,95
India,Maharashtra,Mumbai,"Bandra Kurla Complex, Mumbai - MPCB",25-03-2026 08:00:00,19.065931,72.862131,NO2,23,53,32
India,Maharashtra,Mumbai,"Borivali East, Mumbai - IITM",25-03-2026 08:00:00,19.23241,72.86895,PM2.5,60,145,95
India,Maharashtra,Mumbai,"Borivali East, Mumbai - IITM",25-03-2026 08:00:00,19.23241,72.86895,NO2,7,33,15
India,Maharashtra,Mumbai,"Borivali East, Mumbai - IITM",25-03-2026 08:00:00,19.23241,72.86895,NH3,3,7,4
India,Maharashtra,Mumbai,"Borivali East, Mumbai - MPCB",25-03-2026 08:00:00,19.2243333,72.8658113,PM2.5,26,71,47
India,Maharashtra,Mumbai,"Byculla, Mumbai - BMC",25-03-2026 08:00:00,18.9767,72.8380,PM2.5,43,92,64
India,Madhya Pradesh,Ujjain,"Mahashweta Nagar, Ujjain - MPPCB",25-03-2026 08:00:00,23.1633321,75.800225,CO,NA,NA,NA
India,Maharashtra,Ahmednagar,"Tarakpur, Ahmednagar - MPCB",25-03-2026 08:00:00,19.10122,74.73339,NO2,17,28,21
India,Maharashtra,Ahmednagar,"Tarakpur, Ahmednagar - MPCB",25-03-2026 08:00:00,19.10122,74.73339,NH3,5,6,6
India,Maharashtra,Ambernath,"Chinchpada, Ambernath - MPCB",25-03-2026 08:00:00,19.2157840,73.1997810,OZONE,NA,NA,NA
India,Maharashtra,Amravati,"Shivneri Colony, Amravati - MPCB",25-03-2026 08:00:00,20.9402359,77.7895248,PM2.5,51,87,64
India,Maharashtra,Amravati,"Shivneri Colony, Amravati - MPCB",25-03-2026 08:00:00,20.9402359,77.7895248,NH3,1,15,2
India,Maharashtra,Mumbai,"Malad West, Mumbai - IITM",25-03-2026 08:00:00,19.19709,72.82204,NO2,25,73,44
India,Maharashtra,Mumbai,"Malad West, Mumbai - IITM",25-03-2026 08:00:00,19.19709,72.82204,CO,26,65,33
India,Maharashtra,Mumbai,"Mazgaon, Mumbai - IITM",25-03-2026 08:00:00,18.96702,72.84214,PM2.5,29,84,52
India,Maharashtra,Mumbai,"Mulund West, Mumbai - MPCB",25-03-2026 08:00:00,19.1750,72.9419,NO2,20,31,25
India,Maharashtra,Mumbai,"Mulund West, Mumbai - MPCB",25-03-2026 08:00:00,19.1750,72.9419,NH3,2,4,3
India,Maharashtra,Mumbai,"Mulund West, Mumbai - MPCB",25-03-2026 08:00:00,19.1750,72.9419,SO2,NA,NA,NA
India,Maharashtra,Mumbai,"Navy Nagar-Colaba, Mumbai - IITM",25-03-2026 08:00:00,18.897756,72.813320,CO,32,66,38
India,Maharashtra,Kolhapur,"Shivaji University, Kolhapur - MPCB",25-03-2026 08:00:00,16.6870449,74.2505872,NO2,11,50,25
India,Maharashtra,Latur,"Sawe Wadi, Latur - MPCB",25-03-2026 08:00:00,18.39963,76.57452,SO2,NA,NA,NA
India,Maharashtra,Malegaon,"Mahesh Nagar, Malegaon - MPCB",25-03-2026 08:00:00,20.555712,74.529236,PM2.5,36,186,75
India,Maharashtra,Malegaon,"Mahesh Nagar, Malegaon - MPCB",25-03-2026 08:00:00,20.555712,74.529236,PM10,74,152,114
India,Maharashtra,Malegaon,"Mahesh Nagar, Malegaon - MPCB",25-03-2026 08:00:00,20.555712,74.529236,SO2,1,21,12
India,Maharashtra,Malegaon,"Mahesh Nagar, Malegaon - MPCB",25-03-2026 08:00:00,20.555712,74.529236,CO,2,87,21
India,Maharashtra,Mumbai,"Chakala-Andheri East, Mumbai - IITM",25-03-2026 08:00:00,19.11074,72.86084,SO2,1,18,7
India,Maharashtra,Mumbai,"Chembur, Mumbai - MPCB",25-03-2026 08:00:00,19.0364585,72.8954371,OZONE,4,84,16
India,Maharashtra,Mumbai,"Colaba, Mumbai - MPCB",25-03-2026 08:00:00,18.910000,72.820000,SO2,NA,NA,NA
India,Maharashtra,Mumbai,"Deonar, Mumbai - IITM",25-03-2026 08:00:00,19.04946,72.9230,NH3,14,19,16
India,Maharashtra,Mumbai,"Ghatkopar, Mumbai - BMC",25-03-2026 08:00:00,19.083694,72.920967,PM10,80,117,99
India,Maharashtra,Nashik,"Pandav Nagari, Nashik - MPCB",25-03-2026 08:00:00,19.9591346,73.7788008,OZONE,30,93,42
India,Maharashtra,Navi Mumbai,"Kopripada-Vashi, Navi Mumbai - MPCB",25-03-2026 08:00:00,19.090337,73.014232,NO2,16,40,24
India,Maharashtra,Navi Mumbai,"Kopripada-Vashi, Navi Mumbai - MPCB",25-03-2026 08:00:00,19.090337,73.014232,CO,12,79,43
India,Maharashtra,Navi Mumbai,"Mahape, Navi Mumbai - MPCB",25-03-2026 08:00:00,19.1135051,73.008978,PM10,58,468,128
India,Maharashtra,Navi Mumbai,"Mahape, Navi Mumbai - MPCB",25-03-2026 08:00:00,19.1135051,73.008978,SO2,18,20,19
India,Maharashtra,Navi Mumbai,"Mahape, Navi Mumbai - MPCB",25-03-2026 08:00:00,19.1135051,73.008978,OZONE,8,13,10
India,Maharashtra,Navi Mumbai,"Nerul, Navi Mumbai - MPCB",25-03-2026 08:00:00,19.008751,73.016620,NH3,NA,NA,NA
India,Maharashtra,Navi Mumbai,"Sanpada, Navi Mumbai - MPCB",25-03-2026 08:00:00,19.0575752,73.0151367,NH3,3,63,17
India,Maharashtra,Navi Mumbai,"Sector-2E Kalamboli, Navi Mumbai - MPCB",25-03-2026 08:00:00,19.02579,73.10297,NH3,7,7,7
India,Maharashtra,Navi Mumbai,"Sector-2E Kalamboli, Navi Mumbai - MPCB",25-03-2026 08:00:00,19.02579,73.10297,SO2,3,18,9
India,Maharashtra,Navi Mumbai,"Sector-2E Kalamboli, Navi Mumbai - MPCB",25-03-2026 08:00:00,19.02579,73.10297,CO,5,46,23
India,Maharashtra,Nagpur,"Ram Nagar, Nagpur - MPCB",25-03-2026 08:00:00,21.143383,79.048912,NH3,4,4,4
India,Maharashtra,Nagpur,"Ram Nagar, Nagpur - MPCB",25-03-2026 08:00:00,21.143383,79.048912,CO,15,101,35
India,Maharashtra,Nagpur,"Ram Nagar, Nagpur - MPCB",25-03-2026 08:00:00,21.143383,79.048912,OZONE,7,70,19
India,Maharashtra,Nanded,"Sneh Nagar, Nanded - MPCB",25-03-2026 08:00:00,19.173852,77.296291,PM2.5,38,81,65
India,Maharashtra,Nanded,"Sneh Nagar, Nanded - MPCB",25-03-2026 08:00:00,19.173852,77.296291,SO2,4,9,8
India,Maharashtra,Nashik,"Hirawadi, Nashik - MPCB",25-03-2026 08:00:00,20.021503,73.813844,PM2.5,34,86,53
India,Maharashtra,Nashik,"Hirawadi, Nashik - MPCB",25-03-2026 08:00:00,20.021503,73.813844,PM10,46,115,84
India,Maharashtra,Nashik,"Hirawadi, Nashik - MPCB",25-03-2026 08:00:00,20.021503,73.813844,NH3,2,3,2
India,Maharashtra,Nashik,"MIDC Ambad, Nashik - MPCB",25-03-2026 08:00:00,19.950220,73.731480,SO2,3,18,11
India,Maharashtra,Nashik,"MIDC Ambad, Nashik - MPCB",25-03-2026 08:00:00,19.950220,73.731480,OZONE,37,59,44
India,Maharashtra,Pune,"Katraj Dairy, Pune - MPCB",25-03-2026 08:00:00,18.454450,73.854155,OZONE,14,69,24
India,Maharashtra,Pune,"Mhada Colony, Pune - IITM",25-03-2026 08:00:00,18.573040,73.927715,CO,2,88,2
India,Maharashtra,Pune,"Panchawati_Pashan, Pune - IITM",25-03-2026 08:00:00,18.536457,73.805454,NO2,10,76,28
India,Maharashtra,Pune,"Revenue Colony-Shivajinagar, Pune - IITM",25-03-2026 08:00:00,18.530085,73.849598,PM2.5,36,152,83
India,Maharashtra,Pune,"Savitribai Phule Pune University, Pune - MPCB",25-03-2026 08:00:00,18.547056,73.826908,PM2.5,NA,NA,NA
India,Maharashtra,Pune,"Savitribai Phule Pune University, Pune - MPCB",25-03-2026 08:00:00,18.547056,73.826908,OZONE,NA,NA,NA
India,Maharashtra,Sangli,"Vijay Nagar, Sangli - MPCB",25-03-2026 08:00:00, 16.5038,74.3623,PM10,64,129,93
India,Maharashtra,Pimpri-Chinchwad,"Thergaon, Pimpri Chinchwad - MPCB",25-03-2026 08:00:00,18.616318,73.765797,PM10,73,175,115
India,Maharashtra,Pune,"Bhosari, Pune - IITM",25-03-2026 08:00:00,18.640051,73.848956,PM2.5,29,222,84
India,Maharashtra,Pune,"Bhumkar Nagar, Pune - IITM",25-03-2026 08:00:00,18.605770,73.749976,NO2,18,90,40
India,Maharashtra,Pune,"Dhankawadi, Pune - IITM",25-03-2026 08:00:00,18.459883,73.852193,OZONE,3,68,16
India,Maharashtra,Pune,"Hadapsar, Pune - IITM",25-03-2026 08:00:00,18.501793,73.927532,PM10,89,180,127
India,Maharashtra,Pune,"Hadapsar, Pune - IITM",25-03-2026 08:00:00,18.501793,73.927532,OZONE,1,82,12
India,Maharashtra,Pune,"Katraj Dairy, Pune - MPCB",25-03-2026 08:00:00,18.454450,73.854155,NH3,NA,NA,NA
India,Maharashtra,Solapur,"Ratandeep Housing Society, Solapur - MPCB",25-03-2026 08:00:00,17.65439,75.90649,PM2.5,NA,NA,NA
India,Maharashtra,Solapur,"Ratandeep Housing Society, Solapur - MPCB",25-03-2026 08:00:00,17.65439,75.90649,NH3,NA,NA,NA
India,Maharashtra,Thane,"Kasarvadavali, Thane - MPCB",25-03-2026 08:00:00,19.26777,72.97182,OZONE,10,90,17
India,Maharashtra,Thane,"Upvan Fort, Thane - MPCB",25-03-2026 08:00:00,19.222279,72.957979,SO2,9,9,9
India,Maharashtra,Ulhasnagar,"Sidhi Vinayak Nagar, Ulhasnagar - MPCB",25-03-2026 08:00:00,19.235581,73.159121,PM10,102,174,133
India,Maharashtra,Ulhasnagar,"Sidhi Vinayak Nagar, Ulhasnagar - MPCB",25-03-2026 08:00:00,19.235581,73.159121,NO2,13,42,30
India,Maharashtra,Mumbai,"Worli, Mumbai -MPCB",25-03-2026 08:00:00,18.9942180,72.8158167,SO2,30,38,34
India,Maharashtra,Nagpur,"Ambazari, Nagpur - MPCB",25-03-2026 08:00:00,21.121801,79.04952,PM10,78,167,112
India,Maharashtra,Nagpur,"Ambazari, Nagpur - MPCB",25-03-2026 08:00:00,21.121801,79.04952,SO2,16,49,26
India,Maharashtra,Nagpur,"Ambazari, Nagpur - MPCB",25-03-2026 08:00:00,21.121801,79.04952,CO,5,158,19
India,Maharashtra,Nagpur,"Mahal, Nagpur - MPCB",25-03-2026 08:00:00,21.14472,79.107595,NH3,8,17,11
India,Maharashtra,Nagpur,"Mahal, Nagpur - MPCB",25-03-2026 08:00:00,21.14472,79.107595,SO2,2,121,68
India,Maharashtra,Mumbai,"Shivaji Nagar, Mumbai - BMC",25-03-2026 08:00:00,19.060498,72.923356,PM2.5,28,137,68
India,Maharashtra,Mumbai,"Shivaji Nagar, Mumbai - BMC",25-03-2026 08:00:00,19.060498,72.923356,NO2,7,21,15
India,Maharashtra,Mumbai,"Shivaji Nagar, Mumbai - BMC",25-03-2026 08:00:00,19.060498,72.923356,SO2,6,24,15
India,Maharashtra,Mumbai,"Siddharth Nagar-Worli, Mumbai - IITM",25-03-2026 08:00:00,19.000083,72.813993,PM2.5,48,99,73
India,Maharashtra,Mumbai,"Sion, Mumbai - MPCB",25-03-2026 08:00:00,19.047000,72.874600,PM10,51,134,102
India,Maharashtra,Parbhani,"Masoom Colony, Parbhani - MPCB",25-03-2026 08:00:00,19.265594,76.761463,NO2,2,95,44
India,Maharashtra,Parbhani,"Masoom Colony, Parbhani - MPCB",25-03-2026 08:00:00,19.265594,76.761463,NH3,3,5,4
India,Maharashtra,Pimpri-Chinchwad,"Gavalinagar, Pimpri Chinchwad - MPCB",25-03-2026 08:00:00,18.63673,73.82487,PM2.5,NA,NA,NA
India,Maharashtra,Pimpri-Chinchwad,"Gavalinagar, Pimpri Chinchwad - MPCB",25-03-2026 08:00:00,18.63673,73.82487,NH3,NA,NA,NA
India,Maharashtra,Pimpri-Chinchwad,"Gavalinagar, Pimpri Chinchwad - MPCB",25-03-2026 08:00:00,18.63673,73.82487,SO2,NA,NA,NA
India,Maharashtra,Nagpur,"Opp GPO Civil Lines, Nagpur - MPCB",25-03-2026 08:00:00,21.152875,79.0517531,SO2,10,49,25
India,Punjab,Amritsar,"Golden Temple, Amritsar - PPCB",25-03-2026 08:00:00,31.620000,74.876512,NH3,5,10,7
India,Punjab,Amritsar,"Golden Temple, Amritsar - PPCB",25-03-2026 08:00:00,31.620000,74.876512,SO2,14,39,20
India,Punjab,Amritsar,"Golden Temple, Amritsar - PPCB",25-03-2026 08:00:00,31.620000,74.876512,OZONE,28,45,35
India,Punjab,Bathinda,"Hardev Nagar, Bathinda - PPCB",25-03-2026 08:00:00,30.233011,74.907758,NO2,24,38,28
India,Punjab,Bathinda,"Hardev Nagar, Bathinda - PPCB",25-03-2026 08:00:00,30.233011,74.907758,SO2,3,17,10
India,Punjab,Jalandhar,"Civil Line, Jalandhar - PPCB",25-03-2026 08:00:00,31.321907,75.578914,PM2.5,34,107,68
India,Punjab,Jalandhar,"Civil Line, Jalandhar - PPCB",25-03-2026 08:00:00,31.321907,75.578914,PM10,37,109,74
India,Punjab,Jalandhar,"Civil Line, Jalandhar - PPCB",25-03-2026 08:00:00,31.321907,75.578914,CO,52,60,57
India,Punjab,Khanna,"Kalal Majra, Khanna - PPCB",25-03-2026 08:00:00,30.736056 ,76.209694,PM2.5,50,143,78
India,Punjab,Khanna,"Kalal Majra, Khanna - PPCB",25-03-2026 08:00:00,30.736056 ,76.209694,PM10,43,103,65
India,Punjab,Ludhiana,"Punjab Agricultural University, Ludhiana - PPCB",25-03-2026 08:00:00,30.9028,75.8086,PM2.5,54,334,98
India,Punjab,Ludhiana,"Punjab Agricultural University, Ludhiana - PPCB",25-03-2026 08:00:00,30.9028,75.8086,PM10,65,280,108
India,Maharashtra,Virar,"Bolinj, Virar - MPCB",25-03-2026 08:00:00,19.4458210,72.7988231,NO2,15,58,25
India,Meghalaya,Shillong,"JN Stadium, Shillong - Meghalaya PCB",25-03-2026 08:00:00,25.5803419,91.8942571,CO,12,58,16
India,Meghalaya,Shillong,"Lumpyngngad, Shillong - Meghalaya PCB",25-03-2026 08:00:00,25.5586,91.8985,PM2.5,3,13,8
India,Meghalaya,Shillong,"Lumpyngngad, Shillong - Meghalaya PCB",25-03-2026 08:00:00,25.5586,91.8985,NO2,NA,NA,NA
India,Meghalaya,Shillong,"Lumpyngngad, Shillong - Meghalaya PCB",25-03-2026 08:00:00,25.5586,91.8985,OZONE,13,60,55
India,Mizoram,Aizawl,"Sikulpuikawn, Aizawl - Mizoram PCB",25-03-2026 08:00:00,23.7176342,92.7192841,PM10,42,68,54
India,Nagaland,Kohima,"PWD Junction, Kohima - NPCB",25-03-2026 08:00:00,25.6635413,94.0989878,PM10,8,53,27
India,Odisha,Keonjhar,"Jagamohanpur, Keonjhar - OSPCB",25-03-2026 08:00:00,21.643900,85.599355,OZONE,5,37,8
India,Odisha,Nayagarh,"Dabuna, Nayagarh - OSPCB",25-03-2026 08:00:00,21.847279,85.416905,NO2,6,9,7
India,Odisha,Nayagarh,"Dabuna, Nayagarh - OSPCB",25-03-2026 08:00:00,21.847279,85.416905,OZONE,11,14,12
India,Odisha,Rairangpur,"Divisional Forest Office, Rairangpur - OSPCB",25-03-2026 08:00:00,22.265816,86.174829,NO2,11,12,11
India,Odisha,Rairangpur,"Divisional Forest Office, Rairangpur - OSPCB",25-03-2026 08:00:00,22.265816,86.174829,NH3,1,1,1
India,Odisha,Rourkela,"Fertilizer Township, Rourkela - OSPCB",25-03-2026 08:00:00,22.18972222,84.86277778,PM10,84,90,86
India,Odisha,Baripada,"Meher Colony, Baripada - OSPCB",25-03-2026 08:00:00,21.941841,86.728318,OZONE,1,67,15
India,Odisha,Bhubaneswar,"Lingraj Mandir, Bhubaneswar - OSPCB",25-03-2026 08:00:00,20.240790,85.836784,PM2.5,11,62,30
India,Odisha,Bhubaneswar,"Lingraj Mandir, Bhubaneswar - OSPCB",25-03-2026 08:00:00,20.240790,85.836784,PM10,19,65,39
India,Odisha,Bhubaneswar,"Lingraj Mandir, Bhubaneswar - OSPCB",25-03-2026 08:00:00,20.240790,85.836784,NH3,2,8,4
India,Odisha,Bhubaneswar,"Patia, Bhubaneswar - OSPCB",25-03-2026 08:00:00,20.34652,85.81630,OZONE,19,64,22
India,Odisha,Bileipada,"Tata Township, Bileipada - OSPCB",25-03-2026 08:00:00,22.06156703,85.47409613,PM2.5,42,181,122
India,Odisha,Angul,"Hakimapada, Angul - OSPCB",25-03-2026 08:00:00,20.832874,85.104082,NH3,3,10,5
India,Odisha,Balasore,"Kalidaspur, Balasore - OSPCB",25-03-2026 08:00:00,21.51161,86.89088,CO,40,48,42
India,Odisha,Barbil,"Forest Office, Barbil - OSPCB",25-03-2026 08:00:00,22.1166054,85.3945546,PM10,70,405,153
India,Odisha,Barbil,"Forest Office, Barbil - OSPCB",25-03-2026 08:00:00,22.1166054,85.3945546,CO,8,100,50
India,Odisha,Barbil,"Forest Office, Barbil - OSPCB",25-03-2026 08:00:00,22.1166054,85.3945546,OZONE,3,220,21
India,Odisha,Baripada,"Meher Colony, Baripada - OSPCB",25-03-2026 08:00:00,21.941841,86.728318,PM10,15,94,63
India,Odisha,Bileipada,"Tata Township, Bileipada - OSPCB",25-03-2026 08:00:00,22.06156703,85.47409613,NH3,6,6,6
India,Odisha,Bileipada,"Tata Township, Bileipada - OSPCB",25-03-2026 08:00:00,22.06156703,85.47409613,OZONE,14,19,15
India,Odisha,Brajrajnagar,"GM Office, Brajrajnagar - OSPCB",25-03-2026 08:00:00,21.8004996,83.8396977,NH3,4,14,13
India,Odisha,Byasanagar,"Ferro Chrome Colony, Byasanagar - OSPCB",25-03-2026 08:00:00,20.94185,86.11510,PM2.5,18,80,40
India,Odisha,Rourkela,"Raghunathpali, Rourkela - OSPCB",25-03-2026 08:00:00,22.220833,84.809444,NO2,15,15,15
India,Odisha,Rourkela,"Sector-2, Rourkela - OSPCB",25-03-2026 08:00:00,22.24500000,84.88111111,PM2.5,37,110,55
India,Odisha,Rourkela,"Sector-2, Rourkela - OSPCB",25-03-2026 08:00:00,22.24500000,84.88111111,NO2,17,17,17
India,Odisha,Suakati,"OMC Colony, Suakati - OSPCB",25-03-2026 08:00:00,21.606865,85.510538,SO2,3,25,15
India,Maharashtra,Ulhasnagar,"Sidhi Vinayak Nagar, Ulhasnagar - MPCB",25-03-2026 08:00:00,19.235581,73.159121,SO2,9,48,16
India,Maharashtra,Ulhasnagar,"Vithalwadi, Ulhasnagar - MPCB",25-03-2026 08:00:00,19.2307571 ,73.1551920,PM10,40,179,100
India,Maharashtra,Ulhasnagar,"Vithalwadi, Ulhasnagar - MPCB",25-03-2026 08:00:00,19.2307571 ,73.1551920,CO,2,109,39
India,Punjab,Rupnagar,"Ratanpura, Rupnagar - Ambuja Cements",25-03-2026 08:00:00,31.0325454,76.5623046,PM10,21,434,181
India,Rajasthan,Ajmer,"Civil Lines,  Ajmer - RSPCB",25-03-2026 08:00:00,26.470859,74.646594,PM10,43,114,78
India,Rajasthan,Ajmer,"Civil Lines,  Ajmer - RSPCB",25-03-2026 08:00:00,26.470859,74.646594,NH3,3,4,4
India,Rajasthan,Alwar,"Moti Doongri, Alwar - RSPCB",25-03-2026 08:00:00,27.554793,76.611536,SO2,7,44,25
India,Rajasthan,Banswara,"Rati Talai, Banswara - RSPCB",25-03-2026 08:00:00,23.555190,74.440010,SO2,3,17,9
India,Rajasthan,Baran,"Bamboliya, Baran - RSPCB",25-03-2026 08:00:00,25.106006,76.469948,PM2.5,18,95,55
India,Rajasthan,Hanumangarh,"Housing Board, Hanumangarh - RSPCB",25-03-2026 08:00:00,29.610750,74.283608,PM2.5,8,60,31
India,Rajasthan,Jaipur,"Adarsh Nagar, Jaipur - RSPCB",25-03-2026 08:00:00,26.902909,75.836858,NO2,13,85,29
India,Rajasthan,Jaipur,"Adarsh Nagar, Jaipur - RSPCB",25-03-2026 08:00:00,26.902909,75.836858,NH3,6,24,9
India,Rajasthan,Jaipur,"Adarsh Nagar, Jaipur - RSPCB",25-03-2026 08:00:00,26.902909,75.836858,SO2,13,34,23
India,Rajasthan,Jaipur,"Adarsh Nagar, Jaipur - RSPCB",25-03-2026 08:00:00,26.902909,75.836858,CO,12,109,27
India,Rajasthan,Jaipur,"Mansarovar Sector-12, Jaipur - RSPCB",25-03-2026 08:00:00,26.843698,75.766894,NO2,47,84,58
India,Rajasthan,Bhilwara,"Pratap Nagar, Bhilwara - RSPCB",25-03-2026 08:00:00,25.339605,74.618883,CO,12,99,59
India,Rajasthan,Bhiwadi,"RIICO Ind. Area III, Bhiwadi - RSPCB",25-03-2026 08:00:00,28.194909,76.862296,PM2.5,66,228,130
India,Rajasthan,Bhiwadi,"RIICO Ind. Area III, Bhiwadi - RSPCB",25-03-2026 08:00:00,28.194909,76.862296,CO,10,76,52
India,Rajasthan,Bhiwadi,"Vasundhara Nagar_UIT, Bhiwadi - RSPCB",25-03-2026 08:00:00,28.207266,76.829265,NO2,15,86,40
India,Rajasthan,Bhiwadi,"Vasundhara Nagar_UIT, Bhiwadi - RSPCB",25-03-2026 08:00:00,28.207266,76.829265,SO2,7,21,13
India,Rajasthan,Jaipur,"Mansarovar Sector-12, Jaipur - RSPCB",25-03-2026 08:00:00,26.843698,75.766894,CO,48,132,55
India,Rajasthan,Jaipur,"Police Commissionerate, Jaipur - RSPCB",25-03-2026 08:00:00,26.9164092,75.7994901,NH3,1,6,2
India,Rajasthan,Chittorgarh,"Shastri Nagar, Chittorgarh - RSPCB",25-03-2026 08:00:00,24.892047,74.623527,PM2.5,20,143,79
India,Rajasthan,Chittorgarh,"Shastri Nagar, Chittorgarh - RSPCB",25-03-2026 08:00:00,24.892047,74.623527,NO2,8,89,52
India,Rajasthan,Bharatpur,"Krishna Nagar, Bharatpur - RSPCB",25-03-2026 08:00:00,27.215415,77.50873,PM10,45,122,81
India,Rajasthan,Bharatpur,"Krishna Nagar, Bharatpur - RSPCB",25-03-2026 08:00:00,27.215415,77.50873,NO2,9,51,25
India,Rajasthan,Bikaner,"MM Ground, Bikaner - RSPCB",25-03-2026 08:00:00,28.018792,73.292658,SO2,1,14,8
India,Rajasthan,Bikaner,"MM Ground, Bikaner - RSPCB",25-03-2026 08:00:00,28.018792,73.292658,CO,12,135,19
India,Rajasthan,Dholpur,"Raja Ganj, Dholpur - RSPCB",25-03-2026 08:00:00,26.699557,77.898881,SO2,5,12,9
India,Rajasthan,Dholpur,"Raja Ganj, Dholpur - RSPCB",25-03-2026 08:00:00,26.699557,77.898881,OZONE,7,60,18
India,Rajasthan,Dausa,"Khatikan Mohalla, Dausa - RSPCB",25-03-2026 08:00:00,26.895552,76.334753,CO,12,135,16
India,Rajasthan,Jalore,"Mudtra Sili, Jalore - RSPCB",25-03-2026 08:00:00,25.344694,72.626208,PM2.5,18,68,34
India,Rajasthan,Jalore,"Mudtra Sili, Jalore - RSPCB",25-03-2026 08:00:00,25.344694,72.626208,PM10,31,181,68
India,Rajasthan,Jalore,"Mudtra Sili, Jalore - RSPCB",25-03-2026 08:00:00,25.344694,72.626208,CO,8,104,12
India,Rajasthan,Jhalawar,"Rajlaxmi Nagar, Jhalawar - RSPCB",25-03-2026 08:00:00,24.588397,76.172782,NO2,24,40,32
India,Rajasthan,Jhunjhunu,"Indra Nagar, Jhunjhunu - RSPCB",25-03-2026 08:00:00,28.108988,75.386577,OZONE,34,119,45
India,Rajasthan,Jodhpur,"Collectorate, Jodhpur - RSPCB",25-03-2026 08:00:00,26.268249,73.0193853,OZONE,3,75,13
India,Rajasthan,Jodhpur,"Digari Kalan, Jodhpur - RSPCB",25-03-2026 08:00:00,26.295810,73.082283,PM2.5,7,85,34
India,TamilNadu,Chennai,"Manali, Chennai - CPCB",25-03-2026 08:00:00,13.164544,80.26285,PM2.5,15,54,24
India,TamilNadu,Chennai,"Perungudi, Chennai - TNPCB",25-03-2026 08:00:00,12.9533,80.2357,CO,22,50,33
India,TamilNadu,Chennai,"Royapuram, Chennai - TNPCB",25-03-2026 08:00:00,13.1036,80.2909,NO2,10,17,14
India,TamilNadu,Chennai,"Royapuram, Chennai - TNPCB",25-03-2026 08:00:00,13.1036,80.2909,NH3,4,5,4
India,TamilNadu,Chennai,"Royapuram, Chennai - TNPCB",25-03-2026 08:00:00,13.1036,80.2909,SO2,5,8,6
India,TamilNadu,Chennai,"Velachery Res. Area, Chennai - CPCB",25-03-2026 08:00:00,13.0052189,80.2398125,PM2.5,NA,NA,NA
India,TamilNadu,Coimbatore,"SIDCO Kurichi, Coimbatore - TNPCB",25-03-2026 08:00:00,10.942451,76.978996,CO,NA,NA,NA
India,Rajasthan,Kota,"Nayapura, Kota - RSPCB",25-03-2026 08:00:00,25.196024,75.855668,PM10,40,133,91
India,Rajasthan,Kota,"Nayapura, Kota - RSPCB",25-03-2026 08:00:00,25.196024,75.855668,NO2,14,102,52
India,Rajasthan,Kota,"Shrinath Puram, Kota - RSPCB",25-03-2026 08:00:00,25.14389,75.821256,CO,9,71,29
India,Rajasthan,Nagaur,"Karni Colony, Nagaur - RSPCB",25-03-2026 08:00:00,27.213494,73.734444,NH3,5,12,8
India,Rajasthan,Nagaur,"Karni Colony, Nagaur - RSPCB",25-03-2026 08:00:00,27.213494,73.734444,SO2,2,6,4
India,Rajasthan,Pratapgarh,"Pragati Nagar, Pratapgarh - RSPCB",25-03-2026 08:00:00,24.041198,74.780702,SO2,3,10,4
India,Rajasthan,Pratapgarh,"Pragati Nagar, Pratapgarh - RSPCB",25-03-2026 08:00:00,24.041198,74.780702,CO,12,39,17
India,TamilNadu,Madurai,"Uchapatti, Madurai - TNPCB",25-03-2026 08:00:00,9.865935,78.022669,CO,NA,NA,NA
India,TamilNadu,Thoothukudi,"Meelavittan, Thoothukudi - TNPCB",25-03-2026 08:00:00,8.816428 ,78.099039,CO,8,51,22
India,Telangana,Hyderabad,"ICRISAT Patancheru, Hyderabad - TSPCB",25-03-2026 08:00:00,17.518400,78.278777,PM2.5,32,72,47
India,Telangana,Hyderabad,"ICRISAT Patancheru, Hyderabad - TSPCB",25-03-2026 08:00:00,17.518400,78.278777,NO2,2,23,11
India,Telangana,Hyderabad,"ICRISAT Patancheru, Hyderabad - TSPCB",25-03-2026 08:00:00,17.518400,78.278777,OZONE,9,95,16
India,Telangana,Hyderabad,"IDA Pashamylaram, Hyderabad - TSPCB",25-03-2026 08:00:00,17.5316895,78.218939,PM2.5,24,74,53
India,Rajasthan,Jodhpur,"Mandor, Jodhpur - RSPCB",25-03-2026 08:00:00,26.358805,73.047444,SO2,1,7,3
India,Rajasthan,Jodhpur,"Samrat Ashok Udhyan, Jodhpur - RSPCB",25-03-2026 08:00:00,26.253384,72.976571,OZONE,4,139,48
India,Rajasthan,Karauli,"Satyawati Vihar, Karauli - RSPCB",25-03-2026 08:00:00,26.506177,77.025989,SO2,3,6,4
India,Rajasthan,Karauli,"Satyawati Vihar, Karauli - RSPCB",25-03-2026 08:00:00,26.506177,77.025989,OZONE,7,89,13
India,Rajasthan,Kota,"Dhanmandi, Kota - RSPCB",25-03-2026 08:00:00,25.164090,75.858137,NO2,25,110,58
India,Rajasthan,Sawai Madhopur,"Sahu Nagar, Sawai Madhopur - RSPCB",25-03-2026 08:00:00,26.031443,76.359327,PM10,55,340,137
India,Rajasthan,Sawai Madhopur,"Sahu Nagar, Sawai Madhopur - RSPCB",25-03-2026 08:00:00,26.031443,76.359327,NH3,6,12,8
India,Rajasthan,Sirohi,"Vedhaynath Colony, Sirohi - RSPCB",25-03-2026 08:00:00,24.885261,72.857549,OZONE,24,72,34
India,Rajasthan,Sri Ganganagar,"Old City, Sri Ganganagar - RSPCB",25-03-2026 08:00:00,29.931624,73.864511,PM10,57,157,107
India,Sikkim,Gangtok,"Zero Point GICI, Gangtok - SSPCB",25-03-2026 08:00:00,27.338530,88.614099,PM10,NA,NA,NA
India,TamilNadu,Chennai,"Kodungaiyur, Chennai - TNPCB",25-03-2026 08:00:00,13.1278,80.2642,NO2,11,18,14
India,Rajasthan,Jaisalmer,"Sadar Bazar, Jaisalmer - RSPCB",25-03-2026 08:00:00,26.912329,70.909168,PM10,14,145,56
India,Rajasthan,Jaisalmer,"Sadar Bazar, Jaisalmer - RSPCB",25-03-2026 08:00:00,26.912329,70.909168,NH3,11,22,15
India,Rajasthan,Jaipur,"Shastri Nagar, Jaipur - RSPCB",25-03-2026 08:00:00,26.9502929,75.730943,PM2.5,33,182,72
India,Uttar_Pradesh,Lucknow,"B R Ambedkar University, Lucknow - UPPCB",25-03-2026 08:00:00,26.766433,80.927299,SO2,14,14,14
India,Uttar_Pradesh,Lucknow,"Kukrail Picnic Spot-1, Lucknow - UPPCB",25-03-2026 08:00:00,26.90723,80.98579,NH3,6,6,6
India,Uttar_Pradesh,Lucknow,"Lalbagh, Lucknow - CPCB",25-03-2026 08:00:00,26.8458805,80.9365541,NO2,35,39,36
India,Uttar_Pradesh,Lucknow,"Lalbagh, Lucknow - CPCB",25-03-2026 08:00:00,26.8458805,80.9365541,OZONE,6,34,15
India,Uttar_Pradesh,Lucknow,"Talkatora District Industries Center, Lucknow - CPCB",25-03-2026 08:00:00,26.83399722,80.8917361,PM10,61,110,89
India,Uttar_Pradesh,Lucknow,"Talkatora District Industries Center, Lucknow - CPCB",25-03-2026 08:00:00,26.83399722,80.8917361,CO,15,30,22
India,Uttar_Pradesh,Meerut,"Ganga Nagar, Meerut - UPPCB",25-03-2026 08:00:00,28.999264,77.7590354,PM2.5,37,317,108
India,Uttar_Pradesh,Meerut,"Ganga Nagar, Meerut - UPPCB",25-03-2026 08:00:00,28.999264,77.7590354,NO2,64,109,94
India,Telangana,Hyderabad,"Ramachandrapuram, Hyderabad - TSPCB",25-03-2026 08:00:00,17.528544,78.286195,PM10,82,98,88
India,Telangana,Hyderabad,"Ramachandrapuram, Hyderabad - TSPCB",25-03-2026 08:00:00,17.528544,78.286195,NH3,3,5,4
India,Telangana,Hyderabad,"Ramachandrapuram, Hyderabad - TSPCB",25-03-2026 08:00:00,17.528544,78.286195,OZONE,26,33,26
India,Telangana,Hyderabad,"Sanathnagar, Hyderabad - TSPCB",25-03-2026 08:00:00,17.4559458,78.4332152,OZONE,14,20,16
India,Telangana,Hyderabad,"Zoo Park, Hyderabad - TSPCB",25-03-2026 08:00:00,17.349694,78.451437,NH3,3,3,3
India,Telangana,Hyderabad,"Zoo Park, Hyderabad - TSPCB",25-03-2026 08:00:00,17.349694,78.451437,SO2,2,2,2
India,Telangana,Hyderabad,"Zoo Park, Hyderabad - TSPCB",25-03-2026 08:00:00,17.349694,78.451437,CO,1,71,7
India,Telangana,Hyderabad,"Zoo Park, Hyderabad - TSPCB",25-03-2026 08:00:00,17.349694,78.451437,OZONE,21,28,23
India,Tripura,Agartala,"Bardowali, Agartala - Tripura SPCB",25-03-2026 08:00:00,23.8175497,91.2726974,PM2.5,56,258,115
India,Uttar_Pradesh,Baghpat,"Sardar Patel Inter College, Baghpat - UPPCB",25-03-2026 08:00:00,28.964949,77.278761,NO2,12,32,24
India,Uttar_Pradesh,Bareilly,"Rajendra Nagar, Bareilly - UPPCB",25-03-2026 08:00:00,28.38910936,79.42963708,NH3,1,1,1
India,Uttar_Pradesh,Bareilly,"Rajendra Nagar, Bareilly - UPPCB",25-03-2026 08:00:00,28.38910936,79.42963708,CO,26,45,30
India,Uttar_Pradesh,Bareilly,"Rajendra Nagar, Bareilly - UPPCB",25-03-2026 08:00:00,28.38910936,79.42963708,OZONE,1,20,3
India,Uttar_Pradesh,Bulandshahr,"Yamunapuram, Bulandshahr - UPPCB",25-03-2026 08:00:00,28.406963,77.849831,PM2.5,73,282,152
India,Uttar_Pradesh,Firozabad,"Nagla Bhau, Firozabad - UPPCB",25-03-2026 08:00:00,27.168897,78.376960,PM10,32,141,74
India,Uttar_Pradesh,Firozabad,"Nagla Bhau, Firozabad - UPPCB",25-03-2026 08:00:00,27.168897,78.376960,NH3,2,2,2
India,Telangana,Hyderabad,"IITH Kandi, Hyderabad - TSPCB",25-03-2026 08:00:00,17.585705,78.126199,NO2,NA,NA,NA
India,Telangana,Hyderabad,"Kokapet, Hyderabad - TSPCB",25-03-2026 08:00:00,17.393559,78.339194,NO2,12,16,14
India,Telangana,Hyderabad,"Kompally Municipal Office, Hyderabad - TSPCB",25-03-2026 08:00:00,17.544899,78.486949,PM10,71,139,97
India,Telangana,Hyderabad,"Kompally Municipal Office, Hyderabad - TSPCB",25-03-2026 08:00:00,17.544899,78.486949,NH3,2,4,3
India,Telangana,Hyderabad,"Kompally Municipal Office, Hyderabad - TSPCB",25-03-2026 08:00:00,17.544899,78.486949,SO2,2,8,5
India,Telangana,Hyderabad,"New Malakpet, Hyderabad - TSPCB",25-03-2026 08:00:00,17.37206,78.50864,PM10,75,101,87
India,Telangana,Hyderabad,"New Malakpet, Hyderabad - TSPCB",25-03-2026 08:00:00,17.37206,78.50864,NH3,2,3,2
India,Uttar_Pradesh,Gorakhpur,"Madan Mohan Malaviya University of Technology, Gorakhpur - UPPCB",25-03-2026 08:00:00,26.730136,83.433859,NH3,1,1,1
India,Uttar_Pradesh,Greater Noida,"Knowledge Park - III, Greater Noida - UPPCB",25-03-2026 08:00:00,28.47272,77.482000,OZONE,3,107,5
India,Uttar_Pradesh,Greater Noida,"Knowledge Park - V, Greater Noida - UPPCB",25-03-2026 08:00:00,28.557054,77.453663,PM2.5,64,391,164
India,Uttar_Pradesh,Greater Noida,"Knowledge Park - V, Greater Noida - UPPCB",25-03-2026 08:00:00,28.557054,77.453663,NO2,NA,NA,NA
India,Uttar_Pradesh,Hapur,"Anand Vihar, Hapur - UPPCB",25-03-2026 08:00:00,28.725645,77.749675,OZONE,16,67,22
India,Uttar_Pradesh,Firozabad,"Vibhab Nagar, Firozabad - UPPCB",25-03-2026 08:00:00,27.1594,78.3953,NH3,2,2,2
India,Uttar_Pradesh,Ghaziabad,"Indirapuram, Ghaziabad - UPPCB",25-03-2026 08:00:00,28.646233,77.358075,NO2,15,159,46
India,Uttar_Pradesh,Ghaziabad,"Loni, Ghaziabad - UPPCB",25-03-2026 08:00:00,28.757294,77.278792,NH3,NA,NA,NA
India,Uttar_Pradesh,Ghaziabad,"Loni, Ghaziabad - UPPCB",25-03-2026 08:00:00,28.757294,77.278792,OZONE,NA,NA,NA
India,Uttar_Pradesh,Ghaziabad,"Sanjay Nagar, Ghaziabad - UPPCB",25-03-2026 08:00:00,28.685382,77.453839,PM2.5,46,309,144
India,Uttar_Pradesh,Ghaziabad,"Sanjay Nagar, Ghaziabad - UPPCB",25-03-2026 08:00:00,28.685382,77.453839,PM10,86,305,156
India,Uttar_Pradesh,Jhansi,"Shivaji Nagar, Jhansi - UPPCB",25-03-2026 08:00:00,25.4547,78.6039,CO,2,32,14
India,Uttar_Pradesh,Kanpur,"FTI Kidwai Nagar, Kanpur - UPPCB",25-03-2026 08:00:00,26.428282,80.327067,CO,32,39,37
India,Uttar_Pradesh,Kanpur,"NSI Kalyanpur, Kanpur - UPPCB",25-03-2026 08:00:00,26.509954,80.249612,OZONE,15,16,16
India,Uttar_Pradesh,Kanpur,"Nehru Nagar, Kanpur - UPPCB",25-03-2026 08:00:00,26.4703136,80.3229863,PM10,15,96,48
India,Uttar_Pradesh,Agra,"Rohta, Agra - UPPCB",25-03-2026 08:00:00,27.106972,78.000111,PM2.5,28,174,85
India,Uttar_Pradesh,Agra,"Shahjahan Garden, Agra - UPPCB",25-03-2026 08:00:00,27.169338,78.03582,NH3,3,3,3
India,Uttar_Pradesh,Agra,"Shastripuram, Agra - UPPCB",25-03-2026 08:00:00,27.19862,77.92066,SO2,18,51,33
India,Uttar_Pradesh,Meerut,"Jai Bhim Nagar, Meerut - UPPCB",25-03-2026 08:00:00,28.9535882,77.7622941,OZONE,32,93,44
India,West_Bengal,Asansol,"Trivenidevi Bhalotia College, Asansol - WBPCB",25-03-2026 08:00:00,23.616515,87.119133,OZONE,6,61,8
India,West_Bengal,Durgapur,"Mahishkapur Road_B-Zone, Durgapur - WBPCB",25-03-2026 08:00:00,23.567923,87.306843,CO,41,74,57
India,West_Bengal,Durgapur,"Mahishkapur Road_B-Zone, Durgapur - WBPCB",25-03-2026 08:00:00,23.567923,87.306843,OZONE,4,72,10
India,West_Bengal,Durgapur,"PCBL Residential Complex, Durgapur - WBPCB",25-03-2026 08:00:00,23.5087640,87.3544400,PM2.5,6,76,45
India,West_Bengal,Durgapur,"PCBL Residential Complex, Durgapur - WBPCB",25-03-2026 08:00:00,23.5087640,87.3544400,OZONE,1,61,4
India,West_Bengal,Durgapur,"Womens College_City Center, Durgapur - WBPCB",25-03-2026 08:00:00,23.549395,87.300496,PM2.5,36,84,52
India,West_Bengal,Durgapur,"Womens College_City Center, Durgapur - WBPCB",25-03-2026 08:00:00,23.549395,87.300496,NO2,20,34,27
India,West_Bengal,Durgapur,"Womens College_City Center, Durgapur - WBPCB",25-03-2026 08:00:00,23.549395,87.300496,CO,14,42,35
India,West_Bengal,Durgapur,"Womens College_City Center, Durgapur - WBPCB",25-03-2026 08:00:00,23.549395,87.300496,OZONE,2,89,6
India,West_Bengal,Haldia,"Priyambada Housing Estate, Haldia - WBPCB",25-03-2026 08:00:00,22.06047,88.109737,NH3,6,10,7
India,West_Bengal,Haldia,"Priyambada Housing Estate, Haldia - WBPCB",25-03-2026 08:00:00,22.06047,88.109737,SO2,11,25,14
India,Uttarakhand,Rishikesh,"Shivaji Nagar, Rishikesh - UKPCB",25-03-2026 08:00:00,30.075911,78.2859547,NH3,2,13,2
India,Uttarakhand,Rishikesh,"Shivaji Nagar, Rishikesh - UKPCB",25-03-2026 08:00:00,30.075911,78.2859547,CO,37,37,37
India,West_Bengal,Asansol,"Asansol Court Area, Asansol - WBPCB",25-03-2026 08:00:00,23.685297,86.945968,NH3,3,9,5
India,West_Bengal,Asansol,"Evelyn Lodge, Asansol - WBPCB",25-03-2026 08:00:00,23.6979360,86.9443950,PM2.5,35,96,57
India,West_Bengal,Asansol,"Evelyn Lodge, Asansol - WBPCB",25-03-2026 08:00:00,23.6979360,86.9443950,PM10,52,121,79
India,West_Bengal,Asansol,"Evelyn Lodge, Asansol - WBPCB",25-03-2026 08:00:00,23.6979360,86.9443950,NO2,12,40,24
India,West_Bengal,Asansol,"Evelyn Lodge, Asansol - WBPCB",25-03-2026 08:00:00,23.6979360,86.9443950,OZONE,4,67,6
India,West_Bengal,Asansol,"Mahabir Colliery, Asansol - WBPCB",25-03-2026 08:00:00,23.6181830,87.1057180,PM2.5,14,129,47
India,West_Bengal,Asansol,"Mahabir Colliery, Asansol - WBPCB",25-03-2026 08:00:00,23.6181830,87.1057180,NO2,8,21,12
India,West_Bengal,Asansol,"Trivenidevi Bhalotia College, Asansol - WBPCB",25-03-2026 08:00:00,23.616515,87.119133,PM10,36,76,54
India,West_Bengal,Asansol,"Trivenidevi Bhalotia College, Asansol - WBPCB",25-03-2026 08:00:00,23.616515,87.119133,NO2,8,26,16
India,West_Bengal,Kolkata,"Fort William, Kolkata - WBPCB",25-03-2026 08:00:00,22.556640,88.342674,NH3,9,10,9
India,West_Bengal,Kolkata,"Jadavpur, Kolkata - WBPCB",25-03-2026 08:00:00,22.49929,88.36917,OZONE,7,49,9
India,West_Bengal,Kolkata,"Rabindra Bharati University, Kolkata - WBPCB",25-03-2026 08:00:00,22.627847,88.380669,SO2,5,8,6
India,West_Bengal,Kolkata,"Rabindra Bharati University, Kolkata - WBPCB",25-03-2026 08:00:00,22.627847,88.380669,CO,18,32,19
India,West_Bengal,Kolkata,"Rabindra Bharati University, Kolkata - WBPCB",25-03-2026 08:00:00,22.627847,88.380669,OZONE,28,66,32
India,West_Bengal,Kolkata,"Rabindra Sarobar, Kolkata - WBPCB",25-03-2026 08:00:00,22.51106,88.35142,NO2,29,105,48
India,West_Bengal,Kolkata,"Rabindra Sarobar, Kolkata - WBPCB",25-03-2026 08:00:00,22.51106,88.35142,NH3,7,9,7
India,West_Bengal,Kolkata,"Rabindra Sarobar, Kolkata - WBPCB",25-03-2026 08:00:00,22.51106,88.35142,OZONE,11,33,12
India,West_Bengal,Kolkata,"Victoria, Kolkata - WBPCB",25-03-2026 08:00:00,22.5448082,88.3403691,PM2.5,33,56,44
India,West_Bengal,Kolkata,"Victoria, Kolkata - WBPCB",25-03-2026 08:00:00,22.5448082,88.3403691,PM10,48,77,60
India,Uttar_Pradesh,Meerut,"Pallavpuram Phase 2, Meerut - UPPCB",25-03-2026 08:00:00,29.063510,77.709723,NH3,7,13,10
India,Uttar_Pradesh,Moradabad,"Buddhi Vihar, Moradabad - UPPCB",25-03-2026 08:00:00,28.83526,78.74460,PM10,43,76,59
India,Uttar_Pradesh,Moradabad,"Eco Herbal Park, Moradabad - UPPCB",25-03-2026 08:00:00,28.840739,78.697531,PM10,54,102,80
India,Uttar_Pradesh,Moradabad,"Eco Herbal Park, Moradabad - UPPCB",25-03-2026 08:00:00,28.840739,78.697531,CO,24,117,42
India,Uttar_Pradesh,Moradabad,"Employment Office, Moradabad - UPPCB",25-03-2026 08:00:00,28.88528,78.73880,PM2.5,45,115,76
India,Uttar_Pradesh,Moradabad,"Employment Office, Moradabad - UPPCB",25-03-2026 08:00:00,28.88528,78.73880,NH3,4,4,4
India,Uttar_Pradesh,Moradabad,"Employment Office, Moradabad - UPPCB",25-03-2026 08:00:00,28.88528,78.73880,OZONE,16,28,16
India,Uttar_Pradesh,Moradabad,"Jigar Colony, Moradabad - UPPCB",25-03-2026 08:00:00,28.856664,78.772638,PM10,52,102,76
India,Uttar_Pradesh,Moradabad,"Jigar Colony, Moradabad - UPPCB",25-03-2026 08:00:00,28.856664,78.772638,CO,39,42,40
India,Uttar_Pradesh,Noida,"Sector-116, Noida - UPPCB",25-03-2026 08:00:00,28.569230,77.393848,OZONE,4,32,8
India,Uttar_Pradesh,Prayagraj,"Jhunsi, Prayagraj - UPPCB",25-03-2026 08:00:00,25.425602,81.917152,NO2,5,6,6
India,Uttar_Pradesh,Prayagraj,"Jhunsi, Prayagraj - UPPCB",25-03-2026 08:00:00,25.425602,81.917152,NH3,5,5,5
India,Uttar_Pradesh,Prayagraj,"Jhunsi, Prayagraj - UPPCB",25-03-2026 08:00:00,25.425602,81.917152,SO2,19,22,19
India,Uttar_Pradesh,Prayagraj,"Motilal Nehru NIT, Prayagraj - UPPCB",25-03-2026 08:00:00,25.494,81.863,SO2,24,28,26
India,Uttar_Pradesh,Raebareli," Indira Nagar, Raebareli - NTPC Unchahar",25-03-2026 08:00:00,26.207781,81.245571,PM2.5,42,161,78
India,Uttar_Pradesh,Varanasi,"Ardhali Bazar, Varanasi - UPPCB",25-03-2026 08:00:00,25.3505986,82.9083074,NO2,40,44,41
India,Uttar_Pradesh,Varanasi,"Ardhali Bazar, Varanasi - UPPCB",25-03-2026 08:00:00,25.3505986,82.9083074,SO2,9,11,11
India,Uttar_Pradesh,Muzaffarnagar,"New Mandi, Muzaffarnagar - UPPCB",25-03-2026 08:00:00,29.4723508,77.7194031,NH3,6,10,8
India,Uttar_Pradesh,Muzaffarnagar,"New Mandi, Muzaffarnagar - UPPCB",25-03-2026 08:00:00,29.4723508,77.7194031,SO2,15,53,23
India,Uttar_Pradesh,Noida,"Sector - 125, Noida - UPPCB",25-03-2026 08:00:00,28.5447608,77.3231257,PM10,92,315,180
India,Uttar_Pradesh,Noida,"Sector - 62, Noida - IMD",25-03-2026 08:00:00,28.6245479,77.3577104,PM2.5,59,273,126
India,Uttar_Pradesh,Noida,"Sector - 62, Noida - IMD",25-03-2026 08:00:00,28.6245479,77.3577104,PM10,81,201,141
India,Uttar_Pradesh,Noida,"Sector-1, Noida - UPPCB",25-03-2026 08:00:00,28.5898,77.3101,NH3,NA,NA,NA
India,Uttar_Pradesh,Noida,"Sector-116, Noida - UPPCB",25-03-2026 08:00:00,28.569230,77.393848,PM10,109,237,162
India,Uttar_Pradesh,Noida,"Sector-116, Noida - UPPCB",25-03-2026 08:00:00,28.569230,77.393848,NH3,8,35,15
India,West_Bengal,Howrah,"Belur Math, Howrah - WBPCB",25-03-2026 08:00:00,22.629801,88.352017,PM2.5,30,60,48
India,West_Bengal,Howrah,"Belur Math, Howrah - WBPCB",25-03-2026 08:00:00,22.629801,88.352017,SO2,9,38,16
India,West_Bengal,Howrah,"Botanical Garden, Howrah - WBPCB",25-03-2026 08:00:00,22.554954,88.292568,PM10,34,73,51
India,West_Bengal,Howrah,"Botanical Garden, Howrah - WBPCB",25-03-2026 08:00:00,22.554954,88.292568,OZONE,18,57,19
India,West_Bengal,Howrah,"Ghusuri, Howrah - WBPCB",25-03-2026 08:00:00,22.611968,88.347422,OZONE,12,30,19
India,West_Bengal,Kolkata,"Ballygunge, Kolkata - WBPCB",25-03-2026 08:00:00,22.5367507,88.3638022,PM2.5,28,65,47
India,Uttar_Pradesh,Varanasi,"Bhelupur, Varanasi - UPPCB",25-03-2026 08:00:00,25.301778,82.996789,PM2.5,25,72,45
India,Uttar_Pradesh,Varanasi,"Bhelupur, Varanasi - UPPCB",25-03-2026 08:00:00,25.301778,82.996789,NH3,1,1,1
India,Uttar_Pradesh,Varanasi,"Bhelupur, Varanasi - UPPCB",25-03-2026 08:00:00,25.301778,82.996789,SO2,22,23,23
India,Uttar_Pradesh,Varanasi,"Maldahiya, Varanasi - UPPCB",25-03-2026 08:00:00,25.32393,82.99687,OZONE,3,22,3
India,Uttarakhand,Dehradun,"Doon University, Dehradun - UKPCB",25-03-2026 08:00:00,30.269444,78.044167,OZONE,12,73,22
India,West_Bengal,Kolkata,"Ballygunge, Kolkata - WBPCB",25-03-2026 08:00:00,22.5367507,88.3638022,NO2,16,48,20
India,West_Bengal,Kolkata,"Ballygunge, Kolkata - WBPCB",25-03-2026 08:00:00,22.5367507,88.3638022,CO,18,76,25
India,West_Bengal,Kolkata,"Ballygunge, Kolkata - WBPCB",25-03-2026 08:00:00,22.5367507,88.3638022,OZONE,11,27,13
India,West_Bengal,Kolkata,"Bidhannagar, Kolkata - WBPCB",25-03-2026 08:00:00,22.58157048,88.41002457,PM2.5,16,58,36
India,West_Bengal,Kolkata,"Bidhannagar, Kolkata - WBPCB",25-03-2026 08:00:00,22.58157048,88.41002457,OZONE,24,58,27
India,West_Bengal,Siliguri,"Ward-32 Bapupara, Siliguri - WBPCB",25-03-2026 08:00:00,26.6879226,88.4152495,CO,26,61,38
India,Andhra_Pradesh,Machilipatnam,"Srinivas Nagar Colony, Machilipatnam - APPCB",25-03-2026 08:00:00,16.186555,81.13219,PM2.5,32,104,48
India,Andhra_Pradesh,Machilipatnam,"Srinivas Nagar Colony, Machilipatnam - APPCB",25-03-2026 08:00:00,16.186555,81.13219,PM10,35,104,51
India,Andhra_Pradesh,Machilipatnam,"Srinivas Nagar Colony, Machilipatnam - APPCB",25-03-2026 08:00:00,16.186555,81.13219,SO2,7,18,12
India,Andhra_Pradesh,Nellore,"Ambedkar Nagar, Nellore - APPCB ",25-03-2026 08:00:00,14.438164 ,79.966814 ,NH3,2,4,2
India,Andhra_Pradesh,Rajamahendravaram,"Anand Kala Kshetram, Rajamahendravaram - APPCB",25-03-2026 08:00:00,16.9872867,81.7363176,NO2,7,32,17
India,Andhra_Pradesh,Rajamahendravaram,"Anand Kala Kshetram, Rajamahendravaram - APPCB",25-03-2026 08:00:00,16.9872867,81.7363176,OZONE,5,27,8
India,Andhra_Pradesh,Tirumala,"Toll Gate, Tirumala - APPCB",25-03-2026 08:00:00,13.67,79.35,CO,11,32,14
India,Andhra_Pradesh,Tirupati,"Vaikuntapuram, Tirupati - APPCB",25-03-2026 08:00:00,13.615387,79.409230,OZONE,15,30,18
India,Andhra_Pradesh,Vijayawada,"HB Colony, Vijayawada - APPCB",25-03-2026 08:00:00,16.536107,80.594233,NO2,15,26,18
India,Andhra_Pradesh,Vijayawada,"HB Colony, Vijayawada - APPCB",25-03-2026 08:00:00,16.536107,80.594233,NH3,3,5,5
India,Andhra_Pradesh,Vijayawada,"HB Colony, Vijayawada - APPCB",25-03-2026 08:00:00,16.536107,80.594233,CO,22,42,37
India,Andhra_Pradesh,Vijayawada,"Kanuru, Vijayawada - APPCB",25-03-2026 08:00:00,16.486692,80.699436,PM2.5,43,141,68
India,Andhra_Pradesh,Vijayawada,"Kanuru, Vijayawada - APPCB",25-03-2026 08:00:00,16.486692,80.699436,OZONE,25,43,26
India,Andhra_Pradesh,Vijayawada,"Rajiv Nagar, Vijayawada - APPCB",25-03-2026 08:00:00,16.554731,80.649110,NO2,16,23,22
India,Andhra_Pradesh,Visakhapatnam,"GVM Corporation, Visakhapatnam - APPCB",25-03-2026 08:00:00,17.72,83.3,NH3,3,16,4
India,Arunachal_Pradesh,Naharlagun,"Naharlagun, Naharlagun - APSPCB",25-03-2026 08:00:00,27.103358,93.679645,SO2,NA,NA,NA
India,Assam,Byrnihat,"Central Academy for SFS, Byrnihat - PCBA",25-03-2026 08:00:00,26.071318,91.87488,NH3,3,5,4
India,Assam,Guwahati,"IITG, Guwahati - PCBA",25-03-2026 08:00:00,26.2028636,91.70046436,CO,3,10,9
India,Assam,Guwahati,"LGBI Airport, Guwahati - PCBA",25-03-2026 08:00:00,26.10887,91.589544,OZONE,9,15,10
India,Assam,Guwahati,"Pan Bazaar, Guwahati - PCBA",25-03-2026 08:00:00,26.187500,91.744194,SO2,8,9,8
India,Assam,Guwahati,"Railway Colony, Guwahati - PCBA",25-03-2026 08:00:00,26.181742,91.78063,NH3,1,1,1
India,Assam,Guwahati,"Railway Colony, Guwahati - PCBA",25-03-2026 08:00:00,26.181742,91.78063,SO2,1,4,2
India,Assam,Nagaon,"Christianpatty, Nagaon - PCBA",25-03-2026 08:00:00,26.349082,92.68449,PM10,24,74,53
India,Assam,Nagaon,"Christianpatty, Nagaon - PCBA",25-03-2026 08:00:00,26.349082,92.68449,NH3,4,4,4
India,Bihar,Buxar,"Charitra Van, Buxar - BSPCB",25-03-2026 08:00:00,25.567520,83.966379,OZONE,2,21,2
India,Bihar,Chhapra,"Darshan Nagar, Chhapra - BSPCB",25-03-2026 08:00:00,25.7808257,84.7446768,NH3,4,7,6
India,Bihar,Chhapra,"Darshan Nagar, Chhapra - BSPCB",25-03-2026 08:00:00,25.7808257,84.7446768,OZONE,2,26,5
India,Bihar,Gaya,"Kareemganj, Gaya - BSPCB",25-03-2026 08:00:00,24.792403,84.992416,PM2.5,37,280,106
India,Bihar,Gaya,"Kareemganj, Gaya - BSPCB",25-03-2026 08:00:00,24.792403,84.992416,SO2,43,46,44
India,Bihar,Gaya,"Kareemganj, Gaya - BSPCB",25-03-2026 08:00:00,24.792403,84.992416,CO,2,30,8
India,Bihar,Gaya,"Kareemganj, Gaya - BSPCB",25-03-2026 08:00:00,24.792403,84.992416,OZONE,18,79,22
India,Bihar,Gaya,"SFTI Kusdihra, Gaya - BSPCB",25-03-2026 08:00:00,24.762518,84.982348,PM2.5,25,89,42
India,Bihar,Gaya,"SFTI Kusdihra, Gaya - BSPCB",25-03-2026 08:00:00,24.762518,84.982348,PM10,25,97,46
India,Assam,Nalbari,"Bata Chowk, Nalbari - PCBA",25-03-2026 08:00:00,26.446912,91.439057,PM10,28,109,55
India,Assam,Nalbari,"Bata Chowk, Nalbari - PCBA",25-03-2026 08:00:00,26.446912,91.439057,SO2,4,8,7
India,Assam,Silchar,"Tarapur, Silchar - PCBA",25-03-2026 08:00:00,24.82827,92.79525,SO2,5,7,6
India,Assam,Silchar,"Tarapur, Silchar - PCBA",25-03-2026 08:00:00,24.82827,92.79525,CO,28,101,99
India,Bihar,Arrah,"New DM Office, Arrah - BSPCB",25-03-2026 08:00:00,25.5626095,84.663264,PM2.5,NA,NA,NA
India,Bihar,Arrah,"New DM Office, Arrah - BSPCB",25-03-2026 08:00:00,25.5626095,84.663264,PM10,NA,NA,NA
India,Bihar,Arrah,"New DM Office, Arrah - BSPCB",25-03-2026 08:00:00,25.5626095,84.663264,NO2,NA,NA,NA
India,Bihar,Arrah,"New DM Office, Arrah - BSPCB",25-03-2026 08:00:00,25.5626095,84.663264,NH3,NA,NA,NA
India,Bihar,Aurangabad,"Gurdeo Nagar, Aurangabad - BSPCB",25-03-2026 08:00:00,24.75746,84.366208,PM2.5,5,60,26
India,Andhra_Pradesh,Amaravati,"Secretariat, Amaravati - APPCB",25-03-2026 08:00:00,16.5150833,80.5181667,OZONE,2,51,6
India,Andhra_Pradesh,Anantapur,"Gulzarpet, Anantapur - APPCB",25-03-2026 08:00:00,14.675886,77.593027,PM10,61,84,69
India,Andhra_Pradesh,Anantapur,"Gulzarpet, Anantapur - APPCB",25-03-2026 08:00:00,14.675886,77.593027,NO2,14,21,16
India,Andhra_Pradesh,Anantapur,"Gulzarpet, Anantapur - APPCB",25-03-2026 08:00:00,14.675886,77.593027,NH3,4,6,4
India,Andhra_Pradesh,Guntur,"Rajendra Nagar North, Guntur - APPCB",25-03-2026 08:00:00,16.316553,80.413302,OZONE,33,47,34
India,Andhra_Pradesh,Kadapa,"Yerramukkapalli, Kadapa - APPCB",25-03-2026 08:00:00,14.465052,78.824187,SO2,9,17,15
India,Bihar,Aurangabad,"Gurdeo Nagar, Aurangabad - BSPCB",25-03-2026 08:00:00,24.75746,84.366208,NO2,7,8,8
India,Bihar,Aurangabad,"Gurdeo Nagar, Aurangabad - BSPCB",25-03-2026 08:00:00,24.75746,84.366208,CO,101,103,102
India,Bihar,Aurangabad,"Gurdeo Nagar, Aurangabad - BSPCB",25-03-2026 08:00:00,24.75746,84.366208,OZONE,4,488,8
India,Bihar,Begusarai,"Lohiyanagar, Begusarai - BSPCB",25-03-2026 08:00:00,25.42742023,86.13886079,NH3,3,4,4
India,Bihar,Bhagalpur,"DM Office_Kachari Chowk, Bhagalpur - BSPCB",25-03-2026 08:00:00,25.251013,86.989001,PM2.5,23,227,92
India,Bihar,Bhagalpur,"DM Office_Kachari Chowk, Bhagalpur - BSPCB",25-03-2026 08:00:00,25.251013,86.989001,NO2,3,10,8
India,Bihar,Bihar Sharif,"D M Colony, Bihar Sharif - BSPCB",25-03-2026 08:00:00,25.204762,85.514960,PM2.5,23,107,45
India,Bihar,Bihar Sharif,"D M Colony, Bihar Sharif - BSPCB",25-03-2026 08:00:00,25.204762,85.514960,NH3,3,4,3
India,Bihar,Buxar,"Charitra Van, Buxar - BSPCB",25-03-2026 08:00:00,25.567520,83.966379,PM2.5,45,78,61
India,Bihar,Gaya,"SFTI Kusdihra, Gaya - BSPCB",25-03-2026 08:00:00,24.762518,84.982348,SO2,6,9,7
India,Bihar,Katihar,"Mirchaibari, Katihar - BSPCB",25-03-2026 08:00:00,25.560083,87.553265,NO2,9,11,10
India,Bihar,Katihar,"Mirchaibari, Katihar - BSPCB",25-03-2026 08:00:00,25.560083,87.553265,OZONE,3,21,7
India,Bihar,Bhagalpur,"Mayaganj, Bhagalpur - BSPCB",25-03-2026 08:00:00,25.265194,87.012947,PM10,45,50,47
India,Bihar,Bhagalpur,"Mayaganj, Bhagalpur - BSPCB",25-03-2026 08:00:00,25.265194,87.012947,NO2,6,13,7
India,Bihar,Patna,"DRM Office Danapur, Patna - BSPCB",25-03-2026 08:00:00,25.586562,85.043586,PM10,84,318,142
India,Bihar,Patna,"DRM Office Danapur, Patna - BSPCB",25-03-2026 08:00:00,25.586562,85.043586,CO,28,68,50
India,Bihar,Patna,"Govt. High School Shikarpur, Patna - BSPCB",25-03-2026 08:00:00,25.592539,85.227158,PM10,89,148,114
India,Bihar,Patna,"Govt. High School Shikarpur, Patna - BSPCB",25-03-2026 08:00:00,25.592539,85.227158,NH3,4,5,5
India,Bihar,Patna,"Govt. High School Shikarpur, Patna - BSPCB",25-03-2026 08:00:00,25.592539,85.227158,SO2,4,6,5
India,Bihar,Patna,"Govt. High School Shikarpur, Patna - BSPCB",25-03-2026 08:00:00,25.592539,85.227158,CO,1,47,13
India,Bihar,Patna,"Muradpur, Patna - BSPCB",25-03-2026 08:00:00,25.619651,85.147382,NO2,10,12,11
India,Bihar,Patna,"Muradpur, Patna - BSPCB",25-03-2026 08:00:00,25.619651,85.147382,NH3,4,5,4
India,Bihar,Patna,"Muradpur, Patna - BSPCB",25-03-2026 08:00:00,25.619651,85.147382,SO2,7,9,8
India,Chhattisgarh,Bhilai,"32Bungalows, Bhilai - CECB",25-03-2026 08:00:00,21.194815,81.314770,SO2,7,9,8
India,Chhattisgarh,Bhilai,"Civic Center, Bhilai - Bhilai Steel Plant",25-03-2026 08:00:00,21.185571,81.343175,NO2,10,11,11
India,Chhattisgarh,Bhilai,"Hathkhoj, Bhilai - CECB",25-03-2026 08:00:00,21.224231,81.408350,PM2.5,35,212,64
India,Chhattisgarh,Bilaspur,"Mangala, Bilaspur - NTPC",25-03-2026 08:00:00,22.08815,82.13737,PM2.5,50,110,72
India,Chhattisgarh,Bilaspur,"Mangala, Bilaspur - NTPC",25-03-2026 08:00:00,22.08815,82.13737,CO,34,90,43
India,Chhattisgarh,Chhal,"Nawapara SECL Colony, Chhal - CECB",25-03-2026 08:00:00,22.118125,83.140608,NH3,4,4,4
India,Chhattisgarh,Korba,"Rampur, Korba - CECB",25-03-2026 08:00:00,22.368195,82.746431,NO2,12,47,22
India,Chhattisgarh,Korba,"Rampur, Korba - CECB",25-03-2026 08:00:00,22.368195,82.746431,CO,12,65,36
India,Chhattisgarh,Korba,"Rampur, Korba - CECB",25-03-2026 08:00:00,22.368195,82.746431,OZONE,6,19,8
India,Chhattisgarh,Milupara,"Govt. Higher Secondary School, Milupara - CECB",25-03-2026 08:00:00,22.1910172,83.5197009,PM2.5,NA,NA,NA
India,Chhattisgarh,Milupara,"Govt. Higher Secondary School, Milupara - CECB",25-03-2026 08:00:00,22.1910172,83.5197009,NO2,NA,NA,NA
India,Chhattisgarh,Milupara,"Govt. Higher Secondary School, Milupara - CECB",25-03-2026 08:00:00,22.1910172,83.5197009,SO2,NA,NA,NA
India,Chhattisgarh,Raipur,"AIIMS, Raipur - CECB",25-03-2026 08:00:00,21.258815,81.578979,NH3,4,5,4
India,Bihar,Patna,"Samanpura, Patna - BSPCB",25-03-2026 08:00:00,25.596727,85.085624,PM2.5,38,110,64
India,Bihar,Purnia,"Mariam Nagar, Purnia - BSPCB",25-03-2026 08:00:00,25.366336,87.117468,OZONE,19,26,23
India,Bihar,Rajgir,"Dangi Tola, Rajgir - BSPCB",25-03-2026 08:00:00,25.03280,85.41948,NO2,13,15,14
India,Bihar,Rajgir,"Dangi Tola, Rajgir - BSPCB",25-03-2026 08:00:00,25.03280,85.41948,OZONE,22,27,26
India,Bihar,Saharsa,"Police Line, Saharsa - BSPCB",25-03-2026 08:00:00,25.892357,86.590325,PM2.5,6,326,72
India,Bihar,Saharsa,"Police Line, Saharsa - BSPCB",25-03-2026 08:00:00,25.892357,86.590325,PM10,37,175,87
India,Bihar,Sasaram,"Dada Peer, Sasaram - BSPCB",25-03-2026 08:00:00,24.952822,84.002396,NO2,1,6,3
India,Bihar,Siwan,"Chitragupta Nagar, Siwan - BSPCB",25-03-2026 08:00:00,26.2271665,84.3570427,SO2,8,8,8
India,Chandigarh,Chandigarh,"Sector 22, Chandigarh - CPCC",25-03-2026 08:00:00,30.735567,76.775714,NH3,11,20,16
India,Chandigarh,Chandigarh,"Sector 22, Chandigarh - CPCC",25-03-2026 08:00:00,30.735567,76.775714,OZONE,23,102,46
India,Chandigarh,Chandigarh,"Sector-25, Chandigarh - CPCC",25-03-2026 08:00:00,30.751462,76.762879,SO2,3,15,7
India,Bihar,Manguraha,"Forest Rest House, Manguraha - BSPCB",25-03-2026 08:00:00,27.308328,84.531742,PM10,52,235,84
India,Bihar,Manguraha,"Forest Rest House, Manguraha - BSPCB",25-03-2026 08:00:00,27.308328,84.531742,SO2,16,17,16
India,Bihar,Manguraha,"Forest Rest House, Manguraha - BSPCB",25-03-2026 08:00:00,27.308328,84.531742,OZONE,6,12,10
India,Bihar,Motihari,"Gandak Colony, Motihari - BSPCB",25-03-2026 08:00:00,26.63086,84.90051,NH3,3,3,3
India,Bihar,Motihari,"Gandak Colony, Motihari - BSPCB",25-03-2026 08:00:00,26.63086,84.90051,CO,20,58,22
India,Bihar,Munger,"Town Hall, Munger - BSPCB",25-03-2026 08:00:00,25.376776,86.471523,SO2,39,122,82
India,Bihar,Munger,"Town Hall, Munger - BSPCB",25-03-2026 08:00:00,25.376776,86.471523,CO,19,34,28
India,Bihar,Munger,"Town Hall, Munger - BSPCB",25-03-2026 08:00:00,25.376776,86.471523,OZONE,8,12,10
India,Bihar,Muzaffarpur,"Buddha Colony, Muzaffarpur - BSPCB",25-03-2026 08:00:00,26.11442,85.39813,PM10,63,134,98
India,Bihar,Muzaffarpur,"MIT-Daudpur Kothi, Muzaffarpur - BSPCB",25-03-2026 08:00:00,26.1403345,85.3650192,PM2.5,48,82,75
India,Bihar,Muzaffarpur,"MIT-Daudpur Kothi, Muzaffarpur - BSPCB",25-03-2026 08:00:00,26.1403345,85.3650192,OZONE,12,55,28
India,Bihar,Saharsa,"Police Line, Saharsa - BSPCB",25-03-2026 08:00:00,25.892357,86.590325,NH3,4,4,4
India,Delhi,Delhi,"Cantonment Area, Delhi - DPCC ",25-03-2026 08:00:00,28.594169 ,77.125100 ,SO2,54,57,56
India,Delhi,Delhi,"Cantonment Area, Delhi - DPCC ",25-03-2026 08:00:00,28.594169 ,77.125100 ,CO,118,146,135
India,Delhi,Delhi,"Chandni Chowk, Delhi - IITM",25-03-2026 08:00:00,28.656756,77.227234,PM2.5,81,278,141
India,Delhi,Delhi,"Chandni Chowk, Delhi - IITM",25-03-2026 08:00:00,28.656756,77.227234,NH3,6,13,8
India,Delhi,Delhi,"Chandni Chowk, Delhi - IITM",25-03-2026 08:00:00,28.656756,77.227234,OZONE,5,93,10
India,Delhi,Delhi,"Commonwealth Sports Complex, Delhi - DPCC",25-03-2026 08:00:00,28.615828 ,77.271992 ,PM10,101,284,162
India,Delhi,Delhi,"Commonwealth Sports Complex, Delhi - DPCC",25-03-2026 08:00:00,28.615828 ,77.271992 ,CO,84,109,107
India,Delhi,Delhi,"Dr. Karni Singh Shooting Range, Delhi - DPCC",25-03-2026 08:00:00,28.498571,77.264840,NH3,6,9,7
India,Delhi,Delhi,"IGI Airport (T3), Delhi - IMD",25-03-2026 08:00:00,28.5627763,77.1180053,NO2,20,43,31
India,Delhi,Delhi,"IGNOU_Maidan Garhi, Delhi - DPCC",25-03-2026 08:00:00,28.493624 ,77.201159 ,NO2,8,26,15
India,Delhi,Delhi,"IGNOU_Maidan Garhi, Delhi - DPCC",25-03-2026 08:00:00,28.493624 ,77.201159 ,CO,114,126,123
India,Delhi,Delhi,"IGNOU_Maidan Garhi, Delhi - DPCC",25-03-2026 08:00:00,28.493624 ,77.201159 ,OZONE,1,73,3
India,Delhi,Delhi,"IHBAS, Dilshad Garden, Delhi - CPCB",25-03-2026 08:00:00,28.6811736,77.3025234,NH3,4,31,12
India,Delhi,Delhi,"IHBAS, Dilshad Garden, Delhi - CPCB",25-03-2026 08:00:00,28.6811736,77.3025234,SO2,5,24,12
India,Delhi,Delhi,"ITO, Delhi - CPCB",25-03-2026 08:00:00,28.628624,77.241060,PM10,49,129,86
India,Delhi,Delhi,"ITO, Delhi - CPCB",25-03-2026 08:00:00,28.628624,77.241060,NO2,18,103,48
India,Delhi,Delhi,"Jahangirpuri, Delhi - DPCC",25-03-2026 08:00:00,28.732820,77.170633,PM10,115,472,249
India,Delhi,Delhi,"Jahangirpuri, Delhi - DPCC",25-03-2026 08:00:00,28.732820,77.170633,NH3,5,15,10
India,Delhi,Delhi,"Jahangirpuri, Delhi - DPCC",25-03-2026 08:00:00,28.732820,77.170633,CO,14,102,62
India,Delhi,Delhi,"Lodhi Road, Delhi - IMD",25-03-2026 08:00:00,28.5918245,77.2273074,NO2,13,47,28
India,Delhi,Delhi,"Lodhi Road, Delhi - IMD",25-03-2026 08:00:00,28.5918245,77.2273074,OZONE,23,98,25
India,Delhi,Delhi,"Major Dhyan Chand National Stadium, Delhi - DPCC",25-03-2026 08:00:00,28.611281,77.237738,NO2,37,137,86
India,Delhi,Delhi,"Mandir Marg, Delhi - DPCC",25-03-2026 08:00:00,28.636429,77.201067,PM2.5,157,344,248
India,Chhattisgarh,Raipur,"Siltara Phase-II, Raipur - CECB",25-03-2026 08:00:00,21.371751,81.664929,CO,10,18,15
India,Chhattisgarh,Raipur,"Siltara Phase-II, Raipur - CECB",25-03-2026 08:00:00,21.371751,81.664929,OZONE,2,56,7
India,Chhattisgarh,Tumidih,"OP Jindal Industrial Park, Tumidih - CECB",25-03-2026 08:00:00,22.06631475,83.33820077,CO,19,84,52
India,Chhattisgarh,Tumidih,"OP Jindal Industrial Park, Tumidih - CECB",25-03-2026 08:00:00,22.06631475,83.33820077,OZONE,18,18,18
India,Delhi,Delhi,"Alipur, Delhi - DPCC",25-03-2026 08:00:00,28.815329,77.153010,NH3,12,17,14
India,Delhi,Delhi,"Alipur, Delhi - DPCC",25-03-2026 08:00:00,28.815329,77.153010,SO2,6,45,13
India,Delhi,Delhi,"Mundka, Delhi - DPCC",25-03-2026 08:00:00,28.684678,77.076574,CO,38,77,66
India,Delhi,Delhi,"NSIT Dwarka, Delhi - CPCB",25-03-2026 08:00:00,28.60909,77.0325413,PM2.5,39,401,84
India,Delhi,Delhi,"NSUT Jaffarpur, Delhi - DPCC",25-03-2026 08:00:00,28.594004 ,76.909423 ,SO2,74,80,78
India,Delhi,Delhi,"NSUT Jaffarpur, Delhi - DPCC",25-03-2026 08:00:00,28.594004 ,76.909423 ,CO,121,133,130
India,Delhi,Delhi,"Narela, Delhi - DPCC",25-03-2026 08:00:00,28.822836,77.101981,PM2.5,66,500,249
India,Delhi,Delhi,"Anand Vihar, Delhi - DPCC",25-03-2026 08:00:00,28.647622,77.3158090,PM2.5,33,319,193
India,Delhi,Delhi,"Anand Vihar, Delhi - DPCC",25-03-2026 08:00:00,28.647622,77.3158090,SO2,4,40,19
India,Delhi,Delhi,"Ashok Vihar, Delhi - DPCC",25-03-2026 08:00:00,28.695381,77.181665,PM2.5,50,366,199
India,Delhi,Delhi,"Ashok Vihar, Delhi - DPCC",25-03-2026 08:00:00,28.695381,77.181665,PM10,81,282,159
India,Chhattisgarh,Raipur,"Krishak Nagar, Raipur - CECB",25-03-2026 08:00:00,21.237755,81.705301,SO2,4,12,7
India,Chhattisgarh,Raipur,"Krishak Nagar, Raipur - CECB",25-03-2026 08:00:00,21.237755,81.705301,OZONE,2,57,3
India,Chhattisgarh,Raipur,"Krishak Nagar, Raipur - CECB",25-03-2026 08:00:00,21.237755,81.705301,NO2,15,20,17
India,Delhi,Delhi,"Bawana, Delhi - DPCC",25-03-2026 08:00:00,28.776200,77.051074,CO,26,104,54
India,Delhi,Delhi,"Narela, Delhi - DPCC",25-03-2026 08:00:00,28.822836,77.101981,OZONE,4,64,14
India,Delhi,Delhi,"Nehru Nagar, Delhi - DPCC",25-03-2026 08:00:00,28.567890,77.250515,SO2,2,109,18
India,Delhi,Delhi,"New Moti Bagh, Delhi - MHUA",25-03-2026 08:00:00,28.57834,77.18400,PM2.5,83,345,220
India,Delhi,Delhi,"North Campus, DU, Delhi - IMD",25-03-2026 08:00:00,28.6573814,77.1585447,PM10,23,241,153
India,Delhi,Delhi,"North Campus, DU, Delhi - IMD",25-03-2026 08:00:00,28.6573814,77.1585447,NO2,6,83,41
India,Delhi,Delhi,"North Campus, DU, Delhi - IMD",25-03-2026 08:00:00,28.6573814,77.1585447,OZONE,5,51,6
India,Delhi,Delhi,"Okhla Phase-2, Delhi - DPCC",25-03-2026 08:00:00,28.530785,77.271255,PM2.5,47,354,175
India,Delhi,Delhi,"Okhla Phase-2, Delhi - DPCC",25-03-2026 08:00:00,28.530785,77.271255,SO2,13,21,17
India,Delhi,Delhi,"Okhla Phase-2, Delhi - DPCC",25-03-2026 08:00:00,28.530785,77.271255,CO,1,104,43
India,Delhi,Delhi,"Patparganj, Delhi - DPCC",25-03-2026 08:00:00,28.623763,77.287209,NH3,8,10,9
India,Delhi,Delhi,"Patparganj, Delhi - DPCC",25-03-2026 08:00:00,28.623763,77.287209,SO2,9,25,15
India,Delhi,Delhi,"Patparganj, Delhi - DPCC",25-03-2026 08:00:00,28.623763,77.287209,CO,41,108,75
India,Delhi,Delhi,"Sirifort, Delhi - CPCB",25-03-2026 08:00:00,28.5504249,77.2159377,NH3,6,16,11
India,Delhi,Delhi,"Sirifort, Delhi - CPCB",25-03-2026 08:00:00,28.5504249,77.2159377,CO,5,48,40
India,Delhi,Delhi,"Sri Aurobindo Marg, Delhi - DPCC",25-03-2026 08:00:00,28.531346,77.190156,NO2,36,74,54
India,Delhi,Delhi,"Sri Aurobindo Marg, Delhi - DPCC",25-03-2026 08:00:00,28.531346,77.190156,NH3,6,7,6
India,Delhi,Delhi,"Talkatora Garden, Delhi - DPCC",25-03-2026 08:00:00,28.621810,77.1944633,SO2,64,93,80
India,Delhi,Delhi,"Vivek Vihar, Delhi - DPCC",25-03-2026 08:00:00,28.672342,77.315260,PM2.5,57,319,197
India,Delhi,Delhi,"Vivek Vihar, Delhi - DPCC",25-03-2026 08:00:00,28.672342,77.315260,NO2,16,68,43
India,Delhi,Delhi,"Vivek Vihar, Delhi - DPCC",25-03-2026 08:00:00,28.672342,77.315260,OZONE,6,48,10
India,Delhi,Delhi,"Wazirpur, Delhi - DPCC",25-03-2026 08:00:00,28.699793,77.165453,PM2.5,65,419,222
India,Delhi,Delhi,"Wazirpur, Delhi - DPCC",25-03-2026 08:00:00,28.699793,77.165453,SO2,21,67,33
India,Delhi,Delhi,"Wazirpur, Delhi - DPCC",25-03-2026 08:00:00,28.699793,77.165453,CO,14,88,58
India,Gujarat,Vadodara,"Bapunagar, Vadodara - Nexteng Enviro",25-03-2026 08:00:00,22.320153,73.216285,NH3,2,3,3
India,Gujarat,Vapi,"Phase-1 GIDC, Vapi - GPCB",25-03-2026 08:00:00,20.362421,72.918013,PM10,52,109,76
India,Gujarat,Vapi,"Phase-1 GIDC, Vapi - GPCB",25-03-2026 08:00:00,20.362421,72.918013,NO2,12,16,13
India,Gujarat,Vapi,"Phase-1 GIDC, Vapi - GPCB",25-03-2026 08:00:00,20.362421,72.918013,OZONE,6,21,7
India,Gujarat,Vatva,"Phase-4 GIDC, Vatva - GPCB",25-03-2026 08:00:00,22.969611,72.643500,OZONE,30,44,31
India,Haryana,Ambala,"Patti Mehar, Ambala - HSPCB",25-03-2026 08:00:00,30.379589,76.778328,PM10,62,107,86
India,Haryana,Ambala,"Patti Mehar, Ambala - HSPCB",25-03-2026 08:00:00,30.379589,76.778328,NO2,8,12,10
India,Haryana,Ambala,"Patti Mehar, Ambala - HSPCB",25-03-2026 08:00:00,30.379589,76.778328,CO,22,49,22
India,Haryana,Bahadurgarh,"Arya Nagar, Bahadurgarh - HSPCB",25-03-2026 08:00:00,28.6701,76.9254,OZONE,2,27,25
India,Gujarat,Ahmedabad,"SAC ISRO Bopal, Ahmedabad - IITM",25-03-2026 08:00:00,23.041137,72.456691,SO2,7,19,10
India,Gujarat,Ahmedabad,"SAC ISRO Satellite, Ahmedabad - IITM",25-03-2026 08:00:00,23.023389,72.515201,PM2.5,47,112,67
India,Gujarat,Ahmedabad,"SAC ISRO Satellite, Ahmedabad - IITM",25-03-2026 08:00:00,23.023389,72.515201,SO2,7,22,14
India,Gujarat,Ahmedabad,"SVPI Airport Hansol, Ahmedabad - IITM",25-03-2026 08:00:00,23.076793,72.627874,SO2,5,26,12
India,Gujarat,Ahmedabad,"SVPI Airport Hansol, Ahmedabad - IITM",25-03-2026 08:00:00,23.076793,72.627874,OZONE,4,92,10
India,Gujarat,Ankleshwar,"GIDC, Ankleshwar - GPCB",25-03-2026 08:00:00,21.613267,73.010555,PM2.5,36,189,74
India,Gujarat,Bhavnagar,"Vidhyanagar, Bhavnagar - Nexteng Enviro",25-03-2026 08:00:00,21.755417,72.139056,NH3,2,2,2
India,Gujarat,Gandhinagar,"GIFT City, Gandhinagar - IITM",25-03-2026 08:00:00,23.163798,72.677768,PM2.5,26,98,58
India,Haryana,Ballabgarh,"Nathu Colony, Ballabgarh - HSPCB",25-03-2026 08:00:00,28.3419248,77.319699,CO,15,71,40
India,Haryana,Bhiwani,"H.B. Colony, Bhiwani - HSPCB",25-03-2026 08:00:00,28.806223,76.141105,NO2,3,16,11
India,Haryana,Bhiwani,"H.B. Colony, Bhiwani - HSPCB",25-03-2026 08:00:00,28.806223,76.141105,SO2,1,11,6
India,Haryana,Charkhi Dadri,"Mini Secretariat, Charkhi Dadri - HSPCB",25-03-2026 08:00:00,28.593883,76.270653,CO,64,104,100
India,Haryana,Dharuhera,"Municipal Corporation Office, Dharuhera -  HSPCB",25-03-2026 08:00:00,28.206800,76.799700,PM2.5,47,284,131
India,Haryana,Faridabad,"New Industrial Town, Faridabad - HSPCB",25-03-2026 08:00:00,28.39072,77.30059,CO,10,13,11
India,Gujarat,Ahmedabad,"Chandkheda, Ahmedabad - IITM",25-03-2026 08:00:00,23.107969,72.574648,PM10,69,154,105
India,Gujarat,Ahmedabad,"Chandkheda, Ahmedabad - IITM",25-03-2026 08:00:00,23.107969,72.574648,NH3,5,8,7
