country,state,city,station,last_update,latitude,longitude,pollutant_id,min_value,max_value,avg_value
India,Bihar,Bihar Sharif,"D M Colony, Bihar Sharif - BSPCB",16-11-2025 07:00:00,25.204762,85.514960,PM2.5,153,475,319
India,Bihar,Bihar Sharif,"D M Colony, Bihar Sharif - BSPCB",16-11-2025 07:00:00,25.204762,85.514960,PM10,NA,NA,NA
India,Bihar,Bihar Sharif,"D M Colony, Bihar Sharif - BSPCB",16-11-2025 07:00:00,25.204762,85.514960,NO2,9,10,10
India,Bihar,Bihar Sharif,"D M Colony, Bihar Sharif - BSPCB",16-11-2025 07:00:00,25.204762,85.514960,SO2,10,10,10
India,Bihar,Bihar Sharif,"D M Colony, Bihar Sharif - BSPCB",16-11-2025 07:00:00,25.204762,85.514960,OZONE,19,38,31
India,Bihar,Buxar,"Charitra Van, Buxar - BSPCB",16-11-2025 07:00:00,25.567520,83.966379,PM2.5,65,213,124
India,Bihar,Buxar,"Charitra Van, Buxar - BSPCB",16-11-2025 07:00:00,25.567520,83.966379,PM10,62,143,106
India,Bihar,Gaya,"Collectorate, Gaya - BSPCB",16-11-2025 07:00:00,24.7955,84.9994,OZONE,19,21,19
India,Bihar,Gaya,"Kareemganj, Gaya - BSPCB",16-11-2025 07:00:00,24.792403,84.992416,PM2.5,45,297,116
India,Arunachal_Pradesh,Naharlagun,"Naharlagun, Naharlagun - APSPCB",16-11-2025 07:00:00,27.103358,93.679645,OZONE,NA,NA,NA
India,Assam,Byrnihat,"Central Academy for SFS, Byrnihat - PCBA",16-11-2025 07:00:00,26.071318,91.87488,PM2.5,82,217,120
India,Assam,Byrnihat,"Central Academy for SFS, Byrnihat - PCBA",16-11-2025 07:00:00,26.071318,91.87488,NO2,6,8,7
India,Assam,Guwahati,"LGBI Airport, Guwahati - PCBA",16-11-2025 07:00:00,26.10887,91.589544,PM2.5,31,81,61
India,Assam,Guwahati,"LGBI Airport, Guwahati - PCBA",16-11-2025 07:00:00,26.10887,91.589544,PM10,35,92,69
India,Assam,Guwahati,"LGBI Airport, Guwahati - PCBA",16-11-2025 07:00:00,26.10887,91.589544,SO2,7,20,12
India,Assam,Guwahati,"Pan Bazaar, Guwahati - PCBA",16-11-2025 07:00:00,26.187500,91.744194,PM10,22,80,57
India,Bihar,Begusarai,"Lohiyanagar, Begusarai - BSPCB",16-11-2025 07:00:00,25.42742023,86.13886079,SO2,20,38,30
India,Bihar,Begusarai,"Lohiyanagar, Begusarai - BSPCB",16-11-2025 07:00:00,25.42742023,86.13886079,CO,14,22,18
India,Bihar,Bettiah,"Kamalnath Nagar, Bettiah - BSPCB",16-11-2025 07:00:00,26.80365,84.51954,OZONE,21,23,22
India,Bihar,Bhagalpur,"DM Office_Kachari Chowk, Bhagalpur - BSPCB",16-11-2025 07:00:00,25.251013,86.989001,PM2.5,72,183,134
India,Bihar,Bhagalpur,"DM Office_Kachari Chowk, Bhagalpur - BSPCB",16-11-2025 07:00:00,25.251013,86.989001,NH3,1,1,1
India,Bihar,Bhagalpur,"DM Office_Kachari Chowk, Bhagalpur - BSPCB",16-11-2025 07:00:00,25.251013,86.989001,SO2,38,58,49
India,Bihar,Bhagalpur,"Mayaganj, Bhagalpur - BSPCB",16-11-2025 07:00:00,25.265194,87.012947,NH3,6,17,10
India,Andhra_Pradesh,Tirupati,"Vaikuntapuram, Tirupati - APPCB",16-11-2025 07:00:00,13.615387,79.409230,PM10,22,91,74
India,Andhra_Pradesh,Tirupati,"Vaikuntapuram, Tirupati - APPCB",16-11-2025 07:00:00,13.615387,79.409230,CO,17,25,21
India,Andhra_Pradesh,Vijayawada,"HB Colony, Vijayawada - APPCB",16-11-2025 07:00:00,16.536107,80.594233,PM10,45,91,72
India,Andhra_Pradesh,Vijayawada,"HB Colony, Vijayawada - APPCB",16-11-2025 07:00:00,16.536107,80.594233,SO2,21,21,21
India,Andhra_Pradesh,Vijayawada,"Rajiv Gandhi Park, Vijayawada - APPCB",16-11-2025 07:00:00,16.509717,80.612222,NH3,1,4,3
India,Andhra_Pradesh,Vijayawada,"Rajiv Nagar, Vijayawada - APPCB",16-11-2025 07:00:00,16.554731,80.649110,PM10,37,62,44
India,Andhra_Pradesh,Rajamahendravaram,"Anand Kala Kshetram, Rajamahendravaram - APPCB",16-11-2025 07:00:00,16.9872867,81.7363176,PM2.5,75,251,152
India,Andhra_Pradesh,Rajamahendravaram,"Anand Kala Kshetram, Rajamahendravaram - APPCB",16-11-2025 07:00:00,16.9872867,81.7363176,PM10,76,159,125
India,Andhra_Pradesh,Rajamahendravaram,"Anand Kala Kshetram, Rajamahendravaram - APPCB",16-11-2025 07:00:00,16.9872867,81.7363176,NH3,2,6,4
India,Andhra_Pradesh,Tirumala,"Toll Gate, Tirumala - APPCB",16-11-2025 07:00:00,13.67,79.35,PM2.5,169,235,194
India,Andhra_Pradesh,Tirumala,"Toll Gate, Tirumala - APPCB",16-11-2025 07:00:00,13.67,79.35,PM10,92,114,106
India,Assam,Silchar,"Tarapur, Silchar - PCBA",16-11-2025 07:00:00,24.82827,92.79525,SO2,4,7,5
India,Bihar,Araria,"Kharahiya Basti, Araria - BSPCB",16-11-2025 07:00:00,26.146529,87.454184,NH3,10,12,11
India,Bihar,Arrah,"New DM Office, Arrah - BSPCB",16-11-2025 07:00:00,25.5626095,84.663264,NO2,4,11,7
India,Bihar,Arrah,"New DM Office, Arrah - BSPCB",16-11-2025 07:00:00,25.5626095,84.663264,NH3,1,1,1
India,Andhra_Pradesh,Amaravati,"Secretariat, Amaravati - APPCB",16-11-2025 07:00:00,16.5150833,80.5181667,PM10,120,194,144
India,Andhra_Pradesh,Amaravati,"Secretariat, Amaravati - APPCB",16-11-2025 07:00:00,16.5150833,80.5181667,NH3,1,5,4
India,Assam,Nagaon,"Christianpatty, Nagaon - PCBA",16-11-2025 07:00:00,26.349082,92.68449,PM10,32,33,32
India,Assam,Nagaon,"Christianpatty, Nagaon - PCBA",16-11-2025 07:00:00,26.349082,92.68449,NH3,4,4,4
India,Andhra_Pradesh,Chittoor,"Gangineni Cheruvu, Chittoor - APPCB",16-11-2025 07:00:00,13.204880,79.097889,OZONE,52,61,55
India,Assam,Silchar,"Tarapur, Silchar - PCBA",16-11-2025 07:00:00,24.82827,92.79525,PM10,45,93,65
India,Chandigarh,Chandigarh,"Sector-25, Chandigarh - CPCC",16-11-2025 07:00:00,30.751462,76.762879,PM2.5,74,156,108
India,Chandigarh,Chandigarh,"Sector-25, Chandigarh - CPCC",16-11-2025 07:00:00,30.751462,76.762879,NH3,7,13,8
India,Chandigarh,Chandigarh,"Sector-53, Chandigarh - CPCC",16-11-2025 07:00:00,30.719859,76.738637,NH3,4,20,8
India,Chhattisgarh,Bhilai,"32Bungalows, Bhilai - CECB",16-11-2025 07:00:00,21.194815,81.314770,NO2,18,122,52
India,Chhattisgarh,Bhilai,"Civic Center, Bhilai - Bhilai Steel Plant",16-11-2025 07:00:00,21.185571,81.343175,NH3,3,18,7
India,Chhattisgarh,Bhilai,"Civic Center, Bhilai - Bhilai Steel Plant",16-11-2025 07:00:00,21.185571,81.343175,CO,21,22,22
India,Chhattisgarh,Bhilai,"Hathkhoj, Bhilai - CECB",16-11-2025 07:00:00,21.224231,81.408350,PM10,43,105,75
India,Bihar,Muzaffarpur,"MIT-Daudpur Kothi, Muzaffarpur - BSPCB",16-11-2025 07:00:00,26.1403345,85.3650192,SO2,7,25,11
India,Bihar,Muzaffarpur,"MIT-Daudpur Kothi, Muzaffarpur - BSPCB",16-11-2025 07:00:00,26.1403345,85.3650192,OZONE,21,56,55
India,Bihar,Patna,"DRM Office Danapur, Patna - BSPCB",16-11-2025 07:00:00,25.586562,85.043586,NO2,45,98,64
India,Bihar,Patna,"DRM Office Danapur, Patna - BSPCB",16-11-2025 07:00:00,25.586562,85.043586,OZONE,7,65,7
India,Bihar,Patna,"Govt. High School Shikarpur, Patna - BSPCB",16-11-2025 07:00:00,25.592539,85.227158,PM2.5,83,144,122
India,Bihar,Patna,"Govt. High School Shikarpur, Patna - BSPCB",16-11-2025 07:00:00,25.592539,85.227158,SO2,9,10,10
India,Bihar,Patna,"Muradpur, Patna - BSPCB",16-11-2025 07:00:00,25.619651,85.147382,CO,30,74,52
India,Bihar,Manguraha,"Forest Rest House, Manguraha - BSPCB",16-11-2025 07:00:00,27.308328,84.531742,PM2.5,33,160,67
India,Bihar,Manguraha,"Forest Rest House, Manguraha - BSPCB",16-11-2025 07:00:00,27.308328,84.531742,CO,32,33,32
India,Bihar,Motihari,"Gandak Colony, Motihari - BSPCB",16-11-2025 07:00:00,26.63086,84.90051,PM2.5,43,247,115
India,Bihar,Munger,"Town Hall, Munger - BSPCB",16-11-2025 07:00:00,25.376776,86.471523,NH3,5,7,6
India,Bihar,Muzaffarpur,"Buddha Colony, Muzaffarpur - BSPCB",16-11-2025 07:00:00,26.11442,85.39813,NO2,20,81,43
India,Bihar,Muzaffarpur,"MIT-Daudpur Kothi, Muzaffarpur - BSPCB",16-11-2025 07:00:00,26.1403345,85.3650192,PM2.5,80,92,81
India,Chhattisgarh,Raipur,"Siltara Phase-II, Raipur - CECB",16-11-2025 07:00:00,21.371751,81.664929,NO2,8,76,23
India,Chhattisgarh,Raipur,"Siltara Phase-II, Raipur - CECB",16-11-2025 07:00:00,21.371751,81.664929,NH3,3,3,3
India,Chhattisgarh,Tumidih,"OP Jindal Industrial Park, Tumidih - CECB",16-11-2025 07:00:00,22.06631475,83.33820077,PM2.5,NA,NA,NA
India,Chhattisgarh,Tumidih,"OP Jindal Industrial Park, Tumidih - CECB",16-11-2025 07:00:00,22.06631475,83.33820077,NH3,NA,NA,NA
India,Delhi,Delhi,"Alipur, Delhi - DPCC",16-11-2025 07:00:00,28.815329,77.153010,PM10,168,500,396
India,Delhi,Delhi,"Alipur, Delhi - DPCC",16-11-2025 07:00:00,28.815329,77.153010,NO2,38,117,82
India,Delhi,Delhi,"Alipur, Delhi - DPCC",16-11-2025 07:00:00,28.815329,77.153010,OZONE,3,81,8
India,Bihar,Saharsa,"Police Line, Saharsa - BSPCB",16-11-2025 07:00:00,25.892357,86.590325,OZONE,3,13,10
India,Bihar,Samastipur,"DM Office_Kasipur, Samastipur - BSPCB",16-11-2025 07:00:00,25.859655,85.77944,NO2,NA,NA,NA
India,Bihar,Samastipur,"DM Office_Kasipur, Samastipur - BSPCB",16-11-2025 07:00:00,25.859655,85.77944,SO2,NA,NA,NA
India,Bihar,Sasaram,"Dada Peer, Sasaram - BSPCB",16-11-2025 07:00:00,24.952822,84.002396,SO2,NA,NA,NA
India,Bihar,Siwan,"Chitragupta Nagar, Siwan - BSPCB",16-11-2025 07:00:00,26.2271665,84.3570427,NH3,1,1,1
India,Bihar,Siwan,"Chitragupta Nagar, Siwan - BSPCB",16-11-2025 07:00:00,26.2271665,84.3570427,OZONE,13,14,13
India,Bihar,Gaya,"Kareemganj, Gaya - BSPCB",16-11-2025 07:00:00,24.792403,84.992416,SO2,14,17,16
India,Bihar,Gaya,"SFTI Kusdihra, Gaya - BSPCB",16-11-2025 07:00:00,24.762518,84.982348,PM10,39,78,56
India,Bihar,Gaya,"SFTI Kusdihra, Gaya - BSPCB",16-11-2025 07:00:00,24.762518,84.982348,NH3,3,3,3
India,Bihar,Hajipur,"Industrial Area, Hajipur - BSPCB",16-11-2025 07:00:00,25.697189,85.245900,PM10,59,114,92
India,Bihar,Katihar,"Mirchaibari, Katihar - BSPCB",16-11-2025 07:00:00,25.560083,87.553265,PM2.5,60,180,107
India,Chhattisgarh,Kunjemura,"OP Jindal School, Kunjemura - CECB",16-11-2025 07:00:00,22.126650,83.483212,OZONE,5,77,7
India,Chhattisgarh,Raipur,"AIIMS, Raipur - CECB",16-11-2025 07:00:00,21.258815,81.578979,NH3,4,5,4
India,Chhattisgarh,Raipur,"AIIMS, Raipur - CECB",16-11-2025 07:00:00,21.258815,81.578979,CO,33,70,51
India,Chhattisgarh,Raipur,"Bhatagaon New ISBT, Raipur - CECB",16-11-2025 07:00:00,21.219665,81.630094,CO,38,106,97
India,Chhattisgarh,Chhal,"Nawapara SECL Colony, Chhal - CECB",16-11-2025 07:00:00,22.118125,83.140608,PM2.5,44,117,70
India,Chhattisgarh,Chhal,"Nawapara SECL Colony, Chhal - CECB",16-11-2025 07:00:00,22.118125,83.140608,NO2,8,28,13
India,Chhattisgarh,Korba,"Rampur, Korba - CECB",16-11-2025 07:00:00,22.368195,82.746431,CO,22,54,38
India,Chhattisgarh,Korba,"Urja Nagar, Korba - CECB",16-11-2025 07:00:00,22.348441,82.549611,PM10,72,73,73
India,Bihar,Patna,"Samanpura, Patna - BSPCB",16-11-2025 07:00:00,25.596727,85.085624,SO2,2,2,2
India,Bihar,Patna,"Samanpura, Patna - BSPCB",16-11-2025 07:00:00,25.596727,85.085624,CO,18,96,44
India,Bihar,Rajgir,"Dangi Tola, Rajgir - BSPCB",16-11-2025 07:00:00,25.03280,85.41948,PM2.5,27,160,81
India,Delhi,Delhi,"Nehru Nagar, Delhi - DPCC",16-11-2025 07:00:00,28.567890,77.250515,PM10,215,456,363
India,Delhi,Delhi,"North Campus, DU, Delhi - IMD",16-11-2025 07:00:00,28.6573814,77.1585447,NO2,64,233,146
India,Delhi,Delhi,"Okhla Phase-2, Delhi - DPCC",16-11-2025 07:00:00,28.530785,77.271255,CO,44,114,93
India,Delhi,Delhi,"Patparganj, Delhi - DPCC",16-11-2025 07:00:00,28.623763,77.287209,NO2,44,187,120
India,Delhi,Delhi,"Patparganj, Delhi - DPCC",16-11-2025 07:00:00,28.623763,77.287209,SO2,6,14,9
India,Delhi,Delhi,"Patparganj, Delhi - DPCC",16-11-2025 07:00:00,28.623763,77.287209,CO,7,166,87
India,Delhi,Delhi,"Patparganj, Delhi - DPCC",16-11-2025 07:00:00,28.623763,77.287209,OZONE,2,228,3
India,Delhi,Delhi,"Punjabi Bagh, Delhi - DPCC",16-11-2025 07:00:00,28.674045,77.131023,PM2.5,277,500,409
India,Delhi,Delhi,"Punjabi Bagh, Delhi - DPCC",16-11-2025 07:00:00,28.674045,77.131023,PM10,188,462,378
India,Delhi,Delhi,"Punjabi Bagh, Delhi - DPCC",16-11-2025 07:00:00,28.674045,77.131023,NH3,4,5,4
India,Delhi,Delhi,"Punjabi Bagh, Delhi - DPCC",16-11-2025 07:00:00,28.674045,77.131023,SO2,8,45,31
India,Delhi,Delhi,"Pusa, Delhi - DPCC",16-11-2025 07:00:00,28.639652,77.146275,PM10,251,443,322
India,Delhi,Delhi,"Pusa, Delhi - DPCC",16-11-2025 07:00:00,28.639652,77.146275,NO2,68,183,119
India,Delhi,Delhi,"Pusa, Delhi - IMD",16-11-2025 07:00:00,28.636110,77.173332,PM2.5,248,441,368
India,Delhi,Delhi,"R K Puram, Delhi - DPCC",16-11-2025 07:00:00,28.563262,77.186937,CO,38,160,111
India,Delhi,Delhi,"R K Puram, Delhi - DPCC",16-11-2025 07:00:00,28.563262,77.186937,OZONE,6,232,14
India,Delhi,Delhi,"Rohini, Delhi - DPCC",16-11-2025 07:00:00,28.732528,77.119920,PM10,179,480,397
India,Delhi,Delhi,"Rohini, Delhi - DPCC",16-11-2025 07:00:00,28.732528,77.119920,NO2,22,110,64
India,Delhi,Delhi,"Ashok Vihar, Delhi - DPCC",16-11-2025 07:00:00,28.695381,77.181665,NO2,38,161,102
India,Delhi,Delhi,"Aya Nagar, Delhi - IMD",16-11-2025 07:00:00,28.4706914,77.1099364,PM10,266,444,379
India,Delhi,Delhi,"Burari Crossing, Delhi - IMD",16-11-2025 07:00:00,28.7256504,77.2011573,OZONE,12,213,16
India,Delhi,Delhi,"CRRI Mathura Road, Delhi - IMD",16-11-2025 07:00:00,28.5512005,77.2735737,PM10,219,445,343
India,Delhi,Delhi,"CRRI Mathura Road, Delhi - IMD",16-11-2025 07:00:00,28.5512005,77.2735737,CO,10,105,89
India,Delhi,Delhi,"Chandni Chowk, Delhi - IITM",16-11-2025 07:00:00,28.656756,77.227234,NH3,2,7,3
India,Delhi,Delhi,"Chandni Chowk, Delhi - IITM",16-11-2025 07:00:00,28.656756,77.227234,OZONE,5,109,5
India,Delhi,Delhi,"Dr. Karni Singh Shooting Range, Delhi - DPCC",16-11-2025 07:00:00,28.498571,77.264840,NO2,59,130,103
India,Delhi,Delhi,"Dr. Karni Singh Shooting Range, Delhi - DPCC",16-11-2025 07:00:00,28.498571,77.264840,OZONE,9,151,10
India,Delhi,Delhi,"Dwarka-Sector 8, Delhi - DPCC ",16-11-2025 07:00:00,28.5710274,77.0719006,SO2,11,32,23
India,Delhi,Delhi,"Rohini, Delhi - DPCC",16-11-2025 07:00:00,28.732528,77.119920,OZONE,5,294,5
India,Delhi,Delhi,"Shadipur, Delhi - CPCB",16-11-2025 07:00:00,28.6514781,77.1473105,OZONE,6,44,8
India,Delhi,Delhi,"Sirifort, Delhi - CPCB",16-11-2025 07:00:00,28.5504249,77.2159377,PM2.5,319,444,392
India,Delhi,Delhi,"Sirifort, Delhi - CPCB",16-11-2025 07:00:00,28.5504249,77.2159377,NO2,44,61,53
India,Delhi,Delhi,"Sirifort, Delhi - CPCB",16-11-2025 07:00:00,28.5504249,77.2159377,SO2,21,33,28
India,Delhi,Delhi,"Lodhi Road, Delhi - IMD",16-11-2025 07:00:00,28.5918245,77.2273074,OZONE,1,178,4
India,Delhi,Delhi,"Major Dhyan Chand National Stadium, Delhi - DPCC",16-11-2025 07:00:00,28.611281,77.237738,CO,42,176,108
India,Delhi,Delhi,"Major Dhyan Chand National Stadium, Delhi - DPCC",16-11-2025 07:00:00,28.611281,77.237738,OZONE,2,9,8
India,Delhi,Delhi,"Mandir Marg, Delhi - DPCC",16-11-2025 07:00:00,28.636429,77.201067,CO,4,129,104
India,Delhi,Delhi,"IHBAS, Dilshad Garden, Delhi - CPCB",16-11-2025 07:00:00,28.6811736,77.3025234,NH3,4,6,5
India,Delhi,Delhi,"IHBAS, Dilshad Garden, Delhi - CPCB",16-11-2025 07:00:00,28.6811736,77.3025234,SO2,11,48,29
India,Delhi,Delhi,"Jahangirpuri, Delhi - DPCC",16-11-2025 07:00:00,28.732820,77.170633,PM10,217,500,416
India,Delhi,Delhi,"Jahangirpuri, Delhi - DPCC",16-11-2025 07:00:00,28.732820,77.170633,CO,42,122,105
India,Delhi,Delhi,"NSIT Dwarka, Delhi - CPCB",16-11-2025 07:00:00,28.60909,77.0325413,NO2,69,143,92
India,Delhi,Delhi,"Narela, Delhi - DPCC",16-11-2025 07:00:00,28.822836,77.101981,PM10,179,500,365
India,Delhi,Delhi,"Nehru Nagar, Delhi - DPCC",16-11-2025 07:00:00,28.567890,77.250515,PM2.5,318,499,409
India,Delhi,Delhi,"Jawaharlal Nehru Stadium, Delhi - DPCC",16-11-2025 07:00:00,28.580280,77.233829,NO2,37,167,111
India,Delhi,Delhi,"Jawaharlal Nehru Stadium, Delhi - DPCC",16-11-2025 07:00:00,28.580280,77.233829,NH3,5,6,5
India,Delhi,Delhi,"Jawaharlal Nehru Stadium, Delhi - DPCC",16-11-2025 07:00:00,28.580280,77.233829,SO2,20,34,27
India,Haryana,Mandikhera,"General Hospital, Mandikhera - HSPCB",16-11-2025 07:00:00,27.9002,76.9938,NO2,20,23,21
India,Haryana,Mandikhera,"General Hospital, Mandikhera - HSPCB",16-11-2025 07:00:00,27.9002,76.9938,SO2,31,38,34
India,Haryana,Manesar,"Sector-2 IMT, Manesar - HSPCB",16-11-2025 07:00:00,28.360699,76.936090,SO2,12,21,16
India,Haryana,Manesar,"Sector-2 IMT, Manesar - HSPCB",16-11-2025 07:00:00,28.360699,76.936090,OZONE,7,37,9
India,Haryana,Narnaul,"Shastri Nagar, Narnaul - HSPCB",16-11-2025 07:00:00,28.060249,76.113115,PM10,111,169,133
India,Haryana,Narnaul,"Shastri Nagar, Narnaul - HSPCB",16-11-2025 07:00:00,28.060249,76.113115,CO,16,56,36
India,Haryana,Palwal,"Shyam Nagar, Palwal - HSPCB",16-11-2025 07:00:00,28.1485564,77.3320667,NO2,23,24,24
India,Haryana,Palwal,"Shyam Nagar, Palwal - HSPCB",16-11-2025 07:00:00,28.1485564,77.3320667,NH3,8,9,9
India,Haryana,Palwal,"Shyam Nagar, Palwal - HSPCB",16-11-2025 07:00:00,28.1485564,77.3320667,CO,27,28,28
India,Gujarat,Surat,"Science Center, Surat - SMC",16-11-2025 07:00:00,21.170046,72.795405,PM10,64,177,113
India,Gujarat,Surat,"Science Center, Surat - SMC",16-11-2025 07:00:00,21.170046,72.795405,CO,37,44,40
India,Gujarat,Vapi,"Phase-1 GIDC, Vapi - GPCB",16-11-2025 07:00:00,20.362421,72.918013,NO2,1,94,12
India,Gujarat,Vatva,"Phase-4 GIDC, Vatva - GPCB",16-11-2025 07:00:00,22.969611,72.643500,PM2.5,21,326,76
India,Gujarat,Vatva,"Phase-4 GIDC, Vatva - GPCB",16-11-2025 07:00:00,22.969611,72.643500,NO2,7,33,22
India,Gujarat,Vatva,"Phase-4 GIDC, Vatva - GPCB",16-11-2025 07:00:00,22.969611,72.643500,NH3,1,3,2
India,Gujarat,Vatva,"Phase-4 GIDC, Vatva - GPCB",16-11-2025 07:00:00,22.969611,72.643500,SO2,21,30,25
India,Haryana,Ambala,"Patti Mehar, Ambala - HSPCB",16-11-2025 07:00:00,30.379589,76.778328,OZONE,49,51,50
India,Haryana,Bahadurgarh,"Arya Nagar, Bahadurgarh - HSPCB",16-11-2025 07:00:00,28.6701,76.9254,OZONE,14,19,17
India,Haryana,Ballabgarh,"Nathu Colony, Ballabgarh - HSPCB",16-11-2025 07:00:00,28.3419248,77.319699,NH3,3,3,3
India,Haryana,Ballabgarh,"Nathu Colony, Ballabgarh - HSPCB",16-11-2025 07:00:00,28.3419248,77.319699,OZONE,15,15,15
India,Haryana,Bhiwani,"H.B. Colony, Bhiwani - HSPCB",16-11-2025 07:00:00,28.806223,76.141105,PM2.5,314,379,338
India,Haryana,Bhiwani,"H.B. Colony, Bhiwani - HSPCB",16-11-2025 07:00:00,28.806223,76.141105,NH3,1,9,8
India,Haryana,Bhiwani,"H.B. Colony, Bhiwani - HSPCB",16-11-2025 07:00:00,28.806223,76.141105,SO2,12,13,13
India,Haryana,Dharuhera,"Municipal Corporation Office, Dharuhera -  HSPCB",16-11-2025 07:00:00,28.206800,76.799700,OZONE,10,73,13
India,Gujarat,Ahmedabad,"Maninagar, Ahmedabad - GPCB",16-11-2025 07:00:00,23.002657,72.591912,OZONE,5,49,20
India,Gujarat,Ahmedabad,"Raikhad, Ahmedabad - IITM",16-11-2025 07:00:00,23.020509,72.579261,PM2.5,59,205,128
India,Gujarat,Ahmedabad,"Raikhad, Ahmedabad - IITM",16-11-2025 07:00:00,23.020509,72.579261,SO2,14,32,18
India,Gujarat,Ahmedabad,"Rakhial, Ahmedabad - IITM",16-11-2025 07:00:00,23.016834,72.625775,PM10,66,141,102
India,Gujarat,Ahmedabad,"Rakhial, Ahmedabad - IITM",16-11-2025 07:00:00,23.016834,72.625775,OZONE,8,81,35
India,Gujarat,Ahmedabad,"SAC ISRO Bopal, Ahmedabad - IITM",16-11-2025 07:00:00,23.041137,72.456691,PM2.5,67,306,153
India,Gujarat,Ahmedabad,"SAC ISRO Satellite, Ahmedabad - IITM",16-11-2025 07:00:00,23.023389,72.515201,SO2,3,40,11
India,Haryana,Faridabad,"New Industrial Town, Faridabad - HSPCB",16-11-2025 07:00:00,28.39072,77.30059,SO2,8,8,8
India,Haryana,Faridabad,"New Industrial Town, Faridabad - HSPCB",16-11-2025 07:00:00,28.39072,77.30059,CO,10,13,11
India,Haryana,Faridabad,"New Industrial Town, Faridabad - HSPCB",16-11-2025 07:00:00,28.39072,77.30059,OZONE,26,35,30
India,Haryana,Faridabad,"Sector 11, Faridabad - HSPCB",16-11-2025 07:00:00,28.376058,77.315741,PM2.5,163,316,279
India,Haryana,Faridabad,"Sector 11, Faridabad - HSPCB",16-11-2025 07:00:00,28.376058,77.315741,NO2,3,73,18
India,Haryana,Faridabad,"Sector 30, Faridabad - HSPCB",16-11-2025 07:00:00,28.4417,77.3217,NH3,10,12,11
India,Haryana,Fatehabad,"Huda Sector, Fatehabad - HSPCB",16-11-2025 07:00:00,29.503664,75.467934,CO,25,48,27
India,Gujarat,Ahmedabad,"SVPI Airport Hansol, Ahmedabad - IITM",16-11-2025 07:00:00,23.076793,72.627874,NO2,34,59,43
India,Gujarat,Ahmedabad,"SVPI Airport Hansol, Ahmedabad - IITM",16-11-2025 07:00:00,23.076793,72.627874,SO2,7,17,10
India,Gujarat,Gandhinagar,"IIPHG Lekawada, Gandhinagar - IITM",16-11-2025 07:00:00,23.243639,72.68994,PM10,84,122,100
India,Gujarat,Gandhinagar,"IIPHG Lekawada, Gandhinagar - IITM",16-11-2025 07:00:00,23.243639,72.68994,CO,16,90,62
India,Gujarat,Gandhinagar,"IIPHG Lekawada, Gandhinagar - IITM",16-11-2025 07:00:00,23.243639,72.68994,OZONE,5,50,5
India,Gujarat,Gandhinagar,"Sector-10, Gandhinagar - GPCB",16-11-2025 07:00:00,23.221714,72.654328,PM2.5,45,111,63
India,Gujarat,Gandhinagar,"Sector-10, Gandhinagar - GPCB",16-11-2025 07:00:00,23.221714,72.654328,NH3,2,2,2
India,Delhi,Delhi,"Sri Aurobindo Marg, Delhi - DPCC",16-11-2025 07:00:00,28.531346,77.190156,OZONE,1,174,3
India,Delhi,Delhi,"Wazirpur, Delhi - DPCC",16-11-2025 07:00:00,28.699793,77.165453,NH3,9,11,10
India,Delhi,Delhi,"Wazirpur, Delhi - DPCC",16-11-2025 07:00:00,28.699793,77.165453,SO2,11,45,20
India,Gujarat,Ahmedabad,"Chandkheda, Ahmedabad - IITM",16-11-2025 07:00:00,23.107969,72.574648,PM2.5,28,104,63
India,Gujarat,Ahmedabad,"Gyaspur, Ahmedabad - IITM",16-11-2025 07:00:00,22.977134,72.553024,SO2,2,58,27
India,Gujarat,Ahmedabad,"Gyaspur, Ahmedabad - IITM",16-11-2025 07:00:00,22.977134,72.553024,OZONE,9,37,13
India,Haryana,Kaithal,"Rishi Nagar, Kaithal - HSPCB",16-11-2025 07:00:00,29.8006,76.4155,SO2,29,35,31
India,Haryana,Mandikhera,"General Hospital, Mandikhera - HSPCB",16-11-2025 07:00:00,27.9002,76.9938,PM2.5,91,355,247
India,Haryana,Hisar,"Urban Estate-II, Hisar - HSPCB",16-11-2025 07:00:00,29.140560,75.744941,CO,52,107,60
India,Haryana,Jind,"Police Lines, Jind - HSPCB",16-11-2025 07:00:00,29.307814,76.337619,PM2.5,198,370,316
India,Haryana,Panchkula,"Sector-6, Panchkula - HSPCB ",16-11-2025 07:00:00,30.7057778,76.8531805555555,OZONE,14,36,31
India,Haryana,Panipat,"Sector-18, Panipat - HSPCB",16-11-2025 07:00:00,29.432304,76.972765,PM10,NA,NA,NA
India,Haryana,Panipat,"Sector-18, Panipat - HSPCB",16-11-2025 07:00:00,29.432304,76.972765,NO2,NA,NA,NA
India,Haryana,Panipat,"Sector-18, Panipat - HSPCB",16-11-2025 07:00:00,29.432304,76.972765,SO2,NA,NA,NA
India,Haryana,Panipat,"Sector-18, Panipat - HSPCB",16-11-2025 07:00:00,29.432304,76.972765,CO,NA,NA,NA
India,Haryana,Panipat,"Sector-18, Panipat - HSPCB",16-11-2025 07:00:00,29.432304,76.972765,OZONE,NA,NA,NA
India,Haryana,Rohtak,"MD University, Rohtak - HSPCB",16-11-2025 07:00:00,28.52123,76.37138,PM2.5,25,369,193
India,Haryana,Rohtak,"MD University, Rohtak - HSPCB",16-11-2025 07:00:00,28.52123,76.37138,OZONE,12,13,13
India,Haryana,Sirsa,"F-Block, Sirsa - HSPCB",16-11-2025 07:00:00,29.536400,75.015800,CO,44,101,71
India,Haryana,Sonipat,"Murthal, Sonipat - HSPCB",16-11-2025 07:00:00,29.027200,77.062100,CO,36,38,37
India,Karnataka,Bidar,"Naubad, Bidar - KSPCB",16-11-2025 07:00:00,17.930306,77.482194,PM10,54,122,82
India,Karnataka,Chamarajanagar,"Urban, Chamarajanagar - KSPCB",16-11-2025 07:00:00,11.55358,76.55521,NH3,1,3,3
India,Karnataka,Chamarajanagar,"Urban, Chamarajanagar - KSPCB",16-11-2025 07:00:00,11.55358,76.55521,SO2,2,8,5
India,Karnataka,Chikkamagaluru,"Kalyana Nagara, Chikkamagaluru - KSPCB",16-11-2025 07:00:00,13.328028,75.797056,OZONE,18,48,18
India,Karnataka,Davanagere,"Devaraj Urs Badavane, Davanagere - KSPCB",16-11-2025 07:00:00,14.475800,75.905200,PM2.5,55,146,85
India,Karnataka,Davanagere,"Devaraj Urs Badavane, Davanagere - KSPCB",16-11-2025 07:00:00,14.475800,75.905200,CO,38,41,39
India,Karnataka,Dharwad,"Kalabhavan, Dharwad - KSPCB",16-11-2025 07:00:00,15.459706,75.008381,PM2.5,54,64,61
India,Karnataka,Dharwad,"Kalabhavan, Dharwad - KSPCB",16-11-2025 07:00:00,15.459706,75.008381,NH3,5,6,6
India,Karnataka,Kalaburagi,"Mahatma Basaveswar Colony, Kalaburgi - KSPCB",16-11-2025 07:00:00,17.336318,76.847397,CO,33,68,41
India,Karnataka,Koppal,"Diwator Nagar, Koppal - KSPCB",16-11-2025 07:00:00,15.347630,76.181767,PM10,40,67,52
India,Karnataka,Koppal,"Diwator Nagar, Koppal - KSPCB",16-11-2025 07:00:00,15.347630,76.181767,NH3,7,7,7
India,Karnataka,Koppal,"Diwator Nagar, Koppal - KSPCB",16-11-2025 07:00:00,15.347630,76.181767,OZONE,8,12,10
India,Karnataka,Madikeri,"Stuart Hill, Madikeri - KSPCB",16-11-2025 07:00:00,12.415911,75.735050,OZONE,3,6,4
India,Karnataka,Mangalore,"Kadri, Mangalore - KSPCB",16-11-2025 07:00:00,12.889250,74.853000,PM2.5,56,160,77
India,Karnataka,Mangalore,"Kadri, Mangalore - KSPCB",16-11-2025 07:00:00,12.889250,74.853000,PM10,58,121,76
India,Karnataka,Mangalore,"Kadri, Mangalore - KSPCB",16-11-2025 07:00:00,12.889250,74.853000,SO2,14,15,15
India,Karnataka,Mangalore,"Kadri, Mangalore - KSPCB",16-11-2025 07:00:00,12.889250,74.853000,OZONE,4,43,23
India,Himachal Pradesh,Baddi,"HIMUDA Complex Phase-1, Baddi - HPPCB",16-11-2025 07:00:00,30.943887,76.801991,PM10,67,438,192
India,Himachal Pradesh,Baddi,"HIMUDA Complex Phase-1, Baddi - HPPCB",16-11-2025 07:00:00,30.943887,76.801991,CO,44,104,65
India,Jammu_and_Kashmir,Srinagar,"Rajbagh, Srinagar - JKSPCB",16-11-2025 07:00:00,34.066206,74.819820,SO2,3,4,3
India,Jammu_and_Kashmir,Srinagar,"Rajbagh, Srinagar - JKSPCB",16-11-2025 07:00:00,34.066206,74.819820,CO,9,22,13
India,Jharkhand,Dhanbad,"Sardar Patel Nagar, Dhanbad - JSPCB",16-11-2025 07:00:00,23.80569,86.44268,PM10,50,172,110
India,Karnataka,Bagalkot,"Vidayagiri, Bagalkot - KSPCB",16-11-2025 07:00:00,16.172806,75.659694,NO2,11,12,12
India,Karnataka,Bengaluru,"Peenya, Bengaluru - CPCB",16-11-2025 07:00:00,13.0270199,77.494094,PM2.5,21,61,41
India,Karnataka,Bengaluru,"RVCE-Mailasandra, Bengaluru - KSPCB",16-11-2025 07:00:00,12.921418,77.502466,PM10,71,146,116
India,Karnataka,Bengaluru,"Shivapura_Peenya, Bengaluru - KSPCB",16-11-2025 07:00:00,13.0246342,77.5080115,PM2.5,80,210,140
India,Karnataka,Bengaluru,"Silk Board, Bengaluru - KSPCB",16-11-2025 07:00:00,12.917348,77.622813,PM2.5,68,108,89
India,Karnataka,Bengaluru,"Silk Board, Bengaluru - KSPCB",16-11-2025 07:00:00,12.917348,77.622813,PM10,116,178,145
India,Karnataka,Bengaluru,"Silk Board, Bengaluru - KSPCB",16-11-2025 07:00:00,12.917348,77.622813,NO2,11,15,13
India,Karnataka,Bengaluru,"Silk Board, Bengaluru - KSPCB",16-11-2025 07:00:00,12.917348,77.622813,SO2,8,12,10
India,Karnataka,Bagalkot,"Vidayagiri, Bagalkot - KSPCB",16-11-2025 07:00:00,16.172806,75.659694,NH3,1,2,1
India,Karnataka,Belgaum,"Ramteerth Nagar, Belgaum - KSPCB",16-11-2025 07:00:00,15.888653,74.541751,NH3,8,12,9
India,Karnataka,Bengaluru,"BTM Layout, Bengaluru - CPCB",16-11-2025 07:00:00,12.9135218,77.5950804,SO2,15,16,16
India,Karnataka,Bengaluru,"BWSSB Kadabesanahalli, Bengaluru - CPCB",16-11-2025 07:00:00,12.9352049,77.6814488,PM10,99,215,163
India,Karnataka,Bengaluru,"Hebbal, Bengaluru - KSPCB",16-11-2025 07:00:00,13.029152,77.585901,PM10,65,116,93
India,Karnataka,Gadag,"Panchal Nagar, Gadag - KSPCB",16-11-2025 07:00:00,15.411456,75.638133,PM2.5,NA,NA,NA
India,Karnataka,Hubballi,"Lingaraj Nagar, Hubballi - KSPCB",16-11-2025 07:00:00,15.3714823,75.1160168,OZONE,15,19,15
India,Karnataka,Kalaburagi,"Lal Bahadur Shastri Nagar, Kalaburagi - KSPCB",16-11-2025 07:00:00,17.321993,76.822628,SO2,68,69,69
India,Karnataka,Kalaburagi,"Mahatma Basaveswar Colony, Kalaburgi - KSPCB",16-11-2025 07:00:00,17.336318,76.847397,PM10,24,79,49
India,Karnataka,Bengaluru,"Jayanagar 5th Block, Bengaluru - KSPCB",16-11-2025 07:00:00,12.920984,77.584908,SO2,2,49,17
India,Karnataka,Bengaluru,"Jayanagar 5th Block, Bengaluru - KSPCB",16-11-2025 07:00:00,12.920984,77.584908,CO,9,56,18
India,Karnataka,Bengaluru,"Jigani, Bengaluru - KSPCB",16-11-2025 07:00:00,12.7816279,77.6299145,NO2,20,21,20
India,Karnataka,Bengaluru,"Jigani, Bengaluru - KSPCB",16-11-2025 07:00:00,12.7816279,77.6299145,NH3,3,3,3
India,Karnataka,Bengaluru,"Kasturi Nagar, Bengaluru - KSPCB",16-11-2025 07:00:00,13.003872,77.664217,NO2,29,30,30
India,Karnataka,Bengaluru,"Hebbal, Bengaluru - KSPCB",16-11-2025 07:00:00,13.029152,77.585901,NO2,21,28,24
India,Karnataka,Shivamogga,"Vinoba Nagara, Shivamogga - KSPCB",16-11-2025 07:00:00,13.940000,75.555917,OZONE,18,72,41
India,Karnataka,Tumakuru,"Thimmalapura, Tumakuru - KSPCB",16-11-2025 07:00:00,13.377516,77.099072,SO2,NA,NA,NA
India,Karnataka,Tumakuru,"Thimmalapura, Tumakuru - KSPCB",16-11-2025 07:00:00,13.377516,77.099072,OZONE,23,23,23
India,Karnataka,Udupi,"Brahmagiri, Udupi - KSPCB",16-11-2025 07:00:00,13.34194444,74.74694444,NH3,NA,NA,NA
India,Karnataka,Udupi,"Brahmagiri, Udupi - KSPCB",16-11-2025 07:00:00,13.34194444,74.74694444,OZONE,NA,NA,NA
India,Karnataka,Vijayapura,"Ibrahimpur, Vijayapura - KSPCB",16-11-2025 07:00:00,16.802639,75.722694,PM10,42,43,43
India,Karnataka,Vijayapura,"Ibrahimpur, Vijayapura - KSPCB",16-11-2025 07:00:00,16.802639,75.722694,OZONE,14,17,16
India,Karnataka,Yadgir,"Collector Office, Yadgir - KSPCB",16-11-2025 07:00:00,16.7602,77.1428,PM2.5,50,90,70
India,Madhya Pradesh,Katni,"Gole Bazar, Katni - MPPCB",16-11-2025 07:00:00,23.50016,80.23284,NH3,4,5,4
India,Madhya Pradesh,Katni,"Gole Bazar, Katni - MPPCB",16-11-2025 07:00:00,23.50016,80.23284,OZONE,11,209,13
India,Madhya Pradesh,Mandideep,"Sector-D Industrial Area, Mandideep - MPPCB",16-11-2025 07:00:00,23.108440,77.511428,PM10,80,270,158
India,Madhya Pradesh,Pithampur,"Sector-2 Industrial Area, Pithampur - MPPCB",16-11-2025 07:00:00,22.624758,75.675238,PM10,114,261,154
India,Madhya Pradesh,Pithampur,"Sector-2 Industrial Area, Pithampur - MPPCB",16-11-2025 07:00:00,22.624758,75.675238,NO2,NA,NA,NA
India,Madhya Pradesh,Pithampur,"Sector-2 Industrial Area, Pithampur - MPPCB",16-11-2025 07:00:00,22.624758,75.675238,SO2,NA,NA,NA
India,Madhya Pradesh,Ratlam,"Shasthri Nagar, Ratlam - IPCA Lab",16-11-2025 07:00:00,23.331731,75.045981,NO2,9,41,20
India,Karnataka,Yadgir,"Collector Office, Yadgir - KSPCB",16-11-2025 07:00:00,16.7602,77.1428,NH3,2,3,2
India,Kerala,Kannur,"Thavakkara, Kannur - Kerala PCB",16-11-2025 07:00:00,11.875000,75.373200,PM2.5,42,51,46
India,Kerala,Kannur,"Thavakkara, Kannur - Kerala PCB",16-11-2025 07:00:00,11.875000,75.373200,PM10,54,58,56
India,Kerala,Kannur,"Thavakkara, Kannur - Kerala PCB",16-11-2025 07:00:00,11.875000,75.373200,SO2,5,7,6
India,Kerala,Kollam,"Polayathode, Kollam - Kerala PCB",16-11-2025 07:00:00,8.8787,76.6073,NO2,NA,NA,NA
India,Kerala,Kollam,"Polayathode, Kollam - Kerala PCB",16-11-2025 07:00:00,8.8787,76.6073,NH3,NA,NA,NA
India,Kerala,Thiruvananthapuram,"Plammoodu, Thiruvananthapuram - Kerala PCB",16-11-2025 07:00:00,8.5149093,76.9435879,SO2,9,30,19
India,Kerala,Thiruvananthapuram,"Plammoodu, Thiruvananthapuram - Kerala PCB",16-11-2025 07:00:00,8.5149093,76.9435879,OZONE,13,276,29
India,Madhya Pradesh,Bhopal,"Idgah Hills, Bhopal - MPPCB",16-11-2025 07:00:00,23.264759,77.381568,NO2,15,86,34
India,Madhya Pradesh,Bhopal,"Idgah Hills, Bhopal - MPPCB",16-11-2025 07:00:00,23.264759,77.381568,NH3,4,8,6
India,Madhya Pradesh,Bhopal,"T T Nagar, Bhopal - MPPCB",16-11-2025 07:00:00,23.233584,77.400574,NH3,5,6,6
India,Madhya Pradesh,Bhopal,"T T Nagar, Bhopal - MPPCB",16-11-2025 07:00:00,23.233584,77.400574,OZONE,25,160,63
India,Madhya Pradesh,Damoh,"Shrivastav Colony, Damoh - MPPCB",16-11-2025 07:00:00,23.81748678,79.446246,PM10,20,84,41
India,Maharashtra,Amravati,"Shivneri Colony, Amravati - MPCB",16-11-2025 07:00:00,20.9402359,77.7895248,PM10,101,141,117
India,Maharashtra,Amravati,"Shivneri Colony, Amravati - MPCB",16-11-2025 07:00:00,20.9402359,77.7895248,SO2,11,14,12
India,Maharashtra,Amravati,"Shivneri Colony, Amravati - MPCB",16-11-2025 07:00:00,20.9402359,77.7895248,OZONE,23,141,48
India,Maharashtra,Amravati,"Shri Shivaji Science College, Amravati - MPCB",16-11-2025 07:00:00,20.939198,77.765701,PM10,77,253,119
India,Maharashtra,Aurangabad,"MIDC Chilkalthana, Aurangabad - MPCB",16-11-2025 07:00:00,19.875620,75.387310,PM2.5,22,146,79
India,Maharashtra,Aurangabad,"MIDC Chilkalthana, Aurangabad - MPCB",16-11-2025 07:00:00,19.875620,75.387310,SO2,1,2,1
India,Maharashtra,Aurangabad,"MIDC Chilkalthana, Aurangabad - MPCB",16-11-2025 07:00:00,19.875620,75.387310,CO,24,82,51
India,Madhya Pradesh,Damoh,"Shrivastav Colony, Damoh - MPPCB",16-11-2025 07:00:00,23.81748678,79.446246,SO2,25,27,26
India,Madhya Pradesh,Gwalior,"City Center, Gwalior - MPPCB",16-11-2025 07:00:00,26.203442,78.193251,NH3,3,4,3
India,Madhya Pradesh,Gwalior,"City Center, Gwalior - MPPCB",16-11-2025 07:00:00,26.203442,78.193251,CO,26,117,51
India,Madhya Pradesh,Gwalior,"Deen Dayal Nagar, Gwalior - MPPCB",16-11-2025 07:00:00,26.259242,78.216432,NO2,15,141,58
India,Madhya Pradesh,Gwalior,"Deen Dayal Nagar, Gwalior - MPPCB",16-11-2025 07:00:00,26.259242,78.216432,CO,19,136,71
India,Madhya Pradesh,Gwalior,"Maharaj Bada, Gwalior - MPPCB",16-11-2025 07:00:00,26.200388,78.147714,NH3,4,4,4
India,Madhya Pradesh,Gwalior,"Maharaj Bada, Gwalior - MPPCB",16-11-2025 07:00:00,26.200388,78.147714,CO,3,122,13
India,Madhya Pradesh,Satna,"Bandhavgar Colony, Satna - Birla Cement",16-11-2025 07:00:00,24.58434363,80.8549414,OZONE,NA,NA,NA
India,Maharashtra,Ahmednagar,"Tarakpur, Ahmednagar - MPCB",16-11-2025 07:00:00,19.10122,74.73339,PM2.5,61,159,92
India,Maharashtra,Ahmednagar,"Tarakpur, Ahmednagar - MPCB",16-11-2025 07:00:00,19.10122,74.73339,NO2,16,29,22
India,Maharashtra,Ahmednagar,"Tarakpur, Ahmednagar - MPCB",16-11-2025 07:00:00,19.10122,74.73339,NH3,4,7,5
India,Maharashtra,Ahmednagar,"Tarakpur, Ahmednagar - MPCB",16-11-2025 07:00:00,19.10122,74.73339,OZONE,2,110,21
India,Madhya Pradesh,Indore,"Chhoti Gwaltoli, Indore - MPPCB",16-11-2025 07:00:00,22.4310,75.5213,NH3,4,13,9
India,Madhya Pradesh,Indore,"Chhoti Gwaltoli, Indore - MPPCB",16-11-2025 07:00:00,22.4310,75.5213,CO,40,106,77
India,Madhya Pradesh,Jabalpur,"Govindh Bhavan Colony, Jabalpur - JMC",16-11-2025 07:00:00,23.163174,79.973061,PM2.5,52,187,104
India,Madhya Pradesh,Jabalpur,"Gupteshwar, Jabalpur - JMC",16-11-2025 07:00:00,23.142888,79.916147,PM2.5,50,306,126
India,Madhya Pradesh,Jabalpur,"Gupteshwar, Jabalpur - JMC",16-11-2025 07:00:00,23.142888,79.916147,NO2,18,157,56
India,Madhya Pradesh,Jabalpur,"Marhatal, Jabalpur - MPPCB",16-11-2025 07:00:00,23.168606,79.932247,PM10,109,378,196
India,Madhya Pradesh,Jabalpur,"Marhatal, Jabalpur - MPPCB",16-11-2025 07:00:00,23.168606,79.932247,NH3,3,9,5
India,Madhya Pradesh,Jabalpur,"Suhagi, Jabalpur - JMC",16-11-2025 07:00:00,23.218135,79.957770,NO2,21,161,58
India,Maharashtra,Mira-Bhayandar,"Bhayandar West, Mira-Bhayandar - MPCB",16-11-2025 07:00:00,19.296481,72.840923,SO2,NA,NA,NA
India,Maharashtra,Mumbai,"Bandra Kurla Complex, Mumbai - IITM",16-11-2025 07:00:00,19.053536,72.84643,PM2.5,306,354,322
India,Maharashtra,Mumbai,"Bandra Kurla Complex, Mumbai - IITM",16-11-2025 07:00:00,19.053536,72.84643,NH3,18,77,41
India,Maharashtra,Mumbai,"Bandra Kurla Complex, Mumbai - MPCB",16-11-2025 07:00:00,19.065931,72.862131,PM2.5,57,185,121
India,Maharashtra,Mumbai,"Bandra Kurla Complex, Mumbai - MPCB",16-11-2025 07:00:00,19.065931,72.862131,SO2,1,10,6
India,Maharashtra,Mumbai,"Bandra Kurla Complex, Mumbai - MPCB",16-11-2025 07:00:00,19.065931,72.862131,OZONE,1,134,5
India,Maharashtra,Mumbai,"Borivali East, Mumbai - IITM",16-11-2025 07:00:00,19.23241,72.86895,OZONE,25,162,51
India,Maharashtra,Mumbai,"Borivali East, Mumbai - MPCB",16-11-2025 07:00:00,19.2243333,72.8658113,SO2,NA,NA,NA
India,Maharashtra,Mumbai,"Borivali East, Mumbai - MPCB",16-11-2025 07:00:00,19.2243333,72.8658113,CO,5,8,5
India,Maharashtra,Kalyan,"Khadakpada, Kalyan - MPCB",16-11-2025 07:00:00,19.25292,73.142019,NH3,1,1,1
India,Maharashtra,Kalyan,"Khadakpada, Kalyan - MPCB",16-11-2025 07:00:00,19.25292,73.142019,OZONE,9,9,9
India,Maharashtra,Kalyan,"Pimpleshwar Mandir, Kalyan - MPCB",16-11-2025 07:00:00,19.192056,72.9585188,NH3,2,9,5
India,Maharashtra,Kalyan,"Pimpleshwar Mandir, Kalyan - MPCB",16-11-2025 07:00:00,19.192056,72.9585188,SO2,5,27,12
India,Maharashtra,Kalyan,"Pimpleshwar Mandir, Kalyan - MPCB",16-11-2025 07:00:00,19.192056,72.9585188,OZONE,6,20,16
India,Maharashtra,Kolhapur,"Shivaji University, Kolhapur - MPCB",16-11-2025 07:00:00,16.6870449,74.2505872,OZONE,2,58,18
India,Maharashtra,Kolhapur,"Sinchan Bhavan, Kolhapur - MPCB",16-11-2025 07:00:00,16.7143745,74.2426398,PM10,18,383,156
India,Maharashtra,Kolhapur,"Sinchan Bhavan, Kolhapur - MPCB",16-11-2025 07:00:00,16.7143745,74.2426398,NH3,6,38,15
India,Maharashtra,Mumbai,"Byculla, Mumbai - BMC",16-11-2025 07:00:00,18.9767,72.8380,PM10,NA,NA,NA
India,Maharashtra,Mumbai,"Byculla, Mumbai - BMC",16-11-2025 07:00:00,18.9767,72.8380,NH3,NA,NA,NA
India,Maharashtra,Mumbai,"Chakala-Andheri East, Mumbai - IITM",16-11-2025 07:00:00,19.11074,72.86084,PM2.5,NA,NA,NA
India,Maharashtra,Mumbai,"Chembur, Mumbai - MPCB",16-11-2025 07:00:00,19.0364585,72.8954371,NH3,2,3,2
India,Maharashtra,Mumbai,"Chhatrapati Shivaji Intl. Airport (T2), Mumbai - MPCB",16-11-2025 07:00:00,19.10078,72.87462,PM10,95,169,128
India,Maharashtra,Mumbai,"Chhatrapati Shivaji Intl. Airport (T2), Mumbai - MPCB",16-11-2025 07:00:00,19.10078,72.87462,SO2,20,21,21
India,Maharashtra,Mumbai,"Chhatrapati Shivaji Intl. Airport (T2), Mumbai - MPCB",16-11-2025 07:00:00,19.10078,72.87462,OZONE,7,8,7
India,Maharashtra,Mumbai,"Colaba, Mumbai - MPCB",16-11-2025 07:00:00,18.910000,72.820000,SO2,10,10,10
India,Maharashtra,Mumbai,"Colaba, Mumbai - MPCB",16-11-2025 07:00:00,18.910000,72.820000,OZONE,11,12,11
India,Maharashtra,Mumbai,"Deonar, Mumbai - IITM",16-11-2025 07:00:00,19.04946,72.9230,CO,4,108,64
India,Maharashtra,Mumbai,"Ghatkopar, Mumbai - BMC",16-11-2025 07:00:00,19.083694,72.920967,CO,14,60,44
India,Maharashtra,Mumbai,"Ghatkopar, Mumbai - BMC",16-11-2025 07:00:00,19.083694,72.920967,OZONE,1,145,2
India,Maharashtra,Mumbai,"Kandivali East, Mumbai - MPCB",16-11-2025 07:00:00,19.205800,72.868200,NO2,6,13,8
India,Maharashtra,Mumbai,"Kandivali East, Mumbai - MPCB",16-11-2025 07:00:00,19.205800,72.868200,CO,10,40,11
India,Maharashtra,Mumbai,"Mazgaon, Mumbai - IITM",16-11-2025 07:00:00,18.96702,72.84214,NH3,7,18,13
India,Maharashtra,Mumbai,"Mindspace-Malad West, Mumbai - MPCB",16-11-2025 07:00:00,19.1878657,72.8304069,PM2.5,72,200,118
India,Maharashtra,Mumbai,"Mindspace-Malad West, Mumbai - MPCB",16-11-2025 07:00:00,19.1878657,72.8304069,PM10,65,185,121
India,Maharashtra,Mumbai,"Mindspace-Malad West, Mumbai - MPCB",16-11-2025 07:00:00,19.1878657,72.8304069,NH3,7,43,20
India,Maharashtra,Mumbai,"Mulund West, Mumbai - MPCB",16-11-2025 07:00:00,19.1750,72.9419,PM2.5,77,179,115
India,Maharashtra,Mumbai,"Powai, Mumbai - MPCB",16-11-2025 07:00:00,19.137500,72.915056,PM10,99,152,123
India,Maharashtra,Chandrapur,"Chauhan Colony, Chandrapur - MPCB",16-11-2025 07:00:00,19.962900,79.298714,NH3,2,2,2
India,Maharashtra,Chandrapur,"MIDC Khutala, Chandrapur - MPCB",16-11-2025 07:00:00,19.9775302,79.2337086,PM10,NA,NA,NA
India,Maharashtra,Dhule,"Deopur, Dhule - MPCB",16-11-2025 07:00:00,20.918946,74.776388,NH3,1,3,2
India,Maharashtra,Jalgaon,"Prabhat Colony, Jalgaon - MPCB",16-11-2025 07:00:00,21.001264,75.565602,NH3,2,3,2
India,Maharashtra,Jalna,"Old MIDC, Jalna - MPCB",16-11-2025 07:00:00,19.854616,75.905894,PM10,71,114,94
India,Maharashtra,Latur,"Sawe Wadi, Latur - MPCB",16-11-2025 07:00:00,18.39963,76.57452,PM2.5,69,143,100
India,Maharashtra,Mahad,"Kamble Tarf Birwadi, Mahad - MPCB",16-11-2025 07:00:00,18.1023399,73.4783687,CO,4,20,12
India,Maharashtra,Mahad,"Kamble Tarf Birwadi, Mahad - MPCB",16-11-2025 07:00:00,18.1023399,73.4783687,OZONE,15,72,25
India,Maharashtra,Malegaon,"Mahesh Nagar, Malegaon - MPCB",16-11-2025 07:00:00,20.555712,74.529236,NO2,16,132,46
India,Maharashtra,Malegaon,"Mahesh Nagar, Malegaon - MPCB",16-11-2025 07:00:00,20.555712,74.529236,SO2,3,40,11
India,Maharashtra,Mumbai,"Malad West, Mumbai - IITM",16-11-2025 07:00:00,19.19709,72.82204,PM2.5,110,356,233
India,Maharashtra,Mumbai,"Malad West, Mumbai - IITM",16-11-2025 07:00:00,19.19709,72.82204,SO2,3,7,5
India,Maharashtra,Boisar,"Khaira, Boisar - MPCB",16-11-2025 07:00:00,19.786089,72.757971,CO,14,78,26
India,Maharashtra,Nagpur,"Opp GPO Civil Lines, Nagpur - MPCB",16-11-2025 07:00:00,21.152875,79.0517531,NH3,1,9,3
India,Maharashtra,Nagpur,"Ram Nagar, Nagpur - MPCB",16-11-2025 07:00:00,21.143383,79.048912,NO2,13,74,30
India,Maharashtra,Nagpur,"Ram Nagar, Nagpur - MPCB",16-11-2025 07:00:00,21.143383,79.048912,CO,20,101,54
India,Maharashtra,Nanded,"Sneh Nagar, Nanded - MPCB",16-11-2025 07:00:00,19.173852,77.296291,NO2,9,36,21
India,Maharashtra,Nashik,"Gangapur Road, Nashik - MPCB",16-11-2025 07:00:00,20.0073285,73.7762427,PM10,79,149,104
India,Maharashtra,Nashik,"Gangapur Road, Nashik - MPCB",16-11-2025 07:00:00,20.0073285,73.7762427,NH3,4,4,4
India,Maharashtra,Nashik,"Hirawadi, Nashik - MPCB",16-11-2025 07:00:00,20.021503,73.813844,PM2.5,90,209,150
India,Maharashtra,Nashik,"Hirawadi, Nashik - MPCB",16-11-2025 07:00:00,20.021503,73.813844,NO2,8,30,20
India,Maharashtra,Navi Mumbai,"Nerul, Navi Mumbai - MPCB",16-11-2025 07:00:00,19.008751,73.016620,CO,NA,NA,NA
India,Maharashtra,Navi Mumbai,"Sanpada, Navi Mumbai - MPCB",16-11-2025 07:00:00,19.0575752,73.0151367,CO,7,121,87
India,Maharashtra,Navi Mumbai,"Sector-2E Kalamboli, Navi Mumbai - MPCB",16-11-2025 07:00:00,19.02579,73.10297,PM2.5,56,291,136
India,Maharashtra,Navi Mumbai,"Sector-2E Kalamboli, Navi Mumbai - MPCB",16-11-2025 07:00:00,19.02579,73.10297,PM10,42,266,125
India,Maharashtra,Navi Mumbai,"Tondare-Taloja, Navi Mumbai - MPCB",16-11-2025 07:00:00,19.0630,73.1209,PM10,41,152,92
India,Maharashtra,Navi Mumbai,"Tondare-Taloja, Navi Mumbai - MPCB",16-11-2025 07:00:00,19.0630,73.1209,OZONE,11,32,18
India,Maharashtra,Parbhani,"Masoom Colony, Parbhani - MPCB",16-11-2025 07:00:00,19.265594,76.761463,PM2.5,82,336,188
India,Maharashtra,Pune,"Revenue Colony-Shivajinagar, Pune - IITM",16-11-2025 07:00:00,18.530085,73.849598,NO2,43,157,95
India,Maharashtra,Pune,"Savitribai Phule Pune University, Pune - MPCB",16-11-2025 07:00:00,18.547056,73.826908,PM2.5,20,81,52
India,Maharashtra,Pune,"Savitribai Phule Pune University, Pune - MPCB",16-11-2025 07:00:00,18.547056,73.826908,SO2,1,3,2
India,Maharashtra,Pune,"Transport Nagar-Nigdi, Pune - IITM",16-11-2025 07:00:00,18.664282,73.763966,OZONE,10,76,20
India,Maharashtra,Sangli,"Vijay Nagar, Sangli - MPCB",16-11-2025 07:00:00, 16.5038,74.3623,CO,32,46,33
India,Maharashtra,Solapur,"Dnyaneshwar Nagar, Solapur - MPCB",16-11-2025 07:00:00,17.6336264,75.9132495,PM2.5,46,126,77
India,Maharashtra,Pimpri-Chinchwad,"Gavalinagar, Pimpri Chinchwad - MPCB",16-11-2025 07:00:00,18.63673,73.82487,PM10,120,237,164
India,Maharashtra,Pimpri-Chinchwad,"Gavalinagar, Pimpri Chinchwad - MPCB",16-11-2025 07:00:00,18.63673,73.82487,NO2,32,122,66
India,Maharashtra,Pimpri-Chinchwad,"Gavalinagar, Pimpri Chinchwad - MPCB",16-11-2025 07:00:00,18.63673,73.82487,NH3,9,24,13
India,Maharashtra,Pimpri-Chinchwad,"Park Street Wakad, Pimpri Chinchwad - MPCB",16-11-2025 07:00:00,18.59051,73.77946,PM10,NA,NA,NA
India,Maharashtra,Pimpri-Chinchwad,"Savta Mali Nagar, Pimpri-Chinchwad - IITM",16-11-2025 07:00:00,18.614767,73.799516,NO2,29,141,77
India,Maharashtra,Mumbai,"Worli, Mumbai - MPCB",16-11-2025 07:00:00,18.9936162,72.8128113,PM10,98,126,108
India,Maharashtra,Nagpur,"Ambazari, Nagpur - MPCB",16-11-2025 07:00:00,21.121801,79.04952,NO2,10,113,33
India,Maharashtra,Nagpur,"Mahal, Nagpur - MPCB",16-11-2025 07:00:00,21.14472,79.107595,NH3,3,9,4
India,Maharashtra,Nagpur,"Mahal, Nagpur - MPCB",16-11-2025 07:00:00,21.14472,79.107595,OZONE,1,30,9
India,Maharashtra,Nagpur,"Opp GPO Civil Lines, Nagpur - MPCB",16-11-2025 07:00:00,21.152875,79.0517531,PM10,108,160,128
India,Maharashtra,Nashik,"MIDC Ambad, Nashik - MPCB",16-11-2025 07:00:00,19.950220,73.731480,SO2,16,20,18
India,Maharashtra,Nashik,"Pandav Nagari, Nashik - MPCB",16-11-2025 07:00:00,19.9591346,73.7788008,SO2,2,9,4
India,Maharashtra,Navi Mumbai,"Kopripada-Vashi, Navi Mumbai - MPCB",16-11-2025 07:00:00,19.090337,73.014232,PM2.5,49,210,90
India,Maharashtra,Navi Mumbai,"Mahape, Navi Mumbai - MPCB",16-11-2025 07:00:00,19.1135051,73.008978,SO2,24,27,25
India,Maharashtra,Solapur,"Ratandeep Housing Society, Solapur - MPCB",16-11-2025 07:00:00,17.65439,75.90649,SO2,1,12,4
India,Maharashtra,Thane,"Kasarvadavali, Thane - MPCB",16-11-2025 07:00:00,19.26777,72.97182,PM2.5,44,126,84
India,Maharashtra,Thane,"Kasarvadavali, Thane - MPCB",16-11-2025 07:00:00,19.26777,72.97182,PM10,78,154,122
India,Maharashtra,Ulhasnagar,"Sidhi Vinayak Nagar, Ulhasnagar - MPCB",16-11-2025 07:00:00,19.235581,73.159121,CO,25,46,39
India,Maharashtra,Pune,"Dhankawadi, Pune - IITM",16-11-2025 07:00:00,18.459883,73.852193,OZONE,1,2,1
India,Maharashtra,Pune,"Hadapsar, Pune - IITM",16-11-2025 07:00:00,18.501793,73.927532,PM2.5,48,312,128
India,Maharashtra,Pune,"Katraj Dairy, Pune - MPCB",16-11-2025 07:00:00,18.454450,73.854155,NH3,3,11,6
India,Maharashtra,Pune,"Mhada Colony, Pune - IITM",16-11-2025 07:00:00,18.573040,73.927715,PM10,123,197,163
India,Maharashtra,Mumbai,"Sewri, Mumbai - BMC",16-11-2025 07:00:00,19.000084,72.856730,NH3,6,33,24
India,Maharashtra,Mumbai,"Shivaji Nagar, Mumbai - BMC",16-11-2025 07:00:00,19.060498,72.923356,NH3,2,14,4
India,Maharashtra,Mumbai,"Sion, Mumbai - MPCB",16-11-2025 07:00:00,19.047000,72.874600,PM2.5,36,272,83
India,Rajasthan,Banswara,"Rati Talai, Banswara - RSPCB",16-11-2025 07:00:00,23.555190,74.440010,NO2,16,107,37
India,Rajasthan,Banswara,"Rati Talai, Banswara - RSPCB",16-11-2025 07:00:00,23.555190,74.440010,SO2,5,30,10
India,Rajasthan,Banswara,"Rati Talai, Banswara - RSPCB",16-11-2025 07:00:00,23.555190,74.440010,CO,27,62,32
India,Rajasthan,Baran,"Bamboliya, Baran - RSPCB",16-11-2025 07:00:00,25.106006,76.469948,PM10,76,213,150
India,Rajasthan,Baran,"Bamboliya, Baran - RSPCB",16-11-2025 07:00:00,25.106006,76.469948,SO2,6,13,9
India,Rajasthan,Barmer,"Railway Colony, Barmer - RSPCB",16-11-2025 07:00:00,25.747299,71.393989,PM2.5,18,80,47
India,Rajasthan,Barmer,"Railway Colony, Barmer - RSPCB",16-11-2025 07:00:00,25.747299,71.393989,PM10,53,189,95
India,Rajasthan,Barmer,"Railway Colony, Barmer - RSPCB",16-11-2025 07:00:00,25.747299,71.393989,NO2,8,97,28
India,Rajasthan,Barmer,"Railway Colony, Barmer - RSPCB",16-11-2025 07:00:00,25.747299,71.393989,NH3,2,45,8
India,Rajasthan,Bharatpur,"Krishna Nagar, Bharatpur - RSPCB",16-11-2025 07:00:00,27.215415,77.50873,PM2.5,60,226,110
India,Rajasthan,Bharatpur,"Krishna Nagar, Bharatpur - RSPCB",16-11-2025 07:00:00,27.215415,77.50873,NO2,25,92,46
India,Rajasthan,Bharatpur,"Krishna Nagar, Bharatpur - RSPCB",16-11-2025 07:00:00,27.215415,77.50873,NH3,5,12,9
India,Punjab,Amritsar,"Golden Temple, Amritsar - PPCB",16-11-2025 07:00:00,31.620000,74.876512,CO,22,45,35
India,Punjab,Amritsar,"Golden Temple, Amritsar - PPCB",16-11-2025 07:00:00,31.620000,74.876512,OZONE,30,43,36
India,Punjab,Jalandhar,"Civil Line, Jalandhar - PPCB",16-11-2025 07:00:00,31.321907,75.578914,NO2,27,32,29
India,Punjab,Jalandhar,"Civil Line, Jalandhar - PPCB",16-11-2025 07:00:00,31.321907,75.578914,NH3,6,6,6
India,Punjab,Jalandhar,"Civil Line, Jalandhar - PPCB",16-11-2025 07:00:00,31.321907,75.578914,SO2,16,18,17
India,Punjab,Jalandhar,"Civil Line, Jalandhar - PPCB",16-11-2025 07:00:00,31.321907,75.578914,OZONE,42,49,45
India,Punjab,Khanna,"Kalal Majra, Khanna - PPCB",16-11-2025 07:00:00,30.736056 ,76.209694,SO2,10,29,17
India,Punjab,Ludhiana,"Punjab Agricultural University, Ludhiana - PPCB",16-11-2025 07:00:00,30.9028,75.8086,PM2.5,115,184,146
India,Punjab,Ludhiana,"Punjab Agricultural University, Ludhiana - PPCB",16-11-2025 07:00:00,30.9028,75.8086,PM10,119,147,132
India,Punjab,Mandi Gobindgarh,"RIMT University, Mandi Gobindgarh - PPCB",16-11-2025 07:00:00,30.649961,76.331442,PM2.5,94,360,231
India,Rajasthan,Bharatpur,"Krishna Nagar, Bharatpur - RSPCB",16-11-2025 07:00:00,27.215415,77.50873,SO2,6,16,11
India,Rajasthan,Bharatpur,"Krishna Nagar, Bharatpur - RSPCB",16-11-2025 07:00:00,27.215415,77.50873,OZONE,5,220,53
India,Rajasthan,Bhilwara,"Pratap Nagar, Bhilwara - RSPCB",16-11-2025 07:00:00,25.339605,74.618883,SO2,5,30,17
India,Rajasthan,Bhiwadi,"RIICO Ind. Area III, Bhiwadi - RSPCB",16-11-2025 07:00:00,28.194909,76.862296,PM2.5,96,382,328
India,Rajasthan,Bhiwadi,"RIICO Ind. Area III, Bhiwadi - RSPCB",16-11-2025 07:00:00,28.194909,76.862296,NO2,19,76,51
India,Rajasthan,Bhiwadi,"RIICO Ind. Area III, Bhiwadi - RSPCB",16-11-2025 07:00:00,28.194909,76.862296,SO2,1,13,8
India,Rajasthan,Bhiwadi,"RIICO Ind. Area III, Bhiwadi - RSPCB",16-11-2025 07:00:00,28.194909,76.862296,CO,16,77,34
India,Rajasthan,Bhiwadi,"RIICO Ind. Area III, Bhiwadi - RSPCB",16-11-2025 07:00:00,28.194909,76.862296,OZONE,5,34,7
India,Punjab,Mandi Gobindgarh,"RIMT University, Mandi Gobindgarh - PPCB",16-11-2025 07:00:00,30.649961,76.331442,NH3,6,6,6
India,Punjab,Patiala,"Model Town, Patiala - PPCB",16-11-2025 07:00:00,30.349388,76.366642,PM10,93,186,141
India,Punjab,Patiala,"Model Town, Patiala - PPCB",16-11-2025 07:00:00,30.349388,76.366642,CO,24,74,53
India,Punjab,Patiala,"Model Town, Patiala - PPCB",16-11-2025 07:00:00,30.349388,76.366642,OZONE,10,42,11
India,Punjab,Rupnagar,"Ratanpura, Rupnagar - Ambuja Cements",16-11-2025 07:00:00,31.0325454,76.5623046,NO2,1,6,5
India,Rajasthan,Ajmer,"Civil Lines,  Ajmer - RSPCB",16-11-2025 07:00:00,26.470859,74.646594,CO,6,47,15
India,Odisha,Nayagarh,"Dabuna, Nayagarh - OSPCB",16-11-2025 07:00:00,21.847279,85.416905,PM10,68,103,88
India,Odisha,Nayagarh,"Dabuna, Nayagarh - OSPCB",16-11-2025 07:00:00,21.847279,85.416905,OZONE,9,39,11
India,Odisha,Rairangpur,"Divisional Forest Office, Rairangpur - OSPCB",16-11-2025 07:00:00,22.265816,86.174829,NH3,1,1,1
India,Odisha,Rourkela,"Raghunathpali, Rourkela - OSPCB",16-11-2025 07:00:00,22.220833,84.809444,PM10,61,248,111
India,Odisha,Rourkela,"Raghunathpali, Rourkela - OSPCB",16-11-2025 07:00:00,22.220833,84.809444,CO,40,111,70
India,Odisha,Talcher,"Talcher Coalfields,Talcher - OSPCB",16-11-2025 07:00:00,20.9360711,85.1707021,SO2,NA,NA,NA
India,Puducherry,Puducherry,"Jawahar Nagar, Puducherry - PPCC",16-11-2025 07:00:00,11.9309,79.8027,NH3,2,4,3
India,Punjab,Amritsar,"Golden Temple, Amritsar - PPCB",16-11-2025 07:00:00,31.620000,74.876512,NH3,5,7,6
India,Punjab,Amritsar,"Golden Temple, Amritsar - PPCB",16-11-2025 07:00:00,31.620000,74.876512,SO2,11,23,17
India,Odisha,Balasore,"Kalidaspur, Balasore - OSPCB",16-11-2025 07:00:00,21.51161,86.89088,SO2,5,12,9
India,Odisha,Bhubaneswar,"Lingraj Mandir, Bhubaneswar - OSPCB",16-11-2025 07:00:00,20.240790,85.836784,SO2,9,50,23
India,Odisha,Bhubaneswar,"Patia, Bhubaneswar - OSPCB",16-11-2025 07:00:00,20.34652,85.81630,NO2,11,115,41
India,Odisha,Bhubaneswar,"Patia, Bhubaneswar - OSPCB",16-11-2025 07:00:00,20.34652,85.81630,SO2,4,8,5
India,Maharashtra,Virar,"Bolinj, Virar - MPCB",16-11-2025 07:00:00,19.4458210,72.7988231,NO2,14,83,38
India,Maharashtra,Virar,"Bolinj, Virar - MPCB",16-11-2025 07:00:00,19.4458210,72.7988231,OZONE,2,71,36
India,Odisha,Angul,"Hakimapada, Angul - OSPCB",16-11-2025 07:00:00,20.832874,85.104082,OZONE,2,61,37
India,Odisha,Bileipada,"Tata Township, Bileipada - OSPCB",16-11-2025 07:00:00,22.06156703,85.47409613,OZONE,11,21,12
India,Odisha,Keonjhar,"Jagamohanpur, Keonjhar - OSPCB",16-11-2025 07:00:00,21.643900,85.599355,PM2.5,NA,NA,NA
India,Rajasthan,Sri Ganganagar,"Old City, Sri Ganganagar - RSPCB",16-11-2025 07:00:00,29.931624,73.864511,PM10,74,492,244
India,Rajasthan,Sri Ganganagar,"Old City, Sri Ganganagar - RSPCB",16-11-2025 07:00:00,29.931624,73.864511,NH3,7,85,29
India,Rajasthan,Sri Ganganagar,"Old City, Sri Ganganagar - RSPCB",16-11-2025 07:00:00,29.931624,73.864511,SO2,1,23,7
India,Rajasthan,Tonk,"Shastri Nagar, Tonk - RSPCB",16-11-2025 07:00:00,26.159933,75.780517,PM2.5,79,462,199
India,Rajasthan,Tonk,"Shastri Nagar, Tonk - RSPCB",16-11-2025 07:00:00,26.159933,75.780517,SO2,2,5,3
India,Rajasthan,Tonk,"Shastri Nagar, Tonk - RSPCB",16-11-2025 07:00:00,26.159933,75.780517,OZONE,1,62,2
India,Rajasthan,Udaipur,"Ashok Nagar, Udaipur - RSPCB",16-11-2025 07:00:00,24.5886166,73.6321397,PM2.5,32,204,90
India,Rajasthan,Udaipur,"Ashok Nagar, Udaipur - RSPCB",16-11-2025 07:00:00,24.5886166,73.6321397,SO2,5,13,8
India,Rajasthan,Udaipur,"Ashok Nagar, Udaipur - RSPCB",16-11-2025 07:00:00,24.5886166,73.6321397,CO,5,96,35
India,TamilNadu,Ariyalur,"Keelapalur, Ariyalur - TNPCB",16-11-2025 07:00:00,11.06825,79.07033,NO2,9,9,9
India,TamilNadu,Chennai,"Alandur Bus Depot, Chennai - CPCB",16-11-2025 07:00:00,12.9099161,80.1076538,PM2.5,241,308,282
India,Rajasthan,Jhunjhunu,"Indra Nagar, Jhunjhunu - RSPCB",16-11-2025 07:00:00,28.108988,75.386577,NO2,10,140,59
India,Rajasthan,Jhunjhunu,"Indra Nagar, Jhunjhunu - RSPCB",16-11-2025 07:00:00,28.108988,75.386577,SO2,3,10,5
India,Rajasthan,Jhunjhunu,"Indra Nagar, Jhunjhunu - RSPCB",16-11-2025 07:00:00,28.108988,75.386577,OZONE,7,116,24
India,Rajasthan,Jodhpur,"Collectorate, Jodhpur - RSPCB",16-11-2025 07:00:00,26.268249,73.0193853,PM10,38,484,140
India,Rajasthan,Jodhpur,"Collectorate, Jodhpur - RSPCB",16-11-2025 07:00:00,26.268249,73.0193853,SO2,9,16,14
India,Rajasthan,Jodhpur,"Collectorate, Jodhpur - RSPCB",16-11-2025 07:00:00,26.268249,73.0193853,OZONE,3,59,10
India,Rajasthan,Jodhpur,"Digari Kalan, Jodhpur - RSPCB",16-11-2025 07:00:00,26.295810,73.082283,CO,8,104,59
India,Rajasthan,Jodhpur,"Jhalamand, Jodhpur - RSPCB",16-11-2025 07:00:00,26.215415,73.070156,NH3,5,22,13
India,Rajasthan,Jodhpur,"Mandor, Jodhpur - RSPCB",16-11-2025 07:00:00,26.358805,73.047444,PM10,52,232,102
India,Rajasthan,Jodhpur,"Mandor, Jodhpur - RSPCB",16-11-2025 07:00:00,26.358805,73.047444,NO2,8,95,37
India,Rajasthan,Kota,"Nayapura, Kota - RSPCB",16-11-2025 07:00:00,25.196024,75.855668,OZONE,2,199,4
India,Rajasthan,Kota,"Shrinath Puram, Kota - RSPCB",16-11-2025 07:00:00,25.14389,75.821256,PM2.5,45,310,161
India,Rajasthan,Kota,"Shrinath Puram, Kota - RSPCB",16-11-2025 07:00:00,25.14389,75.821256,NO2,14,18,16
India,Rajasthan,Kota,"Shrinath Puram, Kota - RSPCB",16-11-2025 07:00:00,25.14389,75.821256,NH3,2,10,5
India,Rajasthan,Pali,"Indira Colony Vistar, Pali - RSPCB",16-11-2025 07:00:00,25.771061, 73.340227,PM10,78,163,106
India,Rajasthan,Pali,"Indira Colony Vistar, Pali - RSPCB",16-11-2025 07:00:00,25.771061, 73.340227,NO2,29,80,39
India,Rajasthan,Pali,"Indira Colony Vistar, Pali - RSPCB",16-11-2025 07:00:00,25.771061, 73.340227,NH3,7,18,10
India,Rajasthan,Pratapgarh,"Pragati Nagar, Pratapgarh - RSPCB",16-11-2025 07:00:00,24.041198,74.780702,SO2,4,14,6
India,Rajasthan,Jodhpur,"Mandor, Jodhpur - RSPCB",16-11-2025 07:00:00,26.358805,73.047444,CO,8,58,30
India,Rajasthan,Jodhpur,"Samrat Ashok Udhyan, Jodhpur - RSPCB",16-11-2025 07:00:00,26.253384,72.976571,NH3,4,10,7
India,Rajasthan,Karauli,"Satyawati Vihar, Karauli - RSPCB",16-11-2025 07:00:00,26.506177,77.025989,CO,17,106,34
India,Rajasthan,Kota,"Dhanmandi, Kota - RSPCB",16-11-2025 07:00:00,25.164090,75.858137,PM2.5,78,342,172
India,Rajasthan,Kota,"Dhanmandi, Kota - RSPCB",16-11-2025 07:00:00,25.164090,75.858137,NH3,1,4,3
India,Rajasthan,Kota,"Nayapura, Kota - RSPCB",16-11-2025 07:00:00,25.196024,75.855668,NO2,22,115,58
India,Rajasthan,Kota,"Nayapura, Kota - RSPCB",16-11-2025 07:00:00,25.196024,75.855668,NH3,9,31,16
India,Rajasthan,Jaipur,"Shastri Nagar, Jaipur - RSPCB",16-11-2025 07:00:00,26.9502929,75.730943,NH3,5,24,16
India,Rajasthan,Jaisalmer,"Sadar Bazar, Jaisalmer - RSPCB",16-11-2025 07:00:00,26.912329,70.909168,NO2,13,54,33
India,Rajasthan,Jaisalmer,"Sadar Bazar, Jaisalmer - RSPCB",16-11-2025 07:00:00,26.912329,70.909168,SO2,2,5,3
India,Rajasthan,Jalore,"Mudtra Sili, Jalore - RSPCB",16-11-2025 07:00:00,25.344694,72.626208,NH3,2,7,4
India,Rajasthan,Jhalawar,"Rajlaxmi Nagar, Jhalawar - RSPCB",16-11-2025 07:00:00,24.588397,76.172782,SO2,5,16,10
India,Rajasthan,Jhunjhunu,"Indra Nagar, Jhunjhunu - RSPCB",16-11-2025 07:00:00,28.108988,75.386577,PM2.5,33,314,137
India,Rajasthan,Dungarpur,"Bhoiwada, Dungarpur - RSPCB",16-11-2025 07:00:00,23.837789,73.714926,PM2.5,40,217,98
India,Rajasthan,Dungarpur,"Bhoiwada, Dungarpur - RSPCB",16-11-2025 07:00:00,23.837789,73.714926,PM10,59,155,106
India,Rajasthan,Dungarpur,"Bhoiwada, Dungarpur - RSPCB",16-11-2025 07:00:00,23.837789,73.714926,NH3,5,11,7
India,Rajasthan,Hanumangarh,"Housing Board, Hanumangarh - RSPCB",16-11-2025 07:00:00,29.610750,74.283608,CO,20,134,74
India,Rajasthan,Hanumangarh,"Housing Board, Hanumangarh - RSPCB",16-11-2025 07:00:00,29.610750,74.283608,OZONE,4,90,4
India,Rajasthan,Jaipur,"Adarsh Nagar, Jaipur - RSPCB",16-11-2025 07:00:00,26.902909,75.836858,OZONE,18,70,21
India,Rajasthan,Rajsamand,"Dhoinda, Rajsamand - RSPCB",16-11-2025 07:00:00,25.036360,73.883502,PM10,35,186,82
India,Rajasthan,Rajsamand,"Dhoinda, Rajsamand - RSPCB",16-11-2025 07:00:00,25.036360,73.883502,NO2,9,97,29
India,Rajasthan,Sawai Madhopur,"Sahu Nagar, Sawai Madhopur - RSPCB",16-11-2025 07:00:00,26.031443,76.359327,OZONE,1,146,11
India,Rajasthan,Sikar,"Radhakishan Pura, Sikar - RSPCB",16-11-2025 07:00:00,27.608912,75.153302,PM2.5,38,375,168
India,Rajasthan,Sikar,"Radhakishan Pura, Sikar - RSPCB",16-11-2025 07:00:00,27.608912,75.153302,OZONE,7,106,23
India,Rajasthan,Jaipur,"Police Commissionerate, Jaipur - RSPCB",16-11-2025 07:00:00,26.9164092,75.7994901,CO,51,80,54
India,Rajasthan,Jaipur,"RIICO Sitapura, Jaipur - RSPCB",16-11-2025 07:00:00,26.786682,75.827928,PM10,89,329,198
India,Rajasthan,Jaipur,"RIICO Sitapura, Jaipur - RSPCB",16-11-2025 07:00:00,26.786682,75.827928,NO2,16,144,76
India,Rajasthan,Jaipur,"RIICO Sitapura, Jaipur - RSPCB",16-11-2025 07:00:00,26.786682,75.827928,SO2,4,8,6
India,Rajasthan,Bikaner,"MM Ground, Bikaner - RSPCB",16-11-2025 07:00:00,28.018792,73.292658,OZONE,1,127,13
India,TamilNadu,Vellore,"Vasanthapuram, Vellore - TNPCB",16-11-2025 07:00:00,12.909494,79.131861,CO,NA,NA,NA
India,Telangana,Hyderabad,"Bollaram Industrial Area, Hyderabad - TSPCB",16-11-2025 07:00:00,17.540891,78.358528,PM2.5,53,173,120
India,Telangana,Hyderabad,"ECIL Kapra, Hyderabad - TSPCB",16-11-2025 07:00:00,17.470431,78.566959,PM10,63,95,84
India,Telangana,Hyderabad,"ECIL Kapra, Hyderabad - TSPCB",16-11-2025 07:00:00,17.470431,78.566959,OZONE,9,53,11
India,Telangana,Hyderabad,"ICRISAT Patancheru, Hyderabad - TSPCB",16-11-2025 07:00:00,17.518400,78.278777,PM2.5,15,190,132
India,Telangana,Hyderabad,"ICRISAT Patancheru, Hyderabad - TSPCB",16-11-2025 07:00:00,17.518400,78.278777,PM10,91,158,140
India,Telangana,Hyderabad,"ICRISAT Patancheru, Hyderabad - TSPCB",16-11-2025 07:00:00,17.518400,78.278777,SO2,11,114,26
India,Telangana,Hyderabad,"Nacharam_TSIIC IALA, Hyderabad - TSPCB",16-11-2025 07:00:00,17.429398,78.569354,NO2,9,17,14
India,Telangana,Hyderabad,"Nacharam_TSIIC IALA, Hyderabad - TSPCB",16-11-2025 07:00:00,17.429398,78.569354,CO,38,60,58
India,Telangana,Hyderabad,"New Malakpet, Hyderabad - TSPCB",16-11-2025 07:00:00,17.37206,78.50864,PM2.5,50,68,58
India,Telangana,Hyderabad,"New Malakpet, Hyderabad - TSPCB",16-11-2025 07:00:00,17.37206,78.50864,PM10,83,92,86
India,Telangana,Hyderabad,"New Malakpet, Hyderabad - TSPCB",16-11-2025 07:00:00,17.37206,78.50864,NH3,3,3,3
India,Telangana,Hyderabad,"New Malakpet, Hyderabad - TSPCB",16-11-2025 07:00:00,17.37206,78.50864,CO,24,38,26
India,Telangana,Hyderabad,"New Malakpet, Hyderabad - TSPCB",16-11-2025 07:00:00,17.37206,78.50864,OZONE,10,46,12
India,Telangana,Hyderabad,"Sanathnagar, Hyderabad - TSPCB",16-11-2025 07:00:00,17.4559458,78.4332152,PM2.5,60,168,107
India,TamilNadu,Chennai,"Manali, Chennai - CPCB",16-11-2025 07:00:00,13.164544,80.26285,CO,11,28,19
India,TamilNadu,Chennai,"Perungudi, Chennai - TNPCB",16-11-2025 07:00:00,12.9533,80.2357,NO2,3,8,5
India,TamilNadu,Chennai,"Velachery Res. Area, Chennai - CPCB",16-11-2025 07:00:00,13.0052189,80.2398125,CO,34,46,40
India,TamilNadu,Chennai,"Velachery Res. Area, Chennai - CPCB",16-11-2025 07:00:00,13.0052189,80.2398125,OZONE,5,8,7
India,TamilNadu,Coimbatore,"PSG College of Arts and Science, Coimbatore - TNPCB",16-11-2025 07:00:00,11.0328,77.0349,PM2.5,54,229,106
India,TamilNadu,Coimbatore,"PSG College of Arts and Science, Coimbatore - TNPCB",16-11-2025 07:00:00,11.0328,77.0349,SO2,1,2,1
India,TamilNadu,Chennai,"Alandur Bus Depot, Chennai - CPCB",16-11-2025 07:00:00,12.9099161,80.1076538,SO2,15,16,15
India,TamilNadu,Chennai,"Arumbakkam, Chennai - TNPCB",16-11-2025 07:00:00,13.0664,80.2112 ,PM10,100,137,117
India,TamilNadu,Chennai,"Gandhi Nagar_Ennore, Chennai - TNPCB",16-11-2025 07:00:00,13.218341,80.32027,PM10,NA,NA,NA
India,TamilNadu,Chennai,"Kodungaiyur, Chennai - TNPCB",16-11-2025 07:00:00,13.1278,80.2642,PM10,83,140,115
India,TamilNadu,Chennai,"Kodungaiyur, Chennai - TNPCB",16-11-2025 07:00:00,13.1278,80.2642,NH3,3,28,7
India,TamilNadu,Chennai,"Manali Village, Chennai - TNPCB",16-11-2025 07:00:00,13.1662,80.2584,NH3,1,2,2
India,TamilNadu,Ramanathapuram,"Chalai Bazaar, Ramanathapuram - TNPCB",16-11-2025 07:00:00,9.36399,78.831977,NH3,3,3,3
India,TamilNadu,Ramanathapuram,"Chalai Bazaar, Ramanathapuram - TNPCB",16-11-2025 07:00:00,9.36399,78.831977,OZONE,4,5,5
India,TamilNadu,Salem,"Sona College of Technology, Salem - TNPCB",16-11-2025 07:00:00,11.679111,78.125052,PM2.5,70,156,112
India,TamilNadu,Thanjavur,"Parisutham Nagar, Thanjavur - TNPCB",16-11-2025 07:00:00,10.7654824,79.1389968,NH3,1,1,1
India,TamilNadu,Thoothukudi,"Meelavittan, Thoothukudi - TNPCB",16-11-2025 07:00:00,8.816428 ,78.099039,CO,20,115,82
India,Telangana,Hyderabad,"IDA Pashamylaram, Hyderabad - TSPCB",16-11-2025 07:00:00,17.5316895,78.218939,NO2,NA,NA,NA
India,Telangana,Hyderabad,"IDA Pashamylaram, Hyderabad - TSPCB",16-11-2025 07:00:00,17.5316895,78.218939,SO2,NA,NA,NA
India,Telangana,Hyderabad,"Kokapet, Hyderabad - TSPCB",16-11-2025 07:00:00,17.393559,78.339194,NO2,12,15,13
India,Telangana,Hyderabad,"Kokapet, Hyderabad - TSPCB",16-11-2025 07:00:00,17.393559,78.339194,CO,16,30,16
India,Telangana,Hyderabad,"Kokapet, Hyderabad - TSPCB",16-11-2025 07:00:00,17.393559,78.339194,OZONE,14,26,15
India,Telangana,Hyderabad,"Kompally Municipal Office, Hyderabad - TSPCB",16-11-2025 07:00:00,17.544899,78.486949,PM2.5,51,60,55
India,Telangana,Hyderabad,"Kompally Municipal Office, Hyderabad - TSPCB",16-11-2025 07:00:00,17.544899,78.486949,NH3,3,4,4
India,TamilNadu,Coimbatore,"SIDCO Kurichi, Coimbatore - TNPCB",16-11-2025 07:00:00,10.942451,76.978996,NH3,1,1,1
India,TamilNadu,Coimbatore,"SIDCO Kurichi, Coimbatore - TNPCB",16-11-2025 07:00:00,10.942451,76.978996,CO,28,60,38
India,TamilNadu,Cuddalore,"Kudikadu, Cuddalore - TNPCB",16-11-2025 07:00:00,11.6829898,79.7532099,PM2.5,47,87,69
India,TamilNadu,Cuddalore,"Semmandalam, Cuddalore - TNPCB",16-11-2025 07:00:00,11.7637683,79.7499835,NH3,1,3,2
India,TamilNadu,Dindigul,"Mendonsa Colony, Dindigul - TNPCB",16-11-2025 07:00:00,10.358535,77.984321,CO,17,21,19
India,TamilNadu,Ooty,"Bombay Castel, Ooty - TNPCB",16-11-2025 07:00:00,11.4068288,76.7138973,PM2.5,NA,NA,NA
India,TamilNadu,Ooty,"Bombay Castel, Ooty - TNPCB",16-11-2025 07:00:00,11.4068288,76.7138973,NO2,NA,NA,NA
India,TamilNadu,Ooty,"Bombay Castel, Ooty - TNPCB",16-11-2025 07:00:00,11.4068288,76.7138973,SO2,NA,NA,NA
India,TamilNadu,Ooty,"Bombay Castel, Ooty - TNPCB",16-11-2025 07:00:00,11.4068288,76.7138973,CO,NA,NA,NA
India,TamilNadu,Pudukottai,"SIPCOT Nathampannai, Pudukottai - TNPCB",16-11-2025 07:00:00,10.423417,78.784889,PM10,91,143,119
India,TamilNadu,Kanchipuram,"Kilambi, Kanchipuram - TNPCB",16-11-2025 07:00:00,12.864618,79.659968,NO2,5,23,13
India,TamilNadu,Karur,"Kamadenu Nagar, Karur - TNPCB",16-11-2025 07:00:00,10.967820,78.080882,PM2.5,74,163,119
India,TamilNadu,Karur,"Kamadenu Nagar, Karur - TNPCB",16-11-2025 07:00:00,10.967820,78.080882,NH3,3,4,3
India,TamilNadu,Karur,"Kamadenu Nagar, Karur - TNPCB",16-11-2025 07:00:00,10.967820,78.080882,SO2,14,16,15
India,Uttar_Pradesh,Ghaziabad,"Vasundhara, Ghaziabad - UPPCB",16-11-2025 07:00:00,28.6603346,77.3572563,PM2.5,NA,NA,NA
India,Uttar_Pradesh,Ghaziabad,"Vasundhara, Ghaziabad - UPPCB",16-11-2025 07:00:00,28.6603346,77.3572563,PM10,NA,NA,NA
India,Uttar_Pradesh,Ghaziabad,"Vasundhara, Ghaziabad - UPPCB",16-11-2025 07:00:00,28.6603346,77.3572563,NH3,NA,NA,NA
India,Uttar_Pradesh,Greater Noida,"Knowledge Park - III, Greater Noida - UPPCB",16-11-2025 07:00:00,28.47272,77.482000,NO2,49,168,107
India,Uttar_Pradesh,Greater Noida,"Knowledge Park - V, Greater Noida - UPPCB",16-11-2025 07:00:00,28.557054,77.453663,NO2,83,160,120
India,Uttar_Pradesh,Greater Noida,"Knowledge Park - V, Greater Noida - UPPCB",16-11-2025 07:00:00,28.557054,77.453663,NH3,10,14,12
India,Uttar_Pradesh,Greater Noida,"Knowledge Park - V, Greater Noida - UPPCB",16-11-2025 07:00:00,28.557054,77.453663,SO2,1,27,11
India,Uttar_Pradesh,Greater Noida,"Knowledge Park - V, Greater Noida - UPPCB",16-11-2025 07:00:00,28.557054,77.453663,CO,32,128,109
India,Uttar_Pradesh,Firozabad,"Nagla Bhau, Firozabad - UPPCB",16-11-2025 07:00:00,27.168897,78.376960,CO,10,24,21
India,Uttar_Pradesh,Ghaziabad,"Indirapuram, Ghaziabad - UPPCB",16-11-2025 07:00:00,28.646233,77.358075,PM2.5,304,471,400
India,Uttar_Pradesh,Ghaziabad,"Indirapuram, Ghaziabad - UPPCB",16-11-2025 07:00:00,28.646233,77.358075,NO2,40,250,115
India,Uttar_Pradesh,Ghaziabad,"Loni, Ghaziabad - UPPCB",16-11-2025 07:00:00,28.757294,77.278792,NO2,33,143,98
India,Uttar_Pradesh,Ghaziabad,"Sanjay Nagar, Ghaziabad - UPPCB",16-11-2025 07:00:00,28.685382,77.453839,PM2.5,325,500,436
India,Uttar_Pradesh,Ghaziabad,"Sanjay Nagar, Ghaziabad - UPPCB",16-11-2025 07:00:00,28.685382,77.453839,NO2,20,52,34
India,Uttar_Pradesh,Hapur,"Anand Vihar, Hapur - UPPCB",16-11-2025 07:00:00,28.725645,77.749675,NO2,104,436,263
India,Uttar_Pradesh,Hapur,"Anand Vihar, Hapur - UPPCB",16-11-2025 07:00:00,28.725645,77.749675,SO2,26,82,52
India,Uttar_Pradesh,Jhansi,"Shivaji Nagar, Jhansi - UPPCB",16-11-2025 07:00:00,25.4547,78.6039,NO2,6,6,6
India,Uttar_Pradesh,Kanpur,"NSI Kalyanpur, Kanpur - UPPCB",16-11-2025 07:00:00,26.509954,80.249612,CO,50,86,80
India,Uttar_Pradesh,Kanpur,"Nehru Nagar, Kanpur - UPPCB",16-11-2025 07:00:00,26.4703136,80.3229863,PM10,67,194,121
India,Telangana,Hyderabad,"Somajiguda, Hyderabad - TSPCB",16-11-2025 07:00:00,17.417094,78.457437,SO2,12,15,14
India,Uttar_Pradesh,Agra,"Manoharpur, Agra - UPPCB",16-11-2025 07:00:00,27.23711,78.01936,PM2.5,75,227,138
India,Uttar_Pradesh,Agra,"Manoharpur, Agra - UPPCB",16-11-2025 07:00:00,27.23711,78.01936,CO,22,26,24
India,Uttar_Pradesh,Agra,"Rohta, Agra - UPPCB",16-11-2025 07:00:00,27.106972,78.000111,PM10,105,213,157
India,Uttar_Pradesh,Agra,"Rohta, Agra - UPPCB",16-11-2025 07:00:00,27.106972,78.000111,NO2,16,18,16
India,Uttar_Pradesh,Agra,"Sanjay Palace, Agra - UPPCB",16-11-2025 07:00:00,27.19865833,78.00598056,NO2,6,29,16
India,Uttar_Pradesh,Agra,"Sanjay Palace, Agra - UPPCB",16-11-2025 07:00:00,27.19865833,78.00598056,SO2,16,17,16
India,Uttar_Pradesh,Agra,"Sector-3B Avas Vikas Colony, Agra - UPPCB",16-11-2025 07:00:00,27.19412,77.96237,NH3,4,7,6
India,Uttar_Pradesh,Agra,"Sector-3B Avas Vikas Colony, Agra - UPPCB",16-11-2025 07:00:00,27.19412,77.96237,SO2,8,11,8
India,Uttar_Pradesh,Agra,"Shahjahan Garden, Agra - UPPCB",16-11-2025 07:00:00,27.169338,78.03582,PM10,132,233,189
India,Uttar_Pradesh,Bareilly,"Civil Lines, Bareilly - UPPCB",16-11-2025 07:00:00,28.359581,79.414455,SO2,11,29,19
India,Uttar_Pradesh,Bareilly,"Rajendra Nagar, Bareilly - UPPCB",16-11-2025 07:00:00,28.38910936,79.42963708,PM2.5,27,93,62
India,Uttar_Pradesh,Bareilly,"Rajendra Nagar, Bareilly - UPPCB",16-11-2025 07:00:00,28.38910936,79.42963708,CO,20,60,52
India,Uttar_Pradesh,Bulandshahr,"Yamunapuram, Bulandshahr - UPPCB",16-11-2025 07:00:00,28.406963,77.849831,OZONE,2,100,4
India,Uttar_Pradesh,Meerut,"Ganga Nagar, Meerut - UPPCB",16-11-2025 07:00:00,28.999264,77.7590354,CO,2,105,56
India,Uttar_Pradesh,Meerut,"Jai Bhim Nagar, Meerut - UPPCB",16-11-2025 07:00:00,28.9535882,77.7622941,PM10,131,500,333
India,Uttar_Pradesh,Moradabad,"Buddhi Vihar, Moradabad - UPPCB",16-11-2025 07:00:00,28.83526,78.74460,NO2,29,29,29
India,Uttar_Pradesh,Lucknow,"Lalbagh, Lucknow - CPCB",16-11-2025 07:00:00,26.8458805,80.9365541,SO2,2,35,14
India,Uttar_Pradesh,Lucknow,"Lalbagh, Lucknow - CPCB",16-11-2025 07:00:00,26.8458805,80.9365541,CO,2,101,13
India,Uttar_Pradesh,Lucknow,"Talkatora District Industries Center, Lucknow - CPCB",16-11-2025 07:00:00,26.83399722,80.8917361,CO,4,98,23
India,Uttar_Pradesh,Lucknow,"B R Ambedkar University, Lucknow - UPPCB",16-11-2025 07:00:00,26.766433,80.927299,SO2,25,26,25
India,Uttar_Pradesh,Lucknow,"B R Ambedkar University, Lucknow - UPPCB",16-11-2025 07:00:00,26.766433,80.927299,OZONE,27,28,27
India,Uttar_Pradesh,Lucknow,"Gomti Nagar, Lucknow - UPPCB",16-11-2025 07:00:00,26.868120,81.005119,SO2,8,13,11
India,Uttarakhand,Dehradun,"Doon University, Dehradun - UKPCB",16-11-2025 07:00:00,30.269444,78.044167,OZONE,29,68,35
India,Uttarakhand,Kashipur,"Govt. Girls Inter College, Kashipur - UKPCB",16-11-2025 07:00:00,29.2124114,78.9611753,PM10,60,125,95
India,Uttarakhand,Rishikesh,"Shivaji Nagar, Rishikesh - UKPCB",16-11-2025 07:00:00,30.075911,78.2859547,NH3,5,9,6
India,Uttarakhand,Rishikesh,"Shivaji Nagar, Rishikesh - UKPCB",16-11-2025 07:00:00,30.075911,78.2859547,OZONE,67,67,67
India,West_Bengal,Asansol,"Asansol Court Area, Asansol - WBPCB",16-11-2025 07:00:00,23.685297,86.945968,PM2.5,61,260,151
India,West_Bengal,Asansol,"Asansol Court Area, Asansol - WBPCB",16-11-2025 07:00:00,23.685297,86.945968,NH3,3,9,5
India,West_Bengal,Howrah,"Dasnagar, Howrah - WBPCB",16-11-2025 07:00:00,22.6025571,88.3105664,NO2,11,76,42
India,West_Bengal,Howrah,"Dasnagar, Howrah - WBPCB",16-11-2025 07:00:00,22.6025571,88.3105664,NH3,1,3,2
India,West_Bengal,Howrah,"Dasnagar, Howrah - WBPCB",16-11-2025 07:00:00,22.6025571,88.3105664,SO2,1,28,9
India,West_Bengal,Howrah,"Ghusuri, Howrah - WBPCB",16-11-2025 07:00:00,22.611968,88.347422,CO,17,59,44
India,West_Bengal,Howrah,"Ghusuri, Howrah - WBPCB",16-11-2025 07:00:00,22.611968,88.347422,OZONE,9,21,10
India,West_Bengal,Howrah,"Padmapukur, Howrah - WBPCB",16-11-2025 07:00:00,22.5687319,88.2797276,PM10,98,176,141
India,West_Bengal,Howrah,"Padmapukur, Howrah - WBPCB",16-11-2025 07:00:00,22.5687319,88.2797276,NH3,3,11,7
India,Uttar_Pradesh,Varanasi,"Bhelupur, Varanasi - UPPCB",16-11-2025 07:00:00,25.301778,82.996789,NH3,1,1,1
India,Uttar_Pradesh,Varanasi,"Maldahiya, Varanasi - UPPCB",16-11-2025 07:00:00,25.32393,82.99687,NO2,2,2,2
India,Uttar_Pradesh,Varanasi,"Maldahiya, Varanasi - UPPCB",16-11-2025 07:00:00,25.32393,82.99687,SO2,27,29,28
India,Uttar_Pradesh,Vrindavan,"Omex Eternity, Vrindavan - UPPCB",16-11-2025 07:00:00,27.5714090,77.6557570,OZONE,15,16,15
India,Uttarakhand,Dehradun,"Doon University, Dehradun - UKPCB",16-11-2025 07:00:00,30.269444,78.044167,PM10,16,55,37
India,Uttar_Pradesh,Moradabad,"Kashiram Nagar, Moradabad - UPPCB",16-11-2025 07:00:00,28.849399,78.742362,CO,30,98,59
India,Uttar_Pradesh,Muzaffarnagar,"New Mandi, Muzaffarnagar - UPPCB",16-11-2025 07:00:00,29.4723508,77.7194031,NH3,9,15,12
India,Uttar_Pradesh,Noida,"Sector - 125, Noida - UPPCB",16-11-2025 07:00:00,28.5447608,77.3231257,SO2,5,25,13
India,Uttar_Pradesh,Noida,"Sector - 62, Noida - IMD",16-11-2025 07:00:00,28.6245479,77.3577104,PM2.5,231,443,353
India,West_Bengal,Durgapur,"PCBL Residential Complex, Durgapur - WBPCB",16-11-2025 07:00:00,23.5087640,87.3544400,NO2,12,42,27
India,West_Bengal,Durgapur,"Womens College_City Center, Durgapur - WBPCB (Formerly known as Sidhu Kanhu Indoor Stadium)",16-11-2025 07:00:00,23.549395,87.300496,SO2,18,36,29
India,West_Bengal,Howrah,"Belur Math, Howrah - WBPCB",16-11-2025 07:00:00,22.629801,88.352017,PM2.5,124,332,257
India,West_Bengal,Asansol,"Trivenidevi Bhalotia College, Asansol - WBPCB",16-11-2025 07:00:00,23.616515,87.119133,PM10,59,137,105
India,West_Bengal,Asansol,"Trivenidevi Bhalotia College, Asansol - WBPCB",16-11-2025 07:00:00,23.616515,87.119133,NH3,5,6,6
India,West_Bengal,Asansol,"Trivenidevi Bhalotia College, Asansol - WBPCB",16-11-2025 07:00:00,23.616515,87.119133,OZONE,17,85,33
India,West_Bengal,Durgapur,"PCBL Residential Complex, Durgapur - WBPCB",16-11-2025 07:00:00,23.5087640,87.3544400,PM2.5,41,156,94
India,Uttar_Pradesh,Moradabad,"Eco Herbal Park, Moradabad - UPPCB",16-11-2025 07:00:00,28.840739,78.697531,PM10,118,266,193
India,Uttar_Pradesh,Moradabad,"Employment Office, Moradabad - UPPCB",16-11-2025 07:00:00,28.88528,78.73880,NH3,4,4,4
India,Uttar_Pradesh,Moradabad,"Jigar Colony, Moradabad - UPPCB",16-11-2025 07:00:00,28.856664,78.772638,PM10,75,215,117
India,Uttar_Pradesh,Moradabad,"Jigar Colony, Moradabad - UPPCB",16-11-2025 07:00:00,28.856664,78.772638,NO2,25,25,25
India,Uttar_Pradesh,Prayagraj,"Nagar Nigam, Prayagraj - UPPCB",16-11-2025 07:00:00,25.44919916 ,81.82735986 ,NH3,5,15,9
India,Uttar_Pradesh,Varanasi,"Bhelupur, Varanasi - UPPCB",16-11-2025 07:00:00,25.301778,82.996789,PM10,47,214,127
India,Uttar_Pradesh,Prayagraj,"Jhunsi, Prayagraj - UPPCB",16-11-2025 07:00:00,25.425602,81.917152,NO2,6,6,6
India,West_Bengal,Kolkata,"Ballygunge, Kolkata - WBPCB",16-11-2025 07:00:00,22.5367507,88.3638022,OZONE,5,31,6
India,West_Bengal,Kolkata,"Fort William, Kolkata - WBPCB",16-11-2025 07:00:00,22.556640,88.342674,PM2.5,NA,NA,NA
India,West_Bengal,Kolkata,"Fort William, Kolkata - WBPCB",16-11-2025 07:00:00,22.556640,88.342674,NO2,NA,NA,NA
India,West_Bengal,Kolkata,"Jadavpur, Kolkata - WBPCB",16-11-2025 07:00:00,22.49929,88.36917,OZONE,10,43,12
India,West_Bengal,Kolkata,"Rabindra Bharati University, Kolkata - WBPCB",16-11-2025 07:00:00,22.627847,88.380669,PM2.5,71,164,99
India,West_Bengal,Kolkata,"Rabindra Bharati University, Kolkata - WBPCB",16-11-2025 07:00:00,22.627847,88.380669,PM10,80,164,116
India,West_Bengal,Kolkata,"Victoria, Kolkata - WBPCB",16-11-2025 07:00:00,22.5448082,88.3403691,SO2,2,17,10
India,West_Bengal,Kolkata,"Victoria, Kolkata - WBPCB",16-11-2025 07:00:00,22.5448082,88.3403691,OZONE,4,59,5
India,West_Bengal,Siliguri,"Ward-32 Bapupara, Siliguri - WBPCB",16-11-2025 07:00:00,26.6879226,88.4152495,NH3,11,11,11
India,Andhra_Pradesh,Visakhapatnam,"GVM Corporation, Visakhapatnam - APPCB",16-11-2025 07:00:00,17.72,83.3,PM10,126,328,157
India,Andhra_Pradesh,Visakhapatnam,"GVM Corporation, Visakhapatnam - APPCB",16-11-2025 07:00:00,17.72,83.3,NO2,18,162,68
India,Arunachal_Pradesh,Naharlagun,"Naharlagun, Naharlagun - APSPCB",16-11-2025 07:00:00,27.103358,93.679645,SO2,NA,NA,NA
India,Assam,Byrnihat,"Central Academy for SFS, Byrnihat - PCBA",16-11-2025 07:00:00,26.071318,91.87488,SO2,5,10,7
India,Assam,Byrnihat,"Central Academy for SFS, Byrnihat - PCBA",16-11-2025 07:00:00,26.071318,91.87488,CO,45,60,52
India,Assam,Guwahati,"IITG, Guwahati - PCBA",16-11-2025 07:00:00,26.2028636,91.70046436,PM10,29,445,109
India,Assam,Guwahati,"IITG, Guwahati - PCBA",16-11-2025 07:00:00,26.2028636,91.70046436,SO2,23,26,24
India,Assam,Guwahati,"LGBI Airport, Guwahati - PCBA",16-11-2025 07:00:00,26.10887,91.589544,NH3,6,6,6
India,Assam,Guwahati,"LGBI Airport, Guwahati - PCBA",16-11-2025 07:00:00,26.10887,91.589544,CO,15,92,32
India,Bihar,Arrah,"New DM Office, Arrah - BSPCB",16-11-2025 07:00:00,25.5626095,84.663264,PM2.5,31,99,62
India,Bihar,Arrah,"New DM Office, Arrah - BSPCB",16-11-2025 07:00:00,25.5626095,84.663264,PM10,34,102,64
India,Bihar,Arrah,"New DM Office, Arrah - BSPCB",16-11-2025 07:00:00,25.5626095,84.663264,OZONE,5,15,8
India,Bihar,Aurangabad,"Gurdeo Nagar, Aurangabad - BSPCB",16-11-2025 07:00:00,24.75746,84.366208,PM10,61,180,103
India,Bihar,Aurangabad,"Gurdeo Nagar, Aurangabad - BSPCB",16-11-2025 07:00:00,24.75746,84.366208,OZONE,3,51,16
India,Bihar,Begusarai,"Lohiyanagar, Begusarai - BSPCB",16-11-2025 07:00:00,25.42742023,86.13886079,OZONE,22,172,39
India,Bihar,Bettiah,"Kamalnath Nagar, Bettiah - BSPCB",16-11-2025 07:00:00,26.80365,84.51954,PM10,51,154,116
India,Bihar,Bettiah,"Kamalnath Nagar, Bettiah - BSPCB",16-11-2025 07:00:00,26.80365,84.51954,NH3,1,2,1
India,Bihar,Bettiah,"Kamalnath Nagar, Bettiah - BSPCB",16-11-2025 07:00:00,26.80365,84.51954,SO2,3,33,16
India,Andhra_Pradesh,Rajamahendravaram,"Anand Kala Kshetram, Rajamahendravaram - APPCB",16-11-2025 07:00:00,16.9872867,81.7363176,OZONE,14,46,19
India,Andhra_Pradesh,Tirumala,"Toll Gate, Tirumala - APPCB",16-11-2025 07:00:00,13.67,79.35,SO2,5,7,6
India,Andhra_Pradesh,Tirumala,"Toll Gate, Tirumala - APPCB",16-11-2025 07:00:00,13.67,79.35,CO,33,44,36
India,Andhra_Pradesh,Tirupati,"Vaikuntapuram, Tirupati - APPCB",16-11-2025 07:00:00,13.615387,79.409230,PM2.5,23,97,79
India,Andhra_Pradesh,Vijayawada,"HB Colony, Vijayawada - APPCB",16-11-2025 07:00:00,16.536107,80.594233,NH3,5,5,5
India,Andhra_Pradesh,Vijayawada,"HB Colony, Vijayawada - APPCB",16-11-2025 07:00:00,16.536107,80.594233,CO,20,20,20
India,Andhra_Pradesh,Vijayawada,"Rajiv Gandhi Park, Vijayawada - APPCB",16-11-2025 07:00:00,16.509717,80.612222,CO,32,38,32
India,Andhra_Pradesh,Amaravati,"Secretariat, Amaravati - APPCB",16-11-2025 07:00:00,16.5150833,80.5181667,OZONE,21,67,32
India,Andhra_Pradesh,Anantapur,"Gulzarpet, Anantapur - APPCB",16-11-2025 07:00:00,14.675886,77.593027,NO2,18,18,18
India,Andhra_Pradesh,Anantapur,"Gulzarpet, Anantapur - APPCB",16-11-2025 07:00:00,14.675886,77.593027,NH3,4,4,4
India,Andhra_Pradesh,Anantapur,"Gulzarpet, Anantapur - APPCB",16-11-2025 07:00:00,14.675886,77.593027,CO,40,58,45
India,Andhra_Pradesh,Anantapur,"Gulzarpet, Anantapur - APPCB",16-11-2025 07:00:00,14.675886,77.593027,OZONE,24,76,42
India,Andhra_Pradesh,Chittoor,"Gangineni Cheruvu, Chittoor - APPCB",16-11-2025 07:00:00,13.204880,79.097889,PM2.5,33,233,96
India,Andhra_Pradesh,Chittoor,"Gangineni Cheruvu, Chittoor - APPCB",16-11-2025 07:00:00,13.204880,79.097889,SO2,7,33,16
India,Andhra_Pradesh,Kadapa,"Yerramukkapalli, Kadapa - APPCB",16-11-2025 07:00:00,14.465052,78.824187,PM2.5,52,57,54
India,Bihar,Bhagalpur,"DM Office_Kachari Chowk, Bhagalpur - BSPCB",16-11-2025 07:00:00,25.251013,86.989001,CO,13,18,16
India,Bihar,Bhagalpur,"Mayaganj, Bhagalpur - BSPCB",16-11-2025 07:00:00,25.265194,87.012947,OZONE,25,113,47
India,Bihar,Buxar,"Charitra Van, Buxar - BSPCB",16-11-2025 07:00:00,25.567520,83.966379,NO2,9,10,9
India,Bihar,Buxar,"Charitra Van, Buxar - BSPCB",16-11-2025 07:00:00,25.567520,83.966379,CO,21,28,24
India,Bihar,Chhapra,"Darshan Nagar, Chhapra - BSPCB",16-11-2025 07:00:00,25.7808257,84.7446768,PM2.5,22,240,96
India,Bihar,Chhapra,"Darshan Nagar, Chhapra - BSPCB",16-11-2025 07:00:00,25.7808257,84.7446768,CO,4,16,8
India,Assam,Nalbari,"Bata Chowk, Nalbari - PCBA",16-11-2025 07:00:00,26.446912,91.439057,CO,10,28,22
India,Assam,Silchar,"Tarapur, Silchar - PCBA",16-11-2025 07:00:00,24.82827,92.79525,NO2,16,23,19
India,Assam,Silchar,"Tarapur, Silchar - PCBA",16-11-2025 07:00:00,24.82827,92.79525,NH3,1,1,1
India,Assam,Silchar,"Tarapur, Silchar - PCBA",16-11-2025 07:00:00,24.82827,92.79525,OZONE,1,4,2
India,Assam,Sivasagar,"Girls College, Sivasagar - PCBA",16-11-2025 07:00:00,26.987634,94.636574,NH3,8,16,12
India,Assam,Sivasagar,"Girls College, Sivasagar - PCBA",16-11-2025 07:00:00,26.987634,94.636574,CO,12,49,35
India,Assam,Sivasagar,"Girls College, Sivasagar - PCBA",16-11-2025 07:00:00,26.987634,94.636574,OZONE,4,80,8
India,Andhra_Pradesh,Kadapa,"Yerramukkapalli, Kadapa - APPCB",16-11-2025 07:00:00,14.465052,78.824187,NO2,14,24,18
India,Andhra_Pradesh,Kadapa,"Yerramukkapalli, Kadapa - APPCB",16-11-2025 07:00:00,14.465052,78.824187,NH3,4,6,5
India,Andhra_Pradesh,Kadapa,"Yerramukkapalli, Kadapa - APPCB",16-11-2025 07:00:00,14.465052,78.824187,SO2,10,13,11
India,Andhra_Pradesh,Rajamahendravaram,"Anand Kala Kshetram, Rajamahendravaram - APPCB",16-11-2025 07:00:00,16.9872867,81.7363176,NO2,9,58,33
India,Assam,Guwahati,"Pan Bazaar, Guwahati - PCBA",16-11-2025 07:00:00,26.187500,91.744194,OZONE,16,18,17
India,Assam,Guwahati,"Railway Colony, Guwahati - PCBA",16-11-2025 07:00:00,26.181742,91.78063,PM10,40,140,95
India,Assam,Guwahati,"Railway Colony, Guwahati - PCBA",16-11-2025 07:00:00,26.181742,91.78063,NO2,3,4,3
India,Assam,Nagaon,"Christianpatty, Nagaon - PCBA",16-11-2025 07:00:00,26.349082,92.68449,NO2,1,1,1
India,Andaman and Nicobar,Sri Vijaya Puram,"Police Line, Sri Vijaya Puram - ANPCC",16-11-2025 07:00:00,11.654054,92.734055,NH3,NA,NA,NA
India,Assam,Nalbari,"Bata Chowk, Nalbari - PCBA",16-11-2025 07:00:00,26.446912,91.439057,PM2.5,30,113,60
India,Bihar,Siwan,"Chitragupta Nagar, Siwan - BSPCB",16-11-2025 07:00:00,26.2271665,84.3570427,CO,53,108,93
India,Chandigarh,Chandigarh,"Sector 22, Chandigarh - CPCC",16-11-2025 07:00:00,30.735567,76.775714,PM10,46,124,92
India,Chandigarh,Chandigarh,"Sector 22, Chandigarh - CPCC",16-11-2025 07:00:00,30.735567,76.775714,NO2,5,32,15
India,Chandigarh,Chandigarh,"Sector-53, Chandigarh - CPCC",16-11-2025 07:00:00,30.719859,76.738637,PM2.5,52,180,112
India,Chandigarh,Chandigarh,"Sector-53, Chandigarh - CPCC",16-11-2025 07:00:00,30.719859,76.738637,PM10,53,139,100
India,Chandigarh,Chandigarh,"Sector-53, Chandigarh - CPCC",16-11-2025 07:00:00,30.719859,76.738637,NO2,21,154,77
India,Chandigarh,Chandigarh,"Sector-53, Chandigarh - CPCC",16-11-2025 07:00:00,30.719859,76.738637,SO2,8,66,18
India,Chhattisgarh,Bhilai,"32Bungalows, Bhilai - CECB",16-11-2025 07:00:00,21.194815,81.314770,PM2.5,34,64,45
India,Chhattisgarh,Bhilai,"32Bungalows, Bhilai - CECB",16-11-2025 07:00:00,21.194815,81.314770,NH3,1,5,4
India,Bihar,Muzaffarpur,"Buddha Colony, Muzaffarpur - BSPCB",16-11-2025 07:00:00,26.11442,85.39813,NH3,5,12,9
India,Bihar,Muzaffarpur,"Buddha Colony, Muzaffarpur - BSPCB",16-11-2025 07:00:00,26.11442,85.39813,OZONE,15,223,34
India,Bihar,Muzaffarpur,"MIT-Daudpur Kothi, Muzaffarpur - BSPCB",16-11-2025 07:00:00,26.1403345,85.3650192,NO2,7,18,15
India,Bihar,Muzaffarpur,"Muzaffarpur Collectorate, Muzaffarpur - BSPCB",16-11-2025 07:00:00,26.1209,85.3647,PM2.5,78,88,82
India,Bihar,Patna,"DRM Office Danapur, Patna - BSPCB",16-11-2025 07:00:00,25.586562,85.043586,SO2,7,39,10
India,Bihar,Patna,"Govt. High School Shikarpur, Patna - BSPCB",16-11-2025 07:00:00,25.592539,85.227158,OZONE,8,12,9
India,Bihar,Patna,"IGSC Planetarium Complex, Patna - BSPCB",16-11-2025 07:00:00,25.610369,85.132568,NO2,14,16,15
India,Bihar,Kishanganj,"SDM Office_Khagra, Kishanganj - BSPCB",16-11-2025 07:00:00,26.0881305,87.93840336,PM10,81,242,167
India,Bihar,Kishanganj,"SDM Office_Khagra, Kishanganj - BSPCB",16-11-2025 07:00:00,26.0881305,87.93840336,NO2,7,10,9
India,Bihar,Kishanganj,"SDM Office_Khagra, Kishanganj - BSPCB",16-11-2025 07:00:00,26.0881305,87.93840336,NH3,2,3,3
India,Bihar,Kishanganj,"SDM Office_Khagra, Kishanganj - BSPCB",16-11-2025 07:00:00,26.0881305,87.93840336,OZONE,15,18,16
India,Bihar,Motihari,"Gandak Colony, Motihari - BSPCB",16-11-2025 07:00:00,26.63086,84.90051,NH3,3,3,3
India,Bihar,Motihari,"Gandak Colony, Motihari - BSPCB",16-11-2025 07:00:00,26.63086,84.90051,SO2,3,3,3
India,Bihar,Munger,"Town Hall, Munger - BSPCB",16-11-2025 07:00:00,25.376776,86.471523,PM2.5,52,300,109
India,Bihar,Munger,"Town Hall, Munger - BSPCB",16-11-2025 07:00:00,25.376776,86.471523,SO2,15,18,17
India,Bihar,Munger,"Town Hall, Munger - BSPCB",16-11-2025 07:00:00,25.376776,86.471523,OZONE,12,25,15
India,Bihar,Saharsa,"Police Line, Saharsa - BSPCB",16-11-2025 07:00:00,25.892357,86.590325,SO2,NA,NA,NA
India,Bihar,Samastipur,"DM Office_Kasipur, Samastipur - BSPCB",16-11-2025 07:00:00,25.859655,85.77944,PM2.5,NA,NA,NA
India,Bihar,Samastipur,"DM Office_Kasipur, Samastipur - BSPCB",16-11-2025 07:00:00,25.859655,85.77944,NH3,NA,NA,NA
India,Bihar,Samastipur,"DM Office_Kasipur, Samastipur - BSPCB",16-11-2025 07:00:00,25.859655,85.77944,OZONE,NA,NA,NA
India,Bihar,Sasaram,"Dada Peer, Sasaram - BSPCB",16-11-2025 07:00:00,24.952822,84.002396,PM2.5,32,140,56
India,Bihar,Sasaram,"Dada Peer, Sasaram - BSPCB",16-11-2025 07:00:00,24.952822,84.002396,NO2,2,4,2
India,Bihar,Siwan,"Chitragupta Nagar, Siwan - BSPCB",16-11-2025 07:00:00,26.2271665,84.3570427,PM10,35,119,73
India,Bihar,Siwan,"Chitragupta Nagar, Siwan - BSPCB",16-11-2025 07:00:00,26.2271665,84.3570427,NO2,1,2,1
India,Bihar,Patna,"Muradpur, Patna - BSPCB",16-11-2025 07:00:00,25.619651,85.147382,SO2,7,10,9
India,Bihar,Patna,"Rajbansi Nagar, Patna - BSPCB",16-11-2025 07:00:00,25.599486,85.113666,PM2.5,80,125,100
India,Bihar,Patna,"Rajbansi Nagar, Patna - BSPCB",16-11-2025 07:00:00,25.599486,85.113666,PM10,98,128,113
India,Bihar,Patna,"Rajbansi Nagar, Patna - BSPCB",16-11-2025 07:00:00,25.599486,85.113666,NH3,1,9,6
India,Bihar,Patna,"Rajbansi Nagar, Patna - BSPCB",16-11-2025 07:00:00,25.599486,85.113666,SO2,7,9,8
India,Bihar,Patna,"Rajbansi Nagar, Patna - BSPCB",16-11-2025 07:00:00,25.599486,85.113666,CO,37,91,46
India,Chhattisgarh,Bhilai,"Civic Center, Bhilai - Bhilai Steel Plant",16-11-2025 07:00:00,21.185571,81.343175,NO2,21,132,64
India,Chhattisgarh,Bilaspur,"Mangala, Bilaspur - NTPC",16-11-2025 07:00:00,22.08815,82.13737,NO2,17,26,20
India,Chhattisgarh,Korba,"Rampur, Korba - CECB",16-11-2025 07:00:00,22.368195,82.746431,PM2.5,36,58,49
India,Chhattisgarh,Korba,"Rampur, Korba - CECB",16-11-2025 07:00:00,22.368195,82.746431,PM10,48,63,62
India,Chhattisgarh,Kunjemura,"OP Jindal School, Kunjemura - CECB",16-11-2025 07:00:00,22.126650,83.483212,SO2,1,16,10
India,Chhattisgarh,Raipur,"Bhatagaon New ISBT, Raipur - CECB",16-11-2025 07:00:00,21.219665,81.630094,PM2.5,35,95,65
India,Chhattisgarh,Raipur,"Bhatagaon New ISBT, Raipur - CECB",16-11-2025 07:00:00,21.219665,81.630094,NO2,1,40,21
India,Bihar,Purnia,"Mariam Nagar, Purnia - BSPCB",16-11-2025 07:00:00,25.366336,87.117468,OZONE,22,43,28
India,Bihar,Rajgir,"Dangi Tola, Rajgir - BSPCB",16-11-2025 07:00:00,25.03280,85.41948,NH3,5,8,7
India,Bihar,Rajgir,"Dangi Tola, Rajgir - BSPCB",16-11-2025 07:00:00,25.03280,85.41948,OZONE,29,34,33
India,Bihar,Gaya,"Kareemganj, Gaya - BSPCB",16-11-2025 07:00:00,24.792403,84.992416,NH3,4,6,5
India,Bihar,Gaya,"Kareemganj, Gaya - BSPCB",16-11-2025 07:00:00,24.792403,84.992416,CO,36,41,40
India,Bihar,Gaya,"SFTI Kusdihra, Gaya - BSPCB",16-11-2025 07:00:00,24.762518,84.982348,PM2.5,8,69,44
India,Delhi,Delhi,"Dwarka-Sector 8, Delhi - DPCC ",16-11-2025 07:00:00,28.5710274,77.0719006,PM2.5,328,422,378
India,Delhi,Delhi,"Dwarka-Sector 8, Delhi - DPCC ",16-11-2025 07:00:00,28.5710274,77.0719006,PM10,250,440,335
India,Delhi,Delhi,"Dwarka-Sector 8, Delhi - DPCC ",16-11-2025 07:00:00,28.5710274,77.0719006,OZONE,5,234,8
India,Delhi,Delhi,"IGI Airport (T3), Delhi - IMD",16-11-2025 07:00:00,28.5627763,77.1180053,PM2.5,308,370,338
India,Delhi,Delhi,"IGI Airport (T3), Delhi - IMD",16-11-2025 07:00:00,28.5627763,77.1180053,PM10,245,405,323
India,Delhi,Delhi,"IGI Airport (T3), Delhi - IMD",16-11-2025 07:00:00,28.5627763,77.1180053,NO2,89,265,173
India,Delhi,Delhi,"IHBAS, Dilshad Garden, Delhi - CPCB",16-11-2025 07:00:00,28.6811736,77.3025234,PM10,195,405,312
India,Delhi,Delhi,"ITO, Delhi - CPCB",16-11-2025 07:00:00,28.628624,77.241060,PM10,182,462,353
India,Delhi,Delhi,"ITO, Delhi - CPCB",16-11-2025 07:00:00,28.628624,77.241060,NO2,32,136,80
India,Delhi,Delhi,"ITO, Delhi - CPCB",16-11-2025 07:00:00,28.628624,77.241060,OZONE,10,81,12
India,Delhi,Delhi,"Mandir Marg, Delhi - DPCC",16-11-2025 07:00:00,28.636429,77.201067,PM2.5,273,476,380
India,Delhi,Delhi,"Mandir Marg, Delhi - DPCC",16-11-2025 07:00:00,28.636429,77.201067,NH3,15,47,24
India,Delhi,Delhi,"Mandir Marg, Delhi - DPCC",16-11-2025 07:00:00,28.636429,77.201067,SO2,13,96,79
India,Delhi,Delhi,"NSIT Dwarka, Delhi - CPCB",16-11-2025 07:00:00,28.60909,77.0325413,PM2.5,88,342,222
India,Delhi,Delhi,"NSIT Dwarka, Delhi - CPCB",16-11-2025 07:00:00,28.60909,77.0325413,SO2,14,14,14
India,Delhi,Delhi,"Najafgarh, Delhi - DPCC",16-11-2025 07:00:00,28.570173,76.933762,NO2,124,150,135
India,Delhi,Delhi,"Najafgarh, Delhi - DPCC",16-11-2025 07:00:00,28.570173,76.933762,NH3,8,10,9
India,Delhi,Delhi,"Najafgarh, Delhi - DPCC",16-11-2025 07:00:00,28.570173,76.933762,CO,54,94,82
India,Delhi,Delhi,"Chandni Chowk, Delhi - IITM",16-11-2025 07:00:00,28.656756,77.227234,NO2,9,45,23
India,Delhi,Delhi,"DTU, Delhi - CPCB",16-11-2025 07:00:00,28.7500499,77.1112615,PM2.5,305,500,430
India,Delhi,Delhi,"DTU, Delhi - CPCB",16-11-2025 07:00:00,28.7500499,77.1112615,NO2,58,94,70
India,Delhi,Delhi,"DTU, Delhi - CPCB",16-11-2025 07:00:00,28.7500499,77.1112615,NH3,6,14,9
India,Delhi,Delhi,"DTU, Delhi - CPCB",16-11-2025 07:00:00,28.7500499,77.1112615,OZONE,1,47,16
India,Delhi,Delhi,"Dr. Karni Singh Shooting Range, Delhi - DPCC",16-11-2025 07:00:00,28.498571,77.264840,PM10,191,418,342
India,Delhi,Delhi,"Dr. Karni Singh Shooting Range, Delhi - DPCC",16-11-2025 07:00:00,28.498571,77.264840,CO,39,102,72
India,Chhattisgarh,Raipur,"Bhatagaon New ISBT, Raipur - CECB",16-11-2025 07:00:00,21.219665,81.630094,OZONE,3,16,3
India,Chhattisgarh,Raipur,"Krishak Nagar, Raipur - CECB",16-11-2025 07:00:00,21.237755,81.705301,NO2,20,25,23
India,Chhattisgarh,Raipur,"Siltara Phase-II, Raipur - CECB",16-11-2025 07:00:00,21.371751,81.664929,SO2,3,10,5
India,Chhattisgarh,Raipur,"Siltara Phase-II, Raipur - CECB",16-11-2025 07:00:00,21.371751,81.664929,OZONE,3,43,3
India,Chhattisgarh,Tumidih,"OP Jindal Industrial Park, Tumidih - CECB",16-11-2025 07:00:00,22.06631475,83.33820077,NO2,NA,NA,NA
India,Chhattisgarh,Tumidih,"OP Jindal Industrial Park, Tumidih - CECB",16-11-2025 07:00:00,22.06631475,83.33820077,CO,NA,NA,NA
India,Delhi,Delhi,"Pusa, Delhi - DPCC",16-11-2025 07:00:00,28.639652,77.146275,PM2.5,311,424,375
India,Delhi,Delhi,"Pusa, Delhi - DPCC",16-11-2025 07:00:00,28.639652,77.146275,NH3,3,16,11
India,Delhi,Delhi,"Pusa, Delhi - IMD",16-11-2025 07:00:00,28.636110,77.173332,NO2,18,138,82
India,Delhi,Delhi,"Pusa, Delhi - IMD",16-11-2025 07:00:00,28.636110,77.173332,CO,14,124,85
India,Delhi,Delhi,"Pusa, Delhi - IMD",16-11-2025 07:00:00,28.636110,77.173332,OZONE,14,68,17
India,Delhi,Delhi,"R K Puram, Delhi - DPCC",16-11-2025 07:00:00,28.563262,77.186937,PM2.5,324,440,393
India,Delhi,Delhi,"R K Puram, Delhi - DPCC",16-11-2025 07:00:00,28.563262,77.186937,NH3,4,6,5
India,Delhi,Delhi,"R K Puram, Delhi - DPCC",16-11-2025 07:00:00,28.563262,77.186937,SO2,40,108,60
India,Delhi,Delhi,"Ashok Vihar, Delhi - DPCC",16-11-2025 07:00:00,28.695381,77.181665,PM2.5,290,500,422
India,Delhi,Delhi,"Ashok Vihar, Delhi - DPCC",16-11-2025 07:00:00,28.695381,77.181665,CO,12,108,92
India,Delhi,Delhi,"Bawana, Delhi - DPCC",16-11-2025 07:00:00,28.776200,77.051074,PM10,183,500,370
India,Delhi,Delhi,"Bawana, Delhi - DPCC",16-11-2025 07:00:00,28.776200,77.051074,SO2,10,30,16
India,Delhi,Delhi,"Bawana, Delhi - DPCC",16-11-2025 07:00:00,28.776200,77.051074,CO,48,104,99
India,Delhi,Delhi,"Bawana, Delhi - DPCC",16-11-2025 07:00:00,28.776200,77.051074,OZONE,5,193,7
India,Delhi,Delhi,"Burari Crossing, Delhi - IMD",16-11-2025 07:00:00,28.7256504,77.2011573,PM2.5,276,499,405
India,Delhi,Delhi,"Narela, Delhi - DPCC",16-11-2025 07:00:00,28.822836,77.101981,NO2,16,89,53
India,Delhi,Delhi,"Narela, Delhi - DPCC",16-11-2025 07:00:00,28.822836,77.101981,NH3,15,19,17
India,Delhi,Delhi,"Nehru Nagar, Delhi - DPCC",16-11-2025 07:00:00,28.567890,77.250515,SO2,11,42,28
India,Delhi,Delhi,"Nehru Nagar, Delhi - DPCC",16-11-2025 07:00:00,28.567890,77.250515,CO,102,140,123
India,Delhi,Delhi,"North Campus, DU, Delhi - IMD",16-11-2025 07:00:00,28.6573814,77.1585447,PM2.5,286,500,401
India,Delhi,Delhi,"Jahangirpuri, Delhi - DPCC",16-11-2025 07:00:00,28.732820,77.170633,OZONE,6,157,7
India,Delhi,Delhi,"Jawaharlal Nehru Stadium, Delhi - DPCC",16-11-2025 07:00:00,28.580280,77.233829,CO,48,120,107
India,Delhi,Delhi,"Jawaharlal Nehru Stadium, Delhi - DPCC",16-11-2025 07:00:00,28.580280,77.233829,OZONE,3,276,3
India,Delhi,Delhi,"Lodhi Road, Delhi - IMD",16-11-2025 07:00:00,28.5918245,77.2273074,PM2.5,300,427,362
India,Delhi,Delhi,"Major Dhyan Chand National Stadium, Delhi - DPCC",16-11-2025 07:00:00,28.611281,77.237738,PM2.5,293,442,370
India,Delhi,Delhi,"Major Dhyan Chand National Stadium, Delhi - DPCC",16-11-2025 07:00:00,28.611281,77.237738,PM10,206,415,318
India,Gujarat,Ahmedabad,"SAC ISRO Bopal, Ahmedabad - IITM",16-11-2025 07:00:00,23.041137,72.456691,OZONE,1,71,11
India,Gujarat,Ahmedabad,"SAC ISRO Satellite, Ahmedabad - IITM",16-11-2025 07:00:00,23.023389,72.515201,PM2.5,50,83,65
India,Gujarat,Ahmedabad,"SAC ISRO Satellite, Ahmedabad - IITM",16-11-2025 07:00:00,23.023389,72.515201,PM10,68,105,81
India,Gujarat,Ahmedabad,"SAC ISRO Satellite, Ahmedabad - IITM",16-11-2025 07:00:00,23.023389,72.515201,NO2,24,141,64
India,Gujarat,Ahmedabad,"SAC ISRO Satellite, Ahmedabad - IITM",16-11-2025 07:00:00,23.023389,72.515201,NH3,4,9,6
India,Gujarat,Ahmedabad,"SAC ISRO Satellite, Ahmedabad - IITM",16-11-2025 07:00:00,23.023389,72.515201,OZONE,4,58,17
India,Gujarat,Ahmedabad,"SVPI Airport Hansol, Ahmedabad - IITM",16-11-2025 07:00:00,23.076793,72.627874,PM2.5,51,126,75
India,Gujarat,Ahmedabad,"SVPI Airport Hansol, Ahmedabad - IITM",16-11-2025 07:00:00,23.076793,72.627874,PM10,114,239,155
India,Gujarat,Ahmedabad,"SVPI Airport Hansol, Ahmedabad - IITM",16-11-2025 07:00:00,23.076793,72.627874,NH3,4,6,5
India,Gujarat,Ahmedabad,"SVPI Airport Hansol, Ahmedabad - IITM",16-11-2025 07:00:00,23.076793,72.627874,CO,12,65,34
India,Gujarat,Gandhinagar,"GIFT City, Gandhinagar - IITM",16-11-2025 07:00:00,23.163798,72.677768,PM2.5,65,129,84
India,Gujarat,Gandhinagar,"GIFT City, Gandhinagar - IITM",16-11-2025 07:00:00,23.163798,72.677768,PM10,111,154,126
India,Gujarat,Gandhinagar,"GIFT City, Gandhinagar - IITM",16-11-2025 07:00:00,23.163798,72.677768,NH3,3,8,5
India,Gujarat,Gandhinagar,"GIFT City, Gandhinagar - IITM",16-11-2025 07:00:00,23.163798,72.677768,SO2,4,20,11
India,Haryana,Bahadurgarh,"Arya Nagar, Bahadurgarh - HSPCB",16-11-2025 07:00:00,28.6701,76.9254,NH3,12,13,13
India,Haryana,Bahadurgarh,"Arya Nagar, Bahadurgarh - HSPCB",16-11-2025 07:00:00,28.6701,76.9254,SO2,6,7,7
India,Haryana,Bahadurgarh,"Arya Nagar, Bahadurgarh - HSPCB",16-11-2025 07:00:00,28.6701,76.9254,CO,42,50,48
India,Haryana,Bhiwani,"H.B. Colony, Bhiwani - HSPCB",16-11-2025 07:00:00,28.806223,76.141105,OZONE,10,17,15
India,Haryana,Charkhi Dadri,"Mini Secretariat, Charkhi Dadri - HSPCB",16-11-2025 07:00:00,28.593883,76.270653,PM2.5,264,346,297
India,Haryana,Charkhi Dadri,"Mini Secretariat, Charkhi Dadri - HSPCB",16-11-2025 07:00:00,28.593883,76.270653,NO2,9,25,15
India,Haryana,Charkhi Dadri,"Mini Secretariat, Charkhi Dadri - HSPCB",16-11-2025 07:00:00,28.593883,76.270653,NH3,5,8,6
India,Haryana,Charkhi Dadri,"Mini Secretariat, Charkhi Dadri - HSPCB",16-11-2025 07:00:00,28.593883,76.270653,SO2,9,11,10
India,Haryana,Charkhi Dadri,"Mini Secretariat, Charkhi Dadri - HSPCB",16-11-2025 07:00:00,28.593883,76.270653,CO,8,25,15
India,Gujarat,Gandhinagar,"Sector-10, Gandhinagar - GPCB",16-11-2025 07:00:00,23.221714,72.654328,SO2,4,13,10
India,Gujarat,Surat,"Science Center, Surat - SMC",16-11-2025 07:00:00,21.170046,72.795405,PM2.5,51,232,127
India,Gujarat,Surat,"Science Center, Surat - SMC",16-11-2025 07:00:00,21.170046,72.795405,SO2,28,34,30
India,Gujarat,Vapi,"Phase-1 GIDC, Vapi - GPCB",16-11-2025 07:00:00,20.362421,72.918013,OZONE,2,2,2
India,Gujarat,Vatva,"Phase-4 GIDC, Vatva - GPCB",16-11-2025 07:00:00,22.969611,72.643500,PM10,40,432,112
India,Gujarat,Vatva,"Phase-4 GIDC, Vatva - GPCB",16-11-2025 07:00:00,22.969611,72.643500,OZONE,23,62,29
India,Haryana,Ambala,"Patti Mehar, Ambala - HSPCB",16-11-2025 07:00:00,30.379589,76.778328,PM10,126,218,172
India,Haryana,Fatehabad,"Huda Sector, Fatehabad - HSPCB",16-11-2025 07:00:00,29.503664,75.467934,OZONE,10,18,11
India,Haryana,Gurugram,"NISE Gwal Pahari, Gurugram - IMD",16-11-2025 07:00:00,28.422681,77.148944,PM10,229,424,329
India,Haryana,Gurugram,"Sector-51, Gurugram - HSPCB",16-11-2025 07:00:00,28.4227,77.0667,PM2.5,152,416,294
India,Haryana,Gurugram,"Sector-51, Gurugram - HSPCB",16-11-2025 07:00:00,28.4227,77.0667,PM10,135,443,229
India,Haryana,Gurugram,"Sector-51, Gurugram - HSPCB",16-11-2025 07:00:00,28.4227,77.0667,NO2,4,10,6
India,Haryana,Gurugram,"Sector-51, Gurugram - HSPCB",16-11-2025 07:00:00,28.4227,77.0667,SO2,15,31,24
India,Haryana,Gurugram,"Teri Gram, Gurugram - HSPCB",16-11-2025 07:00:00,28.4275,77.1465,SO2,NA,NA,NA
India,Delhi,Delhi,"Sri Aurobindo Marg, Delhi - DPCC",16-11-2025 07:00:00,28.531346,77.190156,SO2,2,15,10
India,Delhi,Delhi,"Vivek Vihar, Delhi - DPCC",16-11-2025 07:00:00,28.672342,77.315260,PM10,195,460,380
India,Delhi,Delhi,"Vivek Vihar, Delhi - DPCC",16-11-2025 07:00:00,28.672342,77.315260,NO2,33,144,89
India,Delhi,Delhi,"Vivek Vihar, Delhi - DPCC",16-11-2025 07:00:00,28.672342,77.315260,CO,36,129,87
India,Delhi,Delhi,"Wazirpur, Delhi - DPCC",16-11-2025 07:00:00,28.699793,77.165453,PM10,235,496,435
India,Gujarat,Ahmedabad,"Gyaspur, Ahmedabad - IITM",16-11-2025 07:00:00,22.977134,72.553024,PM2.5,75,212,126
India,Gujarat,Ahmedabad,"Maninagar, Ahmedabad - GPCB",16-11-2025 07:00:00,23.002657,72.591912,PM10,31,197,73
India,Gujarat,Ahmedabad,"Raikhad, Ahmedabad - IITM",16-11-2025 07:00:00,23.020509,72.579261,NO2,35,157,76
India,Gujarat,Ahmedabad,"Rakhial, Ahmedabad - IITM",16-11-2025 07:00:00,23.016834,72.625775,PM2.5,54,231,109
India,Gujarat,Ahmedabad,"Rakhial, Ahmedabad - IITM",16-11-2025 07:00:00,23.016834,72.625775,NH3,1,7,3
India,Gujarat,Ahmedabad,"Rakhial, Ahmedabad - IITM",16-11-2025 07:00:00,23.016834,72.625775,CO,2,104,50
India,Gujarat,Ahmedabad,"SAC ISRO Bopal, Ahmedabad - IITM",16-11-2025 07:00:00,23.041137,72.456691,PM10,82,198,130
India,Haryana,Hisar,"Urban Estate-II, Hisar - HSPCB",16-11-2025 07:00:00,29.140560,75.744941,OZONE,47,106,58
India,Haryana,Kaithal,"Rishi Nagar, Kaithal - HSPCB",16-11-2025 07:00:00,29.8006,76.4155,OZONE,11,26,15
India,Haryana,Karnal,"Sector-12, Karnal - HSPCB",16-11-2025 07:00:00,29.695300,77.002700,SO2,13,17,15
India,Haryana,Karnal,"Sector-12, Karnal - HSPCB",16-11-2025 07:00:00,29.695300,77.002700,CO,37,64,50
India,Haryana,Charkhi Dadri,"Mini Secretariat, Charkhi Dadri - HSPCB",16-11-2025 07:00:00,28.593883,76.270653,OZONE,12,17,15
India,Haryana,Faridabad,"Sector 30, Faridabad - HSPCB",16-11-2025 07:00:00,28.4417,77.3217,PM10,162,168,165
India,Delhi,Delhi,"Shadipur, Delhi - CPCB",16-11-2025 07:00:00,28.6514781,77.1473105,CO,44,120,98
India,Delhi,Delhi,"Sirifort, Delhi - CPCB",16-11-2025 07:00:00,28.5504249,77.2159377,PM10,227,500,369
India,Delhi,Delhi,"Sirifort, Delhi - CPCB",16-11-2025 07:00:00,28.5504249,77.2159377,CO,32,112,101
India,Karnataka,Davanagere,"Devaraj Urs Badavane, Davanagere - KSPCB",16-11-2025 07:00:00,14.475800,75.905200,OZONE,19,21,20
India,Karnataka,Dharwad,"Kalabhavan, Dharwad - KSPCB",16-11-2025 07:00:00,15.459706,75.008381,NO2,25,27,27
India,Karnataka,Dharwad,"Kalabhavan, Dharwad - KSPCB",16-11-2025 07:00:00,15.459706,75.008381,SO2,3,7,4
India,Karnataka,Hubballi,"Lingaraj Nagar, Hubballi - KSPCB",16-11-2025 07:00:00,15.3714823,75.1160168,SO2,1,3,1
India,Karnataka,Kalaburagi,"Lal Bahadur Shastri Nagar, Kalaburagi - KSPCB",16-11-2025 07:00:00,17.321993,76.822628,PM2.5,25,52,40
India,Karnataka,Kalaburagi,"Lal Bahadur Shastri Nagar, Kalaburagi - KSPCB",16-11-2025 07:00:00,17.321993,76.822628,NO2,12,12,12
India,Karnataka,Kalaburagi,"Lal Bahadur Shastri Nagar, Kalaburagi - KSPCB",16-11-2025 07:00:00,17.321993,76.822628,NH3,1,1,1
India,Karnataka,Kalaburagi,"Lal Bahadur Shastri Nagar, Kalaburagi - KSPCB",16-11-2025 07:00:00,17.321993,76.822628,CO,50,63,50
India,Karnataka,Kalaburagi,"Lal Bahadur Shastri Nagar, Kalaburagi - KSPCB",16-11-2025 07:00:00,17.321993,76.822628,OZONE,20,20,20
India,Haryana,Sonipat,"Murthal, Sonipat - HSPCB",16-11-2025 07:00:00,29.027200,77.062100,NO2,24,59,43
India,Haryana,Yamuna Nagar,"Gobind Pura, Yamuna Nagar - HSPCB",16-11-2025 07:00:00,30.1480566,77.2893471,NO2,11,13,11
India,Haryana,Yamuna Nagar,"Gobind Pura, Yamuna Nagar - HSPCB",16-11-2025 07:00:00,30.1480566,77.2893471,NH3,6,10,10
India,Haryana,Yamuna Nagar,"Gobind Pura, Yamuna Nagar - HSPCB",16-11-2025 07:00:00,30.1480566,77.2893471,OZONE,38,62,38
India,Jammu_and_Kashmir,Srinagar,"Rajbagh, Srinagar - JKSPCB",16-11-2025 07:00:00,34.066206,74.819820,OZONE,NA,NA,NA
India,Jharkhand,Dhanbad,"Sardar Patel Nagar, Dhanbad - JSPCB",16-11-2025 07:00:00,23.80569,86.44268,NO2,88,124,91
India,Karnataka,Bengaluru,"Jigani, Bengaluru - KSPCB",16-11-2025 07:00:00,12.7816279,77.6299145,CO,38,40,38
India,Karnataka,Bengaluru,"Kasturi Nagar, Bengaluru - KSPCB",16-11-2025 07:00:00,13.003872,77.664217,PM10,68,70,69
India,Karnataka,Bengaluru,"Kasturi Nagar, Bengaluru - KSPCB",16-11-2025 07:00:00,13.003872,77.664217,OZONE,20,21,20
India,Karnataka,Bengaluru,"Peenya, Bengaluru - CPCB",16-11-2025 07:00:00,13.0270199,77.494094,CO,24,56,29
India,Karnataka,Bengaluru,"Peenya, Bengaluru - CPCB",16-11-2025 07:00:00,13.0270199,77.494094,OZONE,22,23,22
India,Karnataka,Bengaluru,"RVCE-Mailasandra, Bengaluru - KSPCB",16-11-2025 07:00:00,12.921418,77.502466,NO2,29,29,29
India,Karnataka,Bengaluru,"Sanegurava Halli, Bengaluru - KSPCB",16-11-2025 07:00:00,12.990328,77.5431385,PM10,55,61,55
India,Karnataka,Bengaluru,"Silk Board, Bengaluru - KSPCB",16-11-2025 07:00:00,12.917348,77.622813,OZONE,12,13,13
India,Karnataka,Chamarajanagar,"Urban, Chamarajanagar - KSPCB",16-11-2025 07:00:00,11.55358,76.55521,PM10,36,59,50
