country,state,city,station,last_update,latitude,longitude,pollutant_id,min_value,max_value,avg_value
India,Andhra_Pradesh,Rajamahendravaram,"Anand Kala Kshetram, Rajamahendravaram - APPCB",17-12-2025 07:00:00,16.9872867,81.7363176,SO2,2,22,12
India,Andhra_Pradesh,Rajamahendravaram,"Anand Kala Kshetram, Rajamahendravaram - APPCB",17-12-2025 07:00:00,16.9872867,81.7363176,CO,34,70,53
India,Andhra_Pradesh,Tirumala,"Toll Gate, Tirumala - APPCB",17-12-2025 07:00:00,13.67,79.35,PM2.5,18,292,112
India,Andhra_Pradesh,Tirumala,"Toll Gate, Tirumala - APPCB",17-12-2025 07:00:00,13.67,79.35,PM10,20,120,63
India,Andhra_Pradesh,Tirumala,"Toll Gate, Tirumala - APPCB",17-12-2025 07:00:00,13.67,79.35,NH3,1,1,1
India,Andhra_Pradesh,Tirupati,"Vaikuntapuram, Tirupati - APPCB",17-12-2025 07:00:00,13.615387,79.409230,PM2.5,54,70,58
India,Andhra_Pradesh,Tirupati,"Vaikuntapuram, Tirupati - APPCB",17-12-2025 07:00:00,13.615387,79.409230,OZONE,16,26,20
India,Andhra_Pradesh,Vijayawada,"HB Colony, Vijayawada - APPCB",17-12-2025 07:00:00,16.536107,80.594233,NH3,3,3,3
India,Andhra_Pradesh,Vijayawada,"Kanuru, Vijayawada - APPCB",17-12-2025 07:00:00,16.486692,80.699436,OZONE,21,21,21
India,Andhra_Pradesh,Vijayawada,"Rajiv Gandhi Park, Vijayawada - APPCB",17-12-2025 07:00:00,16.509717,80.612222,PM2.5,73,98,88
India,Andhra_Pradesh,Vijayawada,"Rajiv Gandhi Park, Vijayawada - APPCB",17-12-2025 07:00:00,16.509717,80.612222,PM10,70,100,88
India,Andhra_Pradesh,Vijayawada,"Rajiv Gandhi Park, Vijayawada - APPCB",17-12-2025 07:00:00,16.509717,80.612222,NH3,5,8,7
India,Andhra_Pradesh,Vijayawada,"Rajiv Gandhi Park, Vijayawada - APPCB",17-12-2025 07:00:00,16.509717,80.612222,SO2,11,17,14
India,Andhra_Pradesh,Vijayawada,"Rajiv Nagar, Vijayawada - APPCB",17-12-2025 07:00:00,16.554731,80.649110,SO2,14,16,15
India,Andhra_Pradesh,Vijayawada,"Rajiv Nagar, Vijayawada - APPCB",17-12-2025 07:00:00,16.554731,80.649110,OZONE,79,127,90
India,Andhra_Pradesh,Visakhapatnam,"GVM Corporation, Visakhapatnam - APPCB",17-12-2025 07:00:00,17.72,83.3,PM2.5,132,313,208
India,Assam,Guwahati,"Railway Colony, Guwahati - PCBA",17-12-2025 07:00:00,26.181742,91.78063,PM10,52,303,146
India,Assam,Guwahati,"Railway Colony, Guwahati - PCBA",17-12-2025 07:00:00,26.181742,91.78063,NO2,2,4,3
India,Assam,Guwahati,"Railway Colony, Guwahati - PCBA",17-12-2025 07:00:00,26.181742,91.78063,SO2,34,36,35
India,Assam,Nagaon,"Christianpatty, Nagaon - PCBA",17-12-2025 07:00:00,26.349082,92.68449,SO2,10,15,13
India,Assam,Nalbari,"Bata Chowk, Nalbari - PCBA",17-12-2025 07:00:00,26.446912,91.439057,PM10,109,126,115
India,Assam,Nalbari,"Bata Chowk, Nalbari - PCBA",17-12-2025 07:00:00,26.446912,91.439057,NO2,14,15,14
India,Assam,Silchar,"Tarapur, Silchar - PCBA",17-12-2025 07:00:00,24.82827,92.79525,PM10,51,60,55
India,Arunachal_Pradesh,Naharlagun,"Naharlagun, Naharlagun - APSPCB",17-12-2025 07:00:00,27.103358,93.679645,PM2.5,40,500,200
India,Arunachal_Pradesh,Naharlagun,"Naharlagun, Naharlagun - APSPCB",17-12-2025 07:00:00,27.103358,93.679645,NO2,6,7,7
India,Assam,Byrnihat,"Central Academy for SFS, Byrnihat - PCBA",17-12-2025 07:00:00,26.071318,91.87488,PM2.5,100,332,164
India,Assam,Byrnihat,"Central Academy for SFS, Byrnihat - PCBA",17-12-2025 07:00:00,26.071318,91.87488,NO2,2,9,7
India,Assam,Guwahati,"LGBI Airport, Guwahati - PCBA",17-12-2025 07:00:00,26.10887,91.589544,PM10,NA,NA,NA
India,Assam,Guwahati,"LGBI Airport, Guwahati - PCBA",17-12-2025 07:00:00,26.10887,91.589544,NO2,2,31,15
India,Bihar,Chhapra,"Darshan Nagar, Chhapra - BSPCB",17-12-2025 07:00:00,25.7808257,84.7446768,PM10,59,147,103
India,Bihar,Chhapra,"Darshan Nagar, Chhapra - BSPCB",17-12-2025 07:00:00,25.7808257,84.7446768,CO,44,58,47
India,Bihar,Gaya,"Collectorate, Gaya - BSPCB",17-12-2025 07:00:00,24.7955,84.9994,PM2.5,96,305,162
India,Bihar,Gaya,"Kareemganj, Gaya - BSPCB",17-12-2025 07:00:00,24.792403,84.992416,NO2,3,8,5
India,Bihar,Gaya,"Kareemganj, Gaya - BSPCB",17-12-2025 07:00:00,24.792403,84.992416,NH3,4,6,5
India,Bihar,Gaya,"Kareemganj, Gaya - BSPCB",17-12-2025 07:00:00,24.792403,84.992416,SO2,14,18,15
India,Andhra_Pradesh,Chittoor,"Gangineni Cheruvu, Chittoor - APPCB",17-12-2025 07:00:00,13.204880,79.097889,NO2,26,39,37
India,Andhra_Pradesh,Chittoor,"Gangineni Cheruvu, Chittoor - APPCB",17-12-2025 07:00:00,13.204880,79.097889,CO,22,79,30
India,Andhra_Pradesh,Kadapa,"Yerramukkapalli, Kadapa - APPCB",17-12-2025 07:00:00,14.465052,78.824187,CO,28,50,39
India,Andhra_Pradesh,Rajamahendravaram,"Anand Kala Kshetram, Rajamahendravaram - APPCB",17-12-2025 07:00:00,16.9872867,81.7363176,PM2.5,138,295,201
India,Assam,Sivasagar,"Girls College, Sivasagar - PCBA",17-12-2025 07:00:00,26.987634,94.636574,PM2.5,35,94,66
India,Assam,Sivasagar,"Girls College, Sivasagar - PCBA",17-12-2025 07:00:00,26.987634,94.636574,SO2,9,14,12
India,Bihar,Araria,"Kharahiya Basti, Araria - BSPCB",17-12-2025 07:00:00,26.146529,87.454184,PM2.5,43,308,140
India,Bihar,Arrah,"New DM Office, Arrah - BSPCB",17-12-2025 07:00:00,25.5626095,84.663264,NO2,5,9,7
India,Bihar,Bihar Sharif,"D M Colony, Bihar Sharif - BSPCB",17-12-2025 07:00:00,25.204762,85.514960,NO2,9,10,9
India,Bihar,Buxar,"Charitra Van, Buxar - BSPCB",17-12-2025 07:00:00,25.567520,83.966379,PM2.5,100,200,154
India,Bihar,Buxar,"Charitra Van, Buxar - BSPCB",17-12-2025 07:00:00,25.567520,83.966379,NH3,3,3,3
India,Bihar,Buxar,"Charitra Van, Buxar - BSPCB",17-12-2025 07:00:00,25.567520,83.966379,SO2,8,20,14
India,Andhra_Pradesh,Amaravati,"Secretariat, Amaravati - APPCB",17-12-2025 07:00:00,16.5150833,80.5181667,NO2,23,109,50
India,Andhra_Pradesh,Amaravati,"Secretariat, Amaravati - APPCB",17-12-2025 07:00:00,16.5150833,80.5181667,NH3,1,4,3
India,Andhra_Pradesh,Anantapur,"Gulzarpet, Anantapur - APPCB",17-12-2025 07:00:00,14.675886,77.593027,OZONE,19,74,30
India,Bihar,Aurangabad,"Gurdeo Nagar, Aurangabad - BSPCB",17-12-2025 07:00:00,24.75746,84.366208,NH3,1,2,2
India,Bihar,Bettiah,"Kamalnath Nagar, Bettiah - BSPCB",17-12-2025 07:00:00,26.80365,84.51954,PM2.5,50,163,98
India,Bihar,Bettiah,"Kamalnath Nagar, Bettiah - BSPCB",17-12-2025 07:00:00,26.80365,84.51954,CO,68,116,97
India,Bihar,Siwan,"Chitragupta Nagar, Siwan - BSPCB",17-12-2025 07:00:00,26.2271665,84.3570427,CO,24,28,24
India,Chandigarh,Chandigarh,"Sector-25, Chandigarh - CPCC",17-12-2025 07:00:00,30.751462,76.762879,PM10,NA,NA,NA
India,Chandigarh,Chandigarh,"Sector-25, Chandigarh - CPCC",17-12-2025 07:00:00,30.751462,76.762879,SO2,NA,NA,NA
India,Chandigarh,Chandigarh,"Sector-25, Chandigarh - CPCC",17-12-2025 07:00:00,30.751462,76.762879,OZONE,3,76,5
India,Chandigarh,Chandigarh,"Sector-53, Chandigarh - CPCC",17-12-2025 07:00:00,30.719859,76.738637,PM10,74,148,107
India,Chandigarh,Chandigarh,"Sector-53, Chandigarh - CPCC",17-12-2025 07:00:00,30.719859,76.738637,NO2,26,94,50
India,Chandigarh,Chandigarh,"Sector-53, Chandigarh - CPCC",17-12-2025 07:00:00,30.719859,76.738637,NH3,8,13,11
India,Chandigarh,Chandigarh,"Sector-53, Chandigarh - CPCC",17-12-2025 07:00:00,30.719859,76.738637,SO2,7,13,11
India,Chhattisgarh,Bhilai,"32Bungalows, Bhilai - CECB",17-12-2025 07:00:00,21.194815,81.314770,SO2,5,61,14
India,Chhattisgarh,Bhilai,"32Bungalows, Bhilai - CECB",17-12-2025 07:00:00,21.194815,81.314770,OZONE,1,48,1
India,Bihar,Manguraha,"Forest Rest House, Manguraha - BSPCB",17-12-2025 07:00:00,27.308328,84.531742,NO2,3,6,4
India,Bihar,Motihari,"Gandak Colony, Motihari - BSPCB",17-12-2025 07:00:00,26.63086,84.90051,NH3,3,3,3
India,Bihar,Motihari,"Gandak Colony, Motihari - BSPCB",17-12-2025 07:00:00,26.63086,84.90051,SO2,2,3,2
India,Bihar,Motihari,"Gandak Colony, Motihari - BSPCB",17-12-2025 07:00:00,26.63086,84.90051,OZONE,3,6,3
India,Bihar,Munger,"Town Hall, Munger - BSPCB",17-12-2025 07:00:00,25.376776,86.471523,CO,18,64,37
India,Bihar,Muzaffarpur,"Buddha Colony, Muzaffarpur - BSPCB",17-12-2025 07:00:00,26.11442,85.39813,PM2.5,117,307,237
India,Bihar,Muzaffarpur,"Buddha Colony, Muzaffarpur - BSPCB",17-12-2025 07:00:00,26.11442,85.39813,NH3,8,17,13
India,Bihar,Muzaffarpur,"MIT-Daudpur Kothi, Muzaffarpur - BSPCB",17-12-2025 07:00:00,26.1403345,85.3650192,NO2,1,4,2
India,Chhattisgarh,Korba,"Rampur, Korba - CECB",17-12-2025 07:00:00,22.368195,82.746431,NH3,1,1,1
India,Chhattisgarh,Korba,"Urja Nagar, Korba - CECB",17-12-2025 07:00:00,22.348441,82.549611,CO,32,90,57
India,Chhattisgarh,Kunjemura,"OP Jindal School, Kunjemura - CECB",17-12-2025 07:00:00,22.126650,83.483212,PM10,38,105,81
India,Chhattisgarh,Kunjemura,"OP Jindal School, Kunjemura - CECB",17-12-2025 07:00:00,22.126650,83.483212,CO,40,78,58
India,Chhattisgarh,Kunjemura,"OP Jindal School, Kunjemura - CECB",17-12-2025 07:00:00,22.126650,83.483212,OZONE,2,84,2
India,Chhattisgarh,Milupara,"Govt. Higher Secondary School, Milupara - CECB",17-12-2025 07:00:00,22.1910172,83.5197009,PM2.5,88,219,165
India,Chhattisgarh,Bhilai,"Hathkhoj, Bhilai - CECB",17-12-2025 07:00:00,21.224231,81.408350,SO2,17,90,43
India,Chhattisgarh,Bhilai,"Hathkhoj, Bhilai - CECB",17-12-2025 07:00:00,21.224231,81.408350,OZONE,2,18,3
India,Chhattisgarh,Bilaspur,"Mangala, Bilaspur - NTPC",17-12-2025 07:00:00,22.08815,82.13737,PM10,97,203,132
India,Chhattisgarh,Chhal,"Nawapara SECL Colony, Chhal - CECB",17-12-2025 07:00:00,22.118125,83.140608,PM2.5,44,205,113
India,Chhattisgarh,Chhal,"Nawapara SECL Colony, Chhal - CECB",17-12-2025 07:00:00,22.118125,83.140608,PM10,39,240,98
India,Chhattisgarh,Chhal,"Nawapara SECL Colony, Chhal - CECB",17-12-2025 07:00:00,22.118125,83.140608,NO2,7,46,15
India,Bihar,Gaya,"SFTI Kusdihra, Gaya - BSPCB",17-12-2025 07:00:00,24.762518,84.982348,CO,24,51,45
India,Bihar,Hajipur,"Industrial Area, Hajipur - BSPCB",17-12-2025 07:00:00,25.697189,85.245900,NO2,27,67,46
India,Bihar,Hajipur,"Industrial Area, Hajipur - BSPCB",17-12-2025 07:00:00,25.697189,85.245900,NH3,3,13,7
India,Bihar,Hajipur,"Industrial Area, Hajipur - BSPCB",17-12-2025 07:00:00,25.697189,85.245900,SO2,7,12,9
India,Bihar,Kishanganj,"SDM Office_Khagra, Kishanganj - BSPCB",17-12-2025 07:00:00,26.0881305,87.93840336,PM2.5,32,50,42
India,Bihar,Kishanganj,"SDM Office_Khagra, Kishanganj - BSPCB",17-12-2025 07:00:00,26.0881305,87.93840336,NH3,3,3,3
India,Bihar,Muzaffarpur,"MIT-Daudpur Kothi, Muzaffarpur - BSPCB",17-12-2025 07:00:00,26.1403345,85.3650192,CO,40,66,54
India,Bihar,Patna,"Govt. High School Shikarpur, Patna - BSPCB",17-12-2025 07:00:00,25.592539,85.227158,NH3,4,5,5
India,Bihar,Patna,"IGSC Planetarium Complex, Patna - BSPCB",17-12-2025 07:00:00,25.610369,85.132568,NO2,NA,NA,NA
India,Bihar,Patna,"IGSC Planetarium Complex, Patna - BSPCB",17-12-2025 07:00:00,25.610369,85.132568,OZONE,NA,NA,NA
India,Bihar,Saharsa,"Police Line, Saharsa - BSPCB",17-12-2025 07:00:00,25.892357,86.590325,CO,38,45,42
India,Bihar,Saharsa,"Police Line, Saharsa - BSPCB",17-12-2025 07:00:00,25.892357,86.590325,OZONE,5,13,9
India,Bihar,Sasaram,"Dada Peer, Sasaram - BSPCB",17-12-2025 07:00:00,24.952822,84.002396,NO2,2,4,2
India,Bihar,Siwan,"Chitragupta Nagar, Siwan - BSPCB",17-12-2025 07:00:00,26.2271665,84.3570427,NO2,1,3,1
India,Bihar,Patna,"Samanpura, Patna - BSPCB",17-12-2025 07:00:00,25.596727,85.085624,NO2,NA,NA,NA
India,Bihar,Purnia,"Mariam Nagar, Purnia - BSPCB",17-12-2025 07:00:00,25.366336,87.117468,PM2.5,28,150,83
India,Bihar,Purnia,"Mariam Nagar, Purnia - BSPCB",17-12-2025 07:00:00,25.366336,87.117468,SO2,13,18,17
India,Chhattisgarh,Raipur,"Bhatagaon New ISBT, Raipur - CECB",17-12-2025 07:00:00,21.219665,81.630094,CO,52,120,105
India,Chhattisgarh,Raipur,"Bhatagaon New ISBT, Raipur - CECB",17-12-2025 07:00:00,21.219665,81.630094,OZONE,3,12,3
India,Delhi,Delhi,"Dwarka-Sector 8, Delhi - DPCC ",17-12-2025 07:00:00,28.5710274,77.0719006,NH3,15,32,22
India,Delhi,Delhi,"Dwarka-Sector 8, Delhi - DPCC ",17-12-2025 07:00:00,28.5710274,77.0719006,SO2,24,48,30
India,Delhi,Delhi,"Dwarka-Sector 8, Delhi - DPCC ",17-12-2025 07:00:00,28.5710274,77.0719006,CO,18,105,43
India,Delhi,Delhi,"IGI Airport (T3), Delhi - IMD",17-12-2025 07:00:00,28.5627763,77.1180053,NO2,50,112,80
India,Delhi,Delhi,"IGI Airport (T3), Delhi - IMD",17-12-2025 07:00:00,28.5627763,77.1180053,CO,31,62,48
India,Delhi,Delhi,"IGI Airport (T3), Delhi - IMD",17-12-2025 07:00:00,28.5627763,77.1180053,OZONE,6,64,12
India,Delhi,Delhi,"IHBAS, Dilshad Garden, Delhi - CPCB",17-12-2025 07:00:00,28.6811736,77.3025234,PM2.5,83,338,247
India,Delhi,Delhi,"IHBAS, Dilshad Garden, Delhi - CPCB",17-12-2025 07:00:00,28.6811736,77.3025234,PM10,170,229,206
India,Delhi,Delhi,"IHBAS, Dilshad Garden, Delhi - CPCB",17-12-2025 07:00:00,28.6811736,77.3025234,NO2,21,121,86
India,Delhi,Delhi,"IHBAS, Dilshad Garden, Delhi - CPCB",17-12-2025 07:00:00,28.6811736,77.3025234,CO,32,58,45
India,Delhi,Delhi,"Alipur, Delhi - DPCC",17-12-2025 07:00:00,28.815329,77.153010,CO,42,78,66
India,Delhi,Delhi,"Anand Vihar, Delhi - DPCC",17-12-2025 07:00:00,28.647622,77.3158090,NH3,13,17,15
India,Delhi,Delhi,"Anand Vihar, Delhi - DPCC",17-12-2025 07:00:00,28.647622,77.3158090,CO,78,115,103
India,Delhi,Delhi,"Anand Vihar, Delhi - DPCC",17-12-2025 07:00:00,28.647622,77.3158090,OZONE,7,21,14
India,Delhi,Delhi,"Ashok Vihar, Delhi - DPCC",17-12-2025 07:00:00,28.695381,77.181665,OZONE,11,88,31
India,Delhi,Delhi,"Aya Nagar, Delhi - IMD",17-12-2025 07:00:00,28.4706914,77.1099364,NO2,1,37,14
India,Delhi,Delhi,"Aya Nagar, Delhi - IMD",17-12-2025 07:00:00,28.4706914,77.1099364,CO,24,53,42
India,Delhi,Delhi,"Bawana, Delhi - DPCC",17-12-2025 07:00:00,28.776200,77.051074,PM10,153,405,263
India,Delhi,Delhi,"North Campus, DU, Delhi - IMD",17-12-2025 07:00:00,28.6573814,77.1585447,OZONE,18,180,42
India,Delhi,Delhi,"Okhla Phase-2, Delhi - DPCC",17-12-2025 07:00:00,28.530785,77.271255,NH3,19,27,22
India,Delhi,Delhi,"Okhla Phase-2, Delhi - DPCC",17-12-2025 07:00:00,28.530785,77.271255,SO2,8,25,13
India,Delhi,Delhi,"Patparganj, Delhi - DPCC",17-12-2025 07:00:00,28.623763,77.287209,NO2,28,146,83
India,Delhi,Delhi,"Patparganj, Delhi - DPCC",17-12-2025 07:00:00,28.623763,77.287209,NH3,12,16,14
India,Delhi,Delhi,"Patparganj, Delhi - DPCC",17-12-2025 07:00:00,28.623763,77.287209,OZONE,2,121,18
India,Delhi,Delhi,"Punjabi Bagh, Delhi - DPCC",17-12-2025 07:00:00,28.674045,77.131023,PM10,125,341,244
India,Delhi,Delhi,"Najafgarh, Delhi - DPCC",17-12-2025 07:00:00,28.570173,76.933762,NO2,89,118,106
India,Delhi,Delhi,"Narela, Delhi - DPCC",17-12-2025 07:00:00,28.822836,77.101981,NH3,8,11,9
India,Delhi,Delhi,"Nehru Nagar, Delhi - DPCC",17-12-2025 07:00:00,28.567890,77.250515,PM10,167,412,253
India,Delhi,Delhi,"Nehru Nagar, Delhi - DPCC",17-12-2025 07:00:00,28.567890,77.250515,NO2,29,137,63
India,Delhi,Delhi,"Nehru Nagar, Delhi - DPCC",17-12-2025 07:00:00,28.567890,77.250515,SO2,3,36,12
India,Delhi,Delhi,"North Campus, DU, Delhi - IMD",17-12-2025 07:00:00,28.6573814,77.1585447,PM2.5,169,384,319
India,Chhattisgarh,Raipur,"Siltara Phase-II, Raipur - CECB",17-12-2025 07:00:00,21.371751,81.664929,NO2,10,65,29
India,Chhattisgarh,Raipur,"Siltara Phase-II, Raipur - CECB",17-12-2025 07:00:00,21.371751,81.664929,OZONE,3,3,3
India,Chhattisgarh,Tumidih,"OP Jindal Industrial Park, Tumidih - CECB",17-12-2025 07:00:00,22.06631475,83.33820077,PM2.5,55,175,127
India,Delhi,Delhi,"Alipur, Delhi - DPCC",17-12-2025 07:00:00,28.815329,77.153010,NO2,32,85,50
India,Delhi,Delhi,"Pusa, Delhi - DPCC",17-12-2025 07:00:00,28.639652,77.146275,NH3,9,25,19
India,Delhi,Delhi,"Pusa, Delhi - IMD",17-12-2025 07:00:00,28.636110,77.173332,OZONE,NA,NA,NA
India,Delhi,Delhi,"Rohini, Delhi - DPCC",17-12-2025 07:00:00,28.732528,77.119920,NH3,16,23,18
India,Delhi,Delhi,"Shadipur, Delhi - CPCB",17-12-2025 07:00:00,28.6514781,77.1473105,PM10,168,411,246
India,Delhi,Delhi,"Shadipur, Delhi - CPCB",17-12-2025 07:00:00,28.6514781,77.1473105,NH3,12,15,13
India,Delhi,Delhi,"ITO, Delhi - CPCB",17-12-2025 07:00:00,28.628624,77.241060,NO2,43,116,77
India,Delhi,Delhi,"Jahangirpuri, Delhi - DPCC",17-12-2025 07:00:00,28.732820,77.170633,NO2,98,156,121
India,Delhi,Delhi,"Jawaharlal Nehru Stadium, Delhi - DPCC",17-12-2025 07:00:00,28.580280,77.233829,PM10,170,344,249
India,Delhi,Delhi,"Lodhi Road, Delhi - IITM",17-12-2025 07:00:00,28.588333,77.221667,NO2,14,139,56
India,Delhi,Delhi,"Major Dhyan Chand National Stadium, Delhi - DPCC",17-12-2025 07:00:00,28.611281,77.237738,NH3,21,24,22
India,Delhi,Delhi,"Major Dhyan Chand National Stadium, Delhi - DPCC",17-12-2025 07:00:00,28.611281,77.237738,OZONE,2,124,23
India,Delhi,Delhi,"Mandir Marg, Delhi - DPCC",17-12-2025 07:00:00,28.636429,77.201067,NH3,6,9,8
India,Delhi,Delhi,"CRRI Mathura Road, Delhi - IMD",17-12-2025 07:00:00,28.5512005,77.2735737,PM2.5,165,357,297
India,Delhi,Delhi,"DTU, Delhi - CPCB",17-12-2025 07:00:00,28.7500499,77.1112615,NH3,8,15,11
India,Delhi,Delhi,"DTU, Delhi - CPCB",17-12-2025 07:00:00,28.7500499,77.1112615,SO2,25,32,27
India,Haryana,Dharuhera,"Municipal Corporation Office, Dharuhera -  HSPCB",17-12-2025 07:00:00,28.206800,76.799700,SO2,4,9,6
India,Haryana,Faridabad,"New Industrial Town, Faridabad - HSPCB",17-12-2025 07:00:00,28.39072,77.30059,NO2,24,26,25
India,Haryana,Faridabad,"New Industrial Town, Faridabad - HSPCB",17-12-2025 07:00:00,28.39072,77.30059,SO2,8,8,8
India,Haryana,Faridabad,"Sector 11, Faridabad - HSPCB",17-12-2025 07:00:00,28.376058,77.315741,PM2.5,86,338,221
India,Haryana,Faridabad,"Sector 30, Faridabad - HSPCB",17-12-2025 07:00:00,28.4417,77.3217,PM2.5,76,172,135
India,Haryana,Faridabad,"Sector 30, Faridabad - HSPCB",17-12-2025 07:00:00,28.4417,77.3217,NO2,36,39,38
India,Haryana,Faridabad,"Sector 30, Faridabad - HSPCB",17-12-2025 07:00:00,28.4417,77.3217,NH3,10,12,11
India,Haryana,Faridabad,"Sector 30, Faridabad - HSPCB",17-12-2025 07:00:00,28.4417,77.3217,SO2,6,7,6
India,Haryana,Fatehabad,"Huda Sector, Fatehabad - HSPCB",17-12-2025 07:00:00,29.503664,75.467934,NH3,13,15,14
India,Haryana,Ballabgarh,"Nathu Colony, Ballabgarh - HSPCB",17-12-2025 07:00:00,28.3419248,77.319699,PM2.5,226,330,300
India,Haryana,Ballabgarh,"Nathu Colony, Ballabgarh - HSPCB",17-12-2025 07:00:00,28.3419248,77.319699,PM10,173,291,237
India,Haryana,Ballabgarh,"Nathu Colony, Ballabgarh - HSPCB",17-12-2025 07:00:00,28.3419248,77.319699,NO2,19,21,20
India,Haryana,Ballabgarh,"Nathu Colony, Ballabgarh - HSPCB",17-12-2025 07:00:00,28.3419248,77.319699,NH3,3,3,3
India,Haryana,Bhiwani,"H.B. Colony, Bhiwani - HSPCB",17-12-2025 07:00:00,28.806223,76.141105,PM2.5,106,361,137
India,Haryana,Charkhi Dadri,"Mini Secretariat, Charkhi Dadri - HSPCB",17-12-2025 07:00:00,28.593883,76.270653,SO2,9,11,10
India,Haryana,Dharuhera,"Municipal Corporation Office, Dharuhera -  HSPCB",17-12-2025 07:00:00,28.206800,76.799700,NO2,14,51,38
India,Haryana,Gurugram,"Sector-51, Gurugram - HSPCB",17-12-2025 07:00:00,28.4227,77.0667,PM10,147,252,182
India,Haryana,Gurugram,"Sector-51, Gurugram - HSPCB",17-12-2025 07:00:00,28.4227,77.0667,OZONE,10,46,12
India,Haryana,Gurugram,"Teri Gram, Gurugram - HSPCB",17-12-2025 07:00:00,28.4275,77.1465,SO2,6,28,14
India,Haryana,Gurugram,"Teri Gram, Gurugram - HSPCB",17-12-2025 07:00:00,28.4275,77.1465,OZONE,10,44,12
India,Haryana,Gurugram,"Vikas Sadan, Gurugram - HSPCB",17-12-2025 07:00:00,28.4501238,77.0263051,SO2,1,8,3
India,Haryana,Gurugram,"Vikas Sadan, Gurugram - HSPCB",17-12-2025 07:00:00,28.4501238,77.0263051,CO,38,128,64
India,Haryana,Gurugram,"Vikas Sadan, Gurugram - HSPCB",17-12-2025 07:00:00,28.4501238,77.0263051,OZONE,3,40,6
India,Haryana,Hisar,"Urban Estate-II, Hisar - HSPCB",17-12-2025 07:00:00,29.140560,75.744941,PM2.5,46,73,62
India,Gujarat,Ankleshwar,"GIDC, Ankleshwar - GPCB",17-12-2025 07:00:00,21.613267,73.010555,PM2.5,81,257,153
India,Gujarat,Ankleshwar,"GIDC, Ankleshwar - GPCB",17-12-2025 07:00:00,21.613267,73.010555,PM10,102,226,146
India,Gujarat,Ankleshwar,"GIDC, Ankleshwar - GPCB",17-12-2025 07:00:00,21.613267,73.010555,NO2,27,33,32
India,Gujarat,Gandhinagar,"IIPHG Lekawada, Gandhinagar - IITM",17-12-2025 07:00:00,23.243639,72.68994,PM10,79,136,107
India,Gujarat,Gandhinagar,"IIPHG Lekawada, Gandhinagar - IITM",17-12-2025 07:00:00,23.243639,72.68994,SO2,4,11,6
India,Gujarat,Gandhinagar,"IIPHG Lekawada, Gandhinagar - IITM",17-12-2025 07:00:00,23.243639,72.68994,CO,23,88,45
India,Gujarat,Gandhinagar,"Sector-10, Gandhinagar - GPCB",17-12-2025 07:00:00,23.221714,72.654328,NH3,2,3,3
India,Gujarat,Gandhinagar,"Sector-10, Gandhinagar - GPCB",17-12-2025 07:00:00,23.221714,72.654328,OZONE,17,77,35
India,Delhi,Delhi,"Sirifort, Delhi - CPCB",17-12-2025 07:00:00,28.5504249,77.2159377,SO2,23,33,31
India,Delhi,Delhi,"Sonia Vihar, Delhi - DPCC",17-12-2025 07:00:00,28.710508,77.249485,PM2.5,237,407,345
India,Delhi,Delhi,"Sonia Vihar, Delhi - DPCC",17-12-2025 07:00:00,28.710508,77.249485,CO,49,111,98
India,Delhi,Delhi,"Sri Aurobindo Marg, Delhi - DPCC",17-12-2025 07:00:00,28.531346,77.190156,PM10,146,261,184
India,Delhi,Delhi,"Sri Aurobindo Marg, Delhi - DPCC",17-12-2025 07:00:00,28.531346,77.190156,NO2,23,84,49
India,Delhi,Delhi,"Sri Aurobindo Marg, Delhi - DPCC",17-12-2025 07:00:00,28.531346,77.190156,NH3,7,10,8
India,Gujarat,Surat,"Science Center, Surat - SMC",17-12-2025 07:00:00,21.170046,72.795405,NO2,1,15,8
India,Haryana,Ambala,"Patti Mehar, Ambala - HSPCB",17-12-2025 07:00:00,30.379589,76.778328,NH3,9,11,10
India,Haryana,Ambala,"Patti Mehar, Ambala - HSPCB",17-12-2025 07:00:00,30.379589,76.778328,CO,74,100,75
India,Haryana,Ambala,"Patti Mehar, Ambala - HSPCB",17-12-2025 07:00:00,30.379589,76.778328,OZONE,47,51,50
India,Haryana,Bahadurgarh,"Arya Nagar, Bahadurgarh - HSPCB",17-12-2025 07:00:00,28.6701,76.9254,PM2.5,70,464,314
India,Gujarat,Ahmedabad,"Rakhial, Ahmedabad - IITM",17-12-2025 07:00:00,23.016834,72.625775,PM2.5,76,115,87
India,Gujarat,Ahmedabad,"Rakhial, Ahmedabad - IITM",17-12-2025 07:00:00,23.016834,72.625775,CO,2,39,10
India,Gujarat,Ahmedabad,"SAC ISRO Bopal, Ahmedabad - IITM",17-12-2025 07:00:00,23.041137,72.456691,OZONE,11,58,18
India,Gujarat,Ahmedabad,"SAC ISRO Satellite, Ahmedabad - IITM",17-12-2025 07:00:00,23.023389,72.515201,PM2.5,49,121,67
India,Gujarat,Ahmedabad,"SVPI Airport Hansol, Ahmedabad - IITM",17-12-2025 07:00:00,23.076793,72.627874,PM2.5,53,69,62
India,Delhi,Delhi,"Wazirpur, Delhi - DPCC",17-12-2025 07:00:00,28.699793,77.165453,CO,33,94,60
India,Gujarat,Ahmedabad,"Chandkheda, Ahmedabad - IITM",17-12-2025 07:00:00,23.107969,72.574648,CO,24,62,30
India,Gujarat,Ahmedabad,"Gyaspur, Ahmedabad - IITM",17-12-2025 07:00:00,22.977134,72.553024,PM10,131,199,167
India,Gujarat,Ahmedabad,"Maninagar, Ahmedabad - GPCB",17-12-2025 07:00:00,23.002657,72.591912,SO2,41,53,47
India,Karnataka,Bengaluru,"Peenya, Bengaluru - CPCB",17-12-2025 07:00:00,13.0270199,77.494094,OZONE,23,24,24
India,Karnataka,Bengaluru,"RVCE-Mailasandra, Bengaluru - KSPCB",17-12-2025 07:00:00,12.921418,77.502466,SO2,5,6,6
India,Karnataka,Bengaluru,"RVCE-Mailasandra, Bengaluru - KSPCB",17-12-2025 07:00:00,12.921418,77.502466,CO,22,51,26
India,Karnataka,Bengaluru,"Shivapura_Peenya, Bengaluru - KSPCB",17-12-2025 07:00:00,13.0246342,77.5080115,PM10,95,140,115
India,Karnataka,Bengaluru,"Shivapura_Peenya, Bengaluru - KSPCB",17-12-2025 07:00:00,13.0246342,77.5080115,NO2,31,33,32
India,Karnataka,Bengaluru,"Shivapura_Peenya, Bengaluru - KSPCB",17-12-2025 07:00:00,13.0246342,77.5080115,NH3,4,4,4
India,Karnataka,Bengaluru,"Shivapura_Peenya, Bengaluru - KSPCB",17-12-2025 07:00:00,13.0246342,77.5080115,CO,49,64,53
India,Karnataka,Bengaluru,"Shivapura_Peenya, Bengaluru - KSPCB",17-12-2025 07:00:00,13.0246342,77.5080115,OZONE,19,20,20
India,Karnataka,Bengaluru,"Silk Board, Bengaluru - KSPCB",17-12-2025 07:00:00,12.917348,77.622813,NO2,14,20,17
India,Haryana,Sonipat,"Murthal, Sonipat - HSPCB",17-12-2025 07:00:00,29.027200,77.062100,PM2.5,124,400,285
India,Haryana,Sonipat,"Murthal, Sonipat - HSPCB",17-12-2025 07:00:00,29.027200,77.062100,CO,18,42,31
India,Himachal Pradesh,Baddi,"HIMUDA Complex Phase-1, Baddi - HPPCB",17-12-2025 07:00:00,30.943887,76.801991,PM2.5,63,355,270
India,Himachal Pradesh,Baddi,"HIMUDA Complex Phase-1, Baddi - HPPCB",17-12-2025 07:00:00,30.943887,76.801991,NH3,6,9,8
India,Himachal Pradesh,Baddi,"HIMUDA Complex Phase-1, Baddi - HPPCB",17-12-2025 07:00:00,30.943887,76.801991,SO2,28,103,49
India,Jammu_and_Kashmir,Srinagar,"Khunmoh, Srinagar - JKPCC",17-12-2025 07:00:00,34.06313,74.96017,PM2.5,NA,NA,NA
India,Jammu_and_Kashmir,Srinagar,"Khunmoh, Srinagar - JKPCC",17-12-2025 07:00:00,34.06313,74.96017,PM10,NA,NA,NA
India,Karnataka,Bengaluru,"BWSSB Kadabesanahalli, Bengaluru - CPCB",17-12-2025 07:00:00,12.9352049,77.6814488,PM2.5,19,313,195
India,Karnataka,Bengaluru,"BWSSB Kadabesanahalli, Bengaluru - CPCB",17-12-2025 07:00:00,12.9352049,77.6814488,NH3,1,1,1
India,Karnataka,Bengaluru,"City Railway Station, Bengaluru - KSPCB",17-12-2025 07:00:00,12.9756843,77.5660749,PM10,84,88,87
India,Karnataka,Bengaluru,"City Railway Station, Bengaluru - KSPCB",17-12-2025 07:00:00,12.9756843,77.5660749,SO2,14,21,20
India,Karnataka,Bengaluru,"Hombegowda Nagar, Bengaluru - KSPCB",17-12-2025 07:00:00,12.938539,77.590100,NO2,9,36,20
India,Karnataka,Bengaluru,"Jayanagar 5th Block, Bengaluru - KSPCB",17-12-2025 07:00:00,12.920984,77.584908,NO2,6,23,15
India,Karnataka,Bengaluru,"Jayanagar 5th Block, Bengaluru - KSPCB",17-12-2025 07:00:00,12.920984,77.584908,NH3,1,2,1
India,Haryana,Panchgaon,"Amity University, Panchgaon - IITM",17-12-2025 07:00:00,28.3153,76.9143,PM2.5,16,439,148
India,Haryana,Panchgaon,"Amity University, Panchgaon - IITM",17-12-2025 07:00:00,28.3153,76.9143,NO2,5,28,16
India,Haryana,Panchkula,"Sector-6, Panchkula - HSPCB ",17-12-2025 07:00:00,30.7057778,76.8531805555555,PM2.5,135,397,286
India,Haryana,Panipat,"Sector-18, Panipat - HSPCB",17-12-2025 07:00:00,29.432304,76.972765,NO2,NA,NA,NA
India,Haryana,Sirsa,"F-Block, Sirsa - HSPCB",17-12-2025 07:00:00,29.536400,75.015800,PM2.5,20,74,41
India,Jammu_and_Kashmir,Srinagar,"Rajbagh, Srinagar - JKSPCB",17-12-2025 07:00:00,34.066206,74.819820,SO2,3,4,3
India,Jammu_and_Kashmir,Srinagar,"Rajbagh, Srinagar - JKSPCB",17-12-2025 07:00:00,34.066206,74.819820,CO,12,113,21
India,Jharkhand,Dhanbad,"Sardar Patel Nagar, Dhanbad - JSPCB",17-12-2025 07:00:00,23.80569,86.44268,NO2,61,75,62
India,Jharkhand,Dhanbad,"Sardar Patel Nagar, Dhanbad - JSPCB",17-12-2025 07:00:00,23.80569,86.44268,CO,11,58,23
India,Karnataka,Belgaum,"Ramteerth Nagar, Belgaum - KSPCB",17-12-2025 07:00:00,15.888653,74.541751,NO2,24,116,50
India,Karnataka,Bengaluru,"Jigani, Bengaluru - KSPCB",17-12-2025 07:00:00,12.7816279,77.6299145,SO2,17,21,20
India,Karnataka,Bengaluru,"Jigani, Bengaluru - KSPCB",17-12-2025 07:00:00,12.7816279,77.6299145,CO,27,43,28
India,Karnataka,Bengaluru,"Jigani, Bengaluru - KSPCB",17-12-2025 07:00:00,12.7816279,77.6299145,OZONE,22,26,25
India,Karnataka,Bengaluru,"Kasturi Nagar, Bengaluru - KSPCB",17-12-2025 07:00:00,13.003872,77.664217,PM10,68,81,77
India,Karnataka,Bengaluru,"Kasturi Nagar, Bengaluru - KSPCB",17-12-2025 07:00:00,13.003872,77.664217,NH3,1,1,1
India,Karnataka,Bengaluru,"Peenya, Bengaluru - CPCB",17-12-2025 07:00:00,13.0270199,77.494094,NH3,3,4,4
India,Haryana,Hisar,"Urban Estate-II, Hisar - HSPCB",17-12-2025 07:00:00,29.140560,75.744941,NH3,7,8,8
India,Haryana,Hisar,"Urban Estate-II, Hisar - HSPCB",17-12-2025 07:00:00,29.140560,75.744941,OZONE,44,102,54
India,Haryana,Kaithal,"Rishi Nagar, Kaithal - HSPCB",17-12-2025 07:00:00,29.8006,76.4155,PM10,NA,NA,NA
India,Haryana,Karnal,"Sector-12, Karnal - HSPCB",17-12-2025 07:00:00,29.695300,77.002700,PM10,41,500,137
India,Karnataka,Chikkamagaluru,"Kalyana Nagara, Chikkamagaluru - KSPCB",17-12-2025 07:00:00,13.328028,75.797056,PM10,24,50,39
India,Karnataka,Chikkamagaluru,"Kalyana Nagara, Chikkamagaluru - KSPCB",17-12-2025 07:00:00,13.328028,75.797056,NH3,2,3,3
India,Karnataka,Davanagere,"Devaraj Urs Badavane, Davanagere - KSPCB",17-12-2025 07:00:00,14.475800,75.905200,CO,43,62,46
India,Haryana,Narnaul,"Shastri Nagar, Narnaul - HSPCB",17-12-2025 07:00:00,28.060249,76.113115,OZONE,16,81,18
India,Haryana,Palwal,"Shyam Nagar, Palwal - HSPCB",17-12-2025 07:00:00,28.1485564,77.3320667,PM2.5,84,167,118
India,Haryana,Palwal,"Shyam Nagar, Palwal - HSPCB",17-12-2025 07:00:00,28.1485564,77.3320667,PM10,97,135,116
India,Karnataka,Hubballi,"Lingaraj Nagar, Hubballi - KSPCB",17-12-2025 07:00:00,15.3714823,75.1160168,NH3,1,2,1
India,Karnataka,Hubballi,"Lingaraj Nagar, Hubballi - KSPCB",17-12-2025 07:00:00,15.3714823,75.1160168,CO,6,30,22
India,Karnataka,Kalaburagi,"Mahatma Basaveswar Colony, Kalaburgi - KSPCB",17-12-2025 07:00:00,17.336318,76.847397,PM2.5,20,60,43
India,Karnataka,Kalaburagi,"Mahatma Basaveswar Colony, Kalaburgi - KSPCB",17-12-2025 07:00:00,17.336318,76.847397,CO,37,98,55
India,Karnataka,Koppal,"Diwator Nagar, Koppal - KSPCB",17-12-2025 07:00:00,15.347630,76.181767,SO2,18,29,22
India,Karnataka,Koppal,"Diwator Nagar, Koppal - KSPCB",17-12-2025 07:00:00,15.347630,76.181767,CO,24,35,27
India,Karnataka,Mangalore,"Kadri, Mangalore - KSPCB",17-12-2025 07:00:00,12.889250,74.853000,PM10,27,102,64
India,Karnataka,Mangalore,"Kadri, Mangalore - KSPCB",17-12-2025 07:00:00,12.889250,74.853000,NH3,1,2,2
India,Karnataka,Mangalore,"Kadri, Mangalore - KSPCB",17-12-2025 07:00:00,12.889250,74.853000,OZONE,4,44,30
India,Madhya Pradesh,Jabalpur,"Suhagi, Jabalpur - JMC",17-12-2025 07:00:00,23.218135,79.957770,SO2,6,8,7
India,Madhya Pradesh,Jabalpur,"Suhagi, Jabalpur - JMC",17-12-2025 07:00:00,23.218135,79.957770,OZONE,24,24,24
India,Madhya Pradesh,Katni,"Gole Bazar, Katni - MPPCB",17-12-2025 07:00:00,23.50016,80.23284,CO,22,108,73
India,Madhya Pradesh,Katni,"Gole Bazar, Katni - MPPCB",17-12-2025 07:00:00,23.50016,80.23284,OZONE,11,89,13
India,Madhya Pradesh,Maihar,"Sahilara, Maihar - KJS Cements",17-12-2025 07:00:00,24.2613009,80.7231783,SO2,17,17,17
India,Madhya Pradesh,Jabalpur,"Govindh Bhavan Colony, Jabalpur - JMC",17-12-2025 07:00:00,23.163174,79.973061,CO,42,74,55
India,Madhya Pradesh,Jabalpur,"Gupteshwar, Jabalpur - JMC",17-12-2025 07:00:00,23.142888,79.916147,PM2.5,57,206,101
India,Madhya Pradesh,Jabalpur,"Gupteshwar, Jabalpur - JMC",17-12-2025 07:00:00,23.142888,79.916147,NO2,19,114,45
India,Madhya Pradesh,Jabalpur,"Marhatal, Jabalpur - MPPCB",17-12-2025 07:00:00,23.168606,79.932247,PM2.5,83,369,206
India,Madhya Pradesh,Jabalpur,"Marhatal, Jabalpur - MPPCB",17-12-2025 07:00:00,23.168606,79.932247,SO2,3,24,11
India,Madhya Pradesh,Dewas,"Bhopal Chauraha, Dewas - MPPCB",17-12-2025 07:00:00,22.9682591,76.064118,PM2.5,49,209,109
India,Madhya Pradesh,Dewas,"Bhopal Chauraha, Dewas - MPPCB",17-12-2025 07:00:00,22.9682591,76.064118,SO2,46,55,50
India,Madhya Pradesh,Dewas,"Bhopal Chauraha, Dewas - MPPCB",17-12-2025 07:00:00,22.9682591,76.064118,CO,14,38,19
India,Madhya Pradesh,Dewas,"Bhopal Chauraha, Dewas - MPPCB",17-12-2025 07:00:00,22.9682591,76.064118,OZONE,24,26,24
India,Madhya Pradesh,Gwalior,"City Center, Gwalior - MPPCB",17-12-2025 07:00:00,26.203442,78.193251,OZONE,NA,NA,NA
India,Kerala,Thiruvananthapuram,"Kariavattom, Thiruvananthapuram - Kerala PCB",17-12-2025 07:00:00,8.563700,76.886500,NH3,NA,NA,NA
India,Kerala,Thiruvananthapuram,"Kariavattom, Thiruvananthapuram - Kerala PCB",17-12-2025 07:00:00,8.563700,76.886500,SO2,1,13,7
India,Kerala,Thrissur,"Corporation Ground, Thrissur - Kerala PCB",17-12-2025 07:00:00,10.532400,76.215900,PM10,56,70,62
India,Kerala,Thrissur,"Corporation Ground, Thrissur - Kerala PCB",17-12-2025 07:00:00,10.532400,76.215900,OZONE,28,29,29
India,Madhya Pradesh,Bhopal,"Idgah Hills, Bhopal - MPPCB",17-12-2025 07:00:00,23.264759,77.381568,NO2,16,51,32
India,Madhya Pradesh,Bhopal,"Idgah Hills, Bhopal - MPPCB",17-12-2025 07:00:00,23.264759,77.381568,SO2,10,18,12
India,Madhya Pradesh,Bhopal,"Paryavaran Parisar, Bhopal - MPPCB",17-12-2025 07:00:00,23.210494,77.425409,SO2,3,17,10
India,Madhya Pradesh,Bhopal,"Paryavaran Parisar, Bhopal - MPPCB",17-12-2025 07:00:00,23.210494,77.425409,CO,10,96,46
India,Madhya Pradesh,Ratlam,"Shasthri Nagar, Ratlam - IPCA Lab",17-12-2025 07:00:00,23.331731,75.045981,NO2,6,24,12
India,Madhya Pradesh,Ratlam,"Shasthri Nagar, Ratlam - IPCA Lab",17-12-2025 07:00:00,23.331731,75.045981,SO2,31,34,32
India,Madhya Pradesh,Sagar,"Civil Lines, Sagar - MPPCB",17-12-2025 07:00:00,23.838586,78.759431,NO2,10,49,22
India,Madhya Pradesh,Mandideep,"Sector-D Industrial Area, Mandideep - MPPCB",17-12-2025 07:00:00,23.108440,77.511428,NO2,NA,NA,NA
India,Madhya Pradesh,Pithampur,"Sector-2 Industrial Area, Pithampur - MPPCB",17-12-2025 07:00:00,22.624758,75.675238,NO2,21,32,27
India,Karnataka,Yadgir,"Collector Office, Yadgir - KSPCB",17-12-2025 07:00:00,16.7602,77.1428,SO2,3,15,12
India,Maharashtra,Aurangabad,"Rachnakar Colony, Aurangabad - MPCB",17-12-2025 07:00:00,19.863756,75.321188,NH3,1,5,2
India,Maharashtra,Aurangabad,"Rachnakar Colony, Aurangabad - MPCB",17-12-2025 07:00:00,19.863756,75.321188,OZONE,10,98,12
India,Maharashtra,Belapur,"CBD Belapur, Belapur - MPCB",17-12-2025 07:00:00,19.0243902,73.0406721,OZONE,7,75,7
India,Maharashtra,Bhiwandi,"Gokul Nagar, Bhiwandi - MPCB",17-12-2025 07:00:00,19.309073,73.057223,PM2.5,59,220,145
India,Maharashtra,Bhiwandi,"Gokul Nagar, Bhiwandi - MPCB",17-12-2025 07:00:00,19.309073,73.057223,NH3,4,9,6
India,Maharashtra,Bhiwandi,"Gokul Nagar, Bhiwandi - MPCB",17-12-2025 07:00:00,19.309073,73.057223,SO2,4,16,11
India,Maharashtra,Bhiwandi,"Gokul Nagar, Bhiwandi - MPCB",17-12-2025 07:00:00,19.309073,73.057223,CO,21,66,36
India,Maharashtra,Bhiwandi,"Gokul Nagar, Bhiwandi - MPCB",17-12-2025 07:00:00,19.309073,73.057223,OZONE,13,121,15
India,Maharashtra,Boisar,"Khaira, Boisar - MPCB",17-12-2025 07:00:00,19.786089,72.757971,PM2.5,52,160,106
India,Maharashtra,Boisar,"Khaira, Boisar - MPCB",17-12-2025 07:00:00,19.786089,72.757971,NH3,4,11,7
India,Maharashtra,Mumbai,"Chakala-Andheri East, Mumbai - IITM",17-12-2025 07:00:00,19.11074,72.86084,NH3,10,33,18
India,Maharashtra,Mumbai,"Chembur, Mumbai - MPCB",17-12-2025 07:00:00,19.0364585,72.8954371,PM2.5,67,164,94
India,Maharashtra,Mumbai,"Chembur, Mumbai - MPCB",17-12-2025 07:00:00,19.0364585,72.8954371,PM10,110,141,123
India,Maharashtra,Mumbai,"Chembur, Mumbai - MPCB",17-12-2025 07:00:00,19.0364585,72.8954371,NO2,20,112,59
India,Maharashtra,Mumbai,"Chembur, Mumbai - MPCB",17-12-2025 07:00:00,19.0364585,72.8954371,NH3,1,10,3
India,Maharashtra,Mumbai,"Chembur, Mumbai - MPCB",17-12-2025 07:00:00,19.0364585,72.8954371,SO2,4,18,9
India,Maharashtra,Mumbai,"Deonar, Mumbai - IITM",17-12-2025 07:00:00,19.04946,72.9230,OZONE,2,30,3
India,Maharashtra,Mumbai,"Ghatkopar, Mumbai - BMC",17-12-2025 07:00:00,19.083694,72.920967,PM10,125,149,136
India,Maharashtra,Boisar,"Khaira, Boisar - MPCB",17-12-2025 07:00:00,19.786089,72.757971,SO2,4,13,9
India,Maharashtra,Chandrapur,"Chauhan Colony, Chandrapur - MPCB",17-12-2025 07:00:00,19.962900,79.298714,PM2.5,65,224,110
India,Maharashtra,Chandrapur,"Chauhan Colony, Chandrapur - MPCB",17-12-2025 07:00:00,19.962900,79.298714,CO,24,76,59
India,Maharashtra,Chandrapur,"Chauhan Colony, Chandrapur - MPCB",17-12-2025 07:00:00,19.962900,79.298714,OZONE,24,24,24
India,Maharashtra,Chandrapur,"MIDC Khutala, Chandrapur - MPCB",17-12-2025 07:00:00,19.9775302,79.2337086,CO,36,42,39
India,Maharashtra,Chandrapur,"MIDC Khutala, Chandrapur - MPCB",17-12-2025 07:00:00,19.9775302,79.2337086,OZONE,17,19,18
India,Maharashtra,Jalgaon,"Prabhat Colony, Jalgaon - MPCB",17-12-2025 07:00:00,21.001264,75.565602,PM2.5,114,301,207
India,Maharashtra,Amravati,"Shivneri Colony, Amravati - MPCB",17-12-2025 07:00:00,20.9402359,77.7895248,PM10,106,163,134
India,Maharashtra,Amravati,"Shivneri Colony, Amravati - MPCB",17-12-2025 07:00:00,20.9402359,77.7895248,NO2,8,50,25
India,Maharashtra,Amravati,"Shri Shivaji Science College, Amravati - MPCB",17-12-2025 07:00:00,20.939198,77.765701,OZONE,1,117,25
India,Maharashtra,Aurangabad,"MIDC Chilkalthana, Aurangabad - MPCB",17-12-2025 07:00:00,19.875620,75.387310,SO2,1,2,1
India,Maharashtra,Aurangabad,"More Chowk Waluj, Aurangabad - MPCB",17-12-2025 07:00:00,19.8389439,75.244448,NO2,16,24,20
India,Maharashtra,Aurangabad,"More Chowk Waluj, Aurangabad - MPCB",17-12-2025 07:00:00,19.8389439,75.244448,CO,1,128,92
India,Madhya Pradesh,Satna,"Bandhavgar Colony, Satna - Birla Cement",17-12-2025 07:00:00,24.58434363,80.8549414,NO2,12,13,12
India,Madhya Pradesh,Singrauli,"Suryakiran Bhawan NCL, Singrauli - MPPCB",17-12-2025 07:00:00,24.108970,82.645580,SO2,19,27,24
India,Madhya Pradesh,Singrauli,"Suryakiran Bhawan NCL, Singrauli - MPPCB",17-12-2025 07:00:00,24.108970,82.645580,CO,39,103,102
India,Maharashtra,Ahmednagar,"Tarakpur, Ahmednagar - MPCB",17-12-2025 07:00:00,19.10122,74.73339,PM10,61,124,94
India,Maharashtra,Akola,"Ramdaspeth, Akola - MPCB",17-12-2025 07:00:00,20.719516,77.000253,NH3,4,6,5
India,Maharashtra,Kolhapur,"Sinchan Bhavan, Kolhapur - MPCB",17-12-2025 07:00:00,16.7143745,74.2426398,CO,28,86,55
India,Maharashtra,Mahad,"Kamble Tarf Birwadi, Mahad - MPCB",17-12-2025 07:00:00,18.1023399,73.4783687,NH3,3,6,5
India,Maharashtra,Malegaon,"Mahesh Nagar, Malegaon - MPCB",17-12-2025 07:00:00,20.555712,74.529236,NO2,12,119,42
India,Maharashtra,Malegaon,"Mahesh Nagar, Malegaon - MPCB",17-12-2025 07:00:00,20.555712,74.529236,SO2,21,46,29
India,Maharashtra,Mira-Bhayandar,"Bhayandar West, Mira-Bhayandar - MPCB",17-12-2025 07:00:00,19.296481,72.840923,PM10,65,133,109
India,Maharashtra,Mumbai,"Ghatkopar, Mumbai - BMC",17-12-2025 07:00:00,19.083694,72.920967,CO,14,52,32
India,Maharashtra,Mumbai,"Kandivali West, Mumbai - BMC",17-12-2025 07:00:00,19.215859,72.831718,CO,23,94,56
India,Maharashtra,Mumbai,"Kherwadi_Bandra East, Mumbai - MPCB",17-12-2025 07:00:00,19.0632143,72.8456324,PM10,106,147,126
India,Maharashtra,Mumbai,"Khindipada-Bhandup West, Mumbai - IITM",17-12-2025 07:00:00,19.1653323,72.922099,PM10,83,132,111
India,Maharashtra,Mumbai,"Khindipada-Bhandup West, Mumbai - IITM",17-12-2025 07:00:00,19.1653323,72.922099,NO2,34,88,53
India,Maharashtra,Kalyan,"Khadakpada, Kalyan - MPCB",17-12-2025 07:00:00,19.25292,73.142019,NH3,1,1,1
India,Maharashtra,Kalyan,"Pimpleshwar Mandir, Kalyan - MPCB",17-12-2025 07:00:00,19.192056,72.9585188,PM10,30,194,140
India,Maharashtra,Kolhapur,"Shivaji University, Kolhapur - MPCB",17-12-2025 07:00:00,16.6870449,74.2505872,PM2.5,68,98,86
India,Maharashtra,Mira-Bhayandar,"Bhayandar West, Mira-Bhayandar - MPCB",17-12-2025 07:00:00,19.296481,72.840923,NH3,2,8,6
India,Maharashtra,Mumbai,"Borivali East, Mumbai - IITM",17-12-2025 07:00:00,19.23241,72.86895,NH3,3,6,4
India,Maharashtra,Pune,"Revenue Colony-Shivajinagar, Pune - IITM",17-12-2025 07:00:00,18.530085,73.849598,OZONE,4,77,10
India,Maharashtra,Pune,"Transport Nagar-Nigdi, Pune - IITM",17-12-2025 07:00:00,18.664282,73.763966,PM10,103,265,175
India,Maharashtra,Sangli,"Vijay Nagar, Sangli - MPCB",17-12-2025 07:00:00, 16.5038,74.3623,PM2.5,67,182,99
India,Maharashtra,Sangli,"Vijay Nagar, Sangli - MPCB",17-12-2025 07:00:00, 16.5038,74.3623,NO2,17,101,39
India,Maharashtra,Sangli,"Vijay Nagar, Sangli - MPCB",17-12-2025 07:00:00, 16.5038,74.3623,CO,30,63,33
India,Maharashtra,Sangli,"Vijay Nagar, Sangli - MPCB",17-12-2025 07:00:00, 16.5038,74.3623,OZONE,3,58,23
India,Maharashtra,Solapur,"Dnyaneshwar Nagar, Solapur - MPCB",17-12-2025 07:00:00,17.6336264,75.9132495,NH3,6,34,11
India,Maharashtra,Solapur,"Ratandeep Housing Society, Solapur - MPCB",17-12-2025 07:00:00,17.65439,75.90649,PM10,83,145,113
India,Maharashtra,Solapur,"Ratandeep Housing Society, Solapur - MPCB",17-12-2025 07:00:00,17.65439,75.90649,SO2,8,21,12
India,Maharashtra,Solapur,"Ratandeep Housing Society, Solapur - MPCB",17-12-2025 07:00:00,17.65439,75.90649,CO,24,104,46
India,Maharashtra,Thane,"Kasarvadavali, Thane - MPCB",17-12-2025 07:00:00,19.26777,72.97182,PM2.5,55,108,83
India,Maharashtra,Pimpri-Chinchwad,"Gavalinagar, Pimpri Chinchwad - MPCB",17-12-2025 07:00:00,18.63673,73.82487,CO,24,79,57
India,Maharashtra,Pimpri-Chinchwad,"Park Street Wakad, Pimpri Chinchwad - MPCB",17-12-2025 07:00:00,18.59051,73.77946,PM10,103,366,177
India,Maharashtra,Pimpri-Chinchwad,"Park Street Wakad, Pimpri Chinchwad - MPCB",17-12-2025 07:00:00,18.59051,73.77946,SO2,3,16,9
India,Maharashtra,Pimpri-Chinchwad,"Park Street Wakad, Pimpri Chinchwad - MPCB",17-12-2025 07:00:00,18.59051,73.77946,CO,26,127,109
India,Maharashtra,Pimpri-Chinchwad,"Thergaon, Pimpri Chinchwad - MPCB",17-12-2025 07:00:00,18.616318,73.765797,CO,22,106,73
India,Maharashtra,Pune,"Bhumkar Nagar, Pune - IITM",17-12-2025 07:00:00,18.605770,73.749976,PM2.5,149,343,267
India,Maharashtra,Pune,"Bhumkar Nagar, Pune - IITM",17-12-2025 07:00:00,18.605770,73.749976,CO,6,125,93
India,Maharashtra,Mumbai,"Worli, Mumbai - MPCB",17-12-2025 07:00:00,18.9936162,72.8128113,PM2.5,69,79,73
India,Maharashtra,Nagpur,"Ambazari, Nagpur - MPCB",17-12-2025 07:00:00,21.121801,79.04952,NH3,1,15,6
India,Maharashtra,Nagpur,"Mahal, Nagpur - MPCB",17-12-2025 07:00:00,21.14472,79.107595,NO2,24,131,58
India,Maharashtra,Nagpur,"Mahal, Nagpur - MPCB",17-12-2025 07:00:00,21.14472,79.107595,NH3,5,10,6
India,Maharashtra,Nagpur,"Mahal, Nagpur - MPCB",17-12-2025 07:00:00,21.14472,79.107595,CO,39,173,68
India,Maharashtra,Nagpur,"Mahal, Nagpur - MPCB",17-12-2025 07:00:00,21.14472,79.107595,OZONE,13,46,24
India,Maharashtra,Nagpur,"Opp GPO Civil Lines, Nagpur - MPCB",17-12-2025 07:00:00,21.152875,79.0517531,PM10,115,193,146
India,Maharashtra,Mumbai,"Malad West, Mumbai - IITM",17-12-2025 07:00:00,19.19709,72.82204,PM10,118,188,147
India,Maharashtra,Mumbai,"Malad West, Mumbai - IITM",17-12-2025 07:00:00,19.19709,72.82204,NO2,36,115,70
India,Maharashtra,Mumbai,"Malad West, Mumbai - IITM",17-12-2025 07:00:00,19.19709,72.82204,NH3,6,29,13
India,Maharashtra,Mumbai,"Malad West, Mumbai - IITM",17-12-2025 07:00:00,19.19709,72.82204,SO2,7,25,15
India,Maharashtra,Mumbai,"Malad West, Mumbai - IITM",17-12-2025 07:00:00,19.19709,72.82204,CO,14,83,62
India,Maharashtra,Mumbai,"Malad West, Mumbai - IITM",17-12-2025 07:00:00,19.19709,72.82204,OZONE,4,77,11
India,Maharashtra,Mumbai,"Mazgaon, Mumbai - IITM",17-12-2025 07:00:00,18.96702,72.84214,PM2.5,68,124,85
India,Maharashtra,Mumbai,"Mazgaon, Mumbai - IITM",17-12-2025 07:00:00,18.96702,72.84214,NO2,38,114,82
India,Maharashtra,Pune,"Dhankawadi, Pune - IITM",17-12-2025 07:00:00,18.459883,73.852193,NO2,NA,NA,NA
India,Maharashtra,Pune,"Hadapsar, Pune - IITM",17-12-2025 07:00:00,18.501793,73.927532,NO2,16,40,28
India,Maharashtra,Pune,"Panchawati_Pashan, Pune - IITM",17-12-2025 07:00:00,18.536457,73.805454,NO2,14,48,29
India,Maharashtra,Pune,"Revenue Colony-Shivajinagar, Pune - IITM",17-12-2025 07:00:00,18.530085,73.849598,PM2.5,92,362,254
India,Maharashtra,Pune,"Revenue Colony-Shivajinagar, Pune - IITM",17-12-2025 07:00:00,18.530085,73.849598,PM10,118,345,213
India,Maharashtra,Nashik,"Pandav Nagari, Nashik - MPCB",17-12-2025 07:00:00,19.9591346,73.7788008,CO,24,84,32
India,Maharashtra,Nashik,"Pandav Nagari, Nashik - MPCB",17-12-2025 07:00:00,19.9591346,73.7788008,OZONE,16,81,44
India,Maharashtra,Navi Mumbai,"Kopripada-Vashi, Navi Mumbai - MPCB",17-12-2025 07:00:00,19.090337,73.014232,CO,14,98,47
India,Maharashtra,Navi Mumbai,"Nerul, Navi Mumbai - MPCB",17-12-2025 07:00:00,19.008751,73.016620,PM10,NA,NA,NA
India,Maharashtra,Navi Mumbai,"Sanpada, Navi Mumbai - MPCB",17-12-2025 07:00:00,19.0575752,73.0151367,NO2,8,35,21
India,Maharashtra,Navi Mumbai,"Sector-2E Kalamboli, Navi Mumbai - MPCB",17-12-2025 07:00:00,19.02579,73.10297,SO2,1,6,3
India,Maharashtra,Parbhani,"Masoom Colony, Parbhani - MPCB",17-12-2025 07:00:00,19.265594,76.761463,PM10,96,149,121
India,Maharashtra,Mumbai,"Navy Nagar-Colaba, Mumbai - IITM",17-12-2025 07:00:00,18.897756,72.813320,NO2,36,157,80
India,Maharashtra,Mumbai,"Sion, Mumbai - MPCB",17-12-2025 07:00:00,19.047000,72.874600,NO2,10,34,14
India,Maharashtra,Mumbai,"Sion, Mumbai - MPCB",17-12-2025 07:00:00,19.047000,72.874600,SO2,17,101,21
India,Maharashtra,Mumbai,"Vile Parle West, Mumbai - MPCB",17-12-2025 07:00:00,19.10861,72.83622,NO2,11,11,11
India,Maharashtra,Nashik,"Gangapur Road, Nashik - MPCB",17-12-2025 07:00:00,20.0073285,73.7762427,NO2,5,5,5
India,Maharashtra,Nashik,"Gangapur Road, Nashik - MPCB",17-12-2025 07:00:00,20.0073285,73.7762427,SO2,1,13,7
India,Odisha,Rourkela,"Sector-2, Rourkela - OSPCB",17-12-2025 07:00:00,22.24500000,84.88111111,CO,36,48,41
India,Odisha,Suakati,"OMC Colony, Suakati - OSPCB",17-12-2025 07:00:00,21.606865,85.510538,PM10,89,123,103
India,Odisha,Suakati,"OMC Colony, Suakati - OSPCB",17-12-2025 07:00:00,21.606865,85.510538,SO2,4,8,5
India,Odisha,Suakati,"OMC Colony, Suakati - OSPCB",17-12-2025 07:00:00,21.606865,85.510538,OZONE,18,20,19
India,Odisha,Talcher,"Talcher Coalfields,Talcher - OSPCB",17-12-2025 07:00:00,20.9360711,85.1707021,SO2,38,109,66
India,Odisha,Tensa,"Barsua Iron Ore Mines, Tensa - OSPCB",17-12-2025 07:00:00,21.869985,85.167016,SO2,15,105,26
India,Puducherry,Puducherry,"Jawahar Nagar, Puducherry - PPCC",17-12-2025 07:00:00,11.9309,79.8027,PM2.5,17,206,62
India,Puducherry,Puducherry,"Jawahar Nagar, Puducherry - PPCC",17-12-2025 07:00:00,11.9309,79.8027,PM10,18,110,46
India,Punjab,Mandi Gobindgarh,"RIMT University, Mandi Gobindgarh - PPCB",17-12-2025 07:00:00,30.649961,76.331442,NO2,23,24,24
India,Punjab,Patiala,"Model Town, Patiala - PPCB",17-12-2025 07:00:00,30.349388,76.366642,PM2.5,58,98,81
India,Punjab,Patiala,"Model Town, Patiala - PPCB",17-12-2025 07:00:00,30.349388,76.366642,SO2,1,25,10
India,Punjab,Patiala,"Model Town, Patiala - PPCB",17-12-2025 07:00:00,30.349388,76.366642,OZONE,11,42,12
India,Punjab,Rupnagar,"Ratanpura, Rupnagar - Ambuja Cements",17-12-2025 07:00:00,31.0325454,76.5623046,PM2.5,2,304,171
India,Rajasthan,Ajmer,"Civil Lines,  Ajmer - RSPCB",17-12-2025 07:00:00,26.470859,74.646594,NO2,16,52,21
India,Rajasthan,Ajmer,"Civil Lines,  Ajmer - RSPCB",17-12-2025 07:00:00,26.470859,74.646594,SO2,14,26,19
India,Rajasthan,Alwar,"Moti Doongri, Alwar - RSPCB",17-12-2025 07:00:00,27.554793,76.611536,NO2,52,78,66
India,Puducherry,Puducherry,"Jawahar Nagar, Puducherry - PPCC",17-12-2025 07:00:00,11.9309,79.8027,OZONE,12,53,18
India,Punjab,Amritsar,"Golden Temple, Amritsar - PPCB",17-12-2025 07:00:00,31.620000,74.876512,SO2,12,21,17
India,Punjab,Jalandhar,"Civil Line, Jalandhar - PPCB",17-12-2025 07:00:00,31.321907,75.578914,PM2.5,93,211,158
India,Punjab,Khanna,"Kalal Majra, Khanna - PPCB",17-12-2025 07:00:00,30.736056 ,76.209694,PM2.5,40,500,152
India,Punjab,Khanna,"Kalal Majra, Khanna - PPCB",17-12-2025 07:00:00,30.736056 ,76.209694,PM10,53,500,148
India,Punjab,Khanna,"Kalal Majra, Khanna - PPCB",17-12-2025 07:00:00,30.736056 ,76.209694,NH3,7,7,7
India,Odisha,Keonjhar,"Jagamohanpur, Keonjhar - OSPCB",17-12-2025 07:00:00,21.643900,85.599355,OZONE,16,19,18
India,Odisha,Rairangpur,"Divisional Forest Office, Rairangpur - OSPCB",17-12-2025 07:00:00,22.265816,86.174829,SO2,NA,NA,NA
India,Odisha,Rourkela,"Fertilizer Township, Rourkela - OSPCB",17-12-2025 07:00:00,22.18972222,84.86277778,PM2.5,88,133,97
India,Odisha,Rourkela,"Fertilizer Township, Rourkela - OSPCB",17-12-2025 07:00:00,22.18972222,84.86277778,NO2,11,11,11
India,Odisha,Rourkela,"Raghunathpali, Rourkela - OSPCB",17-12-2025 07:00:00,22.220833,84.809444,OZONE,1,9,1
India,Odisha,Balasore,"Kalidaspur, Balasore - OSPCB",17-12-2025 07:00:00,21.51161,86.89088,NO2,11,95,34
India,Odisha,Balasore,"Kalidaspur, Balasore - OSPCB",17-12-2025 07:00:00,21.51161,86.89088,NH3,2,3,3
India,Odisha,Baripada,"Meher Colony, Baripada - OSPCB",17-12-2025 07:00:00,21.941841,86.728318,PM2.5,25,301,187
India,Odisha,Bhubaneswar,"Lingraj Mandir, Bhubaneswar - OSPCB",17-12-2025 07:00:00,20.240790,85.836784,PM2.5,137,339,241
India,Odisha,Bhubaneswar,"Lingraj Mandir, Bhubaneswar - OSPCB",17-12-2025 07:00:00,20.240790,85.836784,OZONE,2,302,14
India,Maharashtra,Thane,"Kasarvadavali, Thane - MPCB",17-12-2025 07:00:00,19.26777,72.97182,SO2,4,19,9
India,Maharashtra,Thane,"Upvan Fort, Thane - MPCB",17-12-2025 07:00:00,19.222279,72.957979,PM2.5,49,83,61
India,Maharashtra,Ulhasnagar,"Sidhi Vinayak Nagar, Ulhasnagar - MPCB",17-12-2025 07:00:00,19.235581,73.159121,OZONE,12,112,14
India,Maharashtra,Virar,"Bolinj, Virar - MPCB",17-12-2025 07:00:00,19.4458210,72.7988231,CO,22,144,62
India,Odisha,Bileipada,"Tata Township, Bileipada - OSPCB",17-12-2025 07:00:00,22.06156703,85.47409613,CO,34,66,46
India,Odisha,Byasanagar,"Ferro Chrome Colony, Byasanagar - OSPCB",17-12-2025 07:00:00,20.94185,86.11510,SO2,2,18,9
India,Odisha,Byasanagar,"Ferro Chrome Colony, Byasanagar - OSPCB",17-12-2025 07:00:00,20.94185,86.11510,OZONE,21,159,39
India,Odisha,Cuttack,"CDA Area, Cuttack - OSPCB",17-12-2025 07:00:00,20.48891     ,85.84768     ,NO2,27,148,62
India,Meghalaya,Shillong,"JN Stadium, Shillong - Meghalaya PCB",17-12-2025 07:00:00,25.5803419,91.8942571,NH3,9,16,13
India,Meghalaya,Shillong,"JN Stadium, Shillong - Meghalaya PCB",17-12-2025 07:00:00,25.5803419,91.8942571,SO2,19,27,23
India,Meghalaya,Shillong,"JN Stadium, Shillong - Meghalaya PCB",17-12-2025 07:00:00,25.5803419,91.8942571,OZONE,NA,NA,NA
India,Meghalaya,Shillong,"Lumpyngngad, Shillong - Meghalaya PCB",17-12-2025 07:00:00,25.5586,91.8985,PM10,3,21,10
India,Meghalaya,Shillong,"Lumpyngngad, Shillong - Meghalaya PCB",17-12-2025 07:00:00,25.5586,91.8985,SO2,6,9,7
India,Mizoram,Aizawl,"Sikulpuikawn, Aizawl - Mizoram PCB",17-12-2025 07:00:00,23.7176342,92.7192841,SO2,14,15,14
India,Mizoram,Aizawl,"Sikulpuikawn, Aizawl - Mizoram PCB",17-12-2025 07:00:00,23.7176342,92.7192841,OZONE,1,11,2
India,Nagaland,Kohima,"PWD Junction, Kohima - NPCB",17-12-2025 07:00:00,25.6635413,94.0989878,PM2.5,1,85,29
India,Nagaland,Kohima,"PWD Junction, Kohima - NPCB",17-12-2025 07:00:00,25.6635413,94.0989878,CO,4,25,6
India,Rajasthan,Bharatpur,"Krishna Nagar, Bharatpur - RSPCB",17-12-2025 07:00:00,27.215415,77.50873,OZONE,5,163,7
India,Rajasthan,Bhilwara,"Pratap Nagar, Bhilwara - RSPCB",17-12-2025 07:00:00,25.339605,74.618883,NH3,8,44,16
India,Rajasthan,Bhiwadi,"RIICO Ind. Area III, Bhiwadi - RSPCB",17-12-2025 07:00:00,28.194909,76.862296,NH3,9,32,19
India,Rajasthan,Bhiwadi,"RIICO Ind. Area III, Bhiwadi - RSPCB",17-12-2025 07:00:00,28.194909,76.862296,CO,4,109,66
India,Rajasthan,Bhiwadi,"Vasundhara Nagar_UIT, Bhiwadi - RSPCB",17-12-2025 07:00:00,28.207266,76.829265,NO2,36,124,59
India,Rajasthan,Bhiwadi,"Vasundhara Nagar_UIT, Bhiwadi - RSPCB",17-12-2025 07:00:00,28.207266,76.829265,CO,21,78,41
India,Rajasthan,Bikaner,"MM Ground, Bikaner - RSPCB",17-12-2025 07:00:00,28.018792,73.292658,NO2,15,102,54
India,Rajasthan,Bikaner,"MM Ground, Bikaner - RSPCB",17-12-2025 07:00:00,28.018792,73.292658,CO,27,103,62
India,Rajasthan,Bundi,"New Colony, Bundi - RSPCB",17-12-2025 07:00:00,25.435774,75.644272,PM2.5,107,305,184
India,Rajasthan,Bundi,"New Colony, Bundi - RSPCB",17-12-2025 07:00:00,25.435774,75.644272,PM10,78,142,104
India,Rajasthan,Jaipur,"Police Commissionerate, Jaipur - RSPCB",17-12-2025 07:00:00,26.9164092,75.7994901,OZONE,14,80,15
India,Rajasthan,Jaipur,"RIICO Sitapura, Jaipur - RSPCB",17-12-2025 07:00:00,26.786682,75.827928,PM10,107,474,238
India,Rajasthan,Jaipur,"Sector-2 Murlipura, Jaipur - RSPCB",17-12-2025 07:00:00,26.960669,75.771817,PM10,62,397,177
India,Rajasthan,Jaipur,"Sector-2 Murlipura, Jaipur - RSPCB",17-12-2025 07:00:00,26.960669,75.771817,OZONE,3,97,14
India,Rajasthan,Jaipur,"Shastri Nagar, Jaipur - RSPCB",17-12-2025 07:00:00,26.9502929,75.730943,PM2.5,65,327,202
India,Rajasthan,Jaipur,"Shastri Nagar, Jaipur - RSPCB",17-12-2025 07:00:00,26.9502929,75.730943,PM10,83,248,139
India,Rajasthan,Jaipur,"Shastri Nagar, Jaipur - RSPCB",17-12-2025 07:00:00,26.9502929,75.730943,SO2,4,59,29
India,Rajasthan,Jaipur,"Shastri Nagar, Jaipur - RSPCB",17-12-2025 07:00:00,26.9502929,75.730943,CO,20,98,31
India,Rajasthan,Jaipur,"Shastri Nagar, Jaipur - RSPCB",17-12-2025 07:00:00,26.9502929,75.730943,OZONE,15,69,18
India,Rajasthan,Dholpur,"Raja Ganj, Dholpur - RSPCB",17-12-2025 07:00:00,26.699557,77.898881,OZONE,10,63,20
India,Rajasthan,Dungarpur,"Bhoiwada, Dungarpur - RSPCB",17-12-2025 07:00:00,23.837789,73.714926,NO2,7,52,21
India,Rajasthan,Dungarpur,"Bhoiwada, Dungarpur - RSPCB",17-12-2025 07:00:00,23.837789,73.714926,OZONE,2,141,8
India,Rajasthan,Hanumangarh,"Housing Board, Hanumangarh - RSPCB",17-12-2025 07:00:00,29.610750,74.283608,SO2,1,4,3
India,Rajasthan,Jaipur,"Adarsh Nagar, Jaipur - RSPCB",17-12-2025 07:00:00,26.902909,75.836858,SO2,14,28,21
India,Rajasthan,Jaipur,"Adarsh Nagar, Jaipur - RSPCB",17-12-2025 07:00:00,26.902909,75.836858,CO,38,120,65
India,Rajasthan,Jaipur,"Mansarovar Sector-12, Jaipur - RSPCB",17-12-2025 07:00:00,26.843698,75.766894,SO2,4,41,9
India,Rajasthan,Chittorgarh,"Shastri Nagar, Chittorgarh - RSPCB",17-12-2025 07:00:00,24.892047,74.623527,NH3,8,14,10
India,Rajasthan,Chittorgarh,"Shastri Nagar, Chittorgarh - RSPCB",17-12-2025 07:00:00,24.892047,74.623527,SO2,2,140,31
India,Rajasthan,Churu,"Subash Chowk, Churu - RSPCB",17-12-2025 07:00:00,28.296139,74.961696,OZONE,6,139,27
India,Rajasthan,Dausa,"Khatikan Mohalla, Dausa - RSPCB",17-12-2025 07:00:00,26.895552,76.334753,PM10,57,195,118
India,Rajasthan,Dausa,"Khatikan Mohalla, Dausa - RSPCB",17-12-2025 07:00:00,26.895552,76.334753,NO2,33,132,66
India,Rajasthan,Dholpur,"Raja Ganj, Dholpur - RSPCB",17-12-2025 07:00:00,26.699557,77.898881,PM2.5,37,300,96
India,Rajasthan,Dholpur,"Raja Ganj, Dholpur - RSPCB",17-12-2025 07:00:00,26.699557,77.898881,NO2,8,112,51
India,Rajasthan,Jalore,"Mudtra Sili, Jalore - RSPCB",17-12-2025 07:00:00,25.344694,72.626208,NO2,18,142,64
India,Rajasthan,Jhalawar,"Rajlaxmi Nagar, Jhalawar - RSPCB",17-12-2025 07:00:00,24.588397,76.172782,CO,27,160,104
India,Rajasthan,Jhunjhunu,"Indra Nagar, Jhunjhunu - RSPCB",17-12-2025 07:00:00,28.108988,75.386577,NO2,14,100,43
India,Rajasthan,Jhunjhunu,"Indra Nagar, Jhunjhunu - RSPCB",17-12-2025 07:00:00,28.108988,75.386577,SO2,2,28,9
India,Rajasthan,Jodhpur,"Collectorate, Jodhpur - RSPCB",17-12-2025 07:00:00,26.268249,73.0193853,PM2.5,64,383,164
India,Rajasthan,Jodhpur,"Collectorate, Jodhpur - RSPCB",17-12-2025 07:00:00,26.268249,73.0193853,NH3,7,21,11
India,Rajasthan,Banswara,"Rati Talai, Banswara - RSPCB",17-12-2025 07:00:00,23.555190,74.440010,PM10,67,177,109
India,Rajasthan,Banswara,"Rati Talai, Banswara - RSPCB",17-12-2025 07:00:00,23.555190,74.440010,NO2,17,107,39
India,Rajasthan,Banswara,"Rati Talai, Banswara - RSPCB",17-12-2025 07:00:00,23.555190,74.440010,NH3,4,12,7
India,Rajasthan,Banswara,"Rati Talai, Banswara - RSPCB",17-12-2025 07:00:00,23.555190,74.440010,CO,18,62,21
India,Rajasthan,Baran,"Bamboliya, Baran - RSPCB",17-12-2025 07:00:00,25.106006,76.469948,SO2,4,10,7
India,Rajasthan,Bharatpur,"Krishna Nagar, Bharatpur - RSPCB",17-12-2025 07:00:00,27.215415,77.50873,PM2.5,34,311,120
India,Rajasthan,Bharatpur,"Krishna Nagar, Bharatpur - RSPCB",17-12-2025 07:00:00,27.215415,77.50873,NO2,24,113,52
India,Rajasthan,Sawai Madhopur,"Sahu Nagar, Sawai Madhopur - RSPCB",17-12-2025 07:00:00,26.031443,76.359327,NH3,7,9,8
India,Rajasthan,Sawai Madhopur,"Sahu Nagar, Sawai Madhopur - RSPCB",17-12-2025 07:00:00,26.031443,76.359327,CO,16,120,42
India,Rajasthan,Sawai Madhopur,"Sahu Nagar, Sawai Madhopur - RSPCB",17-12-2025 07:00:00,26.031443,76.359327,OZONE,1,109,7
India,Rajasthan,Sikar,"Radhakishan Pura, Sikar - RSPCB",17-12-2025 07:00:00,27.608912,75.153302,CO,16,137,62
India,Rajasthan,Sri Ganganagar,"Old City, Sri Ganganagar - RSPCB",17-12-2025 07:00:00,29.931624,73.864511,PM2.5,47,283,91
India,Rajasthan,Jodhpur,"Digari Kalan, Jodhpur - RSPCB",17-12-2025 07:00:00,26.295810,73.082283,PM10,54,167,98
India,Rajasthan,Jodhpur,"Digari Kalan, Jodhpur - RSPCB",17-12-2025 07:00:00,26.295810,73.082283,NO2,9,85,37
India,Rajasthan,Jodhpur,"Digari Kalan, Jodhpur - RSPCB",17-12-2025 07:00:00,26.295810,73.082283,SO2,3,7,5
India,Rajasthan,Jodhpur,"Digari Kalan, Jodhpur - RSPCB",17-12-2025 07:00:00,26.295810,73.082283,CO,18,74,33
India,Rajasthan,Jodhpur,"Jhalamand, Jodhpur - RSPCB",17-12-2025 07:00:00,26.215415,73.070156,CO,12,80,37
India,Rajasthan,Jodhpur,"Mandor, Jodhpur - RSPCB",17-12-2025 07:00:00,26.358805,73.047444,NH3,4,16,7
India,Rajasthan,Nagaur,"Karni Colony, Nagaur - RSPCB",17-12-2025 07:00:00,27.213494,73.734444,SO2,1,9,4
India,Rajasthan,Pali,"Indira Colony Vistar, Pali - RSPCB",17-12-2025 07:00:00,25.771061, 73.340227,PM2.5,78,228,133
India,Rajasthan,Pali,"Indira Colony Vistar, Pali - RSPCB",17-12-2025 07:00:00,25.771061, 73.340227,CO,5,68,30
India,Uttar_Pradesh,Agra,"Rohta, Agra - UPPCB",17-12-2025 07:00:00,27.106972,78.000111,SO2,5,24,13
India,Uttar_Pradesh,Agra,"Rohta, Agra - UPPCB",17-12-2025 07:00:00,27.106972,78.000111,OZONE,13,16,16
India,Uttar_Pradesh,Agra,"Sanjay Palace, Agra - UPPCB",17-12-2025 07:00:00,27.19865833,78.00598056,PM2.5,23,359,124
India,Uttar_Pradesh,Agra,"Sanjay Palace, Agra - UPPCB",17-12-2025 07:00:00,27.19865833,78.00598056,PM10,98,234,143
India,Uttar_Pradesh,Agra,"Sector-3B Avas Vikas Colony, Agra - UPPCB",17-12-2025 07:00:00,27.19412,77.96237,NO2,39,39,39
India,Uttar_Pradesh,Agra,"Sector-3B Avas Vikas Colony, Agra - UPPCB",17-12-2025 07:00:00,27.19412,77.96237,OZONE,2,38,4
India,Uttar_Pradesh,Agra,"Shahjahan Garden, Agra - UPPCB",17-12-2025 07:00:00,27.169338,78.03582,NO2,NA,NA,NA
India,Uttar_Pradesh,Agra,"Shastripuram, Agra - UPPCB",17-12-2025 07:00:00,27.19862,77.92066,CO,16,30,23
India,Uttar_Pradesh,Agra,"Shastripuram, Agra - UPPCB",17-12-2025 07:00:00,27.19862,77.92066,OZONE,6,7,6
India,TamilNadu,Chennai,"Velachery Res. Area, Chennai - CPCB",17-12-2025 07:00:00,13.0052189,80.2398125,NH3,3,3,3
India,TamilNadu,Coimbatore,"PSG College of Arts and Science, Coimbatore - TNPCB",17-12-2025 07:00:00,11.0328,77.0349,NO2,10,11,11
India,TamilNadu,Coimbatore,"PSG College of Arts and Science, Coimbatore - TNPCB",17-12-2025 07:00:00,11.0328,77.0349,OZONE,3,6,5
India,TamilNadu,Coimbatore,"SIDCO Kurichi, Coimbatore - TNPCB",17-12-2025 07:00:00,10.942451,76.978996,NO2,2,47,14
India,TamilNadu,Coimbatore,"SIDCO Kurichi, Coimbatore - TNPCB",17-12-2025 07:00:00,10.942451,76.978996,SO2,21,23,22
India,TamilNadu,Cuddalore,"Kudikadu, Cuddalore - TNPCB",17-12-2025 07:00:00,11.6829898,79.7532099,SO2,19,20,20
India,TamilNadu,Cuddalore,"Semmandalam, Cuddalore - TNPCB",17-12-2025 07:00:00,11.7637683,79.7499835,PM2.5,22,305,97
India,TamilNadu,Ramanathapuram,"Chalai Bazaar, Ramanathapuram - TNPCB",17-12-2025 07:00:00,9.36399,78.831977,OZONE,NA,NA,NA
India,TamilNadu,Tirupur,"Kumaran College, Tirupur - TNPCB",17-12-2025 07:00:00,11.0973603,77.3228673,NO2,7,18,10
India,TamilNadu,Tirupur,"Kumaran College, Tirupur - TNPCB",17-12-2025 07:00:00,11.0973603,77.3228673,SO2,2,4,3
India,Telangana,Hyderabad,"Bollaram Industrial Area, Hyderabad - TSPCB",17-12-2025 07:00:00,17.540891,78.358528,NH3,3,7,5
India,Telangana,Hyderabad,"Central University, Hyderabad - TSPCB",17-12-2025 07:00:00,17.460103,78.334361,NO2,7,54,29
India,Telangana,Hyderabad,"Central University, Hyderabad - TSPCB",17-12-2025 07:00:00,17.460103,78.334361,NH3,1,8,4
India,Telangana,Hyderabad,"ECIL Kapra, Hyderabad - TSPCB",17-12-2025 07:00:00,17.470431,78.566959,NH3,3,6,5
India,TamilNadu,Dindigul,"Mendonsa Colony, Dindigul - TNPCB",17-12-2025 07:00:00,10.358535,77.984321,SO2,NA,NA,NA
India,TamilNadu,Gummidipoondi,"Anthoni Pillai Nagar, Gummidipoondi - TNPCB",17-12-2025 07:00:00,13.4127,80.1081,NO2,1,4,2
India,TamilNadu,Karur,"Kamadenu Nagar, Karur - TNPCB",17-12-2025 07:00:00,10.967820,78.080882,PM2.5,33,160,64
India,TamilNadu,Madurai,"Uchapatti, Madurai - TNPCB",17-12-2025 07:00:00,9.865935,78.022669,NH3,NA,NA,NA
India,TamilNadu,Madurai,"Uchapatti, Madurai - TNPCB",17-12-2025 07:00:00,9.865935,78.022669,OZONE,NA,NA,NA
India,TamilNadu,Perundurai,"SIPCOT Industrial Park, Perundurai - TNPCB",17-12-2025 07:00:00,11.258242,77.552761,OZONE,5,40,8
India,Telangana,Hyderabad,"Somajiguda, Hyderabad - TSPCB",17-12-2025 07:00:00,17.417094,78.457437,PM10,103,197,153
India,Telangana,Hyderabad,"Zoo Park, Hyderabad - TSPCB",17-12-2025 07:00:00,17.349694,78.451437,NH3,3,4,4
India,Tripura,Agartala,"Bardowali, Agartala - Tripura SPCB",17-12-2025 07:00:00,23.8175497,91.2726974,PM2.5,4,104,46
India,Uttar_Pradesh,Agra,"Manoharpur, Agra - UPPCB",17-12-2025 07:00:00,27.23711,78.01936,SO2,18,80,65
India,Uttar_Pradesh,Agra,"Rohta, Agra - UPPCB",17-12-2025 07:00:00,27.106972,78.000111,PM10,68,271,128
India,Telangana,Hyderabad,"Kompally Municipal Office, Hyderabad - TSPCB",17-12-2025 07:00:00,17.544899,78.486949,OZONE,26,41,27
India,Telangana,Hyderabad,"Nacharam_TSIIC IALA, Hyderabad - TSPCB",17-12-2025 07:00:00,17.429398,78.569354,SO2,11,15,13
India,Telangana,Hyderabad,"Sanathnagar, Hyderabad - TSPCB",17-12-2025 07:00:00,17.4559458,78.4332152,PM2.5,56,187,110
India,Telangana,Hyderabad,"Sanathnagar, Hyderabad - TSPCB",17-12-2025 07:00:00,17.4559458,78.4332152,NO2,26,29,27
India,Rajasthan,Tonk,"Shastri Nagar, Tonk - RSPCB",17-12-2025 07:00:00,26.159933,75.780517,CO,23,104,34
India,Sikkim,Gangtok,"Zero Point GICI, Gangtok - SSPCB",17-12-2025 07:00:00,27.338530,88.614099,NH3,NA,NA,NA
India,Sikkim,Gangtok,"Zero Point GICI, Gangtok - SSPCB",17-12-2025 07:00:00,27.338530,88.614099,CO,NA,NA,NA
India,Sikkim,Gangtok,"Zero Point GICI, Gangtok - SSPCB",17-12-2025 07:00:00,27.338530,88.614099,OZONE,NA,NA,NA
India,Telangana,Hyderabad,"IITH Kandi, Hyderabad - TSPCB",17-12-2025 07:00:00,17.585705,78.126199,NO2,11,17,15
India,Telangana,Hyderabad,"IITH Kandi, Hyderabad - TSPCB",17-12-2025 07:00:00,17.585705,78.126199,CO,14,60,49
India,Telangana,Hyderabad,"IITH Kandi, Hyderabad - TSPCB",17-12-2025 07:00:00,17.585705,78.126199,OZONE,15,37,16
India,Telangana,Hyderabad,"Kokapet, Hyderabad - TSPCB",17-12-2025 07:00:00,17.393559,78.339194,PM2.5,48,69,56
India,TamilNadu,Chennai,"Manali Village, Chennai - TNPCB",17-12-2025 07:00:00,13.1662,80.2584,OZONE,16,25,23
India,TamilNadu,Chennai,"Manali, Chennai - CPCB",17-12-2025 07:00:00,13.164544,80.26285,PM10,NA,NA,NA
India,TamilNadu,Chennai,"Royapuram, Chennai - TNPCB",17-12-2025 07:00:00,13.1036,80.2909,NO2,11,33,18
India,Uttar_Pradesh,Kanpur,"FTI Kidwai Nagar, Kanpur - UPPCB",17-12-2025 07:00:00,26.428282,80.327067,CO,40,56,54
India,Uttar_Pradesh,Kanpur,"NSI Kalyanpur, Kanpur - UPPCB",17-12-2025 07:00:00,26.509954,80.249612,PM2.5,58,301,112
India,Uttar_Pradesh,Kanpur,"NSI Kalyanpur, Kanpur - UPPCB",17-12-2025 07:00:00,26.509954,80.249612,PM10,65,141,91
India,Uttar_Pradesh,Kanpur,"NSI Kalyanpur, Kanpur - UPPCB",17-12-2025 07:00:00,26.509954,80.249612,NO2,22,22,22
India,Uttar_Pradesh,Kanpur,"NSI Kalyanpur, Kanpur - UPPCB",17-12-2025 07:00:00,26.509954,80.249612,NH3,3,3,3
India,Uttar_Pradesh,Kanpur,"NSI Kalyanpur, Kanpur - UPPCB",17-12-2025 07:00:00,26.509954,80.249612,CO,40,74,69
India,Uttar_Pradesh,Kanpur,"Nehru Nagar, Kanpur - UPPCB",17-12-2025 07:00:00,26.4703136,80.3229863,CO,49,76,72
India,Uttar_Pradesh,Kanpur,"Nehru Nagar, Kanpur - UPPCB",17-12-2025 07:00:00,26.4703136,80.3229863,OZONE,6,30,6
India,Uttar_Pradesh,Lucknow,"B R Ambedkar University, Lucknow - UPPCB",17-12-2025 07:00:00,26.766433,80.927299,PM10,58,128,91
India,Uttar_Pradesh,Lucknow,"Gomti Nagar, Lucknow - UPPCB",17-12-2025 07:00:00,26.868120,81.005119,PM2.5,62,232,146
India,Uttar_Pradesh,Lucknow,"Talkatora District Industries Center, Lucknow - CPCB",17-12-2025 07:00:00,26.83399722,80.8917361,PM2.5,88,331,218
India,Uttar_Pradesh,Lucknow,"Talkatora District Industries Center, Lucknow - CPCB",17-12-2025 07:00:00,26.83399722,80.8917361,NO2,42,50,45
India,Uttar_Pradesh,Lucknow,"Talkatora District Industries Center, Lucknow - CPCB",17-12-2025 07:00:00,26.83399722,80.8917361,CO,38,92,46
India,Uttar_Pradesh,Meerut,"Ganga Nagar, Meerut - UPPCB",17-12-2025 07:00:00,28.999264,77.7590354,CO,10,64,45
India,Uttar_Pradesh,Meerut,"Jai Bhim Nagar, Meerut - UPPCB",17-12-2025 07:00:00,28.9535882,77.7622941,NO2,9,48,25
India,Uttar_Pradesh,Meerut,"Jai Bhim Nagar, Meerut - UPPCB",17-12-2025 07:00:00,28.9535882,77.7622941,SO2,2,21,8
India,Uttar_Pradesh,Meerut,"Pallavpuram Phase 2, Meerut - UPPCB",17-12-2025 07:00:00,29.063510,77.709723,OZONE,16,115,24
India,Uttar_Pradesh,Moradabad,"Buddhi Vihar, Moradabad - UPPCB",17-12-2025 07:00:00,28.83526,78.74460,PM2.5,81,277,168
India,Uttar_Pradesh,Moradabad,"Buddhi Vihar, Moradabad - UPPCB",17-12-2025 07:00:00,28.83526,78.74460,NH3,5,5,5
India,Uttar_Pradesh,Moradabad,"Buddhi Vihar, Moradabad - UPPCB",17-12-2025 07:00:00,28.83526,78.74460,OZONE,10,12,10
India,Uttar_Pradesh,Moradabad,"Eco Herbal Park, Moradabad - UPPCB",17-12-2025 07:00:00,28.840739,78.697531,SO2,12,18,15
India,Uttar_Pradesh,Moradabad,"Eco Herbal Park, Moradabad - UPPCB",17-12-2025 07:00:00,28.840739,78.697531,CO,4,94,26
India,Uttar_Pradesh,Moradabad,"Employment Office, Moradabad - UPPCB",17-12-2025 07:00:00,28.88528,78.73880,PM10,100,198,136
India,Uttar_Pradesh,Moradabad,"Jigar Colony, Moradabad - UPPCB",17-12-2025 07:00:00,28.856664,78.772638,NH3,6,13,7
India,Uttar_Pradesh,Moradabad,"Kashiram Nagar, Moradabad - UPPCB",17-12-2025 07:00:00,28.849399,78.742362,CO,42,57,51
India,Uttar_Pradesh,Noida,"Sector-116, Noida - UPPCB",17-12-2025 07:00:00,28.569230,77.393848,PM10,134,260,194
India,Uttar_Pradesh,Noida,"Sector-116, Noida - UPPCB",17-12-2025 07:00:00,28.569230,77.393848,SO2,8,16,12
India,Uttar_Pradesh,Prayagraj,"Jhunsi, Prayagraj - UPPCB",17-12-2025 07:00:00,25.425602,81.917152,PM10,61,163,109
India,Uttar_Pradesh,Prayagraj,"Jhunsi, Prayagraj - UPPCB",17-12-2025 07:00:00,25.425602,81.917152,CO,20,57,37
India,Uttar_Pradesh,Prayagraj,"Motilal Nehru NIT, Prayagraj - UPPCB",17-12-2025 07:00:00,25.494,81.863,PM10,59,112,89
India,Uttar_Pradesh,Prayagraj,"Motilal Nehru NIT, Prayagraj - UPPCB",17-12-2025 07:00:00,25.494,81.863,SO2,22,33,29
India,Uttar_Pradesh,Prayagraj,"Nagar Nigam, Prayagraj - UPPCB",17-12-2025 07:00:00,25.44919916 ,81.82735986 ,OZONE,10,13,11
India,Uttar_Pradesh,Moradabad,"Transport Nagar, Moradabad - UPPCB",17-12-2025 07:00:00,28.802625,78.753728,CO,35,85,63
India,Uttar_Pradesh,Moradabad,"Transport Nagar, Moradabad - UPPCB",17-12-2025 07:00:00,28.802625,78.753728,OZONE,26,35,27
India,Uttar_Pradesh,Muzaffarnagar,"New Mandi, Muzaffarnagar - UPPCB",17-12-2025 07:00:00,29.4723508,77.7194031,PM10,96,197,150
India,Uttar_Pradesh,Noida,"Sector - 125, Noida - UPPCB",17-12-2025 07:00:00,28.5447608,77.3231257,PM10,124,308,235
India,Uttar_Pradesh,Noida,"Sector - 62, Noida - IMD",17-12-2025 07:00:00,28.6245479,77.3577104,NO2,33,81,53
India,Uttar_Pradesh,Noida,"Sector - 62, Noida - IMD",17-12-2025 07:00:00,28.6245479,77.3577104,OZONE,29,84,42
India,Uttar_Pradesh,Hapur,"Anand Vihar, Hapur - UPPCB",17-12-2025 07:00:00,28.725645,77.749675,PM2.5,64,500,235
India,Uttar_Pradesh,Hapur,"Anand Vihar, Hapur - UPPCB",17-12-2025 07:00:00,28.725645,77.749675,PM10,78,140,119
India,Uttar_Pradesh,Hapur,"Anand Vihar, Hapur - UPPCB",17-12-2025 07:00:00,28.725645,77.749675,NH3,7,9,8
India,Uttar_Pradesh,Jhansi,"Shivaji Nagar, Jhansi - UPPCB",17-12-2025 07:00:00,25.4547,78.6039,PM10,28,93,50
India,Uttar_Pradesh,Jhansi,"Shivaji Nagar, Jhansi - UPPCB",17-12-2025 07:00:00,25.4547,78.6039,NH3,4,4,4
India,Uttar_Pradesh,Jhansi,"Shivaji Nagar, Jhansi - UPPCB",17-12-2025 07:00:00,25.4547,78.6039,OZONE,1,22,1
India,Uttar_Pradesh,Kanpur,"FTI Kidwai Nagar, Kanpur - UPPCB",17-12-2025 07:00:00,26.428282,80.327067,PM10,76,167,125
India,Uttar_Pradesh,Ghaziabad,"Indirapuram, Ghaziabad - UPPCB",17-12-2025 07:00:00,28.646233,77.358075,SO2,19,25,21
India,Uttar_Pradesh,Ghaziabad,"Vasundhara, Ghaziabad - UPPCB",17-12-2025 07:00:00,28.6603346,77.3572563,NO2,NA,NA,NA
India,Uttar_Pradesh,Greater Noida,"Knowledge Park - III, Greater Noida - UPPCB",17-12-2025 07:00:00,28.47272,77.482000,PM2.5,90,345,272
India,Uttar_Pradesh,Bareilly,"Civil Lines, Bareilly - UPPCB",17-12-2025 07:00:00,28.359581,79.414455,PM2.5,19,84,50
India,Uttar_Pradesh,Bareilly,"Civil Lines, Bareilly - UPPCB",17-12-2025 07:00:00,28.359581,79.414455,PM10,59,107,80
India,Uttar_Pradesh,Bareilly,"Civil Lines, Bareilly - UPPCB",17-12-2025 07:00:00,28.359581,79.414455,NH3,1,6,2
India,Uttar_Pradesh,Lucknow,"Kendriya Vidyalaya, Lucknow - CPCB",17-12-2025 07:00:00,26.906111,80.948222,OZONE,10,79,14
India,Uttar_Pradesh,Varanasi,"Ardhali Bazar, Varanasi - UPPCB",17-12-2025 07:00:00,25.3505986,82.9083074,PM10,89,213,148
India,Uttar_Pradesh,Varanasi,"Ardhali Bazar, Varanasi - UPPCB",17-12-2025 07:00:00,25.3505986,82.9083074,NO2,83,102,93
India,Uttar_Pradesh,Varanasi,"Bhelupur, Varanasi - UPPCB",17-12-2025 07:00:00,25.301778,82.996789,OZONE,1,2,1
India,Uttar_Pradesh,Varanasi,"IESD Banaras Hindu University, Varanasi - UPPCB",17-12-2025 07:00:00,25.262326,82.995408,PM10,82,179,120
India,Uttar_Pradesh,Varanasi,"IESD Banaras Hindu University, Varanasi - UPPCB",17-12-2025 07:00:00,25.262326,82.995408,SO2,25,32,28
India,Uttar_Pradesh,Varanasi,"Maldahiya, Varanasi - UPPCB",17-12-2025 07:00:00,25.32393,82.99687,PM10,59,127,96
India,Uttar_Pradesh,Vrindavan,"Omex Eternity, Vrindavan - UPPCB",17-12-2025 07:00:00,27.5714090,77.6557570,SO2,9,17,11
India,Uttarakhand,Dehradun,"Doon University, Dehradun - UKPCB",17-12-2025 07:00:00,30.269444,78.044167,NO2,1,5,2
India,Uttarakhand,Dehradun,"Doon University, Dehradun - UKPCB",17-12-2025 07:00:00,30.269444,78.044167,SO2,1,2,2
India,Uttarakhand,Dehradun,"Doon University, Dehradun - UKPCB",17-12-2025 07:00:00,30.269444,78.044167,CO,37,42,40
India,Uttarakhand,Rishikesh,"Shivaji Nagar, Rishikesh - UKPCB",17-12-2025 07:00:00,30.075911,78.2859547,NO2,19,31,23
India,Uttarakhand,Rishikesh,"Shivaji Nagar, Rishikesh - UKPCB",17-12-2025 07:00:00,30.075911,78.2859547,CO,26,82,45
India,Uttarakhand,Rishikesh,"Shivaji Nagar, Rishikesh - UKPCB",17-12-2025 07:00:00,30.075911,78.2859547,OZONE,25,27,26
India,West_Bengal,Asansol,"Asansol Court Area, Asansol - WBPCB",17-12-2025 07:00:00,23.685297,86.945968,PM2.5,131,278,214
India,West_Bengal,Asansol,"Asansol Court Area, Asansol - WBPCB",17-12-2025 07:00:00,23.685297,86.945968,PM10,113,164,145
India,West_Bengal,Asansol,"Asansol Court Area, Asansol - WBPCB",17-12-2025 07:00:00,23.685297,86.945968,NO2,15,27,23
India,West_Bengal,Asansol,"Asansol Court Area, Asansol - WBPCB",17-12-2025 07:00:00,23.685297,86.945968,NH3,3,9,5
India,West_Bengal,Asansol,"Asansol Court Area, Asansol - WBPCB",17-12-2025 07:00:00,23.685297,86.945968,OZONE,13,50,17
India,West_Bengal,Asansol,"Evelyn Lodge, Asansol - WBPCB",17-12-2025 07:00:00,23.6979360,86.9443950,NO2,11,65,30
India,West_Bengal,Asansol,"Evelyn Lodge, Asansol - WBPCB",17-12-2025 07:00:00,23.6979360,86.9443950,OZONE,7,53,10
India,West_Bengal,Asansol,"Mahabir Colliery, Asansol - WBPCB",17-12-2025 07:00:00,23.6181830,87.1057180,NO2,8,61,29
India,West_Bengal,Asansol,"Trivenidevi Bhalotia College, Asansol - WBPCB",17-12-2025 07:00:00,23.616515,87.119133,NH3,8,12,9
India,West_Bengal,Asansol,"Trivenidevi Bhalotia College, Asansol - WBPCB",17-12-2025 07:00:00,23.616515,87.119133,SO2,4,12,8
India,West_Bengal,Asansol,"Trivenidevi Bhalotia College, Asansol - WBPCB",17-12-2025 07:00:00,23.616515,87.119133,CO,18,89,64
India,West_Bengal,Asansol,"Trivenidevi Bhalotia College, Asansol - WBPCB",17-12-2025 07:00:00,23.616515,87.119133,OZONE,8,14,8
India,West_Bengal,Barrackpore,"SVSPA Campus, Barrackpore - WBPCB",17-12-2025 07:00:00,22.7605581,88.3617589,PM10,101,166,128
India,West_Bengal,Barrackpore,"SVSPA Campus, Barrackpore - WBPCB",17-12-2025 07:00:00,22.7605581,88.3617589,NO2,13,48,28
India,West_Bengal,Barrackpore,"SVSPA Campus, Barrackpore - WBPCB",17-12-2025 07:00:00,22.7605581,88.3617589,NH3,8,11,10
India,West_Bengal,Durgapur,"Mahishkapur Road_B-Zone, Durgapur - WBPCB",17-12-2025 07:00:00,23.567923,87.306843,OZONE,17,93,26
India,West_Bengal,Durgapur,"PCBL Residential Complex, Durgapur - WBPCB",17-12-2025 07:00:00,23.5087640,87.3544400,PM2.5,47,227,110
India,West_Bengal,Durgapur,"PCBL Residential Complex, Durgapur - WBPCB",17-12-2025 07:00:00,23.5087640,87.3544400,PM10,63,144,111
India,West_Bengal,Durgapur,"PCBL Residential Complex, Durgapur - WBPCB",17-12-2025 07:00:00,23.5087640,87.3544400,CO,48,100,77
India,West_Bengal,Durgapur,"Womens College_City Center, Durgapur - WBPCB (Formerly known as Sidhu Kanhu Indoor Stadium)",17-12-2025 07:00:00,23.549395,87.300496,NO2,24,37,30
India,West_Bengal,Durgapur,"Womens College_City Center, Durgapur - WBPCB (Formerly known as Sidhu Kanhu Indoor Stadium)",17-12-2025 07:00:00,23.549395,87.300496,SO2,16,39,24
India,West_Bengal,Haldia,"Priyambada Housing Estate, Haldia - WBPCB",17-12-2025 07:00:00,22.06047,88.109737,PM10,123,193,156
India,West_Bengal,Haldia,"Priyambada Housing Estate, Haldia - WBPCB",17-12-2025 07:00:00,22.06047,88.109737,NO2,14,50,30
India,West_Bengal,Howrah,"Belur Math, Howrah - WBPCB",17-12-2025 07:00:00,22.629801,88.352017,PM10,137,308,193
India,West_Bengal,Howrah,"Belur Math, Howrah - WBPCB",17-12-2025 07:00:00,22.629801,88.352017,NH3,7,13,10
India,West_Bengal,Howrah,"Dasnagar, Howrah - WBPCB",17-12-2025 07:00:00,22.6025571,88.3105664,CO,7,86,28
India,West_Bengal,Howrah,"Ghusuri, Howrah - WBPCB",17-12-2025 07:00:00,22.611968,88.347422,PM2.5,219,500,337
India,West_Bengal,Howrah,"Padmapukur, Howrah - WBPCB",17-12-2025 07:00:00,22.5687319,88.2797276,PM10,152,404,256
India,West_Bengal,Howrah,"Padmapukur, Howrah - WBPCB",17-12-2025 07:00:00,22.5687319,88.2797276,NH3,2,2,2
India,West_Bengal,Kolkata,"Ballygunge, Kolkata - WBPCB",17-12-2025 07:00:00,22.5367507,88.3638022,PM10,103,191,134
India,West_Bengal,Kolkata,"Bidhannagar, Kolkata - WBPCB",17-12-2025 07:00:00,22.58157048,88.41002457,SO2,8,12,11
India,West_Bengal,Kolkata,"Bidhannagar, Kolkata - WBPCB",17-12-2025 07:00:00,22.58157048,88.41002457,OZONE,11,39,12
India,West_Bengal,Kolkata,"Fort William, Kolkata - WBPCB",17-12-2025 07:00:00,22.556640,88.342674,PM10,89,164,126
India,West_Bengal,Kolkata,"Fort William, Kolkata - WBPCB",17-12-2025 07:00:00,22.556640,88.342674,SO2,9,23,14
India,West_Bengal,Kolkata,"Fort William, Kolkata - WBPCB",17-12-2025 07:00:00,22.556640,88.342674,CO,29,108,86
India,West_Bengal,Kolkata,"Fort William, Kolkata - WBPCB",17-12-2025 07:00:00,22.556640,88.342674,OZONE,21,89,31
India,West_Bengal,Kolkata,"Jadavpur, Kolkata - WBPCB",17-12-2025 07:00:00,22.49929,88.36917,NO2,27,142,71
India,West_Bengal,Kolkata,"Jadavpur, Kolkata - WBPCB",17-12-2025 07:00:00,22.49929,88.36917,CO,10,114,101
India,West_Bengal,Kolkata,"Rabindra Sarobar, Kolkata - WBPCB",17-12-2025 07:00:00,22.51106,88.35142,PM10,66,132,93
India,West_Bengal,Kolkata,"Victoria, Kolkata - WBPCB",17-12-2025 07:00:00,22.5448082,88.3403691,PM2.5,203,372,287
India,West_Bengal,Kolkata,"Victoria, Kolkata - WBPCB",17-12-2025 07:00:00,22.5448082,88.3403691,PM10,110,255,173
India,West_Bengal,Kolkata,"Victoria, Kolkata - WBPCB",17-12-2025 07:00:00,22.5448082,88.3403691,NH3,5,5,5
India,Arunachal_Pradesh,Naharlagun,"Naharlagun, Naharlagun - APSPCB",17-12-2025 07:00:00,27.103358,93.679645,SO2,8,10,9
India,Arunachal_Pradesh,Naharlagun,"Naharlagun, Naharlagun - APSPCB",17-12-2025 07:00:00,27.103358,93.679645,CO,7,56,19
India,Arunachal_Pradesh,Naharlagun,"Naharlagun, Naharlagun - APSPCB",17-12-2025 07:00:00,27.103358,93.679645,OZONE,5,6,5
India,Assam,Byrnihat,"Central Academy for SFS, Byrnihat - PCBA",17-12-2025 07:00:00,26.071318,91.87488,SO2,5,13,7
India,Assam,Guwahati,"LGBI Airport, Guwahati - PCBA",17-12-2025 07:00:00,26.10887,91.589544,NH3,4,6,5
India,Assam,Guwahati,"LGBI Airport, Guwahati - PCBA",17-12-2025 07:00:00,26.10887,91.589544,CO,7,126,18
India,Assam,Guwahati,"Pan Bazaar, Guwahati - PCBA",17-12-2025 07:00:00,26.187500,91.744194,PM2.5,25,256,111
India,Assam,Guwahati,"Pan Bazaar, Guwahati - PCBA",17-12-2025 07:00:00,26.187500,91.744194,SO2,19,41,29
India,Andhra_Pradesh,Rajamahendravaram,"Anand Kala Kshetram, Rajamahendravaram - APPCB",17-12-2025 07:00:00,16.9872867,81.7363176,PM10,117,169,139
India,Andhra_Pradesh,Rajamahendravaram,"Anand Kala Kshetram, Rajamahendravaram - APPCB",17-12-2025 07:00:00,16.9872867,81.7363176,NH3,2,9,5
India,Andhra_Pradesh,Tirumala,"Toll Gate, Tirumala - APPCB",17-12-2025 07:00:00,13.67,79.35,CO,4,70,11
India,Andhra_Pradesh,Tirupati,"Vaikuntapuram, Tirupati - APPCB",17-12-2025 07:00:00,13.615387,79.409230,NO2,14,16,15
India,Andhra_Pradesh,Tirupati,"Vaikuntapuram, Tirupati - APPCB",17-12-2025 07:00:00,13.615387,79.409230,SO2,15,24,17
India,Andhra_Pradesh,Vijayawada,"HB Colony, Vijayawada - APPCB",17-12-2025 07:00:00,16.536107,80.594233,PM2.5,46,70,59
India,Andhra_Pradesh,Vijayawada,"HB Colony, Vijayawada - APPCB",17-12-2025 07:00:00,16.536107,80.594233,OZONE,NA,NA,NA
India,Andhra_Pradesh,Vijayawada,"Kanuru, Vijayawada - APPCB",17-12-2025 07:00:00,16.486692,80.699436,PM10,29,84,56
India,Andhra_Pradesh,Vijayawada,"Kanuru, Vijayawada - APPCB",17-12-2025 07:00:00,16.486692,80.699436,NO2,27,60,36
India,Andhra_Pradesh,Vijayawada,"Kanuru, Vijayawada - APPCB",17-12-2025 07:00:00,16.486692,80.699436,SO2,9,17,13
India,Andhra_Pradesh,Vijayawada,"Rajiv Nagar, Vijayawada - APPCB",17-12-2025 07:00:00,16.554731,80.649110,NO2,7,10,8
India,Andhra_Pradesh,Visakhapatnam,"GVM Corporation, Visakhapatnam - APPCB",17-12-2025 07:00:00,17.72,83.3,NH3,3,4,4
India,Andhra_Pradesh,Visakhapatnam,"GVM Corporation, Visakhapatnam - APPCB",17-12-2025 07:00:00,17.72,83.3,SO2,10,24,16
India,Bihar,Aurangabad,"Gurdeo Nagar, Aurangabad - BSPCB",17-12-2025 07:00:00,24.75746,84.366208,CO,101,104,102
India,Bihar,Begusarai,"Lohiyanagar, Begusarai - BSPCB",17-12-2025 07:00:00,25.42742023,86.13886079,PM2.5,23,359,139
India,Bihar,Begusarai,"Lohiyanagar, Begusarai - BSPCB",17-12-2025 07:00:00,25.42742023,86.13886079,PM10,43,410,144
India,Bihar,Bettiah,"Kamalnath Nagar, Bettiah - BSPCB",17-12-2025 07:00:00,26.80365,84.51954,PM10,58,135,100
India,Bihar,Bhagalpur,"DM Office_Kachari Chowk, Bhagalpur - BSPCB",17-12-2025 07:00:00,25.251013,86.989001,PM2.5,42,173,98
India,Bihar,Bhagalpur,"DM Office_Kachari Chowk, Bhagalpur - BSPCB",17-12-2025 07:00:00,25.251013,86.989001,NO2,6,14,9
India,Andaman and Nicobar,Sri Vijaya Puram,"Police Line, Sri Vijaya Puram - ANPCC",17-12-2025 07:00:00,11.654054,92.734055,NO2,10,32,16
India,Andaman and Nicobar,Sri Vijaya Puram,"Police Line, Sri Vijaya Puram - ANPCC",17-12-2025 07:00:00,11.654054,92.734055,CO,19,46,24
India,Andhra_Pradesh,Amaravati,"Secretariat, Amaravati - APPCB",17-12-2025 07:00:00,16.5150833,80.5181667,PM10,98,256,150
India,Andhra_Pradesh,Amaravati,"Secretariat, Amaravati - APPCB",17-12-2025 07:00:00,16.5150833,80.5181667,OZONE,1,64,21
India,Andhra_Pradesh,Anantapur,"Gulzarpet, Anantapur - APPCB",17-12-2025 07:00:00,14.675886,77.593027,NH3,6,7,6
India,Andhra_Pradesh,Anantapur,"Gulzarpet, Anantapur - APPCB",17-12-2025 07:00:00,14.675886,77.593027,SO2,10,14,12
India,Assam,Nagaon,"Christianpatty, Nagaon - PCBA",17-12-2025 07:00:00,26.349082,92.68449,PM2.5,64,192,111
India,Assam,Silchar,"Tarapur, Silchar - PCBA",17-12-2025 07:00:00,24.82827,92.79525,PM2.5,35,73,53
India,Assam,Silchar,"Tarapur, Silchar - PCBA",17-12-2025 07:00:00,24.82827,92.79525,NO2,20,25,21
India,Andhra_Pradesh,Chittoor,"Gangineni Cheruvu, Chittoor - APPCB",17-12-2025 07:00:00,13.204880,79.097889,NH3,6,7,7
India,Andhra_Pradesh,Kadapa,"Yerramukkapalli, Kadapa - APPCB",17-12-2025 07:00:00,14.465052,78.824187,NO2,20,26,23
India,Assam,Sivasagar,"Girls College, Sivasagar - PCBA",17-12-2025 07:00:00,26.987634,94.636574,OZONE,3,78,4
India,Bihar,Araria,"Kharahiya Basti, Araria - BSPCB",17-12-2025 07:00:00,26.146529,87.454184,NO2,1,99,16
India,Bihar,Bhagalpur,"DM Office_Kachari Chowk, Bhagalpur - BSPCB",17-12-2025 07:00:00,25.251013,86.989001,SO2,31,54,42
India,Bihar,Buxar,"Charitra Van, Buxar - BSPCB",17-12-2025 07:00:00,25.567520,83.966379,NO2,9,10,10
India,Andaman and Nicobar,Sri Vijaya Puram,"Police Line, Sri Vijaya Puram - ANPCC",17-12-2025 07:00:00,11.654054,92.734055,PM2.5,32,48,39
India,Chhattisgarh,Bhilai,"Civic Center, Bhilai - Bhilai Steel Plant",17-12-2025 07:00:00,21.185571,81.343175,NO2,22,22,22
India,Chhattisgarh,Bhilai,"Hathkhoj, Bhilai - CECB",17-12-2025 07:00:00,21.224231,81.408350,PM10,41,162,87
India,Chhattisgarh,Bilaspur,"Mangala, Bilaspur - NTPC",17-12-2025 07:00:00,22.08815,82.13737,PM2.5,77,301,140
India,Chhattisgarh,Chhal,"Nawapara SECL Colony, Chhal - CECB",17-12-2025 07:00:00,22.118125,83.140608,CO,35,71,46
India,Chhattisgarh,Chhal,"Nawapara SECL Colony, Chhal - CECB",17-12-2025 07:00:00,22.118125,83.140608,OZONE,4,160,11
India,Chhattisgarh,Korba,"Rampur, Korba - CECB",17-12-2025 07:00:00,22.368195,82.746431,PM10,NA,NA,NA
India,Bihar,Patna,"Muradpur, Patna - BSPCB",17-12-2025 07:00:00,25.619651,85.147382,NO2,6,8,7
India,Bihar,Patna,"Muradpur, Patna - BSPCB",17-12-2025 07:00:00,25.619651,85.147382,SO2,8,10,9
India,Bihar,Patna,"Muradpur, Patna - BSPCB",17-12-2025 07:00:00,25.619651,85.147382,OZONE,4,23,5
India,Bihar,Patna,"Rajbansi Nagar, Patna - BSPCB",17-12-2025 07:00:00,25.599486,85.113666,NH3,1,10,6
India,Bihar,Patna,"Rajbansi Nagar, Patna - BSPCB",17-12-2025 07:00:00,25.599486,85.113666,SO2,6,9,7
India,Bihar,Patna,"Rajbansi Nagar, Patna - BSPCB",17-12-2025 07:00:00,25.599486,85.113666,CO,43,119,72
India,Bihar,Patna,"Rajbansi Nagar, Patna - BSPCB",17-12-2025 07:00:00,25.599486,85.113666,OZONE,22,30,26
India,Bihar,Purnia,"Mariam Nagar, Purnia - BSPCB",17-12-2025 07:00:00,25.366336,87.117468,PM10,25,105,71
India,Bihar,Purnia,"Mariam Nagar, Purnia - BSPCB",17-12-2025 07:00:00,25.366336,87.117468,CO,46,63,60
India,Chandigarh,Chandigarh,"Sector 22, Chandigarh - CPCC",17-12-2025 07:00:00,30.735567,76.775714,NO2,28,70,45
India,Chandigarh,Chandigarh,"Sector 22, Chandigarh - CPCC",17-12-2025 07:00:00,30.735567,76.775714,SO2,6,19,9
India,Chandigarh,Chandigarh,"Sector 22, Chandigarh - CPCC",17-12-2025 07:00:00,30.735567,76.775714,CO,55,104,94
India,Chandigarh,Chandigarh,"Sector-25, Chandigarh - CPCC",17-12-2025 07:00:00,30.751462,76.762879,NH3,NA,NA,NA
India,Chandigarh,Chandigarh,"Sector-53, Chandigarh - CPCC",17-12-2025 07:00:00,30.719859,76.738637,CO,42,90,77
India,Chandigarh,Chandigarh,"Sector-53, Chandigarh - CPCC",17-12-2025 07:00:00,30.719859,76.738637,OZONE,5,84,20
India,Chhattisgarh,Bhilai,"32Bungalows, Bhilai - CECB",17-12-2025 07:00:00,21.194815,81.314770,CO,57,107,92
India,Bihar,Rajgir,"Dangi Tola, Rajgir - BSPCB",17-12-2025 07:00:00,25.03280,85.41948,NO2,8,10,9
India,Bihar,Rajgir,"Dangi Tola, Rajgir - BSPCB",17-12-2025 07:00:00,25.03280,85.41948,CO,39,106,93
India,Bihar,Saharsa,"Police Line, Saharsa - BSPCB",17-12-2025 07:00:00,25.892357,86.590325,PM10,43,161,101
India,Bihar,Samastipur,"DM Office_Kasipur, Samastipur - BSPCB",17-12-2025 07:00:00,25.859655,85.77944,PM2.5,NA,NA,NA
India,Bihar,Samastipur,"DM Office_Kasipur, Samastipur - BSPCB",17-12-2025 07:00:00,25.859655,85.77944,SO2,NA,NA,NA
India,Bihar,Siwan,"Chitragupta Nagar, Siwan - BSPCB",17-12-2025 07:00:00,26.2271665,84.3570427,PM10,NA,NA,NA
India,Bihar,Muzaffarpur,"MIT-Daudpur Kothi, Muzaffarpur - BSPCB",17-12-2025 07:00:00,26.1403345,85.3650192,OZONE,16,64,20
India,Bihar,Patna,"DRM Office Danapur, Patna - BSPCB",17-12-2025 07:00:00,25.586562,85.043586,PM2.5,198,331,274
India,Bihar,Patna,"DRM Office Danapur, Patna - BSPCB",17-12-2025 07:00:00,25.586562,85.043586,SO2,11,23,14
India,Bihar,Patna,"Govt. High School Shikarpur, Patna - BSPCB",17-12-2025 07:00:00,25.592539,85.227158,OZONE,8,11,10
India,Bihar,Patna,"IGSC Planetarium Complex, Patna - BSPCB",17-12-2025 07:00:00,25.610369,85.132568,PM2.5,NA,NA,NA
India,Bihar,Kishanganj,"SDM Office_Khagra, Kishanganj - BSPCB",17-12-2025 07:00:00,26.0881305,87.93840336,OZONE,14,18,16
India,Bihar,Manguraha,"Forest Rest House, Manguraha - BSPCB",17-12-2025 07:00:00,27.308328,84.531742,OZONE,10,31,10
India,Bihar,Muzaffarpur,"Buddha Colony, Muzaffarpur - BSPCB",17-12-2025 07:00:00,26.11442,85.39813,OZONE,7,66,12
India,Bihar,Muzaffarpur,"MIT-Daudpur Kothi, Muzaffarpur - BSPCB",17-12-2025 07:00:00,26.1403345,85.3650192,PM10,66,79,73
India,Chhattisgarh,Korba,"Rampur, Korba - CECB",17-12-2025 07:00:00,22.368195,82.746431,SO2,6,89,23
India,Chhattisgarh,Korba,"Rampur, Korba - CECB",17-12-2025 07:00:00,22.368195,82.746431,OZONE,NA,NA,NA
India,Chhattisgarh,Korba,"Urja Nagar, Korba - CECB",17-12-2025 07:00:00,22.348441,82.549611,PM2.5,80,85,81
India,Chhattisgarh,Korba,"Urja Nagar, Korba - CECB",17-12-2025 07:00:00,22.348441,82.549611,PM10,92,93,93
India,Chhattisgarh,Kunjemura,"OP Jindal School, Kunjemura - CECB",17-12-2025 07:00:00,22.126650,83.483212,SO2,4,86,32
India,Bihar,Buxar,"Charitra Van, Buxar - BSPCB",17-12-2025 07:00:00,25.567520,83.966379,CO,22,28,23
India,Bihar,Chhapra,"Darshan Nagar, Chhapra - BSPCB",17-12-2025 07:00:00,25.7808257,84.7446768,PM2.5,47,180,102
India,Bihar,Chhapra,"Darshan Nagar, Chhapra - BSPCB",17-12-2025 07:00:00,25.7808257,84.7446768,SO2,43,53,48
India,Bihar,Gaya,"SFTI Kusdihra, Gaya - BSPCB",17-12-2025 07:00:00,24.762518,84.982348,NH3,4,5,4
India,Bihar,Gaya,"SFTI Kusdihra, Gaya - BSPCB",17-12-2025 07:00:00,24.762518,84.982348,SO2,4,11,9
India,Bihar,Katihar,"Mirchaibari, Katihar - BSPCB",17-12-2025 07:00:00,25.560083,87.553265,PM10,47,121,89
India,Delhi,Delhi,"IIT Delhi, Delhi - IITM",17-12-2025 07:00:00,28.542460,77.191651,PM10,136,247,184
India,Delhi,Delhi,"IIT Delhi, Delhi - IITM",17-12-2025 07:00:00,28.542460,77.191651,CO,18,66,40
India,Delhi,Delhi,"ITO, Delhi - CPCB",17-12-2025 07:00:00,28.628624,77.241060,CO,30,103,51
India,Delhi,Delhi,"Jahangirpuri, Delhi - DPCC",17-12-2025 07:00:00,28.732820,77.170633,PM2.5,223,413,361
India,Delhi,Delhi,"Jahangirpuri, Delhi - DPCC",17-12-2025 07:00:00,28.732820,77.170633,CO,40,112,85
India,Delhi,Delhi,"Jawaharlal Nehru Stadium, Delhi - DPCC",17-12-2025 07:00:00,28.580280,77.233829,PM2.5,207,383,324
India,Delhi,Delhi,"Lodhi Road, Delhi - IITM",17-12-2025 07:00:00,28.588333,77.221667,PM2.5,179,340,289
India,Delhi,Delhi,"Lodhi Road, Delhi - IMD",17-12-2025 07:00:00,28.5918245,77.2273074,NO2,24,58,38
India,Delhi,Delhi,"Lodhi Road, Delhi - IMD",17-12-2025 07:00:00,28.5918245,77.2273074,CO,24,56,40
India,Delhi,Delhi,"Major Dhyan Chand National Stadium, Delhi - DPCC",17-12-2025 07:00:00,28.611281,77.237738,PM10,152,316,237
India,Delhi,Delhi,"Major Dhyan Chand National Stadium, Delhi - DPCC",17-12-2025 07:00:00,28.611281,77.237738,NO2,39,156,91
India,Delhi,Delhi,"Mandir Marg, Delhi - DPCC",17-12-2025 07:00:00,28.636429,77.201067,OZONE,9,72,19
India,Delhi,Delhi,"Mundka, Delhi - DPCC",17-12-2025 07:00:00,28.684678,77.076574,NH3,12,18,15
India,Delhi,Delhi,"Mundka, Delhi - DPCC",17-12-2025 07:00:00,28.684678,77.076574,CO,51,104,69
India,Delhi,Delhi,"DTU, Delhi - CPCB",17-12-2025 07:00:00,28.7500499,77.1112615,CO,8,54,48
India,Delhi,Delhi,"DTU, Delhi - CPCB",17-12-2025 07:00:00,28.7500499,77.1112615,OZONE,13,28,14
India,Delhi,Delhi,"Dr. Karni Singh Shooting Range, Delhi - DPCC",17-12-2025 07:00:00,28.498571,77.264840,NO2,30,109,56
India,Delhi,Delhi,"Dr. Karni Singh Shooting Range, Delhi - DPCC",17-12-2025 07:00:00,28.498571,77.264840,NH3,9,13,11
India,Delhi,Delhi,"Dwarka-Sector 8, Delhi - DPCC ",17-12-2025 07:00:00,28.5710274,77.0719006,PM2.5,260,390,342
India,Delhi,Delhi,"Dwarka-Sector 8, Delhi - DPCC ",17-12-2025 07:00:00,28.5710274,77.0719006,NO2,54,142,83
India,Delhi,Delhi,"Najafgarh, Delhi - DPCC",17-12-2025 07:00:00,28.570173,76.933762,SO2,6,70,26
India,Delhi,Delhi,"Najafgarh, Delhi - DPCC",17-12-2025 07:00:00,28.570173,76.933762,OZONE,4,7,4
India,Delhi,Delhi,"Narela, Delhi - DPCC",17-12-2025 07:00:00,28.822836,77.101981,PM2.5,202,418,341
India,Delhi,Delhi,"Narela, Delhi - DPCC",17-12-2025 07:00:00,28.822836,77.101981,PM10,147,330,235
India,Delhi,Delhi,"Narela, Delhi - DPCC",17-12-2025 07:00:00,28.822836,77.101981,NO2,12,76,34
India,Delhi,Delhi,"North Campus, DU, Delhi - IMD",17-12-2025 07:00:00,28.6573814,77.1585447,PM10,142,281,213
India,Delhi,Delhi,"North Campus, DU, Delhi - IMD",17-12-2025 07:00:00,28.6573814,77.1585447,NO2,42,195,104
India,Delhi,Delhi,"Okhla Phase-2, Delhi - DPCC",17-12-2025 07:00:00,28.530785,77.271255,PM10,170,290,226
India,Delhi,Delhi,"Punjabi Bagh, Delhi - DPCC",17-12-2025 07:00:00,28.674045,77.131023,PM2.5,57,427,339
India,Delhi,Delhi,"Punjabi Bagh, Delhi - DPCC",17-12-2025 07:00:00,28.674045,77.131023,SO2,2,15,7
India,Delhi,Delhi,"Pusa, Delhi - DPCC",17-12-2025 07:00:00,28.639652,77.146275,PM10,209,500,314
India,Delhi,Delhi,"Bawana, Delhi - DPCC",17-12-2025 07:00:00,28.776200,77.051074,NH3,8,12,9
India,Delhi,Delhi,"Bawana, Delhi - DPCC",17-12-2025 07:00:00,28.776200,77.051074,CO,60,112,82
India,Delhi,Delhi,"Burari Crossing, Delhi - IMD",17-12-2025 07:00:00,28.7256504,77.2011573,PM10,182,278,221
India,Delhi,Delhi,"Burari Crossing, Delhi - IMD",17-12-2025 07:00:00,28.7256504,77.2011573,OZONE,13,189,32
India,Delhi,Delhi,"Chandni Chowk, Delhi - IITM",17-12-2025 07:00:00,28.656756,77.227234,PM10,185,374,283
India,Chhattisgarh,Raipur,"Krishak Nagar, Raipur - CECB",17-12-2025 07:00:00,21.237755,81.705301,NH3,2,2,2
India,Chhattisgarh,Raipur,"Krishak Nagar, Raipur - CECB",17-12-2025 07:00:00,21.237755,81.705301,CO,34,64,59
India,Chhattisgarh,Raipur,"Siltara Phase-II, Raipur - CECB",17-12-2025 07:00:00,21.371751,81.664929,SO2,3,13,6
India,Chhattisgarh,Tumidih,"OP Jindal Industrial Park, Tumidih - CECB",17-12-2025 07:00:00,22.06631475,83.33820077,NO2,44,95,69
India,Chhattisgarh,Raipur,"AIIMS, Raipur - CECB",17-12-2025 07:00:00,21.258815,81.578979,PM10,33,102,64
India,Chhattisgarh,Raipur,"AIIMS, Raipur - CECB",17-12-2025 07:00:00,21.258815,81.578979,NO2,59,97,81
India,Chhattisgarh,Raipur,"Bhatagaon New ISBT, Raipur - CECB",17-12-2025 07:00:00,21.219665,81.630094,NO2,2,59,28
India,Chhattisgarh,Raipur,"Bhatagaon New ISBT, Raipur - CECB",17-12-2025 07:00:00,21.219665,81.630094,NH3,2,2,2
India,Chhattisgarh,Raipur,"Krishak Nagar, Raipur - CECB",17-12-2025 07:00:00,21.237755,81.705301,PM2.5,40,126,71
India,Delhi,Delhi,"Anand Vihar, Delhi - DPCC",17-12-2025 07:00:00,28.647622,77.3158090,PM2.5,113,411,341
India,Delhi,Delhi,"Ashok Vihar, Delhi - DPCC",17-12-2025 07:00:00,28.695381,77.181665,PM2.5,220,404,350
India,Delhi,Delhi,"Aya Nagar, Delhi - IMD",17-12-2025 07:00:00,28.4706914,77.1099364,PM10,144,303,208
India,Delhi,Delhi,"Bawana, Delhi - DPCC",17-12-2025 07:00:00,28.776200,77.051074,PM2.5,267,453,378
India,Gujarat,Ahmedabad,"SVPI Airport Hansol, Ahmedabad - IITM",17-12-2025 07:00:00,23.076793,72.627874,NO2,37,118,73
India,Gujarat,Ankleshwar,"GIDC, Ankleshwar - GPCB",17-12-2025 07:00:00,21.613267,73.010555,SO2,34,40,39
India,Gujarat,Gandhinagar,"IIPHG Lekawada, Gandhinagar - IITM",17-12-2025 07:00:00,23.243639,72.68994,NO2,7,8,7
India,Gujarat,Gandhinagar,"IIPHG Lekawada, Gandhinagar - IITM",17-12-2025 07:00:00,23.243639,72.68994,NH3,2,3,2
India,Gujarat,Gandhinagar,"IIPHG Lekawada, Gandhinagar - IITM",17-12-2025 07:00:00,23.243639,72.68994,OZONE,2,47,3
India,Gujarat,Gandhinagar,"Sector-10, Gandhinagar - GPCB",17-12-2025 07:00:00,23.221714,72.654328,PM10,62,108,85
India,Gujarat,Surat,"Science Center, Surat - SMC",17-12-2025 07:00:00,21.170046,72.795405,PM10,41,110,78
India,Gujarat,Surat,"Science Center, Surat - SMC",17-12-2025 07:00:00,21.170046,72.795405,CO,36,45,41
India,Gujarat,Vapi,"Phase-1 GIDC, Vapi - GPCB",17-12-2025 07:00:00,20.362421,72.918013,PM2.5,31,189,87
India,Gujarat,Vapi,"Phase-1 GIDC, Vapi - GPCB",17-12-2025 07:00:00,20.362421,72.918013,SO2,29,32,31
India,Gujarat,Vatva,"Phase-4 GIDC, Vatva - GPCB",17-12-2025 07:00:00,22.969611,72.643500,NO2,40,42,41
India,Gujarat,Vatva,"Phase-4 GIDC, Vatva - GPCB",17-12-2025 07:00:00,22.969611,72.643500,SO2,1,6,4
India,Gujarat,Vatva,"Phase-4 GIDC, Vatva - GPCB",17-12-2025 07:00:00,22.969611,72.643500,OZONE,18,44,19
India,Delhi,Delhi,"Shadipur, Delhi - CPCB",17-12-2025 07:00:00,28.6514781,77.1473105,CO,34,104,50
India,Delhi,Delhi,"Sirifort, Delhi - CPCB",17-12-2025 07:00:00,28.5504249,77.2159377,PM10,184,442,262
India,Delhi,Delhi,"Sirifort, Delhi - CPCB",17-12-2025 07:00:00,28.5504249,77.2159377,CO,14,60,48
India,Delhi,Delhi,"Sirifort, Delhi - CPCB",17-12-2025 07:00:00,28.5504249,77.2159377,OZONE,8,34,8
India,Delhi,Delhi,"Sonia Vihar, Delhi - DPCC",17-12-2025 07:00:00,28.710508,77.249485,NH3,9,14,11
India,Delhi,Delhi,"Vivek Vihar, Delhi - DPCC",17-12-2025 07:00:00,28.672342,77.315260,PM2.5,244,403,354
India,Delhi,Delhi,"Pusa, Delhi - DPCC",17-12-2025 07:00:00,28.639652,77.146275,CO,52,112,66
India,Delhi,Delhi,"Pusa, Delhi - IMD",17-12-2025 07:00:00,28.636110,77.173332,NO2,NA,NA,NA
India,Delhi,Delhi,"Pusa, Delhi - IMD",17-12-2025 07:00:00,28.636110,77.173332,CO,NA,NA,NA
India,Delhi,Delhi,"R K Puram, Delhi - DPCC",17-12-2025 07:00:00,28.563262,77.186937,NO2,36,127,77
India,Delhi,Delhi,"R K Puram, Delhi - DPCC",17-12-2025 07:00:00,28.563262,77.186937,NH3,8,11,10
India,Delhi,Delhi,"R K Puram, Delhi - DPCC",17-12-2025 07:00:00,28.563262,77.186937,OZONE,15,139,24
India,Delhi,Delhi,"Rohini, Delhi - DPCC",17-12-2025 07:00:00,28.732528,77.119920,OZONE,8,130,37
India,Haryana,Faridabad,"New Industrial Town, Faridabad - HSPCB",17-12-2025 07:00:00,28.39072,77.30059,OZONE,26,34,30
India,Haryana,Faridabad,"Sector 11, Faridabad - HSPCB",17-12-2025 07:00:00,28.376058,77.315741,NO2,30,33,31
India,Haryana,Faridabad,"Sector 11, Faridabad - HSPCB",17-12-2025 07:00:00,28.376058,77.315741,SO2,4,5,4
India,Haryana,Fatehabad,"Huda Sector, Fatehabad - HSPCB",17-12-2025 07:00:00,29.503664,75.467934,NO2,18,20,19
India,Delhi,Delhi,"Vivek Vihar, Delhi - DPCC",17-12-2025 07:00:00,28.672342,77.315260,NH3,13,16,15
India,Delhi,Delhi,"Vivek Vihar, Delhi - DPCC",17-12-2025 07:00:00,28.672342,77.315260,SO2,9,21,15
India,Delhi,Delhi,"Wazirpur, Delhi - DPCC",17-12-2025 07:00:00,28.699793,77.165453,NO2,61,151,92
India,Gujarat,Ahmedabad,"Chandkheda, Ahmedabad - IITM",17-12-2025 07:00:00,23.107969,72.574648,OZONE,18,60,29
India,Gujarat,Ahmedabad,"Rakhial, Ahmedabad - IITM",17-12-2025 07:00:00,23.016834,72.625775,PM10,95,128,113
India,Gujarat,Ahmedabad,"Rakhial, Ahmedabad - IITM",17-12-2025 07:00:00,23.016834,72.625775,OZONE,36,79,47
India,Gujarat,Ahmedabad,"SAC ISRO Bopal, Ahmedabad - IITM",17-12-2025 07:00:00,23.041137,72.456691,NH3,10,14,12
India,Gujarat,Ahmedabad,"SAC ISRO Satellite, Ahmedabad - IITM",17-12-2025 07:00:00,23.023389,72.515201,CO,22,62,32
India,Haryana,Bahadurgarh,"Arya Nagar, Bahadurgarh - HSPCB",17-12-2025 07:00:00,28.6701,76.9254,NO2,12,14,13
India,Haryana,Bhiwani,"H.B. Colony, Bhiwani - HSPCB",17-12-2025 07:00:00,28.806223,76.141105,PM10,79,197,92
India,Haryana,Bhiwani,"H.B. Colony, Bhiwani - HSPCB",17-12-2025 07:00:00,28.806223,76.141105,NO2,1,35,31
India,Haryana,Bhiwani,"H.B. Colony, Bhiwani - HSPCB",17-12-2025 07:00:00,28.806223,76.141105,CO,10,14,12
India,Gujarat,Ahmedabad,"Gyaspur, Ahmedabad - IITM",17-12-2025 07:00:00,22.977134,72.553024,OZONE,12,54,17
India,Gujarat,Ahmedabad,"Maninagar, Ahmedabad - GPCB",17-12-2025 07:00:00,23.002657,72.591912,PM10,55,180,98
India,Haryana,Palwal,"Shyam Nagar, Palwal - HSPCB",17-12-2025 07:00:00,28.1485564,77.3320667,CO,12,38,25
India,Haryana,Panchgaon,"Amity University, Panchgaon - IITM",17-12-2025 07:00:00,28.3153,76.9143,CO,1,42,23
India,Haryana,Panchkula,"Sector-6, Panchkula - HSPCB ",17-12-2025 07:00:00,30.7057778,76.8531805555555,NO2,24,26,25
India,Haryana,Panchkula,"Sector-6, Panchkula - HSPCB ",17-12-2025 07:00:00,30.7057778,76.8531805555555,SO2,8,9,9
India,Haryana,Panchkula,"Sector-6, Panchkula - HSPCB ",17-12-2025 07:00:00,30.7057778,76.8531805555555,CO,21,26,25
India,Haryana,Panipat,"Sector-18, Panipat - HSPCB",17-12-2025 07:00:00,29.432304,76.972765,PM2.5,NA,NA,NA
India,Haryana,Panipat,"Sector-18, Panipat - HSPCB",17-12-2025 07:00:00,29.432304,76.972765,NH3,NA,NA,NA
India,Haryana,Panipat,"Sector-18, Panipat - HSPCB",17-12-2025 07:00:00,29.432304,76.972765,SO2,NA,NA,NA
India,Haryana,Rohtak,"MD University, Rohtak - HSPCB",17-12-2025 07:00:00,28.52123,76.37138,PM10,215,354,277
India,Haryana,Rohtak,"MD University, Rohtak - HSPCB",17-12-2025 07:00:00,28.52123,76.37138,SO2,10,13,12
India,Haryana,Sirsa,"F-Block, Sirsa - HSPCB",17-12-2025 07:00:00,29.536400,75.015800,NH3,11,14,13
India,Haryana,Sirsa,"F-Block, Sirsa - HSPCB",17-12-2025 07:00:00,29.536400,75.015800,CO,50,92,76
India,Haryana,Sonipat,"Murthal, Sonipat - HSPCB",17-12-2025 07:00:00,29.027200,77.062100,PM10,131,282,203
India,Haryana,Sonipat,"Murthal, Sonipat - HSPCB",17-12-2025 07:00:00,29.027200,77.062100,OZONE,25,26,26
India,Haryana,Yamuna Nagar,"Gobind Pura, Yamuna Nagar - HSPCB",17-12-2025 07:00:00,30.1480566,77.2893471,PM2.5,NA,NA,NA
India,Haryana,Yamuna Nagar,"Gobind Pura, Yamuna Nagar - HSPCB",17-12-2025 07:00:00,30.1480566,77.2893471,CO,4,106,60
India,Himachal Pradesh,Baddi,"HIMUDA Complex Phase-1, Baddi - HPPCB",17-12-2025 07:00:00,30.943887,76.801991,NO2,15,62,38
India,Himachal Pradesh,Baddi,"HIMUDA Complex Phase-1, Baddi - HPPCB",17-12-2025 07:00:00,30.943887,76.801991,CO,52,100,78
India,Himachal Pradesh,Baddi,"HIMUDA Complex Phase-1, Baddi - HPPCB",17-12-2025 07:00:00,30.943887,76.801991,OZONE,10,133,40
India,Haryana,Kurukshetra,"Sector-7, Kurukshetra - HSPCB",17-12-2025 07:00:00,29.966942,76.875879,SO2,1,15,8
India,Haryana,Kurukshetra,"Sector-7, Kurukshetra - HSPCB",17-12-2025 07:00:00,29.966942,76.875879,CO,26,57,48
India,Haryana,Mandikhera,"General Hospital, Mandikhera(Nuh) - HSPCB",17-12-2025 07:00:00,27.9002,76.9938,NO2,19,23,21
India,Haryana,Manesar,"Sector-2 IMT, Manesar - HSPCB",17-12-2025 07:00:00,28.360699,76.936090,SO2,9,18,14
India,Haryana,Manesar,"Sector-2 IMT, Manesar - HSPCB",17-12-2025 07:00:00,28.360699,76.936090,OZONE,8,10,9
India,Haryana,Narnaul,"Shastri Nagar, Narnaul - HSPCB",17-12-2025 07:00:00,28.060249,76.113115,PM10,152,244,196
India,Haryana,Narnaul,"Shastri Nagar, Narnaul - HSPCB",17-12-2025 07:00:00,28.060249,76.113115,NH3,29,53,41
India,Haryana,Narnaul,"Shastri Nagar, Narnaul - HSPCB",17-12-2025 07:00:00,28.060249,76.113115,SO2,4,5,4
India,Haryana,Narnaul,"Shastri Nagar, Narnaul - HSPCB",17-12-2025 07:00:00,28.060249,76.113115,CO,14,30,27
India,Karnataka,Bengaluru,"Peenya, Bengaluru - CPCB",17-12-2025 07:00:00,13.0270199,77.494094,CO,21,68,27
India,Karnataka,Bengaluru,"RVCE-Mailasandra, Bengaluru - KSPCB",17-12-2025 07:00:00,12.921418,77.502466,NH3,2,2,2
India,Karnataka,Bengaluru,"Sanegurava Halli, Bengaluru - KSPCB",17-12-2025 07:00:00,12.990328,77.5431385,PM10,47,62,51
India,Karnataka,Bengaluru,"Sanegurava Halli, Bengaluru - KSPCB",17-12-2025 07:00:00,12.990328,77.5431385,CO,17,36,23
India,Karnataka,Bengaluru,"Silk Board, Bengaluru - KSPCB",17-12-2025 07:00:00,12.917348,77.622813,SO2,3,11,7
India,Karnataka,Bengaluru,"Silk Board, Bengaluru - KSPCB",17-12-2025 07:00:00,12.917348,77.622813,OZONE,7,32,15
India,Jammu_and_Kashmir,Srinagar,"Rajbagh, Srinagar - JKSPCB",17-12-2025 07:00:00,34.066206,74.819820,NO2,NA,NA,NA
India,Jharkhand,Dhanbad,"Sardar Patel Nagar, Dhanbad - JSPCB",17-12-2025 07:00:00,23.80569,86.44268,PM10,102,285,159
India,Karnataka,Belgaum,"Ramteerth Nagar, Belgaum - KSPCB",17-12-2025 07:00:00,15.888653,74.541751,PM2.5,33,134,67
India,Karnataka,Belgaum,"Ramteerth Nagar, Belgaum - KSPCB",17-12-2025 07:00:00,15.888653,74.541751,OZONE,19,20,20
India,Karnataka,Bengaluru,"Jayanagar 5th Block, Bengaluru - KSPCB",17-12-2025 07:00:00,12.920984,77.584908,SO2,1,16,9
India,Karnataka,Bengaluru,"Jayanagar 5th Block, Bengaluru - KSPCB",17-12-2025 07:00:00,12.920984,77.584908,OZONE,14,32,25
India,Karnataka,Bengaluru,"Kasturi Nagar, Bengaluru - KSPCB",17-12-2025 07:00:00,13.003872,77.664217,NO2,31,32,31
India,Karnataka,Bengaluru,"Kasturi Nagar, Bengaluru - KSPCB",17-12-2025 07:00:00,13.003872,77.664217,SO2,10,12,11
India,Karnataka,Bengaluru,"Peenya, Bengaluru - CPCB",17-12-2025 07:00:00,13.0270199,77.494094,PM10,59,116,89
India,Haryana,Jind,"Police Lines, Jind - HSPCB",17-12-2025 07:00:00,29.307814,76.337619,NH3,2,3,2
India,Haryana,Kaithal,"Rishi Nagar, Kaithal - HSPCB",17-12-2025 07:00:00,29.8006,76.4155,SO2,NA,NA,NA
India,Haryana,Kurukshetra,"Sector-7, Kurukshetra - HSPCB",17-12-2025 07:00:00,29.966942,76.875879,PM2.5,171,261,217
India,Haryana,Kurukshetra,"Sector-7, Kurukshetra - HSPCB",17-12-2025 07:00:00,29.966942,76.875879,PM10,148,180,165
India,Karnataka,Bengaluru,"BTM Layout, Bengaluru - CPCB",17-12-2025 07:00:00,12.9135218,77.5950804,SO2,17,20,18
India,Karnataka,Bengaluru,"City Railway Station, Bengaluru - KSPCB",17-12-2025 07:00:00,12.9756843,77.5660749,CO,85,88,86
India,Karnataka,Bengaluru,"Jayanagar 5th Block, Bengaluru - KSPCB",17-12-2025 07:00:00,12.920984,77.584908,PM2.5,32,113,66
India,Haryana,Gurugram,"NISE Gwal Pahari, Gurugram - IMD",17-12-2025 07:00:00,28.422681,77.148944,CO,27,72,45
India,Haryana,Gurugram,"Sector-51, Gurugram - HSPCB",17-12-2025 07:00:00,28.4227,77.0667,SO2,1,7,4
India,Haryana,Gurugram,"Teri Gram, Gurugram - HSPCB",17-12-2025 07:00:00,28.4275,77.1465,NH3,4,20,11
India,Karnataka,Mysuru,"Hebbal 1st Stage, Mysuru - KSPCB",17-12-2025 07:00:00,12.21041,76.37376,PM10,45,102,64
