country,state,city,station,last_update,latitude,longitude,pollutant_id,min_value,max_value,avg_value
India,Andhra_Pradesh,Vijayawada,"HB Colony, Vijayawada - APPCB",03-11-2025 07:00:00,16.536107,80.594233,OZONE,11,41,16
India,Andhra_Pradesh,Vijayawada,"Rajiv Gandhi Park, Vijayawada - APPCB",03-11-2025 07:00:00,16.509717,80.612222,PM2.5,57,83,68
India,Andhra_Pradesh,Vijayawada,"Rajiv Gandhi Park, Vijayawada - APPCB",03-11-2025 07:00:00,16.509717,80.612222,PM10,54,80,65
India,Andhra_Pradesh,Vijayawada,"Rajiv Gandhi Park, Vijayawada - APPCB",03-11-2025 07:00:00,16.509717,80.612222,NH3,3,4,4
India,Andhra_Pradesh,Vijayawada,"Rajiv Gandhi Park, Vijayawada - APPCB",03-11-2025 07:00:00,16.509717,80.612222,SO2,20,22,21
India,Andhra_Pradesh,Vijayawada,"Rajiv Nagar, Vijayawada - APPCB",03-11-2025 07:00:00,16.554731,80.649110,NO2,20,20,20
India,Andhra_Pradesh,Visakhapatnam,"GVM Corporation, Visakhapatnam - APPCB",03-11-2025 07:00:00,17.72,83.3,NH3,3,3,3
India,Andhra_Pradesh,Visakhapatnam,"GVM Corporation, Visakhapatnam - APPCB",03-11-2025 07:00:00,17.72,83.3,OZONE,6,156,16
India,Arunachal_Pradesh,Naharlagun,"Naharlagun, Naharlagun - APSPCB",03-11-2025 07:00:00,27.103358,93.679645,PM2.5,2,36,19
India,Bihar,Manguraha,"Forest Rest House, Manguraha - BSPCB",03-11-2025 07:00:00,27.308328,84.531742,SO2,16,17,17
India,Bihar,Motihari,"Gandak Colony, Motihari - BSPCB",03-11-2025 07:00:00,26.63086,84.90051,PM10,NA,NA,NA
India,Bihar,Motihari,"Gandak Colony, Motihari - BSPCB",03-11-2025 07:00:00,26.63086,84.90051,NH3,NA,NA,NA
India,Bihar,Munger,"Town Hall, Munger - BSPCB",03-11-2025 07:00:00,25.376776,86.471523,NH3,4,8,6
India,Bihar,Muzaffarpur,"Buddha Colony, Muzaffarpur - BSPCB",03-11-2025 07:00:00,26.11442,85.39813,PM2.5,14,181,94
India,Bihar,Muzaffarpur,"Buddha Colony, Muzaffarpur - BSPCB",03-11-2025 07:00:00,26.11442,85.39813,NH3,6,9,8
India,Bihar,Muzaffarpur,"Buddha Colony, Muzaffarpur - BSPCB",03-11-2025 07:00:00,26.11442,85.39813,CO,25,84,34
India,Bihar,Muzaffarpur,"MIT-Daudpur Kothi, Muzaffarpur - BSPCB",03-11-2025 07:00:00,26.1403345,85.3650192,PM2.5,25,43,34
India,Andhra_Pradesh,Amaravati,"Secretariat, Amaravati - APPCB",03-11-2025 07:00:00,16.5150833,80.5181667,NO2,13,24,16
India,Andhra_Pradesh,Amaravati,"Secretariat, Amaravati - APPCB",03-11-2025 07:00:00,16.5150833,80.5181667,SO2,5,13,8
India,Andhra_Pradesh,Amaravati,"Secretariat, Amaravati - APPCB",03-11-2025 07:00:00,16.5150833,80.5181667,CO,15,27,20
India,Andhra_Pradesh,Anantapur,"Gulzarpet, Anantapur - APPCB",03-11-2025 07:00:00,14.675886,77.593027,SO2,14,14,14
India,Andhra_Pradesh,Anantapur,"Gulzarpet, Anantapur - APPCB",03-11-2025 07:00:00,14.675886,77.593027,OZONE,32,52,33
India,Andhra_Pradesh,Chittoor,"Gangineni Cheruvu, Chittoor - APPCB",03-11-2025 07:00:00,13.204880,79.097889,PM2.5,45,172,81
India,Andhra_Pradesh,Chittoor,"Gangineni Cheruvu, Chittoor - APPCB",03-11-2025 07:00:00,13.204880,79.097889,PM10,42,122,75
India,Andhra_Pradesh,Chittoor,"Gangineni Cheruvu, Chittoor - APPCB",03-11-2025 07:00:00,13.204880,79.097889,NH3,4,8,5
India,Assam,Nalbari,"Bata Chowk, Nalbari - PCBA",03-11-2025 07:00:00,26.446912,91.439057,PM10,29,131,97
India,Assam,Nalbari,"Bata Chowk, Nalbari - PCBA",03-11-2025 07:00:00,26.446912,91.439057,NH3,5,8,6
India,Assam,Silchar,"Tarapur, Silchar - PCBA",03-11-2025 07:00:00,24.82827,92.79525,PM2.5,24,40,29
India,Assam,Silchar,"Tarapur, Silchar - PCBA",03-11-2025 07:00:00,24.82827,92.79525,NO2,13,17,14
India,Assam,Sivasagar,"Girls College, Sivasagar - PCBA",03-11-2025 07:00:00,26.987634,94.636574,CO,14,31,26
India,Bihar,Araria,"Kharahiya Basti, Araria - BSPCB",03-11-2025 07:00:00,26.146529,87.454184,PM10,29,126,69
India,Bihar,Araria,"Kharahiya Basti, Araria - BSPCB",03-11-2025 07:00:00,26.146529,87.454184,SO2,19,24,21
India,Bihar,Muzaffarpur,"Muzaffarpur Collectorate, Muzaffarpur - BSPCB",03-11-2025 07:00:00,26.1209,85.3647,NO2,5,12,7
India,Bihar,Muzaffarpur,"Muzaffarpur Collectorate, Muzaffarpur - BSPCB",03-11-2025 07:00:00,26.1209,85.3647,SO2,4,5,4
India,Bihar,Muzaffarpur,"Muzaffarpur Collectorate, Muzaffarpur - BSPCB",03-11-2025 07:00:00,26.1209,85.3647,CO,7,32,10
India,Bihar,Patna,"DRM Office Danapur, Patna - BSPCB",03-11-2025 07:00:00,25.586562,85.043586,PM2.5,47,176,108
India,Bihar,Patna,"DRM Office Danapur, Patna - BSPCB",03-11-2025 07:00:00,25.586562,85.043586,NO2,14,50,35
India,Bihar,Patna,"Govt. High School Shikarpur, Patna - BSPCB",03-11-2025 07:00:00,25.592539,85.227158,NH3,4,5,5
India,Bihar,Patna,"Govt. High School Shikarpur, Patna - BSPCB",03-11-2025 07:00:00,25.592539,85.227158,OZONE,8,13,10
India,Assam,Guwahati,"IITG, Guwahati - PCBA",03-11-2025 07:00:00,26.2028636,91.70046436,NO2,NA,NA,NA
India,Assam,Guwahati,"LGBI Airport, Guwahati - PCBA",03-11-2025 07:00:00,26.10887,91.589544,PM10,76,90,81
India,Assam,Guwahati,"LGBI Airport, Guwahati - PCBA",03-11-2025 07:00:00,26.10887,91.589544,NO2,13,118,19
India,Assam,Guwahati,"LGBI Airport, Guwahati - PCBA",03-11-2025 07:00:00,26.10887,91.589544,CO,20,48,36
India,Assam,Guwahati,"Pan Bazaar, Guwahati - PCBA",03-11-2025 07:00:00,26.187500,91.744194,PM10,1,26,10
India,Assam,Guwahati,"Railway Colony, Guwahati - PCBA",03-11-2025 07:00:00,26.181742,91.78063,CO,18,26,20
India,Bihar,Aurangabad,"Gurdeo Nagar, Aurangabad - BSPCB",03-11-2025 07:00:00,24.75746,84.366208,SO2,8,20,11
India,Bihar,Aurangabad,"Gurdeo Nagar, Aurangabad - BSPCB",03-11-2025 07:00:00,24.75746,84.366208,CO,101,103,102
India,Bihar,Aurangabad,"Gurdeo Nagar, Aurangabad - BSPCB",03-11-2025 07:00:00,24.75746,84.366208,OZONE,5,57,7
India,Bihar,Begusarai,"Lohiyanagar, Begusarai - BSPCB",03-11-2025 07:00:00,25.42742023,86.13886079,SO2,39,45,42
India,Bihar,Bettiah,"Kamalnath Nagar, Bettiah - BSPCB",03-11-2025 07:00:00,26.80365,84.51954,PM10,13,151,79
India,Bihar,Bihar Sharif,"D M Colony, Bihar Sharif - BSPCB",03-11-2025 07:00:00,25.204762,85.514960,PM2.5,13,187,96
India,Bihar,Buxar,"Charitra Van, Buxar - BSPCB",03-11-2025 07:00:00,25.567520,83.966379,NH3,3,3,3
India,Bihar,Chhapra,"Darshan Nagar, Chhapra - BSPCB",03-11-2025 07:00:00,25.7808257,84.7446768,PM10,2,87,38
India,Bihar,Chhapra,"Darshan Nagar, Chhapra - BSPCB",03-11-2025 07:00:00,25.7808257,84.7446768,SO2,20,21,20
India,Andhra_Pradesh,Kadapa,"Yerramukkapalli, Kadapa - APPCB",03-11-2025 07:00:00,14.465052,78.824187,PM10,34,66,38
India,Andhra_Pradesh,Rajamahendravaram,"Anand Kala Kshetram, Rajamahendravaram - APPCB",03-11-2025 07:00:00,16.9872867,81.7363176,SO2,2,20,8
India,Andhra_Pradesh,Tirumala,"Toll Gate, Tirumala - APPCB",03-11-2025 07:00:00,13.67,79.35,OZONE,15,29,20
India,Bihar,Hajipur,"Industrial Area, Hajipur - BSPCB",03-11-2025 07:00:00,25.697189,85.245900,PM2.5,28,316,170
India,Bihar,Hajipur,"Industrial Area, Hajipur - BSPCB",03-11-2025 07:00:00,25.697189,85.245900,SO2,2,5,4
India,Bihar,Kishanganj,"SDM Office_Khagra, Kishanganj - BSPCB",03-11-2025 07:00:00,26.0881305,87.93840336,CO,12,14,14
India,Bihar,Patna,"IGSC Planetarium Complex, Patna - BSPCB",03-11-2025 07:00:00,25.610369,85.132568,OZONE,29,34,30
India,Bihar,Patna,"Muradpur, Patna - BSPCB",03-11-2025 07:00:00,25.619651,85.147382,PM10,45,196,132
India,Bihar,Patna,"Muradpur, Patna - BSPCB",03-11-2025 07:00:00,25.619651,85.147382,NO2,2,9,6
India,Bihar,Patna,"Rajbansi Nagar, Patna - BSPCB",03-11-2025 07:00:00,25.599486,85.113666,OZONE,4,7,5
India,Bihar,Patna,"Samanpura, Patna - BSPCB",03-11-2025 07:00:00,25.596727,85.085624,PM2.5,49,190,111
India,Bihar,Patna,"Samanpura, Patna - BSPCB",03-11-2025 07:00:00,25.596727,85.085624,NH3,5,7,7
India,Bihar,Patna,"Samanpura, Patna - BSPCB",03-11-2025 07:00:00,25.596727,85.085624,SO2,1,1,1
India,Bihar,Purnia,"Mariam Nagar, Purnia - BSPCB",03-11-2025 07:00:00,25.366336,87.117468,PM2.5,3,63,24
India,Bihar,Purnia,"Mariam Nagar, Purnia - BSPCB",03-11-2025 07:00:00,25.366336,87.117468,PM10,3,55,21
India,Bihar,Purnia,"Mariam Nagar, Purnia - BSPCB",03-11-2025 07:00:00,25.366336,87.117468,SO2,16,18,17
India,Bihar,Purnia,"Mariam Nagar, Purnia - BSPCB",03-11-2025 07:00:00,25.366336,87.117468,CO,57,62,60
India,Chhattisgarh,Kunjemura,"OP Jindal School, Kunjemura - CECB",03-11-2025 07:00:00,22.126650,83.483212,SO2,7,12,9
India,Chhattisgarh,Kunjemura,"OP Jindal School, Kunjemura - CECB",03-11-2025 07:00:00,22.126650,83.483212,CO,6,22,17
India,Chhattisgarh,Kunjemura,"OP Jindal School, Kunjemura - CECB",03-11-2025 07:00:00,22.126650,83.483212,OZONE,12,22,12
India,Chhattisgarh,Milupara,"Govt. Higher Secondary School, Milupara - CECB",03-11-2025 07:00:00,22.1910172,83.5197009,PM2.5,5,52,31
India,Chhattisgarh,Milupara,"Govt. Higher Secondary School, Milupara - CECB",03-11-2025 07:00:00,22.1910172,83.5197009,PM10,10,91,42
India,Chhattisgarh,Milupara,"Govt. Higher Secondary School, Milupara - CECB",03-11-2025 07:00:00,22.1910172,83.5197009,OZONE,18,89,22
India,Chhattisgarh,Raipur,"AIIMS, Raipur - CECB",03-11-2025 07:00:00,21.258815,81.578979,NH3,4,5,4
India,Chhattisgarh,Raipur,"AIIMS, Raipur - CECB",03-11-2025 07:00:00,21.258815,81.578979,CO,28,51,45
India,Chhattisgarh,Raipur,"Krishak Nagar, Raipur - CECB",03-11-2025 07:00:00,21.237755,81.705301,PM2.5,31,63,41
India,Bihar,Sasaram,"Dada Peer, Sasaram - BSPCB",03-11-2025 07:00:00,24.952822,84.002396,CO,36,73,53
India,Bihar,Siwan,"Chitragupta Nagar, Siwan - BSPCB",03-11-2025 07:00:00,26.2271665,84.3570427,CO,68,152,115
India,Chandigarh,Chandigarh,"Sector 22, Chandigarh - CPCC",03-11-2025 07:00:00,30.735567,76.775714,PM2.5,240,329,299
India,Chandigarh,Chandigarh,"Sector-53, Chandigarh - CPCC",03-11-2025 07:00:00,30.719859,76.738637,PM2.5,100,267,164
India,Chandigarh,Chandigarh,"Sector-53, Chandigarh - CPCC",03-11-2025 07:00:00,30.719859,76.738637,PM10,98,146,114
India,Delhi,Delhi,"Anand Vihar, Delhi - DPCC",03-11-2025 07:00:00,28.647622,77.3158090,NO2,62,153,110
India,Delhi,Delhi,"Anand Vihar, Delhi - DPCC",03-11-2025 07:00:00,28.647622,77.3158090,CO,88,166,134
India,Delhi,Delhi,"Ashok Vihar, Delhi - DPCC",03-11-2025 07:00:00,28.695381,77.181665,OZONE,3,109,19
India,Delhi,Delhi,"Aya Nagar, Delhi - IMD",03-11-2025 07:00:00,28.4706914,77.1099364,PM2.5,176,411,307
India,Delhi,Delhi,"Burari Crossing, Delhi - IMD",03-11-2025 07:00:00,28.7256504,77.2011573,PM2.5,237,500,380
India,Chhattisgarh,Tumidih,"OP Jindal Industrial Park, Tumidih - CECB",03-11-2025 07:00:00,22.06631475,83.33820077,PM10,13,175,59
India,Chhattisgarh,Tumidih,"OP Jindal Industrial Park, Tumidih - CECB",03-11-2025 07:00:00,22.06631475,83.33820077,NO2,15,38,22
India,Chhattisgarh,Tumidih,"OP Jindal Industrial Park, Tumidih - CECB",03-11-2025 07:00:00,22.06631475,83.33820077,SO2,5,9,6
India,Delhi,Delhi,"Alipur, Delhi - DPCC",03-11-2025 07:00:00,28.815329,77.153010,SO2,21,42,27
India,Delhi,Delhi,"Alipur, Delhi - DPCC",03-11-2025 07:00:00,28.815329,77.153010,OZONE,3,58,11
India,Chandigarh,Chandigarh,"Sector-53, Chandigarh - CPCC",03-11-2025 07:00:00,30.719859,76.738637,SO2,9,14,11
India,Chhattisgarh,Bhilai,"Civic Center, Bhilai - Bhilai Steel Plant",03-11-2025 07:00:00,21.185571,81.343175,NH3,3,3,3
India,Chhattisgarh,Bhilai,"Civic Center, Bhilai - Bhilai Steel Plant",03-11-2025 07:00:00,21.185571,81.343175,SO2,6,10,8
India,Chhattisgarh,Bhilai,"Civic Center, Bhilai - Bhilai Steel Plant",03-11-2025 07:00:00,21.185571,81.343175,OZONE,6,11,9
India,Chhattisgarh,Bhilai,"Hathkhoj, Bhilai - CECB",03-11-2025 07:00:00,21.224231,81.408350,NH3,3,5,4
India,Bihar,Rajgir,"Dangi Tola, Rajgir - BSPCB",03-11-2025 07:00:00,25.03280,85.41948,NO2,8,10,9
India,Bihar,Rajgir,"Dangi Tola, Rajgir - BSPCB",03-11-2025 07:00:00,25.03280,85.41948,OZONE,31,33,32
India,Bihar,Saharsa,"Police Line, Saharsa - BSPCB",03-11-2025 07:00:00,25.892357,86.590325,PM10,4,141,80
India,Bihar,Samastipur,"DM Office_Kasipur, Samastipur - BSPCB",03-11-2025 07:00:00,25.859655,85.77944,PM2.5,NA,NA,NA
India,Chhattisgarh,Bilaspur,"Mangala, Bilaspur - NTPC",03-11-2025 07:00:00,22.08815,82.13737,PM10,16,102,47
India,Chhattisgarh,Bilaspur,"Mangala, Bilaspur - NTPC",03-11-2025 07:00:00,22.08815,82.13737,NO2,18,24,19
India,Chhattisgarh,Bilaspur,"Mangala, Bilaspur - NTPC",03-11-2025 07:00:00,22.08815,82.13737,SO2,9,13,11
India,Chhattisgarh,Chhal,"Nawapara SECL Colony, Chhal - CECB",03-11-2025 07:00:00,22.118125,83.140608,OZONE,10,106,16
India,Bihar,Samastipur,"DM Office_Kasipur, Samastipur - BSPCB",03-11-2025 07:00:00,25.859655,85.77944,NO2,NA,NA,NA
India,Bihar,Sasaram,"Dada Peer, Sasaram - BSPCB",03-11-2025 07:00:00,24.952822,84.002396,PM2.5,30,76,51
India,Bihar,Sasaram,"Dada Peer, Sasaram - BSPCB",03-11-2025 07:00:00,24.952822,84.002396,PM10,NA,NA,NA
India,Delhi,Delhi,"Burari Crossing, Delhi - IMD",03-11-2025 07:00:00,28.7256504,77.2011573,NO2,39,120,71
India,Delhi,Delhi,"Burari Crossing, Delhi - IMD",03-11-2025 07:00:00,28.7256504,77.2011573,OZONE,14,186,21
India,Delhi,Delhi,"CRRI Mathura Road, Delhi - IMD",03-11-2025 07:00:00,28.5512005,77.2735737,PM10,159,386,238
India,Delhi,Delhi,"Chandni Chowk, Delhi - IITM",03-11-2025 07:00:00,28.656756,77.227234,NH3,5,8,8
India,Delhi,Delhi,"Chandni Chowk, Delhi - IITM",03-11-2025 07:00:00,28.656756,77.227234,CO,34,56,46
India,Delhi,Delhi,"DTU, Delhi - CPCB",03-11-2025 07:00:00,28.7500499,77.1112615,PM2.5,75,310,204
India,Delhi,Delhi,"Dr. Karni Singh Shooting Range, Delhi - DPCC",03-11-2025 07:00:00,28.498571,77.264840,PM10,155,410,250
India,Delhi,Delhi,"Dr. Karni Singh Shooting Range, Delhi - DPCC",03-11-2025 07:00:00,28.498571,77.264840,NO2,47,91,73
India,Delhi,Delhi,"Dr. Karni Singh Shooting Range, Delhi - DPCC",03-11-2025 07:00:00,28.498571,77.264840,CO,12,52,36
India,Delhi,Delhi,"Jawaharlal Nehru Stadium, Delhi - DPCC",03-11-2025 07:00:00,28.580280,77.233829,PM10,156,410,273
India,Delhi,Delhi,"Lodhi Road, Delhi - IITM",03-11-2025 07:00:00,28.588333,77.221667,SO2,2,38,17
India,Delhi,Delhi,"Major Dhyan Chand National Stadium, Delhi - DPCC",03-11-2025 07:00:00,28.611281,77.237738,PM2.5,157,405,304
India,Delhi,Delhi,"Major Dhyan Chand National Stadium, Delhi - DPCC",03-11-2025 07:00:00,28.611281,77.237738,PM10,139,378,225
India,Delhi,Delhi,"Major Dhyan Chand National Stadium, Delhi - DPCC",03-11-2025 07:00:00,28.611281,77.237738,NO2,27,130,81
India,Delhi,Delhi,"Major Dhyan Chand National Stadium, Delhi - DPCC",03-11-2025 07:00:00,28.611281,77.237738,NH3,16,22,19
India,Delhi,Delhi,"Major Dhyan Chand National Stadium, Delhi - DPCC",03-11-2025 07:00:00,28.611281,77.237738,SO2,16,33,25
India,Delhi,Delhi,"Mandir Marg, Delhi - DPCC",03-11-2025 07:00:00,28.636429,77.201067,PM2.5,177,427,318
India,Delhi,Delhi,"Mandir Marg, Delhi - DPCC",03-11-2025 07:00:00,28.636429,77.201067,PM10,133,378,204
India,Gujarat,Ahmedabad,"Maninagar, Ahmedabad - GPCB",03-11-2025 07:00:00,23.002657,72.591912,OZONE,17,69,26
India,Gujarat,Ahmedabad,"Raikhad, Ahmedabad - IITM",03-11-2025 07:00:00,23.020509,72.579261,PM2.5,38,59,47
India,Gujarat,Ahmedabad,"Raikhad, Ahmedabad - IITM",03-11-2025 07:00:00,23.020509,72.579261,CO,16,62,27
India,Gujarat,Ahmedabad,"Rakhial, Ahmedabad - IITM",03-11-2025 07:00:00,23.016834,72.625775,PM10,37,74,54
India,Gujarat,Ahmedabad,"Rakhial, Ahmedabad - IITM",03-11-2025 07:00:00,23.016834,72.625775,SO2,15,32,20
India,Gujarat,Ahmedabad,"SAC ISRO Bopal, Ahmedabad - IITM",03-11-2025 07:00:00,23.041137,72.456691,PM2.5,NA,NA,NA
India,Gujarat,Ahmedabad,"SAC ISRO Satellite, Ahmedabad - IITM",03-11-2025 07:00:00,23.023389,72.515201,PM10,25,91,46
India,Delhi,Delhi,"Vivek Vihar, Delhi - DPCC",03-11-2025 07:00:00,28.672342,77.315260,OZONE,3,25,4
India,Delhi,Delhi,"Wazirpur, Delhi - DPCC",03-11-2025 07:00:00,28.699793,77.165453,PM2.5,257,500,385
India,Delhi,Delhi,"Wazirpur, Delhi - DPCC",03-11-2025 07:00:00,28.699793,77.165453,NO2,53,138,94
India,Delhi,Delhi,"Wazirpur, Delhi - DPCC",03-11-2025 07:00:00,28.699793,77.165453,OZONE,12,137,21
India,Gujarat,Ahmedabad,"Chandkheda, Ahmedabad - IITM",03-11-2025 07:00:00,23.107969,72.574648,OZONE,1,34,6
India,Gujarat,Ahmedabad,"Gyaspur, Ahmedabad - IITM",03-11-2025 07:00:00,22.977134,72.553024,PM2.5,18,47,29
India,Gujarat,Ahmedabad,"Gyaspur, Ahmedabad - IITM",03-11-2025 07:00:00,22.977134,72.553024,NH3,2,9,5
India,Delhi,Delhi,"Nehru Nagar, Delhi - DPCC",03-11-2025 07:00:00,28.567890,77.250515,SO2,6,22,15
India,Delhi,Delhi,"North Campus, DU, Delhi - IMD",03-11-2025 07:00:00,28.6573814,77.1585447,PM10,146,407,248
India,Delhi,Delhi,"Okhla Phase-2, Delhi - DPCC",03-11-2025 07:00:00,28.530785,77.271255,SO2,12,20,15
India,Delhi,Delhi,"Patparganj, Delhi - DPCC",03-11-2025 07:00:00,28.623763,77.287209,CO,30,102,85
India,Delhi,Delhi,"Punjabi Bagh, Delhi - DPCC",03-11-2025 07:00:00,28.674045,77.131023,PM10,170,406,278
India,Delhi,Delhi,"Punjabi Bagh, Delhi - DPCC",03-11-2025 07:00:00,28.674045,77.131023,NO2,42,67,53
India,Delhi,Delhi,"Punjabi Bagh, Delhi - DPCC",03-11-2025 07:00:00,28.674045,77.131023,CO,33,96,51
India,Delhi,Delhi,"Pusa, Delhi - DPCC",03-11-2025 07:00:00,28.639652,77.146275,NH3,11,24,20
India,Delhi,Delhi,"Pusa, Delhi - DPCC",03-11-2025 07:00:00,28.639652,77.146275,SO2,5,19,10
India,Delhi,Delhi,"R K Puram, Delhi - DPCC",03-11-2025 07:00:00,28.563262,77.186937,PM2.5,237,447,342
India,Delhi,Delhi,"R K Puram, Delhi - DPCC",03-11-2025 07:00:00,28.563262,77.186937,PM10,152,382,237
India,Delhi,Delhi,"R K Puram, Delhi - DPCC",03-11-2025 07:00:00,28.563262,77.186937,OZONE,4,109,6
India,Delhi,Delhi,"Rohini, Delhi - DPCC",03-11-2025 07:00:00,28.732528,77.119920,PM2.5,203,495,360
India,Delhi,Delhi,"Dwarka-Sector 8, Delhi - DPCC ",03-11-2025 07:00:00,28.5710274,77.0719006,PM2.5,203,427,340
India,Delhi,Delhi,"IHBAS, Dilshad Garden, Delhi - CPCB",03-11-2025 07:00:00,28.6811736,77.3025234,NO2,49,53,51
India,Delhi,Delhi,"IHBAS, Dilshad Garden, Delhi - CPCB",03-11-2025 07:00:00,28.6811736,77.3025234,SO2,19,47,27
India,Delhi,Delhi,"ITO, Delhi - CPCB",03-11-2025 07:00:00,28.628624,77.241060,CO,40,103,73
India,Delhi,Delhi,"Jahangirpuri, Delhi - DPCC",03-11-2025 07:00:00,28.732820,77.170633,OZONE,14,112,20
India,Delhi,Delhi,"Mundka, Delhi - DPCC",03-11-2025 07:00:00,28.684678,77.076574,NH3,7,14,10
India,Delhi,Delhi,"Mundka, Delhi - DPCC",03-11-2025 07:00:00,28.684678,77.076574,OZONE,2,79,7
India,Delhi,Delhi,"Najafgarh, Delhi - DPCC",03-11-2025 07:00:00,28.570173,76.933762,NH3,4,5,4
India,Delhi,Delhi,"Najafgarh, Delhi - DPCC",03-11-2025 07:00:00,28.570173,76.933762,CO,40,79,51
India,Delhi,Delhi,"Narela, Delhi - DPCC",03-11-2025 07:00:00,28.822836,77.101981,OZONE,9,163,35
India,Delhi,Delhi,"Shadipur, Delhi - CPCB",03-11-2025 07:00:00,28.6514781,77.1473105,SO2,1,21,10
India,Delhi,Delhi,"Sri Aurobindo Marg, Delhi - DPCC",03-11-2025 07:00:00,28.531346,77.190156,OZONE,3,98,13
India,Gujarat,Vatva,"Phase-4 GIDC, Vatva - GPCB",03-11-2025 07:00:00,22.969611,72.643500,OZONE,7,15,8
India,Haryana,Ambala,"Patti Mehar, Ambala - HSPCB",03-11-2025 07:00:00,30.379589,76.778328,PM2.5,62,342,143
India,Haryana,Ambala,"Patti Mehar, Ambala - HSPCB",03-11-2025 07:00:00,30.379589,76.778328,CO,98,103,99
India,Haryana,Bahadurgarh,"Arya Nagar, Bahadurgarh - HSPCB",03-11-2025 07:00:00,28.6701,76.9254,PM10,131,427,195
India,Haryana,Bahadurgarh,"Arya Nagar, Bahadurgarh - HSPCB",03-11-2025 07:00:00,28.6701,76.9254,SO2,7,7,7
India,Haryana,Bahadurgarh,"Arya Nagar, Bahadurgarh - HSPCB",03-11-2025 07:00:00,28.6701,76.9254,CO,24,50,45
India,Haryana,Bahadurgarh,"Arya Nagar, Bahadurgarh - HSPCB",03-11-2025 07:00:00,28.6701,76.9254,OZONE,16,19,18
India,Haryana,Bhiwani,"H.B. Colony, Bhiwani - HSPCB",03-11-2025 07:00:00,28.806223,76.141105,PM2.5,202,261,221
India,Haryana,Bhiwani,"H.B. Colony, Bhiwani - HSPCB",03-11-2025 07:00:00,28.806223,76.141105,PM10,117,133,122
India,Haryana,Bhiwani,"H.B. Colony, Bhiwani - HSPCB",03-11-2025 07:00:00,28.806223,76.141105,NH3,1,9,8
India,Haryana,Bhiwani,"H.B. Colony, Bhiwani - HSPCB",03-11-2025 07:00:00,28.806223,76.141105,CO,10,13,11
India,Haryana,Charkhi Dadri,"Mini Secretariat, Charkhi Dadri - HSPCB",03-11-2025 07:00:00,28.593883,76.270653,PM2.5,93,322,194
India,Haryana,Charkhi Dadri,"Mini Secretariat, Charkhi Dadri - HSPCB",03-11-2025 07:00:00,28.593883,76.270653,PM10,108,246,153
India,Haryana,Charkhi Dadri,"Mini Secretariat, Charkhi Dadri - HSPCB",03-11-2025 07:00:00,28.593883,76.270653,NO2,9,23,15
India,Haryana,Dharuhera,"Municipal Corporation Office, Dharuhera -  HSPCB",03-11-2025 07:00:00,28.206800,76.799700,PM2.5,21,463,280
India,Haryana,Dharuhera,"Municipal Corporation Office, Dharuhera -  HSPCB",03-11-2025 07:00:00,28.206800,76.799700,CO,19,100,42
India,Haryana,Faridabad,"New Industrial Town, Faridabad - HSPCB",03-11-2025 07:00:00,28.39072,77.30059,PM10,161,171,167
India,Haryana,Faridabad,"New Industrial Town, Faridabad - HSPCB",03-11-2025 07:00:00,28.39072,77.30059,CO,10,12,11
India,Haryana,Faridabad,"Sector 11, Faridabad - HSPCB",03-11-2025 07:00:00,28.376058,77.315741,PM2.5,141,345,230
India,Haryana,Faridabad,"Sector 30, Faridabad - HSPCB",03-11-2025 07:00:00,28.4417,77.3217,NO2,36,39,38
India,Haryana,Faridabad,"Sector 30, Faridabad - HSPCB",03-11-2025 07:00:00,28.4417,77.3217,CO,60,66,63
India,Haryana,Fatehabad,"Huda Sector, Fatehabad - HSPCB",03-11-2025 07:00:00,29.503664,75.467934,SO2,1,27,14
India,Haryana,Gurugram,"Sector-51, Gurugram - HSPCB",03-11-2025 07:00:00,28.4227,77.0667,PM10,164,425,283
India,Haryana,Gurugram,"Sector-51, Gurugram - HSPCB",03-11-2025 07:00:00,28.4227,77.0667,NO2,3,15,10
India,Haryana,Gurugram,"Sector-51, Gurugram - HSPCB",03-11-2025 07:00:00,28.4227,77.0667,CO,54,105,70
India,Haryana,Gurugram,"Teri Gram, Gurugram - HSPCB",03-11-2025 07:00:00,28.4275,77.1465,PM10,NA,NA,NA
India,Haryana,Gurugram,"Teri Gram, Gurugram - HSPCB",03-11-2025 07:00:00,28.4275,77.1465,CO,100,120,111
India,Haryana,Gurugram,"Vikas Sadan, Gurugram - HSPCB",03-11-2025 07:00:00,28.4501238,77.0263051,PM2.5,200,349,314
India,Haryana,Gurugram,"Vikas Sadan, Gurugram - HSPCB",03-11-2025 07:00:00,28.4501238,77.0263051,PM10,NA,NA,NA
India,Haryana,Rohtak,"MD University, Rohtak - HSPCB",03-11-2025 07:00:00,28.52123,76.37138,OZONE,NA,NA,NA
India,Haryana,Sirsa,"F-Block, Sirsa - HSPCB",03-11-2025 07:00:00,29.536400,75.015800,CO,51,102,97
India,Haryana,Sonipat,"Murthal, Sonipat - HSPCB",03-11-2025 07:00:00,29.027200,77.062100,PM2.5,138,403,284
India,Haryana,Sonipat,"Murthal, Sonipat - HSPCB",03-11-2025 07:00:00,29.027200,77.062100,PM10,113,222,164
India,Haryana,Yamuna Nagar,"Gobind Pura, Yamuna Nagar - HSPCB",03-11-2025 07:00:00,30.1480566,77.2893471,NH3,8,10,10
India,Haryana,Yamuna Nagar,"Gobind Pura, Yamuna Nagar - HSPCB",03-11-2025 07:00:00,30.1480566,77.2893471,SO2,10,15,11
India,Haryana,Yamuna Nagar,"Gobind Pura, Yamuna Nagar - HSPCB",03-11-2025 07:00:00,30.1480566,77.2893471,CO,2,117,8
India,Haryana,Palwal,"Shyam Nagar, Palwal - HSPCB",03-11-2025 07:00:00,28.1485564,77.3320667,PM10,94,97,95
India,Haryana,Palwal,"Shyam Nagar, Palwal - HSPCB",03-11-2025 07:00:00,28.1485564,77.3320667,NH3,8,9,9
India,Haryana,Panchgaon,"Amity University, Panchgaon - IITM",03-11-2025 07:00:00,28.3153,76.9143,NH3,9,19,14
India,Haryana,Panchkula,"Sector-6, Panchkula - HSPCB ",03-11-2025 07:00:00,30.7057778,76.8531805555555,PM2.5,226,337,308
India,Haryana,Panipat,"Sector-18, Panipat - HSPCB",03-11-2025 07:00:00,29.432304,76.972765,PM2.5,91,500,328
India,Haryana,Panipat,"Sector-18, Panipat - HSPCB",03-11-2025 07:00:00,29.432304,76.972765,OZONE,30,30,30
India,Haryana,Kurukshetra,"Sector-7, Kurukshetra - HSPCB",03-11-2025 07:00:00,29.966942,76.875879,SO2,8,20,13
India,Haryana,Mandikhera,"General Hospital, Mandikhera - HSPCB",03-11-2025 07:00:00,27.9002,76.9938,PM10,57,98,75
India,Haryana,Mandikhera,"General Hospital, Mandikhera - HSPCB",03-11-2025 07:00:00,27.9002,76.9938,SO2,30,37,34
India,Haryana,Manesar,"Sector-2 IMT, Manesar - HSPCB",03-11-2025 07:00:00,28.360699,76.936090,SO2,8,15,11
India,Haryana,Narnaul,"Shastri Nagar, Narnaul - HSPCB",03-11-2025 07:00:00,28.060249,76.113115,NO2,16,45,27
India,Haryana,Narnaul,"Shastri Nagar, Narnaul - HSPCB",03-11-2025 07:00:00,28.060249,76.113115,OZONE,16,82,18
India,Gujarat,Gandhinagar,"IIPHG Lekawada, Gandhinagar - IITM",03-11-2025 07:00:00,23.243639,72.68994,OZONE,3,20,6
India,Gujarat,Gandhinagar,"Sector-10, Gandhinagar - GPCB",03-11-2025 07:00:00,23.221714,72.654328,NO2,7,16,12
India,Gujarat,Gandhinagar,"Sector-10, Gandhinagar - GPCB",03-11-2025 07:00:00,23.221714,72.654328,CO,12,20,17
India,Gujarat,Vapi,"Phase-1 GIDC, Vapi - GPCB",03-11-2025 07:00:00,20.362421,72.918013,NH3,10,10,10
India,Gujarat,Vatva,"Phase-4 GIDC, Vatva - GPCB",03-11-2025 07:00:00,22.969611,72.643500,PM2.5,21,56,36
India,Gujarat,Vatva,"Phase-4 GIDC, Vatva - GPCB",03-11-2025 07:00:00,22.969611,72.643500,NH3,1,2,1
India,Haryana,Hisar,"Urban Estate-II, Hisar - HSPCB",03-11-2025 07:00:00,29.140560,75.744941,PM10,105,250,156
India,Haryana,Kaithal,"Rishi Nagar, Kaithal - HSPCB",03-11-2025 07:00:00,29.8006,76.4155,NO2,20,33,30
India,Haryana,Kaithal,"Rishi Nagar, Kaithal - HSPCB",03-11-2025 07:00:00,29.8006,76.4155,OZONE,12,65,19
India,Haryana,Karnal,"Sector-12, Karnal - HSPCB",03-11-2025 07:00:00,29.695300,77.002700,NO2,9,11,10
India,Haryana,Karnal,"Sector-12, Karnal - HSPCB",03-11-2025 07:00:00,29.695300,77.002700,CO,32,63,51
India,Gujarat,Ahmedabad,"SVPI Airport Hansol, Ahmedabad - IITM",03-11-2025 07:00:00,23.076793,72.627874,PM2.5,20,62,33
India,Gujarat,Ankleshwar,"GIDC, Ankleshwar - GPCB",03-11-2025 07:00:00,21.613267,73.010555,NH3,4,4,4
India,Gujarat,Gandhinagar,"GIFT City, Gandhinagar - IITM",03-11-2025 07:00:00,23.163798,72.677768,NH3,3,5,3
India,Karnataka,Yadgir,"Collector Office, Yadgir - KSPCB",03-11-2025 07:00:00,16.7602,77.1428,CO,10,24,12
India,Karnataka,Yadgir,"Collector Office, Yadgir - KSPCB",03-11-2025 07:00:00,16.7602,77.1428,OZONE,17,18,18
India,Kerala,Kannur,"Thavakkara, Kannur - Kerala PCB",03-11-2025 07:00:00,11.875000,75.373200,OZONE,28,33,28
India,Kerala,Thiruvananthapuram,"Kariavattom, Thiruvananthapuram - Kerala PCB",03-11-2025 07:00:00,8.563700,76.886500,OZONE,36,37,36
India,Kerala,Thiruvananthapuram,"Plammoodu, Thiruvananthapuram - Kerala PCB",03-11-2025 07:00:00,8.5149093,76.9435879,CO,6,14,8
India,Kerala,Thrissur,"Corporation Ground, Thrissur - Kerala PCB",03-11-2025 07:00:00,10.532400,76.215900,NO2,NA,NA,NA
India,Madhya Pradesh,Bhopal,"Idgah Hills, Bhopal - MPPCB",03-11-2025 07:00:00,23.264759,77.381568,PM2.5,25,302,80
India,Karnataka,Bengaluru,"Silk Board, Bengaluru - KSPCB",03-11-2025 07:00:00,12.917348,77.622813,CO,18,30,26
India,Karnataka,Bidar,"Naubad, Bidar - KSPCB",03-11-2025 07:00:00,17.930306,77.482194,CO,NA,NA,NA
India,Karnataka,Chamarajanagar,"Urban, Chamarajanagar - KSPCB",03-11-2025 07:00:00,11.55358,76.55521,CO,17,120,30
India,Karnataka,Chamarajanagar,"Urban, Chamarajanagar - KSPCB",03-11-2025 07:00:00,11.55358,76.55521,OZONE,14,34,15
India,Karnataka,Chikkamagaluru,"Kalyana Nagara, Chikkamagaluru - KSPCB",03-11-2025 07:00:00,13.328028,75.797056,CO,6,15,12
India,Karnataka,Davanagere,"Devaraj Urs Badavane, Davanagere - KSPCB",03-11-2025 07:00:00,14.475800,75.905200,PM2.5,16,51,29
India,Karnataka,Davanagere,"Devaraj Urs Badavane, Davanagere - KSPCB",03-11-2025 07:00:00,14.475800,75.905200,SO2,1,5,2
India,Karnataka,Davanagere,"Devaraj Urs Badavane, Davanagere - KSPCB",03-11-2025 07:00:00,14.475800,75.905200,CO,38,47,39
India,Karnataka,Dharwad,"Kalabhavan, Dharwad - KSPCB",03-11-2025 07:00:00,15.459706,75.008381,NH3,4,5,5
India,Karnataka,Haveri,"Ashwini Nagar, Haveri - KSPCB",03-11-2025 07:00:00,14.791800,75.389600,PM2.5,44,51,47
India,Karnataka,Haveri,"Ashwini Nagar, Haveri - KSPCB",03-11-2025 07:00:00,14.791800,75.389600,CO,26,32,28
India,Karnataka,Hubballi,"Lingaraj Nagar, Hubballi - KSPCB",03-11-2025 07:00:00,15.3714823,75.1160168,SO2,1,1,1
India,Karnataka,Hubballi,"Lingaraj Nagar, Hubballi - KSPCB",03-11-2025 07:00:00,15.3714823,75.1160168,OZONE,16,17,16
India,Karnataka,Kalaburagi,"Lal Bahadur Shastri Nagar, Kalaburagi - KSPCB",03-11-2025 07:00:00,17.321993,76.822628,PM10,37,87,55
India,Karnataka,Kalaburagi,"Lal Bahadur Shastri Nagar, Kalaburagi - KSPCB",03-11-2025 07:00:00,17.321993,76.822628,NH3,1,1,1
India,Jammu_and_Kashmir,Srinagar,"Rajbagh, Srinagar - JKSPCB",03-11-2025 07:00:00,34.066206,74.819820,SO2,NA,NA,NA
India,Jammu_and_Kashmir,Srinagar,"Rajbagh, Srinagar - JKSPCB",03-11-2025 07:00:00,34.066206,74.819820,OZONE,NA,NA,NA
India,Jharkhand,Dhanbad,"Sardar Patel Nagar, Dhanbad - JSPCB",03-11-2025 07:00:00,23.80569,86.44268,SO2,20,100,37
India,Jharkhand,Jorapokhar,"Tata Stadium, Jorapokhar - JSPCB",03-11-2025 07:00:00,23.707909,86.414670,SO2,NA,NA,NA
India,Karnataka,Bengaluru,"BTM Layout, Bengaluru - CPCB",03-11-2025 07:00:00,12.9135218,77.5950804,SO2,19,20,19
India,Karnataka,Ramanagara,"Vijay Nagar, Ramanagara - KSPCB",03-11-2025 07:00:00,12.733409,77.298051,CO,4,66,16
India,Karnataka,Shivamogga,"Vinoba Nagara, Shivamogga - KSPCB",03-11-2025 07:00:00,13.940000,75.555917,CO,5,24,8
India,Karnataka,Udupi,"Brahmagiri, Udupi - KSPCB",03-11-2025 07:00:00,13.34194444,74.74694444,NO2,8,9,8
India,Karnataka,Vijayapura,"Ibrahimpur, Vijayapura - KSPCB",03-11-2025 07:00:00,16.802639,75.722694,PM10,42,43,43
India,Karnataka,Koppal,"Diwator Nagar, Koppal - KSPCB",03-11-2025 07:00:00,15.347630,76.181767,PM10,17,36,25
India,Karnataka,Mangalore,"Kadri, Mangalore - KSPCB",03-11-2025 07:00:00,12.889250,74.853000,NH3,1,2,1
India,Karnataka,Mysuru,"Hebbal 1st Stage, Mysuru - KSPCB",03-11-2025 07:00:00,12.21041,76.37376,SO2,1,17,4
India,Karnataka,Mysuru,"Hebbal 1st Stage, Mysuru - KSPCB",03-11-2025 07:00:00,12.21041,76.37376,CO,7,100,11
India,Karnataka,Bengaluru,"Hombegowda Nagar, Bengaluru - KSPCB",03-11-2025 07:00:00,12.938539,77.590100,OZONE,1,40,8
India,Karnataka,Bengaluru,"Jayanagar 5th Block, Bengaluru - KSPCB",03-11-2025 07:00:00,12.920984,77.584908,CO,3,33,20
India,Karnataka,Bengaluru,"Jayanagar 5th Block, Bengaluru - KSPCB",03-11-2025 07:00:00,12.920984,77.584908,OZONE,17,86,35
India,Karnataka,Bengaluru,"Jigani, Bengaluru - KSPCB",03-11-2025 07:00:00,12.7816279,77.6299145,NO2,25,26,25
India,Karnataka,Bengaluru,"Kasturi Nagar, Bengaluru - KSPCB",03-11-2025 07:00:00,13.003872,77.664217,PM2.5,46,50,48
India,Karnataka,Bengaluru,"Kasturi Nagar, Bengaluru - KSPCB",03-11-2025 07:00:00,13.003872,77.664217,NH3,4,4,4
India,Karnataka,Bengaluru,"Kasturi Nagar, Bengaluru - KSPCB",03-11-2025 07:00:00,13.003872,77.664217,OZONE,23,25,24
India,Karnataka,Bengaluru,"Sanegurava Halli, Bengaluru - KSPCB",03-11-2025 07:00:00,12.990328,77.5431385,SO2,7,7,7
India,Madhya Pradesh,Bhopal,"T T Nagar, Bhopal - MPPCB",03-11-2025 07:00:00,23.233584,77.400574,PM2.5,10,150,60
India,Madhya Pradesh,Bhopal,"T T Nagar, Bhopal - MPPCB",03-11-2025 07:00:00,23.233584,77.400574,CO,23,98,55
India,Madhya Pradesh,Damoh,"Shrivastav Colony, Damoh - MPPCB",03-11-2025 07:00:00,23.81748678,79.446246,PM2.5,NA,NA,NA
India,Madhya Pradesh,Damoh,"Shrivastav Colony, Damoh - MPPCB",03-11-2025 07:00:00,23.81748678,79.446246,SO2,NA,NA,NA
India,Madhya Pradesh,Jabalpur,"Marhatal, Jabalpur - MPPCB",03-11-2025 07:00:00,23.168606,79.932247,OZONE,4,121,37
India,Madhya Pradesh,Jabalpur,"Suhagi, Jabalpur - JMC",03-11-2025 07:00:00,23.218135,79.957770,PM2.5,33,140,61
India,Madhya Pradesh,Jabalpur,"Suhagi, Jabalpur - JMC",03-11-2025 07:00:00,23.218135,79.957770,NH3,2,3,2
India,Madhya Pradesh,Jabalpur,"Suhagi, Jabalpur - JMC",03-11-2025 07:00:00,23.218135,79.957770,OZONE,38,111,40
India,Madhya Pradesh,Katni,"Gole Bazar, Katni - MPPCB",03-11-2025 07:00:00,23.50016,80.23284,PM10,67,274,139
India,Madhya Pradesh,Mandideep,"Sector-D Industrial Area, Mandideep - MPPCB",03-11-2025 07:00:00,23.108440,77.511428,PM2.5,48,345,218
India,Madhya Pradesh,Mandideep,"Sector-D Industrial Area, Mandideep - MPPCB",03-11-2025 07:00:00,23.108440,77.511428,PM10,50,270,150
India,Madhya Pradesh,Mandideep,"Sector-D Industrial Area, Mandideep - MPPCB",03-11-2025 07:00:00,23.108440,77.511428,OZONE,9,66,17
India,Madhya Pradesh,Pithampur,"Sector-2 Industrial Area, Pithampur - MPPCB",03-11-2025 07:00:00,22.624758,75.675238,PM2.5,38,324,108
India,Madhya Pradesh,Ratlam,"Shasthri Nagar, Ratlam - IPCA Lab",03-11-2025 07:00:00,23.331731,75.045981,PM2.5,2,167,55
India,Madhya Pradesh,Ratlam,"Shasthri Nagar, Ratlam - IPCA Lab",03-11-2025 07:00:00,23.331731,75.045981,SO2,25,29,27
India,Madhya Pradesh,Sagar,"Civil Lines, Sagar - MPPCB",03-11-2025 07:00:00,23.838586,78.759431,NO2,8,67,24
India,Madhya Pradesh,Sagar,"Civil Lines, Sagar - MPPCB",03-11-2025 07:00:00,23.838586,78.759431,CO,45,121,86
India,Madhya Pradesh,Satna,"Bandhavgar Colony, Satna - Birla Cement",03-11-2025 07:00:00,24.58434363,80.8549414,PM10,63,65,64
India,Madhya Pradesh,Satna,"Bandhavgar Colony, Satna - Birla Cement",03-11-2025 07:00:00,24.58434363,80.8549414,NO2,28,38,34
India,Madhya Pradesh,Singrauli,"Suryakiran Bhawan NCL, Singrauli - MPPCB",03-11-2025 07:00:00,24.108970,82.645580,SO2,6,48,37
India,Madhya Pradesh,Singrauli,"Suryakiran Bhawan NCL, Singrauli - MPPCB",03-11-2025 07:00:00,24.108970,82.645580,CO,12,14,12
India,Madhya Pradesh,Damoh,"Shrivastav Colony, Damoh - MPPCB",03-11-2025 07:00:00,23.81748678,79.446246,CO,NA,NA,NA
India,Madhya Pradesh,Dewas,"Bhopal Chauraha, Dewas - MPPCB",03-11-2025 07:00:00,22.9682591,76.064118,SO2,25,68,49
India,Madhya Pradesh,Gwalior,"City Center, Gwalior - MPPCB",03-11-2025 07:00:00,26.203442,78.193251,PM2.5,30,180,78
India,Madhya Pradesh,Gwalior,"Deen Dayal Nagar, Gwalior - MPPCB",03-11-2025 07:00:00,26.259242,78.216432,PM10,58,291,130
India,Madhya Pradesh,Gwalior,"Maharaj Bada, Gwalior - MPPCB",03-11-2025 07:00:00,26.200388,78.147714,NH3,4,4,4
India,Madhya Pradesh,Indore,"Regional Park, Indore - IMC",03-11-2025 07:00:00,22.6780,75.8559,OZONE,10,31,18
India,Madhya Pradesh,Indore,"Residency Area, Indore - IMC",03-11-2025 07:00:00,22.7084,75.8815,PM10,21,460,81
India,Madhya Pradesh,Indore,"Residency Area, Indore - IMC",03-11-2025 07:00:00,22.7084,75.8815,CO,14,19,17
India,Madhya Pradesh,Jabalpur,"Govindh Bhavan Colony, Jabalpur - JMC",03-11-2025 07:00:00,23.163174,79.973061,CO,30,57,38
India,Madhya Pradesh,Jabalpur,"Gupteshwar, Jabalpur - JMC",03-11-2025 07:00:00,23.142888,79.916147,PM2.5,5,86,40
India,Madhya Pradesh,Jabalpur,"Gupteshwar, Jabalpur - JMC",03-11-2025 07:00:00,23.142888,79.916147,NH3,11,14,12
India,Maharashtra,Aurangabad,"MIDC Chilkalthana, Aurangabad - MPCB",03-11-2025 07:00:00,19.875620,75.387310,OZONE,2,73,14
India,Maharashtra,Aurangabad,"Rachnakar Colony, Aurangabad - MPCB",03-11-2025 07:00:00,19.863756,75.321188,SO2,10,28,20
India,Maharashtra,Badlapur,"Katrap, Badlapur - MPCB",03-11-2025 07:00:00,19.16485,73.23409,PM10,47,187,79
India,Maharashtra,Badlapur,"Katrap, Badlapur - MPCB",03-11-2025 07:00:00,19.16485,73.23409,NO2,8,32,18
India,Maharashtra,Belapur,"CBD Belapur, Belapur - MPCB",03-11-2025 07:00:00,19.0243902,73.0406721,SO2,NA,NA,NA
India,Maharashtra,Ahmednagar,"Tarakpur, Ahmednagar - MPCB",03-11-2025 07:00:00,19.10122,74.73339,NO2,16,31,22
India,Maharashtra,Amravati,"Shivneri Colony, Amravati - MPCB",03-11-2025 07:00:00,20.9402359,77.7895248,NO2,4,16,8
India,Maharashtra,Amravati,"Shri Shivaji Science College, Amravati - MPCB",03-11-2025 07:00:00,20.939198,77.765701,CO,40,50,45
India,Maharashtra,Aurangabad,"MIDC Chilkalthana, Aurangabad - MPCB",03-11-2025 07:00:00,19.875620,75.387310,PM10,26,86,46
India,Madhya Pradesh,Indore,"Chhoti Gwaltoli, Indore - MPPCB",03-11-2025 07:00:00,22.4310,75.5213,NH3,1,5,2
India,Madhya Pradesh,Indore,"Chhoti Gwaltoli, Indore - MPPCB",03-11-2025 07:00:00,22.4310,75.5213,CO,28,116,56
India,Madhya Pradesh,Indore,"Chhoti Gwaltoli, Indore - MPPCB",03-11-2025 07:00:00,22.4310,75.5213,OZONE,4,45,14
India,Madhya Pradesh,Indore,"Maguda Nagar, Indore - IMC",03-11-2025 07:00:00,22.7524,75.8872,NO2,1,2,2
India,Madhya Pradesh,Indore,"Maguda Nagar, Indore - IMC",03-11-2025 07:00:00,22.7524,75.8872,NH3,NA,NA,NA
India,Madhya Pradesh,Indore,"Regional Park, Indore - IMC",03-11-2025 07:00:00,22.6780,75.8559,PM2.5,17,360,64
India,Maharashtra,Bhiwandi,"Gokul Nagar, Bhiwandi - MPCB",03-11-2025 07:00:00,19.309073,73.057223,CO,22,36,32
India,Maharashtra,Boisar,"Khaira, Boisar - MPCB",03-11-2025 07:00:00,19.786089,72.757971,PM2.5,16,41,29
India,Maharashtra,Boisar,"Khaira, Boisar - MPCB",03-11-2025 07:00:00,19.786089,72.757971,PM10,19,69,34
India,Maharashtra,Chandrapur,"MIDC Khutala, Chandrapur - MPCB",03-11-2025 07:00:00,19.9775302,79.2337086,PM10,33,150,86
India,Maharashtra,Dhule,"Deopur, Dhule - MPCB",03-11-2025 07:00:00,20.918946,74.776388,NH3,1,5,2
India,Maharashtra,Jalgaon,"Prabhat Colony, Jalgaon - MPCB",03-11-2025 07:00:00,21.001264,75.565602,PM2.5,15,378,67
India,Maharashtra,Jalgaon,"Prabhat Colony, Jalgaon - MPCB",03-11-2025 07:00:00,21.001264,75.565602,SO2,4,8,7
India,Maharashtra,Jalgaon,"Prabhat Colony, Jalgaon - MPCB",03-11-2025 07:00:00,21.001264,75.565602,CO,24,36,24
India,Maharashtra,Kalyan,"Pimpleshwar Mandir, Kalyan - MPCB",03-11-2025 07:00:00,19.192056,72.9585188,CO,4,104,53
India,Maharashtra,Kolhapur,"Shivaji University, Kolhapur - MPCB",03-11-2025 07:00:00,16.6870449,74.2505872,OZONE,4,29,8
India,Maharashtra,Kolhapur,"Sinchan Bhavan, Kolhapur - MPCB",03-11-2025 07:00:00,16.7143745,74.2426398,PM2.5,NA,NA,NA
India,Maharashtra,Kolhapur,"Sinchan Bhavan, Kolhapur - MPCB",03-11-2025 07:00:00,16.7143745,74.2426398,CO,10,18,14
India,Maharashtra,Kolhapur,"Sinchan Bhavan, Kolhapur - MPCB",03-11-2025 07:00:00,16.7143745,74.2426398,OZONE,14,47,18
India,Maharashtra,Latur,"Sawe Wadi, Latur - MPCB",03-11-2025 07:00:00,18.39963,76.57452,PM2.5,6,31,20
India,Maharashtra,Latur,"Sawe Wadi, Latur - MPCB",03-11-2025 07:00:00,18.39963,76.57452,SO2,3,6,4
India,Maharashtra,Latur,"Sawe Wadi, Latur - MPCB",03-11-2025 07:00:00,18.39963,76.57452,OZONE,13,41,19
India,Maharashtra,Mahad,"Kamble Tarf Birwadi, Mahad - MPCB",03-11-2025 07:00:00,18.1023399,73.4783687,NH3,3,5,4
India,Maharashtra,Mahad,"Kamble Tarf Birwadi, Mahad - MPCB",03-11-2025 07:00:00,18.1023399,73.4783687,CO,12,62,31
India,Maharashtra,Mumbai,"Chhatrapati Shivaji Intl. Airport (T2), Mumbai - MPCB",03-11-2025 07:00:00,19.10078,72.87462,OZONE,7,8,7
India,Maharashtra,Mumbai,"Colaba, Mumbai - MPCB",03-11-2025 07:00:00,18.910000,72.820000,NO2,25,29,26
India,Maharashtra,Mumbai,"Colaba, Mumbai - MPCB",03-11-2025 07:00:00,18.910000,72.820000,NH3,3,3,3
India,Maharashtra,Mumbai,"Deonar, Mumbai - IITM",03-11-2025 07:00:00,19.04946,72.9230,SO2,NA,NA,NA
India,Maharashtra,Mumbai,"Ghatkopar, Mumbai - BMC",03-11-2025 07:00:00,19.083694,72.920967,PM2.5,6,26,15
India,Maharashtra,Mumbai,"Ghatkopar, Mumbai - BMC",03-11-2025 07:00:00,19.083694,72.920967,NO2,17,35,25
India,Maharashtra,Mumbai,"Kurla, Mumbai - MPCB",03-11-2025 07:00:00,19.0863,72.8888,NH3,1,2,1
India,Maharashtra,Mumbai,"Mazgaon, Mumbai - IITM",03-11-2025 07:00:00,18.96702,72.84214,PM2.5,5,37,21
India,Maharashtra,Mumbai,"Mazgaon, Mumbai - IITM",03-11-2025 07:00:00,18.96702,72.84214,NO2,26,55,40
India,Maharashtra,Mumbai,"Mindspace-Malad West, Mumbai - MPCB",03-11-2025 07:00:00,19.1878657,72.8304069,PM2.5,30,39,34
India,Maharashtra,Mumbai,"Mindspace-Malad West, Mumbai - MPCB",03-11-2025 07:00:00,19.1878657,72.8304069,PM10,19,104,48
India,Maharashtra,Mumbai,"Mindspace-Malad West, Mumbai - MPCB",03-11-2025 07:00:00,19.1878657,72.8304069,OZONE,18,28,21
India,Maharashtra,Mumbai,"Borivali East, Mumbai - IITM",03-11-2025 07:00:00,19.23241,72.86895,NH3,4,5,4
India,Maharashtra,Mumbai,"Byculla, Mumbai - BMC",03-11-2025 07:00:00,18.9767,72.8380,NH3,6,10,8
India,Maharashtra,Mumbai,"Byculla, Mumbai - BMC",03-11-2025 07:00:00,18.9767,72.8380,SO2,8,10,9
India,Maharashtra,Mumbai,"Chakala-Andheri East, Mumbai - IITM",03-11-2025 07:00:00,19.11074,72.86084,PM10,26,98,51
India,Maharashtra,Mumbai,"Chembur, Mumbai - MPCB",03-11-2025 07:00:00,19.0364585,72.8954371,PM2.5,17,42,26
India,Maharashtra,Mumbai,"Mulund West, Mumbai - MPCB",03-11-2025 07:00:00,19.1750,72.9419,NH3,3,4,3
India,Maharashtra,Mumbai,"Navy Nagar-Colaba, Mumbai - IITM",03-11-2025 07:00:00,18.897756,72.813320,OZONE,8,31,18
India,Maharashtra,Mumbai,"Powai, Mumbai - MPCB",03-11-2025 07:00:00,19.137500,72.915056,PM2.5,23,42,33
India,Maharashtra,Mumbai,"Powai, Mumbai - MPCB",03-11-2025 07:00:00,19.137500,72.915056,NH3,2,2,2
India,Maharashtra,Mumbai,"Sion, Mumbai - MPCB",03-11-2025 07:00:00,19.047000,72.874600,PM2.5,11,40,21
India,Maharashtra,Mumbai,"Sion, Mumbai - MPCB",03-11-2025 07:00:00,19.047000,72.874600,OZONE,14,16,16
India,Maharashtra,Mumbai,"Vile Parle West, Mumbai - MPCB",03-11-2025 07:00:00,19.10861,72.83622,OZONE,5,27,18
India,Maharashtra,Mumbai,"Worli, Mumbai - MPCB",03-11-2025 07:00:00,18.9936162,72.8128113,SO2,18,24,20
India,Maharashtra,Malegaon,"Mahesh Nagar, Malegaon - MPCB",03-11-2025 07:00:00,20.555712,74.529236,PM10,39,66,54
India,Maharashtra,Malegaon,"Mahesh Nagar, Malegaon - MPCB",03-11-2025 07:00:00,20.555712,74.529236,CO,10,50,12
India,Maharashtra,Mumbai,"Bandra Kurla Complex, Mumbai - IITM",03-11-2025 07:00:00,19.053536,72.84643,PM2.5,16,61,37
India,Maharashtra,Mumbai,"Bandra Kurla Complex, Mumbai - IITM",03-11-2025 07:00:00,19.053536,72.84643,PM10,24,99,54
India,Maharashtra,Mumbai,"Kandivali East, Mumbai - MPCB",03-11-2025 07:00:00,19.205800,72.868200,PM2.5,10,50,29
India,Maharashtra,Mumbai,"Kherwadi_Bandra East, Mumbai - MPCB",03-11-2025 07:00:00,19.0632143,72.8456324,NO2,5,21,14
India,Maharashtra,Mumbai,"Kherwadi_Bandra East, Mumbai - MPCB",03-11-2025 07:00:00,19.0632143,72.8456324,NH3,8,13,10
India,Maharashtra,Mumbai,"Bandra Kurla Complex, Mumbai - MPCB",03-11-2025 07:00:00,19.065931,72.862131,NO2,15,32,23
India,Maharashtra,Pimpri-Chinchwad,"Gavalinagar, Pimpri Chinchwad - MPCB",03-11-2025 07:00:00,18.63673,73.82487,SO2,1,2,2
India,Maharashtra,Pimpri-Chinchwad,"Park Street Wakad, Pimpri Chinchwad - MPCB",03-11-2025 07:00:00,18.59051,73.77946,PM10,28,58,47
India,Maharashtra,Pimpri-Chinchwad,"Park Street Wakad, Pimpri Chinchwad - MPCB",03-11-2025 07:00:00,18.59051,73.77946,NH3,5,6,5
India,Maharashtra,Pimpri-Chinchwad,"Savta Mali Nagar, Pimpri-Chinchwad - IITM",03-11-2025 07:00:00,18.614767,73.799516,PM2.5,10,46,23
India,Maharashtra,Pimpri-Chinchwad,"Savta Mali Nagar, Pimpri-Chinchwad - IITM",03-11-2025 07:00:00,18.614767,73.799516,CO,38,64,57
India,Maharashtra,Pimpri-Chinchwad,"Savta Mali Nagar, Pimpri-Chinchwad - IITM",03-11-2025 07:00:00,18.614767,73.799516,OZONE,5,19,11
India,Maharashtra,Pune,"Bhumkar Nagar, Pune - IITM",03-11-2025 07:00:00,18.605770,73.749976,CO,37,68,52
India,Maharashtra,Sangli,"Vijay Nagar, Sangli - MPCB",03-11-2025 07:00:00, 16.5038,74.3623,NO2,1,18,7
India,Maharashtra,Solapur,"Dnyaneshwar Nagar, Solapur - MPCB",03-11-2025 07:00:00,17.6336264,75.9132495,PM2.5,16,68,36
India,Maharashtra,Solapur,"Dnyaneshwar Nagar, Solapur - MPCB",03-11-2025 07:00:00,17.6336264,75.9132495,NH3,7,34,14
India,Maharashtra,Solapur,"Dnyaneshwar Nagar, Solapur - MPCB",03-11-2025 07:00:00,17.6336264,75.9132495,SO2,1,11,2
India,Maharashtra,Solapur,"Ratandeep Housing Society, Solapur - MPCB",03-11-2025 07:00:00,17.65439,75.90649,SO2,1,3,1
India,Maharashtra,Thane,"Kasarvadavali, Thane - MPCB",03-11-2025 07:00:00,19.26777,72.97182,NO2,10,26,18
India,Odisha,Angul,"Hakimapada, Angul - OSPCB",03-11-2025 07:00:00,20.832874,85.104082,OZONE,3,32,8
India,Odisha,Balasore,"Kalidaspur, Balasore - OSPCB",03-11-2025 07:00:00,21.51161,86.89088,PM10,39,325,88
India,Odisha,Barbil,"Forest Office, Barbil - OSPCB",03-11-2025 07:00:00,22.1166054,85.3945546,PM10,14,63,36
India,Odisha,Barbil,"Forest Office, Barbil - OSPCB",03-11-2025 07:00:00,22.1166054,85.3945546,SO2,7,14,9
India,Odisha,Barbil,"Forest Office, Barbil - OSPCB",03-11-2025 07:00:00,22.1166054,85.3945546,CO,23,40,31
India,Maharashtra,Thane,"Upvan Fort, Thane - MPCB",03-11-2025 07:00:00,19.222279,72.957979,NO2,12,39,22
India,Maharashtra,Thane,"Upvan Fort, Thane - MPCB",03-11-2025 07:00:00,19.222279,72.957979,OZONE,NA,NA,NA
India,Maharashtra,Ulhasnagar,"Sidhi Vinayak Nagar, Ulhasnagar - MPCB",03-11-2025 07:00:00,19.235581,73.159121,NH3,3,6,5
India,Meghalaya,Shillong,"JN Stadium, Shillong - Meghalaya PCB",03-11-2025 07:00:00,25.5803419,91.8942571,NH3,11,14,12
India,Maharashtra,Nagpur,"Ambazari, Nagpur - MPCB",03-11-2025 07:00:00,21.121801,79.04952,NO2,5,59,20
India,Maharashtra,Nagpur,"Ambazari, Nagpur - MPCB",03-11-2025 07:00:00,21.121801,79.04952,CO,11,104,28
India,Maharashtra,Nagpur,"Mahal, Nagpur - MPCB",03-11-2025 07:00:00,21.14472,79.107595,PM2.5,35,119,66
India,Maharashtra,Nagpur,"Mahal, Nagpur - MPCB",03-11-2025 07:00:00,21.14472,79.107595,NH3,2,3,2
India,Maharashtra,Nagpur,"Ram Nagar, Nagpur - MPCB",03-11-2025 07:00:00,21.143383,79.048912,PM10,41,81,60
India,Maharashtra,Navi Mumbai,"Nerul, Navi Mumbai - MPCB",03-11-2025 07:00:00,19.008751,73.016620,PM2.5,8,38,22
India,Maharashtra,Navi Mumbai,"Tondare-Taloja, Navi Mumbai - MPCB",03-11-2025 07:00:00,19.0630,73.1209,SO2,4,4,4
India,Maharashtra,Pimpri-Chinchwad,"Gavalinagar, Pimpri Chinchwad - MPCB",03-11-2025 07:00:00,18.63673,73.82487,PM10,NA,NA,NA
India,Maharashtra,Pune,"Katraj Dairy, Pune - MPCB",03-11-2025 07:00:00,18.454450,73.854155,NO2,1,19,10
India,Maharashtra,Pune,"Panchawati_Pashan, Pune - IITM",03-11-2025 07:00:00,18.536457,73.805454,NO2,7,12,9
India,Maharashtra,Pune,"Savitribai Phule Pune University, Pune - MPCB",03-11-2025 07:00:00,18.547056,73.826908,PM10,12,54,26
India,Maharashtra,Nashik,"MIDC Ambad, Nashik - MPCB",03-11-2025 07:00:00,19.950220,73.731480,NO2,2,17,9
India,Maharashtra,Nashik,"Pandav Nagari, Nashik - MPCB",03-11-2025 07:00:00,19.9591346,73.7788008,NO2,1,8,3
India,Maharashtra,Navi Mumbai,"Mahape, Navi Mumbai - MPCB",03-11-2025 07:00:00,19.1135051,73.008978,NH3,3,3,3
India,Maharashtra,Nanded,"Sneh Nagar, Nanded - MPCB",03-11-2025 07:00:00,19.173852,77.296291,NO2,NA,NA,NA
India,Maharashtra,Nanded,"Sneh Nagar, Nanded - MPCB",03-11-2025 07:00:00,19.173852,77.296291,SO2,5,6,5
India,Maharashtra,Nanded,"Sneh Nagar, Nanded - MPCB",03-11-2025 07:00:00,19.173852,77.296291,CO,6,70,34
India,Rajasthan,Ajmer,"Civil Lines,  Ajmer - RSPCB",03-11-2025 07:00:00,26.470859,74.646594,PM2.5,52,94,74
India,Rajasthan,Alwar,"Moti Doongri, Alwar - RSPCB",03-11-2025 07:00:00,27.554793,76.611536,PM10,73,134,98
India,Rajasthan,Alwar,"Moti Doongri, Alwar - RSPCB",03-11-2025 07:00:00,27.554793,76.611536,NH3,7,15,12
India,Rajasthan,Banswara,"Rati Talai, Banswara - RSPCB",03-11-2025 07:00:00,23.555190,74.440010,PM2.5,18,108,46
India,Rajasthan,Banswara,"Rati Talai, Banswara - RSPCB",03-11-2025 07:00:00,23.555190,74.440010,PM10,45,184,84
India,Rajasthan,Banswara,"Rati Talai, Banswara - RSPCB",03-11-2025 07:00:00,23.555190,74.440010,NO2,8,64,23
India,Rajasthan,Banswara,"Rati Talai, Banswara - RSPCB",03-11-2025 07:00:00,23.555190,74.440010,SO2,13,17,16
India,Rajasthan,Baran,"Bamboliya, Baran - RSPCB",03-11-2025 07:00:00,25.106006,76.469948,PM10,50,162,92
India,Rajasthan,Barmer,"Railway Colony, Barmer - RSPCB",03-11-2025 07:00:00,25.747299,71.393989,NO2,6,112,36
India,Rajasthan,Barmer,"Railway Colony, Barmer - RSPCB",03-11-2025 07:00:00,25.747299,71.393989,NH3,4,10,7
India,Rajasthan,Bharatpur,"Krishna Nagar, Bharatpur - RSPCB",03-11-2025 07:00:00,27.215415,77.50873,PM2.5,47,159,94
India,Rajasthan,Bharatpur,"Krishna Nagar, Bharatpur - RSPCB",03-11-2025 07:00:00,27.215415,77.50873,PM10,72,174,110
India,Rajasthan,Bharatpur,"Krishna Nagar, Bharatpur - RSPCB",03-11-2025 07:00:00,27.215415,77.50873,NH3,3,9,6
India,Rajasthan,Bhilwara,"Pratap Nagar, Bhilwara - RSPCB",03-11-2025 07:00:00,25.339605,74.618883,OZONE,8,58,10
India,Rajasthan,Bhiwadi,"RIICO Ind. Area III, Bhiwadi - RSPCB",03-11-2025 07:00:00,28.194909,76.862296,NO2,30,72,42
India,Rajasthan,Bhiwadi,"Vasundhara Nagar_UIT, Bhiwadi - RSPCB",03-11-2025 07:00:00,28.207266,76.829265,PM2.5,116,395,267
India,Rajasthan,Bhiwadi,"Vasundhara Nagar_UIT, Bhiwadi - RSPCB",03-11-2025 07:00:00,28.207266,76.829265,NO2,18,118,55
India,Punjab,Khanna,"Kalal Majra, Khanna - PPCB",03-11-2025 07:00:00,30.736056 ,76.209694,NO2,26,31,28
India,Punjab,Khanna,"Kalal Majra, Khanna - PPCB",03-11-2025 07:00:00,30.736056 ,76.209694,NH3,7,7,7
India,Punjab,Ludhiana,"Punjab Agricultural University, Ludhiana - PPCB",03-11-2025 07:00:00,30.9028,75.8086,PM10,NA,NA,NA
India,Punjab,Ludhiana,"Punjab Agricultural University, Ludhiana - PPCB",03-11-2025 07:00:00,30.9028,75.8086,SO2,NA,NA,NA
India,Punjab,Ludhiana,"Punjab Agricultural University, Ludhiana - PPCB",03-11-2025 07:00:00,30.9028,75.8086,CO,NA,NA,NA
India,Punjab,Mandi Gobindgarh,"RIMT University, Mandi Gobindgarh - PPCB",03-11-2025 07:00:00,30.649961,76.331442,SO2,5,18,10
India,Punjab,Patiala,"Model Town, Patiala - PPCB",03-11-2025 07:00:00,30.349388,76.366642,OZONE,26,28,27
India,Punjab,Rupnagar,"Ratanpura, Rupnagar - Ambuja Cements",03-11-2025 07:00:00,31.0325454,76.5623046,SO2,9,13,11
India,Rajasthan,Dausa,"Khatikan Mohalla, Dausa - RSPCB",03-11-2025 07:00:00,26.895552,76.334753,SO2,4,10,6
India,Rajasthan,Dausa,"Khatikan Mohalla, Dausa - RSPCB",03-11-2025 07:00:00,26.895552,76.334753,OZONE,5,104,10
India,Rajasthan,Dholpur,"Raja Ganj, Dholpur - RSPCB",03-11-2025 07:00:00,26.699557,77.898881,PM2.5,68,346,242
India,Rajasthan,Dholpur,"Raja Ganj, Dholpur - RSPCB",03-11-2025 07:00:00,26.699557,77.898881,NO2,13,72,30
India,Rajasthan,Dholpur,"Raja Ganj, Dholpur - RSPCB",03-11-2025 07:00:00,26.699557,77.898881,NH3,6,10,8
India,Rajasthan,Hanumangarh,"Housing Board, Hanumangarh - RSPCB",03-11-2025 07:00:00,29.610750,74.283608,PM2.5,32,193,91
India,Rajasthan,Hanumangarh,"Housing Board, Hanumangarh - RSPCB",03-11-2025 07:00:00,29.610750,74.283608,NH3,12,27,19
India,Odisha,Byasanagar,"Ferro Chrome Colony, Byasanagar - OSPCB",03-11-2025 07:00:00,20.94185,86.11510,NO2,4,26,11
India,Odisha,Byasanagar,"Ferro Chrome Colony, Byasanagar - OSPCB",03-11-2025 07:00:00,20.94185,86.11510,SO2,1,6,3
India,Odisha,Cuttack,"CDA Area, Cuttack - OSPCB",03-11-2025 07:00:00,20.48891     ,85.84768     ,SO2,4,9,6
India,Odisha,Keonjhar,"Jagamohanpur, Keonjhar - OSPCB",03-11-2025 07:00:00,21.643900,85.599355,SO2,3,16,7
India,Odisha,Keonjhar,"Jagamohanpur, Keonjhar - OSPCB",03-11-2025 07:00:00,21.643900,85.599355,CO,8,126,58
India,Odisha,Nayagarh,"Dabuna, Nayagarh - OSPCB",03-11-2025 07:00:00,21.847279,85.416905,PM10,23,49,35
India,Puducherry,Puducherry,"Jawahar Nagar, Puducherry - PPCC",03-11-2025 07:00:00,11.9309,79.8027,NO2,5,23,11
India,Puducherry,Puducherry,"Jawahar Nagar, Puducherry - PPCC",03-11-2025 07:00:00,11.9309,79.8027,CO,17,34,25
India,Punjab,Amritsar,"Golden Temple, Amritsar - PPCB",03-11-2025 07:00:00,31.620000,74.876512,PM10,85,128,107
India,Punjab,Bathinda,"Hardev Nagar, Bathinda - PPCB",03-11-2025 07:00:00,30.233011,74.907758,SO2,1,17,7
India,Punjab,Khanna,"Kalal Majra, Khanna - PPCB",03-11-2025 07:00:00,30.736056 ,76.209694,PM10,120,432,191
India,Odisha,Baripada,"Meher Colony, Baripada - OSPCB",03-11-2025 07:00:00,21.941841,86.728318,PM2.5,21,73,43
India,Odisha,Bhubaneswar,"Lingraj Mandir, Bhubaneswar - OSPCB",03-11-2025 07:00:00,20.240790,85.836784,PM2.5,38,100,64
India,Odisha,Bhubaneswar,"Lingraj Mandir, Bhubaneswar - OSPCB",03-11-2025 07:00:00,20.240790,85.836784,NH3,3,4,4
India,Odisha,Bhubaneswar,"Lingraj Mandir, Bhubaneswar - OSPCB",03-11-2025 07:00:00,20.240790,85.836784,SO2,5,11,7
India,Odisha,Bileipada,"Tata Township, Bileipada - OSPCB",03-11-2025 07:00:00,22.06156703,85.47409613,NO2,6,7,7
India,Odisha,Bileipada,"Tata Township, Bileipada - OSPCB",03-11-2025 07:00:00,22.06156703,85.47409613,OZONE,11,13,11
India,Odisha,Rourkela,"Fertilizer Township, Rourkela - OSPCB",03-11-2025 07:00:00,22.18972222,84.86277778,PM2.5,73,90,79
India,Odisha,Rourkela,"Fertilizer Township, Rourkela - OSPCB",03-11-2025 07:00:00,22.18972222,84.86277778,NO2,11,11,11
India,Odisha,Rourkela,"Fertilizer Township, Rourkela - OSPCB",03-11-2025 07:00:00,22.18972222,84.86277778,CO,1,112,22
India,Odisha,Rourkela,"Raghunathpali, Rourkela - OSPCB",03-11-2025 07:00:00,22.220833,84.809444,NH3,1,2,1
India,Odisha,Rourkela,"Raghunathpali, Rourkela - OSPCB",03-11-2025 07:00:00,22.220833,84.809444,CO,30,61,40
India,Odisha,Tensa,"Barsua Iron Ore Mines, Tensa - OSPCB",03-11-2025 07:00:00,21.869985,85.167016,NH3,NA,NA,NA
India,Rajasthan,Bundi,"New Colony, Bundi - RSPCB",03-11-2025 07:00:00,25.435774,75.644272,PM2.5,25,303,107
India,Rajasthan,Chittorgarh,"Shastri Nagar, Chittorgarh - RSPCB",03-11-2025 07:00:00,24.892047,74.623527,NH3,3,5,4
India,Rajasthan,Churu,"Subash Chowk, Churu - RSPCB",03-11-2025 07:00:00,28.296139,74.961696,PM10,62,500,193
India,Rajasthan,Pratapgarh,"Pragati Nagar, Pratapgarh - RSPCB",03-11-2025 07:00:00,24.041198,74.780702,NH3,5,12,7
India,Rajasthan,Pratapgarh,"Pragati Nagar, Pratapgarh - RSPCB",03-11-2025 07:00:00,24.041198,74.780702,CO,10,45,30
India,Rajasthan,Rajsamand,"Dhoinda, Rajsamand - RSPCB",03-11-2025 07:00:00,25.036360,73.883502,NH3,9,17,13
India,Rajasthan,Rajsamand,"Dhoinda, Rajsamand - RSPCB",03-11-2025 07:00:00,25.036360,73.883502,SO2,2,7,4
India,Rajasthan,Rajsamand,"Dhoinda, Rajsamand - RSPCB",03-11-2025 07:00:00,25.036360,73.883502,CO,23,99,37
India,Rajasthan,Sawai Madhopur,"Sahu Nagar, Sawai Madhopur - RSPCB",03-11-2025 07:00:00,26.031443,76.359327,NO2,11,37,19
India,Rajasthan,Sawai Madhopur,"Sahu Nagar, Sawai Madhopur - RSPCB",03-11-2025 07:00:00,26.031443,76.359327,OZONE,2,77,25
India,Rajasthan,Sikar,"Radhakishan Pura, Sikar - RSPCB",03-11-2025 07:00:00,27.608912,75.153302,PM2.5,72,367,185
India,Rajasthan,Sikar,"Radhakishan Pura, Sikar - RSPCB",03-11-2025 07:00:00,27.608912,75.153302,PM10,103,408,200
India,Rajasthan,Sirohi,"Vedhaynath Colony, Sirohi - RSPCB",03-11-2025 07:00:00,24.885261,72.857549,PM2.5,37,93,56
India,Rajasthan,Jhalawar,"Rajlaxmi Nagar, Jhalawar - RSPCB",03-11-2025 07:00:00,24.588397,76.172782,NH3,3,5,4
India,Rajasthan,Jhalawar,"Rajlaxmi Nagar, Jhalawar - RSPCB",03-11-2025 07:00:00,24.588397,76.172782,CO,20,78,50
India,Rajasthan,Jhunjhunu,"Indra Nagar, Jhunjhunu - RSPCB",03-11-2025 07:00:00,28.108988,75.386577,PM2.5,61,312,172
India,Rajasthan,Jhunjhunu,"Indra Nagar, Jhunjhunu - RSPCB",03-11-2025 07:00:00,28.108988,75.386577,OZONE,9,80,17
India,Rajasthan,Jodhpur,"Collectorate, Jodhpur - RSPCB",03-11-2025 07:00:00,26.268249,73.0193853,SO2,6,22,12
India,Rajasthan,Jodhpur,"Collectorate, Jodhpur - RSPCB",03-11-2025 07:00:00,26.268249,73.0193853,CO,5,149,35
India,Rajasthan,Jodhpur,"Collectorate, Jodhpur - RSPCB",03-11-2025 07:00:00,26.268249,73.0193853,OZONE,6,62,15
India,Rajasthan,Jodhpur,"Jhalamand, Jodhpur - RSPCB",03-11-2025 07:00:00,26.215415,73.070156,PM10,72,318,139
India,Rajasthan,Jaipur,"Sector-2 Murlipura, Jaipur - RSPCB",03-11-2025 07:00:00,26.960669,75.771817,NO2,30,124,61
India,Rajasthan,Jaipur,"Sector-2 Murlipura, Jaipur - RSPCB",03-11-2025 07:00:00,26.960669,75.771817,SO2,1,5,3
India,Rajasthan,Jaipur,"Shastri Nagar, Jaipur - RSPCB",03-11-2025 07:00:00,26.9502929,75.730943,NO2,NA,NA,NA
India,Rajasthan,Jaipur,"Shastri Nagar, Jaipur - RSPCB",03-11-2025 07:00:00,26.9502929,75.730943,SO2,NA,NA,NA
India,Rajasthan,Jaipur,"Shastri Nagar, Jaipur - RSPCB",03-11-2025 07:00:00,26.9502929,75.730943,CO,NA,NA,NA
India,Rajasthan,Jaisalmer,"Sadar Bazar, Jaisalmer - RSPCB",03-11-2025 07:00:00,26.912329,70.909168,PM10,39,375,117
India,Rajasthan,Jaisalmer,"Sadar Bazar, Jaisalmer - RSPCB",03-11-2025 07:00:00,26.912329,70.909168,NO2,8,146,48
India,Rajasthan,Jalore,"Mudtra Sili, Jalore - RSPCB",03-11-2025 07:00:00,25.344694,72.626208,NH3,5,11,8
India,Rajasthan,Jaipur,"Mansarovar Sector-12, Jaipur - RSPCB",03-11-2025 07:00:00,26.843698,75.766894,PM2.5,75,398,252
India,Rajasthan,Jaipur,"Mansarovar Sector-12, Jaipur - RSPCB",03-11-2025 07:00:00,26.843698,75.766894,SO2,2,6,3
India,Rajasthan,Jaipur,"Police Commissionerate, Jaipur - RSPCB",03-11-2025 07:00:00,26.9164092,75.7994901,PM10,104,402,215
India,Rajasthan,Jaipur,"Police Commissionerate, Jaipur - RSPCB",03-11-2025 07:00:00,26.9164092,75.7994901,NO2,NA,NA,NA
India,Rajasthan,Jaipur,"Police Commissionerate, Jaipur - RSPCB",03-11-2025 07:00:00,26.9164092,75.7994901,OZONE,5,46,6
India,Rajasthan,Jaipur,"RIICO Sitapura, Jaipur - RSPCB",03-11-2025 07:00:00,26.786682,75.827928,PM2.5,83,375,251
India,Rajasthan,Jaipur,"RIICO Sitapura, Jaipur - RSPCB",03-11-2025 07:00:00,26.786682,75.827928,NO2,21,128,73
India,Rajasthan,Jaipur,"RIICO Sitapura, Jaipur - RSPCB",03-11-2025 07:00:00,26.786682,75.827928,NH3,3,10,5
India,Rajasthan,Sirohi,"Vedhaynath Colony, Sirohi - RSPCB",03-11-2025 07:00:00,24.885261,72.857549,CO,26,46,34
India,Rajasthan,Sri Ganganagar,"Old City, Sri Ganganagar - RSPCB",03-11-2025 07:00:00,29.931624,73.864511,SO2,3,29,13
India,Rajasthan,Tonk,"Shastri Nagar, Tonk - RSPCB",03-11-2025 07:00:00,26.159933,75.780517,NH3,5,8,7
India,Rajasthan,Udaipur,"Ashok Nagar, Udaipur - RSPCB",03-11-2025 07:00:00,24.5886166,73.6321397,PM2.5,38,128,69
India,Sikkim,Gangtok,"Zero Point GICI, Gangtok - SSPCB",03-11-2025 07:00:00,27.338530,88.614099,NH3,1,8,1
India,Rajasthan,Jodhpur,"Jhalamand, Jodhpur - RSPCB",03-11-2025 07:00:00,26.215415,73.070156,SO2,3,5,4
India,Rajasthan,Jodhpur,"Mandor, Jodhpur - RSPCB",03-11-2025 07:00:00,26.358805,73.047444,PM2.5,58,233,127
India,Rajasthan,Jodhpur,"Mandor, Jodhpur - RSPCB",03-11-2025 07:00:00,26.358805,73.047444,OZONE,3,137,16
India,Rajasthan,Jodhpur,"Samrat Ashok Udhyan, Jodhpur - RSPCB",03-11-2025 07:00:00,26.253384,72.976571,NO2,7,128,58
India,Rajasthan,Jodhpur,"Samrat Ashok Udhyan, Jodhpur - RSPCB",03-11-2025 07:00:00,26.253384,72.976571,CO,30,115,92
India,Rajasthan,Karauli,"Satyawati Vihar, Karauli - RSPCB",03-11-2025 07:00:00,26.506177,77.025989,PM10,67,373,149
India,Rajasthan,Karauli,"Satyawati Vihar, Karauli - RSPCB",03-11-2025 07:00:00,26.506177,77.025989,CO,6,78,26
India,TamilNadu,Chennai,"Manali Village, Chennai - TNPCB",03-11-2025 07:00:00,13.1662,80.2584,OZONE,28,58,56
India,TamilNadu,Chennai,"Manali, Chennai - CPCB",03-11-2025 07:00:00,13.164544,80.26285,NO2,NA,NA,NA
India,TamilNadu,Chennai,"Manali, Chennai - CPCB",03-11-2025 07:00:00,13.164544,80.26285,OZONE,10,10,10
India,TamilNadu,Chennai,"Perungudi, Chennai - TNPCB",03-11-2025 07:00:00,12.9533,80.2357,OZONE,2,11,7
India,TamilNadu,Chennai,"Royapuram, Chennai - TNPCB",03-11-2025 07:00:00,13.1036,80.2909,OZONE,17,18,17
India,TamilNadu,Coimbatore,"PSG College of Arts and Science, Coimbatore - TNPCB",03-11-2025 07:00:00,11.0328,77.0349,PM2.5,25,96,51
India,Rajasthan,Kota,"Nayapura, Kota - RSPCB",03-11-2025 07:00:00,25.196024,75.855668,NH3,NA,NA,NA
India,Rajasthan,Kota,"Shrinath Puram, Kota - RSPCB",03-11-2025 07:00:00,25.14389,75.821256,NO2,8,11,9
India,Rajasthan,Kota,"Shrinath Puram, Kota - RSPCB",03-11-2025 07:00:00,25.14389,75.821256,OZONE,9,51,19
India,Rajasthan,Nagaur,"Karni Colony, Nagaur - RSPCB",03-11-2025 07:00:00,27.213494,73.734444,NO2,3,38,15
India,Rajasthan,Nagaur,"Karni Colony, Nagaur - RSPCB",03-11-2025 07:00:00,27.213494,73.734444,SO2,5,30,12
India,Rajasthan,Pali,"Indira Colony Vistar, Pali - RSPCB",03-11-2025 07:00:00,25.771061, 73.340227,SO2,5,10,7
India,TamilNadu,Ariyalur,"Keelapalur, Ariyalur - TNPCB",03-11-2025 07:00:00,11.06825,79.07033,PM10,29,83,47
India,TamilNadu,Ariyalur,"Keelapalur, Ariyalur - TNPCB",03-11-2025 07:00:00,11.06825,79.07033,SO2,12,13,13
India,TamilNadu,Chennai,"Kodungaiyur, Chennai - TNPCB",03-11-2025 07:00:00,13.1278,80.2642,NO2,10,30,16
India,TamilNadu,Chennai,"Manali Village, Chennai - TNPCB",03-11-2025 07:00:00,13.1662,80.2584,NO2,6,9,7
India,Telangana,Hyderabad,"Kompally Municipal Office, Hyderabad - TSPCB",03-11-2025 07:00:00,17.544899,78.486949,OZONE,21,37,35
India,Telangana,Hyderabad,"Nacharam_TSIIC IALA, Hyderabad - TSPCB",03-11-2025 07:00:00,17.429398,78.569354,SO2,11,15,13
India,Telangana,Hyderabad,"New Malakpet, Hyderabad - TSPCB",03-11-2025 07:00:00,17.37206,78.50864,NO2,14,17,15
India,Telangana,Hyderabad,"New Malakpet, Hyderabad - TSPCB",03-11-2025 07:00:00,17.37206,78.50864,NH3,3,4,3
India,Telangana,Hyderabad,"Sanathnagar, Hyderabad - TSPCB",03-11-2025 07:00:00,17.4559458,78.4332152,SO2,1,10,6
India,Telangana,Hyderabad,"Sanathnagar, Hyderabad - TSPCB",03-11-2025 07:00:00,17.4559458,78.4332152,OZONE,13,16,15
India,Telangana,Hyderabad,"Somajiguda, Hyderabad - TSPCB",03-11-2025 07:00:00,17.417094,78.457437,PM10,NA,NA,NA
India,Telangana,Hyderabad,"Somajiguda, Hyderabad - TSPCB",03-11-2025 07:00:00,17.417094,78.457437,CO,12,24,18
India,Telangana,Hyderabad,"Zoo Park, Hyderabad - TSPCB",03-11-2025 07:00:00,17.349694,78.451437,PM2.5,2,19,8
India,Uttar_Pradesh,Agra,"Sanjay Palace, Agra - UPPCB",03-11-2025 07:00:00,27.19865833,78.00598056,CO,27,54,35
India,Uttar_Pradesh,Agra,"Sector-3B Avas Vikas Colony, Agra - UPPCB",03-11-2025 07:00:00,27.19412,77.96237,PM2.5,44,213,97
India,Uttar_Pradesh,Agra,"Sector-3B Avas Vikas Colony, Agra - UPPCB",03-11-2025 07:00:00,27.19412,77.96237,NH3,5,6,6
India,Uttar_Pradesh,Agra,"Shahjahan Garden, Agra - UPPCB",03-11-2025 07:00:00,27.169338,78.03582,CO,22,101,48
India,Uttar_Pradesh,Agra,"Shahjahan Garden, Agra - UPPCB",03-11-2025 07:00:00,27.169338,78.03582,OZONE,1,26,1
India,Uttar_Pradesh,Agra,"Shastripuram, Agra - UPPCB",03-11-2025 07:00:00,27.19862,77.92066,PM10,101,202,145
India,Uttar_Pradesh,Agra,"Shastripuram, Agra - UPPCB",03-11-2025 07:00:00,27.19862,77.92066,CO,18,34,28
India,Uttar_Pradesh,Baghpat,"Sardar Patel Inter College, Baghpat - UPPCB",03-11-2025 07:00:00,28.964949,77.278761,NH3,5,9,7
India,TamilNadu,Palkalaiperur,"Bharathidasan University, Palkalaiperur - TNPCB",03-11-2025 07:00:00,10.681158,78.741746,NH3,2,3,2
India,TamilNadu,Perundurai,"SIPCOT Industrial Park, Perundurai - TNPCB",03-11-2025 07:00:00,11.258242,77.552761,NO2,6,8,7
India,TamilNadu,Pudukottai,"SIPCOT Nathampannai, Pudukottai - TNPCB",03-11-2025 07:00:00,10.423417,78.784889,SO2,12,14,13
India,TamilNadu,Ramanathapuram,"Chalai Bazaar, Ramanathapuram - TNPCB",03-11-2025 07:00:00,9.36399,78.831977,PM10,35,60,45
India,TamilNadu,Ramanathapuram,"Chalai Bazaar, Ramanathapuram - TNPCB",03-11-2025 07:00:00,9.36399,78.831977,CO,26,28,27
India,TamilNadu,Ramanathapuram,"Chalai Bazaar, Ramanathapuram - TNPCB",03-11-2025 07:00:00,9.36399,78.831977,OZONE,4,5,4
India,TamilNadu,Thanjavur,"Parisutham Nagar, Thanjavur - TNPCB",03-11-2025 07:00:00,10.7654824,79.1389968,PM10,30,56,39
India,TamilNadu,Thanjavur,"Parisutham Nagar, Thanjavur - TNPCB",03-11-2025 07:00:00,10.7654824,79.1389968,NH3,1,1,1
India,TamilNadu,Tiruchirappalli,"St Joseph College, Tiruchirappalli - TNPCB",03-11-2025 07:00:00,10.830158,78.691849,PM2.5,NA,NA,NA
India,TamilNadu,Tiruchirappalli,"St Joseph College, Tiruchirappalli - TNPCB",03-11-2025 07:00:00,10.830158,78.691849,OZONE,5,20,13
India,TamilNadu,Tirunelveli,"Municipal Corporation Office, Tirunelveli - TNPCB",03-11-2025 07:00:00,8.728442,77.6962,NO2,3,15,7
India,TamilNadu,Tirunelveli,"Municipal Corporation Office, Tirunelveli - TNPCB",03-11-2025 07:00:00,8.728442,77.6962,SO2,15,19,18
India,TamilNadu,Cuddalore,"Kudikadu, Cuddalore - TNPCB",03-11-2025 07:00:00,11.6829898,79.7532099,NO2,19,19,19
India,TamilNadu,Dindigul,"Mendonsa Colony, Dindigul - TNPCB",03-11-2025 07:00:00,10.358535,77.984321,PM2.5,25,58,41
India,TamilNadu,Dindigul,"Mendonsa Colony, Dindigul - TNPCB",03-11-2025 07:00:00,10.358535,77.984321,NH3,1,2,1
India,TamilNadu,Gummidipoondi,"Anthoni Pillai Nagar, Gummidipoondi - TNPCB",03-11-2025 07:00:00,13.4127,80.1081,NO2,1,6,4
India,TamilNadu,Kanchipuram,"Kilambi, Kanchipuram - TNPCB",03-11-2025 07:00:00,12.864618,79.659968,PM10,40,97,67
India,TamilNadu,Karur,"Kamadenu Nagar, Karur - TNPCB",03-11-2025 07:00:00,10.967820,78.080882,OZONE,6,9,8
India,TamilNadu,Madurai,"Uchapatti, Madurai - TNPCB",03-11-2025 07:00:00,9.865935,78.022669,CO,22,26,25
India,TamilNadu,Nagapattinam,"Velippalayam, Nagapattinam - TNPCB",03-11-2025 07:00:00,10.798548,79.838212,NO2,5,5,5
India,TamilNadu,Namakkal,"Ponnusamy Nagar, Namakkal - TNPCB",03-11-2025 07:00:00,11.273992,78.163545,PM10,39,91,63
India,TamilNadu,Namakkal,"Ponnusamy Nagar, Namakkal - TNPCB",03-11-2025 07:00:00,11.273992,78.163545,OZONE,11,28,12
India,TamilNadu,Virudhunagar,"Collectorate Office, Virudhunagar - TNPCB",03-11-2025 07:00:00,9.559382,77.948828,NO2,20,21,20
India,Telangana,Hyderabad,"Bollaram Industrial Area, Hyderabad - TSPCB",03-11-2025 07:00:00,17.540891,78.358528,PM2.5,17,113,43
India,Telangana,Hyderabad,"Central University, Hyderabad - TSPCB",03-11-2025 07:00:00,17.460103,78.334361,PM2.5,5,22,11
India,Telangana,Hyderabad,"ECIL Kapra, Hyderabad - TSPCB",03-11-2025 07:00:00,17.470431,78.566959,NH3,5,6,6
India,Telangana,Hyderabad,"ICRISAT Patancheru, Hyderabad - TSPCB",03-11-2025 07:00:00,17.518400,78.278777,PM10,18,72,36
India,Telangana,Hyderabad,"Kokapet, Hyderabad - TSPCB",03-11-2025 07:00:00,17.393559,78.339194,NO2,NA,NA,NA
India,Telangana,Hyderabad,"Kokapet, Hyderabad - TSPCB",03-11-2025 07:00:00,17.393559,78.339194,NH3,NA,NA,NA
India,Tripura,Agartala,"Bardowali, Agartala - Tripura SPCB",03-11-2025 07:00:00,23.8175497,91.2726974,PM10,24,48,35
India,Uttar_Pradesh,Agra,"Manoharpur, Agra - UPPCB",03-11-2025 07:00:00,27.23711,78.01936,SO2,30,53,38
India,Uttar_Pradesh,Agra,"Rohta, Agra - UPPCB",03-11-2025 07:00:00,27.106972,78.000111,SO2,17,36,23
India,Uttar_Pradesh,Kanpur,"NSI Kalyanpur, Kanpur - UPPCB",03-11-2025 07:00:00,26.509954,80.249612,NH3,3,3,3
India,Uttar_Pradesh,Kanpur,"NSI Kalyanpur, Kanpur - UPPCB",03-11-2025 07:00:00,26.509954,80.249612,OZONE,19,23,21
India,Uttar_Pradesh,Kanpur,"Nehru Nagar, Kanpur - UPPCB",03-11-2025 07:00:00,26.4703136,80.3229863,PM2.5,51,176,113
India,Uttar_Pradesh,Kanpur,"Nehru Nagar, Kanpur - UPPCB",03-11-2025 07:00:00,26.4703136,80.3229863,NO2,31,55,43
India,Uttar_Pradesh,Khurja,"Kalindi Kunj, Khurja - UPPCB",03-11-2025 07:00:00,28.2348927,77.8683002,PM2.5,110,368,244
India,Uttar_Pradesh,Khurja,"Kalindi Kunj, Khurja - UPPCB",03-11-2025 07:00:00,28.2348927,77.8683002,PM10,181,425,261
India,Uttar_Pradesh,Khurja,"Kalindi Kunj, Khurja - UPPCB",03-11-2025 07:00:00,28.2348927,77.8683002,SO2,14,15,14
India,Uttar_Pradesh,Khurja,"Kalindi Kunj, Khurja - UPPCB",03-11-2025 07:00:00,28.2348927,77.8683002,CO,50,84,54
India,Uttar_Pradesh,Khurja,"Kalindi Kunj, Khurja - UPPCB",03-11-2025 07:00:00,28.2348927,77.8683002,OZONE,4,54,14
India,Uttar_Pradesh,Lucknow,"B R Ambedkar University, Lucknow - UPPCB",03-11-2025 07:00:00,26.766433,80.927299,CO,53,56,54
India,Uttar_Pradesh,Lucknow,"Gomti Nagar, Lucknow - UPPCB",03-11-2025 07:00:00,26.868120,81.005119,PM10,76,175,120
India,Uttar_Pradesh,Hapur,"Anand Vihar, Hapur - UPPCB",03-11-2025 07:00:00,28.725645,77.749675,NH3,13,27,18
India,Uttar_Pradesh,Jhansi,"Shivaji Nagar, Jhansi - UPPCB",03-11-2025 07:00:00,25.4547,78.6039,PM10,18,69,32
India,Uttar_Pradesh,Jhansi,"Shivaji Nagar, Jhansi - UPPCB",03-11-2025 07:00:00,25.4547,78.6039,SO2,12,17,14
India,Uttar_Pradesh,Kanpur,"FTI Kidwai Nagar, Kanpur - UPPCB",03-11-2025 07:00:00,26.428282,80.327067,NO2,25,25,25
India,Uttar_Pradesh,Kanpur,"FTI Kidwai Nagar, Kanpur - UPPCB",03-11-2025 07:00:00,26.428282,80.327067,SO2,30,33,32
India,Uttar_Pradesh,Kanpur,"FTI Kidwai Nagar, Kanpur - UPPCB",03-11-2025 07:00:00,26.428282,80.327067,CO,35,42,40
India,Uttar_Pradesh,Kanpur,"NSI Kalyanpur, Kanpur - UPPCB",03-11-2025 07:00:00,26.509954,80.249612,PM2.5,73,305,184
India,Uttar_Pradesh,Firozabad,"Nagla Bhau, Firozabad - UPPCB",03-11-2025 07:00:00,27.168897,78.376960,SO2,8,22,12
India,Uttar_Pradesh,Firozabad,"Nagla Bhau, Firozabad - UPPCB",03-11-2025 07:00:00,27.168897,78.376960,CO,8,14,9
India,Uttar_Pradesh,Ghaziabad,"Indirapuram, Ghaziabad - UPPCB",03-11-2025 07:00:00,28.646233,77.358075,PM10,124,306,212
India,Uttar_Pradesh,Ghaziabad,"Indirapuram, Ghaziabad - UPPCB",03-11-2025 07:00:00,28.646233,77.358075,SO2,11,23,16
India,Uttar_Pradesh,Ghaziabad,"Loni, Ghaziabad - UPPCB",03-11-2025 07:00:00,28.757294,77.278792,PM10,164,428,303
India,Uttar_Pradesh,Ghaziabad,"Loni, Ghaziabad - UPPCB",03-11-2025 07:00:00,28.757294,77.278792,OZONE,6,51,10
India,Uttar_Pradesh,Ghaziabad,"Sanjay Nagar, Ghaziabad - UPPCB",03-11-2025 07:00:00,28.685382,77.453839,NO2,20,34,29
India,Uttar_Pradesh,Ghaziabad,"Sanjay Nagar, Ghaziabad - UPPCB",03-11-2025 07:00:00,28.685382,77.453839,CO,17,118,69
India,Uttar_Pradesh,Ghaziabad,"Vasundhara, Ghaziabad - UPPCB",03-11-2025 07:00:00,28.6603346,77.3572563,NH3,10,21,14
India,Uttar_Pradesh,Greater Noida,"Knowledge Park - III, Greater Noida - UPPCB",03-11-2025 07:00:00,28.47272,77.482000,SO2,1,35,17
India,Uttar_Pradesh,Greater Noida,"Knowledge Park - V, Greater Noida - UPPCB",03-11-2025 07:00:00,28.557054,77.453663,PM2.5,121,411,292
India,Uttar_Pradesh,Greater Noida,"Knowledge Park - V, Greater Noida - UPPCB",03-11-2025 07:00:00,28.557054,77.453663,PM10,156,322,209
India,Uttar_Pradesh,Meerut,"Jai Bhim Nagar, Meerut - UPPCB",03-11-2025 07:00:00,28.9535882,77.7622941,PM10,182,496,374
India,Uttar_Pradesh,Meerut,"Jai Bhim Nagar, Meerut - UPPCB",03-11-2025 07:00:00,28.9535882,77.7622941,SO2,16,32,24
India,Uttar_Pradesh,Moradabad,"Buddhi Vihar, Moradabad - UPPCB",03-11-2025 07:00:00,28.83526,78.74460,PM2.5,118,358,235
India,Uttar_Pradesh,Moradabad,"Buddhi Vihar, Moradabad - UPPCB",03-11-2025 07:00:00,28.83526,78.74460,CO,50,62,54
India,Uttar_Pradesh,Moradabad,"Eco Herbal Park, Moradabad - UPPCB",03-11-2025 07:00:00,28.840739,78.697531,PM2.5,142,366,263
India,Uttar_Pradesh,Baghpat,"Sardar Patel Inter College, Baghpat - UPPCB",03-11-2025 07:00:00,28.964949,77.278761,SO2,26,61,42
India,Uttar_Pradesh,Bareilly,"Civil Lines, Bareilly - UPPCB",03-11-2025 07:00:00,28.359581,79.414455,NH3,1,2,1
India,Uttar_Pradesh,Bulandshahr,"Yamunapuram, Bulandshahr - UPPCB",03-11-2025 07:00:00,28.406963,77.849831,PM10,136,401,220
India,Uttar_Pradesh,Bulandshahr,"Yamunapuram, Bulandshahr - UPPCB",03-11-2025 07:00:00,28.406963,77.849831,SO2,5,30,16
India,Uttar_Pradesh,Bulandshahr,"Yamunapuram, Bulandshahr - UPPCB",03-11-2025 07:00:00,28.406963,77.849831,CO,49,102,70
India,Uttar_Pradesh,Moradabad,"Employment Office, Moradabad - UPPCB",03-11-2025 07:00:00,28.88528,78.73880,NH3,4,4,4
India,Uttar_Pradesh,Moradabad,"Employment Office, Moradabad - UPPCB",03-11-2025 07:00:00,28.88528,78.73880,SO2,17,21,19
India,Uttar_Pradesh,Moradabad,"Employment Office, Moradabad - UPPCB",03-11-2025 07:00:00,28.88528,78.73880,CO,18,62,29
India,Uttar_Pradesh,Moradabad,"Jigar Colony, Moradabad - UPPCB",03-11-2025 07:00:00,28.856664,78.772638,NH3,6,6,6
India,Uttar_Pradesh,Moradabad,"Kashiram Nagar, Moradabad - UPPCB",03-11-2025 07:00:00,28.849399,78.742362,NO2,25,25,25
India,Uttar_Pradesh,Lucknow,"Gomti Nagar, Lucknow - UPPCB",03-11-2025 07:00:00,26.868120,81.005119,CO,34,40,35
India,Uttar_Pradesh,Lucknow,"Kendriya Vidyalaya, Lucknow - CPCB",03-11-2025 07:00:00,26.906111,80.948222,PM2.5,52,101,72
India,Uttar_Pradesh,Lucknow,"Kendriya Vidyalaya, Lucknow - CPCB",03-11-2025 07:00:00,26.906111,80.948222,NO2,38,42,39
India,Uttar_Pradesh,Lucknow,"Kendriya Vidyalaya, Lucknow - CPCB",03-11-2025 07:00:00,26.906111,80.948222,CO,24,71,37
India,Uttar_Pradesh,Lucknow,"Lalbagh, Lucknow - CPCB",03-11-2025 07:00:00,26.8458805,80.9365541,NH3,15,26,20
India,Uttar_Pradesh,Noida,"Sector - 62, Noida - IMD",03-11-2025 07:00:00,28.6245479,77.3577104,PM2.5,147,393,309
India,Uttar_Pradesh,Noida,"Sector - 62, Noida - IMD",03-11-2025 07:00:00,28.6245479,77.3577104,CO,20,48,36
India,Uttar_Pradesh,Vrindavan,"Omex Eternity, Vrindavan - UPPCB",03-11-2025 07:00:00,27.5714090,77.6557570,PM10,98,422,174
India,Uttarakhand,Dehradun,"Doon University, Dehradun - UKPCB",03-11-2025 07:00:00,30.269444,78.044167,PM2.5,69,204,124
India,Uttarakhand,Dehradun,"Doon University, Dehradun - UKPCB",03-11-2025 07:00:00,30.269444,78.044167,NO2,1,2,1
India,Uttarakhand,Dehradun,"Doon University, Dehradun - UKPCB",03-11-2025 07:00:00,30.269444,78.044167,CO,2,20,15
India,Uttarakhand,Kashipur,"Govt. Girls Inter College, Kashipur - UKPCB",03-11-2025 07:00:00,29.2124114,78.9611753,NO2,7,60,18
India,Uttarakhand,Kashipur,"Govt. Girls Inter College, Kashipur - UKPCB",03-11-2025 07:00:00,29.2124114,78.9611753,NH3,2,16,5
India,Uttarakhand,Kashipur,"Govt. Girls Inter College, Kashipur - UKPCB",03-11-2025 07:00:00,29.2124114,78.9611753,OZONE,1,5,1
India,Uttarakhand,Rishikesh,"Shivaji Nagar, Rishikesh - UKPCB",03-11-2025 07:00:00,30.075911,78.2859547,PM2.5,84,180,129
India,Uttarakhand,Rishikesh,"Shivaji Nagar, Rishikesh - UKPCB",03-11-2025 07:00:00,30.075911,78.2859547,PM10,72,120,98
India,Uttarakhand,Rishikesh,"Shivaji Nagar, Rishikesh - UKPCB",03-11-2025 07:00:00,30.075911,78.2859547,OZONE,8,13,8
India,West_Bengal,Asansol,"Asansol Court Area, Asansol - WBPCB",03-11-2025 07:00:00,23.685297,86.945968,PM2.5,21,137,59
India,West_Bengal,Durgapur,"Mahishkapur Road_B-Zone, Durgapur - WBPCB",03-11-2025 07:00:00,23.567923,87.306843,SO2,11,21,14
India,West_Bengal,Durgapur,"PCBL Residential Complex, Durgapur - WBPCB",03-11-2025 07:00:00,23.5087640,87.3544400,SO2,3,3,3
India,West_Bengal,Durgapur,"PCBL Residential Complex, Durgapur - WBPCB",03-11-2025 07:00:00,23.5087640,87.3544400,CO,18,44,41
India,West_Bengal,Durgapur,"Womens College_City Center, Durgapur - WBPCB (Formerly known as Sidhu Kanhu Indoor Stadium)",03-11-2025 07:00:00,23.549395,87.300496,PM10,21,104,56
India,West_Bengal,Durgapur,"Womens College_City Center, Durgapur - WBPCB (Formerly known as Sidhu Kanhu Indoor Stadium)",03-11-2025 07:00:00,23.549395,87.300496,NO2,20,27,23
India,West_Bengal,Durgapur,"Womens College_City Center, Durgapur - WBPCB (Formerly known as Sidhu Kanhu Indoor Stadium)",03-11-2025 07:00:00,23.549395,87.300496,OZONE,7,29,10
India,West_Bengal,Haldia,"Priyambada Housing Estate, Haldia - WBPCB",03-11-2025 07:00:00,22.06047,88.109737,PM2.5,17,42,29
India,Uttar_Pradesh,Prayagraj,"Nagar Nigam, Prayagraj - UPPCB",03-11-2025 07:00:00,25.44919916 ,81.82735986 ,OZONE,11,15,12
India,Uttar_Pradesh,Varanasi,"Ardhali Bazar, Varanasi - UPPCB",03-11-2025 07:00:00,25.3505986,82.9083074,PM2.5,27,88,60
India,Uttar_Pradesh,Varanasi,"Ardhali Bazar, Varanasi - UPPCB",03-11-2025 07:00:00,25.3505986,82.9083074,NO2,28,42,35
India,Uttar_Pradesh,Varanasi,"Ardhali Bazar, Varanasi - UPPCB",03-11-2025 07:00:00,25.3505986,82.9083074,SO2,18,18,18
India,Uttar_Pradesh,Varanasi,"Bhelupur, Varanasi - UPPCB",03-11-2025 07:00:00,25.301778,82.996789,CO,9,50,25
India,Uttar_Pradesh,Varanasi,"IESD Banaras Hindu University, Varanasi - UPPCB",03-11-2025 07:00:00,25.262326,82.995408,NO2,2,3,2
India,Uttar_Pradesh,Varanasi,"IESD Banaras Hindu University, Varanasi - UPPCB",03-11-2025 07:00:00,25.262326,82.995408,SO2,22,30,25
India,Uttar_Pradesh,Varanasi,"Maldahiya, Varanasi - UPPCB",03-11-2025 07:00:00,25.32393,82.99687,NO2,2,2,2
India,West_Bengal,Howrah,"Ghusuri, Howrah - WBPCB",03-11-2025 07:00:00,22.611968,88.347422,SO2,4,15,11
India,West_Bengal,Howrah,"Ghusuri, Howrah - WBPCB",03-11-2025 07:00:00,22.611968,88.347422,CO,19,51,33
India,West_Bengal,Howrah,"Padmapukur, Howrah - WBPCB",03-11-2025 07:00:00,22.5687319,88.2797276,PM10,NA,NA,NA
India,West_Bengal,Howrah,"Padmapukur, Howrah - WBPCB",03-11-2025 07:00:00,22.5687319,88.2797276,CO,NA,NA,NA
India,West_Bengal,Howrah,"Padmapukur, Howrah - WBPCB",03-11-2025 07:00:00,22.5687319,88.2797276,OZONE,NA,NA,NA
India,West_Bengal,Kolkata,"Ballygunge, Kolkata - WBPCB",03-11-2025 07:00:00,22.5367507,88.3638022,NH3,7,13,9
India,West_Bengal,Kolkata,"Bidhannagar, Kolkata - WBPCB",03-11-2025 07:00:00,22.58157048,88.41002457,SO2,6,8,7
India,West_Bengal,Kolkata,"Fort William, Kolkata - WBPCB",03-11-2025 07:00:00,22.556640,88.342674,NH3,6,12,9
India,West_Bengal,Kolkata,"Jadavpur, Kolkata - WBPCB",03-11-2025 07:00:00,22.49929,88.36917,CO,25,38,34
India,West_Bengal,Kolkata,"Jadavpur, Kolkata - WBPCB",03-11-2025 07:00:00,22.49929,88.36917,OZONE,14,23,15
India,West_Bengal,Kolkata,"Rabindra Sarobar, Kolkata - WBPCB",03-11-2025 07:00:00,22.51106,88.35142,PM2.5,13,28,17
India,West_Bengal,Kolkata,"Rabindra Sarobar, Kolkata - WBPCB",03-11-2025 07:00:00,22.51106,88.35142,NO2,18,97,52
India,West_Bengal,Kolkata,"Rabindra Sarobar, Kolkata - WBPCB",03-11-2025 07:00:00,22.51106,88.35142,CO,17,34,25
India,West_Bengal,Kolkata,"Rabindra Sarobar, Kolkata - WBPCB",03-11-2025 07:00:00,22.51106,88.35142,OZONE,3,36,4
India,West_Bengal,Kolkata,"Victoria, Kolkata - WBPCB",03-11-2025 07:00:00,22.5448082,88.3403691,NO2,12,25,18
India,West_Bengal,Kolkata,"Victoria, Kolkata - WBPCB",03-11-2025 07:00:00,22.5448082,88.3403691,NH3,4,5,4
India,West_Bengal,Asansol,"Evelyn Lodge, Asansol - WBPCB",03-11-2025 07:00:00,23.6979360,86.9443950,PM2.5,13,68,38
India,West_Bengal,Asansol,"Evelyn Lodge, Asansol - WBPCB",03-11-2025 07:00:00,23.6979360,86.9443950,CO,4,44,35
India,West_Bengal,Asansol,"Mahabir Colliery, Asansol - WBPCB",03-11-2025 07:00:00,23.6181830,87.1057180,SO2,3,104,15
India,West_Bengal,Asansol,"Trivenidevi Bhalotia College, Asansol - WBPCB",03-11-2025 07:00:00,23.616515,87.119133,PM2.5,14,81,38
India,West_Bengal,Barrackpore,"SVSPA Campus, Barrackpore - WBPCB",03-11-2025 07:00:00,22.7605581,88.3617589,NH3,2,4,3
India,West_Bengal,Howrah,"Belur Math, Howrah - WBPCB",03-11-2025 07:00:00,22.629801,88.352017,NO2,21,50,32
India,West_Bengal,Howrah,"Botanical Garden, Howrah - WBPCB",03-11-2025 07:00:00,22.554954,88.292568,PM2.5,9,33,24
India,West_Bengal,Howrah,"Botanical Garden, Howrah - WBPCB",03-11-2025 07:00:00,22.554954,88.292568,NO2,12,101,42
India,West_Bengal,Howrah,"Botanical Garden, Howrah - WBPCB",03-11-2025 07:00:00,22.554954,88.292568,NH3,2,3,3
India,West_Bengal,Howrah,"Dasnagar, Howrah - WBPCB",03-11-2025 07:00:00,22.6025571,88.3105664,SO2,11,15,11
India,Uttar_Pradesh,Noida,"Sector-116, Noida - UPPCB",03-11-2025 07:00:00,28.569230,77.393848,PM10,141,351,219
India,Uttar_Pradesh,Prayagraj,"Jhunsi, Prayagraj - UPPCB",03-11-2025 07:00:00,25.425602,81.917152,PM2.5,22,90,53
India,Uttar_Pradesh,Prayagraj,"Jhunsi, Prayagraj - UPPCB",03-11-2025 07:00:00,25.425602,81.917152,OZONE,16,27,17
India,West_Bengal,Siliguri,"Ward-32 Bapupara, Siliguri - WBPCB",03-11-2025 07:00:00,26.6879226,88.4152495,NO2,16,22,19
India,West_Bengal,Siliguri,"Ward-32 Bapupara, Siliguri - WBPCB",03-11-2025 07:00:00,26.6879226,88.4152495,NH3,11,11,11
India,Andhra_Pradesh,Tirumala,"Toll Gate, Tirumala - APPCB",03-11-2025 07:00:00,13.67,79.35,SO2,6,8,7
India,Andhra_Pradesh,Tirumala,"Toll Gate, Tirumala - APPCB",03-11-2025 07:00:00,13.67,79.35,CO,24,38,30
India,Andhra_Pradesh,Tirupati,"Vaikuntapuram, Tirupati - APPCB",03-11-2025 07:00:00,13.615387,79.409230,PM2.5,44,414,160
India,Andhra_Pradesh,Tirupati,"Vaikuntapuram, Tirupati - APPCB",03-11-2025 07:00:00,13.615387,79.409230,OZONE,29,30,29
India,Andhra_Pradesh,Vijayawada,"HB Colony, Vijayawada - APPCB",03-11-2025 07:00:00,16.536107,80.594233,PM2.5,58,74,63
India,Andhra_Pradesh,Vijayawada,"HB Colony, Vijayawada - APPCB",03-11-2025 07:00:00,16.536107,80.594233,NH3,4,4,4
India,Andhra_Pradesh,Vijayawada,"HB Colony, Vijayawada - APPCB",03-11-2025 07:00:00,16.536107,80.594233,SO2,12,19,14
India,Andhra_Pradesh,Vijayawada,"Rajiv Gandhi Park, Vijayawada - APPCB",03-11-2025 07:00:00,16.509717,80.612222,CO,31,34,33
India,Andhra_Pradesh,Vijayawada,"Rajiv Gandhi Park, Vijayawada - APPCB",03-11-2025 07:00:00,16.509717,80.612222,OZONE,26,45,28
India,Andhra_Pradesh,Vijayawada,"Rajiv Nagar, Vijayawada - APPCB",03-11-2025 07:00:00,16.554731,80.649110,OZONE,56,374,165
India,Andhra_Pradesh,Visakhapatnam,"GVM Corporation, Visakhapatnam - APPCB",03-11-2025 07:00:00,17.72,83.3,PM10,NA,NA,NA
India,Andhra_Pradesh,Visakhapatnam,"GVM Corporation, Visakhapatnam - APPCB",03-11-2025 07:00:00,17.72,83.3,CO,4,47,21
India,Arunachal_Pradesh,Naharlagun,"Naharlagun, Naharlagun - APSPCB",03-11-2025 07:00:00,27.103358,93.679645,NO2,5,6,6
India,Assam,Guwahati,"IITG, Guwahati - PCBA",03-11-2025 07:00:00,26.2028636,91.70046436,OZONE,3,18,6
India,Assam,Guwahati,"LGBI Airport, Guwahati - PCBA",03-11-2025 07:00:00,26.10887,91.589544,PM2.5,74,83,79
India,Assam,Guwahati,"LGBI Airport, Guwahati - PCBA",03-11-2025 07:00:00,26.10887,91.589544,NH3,6,6,6
India,Bihar,Buxar,"Charitra Van, Buxar - BSPCB",03-11-2025 07:00:00,25.567520,83.966379,PM10,52,90,73
India,Bihar,Buxar,"Charitra Van, Buxar - BSPCB",03-11-2025 07:00:00,25.567520,83.966379,NO2,9,10,10
India,Bihar,Buxar,"Charitra Van, Buxar - BSPCB",03-11-2025 07:00:00,25.567520,83.966379,SO2,1,13,6
India,Bihar,Chhapra,"Darshan Nagar, Chhapra - BSPCB",03-11-2025 07:00:00,25.7808257,84.7446768,NH3,5,6,5
India,Bihar,Gaya,"Kareemganj, Gaya - BSPCB",03-11-2025 07:00:00,24.792403,84.992416,PM2.5,37,217,120
India,Bihar,Gaya,"Kareemganj, Gaya - BSPCB",03-11-2025 07:00:00,24.792403,84.992416,PM10,68,180,135
India,Bihar,Gaya,"Kareemganj, Gaya - BSPCB",03-11-2025 07:00:00,24.792403,84.992416,NO2,2,7,5
India,Bihar,Gaya,"Kareemganj, Gaya - BSPCB",03-11-2025 07:00:00,24.792403,84.992416,NH3,4,6,5
India,Bihar,Gaya,"SFTI Kusdihra, Gaya - BSPCB",03-11-2025 07:00:00,24.762518,84.982348,NO2,19,26,22
India,Bihar,Motihari,"Gandak Colony, Motihari - BSPCB",03-11-2025 07:00:00,26.63086,84.90051,OZONE,NA,NA,NA
India,Bihar,Munger,"Town Hall, Munger - BSPCB",03-11-2025 07:00:00,25.376776,86.471523,PM2.5,5,107,39
India,Bihar,Munger,"Town Hall, Munger - BSPCB",03-11-2025 07:00:00,25.376776,86.471523,NO2,4,5,5
India,Bihar,Muzaffarpur,"Buddha Colony, Muzaffarpur - BSPCB",03-11-2025 07:00:00,26.11442,85.39813,OZONE,16,80,47
India,Bihar,Muzaffarpur,"MIT-Daudpur Kothi, Muzaffarpur - BSPCB",03-11-2025 07:00:00,26.1403345,85.3650192,NO2,8,13,10
India,Bihar,Muzaffarpur,"MIT-Daudpur Kothi, Muzaffarpur - BSPCB",03-11-2025 07:00:00,26.1403345,85.3650192,SO2,12,23,18
India,Bihar,Muzaffarpur,"Muzaffarpur Collectorate, Muzaffarpur - BSPCB",03-11-2025 07:00:00,26.1209,85.3647,PM2.5,27,48,39
India,Assam,Guwahati,"Pan Bazaar, Guwahati - PCBA",03-11-2025 07:00:00,26.187500,91.744194,SO2,27,31,29
India,Assam,Guwahati,"Pan Bazaar, Guwahati - PCBA",03-11-2025 07:00:00,26.187500,91.744194,CO,14,18,14
India,Assam,Guwahati,"Pan Bazaar, Guwahati - PCBA",03-11-2025 07:00:00,26.187500,91.744194,OZONE,17,18,18
India,Assam,Nagaon,"Christianpatty, Nagaon - PCBA",03-11-2025 07:00:00,26.349082,92.68449,SO2,2,14,12
India,Assam,Nalbari,"Bata Chowk, Nalbari - PCBA",03-11-2025 07:00:00,26.446912,91.439057,SO2,1,8,7
India,Assam,Silchar,"Tarapur, Silchar - PCBA",03-11-2025 07:00:00,24.82827,92.79525,PM10,46,57,49
India,Assam,Silchar,"Tarapur, Silchar - PCBA",03-11-2025 07:00:00,24.82827,92.79525,NH3,1,1,1
India,Assam,Silchar,"Tarapur, Silchar - PCBA",03-11-2025 07:00:00,24.82827,92.79525,SO2,4,8,6
India,Andhra_Pradesh,Anantapur,"Gulzarpet, Anantapur - APPCB",03-11-2025 07:00:00,14.675886,77.593027,PM10,35,54,45
India,Andhra_Pradesh,Chittoor,"Gangineni Cheruvu, Chittoor - APPCB",03-11-2025 07:00:00,13.204880,79.097889,NO2,14,34,25
India,Andhra_Pradesh,Chittoor,"Gangineni Cheruvu, Chittoor - APPCB",03-11-2025 07:00:00,13.204880,79.097889,SO2,7,34,16
India,Andhra_Pradesh,Kadapa,"Yerramukkapalli, Kadapa - APPCB",03-11-2025 07:00:00,14.465052,78.824187,NO2,19,19,19
India,Andhra_Pradesh,Kadapa,"Yerramukkapalli, Kadapa - APPCB",03-11-2025 07:00:00,14.465052,78.824187,NH3,5,5,5
India,Andhra_Pradesh,Kadapa,"Yerramukkapalli, Kadapa - APPCB",03-11-2025 07:00:00,14.465052,78.824187,CO,22,30,25
India,Bihar,Begusarai,"Lohiyanagar, Begusarai - BSPCB",03-11-2025 07:00:00,25.42742023,86.13886079,PM10,44,78,60
India,Bihar,Bettiah,"Kamalnath Nagar, Bettiah - BSPCB",03-11-2025 07:00:00,26.80365,84.51954,OZONE,22,24,23
India,Bihar,Bhagalpur,"Mayaganj, Bhagalpur - BSPCB",03-11-2025 07:00:00,25.265194,87.012947,PM2.5,3,57,24
India,Bihar,Bihar Sharif,"D M Colony, Bihar Sharif - BSPCB",03-11-2025 07:00:00,25.204762,85.514960,NH3,4,6,5
India,Bihar,Katihar,"Mirchaibari, Katihar - BSPCB",03-11-2025 07:00:00,25.560083,87.553265,CO,68,93,80
India,Bihar,Kishanganj,"SDM Office_Khagra, Kishanganj - BSPCB",03-11-2025 07:00:00,26.0881305,87.93840336,PM2.5,22,379,139
India,Bihar,Kishanganj,"SDM Office_Khagra, Kishanganj - BSPCB",03-11-2025 07:00:00,26.0881305,87.93840336,OZONE,16,18,17
India,Bihar,Manguraha,"Forest Rest House, Manguraha - BSPCB",03-11-2025 07:00:00,27.308328,84.531742,NH3,1,3,2
India,Assam,Sivasagar,"Girls College, Sivasagar - PCBA",03-11-2025 07:00:00,26.987634,94.636574,PM2.5,14,24,16
India,Assam,Sivasagar,"Girls College, Sivasagar - PCBA",03-11-2025 07:00:00,26.987634,94.636574,PM10,21,29,23
India,Assam,Sivasagar,"Girls College, Sivasagar - PCBA",03-11-2025 07:00:00,26.987634,94.636574,NH3,5,9,7
India,Assam,Sivasagar,"Girls College, Sivasagar - PCBA",03-11-2025 07:00:00,26.987634,94.636574,SO2,8,13,10
India,Bihar,Aurangabad,"Gurdeo Nagar, Aurangabad - BSPCB",03-11-2025 07:00:00,24.75746,84.366208,NH3,1,2,2
India,Andhra_Pradesh,Amaravati,"Secretariat, Amaravati - APPCB",03-11-2025 07:00:00,16.5150833,80.5181667,PM2.5,9,75,26
India,Delhi,Delhi,"Aya Nagar, Delhi - IMD",03-11-2025 07:00:00,28.4706914,77.1099364,PM10,155,427,247
India,Delhi,Delhi,"Aya Nagar, Delhi - IMD",03-11-2025 07:00:00,28.4706914,77.1099364,NO2,18,64,41
India,Delhi,Delhi,"Aya Nagar, Delhi - IMD",03-11-2025 07:00:00,28.4706914,77.1099364,OZONE,8,147,32
India,Delhi,Delhi,"Bawana, Delhi - DPCC",03-11-2025 07:00:00,28.776200,77.051074,PM2.5,270,443,370
India,Delhi,Delhi,"Bawana, Delhi - DPCC",03-11-2025 07:00:00,28.776200,77.051074,NO2,10,77,33
India,Delhi,Delhi,"Bawana, Delhi - DPCC",03-11-2025 07:00:00,28.776200,77.051074,OZONE,5,120,20
India,Delhi,Delhi,"Burari Crossing, Delhi - IMD",03-11-2025 07:00:00,28.7256504,77.2011573,CO,15,84,54
India,Delhi,Delhi,"CRRI Mathura Road, Delhi - IMD",03-11-2025 07:00:00,28.5512005,77.2735737,CO,24,82,43
India,Chhattisgarh,Raipur,"AIIMS, Raipur - CECB",03-11-2025 07:00:00,21.258815,81.578979,NO2,11,17,14
India,Chhattisgarh,Raipur,"Bhatagaon New ISBT, Raipur - CECB",03-11-2025 07:00:00,21.219665,81.630094,PM2.5,NA,NA,NA
India,Chhattisgarh,Raipur,"Bhatagaon New ISBT, Raipur - CECB",03-11-2025 07:00:00,21.219665,81.630094,CO,NA,NA,NA
India,Chhattisgarh,Raipur,"Krishak Nagar, Raipur - CECB",03-11-2025 07:00:00,21.237755,81.705301,CO,26,36,33
India,Chhattisgarh,Raipur,"Siltara Phase-II, Raipur - CECB",03-11-2025 07:00:00,21.371751,81.664929,PM2.5,24,48,37
India,Chhattisgarh,Raipur,"Siltara Phase-II, Raipur - CECB",03-11-2025 07:00:00,21.371751,81.664929,NO2,6,17,11
India,Chhattisgarh,Raipur,"Siltara Phase-II, Raipur - CECB",03-11-2025 07:00:00,21.371751,81.664929,SO2,4,17,9
India,Bihar,Samastipur,"DM Office_Kasipur, Samastipur - BSPCB",03-11-2025 07:00:00,25.859655,85.77944,NH3,NA,NA,NA
India,Bihar,Samastipur,"DM Office_Kasipur, Samastipur - BSPCB",03-11-2025 07:00:00,25.859655,85.77944,SO2,NA,NA,NA
India,Bihar,Samastipur,"DM Office_Kasipur, Samastipur - BSPCB",03-11-2025 07:00:00,25.859655,85.77944,OZONE,NA,NA,NA
India,Bihar,Sasaram,"Dada Peer, Sasaram - BSPCB",03-11-2025 07:00:00,24.952822,84.002396,SO2,NA,NA,NA
India,Bihar,Sasaram,"Dada Peer, Sasaram - BSPCB",03-11-2025 07:00:00,24.952822,84.002396,OZONE,11,22,17
India,Bihar,Siwan,"Chitragupta Nagar, Siwan - BSPCB",03-11-2025 07:00:00,26.2271665,84.3570427,SO2,6,6,6
India,Bihar,Siwan,"Chitragupta Nagar, Siwan - BSPCB",03-11-2025 07:00:00,26.2271665,84.3570427,OZONE,10,11,10
India,Bihar,Patna,"Samanpura, Patna - BSPCB",03-11-2025 07:00:00,25.596727,85.085624,NO2,40,52,45
India,Bihar,Purnia,"Mariam Nagar, Purnia - BSPCB",03-11-2025 07:00:00,25.366336,87.117468,NO2,5,6,6
India,Bihar,Rajgir,"Dangi Tola, Rajgir - BSPCB",03-11-2025 07:00:00,25.03280,85.41948,PM10,26,101,72
India,Bihar,Rajgir,"Dangi Tola, Rajgir - BSPCB",03-11-2025 07:00:00,25.03280,85.41948,NH3,5,7,6
India,Bihar,Rajgir,"Dangi Tola, Rajgir - BSPCB",03-11-2025 07:00:00,25.03280,85.41948,SO2,17,24,21
India,Chhattisgarh,Korba,"Rampur, Korba - CECB",03-11-2025 07:00:00,22.368195,82.746431,PM2.5,53,75,66
India,Chhattisgarh,Korba,"Rampur, Korba - CECB",03-11-2025 07:00:00,22.368195,82.746431,SO2,5,13,8
India,Chhattisgarh,Milupara,"Govt. Higher Secondary School, Milupara - CECB",03-11-2025 07:00:00,22.1910172,83.5197009,NH3,1,2,2
India,Chhattisgarh,Raipur,"AIIMS, Raipur - CECB",03-11-2025 07:00:00,21.258815,81.578979,PM10,30,116,61
India,Chandigarh,Chandigarh,"Sector-25, Chandigarh - CPCC",03-11-2025 07:00:00,30.751462,76.762879,PM2.5,154,277,214
India,Chandigarh,Chandigarh,"Sector-53, Chandigarh - CPCC",03-11-2025 07:00:00,30.719859,76.738637,NO2,15,100,31
India,Chhattisgarh,Bhilai,"32Bungalows, Bhilai - CECB",03-11-2025 07:00:00,21.194815,81.314770,NO2,2,35,15
India,Chhattisgarh,Bhilai,"32Bungalows, Bhilai - CECB",03-11-2025 07:00:00,21.194815,81.314770,CO,6,38,22
India,Chhattisgarh,Bhilai,"Civic Center, Bhilai - Bhilai Steel Plant",03-11-2025 07:00:00,21.185571,81.343175,CO,21,22,22
India,Chhattisgarh,Chhal,"Nawapara SECL Colony, Chhal - CECB",03-11-2025 07:00:00,22.118125,83.140608,PM2.5,24,62,43
India,Chhattisgarh,Chhal,"Nawapara SECL Colony, Chhal - CECB",03-11-2025 07:00:00,22.118125,83.140608,SO2,5,34,15
India,Bihar,Patna,"IGSC Planetarium Complex, Patna - BSPCB",03-11-2025 07:00:00,25.610369,85.132568,NO2,1,20,16
India,Bihar,Patna,"Muradpur, Patna - BSPCB",03-11-2025 07:00:00,25.619651,85.147382,CO,28,72,51
India,Bihar,Patna,"Muradpur, Patna - BSPCB",03-11-2025 07:00:00,25.619651,85.147382,OZONE,5,40,5
India,Delhi,Delhi,"Anand Vihar, Delhi - DPCC",03-11-2025 07:00:00,28.647622,77.3158090,OZONE,16,47,19
India,Delhi,Delhi,"Najafgarh, Delhi - DPCC",03-11-2025 07:00:00,28.570173,76.933762,NO2,96,119,108
India,Delhi,Delhi,"Najafgarh, Delhi - DPCC",03-11-2025 07:00:00,28.570173,76.933762,SO2,NA,NA,NA
India,Delhi,Delhi,"Narela, Delhi - DPCC",03-11-2025 07:00:00,28.822836,77.101981,PM2.5,233,500,382
India,Delhi,Delhi,"Narela, Delhi - DPCC",03-11-2025 07:00:00,28.822836,77.101981,CO,8,77,50
India,Delhi,Delhi,"Nehru Nagar, Delhi - DPCC",03-11-2025 07:00:00,28.567890,77.250515,NO2,27,116,71
India,Delhi,Delhi,"North Campus, DU, Delhi - IMD",03-11-2025 07:00:00,28.6573814,77.1585447,CO,2,107,66
India,Delhi,Delhi,"Okhla Phase-2, Delhi - DPCC",03-11-2025 07:00:00,28.530785,77.271255,PM10,159,399,235
India,Delhi,Delhi,"Okhla Phase-2, Delhi - DPCC",03-11-2025 07:00:00,28.530785,77.271255,NO2,50,146,98
India,Delhi,Delhi,"Patparganj, Delhi - DPCC",03-11-2025 07:00:00,28.623763,77.287209,PM2.5,193,429,336
India,Delhi,Delhi,"Patparganj, Delhi - DPCC",03-11-2025 07:00:00,28.623763,77.287209,SO2,4,9,6
India,Delhi,Delhi,"Punjabi Bagh, Delhi - DPCC",03-11-2025 07:00:00,28.674045,77.131023,NH3,3,4,3
India,Delhi,Delhi,"Punjabi Bagh, Delhi - DPCC",03-11-2025 07:00:00,28.674045,77.131023,SO2,5,18,11
India,Delhi,Delhi,"Punjabi Bagh, Delhi - DPCC",03-11-2025 07:00:00,28.674045,77.131023,OZONE,3,91,20
India,Delhi,Delhi,"Pusa, Delhi - DPCC",03-11-2025 07:00:00,28.639652,77.146275,CO,61,103,76
India,Delhi,Delhi,"IHBAS, Dilshad Garden, Delhi - CPCB",03-11-2025 07:00:00,28.6811736,77.3025234,NH3,4,7,5
India,Delhi,Delhi,"ITO, Delhi - CPCB",03-11-2025 07:00:00,28.628624,77.241060,PM2.5,NA,NA,NA
India,Delhi,Delhi,"ITO, Delhi - CPCB",03-11-2025 07:00:00,28.628624,77.241060,NH3,1,3,2
India,Delhi,Delhi,"Lodhi Road, Delhi - IITM",03-11-2025 07:00:00,28.588333,77.221667,PM2.5,91,327,210
India,Delhi,Delhi,"Lodhi Road, Delhi - IITM",03-11-2025 07:00:00,28.588333,77.221667,NO2,139,185,158
India,Delhi,Delhi,"Lodhi Road, Delhi - IMD",03-11-2025 07:00:00,28.5918245,77.2273074,PM2.5,190,421,310
India,Gujarat,Ahmedabad,"Chandkheda, Ahmedabad - IITM",03-11-2025 07:00:00,23.107969,72.574648,PM10,36,91,67
India,Gujarat,Ahmedabad,"Chandkheda, Ahmedabad - IITM",03-11-2025 07:00:00,23.107969,72.574648,NO2,6,52,28
India,Gujarat,Ahmedabad,"Chandkheda, Ahmedabad - IITM",03-11-2025 07:00:00,23.107969,72.574648,SO2,13,20,16
India,Gujarat,Ahmedabad,"Gyaspur, Ahmedabad - IITM",03-11-2025 07:00:00,22.977134,72.553024,SO2,2,23,14
India,Gujarat,Ahmedabad,"Gyaspur, Ahmedabad - IITM",03-11-2025 07:00:00,22.977134,72.553024,OZONE,8,23,10
India,Gujarat,Ahmedabad,"Maninagar, Ahmedabad - GPCB",03-11-2025 07:00:00,23.002657,72.591912,PM10,21,112,85
India,Delhi,Delhi,"Sonia Vihar, Delhi - DPCC",03-11-2025 07:00:00,28.710508,77.249485,CO,38,108,65
India,Delhi,Delhi,"Sonia Vihar, Delhi - DPCC",03-11-2025 07:00:00,28.710508,77.249485,OZONE,7,94,9
India,Delhi,Delhi,"Sri Aurobindo Marg, Delhi - DPCC",03-11-2025 07:00:00,28.531346,77.190156,NO2,12,44,29
India,Delhi,Delhi,"Sri Aurobindo Marg, Delhi - DPCC",03-11-2025 07:00:00,28.531346,77.190156,SO2,3,8,5
India,Delhi,Delhi,"Vivek Vihar, Delhi - DPCC",03-11-2025 07:00:00,28.672342,77.315260,CO,38,103,96
India,Gujarat,Ahmedabad,"SAC ISRO Bopal, Ahmedabad - IITM",03-11-2025 07:00:00,23.041137,72.456691,NO2,18,25,22
India,Gujarat,Ahmedabad,"SAC ISRO Satellite, Ahmedabad - IITM",03-11-2025 07:00:00,23.023389,72.515201,NO2,5,36,16
India,Gujarat,Ahmedabad,"SAC ISRO Satellite, Ahmedabad - IITM",03-11-2025 07:00:00,23.023389,72.515201,CO,1,48,16
India,Gujarat,Ahmedabad,"SVPI Airport Hansol, Ahmedabad - IITM",03-11-2025 07:00:00,23.076793,72.627874,NO2,41,64,53
India,Delhi,Delhi,"Pusa, Delhi - IMD",03-11-2025 07:00:00,28.636110,77.173332,CO,18,101,62
India,Delhi,Delhi,"Rohini, Delhi - DPCC",03-11-2025 07:00:00,28.732528,77.119920,PM10,160,438,305
India,Delhi,Delhi,"Rohini, Delhi - DPCC",03-11-2025 07:00:00,28.732528,77.119920,SO2,4,18,6
India,Delhi,Delhi,"Shadipur, Delhi - CPCB",03-11-2025 07:00:00,28.6514781,77.1473105,CO,34,109,65
India,Delhi,Delhi,"Major Dhyan Chand National Stadium, Delhi - DPCC",03-11-2025 07:00:00,28.611281,77.237738,OZONE,2,160,5
India,Delhi,Delhi,"Mundka, Delhi - DPCC",03-11-2025 07:00:00,28.684678,77.076574,NO2,82,198,126
India,Delhi,Delhi,"NSIT Dwarka, Delhi - CPCB",03-11-2025 07:00:00,28.60909,77.0325413,PM2.5,180,373,259
India,Delhi,Delhi,"Chandni Chowk, Delhi - IITM",03-11-2025 07:00:00,28.656756,77.227234,SO2,28,61,40
India,Delhi,Delhi,"DTU, Delhi - CPCB",03-11-2025 07:00:00,28.7500499,77.1112615,NH3,11,16,12
India,Delhi,Delhi,"IHBAS, Dilshad Garden, Delhi - CPCB",03-11-2025 07:00:00,28.6811736,77.3025234,PM10,155,321,224
India,Haryana,Dharuhera,"Municipal Corporation Office, Dharuhera -  HSPCB",03-11-2025 07:00:00,28.206800,76.799700,SO2,1,5,5
India,Haryana,Faridabad,"New Industrial Town, Faridabad - HSPCB",03-11-2025 07:00:00,28.39072,77.30059,PM2.5,222,235,230
India,Haryana,Faridabad,"New Industrial Town, Faridabad - HSPCB",03-11-2025 07:00:00,28.39072,77.30059,NO2,23,26,25
India,Haryana,Faridabad,"New Industrial Town, Faridabad - HSPCB",03-11-2025 07:00:00,28.39072,77.30059,SO2,8,8,8
India,Haryana,Faridabad,"Sector 11, Faridabad - HSPCB",03-11-2025 07:00:00,28.376058,77.315741,PM10,105,240,141
India,Haryana,Faridabad,"Sector 11, Faridabad - HSPCB",03-11-2025 07:00:00,28.376058,77.315741,SO2,2,103,47
India,Haryana,Faridabad,"Sector 30, Faridabad - HSPCB",03-11-2025 07:00:00,28.4417,77.3217,PM2.5,164,171,167
India,Haryana,Faridabad,"Sector 30, Faridabad - HSPCB",03-11-2025 07:00:00,28.4417,77.3217,PM10,165,169,167
India,Haryana,Faridabad,"Sector 30, Faridabad - HSPCB",03-11-2025 07:00:00,28.4417,77.3217,OZONE,18,19,19
India,Haryana,Fatehabad,"Huda Sector, Fatehabad - HSPCB",03-11-2025 07:00:00,29.503664,75.467934,NO2,18,21,19
India,Haryana,Fatehabad,"Huda Sector, Fatehabad - HSPCB",03-11-2025 07:00:00,29.503664,75.467934,NH3,13,15,14
India,Haryana,Sonipat,"Murthal, Sonipat - HSPCB",03-11-2025 07:00:00,29.027200,77.062100,CO,36,38,37
India,Haryana,Yamuna Nagar,"Gobind Pura, Yamuna Nagar - HSPCB",03-11-2025 07:00:00,30.1480566,77.2893471,PM2.5,98,360,288
India,Himachal Pradesh,Baddi,"HIMUDA Complex Phase-1, Baddi - HPPCB",03-11-2025 07:00:00,30.943887,76.801991,CO,59,99,77
India,Himachal Pradesh,Baddi,"HIMUDA Complex Phase-1, Baddi - HPPCB",03-11-2025 07:00:00,30.943887,76.801991,OZONE,7,208,42
India,Jharkhand,Dhanbad,"Sardar Patel Nagar, Dhanbad - JSPCB",03-11-2025 07:00:00,23.80569,86.44268,OZONE,1,13,4
India,Jharkhand,Jorapokhar,"Tata Stadium, Jorapokhar - JSPCB",03-11-2025 07:00:00,23.707909,86.414670,PM10,NA,NA,NA
India,Haryana,Jind,"Police Lines, Jind - HSPCB",03-11-2025 07:00:00,29.307814,76.337619,CO,2,108,48
India,Haryana,Kaithal,"Rishi Nagar, Kaithal - HSPCB",03-11-2025 07:00:00,29.8006,76.4155,SO2,29,33,31
India,Haryana,Karnal,"Sector-12, Karnal - HSPCB",03-11-2025 07:00:00,29.695300,77.002700,NH3,6,7,6
India,Haryana,Kurukshetra,"Sector-7, Kurukshetra - HSPCB",03-11-2025 07:00:00,29.966942,76.875879,NO2,16,22,19
India,Haryana,Kurukshetra,"Sector-7, Kurukshetra - HSPCB",03-11-2025 07:00:00,29.966942,76.875879,CO,27,84,62
India,Haryana,Mandikhera,"General Hospital, Mandikhera - HSPCB",03-11-2025 07:00:00,27.9002,76.9938,PM2.5,79,170,112
India,Haryana,Mandikhera,"General Hospital, Mandikhera - HSPCB",03-11-2025 07:00:00,27.9002,76.9938,OZONE,23,32,27
India,Gujarat,Ankleshwar,"GIDC, Ankleshwar - GPCB",03-11-2025 07:00:00,21.613267,73.010555,OZONE,47,61,48
India,Gujarat,Gandhinagar,"GIFT City, Gandhinagar - IITM",03-11-2025 07:00:00,23.163798,72.677768,PM10,43,75,63
India,Gujarat,Gandhinagar,"GIFT City, Gandhinagar - IITM",03-11-2025 07:00:00,23.163798,72.677768,OZONE,1,33,6
India,Gujarat,Gandhinagar,"IIPHG Lekawada, Gandhinagar - IITM",03-11-2025 07:00:00,23.243639,72.68994,PM10,34,55,42
India,Gujarat,Gandhinagar,"IIPHG Lekawada, Gandhinagar - IITM",03-11-2025 07:00:00,23.243639,72.68994,NH3,1,1,1
India,Gujarat,Gandhinagar,"IIPHG Lekawada, Gandhinagar - IITM",03-11-2025 07:00:00,23.243639,72.68994,SO2,5,7,6
India,Gujarat,Gandhinagar,"IIPHG Lekawada, Gandhinagar - IITM",03-11-2025 07:00:00,23.243639,72.68994,CO,19,54,27
India,Gujarat,Gandhinagar,"Sector-10, Gandhinagar - GPCB",03-11-2025 07:00:00,23.221714,72.654328,NH3,1,1,1
India,Haryana,Bahadurgarh,"Arya Nagar, Bahadurgarh - HSPCB",03-11-2025 07:00:00,28.6701,76.9254,NH3,12,13,13
India,Haryana,Ballabgarh,"Nathu Colony, Ballabgarh - HSPCB",03-11-2025 07:00:00,28.3419248,77.319699,NO2,19,21,20
India,Haryana,Ballabgarh,"Nathu Colony, Ballabgarh - HSPCB",03-11-2025 07:00:00,28.3419248,77.319699,CO,49,52,50
India,Haryana,Charkhi Dadri,"Mini Secretariat, Charkhi Dadri - HSPCB",03-11-2025 07:00:00,28.593883,76.270653,NH3,5,8,6
India,Haryana,Dharuhera,"Municipal Corporation Office, Dharuhera -  HSPCB",03-11-2025 07:00:00,28.206800,76.799700,PM10,22,468,224
India,Haryana,Dharuhera,"Municipal Corporation Office, Dharuhera -  HSPCB",03-11-2025 07:00:00,28.206800,76.799700,NO2,14,51,39
India,Haryana,Panipat,"Sector-18, Panipat - HSPCB",03-11-2025 07:00:00,29.432304,76.972765,NO2,31,32,31
India,Haryana,Panipat,"Sector-18, Panipat - HSPCB",03-11-2025 07:00:00,29.432304,76.972765,SO2,6,10,8
India,Haryana,Rohtak,"MD University, Rohtak - HSPCB",03-11-2025 07:00:00,28.52123,76.37138,NO2,NA,NA,NA
India,Haryana,Sirsa,"F-Block, Sirsa - HSPCB",03-11-2025 07:00:00,29.536400,75.015800,NO2,10,26,18
India,Haryana,Sirsa,"F-Block, Sirsa - HSPCB",03-11-2025 07:00:00,29.536400,75.015800,SO2,5,8,7
India,Haryana,Sirsa,"F-Block, Sirsa - HSPCB",03-11-2025 07:00:00,29.536400,75.015800,OZONE,53,70,58
India,Gujarat,Surat,"Science Center, Surat - SMC",03-11-2025 07:00:00,21.170046,72.795405,NO2,16,22,18
India,Gujarat,Surat,"Science Center, Surat - SMC",03-11-2025 07:00:00,21.170046,72.795405,CO,35,36,36
India,Gujarat,Vapi,"Phase-1 GIDC, Vapi - GPCB",03-11-2025 07:00:00,20.362421,72.918013,PM2.5,17,81,34
India,Gujarat,Vatva,"Phase-4 GIDC, Vatva - GPCB",03-11-2025 07:00:00,22.969611,72.643500,NO2,12,15,13
India,Haryana,Ambala,"Patti Mehar, Ambala - HSPCB",03-11-2025 07:00:00,30.379589,76.778328,NO2,20,24,22
India,Haryana,Gurugram,"NISE Gwal Pahari, Gurugram - IMD",03-11-2025 07:00:00,28.422681,77.148944,OZONE,5,71,8
India,Haryana,Hisar,"Urban Estate-II, Hisar - HSPCB",03-11-2025 07:00:00,29.140560,75.744941,SO2,11,16,12
India,Haryana,Jind,"Police Lines, Jind - HSPCB",03-11-2025 07:00:00,29.307814,76.337619,NH3,4,6,5
India,Haryana,Panchgaon,"Amity University, Panchgaon - IITM",03-11-2025 07:00:00,28.3153,76.9143,PM2.5,51,233,85
India,Haryana,Panchgaon,"Amity University, Panchgaon - IITM",03-11-2025 07:00:00,28.3153,76.9143,SO2,1,23,8
India,Haryana,Panchgaon,"Amity University, Panchgaon - IITM",03-11-2025 07:00:00,28.3153,76.9143,CO,52,90,75
India,Karnataka,Chikkamagaluru,"Kalyana Nagara, Chikkamagaluru - KSPCB",03-11-2025 07:00:00,13.328028,75.797056,PM10,30,71,56
India,Karnataka,Davanagere,"Devaraj Urs Badavane, Davanagere - KSPCB",03-11-2025 07:00:00,14.475800,75.905200,NH3,1,3,2
India,Karnataka,Dharwad,"Kalabhavan, Dharwad - KSPCB",03-11-2025 07:00:00,15.459706,75.008381,NO2,19,22,21
India,Karnataka,Dharwad,"Kalabhavan, Dharwad - KSPCB",03-11-2025 07:00:00,15.459706,75.008381,SO2,1,3,2
India,Karnataka,Dharwad,"Kalabhavan, Dharwad - KSPCB",03-11-2025 07:00:00,15.459706,75.008381,CO,29,46,34
India,Karnataka,Gadag,"Panchal Nagar, Gadag - KSPCB",03-11-2025 07:00:00,15.411456,75.638133,PM2.5,10,281,31
India,Karnataka,Gadag,"Panchal Nagar, Gadag - KSPCB",03-11-2025 07:00:00,15.411456,75.638133,PM10,15,236,36
India,Karnataka,Gadag,"Panchal Nagar, Gadag - KSPCB",03-11-2025 07:00:00,15.411456,75.638133,NH3,3,4,3
