country,state,city,station,last_update,latitude,longitude,pollutant_id,min_value,max_value,avg_value
India,Andhra_Pradesh,Rajamahendravaram,"Anand Kala Kshetram, Rajamahendravaram - APPCB",21-12-2025 08:00:00,16.9872867,81.7363176,PM10,122,187,152
India,Andhra_Pradesh,Rajamahendravaram,"Anand Kala Kshetram, Rajamahendravaram - APPCB",21-12-2025 08:00:00,16.9872867,81.7363176,NH3,2,5,4
India,Andhra_Pradesh,Tirumala,"Toll Gate, Tirumala - APPCB",21-12-2025 08:00:00,13.67,79.35,PM10,113,158,131
India,Andhra_Pradesh,Tirumala,"Toll Gate, Tirumala - APPCB",21-12-2025 08:00:00,13.67,79.35,NO2,8,24,15
India,Andhra_Pradesh,Tirumala,"Toll Gate, Tirumala - APPCB",21-12-2025 08:00:00,13.67,79.35,NH3,1,3,2
India,Andhra_Pradesh,Tirupati,"Vaikuntapuram, Tirupati - APPCB",21-12-2025 08:00:00,13.615387,79.409230,PM2.5,27,329,100
India,Andhra_Pradesh,Tirupati,"Vaikuntapuram, Tirupati - APPCB",21-12-2025 08:00:00,13.615387,79.409230,PM10,21,211,66
India,Andhra_Pradesh,Vijayawada,"HB Colony, Vijayawada - APPCB",21-12-2025 08:00:00,16.536107,80.594233,PM10,36,134,90
India,Andhra_Pradesh,Vijayawada,"Kanuru, Vijayawada - APPCB",21-12-2025 08:00:00,16.486692,80.699436,OZONE,21,29,21
India,Andhra_Pradesh,Vijayawada,"Rajiv Gandhi Park, Vijayawada - APPCB",21-12-2025 08:00:00,16.509717,80.612222,PM2.5,63,237,133
India,Andhra_Pradesh,Vijayawada,"Rajiv Gandhi Park, Vijayawada - APPCB",21-12-2025 08:00:00,16.509717,80.612222,CO,26,36,28
India,Andhra_Pradesh,Visakhapatnam,"GVM Corporation, Visakhapatnam - APPCB",21-12-2025 08:00:00,17.72,83.3,NO2,24,248,108
India,Andhra_Pradesh,Visakhapatnam,"GVM Corporation, Visakhapatnam - APPCB",21-12-2025 08:00:00,17.72,83.3,CO,26,106,80
India,Arunachal_Pradesh,Naharlagun,"Naharlagun, Naharlagun - APSPCB",21-12-2025 08:00:00,27.103358,93.679645,PM10,44,434,149
India,Bihar,Gaya,"Kareemganj, Gaya - BSPCB",21-12-2025 08:00:00,24.792403,84.992416,PM10,122,199,152
India,Bihar,Gaya,"Kareemganj, Gaya - BSPCB",21-12-2025 08:00:00,24.792403,84.992416,NO2,3,8,5
India,Bihar,Gaya,"SFTI Kusdihra, Gaya - BSPCB",21-12-2025 08:00:00,24.762518,84.982348,NO2,22,26,23
India,Bihar,Hajipur,"Industrial Area, Hajipur - BSPCB",21-12-2025 08:00:00,25.697189,85.245900,NH3,3,12,7
India,Bihar,Hajipur,"Industrial Area, Hajipur - BSPCB",21-12-2025 08:00:00,25.697189,85.245900,SO2,6,10,8
India,Bihar,Hajipur,"Industrial Area, Hajipur - BSPCB",21-12-2025 08:00:00,25.697189,85.245900,CO,1,29,12
India,Bihar,Katihar,"Mirchaibari, Katihar - BSPCB",21-12-2025 08:00:00,25.560083,87.553265,PM10,50,93,66
India,Bihar,Bettiah,"Kamalnath Nagar, Bettiah - BSPCB",21-12-2025 08:00:00,26.80365,84.51954,NH3,1,2,1
India,Bihar,Bettiah,"Kamalnath Nagar, Bettiah - BSPCB",21-12-2025 08:00:00,26.80365,84.51954,OZONE,22,24,23
India,Bihar,Bhagalpur,"Mayaganj, Bhagalpur - BSPCB",21-12-2025 08:00:00,25.265194,87.012947,PM2.5,110,283,213
India,Bihar,Bhagalpur,"Mayaganj, Bhagalpur - BSPCB",21-12-2025 08:00:00,25.265194,87.012947,PM10,84,136,116
India,Bihar,Bhagalpur,"Mayaganj, Bhagalpur - BSPCB",21-12-2025 08:00:00,25.265194,87.012947,OZONE,8,9,9
India,Bihar,Bihar Sharif,"D M Colony, Bihar Sharif - BSPCB",21-12-2025 08:00:00,25.204762,85.514960,PM2.5,113,280,205
India,Assam,Guwahati,"Railway Colony, Guwahati - PCBA",21-12-2025 08:00:00,26.181742,91.78063,NO2,3,4,3
India,Assam,Nagaon,"Christianpatty, Nagaon - PCBA",21-12-2025 08:00:00,26.349082,92.68449,SO2,10,13,12
India,Assam,Nagaon,"Christianpatty, Nagaon - PCBA",21-12-2025 08:00:00,26.349082,92.68449,OZONE,8,9,9
India,Assam,Nalbari,"Bata Chowk, Nalbari - PCBA",21-12-2025 08:00:00,26.446912,91.439057,NO2,14,15,14
India,Assam,Silchar,"Tarapur, Silchar - PCBA",21-12-2025 08:00:00,24.82827,92.79525,CO,33,68,45
India,Andhra_Pradesh,Amaravati,"Secretariat, Amaravati - APPCB",21-12-2025 08:00:00,16.5150833,80.5181667,SO2,1,23,7
India,Andhra_Pradesh,Anantapur,"Gulzarpet, Anantapur - APPCB",21-12-2025 08:00:00,14.675886,77.593027,OZONE,18,82,28
India,Andhra_Pradesh,Kadapa,"Yerramukkapalli, Kadapa - APPCB",21-12-2025 08:00:00,14.465052,78.824187,PM10,56,156,103
India,Andhra_Pradesh,Kadapa,"Yerramukkapalli, Kadapa - APPCB",21-12-2025 08:00:00,14.465052,78.824187,NO2,24,27,25
India,Andhra_Pradesh,Kadapa,"Yerramukkapalli, Kadapa - APPCB",21-12-2025 08:00:00,14.465052,78.824187,NH3,3,3,3
India,Arunachal_Pradesh,Naharlagun,"Naharlagun, Naharlagun - APSPCB",21-12-2025 08:00:00,27.103358,93.679645,NH3,1,1,1
India,Assam,Byrnihat,"Central Academy for SFS, Byrnihat - PCBA",21-12-2025 08:00:00,26.071318,91.87488,NH3,3,4,4
India,Assam,Guwahati,"Pan Bazaar, Guwahati - PCBA",21-12-2025 08:00:00,26.187500,91.744194,OZONE,17,18,17
India,Assam,Guwahati,"Railway Colony, Guwahati - PCBA",21-12-2025 08:00:00,26.181742,91.78063,PM2.5,67,375,231
India,Assam,Sivasagar,"Girls College, Sivasagar - PCBA",21-12-2025 08:00:00,26.987634,94.636574,CO,10,104,73
India,Bihar,Araria,"Kharahiya Basti, Araria - BSPCB",21-12-2025 08:00:00,26.146529,87.454184,CO,28,62,47
India,Bihar,Aurangabad,"Gurdeo Nagar, Aurangabad - BSPCB",21-12-2025 08:00:00,24.75746,84.366208,NH3,1,2,2
India,Bihar,Buxar,"Charitra Van, Buxar - BSPCB",21-12-2025 08:00:00,25.567520,83.966379,CO,18,28,25
India,Bihar,Gaya,"Collectorate, Gaya - BSPCB",21-12-2025 08:00:00,24.7955,84.9994,NO2,9,9,9
India,Andaman and Nicobar,Sri Vijaya Puram,"Police Line, Sri Vijaya Puram - ANPCC",21-12-2025 08:00:00,11.654054,92.734055,CO,10,16,15
India,Chandigarh,Chandigarh,"Sector-53, Chandigarh - CPCC",21-12-2025 08:00:00,30.719859,76.738637,NO2,25,77,50
India,Chandigarh,Chandigarh,"Sector-53, Chandigarh - CPCC",21-12-2025 08:00:00,30.719859,76.738637,SO2,14,25,18
India,Chandigarh,Chandigarh,"Sector-53, Chandigarh - CPCC",21-12-2025 08:00:00,30.719859,76.738637,CO,54,98,65
India,Chhattisgarh,Bhilai,"Civic Center, Bhilai - Bhilai Steel Plant",21-12-2025 08:00:00,21.185571,81.343175,PM2.5,34,158,75
India,Chhattisgarh,Bhilai,"Civic Center, Bhilai - Bhilai Steel Plant",21-12-2025 08:00:00,21.185571,81.343175,PM10,32,121,68
India,Chhattisgarh,Bhilai,"Civic Center, Bhilai - Bhilai Steel Plant",21-12-2025 08:00:00,21.185571,81.343175,SO2,7,10,8
India,Chhattisgarh,Bhilai,"Civic Center, Bhilai - Bhilai Steel Plant",21-12-2025 08:00:00,21.185571,81.343175,CO,21,22,22
India,Chhattisgarh,Bhilai,"Hathkhoj, Bhilai - CECB",21-12-2025 08:00:00,21.224231,81.408350,PM2.5,21,66,42
India,Bihar,Samastipur,"DM Office_Kasipur, Samastipur - BSPCB",21-12-2025 08:00:00,25.859655,85.77944,PM2.5,88,312,134
India,Bihar,Samastipur,"DM Office_Kasipur, Samastipur - BSPCB",21-12-2025 08:00:00,25.859655,85.77944,PM10,85,177,111
India,Bihar,Sasaram,"Dada Peer, Sasaram - BSPCB",21-12-2025 08:00:00,24.952822,84.002396,PM2.5,46,94,71
India,Bihar,Sasaram,"Dada Peer, Sasaram - BSPCB",21-12-2025 08:00:00,24.952822,84.002396,PM10,117,171,142
India,Bihar,Siwan,"Chitragupta Nagar, Siwan - BSPCB",21-12-2025 08:00:00,26.2271665,84.3570427,PM10,96,118,110
India,Bihar,Siwan,"Chitragupta Nagar, Siwan - BSPCB",21-12-2025 08:00:00,26.2271665,84.3570427,CO,30,80,80
India,Bihar,Katihar,"Mirchaibari, Katihar - BSPCB",21-12-2025 08:00:00,25.560083,87.553265,SO2,15,21,18
India,Bihar,Katihar,"Mirchaibari, Katihar - BSPCB",21-12-2025 08:00:00,25.560083,87.553265,CO,60,85,75
India,Bihar,Kishanganj,"SDM Office_Khagra, Kishanganj - BSPCB",21-12-2025 08:00:00,26.0881305,87.93840336,PM2.5,37,48,41
India,Bihar,Kishanganj,"SDM Office_Khagra, Kishanganj - BSPCB",21-12-2025 08:00:00,26.0881305,87.93840336,PM10,98,151,134
India,Bihar,Manguraha,"Forest Rest House, Manguraha - BSPCB",21-12-2025 08:00:00,27.308328,84.531742,CO,32,33,32
India,Bihar,Munger,"Town Hall, Munger - BSPCB",21-12-2025 08:00:00,25.376776,86.471523,OZONE,14,21,16
India,Bihar,Muzaffarpur,"Buddha Colony, Muzaffarpur - BSPCB",21-12-2025 08:00:00,26.11442,85.39813,PM10,69,102,88
India,Bihar,Muzaffarpur,"Buddha Colony, Muzaffarpur - BSPCB",21-12-2025 08:00:00,26.11442,85.39813,NO2,18,375,41
India,Bihar,Muzaffarpur,"MIT-Daudpur Kothi, Muzaffarpur - BSPCB",21-12-2025 08:00:00,26.1403345,85.3650192,CO,48,68,48
India,Bihar,Muzaffarpur,"MIT-Daudpur Kothi, Muzaffarpur - BSPCB",21-12-2025 08:00:00,26.1403345,85.3650192,OZONE,10,44,16
India,Bihar,Patna,"DRM Office Danapur, Patna - BSPCB",21-12-2025 08:00:00,25.586562,85.043586,CO,46,70,54
India,Bihar,Patna,"DRM Office Danapur, Patna - BSPCB",21-12-2025 08:00:00,25.586562,85.043586,OZONE,24,55,34
India,Bihar,Patna,"Govt. High School Shikarpur, Patna - BSPCB",21-12-2025 08:00:00,25.592539,85.227158,NO2,12,42,18
India,Bihar,Patna,"Muradpur, Patna - BSPCB",21-12-2025 08:00:00,25.619651,85.147382,PM2.5,95,232,140
India,Chandigarh,Chandigarh,"Sector 22, Chandigarh - CPCC",21-12-2025 08:00:00,30.735567,76.775714,PM10,71,191,112
India,Chandigarh,Chandigarh,"Sector 22, Chandigarh - CPCC",21-12-2025 08:00:00,30.735567,76.775714,SO2,5,25,13
India,Chandigarh,Chandigarh,"Sector-25, Chandigarh - CPCC",21-12-2025 08:00:00,30.751462,76.762879,NH3,1,2,1
India,Chandigarh,Chandigarh,"Sector-25, Chandigarh - CPCC",21-12-2025 08:00:00,30.751462,76.762879,CO,36,53,39
India,Chhattisgarh,Bhilai,"Hathkhoj, Bhilai - CECB",21-12-2025 08:00:00,21.224231,81.408350,CO,29,90,66
India,Chhattisgarh,Bhilai,"Hathkhoj, Bhilai - CECB",21-12-2025 08:00:00,21.224231,81.408350,OZONE,3,12,4
India,Chhattisgarh,Bilaspur,"Mangala, Bilaspur - NTPC",21-12-2025 08:00:00,22.08815,82.13737,NO2,20,90,32
India,Bihar,Purnia,"Mariam Nagar, Purnia - BSPCB",21-12-2025 08:00:00,25.366336,87.117468,NH3,3,3,3
India,Bihar,Rajgir,"Dangi Tola, Rajgir - BSPCB",21-12-2025 08:00:00,25.03280,85.41948,PM10,37,213,130
India,Bihar,Rajgir,"Dangi Tola, Rajgir - BSPCB",21-12-2025 08:00:00,25.03280,85.41948,OZONE,31,34,32
India,Bihar,Patna,"Muradpur, Patna - BSPCB",21-12-2025 08:00:00,25.619651,85.147382,OZONE,4,23,5
India,Bihar,Patna,"Samanpura, Patna - BSPCB",21-12-2025 08:00:00,25.596727,85.085624,NO2,20,21,21
India,Chhattisgarh,Korba,"Rampur, Korba - CECB",21-12-2025 08:00:00,22.368195,82.746431,CO,28,40,32
India,Chhattisgarh,Kunjemura,"OP Jindal School, Kunjemura - CECB",21-12-2025 08:00:00,22.126650,83.483212,NO2,NA,NA,NA
India,Chhattisgarh,Kunjemura,"OP Jindal School, Kunjemura - CECB",21-12-2025 08:00:00,22.126650,83.483212,NH3,NA,NA,NA
India,Chhattisgarh,Milupara,"Govt. Higher Secondary School, Milupara - CECB",21-12-2025 08:00:00,22.1910172,83.5197009,PM2.5,88,231,158
India,Chhattisgarh,Milupara,"Govt. Higher Secondary School, Milupara - CECB",21-12-2025 08:00:00,22.1910172,83.5197009,PM10,82,270,132
India,Chhattisgarh,Milupara,"Govt. Higher Secondary School, Milupara - CECB",21-12-2025 08:00:00,22.1910172,83.5197009,SO2,14,34,18
India,Chhattisgarh,Milupara,"Govt. Higher Secondary School, Milupara - CECB",21-12-2025 08:00:00,22.1910172,83.5197009,OZONE,4,182,11
India,Chhattisgarh,Raipur,"Siltara Phase-II, Raipur - CECB",21-12-2025 08:00:00,21.371751,81.664929,OZONE,3,4,3
India,Delhi,Delhi,"Alipur, Delhi - DPCC",21-12-2025 08:00:00,28.815329,77.153010,CO,28,108,59
India,Delhi,Delhi,"Alipur, Delhi - DPCC",21-12-2025 08:00:00,28.815329,77.153010,OZONE,6,16,7
India,Delhi,Delhi,"Anand Vihar, Delhi - DPCC",21-12-2025 08:00:00,28.647622,77.3158090,PM2.5,345,477,426
India,Delhi,Delhi,"Ashok Vihar, Delhi - DPCC",21-12-2025 08:00:00,28.695381,77.181665,SO2,10,19,15
India,Delhi,Delhi,"Chandni Chowk, Delhi - IITM",21-12-2025 08:00:00,28.656756,77.227234,NO2,26,105,75
India,Delhi,Delhi,"DTU, Delhi - CPCB",21-12-2025 08:00:00,28.7500499,77.1112615,PM10,190,471,323
India,Delhi,Delhi,"DTU, Delhi - CPCB",21-12-2025 08:00:00,28.7500499,77.1112615,SO2,30,42,35
India,Delhi,Delhi,"Dr. Karni Singh Shooting Range, Delhi - DPCC",21-12-2025 08:00:00,28.498571,77.264840,PM10,141,358,256
India,Delhi,Delhi,"Dwarka-Sector 8, Delhi - DPCC ",21-12-2025 08:00:00,28.5710274,77.0719006,SO2,21,33,29
India,Chhattisgarh,Raipur,"AIIMS, Raipur - CECB",21-12-2025 08:00:00,21.258815,81.578979,PM10,29,123,69
India,Chhattisgarh,Raipur,"AIIMS, Raipur - CECB",21-12-2025 08:00:00,21.258815,81.578979,SO2,4,8,6
India,Chhattisgarh,Raipur,"Krishak Nagar, Raipur - CECB",21-12-2025 08:00:00,21.237755,81.705301,PM10,27,49,37
India,Chhattisgarh,Raipur,"Krishak Nagar, Raipur - CECB",21-12-2025 08:00:00,21.237755,81.705301,NO2,19,28,24
India,Chhattisgarh,Raipur,"Krishak Nagar, Raipur - CECB",21-12-2025 08:00:00,21.237755,81.705301,SO2,6,9,7
India,Chhattisgarh,Raipur,"Siltara Phase-II, Raipur - CECB",21-12-2025 08:00:00,21.371751,81.664929,PM2.5,26,54,38
India,Delhi,Delhi,"IGI Airport (T3), Delhi - IMD",21-12-2025 08:00:00,28.5627763,77.1180053,PM10,181,413,274
India,Delhi,Delhi,"IGI Airport (T3), Delhi - IMD",21-12-2025 08:00:00,28.5627763,77.1180053,CO,12,102,22
India,Delhi,Delhi,"IHBAS, Dilshad Garden, Delhi - CPCB",21-12-2025 08:00:00,28.6811736,77.3025234,PM2.5,323,417,376
India,Delhi,Delhi,"IIT Delhi, Delhi - IITM",21-12-2025 08:00:00,28.542460,77.191651,NO2,42,102,65
India,Delhi,Delhi,"IIT Delhi, Delhi - IITM",21-12-2025 08:00:00,28.542460,77.191651,OZONE,12,36,17
India,Delhi,Delhi,"Mandir Marg, Delhi - DPCC",21-12-2025 08:00:00,28.636429,77.201067,PM10,197,417,298
India,Delhi,Delhi,"Mandir Marg, Delhi - DPCC",21-12-2025 08:00:00,28.636429,77.201067,NO2,65,113,88
India,Delhi,Delhi,"Mundka, Delhi - DPCC",21-12-2025 08:00:00,28.684678,77.076574,NO2,43,157,77
India,Delhi,Delhi,"NSIT Dwarka, Delhi - CPCB",21-12-2025 08:00:00,28.60909,77.0325413,PM10,264,490,408
India,Delhi,Delhi,"NSIT Dwarka, Delhi - CPCB",21-12-2025 08:00:00,28.60909,77.0325413,CO,54,101,71
India,Delhi,Delhi,"ITO, Delhi - CPCB",21-12-2025 08:00:00,28.628624,77.241060,PM2.5,79,474,393
India,Delhi,Delhi,"ITO, Delhi - CPCB",21-12-2025 08:00:00,28.628624,77.241060,NH3,3,5,4
India,Delhi,Delhi,"Jahangirpuri, Delhi - DPCC",21-12-2025 08:00:00,28.732820,77.170633,PM10,217,447,359
India,Delhi,Delhi,"Lodhi Road, Delhi - IITM",21-12-2025 08:00:00,28.588333,77.221667,PM10,177,339,237
India,Delhi,Delhi,"Lodhi Road, Delhi - IITM",21-12-2025 08:00:00,28.588333,77.221667,NO2,2,67,26
India,Delhi,Delhi,"Burari Crossing, Delhi - IMD",21-12-2025 08:00:00,28.7256504,77.2011573,PM2.5,306,491,378
India,Delhi,Delhi,"Burari Crossing, Delhi - IMD",21-12-2025 08:00:00,28.7256504,77.2011573,PM10,169,457,304
India,Delhi,Delhi,"Chandni Chowk, Delhi - IITM",21-12-2025 08:00:00,28.656756,77.227234,PM2.5,392,500,448
India,Delhi,Delhi,"North Campus, DU, Delhi - IMD",21-12-2025 08:00:00,28.6573814,77.1585447,PM2.5,328,500,392
India,Delhi,Delhi,"North Campus, DU, Delhi - IMD",21-12-2025 08:00:00,28.6573814,77.1585447,CO,30,133,74
India,Gujarat,Ahmedabad,"Raikhad, Ahmedabad - IITM",21-12-2025 08:00:00,23.020509,72.579261,NH3,12,54,25
India,Gujarat,Ahmedabad,"Rakhial, Ahmedabad - IITM",21-12-2025 08:00:00,23.016834,72.625775,PM2.5,72,347,189
India,Gujarat,Ahmedabad,"Rakhial, Ahmedabad - IITM",21-12-2025 08:00:00,23.016834,72.625775,PM10,82,165,131
India,Gujarat,Ahmedabad,"Rakhial, Ahmedabad - IITM",21-12-2025 08:00:00,23.016834,72.625775,SO2,36,84,54
India,Gujarat,Ahmedabad,"SAC ISRO Bopal, Ahmedabad - IITM",21-12-2025 08:00:00,23.041137,72.456691,PM2.5,NA,NA,NA
India,Gujarat,Ahmedabad,"SAC ISRO Bopal, Ahmedabad - IITM",21-12-2025 08:00:00,23.041137,72.456691,SO2,1,64,9
India,Gujarat,Ahmedabad,"SAC ISRO Satellite, Ahmedabad - IITM",21-12-2025 08:00:00,23.023389,72.515201,PM2.5,63,188,104
India,Gujarat,Ahmedabad,"Chandkheda, Ahmedabad - IITM",21-12-2025 08:00:00,23.107969,72.574648,NH3,6,23,12
India,Gujarat,Ahmedabad,"Chandkheda, Ahmedabad - IITM",21-12-2025 08:00:00,23.107969,72.574648,SO2,5,41,13
India,Gujarat,Ahmedabad,"Gyaspur, Ahmedabad - IITM",21-12-2025 08:00:00,22.977134,72.553024,CO,16,144,82
India,Gujarat,Ahmedabad,"Maninagar, Ahmedabad - GPCB",21-12-2025 08:00:00,23.002657,72.591912,PM10,56,265,127
India,Gujarat,Ahmedabad,"Maninagar, Ahmedabad - GPCB",21-12-2025 08:00:00,23.002657,72.591912,SO2,26,43,36
India,Gujarat,Ahmedabad,"Maninagar, Ahmedabad - GPCB",21-12-2025 08:00:00,23.002657,72.591912,CO,20,44,29
India,Gujarat,Ahmedabad,"SVPI Airport Hansol, Ahmedabad - IITM",21-12-2025 08:00:00,23.076793,72.627874,OZONE,2,42,5
India,Gujarat,Ankleshwar,"GIDC, Ankleshwar - GPCB",21-12-2025 08:00:00,21.613267,73.010555,NO2,18,19,18
India,Gujarat,Ankleshwar,"GIDC, Ankleshwar - GPCB",21-12-2025 08:00:00,21.613267,73.010555,NH3,5,5,5
India,Gujarat,Ankleshwar,"GIDC, Ankleshwar - GPCB",21-12-2025 08:00:00,21.613267,73.010555,OZONE,35,40,36
India,Gujarat,Gandhinagar,"GIFT City, Gandhinagar - IITM",21-12-2025 08:00:00,23.163798,72.677768,PM10,88,187,127
India,Gujarat,Gandhinagar,"IIPHG Lekawada, Gandhinagar - IITM",21-12-2025 08:00:00,23.243639,72.68994,PM10,67,188,106
India,Gujarat,Gandhinagar,"IIPHG Lekawada, Gandhinagar - IITM",21-12-2025 08:00:00,23.243639,72.68994,NH3,2,3,2
India,Gujarat,Gandhinagar,"Sector-10, Gandhinagar - GPCB",21-12-2025 08:00:00,23.221714,72.654328,PM2.5,9,179,53
India,Gujarat,Gandhinagar,"Sector-10, Gandhinagar - GPCB",21-12-2025 08:00:00,23.221714,72.654328,NH3,2,4,3
India,Gujarat,Surat,"Science Center, Surat - SMC",21-12-2025 08:00:00,21.170046,72.795405,SO2,20,32,27
India,Delhi,Delhi,"Pusa, Delhi - DPCC",21-12-2025 08:00:00,28.639652,77.146275,PM2.5,321,420,373
India,Delhi,Delhi,"Pusa, Delhi - IMD",21-12-2025 08:00:00,28.636110,77.173332,PM10,192,352,269
India,Delhi,Delhi,"Pusa, Delhi - IMD",21-12-2025 08:00:00,28.636110,77.173332,CO,64,119,85
India,Delhi,Delhi,"R K Puram, Delhi - DPCC",21-12-2025 08:00:00,28.563262,77.186937,CO,39,114,94
India,Delhi,Delhi,"Rohini, Delhi - DPCC",21-12-2025 08:00:00,28.732528,77.119920,PM2.5,356,500,433
India,Delhi,Delhi,"Okhla Phase-2, Delhi - DPCC",21-12-2025 08:00:00,28.530785,77.271255,OZONE,3,43,18
India,Delhi,Delhi,"Patparganj, Delhi - DPCC",21-12-2025 08:00:00,28.623763,77.287209,PM2.5,342,476,404
India,Delhi,Delhi,"Patparganj, Delhi - DPCC",21-12-2025 08:00:00,28.623763,77.287209,NO2,30,100,69
India,Delhi,Delhi,"Punjabi Bagh, Delhi - DPCC",21-12-2025 08:00:00,28.674045,77.131023,NH3,6,9,8
India,Delhi,Delhi,"Punjabi Bagh, Delhi - DPCC",21-12-2025 08:00:00,28.674045,77.131023,SO2,14,36,26
India,Delhi,Delhi,"Shadipur, Delhi - CPCB",21-12-2025 08:00:00,28.6514781,77.1473105,OZONE,15,46,32
India,Delhi,Delhi,"Sirifort, Delhi - CPCB",21-12-2025 08:00:00,28.5504249,77.2159377,NO2,43,60,55
India,Delhi,Delhi,"Sirifort, Delhi - CPCB",21-12-2025 08:00:00,28.5504249,77.2159377,CO,41,104,70
India,Delhi,Delhi,"Sonia Vihar, Delhi - DPCC",21-12-2025 08:00:00,28.710508,77.249485,NH3,10,17,13
India,Delhi,Delhi,"Sonia Vihar, Delhi - DPCC",21-12-2025 08:00:00,28.710508,77.249485,OZONE,3,40,11
India,Delhi,Delhi,"Sri Aurobindo Marg, Delhi - DPCC",21-12-2025 08:00:00,28.531346,77.190156,CO,76,110,87
India,Delhi,Delhi,"Vivek Vihar, Delhi - DPCC",21-12-2025 08:00:00,28.672342,77.315260,PM10,223,436,349
India,Delhi,Delhi,"Vivek Vihar, Delhi - DPCC",21-12-2025 08:00:00,28.672342,77.315260,NO2,34,96,62
India,Delhi,Delhi,"Wazirpur, Delhi - DPCC",21-12-2025 08:00:00,28.699793,77.165453,CO,48,115,76
India,Gujarat,Vapi,"Phase-1 GIDC, Vapi - GPCB",21-12-2025 08:00:00,20.362421,72.918013,OZONE,8,9,8
India,Gujarat,Vatva,"Phase-4 GIDC, Vatva - GPCB",21-12-2025 08:00:00,22.969611,72.643500,OZONE,19,47,19
India,Haryana,Bahadurgarh,"Arya Nagar, Bahadurgarh - HSPCB",21-12-2025 08:00:00,28.6701,76.9254,SO2,7,7,7
India,Haryana,Mandikhera,"General Hospital, Mandikhera(Nuh) - HSPCB",21-12-2025 08:00:00,27.9002,76.9938,SO2,32,38,35
India,Haryana,Manesar,"Sector-2 IMT, Manesar - HSPCB",21-12-2025 08:00:00,28.360699,76.936090,NH3,18,24,22
India,Haryana,Manesar,"Sector-2 IMT, Manesar - HSPCB",21-12-2025 08:00:00,28.360699,76.936090,CO,36,68,38
India,Haryana,Narnaul,"Shastri Nagar, Narnaul - HSPCB",21-12-2025 08:00:00,28.060249,76.113115,PM2.5,167,308,217
India,Haryana,Narnaul,"Shastri Nagar, Narnaul - HSPCB",21-12-2025 08:00:00,28.060249,76.113115,NH3,28,53,42
India,Haryana,Narnaul,"Shastri Nagar, Narnaul - HSPCB",21-12-2025 08:00:00,28.060249,76.113115,SO2,4,4,4
India,Haryana,Palwal,"Shyam Nagar, Palwal - HSPCB",21-12-2025 08:00:00,28.1485564,77.3320667,NO2,23,24,24
India,Haryana,Panchgaon,"Amity University, Panchgaon - IITM",21-12-2025 08:00:00,28.3153,76.9143,PM2.5,111,367,248
India,Haryana,Fatehabad,"Huda Sector, Fatehabad - HSPCB",21-12-2025 08:00:00,29.503664,75.467934,CO,25,34,27
India,Haryana,Gurugram,"NISE Gwal Pahari, Gurugram - IMD",21-12-2025 08:00:00,28.422681,77.148944,CO,66,107,71
India,Haryana,Gurugram,"Sector-51, Gurugram - HSPCB",21-12-2025 08:00:00,28.4227,77.0667,PM10,182,404,268
India,Haryana,Gurugram,"Sector-51, Gurugram - HSPCB",21-12-2025 08:00:00,28.4227,77.0667,NO2,4,10,6
India,Haryana,Gurugram,"Sector-51, Gurugram - HSPCB",21-12-2025 08:00:00,28.4227,77.0667,SO2,2,22,11
India,Haryana,Gurugram,"Sector-51, Gurugram - HSPCB",21-12-2025 08:00:00,28.4227,77.0667,CO,6,50,14
India,Haryana,Gurugram,"Teri Gram, Gurugram - HSPCB",21-12-2025 08:00:00,28.4275,77.1465,PM2.5,285,378,345
India,Haryana,Kaithal,"Rishi Nagar, Kaithal - HSPCB",21-12-2025 08:00:00,29.8006,76.4155,PM10,83,163,127
India,Haryana,Kaithal,"Rishi Nagar, Kaithal - HSPCB",21-12-2025 08:00:00,29.8006,76.4155,OZONE,4,24,4
India,Haryana,Karnal,"Sector-12, Karnal - HSPCB",21-12-2025 08:00:00,29.695300,77.002700,PM10,154,500,199
India,Haryana,Kurukshetra,"Sector-7, Kurukshetra - HSPCB",21-12-2025 08:00:00,29.966942,76.875879,PM2.5,204,318,277
India,Haryana,Kurukshetra,"Sector-7, Kurukshetra - HSPCB",21-12-2025 08:00:00,29.966942,76.875879,CO,26,62,47
India,Haryana,Mandikhera,"General Hospital, Mandikhera(Nuh) - HSPCB",21-12-2025 08:00:00,27.9002,76.9938,NO2,20,24,21
India,Haryana,Ballabgarh,"Nathu Colony, Ballabgarh - HSPCB",21-12-2025 08:00:00,28.3419248,77.319699,NH3,3,3,3
India,Haryana,Bhiwani,"H.B. Colony, Bhiwani - HSPCB",21-12-2025 08:00:00,28.806223,76.141105,NH3,1,9,8
India,Haryana,Charkhi Dadri,"Mini Secretariat, Charkhi Dadri - HSPCB",21-12-2025 08:00:00,28.593883,76.270653,PM2.5,98,319,195
India,Haryana,Dharuhera,"Municipal Corporation Office, Dharuhera -  HSPCB",21-12-2025 08:00:00,28.206800,76.799700,PM2.5,227,415,358
India,Haryana,Dharuhera,"Municipal Corporation Office, Dharuhera -  HSPCB",21-12-2025 08:00:00,28.206800,76.799700,CO,37,61,45
India,Haryana,Sonipat,"Murthal, Sonipat - HSPCB",21-12-2025 08:00:00,29.027200,77.062100,SO2,7,9,8
India,Haryana,Yamuna Nagar,"Gobind Pura, Yamuna Nagar - HSPCB",21-12-2025 08:00:00,30.1480566,77.2893471,PM10,116,171,141
India,Himachal Pradesh,Baddi,"HIMUDA Complex Phase-1, Baddi - HPPCB",21-12-2025 08:00:00,30.943887,76.801991,PM10,173,332,237
India,Himachal Pradesh,Baddi,"HIMUDA Complex Phase-1, Baddi - HPPCB",21-12-2025 08:00:00,30.943887,76.801991,OZONE,6,81,13
India,Jammu_and_Kashmir,Srinagar,"Khunmoh, Srinagar - JKPCC",21-12-2025 08:00:00,34.06313,74.96017,NO2,6,31,13
India,Karnataka,Belgaum,"Ramteerth Nagar, Belgaum - KSPCB",21-12-2025 08:00:00,15.888653,74.541751,PM2.5,37,149,73
India,Karnataka,Belgaum,"Ramteerth Nagar, Belgaum - KSPCB",21-12-2025 08:00:00,15.888653,74.541751,NO2,38,124,73
India,Karnataka,Belgaum,"Ramteerth Nagar, Belgaum - KSPCB",21-12-2025 08:00:00,15.888653,74.541751,NH3,9,12,10
India,Haryana,Faridabad,"New Industrial Town, Faridabad - HSPCB",21-12-2025 08:00:00,28.39072,77.30059,OZONE,24,37,31
India,Haryana,Faridabad,"Sector 11, Faridabad - HSPCB",21-12-2025 08:00:00,28.376058,77.315741,NH3,10,10,10
India,Haryana,Faridabad,"Sector 30, Faridabad - HSPCB",21-12-2025 08:00:00,28.4417,77.3217,PM10,159,164,161
India,Haryana,Faridabad,"Sector 30, Faridabad - HSPCB",21-12-2025 08:00:00,28.4417,77.3217,NH3,10,12,11
India,Haryana,Gurugram,"Vikas Sadan, Gurugram - HSPCB",21-12-2025 08:00:00,28.4501238,77.0263051,PM2.5,NA,NA,NA
India,Haryana,Jind,"Police Lines, Jind - HSPCB",21-12-2025 08:00:00,29.307814,76.337619,NO2,39,54,45
India,Haryana,Jind,"Police Lines, Jind - HSPCB",21-12-2025 08:00:00,29.307814,76.337619,CO,4,111,15
India,Haryana,Panchkula,"Sector-6, Panchkula - HSPCB ",21-12-2025 08:00:00,30.7057778,76.8531805555555,OZONE,33,39,37
India,Haryana,Rohtak,"MD University, Rohtak - HSPCB",21-12-2025 08:00:00,28.52123,76.37138,PM10,155,438,360
India,Karnataka,Tumakuru,"Thimmalapura, Tumakuru - KSPCB",21-12-2025 08:00:00,13.377516,77.099072,CO,52,54,54
India,Karnataka,Tumakuru,"Thimmalapura, Tumakuru - KSPCB",21-12-2025 08:00:00,13.377516,77.099072,OZONE,23,23,23
India,Karnataka,Yadgir,"Collector Office, Yadgir - KSPCB",21-12-2025 08:00:00,16.7602,77.1428,PM2.5,37,120,68
India,Karnataka,Yadgir,"Collector Office, Yadgir - KSPCB",21-12-2025 08:00:00,16.7602,77.1428,SO2,6,19,13
India,Kerala,Kannur,"Thavakkara, Kannur - Kerala PCB",21-12-2025 08:00:00,11.875000,75.373200,PM10,63,67,64
India,Kerala,Kannur,"Thavakkara, Kannur - Kerala PCB",21-12-2025 08:00:00,11.875000,75.373200,SO2,5,7,6
India,Kerala,Kannur,"Thavakkara, Kannur - Kerala PCB",21-12-2025 08:00:00,11.875000,75.373200,CO,16,19,17
India,Karnataka,Bengaluru,"Shivapura_Peenya, Bengaluru - KSPCB",21-12-2025 08:00:00,13.0246342,77.5080115,PM10,NA,NA,NA
India,Karnataka,Bengaluru,"Shivapura_Peenya, Bengaluru - KSPCB",21-12-2025 08:00:00,13.0246342,77.5080115,SO2,9,15,11
India,Karnataka,Bengaluru,"Shivapura_Peenya, Bengaluru - KSPCB",21-12-2025 08:00:00,13.0246342,77.5080115,CO,NA,NA,NA
India,Karnataka,Bengaluru,"Silk Board, Bengaluru - KSPCB",21-12-2025 08:00:00,12.917348,77.622813,OZONE,15,34,25
India,Karnataka,Chamarajanagar,"Urban, Chamarajanagar - KSPCB",21-12-2025 08:00:00,11.55358,76.55521,NO2,21,35,29
India,Karnataka,Chamarajanagar,"Urban, Chamarajanagar - KSPCB",21-12-2025 08:00:00,11.55358,76.55521,NH3,2,3,2
India,Karnataka,Chamarajanagar,"Urban, Chamarajanagar - KSPCB",21-12-2025 08:00:00,11.55358,76.55521,SO2,2,5,4
India,Karnataka,Bengaluru,"Hebbal, Bengaluru - KSPCB",21-12-2025 08:00:00,13.029152,77.585901,NO2,7,8,7
India,Karnataka,Bengaluru,"Hebbal, Bengaluru - KSPCB",21-12-2025 08:00:00,13.029152,77.585901,SO2,3,8,5
India,Karnataka,Bengaluru,"Hebbal, Bengaluru - KSPCB",21-12-2025 08:00:00,13.029152,77.585901,OZONE,7,14,9
India,Karnataka,Bengaluru,"Hombegowda Nagar, Bengaluru - KSPCB",21-12-2025 08:00:00,12.938539,77.590100,CO,18,54,24
India,Karnataka,Bengaluru,"Jayanagar 5th Block, Bengaluru - KSPCB",21-12-2025 08:00:00,12.920984,77.584908,OZONE,15,59,51
India,Karnataka,Bengaluru,"Jigani, Bengaluru - KSPCB",21-12-2025 08:00:00,12.7816279,77.6299145,NH3,5,5,5
India,Karnataka,Kalaburagi,"Lal Bahadur Shastri Nagar, Kalaburagi - KSPCB",21-12-2025 08:00:00,17.321993,76.822628,NO2,NA,NA,NA
India,Karnataka,Kalaburagi,"Lal Bahadur Shastri Nagar, Kalaburagi - KSPCB",21-12-2025 08:00:00,17.321993,76.822628,CO,30,52,30
India,Karnataka,Kalaburagi,"Mahatma Basaveswar Colony, Kalaburgi - KSPCB",21-12-2025 08:00:00,17.336318,76.847397,PM2.5,12,60,39
India,Karnataka,Kalaburagi,"Mahatma Basaveswar Colony, Kalaburgi - KSPCB",21-12-2025 08:00:00,17.336318,76.847397,CO,36,67,48
India,Karnataka,Koppal,"Diwator Nagar, Koppal - KSPCB",21-12-2025 08:00:00,15.347630,76.181767,NO2,32,36,34
India,Karnataka,Koppal,"Diwator Nagar, Koppal - KSPCB",21-12-2025 08:00:00,15.347630,76.181767,CO,7,20,18
India,Kerala,Kollam,"Polayathode, Kollam - Kerala PCB",21-12-2025 08:00:00,8.8787,76.6073,PM10,NA,NA,NA
India,Kerala,Thiruvananthapuram,"Kariavattom, Thiruvananthapuram - Kerala PCB",21-12-2025 08:00:00,8.563700,76.886500,PM10,72,124,94
India,Kerala,Thiruvananthapuram,"Kariavattom, Thiruvananthapuram - Kerala PCB",21-12-2025 08:00:00,8.563700,76.886500,NH3,1,1,1
India,Kerala,Thiruvananthapuram,"Plammoodu, Thiruvananthapuram - Kerala PCB",21-12-2025 08:00:00,8.5149093,76.9435879,PM10,58,108,80
India,Karnataka,Chamarajanagar,"Urban, Chamarajanagar - KSPCB",21-12-2025 08:00:00,11.55358,76.55521,OZONE,19,36,25
India,Karnataka,Chikkamagaluru,"Kalyana Nagara, Chikkamagaluru - KSPCB",21-12-2025 08:00:00,13.328028,75.797056,CO,11,11,11
India,Karnataka,Davanagere,"Devaraj Urs Badavane, Davanagere - KSPCB",21-12-2025 08:00:00,14.475800,75.905200,NH3,2,3,2
India,Karnataka,Bengaluru,"Kasturi Nagar, Bengaluru - KSPCB",21-12-2025 08:00:00,13.003872,77.664217,PM10,62,70,69
India,Karnataka,Bengaluru,"Kasturi Nagar, Bengaluru - KSPCB",21-12-2025 08:00:00,13.003872,77.664217,NH3,1,1,1
India,Karnataka,Bengaluru,"Peenya, Bengaluru - CPCB",21-12-2025 08:00:00,13.0270199,77.494094,PM2.5,18,58,38
India,Karnataka,Bengaluru,"RVCE-Mailasandra, Bengaluru - KSPCB",21-12-2025 08:00:00,12.921418,77.502466,NH3,2,3,2
India,Karnataka,Koppal,"Diwator Nagar, Koppal - KSPCB",21-12-2025 08:00:00,15.347630,76.181767,OZONE,1,15,3
India,Karnataka,Mangalore,"Kadri, Mangalore - KSPCB",21-12-2025 08:00:00,12.889250,74.853000,PM10,62,106,80
India,Karnataka,Mysuru,"Hebbal 1st Stage, Mysuru - KSPCB",21-12-2025 08:00:00,12.21041,76.37376,OZONE,5,46,6
India,Karnataka,Bengaluru,"BTM Layout, Bengaluru - CPCB",21-12-2025 08:00:00,12.9135218,77.5950804,CO,44,101,100
India,Karnataka,Bengaluru,"BWSSB Kadabesanahalli, Bengaluru - CPCB",21-12-2025 08:00:00,12.9352049,77.6814488,NO2,13,34,23
India,Madhya Pradesh,Jabalpur,"Marhatal, Jabalpur - MPPCB",21-12-2025 08:00:00,23.168606,79.932247,PM10,46,269,115
India,Madhya Pradesh,Jabalpur,"Marhatal, Jabalpur - MPPCB",21-12-2025 08:00:00,23.168606,79.932247,NO2,10,65,28
India,Madhya Pradesh,Jabalpur,"Marhatal, Jabalpur - MPPCB",21-12-2025 08:00:00,23.168606,79.932247,OZONE,8,106,15
India,Madhya Pradesh,Jabalpur,"Suhagi, Jabalpur - JMC",21-12-2025 08:00:00,23.218135,79.957770,PM10,31,125,68
India,Madhya Pradesh,Jabalpur,"Suhagi, Jabalpur - JMC",21-12-2025 08:00:00,23.218135,79.957770,NH3,2,7,4
India,Madhya Pradesh,Jabalpur,"Suhagi, Jabalpur - JMC",21-12-2025 08:00:00,23.218135,79.957770,CO,10,107,52
India,Madhya Pradesh,Jabalpur,"Suhagi, Jabalpur - JMC",21-12-2025 08:00:00,23.218135,79.957770,OZONE,23,24,24
India,Madhya Pradesh,Katni,"Gole Bazar, Katni - MPPCB",21-12-2025 08:00:00,23.50016,80.23284,NO2,17,78,46
India,Maharashtra,Akola,"Ramdaspeth, Akola - MPCB",21-12-2025 08:00:00,20.719516,77.000253,NH3,4,6,5
India,Maharashtra,Akola,"Ramdaspeth, Akola - MPCB",21-12-2025 08:00:00,20.719516,77.000253,OZONE,5,49,7
India,Maharashtra,Amravati,"Shri Shivaji Science College, Amravati - MPCB",21-12-2025 08:00:00,20.939198,77.765701,PM2.5,NA,NA,NA
India,Maharashtra,Amravati,"Shri Shivaji Science College, Amravati - MPCB",21-12-2025 08:00:00,20.939198,77.765701,PM10,49,234,115
India,Maharashtra,Amravati,"Shri Shivaji Science College, Amravati - MPCB",21-12-2025 08:00:00,20.939198,77.765701,NH3,1,17,7
India,Maharashtra,Amravati,"Shri Shivaji Science College, Amravati - MPCB",21-12-2025 08:00:00,20.939198,77.765701,OZONE,1,50,16
India,Maharashtra,Aurangabad,"MIDC Chilkalthana, Aurangabad - MPCB",21-12-2025 08:00:00,19.875620,75.387310,PM2.5,5,44,30
India,Madhya Pradesh,Indore,"Regional Park, Indore - IMC",21-12-2025 08:00:00,22.6780,75.8559,SO2,23,32,28
India,Madhya Pradesh,Indore,"Residency Area, Indore - IMC",21-12-2025 08:00:00,22.7084,75.8815,NO2,1,18,12
India,Madhya Pradesh,Jabalpur,"Govindh Bhavan Colony, Jabalpur - JMC",21-12-2025 08:00:00,23.163174,79.973061,PM2.5,22,130,45
India,Madhya Pradesh,Jabalpur,"Govindh Bhavan Colony, Jabalpur - JMC",21-12-2025 08:00:00,23.163174,79.973061,OZONE,23,24,24
India,Madhya Pradesh,Jabalpur,"Marhatal, Jabalpur - MPPCB",21-12-2025 08:00:00,23.168606,79.932247,PM2.5,46,420,157
India,Madhya Pradesh,Mandideep,"Sector-D Industrial Area, Mandideep - MPPCB",21-12-2025 08:00:00,23.108440,77.511428,NO2,58,164,110
India,Madhya Pradesh,Mandideep,"Sector-D Industrial Area, Mandideep - MPPCB",21-12-2025 08:00:00,23.108440,77.511428,NH3,NA,NA,NA
India,Madhya Pradesh,Mandideep,"Sector-D Industrial Area, Mandideep - MPPCB",21-12-2025 08:00:00,23.108440,77.511428,SO2,19,100,54
India,Madhya Pradesh,Pithampur,"Sector-2 Industrial Area, Pithampur - MPPCB",21-12-2025 08:00:00,22.624758,75.675238,PM2.5,60,268,125
India,Madhya Pradesh,Ratlam,"Shasthri Nagar, Ratlam - IPCA Lab",21-12-2025 08:00:00,23.331731,75.045981,PM10,60,177,111
India,Madhya Pradesh,Indore,"Airport Area, Indore - IMC",21-12-2025 08:00:00,22.7289,75.8076,SO2,18,18,18
India,Madhya Pradesh,Indore,"Chhoti Gwaltoli, Indore - MPPCB",21-12-2025 08:00:00,22.4310,75.5213,SO2,1,6,3
India,Madhya Pradesh,Indore,"Chhoti Gwaltoli, Indore - MPPCB",21-12-2025 08:00:00,22.4310,75.5213,CO,44,114,75
India,Madhya Pradesh,Indore,"Maguda Nagar, Indore - IMC",21-12-2025 08:00:00,22.7524,75.8872,PM2.5,NA,NA,NA
India,Madhya Pradesh,Indore,"Regional Park, Indore - IMC",21-12-2025 08:00:00,22.6780,75.8559,PM10,19,68,37
India,Madhya Pradesh,Bhopal,"Idgah Hills, Bhopal - MPPCB",21-12-2025 08:00:00,23.264759,77.381568,CO,14,96,42
India,Madhya Pradesh,Bhopal,"T T Nagar, Bhopal - MPPCB",21-12-2025 08:00:00,23.233584,77.400574,PM10,56,190,113
India,Madhya Pradesh,Bhopal,"T T Nagar, Bhopal - MPPCB",21-12-2025 08:00:00,23.233584,77.400574,SO2,14,65,24
India,Madhya Pradesh,Damoh,"Shrivastav Colony, Damoh - MPPCB",21-12-2025 08:00:00,23.81748678,79.446246,PM10,13,51,30
India,Madhya Pradesh,Dewas,"Bhopal Chauraha, Dewas - MPPCB",21-12-2025 08:00:00,22.9682591,76.064118,SO2,25,56,50
India,Madhya Pradesh,Gwalior,"City Center, Gwalior - MPPCB",21-12-2025 08:00:00,26.203442,78.193251,PM2.5,72,311,133
India,Madhya Pradesh,Gwalior,"Deen Dayal Nagar, Gwalior - MPPCB",21-12-2025 08:00:00,26.259242,78.216432,NO2,10,49,24
India,Madhya Pradesh,Ratlam,"Shasthri Nagar, Ratlam - IPCA Lab",21-12-2025 08:00:00,23.331731,75.045981,NO2,5,18,10
India,Madhya Pradesh,Sagar,"Civil Lines, Sagar - MPPCB",21-12-2025 08:00:00,23.838586,78.759431,NO2,8,72,20
India,Madhya Pradesh,Sagar,"Deen Dayal Nagar, Sagar - MPPCB",21-12-2025 08:00:00,23.8640158,78.80289321,NO2,4,86,38
India,Maharashtra,Akola,"Ramdaspeth, Akola - MPCB",21-12-2025 08:00:00,20.719516,77.000253,PM10,22,145,93
India,Maharashtra,Mumbai,"Kandivali West, Mumbai - BMC",21-12-2025 08:00:00,19.215859,72.831718,CO,12,109,71
India,Maharashtra,Mumbai,"Kandivali West, Mumbai - BMC",21-12-2025 08:00:00,19.215859,72.831718,OZONE,1,94,4
India,Maharashtra,Mumbai,"Kherwadi_Bandra East, Mumbai - MPCB",21-12-2025 08:00:00,19.0632143,72.8456324,CO,6,42,32
India,Maharashtra,Mumbai,"Khindipada-Bhandup West, Mumbai - IITM",21-12-2025 08:00:00,19.1653323,72.922099,NO2,32,68,47
India,Maharashtra,Mumbai,"Khindipada-Bhandup West, Mumbai - IITM",21-12-2025 08:00:00,19.1653323,72.922099,SO2,1,22,13
India,Maharashtra,Mumbai,"Malad West, Mumbai - IITM",21-12-2025 08:00:00,19.19709,72.82204,SO2,3,25,12
India,Maharashtra,Mumbai,"Deonar, Mumbai - IITM",21-12-2025 08:00:00,19.04946,72.9230,NO2,14,101,48
India,Maharashtra,Mumbai,"Deonar, Mumbai - IITM",21-12-2025 08:00:00,19.04946,72.9230,SO2,5,13,8
India,Maharashtra,Mumbai,"Ghatkopar, Mumbai - BMC",21-12-2025 08:00:00,19.083694,72.920967,PM10,66,150,110
India,Maharashtra,Mumbai,"Ghatkopar, Mumbai - BMC",21-12-2025 08:00:00,19.083694,72.920967,NO2,29,94,56
India,Maharashtra,Mumbai,"Kandivali West, Mumbai - BMC",21-12-2025 08:00:00,19.215859,72.831718,PM2.5,35,91,56
India,Maharashtra,Mumbai,"Kandivali West, Mumbai - BMC",21-12-2025 08:00:00,19.215859,72.831718,NO2,13,59,35
India,Maharashtra,Mumbai,"Kandivali West, Mumbai - BMC",21-12-2025 08:00:00,19.215859,72.831718,NH3,NA,NA,NA
India,Maharashtra,Mumbai,"Borivali East, Mumbai - IITM",21-12-2025 08:00:00,19.23241,72.86895,NH3,3,8,5
India,Maharashtra,Mumbai,"Borivali East, Mumbai - MPCB",21-12-2025 08:00:00,19.2243333,72.8658113,PM2.5,27,75,47
India,Maharashtra,Mumbai,"Byculla, Mumbai - BMC",21-12-2025 08:00:00,18.9767,72.8380,PM2.5,42,156,80
India,Maharashtra,Mumbai,"Byculla, Mumbai - BMC",21-12-2025 08:00:00,18.9767,72.8380,OZONE,1,51,1
India,Maharashtra,Mumbai,"Chakala-Andheri East, Mumbai - IITM",21-12-2025 08:00:00,19.11074,72.86084,PM2.5,34,80,56
India,Maharashtra,Mumbai,"Chakala-Andheri East, Mumbai - IITM",21-12-2025 08:00:00,19.11074,72.86084,CO,5,88,27
India,Maharashtra,Kalyan,"Khadakpada, Kalyan - MPCB",21-12-2025 08:00:00,19.25292,73.142019,PM10,21,183,89
India,Maharashtra,Kalyan,"Khadakpada, Kalyan - MPCB",21-12-2025 08:00:00,19.25292,73.142019,NO2,36,36,36
India,Maharashtra,Kalyan,"Pimpleshwar Mandir, Kalyan - MPCB",21-12-2025 08:00:00,19.192056,72.9585188,NO2,15,42,27
India,Maharashtra,Kalyan,"Pimpleshwar Mandir, Kalyan - MPCB",21-12-2025 08:00:00,19.192056,72.9585188,OZONE,5,96,10
India,Maharashtra,Kolhapur,"Shivaji University, Kolhapur - MPCB",21-12-2025 08:00:00,16.6870449,74.2505872,NH3,2,7,4
India,Maharashtra,Kolhapur,"Shivaji University, Kolhapur - MPCB",21-12-2025 08:00:00,16.6870449,74.2505872,OZONE,2,52,16
India,Maharashtra,Aurangabad,"MIDC Chilkalthana, Aurangabad - MPCB",21-12-2025 08:00:00,19.875620,75.387310,SO2,1,2,1
India,Maharashtra,Aurangabad,"Rachnakar Colony, Aurangabad - MPCB",21-12-2025 08:00:00,19.863756,75.321188,PM10,52,206,117
India,Maharashtra,Aurangabad,"Rachnakar Colony, Aurangabad - MPCB",21-12-2025 08:00:00,19.863756,75.321188,NO2,12,18,15
India,Maharashtra,Badlapur,"Katrap, Badlapur - MPCB",21-12-2025 08:00:00,19.16485,73.23409,OZONE,18,85,19
India,Maharashtra,Belapur,"CBD Belapur, Belapur - MPCB",21-12-2025 08:00:00,19.0243902,73.0406721,SO2,8,26,15
India,Maharashtra,Bhiwandi,"Gokul Nagar, Bhiwandi - MPCB",21-12-2025 08:00:00,19.309073,73.057223,PM10,85,152,129
India,Maharashtra,Boisar,"Khaira, Boisar - MPCB",21-12-2025 08:00:00,19.786089,72.757971,PM10,79,144,107
India,Maharashtra,Boisar,"Khaira, Boisar - MPCB",21-12-2025 08:00:00,19.786089,72.757971,CO,7,68,23
India,Maharashtra,Kolhapur,"Sinchan Bhavan, Kolhapur - MPCB",21-12-2025 08:00:00,16.7143745,74.2426398,SO2,2,8,5
India,Maharashtra,Kolhapur,"Sinchan Bhavan, Kolhapur - MPCB",21-12-2025 08:00:00,16.7143745,74.2426398,CO,20,65,51
India,Maharashtra,Kolhapur,"Sinchan Bhavan, Kolhapur - MPCB",21-12-2025 08:00:00,16.7143745,74.2426398,OZONE,1,37,5
India,Maharashtra,Mahad,"Kamble Tarf Birwadi, Mahad - MPCB",21-12-2025 08:00:00,18.1023399,73.4783687,NH3,2,10,6
India,Maharashtra,Chandrapur,"MIDC Khutala, Chandrapur - MPCB",21-12-2025 08:00:00,19.9775302,79.2337086,SO2,8,9,9
India,Maharashtra,Jalna,"Old MIDC, Jalna - MPCB",21-12-2025 08:00:00,19.854616,75.905894,PM10,30,127,60
India,Maharashtra,Jalna,"Old MIDC, Jalna - MPCB",21-12-2025 08:00:00,19.854616,75.905894,NO2,6,24,14
India,Maharashtra,Mira-Bhayandar,"Bhayandar West, Mira-Bhayandar - MPCB",21-12-2025 08:00:00,19.296481,72.840923,PM10,51,176,93
India,Maharashtra,Mira-Bhayandar,"Bhayandar West, Mira-Bhayandar - MPCB",21-12-2025 08:00:00,19.296481,72.840923,OZONE,3,78,11
India,Maharashtra,Navi Mumbai,"Mahape, Navi Mumbai - MPCB",21-12-2025 08:00:00,19.1135051,73.008978,PM2.5,49,173,79
India,Maharashtra,Navi Mumbai,"Mahape, Navi Mumbai - MPCB",21-12-2025 08:00:00,19.1135051,73.008978,PM10,50,107,70
India,Maharashtra,Navi Mumbai,"Mahape, Navi Mumbai - MPCB",21-12-2025 08:00:00,19.1135051,73.008978,CO,22,24,22
India,Maharashtra,Navi Mumbai,"Nerul, Navi Mumbai - MPCB",21-12-2025 08:00:00,19.008751,73.016620,PM2.5,34,259,113
India,Maharashtra,Navi Mumbai,"Sanpada, Navi Mumbai - MPCB",21-12-2025 08:00:00,19.0575752,73.0151367,PM10,58,170,128
India,Maharashtra,Navi Mumbai,"Sanpada, Navi Mumbai - MPCB",21-12-2025 08:00:00,19.0575752,73.0151367,NH3,2,72,22
India,Maharashtra,Navi Mumbai,"Sanpada, Navi Mumbai - MPCB",21-12-2025 08:00:00,19.0575752,73.0151367,OZONE,41,41,41
India,Maharashtra,Navi Mumbai,"Sector-2E Kalamboli, Navi Mumbai - MPCB",21-12-2025 08:00:00,19.02579,73.10297,PM10,22,190,119
India,Maharashtra,Mumbai,"Powai, Mumbai - MPCB",21-12-2025 08:00:00,19.137500,72.915056,PM2.5,NA,NA,NA
India,Maharashtra,Mumbai,"Powai, Mumbai - MPCB",21-12-2025 08:00:00,19.137500,72.915056,NH3,1,2,2
India,Maharashtra,Mumbai,"Sewri, Mumbai - BMC",21-12-2025 08:00:00,19.000084,72.856730,NH3,14,35,27
India,Maharashtra,Mumbai,"Shivaji Nagar, Mumbai - BMC",21-12-2025 08:00:00,19.060498,72.923356,PM2.5,23,118,68
India,Maharashtra,Mumbai,"Shivaji Nagar, Mumbai - BMC",21-12-2025 08:00:00,19.060498,72.923356,NO2,29,98,59
India,Maharashtra,Mumbai,"Siddharth Nagar-Worli, Mumbai - IITM",21-12-2025 08:00:00,19.000083,72.813993,NO2,NA,NA,NA
India,Maharashtra,Mumbai,"Siddharth Nagar-Worli, Mumbai - IITM",21-12-2025 08:00:00,19.000083,72.813993,NH3,5,10,7
India,Maharashtra,Navi Mumbai,"Tondare-Taloja, Navi Mumbai - MPCB",21-12-2025 08:00:00,19.0630,73.1209,CO,15,73,33
India,Maharashtra,Navi Mumbai,"Tondare-Taloja, Navi Mumbai - MPCB",21-12-2025 08:00:00,19.0630,73.1209,OZONE,10,28,10
India,Maharashtra,Parbhani,"Masoom Colony, Parbhani - MPCB",21-12-2025 08:00:00,19.265594,76.761463,PM10,45,128,89
India,Maharashtra,Parbhani,"Masoom Colony, Parbhani - MPCB",21-12-2025 08:00:00,19.265594,76.761463,SO2,4,10,7
India,Maharashtra,Parbhani,"Masoom Colony, Parbhani - MPCB",21-12-2025 08:00:00,19.265594,76.761463,CO,6,16,13
India,Maharashtra,Pune,"Bhumkar Nagar, Pune - IITM",21-12-2025 08:00:00,18.605770,73.749976,OZONE,2,77,24
India,Maharashtra,Pune,"Dhankawadi, Pune - IITM",21-12-2025 08:00:00,18.459883,73.852193,PM2.5,32,324,177
India,Maharashtra,Pune,"Hadapsar, Pune - IITM",21-12-2025 08:00:00,18.501793,73.927532,CO,30,143,63
India,Maharashtra,Pune,"Panchawati_Pashan, Pune - IITM",21-12-2025 08:00:00,18.536457,73.805454,NO2,16,70,29
India,Maharashtra,Nagpur,"Opp GPO Civil Lines, Nagpur - MPCB",21-12-2025 08:00:00,21.152875,79.0517531,SO2,4,102,15
India,Maharashtra,Nanded,"Sneh Nagar, Nanded - MPCB",21-12-2025 08:00:00,19.173852,77.296291,OZONE,8,78,17
India,Maharashtra,Nashik,"Gangapur Road, Nashik - MPCB",21-12-2025 08:00:00,20.0073285,73.7762427,PM10,31,138,77
India,Maharashtra,Pimpri-Chinchwad,"Park Street Wakad, Pimpri Chinchwad - MPCB",21-12-2025 08:00:00,18.59051,73.77946,NO2,51,101,72
India,Maharashtra,Pimpri-Chinchwad,"Thergaon, Pimpri Chinchwad - MPCB",21-12-2025 08:00:00,18.616318,73.765797,PM2.5,3,308,88
India,Maharashtra,Pimpri-Chinchwad,"Thergaon, Pimpri Chinchwad - MPCB",21-12-2025 08:00:00,18.616318,73.765797,SO2,1,4,3
India,Maharashtra,Mumbai,"Sion, Mumbai - MPCB",21-12-2025 08:00:00,19.047000,72.874600,CO,4,14,12
India,Maharashtra,Nagpur,"Ambazari, Nagpur - MPCB",21-12-2025 08:00:00,21.121801,79.04952,SO2,5,111,20
India,Maharashtra,Nagpur,"Mahal, Nagpur - MPCB",21-12-2025 08:00:00,21.14472,79.107595,PM10,72,186,121
India,Maharashtra,Nashik,"Gangapur Road, Nashik - MPCB",21-12-2025 08:00:00,20.0073285,73.7762427,SO2,2,16,5
India,Maharashtra,Nashik,"Hirawadi, Nashik - MPCB",21-12-2025 08:00:00,20.021503,73.813844,PM2.5,22,99,49
India,Maharashtra,Nashik,"Hirawadi, Nashik - MPCB",21-12-2025 08:00:00,20.021503,73.813844,SO2,4,27,9
India,Maharashtra,Mumbai,"Navy Nagar-Colaba, Mumbai - IITM",21-12-2025 08:00:00,18.897756,72.813320,CO,13,76,50
India,Maharashtra,Pune,"Savitribai Phule Pune University, Pune - MPCB",21-12-2025 08:00:00,18.547056,73.826908,SO2,1,3,2
India,Maharashtra,Pune,"Savitribai Phule Pune University, Pune - MPCB",21-12-2025 08:00:00,18.547056,73.826908,OZONE,NA,NA,NA
India,Assam,Sivasagar,"Girls College, Sivasagar - PCBA",21-12-2025 08:00:00,26.987634,94.636574,NO2,29,58,43
India,Assam,Sivasagar,"Girls College, Sivasagar - PCBA",21-12-2025 08:00:00,26.987634,94.636574,NH3,7,22,13
India,Assam,Sivasagar,"Girls College, Sivasagar - PCBA",21-12-2025 08:00:00,26.987634,94.636574,OZONE,4,82,4
India,Bihar,Araria,"Kharahiya Basti, Araria - BSPCB",21-12-2025 08:00:00,26.146529,87.454184,NO2,1,7,3
India,Bihar,Arrah,"New DM Office, Arrah - BSPCB",21-12-2025 08:00:00,25.5626095,84.663264,OZONE,7,12,7
India,Bihar,Aurangabad,"Gurdeo Nagar, Aurangabad - BSPCB",21-12-2025 08:00:00,24.75746,84.366208,PM10,122,221,171
India,Bihar,Aurangabad,"Gurdeo Nagar, Aurangabad - BSPCB",21-12-2025 08:00:00,24.75746,84.366208,OZONE,3,41,6
India,Assam,Guwahati,"Railway Colony, Guwahati - PCBA",21-12-2025 08:00:00,26.181742,91.78063,CO,30,103,86
India,Assam,Nagaon,"Christianpatty, Nagaon - PCBA",21-12-2025 08:00:00,26.349082,92.68449,PM2.5,73,199,128
India,Assam,Nagaon,"Christianpatty, Nagaon - PCBA",21-12-2025 08:00:00,26.349082,92.68449,NH3,4,4,4
India,Assam,Silchar,"Tarapur, Silchar - PCBA",21-12-2025 08:00:00,24.82827,92.79525,PM2.5,24,81,50
India,Assam,Silchar,"Tarapur, Silchar - PCBA",21-12-2025 08:00:00,24.82827,92.79525,NH3,1,2,2
India,Andhra_Pradesh,Vijayawada,"Rajiv Gandhi Park, Vijayawada - APPCB",21-12-2025 08:00:00,16.509717,80.612222,OZONE,4,44,9
India,Andhra_Pradesh,Vijayawada,"Rajiv Nagar, Vijayawada - APPCB",21-12-2025 08:00:00,16.554731,80.649110,PM10,30,76,54
India,Andhra_Pradesh,Vijayawada,"Rajiv Nagar, Vijayawada - APPCB",21-12-2025 08:00:00,16.554731,80.649110,SO2,11,15,13
India,Andhra_Pradesh,Visakhapatnam,"GVM Corporation, Visakhapatnam - APPCB",21-12-2025 08:00:00,17.72,83.3,PM10,127,466,261
India,Arunachal_Pradesh,Naharlagun,"Naharlagun, Naharlagun - APSPCB",21-12-2025 08:00:00,27.103358,93.679645,SO2,9,11,10
India,Assam,Byrnihat,"Central Academy for SFS, Byrnihat - PCBA",21-12-2025 08:00:00,26.071318,91.87488,CO,16,64,52
India,Assam,Byrnihat,"Central Academy for SFS, Byrnihat - PCBA",21-12-2025 08:00:00,26.071318,91.87488,OZONE,15,29,17
India,Assam,Guwahati,"Pan Bazaar, Guwahati - PCBA",21-12-2025 08:00:00,26.187500,91.744194,SO2,18,37,26
India,Andhra_Pradesh,Tirumala,"Toll Gate, Tirumala - APPCB",21-12-2025 08:00:00,13.67,79.35,CO,18,46,38
India,Andhra_Pradesh,Tirupati,"Vaikuntapuram, Tirupati - APPCB",21-12-2025 08:00:00,13.615387,79.409230,NH3,3,4,4
India,Andhra_Pradesh,Vijayawada,"HB Colony, Vijayawada - APPCB",21-12-2025 08:00:00,16.536107,80.594233,PM2.5,43,189,96
India,Andhra_Pradesh,Vijayawada,"HB Colony, Vijayawada - APPCB",21-12-2025 08:00:00,16.536107,80.594233,SO2,9,21,12
India,Bihar,Buxar,"Charitra Van, Buxar - BSPCB",21-12-2025 08:00:00,25.567520,83.966379,NO2,9,10,10
India,Bihar,Buxar,"Charitra Van, Buxar - BSPCB",21-12-2025 08:00:00,25.567520,83.966379,SO2,1,16,6
India,Bihar,Buxar,"Charitra Van, Buxar - BSPCB",21-12-2025 08:00:00,25.567520,83.966379,OZONE,5,34,10
India,Bihar,Chhapra,"Darshan Nagar, Chhapra - BSPCB",21-12-2025 08:00:00,25.7808257,84.7446768,NH3,5,11,8
India,Bihar,Chhapra,"Darshan Nagar, Chhapra - BSPCB",21-12-2025 08:00:00,25.7808257,84.7446768,CO,42,51,45
India,Bihar,Begusarai,"Lohiyanagar, Begusarai - BSPCB",21-12-2025 08:00:00,25.42742023,86.13886079,NH3,10,11,11
India,Bihar,Begusarai,"Lohiyanagar, Begusarai - BSPCB",21-12-2025 08:00:00,25.42742023,86.13886079,CO,42,70,55
India,Bihar,Bettiah,"Kamalnath Nagar, Bettiah - BSPCB",21-12-2025 08:00:00,26.80365,84.51954,NO2,7,10,8
India,Bihar,Bhagalpur,"Mayaganj, Bhagalpur - BSPCB",21-12-2025 08:00:00,25.265194,87.012947,CO,71,84,76
India,Andhra_Pradesh,Chittoor,"Gangineni Cheruvu, Chittoor - APPCB",21-12-2025 08:00:00,13.204880,79.097889,PM2.5,39,225,108
India,Andhra_Pradesh,Chittoor,"Gangineni Cheruvu, Chittoor - APPCB",21-12-2025 08:00:00,13.204880,79.097889,NH3,5,5,5
India,Andhra_Pradesh,Chittoor,"Gangineni Cheruvu, Chittoor - APPCB",21-12-2025 08:00:00,13.204880,79.097889,OZONE,47,55,51
India,Andhra_Pradesh,Kadapa,"Yerramukkapalli, Kadapa - APPCB",21-12-2025 08:00:00,14.465052,78.824187,SO2,11,18,14
India,Bihar,Gaya,"Collectorate, Gaya - BSPCB",21-12-2025 08:00:00,24.7955,84.9994,OZONE,19,21,20
India,Bihar,Hajipur,"Industrial Area, Hajipur - BSPCB",21-12-2025 08:00:00,25.697189,85.245900,PM2.5,96,262,160
India,Bihar,Hajipur,"Industrial Area, Hajipur - BSPCB",21-12-2025 08:00:00,25.697189,85.245900,NO2,19,37,28
India,Bihar,Hajipur,"Industrial Area, Hajipur - BSPCB",21-12-2025 08:00:00,25.697189,85.245900,OZONE,17,77,29
India,Bihar,Kishanganj,"SDM Office_Khagra, Kishanganj - BSPCB",21-12-2025 08:00:00,26.0881305,87.93840336,CO,14,22,15
India,Bihar,Motihari,"Gandak Colony, Motihari - BSPCB",21-12-2025 08:00:00,26.63086,84.90051,NO2,4,5,4
India,Bihar,Munger,"Town Hall, Munger - BSPCB",21-12-2025 08:00:00,25.376776,86.471523,NH3,5,15,6
India,Bihar,Munger,"Town Hall, Munger - BSPCB",21-12-2025 08:00:00,25.376776,86.471523,SO2,38,53,43
India,Bihar,Muzaffarpur,"Buddha Colony, Muzaffarpur - BSPCB",21-12-2025 08:00:00,26.11442,85.39813,NH3,2,13,8
India,Bihar,Muzaffarpur,"Buddha Colony, Muzaffarpur - BSPCB",21-12-2025 08:00:00,26.11442,85.39813,OZONE,11,42,31
India,Bihar,Muzaffarpur,"MIT-Daudpur Kothi, Muzaffarpur - BSPCB",21-12-2025 08:00:00,26.1403345,85.3650192,PM10,70,83,80
India,Bihar,Muzaffarpur,"MIT-Daudpur Kothi, Muzaffarpur - BSPCB",21-12-2025 08:00:00,26.1403345,85.3650192,NO2,2,3,3
India,Bihar,Muzaffarpur,"Muzaffarpur Collectorate, Muzaffarpur - BSPCB",21-12-2025 08:00:00,26.1209,85.3647,NO2,11,18,14
India,Chhattisgarh,Bilaspur,"Mangala, Bilaspur - NTPC",21-12-2025 08:00:00,22.08815,82.13737,PM2.5,70,132,99
India,Chhattisgarh,Bilaspur,"Mangala, Bilaspur - NTPC",21-12-2025 08:00:00,22.08815,82.13737,PM10,91,132,112
India,Chhattisgarh,Bilaspur,"Mangala, Bilaspur - NTPC",21-12-2025 08:00:00,22.08815,82.13737,SO2,8,31,16
India,Chhattisgarh,Bilaspur,"Mangala, Bilaspur - NTPC",21-12-2025 08:00:00,22.08815,82.13737,CO,24,73,50
India,Chhattisgarh,Chhal,"Nawapara SECL Colony, Chhal - CECB",21-12-2025 08:00:00,22.118125,83.140608,NO2,7,62,18
India,Chhattisgarh,Chhal,"Nawapara SECL Colony, Chhal - CECB",21-12-2025 08:00:00,22.118125,83.140608,NH3,5,5,5
India,Chhattisgarh,Korba,"Rampur, Korba - CECB",21-12-2025 08:00:00,22.368195,82.746431,PM2.5,NA,NA,NA
India,Bihar,Siwan,"Chitragupta Nagar, Siwan - BSPCB",21-12-2025 08:00:00,26.2271665,84.3570427,OZONE,6,16,16
India,Chandigarh,Chandigarh,"Sector 22, Chandigarh - CPCC",21-12-2025 08:00:00,30.735567,76.775714,PM2.5,97,355,219
India,Chandigarh,Chandigarh,"Sector 22, Chandigarh - CPCC",21-12-2025 08:00:00,30.735567,76.775714,NH3,15,24,21
India,Chandigarh,Chandigarh,"Sector 22, Chandigarh - CPCC",21-12-2025 08:00:00,30.735567,76.775714,CO,74,106,88
India,Chandigarh,Chandigarh,"Sector-25, Chandigarh - CPCC",21-12-2025 08:00:00,30.751462,76.762879,PM10,99,211,153
India,Bihar,Patna,"DRM Office Danapur, Patna - BSPCB",21-12-2025 08:00:00,25.586562,85.043586,PM2.5,89,233,132
India,Bihar,Patna,"Govt. High School Shikarpur, Patna - BSPCB",21-12-2025 08:00:00,25.592539,85.227158,PM10,68,500,131
India,Bihar,Patna,"Govt. High School Shikarpur, Patna - BSPCB",21-12-2025 08:00:00,25.592539,85.227158,CO,48,90,56
India,Bihar,Patna,"IGSC Planetarium Complex, Patna - BSPCB",21-12-2025 08:00:00,25.610369,85.132568,NO2,13,14,14
India,Bihar,Patna,"IGSC Planetarium Complex, Patna - BSPCB",21-12-2025 08:00:00,25.610369,85.132568,OZONE,28,29,28
India,Bihar,Samastipur,"DM Office_Kasipur, Samastipur - BSPCB",21-12-2025 08:00:00,25.859655,85.77944,NH3,1,1,1
India,Bihar,Sasaram,"Dada Peer, Sasaram - BSPCB",21-12-2025 08:00:00,24.952822,84.002396,SO2,3,5,4
India,Bihar,Siwan,"Chitragupta Nagar, Siwan - BSPCB",21-12-2025 08:00:00,26.2271665,84.3570427,PM2.5,89,132,113
India,Bihar,Siwan,"Chitragupta Nagar, Siwan - BSPCB",21-12-2025 08:00:00,26.2271665,84.3570427,NO2,2,4,2
India,Chandigarh,Chandigarh,"Sector-25, Chandigarh - CPCC",21-12-2025 08:00:00,30.751462,76.762879,OZONE,1,31,1
India,Chandigarh,Chandigarh,"Sector-53, Chandigarh - CPCC",21-12-2025 08:00:00,30.719859,76.738637,OZONE,2,42,4
India,Chhattisgarh,Bhilai,"32Bungalows, Bhilai - CECB",21-12-2025 08:00:00,21.194815,81.314770,CO,20,108,77
India,Bihar,Rajgir,"Dangi Tola, Rajgir - BSPCB",21-12-2025 08:00:00,25.03280,85.41948,NH3,6,7,6
India,Bihar,Saharsa,"Police Line, Saharsa - BSPCB",21-12-2025 08:00:00,25.892357,86.590325,NO2,4,8,7
India,Bihar,Saharsa,"Police Line, Saharsa - BSPCB",21-12-2025 08:00:00,25.892357,86.590325,CO,28,39,35
India,Bihar,Patna,"Muradpur, Patna - BSPCB",21-12-2025 08:00:00,25.619651,85.147382,CO,28,80,51
India,Bihar,Patna,"Rajbansi Nagar, Patna - BSPCB",21-12-2025 08:00:00,25.599486,85.113666,CO,19,66,34
India,Bihar,Patna,"Samanpura, Patna - BSPCB",21-12-2025 08:00:00,25.596727,85.085624,NH3,5,5,5
India,Chhattisgarh,Korba,"Rampur, Korba - CECB",21-12-2025 08:00:00,22.368195,82.746431,NH3,NA,NA,NA
India,Chhattisgarh,Korba,"Urja Nagar, Korba - CECB",21-12-2025 08:00:00,22.348441,82.549611,PM10,92,93,93
India,Chhattisgarh,Korba,"Urja Nagar, Korba - CECB",21-12-2025 08:00:00,22.348441,82.549611,CO,26,50,32
India,Delhi,Delhi,"DTU, Delhi - CPCB",21-12-2025 08:00:00,28.7500499,77.1112615,NO2,32,67,59
India,Delhi,Delhi,"DTU, Delhi - CPCB",21-12-2025 08:00:00,28.7500499,77.1112615,NH3,7,12,8
India,Delhi,Delhi,"DTU, Delhi - CPCB",21-12-2025 08:00:00,28.7500499,77.1112615,CO,63,127,102
India,Delhi,Delhi,"Dr. Karni Singh Shooting Range, Delhi - DPCC",21-12-2025 08:00:00,28.498571,77.264840,CO,27,74,59
India,Delhi,Delhi,"Dr. Karni Singh Shooting Range, Delhi - DPCC",21-12-2025 08:00:00,28.498571,77.264840,OZONE,2,14,12
India,Delhi,Delhi,"Dwarka-Sector 8, Delhi - DPCC ",21-12-2025 08:00:00,28.5710274,77.0719006,NO2,36,140,78
India,Delhi,Delhi,"Mandir Marg, Delhi - DPCC",21-12-2025 08:00:00,28.636429,77.201067,SO2,104,118,109
India,Delhi,Delhi,"Mundka, Delhi - DPCC",21-12-2025 08:00:00,28.684678,77.076574,PM10,219,500,375
India,Delhi,Delhi,"Mundka, Delhi - DPCC",21-12-2025 08:00:00,28.684678,77.076574,OZONE,4,51,12
India,Delhi,Delhi,"NSIT Dwarka, Delhi - CPCB",21-12-2025 08:00:00,28.60909,77.0325413,NO2,60,111,75
India,Delhi,Delhi,"NSIT Dwarka, Delhi - CPCB",21-12-2025 08:00:00,28.60909,77.0325413,OZONE,23,63,25
India,Chhattisgarh,Raipur,"Siltara Phase-II, Raipur - CECB",21-12-2025 08:00:00,21.371751,81.664929,CO,34,36,35
India,Delhi,Delhi,"Alipur, Delhi - DPCC",21-12-2025 08:00:00,28.815329,77.153010,PM2.5,324,462,375
India,Delhi,Delhi,"Anand Vihar, Delhi - DPCC",21-12-2025 08:00:00,28.647622,77.3158090,NH3,13,22,18
India,Delhi,Delhi,"Anand Vihar, Delhi - DPCC",21-12-2025 08:00:00,28.647622,77.3158090,SO2,2,132,59
India,Chhattisgarh,Raipur,"AIIMS, Raipur - CECB",21-12-2025 08:00:00,21.258815,81.578979,NO2,68,87,77
India,Chhattisgarh,Raipur,"Krishak Nagar, Raipur - CECB",21-12-2025 08:00:00,21.237755,81.705301,PM2.5,23,32,28
India,Chhattisgarh,Raipur,"Siltara Phase-II, Raipur - CECB",21-12-2025 08:00:00,21.371751,81.664929,PM10,41,153,99
India,Chhattisgarh,Raipur,"Siltara Phase-II, Raipur - CECB",21-12-2025 08:00:00,21.371751,81.664929,NO2,25,48,30
India,Delhi,Delhi,"IGI Airport (T3), Delhi - IMD",21-12-2025 08:00:00,28.5627763,77.1180053,OZONE,10,38,15
India,Delhi,Delhi,"IHBAS, Dilshad Garden, Delhi - CPCB",21-12-2025 08:00:00,28.6811736,77.3025234,NO2,59,135,100
India,Delhi,Delhi,"IHBAS, Dilshad Garden, Delhi - CPCB",21-12-2025 08:00:00,28.6811736,77.3025234,NH3,10,12,11
India,Delhi,Delhi,"IHBAS, Dilshad Garden, Delhi - CPCB",21-12-2025 08:00:00,28.6811736,77.3025234,OZONE,15,20,17
India,Delhi,Delhi,"Lodhi Road, Delhi - IMD",21-12-2025 08:00:00,28.5918245,77.2273074,PM2.5,300,399,349
India,Delhi,Delhi,"Major Dhyan Chand National Stadium, Delhi - DPCC",21-12-2025 08:00:00,28.611281,77.237738,NO2,42,102,69
India,Delhi,Delhi,"Major Dhyan Chand National Stadium, Delhi - DPCC",21-12-2025 08:00:00,28.611281,77.237738,SO2,4,14,8
India,Delhi,Delhi,"ITO, Delhi - CPCB",21-12-2025 08:00:00,28.628624,77.241060,PM10,61,442,315
India,Delhi,Delhi,"Jawaharlal Nehru Stadium, Delhi - DPCC",21-12-2025 08:00:00,28.580280,77.233829,PM2.5,320,439,378
India,Delhi,Delhi,"Jawaharlal Nehru Stadium, Delhi - DPCC",21-12-2025 08:00:00,28.580280,77.233829,SO2,1,27,15
India,Delhi,Delhi,"Najafgarh, Delhi - DPCC",21-12-2025 08:00:00,28.570173,76.933762,NH3,12,16,14
India,Delhi,Delhi,"Narela, Delhi - DPCC",21-12-2025 08:00:00,28.822836,77.101981,OZONE,6,41,8
India,Delhi,Delhi,"Nehru Nagar, Delhi - DPCC",21-12-2025 08:00:00,28.567890,77.250515,NH3,7,10,8
India,Delhi,Delhi,"Bawana, Delhi - DPCC",21-12-2025 08:00:00,28.776200,77.051074,PM2.5,340,500,439
India,Delhi,Delhi,"Bawana, Delhi - DPCC",21-12-2025 08:00:00,28.776200,77.051074,NO2,17,87,41
India,Gujarat,Vatva,"Phase-4 GIDC, Vatva - GPCB",21-12-2025 08:00:00,22.969611,72.643500,PM10,54,439,128
India,Gujarat,Vatva,"Phase-4 GIDC, Vatva - GPCB",21-12-2025 08:00:00,22.969611,72.643500,CO,9,28,12
India,Haryana,Ambala,"Patti Mehar, Ambala - HSPCB",21-12-2025 08:00:00,30.379589,76.778328,NO2,20,25,23
India,Haryana,Ambala,"Patti Mehar, Ambala - HSPCB",21-12-2025 08:00:00,30.379589,76.778328,OZONE,48,52,50
India,Haryana,Bahadurgarh,"Arya Nagar, Bahadurgarh - HSPCB",21-12-2025 08:00:00,28.6701,76.9254,PM10,39,448,260
India,Haryana,Bahadurgarh,"Arya Nagar, Bahadurgarh - HSPCB",21-12-2025 08:00:00,28.6701,76.9254,NH3,13,13,13
India,Haryana,Bahadurgarh,"Arya Nagar, Bahadurgarh - HSPCB",21-12-2025 08:00:00,28.6701,76.9254,CO,45,51,47
India,Delhi,Delhi,"Sri Aurobindo Marg, Delhi - DPCC",21-12-2025 08:00:00,28.531346,77.190156,NH3,7,13,10
India,Delhi,Delhi,"Sri Aurobindo Marg, Delhi - DPCC",21-12-2025 08:00:00,28.531346,77.190156,SO2,4,13,8
India,Delhi,Delhi,"Vivek Vihar, Delhi - DPCC",21-12-2025 08:00:00,28.672342,77.315260,SO2,10,30,15
India,Delhi,Delhi,"Wazirpur, Delhi - DPCC",21-12-2025 08:00:00,28.699793,77.165453,NO2,45,259,93
India,Delhi,Delhi,"Wazirpur, Delhi - DPCC",21-12-2025 08:00:00,28.699793,77.165453,NH3,12,22,18
India,Delhi,Delhi,"Wazirpur, Delhi - DPCC",21-12-2025 08:00:00,28.699793,77.165453,SO2,8,14,10
India,Gujarat,Ahmedabad,"Chandkheda, Ahmedabad - IITM",21-12-2025 08:00:00,23.107969,72.574648,PM2.5,51,196,109
India,Gujarat,Ahmedabad,"SAC ISRO Satellite, Ahmedabad - IITM",21-12-2025 08:00:00,23.023389,72.515201,OZONE,1,69,5
India,Gujarat,Ahmedabad,"SVPI Airport Hansol, Ahmedabad - IITM",21-12-2025 08:00:00,23.076793,72.627874,PM2.5,37,155,83
India,Gujarat,Ahmedabad,"SVPI Airport Hansol, Ahmedabad - IITM",21-12-2025 08:00:00,23.076793,72.627874,NH3,5,21,9
India,Gujarat,Gandhinagar,"GIFT City, Gandhinagar - IITM",21-12-2025 08:00:00,23.163798,72.677768,PM2.5,41,110,70
India,Gujarat,Gandhinagar,"GIFT City, Gandhinagar - IITM",21-12-2025 08:00:00,23.163798,72.677768,NO2,24,98,53
India,Gujarat,Gandhinagar,"IIPHG Lekawada, Gandhinagar - IITM",21-12-2025 08:00:00,23.243639,72.68994,PM2.5,46,158,102
India,Delhi,Delhi,"Rohini, Delhi - DPCC",21-12-2025 08:00:00,28.732528,77.119920,OZONE,4,52,11
India,Delhi,Delhi,"Shadipur, Delhi - CPCB",21-12-2025 08:00:00,28.6514781,77.1473105,PM2.5,302,320,309
India,Delhi,Delhi,"Shadipur, Delhi - CPCB",21-12-2025 08:00:00,28.6514781,77.1473105,SO2,16,29,21
India,Delhi,Delhi,"Sirifort, Delhi - CPCB",21-12-2025 08:00:00,28.5504249,77.2159377,PM10,236,432,342
India,Delhi,Delhi,"Sirifort, Delhi - CPCB",21-12-2025 08:00:00,28.5504249,77.2159377,SO2,21,33,27
India,Delhi,Delhi,"Sonia Vihar, Delhi - DPCC",21-12-2025 08:00:00,28.710508,77.249485,NO2,28,77,50
India,Delhi,Delhi,"Punjabi Bagh, Delhi - DPCC",21-12-2025 08:00:00,28.674045,77.131023,OZONE,4,16,7
India,Delhi,Delhi,"Pusa, Delhi - DPCC",21-12-2025 08:00:00,28.639652,77.146275,SO2,1,9,5
India,Delhi,Delhi,"Pusa, Delhi - DPCC",21-12-2025 08:00:00,28.639652,77.146275,CO,40,85,60
India,Delhi,Delhi,"R K Puram, Delhi - DPCC",21-12-2025 08:00:00,28.563262,77.186937,OZONE,6,32,17
India,Delhi,Delhi,"Rohini, Delhi - DPCC",21-12-2025 08:00:00,28.732528,77.119920,PM10,251,497,381
India,Delhi,Delhi,"Rohini, Delhi - DPCC",21-12-2025 08:00:00,28.732528,77.119920,NH3,16,24,20
India,Gujarat,Ahmedabad,"Chandkheda, Ahmedabad - IITM",21-12-2025 08:00:00,23.107969,72.574648,CO,25,124,55
India,Gujarat,Ahmedabad,"Chandkheda, Ahmedabad - IITM",21-12-2025 08:00:00,23.107969,72.574648,OZONE,1,60,9
India,Gujarat,Ahmedabad,"Gyaspur, Ahmedabad - IITM",21-12-2025 08:00:00,22.977134,72.553024,NH3,4,69,22
India,Gujarat,Ahmedabad,"Gyaspur, Ahmedabad - IITM",21-12-2025 08:00:00,22.977134,72.553024,OZONE,26,108,31
India,Gujarat,Ahmedabad,"Maninagar, Ahmedabad - GPCB",21-12-2025 08:00:00,23.002657,72.591912,NO2,63,64,63
India,Delhi,Delhi,"Okhla Phase-2, Delhi - DPCC",21-12-2025 08:00:00,28.530785,77.271255,CO,12,103,78
India,Delhi,Delhi,"Patparganj, Delhi - DPCC",21-12-2025 08:00:00,28.623763,77.287209,NH3,16,20,18
India,Delhi,Delhi,"Patparganj, Delhi - DPCC",21-12-2025 08:00:00,28.623763,77.287209,OZONE,4,29,12
India,Gujarat,Ahmedabad,"Raikhad, Ahmedabad - IITM",21-12-2025 08:00:00,23.020509,72.579261,SO2,10,76,24
India,Gujarat,Ahmedabad,"SAC ISRO Bopal, Ahmedabad - IITM",21-12-2025 08:00:00,23.041137,72.456691,OZONE,1,70,1
India,Gujarat,Surat,"Science Center, Surat - SMC",21-12-2025 08:00:00,21.170046,72.795405,PM2.5,NA,NA,NA
India,Haryana,Ballabgarh,"Nathu Colony, Ballabgarh - HSPCB",21-12-2025 08:00:00,28.3419248,77.319699,NO2,19,21,20
India,Haryana,Ballabgarh,"Nathu Colony, Ballabgarh - HSPCB",21-12-2025 08:00:00,28.3419248,77.319699,SO2,4,9,7
India,Haryana,Ballabgarh,"Nathu Colony, Ballabgarh - HSPCB",21-12-2025 08:00:00,28.3419248,77.319699,OZONE,15,16,15
India,Haryana,Charkhi Dadri,"Mini Secretariat, Charkhi Dadri - HSPCB",21-12-2025 08:00:00,28.593883,76.270653,NO2,9,22,15
India,Haryana,Charkhi Dadri,"Mini Secretariat, Charkhi Dadri - HSPCB",21-12-2025 08:00:00,28.593883,76.270653,CO,8,25,13
India,Haryana,Dharuhera,"Municipal Corporation Office, Dharuhera -  HSPCB",21-12-2025 08:00:00,28.206800,76.799700,NH3,9,26,19
India,Haryana,Dharuhera,"Municipal Corporation Office, Dharuhera -  HSPCB",21-12-2025 08:00:00,28.206800,76.799700,SO2,5,15,9
India,Haryana,Fatehabad,"Huda Sector, Fatehabad - HSPCB",21-12-2025 08:00:00,29.503664,75.467934,NO2,18,21,19
India,Haryana,Fatehabad,"Huda Sector, Fatehabad - HSPCB",21-12-2025 08:00:00,29.503664,75.467934,SO2,10,11,11
India,Haryana,Gurugram,"NISE Gwal Pahari, Gurugram - IMD",21-12-2025 08:00:00,28.422681,77.148944,PM2.5,236,402,332
India,Haryana,Gurugram,"Sector-51, Gurugram - HSPCB",21-12-2025 08:00:00,28.4227,77.0667,PM2.5,311,398,352
India,Haryana,Gurugram,"Teri Gram, Gurugram - HSPCB",21-12-2025 08:00:00,28.4275,77.1465,PM10,162,323,254
India,Haryana,Gurugram,"Teri Gram, Gurugram - HSPCB",21-12-2025 08:00:00,28.4275,77.1465,NH3,11,20,15
India,Haryana,Panchgaon,"Amity University, Panchgaon - IITM",21-12-2025 08:00:00,28.3153,76.9143,CO,22,82,41
India,Haryana,Panchkula,"Sector-6, Panchkula - HSPCB ",21-12-2025 08:00:00,30.7057778,76.8531805555555,PM2.5,305,401,350
India,Haryana,Panipat,"Sector-18, Panipat - HSPCB",21-12-2025 08:00:00,29.432304,76.972765,NO2,31,32,31
India,Haryana,Panipat,"Sector-18, Panipat - HSPCB",21-12-2025 08:00:00,29.432304,76.972765,NH3,2,3,2
India,Haryana,Gurugram,"Vikas Sadan, Gurugram - HSPCB",21-12-2025 08:00:00,28.4501238,77.0263051,PM10,NA,NA,NA
India,Haryana,Gurugram,"Vikas Sadan, Gurugram - HSPCB",21-12-2025 08:00:00,28.4501238,77.0263051,SO2,NA,NA,NA
India,Haryana,Hisar,"Urban Estate-II, Hisar - HSPCB",21-12-2025 08:00:00,29.140560,75.744941,PM2.5,NA,NA,NA
India,Haryana,Hisar,"Urban Estate-II, Hisar - HSPCB",21-12-2025 08:00:00,29.140560,75.744941,SO2,NA,NA,NA
India,Haryana,Jind,"Police Lines, Jind - HSPCB",21-12-2025 08:00:00,29.307814,76.337619,OZONE,5,24,11
India,Haryana,Sonipat,"Murthal, Sonipat - HSPCB",21-12-2025 08:00:00,29.027200,77.062100,CO,54,100,67
India,Haryana,Yamuna Nagar,"Gobind Pura, Yamuna Nagar - HSPCB",21-12-2025 08:00:00,30.1480566,77.2893471,CO,36,90,58
India,Himachal Pradesh,Baddi,"HIMUDA Complex Phase-1, Baddi - HPPCB",21-12-2025 08:00:00,30.943887,76.801991,NH3,3,5,4
India,Haryana,Faridabad,"New Industrial Town, Faridabad - HSPCB",21-12-2025 08:00:00,28.39072,77.30059,PM10,167,180,174
India,Haryana,Faridabad,"Sector 11, Faridabad - HSPCB",21-12-2025 08:00:00,28.376058,77.315741,NO2,30,32,31
India,Haryana,Fatehabad,"Huda Sector, Fatehabad - HSPCB",21-12-2025 08:00:00,29.503664,75.467934,PM10,131,212,165
India,Jammu_and_Kashmir,Pampore,"Khrew, Pampore - JKPCC",21-12-2025 08:00:00,34.031606,75.009712,SO2,1,4,2
India,Jammu_and_Kashmir,Srinagar,"Khunmoh, Srinagar - JKPCC",21-12-2025 08:00:00,34.06313,74.96017,PM10,144,406,195
India,Jammu_and_Kashmir,Srinagar,"Rajbagh, Srinagar - JKPCC",21-12-2025 08:00:00,34.066206,74.819820,SO2,3,4,3
India,Haryana,Manesar,"Sector-2 IMT, Manesar - HSPCB",21-12-2025 08:00:00,28.360699,76.936090,NO2,77,90,84
India,Haryana,Manesar,"Sector-2 IMT, Manesar - HSPCB",21-12-2025 08:00:00,28.360699,76.936090,SO2,9,15,11
India,Haryana,Narnaul,"Shastri Nagar, Narnaul - HSPCB",21-12-2025 08:00:00,28.060249,76.113115,CO,16,56,52
India,Haryana,Karnal,"Sector-12, Karnal - HSPCB",21-12-2025 08:00:00,29.695300,77.002700,NH3,6,7,6
India,Haryana,Karnal,"Sector-12, Karnal - HSPCB",21-12-2025 08:00:00,29.695300,77.002700,SO2,6,40,24
India,Haryana,Karnal,"Sector-12, Karnal - HSPCB",21-12-2025 08:00:00,29.695300,77.002700,OZONE,36,36,36
India,Kerala,Kollam,"Polayathode, Kollam - Kerala PCB",21-12-2025 08:00:00,8.8787,76.6073,NO2,NA,NA,NA
India,Kerala,Kollam,"Polayathode, Kollam - Kerala PCB",21-12-2025 08:00:00,8.8787,76.6073,NH3,NA,NA,NA
India,Kerala,Kollam,"Polayathode, Kollam - Kerala PCB",21-12-2025 08:00:00,8.8787,76.6073,CO,NA,NA,NA
India,Kerala,Thiruvananthapuram,"Kariavattom, Thiruvananthapuram - Kerala PCB",21-12-2025 08:00:00,8.563700,76.886500,PM2.5,100,303,179
India,Kerala,Thiruvananthapuram,"Kariavattom, Thiruvananthapuram - Kerala PCB",21-12-2025 08:00:00,8.563700,76.886500,NO2,8,10,9
India,Kerala,Thiruvananthapuram,"Kariavattom, Thiruvananthapuram - Kerala PCB",21-12-2025 08:00:00,8.563700,76.886500,CO,39,102,58
India,Kerala,Thiruvananthapuram,"Plammoodu, Thiruvananthapuram - Kerala PCB",21-12-2025 08:00:00,8.5149093,76.9435879,SO2,4,17,12
India,Kerala,Thiruvananthapuram,"Plammoodu, Thiruvananthapuram - Kerala PCB",21-12-2025 08:00:00,8.5149093,76.9435879,CO,4,54,17
India,Kerala,Thrissur,"Corporation Ground, Thrissur - Kerala PCB",21-12-2025 08:00:00,10.532400,76.215900,PM10,54,66,60
India,Karnataka,Bengaluru,"Kasturi Nagar, Bengaluru - KSPCB",21-12-2025 08:00:00,13.003872,77.664217,SO2,2,15,11
India,Karnataka,Bengaluru,"Peenya, Bengaluru - CPCB",21-12-2025 08:00:00,13.0270199,77.494094,PM10,111,165,134
India,Karnataka,Bengaluru,"Peenya, Bengaluru - CPCB",21-12-2025 08:00:00,13.0270199,77.494094,SO2,4,14,8
India,Karnataka,Bengaluru,"Peenya, Bengaluru - CPCB",21-12-2025 08:00:00,13.0270199,77.494094,OZONE,23,24,24
India,Karnataka,Bengaluru,"RVCE-Mailasandra, Bengaluru - KSPCB",21-12-2025 08:00:00,12.921418,77.502466,NO2,24,31,30
India,Karnataka,Bengaluru,"RVCE-Mailasandra, Bengaluru - KSPCB",21-12-2025 08:00:00,12.921418,77.502466,OZONE,NA,NA,NA
India,Karnataka,Tumakuru,"Thimmalapura, Tumakuru - KSPCB",21-12-2025 08:00:00,13.377516,77.099072,PM10,42,304,165
India,Karnataka,Tumakuru,"Thimmalapura, Tumakuru - KSPCB",21-12-2025 08:00:00,13.377516,77.099072,NO2,31,32,32
India,Kerala,Kannur,"Thavakkara, Kannur - Kerala PCB",21-12-2025 08:00:00,11.875000,75.373200,PM2.5,44,51,48
India,Kerala,Kannur,"Thavakkara, Kannur - Kerala PCB",21-12-2025 08:00:00,11.875000,75.373200,NO2,14,16,15
India,Kerala,Kannur,"Thavakkara, Kannur - Kerala PCB",21-12-2025 08:00:00,11.875000,75.373200,NH3,2,2,2
India,Kerala,Kannur,"Thavakkara, Kannur - Kerala PCB",21-12-2025 08:00:00,11.875000,75.373200,OZONE,28,31,28
India,Karnataka,Bengaluru,"Hebbal, Bengaluru - KSPCB",21-12-2025 08:00:00,13.029152,77.585901,NH3,2,2,2
India,Karnataka,Bengaluru,"Hombegowda Nagar, Bengaluru - KSPCB",21-12-2025 08:00:00,12.938539,77.590100,PM2.5,52,84,68
India,Karnataka,Bengaluru,"Hombegowda Nagar, Bengaluru - KSPCB",21-12-2025 08:00:00,12.938539,77.590100,PM10,88,124,107
India,Karnataka,Bengaluru,"Hombegowda Nagar, Bengaluru - KSPCB",21-12-2025 08:00:00,12.938539,77.590100,OZONE,11,60,32
India,Karnataka,Bengaluru,"Jigani, Bengaluru - KSPCB",21-12-2025 08:00:00,12.7816279,77.6299145,NO2,28,29,29
India,Karnataka,Kalaburagi,"Lal Bahadur Shastri Nagar, Kalaburagi - KSPCB",21-12-2025 08:00:00,17.321993,76.822628,NH3,NA,NA,NA
India,Karnataka,Kalaburagi,"Mahatma Basaveswar Colony, Kalaburgi - KSPCB",21-12-2025 08:00:00,17.336318,76.847397,PM10,20,77,51
India,Karnataka,Kalaburagi,"Mahatma Basaveswar Colony, Kalaburgi - KSPCB",21-12-2025 08:00:00,17.336318,76.847397,NO2,12,18,15
India,Karnataka,Koppal,"Diwator Nagar, Koppal - KSPCB",21-12-2025 08:00:00,15.347630,76.181767,PM2.5,27,58,38
India,Karnataka,Bengaluru,"BTM Layout, Bengaluru - CPCB",21-12-2025 08:00:00,12.9135218,77.5950804,NO2,NA,NA,NA
India,Karnataka,Bengaluru,"BWSSB Kadabesanahalli, Bengaluru - CPCB",21-12-2025 08:00:00,12.9352049,77.6814488,NH3,1,2,1
India,Karnataka,Bengaluru,"BWSSB Kadabesanahalli, Bengaluru - CPCB",21-12-2025 08:00:00,12.9352049,77.6814488,SO2,2,17,6
India,Karnataka,Bengaluru,"BWSSB Kadabesanahalli, Bengaluru - CPCB",21-12-2025 08:00:00,12.9352049,77.6814488,OZONE,21,64,35
India,Karnataka,Bengaluru,"Sanegurava Halli, Bengaluru - KSPCB",21-12-2025 08:00:00,12.990328,77.5431385,CO,20,40,25
India,Karnataka,Bengaluru,"Shivapura_Peenya, Bengaluru - KSPCB",21-12-2025 08:00:00,13.0246342,77.5080115,PM2.5,82,500,172
India,Karnataka,Bengaluru,"Shivapura_Peenya, Bengaluru - KSPCB",21-12-2025 08:00:00,13.0246342,77.5080115,NH3,4,4,4
India,Karnataka,Chikkamagaluru,"Kalyana Nagara, Chikkamagaluru - KSPCB",21-12-2025 08:00:00,13.328028,75.797056,OZONE,20,40,20
India,Karnataka,Hubballi,"Lingaraj Nagar, Hubballi - KSPCB",21-12-2025 08:00:00,15.3714823,75.1160168,PM2.5,42,48,43
India,Karnataka,Mysuru,"Hebbal 1st Stage, Mysuru - KSPCB",21-12-2025 08:00:00,12.21041,76.37376,NO2,15,24,20
India,Maharashtra,Akola,"Ramdaspeth, Akola - MPCB",21-12-2025 08:00:00,20.719516,77.000253,CO,11,104,33
India,Maharashtra,Amravati,"Shivneri Colony, Amravati - MPCB",21-12-2025 08:00:00,20.9402359,77.7895248,PM10,39,125,75
India,Maharashtra,Amravati,"Shivneri Colony, Amravati - MPCB",21-12-2025 08:00:00,20.9402359,77.7895248,SO2,18,54,24
India,Maharashtra,Amravati,"Shivneri Colony, Amravati - MPCB",21-12-2025 08:00:00,20.9402359,77.7895248,OZONE,1,43,13
India,Maharashtra,Amravati,"Shri Shivaji Science College, Amravati - MPCB",21-12-2025 08:00:00,20.939198,77.765701,NO2,7,87,46
India,Maharashtra,Aurangabad,"MIDC Chilkalthana, Aurangabad - MPCB",21-12-2025 08:00:00,19.875620,75.387310,NH3,1,3,2
India,Madhya Pradesh,Indore,"Regional Park, Indore - IMC",21-12-2025 08:00:00,22.6780,75.8559,CO,26,42,36
India,Madhya Pradesh,Indore,"Residency Area, Indore - IMC",21-12-2025 08:00:00,22.7084,75.8815,PM2.5,22,156,58
India,Madhya Pradesh,Jabalpur,"Govindh Bhavan Colony, Jabalpur - JMC",21-12-2025 08:00:00,23.163174,79.973061,PM10,23,107,45
India,Madhya Pradesh,Jabalpur,"Govindh Bhavan Colony, Jabalpur - JMC",21-12-2025 08:00:00,23.163174,79.973061,NH3,1,1,1
India,Madhya Pradesh,Jabalpur,"Gupteshwar, Jabalpur - JMC",21-12-2025 08:00:00,23.142888,79.916147,PM2.5,27,319,85
India,Madhya Pradesh,Jabalpur,"Gupteshwar, Jabalpur - JMC",21-12-2025 08:00:00,23.142888,79.916147,PM10,42,217,86
India,Madhya Pradesh,Dewas,"Bhopal Chauraha, Dewas - MPPCB",21-12-2025 08:00:00,22.9682591,76.064118,OZONE,22,26,24
India,Madhya Pradesh,Gwalior,"City Center, Gwalior - MPPCB",21-12-2025 08:00:00,26.203442,78.193251,CO,29,60,52
India,Madhya Pradesh,Gwalior,"City Center, Gwalior - MPPCB",21-12-2025 08:00:00,26.203442,78.193251,OZONE,28,58,28
India,Madhya Pradesh,Gwalior,"Deen Dayal Nagar, Gwalior - MPPCB",21-12-2025 08:00:00,26.259242,78.216432,CO,10,70,56
India,Madhya Pradesh,Gwalior,"Maharaj Bada, Gwalior - MPPCB",21-12-2025 08:00:00,26.200388,78.147714,PM2.5,97,315,207
India,Madhya Pradesh,Gwalior,"Maharaj Bada, Gwalior - MPPCB",21-12-2025 08:00:00,26.200388,78.147714,NO2,15,86,46
India,Madhya Pradesh,Bhopal,"Idgah Hills, Bhopal - MPPCB",21-12-2025 08:00:00,23.264759,77.381568,PM10,50,296,135
India,Madhya Pradesh,Bhopal,"Idgah Hills, Bhopal - MPPCB",21-12-2025 08:00:00,23.264759,77.381568,NH3,4,8,6
India,Madhya Pradesh,Bhopal,"Idgah Hills, Bhopal - MPPCB",21-12-2025 08:00:00,23.264759,77.381568,SO2,12,24,15
India,Madhya Pradesh,Bhopal,"T T Nagar, Bhopal - MPPCB",21-12-2025 08:00:00,23.233584,77.400574,PM2.5,28,201,87
India,Madhya Pradesh,Damoh,"Shrivastav Colony, Damoh - MPPCB",21-12-2025 08:00:00,23.81748678,79.446246,SO2,3,13,8
India,Madhya Pradesh,Indore,"Airport Area, Indore - IMC",21-12-2025 08:00:00,22.7289,75.8076,PM2.5,26,99,59
India,Madhya Pradesh,Indore,"Airport Area, Indore - IMC",21-12-2025 08:00:00,22.7289,75.8076,NO2,2,3,3
India,Madhya Pradesh,Indore,"Airport Area, Indore - IMC",21-12-2025 08:00:00,22.7289,75.8076,OZONE,3,7,5
India,Madhya Pradesh,Indore,"Maguda Nagar, Indore - IMC",21-12-2025 08:00:00,22.7524,75.8872,NH3,NA,NA,NA
India,Madhya Pradesh,Indore,"Maguda Nagar, Indore - IMC",21-12-2025 08:00:00,22.7524,75.8872,CO,NA,NA,NA
India,Madhya Pradesh,Indore,"Regional Park, Indore - IMC",21-12-2025 08:00:00,22.6780,75.8559,NH3,NA,NA,NA
India,Madhya Pradesh,Ratlam,"Shasthri Nagar, Ratlam - IPCA Lab",21-12-2025 08:00:00,23.331731,75.045981,SO2,34,39,36
India,Madhya Pradesh,Satna,"Bandhavgar Colony, Satna - Birla Cement",21-12-2025 08:00:00,24.58434363,80.8549414,PM10,73,75,74
India,Madhya Pradesh,Singrauli,"Suryakiran Bhawan NCL, Singrauli - MPPCB",21-12-2025 08:00:00,24.108970,82.645580,PM2.5,286,428,333
India,Madhya Pradesh,Singrauli,"Suryakiran Bhawan NCL, Singrauli - MPPCB",21-12-2025 08:00:00,24.108970,82.645580,NO2,74,123,97
India,Maharashtra,Ahmednagar,"Tarakpur, Ahmednagar - MPCB",21-12-2025 08:00:00,19.10122,74.73339,PM2.5,35,112,68
India,Maharashtra,Ahmednagar,"Tarakpur, Ahmednagar - MPCB",21-12-2025 08:00:00,19.10122,74.73339,CO,3,111,50
India,Madhya Pradesh,Maihar,"Sahilara, Maihar - KJS Cements",21-12-2025 08:00:00,24.2613009,80.7231783,NO2,53,185,96
India,Madhya Pradesh,Pithampur,"Sector-2 Industrial Area, Pithampur - MPPCB",21-12-2025 08:00:00,22.624758,75.675238,SO2,11,18,14
India,Madhya Pradesh,Katni,"Gole Bazar, Katni - MPPCB",21-12-2025 08:00:00,23.50016,80.23284,CO,22,138,97
India,Madhya Pradesh,Katni,"Gole Bazar, Katni - MPPCB",21-12-2025 08:00:00,23.50016,80.23284,OZONE,10,82,13
India,Maharashtra,Belapur,"CBD Belapur, Belapur - MPCB",21-12-2025 08:00:00,19.0243902,73.0406721,CO,6,57,35
India,Maharashtra,Belapur,"CBD Belapur, Belapur - MPCB",21-12-2025 08:00:00,19.0243902,73.0406721,OZONE,7,58,8
India,Maharashtra,Bhiwandi,"Gokul Nagar, Bhiwandi - MPCB",21-12-2025 08:00:00,19.309073,73.057223,NH3,3,7,5
India,Maharashtra,Chandrapur,"Chauhan Colony, Chandrapur - MPCB",21-12-2025 08:00:00,19.962900,79.298714,PM2.5,26,143,48
India,Maharashtra,Chandrapur,"Chauhan Colony, Chandrapur - MPCB",21-12-2025 08:00:00,19.962900,79.298714,NO2,31,33,32
India,Maharashtra,Chandrapur,"Chauhan Colony, Chandrapur - MPCB",21-12-2025 08:00:00,19.962900,79.298714,CO,45,82,77
India,Maharashtra,Chandrapur,"MIDC Khutala, Chandrapur - MPCB",21-12-2025 08:00:00,19.9775302,79.2337086,PM2.5,56,186,84
India,Maharashtra,Chandrapur,"MIDC Khutala, Chandrapur - MPCB",21-12-2025 08:00:00,19.9775302,79.2337086,CO,37,42,39
India,Maharashtra,Dhule,"Deopur, Dhule - MPCB",21-12-2025 08:00:00,20.918946,74.776388,PM10,48,214,108
India,Maharashtra,Dhule,"Deopur, Dhule - MPCB",21-12-2025 08:00:00,20.918946,74.776388,NH3,2,34,6
India,Maharashtra,Dhule,"Deopur, Dhule - MPCB",21-12-2025 08:00:00,20.918946,74.776388,SO2,7,122,22
India,Maharashtra,Jalgaon,"Prabhat Colony, Jalgaon - MPCB",21-12-2025 08:00:00,21.001264,75.565602,NO2,5,38,12
India,Maharashtra,Jalgaon,"Prabhat Colony, Jalgaon - MPCB",21-12-2025 08:00:00,21.001264,75.565602,NH3,2,3,2
India,Maharashtra,Jalna,"Old MIDC, Jalna - MPCB",21-12-2025 08:00:00,19.854616,75.905894,CO,14,54,30
India,Maharashtra,Kalyan,"Khadakpada, Kalyan - MPCB",21-12-2025 08:00:00,19.25292,73.142019,CO,74,105,94
India,Maharashtra,Kalyan,"Khadakpada, Kalyan - MPCB",21-12-2025 08:00:00,19.25292,73.142019,OZONE,8,9,9
India,Maharashtra,Kalyan,"Pimpleshwar Mandir, Kalyan - MPCB",21-12-2025 08:00:00,19.192056,72.9585188,NH3,2,9,5
India,Maharashtra,Kalyan,"Pimpleshwar Mandir, Kalyan - MPCB",21-12-2025 08:00:00,19.192056,72.9585188,CO,29,76,50
India,Maharashtra,Kolhapur,"Shivaji University, Kolhapur - MPCB",21-12-2025 08:00:00,16.6870449,74.2505872,PM2.5,38,124,81
India,Maharashtra,Kolhapur,"Sinchan Bhavan, Kolhapur - MPCB",21-12-2025 08:00:00,16.7143745,74.2426398,PM10,56,141,89
India,Maharashtra,Mumbai,"Borivali East, Mumbai - IITM",21-12-2025 08:00:00,19.23241,72.86895,CO,32,61,41
India,Maharashtra,Mumbai,"Borivali East, Mumbai - MPCB",21-12-2025 08:00:00,19.2243333,72.8658113,NH3,1,9,6
India,Maharashtra,Mumbai,"Byculla, Mumbai - BMC",21-12-2025 08:00:00,18.9767,72.8380,SO2,21,29,24
India,Maharashtra,Mumbai,"Chakala-Andheri East, Mumbai - IITM",21-12-2025 08:00:00,19.11074,72.86084,PM10,53,106,81
India,Maharashtra,Mumbai,"Chakala-Andheri East, Mumbai - IITM",21-12-2025 08:00:00,19.11074,72.86084,NH3,7,24,14
India,Maharashtra,Malegaon,"Mahesh Nagar, Malegaon - MPCB",21-12-2025 08:00:00,20.555712,74.529236,OZONE,4,66,12
India,Maharashtra,Mira-Bhayandar,"Bhayandar West, Mira-Bhayandar - MPCB",21-12-2025 08:00:00,19.296481,72.840923,NH3,2,12,6
India,Maharashtra,Mumbai,"Bandra Kurla Complex, Mumbai - MPCB",21-12-2025 08:00:00,19.065931,72.862131,PM10,79,156,117
India,Maharashtra,Mumbai,"Bandra Kurla Complex, Mumbai - MPCB",21-12-2025 08:00:00,19.065931,72.862131,NH3,17,19,17
India,Maharashtra,Mumbai,"Bandra Kurla Complex, Mumbai - MPCB",21-12-2025 08:00:00,19.065931,72.862131,OZONE,1,51,2
India,Maharashtra,Mumbai,"Chembur, Mumbai - MPCB",21-12-2025 08:00:00,19.0364585,72.8954371,SO2,6,15,10
India,Maharashtra,Mumbai,"Chembur, Mumbai - MPCB",21-12-2025 08:00:00,19.0364585,72.8954371,CO,20,66,47
India,Maharashtra,Mumbai,"Deonar, Mumbai - IITM",21-12-2025 08:00:00,19.04946,72.9230,PM10,72,156,118
India,Maharashtra,Mumbai,"Deonar, Mumbai - IITM",21-12-2025 08:00:00,19.04946,72.9230,OZONE,NA,NA,NA
India,Maharashtra,Mumbai,"Kandivali West, Mumbai - BMC",21-12-2025 08:00:00,19.215859,72.831718,PM10,60,122,87
India,Maharashtra,Mumbai,"Khindipada-Bhandup West, Mumbai - IITM",21-12-2025 08:00:00,19.1653323,72.922099,PM10,34,134,83
India,Maharashtra,Mumbai,"Khindipada-Bhandup West, Mumbai - IITM",21-12-2025 08:00:00,19.1653323,72.922099,CO,1,12,1
India,Maharashtra,Mumbai,"Malad West, Mumbai - IITM",21-12-2025 08:00:00,19.19709,72.82204,PM2.5,7,103,45
India,Maharashtra,Mumbai,"Malad West, Mumbai - IITM",21-12-2025 08:00:00,19.19709,72.82204,CO,6,94,77
India,Maharashtra,Mumbai,"Mazgaon, Mumbai - IITM",21-12-2025 08:00:00,18.96702,72.84214,PM2.5,34,88,54
India,Maharashtra,Aurangabad,"Rachnakar Colony, Aurangabad - MPCB",21-12-2025 08:00:00,19.863756,75.321188,CO,14,74,44
India,Maharashtra,Aurangabad,"Rachnakar Colony, Aurangabad - MPCB",21-12-2025 08:00:00,19.863756,75.321188,OZONE,9,72,11
India,Maharashtra,Badlapur,"Katrap, Badlapur - MPCB",21-12-2025 08:00:00,19.16485,73.23409,NH3,4,8,5
India,Maharashtra,Belapur,"CBD Belapur, Belapur - MPCB",21-12-2025 08:00:00,19.0243902,73.0406721,PM10,33,117,93
India,Maharashtra,Latur,"Sawe Wadi, Latur - MPCB",21-12-2025 08:00:00,18.39963,76.57452,CO,12,86,26
India,Maharashtra,Latur,"Sawe Wadi, Latur - MPCB",21-12-2025 08:00:00,18.39963,76.57452,OZONE,14,82,55
India,Maharashtra,Mahad,"Kamble Tarf Birwadi, Mahad - MPCB",21-12-2025 08:00:00,18.1023399,73.4783687,NO2,11,29,15
India,Maharashtra,Mumbai,"Mazgaon, Mumbai - IITM",21-12-2025 08:00:00,18.96702,72.84214,NH3,12,21,16
India,Maharashtra,Mumbai,"Mazgaon, Mumbai - IITM",21-12-2025 08:00:00,18.96702,72.84214,SO2,11,31,17
India,Maharashtra,Mumbai,"Mazgaon, Mumbai - IITM",21-12-2025 08:00:00,18.96702,72.84214,CO,18,84,74
India,Maharashtra,Mumbai,"Mindspace-Malad West, Mumbai - MPCB",21-12-2025 08:00:00,19.1878657,72.8304069,NO2,18,84,43
India,Maharashtra,Mumbai,"Mindspace-Malad West, Mumbai - MPCB",21-12-2025 08:00:00,19.1878657,72.8304069,SO2,6,23,12
India,Maharashtra,Mumbai,"Mindspace-Malad West, Mumbai - MPCB",21-12-2025 08:00:00,19.1878657,72.8304069,CO,6,102,86
India,Maharashtra,Mumbai,"Navy Nagar-Colaba, Mumbai - IITM",21-12-2025 08:00:00,18.897756,72.813320,NH3,7,36,18
India,Maharashtra,Mumbai,"Powai, Mumbai - MPCB",21-12-2025 08:00:00,19.137500,72.915056,SO2,29,29,29
India,Maharashtra,Mumbai,"Powai, Mumbai - MPCB",21-12-2025 08:00:00,19.137500,72.915056,OZONE,9,9,9
India,Maharashtra,Mumbai,"Sewri, Mumbai - BMC",21-12-2025 08:00:00,19.000084,72.856730,PM2.5,1,84,30
India,Maharashtra,Mumbai,"Sewri, Mumbai - BMC",21-12-2025 08:00:00,19.000084,72.856730,CO,1,126,26
India,Maharashtra,Mumbai,"Sewri, Mumbai - BMC",21-12-2025 08:00:00,19.000084,72.856730,OZONE,62,188,104
India,Maharashtra,Mumbai,"Shivaji Nagar, Mumbai - BMC",21-12-2025 08:00:00,19.060498,72.923356,SO2,NA,NA,NA
India,Maharashtra,Mumbai,"Shivaji Nagar, Mumbai - BMC",21-12-2025 08:00:00,19.060498,72.923356,OZONE,1,53,2
India,Maharashtra,Mumbai,"Siddharth Nagar-Worli, Mumbai - IITM",21-12-2025 08:00:00,19.000083,72.813993,PM2.5,44,120,74
India,Maharashtra,Mumbai,"Siddharth Nagar-Worli, Mumbai - IITM",21-12-2025 08:00:00,19.000083,72.813993,OZONE,3,58,20
India,Maharashtra,Mumbai,"Sion, Mumbai - MPCB",21-12-2025 08:00:00,19.047000,72.874600,PM10,9,58,28
India,Maharashtra,Mumbai,"Worli, Mumbai - MPCB",21-12-2025 08:00:00,18.9936162,72.8128113,NH3,NA,NA,NA
India,Maharashtra,Nagpur,"Ambazari, Nagpur - MPCB",21-12-2025 08:00:00,21.121801,79.04952,PM10,78,132,102
India,Maharashtra,Nagpur,"Mahal, Nagpur - MPCB",21-12-2025 08:00:00,21.14472,79.107595,NO2,26,80,48
India,Maharashtra,Nagpur,"Opp GPO Civil Lines, Nagpur - MPCB",21-12-2025 08:00:00,21.152875,79.0517531,OZONE,3,95,8
India,Maharashtra,Nagpur,"Ram Nagar, Nagpur - MPCB",21-12-2025 08:00:00,21.143383,79.048912,PM10,80,138,110
India,Maharashtra,Nagpur,"Ram Nagar, Nagpur - MPCB",21-12-2025 08:00:00,21.143383,79.048912,CO,20,57,29
India,Maharashtra,Nagpur,"Ram Nagar, Nagpur - MPCB",21-12-2025 08:00:00,21.143383,79.048912,OZONE,6,63,13
India,Maharashtra,Nanded,"Sneh Nagar, Nanded - MPCB",21-12-2025 08:00:00,19.173852,77.296291,PM10,64,129,104
India,Maharashtra,Nashik,"Gangapur Road, Nashik - MPCB",21-12-2025 08:00:00,20.0073285,73.7762427,NO2,5,5,5
India,Maharashtra,Nashik,"Gangapur Road, Nashik - MPCB",21-12-2025 08:00:00,20.0073285,73.7762427,NH3,3,3,3
India,Maharashtra,Nashik,"MIDC Ambad, Nashik - MPCB",21-12-2025 08:00:00,19.950220,73.731480,CO,25,28,27
India,Maharashtra,Navi Mumbai,"Kopripada-Vashi, Navi Mumbai - MPCB",21-12-2025 08:00:00,19.090337,73.014232,PM2.5,65,86,76
India,Maharashtra,Navi Mumbai,"Mahape, Navi Mumbai - MPCB",21-12-2025 08:00:00,19.1135051,73.008978,NO2,34,36,35
India,Maharashtra,Navi Mumbai,"Mahape, Navi Mumbai - MPCB",21-12-2025 08:00:00,19.1135051,73.008978,SO2,21,23,22
India,Maharashtra,Navi Mumbai,"Mahape, Navi Mumbai - MPCB",21-12-2025 08:00:00,19.1135051,73.008978,OZONE,8,14,10
India,Maharashtra,Navi Mumbai,"Sanpada, Navi Mumbai - MPCB",21-12-2025 08:00:00,19.0575752,73.0151367,CO,5,124,96
India,Maharashtra,Navi Mumbai,"Sector-2E Kalamboli, Navi Mumbai - MPCB",21-12-2025 08:00:00,19.02579,73.10297,SO2,1,6,3
India,Maharashtra,Navi Mumbai,"Tondare-Taloja, Navi Mumbai - MPCB",21-12-2025 08:00:00,19.0630,73.1209,PM10,110,121,116
India,Maharashtra,Navi Mumbai,"Tondare-Taloja, Navi Mumbai - MPCB",21-12-2025 08:00:00,19.0630,73.1209,NH3,2,9,5
India,Maharashtra,Navi Mumbai,"Tondare-Taloja, Navi Mumbai - MPCB",21-12-2025 08:00:00,19.0630,73.1209,SO2,5,6,5
India,Maharashtra,Pimpri-Chinchwad,"Gavalinagar, Pimpri Chinchwad - MPCB",21-12-2025 08:00:00,18.63673,73.82487,NH3,NA,NA,NA
India,Maharashtra,Pimpri-Chinchwad,"Gavalinagar, Pimpri Chinchwad - MPCB",21-12-2025 08:00:00,18.63673,73.82487,SO2,NA,NA,NA
India,Maharashtra,Pimpri-Chinchwad,"Gavalinagar, Pimpri Chinchwad - MPCB",21-12-2025 08:00:00,18.63673,73.82487,CO,NA,NA,NA
India,Maharashtra,Pimpri-Chinchwad,"Gavalinagar, Pimpri Chinchwad - MPCB",21-12-2025 08:00:00,18.63673,73.82487,OZONE,NA,NA,NA
India,Maharashtra,Pimpri-Chinchwad,"Park Street Wakad, Pimpri Chinchwad - MPCB",21-12-2025 08:00:00,18.59051,73.77946,PM10,92,211,149
India,Maharashtra,Pimpri-Chinchwad,"Park Street Wakad, Pimpri Chinchwad - MPCB",21-12-2025 08:00:00,18.59051,73.77946,NH3,1,5,3
India,Maharashtra,Pimpri-Chinchwad,"Savta Mali Nagar, Pimpri-Chinchwad - IITM",21-12-2025 08:00:00,18.614767,73.799516,PM2.5,33,271,109
India,Maharashtra,Pimpri-Chinchwad,"Savta Mali Nagar, Pimpri-Chinchwad - IITM",21-12-2025 08:00:00,18.614767,73.799516,NO2,20,144,64
India,Maharashtra,Pimpri-Chinchwad,"Thergaon, Pimpri Chinchwad - MPCB",21-12-2025 08:00:00,18.616318,73.765797,PM10,58,178,108
India,Maharashtra,Pimpri-Chinchwad,"Thergaon, Pimpri Chinchwad - MPCB",21-12-2025 08:00:00,18.616318,73.765797,NH3,4,7,6
India,Maharashtra,Pimpri-Chinchwad,"Thergaon, Pimpri Chinchwad - MPCB",21-12-2025 08:00:00,18.616318,73.765797,OZONE,1,60,12
India,Maharashtra,Pune,"Bhumkar Nagar, Pune - IITM",21-12-2025 08:00:00,18.605770,73.749976,PM2.5,92,312,207
India,Maharashtra,Pune,"Bhumkar Nagar, Pune - IITM",21-12-2025 08:00:00,18.605770,73.749976,PM10,105,357,203
India,Maharashtra,Pune,"Hadapsar, Pune - IITM",21-12-2025 08:00:00,18.501793,73.927532,OZONE,3,68,12
India,Maharashtra,Pune,"Katraj Dairy, Pune - MPCB",21-12-2025 08:00:00,18.454450,73.854155,PM2.5,66,176,98
India,Maharashtra,Pune,"Katraj Dairy, Pune - MPCB",21-12-2025 08:00:00,18.454450,73.854155,PM10,89,146,112
India,Maharashtra,Pune,"Katraj Dairy, Pune - MPCB",21-12-2025 08:00:00,18.454450,73.854155,NH3,2,18,5
India,Maharashtra,Pune,"Mhada Colony, Pune - IITM",21-12-2025 08:00:00,18.573040,73.927715,PM2.5,47,322,164
India,Maharashtra,Pune,"Panchawati_Pashan, Pune - IITM",21-12-2025 08:00:00,18.536457,73.805454,OZONE,1,36,2
India,Andhra_Pradesh,Amaravati,"Secretariat, Amaravati - APPCB",21-12-2025 08:00:00,16.5150833,80.5181667,PM2.5,46,253,126
India,Andhra_Pradesh,Amaravati,"Secretariat, Amaravati - APPCB",21-12-2025 08:00:00,16.5150833,80.5181667,NO2,23,86,50
India,Andhra_Pradesh,Anantapur,"Gulzarpet, Anantapur - APPCB",21-12-2025 08:00:00,14.675886,77.593027,NH3,6,6,6
India,Andhra_Pradesh,Anantapur,"Gulzarpet, Anantapur - APPCB",21-12-2025 08:00:00,14.675886,77.593027,SO2,16,16,16
India,Andhra_Pradesh,Anantapur,"Gulzarpet, Anantapur - APPCB",21-12-2025 08:00:00,14.675886,77.593027,CO,37,60,50
India,Andhra_Pradesh,Chittoor,"Gangineni Cheruvu, Chittoor - APPCB",21-12-2025 08:00:00,13.204880,79.097889,PM10,57,131,97
India,Andhra_Pradesh,Chittoor,"Gangineni Cheruvu, Chittoor - APPCB",21-12-2025 08:00:00,13.204880,79.097889,SO2,5,35,15
India,Andhra_Pradesh,Kadapa,"Yerramukkapalli, Kadapa - APPCB",21-12-2025 08:00:00,14.465052,78.824187,PM2.5,52,225,123
India,Bihar,Bihar Sharif,"D M Colony, Bihar Sharif - BSPCB",21-12-2025 08:00:00,25.204762,85.514960,PM10,87,136,115
India,Bihar,Bihar Sharif,"D M Colony, Bihar Sharif - BSPCB",21-12-2025 08:00:00,25.204762,85.514960,SO2,10,10,10
India,Bihar,Buxar,"Charitra Van, Buxar - BSPCB",21-12-2025 08:00:00,25.567520,83.966379,PM2.5,NA,NA,NA
India,Bihar,Buxar,"Charitra Van, Buxar - BSPCB",21-12-2025 08:00:00,25.567520,83.966379,NH3,3,3,3
India,Bihar,Chhapra,"Darshan Nagar, Chhapra - BSPCB",21-12-2025 08:00:00,25.7808257,84.7446768,NO2,1,1,1
India,Bihar,Chhapra,"Darshan Nagar, Chhapra - BSPCB",21-12-2025 08:00:00,25.7808257,84.7446768,SO2,35,38,36
India,Bihar,Chhapra,"Darshan Nagar, Chhapra - BSPCB",21-12-2025 08:00:00,25.7808257,84.7446768,OZONE,14,17,15
India,Bihar,Gaya,"Collectorate, Gaya - BSPCB",21-12-2025 08:00:00,24.7955,84.9994,SO2,9,16,13
India,Assam,Guwahati,"Railway Colony, Guwahati - PCBA",21-12-2025 08:00:00,26.181742,91.78063,PM10,69,283,154
India,Assam,Nagaon,"Christianpatty, Nagaon - PCBA",21-12-2025 08:00:00,26.349082,92.68449,PM10,78,133,109
India,Assam,Nagaon,"Christianpatty, Nagaon - PCBA",21-12-2025 08:00:00,26.349082,92.68449,CO,18,24,22
India,Assam,Nalbari,"Bata Chowk, Nalbari - PCBA",21-12-2025 08:00:00,26.446912,91.439057,NH3,6,6,6
India,Assam,Nalbari,"Bata Chowk, Nalbari - PCBA",21-12-2025 08:00:00,26.446912,91.439057,OZONE,15,17,16
India,Assam,Silchar,"Tarapur, Silchar - PCBA",21-12-2025 08:00:00,24.82827,92.79525,PM10,39,69,52
India,Assam,Silchar,"Tarapur, Silchar - PCBA",21-12-2025 08:00:00,24.82827,92.79525,NO2,18,30,25
India,Assam,Silchar,"Tarapur, Silchar - PCBA",21-12-2025 08:00:00,24.82827,92.79525,SO2,1,7,4
India,Arunachal_Pradesh,Naharlagun,"Naharlagun, Naharlagun - APSPCB",21-12-2025 08:00:00,27.103358,93.679645,OZONE,5,6,6
India,Assam,Byrnihat,"Central Academy for SFS, Byrnihat - PCBA",21-12-2025 08:00:00,26.071318,91.87488,NO2,5,9,7
India,Assam,Guwahati,"LGBI Airport, Guwahati - PCBA",21-12-2025 08:00:00,26.10887,91.589544,PM2.5,42,161,96
India,Assam,Guwahati,"LGBI Airport, Guwahati - PCBA",21-12-2025 08:00:00,26.10887,91.589544,NH3,2,18,6
India,Assam,Guwahati,"LGBI Airport, Guwahati - PCBA",21-12-2025 08:00:00,26.10887,91.589544,SO2,4,42,13
India,Assam,Guwahati,"Pan Bazaar, Guwahati - PCBA",21-12-2025 08:00:00,26.187500,91.744194,PM2.5,1,1,1
India,Assam,Guwahati,"Pan Bazaar, Guwahati - PCBA",21-12-2025 08:00:00,26.187500,91.744194,CO,15,63,40
India,Assam,Sivasagar,"Girls College, Sivasagar - PCBA",21-12-2025 08:00:00,26.987634,94.636574,PM10,22,99,58
India,Assam,Sivasagar,"Girls College, Sivasagar - PCBA",21-12-2025 08:00:00,26.987634,94.636574,SO2,13,18,15
India,Bihar,Araria,"Kharahiya Basti, Araria - BSPCB",21-12-2025 08:00:00,26.146529,87.454184,PM10,29,117,83
India,Bihar,Araria,"Kharahiya Basti, Araria - BSPCB",21-12-2025 08:00:00,26.146529,87.454184,OZONE,9,10,10
India,Bihar,Arrah,"New DM Office, Arrah - BSPCB",21-12-2025 08:00:00,25.5626095,84.663264,SO2,8,10,10
India,Bihar,Arrah,"New DM Office, Arrah - BSPCB",21-12-2025 08:00:00,25.5626095,84.663264,CO,37,78,51
India,Bihar,Aurangabad,"Gurdeo Nagar, Aurangabad - BSPCB",21-12-2025 08:00:00,24.75746,84.366208,CO,101,104,102
India,Andhra_Pradesh,Vijayawada,"Kanuru, Vijayawada - APPCB",21-12-2025 08:00:00,16.486692,80.699436,SO2,NA,NA,NA
India,Andhra_Pradesh,Vijayawada,"Rajiv Gandhi Park, Vijayawada - APPCB",21-12-2025 08:00:00,16.509717,80.612222,PM10,61,147,100
India,Andhra_Pradesh,Vijayawada,"Rajiv Gandhi Park, Vijayawada - APPCB",21-12-2025 08:00:00,16.509717,80.612222,NO2,16,100,48
India,Andhra_Pradesh,Vijayawada,"Rajiv Gandhi Park, Vijayawada - APPCB",21-12-2025 08:00:00,16.509717,80.612222,NH3,2,9,6
India,Andhra_Pradesh,Visakhapatnam,"GVM Corporation, Visakhapatnam - APPCB",21-12-2025 08:00:00,17.72,83.3,PM2.5,138,355,269
India,Andhra_Pradesh,Kadapa,"Yerramukkapalli, Kadapa - APPCB",21-12-2025 08:00:00,14.465052,78.824187,CO,36,55,41
India,Andhra_Pradesh,Rajamahendravaram,"Anand Kala Kshetram, Rajamahendravaram - APPCB",21-12-2025 08:00:00,16.9872867,81.7363176,SO2,12,33,21
India,Andhra_Pradesh,Tirumala,"Toll Gate, Tirumala - APPCB",21-12-2025 08:00:00,13.67,79.35,OZONE,NA,NA,NA
India,Andhra_Pradesh,Tirupati,"Vaikuntapuram, Tirupati - APPCB",21-12-2025 08:00:00,13.615387,79.409230,CO,33,60,41
India,Bihar,Begusarai,"Lohiyanagar, Begusarai - BSPCB",21-12-2025 08:00:00,25.42742023,86.13886079,PM10,132,188,147
India,Bihar,Begusarai,"Lohiyanagar, Begusarai - BSPCB",21-12-2025 08:00:00,25.42742023,86.13886079,OZONE,10,15,10
India,Bihar,Bhagalpur,"DM Office_Kachari Chowk, Bhagalpur - BSPCB",21-12-2025 08:00:00,25.251013,86.989001,NO2,5,11,8
India,Bihar,Bhagalpur,"Mayaganj, Bhagalpur - BSPCB",21-12-2025 08:00:00,25.265194,87.012947,SO2,47,55,50
India,Bihar,Gaya,"Kareemganj, Gaya - BSPCB",21-12-2025 08:00:00,24.792403,84.992416,NH3,4,6,5
India,Bihar,Gaya,"Kareemganj, Gaya - BSPCB",21-12-2025 08:00:00,24.792403,84.992416,SO2,15,18,16
India,Bihar,Gaya,"Kareemganj, Gaya - BSPCB",21-12-2025 08:00:00,24.792403,84.992416,OZONE,1,16,2
India,Andaman and Nicobar,Sri Vijaya Puram,"Police Line, Sri Vijaya Puram - ANPCC",21-12-2025 08:00:00,11.654054,92.734055,NO2,NA,NA,NA
India,Bihar,Katihar,"Mirchaibari, Katihar - BSPCB",21-12-2025 08:00:00,25.560083,87.553265,NH3,1,1,1
India,Bihar,Kishanganj,"SDM Office_Khagra, Kishanganj - BSPCB",21-12-2025 08:00:00,26.0881305,87.93840336,NH3,3,3,3
India,Bihar,Manguraha,"Forest Rest House, Manguraha - BSPCB",21-12-2025 08:00:00,27.308328,84.531742,SO2,16,17,16
India,Bihar,Motihari,"Gandak Colony, Motihari - BSPCB",21-12-2025 08:00:00,26.63086,84.90051,PM10,32,174,88
India,Bihar,Motihari,"Gandak Colony, Motihari - BSPCB",21-12-2025 08:00:00,26.63086,84.90051,SO2,2,3,3
India,Bihar,Motihari,"Gandak Colony, Motihari - BSPCB",21-12-2025 08:00:00,26.63086,84.90051,OZONE,3,4,3
India,Bihar,Patna,"Govt. High School Shikarpur, Patna - BSPCB",21-12-2025 08:00:00,25.592539,85.227158,PM2.5,20,500,105
India,Bihar,Patna,"Govt. High School Shikarpur, Patna - BSPCB",21-12-2025 08:00:00,25.592539,85.227158,SO2,9,65,15
India,Bihar,Patna,"IGSC Planetarium Complex, Patna - BSPCB",21-12-2025 08:00:00,25.610369,85.132568,PM2.5,73,198,111
India,Bihar,Patna,"IGSC Planetarium Complex, Patna - BSPCB",21-12-2025 08:00:00,25.610369,85.132568,SO2,20,23,22
India,Bihar,Patna,"IGSC Planetarium Complex, Patna - BSPCB",21-12-2025 08:00:00,25.610369,85.132568,CO,58,61,60
India,Bihar,Patna,"Muradpur, Patna - BSPCB",21-12-2025 08:00:00,25.619651,85.147382,NO2,5,7,6
India,Bihar,Saharsa,"Police Line, Saharsa - BSPCB",21-12-2025 08:00:00,25.892357,86.590325,OZONE,9,11,10
India,Bihar,Sasaram,"Dada Peer, Sasaram - BSPCB",21-12-2025 08:00:00,24.952822,84.002396,NH3,1,4,3
India,Bihar,Sasaram,"Dada Peer, Sasaram - BSPCB",21-12-2025 08:00:00,24.952822,84.002396,CO,46,59,51
India,Bihar,Sasaram,"Dada Peer, Sasaram - BSPCB",21-12-2025 08:00:00,24.952822,84.002396,OZONE,6,22,17
India,Bihar,Siwan,"Chitragupta Nagar, Siwan - BSPCB",21-12-2025 08:00:00,26.2271665,84.3570427,NH3,1,1,1
India,Bihar,Munger,"Town Hall, Munger - BSPCB",21-12-2025 08:00:00,25.376776,86.471523,PM10,51,117,89
India,Bihar,Munger,"Town Hall, Munger - BSPCB",21-12-2025 08:00:00,25.376776,86.471523,NO2,4,6,5
India,Bihar,Muzaffarpur,"Buddha Colony, Muzaffarpur - BSPCB",21-12-2025 08:00:00,26.11442,85.39813,PM2.5,90,152,113
India,Bihar,Muzaffarpur,"Muzaffarpur Collectorate, Muzaffarpur - BSPCB",21-12-2025 08:00:00,26.1209,85.3647,PM2.5,127,160,150
India,Chhattisgarh,Bhilai,"32Bungalows, Bhilai - CECB",21-12-2025 08:00:00,21.194815,81.314770,PM2.5,10,39,21
India,Chhattisgarh,Bhilai,"32Bungalows, Bhilai - CECB",21-12-2025 08:00:00,21.194815,81.314770,PM10,12,109,55
India,Chhattisgarh,Bhilai,"32Bungalows, Bhilai - CECB",21-12-2025 08:00:00,21.194815,81.314770,NO2,18,105,55
India,Chhattisgarh,Bhilai,"32Bungalows, Bhilai - CECB",21-12-2025 08:00:00,21.194815,81.314770,OZONE,NA,NA,NA
India,Chhattisgarh,Bhilai,"Civic Center, Bhilai - Bhilai Steel Plant",21-12-2025 08:00:00,21.185571,81.343175,NH3,4,4,4
India,Bihar,Patna,"Rajbansi Nagar, Patna - BSPCB",21-12-2025 08:00:00,25.599486,85.113666,PM2.5,70,171,110
India,Bihar,Patna,"Rajbansi Nagar, Patna - BSPCB",21-12-2025 08:00:00,25.599486,85.113666,PM10,82,146,113
India,Bihar,Patna,"Rajbansi Nagar, Patna - BSPCB",21-12-2025 08:00:00,25.599486,85.113666,OZONE,22,30,24
India,Bihar,Patna,"Samanpura, Patna - BSPCB",21-12-2025 08:00:00,25.596727,85.085624,PM2.5,66,282,168
India,Chandigarh,Chandigarh,"Sector 22, Chandigarh - CPCC",21-12-2025 08:00:00,30.735567,76.775714,OZONE,5,75,7
India,Chandigarh,Chandigarh,"Sector-25, Chandigarh - CPCC",21-12-2025 08:00:00,30.751462,76.762879,PM2.5,153,331,265
India,Chandigarh,Chandigarh,"Sector-25, Chandigarh - CPCC",21-12-2025 08:00:00,30.751462,76.762879,NO2,11,34,24
India,Bihar,Purnia,"Mariam Nagar, Purnia - BSPCB",21-12-2025 08:00:00,25.366336,87.117468,SO2,15,19,17
India,Bihar,Saharsa,"Police Line, Saharsa - BSPCB",21-12-2025 08:00:00,25.892357,86.590325,PM2.5,13,91,54
India,Bihar,Saharsa,"Police Line, Saharsa - BSPCB",21-12-2025 08:00:00,25.892357,86.590325,PM10,46,114,80
India,Chhattisgarh,Chhal,"Nawapara SECL Colony, Chhal - CECB",21-12-2025 08:00:00,22.118125,83.140608,OZONE,3,179,8
India,Chhattisgarh,Korba,"Rampur, Korba - CECB",21-12-2025 08:00:00,22.368195,82.746431,PM10,NA,NA,NA
India,Delhi,Delhi,"Aya Nagar, Delhi - IMD",21-12-2025 08:00:00,28.4706914,77.1099364,NO2,21,61,38
India,Delhi,Delhi,"Bawana, Delhi - DPCC",21-12-2025 08:00:00,28.776200,77.051074,PM10,227,482,375
India,Delhi,Delhi,"Bawana, Delhi - DPCC",21-12-2025 08:00:00,28.776200,77.051074,CO,78,114,95
India,Delhi,Delhi,"Burari Crossing, Delhi - IMD",21-12-2025 08:00:00,28.7256504,77.2011573,NO2,39,163,126
India,Delhi,Delhi,"CRRI Mathura Road, Delhi - IMD",21-12-2025 08:00:00,28.5512005,77.2735737,PM10,128,416,223
India,Delhi,Delhi,"CRRI Mathura Road, Delhi - IMD",21-12-2025 08:00:00,28.5512005,77.2735737,OZONE,10,22,14
India,Delhi,Delhi,"Chandni Chowk, Delhi - IITM",21-12-2025 08:00:00,28.656756,77.227234,PM10,260,500,389
India,Delhi,Delhi,"Mandir Marg, Delhi - DPCC",21-12-2025 08:00:00,28.636429,77.201067,NH3,8,11,9
India,Delhi,Delhi,"Mandir Marg, Delhi - DPCC",21-12-2025 08:00:00,28.636429,77.201067,CO,5,103,46
India,Delhi,Delhi,"Mandir Marg, Delhi - DPCC",21-12-2025 08:00:00,28.636429,77.201067,OZONE,9,24,12
India,Delhi,Delhi,"NSIT Dwarka, Delhi - CPCB",21-12-2025 08:00:00,28.60909,77.0325413,PM2.5,328,386,346
India,Delhi,Delhi,"NSIT Dwarka, Delhi - CPCB",21-12-2025 08:00:00,28.60909,77.0325413,NH3,26,67,34
India,Delhi,Delhi,"Najafgarh, Delhi - DPCC",21-12-2025 08:00:00,28.570173,76.933762,PM10,133,415,262
India,Delhi,Delhi,"Najafgarh, Delhi - DPCC",21-12-2025 08:00:00,28.570173,76.933762,NO2,98,169,119
India,Delhi,Delhi,"Chandni Chowk, Delhi - IITM",21-12-2025 08:00:00,28.656756,77.227234,SO2,11,35,23
India,Delhi,Delhi,"Chandni Chowk, Delhi - IITM",21-12-2025 08:00:00,28.656756,77.227234,CO,115,121,118
India,Delhi,Delhi,"Dr. Karni Singh Shooting Range, Delhi - DPCC",21-12-2025 08:00:00,28.498571,77.264840,PM2.5,320,418,369
India,Delhi,Delhi,"Dr. Karni Singh Shooting Range, Delhi - DPCC",21-12-2025 08:00:00,28.498571,77.264840,NH3,10,13,12
India,Delhi,Delhi,"Dr. Karni Singh Shooting Range, Delhi - DPCC",21-12-2025 08:00:00,28.498571,77.264840,SO2,8,11,10
India,Delhi,Delhi,"Dwarka-Sector 8, Delhi - DPCC ",21-12-2025 08:00:00,28.5710274,77.0719006,CO,19,109,30
India,Chhattisgarh,Raipur,"Siltara Phase-II, Raipur - CECB",21-12-2025 08:00:00,21.371751,81.664929,SO2,3,12,5
India,Delhi,Delhi,"Alipur, Delhi - DPCC",21-12-2025 08:00:00,28.815329,77.153010,PM10,179,443,304
India,Delhi,Delhi,"Anand Vihar, Delhi - DPCC",21-12-2025 08:00:00,28.647622,77.3158090,OZONE,10,12,11
India,Delhi,Delhi,"Ashok Vihar, Delhi - DPCC",21-12-2025 08:00:00,28.695381,77.181665,PM2.5,366,500,425
India,Delhi,Delhi,"Ashok Vihar, Delhi - DPCC",21-12-2025 08:00:00,28.695381,77.181665,NO2,36,134,76
India,Delhi,Delhi,"ITO, Delhi - CPCB",21-12-2025 08:00:00,28.628624,77.241060,SO2,8,31,23
India,Delhi,Delhi,"ITO, Delhi - CPCB",21-12-2025 08:00:00,28.628624,77.241060,OZONE,11,31,29
India,Delhi,Delhi,"Jahangirpuri, Delhi - DPCC",21-12-2025 08:00:00,28.732820,77.170633,NO2,81,122,102
India,Delhi,Delhi,"Jahangirpuri, Delhi - DPCC",21-12-2025 08:00:00,28.732820,77.170633,NH3,2,8,5
India,Delhi,Delhi,"Jawaharlal Nehru Stadium, Delhi - DPCC",21-12-2025 08:00:00,28.580280,77.233829,NO2,42,105,69
India,Delhi,Delhi,"Jawaharlal Nehru Stadium, Delhi - DPCC",21-12-2025 08:00:00,28.580280,77.233829,CO,68,114,85
India,Delhi,Delhi,"Lodhi Road, Delhi - IMD",21-12-2025 08:00:00,28.5918245,77.2273074,PM10,198,426,300
India,Delhi,Delhi,"Lodhi Road, Delhi - IMD",21-12-2025 08:00:00,28.5918245,77.2273074,NO2,22,41,30
India,Delhi,Delhi,"Lodhi Road, Delhi - IMD",21-12-2025 08:00:00,28.5918245,77.2273074,CO,40,88,50
India,Delhi,Delhi,"Major Dhyan Chand National Stadium, Delhi - DPCC",21-12-2025 08:00:00,28.611281,77.237738,PM2.5,332,436,376
India,Delhi,Delhi,"Major Dhyan Chand National Stadium, Delhi - DPCC",21-12-2025 08:00:00,28.611281,77.237738,CO,1,98,50
India,Delhi,Delhi,"IGI Airport (T3), Delhi - IMD",21-12-2025 08:00:00,28.5627763,77.1180053,PM2.5,272,403,332
India,Delhi,Delhi,"IHBAS, Dilshad Garden, Delhi - CPCB",21-12-2025 08:00:00,28.6811736,77.3025234,CO,32,52,41
India,Delhi,Delhi,"IIT Delhi, Delhi - IITM",21-12-2025 08:00:00,28.542460,77.191651,PM10,174,376,252
India,Chhattisgarh,Korba,"Urja Nagar, Korba - CECB",21-12-2025 08:00:00,22.348441,82.549611,NO2,22,35,28
India,Chhattisgarh,Kunjemura,"OP Jindal School, Kunjemura - CECB",21-12-2025 08:00:00,22.126650,83.483212,CO,NA,NA,NA
India,Chhattisgarh,Raipur,"Krishak Nagar, Raipur - CECB",21-12-2025 08:00:00,21.237755,81.705301,CO,34,50,41
India,Gujarat,Gandhinagar,"IIPHG Lekawada, Gandhinagar - IITM",21-12-2025 08:00:00,23.243639,72.68994,NO2,7,8,7
India,Gujarat,Gandhinagar,"IIPHG Lekawada, Gandhinagar - IITM",21-12-2025 08:00:00,23.243639,72.68994,CO,15,102,38
India,Gujarat,Gandhinagar,"IIPHG Lekawada, Gandhinagar - IITM",21-12-2025 08:00:00,23.243639,72.68994,OZONE,2,42,3
India,Gujarat,Gandhinagar,"Sector-10, Gandhinagar - GPCB",21-12-2025 08:00:00,23.221714,72.654328,PM10,46,110,78
India,Gujarat,Gandhinagar,"Sector-10, Gandhinagar - GPCB",21-12-2025 08:00:00,23.221714,72.654328,NO2,17,42,24
India,Gujarat,Gandhinagar,"Sector-10, Gandhinagar - GPCB",21-12-2025 08:00:00,23.221714,72.654328,SO2,9,17,13
India,Gujarat,Gandhinagar,"Sector-10, Gandhinagar - GPCB",21-12-2025 08:00:00,23.221714,72.654328,OZONE,3,64,9
India,Gujarat,Surat,"Science Center, Surat - SMC",21-12-2025 08:00:00,21.170046,72.795405,PM10,NA,NA,NA
India,Delhi,Delhi,"Pusa, Delhi - DPCC",21-12-2025 08:00:00,28.639652,77.146275,NO2,38,103,76
India,Delhi,Delhi,"Pusa, Delhi - DPCC",21-12-2025 08:00:00,28.639652,77.146275,NH3,17,24,21
