country,state,city,station,last_update,latitude,longitude,pollutant_id,min_value,max_value,avg_value
India,Bihar,Arrah,"New DM Office, Arrah - BSPCB",10-04-2026 09:00:00,25.5626095,84.663264,CO,46,66,54
India,Bihar,Aurangabad,"Gurdeo Nagar, Aurangabad - BSPCB",10-04-2026 09:00:00,24.75746,84.366208,PM2.5,2,37,22
India,Bihar,Aurangabad,"Gurdeo Nagar, Aurangabad - BSPCB",10-04-2026 09:00:00,24.75746,84.366208,OZONE,19,76,27
India,Bihar,Begusarai,"Lohiyanagar, Begusarai - BSPCB",10-04-2026 09:00:00,25.42742023,86.13886079,PM2.5,22,253,84
India,Bihar,Begusarai,"Lohiyanagar, Begusarai - BSPCB",10-04-2026 09:00:00,25.42742023,86.13886079,NH3,3,4,4
India,Bihar,Begusarai,"Lohiyanagar, Begusarai - BSPCB",10-04-2026 09:00:00,25.42742023,86.13886079,CO,14,20,17
India,Bihar,Bettiah,"Kamalnath Nagar, Bettiah - BSPCB",10-04-2026 09:00:00,26.80365,84.51954,PM10,3,30,13
India,Bihar,Bettiah,"Kamalnath Nagar, Bettiah - BSPCB",10-04-2026 09:00:00,26.80365,84.51954,CO,26,43,34
India,Bihar,Bhagalpur,"DM Office_Kachari Chowk, Bhagalpur - BSPCB",10-04-2026 09:00:00,25.251013,86.989001,PM2.5,37,153,70
India,Bihar,Bhagalpur,"DM Office_Kachari Chowk, Bhagalpur - BSPCB",10-04-2026 09:00:00,25.251013,86.989001,NH3,1,1,1
India,Bihar,Bhagalpur,"DM Office_Kachari Chowk, Bhagalpur - BSPCB",10-04-2026 09:00:00,25.251013,86.989001,CO,3,42,14
India,Assam,Nagaon,"Christianpatty, Nagaon - PCBA",10-04-2026 09:00:00,26.349082,92.68449,CO,8,26,21
India,Assam,Nalbari,"Bata Chowk, Nalbari - PCBA",10-04-2026 09:00:00,26.446912,91.439057,PM2.5,34,45,40
India,Assam,Nalbari,"Bata Chowk, Nalbari - PCBA",10-04-2026 09:00:00,26.446912,91.439057,NO2,14,15,14
India,Assam,Silchar,"Tarapur, Silchar - PCBA",10-04-2026 09:00:00,24.82827,92.79525,PM10,50,69,58
India,Assam,Sivasagar,"Girls College, Sivasagar - PCBA",10-04-2026 09:00:00,26.987634,94.636574,PM2.5,13,23,18
India,Assam,Sivasagar,"Girls College, Sivasagar - PCBA",10-04-2026 09:00:00,26.987634,94.636574,NO2,21,35,27
India,Bihar,Araria,"Kharahiya Basti, Araria - BSPCB",10-04-2026 09:00:00,26.146529,87.454184,NH3,5,6,6
India,Bihar,Araria,"Kharahiya Basti, Araria - BSPCB",10-04-2026 09:00:00,26.146529,87.454184,CO,66,106,87
India,Bihar,Arrah,"New DM Office, Arrah - BSPCB",10-04-2026 09:00:00,25.5626095,84.663264,PM2.5,15,82,46
India,Andhra_Pradesh,Vijayawada,"Rajiv Gandhi Park, Vijayawada - APPCB",10-04-2026 09:00:00,16.509717,80.612222,NO2,18,31,24
India,Andhra_Pradesh,Vijayawada,"Rajiv Gandhi Park, Vijayawada - APPCB",10-04-2026 09:00:00,16.509717,80.612222,SO2,17,20,18
India,Andhra_Pradesh,Vijayawada,"Rajiv Nagar, Vijayawada - APPCB",10-04-2026 09:00:00,16.554731,80.649110,NH3,4,6,6
India,Andhra_Pradesh,Vijayawada,"Rajiv Nagar, Vijayawada - APPCB",10-04-2026 09:00:00,16.554731,80.649110,CO,19,36,34
India,Andhra_Pradesh,Visakhapatnam,"GVM Corporation, Visakhapatnam - APPCB",10-04-2026 09:00:00,17.72,83.3,SO2,1,105,29
India,Arunachal_Pradesh,Naharlagun,"Naharlagun, Naharlagun - APSPCB",10-04-2026 09:00:00,27.103358,93.679645,NO2,7,7,7
India,Assam,Byrnihat,"Central Academy for SFS, Byrnihat - PCBA",10-04-2026 09:00:00,26.071318,91.87488,PM2.5,28,88,43
India,Assam,Byrnihat,"Central Academy for SFS, Byrnihat - PCBA",10-04-2026 09:00:00,26.071318,91.87488,NH3,4,5,4
India,Andhra_Pradesh,Amaravati,"Secretariat, Amaravati - APPCB",10-04-2026 09:00:00,16.5150833,80.5181667,PM10,44,121,68
India,Andhra_Pradesh,Amaravati,"Secretariat, Amaravati - APPCB",10-04-2026 09:00:00,16.5150833,80.5181667,NH3,2,5,3
India,Andhra_Pradesh,Anantapur,"Gulzarpet, Anantapur - APPCB",10-04-2026 09:00:00,14.675886,77.593027,NH3,5,7,6
India,Andhra_Pradesh,Anantapur,"Gulzarpet, Anantapur - APPCB",10-04-2026 09:00:00,14.675886,77.593027,OZONE,29,41,29
India,Andhra_Pradesh,Chittoor,"Gangineni Cheruvu, Chittoor - APPCB",10-04-2026 09:00:00,13.204880,79.097889,SO2,9,20,14
India,Andhra_Pradesh,Chittoor,"Gangineni Cheruvu, Chittoor - APPCB",10-04-2026 09:00:00,13.204880,79.097889,OZONE,26,44,29
India,Andhra_Pradesh,Eluru,"District Court, Eluru - APPCB",10-04-2026 09:00:00,16.711754,81.092095,PM10,NA,NA,NA
India,Bihar,Gaya,"Kareemganj, Gaya - BSPCB",10-04-2026 09:00:00,24.792403,84.992416,OZONE,26,74,35
India,Bihar,Gaya,"SFTI Kusdihra, Gaya - BSPCB",10-04-2026 09:00:00,24.762518,84.982348,NO2,18,32,22
India,Bihar,Hajipur,"Industrial Area, Hajipur - BSPCB",10-04-2026 09:00:00,25.697189,85.245900,SO2,1,9,4
India,Bihar,Hajipur,"Industrial Area, Hajipur - BSPCB",10-04-2026 09:00:00,25.697189,85.245900,CO,14,40,30
India,Bihar,Katihar,"Mirchaibari, Katihar - BSPCB",10-04-2026 09:00:00,25.560083,87.553265,NO2,9,10,9
India,Bihar,Katihar,"Mirchaibari, Katihar - BSPCB",10-04-2026 09:00:00,25.560083,87.553265,SO2,16,20,18
India,Bihar,Katihar,"Mirchaibari, Katihar - BSPCB",10-04-2026 09:00:00,25.560083,87.553265,OZONE,6,35,7
India,Andhra_Pradesh,Eluru,"District Court, Eluru - APPCB",10-04-2026 09:00:00,16.711754,81.092095,NH3,NA,NA,NA
India,Andhra_Pradesh,Eluru,"District Court, Eluru - APPCB",10-04-2026 09:00:00,16.711754,81.092095,SO2,NA,NA,NA
India,Andhra_Pradesh,Guntur,"Rajendra Nagar North, Guntur - APPCB",10-04-2026 09:00:00,16.316553,80.413302,PM2.5,49,74,58
India,Andhra_Pradesh,Guntur,"Rajendra Nagar North, Guntur - APPCB",10-04-2026 09:00:00,16.316553,80.413302,SO2,9,19,14
India,Andhra_Pradesh,Guntur,"Rajendra Nagar North, Guntur - APPCB",10-04-2026 09:00:00,16.316553,80.413302,OZONE,27,43,28
India,Andhra_Pradesh,Machilipatnam,"Srinivas Nagar Colony, Machilipatnam - APPCB",10-04-2026 09:00:00,16.186555,81.13219,NO2,13,37,26
India,Andhra_Pradesh,Machilipatnam,"Srinivas Nagar Colony, Machilipatnam - APPCB",10-04-2026 09:00:00,16.186555,81.13219,CO,NA,NA,NA
India,Bihar,Bhagalpur,"Mayaganj, Bhagalpur - BSPCB",10-04-2026 09:00:00,25.265194,87.012947,PM2.5,30,243,93
India,Bihar,Bihar Sharif,"D M Colony, Bihar Sharif - BSPCB",10-04-2026 09:00:00,25.204762,85.514960,NO2,9,10,9
India,Bihar,Bihar Sharif,"D M Colony, Bihar Sharif - BSPCB",10-04-2026 09:00:00,25.204762,85.514960,OZONE,2,2,2
India,Bihar,Buxar,"Charitra Van, Buxar - BSPCB",10-04-2026 09:00:00,25.567520,83.966379,OZONE,1,24,9
India,Bihar,Gaya,"Collectorate, Gaya - BSPCB",10-04-2026 09:00:00,24.7955,84.9994,PM2.5,31,203,86
India,Assam,Byrnihat,"Central Academy for SFS, Byrnihat - PCBA",10-04-2026 09:00:00,26.071318,91.87488,OZONE,13,42,15
India,Assam,Guwahati,"LGBI Airport, Guwahati - PCBA",10-04-2026 09:00:00,26.10887,91.589544,OZONE,13,14,14
India,Assam,Guwahati,"Railway Colony, Guwahati - PCBA",10-04-2026 09:00:00,26.181742,91.78063,NH3,1,1,1
India,Assam,Nagaon,"Christianpatty, Nagaon - PCBA",10-04-2026 09:00:00,26.349082,92.68449,NO2,2,9,4
India,Andhra_Pradesh,Tirumala,"Toll Gate, Tirumala - APPCB",10-04-2026 09:00:00,13.67,79.35,NH3,2,3,3
India,Andhra_Pradesh,Tirupati,"Vaikuntapuram, Tirupati - APPCB",10-04-2026 09:00:00,13.615387,79.409230,PM10,NA,NA,NA
India,Andhra_Pradesh,Tirupati,"Vaikuntapuram, Tirupati - APPCB",10-04-2026 09:00:00,13.615387,79.409230,SO2,NA,NA,NA
India,Andhra_Pradesh,Vijayawada,"Kanuru, Vijayawada - APPCB",10-04-2026 09:00:00,16.486692,80.699436,NO2,NA,NA,NA
India,Bihar,Manguraha,"Forest Rest House, Manguraha - BSPCB",10-04-2026 09:00:00,27.308328,84.531742,NO2,2,8,4
India,Bihar,Manguraha,"Forest Rest House, Manguraha - BSPCB",10-04-2026 09:00:00,27.308328,84.531742,CO,32,34,32
India,Bihar,Manguraha,"Forest Rest House, Manguraha - BSPCB",10-04-2026 09:00:00,27.308328,84.531742,OZONE,8,12,10
India,Bihar,Motihari,"Gandak Colony, Motihari - BSPCB",10-04-2026 09:00:00,26.63086,84.90051,CO,36,60,56
India,Bihar,Muzaffarpur,"MIT-Daudpur Kothi, Muzaffarpur - BSPCB",10-04-2026 09:00:00,26.1403345,85.3650192,SO2,11,19,15
India,Bihar,Muzaffarpur,"MIT-Daudpur Kothi, Muzaffarpur - BSPCB",10-04-2026 09:00:00,26.1403345,85.3650192,CO,31,46,32
India,Bihar,Patna,"DRM Office Danapur, Patna - BSPCB",10-04-2026 09:00:00,25.586562,85.043586,PM2.5,22,335,129
India,Bihar,Patna,"DRM Office Danapur, Patna - BSPCB",10-04-2026 09:00:00,25.586562,85.043586,NH3,8,9,8
India,Bihar,Patna,"DRM Office Danapur, Patna - BSPCB",10-04-2026 09:00:00,25.586562,85.043586,CO,22,58,38
India,Bihar,Patna,"Govt. High School Shikarpur, Patna - BSPCB",10-04-2026 09:00:00,25.592539,85.227158,PM2.5,71,82,76
India,Bihar,Patna,"Govt. High School Shikarpur, Patna - BSPCB",10-04-2026 09:00:00,25.592539,85.227158,PM10,73,123,101
India,Bihar,Patna,"IGSC Planetarium Complex, Patna - BSPCB",10-04-2026 09:00:00,25.610369,85.132568,OZONE,59,60,59
India,Bihar,Patna,"Muradpur, Patna - BSPCB",10-04-2026 09:00:00,25.619651,85.147382,NH3,4,5,5
India,Chandigarh,Chandigarh,"Sector 22, Chandigarh - CPCC",10-04-2026 09:00:00,30.735567,76.775714,SO2,6,12,9
India,Chandigarh,Chandigarh,"Sector 22, Chandigarh - CPCC",10-04-2026 09:00:00,30.735567,76.775714,CO,NA,NA,NA
India,Chandigarh,Chandigarh,"Sector-25, Chandigarh - CPCC",10-04-2026 09:00:00,30.751462,76.762879,CO,8,16,11
India,Chandigarh,Chandigarh,"Sector-25, Chandigarh - CPCC",10-04-2026 09:00:00,30.751462,76.762879,OZONE,14,63,19
India,Chandigarh,Chandigarh,"Sector-53, Chandigarh - CPCC",10-04-2026 09:00:00,30.719859,76.738637,PM10,12,45,24
India,Chandigarh,Chandigarh,"Sector-53, Chandigarh - CPCC",10-04-2026 09:00:00,30.719859,76.738637,SO2,6,6,6
India,Chhattisgarh,Bhilai,"Hathkhoj, Bhilai - CECB",10-04-2026 09:00:00,21.224231,81.408350,PM2.5,13,127,40
India,Chhattisgarh,Chhal,"Nawapara SECL Colony, Chhal - CECB",10-04-2026 09:00:00,22.118125,83.140608,PM2.5,NA,NA,NA
India,Chhattisgarh,Korba,"Rampur, Korba - CECB",10-04-2026 09:00:00,22.368195,82.746431,NH3,1,1,1
India,Chhattisgarh,Korba,"Rampur, Korba - CECB",10-04-2026 09:00:00,22.368195,82.746431,SO2,15,93,42
India,Chhattisgarh,Korba,"Urja Nagar, Korba - CECB",10-04-2026 09:00:00,22.348441,82.549611,NH3,NA,NA,NA
India,Chhattisgarh,Korba,"Urja Nagar, Korba - CECB",10-04-2026 09:00:00,22.348441,82.549611,SO2,NA,NA,NA
India,Chhattisgarh,Kunjemura,"OP Jindal School, Kunjemura - CECB",10-04-2026 09:00:00,22.126650,83.483212,NO2,11,55,27
India,Chhattisgarh,Kunjemura,"OP Jindal School, Kunjemura - CECB",10-04-2026 09:00:00,22.126650,83.483212,NH3,2,2,2
India,Bihar,Saharsa,"Police Line, Saharsa - BSPCB",10-04-2026 09:00:00,25.892357,86.590325,NH3,4,4,4
India,Bihar,Samastipur,"DM Office_Kasipur, Samastipur - BSPCB",10-04-2026 09:00:00,25.859655,85.77944,SO2,NA,NA,NA
India,Bihar,Samastipur,"DM Office_Kasipur, Samastipur - BSPCB",10-04-2026 09:00:00,25.859655,85.77944,OZONE,7,10,8
India,Bihar,Sasaram,"Dada Peer, Sasaram - BSPCB",10-04-2026 09:00:00,24.952822,84.002396,PM2.5,10,38,23
India,Chhattisgarh,Raipur,"Bhatagaon New ISBT, Raipur - CECB",10-04-2026 09:00:00,21.219665,81.630094,SO2,5,32,11
India,Chhattisgarh,Raipur,"Bhatagaon New ISBT, Raipur - CECB",10-04-2026 09:00:00,21.219665,81.630094,CO,16,104,41
India,Chhattisgarh,Raipur,"Krishak Nagar, Raipur - CECB",10-04-2026 09:00:00,21.237755,81.705301,NH3,2,2,2
India,Chhattisgarh,Raipur,"Krishak Nagar, Raipur - CECB",10-04-2026 09:00:00,21.237755,81.705301,CO,14,27,22
India,Delhi,Delhi,"Alipur, Delhi - DPCC",10-04-2026 09:00:00,28.815329,77.153010,NH3,11,14,12
India,Delhi,Delhi,"Alipur, Delhi - DPCC",10-04-2026 09:00:00,28.815329,77.153010,CO,8,132,53
India,Delhi,Delhi,"Anand Vihar, Delhi - DPCC",10-04-2026 09:00:00,28.647622,77.3158090,PM10,109,427,189
India,Delhi,Delhi,"Anand Vihar, Delhi - DPCC",10-04-2026 09:00:00,28.647622,77.3158090,SO2,2,18,9
India,Bihar,Patna,"Rajbansi Nagar, Patna - BSPCB",10-04-2026 09:00:00,25.599486,85.113666,PM2.5,39,65,49
India,Bihar,Patna,"Samanpura, Patna - BSPCB",10-04-2026 09:00:00,25.596727,85.085624,CO,40,52,46
India,Bihar,Rajgir,"Dangi Tola, Rajgir - BSPCB",10-04-2026 09:00:00,25.03280,85.41948,PM10,33,67,47
India,Chhattisgarh,Milupara,"Govt. Higher Secondary School, Milupara - CECB",10-04-2026 09:00:00,22.1910172,83.5197009,OZONE,19,92,57
India,Chhattisgarh,Raipur,"AIIMS, Raipur - CECB",10-04-2026 09:00:00,21.258815,81.578979,PM10,NA,NA,NA
India,Bihar,Munger,"Town Hall, Munger - BSPCB",10-04-2026 09:00:00,25.376776,86.471523,SO2,58,113,87
India,Bihar,Munger,"Town Hall, Munger - BSPCB",10-04-2026 09:00:00,25.376776,86.471523,OZONE,9,10,10
India,Delhi,Delhi,"DTU, Delhi - CPCB",10-04-2026 09:00:00,28.7500499,77.1112615,CO,5,34,23
India,Delhi,Delhi,"Dwarka-Sector 8, Delhi - DPCC ",10-04-2026 09:00:00,28.5710274,77.0719006,PM2.5,30,392,162
India,Delhi,Delhi,"Dwarka-Sector 8, Delhi - DPCC ",10-04-2026 09:00:00,28.5710274,77.0719006,NO2,29,142,72
India,Delhi,Delhi,"IGI Airport (T3), Delhi - IMD",10-04-2026 09:00:00,28.5627763,77.1180053,PM2.5,29,298,104
India,Delhi,Delhi,"IGNOU_Maidan Garhi, Delhi - DPCC",10-04-2026 09:00:00,28.493624 ,77.201159 ,PM2.5,26,343,140
India,Delhi,Delhi,"IGNOU_Maidan Garhi, Delhi - DPCC",10-04-2026 09:00:00,28.493624 ,77.201159 ,OZONE,9,102,37
India,Delhi,Delhi,"IHBAS, Dilshad Garden, Delhi - CPCB",10-04-2026 09:00:00,28.6811736,77.3025234,PM10,85,160,113
India,Delhi,Delhi,"IHBAS, Dilshad Garden, Delhi - CPCB",10-04-2026 09:00:00,28.6811736,77.3025234,OZONE,2,63,6
India,Delhi,Delhi,"IIT Delhi, Delhi - IITM",10-04-2026 09:00:00,28.542460,77.191651,PM10,38,207,113
India,Delhi,Delhi,"Cantonment Area, Delhi - DPCC ",10-04-2026 09:00:00,28.594169 ,77.125100 ,PM2.5,11,32,21
India,Delhi,Delhi,"Cantonment Area, Delhi - DPCC ",10-04-2026 09:00:00,28.594169 ,77.125100 ,NH3,3,6,5
India,Delhi,Delhi,"Cantonment Area, Delhi - DPCC ",10-04-2026 09:00:00,28.594169 ,77.125100 ,CO,24,90,60
India,Delhi,Delhi,"Chandni Chowk, Delhi - IITM",10-04-2026 09:00:00,28.656756,77.227234,PM2.5,24,145,60
India,Delhi,Delhi,"Chandni Chowk, Delhi - IITM",10-04-2026 09:00:00,28.656756,77.227234,NH3,7,19,11
India,Delhi,Delhi,"Chandni Chowk, Delhi - IITM",10-04-2026 09:00:00,28.656756,77.227234,SO2,13,22,16
India,Delhi,Delhi,"Chandni Chowk, Delhi - IITM",10-04-2026 09:00:00,28.656756,77.227234,CO,NA,NA,NA
India,Delhi,Delhi,"Commonwealth Sports Complex, Delhi - DPCC",10-04-2026 09:00:00,28.615828 ,77.271992 ,PM10,67,257,131
India,Delhi,Delhi,"DTU, Delhi - CPCB",10-04-2026 09:00:00,28.7500499,77.1112615,PM2.5,27,343,144
India,Delhi,Delhi,"DTU, Delhi - CPCB",10-04-2026 09:00:00,28.7500499,77.1112615,PM10,55,232,121
India,Delhi,Delhi,"DTU, Delhi - CPCB",10-04-2026 09:00:00,28.7500499,77.1112615,NH3,5,13,8
India,Delhi,Delhi,"IIT Delhi, Delhi - IITM",10-04-2026 09:00:00,28.542460,77.191651,CO,66,109,91
India,Delhi,Delhi,"ITO, Delhi - CPCB",10-04-2026 09:00:00,28.628624,77.241060,NH3,3,7,5
India,Delhi,Delhi,"ITO, Delhi - CPCB",10-04-2026 09:00:00,28.628624,77.241060,CO,21,119,35
India,Delhi,Delhi,"Jahangirpuri, Delhi - DPCC",10-04-2026 09:00:00,28.732820,77.170633,PM10,97,238,161
India,Delhi,Delhi,"Jahangirpuri, Delhi - DPCC",10-04-2026 09:00:00,28.732820,77.170633,SO2,44,82,54
India,Delhi,Delhi,"Jawaharlal Nehru Stadium, Delhi - DPCC",10-04-2026 09:00:00,28.580280,77.233829,PM10,NA,NA,NA
India,Delhi,Delhi,"Jawaharlal Nehru Stadium, Delhi - DPCC",10-04-2026 09:00:00,28.580280,77.233829,NH3,NA,NA,NA
India,Delhi,Delhi,"Lodhi Road, Delhi - IMD",10-04-2026 09:00:00,28.5918245,77.2273074,PM10,71,160,105
India,Delhi,Delhi,"Lodhi Road, Delhi - IMD",10-04-2026 09:00:00,28.5918245,77.2273074,CO,12,52,33
India,Delhi,Delhi,"Lodhi Road, Delhi - IMD",10-04-2026 09:00:00,28.5918245,77.2273074,OZONE,22,145,40
India,Delhi,Delhi,"Major Dhyan Chand National Stadium, Delhi - DPCC",10-04-2026 09:00:00,28.611281,77.237738,NO2,25,141,72
India,Delhi,Delhi,"Mandir Marg, Delhi - DPCC",10-04-2026 09:00:00,28.636429,77.201067,PM10,NA,NA,NA
India,Delhi,Delhi,"Mandir Marg, Delhi - DPCC",10-04-2026 09:00:00,28.636429,77.201067,NO2,NA,NA,NA
India,Delhi,Delhi,"Mandir Marg, Delhi - DPCC",10-04-2026 09:00:00,28.636429,77.201067,NH3,NA,NA,NA
India,Delhi,Delhi,"Mandir Marg, Delhi - DPCC",10-04-2026 09:00:00,28.636429,77.201067,SO2,NA,NA,NA
India,Delhi,Delhi,"NSIT Dwarka, Delhi - CPCB",10-04-2026 09:00:00,28.60909,77.0325413,PM2.5,49,209,82
India,Delhi,Delhi,"NSIT Dwarka, Delhi - CPCB",10-04-2026 09:00:00,28.60909,77.0325413,NH3,1,11,6
India,Delhi,Delhi,"NSIT Dwarka, Delhi - CPCB",10-04-2026 09:00:00,28.60909,77.0325413,SO2,5,19,10
India,Delhi,Delhi,"North Campus, DU, Delhi - IMD",10-04-2026 09:00:00,28.6573814,77.1585447,OZONE,6,104,23
India,Delhi,Delhi,"Okhla Phase-2, Delhi - DPCC",10-04-2026 09:00:00,28.530785,77.271255,NO2,23,141,79
India,Delhi,Delhi,"Patparganj, Delhi - DPCC",10-04-2026 09:00:00,28.623763,77.287209,NH3,7,9,8
India,Delhi,Delhi,"Patparganj, Delhi - DPCC",10-04-2026 09:00:00,28.623763,77.287209,SO2,11,49,25
India,Delhi,Delhi,"Punjabi Bagh, Delhi - DPCC",10-04-2026 09:00:00,28.674045,77.131023,PM10,69,311,134
India,Delhi,Delhi,"Pusa, Delhi - DPCC",10-04-2026 09:00:00,28.639652,77.146275,NO2,65,145,88
India,Delhi,Delhi,"NSUT Jaffarpur, Delhi - DPCC",10-04-2026 09:00:00,28.594004 ,76.909423 ,OZONE,31,81,40
India,Delhi,Delhi,"Najafgarh, Delhi - DPCC",10-04-2026 09:00:00,28.570173,76.933762,PM2.5,13,332,143
India,Delhi,Delhi,"Najafgarh, Delhi - DPCC",10-04-2026 09:00:00,28.570173,76.933762,CO,16,105,43
India,Delhi,Delhi,"Narela, Delhi - DPCC",10-04-2026 09:00:00,28.822836,77.101981,SO2,5,33,16
India,Delhi,Delhi,"Narela, Delhi - DPCC",10-04-2026 09:00:00,28.822836,77.101981,CO,32,80,47
India,Delhi,Delhi,"Nehru Nagar, Delhi - DPCC",10-04-2026 09:00:00,28.567890,77.250515,SO2,6,22,13
India,Delhi,Delhi,"Nehru Nagar, Delhi - DPCC",10-04-2026 09:00:00,28.567890,77.250515,OZONE,1,60,16
India,Delhi,Delhi,"Sirifort, Delhi - CPCB",10-04-2026 09:00:00,28.5504249,77.2159377,PM10,88,323,173
India,Delhi,Delhi,"Sirifort, Delhi - CPCB",10-04-2026 09:00:00,28.5504249,77.2159377,SO2,21,33,27
India,Delhi,Delhi,"Sonia Vihar, Delhi - DPCC",10-04-2026 09:00:00,28.710508,77.249485,SO2,26,60,39
India,Delhi,Delhi,"Sri Aurobindo Marg, Delhi - DPCC",10-04-2026 09:00:00,28.531346,77.190156,PM10,52,191,95
India,Delhi,Delhi,"Vivek Vihar, Delhi - DPCC",10-04-2026 09:00:00,28.672342,77.315260,NO2,32,104,55
India,Delhi,Delhi,"R K Puram, Delhi - DPCC",10-04-2026 09:00:00,28.563262,77.186937,PM2.5,38,356,140
India,Delhi,Delhi,"R K Puram, Delhi - DPCC",10-04-2026 09:00:00,28.563262,77.186937,OZONE,7,80,13
India,Delhi,Delhi,"Rohini, Delhi - DPCC",10-04-2026 09:00:00,28.732528,77.119920,NO2,10,92,33
India,Gujarat,Ahmedabad,"Chandkheda, Ahmedabad - IITM",10-04-2026 09:00:00,23.107969,72.574648,SO2,4,74,16
India,Gujarat,Ahmedabad,"Gyaspur, Ahmedabad - IITM",10-04-2026 09:00:00,22.977134,72.553024,NO2,56,150,96
India,Haryana,Gurugram,"Vikas Sadan, Gurugram - HSPCB",10-04-2026 09:00:00,28.4501238,77.0263051,PM2.5,NA,NA,NA
India,Haryana,Gurugram,"Vikas Sadan, Gurugram - HSPCB",10-04-2026 09:00:00,28.4501238,77.0263051,PM10,NA,NA,NA
India,Haryana,Gurugram,"Vikas Sadan, Gurugram - HSPCB",10-04-2026 09:00:00,28.4501238,77.0263051,NO2,NA,NA,NA
India,Haryana,Gurugram,"Vikas Sadan, Gurugram - HSPCB",10-04-2026 09:00:00,28.4501238,77.0263051,CO,80,104,100
India,Haryana,Gurugram,"Vikas Sadan, Gurugram - HSPCB",10-04-2026 09:00:00,28.4501238,77.0263051,OZONE,19,31,20
India,Haryana,Hisar,"Urban Estate-II, Hisar - HSPCB",10-04-2026 09:00:00,29.140560,75.744941,PM10,63,111,87
India,Haryana,Jind,"Police Lines, Jind - HSPCB",10-04-2026 09:00:00,29.307814,76.337619,NH3,4,6,5
India,Haryana,Jind,"Police Lines, Jind - HSPCB",10-04-2026 09:00:00,29.307814,76.337619,SO2,1,1,1
India,Haryana,Jind,"Police Lines, Jind - HSPCB",10-04-2026 09:00:00,29.307814,76.337619,OZONE,35,76,42
India,Haryana,Kaithal,"Rishi Nagar, Kaithal - HSPCB",10-04-2026 09:00:00,29.8006,76.4155,PM10,51,69,58
India,Haryana,Kaithal,"Rishi Nagar, Kaithal - HSPCB",10-04-2026 09:00:00,29.8006,76.4155,NH3,5,6,6
India,Haryana,Kaithal,"Rishi Nagar, Kaithal - HSPCB",10-04-2026 09:00:00,29.8006,76.4155,SO2,39,47,42
India,Haryana,Kurukshetra,"Sector-7, Kurukshetra - HSPCB",10-04-2026 09:00:00,29.966942,76.875879,PM2.5,17,109,83
India,Gujarat,Mehsana,"Sadanand Nagar, Mehsana - Nexteng Enviro",10-04-2026 09:00:00,23.593150,72.372792,PM10,59,147,111
India,Gujarat,Nandesari,"GIDC, Nandesari - Nandesari Ind. Association",10-04-2026 09:00:00,22.410802,73.097923,PM10,73,152,106
India,Gujarat,Nandesari,"GIDC, Nandesari - Nandesari Ind. Association",10-04-2026 09:00:00,22.410802,73.097923,SO2,3,36,7
India,Gujarat,Rajkot,"Mavdi, Rajkot - Nexteng Enviro ",10-04-2026 09:00:00,22.248853,70.776774,PM10,112,223,149
India,Gujarat,Surat,"Katargam, Surat - Nexteng Enviro",10-04-2026 09:00:00,21.217779 ,72.834787 ,CO,32,46,37
India,Gujarat,Surat,"Katargam, Surat - Nexteng Enviro",10-04-2026 09:00:00,21.217779 ,72.834787 ,OZONE,11,12,11
India,Gujarat,Surat,"Science Center, Surat - SMC",10-04-2026 09:00:00,21.170046,72.795405,SO2,17,22,19
India,Gujarat,Vadodara,"Bapunagar, Vadodara - Nexteng Enviro",10-04-2026 09:00:00,22.320153,73.216285,NO2,10,17,13
India,Gujarat,Ahmedabad,"Maninagar, Ahmedabad - GPCB",10-04-2026 09:00:00,23.002657,72.591912,NO2,81,90,85
India,Gujarat,Ahmedabad,"Raikhad, Ahmedabad - IITM",10-04-2026 09:00:00,23.020509,72.579261,PM2.5,50,191,104
India,Gujarat,Ahmedabad,"Raikhad, Ahmedabad - IITM",10-04-2026 09:00:00,23.020509,72.579261,CO,1,71,3
India,Gujarat,Ahmedabad,"Rakhial, Ahmedabad - IITM",10-04-2026 09:00:00,23.016834,72.625775,NO2,7,121,25
India,Gujarat,Ahmedabad,"Rakhial, Ahmedabad - IITM",10-04-2026 09:00:00,23.016834,72.625775,OZONE,1,52,14
India,Gujarat,Ahmedabad,"SAC ISRO Bopal, Ahmedabad - IITM",10-04-2026 09:00:00,23.041137,72.456691,SO2,5,42,15
India,Gujarat,Ahmedabad,"SAC ISRO Bopal, Ahmedabad - IITM",10-04-2026 09:00:00,23.041137,72.456691,CO,2,38,14
India,Gujarat,Ahmedabad,"SAC ISRO Satellite, Ahmedabad - IITM",10-04-2026 09:00:00,23.023389,72.515201,NH3,1,9,4
India,Gujarat,Ahmedabad,"SVPI Airport Hansol, Ahmedabad - IITM",10-04-2026 09:00:00,23.076793,72.627874,NH3,1,4,2
India,Haryana,Faridabad,"Sector 30, Faridabad - HSPCB",10-04-2026 09:00:00,28.4417,77.3217,PM2.5,51,381,84
India,Haryana,Faridabad,"Sector 30, Faridabad - HSPCB",10-04-2026 09:00:00,28.4417,77.3217,NH3,11,12,11
India,Haryana,Fatehabad,"Huda Sector, Fatehabad - HSPCB",10-04-2026 09:00:00,29.503664,75.467934,NO2,18,21,19
India,Haryana,Fatehabad,"Huda Sector, Fatehabad - HSPCB",10-04-2026 09:00:00,29.503664,75.467934,CO,25,35,27
India,Haryana,Gurugram,"NISE Gwal Pahari, Gurugram - IMD",10-04-2026 09:00:00,28.422681,77.148944,PM10,29,304,133
India,Haryana,Gurugram,"Sector-51, Gurugram - HSPCB",10-04-2026 09:00:00,28.4227,77.0667,NH3,6,10,8
India,Haryana,Gurugram,"Teri Gram, Gurugram - HSPCB",10-04-2026 09:00:00,28.4275,77.1465,NO2,36,78,54
India,Haryana,Panipat,"Sector-18, Panipat - HSPCB",10-04-2026 09:00:00,29.432304,76.972765,PM2.5,22,50,32
India,Haryana,Panipat,"Sector-18, Panipat - HSPCB",10-04-2026 09:00:00,29.432304,76.972765,PM10,67,147,103
India,Haryana,Panipat,"Sector-18, Panipat - HSPCB",10-04-2026 09:00:00,29.432304,76.972765,SO2,11,11,11
India,Haryana,Rohtak,"MD University, Rohtak - HSPCB",10-04-2026 09:00:00,28.52123,76.37138,SO2,10,14,12
India,Haryana,Sirsa,"F-Block, Sirsa - HSPCB",10-04-2026 09:00:00,29.536400,75.015800,NH3,12,14,13
India,Haryana,Sonipat,"Murthal, Sonipat - HSPCB",10-04-2026 09:00:00,29.027200,77.062100,PM10,107,199,154
India,Haryana,Sonipat,"Murthal, Sonipat - HSPCB",10-04-2026 09:00:00,29.027200,77.062100,NO2,12,13,13
India,Haryana,Sonipat,"Murthal, Sonipat - HSPCB",10-04-2026 09:00:00,29.027200,77.062100,OZONE,25,26,26
India,Haryana,Kurukshetra,"Sector-7, Kurukshetra - HSPCB",10-04-2026 09:00:00,29.966942,76.875879,NO2,2,6,4
India,Haryana,Manesar,"Sector-2 IMT, Manesar - HSPCB",10-04-2026 09:00:00,28.360699,76.936090,SO2,1,104,10
India,Haryana,Narnaul,"Shastri Nagar, Narnaul - HSPCB",10-04-2026 09:00:00,28.060249,76.113115,PM10,36,118,69
India,Haryana,Narnaul,"Shastri Nagar, Narnaul - HSPCB",10-04-2026 09:00:00,28.060249,76.113115,NH3,4,6,5
India,Haryana,Narnaul,"Shastri Nagar, Narnaul - HSPCB",10-04-2026 09:00:00,28.060249,76.113115,OZONE,16,34,20
India,Haryana,Palwal,"Shyam Nagar, Palwal - HSPCB",10-04-2026 09:00:00,28.1485564,77.3320667,CO,28,28,28
India,Haryana,Bhiwani,"H.B. Colony, Bhiwani - HSPCB",10-04-2026 09:00:00,28.806223,76.141105,PM10,23,55,29
India,Haryana,Bhiwani,"H.B. Colony, Bhiwani - HSPCB",10-04-2026 09:00:00,28.806223,76.141105,NO2,2,20,8
India,Haryana,Bhiwani,"H.B. Colony, Bhiwani - HSPCB",10-04-2026 09:00:00,28.806223,76.141105,SO2,1,15,6
India,Haryana,Charkhi Dadri,"Mini Secretariat, Charkhi Dadri - HSPCB",10-04-2026 09:00:00,28.593883,76.270653,PM2.5,55,226,129
India,Haryana,Faridabad,"New Industrial Town, Faridabad - HSPCB",10-04-2026 09:00:00,28.39072,77.30059,NH3,11,12,11
India,Gujarat,Vatva,"Phase-4 GIDC, Vatva - GPCB",10-04-2026 09:00:00,22.969611,72.643500,NO2,24,60,47
India,Haryana,Ambala,"Patti Mehar, Ambala - HSPCB",10-04-2026 09:00:00,30.379589,76.778328,CO,22,47,22
India,Haryana,Ballabgarh,"Nathu Colony, Ballabgarh - HSPCB",10-04-2026 09:00:00,28.3419248,77.319699,PM2.5,NA,NA,NA
India,Gujarat,Ankleshwar,"GIDC, Ankleshwar - GPCB",10-04-2026 09:00:00,21.613267,73.010555,NH3,4,6,5
India,Gujarat,Bhavnagar,"Vidhyanagar, Bhavnagar - Nexteng Enviro",10-04-2026 09:00:00,21.755417,72.139056,NO2,60,70,64
India,Gujarat,Bhavnagar,"Vidhyanagar, Bhavnagar - Nexteng Enviro",10-04-2026 09:00:00,21.755417,72.139056,SO2,6,8,7
India,Himachal Pradesh,Baddi,"HIMUDA Complex Phase-1, Baddi - HPPCB",10-04-2026 09:00:00,30.943887,76.801991,OZONE,31,138,49
India,Jammu_and_Kashmir,Srinagar,"Rajbagh, Srinagar - JKPCC",10-04-2026 09:00:00,34.066206,74.819820,SO2,3,4,3
India,Jharkhand,Dhanbad,"Sardar Patel Nagar, Dhanbad - JSPCB",10-04-2026 09:00:00,23.80569,86.44268,PM2.5,NA,NA,NA
India,Jharkhand,Jorapokhar,"Tata Stadium, Jorapokhar - JSPCB",10-04-2026 09:00:00,23.707909,86.414670,NO2,8,8,8
India,Jharkhand,Jorapokhar,"Tata Stadium, Jorapokhar - JSPCB",10-04-2026 09:00:00,23.707909,86.414670,NH3,3,3,3
India,Jharkhand,Jorapokhar,"Tata Stadium, Jorapokhar - JSPCB",10-04-2026 09:00:00,23.707909,86.414670,SO2,4,4,4
India,Jharkhand,Jorapokhar,"Tata Stadium, Jorapokhar - JSPCB",10-04-2026 09:00:00,23.707909,86.414670,CO,38,40,39
India,Jharkhand,Jorapokhar,"Tata Stadium, Jorapokhar - JSPCB",10-04-2026 09:00:00,23.707909,86.414670,OZONE,1,10,2
India,Karnataka,Bagalkot,"Vidayagiri, Bagalkot - KSPCB",10-04-2026 09:00:00,16.172806,75.659694,PM2.5,17,36,34
India,Karnataka,Koppal,"Diwator Nagar, Koppal - KSPCB",10-04-2026 09:00:00,15.347630,76.181767,NH3,NA,NA,NA
India,Karnataka,Madikeri,"Stuart Hill, Madikeri - KSPCB",10-04-2026 09:00:00,12.415911,75.735050,PM10,6,47,29
India,Karnataka,Mysuru,"Hebbal 1st Stage, Mysuru - KSPCB",10-04-2026 09:00:00,12.21041,76.37376,CO,5,44,22
India,Karnataka,Ramanagara,"Vijay Nagar, Ramanagara - KSPCB",10-04-2026 09:00:00,12.733409,77.298051,PM10,24,112,61
India,Karnataka,Shivamogga,"Vinoba Nagara, Shivamogga - KSPCB",10-04-2026 09:00:00,13.940000,75.555917,NH3,2,2,2
India,Karnataka,Shivamogga,"Vinoba Nagara, Shivamogga - KSPCB",10-04-2026 09:00:00,13.940000,75.555917,CO,24,32,31
India,Karnataka,Shivamogga,"Vinoba Nagara, Shivamogga - KSPCB",10-04-2026 09:00:00,13.940000,75.555917,OZONE,14,49,17
India,Karnataka,Tumakuru,"Thimmalapura, Tumakuru - KSPCB",10-04-2026 09:00:00,13.377516,77.099072,PM10,NA,NA,NA
India,Karnataka,Tumakuru,"Thimmalapura, Tumakuru - KSPCB",10-04-2026 09:00:00,13.377516,77.099072,NO2,24,24,24
India,Kerala,Thiruvananthapuram,"Kariavattom, Thiruvananthapuram - Kerala PCB",10-04-2026 09:00:00,8.563700,76.886500,PM2.5,12,28,21
India,Kerala,Thiruvananthapuram,"Kariavattom, Thiruvananthapuram - Kerala PCB",10-04-2026 09:00:00,8.563700,76.886500,SO2,1,15,8
India,Kerala,Thiruvananthapuram,"Plammoodu, Thiruvananthapuram - Kerala PCB",10-04-2026 09:00:00,8.5149093,76.9435879,SO2,6,22,15
India,Kerala,Thrissur,"Corporation Ground, Thrissur - Kerala PCB",10-04-2026 09:00:00,10.532400,76.215900,PM2.5,43,56,50
India,Madhya Pradesh,Bhopal,"Idgah Hills, Bhopal - MPPCB",10-04-2026 09:00:00,23.264759,77.381568,NH3,4,12,9
India,Madhya Pradesh,Bhopal,"Paryavaran Parisar, Bhopal - MPPCB",10-04-2026 09:00:00,23.210494,77.425409,PM10,73,153,108
India,Madhya Pradesh,Bhopal,"Paryavaran Parisar, Bhopal - MPPCB",10-04-2026 09:00:00,23.210494,77.425409,NO2,20,70,36
India,Karnataka,Bengaluru,"BTM Layout, Bengaluru - CPCB",10-04-2026 09:00:00,12.9135218,77.5950804,PM2.5,32,49,39
India,Karnataka,Bengaluru,"BTM Layout, Bengaluru - CPCB",10-04-2026 09:00:00,12.9135218,77.5950804,PM10,88,89,88
India,Karnataka,Bengaluru,"BTM Layout, Bengaluru - CPCB",10-04-2026 09:00:00,12.9135218,77.5950804,SO2,18,18,18
India,Karnataka,Bengaluru,"BWSSB Kadabesanahalli, Bengaluru - CPCB",10-04-2026 09:00:00,12.9352049,77.6814488,PM2.5,4,47,27
India,Karnataka,Bengaluru,"Bapuji Nagar, Bengaluru - KSPCB",10-04-2026 09:00:00,12.951913,77.539784,PM10,67,162,104
India,Karnataka,Bengaluru,"Bapuji Nagar, Bengaluru - KSPCB",10-04-2026 09:00:00,12.951913,77.539784,NH3,1,3,3
India,Karnataka,Bengaluru,"City Railway Station, Bengaluru - KSPCB",10-04-2026 09:00:00,12.9756843,77.5660749,NO2,NA,NA,NA
India,Karnataka,Bengaluru,"City Railway Station, Bengaluru - KSPCB",10-04-2026 09:00:00,12.9756843,77.5660749,SO2,NA,NA,NA
India,Karnataka,Bengaluru,"City Railway Station, Bengaluru - KSPCB",10-04-2026 09:00:00,12.9756843,77.5660749,CO,58,64,61
India,Karnataka,Chikkaballapur,"Chikkaballapur Rural, Chikkaballapur - KSPCB",10-04-2026 09:00:00,13.428828,77.731418,NO2,2,14,5
India,Karnataka,Chikkaballapur,"Chikkaballapur Rural, Chikkaballapur - KSPCB",10-04-2026 09:00:00,13.428828,77.731418,SO2,1,12,6
India,Karnataka,Chikkamagaluru,"Kalyana Nagara, Chikkamagaluru - KSPCB",10-04-2026 09:00:00,13.328028,75.797056,NO2,24,25,24
India,Karnataka,Hubballi,"Lingaraj Nagar, Hubballi - KSPCB",10-04-2026 09:00:00,15.3714823,75.1160168,NO2,7,9,7
India,Karnataka,Hubballi,"Lingaraj Nagar, Hubballi - KSPCB",10-04-2026 09:00:00,15.3714823,75.1160168,SO2,1,2,1
India,Karnataka,Hubballi,"Lingaraj Nagar, Hubballi - KSPCB",10-04-2026 09:00:00,15.3714823,75.1160168,OZONE,23,27,26
India,Karnataka,Kalaburagi,"Mahatma Basaveswar Colony, Kalaburgi - KSPCB",10-04-2026 09:00:00,17.336318,76.847397,CO,38,54,40
India,Karnataka,Kalaburagi,"Mahatma Basaveswar Colony, Kalaburgi - KSPCB",10-04-2026 09:00:00,17.336318,76.847397,OZONE,14,23,14
India,Karnataka,Bengaluru,"Hombegowda Nagar, Bengaluru - KSPCB",10-04-2026 09:00:00,12.938539,77.590100,CO,6,54,12
India,Karnataka,Bengaluru,"Jayanagar 5th Block, Bengaluru - KSPCB",10-04-2026 09:00:00,12.920984,77.584908,NO2,5,35,12
India,Karnataka,Bengaluru,"Jayanagar 5th Block, Bengaluru - KSPCB",10-04-2026 09:00:00,12.920984,77.584908,CO,3,101,12
India,Karnataka,Bengaluru,"Jigani, Bengaluru - KSPCB",10-04-2026 09:00:00,12.7816279,77.6299145,PM10,43,122,84
India,Karnataka,Bengaluru,"Jigani, Bengaluru - KSPCB",10-04-2026 09:00:00,12.7816279,77.6299145,NO2,22,24,23
India,Karnataka,Bengaluru,"Jigani, Bengaluru - KSPCB",10-04-2026 09:00:00,12.7816279,77.6299145,NH3,4,4,4
India,Karnataka,Bengaluru,"Peenya, Bengaluru - CPCB",10-04-2026 09:00:00,13.0270199,77.494094,PM10,47,50,48
India,Karnataka,Bengaluru,"Peenya, Bengaluru - CPCB",10-04-2026 09:00:00,13.0270199,77.494094,NO2,19,31,25
India,Karnataka,Bengaluru,"Peenya, Bengaluru - CPCB",10-04-2026 09:00:00,13.0270199,77.494094,OZONE,27,28,28
India,Karnataka,Tumakuru,"Thimmalapura, Tumakuru - KSPCB",10-04-2026 09:00:00,13.377516,77.099072,SO2,11,19,13
India,Karnataka,Vijayapura,"Ibrahimpur, Vijayapura - KSPCB",10-04-2026 09:00:00,16.802639,75.722694,PM2.5,30,31,30
India,Karnataka,Vijayapura,"Ibrahimpur, Vijayapura - KSPCB",10-04-2026 09:00:00,16.802639,75.722694,NO2,11,12,11
India,Karnataka,Vijayapura,"Ibrahimpur, Vijayapura - KSPCB",10-04-2026 09:00:00,16.802639,75.722694,SO2,3,6,3
India,Kerala,Kannur,"Thavakkara, Kannur - Kerala PCB",10-04-2026 09:00:00,11.875000,75.373200,CO,15,18,16
India,Karnataka,Bengaluru,"Shivapura_Peenya, Bengaluru - KSPCB",10-04-2026 09:00:00,13.0246342,77.5080115,PM10,30,30,30
India,Karnataka,Bengaluru,"Shivapura_Peenya, Bengaluru - KSPCB",10-04-2026 09:00:00,13.0246342,77.5080115,SO2,3,22,5
India,Karnataka,Bengaluru,"Silk Board, Bengaluru - KSPCB",10-04-2026 09:00:00,12.917348,77.622813,PM2.5,40,178,76
India,Karnataka,Bengaluru,"Silk Board, Bengaluru - KSPCB",10-04-2026 09:00:00,12.917348,77.622813,NO2,6,50,18
India,Karnataka,Bengaluru,"Hombegowda Nagar, Bengaluru - KSPCB",10-04-2026 09:00:00,12.938539,77.590100,PM10,50,138,82
India,Madhya Pradesh,Jabalpur,"Govindh Bhavan Colony, Jabalpur - JMC",10-04-2026 09:00:00,23.163174,79.973061,OZONE,3,112,6
India,Madhya Pradesh,Jabalpur,"Gupteshwar, Jabalpur - JMC",10-04-2026 09:00:00,23.142888,79.916147,NH3,2,2,2
India,Madhya Pradesh,Jabalpur,"Gupteshwar, Jabalpur - JMC",10-04-2026 09:00:00,23.142888,79.916147,SO2,15,26,19
India,Madhya Pradesh,Jabalpur,"Marhatal, Jabalpur - MPPCB",10-04-2026 09:00:00,23.168606,79.932247,NH3,1,2,2
India,Madhya Pradesh,Jabalpur,"Suhagi, Jabalpur - JMC",10-04-2026 09:00:00,23.218135,79.957770,PM2.5,23,245,85
India,Madhya Pradesh,Jabalpur,"Suhagi, Jabalpur - JMC",10-04-2026 09:00:00,23.218135,79.957770,OZONE,1,71,13
India,Madhya Pradesh,Katni,"Gole Bazar, Katni - MPPCB",10-04-2026 09:00:00,23.50016,80.23284,PM10,74,223,106
India,Madhya Pradesh,Katni,"Gole Bazar, Katni - MPPCB",10-04-2026 09:00:00,23.50016,80.23284,NH3,3,11,6
India,Madhya Pradesh,Katni,"Gole Bazar, Katni - MPPCB",10-04-2026 09:00:00,23.50016,80.23284,OZONE,19,123,46
India,Madhya Pradesh,Mandideep,"Sector-D Industrial Area, Mandideep - MPPCB",10-04-2026 09:00:00,23.108440,77.511428,SO2,NA,NA,NA
India,Maharashtra,Aurangabad,"More Chowk Waluj, Aurangabad - MPCB",10-04-2026 09:00:00,19.8389439,75.244448,NO2,12,26,19
India,Maharashtra,Aurangabad,"Rachnakar Colony, Aurangabad - MPCB",10-04-2026 09:00:00,19.863756,75.321188,PM2.5,54,193,87
India,Maharashtra,Aurangabad,"Rachnakar Colony, Aurangabad - MPCB",10-04-2026 09:00:00,19.863756,75.321188,SO2,7,39,24
India,Maharashtra,Badlapur,"Katrap, Badlapur - MPCB",10-04-2026 09:00:00,19.16485,73.23409,NO2,14,33,23
India,Maharashtra,Badlapur,"Katrap, Badlapur - MPCB",10-04-2026 09:00:00,19.16485,73.23409,CO,24,54,46
India,Maharashtra,Beed,"Bir, Beed - MPCB",10-04-2026 09:00:00,18.988474,75.753873,SO2,1,23,7
India,Maharashtra,Beed,"Bir, Beed - MPCB",10-04-2026 09:00:00,18.988474,75.753873,CO,12,76,29
India,Maharashtra,Belapur,"CBD Belapur, Belapur - MPCB",10-04-2026 09:00:00,19.0243902,73.0406721,NH3,1,8,5
India,Maharashtra,Belapur,"CBD Belapur, Belapur - MPCB",10-04-2026 09:00:00,19.0243902,73.0406721,SO2,4,78,33
India,Maharashtra,Belapur,"CBD Belapur, Belapur - MPCB",10-04-2026 09:00:00,19.0243902,73.0406721,CO,32,52,41
India,Madhya Pradesh,Pithampur,"Sector-2 Industrial Area, Pithampur - MPPCB",10-04-2026 09:00:00,22.624758,75.675238,PM2.5,56,393,203
India,Madhya Pradesh,Sagar,"Civil Lines, Sagar - MPPCB",10-04-2026 09:00:00,23.838586,78.759431,PM10,61,119,87
India,Madhya Pradesh,Sagar,"Civil Lines, Sagar - MPPCB",10-04-2026 09:00:00,23.838586,78.759431,NO2,3,19,10
India,Madhya Pradesh,Sagar,"Deen Dayal Nagar, Sagar - MPPCB",10-04-2026 09:00:00,23.8640158,78.80289321,PM2.5,2,49,33
India,Madhya Pradesh,Satna,"Bandhavgar Colony, Satna - Birla Cement",10-04-2026 09:00:00,24.58434363,80.8549414,NO2,12,13,12
India,Madhya Pradesh,Singrauli,"Suryakiran Bhawan NCL, Singrauli - MPPCB",10-04-2026 09:00:00,24.108970,82.645580,NO2,14,20,15
India,Madhya Pradesh,Gwalior,"Maharaj Bada, Gwalior - MPPCB",10-04-2026 09:00:00,26.200388,78.147714,NH3,4,6,5
India,Madhya Pradesh,Indore,"Airport Area, Indore - IMC",10-04-2026 09:00:00,22.7289,75.8076,NO2,14,32,26
India,Madhya Pradesh,Indore,"Chhoti Gwaltoli, Indore - MPPCB",10-04-2026 09:00:00,22.4310,75.5213,PM2.5,44,330,132
India,Madhya Pradesh,Indore,"Chhoti Gwaltoli, Indore - MPPCB",10-04-2026 09:00:00,22.4310,75.5213,NH3,16,24,21
India,Madhya Pradesh,Indore,"Maguda Nagar, Indore - IMC",10-04-2026 09:00:00,22.7524,75.8872,PM2.5,17,260,94
India,Madhya Pradesh,Indore,"Maguda Nagar, Indore - IMC",10-04-2026 09:00:00,22.7524,75.8872,NO2,2,12,10
India,Madhya Pradesh,Indore,"Regional Park, Indore - IMC",10-04-2026 09:00:00,22.6780,75.8559,NO2,14,23,20
India,Madhya Pradesh,Ujjain,"Mahashweta Nagar, Ujjain - MPPCB",10-04-2026 09:00:00,23.1633321,75.800225,NO2,NA,NA,NA
India,Madhya Pradesh,Ujjain,"Mahashweta Nagar, Ujjain - MPPCB",10-04-2026 09:00:00,23.1633321,75.800225,NH3,NA,NA,NA
India,Maharashtra,Ahmednagar,"Tarakpur, Ahmednagar - MPCB",10-04-2026 09:00:00,19.10122,74.73339,PM2.5,38,441,71
India,Maharashtra,Ambernath,"Chinchpada, Ambernath - MPCB",10-04-2026 09:00:00,19.2157840,73.1997810,PM2.5,20,98,48
India,Maharashtra,Ambernath,"Chinchpada, Ambernath - MPCB",10-04-2026 09:00:00,19.2157840,73.1997810,SO2,4,43,14
India,Maharashtra,Amravati,"Shivneri Colony, Amravati - MPCB",10-04-2026 09:00:00,20.9402359,77.7895248,NH3,1,1,1
India,Maharashtra,Chandrapur,"Chauhan Colony, Chandrapur - MPCB",10-04-2026 09:00:00,19.962900,79.298714,PM10,108,274,154
India,Maharashtra,Chandrapur,"Chauhan Colony, Chandrapur - MPCB",10-04-2026 09:00:00,19.962900,79.298714,CO,26,42,28
India,Maharashtra,Chandrapur,"MIDC Khutala, Chandrapur - MPCB",10-04-2026 09:00:00,19.9775302,79.2337086,NO2,5,17,12
India,Maharashtra,Dhule,"Deopur, Dhule - MPCB",10-04-2026 09:00:00,20.918946,74.776388,OZONE,20,66,21
India,Maharashtra,Dombivli,"Kalu Nagar, Dombivli - MPCB",10-04-2026 09:00:00,19.2268427 ,73.0788456 ,SO2,4,62,12
India,Maharashtra,Dombivli,"Kalu Nagar, Dombivli - MPCB",10-04-2026 09:00:00,19.2268427 ,73.0788456 ,CO,6,68,42
India,Madhya Pradesh,Dewas,"Bhopal Chauraha, Dewas - MPPCB",10-04-2026 09:00:00,22.9682591,76.064118,PM10,114,223,139
India,Madhya Pradesh,Dewas,"Bhopal Chauraha, Dewas - MPPCB",10-04-2026 09:00:00,22.9682591,76.064118,NO2,45,125,86
India,Madhya Pradesh,Gwalior,"Deen Dayal Nagar, Gwalior - MPPCB",10-04-2026 09:00:00,26.259242,78.216432,CO,38,77,66
India,Madhya Pradesh,Gwalior,"Maharaj Bada, Gwalior - MPPCB",10-04-2026 09:00:00,26.200388,78.147714,PM10,86,215,126
India,Maharashtra,Amravati,"Shri Shivaji Science College, Amravati - MPCB",10-04-2026 09:00:00,20.939198,77.765701,NH3,2,5,3
India,Maharashtra,Aurangabad,"MIDC Chilkalthana, Aurangabad - MPCB",10-04-2026 09:00:00,19.875620,75.387310,NH3,4,6,5
India,Maharashtra,Hingoli,"Ashta Vinayak Nagar, Hingoli - MPCB",10-04-2026 09:00:00,19.710842,77.151824,PM2.5,19,91,49
India,Maharashtra,Jalgaon,"Prabhat Colony, Jalgaon - MPCB",10-04-2026 09:00:00,21.001264,75.565602,PM10,64,130,96
India,Maharashtra,Jalgaon,"Prabhat Colony, Jalgaon - MPCB",10-04-2026 09:00:00,21.001264,75.565602,NO2,4,21,9
India,Maharashtra,Jalgaon,"Prabhat Colony, Jalgaon - MPCB",10-04-2026 09:00:00,21.001264,75.565602,OZONE,32,76,53
India,Maharashtra,Kalyan,"Pimpleshwar Mandir, Kalyan - MPCB",10-04-2026 09:00:00,19.192056,72.9585188,PM2.5,12,102,47
India,Maharashtra,Kalyan,"Pimpleshwar Mandir, Kalyan - MPCB",10-04-2026 09:00:00,19.192056,72.9585188,PM10,75,187,113
India,Maharashtra,Kalyan,"Pimpleshwar Mandir, Kalyan - MPCB",10-04-2026 09:00:00,19.192056,72.9585188,NH3,3,5,4
India,Maharashtra,Kalyan,"Pimpleshwar Mandir, Kalyan - MPCB",10-04-2026 09:00:00,19.192056,72.9585188,SO2,8,18,12
India,Maharashtra,Kalyan,"Pimpleshwar Mandir, Kalyan - MPCB",10-04-2026 09:00:00,19.192056,72.9585188,CO,21,21,21
India,Maharashtra,Kolhapur,"Shivaji University, Kolhapur - MPCB",10-04-2026 09:00:00,16.6870449,74.2505872,PM10,72,102,88
India,Maharashtra,Kolhapur,"Shivaji University, Kolhapur - MPCB",10-04-2026 09:00:00,16.6870449,74.2505872,NO2,25,67,37
India,Maharashtra,Kolhapur,"Shivaji University, Kolhapur - MPCB",10-04-2026 09:00:00,16.6870449,74.2505872,NH3,3,4,3
India,Maharashtra,Kolhapur,"Sinchan Bhavan, Kolhapur - MPCB",10-04-2026 09:00:00,16.7143745,74.2426398,PM2.5,18,89,64
India,Maharashtra,Kolhapur,"Sinchan Bhavan, Kolhapur - MPCB",10-04-2026 09:00:00,16.7143745,74.2426398,SO2,1,4,2
India,Maharashtra,Latur,"Sawe Wadi, Latur - MPCB",10-04-2026 09:00:00,18.39963,76.57452,NO2,8,24,14
India,Maharashtra,Mahad,"Kamble Tarf Birwadi, Mahad - MPCB",10-04-2026 09:00:00,18.1023399,73.4783687,PM10,41,168,97
India,Maharashtra,Mahad,"Kamble Tarf Birwadi, Mahad - MPCB",10-04-2026 09:00:00,18.1023399,73.4783687,SO2,17,65,31
India,Maharashtra,Malegaon,"Mahesh Nagar, Malegaon - MPCB",10-04-2026 09:00:00,20.555712,74.529236,NH3,1,2,1
India,Maharashtra,Malegaon,"Mahesh Nagar, Malegaon - MPCB",10-04-2026 09:00:00,20.555712,74.529236,SO2,8,15,11
India,Maharashtra,Mira-Bhayandar,"Bhayandar West, Mira-Bhayandar - MPCB",10-04-2026 09:00:00,19.296481,72.840923,PM2.5,NA,NA,NA
India,Maharashtra,Mira-Bhayandar,"Bhayandar West, Mira-Bhayandar - MPCB",10-04-2026 09:00:00,19.296481,72.840923,CO,22,50,38
India,Maharashtra,Nashik,"Hirawadi, Nashik - MPCB",10-04-2026 09:00:00,20.021503,73.813844,PM2.5,49,132,82
India,Maharashtra,Nashik,"Hirawadi, Nashik - MPCB",10-04-2026 09:00:00,20.021503,73.813844,PM10,103,180,139
India,Maharashtra,Nashik,"MIDC Ambad, Nashik - MPCB",10-04-2026 09:00:00,19.950220,73.731480,NH3,2,3,2
India,Maharashtra,Nashik,"MIDC Ambad, Nashik - MPCB",10-04-2026 09:00:00,19.950220,73.731480,SO2,1,13,5
India,Maharashtra,Nashik,"Pandav Nagari, Nashik - MPCB",10-04-2026 09:00:00,19.9591346,73.7788008,PM10,73,125,111
India,Maharashtra,Nashik,"Pandav Nagari, Nashik - MPCB",10-04-2026 09:00:00,19.9591346,73.7788008,NO2,10,26,14
India,Maharashtra,Nashik,"Pandav Nagari, Nashik - MPCB",10-04-2026 09:00:00,19.9591346,73.7788008,NH3,2,5,3
India,Maharashtra,Navi Mumbai,"Kopripada-Vashi, Navi Mumbai - MPCB",10-04-2026 09:00:00,19.090337,73.014232,OZONE,2,24,10
India,Maharashtra,Navi Mumbai,"Nerul, Navi Mumbai - MPCB",10-04-2026 09:00:00,19.008751,73.016620,NO2,55,55,55
India,Maharashtra,Navi Mumbai,"Nerul, Navi Mumbai - MPCB",10-04-2026 09:00:00,19.008751,73.016620,NH3,6,7,7
India,Maharashtra,Mumbai,"Malad West, Mumbai - IITM",10-04-2026 09:00:00,19.19709,72.82204,OZONE,11,47,19
India,Maharashtra,Mumbai,"Mindspace-Malad West, Mumbai - MPCB",10-04-2026 09:00:00,19.1878657,72.8304069,OZONE,10,51,10
India,Maharashtra,Mumbai,"Mulund West, Mumbai - MPCB",10-04-2026 09:00:00,19.1750,72.9419,NH3,2,3,2
India,Maharashtra,Mumbai,"Navy Nagar-Colaba, Mumbai - IITM",10-04-2026 09:00:00,18.897756,72.813320,NH3,6,8,7
India,Maharashtra,Mumbai,"Navy Nagar-Colaba, Mumbai - IITM",10-04-2026 09:00:00,18.897756,72.813320,OZONE,30,50,44
India,Maharashtra,Mumbai,"Powai, Mumbai - MPCB",10-04-2026 09:00:00,19.137500,72.915056,NO2,7,8,7
India,Maharashtra,Mumbai,"Powai, Mumbai - MPCB",10-04-2026 09:00:00,19.137500,72.915056,SO2,3,7,5
India,Maharashtra,Nagpur,"Ambazari, Nagpur - MPCB",10-04-2026 09:00:00,21.121801,79.04952,SO2,8,66,19
India,Maharashtra,Nagpur,"Opp GPO Civil Lines, Nagpur - MPCB",10-04-2026 09:00:00,21.152875,79.0517531,NH3,3,10,4
India,Maharashtra,Nagpur,"Ram Nagar, Nagpur - MPCB",10-04-2026 09:00:00,21.143383,79.048912,PM2.5,41,78,60
India,Maharashtra,Nagpur,"Ram Nagar, Nagpur - MPCB",10-04-2026 09:00:00,21.143383,79.048912,PM10,81,109,100
India,Maharashtra,Nanded,"Sneh Nagar, Nanded - MPCB",10-04-2026 09:00:00,19.173852,77.296291,PM10,94,152,120
India,Maharashtra,Nashik,"Gangapur Road, Nashik - MPCB",10-04-2026 09:00:00,20.0073285,73.7762427,NO2,5,5,5
India,Maharashtra,Mumbai,"Bandra Kurla Complex, Mumbai - IITM",10-04-2026 09:00:00,19.053536,72.84643,SO2,1,4,2
India,Maharashtra,Mumbai,"Bandra Kurla Complex, Mumbai - MPCB",10-04-2026 09:00:00,19.065931,72.862131,PM2.5,NA,NA,NA
India,Maharashtra,Mumbai,"Bandra Kurla Complex, Mumbai - MPCB",10-04-2026 09:00:00,19.065931,72.862131,PM10,NA,NA,NA
India,Maharashtra,Mumbai,"Borivali East, Mumbai - MPCB",10-04-2026 09:00:00,19.2243333,72.8658113,PM2.5,36,72,58
India,Maharashtra,Mumbai,"Byculla, Mumbai - BMC",10-04-2026 09:00:00,18.9767,72.8380,NH3,2,20,5
India,Maharashtra,Mumbai,"Chakala-Andheri East, Mumbai - IITM",10-04-2026 09:00:00,19.11074,72.86084,PM10,115,192,150
India,Maharashtra,Mumbai,"Kandivali East, Mumbai - MPCB",10-04-2026 09:00:00,19.205800,72.868200,SO2,5,31,26
India,Maharashtra,Mumbai,"Kandivali West, Mumbai - BMC",10-04-2026 09:00:00,19.215859,72.831718,CO,3,38,23
India,Maharashtra,Mumbai,"Khindipada-Bhandup West, Mumbai - IITM",10-04-2026 09:00:00,19.1653323,72.922099,PM2.5,12,79,47
India,Maharashtra,Mumbai,"Khindipada-Bhandup West, Mumbai - IITM",10-04-2026 09:00:00,19.1653323,72.922099,PM10,72,125,98
India,Maharashtra,Mumbai,"Kurla, Mumbai - MPCB",10-04-2026 09:00:00,19.0863,72.8888,NO2,4,9,6
India,Maharashtra,Mumbai,"Kurla, Mumbai - MPCB",10-04-2026 09:00:00,19.0863,72.8888,CO,8,30,15
India,Maharashtra,Mumbai,"Chembur, Mumbai - MPCB",10-04-2026 09:00:00,19.0364585,72.8954371,NH3,11,15,13
India,Maharashtra,Mumbai,"Colaba, Mumbai - MPCB",10-04-2026 09:00:00,18.910000,72.820000,PM2.5,14,36,20
India,Maharashtra,Mumbai,"Colaba, Mumbai - MPCB",10-04-2026 09:00:00,18.910000,72.820000,NH3,4,4,4
India,Maharashtra,Mumbai,"Colaba, Mumbai - MPCB",10-04-2026 09:00:00,18.910000,72.820000,CO,64,77,66
India,Maharashtra,Mumbai,"Ghatkopar, Mumbai - BMC",10-04-2026 09:00:00,19.083694,72.920967,SO2,1,5,3
India,Maharashtra,Mumbai,"Siddharth Nagar-Worli, Mumbai - IITM",10-04-2026 09:00:00,19.000083,72.813993,CO,4,27,23
India,Maharashtra,Mumbai,"Sion, Mumbai - MPCB",10-04-2026 09:00:00,19.047000,72.874600,PM2.5,33,99,54
India,Maharashtra,Mumbai,"Sion, Mumbai - MPCB",10-04-2026 09:00:00,19.047000,72.874600,PM10,47,128,75
India,Maharashtra,Mumbai,"Worli, Mumbai -MPCB",10-04-2026 09:00:00,18.9942180,72.8158167,NH3,3,3,3
India,Maharashtra,Pimpri-Chinchwad,"Gavalinagar, Pimpri Chinchwad - MPCB",10-04-2026 09:00:00,18.63673,73.82487,PM2.5,59,98,75
India,Maharashtra,Pimpri-Chinchwad,"Park Street Wakad, Pimpri Chinchwad - MPCB",10-04-2026 09:00:00,18.59051,73.77946,CO,16,54,38
India,Maharashtra,Pimpri-Chinchwad,"Savta Mali Nagar, Pimpri-Chinchwad - IITM",10-04-2026 09:00:00,18.614767,73.799516,PM10,98,136,118
India,Maharashtra,Pimpri-Chinchwad,"Savta Mali Nagar, Pimpri-Chinchwad - IITM",10-04-2026 09:00:00,18.614767,73.799516,OZONE,1,23,2
India,Maharashtra,Pimpri-Chinchwad,"Thergaon, Pimpri Chinchwad - MPCB",10-04-2026 09:00:00,18.616318,73.765797,PM10,55,201,112
India,Maharashtra,Pimpri-Chinchwad,"Thergaon, Pimpri Chinchwad - MPCB",10-04-2026 09:00:00,18.616318,73.765797,CO,4,82,49
India,Maharashtra,Pimpri-Chinchwad,"Transport Nagar-Nigdi, Pune - IITM",10-04-2026 09:00:00,18.664282,73.763966,PM2.5,25,86,55
India,Maharashtra,Pune,"Dhankawadi, Pune - IITM",10-04-2026 09:00:00,18.459883,73.852193,PM2.5,25,110,63
India,Maharashtra,Pune,"Dhankawadi, Pune - IITM",10-04-2026 09:00:00,18.459883,73.852193,PM10,87,157,121
India,Maharashtra,Pune,"Dhankawadi, Pune - IITM",10-04-2026 09:00:00,18.459883,73.852193,CO,5,111,69
India,Nagaland,Kohima,"PWD Junction, Kohima - NPCB",10-04-2026 09:00:00,25.6635413,94.0989878,NO2,3,4,3
India,Nagaland,Kohima,"PWD Junction, Kohima - NPCB",10-04-2026 09:00:00,25.6635413,94.0989878,CO,2,14,4
India,Nagaland,Kohima,"PWD Junction, Kohima - NPCB",10-04-2026 09:00:00,25.6635413,94.0989878,OZONE,NA,NA,NA
India,Odisha,Angul,"Hakimapada, Angul - OSPCB",10-04-2026 09:00:00,20.832874,85.104082,PM2.5,38,346,117
India,Odisha,Angul,"Hakimapada, Angul - OSPCB",10-04-2026 09:00:00,20.832874,85.104082,NO2,13,51,28
India,Odisha,Balasore,"Kalidaspur, Balasore - OSPCB",10-04-2026 09:00:00,21.51161,86.89088,CO,40,75,50
India,Odisha,Barbil,"Forest Office, Barbil - OSPCB",10-04-2026 09:00:00,22.1166054,85.3945546,PM2.5,8,140,64
India,Odisha,Barbil,"Forest Office, Barbil - OSPCB",10-04-2026 09:00:00,22.1166054,85.3945546,NH3,NA,NA,NA
India,Odisha,Baripada,"Meher Colony, Baripada - OSPCB",10-04-2026 09:00:00,21.941841,86.728318,CO,6,32,20
India,Odisha,Keonjhar,"Jagamohanpur, Keonjhar - OSPCB",10-04-2026 09:00:00,21.643900,85.599355,CO,11,51,33
India,Odisha,Keonjhar,"Jagamohanpur, Keonjhar - OSPCB",10-04-2026 09:00:00,21.643900,85.599355,OZONE,7,32,15
India,Odisha,Nayagarh,"Dabuna, Nayagarh - OSPCB",10-04-2026 09:00:00,21.847279,85.416905,PM10,23,110,67
India,Odisha,Rairangpur,"Divisional Forest Office, Rairangpur - OSPCB",10-04-2026 09:00:00,22.265816,86.174829,PM2.5,13,22,16
India,Odisha,Rairangpur,"Divisional Forest Office, Rairangpur - OSPCB",10-04-2026 09:00:00,22.265816,86.174829,NH3,1,1,1
India,Odisha,Rairangpur,"Divisional Forest Office, Rairangpur - OSPCB",10-04-2026 09:00:00,22.265816,86.174829,CO,15,30,21
India,Odisha,Rourkela,"Fertilizer Township, Rourkela - OSPCB",10-04-2026 09:00:00,22.18972222,84.86277778,SO2,9,15,12
India,Odisha,Rourkela,"Raghunathpali, Rourkela - OSPCB",10-04-2026 09:00:00,22.220833,84.809444,NH3,1,2,1
India,Maharashtra,Navi Mumbai,"Sanpada, Navi Mumbai - MPCB",10-04-2026 09:00:00,19.0575752,73.0151367,PM10,88,193,127
India,Maharashtra,Navi Mumbai,"Sanpada, Navi Mumbai - MPCB",10-04-2026 09:00:00,19.0575752,73.0151367,NH3,2,54,17
India,Maharashtra,Navi Mumbai,"Sanpada, Navi Mumbai - MPCB",10-04-2026 09:00:00,19.0575752,73.0151367,SO2,17,51,22
India,Maharashtra,Navi Mumbai,"Sector-2E Kalamboli, Navi Mumbai - MPCB",10-04-2026 09:00:00,19.02579,73.10297,PM10,49,224,105
India,Maharashtra,Navi Mumbai,"Tondare-Taloja, Navi Mumbai - MPCB",10-04-2026 09:00:00,19.0630,73.1209,NO2,8,53,22
India,Maharashtra,Parbhani,"Masoom Colony, Parbhani - MPCB",10-04-2026 09:00:00,19.265594,76.761463,NH3,3,5,4
India,Maharashtra,Pimpri-Chinchwad,"Bhosari, Pune - IITM",10-04-2026 09:00:00,18.640051,73.848956,OZONE,NA,NA,NA
India,Odisha,Bhubaneswar,"Lingraj Mandir, Bhubaneswar - OSPCB",10-04-2026 09:00:00,20.240790,85.836784,SO2,1,8,4
India,Odisha,Bhubaneswar,"Patia, Bhubaneswar - OSPCB",10-04-2026 09:00:00,20.34652,85.81630,SO2,2,5,4
India,Odisha,Bhubaneswar,"Patia, Bhubaneswar - OSPCB",10-04-2026 09:00:00,20.34652,85.81630,CO,60,93,64
India,Odisha,Brajrajnagar,"GM Office, Brajrajnagar - OSPCB",10-04-2026 09:00:00,21.8004996,83.8396977,OZONE,40,46,42
India,Odisha,Byasanagar,"Ferro Chrome Colony, Byasanagar - OSPCB",10-04-2026 09:00:00,20.94185,86.11510,NH3,2,3,2
India,Odisha,Byasanagar,"Ferro Chrome Colony, Byasanagar - OSPCB",10-04-2026 09:00:00,20.94185,86.11510,CO,5,18,10
India,Odisha,Cuttack,"CDA Area, Cuttack - OSPCB",10-04-2026 09:00:00,20.48891     ,85.84768     ,SO2,1,14,9
India,Maharashtra,Ulhasnagar,"Sidhi Vinayak Nagar, Ulhasnagar - MPCB",10-04-2026 09:00:00,19.235581,73.159121,NH3,3,8,6
India,Maharashtra,Ulhasnagar,"Sidhi Vinayak Nagar, Ulhasnagar - MPCB",10-04-2026 09:00:00,19.235581,73.159121,SO2,2,61,16
India,Maharashtra,Ulhasnagar,"Vithalwadi, Ulhasnagar - MPCB",10-04-2026 09:00:00,19.2307571 ,73.1551920,SO2,1,26,5
India,Maharashtra,Virar,"Bolinj, Virar - MPCB",10-04-2026 09:00:00,19.4458210,72.7988231,CO,8,104,34
India,Meghalaya,Shillong,"JN Stadium, Shillong - Meghalaya PCB",10-04-2026 09:00:00,25.5803419,91.8942571,PM2.5,8,37,22
India,Maharashtra,Solapur,"Dnyaneshwar Nagar, Solapur - MPCB",10-04-2026 09:00:00,17.6336264,75.9132495,SO2,3,6,5
India,Maharashtra,Solapur,"Dnyaneshwar Nagar, Solapur - MPCB",10-04-2026 09:00:00,17.6336264,75.9132495,CO,5,73,17
India,Maharashtra,Solapur,"Dnyaneshwar Nagar, Solapur - MPCB",10-04-2026 09:00:00,17.6336264,75.9132495,OZONE,9,58,36
India,Maharashtra,Thane,"Kasarvadavali, Thane - MPCB",10-04-2026 09:00:00,19.26777,72.97182,OZONE,1,25,2
India,Maharashtra,Thane,"Upvan Fort, Thane - MPCB",10-04-2026 09:00:00,19.222279,72.957979,NO2,3,18,7
India,Maharashtra,Thane,"Upvan Fort, Thane - MPCB",10-04-2026 09:00:00,19.222279,72.957979,SO2,2,22,11
India,Maharashtra,Pune,"Hadapsar, Pune - IITM",10-04-2026 09:00:00,18.501793,73.927532,CO,45,131,48
India,Maharashtra,Pune,"Mhada Colony, Pune - IITM",10-04-2026 09:00:00,18.573040,73.927715,NO2,16,40,29
India,Maharashtra,Pune,"Panchawati_Pashan, Pune - IITM",10-04-2026 09:00:00,18.536457,73.805454,PM2.5,40,81,61
India,Maharashtra,Pune,"Revenue Colony-Shivajinagar, Pune - IITM",10-04-2026 09:00:00,18.530085,73.849598,CO,25,64,40
India,Maharashtra,Pune,"Revenue Colony-Shivajinagar, Pune - IITM",10-04-2026 09:00:00,18.530085,73.849598,OZONE,3,34,7
India,Maharashtra,Pune,"Savitribai Phule Pune University, Pune - MPCB",10-04-2026 09:00:00,18.547056,73.826908,OZONE,4,44,4
India,Rajasthan,Bhilwara,"Pratap Nagar, Bhilwara - RSPCB",10-04-2026 09:00:00,25.339605,74.618883,NO2,8,50,27
India,Rajasthan,Bhilwara,"Pratap Nagar, Bhilwara - RSPCB",10-04-2026 09:00:00,25.339605,74.618883,NH3,8,15,12
India,Rajasthan,Bhilwara,"Pratap Nagar, Bhilwara - RSPCB",10-04-2026 09:00:00,25.339605,74.618883,OZONE,33,79,48
India,Rajasthan,Bhiwadi,"RIICO Ind. Area III, Bhiwadi - RSPCB",10-04-2026 09:00:00,28.194909,76.862296,OZONE,5,45,9
India,Rajasthan,Bhiwadi,"Vasundhara Nagar_UIT, Bhiwadi - RSPCB",10-04-2026 09:00:00,28.207266,76.829265,CO,18,64,27
India,Rajasthan,Bhiwadi,"Vasundhara Nagar_UIT, Bhiwadi - RSPCB",10-04-2026 09:00:00,28.207266,76.829265,OZONE,7,116,26
India,Rajasthan,Bikaner,"MM Ground, Bikaner - RSPCB",10-04-2026 09:00:00,28.018792,73.292658,NO2,9,48,25
India,Rajasthan,Bundi,"New Colony, Bundi - RSPCB",10-04-2026 09:00:00,25.435774,75.644272,PM10,43,105,69
India,Rajasthan,Bundi,"New Colony, Bundi - RSPCB",10-04-2026 09:00:00,25.435774,75.644272,OZONE,70,141,86
India,Rajasthan,Chittorgarh,"Shastri Nagar, Chittorgarh - RSPCB",10-04-2026 09:00:00,24.892047,74.623527,PM2.5,28,107,53
India,Rajasthan,Chittorgarh,"Shastri Nagar, Chittorgarh - RSPCB",10-04-2026 09:00:00,24.892047,74.623527,NO2,8,68,39
India,Punjab,Jalandhar,"Civil Line, Jalandhar - PPCB",10-04-2026 09:00:00,31.321907,75.578914,SO2,20,21,21
India,Punjab,Jalandhar,"Civil Line, Jalandhar - PPCB",10-04-2026 09:00:00,31.321907,75.578914,OZONE,38,43,41
India,Punjab,Khanna,"Kalal Majra, Khanna - PPCB",10-04-2026 09:00:00,30.736056 ,76.209694,NH3,7,8,7
India,Punjab,Khanna,"Kalal Majra, Khanna - PPCB",10-04-2026 09:00:00,30.736056 ,76.209694,SO2,8,19,11
India,Punjab,Mandi Gobindgarh,"RIMT University, Mandi Gobindgarh - PPCB",10-04-2026 09:00:00,30.649961,76.331442,PM2.5,78,336,148
India,Punjab,Patiala,"Model Town, Patiala - PPCB",10-04-2026 09:00:00,30.349388,76.366642,NO2,16,20,18
India,Punjab,Rupnagar,"Ratanpura, Rupnagar - Ambuja Cements",10-04-2026 09:00:00,31.0325454,76.5623046,PM10,15,41,23
India,Punjab,Rupnagar,"Ratanpura, Rupnagar - Ambuja Cements",10-04-2026 09:00:00,31.0325454,76.5623046,NO2,9,45,27
India,Punjab,Rupnagar,"Ratanpura, Rupnagar - Ambuja Cements",10-04-2026 09:00:00,31.0325454,76.5623046,SO2,11,17,14
India,Punjab,Rupnagar,"Ratanpura, Rupnagar - Ambuja Cements",10-04-2026 09:00:00,31.0325454,76.5623046,CO,30,42,36
India,Odisha,Suakati,"OMC Colony, Suakati - OSPCB",10-04-2026 09:00:00,21.606865,85.510538,NH3,7,7,7
India,Odisha,Suakati,"OMC Colony, Suakati - OSPCB",10-04-2026 09:00:00,21.606865,85.510538,CO,8,24,16
India,Odisha,Suakati,"OMC Colony, Suakati - OSPCB",10-04-2026 09:00:00,21.606865,85.510538,OZONE,12,90,25
India,Odisha,Talcher,"Talcher Coalfields,Talcher - OSPCB",10-04-2026 09:00:00,20.9360711,85.1707021,PM10,32,106,68
India,Odisha,Talcher,"Talcher Coalfields,Talcher - OSPCB",10-04-2026 09:00:00,20.9360711,85.1707021,CO,28,91,85
India,Puducherry,Puducherry,"Jawahar Nagar, Puducherry - PPCC",10-04-2026 09:00:00,11.9309,79.8027,NO2,1,10,5
India,Punjab,Amritsar,"Golden Temple, Amritsar - PPCB",10-04-2026 09:00:00,31.620000,74.876512,NO2,5,142,23
India,Punjab,Amritsar,"Golden Temple, Amritsar - PPCB",10-04-2026 09:00:00,31.620000,74.876512,NH3,5,16,7
India,Punjab,Amritsar,"Golden Temple, Amritsar - PPCB",10-04-2026 09:00:00,31.620000,74.876512,SO2,17,80,26
India,Rajasthan,Jodhpur,"Jhalamand, Jodhpur - RSPCB",10-04-2026 09:00:00,26.215415,73.070156,NH3,2,17,8
India,Rajasthan,Jodhpur,"Samrat Ashok Udhyan, Jodhpur - RSPCB",10-04-2026 09:00:00,26.253384,72.976571,PM10,54,139,84
India,Rajasthan,Jodhpur,"Samrat Ashok Udhyan, Jodhpur - RSPCB",10-04-2026 09:00:00,26.253384,72.976571,SO2,1,4,1
India,Rajasthan,Jodhpur,"Samrat Ashok Udhyan, Jodhpur - RSPCB",10-04-2026 09:00:00,26.253384,72.976571,CO,12,30,16
India,Rajasthan,Jodhpur,"Samrat Ashok Udhyan, Jodhpur - RSPCB",10-04-2026 09:00:00,26.253384,72.976571,OZONE,53,156,96
India,Rajasthan,Karauli,"Satyawati Vihar, Karauli - RSPCB",10-04-2026 09:00:00,26.506177,77.025989,PM2.5,18,322,91
India,Rajasthan,Karauli,"Satyawati Vihar, Karauli - RSPCB",10-04-2026 09:00:00,26.506177,77.025989,NO2,6,58,24
India,Rajasthan,Kota,"Dhanmandi, Kota - RSPCB",10-04-2026 09:00:00,25.164090,75.858137,NO2,21,105,46
India,Rajasthan,Kota,"Dhanmandi, Kota - RSPCB",10-04-2026 09:00:00,25.164090,75.858137,OZONE,20,134,55
India,Rajasthan,Jaipur,"RIICO Sitapura, Jaipur - RSPCB",10-04-2026 09:00:00,26.786682,75.827928,PM2.5,27,314,101
India,Rajasthan,Jaipur,"RIICO Sitapura, Jaipur - RSPCB",10-04-2026 09:00:00,26.786682,75.827928,PM10,58,283,121
India,Rajasthan,Jaipur,"RIICO Sitapura, Jaipur - RSPCB",10-04-2026 09:00:00,26.786682,75.827928,CO,44,121,46
India,Rajasthan,Jaipur,"Sector-2 Murlipura, Jaipur - RSPCB",10-04-2026 09:00:00,26.960669,75.771817,PM10,43,174,86
India,Rajasthan,Jaipur,"Sector-2 Murlipura, Jaipur - RSPCB",10-04-2026 09:00:00,26.960669,75.771817,NH3,3,5,4
India,Rajasthan,Jaipur,"Sector-2 Murlipura, Jaipur - RSPCB",10-04-2026 09:00:00,26.960669,75.771817,SO2,2,69,12
India,Rajasthan,Jaipur,"Shastri Nagar, Jaipur - RSPCB",10-04-2026 09:00:00,26.9502929,75.730943,NO2,36,109,57
India,Rajasthan,Jaisalmer,"Sadar Bazar, Jaisalmer - RSPCB",10-04-2026 09:00:00,26.912329,70.909168,SO2,2,7,4
India,Rajasthan,Jaisalmer,"Sadar Bazar, Jaisalmer - RSPCB",10-04-2026 09:00:00,26.912329,70.909168,CO,12,57,15
India,Rajasthan,Dausa,"Khatikan Mohalla, Dausa - RSPCB",10-04-2026 09:00:00,26.895552,76.334753,PM10,52,117,83
India,Rajasthan,Dausa,"Khatikan Mohalla, Dausa - RSPCB",10-04-2026 09:00:00,26.895552,76.334753,NO2,15,94,43
India,Rajasthan,Dholpur,"Raja Ganj, Dholpur - RSPCB",10-04-2026 09:00:00,26.699557,77.898881,CO,24,112,37
India,Rajasthan,Dungarpur,"Bhoiwada, Dungarpur - RSPCB",10-04-2026 09:00:00,23.837789,73.714926,SO2,5,15,7
India,Rajasthan,Hanumangarh,"Housing Board, Hanumangarh - RSPCB",10-04-2026 09:00:00,29.610750,74.283608,CO,8,57,45
India,Rajasthan,Jaipur,"Adarsh Nagar, Jaipur - RSPCB",10-04-2026 09:00:00,26.902909,75.836858,PM2.5,10,214,83
India,Rajasthan,Jaipur,"Adarsh Nagar, Jaipur - RSPCB",10-04-2026 09:00:00,26.902909,75.836858,PM10,22,149,86
India,Rajasthan,Jaipur,"Adarsh Nagar, Jaipur - RSPCB",10-04-2026 09:00:00,26.902909,75.836858,CO,8,88,17
India,Rajasthan,Banswara,"Rati Talai, Banswara - RSPCB",10-04-2026 09:00:00,23.555190,74.440010,NH3,1,9,3
India,Rajasthan,Banswara,"Rati Talai, Banswara - RSPCB",10-04-2026 09:00:00,23.555190,74.440010,SO2,1,25,4
India,Rajasthan,Barmer,"Railway Colony, Barmer - RSPCB",10-04-2026 09:00:00,25.747299,71.393989,NO2,8,34,16
India,Rajasthan,Barmer,"Railway Colony, Barmer - RSPCB",10-04-2026 09:00:00,25.747299,71.393989,SO2,3,6,4
India,Rajasthan,Jaisalmer,"Sadar Bazar, Jaisalmer - RSPCB",10-04-2026 09:00:00,26.912329,70.909168,OZONE,68,92,79
India,Rajasthan,Jalore,"Mudtra Sili, Jalore - RSPCB",10-04-2026 09:00:00,25.344694,72.626208,SO2,2,7,4
India,Rajasthan,Jhalawar,"Rajlaxmi Nagar, Jhalawar - RSPCB",10-04-2026 09:00:00,24.588397,76.172782,CO,11,67,44
India,Rajasthan,Jhunjhunu,"Indra Nagar, Jhunjhunu - RSPCB",10-04-2026 09:00:00,28.108988,75.386577,SO2,1,9,4
India,TamilNadu,Chennai,"Arumbakkam, Chennai - TNPCB",10-04-2026 09:00:00,13.0664,80.2112 ,PM10,51,101,70
India,TamilNadu,Chennai,"Arumbakkam, Chennai - TNPCB",10-04-2026 09:00:00,13.0664,80.2112 ,NO2,9,26,14
India,TamilNadu,Chennai,"Arumbakkam, Chennai - TNPCB",10-04-2026 09:00:00,13.0664,80.2112 ,NH3,2,2,2
India,TamilNadu,Chennai,"Kodungaiyur, Chennai - TNPCB",10-04-2026 09:00:00,13.1278,80.2642,NO2,11,15,13
India,TamilNadu,Chennai,"Kodungaiyur, Chennai - TNPCB",10-04-2026 09:00:00,13.1278,80.2642,OZONE,27,38,31
India,TamilNadu,Chennai,"Manali Village, Chennai - TNPCB",10-04-2026 09:00:00,13.1662,80.2584,PM10,NA,NA,NA
India,TamilNadu,Chennai,"Manali Village, Chennai - TNPCB",10-04-2026 09:00:00,13.1662,80.2584,SO2,NA,NA,NA
India,TamilNadu,Chennai,"Manali, Chennai - CPCB",10-04-2026 09:00:00,13.164544,80.26285,NO2,8,11,10
India,TamilNadu,Chennai,"Manali, Chennai - CPCB",10-04-2026 09:00:00,13.164544,80.26285,NH3,6,7,6
India,TamilNadu,Chennai,"Perungudi, Chennai - TNPCB",10-04-2026 09:00:00,12.9533,80.2357,PM10,29,78,56
India,TamilNadu,Chennai,"Perungudi, Chennai - TNPCB",10-04-2026 09:00:00,12.9533,80.2357,NO2,3,8,4
India,TamilNadu,Perundurai,"SIPCOT Industrial Park, Perundurai - TNPCB",10-04-2026 09:00:00,11.258242,77.552761,CO,37,46,43
India,TamilNadu,Tirupur,"Kumaran College, Tirupur - TNPCB",10-04-2026 09:00:00,11.0973603,77.3228673,PM2.5,24,112,47
India,TamilNadu,Tirupur,"Kumaran College, Tirupur - TNPCB",10-04-2026 09:00:00,11.0973603,77.3228673,NO2,4,5,5
India,Telangana,Hyderabad,"Central University, Hyderabad - TSPCB",10-04-2026 09:00:00,17.460103,78.334361,SO2,5,25,13
India,Telangana,Hyderabad,"ECIL Kapra, Hyderabad - TSPCB",10-04-2026 09:00:00,17.470431,78.566959,NO2,22,46,33
India,Telangana,Hyderabad,"ICRISAT Patancheru, Hyderabad - TSPCB",10-04-2026 09:00:00,17.518400,78.278777,OZONE,NA,NA,NA
India,Telangana,Hyderabad,"IDA Pashamylaram, Hyderabad - TSPCB",10-04-2026 09:00:00,17.5316895,78.218939,CO,29,101,53
India,Telangana,Hyderabad,"Sanathnagar, Hyderabad - TSPCB",10-04-2026 09:00:00,17.4559458,78.4332152,SO2,5,17,10
India,Telangana,Hyderabad,"Somajiguda, Hyderabad - TSPCB",10-04-2026 09:00:00,17.417094,78.457437,PM10,80,92,85
India,Telangana,Hyderabad,"Zoo Park, Hyderabad - TSPCB",10-04-2026 09:00:00,17.349694,78.451437,SO2,NA,NA,NA
India,Tripura,Agartala,"Bardowali, Agartala - Tripura SPCB",10-04-2026 09:00:00,23.8175497,91.2726974,SO2,3,4,3
India,Uttar_Pradesh,Agra,"Manoharpur, Agra - UPPCB",10-04-2026 09:00:00,27.23711,78.01936,NH3,5,6,5
India,Uttar_Pradesh,Agra,"Rohta, Agra - UPPCB",10-04-2026 09:00:00,27.106972,78.000111,NH3,5,5,5
India,Uttar_Pradesh,Agra,"Rohta, Agra - UPPCB",10-04-2026 09:00:00,27.106972,78.000111,OZONE,12,15,14
India,TamilNadu,Coimbatore,"PSG College of Arts and Science, Coimbatore - TNPCB",10-04-2026 09:00:00,11.0328,77.0349,PM2.5,42,75,55
India,TamilNadu,Coimbatore,"PSG College of Arts and Science, Coimbatore - TNPCB",10-04-2026 09:00:00,11.0328,77.0349,NH3,1,1,1
India,TamilNadu,Coimbatore,"SIDCO Kurichi, Coimbatore - TNPCB",10-04-2026 09:00:00,10.942451,76.978996,NO2,10,13,11
India,TamilNadu,Coimbatore,"SIDCO Kurichi, Coimbatore - TNPCB",10-04-2026 09:00:00,10.942451,76.978996,CO,18,30,24
India,TamilNadu,Coimbatore,"SIDCO Kurichi, Coimbatore - TNPCB",10-04-2026 09:00:00,10.942451,76.978996,OZONE,20,28,21
India,TamilNadu,Gummidipoondi,"Anthoni Pillai Nagar, Gummidipoondi - TNPCB",10-04-2026 09:00:00,13.4127,80.1081,SO2,17,32,23
India,TamilNadu,Madurai,"Uchapatti, Madurai - TNPCB",10-04-2026 09:00:00,9.865935,78.022669,NH3,NA,NA,NA
India,Rajasthan,Kota,"Shrinath Puram, Kota - RSPCB",10-04-2026 09:00:00,25.14389,75.821256,NO2,4,15,9
India,Rajasthan,Kota,"Shrinath Puram, Kota - RSPCB",10-04-2026 09:00:00,25.14389,75.821256,CO,5,65,27
India,Rajasthan,Nagaur,"Karni Colony, Nagaur - RSPCB",10-04-2026 09:00:00,27.213494,73.734444,OZONE,52,108,61
India,Rajasthan,Pali,"Indira Colony Vistar, Pali - RSPCB",10-04-2026 09:00:00,25.771061, 73.340227,PM10,40,135,91
India,Rajasthan,Pratapgarh,"Pragati Nagar, Pratapgarh - RSPCB",10-04-2026 09:00:00,24.041198,74.780702,CO,10,26,11
India,Rajasthan,Sawai Madhopur,"Sahu Nagar, Sawai Madhopur - RSPCB",10-04-2026 09:00:00,26.031443,76.359327,PM2.5,15,217,45
India,Rajasthan,Sikar,"Radhakishan Pura, Sikar - RSPCB",10-04-2026 09:00:00,27.608912,75.153302,PM2.5,18,160,41
India,Rajasthan,Sikar,"Radhakishan Pura, Sikar - RSPCB",10-04-2026 09:00:00,27.608912,75.153302,NH3,6,11,8
India,Rajasthan,Sirohi,"Vedhaynath Colony, Sirohi - RSPCB",10-04-2026 09:00:00,24.885261,72.857549,PM2.5,8,100,24
India,Rajasthan,Tonk,"Shastri Nagar, Tonk - RSPCB",10-04-2026 09:00:00,26.159933,75.780517,SO2,1,5,3
India,Rajasthan,Udaipur,"Ashok Nagar, Udaipur - RSPCB",10-04-2026 09:00:00,24.5886166,73.6321397,OZONE,6,95,16
India,TamilNadu,Chennai,"Arumbakkam, Chennai - TNPCB",10-04-2026 09:00:00,13.0664,80.2112 ,PM2.5,16,52,34
India,Uttar_Pradesh,Agra,"Sanjay Palace, Agra - UPPCB",10-04-2026 09:00:00,27.19865833,78.00598056,PM2.5,18,322,148
India,Uttar_Pradesh,Agra,"Sanjay Palace, Agra - UPPCB",10-04-2026 09:00:00,27.19865833,78.00598056,CO,30,44,36
India,Uttar_Pradesh,Agra,"Sector-3B Avas Vikas Colony, Agra - UPPCB",10-04-2026 09:00:00,27.19412,77.96237,CO,9,56,40
India,Uttar_Pradesh,Agra,"Shahjahan Garden, Agra - UPPCB",10-04-2026 09:00:00,27.169338,78.03582,NH3,3,3,3
India,Uttar_Pradesh,Agra,"Shastripuram, Agra - UPPCB",10-04-2026 09:00:00,27.19862,77.92066,NO2,NA,NA,NA
India,Uttar_Pradesh,Bareilly,"Civil Lines, Bareilly - UPPCB",10-04-2026 09:00:00,28.359581,79.414455,PM2.5,25,51,36
India,Telangana,Hyderabad,"IITH Kandi, Hyderabad - TSPCB",10-04-2026 09:00:00,17.585705,78.126199,NO2,12,17,17
India,Telangana,Hyderabad,"Kompally Municipal Office, Hyderabad - TSPCB",10-04-2026 09:00:00,17.544899,78.486949,NO2,13,16,16
India,Telangana,Hyderabad,"Nacharam_TSIIC IALA, Hyderabad - TSPCB",10-04-2026 09:00:00,17.429398,78.569354,NO2,9,17,12
India,Telangana,Hyderabad,"Nacharam_TSIIC IALA, Hyderabad - TSPCB",10-04-2026 09:00:00,17.429398,78.569354,CO,16,42,34
India,Telangana,Hyderabad,"Nacharam_TSIIC IALA, Hyderabad - TSPCB",10-04-2026 09:00:00,17.429398,78.569354,OZONE,15,35,16
India,Telangana,Hyderabad,"Ramachandrapuram, Hyderabad - TSPCB",10-04-2026 09:00:00,17.528544,78.286195,PM10,60,91,75
India,Uttar_Pradesh,Bulandshahr,"Yamunapuram, Bulandshahr - UPPCB",10-04-2026 09:00:00,28.406963,77.849831,OZONE,8,76,13
India,Uttar_Pradesh,Firozabad,"Nagla Bhau, Firozabad - UPPCB",10-04-2026 09:00:00,27.168897,78.376960,CO,16,71,25
India,Uttar_Pradesh,Firozabad,"Vibhab Nagar, Firozabad - UPPCB",10-04-2026 09:00:00,27.1594,78.3953,NH3,2,2,2
India,Uttar_Pradesh,Ghaziabad,"Indirapuram, Ghaziabad - UPPCB",10-04-2026 09:00:00,28.646233,77.358075,SO2,9,16,10
India,Uttar_Pradesh,Ghaziabad,"Loni, Ghaziabad - UPPCB",10-04-2026 09:00:00,28.757294,77.278792,CO,14,42,19
India,Uttar_Pradesh,Ghaziabad,"Sanjay Nagar, Ghaziabad - UPPCB",10-04-2026 09:00:00,28.685382,77.453839,PM2.5,38,268,118
India,Uttar_Pradesh,Ghaziabad,"Sanjay Nagar, Ghaziabad - UPPCB",10-04-2026 09:00:00,28.685382,77.453839,NH3,6,9,7
India,Uttar_Pradesh,Ghaziabad,"Sanjay Nagar, Ghaziabad - UPPCB",10-04-2026 09:00:00,28.685382,77.453839,SO2,14,32,21
India,Uttar_Pradesh,Ghaziabad,"Sanjay Nagar, Ghaziabad - UPPCB",10-04-2026 09:00:00,28.685382,77.453839,OZONE,3,173,48
India,Uttar_Pradesh,Ghaziabad,"Vasundhara, Ghaziabad - UPPCB",10-04-2026 09:00:00,28.6603346,77.3572563,NO2,36,122,70
India,Uttar_Pradesh,Ghaziabad,"Vasundhara, Ghaziabad - UPPCB",10-04-2026 09:00:00,28.6603346,77.3572563,SO2,6,125,31
India,Uttar_Pradesh,Ghaziabad,"Ved Vihar-Loni, Ghaziabad - UPPCB",10-04-2026 09:00:00,28.739153 ,77.273668 ,PM10,110,423,163
India,Uttar_Pradesh,Ghaziabad,"Ved Vihar-Loni, Ghaziabad - UPPCB",10-04-2026 09:00:00,28.739153 ,77.273668 ,SO2,4,4,4
India,Uttar_Pradesh,Gorakhpur,"Madan Mohan Malaviya University of Technology, Gorakhpur - UPPCB",10-04-2026 09:00:00,26.730136,83.433859,PM10,NA,NA,NA
India,Uttar_Pradesh,Gorakhpur,"Madan Mohan Malaviya University of Technology, Gorakhpur - UPPCB",10-04-2026 09:00:00,26.730136,83.433859,SO2,NA,NA,NA
India,Uttar_Pradesh,Greater Noida,"Knowledge Park - III, Greater Noida - UPPCB",10-04-2026 09:00:00,28.47272,77.482000,NO2,19,140,69
India,Uttar_Pradesh,Greater Noida,"Knowledge Park - III, Greater Noida - UPPCB",10-04-2026 09:00:00,28.47272,77.482000,CO,26,108,29
India,Uttar_Pradesh,Noida,"Sector - 125, Noida - UPPCB",10-04-2026 09:00:00,28.5447608,77.3231257,NO2,12,131,59
India,Uttar_Pradesh,Noida,"Sector - 125, Noida - UPPCB",10-04-2026 09:00:00,28.5447608,77.3231257,NH3,6,19,16
India,Uttar_Pradesh,Noida,"Sector - 125, Noida - UPPCB",10-04-2026 09:00:00,28.5447608,77.3231257,CO,12,118,18
India,Uttar_Pradesh,Noida,"Sector - 125, Noida - UPPCB",10-04-2026 09:00:00,28.5447608,77.3231257,OZONE,9,150,32
India,Uttar_Pradesh,Noida,"Sector-1, Noida - UPPCB",10-04-2026 09:00:00,28.5898,77.3101,PM2.5,35,309,135
India,Uttar_Pradesh,Noida,"Sector-1, Noida - UPPCB",10-04-2026 09:00:00,28.5898,77.3101,PM10,98,332,161
India,Uttar_Pradesh,Noida,"Sector-1, Noida - UPPCB",10-04-2026 09:00:00,28.5898,77.3101,NH3,4,9,7
India,Uttar_Pradesh,Noida,"Sector-1, Noida - UPPCB",10-04-2026 09:00:00,28.5898,77.3101,CO,19,105,40
India,Uttar_Pradesh,Noida,"Sector-116, Noida - UPPCB",10-04-2026 09:00:00,28.569230,77.393848,PM10,86,386,158
India,Uttar_Pradesh,Noida,"Sector-116, Noida - UPPCB",10-04-2026 09:00:00,28.569230,77.393848,OZONE,7,81,15
India,Uttar_Pradesh,Prayagraj,"Jhunsi, Prayagraj - UPPCB",10-04-2026 09:00:00,25.425602,81.917152,NH3,6,6,6
India,Uttar_Pradesh,Prayagraj,"Jhunsi, Prayagraj - UPPCB",10-04-2026 09:00:00,25.425602,81.917152,CO,7,18,14
India,Uttar_Pradesh,Prayagraj,"Jhunsi, Prayagraj - UPPCB",10-04-2026 09:00:00,25.425602,81.917152,OZONE,17,36,18
India,Uttar_Pradesh,Prayagraj,"Motilal Nehru NIT, Prayagraj - UPPCB",10-04-2026 09:00:00,25.494,81.863,NH3,8,8,8
India,Uttar_Pradesh,Lucknow,"Gomti Nagar, Lucknow - UPPCB",10-04-2026 09:00:00,26.868120,81.005119,PM2.5,27,230,72
India,Uttar_Pradesh,Lucknow,"Gomti Nagar, Lucknow - UPPCB",10-04-2026 09:00:00,26.868120,81.005119,CO,34,40,35
India,Uttar_Pradesh,Lucknow,"Kukrail Picnic Spot-1, Lucknow - UPPCB",10-04-2026 09:00:00,26.90723,80.98579,PM2.5,28,107,59
India,Uttar_Pradesh,Lucknow,"Lalbagh, Lucknow - CPCB",10-04-2026 09:00:00,26.8458805,80.9365541,PM2.5,7,331,74
India,Uttar_Pradesh,Lucknow,"Lalbagh, Lucknow - CPCB",10-04-2026 09:00:00,26.8458805,80.9365541,PM10,45,142,95
India,Uttar_Pradesh,Lucknow,"Lalbagh, Lucknow - CPCB",10-04-2026 09:00:00,26.8458805,80.9365541,NH3,14,22,16
India,Uttar_Pradesh,Lucknow,"Lalbagh, Lucknow - CPCB",10-04-2026 09:00:00,26.8458805,80.9365541,CO,2,78,52
India,Uttar_Pradesh,Lucknow,"Lalbagh, Lucknow - CPCB",10-04-2026 09:00:00,26.8458805,80.9365541,OZONE,6,54,12
India,Uttar_Pradesh,Lucknow,"Talkatora District Industries Center, Lucknow - CPCB",10-04-2026 09:00:00,26.83399722,80.8917361,PM2.5,53,119,82
India,Uttar_Pradesh,Lucknow,"Talkatora District Industries Center, Lucknow - CPCB",10-04-2026 09:00:00,26.83399722,80.8917361,NH3,12,13,12
India,Uttar_Pradesh,Meerut,"Ganga Nagar, Meerut - UPPCB",10-04-2026 09:00:00,28.999264,77.7590354,NO2,81,134,114
India,Uttar_Pradesh,Vrindavan,"Omex Eternity, Vrindavan - UPPCB",10-04-2026 09:00:00,27.5714090,77.6557570,PM2.5,11,95,46
India,Uttarakhand,Dehradun,"Doon University, Dehradun - UKPCB",10-04-2026 09:00:00,30.269444,78.044167,PM10,NA,NA,NA
India,Uttarakhand,Dehradun,"Doon University, Dehradun - UKPCB",10-04-2026 09:00:00,30.269444,78.044167,CO,5,132,6
India,Uttarakhand,Rishikesh,"Shivaji Nagar, Rishikesh - UKPCB",10-04-2026 09:00:00,30.075911,78.2859547,NO2,17,24,21
India,West_Bengal,Asansol,"Asansol Court Area, Asansol - WBPCB",10-04-2026 09:00:00,23.685297,86.945968,PM10,50,81,66
India,West_Bengal,Asansol,"Asansol Court Area, Asansol - WBPCB",10-04-2026 09:00:00,23.685297,86.945968,SO2,11,34,19
India,West_Bengal,Asansol,"Asansol Court Area, Asansol - WBPCB",10-04-2026 09:00:00,23.685297,86.945968,CO,15,76,52
India,West_Bengal,Asansol,"Asansol Court Area, Asansol - WBPCB",10-04-2026 09:00:00,23.685297,86.945968,OZONE,17,44,23
India,West_Bengal,Asansol,"Evelyn Lodge, Asansol - WBPCB",10-04-2026 09:00:00,23.6979360,86.9443950,PM10,46,75,59
India,West_Bengal,Asansol,"Evelyn Lodge, Asansol - WBPCB",10-04-2026 09:00:00,23.6979360,86.9443950,NH3,5,6,5
India,Uttar_Pradesh,Prayagraj,"Nagar Nigam, Prayagraj - UPPCB",10-04-2026 09:00:00,25.44919916 ,81.82735986 ,CO,16,28,23
India,Uttar_Pradesh,Raebareli," Indira Nagar, Raebareli - NTPC Unchahar",10-04-2026 09:00:00,26.207781,81.245571,NH3,8,12,9
India,Uttar_Pradesh,Raebareli," Indira Nagar, Raebareli - NTPC Unchahar",10-04-2026 09:00:00,26.207781,81.245571,CO,4,20,12
India,Uttar_Pradesh,Varanasi,"Ardhali Bazar, Varanasi - UPPCB",10-04-2026 09:00:00,25.3505986,82.9083074,PM2.5,47,477,131
India,Uttar_Pradesh,Varanasi,"Ardhali Bazar, Varanasi - UPPCB",10-04-2026 09:00:00,25.3505986,82.9083074,OZONE,11,37,20
India,Uttar_Pradesh,Varanasi,"Bhelupur, Varanasi - UPPCB",10-04-2026 09:00:00,25.301778,82.996789,NH3,1,1,1
India,Uttar_Pradesh,Varanasi,"IESD Banaras Hindu University, Varanasi - UPPCB",10-04-2026 09:00:00,25.262326,82.995408,NO2,2,2,2
India,Uttar_Pradesh,Varanasi,"IESD Banaras Hindu University, Varanasi - UPPCB",10-04-2026 09:00:00,25.262326,82.995408,SO2,19,26,21
India,Uttar_Pradesh,Varanasi,"IESD Banaras Hindu University, Varanasi - UPPCB",10-04-2026 09:00:00,25.262326,82.995408,CO,2,6,5
India,Uttar_Pradesh,Moradabad,"Eco Herbal Park, Moradabad - UPPCB",10-04-2026 09:00:00,28.840739,78.697531,CO,16,62,25
India,Uttar_Pradesh,Moradabad,"Eco Herbal Park, Moradabad - UPPCB",10-04-2026 09:00:00,28.840739,78.697531,OZONE,34,120,43
India,Uttar_Pradesh,Moradabad,"Employment Office, Moradabad - UPPCB",10-04-2026 09:00:00,28.88528,78.73880,PM10,26,109,67
India,Uttar_Pradesh,Moradabad,"Employment Office, Moradabad - UPPCB",10-04-2026 09:00:00,28.88528,78.73880,NO2,15,16,16
India,Uttar_Pradesh,Moradabad,"Kashiram Nagar, Moradabad - UPPCB",10-04-2026 09:00:00,28.849399,78.742362,PM10,20,86,51
India,Uttar_Pradesh,Moradabad,"Transport Nagar, Moradabad - UPPCB",10-04-2026 09:00:00,28.802625,78.753728,PM10,21,84,47
India,Uttar_Pradesh,Moradabad,"Transport Nagar, Moradabad - UPPCB",10-04-2026 09:00:00,28.802625,78.753728,NO2,19,30,29
India,Uttar_Pradesh,Moradabad,"Transport Nagar, Moradabad - UPPCB",10-04-2026 09:00:00,28.802625,78.753728,NH3,3,6,5
India,Uttar_Pradesh,Moradabad,"Transport Nagar, Moradabad - UPPCB",10-04-2026 09:00:00,28.802625,78.753728,SO2,42,65,49
India,Uttar_Pradesh,Moradabad,"Transport Nagar, Moradabad - UPPCB",10-04-2026 09:00:00,28.802625,78.753728,CO,86,130,88
India,Uttar_Pradesh,Greater Noida,"Knowledge Park - V, Greater Noida - UPPCB",10-04-2026 09:00:00,28.557054,77.453663,SO2,12,19,14
India,Uttar_Pradesh,Jhansi,"Shivaji Nagar, Jhansi - UPPCB",10-04-2026 09:00:00,25.4547,78.6039,PM10,44,83,64
India,Uttar_Pradesh,Jhansi,"Shivaji Nagar, Jhansi - UPPCB",10-04-2026 09:00:00,25.4547,78.6039,SO2,12,16,13
India,Uttar_Pradesh,Kanpur,"FTI Kidwai Nagar, Kanpur - UPPCB",10-04-2026 09:00:00,26.428282,80.327067,NH3,3,3,3
India,Uttar_Pradesh,Kanpur,"FTI Kidwai Nagar, Kanpur - UPPCB",10-04-2026 09:00:00,26.428282,80.327067,SO2,13,32,16
India,Uttar_Pradesh,Kanpur,"NSI Kalyanpur, Kanpur - UPPCB",10-04-2026 09:00:00,26.509954,80.249612,PM10,42,170,82
India,Uttar_Pradesh,Kanpur,"NSI Kalyanpur, Kanpur - UPPCB",10-04-2026 09:00:00,26.509954,80.249612,CO,14,45,29
India,Uttar_Pradesh,Kanpur,"Nehru Nagar, Kanpur - UPPCB",10-04-2026 09:00:00,26.4703136,80.3229863,PM10,24,338,75
India,Uttar_Pradesh,Meerut,"Jai Bhim Nagar, Meerut - UPPCB",10-04-2026 09:00:00,28.9535882,77.7622941,NO2,15,44,26
India,Uttar_Pradesh,Meerut,"Jai Bhim Nagar, Meerut - UPPCB",10-04-2026 09:00:00,28.9535882,77.7622941,CO,16,65,24
India,Uttar_Pradesh,Meerut,"Pallavpuram Phase 2, Meerut - UPPCB",10-04-2026 09:00:00,29.063510,77.709723,PM10,25,125,80
India,Uttar_Pradesh,Meerut,"Pallavpuram Phase 2, Meerut - UPPCB",10-04-2026 09:00:00,29.063510,77.709723,SO2,2,115,32
India,Uttar_Pradesh,Meerut,"Pallavpuram Phase 2, Meerut - UPPCB",10-04-2026 09:00:00,29.063510,77.709723,OZONE,3,119,44
India,Uttar_Pradesh,Moradabad,"Buddhi Vihar, Moradabad - UPPCB",10-04-2026 09:00:00,28.83526,78.74460,PM2.5,4,47,26
India,Uttar_Pradesh,Moradabad,"Buddhi Vihar, Moradabad - UPPCB",10-04-2026 09:00:00,28.83526,78.74460,SO2,21,24,22
India,Uttar_Pradesh,Moradabad,"Buddhi Vihar, Moradabad - UPPCB",10-04-2026 09:00:00,28.83526,78.74460,CO,20,34,32
India,Uttar_Pradesh,Moradabad,"Buddhi Vihar, Moradabad - UPPCB",10-04-2026 09:00:00,28.83526,78.74460,OZONE,12,30,14
India,Uttar_Pradesh,Khora,"Prashant Garden, Khora - UPPCB",10-04-2026 09:00:00,28.61119,77.34206,OZONE,10,160,38
India,Uttar_Pradesh,Khurja,"Kalindi Kunj, Khurja - UPPCB",10-04-2026 09:00:00,28.2348927,77.8683002,OZONE,11,16,11
India,Uttar_Pradesh,Lucknow,"B R Ambedkar University, Lucknow - UPPCB",10-04-2026 09:00:00,26.766433,80.927299,PM10,30,133,79
India,Uttar_Pradesh,Lucknow,"B R Ambedkar University, Lucknow - UPPCB",10-04-2026 09:00:00,26.766433,80.927299,NH3,4,5,4
India,West_Bengal,Asansol,"Evelyn Lodge, Asansol - WBPCB",10-04-2026 09:00:00,23.6979360,86.9443950,CO,18,52,32
India,West_Bengal,Asansol,"Mahabir Colliery, Asansol - WBPCB",10-04-2026 09:00:00,23.6181830,87.1057180,NO2,8,16,11
India,West_Bengal,Asansol,"Mahabir Colliery, Asansol - WBPCB",10-04-2026 09:00:00,23.6181830,87.1057180,SO2,3,41,7
India,West_Bengal,Barrackpore,"SVSPA Campus, Barrackpore - WBPCB",10-04-2026 09:00:00,22.7605581,88.3617589,PM10,18,87,51
India,West_Bengal,Barrackpore,"SVSPA Campus, Barrackpore - WBPCB",10-04-2026 09:00:00,22.7605581,88.3617589,NO2,15,29,22
India,West_Bengal,Durgapur,"PCBL Residential Complex, Durgapur - WBPCB",10-04-2026 09:00:00,23.5087640,87.3544400,NO2,28,57,38
India,West_Bengal,Durgapur,"PCBL Residential Complex, Durgapur - WBPCB",10-04-2026 09:00:00,23.5087640,87.3544400,SO2,5,8,6
India,West_Bengal,Durgapur,"PCBL Residential Complex, Durgapur - WBPCB",10-04-2026 09:00:00,23.5087640,87.3544400,CO,60,110,78
India,West_Bengal,Durgapur,"Womens College_City Center, Durgapur - WBPCB",10-04-2026 09:00:00,23.549395,87.300496,SO2,27,28,28
India,West_Bengal,Durgapur,"Womens College_City Center, Durgapur - WBPCB",10-04-2026 09:00:00,23.549395,87.300496,CO,22,56,38
India,West_Bengal,Haldia,"Priyambada Housing Estate, Haldia - WBPCB",10-04-2026 09:00:00,22.06047,88.109737,CO,23,47,31
India,West_Bengal,Howrah,"Belur Math, Howrah - WBPCB",10-04-2026 09:00:00,22.629801,88.352017,PM2.5,27,71,43
India,West_Bengal,Howrah,"Belur Math, Howrah - WBPCB",10-04-2026 09:00:00,22.629801,88.352017,NH3,5,8,6
India,West_Bengal,Howrah,"Belur Math, Howrah - WBPCB",10-04-2026 09:00:00,22.629801,88.352017,SO2,6,19,9
India,West_Bengal,Howrah,"Botanical Garden, Howrah - WBPCB",10-04-2026 09:00:00,22.554954,88.292568,PM10,24,49,33
India,West_Bengal,Howrah,"Dasnagar, Howrah - WBPCB",10-04-2026 09:00:00,22.6025571,88.3105664,CO,21,88,28
India,West_Bengal,Howrah,"Dasnagar, Howrah - WBPCB",10-04-2026 09:00:00,22.6025571,88.3105664,OZONE,10,66,14
India,West_Bengal,Kolkata,"Ballygunge, Kolkata - WBPCB",10-04-2026 09:00:00,22.5367507,88.3638022,SO2,10,16,13
India,West_Bengal,Kolkata,"Bidhannagar, Kolkata - WBPCB",10-04-2026 09:00:00,22.58157048,88.41002457,NH3,5,5,5
India,West_Bengal,Kolkata,"Fort William, Kolkata - WBPCB",10-04-2026 09:00:00,22.556640,88.342674,NH3,9,11,10
India,West_Bengal,Kolkata,"Fort William, Kolkata - WBPCB",10-04-2026 09:00:00,22.556640,88.342674,OZONE,2,24,3
India,West_Bengal,Kolkata,"Jadavpur, Kolkata - WBPCB",10-04-2026 09:00:00,22.49929,88.36917,CO,24,32,30
India,West_Bengal,Kolkata,"Rabindra Bharati University, Kolkata - WBPCB",10-04-2026 09:00:00,22.627847,88.380669,NO2,38,132,73
India,West_Bengal,Kolkata,"Victoria, Kolkata - WBPCB",10-04-2026 09:00:00,22.5448082,88.3403691,OZONE,9,50,15
India,West_Bengal,Siliguri,"Ward-32 Bapupara, Siliguri - WBPCB",10-04-2026 09:00:00,26.6879226,88.4152495,SO2,12,17,14
India,Bihar,Gaya,"Kareemganj, Gaya - BSPCB",10-04-2026 09:00:00,24.792403,84.992416,NO2,11,13,12
India,Bihar,Gaya,"Kareemganj, Gaya - BSPCB",10-04-2026 09:00:00,24.792403,84.992416,NH3,1,3,1
India,Bihar,Gaya,"SFTI Kusdihra, Gaya - BSPCB",10-04-2026 09:00:00,24.762518,84.982348,PM10,31,55,44
India,Bihar,Gaya,"SFTI Kusdihra, Gaya - BSPCB",10-04-2026 09:00:00,24.762518,84.982348,OZONE,13,74,20
India,Bihar,Hajipur,"Industrial Area, Hajipur - BSPCB",10-04-2026 09:00:00,25.697189,85.245900,OZONE,22,133,44
India,Bihar,Katihar,"Mirchaibari, Katihar - BSPCB",10-04-2026 09:00:00,25.560083,87.553265,CO,66,82,75
India,Bihar,Kishanganj,"SDM Office_Khagra, Kishanganj - BSPCB",10-04-2026 09:00:00,26.0881305,87.93840336,PM2.5,20,50,29
India,Bihar,Kishanganj,"SDM Office_Khagra, Kishanganj - BSPCB",10-04-2026 09:00:00,26.0881305,87.93840336,PM10,18,43,26
India,Bihar,Kishanganj,"SDM Office_Khagra, Kishanganj - BSPCB",10-04-2026 09:00:00,26.0881305,87.93840336,CO,16,20,17
India,Bihar,Kishanganj,"SDM Office_Khagra, Kishanganj - BSPCB",10-04-2026 09:00:00,26.0881305,87.93840336,OZONE,33,35,33
India,Andhra_Pradesh,Eluru,"District Court, Eluru - APPCB",10-04-2026 09:00:00,16.711754,81.092095,OZONE,NA,NA,NA
India,Andhra_Pradesh,Guntur,"Rajendra Nagar North, Guntur - APPCB",10-04-2026 09:00:00,16.316553,80.413302,PM10,48,70,55
India,Andhra_Pradesh,Kadapa,"Yerramukkapalli, Kadapa - APPCB",10-04-2026 09:00:00,14.465052,78.824187,SO2,9,18,11
India,Andhra_Pradesh,Machilipatnam,"Srinivas Nagar Colony, Machilipatnam - APPCB",10-04-2026 09:00:00,16.186555,81.13219,PM2.5,52,74,62
India,Andhra_Pradesh,Nellore,"Ambedkar Nagar, Nellore - APPCB ",10-04-2026 09:00:00,14.438164 ,79.966814 ,PM2.5,38,109,63
India,Andhra_Pradesh,Nellore,"Ambedkar Nagar, Nellore - APPCB ",10-04-2026 09:00:00,14.438164 ,79.966814 ,OZONE,8,30,9
India,Andhra_Pradesh,Rajamahendravaram,"Anand Kala Kshetram, Rajamahendravaram - APPCB",10-04-2026 09:00:00,16.9872867,81.7363176,PM10,31,62,48
India,Assam,Guwahati,"IITG, Guwahati - PCBA",10-04-2026 09:00:00,26.2028636,91.70046436,PM10,NA,NA,NA
India,Assam,Guwahati,"IITG, Guwahati - PCBA",10-04-2026 09:00:00,26.2028636,91.70046436,NH3,NA,NA,NA
India,Assam,Guwahati,"LGBI Airport, Guwahati - PCBA",10-04-2026 09:00:00,26.10887,91.589544,PM10,33,47,42
India,Assam,Guwahati,"LGBI Airport, Guwahati - PCBA",10-04-2026 09:00:00,26.10887,91.589544,NH3,3,11,4
India,Assam,Guwahati,"Pan Bazaar, Guwahati - PCBA",10-04-2026 09:00:00,26.187500,91.744194,PM2.5,1,1,1
India,Assam,Guwahati,"Pan Bazaar, Guwahati - PCBA",10-04-2026 09:00:00,26.187500,91.744194,SO2,10,11,11
India,Assam,Guwahati,"Pan Bazaar, Guwahati - PCBA",10-04-2026 09:00:00,26.187500,91.744194,CO,16,20,16
India,Assam,Guwahati,"Railway Colony, Guwahati - PCBA",10-04-2026 09:00:00,26.181742,91.78063,SO2,1,3,2
India,Assam,Guwahati,"Railway Colony, Guwahati - PCBA",10-04-2026 09:00:00,26.181742,91.78063,OZONE,1,3,1
India,Assam,Nagaon,"Christianpatty, Nagaon - PCBA",10-04-2026 09:00:00,26.349082,92.68449,PM2.5,11,44,23
India,Bihar,Bhagalpur,"Mayaganj, Bhagalpur - BSPCB",10-04-2026 09:00:00,25.265194,87.012947,PM10,36,169,93
India,Bihar,Bhagalpur,"Mayaganj, Bhagalpur - BSPCB",10-04-2026 09:00:00,25.265194,87.012947,NH3,5,7,6
India,Bihar,Bhagalpur,"Mayaganj, Bhagalpur - BSPCB",10-04-2026 09:00:00,25.265194,87.012947,CO,68,85,74
India,Bihar,Bihar Sharif,"D M Colony, Bihar Sharif - BSPCB",10-04-2026 09:00:00,25.204762,85.514960,PM10,19,46,32
India,Bihar,Buxar,"Charitra Van, Buxar - BSPCB",10-04-2026 09:00:00,25.567520,83.966379,PM2.5,40,57,49
India,Bihar,Buxar,"Charitra Van, Buxar - BSPCB",10-04-2026 09:00:00,25.567520,83.966379,SO2,28,38,34
India,Bihar,Chhapra,"Darshan Nagar, Chhapra - BSPCB",10-04-2026 09:00:00,25.7808257,84.7446768,SO2,19,21,20
India,Bihar,Gaya,"Collectorate, Gaya - BSPCB",10-04-2026 09:00:00,24.7955,84.9994,OZONE,17,19,18
India,Assam,Nalbari,"Bata Chowk, Nalbari - PCBA",10-04-2026 09:00:00,26.446912,91.439057,CO,20,22,21
India,Assam,Silchar,"Tarapur, Silchar - PCBA",10-04-2026 09:00:00,24.82827,92.79525,NO2,23,32,29
India,Assam,Silchar,"Tarapur, Silchar - PCBA",10-04-2026 09:00:00,24.82827,92.79525,SO2,4,6,5
India,Assam,Sivasagar,"Girls College, Sivasagar - PCBA",10-04-2026 09:00:00,26.987634,94.636574,PM10,18,26,22
India,Assam,Sivasagar,"Girls College, Sivasagar - PCBA",10-04-2026 09:00:00,26.987634,94.636574,OZONE,24,58,36
India,Bihar,Araria,"Kharahiya Basti, Araria - BSPCB",10-04-2026 09:00:00,26.146529,87.454184,SO2,41,80,60
India,Bihar,Arrah,"New DM Office, Arrah - BSPCB",10-04-2026 09:00:00,25.5626095,84.663264,PM10,14,72,41
India,Andhra_Pradesh,Tirumala,"Toll Gate, Tirumala - APPCB",10-04-2026 09:00:00,13.67,79.35,SO2,3,63,11
India,Andhra_Pradesh,Tirumala,"Toll Gate, Tirumala - APPCB",10-04-2026 09:00:00,13.67,79.35,CO,16,32,20
India,Andhra_Pradesh,Tirupati,"Vaikuntapuram, Tirupati - APPCB",10-04-2026 09:00:00,13.615387,79.409230,CO,16,32,23
India,Andhra_Pradesh,Vijayawada,"Kanuru, Vijayawada - APPCB",10-04-2026 09:00:00,16.486692,80.699436,PM2.5,NA,NA,NA
India,Andhra_Pradesh,Vijayawada,"Kanuru, Vijayawada - APPCB",10-04-2026 09:00:00,16.486692,80.699436,PM10,NA,NA,NA
India,Andhra_Pradesh,Vijayawada,"Kanuru, Vijayawada - APPCB",10-04-2026 09:00:00,16.486692,80.699436,OZONE,53,70,54
India,Andhra_Pradesh,Amaravati,"Secretariat, Amaravati - APPCB",10-04-2026 09:00:00,16.5150833,80.5181667,OZONE,11,67,19
India,Andhra_Pradesh,Anantapur,"Gulzarpet, Anantapur - APPCB",10-04-2026 09:00:00,14.675886,77.593027,PM2.5,53,116,81
India,Andhra_Pradesh,Anantapur,"Gulzarpet, Anantapur - APPCB",10-04-2026 09:00:00,14.675886,77.593027,CO,4,128,50
India,Andhra_Pradesh,Chittoor,"Gangineni Cheruvu, Chittoor - APPCB",10-04-2026 09:00:00,13.204880,79.097889,NO2,25,33,27
India,Bihar,Aurangabad,"Gurdeo Nagar, Aurangabad - BSPCB",10-04-2026 09:00:00,24.75746,84.366208,SO2,6,14,10
India,Bihar,Begusarai,"Lohiyanagar, Begusarai - BSPCB",10-04-2026 09:00:00,25.42742023,86.13886079,NO2,10,16,13
India,Bihar,Begusarai,"Lohiyanagar, Begusarai - BSPCB",10-04-2026 09:00:00,25.42742023,86.13886079,OZONE,34,47,41
India,Bihar,Bhagalpur,"DM Office_Kachari Chowk, Bhagalpur - BSPCB",10-04-2026 09:00:00,25.251013,86.989001,SO2,1,104,52
India,Andhra_Pradesh,Vijayawada,"Rajiv Gandhi Park, Vijayawada - APPCB",10-04-2026 09:00:00,16.509717,80.612222,PM10,41,74,56
India,Andhra_Pradesh,Vijayawada,"Rajiv Nagar, Vijayawada - APPCB",10-04-2026 09:00:00,16.554731,80.649110,SO2,13,18,16
India,Arunachal_Pradesh,Naharlagun,"Naharlagun, Naharlagun - APSPCB",10-04-2026 09:00:00,27.103358,93.679645,PM2.5,4,51,30
India,Arunachal_Pradesh,Naharlagun,"Naharlagun, Naharlagun - APSPCB",10-04-2026 09:00:00,27.103358,93.679645,NH3,1,1,1
India,Bihar,Munger,"Town Hall, Munger - BSPCB",10-04-2026 09:00:00,25.376776,86.471523,NO2,4,5,5
India,Delhi,Delhi,"Alipur, Delhi - DPCC",10-04-2026 09:00:00,28.815329,77.153010,SO2,6,19,9
India,Delhi,Delhi,"Ashok Vihar, Delhi - DPCC",10-04-2026 09:00:00,28.695381,77.181665,PM10,63,296,135
India,Delhi,Delhi,"Ashok Vihar, Delhi - DPCC",10-04-2026 09:00:00,28.695381,77.181665,NH3,6,7,7
India,Delhi,Delhi,"Ashok Vihar, Delhi - DPCC",10-04-2026 09:00:00,28.695381,77.181665,OZONE,5,112,19
India,Delhi,Delhi,"Aya Nagar, Delhi - IMD",10-04-2026 09:00:00,28.4706914,77.1099364,PM2.5,31,219,80
India,Delhi,Delhi,"Bawana, Delhi - DPCC",10-04-2026 09:00:00,28.776200,77.051074,PM2.5,30,358,167
India,Delhi,Delhi,"Bawana, Delhi - DPCC",10-04-2026 09:00:00,28.776200,77.051074,PM10,63,408,155
India,Delhi,Delhi,"Bawana, Delhi - DPCC",10-04-2026 09:00:00,28.776200,77.051074,SO2,9,50,18
India,Delhi,Delhi,"Burari Crossing, Delhi - IMD",10-04-2026 09:00:00,28.7256504,77.2011573,PM2.5,25,331,118
India,Chhattisgarh,Bhilai,"Hathkhoj, Bhilai - CECB",10-04-2026 09:00:00,21.224231,81.408350,NO2,18,55,34
India,Chhattisgarh,Bhilai,"Hathkhoj, Bhilai - CECB",10-04-2026 09:00:00,21.224231,81.408350,SO2,16,80,32
India,Chhattisgarh,Bilaspur,"Mangala, Bilaspur - NTPC",10-04-2026 09:00:00,22.08815,82.13737,NO2,13,53,28
India,Chhattisgarh,Bilaspur,"Mangala, Bilaspur - NTPC",10-04-2026 09:00:00,22.08815,82.13737,CO,19,115,29
India,Chhattisgarh,Korba,"Rampur, Korba - CECB",10-04-2026 09:00:00,22.368195,82.746431,OZONE,5,16,10
India,Chhattisgarh,Korba,"Urja Nagar, Korba - CECB",10-04-2026 09:00:00,22.348441,82.549611,PM2.5,NA,NA,NA
India,Chhattisgarh,Korba,"Urja Nagar, Korba - CECB",10-04-2026 09:00:00,22.348441,82.549611,NO2,NA,NA,NA
India,Chhattisgarh,Kunjemura,"OP Jindal School, Kunjemura - CECB",10-04-2026 09:00:00,22.126650,83.483212,SO2,9,23,14
India,Chhattisgarh,Raipur,"Krishak Nagar, Raipur - CECB",10-04-2026 09:00:00,21.237755,81.705301,PM2.5,43,61,50
India,Chhattisgarh,Raipur,"Siltara Phase-II, Raipur - CECB",10-04-2026 09:00:00,21.371751,81.664929,PM2.5,17,81,38
India,Chhattisgarh,Raipur,"Siltara Phase-II, Raipur - CECB",10-04-2026 09:00:00,21.371751,81.664929,SO2,1,25,8
India,Chhattisgarh,Raipur,"Siltara Phase-II, Raipur - CECB",10-04-2026 09:00:00,21.371751,81.664929,OZONE,3,40,3
India,Chhattisgarh,Tumidih,"OP Jindal Industrial Park, Tumidih - CECB",10-04-2026 09:00:00,22.06631475,83.33820077,PM2.5,19,54,30
India,Chhattisgarh,Tumidih,"OP Jindal Industrial Park, Tumidih - CECB",10-04-2026 09:00:00,22.06631475,83.33820077,NH3,1,3,2
India,Delhi,Delhi,"Alipur, Delhi - DPCC",10-04-2026 09:00:00,28.815329,77.153010,PM2.5,33,273,119
India,Bihar,Saharsa,"Police Line, Saharsa - BSPCB",10-04-2026 09:00:00,25.892357,86.590325,CO,35,44,40
India,Bihar,Saharsa,"Police Line, Saharsa - BSPCB",10-04-2026 09:00:00,25.892357,86.590325,OZONE,1,36,19
India,Bihar,Samastipur,"DM Office_Kasipur, Samastipur - BSPCB",10-04-2026 09:00:00,25.859655,85.77944,PM10,NA,NA,NA
India,Bihar,Sasaram,"Dada Peer, Sasaram - BSPCB",10-04-2026 09:00:00,24.952822,84.002396,PM10,45,108,70
India,Bihar,Sasaram,"Dada Peer, Sasaram - BSPCB",10-04-2026 09:00:00,24.952822,84.002396,NH3,2,6,4
India,Bihar,Siwan,"Chitragupta Nagar, Siwan - BSPCB",10-04-2026 09:00:00,26.2271665,84.3570427,PM10,31,101,53
India,Bihar,Siwan,"Chitragupta Nagar, Siwan - BSPCB",10-04-2026 09:00:00,26.2271665,84.3570427,SO2,7,9,8
India,Chandigarh,Chandigarh,"Sector-25, Chandigarh - CPCC",10-04-2026 09:00:00,30.751462,76.762879,NH3,10,12,11
India,Chandigarh,Chandigarh,"Sector-53, Chandigarh - CPCC",10-04-2026 09:00:00,30.719859,76.738637,PM2.5,8,50,22
India,Chandigarh,Chandigarh,"Sector-53, Chandigarh - CPCC",10-04-2026 09:00:00,30.719859,76.738637,NO2,15,60,28
India,Chhattisgarh,Bhilai,"32Bungalows, Bhilai - CECB",10-04-2026 09:00:00,21.194815,81.314770,PM2.5,26,46,36
India,Chhattisgarh,Bhilai,"32Bungalows, Bhilai - CECB",10-04-2026 09:00:00,21.194815,81.314770,NO2,6,48,21
India,Chhattisgarh,Bhilai,"32Bungalows, Bhilai - CECB",10-04-2026 09:00:00,21.194815,81.314770,NH3,1,10,6
India,Chhattisgarh,Bhilai,"Civic Center, Bhilai - Bhilai Steel Plant",10-04-2026 09:00:00,21.185571,81.343175,NO2,13,14,13
India,Bihar,Patna,"Rajbansi Nagar, Patna - BSPCB",10-04-2026 09:00:00,25.599486,85.113666,CO,41,107,54
India,Bihar,Patna,"Rajbansi Nagar, Patna - BSPCB",10-04-2026 09:00:00,25.599486,85.113666,OZONE,26,35,31
India,Bihar,Patna,"Samanpura, Patna - BSPCB",10-04-2026 09:00:00,25.596727,85.085624,PM10,81,136,110
India,Bihar,Purnia,"Mariam Nagar, Purnia - BSPCB",10-04-2026 09:00:00,25.366336,87.117468,NO2,5,7,6
India,Bihar,Purnia,"Mariam Nagar, Purnia - BSPCB",10-04-2026 09:00:00,25.366336,87.117468,CO,55,58,57
India,Bihar,Purnia,"Mariam Nagar, Purnia - BSPCB",10-04-2026 09:00:00,25.366336,87.117468,OZONE,20,37,26
India,Bihar,Muzaffarpur,"Muzaffarpur Collectorate, Muzaffarpur - BSPCB",10-04-2026 09:00:00,26.1209,85.3647,NO2,8,14,9
India,Bihar,Patna,"DRM Office Danapur, Patna - BSPCB",10-04-2026 09:00:00,25.586562,85.043586,NO2,35,42,38
India,Bihar,Patna,"Govt. High School Shikarpur, Patna - BSPCB",10-04-2026 09:00:00,25.592539,85.227158,NO2,7,16,10
India,Chhattisgarh,Kunjemura,"OP Jindal School, Kunjemura - CECB",10-04-2026 09:00:00,22.126650,83.483212,CO,13,32,23
India,Chhattisgarh,Milupara,"Govt. Higher Secondary School, Milupara - CECB",10-04-2026 09:00:00,22.1910172,83.5197009,SO2,NA,NA,NA
India,Chhattisgarh,Milupara,"Govt. Higher Secondary School, Milupara - CECB",10-04-2026 09:00:00,22.1910172,83.5197009,CO,2,51,17
India,Chhattisgarh,Raipur,"AIIMS, Raipur - CECB",10-04-2026 09:00:00,21.258815,81.578979,PM2.5,NA,NA,NA
India,Delhi,Delhi,"Vivek Vihar, Delhi - DPCC",10-04-2026 09:00:00,28.672342,77.315260,CO,46,109,49
India,Delhi,Delhi,"Vivek Vihar, Delhi - DPCC",10-04-2026 09:00:00,28.672342,77.315260,OZONE,24,156,45
India,Delhi,Delhi,"Wazirpur, Delhi - DPCC",10-04-2026 09:00:00,28.699793,77.165453,PM10,137,322,198
India,Delhi,Delhi,"Wazirpur, Delhi - DPCC",10-04-2026 09:00:00,28.699793,77.165453,NO2,36,138,79
India,Delhi,Delhi,"Wazirpur, Delhi - DPCC",10-04-2026 09:00:00,28.699793,77.165453,NH3,6,10,8
India,Delhi,Delhi,"Wazirpur, Delhi - DPCC",10-04-2026 09:00:00,28.699793,77.165453,CO,30,104,42
India,Gujarat,Ahmedabad,"Chandkheda, Ahmedabad - IITM",10-04-2026 09:00:00,23.107969,72.574648,CO,30,94,48
India,Gujarat,Ahmedabad,"Gyaspur, Ahmedabad - IITM",10-04-2026 09:00:00,22.977134,72.553024,CO,60,105,79
India,Gujarat,Ahmedabad,"Maninagar, Ahmedabad - GPCB",10-04-2026 09:00:00,23.002657,72.591912,PM10,74,129,109
India,Delhi,Delhi,"Pusa, Delhi - IMD",10-04-2026 09:00:00,28.636110,77.173332,OZONE,19,316,184
India,Delhi,Delhi,"R K Puram, Delhi - DPCC",10-04-2026 09:00:00,28.563262,77.186937,NH3,5,8,6
India,Delhi,Delhi,"R K Puram, Delhi - DPCC",10-04-2026 09:00:00,28.563262,77.186937,CO,42,127,52
India,Delhi,Delhi,"Rohini, Delhi - DPCC",10-04-2026 09:00:00,28.732528,77.119920,PM2.5,33,354,176
India,Delhi,Delhi,"Rohini, Delhi - DPCC",10-04-2026 09:00:00,28.732528,77.119920,PM10,77,288,151
India,Delhi,Delhi,"Shadipur, Delhi - CPCB",10-04-2026 09:00:00,28.6514781,77.1473105,PM2.5,41,317,138
India,Delhi,Delhi,"Shadipur, Delhi - CPCB",10-04-2026 09:00:00,28.6514781,77.1473105,NO2,30,80,45
India,Delhi,Delhi,"NSUT Jaffarpur, Delhi - DPCC",10-04-2026 09:00:00,28.594004 ,76.909423 ,CO,15,60,42
India,Delhi,Delhi,"Najafgarh, Delhi - DPCC",10-04-2026 09:00:00,28.570173,76.933762,PM10,46,245,115
India,Delhi,Delhi,"Najafgarh, Delhi - DPCC",10-04-2026 09:00:00,28.570173,76.933762,NO2,5,74,33
India,Delhi,Delhi,"Narela, Delhi - DPCC",10-04-2026 09:00:00,28.822836,77.101981,PM2.5,47,287,146
India,Delhi,Delhi,"Nehru Nagar, Delhi - DPCC",10-04-2026 09:00:00,28.567890,77.250515,NH3,3,10,6
India,Delhi,Delhi,"North Campus, DU, Delhi - IMD",10-04-2026 09:00:00,28.6573814,77.1585447,PM2.5,41,319,120
India,Delhi,Delhi,"Patparganj, Delhi - DPCC",10-04-2026 09:00:00,28.623763,77.287209,PM10,84,309,141
India,Delhi,Delhi,"Patparganj, Delhi - DPCC",10-04-2026 09:00:00,28.623763,77.287209,NO2,26,148,66
India,Delhi,Delhi,"Patparganj, Delhi - DPCC",10-04-2026 09:00:00,28.623763,77.287209,CO,45,117,49
India,Delhi,Delhi,"Punjabi Bagh, Delhi - DPCC",10-04-2026 09:00:00,28.674045,77.131023,OZONE,5,66,20
India,Delhi,Delhi,"Pusa, Delhi - DPCC",10-04-2026 09:00:00,28.639652,77.146275,SO2,12,44,25
India,Delhi,Delhi,"Pusa, Delhi - IMD",10-04-2026 09:00:00,28.636110,77.173332,PM2.5,25,192,75
India,Delhi,Delhi,"Pusa, Delhi - IMD",10-04-2026 09:00:00,28.636110,77.173332,NO2,42,244,104
India,Delhi,Delhi,"DTU, Delhi - CPCB",10-04-2026 09:00:00,28.7500499,77.1112615,OZONE,23,30,26
India,Delhi,Delhi,"Dr. Karni Singh Shooting Range, Delhi - DPCC",10-04-2026 09:00:00,28.498571,77.264840,PM2.5,27,337,108
India,Delhi,Delhi,"Dr. Karni Singh Shooting Range, Delhi - DPCC",10-04-2026 09:00:00,28.498571,77.264840,NO2,3,95,36
India,Delhi,Delhi,"Dr. Karni Singh Shooting Range, Delhi - DPCC",10-04-2026 09:00:00,28.498571,77.264840,NH3,3,4,3
India,Delhi,Delhi,"IGI Airport (T3), Delhi - IMD",10-04-2026 09:00:00,28.5627763,77.1180053,PM10,63,251,130
India,Delhi,Delhi,"IGI Airport (T3), Delhi - IMD",10-04-2026 09:00:00,28.5627763,77.1180053,CO,30,105,54
India,Delhi,Delhi,"ITO, Delhi - CPCB",10-04-2026 09:00:00,28.628624,77.241060,PM10,59,257,114
India,Delhi,Delhi,"Jahangirpuri, Delhi - DPCC",10-04-2026 09:00:00,28.732820,77.170633,OZONE,8,98,14
India,Delhi,Delhi,"Jawaharlal Nehru Stadium, Delhi - DPCC",10-04-2026 09:00:00,28.580280,77.233829,PM2.5,NA,NA,NA
India,Delhi,Delhi,"Jawaharlal Nehru Stadium, Delhi - DPCC",10-04-2026 09:00:00,28.580280,77.233829,SO2,NA,NA,NA
India,Delhi,Delhi,"Jawaharlal Nehru Stadium, Delhi - DPCC",10-04-2026 09:00:00,28.580280,77.233829,OZONE,NA,NA,NA
India,Delhi,Delhi,"Lodhi Road, Delhi - IMD",10-04-2026 09:00:00,28.5918245,77.2273074,NO2,12,43,25
India,Delhi,Delhi,"Sirifort, Delhi - CPCB",10-04-2026 09:00:00,28.5504249,77.2159377,PM2.5,37,348,125
India,Delhi,Delhi,"Sirifort, Delhi - CPCB",10-04-2026 09:00:00,28.5504249,77.2159377,NH3,9,19,14
India,Delhi,Delhi,"Sri Aurobindo Marg, Delhi - DPCC",10-04-2026 09:00:00,28.531346,77.190156,SO2,7,12,10
India,Delhi,Delhi,"Talkatora Garden, Delhi - DPCC",10-04-2026 09:00:00,28.621810,77.1944633,PM2.5,20,312,113
India,Delhi,Delhi,"Talkatora Garden, Delhi - DPCC",10-04-2026 09:00:00,28.621810,77.1944633,OZONE,2,22,4
India,Delhi,Delhi,"Burari Crossing, Delhi - IMD",10-04-2026 09:00:00,28.7256504,77.2011573,NO2,17,69,38
India,Delhi,Delhi,"Commonwealth Sports Complex, Delhi - DPCC",10-04-2026 09:00:00,28.615828 ,77.271992 ,PM2.5,35,308,116
India,Delhi,Delhi,"Commonwealth Sports Complex, Delhi - DPCC",10-04-2026 09:00:00,28.615828 ,77.271992 ,CO,26,103,39
India,Delhi,Delhi,"DTU, Delhi - CPCB",10-04-2026 09:00:00,28.7500499,77.1112615,SO2,31,38,33
India,Delhi,Delhi,"Major Dhyan Chand National Stadium, Delhi - DPCC",10-04-2026 09:00:00,28.611281,77.237738,PM10,56,207,111
India,Delhi,Delhi,"Major Dhyan Chand National Stadium, Delhi - DPCC",10-04-2026 09:00:00,28.611281,77.237738,CO,16,122,19
India,Delhi,Delhi,"Mundka, Delhi - DPCC",10-04-2026 09:00:00,28.684678,77.076574,NO2,51,124,82
India,Haryana,Ballabgarh,"Nathu Colony, Ballabgarh - HSPCB",10-04-2026 09:00:00,28.3419248,77.319699,OZONE,6,34,9
India,Haryana,Bhiwani,"H.B. Colony, Bhiwani - HSPCB",10-04-2026 09:00:00,28.806223,76.141105,OZONE,5,29,9
India,Haryana,Charkhi Dadri,"Mini Secretariat, Charkhi Dadri - HSPCB",10-04-2026 09:00:00,28.593883,76.270653,PM10,55,142,101
India,Haryana,Charkhi Dadri,"Mini Secretariat, Charkhi Dadri - HSPCB",10-04-2026 09:00:00,28.593883,76.270653,NO2,9,25,15
India,Haryana,Charkhi Dadri,"Mini Secretariat, Charkhi Dadri - HSPCB",10-04-2026 09:00:00,28.593883,76.270653,NH3,5,8,6
India,Haryana,Charkhi Dadri,"Mini Secretariat, Charkhi Dadri - HSPCB",10-04-2026 09:00:00,28.593883,76.270653,CO,20,106,35
India,Haryana,Charkhi Dadri,"Mini Secretariat, Charkhi Dadri - HSPCB",10-04-2026 09:00:00,28.593883,76.270653,OZONE,13,17,15
India,Haryana,Dharuhera,"Municipal Corporation Office, Dharuhera -  HSPCB",10-04-2026 09:00:00,28.206800,76.799700,PM2.5,43,170,104
India,Haryana,Dharuhera,"Municipal Corporation Office, Dharuhera -  HSPCB",10-04-2026 09:00:00,28.206800,76.799700,OZONE,24,30,25
India,Haryana,Faridabad,"New Industrial Town, Faridabad - HSPCB",10-04-2026 09:00:00,28.39072,77.30059,OZONE,12,18,15
India,Haryana,Faridabad,"Sector 11, Faridabad - HSPCB",10-04-2026 09:00:00,28.376058,77.315741,PM10,58,270,140
India,Haryana,Faridabad,"Sector 11, Faridabad - HSPCB",10-04-2026 09:00:00,28.376058,77.315741,SO2,3,3,3
India,Haryana,Faridabad,"Sector 11, Faridabad - HSPCB",10-04-2026 09:00:00,28.376058,77.315741,CO,40,41,40
India,Haryana,Kurukshetra,"Sector-7, Kurukshetra - HSPCB",10-04-2026 09:00:00,29.966942,76.875879,CO,6,17,12
India,Haryana,Manesar,"Sector-2 IMT, Manesar - HSPCB",10-04-2026 09:00:00,28.360699,76.936090,PM2.5,21,260,133
India,Haryana,Manesar,"Sector-2 IMT, Manesar - HSPCB",10-04-2026 09:00:00,28.360699,76.936090,PM10,19,144,91
India,Haryana,Manesar,"Sector-2 IMT, Manesar - HSPCB",10-04-2026 09:00:00,28.360699,76.936090,NO2,28,43,38
India,Haryana,Manesar,"Sector-2 IMT, Manesar - HSPCB",10-04-2026 09:00:00,28.360699,76.936090,CO,5,32,19
India,Haryana,Narnaul,"Shastri Nagar, Narnaul - HSPCB",10-04-2026 09:00:00,28.060249,76.113115,NO2,24,27,25
India,Haryana,Palwal,"Shyam Nagar, Palwal - HSPCB",10-04-2026 09:00:00,28.1485564,77.3320667,OZONE,24,24,24
India,Haryana,Panchgaon,"Amity University, Panchgaon - IITM",10-04-2026 09:00:00,28.3153,76.9143,NO2,NA,NA,NA
India,Haryana,Panchgaon,"Amity University, Panchgaon - IITM",10-04-2026 09:00:00,28.3153,76.9143,SO2,2,50,14
India,Haryana,Panchkula,"Sector-6, Panchkula - HSPCB ",10-04-2026 09:00:00,30.7057778,76.8531805555555,PM2.5,15,56,38
India,Gujarat,Vadodara,"Bapunagar, Vadodara - Nexteng Enviro",10-04-2026 09:00:00,22.320153,73.216285,CO,69,87,81
India,Gujarat,Vapi,"Phase-1 GIDC, Vapi - GPCB",10-04-2026 09:00:00,20.362421,72.918013,NO2,10,28,15
India,Gujarat,Vapi,"Phase-1 GIDC, Vapi - GPCB",10-04-2026 09:00:00,20.362421,72.918013,NH3,3,6,5
India,Haryana,Ambala,"Patti Mehar, Ambala - HSPCB",10-04-2026 09:00:00,30.379589,76.778328,NH3,7,8,8
India,Haryana,Ambala,"Patti Mehar, Ambala - HSPCB",10-04-2026 09:00:00,30.379589,76.778328,OZONE,14,24,21
India,Haryana,Bahadurgarh,"Arya Nagar, Bahadurgarh - HSPCB",10-04-2026 09:00:00,28.6701,76.9254,PM2.5,40,55,48
India,Haryana,Bahadurgarh,"Arya Nagar, Bahadurgarh - HSPCB",10-04-2026 09:00:00,28.6701,76.9254,PM10,53,77,66
India,Haryana,Bahadurgarh,"Arya Nagar, Bahadurgarh - HSPCB",10-04-2026 09:00:00,28.6701,76.9254,NO2,12,14,13
India,Haryana,Bahadurgarh,"Arya Nagar, Bahadurgarh - HSPCB",10-04-2026 09:00:00,28.6701,76.9254,OZONE,23,28,25
India,Haryana,Ballabgarh,"Nathu Colony, Ballabgarh - HSPCB",10-04-2026 09:00:00,28.3419248,77.319699,CO,4,111,38
