country,state,city,station,last_update,latitude,longitude,pollutant_id,min_value,max_value,avg_value
India,Andhra_Pradesh,Vijayawada,"Rajiv Gandhi Park, Vijayawada - APPCB",23-03-2026 08:00:00,16.509717,80.612222,PM2.5,63,124,82
India,Andhra_Pradesh,Vijayawada,"Rajiv Gandhi Park, Vijayawada - APPCB",23-03-2026 08:00:00,16.509717,80.612222,SO2,11,20,14
India,Andhra_Pradesh,Vijayawada,"Rajiv Gandhi Park, Vijayawada - APPCB",23-03-2026 08:00:00,16.509717,80.612222,OZONE,41,59,42
India,Andhra_Pradesh,Vijayawada,"Rajiv Nagar, Vijayawada - APPCB",23-03-2026 08:00:00,16.554731,80.649110,NO2,16,22,17
India,Andhra_Pradesh,Vijayawada,"Rajiv Nagar, Vijayawada - APPCB",23-03-2026 08:00:00,16.554731,80.649110,OZONE,22,41,22
India,Andhra_Pradesh,Visakhapatnam,"GVM Corporation, Visakhapatnam - APPCB",23-03-2026 08:00:00,17.72,83.3,PM2.5,10,75,34
India,Andhra_Pradesh,Visakhapatnam,"GVM Corporation, Visakhapatnam - APPCB",23-03-2026 08:00:00,17.72,83.3,CO,5,60,24
India,Arunachal_Pradesh,Naharlagun,"Naharlagun, Naharlagun - APSPCB",23-03-2026 08:00:00,27.103358,93.679645,NO2,6,7,7
India,Assam,Guwahati,"IITG, Guwahati - PCBA",23-03-2026 08:00:00,26.2028636,91.70046436,PM2.5,19,67,29
India,Assam,Guwahati,"IITG, Guwahati - PCBA",23-03-2026 08:00:00,26.2028636,91.70046436,NH3,5,5,5
India,Andhra_Pradesh,Rajamahendravaram,"Anand Kala Kshetram, Rajamahendravaram - APPCB",23-03-2026 08:00:00,16.9872867,81.7363176,NH3,2,4,3
India,Andhra_Pradesh,Rajamahendravaram,"Anand Kala Kshetram, Rajamahendravaram - APPCB",23-03-2026 08:00:00,16.9872867,81.7363176,SO2,3,16,7
India,Andhra_Pradesh,Rajamahendravaram,"Anand Kala Kshetram, Rajamahendravaram - APPCB",23-03-2026 08:00:00,16.9872867,81.7363176,CO,16,34,21
India,Andhra_Pradesh,Tirumala,"Toll Gate, Tirumala - APPCB",23-03-2026 08:00:00,13.67,79.35,PM10,26,51,37
India,Andhra_Pradesh,Tirumala,"Toll Gate, Tirumala - APPCB",23-03-2026 08:00:00,13.67,79.35,CO,12,32,16
India,Andhra_Pradesh,Tirupati,"Vaikuntapuram, Tirupati - APPCB",23-03-2026 08:00:00,13.615387,79.409230,PM10,46,71,51
India,Andhra_Pradesh,Tirupati,"Vaikuntapuram, Tirupati - APPCB",23-03-2026 08:00:00,13.615387,79.409230,NO2,21,38,28
India,Andhra_Pradesh,Tirupati,"Vaikuntapuram, Tirupati - APPCB",23-03-2026 08:00:00,13.615387,79.409230,CO,12,37,25
India,Andhra_Pradesh,Vijayawada,"HB Colony, Vijayawada - APPCB",23-03-2026 08:00:00,16.536107,80.594233,PM2.5,42,71,54
India,Andhra_Pradesh,Vijayawada,"HB Colony, Vijayawada - APPCB",23-03-2026 08:00:00,16.536107,80.594233,PM10,41,70,54
India,Andhra_Pradesh,Vijayawada,"HB Colony, Vijayawada - APPCB",23-03-2026 08:00:00,16.536107,80.594233,NO2,7,25,17
India,Andhra_Pradesh,Chittoor,"Gangineni Cheruvu, Chittoor - APPCB",23-03-2026 08:00:00,13.204880,79.097889,OZONE,18,26,23
India,Andhra_Pradesh,Eluru,"District Court, Eluru - APPCB",23-03-2026 08:00:00,16.711754,81.092095,PM10,26,93,43
India,Andhra_Pradesh,Eluru,"District Court, Eluru - APPCB",23-03-2026 08:00:00,16.711754,81.092095,SO2,7,12,8
India,Andhra_Pradesh,Guntur,"Rajendra Nagar North, Guntur - APPCB",23-03-2026 08:00:00,16.316553,80.413302,NO2,13,19,15
India,Andhra_Pradesh,Guntur,"Rajendra Nagar North, Guntur - APPCB",23-03-2026 08:00:00,16.316553,80.413302,OZONE,28,28,28
India,Andhra_Pradesh,Kadapa,"Yerramukkapalli, Kadapa - APPCB",23-03-2026 08:00:00,14.465052,78.824187,PM2.5,61,87,74
India,Andhra_Pradesh,Kadapa,"Yerramukkapalli, Kadapa - APPCB",23-03-2026 08:00:00,14.465052,78.824187,NH3,3,5,3
India,Andhra_Pradesh,Kadapa,"Yerramukkapalli, Kadapa - APPCB",23-03-2026 08:00:00,14.465052,78.824187,SO2,9,16,10
India,Andhra_Pradesh,Rajamahendravaram,"Anand Kala Kshetram, Rajamahendravaram - APPCB",23-03-2026 08:00:00,16.9872867,81.7363176,PM10,19,65,35
India,Bihar,Arrah,"New DM Office, Arrah - BSPCB",23-03-2026 08:00:00,25.5626095,84.663264,SO2,5,6,5
India,Bihar,Aurangabad,"Gurdeo Nagar, Aurangabad - BSPCB",23-03-2026 08:00:00,24.75746,84.366208,PM10,39,86,62
India,Bihar,Aurangabad,"Gurdeo Nagar, Aurangabad - BSPCB",23-03-2026 08:00:00,24.75746,84.366208,NH3,1,2,2
India,Bihar,Aurangabad,"Gurdeo Nagar, Aurangabad - BSPCB",23-03-2026 08:00:00,24.75746,84.366208,SO2,10,16,13
India,Bihar,Begusarai,"Lohiyanagar, Begusarai - BSPCB",23-03-2026 08:00:00,25.42742023,86.13886079,PM10,35,206,102
India,Bihar,Begusarai,"Lohiyanagar, Begusarai - BSPCB",23-03-2026 08:00:00,25.42742023,86.13886079,NH3,3,4,4
India,Bihar,Begusarai,"Lohiyanagar, Begusarai - BSPCB",23-03-2026 08:00:00,25.42742023,86.13886079,CO,24,30,27
India,Bihar,Begusarai,"Lohiyanagar, Begusarai - BSPCB",23-03-2026 08:00:00,25.42742023,86.13886079,OZONE,38,50,43
India,Bihar,Bettiah,"Kamalnath Nagar, Bettiah - BSPCB",23-03-2026 08:00:00,26.80365,84.51954,PM10,2,84,40
India,Bihar,Bettiah,"Kamalnath Nagar, Bettiah - BSPCB",23-03-2026 08:00:00,26.80365,84.51954,NH3,1,1,1
India,Bihar,Hajipur,"Industrial Area, Hajipur - BSPCB",23-03-2026 08:00:00,25.697189,85.245900,NH3,8,11,9
India,Bihar,Hajipur,"Industrial Area, Hajipur - BSPCB",23-03-2026 08:00:00,25.697189,85.245900,CO,9,65,41
India,Bihar,Katihar,"Mirchaibari, Katihar - BSPCB",23-03-2026 08:00:00,25.560083,87.553265,SO2,16,21,18
India,Bihar,Kishanganj,"SDM Office_Khagra, Kishanganj - BSPCB",23-03-2026 08:00:00,26.0881305,87.93840336,SO2,7,11,9
India,Bihar,Manguraha,"Forest Rest House, Manguraha - BSPCB",23-03-2026 08:00:00,27.308328,84.531742,SO2,16,17,16
India,Bihar,Motihari,"Gandak Colony, Motihari - BSPCB",23-03-2026 08:00:00,26.63086,84.90051,NH3,3,3,3
India,Bihar,Motihari,"Gandak Colony, Motihari - BSPCB",23-03-2026 08:00:00,26.63086,84.90051,SO2,2,3,3
India,Bihar,Motihari,"Gandak Colony, Motihari - BSPCB",23-03-2026 08:00:00,26.63086,84.90051,CO,43,60,51
India,Bihar,Motihari,"Gandak Colony, Motihari - BSPCB",23-03-2026 08:00:00,26.63086,84.90051,OZONE,2,4,2
India,Bihar,Bhagalpur,"DM Office_Kachari Chowk, Bhagalpur - BSPCB",23-03-2026 08:00:00,25.251013,86.989001,NO2,5,20,10
India,Bihar,Bhagalpur,"DM Office_Kachari Chowk, Bhagalpur - BSPCB",23-03-2026 08:00:00,25.251013,86.989001,CO,5,14,10
India,Bihar,Bhagalpur,"Mayaganj, Bhagalpur - BSPCB",23-03-2026 08:00:00,25.265194,87.012947,PM10,NA,NA,NA
India,Bihar,Bhagalpur,"Mayaganj, Bhagalpur - BSPCB",23-03-2026 08:00:00,25.265194,87.012947,NH3,5,8,7
India,Bihar,Bhagalpur,"Mayaganj, Bhagalpur - BSPCB",23-03-2026 08:00:00,25.265194,87.012947,SO2,4,64,55
India,Bihar,Bhagalpur,"Mayaganj, Bhagalpur - BSPCB",23-03-2026 08:00:00,25.265194,87.012947,CO,66,98,89
India,Bihar,Bihar Sharif,"D M Colony, Bihar Sharif - BSPCB",23-03-2026 08:00:00,25.204762,85.514960,PM10,NA,NA,NA
India,Bihar,Munger,"Town Hall, Munger - BSPCB",23-03-2026 08:00:00,25.376776,86.471523,SO2,NA,NA,NA
India,Bihar,Muzaffarpur,"MIT-Daudpur Kothi, Muzaffarpur - BSPCB",23-03-2026 08:00:00,26.1403345,85.3650192,NH3,1,1,1
India,Bihar,Patna,"DRM Office Danapur, Patna - BSPCB",23-03-2026 08:00:00,25.586562,85.043586,SO2,4,8,6
India,Bihar,Patna,"DRM Office Danapur, Patna - BSPCB",23-03-2026 08:00:00,25.586562,85.043586,CO,30,83,44
India,Bihar,Patna,"Govt. High School Shikarpur, Patna - BSPCB",23-03-2026 08:00:00,25.592539,85.227158,PM2.5,72,83,76
India,Bihar,Bihar Sharif,"D M Colony, Bihar Sharif - BSPCB",23-03-2026 08:00:00,25.204762,85.514960,NO2,NA,NA,NA
India,Bihar,Bihar Sharif,"D M Colony, Bihar Sharif - BSPCB",23-03-2026 08:00:00,25.204762,85.514960,CO,NA,NA,NA
India,Bihar,Buxar,"Charitra Van, Buxar - BSPCB",23-03-2026 08:00:00,25.567520,83.966379,NH3,3,3,3
India,Bihar,Buxar,"Charitra Van, Buxar - BSPCB",23-03-2026 08:00:00,25.567520,83.966379,SO2,28,36,33
India,Bihar,Buxar,"Charitra Van, Buxar - BSPCB",23-03-2026 08:00:00,25.567520,83.966379,OZONE,1,9,2
India,Bihar,Gaya,"Collectorate, Gaya - BSPCB",23-03-2026 08:00:00,24.7955,84.9994,NO2,9,10,9
India,Assam,Guwahati,"LGBI Airport, Guwahati - PCBA",23-03-2026 08:00:00,26.10887,91.589544,SO2,5,13,9
India,Assam,Guwahati,"Railway Colony, Guwahati - PCBA",23-03-2026 08:00:00,26.181742,91.78063,SO2,1,3,1
India,Assam,Nalbari,"Bata Chowk, Nalbari - PCBA",23-03-2026 08:00:00,26.446912,91.439057,NH3,4,7,6
India,Assam,Silchar,"Tarapur, Silchar - PCBA",23-03-2026 08:00:00,24.82827,92.79525,NH3,1,1,1
India,Andhra_Pradesh,Amaravati,"Secretariat, Amaravati - APPCB",23-03-2026 08:00:00,16.5150833,80.5181667,NH3,2,2,2
India,Chhattisgarh,Raipur,"Bhatagaon New ISBT, Raipur - CECB",23-03-2026 08:00:00,21.219665,81.630094,NH3,2,2,2
India,Chhattisgarh,Raipur,"Krishak Nagar, Raipur - CECB",23-03-2026 08:00:00,21.237755,81.705301,PM10,24,73,42
India,Chhattisgarh,Raipur,"Siltara Phase-II, Raipur - CECB",23-03-2026 08:00:00,21.371751,81.664929,PM2.5,17,44,29
India,Chhattisgarh,Raipur,"Siltara Phase-II, Raipur - CECB",23-03-2026 08:00:00,21.371751,81.664929,OZONE,2,23,6
India,Delhi,Delhi,"Alipur, Delhi - DPCC",23-03-2026 08:00:00,28.815329,77.153010,NO2,10,47,26
India,Delhi,Delhi,"Alipur, Delhi - DPCC",23-03-2026 08:00:00,28.815329,77.153010,OZONE,3,48,10
India,Delhi,Delhi,"Anand Vihar, Delhi - DPCC",23-03-2026 08:00:00,28.647622,77.3158090,PM2.5,50,392,166
India,Delhi,Delhi,"Anand Vihar, Delhi - DPCC",23-03-2026 08:00:00,28.647622,77.3158090,NH3,3,6,4
India,Delhi,Delhi,"Ashok Vihar, Delhi - DPCC",23-03-2026 08:00:00,28.695381,77.181665,PM2.5,33,303,114
India,Delhi,Delhi,"Ashok Vihar, Delhi - DPCC",23-03-2026 08:00:00,28.695381,77.181665,SO2,11,36,20
India,Bihar,Sasaram,"Dada Peer, Sasaram - BSPCB",23-03-2026 08:00:00,24.952822,84.002396,NH3,2,5,3
India,Bihar,Sasaram,"Dada Peer, Sasaram - BSPCB",23-03-2026 08:00:00,24.952822,84.002396,CO,22,103,54
India,Bihar,Siwan,"Chitragupta Nagar, Siwan - BSPCB",23-03-2026 08:00:00,26.2271665,84.3570427,PM2.5,7,63,27
India,Bihar,Siwan,"Chitragupta Nagar, Siwan - BSPCB",23-03-2026 08:00:00,26.2271665,84.3570427,NO2,2,2,2
India,Bihar,Siwan,"Chitragupta Nagar, Siwan - BSPCB",23-03-2026 08:00:00,26.2271665,84.3570427,SO2,8,8,8
India,Bihar,Siwan,"Chitragupta Nagar, Siwan - BSPCB",23-03-2026 08:00:00,26.2271665,84.3570427,OZONE,13,15,14
India,Chandigarh,Chandigarh,"Sector 22, Chandigarh - CPCC",23-03-2026 08:00:00,30.735567,76.775714,SO2,3,14,8
India,Chandigarh,Chandigarh,"Sector-25, Chandigarh - CPCC",23-03-2026 08:00:00,30.751462,76.762879,NO2,NA,NA,NA
India,Chhattisgarh,Bhilai,"Civic Center, Bhilai - Bhilai Steel Plant",23-03-2026 08:00:00,21.185571,81.343175,PM10,14,95,38
India,Chhattisgarh,Bhilai,"Civic Center, Bhilai - Bhilai Steel Plant",23-03-2026 08:00:00,21.185571,81.343175,SO2,7,10,8
India,Chhattisgarh,Bhilai,"Civic Center, Bhilai - Bhilai Steel Plant",23-03-2026 08:00:00,21.185571,81.343175,OZONE,4,15,10
India,Chhattisgarh,Bhilai,"Hathkhoj, Bhilai - CECB",23-03-2026 08:00:00,21.224231,81.408350,NH3,4,6,5
India,Chhattisgarh,Chhal,"Nawapara SECL Colony, Chhal - CECB",23-03-2026 08:00:00,22.118125,83.140608,SO2,4,40,12
India,Bihar,Saharsa,"Police Line, Saharsa - BSPCB",23-03-2026 08:00:00,25.892357,86.590325,OZONE,9,16,10
India,Bihar,Samastipur,"DM Office_Kasipur, Samastipur - BSPCB",23-03-2026 08:00:00,25.859655,85.77944,PM2.5,17,322,174
India,Bihar,Samastipur,"DM Office_Kasipur, Samastipur - BSPCB",23-03-2026 08:00:00,25.859655,85.77944,PM10,16,199,113
India,Bihar,Samastipur,"DM Office_Kasipur, Samastipur - BSPCB",23-03-2026 08:00:00,25.859655,85.77944,CO,NA,NA,NA
India,Chhattisgarh,Korba,"Rampur, Korba - CECB",23-03-2026 08:00:00,22.368195,82.746431,NO2,NA,NA,NA
India,Chhattisgarh,Korba,"Urja Nagar, Korba - CECB",23-03-2026 08:00:00,22.348441,82.549611,CO,14,26,24
India,Bihar,Patna,"Rajbansi Nagar, Patna - BSPCB",23-03-2026 08:00:00,25.599486,85.113666,NO2,10,12,10
India,Bihar,Patna,"Samanpura, Patna - BSPCB",23-03-2026 08:00:00,25.596727,85.085624,NO2,32,51,40
India,Bihar,Patna,"Govt. High School Shikarpur, Patna - BSPCB",23-03-2026 08:00:00,25.592539,85.227158,OZONE,20,93,28
India,Bihar,Patna,"Rajbansi Nagar, Patna - BSPCB",23-03-2026 08:00:00,25.599486,85.113666,PM10,40,171,67
India,Chhattisgarh,Raipur,"AIIMS, Raipur - CECB",23-03-2026 08:00:00,21.258815,81.578979,PM10,18,140,63
India,Delhi,Delhi,"Mandir Marg, Delhi - DPCC",23-03-2026 08:00:00,28.636429,77.201067,SO2,10,34,25
India,Delhi,Delhi,"Mandir Marg, Delhi - DPCC",23-03-2026 08:00:00,28.636429,77.201067,CO,46,98,67
India,Delhi,Delhi,"Mundka, Delhi - DPCC",23-03-2026 08:00:00,28.684678,77.076574,CO,40,72,59
India,Delhi,Delhi,"Mundka, Delhi - DPCC",23-03-2026 08:00:00,28.684678,77.076574,OZONE,1,63,18
India,Delhi,Delhi,"NSIT Dwarka, Delhi - CPCB",23-03-2026 08:00:00,28.60909,77.0325413,PM2.5,67,371,201
India,Delhi,Delhi,"NSIT Dwarka, Delhi - CPCB",23-03-2026 08:00:00,28.60909,77.0325413,NH3,6,9,7
India,Delhi,Delhi,"NSIT Dwarka, Delhi - CPCB",23-03-2026 08:00:00,28.60909,77.0325413,OZONE,33,71,41
India,Delhi,Delhi,"NSUT Jaffarpur, Delhi - DPCC",23-03-2026 08:00:00,28.594004 ,76.909423 ,PM10,29,185,115
India,Delhi,Delhi,"NSUT Jaffarpur, Delhi - DPCC",23-03-2026 08:00:00,28.594004 ,76.909423 ,NO2,3,91,32
India,Delhi,Delhi,"Jawaharlal Nehru Stadium, Delhi - DPCC",23-03-2026 08:00:00,28.580280,77.233829,OZONE,1,145,26
India,Delhi,Delhi,"Lodhi Road, Delhi - IMD",23-03-2026 08:00:00,28.5918245,77.2273074,PM2.5,35,115,71
India,Delhi,Delhi,"Lodhi Road, Delhi - IMD",23-03-2026 08:00:00,28.5918245,77.2273074,OZONE,18,92,31
India,Delhi,Delhi,"Major Dhyan Chand National Stadium, Delhi - DPCC",23-03-2026 08:00:00,28.611281,77.237738,NO2,25,119,60
India,Delhi,Delhi,"Major Dhyan Chand National Stadium, Delhi - DPCC",23-03-2026 08:00:00,28.611281,77.237738,OZONE,2,128,28
India,Delhi,Delhi,"Mandir Marg, Delhi - DPCC",23-03-2026 08:00:00,28.636429,77.201067,PM10,73,164,117
India,Delhi,Delhi,"Najafgarh, Delhi - DPCC",23-03-2026 08:00:00,28.570173,76.933762,NO2,65,102,88
India,Delhi,Delhi,"Narela, Delhi - DPCC",23-03-2026 08:00:00,28.822836,77.101981,PM2.5,32,290,117
India,Delhi,Delhi,"Narela, Delhi - DPCC",23-03-2026 08:00:00,28.822836,77.101981,PM10,63,187,118
India,Delhi,Delhi,"Narela, Delhi - DPCC",23-03-2026 08:00:00,28.822836,77.101981,CO,34,68,48
India,Delhi,Delhi,"Nehru Nagar, Delhi - DPCC",23-03-2026 08:00:00,28.567890,77.250515,PM2.5,18,334,122
India,Delhi,Delhi,"New Moti Bagh, Delhi - MHUA",23-03-2026 08:00:00,28.57834,77.18400,NO2,9,9,9
India,Delhi,Delhi,"New Moti Bagh, Delhi - MHUA",23-03-2026 08:00:00,28.57834,77.18400,CO,14,77,53
India,Delhi,Delhi,"Bawana, Delhi - DPCC",23-03-2026 08:00:00,28.776200,77.051074,SO2,5,32,12
India,Delhi,Delhi,"Burari Crossing, Delhi - IMD",23-03-2026 08:00:00,28.7256504,77.2011573,PM2.5,5,206,82
India,Delhi,Delhi,"Burari Crossing, Delhi - IMD",23-03-2026 08:00:00,28.7256504,77.2011573,OZONE,50,173,55
India,Delhi,Delhi,"CRRI Mathura Road, Delhi - IMD",23-03-2026 08:00:00,28.5512005,77.2735737,PM2.5,22,242,83
India,Delhi,Delhi,"CRRI Mathura Road, Delhi - IMD",23-03-2026 08:00:00,28.5512005,77.2735737,PM10,64,366,136
India,Delhi,Delhi,"CRRI Mathura Road, Delhi - IMD",23-03-2026 08:00:00,28.5512005,77.2735737,OZONE,20,64,27
India,Delhi,Delhi,"Chandni Chowk, Delhi - IITM",23-03-2026 08:00:00,28.656756,77.227234,CO,104,126,107
India,Delhi,Delhi,"Chandni Chowk, Delhi - IITM",23-03-2026 08:00:00,28.656756,77.227234,OZONE,1,80,13
India,Delhi,Delhi,"Commonwealth Sports Complex, Delhi - DPCC",23-03-2026 08:00:00,28.615828 ,77.271992 ,PM2.5,39,219,107
India,Delhi,Delhi,"Commonwealth Sports Complex, Delhi - DPCC",23-03-2026 08:00:00,28.615828 ,77.271992 ,NH3,6,10,9
India,Delhi,Delhi,"Commonwealth Sports Complex, Delhi - DPCC",23-03-2026 08:00:00,28.615828 ,77.271992 ,SO2,52,54,53
India,Delhi,Delhi,"Dwarka-Sector 8, Delhi - DPCC ",23-03-2026 08:00:00,28.5710274,77.0719006,SO2,19,38,25
India,Delhi,Delhi,"IGI Airport (T3), Delhi - IMD",23-03-2026 08:00:00,28.5627763,77.1180053,PM10,30,181,112
India,Delhi,Delhi,"IGI Airport (T3), Delhi - IMD",23-03-2026 08:00:00,28.5627763,77.1180053,NO2,32,73,51
India,Delhi,Delhi,"IGNOU_Maidan Garhi, Delhi - DPCC",23-03-2026 08:00:00,28.493624 ,77.201159 ,PM10,38,218,121
India,Delhi,Delhi,"IGNOU_Maidan Garhi, Delhi - DPCC",23-03-2026 08:00:00,28.493624 ,77.201159 ,CO,113,128,122
India,Delhi,Delhi,"IHBAS, Dilshad Garden, Delhi - CPCB",23-03-2026 08:00:00,28.6811736,77.3025234,CO,46,133,99
India,Delhi,Delhi,"ITO, Delhi - CPCB",23-03-2026 08:00:00,28.628624,77.241060,SO2,12,33,22
India,Delhi,Delhi,"Patparganj, Delhi - DPCC",23-03-2026 08:00:00,28.623763,77.287209,PM2.5,27,240,97
India,Delhi,Delhi,"Patparganj, Delhi - DPCC",23-03-2026 08:00:00,28.623763,77.287209,NH3,8,9,8
India,Delhi,Delhi,"Patparganj, Delhi - DPCC",23-03-2026 08:00:00,28.623763,77.287209,SO2,7,24,13
India,Delhi,Delhi,"Punjabi Bagh, Delhi - DPCC",23-03-2026 08:00:00,28.674045,77.131023,PM10,52,190,123
India,Delhi,Delhi,"DTU, Delhi - CPCB",23-03-2026 08:00:00,28.7500499,77.1112615,SO2,27,31,29
India,Delhi,Delhi,"Dr. Karni Singh Shooting Range, Delhi - DPCC",23-03-2026 08:00:00,28.498571,77.264840,CO,28,94,46
India,Gujarat,Mehsana,"Sadanand Nagar, Mehsana - Nexteng Enviro",23-03-2026 08:00:00,23.593150,72.372792,NO2,43,60,51
India,Gujarat,Rajkot,"Mavdi, Rajkot - Nexteng Enviro ",23-03-2026 08:00:00,22.248853,70.776774,PM2.5,3,196,67
India,Gujarat,Rajkot,"Mavdi, Rajkot - Nexteng Enviro ",23-03-2026 08:00:00,22.248853,70.776774,NH3,2,11,4
India,Gujarat,Surat,"Katargam, Surat - Nexteng Enviro",23-03-2026 08:00:00,21.217779 ,72.834787 ,CO,46,60,51
India,Gujarat,Surat,"Science Center, Surat - SMC",23-03-2026 08:00:00,21.170046,72.795405,PM10,60,118,86
India,Gujarat,Surat,"Science Center, Surat - SMC",23-03-2026 08:00:00,21.170046,72.795405,NO2,19,28,23
India,Gujarat,Vadodara,"Bapunagar, Vadodara - Nexteng Enviro",23-03-2026 08:00:00,22.320153,73.216285,PM10,36,194,113
India,Gujarat,Vadodara,"Bapunagar, Vadodara - Nexteng Enviro",23-03-2026 08:00:00,22.320153,73.216285,NO2,2,36,14
India,Delhi,Delhi,"Vivek Vihar, Delhi - DPCC",23-03-2026 08:00:00,28.672342,77.315260,NH3,5,6,6
India,Delhi,Delhi,"Wazirpur, Delhi - DPCC",23-03-2026 08:00:00,28.699793,77.165453,OZONE,28,95,40
India,Gujarat,Ahmedabad,"Gyaspur, Ahmedabad - IITM",23-03-2026 08:00:00,22.977134,72.553024,SO2,23,136,91
India,Gujarat,Ahmedabad,"Gyaspur, Ahmedabad - IITM",23-03-2026 08:00:00,22.977134,72.553024,CO,10,100,38
India,Gujarat,Ahmedabad,"Maninagar, Ahmedabad - GPCB",23-03-2026 08:00:00,23.002657,72.591912,PM10,52,154,105
India,Gujarat,Ahmedabad,"Maninagar, Ahmedabad - GPCB",23-03-2026 08:00:00,23.002657,72.591912,NO2,85,93,87
India,Gujarat,Vadodara,"Bapunagar, Vadodara - Nexteng Enviro",23-03-2026 08:00:00,22.320153,73.216285,OZONE,2,9,2
India,Gujarat,Vatva,"Phase-4 GIDC, Vatva - GPCB",23-03-2026 08:00:00,22.969611,72.643500,NO2,69,136,102
India,Haryana,Bahadurgarh,"Arya Nagar, Bahadurgarh - HSPCB",23-03-2026 08:00:00,28.6701,76.9254,PM2.5,NA,NA,NA
India,Haryana,Bahadurgarh,"Arya Nagar, Bahadurgarh - HSPCB",23-03-2026 08:00:00,28.6701,76.9254,NO2,NA,NA,NA
India,Haryana,Ballabgarh,"Nathu Colony, Ballabgarh - HSPCB",23-03-2026 08:00:00,28.3419248,77.319699,NH3,3,3,3
India,Delhi,Delhi,"Shadipur, Delhi - CPCB",23-03-2026 08:00:00,28.6514781,77.1473105,NO2,35,61,49
India,Delhi,Delhi,"Sirifort, Delhi - CPCB",23-03-2026 08:00:00,28.5504249,77.2159377,PM2.5,40,319,131
India,Delhi,Delhi,"Sirifort, Delhi - CPCB",23-03-2026 08:00:00,28.5504249,77.2159377,OZONE,7,21,8
India,Delhi,Delhi,"Sonia Vihar, Delhi - DPCC",23-03-2026 08:00:00,28.710508,77.249485,NO2,11,44,24
India,Delhi,Delhi,"Sonia Vihar, Delhi - DPCC",23-03-2026 08:00:00,28.710508,77.249485,SO2,36,59,44
India,Delhi,Delhi,"Sri Aurobindo Marg, Delhi - DPCC",23-03-2026 08:00:00,28.531346,77.190156,CO,12,63,37
India,Gujarat,Ahmedabad,"Raikhad, Ahmedabad - IITM",23-03-2026 08:00:00,23.020509,72.579261,NH3,15,36,23
India,Gujarat,Ahmedabad,"Raikhad, Ahmedabad - IITM",23-03-2026 08:00:00,23.020509,72.579261,SO2,14,110,25
India,Gujarat,Ahmedabad,"Raikhad, Ahmedabad - IITM",23-03-2026 08:00:00,23.020509,72.579261,OZONE,1,47,7
India,Gujarat,Ahmedabad,"SAC ISRO Bopal, Ahmedabad - IITM",23-03-2026 08:00:00,23.041137,72.456691,NO2,10,52,24
India,Gujarat,Ahmedabad,"SAC ISRO Bopal, Ahmedabad - IITM",23-03-2026 08:00:00,23.041137,72.456691,CO,1,72,53
India,Gujarat,Ahmedabad,"SAC ISRO Satellite, Ahmedabad - IITM",23-03-2026 08:00:00,23.023389,72.515201,SO2,6,43,17
India,Gujarat,Bhavnagar,"Vidhyanagar, Bhavnagar - Nexteng Enviro",23-03-2026 08:00:00,21.755417,72.139056,NH3,2,3,2
India,Gujarat,Gandhinagar,"IIPHG Lekawada, Gandhinagar - IITM",23-03-2026 08:00:00,23.243639,72.68994,NH3,5,9,7
India,Gujarat,Gandhinagar,"Sector-10, Gandhinagar - GPCB",23-03-2026 08:00:00,23.221714,72.654328,PM2.5,55,205,99
India,Gujarat,Gandhinagar,"Sector-10, Gandhinagar - GPCB",23-03-2026 08:00:00,23.221714,72.654328,SO2,5,19,11
India,Gujarat,Gandhinagar,"Sector-10, Gandhinagar - GPCB",23-03-2026 08:00:00,23.221714,72.654328,OZONE,4,50,8
India,Delhi,Delhi,"Pusa, Delhi - IMD",23-03-2026 08:00:00,28.636110,77.173332,OZONE,3,303,46
India,Delhi,Delhi,"R K Puram, Delhi - DPCC",23-03-2026 08:00:00,28.563262,77.186937,PM2.5,30,356,165
India,Delhi,Delhi,"Rohini, Delhi - DPCC",23-03-2026 08:00:00,28.732528,77.119920,NO2,9,69,30
India,Delhi,Delhi,"Pusa, Delhi - DPCC",23-03-2026 08:00:00,28.639652,77.146275,NH3,4,24,17
India,Delhi,Delhi,"Pusa, Delhi - DPCC",23-03-2026 08:00:00,28.639652,77.146275,SO2,6,32,18
India,Delhi,Delhi,"Pusa, Delhi - IMD",23-03-2026 08:00:00,28.636110,77.173332,PM2.5,18,109,64
India,Delhi,Delhi,"Punjabi Bagh, Delhi - DPCC",23-03-2026 08:00:00,28.674045,77.131023,SO2,37,58,49
India,Delhi,Delhi,"Punjabi Bagh, Delhi - DPCC",23-03-2026 08:00:00,28.674045,77.131023,CO,34,74,46
India,Haryana,Panchgaon,"Amity University, Panchgaon - IITM",23-03-2026 08:00:00,28.3153,76.9143,CO,18,43,30
India,Haryana,Panipat,"Sector-18, Panipat - HSPCB",23-03-2026 08:00:00,29.432304,76.972765,SO2,NA,NA,NA
India,Haryana,Panipat,"Sector-18, Panipat - HSPCB",23-03-2026 08:00:00,29.432304,76.972765,CO,NA,NA,NA
India,Haryana,Rohtak,"MD University, Rohtak - HSPCB",23-03-2026 08:00:00,28.52123,76.37138,PM10,7,114,62
India,Haryana,Rohtak,"MD University, Rohtak - HSPCB",23-03-2026 08:00:00,28.52123,76.37138,OZONE,39,40,39
India,Haryana,Sonipat,"Murthal, Sonipat - HSPCB",23-03-2026 08:00:00,29.027200,77.062100,PM2.5,61,301,157
India,Haryana,Sonipat,"Murthal, Sonipat - HSPCB",23-03-2026 08:00:00,29.027200,77.062100,NO2,12,13,12
India,Haryana,Ballabgarh,"Nathu Colony, Ballabgarh - HSPCB",23-03-2026 08:00:00,28.3419248,77.319699,OZONE,4,8,6
India,Haryana,Bhiwani,"H.B. Colony, Bhiwani - HSPCB",23-03-2026 08:00:00,28.806223,76.141105,NH3,7,18,10
India,Haryana,Bhiwani,"H.B. Colony, Bhiwani - HSPCB",23-03-2026 08:00:00,28.806223,76.141105,CO,9,16,15
India,Haryana,Charkhi Dadri,"Mini Secretariat, Charkhi Dadri - HSPCB",23-03-2026 08:00:00,28.593883,76.270653,PM10,21,172,115
India,Haryana,Charkhi Dadri,"Mini Secretariat, Charkhi Dadri - HSPCB",23-03-2026 08:00:00,28.593883,76.270653,OZONE,14,17,16
India,Haryana,Dharuhera,"Municipal Corporation Office, Dharuhera -  HSPCB",23-03-2026 08:00:00,28.206800,76.799700,SO2,6,7,6
India,Haryana,Gurugram,"Sector-51, Gurugram - HSPCB",23-03-2026 08:00:00,28.4227,77.0667,NO2,4,10,6
India,Haryana,Gurugram,"Sector-51, Gurugram - HSPCB",23-03-2026 08:00:00,28.4227,77.0667,SO2,2,8,5
India,Haryana,Gurugram,"Sector-51, Gurugram - HSPCB",23-03-2026 08:00:00,28.4227,77.0667,CO,8,70,45
India,Haryana,Gurugram,"Teri Gram, Gurugram - HSPCB",23-03-2026 08:00:00,28.4275,77.1465,PM2.5,4,463,161
India,Haryana,Gurugram,"Teri Gram, Gurugram - HSPCB",23-03-2026 08:00:00,28.4275,77.1465,PM10,4,441,119
India,Haryana,Gurugram,"Teri Gram, Gurugram - HSPCB",23-03-2026 08:00:00,28.4275,77.1465,NO2,38,78,54
India,Haryana,Gurugram,"Vikas Sadan, Gurugram - HSPCB",23-03-2026 08:00:00,28.4501238,77.0263051,CO,60,114,96
India,Haryana,Faridabad,"Sector 11, Faridabad - HSPCB",23-03-2026 08:00:00,28.376058,77.315741,PM10,30,440,214
India,Haryana,Faridabad,"Sector 30, Faridabad - HSPCB",23-03-2026 08:00:00,28.4417,77.3217,SO2,4,5,4
India,Haryana,Fatehabad,"Huda Sector, Fatehabad - HSPCB",23-03-2026 08:00:00,29.503664,75.467934,NH3,13,15,14
India,Haryana,Gurugram,"NISE Gwal Pahari, Gurugram - IMD",23-03-2026 08:00:00,28.422681,77.148944,PM10,64,333,138
India,Haryana,Gurugram,"NISE Gwal Pahari, Gurugram - IMD",23-03-2026 08:00:00,28.422681,77.148944,CO,11,60,46
India,Haryana,Kurukshetra,"Sector-7, Kurukshetra - HSPCB",23-03-2026 08:00:00,29.966942,76.875879,OZONE,13,70,22
India,Haryana,Mandikhera,"General Hospital, Mandikhera(Nuh) - HSPCB",23-03-2026 08:00:00,27.9002,76.9938,PM10,18,77,48
India,Haryana,Narnaul,"Shastri Nagar, Narnaul - HSPCB",23-03-2026 08:00:00,28.060249,76.113115,NO2,22,29,25
India,Haryana,Palwal,"Shyam Nagar, Palwal - HSPCB",23-03-2026 08:00:00,28.1485564,77.3320667,NO2,23,24,24
India,Himachal Pradesh,Baddi,"HIMUDA Complex Phase-1, Baddi - HPPCB",23-03-2026 08:00:00,30.943887,76.801991,SO2,27,102,58
India,Himachal Pradesh,Baddi,"HIMUDA Complex Phase-1, Baddi - HPPCB",23-03-2026 08:00:00,30.943887,76.801991,CO,40,68,52
India,Jammu_and_Kashmir,Srinagar,"Rajbagh, Srinagar - JKPCC",23-03-2026 08:00:00,34.066206,74.819820,SO2,3,4,3
India,Haryana,Jind,"Police Lines, Jind - HSPCB",23-03-2026 08:00:00,29.307814,76.337619,PM10,39,70,54
India,Haryana,Jind,"Police Lines, Jind - HSPCB",23-03-2026 08:00:00,29.307814,76.337619,NH3,4,6,5
India,Haryana,Karnal,"Sector-12, Karnal - HSPCB",23-03-2026 08:00:00,29.695300,77.002700,PM10,18,104,61
India,Haryana,Karnal,"Sector-12, Karnal - HSPCB",23-03-2026 08:00:00,29.695300,77.002700,NH3,6,6,6
India,Karnataka,Bengaluru,"Bapuji Nagar, Bengaluru - KSPCB",23-03-2026 08:00:00,12.951913,77.539784,PM2.5,24,56,39
India,Karnataka,Bengaluru,"Bapuji Nagar, Bengaluru - KSPCB",23-03-2026 08:00:00,12.951913,77.539784,CO,12,34,24
India,Karnataka,Bengaluru,"Hebbal, Bengaluru - KSPCB",23-03-2026 08:00:00,13.029152,77.585901,CO,10,33,19
India,Karnataka,Bengaluru,"Hebbal, Bengaluru - KSPCB",23-03-2026 08:00:00,13.029152,77.585901,OZONE,7,11,10
India,Karnataka,Bengaluru,"BWSSB Kadabesanahalli, Bengaluru - CPCB",23-03-2026 08:00:00,12.9352049,77.6814488,SO2,3,14,6
India,Kerala,Thrissur,"Corporation Ground, Thrissur - Kerala PCB",23-03-2026 08:00:00,10.532400,76.215900,PM2.5,39,54,46
India,Kerala,Thrissur,"Corporation Ground, Thrissur - Kerala PCB",23-03-2026 08:00:00,10.532400,76.215900,PM10,62,83,71
India,Kerala,Thrissur,"Corporation Ground, Thrissur - Kerala PCB",23-03-2026 08:00:00,10.532400,76.215900,OZONE,30,31,30
India,Madhya Pradesh,Bhopal,"Idgah Hills, Bhopal - MPPCB",23-03-2026 08:00:00,23.264759,77.381568,NO2,15,74,30
India,Madhya Pradesh,Bhopal,"Paryavaran Parisar, Bhopal - MPPCB",23-03-2026 08:00:00,23.210494,77.425409,PM2.5,13,197,84
India,Madhya Pradesh,Bhopal,"Paryavaran Parisar, Bhopal - MPPCB",23-03-2026 08:00:00,23.210494,77.425409,PM10,36,211,104
India,Madhya Pradesh,Bhopal,"Paryavaran Parisar, Bhopal - MPPCB",23-03-2026 08:00:00,23.210494,77.425409,NH3,4,7,6
India,Madhya Pradesh,Bhopal,"T T Nagar, Bhopal - MPPCB",23-03-2026 08:00:00,23.233584,77.400574,PM10,50,152,86
India,Madhya Pradesh,Bhopal,"T T Nagar, Bhopal - MPPCB",23-03-2026 08:00:00,23.233584,77.400574,NH3,5,6,6
India,Madhya Pradesh,Dewas,"Bhopal Chauraha, Dewas - MPPCB",23-03-2026 08:00:00,22.9682591,76.064118,NH3,6,8,7
India,Karnataka,Udupi,"Brahmagiri, Udupi - KSPCB",23-03-2026 08:00:00,13.34194444,74.74694444,SO2,NA,NA,NA
India,Kerala,Kannur,"Thavakkara, Kannur - Kerala PCB",23-03-2026 08:00:00,11.875000,75.373200,NH3,2,2,2
India,Kerala,Kannur,"Thavakkara, Kannur - Kerala PCB",23-03-2026 08:00:00,11.875000,75.373200,SO2,1,8,3
India,Kerala,Kannur,"Thavakkara, Kannur - Kerala PCB",23-03-2026 08:00:00,11.875000,75.373200,OZONE,27,32,27
India,Kerala,Kollam,"Polayathode, Kollam - Kerala PCB",23-03-2026 08:00:00,8.8787,76.6073,PM2.5,41,51,46
India,Kerala,Kollam,"Polayathode, Kollam - Kerala PCB",23-03-2026 08:00:00,8.8787,76.6073,PM10,71,80,76
India,Kerala,Kollam,"Polayathode, Kollam - Kerala PCB",23-03-2026 08:00:00,8.8787,76.6073,CO,14,18,16
India,Kerala,Kollam,"Polayathode, Kollam - Kerala PCB",23-03-2026 08:00:00,8.8787,76.6073,OZONE,31,37,32
India,Kerala,Thiruvananthapuram,"Plammoodu, Thiruvananthapuram - Kerala PCB",23-03-2026 08:00:00,8.5149093,76.9435879,PM10,32,58,40
India,Madhya Pradesh,Indore,"Residency Area, Indore - IMC",23-03-2026 08:00:00,22.7084,75.8815,CO,34,88,75
India,Madhya Pradesh,Jabalpur,"Govindh Bhavan Colony, Jabalpur - JMC",23-03-2026 08:00:00,23.163174,79.973061,CO,14,28,19
India,Madhya Pradesh,Jabalpur,"Gupteshwar, Jabalpur - JMC",23-03-2026 08:00:00,23.142888,79.916147,NO2,2,3,3
India,Madhya Pradesh,Jabalpur,"Gupteshwar, Jabalpur - JMC",23-03-2026 08:00:00,23.142888,79.916147,CO,26,123,40
India,Madhya Pradesh,Jabalpur,"Marhatal, Jabalpur - MPPCB",23-03-2026 08:00:00,23.168606,79.932247,NO2,27,40,31
India,Madhya Pradesh,Jabalpur,"Suhagi, Jabalpur - JMC",23-03-2026 08:00:00,23.218135,79.957770,NH3,4,6,5
India,Madhya Pradesh,Katni,"Gole Bazar, Katni - MPPCB",23-03-2026 08:00:00,23.50016,80.23284,PM2.5,30,401,136
India,Madhya Pradesh,Katni,"Gole Bazar, Katni - MPPCB",23-03-2026 08:00:00,23.50016,80.23284,NO2,17,46,32
India,Karnataka,Chamarajanagar,"Urban, Chamarajanagar - KSPCB",23-03-2026 08:00:00,11.55358,76.55521,CO,NA,NA,NA
India,Karnataka,Chikkamagaluru,"Kalyana Nagara, Chikkamagaluru - KSPCB",23-03-2026 08:00:00,13.328028,75.797056,NH3,2,3,3
India,Karnataka,Dharwad,"Kalabhavan, Dharwad - KSPCB",23-03-2026 08:00:00,15.459706,75.008381,OZONE,27,27,27
India,Karnataka,Hubballi,"Lingaraj Nagar, Hubballi - KSPCB",23-03-2026 08:00:00,15.3714823,75.1160168,PM2.5,47,48,47
India,Karnataka,Hubballi,"Lingaraj Nagar, Hubballi - KSPCB",23-03-2026 08:00:00,15.3714823,75.1160168,PM10,68,69,68
India,Karnataka,Hubballi,"Lingaraj Nagar, Hubballi - KSPCB",23-03-2026 08:00:00,15.3714823,75.1160168,NO2,7,7,7
India,Karnataka,Hubballi,"Lingaraj Nagar, Hubballi - KSPCB",23-03-2026 08:00:00,15.3714823,75.1160168,OZONE,26,27,26
India,Karnataka,Koppal,"Diwator Nagar, Koppal - KSPCB",23-03-2026 08:00:00,15.347630,76.181767,PM10,NA,NA,NA
India,Madhya Pradesh,Indore,"Airport Area, Indore - IMC",23-03-2026 08:00:00,22.7289,75.8076,OZONE,7,20,9
India,Madhya Pradesh,Indore,"Chhoti Gwaltoli, Indore - MPPCB",23-03-2026 08:00:00,22.4310,75.5213,CO,23,122,83
India,Madhya Pradesh,Indore,"Regional Park, Indore - IMC",23-03-2026 08:00:00,22.6780,75.8559,PM2.5,20,118,46
India,Madhya Pradesh,Indore,"Regional Park, Indore - IMC",23-03-2026 08:00:00,22.6780,75.8559,PM10,17,94,40
India,Madhya Pradesh,Indore,"Regional Park, Indore - IMC",23-03-2026 08:00:00,22.6780,75.8559,CO,10,24,22
India,Madhya Pradesh,Indore,"Residency Area, Indore - IMC",23-03-2026 08:00:00,22.7084,75.8815,PM10,27,122,68
India,Madhya Pradesh,Dewas,"Bhopal Chauraha, Dewas - MPPCB",23-03-2026 08:00:00,22.9682591,76.064118,SO2,35,83,63
India,Madhya Pradesh,Gwalior,"City Center, Gwalior - MPPCB",23-03-2026 08:00:00,26.203442,78.193251,PM2.5,23,306,101
India,Madhya Pradesh,Gwalior,"Maharaj Bada, Gwalior - MPPCB",23-03-2026 08:00:00,26.200388,78.147714,SO2,3,105,16
India,Madhya Pradesh,Indore,"Airport Area, Indore - IMC",23-03-2026 08:00:00,22.7289,75.8076,PM10,60,268,110
India,Karnataka,Bengaluru,"Hombegowda Nagar, Bengaluru - KSPCB",23-03-2026 08:00:00,12.938539,77.590100,NO2,15,36,23
India,Karnataka,Bengaluru,"Hombegowda Nagar, Bengaluru - KSPCB",23-03-2026 08:00:00,12.938539,77.590100,NH3,4,18,6
India,Karnataka,Bengaluru,"Jayanagar 5th Block, Bengaluru - KSPCB",23-03-2026 08:00:00,12.920984,77.584908,PM2.5,60,102,79
India,Karnataka,Bengaluru,"Jayanagar 5th Block, Bengaluru - KSPCB",23-03-2026 08:00:00,12.920984,77.584908,PM10,61,109,86
India,Karnataka,Bengaluru,"Shivapura_Peenya, Bengaluru - KSPCB",23-03-2026 08:00:00,13.0246342,77.5080115,NH3,4,4,4
India,Madhya Pradesh,Mandideep,"Sector-D Industrial Area, Mandideep - MPPCB",23-03-2026 08:00:00,23.108440,77.511428,PM10,46,452,186
India,Madhya Pradesh,Mandideep,"Sector-D Industrial Area, Mandideep - MPPCB",23-03-2026 08:00:00,23.108440,77.511428,OZONE,31,47,34
India,Madhya Pradesh,Pithampur,"Sector-2 Industrial Area, Pithampur - MPPCB",23-03-2026 08:00:00,22.624758,75.675238,CO,5,54,30
India,Madhya Pradesh,Ratlam,"Shasthri Nagar, Ratlam - IPCA Lab",23-03-2026 08:00:00,23.331731,75.045981,SO2,38,42,40
India,Karnataka,Mangalore,"Kadri, Mangalore - KSPCB",23-03-2026 08:00:00,12.889250,74.853000,PM2.5,40,68,53
India,Karnataka,Mysuru,"Hebbal 1st Stage, Mysuru - KSPCB",23-03-2026 08:00:00,12.21041,76.37376,NO2,NA,NA,NA
India,Maharashtra,Hingoli,"Ashta Vinayak Nagar, Hingoli - MPCB",23-03-2026 08:00:00,19.710842,77.151824,OZONE,17,205,38
India,Maharashtra,Jalgaon,"Prabhat Colony, Jalgaon - MPCB",23-03-2026 08:00:00,21.001264,75.565602,PM2.5,37,189,86
India,Maharashtra,Jalgaon,"Prabhat Colony, Jalgaon - MPCB",23-03-2026 08:00:00,21.001264,75.565602,NO2,3,30,13
India,Maharashtra,Jalgaon,"Prabhat Colony, Jalgaon - MPCB",23-03-2026 08:00:00,21.001264,75.565602,CO,18,63,23
India,Maharashtra,Jalna,"Old MIDC, Jalna - MPCB",23-03-2026 08:00:00,19.854616,75.905894,PM2.5,28,59,40
India,Maharashtra,Jalna,"Old MIDC, Jalna - MPCB",23-03-2026 08:00:00,19.854616,75.905894,SO2,36,85,44
India,Maharashtra,Kalyan,"Pimpleshwar Mandir, Kalyan - MPCB",23-03-2026 08:00:00,19.192056,72.9585188,NO2,12,14,12
India,Maharashtra,Kalyan,"Pimpleshwar Mandir, Kalyan - MPCB",23-03-2026 08:00:00,19.192056,72.9585188,SO2,14,31,23
India,Maharashtra,Kolhapur,"Shivaji University, Kolhapur - MPCB",23-03-2026 08:00:00,16.6870449,74.2505872,NO2,15,48,29
India,Maharashtra,Kolhapur,"Sinchan Bhavan, Kolhapur - MPCB",23-03-2026 08:00:00,16.7143745,74.2426398,SO2,2,8,5
India,Maharashtra,Kolhapur,"Sinchan Bhavan, Kolhapur - MPCB",23-03-2026 08:00:00,16.7143745,74.2426398,CO,10,42,25
India,Maharashtra,Latur,"Sawe Wadi, Latur - MPCB",23-03-2026 08:00:00,18.39963,76.57452,PM2.5,36,87,60
India,Maharashtra,Latur,"Sawe Wadi, Latur - MPCB",23-03-2026 08:00:00,18.39963,76.57452,SO2,NA,NA,NA
India,Maharashtra,Latur,"Sawe Wadi, Latur - MPCB",23-03-2026 08:00:00,18.39963,76.57452,CO,16,72,36
India,Maharashtra,Mahad,"Kamble Tarf Birwadi, Mahad - MPCB",23-03-2026 08:00:00,18.1023399,73.4783687,NO2,11,20,14
India,Maharashtra,Malegaon,"Mahesh Nagar, Malegaon - MPCB",23-03-2026 08:00:00,20.555712,74.529236,NH3,NA,NA,NA
India,Maharashtra,Mira-Bhayandar,"Bhayandar West, Mira-Bhayandar - MPCB",23-03-2026 08:00:00,19.296481,72.840923,PM10,NA,NA,NA
India,Maharashtra,Aurangabad,"Rachnakar Colony, Aurangabad - MPCB",23-03-2026 08:00:00,19.863756,75.321188,PM2.5,29,71,48
India,Maharashtra,Aurangabad,"Rachnakar Colony, Aurangabad - MPCB",23-03-2026 08:00:00,19.863756,75.321188,OZONE,15,81,19
India,Maharashtra,Badlapur,"Katrap, Badlapur - MPCB",23-03-2026 08:00:00,19.16485,73.23409,OZONE,12,82,14
India,Maharashtra,Beed,"Bir, Beed - MPCB",23-03-2026 08:00:00,18.988474,75.753873,PM10,30,203,74
India,Maharashtra,Beed,"Bir, Beed - MPCB",23-03-2026 08:00:00,18.988474,75.753873,SO2,5,36,14
India,Maharashtra,Beed,"Bir, Beed - MPCB",23-03-2026 08:00:00,18.988474,75.753873,OZONE,1,56,13
India,Maharashtra,Belapur,"CBD Belapur, Belapur - MPCB",23-03-2026 08:00:00,19.0243902,73.0406721,NO2,14,33,24
India,Maharashtra,Bhiwandi,"Gokul Nagar, Bhiwandi - MPCB",23-03-2026 08:00:00,19.309073,73.057223,NO2,10,45,26
India,Maharashtra,Ahmednagar,"Tarakpur, Ahmednagar - MPCB",23-03-2026 08:00:00,19.10122,74.73339,OZONE,5,124,34
India,Maharashtra,Amravati,"Shivneri Colony, Amravati - MPCB",23-03-2026 08:00:00,20.9402359,77.7895248,NO2,6,61,19
India,Maharashtra,Amravati,"Shri Shivaji Science College, Amravati - MPCB",23-03-2026 08:00:00,20.939198,77.765701,CO,31,119,46
India,Maharashtra,Amravati,"Shri Shivaji Science College, Amravati - MPCB",23-03-2026 08:00:00,20.939198,77.765701,OZONE,4,69,46
India,Maharashtra,Aurangabad,"MIDC Chilkalthana, Aurangabad - MPCB",23-03-2026 08:00:00,19.875620,75.387310,PM10,36,112,77
India,Maharashtra,Aurangabad,"MIDC Chilkalthana, Aurangabad - MPCB",23-03-2026 08:00:00,19.875620,75.387310,NO2,4,104,52
India,Maharashtra,Chandrapur,"Chauhan Colony, Chandrapur - MPCB",23-03-2026 08:00:00,19.962900,79.298714,SO2,18,35,28
India,Maharashtra,Chandrapur,"Chauhan Colony, Chandrapur - MPCB",23-03-2026 08:00:00,19.962900,79.298714,CO,22,30,27
India,Maharashtra,Chandrapur,"MIDC Khutala, Chandrapur - MPCB",23-03-2026 08:00:00,19.9775302,79.2337086,PM10,51,152,97
India,Maharashtra,Dhule,"Deopur, Dhule - MPCB",23-03-2026 08:00:00,20.918946,74.776388,CO,2,111,13
India,Maharashtra,Dhule,"Deopur, Dhule - MPCB",23-03-2026 08:00:00,20.918946,74.776388,OZONE,29,63,32
India,Maharashtra,Dombivli,"Kalu Nagar, Dombivli - MPCB",23-03-2026 08:00:00,19.2268427 ,73.0788456 ,NO2,14,83,28
India,Madhya Pradesh,Sagar,"Deen Dayal Nagar, Sagar - MPPCB",23-03-2026 08:00:00,23.8640158,78.80289321,SO2,2,4,3
India,Madhya Pradesh,Satna,"Bandhavgar Colony, Satna - Birla Cement",23-03-2026 08:00:00,24.58434363,80.8549414,CO,16,62,28
India,Madhya Pradesh,Singrauli,"Suryakiran Bhawan NCL, Singrauli - MPPCB",23-03-2026 08:00:00,24.108970,82.645580,PM2.5,32,362,127
India,Maharashtra,Ahmednagar,"Tarakpur, Ahmednagar - MPCB",23-03-2026 08:00:00,19.10122,74.73339,NH3,5,6,6
India,Maharashtra,Mumbai,"Ghatkopar, Mumbai - BMC",23-03-2026 08:00:00,19.083694,72.920967,PM10,92,108,99
India,Maharashtra,Mumbai,"Ghatkopar, Mumbai - BMC",23-03-2026 08:00:00,19.083694,72.920967,NH3,8,8,8
India,Maharashtra,Mumbai,"Kandivali East, Mumbai - MPCB",23-03-2026 08:00:00,19.205800,72.868200,CO,30,35,33
India,Maharashtra,Mumbai,"Kherwadi_Bandra East, Mumbai - MPCB",23-03-2026 08:00:00,19.0632143,72.8456324,NO2,6,65,26
India,Maharashtra,Mumbai,"Kherwadi_Bandra East, Mumbai - MPCB",23-03-2026 08:00:00,19.0632143,72.8456324,OZONE,1,87,1
India,Maharashtra,Mumbai,"Borivali East, Mumbai - IITM",23-03-2026 08:00:00,19.23241,72.86895,NO2,16,58,32
India,Maharashtra,Mumbai,"Borivali East, Mumbai - IITM",23-03-2026 08:00:00,19.23241,72.86895,NH3,4,9,7
India,Maharashtra,Mumbai,"Borivali East, Mumbai - MPCB",23-03-2026 08:00:00,19.2243333,72.8658113,SO2,13,19,16
India,Maharashtra,Mumbai,"Chakala-Andheri East, Mumbai - IITM",23-03-2026 08:00:00,19.11074,72.86084,PM10,NA,NA,NA
India,Maharashtra,Chandrapur,"Chauhan Colony, Chandrapur - MPCB",23-03-2026 08:00:00,19.962900,79.298714,PM10,44,194,110
India,Maharashtra,Chandrapur,"Chauhan Colony, Chandrapur - MPCB",23-03-2026 08:00:00,19.962900,79.298714,NH3,1,2,1
India,Maharashtra,Navi Mumbai,"Nerul, Navi Mumbai - MPCB",23-03-2026 08:00:00,19.008751,73.016620,PM10,NA,NA,NA
India,Maharashtra,Navi Mumbai,"Nerul, Navi Mumbai - MPCB",23-03-2026 08:00:00,19.008751,73.016620,NH3,6,6,6
India,Maharashtra,Navi Mumbai,"Sanpada, Navi Mumbai - MPCB",23-03-2026 08:00:00,19.0575752,73.0151367,NO2,8,44,18
India,Maharashtra,Navi Mumbai,"Sector-2E Kalamboli, Navi Mumbai - MPCB",23-03-2026 08:00:00,19.02579,73.10297,PM10,109,381,172
India,Maharashtra,Navi Mumbai,"Tondare-Taloja, Navi Mumbai - MPCB",23-03-2026 08:00:00,19.0630,73.1209,PM10,48,160,95
India,Maharashtra,Parbhani,"Masoom Colony, Parbhani - MPCB",23-03-2026 08:00:00,19.265594,76.761463,PM2.5,19,81,39
India,Maharashtra,Parbhani,"Masoom Colony, Parbhani - MPCB",23-03-2026 08:00:00,19.265594,76.761463,NO2,NA,NA,NA
India,Maharashtra,Parbhani,"Masoom Colony, Parbhani - MPCB",23-03-2026 08:00:00,19.265594,76.761463,NH3,3,5,4
India,Maharashtra,Mumbai,"Shivaji Nagar, Mumbai - BMC",23-03-2026 08:00:00,19.060498,72.923356,PM2.5,42,99,66
India,Maharashtra,Mumbai,"Shivaji Nagar, Mumbai - BMC",23-03-2026 08:00:00,19.060498,72.923356,NH3,2,26,7
India,Maharashtra,Mumbai,"Siddharth Nagar-Worli, Mumbai - IITM",23-03-2026 08:00:00,19.000083,72.813993,PM2.5,61,81,71
India,Maharashtra,Mumbai,"Siddharth Nagar-Worli, Mumbai - IITM",23-03-2026 08:00:00,19.000083,72.813993,NH3,4,7,5
India,Maharashtra,Mumbai,"Sion, Mumbai - MPCB",23-03-2026 08:00:00,19.047000,72.874600,NO2,27,31,29
India,Maharashtra,Mumbai,"Worli, Mumbai -MPCB",23-03-2026 08:00:00,18.9942180,72.8158167,PM2.5,27,82,48
India,Maharashtra,Mumbai,"Worli, Mumbai -MPCB",23-03-2026 08:00:00,18.9942180,72.8158167,PM10,43,163,85
India,Maharashtra,Mumbai,"Worli, Mumbai -MPCB",23-03-2026 08:00:00,18.9942180,72.8158167,NH3,3,3,3
India,Maharashtra,Nagpur,"Ambazari, Nagpur - MPCB",23-03-2026 08:00:00,21.121801,79.04952,PM10,41,107,70
India,Maharashtra,Nagpur,"Ambazari, Nagpur - MPCB",23-03-2026 08:00:00,21.121801,79.04952,NH3,1,12,5
India,Maharashtra,Nagpur,"Ambazari, Nagpur - MPCB",23-03-2026 08:00:00,21.121801,79.04952,OZONE,3,83,7
India,Maharashtra,Nagpur,"Mahal, Nagpur - MPCB",23-03-2026 08:00:00,21.14472,79.107595,NH3,6,8,7
India,Maharashtra,Nagpur,"Mahal, Nagpur - MPCB",23-03-2026 08:00:00,21.14472,79.107595,SO2,6,88,44
India,Maharashtra,Nashik,"Pandav Nagari, Nashik - MPCB",23-03-2026 08:00:00,19.9591346,73.7788008,OZONE,24,92,54
India,Maharashtra,Navi Mumbai,"Kopripada-Vashi, Navi Mumbai - MPCB",23-03-2026 08:00:00,19.090337,73.014232,PM10,98,102,100
India,Maharashtra,Navi Mumbai,"Kopripada-Vashi, Navi Mumbai - MPCB",23-03-2026 08:00:00,19.090337,73.014232,NH3,4,4,4
India,Maharashtra,Navi Mumbai,"Mahape, Navi Mumbai - MPCB",23-03-2026 08:00:00,19.1135051,73.008978,PM10,52,142,70
India,Maharashtra,Navi Mumbai,"Mahape, Navi Mumbai - MPCB",23-03-2026 08:00:00,19.1135051,73.008978,SO2,18,20,19
India,Maharashtra,Mumbai,"Mulund West, Mumbai - MPCB",23-03-2026 08:00:00,19.1750,72.9419,NH3,NA,NA,NA
India,Maharashtra,Mumbai,"Navy Nagar-Colaba, Mumbai - IITM",23-03-2026 08:00:00,18.897756,72.813320,PM2.5,52,78,65
India,Maharashtra,Mumbai,"Navy Nagar-Colaba, Mumbai - IITM",23-03-2026 08:00:00,18.897756,72.813320,PM10,74,107,95
India,Maharashtra,Mumbai,"Navy Nagar-Colaba, Mumbai - IITM",23-03-2026 08:00:00,18.897756,72.813320,NH3,5,12,8
India,Maharashtra,Mumbai,"Navy Nagar-Colaba, Mumbai - IITM",23-03-2026 08:00:00,18.897756,72.813320,CO,24,70,47
India,Maharashtra,Mumbai,"Kurla, Mumbai - MPCB",23-03-2026 08:00:00,19.0863,72.8888,NH3,1,3,2
India,Maharashtra,Mumbai,"Kurla, Mumbai - MPCB",23-03-2026 08:00:00,19.0863,72.8888,CO,10,34,28
India,Maharashtra,Mumbai,"Mazgaon, Mumbai - IITM",23-03-2026 08:00:00,18.96702,72.84214,PM2.5,35,68,55
India,Maharashtra,Pimpri-Chinchwad,"Gavalinagar, Pimpri Chinchwad - MPCB",23-03-2026 08:00:00,18.63673,73.82487,NO2,13,74,35
India,Maharashtra,Pimpri-Chinchwad,"Park Street Wakad, Pimpri Chinchwad - MPCB",23-03-2026 08:00:00,18.59051,73.77946,PM2.5,57,149,93
India,Maharashtra,Nanded,"Sneh Nagar, Nanded - MPCB",23-03-2026 08:00:00,19.173852,77.296291,PM10,NA,NA,NA
India,Maharashtra,Nanded,"Sneh Nagar, Nanded - MPCB",23-03-2026 08:00:00,19.173852,77.296291,NH3,2,6,4
India,Maharashtra,Nashik,"Pandav Nagari, Nashik - MPCB",23-03-2026 08:00:00,19.9591346,73.7788008,NH3,2,5,3
India,Maharashtra,Nashik,"Pandav Nagari, Nashik - MPCB",23-03-2026 08:00:00,19.9591346,73.7788008,SO2,5,81,17
India,Odisha,Rourkela,"Fertilizer Township, Rourkela - OSPCB",23-03-2026 08:00:00,22.18972222,84.86277778,SO2,11,14,12
India,Odisha,Rourkela,"Raghunathpali, Rourkela - OSPCB",23-03-2026 08:00:00,22.220833,84.809444,PM2.5,44,153,86
India,Odisha,Rourkela,"Raghunathpali, Rourkela - OSPCB",23-03-2026 08:00:00,22.220833,84.809444,NO2,15,15,15
India,Odisha,Rourkela,"Raghunathpali, Rourkela - OSPCB",23-03-2026 08:00:00,22.220833,84.809444,NH3,1,2,2
India,Odisha,Rourkela,"Raghunathpali, Rourkela - OSPCB",23-03-2026 08:00:00,22.220833,84.809444,CO,24,101,50
India,Odisha,Rourkela,"Raghunathpali, Rourkela - OSPCB",23-03-2026 08:00:00,22.220833,84.809444,OZONE,7,23,21
India,Odisha,Rourkela,"Sector-2, Rourkela - OSPCB",23-03-2026 08:00:00,22.24500000,84.88111111,NO2,17,17,17
India,Odisha,Rourkela,"Sector-2, Rourkela - OSPCB",23-03-2026 08:00:00,22.24500000,84.88111111,CO,31,60,35
India,Odisha,Talcher,"Talcher Coalfields,Talcher - OSPCB",23-03-2026 08:00:00,20.9360711,85.1707021,PM2.5,14,276,117
India,Odisha,Talcher,"Talcher Coalfields,Talcher - OSPCB",23-03-2026 08:00:00,20.9360711,85.1707021,CO,2,36,18
India,Odisha,Talcher,"Talcher Coalfields,Talcher - OSPCB",23-03-2026 08:00:00,20.9360711,85.1707021,OZONE,13,88,47
India,Odisha,Tensa,"Barsua Iron Ore Mines, Tensa - OSPCB",23-03-2026 08:00:00,21.869985,85.167016,PM10,26,57,40
India,Odisha,Tensa,"Barsua Iron Ore Mines, Tensa - OSPCB",23-03-2026 08:00:00,21.869985,85.167016,OZONE,5,11,6
India,Puducherry,Puducherry,"Jawahar Nagar, Puducherry - PPCC",23-03-2026 08:00:00,11.9309,79.8027,PM10,6,109,22
India,Puducherry,Puducherry,"Jawahar Nagar, Puducherry - PPCC",23-03-2026 08:00:00,11.9309,79.8027,NO2,2,27,8
India,Punjab,Amritsar,"Golden Temple, Amritsar - PPCB",23-03-2026 08:00:00,31.620000,74.876512,SO2,14,20,16
India,Maharashtra,Pune,"Panchawati_Pashan, Pune - IITM",23-03-2026 08:00:00,18.536457,73.805454,PM10,50,107,86
India,Maharashtra,Pune,"Revenue Colony-Shivajinagar, Pune - IITM",23-03-2026 08:00:00,18.530085,73.849598,SO2,20,54,35
India,Maharashtra,Pune,"Transport Nagar-Nigdi, Pune - IITM",23-03-2026 08:00:00,18.664282,73.763966,PM10,54,132,88
India,Maharashtra,Sangli,"Vijay Nagar, Sangli - MPCB",23-03-2026 08:00:00, 16.5038,74.3623,OZONE,6,65,18
India,Maharashtra,Solapur,"Dnyaneshwar Nagar, Solapur - MPCB",23-03-2026 08:00:00,17.6336264,75.9132495,PM2.5,42,66,50
India,Maharashtra,Solapur,"Dnyaneshwar Nagar, Solapur - MPCB",23-03-2026 08:00:00,17.6336264,75.9132495,PM10,66,93,80
India,Maharashtra,Solapur,"Dnyaneshwar Nagar, Solapur - MPCB",23-03-2026 08:00:00,17.6336264,75.9132495,SO2,3,8,6
India,Maharashtra,Solapur,"Dnyaneshwar Nagar, Solapur - MPCB",23-03-2026 08:00:00,17.6336264,75.9132495,OZONE,18,78,39
India,Odisha,Baripada,"Meher Colony, Baripada - OSPCB",23-03-2026 08:00:00,21.941841,86.728318,CO,8,30,19
India,Odisha,Bhubaneswar,"Lingraj Mandir, Bhubaneswar - OSPCB",23-03-2026 08:00:00,20.240790,85.836784,PM2.5,NA,NA,NA
India,Odisha,Bhubaneswar,"Lingraj Mandir, Bhubaneswar - OSPCB",23-03-2026 08:00:00,20.240790,85.836784,NH3,6,9,7
India,Odisha,Bhubaneswar,"Patia, Bhubaneswar - OSPCB",23-03-2026 08:00:00,20.34652,85.81630,NH3,3,7,5
India,Odisha,Brajrajnagar,"GM Office, Brajrajnagar - OSPCB",23-03-2026 08:00:00,21.8004996,83.8396977,PM10,14,144,83
India,Odisha,Brajrajnagar,"GM Office, Brajrajnagar - OSPCB",23-03-2026 08:00:00,21.8004996,83.8396977,CO,46,72,49
India,Odisha,Cuttack,"CDA Area, Cuttack - OSPCB",23-03-2026 08:00:00,20.48891     ,85.84768     ,PM2.5,27,75,52
India,Odisha,Cuttack,"CDA Area, Cuttack - OSPCB",23-03-2026 08:00:00,20.48891     ,85.84768     ,NH3,2,2,2
India,Odisha,Keonjhar,"Jagamohanpur, Keonjhar - OSPCB",23-03-2026 08:00:00,21.643900,85.599355,OZONE,1,41,6
India,Odisha,Nayagarh,"Dabuna, Nayagarh - OSPCB",23-03-2026 08:00:00,21.847279,85.416905,PM2.5,23,69,42
India,Odisha,Nayagarh,"Dabuna, Nayagarh - OSPCB",23-03-2026 08:00:00,21.847279,85.416905,PM10,38,148,91
India,Odisha,Nayagarh,"Dabuna, Nayagarh - OSPCB",23-03-2026 08:00:00,21.847279,85.416905,NO2,7,8,8
India,Odisha,Nayagarh,"Dabuna, Nayagarh - OSPCB",23-03-2026 08:00:00,21.847279,85.416905,CO,7,20,17
India,Odisha,Rairangpur,"Divisional Forest Office, Rairangpur - OSPCB",23-03-2026 08:00:00,22.265816,86.174829,PM10,31,84,54
India,Odisha,Rairangpur,"Divisional Forest Office, Rairangpur - OSPCB",23-03-2026 08:00:00,22.265816,86.174829,OZONE,2,39,7
India,Maharashtra,Pune,"Bhumkar Nagar, Pune - IITM",23-03-2026 08:00:00,18.605770,73.749976,PM10,115,202,156
India,Maharashtra,Pune,"Bhumkar Nagar, Pune - IITM",23-03-2026 08:00:00,18.605770,73.749976,NO2,16,113,46
India,Maharashtra,Pune,"Dhankawadi, Pune - IITM",23-03-2026 08:00:00,18.459883,73.852193,OZONE,2,63,6
India,Maharashtra,Pune,"Hadapsar, Pune - IITM",23-03-2026 08:00:00,18.501793,73.927532,PM10,53,192,110
India,Maharashtra,Pune,"Hadapsar, Pune - IITM",23-03-2026 08:00:00,18.501793,73.927532,CO,26,126,86
India,Maharashtra,Ulhasnagar,"Vithalwadi, Ulhasnagar - MPCB",23-03-2026 08:00:00,19.2307571 ,73.1551920,OZONE,3,134,26
India,Maharashtra,Virar,"Bolinj, Virar - MPCB",23-03-2026 08:00:00,19.4458210,72.7988231,NO2,14,65,28
India,Maharashtra,Virar,"Bolinj, Virar - MPCB",23-03-2026 08:00:00,19.4458210,72.7988231,SO2,17,41,24
India,Maharashtra,Virar,"Bolinj, Virar - MPCB",23-03-2026 08:00:00,19.4458210,72.7988231,CO,15,56,39
India,Maharashtra,Solapur,"Ratandeep Housing Society, Solapur - MPCB",23-03-2026 08:00:00,17.65439,75.90649,NO2,13,117,51
India,Maharashtra,Solapur,"Ratandeep Housing Society, Solapur - MPCB",23-03-2026 08:00:00,17.65439,75.90649,OZONE,2,42,16
India,Maharashtra,Thane,"Kasarvadavali, Thane - MPCB",23-03-2026 08:00:00,19.26777,72.97182,NH3,3,14,5
India,Mizoram,Aizawl,"Sikulpuikawn, Aizawl - Mizoram PCB",23-03-2026 08:00:00,23.7176342,92.7192841,SO2,NA,NA,NA
India,Nagaland,Kohima,"PWD Junction, Kohima - NPCB",23-03-2026 08:00:00,25.6635413,94.0989878,CO,2,14,3
India,Nagaland,Kohima,"PWD Junction, Kohima - NPCB",23-03-2026 08:00:00,25.6635413,94.0989878,OZONE,NA,NA,NA
India,Odisha,Balasore,"Kalidaspur, Balasore - OSPCB",23-03-2026 08:00:00,21.51161,86.89088,PM2.5,22,92,43
India,Rajasthan,Jodhpur,"Samrat Ashok Udhyan, Jodhpur - RSPCB",23-03-2026 08:00:00,26.253384,72.976571,OZONE,30,140,51
India,Rajasthan,Karauli,"Satyawati Vihar, Karauli - RSPCB",23-03-2026 08:00:00,26.506177,77.025989,PM2.5,17,181,50
India,Rajasthan,Karauli,"Satyawati Vihar, Karauli - RSPCB",23-03-2026 08:00:00,26.506177,77.025989,NO2,8,72,25
India,Rajasthan,Karauli,"Satyawati Vihar, Karauli - RSPCB",23-03-2026 08:00:00,26.506177,77.025989,SO2,3,6,4
India,Rajasthan,Karauli,"Satyawati Vihar, Karauli - RSPCB",23-03-2026 08:00:00,26.506177,77.025989,CO,6,52,14
India,Rajasthan,Kota,"Dhanmandi, Kota - RSPCB",23-03-2026 08:00:00,25.164090,75.858137,NH3,7,15,9
India,Rajasthan,Kota,"Dhanmandi, Kota - RSPCB",23-03-2026 08:00:00,25.164090,75.858137,SO2,5,44,14
India,Rajasthan,Kota,"Dhanmandi, Kota - RSPCB",23-03-2026 08:00:00,25.164090,75.858137,OZONE,3,148,26
India,Rajasthan,Kota,"Nayapura, Kota - RSPCB",23-03-2026 08:00:00,25.196024,75.855668,NO2,16,113,54
India,Rajasthan,Kota,"Nayapura, Kota - RSPCB",23-03-2026 08:00:00,25.196024,75.855668,CO,12,75,41
India,Rajasthan,Kota,"Nayapura, Kota - RSPCB",23-03-2026 08:00:00,25.196024,75.855668,OZONE,4,154,18
India,Rajasthan,Kota,"Shrinath Puram, Kota - RSPCB",23-03-2026 08:00:00,25.14389,75.821256,PM2.5,44,85,64
India,Rajasthan,Jhalawar,"Rajlaxmi Nagar, Jhalawar - RSPCB",23-03-2026 08:00:00,24.588397,76.172782,NO2,24,72,37
India,Rajasthan,Jhalawar,"Rajlaxmi Nagar, Jhalawar - RSPCB",23-03-2026 08:00:00,24.588397,76.172782,NH3,6,14,9
India,Rajasthan,Jhalawar,"Rajlaxmi Nagar, Jhalawar - RSPCB",23-03-2026 08:00:00,24.588397,76.172782,SO2,7,35,13
India,Rajasthan,Jhunjhunu,"Indra Nagar, Jhunjhunu - RSPCB",23-03-2026 08:00:00,28.108988,75.386577,PM10,45,135,87
India,Rajasthan,Jhunjhunu,"Indra Nagar, Jhunjhunu - RSPCB",23-03-2026 08:00:00,28.108988,75.386577,NH3,7,11,8
India,Rajasthan,Jodhpur,"Collectorate, Jodhpur - RSPCB",23-03-2026 08:00:00,26.268249,73.0193853,OZONE,9,81,29
India,Rajasthan,Jodhpur,"Digari Kalan, Jodhpur - RSPCB",23-03-2026 08:00:00,26.295810,73.082283,PM2.5,5,50,26
India,Rajasthan,Jodhpur,"Jhalamand, Jodhpur - RSPCB",23-03-2026 08:00:00,26.215415,73.070156,CO,7,28,18
India,Rajasthan,Jodhpur,"Mandor, Jodhpur - RSPCB",23-03-2026 08:00:00,26.358805,73.047444,PM2.5,12,50,31
India,Rajasthan,Jodhpur,"Mandor, Jodhpur - RSPCB",23-03-2026 08:00:00,26.358805,73.047444,PM10,25,64,42
India,Rajasthan,Hanumangarh,"Housing Board, Hanumangarh - RSPCB",23-03-2026 08:00:00,29.610750,74.283608,NO2,8,54,26
India,Rajasthan,Hanumangarh,"Housing Board, Hanumangarh - RSPCB",23-03-2026 08:00:00,29.610750,74.283608,SO2,3,8,4
India,Rajasthan,Jaipur,"Adarsh Nagar, Jaipur - RSPCB",23-03-2026 08:00:00,26.902909,75.836858,PM10,53,109,78
India,Rajasthan,Jaipur,"Adarsh Nagar, Jaipur - RSPCB",23-03-2026 08:00:00,26.902909,75.836858,CO,18,52,34
India,Rajasthan,Jaipur,"Adarsh Nagar, Jaipur - RSPCB",23-03-2026 08:00:00,26.902909,75.836858,OZONE,23,97,55
India,Rajasthan,Jaipur,"Mansarovar Sector-12, Jaipur - RSPCB",23-03-2026 08:00:00,26.843698,75.766894,PM10,53,205,114
India,Rajasthan,Jaipur,"Mansarovar Sector-12, Jaipur - RSPCB",23-03-2026 08:00:00,26.843698,75.766894,CO,38,114,60
India,Rajasthan,Jaipur,"Mansarovar Sector-12, Jaipur - RSPCB",23-03-2026 08:00:00,26.843698,75.766894,OZONE,6,71,30
India,Rajasthan,Jaipur,"Police Commissionerate, Jaipur - RSPCB",23-03-2026 08:00:00,26.9164092,75.7994901,SO2,23,26,25
India,Rajasthan,Jaipur,"RIICO Sitapura, Jaipur - RSPCB",23-03-2026 08:00:00,26.786682,75.827928,CO,60,118,86
India,Rajasthan,Bhilwara,"Pratap Nagar, Bhilwara - RSPCB",23-03-2026 08:00:00,25.339605,74.618883,PM2.5,17,213,55
India,Rajasthan,Bhilwara,"Pratap Nagar, Bhilwara - RSPCB",23-03-2026 08:00:00,25.339605,74.618883,NH3,9,14,11
India,Rajasthan,Bhilwara,"Pratap Nagar, Bhilwara - RSPCB",23-03-2026 08:00:00,25.339605,74.618883,SO2,6,36,13
India,Rajasthan,Bhilwara,"Pratap Nagar, Bhilwara - RSPCB",23-03-2026 08:00:00,25.339605,74.618883,CO,19,102,36
India,Rajasthan,Bhilwara,"Pratap Nagar, Bhilwara - RSPCB",23-03-2026 08:00:00,25.339605,74.618883,OZONE,3,44,7
India,Rajasthan,Bhiwadi,"RIICO Ind. Area III, Bhiwadi - RSPCB",23-03-2026 08:00:00,28.194909,76.862296,OZONE,5,44,8
India,Rajasthan,Bhiwadi,"Vasundhara Nagar_UIT, Bhiwadi - RSPCB",23-03-2026 08:00:00,28.207266,76.829265,PM2.5,27,182,79
India,Rajasthan,Bhiwadi,"Vasundhara Nagar_UIT, Bhiwadi - RSPCB",23-03-2026 08:00:00,28.207266,76.829265,NH3,3,5,4
India,Rajasthan,Bikaner,"MM Ground, Bikaner - RSPCB",23-03-2026 08:00:00,28.018792,73.292658,PM2.5,35,133,60
India,Rajasthan,Bikaner,"MM Ground, Bikaner - RSPCB",23-03-2026 08:00:00,28.018792,73.292658,NO2,14,65,33
India,Rajasthan,Bikaner,"MM Ground, Bikaner - RSPCB",23-03-2026 08:00:00,28.018792,73.292658,SO2,1,10,5
India,Punjab,Jalandhar,"Civil Line, Jalandhar - PPCB",23-03-2026 08:00:00,31.321907,75.578914,NH3,7,7,7
India,Punjab,Jalandhar,"Civil Line, Jalandhar - PPCB",23-03-2026 08:00:00,31.321907,75.578914,SO2,20,21,20
India,Punjab,Khanna,"Kalal Majra, Khanna - PPCB",23-03-2026 08:00:00,30.736056 ,76.209694,PM2.5,31,101,62
India,Punjab,Khanna,"Kalal Majra, Khanna - PPCB",23-03-2026 08:00:00,30.736056 ,76.209694,CO,28,66,51
India,Punjab,Ludhiana,"Punjab Agricultural University, Ludhiana - PPCB",23-03-2026 08:00:00,30.9028,75.8086,NO2,29,36,33
India,Punjab,Patiala,"Model Town, Patiala - PPCB",23-03-2026 08:00:00,30.349388,76.366642,NH3,6,7,6
India,Rajasthan,Ajmer,"Civil Lines,  Ajmer - RSPCB",23-03-2026 08:00:00,26.470859,74.646594,NO2,22,38,29
India,Rajasthan,Alwar,"Moti Doongri, Alwar - RSPCB",23-03-2026 08:00:00,27.554793,76.611536,NO2,49,66,62
India,Rajasthan,Alwar,"Moti Doongri, Alwar - RSPCB",23-03-2026 08:00:00,27.554793,76.611536,NH3,5,7,7
India,Rajasthan,Banswara,"Rati Talai, Banswara - RSPCB",23-03-2026 08:00:00,23.555190,74.440010,PM10,32,109,64
India,Rajasthan,Baran,"Bamboliya, Baran - RSPCB",23-03-2026 08:00:00,25.106006,76.469948,PM2.5,12,77,49
India,Rajasthan,Baran,"Bamboliya, Baran - RSPCB",23-03-2026 08:00:00,25.106006,76.469948,PM10,45,138,86
India,Rajasthan,Baran,"Bamboliya, Baran - RSPCB",23-03-2026 08:00:00,25.106006,76.469948,NO2,7,79,22
India,Rajasthan,Baran,"Bamboliya, Baran - RSPCB",23-03-2026 08:00:00,25.106006,76.469948,NH3,3,9,5
India,Rajasthan,Barmer,"Railway Colony, Barmer - RSPCB",23-03-2026 08:00:00,25.747299,71.393989,CO,10,20,15
India,Rajasthan,Churu,"Subash Chowk, Churu - RSPCB",23-03-2026 08:00:00,28.296139,74.961696,SO2,3,7,4
India,Rajasthan,Dausa,"Khatikan Mohalla, Dausa - RSPCB",23-03-2026 08:00:00,26.895552,76.334753,SO2,2,4,3
India,Rajasthan,Dholpur,"Raja Ganj, Dholpur - RSPCB",23-03-2026 08:00:00,26.699557,77.898881,SO2,4,11,8
India,Rajasthan,Dungarpur,"Bhoiwada, Dungarpur - RSPCB",23-03-2026 08:00:00,23.837789,73.714926,PM2.5,13,72,36
India,Rajasthan,Hanumangarh,"Housing Board, Hanumangarh - RSPCB",23-03-2026 08:00:00,29.610750,74.283608,PM2.5,11,51,27
India,Rajasthan,Jaipur,"Sector-2 Murlipura, Jaipur - RSPCB",23-03-2026 08:00:00,26.960669,75.771817,NO2,12,105,37
India,Rajasthan,Jaisalmer,"Sadar Bazar, Jaisalmer - RSPCB",23-03-2026 08:00:00,26.912329,70.909168,NO2,16,37,22
India,Rajasthan,Jaisalmer,"Sadar Bazar, Jaisalmer - RSPCB",23-03-2026 08:00:00,26.912329,70.909168,SO2,2,4,3
India,Rajasthan,Jaisalmer,"Sadar Bazar, Jaisalmer - RSPCB",23-03-2026 08:00:00,26.912329,70.909168,CO,NA,NA,NA
India,Rajasthan,Jaisalmer,"Sadar Bazar, Jaisalmer - RSPCB",23-03-2026 08:00:00,26.912329,70.909168,OZONE,15,62,40
India,Rajasthan,Nagaur,"Karni Colony, Nagaur - RSPCB",23-03-2026 08:00:00,27.213494,73.734444,OZONE,29,87,41
India,Rajasthan,Pratapgarh,"Pragati Nagar, Pratapgarh - RSPCB",23-03-2026 08:00:00,24.041198,74.780702,CO,12,46,21
India,Rajasthan,Rajsamand,"Dhoinda, Rajsamand - RSPCB",23-03-2026 08:00:00,25.036360,73.883502,PM10,31,98,61
India,Rajasthan,Sikar,"Radhakishan Pura, Sikar - RSPCB",23-03-2026 08:00:00,27.608912,75.153302,OZONE,9,116,50
India,Rajasthan,Sirohi,"Vedhaynath Colony, Sirohi - RSPCB",23-03-2026 08:00:00,24.885261,72.857549,PM2.5,15,50,32
India,Rajasthan,Sirohi,"Vedhaynath Colony, Sirohi - RSPCB",23-03-2026 08:00:00,24.885261,72.857549,NO2,4,30,14
India,Rajasthan,Sri Ganganagar,"Old City, Sri Ganganagar - RSPCB",23-03-2026 08:00:00,29.931624,73.864511,OZONE,3,146,12
India,Rajasthan,Tonk,"Shastri Nagar, Tonk - RSPCB",23-03-2026 08:00:00,26.159933,75.780517,PM2.5,33,200,82
India,Rajasthan,Udaipur,"Ashok Nagar, Udaipur - RSPCB",23-03-2026 08:00:00,24.5886166,73.6321397,PM10,57,127,87
India,Rajasthan,Udaipur,"Ashok Nagar, Udaipur - RSPCB",23-03-2026 08:00:00,24.5886166,73.6321397,CO,6,44,10
India,Sikkim,Gangtok,"Zero Point GICI, Gangtok - SSPCB",23-03-2026 08:00:00,27.338530,88.614099,CO,NA,NA,NA
India,Uttar_Pradesh,Agra,"Shahjahan Garden, Agra - UPPCB",23-03-2026 08:00:00,27.169338,78.03582,NH3,3,3,3
India,Uttar_Pradesh,Agra,"Shastripuram, Agra - UPPCB",23-03-2026 08:00:00,27.19862,77.92066,PM10,26,118,74
India,Uttar_Pradesh,Agra,"Shastripuram, Agra - UPPCB",23-03-2026 08:00:00,27.19862,77.92066,NO2,40,42,41
India,Uttar_Pradesh,Agra,"Shastripuram, Agra - UPPCB",23-03-2026 08:00:00,27.19862,77.92066,SO2,18,42,31
India,Uttar_Pradesh,Agra,"Shastripuram, Agra - UPPCB",23-03-2026 08:00:00,27.19862,77.92066,OZONE,12,14,13
India,Uttar_Pradesh,Baghpat,"Sardar Patel Inter College, Baghpat - UPPCB",23-03-2026 08:00:00,28.964949,77.278761,OZONE,7,64,20
India,Uttar_Pradesh,Bareilly,"Civil Lines, Bareilly - UPPCB",23-03-2026 08:00:00,28.359581,79.414455,NO2,2,3,2
India,Uttar_Pradesh,Bareilly,"Civil Lines, Bareilly - UPPCB",23-03-2026 08:00:00,28.359581,79.414455,NH3,1,2,2
India,Telangana,Hyderabad,"Zoo Park, Hyderabad - TSPCB",23-03-2026 08:00:00,17.349694,78.451437,OZONE,23,25,24
India,Uttar_Pradesh,Agra,"Manoharpur, Agra - UPPCB",23-03-2026 08:00:00,27.23711,78.01936,SO2,8,10,9
India,Uttar_Pradesh,Agra,"Rohta, Agra - UPPCB",23-03-2026 08:00:00,27.106972,78.000111,NO2,16,16,16
India,Uttar_Pradesh,Agra,"Sanjay Palace, Agra - UPPCB",23-03-2026 08:00:00,27.19865833,78.00598056,SO2,17,19,18
India,Uttar_Pradesh,Agra,"Sanjay Palace, Agra - UPPCB",23-03-2026 08:00:00,27.19865833,78.00598056,CO,32,41,37
India,Uttar_Pradesh,Agra,"Shahjahan Garden, Agra - UPPCB",23-03-2026 08:00:00,27.169338,78.03582,PM10,70,217,124
India,Uttar_Pradesh,Agra,"Shahjahan Garden, Agra - UPPCB",23-03-2026 08:00:00,27.169338,78.03582,NO2,18,24,21
India,TamilNadu,Coimbatore,"PSG College of Arts and Science, Coimbatore - TNPCB",23-03-2026 08:00:00,11.0328,77.0349,NH3,1,1,1
India,TamilNadu,Coimbatore,"PSG College of Arts and Science, Coimbatore - TNPCB",23-03-2026 08:00:00,11.0328,77.0349,OZONE,4,6,5
India,TamilNadu,Coimbatore,"SIDCO Kurichi, Coimbatore - TNPCB",23-03-2026 08:00:00,10.942451,76.978996,OZONE,19,20,20
India,TamilNadu,Perundurai,"SIPCOT Industrial Park, Perundurai - TNPCB",23-03-2026 08:00:00,11.258242,77.552761,NO2,12,12,12
India,TamilNadu,Perundurai,"SIPCOT Industrial Park, Perundurai - TNPCB",23-03-2026 08:00:00,11.258242,77.552761,OZONE,24,32,31
India,Telangana,Hyderabad,"Central University, Hyderabad - TSPCB",23-03-2026 08:00:00,17.460103,78.334361,NO2,NA,NA,NA
India,Telangana,Hyderabad,"Central University, Hyderabad - TSPCB",23-03-2026 08:00:00,17.460103,78.334361,NH3,NA,NA,NA
India,Telangana,Hyderabad,"New Malakpet, Hyderabad - TSPCB",23-03-2026 08:00:00,17.37206,78.50864,NO2,13,16,14
India,Telangana,Hyderabad,"Ramachandrapuram, Hyderabad - TSPCB",23-03-2026 08:00:00,17.528544,78.286195,PM2.5,41,50,46
India,Telangana,Hyderabad,"Somajiguda, Hyderabad - TSPCB",23-03-2026 08:00:00,17.417094,78.457437,PM10,60,72,65
India,Telangana,Hyderabad,"Somajiguda, Hyderabad - TSPCB",23-03-2026 08:00:00,17.417094,78.457437,OZONE,13,14,13
India,Telangana,Hyderabad,"Zoo Park, Hyderabad - TSPCB",23-03-2026 08:00:00,17.349694,78.451437,PM2.5,35,145,67
India,Telangana,Hyderabad,"Zoo Park, Hyderabad - TSPCB",23-03-2026 08:00:00,17.349694,78.451437,PM10,50,137,89
India,Telangana,Hyderabad,"Zoo Park, Hyderabad - TSPCB",23-03-2026 08:00:00,17.349694,78.451437,NH3,3,3,3
India,TamilNadu,Chennai,"Arumbakkam, Chennai - TNPCB",23-03-2026 08:00:00,13.0664,80.2112 ,SO2,1,5,2
India,TamilNadu,Chennai,"Kodungaiyur, Chennai - TNPCB",23-03-2026 08:00:00,13.1278,80.2642,PM2.5,8,61,21
India,TamilNadu,Chennai,"Manali Village, Chennai - TNPCB",23-03-2026 08:00:00,13.1662,80.2584,PM2.5,10,36,18
India,TamilNadu,Chennai,"Manali Village, Chennai - TNPCB",23-03-2026 08:00:00,13.1662,80.2584,OZONE,26,85,78
India,TamilNadu,Chennai,"Royapuram, Chennai - TNPCB",23-03-2026 08:00:00,13.1036,80.2909,PM2.5,5,30,17
India,Uttar_Pradesh,Bareilly,"Civil Lines, Bareilly - UPPCB",23-03-2026 08:00:00,28.359581,79.414455,OZONE,16,18,17
India,Uttar_Pradesh,Bareilly,"Rajendra Nagar, Bareilly - UPPCB",23-03-2026 08:00:00,28.38910936,79.42963708,OZONE,NA,NA,NA
India,Uttar_Pradesh,Firozabad,"Nagla Bhau, Firozabad - UPPCB",23-03-2026 08:00:00,27.168897,78.376960,NO2,17,17,17
India,Uttar_Pradesh,Firozabad,"Vibhab Nagar, Firozabad - UPPCB",23-03-2026 08:00:00,27.1594,78.3953,PM10,50,137,92
India,Uttar_Pradesh,Ghaziabad,"Loni, Ghaziabad - UPPCB",23-03-2026 08:00:00,28.757294,77.278792,PM10,108,287,179
India,Uttar_Pradesh,Ghaziabad,"Loni, Ghaziabad - UPPCB",23-03-2026 08:00:00,28.757294,77.278792,NO2,14,62,37
India,Uttar_Pradesh,Ghaziabad,"Loni, Ghaziabad - UPPCB",23-03-2026 08:00:00,28.757294,77.278792,SO2,9,23,16
India,Uttar_Pradesh,Ghaziabad,"Sanjay Nagar, Ghaziabad - UPPCB",23-03-2026 08:00:00,28.685382,77.453839,PM10,56,215,124
India,Telangana,Hyderabad,"Kokapet, Hyderabad - TSPCB",23-03-2026 08:00:00,17.393559,78.339194,PM10,78,96,87
India,Telangana,Hyderabad,"Kokapet, Hyderabad - TSPCB",23-03-2026 08:00:00,17.393559,78.339194,NH3,2,3,2
India,Uttar_Pradesh,Lucknow,"Talkatora District Industries Center, Lucknow - CPCB",23-03-2026 08:00:00,26.83399722,80.8917361,CO,11,34,25
India,Uttar_Pradesh,Meerut,"Ganga Nagar, Meerut - UPPCB",23-03-2026 08:00:00,28.999264,77.7590354,NO2,73,106,93
India,Uttar_Pradesh,Meerut,"Jai Bhim Nagar, Meerut - UPPCB",23-03-2026 08:00:00,28.9535882,77.7622941,NO2,19,45,28
India,Uttar_Pradesh,Meerut,"Jai Bhim Nagar, Meerut - UPPCB",23-03-2026 08:00:00,28.9535882,77.7622941,OZONE,28,85,36
India,Uttar_Pradesh,Meerut,"Pallavpuram Phase 2, Meerut - UPPCB",23-03-2026 08:00:00,29.063510,77.709723,PM2.5,34,107,72
India,Uttar_Pradesh,Meerut,"Pallavpuram Phase 2, Meerut - UPPCB",23-03-2026 08:00:00,29.063510,77.709723,PM10,47,157,111
India,Uttar_Pradesh,Moradabad,"Buddhi Vihar, Moradabad - UPPCB",23-03-2026 08:00:00,28.83526,78.74460,CO,30,34,33
India,Uttar_Pradesh,Moradabad,"Buddhi Vihar, Moradabad - UPPCB",23-03-2026 08:00:00,28.83526,78.74460,OZONE,11,24,13
India,Uttar_Pradesh,Moradabad,"Eco Herbal Park, Moradabad - UPPCB",23-03-2026 08:00:00,28.840739,78.697531,NO2,19,43,28
India,Uttar_Pradesh,Moradabad,"Employment Office, Moradabad - UPPCB",23-03-2026 08:00:00,28.88528,78.73880,SO2,25,26,25
India,Uttar_Pradesh,Moradabad,"Employment Office, Moradabad - UPPCB",23-03-2026 08:00:00,28.88528,78.73880,CO,2,50,12
India,Uttar_Pradesh,Moradabad,"Employment Office, Moradabad - UPPCB",23-03-2026 08:00:00,28.88528,78.73880,OZONE,17,22,17
India,Uttar_Pradesh,Moradabad,"Jigar Colony, Moradabad - UPPCB",23-03-2026 08:00:00,28.856664,78.772638,PM2.5,27,66,46
India,Uttar_Pradesh,Moradabad,"Jigar Colony, Moradabad - UPPCB",23-03-2026 08:00:00,28.856664,78.772638,PM10,44,90,65
India,Uttar_Pradesh,Moradabad,"Jigar Colony, Moradabad - UPPCB",23-03-2026 08:00:00,28.856664,78.772638,NO2,24,25,25
India,Uttar_Pradesh,Moradabad,"Kashiram Nagar, Moradabad - UPPCB",23-03-2026 08:00:00,28.849399,78.742362,PM2.5,24,60,40
India,Uttar_Pradesh,Muzaffarnagar,"New Mandi, Muzaffarnagar - UPPCB",23-03-2026 08:00:00,29.4723508,77.7194031,SO2,13,31,21
India,Uttar_Pradesh,Noida,"Sector - 125, Noida - UPPCB",23-03-2026 08:00:00,28.5447608,77.3231257,PM2.5,32,260,113
India,Uttar_Pradesh,Noida,"Sector - 125, Noida - UPPCB",23-03-2026 08:00:00,28.5447608,77.3231257,CO,14,102,27
India,Uttar_Pradesh,Raebareli," Indira Nagar, Raebareli - NTPC Unchahar",23-03-2026 08:00:00,26.207781,81.245571,PM2.5,NA,NA,NA
India,Uttar_Pradesh,Raebareli," Indira Nagar, Raebareli - NTPC Unchahar",23-03-2026 08:00:00,26.207781,81.245571,CO,3,33,25
India,Uttar_Pradesh,Varanasi,"Ardhali Bazar, Varanasi - UPPCB",23-03-2026 08:00:00,25.3505986,82.9083074,PM10,27,96,60
India,Uttar_Pradesh,Varanasi,"Bhelupur, Varanasi - UPPCB",23-03-2026 08:00:00,25.301778,82.996789,NH3,1,1,1
India,Uttar_Pradesh,Varanasi,"Bhelupur, Varanasi - UPPCB",23-03-2026 08:00:00,25.301778,82.996789,SO2,21,24,23
India,Uttar_Pradesh,Varanasi,"IESD Banaras Hindu University, Varanasi - UPPCB",23-03-2026 08:00:00,25.262326,82.995408,PM10,1,91,41
India,Uttar_Pradesh,Kanpur,"FTI Kidwai Nagar, Kanpur - UPPCB",23-03-2026 08:00:00,26.428282,80.327067,CO,33,42,41
India,Uttar_Pradesh,Kanpur,"NSI Kalyanpur, Kanpur - UPPCB",23-03-2026 08:00:00,26.509954,80.249612,PM2.5,27,97,62
India,Uttar_Pradesh,Kanpur,"NSI Kalyanpur, Kanpur - UPPCB",23-03-2026 08:00:00,26.509954,80.249612,NH3,2,2,2
India,Uttar_Pradesh,Kanpur,"Nehru Nagar, Kanpur - UPPCB",23-03-2026 08:00:00,26.4703136,80.3229863,PM2.5,28,218,69
India,Uttar_Pradesh,Kanpur,"Nehru Nagar, Kanpur - UPPCB",23-03-2026 08:00:00,26.4703136,80.3229863,PM10,25,129,58
India,Uttar_Pradesh,Kanpur,"Nehru Nagar, Kanpur - UPPCB",23-03-2026 08:00:00,26.4703136,80.3229863,CO,57,68,60
India,Uttar_Pradesh,Jhansi,"Shivaji Nagar, Jhansi - UPPCB",23-03-2026 08:00:00,25.4547,78.6039,PM2.5,17,297,56
India,Uttar_Pradesh,Jhansi,"Shivaji Nagar, Jhansi - UPPCB",23-03-2026 08:00:00,25.4547,78.6039,PM10,33,128,73
India,Uttar_Pradesh,Jhansi,"Shivaji Nagar, Jhansi - UPPCB",23-03-2026 08:00:00,25.4547,78.6039,NO2,6,6,6
India,Uttar_Pradesh,Jhansi,"Shivaji Nagar, Jhansi - UPPCB",23-03-2026 08:00:00,25.4547,78.6039,CO,6,72,21
India,Uttar_Pradesh,Jhansi,"Shivaji Nagar, Jhansi - UPPCB",23-03-2026 08:00:00,25.4547,78.6039,OZONE,2,13,2
India,Uttar_Pradesh,Kanpur,"FTI Kidwai Nagar, Kanpur - UPPCB",23-03-2026 08:00:00,26.428282,80.327067,PM10,25,200,91
India,Uttar_Pradesh,Noida,"Sector-116, Noida - UPPCB",23-03-2026 08:00:00,28.569230,77.393848,SO2,3,14,10
India,Uttar_Pradesh,Prayagraj,"Jhunsi, Prayagraj - UPPCB",23-03-2026 08:00:00,25.425602,81.917152,SO2,26,29,27
India,Uttar_Pradesh,Prayagraj,"Jhunsi, Prayagraj - UPPCB",23-03-2026 08:00:00,25.425602,81.917152,CO,10,45,39
India,Uttar_Pradesh,Prayagraj,"Nagar Nigam, Prayagraj - UPPCB",23-03-2026 08:00:00,25.44919916 ,81.82735986 ,PM10,19,79,42
India,Uttar_Pradesh,Lucknow,"Lalbagh, Lucknow - CPCB",23-03-2026 08:00:00,26.8458805,80.9365541,CO,23,78,39
India,Uttar_Pradesh,Lucknow,"Talkatora District Industries Center, Lucknow - CPCB",23-03-2026 08:00:00,26.83399722,80.8917361,NH3,8,9,9
India,Uttar_Pradesh,Lucknow,"Talkatora District Industries Center, Lucknow - CPCB",23-03-2026 08:00:00,26.83399722,80.8917361,SO2,2,10,5
India,Uttar_Pradesh,Khurja,"Kalindi Kunj, Khurja - UPPCB",23-03-2026 08:00:00,28.2348927,77.8683002,PM10,39,136,92
India,Uttar_Pradesh,Lucknow,"B R Ambedkar University, Lucknow - UPPCB",23-03-2026 08:00:00,26.766433,80.927299,SO2,14,15,14
India,Uttar_Pradesh,Greater Noida,"Knowledge Park - III, Greater Noida - UPPCB",23-03-2026 08:00:00,28.47272,77.482000,NH3,9,13,11
India,Uttar_Pradesh,Greater Noida,"Knowledge Park - III, Greater Noida - UPPCB",23-03-2026 08:00:00,28.47272,77.482000,SO2,2,13,9
India,Uttar_Pradesh,Varanasi,"IESD Banaras Hindu University, Varanasi - UPPCB",23-03-2026 08:00:00,25.262326,82.995408,SO2,33,35,34
India,Uttar_Pradesh,Varanasi,"Maldahiya, Varanasi - UPPCB",23-03-2026 08:00:00,25.32393,82.99687,PM2.5,11,55,29
India,Uttar_Pradesh,Varanasi,"Maldahiya, Varanasi - UPPCB",23-03-2026 08:00:00,25.32393,82.99687,PM10,14,71,40
India,Uttarakhand,Dehradun,"Doon University, Dehradun - UKPCB",23-03-2026 08:00:00,30.269444,78.044167,CO,4,5,4
India,Uttarakhand,Dehradun,"Doon University, Dehradun - UKPCB",23-03-2026 08:00:00,30.269444,78.044167,OZONE,13,74,19
India,Uttarakhand,Rishikesh,"Shivaji Nagar, Rishikesh - UKPCB",23-03-2026 08:00:00,30.075911,78.2859547,NH3,8,8,8
India,Uttarakhand,Rishikesh,"Shivaji Nagar, Rishikesh - UKPCB",23-03-2026 08:00:00,30.075911,78.2859547,OZONE,18,18,18
India,West_Bengal,Asansol,"Asansol Court Area, Asansol - WBPCB",23-03-2026 08:00:00,23.685297,86.945968,CO,32,79,64
India,West_Bengal,Asansol,"Evelyn Lodge, Asansol - WBPCB",23-03-2026 08:00:00,23.6979360,86.9443950,CO,14,54,46
India,West_Bengal,Asansol,"Mahabir Colliery, Asansol - WBPCB",23-03-2026 08:00:00,23.6181830,87.1057180,NO2,10,18,13
India,West_Bengal,Asansol,"Mahabir Colliery, Asansol - WBPCB",23-03-2026 08:00:00,23.6181830,87.1057180,OZONE,6,61,7
India,West_Bengal,Asansol,"Trivenidevi Bhalotia College, Asansol - WBPCB",23-03-2026 08:00:00,23.616515,87.119133,NO2,9,40,20
India,West_Bengal,Asansol,"Trivenidevi Bhalotia College, Asansol - WBPCB",23-03-2026 08:00:00,23.616515,87.119133,NH3,3,3,3
India,West_Bengal,Howrah,"Padmapukur, Howrah - WBPCB",23-03-2026 08:00:00,22.5687319,88.2797276,CO,46,102,87
India,West_Bengal,Kolkata,"Bidhannagar, Kolkata - WBPCB",23-03-2026 08:00:00,22.58157048,88.41002457,NO2,11,13,12
India,West_Bengal,Kolkata,"Bidhannagar, Kolkata - WBPCB",23-03-2026 08:00:00,22.58157048,88.41002457,CO,18,25,20
India,West_Bengal,Kolkata,"Fort William, Kolkata - WBPCB",23-03-2026 08:00:00,22.556640,88.342674,PM10,32,56,41
India,West_Bengal,Howrah,"Belur Math, Howrah - WBPCB",23-03-2026 08:00:00,22.629801,88.352017,SO2,8,20,11
India,West_Bengal,Howrah,"Botanical Garden, Howrah - WBPCB",23-03-2026 08:00:00,22.554954,88.292568,SO2,10,24,14
India,West_Bengal,Durgapur,"Mahishkapur Road_B-Zone, Durgapur - WBPCB",23-03-2026 08:00:00,23.567923,87.306843,SO2,4,48,12
India,West_Bengal,Durgapur,"Mahishkapur Road_B-Zone, Durgapur - WBPCB",23-03-2026 08:00:00,23.567923,87.306843,OZONE,4,68,7
India,West_Bengal,Durgapur,"Womens College_City Center, Durgapur - WBPCB",23-03-2026 08:00:00,23.549395,87.300496,NO2,18,31,25
India,West_Bengal,Durgapur,"Womens College_City Center, Durgapur - WBPCB",23-03-2026 08:00:00,23.549395,87.300496,SO2,27,28,27
India,West_Bengal,Kolkata,"Rabindra Bharati University, Kolkata - WBPCB",23-03-2026 08:00:00,22.627847,88.380669,PM10,33,73,53
India,West_Bengal,Haldia,"Priyambada Housing Estate, Haldia - WBPCB",23-03-2026 08:00:00,22.06047,88.109737,OZONE,22,33,24
India,West_Bengal,Haldia,"Priyambada Housing Estate, Haldia - WBPCB",23-03-2026 08:00:00,22.06047,88.109737,SO2,10,20,14
India,West_Bengal,Kolkata,"Rabindra Bharati University, Kolkata - WBPCB",23-03-2026 08:00:00,22.627847,88.380669,NO2,26,49,37
India,West_Bengal,Kolkata,"Rabindra Bharati University, Kolkata - WBPCB",23-03-2026 08:00:00,22.627847,88.380669,CO,30,46,40
India,West_Bengal,Kolkata,"Rabindra Sarobar, Kolkata - WBPCB",23-03-2026 08:00:00,22.51106,88.35142,PM2.5,22,52,37
India,West_Bengal,Kolkata,"Rabindra Sarobar, Kolkata - WBPCB",23-03-2026 08:00:00,22.51106,88.35142,PM10,38,63,47
India,Bihar,Gaya,"Kareemganj, Gaya - BSPCB",23-03-2026 08:00:00,24.792403,84.992416,SO2,42,45,43
India,Bihar,Gaya,"SFTI Kusdihra, Gaya - BSPCB",23-03-2026 08:00:00,24.762518,84.982348,PM10,27,47,34
India,Bihar,Gaya,"SFTI Kusdihra, Gaya - BSPCB",23-03-2026 08:00:00,24.762518,84.982348,NO2,13,31,22
India,Bihar,Gaya,"SFTI Kusdihra, Gaya - BSPCB",23-03-2026 08:00:00,24.762518,84.982348,NH3,2,6,4
India,Bihar,Gaya,"SFTI Kusdihra, Gaya - BSPCB",23-03-2026 08:00:00,24.762518,84.982348,OZONE,8,34,14
India,Bihar,Hajipur,"Industrial Area, Hajipur - BSPCB",23-03-2026 08:00:00,25.697189,85.245900,NO2,19,32,25
India,Bihar,Hajipur,"Industrial Area, Hajipur - BSPCB",23-03-2026 08:00:00,25.697189,85.245900,SO2,1,6,4
India,Bihar,Katihar,"Mirchaibari, Katihar - BSPCB",23-03-2026 08:00:00,25.560083,87.553265,PM10,9,62,28
India,Bihar,Katihar,"Mirchaibari, Katihar - BSPCB",23-03-2026 08:00:00,25.560083,87.553265,NO2,9,10,9
India,Bihar,Kishanganj,"SDM Office_Khagra, Kishanganj - BSPCB",23-03-2026 08:00:00,26.0881305,87.93840336,NH3,3,3,3
India,Bihar,Kishanganj,"SDM Office_Khagra, Kishanganj - BSPCB",23-03-2026 08:00:00,26.0881305,87.93840336,CO,16,19,16
India,Bihar,Kishanganj,"SDM Office_Khagra, Kishanganj - BSPCB",23-03-2026 08:00:00,26.0881305,87.93840336,OZONE,32,34,33
India,Bihar,Manguraha,"Forest Rest House, Manguraha - BSPCB",23-03-2026 08:00:00,27.308328,84.531742,PM2.5,17,260,56
India,Bihar,Manguraha,"Forest Rest House, Manguraha - BSPCB",23-03-2026 08:00:00,27.308328,84.531742,CO,32,34,32
India,Assam,Nalbari,"Bata Chowk, Nalbari - PCBA",23-03-2026 08:00:00,26.446912,91.439057,CO,10,24,21
India,Assam,Silchar,"Tarapur, Silchar - PCBA",23-03-2026 08:00:00,24.82827,92.79525,PM10,35,46,40
India,Assam,Sivasagar,"Girls College, Sivasagar - PCBA",23-03-2026 08:00:00,26.987634,94.636574,PM10,18,27,21
India,Assam,Sivasagar,"Girls College, Sivasagar - PCBA",23-03-2026 08:00:00,26.987634,94.636574,OZONE,18,62,22
India,Bihar,Arrah,"New DM Office, Arrah - BSPCB",23-03-2026 08:00:00,25.5626095,84.663264,PM2.5,18,113,58
India,Bihar,Arrah,"New DM Office, Arrah - BSPCB",23-03-2026 08:00:00,25.5626095,84.663264,CO,44,68,53
India,Bihar,Arrah,"New DM Office, Arrah - BSPCB",23-03-2026 08:00:00,25.5626095,84.663264,OZONE,6,9,8
India,Bihar,Aurangabad,"Gurdeo Nagar, Aurangabad - BSPCB",23-03-2026 08:00:00,24.75746,84.366208,PM2.5,8,28,18
India,Bihar,Begusarai,"Lohiyanagar, Begusarai - BSPCB",23-03-2026 08:00:00,25.42742023,86.13886079,PM2.5,27,267,92
India,Arunachal_Pradesh,Naharlagun,"Naharlagun, Naharlagun - APSPCB",23-03-2026 08:00:00,27.103358,93.679645,OZONE,5,6,6
India,Assam,Guwahati,"LGBI Airport, Guwahati - PCBA",23-03-2026 08:00:00,26.10887,91.589544,NO2,9,21,14
India,Assam,Guwahati,"Pan Bazaar, Guwahati - PCBA",23-03-2026 08:00:00,26.187500,91.744194,PM10,15,71,34
India,Assam,Guwahati,"Railway Colony, Guwahati - PCBA",23-03-2026 08:00:00,26.181742,91.78063,PM2.5,18,311,58
India,Assam,Guwahati,"Railway Colony, Guwahati - PCBA",23-03-2026 08:00:00,26.181742,91.78063,CO,3,7,4
India,Assam,Nagaon,"Christianpatty, Nagaon - PCBA",23-03-2026 08:00:00,26.349082,92.68449,PM10,53,128,98
India,Assam,Nagaon,"Christianpatty, Nagaon - PCBA",23-03-2026 08:00:00,26.349082,92.68449,NH3,2,4,4
India,Assam,Nagaon,"Christianpatty, Nagaon - PCBA",23-03-2026 08:00:00,26.349082,92.68449,OZONE,15,18,17
India,Assam,Nalbari,"Bata Chowk, Nalbari - PCBA",23-03-2026 08:00:00,26.446912,91.439057,NO2,6,17,14
India,Bihar,Motihari,"Gandak Colony, Motihari - BSPCB",23-03-2026 08:00:00,26.63086,84.90051,NO2,10,14,12
India,Bihar,Munger,"Town Hall, Munger - BSPCB",23-03-2026 08:00:00,25.376776,86.471523,PM10,11,103,42
India,Bihar,Munger,"Town Hall, Munger - BSPCB",23-03-2026 08:00:00,25.376776,86.471523,CO,8,36,27
India,Bihar,Muzaffarpur,"Buddha Colony, Muzaffarpur - BSPCB",23-03-2026 08:00:00,26.11442,85.39813,PM2.5,50,274,135
India,Bihar,Muzaffarpur,"Buddha Colony, Muzaffarpur - BSPCB",23-03-2026 08:00:00,26.11442,85.39813,NH3,12,21,15
India,Bihar,Muzaffarpur,"Buddha Colony, Muzaffarpur - BSPCB",23-03-2026 08:00:00,26.11442,85.39813,SO2,3,26,13
India,Bihar,Muzaffarpur,"Buddha Colony, Muzaffarpur - BSPCB",23-03-2026 08:00:00,26.11442,85.39813,OZONE,10,81,14
India,Bihar,Muzaffarpur,"MIT-Daudpur Kothi, Muzaffarpur - BSPCB",23-03-2026 08:00:00,26.1403345,85.3650192,PM2.5,28,47,36
India,Bihar,Muzaffarpur,"Muzaffarpur Collectorate, Muzaffarpur - BSPCB",23-03-2026 08:00:00,26.1209,85.3647,CO,9,42,9
India,Andhra_Pradesh,Anantapur,"Gulzarpet, Anantapur - APPCB",23-03-2026 08:00:00,14.675886,77.593027,PM10,53,96,65
India,Andhra_Pradesh,Anantapur,"Gulzarpet, Anantapur - APPCB",23-03-2026 08:00:00,14.675886,77.593027,NH3,5,7,5
India,Andhra_Pradesh,Anantapur,"Gulzarpet, Anantapur - APPCB",23-03-2026 08:00:00,14.675886,77.593027,SO2,9,17,10
India,Andhra_Pradesh,Chittoor,"Gangineni Cheruvu, Chittoor - APPCB",23-03-2026 08:00:00,13.204880,79.097889,PM10,39,53,45
India,Andhra_Pradesh,Eluru,"District Court, Eluru - APPCB",23-03-2026 08:00:00,16.711754,81.092095,PM2.5,34,78,45
India,Andhra_Pradesh,Eluru,"District Court, Eluru - APPCB",23-03-2026 08:00:00,16.711754,81.092095,NO2,9,42,20
India,Andhra_Pradesh,Guntur,"Rajendra Nagar North, Guntur - APPCB",23-03-2026 08:00:00,16.316553,80.413302,PM2.5,51,55,52
India,Andhra_Pradesh,Guntur,"Rajendra Nagar North, Guntur - APPCB",23-03-2026 08:00:00,16.316553,80.413302,PM10,52,57,54
India,Andhra_Pradesh,Vijayawada,"Rajiv Gandhi Park, Vijayawada - APPCB",23-03-2026 08:00:00,16.509717,80.612222,NO2,12,34,22
India,Andhra_Pradesh,Vijayawada,"Rajiv Nagar, Vijayawada - APPCB",23-03-2026 08:00:00,16.554731,80.649110,PM2.5,59,65,60
India,Andhra_Pradesh,Vijayawada,"Rajiv Nagar, Vijayawada - APPCB",23-03-2026 08:00:00,16.554731,80.649110,SO2,8,17,11
India,Arunachal_Pradesh,Naharlagun,"Naharlagun, Naharlagun - APSPCB",23-03-2026 08:00:00,27.103358,93.679645,PM2.5,1,52,26
India,Arunachal_Pradesh,Naharlagun,"Naharlagun, Naharlagun - APSPCB",23-03-2026 08:00:00,27.103358,93.679645,PM10,1,58,29
India,Andhra_Pradesh,Kadapa,"Yerramukkapalli, Kadapa - APPCB",23-03-2026 08:00:00,14.465052,78.824187,CO,8,16,8
India,Andhra_Pradesh,Rajamahendravaram,"Anand Kala Kshetram, Rajamahendravaram - APPCB",23-03-2026 08:00:00,16.9872867,81.7363176,OZONE,6,26,13
India,Bihar,Bhagalpur,"Mayaganj, Bhagalpur - BSPCB",23-03-2026 08:00:00,25.265194,87.012947,OZONE,7,35,9
India,Bihar,Gaya,"Kareemganj, Gaya - BSPCB",23-03-2026 08:00:00,24.792403,84.992416,NH3,1,2,1
India,Andhra_Pradesh,Vijayawada,"HB Colony, Vijayawada - APPCB",23-03-2026 08:00:00,16.536107,80.594233,CO,18,52,32
India,Andhra_Pradesh,Vijayawada,"HB Colony, Vijayawada - APPCB",23-03-2026 08:00:00,16.536107,80.594233,OZONE,20,43,20
India,Bihar,Bhagalpur,"DM Office_Kachari Chowk, Bhagalpur - BSPCB",23-03-2026 08:00:00,25.251013,86.989001,PM10,21,141,71
India,Chandigarh,Chandigarh,"Sector-53, Chandigarh - CPCC",23-03-2026 08:00:00,30.719859,76.738637,PM2.5,10,53,33
India,Chandigarh,Chandigarh,"Sector-53, Chandigarh - CPCC",23-03-2026 08:00:00,30.719859,76.738637,SO2,6,6,6
India,Chandigarh,Chandigarh,"Sector-53, Chandigarh - CPCC",23-03-2026 08:00:00,30.719859,76.738637,OZONE,7,82,11
India,Chhattisgarh,Bhilai,"32Bungalows, Bhilai - CECB",23-03-2026 08:00:00,21.194815,81.314770,PM2.5,13,41,26
India,Chhattisgarh,Bhilai,"32Bungalows, Bhilai - CECB",23-03-2026 08:00:00,21.194815,81.314770,PM10,9,48,28
India,Chhattisgarh,Bhilai,"32Bungalows, Bhilai - CECB",23-03-2026 08:00:00,21.194815,81.314770,NO2,26,37,31
India,Chhattisgarh,Bhilai,"32Bungalows, Bhilai - CECB",23-03-2026 08:00:00,21.194815,81.314770,OZONE,1,19,4
India,Chhattisgarh,Bhilai,"Civic Center, Bhilai - Bhilai Steel Plant",23-03-2026 08:00:00,21.185571,81.343175,NO2,10,11,11
India,Chhattisgarh,Bhilai,"Civic Center, Bhilai - Bhilai Steel Plant",23-03-2026 08:00:00,21.185571,81.343175,NH3,3,3,3
India,Chhattisgarh,Bhilai,"Hathkhoj, Bhilai - CECB",23-03-2026 08:00:00,21.224231,81.408350,PM10,13,110,42
India,Chhattisgarh,Raipur,"Bhatagaon New ISBT, Raipur - CECB",23-03-2026 08:00:00,21.219665,81.630094,PM2.5,9,46,26
India,Chhattisgarh,Raipur,"Bhatagaon New ISBT, Raipur - CECB",23-03-2026 08:00:00,21.219665,81.630094,NO2,29,52,38
India,Chhattisgarh,Raipur,"Bhatagaon New ISBT, Raipur - CECB",23-03-2026 08:00:00,21.219665,81.630094,SO2,2,16,6
India,Chhattisgarh,Raipur,"Bhatagaon New ISBT, Raipur - CECB",23-03-2026 08:00:00,21.219665,81.630094,OZONE,2,5,2
India,Chhattisgarh,Raipur,"Krishak Nagar, Raipur - CECB",23-03-2026 08:00:00,21.237755,81.705301,SO2,4,8,5
India,Chhattisgarh,Raipur,"Krishak Nagar, Raipur - CECB",23-03-2026 08:00:00,21.237755,81.705301,OZONE,1,21,1
India,Chhattisgarh,Raipur,"Siltara Phase-II, Raipur - CECB",23-03-2026 08:00:00,21.371751,81.664929,PM10,21,137,64
India,Delhi,Delhi,"Alipur, Delhi - DPCC",23-03-2026 08:00:00,28.815329,77.153010,NH3,12,14,13
India,Chhattisgarh,Bilaspur,"Mangala, Bilaspur - NTPC",23-03-2026 08:00:00,22.08815,82.13737,SO2,10,16,12
India,Chhattisgarh,Chhal,"Nawapara SECL Colony, Chhal - CECB",23-03-2026 08:00:00,22.118125,83.140608,PM2.5,18,71,40
India,Chhattisgarh,Korba,"Urja Nagar, Korba - CECB",23-03-2026 08:00:00,22.348441,82.549611,PM2.5,17,70,45
India,Chhattisgarh,Korba,"Urja Nagar, Korba - CECB",23-03-2026 08:00:00,22.348441,82.549611,SO2,2,16,9
India,Chhattisgarh,Kunjemura,"OP Jindal School, Kunjemura - CECB",23-03-2026 08:00:00,22.126650,83.483212,PM10,27,158,48
India,Chhattisgarh,Milupara,"Govt. Higher Secondary School, Milupara - CECB",23-03-2026 08:00:00,22.1910172,83.5197009,PM2.5,NA,NA,NA
India,Bihar,Patna,"Samanpura, Patna - BSPCB",23-03-2026 08:00:00,25.596727,85.085624,PM10,57,207,105
India,Bihar,Rajgir,"Dangi Tola, Rajgir - BSPCB",23-03-2026 08:00:00,25.03280,85.41948,PM2.5,28,77,57
India,Bihar,Rajgir,"Dangi Tola, Rajgir - BSPCB",23-03-2026 08:00:00,25.03280,85.41948,PM10,23,76,54
India,Bihar,Rajgir,"Dangi Tola, Rajgir - BSPCB",23-03-2026 08:00:00,25.03280,85.41948,NO2,13,15,14
India,Bihar,Saharsa,"Police Line, Saharsa - BSPCB",23-03-2026 08:00:00,25.892357,86.590325,PM2.5,NA,NA,NA
India,Bihar,Saharsa,"Police Line, Saharsa - BSPCB",23-03-2026 08:00:00,25.892357,86.590325,CO,20,41,36
India,Delhi,Delhi,"Ashok Vihar, Delhi - DPCC",23-03-2026 08:00:00,28.695381,77.181665,NH3,6,7,7
India,Delhi,Delhi,"Bawana, Delhi - DPCC",23-03-2026 08:00:00,28.776200,77.051074,PM10,97,211,136
India,Delhi,Delhi,"CRRI Mathura Road, Delhi - IMD",23-03-2026 08:00:00,28.5512005,77.2735737,CO,28,107,75
India,Delhi,Delhi,"Cantonment Area, Delhi - DPCC ",23-03-2026 08:00:00,28.594169 ,77.125100 ,NH3,1,21,7
India,Bihar,Samastipur,"DM Office_Kasipur, Samastipur - BSPCB",23-03-2026 08:00:00,25.859655,85.77944,SO2,NA,NA,NA
India,Bihar,Samastipur,"DM Office_Kasipur, Samastipur - BSPCB",23-03-2026 08:00:00,25.859655,85.77944,OZONE,7,18,8
India,Bihar,Sasaram,"Dada Peer, Sasaram - BSPCB",23-03-2026 08:00:00,24.952822,84.002396,PM10,26,107,56
India,Chhattisgarh,Milupara,"Govt. Higher Secondary School, Milupara - CECB",23-03-2026 08:00:00,22.1910172,83.5197009,NH3,NA,NA,NA
India,Chhattisgarh,Milupara,"Govt. Higher Secondary School, Milupara - CECB",23-03-2026 08:00:00,22.1910172,83.5197009,CO,20,42,25
India,Bihar,Patna,"Rajbansi Nagar, Patna - BSPCB",23-03-2026 08:00:00,25.599486,85.113666,OZONE,8,13,10
India,Bihar,Patna,"Muradpur, Patna - BSPCB",23-03-2026 08:00:00,25.619651,85.147382,PM2.5,19,292,112
India,Delhi,Delhi,"IGI Airport (T3), Delhi - IMD",23-03-2026 08:00:00,28.5627763,77.1180053,CO,24,65,53
India,Delhi,Delhi,"IGNOU_Maidan Garhi, Delhi - DPCC",23-03-2026 08:00:00,28.493624 ,77.201159 ,PM2.5,25,311,128
India,Delhi,Delhi,"IHBAS, Dilshad Garden, Delhi - CPCB",23-03-2026 08:00:00,28.6811736,77.3025234,NO2,24,97,65
India,Delhi,Delhi,"IIT Delhi, Delhi - IITM",23-03-2026 08:00:00,28.542460,77.191651,CO,42,85,69
India,Delhi,Delhi,"ITO, Delhi - CPCB",23-03-2026 08:00:00,28.628624,77.241060,PM2.5,38,191,83
India,Delhi,Delhi,"ITO, Delhi - CPCB",23-03-2026 08:00:00,28.628624,77.241060,CO,28,101,36
India,Delhi,Delhi,"JNU, Delhi - DPCC",23-03-2026 08:00:00,28.540721 ,77.168544 ,PM2.5,5,234,73
India,Delhi,Delhi,"JNU, Delhi - DPCC",23-03-2026 08:00:00,28.540721 ,77.168544 ,SO2,17,20,18
India,Delhi,Delhi,"Jahangirpuri, Delhi - DPCC",23-03-2026 08:00:00,28.732820,77.170633,PM2.5,33,337,159
India,Delhi,Delhi,"Jahangirpuri, Delhi - DPCC",23-03-2026 08:00:00,28.732820,77.170633,NO2,35,85,55
India,Delhi,Delhi,"Jawaharlal Nehru Stadium, Delhi - DPCC",23-03-2026 08:00:00,28.580280,77.233829,SO2,9,23,14
India,Delhi,Delhi,"Lodhi Road, Delhi - IMD",23-03-2026 08:00:00,28.5918245,77.2273074,PM10,36,139,97
India,Delhi,Delhi,"Major Dhyan Chand National Stadium, Delhi - DPCC",23-03-2026 08:00:00,28.611281,77.237738,PM2.5,10,230,64
India,Delhi,Delhi,"Major Dhyan Chand National Stadium, Delhi - DPCC",23-03-2026 08:00:00,28.611281,77.237738,NH3,14,18,15
India,Delhi,Delhi,"Mandir Marg, Delhi - DPCC",23-03-2026 08:00:00,28.636429,77.201067,PM2.5,127,307,203
India,Delhi,Delhi,"Mandir Marg, Delhi - DPCC",23-03-2026 08:00:00,28.636429,77.201067,NO2,35,79,50
India,Delhi,Delhi,"Mundka, Delhi - DPCC",23-03-2026 08:00:00,28.684678,77.076574,PM2.5,32,362,135
India,Delhi,Delhi,"Mundka, Delhi - DPCC",23-03-2026 08:00:00,28.684678,77.076574,NO2,57,94,70
India,Delhi,Delhi,"Mundka, Delhi - DPCC",23-03-2026 08:00:00,28.684678,77.076574,SO2,18,49,28
India,Delhi,Delhi,"NSUT Jaffarpur, Delhi - DPCC",23-03-2026 08:00:00,28.594004 ,76.909423 ,SO2,76,82,79
India,Delhi,Delhi,"NSUT Jaffarpur, Delhi - DPCC",23-03-2026 08:00:00,28.594004 ,76.909423 ,CO,118,128,125
India,Delhi,Delhi,"NSUT Jaffarpur, Delhi - DPCC",23-03-2026 08:00:00,28.594004 ,76.909423 ,OZONE,9,88,20
India,Delhi,Delhi,"Najafgarh, Delhi - DPCC",23-03-2026 08:00:00,28.570173,76.933762,PM2.5,28,233,107
India,Delhi,Delhi,"Najafgarh, Delhi - DPCC",23-03-2026 08:00:00,28.570173,76.933762,SO2,15,17,16
India,Delhi,Delhi,"Najafgarh, Delhi - DPCC",23-03-2026 08:00:00,28.570173,76.933762,OZONE,2,6,3
India,Delhi,Delhi,"Narela, Delhi - DPCC",23-03-2026 08:00:00,28.822836,77.101981,NO2,9,64,23
India,Delhi,Delhi,"Nehru Nagar, Delhi - DPCC",23-03-2026 08:00:00,28.567890,77.250515,SO2,9,108,18
India,Delhi,Delhi,"Chandni Chowk, Delhi - IITM",23-03-2026 08:00:00,28.656756,77.227234,PM2.5,57,203,114
India,Delhi,Delhi,"Commonwealth Sports Complex, Delhi - DPCC",23-03-2026 08:00:00,28.615828 ,77.271992 ,CO,76,111,99
India,Delhi,Delhi,"Commonwealth Sports Complex, Delhi - DPCC",23-03-2026 08:00:00,28.615828 ,77.271992 ,OZONE,2,64,10
India,Delhi,Delhi,"DTU, Delhi - CPCB",23-03-2026 08:00:00,28.7500499,77.1112615,OZONE,23,26,24
India,Delhi,Delhi,"Dr. Karni Singh Shooting Range, Delhi - DPCC",23-03-2026 08:00:00,28.498571,77.264840,PM10,55,211,120
India,Delhi,Delhi,"Dr. Karni Singh Shooting Range, Delhi - DPCC",23-03-2026 08:00:00,28.498571,77.264840,SO2,17,37,23
India,Delhi,Delhi,"Dwarka-Sector 8, Delhi - DPCC ",23-03-2026 08:00:00,28.5710274,77.0719006,CO,30,106,48
India,Delhi,Delhi,"Patparganj, Delhi - DPCC",23-03-2026 08:00:00,28.623763,77.287209,CO,44,110,60
India,Delhi,Delhi,"DTU, Delhi - CPCB",23-03-2026 08:00:00,28.7500499,77.1112615,NH3,5,14,9
India,Gujarat,Gandhinagar,"Sector-10, Gandhinagar - GPCB",23-03-2026 08:00:00,23.221714,72.654328,NH3,2,5,3
India,Gujarat,Gandhinagar,"Sector-10, Gandhinagar - GPCB",23-03-2026 08:00:00,23.221714,72.654328,CO,36,45,40
India,Gujarat,Mehsana,"Sadanand Nagar, Mehsana - Nexteng Enviro",23-03-2026 08:00:00,23.593150,72.372792,SO2,4,11,7
India,Gujarat,Rajkot,"Mavdi, Rajkot - Nexteng Enviro ",23-03-2026 08:00:00,22.248853,70.776774,NO2,7,23,14
India,Gujarat,Rajkot,"Mavdi, Rajkot - Nexteng Enviro ",23-03-2026 08:00:00,22.248853,70.776774,CO,6,10,8
India,Gujarat,Surat,"Katargam, Surat - Nexteng Enviro",23-03-2026 08:00:00,21.217779 ,72.834787 ,PM2.5,29,305,105
India,Gujarat,Surat,"Katargam, Surat - Nexteng Enviro",23-03-2026 08:00:00,21.217779 ,72.834787 ,PM10,57,162,105
India,Gujarat,Surat,"Katargam, Surat - Nexteng Enviro",23-03-2026 08:00:00,21.217779 ,72.834787 ,NO2,10,44,23
India,Gujarat,Surat,"Katargam, Surat - Nexteng Enviro",23-03-2026 08:00:00,21.217779 ,72.834787 ,OZONE,8,9,9
India,Gujarat,Surat,"Science Center, Surat - SMC",23-03-2026 08:00:00,21.170046,72.795405,PM2.5,39,130,67
India,Delhi,Delhi,"Talkatora Garden, Delhi - DPCC",23-03-2026 08:00:00,28.621810,77.1944633,SO2,67,89,77
India,Delhi,Delhi,"Vivek Vihar, Delhi - DPCC",23-03-2026 08:00:00,28.672342,77.315260,SO2,8,15,12
India,Delhi,Delhi,"Vivek Vihar, Delhi - DPCC",23-03-2026 08:00:00,28.672342,77.315260,OZONE,8,61,15
India,Delhi,Delhi,"Wazirpur, Delhi - DPCC",23-03-2026 08:00:00,28.699793,77.165453,PM2.5,42,318,130
India,Gujarat,Ahmedabad,"Chandkheda, Ahmedabad - IITM",23-03-2026 08:00:00,23.107969,72.574648,PM2.5,11,133,49
India,Gujarat,Ahmedabad,"Chandkheda, Ahmedabad - IITM",23-03-2026 08:00:00,23.107969,72.574648,NH3,5,8,6
India,Gujarat,Ahmedabad,"Chandkheda, Ahmedabad - IITM",23-03-2026 08:00:00,23.107969,72.574648,SO2,4,16,8
India,Gujarat,Ahmedabad,"Chandkheda, Ahmedabad - IITM",23-03-2026 08:00:00,23.107969,72.574648,OZONE,16,123,26
India,Gujarat,Ahmedabad,"Gyaspur, Ahmedabad - IITM",23-03-2026 08:00:00,22.977134,72.553024,NO2,40,146,79
India,Gujarat,Ahmedabad,"Gyaspur, Ahmedabad - IITM",23-03-2026 08:00:00,22.977134,72.553024,NH3,2,31,11
India,Gujarat,Ahmedabad,"Gyaspur, Ahmedabad - IITM",23-03-2026 08:00:00,22.977134,72.553024,OZONE,1,73,4
India,Gujarat,Vadodara,"Bapunagar, Vadodara - Nexteng Enviro",23-03-2026 08:00:00,22.320153,73.216285,PM2.5,25,316,147
India,Gujarat,Vadodara,"Bapunagar, Vadodara - Nexteng Enviro",23-03-2026 08:00:00,22.320153,73.216285,SO2,5,11,8
India,Gujarat,Vapi,"Phase-1 GIDC, Vapi - GPCB",23-03-2026 08:00:00,20.362421,72.918013,NO2,NA,NA,NA
India,Gujarat,Vatva,"Phase-4 GIDC, Vatva - GPCB",23-03-2026 08:00:00,22.969611,72.643500,PM2.5,39,345,171
India,Gujarat,Vatva,"Phase-4 GIDC, Vatva - GPCB",23-03-2026 08:00:00,22.969611,72.643500,CO,12,24,13
India,Haryana,Ambala,"Patti Mehar, Ambala - HSPCB",23-03-2026 08:00:00,30.379589,76.778328,PM2.5,61,130,85
India,Haryana,Ambala,"Patti Mehar, Ambala - HSPCB",23-03-2026 08:00:00,30.379589,76.778328,PM10,65,115,87
India,Haryana,Ambala,"Patti Mehar, Ambala - HSPCB",23-03-2026 08:00:00,30.379589,76.778328,NH3,7,8,8
India,Haryana,Bahadurgarh,"Arya Nagar, Bahadurgarh - HSPCB",23-03-2026 08:00:00,28.6701,76.9254,NH3,NA,NA,NA
India,Haryana,Bahadurgarh,"Arya Nagar, Bahadurgarh - HSPCB",23-03-2026 08:00:00,28.6701,76.9254,SO2,NA,NA,NA
India,Gujarat,Ahmedabad,"Maninagar, Ahmedabad - GPCB",23-03-2026 08:00:00,23.002657,72.591912,PM2.5,27,285,132
India,Gujarat,Ahmedabad,"Maninagar, Ahmedabad - GPCB",23-03-2026 08:00:00,23.002657,72.591912,CO,12,46,21
India,Gujarat,Ahmedabad,"Rakhial, Ahmedabad - IITM",23-03-2026 08:00:00,23.016834,72.625775,PM2.5,33,114,64
India,Gujarat,Ahmedabad,"Rakhial, Ahmedabad - IITM",23-03-2026 08:00:00,23.016834,72.625775,NO2,37,158,96
India,Gujarat,Ahmedabad,"Rakhial, Ahmedabad - IITM",23-03-2026 08:00:00,23.016834,72.625775,SO2,8,100,40
India,Gujarat,Ahmedabad,"Rakhial, Ahmedabad - IITM",23-03-2026 08:00:00,23.016834,72.625775,CO,4,105,66
India,Gujarat,Ahmedabad,"Rakhial, Ahmedabad - IITM",23-03-2026 08:00:00,23.016834,72.625775,OZONE,1,74,3
India,Gujarat,Ahmedabad,"SAC ISRO Satellite, Ahmedabad - IITM",23-03-2026 08:00:00,23.023389,72.515201,PM10,65,136,100
India,Gujarat,Ahmedabad,"SAC ISRO Satellite, Ahmedabad - IITM",23-03-2026 08:00:00,23.023389,72.515201,NH3,2,13,5
India,Delhi,Delhi,"R K Puram, Delhi - DPCC",23-03-2026 08:00:00,28.563262,77.186937,CO,30,119,74
India,Delhi,Delhi,"Rohini, Delhi - DPCC",23-03-2026 08:00:00,28.732528,77.119920,PM10,58,213,116
India,Delhi,Delhi,"Rohini, Delhi - DPCC",23-03-2026 08:00:00,28.732528,77.119920,NH3,7,10,8
India,Delhi,Delhi,"Rohini, Delhi - DPCC",23-03-2026 08:00:00,28.732528,77.119920,SO2,9,43,16
India,Delhi,Delhi,"Shadipur, Delhi - CPCB",23-03-2026 08:00:00,28.6514781,77.1473105,PM2.5,48,215,110
India,Delhi,Delhi,"Sirifort, Delhi - CPCB",23-03-2026 08:00:00,28.5504249,77.2159377,SO2,30,36,34
India,Delhi,Delhi,"Sonia Vihar, Delhi - DPCC",23-03-2026 08:00:00,28.710508,77.249485,OZONE,6,141,23
India,Gujarat,Ahmedabad,"SVPI Airport Hansol, Ahmedabad - IITM",23-03-2026 08:00:00,23.076793,72.627874,CO,7,60,40
India,Gujarat,Gandhinagar,"IIPHG Lekawada, Gandhinagar - IITM",23-03-2026 08:00:00,23.243639,72.68994,PM10,53,127,101
India,Gujarat,Gandhinagar,"IIPHG Lekawada, Gandhinagar - IITM",23-03-2026 08:00:00,23.243639,72.68994,OZONE,1,25,2
India,Delhi,Delhi,"Pusa, Delhi - DPCC",23-03-2026 08:00:00,28.639652,77.146275,NO2,56,176,97
India,Delhi,Delhi,"R K Puram, Delhi - DPCC",23-03-2026 08:00:00,28.563262,77.186937,PM10,55,278,132
India,Delhi,Delhi,"Punjabi Bagh, Delhi - DPCC",23-03-2026 08:00:00,28.674045,77.131023,NO2,20,63,36
India,Delhi,Delhi,"Pusa, Delhi - DPCC",23-03-2026 08:00:00,28.639652,77.146275,PM10,55,407,164
India,Haryana,Sonipat,"Murthal, Sonipat - HSPCB",23-03-2026 08:00:00,29.027200,77.062100,NH3,21,21,21
India,Haryana,Sonipat,"Murthal, Sonipat - HSPCB",23-03-2026 08:00:00,29.027200,77.062100,OZONE,25,26,26
India,Haryana,Yamuna Nagar,"Gobind Pura, Yamuna Nagar - HSPCB",23-03-2026 08:00:00,30.1480566,77.2893471,NH3,1,6,4
India,Haryana,Yamuna Nagar,"Gobind Pura, Yamuna Nagar - HSPCB",23-03-2026 08:00:00,30.1480566,77.2893471,OZONE,8,33,11
India,Jammu_and_Kashmir,Pampore,"Khrew, Pampore - JKPCC",23-03-2026 08:00:00,34.031606,75.009712,PM10,16,107,54
India,Jammu_and_Kashmir,Srinagar,"Khunmoh, Srinagar - JKPCC",23-03-2026 08:00:00,34.06313,74.96017,NO2,5,29,11
India,Jammu_and_Kashmir,Srinagar,"Khunmoh, Srinagar - JKPCC",23-03-2026 08:00:00,34.06313,74.96017,SO2,4,5,4
India,Jammu_and_Kashmir,Srinagar,"Rajbagh, Srinagar - JKPCC",23-03-2026 08:00:00,34.066206,74.819820,PM2.5,14,38,22
India,Jharkhand,Dhanbad,"Sardar Patel Nagar, Dhanbad - JSPCB",23-03-2026 08:00:00,23.80569,86.44268,PM10,8,187,86
India,Haryana,Palwal,"Shyam Nagar, Palwal - HSPCB",23-03-2026 08:00:00,28.1485564,77.3320667,OZONE,8,13,8
India,Haryana,Panchgaon,"Amity University, Panchgaon - IITM",23-03-2026 08:00:00,28.3153,76.9143,PM2.5,33,97,58
India,Haryana,Panchgaon,"Amity University, Panchgaon - IITM",23-03-2026 08:00:00,28.3153,76.9143,NO2,13,36,20
India,Haryana,Panchgaon,"Amity University, Panchgaon - IITM",23-03-2026 08:00:00,28.3153,76.9143,NH3,1,3,1
India,Haryana,Panipat,"Sector-18, Panipat - HSPCB",23-03-2026 08:00:00,29.432304,76.972765,PM2.5,NA,NA,NA
India,Haryana,Rohtak,"MD University, Rohtak - HSPCB",23-03-2026 08:00:00,28.52123,76.37138,PM2.5,9,223,100
India,Haryana,Sonipat,"Murthal, Sonipat - HSPCB",23-03-2026 08:00:00,29.027200,77.062100,PM10,107,199,154
India,Haryana,Mandikhera,"General Hospital, Mandikhera(Nuh) - HSPCB",23-03-2026 08:00:00,27.9002,76.9938,NH3,13,14,13
India,Haryana,Narnaul,"Shastri Nagar, Narnaul - HSPCB",23-03-2026 08:00:00,28.060249,76.113115,PM10,26,120,64
India,Haryana,Narnaul,"Shastri Nagar, Narnaul - HSPCB",23-03-2026 08:00:00,28.060249,76.113115,NH3,4,6,5
India,Haryana,Narnaul,"Shastri Nagar, Narnaul - HSPCB",23-03-2026 08:00:00,28.060249,76.113115,CO,24,38,34
India,Haryana,Narnaul,"Shastri Nagar, Narnaul - HSPCB",23-03-2026 08:00:00,28.060249,76.113115,OZONE,11,29,12
India,Haryana,Palwal,"Shyam Nagar, Palwal - HSPCB",23-03-2026 08:00:00,28.1485564,77.3320667,PM2.5,65,90,77
India,Haryana,Faridabad,"New Industrial Town, Faridabad - HSPCB",23-03-2026 08:00:00,28.39072,77.30059,SO2,8,9,8
India,Haryana,Faridabad,"New Industrial Town, Faridabad - HSPCB",23-03-2026 08:00:00,28.39072,77.30059,OZONE,26,35,30
India,Haryana,Faridabad,"Sector 11, Faridabad - HSPCB",23-03-2026 08:00:00,28.376058,77.315741,PM2.5,24,403,217
India,Haryana,Faridabad,"Sector 11, Faridabad - HSPCB",23-03-2026 08:00:00,28.376058,77.315741,SO2,3,3,3
India,Haryana,Faridabad,"Sector 30, Faridabad - HSPCB",23-03-2026 08:00:00,28.4417,77.3217,CO,22,65,62
India,Haryana,Fatehabad,"Huda Sector, Fatehabad - HSPCB",23-03-2026 08:00:00,29.503664,75.467934,PM2.5,25,116,50
India,Haryana,Gurugram,"Vikas Sadan, Gurugram - HSPCB",23-03-2026 08:00:00,28.4501238,77.0263051,SO2,2,7,5
India,Haryana,Gurugram,"Vikas Sadan, Gurugram - HSPCB",23-03-2026 08:00:00,28.4501238,77.0263051,OZONE,4,31,11
India,Haryana,Hisar,"Urban Estate-II, Hisar - HSPCB",23-03-2026 08:00:00,29.140560,75.744941,SO2,NA,NA,NA
India,Haryana,Kaithal,"Rishi Nagar, Kaithal - HSPCB",23-03-2026 08:00:00,29.8006,76.4155,SO2,43,45,44
India,Haryana,Karnal,"Sector-12, Karnal - HSPCB",23-03-2026 08:00:00,29.695300,77.002700,PM2.5,20,135,69
India,Haryana,Fatehabad,"Huda Sector, Fatehabad - HSPCB",23-03-2026 08:00:00,29.503664,75.467934,SO2,10,11,10
India,Haryana,Gurugram,"NISE Gwal Pahari, Gurugram - IMD",23-03-2026 08:00:00,28.422681,77.148944,OZONE,11,69,16
India,Haryana,Gurugram,"Sector-51, Gurugram - HSPCB",23-03-2026 08:00:00,28.4227,77.0667,NH3,6,10,8
India,Haryana,Gurugram,"Vikas Sadan, Gurugram - HSPCB",23-03-2026 08:00:00,28.4501238,77.0263051,PM2.5,72,315,169
India,Haryana,Bahadurgarh,"Arya Nagar, Bahadurgarh - HSPCB",23-03-2026 08:00:00,28.6701,76.9254,OZONE,NA,NA,NA
India,Haryana,Bhiwani,"H.B. Colony, Bhiwani - HSPCB",23-03-2026 08:00:00,28.806223,76.141105,SO2,1,13,5
India,Haryana,Dharuhera,"Municipal Corporation Office, Dharuhera -  HSPCB",23-03-2026 08:00:00,28.206800,76.799700,PM10,53,149,97
India,Haryana,Dharuhera,"Municipal Corporation Office, Dharuhera -  HSPCB",23-03-2026 08:00:00,28.206800,76.799700,NH3,9,26,19
India,Karnataka,Bengaluru,"Hebbal, Bengaluru - KSPCB",23-03-2026 08:00:00,13.029152,77.585901,NH3,1,3,2
India,Karnataka,Bengaluru,"Hombegowda Nagar, Bengaluru - KSPCB",23-03-2026 08:00:00,12.938539,77.590100,PM10,63,102,80
India,Karnataka,Bengaluru,"Hombegowda Nagar, Bengaluru - KSPCB",23-03-2026 08:00:00,12.938539,77.590100,SO2,5,32,13
India,Karnataka,Bengaluru,"Jayanagar 5th Block, Bengaluru - KSPCB",23-03-2026 08:00:00,12.920984,77.584908,NO2,13,19,15
India,Karnataka,Bengaluru,"BWSSB Kadabesanahalli, Bengaluru - CPCB",23-03-2026 08:00:00,12.9352049,77.6814488,PM2.5,NA,NA,NA
India,Karnataka,Bengaluru,"BWSSB Kadabesanahalli, Bengaluru - CPCB",23-03-2026 08:00:00,12.9352049,77.6814488,PM10,NA,NA,NA
India,Karnataka,Bengaluru,"BWSSB Kadabesanahalli, Bengaluru - CPCB",23-03-2026 08:00:00,12.9352049,77.6814488,CO,34,48,39
India,Karnataka,Bengaluru,"Bapuji Nagar, Bengaluru - KSPCB",23-03-2026 08:00:00,12.951913,77.539784,PM10,55,106,74
India,Madhya Pradesh,Indore,"Regional Park, Indore - IMC",23-03-2026 08:00:00,22.6780,75.8559,NO2,21,26,23
India,Madhya Pradesh,Indore,"Residency Area, Indore - IMC",23-03-2026 08:00:00,22.7084,75.8815,PM2.5,23,146,67
India,Madhya Pradesh,Jabalpur,"Govindh Bhavan Colony, Jabalpur - JMC",23-03-2026 08:00:00,23.163174,79.973061,PM10,40,64,50
India,Madhya Pradesh,Jabalpur,"Govindh Bhavan Colony, Jabalpur - JMC",23-03-2026 08:00:00,23.163174,79.973061,NO2,11,19,14
India,Madhya Pradesh,Jabalpur,"Govindh Bhavan Colony, Jabalpur - JMC",23-03-2026 08:00:00,23.163174,79.973061,NH3,2,2,2
India,Madhya Pradesh,Jabalpur,"Govindh Bhavan Colony, Jabalpur - JMC",23-03-2026 08:00:00,23.163174,79.973061,SO2,7,10,8
India,Madhya Pradesh,Jabalpur,"Govindh Bhavan Colony, Jabalpur - JMC",23-03-2026 08:00:00,23.163174,79.973061,OZONE,1,25,1
India,Madhya Pradesh,Jabalpur,"Gupteshwar, Jabalpur - JMC",23-03-2026 08:00:00,23.142888,79.916147,PM2.5,24,302,87
India,Madhya Pradesh,Jabalpur,"Gupteshwar, Jabalpur - JMC",23-03-2026 08:00:00,23.142888,79.916147,SO2,10,22,14
India,Karnataka,Kalaburagi,"Mahatma Basaveswar Colony, Kalaburgi - KSPCB",23-03-2026 08:00:00,17.336318,76.847397,PM2.5,13,54,40
India,Karnataka,Kalaburagi,"Mahatma Basaveswar Colony, Kalaburgi - KSPCB",23-03-2026 08:00:00,17.336318,76.847397,SO2,2,5,4
India,Karnataka,Kalaburagi,"Mahatma Basaveswar Colony, Kalaburgi - KSPCB",23-03-2026 08:00:00,17.336318,76.847397,CO,34,92,48
India,Karnataka,Kalaburagi,"Mahatma Basaveswar Colony, Kalaburgi - KSPCB",23-03-2026 08:00:00,17.336318,76.847397,OZONE,8,14,13
India,Karnataka,Koppal,"Diwator Nagar, Koppal - KSPCB",23-03-2026 08:00:00,15.347630,76.181767,NH3,NA,NA,NA
India,Karnataka,Madikeri,"Stuart Hill, Madikeri - KSPCB",23-03-2026 08:00:00,12.415911,75.735050,PM10,28,57,42
India,Karnataka,Madikeri,"Stuart Hill, Madikeri - KSPCB",23-03-2026 08:00:00,12.415911,75.735050,SO2,7,7,7
India,Karnataka,Mysuru,"Hebbal 1st Stage, Mysuru - KSPCB",23-03-2026 08:00:00,12.21041,76.37376,OZONE,1,88,4
India,Madhya Pradesh,Gwalior,"Maharaj Bada, Gwalior - MPPCB",23-03-2026 08:00:00,26.200388,78.147714,PM10,63,272,125
India,Madhya Pradesh,Gwalior,"Maharaj Bada, Gwalior - MPPCB",23-03-2026 08:00:00,26.200388,78.147714,NH3,NA,NA,NA
India,Madhya Pradesh,Gwalior,"Maharaj Bada, Gwalior - MPPCB",23-03-2026 08:00:00,26.200388,78.147714,CO,NA,NA,NA
India,Madhya Pradesh,Indore,"Airport Area, Indore - IMC",23-03-2026 08:00:00,22.7289,75.8076,PM2.5,58,337,134
India,Madhya Pradesh,Indore,"Airport Area, Indore - IMC",23-03-2026 08:00:00,22.7289,75.8076,CO,2,28,15
