country,state,city,station,last_update,latitude,longitude,pollutant_id,min_value,max_value,avg_value
India,Assam,Byrnihat,"Central Academy for SFS, Byrnihat - PCBA",31-01-2026 08:00:00,26.071318,91.87488,SO2,32,32,32
India,Assam,Guwahati,"LGBI Airport, Guwahati - PCBA",31-01-2026 08:00:00,26.10887,91.589544,NH3,5,20,6
India,Assam,Guwahati,"LGBI Airport, Guwahati - PCBA",31-01-2026 08:00:00,26.10887,91.589544,SO2,7,24,12
India,Assam,Guwahati,"Pan Bazaar, Guwahati - PCBA",31-01-2026 08:00:00,26.187500,91.744194,SO2,24,53,35
India,Assam,Guwahati,"Railway Colony, Guwahati - PCBA",31-01-2026 08:00:00,26.181742,91.78063,NO2,3,4,3
India,Andhra_Pradesh,Amaravati,"Secretariat, Amaravati - APPCB",31-01-2026 08:00:00,16.5150833,80.5181667,CO,2,24,10
India,Andhra_Pradesh,Anantapur,"Gulzarpet, Anantapur - APPCB",31-01-2026 08:00:00,14.675886,77.593027,NO2,14,26,16
India,Andhra_Pradesh,Chittoor,"Gangineni Cheruvu, Chittoor - APPCB",31-01-2026 08:00:00,13.204880,79.097889,NH3,6,9,7
India,Andhra_Pradesh,Kadapa,"Yerramukkapalli, Kadapa - APPCB",31-01-2026 08:00:00,14.465052,78.824187,CO,NA,NA,NA
India,Andhra_Pradesh,Vijayawada,"Rajiv Gandhi Park, Vijayawada - APPCB",31-01-2026 08:00:00,16.509717,80.612222,NH3,2,5,4
India,Andhra_Pradesh,Vijayawada,"Rajiv Nagar, Vijayawada - APPCB",31-01-2026 08:00:00,16.554731,80.649110,NH3,4,5,4
India,Andhra_Pradesh,Vijayawada,"Rajiv Nagar, Vijayawada - APPCB",31-01-2026 08:00:00,16.554731,80.649110,CO,28,50,34
India,Andhra_Pradesh,Visakhapatnam,"GVM Corporation, Visakhapatnam - APPCB",31-01-2026 08:00:00,17.72,83.3,SO2,1,23,9
India,Andhra_Pradesh,Visakhapatnam,"GVM Corporation, Visakhapatnam - APPCB",31-01-2026 08:00:00,17.72,83.3,CO,5,56,26
India,Assam,Silchar,"Tarapur, Silchar - PCBA",31-01-2026 08:00:00,24.82827,92.79525,OZONE,2,5,2
India,Assam,Sivasagar,"Girls College, Sivasagar - PCBA",31-01-2026 08:00:00,26.987634,94.636574,PM2.5,53,78,64
India,Assam,Sivasagar,"Girls College, Sivasagar - PCBA",31-01-2026 08:00:00,26.987634,94.636574,NO2,29,61,39
India,Assam,Sivasagar,"Girls College, Sivasagar - PCBA",31-01-2026 08:00:00,26.987634,94.636574,NH3,7,15,8
India,Assam,Sivasagar,"Girls College, Sivasagar - PCBA",31-01-2026 08:00:00,26.987634,94.636574,SO2,9,12,11
India,Bihar,Aurangabad,"Gurdeo Nagar, Aurangabad - BSPCB",31-01-2026 08:00:00,24.75746,84.366208,SO2,NA,NA,NA
India,Bihar,Begusarai,"Lohiyanagar, Begusarai - BSPCB",31-01-2026 08:00:00,25.42742023,86.13886079,PM10,55,106,82
India,Andaman and Nicobar,Sri Vijaya Puram,"Police Line, Sri Vijaya Puram - ANPCC",31-01-2026 08:00:00,11.654054,92.734055,PM2.5,NA,NA,NA
India,Andaman and Nicobar,Sri Vijaya Puram,"Police Line, Sri Vijaya Puram - ANPCC",31-01-2026 08:00:00,11.654054,92.734055,PM10,NA,NA,NA
India,Andaman and Nicobar,Sri Vijaya Puram,"Police Line, Sri Vijaya Puram - ANPCC",31-01-2026 08:00:00,11.654054,92.734055,NO2,NA,NA,NA
India,Andhra_Pradesh,Vijayawada,"Rajiv Gandhi Park, Vijayawada - APPCB",31-01-2026 08:00:00,16.509717,80.612222,PM2.5,77,157,117
India,Andhra_Pradesh,Vijayawada,"Rajiv Gandhi Park, Vijayawada - APPCB",31-01-2026 08:00:00,16.509717,80.612222,PM10,73,112,98
India,Andhra_Pradesh,Tirupati,"Vaikuntapuram, Tirupati - APPCB",31-01-2026 08:00:00,13.615387,79.409230,NH3,5,7,6
India,Andhra_Pradesh,Tirupati,"Vaikuntapuram, Tirupati - APPCB",31-01-2026 08:00:00,13.615387,79.409230,CO,19,40,20
India,Andhra_Pradesh,Vijayawada,"Kanuru, Vijayawada - APPCB",31-01-2026 08:00:00,16.486692,80.699436,NO2,NA,NA,NA
India,Assam,Nalbari,"Bata Chowk, Nalbari - PCBA",31-01-2026 08:00:00,26.446912,91.439057,SO2,7,8,8
India,Bihar,Bhagalpur,"DM Office_Kachari Chowk, Bhagalpur - BSPCB",31-01-2026 08:00:00,25.251013,86.989001,NO2,4,14,8
India,Bihar,Bhagalpur,"Mayaganj, Bhagalpur - BSPCB",31-01-2026 08:00:00,25.265194,87.012947,PM2.5,35,87,55
India,Bihar,Bhagalpur,"Mayaganj, Bhagalpur - BSPCB",31-01-2026 08:00:00,25.265194,87.012947,NO2,6,8,7
India,Bihar,Bhagalpur,"Mayaganj, Bhagalpur - BSPCB",31-01-2026 08:00:00,25.265194,87.012947,NH3,11,13,12
India,Bihar,Bihar Sharif,"D M Colony, Bihar Sharif - BSPCB",31-01-2026 08:00:00,25.204762,85.514960,SO2,9,10,10
India,Bihar,Buxar,"Charitra Van, Buxar - BSPCB",31-01-2026 08:00:00,25.567520,83.966379,PM2.5,60,97,77
India,Bihar,Chhapra,"Darshan Nagar, Chhapra - BSPCB",31-01-2026 08:00:00,25.7808257,84.7446768,PM2.5,5,180,75
India,Bihar,Chhapra,"Darshan Nagar, Chhapra - BSPCB",31-01-2026 08:00:00,25.7808257,84.7446768,NO2,1,1,1
India,Bihar,Muzaffarpur,"Buddha Colony, Muzaffarpur - BSPCB",31-01-2026 08:00:00,26.11442,85.39813,PM10,75,130,102
India,Bihar,Muzaffarpur,"MIT-Daudpur Kothi, Muzaffarpur - BSPCB",31-01-2026 08:00:00,26.1403345,85.3650192,SO2,10,15,11
India,Bihar,Muzaffarpur,"MIT-Daudpur Kothi, Muzaffarpur - BSPCB",31-01-2026 08:00:00,26.1403345,85.3650192,OZONE,5,44,5
India,Bihar,Muzaffarpur,"Muzaffarpur Collectorate, Muzaffarpur - BSPCB",31-01-2026 08:00:00,26.1209,85.3647,NO2,11,25,18
India,Bihar,Patna,"DRM Office Danapur, Patna - BSPCB",31-01-2026 08:00:00,25.586562,85.043586,PM2.5,67,165,97
India,Bihar,Patna,"DRM Office Danapur, Patna - BSPCB",31-01-2026 08:00:00,25.586562,85.043586,OZONE,5,40,25
India,Bihar,Patna,"Govt. High School Shikarpur, Patna - BSPCB",31-01-2026 08:00:00,25.592539,85.227158,PM2.5,67,81,75
India,Bihar,Katihar,"Mirchaibari, Katihar - BSPCB",31-01-2026 08:00:00,25.560083,87.553265,NH3,1,1,1
India,Bihar,Katihar,"Mirchaibari, Katihar - BSPCB",31-01-2026 08:00:00,25.560083,87.553265,OZONE,5,32,6
India,Bihar,Manguraha,"Forest Rest House, Manguraha - BSPCB",31-01-2026 08:00:00,27.308328,84.531742,PM10,56,175,110
India,Bihar,Manguraha,"Forest Rest House, Manguraha - BSPCB",31-01-2026 08:00:00,27.308328,84.531742,NO2,4,7,5
India,Bihar,Motihari,"Gandak Colony, Motihari - BSPCB",31-01-2026 08:00:00,26.63086,84.90051,CO,14,30,28
India,Bihar,Motihari,"Gandak Colony, Motihari - BSPCB",31-01-2026 08:00:00,26.63086,84.90051,OZONE,3,6,3
India,Bihar,Munger,"Town Hall, Munger - BSPCB",31-01-2026 08:00:00,25.376776,86.471523,PM10,19,123,79
India,Bihar,Munger,"Town Hall, Munger - BSPCB",31-01-2026 08:00:00,25.376776,86.471523,SO2,20,35,27
India,Bihar,Patna,"Muradpur, Patna - BSPCB",31-01-2026 08:00:00,25.619651,85.147382,NH3,4,5,5
India,Bihar,Patna,"Muradpur, Patna - BSPCB",31-01-2026 08:00:00,25.619651,85.147382,SO2,8,10,9
India,Bihar,Patna,"Samanpura, Patna - BSPCB",31-01-2026 08:00:00,25.596727,85.085624,NH3,5,6,5
India,Bihar,Patna,"Samanpura, Patna - BSPCB",31-01-2026 08:00:00,25.596727,85.085624,CO,87,113,90
India,Bihar,Rajgir,"Dangi Tola, Rajgir - BSPCB",31-01-2026 08:00:00,25.03280,85.41948,PM2.5,23,163,72
India,Bihar,Rajgir,"Dangi Tola, Rajgir - BSPCB",31-01-2026 08:00:00,25.03280,85.41948,NH3,6,7,6
India,Bihar,Saharsa,"Police Line, Saharsa - BSPCB",31-01-2026 08:00:00,25.892357,86.590325,OZONE,9,11,10
India,Bihar,Samastipur,"DM Office_Kasipur, Samastipur - BSPCB",31-01-2026 08:00:00,25.859655,85.77944,PM2.5,45,137,72
India,Bihar,Samastipur,"DM Office_Kasipur, Samastipur - BSPCB",31-01-2026 08:00:00,25.859655,85.77944,PM10,44,112,69
India,Bihar,Samastipur,"DM Office_Kasipur, Samastipur - BSPCB",31-01-2026 08:00:00,25.859655,85.77944,CO,7,10,10
India,Bihar,Gaya,"Collectorate, Gaya - BSPCB",31-01-2026 08:00:00,24.7955,84.9994,SO2,7,22,9
India,Bihar,Gaya,"Kareemganj, Gaya - BSPCB",31-01-2026 08:00:00,24.792403,84.992416,PM2.5,53,183,127
India,Bihar,Hajipur,"Industrial Area, Hajipur - BSPCB",31-01-2026 08:00:00,25.697189,85.245900,CO,26,72,48
India,Bihar,Hajipur,"Industrial Area, Hajipur - BSPCB",31-01-2026 08:00:00,25.697189,85.245900,OZONE,3,84,6
India,Bihar,Hajipur,"Industrial Area, Hajipur - BSPCB",31-01-2026 08:00:00,25.697189,85.245900,NH3,12,16,14
India,Bihar,Bettiah,"Kamalnath Nagar, Bettiah - BSPCB",31-01-2026 08:00:00,26.80365,84.51954,CO,24,70,56
India,Delhi,Delhi,"Bawana, Delhi - DPCC",31-01-2026 08:00:00,28.776200,77.051074,OZONE,1,87,2
India,Delhi,Delhi,"CRRI Mathura Road, Delhi - IMD",31-01-2026 08:00:00,28.5512005,77.2735737,OZONE,4,46,6
India,Delhi,Delhi,"Chandni Chowk, Delhi - IITM",31-01-2026 08:00:00,28.656756,77.227234,PM10,121,410,249
India,Delhi,Delhi,"Chandni Chowk, Delhi - IITM",31-01-2026 08:00:00,28.656756,77.227234,OZONE,3,69,5
India,Delhi,Delhi,"Dwarka-Sector 8, Delhi - DPCC ",31-01-2026 08:00:00,28.5710274,77.0719006,PM10,117,484,261
India,Delhi,Delhi,"Dwarka-Sector 8, Delhi - DPCC ",31-01-2026 08:00:00,28.5710274,77.0719006,NH3,11,20,15
India,Delhi,Delhi,"Dwarka-Sector 8, Delhi - DPCC ",31-01-2026 08:00:00,28.5710274,77.0719006,CO,12,185,129
India,Bihar,Siwan,"Chitragupta Nagar, Siwan - BSPCB",31-01-2026 08:00:00,26.2271665,84.3570427,SO2,9,9,9
India,Bihar,Siwan,"Chitragupta Nagar, Siwan - BSPCB",31-01-2026 08:00:00,26.2271665,84.3570427,CO,58,103,61
India,Chandigarh,Chandigarh,"Sector-25, Chandigarh - CPCC",31-01-2026 08:00:00,30.751462,76.762879,CO,17,102,52
India,Chandigarh,Chandigarh,"Sector-25, Chandigarh - CPCC",31-01-2026 08:00:00,30.751462,76.762879,OZONE,NA,NA,NA
India,Chandigarh,Chandigarh,"Sector-53, Chandigarh - CPCC",31-01-2026 08:00:00,30.719859,76.738637,SO2,NA,NA,NA
India,Chhattisgarh,Milupara,"Govt. Higher Secondary School, Milupara - CECB",31-01-2026 08:00:00,22.1910172,83.5197009,NO2,18,75,33
India,Chhattisgarh,Milupara,"Govt. Higher Secondary School, Milupara - CECB",31-01-2026 08:00:00,22.1910172,83.5197009,SO2,13,19,15
India,Chhattisgarh,Milupara,"Govt. Higher Secondary School, Milupara - CECB",31-01-2026 08:00:00,22.1910172,83.5197009,OZONE,3,132,15
India,Chhattisgarh,Raipur,"AIIMS, Raipur - CECB",31-01-2026 08:00:00,21.258815,81.578979,SO2,3,5,4
India,Chhattisgarh,Raipur,"AIIMS, Raipur - CECB",31-01-2026 08:00:00,21.258815,81.578979,OZONE,1,2,1
India,Delhi,Delhi,"Alipur, Delhi - DPCC",31-01-2026 08:00:00,28.815329,77.153010,CO,27,89,67
India,Delhi,Delhi,"Alipur, Delhi - DPCC",31-01-2026 08:00:00,28.815329,77.153010,OZONE,7,50,8
India,Delhi,Delhi,"Anand Vihar, Delhi - DPCC",31-01-2026 08:00:00,28.647622,77.3158090,SO2,9,30,19
India,Delhi,Delhi,"Aya Nagar, Delhi - IMD",31-01-2026 08:00:00,28.4706914,77.1099364,PM10,106,425,238
India,Delhi,Delhi,"Aya Nagar, Delhi - IMD",31-01-2026 08:00:00,28.4706914,77.1099364,CO,16,116,106
India,Delhi,Delhi,"IGI Airport (T3), Delhi - IMD",31-01-2026 08:00:00,28.5627763,77.1180053,NO2,49,101,70
India,Delhi,Delhi,"IIT Delhi, Delhi - IITM",31-01-2026 08:00:00,28.542460,77.191651,CO,24,131,120
India,Delhi,Delhi,"ITO, Delhi - CPCB",31-01-2026 08:00:00,28.628624,77.241060,NO2,36,170,94
India,Delhi,Delhi,"Jawaharlal Nehru Stadium, Delhi - DPCC",31-01-2026 08:00:00,28.580280,77.233829,NO2,40,125,70
India,Chhattisgarh,Raipur,"Siltara Phase-II, Raipur - CECB",31-01-2026 08:00:00,21.371751,81.664929,NH3,2,2,2
India,Chhattisgarh,Raipur,"Siltara Phase-II, Raipur - CECB",31-01-2026 08:00:00,21.371751,81.664929,OZONE,3,3,3
India,Delhi,Delhi,"Alipur, Delhi - DPCC",31-01-2026 08:00:00,28.815329,77.153010,NH3,15,24,17
India,Chhattisgarh,Korba,"Rampur, Korba - CECB",31-01-2026 08:00:00,22.368195,82.746431,NO2,25,72,39
India,Chhattisgarh,Korba,"Rampur, Korba - CECB",31-01-2026 08:00:00,22.368195,82.746431,OZONE,2,13,2
India,Chhattisgarh,Kunjemura,"OP Jindal School, Kunjemura - CECB",31-01-2026 08:00:00,22.126650,83.483212,SO2,1,80,30
India,Chhattisgarh,Raipur,"Krishak Nagar, Raipur - CECB",31-01-2026 08:00:00,21.237755,81.705301,NO2,14,28,20
India,Chhattisgarh,Raipur,"Krishak Nagar, Raipur - CECB",31-01-2026 08:00:00,21.237755,81.705301,CO,19,34,32
India,Chhattisgarh,Bhilai,"Hathkhoj, Bhilai - CECB",31-01-2026 08:00:00,21.224231,81.408350,NO2,23,95,58
India,Gujarat,Gandhinagar,"Sector-10, Gandhinagar - GPCB",31-01-2026 08:00:00,23.221714,72.654328,CO,31,42,36
India,Gujarat,Mehsana,"Sadanand Nagar, Mehsana - Nexteng Enviro",31-01-2026 08:00:00,23.593150,72.372792,PM2.5,NA,NA,NA
India,Gujarat,Mehsana,"Sadanand Nagar, Mehsana - Nexteng Enviro",31-01-2026 08:00:00,23.593150,72.372792,NH3,NA,NA,NA
India,Gujarat,Mehsana,"Sadanand Nagar, Mehsana - Nexteng Enviro",31-01-2026 08:00:00,23.593150,72.372792,CO,NA,NA,NA
India,Gujarat,Rajkot,"Mavdi, Rajkot - Nexteng Enviro ",31-01-2026 08:00:00,22.248853,70.776774,CO,106,112,107
India,Gujarat,Surat,"Science Center, Surat - SMC",31-01-2026 08:00:00,21.170046,72.795405,PM10,74,146,110
India,Gujarat,Surat,"Science Center, Surat - SMC",31-01-2026 08:00:00,21.170046,72.795405,NO2,3,37,13
India,Gujarat,Vadodara,"Bapunagar, Vadodara - Nexteng Enviro",31-01-2026 08:00:00,22.320153,73.216285,NO2,NA,NA,NA
India,Gujarat,Ahmedabad,"Raikhad, Ahmedabad - IITM",31-01-2026 08:00:00,23.020509,72.579261,PM10,109,166,138
India,Gujarat,Ahmedabad,"Raikhad, Ahmedabad - IITM",31-01-2026 08:00:00,23.020509,72.579261,SO2,9,19,14
India,Gujarat,Ahmedabad,"Raikhad, Ahmedabad - IITM",31-01-2026 08:00:00,23.020509,72.579261,CO,5,76,13
India,Gujarat,Ahmedabad,"Raikhad, Ahmedabad - IITM",31-01-2026 08:00:00,23.020509,72.579261,OZONE,4,69,23
India,Gujarat,Ahmedabad,"Rakhial, Ahmedabad - IITM",31-01-2026 08:00:00,23.016834,72.625775,NO2,21,91,42
India,Gujarat,Ahmedabad,"Rakhial, Ahmedabad - IITM",31-01-2026 08:00:00,23.016834,72.625775,NH3,5,13,8
India,Gujarat,Ahmedabad,"SAC ISRO Bopal, Ahmedabad - IITM",31-01-2026 08:00:00,23.041137,72.456691,SO2,2,24,7
India,Gujarat,Ahmedabad,"SAC ISRO Bopal, Ahmedabad - IITM",31-01-2026 08:00:00,23.041137,72.456691,CO,24,52,29
India,Gujarat,Ahmedabad,"SAC ISRO Satellite, Ahmedabad - IITM",31-01-2026 08:00:00,23.023389,72.515201,NO2,7,32,14
India,Delhi,Delhi,"Sri Aurobindo Marg, Delhi - DPCC",31-01-2026 08:00:00,28.531346,77.190156,PM2.5,80,349,199
India,Delhi,Delhi,"Vivek Vihar, Delhi - DPCC",31-01-2026 08:00:00,28.672342,77.315260,PM10,128,485,274
India,Delhi,Delhi,"Wazirpur, Delhi - DPCC",31-01-2026 08:00:00,28.699793,77.165453,PM10,179,500,303
India,Gujarat,Ahmedabad,"Chandkheda, Ahmedabad - IITM",31-01-2026 08:00:00,23.107969,72.574648,SO2,9,14,12
India,Gujarat,Ahmedabad,"Gyaspur, Ahmedabad - IITM",31-01-2026 08:00:00,22.977134,72.553024,NO2,59,146,98
India,Delhi,Delhi,"R K Puram, Delhi - DPCC",31-01-2026 08:00:00,28.563262,77.186937,CO,12,157,136
India,Delhi,Delhi,"Rohini, Delhi - DPCC",31-01-2026 08:00:00,28.732528,77.119920,OZONE,4,130,8
India,Delhi,Delhi,"Shadipur, Delhi - CPCB",31-01-2026 08:00:00,28.6514781,77.1473105,PM2.5,NA,NA,NA
India,Delhi,Delhi,"Sonia Vihar, Delhi - DPCC",31-01-2026 08:00:00,28.710508,77.249485,NO2,26,76,41
India,Delhi,Delhi,"Patparganj, Delhi - DPCC",31-01-2026 08:00:00,28.623763,77.287209,PM2.5,103,466,301
India,Delhi,Delhi,"Patparganj, Delhi - DPCC",31-01-2026 08:00:00,28.623763,77.287209,CO,8,154,74
India,Delhi,Delhi,"Punjabi Bagh, Delhi - DPCC",31-01-2026 08:00:00,28.674045,77.131023,SO2,9,23,17
India,Delhi,Delhi,"Pusa, Delhi - DPCC",31-01-2026 08:00:00,28.639652,77.146275,PM10,153,428,226
India,Delhi,Delhi,"Pusa, Delhi - DPCC",31-01-2026 08:00:00,28.639652,77.146275,NO2,22,125,73
India,Delhi,Delhi,"Major Dhyan Chand National Stadium, Delhi - DPCC",31-01-2026 08:00:00,28.611281,77.237738,NH3,14,18,15
India,Delhi,Delhi,"Mandir Marg, Delhi - DPCC",31-01-2026 08:00:00,28.636429,77.201067,NH3,3,7,5
India,Delhi,Delhi,"Mandir Marg, Delhi - DPCC",31-01-2026 08:00:00,28.636429,77.201067,SO2,33,63,48
India,Delhi,Delhi,"Mundka, Delhi - DPCC",31-01-2026 08:00:00,28.684678,77.076574,PM10,111,500,258
India,Delhi,Delhi,"NSIT Dwarka, Delhi - CPCB",31-01-2026 08:00:00,28.60909,77.0325413,SO2,10,22,15
India,Delhi,Delhi,"NSIT Dwarka, Delhi - CPCB",31-01-2026 08:00:00,28.60909,77.0325413,CO,44,88,57
India,Delhi,Delhi,"Najafgarh, Delhi - DPCC",31-01-2026 08:00:00,28.570173,76.933762,CO,14,117,95
India,Delhi,Delhi,"Nehru Nagar, Delhi - DPCC",31-01-2026 08:00:00,28.567890,77.250515,SO2,9,112,27
India,Delhi,Delhi,"Okhla Phase-2, Delhi - DPCC",31-01-2026 08:00:00,28.530785,77.271255,PM2.5,120,466,329
India,Delhi,Delhi,"Okhla Phase-2, Delhi - DPCC",31-01-2026 08:00:00,28.530785,77.271255,NO2,96,218,138
India,Gujarat,Gandhinagar,"GIFT City, Gandhinagar - IITM",31-01-2026 08:00:00,23.163798,72.677768,PM10,95,154,124
India,Haryana,Ballabgarh,"Nathu Colony, Ballabgarh - HSPCB",31-01-2026 08:00:00,28.3419248,77.319699,OZONE,15,15,15
India,Haryana,Charkhi Dadri,"Mini Secretariat, Charkhi Dadri - HSPCB",31-01-2026 08:00:00,28.593883,76.270653,NO2,9,25,15
India,Haryana,Faridabad,"New Industrial Town, Faridabad - HSPCB",31-01-2026 08:00:00,28.39072,77.30059,PM10,110,150,142
India,Haryana,Faridabad,"Sector 11, Faridabad - HSPCB",31-01-2026 08:00:00,28.376058,77.315741,NO2,30,33,31
India,Haryana,Faridabad,"Sector 11, Faridabad - HSPCB",31-01-2026 08:00:00,28.376058,77.315741,NH3,10,11,10
India,Haryana,Faridabad,"Sector 30, Faridabad - HSPCB",31-01-2026 08:00:00,28.4417,77.3217,CO,60,65,61
India,Haryana,Sirsa,"F-Block, Sirsa - HSPCB",31-01-2026 08:00:00,29.536400,75.015800,CO,32,76,55
India,Haryana,Sirsa,"F-Block, Sirsa - HSPCB",31-01-2026 08:00:00,29.536400,75.015800,OZONE,42,60,47
India,Haryana,Yamuna Nagar,"Gobind Pura, Yamuna Nagar - HSPCB",31-01-2026 08:00:00,30.1480566,77.2893471,NH3,1,6,4
India,Haryana,Yamuna Nagar,"Gobind Pura, Yamuna Nagar - HSPCB",31-01-2026 08:00:00,30.1480566,77.2893471,SO2,10,16,12
India,Himachal Pradesh,Baddi,"HIMUDA Complex Phase-1, Baddi - HPPCB",31-01-2026 08:00:00,30.943887,76.801991,NO2,7,31,20
India,Himachal Pradesh,Baddi,"HIMUDA Complex Phase-1, Baddi - HPPCB",31-01-2026 08:00:00,30.943887,76.801991,SO2,31,125,75
India,Jammu_and_Kashmir,Srinagar,"Rajbagh, Srinagar - JKPCC",31-01-2026 08:00:00,34.066206,74.819820,CO,10,16,11
India,Karnataka,Belgaum,"Ramteerth Nagar, Belgaum - KSPCB",31-01-2026 08:00:00,15.888653,74.541751,PM2.5,38,136,65
India,Karnataka,Belgaum,"Ramteerth Nagar, Belgaum - KSPCB",31-01-2026 08:00:00,15.888653,74.541751,NH3,9,11,10
India,Karnataka,Belgaum,"Ramteerth Nagar, Belgaum - KSPCB",31-01-2026 08:00:00,15.888653,74.541751,CO,1,3,2
India,Karnataka,Bengaluru,"BTM Layout, Bengaluru - CPCB",31-01-2026 08:00:00,12.9135218,77.5950804,SO2,23,23,23
India,Karnataka,Bengaluru,"BWSSB Kadabesanahalli, Bengaluru - CPCB",31-01-2026 08:00:00,12.9352049,77.6814488,NO2,13,33,22
India,Karnataka,Bengaluru,"BWSSB Kadabesanahalli, Bengaluru - CPCB",31-01-2026 08:00:00,12.9352049,77.6814488,SO2,3,7,5
India,Karnataka,Bengaluru,"Bapuji Nagar, Bengaluru - KSPCB",31-01-2026 08:00:00,12.951913,77.539784,NH3,1,2,2
India,Haryana,Gurugram,"Vikas Sadan, Gurugram - HSPCB",31-01-2026 08:00:00,28.4501238,77.0263051,CO,61,115,96
India,Haryana,Hisar,"Urban Estate-II, Hisar - HSPCB",31-01-2026 08:00:00,29.140560,75.744941,PM10,64,114,87
India,Haryana,Hisar,"Urban Estate-II, Hisar - HSPCB",31-01-2026 08:00:00,29.140560,75.744941,SO2,9,12,11
India,Haryana,Hisar,"Urban Estate-II, Hisar - HSPCB",31-01-2026 08:00:00,29.140560,75.744941,OZONE,19,104,44
India,Haryana,Manesar,"Sector-2 IMT, Manesar - HSPCB",31-01-2026 08:00:00,28.360699,76.936090,SO2,6,14,9
India,Haryana,Manesar,"Sector-2 IMT, Manesar - HSPCB",31-01-2026 08:00:00,28.360699,76.936090,CO,20,100,48
India,Haryana,Narnaul,"Shastri Nagar, Narnaul - HSPCB",31-01-2026 08:00:00,28.060249,76.113115,PM2.5,93,277,174
India,Gujarat,Vapi,"Phase-1 GIDC, Vapi - GPCB",31-01-2026 08:00:00,20.362421,72.918013,OZONE,4,19,4
India,Haryana,Ambala,"Patti Mehar, Ambala - HSPCB",31-01-2026 08:00:00,30.379589,76.778328,NH3,9,11,10
India,Haryana,Ambala,"Patti Mehar, Ambala - HSPCB",31-01-2026 08:00:00,30.379589,76.778328,OZONE,12,16,14
India,Haryana,Jind,"Police Lines, Jind - HSPCB",31-01-2026 08:00:00,29.307814,76.337619,NH3,NA,NA,NA
India,Haryana,Karnal,"Sector-12, Karnal - HSPCB",31-01-2026 08:00:00,29.695300,77.002700,PM10,8,81,50
India,Haryana,Karnal,"Sector-12, Karnal - HSPCB",31-01-2026 08:00:00,29.695300,77.002700,OZONE,32,32,32
India,Haryana,Palwal,"Shyam Nagar, Palwal - HSPCB",31-01-2026 08:00:00,28.1485564,77.3320667,SO2,13,14,14
India,Karnataka,Kalaburagi,"Mahatma Basaveswar Colony, Kalaburgi - KSPCB",31-01-2026 08:00:00,17.336318,76.847397,CO,40,66,40
India,Karnataka,Madikeri,"Stuart Hill, Madikeri - KSPCB",31-01-2026 08:00:00,12.415911,75.735050,PM2.5,35,69,53
India,Karnataka,Madikeri,"Stuart Hill, Madikeri - KSPCB",31-01-2026 08:00:00,12.415911,75.735050,OZONE,2,5,3
India,Karnataka,Mysuru,"Hebbal 1st Stage, Mysuru - KSPCB",31-01-2026 08:00:00,12.21041,76.37376,PM2.5,48,85,65
India,Karnataka,Ramanagara,"Vijay Nagar, Ramanagara - KSPCB",31-01-2026 08:00:00,12.733409,77.298051,PM10,90,181,121
India,Karnataka,Shivamogga,"Vinoba Nagara, Shivamogga - KSPCB",31-01-2026 08:00:00,13.940000,75.555917,PM2.5,28,49,34
India,Karnataka,Tumakuru,"Thimmalapura, Tumakuru - KSPCB",31-01-2026 08:00:00,13.377516,77.099072,PM2.5,84,500,242
India,Karnataka,Tumakuru,"Thimmalapura, Tumakuru - KSPCB",31-01-2026 08:00:00,13.377516,77.099072,NH3,6,6,6
India,Karnataka,Tumakuru,"Thimmalapura, Tumakuru - KSPCB",31-01-2026 08:00:00,13.377516,77.099072,OZONE,23,23,23
India,Karnataka,Vijayapura,"Ibrahimpur, Vijayapura - KSPCB",31-01-2026 08:00:00,16.802639,75.722694,PM10,NA,NA,NA
India,Karnataka,Vijayapura,"Ibrahimpur, Vijayapura - KSPCB",31-01-2026 08:00:00,16.802639,75.722694,NO2,NA,NA,NA
India,Karnataka,Vijayapura,"Ibrahimpur, Vijayapura - KSPCB",31-01-2026 08:00:00,16.802639,75.722694,NH3,NA,NA,NA
India,Karnataka,Yadgir,"Collector Office, Yadgir - KSPCB",31-01-2026 08:00:00,16.7602,77.1428,PM10,78,136,110
India,Karnataka,Yadgir,"Collector Office, Yadgir - KSPCB",31-01-2026 08:00:00,16.7602,77.1428,SO2,7,15,11
India,Kerala,Eloor,"Udyogamandal, Eloor - Kerala PCB",31-01-2026 08:00:00,10.073232,76.302765,CO,6,86,26
India,Kerala,Eloor,"Udyogamandal, Eloor - Kerala PCB",31-01-2026 08:00:00,10.073232,76.302765,OZONE,13,22,14
India,Kerala,Kannur,"Thavakkara, Kannur - Kerala PCB",31-01-2026 08:00:00,11.875000,75.373200,PM10,93,126,102
India,Kerala,Kollam,"Polayathode, Kollam - Kerala PCB",31-01-2026 08:00:00,8.8787,76.6073,NO2,NA,NA,NA
India,Kerala,Thiruvananthapuram,"Kariavattom, Thiruvananthapuram - Kerala PCB",31-01-2026 08:00:00,8.563700,76.886500,SO2,1,30,10
India,Madhya Pradesh,Indore,"Maguda Nagar, Indore - IMC",31-01-2026 08:00:00,22.7524,75.8872,SO2,NA,NA,NA
India,Madhya Pradesh,Indore,"Regional Park, Indore - IMC",31-01-2026 08:00:00,22.6780,75.8559,PM2.5,10,174,74
India,Madhya Pradesh,Indore,"Regional Park, Indore - IMC",31-01-2026 08:00:00,22.6780,75.8559,PM10,26,101,54
India,Madhya Pradesh,Indore,"Regional Park, Indore - IMC",31-01-2026 08:00:00,22.6780,75.8559,NO2,16,24,20
India,Madhya Pradesh,Indore,"Regional Park, Indore - IMC",31-01-2026 08:00:00,22.6780,75.8559,CO,4,102,19
India,Madhya Pradesh,Indore,"Residency Area, Indore - IMC",31-01-2026 08:00:00,22.7084,75.8815,OZONE,5,9,6
India,Madhya Pradesh,Jabalpur,"Govindh Bhavan Colony, Jabalpur - JMC",31-01-2026 08:00:00,23.163174,79.973061,PM10,36,72,57
India,Madhya Pradesh,Gwalior,"City Center, Gwalior - MPPCB",31-01-2026 08:00:00,26.203442,78.193251,NO2,20,50,29
India,Madhya Pradesh,Gwalior,"Deen Dayal Nagar, Gwalior - MPPCB",31-01-2026 08:00:00,26.259242,78.216432,PM10,NA,NA,NA
India,Madhya Pradesh,Gwalior,"Maharaj Bada, Gwalior - MPPCB",31-01-2026 08:00:00,26.200388,78.147714,PM10,47,168,106
India,Madhya Pradesh,Indore,"Airport Area, Indore - IMC",31-01-2026 08:00:00,22.7289,75.8076,SO2,1,104,6
India,Madhya Pradesh,Indore,"Chhoti Gwaltoli, Indore - MPPCB",31-01-2026 08:00:00,22.4310,75.5213,SO2,23,35,26
India,Karnataka,Bengaluru,"Hebbal, Bengaluru - KSPCB",31-01-2026 08:00:00,13.029152,77.585901,SO2,4,13,8
India,Karnataka,Bengaluru,"Hebbal, Bengaluru - KSPCB",31-01-2026 08:00:00,13.029152,77.585901,CO,22,77,28
India,Karnataka,Bengaluru,"Jayanagar 5th Block, Bengaluru - KSPCB",31-01-2026 08:00:00,12.920984,77.584908,NO2,13,50,30
India,Karnataka,Bengaluru,"Jayanagar 5th Block, Bengaluru - KSPCB",31-01-2026 08:00:00,12.920984,77.584908,SO2,10,20,15
India,Karnataka,Bengaluru,"Kasturi Nagar, Bengaluru - KSPCB",31-01-2026 08:00:00,13.003872,77.664217,SO2,9,14,12
India,Karnataka,Bengaluru,"Peenya, Bengaluru - CPCB",31-01-2026 08:00:00,13.0270199,77.494094,PM2.5,18,48,32
India,Madhya Pradesh,Bhopal,"Idgah Hills, Bhopal - MPPCB",31-01-2026 08:00:00,23.264759,77.381568,PM2.5,63,213,106
India,Madhya Pradesh,Bhopal,"Paryavaran Parisar, Bhopal - MPPCB",31-01-2026 08:00:00,23.210494,77.425409,SO2,2,10,7
India,Madhya Pradesh,Bhopal,"T T Nagar, Bhopal - MPPCB",31-01-2026 08:00:00,23.233584,77.400574,SO2,11,19,14
India,Madhya Pradesh,Dewas,"Bhopal Chauraha, Dewas - MPPCB",31-01-2026 08:00:00,22.9682591,76.064118,PM2.5,68,132,104
India,Karnataka,Chamarajanagar,"Urban, Chamarajanagar - KSPCB",31-01-2026 08:00:00,11.55358,76.55521,OZONE,17,38,26
India,Karnataka,Chikkaballapur,"Chikkaballapur Rural, Chikkaballapur - KSPCB",31-01-2026 08:00:00,13.428828,77.731418,NH3,4,8,5
India,Karnataka,Chikkaballapur,"Chikkaballapur Rural, Chikkaballapur - KSPCB",31-01-2026 08:00:00,13.428828,77.731418,SO2,30,50,42
India,Karnataka,Chikkamagaluru,"Kalyana Nagara, Chikkamagaluru - KSPCB",31-01-2026 08:00:00,13.328028,75.797056,SO2,1,10,5
India,Karnataka,Bengaluru,"RVCE-Mailasandra, Bengaluru - KSPCB",31-01-2026 08:00:00,12.921418,77.502466,NH3,3,4,3
India,Karnataka,Bengaluru,"Shivapura_Peenya, Bengaluru - KSPCB",31-01-2026 08:00:00,13.0246342,77.5080115,PM10,82,138,99
India,Karnataka,Bengaluru,"Shivapura_Peenya, Bengaluru - KSPCB",31-01-2026 08:00:00,13.0246342,77.5080115,OZONE,71,72,72
India,Karnataka,Bengaluru,"Silk Board, Bengaluru - KSPCB",31-01-2026 08:00:00,12.917348,77.622813,NH3,3,6,4
India,Karnataka,Davanagere,"Devaraj Urs Badavane, Davanagere - KSPCB",31-01-2026 08:00:00,14.475800,75.905200,CO,13,34,26
India,Karnataka,Dharwad,"Kalabhavan, Dharwad - KSPCB",31-01-2026 08:00:00,15.459706,75.008381,CO,54,106,67
India,Karnataka,Kalaburagi,"Mahatma Basaveswar Colony, Kalaburgi - KSPCB",31-01-2026 08:00:00,17.336318,76.847397,PM2.5,19,54,41
India,Maharashtra,Aurangabad,"MIDC Chilkalthana, Aurangabad - MPCB",31-01-2026 08:00:00,19.875620,75.387310,NH3,1,3,2
India,Maharashtra,Aurangabad,"More Chowk Waluj, Aurangabad - MPCB",31-01-2026 08:00:00,19.8389439,75.244448,NH3,10,12,11
India,Maharashtra,Aurangabad,"More Chowk Waluj, Aurangabad - MPCB",31-01-2026 08:00:00,19.8389439,75.244448,SO2,11,23,15
India,Maharashtra,Aurangabad,"Rachnakar Colony, Aurangabad - MPCB",31-01-2026 08:00:00,19.863756,75.321188,PM2.5,73,154,104
India,Maharashtra,Aurangabad,"Rachnakar Colony, Aurangabad - MPCB",31-01-2026 08:00:00,19.863756,75.321188,PM10,70,115,95
India,Maharashtra,Aurangabad,"Rachnakar Colony, Aurangabad - MPCB",31-01-2026 08:00:00,19.863756,75.321188,NO2,14,54,26
India,Maharashtra,Aurangabad,"Rachnakar Colony, Aurangabad - MPCB",31-01-2026 08:00:00,19.863756,75.321188,OZONE,14,59,15
India,Maharashtra,Badlapur,"Katrap, Badlapur - MPCB",31-01-2026 08:00:00,19.16485,73.23409,PM10,84,180,130
India,Maharashtra,Badlapur,"Katrap, Badlapur - MPCB",31-01-2026 08:00:00,19.16485,73.23409,CO,6,40,30
India,Maharashtra,Jalna,"Old MIDC, Jalna - MPCB",31-01-2026 08:00:00,19.854616,75.905894,OZONE,NA,NA,NA
India,Maharashtra,Kalyan,"Pimpleshwar Mandir, Kalyan - MPCB",31-01-2026 08:00:00,19.192056,72.9585188,SO2,6,29,12
India,Maharashtra,Kalyan,"Pimpleshwar Mandir, Kalyan - MPCB",31-01-2026 08:00:00,19.192056,72.9585188,OZONE,3,120,8
India,Maharashtra,Kolhapur,"Shivaji University, Kolhapur - MPCB",31-01-2026 08:00:00,16.6870449,74.2505872,SO2,3,5,4
India,Maharashtra,Kolhapur,"Sinchan Bhavan, Kolhapur - MPCB",31-01-2026 08:00:00,16.7143745,74.2426398,PM10,47,108,72
India,Maharashtra,Kolhapur,"Sinchan Bhavan, Kolhapur - MPCB",31-01-2026 08:00:00,16.7143745,74.2426398,OZONE,1,42,7
India,Maharashtra,Latur,"Sawe Wadi, Latur - MPCB",31-01-2026 08:00:00,18.39963,76.57452,PM2.5,72,132,99
India,Maharashtra,Boisar,"Khaira, Boisar - MPCB",31-01-2026 08:00:00,19.786089,72.757971,SO2,4,11,7
India,Maharashtra,Chandrapur,"MIDC Khutala, Chandrapur - MPCB",31-01-2026 08:00:00,19.9775302,79.2337086,NO2,9,37,19
India,Maharashtra,Chandrapur,"MIDC Khutala, Chandrapur - MPCB",31-01-2026 08:00:00,19.9775302,79.2337086,NH3,1,10,4
India,Maharashtra,Dhule,"Deopur, Dhule - MPCB",31-01-2026 08:00:00,20.918946,74.776388,NH3,1,4,1
India,Maharashtra,Dhule,"Deopur, Dhule - MPCB",31-01-2026 08:00:00,20.918946,74.776388,OZONE,15,74,24
India,Maharashtra,Jalgaon,"Prabhat Colony, Jalgaon - MPCB",31-01-2026 08:00:00,21.001264,75.565602,OZONE,14,65,26
India,Maharashtra,Jalna,"Old MIDC, Jalna - MPCB",31-01-2026 08:00:00,19.854616,75.905894,PM2.5,NA,NA,NA
India,Madhya Pradesh,Ujjain,"Mahashweta Nagar, Ujjain - MPPCB",31-01-2026 08:00:00,23.1633321,75.800225,SO2,2,75,8
India,Maharashtra,Ahmednagar,"Tarakpur, Ahmednagar - MPCB",31-01-2026 08:00:00,19.10122,74.73339,NO2,16,25,21
India,Maharashtra,Ahmednagar,"Tarakpur, Ahmednagar - MPCB",31-01-2026 08:00:00,19.10122,74.73339,CO,12,111,30
India,Maharashtra,Ahmednagar,"Tarakpur, Ahmednagar - MPCB",31-01-2026 08:00:00,19.10122,74.73339,OZONE,9,111,28
India,Maharashtra,Akola,"Ramdaspeth, Akola - MPCB",31-01-2026 08:00:00,20.719516,77.000253,NH3,4,6,5
India,Madhya Pradesh,Sagar,"Civil Lines, Sagar - MPPCB",31-01-2026 08:00:00,23.838586,78.759431,PM2.5,26,204,62
India,Madhya Pradesh,Sagar,"Civil Lines, Sagar - MPPCB",31-01-2026 08:00:00,23.838586,78.759431,NH3,1,4,2
India,Madhya Pradesh,Sagar,"Deen Dayal Nagar, Sagar - MPPCB",31-01-2026 08:00:00,23.8640158,78.80289321,CO,11,40,18
India,Madhya Pradesh,Satna,"Bandhavgar Colony, Satna - Birla Cement",31-01-2026 08:00:00,24.58434363,80.8549414,NO2,12,13,12
India,Maharashtra,Belapur,"CBD Belapur, Belapur - MPCB",31-01-2026 08:00:00,19.0243902,73.0406721,SO2,8,30,14
India,Maharashtra,Belapur,"CBD Belapur, Belapur - MPCB",31-01-2026 08:00:00,19.0243902,73.0406721,OZONE,1,52,4
India,Maharashtra,Bhiwandi,"Gokul Nagar, Bhiwandi - MPCB",31-01-2026 08:00:00,19.309073,73.057223,PM2.5,68,213,102
India,Maharashtra,Bhiwandi,"Gokul Nagar, Bhiwandi - MPCB",31-01-2026 08:00:00,19.309073,73.057223,NH3,3,9,6
India,Maharashtra,Bhiwandi,"Gokul Nagar, Bhiwandi - MPCB",31-01-2026 08:00:00,19.309073,73.057223,SO2,4,20,13
India,Madhya Pradesh,Jabalpur,"Gupteshwar, Jabalpur - JMC",31-01-2026 08:00:00,23.142888,79.916147,PM2.5,49,198,104
India,Madhya Pradesh,Jabalpur,"Suhagi, Jabalpur - JMC",31-01-2026 08:00:00,23.218135,79.957770,NH3,5,8,7
India,Madhya Pradesh,Jabalpur,"Suhagi, Jabalpur - JMC",31-01-2026 08:00:00,23.218135,79.957770,OZONE,48,76,49
India,Madhya Pradesh,Pithampur,"Sector-2 Industrial Area, Pithampur - MPPCB",31-01-2026 08:00:00,22.624758,75.675238,PM2.5,57,294,147
India,Maharashtra,Mahad,"Kamble Tarf Birwadi, Mahad - MPCB",31-01-2026 08:00:00,18.1023399,73.4783687,NO2,15,79,29
India,Maharashtra,Mahad,"Kamble Tarf Birwadi, Mahad - MPCB",31-01-2026 08:00:00,18.1023399,73.4783687,NH3,3,10,5
India,Maharashtra,Malegaon,"Mahesh Nagar, Malegaon - MPCB",31-01-2026 08:00:00,20.555712,74.529236,PM2.5,105,220,176
India,Maharashtra,Amravati,"Shri Shivaji Science College, Amravati - MPCB",31-01-2026 08:00:00,20.939198,77.765701,NH3,3,14,5
India,Maharashtra,Mumbai,"Ghatkopar, Mumbai - BMC",31-01-2026 08:00:00,19.083694,72.920967,NH3,1,5,4
India,Maharashtra,Mumbai,"Ghatkopar, Mumbai - BMC",31-01-2026 08:00:00,19.083694,72.920967,SO2,1,5,2
India,Maharashtra,Mumbai,"Kandivali East, Mumbai - MPCB",31-01-2026 08:00:00,19.205800,72.868200,NO2,30,30,30
India,Maharashtra,Mumbai,"Kandivali East, Mumbai - MPCB",31-01-2026 08:00:00,19.205800,72.868200,NH3,3,3,3
India,Maharashtra,Mumbai,"Kherwadi_Bandra East, Mumbai - MPCB",31-01-2026 08:00:00,19.0632143,72.8456324,OZONE,1,54,2
India,Maharashtra,Mumbai,"Khindipada-Bhandup West, Mumbai - IITM",31-01-2026 08:00:00,19.1653323,72.922099,NO2,15,69,29
India,Maharashtra,Mumbai,"Khindipada-Bhandup West, Mumbai - IITM",31-01-2026 08:00:00,19.1653323,72.922099,OZONE,14,76,19
India,Maharashtra,Mumbai,"Kurla, Mumbai - MPCB",31-01-2026 08:00:00,19.0863,72.8888,SO2,36,37,37
India,Maharashtra,Mumbai,"Malad West, Mumbai - IITM",31-01-2026 08:00:00,19.19709,72.82204,SO2,2,15,7
India,Maharashtra,Mumbai,"Mazgaon, Mumbai - IITM",31-01-2026 08:00:00,18.96702,72.84214,PM10,64,144,83
India,Maharashtra,Mumbai,"Mazgaon, Mumbai - IITM",31-01-2026 08:00:00,18.96702,72.84214,NO2,39,103,63
India,Maharashtra,Nanded,"Sneh Nagar, Nanded - MPCB",31-01-2026 08:00:00,19.173852,77.296291,PM10,101,161,121
India,Maharashtra,Nashik,"Hirawadi, Nashik - MPCB",31-01-2026 08:00:00,20.021503,73.813844,PM10,86,129,102
India,Maharashtra,Nashik,"Hirawadi, Nashik - MPCB",31-01-2026 08:00:00,20.021503,73.813844,NO2,5,26,14
India,Maharashtra,Nagpur,"Mahal, Nagpur - MPCB",31-01-2026 08:00:00,21.14472,79.107595,CO,22,111,38
India,Maharashtra,Nagpur,"Ram Nagar, Nagpur - MPCB",31-01-2026 08:00:00,21.143383,79.048912,NO2,12,52,26
India,Maharashtra,Nagpur,"Ram Nagar, Nagpur - MPCB",31-01-2026 08:00:00,21.143383,79.048912,NH3,4,4,4
India,Maharashtra,Mumbai,"Siddharth Nagar-Worli, Mumbai - IITM",31-01-2026 08:00:00,19.000083,72.813993,CO,2,76,65
India,Maharashtra,Mumbai,"Vile Parle West, Mumbai - MPCB",31-01-2026 08:00:00,19.10861,72.83622,NH3,6,6,6
India,Maharashtra,Mumbai,"Chembur, Mumbai - MPCB",31-01-2026 08:00:00,19.0364585,72.8954371,PM10,65,140,100
India,Maharashtra,Mumbai,"Colaba, Mumbai - MPCB",31-01-2026 08:00:00,18.910000,72.820000,OZONE,11,11,11
India,Maharashtra,Mira-Bhayandar,"Bhayandar West, Mira-Bhayandar - MPCB",31-01-2026 08:00:00,19.296481,72.840923,CO,28,56,44
India,Maharashtra,Mira-Bhayandar,"Bhayandar West, Mira-Bhayandar - MPCB",31-01-2026 08:00:00,19.296481,72.840923,OZONE,1,51,1
India,Maharashtra,Mumbai,"Chakala-Andheri East, Mumbai - IITM",31-01-2026 08:00:00,19.11074,72.86084,PM2.5,94,197,126
India,Maharashtra,Mumbai,"Chakala-Andheri East, Mumbai - IITM",31-01-2026 08:00:00,19.11074,72.86084,PM10,93,154,114
India,Maharashtra,Mumbai,"Borivali East, Mumbai - MPCB",31-01-2026 08:00:00,19.2243333,72.8658113,NO2,NA,NA,NA
India,Maharashtra,Parbhani,"Masoom Colony, Parbhani - MPCB",31-01-2026 08:00:00,19.265594,76.761463,PM10,81,175,108
India,Maharashtra,Parbhani,"Masoom Colony, Parbhani - MPCB",31-01-2026 08:00:00,19.265594,76.761463,OZONE,10,10,10
India,Maharashtra,Pimpri-Chinchwad,"Gavalinagar, Pimpri Chinchwad - MPCB",31-01-2026 08:00:00,18.63673,73.82487,PM10,96,147,111
India,Maharashtra,Pimpri-Chinchwad,"Gavalinagar, Pimpri Chinchwad - MPCB",31-01-2026 08:00:00,18.63673,73.82487,OZONE,32,33,32
India,Maharashtra,Pimpri-Chinchwad,"Park Street Wakad, Pimpri Chinchwad - MPCB",31-01-2026 08:00:00,18.59051,73.77946,PM10,88,109,98
India,Maharashtra,Pimpri-Chinchwad,"Savta Mali Nagar, Pimpri-Chinchwad - IITM",31-01-2026 08:00:00,18.614767,73.799516,PM2.5,75,153,105
India,Maharashtra,Pimpri-Chinchwad,"Savta Mali Nagar, Pimpri-Chinchwad - IITM",31-01-2026 08:00:00,18.614767,73.799516,NO2,18,76,36
India,Maharashtra,Pimpri-Chinchwad,"Thergaon, Pimpri Chinchwad - MPCB",31-01-2026 08:00:00,18.616318,73.765797,NO2,46,77,56
India,Maharashtra,Solapur,"Dnyaneshwar Nagar, Solapur - MPCB",31-01-2026 08:00:00,17.6336264,75.9132495,NO2,7,49,20
India,Maharashtra,Solapur,"Dnyaneshwar Nagar, Solapur - MPCB",31-01-2026 08:00:00,17.6336264,75.9132495,NH3,8,21,11
India,Maharashtra,Solapur,"Ratandeep Housing Society, Solapur - MPCB",31-01-2026 08:00:00,17.65439,75.90649,PM10,105,142,120
India,Maharashtra,Solapur,"Ratandeep Housing Society, Solapur - MPCB",31-01-2026 08:00:00,17.65439,75.90649,NO2,14,75,33
India,Maharashtra,Thane,"Kasarvadavali, Thane - MPCB",31-01-2026 08:00:00,19.26777,72.97182,NH3,3,4,3
India,Maharashtra,Pune,"Savitribai Phule Pune University, Pune - MPCB",31-01-2026 08:00:00,18.547056,73.826908,OZONE,1,62,1
India,Maharashtra,Pune,"Transport Nagar-Nigdi, Pune - IITM",31-01-2026 08:00:00,18.664282,73.763966,PM2.5,61,138,95
India,Maharashtra,Pune,"Transport Nagar-Nigdi, Pune - IITM",31-01-2026 08:00:00,18.664282,73.763966,PM10,110,249,153
India,Maharashtra,Sangli,"Vijay Nagar, Sangli - MPCB",31-01-2026 08:00:00, 16.5038,74.3623,PM2.5,67,102,83
India,Maharashtra,Navi Mumbai,"Kopripada-Vashi, Navi Mumbai - MPCB",31-01-2026 08:00:00,19.090337,73.014232,OZONE,1,54,5
India,Maharashtra,Navi Mumbai,"Mahape, Navi Mumbai - MPCB",31-01-2026 08:00:00,19.1135051,73.008978,NO2,83,86,85
India,Maharashtra,Navi Mumbai,"Nerul, Navi Mumbai - MPCB",31-01-2026 08:00:00,19.008751,73.016620,PM10,NA,NA,NA
India,Maharashtra,Pune,"Bhumkar Nagar, Pune - IITM",31-01-2026 08:00:00,18.605770,73.749976,CO,48,168,85
India,Maharashtra,Pune,"Dhankawadi, Pune - IITM",31-01-2026 08:00:00,18.459883,73.852193,PM10,95,150,120
India,Maharashtra,Pune,"Katraj Dairy, Pune - MPCB",31-01-2026 08:00:00,18.454450,73.854155,PM2.5,39,63,47
India,Maharashtra,Pune,"Savitribai Phule Pune University, Pune - MPCB",31-01-2026 08:00:00,18.547056,73.826908,PM2.5,57,97,79
India,Maharashtra,Nashik,"Pandav Nagari, Nashik - MPCB",31-01-2026 08:00:00,19.9591346,73.7788008,NH3,3,10,5
India,Maharashtra,Pune,"Katraj Dairy, Pune - MPCB",31-01-2026 08:00:00,18.454450,73.854155,NO2,13,33,22
India,Maharashtra,Pune,"Bhosari, Pune - IITM",31-01-2026 08:00:00,18.640051,73.848956,NO2,10,15,12
India,Odisha,Keonjhar,"Jagamohanpur, Keonjhar - OSPCB",31-01-2026 08:00:00,21.643900,85.599355,NH3,5,5,5
India,Odisha,Keonjhar,"Jagamohanpur, Keonjhar - OSPCB",31-01-2026 08:00:00,21.643900,85.599355,SO2,4,35,14
India,Odisha,Rairangpur,"Divisional Forest Office, Rairangpur - OSPCB",31-01-2026 08:00:00,22.265816,86.174829,PM2.5,51,109,78
India,Odisha,Rourkela,"Fertilizer Township, Rourkela - OSPCB",31-01-2026 08:00:00,22.18972222,84.86277778,NO2,11,11,11
India,Odisha,Rourkela,"Fertilizer Township, Rourkela - OSPCB",31-01-2026 08:00:00,22.18972222,84.86277778,CO,21,27,24
India,Odisha,Rourkela,"Raghunathpali, Rourkela - OSPCB",31-01-2026 08:00:00,22.220833,84.809444,PM2.5,118,289,185
India,Odisha,Rourkela,"Raghunathpali, Rourkela - OSPCB",31-01-2026 08:00:00,22.220833,84.809444,PM10,105,173,124
India,Odisha,Rourkela,"Sector-2, Rourkela - OSPCB",31-01-2026 08:00:00,22.24500000,84.88111111,PM10,55,99,76
India,Meghalaya,Shillong,"Lumpyngngad, Shillong - Meghalaya PCB",31-01-2026 08:00:00,25.5586,91.8985,CO,9,64,12
India,Mizoram,Aizawl,"Sikulpuikawn, Aizawl - Mizoram PCB",31-01-2026 08:00:00,23.7176342,92.7192841,PM2.5,53,59,57
India,Nagaland,Kohima,"PWD Junction, Kohima - NPCB",31-01-2026 08:00:00,25.6635413,94.0989878,SO2,75,78,76
India,Odisha,Balasore,"Kalidaspur, Balasore - OSPCB",31-01-2026 08:00:00,21.51161,86.89088,NO2,9,47,20
India,Odisha,Balasore,"Kalidaspur, Balasore - OSPCB",31-01-2026 08:00:00,21.51161,86.89088,NH3,1,6,2
India,Odisha,Bhubaneswar,"Patia, Bhubaneswar - OSPCB",31-01-2026 08:00:00,20.34652,85.81630,NO2,16,37,26
India,Odisha,Bileipada,"Tata Township, Bileipada - OSPCB",31-01-2026 08:00:00,22.06156703,85.47409613,CO,30,67,59
India,Odisha,Brajrajnagar,"GM Office, Brajrajnagar - OSPCB",31-01-2026 08:00:00,21.8004996,83.8396977,CO,25,51,38
India,Odisha,Byasanagar,"Ferro Chrome Colony, Byasanagar - OSPCB",31-01-2026 08:00:00,20.94185,86.11510,CO,21,85,63
India,Odisha,Cuttack,"CDA Area, Cuttack - OSPCB",31-01-2026 08:00:00,20.48891     ,85.84768     ,SO2,1,19,10
India,Punjab,Mandi Gobindgarh,"RIMT University, Mandi Gobindgarh - PPCB",31-01-2026 08:00:00,30.649961,76.331442,NO2,23,24,24
India,Punjab,Patiala,"Model Town, Patiala - PPCB",31-01-2026 08:00:00,30.349388,76.366642,PM2.5,48,74,56
India,Punjab,Patiala,"Model Town, Patiala - PPCB",31-01-2026 08:00:00,30.349388,76.366642,SO2,6,24,13
India,Punjab,Patiala,"Model Town, Patiala - PPCB",31-01-2026 08:00:00,30.349388,76.366642,CO,12,29,24
India,Punjab,Patiala,"Model Town, Patiala - PPCB",31-01-2026 08:00:00,30.349388,76.366642,OZONE,11,42,11
India,Punjab,Rupnagar,"Ratanpura, Rupnagar - Ambuja Cements",31-01-2026 08:00:00,31.0325454,76.5623046,SO2,NA,NA,NA
India,Maharashtra,Thane,"Upvan Fort, Thane - MPCB",31-01-2026 08:00:00,19.222279,72.957979,PM10,78,134,101
India,Maharashtra,Ulhasnagar,"Sidhi Vinayak Nagar, Ulhasnagar - MPCB",31-01-2026 08:00:00,19.235581,73.159121,OZONE,11,89,14
India,Maharashtra,Virar,"Bolinj, Virar - MPCB",31-01-2026 08:00:00,19.4458210,72.7988231,NO2,15,83,47
India,Maharashtra,Virar,"Bolinj, Virar - MPCB",31-01-2026 08:00:00,19.4458210,72.7988231,SO2,4,17,7
India,Punjab,Rupnagar,"Ratanpura, Rupnagar - Ambuja Cements",31-01-2026 08:00:00,31.0325454,76.5623046,CO,NA,NA,NA
India,Rajasthan,Ajmer,"Civil Lines,  Ajmer - RSPCB",31-01-2026 08:00:00,26.470859,74.646594,PM2.5,78,106,92
India,Rajasthan,Ajmer,"Civil Lines,  Ajmer - RSPCB",31-01-2026 08:00:00,26.470859,74.646594,SO2,3,9,6
India,Odisha,Talcher,"Talcher Coalfields,Talcher - OSPCB",31-01-2026 08:00:00,20.9360711,85.1707021,PM10,46,168,92
India,Odisha,Talcher,"Talcher Coalfields,Talcher - OSPCB",31-01-2026 08:00:00,20.9360711,85.1707021,SO2,11,43,22
India,Punjab,Bathinda,"Hardev Nagar, Bathinda - PPCB",31-01-2026 08:00:00,30.233011,74.907758,SO2,4,10,7
India,Punjab,Bathinda,"Hardev Nagar, Bathinda - PPCB",31-01-2026 08:00:00,30.233011,74.907758,CO,76,80,78
India,Punjab,Jalandhar,"Civil Line, Jalandhar - PPCB",31-01-2026 08:00:00,31.321907,75.578914,PM10,4,112,82
India,Punjab,Jalandhar,"Civil Line, Jalandhar - PPCB",31-01-2026 08:00:00,31.321907,75.578914,OZONE,26,68,32
India,Odisha,Baripada,"Meher Colony, Baripada - OSPCB",31-01-2026 08:00:00,21.941841,86.728318,NH3,3,7,5
India,Odisha,Baripada,"Meher Colony, Baripada - OSPCB",31-01-2026 08:00:00,21.941841,86.728318,OZONE,6,85,15
India,Rajasthan,Alwar,"Moti Doongri, Alwar - RSPCB",31-01-2026 08:00:00,27.554793,76.611536,NH3,11,16,13
India,Rajasthan,Alwar,"Moti Doongri, Alwar - RSPCB",31-01-2026 08:00:00,27.554793,76.611536,CO,24,81,43
India,Rajasthan,Banswara,"Rati Talai, Banswara - RSPCB",31-01-2026 08:00:00,23.555190,74.440010,NO2,19,96,38
India,Rajasthan,Banswara,"Rati Talai, Banswara - RSPCB",31-01-2026 08:00:00,23.555190,74.440010,CO,28,90,32
India,Rajasthan,Baran,"Bamboliya, Baran - RSPCB",31-01-2026 08:00:00,25.106006,76.469948,CO,17,48,28
India,Rajasthan,Barmer,"Railway Colony, Barmer - RSPCB",31-01-2026 08:00:00,25.747299,71.393989,PM10,57,160,91
India,Rajasthan,Jaipur,"Shastri Nagar, Jaipur - RSPCB",31-01-2026 08:00:00,26.9502929,75.730943,SO2,4,46,26
India,Rajasthan,Jaisalmer,"Sadar Bazar, Jaisalmer - RSPCB",31-01-2026 08:00:00,26.912329,70.909168,CO,18,50,21
India,Rajasthan,Jaisalmer,"Sadar Bazar, Jaisalmer - RSPCB",31-01-2026 08:00:00,26.912329,70.909168,OZONE,47,91,68
India,Rajasthan,Jalore,"Mudtra Sili, Jalore - RSPCB",31-01-2026 08:00:00,25.344694,72.626208,SO2,3,8,5
India,Rajasthan,Jhalawar,"Rajlaxmi Nagar, Jhalawar - RSPCB",31-01-2026 08:00:00,24.588397,76.172782,PM2.5,72,375,218
India,Rajasthan,Bikaner,"MM Ground, Bikaner - RSPCB",31-01-2026 08:00:00,28.018792,73.292658,NH3,1,17,10
India,Rajasthan,Bikaner,"MM Ground, Bikaner - RSPCB",31-01-2026 08:00:00,28.018792,73.292658,SO2,1,10,6
India,Rajasthan,Bundi,"New Colony, Bundi - RSPCB",31-01-2026 08:00:00,25.435774,75.644272,SO2,6,13,9
India,Rajasthan,Chittorgarh,"Shastri Nagar, Chittorgarh - RSPCB",31-01-2026 08:00:00,24.892047,74.623527,NO2,19,88,52
India,Rajasthan,Chittorgarh,"Shastri Nagar, Chittorgarh - RSPCB",31-01-2026 08:00:00,24.892047,74.623527,CO,12,70,21
India,Rajasthan,Jaipur,"Police Commissionerate, Jaipur - RSPCB",31-01-2026 08:00:00,26.9164092,75.7994901,CO,68,78,71
India,Rajasthan,Jaipur,"RIICO Sitapura, Jaipur - RSPCB",31-01-2026 08:00:00,26.786682,75.827928,OZONE,5,99,17
India,Rajasthan,Jaipur,"Sector-2 Murlipura, Jaipur - RSPCB",31-01-2026 08:00:00,26.960669,75.771817,PM10,54,245,123
India,Rajasthan,Jaipur,"Sector-2 Murlipura, Jaipur - RSPCB",31-01-2026 08:00:00,26.960669,75.771817,NO2,32,117,69
India,Rajasthan,Bharatpur,"Krishna Nagar, Bharatpur - RSPCB",31-01-2026 08:00:00,27.215415,77.50873,SO2,2,5,4
India,Rajasthan,Bhilwara,"Pratap Nagar, Bhilwara - RSPCB",31-01-2026 08:00:00,25.339605,74.618883,PM2.5,98,270,188
India,Rajasthan,Bhiwadi,"RIICO Ind. Area III, Bhiwadi - RSPCB",31-01-2026 08:00:00,28.194909,76.862296,PM2.5,NA,NA,NA
India,Rajasthan,Dungarpur,"Bhoiwada, Dungarpur - RSPCB",31-01-2026 08:00:00,23.837789,73.714926,NO2,15,48,23
India,Rajasthan,Dungarpur,"Bhoiwada, Dungarpur - RSPCB",31-01-2026 08:00:00,23.837789,73.714926,CO,6,73,32
India,Rajasthan,Jaipur,"Adarsh Nagar, Jaipur - RSPCB",31-01-2026 08:00:00,26.902909,75.836858,SO2,15,26,21
India,Rajasthan,Alwar,"Moti Doongri, Alwar - RSPCB",31-01-2026 08:00:00,27.554793,76.611536,PM2.5,74,109,87
India,Rajasthan,Alwar,"Moti Doongri, Alwar - RSPCB",31-01-2026 08:00:00,27.554793,76.611536,PM10,89,146,117
India,Rajasthan,Bharatpur,"Krishna Nagar, Bharatpur - RSPCB",31-01-2026 08:00:00,27.215415,77.50873,PM10,43,140,85
India,Rajasthan,Dausa,"Khatikan Mohalla, Dausa - RSPCB",31-01-2026 08:00:00,26.895552,76.334753,PM2.5,23,216,91
India,Rajasthan,Sri Ganganagar,"Old City, Sri Ganganagar - RSPCB",31-01-2026 08:00:00,29.931624,73.864511,OZONE,2,23,3
India,Rajasthan,Tonk,"Shastri Nagar, Tonk - RSPCB",31-01-2026 08:00:00,26.159933,75.780517,PM2.5,82,322,185
India,Rajasthan,Tonk,"Shastri Nagar, Tonk - RSPCB",31-01-2026 08:00:00,26.159933,75.780517,NH3,NA,NA,NA
India,Rajasthan,Tonk,"Shastri Nagar, Tonk - RSPCB",31-01-2026 08:00:00,26.159933,75.780517,CO,16,86,29
India,Rajasthan,Tonk,"Shastri Nagar, Tonk - RSPCB",31-01-2026 08:00:00,26.159933,75.780517,OZONE,1,59,16
India,Rajasthan,Udaipur,"Ashok Nagar, Udaipur - RSPCB",31-01-2026 08:00:00,24.5886166,73.6321397,PM10,105,218,158
India,Sikkim,Gangtok,"Zero Point GICI, Gangtok - SSPCB",31-01-2026 08:00:00,27.338530,88.614099,PM2.5,35,73,60
India,Sikkim,Gangtok,"Zero Point GICI, Gangtok - SSPCB",31-01-2026 08:00:00,27.338530,88.614099,PM10,35,69,56
India,Rajasthan,Pali,"Indira Colony Vistar, Pali - RSPCB",31-01-2026 08:00:00,25.771061, 73.340227,PM10,34,148,105
India,Rajasthan,Pratapgarh,"Pragati Nagar, Pratapgarh - RSPCB",31-01-2026 08:00:00,24.041198,74.780702,PM2.5,77,328,117
India,Rajasthan,Pratapgarh,"Pragati Nagar, Pratapgarh - RSPCB",31-01-2026 08:00:00,24.041198,74.780702,NO2,15,36,22
India,Rajasthan,Pratapgarh,"Pragati Nagar, Pratapgarh - RSPCB",31-01-2026 08:00:00,24.041198,74.780702,NH3,5,7,5
India,Rajasthan,Pratapgarh,"Pragati Nagar, Pratapgarh - RSPCB",31-01-2026 08:00:00,24.041198,74.780702,SO2,1,4,2
India,Rajasthan,Pratapgarh,"Pragati Nagar, Pratapgarh - RSPCB",31-01-2026 08:00:00,24.041198,74.780702,CO,22,38,25
India,Rajasthan,Rajsamand,"Dhoinda, Rajsamand - RSPCB",31-01-2026 08:00:00,25.036360,73.883502,PM10,75,172,110
India,Rajasthan,Rajsamand,"Dhoinda, Rajsamand - RSPCB",31-01-2026 08:00:00,25.036360,73.883502,NO2,22,67,35
India,Rajasthan,Rajsamand,"Dhoinda, Rajsamand - RSPCB",31-01-2026 08:00:00,25.036360,73.883502,NH3,13,22,18
India,TamilNadu,Nagapattinam,"Velippalayam, Nagapattinam - TNPCB",31-01-2026 08:00:00,10.798548,79.838212,PM2.5,NA,NA,NA
India,TamilNadu,Perundurai,"SIPCOT Industrial Park, Perundurai - TNPCB",31-01-2026 08:00:00,11.258242,77.552761,OZONE,20,22,21
India,TamilNadu,Ramanathapuram,"Chalai Bazaar, Ramanathapuram - TNPCB",31-01-2026 08:00:00,9.36399,78.831977,SO2,3,5,5
India,TamilNadu,Thanjavur,"Parisutham Nagar, Thanjavur - TNPCB",31-01-2026 08:00:00,10.7654824,79.1389968,PM10,27,56,42
India,TamilNadu,Thanjavur,"Parisutham Nagar, Thanjavur - TNPCB",31-01-2026 08:00:00,10.7654824,79.1389968,NO2,4,5,4
India,Telangana,Hyderabad,"Bollaram Industrial Area, Hyderabad - TSPCB",31-01-2026 08:00:00,17.540891,78.358528,PM2.5,NA,NA,NA
India,Telangana,Hyderabad,"Bollaram Industrial Area, Hyderabad - TSPCB",31-01-2026 08:00:00,17.540891,78.358528,CO,18,90,32
India,Telangana,Hyderabad,"Central University, Hyderabad - TSPCB",31-01-2026 08:00:00,17.460103,78.334361,NH3,2,4,3
India,Telangana,Hyderabad,"Central University, Hyderabad - TSPCB",31-01-2026 08:00:00,17.460103,78.334361,CO,10,42,23
India,Telangana,Hyderabad,"ECIL Kapra, Hyderabad - TSPCB",31-01-2026 08:00:00,17.470431,78.566959,NO2,14,41,25
India,Telangana,Hyderabad,"ECIL Kapra, Hyderabad - TSPCB",31-01-2026 08:00:00,17.470431,78.566959,NH3,6,8,7
India,Rajasthan,Sawai Madhopur,"Sahu Nagar, Sawai Madhopur - RSPCB",31-01-2026 08:00:00,26.031443,76.359327,OZONE,8,137,12
India,Rajasthan,Sikar,"Radhakishan Pura, Sikar - RSPCB",31-01-2026 08:00:00,27.608912,75.153302,NO2,18,104,40
India,Rajasthan,Sikar,"Radhakishan Pura, Sikar - RSPCB",31-01-2026 08:00:00,27.608912,75.153302,NH3,8,13,10
India,Rajasthan,Sirohi,"Vedhaynath Colony, Sirohi - RSPCB",31-01-2026 08:00:00,24.885261,72.857549,NO2,17,97,54
India,Rajasthan,Sirohi,"Vedhaynath Colony, Sirohi - RSPCB",31-01-2026 08:00:00,24.885261,72.857549,NH3,2,3,2
India,TamilNadu,Chennai,"Velachery Res. Area, Chennai - CPCB",31-01-2026 08:00:00,13.0052189,80.2398125,PM2.5,50,122,87
India,TamilNadu,Chennai,"Velachery Res. Area, Chennai - CPCB",31-01-2026 08:00:00,13.0052189,80.2398125,SO2,5,8,7
India,TamilNadu,Coimbatore,"PSG College of Arts and Science, Coimbatore - TNPCB",31-01-2026 08:00:00,11.0328,77.0349,OZONE,4,6,5
India,TamilNadu,Coimbatore,"SIDCO Kurichi, Coimbatore - TNPCB",31-01-2026 08:00:00,10.942451,76.978996,NO2,1,70,16
India,Rajasthan,Jhalawar,"Rajlaxmi Nagar, Jhalawar - RSPCB",31-01-2026 08:00:00,24.588397,76.172782,OZONE,7,111,18
India,Rajasthan,Jhunjhunu,"Indra Nagar, Jhunjhunu - RSPCB",31-01-2026 08:00:00,28.108988,75.386577,OZONE,9,130,30
India,Rajasthan,Jodhpur,"Collectorate, Jodhpur - RSPCB",31-01-2026 08:00:00,26.268249,73.0193853,PM10,45,128,74
India,Rajasthan,Jodhpur,"Collectorate, Jodhpur - RSPCB",31-01-2026 08:00:00,26.268249,73.0193853,SO2,1,24,11
India,Rajasthan,Jodhpur,"Samrat Ashok Udhyan, Jodhpur - RSPCB",31-01-2026 08:00:00,26.253384,72.976571,PM10,53,234,102
India,Rajasthan,Karauli,"Satyawati Vihar, Karauli - RSPCB",31-01-2026 08:00:00,26.506177,77.025989,NO2,12,42,20
India,Rajasthan,Kota,"Shrinath Puram, Kota - RSPCB",31-01-2026 08:00:00,25.14389,75.821256,CO,26,103,68
India,TamilNadu,Chennai,"Arumbakkam, Chennai - TNPCB",31-01-2026 08:00:00,13.0664,80.2112 ,PM10,74,186,109
India,TamilNadu,Chennai,"Perungudi, Chennai - TNPCB",31-01-2026 08:00:00,12.9533,80.2357,PM2.5,29,300,82
India,Uttar_Pradesh,Agra,"Sanjay Palace, Agra - UPPCB",31-01-2026 08:00:00,27.19865833,78.00598056,SO2,18,19,18
India,Uttar_Pradesh,Agra,"Sector-3B Avas Vikas Colony, Agra - UPPCB",31-01-2026 08:00:00,27.19412,77.96237,NO2,32,46,42
India,Uttar_Pradesh,Agra,"Shahjahan Garden, Agra - UPPCB",31-01-2026 08:00:00,27.169338,78.03582,PM2.5,19,92,47
India,Uttar_Pradesh,Agra,"Shahjahan Garden, Agra - UPPCB",31-01-2026 08:00:00,27.169338,78.03582,NO2,7,9,8
India,Uttar_Pradesh,Agra,"Shahjahan Garden, Agra - UPPCB",31-01-2026 08:00:00,27.169338,78.03582,CO,5,17,15
India,Uttar_Pradesh,Agra,"Shastripuram, Agra - UPPCB",31-01-2026 08:00:00,27.19862,77.92066,CO,16,30,19
India,Uttar_Pradesh,Baghpat,"Sardar Patel Inter College, Baghpat - UPPCB",31-01-2026 08:00:00,28.964949,77.278761,PM10,83,170,128
India,Uttar_Pradesh,Baghpat,"Sardar Patel Inter College, Baghpat - UPPCB",31-01-2026 08:00:00,28.964949,77.278761,NH3,2,7,5
India,Uttar_Pradesh,Bareilly,"Rajendra Nagar, Bareilly - UPPCB",31-01-2026 08:00:00,28.38910936,79.42963708,PM10,54,121,79
India,Uttar_Pradesh,Hapur,"Anand Vihar, Hapur - UPPCB",31-01-2026 08:00:00,28.725645,77.749675,PM10,46,112,82
India,Uttar_Pradesh,Hapur,"Anand Vihar, Hapur - UPPCB",31-01-2026 08:00:00,28.725645,77.749675,NH3,9,13,10
India,Uttar_Pradesh,Jhansi,"Shivaji Nagar, Jhansi - UPPCB",31-01-2026 08:00:00,25.4547,78.6039,PM2.5,21,142,64
India,Uttar_Pradesh,Jhansi,"Shivaji Nagar, Jhansi - UPPCB",31-01-2026 08:00:00,25.4547,78.6039,PM10,33,184,80
India,Uttar_Pradesh,Jhansi,"Shivaji Nagar, Jhansi - UPPCB",31-01-2026 08:00:00,25.4547,78.6039,CO,12,81,24
India,Uttar_Pradesh,Kanpur,"FTI Kidwai Nagar, Kanpur - UPPCB",31-01-2026 08:00:00,26.428282,80.327067,PM10,35,115,76
India,Uttar_Pradesh,Kanpur,"FTI Kidwai Nagar, Kanpur - UPPCB",31-01-2026 08:00:00,26.428282,80.327067,OZONE,9,10,9
India,Uttar_Pradesh,Kanpur,"NSI Kalyanpur, Kanpur - UPPCB",31-01-2026 08:00:00,26.509954,80.249612,PM2.5,9,87,50
India,Uttar_Pradesh,Kanpur,"NSI Kalyanpur, Kanpur - UPPCB",31-01-2026 08:00:00,26.509954,80.249612,CO,32,42,40
India,Telangana,Hyderabad,"Sanathnagar, Hyderabad - TSPCB",31-01-2026 08:00:00,17.4559458,78.4332152,NO2,15,336,66
India,Telangana,Hyderabad,"Sanathnagar, Hyderabad - TSPCB",31-01-2026 08:00:00,17.4559458,78.4332152,SO2,7,18,11
India,Telangana,Hyderabad,"Somajiguda, Hyderabad - TSPCB",31-01-2026 08:00:00,17.417094,78.457437,PM2.5,46,78,61
India,Telangana,Hyderabad,"Zoo Park, Hyderabad - TSPCB",31-01-2026 08:00:00,17.349694,78.451437,NH3,3,3,3
India,Telangana,Hyderabad,"Zoo Park, Hyderabad - TSPCB",31-01-2026 08:00:00,17.349694,78.451437,CO,13,98,38
India,Telangana,Hyderabad,"Zoo Park, Hyderabad - TSPCB",31-01-2026 08:00:00,17.349694,78.451437,OZONE,23,27,26
India,Uttar_Pradesh,Agra,"Manoharpur, Agra - UPPCB",31-01-2026 08:00:00,27.23711,78.01936,PM2.5,41,229,93
India,Uttar_Pradesh,Agra,"Manoharpur, Agra - UPPCB",31-01-2026 08:00:00,27.23711,78.01936,NH3,4,5,4
India,Uttar_Pradesh,Agra,"Manoharpur, Agra - UPPCB",31-01-2026 08:00:00,27.23711,78.01936,CO,20,23,22
India,Telangana,Hyderabad,"Kokapet, Hyderabad - TSPCB",31-01-2026 08:00:00,17.393559,78.339194,OZONE,16,36,17
India,Telangana,Hyderabad,"Kompally Municipal Office, Hyderabad - TSPCB",31-01-2026 08:00:00,17.544899,78.486949,SO2,7,18,13
India,Telangana,Hyderabad,"Nacharam_TSIIC IALA, Hyderabad - TSPCB",31-01-2026 08:00:00,17.429398,78.569354,CO,NA,NA,NA
India,Telangana,Hyderabad,"Nacharam_TSIIC IALA, Hyderabad - TSPCB",31-01-2026 08:00:00,17.429398,78.569354,OZONE,15,35,15
India,Telangana,Hyderabad,"New Malakpet, Hyderabad - TSPCB",31-01-2026 08:00:00,17.37206,78.50864,NO2,13,18,15
India,Telangana,Hyderabad,"Ramachandrapuram, Hyderabad - TSPCB",31-01-2026 08:00:00,17.528544,78.286195,NO2,16,17,16
India,Telangana,Hyderabad,"Ramachandrapuram, Hyderabad - TSPCB",31-01-2026 08:00:00,17.528544,78.286195,NH3,4,5,5
India,Telangana,Hyderabad,"ICRISAT Patancheru, Hyderabad - TSPCB",31-01-2026 08:00:00,17.518400,78.278777,PM2.5,67,182,141
India,Telangana,Hyderabad,"ICRISAT Patancheru, Hyderabad - TSPCB",31-01-2026 08:00:00,17.518400,78.278777,SO2,2,16,7
India,Telangana,Hyderabad,"ICRISAT Patancheru, Hyderabad - TSPCB",31-01-2026 08:00:00,17.518400,78.278777,CO,2,64,14
India,Telangana,Hyderabad,"IDA Pashamylaram, Hyderabad - TSPCB",31-01-2026 08:00:00,17.5316895,78.218939,PM2.5,NA,NA,NA
India,Telangana,Hyderabad,"IITH Kandi, Hyderabad - TSPCB",31-01-2026 08:00:00,17.585705,78.126199,PM10,66,131,86
India,Telangana,Hyderabad,"IITH Kandi, Hyderabad - TSPCB",31-01-2026 08:00:00,17.585705,78.126199,OZONE,22,29,24
India,Telangana,Hyderabad,"Kokapet, Hyderabad - TSPCB",31-01-2026 08:00:00,17.393559,78.339194,PM2.5,54,77,64
India,Uttar_Pradesh,Lucknow,"Kendriya Vidyalaya, Lucknow - CPCB",31-01-2026 08:00:00,26.906111,80.948222,CO,18,74,59
India,Uttar_Pradesh,Lucknow,"Lalbagh, Lucknow - CPCB",31-01-2026 08:00:00,26.8458805,80.9365541,PM2.5,16,319,115
India,Uttar_Pradesh,Lucknow,"Lalbagh, Lucknow - CPCB",31-01-2026 08:00:00,26.8458805,80.9365541,NH3,16,24,20
India,Uttar_Pradesh,Meerut,"Ganga Nagar, Meerut - UPPCB",31-01-2026 08:00:00,28.999264,77.7590354,SO2,22,33,26
India,Uttar_Pradesh,Meerut,"Ganga Nagar, Meerut - UPPCB",31-01-2026 08:00:00,28.999264,77.7590354,OZONE,NA,NA,NA
India,Uttar_Pradesh,Kanpur,"Nehru Nagar, Kanpur - UPPCB",31-01-2026 08:00:00,26.4703136,80.3229863,SO2,8,25,14
India,Uttar_Pradesh,Khurja,"Kalindi Kunj, Khurja - UPPCB",31-01-2026 08:00:00,28.2348927,77.8683002,NO2,6,7,7
India,Uttar_Pradesh,Khurja,"Kalindi Kunj, Khurja - UPPCB",31-01-2026 08:00:00,28.2348927,77.8683002,NH3,1,1,1
India,Uttar_Pradesh,Lucknow,"B R Ambedkar University, Lucknow - UPPCB",31-01-2026 08:00:00,26.766433,80.927299,NH3,4,4,4
India,Uttar_Pradesh,Gorakhpur,"Madan Mohan Malaviya University of Technology, Gorakhpur - UPPCB",31-01-2026 08:00:00,26.730136,83.433859,PM10,13,175,117
India,Uttar_Pradesh,Gorakhpur,"Madan Mohan Malaviya University of Technology, Gorakhpur - UPPCB",31-01-2026 08:00:00,26.730136,83.433859,NO2,11,12,11
India,Uttar_Pradesh,Gorakhpur,"Madan Mohan Malaviya University of Technology, Gorakhpur - UPPCB",31-01-2026 08:00:00,26.730136,83.433859,SO2,39,41,40
India,Uttar_Pradesh,Gorakhpur,"Madan Mohan Malaviya University of Technology, Gorakhpur - UPPCB",31-01-2026 08:00:00,26.730136,83.433859,CO,4,5,4
India,Uttar_Pradesh,Firozabad,"Vibhab Nagar, Firozabad - UPPCB",31-01-2026 08:00:00,27.1594,78.3953,NH3,2,2,2
India,Uttar_Pradesh,Ghaziabad,"Indirapuram, Ghaziabad - UPPCB",31-01-2026 08:00:00,28.646233,77.358075,PM2.5,NA,NA,NA
India,Uttar_Pradesh,Ghaziabad,"Indirapuram, Ghaziabad - UPPCB",31-01-2026 08:00:00,28.646233,77.358075,NH3,NA,NA,NA
India,Uttar_Pradesh,Varanasi,"IESD Banaras Hindu University, Varanasi - UPPCB",31-01-2026 08:00:00,25.262326,82.995408,NO2,2,2,2
India,Uttar_Pradesh,Varanasi,"IESD Banaras Hindu University, Varanasi - UPPCB",31-01-2026 08:00:00,25.262326,82.995408,NH3,2,6,3
India,Uttar_Pradesh,Varanasi,"IESD Banaras Hindu University, Varanasi - UPPCB",31-01-2026 08:00:00,25.262326,82.995408,SO2,24,38,27
India,Uttar_Pradesh,Varanasi,"Maldahiya, Varanasi - UPPCB",31-01-2026 08:00:00,25.32393,82.99687,PM2.5,41,103,67
India,Uttar_Pradesh,Varanasi,"Maldahiya, Varanasi - UPPCB",31-01-2026 08:00:00,25.32393,82.99687,SO2,27,28,27
India,Uttar_Pradesh,Varanasi,"Maldahiya, Varanasi - UPPCB",31-01-2026 08:00:00,25.32393,82.99687,CO,6,28,22
India,Uttar_Pradesh,Vrindavan,"Omex Eternity, Vrindavan - UPPCB",31-01-2026 08:00:00,27.5714090,77.6557570,PM2.5,18,121,62
India,Uttarakhand,Dehradun,"Doon University, Dehradun - UKPCB",31-01-2026 08:00:00,30.269444,78.044167,PM10,64,160,112
India,Uttarakhand,Kashipur,"Govt. Girls Inter College, Kashipur - UKPCB",31-01-2026 08:00:00,29.2124114,78.9611753,SO2,NA,NA,NA
India,Uttarakhand,Rishikesh,"Shivaji Nagar, Rishikesh - UKPCB",31-01-2026 08:00:00,30.075911,78.2859547,PM10,33,84,61
India,West_Bengal,Asansol,"Trivenidevi Bhalotia College, Asansol - WBPCB",31-01-2026 08:00:00,23.616515,87.119133,NH3,5,6,6
India,West_Bengal,Asansol,"Trivenidevi Bhalotia College, Asansol - WBPCB",31-01-2026 08:00:00,23.616515,87.119133,OZONE,5,15,6
India,West_Bengal,Barrackpore,"SVSPA Campus, Barrackpore - WBPCB",31-01-2026 08:00:00,22.7605581,88.3617589,PM10,48,121,78
India,West_Bengal,Durgapur,"PCBL Residential Complex, Durgapur - WBPCB",31-01-2026 08:00:00,23.5087640,87.3544400,PM2.5,90,251,127
India,West_Bengal,Durgapur,"PCBL Residential Complex, Durgapur - WBPCB",31-01-2026 08:00:00,23.5087640,87.3544400,NH3,17,19,19
India,West_Bengal,Durgapur,"PCBL Residential Complex, Durgapur - WBPCB",31-01-2026 08:00:00,23.5087640,87.3544400,SO2,5,8,6
India,West_Bengal,Durgapur,"Womens College_City Center, Durgapur - WBPCB",31-01-2026 08:00:00,23.549395,87.300496,CO,24,73,34
India,Uttar_Pradesh,Meerut,"Jai Bhim Nagar, Meerut - UPPCB",31-01-2026 08:00:00,28.9535882,77.7622941,PM10,84,389,166
India,Uttar_Pradesh,Meerut,"Jai Bhim Nagar, Meerut - UPPCB",31-01-2026 08:00:00,28.9535882,77.7622941,SO2,4,10,6
India,Uttar_Pradesh,Meerut,"Jai Bhim Nagar, Meerut - UPPCB",31-01-2026 08:00:00,28.9535882,77.7622941,OZONE,1,121,6
India,Uttar_Pradesh,Meerut,"Pallavpuram Phase 2, Meerut - UPPCB",31-01-2026 08:00:00,29.063510,77.709723,NH3,5,6,5
India,Uttar_Pradesh,Moradabad,"Buddhi Vihar, Moradabad - UPPCB",31-01-2026 08:00:00,28.83526,78.74460,OZONE,10,32,12
India,Uttar_Pradesh,Moradabad,"Eco Herbal Park, Moradabad - UPPCB",31-01-2026 08:00:00,28.840739,78.697531,NO2,21,50,33
India,West_Bengal,Asansol,"Asansol Court Area, Asansol - WBPCB",31-01-2026 08:00:00,23.685297,86.945968,NO2,15,28,22
India,West_Bengal,Asansol,"Evelyn Lodge, Asansol - WBPCB",31-01-2026 08:00:00,23.6979360,86.9443950,NO2,2,32,13
India,West_Bengal,Asansol,"Evelyn Lodge, Asansol - WBPCB",31-01-2026 08:00:00,23.6979360,86.9443950,NH3,5,6,6
India,West_Bengal,Asansol,"Evelyn Lodge, Asansol - WBPCB",31-01-2026 08:00:00,23.6979360,86.9443950,SO2,5,14,7
India,West_Bengal,Asansol,"Trivenidevi Bhalotia College, Asansol - WBPCB",31-01-2026 08:00:00,23.616515,87.119133,PM10,56,150,96
India,Uttar_Pradesh,Noida,"Sector-116, Noida - UPPCB",31-01-2026 08:00:00,28.569230,77.393848,OZONE,7,159,8
India,Uttar_Pradesh,Prayagraj,"Motilal Nehru NIT, Prayagraj - UPPCB",31-01-2026 08:00:00,25.494,81.863,NH3,6,8,8
India,Uttar_Pradesh,Prayagraj,"Nagar Nigam, Prayagraj - UPPCB",31-01-2026 08:00:00,25.44919916 ,81.82735986 ,CO,24,94,53
India,Uttar_Pradesh,Varanasi,"Bhelupur, Varanasi - UPPCB",31-01-2026 08:00:00,25.301778,82.996789,SO2,27,31,29
India,Uttar_Pradesh,Moradabad,"Jigar Colony, Moradabad - UPPCB",31-01-2026 08:00:00,28.856664,78.772638,NH3,6,6,6
India,Uttar_Pradesh,Moradabad,"Kashiram Nagar, Moradabad - UPPCB",31-01-2026 08:00:00,28.849399,78.742362,NO2,25,25,25
India,Uttar_Pradesh,Moradabad,"Kashiram Nagar, Moradabad - UPPCB",31-01-2026 08:00:00,28.849399,78.742362,SO2,2,103,57
India,Uttar_Pradesh,Moradabad,"Kashiram Nagar, Moradabad - UPPCB",31-01-2026 08:00:00,28.849399,78.742362,OZONE,10,17,11
India,Uttar_Pradesh,Noida,"Sector - 62, Noida - IMD",31-01-2026 08:00:00,28.6245479,77.3577104,CO,4,84,56
India,Uttar_Pradesh,Noida,"Sector-116, Noida - UPPCB",31-01-2026 08:00:00,28.569230,77.393848,PM2.5,115,482,322
India,Uttar_Pradesh,Noida,"Sector-116, Noida - UPPCB",31-01-2026 08:00:00,28.569230,77.393848,CO,6,196,78
India,West_Bengal,Haldia,"Priyambada Housing Estate, Haldia - WBPCB",31-01-2026 08:00:00,22.06047,88.109737,SO2,12,17,14
India,West_Bengal,Howrah,"Belur Math, Howrah - WBPCB",31-01-2026 08:00:00,22.629801,88.352017,NO2,29,107,67
India,Uttar_Pradesh,Noida,"Sector - 125, Noida - UPPCB",31-01-2026 08:00:00,28.5447608,77.3231257,CO,17,128,120
India,West_Bengal,Howrah,"Botanical Garden, Howrah - WBPCB",31-01-2026 08:00:00,22.554954,88.292568,CO,40,104,80
India,West_Bengal,Howrah,"Botanical Garden, Howrah - WBPCB",31-01-2026 08:00:00,22.554954,88.292568,OZONE,5,16,6
India,West_Bengal,Howrah,"Dasnagar, Howrah - WBPCB",31-01-2026 08:00:00,22.6025571,88.3105664,CO,8,110,51
India,West_Bengal,Howrah,"Dasnagar, Howrah - WBPCB",31-01-2026 08:00:00,22.6025571,88.3105664,OZONE,15,105,18
India,West_Bengal,Howrah,"Ghusuri, Howrah - WBPCB",31-01-2026 08:00:00,22.611968,88.347422,SO2,6,13,11
India,West_Bengal,Howrah,"Padmapukur, Howrah - WBPCB",31-01-2026 08:00:00,22.5687319,88.2797276,PM2.5,69,313,140
India,West_Bengal,Howrah,"Padmapukur, Howrah - WBPCB",31-01-2026 08:00:00,22.5687319,88.2797276,OZONE,8,71,10
India,West_Bengal,Kolkata,"Ballygunge, Kolkata - WBPCB",31-01-2026 08:00:00,22.5367507,88.3638022,PM2.5,82,189,127
India,West_Bengal,Kolkata,"Ballygunge, Kolkata - WBPCB",31-01-2026 08:00:00,22.5367507,88.3638022,NO2,32,113,57
India,West_Bengal,Kolkata,"Ballygunge, Kolkata - WBPCB",31-01-2026 08:00:00,22.5367507,88.3638022,NH3,6,12,8
India,West_Bengal,Kolkata,"Bidhannagar, Kolkata - WBPCB",31-01-2026 08:00:00,22.58157048,88.41002457,SO2,3,15,9
India,West_Bengal,Kolkata,"Bidhannagar, Kolkata - WBPCB",31-01-2026 08:00:00,22.58157048,88.41002457,CO,20,60,33
India,West_Bengal,Kolkata,"Fort William, Kolkata - WBPCB",31-01-2026 08:00:00,22.556640,88.342674,PM2.5,11,131,95
India,West_Bengal,Kolkata,"Fort William, Kolkata - WBPCB",31-01-2026 08:00:00,22.556640,88.342674,NO2,16,29,23
India,West_Bengal,Kolkata,"Fort William, Kolkata - WBPCB",31-01-2026 08:00:00,22.556640,88.342674,CO,23,86,41
India,West_Bengal,Kolkata,"Jadavpur, Kolkata - WBPCB",31-01-2026 08:00:00,22.49929,88.36917,NH3,6,11,8
India,West_Bengal,Kolkata,"Jadavpur, Kolkata - WBPCB",31-01-2026 08:00:00,22.49929,88.36917,SO2,13,15,14
India,West_Bengal,Kolkata,"Jadavpur, Kolkata - WBPCB",31-01-2026 08:00:00,22.49929,88.36917,OZONE,9,22,10
India,West_Bengal,Kolkata,"Rabindra Bharati University, Kolkata - WBPCB",31-01-2026 08:00:00,22.627847,88.380669,PM10,93,177,122
India,West_Bengal,Kolkata,"Rabindra Bharati University, Kolkata - WBPCB",31-01-2026 08:00:00,22.627847,88.380669,NH3,12,12,12
India,West_Bengal,Kolkata,"Rabindra Sarobar, Kolkata - WBPCB",31-01-2026 08:00:00,22.51106,88.35142,PM10,83,115,99
India,West_Bengal,Kolkata,"Victoria, Kolkata - WBPCB",31-01-2026 08:00:00,22.5448082,88.3403691,NH3,8,8,8
India,West_Bengal,Siliguri,"Ward-32 Bapupara, Siliguri - WBPCB",31-01-2026 08:00:00,26.6879226,88.4152495,PM10,76,180,130
India,West_Bengal,Siliguri,"Ward-32 Bapupara, Siliguri - WBPCB",31-01-2026 08:00:00,26.6879226,88.4152495,NH3,10,10,10
India,West_Bengal,Siliguri,"Ward-32 Bapupara, Siliguri - WBPCB",31-01-2026 08:00:00,26.6879226,88.4152495,CO,40,98,64
India,Arunachal_Pradesh,Naharlagun,"Naharlagun, Naharlagun - APSPCB",31-01-2026 08:00:00,27.103358,93.679645,PM10,71,298,153
India,Arunachal_Pradesh,Naharlagun,"Naharlagun, Naharlagun - APSPCB",31-01-2026 08:00:00,27.103358,93.679645,NH3,1,1,1
India,Arunachal_Pradesh,Naharlagun,"Naharlagun, Naharlagun - APSPCB",31-01-2026 08:00:00,27.103358,93.679645,SO2,9,10,10
India,Arunachal_Pradesh,Naharlagun,"Naharlagun, Naharlagun - APSPCB",31-01-2026 08:00:00,27.103358,93.679645,CO,15,45,21
India,Assam,Byrnihat,"Central Academy for SFS, Byrnihat - PCBA",31-01-2026 08:00:00,26.071318,91.87488,PM2.5,91,305,144
India,Assam,Byrnihat,"Central Academy for SFS, Byrnihat - PCBA",31-01-2026 08:00:00,26.071318,91.87488,CO,42,66,55
India,Assam,Guwahati,"LGBI Airport, Guwahati - PCBA",31-01-2026 08:00:00,26.10887,91.589544,PM2.5,32,153,76
India,Assam,Guwahati,"LGBI Airport, Guwahati - PCBA",31-01-2026 08:00:00,26.10887,91.589544,NO2,11,195,27
India,Assam,Guwahati,"Pan Bazaar, Guwahati - PCBA",31-01-2026 08:00:00,26.187500,91.744194,PM10,45,134,92
India,Assam,Guwahati,"Pan Bazaar, Guwahati - PCBA",31-01-2026 08:00:00,26.187500,91.744194,NH3,1,1,1
India,Assam,Guwahati,"Pan Bazaar, Guwahati - PCBA",31-01-2026 08:00:00,26.187500,91.744194,CO,14,74,32
India,Assam,Guwahati,"Railway Colony, Guwahati - PCBA",31-01-2026 08:00:00,26.181742,91.78063,CO,5,36,12
India,Andhra_Pradesh,Anantapur,"Gulzarpet, Anantapur - APPCB",31-01-2026 08:00:00,14.675886,77.593027,NH3,5,5,5
India,Andhra_Pradesh,Chittoor,"Gangineni Cheruvu, Chittoor - APPCB",31-01-2026 08:00:00,13.204880,79.097889,PM10,51,104,78
India,Andhra_Pradesh,Chittoor,"Gangineni Cheruvu, Chittoor - APPCB",31-01-2026 08:00:00,13.204880,79.097889,OZONE,45,69,47
India,Andhra_Pradesh,Kadapa,"Yerramukkapalli, Kadapa - APPCB",31-01-2026 08:00:00,14.465052,78.824187,PM10,NA,NA,NA
India,Andhra_Pradesh,Rajamahendravaram,"Anand Kala Kshetram, Rajamahendravaram - APPCB",31-01-2026 08:00:00,16.9872867,81.7363176,SO2,4,18,9
India,Andhra_Pradesh,Tirumala,"Toll Gate, Tirumala - APPCB",31-01-2026 08:00:00,13.67,79.35,NH3,1,3,2
India,Bihar,Arrah,"New DM Office, Arrah - BSPCB",31-01-2026 08:00:00,25.5626095,84.663264,OZONE,7,10,8
India,Bihar,Aurangabad,"Gurdeo Nagar, Aurangabad - BSPCB",31-01-2026 08:00:00,24.75746,84.366208,PM2.5,NA,NA,NA
India,Bihar,Aurangabad,"Gurdeo Nagar, Aurangabad - BSPCB",31-01-2026 08:00:00,24.75746,84.366208,NH3,NA,NA,NA
India,Bihar,Begusarai,"Lohiyanagar, Begusarai - BSPCB",31-01-2026 08:00:00,25.42742023,86.13886079,PM2.5,60,203,114
India,Bihar,Begusarai,"Lohiyanagar, Begusarai - BSPCB",31-01-2026 08:00:00,25.42742023,86.13886079,NO2,6,13,9
India,Andaman and Nicobar,Sri Vijaya Puram,"Police Line, Sri Vijaya Puram - ANPCC",31-01-2026 08:00:00,11.654054,92.734055,SO2,NA,NA,NA
India,Andaman and Nicobar,Sri Vijaya Puram,"Police Line, Sri Vijaya Puram - ANPCC",31-01-2026 08:00:00,11.654054,92.734055,OZONE,NA,NA,NA
India,Andhra_Pradesh,Amaravati,"Secretariat, Amaravati - APPCB",31-01-2026 08:00:00,16.5150833,80.5181667,NO2,19,69,32
India,Assam,Silchar,"Tarapur, Silchar - PCBA",31-01-2026 08:00:00,24.82827,92.79525,NH3,1,1,1
India,Assam,Silchar,"Tarapur, Silchar - PCBA",31-01-2026 08:00:00,24.82827,92.79525,CO,23,61,46
India,Assam,Sivasagar,"Girls College, Sivasagar - PCBA",31-01-2026 08:00:00,26.987634,94.636574,PM10,38,95,60
India,Andhra_Pradesh,Tirumala,"Toll Gate, Tirumala - APPCB",31-01-2026 08:00:00,13.67,79.35,CO,17,103,22
India,Andhra_Pradesh,Vijayawada,"HB Colony, Vijayawada - APPCB",31-01-2026 08:00:00,16.536107,80.594233,PM2.5,49,94,66
India,Andhra_Pradesh,Vijayawada,"HB Colony, Vijayawada - APPCB",31-01-2026 08:00:00,16.536107,80.594233,CO,20,48,20
India,Andhra_Pradesh,Vijayawada,"Kanuru, Vijayawada - APPCB",31-01-2026 08:00:00,16.486692,80.699436,PM10,NA,NA,NA
India,Andhra_Pradesh,Vijayawada,"Kanuru, Vijayawada - APPCB",31-01-2026 08:00:00,16.486692,80.699436,CO,NA,NA,NA
India,Assam,Nagaon,"Christianpatty, Nagaon - PCBA",31-01-2026 08:00:00,26.349082,92.68449,NO2,NA,NA,NA
India,Assam,Nalbari,"Bata Chowk, Nalbari - PCBA",31-01-2026 08:00:00,26.446912,91.439057,PM10,94,120,107
India,Andhra_Pradesh,Vijayawada,"Rajiv Gandhi Park, Vijayawada - APPCB",31-01-2026 08:00:00,16.509717,80.612222,CO,29,39,32
India,Andhra_Pradesh,Vijayawada,"Rajiv Nagar, Vijayawada - APPCB",31-01-2026 08:00:00,16.554731,80.649110,NO2,17,31,23
India,Bihar,Araria,"Kharahiya Basti, Araria - BSPCB",31-01-2026 08:00:00,26.146529,87.454184,OZONE,9,10,10
India,Bihar,Muzaffarpur,"Buddha Colony, Muzaffarpur - BSPCB",31-01-2026 08:00:00,26.11442,85.39813,NO2,24,65,33
India,Bihar,Muzaffarpur,"Buddha Colony, Muzaffarpur - BSPCB",31-01-2026 08:00:00,26.11442,85.39813,NH3,3,10,6
India,Bihar,Muzaffarpur,"Buddha Colony, Muzaffarpur - BSPCB",31-01-2026 08:00:00,26.11442,85.39813,OZONE,16,56,18
India,Bihar,Muzaffarpur,"MIT-Daudpur Kothi, Muzaffarpur - BSPCB",31-01-2026 08:00:00,26.1403345,85.3650192,PM2.5,85,98,91
India,Bihar,Muzaffarpur,"Muzaffarpur Collectorate, Muzaffarpur - BSPCB",31-01-2026 08:00:00,26.1209,85.3647,OZONE,7,20,7
India,Bihar,Patna,"DRM Office Danapur, Patna - BSPCB",31-01-2026 08:00:00,25.586562,85.043586,PM10,64,279,112
India,Bihar,Patna,"DRM Office Danapur, Patna - BSPCB",31-01-2026 08:00:00,25.586562,85.043586,CO,24,92,38
India,Bihar,Patna,"Govt. High School Shikarpur, Patna - BSPCB",31-01-2026 08:00:00,25.592539,85.227158,NH3,4,6,5
India,Bihar,Patna,"Govt. High School Shikarpur, Patna - BSPCB",31-01-2026 08:00:00,25.592539,85.227158,SO2,13,18,16
India,Bihar,Patna,"Govt. High School Shikarpur, Patna - BSPCB",31-01-2026 08:00:00,25.592539,85.227158,CO,60,94,70
India,Bihar,Patna,"Muradpur, Patna - BSPCB",31-01-2026 08:00:00,25.619651,85.147382,PM2.5,56,94,72
India,Bihar,Katihar,"Mirchaibari, Katihar - BSPCB",31-01-2026 08:00:00,25.560083,87.553265,CO,79,102,90
India,Bihar,Kishanganj,"SDM Office_Khagra, Kishanganj - BSPCB",31-01-2026 08:00:00,26.0881305,87.93840336,PM2.5,13,62,23
India,Bihar,Manguraha,"Forest Rest House, Manguraha - BSPCB",31-01-2026 08:00:00,27.308328,84.531742,SO2,14,17,16
India,Bihar,Motihari,"Gandak Colony, Motihari - BSPCB",31-01-2026 08:00:00,26.63086,84.90051,NH3,3,3,3
India,Bihar,Munger,"Town Hall, Munger - BSPCB",31-01-2026 08:00:00,25.376776,86.471523,NO2,4,5,5
India,Bihar,Munger,"Town Hall, Munger - BSPCB",31-01-2026 08:00:00,25.376776,86.471523,NH3,4,12,7
India,Bihar,Munger,"Town Hall, Munger - BSPCB",31-01-2026 08:00:00,25.376776,86.471523,CO,23,44,25
India,Bihar,Bhagalpur,"DM Office_Kachari Chowk, Bhagalpur - BSPCB",31-01-2026 08:00:00,25.251013,86.989001,PM2.5,40,100,62
India,Bihar,Bhagalpur,"DM Office_Kachari Chowk, Bhagalpur - BSPCB",31-01-2026 08:00:00,25.251013,86.989001,NH3,1,1,1
India,Bihar,Bhagalpur,"DM Office_Kachari Chowk, Bhagalpur - BSPCB",31-01-2026 08:00:00,25.251013,86.989001,CO,11,24,17
India,Bihar,Bhagalpur,"DM Office_Kachari Chowk, Bhagalpur - BSPCB",31-01-2026 08:00:00,25.251013,86.989001,OZONE,10,23,16
India,Bihar,Buxar,"Charitra Van, Buxar - BSPCB",31-01-2026 08:00:00,25.567520,83.966379,NH3,3,3,3
India,Bihar,Buxar,"Charitra Van, Buxar - BSPCB",31-01-2026 08:00:00,25.567520,83.966379,OZONE,2,33,3
India,Bihar,Chhapra,"Darshan Nagar, Chhapra - BSPCB",31-01-2026 08:00:00,25.7808257,84.7446768,SO2,28,31,29
India,Bihar,Chhapra,"Darshan Nagar, Chhapra - BSPCB",31-01-2026 08:00:00,25.7808257,84.7446768,CO,46,61,52
India,Chandigarh,Chandigarh,"Sector-25, Chandigarh - CPCC",31-01-2026 08:00:00,30.751462,76.762879,PM2.5,68,204,119
India,Chandigarh,Chandigarh,"Sector-25, Chandigarh - CPCC",31-01-2026 08:00:00,30.751462,76.762879,PM10,61,149,96
India,Chandigarh,Chandigarh,"Sector-25, Chandigarh - CPCC",31-01-2026 08:00:00,30.751462,76.762879,SO2,1,23,9
India,Chhattisgarh,Bhilai,"32Bungalows, Bhilai - CECB",31-01-2026 08:00:00,21.194815,81.314770,SO2,5,7,6
India,Chhattisgarh,Bhilai,"Civic Center, Bhilai - Bhilai Steel Plant",31-01-2026 08:00:00,21.185571,81.343175,PM10,18,106,56
India,Bihar,Gaya,"SFTI Kusdihra, Gaya - BSPCB",31-01-2026 08:00:00,24.762518,84.982348,PM2.5,45,67,57
India,Bihar,Gaya,"SFTI Kusdihra, Gaya - BSPCB",31-01-2026 08:00:00,24.762518,84.982348,SO2,7,12,8
India,Bihar,Gaya,"SFTI Kusdihra, Gaya - BSPCB",31-01-2026 08:00:00,24.762518,84.982348,OZONE,10,53,10
India,Bihar,Hajipur,"Industrial Area, Hajipur - BSPCB",31-01-2026 08:00:00,25.697189,85.245900,PM2.5,93,300,170
India,Bihar,Hajipur,"Industrial Area, Hajipur - BSPCB",31-01-2026 08:00:00,25.697189,85.245900,NO2,16,46,27
India,Bihar,Saharsa,"Police Line, Saharsa - BSPCB",31-01-2026 08:00:00,25.892357,86.590325,NH3,4,4,4
India,Bihar,Samastipur,"DM Office_Kasipur, Samastipur - BSPCB",31-01-2026 08:00:00,25.859655,85.77944,SO2,21,28,25
India,Bihar,Sasaram,"Dada Peer, Sasaram - BSPCB",31-01-2026 08:00:00,24.952822,84.002396,NH3,1,4,3
India,Bihar,Patna,"Rajbansi Nagar, Patna - BSPCB",31-01-2026 08:00:00,25.599486,85.113666,NO2,5,84,27
India,Bihar,Patna,"Rajbansi Nagar, Patna - BSPCB",31-01-2026 08:00:00,25.599486,85.113666,NH3,4,7,6
India,Bihar,Purnia,"Mariam Nagar, Purnia - BSPCB",31-01-2026 08:00:00,25.366336,87.117468,PM10,50,77,62
India,Bihar,Purnia,"Mariam Nagar, Purnia - BSPCB",31-01-2026 08:00:00,25.366336,87.117468,NH3,3,3,3
India,Bihar,Gaya,"Collectorate, Gaya - BSPCB",31-01-2026 08:00:00,24.7955,84.9994,CO,48,64,49
India,Bihar,Gaya,"Kareemganj, Gaya - BSPCB",31-01-2026 08:00:00,24.792403,84.992416,NH3,1,2,1
India,Bihar,Gaya,"Kareemganj, Gaya - BSPCB",31-01-2026 08:00:00,24.792403,84.992416,SO2,42,45,44
India,Bihar,Bettiah,"Kamalnath Nagar, Bettiah - BSPCB",31-01-2026 08:00:00,26.80365,84.51954,PM2.5,37,82,55
India,Bihar,Bettiah,"Kamalnath Nagar, Bettiah - BSPCB",31-01-2026 08:00:00,26.80365,84.51954,NO2,7,9,8
India,Delhi,Delhi,"Burari Crossing, Delhi - IMD",31-01-2026 08:00:00,28.7256504,77.2011573,PM10,102,402,200
India,Delhi,Delhi,"Burari Crossing, Delhi - IMD",31-01-2026 08:00:00,28.7256504,77.2011573,OZONE,9,130,10
India,Delhi,Delhi,"CRRI Mathura Road, Delhi - IMD",31-01-2026 08:00:00,28.5512005,77.2735737,PM10,116,484,291
India,Delhi,Delhi,"CRRI Mathura Road, Delhi - IMD",31-01-2026 08:00:00,28.5512005,77.2735737,NO2,21,82,37
India,Delhi,Delhi,"CRRI Mathura Road, Delhi - IMD",31-01-2026 08:00:00,28.5512005,77.2735737,CO,46,170,164
India,Delhi,Delhi,"DTU, Delhi - CPCB",31-01-2026 08:00:00,28.7500499,77.1112615,CO,4,90,78
India,Delhi,Delhi,"Dr. Karni Singh Shooting Range, Delhi - DPCC",31-01-2026 08:00:00,28.498571,77.264840,PM2.5,98,462,306
India,Delhi,Delhi,"Dr. Karni Singh Shooting Range, Delhi - DPCC",31-01-2026 08:00:00,28.498571,77.264840,NO2,25,80,52
India,Delhi,Delhi,"Dwarka-Sector 8, Delhi - DPCC ",31-01-2026 08:00:00,28.5710274,77.0719006,PM2.5,147,500,332
India,Delhi,Delhi,"Dwarka-Sector 8, Delhi - DPCC ",31-01-2026 08:00:00,28.5710274,77.0719006,OZONE,1,95,2
India,Chhattisgarh,Bilaspur,"Mangala, Bilaspur - NTPC",31-01-2026 08:00:00,22.08815,82.13737,SO2,9,19,13
India,Chhattisgarh,Chhal,"Nawapara SECL Colony, Chhal - CECB",31-01-2026 08:00:00,22.118125,83.140608,PM10,34,179,89
India,Chhattisgarh,Chhal,"Nawapara SECL Colony, Chhal - CECB",31-01-2026 08:00:00,22.118125,83.140608,CO,24,54,34
India,Chhattisgarh,Korba,"Rampur, Korba - CECB",31-01-2026 08:00:00,22.368195,82.746431,PM10,58,92,74
India,Chhattisgarh,Korba,"Rampur, Korba - CECB",31-01-2026 08:00:00,22.368195,82.746431,SO2,7,61,31
India,Chhattisgarh,Korba,"Urja Nagar, Korba - CECB",31-01-2026 08:00:00,22.348441,82.549611,OZONE,12,26,24
India,Chhattisgarh,Kunjemura,"OP Jindal School, Kunjemura - CECB",31-01-2026 08:00:00,22.126650,83.483212,NH3,2,2,2
India,Chhattisgarh,Milupara,"Govt. Higher Secondary School, Milupara - CECB",31-01-2026 08:00:00,22.1910172,83.5197009,PM2.5,29,95,59
India,Delhi,Delhi,"IGI Airport (T3), Delhi - IMD",31-01-2026 08:00:00,28.5627763,77.1180053,PM10,93,411,242
India,Delhi,Delhi,"IGI Airport (T3), Delhi - IMD",31-01-2026 08:00:00,28.5627763,77.1180053,OZONE,2,43,3
India,Delhi,Delhi,"IHBAS, Dilshad Garden, Delhi - CPCB",31-01-2026 08:00:00,28.6811736,77.3025234,PM2.5,80,355,209
India,Delhi,Delhi,"IIT Delhi, Delhi - IITM",31-01-2026 08:00:00,28.542460,77.191651,PM10,112,263,180
India,Delhi,Delhi,"IIT Delhi, Delhi - IITM",31-01-2026 08:00:00,28.542460,77.191651,NO2,19,90,34
India,Delhi,Delhi,"ITO, Delhi - CPCB",31-01-2026 08:00:00,28.628624,77.241060,NH3,2,5,3
India,Delhi,Delhi,"ITO, Delhi - CPCB",31-01-2026 08:00:00,28.628624,77.241060,SO2,7,21,15
India,Delhi,Delhi,"ITO, Delhi - CPCB",31-01-2026 08:00:00,28.628624,77.241060,OZONE,2,17,2
India,Delhi,Delhi,"Jahangirpuri, Delhi - DPCC",31-01-2026 08:00:00,28.732820,77.170633,NO2,80,150,123
India,Delhi,Delhi,"Najafgarh, Delhi - DPCC",31-01-2026 08:00:00,28.570173,76.933762,OZONE,3,86,5
India,Delhi,Delhi,"Narela, Delhi - DPCC",31-01-2026 08:00:00,28.822836,77.101981,PM2.5,57,350,212
India,Delhi,Delhi,"Narela, Delhi - DPCC",31-01-2026 08:00:00,28.822836,77.101981,PM10,96,405,233
India,Delhi,Delhi,"Nehru Nagar, Delhi - DPCC",31-01-2026 08:00:00,28.567890,77.250515,NO2,24,88,51
India,Delhi,Delhi,"North Campus, DU, Delhi - IMD",31-01-2026 08:00:00,28.6573814,77.1585447,PM2.5,109,396,237
India,Delhi,Delhi,"North Campus, DU, Delhi - IMD",31-01-2026 08:00:00,28.6573814,77.1585447,PM10,108,311,170
India,Delhi,Delhi,"North Campus, DU, Delhi - IMD",31-01-2026 08:00:00,28.6573814,77.1585447,NO2,44,118,68
India,Delhi,Delhi,"Lodhi Road, Delhi - IMD",31-01-2026 08:00:00,28.5918245,77.2273074,OZONE,12,136,15
India,Delhi,Delhi,"Major Dhyan Chand National Stadium, Delhi - DPCC",31-01-2026 08:00:00,28.611281,77.237738,PM2.5,83,346,232
India,Delhi,Delhi,"Major Dhyan Chand National Stadium, Delhi - DPCC",31-01-2026 08:00:00,28.611281,77.237738,SO2,6,15,10
India,Delhi,Delhi,"Mundka, Delhi - DPCC",31-01-2026 08:00:00,28.684678,77.076574,NH3,9,16,12
India,Chhattisgarh,Raipur,"Bhatagaon New ISBT, Raipur - CECB",31-01-2026 08:00:00,21.219665,81.630094,NO2,1,64,31
India,Chhattisgarh,Raipur,"Krishak Nagar, Raipur - CECB",31-01-2026 08:00:00,21.237755,81.705301,NH3,2,2,2
India,Chhattisgarh,Raipur,"Krishak Nagar, Raipur - CECB",31-01-2026 08:00:00,21.237755,81.705301,SO2,4,20,7
India,Chhattisgarh,Raipur,"Siltara Phase-II, Raipur - CECB",31-01-2026 08:00:00,21.371751,81.664929,PM10,49,141,98
India,Delhi,Delhi,"Anand Vihar, Delhi - DPCC",31-01-2026 08:00:00,28.647622,77.3158090,PM10,135,489,294
India,Delhi,Delhi,"Anand Vihar, Delhi - DPCC",31-01-2026 08:00:00,28.647622,77.3158090,OZONE,8,12,12
India,Delhi,Delhi,"Bawana, Delhi - DPCC",31-01-2026 08:00:00,28.776200,77.051074,NO2,2,51,23
India,Delhi,Delhi,"Bawana, Delhi - DPCC",31-01-2026 08:00:00,28.776200,77.051074,NH3,6,9,8
India,Chhattisgarh,Bhilai,"Civic Center, Bhilai - Bhilai Steel Plant",31-01-2026 08:00:00,21.185571,81.343175,CO,27,34,33
India,Chhattisgarh,Bhilai,"Civic Center, Bhilai - Bhilai Steel Plant",31-01-2026 08:00:00,21.185571,81.343175,OZONE,9,12,11
India,Chhattisgarh,Bhilai,"Hathkhoj, Bhilai - CECB",31-01-2026 08:00:00,21.224231,81.408350,CO,11,90,46
India,Delhi,Delhi,"Alipur, Delhi - DPCC",31-01-2026 08:00:00,28.815329,77.153010,PM10,84,340,159
India,Haryana,Fatehabad,"Huda Sector, Fatehabad - HSPCB",31-01-2026 08:00:00,29.503664,75.467934,NH3,13,15,14
India,Haryana,Fatehabad,"Huda Sector, Fatehabad - HSPCB",31-01-2026 08:00:00,29.503664,75.467934,SO2,10,11,11
India,Haryana,Fatehabad,"Huda Sector, Fatehabad - HSPCB",31-01-2026 08:00:00,29.503664,75.467934,OZONE,49,61,58
India,Haryana,Gurugram,"NISE Gwal Pahari, Gurugram - IMD",31-01-2026 08:00:00,28.422681,77.148944,CO,25,88,68
India,Haryana,Gurugram,"Sector-51, Gurugram - HSPCB",31-01-2026 08:00:00,28.4227,77.0667,PM2.5,130,500,352
India,Haryana,Gurugram,"Sector-51, Gurugram - HSPCB",31-01-2026 08:00:00,28.4227,77.0667,PM10,93,500,275
India,Haryana,Gurugram,"Sector-51, Gurugram - HSPCB",31-01-2026 08:00:00,28.4227,77.0667,NO2,6,15,9
India,Haryana,Gurugram,"Sector-51, Gurugram - HSPCB",31-01-2026 08:00:00,28.4227,77.0667,CO,12,117,98
India,Haryana,Gurugram,"Sector-51, Gurugram - HSPCB",31-01-2026 08:00:00,28.4227,77.0667,OZONE,3,16,3
India,Haryana,Gurugram,"Vikas Sadan, Gurugram - HSPCB",31-01-2026 08:00:00,28.4501238,77.0263051,PM10,101,445,252
India,Haryana,Gurugram,"Vikas Sadan, Gurugram - HSPCB",31-01-2026 08:00:00,28.4501238,77.0263051,NO2,9,45,26
India,Haryana,Gurugram,"Vikas Sadan, Gurugram - HSPCB",31-01-2026 08:00:00,28.4501238,77.0263051,SO2,3,8,5
India,Haryana,Hisar,"Urban Estate-II, Hisar - HSPCB",31-01-2026 08:00:00,29.140560,75.744941,CO,28,64,36
India,Delhi,Delhi,"Pusa, Delhi - IMD",31-01-2026 08:00:00,28.636110,77.173332,OZONE,34,288,43
India,Delhi,Delhi,"R K Puram, Delhi - DPCC",31-01-2026 08:00:00,28.563262,77.186937,OZONE,1,100,1
India,Delhi,Delhi,"Rohini, Delhi - DPCC",31-01-2026 08:00:00,28.732528,77.119920,PM2.5,113,469,312
India,Delhi,Delhi,"Shadipur, Delhi - CPCB",31-01-2026 08:00:00,28.6514781,77.1473105,NH3,12,19,15
India,Delhi,Delhi,"Sirifort, Delhi - CPCB",31-01-2026 08:00:00,28.5504249,77.2159377,PM10,119,495,295
India,Delhi,Delhi,"Sirifort, Delhi - CPCB",31-01-2026 08:00:00,28.5504249,77.2159377,NO2,23,38,30
India,Delhi,Delhi,"Sirifort, Delhi - CPCB",31-01-2026 08:00:00,28.5504249,77.2159377,NH3,4,6,5
India,Delhi,Delhi,"Sirifort, Delhi - CPCB",31-01-2026 08:00:00,28.5504249,77.2159377,CO,20,144,140
India,Delhi,Delhi,"Sirifort, Delhi - CPCB",31-01-2026 08:00:00,28.5504249,77.2159377,OZONE,5,22,5
India,Delhi,Delhi,"Sonia Vihar, Delhi - DPCC",31-01-2026 08:00:00,28.710508,77.249485,PM2.5,123,344,268
India,Delhi,Delhi,"Sonia Vihar, Delhi - DPCC",31-01-2026 08:00:00,28.710508,77.249485,PM10,107,239,160
India,Delhi,Delhi,"Sonia Vihar, Delhi - DPCC",31-01-2026 08:00:00,28.710508,77.249485,CO,57,112,102
India,Delhi,Delhi,"Sonia Vihar, Delhi - DPCC",31-01-2026 08:00:00,28.710508,77.249485,OZONE,2,127,4
India,Haryana,Ballabgarh,"Nathu Colony, Ballabgarh - HSPCB",31-01-2026 08:00:00,28.3419248,77.319699,SO2,2,6,4
India,Haryana,Charkhi Dadri,"Mini Secretariat, Charkhi Dadri - HSPCB",31-01-2026 08:00:00,28.593883,76.270653,PM2.5,5,422,249
India,Haryana,Dharuhera,"Municipal Corporation Office, Dharuhera -  HSPCB",31-01-2026 08:00:00,28.206800,76.799700,PM2.5,92,470,289
India,Haryana,Faridabad,"New Industrial Town, Faridabad - HSPCB",31-01-2026 08:00:00,28.39072,77.30059,PM2.5,123,225,204
India,Haryana,Faridabad,"Sector 11, Faridabad - HSPCB",31-01-2026 08:00:00,28.376058,77.315741,PM10,54,425,216
India,Haryana,Faridabad,"Sector 11, Faridabad - HSPCB",31-01-2026 08:00:00,28.376058,77.315741,CO,14,105,54
India,Haryana,Faridabad,"Sector 30, Faridabad - HSPCB",31-01-2026 08:00:00,28.4417,77.3217,OZONE,17,19,18
India,Gujarat,Ahmedabad,"SVPI Airport Hansol, Ahmedabad - IITM",31-01-2026 08:00:00,23.076793,72.627874,NH3,3,9,5
India,Gujarat,Ahmedabad,"SVPI Airport Hansol, Ahmedabad - IITM",31-01-2026 08:00:00,23.076793,72.627874,OZONE,10,62,22
India,Gujarat,Ankleshwar,"GIDC, Ankleshwar - GPCB",31-01-2026 08:00:00,21.613267,73.010555,SO2,22,33,26
India,Gujarat,Bhavnagar,"Vidhyanagar, Bhavnagar - Nexteng Enviro",31-01-2026 08:00:00,21.755417,72.139056,CO,115,140,120
India,Gujarat,Gandhinagar,"GIFT City, Gandhinagar - IITM",31-01-2026 08:00:00,23.163798,72.677768,OZONE,6,74,37
India,Gujarat,Gandhinagar,"IIPHG Lekawada, Gandhinagar - IITM",31-01-2026 08:00:00,23.243639,72.68994,NO2,13,34,20
India,Gujarat,Gandhinagar,"Sector-10, Gandhinagar - GPCB",31-01-2026 08:00:00,23.221714,72.654328,PM2.5,64,156,94
India,Gujarat,Vadodara,"Bapunagar, Vadodara - Nexteng Enviro",31-01-2026 08:00:00,22.320153,73.216285,OZONE,NA,NA,NA
India,Gujarat,Vapi,"Phase-1 GIDC, Vapi - GPCB",31-01-2026 08:00:00,20.362421,72.918013,PM2.5,64,230,154
India,Gujarat,Vatva,"Phase-4 GIDC, Vatva - GPCB",31-01-2026 08:00:00,22.969611,72.643500,PM10,121,162,138
India,Gujarat,Vatva,"Phase-4 GIDC, Vatva - GPCB",31-01-2026 08:00:00,22.969611,72.643500,NH3,3,11,8
India,Haryana,Ambala,"Patti Mehar, Ambala - HSPCB",31-01-2026 08:00:00,30.379589,76.778328,NO2,20,24,22
India,Haryana,Bahadurgarh,"Arya Nagar, Bahadurgarh - HSPCB",31-01-2026 08:00:00,28.6701,76.9254,NO2,13,14,13
India,Haryana,Bahadurgarh,"Arya Nagar, Bahadurgarh - HSPCB",31-01-2026 08:00:00,28.6701,76.9254,NH3,12,13,13
India,Haryana,Bahadurgarh,"Arya Nagar, Bahadurgarh - HSPCB",31-01-2026 08:00:00,28.6701,76.9254,SO2,6,7,7
India,Gujarat,Ahmedabad,"Maninagar, Ahmedabad - GPCB",31-01-2026 08:00:00,23.002657,72.591912,OZONE,35,100,44
India,Gujarat,Ahmedabad,"Raikhad, Ahmedabad - IITM",31-01-2026 08:00:00,23.020509,72.579261,NO2,23,81,41
India,Gujarat,Ahmedabad,"Rakhial, Ahmedabad - IITM",31-01-2026 08:00:00,23.016834,72.625775,SO2,16,36,24
India,Gujarat,Ahmedabad,"SAC ISRO Bopal, Ahmedabad - IITM",31-01-2026 08:00:00,23.041137,72.456691,PM2.5,99,195,144
India,Gujarat,Ahmedabad,"SAC ISRO Bopal, Ahmedabad - IITM",31-01-2026 08:00:00,23.041137,72.456691,PM10,99,183,135
India,Gujarat,Ahmedabad,"SAC ISRO Satellite, Ahmedabad - IITM",31-01-2026 08:00:00,23.023389,72.515201,PM2.5,65,110,82
India,Gujarat,Mehsana,"Sadanand Nagar, Mehsana - Nexteng Enviro",31-01-2026 08:00:00,23.593150,72.372792,NO2,NA,NA,NA
India,Gujarat,Mehsana,"Sadanand Nagar, Mehsana - Nexteng Enviro",31-01-2026 08:00:00,23.593150,72.372792,SO2,NA,NA,NA
India,Gujarat,Rajkot,"Mavdi, Rajkot - Nexteng Enviro ",31-01-2026 08:00:00,22.248853,70.776774,NH3,NA,NA,NA
India,Gujarat,Surat,"Katargam, Surat - Nexteng Enviro",31-01-2026 08:00:00,21.217779 ,72.834787 ,NH3,NA,NA,NA
India,Gujarat,Surat,"Katargam, Surat - Nexteng Enviro",31-01-2026 08:00:00,21.217779 ,72.834787 ,SO2,NA,NA,NA
India,Gujarat,Surat,"Science Center, Surat - SMC",31-01-2026 08:00:00,21.170046,72.795405,PM2.5,24,146,67
India,Gujarat,Ahmedabad,"Chandkheda, Ahmedabad - IITM",31-01-2026 08:00:00,23.107969,72.574648,PM2.5,45,91,67
India,Gujarat,Ahmedabad,"Chandkheda, Ahmedabad - IITM",31-01-2026 08:00:00,23.107969,72.574648,PM10,99,166,125
India,Gujarat,Ahmedabad,"Chandkheda, Ahmedabad - IITM",31-01-2026 08:00:00,23.107969,72.574648,NO2,14,61,28
India,Gujarat,Ahmedabad,"Chandkheda, Ahmedabad - IITM",31-01-2026 08:00:00,23.107969,72.574648,NH3,3,6,4
India,Gujarat,Ahmedabad,"Gyaspur, Ahmedabad - IITM",31-01-2026 08:00:00,22.977134,72.553024,OZONE,1,75,8
India,Gujarat,Ahmedabad,"Maninagar, Ahmedabad - GPCB",31-01-2026 08:00:00,23.002657,72.591912,PM2.5,51,201,97
India,Delhi,Delhi,"Okhla Phase-2, Delhi - DPCC",31-01-2026 08:00:00,28.530785,77.271255,SO2,13,96,30
India,Delhi,Delhi,"Okhla Phase-2, Delhi - DPCC",31-01-2026 08:00:00,28.530785,77.271255,OZONE,5,184,10
India,Delhi,Delhi,"Punjabi Bagh, Delhi - DPCC",31-01-2026 08:00:00,28.674045,77.131023,NH3,4,6,5
India,Delhi,Delhi,"Pusa, Delhi - DPCC",31-01-2026 08:00:00,28.639652,77.146275,CO,65,118,88
India,Karnataka,Bengaluru,"BTM Layout, Bengaluru - CPCB",31-01-2026 08:00:00,12.9135218,77.5950804,NO2,NA,NA,NA
India,Karnataka,Bengaluru,"BTM Layout, Bengaluru - CPCB",31-01-2026 08:00:00,12.9135218,77.5950804,CO,28,58,51
India,Karnataka,Bengaluru,"BTM Layout, Bengaluru - CPCB",31-01-2026 08:00:00,12.9135218,77.5950804,OZONE,22,26,23
India,Karnataka,Bengaluru,"BWSSB Kadabesanahalli, Bengaluru - CPCB",31-01-2026 08:00:00,12.9352049,77.6814488,PM10,101,230,160
India,Karnataka,Bengaluru,"BWSSB Kadabesanahalli, Bengaluru - CPCB",31-01-2026 08:00:00,12.9352049,77.6814488,CO,36,38,37
India,Karnataka,Bengaluru,"BWSSB Kadabesanahalli, Bengaluru - CPCB",31-01-2026 08:00:00,12.9352049,77.6814488,OZONE,14,56,24
India,Karnataka,Bengaluru,"City Railway Station, Bengaluru - KSPCB",31-01-2026 08:00:00,12.9756843,77.5660749,PM10,87,89,88
India,Karnataka,Bengaluru,"City Railway Station, Bengaluru - KSPCB",31-01-2026 08:00:00,12.9756843,77.5660749,CO,72,81,75
India,Karnataka,Bengaluru,"Hebbal, Bengaluru - KSPCB",31-01-2026 08:00:00,13.029152,77.585901,PM2.5,46,243,92
India,Karnataka,Bengaluru,"Hebbal, Bengaluru - KSPCB",31-01-2026 08:00:00,13.029152,77.585901,NH3,1,2,1
India,Haryana,Narnaul,"Shastri Nagar, Narnaul - HSPCB",31-01-2026 08:00:00,28.060249,76.113115,CO,20,38,34
India,Haryana,Palwal,"Shyam Nagar, Palwal - HSPCB",31-01-2026 08:00:00,28.1485564,77.3320667,PM10,33,90,68
India,Haryana,Palwal,"Shyam Nagar, Palwal - HSPCB",31-01-2026 08:00:00,28.1485564,77.3320667,NH3,8,9,9
India,Haryana,Panchgaon,"Amity University, Panchgaon - IITM",31-01-2026 08:00:00,28.3153,76.9143,PM10,1,432,86
India,Haryana,Panchgaon,"Amity University, Panchgaon - IITM",31-01-2026 08:00:00,28.3153,76.9143,NO2,2,49,14
India,Haryana,Panchgaon,"Amity University, Panchgaon - IITM",31-01-2026 08:00:00,28.3153,76.9143,NH3,5,12,8
India,Haryana,Panchkula,"Sector-6, Panchkula - HSPCB ",31-01-2026 08:00:00,30.7057778,76.8531805555555,NO2,24,27,25
India,Haryana,Panipat,"Sector-18, Panipat - HSPCB",31-01-2026 08:00:00,29.432304,76.972765,NO2,NA,NA,NA
India,Haryana,Panipat,"Sector-18, Panipat - HSPCB",31-01-2026 08:00:00,29.432304,76.972765,NH3,NA,NA,NA
India,Himachal Pradesh,Baddi,"HIMUDA Complex Phase-1, Baddi - HPPCB",31-01-2026 08:00:00,30.943887,76.801991,OZONE,9,105,16
India,Jammu_and_Kashmir,Srinagar,"Rajbagh, Srinagar - JKPCC",31-01-2026 08:00:00,34.066206,74.819820,PM2.5,NA,NA,NA
India,Jharkhand,Dhanbad,"Sardar Patel Nagar, Dhanbad - JSPCB",31-01-2026 08:00:00,23.80569,86.44268,PM10,92,193,127
India,Jharkhand,Dhanbad,"Sardar Patel Nagar, Dhanbad - JSPCB",31-01-2026 08:00:00,23.80569,86.44268,NO2,50,55,50
India,Jharkhand,Dhanbad,"Sardar Patel Nagar, Dhanbad - JSPCB",31-01-2026 08:00:00,23.80569,86.44268,OZONE,1,20,10
India,Karnataka,Bengaluru,"BTM Layout, Bengaluru - CPCB",31-01-2026 08:00:00,12.9135218,77.5950804,PM2.5,68,157,107
India,Karnataka,Bengaluru,"RVCE-Mailasandra, Bengaluru - KSPCB",31-01-2026 08:00:00,12.921418,77.502466,PM10,33,215,112
India,Karnataka,Bengaluru,"Sanegurava Halli, Bengaluru - KSPCB",31-01-2026 08:00:00,12.990328,77.5431385,SO2,6,6,6
India,Karnataka,Bengaluru,"Silk Board, Bengaluru - KSPCB",31-01-2026 08:00:00,12.917348,77.622813,PM10,96,160,126
India,Karnataka,Bengaluru,"Silk Board, Bengaluru - KSPCB",31-01-2026 08:00:00,12.917348,77.622813,NO2,50,93,66
India,Karnataka,Chamarajanagar,"Urban, Chamarajanagar - KSPCB",31-01-2026 08:00:00,11.55358,76.55521,NO2,20,35,28
India,Haryana,Kurukshetra,"Sector-7, Kurukshetra - HSPCB",31-01-2026 08:00:00,29.966942,76.875879,NH3,5,5,5
India,Haryana,Kurukshetra,"Sector-7, Kurukshetra - HSPCB",31-01-2026 08:00:00,29.966942,76.875879,CO,20,48,35
India,Haryana,Mandikhera,"General Hospital, Mandikhera(Nuh) - HSPCB",31-01-2026 08:00:00,27.9002,76.9938,PM2.5,37,156,101
India,Haryana,Mandikhera,"General Hospital, Mandikhera(Nuh) - HSPCB",31-01-2026 08:00:00,27.9002,76.9938,NO2,20,24,22
India,Haryana,Manesar,"Sector-2 IMT, Manesar - HSPCB",31-01-2026 08:00:00,28.360699,76.936090,PM2.5,71,456,264
India,Haryana,Sirsa,"F-Block, Sirsa - HSPCB",31-01-2026 08:00:00,29.536400,75.015800,PM10,61,134,92
India,Haryana,Yamuna Nagar,"Gobind Pura, Yamuna Nagar - HSPCB",31-01-2026 08:00:00,30.1480566,77.2893471,PM2.5,74,157,104
India,Haryana,Yamuna Nagar,"Gobind Pura, Yamuna Nagar - HSPCB",31-01-2026 08:00:00,30.1480566,77.2893471,CO,30,52,35
India,Himachal Pradesh,Baddi,"HIMUDA Complex Phase-1, Baddi - HPPCB",31-01-2026 08:00:00,30.943887,76.801991,PM2.5,82,348,233
India,Haryana,Jind,"Police Lines, Jind - HSPCB",31-01-2026 08:00:00,29.307814,76.337619,CO,NA,NA,NA
India,Haryana,Kaithal,"Rishi Nagar, Kaithal - HSPCB",31-01-2026 08:00:00,29.8006,76.4155,PM2.5,47,155,89
India,Haryana,Kaithal,"Rishi Nagar, Kaithal - HSPCB",31-01-2026 08:00:00,29.8006,76.4155,PM10,58,138,98
India,Haryana,Kaithal,"Rishi Nagar, Kaithal - HSPCB",31-01-2026 08:00:00,29.8006,76.4155,CO,16,76,47
India,Karnataka,Bengaluru,"Hebbal, Bengaluru - KSPCB",31-01-2026 08:00:00,13.029152,77.585901,OZONE,8,45,10
India,Karnataka,Bengaluru,"Hombegowda Nagar, Bengaluru - KSPCB",31-01-2026 08:00:00,12.938539,77.590100,PM2.5,41,143,73
India,Karnataka,Bengaluru,"Peenya, Bengaluru - CPCB",31-01-2026 08:00:00,13.0270199,77.494094,PM10,81,111,94
India,Haryana,Manesar,"Sector-2 IMT, Manesar - HSPCB",31-01-2026 08:00:00,28.360699,76.936090,OZONE,5,24,6
India,Haryana,Narnaul,"Shastri Nagar, Narnaul - HSPCB",31-01-2026 08:00:00,28.060249,76.113115,NO2,49,76,60
India,Karnataka,Vijayapura,"Ibrahimpur, Vijayapura - KSPCB",31-01-2026 08:00:00,16.802639,75.722694,OZONE,NA,NA,NA
India,Karnataka,Yadgir,"Collector Office, Yadgir - KSPCB",31-01-2026 08:00:00,16.7602,77.1428,NO2,6,36,13
India,Karnataka,Yadgir,"Collector Office, Yadgir - KSPCB",31-01-2026 08:00:00,16.7602,77.1428,OZONE,18,20,19
India,Kerala,Eloor,"Udyogamandal, Eloor - Kerala PCB",31-01-2026 08:00:00,10.073232,76.302765,PM10,75,106,95
India,Kerala,Eloor,"Udyogamandal, Eloor - Kerala PCB",31-01-2026 08:00:00,10.073232,76.302765,NO2,7,8,8
India,Kerala,Eloor,"Udyogamandal, Eloor - Kerala PCB",31-01-2026 08:00:00,10.073232,76.302765,SO2,1,1,1
India,Kerala,Kannur,"Thavakkara, Kannur - Kerala PCB",31-01-2026 08:00:00,11.875000,75.373200,PM2.5,64,140,86
India,Kerala,Kannur,"Thavakkara, Kannur - Kerala PCB",31-01-2026 08:00:00,11.875000,75.373200,CO,18,23,20
India,Kerala,Thiruvananthapuram,"Kariavattom, Thiruvananthapuram - Kerala PCB",31-01-2026 08:00:00,8.563700,76.886500,NO2,6,7,6
India,Kerala,Thiruvananthapuram,"Kariavattom, Thiruvananthapuram - Kerala PCB",31-01-2026 08:00:00,8.563700,76.886500,CO,31,76,57
India,Kerala,Thiruvananthapuram,"Plammoodu, Thiruvananthapuram - Kerala PCB",31-01-2026 08:00:00,8.5149093,76.9435879,PM2.5,52,83,67
India,Madhya Pradesh,Dewas,"Bhopal Chauraha, Dewas - MPPCB",31-01-2026 08:00:00,22.9682591,76.064118,NO2,43,100,75
India,Madhya Pradesh,Gwalior,"City Center, Gwalior - MPPCB",31-01-2026 08:00:00,26.203442,78.193251,PM2.5,37,145,79
India,Madhya Pradesh,Gwalior,"Deen Dayal Nagar, Gwalior - MPPCB",31-01-2026 08:00:00,26.259242,78.216432,PM2.5,NA,NA,NA
India,Madhya Pradesh,Gwalior,"Deen Dayal Nagar, Gwalior - MPPCB",31-01-2026 08:00:00,26.259242,78.216432,CO,30,86,49
India,Madhya Pradesh,Gwalior,"Maharaj Bada, Gwalior - MPPCB",31-01-2026 08:00:00,26.200388,78.147714,PM2.5,52,277,119
India,Madhya Pradesh,Gwalior,"Maharaj Bada, Gwalior - MPPCB",31-01-2026 08:00:00,26.200388,78.147714,NO2,25,105,45
India,Madhya Pradesh,Indore,"Airport Area, Indore - IMC",31-01-2026 08:00:00,22.7289,75.8076,CO,1,29,11
India,Madhya Pradesh,Indore,"Airport Area, Indore - IMC",31-01-2026 08:00:00,22.7289,75.8076,OZONE,5,9,6
India,Madhya Pradesh,Indore,"Chhoti Gwaltoli, Indore - MPPCB",31-01-2026 08:00:00,22.4310,75.5213,PM10,58,174,99
India,Madhya Pradesh,Indore,"Chhoti Gwaltoli, Indore - MPPCB",31-01-2026 08:00:00,22.4310,75.5213,NO2,53,146,83
India,Madhya Pradesh,Indore,"Chhoti Gwaltoli, Indore - MPPCB",31-01-2026 08:00:00,22.4310,75.5213,NH3,2,7,4
India,Karnataka,Mysuru,"Hebbal 1st Stage, Mysuru - KSPCB",31-01-2026 08:00:00,12.21041,76.37376,CO,6,110,22
India,Karnataka,Ramanagara,"Vijay Nagar, Ramanagara - KSPCB",31-01-2026 08:00:00,12.733409,77.298051,PM2.5,63,208,100
India,Karnataka,Ramanagara,"Vijay Nagar, Ramanagara - KSPCB",31-01-2026 08:00:00,12.733409,77.298051,NO2,28,97,57
India,Karnataka,Shivamogga,"Vinoba Nagara, Shivamogga - KSPCB",31-01-2026 08:00:00,13.940000,75.555917,NH3,3,6,4
India,Karnataka,Shivamogga,"Vinoba Nagara, Shivamogga - KSPCB",31-01-2026 08:00:00,13.940000,75.555917,CO,16,37,34
India,Karnataka,Shivamogga,"Vinoba Nagara, Shivamogga - KSPCB",31-01-2026 08:00:00,13.940000,75.555917,OZONE,6,68,13
India,Karnataka,Tumakuru,"Thimmalapura, Tumakuru - KSPCB",31-01-2026 08:00:00,13.377516,77.099072,NO2,31,32,32
India,Karnataka,Tumakuru,"Thimmalapura, Tumakuru - KSPCB",31-01-2026 08:00:00,13.377516,77.099072,SO2,11,27,22
India,Karnataka,Vijayapura,"Ibrahimpur, Vijayapura - KSPCB",31-01-2026 08:00:00,16.802639,75.722694,SO2,NA,NA,NA
India,Madhya Pradesh,Pithampur,"Sector-2 Industrial Area, Pithampur - MPPCB",31-01-2026 08:00:00,22.624758,75.675238,NO2,23,48,37
India,Madhya Pradesh,Pithampur,"Sector-2 Industrial Area, Pithampur - MPPCB",31-01-2026 08:00:00,22.624758,75.675238,OZONE,39,119,68
India,Madhya Pradesh,Ratlam,"Shasthri Nagar, Ratlam - IPCA Lab",31-01-2026 08:00:00,23.331731,75.045981,PM2.5,15,108,68
India,Madhya Pradesh,Ratlam,"Shasthri Nagar, Ratlam - IPCA Lab",31-01-2026 08:00:00,23.331731,75.045981,SO2,33,37,36
India,Madhya Pradesh,Sagar,"Civil Lines, Sagar - MPPCB",31-01-2026 08:00:00,23.838586,78.759431,PM10,36,160,79
India,Madhya Pradesh,Sagar,"Deen Dayal Nagar, Sagar - MPPCB",31-01-2026 08:00:00,23.8640158,78.80289321,SO2,3,4,3
India,Madhya Pradesh,Satna,"Bandhavgar Colony, Satna - Birla Cement",31-01-2026 08:00:00,24.58434363,80.8549414,PM10,70,72,70
India,Karnataka,Davanagere,"Devaraj Urs Badavane, Davanagere - KSPCB",31-01-2026 08:00:00,14.475800,75.905200,NH3,1,4,3
India,Karnataka,Hubballi,"Lingaraj Nagar, Hubballi - KSPCB",31-01-2026 08:00:00,15.3714823,75.1160168,NO2,9,13,11
India,Karnataka,Hubballi,"Lingaraj Nagar, Hubballi - KSPCB",31-01-2026 08:00:00,15.3714823,75.1160168,SO2,1,3,2
India,Karnataka,Kalaburagi,"Mahatma Basaveswar Colony, Kalaburgi - KSPCB",31-01-2026 08:00:00,17.336318,76.847397,PM10,25,67,51
India,Karnataka,Kalaburagi,"Mahatma Basaveswar Colony, Kalaburgi - KSPCB",31-01-2026 08:00:00,17.336318,76.847397,NO2,13,21,17
India,Karnataka,Kalaburagi,"Mahatma Basaveswar Colony, Kalaburgi - KSPCB",31-01-2026 08:00:00,17.336318,76.847397,SO2,3,7,5
India,Madhya Pradesh,Jabalpur,"Gupteshwar, Jabalpur - JMC",31-01-2026 08:00:00,23.142888,79.916147,OZONE,1,72,6
India,Madhya Pradesh,Jabalpur,"Marhatal, Jabalpur - MPPCB",31-01-2026 08:00:00,23.168606,79.932247,PM2.5,53,272,134
India,Madhya Pradesh,Katni,"Gole Bazar, Katni - MPPCB",31-01-2026 08:00:00,23.50016,80.23284,PM10,66,151,107
India,Madhya Pradesh,Mandideep,"Sector-D Industrial Area, Mandideep - MPPCB",31-01-2026 08:00:00,23.108440,77.511428,NO2,106,149,126
India,Madhya Pradesh,Bhopal,"Idgah Hills, Bhopal - MPPCB",31-01-2026 08:00:00,23.264759,77.381568,CO,22,63,28
India,Madhya Pradesh,Bhopal,"Paryavaran Parisar, Bhopal - MPPCB",31-01-2026 08:00:00,23.210494,77.425409,PM2.5,63,250,108
India,Madhya Pradesh,Bhopal,"Paryavaran Parisar, Bhopal - MPPCB",31-01-2026 08:00:00,23.210494,77.425409,PM10,76,200,115
India,Madhya Pradesh,Damoh,"Shrivastav Colony, Damoh - MPPCB",31-01-2026 08:00:00,23.81748678,79.446246,SO2,75,93,90
India,Madhya Pradesh,Indore,"Regional Park, Indore - IMC",31-01-2026 08:00:00,22.6780,75.8559,SO2,4,11,7
India,Madhya Pradesh,Indore,"Residency Area, Indore - IMC",31-01-2026 08:00:00,22.7084,75.8815,PM10,36,127,66
India,Madhya Pradesh,Jabalpur,"Govindh Bhavan Colony, Jabalpur - JMC",31-01-2026 08:00:00,23.163174,79.973061,CO,17,23,21
India,Karnataka,Chikkamagaluru,"Kalyana Nagara, Chikkamagaluru - KSPCB",31-01-2026 08:00:00,13.328028,75.797056,PM2.5,42,90,61
India,Karnataka,Chikkamagaluru,"Kalyana Nagara, Chikkamagaluru - KSPCB",31-01-2026 08:00:00,13.328028,75.797056,PM10,62,71,65
India,Maharashtra,Jalna,"Old MIDC, Jalna - MPCB",31-01-2026 08:00:00,19.854616,75.905894,SO2,NA,NA,NA
India,Maharashtra,Kalyan,"Khadakpada, Kalyan - MPCB",31-01-2026 08:00:00,19.25292,73.142019,OZONE,9,17,9
India,Maharashtra,Kalyan,"Pimpleshwar Mandir, Kalyan - MPCB",31-01-2026 08:00:00,19.192056,72.9585188,PM2.5,63,102,83
India,Maharashtra,Kolhapur,"Shivaji University, Kolhapur - MPCB",31-01-2026 08:00:00,16.6870449,74.2505872,PM2.5,54,119,70
India,Maharashtra,Kolhapur,"Shivaji University, Kolhapur - MPCB",31-01-2026 08:00:00,16.6870449,74.2505872,NH3,3,4,4
India,Maharashtra,Kolhapur,"Shivaji University, Kolhapur - MPCB",31-01-2026 08:00:00,16.6870449,74.2505872,OZONE,3,57,8
India,Maharashtra,Kolhapur,"Sinchan Bhavan, Kolhapur - MPCB",31-01-2026 08:00:00,16.7143745,74.2426398,NH3,5,11,7
India,Maharashtra,Kolhapur,"Sinchan Bhavan, Kolhapur - MPCB",31-01-2026 08:00:00,16.7143745,74.2426398,SO2,1,7,3
India,Maharashtra,Latur,"Sawe Wadi, Latur - MPCB",31-01-2026 08:00:00,18.39963,76.57452,PM10,71,107,90
India,Maharashtra,Latur,"Sawe Wadi, Latur - MPCB",31-01-2026 08:00:00,18.39963,76.57452,CO,22,83,26
India,Maharashtra,Boisar,"Khaira, Boisar - MPCB",31-01-2026 08:00:00,19.786089,72.757971,PM10,88,123,104
India,Maharashtra,Chandrapur,"Chauhan Colony, Chandrapur - MPCB",31-01-2026 08:00:00,19.962900,79.298714,PM2.5,35,208,75
India,Maharashtra,Chandrapur,"Chauhan Colony, Chandrapur - MPCB",31-01-2026 08:00:00,19.962900,79.298714,SO2,37,38,38
India,Maharashtra,Chandrapur,"MIDC Khutala, Chandrapur - MPCB",31-01-2026 08:00:00,19.9775302,79.2337086,CO,38,43,40
