country,state,city,station,last_update,latitude,longitude,pollutant_id,min_value,max_value,avg_value
India,Bihar,Motihari,"Gandak Colony, Motihari - BSPCB",14-01-2026 08:00:00,26.63086,84.90051,SO2,2,3,2
India,Bihar,Motihari,"Gandak Colony, Motihari - BSPCB",14-01-2026 08:00:00,26.63086,84.90051,CO,15,36,17
India,Bihar,Motihari,"Gandak Colony, Motihari - BSPCB",14-01-2026 08:00:00,26.63086,84.90051,OZONE,3,8,5
India,Bihar,Munger,"Town Hall, Munger - BSPCB",14-01-2026 08:00:00,25.376776,86.471523,PM10,52,122,85
India,Bihar,Munger,"Town Hall, Munger - BSPCB",14-01-2026 08:00:00,25.376776,86.471523,SO2,40,83,60
India,Bihar,Muzaffarpur,"Buddha Colony, Muzaffarpur - BSPCB",14-01-2026 08:00:00,26.11442,85.39813,NO2,38,65,46
India,Bihar,Muzaffarpur,"Buddha Colony, Muzaffarpur - BSPCB",14-01-2026 08:00:00,26.11442,85.39813,OZONE,34,82,41
India,Bihar,Muzaffarpur,"Muzaffarpur Collectorate, Muzaffarpur - BSPCB",14-01-2026 08:00:00,26.1209,85.3647,SO2,4,8,6
India,Bihar,Muzaffarpur,"Muzaffarpur Collectorate, Muzaffarpur - BSPCB",14-01-2026 08:00:00,26.1209,85.3647,CO,12,62,34
India,Bihar,Patna,"DRM Office Danapur, Patna - BSPCB",14-01-2026 08:00:00,25.586562,85.043586,PM2.5,120,252,186
India,Bihar,Kishanganj,"SDM Office_Khagra, Kishanganj - BSPCB",14-01-2026 08:00:00,26.0881305,87.93840336,PM2.5,25,40,33
India,Bihar,Kishanganj,"SDM Office_Khagra, Kishanganj - BSPCB",14-01-2026 08:00:00,26.0881305,87.93840336,PM10,43,70,58
India,Bihar,Kishanganj,"SDM Office_Khagra, Kishanganj - BSPCB",14-01-2026 08:00:00,26.0881305,87.93840336,NH3,3,3,3
India,Bihar,Kishanganj,"SDM Office_Khagra, Kishanganj - BSPCB",14-01-2026 08:00:00,26.0881305,87.93840336,SO2,6,8,7
India,Bihar,Manguraha,"Forest Rest House, Manguraha - BSPCB",14-01-2026 08:00:00,27.308328,84.531742,PM10,49,205,102
India,Bihar,Manguraha,"Forest Rest House, Manguraha - BSPCB",14-01-2026 08:00:00,27.308328,84.531742,CO,32,34,32
India,Bihar,Manguraha,"Forest Rest House, Manguraha - BSPCB",14-01-2026 08:00:00,27.308328,84.531742,OZONE,9,11,10
India,Bihar,Motihari,"Gandak Colony, Motihari - BSPCB",14-01-2026 08:00:00,26.63086,84.90051,NH3,3,3,3
India,Assam,Guwahati,"Railway Colony, Guwahati - PCBA",14-01-2026 08:00:00,26.181742,91.78063,SO2,35,37,36
India,Assam,Nagaon,"Christianpatty, Nagaon - PCBA",14-01-2026 08:00:00,26.349082,92.68449,PM10,83,124,106
India,Assam,Nagaon,"Christianpatty, Nagaon - PCBA",14-01-2026 08:00:00,26.349082,92.68449,OZONE,8,9,9
India,Assam,Nalbari,"Bata Chowk, Nalbari - PCBA",14-01-2026 08:00:00,26.446912,91.439057,SO2,8,8,8
India,Assam,Silchar,"Tarapur, Silchar - PCBA",14-01-2026 08:00:00,24.82827,92.79525,OZONE,2,5,2
India,Assam,Sivasagar,"Girls College, Sivasagar - PCBA",14-01-2026 08:00:00,26.987634,94.636574,CO,NA,NA,NA
India,Bihar,Chhapra,"Darshan Nagar, Chhapra - BSPCB",14-01-2026 08:00:00,25.7808257,84.7446768,PM2.5,43,117,68
India,Bihar,Chhapra,"Darshan Nagar, Chhapra - BSPCB",14-01-2026 08:00:00,25.7808257,84.7446768,SO2,20,29,26
India,Bihar,Gaya,"Collectorate, Gaya - BSPCB",14-01-2026 08:00:00,24.7955,84.9994,CO,35,50,45
India,Bihar,Gaya,"Kareemganj, Gaya - BSPCB",14-01-2026 08:00:00,24.792403,84.992416,OZONE,3,55,21
India,Bihar,Gaya,"SFTI Kusdihra, Gaya - BSPCB",14-01-2026 08:00:00,24.762518,84.982348,PM2.5,59,83,69
India,Bihar,Gaya,"SFTI Kusdihra, Gaya - BSPCB",14-01-2026 08:00:00,24.762518,84.982348,NH3,3,5,4
India,Bihar,Gaya,"SFTI Kusdihra, Gaya - BSPCB",14-01-2026 08:00:00,24.762518,84.982348,OZONE,10,52,12
India,Andhra_Pradesh,Vijayawada,"Kanuru, Vijayawada - APPCB",14-01-2026 08:00:00,16.486692,80.699436,PM10,77,107,89
India,Andhra_Pradesh,Vijayawada,"Kanuru, Vijayawada - APPCB",14-01-2026 08:00:00,16.486692,80.699436,NH3,4,5,5
India,Andhra_Pradesh,Vijayawada,"Kanuru, Vijayawada - APPCB",14-01-2026 08:00:00,16.486692,80.699436,SO2,12,24,18
India,Andhra_Pradesh,Vijayawada,"Rajiv Gandhi Park, Vijayawada - APPCB",14-01-2026 08:00:00,16.509717,80.612222,PM10,81,106,92
India,Andhra_Pradesh,Vijayawada,"Rajiv Nagar, Vijayawada - APPCB",14-01-2026 08:00:00,16.554731,80.649110,PM2.5,76,163,112
India,Andhra_Pradesh,Visakhapatnam,"GVM Corporation, Visakhapatnam - APPCB",14-01-2026 08:00:00,17.72,83.3,NO2,25,197,94
India,Bihar,Araria,"Kharahiya Basti, Araria - BSPCB",14-01-2026 08:00:00,26.146529,87.454184,NH3,4,5,4
India,Bihar,Araria,"Kharahiya Basti, Araria - BSPCB",14-01-2026 08:00:00,26.146529,87.454184,CO,2,32,18
India,Bihar,Arrah,"New DM Office, Arrah - BSPCB",14-01-2026 08:00:00,25.5626095,84.663264,PM2.5,32,75,47
India,Bihar,Aurangabad,"Gurdeo Nagar, Aurangabad - BSPCB",14-01-2026 08:00:00,24.75746,84.366208,PM10,78,169,108
India,Bihar,Aurangabad,"Gurdeo Nagar, Aurangabad - BSPCB",14-01-2026 08:00:00,24.75746,84.366208,NH3,1,2,1
India,Bihar,Aurangabad,"Gurdeo Nagar, Aurangabad - BSPCB",14-01-2026 08:00:00,24.75746,84.366208,CO,101,103,102
India,Andhra_Pradesh,Amaravati,"Secretariat, Amaravati - APPCB",14-01-2026 08:00:00,16.5150833,80.5181667,PM10,101,203,127
India,Andhra_Pradesh,Anantapur,"Gulzarpet, Anantapur - APPCB",14-01-2026 08:00:00,14.675886,77.593027,PM2.5,66,110,80
India,Andhra_Pradesh,Anantapur,"Gulzarpet, Anantapur - APPCB",14-01-2026 08:00:00,14.675886,77.593027,CO,10,43,29
India,Andhra_Pradesh,Chittoor,"Gangineni Cheruvu, Chittoor - APPCB",14-01-2026 08:00:00,13.204880,79.097889,PM10,61,151,86
India,Andhra_Pradesh,Chittoor,"Gangineni Cheruvu, Chittoor - APPCB",14-01-2026 08:00:00,13.204880,79.097889,NO2,38,42,41
India,Arunachal_Pradesh,Naharlagun,"Naharlagun, Naharlagun - APSPCB",14-01-2026 08:00:00,27.103358,93.679645,CO,10,94,16
India,Assam,Guwahati,"LGBI Airport, Guwahati - PCBA",14-01-2026 08:00:00,26.10887,91.589544,PM2.5,38,148,97
India,Assam,Guwahati,"LGBI Airport, Guwahati - PCBA",14-01-2026 08:00:00,26.10887,91.589544,PM10,49,150,118
India,Assam,Guwahati,"Railway Colony, Guwahati - PCBA",14-01-2026 08:00:00,26.181742,91.78063,NO2,3,3,3
India,Andhra_Pradesh,Kadapa,"Yerramukkapalli, Kadapa - APPCB",14-01-2026 08:00:00,14.465052,78.824187,PM10,72,260,142
India,Andhra_Pradesh,Kadapa,"Yerramukkapalli, Kadapa - APPCB",14-01-2026 08:00:00,14.465052,78.824187,NH3,3,5,3
India,Andhra_Pradesh,Tirumala,"Toll Gate, Tirumala - APPCB",14-01-2026 08:00:00,13.67,79.35,SO2,3,13,9
India,Andhra_Pradesh,Tirupati,"Vaikuntapuram, Tirupati - APPCB",14-01-2026 08:00:00,13.615387,79.409230,NH3,4,6,5
India,Bihar,Bettiah,"Kamalnath Nagar, Bettiah - BSPCB",14-01-2026 08:00:00,26.80365,84.51954,NH3,1,1,1
India,Bihar,Bettiah,"Kamalnath Nagar, Bettiah - BSPCB",14-01-2026 08:00:00,26.80365,84.51954,SO2,3,21,8
India,Bihar,Bettiah,"Kamalnath Nagar, Bettiah - BSPCB",14-01-2026 08:00:00,26.80365,84.51954,CO,49,107,71
India,Bihar,Bihar Sharif,"D M Colony, Bihar Sharif - BSPCB",14-01-2026 08:00:00,25.204762,85.514960,OZONE,NA,NA,NA
India,Bihar,Patna,"DRM Office Danapur, Patna - BSPCB",14-01-2026 08:00:00,25.586562,85.043586,OZONE,18,44,27
India,Bihar,Patna,"Govt. High School Shikarpur, Patna - BSPCB",14-01-2026 08:00:00,25.592539,85.227158,PM2.5,61,148,100
India,Bihar,Patna,"IGSC Planetarium Complex, Patna - BSPCB",14-01-2026 08:00:00,25.610369,85.132568,PM2.5,NA,NA,NA
India,Bihar,Patna,"IGSC Planetarium Complex, Patna - BSPCB",14-01-2026 08:00:00,25.610369,85.132568,NO2,NA,NA,NA
India,Bihar,Patna,"IGSC Planetarium Complex, Patna - BSPCB",14-01-2026 08:00:00,25.610369,85.132568,OZONE,28,29,28
India,Bihar,Patna,"Muradpur, Patna - BSPCB",14-01-2026 08:00:00,25.619651,85.147382,PM10,95,139,119
India,Bihar,Patna,"Muradpur, Patna - BSPCB",14-01-2026 08:00:00,25.619651,85.147382,NO2,6,8,7
India,Bihar,Patna,"Rajbansi Nagar, Patna - BSPCB",14-01-2026 08:00:00,25.599486,85.113666,PM2.5,74,118,91
India,Bihar,Patna,"Rajbansi Nagar, Patna - BSPCB",14-01-2026 08:00:00,25.599486,85.113666,NO2,18,144,58
India,Bihar,Patna,"Rajbansi Nagar, Patna - BSPCB",14-01-2026 08:00:00,25.599486,85.113666,NH3,1,7,5
India,Bihar,Patna,"Rajbansi Nagar, Patna - BSPCB",14-01-2026 08:00:00,25.599486,85.113666,SO2,6,7,6
India,Bihar,Patna,"Samanpura, Patna - BSPCB",14-01-2026 08:00:00,25.596727,85.085624,PM2.5,82,173,123
India,Bihar,Patna,"Samanpura, Patna - BSPCB",14-01-2026 08:00:00,25.596727,85.085624,PM10,93,159,120
India,Bihar,Purnia,"Mariam Nagar, Purnia - BSPCB",14-01-2026 08:00:00,25.366336,87.117468,SO2,16,17,17
India,Bihar,Purnia,"Mariam Nagar, Purnia - BSPCB",14-01-2026 08:00:00,25.366336,87.117468,OZONE,21,49,24
India,Bihar,Rajgir,"Dangi Tola, Rajgir - BSPCB",14-01-2026 08:00:00,25.03280,85.41948,SO2,15,26,21
India,Bihar,Saharsa,"Police Line, Saharsa - BSPCB",14-01-2026 08:00:00,25.892357,86.590325,NO2,6,8,7
India,Bihar,Saharsa,"Police Line, Saharsa - BSPCB",14-01-2026 08:00:00,25.892357,86.590325,SO2,16,19,18
India,Bihar,Saharsa,"Police Line, Saharsa - BSPCB",14-01-2026 08:00:00,25.892357,86.590325,OZONE,9,12,10
India,Chhattisgarh,Bilaspur,"Mangala, Bilaspur - NTPC",14-01-2026 08:00:00,22.08815,82.13737,CO,21,72,47
India,Chhattisgarh,Chhal,"Nawapara SECL Colony, Chhal - CECB",14-01-2026 08:00:00,22.118125,83.140608,OZONE,5,103,11
India,Chhattisgarh,Korba,"Rampur, Korba - CECB",14-01-2026 08:00:00,22.368195,82.746431,NO2,16,40,30
India,Chhattisgarh,Korba,"Rampur, Korba - CECB",14-01-2026 08:00:00,22.368195,82.746431,OZONE,1,21,4
India,Chhattisgarh,Kunjemura,"OP Jindal School, Kunjemura - CECB",14-01-2026 08:00:00,22.126650,83.483212,NO2,12,58,34
India,Chhattisgarh,Kunjemura,"OP Jindal School, Kunjemura - CECB",14-01-2026 08:00:00,22.126650,83.483212,NH3,2,2,2
India,Bihar,Samastipur,"DM Office_Kasipur, Samastipur - BSPCB",14-01-2026 08:00:00,25.859655,85.77944,SO2,20,29,26
India,Bihar,Samastipur,"DM Office_Kasipur, Samastipur - BSPCB",14-01-2026 08:00:00,25.859655,85.77944,CO,6,10,9
India,Bihar,Sasaram,"Dada Peer, Sasaram - BSPCB",14-01-2026 08:00:00,24.952822,84.002396,PM2.5,23,58,33
India,Bihar,Sasaram,"Dada Peer, Sasaram - BSPCB",14-01-2026 08:00:00,24.952822,84.002396,OZONE,8,35,17
India,Chandigarh,Chandigarh,"Sector 22, Chandigarh - CPCC",14-01-2026 08:00:00,30.735567,76.775714,NO2,31,119,61
India,Chandigarh,Chandigarh,"Sector 22, Chandigarh - CPCC",14-01-2026 08:00:00,30.735567,76.775714,SO2,1,14,5
India,Chandigarh,Chandigarh,"Sector-25, Chandigarh - CPCC",14-01-2026 08:00:00,30.751462,76.762879,OZONE,1,40,2
India,Chandigarh,Chandigarh,"Sector-53, Chandigarh - CPCC",14-01-2026 08:00:00,30.719859,76.738637,PM10,NA,NA,NA
India,Chhattisgarh,Bhilai,"Civic Center, Bhilai - Bhilai Steel Plant",14-01-2026 08:00:00,21.185571,81.343175,PM10,NA,NA,NA
India,Chhattisgarh,Bhilai,"Civic Center, Bhilai - Bhilai Steel Plant",14-01-2026 08:00:00,21.185571,81.343175,SO2,NA,NA,NA
India,Chhattisgarh,Bhilai,"Civic Center, Bhilai - Bhilai Steel Plant",14-01-2026 08:00:00,21.185571,81.343175,OZONE,NA,NA,NA
India,Chhattisgarh,Bhilai,"Hathkhoj, Bhilai - CECB",14-01-2026 08:00:00,21.224231,81.408350,PM10,23,169,68
India,Chhattisgarh,Raipur,"Siltara Phase-II, Raipur - CECB",14-01-2026 08:00:00,21.371751,81.664929,SO2,3,8,4
India,Delhi,Delhi,"Anand Vihar, Delhi - DPCC",14-01-2026 08:00:00,28.647622,77.3158090,PM2.5,15,500,359
India,Delhi,Delhi,"Anand Vihar, Delhi - DPCC",14-01-2026 08:00:00,28.647622,77.3158090,PM10,206,500,352
India,Delhi,Delhi,"Anand Vihar, Delhi - DPCC",14-01-2026 08:00:00,28.647622,77.3158090,NH3,5,10,7
India,Delhi,Delhi,"Anand Vihar, Delhi - DPCC",14-01-2026 08:00:00,28.647622,77.3158090,CO,42,122,94
India,Delhi,Delhi,"Ashok Vihar, Delhi - DPCC",14-01-2026 08:00:00,28.695381,77.181665,NH3,2,9,7
India,Delhi,Delhi,"DTU, Delhi - CPCB",14-01-2026 08:00:00,28.7500499,77.1112615,SO2,36,40,38
India,Delhi,Delhi,"Dr. Karni Singh Shooting Range, Delhi - DPCC",14-01-2026 08:00:00,28.498571,77.264840,OZONE,6,163,9
India,Delhi,Delhi,"Dwarka-Sector 8, Delhi - DPCC ",14-01-2026 08:00:00,28.5710274,77.0719006,NH3,22,27,25
India,Delhi,Delhi,"Dwarka-Sector 8, Delhi - DPCC ",14-01-2026 08:00:00,28.5710274,77.0719006,SO2,22,34,26
India,Delhi,Delhi,"IGI Airport (T3), Delhi - IMD",14-01-2026 08:00:00,28.5627763,77.1180053,PM2.5,113,449,305
India,Chhattisgarh,Milupara,"Govt. Higher Secondary School, Milupara - CECB",14-01-2026 08:00:00,22.1910172,83.5197009,SO2,13,18,14
India,Chhattisgarh,Raipur,"AIIMS, Raipur - CECB",14-01-2026 08:00:00,21.258815,81.578979,NH3,4,4,4
India,Chhattisgarh,Raipur,"AIIMS, Raipur - CECB",14-01-2026 08:00:00,21.258815,81.578979,CO,32,86,59
India,Chhattisgarh,Raipur,"AIIMS, Raipur - CECB",14-01-2026 08:00:00,21.258815,81.578979,OZONE,1,16,1
India,Chhattisgarh,Raipur,"Siltara Phase-II, Raipur - CECB",14-01-2026 08:00:00,21.371751,81.664929,NH3,2,2,2
India,Delhi,Delhi,"Aya Nagar, Delhi - IMD",14-01-2026 08:00:00,28.4706914,77.1099364,PM10,149,461,281
India,Delhi,Delhi,"Bawana, Delhi - DPCC",14-01-2026 08:00:00,28.776200,77.051074,CO,24,90,67
India,Delhi,Delhi,"Burari Crossing, Delhi - IMD",14-01-2026 08:00:00,28.7256504,77.2011573,CO,30,106,66
India,Delhi,Delhi,"Chandni Chowk, Delhi - IITM",14-01-2026 08:00:00,28.656756,77.227234,SO2,1,72,35
India,Gujarat,Ahmedabad,"Rakhial, Ahmedabad - IITM",14-01-2026 08:00:00,23.016834,72.625775,PM2.5,83,196,127
India,Gujarat,Ahmedabad,"Rakhial, Ahmedabad - IITM",14-01-2026 08:00:00,23.016834,72.625775,OZONE,3,128,39
India,Gujarat,Ahmedabad,"SAC ISRO Bopal, Ahmedabad - IITM",14-01-2026 08:00:00,23.041137,72.456691,PM10,103,160,132
India,Gujarat,Ahmedabad,"SAC ISRO Bopal, Ahmedabad - IITM",14-01-2026 08:00:00,23.041137,72.456691,NO2,19,49,27
India,Gujarat,Ahmedabad,"SAC ISRO Bopal, Ahmedabad - IITM",14-01-2026 08:00:00,23.041137,72.456691,OZONE,4,74,7
India,Gujarat,Ahmedabad,"SAC ISRO Satellite, Ahmedabad - IITM",14-01-2026 08:00:00,23.023389,72.515201,PM10,73,154,107
India,Gujarat,Ahmedabad,"SAC ISRO Satellite, Ahmedabad - IITM",14-01-2026 08:00:00,23.023389,72.515201,NO2,5,26,15
India,Gujarat,Ahmedabad,"SAC ISRO Satellite, Ahmedabad - IITM",14-01-2026 08:00:00,23.023389,72.515201,NH3,3,13,8
India,Gujarat,Ahmedabad,"SVPI Airport Hansol, Ahmedabad - IITM",14-01-2026 08:00:00,23.076793,72.627874,PM2.5,78,120,92
India,Gujarat,Ahmedabad,"SVPI Airport Hansol, Ahmedabad - IITM",14-01-2026 08:00:00,23.076793,72.627874,NH3,3,7,5
India,Gujarat,Ahmedabad,"SVPI Airport Hansol, Ahmedabad - IITM",14-01-2026 08:00:00,23.076793,72.627874,CO,5,30,11
India,Delhi,Delhi,"Wazirpur, Delhi - DPCC",14-01-2026 08:00:00,28.699793,77.165453,NH3,8,11,10
India,Delhi,Delhi,"Wazirpur, Delhi - DPCC",14-01-2026 08:00:00,28.699793,77.165453,SO2,1,6,3
India,Delhi,Delhi,"Wazirpur, Delhi - DPCC",14-01-2026 08:00:00,28.699793,77.165453,CO,38,114,82
India,Gujarat,Ahmedabad,"Chandkheda, Ahmedabad - IITM",14-01-2026 08:00:00,23.107969,72.574648,NO2,15,67,32
India,Gujarat,Ahmedabad,"Chandkheda, Ahmedabad - IITM",14-01-2026 08:00:00,23.107969,72.574648,SO2,8,21,15
India,Gujarat,Ahmedabad,"Gyaspur, Ahmedabad - IITM",14-01-2026 08:00:00,22.977134,72.553024,OZONE,17,91,25
India,Gujarat,Ahmedabad,"Maninagar, Ahmedabad - GPCB",14-01-2026 08:00:00,23.002657,72.591912,SO2,44,97,73
India,Gujarat,Ahmedabad,"Raikhad, Ahmedabad - IITM",14-01-2026 08:00:00,23.020509,72.579261,PM10,111,182,154
India,Delhi,Delhi,"Narela, Delhi - DPCC",14-01-2026 08:00:00,28.822836,77.101981,PM2.5,140,452,324
India,Delhi,Delhi,"Narela, Delhi - DPCC",14-01-2026 08:00:00,28.822836,77.101981,NH3,7,11,9
India,Delhi,Delhi,"Nehru Nagar, Delhi - DPCC",14-01-2026 08:00:00,28.567890,77.250515,PM2.5,223,500,418
India,Delhi,Delhi,"Nehru Nagar, Delhi - DPCC",14-01-2026 08:00:00,28.567890,77.250515,NO2,41,111,77
India,Delhi,Delhi,"Nehru Nagar, Delhi - DPCC",14-01-2026 08:00:00,28.567890,77.250515,NH3,6,11,8
India,Delhi,Delhi,"North Campus, DU, Delhi - IMD",14-01-2026 08:00:00,28.6573814,77.1585447,OZONE,9,301,14
India,Delhi,Delhi,"Okhla Phase-2, Delhi - DPCC",14-01-2026 08:00:00,28.530785,77.271255,NH3,15,23,18
India,Delhi,Delhi,"IHBAS, Dilshad Garden, Delhi - CPCB",14-01-2026 08:00:00,28.6811736,77.3025234,CO,36,106,95
India,Delhi,Delhi,"IHBAS, Dilshad Garden, Delhi - CPCB",14-01-2026 08:00:00,28.6811736,77.3025234,OZONE,14,22,16
India,Delhi,Delhi,"ITO, Delhi - CPCB",14-01-2026 08:00:00,28.628624,77.241060,CO,22,111,67
India,Delhi,Delhi,"Jahangirpuri, Delhi - DPCC",14-01-2026 08:00:00,28.732820,77.170633,PM10,171,451,327
India,Delhi,Delhi,"Jahangirpuri, Delhi - DPCC",14-01-2026 08:00:00,28.732820,77.170633,NO2,80,166,118
India,Delhi,Delhi,"Jawaharlal Nehru Stadium, Delhi - DPCC",14-01-2026 08:00:00,28.580280,77.233829,CO,105,157,130
India,Delhi,Delhi,"Sirifort, Delhi - CPCB",14-01-2026 08:00:00,28.5504249,77.2159377,SO2,29,35,32
India,Delhi,Delhi,"Sirifort, Delhi - CPCB",14-01-2026 08:00:00,28.5504249,77.2159377,OZONE,17,20,19
India,Delhi,Delhi,"Sonia Vihar, Delhi - DPCC",14-01-2026 08:00:00,28.710508,77.249485,NH3,7,10,8
India,Delhi,Delhi,"Sonia Vihar, Delhi - DPCC",14-01-2026 08:00:00,28.710508,77.249485,OZONE,2,182,10
India,Delhi,Delhi,"Vivek Vihar, Delhi - DPCC",14-01-2026 08:00:00,28.672342,77.315260,NO2,44,143,80
India,Delhi,Delhi,"Vivek Vihar, Delhi - DPCC",14-01-2026 08:00:00,28.672342,77.315260,OZONE,4,147,11
India,Delhi,Delhi,"Major Dhyan Chand National Stadium, Delhi - DPCC",14-01-2026 08:00:00,28.611281,77.237738,CO,4,130,62
India,Delhi,Delhi,"Mundka, Delhi - DPCC",14-01-2026 08:00:00,28.684678,77.076574,SO2,14,38,20
India,Delhi,Delhi,"Mundka, Delhi - DPCC",14-01-2026 08:00:00,28.684678,77.076574,OZONE,4,76,5
India,Delhi,Delhi,"NSIT Dwarka, Delhi - CPCB",14-01-2026 08:00:00,28.60909,77.0325413,CO,38,92,45
India,Gujarat,Ankleshwar,"GIDC, Ankleshwar - GPCB",14-01-2026 08:00:00,21.613267,73.010555,OZONE,7,136,15
India,Gujarat,Gandhinagar,"Sector-10, Gandhinagar - GPCB",14-01-2026 08:00:00,23.221714,72.654328,SO2,7,14,11
India,Gujarat,Gandhinagar,"Sector-10, Gandhinagar - GPCB",14-01-2026 08:00:00,23.221714,72.654328,OZONE,10,102,22
India,Delhi,Delhi,"Shadipur, Delhi - CPCB",14-01-2026 08:00:00,28.6514781,77.1473105,PM10,234,447,311
India,Delhi,Delhi,"Shadipur, Delhi - CPCB",14-01-2026 08:00:00,28.6514781,77.1473105,OZONE,20,37,32
India,Delhi,Delhi,"Punjabi Bagh, Delhi - DPCC",14-01-2026 08:00:00,28.674045,77.131023,OZONE,3,73,4
India,Haryana,Sonipat,"Murthal, Sonipat - HSPCB",14-01-2026 08:00:00,29.027200,77.062100,CO,40,64,44
India,Haryana,Sonipat,"Murthal, Sonipat - HSPCB",14-01-2026 08:00:00,29.027200,77.062100,OZONE,25,26,26
India,Haryana,Yamuna Nagar,"Gobind Pura, Yamuna Nagar - HSPCB",14-01-2026 08:00:00,30.1480566,77.2893471,SO2,10,15,12
India,Himachal Pradesh,Baddi,"HIMUDA Complex Phase-1, Baddi - HPPCB",14-01-2026 08:00:00,30.943887,76.801991,NO2,4,38,16
India,Himachal Pradesh,Baddi,"HIMUDA Complex Phase-1, Baddi - HPPCB",14-01-2026 08:00:00,30.943887,76.801991,OZONE,6,87,6
India,Jammu_and_Kashmir,Srinagar,"Khunmoh, Srinagar - JKPCC",14-01-2026 08:00:00,34.06313,74.96017,PM2.5,53,78,67
India,Jammu_and_Kashmir,Srinagar,"Khunmoh, Srinagar - JKPCC",14-01-2026 08:00:00,34.06313,74.96017,PM10,76,113,101
India,Jammu_and_Kashmir,Srinagar,"Rajbagh, Srinagar - JKPCC",14-01-2026 08:00:00,34.066206,74.819820,CO,10,18,12
India,Karnataka,Bagalkot,"Vidayagiri, Bagalkot - KSPCB",14-01-2026 08:00:00,16.172806,75.659694,PM2.5,34,36,35
India,Karnataka,Bagalkot,"Vidayagiri, Bagalkot - KSPCB",14-01-2026 08:00:00,16.172806,75.659694,NH3,1,2,1
India,Karnataka,Bagalkot,"Vidayagiri, Bagalkot - KSPCB",14-01-2026 08:00:00,16.172806,75.659694,SO2,7,7,7
India,Karnataka,Bagalkot,"Vidayagiri, Bagalkot - KSPCB",14-01-2026 08:00:00,16.172806,75.659694,CO,2,36,17
India,Karnataka,Bagalkot,"Vidayagiri, Bagalkot - KSPCB",14-01-2026 08:00:00,16.172806,75.659694,OZONE,12,12,12
India,Karnataka,Belgaum,"Ramteerth Nagar, Belgaum - KSPCB",14-01-2026 08:00:00,15.888653,74.541751,PM10,NA,NA,NA
India,Karnataka,Bengaluru,"BTM Layout, Bengaluru - CPCB",14-01-2026 08:00:00,12.9135218,77.5950804,NO2,NA,NA,NA
India,Karnataka,Bengaluru,"BTM Layout, Bengaluru - CPCB",14-01-2026 08:00:00,12.9135218,77.5950804,SO2,NA,NA,NA
India,Karnataka,Bengaluru,"BWSSB Kadabesanahalli, Bengaluru - CPCB",14-01-2026 08:00:00,12.9352049,77.6814488,NH3,NA,NA,NA
India,Karnataka,Bengaluru,"BWSSB Kadabesanahalli, Bengaluru - CPCB",14-01-2026 08:00:00,12.9352049,77.6814488,OZONE,14,47,33
India,Gujarat,Vapi,"Phase-1 GIDC, Vapi - GPCB",14-01-2026 08:00:00,20.362421,72.918013,NH3,4,6,5
India,Gujarat,Vatva,"Phase-4 GIDC, Vatva - GPCB",14-01-2026 08:00:00,22.969611,72.643500,PM2.5,76,231,134
India,Gujarat,Vatva,"Phase-4 GIDC, Vatva - GPCB",14-01-2026 08:00:00,22.969611,72.643500,NO2,59,78,72
India,Gujarat,Vatva,"Phase-4 GIDC, Vatva - GPCB",14-01-2026 08:00:00,22.969611,72.643500,NH3,6,10,9
India,Haryana,Ambala,"Patti Mehar, Ambala - HSPCB",14-01-2026 08:00:00,30.379589,76.778328,PM10,38,141,93
India,Haryana,Ambala,"Patti Mehar, Ambala - HSPCB",14-01-2026 08:00:00,30.379589,76.778328,NO2,20,25,23
India,Haryana,Ambala,"Patti Mehar, Ambala - HSPCB",14-01-2026 08:00:00,30.379589,76.778328,CO,26,42,28
India,Haryana,Ambala,"Patti Mehar, Ambala - HSPCB",14-01-2026 08:00:00,30.379589,76.778328,OZONE,12,38,12
India,Haryana,Ballabgarh,"Nathu Colony, Ballabgarh - HSPCB",14-01-2026 08:00:00,28.3419248,77.319699,OZONE,15,16,15
India,Haryana,Bhiwani,"H.B. Colony, Bhiwani - HSPCB",14-01-2026 08:00:00,28.806223,76.141105,NO2,1,35,31
India,Haryana,Bhiwani,"H.B. Colony, Bhiwani - HSPCB",14-01-2026 08:00:00,28.806223,76.141105,SO2,12,13,13
India,Haryana,Faridabad,"New Industrial Town, Faridabad - HSPCB",14-01-2026 08:00:00,28.39072,77.30059,PM10,171,177,174
India,Haryana,Faridabad,"New Industrial Town, Faridabad - HSPCB",14-01-2026 08:00:00,28.39072,77.30059,SO2,8,8,8
India,Haryana,Faridabad,"New Industrial Town, Faridabad - HSPCB",14-01-2026 08:00:00,28.39072,77.30059,OZONE,28,34,30
India,Haryana,Faridabad,"Sector 11, Faridabad - HSPCB",14-01-2026 08:00:00,28.376058,77.315741,PM10,103,388,228
India,Haryana,Faridabad,"Sector 11, Faridabad - HSPCB",14-01-2026 08:00:00,28.376058,77.315741,NH3,10,10,10
India,Haryana,Narnaul,"Shastri Nagar, Narnaul - HSPCB",14-01-2026 08:00:00,28.060249,76.113115,PM2.5,311,464,354
India,Haryana,Palwal,"Shyam Nagar, Palwal - HSPCB",14-01-2026 08:00:00,28.1485564,77.3320667,PM10,112,162,129
India,Haryana,Palwal,"Shyam Nagar, Palwal - HSPCB",14-01-2026 08:00:00,28.1485564,77.3320667,NO2,23,24,24
India,Haryana,Palwal,"Shyam Nagar, Palwal - HSPCB",14-01-2026 08:00:00,28.1485564,77.3320667,CO,21,50,38
India,Haryana,Panchgaon,"Amity University, Panchgaon - IITM",14-01-2026 08:00:00,28.3153,76.9143,SO2,1,22,10
India,Haryana,Panchgaon,"Amity University, Panchgaon - IITM",14-01-2026 08:00:00,28.3153,76.9143,OZONE,1,97,3
India,Haryana,Faridabad,"Sector 30, Faridabad - HSPCB",14-01-2026 08:00:00,28.4417,77.3217,CO,60,66,62
India,Haryana,Fatehabad,"Huda Sector, Fatehabad - HSPCB",14-01-2026 08:00:00,29.503664,75.467934,PM10,86,283,160
India,Haryana,Fatehabad,"Huda Sector, Fatehabad - HSPCB",14-01-2026 08:00:00,29.503664,75.467934,SO2,10,11,10
India,Haryana,Gurugram,"Sector-51, Gurugram - HSPCB",14-01-2026 08:00:00,28.4227,77.0667,PM2.5,5,500,201
India,Haryana,Gurugram,"Sector-51, Gurugram - HSPCB",14-01-2026 08:00:00,28.4227,77.0667,PM10,4,500,156
India,Haryana,Gurugram,"Sector-51, Gurugram - HSPCB",14-01-2026 08:00:00,28.4227,77.0667,NO2,6,15,9
India,Haryana,Panchkula,"Sector-6, Panchkula - HSPCB ",14-01-2026 08:00:00,30.7057778,76.8531805555555,OZONE,NA,NA,NA
India,Haryana,Rohtak,"MD University, Rohtak - HSPCB",14-01-2026 08:00:00,28.52123,76.37138,PM10,NA,NA,NA
India,Haryana,Rohtak,"MD University, Rohtak - HSPCB",14-01-2026 08:00:00,28.52123,76.37138,NO2,NA,NA,NA
India,Haryana,Sirsa,"F-Block, Sirsa - HSPCB",14-01-2026 08:00:00,29.536400,75.015800,PM2.5,70,323,158
India,Haryana,Sonipat,"Murthal, Sonipat - HSPCB",14-01-2026 08:00:00,29.027200,77.062100,PM10,53,113,85
India,Haryana,Jind,"Police Lines, Jind - HSPCB",14-01-2026 08:00:00,29.307814,76.337619,CO,1,132,27
India,Haryana,Kaithal,"Rishi Nagar, Kaithal - HSPCB",14-01-2026 08:00:00,29.8006,76.4155,NH3,5,6,6
India,Haryana,Kurukshetra,"Sector-7, Kurukshetra - HSPCB",14-01-2026 08:00:00,29.966942,76.875879,PM2.5,96,311,204
India,Haryana,Jind,"Police Lines, Jind - HSPCB",14-01-2026 08:00:00,29.307814,76.337619,NO2,35,64,46
India,Karnataka,Madikeri,"Stuart Hill, Madikeri - KSPCB",14-01-2026 08:00:00,12.415911,75.735050,OZONE,2,6,3
India,Karnataka,Mysuru,"Hebbal 1st Stage, Mysuru - KSPCB",14-01-2026 08:00:00,12.21041,76.37376,PM10,38,67,52
India,Karnataka,Mysuru,"Hebbal 1st Stage, Mysuru - KSPCB",14-01-2026 08:00:00,12.21041,76.37376,SO2,1,11,4
India,Karnataka,Mysuru,"Hebbal 1st Stage, Mysuru - KSPCB",14-01-2026 08:00:00,12.21041,76.37376,CO,10,38,24
India,Karnataka,Ramanagara,"Vijay Nagar, Ramanagara - KSPCB",14-01-2026 08:00:00,12.733409,77.298051,CO,NA,NA,NA
India,Karnataka,Shivamogga,"Vinoba Nagara, Shivamogga - KSPCB",14-01-2026 08:00:00,13.940000,75.555917,PM2.5,26,39,35
India,Karnataka,Shivamogga,"Vinoba Nagara, Shivamogga - KSPCB",14-01-2026 08:00:00,13.940000,75.555917,PM10,31,58,52
India,Karnataka,Shivamogga,"Vinoba Nagara, Shivamogga - KSPCB",14-01-2026 08:00:00,13.940000,75.555917,SO2,3,6,4
India,Karnataka,Tumakuru,"Thimmalapura, Tumakuru - KSPCB",14-01-2026 08:00:00,13.377516,77.099072,PM2.5,NA,NA,NA
India,Karnataka,Bengaluru,"City Railway Station, Bengaluru - KSPCB",14-01-2026 08:00:00,12.9756843,77.5660749,NO2,31,36,34
India,Karnataka,Bengaluru,"City Railway Station, Bengaluru - KSPCB",14-01-2026 08:00:00,12.9756843,77.5660749,SO2,21,22,22
India,Karnataka,Bengaluru,"Hebbal, Bengaluru - KSPCB",14-01-2026 08:00:00,13.029152,77.585901,PM2.5,48,162,77
India,Karnataka,Bengaluru,"Hebbal, Bengaluru - KSPCB",14-01-2026 08:00:00,13.029152,77.585901,CO,13,64,21
India,Karnataka,Bengaluru,"Hombegowda Nagar, Bengaluru - KSPCB",14-01-2026 08:00:00,12.938539,77.590100,SO2,8,16,12
India,Karnataka,Bengaluru,"Jayanagar 5th Block, Bengaluru - KSPCB",14-01-2026 08:00:00,12.920984,77.584908,PM10,64,110,83
India,Karnataka,Bengaluru,"Jayanagar 5th Block, Bengaluru - KSPCB",14-01-2026 08:00:00,12.920984,77.584908,NH3,1,2,1
India,Karnataka,Bengaluru,"Jayanagar 5th Block, Bengaluru - KSPCB",14-01-2026 08:00:00,12.920984,77.584908,SO2,1,14,6
India,Karnataka,Bengaluru,"Jayanagar 5th Block, Bengaluru - KSPCB",14-01-2026 08:00:00,12.920984,77.584908,CO,6,58,13
India,Madhya Pradesh,Gwalior,"Maharaj Bada, Gwalior - MPPCB",14-01-2026 08:00:00,26.200388,78.147714,PM2.5,58,432,224
India,Madhya Pradesh,Gwalior,"Maharaj Bada, Gwalior - MPPCB",14-01-2026 08:00:00,26.200388,78.147714,NO2,24,150,71
India,Madhya Pradesh,Gwalior,"Maharaj Bada, Gwalior - MPPCB",14-01-2026 08:00:00,26.200388,78.147714,OZONE,16,60,38
India,Madhya Pradesh,Indore,"Airport Area, Indore - IMC",14-01-2026 08:00:00,22.7289,75.8076,SO2,19,21,19
India,Madhya Pradesh,Indore,"Chhoti Gwaltoli, Indore - MPPCB",14-01-2026 08:00:00,22.4310,75.5213,PM2.5,67,251,121
India,Madhya Pradesh,Indore,"Chhoti Gwaltoli, Indore - MPPCB",14-01-2026 08:00:00,22.4310,75.5213,NH3,10,16,14
India,Madhya Pradesh,Indore,"Regional Park, Indore - IMC",14-01-2026 08:00:00,22.6780,75.8559,NO2,9,16,12
India,Madhya Pradesh,Indore,"Regional Park, Indore - IMC",14-01-2026 08:00:00,22.6780,75.8559,SO2,33,41,36
India,Madhya Pradesh,Bhopal,"T T Nagar, Bhopal - MPPCB",14-01-2026 08:00:00,23.233584,77.400574,SO2,14,33,20
India,Madhya Pradesh,Bhopal,"T T Nagar, Bhopal - MPPCB",14-01-2026 08:00:00,23.233584,77.400574,CO,33,83,45
India,Madhya Pradesh,Damoh,"Shrivastav Colony, Damoh - MPPCB",14-01-2026 08:00:00,23.81748678,79.446246,PM2.5,NA,NA,NA
India,Madhya Pradesh,Damoh,"Shrivastav Colony, Damoh - MPPCB",14-01-2026 08:00:00,23.81748678,79.446246,PM10,NA,NA,NA
India,Madhya Pradesh,Damoh,"Shrivastav Colony, Damoh - MPPCB",14-01-2026 08:00:00,23.81748678,79.446246,CO,17,37,19
India,Madhya Pradesh,Gwalior,"City Center, Gwalior - MPPCB",14-01-2026 08:00:00,26.203442,78.193251,OZONE,20,67,37
India,Madhya Pradesh,Gwalior,"Deen Dayal Nagar, Gwalior - MPPCB",14-01-2026 08:00:00,26.259242,78.216432,PM2.5,52,396,216
India,Madhya Pradesh,Gwalior,"Deen Dayal Nagar, Gwalior - MPPCB",14-01-2026 08:00:00,26.259242,78.216432,NH3,6,14,9
India,Karnataka,Bengaluru,"Shivapura_Peenya, Bengaluru - KSPCB",14-01-2026 08:00:00,13.0246342,77.5080115,SO2,9,11,10
India,Karnataka,Bengaluru,"Silk Board, Bengaluru - KSPCB",14-01-2026 08:00:00,12.917348,77.622813,PM2.5,NA,NA,NA
India,Karnataka,Chamarajanagar,"Urban, Chamarajanagar - KSPCB",14-01-2026 08:00:00,11.55358,76.55521,PM2.5,NA,NA,NA
India,Karnataka,Chamarajanagar,"Urban, Chamarajanagar - KSPCB",14-01-2026 08:00:00,11.55358,76.55521,NO2,NA,NA,NA
India,Karnataka,Chamarajanagar,"Urban, Chamarajanagar - KSPCB",14-01-2026 08:00:00,11.55358,76.55521,NH3,NA,NA,NA
India,Karnataka,Chamarajanagar,"Urban, Chamarajanagar - KSPCB",14-01-2026 08:00:00,11.55358,76.55521,OZONE,NA,NA,NA
India,Karnataka,Chikkamagaluru,"Kalyana Nagara, Chikkamagaluru - KSPCB",14-01-2026 08:00:00,13.328028,75.797056,PM2.5,12,39,24
India,Karnataka,Chikkamagaluru,"Kalyana Nagara, Chikkamagaluru - KSPCB",14-01-2026 08:00:00,13.328028,75.797056,NH3,3,3,3
India,Karnataka,Bengaluru,"Kasturi Nagar, Bengaluru - KSPCB",14-01-2026 08:00:00,13.003872,77.664217,PM2.5,NA,NA,NA
India,Karnataka,Bengaluru,"Kasturi Nagar, Bengaluru - KSPCB",14-01-2026 08:00:00,13.003872,77.664217,PM10,NA,NA,NA
India,Karnataka,Bengaluru,"Kasturi Nagar, Bengaluru - KSPCB",14-01-2026 08:00:00,13.003872,77.664217,CO,NA,NA,NA
India,Karnataka,Bengaluru,"Peenya, Bengaluru - CPCB",14-01-2026 08:00:00,13.0270199,77.494094,NH3,3,4,4
India,Karnataka,Bengaluru,"Peenya, Bengaluru - CPCB",14-01-2026 08:00:00,13.0270199,77.494094,OZONE,21,21,21
India,Karnataka,Bengaluru,"Sanegurava Halli, Bengaluru - KSPCB",14-01-2026 08:00:00,12.990328,77.5431385,SO2,6,6,6
India,Karnataka,Davanagere,"Devaraj Urs Badavane, Davanagere - KSPCB",14-01-2026 08:00:00,14.475800,75.905200,PM2.5,25,96,57
India,Karnataka,Davanagere,"Devaraj Urs Badavane, Davanagere - KSPCB",14-01-2026 08:00:00,14.475800,75.905200,NH3,1,4,2
India,Karnataka,Kalaburagi,"Mahatma Basaveswar Colony, Kalaburgi - KSPCB",14-01-2026 08:00:00,17.336318,76.847397,OZONE,9,22,14
India,Karnataka,Koppal,"Diwator Nagar, Koppal - KSPCB",14-01-2026 08:00:00,15.347630,76.181767,PM10,32,62,46
India,Karnataka,Vijayapura,"Ibrahimpur, Vijayapura - KSPCB",14-01-2026 08:00:00,16.802639,75.722694,PM10,42,62,56
India,Karnataka,Vijayapura,"Ibrahimpur, Vijayapura - KSPCB",14-01-2026 08:00:00,16.802639,75.722694,NH3,1,2,1
India,Kerala,Eloor,"Udyogamandal, Eloor - Kerala PCB",14-01-2026 08:00:00,10.073232,76.302765,OZONE,NA,NA,NA
India,Kerala,Kannur,"Thavakkara, Kannur - Kerala PCB",14-01-2026 08:00:00,11.875000,75.373200,SO2,NA,NA,NA
India,Kerala,Thiruvananthapuram,"Plammoodu, Thiruvananthapuram - Kerala PCB",14-01-2026 08:00:00,8.5149093,76.9435879,SO2,8,22,17
India,Madhya Pradesh,Bhopal,"Idgah Hills, Bhopal - MPPCB",14-01-2026 08:00:00,23.264759,77.381568,CO,26,71,36
India,Maharashtra,Aurangabad,"Rachnakar Colony, Aurangabad - MPCB",14-01-2026 08:00:00,19.863756,75.321188,NH3,NA,NA,NA
India,Maharashtra,Aurangabad,"Rachnakar Colony, Aurangabad - MPCB",14-01-2026 08:00:00,19.863756,75.321188,SO2,NA,NA,NA
India,Maharashtra,Aurangabad,"Rachnakar Colony, Aurangabad - MPCB",14-01-2026 08:00:00,19.863756,75.321188,OZONE,NA,NA,NA
India,Maharashtra,Badlapur,"Katrap, Badlapur - MPCB",14-01-2026 08:00:00,19.16485,73.23409,OZONE,11,90,14
India,Maharashtra,Belapur,"CBD Belapur, Belapur - MPCB",14-01-2026 08:00:00,19.0243902,73.0406721,NO2,17,46,31
India,Maharashtra,Bhiwandi,"Gokul Nagar, Bhiwandi - MPCB",14-01-2026 08:00:00,19.309073,73.057223,NO2,13,42,28
India,Maharashtra,Bhiwandi,"Gokul Nagar, Bhiwandi - MPCB",14-01-2026 08:00:00,19.309073,73.057223,NH3,4,8,5
India,Maharashtra,Bhiwandi,"Gokul Nagar, Bhiwandi - MPCB",14-01-2026 08:00:00,19.309073,73.057223,CO,23,59,51
India,Maharashtra,Boisar,"Khaira, Boisar - MPCB",14-01-2026 08:00:00,19.786089,72.757971,NH3,4,11,8
India,Maharashtra,Boisar,"Khaira, Boisar - MPCB",14-01-2026 08:00:00,19.786089,72.757971,SO2,6,27,10
India,Maharashtra,Boisar,"Khaira, Boisar - MPCB",14-01-2026 08:00:00,19.786089,72.757971,CO,20,88,46
India,Madhya Pradesh,Satna,"Bandhavgar Colony, Satna - Birla Cement",14-01-2026 08:00:00,24.58434363,80.8549414,PM10,69,71,70
India,Madhya Pradesh,Satna,"Bandhavgar Colony, Satna - Birla Cement",14-01-2026 08:00:00,24.58434363,80.8549414,NO2,12,13,12
India,Madhya Pradesh,Singrauli,"Suryakiran Bhawan NCL, Singrauli - MPPCB",14-01-2026 08:00:00,24.108970,82.645580,NH3,1,1,1
India,Madhya Pradesh,Ujjain,"Mahashweta Nagar, Ujjain - MPPCB",14-01-2026 08:00:00,23.1633321,75.800225,NH3,9,21,14
India,Madhya Pradesh,Ujjain,"Mahashweta Nagar, Ujjain - MPPCB",14-01-2026 08:00:00,23.1633321,75.800225,CO,31,103,43
India,Maharashtra,Ahmednagar,"Tarakpur, Ahmednagar - MPCB",14-01-2026 08:00:00,19.10122,74.73339,OZONE,2,98,15
India,Maharashtra,Akola,"Ramdaspeth, Akola - MPCB",14-01-2026 08:00:00,20.719516,77.000253,PM10,76,141,100
India,Maharashtra,Chandrapur,"Chauhan Colony, Chandrapur - MPCB",14-01-2026 08:00:00,19.962900,79.298714,OZONE,25,25,25
India,Maharashtra,Chandrapur,"MIDC Khutala, Chandrapur - MPCB",14-01-2026 08:00:00,19.9775302,79.2337086,NO2,12,37,21
India,Maharashtra,Dhule,"Deopur, Dhule - MPCB",14-01-2026 08:00:00,20.918946,74.776388,PM2.5,77,179,120
India,Maharashtra,Dhule,"Deopur, Dhule - MPCB",14-01-2026 08:00:00,20.918946,74.776388,PM10,99,156,125
India,Maharashtra,Jalgaon,"Prabhat Colony, Jalgaon - MPCB",14-01-2026 08:00:00,21.001264,75.565602,CO,22,56,26
India,Maharashtra,Jalna,"Old MIDC, Jalna - MPCB",14-01-2026 08:00:00,19.854616,75.905894,PM2.5,68,148,97
India,Maharashtra,Jalna,"Old MIDC, Jalna - MPCB",14-01-2026 08:00:00,19.854616,75.905894,NO2,9,26,13
India,Madhya Pradesh,Pithampur,"Sector-2 Industrial Area, Pithampur - MPPCB",14-01-2026 08:00:00,22.624758,75.675238,PM2.5,100,338,239
India,Madhya Pradesh,Pithampur,"Sector-2 Industrial Area, Pithampur - MPPCB",14-01-2026 08:00:00,22.624758,75.675238,NH3,2,4,2
India,Madhya Pradesh,Ratlam,"Shasthri Nagar, Ratlam - IPCA Lab",14-01-2026 08:00:00,23.331731,75.045981,SO2,31,35,32
India,Madhya Pradesh,Sagar,"Civil Lines, Sagar - MPPCB",14-01-2026 08:00:00,23.838586,78.759431,NO2,12,78,32
India,Madhya Pradesh,Sagar,"Deen Dayal Nagar, Sagar - MPPCB",14-01-2026 08:00:00,23.8640158,78.80289321,PM10,61,159,104
India,Maharashtra,Mahad,"Kamble Tarf Birwadi, Mahad - MPCB",14-01-2026 08:00:00,18.1023399,73.4783687,NO2,16,46,22
India,Maharashtra,Mahad,"Kamble Tarf Birwadi, Mahad - MPCB",14-01-2026 08:00:00,18.1023399,73.4783687,OZONE,15,84,17
India,Maharashtra,Malegaon,"Mahesh Nagar, Malegaon - MPCB",14-01-2026 08:00:00,20.555712,74.529236,NH3,2,3,2
India,Maharashtra,Mira-Bhayandar,"Bhayandar West, Mira-Bhayandar - MPCB",14-01-2026 08:00:00,19.296481,72.840923,OZONE,NA,NA,NA
India,Maharashtra,Mumbai,"Bandra Kurla Complex, Mumbai - IITM",14-01-2026 08:00:00,19.053536,72.84643,SO2,10,34,16
India,Maharashtra,Amravati,"Shivneri Colony, Amravati - MPCB",14-01-2026 08:00:00,20.9402359,77.7895248,CO,18,42,27
India,Maharashtra,Amravati,"Shri Shivaji Science College, Amravati - MPCB",14-01-2026 08:00:00,20.939198,77.765701,PM2.5,68,187,103
India,Maharashtra,Amravati,"Shri Shivaji Science College, Amravati - MPCB",14-01-2026 08:00:00,20.939198,77.765701,NH3,1,10,3
India,Maharashtra,Amravati,"Shri Shivaji Science College, Amravati - MPCB",14-01-2026 08:00:00,20.939198,77.765701,SO2,46,74,58
India,Maharashtra,Aurangabad,"More Chowk Waluj, Aurangabad - MPCB",14-01-2026 08:00:00,19.8389439,75.244448,SO2,14,26,18
India,Maharashtra,Mumbai,"Bandra Kurla Complex, Mumbai - MPCB",14-01-2026 08:00:00,19.065931,72.862131,PM10,67,284,145
India,Maharashtra,Mumbai,"Borivali East, Mumbai - IITM",14-01-2026 08:00:00,19.23241,72.86895,PM2.5,45,118,79
India,Maharashtra,Mumbai,"Borivali East, Mumbai - MPCB",14-01-2026 08:00:00,19.2243333,72.8658113,CO,14,18,17
India,Maharashtra,Mumbai,"Byculla, Mumbai - BMC",14-01-2026 08:00:00,18.9767,72.8380,PM2.5,70,157,103
India,Maharashtra,Mumbai,"Byculla, Mumbai - BMC",14-01-2026 08:00:00,18.9767,72.8380,NO2,58,138,94
India,Maharashtra,Kalyan,"Khadakpada, Kalyan - MPCB",14-01-2026 08:00:00,19.25292,73.142019,NH3,1,1,1
India,Maharashtra,Kalyan,"Khadakpada, Kalyan - MPCB",14-01-2026 08:00:00,19.25292,73.142019,CO,83,107,103
India,Maharashtra,Kolhapur,"Shivaji University, Kolhapur - MPCB",14-01-2026 08:00:00,16.6870449,74.2505872,CO,16,52,22
India,Maharashtra,Kolhapur,"Sinchan Bhavan, Kolhapur - MPCB",14-01-2026 08:00:00,16.7143745,74.2426398,NH3,1,7,4
India,Maharashtra,Kolhapur,"Sinchan Bhavan, Kolhapur - MPCB",14-01-2026 08:00:00,16.7143745,74.2426398,SO2,2,6,3
India,Madhya Pradesh,Jabalpur,"Govindh Bhavan Colony, Jabalpur - JMC",14-01-2026 08:00:00,23.163174,79.973061,PM2.5,70,184,96
India,Madhya Pradesh,Jabalpur,"Govindh Bhavan Colony, Jabalpur - JMC",14-01-2026 08:00:00,23.163174,79.973061,PM10,66,137,93
India,Madhya Pradesh,Jabalpur,"Govindh Bhavan Colony, Jabalpur - JMC",14-01-2026 08:00:00,23.163174,79.973061,SO2,3,20,11
India,Madhya Pradesh,Jabalpur,"Gupteshwar, Jabalpur - JMC",14-01-2026 08:00:00,23.142888,79.916147,PM2.5,123,460,296
India,Madhya Pradesh,Jabalpur,"Gupteshwar, Jabalpur - JMC",14-01-2026 08:00:00,23.142888,79.916147,NO2,17,125,54
India,Maharashtra,Mumbai,"Chakala-Andheri East, Mumbai - IITM",14-01-2026 08:00:00,19.11074,72.86084,NO2,NA,NA,NA
India,Maharashtra,Mumbai,"Chakala-Andheri East, Mumbai - IITM",14-01-2026 08:00:00,19.11074,72.86084,NH3,NA,NA,NA
India,Maharashtra,Mumbai,"Chakala-Andheri East, Mumbai - IITM",14-01-2026 08:00:00,19.11074,72.86084,SO2,NA,NA,NA
India,Maharashtra,Mumbai,"Chakala-Andheri East, Mumbai - IITM",14-01-2026 08:00:00,19.11074,72.86084,CO,34,93,58
India,Maharashtra,Mumbai,"Chembur, Mumbai - MPCB",14-01-2026 08:00:00,19.0364585,72.8954371,PM10,75,120,100
India,Maharashtra,Mumbai,"Chembur, Mumbai - MPCB",14-01-2026 08:00:00,19.0364585,72.8954371,NH3,14,21,17
India,Maharashtra,Mumbai,"Chhatrapati Shivaji Intl. Airport (T2), Mumbai - MPCB",14-01-2026 08:00:00,19.10078,72.87462,PM2.5,71,197,117
India,Maharashtra,Mumbai,"Chhatrapati Shivaji Intl. Airport (T2), Mumbai - MPCB",14-01-2026 08:00:00,19.10078,72.87462,PM10,90,158,122
India,Maharashtra,Mumbai,"Chhatrapati Shivaji Intl. Airport (T2), Mumbai - MPCB",14-01-2026 08:00:00,19.10078,72.87462,OZONE,7,8,7
India,Maharashtra,Mumbai,"Colaba, Mumbai - MPCB",14-01-2026 08:00:00,18.910000,72.820000,SO2,NA,NA,NA
India,Maharashtra,Mumbai,"Ghatkopar, Mumbai - BMC",14-01-2026 08:00:00,19.083694,72.920967,PM2.5,61,123,84
India,Maharashtra,Navi Mumbai,"Nerul, Navi Mumbai - MPCB",14-01-2026 08:00:00,19.008751,73.016620,NO2,38,38,38
India,Maharashtra,Navi Mumbai,"Nerul, Navi Mumbai - MPCB",14-01-2026 08:00:00,19.008751,73.016620,NH3,4,5,5
India,Maharashtra,Navi Mumbai,"Nerul, Navi Mumbai - MPCB",14-01-2026 08:00:00,19.008751,73.016620,SO2,NA,NA,NA
India,Maharashtra,Navi Mumbai,"Sanpada, Navi Mumbai - MPCB",14-01-2026 08:00:00,19.0575752,73.0151367,PM10,55,214,105
India,Maharashtra,Navi Mumbai,"Sanpada, Navi Mumbai - MPCB",14-01-2026 08:00:00,19.0575752,73.0151367,CO,6,127,87
India,Maharashtra,Navi Mumbai,"Sector-2E Kalamboli, Navi Mumbai - MPCB",14-01-2026 08:00:00,19.02579,73.10297,PM2.5,35,99,67
India,Maharashtra,Navi Mumbai,"Tondare-Taloja, Navi Mumbai - MPCB",14-01-2026 08:00:00,19.0630,73.1209,PM2.5,53,210,115
India,Maharashtra,Navi Mumbai,"Tondare-Taloja, Navi Mumbai - MPCB",14-01-2026 08:00:00,19.0630,73.1209,SO2,4,4,4
India,Maharashtra,Navi Mumbai,"Tondare-Taloja, Navi Mumbai - MPCB",14-01-2026 08:00:00,19.0630,73.1209,CO,58,117,103
India,Maharashtra,Pimpri-Chinchwad,"Gavalinagar, Pimpri Chinchwad - MPCB",14-01-2026 08:00:00,18.63673,73.82487,SO2,1,4,2
India,Maharashtra,Pimpri-Chinchwad,"Gavalinagar, Pimpri Chinchwad - MPCB",14-01-2026 08:00:00,18.63673,73.82487,CO,22,92,69
India,Maharashtra,Pimpri-Chinchwad,"Park Street Wakad, Pimpri Chinchwad - MPCB",14-01-2026 08:00:00,18.59051,73.77946,NH3,NA,NA,NA
India,Maharashtra,Pimpri-Chinchwad,"Park Street Wakad, Pimpri Chinchwad - MPCB",14-01-2026 08:00:00,18.59051,73.77946,OZONE,1,111,4
India,Maharashtra,Pimpri-Chinchwad,"Savta Mali Nagar, Pimpri-Chinchwad - IITM",14-01-2026 08:00:00,18.614767,73.799516,PM10,91,181,135
India,Maharashtra,Pimpri-Chinchwad,"Thergaon, Pimpri Chinchwad - MPCB",14-01-2026 08:00:00,18.616318,73.765797,SO2,1,5,2
India,Maharashtra,Pune,"Bhumkar Nagar, Pune - IITM",14-01-2026 08:00:00,18.605770,73.749976,NO2,43,119,70
India,Maharashtra,Nagpur,"Mahal, Nagpur - MPCB",14-01-2026 08:00:00,21.14472,79.107595,OZONE,NA,NA,NA
India,Maharashtra,Nagpur,"Opp GPO Civil Lines, Nagpur - MPCB",14-01-2026 08:00:00,21.152875,79.0517531,PM10,107,199,145
India,Maharashtra,Nagpur,"Opp GPO Civil Lines, Nagpur - MPCB",14-01-2026 08:00:00,21.152875,79.0517531,SO2,1,64,19
India,Maharashtra,Nagpur,"Ram Nagar, Nagpur - MPCB",14-01-2026 08:00:00,21.143383,79.048912,NH3,4,4,4
India,Maharashtra,Nanded,"Sneh Nagar, Nanded - MPCB",14-01-2026 08:00:00,19.173852,77.296291,PM10,101,145,117
India,Maharashtra,Nanded,"Sneh Nagar, Nanded - MPCB",14-01-2026 08:00:00,19.173852,77.296291,OZONE,33,90,41
India,Maharashtra,Nashik,"Gangapur Road, Nashik - MPCB",14-01-2026 08:00:00,20.0073285,73.7762427,NO2,5,5,5
India,Maharashtra,Mumbai,"Siddharth Nagar-Worli, Mumbai - IITM",14-01-2026 08:00:00,19.000083,72.813993,NH3,4,5,4
India,Maharashtra,Mumbai,"Sion, Mumbai - MPCB",14-01-2026 08:00:00,19.047000,72.874600,PM2.5,55,151,90
India,Maharashtra,Mumbai,"Sion, Mumbai - MPCB",14-01-2026 08:00:00,19.047000,72.874600,PM10,56,224,132
India,Maharashtra,Mumbai,"Sion, Mumbai - MPCB",14-01-2026 08:00:00,19.047000,72.874600,CO,8,15,12
India,Maharashtra,Mumbai,"Vile Parle West, Mumbai - MPCB",14-01-2026 08:00:00,19.10861,72.83622,PM10,80,132,110
India,Maharashtra,Nagpur,"Ambazari, Nagpur - MPCB",14-01-2026 08:00:00,21.121801,79.04952,CO,11,106,58
India,Maharashtra,Nagpur,"Mahal, Nagpur - MPCB",14-01-2026 08:00:00,21.14472,79.107595,PM2.5,NA,NA,NA
India,Maharashtra,Mumbai,"Malad West, Mumbai - IITM",14-01-2026 08:00:00,19.19709,72.82204,PM2.5,70,176,110
India,Maharashtra,Mumbai,"Malad West, Mumbai - IITM",14-01-2026 08:00:00,19.19709,72.82204,PM10,120,184,148
India,Maharashtra,Mumbai,"Malad West, Mumbai - IITM",14-01-2026 08:00:00,19.19709,72.82204,NO2,51,115,84
India,Maharashtra,Mumbai,"Malad West, Mumbai - IITM",14-01-2026 08:00:00,19.19709,72.82204,SO2,1,19,10
India,Maharashtra,Mumbai,"Mazgaon, Mumbai - IITM",14-01-2026 08:00:00,18.96702,72.84214,OZONE,3,86,5
India,Maharashtra,Mumbai,"Mindspace-Malad West, Mumbai - MPCB",14-01-2026 08:00:00,19.1878657,72.8304069,NO2,21,116,66
India,Maharashtra,Mumbai,"Mindspace-Malad West, Mumbai - MPCB",14-01-2026 08:00:00,19.1878657,72.8304069,CO,24,102,70
India,Maharashtra,Mumbai,"Mulund West, Mumbai - MPCB",14-01-2026 08:00:00,19.1750,72.9419,NO2,15,23,19
India,Maharashtra,Mumbai,"Navy Nagar-Colaba, Mumbai - IITM",14-01-2026 08:00:00,18.897756,72.813320,PM2.5,64,161,96
India,Maharashtra,Mumbai,"Powai, Mumbai - MPCB",14-01-2026 08:00:00,19.137500,72.915056,SO2,29,30,29
India,Maharashtra,Mumbai,"Sewri, Mumbai - BMC",14-01-2026 08:00:00,19.000084,72.856730,CO,22,46,36
India,Maharashtra,Mumbai,"Shivaji Nagar, Mumbai - BMC",14-01-2026 08:00:00,19.060498,72.923356,NO2,56,112,80
India,Maharashtra,Mumbai,"Shivaji Nagar, Mumbai - BMC",14-01-2026 08:00:00,19.060498,72.923356,CO,1,105,14
India,Maharashtra,Mumbai,"Ghatkopar, Mumbai - BMC",14-01-2026 08:00:00,19.083694,72.920967,SO2,1,7,4
India,Maharashtra,Mumbai,"Ghatkopar, Mumbai - BMC",14-01-2026 08:00:00,19.083694,72.920967,OZONE,2,60,2
India,Maharashtra,Mumbai,"Kandivali East, Mumbai - MPCB",14-01-2026 08:00:00,19.205800,72.868200,SO2,23,26,25
India,Maharashtra,Mumbai,"Kandivali East, Mumbai - MPCB",14-01-2026 08:00:00,19.205800,72.868200,CO,22,23,22
India,Maharashtra,Mumbai,"Kandivali West, Mumbai - BMC",14-01-2026 08:00:00,19.215859,72.831718,PM2.5,68,113,95
India,Maharashtra,Mumbai,"Kandivali West, Mumbai - BMC",14-01-2026 08:00:00,19.215859,72.831718,SO2,1,11,5
India,Maharashtra,Nashik,"Hirawadi, Nashik - MPCB",14-01-2026 08:00:00,20.021503,73.813844,OZONE,5,101,13
India,Maharashtra,Nashik,"MIDC Ambad, Nashik - MPCB",14-01-2026 08:00:00,19.950220,73.731480,CO,NA,NA,NA
India,Maharashtra,Nashik,"MIDC Ambad, Nashik - MPCB",14-01-2026 08:00:00,19.950220,73.731480,OZONE,NA,NA,NA
India,Maharashtra,Navi Mumbai,"Mahape, Navi Mumbai - MPCB",14-01-2026 08:00:00,19.1135051,73.008978,NH3,3,3,3
India,Odisha,Rourkela,"Fertilizer Township, Rourkela - OSPCB",14-01-2026 08:00:00,22.18972222,84.86277778,SO2,8,10,9
India,Odisha,Rourkela,"Raghunathpali, Rourkela - OSPCB",14-01-2026 08:00:00,22.220833,84.809444,NO2,1,30,18
India,Odisha,Rourkela,"Raghunathpali, Rourkela - OSPCB",14-01-2026 08:00:00,22.220833,84.809444,SO2,4,6,5
India,Odisha,Suakati,"OMC Colony, Suakati - OSPCB",14-01-2026 08:00:00,21.606865,85.510538,PM2.5,77,300,175
India,Odisha,Talcher,"Talcher Coalfields,Talcher - OSPCB",14-01-2026 08:00:00,20.9360711,85.1707021,PM2.5,3,364,215
India,Odisha,Talcher,"Talcher Coalfields,Talcher - OSPCB",14-01-2026 08:00:00,20.9360711,85.1707021,PM10,74,359,187
India,Odisha,Talcher,"Talcher Coalfields,Talcher - OSPCB",14-01-2026 08:00:00,20.9360711,85.1707021,NO2,38,80,62
India,Odisha,Tensa,"Barsua Iron Ore Mines, Tensa - OSPCB",14-01-2026 08:00:00,21.869985,85.167016,OZONE,NA,NA,NA
India,Puducherry,Puducherry,"Jawahar Nagar, Puducherry - PPCC",14-01-2026 08:00:00,11.9309,79.8027,PM2.5,43,368,106
India,Puducherry,Puducherry,"Jawahar Nagar, Puducherry - PPCC",14-01-2026 08:00:00,11.9309,79.8027,NO2,15,61,32
India,Puducherry,Puducherry,"Jawahar Nagar, Puducherry - PPCC",14-01-2026 08:00:00,11.9309,79.8027,NH3,2,6,4
India,Odisha,Keonjhar,"Jagamohanpur, Keonjhar - OSPCB",14-01-2026 08:00:00,21.643900,85.599355,OZONE,16,20,18
India,Odisha,Nayagarh,"Dabuna, Nayagarh - OSPCB",14-01-2026 08:00:00,21.847279,85.416905,PM10,49,136,98
India,Odisha,Nayagarh,"Dabuna, Nayagarh - OSPCB",14-01-2026 08:00:00,21.847279,85.416905,NO2,10,11,10
India,Odisha,Rairangpur,"Divisional Forest Office, Rairangpur - OSPCB",14-01-2026 08:00:00,22.265816,86.174829,PM10,51,140,96
India,Odisha,Rairangpur,"Divisional Forest Office, Rairangpur - OSPCB",14-01-2026 08:00:00,22.265816,86.174829,NH3,1,1,1
India,Odisha,Rairangpur,"Divisional Forest Office, Rairangpur - OSPCB",14-01-2026 08:00:00,22.265816,86.174829,OZONE,6,53,9
India,Odisha,Rourkela,"Fertilizer Township, Rourkela - OSPCB",14-01-2026 08:00:00,22.18972222,84.86277778,PM2.5,99,140,112
India,Maharashtra,Thane,"Upvan Fort, Thane - MPCB",14-01-2026 08:00:00,19.222279,72.957979,PM10,71,126,93
India,Maharashtra,Ulhasnagar,"Sidhi Vinayak Nagar, Ulhasnagar - MPCB",14-01-2026 08:00:00,19.235581,73.159121,SO2,4,24,9
India,Maharashtra,Virar,"Bolinj, Virar - MPCB",14-01-2026 08:00:00,19.4458210,72.7988231,NH3,3,4,4
India,Maharashtra,Virar,"Bolinj, Virar - MPCB",14-01-2026 08:00:00,19.4458210,72.7988231,SO2,7,28,14
India,Meghalaya,Shillong,"Lumpyngngad, Shillong - Meghalaya PCB",14-01-2026 08:00:00,25.5586,91.8985,OZONE,3,11,9
India,Maharashtra,Pune,"Hadapsar, Pune - IITM",14-01-2026 08:00:00,18.501793,73.927532,NO2,20,75,48
India,Maharashtra,Pune,"Hadapsar, Pune - IITM",14-01-2026 08:00:00,18.501793,73.927532,CO,31,133,106
India,Maharashtra,Pune,"Katraj Dairy, Pune - MPCB",14-01-2026 08:00:00,18.454450,73.854155,NH3,3,8,5
India,Maharashtra,Pune,"Katraj Dairy, Pune - MPCB",14-01-2026 08:00:00,18.454450,73.854155,CO,50,108,81
India,Maharashtra,Pune,"Katraj Dairy, Pune - MPCB",14-01-2026 08:00:00,18.454450,73.854155,OZONE,NA,NA,NA
India,Maharashtra,Pune,"Panchawati_Pashan, Pune - IITM",14-01-2026 08:00:00,18.536457,73.805454,CO,18,56,38
India,Maharashtra,Pune,"Panchawati_Pashan, Pune - IITM",14-01-2026 08:00:00,18.536457,73.805454,OZONE,2,41,1
India,Odisha,Bhubaneswar,"Patia, Bhubaneswar - OSPCB",14-01-2026 08:00:00,20.34652,85.81630,SO2,3,100,27
India,Odisha,Bileipada,"Tata Township, Bileipada - OSPCB",14-01-2026 08:00:00,22.06156703,85.47409613,NO2,NA,NA,NA
India,Odisha,Bileipada,"Tata Township, Bileipada - OSPCB",14-01-2026 08:00:00,22.06156703,85.47409613,NH3,NA,NA,NA
India,Odisha,Bileipada,"Tata Township, Bileipada - OSPCB",14-01-2026 08:00:00,22.06156703,85.47409613,CO,NA,NA,NA
India,Odisha,Brajrajnagar,"GM Office, Brajrajnagar - OSPCB",14-01-2026 08:00:00,21.8004996,83.8396977,PM2.5,6,335,121
India,Mizoram,Aizawl,"Sikulpuikawn, Aizawl - Mizoram PCB",14-01-2026 08:00:00,23.7176342,92.7192841,CO,3,4,3
India,Nagaland,Kohima,"PWD Junction, Kohima - NPCB",14-01-2026 08:00:00,25.6635413,94.0989878,NO2,3,5,3
India,Nagaland,Kohima,"PWD Junction, Kohima - NPCB",14-01-2026 08:00:00,25.6635413,94.0989878,OZONE,1,11,2
India,Odisha,Angul,"Hakimapada, Angul - OSPCB",14-01-2026 08:00:00,20.832874,85.104082,OZONE,23,183,38
India,Punjab,Bathinda,"Hardev Nagar, Bathinda - PPCB",14-01-2026 08:00:00,30.233011,74.907758,NO2,15,23,17
India,Punjab,Jalandhar,"Civil Line, Jalandhar - PPCB",14-01-2026 08:00:00,31.321907,75.578914,PM2.5,44,264,128
India,Punjab,Ludhiana,"Punjab Agricultural University, Ludhiana - PPCB",14-01-2026 08:00:00,30.9028,75.8086,PM10,102,143,125
India,Maharashtra,Solapur,"Ratandeep Housing Society, Solapur - MPCB",14-01-2026 08:00:00,17.65439,75.90649,CO,22,142,28
India,Maharashtra,Thane,"Kasarvadavali, Thane - MPCB",14-01-2026 08:00:00,19.26777,72.97182,PM10,78,152,105
India,Maharashtra,Pune,"Savitribai Phule Pune University, Pune - MPCB",14-01-2026 08:00:00,18.547056,73.826908,SO2,2,9,4
India,Rajasthan,Bhilwara,"Pratap Nagar, Bhilwara - RSPCB",14-01-2026 08:00:00,25.339605,74.618883,PM10,83,175,131
India,Rajasthan,Bhilwara,"Pratap Nagar, Bhilwara - RSPCB",14-01-2026 08:00:00,25.339605,74.618883,SO2,2,25,10
India,Rajasthan,Bhiwadi,"RIICO Ind. Area III, Bhiwadi - RSPCB",14-01-2026 08:00:00,28.194909,76.862296,NH3,9,20,14
India,Rajasthan,Bhiwadi,"Vasundhara Nagar_UIT, Bhiwadi - RSPCB",14-01-2026 08:00:00,28.207266,76.829265,PM2.5,238,420,320
India,Rajasthan,Bikaner,"MM Ground, Bikaner - RSPCB",14-01-2026 08:00:00,28.018792,73.292658,CO,30,166,43
India,Rajasthan,Bundi,"New Colony, Bundi - RSPCB",14-01-2026 08:00:00,25.435774,75.644272,PM2.5,103,319,224
India,Rajasthan,Bundi,"New Colony, Bundi - RSPCB",14-01-2026 08:00:00,25.435774,75.644272,SO2,3,28,9
India,Rajasthan,Bundi,"New Colony, Bundi - RSPCB",14-01-2026 08:00:00,25.435774,75.644272,OZONE,6,138,40
India,Rajasthan,Chittorgarh,"Shastri Nagar, Chittorgarh - RSPCB",14-01-2026 08:00:00,24.892047,74.623527,NH3,4,7,5
India,Rajasthan,Chittorgarh,"Shastri Nagar, Chittorgarh - RSPCB",14-01-2026 08:00:00,24.892047,74.623527,OZONE,1,57,2
India,Rajasthan,Churu,"Subash Chowk, Churu - RSPCB",14-01-2026 08:00:00,28.296139,74.961696,PM10,146,355,200
India,Rajasthan,Churu,"Subash Chowk, Churu - RSPCB",14-01-2026 08:00:00,28.296139,74.961696,NH3,13,22,16
India,Rajasthan,Churu,"Subash Chowk, Churu - RSPCB",14-01-2026 08:00:00,28.296139,74.961696,CO,34,92,44
India,Rajasthan,Dausa,"Khatikan Mohalla, Dausa - RSPCB",14-01-2026 08:00:00,26.895552,76.334753,CO,44,121,72
India,Rajasthan,Jodhpur,"Mandor, Jodhpur - RSPCB",14-01-2026 08:00:00,26.358805,73.047444,NH3,3,7,4
India,Rajasthan,Jodhpur,"Samrat Ashok Udhyan, Jodhpur - RSPCB",14-01-2026 08:00:00,26.253384,72.976571,PM10,54,360,126
India,Rajasthan,Jodhpur,"Samrat Ashok Udhyan, Jodhpur - RSPCB",14-01-2026 08:00:00,26.253384,72.976571,CO,24,98,29
India,Rajasthan,Karauli,"Satyawati Vihar, Karauli - RSPCB",14-01-2026 08:00:00,26.506177,77.025989,CO,8,106,19
India,Rajasthan,Kota,"Dhanmandi, Kota - RSPCB",14-01-2026 08:00:00,25.164090,75.858137,PM2.5,203,464,309
India,Rajasthan,Kota,"Dhanmandi, Kota - RSPCB",14-01-2026 08:00:00,25.164090,75.858137,NO2,33,121,64
India,Rajasthan,Kota,"Dhanmandi, Kota - RSPCB",14-01-2026 08:00:00,25.164090,75.858137,NH3,1,5,3
India,Rajasthan,Banswara,"Rati Talai, Banswara - RSPCB",14-01-2026 08:00:00,23.555190,74.440010,CO,14,102,19
India,Rajasthan,Baran,"Bamboliya, Baran - RSPCB",14-01-2026 08:00:00,25.106006,76.469948,SO2,8,14,11
India,Rajasthan,Barmer,"Railway Colony, Barmer - RSPCB",14-01-2026 08:00:00,25.747299,71.393989,NH3,4,21,7
India,Rajasthan,Barmer,"Railway Colony, Barmer - RSPCB",14-01-2026 08:00:00,25.747299,71.393989,SO2,8,61,20
India,Rajasthan,Bharatpur,"Krishna Nagar, Bharatpur - RSPCB",14-01-2026 08:00:00,27.215415,77.50873,NO2,14,110,51
India,Rajasthan,Hanumangarh,"Housing Board, Hanumangarh - RSPCB",14-01-2026 08:00:00,29.610750,74.283608,NO2,20,123,54
India,Rajasthan,Hanumangarh,"Housing Board, Hanumangarh - RSPCB",14-01-2026 08:00:00,29.610750,74.283608,OZONE,1,80,1
India,Rajasthan,Jaipur,"Adarsh Nagar, Jaipur - RSPCB",14-01-2026 08:00:00,26.902909,75.836858,PM2.5,100,352,219
India,Rajasthan,Jaipur,"Mansarovar Sector-12, Jaipur - RSPCB",14-01-2026 08:00:00,26.843698,75.766894,PM10,129,438,224
India,Rajasthan,Jaipur,"Mansarovar Sector-12, Jaipur - RSPCB",14-01-2026 08:00:00,26.843698,75.766894,SO2,4,15,10
India,Rajasthan,Jodhpur,"Collectorate, Jodhpur - RSPCB",14-01-2026 08:00:00,26.268249,73.0193853,PM2.5,26,238,83
India,Rajasthan,Jodhpur,"Collectorate, Jodhpur - RSPCB",14-01-2026 08:00:00,26.268249,73.0193853,PM10,31,133,84
India,Rajasthan,Jodhpur,"Collectorate, Jodhpur - RSPCB",14-01-2026 08:00:00,26.268249,73.0193853,NO2,9,27,20
India,Rajasthan,Jodhpur,"Collectorate, Jodhpur - RSPCB",14-01-2026 08:00:00,26.268249,73.0193853,SO2,3,15,9
India,Rajasthan,Jodhpur,"Collectorate, Jodhpur - RSPCB",14-01-2026 08:00:00,26.268249,73.0193853,OZONE,3,87,44
India,Rajasthan,Jodhpur,"Digari Kalan, Jodhpur - RSPCB",14-01-2026 08:00:00,26.295810,73.082283,PM2.5,62,358,201
India,Rajasthan,Jaipur,"RIICO Sitapura, Jaipur - RSPCB",14-01-2026 08:00:00,26.786682,75.827928,CO,28,129,50
India,Rajasthan,Jaisalmer,"Sadar Bazar, Jaisalmer - RSPCB",14-01-2026 08:00:00,26.912329,70.909168,PM2.5,90,335,200
India,Rajasthan,Jaisalmer,"Sadar Bazar, Jaisalmer - RSPCB",14-01-2026 08:00:00,26.912329,70.909168,NO2,16,119,40
India,Rajasthan,Jalore,"Mudtra Sili, Jalore - RSPCB",14-01-2026 08:00:00,25.344694,72.626208,PM2.5,75,379,194
India,Punjab,Patiala,"Model Town, Patiala - PPCB",14-01-2026 08:00:00,30.349388,76.366642,SO2,5,28,16
India,Punjab,Rupnagar,"Ratanpura, Rupnagar - Ambuja Cements",14-01-2026 08:00:00,31.0325454,76.5623046,NO2,5,6,5
India,Punjab,Rupnagar,"Ratanpura, Rupnagar - Ambuja Cements",14-01-2026 08:00:00,31.0325454,76.5623046,CO,69,86,73
India,Rajasthan,Dungarpur,"Bhoiwada, Dungarpur - RSPCB",14-01-2026 08:00:00,23.837789,73.714926,PM2.5,100,312,206
India,Rajasthan,Tonk,"Shastri Nagar, Tonk - RSPCB",14-01-2026 08:00:00,26.159933,75.780517,PM2.5,190,450,303
India,Rajasthan,Tonk,"Shastri Nagar, Tonk - RSPCB",14-01-2026 08:00:00,26.159933,75.780517,PM10,122,500,244
India,Rajasthan,Tonk,"Shastri Nagar, Tonk - RSPCB",14-01-2026 08:00:00,26.159933,75.780517,OZONE,1,118,7
India,Rajasthan,Udaipur,"Ashok Nagar, Udaipur - RSPCB",14-01-2026 08:00:00,24.5886166,73.6321397,PM10,83,208,137
India,Sikkim,Gangtok,"Zero Point GICI, Gangtok - SSPCB",14-01-2026 08:00:00,27.338530,88.614099,NO2,6,7,6
India,Sikkim,Gangtok,"Zero Point GICI, Gangtok - SSPCB",14-01-2026 08:00:00,27.338530,88.614099,NH3,1,1,1
India,Sikkim,Gangtok,"Zero Point GICI, Gangtok - SSPCB",14-01-2026 08:00:00,27.338530,88.614099,CO,3,12,5
India,TamilNadu,Chennai,"Arumbakkam, Chennai - TNPCB",14-01-2026 08:00:00,13.0664,80.2112 ,SO2,2,7,3
India,TamilNadu,Chennai,"Gandhi Nagar_Ennore, Chennai - TNPCB",14-01-2026 08:00:00,13.218341,80.32027,PM10,67,125,87
India,TamilNadu,Chennai,"Gandhi Nagar_Ennore, Chennai - TNPCB",14-01-2026 08:00:00,13.218341,80.32027,NO2,4,5,4
India,TamilNadu,Chennai,"Gandhi Nagar_Ennore, Chennai - TNPCB",14-01-2026 08:00:00,13.218341,80.32027,CO,6,16,8
India,Rajasthan,Pratapgarh,"Pragati Nagar, Pratapgarh - RSPCB",14-01-2026 08:00:00,24.041198,74.780702,CO,24,39,29
India,Rajasthan,Rajsamand,"Dhoinda, Rajsamand - RSPCB",14-01-2026 08:00:00,25.036360,73.883502,SO2,8,32,16
India,Rajasthan,Sawai Madhopur,"Sahu Nagar, Sawai Madhopur - RSPCB",14-01-2026 08:00:00,26.031443,76.359327,PM2.5,83,430,211
India,Rajasthan,Sawai Madhopur,"Sahu Nagar, Sawai Madhopur - RSPCB",14-01-2026 08:00:00,26.031443,76.359327,PM10,110,500,215
India,Rajasthan,Sawai Madhopur,"Sahu Nagar, Sawai Madhopur - RSPCB",14-01-2026 08:00:00,26.031443,76.359327,SO2,2,20,6
India,Rajasthan,Sawai Madhopur,"Sahu Nagar, Sawai Madhopur - RSPCB",14-01-2026 08:00:00,26.031443,76.359327,CO,30,141,47
India,Rajasthan,Sirohi,"Vedhaynath Colony, Sirohi - RSPCB",14-01-2026 08:00:00,24.885261,72.857549,NO2,16,115,63
India,Rajasthan,Sirohi,"Vedhaynath Colony, Sirohi - RSPCB",14-01-2026 08:00:00,24.885261,72.857549,CO,22,70,30
India,Rajasthan,Sirohi,"Vedhaynath Colony, Sirohi - RSPCB",14-01-2026 08:00:00,24.885261,72.857549,OZONE,12,109,34
India,Rajasthan,Sri Ganganagar,"Old City, Sri Ganganagar - RSPCB",14-01-2026 08:00:00,29.931624,73.864511,PM2.5,110,417,317
India,TamilNadu,Gummidipoondi,"Anthoni Pillai Nagar, Gummidipoondi - TNPCB",14-01-2026 08:00:00,13.4127,80.1081,NH3,1,3,2
India,TamilNadu,Karur,"Kamadenu Nagar, Karur - TNPCB",14-01-2026 08:00:00,10.967820,78.080882,PM2.5,47,78,61
India,TamilNadu,Karur,"Kamadenu Nagar, Karur - TNPCB",14-01-2026 08:00:00,10.967820,78.080882,SO2,14,16,15
India,TamilNadu,Madurai,"Uchapatti, Madurai - TNPCB",14-01-2026 08:00:00,9.865935,78.022669,PM10,NA,NA,NA
India,TamilNadu,Madurai,"Uchapatti, Madurai - TNPCB",14-01-2026 08:00:00,9.865935,78.022669,CO,13,20,19
India,TamilNadu,Nagapattinam,"Velippalayam, Nagapattinam - TNPCB",14-01-2026 08:00:00,10.798548,79.838212,PM10,NA,NA,NA
India,TamilNadu,Ooty,"Bombay Castel, Ooty - TNPCB",14-01-2026 08:00:00,11.4068288,76.7138973,NO2,NA,NA,NA
India,TamilNadu,Ooty,"Bombay Castel, Ooty - TNPCB",14-01-2026 08:00:00,11.4068288,76.7138973,OZONE,4,6,5
India,TamilNadu,Perundurai,"SIPCOT Industrial Park, Perundurai - TNPCB",14-01-2026 08:00:00,11.258242,77.552761,NH3,1,4,3
India,Rajasthan,Kota,"Dhanmandi, Kota - RSPCB",14-01-2026 08:00:00,25.164090,75.858137,OZONE,4,113,4
India,Rajasthan,Kota,"Shrinath Puram, Kota - RSPCB",14-01-2026 08:00:00,25.14389,75.821256,PM10,116,328,176
India,Rajasthan,Kota,"Shrinath Puram, Kota - RSPCB",14-01-2026 08:00:00,25.14389,75.821256,NH3,5,14,8
India,Rajasthan,Kota,"Shrinath Puram, Kota - RSPCB",14-01-2026 08:00:00,25.14389,75.821256,SO2,1,53,16
India,Rajasthan,Kota,"Shrinath Puram, Kota - RSPCB",14-01-2026 08:00:00,25.14389,75.821256,OZONE,3,18,8
India,Rajasthan,Nagaur,"Karni Colony, Nagaur - RSPCB",14-01-2026 08:00:00,27.213494,73.734444,NO2,13,65,28
India,Rajasthan,Nagaur,"Karni Colony, Nagaur - RSPCB",14-01-2026 08:00:00,27.213494,73.734444,OZONE,34,142,70
India,Rajasthan,Pali,"Indira Colony Vistar, Pali - RSPCB",14-01-2026 08:00:00,25.771061, 73.340227,SO2,5,10,8
India,Rajasthan,Pratapgarh,"Pragati Nagar, Pratapgarh - RSPCB",14-01-2026 08:00:00,24.041198,74.780702,NO2,21,46,29
India,TamilNadu,Chennai,"Velachery Res. Area, Chennai - CPCB",14-01-2026 08:00:00,13.0052189,80.2398125,PM10,54,173,80
India,TamilNadu,Chennai,"Velachery Res. Area, Chennai - CPCB",14-01-2026 08:00:00,13.0052189,80.2398125,NH3,3,4,3
India,TamilNadu,Chennai,"Velachery Res. Area, Chennai - CPCB",14-01-2026 08:00:00,13.0052189,80.2398125,SO2,4,10,6
India,TamilNadu,Coimbatore,"PSG College of Arts and Science, Coimbatore - TNPCB",14-01-2026 08:00:00,11.0328,77.0349,NH3,1,1,1
India,TamilNadu,Coimbatore,"PSG College of Arts and Science, Coimbatore - TNPCB",14-01-2026 08:00:00,11.0328,77.0349,OZONE,4,6,5
India,TamilNadu,Coimbatore,"SIDCO Kurichi, Coimbatore - TNPCB",14-01-2026 08:00:00,10.942451,76.978996,NH3,2,2,2
India,TamilNadu,Cuddalore,"Kudikadu, Cuddalore - TNPCB",14-01-2026 08:00:00,11.6829898,79.7532099,NH3,1,1,1
India,TamilNadu,Chennai,"Kodungaiyur, Chennai - TNPCB",14-01-2026 08:00:00,13.1278,80.2642,PM2.5,64,500,157
India,TamilNadu,Chennai,"Kodungaiyur, Chennai - TNPCB",14-01-2026 08:00:00,13.1278,80.2642,OZONE,27,35,32
India,TamilNadu,Chennai,"Manali Village, Chennai - TNPCB",14-01-2026 08:00:00,13.1662,80.2584,CO,44,92,82
India,TamilNadu,Chennai,"Manali Village, Chennai - TNPCB",14-01-2026 08:00:00,13.1662,80.2584,OZONE,13,35,31
India,TamilNadu,Chennai,"Manali, Chennai - CPCB",14-01-2026 08:00:00,13.164544,80.26285,PM2.5,61,438,168
India,TamilNadu,Chennai,"Manali, Chennai - CPCB",14-01-2026 08:00:00,13.164544,80.26285,CO,15,79,48
India,TamilNadu,Chennai,"Royapuram, Chennai - TNPCB",14-01-2026 08:00:00,13.1036,80.2909,NO2,1,24,6
India,Telangana,Hyderabad,"Kompally Municipal Office, Hyderabad - TSPCB",14-01-2026 08:00:00,17.544899,78.486949,PM10,69,91,78
India,Telangana,Hyderabad,"Kompally Municipal Office, Hyderabad - TSPCB",14-01-2026 08:00:00,17.544899,78.486949,NO2,14,17,16
India,Telangana,Hyderabad,"Kompally Municipal Office, Hyderabad - TSPCB",14-01-2026 08:00:00,17.544899,78.486949,NH3,4,5,5
India,Telangana,Hyderabad,"Kompally Municipal Office, Hyderabad - TSPCB",14-01-2026 08:00:00,17.544899,78.486949,SO2,6,12,9
India,Telangana,Hyderabad,"Kompally Municipal Office, Hyderabad - TSPCB",14-01-2026 08:00:00,17.544899,78.486949,OZONE,10,33,11
India,Telangana,Hyderabad,"New Malakpet, Hyderabad - TSPCB",14-01-2026 08:00:00,17.37206,78.50864,NO2,9,11,10
India,Telangana,Hyderabad,"Ramachandrapuram, Hyderabad - TSPCB",14-01-2026 08:00:00,17.528544,78.286195,NO2,13,17,17
India,Telangana,Hyderabad,"Central University, Hyderabad - TSPCB",14-01-2026 08:00:00,17.460103,78.334361,OZONE,9,22,15
India,Telangana,Hyderabad,"ECIL Kapra, Hyderabad - TSPCB",14-01-2026 08:00:00,17.470431,78.566959,NH3,3,5,4
India,Telangana,Hyderabad,"ECIL Kapra, Hyderabad - TSPCB",14-01-2026 08:00:00,17.470431,78.566959,CO,17,46,32
India,Telangana,Hyderabad,"IDA Pashamylaram, Hyderabad - TSPCB",14-01-2026 08:00:00,17.5316895,78.218939,OZONE,59,60,60
India,Telangana,Hyderabad,"IITH Kandi, Hyderabad - TSPCB",14-01-2026 08:00:00,17.585705,78.126199,PM10,68,102,79
India,TamilNadu,Perundurai,"SIPCOT Industrial Park, Perundurai - TNPCB",14-01-2026 08:00:00,11.258242,77.552761,CO,20,34,32
India,TamilNadu,Thanjavur,"Parisutham Nagar, Thanjavur - TNPCB",14-01-2026 08:00:00,10.7654824,79.1389968,SO2,16,17,17
India,Telangana,Hyderabad,"Bollaram Industrial Area, Hyderabad - TSPCB",14-01-2026 08:00:00,17.540891,78.358528,PM2.5,62,184,117
India,Uttar_Pradesh,Agra,"Shastripuram, Agra - UPPCB",14-01-2026 08:00:00,27.19862,77.92066,SO2,14,22,18
India,Uttar_Pradesh,Baghpat,"Sardar Patel Inter College, Baghpat - UPPCB",14-01-2026 08:00:00,28.964949,77.278761,PM10,109,229,160
India,Uttar_Pradesh,Baghpat,"Sardar Patel Inter College, Baghpat - UPPCB",14-01-2026 08:00:00,28.964949,77.278761,OZONE,1,70,7
India,Uttar_Pradesh,Bareilly,"Civil Lines, Bareilly - UPPCB",14-01-2026 08:00:00,28.359581,79.414455,NH3,2,5,3
India,Uttar_Pradesh,Bareilly,"Rajendra Nagar, Bareilly - UPPCB",14-01-2026 08:00:00,28.38910936,79.42963708,PM10,70,191,117
India,Uttar_Pradesh,Bareilly,"Rajendra Nagar, Bareilly - UPPCB",14-01-2026 08:00:00,28.38910936,79.42963708,NH3,1,1,1
India,Uttar_Pradesh,Bulandshahr,"Yamunapuram, Bulandshahr - UPPCB",14-01-2026 08:00:00,28.406963,77.849831,PM2.5,132,342,274
India,Uttar_Pradesh,Bulandshahr,"Yamunapuram, Bulandshahr - UPPCB",14-01-2026 08:00:00,28.406963,77.849831,NH3,8,13,12
India,Telangana,Hyderabad,"Ramachandrapuram, Hyderabad - TSPCB",14-01-2026 08:00:00,17.528544,78.286195,NH3,3,5,4
India,Telangana,Hyderabad,"Somajiguda, Hyderabad - TSPCB",14-01-2026 08:00:00,17.417094,78.457437,PM2.5,49,67,58
India,Telangana,Hyderabad,"Somajiguda, Hyderabad - TSPCB",14-01-2026 08:00:00,17.417094,78.457437,PM10,73,91,86
India,Telangana,Hyderabad,"Somajiguda, Hyderabad - TSPCB",14-01-2026 08:00:00,17.417094,78.457437,NO2,11,17,12
India,Telangana,Hyderabad,"Somajiguda, Hyderabad - TSPCB",14-01-2026 08:00:00,17.417094,78.457437,SO2,14,17,15
India,Telangana,Hyderabad,"Zoo Park, Hyderabad - TSPCB",14-01-2026 08:00:00,17.349694,78.451437,SO2,3,12,7
India,Tripura,Agartala,"Bardowali, Agartala - Tripura SPCB",14-01-2026 08:00:00,23.8175497,91.2726974,NH3,6,7,7
India,Uttar_Pradesh,Agra,"Manoharpur, Agra - UPPCB",14-01-2026 08:00:00,27.23711,78.01936,PM10,75,253,139
India,Uttar_Pradesh,Lucknow,"Lalbagh, Lucknow - CPCB",14-01-2026 08:00:00,26.8458805,80.9365541,OZONE,5,49,10
India,Uttar_Pradesh,Lucknow,"Talkatora District Industries Center, Lucknow - CPCB",14-01-2026 08:00:00,26.83399722,80.8917361,PM10,110,218,161
India,Uttar_Pradesh,Meerut,"Ganga Nagar, Meerut - UPPCB",14-01-2026 08:00:00,28.999264,77.7590354,NH3,11,15,13
India,Uttar_Pradesh,Meerut,"Ganga Nagar, Meerut - UPPCB",14-01-2026 08:00:00,28.999264,77.7590354,CO,28,79,43
India,Uttar_Pradesh,Meerut,"Jai Bhim Nagar, Meerut - UPPCB",14-01-2026 08:00:00,28.9535882,77.7622941,CO,34,100,74
India,Uttar_Pradesh,Meerut,"Jai Bhim Nagar, Meerut - UPPCB",14-01-2026 08:00:00,28.9535882,77.7622941,OZONE,10,138,29
India,Uttar_Pradesh,Meerut,"Pallavpuram Phase 2, Meerut - UPPCB",14-01-2026 08:00:00,29.063510,77.709723,NO2,10,82,60
India,Uttar_Pradesh,Lucknow,"B R Ambedkar University, Lucknow - UPPCB",14-01-2026 08:00:00,26.766433,80.927299,CO,15,26,22
India,Uttar_Pradesh,Lucknow,"Gomti Nagar, Lucknow - UPPCB",14-01-2026 08:00:00,26.868120,81.005119,CO,27,34,28
India,Uttar_Pradesh,Lucknow,"Gomti Nagar, Lucknow - UPPCB",14-01-2026 08:00:00,26.868120,81.005119,OZONE,20,33,22
India,Uttar_Pradesh,Lucknow,"Kendriya Vidyalaya, Lucknow - CPCB",14-01-2026 08:00:00,26.906111,80.948222,PM10,81,211,168
India,Uttar_Pradesh,Lucknow,"Kukrail Picnic Spot-1, Lucknow - UPPCB",14-01-2026 08:00:00,26.90723,80.98579,SO2,41,48,43
India,Uttar_Pradesh,Lucknow,"Lalbagh, Lucknow - CPCB",14-01-2026 08:00:00,26.8458805,80.9365541,PM10,177,500,349
India,Uttar_Pradesh,Firozabad,"Nagla Bhau, Firozabad - UPPCB",14-01-2026 08:00:00,27.168897,78.376960,PM2.5,26,80,55
India,Uttar_Pradesh,Firozabad,"Nagla Bhau, Firozabad - UPPCB",14-01-2026 08:00:00,27.168897,78.376960,SO2,19,102,68
India,Uttar_Pradesh,Firozabad,"Vibhab Nagar, Firozabad - UPPCB",14-01-2026 08:00:00,27.1594,78.3953,PM2.5,39,155,83
India,Uttar_Pradesh,Firozabad,"Vibhab Nagar, Firozabad - UPPCB",14-01-2026 08:00:00,27.1594,78.3953,PM10,34,108,72
India,Uttar_Pradesh,Firozabad,"Vibhab Nagar, Firozabad - UPPCB",14-01-2026 08:00:00,27.1594,78.3953,NH3,2,2,2
India,Uttar_Pradesh,Ghaziabad,"Vasundhara, Ghaziabad - UPPCB",14-01-2026 08:00:00,28.6603346,77.3572563,NH3,8,24,12
India,Uttar_Pradesh,Jhansi,"Shivaji Nagar, Jhansi - UPPCB",14-01-2026 08:00:00,25.4547,78.6039,CO,12,89,33
India,Uttar_Pradesh,Kanpur,"FTI Kidwai Nagar, Kanpur - UPPCB",14-01-2026 08:00:00,26.428282,80.327067,CO,34,54,47
India,Uttar_Pradesh,Kanpur,"NSI Kalyanpur, Kanpur - UPPCB",14-01-2026 08:00:00,26.509954,80.249612,PM2.5,25,264,89
India,Uttar_Pradesh,Khurja,"Kalindi Kunj, Khurja - UPPCB",14-01-2026 08:00:00,28.2348927,77.8683002,NH3,1,1,1
India,Uttar_Pradesh,Khurja,"Kalindi Kunj, Khurja - UPPCB",14-01-2026 08:00:00,28.2348927,77.8683002,SO2,15,28,18
India,Uttar_Pradesh,Agra,"Manoharpur, Agra - UPPCB",14-01-2026 08:00:00,27.23711,78.01936,NH3,3,4,4
India,Uttar_Pradesh,Agra,"Sector-3B Avas Vikas Colony, Agra - UPPCB",14-01-2026 08:00:00,27.19412,77.96237,SO2,10,19,11
India,Uttar_Pradesh,Agra,"Shahjahan Garden, Agra - UPPCB",14-01-2026 08:00:00,27.169338,78.03582,OZONE,1,2,1
India,Uttar_Pradesh,Agra,"Shastripuram, Agra - UPPCB",14-01-2026 08:00:00,27.19862,77.92066,NO2,32,33,33
India,Uttar_Pradesh,Ghaziabad,"Vasundhara, Ghaziabad - UPPCB",14-01-2026 08:00:00,28.6603346,77.3572563,SO2,3,101,35
India,Uttar_Pradesh,Gorakhpur,"Madan Mohan Malaviya University of Technology, Gorakhpur - UPPCB",14-01-2026 08:00:00,26.730136,83.433859,NH3,1,1,1
India,Uttar_Pradesh,Greater Noida,"Knowledge Park - III, Greater Noida - UPPCB",14-01-2026 08:00:00,28.47272,77.482000,NO2,NA,NA,NA
India,Uttar_Pradesh,Greater Noida,"Knowledge Park - III, Greater Noida - UPPCB",14-01-2026 08:00:00,28.47272,77.482000,OZONE,NA,NA,NA
India,Uttar_Pradesh,Hapur,"Anand Vihar, Hapur - UPPCB",14-01-2026 08:00:00,28.725645,77.749675,PM2.5,76,307,213
India,Uttar_Pradesh,Hapur,"Anand Vihar, Hapur - UPPCB",14-01-2026 08:00:00,28.725645,77.749675,NH3,9,13,11
India,West_Bengal,Asansol,"Evelyn Lodge, Asansol - WBPCB",14-01-2026 08:00:00,23.6979360,86.9443950,NO2,11,57,24
India,West_Bengal,Asansol,"Evelyn Lodge, Asansol - WBPCB",14-01-2026 08:00:00,23.6979360,86.9443950,CO,14,62,49
India,West_Bengal,Asansol,"Evelyn Lodge, Asansol - WBPCB",14-01-2026 08:00:00,23.6979360,86.9443950,OZONE,14,59,19
India,West_Bengal,Asansol,"Trivenidevi Bhalotia College, Asansol - WBPCB",14-01-2026 08:00:00,23.616515,87.119133,SO2,1,13,9
India,West_Bengal,Asansol,"Trivenidevi Bhalotia College, Asansol - WBPCB",14-01-2026 08:00:00,23.616515,87.119133,CO,40,80,75
India,West_Bengal,Barrackpore,"SVSPA Campus, Barrackpore - WBPCB",14-01-2026 08:00:00,22.7605581,88.3617589,PM2.5,77,168,119
India,West_Bengal,Barrackpore,"SVSPA Campus, Barrackpore - WBPCB",14-01-2026 08:00:00,22.7605581,88.3617589,SO2,8,11,9
India,West_Bengal,Durgapur,"Mahishkapur Road_B-Zone, Durgapur - WBPCB",14-01-2026 08:00:00,23.567923,87.306843,PM10,59,133,101
India,West_Bengal,Durgapur,"Mahishkapur Road_B-Zone, Durgapur - WBPCB",14-01-2026 08:00:00,23.567923,87.306843,NO2,14,76,35
India,West_Bengal,Durgapur,"Mahishkapur Road_B-Zone, Durgapur - WBPCB",14-01-2026 08:00:00,23.567923,87.306843,CO,48,100,81
India,Uttarakhand,Dehradun,"Doon University, Dehradun - UKPCB",14-01-2026 08:00:00,30.269444,78.044167,CO,2,8,6
India,Uttarakhand,Dehradun,"Doon University, Dehradun - UKPCB",14-01-2026 08:00:00,30.269444,78.044167,OZONE,24,73,27
India,Uttarakhand,Kashipur,"Govt. Girls Inter College, Kashipur - UKPCB",14-01-2026 08:00:00,29.2124114,78.9611753,NO2,NA,NA,NA
India,Uttarakhand,Rishikesh,"Shivaji Nagar, Rishikesh - UKPCB",14-01-2026 08:00:00,30.075911,78.2859547,PM10,NA,NA,NA
India,West_Bengal,Asansol,"Asansol Court Area, Asansol - WBPCB",14-01-2026 08:00:00,23.685297,86.945968,PM10,84,131,113
India,West_Bengal,Asansol,"Asansol Court Area, Asansol - WBPCB",14-01-2026 08:00:00,23.685297,86.945968,NO2,15,28,22
India,West_Bengal,Asansol,"Asansol Court Area, Asansol - WBPCB",14-01-2026 08:00:00,23.685297,86.945968,SO2,13,29,20
India,Uttar_Pradesh,Varanasi,"Ardhali Bazar, Varanasi - UPPCB",14-01-2026 08:00:00,25.3505986,82.9083074,NO2,89,96,93
India,Uttar_Pradesh,Varanasi,"Ardhali Bazar, Varanasi - UPPCB",14-01-2026 08:00:00,25.3505986,82.9083074,CO,2,18,14
India,Uttar_Pradesh,Varanasi,"Ardhali Bazar, Varanasi - UPPCB",14-01-2026 08:00:00,25.3505986,82.9083074,OZONE,10,22,17
India,Uttar_Pradesh,Varanasi,"Bhelupur, Varanasi - UPPCB",14-01-2026 08:00:00,25.301778,82.996789,SO2,25,29,27
India,Uttar_Pradesh,Varanasi,"IESD Banaras Hindu University, Varanasi - UPPCB",14-01-2026 08:00:00,25.262326,82.995408,NO2,2,2,2
India,Uttar_Pradesh,Vrindavan,"Omex Eternity, Vrindavan - UPPCB",14-01-2026 08:00:00,27.5714090,77.6557570,PM2.5,28,112,62
India,Uttar_Pradesh,Vrindavan,"Omex Eternity, Vrindavan - UPPCB",14-01-2026 08:00:00,27.5714090,77.6557570,PM10,21,136,72
India,West_Bengal,Kolkata,"Bidhannagar, Kolkata - WBPCB",14-01-2026 08:00:00,22.58157048,88.41002457,NO2,13,25,16
India,West_Bengal,Kolkata,"Bidhannagar, Kolkata - WBPCB",14-01-2026 08:00:00,22.58157048,88.41002457,NH3,5,7,6
India,West_Bengal,Kolkata,"Bidhannagar, Kolkata - WBPCB",14-01-2026 08:00:00,22.58157048,88.41002457,OZONE,13,70,18
India,West_Bengal,Kolkata,"Fort William, Kolkata - WBPCB",14-01-2026 08:00:00,22.556640,88.342674,PM10,94,183,124
India,West_Bengal,Kolkata,"Jadavpur, Kolkata - WBPCB",14-01-2026 08:00:00,22.49929,88.36917,SO2,11,12,11
India,West_Bengal,Kolkata,"Rabindra Bharati University, Kolkata - WBPCB",14-01-2026 08:00:00,22.627847,88.380669,PM2.5,115,305,200
India,Uttar_Pradesh,Meerut,"Pallavpuram Phase 2, Meerut - UPPCB",14-01-2026 08:00:00,29.063510,77.709723,SO2,2,52,12
India,Uttar_Pradesh,Moradabad,"Buddhi Vihar, Moradabad - UPPCB",14-01-2026 08:00:00,28.83526,78.74460,PM10,70,159,104
India,Uttar_Pradesh,Moradabad,"Buddhi Vihar, Moradabad - UPPCB",14-01-2026 08:00:00,28.83526,78.74460,NO2,28,29,29
India,Uttar_Pradesh,Moradabad,"Buddhi Vihar, Moradabad - UPPCB",14-01-2026 08:00:00,28.83526,78.74460,NH3,5,5,5
India,Uttar_Pradesh,Moradabad,"Eco Herbal Park, Moradabad - UPPCB",14-01-2026 08:00:00,28.840739,78.697531,PM2.5,66,204,124
India,Uttar_Pradesh,Moradabad,"Eco Herbal Park, Moradabad - UPPCB",14-01-2026 08:00:00,28.840739,78.697531,NH3,6,8,7
India,Uttar_Pradesh,Moradabad,"Kashiram Nagar, Moradabad - UPPCB",14-01-2026 08:00:00,28.849399,78.742362,SO2,11,116,49
India,Uttar_Pradesh,Muzaffarnagar,"New Mandi, Muzaffarnagar - UPPCB",14-01-2026 08:00:00,29.4723508,77.7194031,NO2,43,126,80
India,Uttar_Pradesh,Muzaffarnagar,"New Mandi, Muzaffarnagar - UPPCB",14-01-2026 08:00:00,29.4723508,77.7194031,CO,55,103,62
India,Uttar_Pradesh,Noida,"Sector - 62, Noida - IMD",14-01-2026 08:00:00,28.6245479,77.3577104,PM10,148,471,263
India,West_Bengal,Howrah,"Botanical Garden, Howrah - WBPCB",14-01-2026 08:00:00,22.554954,88.292568,OZONE,6,20,6
India,West_Bengal,Howrah,"Dasnagar, Howrah - WBPCB",14-01-2026 08:00:00,22.6025571,88.3105664,SO2,3,36,15
India,West_Bengal,Howrah,"Dasnagar, Howrah - WBPCB",14-01-2026 08:00:00,22.6025571,88.3105664,CO,26,103,41
India,West_Bengal,Kolkata,"Ballygunge, Kolkata - WBPCB",14-01-2026 08:00:00,22.5367507,88.3638022,NH3,7,13,9
India,West_Bengal,Durgapur,"PCBL Residential Complex, Durgapur - WBPCB",14-01-2026 08:00:00,23.5087640,87.3544400,CO,38,70,55
India,West_Bengal,Durgapur,"Womens College_City Center, Durgapur - WBPCB",14-01-2026 08:00:00,23.549395,87.300496,PM2.5,63,180,128
India,West_Bengal,Haldia,"Priyambada Housing Estate, Haldia - WBPCB",14-01-2026 08:00:00,22.06047,88.109737,PM2.5,72,183,116
India,Uttar_Pradesh,Noida,"Sector-116, Noida - UPPCB",14-01-2026 08:00:00,28.569230,77.393848,PM10,141,459,262
India,Uttar_Pradesh,Noida,"Sector-116, Noida - UPPCB",14-01-2026 08:00:00,28.569230,77.393848,NH3,18,38,26
India,Uttar_Pradesh,Prayagraj,"Jhunsi, Prayagraj - UPPCB",14-01-2026 08:00:00,25.425602,81.917152,PM10,56,191,112
India,Uttar_Pradesh,Prayagraj,"Jhunsi, Prayagraj - UPPCB",14-01-2026 08:00:00,25.425602,81.917152,CO,8,62,34
India,Uttar_Pradesh,Prayagraj,"Jhunsi, Prayagraj - UPPCB",14-01-2026 08:00:00,25.425602,81.917152,OZONE,16,30,16
India,West_Bengal,Siliguri,"Ward-32 Bapupara, Siliguri - WBPCB",14-01-2026 08:00:00,26.6879226,88.4152495,PM2.5,59,306,159
India,West_Bengal,Siliguri,"Ward-32 Bapupara, Siliguri - WBPCB",14-01-2026 08:00:00,26.6879226,88.4152495,PM10,73,291,139
India,West_Bengal,Siliguri,"Ward-32 Bapupara, Siliguri - WBPCB",14-01-2026 08:00:00,26.6879226,88.4152495,SO2,13,31,17
India,Andhra_Pradesh,Vijayawada,"Rajiv Nagar, Vijayawada - APPCB",14-01-2026 08:00:00,16.554731,80.649110,OZONE,15,30,15
India,Andhra_Pradesh,Visakhapatnam,"GVM Corporation, Visakhapatnam - APPCB",14-01-2026 08:00:00,17.72,83.3,PM2.5,58,305,141
India,Andhra_Pradesh,Visakhapatnam,"GVM Corporation, Visakhapatnam - APPCB",14-01-2026 08:00:00,17.72,83.3,SO2,2,15,6
India,Andhra_Pradesh,Visakhapatnam,"GVM Corporation, Visakhapatnam - APPCB",14-01-2026 08:00:00,17.72,83.3,OZONE,3,81,4
India,Arunachal_Pradesh,Naharlagun,"Naharlagun, Naharlagun - APSPCB",14-01-2026 08:00:00,27.103358,93.679645,NO2,6,7,7
India,Arunachal_Pradesh,Naharlagun,"Naharlagun, Naharlagun - APSPCB",14-01-2026 08:00:00,27.103358,93.679645,SO2,9,10,9
India,Assam,Byrnihat,"Central Academy for SFS, Byrnihat - PCBA",14-01-2026 08:00:00,26.071318,91.87488,NH3,4,4,4
India,Assam,Byrnihat,"Central Academy for SFS, Byrnihat - PCBA",14-01-2026 08:00:00,26.071318,91.87488,CO,42,62,48
India,Assam,Byrnihat,"Central Academy for SFS, Byrnihat - PCBA",14-01-2026 08:00:00,26.071318,91.87488,OZONE,14,31,16
India,Assam,Guwahati,"LGBI Airport, Guwahati - PCBA",14-01-2026 08:00:00,26.10887,91.589544,CO,20,38,30
India,Assam,Guwahati,"LGBI Airport, Guwahati - PCBA",14-01-2026 08:00:00,26.10887,91.589544,OZONE,13,14,14
India,Assam,Guwahati,"Pan Bazaar, Guwahati - PCBA",14-01-2026 08:00:00,26.187500,91.744194,PM2.5,1,393,184
India,Andhra_Pradesh,Anantapur,"Gulzarpet, Anantapur - APPCB",14-01-2026 08:00:00,14.675886,77.593027,OZONE,22,39,27
India,Andhra_Pradesh,Chittoor,"Gangineni Cheruvu, Chittoor - APPCB",14-01-2026 08:00:00,13.204880,79.097889,OZONE,46,66,58
India,Andhra_Pradesh,Kadapa,"Yerramukkapalli, Kadapa - APPCB",14-01-2026 08:00:00,14.465052,78.824187,NO2,18,30,24
India,Andhra_Pradesh,Kadapa,"Yerramukkapalli, Kadapa - APPCB",14-01-2026 08:00:00,14.465052,78.824187,CO,24,44,33
India,Andhra_Pradesh,Kadapa,"Yerramukkapalli, Kadapa - APPCB",14-01-2026 08:00:00,14.465052,78.824187,OZONE,20,22,21
India,Andhra_Pradesh,Tirumala,"Toll Gate, Tirumala - APPCB",14-01-2026 08:00:00,13.67,79.35,OZONE,16,54,23
India,Andhra_Pradesh,Tirupati,"Vaikuntapuram, Tirupati - APPCB",14-01-2026 08:00:00,13.615387,79.409230,PM2.5,58,165,68
India,Assam,Sivasagar,"Girls College, Sivasagar - PCBA",14-01-2026 08:00:00,26.987634,94.636574,NO2,NA,NA,NA
India,Assam,Sivasagar,"Girls College, Sivasagar - PCBA",14-01-2026 08:00:00,26.987634,94.636574,SO2,NA,NA,NA
India,Bihar,Araria,"Kharahiya Basti, Araria - BSPCB",14-01-2026 08:00:00,26.146529,87.454184,PM2.5,43,253,122
India,Bihar,Aurangabad,"Gurdeo Nagar, Aurangabad - BSPCB",14-01-2026 08:00:00,24.75746,84.366208,SO2,9,20,14
India,Bihar,Begusarai,"Lohiyanagar, Begusarai - BSPCB",14-01-2026 08:00:00,25.42742023,86.13886079,PM2.5,67,304,133
India,Bihar,Begusarai,"Lohiyanagar, Begusarai - BSPCB",14-01-2026 08:00:00,25.42742023,86.13886079,PM10,72,178,125
India,Bihar,Bihar Sharif,"D M Colony, Bihar Sharif - BSPCB",14-01-2026 08:00:00,25.204762,85.514960,SO2,9,10,10
India,Bihar,Buxar,"Charitra Van, Buxar - BSPCB",14-01-2026 08:00:00,25.567520,83.966379,SO2,NA,NA,NA
India,Bihar,Buxar,"Charitra Van, Buxar - BSPCB",14-01-2026 08:00:00,25.567520,83.966379,CO,NA,NA,NA
India,Bihar,Gaya,"Collectorate, Gaya - BSPCB",14-01-2026 08:00:00,24.7955,84.9994,PM2.5,58,205,95
India,Bihar,Gaya,"Collectorate, Gaya - BSPCB",14-01-2026 08:00:00,24.7955,84.9994,NO2,9,9,9
India,Bihar,Gaya,"Kareemganj, Gaya - BSPCB",14-01-2026 08:00:00,24.792403,84.992416,NH3,4,6,5
India,Bihar,Motihari,"Gandak Colony, Motihari - BSPCB",14-01-2026 08:00:00,26.63086,84.90051,PM10,38,159,101
India,Bihar,Munger,"Town Hall, Munger - BSPCB",14-01-2026 08:00:00,25.376776,86.471523,OZONE,15,34,23
India,Bihar,Muzaffarpur,"Buddha Colony, Muzaffarpur - BSPCB",14-01-2026 08:00:00,26.11442,85.39813,PM10,85,144,112
India,Bihar,Muzaffarpur,"MIT-Daudpur Kothi, Muzaffarpur - BSPCB",14-01-2026 08:00:00,26.1403345,85.3650192,NH3,2,2,2
India,Assam,Guwahati,"Railway Colony, Guwahati - PCBA",14-01-2026 08:00:00,26.181742,91.78063,CO,34,130,123
India,Assam,Nagaon,"Christianpatty, Nagaon - PCBA",14-01-2026 08:00:00,26.349082,92.68449,CO,20,23,22
India,Assam,Nalbari,"Bata Chowk, Nalbari - PCBA",14-01-2026 08:00:00,26.446912,91.439057,NH3,6,6,6
India,Assam,Silchar,"Tarapur, Silchar - PCBA",14-01-2026 08:00:00,24.82827,92.79525,NO2,18,33,27
India,Andhra_Pradesh,Vijayawada,"HB Colony, Vijayawada - APPCB",14-01-2026 08:00:00,16.536107,80.594233,CO,16,46,44
India,Andhra_Pradesh,Vijayawada,"Rajiv Gandhi Park, Vijayawada - APPCB",14-01-2026 08:00:00,16.509717,80.612222,OZONE,NA,NA,NA
India,Andhra_Pradesh,Vijayawada,"Rajiv Nagar, Vijayawada - APPCB",14-01-2026 08:00:00,16.554731,80.649110,NO2,17,30,24
India,Andhra_Pradesh,Vijayawada,"Rajiv Nagar, Vijayawada - APPCB",14-01-2026 08:00:00,16.554731,80.649110,NH3,4,6,5
India,Andhra_Pradesh,Vijayawada,"Rajiv Nagar, Vijayawada - APPCB",14-01-2026 08:00:00,16.554731,80.649110,CO,18,68,66
India,Bihar,Hajipur,"Industrial Area, Hajipur - BSPCB",14-01-2026 08:00:00,25.697189,85.245900,PM10,95,166,130
India,Bihar,Hajipur,"Industrial Area, Hajipur - BSPCB",14-01-2026 08:00:00,25.697189,85.245900,NO2,35,85,48
India,Bihar,Katihar,"Mirchaibari, Katihar - BSPCB",14-01-2026 08:00:00,25.560083,87.553265,PM2.5,63,207,106
India,Bihar,Katihar,"Mirchaibari, Katihar - BSPCB",14-01-2026 08:00:00,25.560083,87.553265,PM10,65,136,95
India,Bihar,Katihar,"Mirchaibari, Katihar - BSPCB",14-01-2026 08:00:00,25.560083,87.553265,NH3,1,1,1
India,Bihar,Bhagalpur,"DM Office_Kachari Chowk, Bhagalpur - BSPCB",14-01-2026 08:00:00,25.251013,86.989001,NO2,4,13,8
India,Bihar,Bhagalpur,"DM Office_Kachari Chowk, Bhagalpur - BSPCB",14-01-2026 08:00:00,25.251013,86.989001,NH3,1,1,1
India,Bihar,Bhagalpur,"Mayaganj, Bhagalpur - BSPCB",14-01-2026 08:00:00,25.265194,87.012947,PM10,NA,NA,NA
India,Bihar,Bhagalpur,"Mayaganj, Bhagalpur - BSPCB",14-01-2026 08:00:00,25.265194,87.012947,NO2,NA,NA,NA
India,Andhra_Pradesh,Amaravati,"Secretariat, Amaravati - APPCB",14-01-2026 08:00:00,16.5150833,80.5181667,OZONE,15,74,19
India,Andhra_Pradesh,Anantapur,"Gulzarpet, Anantapur - APPCB",14-01-2026 08:00:00,14.675886,77.593027,PM10,76,106,87
India,Bihar,Muzaffarpur,"Muzaffarpur Collectorate, Muzaffarpur - BSPCB",14-01-2026 08:00:00,26.1209,85.3647,OZONE,6,19,7
India,Bihar,Patna,"DRM Office Danapur, Patna - BSPCB",14-01-2026 08:00:00,25.586562,85.043586,PM10,117,265,160
India,Bihar,Patna,"DRM Office Danapur, Patna - BSPCB",14-01-2026 08:00:00,25.586562,85.043586,NH3,5,13,8
India,Bihar,Patna,"Govt. High School Shikarpur, Patna - BSPCB",14-01-2026 08:00:00,25.592539,85.227158,NO2,13,18,16
India,Bihar,Patna,"Govt. High School Shikarpur, Patna - BSPCB",14-01-2026 08:00:00,25.592539,85.227158,NH3,4,5,5
India,Bihar,Patna,"Govt. High School Shikarpur, Patna - BSPCB",14-01-2026 08:00:00,25.592539,85.227158,CO,8,71,20
India,Bihar,Patna,"Govt. High School Shikarpur, Patna - BSPCB",14-01-2026 08:00:00,25.592539,85.227158,OZONE,9,12,10
India,Bihar,Patna,"Muradpur, Patna - BSPCB",14-01-2026 08:00:00,25.619651,85.147382,NH3,4,5,4
India,Bihar,Patna,"Samanpura, Patna - BSPCB",14-01-2026 08:00:00,25.596727,85.085624,SO2,1,2,2
India,Bihar,Patna,"Samanpura, Patna - BSPCB",14-01-2026 08:00:00,25.596727,85.085624,CO,8,112,106
India,Bihar,Patna,"Samanpura, Patna - BSPCB",14-01-2026 08:00:00,25.596727,85.085624,OZONE,11,151,23
India,Bihar,Purnia,"Mariam Nagar, Purnia - BSPCB",14-01-2026 08:00:00,25.366336,87.117468,PM10,64,111,85
India,Bihar,Purnia,"Mariam Nagar, Purnia - BSPCB",14-01-2026 08:00:00,25.366336,87.117468,CO,56,59,57
India,Bihar,Rajgir,"Dangi Tola, Rajgir - BSPCB",14-01-2026 08:00:00,25.03280,85.41948,PM2.5,20,163,84
India,Bihar,Rajgir,"Dangi Tola, Rajgir - BSPCB",14-01-2026 08:00:00,25.03280,85.41948,NO2,8,10,9
India,Bihar,Rajgir,"Dangi Tola, Rajgir - BSPCB",14-01-2026 08:00:00,25.03280,85.41948,CO,65,103,92
India,Delhi,Delhi,"Ashok Vihar, Delhi - DPCC",14-01-2026 08:00:00,28.695381,77.181665,SO2,8,30,17
India,Delhi,Delhi,"Aya Nagar, Delhi - IMD",14-01-2026 08:00:00,28.4706914,77.1099364,PM2.5,175,415,303
India,Delhi,Delhi,"Bawana, Delhi - DPCC",14-01-2026 08:00:00,28.776200,77.051074,PM2.5,183,441,357
India,Delhi,Delhi,"Burari Crossing, Delhi - IMD",14-01-2026 08:00:00,28.7256504,77.2011573,PM2.5,136,461,345
India,Delhi,Delhi,"Burari Crossing, Delhi - IMD",14-01-2026 08:00:00,28.7256504,77.2011573,PM10,141,414,274
India,Delhi,Delhi,"CRRI Mathura Road, Delhi - IMD",14-01-2026 08:00:00,28.5512005,77.2735737,PM2.5,1,453,167
India,Delhi,Delhi,"Chandni Chowk, Delhi - IITM",14-01-2026 08:00:00,28.656756,77.227234,PM10,177,500,396
India,Delhi,Delhi,"DTU, Delhi - CPCB",14-01-2026 08:00:00,28.7500499,77.1112615,PM10,121,415,243
India,Delhi,Delhi,"DTU, Delhi - CPCB",14-01-2026 08:00:00,28.7500499,77.1112615,NO2,47,83,77
India,Delhi,Delhi,"DTU, Delhi - CPCB",14-01-2026 08:00:00,28.7500499,77.1112615,OZONE,20,37,21
India,Delhi,Delhi,"Dr. Karni Singh Shooting Range, Delhi - DPCC",14-01-2026 08:00:00,28.498571,77.264840,PM2.5,223,500,387
India,Delhi,Delhi,"Dr. Karni Singh Shooting Range, Delhi - DPCC",14-01-2026 08:00:00,28.498571,77.264840,CO,2,137,46
India,Chhattisgarh,Kunjemura,"OP Jindal School, Kunjemura - CECB",14-01-2026 08:00:00,22.126650,83.483212,PM10,49,314,136
India,Chhattisgarh,Raipur,"AIIMS, Raipur - CECB",14-01-2026 08:00:00,21.258815,81.578979,SO2,2,10,5
India,Chhattisgarh,Raipur,"Bhatagaon New ISBT, Raipur - CECB",14-01-2026 08:00:00,21.219665,81.630094,CO,38,116,88
India,Chhattisgarh,Raipur,"Krishak Nagar, Raipur - CECB",14-01-2026 08:00:00,21.237755,81.705301,PM10,44,91,66
India,Chhattisgarh,Raipur,"Krishak Nagar, Raipur - CECB",14-01-2026 08:00:00,21.237755,81.705301,NO2,24,30,26
India,Chhattisgarh,Bhilai,"Hathkhoj, Bhilai - CECB",14-01-2026 08:00:00,21.224231,81.408350,SO2,16,93,44
India,Chhattisgarh,Bhilai,"Hathkhoj, Bhilai - CECB",14-01-2026 08:00:00,21.224231,81.408350,OZONE,2,19,9
India,Chhattisgarh,Bilaspur,"Mangala, Bilaspur - NTPC",14-01-2026 08:00:00,22.08815,82.13737,NO2,NA,NA,NA
India,Chhattisgarh,Chhal,"Nawapara SECL Colony, Chhal - CECB",14-01-2026 08:00:00,22.118125,83.140608,PM10,46,110,71
India,Chhattisgarh,Chhal,"Nawapara SECL Colony, Chhal - CECB",14-01-2026 08:00:00,22.118125,83.140608,SO2,4,65,19
India,Bihar,Saharsa,"Police Line, Saharsa - BSPCB",14-01-2026 08:00:00,25.892357,86.590325,PM2.5,53,310,147
India,Bihar,Saharsa,"Police Line, Saharsa - BSPCB",14-01-2026 08:00:00,25.892357,86.590325,PM10,79,229,136
India,Bihar,Samastipur,"DM Office_Kasipur, Samastipur - BSPCB",14-01-2026 08:00:00,25.859655,85.77944,PM10,66,119,90
India,Bihar,Sasaram,"Dada Peer, Sasaram - BSPCB",14-01-2026 08:00:00,24.952822,84.002396,PM10,46,111,72
India,Chhattisgarh,Raipur,"Krishak Nagar, Raipur - CECB",14-01-2026 08:00:00,21.237755,81.705301,NH3,2,2,2
India,Chhattisgarh,Tumidih,"OP Jindal Industrial Park, Tumidih - CECB",14-01-2026 08:00:00,22.06631475,83.33820077,PM2.5,NA,NA,NA
India,Delhi,Delhi,"Alipur, Delhi - DPCC",14-01-2026 08:00:00,28.815329,77.153010,NO2,35,98,55
India,Chandigarh,Chandigarh,"Sector-25, Chandigarh - CPCC",14-01-2026 08:00:00,30.751462,76.762879,PM10,76,172,121
India,Chandigarh,Chandigarh,"Sector-25, Chandigarh - CPCC",14-01-2026 08:00:00,30.751462,76.762879,SO2,7,9,8
India,Chhattisgarh,Bhilai,"32Bungalows, Bhilai - CECB",14-01-2026 08:00:00,21.194815,81.314770,NO2,17,82,47
India,Delhi,Delhi,"IGI Airport (T3), Delhi - IMD",14-01-2026 08:00:00,28.5627763,77.1180053,NO2,79,161,109
India,Delhi,Delhi,"IGI Airport (T3), Delhi - IMD",14-01-2026 08:00:00,28.5627763,77.1180053,CO,48,144,81
India,Delhi,Delhi,"IGI Airport (T3), Delhi - IMD",14-01-2026 08:00:00,28.5627763,77.1180053,OZONE,8,66,9
India,Delhi,Delhi,"IHBAS, Dilshad Garden, Delhi - CPCB",14-01-2026 08:00:00,28.6811736,77.3025234,SO2,1,30,17
India,Delhi,Delhi,"IIT Delhi, Delhi - IITM",14-01-2026 08:00:00,28.542460,77.191651,PM2.5,183,436,341
India,Delhi,Delhi,"IIT Delhi, Delhi - IITM",14-01-2026 08:00:00,28.542460,77.191651,PM10,163,420,261
India,Delhi,Delhi,"ITO, Delhi - CPCB",14-01-2026 08:00:00,28.628624,77.241060,NH3,4,10,7
India,Delhi,Delhi,"ITO, Delhi - CPCB",14-01-2026 08:00:00,28.628624,77.241060,SO2,7,18,13
India,Delhi,Delhi,"Jahangirpuri, Delhi - DPCC",14-01-2026 08:00:00,28.732820,77.170633,NH3,15,37,27
India,Delhi,Delhi,"North Campus, DU, Delhi - IMD",14-01-2026 08:00:00,28.6573814,77.1585447,CO,29,140,104
India,Delhi,Delhi,"Okhla Phase-2, Delhi - DPCC",14-01-2026 08:00:00,28.530785,77.271255,PM10,165,433,303
India,Delhi,Delhi,"Okhla Phase-2, Delhi - DPCC",14-01-2026 08:00:00,28.530785,77.271255,CO,18,138,114
India,Delhi,Delhi,"Okhla Phase-2, Delhi - DPCC",14-01-2026 08:00:00,28.530785,77.271255,OZONE,4,139,12
India,Delhi,Delhi,"Patparganj, Delhi - DPCC",14-01-2026 08:00:00,28.623763,77.287209,PM10,127,404,245
India,Delhi,Delhi,"Patparganj, Delhi - DPCC",14-01-2026 08:00:00,28.623763,77.287209,NO2,41,154,101
India,Delhi,Delhi,"Punjabi Bagh, Delhi - DPCC",14-01-2026 08:00:00,28.674045,77.131023,PM2.5,140,463,364
India,Delhi,Delhi,"Pusa, Delhi - DPCC",14-01-2026 08:00:00,28.639652,77.146275,NO2,36,173,97
India,Delhi,Delhi,"Jawaharlal Nehru Stadium, Delhi - DPCC",14-01-2026 08:00:00,28.580280,77.233829,NO2,44,145,95
India,Delhi,Delhi,"Jawaharlal Nehru Stadium, Delhi - DPCC",14-01-2026 08:00:00,28.580280,77.233829,NH3,5,6,6
India,Delhi,Delhi,"Jawaharlal Nehru Stadium, Delhi - DPCC",14-01-2026 08:00:00,28.580280,77.233829,OZONE,1,159,1
India,Delhi,Delhi,"Lodhi Road, Delhi - IMD",14-01-2026 08:00:00,28.5918245,77.2273074,OZONE,10,85,13
India,Delhi,Delhi,"Major Dhyan Chand National Stadium, Delhi - DPCC",14-01-2026 08:00:00,28.611281,77.237738,NH3,17,26,22
India,Delhi,Delhi,"Mandir Marg, Delhi - DPCC",14-01-2026 08:00:00,28.636429,77.201067,CO,6,103,52
India,Delhi,Delhi,"Mundka, Delhi - DPCC",14-01-2026 08:00:00,28.684678,77.076574,PM10,152,440,263
India,Delhi,Delhi,"Vivek Vihar, Delhi - DPCC",14-01-2026 08:00:00,28.672342,77.315260,PM10,159,486,291
India,Delhi,Delhi,"Wazirpur, Delhi - DPCC",14-01-2026 08:00:00,28.699793,77.165453,PM2.5,163,500,386
India,Delhi,Delhi,"Wazirpur, Delhi - DPCC",14-01-2026 08:00:00,28.699793,77.165453,NO2,125,188,155
India,Gujarat,Ahmedabad,"Chandkheda, Ahmedabad - IITM",14-01-2026 08:00:00,23.107969,72.574648,NH3,3,6,4
India,Gujarat,Ahmedabad,"Chandkheda, Ahmedabad - IITM",14-01-2026 08:00:00,23.107969,72.574648,OZONE,8,71,25
India,Gujarat,Ahmedabad,"Gyaspur, Ahmedabad - IITM",14-01-2026 08:00:00,22.977134,72.553024,PM10,97,179,144
India,Gujarat,Ahmedabad,"Gyaspur, Ahmedabad - IITM",14-01-2026 08:00:00,22.977134,72.553024,CO,23,76,29
India,Delhi,Delhi,"Pusa, Delhi - IMD",14-01-2026 08:00:00,28.636110,77.173332,NO2,14,181,96
India,Delhi,Delhi,"Pusa, Delhi - IMD",14-01-2026 08:00:00,28.636110,77.173332,OZONE,8,315,12
India,Delhi,Delhi,"R K Puram, Delhi - DPCC",14-01-2026 08:00:00,28.563262,77.186937,CO,12,166,106
India,Delhi,Delhi,"Rohini, Delhi - DPCC",14-01-2026 08:00:00,28.732528,77.119920,PM10,145,448,319
India,Delhi,Delhi,"Sirifort, Delhi - CPCB",14-01-2026 08:00:00,28.5504249,77.2159377,PM10,175,500,346
India,Gujarat,Ahmedabad,"Raikhad, Ahmedabad - IITM",14-01-2026 08:00:00,23.020509,72.579261,NO2,16,96,34
India,Gujarat,Ahmedabad,"Raikhad, Ahmedabad - IITM",14-01-2026 08:00:00,23.020509,72.579261,OZONE,3,70,39
India,Gujarat,Ahmedabad,"Rakhial, Ahmedabad - IITM",14-01-2026 08:00:00,23.016834,72.625775,CO,22,116,34
India,Gujarat,Ahmedabad,"SAC ISRO Satellite, Ahmedabad - IITM",14-01-2026 08:00:00,23.023389,72.515201,PM2.5,61,180,97
India,Delhi,Delhi,"Sonia Vihar, Delhi - DPCC",14-01-2026 08:00:00,28.710508,77.249485,SO2,1,25,9
India,Delhi,Delhi,"Sri Aurobindo Marg, Delhi - DPCC",14-01-2026 08:00:00,28.531346,77.190156,NH3,2,6,5
India,Delhi,Delhi,"Sri Aurobindo Marg, Delhi - DPCC",14-01-2026 08:00:00,28.531346,77.190156,OZONE,1,114,2
India,Delhi,Delhi,"Najafgarh, Delhi - DPCC",14-01-2026 08:00:00,28.570173,76.933762,OZONE,3,61,5
India,Delhi,Delhi,"Nehru Nagar, Delhi - DPCC",14-01-2026 08:00:00,28.567890,77.250515,OZONE,1,217,4
India,Delhi,Delhi,"NSIT Dwarka, Delhi - CPCB",14-01-2026 08:00:00,28.60909,77.0325413,PM2.5,71,500,252
India,Haryana,Ballabgarh,"Nathu Colony, Ballabgarh - HSPCB",14-01-2026 08:00:00,28.3419248,77.319699,PM10,NA,NA,NA
India,Haryana,Ballabgarh,"Nathu Colony, Ballabgarh - HSPCB",14-01-2026 08:00:00,28.3419248,77.319699,NO2,19,21,20
India,Haryana,Ballabgarh,"Nathu Colony, Ballabgarh - HSPCB",14-01-2026 08:00:00,28.3419248,77.319699,NH3,3,3,3
India,Haryana,Bhiwani,"H.B. Colony, Bhiwani - HSPCB",14-01-2026 08:00:00,28.806223,76.141105,CO,10,13,11
India,Haryana,Bhiwani,"H.B. Colony, Bhiwani - HSPCB",14-01-2026 08:00:00,28.806223,76.141105,OZONE,6,10,8
India,Haryana,Charkhi Dadri,"Mini Secretariat, Charkhi Dadri - HSPCB",14-01-2026 08:00:00,28.593883,76.270653,NO2,9,25,15
India,Haryana,Charkhi Dadri,"Mini Secretariat, Charkhi Dadri - HSPCB",14-01-2026 08:00:00,28.593883,76.270653,NH3,5,8,6
India,Haryana,Charkhi Dadri,"Mini Secretariat, Charkhi Dadri - HSPCB",14-01-2026 08:00:00,28.593883,76.270653,OZONE,13,18,15
India,Haryana,Dharuhera,"Municipal Corporation Office, Dharuhera -  HSPCB",14-01-2026 08:00:00,28.206800,76.799700,PM2.5,298,460,352
India,Haryana,Dharuhera,"Municipal Corporation Office, Dharuhera -  HSPCB",14-01-2026 08:00:00,28.206800,76.799700,PM10,173,464,275
India,Haryana,Dharuhera,"Municipal Corporation Office, Dharuhera -  HSPCB",14-01-2026 08:00:00,28.206800,76.799700,CO,39,92,47
India,Haryana,Dharuhera,"Municipal Corporation Office, Dharuhera -  HSPCB",14-01-2026 08:00:00,28.206800,76.799700,OZONE,5,35,6
India,Haryana,Sirsa,"F-Block, Sirsa - HSPCB",14-01-2026 08:00:00,29.536400,75.015800,SO2,3,26,13
India,Haryana,Sonipat,"Murthal, Sonipat - HSPCB",14-01-2026 08:00:00,29.027200,77.062100,PM2.5,49,265,135
India,Haryana,Sonipat,"Murthal, Sonipat - HSPCB",14-01-2026 08:00:00,29.027200,77.062100,NO2,19,44,33
India,Haryana,Sonipat,"Murthal, Sonipat - HSPCB",14-01-2026 08:00:00,29.027200,77.062100,NH3,18,32,25
India,Haryana,Sonipat,"Murthal, Sonipat - HSPCB",14-01-2026 08:00:00,29.027200,77.062100,SO2,6,10,8
India,Himachal Pradesh,Baddi,"HIMUDA Complex Phase-1, Baddi - HPPCB",14-01-2026 08:00:00,30.943887,76.801991,NH3,2,4,2
India,Himachal Pradesh,Baddi,"HIMUDA Complex Phase-1, Baddi - HPPCB",14-01-2026 08:00:00,30.943887,76.801991,SO2,23,105,48
India,Jammu_and_Kashmir,Srinagar,"Khunmoh, Srinagar - JKPCC",14-01-2026 08:00:00,34.06313,74.96017,NO2,3,7,4
India,Jammu_and_Kashmir,Srinagar,"Rajbagh, Srinagar - JKPCC",14-01-2026 08:00:00,34.066206,74.819820,PM10,23,45,34
India,Gujarat,Gandhinagar,"Sector-10, Gandhinagar - GPCB",14-01-2026 08:00:00,23.221714,72.654328,PM10,90,142,109
India,Gujarat,Gandhinagar,"Sector-10, Gandhinagar - GPCB",14-01-2026 08:00:00,23.221714,72.654328,NH3,2,4,3
India,Gujarat,Surat,"Science Center, Surat - SMC",14-01-2026 08:00:00,21.170046,72.795405,SO2,25,29,26
India,Gujarat,Vapi,"Phase-1 GIDC, Vapi - GPCB",14-01-2026 08:00:00,20.362421,72.918013,NO2,1,12,5
India,Gujarat,Vatva,"Phase-4 GIDC, Vatva - GPCB",14-01-2026 08:00:00,22.969611,72.643500,CO,12,24,12
India,Haryana,Ambala,"Patti Mehar, Ambala - HSPCB",14-01-2026 08:00:00,30.379589,76.778328,NH3,9,11,10
India,Haryana,Bahadurgarh,"Arya Nagar, Bahadurgarh - HSPCB",14-01-2026 08:00:00,28.6701,76.9254,NO2,12,14,13
India,Haryana,Faridabad,"New Industrial Town, Faridabad - HSPCB",14-01-2026 08:00:00,28.39072,77.30059,CO,10,13,11
India,Haryana,Faridabad,"Sector 11, Faridabad - HSPCB",14-01-2026 08:00:00,28.376058,77.315741,PM2.5,110,401,303
India,Haryana,Faridabad,"Sector 11, Faridabad - HSPCB",14-01-2026 08:00:00,28.376058,77.315741,CO,10,82,44
India,Haryana,Faridabad,"Sector 30, Faridabad - HSPCB",14-01-2026 08:00:00,28.4417,77.3217,NH3,11,12,11
India,Haryana,Faridabad,"Sector 30, Faridabad - HSPCB",14-01-2026 08:00:00,28.4417,77.3217,SO2,6,6,6
India,Haryana,Fatehabad,"Huda Sector, Fatehabad - HSPCB",14-01-2026 08:00:00,29.503664,75.467934,PM2.5,57,310,155
India,Haryana,Fatehabad,"Huda Sector, Fatehabad - HSPCB",14-01-2026 08:00:00,29.503664,75.467934,CO,25,38,29
India,Haryana,Gurugram,"NISE Gwal Pahari, Gurugram - IMD",14-01-2026 08:00:00,28.422681,77.148944,PM2.5,81,451,325
India,Haryana,Kurukshetra,"Sector-7, Kurukshetra - HSPCB",14-01-2026 08:00:00,29.966942,76.875879,SO2,1,21,9
India,Haryana,Mandikhera,"General Hospital, Mandikhera(Nuh) - HSPCB",14-01-2026 08:00:00,27.9002,76.9938,PM2.5,119,315,209
India,Haryana,Mandikhera,"General Hospital, Mandikhera(Nuh) - HSPCB",14-01-2026 08:00:00,27.9002,76.9938,NO2,20,23,22
India,Haryana,Mandikhera,"General Hospital, Mandikhera(Nuh) - HSPCB",14-01-2026 08:00:00,27.9002,76.9938,CO,63,92,76
India,Haryana,Manesar,"Sector-2 IMT, Manesar - HSPCB",14-01-2026 08:00:00,28.360699,76.936090,PM10,103,430,177
India,Haryana,Narnaul,"Shastri Nagar, Narnaul - HSPCB",14-01-2026 08:00:00,28.060249,76.113115,OZONE,6,30,6
India,Haryana,Palwal,"Shyam Nagar, Palwal - HSPCB",14-01-2026 08:00:00,28.1485564,77.3320667,PM2.5,94,201,127
India,Gujarat,Ahmedabad,"SAC ISRO Satellite, Ahmedabad - IITM",14-01-2026 08:00:00,23.023389,72.515201,SO2,8,24,13
India,Gujarat,Ahmedabad,"SVPI Airport Hansol, Ahmedabad - IITM",14-01-2026 08:00:00,23.076793,72.627874,SO2,6,15,9
India,Gujarat,Ankleshwar,"GIDC, Ankleshwar - GPCB",14-01-2026 08:00:00,21.613267,73.010555,PM2.5,75,213,141
India,Gujarat,Gandhinagar,"GIFT City, Gandhinagar - IITM",14-01-2026 08:00:00,23.163798,72.677768,PM2.5,36,117,69
India,Gujarat,Gandhinagar,"IIPHG Lekawada, Gandhinagar - IITM",14-01-2026 08:00:00,23.243639,72.68994,NO2,8,9,8
India,Gujarat,Gandhinagar,"IIPHG Lekawada, Gandhinagar - IITM",14-01-2026 08:00:00,23.243639,72.68994,SO2,8,16,11
India,Gujarat,Gandhinagar,"IIPHG Lekawada, Gandhinagar - IITM",14-01-2026 08:00:00,23.243639,72.68994,CO,5,50,21
India,Haryana,Gurugram,"Sector-51, Gurugram - HSPCB",14-01-2026 08:00:00,28.4227,77.0667,CO,54,115,82
India,Haryana,Gurugram,"Sector-51, Gurugram - HSPCB",14-01-2026 08:00:00,28.4227,77.0667,OZONE,3,16,3
India,Haryana,Gurugram,"Teri Gram, Gurugram - HSPCB",14-01-2026 08:00:00,28.4275,77.1465,PM10,106,424,252
India,Haryana,Gurugram,"Teri Gram, Gurugram - HSPCB",14-01-2026 08:00:00,28.4275,77.1465,SO2,1,37,26
India,Haryana,Gurugram,"Teri Gram, Gurugram - HSPCB",14-01-2026 08:00:00,28.4275,77.1465,OZONE,4,19,5
India,Haryana,Gurugram,"Vikas Sadan, Gurugram - HSPCB",14-01-2026 08:00:00,28.4501238,77.0263051,PM2.5,302,500,368
India,Haryana,Gurugram,"Vikas Sadan, Gurugram - HSPCB",14-01-2026 08:00:00,28.4501238,77.0263051,PM10,178,500,305
India,Haryana,Gurugram,"Vikas Sadan, Gurugram - HSPCB",14-01-2026 08:00:00,28.4501238,77.0263051,NO2,7,35,21
India,Haryana,Jind,"Police Lines, Jind - HSPCB",14-01-2026 08:00:00,29.307814,76.337619,PM2.5,103,338,238
India,Haryana,Jind,"Police Lines, Jind - HSPCB",14-01-2026 08:00:00,29.307814,76.337619,PM10,87,195,138
India,Haryana,Jind,"Police Lines, Jind - HSPCB",14-01-2026 08:00:00,29.307814,76.337619,SO2,2,4,2
India,Haryana,Kaithal,"Rishi Nagar, Kaithal - HSPCB",14-01-2026 08:00:00,29.8006,76.4155,PM10,93,177,131
India,Haryana,Karnal,"Sector-12, Karnal - HSPCB",14-01-2026 08:00:00,29.695300,77.002700,PM10,104,224,155
India,Haryana,Karnal,"Sector-12, Karnal - HSPCB",14-01-2026 08:00:00,29.695300,77.002700,NH3,6,7,6
India,Haryana,Karnal,"Sector-12, Karnal - HSPCB",14-01-2026 08:00:00,29.695300,77.002700,CO,38,59,45
India,Haryana,Panchkula,"Sector-6, Panchkula - HSPCB ",14-01-2026 08:00:00,30.7057778,76.8531805555555,PM2.5,NA,NA,NA
India,Haryana,Panipat,"Sector-18, Panipat - HSPCB",14-01-2026 08:00:00,29.432304,76.972765,NH3,2,3,2
India,Haryana,Panipat,"Sector-18, Panipat - HSPCB",14-01-2026 08:00:00,29.432304,76.972765,SO2,18,19,19
India,Haryana,Panipat,"Sector-18, Panipat - HSPCB",14-01-2026 08:00:00,29.432304,76.972765,OZONE,30,30,30
India,Kerala,Kollam,"Polayathode, Kollam - Kerala PCB",14-01-2026 08:00:00,8.8787,76.6073,PM2.5,NA,NA,NA
India,Kerala,Kollam,"Polayathode, Kollam - Kerala PCB",14-01-2026 08:00:00,8.8787,76.6073,PM10,NA,NA,NA
India,Kerala,Kollam,"Polayathode, Kollam - Kerala PCB",14-01-2026 08:00:00,8.8787,76.6073,SO2,NA,NA,NA
India,Kerala,Thiruvananthapuram,"Kariavattom, Thiruvananthapuram - Kerala PCB",14-01-2026 08:00:00,8.563700,76.886500,NO2,7,8,8
India,Kerala,Thiruvananthapuram,"Kariavattom, Thiruvananthapuram - Kerala PCB",14-01-2026 08:00:00,8.563700,76.886500,OZONE,36,37,36
India,Kerala,Thrissur,"Corporation Ground, Thrissur - Kerala PCB",14-01-2026 08:00:00,10.532400,76.215900,PM10,66,80,73
India,Madhya Pradesh,Bhopal,"Idgah Hills, Bhopal - MPPCB",14-01-2026 08:00:00,23.264759,77.381568,PM2.5,67,305,146
India,Karnataka,Tumakuru,"Thimmalapura, Tumakuru - KSPCB",14-01-2026 08:00:00,13.377516,77.099072,PM10,NA,NA,NA
India,Karnataka,Tumakuru,"Thimmalapura, Tumakuru - KSPCB",14-01-2026 08:00:00,13.377516,77.099072,SO2,NA,NA,NA
India,Karnataka,Tumakuru,"Thimmalapura, Tumakuru - KSPCB",14-01-2026 08:00:00,13.377516,77.099072,OZONE,23,23,23
India,Karnataka,Vijayapura,"Ibrahimpur, Vijayapura - KSPCB",14-01-2026 08:00:00,16.802639,75.722694,NO2,11,12,11
India,Karnataka,Vijayapura,"Ibrahimpur, Vijayapura - KSPCB",14-01-2026 08:00:00,16.802639,75.722694,OZONE,16,16,16
India,Karnataka,Yadgir,"Collector Office, Yadgir - KSPCB",14-01-2026 08:00:00,16.7602,77.1428,PM2.5,44,81,58
India,Kerala,Eloor,"Udyogamandal, Eloor - Kerala PCB",14-01-2026 08:00:00,10.073232,76.302765,SO2,NA,NA,NA
India,Kerala,Eloor,"Udyogamandal, Eloor - Kerala PCB",14-01-2026 08:00:00,10.073232,76.302765,CO,NA,NA,NA
India,Madhya Pradesh,Bhopal,"Idgah Hills, Bhopal - MPPCB",14-01-2026 08:00:00,23.264759,77.381568,PM10,87,194,128
India,Madhya Pradesh,Bhopal,"Idgah Hills, Bhopal - MPPCB",14-01-2026 08:00:00,23.264759,77.381568,OZONE,29,95,43
India,Madhya Pradesh,Bhopal,"Paryavaran Parisar, Bhopal - MPPCB",14-01-2026 08:00:00,23.210494,77.425409,PM2.5,80,352,192
India,Madhya Pradesh,Bhopal,"Paryavaran Parisar, Bhopal - MPPCB",14-01-2026 08:00:00,23.210494,77.425409,PM10,89,304,166
India,Madhya Pradesh,Bhopal,"T T Nagar, Bhopal - MPPCB",14-01-2026 08:00:00,23.233584,77.400574,NO2,56,104,86
India,Madhya Pradesh,Dewas,"Bhopal Chauraha, Dewas - MPPCB",14-01-2026 08:00:00,22.9682591,76.064118,SO2,25,40,33
