country,state,city,station,last_update,latitude,longitude,pollutant_id,min_value,max_value,avg_value
India,Assam,Guwahati,"Pan Bazaar, Guwahati - PCBA",22-12-2025 08:00:00,26.187500,91.744194,SO2,17,36,25
India,Assam,Guwahati,"Pan Bazaar, Guwahati - PCBA",22-12-2025 08:00:00,26.187500,91.744194,OZONE,17,18,17
India,Assam,Guwahati,"Railway Colony, Guwahati - PCBA",22-12-2025 08:00:00,26.181742,91.78063,PM10,69,309,173
India,Assam,Guwahati,"Railway Colony, Guwahati - PCBA",22-12-2025 08:00:00,26.181742,91.78063,CO,32,111,95
India,Assam,Nagaon,"Christianpatty, Nagaon - PCBA",22-12-2025 08:00:00,26.349082,92.68449,PM2.5,NA,NA,NA
India,Assam,Nalbari,"Bata Chowk, Nalbari - PCBA",22-12-2025 08:00:00,26.446912,91.439057,PM10,106,126,116
India,Assam,Nalbari,"Bata Chowk, Nalbari - PCBA",22-12-2025 08:00:00,26.446912,91.439057,CO,20,22,21
India,Assam,Nalbari,"Bata Chowk, Nalbari - PCBA",22-12-2025 08:00:00,26.446912,91.439057,OZONE,16,16,16
India,Assam,Silchar,"Tarapur, Silchar - PCBA",22-12-2025 08:00:00,24.82827,92.79525,NO2,21,29,24
India,Assam,Silchar,"Tarapur, Silchar - PCBA",22-12-2025 08:00:00,24.82827,92.79525,CO,2,44,8
India,Bihar,Gaya,"Kareemganj, Gaya - BSPCB",22-12-2025 08:00:00,24.792403,84.992416,NO2,2,7,5
India,Bihar,Gaya,"Kareemganj, Gaya - BSPCB",22-12-2025 08:00:00,24.792403,84.992416,NH3,4,6,5
India,Bihar,Hajipur,"Industrial Area, Hajipur - BSPCB",22-12-2025 08:00:00,25.697189,85.245900,NO2,19,31,24
India,Bihar,Hajipur,"Industrial Area, Hajipur - BSPCB",22-12-2025 08:00:00,25.697189,85.245900,OZONE,16,65,30
India,Bihar,Katihar,"Mirchaibari, Katihar - BSPCB",22-12-2025 08:00:00,25.560083,87.553265,NH3,1,1,1
India,Bihar,Katihar,"Mirchaibari, Katihar - BSPCB",22-12-2025 08:00:00,25.560083,87.553265,SO2,16,21,18
India,Bihar,Kishanganj,"SDM Office_Khagra, Kishanganj - BSPCB",22-12-2025 08:00:00,26.0881305,87.93840336,PM2.5,NA,NA,NA
India,Andhra_Pradesh,Visakhapatnam,"GVM Corporation, Visakhapatnam - APPCB",22-12-2025 08:00:00,17.72,83.3,NH3,4,4,4
India,Andhra_Pradesh,Visakhapatnam,"GVM Corporation, Visakhapatnam - APPCB",22-12-2025 08:00:00,17.72,83.3,OZONE,14,78,48
India,Arunachal_Pradesh,Naharlagun,"Naharlagun, Naharlagun - APSPCB",22-12-2025 08:00:00,27.103358,93.679645,NO2,6,7,7
India,Assam,Byrnihat,"Central Academy for SFS, Byrnihat - PCBA",22-12-2025 08:00:00,26.071318,91.87488,CO,17,60,51
India,Bihar,Bhagalpur,"Mayaganj, Bhagalpur - BSPCB",22-12-2025 08:00:00,25.265194,87.012947,CO,70,82,77
India,Bihar,Bihar Sharif,"D M Colony, Bihar Sharif - BSPCB",22-12-2025 08:00:00,25.204762,85.514960,SO2,10,10,10
India,Bihar,Chhapra,"Darshan Nagar, Chhapra - BSPCB",22-12-2025 08:00:00,25.7808257,84.7446768,NH3,5,12,8
India,Bihar,Chhapra,"Darshan Nagar, Chhapra - BSPCB",22-12-2025 08:00:00,25.7808257,84.7446768,CO,42,52,46
India,Bihar,Chhapra,"Darshan Nagar, Chhapra - BSPCB",22-12-2025 08:00:00,25.7808257,84.7446768,OZONE,14,18,16
India,Andhra_Pradesh,Kadapa,"Yerramukkapalli, Kadapa - APPCB",22-12-2025 08:00:00,14.465052,78.824187,NH3,3,3,3
India,Andhra_Pradesh,Kadapa,"Yerramukkapalli, Kadapa - APPCB",22-12-2025 08:00:00,14.465052,78.824187,OZONE,18,20,19
India,Andhra_Pradesh,Rajamahendravaram,"Anand Kala Kshetram, Rajamahendravaram - APPCB",22-12-2025 08:00:00,16.9872867,81.7363176,SO2,7,38,16
India,Andhra_Pradesh,Tirumala,"Toll Gate, Tirumala - APPCB",22-12-2025 08:00:00,13.67,79.35,PM2.5,106,303,238
India,Andhra_Pradesh,Vijayawada,"HB Colony, Vijayawada - APPCB",22-12-2025 08:00:00,16.536107,80.594233,PM10,76,113,95
India,Andhra_Pradesh,Vijayawada,"HB Colony, Vijayawada - APPCB",22-12-2025 08:00:00,16.536107,80.594233,OZONE,NA,NA,NA
India,Andhra_Pradesh,Vijayawada,"Rajiv Gandhi Park, Vijayawada - APPCB",22-12-2025 08:00:00,16.509717,80.612222,PM2.5,72,186,104
India,Andhra_Pradesh,Vijayawada,"Rajiv Gandhi Park, Vijayawada - APPCB",22-12-2025 08:00:00,16.509717,80.612222,NO2,10,106,47
India,Andhra_Pradesh,Vijayawada,"Rajiv Nagar, Vijayawada - APPCB",22-12-2025 08:00:00,16.554731,80.649110,OZONE,77,118,83
India,Bihar,Araria,"Kharahiya Basti, Araria - BSPCB",22-12-2025 08:00:00,26.146529,87.454184,NO2,2,77,17
India,Bihar,Araria,"Kharahiya Basti, Araria - BSPCB",22-12-2025 08:00:00,26.146529,87.454184,OZONE,9,10,10
India,Bihar,Arrah,"New DM Office, Arrah - BSPCB",22-12-2025 08:00:00,25.5626095,84.663264,NH3,1,1,1
India,Bihar,Aurangabad,"Gurdeo Nagar, Aurangabad - BSPCB",22-12-2025 08:00:00,24.75746,84.366208,PM2.5,NA,NA,NA
India,Andhra_Pradesh,Anantapur,"Gulzarpet, Anantapur - APPCB",22-12-2025 08:00:00,14.675886,77.593027,NO2,29,29,29
India,Andhra_Pradesh,Anantapur,"Gulzarpet, Anantapur - APPCB",22-12-2025 08:00:00,14.675886,77.593027,CO,38,58,44
India,Andaman and Nicobar,Sri Vijaya Puram,"Police Line, Sri Vijaya Puram - ANPCC",22-12-2025 08:00:00,11.654054,92.734055,CO,NA,NA,NA
India,Bihar,Bhagalpur,"DM Office_Kachari Chowk, Bhagalpur - BSPCB",22-12-2025 08:00:00,25.251013,86.989001,NO2,4,12,9
India,Delhi,Delhi,"Alipur, Delhi - DPCC",22-12-2025 08:00:00,28.815329,77.153010,PM10,222,439,361
India,Delhi,Delhi,"Alipur, Delhi - DPCC",22-12-2025 08:00:00,28.815329,77.153010,NO2,38,80,54
India,Delhi,Delhi,"Alipur, Delhi - DPCC",22-12-2025 08:00:00,28.815329,77.153010,OZONE,6,27,7
India,Delhi,Delhi,"Anand Vihar, Delhi - DPCC",22-12-2025 08:00:00,28.647622,77.3158090,PM10,237,428,327
India,Delhi,Delhi,"Anand Vihar, Delhi - DPCC",22-12-2025 08:00:00,28.647622,77.3158090,OZONE,8,12,11
India,Delhi,Delhi,"Ashok Vihar, Delhi - DPCC",22-12-2025 08:00:00,28.695381,77.181665,PM2.5,369,423,392
India,Delhi,Delhi,"Ashok Vihar, Delhi - DPCC",22-12-2025 08:00:00,28.695381,77.181665,NH3,7,9,8
India,Delhi,Delhi,"Aya Nagar, Delhi - IMD",22-12-2025 08:00:00,28.4706914,77.1099364,PM2.5,188,361,304
India,Bihar,Motihari,"Gandak Colony, Motihari - BSPCB",22-12-2025 08:00:00,26.63086,84.90051,CO,15,20,17
India,Bihar,Munger,"Town Hall, Munger - BSPCB",22-12-2025 08:00:00,25.376776,86.471523,SO2,34,58,46
India,Bihar,Munger,"Town Hall, Munger - BSPCB",22-12-2025 08:00:00,25.376776,86.471523,OZONE,12,23,16
India,Bihar,Muzaffarpur,"Buddha Colony, Muzaffarpur - BSPCB",22-12-2025 08:00:00,26.11442,85.39813,NH3,6,8,7
India,Bihar,Muzaffarpur,"Buddha Colony, Muzaffarpur - BSPCB",22-12-2025 08:00:00,26.11442,85.39813,SO2,4,10,6
India,Bihar,Muzaffarpur,"MIT-Daudpur Kothi, Muzaffarpur - BSPCB",22-12-2025 08:00:00,26.1403345,85.3650192,PM2.5,90,130,105
India,Bihar,Muzaffarpur,"MIT-Daudpur Kothi, Muzaffarpur - BSPCB",22-12-2025 08:00:00,26.1403345,85.3650192,OZONE,16,32,27
India,Bihar,Patna,"DRM Office Danapur, Patna - BSPCB",22-12-2025 08:00:00,25.586562,85.043586,NO2,27,54,38
India,Bihar,Patna,"DRM Office Danapur, Patna - BSPCB",22-12-2025 08:00:00,25.586562,85.043586,SO2,8,14,12
India,Bihar,Patna,"DRM Office Danapur, Patna - BSPCB",22-12-2025 08:00:00,25.586562,85.043586,CO,38,68,58
India,Bihar,Patna,"Govt. High School Shikarpur, Patna - BSPCB",22-12-2025 08:00:00,25.592539,85.227158,SO2,10,13,12
India,Bihar,Patna,"Govt. High School Shikarpur, Patna - BSPCB",22-12-2025 08:00:00,25.592539,85.227158,CO,54,86,66
India,Bihar,Patna,"Muradpur, Patna - BSPCB",22-12-2025 08:00:00,25.619651,85.147382,PM10,83,112,100
India,Bihar,Patna,"Muradpur, Patna - BSPCB",22-12-2025 08:00:00,25.619651,85.147382,SO2,7,10,8
India,Bihar,Patna,"Rajbansi Nagar, Patna - BSPCB",22-12-2025 08:00:00,25.599486,85.113666,PM10,83,124,109
India,Bihar,Patna,"Rajbansi Nagar, Patna - BSPCB",22-12-2025 08:00:00,25.599486,85.113666,SO2,5,7,6
India,Bihar,Patna,"Rajbansi Nagar, Patna - BSPCB",22-12-2025 08:00:00,25.599486,85.113666,OZONE,21,29,25
India,Bihar,Patna,"Samanpura, Patna - BSPCB",22-12-2025 08:00:00,25.596727,85.085624,PM10,97,130,116
India,Bihar,Patna,"Samanpura, Patna - BSPCB",22-12-2025 08:00:00,25.596727,85.085624,NO2,20,23,22
India,Chhattisgarh,Korba,"Rampur, Korba - CECB",22-12-2025 08:00:00,22.368195,82.746431,NO2,18,46,25
India,Chhattisgarh,Milupara,"Govt. Higher Secondary School, Milupara - CECB",22-12-2025 08:00:00,22.1910172,83.5197009,PM2.5,101,236,168
India,Chhattisgarh,Milupara,"Govt. Higher Secondary School, Milupara - CECB",22-12-2025 08:00:00,22.1910172,83.5197009,NH3,1,2,2
India,Chhattisgarh,Milupara,"Govt. Higher Secondary School, Milupara - CECB",22-12-2025 08:00:00,22.1910172,83.5197009,CO,31,74,44
India,Chhattisgarh,Milupara,"Govt. Higher Secondary School, Milupara - CECB",22-12-2025 08:00:00,22.1910172,83.5197009,OZONE,7,184,17
India,Chhattisgarh,Bhilai,"32Bungalows, Bhilai - CECB",22-12-2025 08:00:00,21.194815,81.314770,NO2,18,87,49
India,Chhattisgarh,Bhilai,"Civic Center, Bhilai - Bhilai Steel Plant",22-12-2025 08:00:00,21.185571,81.343175,PM10,33,101,55
India,Chhattisgarh,Bhilai,"Hathkhoj, Bhilai - CECB",22-12-2025 08:00:00,21.224231,81.408350,PM10,14,60,37
India,Chhattisgarh,Bhilai,"Hathkhoj, Bhilai - CECB",22-12-2025 08:00:00,21.224231,81.408350,CO,21,112,71
India,Chhattisgarh,Raipur,"AIIMS, Raipur - CECB",22-12-2025 08:00:00,21.258815,81.578979,CO,44,103,96
India,Chhattisgarh,Raipur,"Bhatagaon New ISBT, Raipur - CECB",22-12-2025 08:00:00,21.219665,81.630094,PM10,30,131,72
India,Chhattisgarh,Raipur,"Bhatagaon New ISBT, Raipur - CECB",22-12-2025 08:00:00,21.219665,81.630094,SO2,5,22,9
India,Bihar,Saharsa,"Police Line, Saharsa - BSPCB",22-12-2025 08:00:00,25.892357,86.590325,PM10,89,180,125
India,Bihar,Saharsa,"Police Line, Saharsa - BSPCB",22-12-2025 08:00:00,25.892357,86.590325,NO2,5,9,7
India,Bihar,Sasaram,"Dada Peer, Sasaram - BSPCB",22-12-2025 08:00:00,24.952822,84.002396,NO2,2,3,2
India,Bihar,Siwan,"Chitragupta Nagar, Siwan - BSPCB",22-12-2025 08:00:00,26.2271665,84.3570427,CO,80,84,84
India,Delhi,Delhi,"Major Dhyan Chand National Stadium, Delhi - DPCC",22-12-2025 08:00:00,28.611281,77.237738,NO2,44,83,59
India,Delhi,Delhi,"Mandir Marg, Delhi - DPCC",22-12-2025 08:00:00,28.636429,77.201067,PM2.5,290,348,325
India,Delhi,Delhi,"Mandir Marg, Delhi - DPCC",22-12-2025 08:00:00,28.636429,77.201067,PM10,211,368,265
India,Delhi,Delhi,"Mandir Marg, Delhi - DPCC",22-12-2025 08:00:00,28.636429,77.201067,CO,23,88,39
India,Delhi,Delhi,"Mundka, Delhi - DPCC",22-12-2025 08:00:00,28.684678,77.076574,NH3,15,19,17
India,Delhi,Delhi,"Mundka, Delhi - DPCC",22-12-2025 08:00:00,28.684678,77.076574,CO,58,102,70
India,Delhi,Delhi,"Jahangirpuri, Delhi - DPCC",22-12-2025 08:00:00,28.732820,77.170633,NO2,81,125,99
India,Delhi,Delhi,"Jahangirpuri, Delhi - DPCC",22-12-2025 08:00:00,28.732820,77.170633,NH3,5,7,6
India,Delhi,Delhi,"Jawaharlal Nehru Stadium, Delhi - DPCC",22-12-2025 08:00:00,28.580280,77.233829,NO2,39,92,62
India,Delhi,Delhi,"Jawaharlal Nehru Stadium, Delhi - DPCC",22-12-2025 08:00:00,28.580280,77.233829,NH3,20,22,21
India,Delhi,Delhi,"Jawaharlal Nehru Stadium, Delhi - DPCC",22-12-2025 08:00:00,28.580280,77.233829,SO2,15,21,18
India,Delhi,Delhi,"Lodhi Road, Delhi - IMD",22-12-2025 08:00:00,28.5918245,77.2273074,PM2.5,302,375,339
India,Delhi,Delhi,"Dr. Karni Singh Shooting Range, Delhi - DPCC",22-12-2025 08:00:00,28.498571,77.264840,NO2,10,43,23
India,Delhi,Delhi,"Dwarka-Sector 8, Delhi - DPCC ",22-12-2025 08:00:00,28.5710274,77.0719006,PM10,181,339,253
India,Delhi,Delhi,"Dwarka-Sector 8, Delhi - DPCC ",22-12-2025 08:00:00,28.5710274,77.0719006,OZONE,4,53,19
India,Delhi,Delhi,"Pusa, Delhi - DPCC",22-12-2025 08:00:00,28.639652,77.146275,NO2,38,99,61
India,Delhi,Delhi,"Pusa, Delhi - DPCC",22-12-2025 08:00:00,28.639652,77.146275,SO2,3,6,4
India,Delhi,Delhi,"Pusa, Delhi - IMD",22-12-2025 08:00:00,28.636110,77.173332,PM2.5,302,369,337
India,Delhi,Delhi,"Pusa, Delhi - IMD",22-12-2025 08:00:00,28.636110,77.173332,CO,64,106,78
India,Delhi,Delhi,"IGI Airport (T3), Delhi - IMD",22-12-2025 08:00:00,28.5627763,77.1180053,NO2,40,80,55
India,Delhi,Delhi,"IGI Airport (T3), Delhi - IMD",22-12-2025 08:00:00,28.5627763,77.1180053,OZONE,9,37,15
India,Delhi,Delhi,"IIT Delhi, Delhi - IITM",22-12-2025 08:00:00,28.542460,77.191651,PM2.5,304,362,336
India,Delhi,Delhi,"Okhla Phase-2, Delhi - DPCC",22-12-2025 08:00:00,28.530785,77.271255,SO2,3,7,6
India,Delhi,Delhi,"Patparganj, Delhi - DPCC",22-12-2025 08:00:00,28.623763,77.287209,PM2.5,327,420,360
India,Delhi,Delhi,"Patparganj, Delhi - DPCC",22-12-2025 08:00:00,28.623763,77.287209,SO2,6,16,10
India,Delhi,Delhi,"Bawana, Delhi - DPCC",22-12-2025 08:00:00,28.776200,77.051074,NO2,18,61,32
India,Delhi,Delhi,"Burari Crossing, Delhi - IMD",22-12-2025 08:00:00,28.7256504,77.2011573,CO,51,104,64
India,Delhi,Delhi,"Nehru Nagar, Delhi - DPCC",22-12-2025 08:00:00,28.567890,77.250515,NO2,33,61,45
India,Delhi,Delhi,"Nehru Nagar, Delhi - DPCC",22-12-2025 08:00:00,28.567890,77.250515,NH3,7,8,7
India,Delhi,Delhi,"Nehru Nagar, Delhi - DPCC",22-12-2025 08:00:00,28.567890,77.250515,CO,18,70,37
India,Delhi,Delhi,"R K Puram, Delhi - DPCC",22-12-2025 08:00:00,28.563262,77.186937,SO2,19,30,25
India,Delhi,Delhi,"Rohini, Delhi - DPCC",22-12-2025 08:00:00,28.732528,77.119920,PM2.5,357,497,402
India,Gujarat,Ahmedabad,"Raikhad, Ahmedabad - IITM",22-12-2025 08:00:00,23.020509,72.579261,PM2.5,77,188,116
India,Gujarat,Ahmedabad,"Raikhad, Ahmedabad - IITM",22-12-2025 08:00:00,23.020509,72.579261,NO2,20,95,47
India,Gujarat,Ahmedabad,"Rakhial, Ahmedabad - IITM",22-12-2025 08:00:00,23.016834,72.625775,OZONE,10,61,26
India,Gujarat,Ahmedabad,"SAC ISRO Bopal, Ahmedabad - IITM",22-12-2025 08:00:00,23.041137,72.456691,PM10,73,160,114
India,Gujarat,Ahmedabad,"SAC ISRO Bopal, Ahmedabad - IITM",22-12-2025 08:00:00,23.041137,72.456691,NO2,30,57,43
India,Gujarat,Ahmedabad,"SAC ISRO Bopal, Ahmedabad - IITM",22-12-2025 08:00:00,23.041137,72.456691,CO,4,24,16
India,Gujarat,Ahmedabad,"SAC ISRO Satellite, Ahmedabad - IITM",22-12-2025 08:00:00,23.023389,72.515201,PM10,62,105,82
India,Gujarat,Ankleshwar,"GIDC, Ankleshwar - GPCB",22-12-2025 08:00:00,21.613267,73.010555,CO,26,86,61
India,Gujarat,Gandhinagar,"GIFT City, Gandhinagar - IITM",22-12-2025 08:00:00,23.163798,72.677768,PM2.5,30,82,54
India,Gujarat,Gandhinagar,"GIFT City, Gandhinagar - IITM",22-12-2025 08:00:00,23.163798,72.677768,PM10,97,184,129
India,Gujarat,Ahmedabad,"Chandkheda, Ahmedabad - IITM",22-12-2025 08:00:00,23.107969,72.574648,NH3,5,12,8
India,Gujarat,Ahmedabad,"Gyaspur, Ahmedabad - IITM",22-12-2025 08:00:00,22.977134,72.553024,PM2.5,74,265,158
India,Gujarat,Ahmedabad,"Gyaspur, Ahmedabad - IITM",22-12-2025 08:00:00,22.977134,72.553024,SO2,5,104,43
India,Delhi,Delhi,"Sri Aurobindo Marg, Delhi - DPCC",22-12-2025 08:00:00,28.531346,77.190156,OZONE,1,39,13
India,Delhi,Delhi,"Vivek Vihar, Delhi - DPCC",22-12-2025 08:00:00,28.672342,77.315260,PM2.5,357,436,388
India,Delhi,Delhi,"Sri Aurobindo Marg, Delhi - DPCC",22-12-2025 08:00:00,28.531346,77.190156,NO2,26,58,35
India,Delhi,Delhi,"Shadipur, Delhi - CPCB",22-12-2025 08:00:00,28.6514781,77.1473105,PM10,164,234,203
India,Delhi,Delhi,"Sirifort, Delhi - CPCB",22-12-2025 08:00:00,28.5504249,77.2159377,OZONE,13,24,18
India,Delhi,Delhi,"Sonia Vihar, Delhi - DPCC",22-12-2025 08:00:00,28.710508,77.249485,NO2,32,64,46
India,Delhi,Delhi,"Vivek Vihar, Delhi - DPCC",22-12-2025 08:00:00,28.672342,77.315260,SO2,10,22,12
India,Gujarat,Surat,"Science Center, Surat - SMC",22-12-2025 08:00:00,21.170046,72.795405,SO2,24,45,28
India,Gujarat,Vapi,"Phase-1 GIDC, Vapi - GPCB",22-12-2025 08:00:00,20.362421,72.918013,SO2,NA,NA,NA
India,Haryana,Ambala,"Patti Mehar, Ambala - HSPCB",22-12-2025 08:00:00,30.379589,76.778328,PM2.5,87,197,125
India,Haryana,Ambala,"Patti Mehar, Ambala - HSPCB",22-12-2025 08:00:00,30.379589,76.778328,NH3,9,11,10
India,Haryana,Bahadurgarh,"Arya Nagar, Bahadurgarh - HSPCB",22-12-2025 08:00:00,28.6701,76.9254,PM2.5,46,500,315
India,Haryana,Bahadurgarh,"Arya Nagar, Bahadurgarh - HSPCB",22-12-2025 08:00:00,28.6701,76.9254,CO,42,51,47
India,Haryana,Ballabgarh,"Nathu Colony, Ballabgarh - HSPCB",22-12-2025 08:00:00,28.3419248,77.319699,PM2.5,180,260,214
India,Haryana,Kurukshetra,"Sector-7, Kurukshetra - HSPCB",22-12-2025 08:00:00,29.966942,76.875879,NO2,16,21,18
India,Haryana,Mandikhera,"General Hospital, Mandikhera(Nuh) - HSPCB",22-12-2025 08:00:00,27.9002,76.9938,PM2.5,75,143,106
India,Haryana,Mandikhera,"General Hospital, Mandikhera(Nuh) - HSPCB",22-12-2025 08:00:00,27.9002,76.9938,NO2,19,24,21
India,Haryana,Manesar,"Sector-2 IMT, Manesar - HSPCB",22-12-2025 08:00:00,28.360699,76.936090,NO2,79,94,84
India,Haryana,Manesar,"Sector-2 IMT, Manesar - HSPCB",22-12-2025 08:00:00,28.360699,76.936090,NH3,20,24,22
India,Haryana,Narnaul,"Shastri Nagar, Narnaul - HSPCB",22-12-2025 08:00:00,28.060249,76.113115,NH3,25,53,41
India,Haryana,Narnaul,"Shastri Nagar, Narnaul - HSPCB",22-12-2025 08:00:00,28.060249,76.113115,OZONE,17,83,17
India,Haryana,Panchgaon,"Amity University, Panchgaon - IITM",22-12-2025 08:00:00,28.3153,76.9143,SO2,5,9,7
India,Haryana,Panchkula,"Sector-6, Panchkula - HSPCB ",22-12-2025 08:00:00,30.7057778,76.8531805555555,NO2,23,26,25
India,Haryana,Panipat,"Sector-18, Panipat - HSPCB",22-12-2025 08:00:00,29.432304,76.972765,PM2.5,155,157,156
India,Haryana,Fatehabad,"Huda Sector, Fatehabad - HSPCB",22-12-2025 08:00:00,29.503664,75.467934,NH3,13,14,14
India,Haryana,Gurugram,"NISE Gwal Pahari, Gurugram - IMD",22-12-2025 08:00:00,28.422681,77.148944,OZONE,3,10,7
India,Haryana,Gurugram,"Sector-51, Gurugram - HSPCB",22-12-2025 08:00:00,28.4227,77.0667,OZONE,10,46,11
India,Haryana,Faridabad,"Sector 11, Faridabad - HSPCB",22-12-2025 08:00:00,28.376058,77.315741,PM2.5,84,323,220
India,Haryana,Faridabad,"Sector 11, Faridabad - HSPCB",22-12-2025 08:00:00,28.376058,77.315741,SO2,4,62,7
India,Haryana,Faridabad,"Sector 30, Faridabad - HSPCB",22-12-2025 08:00:00,28.4417,77.3217,NH3,10,12,11
India,Haryana,Faridabad,"Sector 30, Faridabad - HSPCB",22-12-2025 08:00:00,28.4417,77.3217,SO2,6,7,6
India,Haryana,Bhiwani,"H.B. Colony, Bhiwani - HSPCB",22-12-2025 08:00:00,28.806223,76.141105,PM2.5,119,359,179
India,Haryana,Bhiwani,"H.B. Colony, Bhiwani - HSPCB",22-12-2025 08:00:00,28.806223,76.141105,OZONE,7,19,15
India,Haryana,Dharuhera,"Municipal Corporation Office, Dharuhera -  HSPCB",22-12-2025 08:00:00,28.206800,76.799700,NH3,NA,NA,NA
India,Haryana,Rohtak,"MD University, Rohtak - HSPCB",22-12-2025 08:00:00,28.52123,76.37138,PM2.5,146,332,238
India,Haryana,Rohtak,"MD University, Rohtak - HSPCB",22-12-2025 08:00:00,28.52123,76.37138,OZONE,39,40,39
India,Haryana,Sirsa,"F-Block, Sirsa - HSPCB",22-12-2025 08:00:00,29.536400,75.015800,SO2,8,26,15
India,Gujarat,Gandhinagar,"IIPHG Lekawada, Gandhinagar - IITM",22-12-2025 08:00:00,23.243639,72.68994,PM2.5,46,132,85
India,Gujarat,Gandhinagar,"IIPHG Lekawada, Gandhinagar - IITM",22-12-2025 08:00:00,23.243639,72.68994,OZONE,2,37,5
India,Gujarat,Gandhinagar,"Sector-10, Gandhinagar - GPCB",22-12-2025 08:00:00,23.221714,72.654328,PM10,31,101,63
India,Haryana,Gurugram,"Teri Gram, Gurugram - HSPCB",22-12-2025 08:00:00,28.4275,77.1465,PM10,173,256,215
India,Haryana,Kaithal,"Rishi Nagar, Kaithal - HSPCB",22-12-2025 08:00:00,29.8006,76.4155,NO2,30,33,31
India,Karnataka,Davanagere,"Devaraj Urs Badavane, Davanagere - KSPCB",22-12-2025 08:00:00,14.475800,75.905200,SO2,3,8,6
India,Karnataka,Hubballi,"Lingaraj Nagar, Hubballi - KSPCB",22-12-2025 08:00:00,15.3714823,75.1160168,PM10,59,79,60
India,Karnataka,Kalaburagi,"Mahatma Basaveswar Colony, Kalaburgi - KSPCB",22-12-2025 08:00:00,17.336318,76.847397,PM10,20,62,47
India,Karnataka,Kalaburagi,"Mahatma Basaveswar Colony, Kalaburgi - KSPCB",22-12-2025 08:00:00,17.336318,76.847397,NH3,2,4,3
India,Karnataka,Kalaburagi,"Mahatma Basaveswar Colony, Kalaburgi - KSPCB",22-12-2025 08:00:00,17.336318,76.847397,SO2,3,7,3
India,Karnataka,Kalaburagi,"Mahatma Basaveswar Colony, Kalaburgi - KSPCB",22-12-2025 08:00:00,17.336318,76.847397,OZONE,13,18,15
India,Karnataka,Koppal,"Diwator Nagar, Koppal - KSPCB",22-12-2025 08:00:00,15.347630,76.181767,CO,16,20,18
India,Karnataka,Madikeri,"Stuart Hill, Madikeri - KSPCB",22-12-2025 08:00:00,12.415911,75.735050,PM10,42,64,54
India,Himachal Pradesh,Baddi,"HIMUDA Complex Phase-1, Baddi - HPPCB",22-12-2025 08:00:00,30.943887,76.801991,OZONE,7,96,19
India,Jammu_and_Kashmir,Srinagar,"Khunmoh, Srinagar - JKPCC",22-12-2025 08:00:00,34.06313,74.96017,PM2.5,21,218,105
India,Jammu_and_Kashmir,Srinagar,"Rajbagh, Srinagar - JKPCC",22-12-2025 08:00:00,34.066206,74.819820,CO,19,30,23
India,Jharkhand,Dhanbad,"Sardar Patel Nagar, Dhanbad - JSPCB",22-12-2025 08:00:00,23.80569,86.44268,OZONE,NA,NA,NA
India,Karnataka,Mangalore,"Kadri, Mangalore - KSPCB",22-12-2025 08:00:00,12.889250,74.853000,PM2.5,70,182,93
India,Karnataka,Mangalore,"Kadri, Mangalore - KSPCB",22-12-2025 08:00:00,12.889250,74.853000,NO2,9,10,9
India,Karnataka,Mangalore,"Kadri, Mangalore - KSPCB",22-12-2025 08:00:00,12.889250,74.853000,OZONE,5,45,25
India,Karnataka,Mysuru,"Hebbal 1st Stage, Mysuru - KSPCB",22-12-2025 08:00:00,12.21041,76.37376,PM10,58,109,80
India,Karnataka,Mysuru,"Hebbal 1st Stage, Mysuru - KSPCB",22-12-2025 08:00:00,12.21041,76.37376,NO2,17,26,21
India,Karnataka,Mysuru,"Hebbal 1st Stage, Mysuru - KSPCB",22-12-2025 08:00:00,12.21041,76.37376,SO2,3,8,5
India,Karnataka,Bengaluru,"Silk Board, Bengaluru - KSPCB",22-12-2025 08:00:00,12.917348,77.622813,NH3,2,2,2
India,Karnataka,Bengaluru,"Silk Board, Bengaluru - KSPCB",22-12-2025 08:00:00,12.917348,77.622813,SO2,8,10,9
India,Karnataka,Chamarajanagar,"Urban, Chamarajanagar - KSPCB",22-12-2025 08:00:00,11.55358,76.55521,PM2.5,17,38,29
India,Karnataka,Chamarajanagar,"Urban, Chamarajanagar - KSPCB",22-12-2025 08:00:00,11.55358,76.55521,SO2,2,5,4
India,Karnataka,Davanagere,"Devaraj Urs Badavane, Davanagere - KSPCB",22-12-2025 08:00:00,14.475800,75.905200,NH3,2,3,3
India,Karnataka,Bengaluru,"BTM Layout, Bengaluru - CPCB",22-12-2025 08:00:00,12.9135218,77.5950804,SO2,19,20,19
India,Karnataka,Bengaluru,"BTM Layout, Bengaluru - CPCB",22-12-2025 08:00:00,12.9135218,77.5950804,OZONE,21,21,21
India,Karnataka,Bengaluru,"City Railway Station, Bengaluru - KSPCB",22-12-2025 08:00:00,12.9756843,77.5660749,NO2,31,34,32
India,Karnataka,Bengaluru,"City Railway Station, Bengaluru - KSPCB",22-12-2025 08:00:00,12.9756843,77.5660749,CO,67,75,72
India,Karnataka,Bengaluru,"Hebbal, Bengaluru - KSPCB",22-12-2025 08:00:00,13.029152,77.585901,PM2.5,102,374,200
India,Karnataka,Tumakuru,"Thimmalapura, Tumakuru - KSPCB",22-12-2025 08:00:00,13.377516,77.099072,PM10,122,175,143
India,Karnataka,Tumakuru,"Thimmalapura, Tumakuru - KSPCB",22-12-2025 08:00:00,13.377516,77.099072,NH3,6,6,6
India,Karnataka,Tumakuru,"Thimmalapura, Tumakuru - KSPCB",22-12-2025 08:00:00,13.377516,77.099072,SO2,26,27,26
India,Kerala,Kannur,"Thavakkara, Kannur - Kerala PCB",22-12-2025 08:00:00,11.875000,75.373200,PM10,63,65,64
India,Kerala,Thrissur,"Corporation Ground, Thrissur - Kerala PCB",22-12-2025 08:00:00,10.532400,76.215900,CO,32,38,35
India,Kerala,Thrissur,"Corporation Ground, Thrissur - Kerala PCB",22-12-2025 08:00:00,10.532400,76.215900,OZONE,29,30,29
India,Madhya Pradesh,Bhopal,"Idgah Hills, Bhopal - MPPCB",22-12-2025 08:00:00,23.264759,77.381568,NO2,17,48,29
India,Karnataka,Bengaluru,"Jayanagar 5th Block, Bengaluru - KSPCB",22-12-2025 08:00:00,12.920984,77.584908,NO2,12,32,20
India,Karnataka,Bengaluru,"Jayanagar 5th Block, Bengaluru - KSPCB",22-12-2025 08:00:00,12.920984,77.584908,OZONE,20,61,50
India,Karnataka,Bengaluru,"Jigani, Bengaluru - KSPCB",22-12-2025 08:00:00,12.7816279,77.6299145,PM2.5,43,500,84
India,Haryana,Yamuna Nagar,"Gobind Pura, Yamuna Nagar - HSPCB",22-12-2025 08:00:00,30.1480566,77.2893471,NH3,NA,NA,NA
India,Haryana,Yamuna Nagar,"Gobind Pura, Yamuna Nagar - HSPCB",22-12-2025 08:00:00,30.1480566,77.2893471,SO2,NA,NA,NA
India,Haryana,Yamuna Nagar,"Gobind Pura, Yamuna Nagar - HSPCB",22-12-2025 08:00:00,30.1480566,77.2893471,OZONE,NA,NA,NA
India,Madhya Pradesh,Indore,"Chhoti Gwaltoli, Indore - MPPCB",22-12-2025 08:00:00,22.4310,75.5213,SO2,1,6,3
India,Madhya Pradesh,Indore,"Chhoti Gwaltoli, Indore - MPPCB",22-12-2025 08:00:00,22.4310,75.5213,OZONE,5,56,29
India,Madhya Pradesh,Indore,"Regional Park, Indore - IMC",22-12-2025 08:00:00,22.6780,75.8559,NO2,7,12,10
India,Madhya Pradesh,Gwalior,"Maharaj Bada, Gwalior - MPPCB",22-12-2025 08:00:00,26.200388,78.147714,PM2.5,133,283,208
India,Madhya Pradesh,Gwalior,"Maharaj Bada, Gwalior - MPPCB",22-12-2025 08:00:00,26.200388,78.147714,NO2,15,89,43
India,Madhya Pradesh,Gwalior,"Maharaj Bada, Gwalior - MPPCB",22-12-2025 08:00:00,26.200388,78.147714,SO2,6,11,8
India,Madhya Pradesh,Bhopal,"T T Nagar, Bhopal - MPPCB",22-12-2025 08:00:00,23.233584,77.400574,NH3,6,7,7
India,Madhya Pradesh,Damoh,"Shrivastav Colony, Damoh - MPPCB",22-12-2025 08:00:00,23.81748678,79.446246,SO2,4,11,6
India,Madhya Pradesh,Indore,"Airport Area, Indore - IMC",22-12-2025 08:00:00,22.7289,75.8076,PM10,30,130,72
India,Madhya Pradesh,Indore,"Airport Area, Indore - IMC",22-12-2025 08:00:00,22.7289,75.8076,NO2,2,3,2
India,Madhya Pradesh,Dewas,"Bhopal Chauraha, Dewas - MPPCB",22-12-2025 08:00:00,22.9682591,76.064118,PM10,50,185,94
India,Madhya Pradesh,Dewas,"Bhopal Chauraha, Dewas - MPPCB",22-12-2025 08:00:00,22.9682591,76.064118,CO,14,34,18
India,Madhya Pradesh,Gwalior,"City Center, Gwalior - MPPCB",22-12-2025 08:00:00,26.203442,78.193251,NO2,14,40,22
India,Madhya Pradesh,Gwalior,"City Center, Gwalior - MPPCB",22-12-2025 08:00:00,26.203442,78.193251,SO2,10,14,12
India,Madhya Pradesh,Jabalpur,"Gupteshwar, Jabalpur - JMC",22-12-2025 08:00:00,23.142888,79.916147,SO2,13,16,14
India,Madhya Pradesh,Indore,"Residency Area, Indore - IMC",22-12-2025 08:00:00,22.7084,75.8815,CO,18,23,19
India,Madhya Pradesh,Jabalpur,"Suhagi, Jabalpur - JMC",22-12-2025 08:00:00,23.218135,79.957770,NH3,1,6,4
India,Madhya Pradesh,Satna,"Bandhavgar Colony, Satna - Birla Cement",22-12-2025 08:00:00,24.58434363,80.8549414,SO2,18,22,20
India,Madhya Pradesh,Singrauli,"Suryakiran Bhawan NCL, Singrauli - MPPCB",22-12-2025 08:00:00,24.108970,82.645580,PM2.5,301,379,325
India,Madhya Pradesh,Singrauli,"Suryakiran Bhawan NCL, Singrauli - MPPCB",22-12-2025 08:00:00,24.108970,82.645580,PM10,252,409,333
India,Madhya Pradesh,Maihar,"Sahilara, Maihar - KJS Cements",22-12-2025 08:00:00,24.2613009,80.7231783,PM10,67,118,102
India,Madhya Pradesh,Maihar,"Sahilara, Maihar - KJS Cements",22-12-2025 08:00:00,24.2613009,80.7231783,SO2,17,17,17
India,Madhya Pradesh,Mandideep,"Sector-D Industrial Area, Mandideep - MPPCB",22-12-2025 08:00:00,23.108440,77.511428,NH3,1,4,2
India,Madhya Pradesh,Singrauli,"Suryakiran Bhawan NCL, Singrauli - MPPCB",22-12-2025 08:00:00,24.108970,82.645580,CO,76,102,99
India,Maharashtra,Ahmednagar,"Tarakpur, Ahmednagar - MPCB",22-12-2025 08:00:00,19.10122,74.73339,CO,16,124,41
India,Madhya Pradesh,Pithampur,"Sector-2 Industrial Area, Pithampur - MPPCB",22-12-2025 08:00:00,22.624758,75.675238,OZONE,18,38,25
India,Madhya Pradesh,Ratlam,"Shasthri Nagar, Ratlam - IPCA Lab",22-12-2025 08:00:00,23.331731,75.045981,PM2.5,18,116,64
India,Madhya Pradesh,Sagar,"Civil Lines, Sagar - MPPCB",22-12-2025 08:00:00,23.838586,78.759431,PM10,55,204,109
India,Madhya Pradesh,Sagar,"Civil Lines, Sagar - MPPCB",22-12-2025 08:00:00,23.838586,78.759431,NH3,1,4,2
India,Madhya Pradesh,Katni,"Gole Bazar, Katni - MPPCB",22-12-2025 08:00:00,23.50016,80.23284,NH3,NA,NA,NA
India,Madhya Pradesh,Katni,"Gole Bazar, Katni - MPPCB",22-12-2025 08:00:00,23.50016,80.23284,CO,NA,NA,NA
India,Madhya Pradesh,Katni,"Gole Bazar, Katni - MPPCB",22-12-2025 08:00:00,23.50016,80.23284,OZONE,NA,NA,NA
India,Madhya Pradesh,Ratlam,"Shasthri Nagar, Ratlam - IPCA Lab",22-12-2025 08:00:00,23.331731,75.045981,NO2,4,20,9
India,Madhya Pradesh,Ratlam,"Shasthri Nagar, Ratlam - IPCA Lab",22-12-2025 08:00:00,23.331731,75.045981,SO2,33,37,35
India,Madhya Pradesh,Sagar,"Deen Dayal Nagar, Sagar - MPPCB",22-12-2025 08:00:00,23.8640158,78.80289321,CO,58,87,75
India,Maharashtra,Akola,"Ramdaspeth, Akola - MPCB",22-12-2025 08:00:00,20.719516,77.000253,NH3,4,6,5
India,Maharashtra,Mahad,"Kamble Tarf Birwadi, Mahad - MPCB",22-12-2025 08:00:00,18.1023399,73.4783687,CO,30,64,42
India,Maharashtra,Malegaon,"Mahesh Nagar, Malegaon - MPCB",22-12-2025 08:00:00,20.555712,74.529236,PM10,69,412,148
India,Maharashtra,Mira-Bhayandar,"Bhayandar West, Mira-Bhayandar - MPCB",22-12-2025 08:00:00,19.296481,72.840923,NH3,NA,NA,NA
India,Maharashtra,Mumbai,"Bandra Kurla Complex, Mumbai - MPCB",22-12-2025 08:00:00,19.065931,72.862131,NH3,17,19,18
India,Maharashtra,Mumbai,"Bandra Kurla Complex, Mumbai - MPCB",22-12-2025 08:00:00,19.065931,72.862131,SO2,2,19,6
India,Maharashtra,Mumbai,"Bandra Kurla Complex, Mumbai - MPCB",22-12-2025 08:00:00,19.065931,72.862131,OZONE,1,77,1
India,Maharashtra,Mumbai,"Borivali East, Mumbai - IITM",22-12-2025 08:00:00,19.23241,72.86895,PM10,47,115,78
India,Maharashtra,Mumbai,"Borivali East, Mumbai - IITM",22-12-2025 08:00:00,19.23241,72.86895,NH3,3,9,6
India,Maharashtra,Kalyan,"Pimpleshwar Mandir, Kalyan - MPCB",22-12-2025 08:00:00,19.192056,72.9585188,SO2,9,34,18
India,Maharashtra,Kolhapur,"Shivaji University, Kolhapur - MPCB",22-12-2025 08:00:00,16.6870449,74.2505872,PM2.5,60,140,97
India,Maharashtra,Kolhapur,"Shivaji University, Kolhapur - MPCB",22-12-2025 08:00:00,16.6870449,74.2505872,CO,20,64,40
India,Maharashtra,Kolhapur,"Sinchan Bhavan, Kolhapur - MPCB",22-12-2025 08:00:00,16.7143745,74.2426398,PM10,49,117,80
India,Maharashtra,Kolhapur,"Sinchan Bhavan, Kolhapur - MPCB",22-12-2025 08:00:00,16.7143745,74.2426398,NH3,6,20,11
India,Maharashtra,Kolhapur,"Sinchan Bhavan, Kolhapur - MPCB",22-12-2025 08:00:00,16.7143745,74.2426398,CO,25,74,46
India,Maharashtra,Latur,"Sawe Wadi, Latur - MPCB",22-12-2025 08:00:00,18.39963,76.57452,NO2,22,45,31
India,Maharashtra,Latur,"Sawe Wadi, Latur - MPCB",22-12-2025 08:00:00,18.39963,76.57452,CO,22,44,29
India,Maharashtra,Akola,"Ramdaspeth, Akola - MPCB",22-12-2025 08:00:00,20.719516,77.000253,CO,12,100,28
India,Maharashtra,Amravati,"Shivneri Colony, Amravati - MPCB",22-12-2025 08:00:00,20.9402359,77.7895248,OZONE,2,51,12
India,Maharashtra,Amravati,"Shri Shivaji Science College, Amravati - MPCB",22-12-2025 08:00:00,20.939198,77.765701,PM2.5,40,166,93
India,Maharashtra,Amravati,"Shri Shivaji Science College, Amravati - MPCB",22-12-2025 08:00:00,20.939198,77.765701,CO,24,103,46
India,Maharashtra,Chandrapur,"Chauhan Colony, Chandrapur - MPCB",22-12-2025 08:00:00,19.962900,79.298714,CO,46,76,73
India,Maharashtra,Chandrapur,"MIDC Khutala, Chandrapur - MPCB",22-12-2025 08:00:00,19.9775302,79.2337086,SO2,8,9,9
India,Maharashtra,Dhule,"Deopur, Dhule - MPCB",22-12-2025 08:00:00,20.918946,74.776388,CO,8,87,34
India,Maharashtra,Dhule,"Deopur, Dhule - MPCB",22-12-2025 08:00:00,20.918946,74.776388,OZONE,15,64,44
India,Maharashtra,Belapur,"CBD Belapur, Belapur - MPCB",22-12-2025 08:00:00,19.0243902,73.0406721,SO2,7,31,14
India,Maharashtra,Bhiwandi,"Gokul Nagar, Bhiwandi - MPCB",22-12-2025 08:00:00,19.309073,73.057223,NO2,20,36,28
India,Maharashtra,Bhiwandi,"Gokul Nagar, Bhiwandi - MPCB",22-12-2025 08:00:00,19.309073,73.057223,SO2,6,14,8
India,Maharashtra,Boisar,"Khaira, Boisar - MPCB",22-12-2025 08:00:00,19.786089,72.757971,PM2.5,58,201,117
India,Maharashtra,Jalna,"Old MIDC, Jalna - MPCB",22-12-2025 08:00:00,19.854616,75.905894,CO,17,58,29
India,Maharashtra,Kalyan,"Khadakpada, Kalyan - MPCB",22-12-2025 08:00:00,19.25292,73.142019,PM10,40,194,103
India,Maharashtra,Mumbai,"Byculla, Mumbai - BMC",22-12-2025 08:00:00,18.9767,72.8380,NH3,11,49,26
India,Maharashtra,Mumbai,"Chakala-Andheri East, Mumbai - IITM",22-12-2025 08:00:00,19.11074,72.86084,OZONE,4,68,5
India,Maharashtra,Mumbai,"Ghatkopar, Mumbai - BMC",22-12-2025 08:00:00,19.083694,72.920967,PM10,75,175,127
India,Maharashtra,Mumbai,"Ghatkopar, Mumbai - BMC",22-12-2025 08:00:00,19.083694,72.920967,NH3,1,7,3
India,Maharashtra,Mumbai,"Ghatkopar, Mumbai - BMC",22-12-2025 08:00:00,19.083694,72.920967,OZONE,2,99,3
India,Maharashtra,Mumbai,"Borivali East, Mumbai - MPCB",22-12-2025 08:00:00,19.2243333,72.8658113,NO2,NA,NA,NA
India,Maharashtra,Mumbai,"Borivali East, Mumbai - MPCB",22-12-2025 08:00:00,19.2243333,72.8658113,NH3,1,9,6
India,Maharashtra,Nashik,"Gangapur Road, Nashik - MPCB",22-12-2025 08:00:00,20.0073285,73.7762427,SO2,2,53,12
India,Maharashtra,Nashik,"Gangapur Road, Nashik - MPCB",22-12-2025 08:00:00,20.0073285,73.7762427,OZONE,10,66,24
India,Maharashtra,Nashik,"Hirawadi, Nashik - MPCB",22-12-2025 08:00:00,20.021503,73.813844,PM10,76,151,101
India,Maharashtra,Nashik,"Hirawadi, Nashik - MPCB",22-12-2025 08:00:00,20.021503,73.813844,NO2,5,52,16
India,Maharashtra,Nashik,"MIDC Ambad, Nashik - MPCB",22-12-2025 08:00:00,19.950220,73.731480,SO2,NA,NA,NA
India,Maharashtra,Nashik,"Pandav Nagari, Nashik - MPCB",22-12-2025 08:00:00,19.9591346,73.7788008,PM2.5,53,225,105
India,Maharashtra,Nashik,"Pandav Nagari, Nashik - MPCB",22-12-2025 08:00:00,19.9591346,73.7788008,PM10,54,142,86
India,Maharashtra,Nashik,"Pandav Nagari, Nashik - MPCB",22-12-2025 08:00:00,19.9591346,73.7788008,SO2,4,28,10
India,Maharashtra,Nashik,"Pandav Nagari, Nashik - MPCB",22-12-2025 08:00:00,19.9591346,73.7788008,CO,18,100,27
India,Maharashtra,Navi Mumbai,"Sector-2E Kalamboli, Navi Mumbai - MPCB",22-12-2025 08:00:00,19.02579,73.10297,CO,1,86,14
India,Maharashtra,Navi Mumbai,"Tondare-Taloja, Navi Mumbai - MPCB",22-12-2025 08:00:00,19.0630,73.1209,NH3,NA,NA,NA
India,Maharashtra,Navi Mumbai,"Tondare-Taloja, Navi Mumbai - MPCB",22-12-2025 08:00:00,19.0630,73.1209,OZONE,10,27,10
India,Maharashtra,Parbhani,"Masoom Colony, Parbhani - MPCB",22-12-2025 08:00:00,19.265594,76.761463,CO,8,14,12
India,Maharashtra,Parbhani,"Masoom Colony, Parbhani - MPCB",22-12-2025 08:00:00,19.265594,76.761463,OZONE,10,10,10
India,Maharashtra,Pimpri-Chinchwad,"Park Street Wakad, Pimpri Chinchwad - MPCB",22-12-2025 08:00:00,18.59051,73.77946,PM2.5,63,324,185
India,Maharashtra,Mumbai,"Mazgaon, Mumbai - IITM",22-12-2025 08:00:00,18.96702,72.84214,NH3,8,23,16
India,Maharashtra,Mumbai,"Mazgaon, Mumbai - IITM",22-12-2025 08:00:00,18.96702,72.84214,OZONE,4,82,7
India,Maharashtra,Mumbai,"Mindspace-Malad West, Mumbai - MPCB",22-12-2025 08:00:00,19.1878657,72.8304069,NH3,1,7,4
India,Maharashtra,Mumbai,"Mulund West, Mumbai - MPCB",22-12-2025 08:00:00,19.1750,72.9419,NO2,15,18,16
India,Maharashtra,Mumbai,"Mulund West, Mumbai - MPCB",22-12-2025 08:00:00,19.1750,72.9419,NH3,4,4,4
India,Maharashtra,Mumbai,"Navy Nagar-Colaba, Mumbai - IITM",22-12-2025 08:00:00,18.897756,72.813320,PM2.5,47,179,76
India,Maharashtra,Mumbai,"Navy Nagar-Colaba, Mumbai - IITM",22-12-2025 08:00:00,18.897756,72.813320,OZONE,6,83,13
India,Maharashtra,Mumbai,"Powai, Mumbai - MPCB",22-12-2025 08:00:00,19.137500,72.915056,OZONE,9,9,9
India,Maharashtra,Mumbai,"Sewri, Mumbai - BMC",22-12-2025 08:00:00,19.000084,72.856730,NO2,11,11,11
India,Maharashtra,Mumbai,"Shivaji Nagar, Mumbai - BMC",22-12-2025 08:00:00,19.060498,72.923356,PM2.5,26,205,107
India,Maharashtra,Mumbai,"Shivaji Nagar, Mumbai - BMC",22-12-2025 08:00:00,19.060498,72.923356,PM10,65,147,104
India,Maharashtra,Mumbai,"Shivaji Nagar, Mumbai - BMC",22-12-2025 08:00:00,19.060498,72.923356,CO,1,109,39
India,Maharashtra,Mumbai,"Siddharth Nagar-Worli, Mumbai - IITM",22-12-2025 08:00:00,19.000083,72.813993,NO2,NA,NA,NA
India,Maharashtra,Pimpri-Chinchwad,"Park Street Wakad, Pimpri Chinchwad - MPCB",22-12-2025 08:00:00,18.59051,73.77946,PM10,100,228,165
India,Maharashtra,Pimpri-Chinchwad,"Park Street Wakad, Pimpri Chinchwad - MPCB",22-12-2025 08:00:00,18.59051,73.77946,SO2,3,18,9
India,Maharashtra,Pimpri-Chinchwad,"Savta Mali Nagar, Pimpri-Chinchwad - IITM",22-12-2025 08:00:00,18.614767,73.799516,NO2,18,148,68
India,Maharashtra,Pimpri-Chinchwad,"Thergaon, Pimpri Chinchwad - MPCB",22-12-2025 08:00:00,18.616318,73.765797,NO2,43,135,75
India,Maharashtra,Mumbai,"Khindipada-Bhandup West, Mumbai - IITM",22-12-2025 08:00:00,19.1653323,72.922099,NH3,1,4,3
India,Maharashtra,Mumbai,"Khindipada-Bhandup West, Mumbai - IITM",22-12-2025 08:00:00,19.1653323,72.922099,CO,2,26,11
India,Maharashtra,Mumbai,"Malad West, Mumbai - IITM",22-12-2025 08:00:00,19.19709,72.82204,NH3,5,27,14
India,Maharashtra,Mumbai,"Malad West, Mumbai - IITM",22-12-2025 08:00:00,19.19709,72.82204,OZONE,4,84,7
India,Maharashtra,Mumbai,"Mazgaon, Mumbai - IITM",22-12-2025 08:00:00,18.96702,72.84214,PM10,NA,NA,NA
India,Maharashtra,Nagpur,"Ram Nagar, Nagpur - MPCB",22-12-2025 08:00:00,21.143383,79.048912,PM10,77,196,136
India,Maharashtra,Nagpur,"Ram Nagar, Nagpur - MPCB",22-12-2025 08:00:00,21.143383,79.048912,SO2,31,104,52
India,Maharashtra,Nagpur,"Ram Nagar, Nagpur - MPCB",22-12-2025 08:00:00,21.143383,79.048912,OZONE,5,89,13
India,Maharashtra,Nanded,"Sneh Nagar, Nanded - MPCB",22-12-2025 08:00:00,19.173852,77.296291,NO2,10,73,30
India,Maharashtra,Nanded,"Sneh Nagar, Nanded - MPCB",22-12-2025 08:00:00,19.173852,77.296291,OZONE,3,83,24
India,Maharashtra,Nagpur,"Ambazari, Nagpur - MPCB",22-12-2025 08:00:00,21.121801,79.04952,NO2,14,112,37
India,Maharashtra,Nagpur,"Ambazari, Nagpur - MPCB",22-12-2025 08:00:00,21.121801,79.04952,NH3,2,18,6
India,Maharashtra,Nagpur,"Mahal, Nagpur - MPCB",22-12-2025 08:00:00,21.14472,79.107595,SO2,13,108,48
India,Maharashtra,Nagpur,"Opp GPO Civil Lines, Nagpur - MPCB",22-12-2025 08:00:00,21.152875,79.0517531,PM10,90,220,141
India,Maharashtra,Navi Mumbai,"Mahape, Navi Mumbai - MPCB",22-12-2025 08:00:00,19.1135051,73.008978,PM2.5,40,95,70
India,Maharashtra,Navi Mumbai,"Mahape, Navi Mumbai - MPCB",22-12-2025 08:00:00,19.1135051,73.008978,NH3,3,3,3
India,Maharashtra,Navi Mumbai,"Nerul, Navi Mumbai - MPCB",22-12-2025 08:00:00,19.008751,73.016620,SO2,NA,NA,NA
India,Maharashtra,Pune,"Mhada Colony, Pune - IITM",22-12-2025 08:00:00,18.573040,73.927715,CO,10,84,62
India,Maharashtra,Pune,"Panchawati_Pashan, Pune - IITM",22-12-2025 08:00:00,18.536457,73.805454,NO2,16,40,25
India,Maharashtra,Pune,"Revenue Colony-Shivajinagar, Pune - IITM",22-12-2025 08:00:00,18.530085,73.849598,OZONE,2,81,7
India,Maharashtra,Pune,"Savitribai Phule Pune University, Pune - MPCB",22-12-2025 08:00:00,18.547056,73.826908,PM2.5,36,118,76
India,Maharashtra,Pune,"Dhankawadi, Pune - IITM",22-12-2025 08:00:00,18.459883,73.852193,PM10,88,201,130
India,Maharashtra,Pune,"Hadapsar, Pune - IITM",22-12-2025 08:00:00,18.501793,73.927532,CO,50,141,101
India,Maharashtra,Pune,"Hadapsar, Pune - IITM",22-12-2025 08:00:00,18.501793,73.927532,OZONE,2,77,4
India,Maharashtra,Pune,"Katraj Dairy, Pune - MPCB",22-12-2025 08:00:00,18.454450,73.854155,OZONE,6,61,10
India,Maharashtra,Thane,"Kasarvadavali, Thane - MPCB",22-12-2025 08:00:00,19.26777,72.97182,PM10,63,163,124
India,Maharashtra,Thane,"Upvan Fort, Thane - MPCB",22-12-2025 08:00:00,19.222279,72.957979,PM2.5,28,131,65
India,Maharashtra,Thane,"Upvan Fort, Thane - MPCB",22-12-2025 08:00:00,19.222279,72.957979,NO2,22,114,54
India,Meghalaya,Shillong,"JN Stadium, Shillong - Meghalaya PCB",22-12-2025 08:00:00,25.5803419,91.8942571,NH3,16,25,19
India,Meghalaya,Shillong,"Lumpyngngad, Shillong - Meghalaya PCB",22-12-2025 08:00:00,25.5586,91.8985,SO2,6,9,7
India,Maharashtra,Solapur,"Ratandeep Housing Society, Solapur - MPCB",22-12-2025 08:00:00,17.65439,75.90649,CO,16,104,42
India,Nagaland,Kohima,"PWD Junction, Kohima - NPCB",22-12-2025 08:00:00,25.6635413,94.0989878,PM2.5,1,77,34
India,Maharashtra,Virar,"Bolinj, Virar - MPCB",22-12-2025 08:00:00,19.4458210,72.7988231,PM2.5,64,250,145
India,Maharashtra,Sangli,"Vijay Nagar, Sangli - MPCB",22-12-2025 08:00:00, 16.5038,74.3623,CO,32,49,36
India,Maharashtra,Virar,"Bolinj, Virar - MPCB",22-12-2025 08:00:00,19.4458210,72.7988231,CO,15,120,97
India,Odisha,Bileipada,"Tata Township, Bileipada - OSPCB",22-12-2025 08:00:00,22.06156703,85.47409613,PM10,130,224,177
India,Odisha,Brajrajnagar,"GM Office, Brajrajnagar - OSPCB",22-12-2025 08:00:00,21.8004996,83.8396977,PM2.5,57,329,152
India,Odisha,Bhubaneswar,"Lingraj Mandir, Bhubaneswar - OSPCB",22-12-2025 08:00:00,20.240790,85.836784,CO,22,107,45
India,Odisha,Baripada,"Meher Colony, Baripada - OSPCB",22-12-2025 08:00:00,21.941841,86.728318,PM2.5,243,327,300
India,Odisha,Baripada,"Meher Colony, Baripada - OSPCB",22-12-2025 08:00:00,21.941841,86.728318,OZONE,5,66,17
India,Odisha,Barbil,"Forest Office, Barbil - OSPCB",22-12-2025 08:00:00,22.1166054,85.3945546,OZONE,2,96,4
India,Odisha,Bhubaneswar,"Patia, Bhubaneswar - OSPCB",22-12-2025 08:00:00,20.34652,85.81630,PM10,103,413,174
India,Odisha,Angul,"Hakimapada, Angul - OSPCB",22-12-2025 08:00:00,20.832874,85.104082,PM10,126,282,184
India,Odisha,Balasore,"Kalidaspur, Balasore - OSPCB",22-12-2025 08:00:00,21.51161,86.89088,CO,34,70,49
India,Odisha,Angul,"Hakimapada, Angul - OSPCB",22-12-2025 08:00:00,20.832874,85.104082,SO2,8,71,25
India,Odisha,Talcher,"Talcher Coalfields,Talcher - OSPCB",22-12-2025 08:00:00,20.9360711,85.1707021,NO2,49,94,64
India,Odisha,Talcher,"Talcher Coalfields,Talcher - OSPCB",22-12-2025 08:00:00,20.9360711,85.1707021,NH3,6,7,6
India,Puducherry,Puducherry,"Jawahar Nagar, Puducherry - PPCC",22-12-2025 08:00:00,11.9309,79.8027,PM2.5,96,242,152
India,Puducherry,Puducherry,"Jawahar Nagar, Puducherry - PPCC",22-12-2025 08:00:00,11.9309,79.8027,CO,20,37,25
India,Punjab,Amritsar,"Golden Temple, Amritsar - PPCB",22-12-2025 08:00:00,31.620000,74.876512,PM2.5,75,279,158
India,Punjab,Amritsar,"Golden Temple, Amritsar - PPCB",22-12-2025 08:00:00,31.620000,74.876512,PM10,94,193,140
India,Punjab,Amritsar,"Golden Temple, Amritsar - PPCB",22-12-2025 08:00:00,31.620000,74.876512,NO2,7,44,23
India,Punjab,Amritsar,"Golden Temple, Amritsar - PPCB",22-12-2025 08:00:00,31.620000,74.876512,NH3,5,9,7
India,Punjab,Amritsar,"Golden Temple, Amritsar - PPCB",22-12-2025 08:00:00,31.620000,74.876512,CO,30,47,39
India,Punjab,Khanna,"Kalal Majra, Khanna - PPCB",22-12-2025 08:00:00,30.736056 ,76.209694,PM10,101,265,156
India,Punjab,Khanna,"Kalal Majra, Khanna - PPCB",22-12-2025 08:00:00,30.736056 ,76.209694,NO2,27,30,28
India,Punjab,Khanna,"Kalal Majra, Khanna - PPCB",22-12-2025 08:00:00,30.736056 ,76.209694,NH3,7,8,7
India,Odisha,Rairangpur,"Divisional Forest Office, Rairangpur - OSPCB",22-12-2025 08:00:00,22.265816,86.174829,NO2,11,11,11
India,Odisha,Rourkela,"Fertilizer Township, Rourkela - OSPCB",22-12-2025 08:00:00,22.18972222,84.86277778,PM2.5,NA,NA,NA
India,Odisha,Rourkela,"Raghunathpali, Rourkela - OSPCB",22-12-2025 08:00:00,22.220833,84.809444,PM2.5,NA,NA,NA
India,Odisha,Byasanagar,"Ferro Chrome Colony, Byasanagar - OSPCB",22-12-2025 08:00:00,20.94185,86.11510,OZONE,36,196,63
India,Odisha,Cuttack,"CDA Area, Cuttack - OSPCB",22-12-2025 08:00:00,20.48891     ,85.84768     ,PM10,107,212,160
India,Odisha,Cuttack,"CDA Area, Cuttack - OSPCB",22-12-2025 08:00:00,20.48891     ,85.84768     ,NH3,4,7,5
India,Odisha,Keonjhar,"Jagamohanpur, Keonjhar - OSPCB",22-12-2025 08:00:00,21.643900,85.599355,PM10,NA,NA,NA
India,Odisha,Keonjhar,"Jagamohanpur, Keonjhar - OSPCB",22-12-2025 08:00:00,21.643900,85.599355,SO2,NA,NA,NA
India,Odisha,Keonjhar,"Jagamohanpur, Keonjhar - OSPCB",22-12-2025 08:00:00,21.643900,85.599355,OZONE,NA,NA,NA
India,Odisha,Rourkela,"Raghunathpali, Rourkela - OSPCB",22-12-2025 08:00:00,22.220833,84.809444,CO,NA,NA,NA
India,Odisha,Rourkela,"Raghunathpali, Rourkela - OSPCB",22-12-2025 08:00:00,22.220833,84.809444,OZONE,NA,NA,NA
India,Punjab,Mandi Gobindgarh,"RIMT University, Mandi Gobindgarh - PPCB",22-12-2025 08:00:00,30.649961,76.331442,PM2.5,41,88,60
India,Odisha,Byasanagar,"Ferro Chrome Colony, Byasanagar - OSPCB",22-12-2025 08:00:00,20.94185,86.11510,PM2.5,187,317,274
India,Odisha,Brajrajnagar,"GM Office, Brajrajnagar - OSPCB",22-12-2025 08:00:00,21.8004996,83.8396977,NO2,23,23,23
India,Rajasthan,Churu,"Subash Chowk, Churu - RSPCB",22-12-2025 08:00:00,28.296139,74.961696,PM10,156,304,190
India,Rajasthan,Churu,"Subash Chowk, Churu - RSPCB",22-12-2025 08:00:00,28.296139,74.961696,NH3,5,6,5
India,Rajasthan,Churu,"Subash Chowk, Churu - RSPCB",22-12-2025 08:00:00,28.296139,74.961696,SO2,2,6,4
India,Rajasthan,Churu,"Subash Chowk, Churu - RSPCB",22-12-2025 08:00:00,28.296139,74.961696,CO,24,79,33
India,Rajasthan,Churu,"Subash Chowk, Churu - RSPCB",22-12-2025 08:00:00,28.296139,74.961696,OZONE,8,122,15
India,Rajasthan,Dausa,"Khatikan Mohalla, Dausa - RSPCB",22-12-2025 08:00:00,26.895552,76.334753,PM10,28,127,73
India,Rajasthan,Dausa,"Khatikan Mohalla, Dausa - RSPCB",22-12-2025 08:00:00,26.895552,76.334753,SO2,1,7,3
India,Rajasthan,Dausa,"Khatikan Mohalla, Dausa - RSPCB",22-12-2025 08:00:00,26.895552,76.334753,CO,48,74,60
India,Rajasthan,Dausa,"Khatikan Mohalla, Dausa - RSPCB",22-12-2025 08:00:00,26.895552,76.334753,OZONE,12,86,19
India,Rajasthan,Dholpur,"Raja Ganj, Dholpur - RSPCB",22-12-2025 08:00:00,26.699557,77.898881,PM10,28,131,86
India,Rajasthan,Jaipur,"RIICO Sitapura, Jaipur - RSPCB",22-12-2025 08:00:00,26.786682,75.827928,NO2,21,77,39
India,Rajasthan,Jaipur,"Sector-2 Murlipura, Jaipur - RSPCB",22-12-2025 08:00:00,26.960669,75.771817,NO2,30,142,70
India,Rajasthan,Jaipur,"Sector-2 Murlipura, Jaipur - RSPCB",22-12-2025 08:00:00,26.960669,75.771817,NH3,9,12,11
India,Rajasthan,Jaipur,"Shastri Nagar, Jaipur - RSPCB",22-12-2025 08:00:00,26.9502929,75.730943,PM2.5,138,289,224
India,Rajasthan,Jaipur,"Shastri Nagar, Jaipur - RSPCB",22-12-2025 08:00:00,26.9502929,75.730943,NO2,54,109,76
India,Rajasthan,Jaipur,"Shastri Nagar, Jaipur - RSPCB",22-12-2025 08:00:00,26.9502929,75.730943,CO,42,112,46
India,Rajasthan,Jaisalmer,"Sadar Bazar, Jaisalmer - RSPCB",22-12-2025 08:00:00,26.912329,70.909168,PM2.5,33,372,171
India,Rajasthan,Bhilwara,"Pratap Nagar, Bhilwara - RSPCB",22-12-2025 08:00:00,25.339605,74.618883,NO2,24,98,45
India,Rajasthan,Bhilwara,"Pratap Nagar, Bhilwara - RSPCB",22-12-2025 08:00:00,25.339605,74.618883,SO2,3,50,20
India,Rajasthan,Bhilwara,"Pratap Nagar, Bhilwara - RSPCB",22-12-2025 08:00:00,25.339605,74.618883,CO,10,110,49
India,Rajasthan,Bhilwara,"Pratap Nagar, Bhilwara - RSPCB",22-12-2025 08:00:00,25.339605,74.618883,OZONE,1,51,5
India,Rajasthan,Bhiwadi,"RIICO Ind. Area III, Bhiwadi - RSPCB",22-12-2025 08:00:00,28.194909,76.862296,PM2.5,129,341,295
India,Rajasthan,Bhiwadi,"RIICO Ind. Area III, Bhiwadi - RSPCB",22-12-2025 08:00:00,28.194909,76.862296,OZONE,4,32,6
India,Punjab,Rupnagar,"Ratanpura, Rupnagar - Ambuja Cements",22-12-2025 08:00:00,31.0325454,76.5623046,PM10,2,403,203
India,Rajasthan,Ajmer,"Civil Lines,  Ajmer - RSPCB",22-12-2025 08:00:00,26.470859,74.646594,CO,27,60,32
India,Rajasthan,Alwar,"Moti Doongri, Alwar - RSPCB",22-12-2025 08:00:00,27.554793,76.611536,PM2.5,58,99,78
India,Rajasthan,Alwar,"Moti Doongri, Alwar - RSPCB",22-12-2025 08:00:00,27.554793,76.611536,OZONE,13,46,18
India,Rajasthan,Baran,"Bamboliya, Baran - RSPCB",22-12-2025 08:00:00,25.106006,76.469948,PM2.5,18,55,38
India,Rajasthan,Baran,"Bamboliya, Baran - RSPCB",22-12-2025 08:00:00,25.106006,76.469948,PM10,49,130,96
India,Rajasthan,Baran,"Bamboliya, Baran - RSPCB",22-12-2025 08:00:00,25.106006,76.469948,OZONE,3,126,13
India,Rajasthan,Barmer,"Railway Colony, Barmer - RSPCB",22-12-2025 08:00:00,25.747299,71.393989,NO2,9,89,24
India,Rajasthan,Barmer,"Railway Colony, Barmer - RSPCB",22-12-2025 08:00:00,25.747299,71.393989,NH3,5,11,7
India,Rajasthan,Bhiwadi,"Vasundhara Nagar_UIT, Bhiwadi - RSPCB",22-12-2025 08:00:00,28.207266,76.829265,CO,62,102,70
India,Rajasthan,Bikaner,"MM Ground, Bikaner - RSPCB",22-12-2025 08:00:00,28.018792,73.292658,SO2,1,17,8
India,Rajasthan,Bundi,"New Colony, Bundi - RSPCB",22-12-2025 08:00:00,25.435774,75.644272,NH3,4,7,5
India,Rajasthan,Jaipur,"Adarsh Nagar, Jaipur - RSPCB",22-12-2025 08:00:00,26.902909,75.836858,NO2,25,77,42
India,Rajasthan,Jaipur,"Adarsh Nagar, Jaipur - RSPCB",22-12-2025 08:00:00,26.902909,75.836858,NH3,13,32,16
India,Rajasthan,Jaipur,"Mansarovar Sector-12, Jaipur - RSPCB",22-12-2025 08:00:00,26.843698,75.766894,CO,30,106,71
India,Rajasthan,Bhiwadi,"Vasundhara Nagar_UIT, Bhiwadi - RSPCB",22-12-2025 08:00:00,28.207266,76.829265,SO2,1,12,5
India,Rajasthan,Dholpur,"Raja Ganj, Dholpur - RSPCB",22-12-2025 08:00:00,26.699557,77.898881,OZONE,12,46,33
India,Rajasthan,Nagaur,"Karni Colony, Nagaur - RSPCB",22-12-2025 08:00:00,27.213494,73.734444,SO2,2,15,7
India,Rajasthan,Nagaur,"Karni Colony, Nagaur - RSPCB",22-12-2025 08:00:00,27.213494,73.734444,OZONE,8,98,45
India,Rajasthan,Pali,"Indira Colony Vistar, Pali - RSPCB",22-12-2025 08:00:00,25.771061, 73.340227,PM2.5,81,300,157
India,Rajasthan,Pali,"Indira Colony Vistar, Pali - RSPCB",22-12-2025 08:00:00,25.771061, 73.340227,PM10,102,277,136
India,Rajasthan,Pratapgarh,"Pragati Nagar, Pratapgarh - RSPCB",22-12-2025 08:00:00,24.041198,74.780702,CO,15,36,20
India,Rajasthan,Rajsamand,"Dhoinda, Rajsamand - RSPCB",22-12-2025 08:00:00,25.036360,73.883502,PM2.5,22,220,90
India,Rajasthan,Rajsamand,"Dhoinda, Rajsamand - RSPCB",22-12-2025 08:00:00,25.036360,73.883502,CO,34,90,43
India,Rajasthan,Jaisalmer,"Sadar Bazar, Jaisalmer - RSPCB",22-12-2025 08:00:00,26.912329,70.909168,SO2,1,11,4
India,Rajasthan,Jalore,"Mudtra Sili, Jalore - RSPCB",22-12-2025 08:00:00,25.344694,72.626208,CO,29,129,54
India,Rajasthan,Jalore,"Mudtra Sili, Jalore - RSPCB",22-12-2025 08:00:00,25.344694,72.626208,OZONE,5,110,13
India,Rajasthan,Jhalawar,"Rajlaxmi Nagar, Jhalawar - RSPCB",22-12-2025 08:00:00,24.588397,76.172782,NO2,13,37,22
India,Rajasthan,Jhalawar,"Rajlaxmi Nagar, Jhalawar - RSPCB",22-12-2025 08:00:00,24.588397,76.172782,NH3,4,6,5
India,Rajasthan,Jhalawar,"Rajlaxmi Nagar, Jhalawar - RSPCB",22-12-2025 08:00:00,24.588397,76.172782,SO2,6,20,11
India,Rajasthan,Jodhpur,"Samrat Ashok Udhyan, Jodhpur - RSPCB",22-12-2025 08:00:00,26.253384,72.976571,PM2.5,42,366,152
India,Rajasthan,Jodhpur,"Samrat Ashok Udhyan, Jodhpur - RSPCB",22-12-2025 08:00:00,26.253384,72.976571,SO2,5,24,14
India,Rajasthan,Jodhpur,"Samrat Ashok Udhyan, Jodhpur - RSPCB",22-12-2025 08:00:00,26.253384,72.976571,OZONE,2,162,15
India,Rajasthan,Karauli,"Satyawati Vihar, Karauli - RSPCB",22-12-2025 08:00:00,26.506177,77.025989,PM10,55,101,79
India,Rajasthan,Karauli,"Satyawati Vihar, Karauli - RSPCB",22-12-2025 08:00:00,26.506177,77.025989,SO2,4,9,7
India,Rajasthan,Karauli,"Satyawati Vihar, Karauli - RSPCB",22-12-2025 08:00:00,26.506177,77.025989,CO,59,80,61
India,Rajasthan,Rajsamand,"Dhoinda, Rajsamand - RSPCB",22-12-2025 08:00:00,25.036360,73.883502,OZONE,11,169,16
India,Rajasthan,Sawai Madhopur,"Sahu Nagar, Sawai Madhopur - RSPCB",22-12-2025 08:00:00,26.031443,76.359327,NH3,7,9,8
India,Rajasthan,Sikar,"Radhakishan Pura, Sikar - RSPCB",22-12-2025 08:00:00,27.608912,75.153302,NO2,15,119,43
India,Rajasthan,Sirohi,"Vedhaynath Colony, Sirohi - RSPCB",22-12-2025 08:00:00,24.885261,72.857549,NO2,12,88,45
India,Rajasthan,Kota,"Nayapura, Kota - RSPCB",22-12-2025 08:00:00,25.196024,75.855668,PM10,97,295,138
India,Rajasthan,Kota,"Nayapura, Kota - RSPCB",22-12-2025 08:00:00,25.196024,75.855668,NO2,26,97,57
India,Rajasthan,Kota,"Shrinath Puram, Kota - RSPCB",22-12-2025 08:00:00,25.14389,75.821256,PM2.5,107,331,257
India,Rajasthan,Kota,"Shrinath Puram, Kota - RSPCB",22-12-2025 08:00:00,25.14389,75.821256,SO2,6,31,14
India,Rajasthan,Nagaur,"Karni Colony, Nagaur - RSPCB",22-12-2025 08:00:00,27.213494,73.734444,NO2,16,121,41
India,Rajasthan,Jhunjhunu,"Indra Nagar, Jhunjhunu - RSPCB",22-12-2025 08:00:00,28.108988,75.386577,PM10,137,261,172
India,Rajasthan,Jhunjhunu,"Indra Nagar, Jhunjhunu - RSPCB",22-12-2025 08:00:00,28.108988,75.386577,SO2,1,7,3
India,Rajasthan,Jodhpur,"Collectorate, Jodhpur - RSPCB",22-12-2025 08:00:00,26.268249,73.0193853,PM2.5,77,379,233
India,Rajasthan,Jodhpur,"Digari Kalan, Jodhpur - RSPCB",22-12-2025 08:00:00,26.295810,73.082283,NO2,7,62,31
India,Rajasthan,Jodhpur,"Jhalamand, Jodhpur - RSPCB",22-12-2025 08:00:00,26.215415,73.070156,PM2.5,28,207,98
India,Rajasthan,Jodhpur,"Jhalamand, Jodhpur - RSPCB",22-12-2025 08:00:00,26.215415,73.070156,NH3,13,30,19
India,Rajasthan,Sri Ganganagar,"Old City, Sri Ganganagar - RSPCB",22-12-2025 08:00:00,29.931624,73.864511,PM2.5,48,97,72
India,Rajasthan,Sri Ganganagar,"Old City, Sri Ganganagar - RSPCB",22-12-2025 08:00:00,29.931624,73.864511,NH3,2,4,3
India,Rajasthan,Kota,"Dhanmandi, Kota - RSPCB",22-12-2025 08:00:00,25.164090,75.858137,CO,19,116,60
India,TamilNadu,Chennai,"Manali, Chennai - CPCB",22-12-2025 08:00:00,13.164544,80.26285,OZONE,10,11,10
India,TamilNadu,Chennai,"Perungudi, Chennai - TNPCB",22-12-2025 08:00:00,12.9533,80.2357,NO2,4,8,6
India,TamilNadu,Chennai,"Perungudi, Chennai - TNPCB",22-12-2025 08:00:00,12.9533,80.2357,NH3,3,5,4
India,TamilNadu,Chennai,"Kodungaiyur, Chennai - TNPCB",22-12-2025 08:00:00,13.1278,80.2642,NH3,3,5,4
India,TamilNadu,Chennai,"Manali Village, Chennai - TNPCB",22-12-2025 08:00:00,13.1662,80.2584,PM2.5,94,267,154
India,TamilNadu,Chennai,"Royapuram, Chennai - TNPCB",22-12-2025 08:00:00,13.1036,80.2909,CO,46,59,53
India,TamilNadu,Chennai,"Royapuram, Chennai - TNPCB",22-12-2025 08:00:00,13.1036,80.2909,OZONE,16,18,17
India,TamilNadu,Chennai,"Gandhi Nagar_Ennore, Chennai - TNPCB",22-12-2025 08:00:00,13.218341,80.32027,OZONE,29,127,70
India,Rajasthan,Udaipur,"Ashok Nagar, Udaipur - RSPCB",22-12-2025 08:00:00,24.5886166,73.6321397,OZONE,1,59,2
India,Rajasthan,Tonk,"Shastri Nagar, Tonk - RSPCB",22-12-2025 08:00:00,26.159933,75.780517,PM2.5,95,330,218
India,Rajasthan,Tonk,"Shastri Nagar, Tonk - RSPCB",22-12-2025 08:00:00,26.159933,75.780517,OZONE,11,89,18
India,Rajasthan,Tonk,"Shastri Nagar, Tonk - RSPCB",22-12-2025 08:00:00,26.159933,75.780517,NH3,8,14,11
India,TamilNadu,Chennai,"Arumbakkam, Chennai - TNPCB",22-12-2025 08:00:00,13.0664,80.2112 ,NO2,14,27,19
India,TamilNadu,Thoothukudi,"Meelavittan, Thoothukudi - TNPCB",22-12-2025 08:00:00,8.816428 ,78.099039,CO,28,53,33
India,TamilNadu,Thoothukudi,"Meelavittan, Thoothukudi - TNPCB",22-12-2025 08:00:00,8.816428 ,78.099039,OZONE,1,35,4
India,TamilNadu,Tirupur,"Kumaran College, Tirupur - TNPCB",22-12-2025 08:00:00,11.0973603,77.3228673,SO2,NA,NA,NA
India,Telangana,Hyderabad,"Central University, Hyderabad - TSPCB",22-12-2025 08:00:00,17.460103,78.334361,PM2.5,58,179,108
India,Telangana,Hyderabad,"Central University, Hyderabad - TSPCB",22-12-2025 08:00:00,17.460103,78.334361,PM10,84,148,117
India,Telangana,Hyderabad,"Central University, Hyderabad - TSPCB",22-12-2025 08:00:00,17.460103,78.334361,NO2,25,50,33
India,Telangana,Hyderabad,"ECIL Kapra, Hyderabad - TSPCB",22-12-2025 08:00:00,17.470431,78.566959,SO2,16,17,17
India,Telangana,Hyderabad,"ECIL Kapra, Hyderabad - TSPCB",22-12-2025 08:00:00,17.470431,78.566959,OZONE,11,19,11
India,Telangana,Hyderabad,"ICRISAT Patancheru, Hyderabad - TSPCB",22-12-2025 08:00:00,17.518400,78.278777,PM2.5,68,187,132
India,Telangana,Hyderabad,"IITH Kandi, Hyderabad - TSPCB",22-12-2025 08:00:00,17.585705,78.126199,NO2,14,15,15
India,TamilNadu,Chennai,"Velachery Res. Area, Chennai - CPCB",22-12-2025 08:00:00,13.0052189,80.2398125,NO2,13,16,14
India,TamilNadu,Chennai,"Velachery Res. Area, Chennai - CPCB",22-12-2025 08:00:00,13.0052189,80.2398125,NH3,3,4,3
India,TamilNadu,Chennai,"Velachery Res. Area, Chennai - CPCB",22-12-2025 08:00:00,13.0052189,80.2398125,SO2,15,17,16
India,TamilNadu,Gummidipoondi,"Anthoni Pillai Nagar, Gummidipoondi - TNPCB",22-12-2025 08:00:00,13.4127,80.1081,PM2.5,130,376,281
India,TamilNadu,Gummidipoondi,"Anthoni Pillai Nagar, Gummidipoondi - TNPCB",22-12-2025 08:00:00,13.4127,80.1081,PM10,101,225,161
India,TamilNadu,Perundurai,"SIPCOT Industrial Park, Perundurai - TNPCB",22-12-2025 08:00:00,11.258242,77.552761,PM10,57,116,87
India,TamilNadu,Perundurai,"SIPCOT Industrial Park, Perundurai - TNPCB",22-12-2025 08:00:00,11.258242,77.552761,OZONE,16,22,19
India,TamilNadu,Chennai,"Velachery Res. Area, Chennai - CPCB",22-12-2025 08:00:00,13.0052189,80.2398125,OZONE,2,8,3
India,TamilNadu,Coimbatore,"SIDCO Kurichi, Coimbatore - TNPCB",22-12-2025 08:00:00,10.942451,76.978996,NO2,3,35,10
India,TamilNadu,Cuddalore,"Kudikadu, Cuddalore - TNPCB",22-12-2025 08:00:00,11.6829898,79.7532099,NH3,NA,NA,NA
India,Uttar_Pradesh,Greater Noida,"Knowledge Park - V, Greater Noida - UPPCB",22-12-2025 08:00:00,28.557054,77.453663,NH3,NA,NA,NA
India,Uttar_Pradesh,Greater Noida,"Knowledge Park - V, Greater Noida - UPPCB",22-12-2025 08:00:00,28.557054,77.453663,OZONE,3,50,15
India,Uttar_Pradesh,Hapur,"Anand Vihar, Hapur - UPPCB",22-12-2025 08:00:00,28.725645,77.749675,CO,14,24,22
India,Uttar_Pradesh,Hapur,"Anand Vihar, Hapur - UPPCB",22-12-2025 08:00:00,28.725645,77.749675,OZONE,10,24,12
India,Uttar_Pradesh,Jhansi,"Shivaji Nagar, Jhansi - UPPCB",22-12-2025 08:00:00,25.4547,78.6039,PM2.5,25,57,43
India,Uttar_Pradesh,Jhansi,"Shivaji Nagar, Jhansi - UPPCB",22-12-2025 08:00:00,25.4547,78.6039,PM10,29,102,59
India,Uttar_Pradesh,Jhansi,"Shivaji Nagar, Jhansi - UPPCB",22-12-2025 08:00:00,25.4547,78.6039,SO2,13,15,14
India,Uttar_Pradesh,Bulandshahr,"Yamunapuram, Bulandshahr - UPPCB",22-12-2025 08:00:00,28.406963,77.849831,NO2,39,118,73
India,Uttar_Pradesh,Firozabad,"Nagla Bhau, Firozabad - UPPCB",22-12-2025 08:00:00,27.168897,78.376960,PM2.5,44,90,66
India,Uttar_Pradesh,Firozabad,"Nagla Bhau, Firozabad - UPPCB",22-12-2025 08:00:00,27.168897,78.376960,NO2,17,18,17
India,Uttar_Pradesh,Firozabad,"Vibhab Nagar, Firozabad - UPPCB",22-12-2025 08:00:00,27.1594,78.3953,PM10,38,99,74
India,Uttar_Pradesh,Ghaziabad,"Sanjay Nagar, Ghaziabad - UPPCB",22-12-2025 08:00:00,28.685382,77.453839,PM2.5,284,399,341
India,Uttar_Pradesh,Agra,"Shahjahan Garden, Agra - UPPCB",22-12-2025 08:00:00,27.169338,78.03582,NH3,6,6,6
India,Uttar_Pradesh,Agra,"Shahjahan Garden, Agra - UPPCB",22-12-2025 08:00:00,27.169338,78.03582,CO,31,44,37
India,Uttar_Pradesh,Baghpat,"Sardar Patel Inter College, Baghpat - UPPCB",22-12-2025 08:00:00,28.964949,77.278761,NH3,3,7,5
India,Uttar_Pradesh,Bareilly,"Civil Lines, Bareilly - UPPCB",22-12-2025 08:00:00,28.359581,79.414455,PM10,57,119,78
India,Uttar_Pradesh,Bareilly,"Civil Lines, Bareilly - UPPCB",22-12-2025 08:00:00,28.359581,79.414455,CO,66,121,102
India,Telangana,Hyderabad,"Kompally Municipal Office, Hyderabad - TSPCB",22-12-2025 08:00:00,17.544899,78.486949,PM10,74,88,81
India,Telangana,Hyderabad,"Nacharam_TSIIC IALA, Hyderabad - TSPCB",22-12-2025 08:00:00,17.429398,78.569354,NH3,4,5,5
India,Telangana,Hyderabad,"New Malakpet, Hyderabad - TSPCB",22-12-2025 08:00:00,17.37206,78.50864,CO,26,44,26
India,Uttar_Pradesh,Ghaziabad,"Vasundhara, Ghaziabad - UPPCB",22-12-2025 08:00:00,28.6603346,77.3572563,PM2.5,357,447,394
India,Uttar_Pradesh,Ghaziabad,"Vasundhara, Ghaziabad - UPPCB",22-12-2025 08:00:00,28.6603346,77.3572563,NO2,27,73,48
India,Uttar_Pradesh,Greater Noida,"Knowledge Park - III, Greater Noida - UPPCB",22-12-2025 08:00:00,28.47272,77.482000,PM2.5,209,340,299
India,Uttar_Pradesh,Agra,"Manoharpur, Agra - UPPCB",22-12-2025 08:00:00,27.23711,78.01936,SO2,63,87,76
India,Uttar_Pradesh,Agra,"Rohta, Agra - UPPCB",22-12-2025 08:00:00,27.106972,78.000111,NH3,6,6,6
India,Uttar_Pradesh,Agra,"Shahjahan Garden, Agra - UPPCB",22-12-2025 08:00:00,27.169338,78.03582,PM2.5,34,135,71
India,Uttar_Pradesh,Kanpur,"FTI Kidwai Nagar, Kanpur - UPPCB",22-12-2025 08:00:00,26.428282,80.327067,PM10,100,293,171
India,Uttar_Pradesh,Kanpur,"FTI Kidwai Nagar, Kanpur - UPPCB",22-12-2025 08:00:00,26.428282,80.327067,SO2,17,20,19
India,Uttar_Pradesh,Khurja,"Kalindi Kunj, Khurja - UPPCB",22-12-2025 08:00:00,28.2348927,77.8683002,SO2,14,15,15
India,Telangana,Hyderabad,"Somajiguda, Hyderabad - TSPCB",22-12-2025 08:00:00,17.417094,78.457437,PM10,58,132,98
India,Telangana,Hyderabad,"Somajiguda, Hyderabad - TSPCB",22-12-2025 08:00:00,17.417094,78.457437,SO2,14,16,15
India,Telangana,Hyderabad,"Zoo Park, Hyderabad - TSPCB",22-12-2025 08:00:00,17.349694,78.451437,CO,5,88,4
India,Uttar_Pradesh,Noida,"Sector - 62, Noida - IMD",22-12-2025 08:00:00,28.6245479,77.3577104,CO,50,76,56
India,Uttar_Pradesh,Noida,"Sector - 62, Noida - IMD",22-12-2025 08:00:00,28.6245479,77.3577104,OZONE,5,6,6
India,Uttar_Pradesh,Noida,"Sector-1, Noida - UPPCB",22-12-2025 08:00:00,28.5898,77.3101,PM2.5,325,406,381
India,Uttar_Pradesh,Noida,"Sector-1, Noida - UPPCB",22-12-2025 08:00:00,28.5898,77.3101,SO2,1,16,14
India,Uttar_Pradesh,Noida,"Sector-1, Noida - UPPCB",22-12-2025 08:00:00,28.5898,77.3101,OZONE,3,24,14
India,Uttar_Pradesh,Noida,"Sector-116, Noida - UPPCB",22-12-2025 08:00:00,28.569230,77.393848,NH3,15,37,21
India,Uttar_Pradesh,Noida,"Sector-116, Noida - UPPCB",22-12-2025 08:00:00,28.569230,77.393848,SO2,1,9,5
India,Uttar_Pradesh,Noida,"Sector-116, Noida - UPPCB",22-12-2025 08:00:00,28.569230,77.393848,OZONE,8,77,31
India,Uttar_Pradesh,Prayagraj,"Jhunsi, Prayagraj - UPPCB",22-12-2025 08:00:00,25.425602,81.917152,PM2.5,55,136,92
India,Uttar_Pradesh,Prayagraj,"Motilal Nehru NIT, Prayagraj - UPPCB",22-12-2025 08:00:00,25.494,81.863,PM2.5,95,199,146
India,Uttar_Pradesh,Varanasi,"IESD Banaras Hindu University, Varanasi - UPPCB",22-12-2025 08:00:00,25.262326,82.995408,CO,15,42,24
India,Uttar_Pradesh,Varanasi,"Maldahiya, Varanasi - UPPCB",22-12-2025 08:00:00,25.32393,82.99687,PM2.5,75,224,110
India,Uttar_Pradesh,Varanasi,"Maldahiya, Varanasi - UPPCB",22-12-2025 08:00:00,25.32393,82.99687,PM10,71,132,90
India,Uttar_Pradesh,Varanasi,"Maldahiya, Varanasi - UPPCB",22-12-2025 08:00:00,25.32393,82.99687,CO,8,29,22
India,Uttar_Pradesh,Vrindavan,"Omex Eternity, Vrindavan - UPPCB",22-12-2025 08:00:00,27.5714090,77.6557570,NO2,12,13,12
India,Uttar_Pradesh,Vrindavan,"Omex Eternity, Vrindavan - UPPCB",22-12-2025 08:00:00,27.5714090,77.6557570,NH3,2,2,2
India,Uttarakhand,Dehradun,"Doon University, Dehradun - UKPCB",22-12-2025 08:00:00,30.269444,78.044167,CO,40,46,41
India,Uttarakhand,Dehradun,"Doon University, Dehradun - UKPCB",22-12-2025 08:00:00,30.269444,78.044167,OZONE,22,61,25
India,Uttar_Pradesh,Moradabad,"Eco Herbal Park, Moradabad - UPPCB",22-12-2025 08:00:00,28.840739,78.697531,OZONE,3,53,4
India,Uttar_Pradesh,Moradabad,"Employment Office, Moradabad - UPPCB",22-12-2025 08:00:00,28.88528,78.73880,CO,24,53,50
India,Uttar_Pradesh,Moradabad,"Jigar Colony, Moradabad - UPPCB",22-12-2025 08:00:00,28.856664,78.772638,NH3,6,11,6
India,Uttar_Pradesh,Moradabad,"Kashiram Nagar, Moradabad - UPPCB",22-12-2025 08:00:00,28.849399,78.742362,PM2.5,65,318,184
India,Uttar_Pradesh,Moradabad,"Kashiram Nagar, Moradabad - UPPCB",22-12-2025 08:00:00,28.849399,78.742362,PM10,76,196,137
India,Uttar_Pradesh,Moradabad,"Kashiram Nagar, Moradabad - UPPCB",22-12-2025 08:00:00,28.849399,78.742362,SO2,75,104,93
India,Uttar_Pradesh,Lucknow,"B R Ambedkar University, Lucknow - UPPCB",22-12-2025 08:00:00,26.766433,80.927299,CO,16,22,21
India,Uttar_Pradesh,Lucknow,"Gomti Nagar, Lucknow - UPPCB",22-12-2025 08:00:00,26.868120,81.005119,OZONE,22,31,23
India,Uttar_Pradesh,Lucknow,"Kendriya Vidyalaya, Lucknow - CPCB",22-12-2025 08:00:00,26.906111,80.948222,OZONE,10,78,14
India,Uttar_Pradesh,Lucknow,"Kukrail Picnic Spot-1, Lucknow - UPPCB",22-12-2025 08:00:00,26.90723,80.98579,SO2,38,42,40
India,Uttar_Pradesh,Prayagraj,"Nagar Nigam, Prayagraj - UPPCB",22-12-2025 08:00:00,25.44919916 ,81.82735986 ,PM2.5,80,161,104
India,Uttar_Pradesh,Prayagraj,"Nagar Nigam, Prayagraj - UPPCB",22-12-2025 08:00:00,25.44919916 ,81.82735986 ,NO2,5,5,5
India,Uttar_Pradesh,Prayagraj,"Nagar Nigam, Prayagraj - UPPCB",22-12-2025 08:00:00,25.44919916 ,81.82735986 ,NH3,9,21,14
India,Uttar_Pradesh,Varanasi,"Ardhali Bazar, Varanasi - UPPCB",22-12-2025 08:00:00,25.3505986,82.9083074,PM2.5,63,150,93
India,Uttar_Pradesh,Varanasi,"Ardhali Bazar, Varanasi - UPPCB",22-12-2025 08:00:00,25.3505986,82.9083074,SO2,9,13,12
India,Uttar_Pradesh,Moradabad,"Transport Nagar, Moradabad - UPPCB",22-12-2025 08:00:00,28.802625,78.753728,NO2,29,30,29
India,Uttar_Pradesh,Muzaffarnagar,"New Mandi, Muzaffarnagar - UPPCB",22-12-2025 08:00:00,29.4723508,77.7194031,PM2.5,237,363,325
India,Uttar_Pradesh,Noida,"Sector - 125, Noida - UPPCB",22-12-2025 08:00:00,28.5447608,77.3231257,NH3,NA,NA,NA
India,Uttar_Pradesh,Noida,"Sector - 125, Noida - UPPCB",22-12-2025 08:00:00,28.5447608,77.3231257,OZONE,NA,NA,NA
India,Uttar_Pradesh,Lucknow,"Lalbagh, Lucknow - CPCB",22-12-2025 08:00:00,26.8458805,80.9365541,SO2,2,16,9
India,Uttar_Pradesh,Lucknow,"Talkatora District Industries Center, Lucknow - CPCB",22-12-2025 08:00:00,26.83399722,80.8917361,PM2.5,250,334,295
India,Uttar_Pradesh,Lucknow,"Talkatora District Industries Center, Lucknow - CPCB",22-12-2025 08:00:00,26.83399722,80.8917361,PM10,158,203,181
India,Uttar_Pradesh,Moradabad,"Buddhi Vihar, Moradabad - UPPCB",22-12-2025 08:00:00,28.83526,78.74460,NO2,29,29,29
India,Uttar_Pradesh,Moradabad,"Buddhi Vihar, Moradabad - UPPCB",22-12-2025 08:00:00,28.83526,78.74460,NH3,5,5,5
India,Uttar_Pradesh,Moradabad,"Eco Herbal Park, Moradabad - UPPCB",22-12-2025 08:00:00,28.840739,78.697531,PM10,98,236,154
India,Uttar_Pradesh,Meerut,"Ganga Nagar, Meerut - UPPCB",22-12-2025 08:00:00,28.999264,77.7590354,OZONE,6,67,12
India,Uttar_Pradesh,Meerut,"Pallavpuram Phase 2, Meerut - UPPCB",22-12-2025 08:00:00,29.063510,77.709723,PM10,133,415,261
India,West_Bengal,Durgapur,"Womens College_City Center, Durgapur - WBPCB (Formerly known as Sidhu Kanhu Indoor Stadium)",22-12-2025 08:00:00,23.549395,87.300496,PM10,121,177,151
India,West_Bengal,Durgapur,"Womens College_City Center, Durgapur - WBPCB (Formerly known as Sidhu Kanhu Indoor Stadium)",22-12-2025 08:00:00,23.549395,87.300496,NH3,1,4,3
India,West_Bengal,Durgapur,"Womens College_City Center, Durgapur - WBPCB (Formerly known as Sidhu Kanhu Indoor Stadium)",22-12-2025 08:00:00,23.549395,87.300496,CO,39,64,50
India,West_Bengal,Haldia,"Priyambada Housing Estate, Haldia - WBPCB",22-12-2025 08:00:00,22.06047,88.109737,PM10,156,211,179
India,West_Bengal,Haldia,"Priyambada Housing Estate, Haldia - WBPCB",22-12-2025 08:00:00,22.06047,88.109737,NH3,4,5,4
India,West_Bengal,Howrah,"Belur Math, Howrah - WBPCB",22-12-2025 08:00:00,22.629801,88.352017,NH3,7,13,10
India,West_Bengal,Howrah,"Belur Math, Howrah - WBPCB",22-12-2025 08:00:00,22.629801,88.352017,OZONE,14,43,19
India,West_Bengal,Asansol,"Evelyn Lodge, Asansol - WBPCB",22-12-2025 08:00:00,23.6979360,86.9443950,OZONE,14,45,15
India,West_Bengal,Asansol,"Trivenidevi Bhalotia College, Asansol - WBPCB",22-12-2025 08:00:00,23.616515,87.119133,PM2.5,95,293,187
India,West_Bengal,Asansol,"Trivenidevi Bhalotia College, Asansol - WBPCB",22-12-2025 08:00:00,23.616515,87.119133,NH3,7,8,7
India,West_Bengal,Asansol,"Trivenidevi Bhalotia College, Asansol - WBPCB",22-12-2025 08:00:00,23.616515,87.119133,CO,26,70,49
India,West_Bengal,Barrackpore,"SVSPA Campus, Barrackpore - WBPCB",22-12-2025 08:00:00,22.7605581,88.3617589,NO2,13,31,20
India,West_Bengal,Durgapur,"Mahishkapur Road_B-Zone, Durgapur - WBPCB",22-12-2025 08:00:00,23.567923,87.306843,PM2.5,73,166,125
India,Uttarakhand,Kashipur,"Govt. Girls Inter College, Kashipur - UKPCB",22-12-2025 08:00:00,29.2124114,78.9611753,PM2.5,NA,NA,NA
India,Uttarakhand,Rishikesh,"Shivaji Nagar, Rishikesh - UKPCB",22-12-2025 08:00:00,30.075911,78.2859547,PM2.5,NA,NA,NA
India,Uttarakhand,Rishikesh,"Shivaji Nagar, Rishikesh - UKPCB",22-12-2025 08:00:00,30.075911,78.2859547,OZONE,NA,NA,NA
India,West_Bengal,Asansol,"Asansol Court Area, Asansol - WBPCB",22-12-2025 08:00:00,23.685297,86.945968,OZONE,19,41,21
India,West_Bengal,Asansol,"Evelyn Lodge, Asansol - WBPCB",22-12-2025 08:00:00,23.6979360,86.9443950,NH3,4,5,4
India,West_Bengal,Howrah,"Padmapukur, Howrah - WBPCB",22-12-2025 08:00:00,22.5687319,88.2797276,NH3,2,2,2
India,West_Bengal,Howrah,"Padmapukur, Howrah - WBPCB",22-12-2025 08:00:00,22.5687319,88.2797276,CO,2,54,24
India,West_Bengal,Howrah,"Padmapukur, Howrah - WBPCB",22-12-2025 08:00:00,22.5687319,88.2797276,OZONE,2,75,6
India,West_Bengal,Kolkata,"Ballygunge, Kolkata - WBPCB",22-12-2025 08:00:00,22.5367507,88.3638022,NH3,8,13,9
India,West_Bengal,Kolkata,"Ballygunge, Kolkata - WBPCB",22-12-2025 08:00:00,22.5367507,88.3638022,SO2,4,24,14
India,West_Bengal,Kolkata,"Ballygunge, Kolkata - WBPCB",22-12-2025 08:00:00,22.5367507,88.3638022,OZONE,6,22,7
India,West_Bengal,Kolkata,"Fort William, Kolkata - WBPCB",22-12-2025 08:00:00,22.556640,88.342674,CO,24,50,35
India,West_Bengal,Kolkata,"Fort William, Kolkata - WBPCB",22-12-2025 08:00:00,22.556640,88.342674,OZONE,15,55,37
India,West_Bengal,Kolkata,"Jadavpur, Kolkata - WBPCB",22-12-2025 08:00:00,22.49929,88.36917,PM10,119,199,171
India,West_Bengal,Durgapur,"PCBL Residential Complex, Durgapur - WBPCB",22-12-2025 08:00:00,23.5087640,87.3544400,NH3,12,15,14
India,West_Bengal,Durgapur,"PCBL Residential Complex, Durgapur - WBPCB",22-12-2025 08:00:00,23.5087640,87.3544400,SO2,2,2,2
India,West_Bengal,Durgapur,"PCBL Residential Complex, Durgapur - WBPCB",22-12-2025 08:00:00,23.5087640,87.3544400,CO,59,92,71
India,West_Bengal,Howrah,"Botanical Garden, Howrah - WBPCB",22-12-2025 08:00:00,22.554954,88.292568,NO2,7,23,16
India,West_Bengal,Howrah,"Ghusuri, Howrah - WBPCB",22-12-2025 08:00:00,22.611968,88.347422,OZONE,8,21,11
India,West_Bengal,Howrah,"Dasnagar, Howrah - WBPCB",22-12-2025 08:00:00,22.6025571,88.3105664,PM2.5,NA,NA,NA
India,West_Bengal,Kolkata,"Rabindra Bharati University, Kolkata - WBPCB",22-12-2025 08:00:00,22.627847,88.380669,PM10,107,155,138
India,West_Bengal,Kolkata,"Rabindra Bharati University, Kolkata - WBPCB",22-12-2025 08:00:00,22.627847,88.380669,NH3,12,12,12
India,West_Bengal,Kolkata,"Rabindra Bharati University, Kolkata - WBPCB",22-12-2025 08:00:00,22.627847,88.380669,SO2,8,12,10
India,West_Bengal,Kolkata,"Rabindra Sarobar, Kolkata - WBPCB",22-12-2025 08:00:00,22.51106,88.35142,PM2.5,60,139,97
India,West_Bengal,Kolkata,"Rabindra Sarobar, Kolkata - WBPCB",22-12-2025 08:00:00,22.51106,88.35142,PM10,77,114,101
India,West_Bengal,Kolkata,"Rabindra Sarobar, Kolkata - WBPCB",22-12-2025 08:00:00,22.51106,88.35142,CO,61,86,69
India,West_Bengal,Kolkata,"Victoria, Kolkata - WBPCB",22-12-2025 08:00:00,22.5448082,88.3403691,PM2.5,NA,NA,NA
India,West_Bengal,Siliguri,"Ward-32 Bapupara, Siliguri - WBPCB",22-12-2025 08:00:00,26.6879226,88.4152495,SO2,13,17,14
India,Andhra_Pradesh,Vijayawada,"Rajiv Gandhi Park, Vijayawada - APPCB",22-12-2025 08:00:00,16.509717,80.612222,OZONE,5,51,14
India,Andhra_Pradesh,Vijayawada,"Rajiv Nagar, Vijayawada - APPCB",22-12-2025 08:00:00,16.554731,80.649110,PM10,48,64,56
India,Andhra_Pradesh,Vijayawada,"Rajiv Nagar, Vijayawada - APPCB",22-12-2025 08:00:00,16.554731,80.649110,NO2,8,9,8
India,Andhra_Pradesh,Vijayawada,"Rajiv Nagar, Vijayawada - APPCB",22-12-2025 08:00:00,16.554731,80.649110,CO,26,34,29
India,Andhra_Pradesh,Visakhapatnam,"GVM Corporation, Visakhapatnam - APPCB",22-12-2025 08:00:00,17.72,83.3,PM2.5,195,340,277
India,Andhra_Pradesh,Visakhapatnam,"GVM Corporation, Visakhapatnam - APPCB",22-12-2025 08:00:00,17.72,83.3,CO,46,92,58
India,Arunachal_Pradesh,Naharlagun,"Naharlagun, Naharlagun - APSPCB",22-12-2025 08:00:00,27.103358,93.679645,PM10,30,315,110
India,Arunachal_Pradesh,Naharlagun,"Naharlagun, Naharlagun - APSPCB",22-12-2025 08:00:00,27.103358,93.679645,CO,8,70,17
India,Bihar,Bhagalpur,"DM Office_Kachari Chowk, Bhagalpur - BSPCB",22-12-2025 08:00:00,25.251013,86.989001,CO,10,16,14
India,Bihar,Bhagalpur,"Mayaganj, Bhagalpur - BSPCB",22-12-2025 08:00:00,25.265194,87.012947,NO2,7,8,7
India,Bihar,Bhagalpur,"Mayaganj, Bhagalpur - BSPCB",22-12-2025 08:00:00,25.265194,87.012947,NH3,9,11,10
India,Bihar,Bhagalpur,"Mayaganj, Bhagalpur - BSPCB",22-12-2025 08:00:00,25.265194,87.012947,SO2,47,54,50
India,Bihar,Bihar Sharif,"D M Colony, Bihar Sharif - BSPCB",22-12-2025 08:00:00,25.204762,85.514960,NO2,9,10,10
India,Bihar,Buxar,"Charitra Van, Buxar - BSPCB",22-12-2025 08:00:00,25.567520,83.966379,PM10,78,115,94
India,Bihar,Buxar,"Charitra Van, Buxar - BSPCB",22-12-2025 08:00:00,25.567520,83.966379,SO2,1,9,5
India,Bihar,Arrah,"New DM Office, Arrah - BSPCB",22-12-2025 08:00:00,25.5626095,84.663264,NO2,5,12,7
India,Bihar,Begusarai,"Lohiyanagar, Begusarai - BSPCB",22-12-2025 08:00:00,25.42742023,86.13886079,NH3,10,11,11
India,Bihar,Begusarai,"Lohiyanagar, Begusarai - BSPCB",22-12-2025 08:00:00,25.42742023,86.13886079,OZONE,10,13,10
India,Bihar,Bettiah,"Kamalnath Nagar, Bettiah - BSPCB",22-12-2025 08:00:00,26.80365,84.51954,NH3,1,2,1
India,Bihar,Bhagalpur,"DM Office_Kachari Chowk, Bhagalpur - BSPCB",22-12-2025 08:00:00,25.251013,86.989001,PM2.5,53,110,80
India,Bihar,Chhapra,"Darshan Nagar, Chhapra - BSPCB",22-12-2025 08:00:00,25.7808257,84.7446768,SO2,33,37,35
India,Bihar,Gaya,"Kareemganj, Gaya - BSPCB",22-12-2025 08:00:00,24.792403,84.992416,PM2.5,53,240,101
India,Bihar,Gaya,"Kareemganj, Gaya - BSPCB",22-12-2025 08:00:00,24.792403,84.992416,PM10,91,259,147
India,Bihar,Hajipur,"Industrial Area, Hajipur - BSPCB",22-12-2025 08:00:00,25.697189,85.245900,PM10,76,114,98
India,Bihar,Katihar,"Mirchaibari, Katihar - BSPCB",22-12-2025 08:00:00,25.560083,87.553265,PM10,49,111,84
India,Assam,Guwahati,"LGBI Airport, Guwahati - PCBA",22-12-2025 08:00:00,26.10887,91.589544,SO2,7,12,10
India,Assam,Guwahati,"LGBI Airport, Guwahati - PCBA",22-12-2025 08:00:00,26.10887,91.589544,OZONE,12,13,12
India,Assam,Guwahati,"Railway Colony, Guwahati - PCBA",22-12-2025 08:00:00,26.181742,91.78063,PM2.5,73,393,259
India,Assam,Nalbari,"Bata Chowk, Nalbari - PCBA",22-12-2025 08:00:00,26.446912,91.439057,NO2,14,15,14
India,Assam,Nalbari,"Bata Chowk, Nalbari - PCBA",22-12-2025 08:00:00,26.446912,91.439057,SO2,NA,NA,NA
India,Andaman and Nicobar,Sri Vijaya Puram,"Police Line, Sri Vijaya Puram - ANPCC",22-12-2025 08:00:00,11.654054,92.734055,NO2,NA,NA,NA
India,Andaman and Nicobar,Sri Vijaya Puram,"Police Line, Sri Vijaya Puram - ANPCC",22-12-2025 08:00:00,11.654054,92.734055,NH3,NA,NA,NA
India,Andhra_Pradesh,Amaravati,"Secretariat, Amaravati - APPCB",22-12-2025 08:00:00,16.5150833,80.5181667,PM2.5,51,216,101
India,Andhra_Pradesh,Amaravati,"Secretariat, Amaravati - APPCB",22-12-2025 08:00:00,16.5150833,80.5181667,PM10,70,174,111
India,Andhra_Pradesh,Amaravati,"Secretariat, Amaravati - APPCB",22-12-2025 08:00:00,16.5150833,80.5181667,NH3,1,4,3
India,Andhra_Pradesh,Anantapur,"Gulzarpet, Anantapur - APPCB",22-12-2025 08:00:00,14.675886,77.593027,NH3,6,6,6
India,Andhra_Pradesh,Chittoor,"Gangineni Cheruvu, Chittoor - APPCB",22-12-2025 08:00:00,13.204880,79.097889,PM10,6,206,80
India,Assam,Sivasagar,"Girls College, Sivasagar - PCBA",22-12-2025 08:00:00,26.987634,94.636574,SO2,11,16,15
India,Assam,Sivasagar,"Girls College, Sivasagar - PCBA",22-12-2025 08:00:00,26.987634,94.636574,CO,8,105,53
India,Assam,Sivasagar,"Girls College, Sivasagar - PCBA",22-12-2025 08:00:00,26.987634,94.636574,OZONE,4,61,5
India,Bihar,Araria,"Kharahiya Basti, Araria - BSPCB",22-12-2025 08:00:00,26.146529,87.454184,CO,32,62,50
India,Andhra_Pradesh,Chittoor,"Gangineni Cheruvu, Chittoor - APPCB",22-12-2025 08:00:00,13.204880,79.097889,NH3,5,5,5
India,Andhra_Pradesh,Rajamahendravaram,"Anand Kala Kshetram, Rajamahendravaram - APPCB",22-12-2025 08:00:00,16.9872867,81.7363176,NO2,15,58,33
India,Andhra_Pradesh,Tirupati,"Vaikuntapuram, Tirupati - APPCB",22-12-2025 08:00:00,13.615387,79.409230,SO2,18,20,19
India,Andhra_Pradesh,Vijayawada,"HB Colony, Vijayawada - APPCB",22-12-2025 08:00:00,16.536107,80.594233,PM2.5,79,134,99
India,Bihar,Patna,"Samanpura, Patna - BSPCB",22-12-2025 08:00:00,25.596727,85.085624,CO,74,101,78
India,Bihar,Rajgir,"Dangi Tola, Rajgir - BSPCB",22-12-2025 08:00:00,25.03280,85.41948,PM10,37,157,102
India,Bihar,Rajgir,"Dangi Tola, Rajgir - BSPCB",22-12-2025 08:00:00,25.03280,85.41948,CO,78,99,92
India,Bihar,Saharsa,"Police Line, Saharsa - BSPCB",22-12-2025 08:00:00,25.892357,86.590325,PM2.5,32,187,86
India,Bihar,Saharsa,"Police Line, Saharsa - BSPCB",22-12-2025 08:00:00,25.892357,86.590325,SO2,14,17,16
India,Bihar,Saharsa,"Police Line, Saharsa - BSPCB",22-12-2025 08:00:00,25.892357,86.590325,OZONE,8,11,10
India,Bihar,Samastipur,"DM Office_Kasipur, Samastipur - BSPCB",22-12-2025 08:00:00,25.859655,85.77944,NH3,1,2,1
India,Bihar,Samastipur,"DM Office_Kasipur, Samastipur - BSPCB",22-12-2025 08:00:00,25.859655,85.77944,SO2,18,38,26
India,Bihar,Samastipur,"DM Office_Kasipur, Samastipur - BSPCB",22-12-2025 08:00:00,25.859655,85.77944,CO,48,62,58
India,Bihar,Sasaram,"Dada Peer, Sasaram - BSPCB",22-12-2025 08:00:00,24.952822,84.002396,PM2.5,32,107,63
India,Bihar,Kishanganj,"SDM Office_Khagra, Kishanganj - BSPCB",22-12-2025 08:00:00,26.0881305,87.93840336,PM10,NA,NA,NA
India,Bihar,Manguraha,"Forest Rest House, Manguraha - BSPCB",22-12-2025 08:00:00,27.308328,84.531742,NO2,5,7,6
India,Bihar,Manguraha,"Forest Rest House, Manguraha - BSPCB",22-12-2025 08:00:00,27.308328,84.531742,NH3,1,1,1
India,Bihar,Manguraha,"Forest Rest House, Manguraha - BSPCB",22-12-2025 08:00:00,27.308328,84.531742,CO,32,33,32
India,Bihar,Motihari,"Gandak Colony, Motihari - BSPCB",22-12-2025 08:00:00,26.63086,84.90051,PM10,96,153,121
India,Bihar,Munger,"Town Hall, Munger - BSPCB",22-12-2025 08:00:00,25.376776,86.471523,PM10,57,139,106
India,Bihar,Munger,"Town Hall, Munger - BSPCB",22-12-2025 08:00:00,25.376776,86.471523,NO2,4,5,5
India,Bihar,Munger,"Town Hall, Munger - BSPCB",22-12-2025 08:00:00,25.376776,86.471523,NH3,4,7,6
India,Bihar,Munger,"Town Hall, Munger - BSPCB",22-12-2025 08:00:00,25.376776,86.471523,CO,21,33,29
India,Chandigarh,Chandigarh,"Sector-53, Chandigarh - CPCC",22-12-2025 08:00:00,30.719859,76.738637,OZONE,1,66,3
India,Chhattisgarh,Bhilai,"32Bungalows, Bhilai - CECB",22-12-2025 08:00:00,21.194815,81.314770,NH3,NA,NA,NA
India,Chhattisgarh,Bhilai,"32Bungalows, Bhilai - CECB",22-12-2025 08:00:00,21.194815,81.314770,CO,18,101,64
India,Chhattisgarh,Bhilai,"Civic Center, Bhilai - Bhilai Steel Plant",22-12-2025 08:00:00,21.185571,81.343175,PM2.5,31,95,56
India,Chhattisgarh,Bhilai,"Civic Center, Bhilai - Bhilai Steel Plant",22-12-2025 08:00:00,21.185571,81.343175,OZONE,5,14,10
India,Chhattisgarh,Bhilai,"Hathkhoj, Bhilai - CECB",22-12-2025 08:00:00,21.224231,81.408350,PM2.5,18,60,39
India,Chhattisgarh,Bhilai,"Hathkhoj, Bhilai - CECB",22-12-2025 08:00:00,21.224231,81.408350,NH3,4,8,5
India,Bihar,Muzaffarpur,"Buddha Colony, Muzaffarpur - BSPCB",22-12-2025 08:00:00,26.11442,85.39813,CO,32,52,36
India,Bihar,Muzaffarpur,"MIT-Daudpur Kothi, Muzaffarpur - BSPCB",22-12-2025 08:00:00,26.1403345,85.3650192,PM10,62,82,68
India,Bihar,Muzaffarpur,"MIT-Daudpur Kothi, Muzaffarpur - BSPCB",22-12-2025 08:00:00,26.1403345,85.3650192,NO2,1,3,2
India,Bihar,Muzaffarpur,"MIT-Daudpur Kothi, Muzaffarpur - BSPCB",22-12-2025 08:00:00,26.1403345,85.3650192,SO2,12,14,13
India,Bihar,Muzaffarpur,"MIT-Daudpur Kothi, Muzaffarpur - BSPCB",22-12-2025 08:00:00,26.1403345,85.3650192,CO,45,62,47
India,Bihar,Patna,"DRM Office Danapur, Patna - BSPCB",22-12-2025 08:00:00,25.586562,85.043586,PM2.5,106,161,132
India,Bihar,Patna,"DRM Office Danapur, Patna - BSPCB",22-12-2025 08:00:00,25.586562,85.043586,NH3,5,8,6
India,Chhattisgarh,Chhal,"Nawapara SECL Colony, Chhal - CECB",22-12-2025 08:00:00,22.118125,83.140608,NH3,5,5,5
India,Chhattisgarh,Chhal,"Nawapara SECL Colony, Chhal - CECB",22-12-2025 08:00:00,22.118125,83.140608,OZONE,3,195,8
India,Chhattisgarh,Korba,"Rampur, Korba - CECB",22-12-2025 08:00:00,22.368195,82.746431,SO2,3,18,7
India,Chhattisgarh,Korba,"Rampur, Korba - CECB",22-12-2025 08:00:00,22.368195,82.746431,CO,20,46,35
India,Chhattisgarh,Korba,"Urja Nagar, Korba - CECB",22-12-2025 08:00:00,22.348441,82.549611,NH3,1,1,1
India,Chhattisgarh,Korba,"Urja Nagar, Korba - CECB",22-12-2025 08:00:00,22.348441,82.549611,SO2,2,19,8
India,Chhattisgarh,Korba,"Urja Nagar, Korba - CECB",22-12-2025 08:00:00,22.348441,82.549611,CO,22,86,46
India,Chhattisgarh,Raipur,"AIIMS, Raipur - CECB",22-12-2025 08:00:00,21.258815,81.578979,NH3,1,1,1
India,Chhattisgarh,Raipur,"Bhatagaon New ISBT, Raipur - CECB",22-12-2025 08:00:00,21.219665,81.630094,NO2,NA,NA,NA
India,Chhattisgarh,Raipur,"Bhatagaon New ISBT, Raipur - CECB",22-12-2025 08:00:00,21.219665,81.630094,OZONE,2,7,2
India,Chhattisgarh,Raipur,"Krishak Nagar, Raipur - CECB",22-12-2025 08:00:00,21.237755,81.705301,NH3,2,2,2
India,Chhattisgarh,Raipur,"Siltara Phase-II, Raipur - CECB",22-12-2025 08:00:00,21.371751,81.664929,PM2.5,25,58,37
India,Bihar,Patna,"Govt. High School Shikarpur, Patna - BSPCB",22-12-2025 08:00:00,25.592539,85.227158,PM10,63,414,99
India,Bihar,Patna,"IGSC Planetarium Complex, Patna - BSPCB",22-12-2025 08:00:00,25.610369,85.132568,PM2.5,81,139,106
India,Bihar,Patna,"Muradpur, Patna - BSPCB",22-12-2025 08:00:00,25.619651,85.147382,NH3,4,5,4
India,Bihar,Patna,"Muradpur, Patna - BSPCB",22-12-2025 08:00:00,25.619651,85.147382,CO,30,72,54
India,Bihar,Siwan,"Chitragupta Nagar, Siwan - BSPCB",22-12-2025 08:00:00,26.2271665,84.3570427,PM10,98,115,108
India,Bihar,Siwan,"Chitragupta Nagar, Siwan - BSPCB",22-12-2025 08:00:00,26.2271665,84.3570427,NH3,1,2,1
India,Chandigarh,Chandigarh,"Sector 22, Chandigarh - CPCC",22-12-2025 08:00:00,30.735567,76.775714,NO2,38,125,70
India,Chandigarh,Chandigarh,"Sector 22, Chandigarh - CPCC",22-12-2025 08:00:00,30.735567,76.775714,CO,62,120,79
India,Chandigarh,Chandigarh,"Sector 22, Chandigarh - CPCC",22-12-2025 08:00:00,30.735567,76.775714,OZONE,4,95,5
India,Chandigarh,Chandigarh,"Sector-25, Chandigarh - CPCC",22-12-2025 08:00:00,30.751462,76.762879,CO,36,87,51
India,Delhi,Delhi,"Bawana, Delhi - DPCC",22-12-2025 08:00:00,28.776200,77.051074,PM10,219,456,344
India,Delhi,Delhi,"Bawana, Delhi - DPCC",22-12-2025 08:00:00,28.776200,77.051074,NH3,11,19,13
India,Delhi,Delhi,"Burari Crossing, Delhi - IMD",22-12-2025 08:00:00,28.7256504,77.2011573,PM10,166,348,239
India,Delhi,Delhi,"Burari Crossing, Delhi - IMD",22-12-2025 08:00:00,28.7256504,77.2011573,NO2,123,172,140
India,Delhi,Delhi,"Burari Crossing, Delhi - IMD",22-12-2025 08:00:00,28.7256504,77.2011573,OZONE,9,82,10
India,Delhi,Delhi,"CRRI Mathura Road, Delhi - IMD",22-12-2025 08:00:00,28.5512005,77.2735737,PM10,141,270,197
India,Delhi,Delhi,"Chandni Chowk, Delhi - IITM",22-12-2025 08:00:00,28.656756,77.227234,NO2,32,150,66
India,Delhi,Delhi,"DTU, Delhi - CPCB",22-12-2025 08:00:00,28.7500499,77.1112615,PM2.5,350,490,400
India,Delhi,Delhi,"DTU, Delhi - CPCB",22-12-2025 08:00:00,28.7500499,77.1112615,SO2,34,35,34
India,Delhi,Delhi,"Dr. Karni Singh Shooting Range, Delhi - DPCC",22-12-2025 08:00:00,28.498571,77.264840,CO,57,100,69
India,Delhi,Delhi,"Lodhi Road, Delhi - IMD",22-12-2025 08:00:00,28.5918245,77.2273074,PM10,212,330,271
India,Delhi,Delhi,"Lodhi Road, Delhi - IMD",22-12-2025 08:00:00,28.5918245,77.2273074,NO2,21,37,28
India,Delhi,Delhi,"Mandir Marg, Delhi - DPCC",22-12-2025 08:00:00,28.636429,77.201067,SO2,103,109,106
India,Delhi,Delhi,"Mundka, Delhi - DPCC",22-12-2025 08:00:00,28.684678,77.076574,OZONE,3,79,11
India,Delhi,Delhi,"ITO, Delhi - CPCB",22-12-2025 08:00:00,28.628624,77.241060,OZONE,29,31,29
India,Delhi,Delhi,"Jawaharlal Nehru Stadium, Delhi - DPCC",22-12-2025 08:00:00,28.580280,77.233829,CO,70,103,75
India,Delhi,Delhi,"Lodhi Road, Delhi - IITM",22-12-2025 08:00:00,28.588333,77.221667,PM10,185,233,207
India,Delhi,Delhi,"Lodhi Road, Delhi - IITM",22-12-2025 08:00:00,28.588333,77.221667,NO2,2,73,23
India,Chhattisgarh,Raipur,"Siltara Phase-II, Raipur - CECB",22-12-2025 08:00:00,21.371751,81.664929,SO2,3,5,4
India,Chhattisgarh,Raipur,"Siltara Phase-II, Raipur - CECB",22-12-2025 08:00:00,21.371751,81.664929,CO,34,36,35
India,Delhi,Delhi,"Alipur, Delhi - DPCC",22-12-2025 08:00:00,28.815329,77.153010,PM2.5,321,442,391
India,Delhi,Delhi,"Dwarka-Sector 8, Delhi - DPCC ",22-12-2025 08:00:00,28.5710274,77.0719006,CO,19,86,29
India,Delhi,Delhi,"IHBAS, Dilshad Garden, Delhi - CPCB",22-12-2025 08:00:00,28.6811736,77.3025234,PM2.5,32,373,301
India,Delhi,Delhi,"IHBAS, Dilshad Garden, Delhi - CPCB",22-12-2025 08:00:00,28.6811736,77.3025234,CO,36,52,41
India,Delhi,Delhi,"NSIT Dwarka, Delhi - CPCB",22-12-2025 08:00:00,28.60909,77.0325413,PM10,306,418,381
India,Delhi,Delhi,"Najafgarh, Delhi - DPCC",22-12-2025 08:00:00,28.570173,76.933762,PM10,NA,NA,NA
India,Delhi,Delhi,"Najafgarh, Delhi - DPCC",22-12-2025 08:00:00,28.570173,76.933762,CO,NA,NA,NA
India,Delhi,Delhi,"Patparganj, Delhi - DPCC",22-12-2025 08:00:00,28.623763,77.287209,OZONE,3,34,13
India,Delhi,Delhi,"Punjabi Bagh, Delhi - DPCC",22-12-2025 08:00:00,28.674045,77.131023,PM2.5,341,402,380
India,Delhi,Delhi,"Punjabi Bagh, Delhi - DPCC",22-12-2025 08:00:00,28.674045,77.131023,PM10,199,361,278
India,Delhi,Delhi,"Okhla Phase-2, Delhi - DPCC",22-12-2025 08:00:00,28.530785,77.271255,NO2,76,123,96
India,Delhi,Delhi,"Okhla Phase-2, Delhi - DPCC",22-12-2025 08:00:00,28.530785,77.271255,NH3,22,31,26
India,Delhi,Delhi,"Patparganj, Delhi - DPCC",22-12-2025 08:00:00,28.623763,77.287209,NH3,14,18,16
India,Delhi,Delhi,"Pusa, Delhi - IMD",22-12-2025 08:00:00,28.636110,77.173332,PM10,186,262,227
India,Delhi,Delhi,"Pusa, Delhi - IMD",22-12-2025 08:00:00,28.636110,77.173332,NO2,20,78,37
India,Delhi,Delhi,"Punjabi Bagh, Delhi - DPCC",22-12-2025 08:00:00,28.674045,77.131023,NO2,23,72,39
India,Delhi,Delhi,"Punjabi Bagh, Delhi - DPCC",22-12-2025 08:00:00,28.674045,77.131023,NH3,6,8,7
India,Delhi,Delhi,"North Campus, DU, Delhi - IMD",22-12-2025 08:00:00,28.6573814,77.1585447,OZONE,13,91,15
India,Delhi,Delhi,"Nehru Nagar, Delhi - DPCC",22-12-2025 08:00:00,28.567890,77.250515,SO2,9,18,14
India,Delhi,Delhi,"Narela, Delhi - DPCC",22-12-2025 08:00:00,28.822836,77.101981,PM2.5,353,481,418
India,Delhi,Delhi,"Narela, Delhi - DPCC",22-12-2025 08:00:00,28.822836,77.101981,PM10,228,467,371
India,Delhi,Delhi,"Narela, Delhi - DPCC",22-12-2025 08:00:00,28.822836,77.101981,OZONE,5,65,7
India,Gujarat,Surat,"Science Center, Surat - SMC",22-12-2025 08:00:00,21.170046,72.795405,PM2.5,24,118,65
India,Gujarat,Surat,"Science Center, Surat - SMC",22-12-2025 08:00:00,21.170046,72.795405,CO,18,46,40
India,Gujarat,Vapi,"Phase-1 GIDC, Vapi - GPCB",22-12-2025 08:00:00,20.362421,72.918013,NH3,NA,NA,NA
India,Haryana,Ambala,"Patti Mehar, Ambala - HSPCB",22-12-2025 08:00:00,30.379589,76.778328,PM10,87,132,106
India,Haryana,Ambala,"Patti Mehar, Ambala - HSPCB",22-12-2025 08:00:00,30.379589,76.778328,OZONE,47,52,50
India,Gujarat,Ahmedabad,"Raikhad, Ahmedabad - IITM",22-12-2025 08:00:00,23.020509,72.579261,NH3,12,22,15
India,Gujarat,Ahmedabad,"Rakhial, Ahmedabad - IITM",22-12-2025 08:00:00,23.016834,72.625775,NH3,3,5,4
India,Gujarat,Ahmedabad,"SAC ISRO Bopal, Ahmedabad - IITM",22-12-2025 08:00:00,23.041137,72.456691,NH3,11,16,14
India,Gujarat,Ahmedabad,"SAC ISRO Bopal, Ahmedabad - IITM",22-12-2025 08:00:00,23.041137,72.456691,SO2,2,29,7
India,Gujarat,Ahmedabad,"SAC ISRO Bopal, Ahmedabad - IITM",22-12-2025 08:00:00,23.041137,72.456691,OZONE,2,52,6
India,Delhi,Delhi,"R K Puram, Delhi - DPCC",22-12-2025 08:00:00,28.563262,77.186937,PM10,194,328,266
India,Delhi,Delhi,"R K Puram, Delhi - DPCC",22-12-2025 08:00:00,28.563262,77.186937,NO2,21,75,44
India,Delhi,Delhi,"R K Puram, Delhi - DPCC",22-12-2025 08:00:00,28.563262,77.186937,OZONE,6,49,19
India,Delhi,Delhi,"Rohini, Delhi - DPCC",22-12-2025 08:00:00,28.732528,77.119920,NO2,31,97,56
India,Delhi,Delhi,"Rohini, Delhi - DPCC",22-12-2025 08:00:00,28.732528,77.119920,NH3,15,20,18
India,Delhi,Delhi,"Wazirpur, Delhi - DPCC",22-12-2025 08:00:00,28.699793,77.165453,OZONE,9,73,41
India,Gujarat,Ahmedabad,"Chandkheda, Ahmedabad - IITM",22-12-2025 08:00:00,23.107969,72.574648,PM10,83,176,118
India,Gujarat,Ahmedabad,"Chandkheda, Ahmedabad - IITM",22-12-2025 08:00:00,23.107969,72.574648,NO2,17,107,47
India,Gujarat,Ahmedabad,"Chandkheda, Ahmedabad - IITM",22-12-2025 08:00:00,23.107969,72.574648,CO,14,93,19
India,Gujarat,Ahmedabad,"SAC ISRO Satellite, Ahmedabad - IITM",22-12-2025 08:00:00,23.023389,72.515201,CO,1,52,10
India,Gujarat,Ahmedabad,"SAC ISRO Satellite, Ahmedabad - IITM",22-12-2025 08:00:00,23.023389,72.515201,OZONE,2,63,14
India,Gujarat,Ahmedabad,"SVPI Airport Hansol, Ahmedabad - IITM",22-12-2025 08:00:00,23.076793,72.627874,NO2,37,192,103
India,Gujarat,Ahmedabad,"SVPI Airport Hansol, Ahmedabad - IITM",22-12-2025 08:00:00,23.076793,72.627874,CO,5,74,31
India,Gujarat,Gandhinagar,"IIPHG Lekawada, Gandhinagar - IITM",22-12-2025 08:00:00,23.243639,72.68994,CO,4,66,27
India,Delhi,Delhi,"Sirifort, Delhi - CPCB",22-12-2025 08:00:00,28.5504249,77.2159377,PM2.5,355,417,392
India,Delhi,Delhi,"Vivek Vihar, Delhi - DPCC",22-12-2025 08:00:00,28.672342,77.315260,CO,66,104,78
India,Delhi,Delhi,"Shadipur, Delhi - CPCB",22-12-2025 08:00:00,28.6514781,77.1473105,NH3,11,15,13
India,Haryana,Faridabad,"Sector 30, Faridabad - HSPCB",22-12-2025 08:00:00,28.4417,77.3217,CO,57,68,62
India,Haryana,Faridabad,"Sector 30, Faridabad - HSPCB",22-12-2025 08:00:00,28.4417,77.3217,OZONE,17,20,18
India,Haryana,Fatehabad,"Huda Sector, Fatehabad - HSPCB",22-12-2025 08:00:00,29.503664,75.467934,NO2,18,20,19
India,Haryana,Fatehabad,"Huda Sector, Fatehabad - HSPCB",22-12-2025 08:00:00,29.503664,75.467934,OZONE,45,61,58
India,Haryana,Gurugram,"NISE Gwal Pahari, Gurugram - IMD",22-12-2025 08:00:00,28.422681,77.148944,NO2,19,29,24
India,Haryana,Gurugram,"Sector-51, Gurugram - HSPCB",22-12-2025 08:00:00,28.4227,77.0667,PM10,185,275,237
India,Haryana,Gurugram,"Sector-51, Gurugram - HSPCB",22-12-2025 08:00:00,28.4227,77.0667,NH3,6,10,8
India,Haryana,Narnaul,"Shastri Nagar, Narnaul - HSPCB",22-12-2025 08:00:00,28.060249,76.113115,NO2,74,116,94
India,Haryana,Palwal,"Shyam Nagar, Palwal - HSPCB",22-12-2025 08:00:00,28.1485564,77.3320667,PM2.5,38,63,50
India,Haryana,Palwal,"Shyam Nagar, Palwal - HSPCB",22-12-2025 08:00:00,28.1485564,77.3320667,NH3,8,9,9
India,Haryana,Panchgaon,"Amity University, Panchgaon - IITM",22-12-2025 08:00:00,28.3153,76.9143,NO2,1,4,2
India,Haryana,Panchgaon,"Amity University, Panchgaon - IITM",22-12-2025 08:00:00,28.3153,76.9143,CO,32,48,35
India,Haryana,Panchkula,"Sector-6, Panchkula - HSPCB ",22-12-2025 08:00:00,30.7057778,76.8531805555555,CO,22,28,25
India,Haryana,Karnal,"Sector-12, Karnal - HSPCB",22-12-2025 08:00:00,29.695300,77.002700,OZONE,36,36,36
India,Haryana,Kurukshetra,"Sector-7, Kurukshetra - HSPCB",22-12-2025 08:00:00,29.966942,76.875879,OZONE,2,43,2
India,Haryana,Mandikhera,"General Hospital, Mandikhera(Nuh) - HSPCB",22-12-2025 08:00:00,27.9002,76.9938,PM10,84,124,109
India,Haryana,Mandikhera,"General Hospital, Mandikhera(Nuh) - HSPCB",22-12-2025 08:00:00,27.9002,76.9938,SO2,31,36,34
India,Haryana,Mandikhera,"General Hospital, Mandikhera(Nuh) - HSPCB",22-12-2025 08:00:00,27.9002,76.9938,CO,62,86,74
India,Haryana,Manesar,"Sector-2 IMT, Manesar - HSPCB",22-12-2025 08:00:00,28.360699,76.936090,CO,30,48,36
India,Himachal Pradesh,Baddi,"HIMUDA Complex Phase-1, Baddi - HPPCB",22-12-2025 08:00:00,30.943887,76.801991,SO2,30,108,56
India,Jammu_and_Kashmir,Pampore,"Khrew, Pampore - JKPCC",22-12-2025 08:00:00,34.031606,75.009712,PM10,24,120,72
India,Jammu_and_Kashmir,Srinagar,"Rajbagh, Srinagar - JKPCC",22-12-2025 08:00:00,34.066206,74.819820,PM2.5,2,150,50
India,Jharkhand,Dhanbad,"Sardar Patel Nagar, Dhanbad - JSPCB",22-12-2025 08:00:00,23.80569,86.44268,NO2,54,55,54
India,Haryana,Sonipat,"Murthal, Sonipat - HSPCB",22-12-2025 08:00:00,29.027200,77.062100,PM2.5,140,411,299
India,Haryana,Sonipat,"Murthal, Sonipat - HSPCB",22-12-2025 08:00:00,29.027200,77.062100,PM10,126,266,193
India,Haryana,Sonipat,"Murthal, Sonipat - HSPCB",22-12-2025 08:00:00,29.027200,77.062100,CO,48,72,66
India,Haryana,Yamuna Nagar,"Gobind Pura, Yamuna Nagar - HSPCB",22-12-2025 08:00:00,30.1480566,77.2893471,NO2,NA,NA,NA
India,Himachal Pradesh,Baddi,"HIMUDA Complex Phase-1, Baddi - HPPCB",22-12-2025 08:00:00,30.943887,76.801991,PM2.5,88,422,268
India,Haryana,Panipat,"Sector-18, Panipat - HSPCB",22-12-2025 08:00:00,29.432304,76.972765,NH3,2,3,2
India,Haryana,Rohtak,"MD University, Rohtak - HSPCB",22-12-2025 08:00:00,28.52123,76.37138,PM10,203,443,310
India,Haryana,Rohtak,"MD University, Rohtak - HSPCB",22-12-2025 08:00:00,28.52123,76.37138,CO,52,57,55
India,Haryana,Sirsa,"F-Block, Sirsa - HSPCB",22-12-2025 08:00:00,29.536400,75.015800,PM2.5,16,63,38
India,Haryana,Sirsa,"F-Block, Sirsa - HSPCB",22-12-2025 08:00:00,29.536400,75.015800,PM10,20,75,46
India,Haryana,Sirsa,"F-Block, Sirsa - HSPCB",22-12-2025 08:00:00,29.536400,75.015800,NO2,12,26,19
India,Haryana,Ballabgarh,"Nathu Colony, Ballabgarh - HSPCB",22-12-2025 08:00:00,28.3419248,77.319699,PM10,153,187,167
India,Haryana,Ballabgarh,"Nathu Colony, Ballabgarh - HSPCB",22-12-2025 08:00:00,28.3419248,77.319699,CO,29,43,31
India,Haryana,Ballabgarh,"Nathu Colony, Ballabgarh - HSPCB",22-12-2025 08:00:00,28.3419248,77.319699,OZONE,15,15,15
India,Haryana,Charkhi Dadri,"Mini Secretariat, Charkhi Dadri - HSPCB",22-12-2025 08:00:00,28.593883,76.270653,OZONE,13,18,16
India,Haryana,Dharuhera,"Municipal Corporation Office, Dharuhera -  HSPCB",22-12-2025 08:00:00,28.206800,76.799700,PM10,NA,NA,NA
India,Haryana,Gurugram,"Sector-51, Gurugram - HSPCB",22-12-2025 08:00:00,28.4227,77.0667,SO2,13,22,18
India,Haryana,Gurugram,"Sector-51, Gurugram - HSPCB",22-12-2025 08:00:00,28.4227,77.0667,CO,14,16,14
India,Haryana,Kaithal,"Rishi Nagar, Kaithal - HSPCB",22-12-2025 08:00:00,29.8006,76.4155,SO2,28,35,31
India,Haryana,Kaithal,"Rishi Nagar, Kaithal - HSPCB",22-12-2025 08:00:00,29.8006,76.4155,CO,1,80,51
India,Haryana,Karnal,"Sector-12, Karnal - HSPCB",22-12-2025 08:00:00,29.695300,77.002700,NO2,6,7,6
India,Haryana,Faridabad,"New Industrial Town, Faridabad - HSPCB",22-12-2025 08:00:00,28.39072,77.30059,NH3,11,12,11
India,Haryana,Faridabad,"New Industrial Town, Faridabad - HSPCB",22-12-2025 08:00:00,28.39072,77.30059,CO,10,14,12
India,Karnataka,Tumakuru,"Thimmalapura, Tumakuru - KSPCB",22-12-2025 08:00:00,13.377516,77.099072,NO2,31,32,32
India,Karnataka,Yadgir,"Collector Office, Yadgir - KSPCB",22-12-2025 08:00:00,16.7602,77.1428,NO2,5,29,10
India,Karnataka,Yadgir,"Collector Office, Yadgir - KSPCB",22-12-2025 08:00:00,16.7602,77.1428,NH3,1,1,1
India,Kerala,Kannur,"Thavakkara, Kannur - Kerala PCB",22-12-2025 08:00:00,11.875000,75.373200,PM2.5,42,52,47
India,Kerala,Thiruvananthapuram,"Kariavattom, Thiruvananthapuram - Kerala PCB",22-12-2025 08:00:00,8.563700,76.886500,PM10,68,123,95
India,Kerala,Thiruvananthapuram,"Kariavattom, Thiruvananthapuram - Kerala PCB",22-12-2025 08:00:00,8.563700,76.886500,NH3,1,1,1
India,Karnataka,Bengaluru,"Silk Board, Bengaluru - KSPCB",22-12-2025 08:00:00,12.917348,77.622813,CO,22,32,28
India,Karnataka,Chamarajanagar,"Urban, Chamarajanagar - KSPCB",22-12-2025 08:00:00,11.55358,76.55521,NO2,14,36,27
India,Karnataka,Chamarajanagar,"Urban, Chamarajanagar - KSPCB",22-12-2025 08:00:00,11.55358,76.55521,NH3,1,3,2
India,Karnataka,Chamarajanagar,"Urban, Chamarajanagar - KSPCB",22-12-2025 08:00:00,11.55358,76.55521,OZONE,15,35,21
India,Karnataka,Chikkamagaluru,"Kalyana Nagara, Chikkamagaluru - KSPCB",22-12-2025 08:00:00,13.328028,75.797056,PM10,50,80,72
India,Karnataka,Chikkamagaluru,"Kalyana Nagara, Chikkamagaluru - KSPCB",22-12-2025 08:00:00,13.328028,75.797056,SO2,3,11,6
India,Karnataka,Bengaluru,"BWSSB Kadabesanahalli, Bengaluru - CPCB",22-12-2025 08:00:00,12.9352049,77.6814488,PM2.5,NA,NA,NA
India,Karnataka,Bengaluru,"BWSSB Kadabesanahalli, Bengaluru - CPCB",22-12-2025 08:00:00,12.9352049,77.6814488,NH3,1,1,1
India,Karnataka,Bengaluru,"BWSSB Kadabesanahalli, Bengaluru - CPCB",22-12-2025 08:00:00,12.9352049,77.6814488,CO,20,34,24
India,Karnataka,Bengaluru,"Hebbal, Bengaluru - KSPCB",22-12-2025 08:00:00,13.029152,77.585901,PM10,101,204,125
India,Karnataka,Bengaluru,"Hombegowda Nagar, Bengaluru - KSPCB",22-12-2025 08:00:00,12.938539,77.590100,PM2.5,42,78,60
India,Karnataka,Bengaluru,"Hombegowda Nagar, Bengaluru - KSPCB",22-12-2025 08:00:00,12.938539,77.590100,NO2,11,59,22
India,Karnataka,Bengaluru,"Peenya, Bengaluru - CPCB",22-12-2025 08:00:00,13.0270199,77.494094,CO,24,55,35
India,Karnataka,Bengaluru,"Peenya, Bengaluru - CPCB",22-12-2025 08:00:00,13.0270199,77.494094,OZONE,23,24,24
India,Karnataka,Bengaluru,"RVCE-Mailasandra, Bengaluru - KSPCB",22-12-2025 08:00:00,12.921418,77.502466,PM10,66,157,117
India,Karnataka,Bengaluru,"RVCE-Mailasandra, Bengaluru - KSPCB",22-12-2025 08:00:00,12.921418,77.502466,CO,23,48,39
India,Karnataka,Bengaluru,"Silk Board, Bengaluru - KSPCB",22-12-2025 08:00:00,12.917348,77.622813,PM2.5,82,329,144
India,Madhya Pradesh,Bhopal,"Idgah Hills, Bhopal - MPPCB",22-12-2025 08:00:00,23.264759,77.381568,NH3,5,7,6
India,Madhya Pradesh,Bhopal,"Idgah Hills, Bhopal - MPPCB",22-12-2025 08:00:00,23.264759,77.381568,SO2,3,15,8
India,Madhya Pradesh,Bhopal,"T T Nagar, Bhopal - MPPCB",22-12-2025 08:00:00,23.233584,77.400574,PM2.5,33,162,87
India,Madhya Pradesh,Bhopal,"T T Nagar, Bhopal - MPPCB",22-12-2025 08:00:00,23.233584,77.400574,NO2,60,105,78
India,Madhya Pradesh,Bhopal,"T T Nagar, Bhopal - MPPCB",22-12-2025 08:00:00,23.233584,77.400574,OZONE,15,199,32
India,Kerala,Thiruvananthapuram,"Plammoodu, Thiruvananthapuram - Kerala PCB",22-12-2025 08:00:00,8.5149093,76.9435879,PM2.5,37,82,54
India,Kerala,Thiruvananthapuram,"Plammoodu, Thiruvananthapuram - Kerala PCB",22-12-2025 08:00:00,8.5149093,76.9435879,CO,4,18,9
India,Kerala,Thiruvananthapuram,"Plammoodu, Thiruvananthapuram - Kerala PCB",22-12-2025 08:00:00,8.5149093,76.9435879,OZONE,6,34,12
India,Kerala,Thrissur,"Corporation Ground, Thrissur - Kerala PCB",22-12-2025 08:00:00,10.532400,76.215900,PM10,56,65,60
India,Karnataka,Hubballi,"Lingaraj Nagar, Hubballi - KSPCB",22-12-2025 08:00:00,15.3714823,75.1160168,CO,20,32,23
India,Karnataka,Koppal,"Diwator Nagar, Koppal - KSPCB",22-12-2025 08:00:00,15.347630,76.181767,OZONE,2,10,4
India,Karnataka,Madikeri,"Stuart Hill, Madikeri - KSPCB",22-12-2025 08:00:00,12.415911,75.735050,PM2.5,48,72,60
India,Karnataka,Madikeri,"Stuart Hill, Madikeri - KSPCB",22-12-2025 08:00:00,12.415911,75.735050,SO2,7,7,7
India,Karnataka,Madikeri,"Stuart Hill, Madikeri - KSPCB",22-12-2025 08:00:00,12.415911,75.735050,OZONE,4,6,4
India,Karnataka,Shivamogga,"Vinoba Nagara, Shivamogga - KSPCB",22-12-2025 08:00:00,13.940000,75.555917,PM10,54,68,66
India,Karnataka,Shivamogga,"Vinoba Nagara, Shivamogga - KSPCB",22-12-2025 08:00:00,13.940000,75.555917,CO,8,37,10
India,Karnataka,Bengaluru,"Jayanagar 5th Block, Bengaluru - KSPCB",22-12-2025 08:00:00,12.920984,77.584908,PM10,112,156,130
India,Karnataka,Bengaluru,"Jigani, Bengaluru - KSPCB",22-12-2025 08:00:00,12.7816279,77.6299145,PM10,61,166,112
India,Karnataka,Bengaluru,"Jigani, Bengaluru - KSPCB",22-12-2025 08:00:00,12.7816279,77.6299145,SO2,22,22,22
India,Karnataka,Bengaluru,"Jigani, Bengaluru - KSPCB",22-12-2025 08:00:00,12.7816279,77.6299145,OZONE,27,28,27
India,Madhya Pradesh,Gwalior,"City Center, Gwalior - MPPCB",22-12-2025 08:00:00,26.203442,78.193251,CO,45,88,54
India,Madhya Pradesh,Gwalior,"City Center, Gwalior - MPPCB",22-12-2025 08:00:00,26.203442,78.193251,OZONE,28,35,34
India,Madhya Pradesh,Indore,"Regional Park, Indore - IMC",22-12-2025 08:00:00,22.6780,75.8559,PM2.5,21,84,43
India,Madhya Pradesh,Indore,"Regional Park, Indore - IMC",22-12-2025 08:00:00,22.6780,75.8559,NH3,NA,NA,NA
India,Madhya Pradesh,Indore,"Regional Park, Indore - IMC",22-12-2025 08:00:00,22.6780,75.8559,SO2,26,31,29
India,Madhya Pradesh,Indore,"Regional Park, Indore - IMC",22-12-2025 08:00:00,22.6780,75.8559,CO,26,40,32
India,Madhya Pradesh,Indore,"Residency Area, Indore - IMC",22-12-2025 08:00:00,22.7084,75.8815,NO2,11,19,14
India,Madhya Pradesh,Indore,"Residency Area, Indore - IMC",22-12-2025 08:00:00,22.7084,75.8815,SO2,34,38,36
India,Madhya Pradesh,Gwalior,"Deen Dayal Nagar, Gwalior - MPPCB",22-12-2025 08:00:00,26.259242,78.216432,OZONE,22,61,40
India,Madhya Pradesh,Gwalior,"City Center, Gwalior - MPPCB",22-12-2025 08:00:00,26.203442,78.193251,PM2.5,75,260,144
India,Madhya Pradesh,Gwalior,"Maharaj Bada, Gwalior - MPPCB",22-12-2025 08:00:00,26.200388,78.147714,OZONE,35,38,36
India,Madhya Pradesh,Dewas,"Bhopal Chauraha, Dewas - MPPCB",22-12-2025 08:00:00,22.9682591,76.064118,NH3,2,3,2
India,Madhya Pradesh,Indore,"Chhoti Gwaltoli, Indore - MPPCB",22-12-2025 08:00:00,22.4310,75.5213,NH3,1,4,3
India,Madhya Pradesh,Jabalpur,"Suhagi, Jabalpur - JMC",22-12-2025 08:00:00,23.218135,79.957770,OZONE,24,24,24
India,Madhya Pradesh,Katni,"Gole Bazar, Katni - MPPCB",22-12-2025 08:00:00,23.50016,80.23284,PM10,NA,NA,NA
India,Madhya Pradesh,Jabalpur,"Govindh Bhavan Colony, Jabalpur - JMC",22-12-2025 08:00:00,23.163174,79.973061,OZONE,23,24,24
India,Madhya Pradesh,Jabalpur,"Gupteshwar, Jabalpur - JMC",22-12-2025 08:00:00,23.142888,79.916147,PM2.5,24,254,78
India,Madhya Pradesh,Mandideep,"Sector-D Industrial Area, Mandideep - MPPCB",22-12-2025 08:00:00,23.108440,77.511428,PM2.5,48,439,134
India,Madhya Pradesh,Mandideep,"Sector-D Industrial Area, Mandideep - MPPCB",22-12-2025 08:00:00,23.108440,77.511428,PM10,77,500,165
India,Madhya Pradesh,Satna,"Bandhavgar Colony, Satna - Birla Cement",22-12-2025 08:00:00,24.58434363,80.8549414,PM10,73,75,74
India,Madhya Pradesh,Satna,"Bandhavgar Colony, Satna - Birla Cement",22-12-2025 08:00:00,24.58434363,80.8549414,NO2,12,13,12
