country,state,city,station,last_update,latitude,longitude,pollutant_id,min_value,max_value,avg_value
India,Bihar,Bihar Sharif,"D M Colony, Bihar Sharif - BSPCB",20-12-2025 07:00:00,25.204762,85.514960,CO,2,16,2
India,Bihar,Buxar,"Charitra Van, Buxar - BSPCB",20-12-2025 07:00:00,25.567520,83.966379,PM2.5,110,230,165
India,Bihar,Buxar,"Charitra Van, Buxar - BSPCB",20-12-2025 07:00:00,25.567520,83.966379,PM10,105,149,125
India,Bihar,Buxar,"Charitra Van, Buxar - BSPCB",20-12-2025 07:00:00,25.567520,83.966379,NH3,3,3,3
India,Bihar,Buxar,"Charitra Van, Buxar - BSPCB",20-12-2025 07:00:00,25.567520,83.966379,OZONE,1,55,4
India,Bihar,Chhapra,"Darshan Nagar, Chhapra - BSPCB",20-12-2025 07:00:00,25.7808257,84.7446768,NO2,NA,NA,NA
India,Bihar,Chhapra,"Darshan Nagar, Chhapra - BSPCB",20-12-2025 07:00:00,25.7808257,84.7446768,NH3,5,12,8
India,Bihar,Chhapra,"Darshan Nagar, Chhapra - BSPCB",20-12-2025 07:00:00,25.7808257,84.7446768,CO,16,48,46
India,Bihar,Chhapra,"Darshan Nagar, Chhapra - BSPCB",20-12-2025 07:00:00,25.7808257,84.7446768,OZONE,5,16,16
India,Bihar,Gaya,"Collectorate, Gaya - BSPCB",20-12-2025 07:00:00,24.7955,84.9994,PM2.5,41,120,84
India,Bihar,Gaya,"Collectorate, Gaya - BSPCB",20-12-2025 07:00:00,24.7955,84.9994,SO2,11,13,12
India,Andhra_Pradesh,Vijayawada,"Rajiv Nagar, Vijayawada - APPCB",20-12-2025 07:00:00,16.554731,80.649110,SO2,12,14,13
India,Andhra_Pradesh,Vijayawada,"Rajiv Nagar, Vijayawada - APPCB",20-12-2025 07:00:00,16.554731,80.649110,OZONE,69,130,120
India,Andhra_Pradesh,Visakhapatnam,"GVM Corporation, Visakhapatnam - APPCB",20-12-2025 07:00:00,17.72,83.3,NH3,4,5,4
India,Andhra_Pradesh,Visakhapatnam,"GVM Corporation, Visakhapatnam - APPCB",20-12-2025 07:00:00,17.72,83.3,CO,2,114,45
India,Andhra_Pradesh,Visakhapatnam,"GVM Corporation, Visakhapatnam - APPCB",20-12-2025 07:00:00,17.72,83.3,OZONE,3,100,5
India,Assam,Byrnihat,"Central Academy for SFS, Byrnihat - PCBA",20-12-2025 07:00:00,26.071318,91.87488,PM10,74,153,96
India,Assam,Byrnihat,"Central Academy for SFS, Byrnihat - PCBA",20-12-2025 07:00:00,26.071318,91.87488,NO2,5,9,7
India,Assam,Guwahati,"LGBI Airport, Guwahati - PCBA",20-12-2025 07:00:00,26.10887,91.589544,PM2.5,50,139,92
India,Andhra_Pradesh,Chittoor,"Gangineni Cheruvu, Chittoor - APPCB",20-12-2025 07:00:00,13.204880,79.097889,NO2,34,39,38
India,Andhra_Pradesh,Chittoor,"Gangineni Cheruvu, Chittoor - APPCB",20-12-2025 07:00:00,13.204880,79.097889,NH3,4,5,5
India,Andhra_Pradesh,Chittoor,"Gangineni Cheruvu, Chittoor - APPCB",20-12-2025 07:00:00,13.204880,79.097889,SO2,8,9,8
India,Andhra_Pradesh,Kadapa,"Yerramukkapalli, Kadapa - APPCB",20-12-2025 07:00:00,14.465052,78.824187,PM2.5,47,255,139
India,Andhra_Pradesh,Kadapa,"Yerramukkapalli, Kadapa - APPCB",20-12-2025 07:00:00,14.465052,78.824187,PM10,55,164,110
India,Andhra_Pradesh,Rajamahendravaram,"Anand Kala Kshetram, Rajamahendravaram - APPCB",20-12-2025 07:00:00,16.9872867,81.7363176,PM2.5,155,330,273
India,Andhra_Pradesh,Tirumala,"Toll Gate, Tirumala - APPCB",20-12-2025 07:00:00,13.67,79.35,NH3,1,2,1
India,Andhra_Pradesh,Tirumala,"Toll Gate, Tirumala - APPCB",20-12-2025 07:00:00,13.67,79.35,SO2,7,9,8
India,Andhra_Pradesh,Tirupati,"Vaikuntapuram, Tirupati - APPCB",20-12-2025 07:00:00,13.615387,79.409230,PM10,NA,NA,NA
India,Andhra_Pradesh,Vijayawada,"HB Colony, Vijayawada - APPCB",20-12-2025 07:00:00,16.536107,80.594233,NH3,3,4,3
India,Andhra_Pradesh,Vijayawada,"Kanuru, Vijayawada - APPCB",20-12-2025 07:00:00,16.486692,80.699436,PM2.5,NA,NA,NA
India,Andhra_Pradesh,Vijayawada,"Kanuru, Vijayawada - APPCB",20-12-2025 07:00:00,16.486692,80.699436,NH3,NA,NA,NA
India,Andhra_Pradesh,Vijayawada,"Kanuru, Vijayawada - APPCB",20-12-2025 07:00:00,16.486692,80.699436,CO,NA,NA,NA
India,Andhra_Pradesh,Vijayawada,"Kanuru, Vijayawada - APPCB",20-12-2025 07:00:00,16.486692,80.699436,OZONE,NA,NA,NA
India,Andhra_Pradesh,Vijayawada,"Rajiv Gandhi Park, Vijayawada - APPCB",20-12-2025 07:00:00,16.509717,80.612222,PM2.5,45,247,140
India,Andhra_Pradesh,Vijayawada,"Rajiv Gandhi Park, Vijayawada - APPCB",20-12-2025 07:00:00,16.509717,80.612222,SO2,11,22,16
India,Andhra_Pradesh,Vijayawada,"Rajiv Gandhi Park, Vijayawada - APPCB",20-12-2025 07:00:00,16.509717,80.612222,CO,23,45,27
India,Andhra_Pradesh,Vijayawada,"Rajiv Gandhi Park, Vijayawada - APPCB",20-12-2025 07:00:00,16.509717,80.612222,OZONE,4,45,6
India,Assam,Guwahati,"LGBI Airport, Guwahati - PCBA",20-12-2025 07:00:00,26.10887,91.589544,CO,30,194,32
India,Assam,Guwahati,"LGBI Airport, Guwahati - PCBA",20-12-2025 07:00:00,26.10887,91.589544,OZONE,10,14,14
India,Assam,Guwahati,"Railway Colony, Guwahati - PCBA",20-12-2025 07:00:00,26.181742,91.78063,CO,30,107,93
India,Assam,Nagaon,"Christianpatty, Nagaon - PCBA",20-12-2025 07:00:00,26.349082,92.68449,SO2,5,18,11
India,Assam,Nalbari,"Bata Chowk, Nalbari - PCBA",20-12-2025 07:00:00,26.446912,91.439057,NO2,14,15,14
India,Assam,Nalbari,"Bata Chowk, Nalbari - PCBA",20-12-2025 07:00:00,26.446912,91.439057,CO,20,22,21
India,Assam,Silchar,"Tarapur, Silchar - PCBA",20-12-2025 07:00:00,24.82827,92.79525,PM2.5,30,79,51
India,Assam,Silchar,"Tarapur, Silchar - PCBA",20-12-2025 07:00:00,24.82827,92.79525,SO2,5,8,7
India,Bihar,Gaya,"Kareemganj, Gaya - BSPCB",20-12-2025 07:00:00,24.792403,84.992416,PM10,107,177,144
India,Bihar,Gaya,"SFTI Kusdihra, Gaya - BSPCB",20-12-2025 07:00:00,24.762518,84.982348,SO2,7,10,9
India,Bihar,Gaya,"SFTI Kusdihra, Gaya - BSPCB",20-12-2025 07:00:00,24.762518,84.982348,CO,32,54,44
India,Bihar,Katihar,"Mirchaibari, Katihar - BSPCB",20-12-2025 07:00:00,25.560083,87.553265,SO2,15,23,20
India,Andhra_Pradesh,Amaravati,"Secretariat, Amaravati - APPCB",20-12-2025 07:00:00,16.5150833,80.5181667,CO,21,54,40
India,Andhra_Pradesh,Anantapur,"Gulzarpet, Anantapur - APPCB",20-12-2025 07:00:00,14.675886,77.593027,CO,40,66,47
India,Andhra_Pradesh,Chittoor,"Gangineni Cheruvu, Chittoor - APPCB",20-12-2025 07:00:00,13.204880,79.097889,PM10,17,188,108
India,Bihar,Begusarai,"Lohiyanagar, Begusarai - BSPCB",20-12-2025 07:00:00,25.42742023,86.13886079,PM10,120,184,140
India,Bihar,Begusarai,"Lohiyanagar, Begusarai - BSPCB",20-12-2025 07:00:00,25.42742023,86.13886079,NH3,10,11,11
India,Bihar,Bhagalpur,"DM Office_Kachari Chowk, Bhagalpur - BSPCB",20-12-2025 07:00:00,25.251013,86.989001,SO2,33,53,42
India,Bihar,Kishanganj,"SDM Office_Khagra, Kishanganj - BSPCB",20-12-2025 07:00:00,26.0881305,87.93840336,NH3,3,3,3
India,Bihar,Kishanganj,"SDM Office_Khagra, Kishanganj - BSPCB",20-12-2025 07:00:00,26.0881305,87.93840336,CO,14,25,16
India,Bihar,Motihari,"Gandak Colony, Motihari - BSPCB",20-12-2025 07:00:00,26.63086,84.90051,NH3,3,3,3
India,Assam,Sivasagar,"Girls College, Sivasagar - PCBA",20-12-2025 07:00:00,26.987634,94.636574,NO2,30,52,39
India,Bihar,Araria,"Kharahiya Basti, Araria - BSPCB",20-12-2025 07:00:00,26.146529,87.454184,SO2,12,36,26
India,Bihar,Araria,"Kharahiya Basti, Araria - BSPCB",20-12-2025 07:00:00,26.146529,87.454184,OZONE,9,10,10
India,Bihar,Patna,"Samanpura, Patna - BSPCB",20-12-2025 07:00:00,25.596727,85.085624,OZONE,NA,NA,NA
India,Bihar,Purnia,"Mariam Nagar, Purnia - BSPCB",20-12-2025 07:00:00,25.366336,87.117468,PM2.5,38,58,50
India,Bihar,Purnia,"Mariam Nagar, Purnia - BSPCB",20-12-2025 07:00:00,25.366336,87.117468,NO2,5,6,6
India,Bihar,Purnia,"Mariam Nagar, Purnia - BSPCB",20-12-2025 07:00:00,25.366336,87.117468,NH3,3,3,3
India,Bihar,Purnia,"Mariam Nagar, Purnia - BSPCB",20-12-2025 07:00:00,25.366336,87.117468,CO,57,62,59
India,Bihar,Rajgir,"Dangi Tola, Rajgir - BSPCB",20-12-2025 07:00:00,25.03280,85.41948,NO2,8,10,9
India,Bihar,Rajgir,"Dangi Tola, Rajgir - BSPCB",20-12-2025 07:00:00,25.03280,85.41948,NH3,5,7,6
India,Bihar,Saharsa,"Police Line, Saharsa - BSPCB",20-12-2025 07:00:00,25.892357,86.590325,PM10,NA,NA,NA
India,Bihar,Saharsa,"Police Line, Saharsa - BSPCB",20-12-2025 07:00:00,25.892357,86.590325,CO,31,42,36
India,Bihar,Samastipur,"DM Office_Kasipur, Samastipur - BSPCB",20-12-2025 07:00:00,25.859655,85.77944,PM2.5,32,314,186
India,Bihar,Samastipur,"DM Office_Kasipur, Samastipur - BSPCB",20-12-2025 07:00:00,25.859655,85.77944,PM10,31,171,128
India,Bihar,Patna,"Govt. High School Shikarpur, Patna - BSPCB",20-12-2025 07:00:00,25.592539,85.227158,NO2,15,35,21
India,Bihar,Patna,"Govt. High School Shikarpur, Patna - BSPCB",20-12-2025 07:00:00,25.592539,85.227158,NH3,4,6,5
India,Bihar,Patna,"Govt. High School Shikarpur, Patna - BSPCB",20-12-2025 07:00:00,25.592539,85.227158,OZONE,8,13,11
India,Bihar,Patna,"IGSC Planetarium Complex, Patna - BSPCB",20-12-2025 07:00:00,25.610369,85.132568,PM2.5,149,247,182
India,Bihar,Patna,"Muradpur, Patna - BSPCB",20-12-2025 07:00:00,25.619651,85.147382,NO2,6,7,6
India,Bihar,Patna,"Muradpur, Patna - BSPCB",20-12-2025 07:00:00,25.619651,85.147382,NH3,3,5,4
India,Bihar,Patna,"Rajbansi Nagar, Patna - BSPCB",20-12-2025 07:00:00,25.599486,85.113666,NO2,1,81,34
India,Bihar,Patna,"Samanpura, Patna - BSPCB",20-12-2025 07:00:00,25.596727,85.085624,PM2.5,NA,NA,NA
India,Bihar,Patna,"Samanpura, Patna - BSPCB",20-12-2025 07:00:00,25.596727,85.085624,PM10,145,202,186
India,Bihar,Patna,"Samanpura, Patna - BSPCB",20-12-2025 07:00:00,25.596727,85.085624,SO2,NA,NA,NA
India,Bihar,Patna,"Samanpura, Patna - BSPCB",20-12-2025 07:00:00,25.596727,85.085624,CO,4,88,53
India,Delhi,Delhi,"Ashok Vihar, Delhi - DPCC",20-12-2025 07:00:00,28.695381,77.181665,SO2,12,31,22
India,Delhi,Delhi,"Aya Nagar, Delhi - IMD",20-12-2025 07:00:00,28.4706914,77.1099364,PM2.5,188,343,298
India,Delhi,Delhi,"Bawana, Delhi - DPCC",20-12-2025 07:00:00,28.776200,77.051074,PM2.5,257,500,365
India,Delhi,Delhi,"Bawana, Delhi - DPCC",20-12-2025 07:00:00,28.776200,77.051074,SO2,13,20,16
India,Delhi,Delhi,"Bawana, Delhi - DPCC",20-12-2025 07:00:00,28.776200,77.051074,CO,92,177,139
India,Delhi,Delhi,"Burari Crossing, Delhi - IMD",20-12-2025 07:00:00,28.7256504,77.2011573,CO,55,148,135
India,Delhi,Delhi,"CRRI Mathura Road, Delhi - IMD",20-12-2025 07:00:00,28.5512005,77.2735737,PM10,165,423,283
India,Delhi,Delhi,"CRRI Mathura Road, Delhi - IMD",20-12-2025 07:00:00,28.5512005,77.2735737,OZONE,10,61,13
India,Chhattisgarh,Kunjemura,"OP Jindal School, Kunjemura - CECB",20-12-2025 07:00:00,22.126650,83.483212,SO2,1,72,19
India,Chhattisgarh,Milupara,"Govt. Higher Secondary School, Milupara - CECB",20-12-2025 07:00:00,22.1910172,83.5197009,PM2.5,84,177,128
India,Chhattisgarh,Milupara,"Govt. Higher Secondary School, Milupara - CECB",20-12-2025 07:00:00,22.1910172,83.5197009,NH3,1,2,2
India,Chhattisgarh,Raipur,"AIIMS, Raipur - CECB",20-12-2025 07:00:00,21.258815,81.578979,NO2,67,80,73
India,Chhattisgarh,Raipur,"AIIMS, Raipur - CECB",20-12-2025 07:00:00,21.258815,81.578979,SO2,2,7,5
India,Chhattisgarh,Raipur,"Bhatagaon New ISBT, Raipur - CECB",20-12-2025 07:00:00,21.219665,81.630094,SO2,5,10,7
India,Chhattisgarh,Raipur,"Bhatagaon New ISBT, Raipur - CECB",20-12-2025 07:00:00,21.219665,81.630094,OZONE,2,4,2
India,Bihar,Sasaram,"Dada Peer, Sasaram - BSPCB",20-12-2025 07:00:00,24.952822,84.002396,SO2,3,5,4
India,Bihar,Siwan,"Chitragupta Nagar, Siwan - BSPCB",20-12-2025 07:00:00,26.2271665,84.3570427,NH3,1,1,1
India,Chandigarh,Chandigarh,"Sector 22, Chandigarh - CPCC",20-12-2025 07:00:00,30.735567,76.775714,PM2.5,140,317,262
India,Chandigarh,Chandigarh,"Sector 22, Chandigarh - CPCC",20-12-2025 07:00:00,30.735567,76.775714,PM10,105,165,128
India,Chandigarh,Chandigarh,"Sector-25, Chandigarh - CPCC",20-12-2025 07:00:00,30.751462,76.762879,NO2,18,34,25
India,Chandigarh,Chandigarh,"Sector-25, Chandigarh - CPCC",20-12-2025 07:00:00,30.751462,76.762879,NH3,1,3,2
India,Bihar,Munger,"Town Hall, Munger - BSPCB",20-12-2025 07:00:00,25.376776,86.471523,OZONE,12,17,13
India,Bihar,Muzaffarpur,"Buddha Colony, Muzaffarpur - BSPCB",20-12-2025 07:00:00,26.11442,85.39813,OZONE,24,40,33
India,Bihar,Muzaffarpur,"MIT-Daudpur Kothi, Muzaffarpur - BSPCB",20-12-2025 07:00:00,26.1403345,85.3650192,PM2.5,98,130,117
India,Bihar,Muzaffarpur,"MIT-Daudpur Kothi, Muzaffarpur - BSPCB",20-12-2025 07:00:00,26.1403345,85.3650192,CO,38,70,13
India,Bihar,Patna,"DRM Office Danapur, Patna - BSPCB",20-12-2025 07:00:00,25.586562,85.043586,NH3,5,8,6
India,Chandigarh,Chandigarh,"Sector-53, Chandigarh - CPCC",20-12-2025 07:00:00,30.719859,76.738637,SO2,7,15,10
India,Chhattisgarh,Bhilai,"32Bungalows, Bhilai - CECB",20-12-2025 07:00:00,21.194815,81.314770,NO2,13,103,50
India,Chhattisgarh,Bhilai,"Civic Center, Bhilai - Bhilai Steel Plant",20-12-2025 07:00:00,21.185571,81.343175,PM10,23,92,43
India,Chhattisgarh,Bhilai,"Civic Center, Bhilai - Bhilai Steel Plant",20-12-2025 07:00:00,21.185571,81.343175,NH3,4,6,4
India,Chhattisgarh,Bhilai,"Civic Center, Bhilai - Bhilai Steel Plant",20-12-2025 07:00:00,21.185571,81.343175,SO2,8,10,9
India,Chhattisgarh,Raipur,"Krishak Nagar, Raipur - CECB",20-12-2025 07:00:00,21.237755,81.705301,OZONE,1,4,1
India,Delhi,Delhi,"Alipur, Delhi - DPCC",20-12-2025 07:00:00,28.815329,77.153010,OZONE,6,39,6
India,Delhi,Delhi,"Anand Vihar, Delhi - DPCC",20-12-2025 07:00:00,28.647622,77.3158090,NO2,39,122,81
India,Delhi,Delhi,"Anand Vihar, Delhi - DPCC",20-12-2025 07:00:00,28.647622,77.3158090,NH3,12,19,15
India,Delhi,Delhi,"Anand Vihar, Delhi - DPCC",20-12-2025 07:00:00,28.647622,77.3158090,CO,91,176,162
India,Chhattisgarh,Korba,"Rampur, Korba - CECB",20-12-2025 07:00:00,22.368195,82.746431,NO2,19,34,26
India,Chhattisgarh,Korba,"Rampur, Korba - CECB",20-12-2025 07:00:00,22.368195,82.746431,NH3,1,1,1
India,Chhattisgarh,Korba,"Urja Nagar, Korba - CECB",20-12-2025 07:00:00,22.348441,82.549611,NO2,25,29,27
India,Delhi,Delhi,"Pusa, Delhi - IMD",20-12-2025 07:00:00,28.636110,77.173332,NO2,10,93,40
India,Delhi,Delhi,"R K Puram, Delhi - DPCC",20-12-2025 07:00:00,28.563262,77.186937,NO2,25,122,63
India,Delhi,Delhi,"Rohini, Delhi - DPCC",20-12-2025 07:00:00,28.732528,77.119920,PM10,162,493,324
India,Delhi,Delhi,"Rohini, Delhi - DPCC",20-12-2025 07:00:00,28.732528,77.119920,SO2,9,18,13
India,Delhi,Delhi,"Rohini, Delhi - DPCC",20-12-2025 07:00:00,28.732528,77.119920,OZONE,4,94,6
India,Delhi,Delhi,"Shadipur, Delhi - CPCB",20-12-2025 07:00:00,28.6514781,77.1473105,PM10,143,435,270
India,Delhi,Delhi,"Shadipur, Delhi - CPCB",20-12-2025 07:00:00,28.6514781,77.1473105,OZONE,9,41,11
India,Delhi,Delhi,"Sirifort, Delhi - CPCB",20-12-2025 07:00:00,28.5504249,77.2159377,PM10,182,415,318
India,Delhi,Delhi,"Chandni Chowk, Delhi - IITM",20-12-2025 07:00:00,28.656756,77.227234,NO2,1,190,97
India,Delhi,Delhi,"Chandni Chowk, Delhi - IITM",20-12-2025 07:00:00,28.656756,77.227234,CO,104,132,125
India,Delhi,Delhi,"DTU, Delhi - CPCB",20-12-2025 07:00:00,28.7500499,77.1112615,PM2.5,320,500,411
India,Delhi,Delhi,"DTU, Delhi - CPCB",20-12-2025 07:00:00,28.7500499,77.1112615,NH3,8,12,9
India,Delhi,Delhi,"Dr. Karni Singh Shooting Range, Delhi - DPCC",20-12-2025 07:00:00,28.498571,77.264840,NO2,30,101,75
India,Delhi,Delhi,"Dr. Karni Singh Shooting Range, Delhi - DPCC",20-12-2025 07:00:00,28.498571,77.264840,CO,24,118,94
India,Delhi,Delhi,"Dwarka-Sector 8, Delhi - DPCC ",20-12-2025 07:00:00,28.5710274,77.0719006,PM10,141,451,302
India,Delhi,Delhi,"North Campus, DU, Delhi - IMD",20-12-2025 07:00:00,28.6573814,77.1585447,NO2,34,163,98
India,Delhi,Delhi,"Okhla Phase-2, Delhi - DPCC",20-12-2025 07:00:00,28.530785,77.271255,NH3,21,32,26
India,Delhi,Delhi,"Okhla Phase-2, Delhi - DPCC",20-12-2025 07:00:00,28.530785,77.271255,SO2,4,28,14
India,Delhi,Delhi,"Patparganj, Delhi - DPCC",20-12-2025 07:00:00,28.623763,77.287209,PM10,174,412,300
India,Delhi,Delhi,"Punjabi Bagh, Delhi - DPCC",20-12-2025 07:00:00,28.674045,77.131023,NO2,28,62,40
India,Delhi,Delhi,"Pusa, Delhi - DPCC",20-12-2025 07:00:00,28.639652,77.146275,NO2,16,162,87
India,Gujarat,Ahmedabad,"SAC ISRO Bopal, Ahmedabad - IITM",20-12-2025 07:00:00,23.041137,72.456691,SO2,2,23,6
India,Gujarat,Ahmedabad,"SAC ISRO Satellite, Ahmedabad - IITM",20-12-2025 07:00:00,23.023389,72.515201,NH3,9,42,21
India,Gujarat,Ahmedabad,"SVPI Airport Hansol, Ahmedabad - IITM",20-12-2025 07:00:00,23.076793,72.627874,NO2,32,237,130
India,Gujarat,Ankleshwar,"GIDC, Ankleshwar - GPCB",20-12-2025 07:00:00,21.613267,73.010555,PM10,NA,NA,NA
India,Gujarat,Ankleshwar,"GIDC, Ankleshwar - GPCB",20-12-2025 07:00:00,21.613267,73.010555,SO2,33,44,42
India,Gujarat,Ahmedabad,"Maninagar, Ahmedabad - GPCB",20-12-2025 07:00:00,23.002657,72.591912,PM10,21,97,64
India,Gujarat,Ahmedabad,"Maninagar, Ahmedabad - GPCB",20-12-2025 07:00:00,23.002657,72.591912,NO2,63,64,63
India,Gujarat,Ahmedabad,"Raikhad, Ahmedabad - IITM",20-12-2025 07:00:00,23.020509,72.579261,PM2.5,69,174,116
India,Gujarat,Ahmedabad,"Raikhad, Ahmedabad - IITM",20-12-2025 07:00:00,23.020509,72.579261,PM10,111,180,144
India,Gujarat,Ahmedabad,"Raikhad, Ahmedabad - IITM",20-12-2025 07:00:00,23.020509,72.579261,CO,9,72,51
India,Gujarat,Ahmedabad,"Rakhial, Ahmedabad - IITM",20-12-2025 07:00:00,23.016834,72.625775,CO,1,181,92
India,Delhi,Delhi,"IHBAS, Dilshad Garden, Delhi - CPCB",20-12-2025 07:00:00,28.6811736,77.3025234,PM10,182,397,271
India,Delhi,Delhi,"IHBAS, Dilshad Garden, Delhi - CPCB",20-12-2025 07:00:00,28.6811736,77.3025234,NO2,43,154,109
India,Delhi,Delhi,"IHBAS, Dilshad Garden, Delhi - CPCB",20-12-2025 07:00:00,28.6811736,77.3025234,SO2,13,25,19
India,Delhi,Delhi,"IHBAS, Dilshad Garden, Delhi - CPCB",20-12-2025 07:00:00,28.6811736,77.3025234,OZONE,10,68,18
India,Delhi,Delhi,"ITO, Delhi - CPCB",20-12-2025 07:00:00,28.628624,77.241060,PM10,212,427,369
India,Delhi,Delhi,"ITO, Delhi - CPCB",20-12-2025 07:00:00,28.628624,77.241060,SO2,3,33,19
India,Delhi,Delhi,"Sirifort, Delhi - CPCB",20-12-2025 07:00:00,28.5504249,77.2159377,SO2,22,41,32
India,Delhi,Delhi,"Sonia Vihar, Delhi - DPCC",20-12-2025 07:00:00,28.710508,77.249485,PM2.5,312,499,392
India,Delhi,Delhi,"Vivek Vihar, Delhi - DPCC",20-12-2025 07:00:00,28.672342,77.315260,CO,48,151,116
India,Delhi,Delhi,"Wazirpur, Delhi - DPCC",20-12-2025 07:00:00,28.699793,77.165453,NH3,15,22,18
India,Delhi,Delhi,"Major Dhyan Chand National Stadium, Delhi - DPCC",20-12-2025 07:00:00,28.611281,77.237738,NH3,28,32,30
India,Delhi,Delhi,"Major Dhyan Chand National Stadium, Delhi - DPCC",20-12-2025 07:00:00,28.611281,77.237738,OZONE,1,132,2
India,Delhi,Delhi,"Mandir Marg, Delhi - DPCC",20-12-2025 07:00:00,28.636429,77.201067,PM2.5,240,404,344
India,Delhi,Delhi,"Mandir Marg, Delhi - DPCC",20-12-2025 07:00:00,28.636429,77.201067,OZONE,8,86,11
India,Delhi,Delhi,"Najafgarh, Delhi - DPCC",20-12-2025 07:00:00,28.570173,76.933762,OZONE,3,9,4
India,Delhi,Delhi,"Narela, Delhi - DPCC",20-12-2025 07:00:00,28.822836,77.101981,NH3,8,12,10
India,Delhi,Delhi,"Narela, Delhi - DPCC",20-12-2025 07:00:00,28.822836,77.101981,SO2,21,41,26
India,Himachal Pradesh,Baddi,"HIMUDA Complex Phase-1, Baddi - HPPCB",20-12-2025 07:00:00,30.943887,76.801991,PM10,129,302,190
India,Jammu_and_Kashmir,Pampore,"Khrew, Pampore - JKPCC",20-12-2025 07:00:00,34.031606,75.009712,NO2,57,110,80
India,Jammu_and_Kashmir,Srinagar,"Khunmoh, Srinagar - JKPCC",20-12-2025 07:00:00,34.06313,74.96017,NO2,8,32,12
India,Jammu_and_Kashmir,Srinagar,"Khunmoh, Srinagar - JKPCC",20-12-2025 07:00:00,34.06313,74.96017,SO2,2,5,4
India,Jammu_and_Kashmir,Srinagar,"Rajbagh, Srinagar - JKPCC",20-12-2025 07:00:00,34.066206,74.819820,PM10,152,259,197
India,Jammu_and_Kashmir,Srinagar,"Rajbagh, Srinagar - JKPCC",20-12-2025 07:00:00,34.066206,74.819820,CO,11,27,21
India,Jammu_and_Kashmir,Srinagar,"Rajbagh, Srinagar - JKPCC",20-12-2025 07:00:00,34.066206,74.819820,OZONE,NA,NA,NA
India,Jharkhand,Dhanbad,"Sardar Patel Nagar, Dhanbad - JSPCB",20-12-2025 07:00:00,23.80569,86.44268,SO2,24,27,26
India,Haryana,Bhiwani,"H.B. Colony, Bhiwani - HSPCB",20-12-2025 07:00:00,28.806223,76.141105,NH3,1,9,8
India,Haryana,Charkhi Dadri,"Mini Secretariat, Charkhi Dadri - HSPCB",20-12-2025 07:00:00,28.593883,76.270653,PM10,88,226,134
India,Haryana,Charkhi Dadri,"Mini Secretariat, Charkhi Dadri - HSPCB",20-12-2025 07:00:00,28.593883,76.270653,NH3,5,8,6
India,Haryana,Dharuhera,"Municipal Corporation Office, Dharuhera -  HSPCB",20-12-2025 07:00:00,28.206800,76.799700,OZONE,5,38,7
India,Haryana,Faridabad,"New Industrial Town, Faridabad - HSPCB",20-12-2025 07:00:00,28.39072,77.30059,PM2.5,205,220,213
India,Haryana,Faridabad,"New Industrial Town, Faridabad - HSPCB",20-12-2025 07:00:00,28.39072,77.30059,NO2,24,26,25
India,Haryana,Faridabad,"New Industrial Town, Faridabad - HSPCB",20-12-2025 07:00:00,28.39072,77.30059,CO,10,12,11
India,Gujarat,Vapi,"Phase-1 GIDC, Vapi - GPCB",20-12-2025 07:00:00,20.362421,72.918013,SO2,14,32,21
India,Gujarat,Vatva,"Phase-4 GIDC, Vatva - GPCB",20-12-2025 07:00:00,22.969611,72.643500,PM2.5,31,406,195
India,Gujarat,Vatva,"Phase-4 GIDC, Vatva - GPCB",20-12-2025 07:00:00,22.969611,72.643500,NH3,4,13,8
India,Gujarat,Vatva,"Phase-4 GIDC, Vatva - GPCB",20-12-2025 07:00:00,22.969611,72.643500,OZONE,22,45,23
India,Haryana,Ambala,"Patti Mehar, Ambala - HSPCB",20-12-2025 07:00:00,30.379589,76.778328,SO2,31,32,31
India,Haryana,Bahadurgarh,"Arya Nagar, Bahadurgarh - HSPCB",20-12-2025 07:00:00,28.6701,76.9254,SO2,7,7,7
India,Haryana,Ballabgarh,"Nathu Colony, Ballabgarh - HSPCB",20-12-2025 07:00:00,28.3419248,77.319699,PM2.5,300,370,327
India,Haryana,Faridabad,"Sector 11, Faridabad - HSPCB",20-12-2025 07:00:00,28.376058,77.315741,SO2,4,122,15
India,Haryana,Faridabad,"Sector 30, Faridabad - HSPCB",20-12-2025 07:00:00,28.4417,77.3217,NO2,36,40,38
India,Haryana,Fatehabad,"Huda Sector, Fatehabad - HSPCB",20-12-2025 07:00:00,29.503664,75.467934,NO2,18,20,19
India,Haryana,Fatehabad,"Huda Sector, Fatehabad - HSPCB",20-12-2025 07:00:00,29.503664,75.467934,CO,25,32,27
India,Haryana,Gurugram,"NISE Gwal Pahari, Gurugram - IMD",20-12-2025 07:00:00,28.422681,77.148944,CO,72,113,100
India,Haryana,Gurugram,"Sector-51, Gurugram - HSPCB",20-12-2025 07:00:00,28.4227,77.0667,PM10,124,500,306
India,Haryana,Kaithal,"Rishi Nagar, Kaithal - HSPCB",20-12-2025 07:00:00,29.8006,76.4155,NH3,3,6,6
India,Haryana,Karnal,"Sector-12, Karnal - HSPCB",20-12-2025 07:00:00,29.695300,77.002700,PM2.5,123,387,226
India,Haryana,Kurukshetra,"Sector-7, Kurukshetra - HSPCB",20-12-2025 07:00:00,29.966942,76.875879,CO,49,95,68
India,Haryana,Manesar,"Sector-2 IMT, Manesar - HSPCB",20-12-2025 07:00:00,28.360699,76.936090,PM10,110,430,206
India,Haryana,Manesar,"Sector-2 IMT, Manesar - HSPCB",20-12-2025 07:00:00,28.360699,76.936090,SO2,10,16,13
India,Haryana,Panipat,"Sector-18, Panipat - HSPCB",20-12-2025 07:00:00,29.432304,76.972765,SO2,11,11,11
India,Haryana,Panipat,"Sector-18, Panipat - HSPCB",20-12-2025 07:00:00,29.432304,76.972765,CO,47,48,48
India,Haryana,Panipat,"Sector-18, Panipat - HSPCB",20-12-2025 07:00:00,29.432304,76.972765,OZONE,30,30,30
India,Haryana,Rohtak,"MD University, Rohtak - HSPCB",20-12-2025 07:00:00,28.52123,76.37138,PM10,160,381,254
India,Haryana,Sirsa,"F-Block, Sirsa - HSPCB",20-12-2025 07:00:00,29.536400,75.015800,PM2.5,13,82,36
India,Haryana,Gurugram,"Teri Gram, Gurugram - HSPCB",20-12-2025 07:00:00,28.4275,77.1465,NO2,13,27,19
India,Haryana,Hisar,"Urban Estate-II, Hisar - HSPCB",20-12-2025 07:00:00,29.140560,75.744941,PM2.5,NA,NA,NA
India,Haryana,Hisar,"Urban Estate-II, Hisar - HSPCB",20-12-2025 07:00:00,29.140560,75.744941,NH3,NA,NA,NA
India,Haryana,Kaithal,"Rishi Nagar, Kaithal - HSPCB",20-12-2025 07:00:00,29.8006,76.4155,PM2.5,53,246,123
India,Haryana,Palwal,"Shyam Nagar, Palwal - HSPCB",20-12-2025 07:00:00,28.1485564,77.3320667,NH3,8,9,9
India,Haryana,Panchkula,"Sector-6, Panchkula - HSPCB ",20-12-2025 07:00:00,30.7057778,76.8531805555555,PM2.5,12,382,255
India,Haryana,Panipat,"Sector-18, Panipat - HSPCB",20-12-2025 07:00:00,29.432304,76.972765,NO2,31,32,31
India,Gujarat,Gandhinagar,"IIPHG Lekawada, Gandhinagar - IITM",20-12-2025 07:00:00,23.243639,72.68994,PM2.5,41,174,101
India,Gujarat,Gandhinagar,"IIPHG Lekawada, Gandhinagar - IITM",20-12-2025 07:00:00,23.243639,72.68994,SO2,4,10,6
India,Gujarat,Gandhinagar,"IIPHG Lekawada, Gandhinagar - IITM",20-12-2025 07:00:00,23.243639,72.68994,OZONE,3,40,3
India,Gujarat,Gandhinagar,"Sector-10, Gandhinagar - GPCB",20-12-2025 07:00:00,23.221714,72.654328,PM2.5,48,235,102
India,Karnataka,Bengaluru,"Sanegurava Halli, Bengaluru - KSPCB",20-12-2025 07:00:00,12.990328,77.5431385,SO2,7,9,7
India,Karnataka,Bengaluru,"Shivapura_Peenya, Bengaluru - KSPCB",20-12-2025 07:00:00,13.0246342,77.5080115,PM2.5,77,454,145
India,Karnataka,Bengaluru,"Shivapura_Peenya, Bengaluru - KSPCB",20-12-2025 07:00:00,13.0246342,77.5080115,NO2,31,34,32
India,Karnataka,Bengaluru,"Silk Board, Bengaluru - KSPCB",20-12-2025 07:00:00,12.917348,77.622813,PM2.5,82,171,128
India,Karnataka,Bengaluru,"Silk Board, Bengaluru - KSPCB",20-12-2025 07:00:00,12.917348,77.622813,NH3,2,2,2
India,Karnataka,Bengaluru,"Silk Board, Bengaluru - KSPCB",20-12-2025 07:00:00,12.917348,77.622813,SO2,8,15,12
India,Karnataka,Chamarajanagar,"Urban, Chamarajanagar - KSPCB",20-12-2025 07:00:00,11.55358,76.55521,PM10,27,59,38
India,Karnataka,Chamarajanagar,"Urban, Chamarajanagar - KSPCB",20-12-2025 07:00:00,11.55358,76.55521,NH3,1,3,2
India,Karnataka,Chikkamagaluru,"Kalyana Nagara, Chikkamagaluru - KSPCB",20-12-2025 07:00:00,13.328028,75.797056,PM2.5,32,92,44
India,Karnataka,Chikkamagaluru,"Kalyana Nagara, Chikkamagaluru - KSPCB",20-12-2025 07:00:00,13.328028,75.797056,PM10,47,77,57
India,Karnataka,Belgaum,"Ramteerth Nagar, Belgaum - KSPCB",20-12-2025 07:00:00,15.888653,74.541751,PM10,32,123,75
India,Karnataka,Belgaum,"Ramteerth Nagar, Belgaum - KSPCB",20-12-2025 07:00:00,15.888653,74.541751,NO2,40,124,73
India,Karnataka,Belgaum,"Ramteerth Nagar, Belgaum - KSPCB",20-12-2025 07:00:00,15.888653,74.541751,SO2,22,23,22
India,Karnataka,Belgaum,"Ramteerth Nagar, Belgaum - KSPCB",20-12-2025 07:00:00,15.888653,74.541751,CO,6,11,9
India,Karnataka,Bengaluru,"BTM Layout, Bengaluru - CPCB",20-12-2025 07:00:00,12.9135218,77.5950804,PM10,90,92,91
India,Karnataka,Bengaluru,"BTM Layout, Bengaluru - CPCB",20-12-2025 07:00:00,12.9135218,77.5950804,NO2,13,32,20
India,Karnataka,Bengaluru,"BTM Layout, Bengaluru - CPCB",20-12-2025 07:00:00,12.9135218,77.5950804,SO2,19,20,20
India,Karnataka,Bengaluru,"BWSSB Kadabesanahalli, Bengaluru - CPCB",20-12-2025 07:00:00,12.9352049,77.6814488,OZONE,11,59,13
India,Karnataka,Bengaluru,"City Railway Station, Bengaluru - KSPCB",20-12-2025 07:00:00,12.9756843,77.5660749,NO2,30,33,32
India,Karnataka,Bengaluru,"City Railway Station, Bengaluru - KSPCB",20-12-2025 07:00:00,12.9756843,77.5660749,SO2,21,25,23
India,Madhya Pradesh,Bhopal,"T T Nagar, Bhopal - MPPCB",20-12-2025 07:00:00,23.233584,77.400574,OZONE,6,183,30
India,Madhya Pradesh,Damoh,"Shrivastav Colony, Damoh - MPPCB",20-12-2025 07:00:00,23.81748678,79.446246,PM10,12,54,26
India,Madhya Pradesh,Dewas,"Bhopal Chauraha, Dewas - MPPCB",20-12-2025 07:00:00,22.9682591,76.064118,NO2,7,8,7
India,Madhya Pradesh,Dewas,"Bhopal Chauraha, Dewas - MPPCB",20-12-2025 07:00:00,22.9682591,76.064118,OZONE,23,26,24
India,Madhya Pradesh,Gwalior,"City Center, Gwalior - MPPCB",20-12-2025 07:00:00,26.203442,78.193251,PM10,112,241,155
India,Madhya Pradesh,Gwalior,"City Center, Gwalior - MPPCB",20-12-2025 07:00:00,26.203442,78.193251,NO2,21,132,46
India,Madhya Pradesh,Gwalior,"City Center, Gwalior - MPPCB",20-12-2025 07:00:00,26.203442,78.193251,SO2,16,25,19
India,Madhya Pradesh,Gwalior,"Deen Dayal Nagar, Gwalior - MPPCB",20-12-2025 07:00:00,26.259242,78.216432,PM2.5,201,444,309
India,Karnataka,Davanagere,"Devaraj Urs Badavane, Davanagere - KSPCB",20-12-2025 07:00:00,14.475800,75.905200,PM10,64,131,96
India,Karnataka,Dharwad,"Kalabhavan, Dharwad - KSPCB",20-12-2025 07:00:00,15.459706,75.008381,PM10,NA,NA,NA
India,Karnataka,Hubballi,"Lingaraj Nagar, Hubballi - KSPCB",20-12-2025 07:00:00,15.3714823,75.1160168,CO,16,30,21
India,Karnataka,Kalaburagi,"Mahatma Basaveswar Colony, Kalaburgi - KSPCB",20-12-2025 07:00:00,17.336318,76.847397,PM10,23,83,49
India,Karnataka,Koppal,"Diwator Nagar, Koppal - KSPCB",20-12-2025 07:00:00,15.347630,76.181767,PM2.5,14,49,31
India,Karnataka,Tumakuru,"Thimmalapura, Tumakuru - KSPCB",20-12-2025 07:00:00,13.377516,77.099072,SO2,26,27,26
India,Karnataka,Tumakuru,"Thimmalapura, Tumakuru - KSPCB",20-12-2025 07:00:00,13.377516,77.099072,OZONE,23,23,23
India,Karnataka,Yadgir,"Collector Office, Yadgir - KSPCB",20-12-2025 07:00:00,16.7602,77.1428,CO,10,33,16
India,Kerala,Kannur,"Thavakkara, Kannur - Kerala PCB",20-12-2025 07:00:00,11.875000,75.373200,PM2.5,44,56,49
India,Kerala,Kollam,"Polayathode, Kollam - Kerala PCB",20-12-2025 07:00:00,8.8787,76.6073,PM2.5,81,212,140
India,Karnataka,Koppal,"Diwator Nagar, Koppal - KSPCB",20-12-2025 07:00:00,15.347630,76.181767,NH3,7,8,8
India,Karnataka,Koppal,"Diwator Nagar, Koppal - KSPCB",20-12-2025 07:00:00,15.347630,76.181767,SO2,12,24,18
India,Karnataka,Mysuru,"Hebbal 1st Stage, Mysuru - KSPCB",20-12-2025 07:00:00,12.21041,76.37376,SO2,2,9,6
India,Karnataka,Shivamogga,"Vinoba Nagara, Shivamogga - KSPCB",20-12-2025 07:00:00,13.940000,75.555917,SO2,2,6,3
India,Karnataka,Shivamogga,"Vinoba Nagara, Shivamogga - KSPCB",20-12-2025 07:00:00,13.940000,75.555917,CO,8,38,10
India,Karnataka,Shivamogga,"Vinoba Nagara, Shivamogga - KSPCB",20-12-2025 07:00:00,13.940000,75.555917,OZONE,7,85,14
India,Kerala,Thiruvananthapuram,"Kariavattom, Thiruvananthapuram - Kerala PCB",20-12-2025 07:00:00,8.563700,76.886500,SO2,2,22,8
India,Madhya Pradesh,Bhopal,"Idgah Hills, Bhopal - MPPCB",20-12-2025 07:00:00,23.264759,77.381568,PM10,48,251,131
India,Madhya Pradesh,Bhopal,"Idgah Hills, Bhopal - MPPCB",20-12-2025 07:00:00,23.264759,77.381568,NO2,16,75,33
India,Madhya Pradesh,Bhopal,"T T Nagar, Bhopal - MPPCB",20-12-2025 07:00:00,23.233584,77.400574,PM2.5,14,258,91
India,Karnataka,Bengaluru,"City Railway Station, Bengaluru - KSPCB",20-12-2025 07:00:00,12.9756843,77.5660749,CO,68,88,70
India,Karnataka,Bengaluru,"Hombegowda Nagar, Bengaluru - KSPCB",20-12-2025 07:00:00,12.938539,77.590100,PM2.5,58,90,72
India,Karnataka,Bengaluru,"Jayanagar 5th Block, Bengaluru - KSPCB",20-12-2025 07:00:00,12.920984,77.584908,PM2.5,92,211,159
India,Karnataka,Bengaluru,"Kasturi Nagar, Bengaluru - KSPCB",20-12-2025 07:00:00,13.003872,77.664217,NO2,31,33,32
India,Karnataka,Bengaluru,"Kasturi Nagar, Bengaluru - KSPCB",20-12-2025 07:00:00,13.003872,77.664217,CO,42,53,50
India,Karnataka,Bengaluru,"Peenya, Bengaluru - CPCB",20-12-2025 07:00:00,13.0270199,77.494094,NO2,22,30,25
India,Madhya Pradesh,Sagar,"Deen Dayal Nagar, Sagar - MPPCB",20-12-2025 07:00:00,23.8640158,78.80289321,CO,46,100,88
India,Madhya Pradesh,Satna,"Bandhavgar Colony, Satna - Birla Cement",20-12-2025 07:00:00,24.58434363,80.8549414,PM10,74,75,74
India,Madhya Pradesh,Satna,"Bandhavgar Colony, Satna - Birla Cement",20-12-2025 07:00:00,24.58434363,80.8549414,NO2,12,13,12
India,Madhya Pradesh,Satna,"Bandhavgar Colony, Satna - Birla Cement",20-12-2025 07:00:00,24.58434363,80.8549414,CO,30,57,45
India,Madhya Pradesh,Singrauli,"Suryakiran Bhawan NCL, Singrauli - MPPCB",20-12-2025 07:00:00,24.108970,82.645580,PM10,237,500,333
India,Madhya Pradesh,Singrauli,"Suryakiran Bhawan NCL, Singrauli - MPPCB",20-12-2025 07:00:00,24.108970,82.645580,SO2,22,28,26
India,Maharashtra,Akola,"Ramdaspeth, Akola - MPCB",20-12-2025 07:00:00,20.719516,77.000253,PM10,47,128,87
India,Maharashtra,Akola,"Ramdaspeth, Akola - MPCB",20-12-2025 07:00:00,20.719516,77.000253,CO,12,90,16
India,Maharashtra,Amravati,"Shivneri Colony, Amravati - MPCB",20-12-2025 07:00:00,20.9402359,77.7895248,PM2.5,20,72,37
India,Maharashtra,Amravati,"Shivneri Colony, Amravati - MPCB",20-12-2025 07:00:00,20.9402359,77.7895248,PM10,40,128,68
India,Madhya Pradesh,Jabalpur,"Gupteshwar, Jabalpur - JMC",20-12-2025 07:00:00,23.142888,79.916147,CO,50,119,74
India,Madhya Pradesh,Jabalpur,"Marhatal, Jabalpur - MPPCB",20-12-2025 07:00:00,23.168606,79.932247,PM10,62,308,123
India,Madhya Pradesh,Jabalpur,"Marhatal, Jabalpur - MPPCB",20-12-2025 07:00:00,23.168606,79.932247,NH3,1,2,2
India,Madhya Pradesh,Jabalpur,"Marhatal, Jabalpur - MPPCB",20-12-2025 07:00:00,23.168606,79.932247,SO2,8,20,12
India,Madhya Pradesh,Jabalpur,"Marhatal, Jabalpur - MPPCB",20-12-2025 07:00:00,23.168606,79.932247,CO,14,121,37
India,Madhya Pradesh,Katni,"Gole Bazar, Katni - MPPCB",20-12-2025 07:00:00,23.50016,80.23284,NO2,21,59,37
India,Madhya Pradesh,Katni,"Gole Bazar, Katni - MPPCB",20-12-2025 07:00:00,23.50016,80.23284,OZONE,14,65,15
India,Madhya Pradesh,Maihar,"Sahilara, Maihar - KJS Cements",20-12-2025 07:00:00,24.2613009,80.7231783,CO,46,92,48
India,Maharashtra,Chandrapur,"MIDC Khutala, Chandrapur - MPCB",20-12-2025 07:00:00,19.9775302,79.2337086,PM10,32,234,104
India,Maharashtra,Chandrapur,"MIDC Khutala, Chandrapur - MPCB",20-12-2025 07:00:00,19.9775302,79.2337086,NO2,13,64,30
India,Maharashtra,Chandrapur,"MIDC Khutala, Chandrapur - MPCB",20-12-2025 07:00:00,19.9775302,79.2337086,CO,36,42,38
India,Maharashtra,Dhule,"Deopur, Dhule - MPCB",20-12-2025 07:00:00,20.918946,74.776388,OZONE,15,59,21
India,Maharashtra,Jalgaon,"Prabhat Colony, Jalgaon - MPCB",20-12-2025 07:00:00,21.001264,75.565602,PM10,64,466,143
India,Maharashtra,Jalna,"Old MIDC, Jalna - MPCB",20-12-2025 07:00:00,19.854616,75.905894,NO2,6,24,14
India,Madhya Pradesh,Gwalior,"Deen Dayal Nagar, Gwalior - MPPCB",20-12-2025 07:00:00,26.259242,78.216432,OZONE,3,169,4
India,Madhya Pradesh,Gwalior,"Maharaj Bada, Gwalior - MPPCB",20-12-2025 07:00:00,26.200388,78.147714,SO2,5,12,8
India,Madhya Pradesh,Indore,"Airport Area, Indore - IMC",20-12-2025 07:00:00,22.7289,75.8076,NO2,2,3,2
India,Madhya Pradesh,Indore,"Chhoti Gwaltoli, Indore - MPPCB",20-12-2025 07:00:00,22.4310,75.5213,NO2,63,149,112
India,Madhya Pradesh,Indore,"Maguda Nagar, Indore - IMC",20-12-2025 07:00:00,22.7524,75.8872,PM2.5,NA,NA,NA
India,Maharashtra,Amravati,"Shivneri Colony, Amravati - MPCB",20-12-2025 07:00:00,20.9402359,77.7895248,NH3,2,4,3
India,Maharashtra,Aurangabad,"MIDC Chilkalthana, Aurangabad - MPCB",20-12-2025 07:00:00,19.875620,75.387310,NH3,2,3,2
India,Maharashtra,Aurangabad,"MIDC Chilkalthana, Aurangabad - MPCB",20-12-2025 07:00:00,19.875620,75.387310,CO,8,13,10
India,Maharashtra,Aurangabad,"Rachnakar Colony, Aurangabad - MPCB",20-12-2025 07:00:00,19.863756,75.321188,SO2,7,39,22
India,Maharashtra,Badlapur,"Katrap, Badlapur - MPCB",20-12-2025 07:00:00,19.16485,73.23409,CO,16,66,37
India,Maharashtra,Bhiwandi,"Gokul Nagar, Bhiwandi - MPCB",20-12-2025 07:00:00,19.309073,73.057223,NO2,19,34,27
India,Maharashtra,Bhiwandi,"Gokul Nagar, Bhiwandi - MPCB",20-12-2025 07:00:00,19.309073,73.057223,OZONE,13,128,15
India,Maharashtra,Boisar,"Khaira, Boisar - MPCB",20-12-2025 07:00:00,19.786089,72.757971,PM10,85,161,116
India,Maharashtra,Chandrapur,"Chauhan Colony, Chandrapur - MPCB",20-12-2025 07:00:00,19.962900,79.298714,PM10,70,280,156
India,Maharashtra,Chandrapur,"Chauhan Colony, Chandrapur - MPCB",20-12-2025 07:00:00,19.962900,79.298714,SO2,37,37,37
India,Madhya Pradesh,Indore,"Residency Area, Indore - IMC",20-12-2025 07:00:00,22.7084,75.8815,OZONE,9,16,15
India,Madhya Pradesh,Jabalpur,"Govindh Bhavan Colony, Jabalpur - JMC",20-12-2025 07:00:00,23.163174,79.973061,CO,48,64,55
India,Madhya Pradesh,Jabalpur,"Gupteshwar, Jabalpur - JMC",20-12-2025 07:00:00,23.142888,79.916147,PM10,44,139,86
India,Madhya Pradesh,Jabalpur,"Gupteshwar, Jabalpur - JMC",20-12-2025 07:00:00,23.142888,79.916147,NO2,20,97,38
India,Maharashtra,Kalyan,"Khadakpada, Kalyan - MPCB",20-12-2025 07:00:00,19.25292,73.142019,PM2.5,30,316,93
India,Maharashtra,Kalyan,"Pimpleshwar Mandir, Kalyan - MPCB",20-12-2025 07:00:00,19.192056,72.9585188,NO2,14,34,23
India,Maharashtra,Kalyan,"Pimpleshwar Mandir, Kalyan - MPCB",20-12-2025 07:00:00,19.192056,72.9585188,CO,8,108,60
India,Maharashtra,Kolhapur,"Sinchan Bhavan, Kolhapur - MPCB",20-12-2025 07:00:00,16.7143745,74.2426398,SO2,3,14,6
India,Madhya Pradesh,Mandideep,"Sector-D Industrial Area, Mandideep - MPPCB",20-12-2025 07:00:00,23.108440,77.511428,NH3,1,4,2
India,Madhya Pradesh,Mandideep,"Sector-D Industrial Area, Mandideep - MPPCB",20-12-2025 07:00:00,23.108440,77.511428,SO2,29,127,76
India,Madhya Pradesh,Sagar,"Civil Lines, Sagar - MPPCB",20-12-2025 07:00:00,23.838586,78.759431,NO2,12,41,21
India,Madhya Pradesh,Sagar,"Civil Lines, Sagar - MPPCB",20-12-2025 07:00:00,23.838586,78.759431,NH3,1,2,1
India,Madhya Pradesh,Sagar,"Civil Lines, Sagar - MPPCB",20-12-2025 07:00:00,23.838586,78.759431,CO,29,104,84
India,Maharashtra,Mumbai,"Deonar, Mumbai - IITM",20-12-2025 07:00:00,19.04946,72.9230,NH3,7,15,11
India,Maharashtra,Mumbai,"Ghatkopar, Mumbai - BMC",20-12-2025 07:00:00,19.083694,72.920967,PM10,104,168,144
India,Maharashtra,Mumbai,"Ghatkopar, Mumbai - BMC",20-12-2025 07:00:00,19.083694,72.920967,CO,14,58,31
India,Maharashtra,Mumbai,"Kandivali West, Mumbai - BMC",20-12-2025 07:00:00,19.215859,72.831718,PM2.5,NA,NA,NA
India,Maharashtra,Mumbai,"Kandivali West, Mumbai - BMC",20-12-2025 07:00:00,19.215859,72.831718,NO2,NA,NA,NA
India,Maharashtra,Mumbai,"Kherwadi_Bandra East, Mumbai - MPCB",20-12-2025 07:00:00,19.0632143,72.8456324,PM10,90,138,116
India,Maharashtra,Mumbai,"Kherwadi_Bandra East, Mumbai - MPCB",20-12-2025 07:00:00,19.0632143,72.8456324,NO2,1,60,26
India,Maharashtra,Mumbai,"Khindipada-Bhandup West, Mumbai - IITM",20-12-2025 07:00:00,19.1653323,72.922099,SO2,3,26,14
India,Maharashtra,Mumbai,"Khindipada-Bhandup West, Mumbai - IITM",20-12-2025 07:00:00,19.1653323,72.922099,CO,22,63,39
India,Maharashtra,Nagpur,"Mahal, Nagpur - MPCB",20-12-2025 07:00:00,21.14472,79.107595,CO,23,150,36
India,Maharashtra,Nagpur,"Opp GPO Civil Lines, Nagpur - MPCB",20-12-2025 07:00:00,21.152875,79.0517531,OZONE,4,80,17
India,Maharashtra,Nagpur,"Ram Nagar, Nagpur - MPCB",20-12-2025 07:00:00,21.143383,79.048912,SO2,27,50,35
India,Maharashtra,Nanded,"Sneh Nagar, Nanded - MPCB",20-12-2025 07:00:00,19.173852,77.296291,PM2.5,30,101,68
India,Maharashtra,Nanded,"Sneh Nagar, Nanded - MPCB",20-12-2025 07:00:00,19.173852,77.296291,PM10,54,155,113
India,Maharashtra,Nanded,"Sneh Nagar, Nanded - MPCB",20-12-2025 07:00:00,19.173852,77.296291,SO2,3,4,4
India,Maharashtra,Latur,"Sawe Wadi, Latur - MPCB",20-12-2025 07:00:00,18.39963,76.57452,NO2,14,45,26
India,Maharashtra,Latur,"Sawe Wadi, Latur - MPCB",20-12-2025 07:00:00,18.39963,76.57452,NH3,4,14,8
India,Maharashtra,Mahad,"Kamble Tarf Birwadi, Mahad - MPCB",20-12-2025 07:00:00,18.1023399,73.4783687,PM2.5,50,158,76
India,Maharashtra,Mahad,"Kamble Tarf Birwadi, Mahad - MPCB",20-12-2025 07:00:00,18.1023399,73.4783687,NO2,12,28,18
India,Maharashtra,Mira-Bhayandar,"Bhayandar West, Mira-Bhayandar - MPCB",20-12-2025 07:00:00,19.296481,72.840923,PM10,73,121,103
India,Maharashtra,Mira-Bhayandar,"Bhayandar West, Mira-Bhayandar - MPCB",20-12-2025 07:00:00,19.296481,72.840923,SO2,4,4,4
India,Maharashtra,Mumbai,"Kurla, Mumbai - MPCB",20-12-2025 07:00:00,19.0863,72.8888,NH3,NA,NA,NA
India,Maharashtra,Mumbai,"Kurla, Mumbai - MPCB",20-12-2025 07:00:00,19.0863,72.8888,OZONE,NA,NA,NA
India,Maharashtra,Mumbai,"Malad West, Mumbai - IITM",20-12-2025 07:00:00,19.19709,72.82204,CO,4,99,88
India,Maharashtra,Mumbai,"Malad West, Mumbai - IITM",20-12-2025 07:00:00,19.19709,72.82204,OZONE,4,85,10
India,Maharashtra,Mumbai,"Mindspace-Malad West, Mumbai - MPCB",20-12-2025 07:00:00,19.1878657,72.8304069,PM10,24,235,109
India,Maharashtra,Mumbai,"Mindspace-Malad West, Mumbai - MPCB",20-12-2025 07:00:00,19.1878657,72.8304069,SO2,5,31,14
India,Maharashtra,Mumbai,"Mindspace-Malad West, Mumbai - MPCB",20-12-2025 07:00:00,19.1878657,72.8304069,OZONE,1,77,1
India,Maharashtra,Mumbai,"Siddharth Nagar-Worli, Mumbai - IITM",20-12-2025 07:00:00,19.000083,72.813993,CO,NA,NA,NA
India,Maharashtra,Nagpur,"Ambazari, Nagpur - MPCB",20-12-2025 07:00:00,21.121801,79.04952,PM10,42,81,69
India,Maharashtra,Nagpur,"Ambazari, Nagpur - MPCB",20-12-2025 07:00:00,21.121801,79.04952,NH3,1,14,4
India,Maharashtra,Nagpur,"Ambazari, Nagpur - MPCB",20-12-2025 07:00:00,21.121801,79.04952,SO2,8,31,15
India,Maharashtra,Nagpur,"Mahal, Nagpur - MPCB",20-12-2025 07:00:00,21.14472,79.107595,PM2.5,49,131,83
India,Maharashtra,Mumbai,"Byculla, Mumbai - BMC",20-12-2025 07:00:00,18.9767,72.8380,PM10,NA,NA,NA
India,Maharashtra,Mumbai,"Byculla, Mumbai - BMC",20-12-2025 07:00:00,18.9767,72.8380,NO2,NA,NA,NA
India,Maharashtra,Mumbai,"Byculla, Mumbai - BMC",20-12-2025 07:00:00,18.9767,72.8380,OZONE,NA,NA,NA
India,Maharashtra,Mumbai,"Chakala-Andheri East, Mumbai - IITM",20-12-2025 07:00:00,19.11074,72.86084,PM10,78,133,107
India,Maharashtra,Mumbai,"Chembur, Mumbai - MPCB",20-12-2025 07:00:00,19.0364585,72.8954371,PM10,106,133,122
India,Maharashtra,Mumbai,"Navy Nagar-Colaba, Mumbai - IITM",20-12-2025 07:00:00,18.897756,72.813320,SO2,11,59,29
India,Maharashtra,Mumbai,"Sewri, Mumbai - BMC",20-12-2025 07:00:00,19.000084,72.856730,NO2,NA,NA,NA
India,Maharashtra,Mumbai,"Shivaji Nagar, Mumbai - BMC",20-12-2025 07:00:00,19.060498,72.923356,NO2,35,106,62
India,Maharashtra,Mumbai,"Shivaji Nagar, Mumbai - BMC",20-12-2025 07:00:00,19.060498,72.923356,SO2,2,25,14
India,Maharashtra,Mumbai,"Shivaji Nagar, Mumbai - BMC",20-12-2025 07:00:00,19.060498,72.923356,CO,2,119,39
India,Maharashtra,Mumbai,"Bandra Kurla Complex, Mumbai - IITM",20-12-2025 07:00:00,19.053536,72.84643,NO2,4,33,18
India,Maharashtra,Mumbai,"Bandra Kurla Complex, Mumbai - IITM",20-12-2025 07:00:00,19.053536,72.84643,SO2,NA,NA,NA
India,Maharashtra,Mumbai,"Borivali East, Mumbai - IITM",20-12-2025 07:00:00,19.23241,72.86895,NH3,4,10,6
India,Maharashtra,Mumbai,"Borivali East, Mumbai - MPCB",20-12-2025 07:00:00,19.2243333,72.8658113,NO2,NA,NA,NA
India,Maharashtra,Mumbai,"Chembur, Mumbai - MPCB",20-12-2025 07:00:00,19.0364585,72.8954371,NO2,32,123,74
India,Maharashtra,Mumbai,"Chembur, Mumbai - MPCB",20-12-2025 07:00:00,19.0364585,72.8954371,SO2,4,38,11
India,Maharashtra,Mumbai,"Deonar, Mumbai - IITM",20-12-2025 07:00:00,19.04946,72.9230,PM2.5,24,148,94
India,Maharashtra,Thane,"Upvan Fort, Thane - MPCB",20-12-2025 07:00:00,19.222279,72.957979,PM2.5,35,115,71
India,Maharashtra,Thane,"Upvan Fort, Thane - MPCB",20-12-2025 07:00:00,19.222279,72.957979,PM10,84,125,104
India,Maharashtra,Thane,"Upvan Fort, Thane - MPCB",20-12-2025 07:00:00,19.222279,72.957979,NH3,3,3,3
India,Maharashtra,Thane,"Upvan Fort, Thane - MPCB",20-12-2025 07:00:00,19.222279,72.957979,CO,24,72,50
India,Maharashtra,Ulhasnagar,"Sidhi Vinayak Nagar, Ulhasnagar - MPCB",20-12-2025 07:00:00,19.235581,73.159121,PM10,90,185,133
India,Maharashtra,Ulhasnagar,"Sidhi Vinayak Nagar, Ulhasnagar - MPCB",20-12-2025 07:00:00,19.235581,73.159121,NO2,12,35,24
India,Maharashtra,Ulhasnagar,"Sidhi Vinayak Nagar, Ulhasnagar - MPCB",20-12-2025 07:00:00,19.235581,73.159121,OZONE,9,112,12
India,Maharashtra,Virar,"Bolinj, Virar - MPCB",20-12-2025 07:00:00,19.4458210,72.7988231,NH3,1,4,2
India,Meghalaya,Shillong,"JN Stadium, Shillong - Meghalaya PCB",20-12-2025 07:00:00,25.5803419,91.8942571,NO2,8,28,19
India,Maharashtra,Pune,"Katraj Dairy, Pune - MPCB",20-12-2025 07:00:00,18.454450,73.854155,OZONE,NA,NA,NA
India,Maharashtra,Pune,"Panchawati_Pashan, Pune - IITM",20-12-2025 07:00:00,18.536457,73.805454,PM10,50,141,92
India,Maharashtra,Pune,"Revenue Colony-Shivajinagar, Pune - IITM",20-12-2025 07:00:00,18.530085,73.849598,SO2,2,15,6
India,Maharashtra,Pune,"Revenue Colony-Shivajinagar, Pune - IITM",20-12-2025 07:00:00,18.530085,73.849598,CO,56,166,104
India,Maharashtra,Pune,"Savitribai Phule Pune University, Pune - MPCB",20-12-2025 07:00:00,18.547056,73.826908,NH3,1,14,7
India,Maharashtra,Pune,"Transport Nagar-Nigdi, Pune - IITM",20-12-2025 07:00:00,18.664282,73.763966,PM2.5,50,229,109
India,Maharashtra,Pune,"Transport Nagar-Nigdi, Pune - IITM",20-12-2025 07:00:00,18.664282,73.763966,NO2,42,164,100
India,Maharashtra,Navi Mumbai,"Mahape, Navi Mumbai - MPCB",20-12-2025 07:00:00,19.1135051,73.008978,NO2,34,37,35
India,Maharashtra,Navi Mumbai,"Mahape, Navi Mumbai - MPCB",20-12-2025 07:00:00,19.1135051,73.008978,CO,20,23,22
India,Maharashtra,Navi Mumbai,"Mahape, Navi Mumbai - MPCB",20-12-2025 07:00:00,19.1135051,73.008978,OZONE,8,12,10
India,Maharashtra,Navi Mumbai,"Nerul, Navi Mumbai - MPCB",20-12-2025 07:00:00,19.008751,73.016620,PM2.5,62,218,120
India,Maharashtra,Navi Mumbai,"Sanpada, Navi Mumbai - MPCB",20-12-2025 07:00:00,19.0575752,73.0151367,PM10,67,154,117
India,Maharashtra,Navi Mumbai,"Sanpada, Navi Mumbai - MPCB",20-12-2025 07:00:00,19.0575752,73.0151367,NO2,2,34,22
India,Maharashtra,Navi Mumbai,"Sanpada, Navi Mumbai - MPCB",20-12-2025 07:00:00,19.0575752,73.0151367,SO2,9,19,12
India,Maharashtra,Navi Mumbai,"Sector-2E Kalamboli, Navi Mumbai - MPCB",20-12-2025 07:00:00,19.02579,73.10297,NH3,7,18,12
India,Maharashtra,Navi Mumbai,"Tondare-Taloja, Navi Mumbai - MPCB",20-12-2025 07:00:00,19.0630,73.1209,SO2,1,5,4
India,Maharashtra,Navi Mumbai,"Tondare-Taloja, Navi Mumbai - MPCB",20-12-2025 07:00:00,19.0630,73.1209,CO,22,112,31
India,Maharashtra,Parbhani,"Masoom Colony, Parbhani - MPCB",20-12-2025 07:00:00,19.265594,76.761463,PM10,42,209,92
India,Maharashtra,Parbhani,"Masoom Colony, Parbhani - MPCB",20-12-2025 07:00:00,19.265594,76.761463,OZONE,10,10,10
India,Maharashtra,Pimpri-Chinchwad,"Gavalinagar, Pimpri Chinchwad - MPCB",20-12-2025 07:00:00,18.63673,73.82487,PM10,65,289,158
India,Maharashtra,Pimpri-Chinchwad,"Gavalinagar, Pimpri Chinchwad - MPCB",20-12-2025 07:00:00,18.63673,73.82487,NH3,6,55,19
India,Maharashtra,Pimpri-Chinchwad,"Park Street Wakad, Pimpri Chinchwad - MPCB",20-12-2025 07:00:00,18.59051,73.77946,NH3,1,5,3
India,Maharashtra,Nanded,"Sneh Nagar, Nanded - MPCB",20-12-2025 07:00:00,19.173852,77.296291,OZONE,1,80,3
India,Maharashtra,Nashik,"Gangapur Road, Nashik - MPCB",20-12-2025 07:00:00,20.0073285,73.7762427,PM10,1,162,81
India,Maharashtra,Nashik,"Gangapur Road, Nashik - MPCB",20-12-2025 07:00:00,20.0073285,73.7762427,CO,30,42,35
India,Maharashtra,Nashik,"Hirawadi, Nashik - MPCB",20-12-2025 07:00:00,20.021503,73.813844,PM2.5,34,146,59
India,Maharashtra,Nashik,"Hirawadi, Nashik - MPCB",20-12-2025 07:00:00,20.021503,73.813844,OZONE,4,55,10
India,Maharashtra,Nashik,"MIDC Ambad, Nashik - MPCB",20-12-2025 07:00:00,19.950220,73.731480,NO2,19,109,58
India,Maharashtra,Nashik,"Pandav Nagari, Nashik - MPCB",20-12-2025 07:00:00,19.9591346,73.7788008,NH3,3,7,5
India,Odisha,Balasore,"Kalidaspur, Balasore - OSPCB",20-12-2025 07:00:00,21.51161,86.89088,OZONE,11,66,28
India,Odisha,Bhubaneswar,"Lingraj Mandir, Bhubaneswar - OSPCB",20-12-2025 07:00:00,20.240790,85.836784,NH3,4,7,5
India,Odisha,Bhubaneswar,"Patia, Bhubaneswar - OSPCB",20-12-2025 07:00:00,20.34652,85.81630,NO2,20,129,56
India,Odisha,Bhubaneswar,"Patia, Bhubaneswar - OSPCB",20-12-2025 07:00:00,20.34652,85.81630,NH3,7,11,9
India,Odisha,Bhubaneswar,"Patia, Bhubaneswar - OSPCB",20-12-2025 07:00:00,20.34652,85.81630,CO,50,135,89
India,Odisha,Bileipada,"Tata Township, Bileipada - OSPCB",20-12-2025 07:00:00,22.06156703,85.47409613,PM10,150,249,185
India,Odisha,Bileipada,"Tata Township, Bileipada - OSPCB",20-12-2025 07:00:00,22.06156703,85.47409613,NH3,4,4,4
India,Maharashtra,Sangli,"Vijay Nagar, Sangli - MPCB",20-12-2025 07:00:00, 16.5038,74.3623,NO2,27,111,54
India,Maharashtra,Solapur,"Ratandeep Housing Society, Solapur - MPCB",20-12-2025 07:00:00,17.65439,75.90649,PM10,52,133,92
India,Maharashtra,Solapur,"Ratandeep Housing Society, Solapur - MPCB",20-12-2025 07:00:00,17.65439,75.90649,NH3,2,15,6
India,Maharashtra,Thane,"Kasarvadavali, Thane - MPCB",20-12-2025 07:00:00,19.26777,72.97182,PM10,112,166,136
India,Maharashtra,Thane,"Kasarvadavali, Thane - MPCB",20-12-2025 07:00:00,19.26777,72.97182,NO2,NA,NA,NA
India,Meghalaya,Shillong,"Lumpyngngad, Shillong - Meghalaya PCB",20-12-2025 07:00:00,25.5586,91.8985,CO,2,12,4
India,Nagaland,Kohima,"PWD Junction, Kohima - NPCB",20-12-2025 07:00:00,25.6635413,94.0989878,SO2,74,76,74
India,Odisha,Angul,"Hakimapada, Angul - OSPCB",20-12-2025 07:00:00,20.832874,85.104082,SO2,8,63,22
India,Odisha,Angul,"Hakimapada, Angul - OSPCB",20-12-2025 07:00:00,20.832874,85.104082,CO,15,86,40
India,Maharashtra,Pune,"Dhankawadi, Pune - IITM",20-12-2025 07:00:00,18.459883,73.852193,PM10,61,175,121
India,Odisha,Brajrajnagar,"GM Office, Brajrajnagar - OSPCB",20-12-2025 07:00:00,21.8004996,83.8396977,SO2,19,23,20
India,Odisha,Byasanagar,"Ferro Chrome Colony, Byasanagar - OSPCB",20-12-2025 07:00:00,20.94185,86.11510,NO2,NA,NA,NA
India,Odisha,Cuttack,"CDA Area, Cuttack - OSPCB",20-12-2025 07:00:00,20.48891     ,85.84768     ,NO2,24,129,66
India,Odisha,Cuttack,"CDA Area, Cuttack - OSPCB",20-12-2025 07:00:00,20.48891     ,85.84768     ,OZONE,3,184,13
India,Odisha,Keonjhar,"Jagamohanpur, Keonjhar - OSPCB",20-12-2025 07:00:00,21.643900,85.599355,PM2.5,55,92,70
India,Odisha,Keonjhar,"Jagamohanpur, Keonjhar - OSPCB",20-12-2025 07:00:00,21.643900,85.599355,NH3,7,28,14
India,Odisha,Keonjhar,"Jagamohanpur, Keonjhar - OSPCB",20-12-2025 07:00:00,21.643900,85.599355,SO2,1,17,4
India,Odisha,Keonjhar,"Jagamohanpur, Keonjhar - OSPCB",20-12-2025 07:00:00,21.643900,85.599355,OZONE,16,19,18
India,Rajasthan,Chittorgarh,"Shastri Nagar, Chittorgarh - RSPCB",20-12-2025 07:00:00,24.892047,74.623527,CO,15,73,48
India,Rajasthan,Churu,"Subash Chowk, Churu - RSPCB",20-12-2025 07:00:00,28.296139,74.961696,PM10,72,496,198
India,Rajasthan,Dausa,"Khatikan Mohalla, Dausa - RSPCB",20-12-2025 07:00:00,26.895552,76.334753,PM2.5,10,311,89
India,Rajasthan,Dausa,"Khatikan Mohalla, Dausa - RSPCB",20-12-2025 07:00:00,26.895552,76.334753,PM10,41,338,104
India,Rajasthan,Dausa,"Khatikan Mohalla, Dausa - RSPCB",20-12-2025 07:00:00,26.895552,76.334753,CO,21,106,56
India,Rajasthan,Dholpur,"Raja Ganj, Dholpur - RSPCB",20-12-2025 07:00:00,26.699557,77.898881,NH3,3,54,10
India,Rajasthan,Dholpur,"Raja Ganj, Dholpur - RSPCB",20-12-2025 07:00:00,26.699557,77.898881,CO,48,146,80
India,Odisha,Rairangpur,"Divisional Forest Office, Rairangpur - OSPCB",20-12-2025 07:00:00,22.265816,86.174829,PM2.5,45,55,50
India,Odisha,Rairangpur,"Divisional Forest Office, Rairangpur - OSPCB",20-12-2025 07:00:00,22.265816,86.174829,PM10,80,155,112
India,Odisha,Rairangpur,"Divisional Forest Office, Rairangpur - OSPCB",20-12-2025 07:00:00,22.265816,86.174829,SO2,1,49,13
India,Odisha,Rourkela,"Fertilizer Township, Rourkela - OSPCB",20-12-2025 07:00:00,22.18972222,84.86277778,PM2.5,87,114,96
India,Odisha,Rourkela,"Fertilizer Township, Rourkela - OSPCB",20-12-2025 07:00:00,22.18972222,84.86277778,PM10,101,108,103
India,Odisha,Rourkela,"Fertilizer Township, Rourkela - OSPCB",20-12-2025 07:00:00,22.18972222,84.86277778,NO2,11,11,11
India,Odisha,Rourkela,"Fertilizer Township, Rourkela - OSPCB",20-12-2025 07:00:00,22.18972222,84.86277778,CO,19,28,24
India,Punjab,Patiala,"Model Town, Patiala - PPCB",20-12-2025 07:00:00,30.349388,76.366642,NH3,6,7,6
India,Punjab,Rupnagar,"Ratanpura, Rupnagar - Ambuja Cements",20-12-2025 07:00:00,31.0325454,76.5623046,PM10,1,266,123
India,Rajasthan,Ajmer,"Civil Lines,  Ajmer - RSPCB",20-12-2025 07:00:00,26.470859,74.646594,NH3,3,4,4
India,Rajasthan,Alwar,"Moti Doongri, Alwar - RSPCB",20-12-2025 07:00:00,27.554793,76.611536,PM10,68,186,113
India,Rajasthan,Alwar,"Moti Doongri, Alwar - RSPCB",20-12-2025 07:00:00,27.554793,76.611536,NO2,49,82,69
India,Rajasthan,Baran,"Bamboliya, Baran - RSPCB",20-12-2025 07:00:00,25.106006,76.469948,PM10,84,202,111
India,Rajasthan,Baran,"Bamboliya, Baran - RSPCB",20-12-2025 07:00:00,25.106006,76.469948,SO2,4,9,6
India,Rajasthan,Barmer,"Railway Colony, Barmer - RSPCB",20-12-2025 07:00:00,25.747299,71.393989,CO,6,123,42
India,Rajasthan,Barmer,"Railway Colony, Barmer - RSPCB",20-12-2025 07:00:00,25.747299,71.393989,OZONE,4,79,25
India,Rajasthan,Bharatpur,"Krishna Nagar, Bharatpur - RSPCB",20-12-2025 07:00:00,27.215415,77.50873,PM2.5,87,262,132
India,Rajasthan,Bharatpur,"Krishna Nagar, Bharatpur - RSPCB",20-12-2025 07:00:00,27.215415,77.50873,CO,45,136,73
India,Punjab,Amritsar,"Golden Temple, Amritsar - PPCB",20-12-2025 07:00:00,31.620000,74.876512,SO2,14,23,18
India,Punjab,Bathinda,"Hardev Nagar, Bathinda - PPCB",20-12-2025 07:00:00,30.233011,74.907758,SO2,13,22,17
India,Punjab,Jalandhar,"Civil Line, Jalandhar - PPCB",20-12-2025 07:00:00,31.321907,75.578914,NH3,4,5,5
India,Punjab,Jalandhar,"Civil Line, Jalandhar - PPCB",20-12-2025 07:00:00,31.321907,75.578914,OZONE,39,47,45
India,Punjab,Khanna,"Kalal Majra, Khanna - PPCB",20-12-2025 07:00:00,30.736056 ,76.209694,PM2.5,5,254,112
India,Odisha,Tensa,"Barsua Iron Ore Mines, Tensa - OSPCB",20-12-2025 07:00:00,21.869985,85.167016,PM2.5,NA,NA,NA
India,Odisha,Tensa,"Barsua Iron Ore Mines, Tensa - OSPCB",20-12-2025 07:00:00,21.869985,85.167016,PM10,4,418,109
India,Puducherry,Puducherry,"Jawahar Nagar, Puducherry - PPCC",20-12-2025 07:00:00,11.9309,79.8027,PM2.5,111,232,144
India,Puducherry,Puducherry,"Jawahar Nagar, Puducherry - PPCC",20-12-2025 07:00:00,11.9309,79.8027,PM10,84,121,96
India,Punjab,Amritsar,"Golden Temple, Amritsar - PPCB",20-12-2025 07:00:00,31.620000,74.876512,PM2.5,46,267,108
India,Rajasthan,Bhiwadi,"RIICO Ind. Area III, Bhiwadi - RSPCB",20-12-2025 07:00:00,28.194909,76.862296,PM2.5,188,385,319
India,Rajasthan,Bhiwadi,"RIICO Ind. Area III, Bhiwadi - RSPCB",20-12-2025 07:00:00,28.194909,76.862296,SO2,1,15,4
India,Rajasthan,Bhiwadi,"Vasundhara Nagar_UIT, Bhiwadi - RSPCB",20-12-2025 07:00:00,28.207266,76.829265,PM10,129,500,249
India,Rajasthan,Bhiwadi,"Vasundhara Nagar_UIT, Bhiwadi - RSPCB",20-12-2025 07:00:00,28.207266,76.829265,SO2,1,24,6
India,Rajasthan,Bhiwadi,"Vasundhara Nagar_UIT, Bhiwadi - RSPCB",20-12-2025 07:00:00,28.207266,76.829265,OZONE,4,88,6
India,Rajasthan,Bikaner,"MM Ground, Bikaner - RSPCB",20-12-2025 07:00:00,28.018792,73.292658,PM10,58,437,209
India,Rajasthan,Dungarpur,"Bhoiwada, Dungarpur - RSPCB",20-12-2025 07:00:00,23.837789,73.714926,SO2,2,13,5
India,Rajasthan,Hanumangarh,"Housing Board, Hanumangarh - RSPCB",20-12-2025 07:00:00,29.610750,74.283608,OZONE,1,72,4
India,Rajasthan,Jaipur,"Mansarovar Sector-12, Jaipur - RSPCB",20-12-2025 07:00:00,26.843698,75.766894,NO2,10,76,45
India,Rajasthan,Kota,"Shrinath Puram, Kota - RSPCB",20-12-2025 07:00:00,25.14389,75.821256,OZONE,5,15,9
India,Rajasthan,Nagaur,"Karni Colony, Nagaur - RSPCB",20-12-2025 07:00:00,27.213494,73.734444,PM2.5,12,331,118
India,Rajasthan,Nagaur,"Karni Colony, Nagaur - RSPCB",20-12-2025 07:00:00,27.213494,73.734444,NH3,NA,NA,NA
India,Rajasthan,Nagaur,"Karni Colony, Nagaur - RSPCB",20-12-2025 07:00:00,27.213494,73.734444,CO,18,80,44
India,Rajasthan,Pali,"Indira Colony Vistar, Pali - RSPCB",20-12-2025 07:00:00,25.771061, 73.340227,NO2,20,91,37
India,Rajasthan,Pali,"Indira Colony Vistar, Pali - RSPCB",20-12-2025 07:00:00,25.771061, 73.340227,SO2,5,10,8
India,Rajasthan,Pali,"Indira Colony Vistar, Pali - RSPCB",20-12-2025 07:00:00,25.771061, 73.340227,CO,10,100,67
India,Rajasthan,Pratapgarh,"Pragati Nagar, Pratapgarh - RSPCB",20-12-2025 07:00:00,24.041198,74.780702,PM2.5,28,183,91
India,Rajasthan,Pratapgarh,"Pragati Nagar, Pratapgarh - RSPCB",20-12-2025 07:00:00,24.041198,74.780702,NH3,5,10,7
India,Rajasthan,Jaipur,"Police Commissionerate, Jaipur - RSPCB",20-12-2025 07:00:00,26.9164092,75.7994901,SO2,12,15,14
India,Rajasthan,Jaipur,"Police Commissionerate, Jaipur - RSPCB",20-12-2025 07:00:00,26.9164092,75.7994901,CO,56,71,60
India,Rajasthan,Jaipur,"Sector-2 Murlipura, Jaipur - RSPCB",20-12-2025 07:00:00,26.960669,75.771817,NO2,24,128,69
India,Rajasthan,Jaipur,"Sector-2 Murlipura, Jaipur - RSPCB",20-12-2025 07:00:00,26.960669,75.771817,SO2,3,4,4
India,Rajasthan,Jaipur,"Shastri Nagar, Jaipur - RSPCB",20-12-2025 07:00:00,26.9502929,75.730943,SO2,4,129,40
India,Rajasthan,Jaipur,"Shastri Nagar, Jaipur - RSPCB",20-12-2025 07:00:00,26.9502929,75.730943,CO,28,170,81
India,Rajasthan,Jaisalmer,"Sadar Bazar, Jaisalmer - RSPCB",20-12-2025 07:00:00,26.912329,70.909168,PM10,59,454,166
India,Rajasthan,Jaisalmer,"Sadar Bazar, Jaisalmer - RSPCB",20-12-2025 07:00:00,26.912329,70.909168,NO2,24,107,56
India,Rajasthan,Jaisalmer,"Sadar Bazar, Jaisalmer - RSPCB",20-12-2025 07:00:00,26.912329,70.909168,OZONE,1,103,17
India,Rajasthan,Jalore,"Mudtra Sili, Jalore - RSPCB",20-12-2025 07:00:00,25.344694,72.626208,PM10,50,262,140
India,Rajasthan,Jalore,"Mudtra Sili, Jalore - RSPCB",20-12-2025 07:00:00,25.344694,72.626208,SO2,1,8,4
India,Rajasthan,Jhalawar,"Rajlaxmi Nagar, Jhalawar - RSPCB",20-12-2025 07:00:00,24.588397,76.172782,CO,20,183,87
India,Rajasthan,Jhalawar,"Rajlaxmi Nagar, Jhalawar - RSPCB",20-12-2025 07:00:00,24.588397,76.172782,OZONE,1,135,1
India,Rajasthan,Jhunjhunu,"Indra Nagar, Jhunjhunu - RSPCB",20-12-2025 07:00:00,28.108988,75.386577,NO2,11,140,58
India,Rajasthan,Jhunjhunu,"Indra Nagar, Jhunjhunu - RSPCB",20-12-2025 07:00:00,28.108988,75.386577,SO2,3,11,6
India,Rajasthan,Jhunjhunu,"Indra Nagar, Jhunjhunu - RSPCB",20-12-2025 07:00:00,28.108988,75.386577,CO,18,122,42
India,Rajasthan,Jodhpur,"Collectorate, Jodhpur - RSPCB",20-12-2025 07:00:00,26.268249,73.0193853,NH3,8,48,21
India,Rajasthan,Jodhpur,"Collectorate, Jodhpur - RSPCB",20-12-2025 07:00:00,26.268249,73.0193853,SO2,2,29,12
India,Rajasthan,Jodhpur,"Digari Kalan, Jodhpur - RSPCB",20-12-2025 07:00:00,26.295810,73.082283,NO2,7,76,37
India,Rajasthan,Jodhpur,"Jhalamand, Jodhpur - RSPCB",20-12-2025 07:00:00,26.215415,73.070156,SO2,2,15,6
India,Rajasthan,Jodhpur,"Mandor, Jodhpur - RSPCB",20-12-2025 07:00:00,26.358805,73.047444,CO,18,62,43
India,Rajasthan,Jodhpur,"Samrat Ashok Udhyan, Jodhpur - RSPCB",20-12-2025 07:00:00,26.253384,72.976571,PM2.5,28,372,173
India,Rajasthan,Jodhpur,"Samrat Ashok Udhyan, Jodhpur - RSPCB",20-12-2025 07:00:00,26.253384,72.976571,PM10,50,320,136
India,TamilNadu,Chennai,"Perungudi, Chennai - TNPCB",20-12-2025 07:00:00,12.9533,80.2357,OZONE,4,23,8
India,TamilNadu,Chennai,"Royapuram, Chennai - TNPCB",20-12-2025 07:00:00,13.1036,80.2909,PM10,43,79,63
India,TamilNadu,Coimbatore,"PSG College of Arts and Science, Coimbatore - TNPCB",20-12-2025 07:00:00,11.0328,77.0349,NO2,10,11,10
India,TamilNadu,Coimbatore,"PSG College of Arts and Science, Coimbatore - TNPCB",20-12-2025 07:00:00,11.0328,77.0349,SO2,3,4,4
India,TamilNadu,Coimbatore,"PSG College of Arts and Science, Coimbatore - TNPCB",20-12-2025 07:00:00,11.0328,77.0349,OZONE,4,6,5
India,TamilNadu,Coimbatore,"SIDCO Kurichi, Coimbatore - TNPCB",20-12-2025 07:00:00,10.942451,76.978996,NO2,2,54,18
India,TamilNadu,Coimbatore,"SIDCO Kurichi, Coimbatore - TNPCB",20-12-2025 07:00:00,10.942451,76.978996,NH3,1,2,1
India,Rajasthan,Rajsamand,"Dhoinda, Rajsamand - RSPCB",20-12-2025 07:00:00,25.036360,73.883502,OZONE,4,148,27
India,Rajasthan,Sawai Madhopur,"Sahu Nagar, Sawai Madhopur - RSPCB",20-12-2025 07:00:00,26.031443,76.359327,OZONE,1,92,1
India,Rajasthan,Sikar,"Radhakishan Pura, Sikar - RSPCB",20-12-2025 07:00:00,27.608912,75.153302,NH3,NA,NA,NA
India,Rajasthan,Sikar,"Radhakishan Pura, Sikar - RSPCB",20-12-2025 07:00:00,27.608912,75.153302,SO2,1,13,6
India,Rajasthan,Sirohi,"Vedhaynath Colony, Sirohi - RSPCB",20-12-2025 07:00:00,24.885261,72.857549,SO2,2,6,3
India,Rajasthan,Sirohi,"Vedhaynath Colony, Sirohi - RSPCB",20-12-2025 07:00:00,24.885261,72.857549,OZONE,3,81,33
India,Rajasthan,Sri Ganganagar,"Old City, Sri Ganganagar - RSPCB",20-12-2025 07:00:00,29.931624,73.864511,NH3,1,34,12
India,Rajasthan,Tonk,"Shastri Nagar, Tonk - RSPCB",20-12-2025 07:00:00,26.159933,75.780517,PM10,86,500,201
India,Rajasthan,Tonk,"Shastri Nagar, Tonk - RSPCB",20-12-2025 07:00:00,26.159933,75.780517,SO2,1,6,2
India,TamilNadu,Chennai,"Arumbakkam, Chennai - TNPCB",20-12-2025 07:00:00,13.0664,80.2112 ,PM2.5,130,312,234
India,TamilNadu,Chennai,"Gandhi Nagar_Ennore, Chennai - TNPCB",20-12-2025 07:00:00,13.218341,80.32027,NO2,2,2,2
India,TamilNadu,Chennai,"Kodungaiyur, Chennai - TNPCB",20-12-2025 07:00:00,13.1278,80.2642,NH3,4,8,6
India,TamilNadu,Chennai,"Manali Village, Chennai - TNPCB",20-12-2025 07:00:00,13.1662,80.2584,NH3,1,2,2
India,TamilNadu,Chennai,"Manali Village, Chennai - TNPCB",20-12-2025 07:00:00,13.1662,80.2584,OZONE,16,42,34
India,TamilNadu,Chennai,"Manali, Chennai - CPCB",20-12-2025 07:00:00,13.164544,80.26285,PM2.5,NA,NA,NA
India,TamilNadu,Chennai,"Perungudi, Chennai - TNPCB",20-12-2025 07:00:00,12.9533,80.2357,PM10,102,230,141
India,Rajasthan,Jodhpur,"Samrat Ashok Udhyan, Jodhpur - RSPCB",20-12-2025 07:00:00,26.253384,72.976571,NH3,4,8,6
India,Rajasthan,Jodhpur,"Samrat Ashok Udhyan, Jodhpur - RSPCB",20-12-2025 07:00:00,26.253384,72.976571,OZONE,1,180,3
India,Rajasthan,Kota,"Dhanmandi, Kota - RSPCB",20-12-2025 07:00:00,25.164090,75.858137,OZONE,2,95,5
India,Uttar_Pradesh,Firozabad,"Nagla Bhau, Firozabad - UPPCB",20-12-2025 07:00:00,27.168897,78.376960,OZONE,5,5,5
India,Uttar_Pradesh,Ghaziabad,"Indirapuram, Ghaziabad - UPPCB",20-12-2025 07:00:00,28.646233,77.358075,PM10,210,500,370
India,Uttar_Pradesh,Ghaziabad,"Indirapuram, Ghaziabad - UPPCB",20-12-2025 07:00:00,28.646233,77.358075,NO2,1,54,17
India,Uttar_Pradesh,Ghaziabad,"Loni, Ghaziabad - UPPCB",20-12-2025 07:00:00,28.757294,77.278792,SO2,10,23,17
India,Uttar_Pradesh,Ghaziabad,"Loni, Ghaziabad - UPPCB",20-12-2025 07:00:00,28.757294,77.278792,CO,42,131,96
India,Uttar_Pradesh,Ghaziabad,"Loni, Ghaziabad - UPPCB",20-12-2025 07:00:00,28.757294,77.278792,OZONE,5,31,5
India,Uttar_Pradesh,Ghaziabad,"Sanjay Nagar, Ghaziabad - UPPCB",20-12-2025 07:00:00,28.685382,77.453839,PM10,130,441,302
India,Uttar_Pradesh,Ghaziabad,"Sanjay Nagar, Ghaziabad - UPPCB",20-12-2025 07:00:00,28.685382,77.453839,NO2,68,145,97
India,Uttar_Pradesh,Ghaziabad,"Sanjay Nagar, Ghaziabad - UPPCB",20-12-2025 07:00:00,28.685382,77.453839,CO,19,125,59
India,Uttar_Pradesh,Ghaziabad,"Sanjay Nagar, Ghaziabad - UPPCB",20-12-2025 07:00:00,28.685382,77.453839,OZONE,10,49,10
India,TamilNadu,Coimbatore,"SIDCO Kurichi, Coimbatore - TNPCB",20-12-2025 07:00:00,10.942451,76.978996,SO2,21,23,21
India,TamilNadu,Coimbatore,"SIDCO Kurichi, Coimbatore - TNPCB",20-12-2025 07:00:00,10.942451,76.978996,OZONE,12,68,21
India,TamilNadu,Cuddalore,"Kudikadu, Cuddalore - TNPCB",20-12-2025 07:00:00,11.6829898,79.7532099,NH3,5,5,5
India,TamilNadu,Karur,"Kamadenu Nagar, Karur - TNPCB",20-12-2025 07:00:00,10.967820,78.080882,NO2,5,6,6
India,TamilNadu,Karur,"Kamadenu Nagar, Karur - TNPCB",20-12-2025 07:00:00,10.967820,78.080882,CO,NA,NA,NA
India,TamilNadu,Karur,"Kamadenu Nagar, Karur - TNPCB",20-12-2025 07:00:00,10.967820,78.080882,OZONE,6,9,7
India,TamilNadu,Madurai,"Uchapatti, Madurai - TNPCB",20-12-2025 07:00:00,9.865935,78.022669,NO2,NA,NA,NA
India,TamilNadu,Madurai,"Uchapatti, Madurai - TNPCB",20-12-2025 07:00:00,9.865935,78.022669,NH3,NA,NA,NA
India,Telangana,Hyderabad,"Zoo Park, Hyderabad - TSPCB",20-12-2025 07:00:00,17.349694,78.451437,PM2.5,42,174,108
India,Telangana,Hyderabad,"Zoo Park, Hyderabad - TSPCB",20-12-2025 07:00:00,17.349694,78.451437,SO2,4,36,20
India,Tripura,Agartala,"Bardowali, Agartala - Tripura SPCB",20-12-2025 07:00:00,23.8175497,91.2726974,PM2.5,3,60,33
India,Tripura,Agartala,"Bardowali, Agartala - Tripura SPCB",20-12-2025 07:00:00,23.8175497,91.2726974,NO2,13,13,13
India,Tripura,Agartala,"Bardowali, Agartala - Tripura SPCB",20-12-2025 07:00:00,23.8175497,91.2726974,SO2,6,7,7
India,Tripura,Agartala,"Bardowali, Agartala - Tripura SPCB",20-12-2025 07:00:00,23.8175497,91.2726974,OZONE,2,6,2
India,Uttar_Pradesh,Agra,"Manoharpur, Agra - UPPCB",20-12-2025 07:00:00,27.23711,78.01936,OZONE,8,61,8
India,TamilNadu,Nagapattinam,"Velippalayam, Nagapattinam - TNPCB",20-12-2025 07:00:00,10.798548,79.838212,PM10,NA,NA,NA
India,TamilNadu,Perundurai,"SIPCOT Industrial Park, Perundurai - TNPCB",20-12-2025 07:00:00,11.258242,77.552761,PM2.5,71,205,113
India,TamilNadu,Tirunelveli,"Municipal Corporation Office, Tirunelveli - TNPCB",20-12-2025 07:00:00,8.728442,77.6962,PM10,NA,NA,NA
India,TamilNadu,Tirunelveli,"Municipal Corporation Office, Tirunelveli - TNPCB",20-12-2025 07:00:00,8.728442,77.6962,OZONE,NA,NA,NA
India,TamilNadu,Tirupur,"Kumaran College, Tirupur - TNPCB",20-12-2025 07:00:00,11.0973603,77.3228673,PM2.5,95,340,228
India,TamilNadu,Tirupur,"Kumaran College, Tirupur - TNPCB",20-12-2025 07:00:00,11.0973603,77.3228673,NO2,11,26,16
India,Telangana,Hyderabad,"Nacharam_TSIIC IALA, Hyderabad - TSPCB",20-12-2025 07:00:00,17.429398,78.569354,NO2,12,22,17
India,Telangana,Hyderabad,"New Malakpet, Hyderabad - TSPCB",20-12-2025 07:00:00,17.37206,78.50864,PM10,79,147,91
India,Telangana,Hyderabad,"New Malakpet, Hyderabad - TSPCB",20-12-2025 07:00:00,17.37206,78.50864,OZONE,10,25,10
India,Telangana,Hyderabad,"Ramachandrapuram, Hyderabad - TSPCB",20-12-2025 07:00:00,17.528544,78.286195,PM10,59,80,66
India,Telangana,Hyderabad,"Sanathnagar, Hyderabad - TSPCB",20-12-2025 07:00:00,17.4559458,78.4332152,SO2,11,23,15
India,Uttar_Pradesh,Baghpat,"Sardar Patel Inter College, Baghpat - UPPCB",20-12-2025 07:00:00,28.964949,77.278761,NO2,NA,NA,NA
India,Uttar_Pradesh,Bareilly,"Civil Lines, Bareilly - UPPCB",20-12-2025 07:00:00,28.359581,79.414455,PM2.5,19,51,36
India,Uttar_Pradesh,Bareilly,"Civil Lines, Bareilly - UPPCB",20-12-2025 07:00:00,28.359581,79.414455,PM10,51,75,67
India,Uttar_Pradesh,Bareilly,"Rajendra Nagar, Bareilly - UPPCB",20-12-2025 07:00:00,28.38910936,79.42963708,NO2,9,10,10
India,Uttar_Pradesh,Bareilly,"Rajendra Nagar, Bareilly - UPPCB",20-12-2025 07:00:00,28.38910936,79.42963708,NH3,1,1,1
India,Uttar_Pradesh,Agra,"Rohta, Agra - UPPCB",20-12-2025 07:00:00,27.106972,78.000111,SO2,15,38,25
India,Uttar_Pradesh,Agra,"Sanjay Palace, Agra - UPPCB",20-12-2025 07:00:00,27.19865833,78.00598056,PM10,86,452,220
India,Uttar_Pradesh,Agra,"Sanjay Palace, Agra - UPPCB",20-12-2025 07:00:00,27.19865833,78.00598056,CO,28,109,67
India,Uttar_Pradesh,Agra,"Sanjay Palace, Agra - UPPCB",20-12-2025 07:00:00,27.19865833,78.00598056,OZONE,4,6,5
India,Uttar_Pradesh,Agra,"Sector-3B Avas Vikas Colony, Agra - UPPCB",20-12-2025 07:00:00,27.19412,77.96237,NO2,24,26,25
India,Telangana,Hyderabad,"Bollaram Industrial Area, Hyderabad - TSPCB",20-12-2025 07:00:00,17.540891,78.358528,PM2.5,23,147,88
India,Telangana,Hyderabad,"Bollaram Industrial Area, Hyderabad - TSPCB",20-12-2025 07:00:00,17.540891,78.358528,PM10,52,127,96
India,Telangana,Hyderabad,"Central University, Hyderabad - TSPCB",20-12-2025 07:00:00,17.460103,78.334361,OZONE,8,17,12
India,Telangana,Hyderabad,"ECIL Kapra, Hyderabad - TSPCB",20-12-2025 07:00:00,17.470431,78.566959,OZONE,8,68,8
India,Telangana,Hyderabad,"ICRISAT Patancheru, Hyderabad - TSPCB",20-12-2025 07:00:00,17.518400,78.278777,SO2,7,68,15
India,Telangana,Hyderabad,"Kokapet, Hyderabad - TSPCB",20-12-2025 07:00:00,17.393559,78.339194,CO,20,40,21
India,Telangana,Hyderabad,"Kompally Municipal Office, Hyderabad - TSPCB",20-12-2025 07:00:00,17.544899,78.486949,NO2,14,17,15
India,Uttar_Pradesh,Moradabad,"Employment Office, Moradabad - UPPCB",20-12-2025 07:00:00,28.88528,78.73880,SO2,20,24,22
India,Uttar_Pradesh,Moradabad,"Employment Office, Moradabad - UPPCB",20-12-2025 07:00:00,28.88528,78.73880,CO,13,67,59
India,Uttar_Pradesh,Moradabad,"Jigar Colony, Moradabad - UPPCB",20-12-2025 07:00:00,28.856664,78.772638,PM10,104,147,130
India,Uttar_Pradesh,Moradabad,"Jigar Colony, Moradabad - UPPCB",20-12-2025 07:00:00,28.856664,78.772638,OZONE,17,20,17
India,Uttar_Pradesh,Moradabad,"Transport Nagar, Moradabad - UPPCB",20-12-2025 07:00:00,28.802625,78.753728,PM2.5,56,217,108
India,Uttar_Pradesh,Moradabad,"Transport Nagar, Moradabad - UPPCB",20-12-2025 07:00:00,28.802625,78.753728,NH3,5,6,6
India,Uttar_Pradesh,Moradabad,"Transport Nagar, Moradabad - UPPCB",20-12-2025 07:00:00,28.802625,78.753728,CO,34,88,36
India,Uttar_Pradesh,Muzaffarnagar,"New Mandi, Muzaffarnagar - UPPCB",20-12-2025 07:00:00,29.4723508,77.7194031,PM10,86,235,152
India,Uttar_Pradesh,Muzaffarnagar,"New Mandi, Muzaffarnagar - UPPCB",20-12-2025 07:00:00,29.4723508,77.7194031,NO2,44,109,76
India,Uttar_Pradesh,Lucknow,"Kendriya Vidyalaya, Lucknow - CPCB",20-12-2025 07:00:00,26.906111,80.948222,CO,36,110,56
India,Uttar_Pradesh,Lucknow,"Kendriya Vidyalaya, Lucknow - CPCB",20-12-2025 07:00:00,26.906111,80.948222,OZONE,10,80,14
India,Uttar_Pradesh,Lucknow,"Kukrail Picnic Spot-1, Lucknow - UPPCB",20-12-2025 07:00:00,26.90723,80.98579,CO,10,14,12
India,Uttar_Pradesh,Lucknow,"Kukrail Picnic Spot-1, Lucknow - UPPCB",20-12-2025 07:00:00,26.90723,80.98579,OZONE,8,19,8
India,Uttar_Pradesh,Lucknow,"Lalbagh, Lucknow - CPCB",20-12-2025 07:00:00,26.8458805,80.9365541,NO2,32,42,38
India,Uttar_Pradesh,Lucknow,"Talkatora District Industries Center, Lucknow - CPCB",20-12-2025 07:00:00,26.83399722,80.8917361,NH3,7,9,7
India,Uttar_Pradesh,Lucknow,"Talkatora District Industries Center, Lucknow - CPCB",20-12-2025 07:00:00,26.83399722,80.8917361,CO,26,63,36
India,Uttar_Pradesh,Meerut,"Ganga Nagar, Meerut - UPPCB",20-12-2025 07:00:00,28.999264,77.7590354,NH3,4,12,7
India,Uttar_Pradesh,Varanasi,"Maldahiya, Varanasi - UPPCB",20-12-2025 07:00:00,25.32393,82.99687,PM10,76,301,112
India,Uttar_Pradesh,Varanasi,"Maldahiya, Varanasi - UPPCB",20-12-2025 07:00:00,25.32393,82.99687,NO2,2,2,2
India,Uttar_Pradesh,Vrindavan,"Omex Eternity, Vrindavan - UPPCB",20-12-2025 07:00:00,27.5714090,77.6557570,SO2,11,18,14
India,Uttar_Pradesh,Vrindavan,"Omex Eternity, Vrindavan - UPPCB",20-12-2025 07:00:00,27.5714090,77.6557570,CO,56,114,107
India,Uttarakhand,Dehradun,"Doon University, Dehradun - UKPCB",20-12-2025 07:00:00,30.269444,78.044167,CO,28,44,43
India,Uttarakhand,Kashipur,"Govt. Girls Inter College, Kashipur - UKPCB",20-12-2025 07:00:00,29.2124114,78.9611753,NH3,NA,NA,NA
India,Uttarakhand,Kashipur,"Govt. Girls Inter College, Kashipur - UKPCB",20-12-2025 07:00:00,29.2124114,78.9611753,SO2,NA,NA,NA
India,Uttarakhand,Kashipur,"Govt. Girls Inter College, Kashipur - UKPCB",20-12-2025 07:00:00,29.2124114,78.9611753,CO,46,53,49
India,Uttar_Pradesh,Meerut,"Jai Bhim Nagar, Meerut - UPPCB",20-12-2025 07:00:00,28.9535882,77.7622941,OZONE,6,63,9
India,Uttar_Pradesh,Moradabad,"Buddhi Vihar, Moradabad - UPPCB",20-12-2025 07:00:00,28.83526,78.74460,PM2.5,65,212,130
India,Uttar_Pradesh,Moradabad,"Buddhi Vihar, Moradabad - UPPCB",20-12-2025 07:00:00,28.83526,78.74460,PM10,86,154,122
India,Uttar_Pradesh,Moradabad,"Buddhi Vihar, Moradabad - UPPCB",20-12-2025 07:00:00,28.83526,78.74460,NO2,29,29,29
India,Uttar_Pradesh,Moradabad,"Buddhi Vihar, Moradabad - UPPCB",20-12-2025 07:00:00,28.83526,78.74460,SO2,76,79,78
India,Uttar_Pradesh,Moradabad,"Eco Herbal Park, Moradabad - UPPCB",20-12-2025 07:00:00,28.840739,78.697531,PM2.5,95,276,173
India,Uttar_Pradesh,Moradabad,"Eco Herbal Park, Moradabad - UPPCB",20-12-2025 07:00:00,28.840739,78.697531,NO2,27,59,41
India,Uttar_Pradesh,Moradabad,"Eco Herbal Park, Moradabad - UPPCB",20-12-2025 07:00:00,28.840739,78.697531,SO2,10,15,12
India,Uttar_Pradesh,Ghaziabad,"Vasundhara, Ghaziabad - UPPCB",20-12-2025 07:00:00,28.6603346,77.3572563,PM2.5,NA,NA,NA
India,Uttar_Pradesh,Ghaziabad,"Vasundhara, Ghaziabad - UPPCB",20-12-2025 07:00:00,28.6603346,77.3572563,CO,112,179,134
India,Uttar_Pradesh,Gorakhpur,"Madan Mohan Malaviya University of Technology, Gorakhpur - UPPCB",20-12-2025 07:00:00,26.730136,83.433859,PM10,16,115,73
India,Uttar_Pradesh,Gorakhpur,"Madan Mohan Malaviya University of Technology, Gorakhpur - UPPCB",20-12-2025 07:00:00,26.730136,83.433859,CO,3,10,4
India,Uttar_Pradesh,Greater Noida,"Knowledge Park - III, Greater Noida - UPPCB",20-12-2025 07:00:00,28.47272,77.482000,OZONE,3,109,5
India,Uttar_Pradesh,Greater Noida,"Knowledge Park - V, Greater Noida - UPPCB",20-12-2025 07:00:00,28.557054,77.453663,SO2,5,14,10
India,Uttar_Pradesh,Khurja,"Kalindi Kunj, Khurja - UPPCB",20-12-2025 07:00:00,28.2348927,77.8683002,SO2,14,15,15
India,Uttar_Pradesh,Khurja,"Kalindi Kunj, Khurja - UPPCB",20-12-2025 07:00:00,28.2348927,77.8683002,CO,64,92,83
India,Uttar_Pradesh,Lucknow,"B R Ambedkar University, Lucknow - UPPCB",20-12-2025 07:00:00,26.766433,80.927299,PM10,55,134,87
India,Uttar_Pradesh,Lucknow,"B R Ambedkar University, Lucknow - UPPCB",20-12-2025 07:00:00,26.766433,80.927299,NH3,1,4,2
India,Uttar_Pradesh,Lucknow,"B R Ambedkar University, Lucknow - UPPCB",20-12-2025 07:00:00,26.766433,80.927299,SO2,23,25,24
India,Uttar_Pradesh,Lucknow,"Gomti Nagar, Lucknow - UPPCB",20-12-2025 07:00:00,26.868120,81.005119,PM10,52,109,82
India,Uttar_Pradesh,Lucknow,"Gomti Nagar, Lucknow - UPPCB",20-12-2025 07:00:00,26.868120,81.005119,NO2,6,6,6
India,Uttar_Pradesh,Lucknow,"Gomti Nagar, Lucknow - UPPCB",20-12-2025 07:00:00,26.868120,81.005119,CO,28,30,28
India,Uttar_Pradesh,Prayagraj,"Motilal Nehru NIT, Prayagraj - UPPCB",20-12-2025 07:00:00,25.494,81.863,SO2,23,33,29
India,Uttar_Pradesh,Prayagraj,"Nagar Nigam, Prayagraj - UPPCB",20-12-2025 07:00:00,25.44919916 ,81.82735986 ,NO2,5,5,5
India,Uttar_Pradesh,Varanasi,"Ardhali Bazar, Varanasi - UPPCB",20-12-2025 07:00:00,25.3505986,82.9083074,PM10,107,250,156
India,Uttar_Pradesh,Varanasi,"Bhelupur, Varanasi - UPPCB",20-12-2025 07:00:00,25.301778,82.996789,PM2.5,85,243,134
India,Uttar_Pradesh,Varanasi,"Bhelupur, Varanasi - UPPCB",20-12-2025 07:00:00,25.301778,82.996789,NH3,1,1,1
India,Uttar_Pradesh,Varanasi,"IESD Banaras Hindu University, Varanasi - UPPCB",20-12-2025 07:00:00,25.262326,82.995408,PM10,127,208,163
India,Uttar_Pradesh,Hapur,"Anand Vihar, Hapur - UPPCB",20-12-2025 07:00:00,28.725645,77.749675,NO2,4,56,22
India,Uttar_Pradesh,Jhansi,"Shivaji Nagar, Jhansi - UPPCB",20-12-2025 07:00:00,25.4547,78.6039,PM10,48,124,74
India,Uttar_Pradesh,Jhansi,"Shivaji Nagar, Jhansi - UPPCB",20-12-2025 07:00:00,25.4547,78.6039,OZONE,1,6,1
India,Uttar_Pradesh,Kanpur,"FTI Kidwai Nagar, Kanpur - UPPCB",20-12-2025 07:00:00,26.428282,80.327067,PM10,48,163,104
India,Uttar_Pradesh,Kanpur,"NSI Kalyanpur, Kanpur - UPPCB",20-12-2025 07:00:00,26.509954,80.249612,PM2.5,63,339,149
India,Uttar_Pradesh,Noida,"Sector - 125, Noida - UPPCB",20-12-2025 07:00:00,28.5447608,77.3231257,PM10,192,500,361
India,Uttar_Pradesh,Noida,"Sector - 125, Noida - UPPCB",20-12-2025 07:00:00,28.5447608,77.3231257,NH3,3,3,3
India,Uttar_Pradesh,Noida,"Sector-1, Noida - UPPCB",20-12-2025 07:00:00,28.5898,77.3101,NO2,60,173,124
India,Uttar_Pradesh,Prayagraj,"Jhunsi, Prayagraj - UPPCB",20-12-2025 07:00:00,25.425602,81.917152,NO2,6,6,6
India,Uttarakhand,Rishikesh,"Shivaji Nagar, Rishikesh - UKPCB",20-12-2025 07:00:00,30.075911,78.2859547,NO2,22,32,26
India,Uttarakhand,Rishikesh,"Shivaji Nagar, Rishikesh - UKPCB",20-12-2025 07:00:00,30.075911,78.2859547,SO2,3,3,3
India,West_Bengal,Asansol,"Asansol Court Area, Asansol - WBPCB",20-12-2025 07:00:00,23.685297,86.945968,PM2.5,78,311,145
India,West_Bengal,Asansol,"Asansol Court Area, Asansol - WBPCB",20-12-2025 07:00:00,23.685297,86.945968,CO,45,80,56
India,West_Bengal,Asansol,"Evelyn Lodge, Asansol - WBPCB",20-12-2025 07:00:00,23.6979360,86.9443950,NH3,5,5,5
India,West_Bengal,Asansol,"Mahabir Colliery, Asansol - WBPCB",20-12-2025 07:00:00,23.6181830,87.1057180,PM2.5,70,317,168
India,West_Bengal,Asansol,"Mahabir Colliery, Asansol - WBPCB",20-12-2025 07:00:00,23.6181830,87.1057180,NO2,6,39,19
India,West_Bengal,Asansol,"Mahabir Colliery, Asansol - WBPCB",20-12-2025 07:00:00,23.6181830,87.1057180,NH3,1,2,1
India,West_Bengal,Asansol,"Trivenidevi Bhalotia College, Asansol - WBPCB",20-12-2025 07:00:00,23.616515,87.119133,PM2.5,83,285,168
India,West_Bengal,Asansol,"Trivenidevi Bhalotia College, Asansol - WBPCB",20-12-2025 07:00:00,23.616515,87.119133,NH3,8,9,9
India,West_Bengal,Barrackpore,"SVSPA Campus, Barrackpore - WBPCB",20-12-2025 07:00:00,22.7605581,88.3617589,PM10,84,150,120
India,West_Bengal,Barrackpore,"SVSPA Campus, Barrackpore - WBPCB",20-12-2025 07:00:00,22.7605581,88.3617589,OZONE,3,41,8
India,West_Bengal,Durgapur,"Womens College_City Center, Durgapur - WBPCB (Formerly known as Sidhu Kanhu Indoor Stadium)",20-12-2025 07:00:00,23.549395,87.300496,PM10,112,206,143
India,West_Bengal,Durgapur,"Womens College_City Center, Durgapur - WBPCB (Formerly known as Sidhu Kanhu Indoor Stadium)",20-12-2025 07:00:00,23.549395,87.300496,NH3,1,2,2
India,West_Bengal,Haldia,"Priyambada Housing Estate, Haldia - WBPCB",20-12-2025 07:00:00,22.06047,88.109737,CO,37,72,54
India,West_Bengal,Howrah,"Belur Math, Howrah - WBPCB",20-12-2025 07:00:00,22.629801,88.352017,NO2,14,152,56
India,West_Bengal,Howrah,"Belur Math, Howrah - WBPCB",20-12-2025 07:00:00,22.629801,88.352017,OZONE,15,50,19
India,West_Bengal,Howrah,"Botanical Garden, Howrah - WBPCB",20-12-2025 07:00:00,22.554954,88.292568,PM2.5,40,137,89
India,West_Bengal,Howrah,"Ghusuri, Howrah - WBPCB",20-12-2025 07:00:00,22.611968,88.347422,NO2,51,69,53
India,West_Bengal,Howrah,"Padmapukur, Howrah - WBPCB",20-12-2025 07:00:00,22.5687319,88.2797276,NO2,8,20,14
India,West_Bengal,Kolkata,"Ballygunge, Kolkata - WBPCB",20-12-2025 07:00:00,22.5367507,88.3638022,PM10,69,140,115
India,West_Bengal,Kolkata,"Ballygunge, Kolkata - WBPCB",20-12-2025 07:00:00,22.5367507,88.3638022,CO,30,111,64
India,West_Bengal,Kolkata,"Bidhannagar, Kolkata - WBPCB",20-12-2025 07:00:00,22.58157048,88.41002457,PM10,81,174,133
India,West_Bengal,Kolkata,"Bidhannagar, Kolkata - WBPCB",20-12-2025 07:00:00,22.58157048,88.41002457,OZONE,12,32,13
India,West_Bengal,Kolkata,"Fort William, Kolkata - WBPCB",20-12-2025 07:00:00,22.556640,88.342674,PM2.5,53,105,81
India,West_Bengal,Kolkata,"Jadavpur, Kolkata - WBPCB",20-12-2025 07:00:00,22.49929,88.36917,NO2,25,57,36
India,West_Bengal,Kolkata,"Jadavpur, Kolkata - WBPCB",20-12-2025 07:00:00,22.49929,88.36917,NH3,6,10,7
India,West_Bengal,Kolkata,"Rabindra Bharati University, Kolkata - WBPCB",20-12-2025 07:00:00,22.627847,88.380669,PM2.5,67,119,97
India,West_Bengal,Kolkata,"Rabindra Bharati University, Kolkata - WBPCB",20-12-2025 07:00:00,22.627847,88.380669,SO2,9,12,11
India,West_Bengal,Kolkata,"Rabindra Bharati University, Kolkata - WBPCB",20-12-2025 07:00:00,22.627847,88.380669,CO,41,91,64
India,West_Bengal,Kolkata,"Rabindra Bharati University, Kolkata - WBPCB",20-12-2025 07:00:00,22.627847,88.380669,OZONE,9,59,17
India,West_Bengal,Kolkata,"Rabindra Sarobar, Kolkata - WBPCB",20-12-2025 07:00:00,22.51106,88.35142,NH3,8,24,12
India,West_Bengal,Siliguri,"Ward-32 Bapupara, Siliguri - WBPCB",20-12-2025 07:00:00,26.6879226,88.4152495,OZONE,35,114,70
India,Bihar,Manguraha,"Forest Rest House, Manguraha - BSPCB",20-12-2025 07:00:00,27.308328,84.531742,PM10,87,179,127
India,Bihar,Manguraha,"Forest Rest House, Manguraha - BSPCB",20-12-2025 07:00:00,27.308328,84.531742,NO2,4,7,5
India,Bihar,Manguraha,"Forest Rest House, Manguraha - BSPCB",20-12-2025 07:00:00,27.308328,84.531742,OZONE,8,11,10
India,Bihar,Motihari,"Gandak Colony, Motihari - BSPCB",20-12-2025 07:00:00,26.63086,84.90051,PM10,30,79,57
India,Bihar,Motihari,"Gandak Colony, Motihari - BSPCB",20-12-2025 07:00:00,26.63086,84.90051,CO,15,20,18
India,Bihar,Munger,"Town Hall, Munger - BSPCB",20-12-2025 07:00:00,25.376776,86.471523,PM10,62,128,98
India,Bihar,Munger,"Town Hall, Munger - BSPCB",20-12-2025 07:00:00,25.376776,86.471523,NH3,5,7,6
India,Bihar,Munger,"Town Hall, Munger - BSPCB",20-12-2025 07:00:00,25.376776,86.471523,SO2,33,44,37
India,Bihar,Muzaffarpur,"Buddha Colony, Muzaffarpur - BSPCB",20-12-2025 07:00:00,26.11442,85.39813,SO2,2,7,4
India,Bihar,Muzaffarpur,"Buddha Colony, Muzaffarpur - BSPCB",20-12-2025 07:00:00,26.11442,85.39813,CO,54,106,97
India,Andhra_Pradesh,Visakhapatnam,"GVM Corporation, Visakhapatnam - APPCB",20-12-2025 07:00:00,17.72,83.3,SO2,14,123,46
India,Arunachal_Pradesh,Naharlagun,"Naharlagun, Naharlagun - APSPCB",20-12-2025 07:00:00,27.103358,93.679645,PM2.5,46,415,179
India,Arunachal_Pradesh,Naharlagun,"Naharlagun, Naharlagun - APSPCB",20-12-2025 07:00:00,27.103358,93.679645,PM10,50,431,157
India,Assam,Byrnihat,"Central Academy for SFS, Byrnihat - PCBA",20-12-2025 07:00:00,26.071318,91.87488,NH3,4,4,4
India,Assam,Byrnihat,"Central Academy for SFS, Byrnihat - PCBA",20-12-2025 07:00:00,26.071318,91.87488,SO2,5,12,7
India,Assam,Guwahati,"Pan Bazaar, Guwahati - PCBA",20-12-2025 07:00:00,26.187500,91.744194,PM2.5,1,1,1
India,Assam,Guwahati,"Railway Colony, Guwahati - PCBA",20-12-2025 07:00:00,26.181742,91.78063,PM2.5,51,393,245
India,Andhra_Pradesh,Kadapa,"Yerramukkapalli, Kadapa - APPCB",20-12-2025 07:00:00,14.465052,78.824187,NO2,19,27,24
India,Andhra_Pradesh,Kadapa,"Yerramukkapalli, Kadapa - APPCB",20-12-2025 07:00:00,14.465052,78.824187,CO,36,55,48
India,Andhra_Pradesh,Rajamahendravaram,"Anand Kala Kshetram, Rajamahendravaram - APPCB",20-12-2025 07:00:00,16.9872867,81.7363176,PM10,128,220,169
India,Andhra_Pradesh,Tirumala,"Toll Gate, Tirumala - APPCB",20-12-2025 07:00:00,13.67,79.35,PM10,118,171,140
India,Andhra_Pradesh,Tirupati,"Vaikuntapuram, Tirupati - APPCB",20-12-2025 07:00:00,13.615387,79.409230,NH3,3,4,4
India,Andhra_Pradesh,Vijayawada,"HB Colony, Vijayawada - APPCB",20-12-2025 07:00:00,16.536107,80.594233,PM2.5,41,208,93
India,Bihar,Gaya,"Kareemganj, Gaya - BSPCB",20-12-2025 07:00:00,24.792403,84.992416,OZONE,1,12,3
India,Bihar,Hajipur,"Industrial Area, Hajipur - BSPCB",20-12-2025 07:00:00,25.697189,85.245900,PM10,109,134,119
India,Bihar,Hajipur,"Industrial Area, Hajipur - BSPCB",20-12-2025 07:00:00,25.697189,85.245900,SO2,7,9,8
India,Bihar,Katihar,"Mirchaibari, Katihar - BSPCB",20-12-2025 07:00:00,25.560083,87.553265,CO,60,94,76
India,Bihar,Kishanganj,"SDM Office_Khagra, Kishanganj - BSPCB",20-12-2025 07:00:00,26.0881305,87.93840336,PM2.5,37,48,42
India,Bihar,Kishanganj,"SDM Office_Khagra, Kishanganj - BSPCB",20-12-2025 07:00:00,26.0881305,87.93840336,NO2,8,14,10
India,Bihar,Kishanganj,"SDM Office_Khagra, Kishanganj - BSPCB",20-12-2025 07:00:00,26.0881305,87.93840336,SO2,4,8,7
India,Bihar,Bettiah,"Kamalnath Nagar, Bettiah - BSPCB",20-12-2025 07:00:00,26.80365,84.51954,PM2.5,13,72,33
India,Bihar,Bettiah,"Kamalnath Nagar, Bettiah - BSPCB",20-12-2025 07:00:00,26.80365,84.51954,CO,64,101,68
India,Bihar,Bhagalpur,"DM Office_Kachari Chowk, Bhagalpur - BSPCB",20-12-2025 07:00:00,25.251013,86.989001,PM2.5,48,200,122
India,Bihar,Bhagalpur,"DM Office_Kachari Chowk, Bhagalpur - BSPCB",20-12-2025 07:00:00,25.251013,86.989001,NH3,1,1,1
India,Bihar,Bhagalpur,"DM Office_Kachari Chowk, Bhagalpur - BSPCB",20-12-2025 07:00:00,25.251013,86.989001,OZONE,11,22,16
India,Bihar,Bihar Sharif,"D M Colony, Bihar Sharif - BSPCB",20-12-2025 07:00:00,25.204762,85.514960,PM2.5,107,217,167
India,Bihar,Araria,"Kharahiya Basti, Araria - BSPCB",20-12-2025 07:00:00,26.146529,87.454184,CO,18,56,44
India,Bihar,Arrah,"New DM Office, Arrah - BSPCB",20-12-2025 07:00:00,25.5626095,84.663264,NO2,5,9,7
India,Bihar,Arrah,"New DM Office, Arrah - BSPCB",20-12-2025 07:00:00,25.5626095,84.663264,CO,38,67,54
India,Bihar,Aurangabad,"Gurdeo Nagar, Aurangabad - BSPCB",20-12-2025 07:00:00,24.75746,84.366208,PM10,117,166,141
India,Bihar,Begusarai,"Lohiyanagar, Begusarai - BSPCB",20-12-2025 07:00:00,25.42742023,86.13886079,NO2,9,16,13
India,Assam,Nagaon,"Christianpatty, Nagaon - PCBA",20-12-2025 07:00:00,26.349082,92.68449,PM2.5,66,200,124
India,Assam,Nagaon,"Christianpatty, Nagaon - PCBA",20-12-2025 07:00:00,26.349082,92.68449,NO2,1,9,1
India,Assam,Nagaon,"Christianpatty, Nagaon - PCBA",20-12-2025 07:00:00,26.349082,92.68449,NH3,4,4,4
India,Assam,Nagaon,"Christianpatty, Nagaon - PCBA",20-12-2025 07:00:00,26.349082,92.68449,CO,3,32,21
India,Assam,Sivasagar,"Girls College, Sivasagar - PCBA",20-12-2025 07:00:00,26.987634,94.636574,PM2.5,21,90,58
India,Andhra_Pradesh,Vijayawada,"HB Colony, Vijayawada - APPCB",20-12-2025 07:00:00,16.536107,80.594233,OZONE,NA,NA,NA
India,Andhra_Pradesh,Vijayawada,"Kanuru, Vijayawada - APPCB",20-12-2025 07:00:00,16.486692,80.699436,SO2,NA,NA,NA
India,Andhra_Pradesh,Visakhapatnam,"GVM Corporation, Visakhapatnam - APPCB",20-12-2025 07:00:00,17.72,83.3,NO2,34,275,161
India,Andhra_Pradesh,Amaravati,"Secretariat, Amaravati - APPCB",20-12-2025 07:00:00,16.5150833,80.5181667,NH3,1,4,2
India,Andhra_Pradesh,Amaravati,"Secretariat, Amaravati - APPCB",20-12-2025 07:00:00,16.5150833,80.5181667,SO2,1,16,3
India,Andhra_Pradesh,Anantapur,"Gulzarpet, Anantapur - APPCB",20-12-2025 07:00:00,14.675886,77.593027,PM2.5,45,303,125
India,Bihar,Gaya,"Kareemganj, Gaya - BSPCB",20-12-2025 07:00:00,24.792403,84.992416,NO2,2,8,5
India,Bihar,Gaya,"Kareemganj, Gaya - BSPCB",20-12-2025 07:00:00,24.792403,84.992416,NH3,4,6,5
India,Chhattisgarh,Chhal,"Nawapara SECL Colony, Chhal - CECB",20-12-2025 07:00:00,22.118125,83.140608,CO,19,46,23
India,Chhattisgarh,Korba,"Rampur, Korba - CECB",20-12-2025 07:00:00,22.368195,82.746431,PM2.5,31,143,99
India,Chhattisgarh,Korba,"Urja Nagar, Korba - CECB",20-12-2025 07:00:00,22.348441,82.549611,SO2,7,17,11
India,Chhattisgarh,Kunjemura,"OP Jindal School, Kunjemura - CECB",20-12-2025 07:00:00,22.126650,83.483212,NO2,21,60,37
India,Chhattisgarh,Kunjemura,"OP Jindal School, Kunjemura - CECB",20-12-2025 07:00:00,22.126650,83.483212,NH3,2,2,2
India,Chhattisgarh,Kunjemura,"OP Jindal School, Kunjemura - CECB",20-12-2025 07:00:00,22.126650,83.483212,OZONE,2,85,2
India,Chhattisgarh,Raipur,"AIIMS, Raipur - CECB",20-12-2025 07:00:00,21.258815,81.578979,PM10,17,113,56
India,Chhattisgarh,Raipur,"Bhatagaon New ISBT, Raipur - CECB",20-12-2025 07:00:00,21.219665,81.630094,NO2,4,48,23
India,Chhattisgarh,Raipur,"Bhatagaon New ISBT, Raipur - CECB",20-12-2025 07:00:00,21.219665,81.630094,NH3,2,2,2
India,Chhattisgarh,Raipur,"Krishak Nagar, Raipur - CECB",20-12-2025 07:00:00,21.237755,81.705301,NO2,18,28,23
India,Chhattisgarh,Raipur,"Krishak Nagar, Raipur - CECB",20-12-2025 07:00:00,21.237755,81.705301,NH3,2,2,2
India,Chhattisgarh,Raipur,"Siltara Phase-II, Raipur - CECB",20-12-2025 07:00:00,21.371751,81.664929,CO,34,36,35
India,Bihar,Patna,"IGSC Planetarium Complex, Patna - BSPCB",20-12-2025 07:00:00,25.610369,85.132568,CO,56,58,58
India,Bihar,Patna,"Muradpur, Patna - BSPCB",20-12-2025 07:00:00,25.619651,85.147382,CO,27,84,55
India,Bihar,Patna,"Muradpur, Patna - BSPCB",20-12-2025 07:00:00,25.619651,85.147382,OZONE,4,22,5
India,Bihar,Patna,"Rajbansi Nagar, Patna - BSPCB",20-12-2025 07:00:00,25.599486,85.113666,PM10,113,148,130
India,Bihar,Purnia,"Mariam Nagar, Purnia - BSPCB",20-12-2025 07:00:00,25.366336,87.117468,SO2,16,18,17
India,Bihar,Muzaffarpur,"MIT-Daudpur Kothi, Muzaffarpur - BSPCB",20-12-2025 07:00:00,26.1403345,85.3650192,SO2,8,18,12
India,Bihar,Muzaffarpur,"Muzaffarpur Collectorate, Muzaffarpur - BSPCB",20-12-2025 07:00:00,26.1209,85.3647,PM2.5,97,127,117
India,Bihar,Patna,"DRM Office Danapur, Patna - BSPCB",20-12-2025 07:00:00,25.586562,85.043586,SO2,9,15,12
India,Bihar,Patna,"DRM Office Danapur, Patna - BSPCB",20-12-2025 07:00:00,25.586562,85.043586,CO,40,105,58
India,Delhi,Delhi,"Bawana, Delhi - DPCC",20-12-2025 07:00:00,28.776200,77.051074,NO2,10,54,25
India,Delhi,Delhi,"Bawana, Delhi - DPCC",20-12-2025 07:00:00,28.776200,77.051074,NH3,10,17,13
India,Delhi,Delhi,"Chandni Chowk, Delhi - IITM",20-12-2025 07:00:00,28.656756,77.227234,OZONE,4,122,6
India,Delhi,Delhi,"DTU, Delhi - CPCB",20-12-2025 07:00:00,28.7500499,77.1112615,PM10,133,500,290
India,Delhi,Delhi,"DTU, Delhi - CPCB",20-12-2025 07:00:00,28.7500499,77.1112615,NO2,18,83,54
India,Bihar,Siwan,"Chitragupta Nagar, Siwan - BSPCB",20-12-2025 07:00:00,26.2271665,84.3570427,NO2,1,1,1
India,Chandigarh,Chandigarh,"Sector-53, Chandigarh - CPCC",20-12-2025 07:00:00,30.719859,76.738637,PM10,87,188,132
India,Chandigarh,Chandigarh,"Sector-53, Chandigarh - CPCC",20-12-2025 07:00:00,30.719859,76.738637,NO2,37,96,57
India,Chhattisgarh,Tumidih,"OP Jindal Industrial Park, Tumidih - CECB",20-12-2025 07:00:00,22.06631475,83.33820077,PM2.5,68,229,121
India,Delhi,Delhi,"Alipur, Delhi - DPCC",20-12-2025 07:00:00,28.815329,77.153010,NH3,2,11,8
India,Bihar,Rajgir,"Dangi Tola, Rajgir - BSPCB",20-12-2025 07:00:00,25.03280,85.41948,PM10,60,161,115
India,Bihar,Samastipur,"DM Office_Kasipur, Samastipur - BSPCB",20-12-2025 07:00:00,25.859655,85.77944,OZONE,7,8,8
India,Chhattisgarh,Bhilai,"32Bungalows, Bhilai - CECB",20-12-2025 07:00:00,21.194815,81.314770,PM2.5,8,38,19
India,Gujarat,Ahmedabad,"SAC ISRO Satellite, Ahmedabad - IITM",20-12-2025 07:00:00,23.023389,72.515201,SO2,6,62,18
India,Gujarat,Ahmedabad,"SAC ISRO Satellite, Ahmedabad - IITM",20-12-2025 07:00:00,23.023389,72.515201,CO,1,110,78
India,Gujarat,Ahmedabad,"SAC ISRO Satellite, Ahmedabad - IITM",20-12-2025 07:00:00,23.023389,72.515201,OZONE,1,76,2
India,Gujarat,Ahmedabad,"SVPI Airport Hansol, Ahmedabad - IITM",20-12-2025 07:00:00,23.076793,72.627874,NH3,6,25,10
India,Gujarat,Ahmedabad,"SVPI Airport Hansol, Ahmedabad - IITM",20-12-2025 07:00:00,23.076793,72.627874,CO,4,123,50
India,Gujarat,Ahmedabad,"SVPI Airport Hansol, Ahmedabad - IITM",20-12-2025 07:00:00,23.076793,72.627874,OZONE,1,45,2
India,Gujarat,Ankleshwar,"GIDC, Ankleshwar - GPCB",20-12-2025 07:00:00,21.613267,73.010555,NO2,18,27,20
India,Gujarat,Ankleshwar,"GIDC, Ankleshwar - GPCB",20-12-2025 07:00:00,21.613267,73.010555,NH3,5,7,5
India,Gujarat,Gandhinagar,"GIFT City, Gandhinagar - IITM",20-12-2025 07:00:00,23.163798,72.677768,PM10,86,250,133
India,Gujarat,Gandhinagar,"GIFT City, Gandhinagar - IITM",20-12-2025 07:00:00,23.163798,72.677768,NO2,23,94,56
India,Gujarat,Gandhinagar,"GIFT City, Gandhinagar - IITM",20-12-2025 07:00:00,23.163798,72.677768,SO2,4,14,11
India,Delhi,Delhi,"IIT Delhi, Delhi - IITM",20-12-2025 07:00:00,28.542460,77.191651,OZONE,13,42,13
India,Delhi,Delhi,"Jahangirpuri, Delhi - DPCC",20-12-2025 07:00:00,28.732820,77.170633,NO2,75,141,108
India,Delhi,Delhi,"Jahangirpuri, Delhi - DPCC",20-12-2025 07:00:00,28.732820,77.170633,SO2,5,40,18
India,Delhi,Delhi,"Jahangirpuri, Delhi - DPCC",20-12-2025 07:00:00,28.732820,77.170633,OZONE,6,76,7
India,Delhi,Delhi,"Lodhi Road, Delhi - IITM",20-12-2025 07:00:00,28.588333,77.221667,PM2.5,308,367,336
India,Delhi,Delhi,"Lodhi Road, Delhi - IITM",20-12-2025 07:00:00,28.588333,77.221667,PM10,148,202,183
India,Delhi,Delhi,"Lodhi Road, Delhi - IITM",20-12-2025 07:00:00,28.588333,77.221667,NO2,9,124,49
India,Delhi,Delhi,"Lodhi Road, Delhi - IMD",20-12-2025 07:00:00,28.5918245,77.2273074,PM2.5,251,384,336
India,Gujarat,Ahmedabad,"Maninagar, Ahmedabad - GPCB",20-12-2025 07:00:00,23.002657,72.591912,PM2.5,36,319,152
India,Gujarat,Ahmedabad,"Raikhad, Ahmedabad - IITM",20-12-2025 07:00:00,23.020509,72.579261,NH3,11,52,23
India,Gujarat,Ahmedabad,"Rakhial, Ahmedabad - IITM",20-12-2025 07:00:00,23.016834,72.625775,NO2,15,115,51
India,Gujarat,Ahmedabad,"SAC ISRO Bopal, Ahmedabad - IITM",20-12-2025 07:00:00,23.041137,72.456691,PM10,102,198,145
India,Gujarat,Ahmedabad,"SAC ISRO Bopal, Ahmedabad - IITM",20-12-2025 07:00:00,23.041137,72.456691,NH3,10,21,16
India,Gujarat,Ahmedabad,"SAC ISRO Bopal, Ahmedabad - IITM",20-12-2025 07:00:00,23.041137,72.456691,OZONE,1,56,1
India,Delhi,Delhi,"Sri Aurobindo Marg, Delhi - DPCC",20-12-2025 07:00:00,28.531346,77.190156,CO,75,125,115
India,Delhi,Delhi,"Vivek Vihar, Delhi - DPCC",20-12-2025 07:00:00,28.672342,77.315260,SO2,8,20,14
India,Delhi,Delhi,"Wazirpur, Delhi - DPCC",20-12-2025 07:00:00,28.699793,77.165453,PM2.5,348,500,420
India,Delhi,Delhi,"Wazirpur, Delhi - DPCC",20-12-2025 07:00:00,28.699793,77.165453,SO2,8,22,13
India,Gujarat,Ahmedabad,"Chandkheda, Ahmedabad - IITM",20-12-2025 07:00:00,23.107969,72.574648,NO2,16,131,71
India,Delhi,Delhi,"Najafgarh, Delhi - DPCC",20-12-2025 07:00:00,28.570173,76.933762,NO2,89,115,104
India,Delhi,Delhi,"Narela, Delhi - DPCC",20-12-2025 07:00:00,28.822836,77.101981,NO2,16,49,31
India,Delhi,Delhi,"Nehru Nagar, Delhi - DPCC",20-12-2025 07:00:00,28.567890,77.250515,NH3,6,8,7
India,Delhi,Delhi,"Nehru Nagar, Delhi - DPCC",20-12-2025 07:00:00,28.567890,77.250515,SO2,2,34,15
India,Delhi,Delhi,"North Campus, DU, Delhi - IMD",20-12-2025 07:00:00,28.6573814,77.1585447,CO,40,190,166
India,Delhi,Delhi,"Major Dhyan Chand National Stadium, Delhi - DPCC",20-12-2025 07:00:00,28.611281,77.237738,SO2,6,18,11
India,Delhi,Delhi,"Mandir Marg, Delhi - DPCC",20-12-2025 07:00:00,28.636429,77.201067,NO2,75,105,90
India,Delhi,Delhi,"Mandir Marg, Delhi - DPCC",20-12-2025 07:00:00,28.636429,77.201067,CO,18,126,62
India,Delhi,Delhi,"Mundka, Delhi - DPCC",20-12-2025 07:00:00,28.684678,77.076574,PM2.5,339,500,416
India,Delhi,Delhi,"Mundka, Delhi - DPCC",20-12-2025 07:00:00,28.684678,77.076574,OZONE,4,76,4
India,Delhi,Delhi,"DTU, Delhi - CPCB",20-12-2025 07:00:00,28.7500499,77.1112615,SO2,29,38,32
India,Delhi,Delhi,"DTU, Delhi - CPCB",20-12-2025 07:00:00,28.7500499,77.1112615,CO,59,153,144
India,Delhi,Delhi,"Dwarka-Sector 8, Delhi - DPCC ",20-12-2025 07:00:00,28.5710274,77.0719006,SO2,21,33,26
India,Delhi,Delhi,"IGI Airport (T3), Delhi - IMD",20-12-2025 07:00:00,28.5627763,77.1180053,NO2,57,120,89
India,Delhi,Delhi,"Okhla Phase-2, Delhi - DPCC",20-12-2025 07:00:00,28.530785,77.271255,CO,65,134,120
India,Delhi,Delhi,"Pusa, Delhi - DPCC",20-12-2025 07:00:00,28.639652,77.146275,CO,66,103,91
India,Delhi,Delhi,"R K Puram, Delhi - DPCC",20-12-2025 07:00:00,28.563262,77.186937,PM10,151,500,296
India,Delhi,Delhi,"R K Puram, Delhi - DPCC",20-12-2025 07:00:00,28.563262,77.186937,NH3,9,15,12
India,Delhi,Delhi,"R K Puram, Delhi - DPCC",20-12-2025 07:00:00,28.563262,77.186937,CO,3,174,137
India,Delhi,Delhi,"R K Puram, Delhi - DPCC",20-12-2025 07:00:00,28.563262,77.186937,OZONE,6,91,7
India,Haryana,Gurugram,"Vikas Sadan, Gurugram - HSPCB",20-12-2025 07:00:00,28.4501238,77.0263051,NO2,9,47,24
India,Haryana,Hisar,"Urban Estate-II, Hisar - HSPCB",20-12-2025 07:00:00,29.140560,75.744941,PM10,NA,NA,NA
India,Haryana,Jind,"Police Lines, Jind - HSPCB",20-12-2025 07:00:00,29.307814,76.337619,PM2.5,90,328,232
India,Haryana,Jind,"Police Lines, Jind - HSPCB",20-12-2025 07:00:00,29.307814,76.337619,NH3,1,3,2
India,Haryana,Jind,"Police Lines, Jind - HSPCB",20-12-2025 07:00:00,29.307814,76.337619,SO2,1,19,4
India,Haryana,Jind,"Police Lines, Jind - HSPCB",20-12-2025 07:00:00,29.307814,76.337619,CO,2,140,64
India,Haryana,Kaithal,"Rishi Nagar, Kaithal - HSPCB",20-12-2025 07:00:00,29.8006,76.4155,NO2,19,33,31
India,Haryana,Kaithal,"Rishi Nagar, Kaithal - HSPCB",20-12-2025 07:00:00,29.8006,76.4155,SO2,29,34,31
India,Haryana,Karnal,"Sector-12, Karnal - HSPCB",20-12-2025 07:00:00,29.695300,77.002700,NO2,6,7,6
India,Haryana,Ambala,"Patti Mehar, Ambala - HSPCB",20-12-2025 07:00:00,30.379589,76.778328,CO,74,76,75
India,Haryana,Bahadurgarh,"Arya Nagar, Bahadurgarh - HSPCB",20-12-2025 07:00:00,28.6701,76.9254,PM10,39,377,165
India,Haryana,Bahadurgarh,"Arya Nagar, Bahadurgarh - HSPCB",20-12-2025 07:00:00,28.6701,76.9254,NO2,12,14,13
India,Haryana,Ballabgarh,"Nathu Colony, Ballabgarh - HSPCB",20-12-2025 07:00:00,28.3419248,77.319699,NO2,19,20,20
India,Haryana,Ballabgarh,"Nathu Colony, Ballabgarh - HSPCB",20-12-2025 07:00:00,28.3419248,77.319699,NH3,3,3,3
India,Haryana,Bhiwani,"H.B. Colony, Bhiwani - HSPCB",20-12-2025 07:00:00,28.806223,76.141105,PM10,77,216,104
India,Haryana,Bhiwani,"H.B. Colony, Bhiwani - HSPCB",20-12-2025 07:00:00,28.806223,76.141105,CO,10,14,12
India,Haryana,Charkhi Dadri,"Mini Secretariat, Charkhi Dadri - HSPCB",20-12-2025 07:00:00,28.593883,76.270653,PM2.5,84,329,174
India,Haryana,Faridabad,"Sector 30, Faridabad - HSPCB",20-12-2025 07:00:00,28.4417,77.3217,CO,41,66,62
India,Haryana,Fatehabad,"Huda Sector, Fatehabad - HSPCB",20-12-2025 07:00:00,29.503664,75.467934,SO2,10,11,11
India,Haryana,Fatehabad,"Huda Sector, Fatehabad - HSPCB",20-12-2025 07:00:00,29.503664,75.467934,OZONE,47,62,58
India,Haryana,Gurugram,"NISE Gwal Pahari, Gurugram - IMD",20-12-2025 07:00:00,28.422681,77.148944,NO2,18,50,33
India,Haryana,Gurugram,"NISE Gwal Pahari, Gurugram - IMD",20-12-2025 07:00:00,28.422681,77.148944,OZONE,5,50,7
India,Haryana,Gurugram,"Sector-51, Gurugram - HSPCB",20-12-2025 07:00:00,28.4227,77.0667,OZONE,10,46,12
India,Haryana,Gurugram,"Teri Gram, Gurugram - HSPCB",20-12-2025 07:00:00,28.4275,77.1465,OZONE,10,44,12
India,Haryana,Gurugram,"Vikas Sadan, Gurugram - HSPCB",20-12-2025 07:00:00,28.4501238,77.0263051,PM10,188,390,231
India,Haryana,Mandikhera,"General Hospital, Mandikhera(Nuh) - HSPCB",20-12-2025 07:00:00,27.9002,76.9938,PM10,113,177,144
India,Haryana,Mandikhera,"General Hospital, Mandikhera(Nuh) - HSPCB",20-12-2025 07:00:00,27.9002,76.9938,NH3,12,14,13
India,Haryana,Manesar,"Sector-2 IMT, Manesar - HSPCB",20-12-2025 07:00:00,28.360699,76.936090,NO2,74,94,83
India,Haryana,Narnaul,"Shastri Nagar, Narnaul - HSPCB",20-12-2025 07:00:00,28.060249,76.113115,PM10,152,242,196
India,Haryana,Narnaul,"Shastri Nagar, Narnaul - HSPCB",20-12-2025 07:00:00,28.060249,76.113115,CO,17,50,30
India,Haryana,Narnaul,"Shastri Nagar, Narnaul - HSPCB",20-12-2025 07:00:00,28.060249,76.113115,OZONE,16,84,17
India,Haryana,Sonipat,"Murthal, Sonipat - HSPCB",20-12-2025 07:00:00,29.027200,77.062100,NH3,14,29,17
India,Haryana,Yamuna Nagar,"Gobind Pura, Yamuna Nagar - HSPCB",20-12-2025 07:00:00,30.1480566,77.2893471,OZONE,8,34,9
India,Himachal Pradesh,Baddi,"HIMUDA Complex Phase-1, Baddi - HPPCB",20-12-2025 07:00:00,30.943887,76.801991,NO2,11,28,21
India,Himachal Pradesh,Baddi,"HIMUDA Complex Phase-1, Baddi - HPPCB",20-12-2025 07:00:00,30.943887,76.801991,OZONE,5,81,7
India,Haryana,Palwal,"Shyam Nagar, Palwal - HSPCB",20-12-2025 07:00:00,28.1485564,77.3320667,SO2,12,17,14
India,Haryana,Panchgaon,"Amity University, Panchgaon - IITM",20-12-2025 07:00:00,28.3153,76.9143,NO2,3,13,8
India,Haryana,Panchgaon,"Amity University, Panchgaon - IITM",20-12-2025 07:00:00,28.3153,76.9143,CO,19,78,61
India,Haryana,Rohtak,"MD University, Rohtak - HSPCB",20-12-2025 07:00:00,28.52123,76.37138,OZONE,39,40,39
India,Haryana,Faridabad,"New Industrial Town, Faridabad - HSPCB",20-12-2025 07:00:00,28.39072,77.30059,NH3,11,12,11
India,Haryana,Faridabad,"Sector 11, Faridabad - HSPCB",20-12-2025 07:00:00,28.376058,77.315741,PM2.5,180,441,302
India,Haryana,Faridabad,"Sector 11, Faridabad - HSPCB",20-12-2025 07:00:00,28.376058,77.315741,OZONE,14,16,15
India,Jharkhand,Dhanbad,"Sardar Patel Nagar, Dhanbad - JSPCB",20-12-2025 07:00:00,23.80569,86.44268,CO,2,29,6
India,Gujarat,Gandhinagar,"Sector-10, Gandhinagar - GPCB",20-12-2025 07:00:00,23.221714,72.654328,NH3,3,6,4
India,Karnataka,Bengaluru,"Silk Board, Bengaluru - KSPCB",20-12-2025 07:00:00,12.917348,77.622813,PM10,111,201,151
India,Karnataka,Bengaluru,"Silk Board, Bengaluru - KSPCB",20-12-2025 07:00:00,12.917348,77.622813,NO2,18,36,23
India,Karnataka,Bengaluru,"Silk Board, Bengaluru - KSPCB",20-12-2025 07:00:00,12.917348,77.622813,CO,20,37,30
India,Karnataka,Bengaluru,"Silk Board, Bengaluru - KSPCB",20-12-2025 07:00:00,12.917348,77.622813,OZONE,17,34,19
India,Karnataka,Chamarajanagar,"Urban, Chamarajanagar - KSPCB",20-12-2025 07:00:00,11.55358,76.55521,NO2,15,35,23
India,Karnataka,Chikkamagaluru,"Kalyana Nagara, Chikkamagaluru - KSPCB",20-12-2025 07:00:00,13.328028,75.797056,NH3,2,3,2
India,Karnataka,Chikkamagaluru,"Kalyana Nagara, Chikkamagaluru - KSPCB",20-12-2025 07:00:00,13.328028,75.797056,CO,4,11,11
India,Karnataka,Davanagere,"Devaraj Urs Badavane, Davanagere - KSPCB",20-12-2025 07:00:00,14.475800,75.905200,PM2.5,53,201,89
India,Karnataka,Davanagere,"Devaraj Urs Badavane, Davanagere - KSPCB",20-12-2025 07:00:00,14.475800,75.905200,OZONE,19,21,20
India,Karnataka,Bengaluru,"BTM Layout, Bengaluru - CPCB",20-12-2025 07:00:00,12.9135218,77.5950804,CO,44,53,45
India,Karnataka,Bengaluru,"BWSSB Kadabesanahalli, Bengaluru - CPCB",20-12-2025 07:00:00,12.9352049,77.6814488,PM2.5,134,311,234
India,Karnataka,Bengaluru,"BWSSB Kadabesanahalli, Bengaluru - CPCB",20-12-2025 07:00:00,12.9352049,77.6814488,SO2,1,10,3
India,Karnataka,Bengaluru,"BWSSB Kadabesanahalli, Bengaluru - CPCB",20-12-2025 07:00:00,12.9352049,77.6814488,CO,22,26,24
India,Karnataka,Bengaluru,"City Railway Station, Bengaluru - KSPCB",20-12-2025 07:00:00,12.9756843,77.5660749,PM10,91,114,94
India,Karnataka,Bengaluru,"Hebbal, Bengaluru - KSPCB",20-12-2025 07:00:00,13.029152,77.585901,PM10,81,148,121
India,Karnataka,Bengaluru,"Hebbal, Bengaluru - KSPCB",20-12-2025 07:00:00,13.029152,77.585901,NH3,1,2,2
India,Karnataka,Bengaluru,"Hebbal, Bengaluru - KSPCB",20-12-2025 07:00:00,13.029152,77.585901,SO2,2,8,6
India,Karnataka,Bengaluru,"Hebbal, Bengaluru - KSPCB",20-12-2025 07:00:00,13.029152,77.585901,CO,8,75,13
India,Karnataka,Dharwad,"Kalabhavan, Dharwad - KSPCB",20-12-2025 07:00:00,15.459706,75.008381,CO,NA,NA,NA
India,Karnataka,Hubballi,"Lingaraj Nagar, Hubballi - KSPCB",20-12-2025 07:00:00,15.3714823,75.1160168,PM2.5,39,93,48
India,Karnataka,Hubballi,"Lingaraj Nagar, Hubballi - KSPCB",20-12-2025 07:00:00,15.3714823,75.1160168,PM10,55,108,64
India,Karnataka,Kalaburagi,"Mahatma Basaveswar Colony, Kalaburgi - KSPCB",20-12-2025 07:00:00,17.336318,76.847397,CO,34,65,51
India,Karnataka,Koppal,"Diwator Nagar, Koppal - KSPCB",20-12-2025 07:00:00,15.347630,76.181767,CO,6,20,13
India,Karnataka,Mangalore,"Kadri, Mangalore - KSPCB",20-12-2025 07:00:00,12.889250,74.853000,PM2.5,38,180,83
