country,state,city,station,last_update,latitude,longitude,pollutant_id,min_value,max_value,avg_value
India,Bihar,Araria,"Kharahiya Basti, Araria - BSPCB",26-02-2026 08:00:00,26.146529,87.454184,SO2,19,58,37
India,Bihar,Araria,"Kharahiya Basti, Araria - BSPCB",26-02-2026 08:00:00,26.146529,87.454184,OZONE,9,10,10
India,Bihar,Arrah,"New DM Office, Arrah - BSPCB",26-02-2026 08:00:00,25.5626095,84.663264,NO2,5,9,7
India,Bihar,Arrah,"New DM Office, Arrah - BSPCB",26-02-2026 08:00:00,25.5626095,84.663264,NH3,1,2,2
India,Bihar,Arrah,"New DM Office, Arrah - BSPCB",26-02-2026 08:00:00,25.5626095,84.663264,CO,39,70,56
India,Bihar,Aurangabad,"Gurdeo Nagar, Aurangabad - BSPCB",26-02-2026 08:00:00,24.75746,84.366208,PM2.5,17,77,37
India,Bihar,Aurangabad,"Gurdeo Nagar, Aurangabad - BSPCB",26-02-2026 08:00:00,24.75746,84.366208,NO2,7,8,8
India,Bihar,Begusarai,"Lohiyanagar, Begusarai - BSPCB",26-02-2026 08:00:00,25.42742023,86.13886079,PM2.5,47,203,89
India,Bihar,Begusarai,"Lohiyanagar, Begusarai - BSPCB",26-02-2026 08:00:00,25.42742023,86.13886079,NH3,5,6,5
India,Bihar,Begusarai,"Lohiyanagar, Begusarai - BSPCB",26-02-2026 08:00:00,25.42742023,86.13886079,CO,24,30,27
India,Bihar,Bettiah,"Kamalnath Nagar, Bettiah - BSPCB",26-02-2026 08:00:00,26.80365,84.51954,NO2,7,9,8
India,Bihar,Bettiah,"Kamalnath Nagar, Bettiah - BSPCB",26-02-2026 08:00:00,26.80365,84.51954,CO,54,101,65
India,Bihar,Bhagalpur,"DM Office_Kachari Chowk, Bhagalpur - BSPCB",26-02-2026 08:00:00,25.251013,86.989001,PM10,47,111,85
India,Bihar,Bhagalpur,"DM Office_Kachari Chowk, Bhagalpur - BSPCB",26-02-2026 08:00:00,25.251013,86.989001,NH3,1,1,1
India,Bihar,Bhagalpur,"DM Office_Kachari Chowk, Bhagalpur - BSPCB",26-02-2026 08:00:00,25.251013,86.989001,OZONE,12,24,16
India,Bihar,Bihar Sharif,"D M Colony, Bihar Sharif - BSPCB",26-02-2026 08:00:00,25.204762,85.514960,NH3,NA,NA,NA
India,Bihar,Bihar Sharif,"D M Colony, Bihar Sharif - BSPCB",26-02-2026 08:00:00,25.204762,85.514960,CO,41,65,58
India,Bihar,Buxar,"Charitra Van, Buxar - BSPCB",26-02-2026 08:00:00,25.567520,83.966379,PM10,52,99,71
India,Bihar,Buxar,"Charitra Van, Buxar - BSPCB",26-02-2026 08:00:00,25.567520,83.966379,OZONE,2,24,6
India,Bihar,Chhapra,"Darshan Nagar, Chhapra - BSPCB",26-02-2026 08:00:00,25.7808257,84.7446768,SO2,19,108,35
India,Bihar,Gaya,"Collectorate, Gaya - BSPCB",26-02-2026 08:00:00,24.7955,84.9994,CO,41,60,44
India,Bihar,Gaya,"Kareemganj, Gaya - BSPCB",26-02-2026 08:00:00,24.792403,84.992416,NO2,11,13,12
India,Andhra_Pradesh,Amaravati,"Secretariat, Amaravati - APPCB",26-02-2026 08:00:00,16.5150833,80.5181667,OZONE,1,46,1
India,Andhra_Pradesh,Anantapur,"Gulzarpet, Anantapur - APPCB",26-02-2026 08:00:00,14.675886,77.593027,NH3,5,5,5
India,Andhra_Pradesh,Anantapur,"Gulzarpet, Anantapur - APPCB",26-02-2026 08:00:00,14.675886,77.593027,OZONE,24,24,24
India,Andhra_Pradesh,Chittoor,"Gangineni Cheruvu, Chittoor - APPCB",26-02-2026 08:00:00,13.204880,79.097889,PM2.5,49,60,56
India,Andhra_Pradesh,Chittoor,"Gangineni Cheruvu, Chittoor - APPCB",26-02-2026 08:00:00,13.204880,79.097889,SO2,12,13,12
India,Andhra_Pradesh,Chittoor,"Gangineni Cheruvu, Chittoor - APPCB",26-02-2026 08:00:00,13.204880,79.097889,CO,18,24,20
India,Andhra_Pradesh,Rajamahendravaram,"Anand Kala Kshetram, Rajamahendravaram - APPCB",26-02-2026 08:00:00,16.9872867,81.7363176,NH3,3,4,4
India,Andhra_Pradesh,Tirumala,"Toll Gate, Tirumala - APPCB",26-02-2026 08:00:00,13.67,79.35,PM2.5,33,113,60
India,Andhra_Pradesh,Tirumala,"Toll Gate, Tirumala - APPCB",26-02-2026 08:00:00,13.67,79.35,OZONE,7,37,16
India,Andhra_Pradesh,Tirupati,"Vaikuntapuram, Tirupati - APPCB",26-02-2026 08:00:00,13.615387,79.409230,PM10,47,80,63
India,Andhra_Pradesh,Vijayawada,"HB Colony, Vijayawada - APPCB",26-02-2026 08:00:00,16.536107,80.594233,CO,20,36,20
India,Andhra_Pradesh,Vijayawada,"Kanuru, Vijayawada - APPCB",26-02-2026 08:00:00,16.486692,80.699436,PM10,41,50,43
India,Andhra_Pradesh,Vijayawada,"Kanuru, Vijayawada - APPCB",26-02-2026 08:00:00,16.486692,80.699436,CO,36,48,37
India,Andhra_Pradesh,Vijayawada,"Rajiv Gandhi Park, Vijayawada - APPCB",26-02-2026 08:00:00,16.509717,80.612222,PM2.5,38,85,58
India,Andhra_Pradesh,Vijayawada,"Rajiv Gandhi Park, Vijayawada - APPCB",26-02-2026 08:00:00,16.509717,80.612222,PM10,37,80,56
India,Andhra_Pradesh,Vijayawada,"Rajiv Nagar, Vijayawada - APPCB",26-02-2026 08:00:00,16.554731,80.649110,PM10,64,71,67
India,Assam,Nagaon,"Christianpatty, Nagaon - PCBA",26-02-2026 08:00:00,26.349082,92.68449,CO,14,24,18
India,Assam,Nalbari,"Bata Chowk, Nalbari - PCBA",26-02-2026 08:00:00,26.446912,91.439057,PM2.5,99,193,153
India,Assam,Silchar,"Tarapur, Silchar - PCBA",26-02-2026 08:00:00,24.82827,92.79525,PM2.5,34,90,62
India,Assam,Silchar,"Tarapur, Silchar - PCBA",26-02-2026 08:00:00,24.82827,92.79525,NH3,1,2,1
India,Assam,Silchar,"Tarapur, Silchar - PCBA",26-02-2026 08:00:00,24.82827,92.79525,OZONE,2,7,2
India,Assam,Sivasagar,"Girls College, Sivasagar - PCBA",26-02-2026 08:00:00,26.987634,94.636574,OZONE,17,98,45
India,Bihar,Araria,"Kharahiya Basti, Araria - BSPCB",26-02-2026 08:00:00,26.146529,87.454184,PM10,28,100,67
India,Bihar,Gaya,"SFTI Kusdihra, Gaya - BSPCB",26-02-2026 08:00:00,24.762518,84.982348,PM10,56,73,65
India,Bihar,Hajipur,"Industrial Area, Hajipur - BSPCB",26-02-2026 08:00:00,25.697189,85.245900,NO2,1,105,57
India,Bihar,Katihar,"Mirchaibari, Katihar - BSPCB",26-02-2026 08:00:00,25.560083,87.553265,PM2.5,47,80,62
India,Bihar,Katihar,"Mirchaibari, Katihar - BSPCB",26-02-2026 08:00:00,25.560083,87.553265,PM10,49,81,64
India,Bihar,Katihar,"Mirchaibari, Katihar - BSPCB",26-02-2026 08:00:00,25.560083,87.553265,CO,68,96,84
India,Bihar,Katihar,"Mirchaibari, Katihar - BSPCB",26-02-2026 08:00:00,25.560083,87.553265,OZONE,6,19,6
India,Bihar,Manguraha,"Forest Rest House, Manguraha - BSPCB",26-02-2026 08:00:00,27.308328,84.531742,PM2.5,82,180,102
India,Bihar,Manguraha,"Forest Rest House, Manguraha - BSPCB",26-02-2026 08:00:00,27.308328,84.531742,PM10,105,161,120
India,Bihar,Munger,"Town Hall, Munger - BSPCB",26-02-2026 08:00:00,25.376776,86.471523,NO2,4,5,5
India,Bihar,Muzaffarpur,"Buddha Colony, Muzaffarpur - BSPCB",26-02-2026 08:00:00,26.11442,85.39813,PM10,NA,NA,NA
India,Bihar,Muzaffarpur,"MIT-Daudpur Kothi, Muzaffarpur - BSPCB",26-02-2026 08:00:00,26.1403345,85.3650192,PM10,59,73,62
India,Bihar,Muzaffarpur,"MIT-Daudpur Kothi, Muzaffarpur - BSPCB",26-02-2026 08:00:00,26.1403345,85.3650192,NH3,5,7,6
India,Bihar,Muzaffarpur,"Muzaffarpur Collectorate, Muzaffarpur - BSPCB",26-02-2026 08:00:00,26.1209,85.3647,OZONE,9,21,13
India,Bihar,Patna,"DRM Office Danapur, Patna - BSPCB",26-02-2026 08:00:00,25.586562,85.043586,NH3,10,12,11
India,Andhra_Pradesh,Visakhapatnam,"GVM Corporation, Visakhapatnam - APPCB",26-02-2026 08:00:00,17.72,83.3,NH3,3,4,4
India,Arunachal_Pradesh,Naharlagun,"Naharlagun, Naharlagun - APSPCB",26-02-2026 08:00:00,27.103358,93.679645,NH3,1,1,1
India,Arunachal_Pradesh,Naharlagun,"Naharlagun, Naharlagun - APSPCB",26-02-2026 08:00:00,27.103358,93.679645,CO,14,38,24
India,Assam,Byrnihat,"Central Academy for SFS, Byrnihat - PCBA",26-02-2026 08:00:00,26.071318,91.87488,SO2,32,32,32
India,Assam,Byrnihat,"Central Academy for SFS, Byrnihat - PCBA",26-02-2026 08:00:00,26.071318,91.87488,CO,40,84,48
India,Andaman and Nicobar,Sri Vijaya Puram,"Police Line, Sri Vijaya Puram - ANPCC",26-02-2026 08:00:00,11.654054,92.734055,PM2.5,35,47,39
India,Andhra_Pradesh,Amaravati,"Secretariat, Amaravati - APPCB",26-02-2026 08:00:00,16.5150833,80.5181667,PM10,37,114,74
India,Bihar,Munger,"Town Hall, Munger - BSPCB",26-02-2026 08:00:00,25.376776,86.471523,PM2.5,40,88,63
India,Chhattisgarh,Tumidih,"OP Jindal Industrial Park, Tumidih - CECB",26-02-2026 08:00:00,22.06631475,83.33820077,NO2,NA,NA,NA
India,Chhattisgarh,Tumidih,"OP Jindal Industrial Park, Tumidih - CECB",26-02-2026 08:00:00,22.06631475,83.33820077,SO2,5,15,6
India,Delhi,Delhi,"Alipur, Delhi - DPCC",26-02-2026 08:00:00,28.815329,77.153010,PM10,94,416,219
India,Delhi,Delhi,"Alipur, Delhi - DPCC",26-02-2026 08:00:00,28.815329,77.153010,NO2,21,98,56
India,Delhi,Delhi,"Alipur, Delhi - DPCC",26-02-2026 08:00:00,28.815329,77.153010,OZONE,2,46,4
India,Delhi,Delhi,"Anand Vihar, Delhi - DPCC",26-02-2026 08:00:00,28.647622,77.3158090,PM10,143,495,299
India,Delhi,Delhi,"Anand Vihar, Delhi - DPCC",26-02-2026 08:00:00,28.647622,77.3158090,OZONE,9,46,21
India,Delhi,Delhi,"Ashok Vihar, Delhi - DPCC",26-02-2026 08:00:00,28.695381,77.181665,OZONE,3,114,9
India,Delhi,Delhi,"Bawana, Delhi - DPCC",26-02-2026 08:00:00,28.776200,77.051074,NO2,9,74,33
India,Bihar,Patna,"Samanpura, Patna - BSPCB",26-02-2026 08:00:00,25.596727,85.085624,SO2,2,3,3
India,Bihar,Patna,"Samanpura, Patna - BSPCB",26-02-2026 08:00:00,25.596727,85.085624,CO,55,108,94
India,Bihar,Purnia,"Mariam Nagar, Purnia - BSPCB",26-02-2026 08:00:00,25.366336,87.117468,OZONE,6,52,15
India,Bihar,Rajgir,"Dangi Tola, Rajgir - BSPCB",26-02-2026 08:00:00,25.03280,85.41948,SO2,2,3,3
India,Bihar,Saharsa,"Police Line, Saharsa - BSPCB",26-02-2026 08:00:00,25.892357,86.590325,NO2,6,8,7
India,Bihar,Saharsa,"Police Line, Saharsa - BSPCB",26-02-2026 08:00:00,25.892357,86.590325,NH3,4,4,4
India,Bihar,Samastipur,"DM Office_Kasipur, Samastipur - BSPCB",26-02-2026 08:00:00,25.859655,85.77944,PM2.5,32,280,108
India,Bihar,Samastipur,"DM Office_Kasipur, Samastipur - BSPCB",26-02-2026 08:00:00,25.859655,85.77944,PM10,32,159,85
India,Delhi,Delhi,"IHBAS, Dilshad Garden, Delhi - CPCB",26-02-2026 08:00:00,28.6811736,77.3025234,NO2,26,74,49
India,Delhi,Delhi,"IHBAS, Dilshad Garden, Delhi - CPCB",26-02-2026 08:00:00,28.6811736,77.3025234,SO2,4,41,23
India,Delhi,Delhi,"IIT Delhi, Delhi - IITM",26-02-2026 08:00:00,28.542460,77.191651,PM10,73,205,143
India,Delhi,Delhi,"ITO, Delhi - CPCB",26-02-2026 08:00:00,28.628624,77.241060,PM10,8,168,100
India,Delhi,Delhi,"ITO, Delhi - CPCB",26-02-2026 08:00:00,28.628624,77.241060,NO2,7,115,52
India,Delhi,Delhi,"ITO, Delhi - CPCB",26-02-2026 08:00:00,28.628624,77.241060,OZONE,19,58,19
India,Delhi,Delhi,"Jahangirpuri, Delhi - DPCC",26-02-2026 08:00:00,28.732820,77.170633,PM2.5,75,354,253
India,Delhi,Delhi,"Jawaharlal Nehru Stadium, Delhi - DPCC",26-02-2026 08:00:00,28.580280,77.233829,CO,48,126,83
India,Chhattisgarh,Korba,"Urja Nagar, Korba - CECB",26-02-2026 08:00:00,22.348441,82.549611,OZONE,NA,NA,NA
India,Chhattisgarh,Kunjemura,"OP Jindal School, Kunjemura - CECB",26-02-2026 08:00:00,22.126650,83.483212,PM2.5,36,84,64
India,Chhattisgarh,Kunjemura,"OP Jindal School, Kunjemura - CECB",26-02-2026 08:00:00,22.126650,83.483212,OZONE,1,53,3
India,Chhattisgarh,Raipur,"AIIMS, Raipur - CECB",26-02-2026 08:00:00,21.258815,81.578979,PM10,32,118,81
India,Chhattisgarh,Raipur,"Bhatagaon New ISBT, Raipur - CECB",26-02-2026 08:00:00,21.219665,81.630094,PM10,21,152,83
India,Chhattisgarh,Raipur,"Bhatagaon New ISBT, Raipur - CECB",26-02-2026 08:00:00,21.219665,81.630094,CO,20,109,81
India,Chhattisgarh,Raipur,"Krishak Nagar, Raipur - CECB",26-02-2026 08:00:00,21.237755,81.705301,OZONE,6,22,7
India,Chhattisgarh,Bhilai,"Hathkhoj, Bhilai - CECB",26-02-2026 08:00:00,21.224231,81.408350,NH3,4,8,5
India,Chhattisgarh,Bhilai,"Hathkhoj, Bhilai - CECB",26-02-2026 08:00:00,21.224231,81.408350,CO,6,76,37
India,Chhattisgarh,Bilaspur,"Mangala, Bilaspur - NTPC",26-02-2026 08:00:00,22.08815,82.13737,PM10,43,118,79
India,Chhattisgarh,Bilaspur,"Mangala, Bilaspur - NTPC",26-02-2026 08:00:00,22.08815,82.13737,NO2,16,33,22
India,Chhattisgarh,Chhal,"Nawapara SECL Colony, Chhal - CECB",26-02-2026 08:00:00,22.118125,83.140608,PM2.5,27,52,39
India,Chhattisgarh,Chhal,"Nawapara SECL Colony, Chhal - CECB",26-02-2026 08:00:00,22.118125,83.140608,NO2,11,33,18
India,Chhattisgarh,Korba,"Urja Nagar, Korba - CECB",26-02-2026 08:00:00,22.348441,82.549611,PM10,NA,NA,NA
India,Delhi,Delhi,"Burari Crossing, Delhi - IMD",26-02-2026 08:00:00,28.7256504,77.2011573,CO,2,66,40
India,Delhi,Delhi,"DTU, Delhi - CPCB",26-02-2026 08:00:00,28.7500499,77.1112615,PM2.5,59,345,203
India,Delhi,Delhi,"DTU, Delhi - CPCB",26-02-2026 08:00:00,28.7500499,77.1112615,NO2,30,71,49
India,Delhi,Delhi,"DTU, Delhi - CPCB",26-02-2026 08:00:00,28.7500499,77.1112615,OZONE,14,28,21
India,Delhi,Delhi,"Dr. Karni Singh Shooting Range, Delhi - DPCC",26-02-2026 08:00:00,28.498571,77.264840,NH3,6,10,7
India,Delhi,Delhi,"Dr. Karni Singh Shooting Range, Delhi - DPCC",26-02-2026 08:00:00,28.498571,77.264840,SO2,8,20,14
India,Delhi,Delhi,"Dwarka-Sector 8, Delhi - DPCC ",26-02-2026 08:00:00,28.5710274,77.0719006,CO,28,161,57
India,Bihar,Patna,"DRM Office Danapur, Patna - BSPCB",26-02-2026 08:00:00,25.586562,85.043586,OZONE,8,40,8
India,Bihar,Patna,"Govt. High School Shikarpur, Patna - BSPCB",26-02-2026 08:00:00,25.592539,85.227158,PM2.5,90,255,155
India,Bihar,Patna,"Govt. High School Shikarpur, Patna - BSPCB",26-02-2026 08:00:00,25.592539,85.227158,NO2,10,31,18
India,Bihar,Patna,"Govt. High School Shikarpur, Patna - BSPCB",26-02-2026 08:00:00,25.592539,85.227158,NH3,4,5,5
India,Bihar,Patna,"Muradpur, Patna - BSPCB",26-02-2026 08:00:00,25.619651,85.147382,PM10,103,201,149
India,Bihar,Patna,"Muradpur, Patna - BSPCB",26-02-2026 08:00:00,25.619651,85.147382,NO2,10,12,11
India,Bihar,Patna,"Muradpur, Patna - BSPCB",26-02-2026 08:00:00,25.619651,85.147382,OZONE,15,95,24
India,Chandigarh,Chandigarh,"Sector 22, Chandigarh - CPCC",26-02-2026 08:00:00,30.735567,76.775714,OZONE,11,144,58
India,Chandigarh,Chandigarh,"Sector-25, Chandigarh - CPCC",26-02-2026 08:00:00,30.751462,76.762879,PM10,94,130,118
India,Chandigarh,Chandigarh,"Sector-25, Chandigarh - CPCC",26-02-2026 08:00:00,30.751462,76.762879,NH3,9,10,9
India,Chandigarh,Chandigarh,"Sector-25, Chandigarh - CPCC",26-02-2026 08:00:00,30.751462,76.762879,SO2,2,15,7
India,Chhattisgarh,Bhilai,"32Bungalows, Bhilai - CECB",26-02-2026 08:00:00,21.194815,81.314770,PM10,22,41,30
India,Delhi,Delhi,"Lodhi Road, Delhi - IMD",26-02-2026 08:00:00,28.5918245,77.2273074,NO2,17,47,28
India,Delhi,Delhi,"Major Dhyan Chand National Stadium, Delhi - DPCC",26-02-2026 08:00:00,28.611281,77.237738,PM10,73,259,163
India,Delhi,Delhi,"Major Dhyan Chand National Stadium, Delhi - DPCC",26-02-2026 08:00:00,28.611281,77.237738,SO2,19,28,23
India,Delhi,Delhi,"Mandir Marg, Delhi - DPCC",26-02-2026 08:00:00,28.636429,77.201067,NH3,5,12,10
India,Delhi,Delhi,"Patparganj, Delhi - DPCC",26-02-2026 08:00:00,28.623763,77.287209,NO2,24,129,82
India,Delhi,Delhi,"Patparganj, Delhi - DPCC",26-02-2026 08:00:00,28.623763,77.287209,NH3,5,10,7
India,Delhi,Delhi,"Patparganj, Delhi - DPCC",26-02-2026 08:00:00,28.623763,77.287209,OZONE,1,203,2
India,Delhi,Delhi,"Punjabi Bagh, Delhi - DPCC",26-02-2026 08:00:00,28.674045,77.131023,NO2,21,84,44
India,Delhi,Delhi,"Pusa, Delhi - DPCC",26-02-2026 08:00:00,28.639652,77.146275,PM2.5,70,328,198
India,Delhi,Delhi,"Pusa, Delhi - DPCC",26-02-2026 08:00:00,28.639652,77.146275,NO2,52,147,94
India,Delhi,Delhi,"Pusa, Delhi - DPCC",26-02-2026 08:00:00,28.639652,77.146275,CO,56,123,78
India,Delhi,Delhi,"Pusa, Delhi - DPCC",26-02-2026 08:00:00,28.639652,77.146275,OZONE,3,106,4
India,Delhi,Delhi,"Pusa, Delhi - IMD",26-02-2026 08:00:00,28.636110,77.173332,PM2.5,50,290,137
India,Delhi,Delhi,"Pusa, Delhi - IMD",26-02-2026 08:00:00,28.636110,77.173332,PM10,80,247,155
India,Delhi,Delhi,"R K Puram, Delhi - DPCC",26-02-2026 08:00:00,28.563262,77.186937,PM10,70,298,173
India,Delhi,Delhi,"Rohini, Delhi - DPCC",26-02-2026 08:00:00,28.732528,77.119920,NH3,8,15,11
India,Haryana,Ambala,"Patti Mehar, Ambala - HSPCB",26-02-2026 08:00:00,30.379589,76.778328,NO2,8,12,10
India,Haryana,Ballabgarh,"Nathu Colony, Ballabgarh - HSPCB",26-02-2026 08:00:00,28.3419248,77.319699,PM2.5,51,321,190
India,Haryana,Ballabgarh,"Nathu Colony, Ballabgarh - HSPCB",26-02-2026 08:00:00,28.3419248,77.319699,NO2,19,21,20
India,Haryana,Bhiwani,"H.B. Colony, Bhiwani - HSPCB",26-02-2026 08:00:00,28.806223,76.141105,PM2.5,37,473,102
India,Haryana,Bhiwani,"H.B. Colony, Bhiwani - HSPCB",26-02-2026 08:00:00,28.806223,76.141105,NO2,6,10,8
India,Haryana,Bhiwani,"H.B. Colony, Bhiwani - HSPCB",26-02-2026 08:00:00,28.806223,76.141105,CO,14,19,18
India,Haryana,Charkhi Dadri,"Mini Secretariat, Charkhi Dadri - HSPCB",26-02-2026 08:00:00,28.593883,76.270653,NH3,5,8,6
India,Haryana,Charkhi Dadri,"Mini Secretariat, Charkhi Dadri - HSPCB",26-02-2026 08:00:00,28.593883,76.270653,CO,8,25,16
India,Haryana,Dharuhera,"Municipal Corporation Office, Dharuhera -  HSPCB",26-02-2026 08:00:00,28.206800,76.799700,PM2.5,82,347,247
India,Haryana,Dharuhera,"Municipal Corporation Office, Dharuhera -  HSPCB",26-02-2026 08:00:00,28.206800,76.799700,NO2,16,57,42
India,Gujarat,Surat,"Katargam, Surat - Nexteng Enviro",26-02-2026 08:00:00,21.217779 ,72.834787 ,PM2.5,19,261,83
India,Gujarat,Surat,"Katargam, Surat - Nexteng Enviro",26-02-2026 08:00:00,21.217779 ,72.834787 ,SO2,9,127,35
India,Gujarat,Surat,"Science Center, Surat - SMC",26-02-2026 08:00:00,21.170046,72.795405,PM10,NA,NA,NA
India,Gujarat,Surat,"Science Center, Surat - SMC",26-02-2026 08:00:00,21.170046,72.795405,NO2,7,13,10
India,Gujarat,Surat,"Science Center, Surat - SMC",26-02-2026 08:00:00,21.170046,72.795405,CO,64,76,65
India,Gujarat,Vadodara,"Bapunagar, Vadodara - Nexteng Enviro",26-02-2026 08:00:00,22.320153,73.216285,PM2.5,48,200,81
India,Gujarat,Vadodara,"Bapunagar, Vadodara - Nexteng Enviro",26-02-2026 08:00:00,22.320153,73.216285,NO2,2,62,23
India,Gujarat,Vatva,"Phase-4 GIDC, Vatva - GPCB",26-02-2026 08:00:00,22.969611,72.643500,SO2,15,54,35
India,Haryana,Ambala,"Patti Mehar, Ambala - HSPCB",26-02-2026 08:00:00,30.379589,76.778328,PM2.5,61,104,79
India,Delhi,Delhi,"Shadipur, Delhi - CPCB",26-02-2026 08:00:00,28.6514781,77.1473105,NH3,12,15,13
India,Delhi,Delhi,"Shadipur, Delhi - CPCB",26-02-2026 08:00:00,28.6514781,77.1473105,CO,16,110,64
India,Delhi,Delhi,"Sonia Vihar, Delhi - DPCC",26-02-2026 08:00:00,28.710508,77.249485,CO,26,125,99
India,Delhi,Delhi,"Sonia Vihar, Delhi - DPCC",26-02-2026 08:00:00,28.710508,77.249485,OZONE,3,143,5
India,Delhi,Delhi,"Sri Aurobindo Marg, Delhi - DPCC",26-02-2026 08:00:00,28.531346,77.190156,NH3,4,8,5
India,Delhi,Delhi,"Sri Aurobindo Marg, Delhi - DPCC",26-02-2026 08:00:00,28.531346,77.190156,OZONE,2,111,3
India,Delhi,Delhi,"Vivek Vihar, Delhi - DPCC",26-02-2026 08:00:00,28.672342,77.315260,PM10,118,410,183
India,Delhi,Delhi,"Vivek Vihar, Delhi - DPCC",26-02-2026 08:00:00,28.672342,77.315260,CO,36,106,58
India,Gujarat,Gandhinagar,"GIFT City, Gandhinagar - IITM",26-02-2026 08:00:00,23.163798,72.677768,PM10,104,419,204
India,Gujarat,Gandhinagar,"GIFT City, Gandhinagar - IITM",26-02-2026 08:00:00,23.163798,72.677768,NH3,5,26,12
India,Gujarat,Gandhinagar,"Sector-10, Gandhinagar - GPCB",26-02-2026 08:00:00,23.221714,72.654328,PM2.5,56,300,139
India,Gujarat,Gandhinagar,"Sector-10, Gandhinagar - GPCB",26-02-2026 08:00:00,23.221714,72.654328,NO2,20,62,38
India,Gujarat,Mehsana,"Sadanand Nagar, Mehsana - Nexteng Enviro",26-02-2026 08:00:00,23.593150,72.372792,NH3,1,3,2
India,Gujarat,Nandesari,"GIDC, Nandesari - Nandesari Ind. Association",26-02-2026 08:00:00,22.410802,73.097923,SO2,3,19,6
India,Delhi,Delhi,"NSIT Dwarka, Delhi - CPCB",26-02-2026 08:00:00,28.60909,77.0325413,CO,37,68,42
India,Delhi,Delhi,"Najafgarh, Delhi - DPCC",26-02-2026 08:00:00,28.570173,76.933762,NO2,37,110,88
India,Delhi,Delhi,"Najafgarh, Delhi - DPCC",26-02-2026 08:00:00,28.570173,76.933762,SO2,16,82,21
India,Delhi,Delhi,"Narela, Delhi - DPCC",26-02-2026 08:00:00,28.822836,77.101981,NO2,14,73,35
India,Delhi,Delhi,"Narela, Delhi - DPCC",26-02-2026 08:00:00,28.822836,77.101981,OZONE,13,132,21
India,Delhi,Delhi,"North Campus, DU, Delhi - IMD",26-02-2026 08:00:00,28.6573814,77.1585447,NO2,NA,NA,NA
India,Gujarat,Ahmedabad,"SAC ISRO Bopal, Ahmedabad - IITM",26-02-2026 08:00:00,23.041137,72.456691,PM10,70,197,122
India,Gujarat,Ahmedabad,"SAC ISRO Bopal, Ahmedabad - IITM",26-02-2026 08:00:00,23.041137,72.456691,CO,19,64,31
India,Gujarat,Ahmedabad,"SAC ISRO Satellite, Ahmedabad - IITM",26-02-2026 08:00:00,23.023389,72.515201,PM10,82,188,121
India,Gujarat,Ankleshwar,"GIDC, Ankleshwar - GPCB",26-02-2026 08:00:00,21.613267,73.010555,NH3,5,7,6
India,Gujarat,Ankleshwar,"GIDC, Ankleshwar - GPCB",26-02-2026 08:00:00,21.613267,73.010555,SO2,16,26,19
India,Delhi,Delhi,"Wazirpur, Delhi - DPCC",26-02-2026 08:00:00,28.699793,77.165453,NH3,7,12,10
India,Delhi,Delhi,"Wazirpur, Delhi - DPCC",26-02-2026 08:00:00,28.699793,77.165453,OZONE,8,26,19
India,Gujarat,Ahmedabad,"Raikhad, Ahmedabad - IITM",26-02-2026 08:00:00,23.020509,72.579261,NO2,18,165,69
India,Gujarat,Ahmedabad,"Rakhial, Ahmedabad - IITM",26-02-2026 08:00:00,23.016834,72.625775,PM2.5,5,172,76
India,Gujarat,Ahmedabad,"Rakhial, Ahmedabad - IITM",26-02-2026 08:00:00,23.016834,72.625775,PM10,61,193,121
India,Haryana,Faridabad,"Sector 11, Faridabad - HSPCB",26-02-2026 08:00:00,28.376058,77.315741,OZONE,1,16,15
India,Haryana,Faridabad,"Sector 30, Faridabad - HSPCB",26-02-2026 08:00:00,28.4417,77.3217,CO,22,66,61
India,Haryana,Gurugram,"NISE Gwal Pahari, Gurugram - IMD",26-02-2026 08:00:00,28.422681,77.148944,PM2.5,38,334,173
India,Karnataka,Bengaluru,"Jayanagar 5th Block, Bengaluru - KSPCB",26-02-2026 08:00:00,12.920984,77.584908,OZONE,1,130,51
India,Karnataka,Bengaluru,"Jigani, Bengaluru - KSPCB",26-02-2026 08:00:00,12.7816279,77.6299145,PM2.5,35,86,61
India,Karnataka,Bengaluru,"Jigani, Bengaluru - KSPCB",26-02-2026 08:00:00,12.7816279,77.6299145,PM10,41,149,102
India,Karnataka,Bengaluru,"Jigani, Bengaluru - KSPCB",26-02-2026 08:00:00,12.7816279,77.6299145,CO,42,44,43
India,Karnataka,Bengaluru,"Peenya, Bengaluru - CPCB",26-02-2026 08:00:00,13.0270199,77.494094,PM10,67,95,81
India,Karnataka,Bengaluru,"Peenya, Bengaluru - CPCB",26-02-2026 08:00:00,13.0270199,77.494094,NO2,22,29,26
India,Karnataka,Bengaluru,"RVCE-Mailasandra, Bengaluru - KSPCB",26-02-2026 08:00:00,12.921418,77.502466,PM2.5,NA,NA,NA
India,Karnataka,Bengaluru,"RVCE-Mailasandra, Bengaluru - KSPCB",26-02-2026 08:00:00,12.921418,77.502466,PM10,48,166,103
India,Karnataka,Bengaluru,"RVCE-Mailasandra, Bengaluru - KSPCB",26-02-2026 08:00:00,12.921418,77.502466,OZONE,23,25,23
India,Karnataka,Bengaluru,"Shivapura_Peenya, Bengaluru - KSPCB",26-02-2026 08:00:00,13.0246342,77.5080115,CO,31,49,34
India,Karnataka,Bengaluru,"Shivapura_Peenya, Bengaluru - KSPCB",26-02-2026 08:00:00,13.0246342,77.5080115,OZONE,28,29,29
India,Karnataka,Bengaluru,"Silk Board, Bengaluru - KSPCB",26-02-2026 08:00:00,12.917348,77.622813,PM2.5,60,93,76
India,Karnataka,Bengaluru,"BTM Layout, Bengaluru - CPCB",26-02-2026 08:00:00,12.9135218,77.5950804,OZONE,20,28,28
India,Karnataka,Bengaluru,"Bapuji Nagar, Bengaluru - KSPCB",26-02-2026 08:00:00,12.951913,77.539784,PM2.5,17,85,49
India,Karnataka,Bengaluru,"City Railway Station, Bengaluru - KSPCB",26-02-2026 08:00:00,12.9756843,77.5660749,PM10,105,106,106
India,Karnataka,Bengaluru,"Hebbal, Bengaluru - KSPCB",26-02-2026 08:00:00,13.029152,77.585901,PM10,60,126,85
India,Karnataka,Bengaluru,"Hebbal, Bengaluru - KSPCB",26-02-2026 08:00:00,13.029152,77.585901,CO,13,56,26
India,Karnataka,Bengaluru,"Hombegowda Nagar, Bengaluru - KSPCB",26-02-2026 08:00:00,12.938539,77.590100,NO2,18,83,35
India,Karnataka,Bengaluru,"Hombegowda Nagar, Bengaluru - KSPCB",26-02-2026 08:00:00,12.938539,77.590100,NH3,4,7,5
India,Karnataka,Bengaluru,"Hombegowda Nagar, Bengaluru - KSPCB",26-02-2026 08:00:00,12.938539,77.590100,SO2,4,16,11
India,Karnataka,Bengaluru,"Jayanagar 5th Block, Bengaluru - KSPCB",26-02-2026 08:00:00,12.920984,77.584908,PM2.5,58,117,77
India,Haryana,Gurugram,"Sector-51, Gurugram - HSPCB",26-02-2026 08:00:00,28.4227,77.0667,PM10,90,447,260
India,Haryana,Gurugram,"Sector-51, Gurugram - HSPCB",26-02-2026 08:00:00,28.4227,77.0667,NH3,9,14,12
India,Haryana,Gurugram,"Sector-51, Gurugram - HSPCB",26-02-2026 08:00:00,28.4227,77.0667,OZONE,3,15,3
India,Haryana,Gurugram,"Vikas Sadan, Gurugram - HSPCB",26-02-2026 08:00:00,28.4501238,77.0263051,PM2.5,NA,NA,NA
India,Haryana,Gurugram,"Vikas Sadan, Gurugram - HSPCB",26-02-2026 08:00:00,28.4501238,77.0263051,SO2,NA,NA,NA
India,Haryana,Hisar,"Urban Estate-II, Hisar - HSPCB",26-02-2026 08:00:00,29.140560,75.744941,CO,NA,NA,NA
India,Haryana,Jind,"Police Lines, Jind - HSPCB",26-02-2026 08:00:00,29.307814,76.337619,SO2,1,13,5
India,Haryana,Jind,"Police Lines, Jind - HSPCB",26-02-2026 08:00:00,29.307814,76.337619,CO,2,42,22
India,Haryana,Jind,"Police Lines, Jind - HSPCB",26-02-2026 08:00:00,29.307814,76.337619,OZONE,10,29,14
India,Haryana,Kaithal,"Rishi Nagar, Kaithal - HSPCB",26-02-2026 08:00:00,29.8006,76.4155,PM10,101,153,128
India,Haryana,Karnal,"Sector-12, Karnal - HSPCB",26-02-2026 08:00:00,29.695300,77.002700,OZONE,26,26,26
India,Haryana,Mandikhera,"General Hospital, Mandikhera(Nuh) - HSPCB",26-02-2026 08:00:00,27.9002,76.9938,PM2.5,32,127,80
India,Haryana,Mandikhera,"General Hospital, Mandikhera(Nuh) - HSPCB",26-02-2026 08:00:00,27.9002,76.9938,PM10,36,118,85
India,Haryana,Mandikhera,"General Hospital, Mandikhera(Nuh) - HSPCB",26-02-2026 08:00:00,27.9002,76.9938,OZONE,24,31,27
India,Haryana,Manesar,"Sector-2 IMT, Manesar - HSPCB",26-02-2026 08:00:00,28.360699,76.936090,NO2,61,73,68
India,Haryana,Manesar,"Sector-2 IMT, Manesar - HSPCB",26-02-2026 08:00:00,28.360699,76.936090,NH3,10,12,11
India,Haryana,Narnaul,"Shastri Nagar, Narnaul - HSPCB",26-02-2026 08:00:00,28.060249,76.113115,PM10,31,169,86
India,Haryana,Palwal,"Shyam Nagar, Palwal - HSPCB",26-02-2026 08:00:00,28.1485564,77.3320667,PM10,54,91,69
India,Haryana,Palwal,"Shyam Nagar, Palwal - HSPCB",26-02-2026 08:00:00,28.1485564,77.3320667,CO,15,46,29
India,Haryana,Panchgaon,"Amity University, Panchgaon - IITM",26-02-2026 08:00:00,28.3153,76.9143,PM10,47,170,111
India,Haryana,Panchgaon,"Amity University, Panchgaon - IITM",26-02-2026 08:00:00,28.3153,76.9143,CO,6,58,32
India,Haryana,Panipat,"Sector-18, Panipat - HSPCB",26-02-2026 08:00:00,29.432304,76.972765,PM2.5,142,329,230
India,Haryana,Rohtak,"MD University, Rohtak - HSPCB",26-02-2026 08:00:00,28.52123,76.37138,CO,31,38,34
India,Haryana,Sirsa,"F-Block, Sirsa - HSPCB",26-02-2026 08:00:00,29.536400,75.015800,CO,43,104,67
India,Haryana,Sonipat,"Murthal, Sonipat - HSPCB",26-02-2026 08:00:00,29.027200,77.062100,PM2.5,NA,NA,NA
India,Karnataka,Chamarajanagar,"Urban, Chamarajanagar - KSPCB",26-02-2026 08:00:00,11.55358,76.55521,SO2,2,8,5
India,Karnataka,Chamarajanagar,"Urban, Chamarajanagar - KSPCB",26-02-2026 08:00:00,11.55358,76.55521,OZONE,14,38,22
India,Karnataka,Chikkaballapur,"Chikkaballapur Rural, Chikkaballapur - KSPCB",26-02-2026 08:00:00,13.428828,77.731418,PM10,41,105,69
India,Karnataka,Chikkaballapur,"Chikkaballapur Rural, Chikkaballapur - KSPCB",26-02-2026 08:00:00,13.428828,77.731418,SO2,1,24,12
India,Karnataka,Chikkamagaluru,"Kalyana Nagara, Chikkamagaluru - KSPCB",26-02-2026 08:00:00,13.328028,75.797056,PM2.5,26,75,46
India,Karnataka,Chikkamagaluru,"Kalyana Nagara, Chikkamagaluru - KSPCB",26-02-2026 08:00:00,13.328028,75.797056,OZONE,18,38,20
India,Karnataka,Dharwad,"Kalabhavan, Dharwad - KSPCB",26-02-2026 08:00:00,15.459706,75.008381,SO2,7,8,8
India,Jammu_and_Kashmir,Pampore,"Khrew, Pampore - JKPCC",26-02-2026 08:00:00,34.031606,75.009712,PM2.5,19,92,48
India,Jammu_and_Kashmir,Srinagar,"Rajbagh, Srinagar - JKPCC",26-02-2026 08:00:00,34.066206,74.819820,CO,10,20,14
India,Jammu_and_Kashmir,Srinagar,"Rajbagh, Srinagar - JKPCC",26-02-2026 08:00:00,34.066206,74.819820,OZONE,NA,NA,NA
India,Haryana,Yamuna Nagar,"Gobind Pura, Yamuna Nagar - HSPCB",26-02-2026 08:00:00,30.1480566,77.2893471,PM10,132,226,153
India,Haryana,Yamuna Nagar,"Gobind Pura, Yamuna Nagar - HSPCB",26-02-2026 08:00:00,30.1480566,77.2893471,NH3,4,4,4
India,Karnataka,Hubballi,"Lingaraj Nagar, Hubballi - KSPCB",26-02-2026 08:00:00,15.3714823,75.1160168,CO,6,33,6
India,Madhya Pradesh,Jabalpur,"Marhatal, Jabalpur - MPPCB",26-02-2026 08:00:00,23.168606,79.932247,NH3,1,2,2
India,Madhya Pradesh,Jabalpur,"Marhatal, Jabalpur - MPPCB",26-02-2026 08:00:00,23.168606,79.932247,SO2,7,34,22
India,Madhya Pradesh,Jabalpur,"Marhatal, Jabalpur - MPPCB",26-02-2026 08:00:00,23.168606,79.932247,CO,19,163,68
India,Madhya Pradesh,Jabalpur,"Marhatal, Jabalpur - MPPCB",26-02-2026 08:00:00,23.168606,79.932247,OZONE,17,62,19
India,Madhya Pradesh,Jabalpur,"Suhagi, Jabalpur - JMC",26-02-2026 08:00:00,23.218135,79.957770,NO2,13,101,45
India,Madhya Pradesh,Mandideep,"Sector-D Industrial Area, Mandideep - MPPCB",26-02-2026 08:00:00,23.108440,77.511428,PM10,50,344,127
India,Madhya Pradesh,Mandideep,"Sector-D Industrial Area, Mandideep - MPPCB",26-02-2026 08:00:00,23.108440,77.511428,NO2,54,121,88
India,Madhya Pradesh,Mandideep,"Sector-D Industrial Area, Mandideep - MPPCB",26-02-2026 08:00:00,23.108440,77.511428,OZONE,6,48,30
India,Madhya Pradesh,Pithampur,"Sector-2 Industrial Area, Pithampur - MPPCB",26-02-2026 08:00:00,22.624758,75.675238,PM2.5,44,241,106
India,Madhya Pradesh,Pithampur,"Sector-2 Industrial Area, Pithampur - MPPCB",26-02-2026 08:00:00,22.624758,75.675238,CO,6,54,20
India,Madhya Pradesh,Ratlam,"Shasthri Nagar, Ratlam - IPCA Lab",26-02-2026 08:00:00,23.331731,75.045981,PM10,62,159,103
India,Madhya Pradesh,Sagar,"Civil Lines, Sagar - MPPCB",26-02-2026 08:00:00,23.838586,78.759431,PM2.5,15,59,32
India,Madhya Pradesh,Gwalior,"City Center, Gwalior - MPPCB",26-02-2026 08:00:00,26.203442,78.193251,PM10,42,159,107
India,Madhya Pradesh,Gwalior,"City Center, Gwalior - MPPCB",26-02-2026 08:00:00,26.203442,78.193251,SO2,6,14,10
India,Madhya Pradesh,Gwalior,"Deen Dayal Nagar, Gwalior - MPPCB",26-02-2026 08:00:00,26.259242,78.216432,PM2.5,32,302,182
India,Madhya Pradesh,Gwalior,"Deen Dayal Nagar, Gwalior - MPPCB",26-02-2026 08:00:00,26.259242,78.216432,SO2,1,21,9
India,Madhya Pradesh,Gwalior,"Maharaj Bada, Gwalior - MPPCB",26-02-2026 08:00:00,26.200388,78.147714,NO2,8,47,19
India,Madhya Pradesh,Gwalior,"Maharaj Bada, Gwalior - MPPCB",26-02-2026 08:00:00,26.200388,78.147714,OZONE,24,89,25
India,Madhya Pradesh,Indore,"Airport Area, Indore - IMC",26-02-2026 08:00:00,22.7289,75.8076,NO2,59,243,88
India,Madhya Pradesh,Indore,"Airport Area, Indore - IMC",26-02-2026 08:00:00,22.7289,75.8076,SO2,3,14,5
India,Madhya Pradesh,Indore,"Chhoti Gwaltoli, Indore - MPPCB",26-02-2026 08:00:00,22.4310,75.5213,PM10,28,109,71
India,Madhya Pradesh,Indore,"Maguda Nagar, Indore - IMC",26-02-2026 08:00:00,22.7524,75.8872,PM2.5,25,196,74
India,Madhya Pradesh,Indore,"Regional Park, Indore - IMC",26-02-2026 08:00:00,22.6780,75.8559,PM2.5,24,218,68
India,Madhya Pradesh,Indore,"Regional Park, Indore - IMC",26-02-2026 08:00:00,22.6780,75.8559,NH3,1,3,2
India,Madhya Pradesh,Indore,"Residency Area, Indore - IMC",26-02-2026 08:00:00,22.7084,75.8815,CO,24,74,58
India,Madhya Pradesh,Jabalpur,"Govindh Bhavan Colony, Jabalpur - JMC",26-02-2026 08:00:00,23.163174,79.973061,PM2.5,18,63,34
India,Madhya Pradesh,Jabalpur,"Govindh Bhavan Colony, Jabalpur - JMC",26-02-2026 08:00:00,23.163174,79.973061,NH3,1,2,2
India,Madhya Pradesh,Jabalpur,"Govindh Bhavan Colony, Jabalpur - JMC",26-02-2026 08:00:00,23.163174,79.973061,SO2,5,8,6
India,Madhya Pradesh,Jabalpur,"Gupteshwar, Jabalpur - JMC",26-02-2026 08:00:00,23.142888,79.916147,PM2.5,22,90,47
India,Madhya Pradesh,Jabalpur,"Gupteshwar, Jabalpur - JMC",26-02-2026 08:00:00,23.142888,79.916147,NO2,14,106,38
India,Madhya Pradesh,Jabalpur,"Marhatal, Jabalpur - MPPCB",26-02-2026 08:00:00,23.168606,79.932247,PM10,61,262,108
India,Maharashtra,Akola,"Ramdaspeth, Akola - MPCB",26-02-2026 08:00:00,20.719516,77.000253,PM2.5,50,84,68
India,Maharashtra,Amravati,"Shri Shivaji Science College, Amravati - MPCB",26-02-2026 08:00:00,20.939198,77.765701,PM10,84,133,108
India,Maharashtra,Aurangabad,"MIDC Chilkalthana, Aurangabad - MPCB",26-02-2026 08:00:00,19.875620,75.387310,PM10,45,169,88
India,Maharashtra,Aurangabad,"MIDC Chilkalthana, Aurangabad - MPCB",26-02-2026 08:00:00,19.875620,75.387310,SO2,10,56,19
India,Maharashtra,Aurangabad,"Rachnakar Colony, Aurangabad - MPCB",26-02-2026 08:00:00,19.863756,75.321188,NO2,13,101,47
India,Maharashtra,Aurangabad,"Rachnakar Colony, Aurangabad - MPCB",26-02-2026 08:00:00,19.863756,75.321188,SO2,9,74,28
India,Maharashtra,Aurangabad,"Rachnakar Colony, Aurangabad - MPCB",26-02-2026 08:00:00,19.863756,75.321188,OZONE,12,98,14
India,Maharashtra,Badlapur,"Katrap, Badlapur - MPCB",26-02-2026 08:00:00,19.16485,73.23409,PM10,70,176,106
India,Kerala,Thrissur,"Corporation Ground, Thrissur - Kerala PCB",26-02-2026 08:00:00,10.532400,76.215900,OZONE,30,31,30
India,Madhya Pradesh,Bhopal,"Idgah Hills, Bhopal - MPPCB",26-02-2026 08:00:00,23.264759,77.381568,PM10,51,149,93
India,Madhya Pradesh,Bhopal,"T T Nagar, Bhopal - MPPCB",26-02-2026 08:00:00,23.233584,77.400574,PM2.5,18,84,48
India,Madhya Pradesh,Bhopal,"T T Nagar, Bhopal - MPPCB",26-02-2026 08:00:00,23.233584,77.400574,NO2,22,80,41
India,Madhya Pradesh,Bhopal,"T T Nagar, Bhopal - MPPCB",26-02-2026 08:00:00,23.233584,77.400574,CO,30,94,35
India,Madhya Pradesh,Damoh,"Shrivastav Colony, Damoh - MPPCB",26-02-2026 08:00:00,23.81748678,79.446246,PM2.5,22,159,58
India,Karnataka,Mysuru,"Hebbal 1st Stage, Mysuru - KSPCB",26-02-2026 08:00:00,12.21041,76.37376,SO2,1,5,3
India,Karnataka,Mysuru,"Hebbal 1st Stage, Mysuru - KSPCB",26-02-2026 08:00:00,12.21041,76.37376,CO,8,38,8
India,Karnataka,Ramanagara,"Vijay Nagar, Ramanagara - KSPCB",26-02-2026 08:00:00,12.733409,77.298051,PM10,43,123,78
India,Karnataka,Ramanagara,"Vijay Nagar, Ramanagara - KSPCB",26-02-2026 08:00:00,12.733409,77.298051,SO2,12,16,14
India,Karnataka,Ramanagara,"Vijay Nagar, Ramanagara - KSPCB",26-02-2026 08:00:00,12.733409,77.298051,OZONE,17,54,24
India,Karnataka,Vijayapura,"Ibrahimpur, Vijayapura - KSPCB",26-02-2026 08:00:00,16.802639,75.722694,CO,14,32,24
India,Maharashtra,Badlapur,"Katrap, Badlapur - MPCB",26-02-2026 08:00:00,19.16485,73.23409,NO2,14,37,23
India,Maharashtra,Bhiwandi,"Gokul Nagar, Bhiwandi - MPCB",26-02-2026 08:00:00,19.309073,73.057223,OZONE,12,83,14
India,Maharashtra,Chandrapur,"Chauhan Colony, Chandrapur - MPCB",26-02-2026 08:00:00,19.962900,79.298714,PM2.5,31,103,61
India,Maharashtra,Chandrapur,"Chauhan Colony, Chandrapur - MPCB",26-02-2026 08:00:00,19.962900,79.298714,NH3,2,2,2
India,Maharashtra,Chandrapur,"Chauhan Colony, Chandrapur - MPCB",26-02-2026 08:00:00,19.962900,79.298714,CO,21,36,31
India,Madhya Pradesh,Sagar,"Deen Dayal Nagar, Sagar - MPPCB",26-02-2026 08:00:00,23.8640158,78.80289321,NO2,1,42,17
India,Madhya Pradesh,Singrauli,"Suryakiran Bhawan NCL, Singrauli - MPPCB",26-02-2026 08:00:00,24.108970,82.645580,NO2,NA,NA,NA
India,Madhya Pradesh,Singrauli,"Suryakiran Bhawan NCL, Singrauli - MPPCB",26-02-2026 08:00:00,24.108970,82.645580,SO2,NA,NA,NA
India,Maharashtra,Ahmednagar,"Tarakpur, Ahmednagar - MPCB",26-02-2026 08:00:00,19.10122,74.73339,SO2,NA,NA,NA
India,Kerala,Kollam,"Polayathode, Kollam - Kerala PCB",26-02-2026 08:00:00,8.8787,76.6073,PM10,NA,NA,NA
India,Kerala,Thiruvananthapuram,"Kariavattom, Thiruvananthapuram - Kerala PCB",26-02-2026 08:00:00,8.563700,76.886500,SO2,1,14,5
India,Kerala,Thiruvananthapuram,"Kariavattom, Thiruvananthapuram - Kerala PCB",26-02-2026 08:00:00,8.563700,76.886500,OZONE,36,37,36
India,Maharashtra,Nagpur,"Ram Nagar, Nagpur - MPCB",26-02-2026 08:00:00,21.143383,79.048912,PM10,77,161,117
India,Maharashtra,Nanded,"Sneh Nagar, Nanded - MPCB",26-02-2026 08:00:00,19.173852,77.296291,PM2.5,55,161,82
India,Maharashtra,Nanded,"Sneh Nagar, Nanded - MPCB",26-02-2026 08:00:00,19.173852,77.296291,CO,20,26,22
India,Maharashtra,Nashik,"Gangapur Road, Nashik - MPCB",26-02-2026 08:00:00,20.0073285,73.7762427,NO2,5,5,5
India,Maharashtra,Nashik,"Hirawadi, Nashik - MPCB",26-02-2026 08:00:00,20.021503,73.813844,PM10,35,146,74
India,Maharashtra,Nashik,"MIDC Ambad, Nashik - MPCB",26-02-2026 08:00:00,19.950220,73.731480,PM2.5,28,77,46
India,Maharashtra,Nashik,"MIDC Ambad, Nashik - MPCB",26-02-2026 08:00:00,19.950220,73.731480,CO,28,32,30
India,Maharashtra,Nashik,"MIDC Ambad, Nashik - MPCB",26-02-2026 08:00:00,19.950220,73.731480,OZONE,4,53,15
India,Maharashtra,Nashik,"Pandav Nagari, Nashik - MPCB",26-02-2026 08:00:00,19.9591346,73.7788008,PM2.5,22,61,36
India,Maharashtra,Nashik,"Pandav Nagari, Nashik - MPCB",26-02-2026 08:00:00,19.9591346,73.7788008,CO,14,63,17
India,Maharashtra,Navi Mumbai,"Kopripada-Vashi, Navi Mumbai - MPCB",26-02-2026 08:00:00,19.090337,73.014232,NO2,13,64,30
India,Maharashtra,Navi Mumbai,"Mahape, Navi Mumbai - MPCB",26-02-2026 08:00:00,19.1135051,73.008978,NH3,1,1,1
India,Maharashtra,Navi Mumbai,"Nerul, Navi Mumbai - MPCB",26-02-2026 08:00:00,19.008751,73.016620,PM2.5,25,192,68
India,Maharashtra,Navi Mumbai,"Sanpada, Navi Mumbai - MPCB",26-02-2026 08:00:00,19.0575752,73.0151367,NH3,1,61,21
India,Maharashtra,Navi Mumbai,"Sector-2E Kalamboli, Navi Mumbai - MPCB",26-02-2026 08:00:00,19.02579,73.10297,PM2.5,2,78,47
India,Maharashtra,Navi Mumbai,"Sector-2E Kalamboli, Navi Mumbai - MPCB",26-02-2026 08:00:00,19.02579,73.10297,SO2,2,13,4
India,Maharashtra,Navi Mumbai,"Sector-2E Kalamboli, Navi Mumbai - MPCB",26-02-2026 08:00:00,19.02579,73.10297,CO,16,64,45
India,Maharashtra,Mumbai,"Chhatrapati Shivaji Intl. Airport (T2), Mumbai - MPCB",26-02-2026 08:00:00,19.10078,72.87462,SO2,53,117,87
India,Maharashtra,Mumbai,"Colaba, Mumbai - MPCB",26-02-2026 08:00:00,18.910000,72.820000,OZONE,11,11,11
India,Maharashtra,Mumbai,"Deonar, Mumbai - IITM",26-02-2026 08:00:00,19.04946,72.9230,OZONE,1,62,2
India,Maharashtra,Mumbai,"Ghatkopar, Mumbai - BMC",26-02-2026 08:00:00,19.083694,72.920967,PM10,59,140,91
India,Maharashtra,Mumbai,"Ghatkopar, Mumbai - BMC",26-02-2026 08:00:00,19.083694,72.920967,NO2,31,93,52
India,Maharashtra,Mumbai,"Ghatkopar, Mumbai - BMC",26-02-2026 08:00:00,19.083694,72.920967,NH3,1,5,3
India,Maharashtra,Mumbai,"Ghatkopar, Mumbai - BMC",26-02-2026 08:00:00,19.083694,72.920967,SO2,1,5,1
India,Maharashtra,Mumbai,"Kandivali East, Mumbai - MPCB",26-02-2026 08:00:00,19.205800,72.868200,NH3,3,3,3
India,Maharashtra,Mumbai,"Kandivali East, Mumbai - MPCB",26-02-2026 08:00:00,19.205800,72.868200,OZONE,17,18,18
India,Maharashtra,Jalgaon,"Prabhat Colony, Jalgaon - MPCB",26-02-2026 08:00:00,21.001264,75.565602,OZONE,13,84,30
India,Maharashtra,Kalyan,"Khadakpada, Kalyan - MPCB",26-02-2026 08:00:00,19.25292,73.142019,PM10,16,109,55
India,Maharashtra,Kalyan,"Khadakpada, Kalyan - MPCB",26-02-2026 08:00:00,19.25292,73.142019,OZONE,8,11,8
India,Maharashtra,Kalyan,"Pimpleshwar Mandir, Kalyan - MPCB",26-02-2026 08:00:00,19.192056,72.9585188,CO,52,76,69
India,Maharashtra,Kolhapur,"Shivaji University, Kolhapur - MPCB",26-02-2026 08:00:00,16.6870449,74.2505872,OZONE,1,58,7
India,Maharashtra,Kolhapur,"Sinchan Bhavan, Kolhapur - MPCB",26-02-2026 08:00:00,16.7143745,74.2426398,PM10,24,98,51
India,Maharashtra,Mumbai,"Powai, Mumbai - MPCB",26-02-2026 08:00:00,19.137500,72.915056,NH3,2,2,2
India,Maharashtra,Mumbai,"Sewri, Mumbai - BMC",26-02-2026 08:00:00,19.000084,72.856730,PM2.5,30,89,60
India,Maharashtra,Mumbai,"Sewri, Mumbai - BMC",26-02-2026 08:00:00,19.000084,72.856730,CO,NA,NA,NA
India,Maharashtra,Mumbai,"Shivaji Nagar, Mumbai - BMC",26-02-2026 08:00:00,19.060498,72.923356,NO2,9,28,16
India,Maharashtra,Mumbai,"Shivaji Nagar, Mumbai - BMC",26-02-2026 08:00:00,19.060498,72.923356,SO2,1,11,6
India,Maharashtra,Mumbai,"Shivaji Nagar, Mumbai - BMC",26-02-2026 08:00:00,19.060498,72.923356,CO,13,42,26
India,Maharashtra,Mumbai,"Siddharth Nagar-Worli, Mumbai - IITM",26-02-2026 08:00:00,19.000083,72.813993,NH3,3,4,3
India,Maharashtra,Mumbai,"Sion, Mumbai - MPCB",26-02-2026 08:00:00,19.047000,72.874600,NH3,NA,NA,NA
India,Maharashtra,Mumbai,"Kherwadi_Bandra East, Mumbai - MPCB",26-02-2026 08:00:00,19.0632143,72.8456324,PM10,36,124,72
India,Maharashtra,Mumbai,"Kherwadi_Bandra East, Mumbai - MPCB",26-02-2026 08:00:00,19.0632143,72.8456324,OZONE,1,46,3
India,Maharashtra,Mumbai,"Khindipada-Bhandup West, Mumbai - IITM",26-02-2026 08:00:00,19.1653323,72.922099,PM10,35,73,53
India,Maharashtra,Mumbai,"Khindipada-Bhandup West, Mumbai - IITM",26-02-2026 08:00:00,19.1653323,72.922099,NH3,3,4,4
India,Maharashtra,Mumbai,"Mindspace-Malad West, Mumbai - MPCB",26-02-2026 08:00:00,19.1878657,72.8304069,PM2.5,16,85,43
India,Maharashtra,Mumbai,"Mindspace-Malad West, Mumbai - MPCB",26-02-2026 08:00:00,19.1878657,72.8304069,OZONE,5,15,6
India,Maharashtra,Mumbai,"Mulund West, Mumbai - MPCB",26-02-2026 08:00:00,19.1750,72.9419,PM2.5,13,97,44
India,Maharashtra,Mumbai,"Vile Parle West, Mumbai - MPCB",26-02-2026 08:00:00,19.10861,72.83622,CO,22,23,22
India,Maharashtra,Mumbai,"Worli, Mumbai -MPCB",26-02-2026 08:00:00,18.9942180,72.8158167,OZONE,14,66,26
India,Maharashtra,Nagpur,"Mahal, Nagpur - MPCB",26-02-2026 08:00:00,21.14472,79.107595,NH3,8,13,10
India,Maharashtra,Nagpur,"Mahal, Nagpur - MPCB",26-02-2026 08:00:00,21.14472,79.107595,CO,30,172,52
India,Maharashtra,Nagpur,"Opp GPO Civil Lines, Nagpur - MPCB",26-02-2026 08:00:00,21.152875,79.0517531,SO2,9,54,22
India,Maharashtra,Nagpur,"Ram Nagar, Nagpur - MPCB",26-02-2026 08:00:00,21.143383,79.048912,PM2.5,47,154,99
India,Maharashtra,Malegaon,"Mahesh Nagar, Malegaon - MPCB",26-02-2026 08:00:00,20.555712,74.529236,NH3,NA,NA,NA
India,Maharashtra,Malegaon,"Mahesh Nagar, Malegaon - MPCB",26-02-2026 08:00:00,20.555712,74.529236,CO,6,40,7
India,Maharashtra,Mira-Bhayandar,"Bhayandar West, Mira-Bhayandar - MPCB",26-02-2026 08:00:00,19.296481,72.840923,PM2.5,4,95,39
India,Maharashtra,Mumbai,"Bandra Kurla Complex, Mumbai - IITM",26-02-2026 08:00:00,19.053536,72.84643,PM10,55,161,95
India,Maharashtra,Mumbai,"Bandra Kurla Complex, Mumbai - IITM",26-02-2026 08:00:00,19.053536,72.84643,NH3,11,28,18
India,Maharashtra,Mumbai,"Bandra Kurla Complex, Mumbai - IITM",26-02-2026 08:00:00,19.053536,72.84643,SO2,2,8,5
India,Maharashtra,Mumbai,"Bandra Kurla Complex, Mumbai - MPCB",26-02-2026 08:00:00,19.065931,72.862131,NH3,NA,NA,NA
India,Maharashtra,Mumbai,"Borivali East, Mumbai - MPCB",26-02-2026 08:00:00,19.2243333,72.8658113,NO2,NA,NA,NA
India,Maharashtra,Mumbai,"Chakala-Andheri East, Mumbai - IITM",26-02-2026 08:00:00,19.11074,72.86084,PM10,58,142,88
India,Odisha,Tensa,"Barsua Iron Ore Mines, Tensa - OSPCB",26-02-2026 08:00:00,21.869985,85.167016,CO,30,51,30
India,Puducherry,Puducherry,"Jawahar Nagar, Puducherry - PPCC",26-02-2026 08:00:00,11.9309,79.8027,PM2.5,12,90,35
India,Puducherry,Puducherry,"Jawahar Nagar, Puducherry - PPCC",26-02-2026 08:00:00,11.9309,79.8027,NH3,2,5,3
India,Punjab,Amritsar,"Golden Temple, Amritsar - PPCB",26-02-2026 08:00:00,31.620000,74.876512,PM2.5,45,108,75
India,Punjab,Amritsar,"Golden Temple, Amritsar - PPCB",26-02-2026 08:00:00,31.620000,74.876512,PM10,62,128,100
India,Punjab,Amritsar,"Golden Temple, Amritsar - PPCB",26-02-2026 08:00:00,31.620000,74.876512,NO2,5,23,9
India,Punjab,Amritsar,"Golden Temple, Amritsar - PPCB",26-02-2026 08:00:00,31.620000,74.876512,SO2,12,31,21
India,Punjab,Amritsar,"Golden Temple, Amritsar - PPCB",26-02-2026 08:00:00,31.620000,74.876512,CO,24,61,46
India,Punjab,Amritsar,"Golden Temple, Amritsar - PPCB",26-02-2026 08:00:00,31.620000,74.876512,OZONE,31,47,40
India,Punjab,Jalandhar,"Civil Line, Jalandhar - PPCB",26-02-2026 08:00:00,31.321907,75.578914,PM2.5,43,228,77
India,Punjab,Jalandhar,"Civil Line, Jalandhar - PPCB",26-02-2026 08:00:00,31.321907,75.578914,PM10,70,198,102
India,Punjab,Jalandhar,"Civil Line, Jalandhar - PPCB",26-02-2026 08:00:00,31.321907,75.578914,NH3,2,3,3
India,Punjab,Khanna,"Kalal Majra, Khanna - PPCB",26-02-2026 08:00:00,30.736056 ,76.209694,PM2.5,60,129,94
India,Punjab,Khanna,"Kalal Majra, Khanna - PPCB",26-02-2026 08:00:00,30.736056 ,76.209694,CO,22,89,27
India,Punjab,Khanna,"Kalal Majra, Khanna - PPCB",26-02-2026 08:00:00,30.736056 ,76.209694,OZONE,19,41,20
India,Punjab,Ludhiana,"Punjab Agricultural University, Ludhiana - PPCB",26-02-2026 08:00:00,30.9028,75.8086,PM10,90,124,109
India,Meghalaya,Shillong,"JN Stadium, Shillong - Meghalaya PCB",26-02-2026 08:00:00,25.5803419,91.8942571,NH3,14,21,16
India,Meghalaya,Shillong,"JN Stadium, Shillong - Meghalaya PCB",26-02-2026 08:00:00,25.5803419,91.8942571,SO2,23,31,28
India,Meghalaya,Shillong,"Lumpyngngad, Shillong - Meghalaya PCB",26-02-2026 08:00:00,25.5586,91.8985,PM10,NA,NA,NA
India,Meghalaya,Shillong,"Lumpyngngad, Shillong - Meghalaya PCB",26-02-2026 08:00:00,25.5586,91.8985,CO,6,57,8
India,Mizoram,Aizawl,"Sikulpuikawn, Aizawl - Mizoram PCB",26-02-2026 08:00:00,23.7176342,92.7192841,PM2.5,55,61,57
India,Mizoram,Aizawl,"Sikulpuikawn, Aizawl - Mizoram PCB",26-02-2026 08:00:00,23.7176342,92.7192841,SO2,17,18,17
India,Nagaland,Kohima,"PWD Junction, Kohima - NPCB",26-02-2026 08:00:00,25.6635413,94.0989878,PM2.5,37,99,62
India,Nagaland,Kohima,"PWD Junction, Kohima - NPCB",26-02-2026 08:00:00,25.6635413,94.0989878,PM10,35,94,58
India,Nagaland,Kohima,"PWD Junction, Kohima - NPCB",26-02-2026 08:00:00,25.6635413,94.0989878,CO,6,15,8
India,Odisha,Angul,"Hakimapada, Angul - OSPCB",26-02-2026 08:00:00,20.832874,85.104082,PM10,111,245,166
India,Odisha,Angul,"Hakimapada, Angul - OSPCB",26-02-2026 08:00:00,20.832874,85.104082,SO2,12,45,22
India,Odisha,Barbil,"Forest Office, Barbil - OSPCB",26-02-2026 08:00:00,22.1166054,85.3945546,PM2.5,33,301,92
India,Maharashtra,Navi Mumbai,"Tondare-Taloja, Navi Mumbai - MPCB",26-02-2026 08:00:00,19.0630,73.1209,NO2,6,59,23
India,Maharashtra,Parbhani,"Masoom Colony, Parbhani - MPCB",26-02-2026 08:00:00,19.265594,76.761463,NH3,3,5,4
India,Maharashtra,Pimpri-Chinchwad,"Park Street Wakad, Pimpri Chinchwad - MPCB",26-02-2026 08:00:00,18.59051,73.77946,PM10,71,114,90
India,Maharashtra,Pimpri-Chinchwad,"Park Street Wakad, Pimpri Chinchwad - MPCB",26-02-2026 08:00:00,18.59051,73.77946,NH3,3,6,4
India,Maharashtra,Pimpri-Chinchwad,"Park Street Wakad, Pimpri Chinchwad - MPCB",26-02-2026 08:00:00,18.59051,73.77946,OZONE,1,119,2
India,Maharashtra,Pimpri-Chinchwad,"Savta Mali Nagar, Pimpri-Chinchwad - IITM",26-02-2026 08:00:00,18.614767,73.799516,NO2,17,103,46
India,Maharashtra,Pimpri-Chinchwad,"Savta Mali Nagar, Pimpri-Chinchwad - IITM",26-02-2026 08:00:00,18.614767,73.799516,CO,44,108,90
India,Maharashtra,Pimpri-Chinchwad,"Thergaon, Pimpri Chinchwad - MPCB",26-02-2026 08:00:00,18.616318,73.765797,PM2.5,35,112,58
India,Maharashtra,Pimpri-Chinchwad,"Thergaon, Pimpri Chinchwad - MPCB",26-02-2026 08:00:00,18.616318,73.765797,NO2,17,77,42
India,Odisha,Rairangpur,"Divisional Forest Office, Rairangpur - OSPCB",26-02-2026 08:00:00,22.265816,86.174829,OZONE,4,43,7
India,Odisha,Rourkela,"Raghunathpali, Rourkela - OSPCB",26-02-2026 08:00:00,22.220833,84.809444,PM2.5,45,103,75
India,Odisha,Rourkela,"Raghunathpali, Rourkela - OSPCB",26-02-2026 08:00:00,22.220833,84.809444,NH3,1,2,2
India,Odisha,Rourkela,"Sector-2, Rourkela - OSPCB",26-02-2026 08:00:00,22.24500000,84.88111111,PM2.5,39,80,53
India,Odisha,Suakati,"OMC Colony, Suakati - OSPCB",26-02-2026 08:00:00,21.606865,85.510538,PM10,55,138,109
India,Odisha,Suakati,"OMC Colony, Suakati - OSPCB",26-02-2026 08:00:00,21.606865,85.510538,NH3,7,7,7
India,Odisha,Suakati,"OMC Colony, Suakati - OSPCB",26-02-2026 08:00:00,21.606865,85.510538,OZONE,23,118,42
India,Odisha,Talcher,"Talcher Coalfields,Talcher - OSPCB",26-02-2026 08:00:00,20.9360711,85.1707021,NH3,6,9,7
India,Odisha,Talcher,"Talcher Coalfields,Talcher - OSPCB",26-02-2026 08:00:00,20.9360711,85.1707021,CO,6,52,24
India,Odisha,Byasanagar,"Ferro Chrome Colony, Byasanagar - OSPCB",26-02-2026 08:00:00,20.94185,86.11510,OZONE,18,170,50
India,Odisha,Cuttack,"CDA Area, Cuttack - OSPCB",26-02-2026 08:00:00,20.48891     ,85.84768     ,PM10,82,135,109
India,Odisha,Cuttack,"CDA Area, Cuttack - OSPCB",26-02-2026 08:00:00,20.48891     ,85.84768     ,NH3,5,7,6
India,Odisha,Keonjhar,"Jagamohanpur, Keonjhar - OSPCB",26-02-2026 08:00:00,21.643900,85.599355,PM10,40,115,77
India,Odisha,Nayagarh,"Dabuna, Nayagarh - OSPCB",26-02-2026 08:00:00,21.847279,85.416905,OZONE,8,140,9
India,Odisha,Rairangpur,"Divisional Forest Office, Rairangpur - OSPCB",26-02-2026 08:00:00,22.265816,86.174829,NO2,11,12,11
India,Maharashtra,Pune,"Revenue Colony-Shivajinagar, Pune - IITM",26-02-2026 08:00:00,18.530085,73.849598,PM10,NA,NA,NA
India,Maharashtra,Pune,"Revenue Colony-Shivajinagar, Pune - IITM",26-02-2026 08:00:00,18.530085,73.849598,CO,45,86,58
India,Maharashtra,Pune,"Savitribai Phule Pune University, Pune - MPCB",26-02-2026 08:00:00,18.547056,73.826908,PM10,41,112,71
India,Maharashtra,Pune,"Savitribai Phule Pune University, Pune - MPCB",26-02-2026 08:00:00,18.547056,73.826908,CO,8,66,36
India,Maharashtra,Pune,"Transport Nagar-Nigdi, Pune - IITM",26-02-2026 08:00:00,18.664282,73.763966,PM10,32,124,66
India,Maharashtra,Pune,"Transport Nagar-Nigdi, Pune - IITM",26-02-2026 08:00:00,18.664282,73.763966,OZONE,2,38,5
India,Maharashtra,Solapur,"Dnyaneshwar Nagar, Solapur - MPCB",26-02-2026 08:00:00,17.6336264,75.9132495,OZONE,14,80,26
India,Maharashtra,Solapur,"Ratandeep Housing Society, Solapur - MPCB",26-02-2026 08:00:00,17.65439,75.90649,NO2,13,138,53
India,Maharashtra,Thane,"Kasarvadavali, Thane - MPCB",26-02-2026 08:00:00,19.26777,72.97182,PM2.5,12,100,58
India,Maharashtra,Ulhasnagar,"Sidhi Vinayak Nagar, Ulhasnagar - MPCB",26-02-2026 08:00:00,19.235581,73.159121,PM10,48,172,92
India,Maharashtra,Ulhasnagar,"Sidhi Vinayak Nagar, Ulhasnagar - MPCB",26-02-2026 08:00:00,19.235581,73.159121,NH3,4,9,6
India,Maharashtra,Virar,"Bolinj, Virar - MPCB",26-02-2026 08:00:00,19.4458210,72.7988231,PM10,26,257,97
India,Maharashtra,Pune,"Bhosari, Pune - IITM",26-02-2026 08:00:00,18.640051,73.848956,OZONE,1,67,2
India,Maharashtra,Pune,"Hadapsar, Pune - IITM",26-02-2026 08:00:00,18.501793,73.927532,NO2,40,187,113
India,Maharashtra,Pune,"Hadapsar, Pune - IITM",26-02-2026 08:00:00,18.501793,73.927532,CO,6,108,32
India,Maharashtra,Pune,"Katraj Dairy, Pune - MPCB",26-02-2026 08:00:00,18.454450,73.854155,NH3,2,7,3
India,Maharashtra,Pune,"Panchawati_Pashan, Pune - IITM",26-02-2026 08:00:00,18.536457,73.805454,NO2,5,36,13
India,Odisha,Barbil,"Forest Office, Barbil - OSPCB",26-02-2026 08:00:00,22.1166054,85.3945546,OZONE,18,158,21
India,Odisha,Baripada,"Meher Colony, Baripada - OSPCB",26-02-2026 08:00:00,21.941841,86.728318,PM2.5,50,127,80
India,Rajasthan,Jaisalmer,"Sadar Bazar, Jaisalmer - RSPCB",26-02-2026 08:00:00,26.912329,70.909168,NO2,3,66,27
India,Rajasthan,Jalore,"Mudtra Sili, Jalore - RSPCB",26-02-2026 08:00:00,25.344694,72.626208,PM10,50,263,131
India,Rajasthan,Jalore,"Mudtra Sili, Jalore - RSPCB",26-02-2026 08:00:00,25.344694,72.626208,OZONE,1,75,9
India,Rajasthan,Jhalawar,"Rajlaxmi Nagar, Jhalawar - RSPCB",26-02-2026 08:00:00,24.588397,76.172782,PM10,46,155,79
India,Rajasthan,Jhalawar,"Rajlaxmi Nagar, Jhalawar - RSPCB",26-02-2026 08:00:00,24.588397,76.172782,CO,18,112,38
India,Rajasthan,Jhunjhunu,"Indra Nagar, Jhunjhunu - RSPCB",26-02-2026 08:00:00,28.108988,75.386577,PM2.5,22,220,62
India,Rajasthan,Jhunjhunu,"Indra Nagar, Jhunjhunu - RSPCB",26-02-2026 08:00:00,28.108988,75.386577,PM10,45,230,110
India,Rajasthan,Jhunjhunu,"Indra Nagar, Jhunjhunu - RSPCB",26-02-2026 08:00:00,28.108988,75.386577,NH3,6,13,8
India,Rajasthan,Jhunjhunu,"Indra Nagar, Jhunjhunu - RSPCB",26-02-2026 08:00:00,28.108988,75.386577,CO,15,52,31
India,Rajasthan,Jhunjhunu,"Indra Nagar, Jhunjhunu - RSPCB",26-02-2026 08:00:00,28.108988,75.386577,OZONE,11,122,33
India,Rajasthan,Jodhpur,"Collectorate, Jodhpur - RSPCB",26-02-2026 08:00:00,26.268249,73.0193853,NH3,9,34,21
India,Rajasthan,Jodhpur,"Collectorate, Jodhpur - RSPCB",26-02-2026 08:00:00,26.268249,73.0193853,CO,5,121,89
India,Rajasthan,Jodhpur,"Digari Kalan, Jodhpur - RSPCB",26-02-2026 08:00:00,26.295810,73.082283,PM10,44,411,156
India,Rajasthan,Pratapgarh,"Pragati Nagar, Pratapgarh - RSPCB",26-02-2026 08:00:00,24.041198,74.780702,OZONE,20,106,45
India,Rajasthan,Rajsamand,"Dhoinda, Rajsamand - RSPCB",26-02-2026 08:00:00,25.036360,73.883502,NO2,13,72,30
India,Rajasthan,Sawai Madhopur,"Sahu Nagar, Sawai Madhopur - RSPCB",26-02-2026 08:00:00,26.031443,76.359327,NO2,5,102,34
India,Rajasthan,Sawai Madhopur,"Sahu Nagar, Sawai Madhopur - RSPCB",26-02-2026 08:00:00,26.031443,76.359327,SO2,7,15,9
India,Rajasthan,Sawai Madhopur,"Sahu Nagar, Sawai Madhopur - RSPCB",26-02-2026 08:00:00,26.031443,76.359327,CO,8,111,36
India,Rajasthan,Sawai Madhopur,"Sahu Nagar, Sawai Madhopur - RSPCB",26-02-2026 08:00:00,26.031443,76.359327,OZONE,4,178,18
India,Rajasthan,Sikar,"Radhakishan Pura, Sikar - RSPCB",26-02-2026 08:00:00,27.608912,75.153302,PM2.5,28,240,71
India,Rajasthan,Sikar,"Radhakishan Pura, Sikar - RSPCB",26-02-2026 08:00:00,27.608912,75.153302,SO2,2,11,5
India,Rajasthan,Sikar,"Radhakishan Pura, Sikar - RSPCB",26-02-2026 08:00:00,27.608912,75.153302,OZONE,21,115,41
India,Rajasthan,Sirohi,"Vedhaynath Colony, Sirohi - RSPCB",26-02-2026 08:00:00,24.885261,72.857549,OZONE,4,69,37
India,Rajasthan,Kota,"Dhanmandi, Kota - RSPCB",26-02-2026 08:00:00,25.164090,75.858137,NH3,6,9,7
India,Rajasthan,Kota,"Dhanmandi, Kota - RSPCB",26-02-2026 08:00:00,25.164090,75.858137,SO2,2,8,4
India,Rajasthan,Kota,"Shrinath Puram, Kota - RSPCB",26-02-2026 08:00:00,25.14389,75.821256,PM2.5,62,145,94
India,Rajasthan,Kota,"Shrinath Puram, Kota - RSPCB",26-02-2026 08:00:00,25.14389,75.821256,NH3,3,10,5
India,Rajasthan,Nagaur,"Karni Colony, Nagaur - RSPCB",26-02-2026 08:00:00,27.213494,73.734444,PM10,46,171,95
India,Rajasthan,Nagaur,"Karni Colony, Nagaur - RSPCB",26-02-2026 08:00:00,27.213494,73.734444,OZONE,39,98,62
India,Rajasthan,Pali,"Indira Colony Vistar, Pali - RSPCB",26-02-2026 08:00:00,25.771061, 73.340227,CO,6,72,50
India,Rajasthan,Pratapgarh,"Pragati Nagar, Pratapgarh - RSPCB",26-02-2026 08:00:00,24.041198,74.780702,PM10,65,192,97
India,Rajasthan,Pratapgarh,"Pragati Nagar, Pratapgarh - RSPCB",26-02-2026 08:00:00,24.041198,74.780702,NO2,12,82,28
India,Rajasthan,Pratapgarh,"Pragati Nagar, Pratapgarh - RSPCB",26-02-2026 08:00:00,24.041198,74.780702,SO2,3,8,5
India,Rajasthan,Jaipur,"Mansarovar Sector-12, Jaipur - RSPCB",26-02-2026 08:00:00,26.843698,75.766894,PM2.5,25,197,68
India,Rajasthan,Jaipur,"Mansarovar Sector-12, Jaipur - RSPCB",26-02-2026 08:00:00,26.843698,75.766894,NH3,6,10,8
India,Rajasthan,Jaipur,"Mansarovar Sector-12, Jaipur - RSPCB",26-02-2026 08:00:00,26.843698,75.766894,CO,22,112,38
India,Rajasthan,Jaipur,"Mansarovar Sector-12, Jaipur - RSPCB",26-02-2026 08:00:00,26.843698,75.766894,OZONE,3,154,43
India,Rajasthan,Jaipur,"Police Commissionerate, Jaipur - RSPCB",26-02-2026 08:00:00,26.9164092,75.7994901,SO2,20,32,28
India,Rajasthan,Jaipur,"RIICO Sitapura, Jaipur - RSPCB",26-02-2026 08:00:00,26.786682,75.827928,PM10,55,411,146
India,Rajasthan,Jaipur,"Sector-2 Murlipura, Jaipur - RSPCB",26-02-2026 08:00:00,26.960669,75.771817,CO,3,107,20
India,Rajasthan,Jaipur,"Shastri Nagar, Jaipur - RSPCB",26-02-2026 08:00:00,26.9502929,75.730943,PM10,74,154,105
India,Rajasthan,Jaipur,"Shastri Nagar, Jaipur - RSPCB",26-02-2026 08:00:00,26.9502929,75.730943,CO,10,105,39
India,Punjab,Mandi Gobindgarh,"RIMT University, Mandi Gobindgarh - PPCB",26-02-2026 08:00:00,30.649961,76.331442,NO2,NA,NA,NA
India,Punjab,Rupnagar,"Ratanpura, Rupnagar - Ambuja Cements",26-02-2026 08:00:00,31.0325454,76.5623046,CO,26,33,30
India,Rajasthan,Ajmer,"Civil Lines,  Ajmer - RSPCB",26-02-2026 08:00:00,26.470859,74.646594,SO2,3,6,4
India,Rajasthan,Ajmer,"Civil Lines,  Ajmer - RSPCB",26-02-2026 08:00:00,26.470859,74.646594,OZONE,5,34,8
India,Rajasthan,Alwar,"Moti Doongri, Alwar - RSPCB",26-02-2026 08:00:00,27.554793,76.611536,PM10,100,165,124
India,Rajasthan,Alwar,"Moti Doongri, Alwar - RSPCB",26-02-2026 08:00:00,27.554793,76.611536,NH3,8,19,12
India,Rajasthan,Banswara,"Rati Talai, Banswara - RSPCB",26-02-2026 08:00:00,23.555190,74.440010,PM2.5,28,92,46
India,Rajasthan,Churu,"Subash Chowk, Churu - RSPCB",26-02-2026 08:00:00,28.296139,74.961696,CO,20,46,35
India,Rajasthan,Churu,"Subash Chowk, Churu - RSPCB",26-02-2026 08:00:00,28.296139,74.961696,OZONE,42,105,52
India,Rajasthan,Dausa,"Khatikan Mohalla, Dausa - RSPCB",26-02-2026 08:00:00,26.895552,76.334753,NO2,22,177,69
India,Rajasthan,Dausa,"Khatikan Mohalla, Dausa - RSPCB",26-02-2026 08:00:00,26.895552,76.334753,SO2,4,23,7
India,Rajasthan,Dungarpur,"Bhoiwada, Dungarpur - RSPCB",26-02-2026 08:00:00,23.837789,73.714926,PM10,50,176,101
India,Rajasthan,Dungarpur,"Bhoiwada, Dungarpur - RSPCB",26-02-2026 08:00:00,23.837789,73.714926,SO2,5,11,7
India,Rajasthan,Dungarpur,"Bhoiwada, Dungarpur - RSPCB",26-02-2026 08:00:00,23.837789,73.714926,OZONE,5,64,10
India,Rajasthan,Hanumangarh,"Housing Board, Hanumangarh - RSPCB",26-02-2026 08:00:00,29.610750,74.283608,PM2.5,13,82,45
India,Rajasthan,Hanumangarh,"Housing Board, Hanumangarh - RSPCB",26-02-2026 08:00:00,29.610750,74.283608,NO2,13,70,33
India,Rajasthan,Bhiwadi,"RIICO Ind. Area III, Bhiwadi - RSPCB",26-02-2026 08:00:00,28.194909,76.862296,NH3,5,18,11
India,Rajasthan,Bhiwadi,"Vasundhara Nagar_UIT, Bhiwadi - RSPCB",26-02-2026 08:00:00,28.207266,76.829265,CO,26,128,93
India,Rajasthan,Churu,"Subash Chowk, Churu - RSPCB",26-02-2026 08:00:00,28.296139,74.961696,PM10,49,421,118
India,Rajasthan,Churu,"Subash Chowk, Churu - RSPCB",26-02-2026 08:00:00,28.296139,74.961696,NO2,12,32,22
India,Rajasthan,Banswara,"Rati Talai, Banswara - RSPCB",26-02-2026 08:00:00,23.555190,74.440010,NO2,14,97,38
India,Rajasthan,Bharatpur,"Krishna Nagar, Bharatpur - RSPCB",26-02-2026 08:00:00,27.215415,77.50873,PM10,74,192,122
India,Rajasthan,Bharatpur,"Krishna Nagar, Bharatpur - RSPCB",26-02-2026 08:00:00,27.215415,77.50873,SO2,5,30,14
India,Rajasthan,Bhilwara,"Pratap Nagar, Bhilwara - RSPCB",26-02-2026 08:00:00,25.339605,74.618883,OZONE,1,59,5
India,Rajasthan,Jodhpur,"Mandor, Jodhpur - RSPCB",26-02-2026 08:00:00,26.358805,73.047444,PM2.5,12,100,49
India,Rajasthan,Jodhpur,"Samrat Ashok Udhyan, Jodhpur - RSPCB",26-02-2026 08:00:00,26.253384,72.976571,PM10,45,458,173
India,Rajasthan,Jodhpur,"Samrat Ashok Udhyan, Jodhpur - RSPCB",26-02-2026 08:00:00,26.253384,72.976571,SO2,3,26,7
India,Rajasthan,Karauli,"Satyawati Vihar, Karauli - RSPCB",26-02-2026 08:00:00,26.506177,77.025989,CO,4,88,28
India,TamilNadu,Coimbatore,"SIDCO Kurichi, Coimbatore - TNPCB",26-02-2026 08:00:00,10.942451,76.978996,CO,10,18,14
India,TamilNadu,Gummidipoondi,"Anthoni Pillai Nagar, Gummidipoondi - TNPCB",26-02-2026 08:00:00,13.4127,80.1081,SO2,8,29,20
India,TamilNadu,Perundurai,"SIPCOT Industrial Park, Perundurai - TNPCB",26-02-2026 08:00:00,11.258242,77.552761,NH3,2,3,2
India,TamilNadu,Thoothukudi,"Meelavittan, Thoothukudi - TNPCB",26-02-2026 08:00:00,8.816428 ,78.099039,PM10,15,62,34
India,TamilNadu,Thoothukudi,"Meelavittan, Thoothukudi - TNPCB",26-02-2026 08:00:00,8.816428 ,78.099039,OZONE,28,34,30
India,Telangana,Hyderabad,"Bollaram Industrial Area, Hyderabad - TSPCB",26-02-2026 08:00:00,17.540891,78.358528,PM10,NA,NA,NA
India,Telangana,Hyderabad,"Bollaram Industrial Area, Hyderabad - TSPCB",26-02-2026 08:00:00,17.540891,78.358528,NH3,1,5,3
India,Telangana,Hyderabad,"Bollaram Industrial Area, Hyderabad - TSPCB",26-02-2026 08:00:00,17.540891,78.358528,SO2,2,8,6
India,Telangana,Hyderabad,"ECIL Kapra, Hyderabad - TSPCB",26-02-2026 08:00:00,17.470431,78.566959,PM10,67,94,76
India,Uttar_Pradesh,Ghaziabad,"Vasundhara, Ghaziabad - UPPCB",26-02-2026 08:00:00,28.6603346,77.3572563,PM10,124,337,197
India,Uttar_Pradesh,Ghaziabad,"Vasundhara, Ghaziabad - UPPCB",26-02-2026 08:00:00,28.6603346,77.3572563,NO2,24,138,74
India,Uttar_Pradesh,Greater Noida,"Knowledge Park - III, Greater Noida - UPPCB",26-02-2026 08:00:00,28.47272,77.482000,PM2.5,37,290,140
India,Uttar_Pradesh,Greater Noida,"Knowledge Park - III, Greater Noida - UPPCB",26-02-2026 08:00:00,28.47272,77.482000,NH3,6,17,11
India,Uttar_Pradesh,Greater Noida,"Knowledge Park - III, Greater Noida - UPPCB",26-02-2026 08:00:00,28.47272,77.482000,SO2,6,18,11
India,Uttar_Pradesh,Greater Noida,"Knowledge Park - III, Greater Noida - UPPCB",26-02-2026 08:00:00,28.47272,77.482000,OZONE,4,135,6
India,Uttar_Pradesh,Greater Noida,"Knowledge Park - V, Greater Noida - UPPCB",26-02-2026 08:00:00,28.557054,77.453663,SO2,14,24,17
India,Uttar_Pradesh,Hapur,"Anand Vihar, Hapur - UPPCB",26-02-2026 08:00:00,28.725645,77.749675,NH3,6,11,8
India,Uttar_Pradesh,Jhansi,"Shivaji Nagar, Jhansi - UPPCB",26-02-2026 08:00:00,25.4547,78.6039,PM2.5,12,80,42
India,TamilNadu,Chennai,"Manali, Chennai - CPCB",26-02-2026 08:00:00,13.164544,80.26285,NH3,NA,NA,NA
India,TamilNadu,Chennai,"Manali, Chennai - CPCB",26-02-2026 08:00:00,13.164544,80.26285,CO,12,101,40
India,TamilNadu,Chennai,"Perungudi, Chennai - TNPCB",26-02-2026 08:00:00,12.9533,80.2357,NO2,3,18,6
India,TamilNadu,Chennai,"Royapuram, Chennai - TNPCB",26-02-2026 08:00:00,13.1036,80.2909,NO2,1,4,1
India,TamilNadu,Chennai,"Royapuram, Chennai - TNPCB",26-02-2026 08:00:00,13.1036,80.2909,OZONE,16,18,16
India,TamilNadu,Chennai,"Velachery Res. Area, Chennai - CPCB",26-02-2026 08:00:00,13.0052189,80.2398125,PM2.5,NA,NA,NA
India,TamilNadu,Chennai,"Velachery Res. Area, Chennai - CPCB",26-02-2026 08:00:00,13.0052189,80.2398125,NO2,NA,NA,NA
India,TamilNadu,Chennai,"Velachery Res. Area, Chennai - CPCB",26-02-2026 08:00:00,13.0052189,80.2398125,NH3,NA,NA,NA
India,TamilNadu,Coimbatore,"PSG College of Arts and Science, Coimbatore - TNPCB",26-02-2026 08:00:00,11.0328,77.0349,PM10,63,138,104
India,TamilNadu,Coimbatore,"PSG College of Arts and Science, Coimbatore - TNPCB",26-02-2026 08:00:00,11.0328,77.0349,OZONE,4,6,5
India,Uttar_Pradesh,Bulandshahr,"Yamunapuram, Bulandshahr - UPPCB",26-02-2026 08:00:00,28.406963,77.849831,NO2,20,119,72
India,Uttar_Pradesh,Bulandshahr,"Yamunapuram, Bulandshahr - UPPCB",26-02-2026 08:00:00,28.406963,77.849831,NH3,7,15,10
India,Uttar_Pradesh,Firozabad,"Nagla Bhau, Firozabad - UPPCB",26-02-2026 08:00:00,27.168897,78.376960,NO2,17,17,17
India,Uttar_Pradesh,Firozabad,"Nagla Bhau, Firozabad - UPPCB",26-02-2026 08:00:00,27.168897,78.376960,SO2,18,61,33
India,Uttar_Pradesh,Firozabad,"Nagla Bhau, Firozabad - UPPCB",26-02-2026 08:00:00,27.168897,78.376960,CO,16,55,18
India,Uttar_Pradesh,Firozabad,"Nagla Bhau, Firozabad - UPPCB",26-02-2026 08:00:00,27.168897,78.376960,OZONE,7,23,8
India,Uttar_Pradesh,Firozabad,"Vibhab Nagar, Firozabad - UPPCB",26-02-2026 08:00:00,27.1594,78.3953,PM10,30,100,48
India,Uttar_Pradesh,Ghaziabad,"Indirapuram, Ghaziabad - UPPCB",26-02-2026 08:00:00,28.646233,77.358075,CO,33,60,43
India,Uttar_Pradesh,Ghaziabad,"Loni, Ghaziabad - UPPCB",26-02-2026 08:00:00,28.757294,77.278792,OZONE,5,100,8
India,Telangana,Hyderabad,"ICRISAT Patancheru, Hyderabad - TSPCB",26-02-2026 08:00:00,17.518400,78.278777,PM10,41,135,83
India,Telangana,Hyderabad,"ICRISAT Patancheru, Hyderabad - TSPCB",26-02-2026 08:00:00,17.518400,78.278777,OZONE,1,97,1
India,Telangana,Hyderabad,"IDA Pashamylaram, Hyderabad - TSPCB",26-02-2026 08:00:00,17.5316895,78.218939,NO2,6,7,7
India,Telangana,Hyderabad,"IDA Pashamylaram, Hyderabad - TSPCB",26-02-2026 08:00:00,17.5316895,78.218939,NH3,1,1,1
India,Telangana,Hyderabad,"IITH Kandi, Hyderabad - TSPCB",26-02-2026 08:00:00,17.585705,78.126199,NO2,13,16,14
India,Telangana,Hyderabad,"Kokapet, Hyderabad - TSPCB",26-02-2026 08:00:00,17.393559,78.339194,PM2.5,48,71,58
India,Telangana,Hyderabad,"Kompally Municipal Office, Hyderabad - TSPCB",26-02-2026 08:00:00,17.544899,78.486949,NO2,15,16,16
India,Rajasthan,Tonk,"Shastri Nagar, Tonk - RSPCB",26-02-2026 08:00:00,26.159933,75.780517,SO2,3,5,4
India,Rajasthan,Udaipur,"Ashok Nagar, Udaipur - RSPCB",26-02-2026 08:00:00,24.5886166,73.6321397,NH3,4,6,5
India,TamilNadu,Chennai,"Kodungaiyur, Chennai - TNPCB",26-02-2026 08:00:00,13.1278,80.2642,NH3,3,5,4
India,TamilNadu,Chennai,"Kodungaiyur, Chennai - TNPCB",26-02-2026 08:00:00,13.1278,80.2642,OZONE,26,34,30
India,TamilNadu,Chennai,"Manali Village, Chennai - TNPCB",26-02-2026 08:00:00,13.1662,80.2584,PM2.5,4,180,41
India,TamilNadu,Chennai,"Manali Village, Chennai - TNPCB",26-02-2026 08:00:00,13.1662,80.2584,PM10,6,208,71
India,TamilNadu,Chennai,"Manali Village, Chennai - TNPCB",26-02-2026 08:00:00,13.1662,80.2584,NO2,2,6,4
India,Telangana,Hyderabad,"Nacharam_TSIIC IALA, Hyderabad - TSPCB",26-02-2026 08:00:00,17.429398,78.569354,PM2.5,48,77,60
India,Telangana,Hyderabad,"Nacharam_TSIIC IALA, Hyderabad - TSPCB",26-02-2026 08:00:00,17.429398,78.569354,OZONE,15,33,15
India,Telangana,Hyderabad,"New Malakpet, Hyderabad - TSPCB",26-02-2026 08:00:00,17.37206,78.50864,NH3,3,3,3
India,Telangana,Hyderabad,"New Malakpet, Hyderabad - TSPCB",26-02-2026 08:00:00,17.37206,78.50864,OZONE,10,46,14
India,Telangana,Hyderabad,"Ramachandrapuram, Hyderabad - TSPCB",26-02-2026 08:00:00,17.528544,78.286195,PM2.5,39,57,46
India,Telangana,Hyderabad,"Somajiguda, Hyderabad - TSPCB",26-02-2026 08:00:00,17.417094,78.457437,PM10,84,94,87
India,Telangana,Hyderabad,"Somajiguda, Hyderabad - TSPCB",26-02-2026 08:00:00,17.417094,78.457437,NH3,3,4,3
India,Uttar_Pradesh,Agra,"Manoharpur, Agra - UPPCB",26-02-2026 08:00:00,27.23711,78.01936,NO2,26,30,26
India,Uttar_Pradesh,Agra,"Manoharpur, Agra - UPPCB",26-02-2026 08:00:00,27.23711,78.01936,NH3,5,6,5
India,Uttar_Pradesh,Agra,"Manoharpur, Agra - UPPCB",26-02-2026 08:00:00,27.23711,78.01936,SO2,5,8,6
India,Uttar_Pradesh,Agra,"Rohta, Agra - UPPCB",26-02-2026 08:00:00,27.106972,78.000111,NO2,14,14,14
India,Uttar_Pradesh,Agra,"Rohta, Agra - UPPCB",26-02-2026 08:00:00,27.106972,78.000111,CO,12,46,25
India,Uttar_Pradesh,Agra,"Sector-3B Avas Vikas Colony, Agra - UPPCB",26-02-2026 08:00:00,27.19412,77.96237,SO2,12,16,13
India,Uttar_Pradesh,Agra,"Sector-3B Avas Vikas Colony, Agra - UPPCB",26-02-2026 08:00:00,27.19412,77.96237,CO,5,51,33
India,Uttar_Pradesh,Agra,"Shahjahan Garden, Agra - UPPCB",26-02-2026 08:00:00,27.169338,78.03582,NH3,3,3,3
India,Uttar_Pradesh,Agra,"Shastripuram, Agra - UPPCB",26-02-2026 08:00:00,27.19862,77.92066,PM2.5,25,224,68
India,Uttar_Pradesh,Baghpat,"Sardar Patel Inter College, Baghpat - UPPCB",26-02-2026 08:00:00,28.964949,77.278761,NH3,2,5,3
India,Uttar_Pradesh,Baghpat,"Sardar Patel Inter College, Baghpat - UPPCB",26-02-2026 08:00:00,28.964949,77.278761,CO,32,78,44
India,Uttar_Pradesh,Prayagraj,"Jhunsi, Prayagraj - UPPCB",26-02-2026 08:00:00,25.425602,81.917152,NO2,6,6,6
India,Uttar_Pradesh,Prayagraj,"Jhunsi, Prayagraj - UPPCB",26-02-2026 08:00:00,25.425602,81.917152,SO2,21,93,37
India,Uttar_Pradesh,Prayagraj,"Jhunsi, Prayagraj - UPPCB",26-02-2026 08:00:00,25.425602,81.917152,OZONE,16,141,16
India,Uttar_Pradesh,Prayagraj,"Motilal Nehru NIT, Prayagraj - UPPCB",26-02-2026 08:00:00,25.494,81.863,PM2.5,20,61,41
India,Uttar_Pradesh,Prayagraj,"Nagar Nigam, Prayagraj - UPPCB",26-02-2026 08:00:00,25.44919916 ,81.82735986 ,PM10,17,86,59
India,Uttar_Pradesh,Prayagraj,"Nagar Nigam, Prayagraj - UPPCB",26-02-2026 08:00:00,25.44919916 ,81.82735986 ,NO2,5,5,5
India,Uttar_Pradesh,Prayagraj,"Nagar Nigam, Prayagraj - UPPCB",26-02-2026 08:00:00,25.44919916 ,81.82735986 ,NH3,2,12,7
India,Uttar_Pradesh,Raebareli," Indira Nagar, Raebareli - NTPC Unchahar",26-02-2026 08:00:00,26.207781,81.245571,NO2,15,24,19
India,Uttar_Pradesh,Raebareli," Indira Nagar, Raebareli - NTPC Unchahar",26-02-2026 08:00:00,26.207781,81.245571,CO,8,60,28
India,Uttar_Pradesh,Varanasi,"Ardhali Bazar, Varanasi - UPPCB",26-02-2026 08:00:00,25.3505986,82.9083074,NO2,40,43,42
India,Uttar_Pradesh,Varanasi,"Ardhali Bazar, Varanasi - UPPCB",26-02-2026 08:00:00,25.3505986,82.9083074,SO2,10,11,11
India,Uttar_Pradesh,Varanasi,"Ardhali Bazar, Varanasi - UPPCB",26-02-2026 08:00:00,25.3505986,82.9083074,OZONE,17,40,27
India,Uttar_Pradesh,Moradabad,"Transport Nagar, Moradabad - UPPCB",26-02-2026 08:00:00,28.802625,78.753728,OZONE,27,44,28
India,Uttar_Pradesh,Muzaffarnagar,"New Mandi, Muzaffarnagar - UPPCB",26-02-2026 08:00:00,29.4723508,77.7194031,PM10,104,175,133
India,Uttar_Pradesh,Muzaffarnagar,"New Mandi, Muzaffarnagar - UPPCB",26-02-2026 08:00:00,29.4723508,77.7194031,NH3,10,13,11
India,Uttar_Pradesh,Noida,"Sector - 125, Noida - UPPCB",26-02-2026 08:00:00,28.5447608,77.3231257,NH3,3,4,3
India,Uttar_Pradesh,Noida,"Sector - 125, Noida - UPPCB",26-02-2026 08:00:00,28.5447608,77.3231257,CO,37,129,60
India,Uttar_Pradesh,Noida,"Sector - 125, Noida - UPPCB",26-02-2026 08:00:00,28.5447608,77.3231257,OZONE,8,10,9
India,Uttar_Pradesh,Noida,"Sector - 62, Noida - IMD",26-02-2026 08:00:00,28.6245479,77.3577104,PM2.5,42,316,163
India,Uttar_Pradesh,Noida,"Sector - 62, Noida - IMD",26-02-2026 08:00:00,28.6245479,77.3577104,OZONE,16,99,20
India,Uttar_Pradesh,Noida,"Sector-1, Noida - UPPCB",26-02-2026 08:00:00,28.5898,77.3101,CO,49,108,83
India,Uttar_Pradesh,Noida,"Sector-116, Noida - UPPCB",26-02-2026 08:00:00,28.569230,77.393848,OZONE,6,84,8
India,West_Bengal,Asansol,"Asansol Court Area, Asansol - WBPCB",26-02-2026 08:00:00,23.685297,86.945968,NO2,NA,NA,NA
India,West_Bengal,Asansol,"Asansol Court Area, Asansol - WBPCB",26-02-2026 08:00:00,23.685297,86.945968,NH3,NA,NA,NA
India,West_Bengal,Asansol,"Evelyn Lodge, Asansol - WBPCB",26-02-2026 08:00:00,23.6979360,86.9443950,NH3,6,7,7
India,West_Bengal,Asansol,"Mahabir Colliery, Asansol - WBPCB",26-02-2026 08:00:00,23.6181830,87.1057180,PM2.5,31,196,116
India,West_Bengal,Asansol,"Trivenidevi Bhalotia College, Asansol - WBPCB",26-02-2026 08:00:00,23.616515,87.119133,CO,51,96,84
India,West_Bengal,Asansol,"Trivenidevi Bhalotia College, Asansol - WBPCB",26-02-2026 08:00:00,23.616515,87.119133,OZONE,7,61,12
India,West_Bengal,Barrackpore,"SVSPA Campus, Barrackpore - WBPCB",26-02-2026 08:00:00,22.7605581,88.3617589,NO2,14,46,25
India,West_Bengal,Durgapur,"Mahishkapur Road_B-Zone, Durgapur - WBPCB",26-02-2026 08:00:00,23.567923,87.306843,PM2.5,28,321,159
India,Uttar_Pradesh,Lucknow,"Kendriya Vidyalaya, Lucknow - CPCB",26-02-2026 08:00:00,26.906111,80.948222,NO2,25,30,29
India,Uttar_Pradesh,Lucknow,"Kendriya Vidyalaya, Lucknow - CPCB",26-02-2026 08:00:00,26.906111,80.948222,CO,10,112,48
India,Uttar_Pradesh,Lucknow,"Kukrail Picnic Spot-1, Lucknow - UPPCB",26-02-2026 08:00:00,26.90723,80.98579,SO2,39,44,41
India,Uttar_Pradesh,Lucknow,"Kukrail Picnic Spot-1, Lucknow - UPPCB",26-02-2026 08:00:00,26.90723,80.98579,CO,10,12,12
India,Uttar_Pradesh,Lucknow,"Talkatora District Industries Center, Lucknow - CPCB",26-02-2026 08:00:00,26.83399722,80.8917361,OZONE,9,44,13
India,Uttar_Pradesh,Meerut,"Ganga Nagar, Meerut - UPPCB",26-02-2026 08:00:00,28.999264,77.7590354,NO2,108,134,118
India,Uttar_Pradesh,Meerut,"Ganga Nagar, Meerut - UPPCB",26-02-2026 08:00:00,28.999264,77.7590354,OZONE,6,17,8
India,Uttar_Pradesh,Varanasi,"IESD Banaras Hindu University, Varanasi - UPPCB",26-02-2026 08:00:00,25.262326,82.995408,PM2.5,1,50,22
India,Uttar_Pradesh,Varanasi,"IESD Banaras Hindu University, Varanasi - UPPCB",26-02-2026 08:00:00,25.262326,82.995408,CO,8,22,12
India,Uttar_Pradesh,Varanasi,"Maldahiya, Varanasi - UPPCB",26-02-2026 08:00:00,25.32393,82.99687,NO2,1,2,1
India,Uttarakhand,Dehradun,"Doon University, Dehradun - UKPCB",26-02-2026 08:00:00,30.269444,78.044167,PM10,64,135,98
India,Uttarakhand,Dehradun,"Doon University, Dehradun - UKPCB",26-02-2026 08:00:00,30.269444,78.044167,SO2,1,3,2
India,Uttarakhand,Kashipur,"Govt. Girls Inter College, Kashipur - UKPCB",26-02-2026 08:00:00,29.2124114,78.9611753,PM10,74,112,97
India,West_Bengal,Durgapur,"Womens College_City Center, Durgapur - WBPCB",26-02-2026 08:00:00,23.549395,87.300496,PM2.5,37,131,60
India,West_Bengal,Haldia,"Priyambada Housing Estate, Haldia - WBPCB",26-02-2026 08:00:00,22.06047,88.109737,NO2,12,71,30
India,West_Bengal,Howrah,"Belur Math, Howrah - WBPCB",26-02-2026 08:00:00,22.629801,88.352017,PM10,104,415,198
India,West_Bengal,Howrah,"Belur Math, Howrah - WBPCB",26-02-2026 08:00:00,22.629801,88.352017,NO2,42,185,100
India,West_Bengal,Howrah,"Belur Math, Howrah - WBPCB",26-02-2026 08:00:00,22.629801,88.352017,OZONE,10,36,14
India,West_Bengal,Howrah,"Botanical Garden, Howrah - WBPCB",26-02-2026 08:00:00,22.554954,88.292568,PM2.5,29,157,78
India,Uttar_Pradesh,Moradabad,"Buddhi Vihar, Moradabad - UPPCB",26-02-2026 08:00:00,28.83526,78.74460,PM2.5,28,157,73
India,Uttar_Pradesh,Moradabad,"Buddhi Vihar, Moradabad - UPPCB",26-02-2026 08:00:00,28.83526,78.74460,PM10,48,154,106
India,Uttar_Pradesh,Moradabad,"Buddhi Vihar, Moradabad - UPPCB",26-02-2026 08:00:00,28.83526,78.74460,SO2,21,45,36
India,Uttar_Pradesh,Moradabad,"Eco Herbal Park, Moradabad - UPPCB",26-02-2026 08:00:00,28.840739,78.697531,PM2.5,52,265,137
India,Uttar_Pradesh,Moradabad,"Employment Office, Moradabad - UPPCB",26-02-2026 08:00:00,28.88528,78.73880,SO2,23,25,24
India,Uttar_Pradesh,Moradabad,"Employment Office, Moradabad - UPPCB",26-02-2026 08:00:00,28.88528,78.73880,CO,2,74,15
India,Uttar_Pradesh,Moradabad,"Employment Office, Moradabad - UPPCB",26-02-2026 08:00:00,28.88528,78.73880,OZONE,17,23,18
India,Uttar_Pradesh,Jhansi,"Shivaji Nagar, Jhansi - UPPCB",26-02-2026 08:00:00,25.4547,78.6039,CO,7,57,24
India,Uttar_Pradesh,Kanpur,"Nehru Nagar, Kanpur - UPPCB",26-02-2026 08:00:00,26.4703136,80.3229863,SO2,7,27,16
India,Uttar_Pradesh,Kanpur,"Nehru Nagar, Kanpur - UPPCB",26-02-2026 08:00:00,26.4703136,80.3229863,CO,32,104,76
India,Uttar_Pradesh,Khurja,"Kalindi Kunj, Khurja - UPPCB",26-02-2026 08:00:00,28.2348927,77.8683002,NO2,6,7,7
India,West_Bengal,Howrah,"Ghusuri, Howrah - WBPCB",26-02-2026 08:00:00,22.611968,88.347422,SO2,12,19,15
India,West_Bengal,Kolkata,"Ballygunge, Kolkata - WBPCB",26-02-2026 08:00:00,22.5367507,88.3638022,PM2.5,66,296,169
India,West_Bengal,Kolkata,"Bidhannagar, Kolkata - WBPCB",26-02-2026 08:00:00,22.58157048,88.41002457,PM2.5,57,251,129
India,West_Bengal,Kolkata,"Fort William, Kolkata - WBPCB",26-02-2026 08:00:00,22.556640,88.342674,SO2,6,32,11
India,West_Bengal,Kolkata,"Rabindra Bharati University, Kolkata - WBPCB",26-02-2026 08:00:00,22.627847,88.380669,PM2.5,60,348,192
India,West_Bengal,Kolkata,"Rabindra Bharati University, Kolkata - WBPCB",26-02-2026 08:00:00,22.627847,88.380669,NO2,50,227,124
India,West_Bengal,Kolkata,"Rabindra Sarobar, Kolkata - WBPCB",26-02-2026 08:00:00,22.51106,88.35142,NO2,28,197,103
India,West_Bengal,Kolkata,"Victoria, Kolkata - WBPCB",26-02-2026 08:00:00,22.5448082,88.3403691,SO2,14,60,27
India,Andhra_Pradesh,Vijayawada,"Rajiv Nagar, Vijayawada - APPCB",26-02-2026 08:00:00,16.554731,80.649110,NH3,2,4,4
India,Andhra_Pradesh,Vijayawada,"Rajiv Nagar, Vijayawada - APPCB",26-02-2026 08:00:00,16.554731,80.649110,SO2,12,19,16
India,Andhra_Pradesh,Vijayawada,"Rajiv Nagar, Vijayawada - APPCB",26-02-2026 08:00:00,16.554731,80.649110,CO,23,42,28
India,Andhra_Pradesh,Vijayawada,"Rajiv Nagar, Vijayawada - APPCB",26-02-2026 08:00:00,16.554731,80.649110,OZONE,18,25,21
India,Andhra_Pradesh,Visakhapatnam,"GVM Corporation, Visakhapatnam - APPCB",26-02-2026 08:00:00,17.72,83.3,NO2,40,115,91
India,Arunachal_Pradesh,Naharlagun,"Naharlagun, Naharlagun - APSPCB",26-02-2026 08:00:00,27.103358,93.679645,PM2.5,2,408,154
India,Assam,Byrnihat,"Central Academy for SFS, Byrnihat - PCBA",26-02-2026 08:00:00,26.071318,91.87488,PM2.5,88,308,161
India,Assam,Byrnihat,"Central Academy for SFS, Byrnihat - PCBA",26-02-2026 08:00:00,26.071318,91.87488,OZONE,13,32,15
India,Assam,Guwahati,"LGBI Airport, Guwahati - PCBA",26-02-2026 08:00:00,26.10887,91.589544,NO2,11,28,15
India,Assam,Guwahati,"Pan Bazaar, Guwahati - PCBA",26-02-2026 08:00:00,26.187500,91.744194,PM2.5,64,196,111
India,Assam,Guwahati,"Pan Bazaar, Guwahati - PCBA",26-02-2026 08:00:00,26.187500,91.744194,PM10,53,130,86
India,Andhra_Pradesh,Amaravati,"Secretariat, Amaravati - APPCB",26-02-2026 08:00:00,16.5150833,80.5181667,SO2,6,16,11
India,Andhra_Pradesh,Anantapur,"Gulzarpet, Anantapur - APPCB",26-02-2026 08:00:00,14.675886,77.593027,NO2,19,21,20
India,Andhra_Pradesh,Anantapur,"Gulzarpet, Anantapur - APPCB",26-02-2026 08:00:00,14.675886,77.593027,SO2,13,17,16
India,Andhra_Pradesh,Chittoor,"Gangineni Cheruvu, Chittoor - APPCB",26-02-2026 08:00:00,13.204880,79.097889,PM10,46,57,53
India,Andhra_Pradesh,Chittoor,"Gangineni Cheruvu, Chittoor - APPCB",26-02-2026 08:00:00,13.204880,79.097889,OZONE,37,42,39
India,Andhra_Pradesh,Kadapa,"Yerramukkapalli, Kadapa - APPCB",26-02-2026 08:00:00,14.465052,78.824187,PM10,56,93,77
India,Andhra_Pradesh,Kadapa,"Yerramukkapalli, Kadapa - APPCB",26-02-2026 08:00:00,14.465052,78.824187,CO,26,34,27
India,Andhra_Pradesh,Rajamahendravaram,"Anand Kala Kshetram, Rajamahendravaram - APPCB",26-02-2026 08:00:00,16.9872867,81.7363176,PM10,37,112,63
India,Andhra_Pradesh,Rajamahendravaram,"Anand Kala Kshetram, Rajamahendravaram - APPCB",26-02-2026 08:00:00,16.9872867,81.7363176,SO2,5,26,10
India,Bihar,Bhagalpur,"DM Office_Kachari Chowk, Bhagalpur - BSPCB",26-02-2026 08:00:00,25.251013,86.989001,SO2,33,76,53
India,Bihar,Bhagalpur,"Mayaganj, Bhagalpur - BSPCB",26-02-2026 08:00:00,25.265194,87.012947,SO2,52,62,57
India,Bihar,Bihar Sharif,"D M Colony, Bihar Sharif - BSPCB",26-02-2026 08:00:00,25.204762,85.514960,NO2,NA,NA,NA
India,Bihar,Bihar Sharif,"D M Colony, Bihar Sharif - BSPCB",26-02-2026 08:00:00,25.204762,85.514960,SO2,NA,NA,NA
India,Bihar,Chhapra,"Darshan Nagar, Chhapra - BSPCB",26-02-2026 08:00:00,25.7808257,84.7446768,PM10,14,96,59
India,Bihar,Chhapra,"Darshan Nagar, Chhapra - BSPCB",26-02-2026 08:00:00,25.7808257,84.7446768,NO2,1,4,2
India,Bihar,Chhapra,"Darshan Nagar, Chhapra - BSPCB",26-02-2026 08:00:00,25.7808257,84.7446768,OZONE,2,8,4
India,Bihar,Gaya,"Collectorate, Gaya - BSPCB",26-02-2026 08:00:00,24.7955,84.9994,PM2.5,36,195,115
India,Andhra_Pradesh,Tirumala,"Toll Gate, Tirumala - APPCB",26-02-2026 08:00:00,13.67,79.35,NO2,19,38,27
India,Andhra_Pradesh,Tirupati,"Vaikuntapuram, Tirupati - APPCB",26-02-2026 08:00:00,13.615387,79.409230,PM2.5,51,88,68
India,Andhra_Pradesh,Vijayawada,"HB Colony, Vijayawada - APPCB",26-02-2026 08:00:00,16.536107,80.594233,PM2.5,44,57,52
India,Andhra_Pradesh,Vijayawada,"HB Colony, Vijayawada - APPCB",26-02-2026 08:00:00,16.536107,80.594233,PM10,39,54,49
India,Andhra_Pradesh,Vijayawada,"Kanuru, Vijayawada - APPCB",26-02-2026 08:00:00,16.486692,80.699436,NH3,5,5,5
India,Andhra_Pradesh,Vijayawada,"Rajiv Gandhi Park, Vijayawada - APPCB",26-02-2026 08:00:00,16.509717,80.612222,NH3,3,5,5
India,Andhra_Pradesh,Vijayawada,"Rajiv Gandhi Park, Vijayawada - APPCB",26-02-2026 08:00:00,16.509717,80.612222,SO2,12,17,13
India,Bihar,Gaya,"Kareemganj, Gaya - BSPCB",26-02-2026 08:00:00,24.792403,84.992416,OZONE,11,55,23
India,Bihar,Gaya,"SFTI Kusdihra, Gaya - BSPCB",26-02-2026 08:00:00,24.762518,84.982348,NH3,3,4,3
India,Bihar,Hajipur,"Industrial Area, Hajipur - BSPCB",26-02-2026 08:00:00,25.697189,85.245900,PM2.5,84,255,143
India,Bihar,Katihar,"Mirchaibari, Katihar - BSPCB",26-02-2026 08:00:00,25.560083,87.553265,SO2,17,24,20
India,Bihar,Kishanganj,"SDM Office_Khagra, Kishanganj - BSPCB",26-02-2026 08:00:00,26.0881305,87.93840336,PM2.5,40,240,93
India,Bihar,Kishanganj,"SDM Office_Khagra, Kishanganj - BSPCB",26-02-2026 08:00:00,26.0881305,87.93840336,PM10,35,132,75
India,Assam,Guwahati,"Pan Bazaar, Guwahati - PCBA",26-02-2026 08:00:00,26.187500,91.744194,NH3,1,1,1
India,Assam,Nalbari,"Bata Chowk, Nalbari - PCBA",26-02-2026 08:00:00,26.446912,91.439057,NO2,12,16,14
India,Assam,Nalbari,"Bata Chowk, Nalbari - PCBA",26-02-2026 08:00:00,26.446912,91.439057,NH3,5,7,6
India,Assam,Sivasagar,"Girls College, Sivasagar - PCBA",26-02-2026 08:00:00,26.987634,94.636574,NH3,5,13,8
India,Assam,Sivasagar,"Girls College, Sivasagar - PCBA",26-02-2026 08:00:00,26.987634,94.636574,SO2,8,11,9
India,Bihar,Araria,"Kharahiya Basti, Araria - BSPCB",26-02-2026 08:00:00,26.146529,87.454184,PM2.5,32,127,78
India,Bihar,Arrah,"New DM Office, Arrah - BSPCB",26-02-2026 08:00:00,25.5626095,84.663264,PM2.5,53,180,87
India,Bihar,Arrah,"New DM Office, Arrah - BSPCB",26-02-2026 08:00:00,25.5626095,84.663264,PM10,46,115,73
India,Bihar,Aurangabad,"Gurdeo Nagar, Aurangabad - BSPCB",26-02-2026 08:00:00,24.75746,84.366208,PM10,37,143,86
India,Bihar,Begusarai,"Lohiyanagar, Begusarai - BSPCB",26-02-2026 08:00:00,25.42742023,86.13886079,PM10,57,129,83
India,Bihar,Begusarai,"Lohiyanagar, Begusarai - BSPCB",26-02-2026 08:00:00,25.42742023,86.13886079,OZONE,8,41,38
India,Bihar,Munger,"Town Hall, Munger - BSPCB",26-02-2026 08:00:00,25.376776,86.471523,OZONE,9,11,10
India,Bihar,Muzaffarpur,"Buddha Colony, Muzaffarpur - BSPCB",26-02-2026 08:00:00,26.11442,85.39813,CO,NA,NA,NA
India,Bihar,Muzaffarpur,"MIT-Daudpur Kothi, Muzaffarpur - BSPCB",26-02-2026 08:00:00,26.1403345,85.3650192,NO2,2,5,4
India,Bihar,Muzaffarpur,"Muzaffarpur Collectorate, Muzaffarpur - BSPCB",26-02-2026 08:00:00,26.1209,85.3647,NO2,10,17,16
India,Bihar,Manguraha,"Forest Rest House, Manguraha - BSPCB",26-02-2026 08:00:00,27.308328,84.531742,NO2,4,11,7
India,Bihar,Manguraha,"Forest Rest House, Manguraha - BSPCB",26-02-2026 08:00:00,27.308328,84.531742,NH3,1,2,1
India,Bihar,Motihari,"Gandak Colony, Motihari - BSPCB",26-02-2026 08:00:00,26.63086,84.90051,PM2.5,35,267,115
India,Bihar,Motihari,"Gandak Colony, Motihari - BSPCB",26-02-2026 08:00:00,26.63086,84.90051,PM10,38,169,102
India,Bihar,Motihari,"Gandak Colony, Motihari - BSPCB",26-02-2026 08:00:00,26.63086,84.90051,CO,15,26,20
India,Andaman and Nicobar,Sri Vijaya Puram,"Police Line, Sri Vijaya Puram - ANPCC",26-02-2026 08:00:00,11.654054,92.734055,NO2,1,40,11
India,Bihar,Patna,"Samanpura, Patna - BSPCB",26-02-2026 08:00:00,25.596727,85.085624,NH3,9,12,11
India,Bihar,Purnia,"Mariam Nagar, Purnia - BSPCB",26-02-2026 08:00:00,25.366336,87.117468,PM2.5,75,107,87
India,Bihar,Purnia,"Mariam Nagar, Purnia - BSPCB",26-02-2026 08:00:00,25.366336,87.117468,NH3,3,3,3
India,Bihar,Rajgir,"Dangi Tola, Rajgir - BSPCB",26-02-2026 08:00:00,25.03280,85.41948,PM10,26,72,52
India,Bihar,Rajgir,"Dangi Tola, Rajgir - BSPCB",26-02-2026 08:00:00,25.03280,85.41948,NH3,2,3,3
India,Bihar,Rajgir,"Dangi Tola, Rajgir - BSPCB",26-02-2026 08:00:00,25.03280,85.41948,CO,32,51,42
India,Bihar,Saharsa,"Police Line, Saharsa - BSPCB",26-02-2026 08:00:00,25.892357,86.590325,PM2.5,38,218,104
India,Bihar,Saharsa,"Police Line, Saharsa - BSPCB",26-02-2026 08:00:00,25.892357,86.590325,PM10,85,183,125
India,Bihar,Samastipur,"DM Office_Kasipur, Samastipur - BSPCB",26-02-2026 08:00:00,25.859655,85.77944,SO2,14,34,24
India,Bihar,Samastipur,"DM Office_Kasipur, Samastipur - BSPCB",26-02-2026 08:00:00,25.859655,85.77944,OZONE,7,11,8
India,Delhi,Delhi,"Bawana, Delhi - DPCC",26-02-2026 08:00:00,28.776200,77.051074,NH3,7,12,8
India,Delhi,Delhi,"Bawana, Delhi - DPCC",26-02-2026 08:00:00,28.776200,77.051074,SO2,6,20,13
India,Delhi,Delhi,"CRRI Mathura Road, Delhi - IMD",26-02-2026 08:00:00,28.5512005,77.2735737,CO,26,122,75
India,Delhi,Delhi,"CRRI Mathura Road, Delhi - IMD",26-02-2026 08:00:00,28.5512005,77.2735737,OZONE,2,59,3
India,Delhi,Delhi,"Chandni Chowk, Delhi - IITM",26-02-2026 08:00:00,28.656756,77.227234,PM2.5,49,348,233
India,Delhi,Delhi,"Chandni Chowk, Delhi - IITM",26-02-2026 08:00:00,28.656756,77.227234,SO2,2,68,26
India,Delhi,Delhi,"Chandni Chowk, Delhi - IITM",26-02-2026 08:00:00,28.656756,77.227234,CO,65,137,107
India,Delhi,Delhi,"DTU, Delhi - CPCB",26-02-2026 08:00:00,28.7500499,77.1112615,NH3,5,14,10
India,Delhi,Delhi,"Dr. Karni Singh Shooting Range, Delhi - DPCC",26-02-2026 08:00:00,28.498571,77.264840,PM10,78,245,163
India,Delhi,Delhi,"Lodhi Road, Delhi - IMD",26-02-2026 08:00:00,28.5918245,77.2273074,CO,22,56,45
India,Delhi,Delhi,"Major Dhyan Chand National Stadium, Delhi - DPCC",26-02-2026 08:00:00,28.611281,77.237738,PM2.5,22,303,155
India,Delhi,Delhi,"Major Dhyan Chand National Stadium, Delhi - DPCC",26-02-2026 08:00:00,28.611281,77.237738,NO2,27,151,93
India,Delhi,Delhi,"Major Dhyan Chand National Stadium, Delhi - DPCC",26-02-2026 08:00:00,28.611281,77.237738,CO,2,115,29
India,Delhi,Delhi,"Mandir Marg, Delhi - DPCC",26-02-2026 08:00:00,28.636429,77.201067,PM10,79,209,150
India,Delhi,Delhi,"Mundka, Delhi - DPCC",26-02-2026 08:00:00,28.684678,77.076574,PM10,138,500,256
India,Delhi,Delhi,"Mundka, Delhi - DPCC",26-02-2026 08:00:00,28.684678,77.076574,NO2,81,161,123
India,Delhi,Delhi,"Mundka, Delhi - DPCC",26-02-2026 08:00:00,28.684678,77.076574,CO,36,82,72
India,Delhi,Delhi,"NSIT Dwarka, Delhi - CPCB",26-02-2026 08:00:00,28.60909,77.0325413,NO2,93,155,98
India,Chhattisgarh,Raipur,"Siltara Phase-II, Raipur - CECB",26-02-2026 08:00:00,21.371751,81.664929,SO2,1,4,3
India,Chhattisgarh,Tumidih,"OP Jindal Industrial Park, Tumidih - CECB",26-02-2026 08:00:00,22.06631475,83.33820077,OZONE,10,85,16
India,Delhi,Delhi,"Alipur, Delhi - DPCC",26-02-2026 08:00:00,28.815329,77.153010,NH3,13,16,14
India,Delhi,Delhi,"Alipur, Delhi - DPCC",26-02-2026 08:00:00,28.815329,77.153010,CO,33,57,50
India,Delhi,Delhi,"Anand Vihar, Delhi - DPCC",26-02-2026 08:00:00,28.647622,77.3158090,NO2,54,126,88
India,Delhi,Delhi,"Anand Vihar, Delhi - DPCC",26-02-2026 08:00:00,28.647622,77.3158090,NH3,2,19,8
India,Delhi,Delhi,"Aya Nagar, Delhi - IMD",26-02-2026 08:00:00,28.4706914,77.1099364,NO2,8,114,54
India,Delhi,Delhi,"Aya Nagar, Delhi - IMD",26-02-2026 08:00:00,28.4706914,77.1099364,OZONE,6,96,12
India,Chhattisgarh,Bhilai,"Hathkhoj, Bhilai - CECB",26-02-2026 08:00:00,21.224231,81.408350,PM2.5,25,143,51
India,Chhattisgarh,Bhilai,"Hathkhoj, Bhilai - CECB",26-02-2026 08:00:00,21.224231,81.408350,NO2,24,99,51
India,Chhattisgarh,Bilaspur,"Mangala, Bilaspur - NTPC",26-02-2026 08:00:00,22.08815,82.13737,CO,22,122,28
India,Chhattisgarh,Chhal,"Nawapara SECL Colony, Chhal - CECB",26-02-2026 08:00:00,22.118125,83.140608,PM10,35,82,64
India,Chhattisgarh,Chhal,"Nawapara SECL Colony, Chhal - CECB",26-02-2026 08:00:00,22.118125,83.140608,SO2,4,71,12
India,Chhattisgarh,Chhal,"Nawapara SECL Colony, Chhal - CECB",26-02-2026 08:00:00,22.118125,83.140608,CO,10,50,27
India,Chhattisgarh,Chhal,"Nawapara SECL Colony, Chhal - CECB",26-02-2026 08:00:00,22.118125,83.140608,OZONE,10,90,14
India,Chhattisgarh,Korba,"Rampur, Korba - CECB",26-02-2026 08:00:00,22.368195,82.746431,NH3,1,1,1
India,Bihar,Sasaram,"Dada Peer, Sasaram - BSPCB",26-02-2026 08:00:00,24.952822,84.002396,CO,44,123,52
India,Bihar,Siwan,"Chitragupta Nagar, Siwan - BSPCB",26-02-2026 08:00:00,26.2271665,84.3570427,SO2,6,6,6
India,Bihar,Siwan,"Chitragupta Nagar, Siwan - BSPCB",26-02-2026 08:00:00,26.2271665,84.3570427,OZONE,10,11,10
India,Chandigarh,Chandigarh,"Sector 22, Chandigarh - CPCC",26-02-2026 08:00:00,30.735567,76.775714,CO,64,96,76
India,Chhattisgarh,Bhilai,"32Bungalows, Bhilai - CECB",26-02-2026 08:00:00,21.194815,81.314770,SO2,7,9,8
India,Chhattisgarh,Bhilai,"32Bungalows, Bhilai - CECB",26-02-2026 08:00:00,21.194815,81.314770,CO,21,43,34
India,Bihar,Patna,"DRM Office Danapur, Patna - BSPCB",26-02-2026 08:00:00,25.586562,85.043586,CO,36,77,50
India,Bihar,Patna,"IGSC Planetarium Complex, Patna - BSPCB",26-02-2026 08:00:00,25.610369,85.132568,PM2.5,41,79,65
India,Bihar,Patna,"IGSC Planetarium Complex, Patna - BSPCB",26-02-2026 08:00:00,25.610369,85.132568,OZONE,47,49,48
India,Bihar,Patna,"Muradpur, Patna - BSPCB",26-02-2026 08:00:00,25.619651,85.147382,SO2,8,10,9
India,Bihar,Patna,"Muradpur, Patna - BSPCB",26-02-2026 08:00:00,25.619651,85.147382,CO,4,78,34
India,Chhattisgarh,Kunjemura,"OP Jindal School, Kunjemura - CECB",26-02-2026 08:00:00,22.126650,83.483212,NO2,12,59,39
India,Chhattisgarh,Kunjemura,"OP Jindal School, Kunjemura - CECB",26-02-2026 08:00:00,22.126650,83.483212,CO,14,37,32
India,Chhattisgarh,Raipur,"Siltara Phase-II, Raipur - CECB",26-02-2026 08:00:00,21.371751,81.664929,PM10,49,138,91
India,Delhi,Delhi,"IGI Airport (T3), Delhi - IMD",26-02-2026 08:00:00,28.5627763,77.1180053,CO,24,94,82
India,Delhi,Delhi,"IIT Delhi, Delhi - IITM",26-02-2026 08:00:00,28.542460,77.191651,CO,30,103,72
India,Delhi,Delhi,"Wazirpur, Delhi - DPCC",26-02-2026 08:00:00,28.699793,77.165453,SO2,4,14,8
India,Delhi,Delhi,"Wazirpur, Delhi - DPCC",26-02-2026 08:00:00,28.699793,77.165453,CO,46,118,68
India,Gujarat,Ahmedabad,"Chandkheda, Ahmedabad - IITM",26-02-2026 08:00:00,23.107969,72.574648,CO,22,90,26
India,Gujarat,Ahmedabad,"Gyaspur, Ahmedabad - IITM",26-02-2026 08:00:00,22.977134,72.553024,PM2.5,72,337,173
India,Gujarat,Ahmedabad,"Gyaspur, Ahmedabad - IITM",26-02-2026 08:00:00,22.977134,72.553024,NH3,3,46,14
India,Gujarat,Ahmedabad,"Gyaspur, Ahmedabad - IITM",26-02-2026 08:00:00,22.977134,72.553024,CO,27,103,36
India,Gujarat,Ahmedabad,"Gyaspur, Ahmedabad - IITM",26-02-2026 08:00:00,22.977134,72.553024,OZONE,1,76,1
India,Gujarat,Ahmedabad,"Maninagar, Ahmedabad - GPCB",26-02-2026 08:00:00,23.002657,72.591912,PM2.5,NA,NA,NA
India,Gujarat,Ahmedabad,"Maninagar, Ahmedabad - GPCB",26-02-2026 08:00:00,23.002657,72.591912,OZONE,40,60,47
India,Gujarat,Ahmedabad,"Rakhial, Ahmedabad - IITM",26-02-2026 08:00:00,23.016834,72.625775,NO2,7,280,79
India,Gujarat,Ahmedabad,"SAC ISRO Bopal, Ahmedabad - IITM",26-02-2026 08:00:00,23.041137,72.456691,PM2.5,64,174,112
India,Gujarat,Ahmedabad,"SAC ISRO Bopal, Ahmedabad - IITM",26-02-2026 08:00:00,23.041137,72.456691,NO2,17,100,44
India,Gujarat,Ahmedabad,"SAC ISRO Satellite, Ahmedabad - IITM",26-02-2026 08:00:00,23.023389,72.515201,PM2.5,62,173,103
India,Gujarat,Ahmedabad,"SAC ISRO Satellite, Ahmedabad - IITM",26-02-2026 08:00:00,23.023389,72.515201,NH3,6,19,10
India,Gujarat,Ahmedabad,"SAC ISRO Satellite, Ahmedabad - IITM",26-02-2026 08:00:00,23.023389,72.515201,CO,10,104,16
India,Gujarat,Ahmedabad,"SVPI Airport Hansol, Ahmedabad - IITM",26-02-2026 08:00:00,23.076793,72.627874,NO2,11,115,48
India,Gujarat,Ankleshwar,"GIDC, Ankleshwar - GPCB",26-02-2026 08:00:00,21.613267,73.010555,PM2.5,33,136,72
India,Gujarat,Bhavnagar,"Vidhyanagar, Bhavnagar - Nexteng Enviro",26-02-2026 08:00:00,21.755417,72.139056,PM2.5,9,54,33
India,Gujarat,Bhavnagar,"Vidhyanagar, Bhavnagar - Nexteng Enviro",26-02-2026 08:00:00,21.755417,72.139056,NH3,3,7,6
India,Haryana,Dharuhera,"Municipal Corporation Office, Dharuhera -  HSPCB",26-02-2026 08:00:00,28.206800,76.799700,OZONE,6,45,7
India,Haryana,Faridabad,"New Industrial Town, Faridabad - HSPCB",26-02-2026 08:00:00,28.39072,77.30059,PM10,130,139,133
India,Haryana,Faridabad,"New Industrial Town, Faridabad - HSPCB",26-02-2026 08:00:00,28.39072,77.30059,SO2,8,9,8
India,Haryana,Faridabad,"New Industrial Town, Faridabad - HSPCB",26-02-2026 08:00:00,28.39072,77.30059,CO,10,14,11
India,Haryana,Faridabad,"Sector 11, Faridabad - HSPCB",26-02-2026 08:00:00,28.376058,77.315741,NH3,9,10,10
India,Haryana,Faridabad,"Sector 30, Faridabad - HSPCB",26-02-2026 08:00:00,28.4417,77.3217,PM10,115,120,117
India,Haryana,Faridabad,"Sector 30, Faridabad - HSPCB",26-02-2026 08:00:00,28.4417,77.3217,OZONE,17,20,18
India,Haryana,Fatehabad,"Huda Sector, Fatehabad - HSPCB",26-02-2026 08:00:00,29.503664,75.467934,PM2.5,6,31,16
India,Haryana,Fatehabad,"Huda Sector, Fatehabad - HSPCB",26-02-2026 08:00:00,29.503664,75.467934,NH3,13,14,14
India,Gujarat,Gandhinagar,"GIFT City, Gandhinagar - IITM",26-02-2026 08:00:00,23.163798,72.677768,PM2.5,47,219,106
India,Gujarat,Gandhinagar,"GIFT City, Gandhinagar - IITM",26-02-2026 08:00:00,23.163798,72.677768,SO2,1,14,8
India,Gujarat,Gandhinagar,"IIPHG Lekawada, Gandhinagar - IITM",26-02-2026 08:00:00,23.243639,72.68994,PM10,48,193,117
India,Gujarat,Gandhinagar,"Sector-10, Gandhinagar - GPCB",26-02-2026 08:00:00,23.221714,72.654328,SO2,5,25,12
India,Gujarat,Mehsana,"Sadanand Nagar, Mehsana - Nexteng Enviro",26-02-2026 08:00:00,23.593150,72.372792,PM2.5,14,217,79
India,Gujarat,Mehsana,"Sadanand Nagar, Mehsana - Nexteng Enviro",26-02-2026 08:00:00,23.593150,72.372792,SO2,4,13,9
India,Gujarat,Rajkot,"Mavdi, Rajkot - Nexteng Enviro ",26-02-2026 08:00:00,22.248853,70.776774,PM2.5,1,103,51
India,Gujarat,Rajkot,"Mavdi, Rajkot - Nexteng Enviro ",26-02-2026 08:00:00,22.248853,70.776774,NO2,6,44,15
India,Delhi,Delhi,"Rohini, Delhi - DPCC",26-02-2026 08:00:00,28.732528,77.119920,CO,21,92,46
India,Delhi,Delhi,"Shadipur, Delhi - CPCB",26-02-2026 08:00:00,28.6514781,77.1473105,PM2.5,137,482,290
India,Delhi,Delhi,"Shadipur, Delhi - CPCB",26-02-2026 08:00:00,28.6514781,77.1473105,PM10,107,459,192
India,Delhi,Delhi,"Sirifort, Delhi - CPCB",26-02-2026 08:00:00,28.5504249,77.2159377,SO2,23,37,33
India,Delhi,Delhi,"Sonia Vihar, Delhi - DPCC",26-02-2026 08:00:00,28.710508,77.249485,SO2,24,60,35
India,Delhi,Delhi,"Sri Aurobindo Marg, Delhi - DPCC",26-02-2026 08:00:00,28.531346,77.190156,PM2.5,33,293,131
India,Delhi,Delhi,"Sri Aurobindo Marg, Delhi - DPCC",26-02-2026 08:00:00,28.531346,77.190156,PM10,64,186,120
India,Delhi,Delhi,"Sri Aurobindo Marg, Delhi - DPCC",26-02-2026 08:00:00,28.531346,77.190156,CO,22,101,51
India,Haryana,Ambala,"Patti Mehar, Ambala - HSPCB",26-02-2026 08:00:00,30.379589,76.778328,OZONE,14,22,19
India,Haryana,Bahadurgarh,"Arya Nagar, Bahadurgarh - HSPCB",26-02-2026 08:00:00,28.6701,76.9254,NH3,12,13,13
India,Haryana,Ballabgarh,"Nathu Colony, Ballabgarh - HSPCB",26-02-2026 08:00:00,28.3419248,77.319699,SO2,2,6,4
India,Haryana,Ballabgarh,"Nathu Colony, Ballabgarh - HSPCB",26-02-2026 08:00:00,28.3419248,77.319699,CO,15,102,38
India,Haryana,Ballabgarh,"Nathu Colony, Ballabgarh - HSPCB",26-02-2026 08:00:00,28.3419248,77.319699,OZONE,6,6,6
India,Haryana,Bhiwani,"H.B. Colony, Bhiwani - HSPCB",26-02-2026 08:00:00,28.806223,76.141105,NH3,3,4,3
India,Haryana,Bhiwani,"H.B. Colony, Bhiwani - HSPCB",26-02-2026 08:00:00,28.806223,76.141105,SO2,1,9,4
India,Haryana,Bhiwani,"H.B. Colony, Bhiwani - HSPCB",26-02-2026 08:00:00,28.806223,76.141105,OZONE,1,31,9
India,Delhi,Delhi,"Patparganj, Delhi - DPCC",26-02-2026 08:00:00,28.623763,77.287209,PM10,105,341,188
India,Delhi,Delhi,"Punjabi Bagh, Delhi - DPCC",26-02-2026 08:00:00,28.674045,77.131023,PM2.5,47,332,221
India,Delhi,Delhi,"Punjabi Bagh, Delhi - DPCC",26-02-2026 08:00:00,28.674045,77.131023,PM10,94,285,173
India,Delhi,Delhi,"Punjabi Bagh, Delhi - DPCC",26-02-2026 08:00:00,28.674045,77.131023,SO2,NA,NA,NA
India,Delhi,Delhi,"Punjabi Bagh, Delhi - DPCC",26-02-2026 08:00:00,28.674045,77.131023,CO,42,108,47
India,Delhi,Delhi,"Pusa, Delhi - DPCC",26-02-2026 08:00:00,28.639652,77.146275,SO2,5,18,11
India,Delhi,Delhi,"R K Puram, Delhi - DPCC",26-02-2026 08:00:00,28.563262,77.186937,OZONE,6,129,8
India,Delhi,Delhi,"Rohini, Delhi - DPCC",26-02-2026 08:00:00,28.732528,77.119920,PM10,127,428,238
India,Gujarat,Rajkot,"Mavdi, Rajkot - Nexteng Enviro ",26-02-2026 08:00:00,22.248853,70.776774,OZONE,9,25,12
India,Gujarat,Surat,"Katargam, Surat - Nexteng Enviro",26-02-2026 08:00:00,21.217779 ,72.834787 ,NO2,13,84,34
India,Gujarat,Surat,"Katargam, Surat - Nexteng Enviro",26-02-2026 08:00:00,21.217779 ,72.834787 ,OZONE,8,9,9
India,Gujarat,Vadodara,"Bapunagar, Vadodara - Nexteng Enviro",26-02-2026 08:00:00,22.320153,73.216285,SO2,8,27,18
India,Gujarat,Vadodara,"Bapunagar, Vadodara - Nexteng Enviro",26-02-2026 08:00:00,22.320153,73.216285,OZONE,2,14,4
India,Gujarat,Vatva,"Phase-4 GIDC, Vatva - GPCB",26-02-2026 08:00:00,22.969611,72.643500,NO2,7,127,90
India,Delhi,Delhi,"Najafgarh, Delhi - DPCC",26-02-2026 08:00:00,28.570173,76.933762,PM10,52,216,115
India,Delhi,Delhi,"Najafgarh, Delhi - DPCC",26-02-2026 08:00:00,28.570173,76.933762,CO,3,107,38
India,Delhi,Delhi,"Najafgarh, Delhi - DPCC",26-02-2026 08:00:00,28.570173,76.933762,OZONE,3,151,6
India,Delhi,Delhi,"Narela, Delhi - DPCC",26-02-2026 08:00:00,28.822836,77.101981,PM10,120,260,186
India,Delhi,Delhi,"Narela, Delhi - DPCC",26-02-2026 08:00:00,28.822836,77.101981,NH3,5,18,7
India,Delhi,Delhi,"Nehru Nagar, Delhi - DPCC",26-02-2026 08:00:00,28.567890,77.250515,NO2,53,109,78
India,Delhi,Delhi,"Nehru Nagar, Delhi - DPCC",26-02-2026 08:00:00,28.567890,77.250515,OZONE,1,108,2
India,Karnataka,Bengaluru,"Silk Board, Bengaluru - KSPCB",26-02-2026 08:00:00,12.917348,77.622813,NO2,44,126,73
India,Karnataka,Bengaluru,"Silk Board, Bengaluru - KSPCB",26-02-2026 08:00:00,12.917348,77.622813,NH3,3,5,4
India,Karnataka,Chamarajanagar,"Urban, Chamarajanagar - KSPCB",26-02-2026 08:00:00,11.55358,76.55521,PM10,34,69,48
India,Karnataka,Chamarajanagar,"Urban, Chamarajanagar - KSPCB",26-02-2026 08:00:00,11.55358,76.55521,NO2,15,35,27
India,Karnataka,Chamarajanagar,"Urban, Chamarajanagar - KSPCB",26-02-2026 08:00:00,11.55358,76.55521,CO,12,24,16
India,Karnataka,Chikkaballapur,"Chikkaballapur Rural, Chikkaballapur - KSPCB",26-02-2026 08:00:00,13.428828,77.731418,NH3,4,9,6
India,Karnataka,Chikkamagaluru,"Kalyana Nagara, Chikkamagaluru - KSPCB",26-02-2026 08:00:00,13.328028,75.797056,NH3,3,3,3
India,Karnataka,Chikkamagaluru,"Kalyana Nagara, Chikkamagaluru - KSPCB",26-02-2026 08:00:00,13.328028,75.797056,SO2,1,4,3
India,Karnataka,Chikkamagaluru,"Kalyana Nagara, Chikkamagaluru - KSPCB",26-02-2026 08:00:00,13.328028,75.797056,CO,11,11,11
India,Karnataka,Hubballi,"Lingaraj Nagar, Hubballi - KSPCB",26-02-2026 08:00:00,15.3714823,75.1160168,PM2.5,36,38,37
India,Karnataka,Hubballi,"Lingaraj Nagar, Hubballi - KSPCB",26-02-2026 08:00:00,15.3714823,75.1160168,SO2,2,2,1
India,Haryana,Palwal,"Shyam Nagar, Palwal - HSPCB",26-02-2026 08:00:00,28.1485564,77.3320667,NH3,8,9,9
India,Haryana,Panchkula,"Sector-6, Panchkula - HSPCB ",26-02-2026 08:00:00,30.7057778,76.8531805555555,NO2,NA,NA,NA
India,Haryana,Panchkula,"Sector-6, Panchkula - HSPCB ",26-02-2026 08:00:00,30.7057778,76.8531805555555,CO,4,12,6
India,Haryana,Panipat,"Sector-18, Panipat - HSPCB",26-02-2026 08:00:00,29.432304,76.972765,NH3,2,3,2
India,Haryana,Panipat,"Sector-18, Panipat - HSPCB",26-02-2026 08:00:00,29.432304,76.972765,OZONE,29,30,30
India,Haryana,Sirsa,"F-Block, Sirsa - HSPCB",26-02-2026 08:00:00,29.536400,75.015800,PM10,NA,NA,NA
India,Haryana,Sirsa,"F-Block, Sirsa - HSPCB",26-02-2026 08:00:00,29.536400,75.015800,NO2,18,95,24
India,Haryana,Sirsa,"F-Block, Sirsa - HSPCB",26-02-2026 08:00:00,29.536400,75.015800,SO2,1,38,13
India,Haryana,Sirsa,"F-Block, Sirsa - HSPCB",26-02-2026 08:00:00,29.536400,75.015800,OZONE,41,85,65
India,Haryana,Karnal,"Sector-12, Karnal - HSPCB",26-02-2026 08:00:00,29.695300,77.002700,NO2,6,7,6
India,Haryana,Karnal,"Sector-12, Karnal - HSPCB",26-02-2026 08:00:00,29.695300,77.002700,NH3,6,7,6
India,Haryana,Kurukshetra,"Sector-7, Kurukshetra - HSPCB",26-02-2026 08:00:00,29.966942,76.875879,CO,18,40,33
India,Haryana,Mandikhera,"General Hospital, Mandikhera(Nuh) - HSPCB",26-02-2026 08:00:00,27.9002,76.9938,NH3,13,15,13
India,Haryana,Manesar,"Sector-2 IMT, Manesar - HSPCB",26-02-2026 08:00:00,28.360699,76.936090,SO2,7,16,12
India,Haryana,Narnaul,"Shastri Nagar, Narnaul - HSPCB",26-02-2026 08:00:00,28.060249,76.113115,NO2,34,64,48
India,Haryana,Narnaul,"Shastri Nagar, Narnaul - HSPCB",26-02-2026 08:00:00,28.060249,76.113115,NH3,8,16,13
India,Haryana,Narnaul,"Shastri Nagar, Narnaul - HSPCB",26-02-2026 08:00:00,28.060249,76.113115,OZONE,3,21,3
India,Karnataka,Bengaluru,"BTM Layout, Bengaluru - CPCB",26-02-2026 08:00:00,12.9135218,77.5950804,NH3,3,8,5
India,Karnataka,Bengaluru,"Bapuji Nagar, Bengaluru - KSPCB",26-02-2026 08:00:00,12.951913,77.539784,SO2,3,28,18
India,Karnataka,Bengaluru,"Bapuji Nagar, Bengaluru - KSPCB",26-02-2026 08:00:00,12.951913,77.539784,OZONE,47,287,93
India,Karnataka,Bengaluru,"City Railway Station, Bengaluru - KSPCB",26-02-2026 08:00:00,12.9756843,77.5660749,NO2,34,39,37
India,Karnataka,Bengaluru,"City Railway Station, Bengaluru - KSPCB",26-02-2026 08:00:00,12.9756843,77.5660749,CO,54,67,61
India,Karnataka,Bengaluru,"Hebbal, Bengaluru - KSPCB",26-02-2026 08:00:00,13.029152,77.585901,PM2.5,54,95,70
India,Karnataka,Bengaluru,"Hebbal, Bengaluru - KSPCB",26-02-2026 08:00:00,13.029152,77.585901,SO2,12,17,14
India,Karnataka,Bengaluru,"Hombegowda Nagar, Bengaluru - KSPCB",26-02-2026 08:00:00,12.938539,77.590100,PM2.5,35,69,51
India,Himachal Pradesh,Baddi,"HIMUDA Complex Phase-1, Baddi - HPPCB",26-02-2026 08:00:00,30.943887,76.801991,PM2.5,78,345,166
India,Himachal Pradesh,Baddi,"HIMUDA Complex Phase-1, Baddi - HPPCB",26-02-2026 08:00:00,30.943887,76.801991,NH3,5,8,6
India,Jammu_and_Kashmir,Srinagar,"Khunmoh, Srinagar - JKPCC",26-02-2026 08:00:00,34.06313,74.96017,PM2.5,17,41,27
India,Jammu_and_Kashmir,Srinagar,"Khunmoh, Srinagar - JKPCC",26-02-2026 08:00:00,34.06313,74.96017,NO2,10,38,19
India,Jharkhand,Dhanbad,"Sardar Patel Nagar, Dhanbad - JSPCB",26-02-2026 08:00:00,23.80569,86.44268,NO2,NA,NA,NA
India,Jharkhand,Dhanbad,"Sardar Patel Nagar, Dhanbad - JSPCB",26-02-2026 08:00:00,23.80569,86.44268,CO,NA,NA,NA
India,Haryana,Gurugram,"Sector-51, Gurugram - HSPCB",26-02-2026 08:00:00,28.4227,77.0667,NO2,6,15,9
India,Haryana,Hisar,"Urban Estate-II, Hisar - HSPCB",26-02-2026 08:00:00,29.140560,75.744941,SO2,NA,NA,NA
India,Haryana,Jind,"Police Lines, Jind - HSPCB",26-02-2026 08:00:00,29.307814,76.337619,NH3,2,3,2
India,Haryana,Kaithal,"Rishi Nagar, Kaithal - HSPCB",26-02-2026 08:00:00,29.8006,76.4155,CO,14,52,30
India,Haryana,Karnal,"Sector-12, Karnal - HSPCB",26-02-2026 08:00:00,29.695300,77.002700,PM2.5,87,320,203
