country,state,city,station,last_update,latitude,longitude,pollutant_id,min_value,max_value,avg_value
India,Andhra_Pradesh,Vijayawada,"Rajiv Gandhi Park, Vijayawada - APPCB",24-12-2025 08:00:00,16.509717,80.612222,PM10,61,427,102
India,Andhra_Pradesh,Vijayawada,"Rajiv Gandhi Park, Vijayawada - APPCB",24-12-2025 08:00:00,16.509717,80.612222,NH3,2,6,4
India,Andhra_Pradesh,Vijayawada,"Rajiv Gandhi Park, Vijayawada - APPCB",24-12-2025 08:00:00,16.509717,80.612222,CO,20,37,36
India,Andhra_Pradesh,Vijayawada,"Rajiv Nagar, Vijayawada - APPCB",24-12-2025 08:00:00,16.554731,80.649110,SO2,14,18,16
India,Andhra_Pradesh,Vijayawada,"Rajiv Nagar, Vijayawada - APPCB",24-12-2025 08:00:00,16.554731,80.649110,OZONE,66,98,92
India,Andhra_Pradesh,Visakhapatnam,"GVM Corporation, Visakhapatnam - APPCB",24-12-2025 08:00:00,17.72,83.3,OZONE,4,81,7
India,Arunachal_Pradesh,Naharlagun,"Naharlagun, Naharlagun - APSPCB",24-12-2025 08:00:00,27.103358,93.679645,NH3,NA,NA,NA
India,Arunachal_Pradesh,Naharlagun,"Naharlagun, Naharlagun - APSPCB",24-12-2025 08:00:00,27.103358,93.679645,CO,4,58,23
India,Arunachal_Pradesh,Naharlagun,"Naharlagun, Naharlagun - APSPCB",24-12-2025 08:00:00,27.103358,93.679645,OZONE,5,6,6
India,Bihar,Hajipur,"Industrial Area, Hajipur - BSPCB",24-12-2025 08:00:00,25.697189,85.245900,OZONE,6,37,28
India,Bihar,Katihar,"Mirchaibari, Katihar - BSPCB",24-12-2025 08:00:00,25.560083,87.553265,NH3,1,1,1
India,Bihar,Kishanganj,"SDM Office_Khagra, Kishanganj - BSPCB",24-12-2025 08:00:00,26.0881305,87.93840336,NH3,3,3,3
India,Bihar,Manguraha,"Forest Rest House, Manguraha - BSPCB",24-12-2025 08:00:00,27.308328,84.531742,PM10,67,168,123
India,Bihar,Manguraha,"Forest Rest House, Manguraha - BSPCB",24-12-2025 08:00:00,27.308328,84.531742,SO2,16,17,16
India,Bihar,Motihari,"Gandak Colony, Motihari - BSPCB",24-12-2025 08:00:00,26.63086,84.90051,PM10,141,157,147
India,Bihar,Motihari,"Gandak Colony, Motihari - BSPCB",24-12-2025 08:00:00,26.63086,84.90051,SO2,2,3,3
India,Bihar,Bhagalpur,"DM Office_Kachari Chowk, Bhagalpur - BSPCB",24-12-2025 08:00:00,25.251013,86.989001,PM10,94,180,136
India,Bihar,Bhagalpur,"DM Office_Kachari Chowk, Bhagalpur - BSPCB",24-12-2025 08:00:00,25.251013,86.989001,CO,12,16,13
India,Bihar,Bhagalpur,"Mayaganj, Bhagalpur - BSPCB",24-12-2025 08:00:00,25.265194,87.012947,NO2,7,8,7
India,Bihar,Bihar Sharif,"D M Colony, Bihar Sharif - BSPCB",24-12-2025 08:00:00,25.204762,85.514960,PM10,87,134,112
India,Bihar,Bihar Sharif,"D M Colony, Bihar Sharif - BSPCB",24-12-2025 08:00:00,25.204762,85.514960,NO2,9,10,9
India,Bihar,Buxar,"Charitra Van, Buxar - BSPCB",24-12-2025 08:00:00,25.567520,83.966379,CO,19,28,24
India,Bihar,Chhapra,"Darshan Nagar, Chhapra - BSPCB",24-12-2025 08:00:00,25.7808257,84.7446768,PM2.5,32,280,157
India,Andhra_Pradesh,Rajamahendravaram,"Anand Kala Kshetram, Rajamahendravaram - APPCB",24-12-2025 08:00:00,16.9872867,81.7363176,NO2,17,65,35
India,Andhra_Pradesh,Rajamahendravaram,"Anand Kala Kshetram, Rajamahendravaram - APPCB",24-12-2025 08:00:00,16.9872867,81.7363176,OZONE,11,36,13
India,Andhra_Pradesh,Tirumala,"Toll Gate, Tirumala - APPCB",24-12-2025 08:00:00,13.67,79.35,OZONE,19,67,39
India,Andhra_Pradesh,Tirupati,"Vaikuntapuram, Tirupati - APPCB",24-12-2025 08:00:00,13.615387,79.409230,PM2.5,22,307,134
India,Andhra_Pradesh,Tirupati,"Vaikuntapuram, Tirupati - APPCB",24-12-2025 08:00:00,13.615387,79.409230,PM10,22,177,94
India,Andhra_Pradesh,Vijayawada,"HB Colony, Vijayawada - APPCB",24-12-2025 08:00:00,16.536107,80.594233,SO2,NA,NA,NA
India,Assam,Byrnihat,"Central Academy for SFS, Byrnihat - PCBA",24-12-2025 08:00:00,26.071318,91.87488,SO2,5,10,6
India,Assam,Guwahati,"LGBI Airport, Guwahati - PCBA",24-12-2025 08:00:00,26.10887,91.589544,NO2,12,17,15
India,Assam,Guwahati,"Pan Bazaar, Guwahati - PCBA",24-12-2025 08:00:00,26.187500,91.744194,NH3,NA,NA,NA
India,Assam,Guwahati,"Railway Colony, Guwahati - PCBA",24-12-2025 08:00:00,26.181742,91.78063,SO2,34,36,34
India,Assam,Guwahati,"Railway Colony, Guwahati - PCBA",24-12-2025 08:00:00,26.181742,91.78063,CO,34,110,75
India,Assam,Nagaon,"Christianpatty, Nagaon - PCBA",24-12-2025 08:00:00,26.349082,92.68449,NO2,1,1,1
India,Bihar,Chhapra,"Darshan Nagar, Chhapra - BSPCB",24-12-2025 08:00:00,25.7808257,84.7446768,NH3,2,12,7
India,Bihar,Gaya,"Kareemganj, Gaya - BSPCB",24-12-2025 08:00:00,24.792403,84.992416,NH3,4,6,5
India,Bihar,Gaya,"SFTI Kusdihra, Gaya - BSPCB",24-12-2025 08:00:00,24.762518,84.982348,PM2.5,NA,NA,NA
India,Bihar,Gaya,"SFTI Kusdihra, Gaya - BSPCB",24-12-2025 08:00:00,24.762518,84.982348,CO,35,44,44
India,Bihar,Hajipur,"Industrial Area, Hajipur - BSPCB",24-12-2025 08:00:00,25.697189,85.245900,PM2.5,99,233,188
India,Bihar,Hajipur,"Industrial Area, Hajipur - BSPCB",24-12-2025 08:00:00,25.697189,85.245900,NO2,19,37,27
India,Assam,Nagaon,"Christianpatty, Nagaon - PCBA",24-12-2025 08:00:00,26.349082,92.68449,OZONE,9,9,9
India,Assam,Nalbari,"Bata Chowk, Nalbari - PCBA",24-12-2025 08:00:00,26.446912,91.439057,PM10,91,129,104
India,Assam,Silchar,"Tarapur, Silchar - PCBA",24-12-2025 08:00:00,24.82827,92.79525,PM2.5,20,71,49
India,Bihar,Araria,"Kharahiya Basti, Araria - BSPCB",24-12-2025 08:00:00,26.146529,87.454184,NH3,4,5,4
India,Bihar,Araria,"Kharahiya Basti, Araria - BSPCB",24-12-2025 08:00:00,26.146529,87.454184,SO2,18,40,31
India,Andhra_Pradesh,Amaravati,"Secretariat, Amaravati - APPCB",24-12-2025 08:00:00,16.5150833,80.5181667,PM2.5,90,302,149
India,Andhra_Pradesh,Chittoor,"Gangineni Cheruvu, Chittoor - APPCB",24-12-2025 08:00:00,13.204880,79.097889,CO,10,36,15
India,Andhra_Pradesh,Kadapa,"Yerramukkapalli, Kadapa - APPCB",24-12-2025 08:00:00,14.465052,78.824187,NH3,3,4,4
India,Andhra_Pradesh,Kadapa,"Yerramukkapalli, Kadapa - APPCB",24-12-2025 08:00:00,14.465052,78.824187,OZONE,18,22,21
India,Bihar,Arrah,"New DM Office, Arrah - BSPCB",24-12-2025 08:00:00,25.5626095,84.663264,NO2,5,9,7
India,Bihar,Bettiah,"Kamalnath Nagar, Bettiah - BSPCB",24-12-2025 08:00:00,26.80365,84.51954,NO2,7,9,8
India,Bihar,Bettiah,"Kamalnath Nagar, Bettiah - BSPCB",24-12-2025 08:00:00,26.80365,84.51954,SO2,10,26,15
India,Andaman and Nicobar,Sri Vijaya Puram,"Police Line, Sri Vijaya Puram - ANPCC",24-12-2025 08:00:00,11.654054,92.734055,NO2,13,23,18
India,Chhattisgarh,Bhilai,"Hathkhoj, Bhilai - CECB",24-12-2025 08:00:00,21.224231,81.408350,NH3,4,7,6
India,Chhattisgarh,Bhilai,"Hathkhoj, Bhilai - CECB",24-12-2025 08:00:00,21.224231,81.408350,SO2,19,107,54
India,Chhattisgarh,Bhilai,"Hathkhoj, Bhilai - CECB",24-12-2025 08:00:00,21.224231,81.408350,OZONE,2,14,3
India,Chhattisgarh,Bilaspur,"Mangala, Bilaspur - NTPC",24-12-2025 08:00:00,22.08815,82.13737,NO2,19,62,27
India,Chhattisgarh,Chhal,"Nawapara SECL Colony, Chhal - CECB",24-12-2025 08:00:00,22.118125,83.140608,PM2.5,72,147,104
India,Chhattisgarh,Chhal,"Nawapara SECL Colony, Chhal - CECB",24-12-2025 08:00:00,22.118125,83.140608,CO,34,63,51
India,Chhattisgarh,Korba,"Rampur, Korba - CECB",24-12-2025 08:00:00,22.368195,82.746431,PM10,44,153,95
India,Chhattisgarh,Korba,"Rampur, Korba - CECB",24-12-2025 08:00:00,22.368195,82.746431,NO2,11,75,35
India,Chhattisgarh,Korba,"Rampur, Korba - CECB",24-12-2025 08:00:00,22.368195,82.746431,CO,18,100,31
India,Chhattisgarh,Korba,"Urja Nagar, Korba - CECB",24-12-2025 08:00:00,22.348441,82.549611,PM10,54,160,97
India,Chhattisgarh,Korba,"Urja Nagar, Korba - CECB",24-12-2025 08:00:00,22.348441,82.549611,NO2,17,26,21
India,Chandigarh,Chandigarh,"Sector-25, Chandigarh - CPCC",24-12-2025 08:00:00,30.751462,76.762879,PM10,64,131,105
India,Chandigarh,Chandigarh,"Sector-25, Chandigarh - CPCC",24-12-2025 08:00:00,30.751462,76.762879,NO2,15,28,19
India,Chandigarh,Chandigarh,"Sector-25, Chandigarh - CPCC",24-12-2025 08:00:00,30.751462,76.762879,NH3,1,1,1
India,Chandigarh,Chandigarh,"Sector-53, Chandigarh - CPCC",24-12-2025 08:00:00,30.719859,76.738637,OZONE,5,34,8
India,Chhattisgarh,Bhilai,"32Bungalows, Bhilai - CECB",24-12-2025 08:00:00,21.194815,81.314770,PM2.5,13,30,20
India,Chhattisgarh,Bhilai,"32Bungalows, Bhilai - CECB",24-12-2025 08:00:00,21.194815,81.314770,PM10,18,122,55
India,Chhattisgarh,Bhilai,"32Bungalows, Bhilai - CECB",24-12-2025 08:00:00,21.194815,81.314770,NH3,4,6,6
India,Chhattisgarh,Bhilai,"Civic Center, Bhilai - Bhilai Steel Plant",24-12-2025 08:00:00,21.185571,81.343175,CO,21,22,22
India,Chhattisgarh,Bhilai,"Hathkhoj, Bhilai - CECB",24-12-2025 08:00:00,21.224231,81.408350,PM2.5,4,64,45
India,Bihar,Munger,"Town Hall, Munger - BSPCB",24-12-2025 08:00:00,25.376776,86.471523,NO2,4,5,5
India,Bihar,Munger,"Town Hall, Munger - BSPCB",24-12-2025 08:00:00,25.376776,86.471523,NH3,4,7,6
India,Bihar,Munger,"Town Hall, Munger - BSPCB",24-12-2025 08:00:00,25.376776,86.471523,CO,4,38,16
India,Bihar,Muzaffarpur,"Buddha Colony, Muzaffarpur - BSPCB",24-12-2025 08:00:00,26.11442,85.39813,PM2.5,155,260,217
India,Bihar,Muzaffarpur,"MIT-Daudpur Kothi, Muzaffarpur - BSPCB",24-12-2025 08:00:00,26.1403345,85.3650192,PM10,66,73,68
India,Bihar,Muzaffarpur,"MIT-Daudpur Kothi, Muzaffarpur - BSPCB",24-12-2025 08:00:00,26.1403345,85.3650192,NO2,1,4,3
India,Bihar,Muzaffarpur,"MIT-Daudpur Kothi, Muzaffarpur - BSPCB",24-12-2025 08:00:00,26.1403345,85.3650192,NH3,1,2,1
India,Bihar,Patna,"DRM Office Danapur, Patna - BSPCB",24-12-2025 08:00:00,25.586562,85.043586,SO2,8,38,13
India,Bihar,Samastipur,"DM Office_Kasipur, Samastipur - BSPCB",24-12-2025 08:00:00,25.859655,85.77944,NO2,7,10,8
India,Bihar,Samastipur,"DM Office_Kasipur, Samastipur - BSPCB",24-12-2025 08:00:00,25.859655,85.77944,NH3,1,1,1
India,Bihar,Sasaram,"Dada Peer, Sasaram - BSPCB",24-12-2025 08:00:00,24.952822,84.002396,PM10,77,172,119
India,Bihar,Siwan,"Chitragupta Nagar, Siwan - BSPCB",24-12-2025 08:00:00,26.2271665,84.3570427,PM10,105,138,118
India,Bihar,Siwan,"Chitragupta Nagar, Siwan - BSPCB",24-12-2025 08:00:00,26.2271665,84.3570427,SO2,10,10,10
India,Chandigarh,Chandigarh,"Sector 22, Chandigarh - CPCC",24-12-2025 08:00:00,30.735567,76.775714,SO2,5,14,9
India,Chandigarh,Chandigarh,"Sector 22, Chandigarh - CPCC",24-12-2025 08:00:00,30.735567,76.775714,CO,52,104,83
India,Bihar,Patna,"Samanpura, Patna - BSPCB",24-12-2025 08:00:00,25.596727,85.085624,NH3,5,6,5
India,Bihar,Purnia,"Mariam Nagar, Purnia - BSPCB",24-12-2025 08:00:00,25.366336,87.117468,OZONE,22,44,25
India,Bihar,Saharsa,"Police Line, Saharsa - BSPCB",24-12-2025 08:00:00,25.892357,86.590325,PM2.5,72,203,112
India,Bihar,Saharsa,"Police Line, Saharsa - BSPCB",24-12-2025 08:00:00,25.892357,86.590325,NO2,5,9,7
India,Bihar,Saharsa,"Police Line, Saharsa - BSPCB",24-12-2025 08:00:00,25.892357,86.590325,NH3,4,4,4
India,Bihar,Saharsa,"Police Line, Saharsa - BSPCB",24-12-2025 08:00:00,25.892357,86.590325,CO,34,43,38
India,Bihar,Samastipur,"DM Office_Kasipur, Samastipur - BSPCB",24-12-2025 08:00:00,25.859655,85.77944,PM2.5,133,243,193
India,Chhattisgarh,Raipur,"Krishak Nagar, Raipur - CECB",24-12-2025 08:00:00,21.237755,81.705301,PM2.5,60,93,77
India,Chhattisgarh,Raipur,"Siltara Phase-II, Raipur - CECB",24-12-2025 08:00:00,21.371751,81.664929,PM2.5,41,150,69
India,Chhattisgarh,Tumidih,"OP Jindal Industrial Park, Tumidih - CECB",24-12-2025 08:00:00,22.06631475,83.33820077,OZONE,3,184,4
India,Delhi,Delhi,"Alipur, Delhi - DPCC",24-12-2025 08:00:00,28.815329,77.153010,PM10,149,332,222
India,Delhi,Delhi,"Alipur, Delhi - DPCC",24-12-2025 08:00:00,28.815329,77.153010,NO2,33,62,44
India,Bihar,Patna,"Muradpur, Patna - BSPCB",24-12-2025 08:00:00,25.619651,85.147382,NO2,4,7,6
India,Bihar,Patna,"Muradpur, Patna - BSPCB",24-12-2025 08:00:00,25.619651,85.147382,SO2,8,10,8
India,Bihar,Patna,"Rajbansi Nagar, Patna - BSPCB",24-12-2025 08:00:00,25.599486,85.113666,PM2.5,102,141,122
India,Bihar,Patna,"Rajbansi Nagar, Patna - BSPCB",24-12-2025 08:00:00,25.599486,85.113666,NO2,51,155,86
India,Bihar,Patna,"Rajbansi Nagar, Patna - BSPCB",24-12-2025 08:00:00,25.599486,85.113666,CO,36,102,45
India,Bihar,Patna,"Samanpura, Patna - BSPCB",24-12-2025 08:00:00,25.596727,85.085624,NO2,21,24,22
India,Chhattisgarh,Milupara,"Govt. Higher Secondary School, Milupara - CECB",24-12-2025 08:00:00,22.1910172,83.5197009,PM10,45,356,124
India,Chhattisgarh,Milupara,"Govt. Higher Secondary School, Milupara - CECB",24-12-2025 08:00:00,22.1910172,83.5197009,NO2,20,83,36
India,Chhattisgarh,Milupara,"Govt. Higher Secondary School, Milupara - CECB",24-12-2025 08:00:00,22.1910172,83.5197009,SO2,13,40,18
India,Chhattisgarh,Raipur,"Bhatagaon New ISBT, Raipur - CECB",24-12-2025 08:00:00,21.219665,81.630094,PM2.5,26,70,44
India,Delhi,Delhi,"Anand Vihar, Delhi - DPCC",24-12-2025 08:00:00,28.647622,77.3158090,NO2,40,110,77
India,Delhi,Delhi,"Ashok Vihar, Delhi - DPCC",24-12-2025 08:00:00,28.695381,77.181665,NH3,8,9,8
India,Delhi,Delhi,"Pusa, Delhi - IMD",24-12-2025 08:00:00,28.636110,77.173332,OZONE,1,93,7
India,Delhi,Delhi,"R K Puram, Delhi - DPCC",24-12-2025 08:00:00,28.563262,77.186937,PM10,109,322,225
India,Delhi,Delhi,"R K Puram, Delhi - DPCC",24-12-2025 08:00:00,28.563262,77.186937,NO2,44,112,67
India,Delhi,Delhi,"Shadipur, Delhi - CPCB",24-12-2025 08:00:00,28.6514781,77.1473105,PM2.5,233,359,310
India,Delhi,Delhi,"Shadipur, Delhi - CPCB",24-12-2025 08:00:00,28.6514781,77.1473105,NO2,39,55,46
India,Delhi,Delhi,"Shadipur, Delhi - CPCB",24-12-2025 08:00:00,28.6514781,77.1473105,NH3,12,18,14
India,Delhi,Delhi,"Shadipur, Delhi - CPCB",24-12-2025 08:00:00,28.6514781,77.1473105,CO,35,104,54
India,Delhi,Delhi,"Sirifort, Delhi - CPCB",24-12-2025 08:00:00,28.5504249,77.2159377,NH3,NA,NA,NA
India,Delhi,Delhi,"Okhla Phase-2, Delhi - DPCC",24-12-2025 08:00:00,28.530785,77.271255,OZONE,7,156,16
India,Delhi,Delhi,"Patparganj, Delhi - DPCC",24-12-2025 08:00:00,28.623763,77.287209,SO2,9,16,12
India,Delhi,Delhi,"Patparganj, Delhi - DPCC",24-12-2025 08:00:00,28.623763,77.287209,CO,106,136,110
India,Delhi,Delhi,"Punjabi Bagh, Delhi - DPCC",24-12-2025 08:00:00,28.674045,77.131023,PM2.5,223,452,366
India,Delhi,Delhi,"Punjabi Bagh, Delhi - DPCC",24-12-2025 08:00:00,28.674045,77.131023,OZONE,5,52,13
India,Delhi,Delhi,"Pusa, Delhi - DPCC",24-12-2025 08:00:00,28.639652,77.146275,PM2.5,290,460,383
India,Delhi,Delhi,"Pusa, Delhi - DPCC",24-12-2025 08:00:00,28.639652,77.146275,PM10,141,486,319
India,Delhi,Delhi,"Pusa, Delhi - DPCC",24-12-2025 08:00:00,28.639652,77.146275,NH3,13,29,23
India,Delhi,Delhi,"ITO, Delhi - CPCB",24-12-2025 08:00:00,28.628624,77.241060,PM10,NA,NA,NA
India,Delhi,Delhi,"ITO, Delhi - CPCB",24-12-2025 08:00:00,28.628624,77.241060,NO2,NA,NA,NA
India,Delhi,Delhi,"ITO, Delhi - CPCB",24-12-2025 08:00:00,28.628624,77.241060,CO,NA,NA,NA
India,Delhi,Delhi,"Jahangirpuri, Delhi - DPCC",24-12-2025 08:00:00,28.732820,77.170633,NH3,5,7,6
India,Delhi,Delhi,"Jawaharlal Nehru Stadium, Delhi - DPCC",24-12-2025 08:00:00,28.580280,77.233829,CO,52,108,67
India,Delhi,Delhi,"Lodhi Road, Delhi - IMD",24-12-2025 08:00:00,28.5918245,77.2273074,PM2.5,87,393,295
India,Delhi,Delhi,"Bawana, Delhi - DPCC",24-12-2025 08:00:00,28.776200,77.051074,NH3,9,15,12
India,Delhi,Delhi,"Bawana, Delhi - DPCC",24-12-2025 08:00:00,28.776200,77.051074,SO2,15,21,17
India,Delhi,Delhi,"Bawana, Delhi - DPCC",24-12-2025 08:00:00,28.776200,77.051074,CO,62,106,73
India,Delhi,Delhi,"Bawana, Delhi - DPCC",24-12-2025 08:00:00,28.776200,77.051074,OZONE,4,78,9
India,Delhi,Delhi,"Burari Crossing, Delhi - IMD",24-12-2025 08:00:00,28.7256504,77.2011573,PM2.5,213,399,316
India,Delhi,Delhi,"CRRI Mathura Road, Delhi - IMD",24-12-2025 08:00:00,28.5512005,77.2735737,PM2.5,104,398,306
India,Gujarat,Ahmedabad,"Chandkheda, Ahmedabad - IITM",24-12-2025 08:00:00,23.107969,72.574648,CO,18,136,28
India,Gujarat,Ahmedabad,"Gyaspur, Ahmedabad - IITM",24-12-2025 08:00:00,22.977134,72.553024,PM10,109,196,152
India,Gujarat,Ahmedabad,"Maninagar, Ahmedabad - GPCB",24-12-2025 08:00:00,23.002657,72.591912,PM10,70,179,118
India,Gujarat,Ahmedabad,"Maninagar, Ahmedabad - GPCB",24-12-2025 08:00:00,23.002657,72.591912,CO,14,54,25
India,Gujarat,Ahmedabad,"Raikhad, Ahmedabad - IITM",24-12-2025 08:00:00,23.020509,72.579261,SO2,11,21,16
India,Delhi,Delhi,"Dr. Karni Singh Shooting Range, Delhi - DPCC",24-12-2025 08:00:00,28.498571,77.264840,PM2.5,240,434,364
India,Delhi,Delhi,"Dr. Karni Singh Shooting Range, Delhi - DPCC",24-12-2025 08:00:00,28.498571,77.264840,CO,39,101,55
India,Delhi,Delhi,"Dwarka-Sector 8, Delhi - DPCC ",24-12-2025 08:00:00,28.5710274,77.0719006,SO2,22,30,26
India,Delhi,Delhi,"IHBAS, Dilshad Garden, Delhi - CPCB",24-12-2025 08:00:00,28.6811736,77.3025234,NO2,67,121,92
India,Delhi,Delhi,"Sri Aurobindo Marg, Delhi - DPCC",24-12-2025 08:00:00,28.531346,77.190156,PM2.5,183,375,326
India,Delhi,Delhi,"Sri Aurobindo Marg, Delhi - DPCC",24-12-2025 08:00:00,28.531346,77.190156,NH3,10,16,13
India,Delhi,Delhi,"Vivek Vihar, Delhi - DPCC",24-12-2025 08:00:00,28.672342,77.315260,NO2,35,114,61
India,Delhi,Delhi,"Vivek Vihar, Delhi - DPCC",24-12-2025 08:00:00,28.672342,77.315260,SO2,7,20,12
India,Delhi,Delhi,"Wazirpur, Delhi - DPCC",24-12-2025 08:00:00,28.699793,77.165453,NO2,44,248,80
India,Delhi,Delhi,"NSIT Dwarka, Delhi - CPCB",24-12-2025 08:00:00,28.60909,77.0325413,CO,55,101,72
India,Delhi,Delhi,"Narela, Delhi - DPCC",24-12-2025 08:00:00,28.822836,77.101981,PM10,144,321,202
India,Delhi,Delhi,"Nehru Nagar, Delhi - DPCC",24-12-2025 08:00:00,28.567890,77.250515,NO2,29,98,58
India,Delhi,Delhi,"Mandir Marg, Delhi - DPCC",24-12-2025 08:00:00,28.636429,77.201067,PM2.5,78,392,279
India,Delhi,Delhi,"Mundka, Delhi - DPCC",24-12-2025 08:00:00,28.684678,77.076574,PM10,111,461,260
India,Haryana,Panchkula,"Sector-6, Panchkula - HSPCB ",24-12-2025 08:00:00,30.7057778,76.8531805555555,NO2,24,27,25
India,Haryana,Panipat,"Sector-18, Panipat - HSPCB",24-12-2025 08:00:00,29.432304,76.972765,OZONE,30,30,30
India,Haryana,Rohtak,"MD University, Rohtak - HSPCB",24-12-2025 08:00:00,28.52123,76.37138,PM10,154,500,238
India,Haryana,Rohtak,"MD University, Rohtak - HSPCB",24-12-2025 08:00:00,28.52123,76.37138,NO2,11,13,12
India,Haryana,Rohtak,"MD University, Rohtak - HSPCB",24-12-2025 08:00:00,28.52123,76.37138,SO2,11,13,12
India,Haryana,Sirsa,"F-Block, Sirsa - HSPCB",24-12-2025 08:00:00,29.536400,75.015800,PM2.5,14,151,33
India,Haryana,Sirsa,"F-Block, Sirsa - HSPCB",24-12-2025 08:00:00,29.536400,75.015800,NO2,15,23,19
India,Haryana,Sirsa,"F-Block, Sirsa - HSPCB",24-12-2025 08:00:00,29.536400,75.015800,NH3,10,14,12
India,Haryana,Sirsa,"F-Block, Sirsa - HSPCB",24-12-2025 08:00:00,29.536400,75.015800,SO2,6,16,11
India,Haryana,Sonipat,"Murthal, Sonipat - HSPCB",24-12-2025 08:00:00,29.027200,77.062100,NO2,27,51,41
India,Haryana,Bahadurgarh,"Arya Nagar, Bahadurgarh - HSPCB",24-12-2025 08:00:00,28.6701,76.9254,OZONE,14,20,17
India,Haryana,Ballabgarh,"Nathu Colony, Ballabgarh - HSPCB",24-12-2025 08:00:00,28.3419248,77.319699,PM2.5,175,406,295
India,Haryana,Ballabgarh,"Nathu Colony, Ballabgarh - HSPCB",24-12-2025 08:00:00,28.3419248,77.319699,PM10,151,289,215
India,Haryana,Bhiwani,"H.B. Colony, Bhiwani - HSPCB",24-12-2025 08:00:00,28.806223,76.141105,OZONE,6,19,12
India,Haryana,Charkhi Dadri,"Mini Secretariat, Charkhi Dadri - HSPCB",24-12-2025 08:00:00,28.593883,76.270653,PM2.5,107,351,263
India,Haryana,Dharuhera,"Municipal Corporation Office, Dharuhera -  HSPCB",24-12-2025 08:00:00,28.206800,76.799700,PM10,136,305,236
India,Haryana,Dharuhera,"Municipal Corporation Office, Dharuhera -  HSPCB",24-12-2025 08:00:00,28.206800,76.799700,NO2,10,34,25
India,Gujarat,Ankleshwar,"GIDC, Ankleshwar - GPCB",24-12-2025 08:00:00,21.613267,73.010555,PM10,91,228,127
India,Gujarat,Gandhinagar,"GIFT City, Gandhinagar - IITM",24-12-2025 08:00:00,23.163798,72.677768,NH3,3,25,8
India,Gujarat,Gandhinagar,"GIFT City, Gandhinagar - IITM",24-12-2025 08:00:00,23.163798,72.677768,SO2,4,10,8
India,Gujarat,Gandhinagar,"GIFT City, Gandhinagar - IITM",24-12-2025 08:00:00,23.163798,72.677768,OZONE,1,64,8
India,Gujarat,Gandhinagar,"IIPHG Lekawada, Gandhinagar - IITM",24-12-2025 08:00:00,23.243639,72.68994,SO2,4,9,6
India,Gujarat,Gandhinagar,"IIPHG Lekawada, Gandhinagar - IITM",24-12-2025 08:00:00,23.243639,72.68994,CO,5,102,23
India,Gujarat,Gandhinagar,"Sector-10, Gandhinagar - GPCB",24-12-2025 08:00:00,23.221714,72.654328,PM10,65,153,101
India,Gujarat,Surat,"Science Center, Surat - SMC",24-12-2025 08:00:00,21.170046,72.795405,PM2.5,2,140,39
India,Haryana,Jind,"Police Lines, Jind - HSPCB",24-12-2025 08:00:00,29.307814,76.337619,NO2,38,52,44
India,Haryana,Jind,"Police Lines, Jind - HSPCB",24-12-2025 08:00:00,29.307814,76.337619,OZONE,13,45,17
India,Haryana,Karnal,"Sector-12, Karnal - HSPCB",24-12-2025 08:00:00,29.695300,77.002700,PM10,1,417,100
India,Haryana,Karnal,"Sector-12, Karnal - HSPCB",24-12-2025 08:00:00,29.695300,77.002700,NO2,6,7,6
India,Haryana,Karnal,"Sector-12, Karnal - HSPCB",24-12-2025 08:00:00,29.695300,77.002700,SO2,6,6,6
India,Haryana,Kurukshetra,"Sector-7, Kurukshetra - HSPCB",24-12-2025 08:00:00,29.966942,76.875879,NH3,5,5,5
India,Haryana,Mandikhera,"General Hospital, Mandikhera(Nuh) - HSPCB",24-12-2025 08:00:00,27.9002,76.9938,CO,54,90,75
India,Haryana,Gurugram,"NISE Gwal Pahari, Gurugram - IMD",24-12-2025 08:00:00,28.422681,77.148944,NO2,124,269,202
India,Haryana,Gurugram,"Sector-51, Gurugram - HSPCB",24-12-2025 08:00:00,28.4227,77.0667,CO,13,19,14
India,Haryana,Hisar,"Urban Estate-II, Hisar - HSPCB",24-12-2025 08:00:00,29.140560,75.744941,PM10,110,147,131
India,Haryana,Hisar,"Urban Estate-II, Hisar - HSPCB",24-12-2025 08:00:00,29.140560,75.744941,SO2,7,15,11
India,Haryana,Hisar,"Urban Estate-II, Hisar - HSPCB",24-12-2025 08:00:00,29.140560,75.744941,CO,36,57,56
India,Haryana,Hisar,"Urban Estate-II, Hisar - HSPCB",24-12-2025 08:00:00,29.140560,75.744941,OZONE,31,64,44
India,Gujarat,Ahmedabad,"Rakhial, Ahmedabad - IITM",24-12-2025 08:00:00,23.016834,72.625775,NH3,3,9,5
India,Gujarat,Ahmedabad,"SAC ISRO Bopal, Ahmedabad - IITM",24-12-2025 08:00:00,23.041137,72.456691,NO2,22,71,43
India,Gujarat,Ahmedabad,"SAC ISRO Satellite, Ahmedabad - IITM",24-12-2025 08:00:00,23.023389,72.515201,NO2,17,62,33
India,Gujarat,Ahmedabad,"SAC ISRO Satellite, Ahmedabad - IITM",24-12-2025 08:00:00,23.023389,72.515201,SO2,6,33,16
India,Gujarat,Ahmedabad,"SAC ISRO Satellite, Ahmedabad - IITM",24-12-2025 08:00:00,23.023389,72.515201,OZONE,1,57,6
India,Gujarat,Ahmedabad,"SVPI Airport Hansol, Ahmedabad - IITM",24-12-2025 08:00:00,23.076793,72.627874,PM2.5,24,87,59
India,Gujarat,Surat,"Science Center, Surat - SMC",24-12-2025 08:00:00,21.170046,72.795405,PM10,12,191,70
India,Gujarat,Vatva,"Phase-4 GIDC, Vatva - GPCB",24-12-2025 08:00:00,22.969611,72.643500,SO2,31,80,51
India,Gujarat,Vatva,"Phase-4 GIDC, Vatva - GPCB",24-12-2025 08:00:00,22.969611,72.643500,OZONE,20,46,21
India,Haryana,Ambala,"Patti Mehar, Ambala - HSPCB",24-12-2025 08:00:00,30.379589,76.778328,PM2.5,76,196,112
India,Haryana,Ambala,"Patti Mehar, Ambala - HSPCB",24-12-2025 08:00:00,30.379589,76.778328,NO2,21,24,22
India,Haryana,Ambala,"Patti Mehar, Ambala - HSPCB",24-12-2025 08:00:00,30.379589,76.778328,OZONE,48,51,49
India,Haryana,Faridabad,"New Industrial Town, Faridabad - HSPCB",24-12-2025 08:00:00,28.39072,77.30059,PM10,170,177,173
India,Haryana,Faridabad,"New Industrial Town, Faridabad - HSPCB",24-12-2025 08:00:00,28.39072,77.30059,OZONE,27,34,31
India,Haryana,Faridabad,"Sector 30, Faridabad - HSPCB",24-12-2025 08:00:00,28.4417,77.3217,OZONE,17,19,18
India,Haryana,Fatehabad,"Huda Sector, Fatehabad - HSPCB",24-12-2025 08:00:00,29.503664,75.467934,PM2.5,72,245,136
India,Haryana,Fatehabad,"Huda Sector, Fatehabad - HSPCB",24-12-2025 08:00:00,29.503664,75.467934,NH3,13,15,14
India,Haryana,Fatehabad,"Huda Sector, Fatehabad - HSPCB",24-12-2025 08:00:00,29.503664,75.467934,OZONE,56,68,66
India,Haryana,Manesar,"Sector-2 IMT, Manesar - HSPCB",24-12-2025 08:00:00,28.360699,76.936090,NH3,17,25,22
India,Haryana,Narnaul,"Shastri Nagar, Narnaul - HSPCB",24-12-2025 08:00:00,28.060249,76.113115,CO,22,42,26
India,Haryana,Palwal,"Shyam Nagar, Palwal - HSPCB",24-12-2025 08:00:00,28.1485564,77.3320667,PM2.5,36,68,48
India,Haryana,Panchgaon,"Amity University, Panchgaon - IITM",24-12-2025 08:00:00,28.3153,76.9143,PM10,33,437,99
India,Haryana,Sonipat,"Murthal, Sonipat - HSPCB",24-12-2025 08:00:00,29.027200,77.062100,CO,24,64,32
India,Himachal Pradesh,Baddi,"HIMUDA Complex Phase-1, Baddi - HPPCB",24-12-2025 08:00:00,30.943887,76.801991,PM10,122,275,188
India,Himachal Pradesh,Baddi,"HIMUDA Complex Phase-1, Baddi - HPPCB",24-12-2025 08:00:00,30.943887,76.801991,NO2,11,57,28
India,Himachal Pradesh,Baddi,"HIMUDA Complex Phase-1, Baddi - HPPCB",24-12-2025 08:00:00,30.943887,76.801991,OZONE,7,96,19
India,Jammu_and_Kashmir,Pampore,"Khrew, Pampore - JKPCC",24-12-2025 08:00:00,34.031606,75.009712,PM10,30,66,44
India,Jammu_and_Kashmir,Srinagar,"Khunmoh, Srinagar - JKPCC",24-12-2025 08:00:00,34.06313,74.96017,PM2.5,14,24,20
India,Jammu_and_Kashmir,Srinagar,"Khunmoh, Srinagar - JKPCC",24-12-2025 08:00:00,34.06313,74.96017,NO2,3,15,5
India,Jammu_and_Kashmir,Srinagar,"Rajbagh, Srinagar - JKPCC",24-12-2025 08:00:00,34.066206,74.819820,OZONE,NA,NA,NA
India,Karnataka,Bengaluru,"Hebbal, Bengaluru - KSPCB",24-12-2025 08:00:00,13.029152,77.585901,NO2,7,8,7
India,Karnataka,Bengaluru,"Hebbal, Bengaluru - KSPCB",24-12-2025 08:00:00,13.029152,77.585901,SO2,4,10,6
India,Karnataka,Bengaluru,"Hebbal, Bengaluru - KSPCB",24-12-2025 08:00:00,13.029152,77.585901,CO,2,53,21
India,Karnataka,Bengaluru,"Hombegowda Nagar, Bengaluru - KSPCB",24-12-2025 08:00:00,12.938539,77.590100,OZONE,2,58,26
India,Karnataka,Bengaluru,"Jayanagar 5th Block, Bengaluru - KSPCB",24-12-2025 08:00:00,12.920984,77.584908,CO,4,100,12
India,Karnataka,Bengaluru,"Jigani, Bengaluru - KSPCB",24-12-2025 08:00:00,12.7816279,77.6299145,CO,32,49,34
India,Karnataka,Bengaluru,"Kasturi Nagar, Bengaluru - KSPCB",24-12-2025 08:00:00,13.003872,77.664217,PM2.5,62,79,76
India,Karnataka,Bengaluru,"Kasturi Nagar, Bengaluru - KSPCB",24-12-2025 08:00:00,13.003872,77.664217,PM10,67,76,75
India,Karnataka,Bengaluru,"Kasturi Nagar, Bengaluru - KSPCB",24-12-2025 08:00:00,13.003872,77.664217,NH3,1,1,1
India,Karnataka,Bagalkot,"Vidayagiri, Bagalkot - KSPCB",24-12-2025 08:00:00,16.172806,75.659694,NH3,1,2,1
India,Karnataka,Belgaum,"Ramteerth Nagar, Belgaum - KSPCB",24-12-2025 08:00:00,15.888653,74.541751,SO2,22,23,23
India,Karnataka,Bengaluru,"BTM Layout, Bengaluru - CPCB",24-12-2025 08:00:00,12.9135218,77.5950804,PM2.5,82,107,92
India,Karnataka,Bengaluru,"BTM Layout, Bengaluru - CPCB",24-12-2025 08:00:00,12.9135218,77.5950804,SO2,19,20,19
India,Karnataka,Bengaluru,"BWSSB Kadabesanahalli, Bengaluru - CPCB",24-12-2025 08:00:00,12.9352049,77.6814488,PM2.5,79,310,185
India,Karnataka,Bengaluru,"BWSSB Kadabesanahalli, Bengaluru - CPCB",24-12-2025 08:00:00,12.9352049,77.6814488,NH3,1,1,1
India,Karnataka,Bengaluru,"BWSSB Kadabesanahalli, Bengaluru - CPCB",24-12-2025 08:00:00,12.9352049,77.6814488,SO2,2,6,4
India,Karnataka,Bengaluru,"Hebbal, Bengaluru - KSPCB",24-12-2025 08:00:00,13.029152,77.585901,PM10,82,140,106
India,Kerala,Kollam,"Polayathode, Kollam - Kerala PCB",24-12-2025 08:00:00,8.8787,76.6073,PM2.5,NA,NA,NA
India,Kerala,Kollam,"Polayathode, Kollam - Kerala PCB",24-12-2025 08:00:00,8.8787,76.6073,OZONE,27,35,28
India,Kerala,Thiruvananthapuram,"Kariavattom, Thiruvananthapuram - Kerala PCB",24-12-2025 08:00:00,8.563700,76.886500,PM2.5,118,303,218
India,Kerala,Thiruvananthapuram,"Kariavattom, Thiruvananthapuram - Kerala PCB",24-12-2025 08:00:00,8.563700,76.886500,NO2,6,9,8
India,Kerala,Thiruvananthapuram,"Plammoodu, Thiruvananthapuram - Kerala PCB",24-12-2025 08:00:00,8.5149093,76.9435879,SO2,9,32,19
India,Kerala,Thiruvananthapuram,"Plammoodu, Thiruvananthapuram - Kerala PCB",24-12-2025 08:00:00,8.5149093,76.9435879,CO,12,27,15
India,Madhya Pradesh,Bhopal,"Paryavaran Parisar, Bhopal - MPPCB",24-12-2025 08:00:00,23.210494,77.425409,PM2.5,12,336,119
India,Karnataka,Shivamogga,"Vinoba Nagara, Shivamogga - KSPCB",24-12-2025 08:00:00,13.940000,75.555917,NH3,NA,NA,NA
India,Karnataka,Shivamogga,"Vinoba Nagara, Shivamogga - KSPCB",24-12-2025 08:00:00,13.940000,75.555917,SO2,NA,NA,NA
India,Karnataka,Shivamogga,"Vinoba Nagara, Shivamogga - KSPCB",24-12-2025 08:00:00,13.940000,75.555917,CO,NA,NA,NA
India,Karnataka,Yadgir,"Collector Office, Yadgir - KSPCB",24-12-2025 08:00:00,16.7602,77.1428,PM2.5,55,174,95
India,Karnataka,Yadgir,"Collector Office, Yadgir - KSPCB",24-12-2025 08:00:00,16.7602,77.1428,CO,14,38,25
India,Kerala,Eloor,"Udyogamandal, Eloor - Kerala PCB",24-12-2025 08:00:00,10.073232,76.302765,SO2,1,1,1
India,Kerala,Kannur,"Thavakkara, Kannur - Kerala PCB",24-12-2025 08:00:00,11.875000,75.373200,NO2,14,16,15
India,Karnataka,Kalaburagi,"Mahatma Basaveswar Colony, Kalaburgi - KSPCB",24-12-2025 08:00:00,17.336318,76.847397,PM10,24,75,54
India,Karnataka,Kalaburagi,"Mahatma Basaveswar Colony, Kalaburgi - KSPCB",24-12-2025 08:00:00,17.336318,76.847397,OZONE,14,21,15
India,Karnataka,Madikeri,"Stuart Hill, Madikeri - KSPCB",24-12-2025 08:00:00,12.415911,75.735050,SO2,6,7,7
India,Karnataka,Mangalore,"Kadri, Mangalore - KSPCB",24-12-2025 08:00:00,12.889250,74.853000,SO2,9,10,10
India,Karnataka,Mysuru,"Hebbal 1st Stage, Mysuru - KSPCB",24-12-2025 08:00:00,12.21041,76.37376,NO2,9,28,20
India,Karnataka,Mysuru,"Hebbal 1st Stage, Mysuru - KSPCB",24-12-2025 08:00:00,12.21041,76.37376,CO,13,88,26
India,Karnataka,Bengaluru,"Peenya, Bengaluru - CPCB",24-12-2025 08:00:00,13.0270199,77.494094,NO2,22,28,25
India,Karnataka,Bengaluru,"Peenya, Bengaluru - CPCB",24-12-2025 08:00:00,13.0270199,77.494094,CO,28,64,34
India,Karnataka,Bengaluru,"Sanegurava Halli, Bengaluru - KSPCB",24-12-2025 08:00:00,12.990328,77.5431385,SO2,6,7,6
India,Karnataka,Bengaluru,"Shivapura_Peenya, Bengaluru - KSPCB",24-12-2025 08:00:00,13.0246342,77.5080115,PM2.5,60,169,106
India,Karnataka,Bengaluru,"Shivapura_Peenya, Bengaluru - KSPCB",24-12-2025 08:00:00,13.0246342,77.5080115,SO2,9,17,14
India,Madhya Pradesh,Dewas,"Bhopal Chauraha, Dewas - MPPCB",24-12-2025 08:00:00,22.9682591,76.064118,NO2,7,8,8
India,Madhya Pradesh,Dewas,"Bhopal Chauraha, Dewas - MPPCB",24-12-2025 08:00:00,22.9682591,76.064118,CO,11,34,18
India,Madhya Pradesh,Gwalior,"City Center, Gwalior - MPPCB",24-12-2025 08:00:00,26.203442,78.193251,NH3,3,8,5
India,Madhya Pradesh,Gwalior,"City Center, Gwalior - MPPCB",24-12-2025 08:00:00,26.203442,78.193251,SO2,12,84,46
India,Madhya Pradesh,Gwalior,"City Center, Gwalior - MPPCB",24-12-2025 08:00:00,26.203442,78.193251,OZONE,20,65,46
India,Karnataka,Chamarajanagar,"Urban, Chamarajanagar - KSPCB",24-12-2025 08:00:00,11.55358,76.55521,PM10,26,70,44
India,Karnataka,Hubballi,"Lingaraj Nagar, Hubballi - KSPCB",24-12-2025 08:00:00,15.3714823,75.1160168,PM2.5,42,51,43
India,Karnataka,Kalaburagi,"Lal Bahadur Shastri Nagar, Kalaburagi - KSPCB",24-12-2025 08:00:00,17.321993,76.822628,SO2,NA,NA,NA
India,Madhya Pradesh,Singrauli,"Suryakiran Bhawan NCL, Singrauli - MPPCB",24-12-2025 08:00:00,24.108970,82.645580,NH3,NA,NA,NA
India,Madhya Pradesh,Singrauli,"Suryakiran Bhawan NCL, Singrauli - MPPCB",24-12-2025 08:00:00,24.108970,82.645580,SO2,NA,NA,NA
India,Maharashtra,Ahmednagar,"Tarakpur, Ahmednagar - MPCB",24-12-2025 08:00:00,19.10122,74.73339,SO2,NA,NA,NA
India,Maharashtra,Ahmednagar,"Tarakpur, Ahmednagar - MPCB",24-12-2025 08:00:00,19.10122,74.73339,CO,18,118,37
India,Maharashtra,Ahmednagar,"Tarakpur, Ahmednagar - MPCB",24-12-2025 08:00:00,19.10122,74.73339,OZONE,2,82,11
India,Maharashtra,Akola,"Ramdaspeth, Akola - MPCB",24-12-2025 08:00:00,20.719516,77.000253,SO2,8,21,14
India,Maharashtra,Amravati,"Shivneri Colony, Amravati - MPCB",24-12-2025 08:00:00,20.9402359,77.7895248,NO2,9,42,18
India,Maharashtra,Amravati,"Shivneri Colony, Amravati - MPCB",24-12-2025 08:00:00,20.9402359,77.7895248,CO,10,40,14
India,Maharashtra,Belapur,"CBD Belapur, Belapur - MPCB",24-12-2025 08:00:00,19.0243902,73.0406721,NH3,1,2,1
India,Maharashtra,Belapur,"CBD Belapur, Belapur - MPCB",24-12-2025 08:00:00,19.0243902,73.0406721,OZONE,7,65,8
India,Maharashtra,Bhiwandi,"Gokul Nagar, Bhiwandi - MPCB",24-12-2025 08:00:00,19.309073,73.057223,PM10,70,173,125
India,Maharashtra,Boisar,"Khaira, Boisar - MPCB",24-12-2025 08:00:00,19.786089,72.757971,PM2.5,41,275,81
India,Maharashtra,Boisar,"Khaira, Boisar - MPCB",24-12-2025 08:00:00,19.786089,72.757971,PM10,51,126,86
India,Maharashtra,Boisar,"Khaira, Boisar - MPCB",24-12-2025 08:00:00,19.786089,72.757971,CO,2,77,22
India,Maharashtra,Chandrapur,"Chauhan Colony, Chandrapur - MPCB",24-12-2025 08:00:00,19.962900,79.298714,PM2.5,30,167,71
India,Madhya Pradesh,Ratlam,"Shasthri Nagar, Ratlam - IPCA Lab",24-12-2025 08:00:00,23.331731,75.045981,SO2,33,39,35
India,Madhya Pradesh,Sagar,"Civil Lines, Sagar - MPPCB",24-12-2025 08:00:00,23.838586,78.759431,PM10,27,197,72
India,Madhya Pradesh,Sagar,"Civil Lines, Sagar - MPPCB",24-12-2025 08:00:00,23.838586,78.759431,NO2,9,51,18
India,Madhya Pradesh,Sagar,"Deen Dayal Nagar, Sagar - MPPCB",24-12-2025 08:00:00,23.8640158,78.80289321,PM10,37,226,93
India,Madhya Pradesh,Sagar,"Deen Dayal Nagar, Sagar - MPPCB",24-12-2025 08:00:00,23.8640158,78.80289321,SO2,5,7,6
India,Madhya Pradesh,Singrauli,"Suryakiran Bhawan NCL, Singrauli - MPPCB",24-12-2025 08:00:00,24.108970,82.645580,PM2.5,NA,NA,NA
India,Maharashtra,Aurangabad,"MIDC Chilkalthana, Aurangabad - MPCB",24-12-2025 08:00:00,19.875620,75.387310,SO2,1,2,1
India,Maharashtra,Aurangabad,"MIDC Chilkalthana, Aurangabad - MPCB",24-12-2025 08:00:00,19.875620,75.387310,OZONE,5,66,11
India,Maharashtra,Aurangabad,"More Chowk Waluj, Aurangabad - MPCB",24-12-2025 08:00:00,19.8389439,75.244448,NO2,14,26,18
India,Maharashtra,Aurangabad,"Rachnakar Colony, Aurangabad - MPCB",24-12-2025 08:00:00,19.863756,75.321188,NO2,16,27,22
India,Maharashtra,Aurangabad,"Rachnakar Colony, Aurangabad - MPCB",24-12-2025 08:00:00,19.863756,75.321188,SO2,5,39,19
India,Maharashtra,Badlapur,"Katrap, Badlapur - MPCB",24-12-2025 08:00:00,19.16485,73.23409,PM10,41,193,123
India,Madhya Pradesh,Jabalpur,"Suhagi, Jabalpur - JMC",24-12-2025 08:00:00,23.218135,79.957770,PM2.5,22,126,61
India,Madhya Pradesh,Jabalpur,"Suhagi, Jabalpur - JMC",24-12-2025 08:00:00,23.218135,79.957770,NO2,24,117,47
India,Madhya Pradesh,Jabalpur,"Suhagi, Jabalpur - JMC",24-12-2025 08:00:00,23.218135,79.957770,SO2,6,7,7
India,Madhya Pradesh,Katni,"Gole Bazar, Katni - MPPCB",24-12-2025 08:00:00,23.50016,80.23284,PM10,47,401,149
India,Madhya Pradesh,Maihar,"Sahilara, Maihar - KJS Cements",24-12-2025 08:00:00,24.2613009,80.7231783,SO2,8,45,20
India,Madhya Pradesh,Gwalior,"Deen Dayal Nagar, Gwalior - MPPCB",24-12-2025 08:00:00,26.259242,78.216432,PM10,47,235,127
India,Madhya Pradesh,Gwalior,"Maharaj Bada, Gwalior - MPPCB",24-12-2025 08:00:00,26.200388,78.147714,CO,6,159,39
India,Madhya Pradesh,Indore,"Airport Area, Indore - IMC",24-12-2025 08:00:00,22.7289,75.8076,CO,6,17,14
India,Madhya Pradesh,Indore,"Residency Area, Indore - IMC",24-12-2025 08:00:00,22.7084,75.8815,CO,18,32,29
India,Madhya Pradesh,Jabalpur,"Govindh Bhavan Colony, Jabalpur - JMC",24-12-2025 08:00:00,23.163174,79.973061,PM10,30,111,50
India,Madhya Pradesh,Jabalpur,"Marhatal, Jabalpur - MPPCB",24-12-2025 08:00:00,23.168606,79.932247,OZONE,NA,NA,NA
India,Maharashtra,Dhule,"Deopur, Dhule - MPCB",24-12-2025 08:00:00,20.918946,74.776388,NH3,1,3,2
India,Maharashtra,Jalgaon,"Prabhat Colony, Jalgaon - MPCB",24-12-2025 08:00:00,21.001264,75.565602,PM10,NA,NA,NA
India,Maharashtra,Jalgaon,"Prabhat Colony, Jalgaon - MPCB",24-12-2025 08:00:00,21.001264,75.565602,NH3,NA,NA,NA
India,Maharashtra,Jalgaon,"Prabhat Colony, Jalgaon - MPCB",24-12-2025 08:00:00,21.001264,75.565602,SO2,NA,NA,NA
India,Maharashtra,Kalyan,"Khadakpada, Kalyan - MPCB",24-12-2025 08:00:00,19.25292,73.142019,NO2,36,36,36
India,Maharashtra,Mumbai,"Bandra Kurla Complex, Mumbai - MPCB",24-12-2025 08:00:00,19.065931,72.862131,PM10,61,138,98
India,Maharashtra,Mumbai,"Bandra Kurla Complex, Mumbai - MPCB",24-12-2025 08:00:00,19.065931,72.862131,SO2,4,16,9
India,Maharashtra,Mumbai,"Borivali East, Mumbai - IITM",24-12-2025 08:00:00,19.23241,72.86895,PM2.5,26,83,53
India,Maharashtra,Mumbai,"Borivali East, Mumbai - MPCB",24-12-2025 08:00:00,19.2243333,72.8658113,SO2,17,20,19
India,Maharashtra,Mumbai,"Byculla, Mumbai - BMC",24-12-2025 08:00:00,18.9767,72.8380,PM2.5,52,115,77
India,Maharashtra,Mumbai,"Byculla, Mumbai - BMC",24-12-2025 08:00:00,18.9767,72.8380,NO2,63,152,99
India,Maharashtra,Mumbai,"Byculla, Mumbai - BMC",24-12-2025 08:00:00,18.9767,72.8380,CO,1,68,26
India,Maharashtra,Mumbai,"Byculla, Mumbai - BMC",24-12-2025 08:00:00,18.9767,72.8380,OZONE,1,58,2
India,Maharashtra,Mumbai,"Chakala-Andheri East, Mumbai - IITM",24-12-2025 08:00:00,19.11074,72.86084,PM2.5,21,84,58
India,Maharashtra,Mumbai,"Chakala-Andheri East, Mumbai - IITM",24-12-2025 08:00:00,19.11074,72.86084,PM10,28,118,83
India,Maharashtra,Mumbai,"Chakala-Andheri East, Mumbai - IITM",24-12-2025 08:00:00,19.11074,72.86084,OZONE,6,59,21
India,Maharashtra,Mumbai,"Chembur, Mumbai - MPCB",24-12-2025 08:00:00,19.0364585,72.8954371,PM2.5,20,93,45
India,Maharashtra,Mumbai,"Chembur, Mumbai - MPCB",24-12-2025 08:00:00,19.0364585,72.8954371,PM10,86,117,105
India,Maharashtra,Mumbai,"Chembur, Mumbai - MPCB",24-12-2025 08:00:00,19.0364585,72.8954371,CO,32,82,49
India,Maharashtra,Mumbai,"Chhatrapati Shivaji Intl. Airport (T2), Mumbai - MPCB",24-12-2025 08:00:00,19.10078,72.87462,PM10,NA,NA,NA
India,Maharashtra,Mumbai,"Deonar, Mumbai - IITM",24-12-2025 08:00:00,19.04946,72.9230,NO2,16,104,44
India,Maharashtra,Mumbai,"Deonar, Mumbai - IITM",24-12-2025 08:00:00,19.04946,72.9230,NH3,8,20,13
India,Maharashtra,Mumbai,"Ghatkopar, Mumbai - BMC",24-12-2025 08:00:00,19.083694,72.920967,NO2,28,95,54
India,Maharashtra,Mumbai,"Shivaji Nagar, Mumbai - BMC",24-12-2025 08:00:00,19.060498,72.923356,PM2.5,24,291,96
India,Maharashtra,Mumbai,"Shivaji Nagar, Mumbai - BMC",24-12-2025 08:00:00,19.060498,72.923356,NO2,35,96,59
India,Maharashtra,Mumbai,"Siddharth Nagar-Worli, Mumbai - IITM",24-12-2025 08:00:00,19.000083,72.813993,PM10,69,125,98
India,Maharashtra,Mumbai,"Siddharth Nagar-Worli, Mumbai - IITM",24-12-2025 08:00:00,19.000083,72.813993,OZONE,4,99,22
India,Maharashtra,Mumbai,"Sion, Mumbai - MPCB",24-12-2025 08:00:00,19.047000,72.874600,PM10,8,62,22
India,Maharashtra,Mumbai,"Sion, Mumbai - MPCB",24-12-2025 08:00:00,19.047000,72.874600,CO,6,15,13
India,Maharashtra,Mumbai,"Ghatkopar, Mumbai - BMC",24-12-2025 08:00:00,19.083694,72.920967,NH3,1,7,4
India,Maharashtra,Mumbai,"Ghatkopar, Mumbai - BMC",24-12-2025 08:00:00,19.083694,72.920967,SO2,2,9,6
India,Maharashtra,Mumbai,"Ghatkopar, Mumbai - BMC",24-12-2025 08:00:00,19.083694,72.920967,CO,14,40,31
India,Maharashtra,Mumbai,"Ghatkopar, Mumbai - BMC",24-12-2025 08:00:00,19.083694,72.920967,OZONE,2,85,2
India,Maharashtra,Mumbai,"Kandivali West, Mumbai - BMC",24-12-2025 08:00:00,19.215859,72.831718,NH3,1,5,4
India,Maharashtra,Mumbai,"Khindipada-Bhandup West, Mumbai - IITM",24-12-2025 08:00:00,19.1653323,72.922099,CO,2,50,26
India,Maharashtra,Mumbai,"Mazgaon, Mumbai - IITM",24-12-2025 08:00:00,18.96702,72.84214,NO2,37,113,78
India,Maharashtra,Mumbai,"Mazgaon, Mumbai - IITM",24-12-2025 08:00:00,18.96702,72.84214,OZONE,4,75,18
India,Maharashtra,Mumbai,"Mulund West, Mumbai - MPCB",24-12-2025 08:00:00,19.1750,72.9419,PM10,NA,NA,NA
India,Maharashtra,Mumbai,"Mulund West, Mumbai - MPCB",24-12-2025 08:00:00,19.1750,72.9419,NO2,16,18,17
India,Maharashtra,Mumbai,"Powai, Mumbai - MPCB",24-12-2025 08:00:00,19.137500,72.915056,PM2.5,NA,NA,NA
India,Maharashtra,Nanded,"Sneh Nagar, Nanded - MPCB",24-12-2025 08:00:00,19.173852,77.296291,PM10,36,147,100
India,Maharashtra,Nashik,"Gangapur Road, Nashik - MPCB",24-12-2025 08:00:00,20.0073285,73.7762427,PM2.5,21,128,58
India,Maharashtra,Nashik,"Gangapur Road, Nashik - MPCB",24-12-2025 08:00:00,20.0073285,73.7762427,NH3,3,3,3
India,Maharashtra,Mira-Bhayandar,"Bhayandar West, Mira-Bhayandar - MPCB",24-12-2025 08:00:00,19.296481,72.840923,NH3,2,8,5
India,Maharashtra,Mira-Bhayandar,"Bhayandar West, Mira-Bhayandar - MPCB",24-12-2025 08:00:00,19.296481,72.840923,SO2,4,4,4
India,Maharashtra,Mumbai,"Bandra Kurla Complex, Mumbai - IITM",24-12-2025 08:00:00,19.053536,72.84643,NO2,5,18,12
India,Maharashtra,Nagpur,"Ambazari, Nagpur - MPCB",24-12-2025 08:00:00,21.121801,79.04952,NO2,11,67,29
India,Maharashtra,Nagpur,"Ambazari, Nagpur - MPCB",24-12-2025 08:00:00,21.121801,79.04952,SO2,10,73,19
India,Maharashtra,Nagpur,"Mahal, Nagpur - MPCB",24-12-2025 08:00:00,21.14472,79.107595,SO2,1,50,25
India,Maharashtra,Nashik,"Hirawadi, Nashik - MPCB",24-12-2025 08:00:00,20.021503,73.813844,NO2,5,27,14
India,Maharashtra,Nashik,"Hirawadi, Nashik - MPCB",24-12-2025 08:00:00,20.021503,73.813844,NH3,1,13,4
India,Maharashtra,Pune,"Revenue Colony-Shivajinagar, Pune - IITM",24-12-2025 08:00:00,18.530085,73.849598,OZONE,2,66,6
India,Maharashtra,Pune,"Savitribai Phule Pune University, Pune - MPCB",24-12-2025 08:00:00,18.547056,73.826908,PM2.5,44,113,81
India,Maharashtra,Pune,"Savitribai Phule Pune University, Pune - MPCB",24-12-2025 08:00:00,18.547056,73.826908,NO2,1,34,18
India,Maharashtra,Pune,"Savitribai Phule Pune University, Pune - MPCB",24-12-2025 08:00:00,18.547056,73.826908,SO2,1,7,4
India,Maharashtra,Pune,"Savitribai Phule Pune University, Pune - MPCB",24-12-2025 08:00:00,18.547056,73.826908,CO,8,151,83
India,Maharashtra,Pune,"Transport Nagar-Nigdi, Pune - IITM",24-12-2025 08:00:00,18.664282,73.763966,OZONE,9,62,14
India,Maharashtra,Sangli,"Vijay Nagar, Sangli - MPCB",24-12-2025 08:00:00, 16.5038,74.3623,CO,34,60,38
India,Maharashtra,Solapur,"Dnyaneshwar Nagar, Solapur - MPCB",24-12-2025 08:00:00,17.6336264,75.9132495,PM2.5,63,272,106
India,Maharashtra,Solapur,"Dnyaneshwar Nagar, Solapur - MPCB",24-12-2025 08:00:00,17.6336264,75.9132495,SO2,3,14,8
India,Maharashtra,Virar,"Bolinj, Virar - MPCB",24-12-2025 08:00:00,19.4458210,72.7988231,PM2.5,33,70,51
India,Maharashtra,Virar,"Bolinj, Virar - MPCB",24-12-2025 08:00:00,19.4458210,72.7988231,NO2,11,77,26
India,Meghalaya,Shillong,"JN Stadium, Shillong - Meghalaya PCB",24-12-2025 08:00:00,25.5803419,91.8942571,PM10,NA,NA,NA
India,Meghalaya,Shillong,"Lumpyngngad, Shillong - Meghalaya PCB",24-12-2025 08:00:00,25.5586,91.8985,CO,2,6,3
India,Mizoram,Aizawl,"Sikulpuikawn, Aizawl - Mizoram PCB",24-12-2025 08:00:00,23.7176342,92.7192841,CO,3,3,3
India,Nagaland,Kohima,"PWD Junction, Kohima - NPCB",24-12-2025 08:00:00,25.6635413,94.0989878,SO2,73,75,74
India,Nagaland,Kohima,"PWD Junction, Kohima - NPCB",24-12-2025 08:00:00,25.6635413,94.0989878,CO,2,15,7
India,Odisha,Angul,"Hakimapada, Angul - OSPCB",24-12-2025 08:00:00,20.832874,85.104082,NO2,26,74,49
India,Odisha,Angul,"Hakimapada, Angul - OSPCB",24-12-2025 08:00:00,20.832874,85.104082,NH3,9,14,12
India,Odisha,Angul,"Hakimapada, Angul - OSPCB",24-12-2025 08:00:00,20.832874,85.104082,CO,28,104,53
India,Odisha,Angul,"Hakimapada, Angul - OSPCB",24-12-2025 08:00:00,20.832874,85.104082,OZONE,15,191,30
India,Odisha,Barbil,"Forest Office, Barbil - OSPCB",24-12-2025 08:00:00,22.1166054,85.3945546,NO2,29,85,41
India,Odisha,Barbil,"Forest Office, Barbil - OSPCB",24-12-2025 08:00:00,22.1166054,85.3945546,NH3,1,2,2
India,Odisha,Barbil,"Forest Office, Barbil - OSPCB",24-12-2025 08:00:00,22.1166054,85.3945546,CO,25,90,74
India,Odisha,Baripada,"Meher Colony, Baripada - OSPCB",24-12-2025 08:00:00,21.941841,86.728318,NH3,NA,NA,NA
India,Maharashtra,Nashik,"MIDC Ambad, Nashik - MPCB",24-12-2025 08:00:00,19.950220,73.731480,PM10,40,200,93
India,Maharashtra,Nashik,"MIDC Ambad, Nashik - MPCB",24-12-2025 08:00:00,19.950220,73.731480,NH3,2,4,3
India,Maharashtra,Nashik,"Pandav Nagari, Nashik - MPCB",24-12-2025 08:00:00,19.9591346,73.7788008,PM10,29,153,83
India,Maharashtra,Navi Mumbai,"Kopripada-Vashi, Navi Mumbai - MPCB",24-12-2025 08:00:00,19.090337,73.014232,PM10,65,152,94
India,Maharashtra,Navi Mumbai,"Kopripada-Vashi, Navi Mumbai - MPCB",24-12-2025 08:00:00,19.090337,73.014232,NH3,2,11,5
India,Maharashtra,Pimpri-Chinchwad,"Gavalinagar, Pimpri Chinchwad - MPCB",24-12-2025 08:00:00,18.63673,73.82487,PM2.5,79,301,158
India,Maharashtra,Pimpri-Chinchwad,"Park Street Wakad, Pimpri Chinchwad - MPCB",24-12-2025 08:00:00,18.59051,73.77946,CO,17,150,93
India,Maharashtra,Pimpri-Chinchwad,"Savta Mali Nagar, Pimpri-Chinchwad - IITM",24-12-2025 08:00:00,18.614767,73.799516,PM10,61,182,115
India,Maharashtra,Pimpri-Chinchwad,"Savta Mali Nagar, Pimpri-Chinchwad - IITM",24-12-2025 08:00:00,18.614767,73.799516,OZONE,2,49,4
India,Odisha,Baripada,"Meher Colony, Baripada - OSPCB",24-12-2025 08:00:00,21.941841,86.728318,OZONE,3,19,16
India,Odisha,Bhubaneswar,"Lingraj Mandir, Bhubaneswar - OSPCB",24-12-2025 08:00:00,20.240790,85.836784,PM2.5,130,313,232
India,Odisha,Bhubaneswar,"Lingraj Mandir, Bhubaneswar - OSPCB",24-12-2025 08:00:00,20.240790,85.836784,OZONE,2,242,5
India,Odisha,Bhubaneswar,"Patia, Bhubaneswar - OSPCB",24-12-2025 08:00:00,20.34652,85.81630,SO2,2,39,13
India,Maharashtra,Navi Mumbai,"Sanpada, Navi Mumbai - MPCB",24-12-2025 08:00:00,19.0575752,73.0151367,CO,14,122,87
India,Maharashtra,Navi Mumbai,"Sanpada, Navi Mumbai - MPCB",24-12-2025 08:00:00,19.0575752,73.0151367,OZONE,41,41,41
India,Maharashtra,Navi Mumbai,"Tondare-Taloja, Navi Mumbai - MPCB",24-12-2025 08:00:00,19.0630,73.1209,CO,18,50,39
India,Maharashtra,Parbhani,"Masoom Colony, Parbhani - MPCB",24-12-2025 08:00:00,19.265594,76.761463,CO,8,14,12
India,Maharashtra,Pune,"Dhankawadi, Pune - IITM",24-12-2025 08:00:00,18.459883,73.852193,PM2.5,63,310,159
India,Maharashtra,Pune,"Mhada Colony, Pune - IITM",24-12-2025 08:00:00,18.573040,73.927715,NO2,10,57,31
India,Maharashtra,Pune,"Mhada Colony, Pune - IITM",24-12-2025 08:00:00,18.573040,73.927715,CO,22,105,91
India,Maharashtra,Pune,"Panchawati_Pashan, Pune - IITM",24-12-2025 08:00:00,18.536457,73.805454,OZONE,NA,NA,NA
India,Maharashtra,Solapur,"Ratandeep Housing Society, Solapur - MPCB",24-12-2025 08:00:00,17.65439,75.90649,PM10,63,178,116
India,Maharashtra,Ulhasnagar,"Sidhi Vinayak Nagar, Ulhasnagar - MPCB",24-12-2025 08:00:00,19.235581,73.159121,CO,10,117,16
India,Punjab,Rupnagar,"Ratanpura, Rupnagar - Ambuja Cements",24-12-2025 08:00:00,31.0325454,76.5623046,NO2,1,6,4
India,Rajasthan,Ajmer,"Civil Lines,  Ajmer - RSPCB",24-12-2025 08:00:00,26.470859,74.646594,NO2,8,25,15
India,Rajasthan,Ajmer,"Civil Lines,  Ajmer - RSPCB",24-12-2025 08:00:00,26.470859,74.646594,NH3,4,4,4
India,Rajasthan,Alwar,"Moti Doongri, Alwar - RSPCB",24-12-2025 08:00:00,27.554793,76.611536,PM10,85,153,113
India,Rajasthan,Alwar,"Moti Doongri, Alwar - RSPCB",24-12-2025 08:00:00,27.554793,76.611536,SO2,9,52,22
India,Rajasthan,Alwar,"Moti Doongri, Alwar - RSPCB",24-12-2025 08:00:00,27.554793,76.611536,OZONE,13,31,17
India,Rajasthan,Banswara,"Rati Talai, Banswara - RSPCB",24-12-2025 08:00:00,23.555190,74.440010,NO2,17,96,40
India,Rajasthan,Banswara,"Rati Talai, Banswara - RSPCB",24-12-2025 08:00:00,23.555190,74.440010,SO2,1,7,4
India,Rajasthan,Banswara,"Rati Talai, Banswara - RSPCB",24-12-2025 08:00:00,23.555190,74.440010,OZONE,4,82,19
India,Rajasthan,Bhiwadi,"RIICO Ind. Area III, Bhiwadi - RSPCB",24-12-2025 08:00:00,28.194909,76.862296,NH3,7,25,14
India,Rajasthan,Bhiwadi,"RIICO Ind. Area III, Bhiwadi - RSPCB",24-12-2025 08:00:00,28.194909,76.862296,CO,27,121,64
India,Rajasthan,Bhiwadi,"Vasundhara Nagar_UIT, Bhiwadi - RSPCB",24-12-2025 08:00:00,28.207266,76.829265,CO,48,114,57
India,Rajasthan,Bikaner,"MM Ground, Bikaner - RSPCB",24-12-2025 08:00:00,28.018792,73.292658,PM10,66,209,135
India,Rajasthan,Bikaner,"MM Ground, Bikaner - RSPCB",24-12-2025 08:00:00,28.018792,73.292658,NO2,13,94,40
India,Rajasthan,Bikaner,"MM Ground, Bikaner - RSPCB",24-12-2025 08:00:00,28.018792,73.292658,NH3,10,19,14
India,Rajasthan,Bikaner,"MM Ground, Bikaner - RSPCB",24-12-2025 08:00:00,28.018792,73.292658,SO2,1,9,5
India,Rajasthan,Bundi,"New Colony, Bundi - RSPCB",24-12-2025 08:00:00,25.435774,75.644272,SO2,1,26,10
India,Rajasthan,Bundi,"New Colony, Bundi - RSPCB",24-12-2025 08:00:00,25.435774,75.644272,OZONE,14,139,84
India,Odisha,Rourkela,"Fertilizer Township, Rourkela - OSPCB",24-12-2025 08:00:00,22.18972222,84.86277778,PM2.5,86,109,92
India,Odisha,Rourkela,"Raghunathpali, Rourkela - OSPCB",24-12-2025 08:00:00,22.220833,84.809444,PM10,88,500,275
India,Odisha,Rourkela,"Raghunathpali, Rourkela - OSPCB",24-12-2025 08:00:00,22.220833,84.809444,NH3,2,2,2
India,Odisha,Rourkela,"Raghunathpali, Rourkela - OSPCB",24-12-2025 08:00:00,22.220833,84.809444,CO,66,134,96
India,Odisha,Rourkela,"Sector-2, Rourkela - OSPCB",24-12-2025 08:00:00,22.24500000,84.88111111,CO,36,62,44
India,Odisha,Suakati,"OMC Colony, Suakati - OSPCB",24-12-2025 08:00:00,21.606865,85.510538,CO,20,48,30
India,Odisha,Suakati,"OMC Colony, Suakati - OSPCB",24-12-2025 08:00:00,21.606865,85.510538,OZONE,18,20,19
India,Odisha,Byasanagar,"Ferro Chrome Colony, Byasanagar - OSPCB",24-12-2025 08:00:00,20.94185,86.11510,OZONE,8,71,26
India,Odisha,Cuttack,"CDA Area, Cuttack - OSPCB",24-12-2025 08:00:00,20.48891     ,85.84768     ,OZONE,3,201,10
India,Odisha,Keonjhar,"Jagamohanpur, Keonjhar - OSPCB",24-12-2025 08:00:00,21.643900,85.599355,PM2.5,58,125,75
India,Odisha,Keonjhar,"Jagamohanpur, Keonjhar - OSPCB",24-12-2025 08:00:00,21.643900,85.599355,PM10,74,428,124
India,Odisha,Keonjhar,"Jagamohanpur, Keonjhar - OSPCB",24-12-2025 08:00:00,21.643900,85.599355,OZONE,17,19,18
India,Odisha,Rairangpur,"Divisional Forest Office, Rairangpur - OSPCB",24-12-2025 08:00:00,22.265816,86.174829,NO2,NA,NA,NA
India,Punjab,Jalandhar,"Civil Line, Jalandhar - PPCB",24-12-2025 08:00:00,31.321907,75.578914,CO,44,54,46
India,Punjab,Khanna,"Kalal Majra, Khanna - PPCB",24-12-2025 08:00:00,30.736056 ,76.209694,CO,10,56,32
India,Punjab,Ludhiana,"Punjab Agricultural University, Ludhiana - PPCB",24-12-2025 08:00:00,30.9028,75.8086,PM10,117,134,122
India,Punjab,Mandi Gobindgarh,"RIMT University, Mandi Gobindgarh - PPCB",24-12-2025 08:00:00,30.649961,76.331442,NH3,6,6,6
India,Punjab,Patiala,"Model Town, Patiala - PPCB",24-12-2025 08:00:00,30.349388,76.366642,PM10,78,121,98
India,Odisha,Tensa,"Barsua Iron Ore Mines, Tensa - OSPCB",24-12-2025 08:00:00,21.869985,85.167016,NH3,NA,NA,NA
India,Puducherry,Puducherry,"Jawahar Nagar, Puducherry - PPCC",24-12-2025 08:00:00,11.9309,79.8027,NO2,19,43,29
India,Puducherry,Puducherry,"Jawahar Nagar, Puducherry - PPCC",24-12-2025 08:00:00,11.9309,79.8027,CO,18,38,27
India,Puducherry,Puducherry,"Jawahar Nagar, Puducherry - PPCC",24-12-2025 08:00:00,11.9309,79.8027,OZONE,25,76,47
India,Punjab,Bathinda,"Hardev Nagar, Bathinda - PPCB",24-12-2025 08:00:00,30.233011,74.907758,NO2,9,31,15
India,Punjab,Bathinda,"Hardev Nagar, Bathinda - PPCB",24-12-2025 08:00:00,30.233011,74.907758,SO2,2,8,5
India,Rajasthan,Chittorgarh,"Shastri Nagar, Chittorgarh - RSPCB",24-12-2025 08:00:00,24.892047,74.623527,OZONE,3,82,7
India,Rajasthan,Churu,"Subash Chowk, Churu - RSPCB",24-12-2025 08:00:00,28.296139,74.961696,PM10,94,353,208
India,Rajasthan,Churu,"Subash Chowk, Churu - RSPCB",24-12-2025 08:00:00,28.296139,74.961696,CO,7,62,26
India,Rajasthan,Dausa,"Khatikan Mohalla, Dausa - RSPCB",24-12-2025 08:00:00,26.895552,76.334753,NH3,7,10,8
India,Rajasthan,Dungarpur,"Bhoiwada, Dungarpur - RSPCB",24-12-2025 08:00:00,23.837789,73.714926,PM2.5,8,240,81
India,Odisha,Bhubaneswar,"Patia, Bhubaneswar - OSPCB",24-12-2025 08:00:00,20.34652,85.81630,CO,2,118,81
India,Odisha,Bileipada,"Tata Township, Bileipada - OSPCB",24-12-2025 08:00:00,22.06156703,85.47409613,NO2,6,7,6
India,Odisha,Brajrajnagar,"GM Office, Brajrajnagar - OSPCB",24-12-2025 08:00:00,21.8004996,83.8396977,PM10,100,288,165
India,Odisha,Byasanagar,"Ferro Chrome Colony, Byasanagar - OSPCB",24-12-2025 08:00:00,20.94185,86.11510,PM2.5,NA,NA,NA
India,Rajasthan,Baran,"Bamboliya, Baran - RSPCB",24-12-2025 08:00:00,25.106006,76.469948,PM2.5,18,180,65
India,Rajasthan,Baran,"Bamboliya, Baran - RSPCB",24-12-2025 08:00:00,25.106006,76.469948,PM10,57,177,109
India,Rajasthan,Baran,"Bamboliya, Baran - RSPCB",24-12-2025 08:00:00,25.106006,76.469948,NO2,18,84,47
India,Rajasthan,Barmer,"Railway Colony, Barmer - RSPCB",24-12-2025 08:00:00,25.747299,71.393989,NH3,6,16,8
India,Rajasthan,Bharatpur,"Krishna Nagar, Bharatpur - RSPCB",24-12-2025 08:00:00,27.215415,77.50873,CO,34,108,45
India,Rajasthan,Tonk,"Shastri Nagar, Tonk - RSPCB",24-12-2025 08:00:00,26.159933,75.780517,OZONE,5,125,37
India,Rajasthan,Udaipur,"Ashok Nagar, Udaipur - RSPCB",24-12-2025 08:00:00,24.5886166,73.6321397,NO2,4,179,47
India,Rajasthan,Udaipur,"Ashok Nagar, Udaipur - RSPCB",24-12-2025 08:00:00,24.5886166,73.6321397,CO,5,110,23
India,TamilNadu,Chennai,"Arumbakkam, Chennai - TNPCB",24-12-2025 08:00:00,13.0664,80.2112 ,PM2.5,88,291,190
India,TamilNadu,Chennai,"Arumbakkam, Chennai - TNPCB",24-12-2025 08:00:00,13.0664,80.2112 ,PM10,103,500,271
India,TamilNadu,Chennai,"Arumbakkam, Chennai - TNPCB",24-12-2025 08:00:00,13.0664,80.2112 ,NO2,12,36,24
India,TamilNadu,Chennai,"Arumbakkam, Chennai - TNPCB",24-12-2025 08:00:00,13.0664,80.2112 ,SO2,2,17,4
India,TamilNadu,Chennai,"Kodungaiyur, Chennai - TNPCB",24-12-2025 08:00:00,13.1278,80.2642,NH3,3,5,3
India,TamilNadu,Chennai,"Kodungaiyur, Chennai - TNPCB",24-12-2025 08:00:00,13.1278,80.2642,CO,12,58,38
India,TamilNadu,Chennai,"Manali Village, Chennai - TNPCB",24-12-2025 08:00:00,13.1662,80.2584,PM10,64,142,104
India,TamilNadu,Chennai,"Manali Village, Chennai - TNPCB",24-12-2025 08:00:00,13.1662,80.2584,NH3,1,2,2
India,TamilNadu,Chennai,"Manali Village, Chennai - TNPCB",24-12-2025 08:00:00,13.1662,80.2584,CO,40,48,47
India,TamilNadu,Chennai,"Manali Village, Chennai - TNPCB",24-12-2025 08:00:00,13.1662,80.2584,OZONE,15,32,27
India,TamilNadu,Chennai,"Manali, Chennai - CPCB",24-12-2025 08:00:00,13.164544,80.26285,PM10,40,159,126
India,Rajasthan,Kota,"Dhanmandi, Kota - RSPCB",24-12-2025 08:00:00,25.164090,75.858137,NO2,26,131,75
India,Rajasthan,Kota,"Dhanmandi, Kota - RSPCB",24-12-2025 08:00:00,25.164090,75.858137,SO2,5,67,14
India,Rajasthan,Kota,"Nayapura, Kota - RSPCB",24-12-2025 08:00:00,25.196024,75.855668,PM2.5,93,325,202
India,Rajasthan,Kota,"Nayapura, Kota - RSPCB",24-12-2025 08:00:00,25.196024,75.855668,PM10,83,193,132
India,Rajasthan,Kota,"Nayapura, Kota - RSPCB",24-12-2025 08:00:00,25.196024,75.855668,NO2,33,117,64
India,Rajasthan,Kota,"Nayapura, Kota - RSPCB",24-12-2025 08:00:00,25.196024,75.855668,CO,10,46,17
India,Rajasthan,Kota,"Shrinath Puram, Kota - RSPCB",24-12-2025 08:00:00,25.14389,75.821256,PM10,46,197,126
India,Rajasthan,Kota,"Shrinath Puram, Kota - RSPCB",24-12-2025 08:00:00,25.14389,75.821256,SO2,NA,NA,NA
India,Rajasthan,Nagaur,"Karni Colony, Nagaur - RSPCB",24-12-2025 08:00:00,27.213494,73.734444,PM10,114,232,166
India,Rajasthan,Nagaur,"Karni Colony, Nagaur - RSPCB",24-12-2025 08:00:00,27.213494,73.734444,NO2,18,64,32
India,Rajasthan,Nagaur,"Karni Colony, Nagaur - RSPCB",24-12-2025 08:00:00,27.213494,73.734444,SO2,1,6,3
India,Rajasthan,Nagaur,"Karni Colony, Nagaur - RSPCB",24-12-2025 08:00:00,27.213494,73.734444,CO,37,70,49
India,Rajasthan,Hanumangarh,"Housing Board, Hanumangarh - RSPCB",24-12-2025 08:00:00,29.610750,74.283608,PM2.5,40,162,64
India,Rajasthan,Hanumangarh,"Housing Board, Hanumangarh - RSPCB",24-12-2025 08:00:00,29.610750,74.283608,NH3,1,25,13
India,Rajasthan,Jaipur,"Adarsh Nagar, Jaipur - RSPCB",24-12-2025 08:00:00,26.902909,75.836858,CO,34,80,50
India,Rajasthan,Jaipur,"Mansarovar Sector-12, Jaipur - RSPCB",24-12-2025 08:00:00,26.843698,75.766894,NO2,10,66,26
India,Rajasthan,Jaipur,"Mansarovar Sector-12, Jaipur - RSPCB",24-12-2025 08:00:00,26.843698,75.766894,CO,16,92,44
India,Rajasthan,Jaipur,"Police Commissionerate, Jaipur - RSPCB",24-12-2025 08:00:00,26.9164092,75.7994901,PM10,38,103,74
India,Rajasthan,Sikar,"Radhakishan Pura, Sikar - RSPCB",24-12-2025 08:00:00,27.608912,75.153302,PM10,103,278,173
India,Rajasthan,Sirohi,"Vedhaynath Colony, Sirohi - RSPCB",24-12-2025 08:00:00,24.885261,72.857549,PM10,87,172,118
India,Rajasthan,Sri Ganganagar,"Old City, Sri Ganganagar - RSPCB",24-12-2025 08:00:00,29.931624,73.864511,NO2,19,53,32
India,Rajasthan,Tonk,"Shastri Nagar, Tonk - RSPCB",24-12-2025 08:00:00,26.159933,75.780517,PM2.5,75,330,175
India,Rajasthan,Jaipur,"RIICO Sitapura, Jaipur - RSPCB",24-12-2025 08:00:00,26.786682,75.827928,NH3,5,9,6
India,Rajasthan,Jaipur,"RIICO Sitapura, Jaipur - RSPCB",24-12-2025 08:00:00,26.786682,75.827928,SO2,1,6,4
India,Rajasthan,Jaipur,"RIICO Sitapura, Jaipur - RSPCB",24-12-2025 08:00:00,26.786682,75.827928,OZONE,14,99,23
India,Rajasthan,Jaipur,"Sector-2 Murlipura, Jaipur - RSPCB",24-12-2025 08:00:00,26.960669,75.771817,SO2,4,4,4
India,Rajasthan,Jaipur,"Shastri Nagar, Jaipur - RSPCB",24-12-2025 08:00:00,26.9502929,75.730943,PM2.5,72,312,178
India,Rajasthan,Jodhpur,"Jhalamand, Jodhpur - RSPCB",24-12-2025 08:00:00,26.215415,73.070156,NH3,4,26,10
India,Rajasthan,Jodhpur,"Jhalamand, Jodhpur - RSPCB",24-12-2025 08:00:00,26.215415,73.070156,CO,22,68,36
India,Rajasthan,Jodhpur,"Mandor, Jodhpur - RSPCB",24-12-2025 08:00:00,26.358805,73.047444,NH3,4,12,7
India,Rajasthan,Jodhpur,"Samrat Ashok Udhyan, Jodhpur - RSPCB",24-12-2025 08:00:00,26.253384,72.976571,NH3,5,13,8
India,Rajasthan,Jodhpur,"Samrat Ashok Udhyan, Jodhpur - RSPCB",24-12-2025 08:00:00,26.253384,72.976571,SO2,1,63,11
India,Rajasthan,Jalore,"Mudtra Sili, Jalore - RSPCB",24-12-2025 08:00:00,25.344694,72.626208,NO2,18,140,51
India,Rajasthan,Jalore,"Mudtra Sili, Jalore - RSPCB",24-12-2025 08:00:00,25.344694,72.626208,NH3,5,10,7
India,Rajasthan,Jodhpur,"Collectorate, Jodhpur - RSPCB",24-12-2025 08:00:00,26.268249,73.0193853,PM2.5,34,317,106
India,Rajasthan,Pratapgarh,"Pragati Nagar, Pratapgarh - RSPCB",24-12-2025 08:00:00,24.041198,74.780702,SO2,3,12,5
India,Rajasthan,Rajsamand,"Dhoinda, Rajsamand - RSPCB",24-12-2025 08:00:00,25.036360,73.883502,PM10,21,203,91
India,Rajasthan,Rajsamand,"Dhoinda, Rajsamand - RSPCB",24-12-2025 08:00:00,25.036360,73.883502,NH3,8,25,15
India,Rajasthan,Jaipur,"Shastri Nagar, Jaipur - RSPCB",24-12-2025 08:00:00,26.9502929,75.730943,NO2,37,85,55
India,Uttar_Pradesh,Agra,"Rohta, Agra - UPPCB",24-12-2025 08:00:00,27.106972,78.000111,CO,17,42,24
India,Uttar_Pradesh,Agra,"Sanjay Palace, Agra - UPPCB",24-12-2025 08:00:00,27.19865833,78.00598056,CO,29,38,30
India,Uttar_Pradesh,Agra,"Sector-3B Avas Vikas Colony, Agra - UPPCB",24-12-2025 08:00:00,27.19412,77.96237,PM10,97,223,134
India,Uttar_Pradesh,Agra,"Sector-3B Avas Vikas Colony, Agra - UPPCB",24-12-2025 08:00:00,27.19412,77.96237,CO,10,38,21
India,Uttar_Pradesh,Agra,"Shahjahan Garden, Agra - UPPCB",24-12-2025 08:00:00,27.169338,78.03582,NH3,5,6,6
India,Uttar_Pradesh,Agra,"Shahjahan Garden, Agra - UPPCB",24-12-2025 08:00:00,27.169338,78.03582,CO,21,74,32
India,Uttar_Pradesh,Agra,"Shastripuram, Agra - UPPCB",24-12-2025 08:00:00,27.19862,77.92066,NO2,46,47,46
India,Uttar_Pradesh,Agra,"Shastripuram, Agra - UPPCB",24-12-2025 08:00:00,27.19862,77.92066,NH3,3,3,3
India,Uttar_Pradesh,Agra,"Shastripuram, Agra - UPPCB",24-12-2025 08:00:00,27.19862,77.92066,SO2,7,18,11
India,Uttar_Pradesh,Agra,"Shastripuram, Agra - UPPCB",24-12-2025 08:00:00,27.19862,77.92066,CO,18,33,22
India,Telangana,Hyderabad,"Somajiguda, Hyderabad - TSPCB",24-12-2025 08:00:00,17.417094,78.457437,SO2,15,17,16
India,Telangana,Hyderabad,"Zoo Park, Hyderabad - TSPCB",24-12-2025 08:00:00,17.349694,78.451437,SO2,4,33,18
India,Tripura,Agartala,"Bardowali, Agartala - Tripura SPCB",24-12-2025 08:00:00,23.8175497,91.2726974,OZONE,2,5,2
India,Uttar_Pradesh,Agra,"Manoharpur, Agra - UPPCB",24-12-2025 08:00:00,27.23711,78.01936,NH3,4,4,4
India,Uttar_Pradesh,Agra,"Manoharpur, Agra - UPPCB",24-12-2025 08:00:00,27.23711,78.01936,SO2,64,101,80
India,Uttar_Pradesh,Agra,"Manoharpur, Agra - UPPCB",24-12-2025 08:00:00,27.23711,78.01936,OZONE,8,48,8
India,Uttar_Pradesh,Agra,"Rohta, Agra - UPPCB",24-12-2025 08:00:00,27.106972,78.000111,PM2.5,50,259,96
India,Uttar_Pradesh,Agra,"Rohta, Agra - UPPCB",24-12-2025 08:00:00,27.106972,78.000111,NH3,6,6,6
India,Telangana,Hyderabad,"Nacharam_TSIIC IALA, Hyderabad - TSPCB",24-12-2025 08:00:00,17.429398,78.569354,NH3,4,7,6
India,Telangana,Hyderabad,"Nacharam_TSIIC IALA, Hyderabad - TSPCB",24-12-2025 08:00:00,17.429398,78.569354,SO2,10,13,12
India,Telangana,Hyderabad,"New Malakpet, Hyderabad - TSPCB",24-12-2025 08:00:00,17.37206,78.50864,PM10,74,114,94
India,Telangana,Hyderabad,"New Malakpet, Hyderabad - TSPCB",24-12-2025 08:00:00,17.37206,78.50864,SO2,13,18,15
India,Telangana,Hyderabad,"New Malakpet, Hyderabad - TSPCB",24-12-2025 08:00:00,17.37206,78.50864,OZONE,10,43,10
India,Telangana,Hyderabad,"Sanathnagar, Hyderabad - TSPCB",24-12-2025 08:00:00,17.4559458,78.4332152,PM2.5,50,190,100
India,Telangana,Hyderabad,"Sanathnagar, Hyderabad - TSPCB",24-12-2025 08:00:00,17.4559458,78.4332152,OZONE,12,17,14
India,Telangana,Hyderabad,"Somajiguda, Hyderabad - TSPCB",24-12-2025 08:00:00,17.417094,78.457437,PM10,67,129,93
India,Telangana,Hyderabad,"Bollaram Industrial Area, Hyderabad - TSPCB",24-12-2025 08:00:00,17.540891,78.358528,CO,10,50,34
India,Telangana,Hyderabad,"Bollaram Industrial Area, Hyderabad - TSPCB",24-12-2025 08:00:00,17.540891,78.358528,OZONE,52,66,53
India,Telangana,Hyderabad,"Central University, Hyderabad - TSPCB",24-12-2025 08:00:00,17.460103,78.334361,NH3,3,8,6
India,Telangana,Hyderabad,"Central University, Hyderabad - TSPCB",24-12-2025 08:00:00,17.460103,78.334361,OZONE,15,19,17
India,Telangana,Hyderabad,"ECIL Kapra, Hyderabad - TSPCB",24-12-2025 08:00:00,17.470431,78.566959,PM2.5,38,85,53
India,Telangana,Hyderabad,"ECIL Kapra, Hyderabad - TSPCB",24-12-2025 08:00:00,17.470431,78.566959,SO2,5,58,28
India,Telangana,Hyderabad,"ECIL Kapra, Hyderabad - TSPCB",24-12-2025 08:00:00,17.470431,78.566959,CO,20,56,36
India,TamilNadu,Chennai,"Perungudi, Chennai - TNPCB",24-12-2025 08:00:00,12.9533,80.2357,SO2,2,7,4
India,TamilNadu,Chennai,"Perungudi, Chennai - TNPCB",24-12-2025 08:00:00,12.9533,80.2357,CO,40,76,65
India,TamilNadu,Chennai,"Royapuram, Chennai - TNPCB",24-12-2025 08:00:00,13.1036,80.2909,NH3,5,10,7
India,TamilNadu,Chennai,"Velachery Res. Area, Chennai - CPCB",24-12-2025 08:00:00,13.0052189,80.2398125,NO2,13,17,14
India,TamilNadu,Chennai,"Velachery Res. Area, Chennai - CPCB",24-12-2025 08:00:00,13.0052189,80.2398125,SO2,14,18,16
India,TamilNadu,Chennai,"Velachery Res. Area, Chennai - CPCB",24-12-2025 08:00:00,13.0052189,80.2398125,CO,32,52,38
India,TamilNadu,Coimbatore,"SIDCO Kurichi, Coimbatore - TNPCB",24-12-2025 08:00:00,10.942451,76.978996,PM2.5,35,97,68
India,TamilNadu,Coimbatore,"SIDCO Kurichi, Coimbatore - TNPCB",24-12-2025 08:00:00,10.942451,76.978996,CO,23,80,35
India,TamilNadu,Cuddalore,"Kudikadu, Cuddalore - TNPCB",24-12-2025 08:00:00,11.6829898,79.7532099,PM2.5,NA,NA,NA
India,TamilNadu,Dindigul,"Mendonsa Colony, Dindigul - TNPCB",24-12-2025 08:00:00,10.358535,77.984321,SO2,NA,NA,NA
India,TamilNadu,Perundurai,"SIPCOT Industrial Park, Perundurai - TNPCB",24-12-2025 08:00:00,11.258242,77.552761,NH3,2,4,2
India,TamilNadu,Tirupur,"Kumaran College, Tirupur - TNPCB",24-12-2025 08:00:00,11.0973603,77.3228673,PM10,NA,NA,NA
India,Telangana,Hyderabad,"IDA Pashamylaram, Hyderabad - TSPCB",24-12-2025 08:00:00,17.5316895,78.218939,NH3,1,1,1
India,Telangana,Hyderabad,"Kokapet, Hyderabad - TSPCB",24-12-2025 08:00:00,17.393559,78.339194,NO2,12,16,14
India,Telangana,Hyderabad,"Kokapet, Hyderabad - TSPCB",24-12-2025 08:00:00,17.393559,78.339194,SO2,13,18,15
India,TamilNadu,Nagapattinam,"Velippalayam, Nagapattinam - TNPCB",24-12-2025 08:00:00,10.798548,79.838212,OZONE,NA,NA,NA
India,Uttar_Pradesh,Baghpat,"Sardar Patel Inter College, Baghpat - UPPCB",24-12-2025 08:00:00,28.964949,77.278761,PM10,104,302,163
India,Uttar_Pradesh,Baghpat,"Sardar Patel Inter College, Baghpat - UPPCB",24-12-2025 08:00:00,28.964949,77.278761,NO2,23,48,34
India,Uttar_Pradesh,Baghpat,"Sardar Patel Inter College, Baghpat - UPPCB",24-12-2025 08:00:00,28.964949,77.278761,SO2,9,24,16
India,Uttar_Pradesh,Bareilly,"Civil Lines, Bareilly - UPPCB",24-12-2025 08:00:00,28.359581,79.414455,NH3,1,6,2
India,Uttar_Pradesh,Bareilly,"Civil Lines, Bareilly - UPPCB",24-12-2025 08:00:00,28.359581,79.414455,CO,70,110,90
India,Uttar_Pradesh,Bareilly,"Rajendra Nagar, Bareilly - UPPCB",24-12-2025 08:00:00,28.38910936,79.42963708,NH3,1,1,1
India,Uttar_Pradesh,Bulandshahr,"Yamunapuram, Bulandshahr - UPPCB",24-12-2025 08:00:00,28.406963,77.849831,SO2,21,43,29
India,Uttar_Pradesh,Bulandshahr,"Yamunapuram, Bulandshahr - UPPCB",24-12-2025 08:00:00,28.406963,77.849831,CO,55,121,79
India,Uttar_Pradesh,Bulandshahr,"Yamunapuram, Bulandshahr - UPPCB",24-12-2025 08:00:00,28.406963,77.849831,OZONE,2,139,6
India,Uttar_Pradesh,Firozabad,"Nagla Bhau, Firozabad - UPPCB",24-12-2025 08:00:00,27.168897,78.376960,PM2.5,37,81,59
India,Uttar_Pradesh,Muzaffarnagar,"New Mandi, Muzaffarnagar - UPPCB",24-12-2025 08:00:00,29.4723508,77.7194031,CO,1,100,17
India,Uttar_Pradesh,Noida,"Sector - 125, Noida - UPPCB",24-12-2025 08:00:00,28.5447608,77.3231257,PM2.5,208,409,349
India,Uttar_Pradesh,Noida,"Sector - 125, Noida - UPPCB",24-12-2025 08:00:00,28.5447608,77.3231257,PM10,130,380,253
India,Uttar_Pradesh,Noida,"Sector - 125, Noida - UPPCB",24-12-2025 08:00:00,28.5447608,77.3231257,OZONE,9,94,14
India,Uttar_Pradesh,Noida,"Sector - 62, Noida - IMD",24-12-2025 08:00:00,28.6245479,77.3577104,PM10,116,400,209
India,Uttar_Pradesh,Noida,"Sector - 62, Noida - IMD",24-12-2025 08:00:00,28.6245479,77.3577104,OZONE,20,80,23
India,Uttar_Pradesh,Noida,"Sector-1, Noida - UPPCB",24-12-2025 08:00:00,28.5898,77.3101,NH3,18,35,26
India,Uttar_Pradesh,Noida,"Sector-1, Noida - UPPCB",24-12-2025 08:00:00,28.5898,77.3101,OZONE,4,83,9
India,Uttar_Pradesh,Noida,"Sector-116, Noida - UPPCB",24-12-2025 08:00:00,28.569230,77.393848,NH3,21,41,26
India,Uttar_Pradesh,Prayagraj,"Jhunsi, Prayagraj - UPPCB",24-12-2025 08:00:00,25.425602,81.917152,PM10,58,236,120
India,Uttar_Pradesh,Ghaziabad,"Vasundhara, Ghaziabad - UPPCB",24-12-2025 08:00:00,28.6603346,77.3572563,CO,28,106,38
India,Uttar_Pradesh,Greater Noida,"Knowledge Park - III, Greater Noida - UPPCB",24-12-2025 08:00:00,28.47272,77.482000,PM2.5,173,399,321
India,Uttar_Pradesh,Greater Noida,"Knowledge Park - III, Greater Noida - UPPCB",24-12-2025 08:00:00,28.47272,77.482000,SO2,13,29,19
India,Uttar_Pradesh,Greater Noida,"Knowledge Park - III, Greater Noida - UPPCB",24-12-2025 08:00:00,28.47272,77.482000,CO,16,113,42
India,Uttar_Pradesh,Greater Noida,"Knowledge Park - V, Greater Noida - UPPCB",24-12-2025 08:00:00,28.557054,77.453663,PM2.5,282,435,354
India,Uttar_Pradesh,Greater Noida,"Knowledge Park - V, Greater Noida - UPPCB",24-12-2025 08:00:00,28.557054,77.453663,CO,5,102,30
India,Uttar_Pradesh,Hapur,"Anand Vihar, Hapur - UPPCB",24-12-2025 08:00:00,28.725645,77.749675,PM10,84,154,122
India,Uttar_Pradesh,Hapur,"Anand Vihar, Hapur - UPPCB",24-12-2025 08:00:00,28.725645,77.749675,NO2,NA,NA,NA
India,Uttar_Pradesh,Firozabad,"Vibhab Nagar, Firozabad - UPPCB",24-12-2025 08:00:00,27.1594,78.3953,PM10,43,85,63
India,Uttar_Pradesh,Ghaziabad,"Indirapuram, Ghaziabad - UPPCB",24-12-2025 08:00:00,28.646233,77.358075,NO2,16,70,31
India,Uttar_Pradesh,Ghaziabad,"Indirapuram, Ghaziabad - UPPCB",24-12-2025 08:00:00,28.646233,77.358075,SO2,10,21,14
India,Uttar_Pradesh,Ghaziabad,"Loni, Ghaziabad - UPPCB",24-12-2025 08:00:00,28.757294,77.278792,NO2,29,103,53
India,Uttar_Pradesh,Ghaziabad,"Sanjay Nagar, Ghaziabad - UPPCB",24-12-2025 08:00:00,28.685382,77.453839,PM2.5,263,419,335
India,Uttar_Pradesh,Ghaziabad,"Sanjay Nagar, Ghaziabad - UPPCB",24-12-2025 08:00:00,28.685382,77.453839,OZONE,10,47,14
India,Uttar_Pradesh,Ghaziabad,"Vasundhara, Ghaziabad - UPPCB",24-12-2025 08:00:00,28.6603346,77.3572563,PM10,145,425,269
India,Uttar_Pradesh,Meerut,"Pallavpuram Phase 2, Meerut - UPPCB",24-12-2025 08:00:00,29.063510,77.709723,OZONE,8,93,12
India,Uttar_Pradesh,Moradabad,"Buddhi Vihar, Moradabad - UPPCB",24-12-2025 08:00:00,28.83526,78.74460,NH3,5,5,5
India,Uttar_Pradesh,Moradabad,"Buddhi Vihar, Moradabad - UPPCB",24-12-2025 08:00:00,28.83526,78.74460,CO,48,102,59
India,Uttar_Pradesh,Moradabad,"Eco Herbal Park, Moradabad - UPPCB",24-12-2025 08:00:00,28.840739,78.697531,CO,3,108,16
India,Uttar_Pradesh,Moradabad,"Employment Office, Moradabad - UPPCB",24-12-2025 08:00:00,28.88528,78.73880,NO2,16,16,16
India,Uttar_Pradesh,Moradabad,"Employment Office, Moradabad - UPPCB",24-12-2025 08:00:00,28.88528,78.73880,NH3,4,4,4
India,Uttar_Pradesh,Moradabad,"Employment Office, Moradabad - UPPCB",24-12-2025 08:00:00,28.88528,78.73880,OZONE,15,29,15
India,Uttar_Pradesh,Lucknow,"B R Ambedkar University, Lucknow - UPPCB",24-12-2025 08:00:00,26.766433,80.927299,PM2.5,41,217,97
India,Uttar_Pradesh,Lucknow,"B R Ambedkar University, Lucknow - UPPCB",24-12-2025 08:00:00,26.766433,80.927299,PM10,NA,NA,NA
India,Uttar_Pradesh,Lucknow,"Gomti Nagar, Lucknow - UPPCB",24-12-2025 08:00:00,26.868120,81.005119,CO,28,34,29
India,Uttar_Pradesh,Lucknow,"Kendriya Vidyalaya, Lucknow - CPCB",24-12-2025 08:00:00,26.906111,80.948222,PM2.5,86,323,211
India,Uttar_Pradesh,Lucknow,"Kukrail Picnic Spot-1, Lucknow - UPPCB",24-12-2025 08:00:00,26.90723,80.98579,PM10,38,114,90
India,Uttar_Pradesh,Meerut,"Ganga Nagar, Meerut - UPPCB",24-12-2025 08:00:00,28.999264,77.7590354,PM2.5,84,289,183
India,Uttar_Pradesh,Meerut,"Jai Bhim Nagar, Meerut - UPPCB",24-12-2025 08:00:00,28.9535882,77.7622941,PM2.5,242,385,321
India,Uttar_Pradesh,Meerut,"Jai Bhim Nagar, Meerut - UPPCB",24-12-2025 08:00:00,28.9535882,77.7622941,NO2,31,73,45
India,Uttar_Pradesh,Meerut,"Jai Bhim Nagar, Meerut - UPPCB",24-12-2025 08:00:00,28.9535882,77.7622941,SO2,2,8,5
India,Uttar_Pradesh,Meerut,"Jai Bhim Nagar, Meerut - UPPCB",24-12-2025 08:00:00,28.9535882,77.7622941,OZONE,4,89,17
India,Uttar_Pradesh,Moradabad,"Transport Nagar, Moradabad - UPPCB",24-12-2025 08:00:00,28.802625,78.753728,PM10,73,258,120
India,Uttar_Pradesh,Moradabad,"Transport Nagar, Moradabad - UPPCB",24-12-2025 08:00:00,28.802625,78.753728,NO2,29,30,29
India,Uttar_Pradesh,Muzaffarnagar,"New Mandi, Muzaffarnagar - UPPCB",24-12-2025 08:00:00,29.4723508,77.7194031,PM10,117,182,143
India,Uttar_Pradesh,Kanpur,"Nehru Nagar, Kanpur - UPPCB",24-12-2025 08:00:00,26.4703136,80.3229863,NO2,6,19,12
India,Uttar_Pradesh,Kanpur,"Nehru Nagar, Kanpur - UPPCB",24-12-2025 08:00:00,26.4703136,80.3229863,CO,70,78,78
India,Uttarakhand,Kashipur,"Govt. Girls Inter College, Kashipur - UKPCB",24-12-2025 08:00:00,29.2124114,78.9611753,CO,44,52,48
India,Uttarakhand,Rishikesh,"Shivaji Nagar, Rishikesh - UKPCB",24-12-2025 08:00:00,30.075911,78.2859547,NO2,NA,NA,NA
India,Uttarakhand,Rishikesh,"Shivaji Nagar, Rishikesh - UKPCB",24-12-2025 08:00:00,30.075911,78.2859547,CO,NA,NA,NA
India,West_Bengal,Asansol,"Asansol Court Area, Asansol - WBPCB",24-12-2025 08:00:00,23.685297,86.945968,PM2.5,182,314,279
India,West_Bengal,Asansol,"Asansol Court Area, Asansol - WBPCB",24-12-2025 08:00:00,23.685297,86.945968,NO2,15,28,23
India,West_Bengal,Asansol,"Asansol Court Area, Asansol - WBPCB",24-12-2025 08:00:00,23.685297,86.945968,SO2,12,42,25
India,West_Bengal,Asansol,"Asansol Court Area, Asansol - WBPCB",24-12-2025 08:00:00,23.685297,86.945968,CO,34,103,67
India,West_Bengal,Asansol,"Evelyn Lodge, Asansol - WBPCB",24-12-2025 08:00:00,23.6979360,86.9443950,CO,28,103,61
India,West_Bengal,Asansol,"Mahabir Colliery, Asansol - WBPCB",24-12-2025 08:00:00,23.6181830,87.1057180,NH3,1,2,1
India,West_Bengal,Durgapur,"Womens College_City Center, Durgapur - WBPCB (Formerly known as Sidhu Kanhu Indoor Stadium)",24-12-2025 08:00:00,23.549395,87.300496,NH3,3,4,3
India,West_Bengal,Haldia,"Priyambada Housing Estate, Haldia - WBPCB",24-12-2025 08:00:00,22.06047,88.109737,SO2,13,20,15
India,West_Bengal,Howrah,"Belur Math, Howrah - WBPCB",24-12-2025 08:00:00,22.629801,88.352017,NO2,58,151,91
India,West_Bengal,Howrah,"Belur Math, Howrah - WBPCB",24-12-2025 08:00:00,22.629801,88.352017,CO,24,101,48
India,West_Bengal,Howrah,"Belur Math, Howrah - WBPCB",24-12-2025 08:00:00,22.629801,88.352017,OZONE,14,47,25
India,West_Bengal,Howrah,"Botanical Garden, Howrah - WBPCB",24-12-2025 08:00:00,22.554954,88.292568,PM10,63,181,118
India,West_Bengal,Howrah,"Dasnagar, Howrah - WBPCB",24-12-2025 08:00:00,22.6025571,88.3105664,NO2,14,95,54
India,Uttar_Pradesh,Prayagraj,"Jhunsi, Prayagraj - UPPCB",24-12-2025 08:00:00,25.425602,81.917152,NH3,5,5,5
India,Uttar_Pradesh,Prayagraj,"Motilal Nehru NIT, Prayagraj - UPPCB",24-12-2025 08:00:00,25.494,81.863,NO2,12,12,12
India,Uttar_Pradesh,Prayagraj,"Motilal Nehru NIT, Prayagraj - UPPCB",24-12-2025 08:00:00,25.494,81.863,SO2,21,33,28
India,Uttar_Pradesh,Prayagraj,"Nagar Nigam, Prayagraj - UPPCB",24-12-2025 08:00:00,25.44919916 ,81.82735986 ,PM2.5,52,247,129
India,Uttar_Pradesh,Prayagraj,"Nagar Nigam, Prayagraj - UPPCB",24-12-2025 08:00:00,25.44919916 ,81.82735986 ,NH3,10,20,14
India,Uttar_Pradesh,Prayagraj,"Nagar Nigam, Prayagraj - UPPCB",24-12-2025 08:00:00,25.44919916 ,81.82735986 ,CO,48,109,82
India,Uttar_Pradesh,Varanasi,"Ardhali Bazar, Varanasi - UPPCB",24-12-2025 08:00:00,25.3505986,82.9083074,PM2.5,62,488,146
India,West_Bengal,Asansol,"Mahabir Colliery, Asansol - WBPCB",24-12-2025 08:00:00,23.6181830,87.1057180,CO,8,109,85
India,West_Bengal,Asansol,"Trivenidevi Bhalotia College, Asansol - WBPCB",24-12-2025 08:00:00,23.616515,87.119133,NO2,19,43,30
India,West_Bengal,Barrackpore,"SVSPA Campus, Barrackpore - WBPCB",24-12-2025 08:00:00,22.7605581,88.3617589,CO,67,110,97
India,West_Bengal,Durgapur,"Mahishkapur Road_B-Zone, Durgapur - WBPCB",24-12-2025 08:00:00,23.567923,87.306843,NH3,2,2,2
India,West_Bengal,Durgapur,"Mahishkapur Road_B-Zone, Durgapur - WBPCB",24-12-2025 08:00:00,23.567923,87.306843,OZONE,17,90,19
India,West_Bengal,Howrah,"Dasnagar, Howrah - WBPCB",24-12-2025 08:00:00,22.6025571,88.3105664,CO,6,122,85
India,West_Bengal,Howrah,"Dasnagar, Howrah - WBPCB",24-12-2025 08:00:00,22.6025571,88.3105664,OZONE,9,106,11
India,West_Bengal,Howrah,"Ghusuri, Howrah - WBPCB",24-12-2025 08:00:00,22.611968,88.347422,PM2.5,213,484,339
India,West_Bengal,Howrah,"Padmapukur, Howrah - WBPCB",24-12-2025 08:00:00,22.5687319,88.2797276,PM2.5,94,338,233
India,West_Bengal,Howrah,"Padmapukur, Howrah - WBPCB",24-12-2025 08:00:00,22.5687319,88.2797276,NH3,2,2,2
India,West_Bengal,Kolkata,"Bidhannagar, Kolkata - WBPCB",24-12-2025 08:00:00,22.58157048,88.41002457,NO2,NA,NA,NA
India,Uttar_Pradesh,Varanasi,"IESD Banaras Hindu University, Varanasi - UPPCB",24-12-2025 08:00:00,25.262326,82.995408,PM10,71,183,120
India,Uttar_Pradesh,Varanasi,"IESD Banaras Hindu University, Varanasi - UPPCB",24-12-2025 08:00:00,25.262326,82.995408,SO2,32,39,36
India,Uttar_Pradesh,Vrindavan,"Omex Eternity, Vrindavan - UPPCB",24-12-2025 08:00:00,27.5714090,77.6557570,NO2,12,12,12
India,Uttarakhand,Dehradun,"Doon University, Dehradun - UKPCB",24-12-2025 08:00:00,30.269444,78.044167,OZONE,23,74,26
India,West_Bengal,Kolkata,"Jadavpur, Kolkata - WBPCB",24-12-2025 08:00:00,22.49929,88.36917,PM10,109,297,179
India,West_Bengal,Kolkata,"Jadavpur, Kolkata - WBPCB",24-12-2025 08:00:00,22.49929,88.36917,SO2,9,13,11
India,West_Bengal,Kolkata,"Rabindra Bharati University, Kolkata - WBPCB",24-12-2025 08:00:00,22.627847,88.380669,PM10,103,323,159
India,West_Bengal,Kolkata,"Rabindra Sarobar, Kolkata - WBPCB",24-12-2025 08:00:00,22.51106,88.35142,PM2.5,54,188,107
India,West_Bengal,Kolkata,"Bidhannagar, Kolkata - WBPCB",24-12-2025 08:00:00,22.58157048,88.41002457,CO,NA,NA,NA
India,West_Bengal,Kolkata,"Fort William, Kolkata - WBPCB",24-12-2025 08:00:00,22.556640,88.342674,OZONE,21,74,43
India,West_Bengal,Kolkata,"Jadavpur, Kolkata - WBPCB",24-12-2025 08:00:00,22.49929,88.36917,PM2.5,111,348,245
India,West_Bengal,Kolkata,"Victoria, Kolkata - WBPCB",24-12-2025 08:00:00,22.5448082,88.3403691,SO2,1,17,6
India,West_Bengal,Siliguri,"Ward-32 Bapupara, Siliguri - WBPCB",24-12-2025 08:00:00,26.6879226,88.4152495,PM10,47,108,79
India,West_Bengal,Siliguri,"Ward-32 Bapupara, Siliguri - WBPCB",24-12-2025 08:00:00,26.6879226,88.4152495,NH3,11,11,11
India,Bihar,Araria,"Kharahiya Basti, Araria - BSPCB",24-12-2025 08:00:00,26.146529,87.454184,OZONE,9,11,10
India,Bihar,Arrah,"New DM Office, Arrah - BSPCB",24-12-2025 08:00:00,25.5626095,84.663264,SO2,9,10,10
India,Bihar,Arrah,"New DM Office, Arrah - BSPCB",24-12-2025 08:00:00,25.5626095,84.663264,OZONE,7,13,8
India,Bihar,Aurangabad,"Gurdeo Nagar, Aurangabad - BSPCB",24-12-2025 08:00:00,24.75746,84.366208,NO2,7,8,8
India,Bihar,Aurangabad,"Gurdeo Nagar, Aurangabad - BSPCB",24-12-2025 08:00:00,24.75746,84.366208,CO,28,103,102
India,Bihar,Begusarai,"Lohiyanagar, Begusarai - BSPCB",24-12-2025 08:00:00,25.42742023,86.13886079,PM2.5,98,197,139
India,Bihar,Begusarai,"Lohiyanagar, Begusarai - BSPCB",24-12-2025 08:00:00,25.42742023,86.13886079,OZONE,9,14,11
India,Bihar,Bettiah,"Kamalnath Nagar, Bettiah - BSPCB",24-12-2025 08:00:00,26.80365,84.51954,PM2.5,52,310,179
India,Andhra_Pradesh,Rajamahendravaram,"Anand Kala Kshetram, Rajamahendravaram - APPCB",24-12-2025 08:00:00,16.9872867,81.7363176,NH3,3,6,4
India,Andhra_Pradesh,Rajamahendravaram,"Anand Kala Kshetram, Rajamahendravaram - APPCB",24-12-2025 08:00:00,16.9872867,81.7363176,SO2,5,36,14
India,Andhra_Pradesh,Rajamahendravaram,"Anand Kala Kshetram, Rajamahendravaram - APPCB",24-12-2025 08:00:00,16.9872867,81.7363176,CO,34,80,48
India,Andhra_Pradesh,Tirumala,"Toll Gate, Tirumala - APPCB",24-12-2025 08:00:00,13.67,79.35,PM2.5,158,303,235
India,Andhra_Pradesh,Tirumala,"Toll Gate, Tirumala - APPCB",24-12-2025 08:00:00,13.67,79.35,NO2,9,23,15
India,Andhra_Pradesh,Tirumala,"Toll Gate, Tirumala - APPCB",24-12-2025 08:00:00,13.67,79.35,CO,13,49,40
India,Andhra_Pradesh,Tirupati,"Vaikuntapuram, Tirupati - APPCB",24-12-2025 08:00:00,13.615387,79.409230,NO2,11,15,14
India,Andhra_Pradesh,Tirupati,"Vaikuntapuram, Tirupati - APPCB",24-12-2025 08:00:00,13.615387,79.409230,CO,40,54,44
India,Assam,Nagaon,"Christianpatty, Nagaon - PCBA",24-12-2025 08:00:00,26.349082,92.68449,NH3,4,4,4
India,Assam,Nagaon,"Christianpatty, Nagaon - PCBA",24-12-2025 08:00:00,26.349082,92.68449,SO2,13,14,14
India,Assam,Silchar,"Tarapur, Silchar - PCBA",24-12-2025 08:00:00,24.82827,92.79525,NH3,1,1,1
India,Assam,Silchar,"Tarapur, Silchar - PCBA",24-12-2025 08:00:00,24.82827,92.79525,OZONE,NA,NA,NA
India,Assam,Sivasagar,"Girls College, Sivasagar - PCBA",24-12-2025 08:00:00,26.987634,94.636574,PM2.5,28,90,52
India,Assam,Sivasagar,"Girls College, Sivasagar - PCBA",24-12-2025 08:00:00,26.987634,94.636574,NH3,4,14,7
India,Assam,Sivasagar,"Girls College, Sivasagar - PCBA",24-12-2025 08:00:00,26.987634,94.636574,SO2,5,10,6
India,Bihar,Araria,"Kharahiya Basti, Araria - BSPCB",24-12-2025 08:00:00,26.146529,87.454184,PM2.5,20,315,136
India,Andaman and Nicobar,Sri Vijaya Puram,"Police Line, Sri Vijaya Puram - ANPCC",24-12-2025 08:00:00,11.654054,92.734055,NH3,5,8,6
India,Andhra_Pradesh,Amaravati,"Secretariat, Amaravati - APPCB",24-12-2025 08:00:00,16.5150833,80.5181667,SO2,1,75,14
India,Andhra_Pradesh,Anantapur,"Gulzarpet, Anantapur - APPCB",24-12-2025 08:00:00,14.675886,77.593027,PM10,33,131,88
India,Andhra_Pradesh,Chittoor,"Gangineni Cheruvu, Chittoor - APPCB",24-12-2025 08:00:00,13.204880,79.097889,PM10,32,158,101
India,Andhra_Pradesh,Kadapa,"Yerramukkapalli, Kadapa - APPCB",24-12-2025 08:00:00,14.465052,78.824187,SO2,14,16,16
India,Andhra_Pradesh,Vijayawada,"Kanuru, Vijayawada - APPCB",24-12-2025 08:00:00,16.486692,80.699436,NO2,31,59,33
India,Andhra_Pradesh,Vijayawada,"Kanuru, Vijayawada - APPCB",24-12-2025 08:00:00,16.486692,80.699436,NH3,2,3,3
India,Andhra_Pradesh,Vijayawada,"Kanuru, Vijayawada - APPCB",24-12-2025 08:00:00,16.486692,80.699436,CO,48,78,64
India,Andhra_Pradesh,Vijayawada,"Kanuru, Vijayawada - APPCB",24-12-2025 08:00:00,16.486692,80.699436,OZONE,23,26,26
India,Andhra_Pradesh,Vijayawada,"Rajiv Gandhi Park, Vijayawada - APPCB",24-12-2025 08:00:00,16.509717,80.612222,SO2,10,130,23
India,Arunachal_Pradesh,Naharlagun,"Naharlagun, Naharlagun - APSPCB",24-12-2025 08:00:00,27.103358,93.679645,PM2.5,2,397,188
India,Arunachal_Pradesh,Naharlagun,"Naharlagun, Naharlagun - APSPCB",24-12-2025 08:00:00,27.103358,93.679645,NO2,6,7,7
India,Bihar,Bettiah,"Kamalnath Nagar, Bettiah - BSPCB",24-12-2025 08:00:00,26.80365,84.51954,CO,66,108,76
India,Bihar,Bettiah,"Kamalnath Nagar, Bettiah - BSPCB",24-12-2025 08:00:00,26.80365,84.51954,OZONE,22,24,23
India,Bihar,Bhagalpur,"DM Office_Kachari Chowk, Bhagalpur - BSPCB",24-12-2025 08:00:00,25.251013,86.989001,PM2.5,67,240,146
India,Bihar,Bhagalpur,"DM Office_Kachari Chowk, Bhagalpur - BSPCB",24-12-2025 08:00:00,25.251013,86.989001,OZONE,11,26,16
India,Bihar,Bhagalpur,"Mayaganj, Bhagalpur - BSPCB",24-12-2025 08:00:00,25.265194,87.012947,PM10,97,177,140
India,Bihar,Bhagalpur,"Mayaganj, Bhagalpur - BSPCB",24-12-2025 08:00:00,25.265194,87.012947,OZONE,8,11,9
India,Assam,Byrnihat,"Central Academy for SFS, Byrnihat - PCBA",24-12-2025 08:00:00,26.071318,91.87488,PM2.5,96,302,159
India,Assam,Byrnihat,"Central Academy for SFS, Byrnihat - PCBA",24-12-2025 08:00:00,26.071318,91.87488,PM10,72,136,94
India,Assam,Byrnihat,"Central Academy for SFS, Byrnihat - PCBA",24-12-2025 08:00:00,26.071318,91.87488,CO,10,64,54
India,Assam,Byrnihat,"Central Academy for SFS, Byrnihat - PCBA",24-12-2025 08:00:00,26.071318,91.87488,OZONE,14,30,16
India,Assam,Guwahati,"LGBI Airport, Guwahati - PCBA",24-12-2025 08:00:00,26.10887,91.589544,CO,14,56,35
India,Bihar,Munger,"Town Hall, Munger - BSPCB",24-12-2025 08:00:00,25.376776,86.471523,SO2,37,53,43
India,Bihar,Munger,"Town Hall, Munger - BSPCB",24-12-2025 08:00:00,25.376776,86.471523,OZONE,14,21,16
India,Bihar,Muzaffarpur,"Buddha Colony, Muzaffarpur - BSPCB",24-12-2025 08:00:00,26.11442,85.39813,NH3,5,7,6
India,Bihar,Muzaffarpur,"MIT-Daudpur Kothi, Muzaffarpur - BSPCB",24-12-2025 08:00:00,26.1403345,85.3650192,OZONE,10,27,11
India,Bihar,Katihar,"Mirchaibari, Katihar - BSPCB",24-12-2025 08:00:00,25.560083,87.553265,OZONE,5,19,7
India,Bihar,Kishanganj,"SDM Office_Khagra, Kishanganj - BSPCB",24-12-2025 08:00:00,26.0881305,87.93840336,PM10,125,435,185
India,Bihar,Motihari,"Gandak Colony, Motihari - BSPCB",24-12-2025 08:00:00,26.63086,84.90051,NO2,3,5,4
India,Bihar,Gaya,"Collectorate, Gaya - BSPCB",24-12-2025 08:00:00,24.7955,84.9994,OZONE,NA,NA,NA
India,Bihar,Gaya,"Kareemganj, Gaya - BSPCB",24-12-2025 08:00:00,24.792403,84.992416,PM2.5,62,303,114
India,Chandigarh,Chandigarh,"Sector-25, Chandigarh - CPCC",24-12-2025 08:00:00,30.751462,76.762879,PM2.5,72,221,144
India,Chandigarh,Chandigarh,"Sector-25, Chandigarh - CPCC",24-12-2025 08:00:00,30.751462,76.762879,SO2,8,13,9
India,Chandigarh,Chandigarh,"Sector-25, Chandigarh - CPCC",24-12-2025 08:00:00,30.751462,76.762879,OZONE,3,48,4
India,Chandigarh,Chandigarh,"Sector-53, Chandigarh - CPCC",24-12-2025 08:00:00,30.719859,76.738637,PM2.5,67,237,132
India,Chandigarh,Chandigarh,"Sector-53, Chandigarh - CPCC",24-12-2025 08:00:00,30.719859,76.738637,PM10,53,113,85
India,Chandigarh,Chandigarh,"Sector-53, Chandigarh - CPCC",24-12-2025 08:00:00,30.719859,76.738637,NO2,22,58,36
India,Chandigarh,Chandigarh,"Sector-53, Chandigarh - CPCC",24-12-2025 08:00:00,30.719859,76.738637,SO2,7,15,10
India,Chhattisgarh,Bhilai,"Civic Center, Bhilai - Bhilai Steel Plant",24-12-2025 08:00:00,21.185571,81.343175,PM10,25,164,77
India,Chhattisgarh,Bhilai,"Civic Center, Bhilai - Bhilai Steel Plant",24-12-2025 08:00:00,21.185571,81.343175,SO2,6,12,8
India,Chhattisgarh,Bhilai,"Civic Center, Bhilai - Bhilai Steel Plant",24-12-2025 08:00:00,21.185571,81.343175,OZONE,5,17,11
India,Chhattisgarh,Bhilai,"Hathkhoj, Bhilai - CECB",24-12-2025 08:00:00,21.224231,81.408350,PM10,8,67,46
India,Chhattisgarh,Bhilai,"Hathkhoj, Bhilai - CECB",24-12-2025 08:00:00,21.224231,81.408350,CO,27,108,91
India,Chhattisgarh,Bilaspur,"Mangala, Bilaspur - NTPC",24-12-2025 08:00:00,22.08815,82.13737,CO,36,82,52
India,Chhattisgarh,Chhal,"Nawapara SECL Colony, Chhal - CECB",24-12-2025 08:00:00,22.118125,83.140608,NH3,5,5,5
India,Chhattisgarh,Chhal,"Nawapara SECL Colony, Chhal - CECB",24-12-2025 08:00:00,22.118125,83.140608,OZONE,2,206,6
India,Chhattisgarh,Korba,"Rampur, Korba - CECB",24-12-2025 08:00:00,22.368195,82.746431,PM2.5,40,223,102
India,Bihar,Patna,"DRM Office Danapur, Patna - BSPCB",24-12-2025 08:00:00,25.586562,85.043586,NO2,26,30,28
India,Bihar,Patna,"DRM Office Danapur, Patna - BSPCB",24-12-2025 08:00:00,25.586562,85.043586,OZONE,39,81,76
India,Bihar,Patna,"Govt. High School Shikarpur, Patna - BSPCB",24-12-2025 08:00:00,25.592539,85.227158,CO,67,112,77
India,Bihar,Patna,"IGSC Planetarium Complex, Patna - BSPCB",24-12-2025 08:00:00,25.610369,85.132568,PM2.5,106,168,136
India,Bihar,Patna,"IGSC Planetarium Complex, Patna - BSPCB",24-12-2025 08:00:00,25.610369,85.132568,OZONE,28,30,29
India,Bihar,Patna,"Muradpur, Patna - BSPCB",24-12-2025 08:00:00,25.619651,85.147382,NH3,4,5,5
India,Bihar,Patna,"Muradpur, Patna - BSPCB",24-12-2025 08:00:00,25.619651,85.147382,CO,33,77,50
India,Bihar,Patna,"Muradpur, Patna - BSPCB",24-12-2025 08:00:00,25.619651,85.147382,OZONE,4,23,5
India,Delhi,Delhi,"Aya Nagar, Delhi - IMD",24-12-2025 08:00:00,28.4706914,77.1099364,CO,38,98,45
India,Delhi,Delhi,"Bawana, Delhi - DPCC",24-12-2025 08:00:00,28.776200,77.051074,PM2.5,277,437,352
India,Delhi,Delhi,"Burari Crossing, Delhi - IMD",24-12-2025 08:00:00,28.7256504,77.2011573,PM10,112,283,194
India,Delhi,Delhi,"CRRI Mathura Road, Delhi - IMD",24-12-2025 08:00:00,28.5512005,77.2735737,PM10,101,285,201
India,Delhi,Delhi,"CRRI Mathura Road, Delhi - IMD",24-12-2025 08:00:00,28.5512005,77.2735737,NO2,20,144,58
India,Delhi,Delhi,"Chandni Chowk, Delhi - IITM",24-12-2025 08:00:00,28.656756,77.227234,SO2,4,42,29
India,Chhattisgarh,Raipur,"Bhatagaon New ISBT, Raipur - CECB",24-12-2025 08:00:00,21.219665,81.630094,NH3,2,2,2
India,Chhattisgarh,Raipur,"Krishak Nagar, Raipur - CECB",24-12-2025 08:00:00,21.237755,81.705301,CO,32,82,66
India,Chhattisgarh,Raipur,"Siltara Phase-II, Raipur - CECB",24-12-2025 08:00:00,21.371751,81.664929,PM10,45,162,100
India,Chhattisgarh,Raipur,"Siltara Phase-II, Raipur - CECB",24-12-2025 08:00:00,21.371751,81.664929,NO2,30,48,35
India,Chhattisgarh,Raipur,"Siltara Phase-II, Raipur - CECB",24-12-2025 08:00:00,21.371751,81.664929,NH3,2,2,2
India,Chhattisgarh,Tumidih,"OP Jindal Industrial Park, Tumidih - CECB",24-12-2025 08:00:00,22.06631475,83.33820077,SO2,5,20,8
India,Delhi,Delhi,"Alipur, Delhi - DPCC",24-12-2025 08:00:00,28.815329,77.153010,PM2.5,253,397,334
India,Delhi,Delhi,"Alipur, Delhi - DPCC",24-12-2025 08:00:00,28.815329,77.153010,NH3,2,7,5
India,Delhi,Delhi,"Anand Vihar, Delhi - DPCC",24-12-2025 08:00:00,28.647622,77.3158090,CO,84,124,93
India,Delhi,Delhi,"Anand Vihar, Delhi - DPCC",24-12-2025 08:00:00,28.647622,77.3158090,OZONE,3,18,10
India,Delhi,Delhi,"Ashok Vihar, Delhi - DPCC",24-12-2025 08:00:00,28.695381,77.181665,PM2.5,304,429,359
India,Delhi,Delhi,"Ashok Vihar, Delhi - DPCC",24-12-2025 08:00:00,28.695381,77.181665,NO2,30,120,58
India,Bihar,Patna,"Samanpura, Patna - BSPCB",24-12-2025 08:00:00,25.596727,85.085624,CO,102,108,103
India,Bihar,Purnia,"Mariam Nagar, Purnia - BSPCB",24-12-2025 08:00:00,25.366336,87.117468,CO,51,60,58
India,Bihar,Rajgir,"Dangi Tola, Rajgir - BSPCB",24-12-2025 08:00:00,25.03280,85.41948,PM2.5,40,318,137
India,Bihar,Rajgir,"Dangi Tola, Rajgir - BSPCB",24-12-2025 08:00:00,25.03280,85.41948,NH3,6,7,7
India,Chhattisgarh,Korba,"Urja Nagar, Korba - CECB",24-12-2025 08:00:00,22.348441,82.549611,OZONE,35,36,35
India,Chhattisgarh,Kunjemura,"OP Jindal School, Kunjemura - CECB",24-12-2025 08:00:00,22.126650,83.483212,NO2,26,87,44
India,Chhattisgarh,Kunjemura,"OP Jindal School, Kunjemura - CECB",24-12-2025 08:00:00,22.126650,83.483212,CO,40,66,53
India,Chhattisgarh,Raipur,"AIIMS, Raipur - CECB",24-12-2025 08:00:00,21.258815,81.578979,PM10,34,173,93
India,Bihar,Sasaram,"Dada Peer, Sasaram - BSPCB",24-12-2025 08:00:00,24.952822,84.002396,PM2.5,34,93,58
India,Bihar,Sasaram,"Dada Peer, Sasaram - BSPCB",24-12-2025 08:00:00,24.952822,84.002396,NO2,2,3,2
India,Bihar,Siwan,"Chitragupta Nagar, Siwan - BSPCB",24-12-2025 08:00:00,26.2271665,84.3570427,OZONE,17,18,18
India,Delhi,Delhi,"Sirifort, Delhi - CPCB",24-12-2025 08:00:00,28.5504249,77.2159377,OZONE,10,28,10
India,Delhi,Delhi,"Sonia Vihar, Delhi - DPCC",24-12-2025 08:00:00,28.710508,77.249485,PM2.5,260,429,352
India,Delhi,Delhi,"Sri Aurobindo Marg, Delhi - DPCC",24-12-2025 08:00:00,28.531346,77.190156,NO2,26,73,47
India,Delhi,Delhi,"Sri Aurobindo Marg, Delhi - DPCC",24-12-2025 08:00:00,28.531346,77.190156,CO,61,102,78
India,Delhi,Delhi,"Vivek Vihar, Delhi - DPCC",24-12-2025 08:00:00,28.672342,77.315260,PM2.5,318,442,373
India,Delhi,Delhi,"Vivek Vihar, Delhi - DPCC",24-12-2025 08:00:00,28.672342,77.315260,NH3,14,18,16
India,Delhi,Delhi,"Vivek Vihar, Delhi - DPCC",24-12-2025 08:00:00,28.672342,77.315260,OZONE,3,58,13
India,Delhi,Delhi,"North Campus, DU, Delhi - IMD",24-12-2025 08:00:00,28.6573814,77.1585447,OZONE,16,163,34
India,Delhi,Delhi,"Okhla Phase-2, Delhi - DPCC",24-12-2025 08:00:00,28.530785,77.271255,PM10,121,375,244
India,Delhi,Delhi,"Okhla Phase-2, Delhi - DPCC",24-12-2025 08:00:00,28.530785,77.271255,NO2,82,193,134
India,Delhi,Delhi,"Okhla Phase-2, Delhi - DPCC",24-12-2025 08:00:00,28.530785,77.271255,NH3,26,39,32
India,Delhi,Delhi,"Patparganj, Delhi - DPCC",24-12-2025 08:00:00,28.623763,77.287209,PM2.5,297,443,369
India,Delhi,Delhi,"Patparganj, Delhi - DPCC",24-12-2025 08:00:00,28.623763,77.287209,NO2,48,146,87
India,Delhi,Delhi,"Patparganj, Delhi - DPCC",24-12-2025 08:00:00,28.623763,77.287209,OZONE,3,119,13
India,Gujarat,Ahmedabad,"Raikhad, Ahmedabad - IITM",24-12-2025 08:00:00,23.020509,72.579261,NH3,12,38,19
India,Gujarat,Ahmedabad,"Raikhad, Ahmedabad - IITM",24-12-2025 08:00:00,23.020509,72.579261,OZONE,7,70,14
India,Gujarat,Ahmedabad,"Rakhial, Ahmedabad - IITM",24-12-2025 08:00:00,23.016834,72.625775,SO2,26,72,41
India,Gujarat,Ahmedabad,"SAC ISRO Bopal, Ahmedabad - IITM",24-12-2025 08:00:00,23.041137,72.456691,NH3,9,23,15
India,Gujarat,Ahmedabad,"SAC ISRO Bopal, Ahmedabad - IITM",24-12-2025 08:00:00,23.041137,72.456691,SO2,2,109,15
India,Gujarat,Ahmedabad,"SAC ISRO Satellite, Ahmedabad - IITM",24-12-2025 08:00:00,23.023389,72.515201,NH3,10,43,18
India,Delhi,Delhi,"NSIT Dwarka, Delhi - CPCB",24-12-2025 08:00:00,28.60909,77.0325413,NO2,44,101,67
India,Delhi,Delhi,"Najafgarh, Delhi - DPCC",24-12-2025 08:00:00,28.570173,76.933762,PM10,63,204,154
India,Delhi,Delhi,"Najafgarh, Delhi - DPCC",24-12-2025 08:00:00,28.570173,76.933762,CO,38,115,62
India,Delhi,Delhi,"Narela, Delhi - DPCC",24-12-2025 08:00:00,28.822836,77.101981,PM2.5,303,414,346
India,Delhi,Delhi,"Narela, Delhi - DPCC",24-12-2025 08:00:00,28.822836,77.101981,SO2,8,14,10
India,Delhi,Delhi,"Narela, Delhi - DPCC",24-12-2025 08:00:00,28.822836,77.101981,CO,22,69,39
India,Delhi,Delhi,"Wazirpur, Delhi - DPCC",24-12-2025 08:00:00,28.699793,77.165453,SO2,7,13,10
India,Delhi,Delhi,"Wazirpur, Delhi - DPCC",24-12-2025 08:00:00,28.699793,77.165453,OZONE,5,66,32
India,Gujarat,Ahmedabad,"Chandkheda, Ahmedabad - IITM",24-12-2025 08:00:00,23.107969,72.574648,NH3,5,28,11
India,Gujarat,Ahmedabad,"Chandkheda, Ahmedabad - IITM",24-12-2025 08:00:00,23.107969,72.574648,SO2,5,31,12
India,Gujarat,Ahmedabad,"Chandkheda, Ahmedabad - IITM",24-12-2025 08:00:00,23.107969,72.574648,OZONE,1,45,10
India,Gujarat,Ahmedabad,"Gyaspur, Ahmedabad - IITM",24-12-2025 08:00:00,22.977134,72.553024,NO2,30,92,67
India,Delhi,Delhi,"Pusa, Delhi - DPCC",24-12-2025 08:00:00,28.639652,77.146275,SO2,1,15,6
India,Delhi,Delhi,"R K Puram, Delhi - DPCC",24-12-2025 08:00:00,28.563262,77.186937,NH3,9,13,11
India,Delhi,Delhi,"R K Puram, Delhi - DPCC",24-12-2025 08:00:00,28.563262,77.186937,OZONE,6,97,9
India,Delhi,Delhi,"Rohini, Delhi - DPCC",24-12-2025 08:00:00,28.732528,77.119920,PM2.5,329,439,367
India,Delhi,Delhi,"Rohini, Delhi - DPCC",24-12-2025 08:00:00,28.732528,77.119920,NH3,15,21,17
India,Delhi,Delhi,"Rohini, Delhi - DPCC",24-12-2025 08:00:00,28.732528,77.119920,CO,46,84,56
India,Delhi,Delhi,"Major Dhyan Chand National Stadium, Delhi - DPCC",24-12-2025 08:00:00,28.611281,77.237738,PM10,126,392,252
India,Delhi,Delhi,"Major Dhyan Chand National Stadium, Delhi - DPCC",24-12-2025 08:00:00,28.611281,77.237738,NO2,36,131,76
India,Delhi,Delhi,"Major Dhyan Chand National Stadium, Delhi - DPCC",24-12-2025 08:00:00,28.611281,77.237738,NH3,22,31,27
India,Delhi,Delhi,"Mandir Marg, Delhi - DPCC",24-12-2025 08:00:00,28.636429,77.201067,SO2,100,109,104
India,Delhi,Delhi,"Mundka, Delhi - DPCC",24-12-2025 08:00:00,28.684678,77.076574,NH3,13,25,20
India,Delhi,Delhi,"DTU, Delhi - CPCB",24-12-2025 08:00:00,28.7500499,77.1112615,NO2,NA,NA,NA
India,Delhi,Delhi,"DTU, Delhi - CPCB",24-12-2025 08:00:00,28.7500499,77.1112615,CO,30,92,51
India,Delhi,Delhi,"Dwarka-Sector 8, Delhi - DPCC ",24-12-2025 08:00:00,28.5710274,77.0719006,PM10,108,329,209
India,Delhi,Delhi,"IHBAS, Dilshad Garden, Delhi - CPCB",24-12-2025 08:00:00,28.6811736,77.3025234,NH3,13,16,14
India,Delhi,Delhi,"IIT Delhi, Delhi - IITM",24-12-2025 08:00:00,28.542460,77.191651,OZONE,1,34,1
India,Delhi,Delhi,"Jawaharlal Nehru Stadium, Delhi - DPCC",24-12-2025 08:00:00,28.580280,77.233829,OZONE,5,166,18
India,Haryana,Dharuhera,"Municipal Corporation Office, Dharuhera -  HSPCB",24-12-2025 08:00:00,28.206800,76.799700,SO2,3,18,8
India,Haryana,Dharuhera,"Municipal Corporation Office, Dharuhera -  HSPCB",24-12-2025 08:00:00,28.206800,76.799700,CO,27,62,37
India,Haryana,Faridabad,"New Industrial Town, Faridabad - HSPCB",24-12-2025 08:00:00,28.39072,77.30059,NH3,11,12,11
India,Haryana,Faridabad,"New Industrial Town, Faridabad - HSPCB",24-12-2025 08:00:00,28.39072,77.30059,CO,10,13,12
India,Haryana,Faridabad,"Sector 11, Faridabad - HSPCB",24-12-2025 08:00:00,28.376058,77.315741,NO2,30,33,31
India,Haryana,Faridabad,"Sector 11, Faridabad - HSPCB",24-12-2025 08:00:00,28.376058,77.315741,OZONE,14,15,15
India,Haryana,Faridabad,"Sector 30, Faridabad - HSPCB",24-12-2025 08:00:00,28.4417,77.3217,PM10,163,165,164
India,Haryana,Fatehabad,"Huda Sector, Fatehabad - HSPCB",24-12-2025 08:00:00,29.503664,75.467934,PM10,106,209,149
India,Haryana,Fatehabad,"Huda Sector, Fatehabad - HSPCB",24-12-2025 08:00:00,29.503664,75.467934,NO2,18,20,19
India,Haryana,Fatehabad,"Huda Sector, Fatehabad - HSPCB",24-12-2025 08:00:00,29.503664,75.467934,CO,25,36,26
India,Gujarat,Ahmedabad,"SVPI Airport Hansol, Ahmedabad - IITM",24-12-2025 08:00:00,23.076793,72.627874,NH3,6,20,8
India,Gujarat,Ahmedabad,"SVPI Airport Hansol, Ahmedabad - IITM",24-12-2025 08:00:00,23.076793,72.627874,OZONE,1,39,4
India,Gujarat,Ankleshwar,"GIDC, Ankleshwar - GPCB",24-12-2025 08:00:00,21.613267,73.010555,PM2.5,50,129,87
India,Gujarat,Ankleshwar,"GIDC, Ankleshwar - GPCB",24-12-2025 08:00:00,21.613267,73.010555,NO2,15,22,21
India,Gujarat,Ankleshwar,"GIDC, Ankleshwar - GPCB",24-12-2025 08:00:00,21.613267,73.010555,NH3,6,8,8
India,Gujarat,Ankleshwar,"GIDC, Ankleshwar - GPCB",24-12-2025 08:00:00,21.613267,73.010555,CO,24,78,59
India,Gujarat,Ankleshwar,"GIDC, Ankleshwar - GPCB",24-12-2025 08:00:00,21.613267,73.010555,OZONE,35,60,56
India,Gujarat,Gandhinagar,"GIFT City, Gandhinagar - IITM",24-12-2025 08:00:00,23.163798,72.677768,PM2.5,29,109,60
India,Gujarat,Gandhinagar,"GIFT City, Gandhinagar - IITM",24-12-2025 08:00:00,23.163798,72.677768,CO,64,101,70
India,Gujarat,Gandhinagar,"Sector-10, Gandhinagar - GPCB",24-12-2025 08:00:00,23.221714,72.654328,NH3,2,5,3
India,Gujarat,Gandhinagar,"Sector-10, Gandhinagar - GPCB",24-12-2025 08:00:00,23.221714,72.654328,SO2,7,17,12
India,Himachal Pradesh,Baddi,"HIMUDA Complex Phase-1, Baddi - HPPCB",24-12-2025 08:00:00,30.943887,76.801991,SO2,25,117,48
India,Himachal Pradesh,Baddi,"HIMUDA Complex Phase-1, Baddi - HPPCB",24-12-2025 08:00:00,30.943887,76.801991,CO,63,105,73
India,Jammu_and_Kashmir,Pampore,"Khrew, Pampore - JKPCC",24-12-2025 08:00:00,34.031606,75.009712,NO2,16,25,21
India,Jammu_and_Kashmir,Srinagar,"Rajbagh, Srinagar - JKPCC",24-12-2025 08:00:00,34.066206,74.819820,PM10,19,59,28
India,Jharkhand,Dhanbad,"Sardar Patel Nagar, Dhanbad - JSPCB",24-12-2025 08:00:00,23.80569,86.44268,NO2,53,66,54
India,Jharkhand,Dhanbad,"Sardar Patel Nagar, Dhanbad - JSPCB",24-12-2025 08:00:00,23.80569,86.44268,OZONE,NA,NA,NA
India,Karnataka,Bagalkot,"Vidayagiri, Bagalkot - KSPCB",24-12-2025 08:00:00,16.172806,75.659694,PM2.5,35,36,35
India,Gujarat,Gandhinagar,"Sector-10, Gandhinagar - GPCB",24-12-2025 08:00:00,23.221714,72.654328,CO,25,50,32
India,Gujarat,Gandhinagar,"Sector-10, Gandhinagar - GPCB",24-12-2025 08:00:00,23.221714,72.654328,OZONE,3,55,6
India,Gujarat,Surat,"Science Center, Surat - SMC",24-12-2025 08:00:00,21.170046,72.795405,NO2,1,8,3
India,Gujarat,Vapi,"Phase-1 GIDC, Vapi - GPCB",24-12-2025 08:00:00,20.362421,72.918013,PM2.5,10,159,54
India,Gujarat,Vatva,"Phase-4 GIDC, Vatva - GPCB",24-12-2025 08:00:00,22.969611,72.643500,PM10,77,240,114
India,Gujarat,Vatva,"Phase-4 GIDC, Vatva - GPCB",24-12-2025 08:00:00,22.969611,72.643500,NO2,49,97,74
India,Gujarat,Vatva,"Phase-4 GIDC, Vatva - GPCB",24-12-2025 08:00:00,22.969611,72.643500,NH3,5,15,11
India,Haryana,Ambala,"Patti Mehar, Ambala - HSPCB",24-12-2025 08:00:00,30.379589,76.778328,NH3,9,11,10
India,Haryana,Panchkula,"Sector-6, Panchkula - HSPCB ",24-12-2025 08:00:00,30.7057778,76.8531805555555,PM2.5,295,390,336
India,Haryana,Panchkula,"Sector-6, Panchkula - HSPCB ",24-12-2025 08:00:00,30.7057778,76.8531805555555,OZONE,37,44,41
India,Haryana,Panipat,"Sector-18, Panipat - HSPCB",24-12-2025 08:00:00,29.432304,76.972765,PM2.5,110,307,200
India,Haryana,Panipat,"Sector-18, Panipat - HSPCB",24-12-2025 08:00:00,29.432304,76.972765,SO2,18,19,19
India,Haryana,Panipat,"Sector-18, Panipat - HSPCB",24-12-2025 08:00:00,29.432304,76.972765,CO,47,48,48
India,Haryana,Rohtak,"MD University, Rohtak - HSPCB",24-12-2025 08:00:00,28.52123,76.37138,CO,38,59,56
India,Haryana,Sirsa,"F-Block, Sirsa - HSPCB",24-12-2025 08:00:00,29.536400,75.015800,PM10,17,134,37
India,Haryana,Sirsa,"F-Block, Sirsa - HSPCB",24-12-2025 08:00:00,29.536400,75.015800,CO,34,74,54
India,Haryana,Bahadurgarh,"Arya Nagar, Bahadurgarh - HSPCB",24-12-2025 08:00:00,28.6701,76.9254,PM2.5,NA,NA,NA
India,Haryana,Bahadurgarh,"Arya Nagar, Bahadurgarh - HSPCB",24-12-2025 08:00:00,28.6701,76.9254,NH3,12,13,13
India,Haryana,Bahadurgarh,"Arya Nagar, Bahadurgarh - HSPCB",24-12-2025 08:00:00,28.6701,76.9254,CO,44,50,47
India,Haryana,Ballabgarh,"Nathu Colony, Ballabgarh - HSPCB",24-12-2025 08:00:00,28.3419248,77.319699,SO2,5,9,7
India,Haryana,Ballabgarh,"Nathu Colony, Ballabgarh - HSPCB",24-12-2025 08:00:00,28.3419248,77.319699,OZONE,15,15,15
India,Haryana,Bhiwani,"H.B. Colony, Bhiwani - HSPCB",24-12-2025 08:00:00,28.806223,76.141105,PM2.5,120,238,156
India,Haryana,Charkhi Dadri,"Mini Secretariat, Charkhi Dadri - HSPCB",24-12-2025 08:00:00,28.593883,76.270653,PM10,93,229,155
India,Haryana,Jind,"Police Lines, Jind - HSPCB",24-12-2025 08:00:00,29.307814,76.337619,SO2,1,3,2
India,Haryana,Kaithal,"Rishi Nagar, Kaithal - HSPCB",24-12-2025 08:00:00,29.8006,76.4155,PM10,88,119,106
India,Haryana,Kaithal,"Rishi Nagar, Kaithal - HSPCB",24-12-2025 08:00:00,29.8006,76.4155,NO2,30,33,32
India,Haryana,Kaithal,"Rishi Nagar, Kaithal - HSPCB",24-12-2025 08:00:00,29.8006,76.4155,NH3,5,6,6
India,Haryana,Kaithal,"Rishi Nagar, Kaithal - HSPCB",24-12-2025 08:00:00,29.8006,76.4155,SO2,28,35,31
India,Haryana,Kaithal,"Rishi Nagar, Kaithal - HSPCB",24-12-2025 08:00:00,29.8006,76.4155,OZONE,3,20,4
India,Haryana,Mandikhera,"General Hospital, Mandikhera(Nuh) - HSPCB",24-12-2025 08:00:00,27.9002,76.9938,NO2,20,23,21
India,Haryana,Gurugram,"NISE Gwal Pahari, Gurugram - IMD",24-12-2025 08:00:00,28.422681,77.148944,CO,48,111,60
India,Haryana,Gurugram,"NISE Gwal Pahari, Gurugram - IMD",24-12-2025 08:00:00,28.422681,77.148944,OZONE,2,39,17
India,Haryana,Gurugram,"Sector-51, Gurugram - HSPCB",24-12-2025 08:00:00,28.4227,77.0667,PM10,131,406,233
India,Haryana,Gurugram,"Teri Gram, Gurugram - HSPCB",24-12-2025 08:00:00,28.4275,77.1465,PM10,148,355,233
India,Haryana,Gurugram,"Vikas Sadan, Gurugram - HSPCB",24-12-2025 08:00:00,28.4501238,77.0263051,PM10,88,177,151
India,Haryana,Manesar,"Sector-2 IMT, Manesar - HSPCB",24-12-2025 08:00:00,28.360699,76.936090,SO2,9,23,14
India,Haryana,Narnaul,"Shastri Nagar, Narnaul - HSPCB",24-12-2025 08:00:00,28.060249,76.113115,PM2.5,172,375,309
India,Haryana,Narnaul,"Shastri Nagar, Narnaul - HSPCB",24-12-2025 08:00:00,28.060249,76.113115,OZONE,16,81,17
India,Haryana,Palwal,"Shyam Nagar, Palwal - HSPCB",24-12-2025 08:00:00,28.1485564,77.3320667,NO2,23,24,24
India,Haryana,Palwal,"Shyam Nagar, Palwal - HSPCB",24-12-2025 08:00:00,28.1485564,77.3320667,OZONE,13,16,16
