country,state,city,station,last_update,latitude,longitude,pollutant_id,min_value,max_value,avg_value
India,Andhra_Pradesh,Anantapur,"Gulzarpet, Anantapur - APPCB",28-03-2026 08:00:00,14.675886,77.593027,PM2.5,56,69,63
India,Andhra_Pradesh,Anantapur,"Gulzarpet, Anantapur - APPCB",28-03-2026 08:00:00,14.675886,77.593027,PM10,61,73,68
India,Andhra_Pradesh,Chittoor,"Gangineni Cheruvu, Chittoor - APPCB",28-03-2026 08:00:00,13.204880,79.097889,NO2,29,34,32
India,Andhra_Pradesh,Chittoor,"Gangineni Cheruvu, Chittoor - APPCB",28-03-2026 08:00:00,13.204880,79.097889,NH3,5,6,5
India,Andhra_Pradesh,Tirupati,"Vaikuntapuram, Tirupati - APPCB",28-03-2026 08:00:00,13.615387,79.409230,PM2.5,51,68,62
India,Andhra_Pradesh,Tirupati,"Vaikuntapuram, Tirupati - APPCB",28-03-2026 08:00:00,13.615387,79.409230,NO2,27,33,32
India,Andhra_Pradesh,Tirupati,"Vaikuntapuram, Tirupati - APPCB",28-03-2026 08:00:00,13.615387,79.409230,OZONE,22,32,22
India,Andhra_Pradesh,Vijayawada,"HB Colony, Vijayawada - APPCB",28-03-2026 08:00:00,16.536107,80.594233,PM2.5,49,70,55
India,Andhra_Pradesh,Vijayawada,"Kanuru, Vijayawada - APPCB",28-03-2026 08:00:00,16.486692,80.699436,NH3,4,6,6
India,Andhra_Pradesh,Vijayawada,"Kanuru, Vijayawada - APPCB",28-03-2026 08:00:00,16.486692,80.699436,CO,24,36,26
India,Andhra_Pradesh,Vijayawada,"Rajiv Gandhi Park, Vijayawada - APPCB",28-03-2026 08:00:00,16.509717,80.612222,CO,33,38,36
India,Andhra_Pradesh,Kadapa,"Yerramukkapalli, Kadapa - APPCB",28-03-2026 08:00:00,14.465052,78.824187,CO,9,22,18
India,Andhra_Pradesh,Machilipatnam,"Srinivas Nagar Colony, Machilipatnam - APPCB",28-03-2026 08:00:00,16.186555,81.13219,NH3,3,8,4
India,Andhra_Pradesh,Rajamahendravaram,"Anand Kala Kshetram, Rajamahendravaram - APPCB",28-03-2026 08:00:00,16.9872867,81.7363176,CO,22,35,28
India,Andhra_Pradesh,Machilipatnam,"Srinivas Nagar Colony, Machilipatnam - APPCB",28-03-2026 08:00:00,16.186555,81.13219,CO,2,47,10
India,Andhra_Pradesh,Visakhapatnam,"GVM Corporation, Visakhapatnam - APPCB",28-03-2026 08:00:00,17.72,83.3,NO2,18,85,48
India,Andhra_Pradesh,Amaravati,"Secretariat, Amaravati - APPCB",28-03-2026 08:00:00,16.5150833,80.5181667,SO2,6,10,8
India,Andhra_Pradesh,Eluru,"District Court, Eluru - APPCB",28-03-2026 08:00:00,16.711754,81.092095,OZONE,4,37,6
India,Andhra_Pradesh,Amaravati,"Secretariat, Amaravati - APPCB",28-03-2026 08:00:00,16.5150833,80.5181667,NH3,2,2,2
India,Bihar,Muzaffarpur,"MIT-Daudpur Kothi, Muzaffarpur - BSPCB",28-03-2026 08:00:00,26.1403345,85.3650192,NH3,1,1,1
India,Bihar,Muzaffarpur,"MIT-Daudpur Kothi, Muzaffarpur - BSPCB",28-03-2026 08:00:00,26.1403345,85.3650192,OZONE,13,62,15
India,Bihar,Muzaffarpur,"Muzaffarpur Collectorate, Muzaffarpur - BSPCB",28-03-2026 08:00:00,26.1209,85.3647,PM2.5,68,98,80
India,Bihar,Patna,"DRM Office Danapur, Patna - BSPCB",28-03-2026 08:00:00,25.586562,85.043586,SO2,4,7,6
India,Bihar,Patna,"DRM Office Danapur, Patna - BSPCB",28-03-2026 08:00:00,25.586562,85.043586,CO,25,81,38
India,Bihar,Patna,"Govt. High School Shikarpur, Patna - BSPCB",28-03-2026 08:00:00,25.592539,85.227158,SO2,5,8,6
India,Bihar,Patna,"IGSC Planetarium Complex, Patna - BSPCB",28-03-2026 08:00:00,25.610369,85.132568,NO2,1,2,2
India,Bihar,Patna,"IGSC Planetarium Complex, Patna - BSPCB",28-03-2026 08:00:00,25.610369,85.132568,OZONE,48,49,48
India,Bihar,Patna,"Muradpur, Patna - BSPCB",28-03-2026 08:00:00,25.619651,85.147382,PM2.5,37,288,142
India,Arunachal_Pradesh,Naharlagun,"Naharlagun, Naharlagun - APSPCB",28-03-2026 08:00:00,27.103358,93.679645,PM2.5,26,129,73
India,Arunachal_Pradesh,Naharlagun,"Naharlagun, Naharlagun - APSPCB",28-03-2026 08:00:00,27.103358,93.679645,CO,10,25,15
India,Assam,Guwahati,"IITG, Guwahati - PCBA",28-03-2026 08:00:00,26.2028636,91.70046436,NH3,5,5,5
India,Assam,Guwahati,"IITG, Guwahati - PCBA",28-03-2026 08:00:00,26.2028636,91.70046436,OZONE,5,28,9
India,Assam,Guwahati,"LGBI Airport, Guwahati - PCBA",28-03-2026 08:00:00,26.10887,91.589544,PM10,19,47,40
India,Assam,Guwahati,"LGBI Airport, Guwahati - PCBA",28-03-2026 08:00:00,26.10887,91.589544,SO2,4,21,12
India,Assam,Guwahati,"Pan Bazaar, Guwahati - PCBA",28-03-2026 08:00:00,26.187500,91.744194,OZONE,10,22,11
India,Assam,Guwahati,"Railway Colony, Guwahati - PCBA",28-03-2026 08:00:00,26.181742,91.78063,PM2.5,29,251,74
India,Assam,Nalbari,"Bata Chowk, Nalbari - PCBA",28-03-2026 08:00:00,26.446912,91.439057,PM2.5,30,52,44
India,Assam,Nalbari,"Bata Chowk, Nalbari - PCBA",28-03-2026 08:00:00,26.446912,91.439057,NO2,14,15,14
India,Assam,Nalbari,"Bata Chowk, Nalbari - PCBA",28-03-2026 08:00:00,26.446912,91.439057,OZONE,5,17,16
India,Assam,Silchar,"Tarapur, Silchar - PCBA",28-03-2026 08:00:00,24.82827,92.79525,PM2.5,32,76,53
India,Assam,Silchar,"Tarapur, Silchar - PCBA",28-03-2026 08:00:00,24.82827,92.79525,SO2,5,7,6
India,Assam,Sivasagar,"Girls College, Sivasagar - PCBA",28-03-2026 08:00:00,26.987634,94.636574,PM2.5,24,57,35
India,Assam,Sivasagar,"Girls College, Sivasagar - PCBA",28-03-2026 08:00:00,26.987634,94.636574,NO2,17,48,34
India,Bihar,Begusarai,"Lohiyanagar, Begusarai - BSPCB",28-03-2026 08:00:00,25.42742023,86.13886079,PM2.5,35,153,67
India,Bihar,Begusarai,"Lohiyanagar, Begusarai - BSPCB",28-03-2026 08:00:00,25.42742023,86.13886079,SO2,18,27,24
India,Bihar,Bettiah,"Kamalnath Nagar, Bettiah - BSPCB",28-03-2026 08:00:00,26.80365,84.51954,PM2.5,12,33,23
India,Bihar,Bettiah,"Kamalnath Nagar, Bettiah - BSPCB",28-03-2026 08:00:00,26.80365,84.51954,SO2,25,41,36
India,Bihar,Bhagalpur,"Mayaganj, Bhagalpur - BSPCB",28-03-2026 08:00:00,25.265194,87.012947,PM2.5,22,55,30
India,Bihar,Bhagalpur,"Mayaganj, Bhagalpur - BSPCB",28-03-2026 08:00:00,25.265194,87.012947,PM10,44,50,47
India,Bihar,Araria,"Kharahiya Basti, Araria - BSPCB",28-03-2026 08:00:00,26.146529,87.454184,NO2,1,6,2
India,Bihar,Araria,"Kharahiya Basti, Araria - BSPCB",28-03-2026 08:00:00,26.146529,87.454184,CO,26,91,31
India,Bihar,Arrah,"New DM Office, Arrah - BSPCB",28-03-2026 08:00:00,25.5626095,84.663264,PM2.5,NA,NA,NA
India,Bihar,Arrah,"New DM Office, Arrah - BSPCB",28-03-2026 08:00:00,25.5626095,84.663264,CO,38,60,49
India,Bihar,Bhagalpur,"Mayaganj, Bhagalpur - BSPCB",28-03-2026 08:00:00,25.265194,87.012947,NH3,6,8,7
India,Bihar,Chhapra,"Darshan Nagar, Chhapra - BSPCB",28-03-2026 08:00:00,25.7808257,84.7446768,PM2.5,NA,NA,NA
India,Bihar,Motihari,"Gandak Colony, Motihari - BSPCB",28-03-2026 08:00:00,26.63086,84.90051,CO,15,43,18
India,Bihar,Muzaffarpur,"MIT-Daudpur Kothi, Muzaffarpur - BSPCB",28-03-2026 08:00:00,26.1403345,85.3650192,PM2.5,65,87,73
India,Bihar,Gaya,"Collectorate, Gaya - BSPCB",28-03-2026 08:00:00,24.7955,84.9994,NO2,NA,NA,NA
India,Bihar,Gaya,"Kareemganj, Gaya - BSPCB",28-03-2026 08:00:00,24.792403,84.992416,PM2.5,17,110,54
India,Bihar,Katihar,"Mirchaibari, Katihar - BSPCB",28-03-2026 08:00:00,25.560083,87.553265,SO2,9,22,16
India,Bihar,Samastipur,"DM Office_Kasipur, Samastipur - BSPCB",28-03-2026 08:00:00,25.859655,85.77944,PM10,16,199,87
India,Bihar,Samastipur,"DM Office_Kasipur, Samastipur - BSPCB",28-03-2026 08:00:00,25.859655,85.77944,NH3,1,1,1
India,Bihar,Sasaram,"Dada Peer, Sasaram - BSPCB",28-03-2026 08:00:00,24.952822,84.002396,SO2,3,6,5
India,Bihar,Siwan,"Chitragupta Nagar, Siwan - BSPCB",28-03-2026 08:00:00,26.2271665,84.3570427,PM2.5,NA,NA,NA
India,Chhattisgarh,Korba,"Urja Nagar, Korba - CECB",28-03-2026 08:00:00,22.348441,82.549611,PM2.5,44,322,97
India,Chhattisgarh,Korba,"Urja Nagar, Korba - CECB",28-03-2026 08:00:00,22.348441,82.549611,CO,28,58,45
India,Chhattisgarh,Korba,"Urja Nagar, Korba - CECB",28-03-2026 08:00:00,22.348441,82.549611,OZONE,2,9,2
India,Chhattisgarh,Kunjemura,"OP Jindal School, Kunjemura - CECB",28-03-2026 08:00:00,22.126650,83.483212,PM2.5,38,68,50
India,Chhattisgarh,Chhal,"Nawapara SECL Colony, Chhal - CECB",28-03-2026 08:00:00,22.118125,83.140608,NH3,4,4,4
India,Chhattisgarh,Chhal,"Nawapara SECL Colony, Chhal - CECB",28-03-2026 08:00:00,22.118125,83.140608,SO2,15,92,41
India,Chhattisgarh,Chhal,"Nawapara SECL Colony, Chhal - CECB",28-03-2026 08:00:00,22.118125,83.140608,CO,25,53,37
India,Chhattisgarh,Korba,"Rampur, Korba - CECB",28-03-2026 08:00:00,22.368195,82.746431,NO2,NA,NA,NA
India,Bihar,Patna,"Rajbansi Nagar, Patna - BSPCB",28-03-2026 08:00:00,25.599486,85.113666,CO,8,105,24
India,Bihar,Patna,"Samanpura, Patna - BSPCB",28-03-2026 08:00:00,25.596727,85.085624,SO2,4,6,5
India,Bihar,Rajgir,"Dangi Tola, Rajgir - BSPCB",28-03-2026 08:00:00,25.03280,85.41948,CO,36,48,43
India,Chandigarh,Chandigarh,"Sector 22, Chandigarh - CPCC",28-03-2026 08:00:00,30.735567,76.775714,NO2,NA,NA,NA
India,Chandigarh,Chandigarh,"Sector-25, Chandigarh - CPCC",28-03-2026 08:00:00,30.751462,76.762879,PM10,31,56,47
India,Chandigarh,Chandigarh,"Sector-25, Chandigarh - CPCC",28-03-2026 08:00:00,30.751462,76.762879,CO,6,28,17
India,Chhattisgarh,Bilaspur,"Mangala, Bilaspur - NTPC",28-03-2026 08:00:00,22.08815,82.13737,NO2,17,109,37
India,Chhattisgarh,Bilaspur,"Mangala, Bilaspur - NTPC",28-03-2026 08:00:00,22.08815,82.13737,CO,19,102,31
India,Chhattisgarh,Kunjemura,"OP Jindal School, Kunjemura - CECB",28-03-2026 08:00:00,22.126650,83.483212,SO2,13,95,39
India,Chhattisgarh,Bhilai,"Civic Center, Bhilai - Bhilai Steel Plant",28-03-2026 08:00:00,21.185571,81.343175,NH3,3,3,3
India,Bihar,Patna,"Muradpur, Patna - BSPCB",28-03-2026 08:00:00,25.619651,85.147382,SO2,8,9,9
India,Delhi,Delhi,"IHBAS, Dilshad Garden, Delhi - CPCB",28-03-2026 08:00:00,28.6811736,77.3025234,PM2.5,36,135,64
India,Delhi,Delhi,"IHBAS, Dilshad Garden, Delhi - CPCB",28-03-2026 08:00:00,28.6811736,77.3025234,PM10,83,130,109
India,Delhi,Delhi,"IHBAS, Dilshad Garden, Delhi - CPCB",28-03-2026 08:00:00,28.6811736,77.3025234,NO2,32,92,68
India,Delhi,Delhi,"IHBAS, Dilshad Garden, Delhi - CPCB",28-03-2026 08:00:00,28.6811736,77.3025234,NH3,3,13,9
India,Delhi,Delhi,"IIT Delhi, Delhi - IITM",28-03-2026 08:00:00,28.542460,77.191651,PM10,84,195,126
India,Delhi,Delhi,"ITO, Delhi - CPCB",28-03-2026 08:00:00,28.628624,77.241060,PM2.5,39,367,113
India,Delhi,Delhi,"ITO, Delhi - CPCB",28-03-2026 08:00:00,28.628624,77.241060,PM10,62,245,120
India,Delhi,Delhi,"JNU, Delhi - DPCC",28-03-2026 08:00:00,28.540721 ,77.168544 ,CO,107,119,118
India,Delhi,Delhi,"JNU, Delhi - DPCC",28-03-2026 08:00:00,28.540721 ,77.168544 ,OZONE,1,34,1
India,Delhi,Delhi,"Jahangirpuri, Delhi - DPCC",28-03-2026 08:00:00,28.732820,77.170633,SO2,48,72,57
India,Delhi,Delhi,"Jahangirpuri, Delhi - DPCC",28-03-2026 08:00:00,28.732820,77.170633,CO,29,88,55
India,Delhi,Delhi,"Commonwealth Sports Complex, Delhi - DPCC",28-03-2026 08:00:00,28.615828 ,77.271992 ,NO2,25,50,41
India,Delhi,Delhi,"Commonwealth Sports Complex, Delhi - DPCC",28-03-2026 08:00:00,28.615828 ,77.271992 ,SO2,51,54,52
India,Delhi,Delhi,"DTU, Delhi - CPCB",28-03-2026 08:00:00,28.7500499,77.1112615,OZONE,20,29,21
India,Delhi,Delhi,"Dr. Karni Singh Shooting Range, Delhi - DPCC",28-03-2026 08:00:00,28.498571,77.264840,NH3,5,7,6
India,Delhi,Delhi,"Dwarka-Sector 8, Delhi - DPCC ",28-03-2026 08:00:00,28.5710274,77.0719006,CO,8,90,60
India,Delhi,Delhi,"IGI Airport (T3), Delhi - IMD",28-03-2026 08:00:00,28.5627763,77.1180053,PM10,74,255,131
India,Delhi,Delhi,"IGI Airport (T3), Delhi - IMD",28-03-2026 08:00:00,28.5627763,77.1180053,NO2,19,32,25
India,Delhi,Delhi,"IGNOU_Maidan Garhi, Delhi - DPCC",28-03-2026 08:00:00,28.493624 ,77.201159 ,PM10,88,188,134
India,Delhi,Delhi,"Jawaharlal Nehru Stadium, Delhi - DPCC",28-03-2026 08:00:00,28.580280,77.233829,SO2,9,50,18
India,Delhi,Delhi,"Jawaharlal Nehru Stadium, Delhi - DPCC",28-03-2026 08:00:00,28.580280,77.233829,OZONE,2,147,2
India,Delhi,Delhi,"Lodhi Road, Delhi - IMD",28-03-2026 08:00:00,28.5918245,77.2273074,PM10,68,208,115
India,Delhi,Delhi,"Lodhi Road, Delhi - IMD",28-03-2026 08:00:00,28.5918245,77.2273074,OZONE,19,98,21
India,Delhi,Delhi,"Major Dhyan Chand National Stadium, Delhi - DPCC",28-03-2026 08:00:00,28.611281,77.237738,PM10,70,292,127
India,Delhi,Delhi,"Major Dhyan Chand National Stadium, Delhi - DPCC",28-03-2026 08:00:00,28.611281,77.237738,NO2,34,121,74
India,Delhi,Delhi,"Mandir Marg, Delhi - DPCC",28-03-2026 08:00:00,28.636429,77.201067,NH3,7,9,8
India,Delhi,Delhi,"Mundka, Delhi - DPCC",28-03-2026 08:00:00,28.684678,77.076574,NO2,62,103,79
India,Delhi,Delhi,"Ashok Vihar, Delhi - DPCC",28-03-2026 08:00:00,28.695381,77.181665,PM10,80,201,127
India,Delhi,Delhi,"Ashok Vihar, Delhi - DPCC",28-03-2026 08:00:00,28.695381,77.181665,NO2,18,75,48
India,Delhi,Delhi,"Bawana, Delhi - DPCC",28-03-2026 08:00:00,28.776200,77.051074,CO,1,106,14
India,Delhi,Delhi,"Burari Crossing, Delhi - IMD",28-03-2026 08:00:00,28.7256504,77.2011573,OZONE,27,79,28
India,Delhi,Delhi,"Cantonment Area, Delhi - DPCC ",28-03-2026 08:00:00,28.594169 ,77.125100 ,CO,118,136,135
India,Chhattisgarh,Raipur,"Krishak Nagar, Raipur - CECB",28-03-2026 08:00:00,21.237755,81.705301,SO2,4,10,5
India,Chhattisgarh,Raipur,"Siltara Phase-II, Raipur - CECB",28-03-2026 08:00:00,21.371751,81.664929,SO2,6,78,31
India,Chhattisgarh,Tumidih,"OP Jindal Industrial Park, Tumidih - CECB",28-03-2026 08:00:00,22.06631475,83.33820077,PM2.5,51,94,72
India,Chhattisgarh,Tumidih,"OP Jindal Industrial Park, Tumidih - CECB",28-03-2026 08:00:00,22.06631475,83.33820077,SO2,6,31,12
India,Chhattisgarh,Tumidih,"OP Jindal Industrial Park, Tumidih - CECB",28-03-2026 08:00:00,22.06631475,83.33820077,OZONE,18,18,18
India,Delhi,Delhi,"Nehru Nagar, Delhi - DPCC",28-03-2026 08:00:00,28.567890,77.250515,SO2,17,79,27
India,Delhi,Delhi,"Nehru Nagar, Delhi - DPCC",28-03-2026 08:00:00,28.567890,77.250515,CO,92,126,108
India,Delhi,Delhi,"New Moti Bagh, Delhi - MHUA",28-03-2026 08:00:00,28.57834,77.18400,PM2.5,62,356,155
India,Delhi,Delhi,"North Campus, DU, Delhi - IMD",28-03-2026 08:00:00,28.6573814,77.1585447,NO2,6,64,34
India,Delhi,Delhi,"Najafgarh, Delhi - DPCC",28-03-2026 08:00:00,28.570173,76.933762,PM10,42,171,101
India,Delhi,Delhi,"Najafgarh, Delhi - DPCC",28-03-2026 08:00:00,28.570173,76.933762,CO,4,112,45
India,Chhattisgarh,Raipur,"Bhatagaon New ISBT, Raipur - CECB",28-03-2026 08:00:00,21.219665,81.630094,PM2.5,15,48,25
India,Delhi,Delhi,"NSIT Dwarka, Delhi - CPCB",28-03-2026 08:00:00,28.60909,77.0325413,CO,28,96,34
India,Gujarat,Gandhinagar,"Sector-10, Gandhinagar - GPCB",28-03-2026 08:00:00,23.221714,72.654328,OZONE,7,52,35
India,Gujarat,Mehsana,"Sadanand Nagar, Mehsana - Nexteng Enviro",28-03-2026 08:00:00,23.593150,72.372792,NH3,2,3,2
India,Gujarat,Mehsana,"Sadanand Nagar, Mehsana - Nexteng Enviro",28-03-2026 08:00:00,23.593150,72.372792,OZONE,8,15,9
India,Gujarat,Rajkot,"Mavdi, Rajkot - Nexteng Enviro ",28-03-2026 08:00:00,22.248853,70.776774,NO2,NA,NA,NA
India,Gujarat,Surat,"Katargam, Surat - Nexteng Enviro",28-03-2026 08:00:00,21.217779 ,72.834787 ,PM2.5,7,225,74
India,Gujarat,Ahmedabad,"Gyaspur, Ahmedabad - IITM",28-03-2026 08:00:00,22.977134,72.553024,PM10,NA,NA,NA
India,Gujarat,Ahmedabad,"Gyaspur, Ahmedabad - IITM",28-03-2026 08:00:00,22.977134,72.553024,NH3,NA,NA,NA
India,Gujarat,Ahmedabad,"Maninagar, Ahmedabad - GPCB",28-03-2026 08:00:00,23.002657,72.591912,OZONE,54,113,62
India,Gujarat,Ahmedabad,"Raikhad, Ahmedabad - IITM",28-03-2026 08:00:00,23.020509,72.579261,SO2,3,12,6
India,Gujarat,Ahmedabad,"Raikhad, Ahmedabad - IITM",28-03-2026 08:00:00,23.020509,72.579261,CO,1,38,9
India,Gujarat,Ahmedabad,"SAC ISRO Satellite, Ahmedabad - IITM",28-03-2026 08:00:00,23.023389,72.515201,PM10,45,106,70
India,Delhi,Delhi,"Shadipur, Delhi - CPCB",28-03-2026 08:00:00,28.6514781,77.1473105,NO2,37,69,54
India,Delhi,Delhi,"Shadipur, Delhi - CPCB",28-03-2026 08:00:00,28.6514781,77.1473105,SO2,14,17,15
India,Delhi,Delhi,"Sirifort, Delhi - CPCB",28-03-2026 08:00:00,28.5504249,77.2159377,NH3,6,10,8
India,Delhi,Delhi,"Sirifort, Delhi - CPCB",28-03-2026 08:00:00,28.5504249,77.2159377,CO,9,44,40
India,Delhi,Delhi,"Sonia Vihar, Delhi - DPCC",28-03-2026 08:00:00,28.710508,77.249485,CO,24,102,76
India,Delhi,Delhi,"Okhla Phase-2, Delhi - DPCC",28-03-2026 08:00:00,28.530785,77.271255,CO,34,104,55
India,Delhi,Delhi,"Patparganj, Delhi - DPCC",28-03-2026 08:00:00,28.623763,77.287209,NH3,7,11,8
India,Delhi,Delhi,"Punjabi Bagh, Delhi - DPCC",28-03-2026 08:00:00,28.674045,77.131023,SO2,24,64,34
India,Delhi,Delhi,"Pusa, Delhi - DPCC",28-03-2026 08:00:00,28.639652,77.146275,PM2.5,33,237,97
India,Delhi,Delhi,"Talkatora Garden, Delhi - DPCC",28-03-2026 08:00:00,28.621810,77.1944633,PM10,46,239,114
India,Delhi,Delhi,"Talkatora Garden, Delhi - DPCC",28-03-2026 08:00:00,28.621810,77.1944633,SO2,54,98,77
India,Delhi,Delhi,"Vivek Vihar, Delhi - DPCC",28-03-2026 08:00:00,28.672342,77.315260,NO2,18,53,36
India,Delhi,Delhi,"R K Puram, Delhi - DPCC",28-03-2026 08:00:00,28.563262,77.186937,OZONE,NA,NA,NA
India,Delhi,Delhi,"Rohini, Delhi - DPCC",28-03-2026 08:00:00,28.732528,77.119920,PM10,48,292,140
India,Gujarat,Ankleshwar,"GIDC, Ankleshwar - GPCB",28-03-2026 08:00:00,21.613267,73.010555,PM10,79,129,102
India,Gujarat,Ankleshwar,"GIDC, Ankleshwar - GPCB",28-03-2026 08:00:00,21.613267,73.010555,NO2,27,38,36
India,Delhi,Delhi,"Pusa, Delhi - DPCC",28-03-2026 08:00:00,28.639652,77.146275,NO2,41,108,66
India,Delhi,Delhi,"Pusa, Delhi - DPCC",28-03-2026 08:00:00,28.639652,77.146275,OZONE,2,187,3
India,Delhi,Delhi,"R K Puram, Delhi - DPCC",28-03-2026 08:00:00,28.563262,77.186937,NH3,NA,NA,NA
India,Gujarat,Vatva,"Phase-4 GIDC, Vatva - GPCB",28-03-2026 08:00:00,22.969611,72.643500,NO2,14,113,77
India,Haryana,Ambala,"Patti Mehar, Ambala - HSPCB",28-03-2026 08:00:00,30.379589,76.778328,PM10,41,82,59
India,Haryana,Ambala,"Patti Mehar, Ambala - HSPCB",28-03-2026 08:00:00,30.379589,76.778328,NH3,7,8,8
India,Haryana,Ballabgarh,"Nathu Colony, Ballabgarh - HSPCB",28-03-2026 08:00:00,28.3419248,77.319699,PM2.5,186,213,199
India,Haryana,Ballabgarh,"Nathu Colony, Ballabgarh - HSPCB",28-03-2026 08:00:00,28.3419248,77.319699,PM10,110,418,251
India,Haryana,Ballabgarh,"Nathu Colony, Ballabgarh - HSPCB",28-03-2026 08:00:00,28.3419248,77.319699,NH3,3,3,3
India,Haryana,Bhiwani,"H.B. Colony, Bhiwani - HSPCB",28-03-2026 08:00:00,28.806223,76.141105,PM10,38,96,53
India,Haryana,Faridabad,"Sector 11, Faridabad - HSPCB",28-03-2026 08:00:00,28.376058,77.315741,OZONE,14,16,15
India,Haryana,Faridabad,"Sector 30, Faridabad - HSPCB",28-03-2026 08:00:00,28.4417,77.3217,PM10,117,156,125
India,Haryana,Gurugram,"NISE Gwal Pahari, Gurugram - IMD",28-03-2026 08:00:00,28.422681,77.148944,CO,26,46,37
India,Haryana,Gurugram,"NISE Gwal Pahari, Gurugram - IMD",28-03-2026 08:00:00,28.422681,77.148944,OZONE,10,88,11
India,Haryana,Gurugram,"Sector-51, Gurugram - HSPCB",28-03-2026 08:00:00,28.4227,77.0667,PM10,52,238,144
India,Haryana,Jind,"Police Lines, Jind - HSPCB",28-03-2026 08:00:00,29.307814,76.337619,OZONE,6,13,9
India,Haryana,Kaithal,"Rishi Nagar, Kaithal - HSPCB",28-03-2026 08:00:00,29.8006,76.4155,PM2.5,26,75,58
India,Haryana,Kaithal,"Rishi Nagar, Kaithal - HSPCB",28-03-2026 08:00:00,29.8006,76.4155,PM10,31,92,71
India,Haryana,Kaithal,"Rishi Nagar, Kaithal - HSPCB",28-03-2026 08:00:00,29.8006,76.4155,NH3,4,6,5
India,Haryana,Kaithal,"Rishi Nagar, Kaithal - HSPCB",28-03-2026 08:00:00,29.8006,76.4155,CO,8,38,19
India,Haryana,Kurukshetra,"Sector-7, Kurukshetra - HSPCB",28-03-2026 08:00:00,29.966942,76.875879,CO,2,21,10
India,Haryana,Manesar,"Sector-2 IMT, Manesar - HSPCB",28-03-2026 08:00:00,28.360699,76.936090,NO2,33,41,37
India,Haryana,Narnaul,"Shastri Nagar, Narnaul - HSPCB",28-03-2026 08:00:00,28.060249,76.113115,PM2.5,57,136,87
India,Haryana,Narnaul,"Shastri Nagar, Narnaul - HSPCB",28-03-2026 08:00:00,28.060249,76.113115,SO2,8,8,8
India,Haryana,Faridabad,"New Industrial Town, Faridabad - HSPCB",28-03-2026 08:00:00,28.39072,77.30059,PM2.5,127,143,133
India,Haryana,Faridabad,"New Industrial Town, Faridabad - HSPCB",28-03-2026 08:00:00,28.39072,77.30059,PM10,111,117,113
India,Haryana,Faridabad,"New Industrial Town, Faridabad - HSPCB",28-03-2026 08:00:00,28.39072,77.30059,NO2,24,27,25
India,Haryana,Faridabad,"New Industrial Town, Faridabad - HSPCB",28-03-2026 08:00:00,28.39072,77.30059,NH3,11,12,11
India,Haryana,Gurugram,"Vikas Sadan, Gurugram - HSPCB",28-03-2026 08:00:00,28.4501238,77.0263051,OZONE,5,31,11
India,Haryana,Jind,"Police Lines, Jind - HSPCB",28-03-2026 08:00:00,29.307814,76.337619,NO2,31,41,35
India,Haryana,Gurugram,"Sector-51, Gurugram - HSPCB",28-03-2026 08:00:00,28.4227,77.0667,NO2,4,10,6
India,Haryana,Gurugram,"Teri Gram, Gurugram - HSPCB",28-03-2026 08:00:00,28.4275,77.1465,NH3,11,20,15
India,Haryana,Dharuhera,"Municipal Corporation Office, Dharuhera -  HSPCB",28-03-2026 08:00:00,28.206800,76.799700,SO2,NA,NA,NA
India,Haryana,Panchgaon,"Amity University, Panchgaon - IITM",28-03-2026 08:00:00,28.3153,76.9143,NH3,2,6,3
India,Haryana,Sirsa,"F-Block, Sirsa - HSPCB",28-03-2026 08:00:00,29.536400,75.015800,PM10,72,146,104
India,Haryana,Sirsa,"F-Block, Sirsa - HSPCB",28-03-2026 08:00:00,29.536400,75.015800,OZONE,16,29,22
India,Haryana,Sonipat,"Murthal, Sonipat - HSPCB",28-03-2026 08:00:00,29.027200,77.062100,PM2.5,61,301,157
India,Haryana,Sonipat,"Murthal, Sonipat - HSPCB",28-03-2026 08:00:00,29.027200,77.062100,SO2,4,17,8
India,Haryana,Yamuna Nagar,"Gobind Pura, Yamuna Nagar - HSPCB",28-03-2026 08:00:00,30.1480566,77.2893471,OZONE,8,33,11
India,Himachal Pradesh,Baddi,"HIMUDA Complex Phase-1, Baddi - HPPCB",28-03-2026 08:00:00,30.943887,76.801991,NH3,3,6,5
India,Karnataka,Bengaluru,"Hombegowda Nagar, Bengaluru - KSPCB",28-03-2026 08:00:00,12.938539,77.590100,PM2.5,51,142,85
India,Karnataka,Bengaluru,"Hombegowda Nagar, Bengaluru - KSPCB",28-03-2026 08:00:00,12.938539,77.590100,NO2,15,81,35
India,Karnataka,Bengaluru,"Hombegowda Nagar, Bengaluru - KSPCB",28-03-2026 08:00:00,12.938539,77.590100,SO2,4,14,7
India,Karnataka,Bengaluru,"Hombegowda Nagar, Bengaluru - KSPCB",28-03-2026 08:00:00,12.938539,77.590100,CO,3,35,14
India,Karnataka,Bengaluru,"Hombegowda Nagar, Bengaluru - KSPCB",28-03-2026 08:00:00,12.938539,77.590100,OZONE,41,109,56
India,Karnataka,Bengaluru,"Jayanagar 5th Block, Bengaluru - KSPCB",28-03-2026 08:00:00,12.920984,77.584908,PM2.5,57,132,96
India,Karnataka,Bengaluru,"Jayanagar 5th Block, Bengaluru - KSPCB",28-03-2026 08:00:00,12.920984,77.584908,NH3,2,3,3
India,Karnataka,Bengaluru,"BTM Layout, Bengaluru - CPCB",28-03-2026 08:00:00,12.9135218,77.5950804,NH3,4,6,5
India,Karnataka,Bengaluru,"BTM Layout, Bengaluru - CPCB",28-03-2026 08:00:00,12.9135218,77.5950804,SO2,22,22,22
India,Karnataka,Bengaluru,"BWSSB Kadabesanahalli, Bengaluru - CPCB",28-03-2026 08:00:00,12.9352049,77.6814488,OZONE,NA,NA,NA
India,Karnataka,Bengaluru,"Bapuji Nagar, Bengaluru - KSPCB",28-03-2026 08:00:00,12.951913,77.539784,NO2,26,35,30
India,Karnataka,Bengaluru,"Sanegurava Halli, Bengaluru - KSPCB",28-03-2026 08:00:00,12.990328,77.5431385,NO2,17,18,18
India,Haryana,Panchkula,"Sector-6, Panchkula - HSPCB ",28-03-2026 08:00:00,30.7057778,76.8531805555555,NO2,22,25,24
India,Haryana,Panchkula,"Sector-6, Panchkula - HSPCB ",28-03-2026 08:00:00,30.7057778,76.8531805555555,CO,7,36,10
India,Jharkhand,Jorapokhar,"Tata Stadium, Jorapokhar - JSPCB",28-03-2026 08:00:00,23.707909,86.414670,SO2,NA,NA,NA
India,Karnataka,Bengaluru,"Peenya, Bengaluru - CPCB",28-03-2026 08:00:00,13.0270199,77.494094,PM2.5,18,93,52
India,Haryana,Panipat,"Sector-18, Panipat - HSPCB",28-03-2026 08:00:00,29.432304,76.972765,PM10,70,336,115
India,Kerala,Thrissur,"Corporation Ground, Thrissur - Kerala PCB",28-03-2026 08:00:00,10.532400,76.215900,NO2,NA,NA,NA
India,Kerala,Thrissur,"Corporation Ground, Thrissur - Kerala PCB",28-03-2026 08:00:00,10.532400,76.215900,OZONE,31,31,31
India,Madhya Pradesh,Bhopal,"Idgah Hills, Bhopal - MPPCB",28-03-2026 08:00:00,23.264759,77.381568,OZONE,20,55,27
India,Madhya Pradesh,Bhopal,"Paryavaran Parisar, Bhopal - MPPCB",28-03-2026 08:00:00,23.210494,77.425409,OZONE,46,60,47
India,Madhya Pradesh,Bhopal,"T T Nagar, Bhopal - MPPCB",28-03-2026 08:00:00,23.233584,77.400574,NH3,4,6,6
India,Madhya Pradesh,Bhopal,"T T Nagar, Bhopal - MPPCB",28-03-2026 08:00:00,23.233584,77.400574,CO,12,50,36
India,Madhya Pradesh,Dewas,"Bhopal Chauraha, Dewas - MPPCB",28-03-2026 08:00:00,22.9682591,76.064118,PM10,61,125,95
India,Madhya Pradesh,Dewas,"Bhopal Chauraha, Dewas - MPPCB",28-03-2026 08:00:00,22.9682591,76.064118,NO2,53,83,70
India,Madhya Pradesh,Dewas,"Bhopal Chauraha, Dewas - MPPCB",28-03-2026 08:00:00,22.9682591,76.064118,NH3,6,11,10
India,Karnataka,Yadgir,"Collector Office, Yadgir - KSPCB",28-03-2026 08:00:00,16.7602,77.1428,PM10,NA,NA,NA
India,Kerala,Eloor,"Udyogamandal, Eloor - Kerala PCB",28-03-2026 08:00:00,10.073232,76.302765,PM10,67,79,73
India,Kerala,Kannur,"Thavakkara, Kannur - Kerala PCB",28-03-2026 08:00:00,11.875000,75.373200,NO2,16,16,16
India,Kerala,Kannur,"Thavakkara, Kannur - Kerala PCB",28-03-2026 08:00:00,11.875000,75.373200,SO2,1,13,2
India,Kerala,Kannur,"Thavakkara, Kannur - Kerala PCB",28-03-2026 08:00:00,11.875000,75.373200,CO,18,22,21
India,Kerala,Kannur,"Thavakkara, Kannur - Kerala PCB",28-03-2026 08:00:00,11.875000,75.373200,OZONE,27,32,27
India,Kerala,Kollam,"Polayathode, Kollam - Kerala PCB",28-03-2026 08:00:00,8.8787,76.6073,PM10,NA,NA,NA
India,Kerala,Thiruvananthapuram,"Kariavattom, Thiruvananthapuram - Kerala PCB",28-03-2026 08:00:00,8.563700,76.886500,NO2,6,7,6
India,Karnataka,Kalaburagi,"Mahatma Basaveswar Colony, Kalaburgi - KSPCB",28-03-2026 08:00:00,17.336318,76.847397,PM10,28,57,48
India,Karnataka,Kalaburagi,"Mahatma Basaveswar Colony, Kalaburgi - KSPCB",28-03-2026 08:00:00,17.336318,76.847397,SO2,1,6,3
India,Karnataka,Madikeri,"Stuart Hill, Madikeri - KSPCB",28-03-2026 08:00:00,12.415911,75.735050,PM2.5,28,48,35
India,Karnataka,Madikeri,"Stuart Hill, Madikeri - KSPCB",28-03-2026 08:00:00,12.415911,75.735050,SO2,6,7,7
India,Karnataka,Mangalore,"Kadri, Mangalore - KSPCB",28-03-2026 08:00:00,12.889250,74.853000,PM2.5,NA,NA,NA
India,Karnataka,Mangalore,"Kadri, Mangalore - KSPCB",28-03-2026 08:00:00,12.889250,74.853000,NH3,2,2,2
India,Karnataka,Mysuru,"Hebbal 1st Stage, Mysuru - KSPCB",28-03-2026 08:00:00,12.21041,76.37376,PM10,50,131,73
India,Karnataka,Mysuru,"Hebbal 1st Stage, Mysuru - KSPCB",28-03-2026 08:00:00,12.21041,76.37376,SO2,1,7,3
India,Karnataka,Mysuru,"Hebbal 1st Stage, Mysuru - KSPCB",28-03-2026 08:00:00,12.21041,76.37376,CO,13,104,21
India,Madhya Pradesh,Indore,"Maguda Nagar, Indore - IMC",28-03-2026 08:00:00,22.7524,75.8872,CO,27,38,34
India,Madhya Pradesh,Indore,"Regional Park, Indore - IMC",28-03-2026 08:00:00,22.6780,75.8559,CO,10,20,17
India,Madhya Pradesh,Indore,"Residency Area, Indore - IMC",28-03-2026 08:00:00,22.7084,75.8815,OZONE,NA,NA,NA
India,Madhya Pradesh,Jabalpur,"Govindh Bhavan Colony, Jabalpur - JMC",28-03-2026 08:00:00,23.163174,79.973061,PM10,26,80,44
India,Madhya Pradesh,Jabalpur,"Govindh Bhavan Colony, Jabalpur - JMC",28-03-2026 08:00:00,23.163174,79.973061,NO2,12,19,16
India,Madhya Pradesh,Jabalpur,"Govindh Bhavan Colony, Jabalpur - JMC",28-03-2026 08:00:00,23.163174,79.973061,SO2,5,10,8
India,Madhya Pradesh,Gwalior,"City Center, Gwalior - MPPCB",28-03-2026 08:00:00,26.203442,78.193251,SO2,15,30,22
India,Madhya Pradesh,Gwalior,"City Center, Gwalior - MPPCB",28-03-2026 08:00:00,26.203442,78.193251,CO,6,64,44
India,Madhya Pradesh,Gwalior,"Deen Dayal Nagar, Gwalior - MPPCB",28-03-2026 08:00:00,26.259242,78.216432,PM10,65,210,113
India,Madhya Pradesh,Gwalior,"Maharaj Bada, Gwalior - MPPCB",28-03-2026 08:00:00,26.200388,78.147714,PM10,69,145,106
India,Madhya Pradesh,Indore,"Airport Area, Indore - IMC",28-03-2026 08:00:00,22.7289,75.8076,SO2,2,4,3
India,Karnataka,Ramanagara,"Vijay Nagar, Ramanagara - KSPCB",28-03-2026 08:00:00,12.733409,77.298051,NH3,NA,NA,NA
India,Karnataka,Ramanagara,"Vijay Nagar, Ramanagara - KSPCB",28-03-2026 08:00:00,12.733409,77.298051,CO,13,44,33
India,Karnataka,Vijayapura,"Ibrahimpur, Vijayapura - KSPCB",28-03-2026 08:00:00,16.802639,75.722694,NH3,3,4,4
India,Karnataka,Yadgir,"Collector Office, Yadgir - KSPCB",28-03-2026 08:00:00,16.7602,77.1428,PM2.5,28,117,63
India,Karnataka,Bengaluru,"Shivapura_Peenya, Bengaluru - KSPCB",28-03-2026 08:00:00,13.0246342,77.5080115,SO2,3,5,4
India,Karnataka,Bengaluru,"Silk Board, Bengaluru - KSPCB",28-03-2026 08:00:00,12.917348,77.622813,SO2,1,10,5
India,Karnataka,Chamarajanagar,"Urban, Chamarajanagar - KSPCB",28-03-2026 08:00:00,11.55358,76.55521,PM2.5,26,53,32
India,Karnataka,Chamarajanagar,"Urban, Chamarajanagar - KSPCB",28-03-2026 08:00:00,11.55358,76.55521,CO,14,24,21
India,Karnataka,Chikkaballapur,"Chikkaballapur Rural, Chikkaballapur - KSPCB",28-03-2026 08:00:00,13.428828,77.731418,SO2,9,17,13
India,Karnataka,Chikkamagaluru,"Kalyana Nagara, Chikkamagaluru - KSPCB",28-03-2026 08:00:00,13.328028,75.797056,NH3,2,77,6
India,Karnataka,Dharwad,"Kalabhavan, Dharwad - KSPCB",28-03-2026 08:00:00,15.459706,75.008381,NO2,28,29,28
India,Karnataka,Mysuru,"Hebbal 1st Stage, Mysuru - KSPCB",28-03-2026 08:00:00,12.21041,76.37376,OZONE,12,82,16
India,Madhya Pradesh,Pithampur,"Sector-2 Industrial Area, Pithampur - MPPCB",28-03-2026 08:00:00,22.624758,75.675238,PM2.5,16,197,58
India,Madhya Pradesh,Pithampur,"Sector-2 Industrial Area, Pithampur - MPPCB",28-03-2026 08:00:00,22.624758,75.675238,OZONE,38,76,55
India,Madhya Pradesh,Ratlam,"Shasthri Nagar, Ratlam - IPCA Lab",28-03-2026 08:00:00,23.331731,75.045981,NO2,12,19,14
India,Madhya Pradesh,Ratlam,"Shasthri Nagar, Ratlam - IPCA Lab",28-03-2026 08:00:00,23.331731,75.045981,SO2,37,42,39
India,Madhya Pradesh,Sagar,"Civil Lines, Sagar - MPPCB",28-03-2026 08:00:00,23.838586,78.759431,PM10,62,124,73
India,Maharashtra,Aurangabad,"Rachnakar Colony, Aurangabad - MPCB",28-03-2026 08:00:00,19.863756,75.321188,NH3,2,5,3
India,Maharashtra,Aurangabad,"Rachnakar Colony, Aurangabad - MPCB",28-03-2026 08:00:00,19.863756,75.321188,CO,18,48,28
India,Maharashtra,Badlapur,"Katrap, Badlapur - MPCB",28-03-2026 08:00:00,19.16485,73.23409,PM10,77,133,99
India,Maharashtra,Badlapur,"Katrap, Badlapur - MPCB",28-03-2026 08:00:00,19.16485,73.23409,NH3,3,8,5
India,Madhya Pradesh,Katni,"Gole Bazar, Katni - MPPCB",28-03-2026 08:00:00,23.50016,80.23284,PM2.5,25,137,56
India,Madhya Pradesh,Katni,"Gole Bazar, Katni - MPPCB",28-03-2026 08:00:00,23.50016,80.23284,SO2,13,119,41
India,Madhya Pradesh,Katni,"Gole Bazar, Katni - MPPCB",28-03-2026 08:00:00,23.50016,80.23284,CO,20,46,35
India,Madhya Pradesh,Katni,"Gole Bazar, Katni - MPPCB",28-03-2026 08:00:00,23.50016,80.23284,OZONE,15,110,42
India,Madhya Pradesh,Ujjain,"Mahashweta Nagar, Ujjain - MPPCB",28-03-2026 08:00:00,23.1633321,75.800225,NH3,NA,NA,NA
India,Maharashtra,Ahmednagar,"Tarakpur, Ahmednagar - MPCB",28-03-2026 08:00:00,19.10122,74.73339,CO,13,115,33
India,Maharashtra,Ambernath,"Chinchpada, Ambernath - MPCB",28-03-2026 08:00:00,19.2157840,73.1997810,PM10,32,296,76
India,Maharashtra,Ambernath,"Chinchpada, Ambernath - MPCB",28-03-2026 08:00:00,19.2157840,73.1997810,SO2,4,42,19
India,Maharashtra,Amravati,"Shri Shivaji Science College, Amravati - MPCB",28-03-2026 08:00:00,20.939198,77.765701,NO2,3,35,11
India,Maharashtra,Aurangabad,"Rachnakar Colony, Aurangabad - MPCB",28-03-2026 08:00:00,19.863756,75.321188,PM2.5,41,113,66
India,Maharashtra,Belapur,"CBD Belapur, Belapur - MPCB",28-03-2026 08:00:00,19.0243902,73.0406721,PM2.5,10,251,67
India,Maharashtra,Akola,"Ramdaspeth, Akola - MPCB",28-03-2026 08:00:00,20.719516,77.000253,NH3,7,9,8
India,Maharashtra,Kolhapur,"Sinchan Bhavan, Kolhapur - MPCB",28-03-2026 08:00:00,16.7143745,74.2426398,OZONE,NA,NA,NA
India,Maharashtra,Latur,"Sawe Wadi, Latur - MPCB",28-03-2026 08:00:00,18.39963,76.57452,CO,6,97,20
India,Maharashtra,Mahad,"Kamble Tarf Birwadi, Mahad - MPCB",28-03-2026 08:00:00,18.1023399,73.4783687,OZONE,18,73,28
India,Maharashtra,Malegaon,"Mahesh Nagar, Malegaon - MPCB",28-03-2026 08:00:00,20.555712,74.529236,NO2,1,29,11
India,Maharashtra,Malegaon,"Mahesh Nagar, Malegaon - MPCB",28-03-2026 08:00:00,20.555712,74.529236,NH3,NA,NA,NA
India,Maharashtra,Malegaon,"Mahesh Nagar, Malegaon - MPCB",28-03-2026 08:00:00,20.555712,74.529236,OZONE,6,88,27
India,Maharashtra,Mira-Bhayandar,"Bhayandar West, Mira-Bhayandar - MPCB",28-03-2026 08:00:00,19.296481,72.840923,PM2.5,8,68,36
India,Maharashtra,Mira-Bhayandar,"Bhayandar West, Mira-Bhayandar - MPCB",28-03-2026 08:00:00,19.296481,72.840923,CO,40,40,40
India,Maharashtra,Mumbai,"Bandra Kurla Complex, Mumbai - IITM",28-03-2026 08:00:00,19.053536,72.84643,CO,12,100,12
India,Maharashtra,Mumbai,"Kandivali East, Mumbai - MPCB",28-03-2026 08:00:00,19.205800,72.868200,NH3,4,4,4
India,Maharashtra,Mumbai,"Kandivali East, Mumbai - MPCB",28-03-2026 08:00:00,19.205800,72.868200,SO2,17,29,22
India,Maharashtra,Mumbai,"Kandivali West, Mumbai - BMC",28-03-2026 08:00:00,19.215859,72.831718,OZONE,13,38,25
India,Maharashtra,Mumbai,"Kherwadi_Bandra East, Mumbai - MPCB",28-03-2026 08:00:00,19.0632143,72.8456324,PM10,39,141,94
India,Maharashtra,Mumbai,"Kherwadi_Bandra East, Mumbai - MPCB",28-03-2026 08:00:00,19.0632143,72.8456324,SO2,4,5,4
India,Maharashtra,Mumbai,"Kherwadi_Bandra East, Mumbai - MPCB",28-03-2026 08:00:00,19.0632143,72.8456324,OZONE,3,130,18
India,Maharashtra,Mumbai,"Khindipada-Bhandup West, Mumbai - IITM",28-03-2026 08:00:00,19.1653323,72.922099,NO2,13,36,21
India,Maharashtra,Mumbai,"Khindipada-Bhandup West, Mumbai - IITM",28-03-2026 08:00:00,19.1653323,72.922099,CO,4,20,11
India,Maharashtra,Mumbai,"Malad West, Mumbai - IITM",28-03-2026 08:00:00,19.19709,72.82204,PM10,71,147,112
India,Maharashtra,Mumbai,"Malad West, Mumbai - IITM",28-03-2026 08:00:00,19.19709,72.82204,NO2,25,86,48
India,Maharashtra,Hingoli,"Ashta Vinayak Nagar, Hingoli - MPCB",28-03-2026 08:00:00,19.710842,77.151824,SO2,2,12,6
India,Maharashtra,Hingoli,"Ashta Vinayak Nagar, Hingoli - MPCB",28-03-2026 08:00:00,19.710842,77.151824,CO,17,63,34
India,Maharashtra,Hingoli,"Ashta Vinayak Nagar, Hingoli - MPCB",28-03-2026 08:00:00,19.710842,77.151824,OZONE,17,178,55
India,Maharashtra,Jalna,"Old MIDC, Jalna - MPCB",28-03-2026 08:00:00,19.854616,75.905894,PM2.5,40,75,54
India,Maharashtra,Kalyan,"Pimpleshwar Mandir, Kalyan - MPCB",28-03-2026 08:00:00,19.192056,72.9585188,PM10,11,115,88
India,Maharashtra,Kalyan,"Pimpleshwar Mandir, Kalyan - MPCB",28-03-2026 08:00:00,19.192056,72.9585188,SO2,NA,NA,NA
India,Maharashtra,Kolhapur,"Shivaji University, Kolhapur - MPCB",28-03-2026 08:00:00,16.6870449,74.2505872,PM10,24,88,56
India,Maharashtra,Kolhapur,"Sinchan Bhavan, Kolhapur - MPCB",28-03-2026 08:00:00,16.7143745,74.2426398,PM10,45,104,71
India,Maharashtra,Mumbai,"Malad West, Mumbai - IITM",28-03-2026 08:00:00,19.19709,72.82204,OZONE,4,77,22
India,Maharashtra,Mumbai,"Mazgaon, Mumbai - IITM",28-03-2026 08:00:00,18.96702,72.84214,SO2,7,17,12
India,Maharashtra,Mumbai,"Mulund West, Mumbai - MPCB",28-03-2026 08:00:00,19.1750,72.9419,NO2,20,44,32
India,Maharashtra,Mumbai,"Mulund West, Mumbai - MPCB",28-03-2026 08:00:00,19.1750,72.9419,NH3,1,3,2
India,Maharashtra,Mumbai,"Navy Nagar-Colaba, Mumbai - IITM",28-03-2026 08:00:00,18.897756,72.813320,PM10,44,143,97
India,Maharashtra,Mumbai,"Powai, Mumbai - MPCB",28-03-2026 08:00:00,19.137500,72.915056,SO2,5,11,8
India,Maharashtra,Chandrapur,"Chauhan Colony, Chandrapur - MPCB",28-03-2026 08:00:00,19.962900,79.298714,SO2,20,33,27
India,Maharashtra,Chandrapur,"Chauhan Colony, Chandrapur - MPCB",28-03-2026 08:00:00,19.962900,79.298714,OZONE,14,21,18
India,Maharashtra,Chandrapur,"MIDC Khutala, Chandrapur - MPCB",28-03-2026 08:00:00,19.9775302,79.2337086,PM2.5,22,39,28
India,Maharashtra,Dhule,"Deopur, Dhule - MPCB",28-03-2026 08:00:00,20.918946,74.776388,CO,6,32,21
India,Maharashtra,Dombivli,"Kalu Nagar, Dombivli - MPCB",28-03-2026 08:00:00,19.2268427 ,73.0788456 ,NO2,17,45,29
India,Maharashtra,Mumbai,"Borivali East, Mumbai - IITM",28-03-2026 08:00:00,19.23241,72.86895,NH3,6,9,8
India,Maharashtra,Mumbai,"Borivali East, Mumbai - MPCB",28-03-2026 08:00:00,19.2243333,72.8658113,NH3,1,7,3
India,Maharashtra,Mumbai,"Borivali East, Mumbai - MPCB",28-03-2026 08:00:00,19.2243333,72.8658113,CO,14,19,16
India,Maharashtra,Mumbai,"Chakala-Andheri East, Mumbai - IITM",28-03-2026 08:00:00,19.11074,72.86084,NH3,16,28,19
India,Maharashtra,Mumbai,"Chembur, Mumbai - MPCB",28-03-2026 08:00:00,19.0364585,72.8954371,PM10,35,102,79
India,Maharashtra,Mumbai,"Chhatrapati Shivaji Intl. Airport (T2), Mumbai - MPCB",28-03-2026 08:00:00,19.10078,72.87462,PM2.5,36,122,77
India,Maharashtra,Mumbai,"Ghatkopar, Mumbai - BMC",28-03-2026 08:00:00,19.083694,72.920967,SO2,1,3,2
India,Maharashtra,Bhiwandi,"Gokul Nagar, Bhiwandi - MPCB",28-03-2026 08:00:00,19.309073,73.057223,NH3,3,9,5
India,Maharashtra,Bhiwandi,"Gokul Nagar, Bhiwandi - MPCB",28-03-2026 08:00:00,19.309073,73.057223,SO2,4,17,10
India,Maharashtra,Mumbai,"Shivaji Nagar, Mumbai - BMC",28-03-2026 08:00:00,19.060498,72.923356,OZONE,1,78,10
India,Maharashtra,Nagpur,"Ambazari, Nagpur - MPCB",28-03-2026 08:00:00,21.121801,79.04952,OZONE,5,101,25
India,Maharashtra,Nagpur,"Mahal, Nagpur - MPCB",28-03-2026 08:00:00,21.14472,79.107595,OZONE,20,54,22
India,Maharashtra,Nagpur,"Opp GPO Civil Lines, Nagpur - MPCB",28-03-2026 08:00:00,21.152875,79.0517531,PM2.5,35,128,65
India,Maharashtra,Nagpur,"Opp GPO Civil Lines, Nagpur - MPCB",28-03-2026 08:00:00,21.152875,79.0517531,PM10,51,140,88
India,Maharashtra,Nagpur,"Opp GPO Civil Lines, Nagpur - MPCB",28-03-2026 08:00:00,21.152875,79.0517531,CO,11,114,19
India,Maharashtra,Nagpur,"Opp GPO Civil Lines, Nagpur - MPCB",28-03-2026 08:00:00,21.152875,79.0517531,OZONE,3,36,10
India,Maharashtra,Nagpur,"Ram Nagar, Nagpur - MPCB",28-03-2026 08:00:00,21.143383,79.048912,PM10,54,115,79
India,Maharashtra,Nagpur,"Ram Nagar, Nagpur - MPCB",28-03-2026 08:00:00,21.143383,79.048912,OZONE,17,57,21
India,Maharashtra,Nanded,"Sneh Nagar, Nanded - MPCB",28-03-2026 08:00:00,19.173852,77.296291,NH3,3,5,4
India,Maharashtra,Nashik,"Gangapur Road, Nashik - MPCB",28-03-2026 08:00:00,20.0073285,73.7762427,PM2.5,44,303,129
India,Maharashtra,Navi Mumbai,"Sanpada, Navi Mumbai - MPCB",28-03-2026 08:00:00,19.0575752,73.0151367,PM10,25,429,93
India,Maharashtra,Navi Mumbai,"Sanpada, Navi Mumbai - MPCB",28-03-2026 08:00:00,19.0575752,73.0151367,NO2,6,40,15
India,Maharashtra,Navi Mumbai,"Sanpada, Navi Mumbai - MPCB",28-03-2026 08:00:00,19.0575752,73.0151367,NH3,2,12,5
India,Maharashtra,Navi Mumbai,"Sanpada, Navi Mumbai - MPCB",28-03-2026 08:00:00,19.0575752,73.0151367,CO,3,61,6
India,Maharashtra,Navi Mumbai,"Sector-2E Kalamboli, Navi Mumbai - MPCB",28-03-2026 08:00:00,19.02579,73.10297,PM2.5,NA,NA,NA
India,Maharashtra,Navi Mumbai,"Sector-2E Kalamboli, Navi Mumbai - MPCB",28-03-2026 08:00:00,19.02579,73.10297,OZONE,1,56,7
India,Maharashtra,Navi Mumbai,"Tondare-Taloja, Navi Mumbai - MPCB",28-03-2026 08:00:00,19.0630,73.1209,NH3,4,7,5
India,Maharashtra,Parbhani,"Masoom Colony, Parbhani - MPCB",28-03-2026 08:00:00,19.265594,76.761463,NH3,3,4,4
India,Maharashtra,Pimpri-Chinchwad,"Park Street Wakad, Pimpri Chinchwad - MPCB",28-03-2026 08:00:00,18.59051,73.77946,PM2.5,64,150,91
India,Maharashtra,Pimpri-Chinchwad,"Savta Mali Nagar, Pimpri-Chinchwad - IITM",28-03-2026 08:00:00,18.614767,73.799516,PM2.5,38,143,78
India,Maharashtra,Pimpri-Chinchwad,"Savta Mali Nagar, Pimpri-Chinchwad - IITM",28-03-2026 08:00:00,18.614767,73.799516,PM10,58,129,105
India,Maharashtra,Pimpri-Chinchwad,"Savta Mali Nagar, Pimpri-Chinchwad - IITM",28-03-2026 08:00:00,18.614767,73.799516,OZONE,6,39,10
India,Maharashtra,Pimpri-Chinchwad,"Thergaon, Pimpri Chinchwad - MPCB",28-03-2026 08:00:00,18.616318,73.765797,PM2.5,50,103,67
India,Maharashtra,Pimpri-Chinchwad,"Thergaon, Pimpri Chinchwad - MPCB",28-03-2026 08:00:00,18.616318,73.765797,SO2,2,14,7
India,Maharashtra,Pune,"Bhosari, Pune - IITM",28-03-2026 08:00:00,18.640051,73.848956,NO2,7,14,11
India,Maharashtra,Pune,"Bhosari, Pune - IITM",28-03-2026 08:00:00,18.640051,73.848956,CO,2,101,67
India,Maharashtra,Pune,"Bhumkar Nagar, Pune - IITM",28-03-2026 08:00:00,18.605770,73.749976,PM2.5,68,365,154
India,Maharashtra,Pune,"Panchawati_Pashan, Pune - IITM",28-03-2026 08:00:00,18.536457,73.805454,OZONE,7,54,16
India,Maharashtra,Pune,"Revenue Colony-Shivajinagar, Pune - IITM",28-03-2026 08:00:00,18.530085,73.849598,OZONE,23,89,33
India,Maharashtra,Pune,"Savitribai Phule Pune University, Pune - MPCB",28-03-2026 08:00:00,18.547056,73.826908,NH3,1,17,3
India,Maharashtra,Pune,"Savitribai Phule Pune University, Pune - MPCB",28-03-2026 08:00:00,18.547056,73.826908,SO2,3,8,5
India,Maharashtra,Solapur,"Dnyaneshwar Nagar, Solapur - MPCB",28-03-2026 08:00:00,17.6336264,75.9132495,NH3,8,21,12
India,Maharashtra,Solapur,"Dnyaneshwar Nagar, Solapur - MPCB",28-03-2026 08:00:00,17.6336264,75.9132495,SO2,2,14,6
India,Maharashtra,Nashik,"Hirawadi, Nashik - MPCB",28-03-2026 08:00:00,20.021503,73.813844,PM10,65,170,91
India,Maharashtra,Nashik,"Hirawadi, Nashik - MPCB",28-03-2026 08:00:00,20.021503,73.813844,NH3,1,7,2
India,Maharashtra,Navi Mumbai,"Kopripada-Vashi, Navi Mumbai - MPCB",28-03-2026 08:00:00,19.090337,73.014232,SO2,1,15,5
India,Maharashtra,Navi Mumbai,"Mahape, Navi Mumbai - MPCB",28-03-2026 08:00:00,19.1135051,73.008978,PM2.5,21,97,48
India,Maharashtra,Navi Mumbai,"Mahape, Navi Mumbai - MPCB",28-03-2026 08:00:00,19.1135051,73.008978,OZONE,7,15,10
India,Maharashtra,Pune,"Dhankawadi, Pune - IITM",28-03-2026 08:00:00,18.459883,73.852193,PM10,76,151,111
India,Maharashtra,Pune,"Dhankawadi, Pune - IITM",28-03-2026 08:00:00,18.459883,73.852193,NO2,8,54,21
India,Maharashtra,Pune,"Hadapsar, Pune - IITM",28-03-2026 08:00:00,18.501793,73.927532,PM2.5,22,315,88
India,Maharashtra,Pune,"Katraj Dairy, Pune - MPCB",28-03-2026 08:00:00,18.454450,73.854155,PM2.5,26,55,32
India,Maharashtra,Mumbai,"Sion, Mumbai - MPCB",28-03-2026 08:00:00,19.047000,72.874600,PM2.5,8,500,75
India,Maharashtra,Mumbai,"Sion, Mumbai - MPCB",28-03-2026 08:00:00,19.047000,72.874600,NO2,26,31,29
India,Maharashtra,Mumbai,"Worli, Mumbai -MPCB",28-03-2026 08:00:00,18.9942180,72.8158167,OZONE,14,90,25
India,Maharashtra,Nagpur,"Ambazari, Nagpur - MPCB",28-03-2026 08:00:00,21.121801,79.04952,NH3,1,25,5
India,Odisha,Rairangpur,"Divisional Forest Office, Rairangpur - OSPCB",28-03-2026 08:00:00,22.265816,86.174829,SO2,6,15,10
India,Odisha,Rourkela,"Fertilizer Township, Rourkela - OSPCB",28-03-2026 08:00:00,22.18972222,84.86277778,PM10,85,92,87
India,Odisha,Rourkela,"Raghunathpali, Rourkela - OSPCB",28-03-2026 08:00:00,22.220833,84.809444,PM2.5,17,246,90
India,Odisha,Rourkela,"Raghunathpali, Rourkela - OSPCB",28-03-2026 08:00:00,22.220833,84.809444,CO,31,102,38
India,Odisha,Rourkela,"Sector-2, Rourkela - OSPCB",28-03-2026 08:00:00,22.24500000,84.88111111,PM10,42,84,68
India,Odisha,Suakati,"OMC Colony, Suakati - OSPCB",28-03-2026 08:00:00,21.606865,85.510538,OZONE,12,120,28
India,Odisha,Talcher,"Talcher Coalfields,Talcher - OSPCB",28-03-2026 08:00:00,20.9360711,85.1707021,NH3,6,7,6
India,Odisha,Tensa,"Barsua Iron Ore Mines, Tensa - OSPCB",28-03-2026 08:00:00,21.869985,85.167016,PM10,40,84,66
India,Odisha,Brajrajnagar,"GM Office, Brajrajnagar - OSPCB",28-03-2026 08:00:00,21.8004996,83.8396977,NH3,4,5,5
India,Odisha,Brajrajnagar,"GM Office, Brajrajnagar - OSPCB",28-03-2026 08:00:00,21.8004996,83.8396977,SO2,19,21,20
India,Odisha,Brajrajnagar,"GM Office, Brajrajnagar - OSPCB",28-03-2026 08:00:00,21.8004996,83.8396977,CO,48,68,64
India,Odisha,Byasanagar,"Ferro Chrome Colony, Byasanagar - OSPCB",28-03-2026 08:00:00,20.94185,86.11510,NH3,5,7,6
India,Odisha,Byasanagar,"Ferro Chrome Colony, Byasanagar - OSPCB",28-03-2026 08:00:00,20.94185,86.11510,OZONE,13,205,199
India,Odisha,Keonjhar,"Jagamohanpur, Keonjhar - OSPCB",28-03-2026 08:00:00,21.643900,85.599355,NH3,5,5,5
India,Odisha,Keonjhar,"Jagamohanpur, Keonjhar - OSPCB",28-03-2026 08:00:00,21.643900,85.599355,SO2,8,31,13
India,Odisha,Keonjhar,"Jagamohanpur, Keonjhar - OSPCB",28-03-2026 08:00:00,21.643900,85.599355,CO,28,46,30
India,Odisha,Rairangpur,"Divisional Forest Office, Rairangpur - OSPCB",28-03-2026 08:00:00,22.265816,86.174829,PM2.5,15,90,46
India,Odisha,Rairangpur,"Divisional Forest Office, Rairangpur - OSPCB",28-03-2026 08:00:00,22.265816,86.174829,NO2,11,12,11
India,Punjab,Amritsar,"Golden Temple, Amritsar - PPCB",28-03-2026 08:00:00,31.620000,74.876512,NO2,4,28,11
India,Punjab,Bathinda,"Hardev Nagar, Bathinda - PPCB",28-03-2026 08:00:00,30.233011,74.907758,SO2,2,16,10
India,Punjab,Jalandhar,"Civil Line, Jalandhar - PPCB",28-03-2026 08:00:00,31.321907,75.578914,PM2.5,43,120,74
India,Punjab,Jalandhar,"Civil Line, Jalandhar - PPCB",28-03-2026 08:00:00,31.321907,75.578914,NH3,2,2,2
India,Punjab,Jalandhar,"Civil Line, Jalandhar - PPCB",28-03-2026 08:00:00,31.321907,75.578914,OZONE,16,85,42
India,Punjab,Khanna,"Kalal Majra, Khanna - PPCB",28-03-2026 08:00:00,30.736056 ,76.209694,NH3,7,7,7
India,Punjab,Khanna,"Kalal Majra, Khanna - PPCB",28-03-2026 08:00:00,30.736056 ,76.209694,OZONE,18,40,20
India,Punjab,Ludhiana,"Punjab Agricultural University, Ludhiana - PPCB",28-03-2026 08:00:00,30.9028,75.8086,PM2.5,81,156,108
India,Punjab,Ludhiana,"Punjab Agricultural University, Ludhiana - PPCB",28-03-2026 08:00:00,30.9028,75.8086,PM10,98,136,115
India,Punjab,Mandi Gobindgarh,"RIMT University, Mandi Gobindgarh - PPCB",28-03-2026 08:00:00,30.649961,76.331442,NH3,6,6,6
India,Punjab,Mandi Gobindgarh,"RIMT University, Mandi Gobindgarh - PPCB",28-03-2026 08:00:00,30.649961,76.331442,CO,8,107,38
India,Punjab,Patiala,"Model Town, Patiala - PPCB",28-03-2026 08:00:00,30.349388,76.366642,PM10,47,71,57
India,Punjab,Patiala,"Model Town, Patiala - PPCB",28-03-2026 08:00:00,30.349388,76.366642,NO2,16,18,17
India,Punjab,Patiala,"Model Town, Patiala - PPCB",28-03-2026 08:00:00,30.349388,76.366642,SO2,5,30,12
India,Punjab,Patiala,"Model Town, Patiala - PPCB",28-03-2026 08:00:00,30.349388,76.366642,OZONE,15,52,16
India,Punjab,Rupnagar,"Ratanpura, Rupnagar - Ambuja Cements",28-03-2026 08:00:00,31.0325454,76.5623046,PM2.5,16,356,211
India,Punjab,Rupnagar,"Ratanpura, Rupnagar - Ambuja Cements",28-03-2026 08:00:00,31.0325454,76.5623046,PM10,20,368,184
India,Punjab,Rupnagar,"Ratanpura, Rupnagar - Ambuja Cements",28-03-2026 08:00:00,31.0325454,76.5623046,SO2,12,20,15
India,Odisha,Barbil,"Forest Office, Barbil - OSPCB",28-03-2026 08:00:00,22.1166054,85.3945546,NO2,15,36,22
India,Odisha,Barbil,"Forest Office, Barbil - OSPCB",28-03-2026 08:00:00,22.1166054,85.3945546,CO,2,107,82
India,Odisha,Baripada,"Meher Colony, Baripada - OSPCB",28-03-2026 08:00:00,21.941841,86.728318,PM10,NA,NA,NA
India,Odisha,Bhubaneswar,"Lingraj Mandir, Bhubaneswar - OSPCB",28-03-2026 08:00:00,20.240790,85.836784,PM2.5,NA,NA,NA
India,Odisha,Bhubaneswar,"Lingraj Mandir, Bhubaneswar - OSPCB",28-03-2026 08:00:00,20.240790,85.836784,NO2,5,43,19
India,Odisha,Bhubaneswar,"Patia, Bhubaneswar - OSPCB",28-03-2026 08:00:00,20.34652,85.81630,PM2.5,42,123,65
India,Odisha,Bileipada,"Tata Township, Bileipada - OSPCB",28-03-2026 08:00:00,22.06156703,85.47409613,NH3,6,6,6
India,Meghalaya,Shillong,"JN Stadium, Shillong - Meghalaya PCB",28-03-2026 08:00:00,25.5803419,91.8942571,PM2.5,NA,NA,NA
India,Meghalaya,Shillong,"JN Stadium, Shillong - Meghalaya PCB",28-03-2026 08:00:00,25.5803419,91.8942571,PM10,NA,NA,NA
India,Mizoram,Aizawl,"Sikulpuikawn, Aizawl - Mizoram PCB",28-03-2026 08:00:00,23.7176342,92.7192841,CO,3,3,3
India,Nagaland,Kohima,"PWD Junction, Kohima - NPCB",28-03-2026 08:00:00,25.6635413,94.0989878,NH3,1,1,1
India,Odisha,Angul,"Hakimapada, Angul - OSPCB",28-03-2026 08:00:00,20.832874,85.104082,PM2.5,34,303,124
India,Odisha,Balasore,"Kalidaspur, Balasore - OSPCB",28-03-2026 08:00:00,21.51161,86.89088,NH3,1,3,2
India,Maharashtra,Thane,"Kasarvadavali, Thane - MPCB",28-03-2026 08:00:00,19.26777,72.97182,PM10,39,96,78
India,Maharashtra,Thane,"Kasarvadavali, Thane - MPCB",28-03-2026 08:00:00,19.26777,72.97182,NO2,8,37,22
India,Maharashtra,Thane,"Kasarvadavali, Thane - MPCB",28-03-2026 08:00:00,19.26777,72.97182,OZONE,8,74,18
India,Maharashtra,Ulhasnagar,"Sidhi Vinayak Nagar, Ulhasnagar - MPCB",28-03-2026 08:00:00,19.235581,73.159121,PM10,72,140,102
India,Maharashtra,Ulhasnagar,"Vithalwadi, Ulhasnagar - MPCB",28-03-2026 08:00:00,19.2307571 ,73.1551920,SO2,3,68,19
India,Odisha,Tensa,"Barsua Iron Ore Mines, Tensa - OSPCB",28-03-2026 08:00:00,21.869985,85.167016,CO,NA,NA,NA
India,Rajasthan,Ajmer,"Civil Lines,  Ajmer - RSPCB",28-03-2026 08:00:00,26.470859,74.646594,NH3,3,4,4
India,Rajasthan,Bhiwadi,"RIICO Ind. Area III, Bhiwadi - RSPCB",28-03-2026 08:00:00,28.194909,76.862296,NH3,5,17,10
India,Rajasthan,Bhiwadi,"Vasundhara Nagar_UIT, Bhiwadi - RSPCB",28-03-2026 08:00:00,28.207266,76.829265,PM2.5,22,220,65
India,Rajasthan,Bhiwadi,"Vasundhara Nagar_UIT, Bhiwadi - RSPCB",28-03-2026 08:00:00,28.207266,76.829265,PM10,71,294,135
India,Rajasthan,Bikaner,"MM Ground, Bikaner - RSPCB",28-03-2026 08:00:00,28.018792,73.292658,PM10,46,290,98
India,Rajasthan,Bikaner,"MM Ground, Bikaner - RSPCB",28-03-2026 08:00:00,28.018792,73.292658,CO,10,55,18
India,Rajasthan,Bikaner,"MM Ground, Bikaner - RSPCB",28-03-2026 08:00:00,28.018792,73.292658,OZONE,39,117,62
India,Rajasthan,Bundi,"New Colony, Bundi - RSPCB",28-03-2026 08:00:00,25.435774,75.644272,SO2,2,8,5
India,Rajasthan,Bundi,"New Colony, Bundi - RSPCB",28-03-2026 08:00:00,25.435774,75.644272,CO,12,34,20
India,Rajasthan,Chittorgarh,"Shastri Nagar, Chittorgarh - RSPCB",28-03-2026 08:00:00,24.892047,74.623527,NO2,6,58,29
India,Rajasthan,Chittorgarh,"Shastri Nagar, Chittorgarh - RSPCB",28-03-2026 08:00:00,24.892047,74.623527,SO2,2,8,4
India,Rajasthan,Banswara,"Rati Talai, Banswara - RSPCB",28-03-2026 08:00:00,23.555190,74.440010,CO,16,38,19
India,Rajasthan,Barmer,"Railway Colony, Barmer - RSPCB",28-03-2026 08:00:00,25.747299,71.393989,PM10,33,178,81
India,Rajasthan,Barmer,"Railway Colony, Barmer - RSPCB",28-03-2026 08:00:00,25.747299,71.393989,SO2,2,18,5
India,Rajasthan,Barmer,"Railway Colony, Barmer - RSPCB",28-03-2026 08:00:00,25.747299,71.393989,OZONE,10,63,27
India,Rajasthan,Bharatpur,"Krishna Nagar, Bharatpur - RSPCB",28-03-2026 08:00:00,27.215415,77.50873,NO2,12,65,27
India,Rajasthan,Bharatpur,"Krishna Nagar, Bharatpur - RSPCB",28-03-2026 08:00:00,27.215415,77.50873,NH3,8,12,10
India,Rajasthan,Bharatpur,"Krishna Nagar, Bharatpur - RSPCB",28-03-2026 08:00:00,27.215415,77.50873,CO,18,48,32
India,Rajasthan,Bhilwara,"Pratap Nagar, Bhilwara - RSPCB",28-03-2026 08:00:00,25.339605,74.618883,PM2.5,10,73,37
India,Rajasthan,Bhilwara,"Pratap Nagar, Bhilwara - RSPCB",28-03-2026 08:00:00,25.339605,74.618883,CO,12,77,62
India,Rajasthan,Dausa,"Khatikan Mohalla, Dausa - RSPCB",28-03-2026 08:00:00,26.895552,76.334753,SO2,1,8,5
India,Rajasthan,Hanumangarh,"Housing Board, Hanumangarh - RSPCB",28-03-2026 08:00:00,29.610750,74.283608,PM10,35,300,100
India,Rajasthan,Hanumangarh,"Housing Board, Hanumangarh - RSPCB",28-03-2026 08:00:00,29.610750,74.283608,NO2,6,66,23
India,Rajasthan,Hanumangarh,"Housing Board, Hanumangarh - RSPCB",28-03-2026 08:00:00,29.610750,74.283608,CO,4,20,18
India,Rajasthan,Jaipur,"Adarsh Nagar, Jaipur - RSPCB",28-03-2026 08:00:00,26.902909,75.836858,PM10,63,106,87
India,Rajasthan,Jaipur,"Adarsh Nagar, Jaipur - RSPCB",28-03-2026 08:00:00,26.902909,75.836858,NH3,6,20,10
India,Rajasthan,Jaipur,"Police Commissionerate, Jaipur - RSPCB",28-03-2026 08:00:00,26.9164092,75.7994901,OZONE,15,60,17
India,Rajasthan,Jaipur,"Sector-2 Murlipura, Jaipur - RSPCB",28-03-2026 08:00:00,26.960669,75.771817,PM10,58,164,92
India,Rajasthan,Jaipur,"Sector-2 Murlipura, Jaipur - RSPCB",28-03-2026 08:00:00,26.960669,75.771817,NH3,4,7,6
India,Rajasthan,Jaipur,"Shastri Nagar, Jaipur - RSPCB",28-03-2026 08:00:00,26.9502929,75.730943,PM10,70,131,95
India,Rajasthan,Jhunjhunu,"Indra Nagar, Jhunjhunu - RSPCB",28-03-2026 08:00:00,28.108988,75.386577,PM10,47,132,82
India,Rajasthan,Jhunjhunu,"Indra Nagar, Jhunjhunu - RSPCB",28-03-2026 08:00:00,28.108988,75.386577,SO2,4,14,7
India,Rajasthan,Jhunjhunu,"Indra Nagar, Jhunjhunu - RSPCB",28-03-2026 08:00:00,28.108988,75.386577,OZONE,8,119,18
India,Rajasthan,Jodhpur,"Collectorate, Jodhpur - RSPCB",28-03-2026 08:00:00,26.268249,73.0193853,PM10,43,113,59
India,Rajasthan,Jaisalmer,"Sadar Bazar, Jaisalmer - RSPCB",28-03-2026 08:00:00,26.912329,70.909168,PM2.5,13,65,28
India,Rajasthan,Jalore,"Mudtra Sili, Jalore - RSPCB",28-03-2026 08:00:00,25.344694,72.626208,SO2,2,9,5
India,Rajasthan,Churu,"Subash Chowk, Churu - RSPCB",28-03-2026 08:00:00,28.296139,74.961696,NO2,6,56,21
India,Rajasthan,Churu,"Subash Chowk, Churu - RSPCB",28-03-2026 08:00:00,28.296139,74.961696,NH3,5,13,8
India,Rajasthan,Churu,"Subash Chowk, Churu - RSPCB",28-03-2026 08:00:00,28.296139,74.961696,CO,24,34,27
India,Rajasthan,Jhalawar,"Rajlaxmi Nagar, Jhalawar - RSPCB",28-03-2026 08:00:00,24.588397,76.172782,CO,13,40,22
India,Rajasthan,Alwar,"Moti Doongri, Alwar - RSPCB",28-03-2026 08:00:00,27.554793,76.611536,OZONE,9,79,9
India,Rajasthan,Jodhpur,"Mandor, Jodhpur - RSPCB",28-03-2026 08:00:00,26.358805,73.047444,PM10,29,73,47
India,Rajasthan,Jodhpur,"Samrat Ashok Udhyan, Jodhpur - RSPCB",28-03-2026 08:00:00,26.253384,72.976571,PM2.5,13,73,35
India,Rajasthan,Jodhpur,"Samrat Ashok Udhyan, Jodhpur - RSPCB",28-03-2026 08:00:00,26.253384,72.976571,NH3,6,9,7
India,Rajasthan,Karauli,"Satyawati Vihar, Karauli - RSPCB",28-03-2026 08:00:00,26.506177,77.025989,NO2,8,33,21
India,Rajasthan,Kota,"Dhanmandi, Kota - RSPCB",28-03-2026 08:00:00,25.164090,75.858137,NH3,4,7,6
India,Rajasthan,Kota,"Nayapura, Kota - RSPCB",28-03-2026 08:00:00,25.196024,75.855668,PM2.5,13,95,34
India,Rajasthan,Kota,"Nayapura, Kota - RSPCB",28-03-2026 08:00:00,25.196024,75.855668,OZONE,17,88,30
India,Rajasthan,Kota,"Shrinath Puram, Kota - RSPCB",28-03-2026 08:00:00,25.14389,75.821256,PM2.5,34,46,38
India,TamilNadu,Chennai,"Royapuram, Chennai - TNPCB",28-03-2026 08:00:00,13.1036,80.2909,SO2,4,8,6
India,TamilNadu,Chennai,"Royapuram, Chennai - TNPCB",28-03-2026 08:00:00,13.1036,80.2909,CO,21,28,23
India,TamilNadu,Coimbatore,"PSG College of Arts and Science, Coimbatore - TNPCB",28-03-2026 08:00:00,11.0328,77.0349,OZONE,3,6,5
India,TamilNadu,Coimbatore,"SIDCO Kurichi, Coimbatore - TNPCB",28-03-2026 08:00:00,10.942451,76.978996,PM2.5,15,184,72
India,TamilNadu,Coimbatore,"SIDCO Kurichi, Coimbatore - TNPCB",28-03-2026 08:00:00,10.942451,76.978996,NO2,NA,NA,NA
India,TamilNadu,Coimbatore,"SIDCO Kurichi, Coimbatore - TNPCB",28-03-2026 08:00:00,10.942451,76.978996,OZONE,19,20,20
India,Rajasthan,Nagaur,"Karni Colony, Nagaur - RSPCB",28-03-2026 08:00:00,27.213494,73.734444,PM2.5,13,75,34
India,Rajasthan,Nagaur,"Karni Colony, Nagaur - RSPCB",28-03-2026 08:00:00,27.213494,73.734444,OZONE,23,89,34
India,Rajasthan,Pali,"Indira Colony Vistar, Pali - RSPCB",28-03-2026 08:00:00,25.771061, 73.340227,CO,4,90,33
India,Rajasthan,Pratapgarh,"Pragati Nagar, Pratapgarh - RSPCB",28-03-2026 08:00:00,24.041198,74.780702,PM2.5,17,72,33
India,Rajasthan,Pratapgarh,"Pragati Nagar, Pratapgarh - RSPCB",28-03-2026 08:00:00,24.041198,74.780702,NO2,26,50,37
India,Sikkim,Gangtok,"Zero Point GICI, Gangtok - SSPCB",28-03-2026 08:00:00,27.338530,88.614099,NO2,6,7,6
India,TamilNadu,Chennai,"Kodungaiyur, Chennai - TNPCB",28-03-2026 08:00:00,13.1278,80.2642,NH3,3,5,4
India,TamilNadu,Chennai,"Kodungaiyur, Chennai - TNPCB",28-03-2026 08:00:00,13.1278,80.2642,OZONE,28,35,32
India,TamilNadu,Chennai,"Manali, Chennai - CPCB",28-03-2026 08:00:00,13.164544,80.26285,PM2.5,17,62,34
India,TamilNadu,Perundurai,"SIPCOT Industrial Park, Perundurai - TNPCB",28-03-2026 08:00:00,11.258242,77.552761,CO,40,49,48
India,TamilNadu,Thoothukudi,"Meelavittan, Thoothukudi - TNPCB",28-03-2026 08:00:00,8.816428 ,78.099039,SO2,8,19,14
India,Telangana,Hyderabad,"ECIL Kapra, Hyderabad - TSPCB",28-03-2026 08:00:00,17.470431,78.566959,SO2,NA,NA,NA
India,Telangana,Hyderabad,"ECIL Kapra, Hyderabad - TSPCB",28-03-2026 08:00:00,17.470431,78.566959,CO,NA,NA,NA
India,Rajasthan,Tonk,"Shastri Nagar, Tonk - RSPCB",28-03-2026 08:00:00,26.159933,75.780517,NO2,1,43,16
India,Rajasthan,Udaipur,"Ashok Nagar, Udaipur - RSPCB",28-03-2026 08:00:00,24.5886166,73.6321397,NO2,8,100,42
India,Rajasthan,Jodhpur,"Digari Kalan, Jodhpur - RSPCB",28-03-2026 08:00:00,26.295810,73.082283,NH3,6,10,8
India,Rajasthan,Jodhpur,"Jhalamand, Jodhpur - RSPCB",28-03-2026 08:00:00,26.215415,73.070156,NO2,3,52,22
India,TamilNadu,Perundurai,"SIPCOT Industrial Park, Perundurai - TNPCB",28-03-2026 08:00:00,11.258242,77.552761,NO2,12,13,12
India,Rajasthan,Jodhpur,"Digari Kalan, Jodhpur - RSPCB",28-03-2026 08:00:00,26.295810,73.082283,PM2.5,15,67,39
India,Telangana,Hyderabad,"New Malakpet, Hyderabad - TSPCB",28-03-2026 08:00:00,17.37206,78.50864,OZONE,23,45,30
India,Telangana,Hyderabad,"Ramachandrapuram, Hyderabad - TSPCB",28-03-2026 08:00:00,17.528544,78.286195,PM10,61,89,84
India,Telangana,Hyderabad,"Somajiguda, Hyderabad - TSPCB",28-03-2026 08:00:00,17.417094,78.457437,CO,6,46,10
India,Telangana,Hyderabad,"Somajiguda, Hyderabad - TSPCB",28-03-2026 08:00:00,17.417094,78.457437,OZONE,32,34,33
India,Telangana,Hyderabad,"Zoo Park, Hyderabad - TSPCB",28-03-2026 08:00:00,17.349694,78.451437,PM2.5,18,114,49
India,Telangana,Hyderabad,"Zoo Park, Hyderabad - TSPCB",28-03-2026 08:00:00,17.349694,78.451437,NH3,3,3,3
India,Tripura,Agartala,"Bardowali, Agartala - Tripura SPCB",28-03-2026 08:00:00,23.8175497,91.2726974,PM2.5,81,263,135
India,Tripura,Agartala,"Bardowali, Agartala - Tripura SPCB",28-03-2026 08:00:00,23.8175497,91.2726974,NH3,3,8,5
India,Tripura,Agartala,"Bardowali, Agartala - Tripura SPCB",28-03-2026 08:00:00,23.8175497,91.2726974,CO,12,34,14
India,Uttar_Pradesh,Bareilly,"Civil Lines, Bareilly - UPPCB",28-03-2026 08:00:00,28.359581,79.414455,NH3,1,6,2
India,Uttar_Pradesh,Bareilly,"Civil Lines, Bareilly - UPPCB",28-03-2026 08:00:00,28.359581,79.414455,SO2,61,89,73
India,Uttar_Pradesh,Bareilly,"Civil Lines, Bareilly - UPPCB",28-03-2026 08:00:00,28.359581,79.414455,OZONE,16,56,31
India,Uttar_Pradesh,Bulandshahr,"Yamunapuram, Bulandshahr - UPPCB",28-03-2026 08:00:00,28.406963,77.849831,PM10,62,233,143
India,Uttar_Pradesh,Firozabad,"Nagla Bhau, Firozabad - UPPCB",28-03-2026 08:00:00,27.168897,78.376960,SO2,18,60,30
India,Uttar_Pradesh,Firozabad,"Vibhab Nagar, Firozabad - UPPCB",28-03-2026 08:00:00,27.1594,78.3953,PM10,56,160,90
India,Telangana,Hyderabad,"IDA Pashamylaram, Hyderabad - TSPCB",28-03-2026 08:00:00,17.5316895,78.218939,PM10,29,62,45
India,Telangana,Hyderabad,"IITH Kandi, Hyderabad - TSPCB",28-03-2026 08:00:00,17.585705,78.126199,PM10,78,96,83
India,Telangana,Hyderabad,"IITH Kandi, Hyderabad - TSPCB",28-03-2026 08:00:00,17.585705,78.126199,NO2,12,13,13
India,Telangana,Hyderabad,"IITH Kandi, Hyderabad - TSPCB",28-03-2026 08:00:00,17.585705,78.126199,SO2,11,16,14
India,Telangana,Hyderabad,"Nacharam_TSIIC IALA, Hyderabad - TSPCB",28-03-2026 08:00:00,17.429398,78.569354,PM2.5,47,65,60
India,Telangana,Hyderabad,"New Malakpet, Hyderabad - TSPCB",28-03-2026 08:00:00,17.37206,78.50864,NO2,14,18,16
India,Uttar_Pradesh,Ghaziabad,"Vasundhara, Ghaziabad - UPPCB",28-03-2026 08:00:00,28.6603346,77.3572563,PM2.5,44,292,141
India,Uttar_Pradesh,Ghaziabad,"Vasundhara, Ghaziabad - UPPCB",28-03-2026 08:00:00,28.6603346,77.3572563,CO,24,57,46
India,Uttar_Pradesh,Gorakhpur,"Madan Mohan Malaviya University of Technology, Gorakhpur - UPPCB",28-03-2026 08:00:00,26.730136,83.433859,NO2,NA,NA,NA
India,Uttar_Pradesh,Gorakhpur,"Madan Mohan Malaviya University of Technology, Gorakhpur - UPPCB",28-03-2026 08:00:00,26.730136,83.433859,OZONE,NA,NA,NA
India,Uttar_Pradesh,Hapur,"Anand Vihar, Hapur - UPPCB",28-03-2026 08:00:00,28.725645,77.749675,PM10,55,138,99
India,Uttar_Pradesh,Hapur,"Anand Vihar, Hapur - UPPCB",28-03-2026 08:00:00,28.725645,77.749675,NH3,6,8,7
India,Uttar_Pradesh,Jhansi,"Shivaji Nagar, Jhansi - UPPCB",28-03-2026 08:00:00,25.4547,78.6039,NO2,6,7,6
India,Uttar_Pradesh,Agra,"Manoharpur, Agra - UPPCB",28-03-2026 08:00:00,27.23711,78.01936,CO,19,20,20
India,Uttar_Pradesh,Agra,"Sector-3B Avas Vikas Colony, Agra - UPPCB",28-03-2026 08:00:00,27.19412,77.96237,OZONE,NA,NA,NA
India,Uttar_Pradesh,Agra,"Shastripuram, Agra - UPPCB",28-03-2026 08:00:00,27.19862,77.92066,CO,10,18,12
India,Uttar_Pradesh,Ghaziabad,"Indirapuram, Ghaziabad - UPPCB",28-03-2026 08:00:00,28.646233,77.358075,OZONE,4,32,8
India,Uttar_Pradesh,Ghaziabad,"Loni, Ghaziabad - UPPCB",28-03-2026 08:00:00,28.757294,77.278792,PM2.5,44,374,163
India,Uttar_Pradesh,Ghaziabad,"Loni, Ghaziabad - UPPCB",28-03-2026 08:00:00,28.757294,77.278792,NH3,1,6,3
India,Uttar_Pradesh,Ghaziabad,"Indirapuram, Ghaziabad - UPPCB",28-03-2026 08:00:00,28.646233,77.358075,PM2.5,40,256,115
India,Uttar_Pradesh,Ghaziabad,"Indirapuram, Ghaziabad - UPPCB",28-03-2026 08:00:00,28.646233,77.358075,PM10,88,194,141
India,Uttar_Pradesh,Ghaziabad,"Indirapuram, Ghaziabad - UPPCB",28-03-2026 08:00:00,28.646233,77.358075,NH3,15,18,16
India,Uttar_Pradesh,Ghaziabad,"Sanjay Nagar, Ghaziabad - UPPCB",28-03-2026 08:00:00,28.685382,77.453839,NH3,7,10,8
India,Uttar_Pradesh,Lucknow,"Gomti Nagar, Lucknow - UPPCB",28-03-2026 08:00:00,26.868120,81.005119,SO2,10,12,11
India,Uttar_Pradesh,Lucknow,"Kendriya Vidyalaya, Lucknow - CPCB",28-03-2026 08:00:00,26.906111,80.948222,PM10,54,126,101
India,Uttar_Pradesh,Lucknow,"Kendriya Vidyalaya, Lucknow - CPCB",28-03-2026 08:00:00,26.906111,80.948222,SO2,10,30,20
India,Uttar_Pradesh,Lucknow,"Kukrail Picnic Spot-1, Lucknow - UPPCB",28-03-2026 08:00:00,26.90723,80.98579,NH3,6,6,6
India,Uttar_Pradesh,Lucknow,"Kukrail Picnic Spot-1, Lucknow - UPPCB",28-03-2026 08:00:00,26.90723,80.98579,SO2,20,21,21
India,Uttar_Pradesh,Lucknow,"Kukrail Picnic Spot-1, Lucknow - UPPCB",28-03-2026 08:00:00,26.90723,80.98579,OZONE,8,30,10
India,Uttar_Pradesh,Lucknow,"Talkatora District Industries Center, Lucknow - CPCB",28-03-2026 08:00:00,26.83399722,80.8917361,PM2.5,76,250,133
India,Uttar_Pradesh,Lucknow,"Talkatora District Industries Center, Lucknow - CPCB",28-03-2026 08:00:00,26.83399722,80.8917361,PM10,68,120,90
India,Uttar_Pradesh,Meerut,"Ganga Nagar, Meerut - UPPCB",28-03-2026 08:00:00,28.999264,77.7590354,NH3,3,3,3
India,Uttar_Pradesh,Meerut,"Ganga Nagar, Meerut - UPPCB",28-03-2026 08:00:00,28.999264,77.7590354,SO2,17,23,20
India,Uttar_Pradesh,Meerut,"Jai Bhim Nagar, Meerut - UPPCB",28-03-2026 08:00:00,28.9535882,77.7622941,SO2,6,9,8
India,Uttar_Pradesh,Meerut,"Pallavpuram Phase 2, Meerut - UPPCB",28-03-2026 08:00:00,29.063510,77.709723,PM10,28,209,108
India,Uttar_Pradesh,Moradabad,"Buddhi Vihar, Moradabad - UPPCB",28-03-2026 08:00:00,28.83526,78.74460,PM2.5,18,62,42
India,Uttar_Pradesh,Moradabad,"Transport Nagar, Moradabad - UPPCB",28-03-2026 08:00:00,28.802625,78.753728,NH3,5,5,5
India,Uttar_Pradesh,Muzaffarnagar,"New Mandi, Muzaffarnagar - UPPCB",28-03-2026 08:00:00,29.4723508,77.7194031,NO2,18,54,34
India,Uttar_Pradesh,Noida,"Sector - 62, Noida - IMD",28-03-2026 08:00:00,28.6245479,77.3577104,CO,6,22,15
India,Uttar_Pradesh,Noida,"Sector - 62, Noida - IMD",28-03-2026 08:00:00,28.6245479,77.3577104,OZONE,11,79,14
India,Uttar_Pradesh,Kanpur,"NSI Kalyanpur, Kanpur - UPPCB",28-03-2026 08:00:00,26.509954,80.249612,PM10,40,184,95
India,Uttar_Pradesh,Kanpur,"NSI Kalyanpur, Kanpur - UPPCB",28-03-2026 08:00:00,26.509954,80.249612,OZONE,16,19,18
India,Uttar_Pradesh,Kanpur,"Nehru Nagar, Kanpur - UPPCB",28-03-2026 08:00:00,26.4703136,80.3229863,PM2.5,15,293,97
India,Uttar_Pradesh,Kanpur,"Nehru Nagar, Kanpur - UPPCB",28-03-2026 08:00:00,26.4703136,80.3229863,NO2,46,51,48
India,Uttar_Pradesh,Kanpur,"Nehru Nagar, Kanpur - UPPCB",28-03-2026 08:00:00,26.4703136,80.3229863,SO2,1,46,15
India,Uttar_Pradesh,Moradabad,"Employment Office, Moradabad - UPPCB",28-03-2026 08:00:00,28.88528,78.73880,NO2,15,16,16
India,Uttar_Pradesh,Moradabad,"Jigar Colony, Moradabad - UPPCB",28-03-2026 08:00:00,28.856664,78.772638,CO,40,40,40
India,Uttar_Pradesh,Moradabad,"Kashiram Nagar, Moradabad - UPPCB",28-03-2026 08:00:00,28.849399,78.742362,NO2,24,25,25
India,Uttar_Pradesh,Moradabad,"Kashiram Nagar, Moradabad - UPPCB",28-03-2026 08:00:00,28.849399,78.742362,SO2,108,136,127
India,Uttar_Pradesh,Noida,"Sector-1, Noida - UPPCB",28-03-2026 08:00:00,28.5898,77.3101,PM10,87,311,148
India,Uttar_Pradesh,Noida,"Sector-1, Noida - UPPCB",28-03-2026 08:00:00,28.5898,77.3101,NH3,10,11,10
India,Uttar_Pradesh,Prayagraj,"Jhunsi, Prayagraj - UPPCB",28-03-2026 08:00:00,25.425602,81.917152,PM2.5,21,59,37
India,Uttar_Pradesh,Prayagraj,"Jhunsi, Prayagraj - UPPCB",28-03-2026 08:00:00,25.425602,81.917152,PM10,31,116,62
India,Uttar_Pradesh,Prayagraj,"Motilal Nehru NIT, Prayagraj - UPPCB",28-03-2026 08:00:00,25.494,81.863,CO,8,26,16
India,Uttar_Pradesh,Prayagraj,"Motilal Nehru NIT, Prayagraj - UPPCB",28-03-2026 08:00:00,25.494,81.863,OZONE,6,54,7
India,Uttar_Pradesh,Prayagraj,"Nagar Nigam, Prayagraj - UPPCB",28-03-2026 08:00:00,25.44919916 ,81.82735986 ,PM10,22,142,50
India,Uttar_Pradesh,Jhansi,"Shivaji Nagar, Jhansi - UPPCB",28-03-2026 08:00:00,25.4547,78.6039,SO2,10,16,12
India,Uttar_Pradesh,Jhansi,"Shivaji Nagar, Jhansi - UPPCB",28-03-2026 08:00:00,25.4547,78.6039,OZONE,2,12,3
India,Uttar_Pradesh,Kanpur,"FTI Kidwai Nagar, Kanpur - UPPCB",28-03-2026 08:00:00,26.428282,80.327067,PM2.5,18,194,78
India,Uttar_Pradesh,Moradabad,"Eco Herbal Park, Moradabad - UPPCB",28-03-2026 08:00:00,28.840739,78.697531,OZONE,12,64,18
India,West_Bengal,Kolkata,"Bidhannagar, Kolkata - WBPCB",28-03-2026 08:00:00,22.58157048,88.41002457,CO,8,31,26
India,West_Bengal,Kolkata,"Fort William, Kolkata - WBPCB",28-03-2026 08:00:00,22.556640,88.342674,PM2.5,25,48,38
India,West_Bengal,Kolkata,"Fort William, Kolkata - WBPCB",28-03-2026 08:00:00,22.556640,88.342674,PM10,26,50,41
India,West_Bengal,Kolkata,"Jadavpur, Kolkata - WBPCB",28-03-2026 08:00:00,22.49929,88.36917,OZONE,4,111,7
India,West_Bengal,Kolkata,"Rabindra Bharati University, Kolkata - WBPCB",28-03-2026 08:00:00,22.627847,88.380669,NO2,23,90,48
India,West_Bengal,Kolkata,"Rabindra Bharati University, Kolkata - WBPCB",28-03-2026 08:00:00,22.627847,88.380669,NH3,12,12,12
India,West_Bengal,Kolkata,"Rabindra Bharati University, Kolkata - WBPCB",28-03-2026 08:00:00,22.627847,88.380669,OZONE,31,91,63
India,West_Bengal,Kolkata,"Victoria, Kolkata - WBPCB",28-03-2026 08:00:00,22.5448082,88.3403691,OZONE,16,87,37
India,West_Bengal,Siliguri,"Ward-32 Bapupara, Siliguri - WBPCB",28-03-2026 08:00:00,26.6879226,88.4152495,PM2.5,31,61,46
India,West_Bengal,Asansol,"Asansol Court Area, Asansol - WBPCB",28-03-2026 08:00:00,23.685297,86.945968,NH3,3,9,5
India,West_Bengal,Asansol,"Asansol Court Area, Asansol - WBPCB",28-03-2026 08:00:00,23.685297,86.945968,SO2,21,118,43
India,West_Bengal,Asansol,"Asansol Court Area, Asansol - WBPCB",28-03-2026 08:00:00,23.685297,86.945968,CO,22,119,48
India,West_Bengal,Asansol,"Evelyn Lodge, Asansol - WBPCB",28-03-2026 08:00:00,23.6979360,86.9443950,PM2.5,29,146,56
India,West_Bengal,Asansol,"Evelyn Lodge, Asansol - WBPCB",28-03-2026 08:00:00,23.6979360,86.9443950,CO,11,64,25
India,West_Bengal,Asansol,"Trivenidevi Bhalotia College, Asansol - WBPCB",28-03-2026 08:00:00,23.616515,87.119133,PM2.5,28,172,58
India,West_Bengal,Asansol,"Trivenidevi Bhalotia College, Asansol - WBPCB",28-03-2026 08:00:00,23.616515,87.119133,PM10,34,142,61
India,West_Bengal,Asansol,"Trivenidevi Bhalotia College, Asansol - WBPCB",28-03-2026 08:00:00,23.616515,87.119133,OZONE,17,60,27
India,West_Bengal,Howrah,"Botanical Garden, Howrah - WBPCB",28-03-2026 08:00:00,22.554954,88.292568,NO2,1,32,10
India,West_Bengal,Howrah,"Dasnagar, Howrah - WBPCB",28-03-2026 08:00:00,22.6025571,88.3105664,OZONE,33,133,70
India,West_Bengal,Howrah,"Padmapukur, Howrah - WBPCB",28-03-2026 08:00:00,22.5687319,88.2797276,SO2,7,89,25
India,West_Bengal,Kolkata,"Ballygunge, Kolkata - WBPCB",28-03-2026 08:00:00,22.5367507,88.3638022,PM2.5,35,96,64
India,West_Bengal,Kolkata,"Ballygunge, Kolkata - WBPCB",28-03-2026 08:00:00,22.5367507,88.3638022,NO2,15,38,23
India,West_Bengal,Kolkata,"Ballygunge, Kolkata - WBPCB",28-03-2026 08:00:00,22.5367507,88.3638022,SO2,4,41,14
India,West_Bengal,Kolkata,"Ballygunge, Kolkata - WBPCB",28-03-2026 08:00:00,22.5367507,88.3638022,CO,2,36,28
India,West_Bengal,Barrackpore,"SVSPA Campus, Barrackpore - WBPCB",28-03-2026 08:00:00,22.7605581,88.3617589,OZONE,10,50,22
India,West_Bengal,Durgapur,"Mahishkapur Road_B-Zone, Durgapur - WBPCB",28-03-2026 08:00:00,23.567923,87.306843,NH3,2,3,2
India,West_Bengal,Durgapur,"Mahishkapur Road_B-Zone, Durgapur - WBPCB",28-03-2026 08:00:00,23.567923,87.306843,OZONE,24,77,40
India,West_Bengal,Durgapur,"Womens College_City Center, Durgapur - WBPCB",28-03-2026 08:00:00,23.549395,87.300496,NH3,2,3,3
India,West_Bengal,Haldia,"Priyambada Housing Estate, Haldia - WBPCB",28-03-2026 08:00:00,22.06047,88.109737,CO,32,50,37
India,Uttar_Pradesh,Vrindavan,"Omex Eternity, Vrindavan - UPPCB",28-03-2026 08:00:00,27.5714090,77.6557570,SO2,14,38,19
India,Uttar_Pradesh,Vrindavan,"Omex Eternity, Vrindavan - UPPCB",28-03-2026 08:00:00,27.5714090,77.6557570,CO,6,36,28
India,Uttarakhand,Dehradun,"Doon University, Dehradun - UKPCB",28-03-2026 08:00:00,30.269444,78.044167,PM2.5,19,74,44
India,Uttarakhand,Dehradun,"Doon University, Dehradun - UKPCB",28-03-2026 08:00:00,30.269444,78.044167,NO2,1,3,1
India,Uttarakhand,Dehradun,"Doon University, Dehradun - UKPCB",28-03-2026 08:00:00,30.269444,78.044167,SO2,1,2,1
India,Uttar_Pradesh,Varanasi,"Maldahiya, Varanasi - UPPCB",28-03-2026 08:00:00,25.32393,82.99687,NO2,1,3,2
India,Uttar_Pradesh,Varanasi,"Maldahiya, Varanasi - UPPCB",28-03-2026 08:00:00,25.32393,82.99687,SO2,30,33,30
India,Uttar_Pradesh,Vrindavan,"Omex Eternity, Vrindavan - UPPCB",28-03-2026 08:00:00,27.5714090,77.6557570,NO2,26,27,27
India,Uttar_Pradesh,Vrindavan,"Omex Eternity, Vrindavan - UPPCB",28-03-2026 08:00:00,27.5714090,77.6557570,NH3,3,10,8
India,West_Bengal,Howrah,"Belur Math, Howrah - WBPCB",28-03-2026 08:00:00,22.629801,88.352017,CO,13,37,17
India,West_Bengal,Howrah,"Botanical Garden, Howrah - WBPCB",28-03-2026 08:00:00,22.554954,88.292568,PM2.5,13,70,35
India,Uttar_Pradesh,Raebareli," Indira Nagar, Raebareli - NTPC Unchahar",28-03-2026 08:00:00,26.207781,81.245571,CO,NA,NA,NA
India,Uttar_Pradesh,Raebareli," Indira Nagar, Raebareli - NTPC Unchahar",28-03-2026 08:00:00,26.207781,81.245571,OZONE,5,73,28
India,Uttar_Pradesh,Varanasi,"Bhelupur, Varanasi - UPPCB",28-03-2026 08:00:00,25.301778,82.996789,PM2.5,12,155,38
India,West_Bengal,Siliguri,"Ward-32 Bapupara, Siliguri - WBPCB",28-03-2026 08:00:00,26.6879226,88.4152495,NO2,43,122,69
India,Arunachal_Pradesh,Naharlagun,"Naharlagun, Naharlagun - APSPCB",28-03-2026 08:00:00,27.103358,93.679645,NO2,7,7,7
India,Arunachal_Pradesh,Naharlagun,"Naharlagun, Naharlagun - APSPCB",28-03-2026 08:00:00,27.103358,93.679645,NH3,1,1,1
India,Arunachal_Pradesh,Naharlagun,"Naharlagun, Naharlagun - APSPCB",28-03-2026 08:00:00,27.103358,93.679645,OZONE,6,6,6
India,Assam,Byrnihat,"Central Academy for SFS, Byrnihat - PCBA",28-03-2026 08:00:00,26.071318,91.87488,OZONE,13,49,17
India,Assam,Guwahati,"IITG, Guwahati - PCBA",28-03-2026 08:00:00,26.2028636,91.70046436,PM10,29,154,70
India,Assam,Guwahati,"IITG, Guwahati - PCBA",28-03-2026 08:00:00,26.2028636,91.70046436,SO2,31,35,33
India,Assam,Guwahati,"LGBI Airport, Guwahati - PCBA",28-03-2026 08:00:00,26.10887,91.589544,OZONE,8,14,10
India,Assam,Guwahati,"Pan Bazaar, Guwahati - PCBA",28-03-2026 08:00:00,26.187500,91.744194,PM2.5,1,1,1
India,Andhra_Pradesh,Amaravati,"Secretariat, Amaravati - APPCB",28-03-2026 08:00:00,16.5150833,80.5181667,OZONE,3,64,10
India,Andhra_Pradesh,Anantapur,"Gulzarpet, Anantapur - APPCB",28-03-2026 08:00:00,14.675886,77.593027,OZONE,31,61,40
India,Andhra_Pradesh,Chittoor,"Gangineni Cheruvu, Chittoor - APPCB",28-03-2026 08:00:00,13.204880,79.097889,CO,26,57,48
India,Andhra_Pradesh,Nellore,"Ambedkar Nagar, Nellore - APPCB ",28-03-2026 08:00:00,14.438164 ,79.966814 ,CO,8,26,13
India,Andhra_Pradesh,Rajamahendravaram,"Anand Kala Kshetram, Rajamahendravaram - APPCB",28-03-2026 08:00:00,16.9872867,81.7363176,PM2.5,21,47,29
India,Andhra_Pradesh,Rajamahendravaram,"Anand Kala Kshetram, Rajamahendravaram - APPCB",28-03-2026 08:00:00,16.9872867,81.7363176,NO2,5,19,12
India,Andhra_Pradesh,Tirumala,"Toll Gate, Tirumala - APPCB",28-03-2026 08:00:00,13.67,79.35,OZONE,36,84,74
India,Andhra_Pradesh,Tirupati,"Vaikuntapuram, Tirupati - APPCB",28-03-2026 08:00:00,13.615387,79.409230,SO2,12,19,18
India,Andhra_Pradesh,Tirupati,"Vaikuntapuram, Tirupati - APPCB",28-03-2026 08:00:00,13.615387,79.409230,CO,22,36,31
India,Andhra_Pradesh,Kadapa,"Yerramukkapalli, Kadapa - APPCB",28-03-2026 08:00:00,14.465052,78.824187,OZONE,13,28,17
India,Andhra_Pradesh,Machilipatnam,"Srinivas Nagar Colony, Machilipatnam - APPCB",28-03-2026 08:00:00,16.186555,81.13219,PM2.5,47,251,79
India,Andhra_Pradesh,Vijayawada,"Rajiv Gandhi Park, Vijayawada - APPCB",28-03-2026 08:00:00,16.509717,80.612222,NH3,5,8,5
India,Andhra_Pradesh,Vijayawada,"Rajiv Nagar, Vijayawada - APPCB",28-03-2026 08:00:00,16.554731,80.649110,NO2,NA,NA,NA
India,Andhra_Pradesh,Guntur,"Rajendra Nagar North, Guntur - APPCB",28-03-2026 08:00:00,16.316553,80.413302,OZONE,25,61,25
India,Andhra_Pradesh,Kadapa,"Yerramukkapalli, Kadapa - APPCB",28-03-2026 08:00:00,14.465052,78.824187,PM2.5,57,87,75
India,Andhra_Pradesh,Vijayawada,"HB Colony, Vijayawada - APPCB",28-03-2026 08:00:00,16.536107,80.594233,SO2,8,15,14
India,Andhra_Pradesh,Vijayawada,"Kanuru, Vijayawada - APPCB",28-03-2026 08:00:00,16.486692,80.699436,PM2.5,65,77,68
India,Assam,Guwahati,"Railway Colony, Guwahati - PCBA",28-03-2026 08:00:00,26.181742,91.78063,PM10,29,129,52
India,Assam,Nagaon,"Christianpatty, Nagaon - PCBA",28-03-2026 08:00:00,26.349082,92.68449,PM10,16,83,31
India,Andhra_Pradesh,Visakhapatnam,"GVM Corporation, Visakhapatnam - APPCB",28-03-2026 08:00:00,17.72,83.3,SO2,3,108,42
India,Bihar,Manguraha,"Forest Rest House, Manguraha - BSPCB",28-03-2026 08:00:00,27.308328,84.531742,NO2,5,108,33
India,Bihar,Manguraha,"Forest Rest House, Manguraha - BSPCB",28-03-2026 08:00:00,27.308328,84.531742,SO2,16,17,16
India,Bihar,Motihari,"Gandak Colony, Motihari - BSPCB",28-03-2026 08:00:00,26.63086,84.90051,SO2,3,3,3
India,Bihar,Motihari,"Gandak Colony, Motihari - BSPCB",28-03-2026 08:00:00,26.63086,84.90051,OZONE,3,7,4
India,Bihar,Munger,"Town Hall, Munger - BSPCB",28-03-2026 08:00:00,25.376776,86.471523,SO2,NA,NA,NA
India,Bihar,Muzaffarpur,"Buddha Colony, Muzaffarpur - BSPCB",28-03-2026 08:00:00,26.11442,85.39813,NH3,11,23,17
India,Bihar,Aurangabad,"Gurdeo Nagar, Aurangabad - BSPCB",28-03-2026 08:00:00,24.75746,84.366208,NH3,1,2,1
India,Bihar,Aurangabad,"Gurdeo Nagar, Aurangabad - BSPCB",28-03-2026 08:00:00,24.75746,84.366208,OZONE,7,58,11
India,Bihar,Bettiah,"Kamalnath Nagar, Bettiah - BSPCB",28-03-2026 08:00:00,26.80365,84.51954,OZONE,18,24,21
India,Bihar,Bhagalpur,"DM Office_Kachari Chowk, Bhagalpur - BSPCB",28-03-2026 08:00:00,25.251013,86.989001,OZONE,11,26,15
India,Bihar,Gaya,"Collectorate, Gaya - BSPCB",28-03-2026 08:00:00,24.7955,84.9994,PM2.5,NA,NA,NA
India,Bihar,Gaya,"Collectorate, Gaya - BSPCB",28-03-2026 08:00:00,24.7955,84.9994,OZONE,18,32,19
India,Bihar,Gaya,"Kareemganj, Gaya - BSPCB",28-03-2026 08:00:00,24.792403,84.992416,SO2,29,44,35
India,Bihar,Gaya,"Kareemganj, Gaya - BSPCB",28-03-2026 08:00:00,24.792403,84.992416,CO,1,6,3
India,Bihar,Gaya,"SFTI Kusdihra, Gaya - BSPCB",28-03-2026 08:00:00,24.762518,84.982348,SO2,5,8,7
India,Bihar,Bihar Sharif,"D M Colony, Bihar Sharif - BSPCB",28-03-2026 08:00:00,25.204762,85.514960,PM10,NA,NA,NA
India,Bihar,Chhapra,"Darshan Nagar, Chhapra - BSPCB",28-03-2026 08:00:00,25.7808257,84.7446768,PM10,NA,NA,NA
India,Bihar,Chhapra,"Darshan Nagar, Chhapra - BSPCB",28-03-2026 08:00:00,25.7808257,84.7446768,CO,1,18,8
India,Assam,Nalbari,"Bata Chowk, Nalbari - PCBA",28-03-2026 08:00:00,26.446912,91.439057,CO,20,22,21
India,Assam,Silchar,"Tarapur, Silchar - PCBA",28-03-2026 08:00:00,24.82827,92.79525,PM10,49,64,56
India,Assam,Silchar,"Tarapur, Silchar - PCBA",28-03-2026 08:00:00,24.82827,92.79525,NO2,28,36,32
India,Bihar,Hajipur,"Industrial Area, Hajipur - BSPCB",28-03-2026 08:00:00,25.697189,85.245900,CO,7,46,11
India,Bihar,Katihar,"Mirchaibari, Katihar - BSPCB",28-03-2026 08:00:00,25.560083,87.553265,PM10,20,103,72
India,Bihar,Katihar,"Mirchaibari, Katihar - BSPCB",28-03-2026 08:00:00,25.560083,87.553265,NO2,8,10,9
India,Bihar,Katihar,"Mirchaibari, Katihar - BSPCB",28-03-2026 08:00:00,25.560083,87.553265,OZONE,4,20,7
India,Bihar,Aurangabad,"Gurdeo Nagar, Aurangabad - BSPCB",28-03-2026 08:00:00,24.75746,84.366208,PM2.5,NA,NA,NA
India,Bihar,Hajipur,"Industrial Area, Hajipur - BSPCB",28-03-2026 08:00:00,25.697189,85.245900,NH3,8,11,9
India,Chandigarh,Chandigarh,"Sector 22, Chandigarh - CPCC",28-03-2026 08:00:00,30.735567,76.775714,SO2,NA,NA,NA
India,Chandigarh,Chandigarh,"Sector 22, Chandigarh - CPCC",28-03-2026 08:00:00,30.735567,76.775714,OZONE,NA,NA,NA
India,Chandigarh,Chandigarh,"Sector-25, Chandigarh - CPCC",28-03-2026 08:00:00,30.751462,76.762879,PM2.5,34,60,47
India,Chandigarh,Chandigarh,"Sector-53, Chandigarh - CPCC",28-03-2026 08:00:00,30.719859,76.738637,PM10,15,58,33
India,Chandigarh,Chandigarh,"Sector-53, Chandigarh - CPCC",28-03-2026 08:00:00,30.719859,76.738637,NO2,11,112,40
India,Chandigarh,Chandigarh,"Sector-53, Chandigarh - CPCC",28-03-2026 08:00:00,30.719859,76.738637,NH3,11,18,14
India,Chhattisgarh,Bhilai,"32Bungalows, Bhilai - CECB",28-03-2026 08:00:00,21.194815,81.314770,PM2.5,27,87,40
India,Chhattisgarh,Bhilai,"32Bungalows, Bhilai - CECB",28-03-2026 08:00:00,21.194815,81.314770,NO2,4,22,11
India,Bihar,Patna,"Samanpura, Patna - BSPCB",28-03-2026 08:00:00,25.596727,85.085624,PM10,86,130,109
India,Bihar,Patna,"Samanpura, Patna - BSPCB",28-03-2026 08:00:00,25.596727,85.085624,NO2,33,44,38
India,Bihar,Patna,"Samanpura, Patna - BSPCB",28-03-2026 08:00:00,25.596727,85.085624,CO,39,52,45
India,Bihar,Purnia,"Mariam Nagar, Purnia - BSPCB",28-03-2026 08:00:00,25.366336,87.117468,PM10,46,64,55
India,Bihar,Rajgir,"Dangi Tola, Rajgir - BSPCB",28-03-2026 08:00:00,25.03280,85.41948,PM2.5,25,55,41
India,Bihar,Saharsa,"Police Line, Saharsa - BSPCB",28-03-2026 08:00:00,25.892357,86.590325,PM10,44,175,87
India,Bihar,Saharsa,"Police Line, Saharsa - BSPCB",28-03-2026 08:00:00,25.892357,86.590325,SO2,15,18,16
India,Bihar,Saharsa,"Police Line, Saharsa - BSPCB",28-03-2026 08:00:00,25.892357,86.590325,OZONE,4,20,17
India,Bihar,Samastipur,"DM Office_Kasipur, Samastipur - BSPCB",28-03-2026 08:00:00,25.859655,85.77944,PM2.5,17,322,105
India,Bihar,Samastipur,"DM Office_Kasipur, Samastipur - BSPCB",28-03-2026 08:00:00,25.859655,85.77944,SO2,NA,NA,NA
India,Bihar,Samastipur,"DM Office_Kasipur, Samastipur - BSPCB",28-03-2026 08:00:00,25.859655,85.77944,CO,3,12,12
India,Bihar,Sasaram,"Dada Peer, Sasaram - BSPCB",28-03-2026 08:00:00,24.952822,84.002396,NO2,1,8,4
India,Bihar,Sasaram,"Dada Peer, Sasaram - BSPCB",28-03-2026 08:00:00,24.952822,84.002396,NH3,1,9,4
India,Bihar,Sasaram,"Dada Peer, Sasaram - BSPCB",28-03-2026 08:00:00,24.952822,84.002396,OZONE,8,47,17
India,Bihar,Muzaffarpur,"Muzaffarpur Collectorate, Muzaffarpur - BSPCB",28-03-2026 08:00:00,26.1209,85.3647,OZONE,7,18,7
India,Bihar,Patna,"DRM Office Danapur, Patna - BSPCB",28-03-2026 08:00:00,25.586562,85.043586,PM10,36,288,113
India,Bihar,Patna,"Govt. High School Shikarpur, Patna - BSPCB",28-03-2026 08:00:00,25.592539,85.227158,NO2,15,29,20
India,Chhattisgarh,Korba,"Rampur, Korba - CECB",28-03-2026 08:00:00,22.368195,82.746431,NH3,1,1,1
India,Chhattisgarh,Korba,"Rampur, Korba - CECB",28-03-2026 08:00:00,22.368195,82.746431,SO2,13,96,72
India,Chhattisgarh,Korba,"Urja Nagar, Korba - CECB",28-03-2026 08:00:00,22.348441,82.549611,PM10,39,287,114
India,Chhattisgarh,Bilaspur,"Mangala, Bilaspur - NTPC",28-03-2026 08:00:00,22.08815,82.13737,SO2,4,11,8
India,Chhattisgarh,Chhal,"Nawapara SECL Colony, Chhal - CECB",28-03-2026 08:00:00,22.118125,83.140608,NO2,8,29,15
India,Bihar,Patna,"Rajbansi Nagar, Patna - BSPCB",28-03-2026 08:00:00,25.599486,85.113666,PM2.5,22,104,67
India,Bihar,Patna,"Rajbansi Nagar, Patna - BSPCB",28-03-2026 08:00:00,25.599486,85.113666,NO2,10,11,10
India,Chhattisgarh,Kunjemura,"OP Jindal School, Kunjemura - CECB",28-03-2026 08:00:00,22.126650,83.483212,NH3,2,2,2
India,Chhattisgarh,Korba,"Rampur, Korba - CECB",28-03-2026 08:00:00,22.368195,82.746431,PM10,46,105,72
India,Delhi,Delhi,"Commonwealth Sports Complex, Delhi - DPCC",28-03-2026 08:00:00,28.615828 ,77.271992 ,CO,90,112,109
India,Delhi,Delhi,"Commonwealth Sports Complex, Delhi - DPCC",28-03-2026 08:00:00,28.615828 ,77.271992 ,OZONE,2,64,2
India,Delhi,Delhi,"DTU, Delhi - CPCB",28-03-2026 08:00:00,28.7500499,77.1112615,PM2.5,16,336,116
India,Delhi,Delhi,"DTU, Delhi - CPCB",28-03-2026 08:00:00,28.7500499,77.1112615,SO2,22,36,26
India,Delhi,Delhi,"Dr. Karni Singh Shooting Range, Delhi - DPCC",28-03-2026 08:00:00,28.498571,77.264840,PM10,81,213,135
India,Delhi,Delhi,"Dr. Karni Singh Shooting Range, Delhi - DPCC",28-03-2026 08:00:00,28.498571,77.264840,CO,48,104,58
India,Delhi,Delhi,"Dwarka-Sector 8, Delhi - DPCC ",28-03-2026 08:00:00,28.5710274,77.0719006,PM2.5,30,375,126
India,Delhi,Delhi,"IGI Airport (T3), Delhi - IMD",28-03-2026 08:00:00,28.5627763,77.1180053,OZONE,20,95,21
India,Delhi,Delhi,"IGNOU_Maidan Garhi, Delhi - DPCC",28-03-2026 08:00:00,28.493624 ,77.201159 ,NH3,2,8,5
India,Chhattisgarh,Raipur,"Krishak Nagar, Raipur - CECB",28-03-2026 08:00:00,21.237755,81.705301,NO2,10,15,12
India,Chhattisgarh,Raipur,"Krishak Nagar, Raipur - CECB",28-03-2026 08:00:00,21.237755,81.705301,NH3,2,2,2
India,Chhattisgarh,Raipur,"Krishak Nagar, Raipur - CECB",28-03-2026 08:00:00,21.237755,81.705301,OZONE,1,40,2
India,Chhattisgarh,Raipur,"Siltara Phase-II, Raipur - CECB",28-03-2026 08:00:00,21.371751,81.664929,PM2.5,12,276,71
India,Delhi,Delhi,"Alipur, Delhi - DPCC",28-03-2026 08:00:00,28.815329,77.153010,PM2.5,28,324,114
India,Delhi,Delhi,"Alipur, Delhi - DPCC",28-03-2026 08:00:00,28.815329,77.153010,CO,22,46,38
India,Delhi,Delhi,"Anand Vihar, Delhi - DPCC",28-03-2026 08:00:00,28.647622,77.3158090,PM2.5,3,332,117
India,Delhi,Delhi,"Anand Vihar, Delhi - DPCC",28-03-2026 08:00:00,28.647622,77.3158090,PM10,74,381,176
India,Delhi,Delhi,"Ashok Vihar, Delhi - DPCC",28-03-2026 08:00:00,28.695381,77.181665,PM2.5,28,348,113
India,Delhi,Delhi,"Bawana, Delhi - DPCC",28-03-2026 08:00:00,28.776200,77.051074,PM2.5,37,383,190
India,Delhi,Delhi,"Bawana, Delhi - DPCC",28-03-2026 08:00:00,28.776200,77.051074,SO2,11,78,29
India,Delhi,Delhi,"Burari Crossing, Delhi - IMD",28-03-2026 08:00:00,28.7256504,77.2011573,NO2,20,46,32
India,Delhi,Delhi,"CRRI Mathura Road, Delhi - IMD",28-03-2026 08:00:00,28.5512005,77.2735737,PM2.5,37,313,101
India,Delhi,Delhi,"Cantonment Area, Delhi - DPCC ",28-03-2026 08:00:00,28.594169 ,77.125100 ,NH3,1,7,3
India,Delhi,Delhi,"Chandni Chowk, Delhi - IITM",28-03-2026 08:00:00,28.656756,77.227234,PM2.5,51,175,83
India,Delhi,Delhi,"Chandni Chowk, Delhi - IITM",28-03-2026 08:00:00,28.656756,77.227234,PM10,121,311,162
India,Delhi,Delhi,"Commonwealth Sports Complex, Delhi - DPCC",28-03-2026 08:00:00,28.615828 ,77.271992 ,PM2.5,29,360,130
India,Delhi,Delhi,"Lodhi Road, Delhi - IMD",28-03-2026 08:00:00,28.5918245,77.2273074,NO2,13,40,27
India,Delhi,Delhi,"Major Dhyan Chand National Stadium, Delhi - DPCC",28-03-2026 08:00:00,28.611281,77.237738,NH3,15,20,16
India,Delhi,Delhi,"Mandir Marg, Delhi - DPCC",28-03-2026 08:00:00,28.636429,77.201067,PM2.5,110,348,198
India,Delhi,Delhi,"Mandir Marg, Delhi - DPCC",28-03-2026 08:00:00,28.636429,77.201067,OZONE,2,106,5
India,Delhi,Delhi,"Mundka, Delhi - DPCC",28-03-2026 08:00:00,28.684678,77.076574,CO,39,84,73
India,Delhi,Delhi,"NSIT Dwarka, Delhi - CPCB",28-03-2026 08:00:00,28.60909,77.0325413,PM2.5,51,270,90
India,Delhi,Delhi,"NSIT Dwarka, Delhi - CPCB",28-03-2026 08:00:00,28.60909,77.0325413,NO2,58,151,106
India,Delhi,Delhi,"IGNOU_Maidan Garhi, Delhi - DPCC",28-03-2026 08:00:00,28.493624 ,77.201159 ,CO,117,125,125
India,Delhi,Delhi,"IHBAS, Dilshad Garden, Delhi - CPCB",28-03-2026 08:00:00,28.6811736,77.3025234,CO,41,110,96
India,Delhi,Delhi,"IHBAS, Dilshad Garden, Delhi - CPCB",28-03-2026 08:00:00,28.6811736,77.3025234,OZONE,27,33,29
India,Delhi,Delhi,"JNU, Delhi - DPCC",28-03-2026 08:00:00,28.540721 ,77.168544 ,NH3,3,8,4
India,Delhi,Delhi,"Jawaharlal Nehru Stadium, Delhi - DPCC",28-03-2026 08:00:00,28.580280,77.233829,PM2.5,37,372,105
India,Chhattisgarh,Kunjemura,"OP Jindal School, Kunjemura - CECB",28-03-2026 08:00:00,22.126650,83.483212,OZONE,2,61,10
India,Chhattisgarh,Raipur,"AIIMS, Raipur - CECB",28-03-2026 08:00:00,21.258815,81.578979,PM2.5,23,59,37
India,Chhattisgarh,Raipur,"AIIMS, Raipur - CECB",28-03-2026 08:00:00,21.258815,81.578979,NH3,3,5,4
India,Chhattisgarh,Raipur,"Bhatagaon New ISBT, Raipur - CECB",28-03-2026 08:00:00,21.219665,81.630094,NO2,23,45,31
India,Chhattisgarh,Raipur,"Bhatagaon New ISBT, Raipur - CECB",28-03-2026 08:00:00,21.219665,81.630094,NH3,2,2,2
India,Delhi,Delhi,"NSIT Dwarka, Delhi - CPCB",28-03-2026 08:00:00,28.60909,77.0325413,SO2,11,22,15
India,Delhi,Delhi,"NSUT Jaffarpur, Delhi - DPCC",28-03-2026 08:00:00,28.594004 ,76.909423 ,PM10,53,209,116
India,Delhi,Delhi,"NSUT Jaffarpur, Delhi - DPCC",28-03-2026 08:00:00,28.594004 ,76.909423 ,NO2,2,85,39
India,Delhi,Delhi,"Najafgarh, Delhi - DPCC",28-03-2026 08:00:00,28.570173,76.933762,PM2.5,22,303,104
India,Delhi,Delhi,"Najafgarh, Delhi - DPCC",28-03-2026 08:00:00,28.570173,76.933762,OZONE,3,113,6
India,Delhi,Delhi,"Narela, Delhi - DPCC",28-03-2026 08:00:00,28.822836,77.101981,PM2.5,20,378,142
India,Delhi,Delhi,"NSUT Jaffarpur, Delhi - DPCC",28-03-2026 08:00:00,28.594004 ,76.909423 ,CO,126,140,138
India,Gujarat,Ahmedabad,"SAC ISRO Satellite, Ahmedabad - IITM",28-03-2026 08:00:00,23.023389,72.515201,SO2,3,23,10
India,Gujarat,Ahmedabad,"SVPI Airport Hansol, Ahmedabad - IITM",28-03-2026 08:00:00,23.076793,72.627874,PM2.5,13,43,29
India,Gujarat,Ahmedabad,"SVPI Airport Hansol, Ahmedabad - IITM",28-03-2026 08:00:00,23.076793,72.627874,SO2,4,15,7
India,Gujarat,Ahmedabad,"SVPI Airport Hansol, Ahmedabad - IITM",28-03-2026 08:00:00,23.076793,72.627874,OZONE,5,60,20
India,Gujarat,Ankleshwar,"GIDC, Ankleshwar - GPCB",28-03-2026 08:00:00,21.613267,73.010555,PM2.5,41,93,66
India,Gujarat,Bhavnagar,"Vidhyanagar, Bhavnagar - Nexteng Enviro",28-03-2026 08:00:00,21.755417,72.139056,PM2.5,15,156,60
India,Gujarat,Bhavnagar,"Vidhyanagar, Bhavnagar - Nexteng Enviro",28-03-2026 08:00:00,21.755417,72.139056,PM10,42,149,88
India,Gujarat,Bhavnagar,"Vidhyanagar, Bhavnagar - Nexteng Enviro",28-03-2026 08:00:00,21.755417,72.139056,SO2,7,45,14
India,Gujarat,Bhavnagar,"Vidhyanagar, Bhavnagar - Nexteng Enviro",28-03-2026 08:00:00,21.755417,72.139056,OZONE,2,10,5
India,Gujarat,Gandhinagar,"GIFT City, Gandhinagar - IITM",28-03-2026 08:00:00,23.163798,72.677768,NH3,5,10,6
India,Gujarat,Gandhinagar,"GIFT City, Gandhinagar - IITM",28-03-2026 08:00:00,23.163798,72.677768,CO,43,88,69
India,Gujarat,Gandhinagar,"IIPHG Lekawada, Gandhinagar - IITM",28-03-2026 08:00:00,23.243639,72.68994,PM2.5,13,65,34
India,Gujarat,Gandhinagar,"IIPHG Lekawada, Gandhinagar - IITM",28-03-2026 08:00:00,23.243639,72.68994,CO,1,16,7
India,Gujarat,Ahmedabad,"Chandkheda, Ahmedabad - IITM",28-03-2026 08:00:00,23.107969,72.574648,OZONE,20,82,34
India,Gujarat,Ahmedabad,"Gyaspur, Ahmedabad - IITM",28-03-2026 08:00:00,22.977134,72.553024,PM2.5,NA,NA,NA
India,Gujarat,Ahmedabad,"Gyaspur, Ahmedabad - IITM",28-03-2026 08:00:00,22.977134,72.553024,NO2,NA,NA,NA
India,Gujarat,Ahmedabad,"Gyaspur, Ahmedabad - IITM",28-03-2026 08:00:00,22.977134,72.553024,OZONE,NA,NA,NA
India,Gujarat,Ahmedabad,"Maninagar, Ahmedabad - GPCB",28-03-2026 08:00:00,23.002657,72.591912,PM10,50,91,70
India,Gujarat,Ahmedabad,"Rakhial, Ahmedabad - IITM",28-03-2026 08:00:00,23.016834,72.625775,PM2.5,17,56,40
India,Gujarat,Ahmedabad,"Rakhial, Ahmedabad - IITM",28-03-2026 08:00:00,23.016834,72.625775,NO2,31,132,59
India,Gujarat,Ahmedabad,"SAC ISRO Bopal, Ahmedabad - IITM",28-03-2026 08:00:00,23.041137,72.456691,SO2,4,8,6
India,Gujarat,Ahmedabad,"SAC ISRO Bopal, Ahmedabad - IITM",28-03-2026 08:00:00,23.041137,72.456691,CO,26,46,40
India,Gujarat,Ahmedabad,"SAC ISRO Satellite, Ahmedabad - IITM",28-03-2026 08:00:00,23.023389,72.515201,PM2.5,36,82,50
India,Delhi,Delhi,"Talkatora Garden, Delhi - DPCC",28-03-2026 08:00:00,28.621810,77.1944633,NO2,7,22,16
India,Delhi,Delhi,"Talkatora Garden, Delhi - DPCC",28-03-2026 08:00:00,28.621810,77.1944633,OZONE,1,37,2
India,Delhi,Delhi,"Vivek Vihar, Delhi - DPCC",28-03-2026 08:00:00,28.672342,77.315260,PM2.5,32,323,97
India,Delhi,Delhi,"Vivek Vihar, Delhi - DPCC",28-03-2026 08:00:00,28.672342,77.315260,NH3,5,6,6
India,Delhi,Delhi,"Vivek Vihar, Delhi - DPCC",28-03-2026 08:00:00,28.672342,77.315260,SO2,9,23,13
India,Delhi,Delhi,"Wazirpur, Delhi - DPCC",28-03-2026 08:00:00,28.699793,77.165453,NH3,7,9,8
India,Delhi,Delhi,"Wazirpur, Delhi - DPCC",28-03-2026 08:00:00,28.699793,77.165453,OZONE,20,98,26
India,Gujarat,Ahmedabad,"Chandkheda, Ahmedabad - IITM",28-03-2026 08:00:00,23.107969,72.574648,PM2.5,14,49,33
India,Gujarat,Ahmedabad,"Chandkheda, Ahmedabad - IITM",28-03-2026 08:00:00,23.107969,72.574648,NH3,5,7,6
India,Delhi,Delhi,"Sirifort, Delhi - CPCB",28-03-2026 08:00:00,28.5504249,77.2159377,SO2,29,33,32
India,Delhi,Delhi,"Sonia Vihar, Delhi - DPCC",28-03-2026 08:00:00,28.710508,77.249485,NO2,13,48,29
India,Delhi,Delhi,"Sonia Vihar, Delhi - DPCC",28-03-2026 08:00:00,28.710508,77.249485,NH3,6,8,7
India,Delhi,Delhi,"Sonia Vihar, Delhi - DPCC",28-03-2026 08:00:00,28.710508,77.249485,SO2,28,48,36
India,Delhi,Delhi,"Sonia Vihar, Delhi - DPCC",28-03-2026 08:00:00,28.710508,77.249485,OZONE,2,109,4
India,Delhi,Delhi,"Narela, Delhi - DPCC",28-03-2026 08:00:00,28.822836,77.101981,SO2,12,31,19
India,Delhi,Delhi,"Nehru Nagar, Delhi - DPCC",28-03-2026 08:00:00,28.567890,77.250515,PM2.5,30,378,116
India,Delhi,Delhi,"Nehru Nagar, Delhi - DPCC",28-03-2026 08:00:00,28.567890,77.250515,OZONE,1,116,3
India,Delhi,Delhi,"North Campus, DU, Delhi - IMD",28-03-2026 08:00:00,28.6573814,77.1585447,PM2.5,30,293,93
India,Delhi,Delhi,"Patparganj, Delhi - DPCC",28-03-2026 08:00:00,28.623763,77.287209,NO2,15,102,61
India,Delhi,Delhi,"Patparganj, Delhi - DPCC",28-03-2026 08:00:00,28.623763,77.287209,CO,50,102,80
India,Delhi,Delhi,"Punjabi Bagh, Delhi - DPCC",28-03-2026 08:00:00,28.674045,77.131023,NH3,3,5,4
India,Delhi,Delhi,"Pusa, Delhi - DPCC",28-03-2026 08:00:00,28.639652,77.146275,PM10,96,298,157
India,Delhi,Delhi,"Pusa, Delhi - DPCC",28-03-2026 08:00:00,28.639652,77.146275,CO,53,116,60
India,Delhi,Delhi,"Pusa, Delhi - IMD",28-03-2026 08:00:00,28.636110,77.173332,NO2,38,168,107
India,Delhi,Delhi,"Pusa, Delhi - IMD",28-03-2026 08:00:00,28.636110,77.173332,OZONE,2,312,13
India,Delhi,Delhi,"R K Puram, Delhi - DPCC",28-03-2026 08:00:00,28.563262,77.186937,PM2.5,NA,NA,NA
India,Delhi,Delhi,"R K Puram, Delhi - DPCC",28-03-2026 08:00:00,28.563262,77.186937,PM10,NA,NA,NA
India,Delhi,Delhi,"Rohini, Delhi - DPCC",28-03-2026 08:00:00,28.732528,77.119920,CO,9,92,48
India,Gujarat,Vadodara,"Bapunagar, Vadodara - Nexteng Enviro",28-03-2026 08:00:00,22.320153,73.216285,PM2.5,24,225,69
India,Gujarat,Vadodara,"Bapunagar, Vadodara - Nexteng Enviro",28-03-2026 08:00:00,22.320153,73.216285,PM10,42,129,74
India,Gujarat,Vadodara,"Bapunagar, Vadodara - Nexteng Enviro",28-03-2026 08:00:00,22.320153,73.216285,NO2,1,18,10
India,Gujarat,Vapi,"Phase-1 GIDC, Vapi - GPCB",28-03-2026 08:00:00,20.362421,72.918013,NO2,24,27,25
India,Haryana,Ambala,"Patti Mehar, Ambala - HSPCB",28-03-2026 08:00:00,30.379589,76.778328,SO2,15,32,22
India,Haryana,Ambala,"Patti Mehar, Ambala - HSPCB",28-03-2026 08:00:00,30.379589,76.778328,CO,22,48,23
India,Haryana,Ballabgarh,"Nathu Colony, Ballabgarh - HSPCB",28-03-2026 08:00:00,28.3419248,77.319699,NO2,19,21,20
India,Haryana,Bhiwani,"H.B. Colony, Bhiwani - HSPCB",28-03-2026 08:00:00,28.806223,76.141105,PM2.5,44,124,62
India,Gujarat,Gandhinagar,"Sector-10, Gandhinagar - GPCB",28-03-2026 08:00:00,23.221714,72.654328,CO,19,30,28
India,Gujarat,Nandesari,"GIDC, Nandesari - Nandesari Ind. Association",28-03-2026 08:00:00,22.410802,73.097923,PM2.5,57,338,170
India,Gujarat,Nandesari,"GIDC, Nandesari - Nandesari Ind. Association",28-03-2026 08:00:00,22.410802,73.097923,PM10,69,257,136
India,Gujarat,Rajkot,"Mavdi, Rajkot - Nexteng Enviro ",28-03-2026 08:00:00,22.248853,70.776774,NH3,NA,NA,NA
India,Gujarat,Surat,"Science Center, Surat - SMC",28-03-2026 08:00:00,21.170046,72.795405,CO,88,107,100
India,Haryana,Gurugram,"Vikas Sadan, Gurugram - HSPCB",28-03-2026 08:00:00,28.4501238,77.0263051,NO2,9,45,26
India,Haryana,Hisar,"Urban Estate-II, Hisar - HSPCB",28-03-2026 08:00:00,29.140560,75.744941,PM10,NA,NA,NA
India,Haryana,Hisar,"Urban Estate-II, Hisar - HSPCB",28-03-2026 08:00:00,29.140560,75.744941,SO2,8,14,10
India,Haryana,Hisar,"Urban Estate-II, Hisar - HSPCB",28-03-2026 08:00:00,29.140560,75.744941,CO,7,66,56
India,Haryana,Hisar,"Urban Estate-II, Hisar - HSPCB",28-03-2026 08:00:00,29.140560,75.744941,OZONE,18,106,30
India,Haryana,Faridabad,"Sector 11, Faridabad - HSPCB",28-03-2026 08:00:00,28.376058,77.315741,CO,40,41,40
India,Haryana,Faridabad,"Sector 30, Faridabad - HSPCB",28-03-2026 08:00:00,28.4417,77.3217,NO2,37,40,38
India,Haryana,Faridabad,"Sector 30, Faridabad - HSPCB",28-03-2026 08:00:00,28.4417,77.3217,OZONE,10,10,10
India,Haryana,Gurugram,"NISE Gwal Pahari, Gurugram - IMD",28-03-2026 08:00:00,28.422681,77.148944,PM10,86,176,129
India,Haryana,Bhiwani,"H.B. Colony, Bhiwani - HSPCB",28-03-2026 08:00:00,28.806223,76.141105,SO2,1,11,5
India,Haryana,Charkhi Dadri,"Mini Secretariat, Charkhi Dadri - HSPCB",28-03-2026 08:00:00,28.593883,76.270653,PM10,9,182,118
India,Haryana,Karnal,"Sector-12, Karnal - HSPCB",28-03-2026 08:00:00,29.695300,77.002700,NO2,6,7,6
India,Haryana,Karnal,"Sector-12, Karnal - HSPCB",28-03-2026 08:00:00,29.695300,77.002700,SO2,7,12,10
India,Haryana,Dharuhera,"Municipal Corporation Office, Dharuhera -  HSPCB",28-03-2026 08:00:00,28.206800,76.799700,NH3,NA,NA,NA
India,Haryana,Faridabad,"Sector 11, Faridabad - HSPCB",28-03-2026 08:00:00,28.376058,77.315741,SO2,2,38,6
India,Haryana,Gurugram,"Sector-51, Gurugram - HSPCB",28-03-2026 08:00:00,28.4227,77.0667,OZONE,10,46,11
India,Haryana,Sirsa,"F-Block, Sirsa - HSPCB",28-03-2026 08:00:00,29.536400,75.015800,NO2,19,20,19
India,Haryana,Sonipat,"Murthal, Sonipat - HSPCB",28-03-2026 08:00:00,29.027200,77.062100,NH3,21,21,21
India,Haryana,Yamuna Nagar,"Gobind Pura, Yamuna Nagar - HSPCB",28-03-2026 08:00:00,30.1480566,77.2893471,NH3,1,6,4
India,Himachal Pradesh,Baddi,"HIMUDA Complex Phase-1, Baddi - HPPCB",28-03-2026 08:00:00,30.943887,76.801991,PM2.5,50,217,101
India,Himachal Pradesh,Baddi,"HIMUDA Complex Phase-1, Baddi - HPPCB",28-03-2026 08:00:00,30.943887,76.801991,SO2,20,88,45
India,Jammu_and_Kashmir,Srinagar,"Khunmoh, Srinagar - JKPCC",28-03-2026 08:00:00,34.06313,74.96017,PM10,23,56,38
India,Jharkhand,Dhanbad,"Sardar Patel Nagar, Dhanbad - JSPCB",28-03-2026 08:00:00,23.80569,86.44268,PM2.5,3,349,101
India,Jharkhand,Dhanbad,"Sardar Patel Nagar, Dhanbad - JSPCB",28-03-2026 08:00:00,23.80569,86.44268,SO2,NA,NA,NA
India,Jharkhand,Dhanbad,"Sardar Patel Nagar, Dhanbad - JSPCB",28-03-2026 08:00:00,23.80569,86.44268,CO,5,87,65
India,Karnataka,Bagalkot,"Vidayagiri, Bagalkot - KSPCB",28-03-2026 08:00:00,16.172806,75.659694,SO2,7,7,7
India,Karnataka,Bagalkot,"Vidayagiri, Bagalkot - KSPCB",28-03-2026 08:00:00,16.172806,75.659694,OZONE,12,12,12
India,Karnataka,Bengaluru,"BTM Layout, Bengaluru - CPCB",28-03-2026 08:00:00,12.9135218,77.5950804,PM2.5,34,54,43
India,Haryana,Mandikhera,"General Hospital, Mandikhera(Nuh) - HSPCB",28-03-2026 08:00:00,27.9002,76.9938,PM2.5,33,482,78
India,Haryana,Mandikhera,"General Hospital, Mandikhera(Nuh) - HSPCB",28-03-2026 08:00:00,27.9002,76.9938,PM10,39,500,88
India,Haryana,Narnaul,"Shastri Nagar, Narnaul - HSPCB",28-03-2026 08:00:00,28.060249,76.113115,NO2,21,27,24
India,Haryana,Narnaul,"Shastri Nagar, Narnaul - HSPCB",28-03-2026 08:00:00,28.060249,76.113115,NH3,4,6,5
India,Haryana,Panipat,"Sector-18, Panipat - HSPCB",28-03-2026 08:00:00,29.432304,76.972765,CO,50,50,50
India,Haryana,Panipat,"Sector-18, Panipat - HSPCB",28-03-2026 08:00:00,29.432304,76.972765,OZONE,30,30,30
India,Haryana,Rohtak,"MD University, Rohtak - HSPCB",28-03-2026 08:00:00,28.52123,76.37138,PM2.5,7,459,118
India,Haryana,Rohtak,"MD University, Rohtak - HSPCB",28-03-2026 08:00:00,28.52123,76.37138,NO2,10,13,11
India,Haryana,Palwal,"Shyam Nagar, Palwal - HSPCB",28-03-2026 08:00:00,28.1485564,77.3320667,NH3,8,9,9
India,Haryana,Panchgaon,"Amity University, Panchgaon - IITM",28-03-2026 08:00:00,28.3153,76.9143,NO2,7,45,17
India,Karnataka,Bengaluru,"BWSSB Kadabesanahalli, Bengaluru - CPCB",28-03-2026 08:00:00,12.9352049,77.6814488,PM10,NA,NA,NA
India,Karnataka,Bengaluru,"BWSSB Kadabesanahalli, Bengaluru - CPCB",28-03-2026 08:00:00,12.9352049,77.6814488,NO2,NA,NA,NA
India,Karnataka,Bengaluru,"BWSSB Kadabesanahalli, Bengaluru - CPCB",28-03-2026 08:00:00,12.9352049,77.6814488,CO,NA,NA,NA
India,Karnataka,Bengaluru,"Bapuji Nagar, Bengaluru - KSPCB",28-03-2026 08:00:00,12.951913,77.539784,NH3,1,3,2
India,Haryana,Kurukshetra,"Sector-7, Kurukshetra - HSPCB",28-03-2026 08:00:00,29.966942,76.875879,NH3,6,7,6
India,Haryana,Rohtak,"MD University, Rohtak - HSPCB",28-03-2026 08:00:00,28.52123,76.37138,OZONE,39,40,40
India,Karnataka,Bengaluru,"Silk Board, Bengaluru - KSPCB",28-03-2026 08:00:00,12.917348,77.622813,PM2.5,53,116,82
India,Karnataka,Bengaluru,"Silk Board, Bengaluru - KSPCB",28-03-2026 08:00:00,12.917348,77.622813,PM10,104,178,132
India,Karnataka,Chamarajanagar,"Urban, Chamarajanagar - KSPCB",28-03-2026 08:00:00,11.55358,76.55521,PM10,33,85,57
India,Karnataka,Chamarajanagar,"Urban, Chamarajanagar - KSPCB",28-03-2026 08:00:00,11.55358,76.55521,NO2,22,30,28
India,Karnataka,Chamarajanagar,"Urban, Chamarajanagar - KSPCB",28-03-2026 08:00:00,11.55358,76.55521,SO2,2,8,4
India,Karnataka,Chikkaballapur,"Chikkaballapur Rural, Chikkaballapur - KSPCB",28-03-2026 08:00:00,13.428828,77.731418,PM10,40,104,66
India,Karnataka,Chikkaballapur,"Chikkaballapur Rural, Chikkaballapur - KSPCB",28-03-2026 08:00:00,13.428828,77.731418,NH3,2,3,3
India,Karnataka,Shivamogga,"Vinoba Nagara, Shivamogga - KSPCB",28-03-2026 08:00:00,13.940000,75.555917,PM2.5,38,110,42
India,Karnataka,Udupi,"Brahmagiri, Udupi - KSPCB",28-03-2026 08:00:00,13.34194444,74.74694444,PM2.5,NA,NA,NA
India,Karnataka,Udupi,"Brahmagiri, Udupi - KSPCB",28-03-2026 08:00:00,13.34194444,74.74694444,NH3,1,2,2
India,Karnataka,Vijayapura,"Ibrahimpur, Vijayapura - KSPCB",28-03-2026 08:00:00,16.802639,75.722694,PM10,38,39,39
India,Karnataka,Vijayapura,"Ibrahimpur, Vijayapura - KSPCB",28-03-2026 08:00:00,16.802639,75.722694,NO2,11,12,11
India,Karnataka,Koppal,"Diwator Nagar, Koppal - KSPCB",28-03-2026 08:00:00,15.347630,76.181767,NO2,29,30,30
India,Karnataka,Koppal,"Diwator Nagar, Koppal - KSPCB",28-03-2026 08:00:00,15.347630,76.181767,NH3,8,8,8
India,Karnataka,Madikeri,"Stuart Hill, Madikeri - KSPCB",28-03-2026 08:00:00,12.415911,75.735050,OZONE,2,8,3
India,Karnataka,Mangalore,"Kadri, Mangalore - KSPCB",28-03-2026 08:00:00,12.889250,74.853000,PM10,56,84,69
India,Karnataka,Mangalore,"Kadri, Mangalore - KSPCB",28-03-2026 08:00:00,12.889250,74.853000,OZONE,19,68,41
India,Karnataka,Dharwad,"Kalabhavan, Dharwad - KSPCB",28-03-2026 08:00:00,15.459706,75.008381,PM2.5,38,139,58
India,Karnataka,Dharwad,"Kalabhavan, Dharwad - KSPCB",28-03-2026 08:00:00,15.459706,75.008381,PM10,46,136,70
India,Karnataka,Dharwad,"Kalabhavan, Dharwad - KSPCB",28-03-2026 08:00:00,15.459706,75.008381,CO,24,86,61
India,Karnataka,Hubballi,"Lingaraj Nagar, Hubballi - KSPCB",28-03-2026 08:00:00,15.3714823,75.1160168,PM10,54,59,55
India,Karnataka,Bengaluru,"Sanegurava Halli, Bengaluru - KSPCB",28-03-2026 08:00:00,12.990328,77.5431385,PM10,60,62,60
India,Karnataka,Bengaluru,"Sanegurava Halli, Bengaluru - KSPCB",28-03-2026 08:00:00,12.990328,77.5431385,CO,6,42,13
India,Karnataka,Bengaluru,"Shivapura_Peenya, Bengaluru - KSPCB",28-03-2026 08:00:00,13.0246342,77.5080115,NO2,23,24,23
India,Karnataka,Bengaluru,"City Railway Station, Bengaluru - KSPCB",28-03-2026 08:00:00,12.9756843,77.5660749,PM10,104,104,104
India,Karnataka,Bengaluru,"Hebbal, Bengaluru - KSPCB",28-03-2026 08:00:00,13.029152,77.585901,SO2,12,16,14
India,Karnataka,Bengaluru,"Jigani, Bengaluru - KSPCB",28-03-2026 08:00:00,12.7816279,77.6299145,PM10,87,230,117
India,Karnataka,Bengaluru,"Jigani, Bengaluru - KSPCB",28-03-2026 08:00:00,12.7816279,77.6299145,OZONE,25,26,25
India,Karnataka,Ramanagara,"Vijay Nagar, Ramanagara - KSPCB",28-03-2026 08:00:00,12.733409,77.298051,PM10,51,123,68
