country,state,city,station,last_update,latitude,longitude,pollutant_id,min_value,max_value,avg_value
India,Arunachal_Pradesh,Naharlagun,"Naharlagun, Naharlagun - APSPCB",02-03-2026 04:00:00,27.103358,93.679645,OZONE,5,6,6
India,Assam,Byrnihat,"Central Academy for SFS, Byrnihat - PCBA",02-03-2026 04:00:00,26.071318,91.87488,NO2,4,12,7
India,Assam,Byrnihat,"Central Academy for SFS, Byrnihat - PCBA",02-03-2026 04:00:00,26.071318,91.87488,NH3,4,4,4
India,Assam,Byrnihat,"Central Academy for SFS, Byrnihat - PCBA",02-03-2026 04:00:00,26.071318,91.87488,SO2,4,32,31
India,Assam,Byrnihat,"Central Academy for SFS, Byrnihat - PCBA",02-03-2026 04:00:00,26.071318,91.87488,CO,30,87,52
India,Assam,Guwahati,"LGBI Airport, Guwahati - PCBA",02-03-2026 04:00:00,26.10887,91.589544,OZONE,13,15,14
India,Assam,Guwahati,"Pan Bazaar, Guwahati - PCBA",02-03-2026 04:00:00,26.187500,91.744194,PM10,27,68,50
India,Assam,Guwahati,"Pan Bazaar, Guwahati - PCBA",02-03-2026 04:00:00,26.187500,91.744194,NH3,1,1,1
India,Assam,Nagaon,"Christianpatty, Nagaon - PCBA",02-03-2026 04:00:00,26.349082,92.68449,PM2.5,47,138,69
India,Assam,Nagaon,"Christianpatty, Nagaon - PCBA",02-03-2026 04:00:00,26.349082,92.68449,NH3,4,4,4
India,Assam,Nagaon,"Christianpatty, Nagaon - PCBA",02-03-2026 04:00:00,26.349082,92.68449,CO,12,26,19
India,Assam,Nalbari,"Bata Chowk, Nalbari - PCBA",02-03-2026 04:00:00,26.446912,91.439057,PM10,114,119,117
India,Assam,Nalbari,"Bata Chowk, Nalbari - PCBA",02-03-2026 04:00:00,26.446912,91.439057,NH3,1,7,6
India,Assam,Nalbari,"Bata Chowk, Nalbari - PCBA",02-03-2026 04:00:00,26.446912,91.439057,SO2,4,8,7
India,Bihar,Kishanganj,"SDM Office_Khagra, Kishanganj - BSPCB",02-03-2026 04:00:00,26.0881305,87.93840336,NO2,NA,NA,NA
India,Bihar,Motihari,"Gandak Colony, Motihari - BSPCB",02-03-2026 04:00:00,26.63086,84.90051,PM2.5,47,301,124
India,Bihar,Motihari,"Gandak Colony, Motihari - BSPCB",02-03-2026 04:00:00,26.63086,84.90051,CO,32,44,38
India,Bihar,Munger,"Town Hall, Munger - BSPCB",02-03-2026 04:00:00,25.376776,86.471523,PM10,38,153,79
India,Bihar,Munger,"Town Hall, Munger - BSPCB",02-03-2026 04:00:00,25.376776,86.471523,NO2,4,5,5
India,Bihar,Munger,"Town Hall, Munger - BSPCB",02-03-2026 04:00:00,25.376776,86.471523,NH3,2,3,3
India,Bihar,Muzaffarpur,"Buddha Colony, Muzaffarpur - BSPCB",02-03-2026 04:00:00,26.11442,85.39813,NO2,26,75,43
India,Bihar,Muzaffarpur,"Buddha Colony, Muzaffarpur - BSPCB",02-03-2026 04:00:00,26.11442,85.39813,NH3,10,22,16
India,Bihar,Muzaffarpur,"Buddha Colony, Muzaffarpur - BSPCB",02-03-2026 04:00:00,26.11442,85.39813,SO2,4,7,5
India,Bihar,Muzaffarpur,"Buddha Colony, Muzaffarpur - BSPCB",02-03-2026 04:00:00,26.11442,85.39813,OZONE,8,130,39
India,Bihar,Muzaffarpur,"MIT-Daudpur Kothi, Muzaffarpur - BSPCB",02-03-2026 04:00:00,26.1403345,85.3650192,PM2.5,75,92,83
India,Bihar,Muzaffarpur,"MIT-Daudpur Kothi, Muzaffarpur - BSPCB",02-03-2026 04:00:00,26.1403345,85.3650192,PM10,60,69,64
India,Bihar,Patna,"Samanpura, Patna - BSPCB",02-03-2026 04:00:00,25.596727,85.085624,PM10,86,210,132
India,Bihar,Patna,"Samanpura, Patna - BSPCB",02-03-2026 04:00:00,25.596727,85.085624,NO2,31,40,35
India,Bihar,Patna,"Samanpura, Patna - BSPCB",02-03-2026 04:00:00,25.596727,85.085624,CO,72,108,98
India,Bihar,Purnia,"Mariam Nagar, Purnia - BSPCB",02-03-2026 04:00:00,25.366336,87.117468,PM10,59,81,71
India,Bihar,Rajgir,"Dangi Tola, Rajgir - BSPCB",02-03-2026 04:00:00,25.03280,85.41948,NO2,13,15,14
India,Bihar,Rajgir,"Dangi Tola, Rajgir - BSPCB",02-03-2026 04:00:00,25.03280,85.41948,NH3,3,3,3
India,Bihar,Rajgir,"Dangi Tola, Rajgir - BSPCB",02-03-2026 04:00:00,25.03280,85.41948,OZONE,23,29,26
India,Bihar,Saharsa,"Police Line, Saharsa - BSPCB",02-03-2026 04:00:00,25.892357,86.590325,NO2,6,8,7
India,Bihar,Samastipur,"DM Office_Kasipur, Samastipur - BSPCB",02-03-2026 04:00:00,25.859655,85.77944,PM10,NA,NA,NA
India,Bihar,Samastipur,"DM Office_Kasipur, Samastipur - BSPCB",02-03-2026 04:00:00,25.859655,85.77944,OZONE,NA,NA,NA
India,Bihar,Sasaram,"Dada Peer, Sasaram - BSPCB",02-03-2026 04:00:00,24.952822,84.002396,PM2.5,17,53,30
India,Bihar,Chhapra,"Darshan Nagar, Chhapra - BSPCB",02-03-2026 04:00:00,25.7808257,84.7446768,PM2.5,NA,NA,NA
India,Bihar,Gaya,"Collectorate, Gaya - BSPCB",02-03-2026 04:00:00,24.7955,84.9994,CO,NA,NA,NA
India,Bihar,Gaya,"Kareemganj, Gaya - BSPCB",02-03-2026 04:00:00,24.792403,84.992416,OZONE,13,41,22
India,Bihar,Gaya,"SFTI Kusdihra, Gaya - BSPCB",02-03-2026 04:00:00,24.762518,84.982348,NO2,16,54,33
India,Bihar,Gaya,"SFTI Kusdihra, Gaya - BSPCB",02-03-2026 04:00:00,24.762518,84.982348,NH3,4,5,4
India,Bihar,Gaya,"SFTI Kusdihra, Gaya - BSPCB",02-03-2026 04:00:00,24.762518,84.982348,SO2,9,10,9
India,Bihar,Hajipur,"Industrial Area, Hajipur - BSPCB",02-03-2026 04:00:00,25.697189,85.245900,PM2.5,86,258,178
India,Bihar,Hajipur,"Industrial Area, Hajipur - BSPCB",02-03-2026 04:00:00,25.697189,85.245900,PM10,89,302,147
India,Bihar,Hajipur,"Industrial Area, Hajipur - BSPCB",02-03-2026 04:00:00,25.697189,85.245900,OZONE,16,132,25
India,Bihar,Katihar,"Mirchaibari, Katihar - BSPCB",02-03-2026 04:00:00,25.560083,87.553265,SO2,14,23,17
India,Bihar,Muzaffarpur,"Muzaffarpur Collectorate, Muzaffarpur - BSPCB",02-03-2026 04:00:00,26.1209,85.3647,SO2,4,9,5
India,Bihar,Patna,"Govt. High School Shikarpur, Patna - BSPCB",02-03-2026 04:00:00,25.592539,85.227158,SO2,4,6,5
India,Bihar,Patna,"Govt. High School Shikarpur, Patna - BSPCB",02-03-2026 04:00:00,25.592539,85.227158,CO,27,103,83
India,Bihar,Patna,"IGSC Planetarium Complex, Patna - BSPCB",02-03-2026 04:00:00,25.610369,85.132568,SO2,NA,NA,NA
India,Bihar,Patna,"IGSC Planetarium Complex, Patna - BSPCB",02-03-2026 04:00:00,25.610369,85.132568,CO,6,46,42
India,Bihar,Patna,"Muradpur, Patna - BSPCB",02-03-2026 04:00:00,25.619651,85.147382,NO2,10,13,11
India,Bihar,Patna,"Rajbansi Nagar, Patna - BSPCB",02-03-2026 04:00:00,25.599486,85.113666,PM10,67,155,100
India,Bihar,Bettiah,"Kamalnath Nagar, Bettiah - BSPCB",02-03-2026 04:00:00,26.80365,84.51954,NH3,1,1,1
India,Bihar,Bettiah,"Kamalnath Nagar, Bettiah - BSPCB",02-03-2026 04:00:00,26.80365,84.51954,OZONE,21,23,22
India,Bihar,Bhagalpur,"DM Office_Kachari Chowk, Bhagalpur - BSPCB",02-03-2026 04:00:00,25.251013,86.989001,PM10,NA,NA,NA
India,Bihar,Bihar Sharif,"D M Colony, Bihar Sharif - BSPCB",02-03-2026 04:00:00,25.204762,85.514960,NO2,9,10,9
India,Bihar,Bihar Sharif,"D M Colony, Bihar Sharif - BSPCB",02-03-2026 04:00:00,25.204762,85.514960,CO,91,109,104
India,Bihar,Buxar,"Charitra Van, Buxar - BSPCB",02-03-2026 04:00:00,25.567520,83.966379,NO2,9,10,9
India,Assam,Sivasagar,"Girls College, Sivasagar - PCBA",02-03-2026 04:00:00,26.987634,94.636574,PM10,26,54,37
India,Assam,Sivasagar,"Girls College, Sivasagar - PCBA",02-03-2026 04:00:00,26.987634,94.636574,CO,15,42,40
India,Bihar,Araria,"Kharahiya Basti, Araria - BSPCB",02-03-2026 04:00:00,26.146529,87.454184,PM2.5,43,273,115
India,Bihar,Aurangabad,"Gurdeo Nagar, Aurangabad - BSPCB",02-03-2026 04:00:00,24.75746,84.366208,OZONE,2,65,6
India,Bihar,Begusarai,"Lohiyanagar, Begusarai - BSPCB",02-03-2026 04:00:00,25.42742023,86.13886079,PM10,59,112,80
India,Andhra_Pradesh,Vijayawada,"Kanuru, Vijayawada - APPCB",02-03-2026 04:00:00,16.486692,80.699436,PM2.5,NA,NA,NA
India,Andhra_Pradesh,Visakhapatnam,"GVM Corporation, Visakhapatnam - APPCB",02-03-2026 04:00:00,17.72,83.3,PM10,122,277,172
India,Andhra_Pradesh,Visakhapatnam,"GVM Corporation, Visakhapatnam - APPCB",02-03-2026 04:00:00,17.72,83.3,SO2,16,125,60
India,Arunachal_Pradesh,Naharlagun,"Naharlagun, Naharlagun - APSPCB",02-03-2026 04:00:00,27.103358,93.679645,NO2,6,7,7
India,Arunachal_Pradesh,Naharlagun,"Naharlagun, Naharlagun - APSPCB",02-03-2026 04:00:00,27.103358,93.679645,CO,12,40,26
India,Andhra_Pradesh,Rajamahendravaram,"Anand Kala Kshetram, Rajamahendravaram - APPCB",02-03-2026 04:00:00,16.9872867,81.7363176,PM2.5,65,99,83
India,Andhra_Pradesh,Tirumala,"Toll Gate, Tirumala - APPCB",02-03-2026 04:00:00,13.67,79.35,CO,16,34,24
India,Andhra_Pradesh,Tirupati,"Vaikuntapuram, Tirupati - APPCB",02-03-2026 04:00:00,13.615387,79.409230,NH3,5,6,6
India,Andhra_Pradesh,Vijayawada,"HB Colony, Vijayawada - APPCB",02-03-2026 04:00:00,16.536107,80.594233,PM10,52,87,76
India,Andhra_Pradesh,Amaravati,"Secretariat, Amaravati - APPCB",02-03-2026 04:00:00,16.5150833,80.5181667,PM2.5,63,92,80
India,Andhra_Pradesh,Amaravati,"Secretariat, Amaravati - APPCB",02-03-2026 04:00:00,16.5150833,80.5181667,OZONE,3,49,17
India,Andhra_Pradesh,Anantapur,"Gulzarpet, Anantapur - APPCB",02-03-2026 04:00:00,14.675886,77.593027,PM10,66,81,74
India,Andhra_Pradesh,Anantapur,"Gulzarpet, Anantapur - APPCB",02-03-2026 04:00:00,14.675886,77.593027,NO2,20,20,20
India,Chhattisgarh,Bhilai,"Civic Center, Bhilai - Bhilai Steel Plant",02-03-2026 04:00:00,21.185571,81.343175,NH3,3,3,3
India,Chhattisgarh,Bhilai,"Hathkhoj, Bhilai - CECB",02-03-2026 04:00:00,21.224231,81.408350,NH3,3,6,4
India,Chhattisgarh,Bhilai,"Hathkhoj, Bhilai - CECB",02-03-2026 04:00:00,21.224231,81.408350,SO2,15,76,28
India,Chhattisgarh,Bilaspur,"Mangala, Bilaspur - NTPC",02-03-2026 04:00:00,22.08815,82.13737,NO2,NA,NA,NA
India,Chhattisgarh,Chhal,"Nawapara SECL Colony, Chhal - CECB",02-03-2026 04:00:00,22.118125,83.140608,PM10,62,107,84
India,Chhattisgarh,Chhal,"Nawapara SECL Colony, Chhal - CECB",02-03-2026 04:00:00,22.118125,83.140608,NO2,8,21,14
India,Chhattisgarh,Chhal,"Nawapara SECL Colony, Chhal - CECB",02-03-2026 04:00:00,22.118125,83.140608,NH3,5,5,5
India,Chhattisgarh,Chhal,"Nawapara SECL Colony, Chhal - CECB",02-03-2026 04:00:00,22.118125,83.140608,SO2,4,85,29
India,Chhattisgarh,Korba,"Rampur, Korba - CECB",02-03-2026 04:00:00,22.368195,82.746431,NH3,1,1,1
India,Chhattisgarh,Korba,"Urja Nagar, Korba - CECB",02-03-2026 04:00:00,22.348441,82.549611,PM10,24,214,58
India,Chhattisgarh,Korba,"Urja Nagar, Korba - CECB",02-03-2026 04:00:00,22.348441,82.549611,NH3,1,1,1
India,Chhattisgarh,Korba,"Urja Nagar, Korba - CECB",02-03-2026 04:00:00,22.348441,82.549611,SO2,3,20,14
India,Delhi,Delhi,"Alipur, Delhi - DPCC",02-03-2026 04:00:00,28.815329,77.153010,NH3,13,16,15
India,Delhi,Delhi,"Anand Vihar, Delhi - DPCC",02-03-2026 04:00:00,28.647622,77.3158090,SO2,24,60,47
India,Delhi,Delhi,"Anand Vihar, Delhi - DPCC",02-03-2026 04:00:00,28.647622,77.3158090,CO,116,131,125
India,Delhi,Delhi,"Ashok Vihar, Delhi - DPCC",02-03-2026 04:00:00,28.695381,77.181665,CO,24,62,45
India,Delhi,Delhi,"Ashok Vihar, Delhi - DPCC",02-03-2026 04:00:00,28.695381,77.181665,OZONE,7,98,41
India,Delhi,Delhi,"Aya Nagar, Delhi - IMD",02-03-2026 04:00:00,28.4706914,77.1099364,PM10,106,182,147
India,Delhi,Delhi,"Aya Nagar, Delhi - IMD",02-03-2026 04:00:00,28.4706914,77.1099364,NO2,5,45,23
India,Delhi,Delhi,"Aya Nagar, Delhi - IMD",02-03-2026 04:00:00,28.4706914,77.1099364,CO,20,52,44
India,Delhi,Delhi,"Bawana, Delhi - DPCC",02-03-2026 04:00:00,28.776200,77.051074,NO2,8,47,23
India,Delhi,Delhi,"Bawana, Delhi - DPCC",02-03-2026 04:00:00,28.776200,77.051074,NH3,7,11,9
India,Delhi,Delhi,"CRRI Mathura Road, Delhi - IMD",02-03-2026 04:00:00,28.5512005,77.2735737,PM2.5,49,222,135
India,Chhattisgarh,Korba,"Urja Nagar, Korba - CECB",02-03-2026 04:00:00,22.348441,82.549611,OZONE,2,5,2
India,Chhattisgarh,Kunjemura,"OP Jindal School, Kunjemura - CECB",02-03-2026 04:00:00,22.126650,83.483212,NH3,2,2,2
India,Chhattisgarh,Kunjemura,"OP Jindal School, Kunjemura - CECB",02-03-2026 04:00:00,22.126650,83.483212,CO,34,85,55
India,Chhattisgarh,Milupara,"Govt. Higher Secondary School, Milupara - CECB",02-03-2026 04:00:00,22.1910172,83.5197009,PM2.5,NA,NA,NA
India,Chhattisgarh,Milupara,"Govt. Higher Secondary School, Milupara - CECB",02-03-2026 04:00:00,22.1910172,83.5197009,NO2,NA,NA,NA
India,Chhattisgarh,Raipur,"AIIMS, Raipur - CECB",02-03-2026 04:00:00,21.258815,81.578979,PM2.5,21,51,38
India,Chhattisgarh,Raipur,"Krishak Nagar, Raipur - CECB",02-03-2026 04:00:00,21.237755,81.705301,NO2,11,19,16
India,Chhattisgarh,Tumidih,"OP Jindal Industrial Park, Tumidih - CECB",02-03-2026 04:00:00,22.06631475,83.33820077,SO2,6,51,12
India,Chhattisgarh,Tumidih,"OP Jindal Industrial Park, Tumidih - CECB",02-03-2026 04:00:00,22.06631475,83.33820077,CO,24,101,44
India,Delhi,Delhi,"Jawaharlal Nehru Stadium, Delhi - DPCC",02-03-2026 04:00:00,28.580280,77.233829,PM2.5,50,237,142
India,Delhi,Delhi,"Jawaharlal Nehru Stadium, Delhi - DPCC",02-03-2026 04:00:00,28.580280,77.233829,NO2,28,124,75
India,Delhi,Delhi,"Jawaharlal Nehru Stadium, Delhi - DPCC",02-03-2026 04:00:00,28.580280,77.233829,NH3,13,16,15
India,Delhi,Delhi,"Jawaharlal Nehru Stadium, Delhi - DPCC",02-03-2026 04:00:00,28.580280,77.233829,CO,22,86,79
India,Delhi,Delhi,"Major Dhyan Chand National Stadium, Delhi - DPCC",02-03-2026 04:00:00,28.611281,77.237738,PM10,111,179,150
India,Delhi,Delhi,"Major Dhyan Chand National Stadium, Delhi - DPCC",02-03-2026 04:00:00,28.611281,77.237738,NO2,23,135,70
India,Delhi,Delhi,"Major Dhyan Chand National Stadium, Delhi - DPCC",02-03-2026 04:00:00,28.611281,77.237738,CO,23,101,82
India,Delhi,Delhi,"Mundka, Delhi - DPCC",02-03-2026 04:00:00,28.684678,77.076574,PM10,155,300,203
India,Delhi,Delhi,"Mundka, Delhi - DPCC",02-03-2026 04:00:00,28.684678,77.076574,NH3,8,13,11
India,Delhi,Delhi,"Mundka, Delhi - DPCC",02-03-2026 04:00:00,28.684678,77.076574,SO2,31,41,37
India,Delhi,Delhi,"NSIT Dwarka, Delhi - CPCB",02-03-2026 04:00:00,28.60909,77.0325413,SO2,9,21,15
India,Delhi,Delhi,"NSIT Dwarka, Delhi - CPCB",02-03-2026 04:00:00,28.60909,77.0325413,CO,35,69,48
India,Delhi,Delhi,"NSUT Jaffarpur, Delhi - DPCC",02-03-2026 04:00:00,28.594004 ,76.909423 ,PM2.5,67,316,204
India,Delhi,Delhi,"NSUT Jaffarpur, Delhi - DPCC",02-03-2026 04:00:00,28.594004 ,76.909423 ,PM10,97,187,143
India,Delhi,Delhi,"Najafgarh, Delhi - DPCC",02-03-2026 04:00:00,28.570173,76.933762,CO,16,109,44
India,Delhi,Delhi,"Narela, Delhi - DPCC",02-03-2026 04:00:00,28.822836,77.101981,PM2.5,68,305,188
India,Delhi,Delhi,"North Campus, DU, Delhi - IMD",02-03-2026 04:00:00,28.6573814,77.1585447,PM10,122,177,147
India,Delhi,Delhi,"North Campus, DU, Delhi - IMD",02-03-2026 04:00:00,28.6573814,77.1585447,NO2,29,127,77
India,Delhi,Delhi,"IGI Airport (T3), Delhi - IMD",02-03-2026 04:00:00,28.5627763,77.1180053,OZONE,4,61,8
India,Delhi,Delhi,"IHBAS, Dilshad Garden, Delhi - CPCB",02-03-2026 04:00:00,28.6811736,77.3025234,CO,50,108,75
India,Delhi,Delhi,"IIT Delhi, Delhi - IITM",02-03-2026 04:00:00,28.542460,77.191651,NO2,10,103,43
India,Delhi,Delhi,"ITO, Delhi - CPCB",02-03-2026 04:00:00,28.628624,77.241060,PM2.5,81,259,148
India,Delhi,Delhi,"ITO, Delhi - CPCB",02-03-2026 04:00:00,28.628624,77.241060,PM10,65,118,90
India,Delhi,Delhi,"JNU, Delhi - DPCC",02-03-2026 04:00:00,28.540721 ,77.168544 ,OZONE,1,26,4
India,Delhi,Delhi,"Jahangirpuri, Delhi - DPCC",02-03-2026 04:00:00,28.732820,77.170633,PM2.5,60,306,207
India,Delhi,Delhi,"Okhla Phase-2, Delhi - DPCC",02-03-2026 04:00:00,28.530785,77.271255,OZONE,6,117,14
India,Delhi,Delhi,"Patparganj, Delhi - DPCC",02-03-2026 04:00:00,28.623763,77.287209,PM2.5,57,277,156
India,Delhi,Delhi,"Punjabi Bagh, Delhi - DPCC",02-03-2026 04:00:00,28.674045,77.131023,PM2.5,95,315,216
India,Delhi,Delhi,"Punjabi Bagh, Delhi - DPCC",02-03-2026 04:00:00,28.674045,77.131023,SO2,28,41,36
India,Delhi,Delhi,"Punjabi Bagh, Delhi - DPCC",02-03-2026 04:00:00,28.674045,77.131023,CO,43,104,74
India,Delhi,Delhi,"Pusa, Delhi - DPCC",02-03-2026 04:00:00,28.639652,77.146275,OZONE,3,133,22
India,Delhi,Delhi,"Pusa, Delhi - IMD",02-03-2026 04:00:00,28.636110,77.173332,NO2,37,134,88
India,Chandigarh,Chandigarh,"Sector 22, Chandigarh - CPCC",02-03-2026 04:00:00,30.735567,76.775714,PM10,40,72,54
India,Chandigarh,Chandigarh,"Sector 22, Chandigarh - CPCC",02-03-2026 04:00:00,30.735567,76.775714,NO2,5,13,8
India,Chandigarh,Chandigarh,"Sector-25, Chandigarh - CPCC",02-03-2026 04:00:00,30.751462,76.762879,NH3,9,10,9
India,Chandigarh,Chandigarh,"Sector-53, Chandigarh - CPCC",02-03-2026 04:00:00,30.719859,76.738637,NO2,17,66,31
India,Chandigarh,Chandigarh,"Sector-53, Chandigarh - CPCC",02-03-2026 04:00:00,30.719859,76.738637,OZONE,7,84,50
India,Chhattisgarh,Bhilai,"32Bungalows, Bhilai - CECB",02-03-2026 04:00:00,21.194815,81.314770,PM10,18,40,29
India,Chhattisgarh,Bhilai,"32Bungalows, Bhilai - CECB",02-03-2026 04:00:00,21.194815,81.314770,NO2,28,46,34
India,Delhi,Delhi,"CRRI Mathura Road, Delhi - IMD",02-03-2026 04:00:00,28.5512005,77.2735737,OZONE,3,56,4
India,Delhi,Delhi,"Chandni Chowk, Delhi - IITM",02-03-2026 04:00:00,28.656756,77.227234,NH3,6,15,11
India,Delhi,Delhi,"Commonwealth Sports Complex, Delhi - DPCC",02-03-2026 04:00:00,28.615828 ,77.271992 ,NO2,12,35,22
India,Delhi,Delhi,"DTU, Delhi - CPCB",02-03-2026 04:00:00,28.7500499,77.1112615,NH3,5,9,7
India,Haryana,Jind,"Police Lines, Jind - HSPCB",02-03-2026 04:00:00,29.307814,76.337619,SO2,13,75,29
India,Haryana,Kaithal,"Rishi Nagar, Kaithal - HSPCB",02-03-2026 04:00:00,29.8006,76.4155,PM10,90,110,101
India,Haryana,Kaithal,"Rishi Nagar, Kaithal - HSPCB",02-03-2026 04:00:00,29.8006,76.4155,CO,10,40,27
India,Haryana,Karnal,"Sector-12, Karnal - HSPCB",02-03-2026 04:00:00,29.695300,77.002700,CO,1,6,1
India,Haryana,Karnal,"Sector-12, Karnal - HSPCB",02-03-2026 04:00:00,29.695300,77.002700,OZONE,26,26,26
India,Haryana,Kurukshetra,"Sector-7, Kurukshetra - HSPCB",02-03-2026 04:00:00,29.966942,76.875879,NO2,3,5,4
India,Haryana,Kurukshetra,"Sector-7, Kurukshetra - HSPCB",02-03-2026 04:00:00,29.966942,76.875879,SO2,2,3,2
India,Haryana,Kurukshetra,"Sector-7, Kurukshetra - HSPCB",02-03-2026 04:00:00,29.966942,76.875879,OZONE,21,60,32
India,Haryana,Manesar,"Sector-2 IMT, Manesar - HSPCB",02-03-2026 04:00:00,28.360699,76.936090,PM2.5,77,231,164
India,Haryana,Manesar,"Sector-2 IMT, Manesar - HSPCB",02-03-2026 04:00:00,28.360699,76.936090,NH3,8,10,9
India,Haryana,Narnaul,"Shastri Nagar, Narnaul - HSPCB",02-03-2026 04:00:00,28.060249,76.113115,NO2,34,60,48
India,Haryana,Narnaul,"Shastri Nagar, Narnaul - HSPCB",02-03-2026 04:00:00,28.060249,76.113115,SO2,5,6,5
India,Haryana,Palwal,"Shyam Nagar, Palwal - HSPCB",02-03-2026 04:00:00,28.1485564,77.3320667,PM10,36,66,49
India,Haryana,Palwal,"Shyam Nagar, Palwal - HSPCB",02-03-2026 04:00:00,28.1485564,77.3320667,NO2,23,24,24
India,Haryana,Palwal,"Shyam Nagar, Palwal - HSPCB",02-03-2026 04:00:00,28.1485564,77.3320667,CO,21,43,32
India,Haryana,Panchgaon,"Amity University, Panchgaon - IITM",02-03-2026 04:00:00,28.3153,76.9143,NH3,2,13,8
India,Haryana,Panipat,"Sector-18, Panipat - HSPCB",02-03-2026 04:00:00,29.432304,76.972765,NH3,NA,NA,NA
India,Haryana,Panipat,"Sector-18, Panipat - HSPCB",02-03-2026 04:00:00,29.432304,76.972765,CO,46,51,48
India,Haryana,Sonipat,"Murthal, Sonipat - HSPCB",02-03-2026 04:00:00,29.027200,77.062100,OZONE,25,26,26
India,Gujarat,Surat,"Katargam, Surat - Nexteng Enviro",02-03-2026 04:00:00,21.217779 ,72.834787 ,PM10,62,184,112
India,Gujarat,Surat,"Katargam, Surat - Nexteng Enviro",02-03-2026 04:00:00,21.217779 ,72.834787 ,SO2,8,37,19
India,Gujarat,Vadodara,"Bapunagar, Vadodara - Nexteng Enviro",02-03-2026 04:00:00,22.320153,73.216285,PM2.5,72,341,194
India,Gujarat,Vatva,"Phase-4 GIDC, Vatva - GPCB",02-03-2026 04:00:00,22.969611,72.643500,NO2,55,119,78
India,Haryana,Ambala,"Patti Mehar, Ambala - HSPCB",02-03-2026 04:00:00,30.379589,76.778328,NO2,8,12,10
India,Haryana,Ambala,"Patti Mehar, Ambala - HSPCB",02-03-2026 04:00:00,30.379589,76.778328,NH3,7,8,8
India,Haryana,Ambala,"Patti Mehar, Ambala - HSPCB",02-03-2026 04:00:00,30.379589,76.778328,OZONE,15,20,18
India,Haryana,Bahadurgarh,"Arya Nagar, Bahadurgarh - HSPCB",02-03-2026 04:00:00,28.6701,76.9254,CO,44,51,48
India,Gujarat,Ahmedabad,"Maninagar, Ahmedabad - GPCB",02-03-2026 04:00:00,23.002657,72.591912,OZONE,42,97,46
India,Gujarat,Ahmedabad,"Raikhad, Ahmedabad - IITM",02-03-2026 04:00:00,23.020509,72.579261,SO2,16,53,30
India,Gujarat,Ahmedabad,"Raikhad, Ahmedabad - IITM",02-03-2026 04:00:00,23.020509,72.579261,CO,12,66,52
India,Gujarat,Ahmedabad,"Rakhial, Ahmedabad - IITM",02-03-2026 04:00:00,23.016834,72.625775,NO2,17,104,62
India,Gujarat,Ahmedabad,"SAC ISRO Bopal, Ahmedabad - IITM",02-03-2026 04:00:00,23.041137,72.456691,NH3,7,13,11
India,Gujarat,Ahmedabad,"SAC ISRO Bopal, Ahmedabad - IITM",02-03-2026 04:00:00,23.041137,72.456691,CO,12,40,34
India,Gujarat,Ahmedabad,"SAC ISRO Satellite, Ahmedabad - IITM",02-03-2026 04:00:00,23.023389,72.515201,NH3,6,15,10
India,Gujarat,Ahmedabad,"SVPI Airport Hansol, Ahmedabad - IITM",02-03-2026 04:00:00,23.076793,72.627874,NH3,1,4,2
India,Gujarat,Ahmedabad,"SVPI Airport Hansol, Ahmedabad - IITM",02-03-2026 04:00:00,23.076793,72.627874,CO,26,80,63
India,Delhi,Delhi,"Rohini, Delhi - DPCC",02-03-2026 04:00:00,28.732528,77.119920,SO2,10,24,15
India,Delhi,Delhi,"Shadipur, Delhi - CPCB",02-03-2026 04:00:00,28.6514781,77.1473105,CO,4,72,28
India,Delhi,Delhi,"Shadipur, Delhi - CPCB",02-03-2026 04:00:00,28.6514781,77.1473105,OZONE,9,38,18
India,Delhi,Delhi,"Sirifort, Delhi - CPCB",02-03-2026 04:00:00,28.5504249,77.2159377,NO2,19,37,29
India,Delhi,Delhi,"Sirifort, Delhi - CPCB",02-03-2026 04:00:00,28.5504249,77.2159377,OZONE,13,25,14
India,Delhi,Delhi,"Sonia Vihar, Delhi - DPCC",02-03-2026 04:00:00,28.710508,77.249485,SO2,32,57,43
India,Delhi,Delhi,"Sonia Vihar, Delhi - DPCC",02-03-2026 04:00:00,28.710508,77.249485,CO,24,91,70
India,Delhi,Delhi,"Sonia Vihar, Delhi - DPCC",02-03-2026 04:00:00,28.710508,77.249485,OZONE,4,104,27
India,Delhi,Delhi,"Sri Aurobindo Marg, Delhi - DPCC",02-03-2026 04:00:00,28.531346,77.190156,PM2.5,48,187,116
India,Haryana,Faridabad,"Sector 30, Faridabad - HSPCB",02-03-2026 04:00:00,28.4417,77.3217,NO2,35,39,37
India,Haryana,Faridabad,"Sector 30, Faridabad - HSPCB",02-03-2026 04:00:00,28.4417,77.3217,SO2,4,4,4
India,Haryana,Faridabad,"Sector 30, Faridabad - HSPCB",02-03-2026 04:00:00,28.4417,77.3217,OZONE,6,35,10
India,Haryana,Fatehabad,"Huda Sector, Fatehabad - HSPCB",02-03-2026 04:00:00,29.503664,75.467934,SO2,10,11,11
India,Haryana,Gurugram,"Vikas Sadan, Gurugram - HSPCB",02-03-2026 04:00:00,28.4501238,77.0263051,SO2,2,7,5
India,Haryana,Gurugram,"Vikas Sadan, Gurugram - HSPCB",02-03-2026 04:00:00,28.4501238,77.0263051,OZONE,4,31,7
India,Haryana,Jind,"Police Lines, Jind - HSPCB",02-03-2026 04:00:00,29.307814,76.337619,PM2.5,109,210,158
India,Haryana,Ballabgarh,"Nathu Colony, Ballabgarh - HSPCB",02-03-2026 04:00:00,28.3419248,77.319699,CO,15,96,34
India,Haryana,Bhiwani,"H.B. Colony, Bhiwani - HSPCB",02-03-2026 04:00:00,28.806223,76.141105,PM2.5,51,350,97
India,Haryana,Bhiwani,"H.B. Colony, Bhiwani - HSPCB",02-03-2026 04:00:00,28.806223,76.141105,NH3,2,4,3
India,Haryana,Bhiwani,"H.B. Colony, Bhiwani - HSPCB",02-03-2026 04:00:00,28.806223,76.141105,CO,14,18,17
India,Haryana,Faridabad,"New Industrial Town, Faridabad - HSPCB",02-03-2026 04:00:00,28.39072,77.30059,PM10,128,137,133
India,Haryana,Faridabad,"New Industrial Town, Faridabad - HSPCB",02-03-2026 04:00:00,28.39072,77.30059,SO2,8,8,8
India,Gujarat,Bhavnagar,"Vidhyanagar, Bhavnagar - Nexteng Enviro",02-03-2026 04:00:00,21.755417,72.139056,NO2,87,105,94
India,Gujarat,Gandhinagar,"GIFT City, Gandhinagar - IITM",02-03-2026 04:00:00,23.163798,72.677768,NH3,5,11,7
India,Gujarat,Gandhinagar,"IIPHG Lekawada, Gandhinagar - IITM",02-03-2026 04:00:00,23.243639,72.68994,NH3,4,11,6
India,Gujarat,Rajkot,"Mavdi, Rajkot - Nexteng Enviro ",02-03-2026 04:00:00,22.248853,70.776774,NH3,3,4,3
India,Gujarat,Rajkot,"Mavdi, Rajkot - Nexteng Enviro ",02-03-2026 04:00:00,22.248853,70.776774,OZONE,10,31,14
India,Delhi,Delhi,"Talkatora Garden, Delhi - DPCC",02-03-2026 04:00:00,28.621810,77.1944633,PM10,105,181,149
India,Delhi,Delhi,"Talkatora Garden, Delhi - DPCC",02-03-2026 04:00:00,28.621810,77.1944633,SO2,17,64,40
India,Karnataka,Mysuru,"Hebbal 1st Stage, Mysuru - KSPCB",02-03-2026 04:00:00,12.21041,76.37376,OZONE,15,114,29
India,Karnataka,Vijayapura,"Ibrahimpur, Vijayapura - KSPCB",02-03-2026 04:00:00,16.802639,75.722694,PM10,61,63,62
India,Karnataka,Vijayapura,"Ibrahimpur, Vijayapura - KSPCB",02-03-2026 04:00:00,16.802639,75.722694,NO2,11,12,11
India,Karnataka,Vijayapura,"Ibrahimpur, Vijayapura - KSPCB",02-03-2026 04:00:00,16.802639,75.722694,OZONE,16,17,16
India,Karnataka,Yadgir,"Collector Office, Yadgir - KSPCB",02-03-2026 04:00:00,16.7602,77.1428,PM2.5,81,147,98
India,Karnataka,Yadgir,"Collector Office, Yadgir - KSPCB",02-03-2026 04:00:00,16.7602,77.1428,SO2,4,13,9
India,Karnataka,Yadgir,"Collector Office, Yadgir - KSPCB",02-03-2026 04:00:00,16.7602,77.1428,OZONE,17,25,18
India,Kerala,Eloor,"Udyogamandal, Eloor - Kerala PCB",02-03-2026 04:00:00,10.073232,76.302765,OZONE,14,16,15
India,Kerala,Kannur,"Thavakkara, Kannur - Kerala PCB",02-03-2026 04:00:00,11.875000,75.373200,PM2.5,NA,NA,NA
India,Kerala,Kannur,"Thavakkara, Kannur - Kerala PCB",02-03-2026 04:00:00,11.875000,75.373200,PM10,NA,NA,NA
India,Kerala,Kannur,"Thavakkara, Kannur - Kerala PCB",02-03-2026 04:00:00,11.875000,75.373200,CO,NA,NA,NA
India,Karnataka,Bengaluru,"Peenya, Bengaluru - CPCB",02-03-2026 04:00:00,13.0270199,77.494094,CO,6,14,7
India,Karnataka,Bengaluru,"RVCE-Mailasandra, Bengaluru - KSPCB",02-03-2026 04:00:00,12.921418,77.502466,OZONE,23,25,24
India,Karnataka,Bengaluru,"Sanegurava Halli, Bengaluru - KSPCB",02-03-2026 04:00:00,12.990328,77.5431385,SO2,6,6,6
India,Karnataka,Bengaluru,"Shivapura_Peenya, Bengaluru - KSPCB",02-03-2026 04:00:00,13.0246342,77.5080115,OZONE,NA,NA,NA
India,Karnataka,Bengaluru,"Silk Board, Bengaluru - KSPCB",02-03-2026 04:00:00,12.917348,77.622813,PM10,103,342,139
India,Karnataka,Bengaluru,"Silk Board, Bengaluru - KSPCB",02-03-2026 04:00:00,12.917348,77.622813,NH3,2,5,4
India,Karnataka,Bengaluru,"Silk Board, Bengaluru - KSPCB",02-03-2026 04:00:00,12.917348,77.622813,CO,24,94,29
India,Karnataka,Chikkaballapur,"Chikkaballapur Rural, Chikkaballapur - KSPCB",02-03-2026 04:00:00,13.428828,77.731418,PM2.5,97,193,148
India,Karnataka,Chikkaballapur,"Chikkaballapur Rural, Chikkaballapur - KSPCB",02-03-2026 04:00:00,13.428828,77.731418,PM10,54,107,85
India,Himachal Pradesh,Baddi,"HIMUDA Complex Phase-1, Baddi - HPPCB",02-03-2026 04:00:00,30.943887,76.801991,OZONE,32,136,68
India,Jammu_and_Kashmir,Pampore,"Khrew, Pampore - JKPCC",02-03-2026 04:00:00,34.031606,75.009712,SO2,2,3,2
India,Jammu_and_Kashmir,Srinagar,"Khunmoh, Srinagar - JKPCC",02-03-2026 04:00:00,34.06313,74.96017,PM2.5,12,37,22
India,Jharkhand,Dhanbad,"Sardar Patel Nagar, Dhanbad - JSPCB",02-03-2026 04:00:00,23.80569,86.44268,PM10,20,230,119
India,Karnataka,Bengaluru,"BTM Layout, Bengaluru - CPCB",02-03-2026 04:00:00,12.9135218,77.5950804,PM10,76,77,77
India,Karnataka,Bengaluru,"BTM Layout, Bengaluru - CPCB",02-03-2026 04:00:00,12.9135218,77.5950804,NO2,26,27,27
India,Karnataka,Bengaluru,"Bapuji Nagar, Bengaluru - KSPCB",02-03-2026 04:00:00,12.951913,77.539784,PM10,89,139,111
India,Karnataka,Chikkaballapur,"Chikkaballapur Rural, Chikkaballapur - KSPCB",02-03-2026 04:00:00,13.428828,77.731418,SO2,12,42,22
India,Karnataka,Chikkamagaluru,"Kalyana Nagara, Chikkamagaluru - KSPCB",02-03-2026 04:00:00,13.328028,75.797056,NO2,NA,NA,NA
India,Karnataka,Dharwad,"Kalabhavan, Dharwad - KSPCB",02-03-2026 04:00:00,15.459706,75.008381,PM10,75,100,87
India,Karnataka,Dharwad,"Kalabhavan, Dharwad - KSPCB",02-03-2026 04:00:00,15.459706,75.008381,SO2,5,9,7
India,Karnataka,Kalaburagi,"Mahatma Basaveswar Colony, Kalaburgi - KSPCB",02-03-2026 04:00:00,17.336318,76.847397,PM10,24,80,59
India,Karnataka,Madikeri,"Stuart Hill, Madikeri - KSPCB",02-03-2026 04:00:00,12.415911,75.735050,SO2,7,7,7
India,Karnataka,Mysuru,"Hebbal 1st Stage, Mysuru - KSPCB",02-03-2026 04:00:00,12.21041,76.37376,PM10,47,109,77
India,Madhya Pradesh,Bhopal,"Paryavaran Parisar, Bhopal - MPPCB",02-03-2026 04:00:00,23.210494,77.425409,SO2,5,28,17
India,Madhya Pradesh,Bhopal,"T T Nagar, Bhopal - MPPCB",02-03-2026 04:00:00,23.233584,77.400574,PM2.5,28,165,63
India,Madhya Pradesh,Bhopal,"T T Nagar, Bhopal - MPPCB",02-03-2026 04:00:00,23.233584,77.400574,PM10,61,198,108
India,Madhya Pradesh,Damoh,"Shrivastav Colony, Damoh - MPPCB",02-03-2026 04:00:00,23.81748678,79.446246,CO,8,17,16
India,Madhya Pradesh,Dewas,"Bhopal Chauraha, Dewas - MPPCB",02-03-2026 04:00:00,22.9682591,76.064118,PM2.5,17,148,56
India,Madhya Pradesh,Dewas,"Bhopal Chauraha, Dewas - MPPCB",02-03-2026 04:00:00,22.9682591,76.064118,NO2,105,167,133
India,Madhya Pradesh,Dewas,"Bhopal Chauraha, Dewas - MPPCB",02-03-2026 04:00:00,22.9682591,76.064118,OZONE,2,78,4
India,Karnataka,Bengaluru,"Hebbal, Bengaluru - KSPCB",02-03-2026 04:00:00,13.029152,77.585901,PM2.5,87,356,150
India,Karnataka,Bengaluru,"Hombegowda Nagar, Bengaluru - KSPCB",02-03-2026 04:00:00,12.938539,77.590100,NO2,18,57,30
India,Karnataka,Bengaluru,"Jayanagar 5th Block, Bengaluru - KSPCB",02-03-2026 04:00:00,12.920984,77.584908,PM10,99,181,127
India,Karnataka,Bengaluru,"Jigani, Bengaluru - KSPCB",02-03-2026 04:00:00,12.7816279,77.6299145,NH3,3,3,3
India,Madhya Pradesh,Indore,"Chhoti Gwaltoli, Indore - MPPCB",02-03-2026 04:00:00,22.4310,75.5213,NH3,16,25,22
India,Madhya Pradesh,Indore,"Chhoti Gwaltoli, Indore - MPPCB",02-03-2026 04:00:00,22.4310,75.5213,SO2,13,38,22
India,Madhya Pradesh,Indore,"Maguda Nagar, Indore - IMC",02-03-2026 04:00:00,22.7524,75.8872,CO,20,103,65
India,Madhya Pradesh,Indore,"Regional Park, Indore - IMC",02-03-2026 04:00:00,22.6780,75.8559,PM10,20,70,45
India,Kerala,Thiruvananthapuram,"Kariavattom, Thiruvananthapuram - Kerala PCB",02-03-2026 04:00:00,8.563700,76.886500,PM2.5,37,53,47
India,Kerala,Thiruvananthapuram,"Kariavattom, Thiruvananthapuram - Kerala PCB",02-03-2026 04:00:00,8.563700,76.886500,OZONE,30,31,30
India,Madhya Pradesh,Indore,"Chhoti Gwaltoli, Indore - MPPCB",02-03-2026 04:00:00,22.4310,75.5213,PM2.5,24,319,128
India,Madhya Pradesh,Katni,"Gole Bazar, Katni - MPPCB",02-03-2026 04:00:00,23.50016,80.23284,OZONE,8,119,24
India,Madhya Pradesh,Mandideep,"Sector-D Industrial Area, Mandideep - MPPCB",02-03-2026 04:00:00,23.108440,77.511428,OZONE,8,25,10
India,Madhya Pradesh,Pithampur,"Sector-2 Industrial Area, Pithampur - MPPCB",02-03-2026 04:00:00,22.624758,75.675238,PM10,51,217,123
India,Madhya Pradesh,Ratlam,"Shasthri Nagar, Ratlam - IPCA Lab",02-03-2026 04:00:00,23.331731,75.045981,PM2.5,15,119,62
India,Madhya Pradesh,Ratlam,"Shasthri Nagar, Ratlam - IPCA Lab",02-03-2026 04:00:00,23.331731,75.045981,NO2,12,56,26
India,Madhya Pradesh,Sagar,"Civil Lines, Sagar - MPPCB",02-03-2026 04:00:00,23.838586,78.759431,PM10,43,114,70
India,Madhya Pradesh,Sagar,"Civil Lines, Sagar - MPPCB",02-03-2026 04:00:00,23.838586,78.759431,CO,7,52,31
India,Madhya Pradesh,Sagar,"Deen Dayal Nagar, Sagar - MPPCB",02-03-2026 04:00:00,23.8640158,78.80289321,NO2,2,95,30
India,Madhya Pradesh,Sagar,"Deen Dayal Nagar, Sagar - MPPCB",02-03-2026 04:00:00,23.8640158,78.80289321,SO2,2,10,4
India,Madhya Pradesh,Satna,"Bandhavgar Colony, Satna - Birla Cement",02-03-2026 04:00:00,24.58434363,80.8549414,NO2,12,13,12
India,Madhya Pradesh,Satna,"Bandhavgar Colony, Satna - Birla Cement",02-03-2026 04:00:00,24.58434363,80.8549414,SO2,19,21,20
India,Maharashtra,Mumbai,"Borivali East, Mumbai - MPCB",02-03-2026 04:00:00,19.2243333,72.8658113,NO2,NA,NA,NA
India,Maharashtra,Mumbai,"Borivali East, Mumbai - MPCB",02-03-2026 04:00:00,19.2243333,72.8658113,NH3,1,9,5
India,Maharashtra,Mumbai,"Borivali East, Mumbai - MPCB",02-03-2026 04:00:00,19.2243333,72.8658113,CO,16,20,17
India,Maharashtra,Mumbai,"Byculla, Mumbai - BMC",02-03-2026 04:00:00,18.9767,72.8380,PM2.5,21,65,42
India,Maharashtra,Mumbai,"Byculla, Mumbai - BMC",02-03-2026 04:00:00,18.9767,72.8380,CO,NA,NA,NA
India,Maharashtra,Mumbai,"Chakala-Andheri East, Mumbai - IITM",02-03-2026 04:00:00,19.11074,72.86084,NO2,45,98,66
India,Maharashtra,Mumbai,"Chakala-Andheri East, Mumbai - IITM",02-03-2026 04:00:00,19.11074,72.86084,SO2,1,14,6
India,Maharashtra,Mumbai,"Chembur, Mumbai - MPCB",02-03-2026 04:00:00,19.0364585,72.8954371,PM2.5,25,48,33
India,Maharashtra,Mumbai,"Chembur, Mumbai - MPCB",02-03-2026 04:00:00,19.0364585,72.8954371,CO,15,36,24
India,Maharashtra,Mumbai,"Chhatrapati Shivaji Intl. Airport (T2), Mumbai - MPCB",02-03-2026 04:00:00,19.10078,72.87462,PM2.5,36,58,48
India,Maharashtra,Mumbai,"Colaba, Mumbai - MPCB",02-03-2026 04:00:00,18.910000,72.820000,PM10,11,61,26
India,Maharashtra,Mumbai,"Colaba, Mumbai - MPCB",02-03-2026 04:00:00,18.910000,72.820000,OZONE,11,11,11
India,Madhya Pradesh,Singrauli,"Suryakiran Bhawan NCL, Singrauli - MPPCB",02-03-2026 04:00:00,24.108970,82.645580,NO2,68,108,92
India,Madhya Pradesh,Singrauli,"Suryakiran Bhawan NCL, Singrauli - MPPCB",02-03-2026 04:00:00,24.108970,82.645580,NH3,4,4,4
India,Madhya Pradesh,Ujjain,"Mahashweta Nagar, Ujjain - MPPCB",02-03-2026 04:00:00,23.1633321,75.800225,NO2,30,105,66
India,Madhya Pradesh,Ujjain,"Mahashweta Nagar, Ujjain - MPPCB",02-03-2026 04:00:00,23.1633321,75.800225,OZONE,6,66,13
India,Maharashtra,Ahmednagar,"Tarakpur, Ahmednagar - MPCB",02-03-2026 04:00:00,19.10122,74.73339,PM10,49,107,72
India,Maharashtra,Akola,"Ramdaspeth, Akola - MPCB",02-03-2026 04:00:00,20.719516,77.000253,PM2.5,29,121,69
India,Maharashtra,Akola,"Ramdaspeth, Akola - MPCB",02-03-2026 04:00:00,20.719516,77.000253,NO2,10,93,30
India,Maharashtra,Amravati,"Shivneri Colony, Amravati - MPCB",02-03-2026 04:00:00,20.9402359,77.7895248,NH3,4,10,6
India,Maharashtra,Amravati,"Shri Shivaji Science College, Amravati - MPCB",02-03-2026 04:00:00,20.939198,77.765701,PM10,64,129,88
India,Madhya Pradesh,Indore,"Residency Area, Indore - IMC",02-03-2026 04:00:00,22.7084,75.8815,CO,28,104,87
India,Madhya Pradesh,Jabalpur,"Govindh Bhavan Colony, Jabalpur - JMC",02-03-2026 04:00:00,23.163174,79.973061,PM2.5,22,143,62
India,Madhya Pradesh,Jabalpur,"Govindh Bhavan Colony, Jabalpur - JMC",02-03-2026 04:00:00,23.163174,79.973061,NO2,7,13,10
India,Madhya Pradesh,Jabalpur,"Govindh Bhavan Colony, Jabalpur - JMC",02-03-2026 04:00:00,23.163174,79.973061,NH3,1,2,2
India,Madhya Pradesh,Jabalpur,"Govindh Bhavan Colony, Jabalpur - JMC",02-03-2026 04:00:00,23.163174,79.973061,CO,18,41,32
India,Madhya Pradesh,Jabalpur,"Govindh Bhavan Colony, Jabalpur - JMC",02-03-2026 04:00:00,23.163174,79.973061,OZONE,4,27,7
India,Madhya Pradesh,Jabalpur,"Gupteshwar, Jabalpur - JMC",02-03-2026 04:00:00,23.142888,79.916147,SO2,NA,NA,NA
India,Madhya Pradesh,Jabalpur,"Gupteshwar, Jabalpur - JMC",02-03-2026 04:00:00,23.142888,79.916147,OZONE,NA,NA,NA
India,Madhya Pradesh,Jabalpur,"Marhatal, Jabalpur - MPPCB",02-03-2026 04:00:00,23.168606,79.932247,PM2.5,20,177,71
India,Madhya Pradesh,Katni,"Gole Bazar, Katni - MPPCB",02-03-2026 04:00:00,23.50016,80.23284,SO2,29,122,82
India,Maharashtra,Bhiwandi,"Gokul Nagar, Bhiwandi - MPCB",02-03-2026 04:00:00,19.309073,73.057223,NH3,3,9,6
India,Maharashtra,Boisar,"Khaira, Boisar - MPCB",02-03-2026 04:00:00,19.786089,72.757971,PM10,59,81,69
India,Maharashtra,Boisar,"Khaira, Boisar - MPCB",02-03-2026 04:00:00,19.786089,72.757971,NH3,5,9,7
India,Maharashtra,Chandrapur,"Chauhan Colony, Chandrapur - MPCB",02-03-2026 04:00:00,19.962900,79.298714,PM10,98,160,125
India,Maharashtra,Chandrapur,"MIDC Khutala, Chandrapur - MPCB",02-03-2026 04:00:00,19.9775302,79.2337086,PM10,62,245,143
India,Maharashtra,Dhule,"Deopur, Dhule - MPCB",02-03-2026 04:00:00,20.918946,74.776388,NH3,2,2,2
India,Maharashtra,Jalgaon,"Prabhat Colony, Jalgaon - MPCB",02-03-2026 04:00:00,21.001264,75.565602,SO2,11,19,14
India,Maharashtra,Jalgaon,"Prabhat Colony, Jalgaon - MPCB",02-03-2026 04:00:00,21.001264,75.565602,CO,15,42,30
India,Maharashtra,Malegaon,"Mahesh Nagar, Malegaon - MPCB",02-03-2026 04:00:00,20.555712,74.529236,PM2.5,45,135,76
India,Maharashtra,Malegaon,"Mahesh Nagar, Malegaon - MPCB",02-03-2026 04:00:00,20.555712,74.529236,NO2,15,19,17
India,Maharashtra,Mira-Bhayandar,"Bhayandar West, Mira-Bhayandar - MPCB",02-03-2026 04:00:00,19.296481,72.840923,SO2,13,15,14
India,Maharashtra,Mumbai,"Bandra Kurla Complex, Mumbai - IITM",02-03-2026 04:00:00,19.053536,72.84643,CO,13,66,34
India,Maharashtra,Mumbai,"Bandra Kurla Complex, Mumbai - MPCB",02-03-2026 04:00:00,19.065931,72.862131,PM10,41,154,71
India,Maharashtra,Mumbai,"Bandra Kurla Complex, Mumbai - MPCB",02-03-2026 04:00:00,19.065931,72.862131,NH3,10,10,10
India,Maharashtra,Mumbai,"Bandra Kurla Complex, Mumbai - MPCB",02-03-2026 04:00:00,19.065931,72.862131,SO2,4,7,5
India,Maharashtra,Mumbai,"Borivali East, Mumbai - IITM",02-03-2026 04:00:00,19.23241,72.86895,PM2.5,20,57,35
India,Maharashtra,Aurangabad,"MIDC Chilkalthana, Aurangabad - MPCB",02-03-2026 04:00:00,19.875620,75.387310,OZONE,10,72,16
India,Maharashtra,Aurangabad,"More Chowk Waluj, Aurangabad - MPCB",02-03-2026 04:00:00,19.8389439,75.244448,PM2.5,30,133,64
India,Maharashtra,Aurangabad,"More Chowk Waluj, Aurangabad - MPCB",02-03-2026 04:00:00,19.8389439,75.244448,NO2,11,24,18
India,Maharashtra,Aurangabad,"More Chowk Waluj, Aurangabad - MPCB",02-03-2026 04:00:00,19.8389439,75.244448,SO2,5,24,11
India,Maharashtra,Aurangabad,"Rachnakar Colony, Aurangabad - MPCB",02-03-2026 04:00:00,19.863756,75.321188,PM2.5,38,68,54
India,Maharashtra,Aurangabad,"Rachnakar Colony, Aurangabad - MPCB",02-03-2026 04:00:00,19.863756,75.321188,NO2,10,68,30
India,Maharashtra,Aurangabad,"Rachnakar Colony, Aurangabad - MPCB",02-03-2026 04:00:00,19.863756,75.321188,NH3,4,5,5
India,Maharashtra,Aurangabad,"Rachnakar Colony, Aurangabad - MPCB",02-03-2026 04:00:00,19.863756,75.321188,OZONE,13,92,15
India,Maharashtra,Badlapur,"Katrap, Badlapur - MPCB",02-03-2026 04:00:00,19.16485,73.23409,SO2,5,12,8
India,Maharashtra,Mumbai,"Ghatkopar, Mumbai - BMC",02-03-2026 04:00:00,19.083694,72.920967,OZONE,3,79,14
India,Maharashtra,Mumbai,"Kandivali East, Mumbai - MPCB",02-03-2026 04:00:00,19.205800,72.868200,PM2.5,1,5,2
India,Maharashtra,Mumbai,"Kandivali East, Mumbai - MPCB",02-03-2026 04:00:00,19.205800,72.868200,PM10,33,107,51
India,Maharashtra,Mumbai,"Kandivali East, Mumbai - MPCB",02-03-2026 04:00:00,19.205800,72.868200,NO2,30,30,30
India,Maharashtra,Mumbai,"Kandivali West, Mumbai - BMC",02-03-2026 04:00:00,19.215859,72.831718,NO2,1,6,2
India,Maharashtra,Mumbai,"Kherwadi_Bandra East, Mumbai - MPCB",02-03-2026 04:00:00,19.0632143,72.8456324,PM2.5,17,59,30
India,Maharashtra,Mumbai,"Kherwadi_Bandra East, Mumbai - MPCB",02-03-2026 04:00:00,19.0632143,72.8456324,PM10,40,102,57
India,Maharashtra,Jalna,"Old MIDC, Jalna - MPCB",02-03-2026 04:00:00,19.854616,75.905894,OZONE,39,92,52
India,Maharashtra,Kalyan,"Pimpleshwar Mandir, Kalyan - MPCB",02-03-2026 04:00:00,19.192056,72.9585188,PM2.5,25,85,51
India,Maharashtra,Kolhapur,"Shivaji University, Kolhapur - MPCB",02-03-2026 04:00:00,16.6870449,74.2505872,PM10,30,40,32
India,Maharashtra,Kolhapur,"Shivaji University, Kolhapur - MPCB",02-03-2026 04:00:00,16.6870449,74.2505872,SO2,NA,NA,NA
India,Maharashtra,Kolhapur,"Shivaji University, Kolhapur - MPCB",02-03-2026 04:00:00,16.6870449,74.2505872,OZONE,10,54,26
India,Maharashtra,Mumbai,"Vile Parle West, Mumbai - MPCB",02-03-2026 04:00:00,19.10861,72.83622,NH3,6,6,6
India,Maharashtra,Mumbai,"Vile Parle West, Mumbai - MPCB",02-03-2026 04:00:00,19.10861,72.83622,CO,22,22,22
India,Maharashtra,Mumbai,"Worli, Mumbai -MPCB",02-03-2026 04:00:00,18.9942180,72.8158167,PM10,33,92,56
India,Maharashtra,Mumbai,"Worli, Mumbai -MPCB",02-03-2026 04:00:00,18.9942180,72.8158167,SO2,25,62,36
India,Maharashtra,Mumbai,"Worli, Mumbai -MPCB",02-03-2026 04:00:00,18.9942180,72.8158167,CO,12,46,13
India,Maharashtra,Mumbai,"Worli, Mumbai -MPCB",02-03-2026 04:00:00,18.9942180,72.8158167,OZONE,3,56,48
India,Maharashtra,Nagpur,"Ambazari, Nagpur - MPCB",02-03-2026 04:00:00,21.121801,79.04952,NH3,1,5,3
India,Maharashtra,Nagpur,"Ambazari, Nagpur - MPCB",02-03-2026 04:00:00,21.121801,79.04952,CO,2,30,19
India,Maharashtra,Nagpur,"Mahal, Nagpur - MPCB",02-03-2026 04:00:00,21.14472,79.107595,PM2.5,35,145,80
India,Maharashtra,Nagpur,"Mahal, Nagpur - MPCB",02-03-2026 04:00:00,21.14472,79.107595,OZONE,6,38,14
India,Maharashtra,Nagpur,"Opp GPO Civil Lines, Nagpur - MPCB",02-03-2026 04:00:00,21.152875,79.0517531,PM10,46,129,77
India,Maharashtra,Nagpur,"Opp GPO Civil Lines, Nagpur - MPCB",02-03-2026 04:00:00,21.152875,79.0517531,SO2,2,26,10
India,Maharashtra,Nagpur,"Opp GPO Civil Lines, Nagpur - MPCB",02-03-2026 04:00:00,21.152875,79.0517531,CO,8,85,42
India,Maharashtra,Nagpur,"Opp GPO Civil Lines, Nagpur - MPCB",02-03-2026 04:00:00,21.152875,79.0517531,OZONE,2,22,5
India,Maharashtra,Nagpur,"Ram Nagar, Nagpur - MPCB",02-03-2026 04:00:00,21.143383,79.048912,PM10,45,129,77
India,Maharashtra,Navi Mumbai,"Kopripada-Vashi, Navi Mumbai - MPCB",02-03-2026 04:00:00,19.090337,73.014232,SO2,5,8,6
India,Maharashtra,Navi Mumbai,"Mahape, Navi Mumbai - MPCB",02-03-2026 04:00:00,19.1135051,73.008978,PM2.5,45,135,74
India,Maharashtra,Navi Mumbai,"Mahape, Navi Mumbai - MPCB",02-03-2026 04:00:00,19.1135051,73.008978,NO2,84,86,85
India,Maharashtra,Navi Mumbai,"Nerul, Navi Mumbai - MPCB",02-03-2026 04:00:00,19.008751,73.016620,PM10,NA,NA,NA
India,Maharashtra,Navi Mumbai,"Nerul, Navi Mumbai - MPCB",02-03-2026 04:00:00,19.008751,73.016620,NO2,44,45,44
India,Maharashtra,Navi Mumbai,"Sanpada, Navi Mumbai - MPCB",02-03-2026 04:00:00,19.0575752,73.0151367,CO,4,104,39
India,Maharashtra,Navi Mumbai,"Sector-2E Kalamboli, Navi Mumbai - MPCB",02-03-2026 04:00:00,19.02579,73.10297,PM2.5,24,69,38
India,Maharashtra,Navi Mumbai,"Sector-2E Kalamboli, Navi Mumbai - MPCB",02-03-2026 04:00:00,19.02579,73.10297,SO2,1,10,5
India,Maharashtra,Navi Mumbai,"Sector-2E Kalamboli, Navi Mumbai - MPCB",02-03-2026 04:00:00,19.02579,73.10297,OZONE,1,276,5
India,Maharashtra,Navi Mumbai,"Tondare-Taloja, Navi Mumbai - MPCB",02-03-2026 04:00:00,19.0630,73.1209,CO,7,29,14
India,Maharashtra,Ulhasnagar,"Sidhi Vinayak Nagar, Ulhasnagar - MPCB",02-03-2026 04:00:00,19.235581,73.159121,NH3,4,8,6
India,Maharashtra,Virar,"Bolinj, Virar - MPCB",02-03-2026 04:00:00,19.4458210,72.7988231,PM2.5,28,155,71
India,Maharashtra,Virar,"Bolinj, Virar - MPCB",02-03-2026 04:00:00,19.4458210,72.7988231,NO2,3,59,20
India,Maharashtra,Virar,"Bolinj, Virar - MPCB",02-03-2026 04:00:00,19.4458210,72.7988231,OZONE,1,29,8
India,Meghalaya,Shillong,"Lumpyngngad, Shillong - Meghalaya PCB",02-03-2026 04:00:00,25.5586,91.8985,PM10,21,500,240
India,Mizoram,Aizawl,"Sikulpuikawn, Aizawl - Mizoram PCB",02-03-2026 04:00:00,23.7176342,92.7192841,PM2.5,54,59,56
India,Mizoram,Aizawl,"Sikulpuikawn, Aizawl - Mizoram PCB",02-03-2026 04:00:00,23.7176342,92.7192841,PM10,57,59,58
India,Nagaland,Kohima,"PWD Junction, Kohima - NPCB",02-03-2026 04:00:00,25.6635413,94.0989878,PM2.5,1,107,56
India,Nagaland,Kohima,"PWD Junction, Kohima - NPCB",02-03-2026 04:00:00,25.6635413,94.0989878,NH3,1,1,1
India,Maharashtra,Pune,"Savitribai Phule Pune University, Pune - MPCB",02-03-2026 04:00:00,18.547056,73.826908,PM10,36,82,56
India,Maharashtra,Pune,"Savitribai Phule Pune University, Pune - MPCB",02-03-2026 04:00:00,18.547056,73.826908,SO2,2,7,4
India,Maharashtra,Sangli,"Vijay Nagar, Sangli - MPCB",02-03-2026 04:00:00, 16.5038,74.3623,CO,16,52,30
India,Maharashtra,Solapur,"Dnyaneshwar Nagar, Solapur - MPCB",02-03-2026 04:00:00,17.6336264,75.9132495,NH3,9,59,22
India,Maharashtra,Solapur,"Dnyaneshwar Nagar, Solapur - MPCB",02-03-2026 04:00:00,17.6336264,75.9132495,OZONE,9,70,34
India,Maharashtra,Solapur,"Ratandeep Housing Society, Solapur - MPCB",02-03-2026 04:00:00,17.65439,75.90649,PM2.5,NA,NA,NA
India,Maharashtra,Solapur,"Ratandeep Housing Society, Solapur - MPCB",02-03-2026 04:00:00,17.65439,75.90649,PM10,NA,NA,NA
India,Maharashtra,Thane,"Kasarvadavali, Thane - MPCB",02-03-2026 04:00:00,19.26777,72.97182,PM2.5,34,59,43
India,Maharashtra,Thane,"Kasarvadavali, Thane - MPCB",02-03-2026 04:00:00,19.26777,72.97182,NO2,12,58,34
India,Maharashtra,Mumbai,"Kurla, Mumbai - MPCB",02-03-2026 04:00:00,19.0863,72.8888,NO2,NA,NA,NA
India,Maharashtra,Mumbai,"Kurla, Mumbai - MPCB",02-03-2026 04:00:00,19.0863,72.8888,SO2,NA,NA,NA
India,Maharashtra,Mumbai,"Kurla, Mumbai - MPCB",02-03-2026 04:00:00,19.0863,72.8888,CO,13,17,14
India,Maharashtra,Mumbai,"Malad West, Mumbai - IITM",02-03-2026 04:00:00,19.19709,72.82204,PM2.5,5,36,18
India,Maharashtra,Mumbai,"Mazgaon, Mumbai - IITM",02-03-2026 04:00:00,18.96702,72.84214,PM10,46,114,73
India,Maharashtra,Mumbai,"Mindspace-Malad West, Mumbai - MPCB",02-03-2026 04:00:00,19.1878657,72.8304069,PM10,29,47,38
India,Maharashtra,Mumbai,"Mindspace-Malad West, Mumbai - MPCB",02-03-2026 04:00:00,19.1878657,72.8304069,CO,8,25,20
India,Maharashtra,Mumbai,"Mulund West, Mumbai - MPCB",02-03-2026 04:00:00,19.1750,72.9419,SO2,NA,NA,NA
India,Maharashtra,Mumbai,"Navy Nagar-Colaba, Mumbai - IITM",02-03-2026 04:00:00,18.897756,72.813320,NO2,36,199,66
India,Maharashtra,Parbhani,"Masoom Colony, Parbhani - MPCB",02-03-2026 04:00:00,19.265594,76.761463,PM10,24,179,48
India,Maharashtra,Parbhani,"Masoom Colony, Parbhani - MPCB",02-03-2026 04:00:00,19.265594,76.761463,CO,9,16,12
India,Maharashtra,Pimpri-Chinchwad,"Gavalinagar, Pimpri Chinchwad - MPCB",02-03-2026 04:00:00,18.63673,73.82487,PM2.5,26,48,39
India,Maharashtra,Pimpri-Chinchwad,"Gavalinagar, Pimpri Chinchwad - MPCB",02-03-2026 04:00:00,18.63673,73.82487,PM10,52,88,66
India,Maharashtra,Pimpri-Chinchwad,"Gavalinagar, Pimpri Chinchwad - MPCB",02-03-2026 04:00:00,18.63673,73.82487,OZONE,32,33,32
India,Maharashtra,Pimpri-Chinchwad,"Park Street Wakad, Pimpri Chinchwad - MPCB",02-03-2026 04:00:00,18.59051,73.77946,NH3,3,4,4
India,Maharashtra,Pimpri-Chinchwad,"Thergaon, Pimpri Chinchwad - MPCB",02-03-2026 04:00:00,18.616318,73.765797,CO,20,56,39
India,Maharashtra,Pimpri-Chinchwad,"Thergaon, Pimpri Chinchwad - MPCB",02-03-2026 04:00:00,18.616318,73.765797,OZONE,2,71,24
India,Maharashtra,Nanded,"Sneh Nagar, Nanded - MPCB",02-03-2026 04:00:00,19.173852,77.296291,PM2.5,48,81,65
India,Maharashtra,Nanded,"Sneh Nagar, Nanded - MPCB",02-03-2026 04:00:00,19.173852,77.296291,OZONE,25,94,53
India,Maharashtra,Nashik,"Gangapur Road, Nashik - MPCB",02-03-2026 04:00:00,20.0073285,73.7762427,PM2.5,38,314,104
India,Maharashtra,Nashik,"Gangapur Road, Nashik - MPCB",02-03-2026 04:00:00,20.0073285,73.7762427,PM10,32,134,93
India,Maharashtra,Nashik,"Gangapur Road, Nashik - MPCB",02-03-2026 04:00:00,20.0073285,73.7762427,SO2,1,6,4
India,Maharashtra,Nashik,"Hirawadi, Nashik - MPCB",02-03-2026 04:00:00,20.021503,73.813844,PM2.5,28,58,40
India,Maharashtra,Nashik,"Pandav Nagari, Nashik - MPCB",02-03-2026 04:00:00,19.9591346,73.7788008,OZONE,26,49,39
India,Maharashtra,Pune,"Hadapsar, Pune - IITM",02-03-2026 04:00:00,18.501793,73.927532,PM10,48,116,87
India,Maharashtra,Pune,"Katraj Dairy, Pune - MPCB",02-03-2026 04:00:00,18.454450,73.854155,PM2.5,14,41,26
India,Maharashtra,Pune,"Katraj Dairy, Pune - MPCB",02-03-2026 04:00:00,18.454450,73.854155,PM10,48,78,64
India,Maharashtra,Pune,"Mhada Colony, Pune - IITM",02-03-2026 04:00:00,18.573040,73.927715,PM2.5,10,83,50
India,Maharashtra,Pune,"Mhada Colony, Pune - IITM",02-03-2026 04:00:00,18.573040,73.927715,OZONE,11,77,22
India,Maharashtra,Pune,"Panchawati_Pashan, Pune - IITM",02-03-2026 04:00:00,18.536457,73.805454,OZONE,1,48,19
India,Maharashtra,Mumbai,"Powai, Mumbai - MPCB",02-03-2026 04:00:00,19.137500,72.915056,NO2,7,8,7
India,Maharashtra,Mumbai,"Sewri, Mumbai - BMC",02-03-2026 04:00:00,19.000084,72.856730,NO2,1,59,20
India,Maharashtra,Mumbai,"Sewri, Mumbai - BMC",02-03-2026 04:00:00,19.000084,72.856730,OZONE,1,24,15
India,Maharashtra,Mumbai,"Siddharth Nagar-Worli, Mumbai - IITM",02-03-2026 04:00:00,19.000083,72.813993,NH3,3,4,3
India,Maharashtra,Mumbai,"Siddharth Nagar-Worli, Mumbai - IITM",02-03-2026 04:00:00,19.000083,72.813993,OZONE,14,86,57
India,Odisha,Bhubaneswar,"Patia, Bhubaneswar - OSPCB",02-03-2026 04:00:00,20.34652,85.81630,NH3,4,12,6
India,Odisha,Bhubaneswar,"Patia, Bhubaneswar - OSPCB",02-03-2026 04:00:00,20.34652,85.81630,OZONE,17,96,32
India,Odisha,Bileipada,"Tata Township, Bileipada - OSPCB",02-03-2026 04:00:00,22.06156703,85.47409613,PM2.5,38,90,67
India,Odisha,Bileipada,"Tata Township, Bileipada - OSPCB",02-03-2026 04:00:00,22.06156703,85.47409613,PM10,102,443,229
India,Odisha,Brajrajnagar,"GM Office, Brajrajnagar - OSPCB",02-03-2026 04:00:00,21.8004996,83.8396977,PM10,91,213,140
India,Odisha,Brajrajnagar,"GM Office, Brajrajnagar - OSPCB",02-03-2026 04:00:00,21.8004996,83.8396977,NH3,4,5,5
India,Odisha,Byasanagar,"Ferro Chrome Colony, Byasanagar - OSPCB",02-03-2026 04:00:00,20.94185,86.11510,PM10,80,206,127
India,Odisha,Byasanagar,"Ferro Chrome Colony, Byasanagar - OSPCB",02-03-2026 04:00:00,20.94185,86.11510,SO2,4,9,5
India,Odisha,Byasanagar,"Ferro Chrome Colony, Byasanagar - OSPCB",02-03-2026 04:00:00,20.94185,86.11510,OZONE,8,260,47
India,Odisha,Cuttack,"CDA Area, Cuttack - OSPCB",02-03-2026 04:00:00,20.48891     ,85.84768     ,NO2,13,37,22
India,Odisha,Cuttack,"CDA Area, Cuttack - OSPCB",02-03-2026 04:00:00,20.48891     ,85.84768     ,NH3,3,9,6
India,Odisha,Cuttack,"CDA Area, Cuttack - OSPCB",02-03-2026 04:00:00,20.48891     ,85.84768     ,OZONE,8,287,44
India,Odisha,Keonjhar,"Jagamohanpur, Keonjhar - OSPCB",02-03-2026 04:00:00,21.643900,85.599355,NH3,5,5,5
India,Rajasthan,Barmer,"Railway Colony, Barmer - RSPCB",02-03-2026 04:00:00,25.747299,71.393989,CO,9,106,13
India,Rajasthan,Bharatpur,"Krishna Nagar, Bharatpur - RSPCB",02-03-2026 04:00:00,27.215415,77.50873,PM2.5,15,78,45
India,Rajasthan,Bharatpur,"Krishna Nagar, Bharatpur - RSPCB",02-03-2026 04:00:00,27.215415,77.50873,SO2,6,33,15
India,Rajasthan,Bhilwara,"Pratap Nagar, Bhilwara - RSPCB",02-03-2026 04:00:00,25.339605,74.618883,PM2.5,17,220,79
India,Rajasthan,Bhiwadi,"RIICO Ind. Area III, Bhiwadi - RSPCB",02-03-2026 04:00:00,28.194909,76.862296,PM10,73,283,164
India,Rajasthan,Bhiwadi,"RIICO Ind. Area III, Bhiwadi - RSPCB",02-03-2026 04:00:00,28.194909,76.862296,NO2,18,93,51
India,Rajasthan,Bhiwadi,"RIICO Ind. Area III, Bhiwadi - RSPCB",02-03-2026 04:00:00,28.194909,76.862296,NH3,6,21,13
India,Rajasthan,Bhiwadi,"Vasundhara Nagar_UIT, Bhiwadi - RSPCB",02-03-2026 04:00:00,28.207266,76.829265,NO2,15,108,55
India,Rajasthan,Bhiwadi,"Vasundhara Nagar_UIT, Bhiwadi - RSPCB",02-03-2026 04:00:00,28.207266,76.829265,CO,36,104,81
India,Rajasthan,Bhiwadi,"Vasundhara Nagar_UIT, Bhiwadi - RSPCB",02-03-2026 04:00:00,28.207266,76.829265,OZONE,1,111,9
India,Rajasthan,Bikaner,"MM Ground, Bikaner - RSPCB",02-03-2026 04:00:00,28.018792,73.292658,PM2.5,32,302,85
India,Rajasthan,Bikaner,"MM Ground, Bikaner - RSPCB",02-03-2026 04:00:00,28.018792,73.292658,SO2,7,21,14
India,Rajasthan,Ajmer,"Civil Lines,  Ajmer - RSPCB",02-03-2026 04:00:00,26.470859,74.646594,SO2,3,6,4
India,Rajasthan,Alwar,"Moti Doongri, Alwar - RSPCB",02-03-2026 04:00:00,27.554793,76.611536,PM2.5,64,88,74
India,Rajasthan,Alwar,"Moti Doongri, Alwar - RSPCB",02-03-2026 04:00:00,27.554793,76.611536,OZONE,6,90,27
India,Rajasthan,Banswara,"Rati Talai, Banswara - RSPCB",02-03-2026 04:00:00,23.555190,74.440010,PM2.5,35,95,57
India,Rajasthan,Banswara,"Rati Talai, Banswara - RSPCB",02-03-2026 04:00:00,23.555190,74.440010,CO,18,98,49
India,Rajasthan,Baran,"Bamboliya, Baran - RSPCB",02-03-2026 04:00:00,25.106006,76.469948,PM10,61,173,85
India,Rajasthan,Baran,"Bamboliya, Baran - RSPCB",02-03-2026 04:00:00,25.106006,76.469948,NO2,7,78,28
India,Rajasthan,Baran,"Bamboliya, Baran - RSPCB",02-03-2026 04:00:00,25.106006,76.469948,NH3,2,10,6
India,Rajasthan,Baran,"Bamboliya, Baran - RSPCB",02-03-2026 04:00:00,25.106006,76.469948,CO,7,50,20
India,Rajasthan,Baran,"Bamboliya, Baran - RSPCB",02-03-2026 04:00:00,25.106006,76.469948,OZONE,4,128,33
India,Rajasthan,Barmer,"Railway Colony, Barmer - RSPCB",02-03-2026 04:00:00,25.747299,71.393989,NO2,6,96,16
India,Rajasthan,Bundi,"New Colony, Bundi - RSPCB",02-03-2026 04:00:00,25.435774,75.644272,PM10,45,214,88
India,Rajasthan,Bundi,"New Colony, Bundi - RSPCB",02-03-2026 04:00:00,25.435774,75.644272,SO2,1,26,7
India,Rajasthan,Chittorgarh,"Shastri Nagar, Chittorgarh - RSPCB",02-03-2026 04:00:00,24.892047,74.623527,NO2,8,90,43
India,Rajasthan,Chittorgarh,"Shastri Nagar, Chittorgarh - RSPCB",02-03-2026 04:00:00,24.892047,74.623527,SO2,2,17,9
India,Rajasthan,Chittorgarh,"Shastri Nagar, Chittorgarh - RSPCB",02-03-2026 04:00:00,24.892047,74.623527,OZONE,1,92,4
India,Rajasthan,Churu,"Subash Chowk, Churu - RSPCB",02-03-2026 04:00:00,28.296139,74.961696,NH3,6,12,8
India,Rajasthan,Churu,"Subash Chowk, Churu - RSPCB",02-03-2026 04:00:00,28.296139,74.961696,OZONE,27,107,68
India,Rajasthan,Dausa,"Khatikan Mohalla, Dausa - RSPCB",02-03-2026 04:00:00,26.895552,76.334753,PM2.5,17,82,33
India,Rajasthan,Dausa,"Khatikan Mohalla, Dausa - RSPCB",02-03-2026 04:00:00,26.895552,76.334753,SO2,7,8,7
India,Rajasthan,Dholpur,"Raja Ganj, Dholpur - RSPCB",02-03-2026 04:00:00,26.699557,77.898881,NH3,10,18,13
India,Punjab,Khanna,"Kalal Majra, Khanna - PPCB",02-03-2026 04:00:00,30.736056 ,76.209694,OZONE,19,41,25
India,Punjab,Ludhiana,"Punjab Agricultural University, Ludhiana - PPCB",02-03-2026 04:00:00,30.9028,75.8086,NH3,7,9,8
India,Punjab,Ludhiana,"Punjab Agricultural University, Ludhiana - PPCB",02-03-2026 04:00:00,30.9028,75.8086,OZONE,21,31,25
India,Punjab,Mandi Gobindgarh,"RIMT University, Mandi Gobindgarh - PPCB",02-03-2026 04:00:00,30.649961,76.331442,PM10,78,367,201
India,Punjab,Patiala,"Model Town, Patiala - PPCB",02-03-2026 04:00:00,30.349388,76.366642,PM10,91,114,102
India,Punjab,Patiala,"Model Town, Patiala - PPCB",02-03-2026 04:00:00,30.349388,76.366642,SO2,8,31,17
India,Rajasthan,Dungarpur,"Bhoiwada, Dungarpur - RSPCB",02-03-2026 04:00:00,23.837789,73.714926,PM10,54,133,82
India,Rajasthan,Hanumangarh,"Housing Board, Hanumangarh - RSPCB",02-03-2026 04:00:00,29.610750,74.283608,SO2,5,36,14
India,Rajasthan,Jaipur,"Adarsh Nagar, Jaipur - RSPCB",02-03-2026 04:00:00,26.902909,75.836858,PM2.5,55,186,110
India,Rajasthan,Jaipur,"Adarsh Nagar, Jaipur - RSPCB",02-03-2026 04:00:00,26.902909,75.836858,NH3,8,59,22
India,Rajasthan,Jaipur,"Adarsh Nagar, Jaipur - RSPCB",02-03-2026 04:00:00,26.902909,75.836858,SO2,6,42,20
India,Odisha,Balasore,"Kalidaspur, Balasore - OSPCB",02-03-2026 04:00:00,21.51161,86.89088,PM2.5,82,193,122
India,Odisha,Balasore,"Kalidaspur, Balasore - OSPCB",02-03-2026 04:00:00,21.51161,86.89088,PM10,88,143,111
India,Odisha,Balasore,"Kalidaspur, Balasore - OSPCB",02-03-2026 04:00:00,21.51161,86.89088,OZONE,35,168,51
India,Odisha,Baripada,"Meher Colony, Baripada - OSPCB",02-03-2026 04:00:00,21.941841,86.728318,SO2,7,27,14
India,Odisha,Baripada,"Meher Colony, Baripada - OSPCB",02-03-2026 04:00:00,21.941841,86.728318,OZONE,2,107,6
India,Odisha,Tensa,"Barsua Iron Ore Mines, Tensa - OSPCB",02-03-2026 04:00:00,21.869985,85.167016,PM10,77,109,93
India,Puducherry,Puducherry,"Jawahar Nagar, Puducherry - PPCC",02-03-2026 04:00:00,11.9309,79.8027,PM2.5,71,303,129
India,Punjab,Bathinda,"Hardev Nagar, Bathinda - PPCB",02-03-2026 04:00:00,30.233011,74.907758,NO2,15,21,18
India,Odisha,Rairangpur,"Divisional Forest Office, Rairangpur - OSPCB",02-03-2026 04:00:00,22.265816,86.174829,NH3,1,1,1
India,Odisha,Rairangpur,"Divisional Forest Office, Rairangpur - OSPCB",02-03-2026 04:00:00,22.265816,86.174829,SO2,2,42,18
India,Odisha,Talcher,"Talcher Coalfields,Talcher - OSPCB",02-03-2026 04:00:00,20.9360711,85.1707021,SO2,4,47,23
India,TamilNadu,Gummidipoondi,"Anthoni Pillai Nagar, Gummidipoondi - TNPCB",02-03-2026 04:00:00,13.4127,80.1081,NO2,13,24,18
India,TamilNadu,Perundurai,"SIPCOT Industrial Park, Perundurai - TNPCB",02-03-2026 04:00:00,11.258242,77.552761,SO2,15,15,15
India,TamilNadu,Perundurai,"SIPCOT Industrial Park, Perundurai - TNPCB",02-03-2026 04:00:00,11.258242,77.552761,OZONE,23,31,27
India,TamilNadu,Thoothukudi,"Meelavittan, Thoothukudi - TNPCB",02-03-2026 04:00:00,8.816428 ,78.099039,PM10,68,146,87
India,Telangana,Hyderabad,"Bollaram Industrial Area, Hyderabad - TSPCB",02-03-2026 04:00:00,17.540891,78.358528,NH3,2,5,3
India,Telangana,Hyderabad,"Bollaram Industrial Area, Hyderabad - TSPCB",02-03-2026 04:00:00,17.540891,78.358528,CO,14,36,27
India,Telangana,Hyderabad,"Central University, Hyderabad - TSPCB",02-03-2026 04:00:00,17.460103,78.334361,PM2.5,25,58,39
India,Telangana,Hyderabad,"Central University, Hyderabad - TSPCB",02-03-2026 04:00:00,17.460103,78.334361,PM10,27,64,43
India,Telangana,Hyderabad,"Central University, Hyderabad - TSPCB",02-03-2026 04:00:00,17.460103,78.334361,NH3,2,4,3
India,Telangana,Hyderabad,"Central University, Hyderabad - TSPCB",02-03-2026 04:00:00,17.460103,78.334361,CO,14,38,31
India,Telangana,Hyderabad,"ECIL Kapra, Hyderabad - TSPCB",02-03-2026 04:00:00,17.470431,78.566959,PM10,63,107,81
India,Telangana,Hyderabad,"ICRISAT Patancheru, Hyderabad - TSPCB",02-03-2026 04:00:00,17.518400,78.278777,PM10,79,157,145
India,Rajasthan,Jodhpur,"Jhalamand, Jodhpur - RSPCB",02-03-2026 04:00:00,26.215415,73.070156,CO,7,88,74
India,Rajasthan,Jodhpur,"Jhalamand, Jodhpur - RSPCB",02-03-2026 04:00:00,26.215415,73.070156,OZONE,3,81,4
India,Rajasthan,Jodhpur,"Mandor, Jodhpur - RSPCB",02-03-2026 04:00:00,26.358805,73.047444,PM2.5,30,177,69
India,Rajasthan,Jodhpur,"Mandor, Jodhpur - RSPCB",02-03-2026 04:00:00,26.358805,73.047444,NO2,7,84,32
India,Rajasthan,Jodhpur,"Mandor, Jodhpur - RSPCB",02-03-2026 04:00:00,26.358805,73.047444,NH3,2,5,4
India,Rajasthan,Karauli,"Satyawati Vihar, Karauli - RSPCB",02-03-2026 04:00:00,26.506177,77.025989,NO2,16,70,33
India,Rajasthan,Karauli,"Satyawati Vihar, Karauli - RSPCB",02-03-2026 04:00:00,26.506177,77.025989,NH3,8,22,16
India,Rajasthan,Karauli,"Satyawati Vihar, Karauli - RSPCB",02-03-2026 04:00:00,26.506177,77.025989,SO2,4,14,8
India,Rajasthan,Karauli,"Satyawati Vihar, Karauli - RSPCB",02-03-2026 04:00:00,26.506177,77.025989,OZONE,1,84,6
India,Rajasthan,Kota,"Dhanmandi, Kota - RSPCB",02-03-2026 04:00:00,25.164090,75.858137,PM2.5,27,230,79
India,Rajasthan,Kota,"Nayapura, Kota - RSPCB",02-03-2026 04:00:00,25.196024,75.855668,PM2.5,30,173,67
India,Rajasthan,Jalore,"Mudtra Sili, Jalore - RSPCB",02-03-2026 04:00:00,25.344694,72.626208,SO2,2,7,6
India,Rajasthan,Jhalawar,"Rajlaxmi Nagar, Jhalawar - RSPCB",02-03-2026 04:00:00,24.588397,76.172782,PM2.5,40,341,102
India,Rajasthan,Jhalawar,"Rajlaxmi Nagar, Jhalawar - RSPCB",02-03-2026 04:00:00,24.588397,76.172782,SO2,8,30,16
India,Rajasthan,Jhunjhunu,"Indra Nagar, Jhunjhunu - RSPCB",02-03-2026 04:00:00,28.108988,75.386577,SO2,8,18,11
India,Rajasthan,Jhunjhunu,"Indra Nagar, Jhunjhunu - RSPCB",02-03-2026 04:00:00,28.108988,75.386577,CO,10,46,26
India,Rajasthan,Jodhpur,"Collectorate, Jodhpur - RSPCB",02-03-2026 04:00:00,26.268249,73.0193853,PM2.5,42,72,54
India,Rajasthan,Jodhpur,"Collectorate, Jodhpur - RSPCB",02-03-2026 04:00:00,26.268249,73.0193853,SO2,1,47,13
India,Rajasthan,Jodhpur,"Collectorate, Jodhpur - RSPCB",02-03-2026 04:00:00,26.268249,73.0193853,CO,5,118,83
India,Rajasthan,Jodhpur,"Digari Kalan, Jodhpur - RSPCB",02-03-2026 04:00:00,26.295810,73.082283,PM2.5,18,197,73
India,Rajasthan,Jodhpur,"Digari Kalan, Jodhpur - RSPCB",02-03-2026 04:00:00,26.295810,73.082283,NO2,8,94,41
India,Rajasthan,Udaipur,"Ashok Nagar, Udaipur - RSPCB",02-03-2026 04:00:00,24.5886166,73.6321397,PM10,81,168,119
India,Rajasthan,Udaipur,"Ashok Nagar, Udaipur - RSPCB",02-03-2026 04:00:00,24.5886166,73.6321397,SO2,5,10,8
India,Rajasthan,Udaipur,"Ashok Nagar, Udaipur - RSPCB",02-03-2026 04:00:00,24.5886166,73.6321397,OZONE,3,76,12
India,TamilNadu,Chennai,"Kodungaiyur, Chennai - TNPCB",02-03-2026 04:00:00,13.1278,80.2642,PM2.5,85,290,125
India,TamilNadu,Chennai,"Kodungaiyur, Chennai - TNPCB",02-03-2026 04:00:00,13.1278,80.2642,PM10,84,282,140
India,TamilNadu,Chennai,"Kodungaiyur, Chennai - TNPCB",02-03-2026 04:00:00,13.1278,80.2642,NH3,3,5,4
India,TamilNadu,Chennai,"Manali Village, Chennai - TNPCB",02-03-2026 04:00:00,13.1662,80.2584,PM2.5,58,128,85
India,TamilNadu,Chennai,"Manali Village, Chennai - TNPCB",02-03-2026 04:00:00,13.1662,80.2584,NO2,3,7,5
India,TamilNadu,Chennai,"Manali, Chennai - CPCB",02-03-2026 04:00:00,13.164544,80.26285,PM2.5,NA,NA,NA
India,TamilNadu,Chennai,"Manali, Chennai - CPCB",02-03-2026 04:00:00,13.164544,80.26285,PM10,76,113,94
India,Rajasthan,Jaipur,"Police Commissionerate, Jaipur - RSPCB",02-03-2026 04:00:00,26.9164092,75.7994901,CO,62,108,78
India,Rajasthan,Jaipur,"Police Commissionerate, Jaipur - RSPCB",02-03-2026 04:00:00,26.9164092,75.7994901,OZONE,14,85,15
India,Rajasthan,Jaipur,"RIICO Sitapura, Jaipur - RSPCB",02-03-2026 04:00:00,26.786682,75.827928,PM2.5,50,308,107
India,Rajasthan,Jaipur,"RIICO Sitapura, Jaipur - RSPCB",02-03-2026 04:00:00,26.786682,75.827928,PM10,83,331,141
India,Rajasthan,Jaipur,"RIICO Sitapura, Jaipur - RSPCB",02-03-2026 04:00:00,26.786682,75.827928,CO,18,135,102
India,Rajasthan,Jaipur,"Sector-2 Murlipura, Jaipur - RSPCB",02-03-2026 04:00:00,26.960669,75.771817,OZONE,4,90,20
India,Rajasthan,Jaisalmer,"Sadar Bazar, Jaisalmer - RSPCB",02-03-2026 04:00:00,26.912329,70.909168,CO,12,110,46
India,Rajasthan,Jalore,"Mudtra Sili, Jalore - RSPCB",02-03-2026 04:00:00,25.344694,72.626208,PM2.5,35,210,72
India,TamilNadu,Chennai,"Manali, Chennai - CPCB",02-03-2026 04:00:00,13.164544,80.26285,CO,12,96,38
India,TamilNadu,Chennai,"Perungudi, Chennai - TNPCB",02-03-2026 04:00:00,12.9533,80.2357,SO2,1,7,4
India,TamilNadu,Chennai,"Royapuram, Chennai - TNPCB",02-03-2026 04:00:00,13.1036,80.2909,PM2.5,61,190,95
India,TamilNadu,Chennai,"Royapuram, Chennai - TNPCB",02-03-2026 04:00:00,13.1036,80.2909,NO2,1,5,1
India,TamilNadu,Chennai,"Velachery Res. Area, Chennai - CPCB",02-03-2026 04:00:00,13.0052189,80.2398125,NO2,13,15,14
India,TamilNadu,Coimbatore,"PSG College of Arts and Science, Coimbatore - TNPCB",02-03-2026 04:00:00,11.0328,77.0349,NH3,NA,NA,NA
India,TamilNadu,Gummidipoondi,"Anthoni Pillai Nagar, Gummidipoondi - TNPCB",02-03-2026 04:00:00,13.4127,80.1081,PM2.5,77,353,182
India,Rajasthan,Rajsamand,"Dhoinda, Rajsamand - RSPCB",02-03-2026 04:00:00,25.036360,73.883502,SO2,1,9,3
India,Rajasthan,Rajsamand,"Dhoinda, Rajsamand - RSPCB",02-03-2026 04:00:00,25.036360,73.883502,CO,2,40,24
India,Rajasthan,Sawai Madhopur,"Sahu Nagar, Sawai Madhopur - RSPCB",02-03-2026 04:00:00,26.031443,76.359327,NO2,2,116,38
India,Rajasthan,Sirohi,"Vedhaynath Colony, Sirohi - RSPCB",02-03-2026 04:00:00,24.885261,72.857549,CO,30,52,44
India,Rajasthan,Sri Ganganagar,"Old City, Sri Ganganagar - RSPCB",02-03-2026 04:00:00,29.931624,73.864511,OZONE,29,181,45
India,Rajasthan,Tonk,"Shastri Nagar, Tonk - RSPCB",02-03-2026 04:00:00,26.159933,75.780517,PM2.5,38,270,108
India,Rajasthan,Tonk,"Shastri Nagar, Tonk - RSPCB",02-03-2026 04:00:00,26.159933,75.780517,PM10,81,288,154
India,Telangana,Hyderabad,"IDA Pashamylaram, Hyderabad - TSPCB",02-03-2026 04:00:00,17.5316895,78.218939,SO2,NA,NA,NA
India,Telangana,Hyderabad,"IDA Pashamylaram, Hyderabad - TSPCB",02-03-2026 04:00:00,17.5316895,78.218939,OZONE,NA,NA,NA
India,Telangana,Hyderabad,"IITH Kandi, Hyderabad - TSPCB",02-03-2026 04:00:00,17.585705,78.126199,SO2,17,23,20
India,Telangana,Hyderabad,"Kokapet, Hyderabad - TSPCB",02-03-2026 04:00:00,17.393559,78.339194,NH3,2,3,2
India,Telangana,Hyderabad,"Kompally Municipal Office, Hyderabad - TSPCB",02-03-2026 04:00:00,17.544899,78.486949,PM2.5,49,60,54
India,Telangana,Hyderabad,"Nacharam_TSIIC IALA, Hyderabad - TSPCB",02-03-2026 04:00:00,17.429398,78.569354,NH3,4,6,5
India,Rajasthan,Kota,"Shrinath Puram, Kota - RSPCB",02-03-2026 04:00:00,25.14389,75.821256,NH3,3,14,5
India,Rajasthan,Kota,"Shrinath Puram, Kota - RSPCB",02-03-2026 04:00:00,25.14389,75.821256,SO2,4,38,14
India,Rajasthan,Kota,"Shrinath Puram, Kota - RSPCB",02-03-2026 04:00:00,25.14389,75.821256,CO,1,116,44
India,Rajasthan,Pali,"Indira Colony Vistar, Pali - RSPCB",02-03-2026 04:00:00,25.771061, 73.340227,NH3,7,17,11
India,Rajasthan,Pali,"Indira Colony Vistar, Pali - RSPCB",02-03-2026 04:00:00,25.771061, 73.340227,SO2,5,11,8
India,Rajasthan,Pratapgarh,"Pragati Nagar, Pratapgarh - RSPCB",02-03-2026 04:00:00,24.041198,74.780702,NO2,13,62,23
India,Uttar_Pradesh,Lucknow,"Kukrail Picnic Spot-1, Lucknow - UPPCB",02-03-2026 04:00:00,26.90723,80.98579,PM2.5,2,63,31
India,Uttar_Pradesh,Lucknow,"Kukrail Picnic Spot-1, Lucknow - UPPCB",02-03-2026 04:00:00,26.90723,80.98579,OZONE,10,61,40
India,Uttar_Pradesh,Lucknow,"Lalbagh, Lucknow - CPCB",02-03-2026 04:00:00,26.8458805,80.9365541,SO2,1,16,6
India,Uttar_Pradesh,Lucknow,"Lalbagh, Lucknow - CPCB",02-03-2026 04:00:00,26.8458805,80.9365541,OZONE,12,33,17
India,Uttar_Pradesh,Lucknow,"Talkatora District Industries Center, Lucknow - CPCB",02-03-2026 04:00:00,26.83399722,80.8917361,NO2,23,38,30
India,Uttar_Pradesh,Meerut,"Ganga Nagar, Meerut - UPPCB",02-03-2026 04:00:00,28.999264,77.7590354,NH3,5,6,6
India,Uttar_Pradesh,Meerut,"Ganga Nagar, Meerut - UPPCB",02-03-2026 04:00:00,28.999264,77.7590354,SO2,17,21,20
India,Uttar_Pradesh,Meerut,"Ganga Nagar, Meerut - UPPCB",02-03-2026 04:00:00,28.999264,77.7590354,CO,44,57,49
India,Uttar_Pradesh,Meerut,"Jai Bhim Nagar, Meerut - UPPCB",02-03-2026 04:00:00,28.9535882,77.7622941,PM10,111,165,138
India,Uttar_Pradesh,Agra,"Shastripuram, Agra - UPPCB",02-03-2026 04:00:00,27.19862,77.92066,PM10,19,108,55
India,Uttar_Pradesh,Agra,"Shastripuram, Agra - UPPCB",02-03-2026 04:00:00,27.19862,77.92066,CO,8,22,14
India,Uttar_Pradesh,Baghpat,"Sardar Patel Inter College, Baghpat - UPPCB",02-03-2026 04:00:00,28.964949,77.278761,PM2.5,54,197,115
India,Uttar_Pradesh,Baghpat,"Sardar Patel Inter College, Baghpat - UPPCB",02-03-2026 04:00:00,28.964949,77.278761,OZONE,14,57,27
India,Uttar_Pradesh,Bareilly,"Civil Lines, Bareilly - UPPCB",02-03-2026 04:00:00,28.359581,79.414455,PM2.5,6,39,20
India,Uttar_Pradesh,Bareilly,"Civil Lines, Bareilly - UPPCB",02-03-2026 04:00:00,28.359581,79.414455,NH3,1,6,2
India,Uttar_Pradesh,Bareilly,"Rajendra Nagar, Bareilly - UPPCB",02-03-2026 04:00:00,28.38910936,79.42963708,PM10,69,105,82
India,Uttar_Pradesh,Bareilly,"Rajendra Nagar, Bareilly - UPPCB",02-03-2026 04:00:00,28.38910936,79.42963708,NO2,9,10,9
India,Uttar_Pradesh,Firozabad,"Nagla Bhau, Firozabad - UPPCB",02-03-2026 04:00:00,27.168897,78.376960,NH3,2,2,2
India,Uttar_Pradesh,Meerut,"Pallavpuram Phase 2, Meerut - UPPCB",02-03-2026 04:00:00,29.063510,77.709723,PM2.5,78,193,105
India,Uttar_Pradesh,Meerut,"Pallavpuram Phase 2, Meerut - UPPCB",02-03-2026 04:00:00,29.063510,77.709723,PM10,65,133,100
India,Uttar_Pradesh,Meerut,"Pallavpuram Phase 2, Meerut - UPPCB",02-03-2026 04:00:00,29.063510,77.709723,NH3,7,9,8
India,Uttar_Pradesh,Moradabad,"Buddhi Vihar, Moradabad - UPPCB",02-03-2026 04:00:00,28.83526,78.74460,PM10,66,271,104
India,Uttar_Pradesh,Moradabad,"Eco Herbal Park, Moradabad - UPPCB",02-03-2026 04:00:00,28.840739,78.697531,PM2.5,33,164,93
India,Uttar_Pradesh,Moradabad,"Eco Herbal Park, Moradabad - UPPCB",02-03-2026 04:00:00,28.840739,78.697531,OZONE,6,68,24
India,Uttar_Pradesh,Moradabad,"Employment Office, Moradabad - UPPCB",02-03-2026 04:00:00,28.88528,78.73880,NO2,15,16,16
India,Uttar_Pradesh,Moradabad,"Employment Office, Moradabad - UPPCB",02-03-2026 04:00:00,28.88528,78.73880,OZONE,17,31,18
India,Uttar_Pradesh,Moradabad,"Jigar Colony, Moradabad - UPPCB",02-03-2026 04:00:00,28.856664,78.772638,NH3,6,6,6
India,Uttar_Pradesh,Moradabad,"Transport Nagar, Moradabad - UPPCB",02-03-2026 04:00:00,28.802625,78.753728,NO2,29,29,29
India,Uttar_Pradesh,Moradabad,"Transport Nagar, Moradabad - UPPCB",02-03-2026 04:00:00,28.802625,78.753728,CO,56,94,69
India,Uttar_Pradesh,Muzaffarnagar,"New Mandi, Muzaffarnagar - UPPCB",02-03-2026 04:00:00,29.4723508,77.7194031,PM10,101,141,123
India,Uttar_Pradesh,Noida,"Sector - 125, Noida - UPPCB",02-03-2026 04:00:00,28.5447608,77.3231257,NH3,11,16,13
India,Uttar_Pradesh,Noida,"Sector - 125, Noida - UPPCB",02-03-2026 04:00:00,28.5447608,77.3231257,OZONE,10,13,11
India,Uttar_Pradesh,Noida,"Sector - 62, Noida - IMD",02-03-2026 04:00:00,28.6245479,77.3577104,CO,8,30,18
India,Uttar_Pradesh,Noida,"Sector-1, Noida - UPPCB",02-03-2026 04:00:00,28.5898,77.3101,PM10,136,194,162
India,Uttar_Pradesh,Noida,"Sector-1, Noida - UPPCB",02-03-2026 04:00:00,28.5898,77.3101,NO2,NA,NA,NA
India,Telangana,Hyderabad,"New Malakpet, Hyderabad - TSPCB",02-03-2026 04:00:00,17.37206,78.50864,NO2,14,19,16
India,Telangana,Hyderabad,"New Malakpet, Hyderabad - TSPCB",02-03-2026 04:00:00,17.37206,78.50864,NH3,3,4,3
India,Telangana,Hyderabad,"New Malakpet, Hyderabad - TSPCB",02-03-2026 04:00:00,17.37206,78.50864,SO2,16,22,19
India,Telangana,Hyderabad,"New Malakpet, Hyderabad - TSPCB",02-03-2026 04:00:00,17.37206,78.50864,CO,26,48,29
India,Telangana,Hyderabad,"New Malakpet, Hyderabad - TSPCB",02-03-2026 04:00:00,17.37206,78.50864,OZONE,14,32,19
India,Telangana,Hyderabad,"Sanathnagar, Hyderabad - TSPCB",02-03-2026 04:00:00,17.4559458,78.4332152,PM2.5,45,82,65
India,Telangana,Hyderabad,"Somajiguda, Hyderabad - TSPCB",02-03-2026 04:00:00,17.417094,78.457437,PM2.5,59,68,63
India,Tripura,Agartala,"Bardowali, Agartala - Tripura SPCB",02-03-2026 04:00:00,23.8175497,91.2726974,NO2,21,37,23
India,Uttar_Pradesh,Agra,"Manoharpur, Agra - UPPCB",02-03-2026 04:00:00,27.23711,78.01936,PM10,27,107,72
India,Uttar_Pradesh,Agra,"Rohta, Agra - UPPCB",02-03-2026 04:00:00,27.106972,78.000111,PM10,64,188,109
India,Uttar_Pradesh,Agra,"Rohta, Agra - UPPCB",02-03-2026 04:00:00,27.106972,78.000111,NH3,5,5,5
India,Uttar_Pradesh,Agra,"Rohta, Agra - UPPCB",02-03-2026 04:00:00,27.106972,78.000111,SO2,5,14,9
India,Uttar_Pradesh,Agra,"Sanjay Palace, Agra - UPPCB",02-03-2026 04:00:00,27.19865833,78.00598056,PM10,NA,NA,NA
India,Uttar_Pradesh,Agra,"Sanjay Palace, Agra - UPPCB",02-03-2026 04:00:00,27.19865833,78.00598056,CO,NA,NA,NA
India,Uttar_Pradesh,Agra,"Sector-3B Avas Vikas Colony, Agra - UPPCB",02-03-2026 04:00:00,27.19412,77.96237,PM2.5,15,94,68
India,Uttar_Pradesh,Agra,"Shahjahan Garden, Agra - UPPCB",02-03-2026 04:00:00,27.169338,78.03582,SO2,41,60,50
India,Uttar_Pradesh,Greater Noida,"Knowledge Park - III, Greater Noida - UPPCB",02-03-2026 04:00:00,28.47272,77.482000,PM2.5,NA,NA,NA
India,Uttar_Pradesh,Greater Noida,"Knowledge Park - V, Greater Noida - UPPCB",02-03-2026 04:00:00,28.557054,77.453663,NO2,56,127,86
India,Uttar_Pradesh,Greater Noida,"Knowledge Park - V, Greater Noida - UPPCB",02-03-2026 04:00:00,28.557054,77.453663,SO2,8,19,13
India,Uttar_Pradesh,Hapur,"Anand Vihar, Hapur - UPPCB",02-03-2026 04:00:00,28.725645,77.749675,NH3,7,9,8
India,Uttar_Pradesh,Hapur,"Anand Vihar, Hapur - UPPCB",02-03-2026 04:00:00,28.725645,77.749675,CO,34,84,71
India,Uttar_Pradesh,Jhansi,"Shivaji Nagar, Jhansi - UPPCB",02-03-2026 04:00:00,25.4547,78.6039,NH3,3,4,4
India,Uttar_Pradesh,Jhansi,"Shivaji Nagar, Jhansi - UPPCB",02-03-2026 04:00:00,25.4547,78.6039,SO2,6,11,8
India,Uttar_Pradesh,Kanpur,"FTI Kidwai Nagar, Kanpur - UPPCB",02-03-2026 04:00:00,26.428282,80.327067,CO,32,46,37
India,Uttar_Pradesh,Kanpur,"NSI Kalyanpur, Kanpur - UPPCB",02-03-2026 04:00:00,26.509954,80.249612,PM10,57,109,89
India,Uttar_Pradesh,Kanpur,"NSI Kalyanpur, Kanpur - UPPCB",02-03-2026 04:00:00,26.509954,80.249612,NH3,5,5,5
India,Uttar_Pradesh,Lucknow,"B R Ambedkar University, Lucknow - UPPCB",02-03-2026 04:00:00,26.766433,80.927299,NH3,4,5,4
India,Uttar_Pradesh,Lucknow,"B R Ambedkar University, Lucknow - UPPCB",02-03-2026 04:00:00,26.766433,80.927299,OZONE,19,86,44
India,Uttar_Pradesh,Lucknow,"Gomti Nagar, Lucknow - UPPCB",02-03-2026 04:00:00,26.868120,81.005119,PM2.5,77,315,143
India,Uttar_Pradesh,Lucknow,"Gomti Nagar, Lucknow - UPPCB",02-03-2026 04:00:00,26.868120,81.005119,SO2,11,12,12
India,Uttar_Pradesh,Firozabad,"Vibhab Nagar, Firozabad - UPPCB",02-03-2026 04:00:00,27.1594,78.3953,NO2,15,15,15
India,Uttar_Pradesh,Ghaziabad,"Indirapuram, Ghaziabad - UPPCB",02-03-2026 04:00:00,28.646233,77.358075,NH3,18,23,21
India,Uttar_Pradesh,Ghaziabad,"Indirapuram, Ghaziabad - UPPCB",02-03-2026 04:00:00,28.646233,77.358075,SO2,15,22,19
India,Uttar_Pradesh,Ghaziabad,"Loni, Ghaziabad - UPPCB",02-03-2026 04:00:00,28.757294,77.278792,OZONE,8,74,29
India,Uttar_Pradesh,Ghaziabad,"Sanjay Nagar, Ghaziabad - UPPCB",02-03-2026 04:00:00,28.685382,77.453839,PM2.5,37,208,108
India,Uttar_Pradesh,Ghaziabad,"Vasundhara, Ghaziabad - UPPCB",02-03-2026 04:00:00,28.6603346,77.3572563,NH3,7,16,12
India,Uttar_Pradesh,Noida,"Sector-1, Noida - UPPCB",02-03-2026 04:00:00,28.5898,77.3101,CO,19,80,54
India,Uttar_Pradesh,Noida,"Sector-116, Noida - UPPCB",02-03-2026 04:00:00,28.569230,77.393848,PM10,132,192,162
India,Uttar_Pradesh,Noida,"Sector-116, Noida - UPPCB",02-03-2026 04:00:00,28.569230,77.393848,NO2,47,127,87
India,Uttar_Pradesh,Noida,"Sector-116, Noida - UPPCB",02-03-2026 04:00:00,28.569230,77.393848,CO,19,91,65
India,Uttar_Pradesh,Prayagraj,"Jhunsi, Prayagraj - UPPCB",02-03-2026 04:00:00,25.425602,81.917152,NO2,6,6,6
India,Uttar_Pradesh,Prayagraj,"Motilal Nehru NIT, Prayagraj - UPPCB",02-03-2026 04:00:00,25.494,81.863,OZONE,7,60,9
India,Uttar_Pradesh,Prayagraj,"Nagar Nigam, Prayagraj - UPPCB",02-03-2026 04:00:00,25.44919916 ,81.82735986 ,PM2.5,24,50,36
India,Uttar_Pradesh,Prayagraj,"Nagar Nigam, Prayagraj - UPPCB",02-03-2026 04:00:00,25.44919916 ,81.82735986 ,CO,22,37,33
India,Uttar_Pradesh,Varanasi,"Ardhali Bazar, Varanasi - UPPCB",02-03-2026 04:00:00,25.3505986,82.9083074,NO2,39,42,41
India,Uttar_Pradesh,Varanasi,"Ardhali Bazar, Varanasi - UPPCB",02-03-2026 04:00:00,25.3505986,82.9083074,CO,10,17,14
India,Uttar_Pradesh,Varanasi,"IESD Banaras Hindu University, Varanasi - UPPCB",02-03-2026 04:00:00,25.262326,82.995408,PM2.5,1,54,27
India,Uttar_Pradesh,Varanasi,"IESD Banaras Hindu University, Varanasi - UPPCB",02-03-2026 04:00:00,25.262326,82.995408,SO2,27,37,30
India,Uttar_Pradesh,Varanasi,"IESD Banaras Hindu University, Varanasi - UPPCB",02-03-2026 04:00:00,25.262326,82.995408,OZONE,1,17,6
India,Uttar_Pradesh,Varanasi,"Maldahiya, Varanasi - UPPCB",02-03-2026 04:00:00,25.32393,82.99687,SO2,37,41,39
India,Uttar_Pradesh,Vrindavan,"Omex Eternity, Vrindavan - UPPCB",02-03-2026 04:00:00,27.5714090,77.6557570,SO2,14,15,14
India,Uttar_Pradesh,Vrindavan,"Omex Eternity, Vrindavan - UPPCB",02-03-2026 04:00:00,27.5714090,77.6557570,OZONE,15,16,15
India,Uttarakhand,Dehradun,"Doon University, Dehradun - UKPCB",02-03-2026 04:00:00,30.269444,78.044167,CO,4,5,4
India,Uttarakhand,Kashipur,"Govt. Girls Inter College, Kashipur - UKPCB",02-03-2026 04:00:00,29.2124114,78.9611753,NO2,NA,NA,NA
India,Uttarakhand,Kashipur,"Govt. Girls Inter College, Kashipur - UKPCB",02-03-2026 04:00:00,29.2124114,78.9611753,SO2,NA,NA,NA
India,West_Bengal,Asansol,"Asansol Court Area, Asansol - WBPCB",02-03-2026 04:00:00,23.685297,86.945968,PM10,65,166,108
India,West_Bengal,Asansol,"Evelyn Lodge, Asansol - WBPCB",02-03-2026 04:00:00,23.6979360,86.9443950,NO2,11,54,31
India,West_Bengal,Asansol,"Evelyn Lodge, Asansol - WBPCB",02-03-2026 04:00:00,23.6979360,86.9443950,OZONE,3,60,12
India,West_Bengal,Asansol,"Mahabir Colliery, Asansol - WBPCB",02-03-2026 04:00:00,23.6181830,87.1057180,SO2,5,9,7
India,West_Bengal,Asansol,"Trivenidevi Bhalotia College, Asansol - WBPCB",02-03-2026 04:00:00,23.616515,87.119133,PM2.5,49,293,122
India,West_Bengal,Asansol,"Trivenidevi Bhalotia College, Asansol - WBPCB",02-03-2026 04:00:00,23.616515,87.119133,NO2,22,69,41
India,West_Bengal,Barrackpore,"SVSPA Campus, Barrackpore - WBPCB",02-03-2026 04:00:00,22.7605581,88.3617589,PM2.5,44,95,62
India,West_Bengal,Durgapur,"Mahishkapur Road_B-Zone, Durgapur - WBPCB",02-03-2026 04:00:00,23.567923,87.306843,NH3,3,6,4
India,West_Bengal,Durgapur,"Mahishkapur Road_B-Zone, Durgapur - WBPCB",02-03-2026 04:00:00,23.567923,87.306843,SO2,4,88,21
India,West_Bengal,Durgapur,"PCBL Residential Complex, Durgapur - WBPCB",02-03-2026 04:00:00,23.5087640,87.3544400,NO2,31,78,49
India,West_Bengal,Durgapur,"Womens College_City Center, Durgapur - WBPCB",02-03-2026 04:00:00,23.549395,87.300496,PM10,84,267,133
India,West_Bengal,Durgapur,"Womens College_City Center, Durgapur - WBPCB",02-03-2026 04:00:00,23.549395,87.300496,NO2,26,44,32
India,West_Bengal,Durgapur,"Womens College_City Center, Durgapur - WBPCB",02-03-2026 04:00:00,23.549395,87.300496,NH3,2,5,3
India,West_Bengal,Durgapur,"Womens College_City Center, Durgapur - WBPCB",02-03-2026 04:00:00,23.549395,87.300496,OZONE,2,101,5
India,West_Bengal,Haldia,"Priyambada Housing Estate, Haldia - WBPCB",02-03-2026 04:00:00,22.06047,88.109737,PM10,38,82,63
India,West_Bengal,Haldia,"Priyambada Housing Estate, Haldia - WBPCB",02-03-2026 04:00:00,22.06047,88.109737,NO2,8,30,13
India,West_Bengal,Haldia,"Priyambada Housing Estate, Haldia - WBPCB",02-03-2026 04:00:00,22.06047,88.109737,CO,28,32,31
India,West_Bengal,Haldia,"Priyambada Housing Estate, Haldia - WBPCB",02-03-2026 04:00:00,22.06047,88.109737,OZONE,23,25,24
India,West_Bengal,Howrah,"Belur Math, Howrah - WBPCB",02-03-2026 04:00:00,22.629801,88.352017,PM2.5,55,79,65
India,West_Bengal,Howrah,"Belur Math, Howrah - WBPCB",02-03-2026 04:00:00,22.629801,88.352017,PM10,100,127,111
India,West_Bengal,Howrah,"Belur Math, Howrah - WBPCB",02-03-2026 04:00:00,22.629801,88.352017,SO2,8,34,16
India,West_Bengal,Howrah,"Botanical Garden, Howrah - WBPCB",02-03-2026 04:00:00,22.554954,88.292568,PM10,51,80,63
India,West_Bengal,Howrah,"Botanical Garden, Howrah - WBPCB",02-03-2026 04:00:00,22.554954,88.292568,NO2,6,22,11
India,West_Bengal,Howrah,"Botanical Garden, Howrah - WBPCB",02-03-2026 04:00:00,22.554954,88.292568,NH3,1,2,1
India,West_Bengal,Howrah,"Dasnagar, Howrah - WBPCB",02-03-2026 04:00:00,22.6025571,88.3105664,PM10,35,110,61
India,West_Bengal,Howrah,"Ghusuri, Howrah - WBPCB",02-03-2026 04:00:00,22.611968,88.347422,NO2,27,65,36
India,West_Bengal,Howrah,"Ghusuri, Howrah - WBPCB",02-03-2026 04:00:00,22.611968,88.347422,NH3,10,17,14
India,West_Bengal,Howrah,"Ghusuri, Howrah - WBPCB",02-03-2026 04:00:00,22.611968,88.347422,CO,38,61,43
India,West_Bengal,Howrah,"Padmapukur, Howrah - WBPCB",02-03-2026 04:00:00,22.5687319,88.2797276,PM10,44,130,92
India,West_Bengal,Howrah,"Padmapukur, Howrah - WBPCB",02-03-2026 04:00:00,22.5687319,88.2797276,CO,24,70,57
India,West_Bengal,Kolkata,"Ballygunge, Kolkata - WBPCB",02-03-2026 04:00:00,22.5367507,88.3638022,OZONE,16,34,19
India,West_Bengal,Kolkata,"Bidhannagar, Kolkata - WBPCB",02-03-2026 04:00:00,22.58157048,88.41002457,PM2.5,45,82,62
India,West_Bengal,Kolkata,"Fort William, Kolkata - WBPCB",02-03-2026 04:00:00,22.556640,88.342674,PM2.5,45,82,60
India,West_Bengal,Kolkata,"Fort William, Kolkata - WBPCB",02-03-2026 04:00:00,22.556640,88.342674,CO,19,34,22
India,West_Bengal,Kolkata,"Rabindra Bharati University, Kolkata - WBPCB",02-03-2026 04:00:00,22.627847,88.380669,PM2.5,66,107,86
India,West_Bengal,Kolkata,"Rabindra Sarobar, Kolkata - WBPCB",02-03-2026 04:00:00,22.51106,88.35142,PM10,42,80,60
India,West_Bengal,Kolkata,"Rabindra Sarobar, Kolkata - WBPCB",02-03-2026 04:00:00,22.51106,88.35142,NO2,15,39,23
India,West_Bengal,Kolkata,"Rabindra Sarobar, Kolkata - WBPCB",02-03-2026 04:00:00,22.51106,88.35142,NH3,7,9,8
India,West_Bengal,Kolkata,"Victoria, Kolkata - WBPCB",02-03-2026 04:00:00,22.5448082,88.3403691,PM10,69,144,106
India,Andhra_Pradesh,Anantapur,"Gulzarpet, Anantapur - APPCB",02-03-2026 04:00:00,14.675886,77.593027,NH3,6,6,6
India,Andhra_Pradesh,Chittoor,"Gangineni Cheruvu, Chittoor - APPCB",02-03-2026 04:00:00,13.204880,79.097889,NO2,28,32,29
India,Andhra_Pradesh,Chittoor,"Gangineni Cheruvu, Chittoor - APPCB",02-03-2026 04:00:00,13.204880,79.097889,SO2,12,13,13
India,Andhra_Pradesh,Kadapa,"Yerramukkapalli, Kadapa - APPCB",02-03-2026 04:00:00,14.465052,78.824187,NO2,20,20,20
India,Andhra_Pradesh,Kadapa,"Yerramukkapalli, Kadapa - APPCB",02-03-2026 04:00:00,14.465052,78.824187,CO,20,32,21
India,Andhra_Pradesh,Rajamahendravaram,"Anand Kala Kshetram, Rajamahendravaram - APPCB",02-03-2026 04:00:00,16.9872867,81.7363176,PM10,67,110,86
India,Andhra_Pradesh,Tirumala,"Toll Gate, Tirumala - APPCB",02-03-2026 04:00:00,13.67,79.35,PM2.5,84,129,103
India,Andhra_Pradesh,Tirumala,"Toll Gate, Tirumala - APPCB",02-03-2026 04:00:00,13.67,79.35,NO2,12,49,23
India,Andhra_Pradesh,Tirupati,"Vaikuntapuram, Tirupati - APPCB",02-03-2026 04:00:00,13.615387,79.409230,PM10,55,214,81
India,Assam,Nalbari,"Bata Chowk, Nalbari - PCBA",02-03-2026 04:00:00,26.446912,91.439057,NO2,4,15,14
India,Assam,Nalbari,"Bata Chowk, Nalbari - PCBA",02-03-2026 04:00:00,26.446912,91.439057,OZONE,8,16,15
India,Assam,Sivasagar,"Girls College, Sivasagar - PCBA",02-03-2026 04:00:00,26.987634,94.636574,PM2.5,28,55,40
India,Assam,Sivasagar,"Girls College, Sivasagar - PCBA",02-03-2026 04:00:00,26.987634,94.636574,SO2,10,14,13
India,Assam,Sivasagar,"Girls College, Sivasagar - PCBA",02-03-2026 04:00:00,26.987634,94.636574,OZONE,5,33,6
India,Bihar,Araria,"Kharahiya Basti, Araria - BSPCB",02-03-2026 04:00:00,26.146529,87.454184,CO,33,91,61
India,Bihar,Arrah,"New DM Office, Arrah - BSPCB",02-03-2026 04:00:00,25.5626095,84.663264,NH3,1,2,2
India,Bihar,Aurangabad,"Gurdeo Nagar, Aurangabad - BSPCB",02-03-2026 04:00:00,24.75746,84.366208,PM10,54,119,77
India,Bihar,Aurangabad,"Gurdeo Nagar, Aurangabad - BSPCB",02-03-2026 04:00:00,24.75746,84.366208,NH3,1,2,2
India,Bihar,Buxar,"Charitra Van, Buxar - BSPCB",02-03-2026 04:00:00,25.567520,83.966379,PM10,45,78,61
India,Bihar,Buxar,"Charitra Van, Buxar - BSPCB",02-03-2026 04:00:00,25.567520,83.966379,SO2,6,49,26
India,Bihar,Buxar,"Charitra Van, Buxar - BSPCB",02-03-2026 04:00:00,25.567520,83.966379,OZONE,2,36,10
India,Bihar,Chhapra,"Darshan Nagar, Chhapra - BSPCB",02-03-2026 04:00:00,25.7808257,84.7446768,PM10,NA,NA,NA
India,Bihar,Gaya,"Collectorate, Gaya - BSPCB",02-03-2026 04:00:00,24.7955,84.9994,PM2.5,NA,NA,NA
India,Bihar,Gaya,"Collectorate, Gaya - BSPCB",02-03-2026 04:00:00,24.7955,84.9994,NO2,NA,NA,NA
India,Bihar,Gaya,"Kareemganj, Gaya - BSPCB",02-03-2026 04:00:00,24.792403,84.992416,NO2,11,13,12
India,Bihar,Gaya,"Kareemganj, Gaya - BSPCB",02-03-2026 04:00:00,24.792403,84.992416,NH3,1,2,1
India,Bihar,Hajipur,"Industrial Area, Hajipur - BSPCB",02-03-2026 04:00:00,25.697189,85.245900,CO,8,54,48
India,Assam,Byrnihat,"Central Academy for SFS, Byrnihat - PCBA",02-03-2026 04:00:00,26.071318,91.87488,PM10,63,165,96
India,Assam,Guwahati,"LGBI Airport, Guwahati - PCBA",02-03-2026 04:00:00,26.10887,91.589544,SO2,1,19,11
India,Assam,Guwahati,"Pan Bazaar, Guwahati - PCBA",02-03-2026 04:00:00,26.187500,91.744194,PM2.5,32,76,60
India,Assam,Guwahati,"Pan Bazaar, Guwahati - PCBA",02-03-2026 04:00:00,26.187500,91.744194,CO,14,23,20
India,Assam,Guwahati,"Pan Bazaar, Guwahati - PCBA",02-03-2026 04:00:00,26.187500,91.744194,OZONE,16,24,19
India,Assam,Nagaon,"Christianpatty, Nagaon - PCBA",02-03-2026 04:00:00,26.349082,92.68449,PM10,53,114,73
India,Assam,Nagaon,"Christianpatty, Nagaon - PCBA",02-03-2026 04:00:00,26.349082,92.68449,SO2,7,15,10
India,Assam,Nalbari,"Bata Chowk, Nalbari - PCBA",02-03-2026 04:00:00,26.446912,91.439057,PM2.5,149,163,158
India,Andhra_Pradesh,Tirupati,"Vaikuntapuram, Tirupati - APPCB",02-03-2026 04:00:00,13.615387,79.409230,OZONE,28,29,28
India,Andhra_Pradesh,Vijayawada,"Kanuru, Vijayawada - APPCB",02-03-2026 04:00:00,16.486692,80.699436,NH3,NA,NA,NA
India,Andhra_Pradesh,Vijayawada,"Rajiv Nagar, Vijayawada - APPCB",02-03-2026 04:00:00,16.554731,80.649110,NH3,4,4,4
India,Andhra_Pradesh,Vijayawada,"Rajiv Nagar, Vijayawada - APPCB",02-03-2026 04:00:00,16.554731,80.649110,SO2,16,18,17
India,Andhra_Pradesh,Vijayawada,"Rajiv Nagar, Vijayawada - APPCB",02-03-2026 04:00:00,16.554731,80.649110,CO,37,40,38
India,Andhra_Pradesh,Visakhapatnam,"GVM Corporation, Visakhapatnam - APPCB",02-03-2026 04:00:00,17.72,83.3,PM2.5,78,241,144
India,Bihar,Muzaffarpur,"MIT-Daudpur Kothi, Muzaffarpur - BSPCB",02-03-2026 04:00:00,26.1403345,85.3650192,NO2,2,2,2
India,Bihar,Muzaffarpur,"MIT-Daudpur Kothi, Muzaffarpur - BSPCB",02-03-2026 04:00:00,26.1403345,85.3650192,CO,36,46,42
India,Bihar,Patna,"Govt. High School Shikarpur, Patna - BSPCB",02-03-2026 04:00:00,25.592539,85.227158,NO2,11,39,20
India,Bihar,Patna,"Muradpur, Patna - BSPCB",02-03-2026 04:00:00,25.619651,85.147382,PM10,125,141,135
India,Bihar,Patna,"Muradpur, Patna - BSPCB",02-03-2026 04:00:00,25.619651,85.147382,NH3,4,5,5
India,Bihar,Patna,"Muradpur, Patna - BSPCB",02-03-2026 04:00:00,25.619651,85.147382,CO,7,56,39
India,Bihar,Katihar,"Mirchaibari, Katihar - BSPCB",02-03-2026 04:00:00,25.560083,87.553265,NO2,9,10,9
India,Bihar,Motihari,"Gandak Colony, Motihari - BSPCB",02-03-2026 04:00:00,26.63086,84.90051,OZONE,3,6,4
India,Bihar,Munger,"Town Hall, Munger - BSPCB",02-03-2026 04:00:00,25.376776,86.471523,OZONE,9,11,10
India,Bihar,Muzaffarpur,"Buddha Colony, Muzaffarpur - BSPCB",02-03-2026 04:00:00,26.11442,85.39813,PM2.5,97,243,156
India,Bihar,Begusarai,"Lohiyanagar, Begusarai - BSPCB",02-03-2026 04:00:00,25.42742023,86.13886079,PM2.5,35,170,85
India,Bihar,Bettiah,"Kamalnath Nagar, Bettiah - BSPCB",02-03-2026 04:00:00,26.80365,84.51954,PM2.5,NA,NA,NA
India,Bihar,Bhagalpur,"Mayaganj, Bhagalpur - BSPCB",02-03-2026 04:00:00,25.265194,87.012947,OZONE,11,34,14
India,Bihar,Bihar Sharif,"D M Colony, Bihar Sharif - BSPCB",02-03-2026 04:00:00,25.204762,85.514960,OZONE,2,2,2
India,Bihar,Purnia,"Mariam Nagar, Purnia - BSPCB",02-03-2026 04:00:00,25.366336,87.117468,CO,48,64,54
India,Bihar,Purnia,"Mariam Nagar, Purnia - BSPCB",02-03-2026 04:00:00,25.366336,87.117468,OZONE,5,50,21
India,Bihar,Rajgir,"Dangi Tola, Rajgir - BSPCB",02-03-2026 04:00:00,25.03280,85.41948,PM10,26,64,46
India,Bihar,Saharsa,"Police Line, Saharsa - BSPCB",02-03-2026 04:00:00,25.892357,86.590325,PM10,72,189,130
India,Bihar,Saharsa,"Police Line, Saharsa - BSPCB",02-03-2026 04:00:00,25.892357,86.590325,NH3,4,4,4
India,Andhra_Pradesh,Amaravati,"Secretariat, Amaravati - APPCB",02-03-2026 04:00:00,16.5150833,80.5181667,PM10,94,175,112
India,Andhra_Pradesh,Amaravati,"Secretariat, Amaravati - APPCB",02-03-2026 04:00:00,16.5150833,80.5181667,NO2,12,39,20
India,Chhattisgarh,Bhilai,"32Bungalows, Bhilai - CECB",02-03-2026 04:00:00,21.194815,81.314770,OZONE,1,26,3
India,Chhattisgarh,Bhilai,"Civic Center, Bhilai - Bhilai Steel Plant",02-03-2026 04:00:00,21.185571,81.343175,PM2.5,14,52,33
India,Chhattisgarh,Bhilai,"Hathkhoj, Bhilai - CECB",02-03-2026 04:00:00,21.224231,81.408350,PM2.5,13,124,43
India,Chhattisgarh,Bhilai,"Hathkhoj, Bhilai - CECB",02-03-2026 04:00:00,21.224231,81.408350,NO2,21,88,47
India,Chhattisgarh,Bhilai,"Hathkhoj, Bhilai - CECB",02-03-2026 04:00:00,21.224231,81.408350,OZONE,3,24,11
India,Chhattisgarh,Bilaspur,"Mangala, Bilaspur - NTPC",02-03-2026 04:00:00,22.08815,82.13737,PM10,NA,NA,NA
India,Chhattisgarh,Chhal,"Nawapara SECL Colony, Chhal - CECB",02-03-2026 04:00:00,22.118125,83.140608,PM2.5,40,87,63
India,Chhattisgarh,Chhal,"Nawapara SECL Colony, Chhal - CECB",02-03-2026 04:00:00,22.118125,83.140608,CO,24,44,33
India,Chhattisgarh,Korba,"Rampur, Korba - CECB",02-03-2026 04:00:00,22.368195,82.746431,NO2,9,52,22
India,Chhattisgarh,Raipur,"Siltara Phase-II, Raipur - CECB",02-03-2026 04:00:00,21.371751,81.664929,SO2,4,79,22
India,Chhattisgarh,Raipur,"Siltara Phase-II, Raipur - CECB",02-03-2026 04:00:00,21.371751,81.664929,OZONE,2,23,8
India,Chhattisgarh,Tumidih,"OP Jindal Industrial Park, Tumidih - CECB",02-03-2026 04:00:00,22.06631475,83.33820077,OZONE,3,124,21
India,Delhi,Delhi,"Anand Vihar, Delhi - DPCC",02-03-2026 04:00:00,28.647622,77.3158090,PM2.5,33,331,197
India,Delhi,Delhi,"Ashok Vihar, Delhi - DPCC",02-03-2026 04:00:00,28.695381,77.181665,NO2,19,85,48
India,Delhi,Delhi,"Aya Nagar, Delhi - IMD",02-03-2026 04:00:00,28.4706914,77.1099364,PM2.5,59,164,106
India,Delhi,Delhi,"Bawana, Delhi - DPCC",02-03-2026 04:00:00,28.776200,77.051074,PM10,142,275,182
India,Delhi,Delhi,"Dwarka-Sector 8, Delhi - DPCC ",02-03-2026 04:00:00,28.5710274,77.0719006,NH3,18,24,21
India,Delhi,Delhi,"Dwarka-Sector 8, Delhi - DPCC ",02-03-2026 04:00:00,28.5710274,77.0719006,SO2,17,30,23
India,Delhi,Delhi,"IGNOU_Maidan Garhi, Delhi - DPCC",02-03-2026 04:00:00,28.493624 ,77.201159 ,NO2,1,1,1
India,Delhi,Delhi,"IGNOU_Maidan Garhi, Delhi - DPCC",02-03-2026 04:00:00,28.493624 ,77.201159 ,OZONE,5,60,12
India,Delhi,Delhi,"IHBAS, Dilshad Garden, Delhi - CPCB",02-03-2026 04:00:00,28.6811736,77.3025234,PM2.5,72,200,121
India,Delhi,Delhi,"IIT Delhi, Delhi - IITM",02-03-2026 04:00:00,28.542460,77.191651,CO,30,78,67
India,Delhi,Delhi,"ITO, Delhi - CPCB",02-03-2026 04:00:00,28.628624,77.241060,NO2,33,66,47
India,Delhi,Delhi,"ITO, Delhi - CPCB",02-03-2026 04:00:00,28.628624,77.241060,NH3,3,5,4
India,Delhi,Delhi,"ITO, Delhi - CPCB",02-03-2026 04:00:00,28.628624,77.241060,CO,10,56,43
India,Chhattisgarh,Korba,"Rampur, Korba - CECB",02-03-2026 04:00:00,22.368195,82.746431,OZONE,4,15,10
India,Chhattisgarh,Kunjemura,"OP Jindal School, Kunjemura - CECB",02-03-2026 04:00:00,22.126650,83.483212,NO2,26,112,58
India,Chhattisgarh,Milupara,"Govt. Higher Secondary School, Milupara - CECB",02-03-2026 04:00:00,22.1910172,83.5197009,PM10,NA,NA,NA
India,Chhattisgarh,Milupara,"Govt. Higher Secondary School, Milupara - CECB",02-03-2026 04:00:00,22.1910172,83.5197009,SO2,NA,NA,NA
India,Chhattisgarh,Raipur,"AIIMS, Raipur - CECB",02-03-2026 04:00:00,21.258815,81.578979,NO2,34,44,39
India,Chhattisgarh,Raipur,"AIIMS, Raipur - CECB",02-03-2026 04:00:00,21.258815,81.578979,CO,18,38,27
India,Chhattisgarh,Raipur,"Siltara Phase-II, Raipur - CECB",02-03-2026 04:00:00,21.371751,81.664929,PM2.5,37,146,70
India,Delhi,Delhi,"Nehru Nagar, Delhi - DPCC",02-03-2026 04:00:00,28.567890,77.250515,OZONE,2,213,33
India,Delhi,Delhi,"Okhla Phase-2, Delhi - DPCC",02-03-2026 04:00:00,28.530785,77.271255,PM10,130,199,159
India,Delhi,Delhi,"Okhla Phase-2, Delhi - DPCC",02-03-2026 04:00:00,28.530785,77.271255,CO,74,124,107
India,Delhi,Delhi,"Patparganj, Delhi - DPCC",02-03-2026 04:00:00,28.623763,77.287209,PM10,127,199,164
India,Delhi,Delhi,"Punjabi Bagh, Delhi - DPCC",02-03-2026 04:00:00,28.674045,77.131023,NH3,5,6,5
India,Delhi,Delhi,"Pusa, Delhi - DPCC",02-03-2026 04:00:00,28.639652,77.146275,NO2,44,137,80
India,Delhi,Delhi,"Pusa, Delhi - DPCC",02-03-2026 04:00:00,28.639652,77.146275,CO,28,119,63
India,Bihar,Siwan,"Chitragupta Nagar, Siwan - BSPCB",02-03-2026 04:00:00,26.2271665,84.3570427,PM10,NA,NA,NA
India,Bihar,Siwan,"Chitragupta Nagar, Siwan - BSPCB",02-03-2026 04:00:00,26.2271665,84.3570427,CO,NA,NA,NA
India,Chandigarh,Chandigarh,"Sector 22, Chandigarh - CPCC",02-03-2026 04:00:00,30.735567,76.775714,PM2.5,27,67,45
India,Chandigarh,Chandigarh,"Sector 22, Chandigarh - CPCC",02-03-2026 04:00:00,30.735567,76.775714,OZONE,29,142,85
India,Chandigarh,Chandigarh,"Sector-25, Chandigarh - CPCC",02-03-2026 04:00:00,30.751462,76.762879,NO2,1,5,3
India,Chandigarh,Chandigarh,"Sector-53, Chandigarh - CPCC",02-03-2026 04:00:00,30.719859,76.738637,CO,28,54,49
India,Delhi,Delhi,"Burari Crossing, Delhi - IMD",02-03-2026 04:00:00,28.7256504,77.2011573,OZONE,17,282,37
India,Delhi,Delhi,"CRRI Mathura Road, Delhi - IMD",02-03-2026 04:00:00,28.5512005,77.2735737,PM10,118,187,149
India,Delhi,Delhi,"Chandni Chowk, Delhi - IITM",02-03-2026 04:00:00,28.656756,77.227234,CO,8,103,49
India,Delhi,Delhi,"DTU, Delhi - CPCB",02-03-2026 04:00:00,28.7500499,77.1112615,PM10,86,159,118
India,Delhi,Delhi,"Dr. Karni Singh Shooting Range, Delhi - DPCC",02-03-2026 04:00:00,28.498571,77.264840,NH3,6,9,8
India,Delhi,Delhi,"JNU, Delhi - DPCC",02-03-2026 04:00:00,28.540721 ,77.168544 ,PM10,102,183,144
India,Delhi,Delhi,"Jahangirpuri, Delhi - DPCC",02-03-2026 04:00:00,28.732820,77.170633,PM10,141,260,181
India,Delhi,Delhi,"Jawaharlal Nehru Stadium, Delhi - DPCC",02-03-2026 04:00:00,28.580280,77.233829,PM10,113,193,157
India,Delhi,Delhi,"Jawaharlal Nehru Stadium, Delhi - DPCC",02-03-2026 04:00:00,28.580280,77.233829,SO2,10,31,21
India,Delhi,Delhi,"Lodhi Road, Delhi - IMD",02-03-2026 04:00:00,28.5918245,77.2273074,PM10,120,172,144
India,Delhi,Delhi,"NSUT Jaffarpur, Delhi - DPCC",02-03-2026 04:00:00,28.594004 ,76.909423 ,NH3,17,23,20
India,Delhi,Delhi,"NSUT Jaffarpur, Delhi - DPCC",02-03-2026 04:00:00,28.594004 ,76.909423 ,SO2,81,86,83
India,Delhi,Delhi,"Najafgarh, Delhi - DPCC",02-03-2026 04:00:00,28.570173,76.933762,NH3,11,12,11
India,Delhi,Delhi,"Najafgarh, Delhi - DPCC",02-03-2026 04:00:00,28.570173,76.933762,OZONE,5,124,24
India,Delhi,Delhi,"Narela, Delhi - DPCC",02-03-2026 04:00:00,28.822836,77.101981,NO2,8,49,22
India,Delhi,Delhi,"Narela, Delhi - DPCC",02-03-2026 04:00:00,28.822836,77.101981,OZONE,12,91,30
India,Delhi,Delhi,"Sri Aurobindo Marg, Delhi - DPCC",02-03-2026 04:00:00,28.531346,77.190156,PM10,107,162,132
India,Delhi,Delhi,"Sri Aurobindo Marg, Delhi - DPCC",02-03-2026 04:00:00,28.531346,77.190156,NH3,5,8,6
India,Delhi,Delhi,"Talkatora Garden, Delhi - DPCC",02-03-2026 04:00:00,28.621810,77.1944633,PM2.5,77,304,190
India,Delhi,Delhi,"Talkatora Garden, Delhi - DPCC",02-03-2026 04:00:00,28.621810,77.1944633,NH3,6,8,7
India,Delhi,Delhi,"Talkatora Garden, Delhi - DPCC",02-03-2026 04:00:00,28.621810,77.1944633,CO,48,99,74
India,Delhi,Delhi,"Vivek Vihar, Delhi - DPCC",02-03-2026 04:00:00,28.672342,77.315260,PM10,136,191,161
India,Delhi,Delhi,"Vivek Vihar, Delhi - DPCC",02-03-2026 04:00:00,28.672342,77.315260,SO2,13,30,21
India,Delhi,Delhi,"Vivek Vihar, Delhi - DPCC",02-03-2026 04:00:00,28.672342,77.315260,OZONE,1,106,18
India,Delhi,Delhi,"Wazirpur, Delhi - DPCC",02-03-2026 04:00:00,28.699793,77.165453,PM2.5,68,322,187
India,Delhi,Delhi,"Wazirpur, Delhi - DPCC",02-03-2026 04:00:00,28.699793,77.165453,NH3,9,14,12
India,Delhi,Delhi,"Wazirpur, Delhi - DPCC",02-03-2026 04:00:00,28.699793,77.165453,SO2,2,27,13
India,Gujarat,Ahmedabad,"Gyaspur, Ahmedabad - IITM",02-03-2026 04:00:00,22.977134,72.553024,PM2.5,58,294,102
India,Gujarat,Ahmedabad,"Gyaspur, Ahmedabad - IITM",02-03-2026 04:00:00,22.977134,72.553024,NO2,30,98,57
India,Gujarat,Ahmedabad,"Gyaspur, Ahmedabad - IITM",02-03-2026 04:00:00,22.977134,72.553024,SO2,3,109,35
India,Gujarat,Ahmedabad,"Maninagar, Ahmedabad - GPCB",02-03-2026 04:00:00,23.002657,72.591912,NO2,90,98,96
India,Gujarat,Ahmedabad,"Maninagar, Ahmedabad - GPCB",02-03-2026 04:00:00,23.002657,72.591912,SO2,24,58,36
India,Gujarat,Ahmedabad,"Raikhad, Ahmedabad - IITM",02-03-2026 04:00:00,23.020509,72.579261,PM2.5,65,194,101
India,Gujarat,Ahmedabad,"Raikhad, Ahmedabad - IITM",02-03-2026 04:00:00,23.020509,72.579261,NH3,14,33,19
India,Gujarat,Ahmedabad,"Raikhad, Ahmedabad - IITM",02-03-2026 04:00:00,23.020509,72.579261,OZONE,1,73,6
India,Gujarat,Ahmedabad,"Rakhial, Ahmedabad - IITM",02-03-2026 04:00:00,23.016834,72.625775,NH3,4,9,6
India,Gujarat,Ahmedabad,"SAC ISRO Bopal, Ahmedabad - IITM",02-03-2026 04:00:00,23.041137,72.456691,PM10,69,140,103
India,Gujarat,Ahmedabad,"SAC ISRO Satellite, Ahmedabad - IITM",02-03-2026 04:00:00,23.023389,72.515201,PM2.5,60,168,108
India,Gujarat,Ahmedabad,"SAC ISRO Satellite, Ahmedabad - IITM",02-03-2026 04:00:00,23.023389,72.515201,PM10,84,155,116
India,Gujarat,Ahmedabad,"SAC ISRO Satellite, Ahmedabad - IITM",02-03-2026 04:00:00,23.023389,72.515201,NO2,3,21,10
India,Gujarat,Ahmedabad,"SAC ISRO Satellite, Ahmedabad - IITM",02-03-2026 04:00:00,23.023389,72.515201,CO,4,105,57
India,Haryana,Faridabad,"New Industrial Town, Faridabad - HSPCB",02-03-2026 04:00:00,28.39072,77.30059,NH3,11,12,11
India,Haryana,Faridabad,"Sector 11, Faridabad - HSPCB",02-03-2026 04:00:00,28.376058,77.315741,PM2.5,142,420,263
India,Haryana,Faridabad,"Sector 11, Faridabad - HSPCB",02-03-2026 04:00:00,28.376058,77.315741,PM10,137,344,206
India,Haryana,Faridabad,"Sector 11, Faridabad - HSPCB",02-03-2026 04:00:00,28.376058,77.315741,NO2,30,33,32
India,Haryana,Faridabad,"Sector 11, Faridabad - HSPCB",02-03-2026 04:00:00,28.376058,77.315741,NH3,10,10,10
India,Haryana,Faridabad,"Sector 30, Faridabad - HSPCB",02-03-2026 04:00:00,28.4417,77.3217,PM10,106,118,111
India,Haryana,Faridabad,"Sector 30, Faridabad - HSPCB",02-03-2026 04:00:00,28.4417,77.3217,CO,60,66,63
India,Haryana,Gurugram,"NISE Gwal Pahari, Gurugram - IMD",02-03-2026 04:00:00,28.422681,77.148944,PM10,122,205,163
India,Haryana,Gurugram,"NISE Gwal Pahari, Gurugram - IMD",02-03-2026 04:00:00,28.422681,77.148944,NO2,11,61,31
India,Haryana,Gurugram,"Sector-51, Gurugram - HSPCB",02-03-2026 04:00:00,28.4227,77.0667,PM2.5,151,366,291
India,Haryana,Gurugram,"Vikas Sadan, Gurugram - HSPCB",02-03-2026 04:00:00,28.4501238,77.0263051,PM10,141,178,156
India,Gujarat,Mehsana,"Sadanand Nagar, Mehsana - Nexteng Enviro",02-03-2026 04:00:00,23.593150,72.372792,OZONE,10,20,12
India,Gujarat,Rajkot,"Mavdi, Rajkot - Nexteng Enviro ",02-03-2026 04:00:00,22.248853,70.776774,PM10,52,118,86
India,Gujarat,Rajkot,"Mavdi, Rajkot - Nexteng Enviro ",02-03-2026 04:00:00,22.248853,70.776774,NO2,8,25,12
India,Gujarat,Surat,"Katargam, Surat - Nexteng Enviro",02-03-2026 04:00:00,21.217779 ,72.834787 ,OZONE,9,9,9
India,Gujarat,Vadodara,"Bapunagar, Vadodara - Nexteng Enviro",02-03-2026 04:00:00,22.320153,73.216285,NO2,2,75,24
India,Gujarat,Vadodara,"Bapunagar, Vadodara - Nexteng Enviro",02-03-2026 04:00:00,22.320153,73.216285,SO2,8,45,19
India,Gujarat,Vadodara,"Bapunagar, Vadodara - Nexteng Enviro",02-03-2026 04:00:00,22.320153,73.216285,CO,80,103,100
India,Gujarat,Vadodara,"Bapunagar, Vadodara - Nexteng Enviro",02-03-2026 04:00:00,22.320153,73.216285,OZONE,2,8,3
India,Gujarat,Vatva,"Phase-4 GIDC, Vatva - GPCB",02-03-2026 04:00:00,22.969611,72.643500,NH3,6,14,9
India,Haryana,Ambala,"Patti Mehar, Ambala - HSPCB",02-03-2026 04:00:00,30.379589,76.778328,SO2,12,12,12
India,Haryana,Jind,"Police Lines, Jind - HSPCB",02-03-2026 04:00:00,29.307814,76.337619,NH3,2,3,2
India,Haryana,Jind,"Police Lines, Jind - HSPCB",02-03-2026 04:00:00,29.307814,76.337619,CO,10,68,43
India,Haryana,Kaithal,"Rishi Nagar, Kaithal - HSPCB",02-03-2026 04:00:00,29.8006,76.4155,NH3,1,6,5
India,Haryana,Kaithal,"Rishi Nagar, Kaithal - HSPCB",02-03-2026 04:00:00,29.8006,76.4155,OZONE,8,30,16
India,Haryana,Karnal,"Sector-12, Karnal - HSPCB",02-03-2026 04:00:00,29.695300,77.002700,PM10,23,146,80
India,Haryana,Karnal,"Sector-12, Karnal - HSPCB",02-03-2026 04:00:00,29.695300,77.002700,NO2,6,7,6
India,Haryana,Mandikhera,"General Hospital, Mandikhera(Nuh) - HSPCB",02-03-2026 04:00:00,27.9002,76.9938,NO2,19,23,21
India,Haryana,Mandikhera,"General Hospital, Mandikhera(Nuh) - HSPCB",02-03-2026 04:00:00,27.9002,76.9938,NH3,13,15,13
India,Haryana,Mandikhera,"General Hospital, Mandikhera(Nuh) - HSPCB",02-03-2026 04:00:00,27.9002,76.9938,SO2,33,37,34
India,Haryana,Bahadurgarh,"Arya Nagar, Bahadurgarh - HSPCB",02-03-2026 04:00:00,28.6701,76.9254,NO2,12,14,13
India,Haryana,Bahadurgarh,"Arya Nagar, Bahadurgarh - HSPCB",02-03-2026 04:00:00,28.6701,76.9254,OZONE,16,19,18
India,Haryana,Bhiwani,"H.B. Colony, Bhiwani - HSPCB",02-03-2026 04:00:00,28.806223,76.141105,NO2,6,10,9
India,Haryana,Bhiwani,"H.B. Colony, Bhiwani - HSPCB",02-03-2026 04:00:00,28.806223,76.141105,SO2,1,9,4
India,Haryana,Bhiwani,"H.B. Colony, Bhiwani - HSPCB",02-03-2026 04:00:00,28.806223,76.141105,OZONE,4,30,9
India,Haryana,Charkhi Dadri,"Mini Secretariat, Charkhi Dadri - HSPCB",02-03-2026 04:00:00,28.593883,76.270653,CO,10,25,15
India,Haryana,Dharuhera,"Municipal Corporation Office, Dharuhera -  HSPCB",02-03-2026 04:00:00,28.206800,76.799700,NH3,10,29,21
India,Haryana,Dharuhera,"Municipal Corporation Office, Dharuhera -  HSPCB",02-03-2026 04:00:00,28.206800,76.799700,CO,54,102,101
India,Haryana,Manesar,"Sector-2 IMT, Manesar - HSPCB",02-03-2026 04:00:00,28.360699,76.936090,SO2,2,12,6
India,Haryana,Manesar,"Sector-2 IMT, Manesar - HSPCB",02-03-2026 04:00:00,28.360699,76.936090,CO,8,30,23
India,Haryana,Manesar,"Sector-2 IMT, Manesar - HSPCB",02-03-2026 04:00:00,28.360699,76.936090,OZONE,10,51,11
India,Haryana,Sonipat,"Murthal, Sonipat - HSPCB",02-03-2026 04:00:00,29.027200,77.062100,PM10,53,113,85
India,Gujarat,Ahmedabad,"SVPI Airport Hansol, Ahmedabad - IITM",02-03-2026 04:00:00,23.076793,72.627874,OZONE,2,62,5
India,Gujarat,Bhavnagar,"Vidhyanagar, Bhavnagar - Nexteng Enviro",02-03-2026 04:00:00,21.755417,72.139056,PM2.5,20,48,36
India,Delhi,Delhi,"Sirifort, Delhi - CPCB",02-03-2026 04:00:00,28.5504249,77.2159377,PM10,131,272,169
India,Delhi,Delhi,"Sonia Vihar, Delhi - DPCC",02-03-2026 04:00:00,28.710508,77.249485,PM10,107,185,153
India,Haryana,Yamuna Nagar,"Gobind Pura, Yamuna Nagar - HSPCB",02-03-2026 04:00:00,30.1480566,77.2893471,SO2,9,15,12
India,Haryana,Yamuna Nagar,"Gobind Pura, Yamuna Nagar - HSPCB",02-03-2026 04:00:00,30.1480566,77.2893471,CO,28,53,39
India,Haryana,Yamuna Nagar,"Gobind Pura, Yamuna Nagar - HSPCB",02-03-2026 04:00:00,30.1480566,77.2893471,OZONE,8,34,11
India,Himachal Pradesh,Baddi,"HIMUDA Complex Phase-1, Baddi - HPPCB",02-03-2026 04:00:00,30.943887,76.801991,PM2.5,55,207,105
India,Himachal Pradesh,Baddi,"HIMUDA Complex Phase-1, Baddi - HPPCB",02-03-2026 04:00:00,30.943887,76.801991,PM10,78,177,123
India,Himachal Pradesh,Baddi,"HIMUDA Complex Phase-1, Baddi - HPPCB",02-03-2026 04:00:00,30.943887,76.801991,NO2,7,45,22
