country,state,city,station,last_update,latitude,longitude,pollutant_id,min_value,max_value,avg_value
India,Andhra_Pradesh,Tirupati,"Vaikuntapuram, Tirupati - APPCB",26-11-2025 07:00:00,13.615387,79.409230,SO2,18,19,18
India,Andhra_Pradesh,Tirupati,"Vaikuntapuram, Tirupati - APPCB",26-11-2025 07:00:00,13.615387,79.409230,OZONE,16,17,17
India,Andhra_Pradesh,Vijayawada,"HB Colony, Vijayawada - APPCB",26-11-2025 07:00:00,16.536107,80.594233,PM10,48,158,101
India,Andhra_Pradesh,Vijayawada,"HB Colony, Vijayawada - APPCB",26-11-2025 07:00:00,16.536107,80.594233,NH3,3,4,3
India,Andhra_Pradesh,Vijayawada,"HB Colony, Vijayawada - APPCB",26-11-2025 07:00:00,16.536107,80.594233,SO2,9,19,11
India,Andhra_Pradesh,Vijayawada,"Rajiv Gandhi Park, Vijayawada - APPCB",26-11-2025 07:00:00,16.509717,80.612222,PM2.5,NA,NA,NA
India,Andhra_Pradesh,Vijayawada,"Rajiv Gandhi Park, Vijayawada - APPCB",26-11-2025 07:00:00,16.509717,80.612222,NO2,NA,NA,NA
India,Andhra_Pradesh,Vijayawada,"Rajiv Gandhi Park, Vijayawada - APPCB",26-11-2025 07:00:00,16.509717,80.612222,NH3,NA,NA,NA
India,Andhra_Pradesh,Vijayawada,"Rajiv Nagar, Vijayawada - APPCB",26-11-2025 07:00:00,16.554731,80.649110,CO,24,47,37
India,Andhra_Pradesh,Visakhapatnam,"GVM Corporation, Visakhapatnam - APPCB",26-11-2025 07:00:00,17.72,83.3,PM2.5,300,318,306
India,Andhra_Pradesh,Visakhapatnam,"GVM Corporation, Visakhapatnam - APPCB",26-11-2025 07:00:00,17.72,83.3,PM10,164,184,173
India,Assam,Guwahati,"Pan Bazaar, Guwahati - PCBA",26-11-2025 07:00:00,26.187500,91.744194,PM10,22,87,54
India,Assam,Guwahati,"Railway Colony, Guwahati - PCBA",26-11-2025 07:00:00,26.181742,91.78063,PM10,29,190,101
India,Assam,Guwahati,"Railway Colony, Guwahati - PCBA",26-11-2025 07:00:00,26.181742,91.78063,NO2,3,4,3
India,Assam,Nagaon,"Christianpatty, Nagaon - PCBA",26-11-2025 07:00:00,26.349082,92.68449,PM10,46,48,47
India,Assam,Nagaon,"Christianpatty, Nagaon - PCBA",26-11-2025 07:00:00,26.349082,92.68449,NH3,4,4,4
India,Assam,Nalbari,"Bata Chowk, Nalbari - PCBA",26-11-2025 07:00:00,26.446912,91.439057,PM2.5,NA,NA,NA
India,Assam,Nalbari,"Bata Chowk, Nalbari - PCBA",26-11-2025 07:00:00,26.446912,91.439057,NO2,2,18,14
India,Assam,Silchar,"Tarapur, Silchar - PCBA",26-11-2025 07:00:00,24.82827,92.79525,PM10,45,79,59
India,Andhra_Pradesh,Kadapa,"Yerramukkapalli, Kadapa - APPCB",26-11-2025 07:00:00,14.465052,78.824187,NO2,22,22,22
India,Andhra_Pradesh,Rajamahendravaram,"Anand Kala Kshetram, Rajamahendravaram - APPCB",26-11-2025 07:00:00,16.9872867,81.7363176,CO,29,52,37
India,Andhra_Pradesh,Rajamahendravaram,"Anand Kala Kshetram, Rajamahendravaram - APPCB",26-11-2025 07:00:00,16.9872867,81.7363176,OZONE,10,35,16
India,Andhra_Pradesh,Tirumala,"Toll Gate, Tirumala - APPCB",26-11-2025 07:00:00,13.67,79.35,NH3,1,3,1
India,Andhra_Pradesh,Tirupati,"Vaikuntapuram, Tirupati - APPCB",26-11-2025 07:00:00,13.615387,79.409230,PM10,NA,NA,NA
India,Andhra_Pradesh,Tirupati,"Vaikuntapuram, Tirupati - APPCB",26-11-2025 07:00:00,13.615387,79.409230,NH3,4,4,4
India,Assam,Silchar,"Tarapur, Silchar - PCBA",26-11-2025 07:00:00,24.82827,92.79525,NO2,17,22,20
India,Assam,Sivasagar,"Girls College, Sivasagar - PCBA",26-11-2025 07:00:00,26.987634,94.636574,PM10,26,86,44
India,Assam,Sivasagar,"Girls College, Sivasagar - PCBA",26-11-2025 07:00:00,26.987634,94.636574,NO2,18,35,25
India,Bihar,Araria,"Kharahiya Basti, Araria - BSPCB",26-11-2025 07:00:00,26.146529,87.454184,PM2.5,47,305,192
India,Bihar,Araria,"Kharahiya Basti, Araria - BSPCB",26-11-2025 07:00:00,26.146529,87.454184,NO2,1,110,24
India,Bihar,Arrah,"New DM Office, Arrah - BSPCB",26-11-2025 07:00:00,25.5626095,84.663264,NH3,1,1,1
India,Bihar,Buxar,"Charitra Van, Buxar - BSPCB",26-11-2025 07:00:00,25.567520,83.966379,NH3,3,3,3
India,Bihar,Buxar,"Charitra Van, Buxar - BSPCB",26-11-2025 07:00:00,25.567520,83.966379,SO2,5,12,8
India,Bihar,Chhapra,"Darshan Nagar, Chhapra - BSPCB",26-11-2025 07:00:00,25.7808257,84.7446768,NH3,4,7,5
India,Bihar,Gaya,"Collectorate, Gaya - BSPCB",26-11-2025 07:00:00,24.7955,84.9994,OZONE,19,57,20
India,Bihar,Gaya,"Kareemganj, Gaya - BSPCB",26-11-2025 07:00:00,24.792403,84.992416,PM10,103,272,169
India,Bihar,Gaya,"Kareemganj, Gaya - BSPCB",26-11-2025 07:00:00,24.792403,84.992416,CO,30,40,36
India,Arunachal_Pradesh,Naharlagun,"Naharlagun, Naharlagun - APSPCB",26-11-2025 07:00:00,27.103358,93.679645,NO2,NA,NA,NA
India,Arunachal_Pradesh,Naharlagun,"Naharlagun, Naharlagun - APSPCB",26-11-2025 07:00:00,27.103358,93.679645,OZONE,5,5,5
India,Assam,Byrnihat,"Central Academy for SFS, Byrnihat - PCBA",26-11-2025 07:00:00,26.071318,91.87488,PM10,NA,NA,NA
India,Assam,Guwahati,"IITG, Guwahati - PCBA",26-11-2025 07:00:00,26.2028636,91.70046436,PM10,47,147,92
India,Andaman and Nicobar,Sri Vijaya Puram,"Police Line, Sri Vijaya Puram - ANPCC",26-11-2025 07:00:00,11.654054,92.734055,NO2,NA,NA,NA
India,Andhra_Pradesh,Amaravati,"Secretariat, Amaravati - APPCB",26-11-2025 07:00:00,16.5150833,80.5181667,CO,20,40,35
India,Andhra_Pradesh,Chittoor,"Gangineni Cheruvu, Chittoor - APPCB",26-11-2025 07:00:00,13.204880,79.097889,PM2.5,NA,NA,NA
India,Andhra_Pradesh,Chittoor,"Gangineni Cheruvu, Chittoor - APPCB",26-11-2025 07:00:00,13.204880,79.097889,PM10,NA,NA,NA
India,Andhra_Pradesh,Chittoor,"Gangineni Cheruvu, Chittoor - APPCB",26-11-2025 07:00:00,13.204880,79.097889,SO2,NA,NA,NA
India,Bihar,Arrah,"New DM Office, Arrah - BSPCB",26-11-2025 07:00:00,25.5626095,84.663264,OZONE,6,17,10
India,Bihar,Bhagalpur,"Mayaganj, Bhagalpur - BSPCB",26-11-2025 07:00:00,25.265194,87.012947,NO2,6,8,7
India,Bihar,Siwan,"Chitragupta Nagar, Siwan - BSPCB",26-11-2025 07:00:00,26.2271665,84.3570427,PM10,47,110,74
India,Bihar,Siwan,"Chitragupta Nagar, Siwan - BSPCB",26-11-2025 07:00:00,26.2271665,84.3570427,NH3,1,1,1
India,Chandigarh,Chandigarh,"Sector 22, Chandigarh - CPCC",26-11-2025 07:00:00,30.735567,76.775714,PM2.5,70,287,155
India,Chandigarh,Chandigarh,"Sector-25, Chandigarh - CPCC",26-11-2025 07:00:00,30.751462,76.762879,PM2.5,81,242,156
India,Chandigarh,Chandigarh,"Sector-25, Chandigarh - CPCC",26-11-2025 07:00:00,30.751462,76.762879,NO2,13,57,29
India,Chandigarh,Chandigarh,"Sector-25, Chandigarh - CPCC",26-11-2025 07:00:00,30.751462,76.762879,NH3,3,8,5
India,Chandigarh,Chandigarh,"Sector-25, Chandigarh - CPCC",26-11-2025 07:00:00,30.751462,76.762879,CO,24,71,51
India,Chandigarh,Chandigarh,"Sector-25, Chandigarh - CPCC",26-11-2025 07:00:00,30.751462,76.762879,OZONE,1,78,1
India,Bihar,Rajgir,"Dangi Tola, Rajgir - BSPCB",26-11-2025 07:00:00,25.03280,85.41948,NH3,6,8,7
India,Bihar,Saharsa,"Police Line, Saharsa - BSPCB",26-11-2025 07:00:00,25.892357,86.590325,NH3,4,4,4
India,Bihar,Samastipur,"DM Office_Kasipur, Samastipur - BSPCB",26-11-2025 07:00:00,25.859655,85.77944,PM2.5,30,120,64
India,Bihar,Samastipur,"DM Office_Kasipur, Samastipur - BSPCB",26-11-2025 07:00:00,25.859655,85.77944,CO,2,5,5
India,Bihar,Sasaram,"Dada Peer, Sasaram - BSPCB",26-11-2025 07:00:00,24.952822,84.002396,SO2,4,9,5
India,Bihar,Sasaram,"Dada Peer, Sasaram - BSPCB",26-11-2025 07:00:00,24.952822,84.002396,OZONE,16,17,17
India,Chhattisgarh,Bhilai,"32Bungalows, Bhilai - CECB",26-11-2025 07:00:00,21.194815,81.314770,PM2.5,39,67,53
India,Chhattisgarh,Bhilai,"Civic Center, Bhilai - Bhilai Steel Plant",26-11-2025 07:00:00,21.185571,81.343175,PM2.5,41,84,61
India,Chhattisgarh,Bhilai,"Civic Center, Bhilai - Bhilai Steel Plant",26-11-2025 07:00:00,21.185571,81.343175,OZONE,8,15,9
India,Chhattisgarh,Bhilai,"Hathkhoj, Bhilai - CECB",26-11-2025 07:00:00,21.224231,81.408350,PM10,65,118,90
India,Chhattisgarh,Bhilai,"Hathkhoj, Bhilai - CECB",26-11-2025 07:00:00,21.224231,81.408350,NO2,25,93,57
India,Chhattisgarh,Bhilai,"Hathkhoj, Bhilai - CECB",26-11-2025 07:00:00,21.224231,81.408350,CO,20,64,55
India,Bihar,Kishanganj,"SDM Office_Khagra, Kishanganj - BSPCB",26-11-2025 07:00:00,26.0881305,87.93840336,OZONE,16,18,17
India,Bihar,Manguraha,"Forest Rest House, Manguraha - BSPCB",26-11-2025 07:00:00,27.308328,84.531742,PM10,16,153,72
India,Bihar,Manguraha,"Forest Rest House, Manguraha - BSPCB",26-11-2025 07:00:00,27.308328,84.531742,SO2,15,16,16
India,Bihar,Motihari,"Gandak Colony, Motihari - BSPCB",26-11-2025 07:00:00,26.63086,84.90051,NO2,7,11,9
India,Bihar,Motihari,"Gandak Colony, Motihari - BSPCB",26-11-2025 07:00:00,26.63086,84.90051,OZONE,2,5,3
India,Bihar,Patna,"DRM Office Danapur, Patna - BSPCB",26-11-2025 07:00:00,25.586562,85.043586,NO2,36,94,59
India,Bihar,Patna,"DRM Office Danapur, Patna - BSPCB",26-11-2025 07:00:00,25.586562,85.043586,NH3,6,16,9
India,Bihar,Patna,"DRM Office Danapur, Patna - BSPCB",26-11-2025 07:00:00,25.586562,85.043586,CO,35,114,55
India,Bihar,Patna,"DRM Office Danapur, Patna - BSPCB",26-11-2025 07:00:00,25.586562,85.043586,OZONE,7,54,8
India,Bihar,Patna,"IGSC Planetarium Complex, Patna - BSPCB",26-11-2025 07:00:00,25.610369,85.132568,CO,50,57,53
India,Bihar,Patna,"Muradpur, Patna - BSPCB",26-11-2025 07:00:00,25.619651,85.147382,OZONE,5,41,6
India,Bihar,Gaya,"SFTI Kusdihra, Gaya - BSPCB",26-11-2025 07:00:00,24.762518,84.982348,CO,24,46,43
India,Bihar,Hajipur,"Industrial Area, Hajipur - BSPCB",26-11-2025 07:00:00,25.697189,85.245900,NH3,5,12,8
India,Bihar,Hajipur,"Industrial Area, Hajipur - BSPCB",26-11-2025 07:00:00,25.697189,85.245900,OZONE,10,111,14
India,Bihar,Katihar,"Mirchaibari, Katihar - BSPCB",26-11-2025 07:00:00,25.560083,87.553265,PM2.5,NA,NA,NA
India,Bihar,Katihar,"Mirchaibari, Katihar - BSPCB",26-11-2025 07:00:00,25.560083,87.553265,SO2,NA,NA,NA
India,Bihar,Katihar,"Mirchaibari, Katihar - BSPCB",26-11-2025 07:00:00,25.560083,87.553265,OZONE,NA,NA,NA
India,Chhattisgarh,Bilaspur,"Mangala, Bilaspur - NTPC",26-11-2025 07:00:00,22.08815,82.13737,PM10,19,149,109
India,Chhattisgarh,Korba,"Rampur, Korba - CECB",26-11-2025 07:00:00,22.368195,82.746431,CO,23,30,28
India,Chhattisgarh,Korba,"Urja Nagar, Korba - CECB",26-11-2025 07:00:00,22.348441,82.549611,PM2.5,53,80,55
India,Bihar,Patna,"Rajbansi Nagar, Patna - BSPCB",26-11-2025 07:00:00,25.599486,85.113666,PM2.5,43,106,77
India,Bihar,Patna,"Rajbansi Nagar, Patna - BSPCB",26-11-2025 07:00:00,25.599486,85.113666,CO,27,105,42
India,Bihar,Patna,"Samanpura, Patna - BSPCB",26-11-2025 07:00:00,25.596727,85.085624,NH3,5,7,6
India,Bihar,Purnia,"Mariam Nagar, Purnia - BSPCB",26-11-2025 07:00:00,25.366336,87.117468,NO2,5,6,6
India,Bihar,Rajgir,"Dangi Tola, Rajgir - BSPCB",26-11-2025 07:00:00,25.03280,85.41948,PM10,55,126,86
India,Chhattisgarh,Kunjemura,"OP Jindal School, Kunjemura - CECB",26-11-2025 07:00:00,22.126650,83.483212,NO2,10,54,30
India,Chhattisgarh,Kunjemura,"OP Jindal School, Kunjemura - CECB",26-11-2025 07:00:00,22.126650,83.483212,OZONE,NA,NA,NA
India,Chhattisgarh,Milupara,"Govt. Higher Secondary School, Milupara - CECB",26-11-2025 07:00:00,22.1910172,83.5197009,SO2,7,15,13
India,Chhattisgarh,Milupara,"Govt. Higher Secondary School, Milupara - CECB",26-11-2025 07:00:00,22.1910172,83.5197009,CO,1,70,5
India,Chhattisgarh,Raipur,"AIIMS, Raipur - CECB",26-11-2025 07:00:00,21.258815,81.578979,PM10,NA,NA,NA
India,Chhattisgarh,Raipur,"AIIMS, Raipur - CECB",26-11-2025 07:00:00,21.258815,81.578979,NO2,NA,NA,NA
India,Chhattisgarh,Raipur,"AIIMS, Raipur - CECB",26-11-2025 07:00:00,21.258815,81.578979,SO2,NA,NA,NA
India,Chhattisgarh,Raipur,"AIIMS, Raipur - CECB",26-11-2025 07:00:00,21.258815,81.578979,OZONE,NA,NA,NA
India,Chhattisgarh,Raipur,"Bhatagaon New ISBT, Raipur - CECB",26-11-2025 07:00:00,21.219665,81.630094,PM2.5,33,65,54
India,Delhi,Delhi,"Alipur, Delhi - DPCC",26-11-2025 07:00:00,28.815329,77.153010,OZONE,7,68,7
India,Delhi,Delhi,"Anand Vihar, Delhi - DPCC",26-11-2025 07:00:00,28.647622,77.3158090,NO2,43,182,141
India,Delhi,Delhi,"Anand Vihar, Delhi - DPCC",26-11-2025 07:00:00,28.647622,77.3158090,SO2,36,108,63
India,Delhi,Delhi,"Anand Vihar, Delhi - DPCC",26-11-2025 07:00:00,28.647622,77.3158090,OZONE,2,21,12
India,Delhi,Delhi,"Ashok Vihar, Delhi - DPCC",26-11-2025 07:00:00,28.695381,77.181665,PM10,185,440,318
India,Delhi,Delhi,"Ashok Vihar, Delhi - DPCC",26-11-2025 07:00:00,28.695381,77.181665,CO,18,132,55
India,Delhi,Delhi,"Ashok Vihar, Delhi - DPCC",26-11-2025 07:00:00,28.695381,77.181665,OZONE,2,121,6
India,Delhi,Delhi,"Aya Nagar, Delhi - IMD",26-11-2025 07:00:00,28.4706914,77.1099364,PM2.5,194,373,306
India,Delhi,Delhi,"Aya Nagar, Delhi - IMD",26-11-2025 07:00:00,28.4706914,77.1099364,CO,33,84,58
India,Delhi,Delhi,"IHBAS, Dilshad Garden, Delhi - CPCB",26-11-2025 07:00:00,28.6811736,77.3025234,NH3,4,7,5
India,Delhi,Delhi,"IHBAS, Dilshad Garden, Delhi - CPCB",26-11-2025 07:00:00,28.6811736,77.3025234,CO,48,90,61
India,Delhi,Delhi,"IHBAS, Dilshad Garden, Delhi - CPCB",26-11-2025 07:00:00,28.6811736,77.3025234,OZONE,20,28,22
India,Delhi,Delhi,"ITO, Delhi - CPCB",26-11-2025 07:00:00,28.628624,77.241060,PM10,152,405,274
India,Delhi,Delhi,"ITO, Delhi - CPCB",26-11-2025 07:00:00,28.628624,77.241060,CO,17,134,80
India,Delhi,Delhi,"Jahangirpuri, Delhi - DPCC",26-11-2025 07:00:00,28.732820,77.170633,OZONE,3,163,4
India,Delhi,Delhi,"Jawaharlal Nehru Stadium, Delhi - DPCC",26-11-2025 07:00:00,28.580280,77.233829,PM2.5,230,399,337
India,Delhi,Delhi,"Jawaharlal Nehru Stadium, Delhi - DPCC",26-11-2025 07:00:00,28.580280,77.233829,CO,38,125,110
India,Chhattisgarh,Raipur,"Krishak Nagar, Raipur - CECB",26-11-2025 07:00:00,21.237755,81.705301,NO2,16,20,18
India,Chhattisgarh,Raipur,"Siltara Phase-II, Raipur - CECB",26-11-2025 07:00:00,21.371751,81.664929,SO2,3,8,5
India,Chhattisgarh,Raipur,"Siltara Phase-II, Raipur - CECB",26-11-2025 07:00:00,21.371751,81.664929,CO,34,36,35
India,Chhattisgarh,Tumidih,"OP Jindal Industrial Park, Tumidih - CECB",26-11-2025 07:00:00,22.06631475,83.33820077,PM2.5,52,95,70
India,Chhattisgarh,Tumidih,"OP Jindal Industrial Park, Tumidih - CECB",26-11-2025 07:00:00,22.06631475,83.33820077,NH3,1,2,1
India,Chhattisgarh,Tumidih,"OP Jindal Industrial Park, Tumidih - CECB",26-11-2025 07:00:00,22.06631475,83.33820077,SO2,5,19,6
India,Delhi,Delhi,"Alipur, Delhi - DPCC",26-11-2025 07:00:00,28.815329,77.153010,SO2,4,18,9
India,Delhi,Delhi,"DTU, Delhi - CPCB",26-11-2025 07:00:00,28.7500499,77.1112615,NO2,68,105,79
India,Delhi,Delhi,"DTU, Delhi - CPCB",26-11-2025 07:00:00,28.7500499,77.1112615,SO2,33,42,36
India,Delhi,Delhi,"Dr. Karni Singh Shooting Range, Delhi - DPCC",26-11-2025 07:00:00,28.498571,77.264840,SO2,10,21,13
India,Delhi,Delhi,"Dwarka-Sector 8, Delhi - DPCC ",26-11-2025 07:00:00,28.5710274,77.0719006,OZONE,1,158,2
India,Delhi,Delhi,"IGI Airport (T3), Delhi - IMD",26-11-2025 07:00:00,28.5627763,77.1180053,PM2.5,233,341,298
India,Delhi,Delhi,"Lodhi Road, Delhi - IITM",26-11-2025 07:00:00,28.588333,77.221667,SO2,11,31,18
India,Delhi,Delhi,"Lodhi Road, Delhi - IMD",26-11-2025 07:00:00,28.5918245,77.2273074,PM2.5,NA,NA,NA
India,Delhi,Delhi,"Major Dhyan Chand National Stadium, Delhi - DPCC",26-11-2025 07:00:00,28.611281,77.237738,CO,32,114,102
India,Delhi,Delhi,"Mandir Marg, Delhi - DPCC",26-11-2025 07:00:00,28.636429,77.201067,PM2.5,42,382,261
India,Delhi,Delhi,"Mandir Marg, Delhi - DPCC",26-11-2025 07:00:00,28.636429,77.201067,PM10,111,401,239
India,Delhi,Delhi,"Mandir Marg, Delhi - DPCC",26-11-2025 07:00:00,28.636429,77.201067,OZONE,6,103,9
India,Delhi,Delhi,"Mundka, Delhi - DPCC",26-11-2025 07:00:00,28.684678,77.076574,PM2.5,213,484,371
India,Delhi,Delhi,"Mundka, Delhi - DPCC",26-11-2025 07:00:00,28.684678,77.076574,NH3,10,17,14
India,Delhi,Delhi,"Mundka, Delhi - DPCC",26-11-2025 07:00:00,28.684678,77.076574,CO,42,117,71
India,Delhi,Delhi,"NSIT Dwarka, Delhi - CPCB",26-11-2025 07:00:00,28.60909,77.0325413,NO2,58,99,69
India,Delhi,Delhi,"Narela, Delhi - DPCC",26-11-2025 07:00:00,28.822836,77.101981,PM2.5,200,480,353
India,Delhi,Delhi,"Narela, Delhi - DPCC",26-11-2025 07:00:00,28.822836,77.101981,PM10,156,429,282
India,Delhi,Delhi,"Narela, Delhi - DPCC",26-11-2025 07:00:00,28.822836,77.101981,SO2,14,36,21
India,Delhi,Delhi,"Narela, Delhi - DPCC",26-11-2025 07:00:00,28.822836,77.101981,CO,2,101,52
India,Delhi,Delhi,"Narela, Delhi - DPCC",26-11-2025 07:00:00,28.822836,77.101981,OZONE,3,144,20
India,Delhi,Delhi,"Nehru Nagar, Delhi - DPCC",26-11-2025 07:00:00,28.567890,77.250515,SO2,8,41,24
India,Delhi,Delhi,"Bawana, Delhi - DPCC",26-11-2025 07:00:00,28.776200,77.051074,CO,52,108,86
India,Delhi,Delhi,"Chandni Chowk, Delhi - IITM",26-11-2025 07:00:00,28.656756,77.227234,OZONE,5,87,5
India,Delhi,Delhi,"DTU, Delhi - CPCB",26-11-2025 07:00:00,28.7500499,77.1112615,PM10,133,437,276
India,Delhi,Delhi,"Shadipur, Delhi - CPCB",26-11-2025 07:00:00,28.6514781,77.1473105,OZONE,10,39,11
India,Delhi,Delhi,"Sirifort, Delhi - CPCB",26-11-2025 07:00:00,28.5504249,77.2159377,NO2,53,78,63
India,Delhi,Delhi,"Sirifort, Delhi - CPCB",26-11-2025 07:00:00,28.5504249,77.2159377,NH3,4,12,10
India,Delhi,Delhi,"Sonia Vihar, Delhi - DPCC",26-11-2025 07:00:00,28.710508,77.249485,PM10,149,416,283
India,Delhi,Delhi,"Sonia Vihar, Delhi - DPCC",26-11-2025 07:00:00,28.710508,77.249485,NH3,5,9,7
India,Delhi,Delhi,"Sri Aurobindo Marg, Delhi - DPCC",26-11-2025 07:00:00,28.531346,77.190156,PM10,134,288,192
India,Delhi,Delhi,"Sri Aurobindo Marg, Delhi - DPCC",26-11-2025 07:00:00,28.531346,77.190156,NH3,5,7,6
India,Delhi,Delhi,"Sri Aurobindo Marg, Delhi - DPCC",26-11-2025 07:00:00,28.531346,77.190156,CO,44,95,78
India,Delhi,Delhi,"Pusa, Delhi - IMD",26-11-2025 07:00:00,28.636110,77.173332,OZONE,2,127,3
India,Delhi,Delhi,"R K Puram, Delhi - DPCC",26-11-2025 07:00:00,28.563262,77.186937,NH3,5,7,6
India,Delhi,Delhi,"R K Puram, Delhi - DPCC",26-11-2025 07:00:00,28.563262,77.186937,CO,6,112,65
India,Delhi,Delhi,"Rohini, Delhi - DPCC",26-11-2025 07:00:00,28.732528,77.119920,PM2.5,223,463,380
India,Delhi,Delhi,"Rohini, Delhi - DPCC",26-11-2025 07:00:00,28.732528,77.119920,PM10,171,448,345
India,Delhi,Delhi,"Rohini, Delhi - DPCC",26-11-2025 07:00:00,28.732528,77.119920,NO2,22,119,67
India,Delhi,Delhi,"Shadipur, Delhi - CPCB",26-11-2025 07:00:00,28.6514781,77.1473105,PM10,186,443,308
India,Gujarat,Ahmedabad,"SVPI Airport Hansol, Ahmedabad - IITM",26-11-2025 07:00:00,23.076793,72.627874,NO2,34,68,47
India,Gujarat,Ankleshwar,"GIDC, Ankleshwar - GPCB",26-11-2025 07:00:00,21.613267,73.010555,CO,60,109,81
India,Gujarat,Gandhinagar,"IIPHG Lekawada, Gandhinagar - IITM",26-11-2025 07:00:00,23.243639,72.68994,NO2,8,10,9
India,Gujarat,Gandhinagar,"IIPHG Lekawada, Gandhinagar - IITM",26-11-2025 07:00:00,23.243639,72.68994,SO2,3,8,5
India,Gujarat,Gandhinagar,"IIPHG Lekawada, Gandhinagar - IITM",26-11-2025 07:00:00,23.243639,72.68994,CO,5,70,22
India,Gujarat,Gandhinagar,"Sector-10, Gandhinagar - GPCB",26-11-2025 07:00:00,23.221714,72.654328,NO2,17,32,20
India,Gujarat,Vatva,"Phase-4 GIDC, Vatva - GPCB",26-11-2025 07:00:00,22.969611,72.643500,CO,9,18,11
India,Haryana,Ambala,"Patti Mehar, Ambala - HSPCB",26-11-2025 07:00:00,30.379589,76.778328,OZONE,48,52,50
India,Haryana,Bahadurgarh,"Arya Nagar, Bahadurgarh - HSPCB",26-11-2025 07:00:00,28.6701,76.9254,NH3,12,13,13
India,Haryana,Bahadurgarh,"Arya Nagar, Bahadurgarh - HSPCB",26-11-2025 07:00:00,28.6701,76.9254,OZONE,16,20,17
India,Haryana,Ballabgarh,"Nathu Colony, Ballabgarh - HSPCB",26-11-2025 07:00:00,28.3419248,77.319699,PM10,158,178,168
India,Gujarat,Gandhinagar,"Sector-10, Gandhinagar - GPCB",26-11-2025 07:00:00,23.221714,72.654328,NH3,3,4,3
India,Gujarat,Gandhinagar,"Sector-10, Gandhinagar - GPCB",26-11-2025 07:00:00,23.221714,72.654328,OZONE,6,76,28
India,Gujarat,Nandesari,"GIDC, Nandesari - Nandesari Ind. Association",26-11-2025 07:00:00,22.410802,73.097923,NO2,NA,NA,NA
India,Gujarat,Surat,"Science Center, Surat - SMC",26-11-2025 07:00:00,21.170046,72.795405,PM10,131,315,192
India,Gujarat,Vapi,"Phase-1 GIDC, Vapi - GPCB",26-11-2025 07:00:00,20.362421,72.918013,SO2,15,30,25
India,Gujarat,Ahmedabad,"Raikhad, Ahmedabad - IITM",26-11-2025 07:00:00,23.020509,72.579261,OZONE,2,100,51
India,Gujarat,Ahmedabad,"Rakhial, Ahmedabad - IITM",26-11-2025 07:00:00,23.016834,72.625775,PM2.5,NA,NA,NA
India,Gujarat,Ahmedabad,"Rakhial, Ahmedabad - IITM",26-11-2025 07:00:00,23.016834,72.625775,PM10,NA,NA,NA
India,Gujarat,Ahmedabad,"SAC ISRO Bopal, Ahmedabad - IITM",26-11-2025 07:00:00,23.041137,72.456691,NO2,20,64,34
India,Gujarat,Ahmedabad,"SAC ISRO Bopal, Ahmedabad - IITM",26-11-2025 07:00:00,23.041137,72.456691,OZONE,2,84,32
India,Delhi,Delhi,"Vivek Vihar, Delhi - DPCC",26-11-2025 07:00:00,28.672342,77.315260,CO,8,131,89
India,Gujarat,Ahmedabad,"Gyaspur, Ahmedabad - IITM",26-11-2025 07:00:00,22.977134,72.553024,PM10,152,380,210
India,Gujarat,Ahmedabad,"Gyaspur, Ahmedabad - IITM",26-11-2025 07:00:00,22.977134,72.553024,NO2,42,205,82
India,Gujarat,Ahmedabad,"Gyaspur, Ahmedabad - IITM",26-11-2025 07:00:00,22.977134,72.553024,SO2,4,69,33
India,Delhi,Delhi,"North Campus, DU, Delhi - IMD",26-11-2025 07:00:00,28.6573814,77.1585447,OZONE,19,318,40
India,Delhi,Delhi,"Patparganj, Delhi - DPCC",26-11-2025 07:00:00,28.623763,77.287209,PM10,177,409,313
India,Delhi,Delhi,"Patparganj, Delhi - DPCC",26-11-2025 07:00:00,28.623763,77.287209,NH3,11,15,13
India,Delhi,Delhi,"Patparganj, Delhi - DPCC",26-11-2025 07:00:00,28.623763,77.287209,OZONE,2,159,3
India,Gujarat,Ahmedabad,"Maninagar, Ahmedabad - GPCB",26-11-2025 07:00:00,23.002657,72.591912,SO2,NA,NA,NA
India,Gujarat,Ahmedabad,"Raikhad, Ahmedabad - IITM",26-11-2025 07:00:00,23.020509,72.579261,PM2.5,210,317,270
India,Gujarat,Ahmedabad,"Raikhad, Ahmedabad - IITM",26-11-2025 07:00:00,23.020509,72.579261,SO2,19,26,21
India,Haryana,Kurukshetra,"Sector-7, Kurukshetra - HSPCB",26-11-2025 07:00:00,29.966942,76.875879,PM10,9,177,137
India,Haryana,Kurukshetra,"Sector-7, Kurukshetra - HSPCB",26-11-2025 07:00:00,29.966942,76.875879,SO2,8,16,11
India,Haryana,Kurukshetra,"Sector-7, Kurukshetra - HSPCB",26-11-2025 07:00:00,29.966942,76.875879,CO,29,101,44
India,Haryana,Mandikhera,"General Hospital, Mandikhera - HSPCB",26-11-2025 07:00:00,27.9002,76.9938,PM2.5,59,195,119
India,Haryana,Mandikhera,"General Hospital, Mandikhera - HSPCB",26-11-2025 07:00:00,27.9002,76.9938,NO2,20,23,21
India,Haryana,Manesar,"Sector-2 IMT, Manesar - HSPCB",26-11-2025 07:00:00,28.360699,76.936090,CO,28,82,54
India,Haryana,Bhiwani,"H.B. Colony, Bhiwani - HSPCB",26-11-2025 07:00:00,28.806223,76.141105,SO2,12,13,12
India,Haryana,Charkhi Dadri,"Mini Secretariat, Charkhi Dadri - HSPCB",26-11-2025 07:00:00,28.593883,76.270653,PM10,112,256,158
India,Haryana,Charkhi Dadri,"Mini Secretariat, Charkhi Dadri - HSPCB",26-11-2025 07:00:00,28.593883,76.270653,NH3,5,8,6
India,Haryana,Charkhi Dadri,"Mini Secretariat, Charkhi Dadri - HSPCB",26-11-2025 07:00:00,28.593883,76.270653,SO2,10,11,11
India,Haryana,Charkhi Dadri,"Mini Secretariat, Charkhi Dadri - HSPCB",26-11-2025 07:00:00,28.593883,76.270653,OZONE,13,17,15
India,Haryana,Dharuhera,"Municipal Corporation Office, Dharuhera -  HSPCB",26-11-2025 07:00:00,28.206800,76.799700,SO2,10,23,15
India,Haryana,Jind,"Police Lines, Jind - HSPCB",26-11-2025 07:00:00,29.307814,76.337619,NO2,38,56,46
India,Haryana,Kaithal,"Rishi Nagar, Kaithal - HSPCB",26-11-2025 07:00:00,29.8006,76.4155,PM2.5,NA,NA,NA
India,Haryana,Kaithal,"Rishi Nagar, Kaithal - HSPCB",26-11-2025 07:00:00,29.8006,76.4155,NH3,NA,NA,NA
India,Haryana,Kaithal,"Rishi Nagar, Kaithal - HSPCB",26-11-2025 07:00:00,29.8006,76.4155,SO2,NA,NA,NA
India,Haryana,Karnal,"Sector-12, Karnal - HSPCB",26-11-2025 07:00:00,29.695300,77.002700,NO2,6,6,6
India,Haryana,Karnal,"Sector-12, Karnal - HSPCB",26-11-2025 07:00:00,29.695300,77.002700,SO2,6,67,35
India,Haryana,Karnal,"Sector-12, Karnal - HSPCB",26-11-2025 07:00:00,29.695300,77.002700,CO,NA,NA,NA
India,Karnataka,Bagalkot,"Vidayagiri, Bagalkot - KSPCB",26-11-2025 07:00:00,16.172806,75.659694,PM2.5,34,36,35
India,Karnataka,Bagalkot,"Vidayagiri, Bagalkot - KSPCB",26-11-2025 07:00:00,16.172806,75.659694,NH3,1,2,1
India,Karnataka,Bagalkot,"Vidayagiri, Bagalkot - KSPCB",26-11-2025 07:00:00,16.172806,75.659694,SO2,7,7,7
India,Karnataka,Belgaum,"Ramteerth Nagar, Belgaum - KSPCB",26-11-2025 07:00:00,15.888653,74.541751,PM10,44,114,84
India,Karnataka,Bengaluru,"BTM Layout, Bengaluru - CPCB",26-11-2025 07:00:00,12.9135218,77.5950804,PM2.5,NA,NA,NA
India,Haryana,Palwal,"Shyam Nagar, Palwal - HSPCB",26-11-2025 07:00:00,28.1485564,77.3320667,SO2,12,13,12
India,Haryana,Palwal,"Shyam Nagar, Palwal - HSPCB",26-11-2025 07:00:00,28.1485564,77.3320667,CO,16,44,36
India,Haryana,Panchgaon,"Amity University, Panchgaon - IITM",26-11-2025 07:00:00,28.3153,76.9143,PM10,NA,NA,NA
India,Haryana,Panchgaon,"Amity University, Panchgaon - IITM",26-11-2025 07:00:00,28.3153,76.9143,NH3,NA,NA,NA
India,Haryana,Panchkula,"Sector-6, Panchkula - HSPCB ",26-11-2025 07:00:00,30.7057778,76.8531805555555,PM2.5,4,11,7
India,Haryana,Faridabad,"Sector 30, Faridabad - HSPCB",26-11-2025 07:00:00,28.4417,77.3217,PM10,143,154,148
India,Haryana,Fatehabad,"Huda Sector, Fatehabad - HSPCB",26-11-2025 07:00:00,29.503664,75.467934,NO2,18,20,19
India,Haryana,Gurugram,"NISE Gwal Pahari, Gurugram - IMD",26-11-2025 07:00:00,28.422681,77.148944,PM10,165,423,232
India,Haryana,Gurugram,"NISE Gwal Pahari, Gurugram - IMD",26-11-2025 07:00:00,28.422681,77.148944,OZONE,6,81,8
India,Haryana,Panchkula,"Sector-6, Panchkula - HSPCB ",26-11-2025 07:00:00,30.7057778,76.8531805555555,NO2,24,26,25
India,Haryana,Panipat,"Sector-18, Panipat - HSPCB",26-11-2025 07:00:00,29.432304,76.972765,NH3,NA,NA,NA
India,Haryana,Panipat,"Sector-18, Panipat - HSPCB",26-11-2025 07:00:00,29.432304,76.972765,CO,NA,NA,NA
India,Haryana,Panipat,"Sector-18, Panipat - HSPCB",26-11-2025 07:00:00,29.432304,76.972765,OZONE,NA,NA,NA
India,Haryana,Sirsa,"F-Block, Sirsa - HSPCB",26-11-2025 07:00:00,29.536400,75.015800,PM2.5,56,133,95
India,Haryana,Sonipat,"Murthal, Sonipat - HSPCB",26-11-2025 07:00:00,29.027200,77.062100,NO2,22,56,43
India,Haryana,Yamuna Nagar,"Gobind Pura, Yamuna Nagar - HSPCB",26-11-2025 07:00:00,30.1480566,77.2893471,SO2,10,15,12
India,Himachal Pradesh,Baddi,"HIMUDA Complex Phase-1, Baddi - HPPCB",26-11-2025 07:00:00,30.943887,76.801991,OZONE,15,151,50
India,Haryana,Gurugram,"Vikas Sadan, Gurugram - HSPCB",26-11-2025 07:00:00,28.4501238,77.0263051,PM10,145,244,193
India,Karnataka,Davanagere,"Devaraj Urs Badavane, Davanagere - KSPCB",26-11-2025 07:00:00,14.475800,75.905200,CO,26,66,40
India,Karnataka,Davanagere,"Devaraj Urs Badavane, Davanagere - KSPCB",26-11-2025 07:00:00,14.475800,75.905200,OZONE,19,20,20
India,Karnataka,Dharwad,"Kalabhavan, Dharwad - KSPCB",26-11-2025 07:00:00,15.459706,75.008381,PM10,74,96,86
India,Karnataka,Gadag,"Panchal Nagar, Gadag - KSPCB",26-11-2025 07:00:00,15.411456,75.638133,NH3,NA,NA,NA
India,Karnataka,Gadag,"Panchal Nagar, Gadag - KSPCB",26-11-2025 07:00:00,15.411456,75.638133,SO2,NA,NA,NA
India,Karnataka,Hubballi,"Lingaraj Nagar, Hubballi - KSPCB",26-11-2025 07:00:00,15.3714823,75.1160168,PM2.5,33,46,39
India,Karnataka,Bengaluru,"BWSSB Kadabesanahalli, Bengaluru - CPCB",26-11-2025 07:00:00,12.9352049,77.6814488,PM10,92,251,157
India,Karnataka,Bengaluru,"BWSSB Kadabesanahalli, Bengaluru - CPCB",26-11-2025 07:00:00,12.9352049,77.6814488,NO2,16,26,22
India,Karnataka,Bengaluru,"City Railway Station, Bengaluru - KSPCB",26-11-2025 07:00:00,12.9756843,77.5660749,PM10,87,89,88
India,Karnataka,Bengaluru,"City Railway Station, Bengaluru - KSPCB",26-11-2025 07:00:00,12.9756843,77.5660749,CO,85,88,86
India,Karnataka,Bengaluru,"Hebbal, Bengaluru - KSPCB",26-11-2025 07:00:00,13.029152,77.585901,PM2.5,74,128,96
India,Karnataka,Bengaluru,"Hebbal, Bengaluru - KSPCB",26-11-2025 07:00:00,13.029152,77.585901,PM10,74,109,88
India,Karnataka,Bengaluru,"Hebbal, Bengaluru - KSPCB",26-11-2025 07:00:00,13.029152,77.585901,NO2,NA,NA,NA
India,Karnataka,Bengaluru,"Peenya, Bengaluru - CPCB",26-11-2025 07:00:00,13.0270199,77.494094,PM2.5,22,50,33
India,Karnataka,Bengaluru,"RVCE-Mailasandra, Bengaluru - KSPCB",26-11-2025 07:00:00,12.921418,77.502466,PM10,50,205,109
India,Karnataka,Bengaluru,"RVCE-Mailasandra, Bengaluru - KSPCB",26-11-2025 07:00:00,12.921418,77.502466,SO2,6,6,6
India,Karnataka,Bengaluru,"Sanegurava Halli, Bengaluru - KSPCB",26-11-2025 07:00:00,12.990328,77.5431385,NO2,NA,NA,NA
India,Karnataka,Bengaluru,"Shivapura_Peenya, Bengaluru - KSPCB",26-11-2025 07:00:00,13.0246342,77.5080115,NH3,4,5,5
India,Karnataka,Yadgir,"Collector Office, Yadgir - KSPCB",26-11-2025 07:00:00,16.7602,77.1428,NO2,5,28,12
India,Karnataka,Yadgir,"Collector Office, Yadgir - KSPCB",26-11-2025 07:00:00,16.7602,77.1428,OZONE,18,28,19
India,Kerala,Eloor,"Udyogamandal, Eloor - Kerala PCB",26-11-2025 07:00:00,10.073232,76.302765,PM10,44,82,53
India,Kerala,Eloor,"Udyogamandal, Eloor - Kerala PCB",26-11-2025 07:00:00,10.073232,76.302765,SO2,1,1,1
India,Kerala,Kollam,"Polayathode, Kollam - Kerala PCB",26-11-2025 07:00:00,8.8787,76.6073,CO,14,17,16
India,Karnataka,Kalaburagi,"Mahatma Basaveswar Colony, Kalaburgi - KSPCB",26-11-2025 07:00:00,17.336318,76.847397,PM2.5,20,59,32
India,Karnataka,Koppal,"Diwator Nagar, Koppal - KSPCB",26-11-2025 07:00:00,15.347630,76.181767,PM2.5,22,39,26
India,Karnataka,Koppal,"Diwator Nagar, Koppal - KSPCB",26-11-2025 07:00:00,15.347630,76.181767,NO2,28,35,32
India,Karnataka,Koppal,"Diwator Nagar, Koppal - KSPCB",26-11-2025 07:00:00,15.347630,76.181767,NH3,7,7,7
India,Karnataka,Koppal,"Diwator Nagar, Koppal - KSPCB",26-11-2025 07:00:00,15.347630,76.181767,OZONE,4,9,8
India,Karnataka,Mysuru,"Hebbal 1st Stage, Mysuru - KSPCB",26-11-2025 07:00:00,12.21041,76.37376,NO2,13,30,20
India,Karnataka,Mysuru,"Hebbal 1st Stage, Mysuru - KSPCB",26-11-2025 07:00:00,12.21041,76.37376,NH3,3,7,5
India,Karnataka,Mysuru,"Hebbal 1st Stage, Mysuru - KSPCB",26-11-2025 07:00:00,12.21041,76.37376,CO,6,38,9
India,Karnataka,Vijayapura,"Ibrahimpur, Vijayapura - KSPCB",26-11-2025 07:00:00,16.802639,75.722694,PM10,NA,NA,NA
India,Karnataka,Vijayapura,"Ibrahimpur, Vijayapura - KSPCB",26-11-2025 07:00:00,16.802639,75.722694,NH3,NA,NA,NA
India,Karnataka,Bengaluru,"Silk Board, Bengaluru - KSPCB",26-11-2025 07:00:00,12.917348,77.622813,NO2,9,14,12
India,Karnataka,Chamarajanagar,"Urban, Chamarajanagar - KSPCB",26-11-2025 07:00:00,11.55358,76.55521,PM2.5,20,48,32
India,Karnataka,Chamarajanagar,"Urban, Chamarajanagar - KSPCB",26-11-2025 07:00:00,11.55358,76.55521,NO2,15,36,28
India,Karnataka,Chamarajanagar,"Urban, Chamarajanagar - KSPCB",26-11-2025 07:00:00,11.55358,76.55521,SO2,2,7,4
India,Kerala,Thiruvananthapuram,"Kariavattom, Thiruvananthapuram - Kerala PCB",26-11-2025 07:00:00,8.563700,76.886500,PM10,38,54,47
India,Kerala,Thiruvananthapuram,"Kariavattom, Thiruvananthapuram - Kerala PCB",26-11-2025 07:00:00,8.563700,76.886500,NO2,6,7,7
India,Kerala,Thrissur,"Corporation Ground, Thrissur - Kerala PCB",26-11-2025 07:00:00,10.532400,76.215900,PM10,45,56,49
India,Karnataka,Bengaluru,"Hombegowda Nagar, Bengaluru - KSPCB",26-11-2025 07:00:00,12.938539,77.590100,NH3,3,3,3
India,Karnataka,Bengaluru,"Kasturi Nagar, Bengaluru - KSPCB",26-11-2025 07:00:00,13.003872,77.664217,PM10,70,72,71
India,Madhya Pradesh,Mandideep,"Sector-D Industrial Area, Mandideep - MPPCB",26-11-2025 07:00:00,23.108440,77.511428,OZONE,25,55,46
India,Madhya Pradesh,Pithampur,"Sector-2 Industrial Area, Pithampur - MPPCB",26-11-2025 07:00:00,22.624758,75.675238,NO2,19,32,29
India,Madhya Pradesh,Pithampur,"Sector-2 Industrial Area, Pithampur - MPPCB",26-11-2025 07:00:00,22.624758,75.675238,CO,14,81,35
India,Madhya Pradesh,Pithampur,"Sector-2 Industrial Area, Pithampur - MPPCB",26-11-2025 07:00:00,22.624758,75.675238,OZONE,28,54,45
India,Madhya Pradesh,Ratlam,"Shasthri Nagar, Ratlam - IPCA Lab",26-11-2025 07:00:00,23.331731,75.045981,NO2,8,28,16
India,Madhya Pradesh,Sagar,"Civil Lines, Sagar - MPPCB",26-11-2025 07:00:00,23.838586,78.759431,PM2.5,176,320,244
India,Madhya Pradesh,Sagar,"Civil Lines, Sagar - MPPCB",26-11-2025 07:00:00,23.838586,78.759431,NH3,1,4,2
India,Madhya Pradesh,Sagar,"Civil Lines, Sagar - MPPCB",26-11-2025 07:00:00,23.838586,78.759431,SO2,8,15,10
India,Madhya Pradesh,Sagar,"Civil Lines, Sagar - MPPCB",26-11-2025 07:00:00,23.838586,78.759431,OZONE,40,74,56
India,Madhya Pradesh,Gwalior,"Maharaj Bada, Gwalior - MPPCB",26-11-2025 07:00:00,26.200388,78.147714,CO,3,116,25
India,Madhya Pradesh,Indore,"Airport Area, Indore - IMC",26-11-2025 07:00:00,22.7289,75.8076,CO,7,10,8
India,Madhya Pradesh,Indore,"Chhoti Gwaltoli, Indore - MPPCB",26-11-2025 07:00:00,22.4310,75.5213,CO,42,84,54
India,Madhya Pradesh,Indore,"Maguda Nagar, Indore - IMC",26-11-2025 07:00:00,22.7524,75.8872,PM10,17,86,68
India,Madhya Pradesh,Indore,"Maguda Nagar, Indore - IMC",26-11-2025 07:00:00,22.7524,75.8872,NO2,1,2,2
India,Madhya Pradesh,Indore,"Maguda Nagar, Indore - IMC",26-11-2025 07:00:00,22.7524,75.8872,NH3,1,22,1
India,Madhya Pradesh,Indore,"Maguda Nagar, Indore - IMC",26-11-2025 07:00:00,22.7524,75.8872,SO2,11,37,34
India,Madhya Pradesh,Indore,"Regional Park, Indore - IMC",26-11-2025 07:00:00,22.6780,75.8559,SO2,23,28,25
India,Madhya Pradesh,Dewas,"Bhopal Chauraha, Dewas - MPPCB",26-11-2025 07:00:00,22.9682591,76.064118,SO2,47,56,51
India,Madhya Pradesh,Dewas,"Bhopal Chauraha, Dewas - MPPCB",26-11-2025 07:00:00,22.9682591,76.064118,OZONE,26,29,27
India,Madhya Pradesh,Gwalior,"City Center, Gwalior - MPPCB",26-11-2025 07:00:00,26.203442,78.193251,PM2.5,63,326,198
India,Madhya Pradesh,Gwalior,"City Center, Gwalior - MPPCB",26-11-2025 07:00:00,26.203442,78.193251,PM10,86,207,137
India,Madhya Pradesh,Gwalior,"City Center, Gwalior - MPPCB",26-11-2025 07:00:00,26.203442,78.193251,CO,4,115,49
India,Madhya Pradesh,Gwalior,"Deen Dayal Nagar, Gwalior - MPPCB",26-11-2025 07:00:00,26.259242,78.216432,CO,4,133,52
India,Madhya Pradesh,Gwalior,"Maharaj Bada, Gwalior - MPPCB",26-11-2025 07:00:00,26.200388,78.147714,SO2,5,11,9
India,Madhya Pradesh,Satna,"Bandhavgar Colony, Satna - Birla Cement",26-11-2025 07:00:00,24.58434363,80.8549414,CO,28,73,50
India,Madhya Pradesh,Singrauli,"Suryakiran Bhawan NCL, Singrauli - MPPCB",26-11-2025 07:00:00,24.108970,82.645580,NO2,35,363,135
India,Maharashtra,Ahmednagar,"Tarakpur, Ahmednagar - MPCB",26-11-2025 07:00:00,19.10122,74.73339,NO2,17,26,21
India,Maharashtra,Ahmednagar,"Tarakpur, Ahmednagar - MPCB",26-11-2025 07:00:00,19.10122,74.73339,NH3,5,6,6
India,Maharashtra,Ahmednagar,"Tarakpur, Ahmednagar - MPCB",26-11-2025 07:00:00,19.10122,74.73339,SO2,NA,NA,NA
India,Madhya Pradesh,Jabalpur,"Marhatal, Jabalpur - MPPCB",26-11-2025 07:00:00,23.168606,79.932247,OZONE,24,140,50
India,Madhya Pradesh,Katni,"Gole Bazar, Katni - MPPCB",26-11-2025 07:00:00,23.50016,80.23284,PM10,96,231,149
India,Madhya Pradesh,Maihar,"Sahilara, Maihar - KJS Cements",26-11-2025 07:00:00,24.2613009,80.7231783,NO2,34,71,47
India,Madhya Pradesh,Mandideep,"Sector-D Industrial Area, Mandideep - MPPCB",26-11-2025 07:00:00,23.108440,77.511428,NH3,5,8,7
India,Madhya Pradesh,Indore,"Regional Park, Indore - IMC",26-11-2025 07:00:00,22.6780,75.8559,CO,26,36,32
India,Madhya Pradesh,Indore,"Residency Area, Indore - IMC",26-11-2025 07:00:00,22.7084,75.8815,PM2.5,42,137,82
India,Madhya Pradesh,Indore,"Residency Area, Indore - IMC",26-11-2025 07:00:00,22.7084,75.8815,CO,16,19,18
India,Madhya Pradesh,Jabalpur,"Gupteshwar, Jabalpur - JMC",26-11-2025 07:00:00,23.142888,79.916147,NO2,24,90,43
India,Madhya Pradesh,Jabalpur,"Gupteshwar, Jabalpur - JMC",26-11-2025 07:00:00,23.142888,79.916147,CO,46,112,74
India,Madhya Pradesh,Bhopal,"Idgah Hills, Bhopal - MPPCB",26-11-2025 07:00:00,23.264759,77.381568,NO2,23,56,34
India,Madhya Pradesh,Bhopal,"Idgah Hills, Bhopal - MPPCB",26-11-2025 07:00:00,23.264759,77.381568,SO2,8,14,11
India,Madhya Pradesh,Bhopal,"Paryavaran Parisar, Bhopal - MPPCB",26-11-2025 07:00:00,23.210494,77.425409,PM2.5,107,277,183
India,Madhya Pradesh,Bhopal,"Paryavaran Parisar, Bhopal - MPPCB",26-11-2025 07:00:00,23.210494,77.425409,NH3,6,9,8
India,Madhya Pradesh,Bhopal,"Paryavaran Parisar, Bhopal - MPPCB",26-11-2025 07:00:00,23.210494,77.425409,SO2,5,13,8
India,Maharashtra,Amravati,"Shivneri Colony, Amravati - MPCB",26-11-2025 07:00:00,20.9402359,77.7895248,NO2,8,27,14
India,Maharashtra,Amravati,"Shri Shivaji Science College, Amravati - MPCB",26-11-2025 07:00:00,20.939198,77.765701,PM10,103,153,125
India,Maharashtra,Amravati,"Shri Shivaji Science College, Amravati - MPCB",26-11-2025 07:00:00,20.939198,77.765701,NH3,1,6,2
India,Maharashtra,Aurangabad,"More Chowk Waluj, Aurangabad - MPCB",26-11-2025 07:00:00,19.8389439,75.244448,OZONE,26,29,27
India,Maharashtra,Chandrapur,"Chauhan Colony, Chandrapur - MPCB",26-11-2025 07:00:00,19.962900,79.298714,CO,23,50,44
India,Maharashtra,Chandrapur,"MIDC Khutala, Chandrapur - MPCB",26-11-2025 07:00:00,19.9775302,79.2337086,PM10,NA,NA,NA
India,Maharashtra,Dhule,"Deopur, Dhule - MPCB",26-11-2025 07:00:00,20.918946,74.776388,PM2.5,NA,NA,NA
India,Maharashtra,Dhule,"Deopur, Dhule - MPCB",26-11-2025 07:00:00,20.918946,74.776388,OZONE,21,53,46
India,Maharashtra,Jalgaon,"Prabhat Colony, Jalgaon - MPCB",26-11-2025 07:00:00,21.001264,75.565602,PM2.5,39,133,83
India,Maharashtra,Jalgaon,"Prabhat Colony, Jalgaon - MPCB",26-11-2025 07:00:00,21.001264,75.565602,PM10,65,134,100
India,Maharashtra,Jalgaon,"Prabhat Colony, Jalgaon - MPCB",26-11-2025 07:00:00,21.001264,75.565602,NO2,4,21,8
India,Maharashtra,Kalyan,"Pimpleshwar Mandir, Kalyan - MPCB",26-11-2025 07:00:00,19.192056,72.9585188,OZONE,3,140,5
India,Maharashtra,Kolhapur,"Shivaji University, Kolhapur - MPCB",26-11-2025 07:00:00,16.6870449,74.2505872,SO2,2,7,4
India,Maharashtra,Kolhapur,"Shivaji University, Kolhapur - MPCB",26-11-2025 07:00:00,16.6870449,74.2505872,CO,8,54,46
India,Maharashtra,Kolhapur,"Shivaji University, Kolhapur - MPCB",26-11-2025 07:00:00,16.6870449,74.2505872,OZONE,1,88,3
India,Maharashtra,Kolhapur,"Sinchan Bhavan, Kolhapur - MPCB",26-11-2025 07:00:00,16.7143745,74.2426398,NO2,19,82,44
India,Maharashtra,Kolhapur,"Sinchan Bhavan, Kolhapur - MPCB",26-11-2025 07:00:00,16.7143745,74.2426398,SO2,1,3,2
India,Maharashtra,Latur,"Sawe Wadi, Latur - MPCB",26-11-2025 07:00:00,18.39963,76.57452,NO2,19,69,37
India,Maharashtra,Mahad,"Kamble Tarf Birwadi, Mahad - MPCB",26-11-2025 07:00:00,18.1023399,73.4783687,NO2,13,42,23
India,Maharashtra,Malegaon,"Mahesh Nagar, Malegaon - MPCB",26-11-2025 07:00:00,20.555712,74.529236,PM2.5,1,97,49
India,Maharashtra,Malegaon,"Mahesh Nagar, Malegaon - MPCB",26-11-2025 07:00:00,20.555712,74.529236,CO,26,119,44
India,Maharashtra,Mira-Bhayandar,"Bhayandar West, Mira-Bhayandar - MPCB",26-11-2025 07:00:00,19.296481,72.840923,NH3,2,7,4
India,Maharashtra,Mira-Bhayandar,"Bhayandar West, Mira-Bhayandar - MPCB",26-11-2025 07:00:00,19.296481,72.840923,CO,32,66,59
India,Maharashtra,Mumbai,"Bandra Kurla Complex, Mumbai - MPCB",26-11-2025 07:00:00,19.065931,72.862131,NH3,1,55,15
India,Maharashtra,Mumbai,"Borivali East, Mumbai - MPCB",26-11-2025 07:00:00,19.2243333,72.8658113,SO2,NA,NA,NA
India,Maharashtra,Mumbai,"Borivali East, Mumbai - MPCB",26-11-2025 07:00:00,19.2243333,72.8658113,OZONE,NA,NA,NA
India,Maharashtra,Mumbai,"Byculla, Mumbai - BMC",26-11-2025 07:00:00,18.9767,72.8380,PM2.5,126,221,181
India,Maharashtra,Mumbai,"Byculla, Mumbai - BMC",26-11-2025 07:00:00,18.9767,72.8380,SO2,17,21,18
India,Maharashtra,Mumbai,"Byculla, Mumbai - BMC",26-11-2025 07:00:00,18.9767,72.8380,OZONE,2,54,3
India,Maharashtra,Mumbai,"Chakala-Andheri East, Mumbai - IITM",26-11-2025 07:00:00,19.11074,72.86084,PM2.5,141,316,211
India,Maharashtra,Mumbai,"Chakala-Andheri East, Mumbai - IITM",26-11-2025 07:00:00,19.11074,72.86084,NH3,13,28,21
India,Maharashtra,Mumbai,"Kandivali East, Mumbai - MPCB",26-11-2025 07:00:00,19.205800,72.868200,PM2.5,91,298,169
India,Maharashtra,Mumbai,"Kandivali East, Mumbai - MPCB",26-11-2025 07:00:00,19.205800,72.868200,SO2,NA,NA,NA
India,Maharashtra,Mumbai,"Kandivali East, Mumbai - MPCB",26-11-2025 07:00:00,19.205800,72.868200,CO,8,35,9
India,Maharashtra,Mumbai,"Kherwadi_Bandra East, Mumbai - MPCB",26-11-2025 07:00:00,19.0632143,72.8456324,CO,22,68,50
India,Maharashtra,Mumbai,"Khindipada-Bhandup West, Mumbai - IITM",26-11-2025 07:00:00,19.1653323,72.922099,SO2,NA,NA,NA
India,Maharashtra,Jalna,"Old MIDC, Jalna - MPCB",26-11-2025 07:00:00,19.854616,75.905894,PM10,51,143,82
India,Maharashtra,Jalna,"Old MIDC, Jalna - MPCB",26-11-2025 07:00:00,19.854616,75.905894,CO,10,51,19
India,Maharashtra,Kalyan,"Khadakpada, Kalyan - MPCB",26-11-2025 07:00:00,19.25292,73.142019,OZONE,9,9,9
India,Maharashtra,Kalyan,"Pimpleshwar Mandir, Kalyan - MPCB",26-11-2025 07:00:00,19.192056,72.9585188,SO2,11,29,17
India,Maharashtra,Mumbai,"Chakala-Andheri East, Mumbai - IITM",26-11-2025 07:00:00,19.11074,72.86084,OZONE,5,119,14
India,Maharashtra,Mumbai,"Deonar, Mumbai - IITM",26-11-2025 07:00:00,19.04946,72.9230,SO2,3,8,5
India,Maharashtra,Mumbai,"Ghatkopar, Mumbai - BMC",26-11-2025 07:00:00,19.083694,72.920967,CO,14,58,43
India,Maharashtra,Bhiwandi,"Gokul Nagar, Bhiwandi - MPCB",26-11-2025 07:00:00,19.309073,73.057223,PM10,101,225,149
India,Maharashtra,Boisar,"Khaira, Boisar - MPCB",26-11-2025 07:00:00,19.786089,72.757971,NO2,17,74,40
India,Maharashtra,Boisar,"Khaira, Boisar - MPCB",26-11-2025 07:00:00,19.786089,72.757971,SO2,15,33,23
India,Maharashtra,Mumbai,"Mazgaon, Mumbai - IITM",26-11-2025 07:00:00,18.96702,72.84214,CO,78,134,127
India,Maharashtra,Mumbai,"Mazgaon, Mumbai - IITM",26-11-2025 07:00:00,18.96702,72.84214,OZONE,9,203,19
India,Maharashtra,Nashik,"MIDC Ambad, Nashik - MPCB",26-11-2025 07:00:00,19.950220,73.731480,NH3,7,10,8
India,Maharashtra,Nashik,"MIDC Ambad, Nashik - MPCB",26-11-2025 07:00:00,19.950220,73.731480,OZONE,8,84,23
India,Maharashtra,Nashik,"Pandav Nagari, Nashik - MPCB",26-11-2025 07:00:00,19.9591346,73.7788008,NH3,2,5,4
India,Maharashtra,Navi Mumbai,"Kopripada-Vashi, Navi Mumbai - MPCB",26-11-2025 07:00:00,19.090337,73.014232,NH3,2,8,6
India,Maharashtra,Navi Mumbai,"Kopripada-Vashi, Navi Mumbai - MPCB",26-11-2025 07:00:00,19.090337,73.014232,CO,18,58,48
India,Maharashtra,Navi Mumbai,"Mahape, Navi Mumbai - MPCB",26-11-2025 07:00:00,19.1135051,73.008978,PM2.5,NA,NA,NA
India,Maharashtra,Navi Mumbai,"Mahape, Navi Mumbai - MPCB",26-11-2025 07:00:00,19.1135051,73.008978,PM10,NA,NA,NA
India,Maharashtra,Mumbai,"Vile Parle West, Mumbai - MPCB",26-11-2025 07:00:00,19.10861,72.83622,NO2,4,30,23
India,Maharashtra,Mumbai,"Vile Parle West, Mumbai - MPCB",26-11-2025 07:00:00,19.10861,72.83622,OZONE,4,27,27
India,Maharashtra,Mumbai,"Worli, Mumbai - MPCB",26-11-2025 07:00:00,18.9936162,72.8128113,NH3,1,3,1
India,Maharashtra,Nagpur,"Ambazari, Nagpur - MPCB",26-11-2025 07:00:00,21.121801,79.04952,NO2,6,94,39
India,Maharashtra,Nagpur,"Ambazari, Nagpur - MPCB",26-11-2025 07:00:00,21.121801,79.04952,NH3,3,18,8
India,Maharashtra,Nagpur,"Ambazari, Nagpur - MPCB",26-11-2025 07:00:00,21.121801,79.04952,SO2,17,48,29
India,Maharashtra,Nagpur,"Ambazari, Nagpur - MPCB",26-11-2025 07:00:00,21.121801,79.04952,CO,20,106,62
India,Maharashtra,Nagpur,"Ambazari, Nagpur - MPCB",26-11-2025 07:00:00,21.121801,79.04952,OZONE,1,96,8
India,Maharashtra,Parbhani,"Masoom Colony, Parbhani - MPCB",26-11-2025 07:00:00,19.265594,76.761463,OZONE,10,10,10
India,Maharashtra,Pimpri-Chinchwad,"Gavalinagar, Pimpri Chinchwad - MPCB",26-11-2025 07:00:00,18.63673,73.82487,PM10,103,176,144
India,Maharashtra,Pimpri-Chinchwad,"Gavalinagar, Pimpri Chinchwad - MPCB",26-11-2025 07:00:00,18.63673,73.82487,NO2,NA,NA,NA
India,Maharashtra,Pimpri-Chinchwad,"Gavalinagar, Pimpri Chinchwad - MPCB",26-11-2025 07:00:00,18.63673,73.82487,OZONE,1,85,1
India,Maharashtra,Pimpri-Chinchwad,"Park Street Wakad, Pimpri Chinchwad - MPCB",26-11-2025 07:00:00,18.59051,73.77946,NO2,42,98,59
India,Maharashtra,Pimpri-Chinchwad,"Park Street Wakad, Pimpri Chinchwad - MPCB",26-11-2025 07:00:00,18.59051,73.77946,CO,22,103,47
India,Maharashtra,Mumbai,"Shivaji Nagar, Mumbai - BMC",26-11-2025 07:00:00,19.060498,72.923356,SO2,11,21,16
India,Maharashtra,Mumbai,"Siddharth Nagar-Worli, Mumbai - IITM",26-11-2025 07:00:00,19.000083,72.813993,PM10,NA,NA,NA
India,Maharashtra,Mumbai,"Siddharth Nagar-Worli, Mumbai - IITM",26-11-2025 07:00:00,19.000083,72.813993,OZONE,5,171,45
India,Maharashtra,Mumbai,"Sion, Mumbai - MPCB",26-11-2025 07:00:00,19.047000,72.874600,PM10,34,102,64
India,Maharashtra,Mumbai,"Sion, Mumbai - MPCB",26-11-2025 07:00:00,19.047000,72.874600,SO2,16,17,16
India,Maharashtra,Mumbai,"Vasai West, Mumbai - MPCB",26-11-2025 07:00:00,19.383200,72.820400,NH3,NA,NA,NA
India,Maharashtra,Mumbai,"Vasai West, Mumbai - MPCB",26-11-2025 07:00:00,19.383200,72.820400,SO2,NA,NA,NA
India,Maharashtra,Nagpur,"Mahal, Nagpur - MPCB",26-11-2025 07:00:00,21.14472,79.107595,NO2,26,107,54
India,Maharashtra,Nagpur,"Mahal, Nagpur - MPCB",26-11-2025 07:00:00,21.14472,79.107595,CO,42,127,61
India,Maharashtra,Nagpur,"Opp GPO Civil Lines, Nagpur - MPCB",26-11-2025 07:00:00,21.152875,79.0517531,PM10,NA,NA,NA
India,Maharashtra,Nanded,"Sneh Nagar, Nanded - MPCB",26-11-2025 07:00:00,19.173852,77.296291,PM10,97,183,129
India,Maharashtra,Nanded,"Sneh Nagar, Nanded - MPCB",26-11-2025 07:00:00,19.173852,77.296291,NO2,NA,NA,NA
India,Maharashtra,Pimpri-Chinchwad,"Thergaon, Pimpri Chinchwad - MPCB",26-11-2025 07:00:00,18.616318,73.765797,PM2.5,58,135,93
India,Maharashtra,Pimpri-Chinchwad,"Thergaon, Pimpri Chinchwad - MPCB",26-11-2025 07:00:00,18.616318,73.765797,NH3,4,6,5
India,Maharashtra,Pune,"Bhumkar Nagar, Pune - IITM",26-11-2025 07:00:00,18.605770,73.749976,CO,28,125,78
India,Maharashtra,Pune,"Katraj Dairy, Pune - MPCB",26-11-2025 07:00:00,18.454450,73.854155,PM10,72,121,98
India,Maharashtra,Navi Mumbai,"Nerul, Navi Mumbai - MPCB",26-11-2025 07:00:00,19.008751,73.016620,NH3,4,4,4
India,Maharashtra,Navi Mumbai,"Nerul, Navi Mumbai - MPCB",26-11-2025 07:00:00,19.008751,73.016620,SO2,NA,NA,NA
India,Maharashtra,Navi Mumbai,"Sector-2E Kalamboli, Navi Mumbai - MPCB",26-11-2025 07:00:00,19.02579,73.10297,SO2,2,6,3
India,Maharashtra,Navi Mumbai,"Tondare-Taloja, Navi Mumbai - MPCB",26-11-2025 07:00:00,19.0630,73.1209,PM10,59,135,96
India,Maharashtra,Nanded,"Sneh Nagar, Nanded - MPCB",26-11-2025 07:00:00,19.173852,77.296291,OZONE,23,63,36
India,Maharashtra,Nashik,"Hirawadi, Nashik - MPCB",26-11-2025 07:00:00,20.021503,73.813844,NO2,4,35,15
India,Maharashtra,Mumbai,"Powai, Mumbai - MPCB",26-11-2025 07:00:00,19.137500,72.915056,NO2,7,8,8
India,Odisha,Talcher,"Talcher Coalfields,Talcher - OSPCB",26-11-2025 07:00:00,20.9360711,85.1707021,PM2.5,124,340,267
India,Odisha,Talcher,"Talcher Coalfields,Talcher - OSPCB",26-11-2025 07:00:00,20.9360711,85.1707021,PM10,130,330,220
India,Odisha,Talcher,"Talcher Coalfields,Talcher - OSPCB",26-11-2025 07:00:00,20.9360711,85.1707021,NO2,64,128,94
India,Odisha,Talcher,"Talcher Coalfields,Talcher - OSPCB",26-11-2025 07:00:00,20.9360711,85.1707021,CO,44,108,99
India,Odisha,Talcher,"Talcher Coalfields,Talcher - OSPCB",26-11-2025 07:00:00,20.9360711,85.1707021,OZONE,12,21,15
India,Odisha,Tensa,"Barsua Iron Ore Mines, Tensa - OSPCB",26-11-2025 07:00:00,21.869985,85.167016,NH3,NA,NA,NA
India,Odisha,Tensa,"Barsua Iron Ore Mines, Tensa - OSPCB",26-11-2025 07:00:00,21.869985,85.167016,OZONE,9,46,24
India,Puducherry,Puducherry,"Jawahar Nagar, Puducherry - PPCC",26-11-2025 07:00:00,11.9309,79.8027,NH3,1,4,2
India,Puducherry,Puducherry,"Jawahar Nagar, Puducherry - PPCC",26-11-2025 07:00:00,11.9309,79.8027,SO2,5,12,8
India,Odisha,Cuttack,"CDA Area, Cuttack - OSPCB",26-11-2025 07:00:00,20.48891     ,85.84768     ,PM10,160,403,227
India,Odisha,Cuttack,"CDA Area, Cuttack - OSPCB",26-11-2025 07:00:00,20.48891     ,85.84768     ,NO2,21,146,53
India,Odisha,Cuttack,"CDA Area, Cuttack - OSPCB",26-11-2025 07:00:00,20.48891     ,85.84768     ,SO2,3,15,7
India,Odisha,Cuttack,"CDA Area, Cuttack - OSPCB",26-11-2025 07:00:00,20.48891     ,85.84768     ,OZONE,4,202,17
India,Odisha,Keonjhar,"Jagamohanpur, Keonjhar - OSPCB",26-11-2025 07:00:00,21.643900,85.599355,PM2.5,77,121,92
India,Odisha,Keonjhar,"Jagamohanpur, Keonjhar - OSPCB",26-11-2025 07:00:00,21.643900,85.599355,NH3,9,21,14
India,Odisha,Keonjhar,"Jagamohanpur, Keonjhar - OSPCB",26-11-2025 07:00:00,21.643900,85.599355,SO2,12,36,19
India,Odisha,Keonjhar,"Jagamohanpur, Keonjhar - OSPCB",26-11-2025 07:00:00,21.643900,85.599355,CO,1,66,31
India,Odisha,Nayagarh,"Dabuna, Nayagarh - OSPCB",26-11-2025 07:00:00,21.847279,85.416905,PM2.5,30,88,62
India,Maharashtra,Pune,"Mhada Colony, Pune - IITM",26-11-2025 07:00:00,18.573040,73.927715,OZONE,8,96,11
India,Maharashtra,Pune,"Panchawati_Pashan, Pune - IITM",26-11-2025 07:00:00,18.536457,73.805454,OZONE,1,39,1
India,Maharashtra,Pune,"Revenue Colony-Shivajinagar, Pune - IITM",26-11-2025 07:00:00,18.530085,73.849598,NO2,46,138,93
India,Maharashtra,Pune,"Savitribai Phule Pune University, Pune - MPCB",26-11-2025 07:00:00,18.547056,73.826908,SO2,1,3,2
India,Maharashtra,Pune,"Savitribai Phule Pune University, Pune - MPCB",26-11-2025 07:00:00,18.547056,73.826908,CO,12,113,93
India,Maharashtra,Pune,"Transport Nagar-Nigdi, Pune - IITM",26-11-2025 07:00:00,18.664282,73.763966,PM2.5,42,135,88
India,Odisha,Balasore,"Kalidaspur, Balasore - OSPCB",26-11-2025 07:00:00,21.51161,86.89088,NH3,1,3,2
India,Odisha,Balasore,"Kalidaspur, Balasore - OSPCB",26-11-2025 07:00:00,21.51161,86.89088,SO2,6,27,12
India,Odisha,Barbil,"Forest Office, Barbil - OSPCB",26-11-2025 07:00:00,22.1166054,85.3945546,SO2,8,48,14
India,Odisha,Barbil,"Forest Office, Barbil - OSPCB",26-11-2025 07:00:00,22.1166054,85.3945546,OZONE,4,69,6
India,Odisha,Baripada,"Meher Colony, Baripada - OSPCB",26-11-2025 07:00:00,21.941841,86.728318,SO2,5,12,8
India,Odisha,Bhubaneswar,"Lingraj Mandir, Bhubaneswar - OSPCB",26-11-2025 07:00:00,20.240790,85.836784,CO,31,101,59
India,Odisha,Nayagarh,"Dabuna, Nayagarh - OSPCB",26-11-2025 07:00:00,21.847279,85.416905,NH3,6,7,7
India,Odisha,Nayagarh,"Dabuna, Nayagarh - OSPCB",26-11-2025 07:00:00,21.847279,85.416905,CO,18,34,26
India,Odisha,Rairangpur,"Divisional Forest Office, Rairangpur - OSPCB",26-11-2025 07:00:00,22.265816,86.174829,CO,24,50,36
India,Odisha,Rourkela,"Raghunathpali, Rourkela - OSPCB",26-11-2025 07:00:00,22.220833,84.809444,PM10,53,156,108
India,Odisha,Rourkela,"Raghunathpali, Rourkela - OSPCB",26-11-2025 07:00:00,22.220833,84.809444,SO2,3,7,5
India,Odisha,Rourkela,"Sector-2, Rourkela - OSPCB",26-11-2025 07:00:00,22.24500000,84.88111111,PM2.5,52,73,63
India,Maharashtra,Virar,"Bolinj, Virar - MPCB",26-11-2025 07:00:00,19.4458210,72.7988231,CO,24,118,65
India,Meghalaya,Shillong,"Lumpyngngad, Shillong - Meghalaya PCB",26-11-2025 07:00:00,25.5586,91.8985,SO2,6,10,7
India,Meghalaya,Shillong,"Lumpyngngad, Shillong - Meghalaya PCB",26-11-2025 07:00:00,25.5586,91.8985,CO,1,12,2
India,Nagaland,Kohima,"PWD Junction, Kohima - NPCB",26-11-2025 07:00:00,25.6635413,94.0989878,OZONE,6,18,8
India,Odisha,Angul,"Hakimapada, Angul - OSPCB",26-11-2025 07:00:00,20.832874,85.104082,PM2.5,302,392,336
India,Maharashtra,Pune,"Transport Nagar-Nigdi, Pune - IITM",26-11-2025 07:00:00,18.664282,73.763966,CO,33,102,88
India,Maharashtra,Sangli,"Vijay Nagar, Sangli - MPCB",26-11-2025 07:00:00, 16.5038,74.3623,NO2,NA,NA,NA
India,Maharashtra,Solapur,"Dnyaneshwar Nagar, Solapur - MPCB",26-11-2025 07:00:00,17.6336264,75.9132495,PM10,44,87,63
India,Maharashtra,Solapur,"Dnyaneshwar Nagar, Solapur - MPCB",26-11-2025 07:00:00,17.6336264,75.9132495,OZONE,29,73,39
India,Maharashtra,Thane,"Kasarvadavali, Thane - MPCB",26-11-2025 07:00:00,19.26777,72.97182,PM10,69,106,86
India,Maharashtra,Thane,"Kasarvadavali, Thane - MPCB",26-11-2025 07:00:00,19.26777,72.97182,NO2,18,95,31
India,Maharashtra,Virar,"Bolinj, Virar - MPCB",26-11-2025 07:00:00,19.4458210,72.7988231,PM2.5,122,224,183
India,Odisha,Bhubaneswar,"Patia, Bhubaneswar - OSPCB",26-11-2025 07:00:00,20.34652,85.81630,SO2,3,13,6
India,Odisha,Bhubaneswar,"Patia, Bhubaneswar - OSPCB",26-11-2025 07:00:00,20.34652,85.81630,OZONE,4,182,20
India,Odisha,Bileipada,"Tata Township, Bileipada - OSPCB",26-11-2025 07:00:00,22.06156703,85.47409613,NH3,4,4,4
India,Punjab,Jalandhar,"Civil Line, Jalandhar - PPCB",26-11-2025 07:00:00,31.321907,75.578914,PM10,105,151,131
India,Punjab,Jalandhar,"Civil Line, Jalandhar - PPCB",26-11-2025 07:00:00,31.321907,75.578914,NO2,39,44,42
India,Punjab,Jalandhar,"Civil Line, Jalandhar - PPCB",26-11-2025 07:00:00,31.321907,75.578914,CO,39,50,46
India,Punjab,Khanna,"Kalal Majra, Khanna - PPCB",26-11-2025 07:00:00,30.736056 ,76.209694,OZONE,24,26,25
India,Punjab,Ludhiana,"Punjab Agricultural University, Ludhiana - PPCB",26-11-2025 07:00:00,30.9028,75.8086,PM2.5,111,148,122
India,Punjab,Mandi Gobindgarh,"RIMT University, Mandi Gobindgarh - PPCB",26-11-2025 07:00:00,30.649961,76.331442,PM2.5,79,347,217
India,Rajasthan,Bhiwadi,"RIICO Ind. Area III, Bhiwadi - RSPCB",26-11-2025 07:00:00,28.194909,76.862296,SO2,3,22,9
India,Rajasthan,Bhiwadi,"RIICO Ind. Area III, Bhiwadi - RSPCB",26-11-2025 07:00:00,28.194909,76.862296,CO,30,88,65
India,Rajasthan,Bhiwadi,"Vasundhara Nagar_UIT, Bhiwadi - RSPCB",26-11-2025 07:00:00,28.207266,76.829265,SO2,18,27,20
India,Rajasthan,Bhiwadi,"Vasundhara Nagar_UIT, Bhiwadi - RSPCB",26-11-2025 07:00:00,28.207266,76.829265,OZONE,4,88,8
India,Rajasthan,Bikaner,"MM Ground, Bikaner - RSPCB",26-11-2025 07:00:00,28.018792,73.292658,CO,27,131,42
India,Rajasthan,Bikaner,"MM Ground, Bikaner - RSPCB",26-11-2025 07:00:00,28.018792,73.292658,OZONE,1,115,63
India,Rajasthan,Bundi,"New Colony, Bundi - RSPCB",26-11-2025 07:00:00,25.435774,75.644272,NO2,15,52,27
India,Rajasthan,Barmer,"Railway Colony, Barmer - RSPCB",26-11-2025 07:00:00,25.747299,71.393989,NH3,3,6,4
India,Rajasthan,Barmer,"Railway Colony, Barmer - RSPCB",26-11-2025 07:00:00,25.747299,71.393989,OZONE,44,104,67
India,Rajasthan,Bharatpur,"Krishna Nagar, Bharatpur - RSPCB",26-11-2025 07:00:00,27.215415,77.50873,NO2,31,100,50
India,Rajasthan,Bharatpur,"Krishna Nagar, Bharatpur - RSPCB",26-11-2025 07:00:00,27.215415,77.50873,NH3,11,19,14
India,Rajasthan,Bharatpur,"Krishna Nagar, Bharatpur - RSPCB",26-11-2025 07:00:00,27.215415,77.50873,SO2,2,14,7
India,Rajasthan,Bhilwara,"Pratap Nagar, Bhilwara - RSPCB",26-11-2025 07:00:00,25.339605,74.618883,PM2.5,57,260,115
India,Rajasthan,Bhilwara,"Pratap Nagar, Bhilwara - RSPCB",26-11-2025 07:00:00,25.339605,74.618883,SO2,11,17,13
India,Rajasthan,Jaipur,"Adarsh Nagar, Jaipur - RSPCB",26-11-2025 07:00:00,26.902909,75.836858,NH3,10,27,18
India,Rajasthan,Jaipur,"Adarsh Nagar, Jaipur - RSPCB",26-11-2025 07:00:00,26.902909,75.836858,SO2,10,28,21
India,Rajasthan,Jaipur,"Mansarovar Sector-12, Jaipur - RSPCB",26-11-2025 07:00:00,26.843698,75.766894,OZONE,1,174,9
India,Rajasthan,Jaipur,"Police Commissionerate, Jaipur - RSPCB",26-11-2025 07:00:00,26.9164092,75.7994901,PM10,87,170,126
India,Rajasthan,Jaipur,"RIICO Sitapura, Jaipur - RSPCB",26-11-2025 07:00:00,26.786682,75.827928,PM2.5,58,343,181
India,Rajasthan,Jaipur,"RIICO Sitapura, Jaipur - RSPCB",26-11-2025 07:00:00,26.786682,75.827928,SO2,4,6,5
India,Rajasthan,Bundi,"New Colony, Bundi - RSPCB",26-11-2025 07:00:00,25.435774,75.644272,SO2,1,9,3
India,Rajasthan,Chittorgarh,"Shastri Nagar, Chittorgarh - RSPCB",26-11-2025 07:00:00,24.892047,74.623527,NO2,17,90,51
India,Rajasthan,Chittorgarh,"Shastri Nagar, Chittorgarh - RSPCB",26-11-2025 07:00:00,24.892047,74.623527,OZONE,2,126,12
India,Rajasthan,Churu,"Subash Chowk, Churu - RSPCB",26-11-2025 07:00:00,28.296139,74.961696,PM10,105,464,210
India,Rajasthan,Churu,"Subash Chowk, Churu - RSPCB",26-11-2025 07:00:00,28.296139,74.961696,NH3,5,7,6
India,Rajasthan,Dausa,"Khatikan Mohalla, Dausa - RSPCB",26-11-2025 07:00:00,26.895552,76.334753,SO2,3,9,6
India,Rajasthan,Jaipur,"RIICO Sitapura, Jaipur - RSPCB",26-11-2025 07:00:00,26.786682,75.827928,OZONE,1,159,4
India,Rajasthan,Jaipur,"Sector-2 Murlipura, Jaipur - RSPCB",26-11-2025 07:00:00,26.960669,75.771817,CO,24,98,47
India,Rajasthan,Jaipur,"Shastri Nagar, Jaipur - RSPCB",26-11-2025 07:00:00,26.9502929,75.730943,PM10,109,156,130
India,Rajasthan,Jaipur,"Shastri Nagar, Jaipur - RSPCB",26-11-2025 07:00:00,26.9502929,75.730943,CO,72,157,107
India,Punjab,Patiala,"Model Town, Patiala - PPCB",26-11-2025 07:00:00,30.349388,76.366642,PM2.5,67,185,102
India,Punjab,Patiala,"Model Town, Patiala - PPCB",26-11-2025 07:00:00,30.349388,76.366642,PM10,109,187,133
India,Punjab,Rupnagar,"Ratanpura, Rupnagar - Ambuja Cements",26-11-2025 07:00:00,31.0325454,76.5623046,PM10,5,22,13
India,Punjab,Rupnagar,"Ratanpura, Rupnagar - Ambuja Cements",26-11-2025 07:00:00,31.0325454,76.5623046,NO2,NA,NA,NA
India,Rajasthan,Ajmer,"Civil Lines,  Ajmer - RSPCB",26-11-2025 07:00:00,26.470859,74.646594,PM10,100,144,122
India,Rajasthan,Ajmer,"Civil Lines,  Ajmer - RSPCB",26-11-2025 07:00:00,26.470859,74.646594,SO2,13,33,20
India,Rajasthan,Baran,"Bamboliya, Baran - RSPCB",26-11-2025 07:00:00,25.106006,76.469948,PM2.5,18,73,48
India,Rajasthan,Baran,"Bamboliya, Baran - RSPCB",26-11-2025 07:00:00,25.106006,76.469948,NO2,15,50,23
India,Rajasthan,Hanumangarh,"Housing Board, Hanumangarh - RSPCB",26-11-2025 07:00:00,29.610750,74.283608,PM2.5,43,346,158
India,Rajasthan,Hanumangarh,"Housing Board, Hanumangarh - RSPCB",26-11-2025 07:00:00,29.610750,74.283608,NO2,15,68,35
India,Rajasthan,Hanumangarh,"Housing Board, Hanumangarh - RSPCB",26-11-2025 07:00:00,29.610750,74.283608,SO2,5,29,12
India,Rajasthan,Nagaur,"Karni Colony, Nagaur - RSPCB",26-11-2025 07:00:00,27.213494,73.734444,SO2,4,11,7
India,Rajasthan,Nagaur,"Karni Colony, Nagaur - RSPCB",26-11-2025 07:00:00,27.213494,73.734444,CO,20,67,24
India,Rajasthan,Pali,"Indira Colony Vistar, Pali - RSPCB",26-11-2025 07:00:00,25.771061, 73.340227,PM10,93,161,126
India,Rajasthan,Pali,"Indira Colony Vistar, Pali - RSPCB",26-11-2025 07:00:00,25.771061, 73.340227,CO,2,62,37
India,Rajasthan,Pali,"Indira Colony Vistar, Pali - RSPCB",26-11-2025 07:00:00,25.771061, 73.340227,OZONE,8,36,9
India,Rajasthan,Pratapgarh,"Pragati Nagar, Pratapgarh - RSPCB",26-11-2025 07:00:00,24.041198,74.780702,NO2,16,30,22
India,Rajasthan,Pratapgarh,"Pragati Nagar, Pratapgarh - RSPCB",26-11-2025 07:00:00,24.041198,74.780702,NH3,4,7,6
India,TamilNadu,Chennai,"Arumbakkam, Chennai - TNPCB",26-11-2025 07:00:00,13.0664,80.2112 ,NO2,11,29,17
India,TamilNadu,Chennai,"Arumbakkam, Chennai - TNPCB",26-11-2025 07:00:00,13.0664,80.2112 ,NH3,1,2,2
India,TamilNadu,Chennai,"Kodungaiyur, Chennai - TNPCB",26-11-2025 07:00:00,13.1278,80.2642,PM2.5,67,170,112
India,TamilNadu,Chennai,"Manali Village, Chennai - TNPCB",26-11-2025 07:00:00,13.1662,80.2584,PM2.5,37,98,65
India,TamilNadu,Chennai,"Manali Village, Chennai - TNPCB",26-11-2025 07:00:00,13.1662,80.2584,NH3,1,2,1
India,TamilNadu,Chennai,"Manali Village, Chennai - TNPCB",26-11-2025 07:00:00,13.1662,80.2584,CO,16,42,18
India,TamilNadu,Chennai,"Manali, Chennai - CPCB",26-11-2025 07:00:00,13.164544,80.26285,NO2,9,16,14
India,Sikkim,Gangtok,"Zero Point GICI, Gangtok - SSPCB",26-11-2025 07:00:00,27.338530,88.614099,PM2.5,5,35,17
India,Sikkim,Gangtok,"Zero Point GICI, Gangtok - SSPCB",26-11-2025 07:00:00,27.338530,88.614099,PM10,12,29,20
India,Sikkim,Gangtok,"Zero Point GICI, Gangtok - SSPCB",26-11-2025 07:00:00,27.338530,88.614099,CO,1,12,3
India,TamilNadu,Ariyalur,"Keelapalur, Ariyalur - TNPCB",26-11-2025 07:00:00,11.06825,79.07033,PM2.5,31,69,52
India,TamilNadu,Ariyalur,"Keelapalur, Ariyalur - TNPCB",26-11-2025 07:00:00,11.06825,79.07033,SO2,13,13,13
India,TamilNadu,Chennai,"Alandur Bus Depot, Chennai - CPCB",26-11-2025 07:00:00,12.9099161,80.1076538,NO2,26,34,29
India,Rajasthan,Jhunjhunu,"Indra Nagar, Jhunjhunu - RSPCB",26-11-2025 07:00:00,28.108988,75.386577,OZONE,1,156,14
India,Rajasthan,Jodhpur,"Digari Kalan, Jodhpur - RSPCB",26-11-2025 07:00:00,26.295810,73.082283,NO2,12,119,37
India,Rajasthan,Jodhpur,"Jhalamand, Jodhpur - RSPCB",26-11-2025 07:00:00,26.215415,73.070156,PM2.5,67,213,119
India,Rajasthan,Jodhpur,"Jhalamand, Jodhpur - RSPCB",26-11-2025 07:00:00,26.215415,73.070156,PM10,71,178,118
India,Rajasthan,Jodhpur,"Jhalamand, Jodhpur - RSPCB",26-11-2025 07:00:00,26.215415,73.070156,OZONE,22,122,45
India,Rajasthan,Jodhpur,"Mandor, Jodhpur - RSPCB",26-11-2025 07:00:00,26.358805,73.047444,PM2.5,62,203,127
India,Rajasthan,Jodhpur,"Mandor, Jodhpur - RSPCB",26-11-2025 07:00:00,26.358805,73.047444,NH3,3,6,4
India,Rajasthan,Jodhpur,"Samrat Ashok Udhyan, Jodhpur - RSPCB",26-11-2025 07:00:00,26.253384,72.976571,NH3,5,8,6
India,Rajasthan,Karauli,"Satyawati Vihar, Karauli - RSPCB",26-11-2025 07:00:00,26.506177,77.025989,NH3,6,13,10
India,Rajasthan,Karauli,"Satyawati Vihar, Karauli - RSPCB",26-11-2025 07:00:00,26.506177,77.025989,OZONE,5,92,16
India,Rajasthan,Sikar,"Radhakishan Pura, Sikar - RSPCB",26-11-2025 07:00:00,27.608912,75.153302,OZONE,10,120,25
India,Rajasthan,Sri Ganganagar,"Old City, Sri Ganganagar - RSPCB",26-11-2025 07:00:00,29.931624,73.864511,NO2,42,164,95
India,Rajasthan,Sri Ganganagar,"Old City, Sri Ganganagar - RSPCB",26-11-2025 07:00:00,29.931624,73.864511,NH3,5,45,20
India,Rajasthan,Tonk,"Shastri Nagar, Tonk - RSPCB",26-11-2025 07:00:00,26.159933,75.780517,CO,30,141,45
India,Rajasthan,Pratapgarh,"Pragati Nagar, Pratapgarh - RSPCB",26-11-2025 07:00:00,24.041198,74.780702,CO,20,28,23
India,Rajasthan,Rajsamand,"Dhoinda, Rajsamand - RSPCB",26-11-2025 07:00:00,25.036360,73.883502,NO2,12,40,20
India,Rajasthan,Rajsamand,"Dhoinda, Rajsamand - RSPCB",26-11-2025 07:00:00,25.036360,73.883502,OZONE,17,178,47
India,Rajasthan,Sawai Madhopur,"Sahu Nagar, Sawai Madhopur - RSPCB",26-11-2025 07:00:00,26.031443,76.359327,CO,2,101,26
India,Rajasthan,Jhunjhunu,"Indra Nagar, Jhunjhunu - RSPCB",26-11-2025 07:00:00,28.108988,75.386577,CO,14,112,56
India,Rajasthan,Kota,"Shrinath Puram, Kota - RSPCB",26-11-2025 07:00:00,25.14389,75.821256,SO2,8,28,12
India,TamilNadu,Coimbatore,"SIDCO Kurichi, Coimbatore - TNPCB",26-11-2025 07:00:00,10.942451,76.978996,CO,16,50,43
India,TamilNadu,Cuddalore,"Kudikadu, Cuddalore - TNPCB",26-11-2025 07:00:00,11.6829898,79.7532099,NH3,5,5,5
India,TamilNadu,Cuddalore,"Kudikadu, Cuddalore - TNPCB",26-11-2025 07:00:00,11.6829898,79.7532099,OZONE,13,15,14
India,TamilNadu,Cuddalore,"Semmandalam, Cuddalore - TNPCB",26-11-2025 07:00:00,11.7637683,79.7499835,PM10,NA,NA,NA
India,TamilNadu,Cuddalore,"Semmandalam, Cuddalore - TNPCB",26-11-2025 07:00:00,11.7637683,79.7499835,NH3,2,3,2
India,TamilNadu,Dindigul,"Mendonsa Colony, Dindigul - TNPCB",26-11-2025 07:00:00,10.358535,77.984321,PM10,27,54,42
India,TamilNadu,Dindigul,"Mendonsa Colony, Dindigul - TNPCB",26-11-2025 07:00:00,10.358535,77.984321,NO2,7,19,12
India,TamilNadu,Karur,"Kamadenu Nagar, Karur - TNPCB",26-11-2025 07:00:00,10.967820,78.080882,NO2,5,6,6
India,TamilNadu,Thanjavur,"Parisutham Nagar, Thanjavur - TNPCB",26-11-2025 07:00:00,10.7654824,79.1389968,PM2.5,36,60,46
India,TamilNadu,Thanjavur,"Parisutham Nagar, Thanjavur - TNPCB",26-11-2025 07:00:00,10.7654824,79.1389968,NH3,1,1,1
India,TamilNadu,Thanjavur,"Parisutham Nagar, Thanjavur - TNPCB",26-11-2025 07:00:00,10.7654824,79.1389968,SO2,16,18,17
India,TamilNadu,Thoothukudi,"Meelavittan, Thoothukudi - TNPCB",26-11-2025 07:00:00,8.816428 ,78.099039,PM10,45,107,58
India,TamilNadu,Tiruchirappalli,"St Joseph College, Tiruchirappalli - TNPCB",26-11-2025 07:00:00,10.830158,78.691849,NO2,NA,NA,NA
India,TamilNadu,Tiruchirappalli,"St Joseph College, Tiruchirappalli - TNPCB",26-11-2025 07:00:00,10.830158,78.691849,NH3,NA,NA,NA
India,TamilNadu,Tirunelveli,"Municipal Corporation Office, Tirunelveli - TNPCB",26-11-2025 07:00:00,8.728442,77.6962,PM10,NA,NA,NA
India,TamilNadu,Tirunelveli,"Municipal Corporation Office, Tirunelveli - TNPCB",26-11-2025 07:00:00,8.728442,77.6962,CO,20,42,42
India,TamilNadu,Madurai,"Uchapatti, Madurai - TNPCB",26-11-2025 07:00:00,9.865935,78.022669,CO,14,19,16
India,TamilNadu,Nagapattinam,"Velippalayam, Nagapattinam - TNPCB",26-11-2025 07:00:00,10.798548,79.838212,NH3,2,2,2
India,TamilNadu,Nagapattinam,"Velippalayam, Nagapattinam - TNPCB",26-11-2025 07:00:00,10.798548,79.838212,CO,22,28,25
India,TamilNadu,Nagapattinam,"Velippalayam, Nagapattinam - TNPCB",26-11-2025 07:00:00,10.798548,79.838212,OZONE,NA,NA,NA
India,TamilNadu,Ooty,"Bombay Castel, Ooty - TNPCB",26-11-2025 07:00:00,11.4068288,76.7138973,PM2.5,13,301,58
India,TamilNadu,Ooty,"Bombay Castel, Ooty - TNPCB",26-11-2025 07:00:00,11.4068288,76.7138973,OZONE,5,6,6
India,TamilNadu,Palkalaiperur,"Bharathidasan University, Palkalaiperur - TNPCB",26-11-2025 07:00:00,10.681158,78.741746,SO2,4,11,9
India,Telangana,Hyderabad,"Kompally Municipal Office, Hyderabad - TSPCB",26-11-2025 07:00:00,17.544899,78.486949,SO2,8,11,9
India,Telangana,Hyderabad,"Nacharam_TSIIC IALA, Hyderabad - TSPCB",26-11-2025 07:00:00,17.429398,78.569354,PM10,74,94,90
India,Telangana,Hyderabad,"New Malakpet, Hyderabad - TSPCB",26-11-2025 07:00:00,17.37206,78.50864,NH3,2,2,2
India,Telangana,Hyderabad,"New Malakpet, Hyderabad - TSPCB",26-11-2025 07:00:00,17.37206,78.50864,SO2,13,14,13
India,Telangana,Hyderabad,"New Malakpet, Hyderabad - TSPCB",26-11-2025 07:00:00,17.37206,78.50864,OZONE,10,31,10
India,Telangana,Hyderabad,"Ramachandrapuram, Hyderabad - TSPCB",26-11-2025 07:00:00,17.528544,78.286195,PM10,57,70,64
India,Telangana,Hyderabad,"Ramachandrapuram, Hyderabad - TSPCB",26-11-2025 07:00:00,17.528544,78.286195,CO,38,74,63
India,TamilNadu,Perundurai,"SIPCOT Industrial Park, Perundurai - TNPCB",26-11-2025 07:00:00,11.258242,77.552761,PM2.5,42,87,63
India,TamilNadu,Perundurai,"SIPCOT Industrial Park, Perundurai - TNPCB",26-11-2025 07:00:00,11.258242,77.552761,CO,18,24,24
India,TamilNadu,Perundurai,"SIPCOT Industrial Park, Perundurai - TNPCB",26-11-2025 07:00:00,11.258242,77.552761,OZONE,2,14,13
India,TamilNadu,Pudukottai,"SIPCOT Nathampannai, Pudukottai - TNPCB",26-11-2025 07:00:00,10.423417,78.784889,PM10,80,142,118
India,TamilNadu,Ramanathapuram,"Chalai Bazaar, Ramanathapuram - TNPCB",26-11-2025 07:00:00,9.36399,78.831977,CO,20,30,25
India,TamilNadu,Tirupur,"Kumaran College, Tirupur - TNPCB",26-11-2025 07:00:00,11.0973603,77.3228673,CO,20,52,40
India,Telangana,Hyderabad,"Central University, Hyderabad - TSPCB",26-11-2025 07:00:00,17.460103,78.334361,PM2.5,61,135,90
India,Telangana,Hyderabad,"Central University, Hyderabad - TSPCB",26-11-2025 07:00:00,17.460103,78.334361,NH3,2,4,3
India,TamilNadu,Chennai,"Perungudi, Chennai - TNPCB",26-11-2025 07:00:00,12.9533,80.2357,PM2.5,45,127,86
India,TamilNadu,Chennai,"Perungudi, Chennai - TNPCB",26-11-2025 07:00:00,12.9533,80.2357,SO2,1,10,5
India,TamilNadu,Chennai,"Velachery Res. Area, Chennai - CPCB",26-11-2025 07:00:00,13.0052189,80.2398125,NH3,3,3,3
India,Telangana,Hyderabad,"Somajiguda, Hyderabad - TSPCB",26-11-2025 07:00:00,17.417094,78.457437,PM2.5,62,253,122
India,Tripura,Agartala,"Bardowali, Agartala - Tripura SPCB",26-11-2025 07:00:00,23.8175497,91.2726974,PM2.5,14,64,36
India,Telangana,Hyderabad,"IITH Kandi, Hyderabad - TSPCB",26-11-2025 07:00:00,17.585705,78.126199,OZONE,19,25,25
India,Telangana,Hyderabad,"Kokapet, Hyderabad - TSPCB",26-11-2025 07:00:00,17.393559,78.339194,NO2,16,16,16
India,Telangana,Hyderabad,"Kokapet, Hyderabad - TSPCB",26-11-2025 07:00:00,17.393559,78.339194,NH3,2,3,3
India,Uttar_Pradesh,Agra,"Manoharpur, Agra - UPPCB",26-11-2025 07:00:00,27.23711,78.01936,PM2.5,59,215,130
India,Uttar_Pradesh,Agra,"Manoharpur, Agra - UPPCB",26-11-2025 07:00:00,27.23711,78.01936,SO2,46,65,51
India,Uttar_Pradesh,Agra,"Rohta, Agra - UPPCB",26-11-2025 07:00:00,27.106972,78.000111,NH3,6,7,6
India,Uttar_Pradesh,Agra,"Rohta, Agra - UPPCB",26-11-2025 07:00:00,27.106972,78.000111,CO,33,66,52
India,Uttar_Pradesh,Agra,"Sanjay Palace, Agra - UPPCB",26-11-2025 07:00:00,27.19865833,78.00598056,NO2,5,28,15
India,Uttar_Pradesh,Agra,"Sanjay Palace, Agra - UPPCB",26-11-2025 07:00:00,27.19865833,78.00598056,SO2,15,17,16
India,Uttar_Pradesh,Agra,"Sanjay Palace, Agra - UPPCB",26-11-2025 07:00:00,27.19865833,78.00598056,CO,30,79,42
India,Uttar_Pradesh,Greater Noida,"Knowledge Park - III, Greater Noida - UPPCB",26-11-2025 07:00:00,28.47272,77.482000,PM10,168,440,288
India,Uttar_Pradesh,Greater Noida,"Knowledge Park - III, Greater Noida - UPPCB",26-11-2025 07:00:00,28.47272,77.482000,NH3,9,18,12
India,Uttar_Pradesh,Greater Noida,"Knowledge Park - III, Greater Noida - UPPCB",26-11-2025 07:00:00,28.47272,77.482000,CO,34,123,95
India,Uttar_Pradesh,Greater Noida,"Knowledge Park - V, Greater Noida - UPPCB",26-11-2025 07:00:00,28.557054,77.453663,NO2,NA,NA,NA
India,Uttar_Pradesh,Hapur,"Anand Vihar, Hapur - UPPCB",26-11-2025 07:00:00,28.725645,77.749675,PM2.5,202,448,368
India,Uttar_Pradesh,Kanpur,"Nehru Nagar, Kanpur - UPPCB",26-11-2025 07:00:00,26.4703136,80.3229863,SO2,4,27,12
India,Uttar_Pradesh,Kanpur,"Nehru Nagar, Kanpur - UPPCB",26-11-2025 07:00:00,26.4703136,80.3229863,CO,32,61,57
India,Uttar_Pradesh,Khurja,"Kalindi Kunj, Khurja - UPPCB",26-11-2025 07:00:00,28.2348927,77.8683002,NO2,6,7,7
India,Uttar_Pradesh,Lucknow,"B R Ambedkar University, Lucknow - UPPCB",26-11-2025 07:00:00,26.766433,80.927299,CO,57,62,59
India,Uttar_Pradesh,Lucknow,"B R Ambedkar University, Lucknow - UPPCB",26-11-2025 07:00:00,26.766433,80.927299,OZONE,27,28,27
India,Uttar_Pradesh,Bareilly,"Rajendra Nagar, Bareilly - UPPCB",26-11-2025 07:00:00,28.38910936,79.42963708,SO2,33,39,36
India,Uttar_Pradesh,Bulandshahr,"Yamunapuram, Bulandshahr - UPPCB",26-11-2025 07:00:00,28.406963,77.849831,PM2.5,103,379,274
India,Uttar_Pradesh,Bulandshahr,"Yamunapuram, Bulandshahr - UPPCB",26-11-2025 07:00:00,28.406963,77.849831,SO2,7,86,28
India,Uttar_Pradesh,Firozabad,"Vibhab Nagar, Firozabad - UPPCB",26-11-2025 07:00:00,27.1594,78.3953,OZONE,1,1,1
India,Uttar_Pradesh,Ghaziabad,"Indirapuram, Ghaziabad - UPPCB",26-11-2025 07:00:00,28.646233,77.358075,PM10,172,436,315
India,Uttar_Pradesh,Ghaziabad,"Sanjay Nagar, Ghaziabad - UPPCB",26-11-2025 07:00:00,28.685382,77.453839,SO2,9,27,16
India,Uttar_Pradesh,Ghaziabad,"Vasundhara, Ghaziabad - UPPCB",26-11-2025 07:00:00,28.6603346,77.3572563,NO2,46,198,130
India,Uttar_Pradesh,Agra,"Sector-3B Avas Vikas Colony, Agra - UPPCB",26-11-2025 07:00:00,27.19412,77.96237,NO2,28,28,28
India,Uttar_Pradesh,Agra,"Shastripuram, Agra - UPPCB",26-11-2025 07:00:00,27.19862,77.92066,PM10,105,251,155
India,Uttar_Pradesh,Kanpur,"FTI Kidwai Nagar, Kanpur - UPPCB",26-11-2025 07:00:00,26.428282,80.327067,OZONE,12,14,14
India,Uttar_Pradesh,Kanpur,"NSI Kalyanpur, Kanpur - UPPCB",26-11-2025 07:00:00,26.509954,80.249612,NH3,3,3,3
India,Uttar_Pradesh,Baghpat,"Sardar Patel Inter College, Baghpat - UPPCB",26-11-2025 07:00:00,28.964949,77.278761,PM10,171,386,227
India,Uttar_Pradesh,Lucknow,"Kendriya Vidyalaya, Lucknow - CPCB",26-11-2025 07:00:00,26.906111,80.948222,NO2,31,44,38
India,Uttar_Pradesh,Lucknow,"Kendriya Vidyalaya, Lucknow - CPCB",26-11-2025 07:00:00,26.906111,80.948222,CO,30,86,53
India,Uttar_Pradesh,Lucknow,"Kukrail Picnic Spot-1, Lucknow - UPPCB",26-11-2025 07:00:00,26.90723,80.98579,PM2.5,44,162,96
India,Uttar_Pradesh,Lucknow,"Lalbagh, Lucknow - CPCB",26-11-2025 07:00:00,26.8458805,80.9365541,NO2,43,46,44
India,Uttar_Pradesh,Lucknow,"Lalbagh, Lucknow - CPCB",26-11-2025 07:00:00,26.8458805,80.9365541,NH3,13,21,17
India,Uttar_Pradesh,Lucknow,"Lalbagh, Lucknow - CPCB",26-11-2025 07:00:00,26.8458805,80.9365541,SO2,3,20,10
India,Uttar_Pradesh,Lucknow,"Talkatora District Industries Center, Lucknow - CPCB",26-11-2025 07:00:00,26.83399722,80.8917361,SO2,2,17,7
India,Uttarakhand,Dehradun,"Doon University, Dehradun - UKPCB",26-11-2025 07:00:00,30.269444,78.044167,SO2,2,2,2
India,Uttarakhand,Kashipur,"Govt. Girls Inter College, Kashipur - UKPCB",26-11-2025 07:00:00,29.2124114,78.9611753,NH3,2,14,5
India,Uttarakhand,Kashipur,"Govt. Girls Inter College, Kashipur - UKPCB",26-11-2025 07:00:00,29.2124114,78.9611753,SO2,4,10,8
India,Uttarakhand,Rishikesh,"Shivaji Nagar, Rishikesh - UKPCB",26-11-2025 07:00:00,30.075911,78.2859547,PM2.5,43,81,63
India,Uttarakhand,Rishikesh,"Shivaji Nagar, Rishikesh - UKPCB",26-11-2025 07:00:00,30.075911,78.2859547,OZONE,11,11,11
India,West_Bengal,Asansol,"Asansol Court Area, Asansol - WBPCB",26-11-2025 07:00:00,23.685297,86.945968,NH3,3,7,5
India,Uttar_Pradesh,Meerut,"Ganga Nagar, Meerut - UPPCB",26-11-2025 07:00:00,28.999264,77.7590354,NO2,35,112,72
India,Uttar_Pradesh,Meerut,"Ganga Nagar, Meerut - UPPCB",26-11-2025 07:00:00,28.999264,77.7590354,SO2,17,43,27
India,Uttar_Pradesh,Meerut,"Jai Bhim Nagar, Meerut - UPPCB",26-11-2025 07:00:00,28.9535882,77.7622941,NH3,27,45,34
India,Uttar_Pradesh,Meerut,"Jai Bhim Nagar, Meerut - UPPCB",26-11-2025 07:00:00,28.9535882,77.7622941,OZONE,2,162,9
India,Uttar_Pradesh,Meerut,"Pallavpuram Phase 2, Meerut - UPPCB",26-11-2025 07:00:00,29.063510,77.709723,PM2.5,148,449,330
India,Uttar_Pradesh,Moradabad,"Buddhi Vihar, Moradabad - UPPCB",26-11-2025 07:00:00,28.83526,78.74460,PM10,69,164,115
India,Uttar_Pradesh,Moradabad,"Buddhi Vihar, Moradabad - UPPCB",26-11-2025 07:00:00,28.83526,78.74460,NH3,5,5,5
India,Uttar_Pradesh,Moradabad,"Eco Herbal Park, Moradabad - UPPCB",26-11-2025 07:00:00,28.840739,78.697531,NO2,6,10,9
India,Uttar_Pradesh,Moradabad,"Eco Herbal Park, Moradabad - UPPCB",26-11-2025 07:00:00,28.840739,78.697531,CO,6,50,21
India,Uttar_Pradesh,Moradabad,"Employment Office, Moradabad - UPPCB",26-11-2025 07:00:00,28.88528,78.73880,PM2.5,54,191,113
India,Uttar_Pradesh,Moradabad,"Employment Office, Moradabad - UPPCB",26-11-2025 07:00:00,28.88528,78.73880,NH3,4,4,4
India,Uttar_Pradesh,Moradabad,"Jigar Colony, Moradabad - UPPCB",26-11-2025 07:00:00,28.856664,78.772638,PM10,63,156,111
India,Uttar_Pradesh,Varanasi,"IESD Banaras Hindu University, Varanasi - UPPCB",26-11-2025 07:00:00,25.262326,82.995408,CO,10,34,22
India,Uttar_Pradesh,Varanasi,"Maldahiya, Varanasi - UPPCB",26-11-2025 07:00:00,25.32393,82.99687,PM10,42,112,79
India,Uttar_Pradesh,Varanasi,"Maldahiya, Varanasi - UPPCB",26-11-2025 07:00:00,25.32393,82.99687,NO2,2,2,2
India,Uttar_Pradesh,Vrindavan,"Omex Eternity, Vrindavan - UPPCB",26-11-2025 07:00:00,27.5714090,77.6557570,NH3,1,3,2
India,Uttar_Pradesh,Vrindavan,"Omex Eternity, Vrindavan - UPPCB",26-11-2025 07:00:00,27.5714090,77.6557570,SO2,9,23,13
India,Uttar_Pradesh,Noida,"Sector-116, Noida - UPPCB",26-11-2025 07:00:00,28.569230,77.393848,SO2,6,33,16
India,Uttar_Pradesh,Prayagraj,"Jhunsi, Prayagraj - UPPCB",26-11-2025 07:00:00,25.425602,81.917152,PM10,68,210,154
India,Uttar_Pradesh,Prayagraj,"Jhunsi, Prayagraj - UPPCB",26-11-2025 07:00:00,25.425602,81.917152,OZONE,15,127,15
India,Uttar_Pradesh,Prayagraj,"Motilal Nehru NIT, Prayagraj - UPPCB",26-11-2025 07:00:00,25.494,81.863,PM10,74,240,150
India,Uttar_Pradesh,Prayagraj,"Motilal Nehru NIT, Prayagraj - UPPCB",26-11-2025 07:00:00,25.494,81.863,NO2,12,12,12
India,Uttar_Pradesh,Noida,"Sector - 125, Noida - UPPCB",26-11-2025 07:00:00,28.5447608,77.3231257,PM2.5,271,500,398
India,Uttar_Pradesh,Noida,"Sector - 125, Noida - UPPCB",26-11-2025 07:00:00,28.5447608,77.3231257,SO2,10,23,16
India,Uttar_Pradesh,Noida,"Sector - 62, Noida - IMD",26-11-2025 07:00:00,28.6245479,77.3577104,PM10,136,366,249
India,Uttar_Pradesh,Noida,"Sector-1, Noida - UPPCB",26-11-2025 07:00:00,28.5898,77.3101,NH3,16,24,20
India,Uttar_Pradesh,Varanasi,"Ardhali Bazar, Varanasi - UPPCB",26-11-2025 07:00:00,25.3505986,82.9083074,PM2.5,32,257,79
India,Uttar_Pradesh,Varanasi,"Bhelupur, Varanasi - UPPCB",26-11-2025 07:00:00,25.301778,82.996789,PM10,50,156,88
India,Uttar_Pradesh,Varanasi,"IESD Banaras Hindu University, Varanasi - UPPCB",26-11-2025 07:00:00,25.262326,82.995408,NH3,1,4,2
India,Uttar_Pradesh,Moradabad,"Transport Nagar, Moradabad - UPPCB",26-11-2025 07:00:00,28.802625,78.753728,NO2,29,30,29
India,Uttar_Pradesh,Moradabad,"Transport Nagar, Moradabad - UPPCB",26-11-2025 07:00:00,28.802625,78.753728,NH3,5,6,6
India,Uttar_Pradesh,Muzaffarnagar,"New Mandi, Muzaffarnagar - UPPCB",26-11-2025 07:00:00,29.4723508,77.7194031,SO2,7,34,17
India,West_Bengal,Asansol,"Evelyn Lodge, Asansol - WBPCB",26-11-2025 07:00:00,23.6979360,86.9443950,PM10,92,158,132
India,West_Bengal,Asansol,"Evelyn Lodge, Asansol - WBPCB",26-11-2025 07:00:00,23.6979360,86.9443950,NH3,3,4,3
India,West_Bengal,Asansol,"Evelyn Lodge, Asansol - WBPCB",26-11-2025 07:00:00,23.6979360,86.9443950,CO,14,78,47
India,West_Bengal,Asansol,"Mahabir Colliery, Asansol - WBPCB",26-11-2025 07:00:00,23.6181830,87.1057180,PM10,80,159,122
India,West_Bengal,Asansol,"Mahabir Colliery, Asansol - WBPCB",26-11-2025 07:00:00,23.6181830,87.1057180,SO2,7,9,8
India,West_Bengal,Asansol,"Mahabir Colliery, Asansol - WBPCB",26-11-2025 07:00:00,23.6181830,87.1057180,CO,26,103,68
India,West_Bengal,Asansol,"Trivenidevi Bhalotia College, Asansol - WBPCB",26-11-2025 07:00:00,23.616515,87.119133,NH3,5,6,6
India,West_Bengal,Asansol,"Trivenidevi Bhalotia College, Asansol - WBPCB",26-11-2025 07:00:00,23.616515,87.119133,OZONE,10,80,25
India,West_Bengal,Barrackpore,"SVSPA Campus, Barrackpore - WBPCB",26-11-2025 07:00:00,22.7605581,88.3617589,SO2,9,11,10
India,West_Bengal,Barrackpore,"SVSPA Campus, Barrackpore - WBPCB",26-11-2025 07:00:00,22.7605581,88.3617589,OZONE,4,56,15
India,West_Bengal,Durgapur,"Mahishkapur Road_B-Zone, Durgapur - WBPCB",26-11-2025 07:00:00,23.567923,87.306843,NH3,1,2,2
India,West_Bengal,Durgapur,"Mahishkapur Road_B-Zone, Durgapur - WBPCB",26-11-2025 07:00:00,23.567923,87.306843,SO2,20,29,23
India,West_Bengal,Durgapur,"Mahishkapur Road_B-Zone, Durgapur - WBPCB",26-11-2025 07:00:00,23.567923,87.306843,CO,46,82,55
India,West_Bengal,Durgapur,"PCBL Residential Complex, Durgapur - WBPCB",26-11-2025 07:00:00,23.5087640,87.3544400,PM10,88,155,117
India,West_Bengal,Durgapur,"Womens College_City Center, Durgapur - WBPCB (Formerly known as Sidhu Kanhu Indoor Stadium)",26-11-2025 07:00:00,23.549395,87.300496,PM10,111,180,136
India,West_Bengal,Haldia,"Priyambada Housing Estate, Haldia - WBPCB",26-11-2025 07:00:00,22.06047,88.109737,OZONE,21,34,23
India,West_Bengal,Howrah,"Belur Math, Howrah - WBPCB",26-11-2025 07:00:00,22.629801,88.352017,SO2,4,30,15
India,West_Bengal,Howrah,"Botanical Garden, Howrah - WBPCB",26-11-2025 07:00:00,22.554954,88.292568,PM10,83,179,123
India,West_Bengal,Howrah,"Botanical Garden, Howrah - WBPCB",26-11-2025 07:00:00,22.554954,88.292568,NH3,1,3,2
India,West_Bengal,Howrah,"Dasnagar, Howrah - WBPCB",26-11-2025 07:00:00,22.6025571,88.3105664,NO2,17,91,61
India,West_Bengal,Howrah,"Dasnagar, Howrah - WBPCB",26-11-2025 07:00:00,22.6025571,88.3105664,SO2,11,106,30
India,West_Bengal,Howrah,"Dasnagar, Howrah - WBPCB",26-11-2025 07:00:00,22.6025571,88.3105664,OZONE,13,158,21
India,West_Bengal,Howrah,"Ghusuri, Howrah - WBPCB",26-11-2025 07:00:00,22.611968,88.347422,PM2.5,113,376,220
India,West_Bengal,Howrah,"Ghusuri, Howrah - WBPCB",26-11-2025 07:00:00,22.611968,88.347422,NO2,21,37,27
India,West_Bengal,Howrah,"Padmapukur, Howrah - WBPCB",26-11-2025 07:00:00,22.5687319,88.2797276,NH3,2,2,2
India,West_Bengal,Howrah,"Padmapukur, Howrah - WBPCB",26-11-2025 07:00:00,22.5687319,88.2797276,OZONE,4,125,14
India,West_Bengal,Kolkata,"Ballygunge, Kolkata - WBPCB",26-11-2025 07:00:00,22.5367507,88.3638022,NO2,27,67,48
India,West_Bengal,Kolkata,"Bidhannagar, Kolkata - WBPCB",26-11-2025 07:00:00,22.58157048,88.41002457,NH3,5,21,11
India,West_Bengal,Kolkata,"Bidhannagar, Kolkata - WBPCB",26-11-2025 07:00:00,22.58157048,88.41002457,SO2,NA,NA,NA
India,West_Bengal,Kolkata,"Bidhannagar, Kolkata - WBPCB",26-11-2025 07:00:00,22.58157048,88.41002457,CO,62,108,98
India,West_Bengal,Kolkata,"Jadavpur, Kolkata - WBPCB",26-11-2025 07:00:00,22.49929,88.36917,NO2,42,193,72
India,West_Bengal,Kolkata,"Jadavpur, Kolkata - WBPCB",26-11-2025 07:00:00,22.49929,88.36917,SO2,3,6,4
India,West_Bengal,Kolkata,"Victoria, Kolkata - WBPCB",26-11-2025 07:00:00,22.5448082,88.3403691,NO2,12,25,18
India,West_Bengal,Kolkata,"Victoria, Kolkata - WBPCB",26-11-2025 07:00:00,22.5448082,88.3403691,CO,16,105,53
India,West_Bengal,Siliguri,"Ward-32 Bapupara, Siliguri - WBPCB",26-11-2025 07:00:00,26.6879226,88.4152495,NO2,16,38,26
India,West_Bengal,Siliguri,"Ward-32 Bapupara, Siliguri - WBPCB",26-11-2025 07:00:00,26.6879226,88.4152495,NH3,11,11,11
India,Andhra_Pradesh,Vijayawada,"Rajiv Gandhi Park, Vijayawada - APPCB",26-11-2025 07:00:00,16.509717,80.612222,OZONE,NA,NA,NA
India,Andhra_Pradesh,Vijayawada,"Rajiv Nagar, Vijayawada - APPCB",26-11-2025 07:00:00,16.554731,80.649110,NO2,9,9,9
India,Andhra_Pradesh,Vijayawada,"Rajiv Nagar, Vijayawada - APPCB",26-11-2025 07:00:00,16.554731,80.649110,SO2,14,21,18
India,Andhra_Pradesh,Vijayawada,"Rajiv Nagar, Vijayawada - APPCB",26-11-2025 07:00:00,16.554731,80.649110,OZONE,71,339,90
India,Andhra_Pradesh,Visakhapatnam,"GVM Corporation, Visakhapatnam - APPCB",26-11-2025 07:00:00,17.72,83.3,OZONE,2,127,86
India,Arunachal_Pradesh,Naharlagun,"Naharlagun, Naharlagun - APSPCB",26-11-2025 07:00:00,27.103358,93.679645,CO,8,57,32
India,Assam,Guwahati,"IITG, Guwahati - PCBA",26-11-2025 07:00:00,26.2028636,91.70046436,SO2,21,25,24
India,Assam,Guwahati,"LGBI Airport, Guwahati - PCBA",26-11-2025 07:00:00,26.10887,91.589544,PM10,40,82,67
India,Assam,Guwahati,"LGBI Airport, Guwahati - PCBA",26-11-2025 07:00:00,26.10887,91.589544,NH3,6,6,6
India,Assam,Guwahati,"LGBI Airport, Guwahati - PCBA",26-11-2025 07:00:00,26.10887,91.589544,CO,16,44,32
India,Assam,Guwahati,"Railway Colony, Guwahati - PCBA",26-11-2025 07:00:00,26.181742,91.78063,PM2.5,28,326,136
India,Assam,Guwahati,"Railway Colony, Guwahati - PCBA",26-11-2025 07:00:00,26.181742,91.78063,SO2,31,34,33
India,Assam,Nagaon,"Christianpatty, Nagaon - PCBA",26-11-2025 07:00:00,26.349082,92.68449,NO2,1,1,1
India,Bihar,Bihar Sharif,"D M Colony, Bihar Sharif - BSPCB",26-11-2025 07:00:00,25.204762,85.514960,OZONE,1,26,4
India,Bihar,Buxar,"Charitra Van, Buxar - BSPCB",26-11-2025 07:00:00,25.567520,83.966379,PM2.5,63,130,100
India,Bihar,Chhapra,"Darshan Nagar, Chhapra - BSPCB",26-11-2025 07:00:00,25.7808257,84.7446768,PM2.5,28,90,54
India,Bihar,Chhapra,"Darshan Nagar, Chhapra - BSPCB",26-11-2025 07:00:00,25.7808257,84.7446768,NO2,2,3,2
India,Bihar,Chhapra,"Darshan Nagar, Chhapra - BSPCB",26-11-2025 07:00:00,25.7808257,84.7446768,CO,8,24,9
India,Bihar,Gaya,"Collectorate, Gaya - BSPCB",26-11-2025 07:00:00,24.7955,84.9994,SO2,4,22,13
India,Andhra_Pradesh,Anantapur,"Gulzarpet, Anantapur - APPCB",26-11-2025 07:00:00,14.675886,77.593027,CO,29,36,32
India,Andhra_Pradesh,Kadapa,"Yerramukkapalli, Kadapa - APPCB",26-11-2025 07:00:00,14.465052,78.824187,PM10,54,56,55
India,Andhra_Pradesh,Rajamahendravaram,"Anand Kala Kshetram, Rajamahendravaram - APPCB",26-11-2025 07:00:00,16.9872867,81.7363176,PM2.5,145,318,236
India,Andhra_Pradesh,Rajamahendravaram,"Anand Kala Kshetram, Rajamahendravaram - APPCB",26-11-2025 07:00:00,16.9872867,81.7363176,NH3,3,6,4
India,Andhra_Pradesh,Rajamahendravaram,"Anand Kala Kshetram, Rajamahendravaram - APPCB",26-11-2025 07:00:00,16.9872867,81.7363176,SO2,9,42,23
India,Bihar,Araria,"Kharahiya Basti, Araria - BSPCB",26-11-2025 07:00:00,26.146529,87.454184,SO2,15,87,32
India,Bihar,Araria,"Kharahiya Basti, Araria - BSPCB",26-11-2025 07:00:00,26.146529,87.454184,OZONE,10,11,10
India,Bihar,Arrah,"New DM Office, Arrah - BSPCB",26-11-2025 07:00:00,25.5626095,84.663264,SO2,10,10,10
India,Bihar,Aurangabad,"Gurdeo Nagar, Aurangabad - BSPCB",26-11-2025 07:00:00,24.75746,84.366208,PM10,58,113,84
India,Bihar,Begusarai,"Lohiyanagar, Begusarai - BSPCB",26-11-2025 07:00:00,25.42742023,86.13886079,SO2,4,21,11
India,Assam,Nalbari,"Bata Chowk, Nalbari - PCBA",26-11-2025 07:00:00,26.446912,91.439057,SO2,5,10,7
India,Assam,Silchar,"Tarapur, Silchar - PCBA",26-11-2025 07:00:00,24.82827,92.79525,PM2.5,33,73,49
India,Assam,Silchar,"Tarapur, Silchar - PCBA",26-11-2025 07:00:00,24.82827,92.79525,NH3,1,1,1
India,Assam,Silchar,"Tarapur, Silchar - PCBA",26-11-2025 07:00:00,24.82827,92.79525,SO2,4,7,5
India,Assam,Sivasagar,"Girls College, Sivasagar - PCBA",26-11-2025 07:00:00,26.987634,94.636574,OZONE,4,70,5
India,Bihar,Bettiah,"Kamalnath Nagar, Bettiah - BSPCB",26-11-2025 07:00:00,26.80365,84.51954,NH3,1,1,1
India,Bihar,Bettiah,"Kamalnath Nagar, Bettiah - BSPCB",26-11-2025 07:00:00,26.80365,84.51954,SO2,1,20,10
India,Bihar,Bhagalpur,"DM Office_Kachari Chowk, Bhagalpur - BSPCB",26-11-2025 07:00:00,25.251013,86.989001,PM2.5,47,65,55
India,Bihar,Bhagalpur,"DM Office_Kachari Chowk, Bhagalpur - BSPCB",26-11-2025 07:00:00,25.251013,86.989001,NO2,7,11,9
India,Bihar,Bhagalpur,"DM Office_Kachari Chowk, Bhagalpur - BSPCB",26-11-2025 07:00:00,25.251013,86.989001,NH3,1,1,1
India,Bihar,Gaya,"SFTI Kusdihra, Gaya - BSPCB",26-11-2025 07:00:00,24.762518,84.982348,NH3,3,3,3
India,Bihar,Gaya,"SFTI Kusdihra, Gaya - BSPCB",26-11-2025 07:00:00,24.762518,84.982348,OZONE,10,54,13
India,Bihar,Hajipur,"Industrial Area, Hajipur - BSPCB",26-11-2025 07:00:00,25.697189,85.245900,SO2,3,5,4
India,Bihar,Katihar,"Mirchaibari, Katihar - BSPCB",26-11-2025 07:00:00,25.560083,87.553265,CO,NA,NA,NA
India,Bihar,Manguraha,"Forest Rest House, Manguraha - BSPCB",26-11-2025 07:00:00,27.308328,84.531742,NO2,4,11,6
India,Andhra_Pradesh,Tirupati,"Vaikuntapuram, Tirupati - APPCB",26-11-2025 07:00:00,13.615387,79.409230,PM2.5,NA,NA,NA
India,Bihar,Purnia,"Mariam Nagar, Purnia - BSPCB",26-11-2025 07:00:00,25.366336,87.117468,OZONE,22,48,24
India,Bihar,Rajgir,"Dangi Tola, Rajgir - BSPCB",26-11-2025 07:00:00,25.03280,85.41948,NO2,8,10,9
India,Bihar,Rajgir,"Dangi Tola, Rajgir - BSPCB",26-11-2025 07:00:00,25.03280,85.41948,CO,80,101,90
India,Bihar,Saharsa,"Police Line, Saharsa - BSPCB",26-11-2025 07:00:00,25.892357,86.590325,CO,38,40,39
India,Bihar,Samastipur,"DM Office_Kasipur, Samastipur - BSPCB",26-11-2025 07:00:00,25.859655,85.77944,OZONE,8,9,8
India,Bihar,Sasaram,"Dada Peer, Sasaram - BSPCB",26-11-2025 07:00:00,24.952822,84.002396,NO2,2,3,2
India,Bihar,Munger,"Town Hall, Munger - BSPCB",26-11-2025 07:00:00,25.376776,86.471523,SO2,12,18,15
India,Bihar,Munger,"Town Hall, Munger - BSPCB",26-11-2025 07:00:00,25.376776,86.471523,CO,17,100,39
India,Bihar,Muzaffarpur,"Buddha Colony, Muzaffarpur - BSPCB",26-11-2025 07:00:00,26.11442,85.39813,PM10,53,116,92
India,Bihar,Muzaffarpur,"Buddha Colony, Muzaffarpur - BSPCB",26-11-2025 07:00:00,26.11442,85.39813,NH3,6,11,9
India,Bihar,Muzaffarpur,"Buddha Colony, Muzaffarpur - BSPCB",26-11-2025 07:00:00,26.11442,85.39813,SO2,3,6,5
India,Bihar,Muzaffarpur,"Buddha Colony, Muzaffarpur - BSPCB",26-11-2025 07:00:00,26.11442,85.39813,CO,16,104,62
India,Bihar,Muzaffarpur,"Buddha Colony, Muzaffarpur - BSPCB",26-11-2025 07:00:00,26.11442,85.39813,OZONE,18,182,43
India,Chandigarh,Chandigarh,"Sector-53, Chandigarh - CPCC",26-11-2025 07:00:00,30.719859,76.738637,SO2,7,12,10
India,Chhattisgarh,Bhilai,"32Bungalows, Bhilai - CECB",26-11-2025 07:00:00,21.194815,81.314770,PM10,51,122,84
India,Chhattisgarh,Bhilai,"32Bungalows, Bhilai - CECB",26-11-2025 07:00:00,21.194815,81.314770,NO2,23,84,47
India,Chhattisgarh,Bhilai,"32Bungalows, Bhilai - CECB",26-11-2025 07:00:00,21.194815,81.314770,OZONE,3,88,6
India,Chhattisgarh,Bhilai,"Civic Center, Bhilai - Bhilai Steel Plant",26-11-2025 07:00:00,21.185571,81.343175,NH3,3,4,4
India,Bihar,Siwan,"Chitragupta Nagar, Siwan - BSPCB",26-11-2025 07:00:00,26.2271665,84.3570427,NO2,1,3,1
India,Chandigarh,Chandigarh,"Sector 22, Chandigarh - CPCC",26-11-2025 07:00:00,30.735567,76.775714,CO,58,124,75
India,Chandigarh,Chandigarh,"Sector-25, Chandigarh - CPCC",26-11-2025 07:00:00,30.751462,76.762879,PM10,72,139,112
India,Bihar,Patna,"DRM Office Danapur, Patna - BSPCB",26-11-2025 07:00:00,25.586562,85.043586,PM10,76,232,134
India,Bihar,Patna,"Govt. High School Shikarpur, Patna - BSPCB",26-11-2025 07:00:00,25.592539,85.227158,PM10,72,99,83
India,Bihar,Patna,"Govt. High School Shikarpur, Patna - BSPCB",26-11-2025 07:00:00,25.592539,85.227158,NO2,10,47,28
India,Bihar,Patna,"Govt. High School Shikarpur, Patna - BSPCB",26-11-2025 07:00:00,25.592539,85.227158,SO2,7,12,10
India,Chhattisgarh,Korba,"Urja Nagar, Korba - CECB",26-11-2025 07:00:00,22.348441,82.549611,PM10,72,73,73
India,Chhattisgarh,Korba,"Urja Nagar, Korba - CECB",26-11-2025 07:00:00,22.348441,82.549611,NH3,1,2,2
India,Chhattisgarh,Korba,"Urja Nagar, Korba - CECB",26-11-2025 07:00:00,22.348441,82.549611,CO,24,71,40
India,Chhattisgarh,Kunjemura,"OP Jindal School, Kunjemura - CECB",26-11-2025 07:00:00,22.126650,83.483212,NH3,2,2,2
India,Chhattisgarh,Chhal,"Nawapara SECL Colony, Chhal - CECB",26-11-2025 07:00:00,22.118125,83.140608,NO2,7,16,9
India,Chhattisgarh,Chhal,"Nawapara SECL Colony, Chhal - CECB",26-11-2025 07:00:00,22.118125,83.140608,SO2,3,26,12
India,Chhattisgarh,Korba,"Rampur, Korba - CECB",26-11-2025 07:00:00,22.368195,82.746431,PM10,72,86,85
India,Chhattisgarh,Raipur,"Bhatagaon New ISBT, Raipur - CECB",26-11-2025 07:00:00,21.219665,81.630094,NH3,2,2,2
India,Chhattisgarh,Raipur,"Bhatagaon New ISBT, Raipur - CECB",26-11-2025 07:00:00,21.219665,81.630094,SO2,1,12,7
India,Bihar,Patna,"Rajbansi Nagar, Patna - BSPCB",26-11-2025 07:00:00,25.599486,85.113666,PM10,56,136,100
India,Delhi,Delhi,"Chandni Chowk, Delhi - IITM",26-11-2025 07:00:00,28.656756,77.227234,CO,106,137,109
India,Delhi,Delhi,"DTU, Delhi - CPCB",26-11-2025 07:00:00,28.7500499,77.1112615,NH3,10,15,11
India,Delhi,Delhi,"Dr. Karni Singh Shooting Range, Delhi - DPCC",26-11-2025 07:00:00,28.498571,77.264840,NH3,8,10,9
India,Delhi,Delhi,"Dr. Karni Singh Shooting Range, Delhi - DPCC",26-11-2025 07:00:00,28.498571,77.264840,OZONE,1,94,10
India,Delhi,Delhi,"Dwarka-Sector 8, Delhi - DPCC ",26-11-2025 07:00:00,28.5710274,77.0719006,PM2.5,260,429,359
India,Delhi,Delhi,"Dwarka-Sector 8, Delhi - DPCC ",26-11-2025 07:00:00,28.5710274,77.0719006,NO2,50,149,98
India,Delhi,Delhi,"Dwarka-Sector 8, Delhi - DPCC ",26-11-2025 07:00:00,28.5710274,77.0719006,CO,56,144,97
India,Delhi,Delhi,"IGI Airport (T3), Delhi - IMD",26-11-2025 07:00:00,28.5627763,77.1180053,OZONE,4,89,5
India,Delhi,Delhi,"IHBAS, Dilshad Garden, Delhi - CPCB",26-11-2025 07:00:00,28.6811736,77.3025234,PM2.5,131,315,249
India,Delhi,Delhi,"ITO, Delhi - CPCB",26-11-2025 07:00:00,28.628624,77.241060,NH3,3,6,4
India,Delhi,Delhi,"ITO, Delhi - CPCB",26-11-2025 07:00:00,28.628624,77.241060,OZONE,11,81,12
India,Delhi,Delhi,"Jahangirpuri, Delhi - DPCC",26-11-2025 07:00:00,28.732820,77.170633,NH3,9,11,10
India,Delhi,Delhi,"Jawaharlal Nehru Stadium, Delhi - DPCC",26-11-2025 07:00:00,28.580280,77.233829,PM10,187,468,318
India,Delhi,Delhi,"Jawaharlal Nehru Stadium, Delhi - DPCC",26-11-2025 07:00:00,28.580280,77.233829,NO2,43,155,105
India,Delhi,Delhi,"Jawaharlal Nehru Stadium, Delhi - DPCC",26-11-2025 07:00:00,28.580280,77.233829,OZONE,2,184,3
India,Delhi,Delhi,"Lodhi Road, Delhi - IITM",26-11-2025 07:00:00,28.588333,77.221667,NO2,13,164,68
India,Delhi,Delhi,"Lodhi Road, Delhi - IMD",26-11-2025 07:00:00,28.5918245,77.2273074,PM10,163,315,238
India,Delhi,Delhi,"Lodhi Road, Delhi - IMD",26-11-2025 07:00:00,28.5918245,77.2273074,NO2,19,57,33
India,Delhi,Delhi,"Major Dhyan Chand National Stadium, Delhi - DPCC",26-11-2025 07:00:00,28.611281,77.237738,NO2,42,151,102
India,Delhi,Delhi,"Punjabi Bagh, Delhi - DPCC",26-11-2025 07:00:00,28.674045,77.131023,CO,16,109,56
India,Delhi,Delhi,"Punjabi Bagh, Delhi - DPCC",26-11-2025 07:00:00,28.674045,77.131023,OZONE,1,97,2
India,Delhi,Delhi,"Pusa, Delhi - DPCC",26-11-2025 07:00:00,28.639652,77.146275,PM10,192,436,268
India,Delhi,Delhi,"Pusa, Delhi - DPCC",26-11-2025 07:00:00,28.639652,77.146275,NO2,52,176,107
India,Delhi,Delhi,"Pusa, Delhi - IMD",26-11-2025 07:00:00,28.636110,77.173332,PM2.5,251,410,345
India,Delhi,Delhi,"Pusa, Delhi - IMD",26-11-2025 07:00:00,28.636110,77.173332,PM10,165,414,284
India,Delhi,Delhi,"Bawana, Delhi - DPCC",26-11-2025 07:00:00,28.776200,77.051074,PM10,162,429,304
India,Delhi,Delhi,"Burari Crossing, Delhi - IMD",26-11-2025 07:00:00,28.7256504,77.2011573,CO,1,106,73
India,Delhi,Delhi,"CRRI Mathura Road, Delhi - IMD",26-11-2025 07:00:00,28.5512005,77.2735737,NO2,6,61,38
India,Delhi,Delhi,"Chandni Chowk, Delhi - IITM",26-11-2025 07:00:00,28.656756,77.227234,NO2,30,72,51
India,Delhi,Delhi,"North Campus, DU, Delhi - IMD",26-11-2025 07:00:00,28.6573814,77.1585447,PM10,153,404,240
India,Delhi,Delhi,"North Campus, DU, Delhi - IMD",26-11-2025 07:00:00,28.6573814,77.1585447,NO2,44,193,113
India,Delhi,Delhi,"North Campus, DU, Delhi - IMD",26-11-2025 07:00:00,28.6573814,77.1585447,CO,8,144,100
India,Delhi,Delhi,"Okhla Phase-2, Delhi - DPCC",26-11-2025 07:00:00,28.530785,77.271255,PM10,165,394,272
India,Delhi,Delhi,"Okhla Phase-2, Delhi - DPCC",26-11-2025 07:00:00,28.530785,77.271255,CO,19,111,102
India,Delhi,Delhi,"Alipur, Delhi - DPCC",26-11-2025 07:00:00,28.815329,77.153010,PM10,148,448,343
India,Delhi,Delhi,"Alipur, Delhi - DPCC",26-11-2025 07:00:00,28.815329,77.153010,CO,12,127,99
India,Delhi,Delhi,"Anand Vihar, Delhi - DPCC",26-11-2025 07:00:00,28.647622,77.3158090,PM10,171,448,332
India,Delhi,Delhi,"Ashok Vihar, Delhi - DPCC",26-11-2025 07:00:00,28.695381,77.181665,NH3,1,6,3
India,Delhi,Delhi,"NSIT Dwarka, Delhi - CPCB",26-11-2025 07:00:00,28.60909,77.0325413,NH3,9,19,14
India,Delhi,Delhi,"NSIT Dwarka, Delhi - CPCB",26-11-2025 07:00:00,28.60909,77.0325413,CO,28,56,33
India,Delhi,Delhi,"NSIT Dwarka, Delhi - CPCB",26-11-2025 07:00:00,28.60909,77.0325413,OZONE,12,55,12
India,Delhi,Delhi,"Najafgarh, Delhi - DPCC",26-11-2025 07:00:00,28.570173,76.933762,CO,40,86,70
India,Delhi,Delhi,"NSIT Dwarka, Delhi - CPCB",26-11-2025 07:00:00,28.60909,77.0325413,PM2.5,238,330,297
India,Delhi,Delhi,"NSIT Dwarka, Delhi - CPCB",26-11-2025 07:00:00,28.60909,77.0325413,PM10,127,455,256
India,Gujarat,Ahmedabad,"SAC ISRO Satellite, Ahmedabad - IITM",26-11-2025 07:00:00,23.023389,72.515201,PM10,96,133,115
India,Gujarat,Ahmedabad,"SAC ISRO Satellite, Ahmedabad - IITM",26-11-2025 07:00:00,23.023389,72.515201,NH3,9,21,13
India,Gujarat,Ahmedabad,"SAC ISRO Satellite, Ahmedabad - IITM",26-11-2025 07:00:00,23.023389,72.515201,SO2,19,56,31
India,Gujarat,Ahmedabad,"SVPI Airport Hansol, Ahmedabad - IITM",26-11-2025 07:00:00,23.076793,72.627874,NH3,4,6,5
India,Gujarat,Ahmedabad,"SVPI Airport Hansol, Ahmedabad - IITM",26-11-2025 07:00:00,23.076793,72.627874,SO2,10,15,12
India,Gujarat,Ahmedabad,"SVPI Airport Hansol, Ahmedabad - IITM",26-11-2025 07:00:00,23.076793,72.627874,CO,8,66,13
India,Gujarat,Ankleshwar,"GIDC, Ankleshwar - GPCB",26-11-2025 07:00:00,21.613267,73.010555,SO2,26,37,34
India,Delhi,Delhi,"Sri Aurobindo Marg, Delhi - DPCC",26-11-2025 07:00:00,28.531346,77.190156,SO2,3,15,9
India,Delhi,Delhi,"Wazirpur, Delhi - DPCC",26-11-2025 07:00:00,28.699793,77.165453,NH3,10,15,12
India,Delhi,Delhi,"Wazirpur, Delhi - DPCC",26-11-2025 07:00:00,28.699793,77.165453,OZONE,6,105,8
India,Gujarat,Ahmedabad,"Chandkheda, Ahmedabad - IITM",26-11-2025 07:00:00,23.107969,72.574648,NO2,60,320,123
India,Gujarat,Ahmedabad,"Gyaspur, Ahmedabad - IITM",26-11-2025 07:00:00,22.977134,72.553024,PM2.5,70,206,116
India,Gujarat,Vatva,"Phase-4 GIDC, Vatva - GPCB",26-11-2025 07:00:00,22.969611,72.643500,NH3,4,7,6
India,Gujarat,Vatva,"Phase-4 GIDC, Vatva - GPCB",26-11-2025 07:00:00,22.969611,72.643500,SO2,30,38,33
India,Haryana,Ambala,"Patti Mehar, Ambala - HSPCB",26-11-2025 07:00:00,30.379589,76.778328,PM2.5,109,267,202
India,Haryana,Bahadurgarh,"Arya Nagar, Bahadurgarh - HSPCB",26-11-2025 07:00:00,28.6701,76.9254,NO2,12,14,13
India,Gujarat,Ahmedabad,"Raikhad, Ahmedabad - IITM",26-11-2025 07:00:00,23.020509,72.579261,PM10,137,231,171
India,Gujarat,Ahmedabad,"Rakhial, Ahmedabad - IITM",26-11-2025 07:00:00,23.016834,72.625775,NO2,9,46,20
India,Gujarat,Ahmedabad,"Rakhial, Ahmedabad - IITM",26-11-2025 07:00:00,23.016834,72.625775,NH3,2,6,4
India,Gujarat,Ahmedabad,"SAC ISRO Bopal, Ahmedabad - IITM",26-11-2025 07:00:00,23.041137,72.456691,PM10,4,500,149
India,Gujarat,Gandhinagar,"Sector-10, Gandhinagar - GPCB",26-11-2025 07:00:00,23.221714,72.654328,SO2,5,14,11
India,Gujarat,Surat,"Science Center, Surat - SMC",26-11-2025 07:00:00,21.170046,72.795405,SO2,32,40,35
India,Gujarat,Vapi,"Phase-1 GIDC, Vapi - GPCB",26-11-2025 07:00:00,20.362421,72.918013,NO2,8,118,32
India,Delhi,Delhi,"Shadipur, Delhi - CPCB",26-11-2025 07:00:00,28.6514781,77.1473105,SO2,1,40,21
India,Delhi,Delhi,"Sri Aurobindo Marg, Delhi - DPCC",26-11-2025 07:00:00,28.531346,77.190156,PM2.5,213,378,315
India,Gujarat,Ahmedabad,"Gyaspur, Ahmedabad - IITM",26-11-2025 07:00:00,22.977134,72.553024,NH3,3,22,8
India,Gujarat,Ahmedabad,"Gyaspur, Ahmedabad - IITM",26-11-2025 07:00:00,22.977134,72.553024,CO,42,111,68
India,Delhi,Delhi,"R K Puram, Delhi - DPCC",26-11-2025 07:00:00,28.563262,77.186937,PM10,177,407,245
India,Delhi,Delhi,"R K Puram, Delhi - DPCC",26-11-2025 07:00:00,28.563262,77.186937,OZONE,1,300,3
India,Haryana,Bhiwani,"H.B. Colony, Bhiwani - HSPCB",26-11-2025 07:00:00,28.806223,76.141105,CO,11,14,12
India,Haryana,Dharuhera,"Municipal Corporation Office, Dharuhera -  HSPCB",26-11-2025 07:00:00,28.206800,76.799700,OZONE,6,48,8
India,Haryana,Faridabad,"New Industrial Town, Faridabad - HSPCB",26-11-2025 07:00:00,28.39072,77.30059,NH3,11,12,11
India,Haryana,Faridabad,"New Industrial Town, Faridabad - HSPCB",26-11-2025 07:00:00,28.39072,77.30059,CO,10,13,12
India,Haryana,Faridabad,"New Industrial Town, Faridabad - HSPCB",26-11-2025 07:00:00,28.39072,77.30059,OZONE,26,35,31
India,Haryana,Faridabad,"Sector 30, Faridabad - HSPCB",26-11-2025 07:00:00,28.4417,77.3217,NO2,35,39,37
India,Haryana,Fatehabad,"Huda Sector, Fatehabad - HSPCB",26-11-2025 07:00:00,29.503664,75.467934,PM10,87,223,134
India,Haryana,Fatehabad,"Huda Sector, Fatehabad - HSPCB",26-11-2025 07:00:00,29.503664,75.467934,NH3,13,15,14
India,Haryana,Fatehabad,"Huda Sector, Fatehabad - HSPCB",26-11-2025 07:00:00,29.503664,75.467934,SO2,1,32,17
India,Haryana,Gurugram,"NISE Gwal Pahari, Gurugram - IMD",26-11-2025 07:00:00,28.422681,77.148944,PM2.5,224,400,323
India,Haryana,Gurugram,"NISE Gwal Pahari, Gurugram - IMD",26-11-2025 07:00:00,28.422681,77.148944,NO2,16,64,34
India,Haryana,Sonipat,"Murthal, Sonipat - HSPCB",26-11-2025 07:00:00,29.027200,77.062100,PM2.5,131,405,291
India,Haryana,Sonipat,"Murthal, Sonipat - HSPCB",26-11-2025 07:00:00,29.027200,77.062100,NH3,13,21,16
India,Haryana,Yamuna Nagar,"Gobind Pura, Yamuna Nagar - HSPCB",26-11-2025 07:00:00,30.1480566,77.2893471,PM10,112,238,148
India,Haryana,Yamuna Nagar,"Gobind Pura, Yamuna Nagar - HSPCB",26-11-2025 07:00:00,30.1480566,77.2893471,NO2,19,40,36
India,Haryana,Yamuna Nagar,"Gobind Pura, Yamuna Nagar - HSPCB",26-11-2025 07:00:00,30.1480566,77.2893471,OZONE,38,38,38
India,Himachal Pradesh,Baddi,"HIMUDA Complex Phase-1, Baddi - HPPCB",26-11-2025 07:00:00,30.943887,76.801991,PM2.5,55,360,133
India,Himachal Pradesh,Baddi,"HIMUDA Complex Phase-1, Baddi - HPPCB",26-11-2025 07:00:00,30.943887,76.801991,NH3,5,8,6
India,Himachal Pradesh,Baddi,"HIMUDA Complex Phase-1, Baddi - HPPCB",26-11-2025 07:00:00,30.943887,76.801991,CO,50,103,63
India,Haryana,Hisar,"Urban Estate-II, Hisar - HSPCB",26-11-2025 07:00:00,29.140560,75.744941,SO2,NA,NA,NA
India,Haryana,Jind,"Police Lines, Jind - HSPCB",26-11-2025 07:00:00,29.307814,76.337619,NH3,1,3,2
India,Haryana,Jind,"Police Lines, Jind - HSPCB",26-11-2025 07:00:00,29.307814,76.337619,CO,14,140,94
India,Haryana,Kaithal,"Rishi Nagar, Kaithal - HSPCB",26-11-2025 07:00:00,29.8006,76.4155,NO2,NA,NA,NA
India,Haryana,Kaithal,"Rishi Nagar, Kaithal - HSPCB",26-11-2025 07:00:00,29.8006,76.4155,OZONE,NA,NA,NA
India,Haryana,Karnal,"Sector-12, Karnal - HSPCB",26-11-2025 07:00:00,29.695300,77.002700,PM2.5,130,319,224
India,Haryana,Karnal,"Sector-12, Karnal - HSPCB",26-11-2025 07:00:00,29.695300,77.002700,NH3,6,6,6
India,Jharkhand,Dhanbad,"Sardar Patel Nagar, Dhanbad - JSPCB",26-11-2025 07:00:00,23.80569,86.44268,CO,4,30,14
India,Jharkhand,Dhanbad,"Sardar Patel Nagar, Dhanbad - JSPCB",26-11-2025 07:00:00,23.80569,86.44268,OZONE,1,20,4
India,Jharkhand,Jorapokhar,"Tata Stadium, Jorapokhar - JSPCB",26-11-2025 07:00:00,23.707909,86.414670,SO2,NA,NA,NA
India,Jharkhand,Jorapokhar,"Tata Stadium, Jorapokhar - JSPCB",26-11-2025 07:00:00,23.707909,86.414670,OZONE,NA,NA,NA
India,Karnataka,Bagalkot,"Vidayagiri, Bagalkot - KSPCB",26-11-2025 07:00:00,16.172806,75.659694,PM10,53,54,54
India,Karnataka,Belgaum,"Ramteerth Nagar, Belgaum - KSPCB",26-11-2025 07:00:00,15.888653,74.541751,NO2,39,86,56
India,Haryana,Gurugram,"Sector-51, Gurugram - HSPCB",26-11-2025 07:00:00,28.4227,77.0667,PM10,29,211,141
India,Haryana,Gurugram,"Sector-51, Gurugram - HSPCB",26-11-2025 07:00:00,28.4227,77.0667,NO2,4,10,6
India,Haryana,Gurugram,"Sector-51, Gurugram - HSPCB",26-11-2025 07:00:00,28.4227,77.0667,CO,19,32,28
India,Haryana,Gurugram,"Teri Gram, Gurugram - HSPCB",26-11-2025 07:00:00,28.4275,77.1465,PM10,NA,NA,NA
India,Haryana,Gurugram,"Vikas Sadan, Gurugram - HSPCB",26-11-2025 07:00:00,28.4501238,77.0263051,SO2,2,7,5
India,Haryana,Hisar,"Urban Estate-II, Hisar - HSPCB",26-11-2025 07:00:00,29.140560,75.744941,NO2,NA,NA,NA
