country,state,city,station,last_update,latitude,longitude,pollutant_id,min_value,max_value,avg_value
India,Bihar,Araria,"Kharahiya Basti, Araria - BSPCB",27-08-2025 16:00:00,26.146529,87.454184,OZONE,8,11,10
India,Bihar,Arrah,"New DM Office, Arrah - BSPCB",27-08-2025 16:00:00,25.5626095,84.663264,SO2,8,10,9
India,Bihar,Aurangabad,"Gurdeo Nagar, Aurangabad - BSPCB",27-08-2025 16:00:00,24.75746,84.366208,PM10,69,417,151
India,Bihar,Aurangabad,"Gurdeo Nagar, Aurangabad - BSPCB",27-08-2025 16:00:00,24.75746,84.366208,NO2,7,8,8
India,Bihar,Aurangabad,"Gurdeo Nagar, Aurangabad - BSPCB",27-08-2025 16:00:00,24.75746,84.366208,NH3,1,2,1
India,Bihar,Aurangabad,"Gurdeo Nagar, Aurangabad - BSPCB",27-08-2025 16:00:00,24.75746,84.366208,CO,2,30,22
India,Bihar,Aurangabad,"Gurdeo Nagar, Aurangabad - BSPCB",27-08-2025 16:00:00,24.75746,84.366208,OZONE,9,11,9
India,Bihar,Begusarai,"Lohiyanagar, Begusarai - BSPCB",27-08-2025 16:00:00,25.42742023,86.13886079,NO2,7,21,15
India,Andhra_Pradesh,Kadapa,"Yerramukkapalli, Kadapa - APPCB",27-08-2025 16:00:00,14.465052,78.824187,PM10,NA,NA,NA
India,Andhra_Pradesh,Kadapa,"Yerramukkapalli, Kadapa - APPCB",27-08-2025 16:00:00,14.465052,78.824187,SO2,NA,NA,NA
India,Andhra_Pradesh,Rajamahendravaram,"Anand Kala Kshetram, Rajamahendravaram - APPCB",27-08-2025 16:00:00,16.9872867,81.7363176,PM2.5,2,23,12
India,Andhra_Pradesh,Rajamahendravaram,"Anand Kala Kshetram, Rajamahendravaram - APPCB",27-08-2025 16:00:00,16.9872867,81.7363176,NO2,3,22,11
India,Andhra_Pradesh,Tirumala,"Toll Gate, Tirumala - APPCB",27-08-2025 16:00:00,13.67,79.35,SO2,2,4,2
India,Andhra_Pradesh,Tirupati,"Vaikuntapuram, Tirupati - APPCB",27-08-2025 16:00:00,13.615387,79.409230,SO2,27,28,28
India,Andhra_Pradesh,Tirupati,"Vaikuntapuram, Tirupati - APPCB",27-08-2025 16:00:00,13.615387,79.409230,OZONE,33,34,33
India,Assam,Byrnihat,"Central Academy for SFS, Byrnihat - PCBA",27-08-2025 16:00:00,26.071318,91.87488,NO2,NA,NA,NA
India,Assam,Byrnihat,"Central Academy for SFS, Byrnihat - PCBA",27-08-2025 16:00:00,26.071318,91.87488,SO2,NA,NA,NA
India,Assam,Byrnihat,"Central Academy for SFS, Byrnihat - PCBA",27-08-2025 16:00:00,26.071318,91.87488,CO,34,62,46
India,Assam,Guwahati,"IITG, Guwahati - PCBA",27-08-2025 16:00:00,26.2028636,91.70046436,PM10,2,75,37
India,Assam,Guwahati,"IITG, Guwahati - PCBA",27-08-2025 16:00:00,26.2028636,91.70046436,NH3,5,5,5
India,Assam,Guwahati,"Pan Bazaar, Guwahati - PCBA",27-08-2025 16:00:00,26.187500,91.744194,PM10,5,35,15
India,Assam,Guwahati,"Pan Bazaar, Guwahati - PCBA",27-08-2025 16:00:00,26.187500,91.744194,SO2,26,67,39
India,Bihar,Bhagalpur,"DM Office_Kachari Chowk, Bhagalpur - BSPCB",27-08-2025 16:00:00,25.251013,86.989001,PM2.5,15,62,36
India,Bihar,Bhagalpur,"DM Office_Kachari Chowk, Bhagalpur - BSPCB",27-08-2025 16:00:00,25.251013,86.989001,NH3,2,4,3
India,Bihar,Bhagalpur,"Mayaganj, Bhagalpur - BSPCB",27-08-2025 16:00:00,25.265194,87.012947,PM2.5,NA,NA,NA
India,Bihar,Bhagalpur,"Mayaganj, Bhagalpur - BSPCB",27-08-2025 16:00:00,25.265194,87.012947,CO,12,60,45
India,Bihar,Bihar Sharif,"D M Colony, Bihar Sharif - BSPCB",27-08-2025 16:00:00,25.204762,85.514960,SO2,8,10,9
India,Assam,Nagaon,"Christianpatty, Nagaon - PCBA",27-08-2025 16:00:00,26.349082,92.68449,OZONE,4,18,9
India,Assam,Nalbari,"Bata Chowk, Nalbari - PCBA",27-08-2025 16:00:00,26.446912,91.439057,NO2,1,6,4
India,Assam,Nalbari,"Bata Chowk, Nalbari - PCBA",27-08-2025 16:00:00,26.446912,91.439057,SO2,7,8,8
India,Assam,Sivasagar,"Girls College, Sivasagar - PCBA",27-08-2025 16:00:00,26.987634,94.636574,PM10,26,60,36
India,Assam,Sivasagar,"Girls College, Sivasagar - PCBA",27-08-2025 16:00:00,26.987634,94.636574,SO2,5,12,9
India,Andhra_Pradesh,Vijayawada,"Rajiv Nagar, Vijayawada - APPCB",27-08-2025 16:00:00,16.554731,80.649110,SO2,20,34,25
India,Arunachal_Pradesh,Naharlagun,"Naharlagun, Naharlagun - APSPCB",27-08-2025 16:00:00,27.103358,93.679645,PM2.5,2,120,26
India,Arunachal_Pradesh,Naharlagun,"Naharlagun, Naharlagun - APSPCB",27-08-2025 16:00:00,27.103358,93.679645,NO2,5,6,5
India,Andhra_Pradesh,Amaravati,"Secretariat, Amaravati - APPCB",27-08-2025 16:00:00,16.5150833,80.5181667,SO2,11,22,17
India,Andhra_Pradesh,Amaravati,"Secretariat, Amaravati - APPCB",27-08-2025 16:00:00,16.5150833,80.5181667,OZONE,8,14,12
India,Andhra_Pradesh,Chittoor,"Gangineni Cheruvu, Chittoor - APPCB",27-08-2025 16:00:00,13.204880,79.097889,NH3,10,15,13
India,Bihar,Buxar,"Charitra Van, Buxar - BSPCB",27-08-2025 16:00:00,25.567520,83.966379,NH3,3,3,3
India,Bihar,Gaya,"Collectorate, Gaya - BSPCB",27-08-2025 16:00:00,24.7955,84.9994,CO,5,40,26
India,Bihar,Gaya,"SFTI Kusdihra, Gaya - BSPCB",27-08-2025 16:00:00,24.762518,84.982348,NH3,3,4,3
India,Andhra_Pradesh,Vijayawada,"Rajiv Gandhi Park, Vijayawada - APPCB",27-08-2025 16:00:00,16.509717,80.612222,CO,42,42,42
India,Bihar,Hajipur,"Industrial Area, Hajipur - BSPCB",27-08-2025 16:00:00,25.697189,85.245900,SO2,3,5,4
India,Bihar,Muzaffarpur,"MIT-Daudpur Kothi, Muzaffarpur - BSPCB",27-08-2025 16:00:00,26.1403345,85.3650192,SO2,5,10,8
India,Bihar,Patna,"DRM Office Danapur, Patna - BSPCB",27-08-2025 16:00:00,25.586562,85.043586,OZONE,22,26,24
India,Bihar,Patna,"Govt. High School Shikarpur, Patna - BSPCB",27-08-2025 16:00:00,25.592539,85.227158,OZONE,8,13,10
India,Bihar,Patna,"IGSC Planetarium Complex, Patna - BSPCB",27-08-2025 16:00:00,25.610369,85.132568,NO2,10,15,14
India,Bihar,Patna,"IGSC Planetarium Complex, Patna - BSPCB",27-08-2025 16:00:00,25.610369,85.132568,SO2,1,26,22
India,Chhattisgarh,Raipur,"AIIMS, Raipur - CECB",27-08-2025 16:00:00,21.258815,81.578979,PM10,4,63,31
India,Chhattisgarh,Raipur,"Bhatagaon New ISBT, Raipur - CECB",27-08-2025 16:00:00,21.219665,81.630094,PM10,1,95,33
India,Chhattisgarh,Raipur,"Bhatagaon New ISBT, Raipur - CECB",27-08-2025 16:00:00,21.219665,81.630094,SO2,6,9,7
India,Chhattisgarh,Raipur,"Krishak Nagar, Raipur - CECB",27-08-2025 16:00:00,21.237755,81.705301,PM10,11,42,26
India,Chhattisgarh,Raipur,"Krishak Nagar, Raipur - CECB",27-08-2025 16:00:00,21.237755,81.705301,SO2,1,8,6
India,Chhattisgarh,Raipur,"Siltara Phase-II, Raipur - CECB",27-08-2025 16:00:00,21.371751,81.664929,PM2.5,14,41,23
India,Bihar,Sasaram,"Dada Peer, Sasaram - BSPCB",27-08-2025 16:00:00,24.952822,84.002396,SO2,1,5,3
India,Bihar,Siwan,"Chitragupta Nagar, Siwan - BSPCB",27-08-2025 16:00:00,26.2271665,84.3570427,PM2.5,25,30,27
India,Bihar,Siwan,"Chitragupta Nagar, Siwan - BSPCB",27-08-2025 16:00:00,26.2271665,84.3570427,OZONE,10,17,11
India,Chandigarh,Chandigarh,"Sector 22, Chandigarh - CPCC",27-08-2025 16:00:00,30.735567,76.775714,PM10,8,36,21
India,Chandigarh,Chandigarh,"Sector 22, Chandigarh - CPCC",27-08-2025 16:00:00,30.735567,76.775714,OZONE,5,31,23
India,Bihar,Munger,"Town Hall, Munger - BSPCB",27-08-2025 16:00:00,25.376776,86.471523,NO2,4,5,5
India,Bihar,Muzaffarpur,"Buddha Colony, Muzaffarpur - BSPCB",27-08-2025 16:00:00,26.11442,85.39813,PM2.5,29,97,64
India,Bihar,Muzaffarpur,"Buddha Colony, Muzaffarpur - BSPCB",27-08-2025 16:00:00,26.11442,85.39813,CO,20,54,24
India,Bihar,Muzaffarpur,"Buddha Colony, Muzaffarpur - BSPCB",27-08-2025 16:00:00,26.11442,85.39813,OZONE,30,73,60
India,Bihar,Muzaffarpur,"MIT-Daudpur Kothi, Muzaffarpur - BSPCB",27-08-2025 16:00:00,26.1403345,85.3650192,PM2.5,23,45,36
India,Chhattisgarh,Tumidih,"OP Jindal Industrial Park, Tumidih - CECB",27-08-2025 16:00:00,22.06631475,83.33820077,CO,12,37,21
India,Chhattisgarh,Tumidih,"OP Jindal Industrial Park, Tumidih - CECB",27-08-2025 16:00:00,22.06631475,83.33820077,OZONE,4,29,18
India,Delhi,Delhi,"Alipur, Delhi - DPCC",27-08-2025 16:00:00,28.815329,77.153010,PM2.5,15,123,47
India,Delhi,Delhi,"Alipur, Delhi - DPCC",27-08-2025 16:00:00,28.815329,77.153010,PM10,18,99,46
India,Delhi,Delhi,"Alipur, Delhi - DPCC",27-08-2025 16:00:00,28.815329,77.153010,NH3,11,15,12
India,Chhattisgarh,Kunjemura,"OP Jindal School, Kunjemura - CECB",27-08-2025 16:00:00,22.126650,83.483212,PM2.5,6,22,12
India,Chhattisgarh,Milupara,"Govt. Higher Secondary School, Milupara - CECB",27-08-2025 16:00:00,22.1910172,83.5197009,PM2.5,NA,NA,NA
India,Chhattisgarh,Milupara,"Govt. Higher Secondary School, Milupara - CECB",27-08-2025 16:00:00,22.1910172,83.5197009,PM10,NA,NA,NA
India,Chhattisgarh,Milupara,"Govt. Higher Secondary School, Milupara - CECB",27-08-2025 16:00:00,22.1910172,83.5197009,OZONE,24,46,28
India,Chandigarh,Chandigarh,"Sector-25, Chandigarh - CPCC",27-08-2025 16:00:00,30.751462,76.762879,CO,13,55,16
India,Chandigarh,Chandigarh,"Sector-53, Chandigarh - CPCC",27-08-2025 16:00:00,30.719859,76.738637,NH3,NA,NA,NA
India,Chhattisgarh,Bhilai,"Civic Center, Bhilai - Bhilai Steel Plant",27-08-2025 16:00:00,21.185571,81.343175,PM10,NA,NA,NA
India,Chhattisgarh,Bhilai,"Civic Center, Bhilai - Bhilai Steel Plant",27-08-2025 16:00:00,21.185571,81.343175,NH3,NA,NA,NA
India,Bihar,Purnia,"Mariam Nagar, Purnia - BSPCB",27-08-2025 16:00:00,25.366336,87.117468,OZONE,19,25,20
India,Bihar,Rajgir,"Dangi Tola, Rajgir - BSPCB",27-08-2025 16:00:00,25.03280,85.41948,NO2,9,10,9
India,Bihar,Saharsa,"Police Line, Saharsa - BSPCB",27-08-2025 16:00:00,25.892357,86.590325,NH3,4,4,4
India,Bihar,Patna,"IGSC Planetarium Complex, Patna - BSPCB",27-08-2025 16:00:00,25.610369,85.132568,CO,34,94,74
India,Bihar,Patna,"Rajbansi Nagar, Patna - BSPCB",27-08-2025 16:00:00,25.599486,85.113666,OZONE,13,39,24
India,Bihar,Patna,"Samanpura, Patna - BSPCB",27-08-2025 16:00:00,25.596727,85.085624,NO2,38,54,45
India,Delhi,Delhi,"Mandir Marg, Delhi - DPCC",27-08-2025 16:00:00,28.636429,77.201067,CO,35,92,43
India,Delhi,Delhi,"Mundka, Delhi - DPCC",27-08-2025 16:00:00,28.684678,77.076574,NH3,7,7,7
India,Delhi,Delhi,"Mundka, Delhi - DPCC",27-08-2025 16:00:00,28.684678,77.076574,SO2,6,10,8
India,Delhi,Delhi,"NSIT Dwarka, Delhi - CPCB",27-08-2025 16:00:00,28.60909,77.0325413,PM10,NA,NA,NA
India,Delhi,Delhi,"NSIT Dwarka, Delhi - CPCB",27-08-2025 16:00:00,28.60909,77.0325413,NO2,7,70,35
India,Delhi,Delhi,"Najafgarh, Delhi - DPCC",27-08-2025 16:00:00,28.570173,76.933762,PM2.5,3,58,31
India,Delhi,Delhi,"Najafgarh, Delhi - DPCC",27-08-2025 16:00:00,28.570173,76.933762,CO,16,70,44
India,Delhi,Delhi,"Narela, Delhi - DPCC",27-08-2025 16:00:00,28.822836,77.101981,PM2.5,15,183,53
India,Delhi,Delhi,"Narela, Delhi - DPCC",27-08-2025 16:00:00,28.822836,77.101981,PM10,24,114,62
India,Delhi,Delhi,"CRRI Mathura Road, Delhi - IMD",27-08-2025 16:00:00,28.5512005,77.2735737,PM2.5,13,82,48
India,Delhi,Delhi,"Chandni Chowk, Delhi - IITM",27-08-2025 16:00:00,28.656756,77.227234,NH3,NA,NA,NA
India,Delhi,Delhi,"DTU, Delhi - CPCB",27-08-2025 16:00:00,28.7500499,77.1112615,PM10,26,134,64
India,Delhi,Delhi,"DTU, Delhi - CPCB",27-08-2025 16:00:00,28.7500499,77.1112615,NO2,49,49,49
India,Delhi,Delhi,"DTU, Delhi - CPCB",27-08-2025 16:00:00,28.7500499,77.1112615,OZONE,24,25,24
India,Delhi,Delhi,"Dr. Karni Singh Shooting Range, Delhi - DPCC",27-08-2025 16:00:00,28.498571,77.264840,NO2,25,86,37
India,Delhi,Delhi,"Dr. Karni Singh Shooting Range, Delhi - DPCC",27-08-2025 16:00:00,28.498571,77.264840,SO2,2,12,8
India,Delhi,Delhi,"Anand Vihar, Delhi - DPCC",27-08-2025 16:00:00,28.647622,77.3158090,NH3,4,8,6
India,Delhi,Delhi,"Anand Vihar, Delhi - DPCC",27-08-2025 16:00:00,28.647622,77.3158090,CO,68,110,88
India,Delhi,Delhi,"Ashok Vihar, Delhi - DPCC",27-08-2025 16:00:00,28.695381,77.181665,NO2,15,54,34
India,Delhi,Delhi,"Bawana, Delhi - DPCC",27-08-2025 16:00:00,28.776200,77.051074,SO2,1,4,2
India,Delhi,Delhi,"Bawana, Delhi - DPCC",27-08-2025 16:00:00,28.776200,77.051074,CO,30,74,42
India,Delhi,Delhi,"Burari Crossing, Delhi - IMD",27-08-2025 16:00:00,28.7256504,77.2011573,OZONE,18,53,31
India,Delhi,Delhi,"Dwarka-Sector 8, Delhi - DPCC ",27-08-2025 16:00:00,28.5710274,77.0719006,PM10,6,89,43
India,Delhi,Delhi,"IHBAS, Dilshad Garden, Delhi - CPCB",27-08-2025 16:00:00,28.6811736,77.3025234,PM2.5,37,60,46
India,Delhi,Delhi,"IHBAS, Dilshad Garden, Delhi - CPCB",27-08-2025 16:00:00,28.6811736,77.3025234,NH3,4,7,5
India,Delhi,Delhi,"IHBAS, Dilshad Garden, Delhi - CPCB",27-08-2025 16:00:00,28.6811736,77.3025234,OZONE,6,23,21
India,Delhi,Delhi,"ITO, Delhi - CPCB",27-08-2025 16:00:00,28.628624,77.241060,NO2,51,106,87
India,Delhi,Delhi,"Jahangirpuri, Delhi - DPCC",27-08-2025 16:00:00,28.732820,77.170633,NO2,8,18,13
India,Delhi,Delhi,"Jawaharlal Nehru Stadium, Delhi - DPCC",27-08-2025 16:00:00,28.580280,77.233829,PM2.5,NA,NA,NA
India,Delhi,Delhi,"Jawaharlal Nehru Stadium, Delhi - DPCC",27-08-2025 16:00:00,28.580280,77.233829,PM10,NA,NA,NA
India,Delhi,Delhi,"Jawaharlal Nehru Stadium, Delhi - DPCC",27-08-2025 16:00:00,28.580280,77.233829,CO,71,110,94
India,Delhi,Delhi,"Major Dhyan Chand National Stadium, Delhi - DPCC",27-08-2025 16:00:00,28.611281,77.237738,SO2,1,18,8
India,Delhi,Delhi,"Punjabi Bagh, Delhi - DPCC",27-08-2025 16:00:00,28.674045,77.131023,OZONE,2,35,14
India,Delhi,Delhi,"Pusa, Delhi - DPCC",27-08-2025 16:00:00,28.639652,77.146275,PM10,19,183,80
India,Delhi,Delhi,"Pusa, Delhi - DPCC",27-08-2025 16:00:00,28.639652,77.146275,SO2,11,25,17
India,Delhi,Delhi,"Pusa, Delhi - DPCC",27-08-2025 16:00:00,28.639652,77.146275,OZONE,2,16,10
India,Delhi,Delhi,"R K Puram, Delhi - DPCC",27-08-2025 16:00:00,28.563262,77.186937,PM2.5,9,120,55
India,Delhi,Delhi,"Narela, Delhi - DPCC",27-08-2025 16:00:00,28.822836,77.101981,NH3,3,8,5
India,Delhi,Delhi,"Nehru Nagar, Delhi - DPCC",27-08-2025 16:00:00,28.567890,77.250515,SO2,1,18,10
India,Delhi,Delhi,"Okhla Phase-2, Delhi - DPCC",27-08-2025 16:00:00,28.530785,77.271255,NH3,NA,NA,NA
India,Delhi,Delhi,"Patparganj, Delhi - DPCC",27-08-2025 16:00:00,28.623763,77.287209,PM2.5,10,80,48
India,Delhi,Delhi,"Shadipur, Delhi - CPCB",27-08-2025 16:00:00,28.6514781,77.1473105,CO,38,90,51
India,Delhi,Delhi,"Shadipur, Delhi - CPCB",27-08-2025 16:00:00,28.6514781,77.1473105,OZONE,7,19,8
India,Delhi,Delhi,"Sri Aurobindo Marg, Delhi - DPCC",27-08-2025 16:00:00,28.531346,77.190156,PM2.5,2,48,23
India,Delhi,Delhi,"Sri Aurobindo Marg, Delhi - DPCC",27-08-2025 16:00:00,28.531346,77.190156,CO,10,101,44
India,Gujarat,Ahmedabad,"Chandkheda, Ahmedabad - IITM",27-08-2025 16:00:00,23.107969,72.574648,OZONE,2,26,16
India,Gujarat,Ahmedabad,"Sardar Vallabhbhai Patel Stadium, Ahmedabad - IITM",27-08-2025 16:00:00,23.043070,72.562968,SO2,9,35,18
India,Gujarat,Ahmedabad,"Sardar Vallabhbhai Patel Stadium, Ahmedabad - IITM",27-08-2025 16:00:00,23.043070,72.562968,OZONE,4,34,21
India,Gujarat,Ankleshwar,"GIDC, Ankleshwar - GPCB",27-08-2025 16:00:00,21.613267,73.010555,NH3,6,6,6
India,Gujarat,Ankleshwar,"GIDC, Ankleshwar - GPCB",27-08-2025 16:00:00,21.613267,73.010555,CO,16,34,24
India,Gujarat,Gandhinagar,"GIFT City, Gandhinagar - IITM",27-08-2025 16:00:00,23.163798,72.677768,PM10,42,88,62
India,Gujarat,Gandhinagar,"GIFT City, Gandhinagar - IITM",27-08-2025 16:00:00,23.163798,72.677768,OZONE,9,35,12
India,Gujarat,Gandhinagar,"IIPHG Lekawada, Gandhinagar - IITM",27-08-2025 16:00:00,23.243639,72.68994,PM2.5,24,63,42
India,Gujarat,Gandhinagar,"IIPHG Lekawada, Gandhinagar - IITM",27-08-2025 16:00:00,23.243639,72.68994,SO2,6,9,8
India,Himachal Pradesh,Baddi,"HIMUDA Complex Phase-1, Baddi - HPPCB",27-08-2025 16:00:00,30.943887,76.801991,NO2,15,100,50
India,Jharkhand,Dhanbad,"Sardar Patel Nagar, Dhanbad - JSPCB",27-08-2025 16:00:00,23.80569,86.44268,NO2,83,134,98
India,Jharkhand,Dhanbad,"Sardar Patel Nagar, Dhanbad - JSPCB",27-08-2025 16:00:00,23.80569,86.44268,OZONE,3,28,17
India,Jharkhand,Jorapokhar,"Tata Stadium, Jorapokhar - JSPCB",27-08-2025 16:00:00,23.707909,86.414670,PM10,39,84,60
India,Karnataka,Bagalkot,"Vidayagiri, Bagalkot - KSPCB",27-08-2025 16:00:00,16.172806,75.659694,PM2.5,33,34,33
India,Gujarat,Ahmedabad,"Gyaspur, Ahmedabad - IITM",27-08-2025 16:00:00,22.977134,72.553024,SO2,6,11,8
India,Gujarat,Ahmedabad,"Maninagar, Ahmedabad - GPCB",27-08-2025 16:00:00,23.002657,72.591912,SO2,14,28,22
India,Gujarat,Ahmedabad,"Raikhad, Ahmedabad - IITM",27-08-2025 16:00:00,23.020509,72.579261,SO2,9,15,13
India,Gujarat,Ahmedabad,"Rakhial, Ahmedabad - IITM",27-08-2025 16:00:00,23.016834,72.625775,NO2,11,28,16
India,Gujarat,Ahmedabad,"Rakhial, Ahmedabad - IITM",27-08-2025 16:00:00,23.016834,72.625775,NH3,7,10,8
India,Gujarat,Ahmedabad,"SAC ISRO Bopal, Ahmedabad - IITM",27-08-2025 16:00:00,23.041137,72.456691,PM10,40,65,50
India,Gujarat,Ahmedabad,"SAC ISRO Bopal, Ahmedabad - IITM",27-08-2025 16:00:00,23.041137,72.456691,NO2,22,32,27
India,Karnataka,Bengaluru,"Bapuji Nagar, Bengaluru - KSPCB",27-08-2025 16:00:00,12.951913,77.539784,NH3,1,1,1
India,Karnataka,Bengaluru,"Hombegowda Nagar, Bengaluru - KSPCB",27-08-2025 16:00:00,12.938539,77.590100,CO,8,20,12
India,Karnataka,Bengaluru,"Hombegowda Nagar, Bengaluru - KSPCB",27-08-2025 16:00:00,12.938539,77.590100,OZONE,4,19,13
India,Karnataka,Bengaluru,"Jayanagar 5th Block, Bengaluru - KSPCB",27-08-2025 16:00:00,12.920984,77.584908,PM2.5,11,26,20
India,Karnataka,Bengaluru,"Jayanagar 5th Block, Bengaluru - KSPCB",27-08-2025 16:00:00,12.920984,77.584908,PM10,13,37,22
India,Karnataka,Bengaluru,"Jayanagar 5th Block, Bengaluru - KSPCB",27-08-2025 16:00:00,12.920984,77.584908,NO2,12,43,21
India,Karnataka,Bengaluru,"Jigani, Bengaluru - KSPCB",27-08-2025 16:00:00,12.7816279,77.6299145,PM10,45,54,50
India,Karnataka,Bengaluru,"Jigani, Bengaluru - KSPCB",27-08-2025 16:00:00,12.7816279,77.6299145,CO,32,34,32
India,Karnataka,Bengaluru,"RVCE-Mailasandra, Bengaluru - KSPCB",27-08-2025 16:00:00,12.921418,77.502466,SO2,6,6,6
India,Karnataka,Bengaluru,"RVCE-Mailasandra, Bengaluru - KSPCB",27-08-2025 16:00:00,12.921418,77.502466,CO,23,45,39
India,Karnataka,Bengaluru,"Shivapura_Peenya, Bengaluru - KSPCB",27-08-2025 16:00:00,13.0246342,77.5080115,SO2,3,10,6
India,Karnataka,Bengaluru,"Shivapura_Peenya, Bengaluru - KSPCB",27-08-2025 16:00:00,13.0246342,77.5080115,CO,24,38,34
India,Gujarat,Ahmedabad,"SAC ISRO Satellite, Ahmedabad - IITM",27-08-2025 16:00:00,23.023389,72.515201,PM2.5,33,72,49
India,Gujarat,Ahmedabad,"SAC ISRO Satellite, Ahmedabad - IITM",27-08-2025 16:00:00,23.023389,72.515201,SO2,3,5,4
India,Gujarat,Ahmedabad,"SAC ISRO Satellite, Ahmedabad - IITM",27-08-2025 16:00:00,23.023389,72.515201,CO,1,28,26
India,Gujarat,Ahmedabad,"SAC ISRO Satellite, Ahmedabad - IITM",27-08-2025 16:00:00,23.023389,72.515201,OZONE,5,28,17
India,Gujarat,Ahmedabad,"SVPI Airport Hansol, Ahmedabad - IITM",27-08-2025 16:00:00,23.076793,72.627874,NO2,15,110,37
India,Gujarat,Ahmedabad,"SVPI Airport Hansol, Ahmedabad - IITM",27-08-2025 16:00:00,23.076793,72.627874,CO,8,28,12
India,Gujarat,Gandhinagar,"Sector-10, Gandhinagar - GPCB",27-08-2025 16:00:00,23.221714,72.654328,NH3,2,2,2
India,Gujarat,Surat,"Science Center, Surat - SMC",27-08-2025 16:00:00,21.170046,72.795405,PM10,5,61,34
India,Haryana,Gurugram,"NISE Gwal Pahari, Gurugram - IMD",27-08-2025 16:00:00,28.422681,77.148944,CO,24,40,31
India,Karnataka,Belgaum,"Ramteerth Nagar, Belgaum - KSPCB",27-08-2025 16:00:00,15.888653,74.541751,NH3,NA,NA,NA
India,Karnataka,Belgaum,"Ramteerth Nagar, Belgaum - KSPCB",27-08-2025 16:00:00,15.888653,74.541751,CO,NA,NA,NA
India,Karnataka,Bengaluru,"BTM Layout, Bengaluru - CPCB",27-08-2025 16:00:00,12.9135218,77.5950804,PM10,67,69,68
India,Karnataka,Bengaluru,"BTM Layout, Bengaluru - CPCB",27-08-2025 16:00:00,12.9135218,77.5950804,SO2,24,25,24
India,Gujarat,Ahmedabad,"SAC ISRO Bopal, Ahmedabad - IITM",27-08-2025 16:00:00,23.041137,72.456691,OZONE,4,51,18
India,Madhya Pradesh,Bhopal,"Paryavaran Parisar, Bhopal - MPPCB",27-08-2025 16:00:00,23.210494,77.425409,CO,16,24,21
India,Madhya Pradesh,Bhopal,"T T Nagar, Bhopal - MPPCB",27-08-2025 16:00:00,23.233584,77.400574,PM2.5,20,33,25
India,Madhya Pradesh,Bhopal,"T T Nagar, Bhopal - MPPCB",27-08-2025 16:00:00,23.233584,77.400574,PM10,21,52,36
India,Madhya Pradesh,Bhopal,"T T Nagar, Bhopal - MPPCB",27-08-2025 16:00:00,23.233584,77.400574,SO2,16,31,22
India,Madhya Pradesh,Bhopal,"T T Nagar, Bhopal - MPPCB",27-08-2025 16:00:00,23.233584,77.400574,OZONE,6,26,12
India,Madhya Pradesh,Dewas,"Bhopal Chauraha, Dewas - MPPCB",27-08-2025 16:00:00,22.9682591,76.064118,NO2,40,52,46
India,Madhya Pradesh,Dewas,"Bhopal Chauraha, Dewas - MPPCB",27-08-2025 16:00:00,22.9682591,76.064118,CO,12,37,21
India,Madhya Pradesh,Gwalior,"City Center, Gwalior - MPPCB",27-08-2025 16:00:00,26.203442,78.193251,CO,20,40,38
India,Karnataka,Shivamogga,"Vinoba Nagara, Shivamogga - KSPCB",27-08-2025 16:00:00,13.940000,75.555917,PM10,37,38,37
India,Karnataka,Shivamogga,"Vinoba Nagara, Shivamogga - KSPCB",27-08-2025 16:00:00,13.940000,75.555917,NO2,11,17,14
India,Karnataka,Vijayapura,"Ibrahimpur, Vijayapura - KSPCB",27-08-2025 16:00:00,16.802639,75.722694,NO2,9,10,9
India,Karnataka,Vijayapura,"Ibrahimpur, Vijayapura - KSPCB",27-08-2025 16:00:00,16.802639,75.722694,CO,14,122,24
India,Karnataka,Yadgir,"Collector Office, Yadgir - KSPCB",27-08-2025 16:00:00,16.7602,77.1428,CO,12,26,21
India,Kerala,Eloor,"Udyogamandal, Eloor - Kerala PCB",27-08-2025 16:00:00,10.073232,76.302765,PM2.5,54,82,64
India,Karnataka,Bengaluru,"Silk Board, Bengaluru - KSPCB",27-08-2025 16:00:00,12.917348,77.622813,NO2,5,21,10
India,Karnataka,Bengaluru,"Silk Board, Bengaluru - KSPCB",27-08-2025 16:00:00,12.917348,77.622813,SO2,8,14,10
India,Karnataka,Chikkaballapur,"Chikkaballapur Rural, Chikkaballapur - KSPCB",27-08-2025 16:00:00,13.428828,77.731418,NH3,2,2,2
India,Karnataka,Chikkaballapur,"Chikkaballapur Rural, Chikkaballapur - KSPCB",27-08-2025 16:00:00,13.428828,77.731418,CO,8,11,11
India,Karnataka,Davanagere,"Devaraj Urs Badavane, Davanagere - KSPCB",27-08-2025 16:00:00,14.475800,75.905200,PM10,NA,NA,NA
India,Karnataka,Davanagere,"Devaraj Urs Badavane, Davanagere - KSPCB",27-08-2025 16:00:00,14.475800,75.905200,OZONE,24,26,25
India,Madhya Pradesh,Indore,"Maguda Nagar, Indore - IMC",27-08-2025 16:00:00,22.7524,75.8872,CO,20,53,27
India,Madhya Pradesh,Indore,"Regional Park, Indore - IMC",27-08-2025 16:00:00,22.6780,75.8559,PM10,12,47,28
India,Madhya Pradesh,Indore,"Residency Area, Indore - IMC",27-08-2025 16:00:00,22.7084,75.8815,PM10,19,39,31
India,Madhya Pradesh,Jabalpur,"Govindh Bhavan Colony, Jabalpur - JMC",27-08-2025 16:00:00,23.163174,79.973061,SO2,23,27,26
India,Madhya Pradesh,Jabalpur,"Gupteshwar, Jabalpur - JMC",27-08-2025 16:00:00,23.142888,79.916147,PM10,NA,NA,NA
India,Madhya Pradesh,Gwalior,"Deen Dayal Nagar, Gwalior - MPPCB",27-08-2025 16:00:00,26.259242,78.216432,OZONE,25,64,38
India,Madhya Pradesh,Gwalior,"Maharaj Bada, Gwalior - MPPCB",27-08-2025 16:00:00,26.200388,78.147714,OZONE,15,44,23
India,Madhya Pradesh,Indore,"Airport Area, Indore - IMC",27-08-2025 16:00:00,22.7289,75.8076,PM10,11,35,26
India,Madhya Pradesh,Indore,"Chhoti Gwaltoli, Indore - MPPCB",27-08-2025 16:00:00,22.4310,75.5213,SO2,8,9,9
India,Kerala,Thiruvananthapuram,"Plammoodu, Thiruvananthapuram - Kerala PCB",27-08-2025 16:00:00,8.5149093,76.9435879,NH3,7,23,9
India,Madhya Pradesh,Bhopal,"Idgah Hills, Bhopal - MPPCB",27-08-2025 16:00:00,23.264759,77.381568,CO,15,58,19
India,Madhya Pradesh,Bhopal,"Idgah Hills, Bhopal - MPPCB",27-08-2025 16:00:00,23.264759,77.381568,OZONE,16,40,35
India,Madhya Pradesh,Bhopal,"Paryavaran Parisar, Bhopal - MPPCB",27-08-2025 16:00:00,23.210494,77.425409,PM10,19,61,34
India,Kerala,Eloor,"Udyogamandal, Eloor - Kerala PCB",27-08-2025 16:00:00,10.073232,76.302765,PM10,48,64,54
India,Kerala,Kollam,"Polayathode, Kollam - Kerala PCB",27-08-2025 16:00:00,8.8787,76.6073,SO2,2,3,2
India,Kerala,Thiruvananthapuram,"Plammoodu, Thiruvananthapuram - Kerala PCB",27-08-2025 16:00:00,8.5149093,76.9435879,PM2.5,7,73,29
India,Kerala,Thiruvananthapuram,"Plammoodu, Thiruvananthapuram - Kerala PCB",27-08-2025 16:00:00,8.5149093,76.9435879,NO2,51,108,70
India,Karnataka,Madikeri,"Stuart Hill, Madikeri - KSPCB",27-08-2025 16:00:00,12.415911,75.735050,PM10,13,20,16
India,Karnataka,Madikeri,"Stuart Hill, Madikeri - KSPCB",27-08-2025 16:00:00,12.415911,75.735050,OZONE,3,6,5
India,Karnataka,Mysuru,"Hebbal 1st Stage, Mysuru - KSPCB",27-08-2025 16:00:00,12.21041,76.37376,PM2.5,10,37,19
India,Karnataka,Mysuru,"Hebbal 1st Stage, Mysuru - KSPCB",27-08-2025 16:00:00,12.21041,76.37376,PM10,17,47,29
India,Karnataka,Mysuru,"Hebbal 1st Stage, Mysuru - KSPCB",27-08-2025 16:00:00,12.21041,76.37376,SO2,1,24,10
India,Karnataka,Hubballi,"Lingaraj Nagar, Hubballi - KSPCB",27-08-2025 16:00:00,15.3714823,75.1160168,SO2,1,2,1
India,Karnataka,Kalaburagi,"Lal Bahadur Shastri Nagar, Kalaburagi - KSPCB",27-08-2025 16:00:00,17.321993,76.822628,NH3,NA,NA,NA
India,Karnataka,Kalaburagi,"Lal Bahadur Shastri Nagar, Kalaburagi - KSPCB",27-08-2025 16:00:00,17.321993,76.822628,OZONE,20,20,20
India,Karnataka,Karwar,"KHB Colony, Karwar - KSPCB",27-08-2025 16:00:00,14.816666,74.141003,PM2.5,NA,NA,NA
India,Maharashtra,Ahmednagar,"Tarakpur, Ahmednagar - MPCB",27-08-2025 16:00:00,19.10122,74.73339,CO,26,50,42
India,Maharashtra,Akola,"Ramdaspeth, Akola - MPCB",27-08-2025 16:00:00,20.719516,77.000253,PM2.5,13,33,21
India,Maharashtra,Akola,"Ramdaspeth, Akola - MPCB",27-08-2025 16:00:00,20.719516,77.000253,PM10,17,38,26
India,Maharashtra,Akola,"Ramdaspeth, Akola - MPCB",27-08-2025 16:00:00,20.719516,77.000253,CO,10,20,16
India,Maharashtra,Amravati,"Shivneri Colony, Amravati - MPCB",27-08-2025 16:00:00,20.9402359,77.7895248,NH3,2,2,2
India,Maharashtra,Amravati,"Shri Shivaji Science College, Amravati - MPCB",27-08-2025 16:00:00,20.939198,77.765701,NO2,2,7,4
India,Maharashtra,Aurangabad,"MIDC Chilkalthana, Aurangabad - MPCB",27-08-2025 16:00:00,19.875620,75.387310,PM2.5,4,12,8
India,Maharashtra,Aurangabad,"MIDC Chilkalthana, Aurangabad - MPCB",27-08-2025 16:00:00,19.875620,75.387310,PM10,10,33,18
India,Maharashtra,Aurangabad,"MIDC Chilkalthana, Aurangabad - MPCB",27-08-2025 16:00:00,19.875620,75.387310,NO2,6,24,10
India,Madhya Pradesh,Pithampur,"Sector-2 Industrial Area, Pithampur - MPPCB",27-08-2025 16:00:00,22.624758,75.675238,NH3,3,3,3
India,Madhya Pradesh,Ratlam,"Shasthri Nagar, Ratlam - IPCA Lab",27-08-2025 16:00:00,23.331731,75.045981,NO2,34,35,35
India,Madhya Pradesh,Sagar,"Civil Lines, Sagar - MPPCB",27-08-2025 16:00:00,23.838586,78.759431,NO2,NA,NA,NA
India,Madhya Pradesh,Sagar,"Deen Dayal Nagar, Sagar - MPPCB",27-08-2025 16:00:00,23.8640158,78.80289321,NO2,2,22,9
India,Madhya Pradesh,Satna,"Bandhavgar Colony, Satna - Birla Cement",27-08-2025 16:00:00,24.58434363,80.8549414,OZONE,9,18,14
India,Madhya Pradesh,Singrauli,"Suryakiran Bhawan NCL, Singrauli - MPPCB",27-08-2025 16:00:00,24.108970,82.645580,PM2.5,51,196,101
India,Madhya Pradesh,Jabalpur,"Marhatal, Jabalpur - MPPCB",27-08-2025 16:00:00,23.168606,79.932247,PM2.5,18,55,29
India,Madhya Pradesh,Jabalpur,"Marhatal, Jabalpur - MPPCB",27-08-2025 16:00:00,23.168606,79.932247,NO2,35,49,46
India,Madhya Pradesh,Jabalpur,"Marhatal, Jabalpur - MPPCB",27-08-2025 16:00:00,23.168606,79.932247,OZONE,4,14,8
India,Madhya Pradesh,Jabalpur,"Suhagi, Jabalpur - JMC",27-08-2025 16:00:00,23.218135,79.957770,PM2.5,20,157,60
India,Madhya Pradesh,Katni,"Gole Bazar, Katni - MPPCB",27-08-2025 16:00:00,23.50016,80.23284,PM10,48,88,64
India,Madhya Pradesh,Mandideep,"Sector-D Industrial Area, Mandideep - MPPCB",27-08-2025 16:00:00,23.108440,77.511428,NO2,11,30,19
India,Madhya Pradesh,Mandideep,"Sector-D Industrial Area, Mandideep - MPPCB",27-08-2025 16:00:00,23.108440,77.511428,CO,19,52,42
India,Maharashtra,Latur,"Sawe Wadi, Latur - MPCB",27-08-2025 16:00:00,18.39963,76.57452,CO,4,31,20
India,Maharashtra,Mahad,"Kamble Tarf Birwadi, Mahad - MPCB",27-08-2025 16:00:00,18.1023399,73.4783687,NO2,17,24,21
India,Maharashtra,Mahad,"Kamble Tarf Birwadi, Mahad - MPCB",27-08-2025 16:00:00,18.1023399,73.4783687,NH3,3,6,4
India,Maharashtra,Malegaon,"Mahesh Nagar, Malegaon - MPCB",27-08-2025 16:00:00,20.555712,74.529236,PM2.5,27,51,39
India,Maharashtra,Malegaon,"Mahesh Nagar, Malegaon - MPCB",27-08-2025 16:00:00,20.555712,74.529236,NO2,5,20,10
India,Maharashtra,Malegaon,"Mahesh Nagar, Malegaon - MPCB",27-08-2025 16:00:00,20.555712,74.529236,SO2,3,16,10
India,Maharashtra,Mira-Bhayandar,"Bhayandar West, Mira-Bhayandar - MPCB",27-08-2025 16:00:00,19.296481,72.840923,SO2,3,4,3
India,Maharashtra,Aurangabad,"More Chowk Waluj, Aurangabad - MPCB",27-08-2025 16:00:00,19.8389439,75.244448,OZONE,9,32,18
India,Maharashtra,Aurangabad,"Rachnakar Colony, Aurangabad - MPCB",27-08-2025 16:00:00,19.863756,75.321188,PM10,15,34,24
India,Maharashtra,Aurangabad,"Rachnakar Colony, Aurangabad - MPCB",27-08-2025 16:00:00,19.863756,75.321188,SO2,8,28,19
India,Maharashtra,Badlapur,"Katrap, Badlapur - MPCB",27-08-2025 16:00:00,19.16485,73.23409,NO2,35,57,45
India,Maharashtra,Badlapur,"Katrap, Badlapur - MPCB",27-08-2025 16:00:00,19.16485,73.23409,SO2,8,18,14
India,Maharashtra,Belapur,"CBD Belapur, Belapur - MPCB",27-08-2025 16:00:00,19.0243902,73.0406721,PM10,24,49,36
India,Maharashtra,Belapur,"CBD Belapur, Belapur - MPCB",27-08-2025 16:00:00,19.0243902,73.0406721,NO2,8,18,13
India,Maharashtra,Dhule,"Deopur, Dhule - MPCB",27-08-2025 16:00:00,20.918946,74.776388,OZONE,15,43,27
India,Maharashtra,Jalgaon,"Prabhat Colony, Jalgaon - MPCB",27-08-2025 16:00:00,21.001264,75.565602,NO2,3,13,5
India,Maharashtra,Jalgaon,"Prabhat Colony, Jalgaon - MPCB",27-08-2025 16:00:00,21.001264,75.565602,SO2,5,13,8
India,Maharashtra,Jalna,"Old MIDC, Jalna - MPCB",27-08-2025 16:00:00,19.854616,75.905894,PM2.5,NA,NA,NA
India,Maharashtra,Kalyan,"Khadakpada, Kalyan - MPCB",27-08-2025 16:00:00,19.25292,73.142019,PM2.5,10,85,34
India,Maharashtra,Kalyan,"Khadakpada, Kalyan - MPCB",27-08-2025 16:00:00,19.25292,73.142019,OZONE,16,16,16
India,Maharashtra,Bhiwandi,"Gokul Nagar, Bhiwandi - MPCB",27-08-2025 16:00:00,19.309073,73.057223,CO,18,43,22
India,Maharashtra,Boisar,"Khaira, Boisar - MPCB",27-08-2025 16:00:00,19.786089,72.757971,NO2,7,17,12
India,Maharashtra,Boisar,"Khaira, Boisar - MPCB",27-08-2025 16:00:00,19.786089,72.757971,OZONE,30,31,30
India,Maharashtra,Chandrapur,"MIDC Khutala, Chandrapur - MPCB",27-08-2025 16:00:00,19.9775302,79.2337086,PM2.5,8,71,27
India,Maharashtra,Chandrapur,"MIDC Khutala, Chandrapur - MPCB",27-08-2025 16:00:00,19.9775302,79.2337086,NH3,1,3,1
India,Maharashtra,Kolhapur,"Sinchan Bhavan, Kolhapur - MPCB",27-08-2025 16:00:00,16.7143745,74.2426398,NH3,1,7,4
India,Maharashtra,Kolhapur,"Sinchan Bhavan, Kolhapur - MPCB",27-08-2025 16:00:00,16.7143745,74.2426398,CO,4,8,5
India,Maharashtra,Latur,"Sawe Wadi, Latur - MPCB",27-08-2025 16:00:00,18.39963,76.57452,PM10,26,64,38
India,Maharashtra,Ahmednagar,"Tarakpur, Ahmednagar - MPCB",27-08-2025 16:00:00,19.10122,74.73339,PM2.5,5,26,10
India,Maharashtra,Ahmednagar,"Tarakpur, Ahmednagar - MPCB",27-08-2025 16:00:00,19.10122,74.73339,PM10,11,42,27
India,Maharashtra,Mumbai,"Sion, Mumbai - MPCB",27-08-2025 16:00:00,19.047000,72.874600,CO,16,19,17
India,Maharashtra,Mumbai,"Vasai West, Mumbai - MPCB",27-08-2025 16:00:00,19.383200,72.820400,NO2,19,25,23
India,Maharashtra,Mumbai,"Vasai West, Mumbai - MPCB",27-08-2025 16:00:00,19.383200,72.820400,SO2,10,20,12
India,Maharashtra,Mumbai,"Vile Parle West, Mumbai - MPCB",27-08-2025 16:00:00,19.10861,72.83622,PM10,24,52,35
India,Maharashtra,Mumbai,"Vile Parle West, Mumbai - MPCB",27-08-2025 16:00:00,19.10861,72.83622,NH3,1,5,2
India,Maharashtra,Mumbai,"Vile Parle West, Mumbai - MPCB",27-08-2025 16:00:00,19.10861,72.83622,SO2,4,53,20
India,Maharashtra,Mumbai,"Worli, Mumbai - MPCB",27-08-2025 16:00:00,18.9936162,72.8128113,NH3,1,3,1
India,Maharashtra,Nagpur,"Ambazari, Nagpur - MPCB",27-08-2025 16:00:00,21.121801,79.04952,PM10,18,32,24
India,Maharashtra,Nagpur,"Ambazari, Nagpur - MPCB",27-08-2025 16:00:00,21.121801,79.04952,NH3,2,5,2
India,Maharashtra,Mumbai,"Kandivali West, Mumbai - BMC",27-08-2025 16:00:00,19.215859,72.831718,NH3,2,3,3
India,Maharashtra,Mumbai,"Kherwadi_Bandra East, Mumbai - MPCB",27-08-2025 16:00:00,19.0632143,72.8456324,SO2,3,3,3
India,Maharashtra,Mumbai,"Kherwadi_Bandra East, Mumbai - MPCB",27-08-2025 16:00:00,19.0632143,72.8456324,CO,1,12,1
India,Maharashtra,Mumbai,"Khindipada-Bhandup West, Mumbai - IITM",27-08-2025 16:00:00,19.1653323,72.922099,OZONE,7,32,25
India,Maharashtra,Mumbai,"Kurla, Mumbai - MPCB",27-08-2025 16:00:00,19.0863,72.8888,NO2,3,5,3
India,Maharashtra,Mumbai,"Kurla, Mumbai - MPCB",27-08-2025 16:00:00,19.0863,72.8888,SO2,36,37,37
India,Maharashtra,Mumbai,"Kurla, Mumbai - MPCB",27-08-2025 16:00:00,19.0863,72.8888,CO,2,8,2
India,Maharashtra,Mumbai,"Malad West, Mumbai - IITM",27-08-2025 16:00:00,19.19709,72.82204,PM10,27,65,45
India,Maharashtra,Mumbai,"Byculla, Mumbai - BMC",27-08-2025 16:00:00,18.9767,72.8380,NO2,6,17,11
India,Maharashtra,Mumbai,"Byculla, Mumbai - BMC",27-08-2025 16:00:00,18.9767,72.8380,NH3,1,3,1
India,Maharashtra,Mumbai,"Chakala-Andheri East, Mumbai - IITM",27-08-2025 16:00:00,19.11074,72.86084,NH3,2,2,2
India,Maharashtra,Mumbai,"Chakala-Andheri East, Mumbai - IITM",27-08-2025 16:00:00,19.11074,72.86084,OZONE,3,28,15
India,Maharashtra,Mumbai,"Chembur, Mumbai - MPCB",27-08-2025 16:00:00,19.0364585,72.8954371,NO2,18,79,36
India,Maharashtra,Mumbai,"Chembur, Mumbai - MPCB",27-08-2025 16:00:00,19.0364585,72.8954371,SO2,2,4,2
India,Maharashtra,Mumbai,"Chhatrapati Shivaji Intl. Airport (T2), Mumbai - MPCB",27-08-2025 16:00:00,19.10078,72.87462,PM10,59,68,64
India,Maharashtra,Mumbai,"Chhatrapati Shivaji Intl. Airport (T2), Mumbai - MPCB",27-08-2025 16:00:00,19.10078,72.87462,NO2,27,30,29
India,Maharashtra,Mumbai,"Chhatrapati Shivaji Intl. Airport (T2), Mumbai - MPCB",27-08-2025 16:00:00,19.10078,72.87462,CO,21,24,22
India,Maharashtra,Mumbai,"Colaba, Mumbai - MPCB",27-08-2025 16:00:00,18.910000,72.820000,PM10,14,25,18
India,Maharashtra,Mumbai,"Colaba, Mumbai - MPCB",27-08-2025 16:00:00,18.910000,72.820000,CO,22,22,22
India,Maharashtra,Mumbai,"Ghatkopar, Mumbai - BMC",27-08-2025 16:00:00,19.083694,72.920967,NH3,2,3,2
India,Maharashtra,Mumbai,"Kandivali East, Mumbai - MPCB",27-08-2025 16:00:00,19.205800,72.868200,NH3,1,1,1
India,Maharashtra,Mumbai,"Kandivali East, Mumbai - MPCB",27-08-2025 16:00:00,19.205800,72.868200,SO2,NA,NA,NA
India,Maharashtra,Mumbai,"Kandivali East, Mumbai - MPCB",27-08-2025 16:00:00,19.205800,72.868200,CO,10,17,15
India,Maharashtra,Nagpur,"Ambazari, Nagpur - MPCB",27-08-2025 16:00:00,21.121801,79.04952,CO,11,36,15
India,Maharashtra,Nagpur,"Mahal, Nagpur - MPCB",27-08-2025 16:00:00,21.14472,79.107595,PM10,16,85,40
India,Maharashtra,Nagpur,"Mahal, Nagpur - MPCB",27-08-2025 16:00:00,21.14472,79.107595,NH3,4,5,4
India,Maharashtra,Nagpur,"Mahal, Nagpur - MPCB",27-08-2025 16:00:00,21.14472,79.107595,SO2,1,58,17
India,Maharashtra,Nagpur,"Ram Nagar, Nagpur - MPCB",27-08-2025 16:00:00,21.143383,79.048912,PM2.5,13,58,30
India,Maharashtra,Nagpur,"Ram Nagar, Nagpur - MPCB",27-08-2025 16:00:00,21.143383,79.048912,SO2,1,5,2
India,Maharashtra,Nanded,"Sneh Nagar, Nanded - MPCB",27-08-2025 16:00:00,19.173852,77.296291,PM2.5,30,54,42
India,Maharashtra,Mumbai,"Malad West, Mumbai - IITM",27-08-2025 16:00:00,19.19709,72.82204,CO,2,43,8
India,Maharashtra,Mumbai,"Mindspace-Malad West, Mumbai - MPCB",27-08-2025 16:00:00,19.1878657,72.8304069,NO2,NA,NA,NA
India,Maharashtra,Mumbai,"Navy Nagar-Colaba, Mumbai - IITM",27-08-2025 16:00:00,18.897756,72.813320,NH3,2,3,2
India,Maharashtra,Mumbai,"Navy Nagar-Colaba, Mumbai - IITM",27-08-2025 16:00:00,18.897756,72.813320,CO,28,44,43
India,Maharashtra,Mumbai,"Powai, Mumbai - MPCB",27-08-2025 16:00:00,19.137500,72.915056,NH3,2,2,2
India,Maharashtra,Mumbai,"Bandra Kurla Complex, Mumbai - MPCB",27-08-2025 16:00:00,19.065931,72.862131,PM2.5,NA,NA,NA
India,Maharashtra,Mumbai,"Bandra Kurla Complex, Mumbai - MPCB",27-08-2025 16:00:00,19.065931,72.862131,PM10,NA,NA,NA
India,Maharashtra,Mumbai,"Bandra Kurla Complex, Mumbai - MPCB",27-08-2025 16:00:00,19.065931,72.862131,SO2,NA,NA,NA
India,Maharashtra,Mumbai,"Borivali East, Mumbai - IITM",27-08-2025 16:00:00,19.23241,72.86895,PM10,55,116,83
India,Maharashtra,Mumbai,"Borivali East, Mumbai - IITM",27-08-2025 16:00:00,19.23241,72.86895,CO,13,20,15
India,Maharashtra,Mumbai,"Borivali East, Mumbai - MPCB",27-08-2025 16:00:00,19.2243333,72.8658113,PM10,NA,NA,NA
India,Maharashtra,Mumbai,"Shivaji Nagar, Mumbai - BMC",27-08-2025 16:00:00,19.060498,72.923356,PM2.5,NA,NA,NA
India,Maharashtra,Mumbai,"Shivaji Nagar, Mumbai - BMC",27-08-2025 16:00:00,19.060498,72.923356,NH3,NA,NA,NA
India,Maharashtra,Mumbai,"Shivaji Nagar, Mumbai - BMC",27-08-2025 16:00:00,19.060498,72.923356,CO,NA,NA,NA
India,Maharashtra,Mumbai,"Sion, Mumbai - MPCB",27-08-2025 16:00:00,19.047000,72.874600,NH3,1,1,1
India,Maharashtra,Nanded,"Sneh Nagar, Nanded - MPCB",27-08-2025 16:00:00,19.173852,77.296291,NO2,14,19,16
India,Maharashtra,Solapur,"Ratandeep Housing Society, Solapur - MPCB",27-08-2025 16:00:00,17.65439,75.90649,PM10,6,45,27
India,Maharashtra,Solapur,"Ratandeep Housing Society, Solapur - MPCB",27-08-2025 16:00:00,17.65439,75.90649,NO2,2,30,12
India,Maharashtra,Solapur,"Ratandeep Housing Society, Solapur - MPCB",27-08-2025 16:00:00,17.65439,75.90649,SO2,1,4,2
India,Maharashtra,Solapur,"Ratandeep Housing Society, Solapur - MPCB",27-08-2025 16:00:00,17.65439,75.90649,CO,8,64,26
India,Maharashtra,Solapur,"Ratandeep Housing Society, Solapur - MPCB",27-08-2025 16:00:00,17.65439,75.90649,OZONE,5,27,14
India,Maharashtra,Thane,"Kasarvadavali, Thane - MPCB",27-08-2025 16:00:00,19.26777,72.97182,SO2,1,2,1
India,Maharashtra,Ulhasnagar,"Sidhi Vinayak Nagar, Ulhasnagar - MPCB",27-08-2025 16:00:00,19.235581,73.159121,PM10,43,94,68
India,Maharashtra,Virar,"Bolinj, Virar - MPCB",27-08-2025 16:00:00,19.4458210,72.7988231,SO2,2,5,3
India,Maharashtra,Virar,"Bolinj, Virar - MPCB",27-08-2025 16:00:00,19.4458210,72.7988231,OZONE,4,21,16
India,Meghalaya,Shillong,"Lumpyngngad, Shillong - Meghalaya PCB",27-08-2025 16:00:00,25.5586,91.8985,OZONE,1,15,5
India,Nagaland,Kohima,"PWD Junction, Kohima - NPCB",27-08-2025 16:00:00,25.6635413,94.0989878,NH3,1,1,1
India,Odisha,Angul,"Hakimapada, Angul - OSPCB",27-08-2025 16:00:00,20.832874,85.104082,PM2.5,7,80,35
India,Maharashtra,Nashik,"MIDC Ambad, Nashik - MPCB",27-08-2025 16:00:00,19.950220,73.731480,CO,10,15,14
India,Maharashtra,Nashik,"Pandav Nagari, Nashik - MPCB",27-08-2025 16:00:00,19.9591346,73.7788008,PM10,11,39,20
India,Maharashtra,Nashik,"Pandav Nagari, Nashik - MPCB",27-08-2025 16:00:00,19.9591346,73.7788008,NO2,1,8,4
India,Maharashtra,Nashik,"Pandav Nagari, Nashik - MPCB",27-08-2025 16:00:00,19.9591346,73.7788008,NH3,3,6,4
India,Maharashtra,Pimpri-Chinchwad,"Savta Mali Nagar, Pimpri-Chinchwad - IITM",27-08-2025 16:00:00,18.614767,73.799516,PM10,19,40,29
India,Maharashtra,Pimpri-Chinchwad,"Savta Mali Nagar, Pimpri-Chinchwad - IITM",27-08-2025 16:00:00,18.614767,73.799516,OZONE,5,19,14
India,Maharashtra,Pimpri-Chinchwad,"Thergaon, Pimpri Chinchwad - MPCB",27-08-2025 16:00:00,18.616318,73.765797,NH3,1,5,2
India,Maharashtra,Navi Mumbai,"Sector-2E Kalamboli, Navi Mumbai - MPCB",27-08-2025 16:00:00,19.02579,73.10297,PM2.5,7,48,32
India,Maharashtra,Navi Mumbai,"Sector-2E Kalamboli, Navi Mumbai - MPCB",27-08-2025 16:00:00,19.02579,73.10297,NH3,4,4,4
India,Maharashtra,Navi Mumbai,"Tondare-Taloja, Navi Mumbai - MPCB",27-08-2025 16:00:00,19.0630,73.1209,NH3,NA,NA,NA
India,Maharashtra,Sangli,"Vijay Nagar, Sangli - MPCB",27-08-2025 16:00:00, 16.5038,74.3623,PM2.5,11,32,20
India,Maharashtra,Solapur,"Dnyaneshwar Nagar, Solapur - MPCB",27-08-2025 16:00:00,17.6336264,75.9132495,PM2.5,5,36,14
India,Maharashtra,Solapur,"Dnyaneshwar Nagar, Solapur - MPCB",27-08-2025 16:00:00,17.6336264,75.9132495,PM10,5,60,18
India,Maharashtra,Pune,"Bhumkar Nagar, Pune - IITM",27-08-2025 16:00:00,18.605770,73.749976,PM10,24,61,37
India,Maharashtra,Pune,"Mhada Colony, Pune - IITM",27-08-2025 16:00:00,18.573040,73.927715,PM10,36,67,49
India,Maharashtra,Pune,"Mhada Colony, Pune - IITM",27-08-2025 16:00:00,18.573040,73.927715,NO2,22,31,26
India,Maharashtra,Navi Mumbai,"Mahape, Navi Mumbai - MPCB",27-08-2025 16:00:00,19.1135051,73.008978,OZONE,8,13,10
India,Maharashtra,Navi Mumbai,"Nerul, Navi Mumbai - MPCB",27-08-2025 16:00:00,19.008751,73.016620,PM10,NA,NA,NA
India,Odisha,Angul,"Hakimapada, Angul - OSPCB",27-08-2025 16:00:00,20.832874,85.104082,NH3,2,6,4
India,Odisha,Balasore,"Kalidaspur, Balasore - OSPCB",27-08-2025 16:00:00,21.51161,86.89088,PM2.5,12,45,30
India,Odisha,Balasore,"Kalidaspur, Balasore - OSPCB",27-08-2025 16:00:00,21.51161,86.89088,NH3,1,6,2
India,Odisha,Barbil,"Forest Office, Barbil - OSPCB",27-08-2025 16:00:00,22.1166054,85.3945546,OZONE,2,33,25
India,Odisha,Baripada,"Meher Colony, Baripada - OSPCB",27-08-2025 16:00:00,21.941841,86.728318,NO2,1,7,3
India,Odisha,Baripada,"Meher Colony, Baripada - OSPCB",27-08-2025 16:00:00,21.941841,86.728318,NH3,1,2,1
India,Odisha,Bhubaneswar,"Lingraj Mandir, Bhubaneswar - OSPCB",27-08-2025 16:00:00,20.240790,85.836784,PM2.5,5,73,25
India,Odisha,Bhubaneswar,"Patia, Bhubaneswar - OSPCB",27-08-2025 16:00:00,20.34652,85.81630,PM2.5,3,18,11
India,Odisha,Bhubaneswar,"Patia, Bhubaneswar - OSPCB",27-08-2025 16:00:00,20.34652,85.81630,NH3,4,7,5
India,Odisha,Bhubaneswar,"Patia, Bhubaneswar - OSPCB",27-08-2025 16:00:00,20.34652,85.81630,SO2,2,4,3
India,Odisha,Bileipada,"Tata Township, Bileipada - OSPCB",27-08-2025 16:00:00,22.06156703,85.47409613,PM2.5,19,66,31
India,Odisha,Bileipada,"Tata Township, Bileipada - OSPCB",27-08-2025 16:00:00,22.06156703,85.47409613,NO2,6,7,7
India,Odisha,Bileipada,"Tata Township, Bileipada - OSPCB",27-08-2025 16:00:00,22.06156703,85.47409613,NH3,4,4,4
India,Odisha,Bileipada,"Tata Township, Bileipada - OSPCB",27-08-2025 16:00:00,22.06156703,85.47409613,OZONE,10,14,12
India,Odisha,Cuttack,"CDA Area, Cuttack - OSPCB",27-08-2025 16:00:00,20.48891     ,85.84768     ,CO,33,109,44
India,Odisha,Keonjhar,"Jagamohanpur, Keonjhar - OSPCB",27-08-2025 16:00:00,21.643900,85.599355,SO2,16,22,17
India,Odisha,Keonjhar,"Jagamohanpur, Keonjhar - OSPCB",27-08-2025 16:00:00,21.643900,85.599355,CO,2,162,41
India,Odisha,Nayagarh,"Dabuna, Nayagarh - OSPCB",27-08-2025 16:00:00,21.847279,85.416905,NO2,1,22,11
India,Odisha,Nayagarh,"Dabuna, Nayagarh - OSPCB",27-08-2025 16:00:00,21.847279,85.416905,NH3,7,9,7
India,Odisha,Nayagarh,"Dabuna, Nayagarh - OSPCB",27-08-2025 16:00:00,21.847279,85.416905,CO,10,20,17
India,Punjab,Ludhiana,"Punjab Agricultural University, Ludhiana - PPCB",27-08-2025 16:00:00,30.9028,75.8086,SO2,5,19,9
India,Punjab,Mandi Gobindgarh,"RIMT University, Mandi Gobindgarh - PPCB",27-08-2025 16:00:00,30.649961,76.331442,SO2,6,21,15
India,Punjab,Patiala,"Model Town, Patiala - PPCB",27-08-2025 16:00:00,30.349388,76.366642,PM2.5,5,20,13
India,Punjab,Patiala,"Model Town, Patiala - PPCB",27-08-2025 16:00:00,30.349388,76.366642,PM10,11,32,22
India,Punjab,Patiala,"Model Town, Patiala - PPCB",27-08-2025 16:00:00,30.349388,76.366642,CO,12,40,16
India,Odisha,Talcher,"Talcher Coalfields,Talcher - OSPCB",27-08-2025 16:00:00,20.9360711,85.1707021,PM2.5,1,127,43
India,Odisha,Talcher,"Talcher Coalfields,Talcher - OSPCB",27-08-2025 16:00:00,20.9360711,85.1707021,NH3,5,7,6
India,Odisha,Talcher,"Talcher Coalfields,Talcher - OSPCB",27-08-2025 16:00:00,20.9360711,85.1707021,CO,8,60,37
India,Odisha,Tensa,"Barsua Iron Ore Mines, Tensa - OSPCB",27-08-2025 16:00:00,21.869985,85.167016,NH3,NA,NA,NA
India,Punjab,Rupnagar,"Ratanpura, Rupnagar - Ambuja Cements",27-08-2025 16:00:00,31.0325454,76.5623046,PM2.5,25,61,45
India,Rajasthan,Alwar,"Moti Doongri, Alwar - RSPCB",27-08-2025 16:00:00,27.554793,76.611536,CO,10,88,51
India,Rajasthan,Banswara,"Rati Talai, Banswara - RSPCB",27-08-2025 16:00:00,23.555190,74.440010,PM2.5,13,53,34
India,Rajasthan,Barmer,"Railway Colony, Barmer - RSPCB",27-08-2025 16:00:00,25.747299,71.393989,PM10,39,113,81
India,Rajasthan,Barmer,"Railway Colony, Barmer - RSPCB",27-08-2025 16:00:00,25.747299,71.393989,CO,13,34,20
India,Rajasthan,Bharatpur,"Krishna Nagar, Bharatpur - RSPCB",27-08-2025 16:00:00,27.215415,77.50873,PM2.5,3,28,12
India,Rajasthan,Bharatpur,"Krishna Nagar, Bharatpur - RSPCB",27-08-2025 16:00:00,27.215415,77.50873,NO2,11,22,16
India,Odisha,Rourkela,"Fertilizer Township, Rourkela - OSPCB",27-08-2025 16:00:00,22.18972222,84.86277778,NO2,11,11,11
India,Odisha,Rourkela,"Fertilizer Township, Rourkela - OSPCB",27-08-2025 16:00:00,22.18972222,84.86277778,CO,22,29,24
India,Punjab,Jalandhar,"Civil Line, Jalandhar - PPCB",27-08-2025 16:00:00,31.321907,75.578914,PM2.5,21,47,38
India,Punjab,Jalandhar,"Civil Line, Jalandhar - PPCB",27-08-2025 16:00:00,31.321907,75.578914,CO,33,43,37
India,Rajasthan,Bhiwadi,"Vasundhara Nagar_UIT, Bhiwadi - RSPCB",27-08-2025 16:00:00,28.207266,76.829265,NH3,1,3,2
India,Rajasthan,Bhiwadi,"Vasundhara Nagar_UIT, Bhiwadi - RSPCB",27-08-2025 16:00:00,28.207266,76.829265,SO2,1,18,11
India,Rajasthan,Bhiwadi,"Vasundhara Nagar_UIT, Bhiwadi - RSPCB",27-08-2025 16:00:00,28.207266,76.829265,OZONE,10,41,17
India,Rajasthan,Bikaner,"MM Ground, Bikaner - RSPCB",27-08-2025 16:00:00,28.018792,73.292658,PM2.5,18,117,31
India,Rajasthan,Bikaner,"MM Ground, Bikaner - RSPCB",27-08-2025 16:00:00,28.018792,73.292658,PM10,57,288,91
India,Rajasthan,Bikaner,"MM Ground, Bikaner - RSPCB",27-08-2025 16:00:00,28.018792,73.292658,NH3,3,6,4
India,Rajasthan,Bundi,"New Colony, Bundi - RSPCB",27-08-2025 16:00:00,25.435774,75.644272,PM10,10,34,21
India,Rajasthan,Bundi,"New Colony, Bundi - RSPCB",27-08-2025 16:00:00,25.435774,75.644272,NO2,4,24,11
India,Rajasthan,Bundi,"New Colony, Bundi - RSPCB",27-08-2025 16:00:00,25.435774,75.644272,NH3,1,3,2
India,Rajasthan,Bundi,"New Colony, Bundi - RSPCB",27-08-2025 16:00:00,25.435774,75.644272,SO2,5,9,7
India,Rajasthan,Dungarpur,"Bhoiwada, Dungarpur - RSPCB",27-08-2025 16:00:00,23.837789,73.714926,CO,20,30,23
India,Rajasthan,Hanumangarh,"Housing Board, Hanumangarh - RSPCB",27-08-2025 16:00:00,29.610750,74.283608,PM2.5,18,50,35
India,Rajasthan,Hanumangarh,"Housing Board, Hanumangarh - RSPCB",27-08-2025 16:00:00,29.610750,74.283608,PM10,24,92,49
India,Rajasthan,Jaipur,"Mansarovar Sector-12, Jaipur - RSPCB",27-08-2025 16:00:00,26.843698,75.766894,OZONE,28,92,65
India,Rajasthan,Jaipur,"Police Commissionerate, Jaipur - RSPCB",27-08-2025 16:00:00,26.9164092,75.7994901,PM10,24,100,62
India,Rajasthan,Jaipur,"Police Commissionerate, Jaipur - RSPCB",27-08-2025 16:00:00,26.9164092,75.7994901,NH3,7,11,9
India,Rajasthan,Jaipur,"RIICO Sitapura, Jaipur - RSPCB",27-08-2025 16:00:00,26.786682,75.827928,CO,16,48,33
India,Rajasthan,Jhalawar,"Rajlaxmi Nagar, Jhalawar - RSPCB",27-08-2025 16:00:00,24.588397,76.172782,PM10,20,68,35
India,Rajasthan,Jhalawar,"Rajlaxmi Nagar, Jhalawar - RSPCB",27-08-2025 16:00:00,24.588397,76.172782,NH3,2,3,2
India,Rajasthan,Jhunjhunu,"Indra Nagar, Jhunjhunu - RSPCB",27-08-2025 16:00:00,28.108988,75.386577,OZONE,11,51,32
India,Rajasthan,Jodhpur,"Collectorate, Jodhpur - RSPCB",27-08-2025 16:00:00,26.268249,73.0193853,NH3,1,3,2
India,Rajasthan,Jodhpur,"Digari Kalan, Jodhpur - RSPCB",27-08-2025 16:00:00,26.295810,73.082283,PM2.5,13,50,30
India,Rajasthan,Jodhpur,"Digari Kalan, Jodhpur - RSPCB",27-08-2025 16:00:00,26.295810,73.082283,NO2,4,64,13
India,Rajasthan,Jodhpur,"Digari Kalan, Jodhpur - RSPCB",27-08-2025 16:00:00,26.295810,73.082283,NH3,2,6,3
India,Rajasthan,Jodhpur,"Jhalamand, Jodhpur - RSPCB",27-08-2025 16:00:00,26.215415,73.070156,PM10,16,105,36
India,Rajasthan,Jodhpur,"Jhalamand, Jodhpur - RSPCB",27-08-2025 16:00:00,26.215415,73.070156,NH3,5,21,9
India,Rajasthan,Jodhpur,"Jhalamand, Jodhpur - RSPCB",27-08-2025 16:00:00,26.215415,73.070156,OZONE,13,68,37
India,Rajasthan,Jodhpur,"Samrat Ashok Udhyan, Jodhpur - RSPCB",27-08-2025 16:00:00,26.253384,72.976571,NO2,1,10,4
India,Rajasthan,Jodhpur,"Samrat Ashok Udhyan, Jodhpur - RSPCB",27-08-2025 16:00:00,26.253384,72.976571,NH3,2,2,2
India,Rajasthan,Jodhpur,"Samrat Ashok Udhyan, Jodhpur - RSPCB",27-08-2025 16:00:00,26.253384,72.976571,SO2,1,7,2
India,Rajasthan,Karauli,"Satyawati Vihar, Karauli - RSPCB",27-08-2025 16:00:00,26.506177,77.025989,PM10,2,39,14
India,Rajasthan,Pratapgarh,"Pragati Nagar, Pratapgarh - RSPCB",27-08-2025 16:00:00,24.041198,74.780702,PM2.5,18,71,45
India,Rajasthan,Pratapgarh,"Pragati Nagar, Pratapgarh - RSPCB",27-08-2025 16:00:00,24.041198,74.780702,PM10,25,59,46
India,Rajasthan,Pratapgarh,"Pragati Nagar, Pratapgarh - RSPCB",27-08-2025 16:00:00,24.041198,74.780702,NO2,4,22,9
India,Rajasthan,Rajsamand,"Dhoinda, Rajsamand - RSPCB",27-08-2025 16:00:00,25.036360,73.883502,NH3,11,14,12
India,Rajasthan,Sawai Madhopur,"Sahu Nagar, Sawai Madhopur - RSPCB",27-08-2025 16:00:00,26.031443,76.359327,PM2.5,5,27,16
India,Rajasthan,Jaisalmer,"Sadar Bazar, Jaisalmer - RSPCB",27-08-2025 16:00:00,26.912329,70.909168,NO2,2,18,8
India,Rajasthan,Jaisalmer,"Sadar Bazar, Jaisalmer - RSPCB",27-08-2025 16:00:00,26.912329,70.909168,SO2,6,9,7
India,Rajasthan,Jalore,"Mudtra Sili, Jalore - RSPCB",27-08-2025 16:00:00,25.344694,72.626208,NO2,5,33,14
India,Rajasthan,Jalore,"Mudtra Sili, Jalore - RSPCB",27-08-2025 16:00:00,25.344694,72.626208,NH3,2,12,4
India,Rajasthan,Bhiwadi,"RIICO Ind. Area III, Bhiwadi - RSPCB",27-08-2025 16:00:00,28.194909,76.862296,SO2,1,18,7
India,Rajasthan,Bhiwadi,"Vasundhara Nagar_UIT, Bhiwadi - RSPCB",27-08-2025 16:00:00,28.207266,76.829265,PM2.5,14,95,49
India,Rajasthan,Churu,"Subash Chowk, Churu - RSPCB",27-08-2025 16:00:00,28.296139,74.961696,SO2,2,4,3
India,Rajasthan,Churu,"Subash Chowk, Churu - RSPCB",27-08-2025 16:00:00,28.296139,74.961696,OZONE,5,79,52
India,Rajasthan,Kota,"Nayapura, Kota - RSPCB",27-08-2025 16:00:00,25.196024,75.855668,NH3,4,7,5
India,TamilNadu,Dindigul,"Mendonsa Colony, Dindigul - TNPCB",27-08-2025 16:00:00,10.358535,77.984321,PM10,8,44,29
India,TamilNadu,Dindigul,"Mendonsa Colony, Dindigul - TNPCB",27-08-2025 16:00:00,10.358535,77.984321,SO2,19,23,22
India,TamilNadu,Dindigul,"Mendonsa Colony, Dindigul - TNPCB",27-08-2025 16:00:00,10.358535,77.984321,CO,6,16,8
India,TamilNadu,Dindigul,"Mendonsa Colony, Dindigul - TNPCB",27-08-2025 16:00:00,10.358535,77.984321,OZONE,NA,NA,NA
India,TamilNadu,Gummidipoondi,"Anthoni Pillai Nagar, Gummidipoondi - TNPCB",27-08-2025 16:00:00,13.4127,80.1081,NH3,3,5,4
India,TamilNadu,Hosur,"SIPCOT Phase-1, Hosur - TNPCB",27-08-2025 16:00:00,12.746998,77.813811,SO2,39,42,40
India,TamilNadu,Kanchipuram,"Kilambi, Kanchipuram - TNPCB",27-08-2025 16:00:00,12.864618,79.659968,NH3,4,4,4
India,TamilNadu,Karur,"Kamadenu Nagar, Karur - TNPCB",27-08-2025 16:00:00,10.967820,78.080882,CO,8,38,35
India,TamilNadu,Madurai,"Uchapatti, Madurai - TNPCB",27-08-2025 16:00:00,9.865935,78.022669,NH3,4,4,4
India,TamilNadu,Nagapattinam,"Velippalayam, Nagapattinam - TNPCB",27-08-2025 16:00:00,10.798548,79.838212,PM10,NA,NA,NA
India,TamilNadu,Nagapattinam,"Velippalayam, Nagapattinam - TNPCB",27-08-2025 16:00:00,10.798548,79.838212,NH3,NA,NA,NA
India,TamilNadu,Ooty,"Bombay Castel, Ooty - TNPCB",27-08-2025 16:00:00,11.4068288,76.7138973,PM10,6,63,25
India,TamilNadu,Ooty,"Bombay Castel, Ooty - TNPCB",27-08-2025 16:00:00,11.4068288,76.7138973,NO2,2,5,4
India,TamilNadu,Perundurai,"SIPCOT Industrial Park, Perundurai - TNPCB",27-08-2025 16:00:00,11.258242,77.552761,NH3,2,2,2
India,TamilNadu,Pudukottai,"SIPCOT Nathampannai, Pudukottai - TNPCB",27-08-2025 16:00:00,10.423417,78.784889,PM2.5,5,44,17
India,TamilNadu,Pudukottai,"SIPCOT Nathampannai, Pudukottai - TNPCB",27-08-2025 16:00:00,10.423417,78.784889,PM10,9,55,23
India,TamilNadu,Ramanathapuram,"Chalai Bazaar, Ramanathapuram - TNPCB",27-08-2025 16:00:00,9.36399,78.831977,PM10,9,30,16
India,TamilNadu,Ramanathapuram,"Chalai Bazaar, Ramanathapuram - TNPCB",27-08-2025 16:00:00,9.36399,78.831977,NH3,2,2,2
India,TamilNadu,Ramanathapuram,"Chalai Bazaar, Ramanathapuram - TNPCB",27-08-2025 16:00:00,9.36399,78.831977,SO2,8,42,14
India,Rajasthan,Sirohi,"Vedhaynath Colony, Sirohi - RSPCB",27-08-2025 16:00:00,24.885261,72.857549,SO2,3,6,4
India,Rajasthan,Sirohi,"Vedhaynath Colony, Sirohi - RSPCB",27-08-2025 16:00:00,24.885261,72.857549,CO,26,40,34
India,Rajasthan,Sri Ganganagar,"Old City, Sri Ganganagar - RSPCB",27-08-2025 16:00:00,29.931624,73.864511,NO2,34,74,46
India,Rajasthan,Sri Ganganagar,"Old City, Sri Ganganagar - RSPCB",27-08-2025 16:00:00,29.931624,73.864511,NH3,3,4,4
India,Rajasthan,Tonk,"Shastri Nagar, Tonk - RSPCB",27-08-2025 16:00:00,26.159933,75.780517,PM2.5,27,58,42
India,TamilNadu,Chennai,"Arumbakkam, Chennai - TNPCB",27-08-2025 16:00:00,13.0664,80.2112 ,NO2,10,29,19
India,TamilNadu,Chennai,"Manali Village, Chennai - TNPCB",27-08-2025 16:00:00,13.1662,80.2584,NO2,5,6,5
India,TamilNadu,Chennai,"Manali Village, Chennai - TNPCB",27-08-2025 16:00:00,13.1662,80.2584,SO2,21,25,23
India,TamilNadu,Chennai,"Manali, Chennai - CPCB",27-08-2025 16:00:00,13.164544,80.26285,PM10,65,66,66
India,TamilNadu,Chennai,"Perungudi, Chennai - TNPCB",27-08-2025 16:00:00,12.9533,80.2357,NO2,2,6,3
India,Sikkim,Gangtok,"Zero Point GICI, Gangtok - SSPCB",27-08-2025 16:00:00,27.338530,88.614099,CO,1,18,7
India,TamilNadu,Ariyalur,"Keelapalur, Ariyalur - TNPCB",27-08-2025 16:00:00,11.06825,79.07033,NH3,NA,NA,NA
India,TamilNadu,Chengalpattu,"Crescent University, Chengalpattu - TNPCB",27-08-2025 16:00:00,12.8777316,80.0834807,PM2.5,17,43,31
India,TamilNadu,Thanjavur,"Parisutham Nagar, Thanjavur - TNPCB",27-08-2025 16:00:00,10.7654824,79.1389968,OZONE,5,24,12
India,TamilNadu,Thoothukudi,"Meelavittan, Thoothukudi - TNPCB",27-08-2025 16:00:00,8.816428 ,78.099039,OZONE,17,38,27
India,TamilNadu,Tirupur,"Kumaran College, Tirupur - TNPCB",27-08-2025 16:00:00,11.0973603,77.3228673,PM10,8,82,35
India,TamilNadu,Chennai,"Velachery Res. Area, Chennai - CPCB",27-08-2025 16:00:00,13.0052189,80.2398125,PM10,47,77,61
India,TamilNadu,Chennai,"Velachery Res. Area, Chennai - CPCB",27-08-2025 16:00:00,13.0052189,80.2398125,CO,NA,NA,NA
India,TamilNadu,Cuddalore,"Semmandalam, Cuddalore - TNPCB",27-08-2025 16:00:00,11.7637683,79.7499835,PM2.5,12,42,24
India,TamilNadu,Ranipet,"VOC Nagar_SIPCOT, Ranipet - TNPCB",27-08-2025 16:00:00,12.952707,79.30394,OZONE,1,1,1
India,Uttar_Pradesh,Agra,"Sanjay Palace, Agra - UPPCB",27-08-2025 16:00:00,27.19865833,78.00598056,NO2,3,6,4
India,Uttar_Pradesh,Agra,"Sector-3B Avas Vikas Colony, Agra - UPPCB",27-08-2025 16:00:00,27.19412,77.96237,PM2.5,34,109,57
India,Uttar_Pradesh,Agra,"Sector-3B Avas Vikas Colony, Agra - UPPCB",27-08-2025 16:00:00,27.19412,77.96237,NO2,14,18,16
India,Uttar_Pradesh,Agra,"Shahjahan Garden, Agra - UPPCB",27-08-2025 16:00:00,27.169338,78.03582,PM10,42,116,76
India,Uttar_Pradesh,Agra,"Shahjahan Garden, Agra - UPPCB",27-08-2025 16:00:00,27.169338,78.03582,SO2,26,34,29
India,Uttar_Pradesh,Agra,"Shahjahan Garden, Agra - UPPCB",27-08-2025 16:00:00,27.169338,78.03582,CO,6,20,8
India,Uttar_Pradesh,Agra,"Shastripuram, Agra - UPPCB",27-08-2025 16:00:00,27.19862,77.92066,PM2.5,17,87,37
India,Uttar_Pradesh,Bulandshahr,"Yamunapuram, Bulandshahr - UPPCB",27-08-2025 16:00:00,28.406963,77.849831,SO2,3,13,9
India,Uttar_Pradesh,Firozabad,"Nagla Bhau, Firozabad - UPPCB",27-08-2025 16:00:00,27.168897,78.376960,SO2,NA,NA,NA
India,Uttar_Pradesh,Firozabad,"Vibhab Nagar, Firozabad - UPPCB",27-08-2025 16:00:00,27.1594,78.3953,SO2,5,17,14
India,Uttar_Pradesh,Firozabad,"Vibhab Nagar, Firozabad - UPPCB",27-08-2025 16:00:00,27.1594,78.3953,CO,6,22,14
India,Uttar_Pradesh,Firozabad,"Vibhab Nagar, Firozabad - UPPCB",27-08-2025 16:00:00,27.1594,78.3953,OZONE,2,9,6
India,Uttar_Pradesh,Ghaziabad,"Indirapuram, Ghaziabad - UPPCB",27-08-2025 16:00:00,28.646233,77.358075,PM10,36,85,61
India,Telangana,Hyderabad,"Kompally Municipal Office, Hyderabad - TSPCB",27-08-2025 16:00:00,17.544899,78.486949,PM10,NA,NA,NA
India,Telangana,Hyderabad,"Kompally Municipal Office, Hyderabad - TSPCB",27-08-2025 16:00:00,17.544899,78.486949,NO2,NA,NA,NA
India,Telangana,Hyderabad,"Nacharam_TSIIC IALA, Hyderabad - TSPCB",27-08-2025 16:00:00,17.429398,78.569354,OZONE,16,26,17
India,Telangana,Hyderabad,"Ramachandrapuram, Hyderabad - TSPCB",27-08-2025 16:00:00,17.528544,78.286195,PM10,65,75,66
India,Telangana,Hyderabad,"Ramachandrapuram, Hyderabad - TSPCB",27-08-2025 16:00:00,17.528544,78.286195,NO2,15,15,15
India,Telangana,Hyderabad,"Sanathnagar, Hyderabad - TSPCB",27-08-2025 16:00:00,17.4559458,78.4332152,SO2,1,18,9
India,TamilNadu,Virudhunagar,"Collectorate Office, Virudhunagar - TNPCB",27-08-2025 16:00:00,9.559382,77.948828,NO2,19,19,19
India,Telangana,Hyderabad,"Bollaram Industrial Area, Hyderabad - TSPCB",27-08-2025 16:00:00,17.540891,78.358528,PM10,5,38,17
India,Telangana,Hyderabad,"Bollaram Industrial Area, Hyderabad - TSPCB",27-08-2025 16:00:00,17.540891,78.358528,NH3,2,6,4
India,Telangana,Hyderabad,"Central University, Hyderabad - TSPCB",27-08-2025 16:00:00,17.460103,78.334361,NH3,5,10,8
India,Uttar_Pradesh,Ghaziabad,"Loni, Ghaziabad - UPPCB",27-08-2025 16:00:00,28.757294,77.278792,SO2,7,13,10
India,Uttar_Pradesh,Ghaziabad,"Sanjay Nagar, Ghaziabad - UPPCB",27-08-2025 16:00:00,28.685382,77.453839,PM10,31,118,70
India,Uttar_Pradesh,Ghaziabad,"Sanjay Nagar, Ghaziabad - UPPCB",27-08-2025 16:00:00,28.685382,77.453839,NH3,3,6,4
India,Uttar_Pradesh,Ghaziabad,"Vasundhara, Ghaziabad - UPPCB",27-08-2025 16:00:00,28.6603346,77.3572563,OZONE,13,129,34
India,Uttar_Pradesh,Baghpat,"Sardar Patel Inter College, Baghpat - UPPCB",27-08-2025 16:00:00,28.964949,77.278761,PM2.5,NA,NA,NA
India,Uttar_Pradesh,Bareilly,"Civil Lines, Bareilly - UPPCB",27-08-2025 16:00:00,28.359581,79.414455,PM10,3,8,5
India,Uttar_Pradesh,Bareilly,"Civil Lines, Bareilly - UPPCB",27-08-2025 16:00:00,28.359581,79.414455,SO2,101,107,103
India,Uttar_Pradesh,Bareilly,"Civil Lines, Bareilly - UPPCB",27-08-2025 16:00:00,28.359581,79.414455,CO,3,8,4
India,Uttar_Pradesh,Agra,"Manoharpur, Agra - UPPCB",27-08-2025 16:00:00,27.23711,78.01936,NO2,26,27,27
India,Uttar_Pradesh,Agra,"Manoharpur, Agra - UPPCB",27-08-2025 16:00:00,27.23711,78.01936,NH3,5,6,5
India,Uttar_Pradesh,Agra,"Manoharpur, Agra - UPPCB",27-08-2025 16:00:00,27.23711,78.01936,SO2,20,36,24
India,Uttar_Pradesh,Agra,"Rohta, Agra - UPPCB",27-08-2025 16:00:00,27.106972,78.000111,PM10,19,70,43
India,Telangana,Hyderabad,"ECIL Kapra, Hyderabad - TSPCB",27-08-2025 16:00:00,17.470431,78.566959,PM2.5,42,71,56
India,Telangana,Hyderabad,"ICRISAT Patancheru, Hyderabad - TSPCB",27-08-2025 16:00:00,17.518400,78.278777,CO,10,18,12
India,Telangana,Hyderabad,"IITH Kandi, Hyderabad - TSPCB",27-08-2025 16:00:00,17.585705,78.126199,PM10,70,70,70
India,Telangana,Hyderabad,"Somajiguda, Hyderabad - TSPCB",27-08-2025 16:00:00,17.417094,78.457437,PM2.5,NA,NA,NA
India,Telangana,Hyderabad,"Somajiguda, Hyderabad - TSPCB",27-08-2025 16:00:00,17.417094,78.457437,NH3,2,3,3
India,Uttar_Pradesh,Noida,"Sector - 62, Noida - IMD",27-08-2025 16:00:00,28.6245479,77.3577104,OZONE,7,36,20
India,Uttar_Pradesh,Noida,"Sector-1, Noida - UPPCB",27-08-2025 16:00:00,28.5898,77.3101,NO2,24,80,55
India,Uttar_Pradesh,Noida,"Sector-1, Noida - UPPCB",27-08-2025 16:00:00,28.5898,77.3101,CO,7,84,20
India,Uttar_Pradesh,Noida,"Sector-116, Noida - UPPCB",27-08-2025 16:00:00,28.569230,77.393848,PM2.5,15,99,47
India,Uttar_Pradesh,Noida,"Sector-116, Noida - UPPCB",27-08-2025 16:00:00,28.569230,77.393848,NO2,23,56,37
India,Uttar_Pradesh,Noida,"Sector-116, Noida - UPPCB",27-08-2025 16:00:00,28.569230,77.393848,NH3,6,30,22
India,Uttar_Pradesh,Noida,"Sector-116, Noida - UPPCB",27-08-2025 16:00:00,28.569230,77.393848,OZONE,5,42,26
India,Uttar_Pradesh,Prayagraj,"Jhunsi, Prayagraj - UPPCB",27-08-2025 16:00:00,25.425602,81.917152,SO2,28,29,28
India,Uttar_Pradesh,Prayagraj,"Motilal Nehru NIT, Prayagraj - UPPCB",27-08-2025 16:00:00,25.494,81.863,PM10,27,37,31
India,Uttar_Pradesh,Prayagraj,"Motilal Nehru NIT, Prayagraj - UPPCB",27-08-2025 16:00:00,25.494,81.863,OZONE,11,22,18
India,Uttar_Pradesh,Prayagraj,"Nagar Nigam, Prayagraj - UPPCB",27-08-2025 16:00:00,25.44919916 ,81.82735986 ,PM2.5,38,88,51
India,Uttar_Pradesh,Prayagraj,"Nagar Nigam, Prayagraj - UPPCB",27-08-2025 16:00:00,25.44919916 ,81.82735986 ,CO,14,46,20
India,Uttar_Pradesh,Varanasi,"Ardhali Bazar, Varanasi - UPPCB",27-08-2025 16:00:00,25.3505986,82.9083074,PM2.5,29,55,40
India,Uttar_Pradesh,Varanasi,"Ardhali Bazar, Varanasi - UPPCB",27-08-2025 16:00:00,25.3505986,82.9083074,PM10,37,73,52
India,Uttar_Pradesh,Varanasi,"Bhelupur, Varanasi - UPPCB",27-08-2025 16:00:00,25.301778,82.996789,PM2.5,18,49,34
India,Uttar_Pradesh,Varanasi,"IESD Banaras Hindu University, Varanasi - UPPCB",27-08-2025 16:00:00,25.262326,82.995408,PM2.5,11,77,47
India,Uttar_Pradesh,Moradabad,"Kashiram Nagar, Moradabad - UPPCB",27-08-2025 16:00:00,28.849399,78.742362,SO2,25,69,51
India,Uttar_Pradesh,Moradabad,"Kashiram Nagar, Moradabad - UPPCB",27-08-2025 16:00:00,28.849399,78.742362,OZONE,19,57,32
India,Uttar_Pradesh,Moradabad,"Transport Nagar, Moradabad - UPPCB",27-08-2025 16:00:00,28.802625,78.753728,PM10,35,111,71
India,Uttar_Pradesh,Noida,"Sector - 125, Noida - UPPCB",27-08-2025 16:00:00,28.5447608,77.3231257,PM10,19,98,59
India,Uttar_Pradesh,Noida,"Sector - 125, Noida - UPPCB",27-08-2025 16:00:00,28.5447608,77.3231257,NH3,7,7,7
India,Uttar_Pradesh,Noida,"Sector - 125, Noida - UPPCB",27-08-2025 16:00:00,28.5447608,77.3231257,SO2,5,15,10
India,Uttar_Pradesh,Noida,"Sector - 62, Noida - IMD",27-08-2025 16:00:00,28.6245479,77.3577104,NO2,NA,NA,NA
India,Uttar_Pradesh,Moradabad,"Buddhi Vihar, Moradabad - UPPCB",27-08-2025 16:00:00,28.83526,78.74460,NO2,25,26,26
India,Uttar_Pradesh,Moradabad,"Buddhi Vihar, Moradabad - UPPCB",27-08-2025 16:00:00,28.83526,78.74460,OZONE,14,39,31
India,Uttar_Pradesh,Moradabad,"Eco Herbal Park, Moradabad - UPPCB",27-08-2025 16:00:00,28.840739,78.697531,PM2.5,23,60,42
India,Uttar_Pradesh,Moradabad,"Employment Office, Moradabad - UPPCB",27-08-2025 16:00:00,28.88528,78.73880,SO2,36,44,38
India,Uttar_Pradesh,Moradabad,"Jigar Colony, Moradabad - UPPCB",27-08-2025 16:00:00,28.856664,78.772638,SO2,30,52,45
India,Uttar_Pradesh,Moradabad,"Jigar Colony, Moradabad - UPPCB",27-08-2025 16:00:00,28.856664,78.772638,CO,40,40,40
India,Uttar_Pradesh,Moradabad,"Jigar Colony, Moradabad - UPPCB",27-08-2025 16:00:00,28.856664,78.772638,OZONE,18,20,19
India,Uttar_Pradesh,Lucknow,"Gomti Nagar, Lucknow - UPPCB",27-08-2025 16:00:00,26.868120,81.005119,NO2,9,10,9
India,Uttar_Pradesh,Lucknow,"Gomti Nagar, Lucknow - UPPCB",27-08-2025 16:00:00,26.868120,81.005119,OZONE,39,46,44
India,Uttar_Pradesh,Lucknow,"Kendriya Vidyalaya, Lucknow - CPCB",27-08-2025 16:00:00,26.906111,80.948222,PM10,10,63,43
India,Uttar_Pradesh,Lucknow,"Kukrail Picnic Spot-1, Lucknow - UPPCB",27-08-2025 16:00:00,26.90723,80.98579,NO2,22,24,23
India,Uttar_Pradesh,Lucknow,"Kukrail Picnic Spot-1, Lucknow - UPPCB",27-08-2025 16:00:00,26.90723,80.98579,CO,7,28,21
India,Uttar_Pradesh,Lucknow,"Lalbagh, Lucknow - CPCB",27-08-2025 16:00:00,26.8458805,80.9365541,NH3,14,23,16
India,Uttar_Pradesh,Gorakhpur,"Madan Mohan Malaviya University of Technology, Gorakhpur - UPPCB",27-08-2025 16:00:00,26.730136,83.433859,OZONE,24,85,35
India,Uttar_Pradesh,Greater Noida,"Knowledge Park - V, Greater Noida - UPPCB",27-08-2025 16:00:00,28.557054,77.453663,PM2.5,13,80,46
India,Uttar_Pradesh,Greater Noida,"Knowledge Park - V, Greater Noida - UPPCB",27-08-2025 16:00:00,28.557054,77.453663,NH3,4,7,5
India,Uttar_Pradesh,Jhansi,"Shivaji Nagar, Jhansi - UPPCB",27-08-2025 16:00:00,25.4547,78.6039,NO2,6,6,6
India,Uttar_Pradesh,Kanpur,"FTI Kidwai Nagar, Kanpur - UPPCB",27-08-2025 16:00:00,26.428282,80.327067,PM10,NA,NA,NA
India,Uttar_Pradesh,Kanpur,"FTI Kidwai Nagar, Kanpur - UPPCB",27-08-2025 16:00:00,26.428282,80.327067,NO2,NA,NA,NA
India,Uttar_Pradesh,Kanpur,"NSI Kalyanpur, Kanpur - UPPCB",27-08-2025 16:00:00,26.509954,80.249612,OZONE,16,18,17
India,Uttar_Pradesh,Khurja,"Kalindi Kunj, Khurja - UPPCB",27-08-2025 16:00:00,28.2348927,77.8683002,PM2.5,12,48,24
India,Uttar_Pradesh,Lucknow,"Talkatora District Industries Center, Lucknow - CPCB",27-08-2025 16:00:00,26.83399722,80.8917361,SO2,1,22,6
India,Uttar_Pradesh,Meerut,"Ganga Nagar, Meerut - UPPCB",27-08-2025 16:00:00,28.999264,77.7590354,NH3,NA,NA,NA
India,Uttar_Pradesh,Lucknow,"B R Ambedkar University, Lucknow - UPPCB",27-08-2025 16:00:00,26.766433,80.927299,PM2.5,10,130,69
India,Uttar_Pradesh,Lucknow,"B R Ambedkar University, Lucknow - UPPCB",27-08-2025 16:00:00,26.766433,80.927299,NO2,11,12,12
India,Uttar_Pradesh,Lucknow,"B R Ambedkar University, Lucknow - UPPCB",27-08-2025 16:00:00,26.766433,80.927299,OZONE,28,128,60
India,Uttar_Pradesh,Varanasi,"IESD Banaras Hindu University, Varanasi - UPPCB",27-08-2025 16:00:00,25.262326,82.995408,NH3,1,2,1
India,Uttar_Pradesh,Varanasi,"Maldahiya, Varanasi - UPPCB",27-08-2025 16:00:00,25.32393,82.99687,PM10,23,47,33
India,Uttar_Pradesh,Vrindavan,"Omex Eternity, Vrindavan - UPPCB",27-08-2025 16:00:00,27.5714090,77.6557570,PM2.5,9,88,36
India,Uttar_Pradesh,Vrindavan,"Omex Eternity, Vrindavan - UPPCB",27-08-2025 16:00:00,27.5714090,77.6557570,SO2,6,18,8
India,Uttarakhand,Dehradun,"Doon University, Dehradun - UKPCB",27-08-2025 16:00:00,30.269444,78.044167,OZONE,14,23,20
India,Uttarakhand,Kashipur,"Govt. Girls Inter College, Kashipur - UKPCB",27-08-2025 16:00:00,29.2124114,78.9611753,PM10,20,67,37
India,Uttarakhand,Kashipur,"Govt. Girls Inter College, Kashipur - UKPCB",27-08-2025 16:00:00,29.2124114,78.9611753,NO2,6,12,9
India,Uttarakhand,Kashipur,"Govt. Girls Inter College, Kashipur - UKPCB",27-08-2025 16:00:00,29.2124114,78.9611753,OZONE,3,39,18
India,Uttarakhand,Rishikesh,"Shivaji Nagar, Rishikesh - UKPCB",27-08-2025 16:00:00,30.075911,78.2859547,SO2,NA,NA,NA
India,Uttarakhand,Rishikesh,"Shivaji Nagar, Rishikesh - UKPCB",27-08-2025 16:00:00,30.075911,78.2859547,CO,20,35,26
India,Uttarakhand,Rishikesh,"Shivaji Nagar, Rishikesh - UKPCB",27-08-2025 16:00:00,30.075911,78.2859547,OZONE,1,6,3
India,West_Bengal,Asansol,"Asansol Court Area, Asansol - WBPCB",27-08-2025 16:00:00,23.685297,86.945968,PM10,32,71,44
India,West_Bengal,Asansol,"Asansol Court Area, Asansol - WBPCB",27-08-2025 16:00:00,23.685297,86.945968,OZONE,13,33,20
India,West_Bengal,Asansol,"Evelyn Lodge, Asansol - WBPCB",27-08-2025 16:00:00,23.6979360,86.9443950,PM2.5,15,50,27
India,West_Bengal,Asansol,"Mahabir Colliery, Asansol - WBPCB",27-08-2025 16:00:00,23.6181830,87.1057180,NO2,NA,NA,NA
India,West_Bengal,Asansol,"Trivenidevi Bhalotia College, Asansol - WBPCB",27-08-2025 16:00:00,23.616515,87.119133,PM2.5,7,68,32
India,West_Bengal,Asansol,"Trivenidevi Bhalotia College, Asansol - WBPCB",27-08-2025 16:00:00,23.616515,87.119133,PM10,27,85,51
India,West_Bengal,Asansol,"Trivenidevi Bhalotia College, Asansol - WBPCB",27-08-2025 16:00:00,23.616515,87.119133,NH3,NA,NA,NA
India,West_Bengal,Asansol,"Trivenidevi Bhalotia College, Asansol - WBPCB",27-08-2025 16:00:00,23.616515,87.119133,SO2,9,11,10
India,West_Bengal,Barrackpore,"SVSPA Campus, Barrackpore - WBPCB",27-08-2025 16:00:00,22.7605581,88.3617589,NH3,12,15,13
India,West_Bengal,Barrackpore,"SVSPA Campus, Barrackpore - WBPCB",27-08-2025 16:00:00,22.7605581,88.3617589,OZONE,4,12,9
India,West_Bengal,Durgapur,"Mahishkapur Road_B-Zone, Durgapur - WBPCB",27-08-2025 16:00:00,23.567923,87.306843,NO2,6,13,9
India,West_Bengal,Durgapur,"Mahishkapur Road_B-Zone, Durgapur - WBPCB",27-08-2025 16:00:00,23.567923,87.306843,SO2,8,10,9
India,West_Bengal,Durgapur,"Mahishkapur Road_B-Zone, Durgapur - WBPCB",27-08-2025 16:00:00,23.567923,87.306843,OZONE,10,35,26
India,West_Bengal,Durgapur,"PCBL Residential Complex, Durgapur - WBPCB",27-08-2025 16:00:00,23.5087640,87.3544400,PM10,28,58,39
India,West_Bengal,Durgapur,"Womens College_City Center, Durgapur - WBPCB (Formerly known as Sidhu Kanhu Indoor Stadium)",27-08-2025 16:00:00,23.549395,87.300496,PM10,21,76,48
India,West_Bengal,Durgapur,"Womens College_City Center, Durgapur - WBPCB (Formerly known as Sidhu Kanhu Indoor Stadium)",27-08-2025 16:00:00,23.549395,87.300496,CO,16,44,22
India,West_Bengal,Haldia,"Priyambada Housing Estate, Haldia - WBPCB",27-08-2025 16:00:00,22.06047,88.109737,PM2.5,15,21,17
India,West_Bengal,Haldia,"Priyambada Housing Estate, Haldia - WBPCB",27-08-2025 16:00:00,22.06047,88.109737,PM10,20,50,30
India,West_Bengal,Haldia,"Priyambada Housing Estate, Haldia - WBPCB",27-08-2025 16:00:00,22.06047,88.109737,SO2,10,12,11
India,West_Bengal,Howrah,"Belur Math, Howrah - WBPCB",27-08-2025 16:00:00,22.629801,88.352017,PM2.5,5,12,7
India,West_Bengal,Howrah,"Belur Math, Howrah - WBPCB",27-08-2025 16:00:00,22.629801,88.352017,OZONE,10,25,17
India,West_Bengal,Howrah,"Botanical Garden, Howrah - WBPCB",27-08-2025 16:00:00,22.554954,88.292568,PM2.5,7,36,22
India,West_Bengal,Howrah,"Botanical Garden, Howrah - WBPCB",27-08-2025 16:00:00,22.554954,88.292568,SO2,13,14,13
India,West_Bengal,Howrah,"Botanical Garden, Howrah - WBPCB",27-08-2025 16:00:00,22.554954,88.292568,CO,58,64,59
India,West_Bengal,Howrah,"Ghusuri, Howrah - WBPCB",27-08-2025 16:00:00,22.611968,88.347422,PM2.5,16,33,22
India,West_Bengal,Kolkata,"Ballygunge, Kolkata - WBPCB",27-08-2025 16:00:00,22.5367507,88.3638022,PM10,30,49,36
India,West_Bengal,Kolkata,"Ballygunge, Kolkata - WBPCB",27-08-2025 16:00:00,22.5367507,88.3638022,SO2,2,5,4
India,West_Bengal,Kolkata,"Ballygunge, Kolkata - WBPCB",27-08-2025 16:00:00,22.5367507,88.3638022,OZONE,14,19,17
India,West_Bengal,Kolkata,"Jadavpur, Kolkata - WBPCB",27-08-2025 16:00:00,22.49929,88.36917,OZONE,15,29,25
India,West_Bengal,Kolkata,"Rabindra Bharati University, Kolkata - WBPCB",27-08-2025 16:00:00,22.627847,88.380669,CO,21,25,22
India,West_Bengal,Kolkata,"Victoria, Kolkata - WBPCB",27-08-2025 16:00:00,22.5448082,88.3403691,PM2.5,12,31,20
India,West_Bengal,Kolkata,"Victoria, Kolkata - WBPCB",27-08-2025 16:00:00,22.5448082,88.3403691,NH3,4,5,4
India,West_Bengal,Kolkata,"Victoria, Kolkata - WBPCB",27-08-2025 16:00:00,22.5448082,88.3403691,CO,10,66,39
India,West_Bengal,Kolkata,"Victoria, Kolkata - WBPCB",27-08-2025 16:00:00,22.5448082,88.3403691,OZONE,16,51,31
India,Bihar,Bhagalpur,"DM Office_Kachari Chowk, Bhagalpur - BSPCB",27-08-2025 16:00:00,25.251013,86.989001,OZONE,13,21,17
India,Bihar,Bhagalpur,"Mayaganj, Bhagalpur - BSPCB",27-08-2025 16:00:00,25.265194,87.012947,PM10,NA,NA,NA
India,Bihar,Bhagalpur,"Mayaganj, Bhagalpur - BSPCB",27-08-2025 16:00:00,25.265194,87.012947,OZONE,5,13,9
India,Bihar,Bihar Sharif,"D M Colony, Bihar Sharif - BSPCB",27-08-2025 16:00:00,25.204762,85.514960,NO2,9,10,9
India,Bihar,Bihar Sharif,"D M Colony, Bihar Sharif - BSPCB",27-08-2025 16:00:00,25.204762,85.514960,NH3,2,2,2
India,Bihar,Bihar Sharif,"D M Colony, Bihar Sharif - BSPCB",27-08-2025 16:00:00,25.204762,85.514960,OZONE,7,42,27
India,Bihar,Buxar,"Charitra Van, Buxar - BSPCB",27-08-2025 16:00:00,25.567520,83.966379,PM2.5,60,63,63
India,Andhra_Pradesh,Chittoor,"Gangineni Cheruvu, Chittoor - APPCB",27-08-2025 16:00:00,13.204880,79.097889,PM2.5,60,82,73
India,Andhra_Pradesh,Chittoor,"Gangineni Cheruvu, Chittoor - APPCB",27-08-2025 16:00:00,13.204880,79.097889,OZONE,49,70,59
India,Andhra_Pradesh,Kadapa,"Yerramukkapalli, Kadapa - APPCB",27-08-2025 16:00:00,14.465052,78.824187,CO,7,36,26
India,Andhra_Pradesh,Rajamahendravaram,"Anand Kala Kshetram, Rajamahendravaram - APPCB",27-08-2025 16:00:00,16.9872867,81.7363176,PM10,4,36,16
India,Andhra_Pradesh,Tirupati,"Vaikuntapuram, Tirupati - APPCB",27-08-2025 16:00:00,13.615387,79.409230,PM10,54,78,63
India,Assam,Nalbari,"Bata Chowk, Nalbari - PCBA",27-08-2025 16:00:00,26.446912,91.439057,PM10,33,89,39
India,Assam,Nalbari,"Bata Chowk, Nalbari - PCBA",27-08-2025 16:00:00,26.446912,91.439057,NH3,1,9,2
India,Assam,Silchar,"Tarapur, Silchar - PCBA",27-08-2025 16:00:00,24.82827,92.79525,PM10,45,61,49
India,Assam,Silchar,"Tarapur, Silchar - PCBA",27-08-2025 16:00:00,24.82827,92.79525,OZONE,2,16,10
India,Assam,Sivasagar,"Girls College, Sivasagar - PCBA",27-08-2025 16:00:00,26.987634,94.636574,NO2,9,35,14
India,Assam,Sivasagar,"Girls College, Sivasagar - PCBA",27-08-2025 16:00:00,26.987634,94.636574,NH3,3,14,4
India,Bihar,Buxar,"Charitra Van, Buxar - BSPCB",27-08-2025 16:00:00,25.567520,83.966379,SO2,2,16,7
India,Bihar,Chhapra,"Darshan Nagar, Chhapra - BSPCB",27-08-2025 16:00:00,25.7808257,84.7446768,NO2,114,114,114
India,Bihar,Chhapra,"Darshan Nagar, Chhapra - BSPCB",27-08-2025 16:00:00,25.7808257,84.7446768,OZONE,2,40,31
India,Bihar,Gaya,"Kareemganj, Gaya - BSPCB",27-08-2025 16:00:00,24.792403,84.992416,PM10,9,163,81
India,Bihar,Gaya,"Kareemganj, Gaya - BSPCB",27-08-2025 16:00:00,24.792403,84.992416,NO2,3,7,5
India,Bihar,Gaya,"Kareemganj, Gaya - BSPCB",27-08-2025 16:00:00,24.792403,84.992416,NH3,5,6,5
India,Arunachal_Pradesh,Naharlagun,"Naharlagun, Naharlagun - APSPCB",27-08-2025 16:00:00,27.103358,93.679645,SO2,7,8,7
India,Assam,Guwahati,"LGBI Airport, Guwahati - PCBA",27-08-2025 16:00:00,26.10887,91.589544,PM10,43,48,44
India,Assam,Guwahati,"LGBI Airport, Guwahati - PCBA",27-08-2025 16:00:00,26.10887,91.589544,OZONE,13,17,15
India,Assam,Nagaon,"Christianpatty, Nagaon - PCBA",27-08-2025 16:00:00,26.349082,92.68449,PM2.5,51,76,59
India,Andhra_Pradesh,Tirupati,"Vaikuntapuram, Tirupati - APPCB",27-08-2025 16:00:00,13.615387,79.409230,CO,9,20,11
India,Andhra_Pradesh,Vijayawada,"HB Colony, Vijayawada - APPCB",27-08-2025 16:00:00,16.536107,80.594233,OZONE,6,14,10
India,Andhra_Pradesh,Vijayawada,"Rajiv Gandhi Park, Vijayawada - APPCB",27-08-2025 16:00:00,16.509717,80.612222,PM2.5,56,67,62
India,Andhra_Pradesh,Vijayawada,"Rajiv Nagar, Vijayawada - APPCB",27-08-2025 16:00:00,16.554731,80.649110,PM10,62,90,74
India,Andhra_Pradesh,Vijayawada,"Rajiv Nagar, Vijayawada - APPCB",27-08-2025 16:00:00,16.554731,80.649110,CO,19,34,23
India,Andhra_Pradesh,Visakhapatnam,"GVM Corporation, Visakhapatnam - APPCB",27-08-2025 16:00:00,17.72,83.3,NH3,3,3,3
India,Andhra_Pradesh,Visakhapatnam,"GVM Corporation, Visakhapatnam - APPCB",27-08-2025 16:00:00,17.72,83.3,CO,8,52,22
India,Bihar,Gaya,"SFTI Kusdihra, Gaya - BSPCB",27-08-2025 16:00:00,24.762518,84.982348,SO2,7,9,8
India,Bihar,Hajipur,"Industrial Area, Hajipur - BSPCB",27-08-2025 16:00:00,25.697189,85.245900,PM2.5,40,125,72
India,Bihar,Hajipur,"Industrial Area, Hajipur - BSPCB",27-08-2025 16:00:00,25.697189,85.245900,NO2,8,14,10
India,Assam,Sivasagar,"Girls College, Sivasagar - PCBA",27-08-2025 16:00:00,26.987634,94.636574,OZONE,1,5,3
India,Bihar,Arrah,"New DM Office, Arrah - BSPCB",27-08-2025 16:00:00,25.5626095,84.663264,NO2,6,9,7
India,Andhra_Pradesh,Anantapur,"Gulzarpet, Anantapur - APPCB",27-08-2025 16:00:00,14.675886,77.593027,SO2,15,17,16
India,Andhra_Pradesh,Anantapur,"Gulzarpet, Anantapur - APPCB",27-08-2025 16:00:00,14.675886,77.593027,OZONE,13,17,15
India,Bihar,Purnia,"Mariam Nagar, Purnia - BSPCB",27-08-2025 16:00:00,25.366336,87.117468,CO,1,156,27
India,Bihar,Rajgir,"Dangi Tola, Rajgir - BSPCB",27-08-2025 16:00:00,25.03280,85.41948,PM2.5,NA,NA,NA
India,Bihar,Saharsa,"Police Line, Saharsa - BSPCB",27-08-2025 16:00:00,25.892357,86.590325,SO2,15,17,16
India,Bihar,Samastipur,"DM Office_Kasipur, Samastipur - BSPCB",27-08-2025 16:00:00,25.859655,85.77944,NO2,1,2,1
India,Bihar,Samastipur,"DM Office_Kasipur, Samastipur - BSPCB",27-08-2025 16:00:00,25.859655,85.77944,NH3,2,2,2
India,Bihar,Samastipur,"DM Office_Kasipur, Samastipur - BSPCB",27-08-2025 16:00:00,25.859655,85.77944,OZONE,3,13,10
India,Bihar,Sasaram,"Dada Peer, Sasaram - BSPCB",27-08-2025 16:00:00,24.952822,84.002396,NH3,2,5,3
India,Chhattisgarh,Korba,"Rampur, Korba - CECB",27-08-2025 16:00:00,22.368195,82.746431,CO,5,10,8
India,Chhattisgarh,Korba,"Rampur, Korba - CECB",27-08-2025 16:00:00,22.368195,82.746431,OZONE,9,26,17
India,Chhattisgarh,Korba,"Urja Nagar, Korba - CECB",27-08-2025 16:00:00,22.348441,82.549611,NO2,34,40,36
India,Chhattisgarh,Korba,"Urja Nagar, Korba - CECB",27-08-2025 16:00:00,22.348441,82.549611,SO2,6,10,8
India,Chhattisgarh,Kunjemura,"OP Jindal School, Kunjemura - CECB",27-08-2025 16:00:00,22.126650,83.483212,SO2,3,7,5
India,Chhattisgarh,Milupara,"Govt. Higher Secondary School, Milupara - CECB",27-08-2025 16:00:00,22.1910172,83.5197009,NO2,NA,NA,NA
India,Chhattisgarh,Milupara,"Govt. Higher Secondary School, Milupara - CECB",27-08-2025 16:00:00,22.1910172,83.5197009,NH3,NA,NA,NA
India,Chandigarh,Chandigarh,"Sector-25, Chandigarh - CPCC",27-08-2025 16:00:00,30.751462,76.762879,PM10,26,57,42
India,Chandigarh,Chandigarh,"Sector-53, Chandigarh - CPCC",27-08-2025 16:00:00,30.719859,76.738637,PM2.5,NA,NA,NA
India,Chandigarh,Chandigarh,"Sector-53, Chandigarh - CPCC",27-08-2025 16:00:00,30.719859,76.738637,NO2,NA,NA,NA
India,Chandigarh,Chandigarh,"Sector-53, Chandigarh - CPCC",27-08-2025 16:00:00,30.719859,76.738637,SO2,NA,NA,NA
India,Chandigarh,Chandigarh,"Sector-53, Chandigarh - CPCC",27-08-2025 16:00:00,30.719859,76.738637,CO,42,45,44
India,Chhattisgarh,Bhilai,"32Bungalows, Bhilai - CECB",27-08-2025 16:00:00,21.194815,81.314770,PM10,NA,NA,NA
India,Chhattisgarh,Bhilai,"32Bungalows, Bhilai - CECB",27-08-2025 16:00:00,21.194815,81.314770,NH3,NA,NA,NA
India,Chhattisgarh,Bhilai,"32Bungalows, Bhilai - CECB",27-08-2025 16:00:00,21.194815,81.314770,CO,5,34,19
India,Bihar,Muzaffarpur,"Muzaffarpur Collectorate, Muzaffarpur - BSPCB",27-08-2025 16:00:00,26.1209,85.3647,SO2,5,7,6
India,Bihar,Patna,"DRM Office Danapur, Patna - BSPCB",27-08-2025 16:00:00,25.586562,85.043586,CO,30,52,35
India,Bihar,Patna,"Govt. High School Shikarpur, Patna - BSPCB",27-08-2025 16:00:00,25.592539,85.227158,PM10,32,65,46
India,Bihar,Patna,"Govt. High School Shikarpur, Patna - BSPCB",27-08-2025 16:00:00,25.592539,85.227158,NH3,3,4,3
India,Bihar,Patna,"IGSC Planetarium Complex, Patna - BSPCB",27-08-2025 16:00:00,25.610369,85.132568,PM2.5,38,250,84
India,Chhattisgarh,Bhilai,"Civic Center, Bhilai - Bhilai Steel Plant",27-08-2025 16:00:00,21.185571,81.343175,SO2,NA,NA,NA
India,Chhattisgarh,Bhilai,"Civic Center, Bhilai - Bhilai Steel Plant",27-08-2025 16:00:00,21.185571,81.343175,OZONE,NA,NA,NA
India,Chhattisgarh,Bhilai,"Hathkhoj, Bhilai - CECB",27-08-2025 16:00:00,21.224231,81.408350,NH3,3,4,4
India,Chhattisgarh,Bhilai,"Hathkhoj, Bhilai - CECB",27-08-2025 16:00:00,21.224231,81.408350,SO2,6,9,8
India,Chhattisgarh,Bhilai,"Hathkhoj, Bhilai - CECB",27-08-2025 16:00:00,21.224231,81.408350,CO,8,68,15
India,Chhattisgarh,Chhal,"Nawapara SECL Colony, Chhal - CECB",27-08-2025 16:00:00,22.118125,83.140608,OZONE,7,31,16
India,Bihar,Motihari,"Gandak Colony, Motihari - BSPCB",27-08-2025 16:00:00,26.63086,84.90051,NH3,3,3,3
India,Bihar,Motihari,"Gandak Colony, Motihari - BSPCB",27-08-2025 16:00:00,26.63086,84.90051,CO,1,9,2
India,Bihar,Munger,"Town Hall, Munger - BSPCB",27-08-2025 16:00:00,25.376776,86.471523,NH3,3,7,5
India,Bihar,Muzaffarpur,"Buddha Colony, Muzaffarpur - BSPCB",27-08-2025 16:00:00,26.11442,85.39813,NO2,7,17,11
India,Bihar,Kishanganj,"SDM Office_Khagra, Kishanganj - BSPCB",27-08-2025 16:00:00,26.0881305,87.93840336,PM10,NA,NA,NA
India,Bihar,Manguraha,"Forest Rest House, Manguraha - BSPCB",27-08-2025 16:00:00,27.308328,84.531742,PM2.5,2,32,14
India,Bihar,Motihari,"Gandak Colony, Motihari - BSPCB",27-08-2025 16:00:00,26.63086,84.90051,PM2.5,18,500,217
India,Bihar,Sasaram,"Dada Peer, Sasaram - BSPCB",27-08-2025 16:00:00,24.952822,84.002396,CO,40,104,50
India,Bihar,Siwan,"Chitragupta Nagar, Siwan - BSPCB",27-08-2025 16:00:00,26.2271665,84.3570427,CO,44,48,46
India,Chandigarh,Chandigarh,"Sector 22, Chandigarh - CPCC",27-08-2025 16:00:00,30.735567,76.775714,SO2,1,5,3
India,Bihar,Patna,"Muradpur, Patna - BSPCB",27-08-2025 16:00:00,25.619651,85.147382,PM2.5,29,85,61
India,Bihar,Patna,"Rajbansi Nagar, Patna - BSPCB",27-08-2025 16:00:00,25.599486,85.113666,PM10,34,66,51
India,Bihar,Patna,"Samanpura, Patna - BSPCB",27-08-2025 16:00:00,25.596727,85.085624,CO,15,60,19
India,Delhi,Delhi,"Patparganj, Delhi - DPCC",27-08-2025 16:00:00,28.623763,77.287209,CO,2,78,10
India,Delhi,Delhi,"Patparganj, Delhi - DPCC",27-08-2025 16:00:00,28.623763,77.287209,OZONE,10,20,14
India,Delhi,Delhi,"Punjabi Bagh, Delhi - DPCC",27-08-2025 16:00:00,28.674045,77.131023,PM2.5,3,183,73
India,Delhi,Delhi,"Punjabi Bagh, Delhi - DPCC",27-08-2025 16:00:00,28.674045,77.131023,NH3,1,41,4
India,Delhi,Delhi,"Pusa, Delhi - DPCC",27-08-2025 16:00:00,28.639652,77.146275,PM2.5,3,80,37
India,Delhi,Delhi,"Pusa, Delhi - DPCC",27-08-2025 16:00:00,28.639652,77.146275,NH3,1,4,2
India,Delhi,Delhi,"Pusa, Delhi - IMD",27-08-2025 16:00:00,28.636110,77.173332,OZONE,5,13,11
India,Delhi,Delhi,"R K Puram, Delhi - DPCC",27-08-2025 16:00:00,28.563262,77.186937,NH3,3,6,4
India,Delhi,Delhi,"Ashok Vihar, Delhi - DPCC",27-08-2025 16:00:00,28.695381,77.181665,PM2.5,5,197,66
India,Delhi,Delhi,"Ashok Vihar, Delhi - DPCC",27-08-2025 16:00:00,28.695381,77.181665,PM10,20,104,62
India,Delhi,Delhi,"Ashok Vihar, Delhi - DPCC",27-08-2025 16:00:00,28.695381,77.181665,NH3,4,9,6
India,Delhi,Delhi,"Ashok Vihar, Delhi - DPCC",27-08-2025 16:00:00,28.695381,77.181665,CO,2,90,20
India,Delhi,Delhi,"Aya Nagar, Delhi - IMD",27-08-2025 16:00:00,28.4706914,77.1099364,NO2,NA,NA,NA
India,Delhi,Delhi,"Bawana, Delhi - DPCC",27-08-2025 16:00:00,28.776200,77.051074,PM10,24,101,64
India,Delhi,Delhi,"Burari Crossing, Delhi - IMD",27-08-2025 16:00:00,28.7256504,77.2011573,PM10,16,110,56
India,Delhi,Delhi,"Mandir Marg, Delhi - DPCC",27-08-2025 16:00:00,28.636429,77.201067,OZONE,7,36,23
India,Delhi,Delhi,"Mundka, Delhi - DPCC",27-08-2025 16:00:00,28.684678,77.076574,PM10,8,101,73
India,Delhi,Delhi,"Mundka, Delhi - DPCC",27-08-2025 16:00:00,28.684678,77.076574,NO2,28,59,41
India,Delhi,Delhi,"NSIT Dwarka, Delhi - CPCB",27-08-2025 16:00:00,28.60909,77.0325413,PM2.5,NA,NA,NA
India,Delhi,Delhi,"NSIT Dwarka, Delhi - CPCB",27-08-2025 16:00:00,28.60909,77.0325413,NH3,5,8,7
India,Delhi,Delhi,"Najafgarh, Delhi - DPCC",27-08-2025 16:00:00,28.570173,76.933762,OZONE,3,17,11
India,Chhattisgarh,Raipur,"AIIMS, Raipur - CECB",27-08-2025 16:00:00,21.258815,81.578979,NH3,NA,NA,NA
India,Chhattisgarh,Raipur,"AIIMS, Raipur - CECB",27-08-2025 16:00:00,21.258815,81.578979,SO2,6,15,8
India,Chhattisgarh,Raipur,"Bhatagaon New ISBT, Raipur - CECB",27-08-2025 16:00:00,21.219665,81.630094,NO2,7,24,14
India,Chhattisgarh,Raipur,"Bhatagaon New ISBT, Raipur - CECB",27-08-2025 16:00:00,21.219665,81.630094,OZONE,4,14,9
India,Chhattisgarh,Raipur,"Krishak Nagar, Raipur - CECB",27-08-2025 16:00:00,21.237755,81.705301,CO,8,18,15
India,Chhattisgarh,Raipur,"Siltara Phase-II, Raipur - CECB",27-08-2025 16:00:00,21.371751,81.664929,NH3,3,3,3
India,Delhi,Delhi,"CRRI Mathura Road, Delhi - IMD",27-08-2025 16:00:00,28.5512005,77.2735737,OZONE,10,28,20
India,Delhi,Delhi,"Chandni Chowk, Delhi - IITM",27-08-2025 16:00:00,28.656756,77.227234,OZONE,2,58,36
India,Delhi,Delhi,"DTU, Delhi - CPCB",27-08-2025 16:00:00,28.7500499,77.1112615,SO2,28,30,29
India,Delhi,Delhi,"DTU, Delhi - CPCB",27-08-2025 16:00:00,28.7500499,77.1112615,CO,14,26,19
India,Delhi,Delhi,"Dwarka-Sector 8, Delhi - DPCC ",27-08-2025 16:00:00,28.5710274,77.0719006,PM2.5,2,83,40
India,Delhi,Delhi,"Narela, Delhi - DPCC",27-08-2025 16:00:00,28.822836,77.101981,OZONE,18,24,22
India,Delhi,Delhi,"Nehru Nagar, Delhi - DPCC",27-08-2025 16:00:00,28.567890,77.250515,PM2.5,10,110,60
India,Delhi,Delhi,"Okhla Phase-2, Delhi - DPCC",27-08-2025 16:00:00,28.530785,77.271255,SO2,NA,NA,NA
India,Delhi,Delhi,"Okhla Phase-2, Delhi - DPCC",27-08-2025 16:00:00,28.530785,77.271255,CO,19,52,31
India,Delhi,Delhi,"Okhla Phase-2, Delhi - DPCC",27-08-2025 16:00:00,28.530785,77.271255,OZONE,16,30,22
India,Delhi,Delhi,"ITO, Delhi - CPCB",27-08-2025 16:00:00,28.628624,77.241060,PM2.5,17,88,49
India,Delhi,Delhi,"ITO, Delhi - CPCB",27-08-2025 16:00:00,28.628624,77.241060,CO,43,101,55
India,Delhi,Delhi,"ITO, Delhi - CPCB",27-08-2025 16:00:00,28.628624,77.241060,OZONE,12,14,13
India,Delhi,Delhi,"Jahangirpuri, Delhi - DPCC",27-08-2025 16:00:00,28.732820,77.170633,PM10,73,419,170
India,Delhi,Delhi,"Lodhi Road, Delhi - IITM",27-08-2025 16:00:00,28.588333,77.221667,SO2,8,17,12
India,Delhi,Delhi,"Major Dhyan Chand National Stadium, Delhi - DPCC",27-08-2025 16:00:00,28.611281,77.237738,PM2.5,20,88,62
India,Delhi,Delhi,"Major Dhyan Chand National Stadium, Delhi - DPCC",27-08-2025 16:00:00,28.611281,77.237738,PM10,5,74,48
India,Chhattisgarh,Raipur,"Siltara Phase-II, Raipur - CECB",27-08-2025 16:00:00,21.371751,81.664929,OZONE,4,8,5
India,Delhi,Delhi,"Alipur, Delhi - DPCC",27-08-2025 16:00:00,28.815329,77.153010,CO,15,46,30
India,Gujarat,Gandhinagar,"Sector-10, Gandhinagar - GPCB",27-08-2025 16:00:00,23.221714,72.654328,OZONE,15,16,16
India,Gujarat,Surat,"Science Center, Surat - SMC",27-08-2025 16:00:00,21.170046,72.795405,PM2.5,2,30,19
India,Gujarat,Surat,"Science Center, Surat - SMC",27-08-2025 16:00:00,21.170046,72.795405,NO2,5,22,13
India,Gujarat,Vapi,"Phase-1 GIDC, Vapi - GPCB",27-08-2025 16:00:00,20.362421,72.918013,PM2.5,33,104,58
India,Gujarat,Vapi,"Phase-1 GIDC, Vapi - GPCB",27-08-2025 16:00:00,20.362421,72.918013,PM10,59,108,83
India,Gujarat,Vapi,"Phase-1 GIDC, Vapi - GPCB",27-08-2025 16:00:00,20.362421,72.918013,NO2,13,14,14
India,Gujarat,Vatva,"Phase-4 GIDC, Vatva - GPCB",27-08-2025 16:00:00,22.969611,72.643500,PM2.5,58,124,82
India,Gujarat,Vatva,"Phase-4 GIDC, Vatva - GPCB",27-08-2025 16:00:00,22.969611,72.643500,NO2,17,18,17
India,Gujarat,Vatva,"Phase-4 GIDC, Vatva - GPCB",27-08-2025 16:00:00,22.969611,72.643500,NH3,4,4,4
India,Haryana,Gurugram,"NISE Gwal Pahari, Gurugram - IMD",27-08-2025 16:00:00,28.422681,77.148944,OZONE,18,19,19
India,Haryana,Panchgaon,"Amity University, Panchgaon - IITM",27-08-2025 16:00:00,28.3153,76.9143,NO2,3,12,8
India,Himachal Pradesh,Baddi,"HIMUDA Complex Phase-1, Baddi - HPPCB",27-08-2025 16:00:00,30.943887,76.801991,NH3,6,10,8
India,Himachal Pradesh,Baddi,"HIMUDA Complex Phase-1, Baddi - HPPCB",27-08-2025 16:00:00,30.943887,76.801991,CO,43,96,48
India,Jharkhand,Dhanbad,"Sardar Patel Nagar, Dhanbad - JSPCB",27-08-2025 16:00:00,23.80569,86.44268,PM2.5,NA,NA,NA
India,Jharkhand,Jorapokhar,"Tata Stadium, Jorapokhar - JSPCB",27-08-2025 16:00:00,23.707909,86.414670,CO,43,103,67
India,Karnataka,Bagalkot,"Vidayagiri, Bagalkot - KSPCB",27-08-2025 16:00:00,16.172806,75.659694,SO2,7,7,7
India,Karnataka,Belgaum,"Ramteerth Nagar, Belgaum - KSPCB",27-08-2025 16:00:00,15.888653,74.541751,NO2,NA,NA,NA
India,Delhi,Delhi,"Rohini, Delhi - DPCC",27-08-2025 16:00:00,28.732528,77.119920,PM10,28,100,73
India,Delhi,Delhi,"Rohini, Delhi - DPCC",27-08-2025 16:00:00,28.732528,77.119920,NH3,3,4,3
India,Delhi,Delhi,"Shadipur, Delhi - CPCB",27-08-2025 16:00:00,28.6514781,77.1473105,NO2,57,104,74
India,Delhi,Delhi,"Shadipur, Delhi - CPCB",27-08-2025 16:00:00,28.6514781,77.1473105,NH3,7,11,9
India,Delhi,Delhi,"Shadipur, Delhi - CPCB",27-08-2025 16:00:00,28.6514781,77.1473105,SO2,7,12,10
India,Delhi,Delhi,"Sirifort, Delhi - CPCB",27-08-2025 16:00:00,28.5504249,77.2159377,PM2.5,1,67,36
India,Delhi,Delhi,"Sirifort, Delhi - CPCB",27-08-2025 16:00:00,28.5504249,77.2159377,OZONE,19,23,21
India,Delhi,Delhi,"Sonia Vihar, Delhi - DPCC",27-08-2025 16:00:00,28.710508,77.249485,PM10,20,155,67
India,Delhi,Delhi,"Sonia Vihar, Delhi - DPCC",27-08-2025 16:00:00,28.710508,77.249485,OZONE,5,45,24
India,Gujarat,Ahmedabad,"SAC ISRO Satellite, Ahmedabad - IITM",27-08-2025 16:00:00,23.023389,72.515201,NH3,3,3,3
India,Gujarat,Ahmedabad,"SVPI Airport Hansol, Ahmedabad - IITM",27-08-2025 16:00:00,23.076793,72.627874,PM2.5,9,26,15
India,Gujarat,Ahmedabad,"SVPI Airport Hansol, Ahmedabad - IITM",27-08-2025 16:00:00,23.076793,72.627874,SO2,NA,NA,NA
India,Gujarat,Ahmedabad,"Sardar Vallabhbhai Patel Stadium, Ahmedabad - IITM",27-08-2025 16:00:00,23.043070,72.562968,PM10,45,82,64
India,Gujarat,Ahmedabad,"Sardar Vallabhbhai Patel Stadium, Ahmedabad - IITM",27-08-2025 16:00:00,23.043070,72.562968,NO2,18,70,32
India,Gujarat,Ahmedabad,"Sardar Vallabhbhai Patel Stadium, Ahmedabad - IITM",27-08-2025 16:00:00,23.043070,72.562968,NH3,11,14,12
India,Gujarat,Gandhinagar,"GIFT City, Gandhinagar - IITM",27-08-2025 16:00:00,23.163798,72.677768,NO2,6,35,12
India,Gujarat,Gandhinagar,"GIFT City, Gandhinagar - IITM",27-08-2025 16:00:00,23.163798,72.677768,NH3,1,5,2
India,Gujarat,Gandhinagar,"GIFT City, Gandhinagar - IITM",27-08-2025 16:00:00,23.163798,72.677768,SO2,1,14,7
India,Gujarat,Gandhinagar,"IIPHG Lekawada, Gandhinagar - IITM",27-08-2025 16:00:00,23.243639,72.68994,NO2,5,9,6
India,Gujarat,Gandhinagar,"Sector-10, Gandhinagar - GPCB",27-08-2025 16:00:00,23.221714,72.654328,NO2,15,16,16
India,Karnataka,Bengaluru,"BTM Layout, Bengaluru - CPCB",27-08-2025 16:00:00,12.9135218,77.5950804,NH3,4,5,4
India,Karnataka,Bengaluru,"BTM Layout, Bengaluru - CPCB",27-08-2025 16:00:00,12.9135218,77.5950804,OZONE,23,24,24
India,Karnataka,Bengaluru,"Bapuji Nagar, Bengaluru - KSPCB",27-08-2025 16:00:00,12.951913,77.539784,SO2,3,8,5
India,Karnataka,Bengaluru,"City Railway Station, Bengaluru - KSPCB",27-08-2025 16:00:00,12.9756843,77.5660749,PM10,83,94,88
India,Delhi,Delhi,"Sri Aurobindo Marg, Delhi - DPCC",27-08-2025 16:00:00,28.531346,77.190156,NH3,4,6,5
India,Delhi,Delhi,"Sri Aurobindo Marg, Delhi - DPCC",27-08-2025 16:00:00,28.531346,77.190156,SO2,10,16,12
India,Gujarat,Ahmedabad,"Gyaspur, Ahmedabad - IITM",27-08-2025 16:00:00,22.977134,72.553024,PM2.5,15,46,28
India,Gujarat,Ahmedabad,"Raikhad, Ahmedabad - IITM",27-08-2025 16:00:00,23.020509,72.579261,NO2,3,12,8
India,Gujarat,Ahmedabad,"Raikhad, Ahmedabad - IITM",27-08-2025 16:00:00,23.020509,72.579261,NH3,2,3,3
India,Gujarat,Ahmedabad,"Raikhad, Ahmedabad - IITM",27-08-2025 16:00:00,23.020509,72.579261,CO,2,31,8
India,Gujarat,Ahmedabad,"Raikhad, Ahmedabad - IITM",27-08-2025 16:00:00,23.020509,72.579261,OZONE,3,7,5
India,Gujarat,Ahmedabad,"SAC ISRO Bopal, Ahmedabad - IITM",27-08-2025 16:00:00,23.041137,72.456691,CO,6,44,26
India,Madhya Pradesh,Bhopal,"T T Nagar, Bhopal - MPPCB",27-08-2025 16:00:00,23.233584,77.400574,NO2,11,25,17
India,Madhya Pradesh,Bhopal,"T T Nagar, Bhopal - MPPCB",27-08-2025 16:00:00,23.233584,77.400574,NH3,5,6,5
India,Madhya Pradesh,Damoh,"Shrivastav Colony, Damoh - MPPCB",27-08-2025 16:00:00,23.81748678,79.446246,CO,20,27,22
India,Madhya Pradesh,Dewas,"Bhopal Chauraha, Dewas - MPPCB",27-08-2025 16:00:00,22.9682591,76.064118,SO2,2,39,17
India,Madhya Pradesh,Dewas,"Bhopal Chauraha, Dewas - MPPCB",27-08-2025 16:00:00,22.9682591,76.064118,OZONE,27,31,29
India,Madhya Pradesh,Gwalior,"City Center, Gwalior - MPPCB",27-08-2025 16:00:00,26.203442,78.193251,PM2.5,10,34,20
India,Madhya Pradesh,Gwalior,"City Center, Gwalior - MPPCB",27-08-2025 16:00:00,26.203442,78.193251,SO2,16,32,22
India,Madhya Pradesh,Gwalior,"Deen Dayal Nagar, Gwalior - MPPCB",27-08-2025 16:00:00,26.259242,78.216432,PM2.5,3,60,25
India,Madhya Pradesh,Gwalior,"Deen Dayal Nagar, Gwalior - MPPCB",27-08-2025 16:00:00,26.259242,78.216432,PM10,4,89,37
India,Karnataka,Bengaluru,"Jigani, Bengaluru - KSPCB",27-08-2025 16:00:00,12.7816279,77.6299145,OZONE,21,22,21
India,Karnataka,Bengaluru,"Peenya, Bengaluru - CPCB",27-08-2025 16:00:00,13.0270199,77.494094,NO2,16,24,21
India,Karnataka,Bengaluru,"Peenya, Bengaluru - CPCB",27-08-2025 16:00:00,13.0270199,77.494094,SO2,1,10,5
India,Karnataka,Bengaluru,"RVCE-Mailasandra, Bengaluru - KSPCB",27-08-2025 16:00:00,12.921418,77.502466,OZONE,24,25,24
India,Karnataka,Bengaluru,"Sanegurava Halli, Bengaluru - KSPCB",27-08-2025 16:00:00,12.990328,77.5431385,NO2,17,21,19
India,Karnataka,Bengaluru,"Sanegurava Halli, Bengaluru - KSPCB",27-08-2025 16:00:00,12.990328,77.5431385,CO,23,29,26
India,Karnataka,Bengaluru,"Shivapura_Peenya, Bengaluru - KSPCB",27-08-2025 16:00:00,13.0246342,77.5080115,NO2,24,25,24
India,Karnataka,Bengaluru,"Silk Board, Bengaluru - KSPCB",27-08-2025 16:00:00,12.917348,77.622813,CO,29,41,32
India,Karnataka,Bengaluru,"Silk Board, Bengaluru - KSPCB",27-08-2025 16:00:00,12.917348,77.622813,OZONE,22,34,30
India,Karnataka,Chikkaballapur,"Chikkaballapur Rural, Chikkaballapur - KSPCB",27-08-2025 16:00:00,13.428828,77.731418,PM10,4,50,18
India,Karnataka,Davanagere,"Devaraj Urs Badavane, Davanagere - KSPCB",27-08-2025 16:00:00,14.475800,75.905200,NH3,1,68,6
India,Karnataka,Dharwad,"Kalabhavan, Dharwad - KSPCB",27-08-2025 16:00:00,15.459706,75.008381,PM10,45,52,48
India,Karnataka,Dharwad,"Kalabhavan, Dharwad - KSPCB",27-08-2025 16:00:00,15.459706,75.008381,OZONE,13,17,15
India,Karnataka,Haveri,"Ashwini Nagar, Haveri - KSPCB",27-08-2025 16:00:00,14.791800,75.389600,PM2.5,NA,NA,NA
India,Karnataka,Haveri,"Ashwini Nagar, Haveri - KSPCB",27-08-2025 16:00:00,14.791800,75.389600,NH3,NA,NA,NA
India,Kerala,Thrissur,"Corporation Ground, Thrissur - Kerala PCB",27-08-2025 16:00:00,10.532400,76.215900,OZONE,29,30,29
India,Madhya Pradesh,Bhopal,"Idgah Hills, Bhopal - MPPCB",27-08-2025 16:00:00,23.264759,77.381568,NO2,8,26,15
India,Madhya Pradesh,Bhopal,"Idgah Hills, Bhopal - MPPCB",27-08-2025 16:00:00,23.264759,77.381568,SO2,8,10,9
India,Madhya Pradesh,Bhopal,"Paryavaran Parisar, Bhopal - MPPCB",27-08-2025 16:00:00,23.210494,77.425409,NH3,3,4,3
India,Madhya Pradesh,Bhopal,"Paryavaran Parisar, Bhopal - MPPCB",27-08-2025 16:00:00,23.210494,77.425409,SO2,13,15,14
India,Madhya Pradesh,Bhopal,"Paryavaran Parisar, Bhopal - MPPCB",27-08-2025 16:00:00,23.210494,77.425409,OZONE,28,48,39
India,Kerala,Kannur,"Thavakkara, Kannur - Kerala PCB",27-08-2025 16:00:00,11.875000,75.373200,OZONE,28,30,29
India,Kerala,Thiruvananthapuram,"Kariavattom, Thiruvananthapuram - Kerala PCB",27-08-2025 16:00:00,8.563700,76.886500,PM2.5,38,47,42
India,Kerala,Thiruvananthapuram,"Kariavattom, Thiruvananthapuram - Kerala PCB",27-08-2025 16:00:00,8.563700,76.886500,NO2,6,7,7
India,Kerala,Thiruvananthapuram,"Kariavattom, Thiruvananthapuram - Kerala PCB",27-08-2025 16:00:00,8.563700,76.886500,OZONE,36,36,36
India,Kerala,Thiruvananthapuram,"Plammoodu, Thiruvananthapuram - Kerala PCB",27-08-2025 16:00:00,8.5149093,76.9435879,SO2,11,31,22
India,Kerala,Thiruvananthapuram,"Plammoodu, Thiruvananthapuram - Kerala PCB",27-08-2025 16:00:00,8.5149093,76.9435879,CO,6,57,11
India,Karnataka,Bengaluru,"Hebbal, Bengaluru - KSPCB",27-08-2025 16:00:00,13.029152,77.585901,CO,12,26,20
India,Karnataka,Bengaluru,"Hombegowda Nagar, Bengaluru - KSPCB",27-08-2025 16:00:00,12.938539,77.590100,PM10,17,38,26
India,Karnataka,Bengaluru,"Jayanagar 5th Block, Bengaluru - KSPCB",27-08-2025 16:00:00,12.920984,77.584908,SO2,1,24,14
India,Karnataka,Bengaluru,"Jayanagar 5th Block, Bengaluru - KSPCB",27-08-2025 16:00:00,12.920984,77.584908,OZONE,27,114,72
India,Karnataka,Hubballi,"Lingaraj Nagar, Hubballi - KSPCB",27-08-2025 16:00:00,15.3714823,75.1160168,PM2.5,33,36,34
India,Karnataka,Hubballi,"Lingaraj Nagar, Hubballi - KSPCB",27-08-2025 16:00:00,15.3714823,75.1160168,PM10,45,48,45
India,Karnataka,Karwar,"KHB Colony, Karwar - KSPCB",27-08-2025 16:00:00,14.816666,74.141003,PM10,1,23,8
India,Karnataka,Karwar,"KHB Colony, Karwar - KSPCB",27-08-2025 16:00:00,14.816666,74.141003,CO,8,10,8
India,Karnataka,Shivamogga,"Vinoba Nagara, Shivamogga - KSPCB",27-08-2025 16:00:00,13.940000,75.555917,SO2,2,2,2
India,Karnataka,Shivamogga,"Vinoba Nagara, Shivamogga - KSPCB",27-08-2025 16:00:00,13.940000,75.555917,CO,16,28,24
India,Karnataka,Shivamogga,"Vinoba Nagara, Shivamogga - KSPCB",27-08-2025 16:00:00,13.940000,75.555917,OZONE,36,70,43
India,Karnataka,Vijayapura,"Ibrahimpur, Vijayapura - KSPCB",27-08-2025 16:00:00,16.802639,75.722694,NH3,1,2,1
India,Karnataka,Mangalore,"Kadri, Mangalore - KSPCB",27-08-2025 16:00:00,12.889250,74.853000,PM10,28,48,35
India,Karnataka,Mangalore,"Kadri, Mangalore - KSPCB",27-08-2025 16:00:00,12.889250,74.853000,NO2,18,30,19
India,Karnataka,Mysuru,"Hebbal 1st Stage, Mysuru - KSPCB",27-08-2025 16:00:00,12.21041,76.37376,OZONE,6,52,8
India,Madhya Pradesh,Sagar,"Civil Lines, Sagar - MPPCB",27-08-2025 16:00:00,23.838586,78.759431,PM2.5,NA,NA,NA
India,Madhya Pradesh,Sagar,"Civil Lines, Sagar - MPPCB",27-08-2025 16:00:00,23.838586,78.759431,PM10,NA,NA,NA
India,Madhya Pradesh,Sagar,"Civil Lines, Sagar - MPPCB",27-08-2025 16:00:00,23.838586,78.759431,SO2,7,14,13
India,Madhya Pradesh,Sagar,"Civil Lines, Sagar - MPPCB",27-08-2025 16:00:00,23.838586,78.759431,OZONE,4,58,42
India,Madhya Pradesh,Sagar,"Deen Dayal Nagar, Sagar - MPPCB",27-08-2025 16:00:00,23.8640158,78.80289321,CO,14,48,16
India,Madhya Pradesh,Satna,"Bandhavgar Colony, Satna - Birla Cement",27-08-2025 16:00:00,24.58434363,80.8549414,PM10,NA,NA,NA
India,Madhya Pradesh,Satna,"Bandhavgar Colony, Satna - Birla Cement",27-08-2025 16:00:00,24.58434363,80.8549414,NO2,73,148,103
India,Madhya Pradesh,Satna,"Bandhavgar Colony, Satna - Birla Cement",27-08-2025 16:00:00,24.58434363,80.8549414,SO2,18,19,19
India,Madhya Pradesh,Singrauli,"Suryakiran Bhawan NCL, Singrauli - MPPCB",27-08-2025 16:00:00,24.108970,82.645580,NO2,22,60,43
India,Madhya Pradesh,Singrauli,"Suryakiran Bhawan NCL, Singrauli - MPPCB",27-08-2025 16:00:00,24.108970,82.645580,SO2,10,61,23
India,Maharashtra,Aurangabad,"Rachnakar Colony, Aurangabad - MPCB",27-08-2025 16:00:00,19.863756,75.321188,OZONE,11,35,28
India,Maharashtra,Badlapur,"Katrap, Badlapur - MPCB",27-08-2025 16:00:00,19.16485,73.23409,OZONE,12,39,27
India,Maharashtra,Belapur,"CBD Belapur, Belapur - MPCB",27-08-2025 16:00:00,19.0243902,73.0406721,SO2,1,3,2
India,Maharashtra,Belapur,"CBD Belapur, Belapur - MPCB",27-08-2025 16:00:00,19.0243902,73.0406721,CO,9,34,18
India,Maharashtra,Bhiwandi,"Gokul Nagar, Bhiwandi - MPCB",27-08-2025 16:00:00,19.309073,73.057223,PM2.5,11,74,28
India,Maharashtra,Bhiwandi,"Gokul Nagar, Bhiwandi - MPCB",27-08-2025 16:00:00,19.309073,73.057223,PM10,15,99,38
India,Madhya Pradesh,Gwalior,"Maharaj Bada, Gwalior - MPPCB",27-08-2025 16:00:00,26.200388,78.147714,NH3,1,2,1
India,Madhya Pradesh,Gwalior,"Maharaj Bada, Gwalior - MPPCB",27-08-2025 16:00:00,26.200388,78.147714,SO2,1,13,8
India,Madhya Pradesh,Indore,"Airport Area, Indore - IMC",27-08-2025 16:00:00,22.7289,75.8076,SO2,18,18,18
India,Madhya Pradesh,Indore,"Chhoti Gwaltoli, Indore - MPPCB",27-08-2025 16:00:00,22.4310,75.5213,PM10,48,104,76
India,Madhya Pradesh,Indore,"Chhoti Gwaltoli, Indore - MPPCB",27-08-2025 16:00:00,22.4310,75.5213,CO,26,72,48
India,Madhya Pradesh,Indore,"Maguda Nagar, Indore - IMC",27-08-2025 16:00:00,22.7524,75.8872,SO2,33,41,35
India,Maharashtra,Amravati,"Shivneri Colony, Amravati - MPCB",27-08-2025 16:00:00,20.9402359,77.7895248,PM2.5,17,45,27
India,Maharashtra,Amravati,"Shivneri Colony, Amravati - MPCB",27-08-2025 16:00:00,20.9402359,77.7895248,CO,8,26,13
India,Maharashtra,Amravati,"Shivneri Colony, Amravati - MPCB",27-08-2025 16:00:00,20.9402359,77.7895248,OZONE,9,29,20
India,Maharashtra,Amravati,"Shri Shivaji Science College, Amravati - MPCB",27-08-2025 16:00:00,20.939198,77.765701,PM2.5,11,33,20
India,Maharashtra,Aurangabad,"MIDC Chilkalthana, Aurangabad - MPCB",27-08-2025 16:00:00,19.875620,75.387310,SO2,4,5,5
India,Maharashtra,Aurangabad,"MIDC Chilkalthana, Aurangabad - MPCB",27-08-2025 16:00:00,19.875620,75.387310,OZONE,13,52,33
India,Madhya Pradesh,Jabalpur,"Suhagi, Jabalpur - JMC",27-08-2025 16:00:00,23.218135,79.957770,NO2,18,39,26
India,Madhya Pradesh,Katni,"Gole Bazar, Katni - MPPCB",27-08-2025 16:00:00,23.50016,80.23284,NO2,25,27,26
India,Madhya Pradesh,Pithampur,"Sector-2 Industrial Area, Pithampur - MPPCB",27-08-2025 16:00:00,22.624758,75.675238,OZONE,6,38,30
India,Madhya Pradesh,Ratlam,"Shasthri Nagar, Ratlam - IPCA Lab",27-08-2025 16:00:00,23.331731,75.045981,PM10,12,68,48
India,Maharashtra,Boisar,"Khaira, Boisar - MPCB",27-08-2025 16:00:00,19.786089,72.757971,SO2,15,15,15
India,Maharashtra,Chandrapur,"Chauhan Colony, Chandrapur - MPCB",27-08-2025 16:00:00,19.962900,79.298714,CO,24,34,28
India,Maharashtra,Chandrapur,"MIDC Khutala, Chandrapur - MPCB",27-08-2025 16:00:00,19.9775302,79.2337086,OZONE,3,27,18
India,Maharashtra,Jalgaon,"Prabhat Colony, Jalgaon - MPCB",27-08-2025 16:00:00,21.001264,75.565602,PM10,17,23,20
India,Maharashtra,Jalna,"Old MIDC, Jalna - MPCB",27-08-2025 16:00:00,19.854616,75.905894,NH3,NA,NA,NA
India,Maharashtra,Jalna,"Old MIDC, Jalna - MPCB",27-08-2025 16:00:00,19.854616,75.905894,SO2,NA,NA,NA
India,Maharashtra,Kalyan,"Khadakpada, Kalyan - MPCB",27-08-2025 16:00:00,19.25292,73.142019,PM10,15,118,50
India,Maharashtra,Kolhapur,"Shivaji University, Kolhapur - MPCB",27-08-2025 16:00:00,16.6870449,74.2505872,PM10,NA,NA,NA
India,Maharashtra,Kolhapur,"Shivaji University, Kolhapur - MPCB",27-08-2025 16:00:00,16.6870449,74.2505872,NO2,NA,NA,NA
India,Madhya Pradesh,Indore,"Regional Park, Indore - IMC",27-08-2025 16:00:00,22.6780,75.8559,CO,18,22,18
India,Madhya Pradesh,Indore,"Residency Area, Indore - IMC",27-08-2025 16:00:00,22.7084,75.8815,NO2,11,18,16
India,Maharashtra,Ahmednagar,"Tarakpur, Ahmednagar - MPCB",27-08-2025 16:00:00,19.10122,74.73339,NH3,4,7,6
India,Maharashtra,Ahmednagar,"Tarakpur, Ahmednagar - MPCB",27-08-2025 16:00:00,19.10122,74.73339,OZONE,4,25,11
India,Maharashtra,Mumbai,"Colaba, Mumbai - MPCB",27-08-2025 16:00:00,18.910000,72.820000,OZONE,6,13,10
India,Maharashtra,Mumbai,"Deonar, Mumbai - IITM",27-08-2025 16:00:00,19.04946,72.9230,NO2,4,17,10
