country,state,city,station,last_update,latitude,longitude,pollutant_id,min_value,max_value,avg_value
India,Bihar,Araria,"Kharahiya Basti, Araria - BSPCB",21-10-2025 07:00:00,26.146529,87.454184,PM2.5,52,414,197
India,Bihar,Aurangabad,"Gurdeo Nagar, Aurangabad - BSPCB",21-10-2025 07:00:00,24.75746,84.366208,PM2.5,13,332,122
India,Bihar,Aurangabad,"Gurdeo Nagar, Aurangabad - BSPCB",21-10-2025 07:00:00,24.75746,84.366208,NO2,7,8,8
India,Bihar,Aurangabad,"Gurdeo Nagar, Aurangabad - BSPCB",21-10-2025 07:00:00,24.75746,84.366208,CO,9,114,39
India,Bihar,Aurangabad,"Gurdeo Nagar, Aurangabad - BSPCB",21-10-2025 07:00:00,24.75746,84.366208,OZONE,1,29,3
India,Bihar,Begusarai,"Lohiyanagar, Begusarai - BSPCB",21-10-2025 07:00:00,25.42742023,86.13886079,PM2.5,91,296,174
India,Bihar,Begusarai,"Lohiyanagar, Begusarai - BSPCB",21-10-2025 07:00:00,25.42742023,86.13886079,PM10,102,251,143
India,Assam,Nalbari,"Bata Chowk, Nalbari - PCBA",21-10-2025 07:00:00,26.446912,91.439057,PM2.5,50,342,121
India,Assam,Nalbari,"Bata Chowk, Nalbari - PCBA",21-10-2025 07:00:00,26.446912,91.439057,PM10,45,261,83
India,Assam,Nalbari,"Bata Chowk, Nalbari - PCBA",21-10-2025 07:00:00,26.446912,91.439057,NH3,1,7,3
India,Assam,Nalbari,"Bata Chowk, Nalbari - PCBA",21-10-2025 07:00:00,26.446912,91.439057,OZONE,7,61,35
India,Assam,Silchar,"Tarapur, Silchar - PCBA",21-10-2025 07:00:00,24.82827,92.79525,CO,NA,NA,NA
India,Assam,Sivasagar,"Girls College, Sivasagar - PCBA",21-10-2025 07:00:00,26.987634,94.636574,NO2,20,34,27
India,Assam,Sivasagar,"Girls College, Sivasagar - PCBA",21-10-2025 07:00:00,26.987634,94.636574,CO,4,29,26
India,Arunachal_Pradesh,Naharlagun,"Naharlagun, Naharlagun - APSPCB",21-10-2025 07:00:00,27.103358,93.679645,CO,6,18,11
India,Assam,Byrnihat,"Central Academy for SFS, Byrnihat - PCBA",21-10-2025 07:00:00,26.071318,91.87488,OZONE,16,34,20
India,Assam,Guwahati,"IITG, Guwahati - PCBA",21-10-2025 07:00:00,26.2028636,91.70046436,PM10,30,339,113
India,Assam,Guwahati,"IITG, Guwahati - PCBA",21-10-2025 07:00:00,26.2028636,91.70046436,NH3,5,5,5
India,Assam,Guwahati,"IITG, Guwahati - PCBA",21-10-2025 07:00:00,26.2028636,91.70046436,CO,5,17,13
India,Andhra_Pradesh,Chittoor,"Gangineni Cheruvu, Chittoor - APPCB",21-10-2025 07:00:00,13.204880,79.097889,CO,10,44,37
India,Andhra_Pradesh,Kadapa,"Yerramukkapalli, Kadapa - APPCB",21-10-2025 07:00:00,14.465052,78.824187,PM2.5,44,387,106
India,Andhra_Pradesh,Rajamahendravaram,"Anand Kala Kshetram, Rajamahendravaram - APPCB",21-10-2025 07:00:00,16.9872867,81.7363176,SO2,3,118,25
India,Andhra_Pradesh,Rajamahendravaram,"Anand Kala Kshetram, Rajamahendravaram - APPCB",21-10-2025 07:00:00,16.9872867,81.7363176,OZONE,7,11,10
India,Bihar,Bettiah,"Kamalnath Nagar, Bettiah - BSPCB",21-10-2025 07:00:00,26.80365,84.51954,OZONE,22,23,22
India,Bihar,Bhagalpur,"DM Office_Kachari Chowk, Bhagalpur - BSPCB",21-10-2025 07:00:00,25.251013,86.989001,PM2.5,72,500,216
India,Bihar,Bhagalpur,"DM Office_Kachari Chowk, Bhagalpur - BSPCB",21-10-2025 07:00:00,25.251013,86.989001,SO2,39,70,57
India,Andhra_Pradesh,Amaravati,"Secretariat, Amaravati - APPCB",21-10-2025 07:00:00,16.5150833,80.5181667,NO2,10,31,15
India,Andhra_Pradesh,Anantapur,"Gulzarpet, Anantapur - APPCB",21-10-2025 07:00:00,14.675886,77.593027,NH3,6,40,11
India,Andhra_Pradesh,Anantapur,"Gulzarpet, Anantapur - APPCB",21-10-2025 07:00:00,14.675886,77.593027,SO2,16,129,45
India,Assam,Guwahati,"Pan Bazaar, Guwahati - PCBA",21-10-2025 07:00:00,26.187500,91.744194,PM10,15,355,95
India,Assam,Guwahati,"Pan Bazaar, Guwahati - PCBA",21-10-2025 07:00:00,26.187500,91.744194,OZONE,18,19,18
India,Assam,Guwahati,"Railway Colony, Guwahati - PCBA",21-10-2025 07:00:00,26.181742,91.78063,PM10,36,309,137
India,Andhra_Pradesh,Vijayawada,"HB Colony, Vijayawada - APPCB",21-10-2025 07:00:00,16.536107,80.594233,CO,14,136,81
India,Andhra_Pradesh,Vijayawada,"Rajiv Gandhi Park, Vijayawada - APPCB",21-10-2025 07:00:00,16.509717,80.612222,NH3,4,29,9
India,Bihar,Bhagalpur,"Mayaganj, Bhagalpur - BSPCB",21-10-2025 07:00:00,25.265194,87.012947,PM10,58,447,174
India,Bihar,Bhagalpur,"Mayaganj, Bhagalpur - BSPCB",21-10-2025 07:00:00,25.265194,87.012947,CO,46,102,68
India,Assam,Nagaon,"Christianpatty, Nagaon - PCBA",21-10-2025 07:00:00,26.349082,92.68449,SO2,9,13,12
India,Bihar,Muzaffarpur,"Buddha Colony, Muzaffarpur - BSPCB",21-10-2025 07:00:00,26.11442,85.39813,CO,24,90,52
India,Bihar,Muzaffarpur,"MIT-Daudpur Kothi, Muzaffarpur - BSPCB",21-10-2025 07:00:00,26.1403345,85.3650192,PM2.5,52,247,173
India,Bihar,Muzaffarpur,"MIT-Daudpur Kothi, Muzaffarpur - BSPCB",21-10-2025 07:00:00,26.1403345,85.3650192,NO2,4,16,14
India,Bihar,Muzaffarpur,"Muzaffarpur Collectorate, Muzaffarpur - BSPCB",21-10-2025 07:00:00,26.1209,85.3647,NO2,10,35,19
India,Bihar,Muzaffarpur,"Muzaffarpur Collectorate, Muzaffarpur - BSPCB",21-10-2025 07:00:00,26.1209,85.3647,SO2,4,13,8
India,Bihar,Patna,"DRM Office Danapur, Patna - BSPCB",21-10-2025 07:00:00,25.586562,85.043586,OZONE,2,66,4
India,Bihar,Patna,"Govt. High School Shikarpur, Patna - BSPCB",21-10-2025 07:00:00,25.592539,85.227158,NO2,11,38,19
India,Bihar,Patna,"IGSC Planetarium Complex, Patna - BSPCB",21-10-2025 07:00:00,25.610369,85.132568,PM2.5,35,332,194
India,Bihar,Patna,"IGSC Planetarium Complex, Patna - BSPCB",21-10-2025 07:00:00,25.610369,85.132568,SO2,18,28,23
India,Bihar,Patna,"Muradpur, Patna - BSPCB",21-10-2025 07:00:00,25.619651,85.147382,PM10,76,402,156
India,Bihar,Patna,"Muradpur, Patna - BSPCB",21-10-2025 07:00:00,25.619651,85.147382,NO2,15,18,16
India,Bihar,Patna,"Muradpur, Patna - BSPCB",21-10-2025 07:00:00,25.619651,85.147382,NH3,4,5,4
India,Bihar,Patna,"Rajbansi Nagar, Patna - BSPCB",21-10-2025 07:00:00,25.599486,85.113666,NH3,3,10,7
India,Bihar,Patna,"Samanpura, Patna - BSPCB",21-10-2025 07:00:00,25.596727,85.085624,PM2.5,94,500,262
India,Bihar,Patna,"Samanpura, Patna - BSPCB",21-10-2025 07:00:00,25.596727,85.085624,NO2,39,51,45
India,Bihar,Buxar,"Charitra Van, Buxar - BSPCB",21-10-2025 07:00:00,25.567520,83.966379,NH3,3,3,3
India,Bihar,Buxar,"Charitra Van, Buxar - BSPCB",21-10-2025 07:00:00,25.567520,83.966379,CO,22,26,24
India,Bihar,Chhapra,"Darshan Nagar, Chhapra - BSPCB",21-10-2025 07:00:00,25.7808257,84.7446768,PM2.5,37,368,157
India,Bihar,Gaya,"Collectorate, Gaya - BSPCB",21-10-2025 07:00:00,24.7955,84.9994,PM2.5,62,339,180
India,Bihar,Gaya,"Kareemganj, Gaya - BSPCB",21-10-2025 07:00:00,24.792403,84.992416,NH3,3,7,5
India,Bihar,Gaya,"SFTI Kusdihra, Gaya - BSPCB",21-10-2025 07:00:00,24.762518,84.982348,NH3,3,4,3
India,Bihar,Manguraha,"Forest Rest House, Manguraha - BSPCB",21-10-2025 07:00:00,27.308328,84.531742,CO,32,34,33
India,Bihar,Motihari,"Gandak Colony, Motihari - BSPCB",21-10-2025 07:00:00,26.63086,84.90051,SO2,2,3,3
India,Bihar,Motihari,"Gandak Colony, Motihari - BSPCB",21-10-2025 07:00:00,26.63086,84.90051,OZONE,2,3,2
India,Bihar,Munger,"Town Hall, Munger - BSPCB",21-10-2025 07:00:00,25.376776,86.471523,PM2.5,68,390,175
India,Bihar,Munger,"Town Hall, Munger - BSPCB",21-10-2025 07:00:00,25.376776,86.471523,PM10,69,362,136
India,Bihar,Gaya,"SFTI Kusdihra, Gaya - BSPCB",21-10-2025 07:00:00,24.762518,84.982348,SO2,7,11,9
India,Bihar,Gaya,"SFTI Kusdihra, Gaya - BSPCB",21-10-2025 07:00:00,24.762518,84.982348,OZONE,9,55,13
India,Bihar,Hajipur,"Industrial Area, Hajipur - BSPCB",21-10-2025 07:00:00,25.697189,85.245900,OZONE,1,166,2
India,Bihar,Kishanganj,"SDM Office_Khagra, Kishanganj - BSPCB",21-10-2025 07:00:00,26.0881305,87.93840336,NO2,6,8,7
India,Bihar,Kishanganj,"SDM Office_Khagra, Kishanganj - BSPCB",21-10-2025 07:00:00,26.0881305,87.93840336,NH3,2,3,3
India,Bihar,Purnia,"Mariam Nagar, Purnia - BSPCB",21-10-2025 07:00:00,25.366336,87.117468,PM10,40,422,165
India,Bihar,Purnia,"Mariam Nagar, Purnia - BSPCB",21-10-2025 07:00:00,25.366336,87.117468,CO,19,102,44
India,Bihar,Rajgir,"Dangi Tola, Rajgir - BSPCB",21-10-2025 07:00:00,25.03280,85.41948,PM10,50,284,107
India,Bihar,Rajgir,"Dangi Tola, Rajgir - BSPCB",21-10-2025 07:00:00,25.03280,85.41948,SO2,19,23,21
India,Bihar,Saharsa,"Police Line, Saharsa - BSPCB",21-10-2025 07:00:00,25.892357,86.590325,OZONE,7,39,11
India,Chhattisgarh,Bhilai,"Civic Center, Bhilai - Bhilai Steel Plant",21-10-2025 07:00:00,21.185571,81.343175,PM10,24,89,52
India,Chhattisgarh,Bhilai,"Hathkhoj, Bhilai - CECB",21-10-2025 07:00:00,21.224231,81.408350,OZONE,8,29,13
India,Chhattisgarh,Chhal,"Nawapara SECL Colony, Chhal - CECB",21-10-2025 07:00:00,22.118125,83.140608,NO2,1,3,2
India,Chhattisgarh,Chhal,"Nawapara SECL Colony, Chhal - CECB",21-10-2025 07:00:00,22.118125,83.140608,NH3,5,6,6
India,Chandigarh,Chandigarh,"Sector 22, Chandigarh - CPCC",21-10-2025 07:00:00,30.735567,76.775714,CO,44,83,57
India,Chhattisgarh,Bhilai,"32Bungalows, Bhilai - CECB",21-10-2025 07:00:00,21.194815,81.314770,NO2,1,41,12
India,Bihar,Siwan,"Chitragupta Nagar, Siwan - BSPCB",21-10-2025 07:00:00,26.2271665,84.3570427,OZONE,1,3,2
India,Chhattisgarh,Korba,"Urja Nagar, Korba - CECB",21-10-2025 07:00:00,22.348441,82.549611,PM2.5,45,68,61
India,Chhattisgarh,Korba,"Urja Nagar, Korba - CECB",21-10-2025 07:00:00,22.348441,82.549611,NH3,1,2,2
India,Chhattisgarh,Korba,"Urja Nagar, Korba - CECB",21-10-2025 07:00:00,22.348441,82.549611,OZONE,35,36,36
India,Chhattisgarh,Kunjemura,"OP Jindal School, Kunjemura - CECB",21-10-2025 07:00:00,22.126650,83.483212,PM2.5,10,42,28
India,Chhattisgarh,Kunjemura,"OP Jindal School, Kunjemura - CECB",21-10-2025 07:00:00,22.126650,83.483212,SO2,1,19,7
India,Chhattisgarh,Kunjemura,"OP Jindal School, Kunjemura - CECB",21-10-2025 07:00:00,22.126650,83.483212,CO,12,49,36
India,Chhattisgarh,Milupara,"Govt. Higher Secondary School, Milupara - CECB",21-10-2025 07:00:00,22.1910172,83.5197009,NO2,NA,NA,NA
India,Chhattisgarh,Milupara,"Govt. Higher Secondary School, Milupara - CECB",21-10-2025 07:00:00,22.1910172,83.5197009,CO,NA,NA,NA
India,Chhattisgarh,Raipur,"AIIMS, Raipur - CECB",21-10-2025 07:00:00,21.258815,81.578979,PM10,21,100,58
India,Chhattisgarh,Raipur,"AIIMS, Raipur - CECB",21-10-2025 07:00:00,21.258815,81.578979,NO2,15,24,18
India,Chhattisgarh,Raipur,"Krishak Nagar, Raipur - CECB",21-10-2025 07:00:00,21.237755,81.705301,PM10,11,67,28
India,Chhattisgarh,Raipur,"Krishak Nagar, Raipur - CECB",21-10-2025 07:00:00,21.237755,81.705301,SO2,7,10,8
India,Chhattisgarh,Raipur,"Krishak Nagar, Raipur - CECB",21-10-2025 07:00:00,21.237755,81.705301,OZONE,2,3,2
India,Chhattisgarh,Tumidih,"OP Jindal Industrial Park, Tumidih - CECB",21-10-2025 07:00:00,22.06631475,83.33820077,NH3,1,2,1
India,Chhattisgarh,Tumidih,"OP Jindal Industrial Park, Tumidih - CECB",21-10-2025 07:00:00,22.06631475,83.33820077,SO2,5,12,7
India,Chhattisgarh,Tumidih,"OP Jindal Industrial Park, Tumidih - CECB",21-10-2025 07:00:00,22.06631475,83.33820077,OZONE,4,64,7
India,Delhi,Delhi,"Alipur, Delhi - DPCC",21-10-2025 07:00:00,28.815329,77.153010,PM2.5,113,409,313
India,Delhi,Delhi,"Alipur, Delhi - DPCC",21-10-2025 07:00:00,28.815329,77.153010,PM10,118,394,250
India,Delhi,Delhi,"Alipur, Delhi - DPCC",21-10-2025 07:00:00,28.815329,77.153010,NH3,6,8,6
India,Delhi,Delhi,"DTU, Delhi - CPCB",21-10-2025 07:00:00,28.7500499,77.1112615,OZONE,8,54,21
India,Delhi,Delhi,"Dr. Karni Singh Shooting Range, Delhi - DPCC",21-10-2025 07:00:00,28.498571,77.264840,OZONE,7,125,8
India,Delhi,Delhi,"Dwarka-Sector 8, Delhi - DPCC ",21-10-2025 07:00:00,28.5710274,77.0719006,NH3,4,8,6
India,Delhi,Delhi,"Dwarka-Sector 8, Delhi - DPCC ",21-10-2025 07:00:00,28.5710274,77.0719006,SO2,11,128,48
India,Delhi,Delhi,"IGI Airport (T3), Delhi - IMD",21-10-2025 07:00:00,28.5627763,77.1180053,PM2.5,152,500,302
India,Delhi,Delhi,"IGI Airport (T3), Delhi - IMD",21-10-2025 07:00:00,28.5627763,77.1180053,OZONE,2,5,4
India,Delhi,Delhi,"IHBAS, Dilshad Garden, Delhi - CPCB",21-10-2025 07:00:00,28.6811736,77.3025234,PM2.5,170,500,351
India,Delhi,Delhi,"Anand Vihar, Delhi - DPCC",21-10-2025 07:00:00,28.647622,77.3158090,NH3,5,19,13
India,Delhi,Delhi,"Anand Vihar, Delhi - DPCC",21-10-2025 07:00:00,28.647622,77.3158090,SO2,13,86,32
India,Delhi,Delhi,"Ashok Vihar, Delhi - DPCC",21-10-2025 07:00:00,28.695381,77.181665,PM10,152,476,327
India,Delhi,Delhi,"Ashok Vihar, Delhi - DPCC",21-10-2025 07:00:00,28.695381,77.181665,NH3,1,2,1
India,Delhi,Delhi,"Ashok Vihar, Delhi - DPCC",21-10-2025 07:00:00,28.695381,77.181665,SO2,20,139,59
India,Delhi,Delhi,"Ashok Vihar, Delhi - DPCC",21-10-2025 07:00:00,28.695381,77.181665,CO,18,104,76
India,Delhi,Delhi,"Aya Nagar, Delhi - IMD",21-10-2025 07:00:00,28.4706914,77.1099364,PM2.5,186,500,355
India,Delhi,Delhi,"Bawana, Delhi - DPCC",21-10-2025 07:00:00,28.776200,77.051074,NO2,11,66,34
India,Delhi,Delhi,"Jahangirpuri, Delhi - DPCC",21-10-2025 07:00:00,28.732820,77.170633,PM2.5,203,500,407
India,Delhi,Delhi,"Jahangirpuri, Delhi - DPCC",21-10-2025 07:00:00,28.732820,77.170633,NH3,4,7,6
India,Delhi,Delhi,"Jahangirpuri, Delhi - DPCC",21-10-2025 07:00:00,28.732820,77.170633,CO,32,107,97
India,Delhi,Delhi,"Jawaharlal Nehru Stadium, Delhi - DPCC",21-10-2025 07:00:00,28.580280,77.233829,CO,38,118,113
India,Delhi,Delhi,"Lodhi Road, Delhi - IITM",21-10-2025 07:00:00,28.588333,77.221667,PM2.5,131,500,322
India,Delhi,Delhi,"Lodhi Road, Delhi - IITM",21-10-2025 07:00:00,28.588333,77.221667,PM10,131,500,254
India,Delhi,Delhi,"Lodhi Road, Delhi - IITM",21-10-2025 07:00:00,28.588333,77.221667,NO2,72,196,123
India,Delhi,Delhi,"Lodhi Road, Delhi - IITM",21-10-2025 07:00:00,28.588333,77.221667,SO2,2,28,10
India,Delhi,Delhi,"Burari Crossing, Delhi - IMD",21-10-2025 07:00:00,28.7256504,77.2011573,PM2.5,201,500,399
India,Delhi,Delhi,"Burari Crossing, Delhi - IMD",21-10-2025 07:00:00,28.7256504,77.2011573,OZONE,12,227,15
India,Delhi,Delhi,"CRRI Mathura Road, Delhi - IMD",21-10-2025 07:00:00,28.5512005,77.2735737,PM2.5,138,500,345
India,Delhi,Delhi,"CRRI Mathura Road, Delhi - IMD",21-10-2025 07:00:00,28.5512005,77.2735737,OZONE,19,212,78
India,Delhi,Delhi,"Chandni Chowk, Delhi - IITM",21-10-2025 07:00:00,28.656756,77.227234,PM10,175,500,344
India,Delhi,Delhi,"Chandni Chowk, Delhi - IITM",21-10-2025 07:00:00,28.656756,77.227234,NH3,18,30,23
India,Delhi,Delhi,"Lodhi Road, Delhi - IMD",21-10-2025 07:00:00,28.5918245,77.2273074,NO2,21,69,41
India,Delhi,Delhi,"Major Dhyan Chand National Stadium, Delhi - DPCC",21-10-2025 07:00:00,28.611281,77.237738,CO,10,108,85
India,Delhi,Delhi,"Mundka, Delhi - DPCC",21-10-2025 07:00:00,28.684678,77.076574,PM10,149,500,282
India,Delhi,Delhi,"Mundka, Delhi - DPCC",21-10-2025 07:00:00,28.684678,77.076574,NO2,29,108,71
India,Delhi,Delhi,"Mundka, Delhi - DPCC",21-10-2025 07:00:00,28.684678,77.076574,CO,40,73,64
India,Delhi,Delhi,"Mundka, Delhi - DPCC",21-10-2025 07:00:00,28.684678,77.076574,OZONE,4,161,4
India,Chhattisgarh,Raipur,"Bhatagaon New ISBT, Raipur - CECB",21-10-2025 07:00:00,21.219665,81.630094,PM2.5,1,34,19
India,Chhattisgarh,Raipur,"Bhatagaon New ISBT, Raipur - CECB",21-10-2025 07:00:00,21.219665,81.630094,SO2,7,15,8
India,Chhattisgarh,Raipur,"Bhatagaon New ISBT, Raipur - CECB",21-10-2025 07:00:00,21.219665,81.630094,OZONE,2,12,2
India,Delhi,Delhi,"ITO, Delhi - CPCB",21-10-2025 07:00:00,28.628624,77.241060,NO2,84,112,92
India,Gujarat,Surat,"Science Center, Surat - SMC",21-10-2025 07:00:00,21.170046,72.795405,NO2,2,17,12
India,Gujarat,Surat,"Science Center, Surat - SMC",21-10-2025 07:00:00,21.170046,72.795405,CO,36,40,38
India,Gujarat,Vatva,"Phase-4 GIDC, Vatva - GPCB",21-10-2025 07:00:00,22.969611,72.643500,NH3,3,5,4
India,Gujarat,Vatva,"Phase-4 GIDC, Vatva - GPCB",21-10-2025 07:00:00,22.969611,72.643500,SO2,15,32,22
India,Gujarat,Vatva,"Phase-4 GIDC, Vatva - GPCB",21-10-2025 07:00:00,22.969611,72.643500,CO,20,52,22
India,Haryana,Ambala,"Patti Mehar, Ambala - HSPCB",21-10-2025 07:00:00,30.379589,76.778328,PM10,8,464,168
India,Haryana,Ambala,"Patti Mehar, Ambala - HSPCB",21-10-2025 07:00:00,30.379589,76.778328,NH3,7,11,9
India,Haryana,Bahadurgarh,"Arya Nagar, Bahadurgarh - HSPCB",21-10-2025 07:00:00,28.6701,76.9254,NH3,12,14,12
India,Haryana,Bahadurgarh,"Arya Nagar, Bahadurgarh - HSPCB",21-10-2025 07:00:00,28.6701,76.9254,SO2,5,7,6
India,Delhi,Delhi,"NSIT Dwarka, Delhi - CPCB",21-10-2025 07:00:00,28.60909,77.0325413,NO2,65,147,100
India,Delhi,Delhi,"NSIT Dwarka, Delhi - CPCB",21-10-2025 07:00:00,28.60909,77.0325413,SO2,2,122,21
India,Delhi,Delhi,"Najafgarh, Delhi - DPCC",21-10-2025 07:00:00,28.570173,76.933762,PM2.5,230,500,336
India,Delhi,Delhi,"Najafgarh, Delhi - DPCC",21-10-2025 07:00:00,28.570173,76.933762,NO2,62,139,108
India,Delhi,Delhi,"Najafgarh, Delhi - DPCC",21-10-2025 07:00:00,28.570173,76.933762,SO2,12,136,63
India,Delhi,Delhi,"Najafgarh, Delhi - DPCC",21-10-2025 07:00:00,28.570173,76.933762,CO,54,103,88
India,Delhi,Delhi,"Narela, Delhi - DPCC",21-10-2025 07:00:00,28.822836,77.101981,PM10,144,459,302
India,Delhi,Delhi,"Narela, Delhi - DPCC",21-10-2025 07:00:00,28.822836,77.101981,CO,22,77,41
India,Delhi,Delhi,"Nehru Nagar, Delhi - DPCC",21-10-2025 07:00:00,28.567890,77.250515,PM2.5,NA,NA,NA
India,Delhi,Delhi,"Rohini, Delhi - DPCC",21-10-2025 07:00:00,28.732528,77.119920,NH3,11,15,13
India,Delhi,Delhi,"Shadipur, Delhi - CPCB",21-10-2025 07:00:00,28.6514781,77.1473105,NO2,58,128,89
India,Delhi,Delhi,"Shadipur, Delhi - CPCB",21-10-2025 07:00:00,28.6514781,77.1473105,CO,40,114,79
India,Delhi,Delhi,"Shadipur, Delhi - CPCB",21-10-2025 07:00:00,28.6514781,77.1473105,OZONE,7,49,10
India,Delhi,Delhi,"Sirifort, Delhi - CPCB",21-10-2025 07:00:00,28.5504249,77.2159377,PM2.5,259,456,288
India,Delhi,Delhi,"Sirifort, Delhi - CPCB",21-10-2025 07:00:00,28.5504249,77.2159377,OZONE,7,40,9
India,Delhi,Delhi,"Sonia Vihar, Delhi - DPCC",21-10-2025 07:00:00,28.710508,77.249485,PM2.5,160,500,363
India,Gujarat,Ahmedabad,"SAC ISRO Bopal, Ahmedabad - IITM",21-10-2025 07:00:00,23.041137,72.456691,NH3,2,3,3
India,Gujarat,Ahmedabad,"SAC ISRO Bopal, Ahmedabad - IITM",21-10-2025 07:00:00,23.041137,72.456691,SO2,4,108,40
India,Gujarat,Ahmedabad,"SAC ISRO Bopal, Ahmedabad - IITM",21-10-2025 07:00:00,23.041137,72.456691,OZONE,1,78,4
India,Gujarat,Ahmedabad,"SAC ISRO Satellite, Ahmedabad - IITM",21-10-2025 07:00:00,23.023389,72.515201,NO2,16,152,73
India,Gujarat,Ahmedabad,"SAC ISRO Satellite, Ahmedabad - IITM",21-10-2025 07:00:00,23.023389,72.515201,NH3,4,21,9
India,Gujarat,Ahmedabad,"SAC ISRO Satellite, Ahmedabad - IITM",21-10-2025 07:00:00,23.023389,72.515201,SO2,16,135,61
India,Gujarat,Ankleshwar,"GIDC, Ankleshwar - GPCB",21-10-2025 07:00:00,21.613267,73.010555,NO2,27,28,28
India,Gujarat,Ahmedabad,"Chandkheda, Ahmedabad - IITM",21-10-2025 07:00:00,23.107969,72.574648,NH3,7,75,25
India,Gujarat,Ahmedabad,"Gyaspur, Ahmedabad - IITM",21-10-2025 07:00:00,22.977134,72.553024,PM2.5,48,500,193
India,Gujarat,Ahmedabad,"Gyaspur, Ahmedabad - IITM",21-10-2025 07:00:00,22.977134,72.553024,PM10,73,500,160
India,Gujarat,Ahmedabad,"Gyaspur, Ahmedabad - IITM",21-10-2025 07:00:00,22.977134,72.553024,NO2,2,94,31
India,Gujarat,Ahmedabad,"Gyaspur, Ahmedabad - IITM",21-10-2025 07:00:00,22.977134,72.553024,NH3,1,38,8
India,Gujarat,Ahmedabad,"Raikhad, Ahmedabad - IITM",21-10-2025 07:00:00,23.020509,72.579261,NO2,17,137,69
India,Gujarat,Ahmedabad,"Raikhad, Ahmedabad - IITM",21-10-2025 07:00:00,23.020509,72.579261,NH3,8,39,19
India,Delhi,Delhi,"Vivek Vihar, Delhi - DPCC",21-10-2025 07:00:00,28.672342,77.315260,NO2,21,116,62
India,Delhi,Delhi,"Vivek Vihar, Delhi - DPCC",21-10-2025 07:00:00,28.672342,77.315260,NH3,11,12,11
India,Delhi,Delhi,"Vivek Vihar, Delhi - DPCC",21-10-2025 07:00:00,28.672342,77.315260,SO2,14,138,58
India,Delhi,Delhi,"Wazirpur, Delhi - DPCC",21-10-2025 07:00:00,28.699793,77.165453,PM2.5,223,500,408
India,Delhi,Delhi,"Wazirpur, Delhi - DPCC",21-10-2025 07:00:00,28.699793,77.165453,PM10,175,500,390
India,Gujarat,Ahmedabad,"Chandkheda, Ahmedabad - IITM",21-10-2025 07:00:00,23.107969,72.574648,PM10,52,500,174
India,Delhi,Delhi,"Pusa, Delhi - DPCC",21-10-2025 07:00:00,28.639652,77.146275,PM2.5,197,500,348
India,Delhi,Delhi,"Pusa, Delhi - DPCC",21-10-2025 07:00:00,28.639652,77.146275,NH3,8,33,18
India,Delhi,Delhi,"Pusa, Delhi - DPCC",21-10-2025 07:00:00,28.639652,77.146275,SO2,8,79,26
India,Delhi,Delhi,"Pusa, Delhi - IMD",21-10-2025 07:00:00,28.636110,77.173332,PM10,NA,NA,NA
India,Delhi,Delhi,"Pusa, Delhi - IMD",21-10-2025 07:00:00,28.636110,77.173332,OZONE,16,83,17
India,Delhi,Delhi,"R K Puram, Delhi - DPCC",21-10-2025 07:00:00,28.563262,77.186937,NO2,25,123,62
India,Delhi,Delhi,"R K Puram, Delhi - DPCC",21-10-2025 07:00:00,28.563262,77.186937,SO2,4,100,38
India,Gujarat,Ankleshwar,"GIDC, Ankleshwar - GPCB",21-10-2025 07:00:00,21.613267,73.010555,NH3,7,7,7
India,Gujarat,Gandhinagar,"IIPHG Lekawada, Gandhinagar - IITM",21-10-2025 07:00:00,23.243639,72.68994,PM2.5,43,484,200
India,Gujarat,Gandhinagar,"IIPHG Lekawada, Gandhinagar - IITM",21-10-2025 07:00:00,23.243639,72.68994,NO2,4,16,9
India,Gujarat,Gandhinagar,"IIPHG Lekawada, Gandhinagar - IITM",21-10-2025 07:00:00,23.243639,72.68994,SO2,4,12,7
India,Gujarat,Gandhinagar,"Sector-10, Gandhinagar - GPCB",21-10-2025 07:00:00,23.221714,72.654328,CO,27,41,36
India,Delhi,Delhi,"Okhla Phase-2, Delhi - DPCC",21-10-2025 07:00:00,28.530785,77.271255,PM2.5,197,500,350
India,Delhi,Delhi,"Okhla Phase-2, Delhi - DPCC",21-10-2025 07:00:00,28.530785,77.271255,NH3,7,12,10
India,Delhi,Delhi,"Okhla Phase-2, Delhi - DPCC",21-10-2025 07:00:00,28.530785,77.271255,OZONE,10,184,16
India,Delhi,Delhi,"Patparganj, Delhi - DPCC",21-10-2025 07:00:00,28.623763,77.287209,CO,6,108,78
India,Delhi,Delhi,"Punjabi Bagh, Delhi - DPCC",21-10-2025 07:00:00,28.674045,77.131023,PM2.5,223,500,375
India,Haryana,Sirsa,"F-Block, Sirsa - HSPCB",21-10-2025 07:00:00,29.536400,75.015800,CO,49,64,58
India,Haryana,Sirsa,"F-Block, Sirsa - HSPCB",21-10-2025 07:00:00,29.536400,75.015800,OZONE,12,82,74
India,Haryana,Sonipat,"Murthal, Sonipat - HSPCB",21-10-2025 07:00:00,29.027200,77.062100,PM10,134,381,208
India,Haryana,Sonipat,"Murthal, Sonipat - HSPCB",21-10-2025 07:00:00,29.027200,77.062100,NH3,11,20,17
India,Himachal Pradesh,Baddi,"HIMUDA Complex Phase-1, Baddi - HPPCB",21-10-2025 07:00:00,30.943887,76.801991,PM2.5,32,456,151
India,Himachal Pradesh,Baddi,"HIMUDA Complex Phase-1, Baddi - HPPCB",21-10-2025 07:00:00,30.943887,76.801991,PM10,54,422,132
India,Himachal Pradesh,Baddi,"HIMUDA Complex Phase-1, Baddi - HPPCB",21-10-2025 07:00:00,30.943887,76.801991,NO2,6,73,25
India,Haryana,Gurugram,"Vikas Sadan, Gurugram - HSPCB",21-10-2025 07:00:00,28.4501238,77.0263051,SO2,2,8,5
India,Haryana,Hisar,"Urban Estate-II, Hisar - HSPCB",21-10-2025 07:00:00,29.140560,75.744941,PM2.5,88,500,184
India,Haryana,Jind,"Police Lines, Jind - HSPCB",21-10-2025 07:00:00,29.307814,76.337619,PM10,92,500,274
India,Haryana,Jind,"Police Lines, Jind - HSPCB",21-10-2025 07:00:00,29.307814,76.337619,OZONE,1,3,1
India,Haryana,Kaithal,"Rishi Nagar, Kaithal - HSPCB",21-10-2025 07:00:00,29.8006,76.4155,NO2,29,32,31
India,Haryana,Kaithal,"Rishi Nagar, Kaithal - HSPCB",21-10-2025 07:00:00,29.8006,76.4155,SO2,29,56,47
India,Haryana,Faridabad,"Sector 30, Faridabad - HSPCB",21-10-2025 07:00:00,28.4417,77.3217,NH3,10,12,11
India,Haryana,Faridabad,"Sector 30, Faridabad - HSPCB",21-10-2025 07:00:00,28.4417,77.3217,CO,56,66,63
India,Haryana,Fatehabad,"Huda Sector, Fatehabad - HSPCB",21-10-2025 07:00:00,29.503664,75.467934,PM2.5,95,398,216
India,Haryana,Fatehabad,"Huda Sector, Fatehabad - HSPCB",21-10-2025 07:00:00,29.503664,75.467934,NH3,13,15,14
India,Haryana,Gurugram,"Sector-51, Gurugram - HSPCB",21-10-2025 07:00:00,28.4227,77.0667,PM2.5,93,500,347
India,Jammu_and_Kashmir,Srinagar,"Rajbagh, Srinagar - JKSPCB",21-10-2025 07:00:00,34.066206,74.819820,SO2,3,4,3
India,Jammu_and_Kashmir,Srinagar,"Rajbagh, Srinagar - JKSPCB",21-10-2025 07:00:00,34.066206,74.819820,OZONE,NA,NA,NA
India,Karnataka,Bagalkot,"Vidayagiri, Bagalkot - KSPCB",21-10-2025 07:00:00,16.172806,75.659694,PM10,42,49,45
India,Karnataka,Belgaum,"Ramteerth Nagar, Belgaum - KSPCB",21-10-2025 07:00:00,15.888653,74.541751,PM10,11,117,56
India,Haryana,Narnaul,"Shastri Nagar, Narnaul - HSPCB",21-10-2025 07:00:00,28.060249,76.113115,PM2.5,298,500,364
India,Haryana,Palwal,"Shyam Nagar, Palwal - HSPCB",21-10-2025 07:00:00,28.1485564,77.3320667,OZONE,23,25,24
India,Haryana,Panchgaon,"Amity University, Panchgaon - IITM",21-10-2025 07:00:00,28.3153,76.9143,NO2,58,99,77
India,Haryana,Mandikhera,"General Hospital, Mandikhera - HSPCB",21-10-2025 07:00:00,27.9002,76.9938,PM10,29,91,60
India,Haryana,Mandikhera,"General Hospital, Mandikhera - HSPCB",21-10-2025 07:00:00,27.9002,76.9938,NH3,4,123,38
India,Haryana,Manesar,"Sector-2 IMT, Manesar - HSPCB",21-10-2025 07:00:00,28.360699,76.936090,PM10,111,500,279
India,Haryana,Manesar,"Sector-2 IMT, Manesar - HSPCB",21-10-2025 07:00:00,28.360699,76.936090,NH3,7,17,12
India,Karnataka,Bengaluru,"BTM Layout, Bengaluru - CPCB",21-10-2025 07:00:00,12.9135218,77.5950804,PM2.5,25,254,60
India,Karnataka,Bengaluru,"BWSSB Kadabesanahalli, Bengaluru - CPCB",21-10-2025 07:00:00,12.9352049,77.6814488,OZONE,26,26,26
India,Karnataka,Bengaluru,"Bapuji Nagar, Bengaluru - KSPCB",21-10-2025 07:00:00,12.951913,77.539784,PM10,30,187,88
India,Karnataka,Bengaluru,"Hebbal, Bengaluru - KSPCB",21-10-2025 07:00:00,13.029152,77.585901,OZONE,7,17,7
India,Karnataka,Bengaluru,"Hombegowda Nagar, Bengaluru - KSPCB",21-10-2025 07:00:00,12.938539,77.590100,PM10,16,143,45
India,Karnataka,Bengaluru,"Jayanagar 5th Block, Bengaluru - KSPCB",21-10-2025 07:00:00,12.920984,77.584908,CO,6,36,8
India,Haryana,Bahadurgarh,"Arya Nagar, Bahadurgarh - HSPCB",21-10-2025 07:00:00,28.6701,76.9254,CO,24,52,45
India,Haryana,Ballabgarh,"Nathu Colony, Ballabgarh - HSPCB",21-10-2025 07:00:00,28.3419248,77.319699,SO2,6,45,13
India,Karnataka,Dharwad,"Kalabhavan, Dharwad - KSPCB",21-10-2025 07:00:00,15.459706,75.008381,CO,34,111,67
India,Karnataka,Gadag,"Panchal Nagar, Gadag - KSPCB",21-10-2025 07:00:00,15.411456,75.638133,CO,14,84,17
India,Karnataka,Hassan,"B.Katihalli, Hassan - KSPCB",21-10-2025 07:00:00,13.008556,76.125258,PM2.5,33,57,44
India,Karnataka,Hassan,"B.Katihalli, Hassan - KSPCB",21-10-2025 07:00:00,13.008556,76.125258,CO,5,26,16
India,Karnataka,Hassan,"B.Katihalli, Hassan - KSPCB",21-10-2025 07:00:00,13.008556,76.125258,OZONE,2,16,7
India,Karnataka,Haveri,"Ashwini Nagar, Haveri - KSPCB",21-10-2025 07:00:00,14.791800,75.389600,PM10,58,86,69
India,Karnataka,Haveri,"Ashwini Nagar, Haveri - KSPCB",21-10-2025 07:00:00,14.791800,75.389600,SO2,20,25,22
India,Karnataka,Hubballi,"Lingaraj Nagar, Hubballi - KSPCB",21-10-2025 07:00:00,15.3714823,75.1160168,CO,6,33,18
India,Karnataka,Bengaluru,"Jigani, Bengaluru - KSPCB",21-10-2025 07:00:00,12.7816279,77.6299145,NH3,6,11,8
India,Karnataka,Bengaluru,"Jigani, Bengaluru - KSPCB",21-10-2025 07:00:00,12.7816279,77.6299145,CO,26,56,49
India,Karnataka,Bengaluru,"Kasturi Nagar, Bengaluru - KSPCB",21-10-2025 07:00:00,13.003872,77.664217,NH3,4,6,5
India,Karnataka,Bengaluru,"Kasturi Nagar, Bengaluru - KSPCB",21-10-2025 07:00:00,13.003872,77.664217,OZONE,22,32,22
India,Karnataka,Bengaluru,"Peenya, Bengaluru - CPCB",21-10-2025 07:00:00,13.0270199,77.494094,NO2,19,32,26
India,Karnataka,Bengaluru,"RVCE-Mailasandra, Bengaluru - KSPCB",21-10-2025 07:00:00,12.921418,77.502466,PM10,NA,NA,NA
India,Karnataka,Chamarajanagar,"Urban, Chamarajanagar - KSPCB",21-10-2025 07:00:00,11.55358,76.55521,NO2,19,47,29
India,Karnataka,Chikkamagaluru,"Kalyana Nagara, Chikkamagaluru - KSPCB",21-10-2025 07:00:00,13.328028,75.797056,CO,8,97,29
India,Karnataka,Davanagere,"Devaraj Urs Badavane, Davanagere - KSPCB",21-10-2025 07:00:00,14.475800,75.905200,SO2,5,17,9
India,Karnataka,Dharwad,"Kalabhavan, Dharwad - KSPCB",21-10-2025 07:00:00,15.459706,75.008381,SO2,3,6,4
India,Karnataka,Vijayapura,"Ibrahimpur, Vijayapura - KSPCB",21-10-2025 07:00:00,16.802639,75.722694,CO,10,120,34
India,Karnataka,Yadgir,"Collector Office, Yadgir - KSPCB",21-10-2025 07:00:00,16.7602,77.1428,PM10,6,26,17
India,Karnataka,Yadgir,"Collector Office, Yadgir - KSPCB",21-10-2025 07:00:00,16.7602,77.1428,CO,11,26,18
India,Kerala,Eloor,"Udyogamandal, Eloor - Kerala PCB",21-10-2025 07:00:00,10.073232,76.302765,PM2.5,39,61,45
India,Karnataka,Kalaburagi,"Lal Bahadur Shastri Nagar, Kalaburagi - KSPCB",21-10-2025 07:00:00,17.321993,76.822628,NO2,NA,NA,NA
India,Karnataka,Kalaburagi,"Mahatma Basaveswar Colony, Kalaburgi - KSPCB",21-10-2025 07:00:00,17.336318,76.847397,CO,27,66,41
India,Karnataka,Karwar,"KHB Colony, Karwar - KSPCB",21-10-2025 07:00:00,14.816666,74.141003,PM10,3,112,35
India,Karnataka,Karwar,"KHB Colony, Karwar - KSPCB",21-10-2025 07:00:00,14.816666,74.141003,CO,12,14,12
India,Karnataka,Bengaluru,"RVCE-Mailasandra, Bengaluru - KSPCB",21-10-2025 07:00:00,12.921418,77.502466,NH3,3,4,4
India,Karnataka,Bengaluru,"Sanegurava Halli, Bengaluru - KSPCB",21-10-2025 07:00:00,12.990328,77.5431385,SO2,7,24,15
India,Karnataka,Bidar,"Naubad, Bidar - KSPCB",21-10-2025 07:00:00,17.930306,77.482194,NH3,4,4,4
India,Karnataka,Bidar,"Naubad, Bidar - KSPCB",21-10-2025 07:00:00,17.930306,77.482194,SO2,121,121,121
India,Karnataka,Madikeri,"Stuart Hill, Madikeri - KSPCB",21-10-2025 07:00:00,12.415911,75.735050,CO,8,16,8
India,Karnataka,Mangalore,"Kadri, Mangalore - KSPCB",21-10-2025 07:00:00,12.889250,74.853000,OZONE,8,43,20
India,Karnataka,Shivamogga,"Vinoba Nagara, Shivamogga - KSPCB",21-10-2025 07:00:00,13.940000,75.555917,NO2,13,46,25
India,Kerala,Kollam,"Polayathode, Kollam - Kerala PCB",21-10-2025 07:00:00,8.8787,76.6073,PM2.5,20,69,42
India,Kerala,Thiruvananthapuram,"Plammoodu, Thiruvananthapuram - Kerala PCB",21-10-2025 07:00:00,8.5149093,76.9435879,NO2,58,93,75
India,Kerala,Thiruvananthapuram,"Plammoodu, Thiruvananthapuram - Kerala PCB",21-10-2025 07:00:00,8.5149093,76.9435879,SO2,8,24,14
India,Madhya Pradesh,Bhopal,"Paryavaran Parisar, Bhopal - MPPCB",21-10-2025 07:00:00,23.210494,77.425409,NH3,5,7,6
India,Madhya Pradesh,Bhopal,"Paryavaran Parisar, Bhopal - MPPCB",21-10-2025 07:00:00,23.210494,77.425409,OZONE,12,69,23
India,Madhya Pradesh,Gwalior,"City Center, Gwalior - MPPCB",21-10-2025 07:00:00,26.203442,78.193251,CO,26,68,43
India,Madhya Pradesh,Indore,"Airport Area, Indore - IMC",21-10-2025 07:00:00,22.7289,75.8076,SO2,19,20,20
India,Madhya Pradesh,Indore,"Airport Area, Indore - IMC",21-10-2025 07:00:00,22.7289,75.8076,CO,4,8,7
India,Madhya Pradesh,Indore,"Chhoti Gwaltoli, Indore - MPPCB",21-10-2025 07:00:00,22.4310,75.5213,CO,20,76,60
India,Madhya Pradesh,Indore,"Residency Area, Indore - IMC",21-10-2025 07:00:00,22.7084,75.8815,PM2.5,30,500,166
India,Madhya Pradesh,Indore,"Residency Area, Indore - IMC",21-10-2025 07:00:00,22.7084,75.8815,OZONE,8,15,10
India,Madhya Pradesh,Jabalpur,"Govindh Bhavan Colony, Jabalpur - JMC",21-10-2025 07:00:00,23.163174,79.973061,PM2.5,52,207,98
India,Maharashtra,Amravati,"Shivneri Colony, Amravati - MPCB",21-10-2025 07:00:00,20.9402359,77.7895248,NO2,9,19,14
India,Maharashtra,Amravati,"Shri Shivaji Science College, Amravati - MPCB",21-10-2025 07:00:00,20.939198,77.765701,PM2.5,67,217,106
India,Maharashtra,Aurangabad,"More Chowk Waluj, Aurangabad - MPCB",21-10-2025 07:00:00,19.8389439,75.244448,NH3,10,12,11
India,Maharashtra,Aurangabad,"Rachnakar Colony, Aurangabad - MPCB",21-10-2025 07:00:00,19.863756,75.321188,CO,14,30,19
India,Madhya Pradesh,Jabalpur,"Marhatal, Jabalpur - MPPCB",21-10-2025 07:00:00,23.168606,79.932247,NO2,11,41,20
India,Madhya Pradesh,Jabalpur,"Marhatal, Jabalpur - MPPCB",21-10-2025 07:00:00,23.168606,79.932247,SO2,19,37,28
India,Madhya Pradesh,Jabalpur,"Marhatal, Jabalpur - MPPCB",21-10-2025 07:00:00,23.168606,79.932247,CO,16,117,53
India,Madhya Pradesh,Jabalpur,"Suhagi, Jabalpur - JMC",21-10-2025 07:00:00,23.218135,79.957770,PM2.5,57,500,195
India,Madhya Pradesh,Katni,"Gole Bazar, Katni - MPPCB",21-10-2025 07:00:00,23.50016,80.23284,PM10,102,403,159
India,Madhya Pradesh,Gwalior,"City Center, Gwalior - MPPCB",21-10-2025 07:00:00,26.203442,78.193251,OZONE,5,94,24
India,Madhya Pradesh,Gwalior,"Maharaj Bada, Gwalior - MPPCB",21-10-2025 07:00:00,26.200388,78.147714,PM2.5,72,500,234
India,Madhya Pradesh,Gwalior,"Maharaj Bada, Gwalior - MPPCB",21-10-2025 07:00:00,26.200388,78.147714,NH3,3,6,4
India,Maharashtra,Belapur,"CBD Belapur, Belapur - MPCB",21-10-2025 07:00:00,19.0243902,73.0406721,PM2.5,117,477,261
India,Maharashtra,Belapur,"CBD Belapur, Belapur - MPCB",21-10-2025 07:00:00,19.0243902,73.0406721,NO2,2,7,4
India,Maharashtra,Belapur,"CBD Belapur, Belapur - MPCB",21-10-2025 07:00:00,19.0243902,73.0406721,CO,14,42,21
India,Maharashtra,Belapur,"CBD Belapur, Belapur - MPCB",21-10-2025 07:00:00,19.0243902,73.0406721,OZONE,8,71,18
India,Madhya Pradesh,Singrauli,"Suryakiran Bhawan NCL, Singrauli - MPPCB",21-10-2025 07:00:00,24.108970,82.645580,PM10,93,500,205
India,Maharashtra,Ahmednagar,"Tarakpur, Ahmednagar - MPCB",21-10-2025 07:00:00,19.10122,74.73339,PM10,51,127,87
India,Madhya Pradesh,Katni,"Gole Bazar, Katni - MPPCB",21-10-2025 07:00:00,23.50016,80.23284,NO2,16,77,42
India,Madhya Pradesh,Maihar,"Sahilara, Maihar - KJS Cements",21-10-2025 07:00:00,24.2613009,80.7231783,PM2.5,2,204,85
India,Maharashtra,Ahmednagar,"Tarakpur, Ahmednagar - MPCB",21-10-2025 07:00:00,19.10122,74.73339,NH3,4,7,5
India,Maharashtra,Akola,"Ramdaspeth, Akola - MPCB",21-10-2025 07:00:00,20.719516,77.000253,NH3,3,11,6
India,Madhya Pradesh,Ratlam,"Shasthri Nagar, Ratlam - IPCA Lab",21-10-2025 07:00:00,23.331731,75.045981,PM10,120,500,200
India,Maharashtra,Chandrapur,"Chauhan Colony, Chandrapur - MPCB",21-10-2025 07:00:00,19.962900,79.298714,CO,40,117,43
India,Maharashtra,Chandrapur,"Chauhan Colony, Chandrapur - MPCB",21-10-2025 07:00:00,19.962900,79.298714,OZONE,18,19,19
India,Maharashtra,Chandrapur,"MIDC Khutala, Chandrapur - MPCB",21-10-2025 07:00:00,19.9775302,79.2337086,PM2.5,11,121,74
India,Maharashtra,Chandrapur,"MIDC Khutala, Chandrapur - MPCB",21-10-2025 07:00:00,19.9775302,79.2337086,PM10,37,121,80
India,Maharashtra,Chandrapur,"MIDC Khutala, Chandrapur - MPCB",21-10-2025 07:00:00,19.9775302,79.2337086,NO2,12,25,18
India,Maharashtra,Chandrapur,"MIDC Khutala, Chandrapur - MPCB",21-10-2025 07:00:00,19.9775302,79.2337086,CO,37,42,39
India,Maharashtra,Chandrapur,"MIDC Khutala, Chandrapur - MPCB",21-10-2025 07:00:00,19.9775302,79.2337086,OZONE,17,19,18
India,Maharashtra,Jalgaon,"Prabhat Colony, Jalgaon - MPCB",21-10-2025 07:00:00,21.001264,75.565602,NH3,2,3,2
India,Maharashtra,Jalgaon,"Prabhat Colony, Jalgaon - MPCB",21-10-2025 07:00:00,21.001264,75.565602,SO2,2,76,15
India,Maharashtra,Jalna,"Old MIDC, Jalna - MPCB",21-10-2025 07:00:00,19.854616,75.905894,PM2.5,NA,NA,NA
India,Maharashtra,Jalna,"Old MIDC, Jalna - MPCB",21-10-2025 07:00:00,19.854616,75.905894,PM10,82,204,134
India,Maharashtra,Jalna,"Old MIDC, Jalna - MPCB",21-10-2025 07:00:00,19.854616,75.905894,CO,10,18,16
India,Maharashtra,Jalna,"Old MIDC, Jalna - MPCB",21-10-2025 07:00:00,19.854616,75.905894,OZONE,30,172,66
India,Maharashtra,Malegaon,"Mahesh Nagar, Malegaon - MPCB",21-10-2025 07:00:00,20.555712,74.529236,NH3,2,6,3
India,Maharashtra,Malegaon,"Mahesh Nagar, Malegaon - MPCB",21-10-2025 07:00:00,20.555712,74.529236,OZONE,2,43,30
India,Maharashtra,Mira-Bhayandar,"Bhayandar West, Mira-Bhayandar - MPCB",21-10-2025 07:00:00,19.296481,72.840923,PM2.5,143,500,264
India,Maharashtra,Mira-Bhayandar,"Bhayandar West, Mira-Bhayandar - MPCB",21-10-2025 07:00:00,19.296481,72.840923,NH3,1,10,4
India,Maharashtra,Mumbai,"Bandra Kurla Complex, Mumbai - MPCB",21-10-2025 07:00:00,19.065931,72.862131,PM2.5,77,500,225
India,Maharashtra,Mumbai,"Borivali East, Mumbai - IITM",21-10-2025 07:00:00,19.23241,72.86895,NO2,30,139,63
India,Maharashtra,Mumbai,"Borivali East, Mumbai - MPCB",21-10-2025 07:00:00,19.2243333,72.8658113,PM2.5,100,300,184
India,Maharashtra,Mumbai,"Kandivali West, Mumbai - BMC",21-10-2025 07:00:00,19.215859,72.831718,OZONE,1,56,8
India,Maharashtra,Mumbai,"Kherwadi_Bandra East, Mumbai - MPCB",21-10-2025 07:00:00,19.0632143,72.8456324,OZONE,1,84,2
India,Maharashtra,Mumbai,"Khindipada-Bhandup West, Mumbai - IITM",21-10-2025 07:00:00,19.1653323,72.922099,NO2,8,28,15
India,Maharashtra,Mumbai,"Khindipada-Bhandup West, Mumbai - IITM",21-10-2025 07:00:00,19.1653323,72.922099,OZONE,15,77,36
India,Maharashtra,Mumbai,"Kurla, Mumbai - MPCB",21-10-2025 07:00:00,19.0863,72.8888,SO2,36,37,37
India,Maharashtra,Mumbai,"Kurla, Mumbai - MPCB",21-10-2025 07:00:00,19.0863,72.8888,CO,6,18,12
India,Maharashtra,Mumbai,"Navy Nagar-Colaba, Mumbai - IITM",21-10-2025 07:00:00,18.897756,72.813320,OZONE,6,130,17
India,Maharashtra,Mumbai,"Powai, Mumbai - MPCB",21-10-2025 07:00:00,19.137500,72.915056,CO,15,16,15
India,Maharashtra,Mumbai,"Sewri, Mumbai - BMC",21-10-2025 07:00:00,19.000084,72.856730,SO2,1,86,26
India,Maharashtra,Mumbai,"Shivaji Nagar, Mumbai - BMC",21-10-2025 07:00:00,19.060498,72.923356,PM2.5,NA,NA,NA
India,Maharashtra,Mumbai,"Shivaji Nagar, Mumbai - BMC",21-10-2025 07:00:00,19.060498,72.923356,SO2,3,14,10
India,Maharashtra,Mumbai,"Borivali East, Mumbai - MPCB",21-10-2025 07:00:00,19.2243333,72.8658113,NH3,2,3,3
India,Maharashtra,Mumbai,"Borivali East, Mumbai - MPCB",21-10-2025 07:00:00,19.2243333,72.8658113,SO2,14,20,17
India,Maharashtra,Mumbai,"Borivali East, Mumbai - MPCB",21-10-2025 07:00:00,19.2243333,72.8658113,CO,8,12,11
India,Maharashtra,Mumbai,"Byculla, Mumbai - BMC",21-10-2025 07:00:00,18.9767,72.8380,NH3,5,14,9
India,Maharashtra,Mumbai,"Byculla, Mumbai - BMC",21-10-2025 07:00:00,18.9767,72.8380,CO,8,34,15
India,Maharashtra,Mumbai,"Byculla, Mumbai - BMC",21-10-2025 07:00:00,18.9767,72.8380,OZONE,10,132,19
India,Maharashtra,Mumbai,"Colaba, Mumbai - MPCB",21-10-2025 07:00:00,18.910000,72.820000,NH3,3,3,3
India,Maharashtra,Mumbai,"Deonar, Mumbai - IITM",21-10-2025 07:00:00,19.04946,72.9230,NH3,12,17,14
India,Maharashtra,Mumbai,"Deonar, Mumbai - IITM",21-10-2025 07:00:00,19.04946,72.9230,SO2,2,7,5
India,Maharashtra,Mumbai,"Ghatkopar, Mumbai - BMC",21-10-2025 07:00:00,19.083694,72.920967,NO2,12,54,29
India,Maharashtra,Mumbai,"Ghatkopar, Mumbai - BMC",21-10-2025 07:00:00,19.083694,72.920967,NH3,2,7,4
India,Maharashtra,Latur,"Sawe Wadi, Latur - MPCB",21-10-2025 07:00:00,18.39963,76.57452,PM10,48,86,71
India,Maharashtra,Latur,"Sawe Wadi, Latur - MPCB",21-10-2025 07:00:00,18.39963,76.57452,CO,13,29,18
India,Maharashtra,Malegaon,"Mahesh Nagar, Malegaon - MPCB",21-10-2025 07:00:00,20.555712,74.529236,PM2.5,92,209,126
India,Maharashtra,Kalyan,"Khadakpada, Kalyan - MPCB",21-10-2025 07:00:00,19.25292,73.142019,PM2.5,33,260,93
India,Maharashtra,Kalyan,"Khadakpada, Kalyan - MPCB",21-10-2025 07:00:00,19.25292,73.142019,NO2,36,36,36
India,Maharashtra,Kalyan,"Pimpleshwar Mandir, Kalyan - MPCB",21-10-2025 07:00:00,19.192056,72.9585188,SO2,9,9,9
India,Maharashtra,Mumbai,"Mazgaon, Mumbai - IITM",21-10-2025 07:00:00,18.96702,72.84214,SO2,5,13,9
India,Maharashtra,Pimpri-Chinchwad,"Gavalinagar, Pimpri Chinchwad - MPCB",21-10-2025 07:00:00,18.63673,73.82487,SO2,2,4,2
India,Maharashtra,Pimpri-Chinchwad,"Gavalinagar, Pimpri Chinchwad - MPCB",21-10-2025 07:00:00,18.63673,73.82487,OZONE,10,11,10
India,Maharashtra,Pimpri-Chinchwad,"Park Street Wakad, Pimpri Chinchwad - MPCB",21-10-2025 07:00:00,18.59051,73.77946,SO2,2,21,10
India,Maharashtra,Pimpri-Chinchwad,"Park Street Wakad, Pimpri Chinchwad - MPCB",21-10-2025 07:00:00,18.59051,73.77946,CO,16,63,29
India,Maharashtra,Pimpri-Chinchwad,"Park Street Wakad, Pimpri Chinchwad - MPCB",21-10-2025 07:00:00,18.59051,73.77946,OZONE,9,98,38
India,Maharashtra,Pimpri-Chinchwad,"Savta Mali Nagar, Pimpri-Chinchwad - IITM",21-10-2025 07:00:00,18.614767,73.799516,PM2.5,NA,NA,NA
India,Maharashtra,Pimpri-Chinchwad,"Savta Mali Nagar, Pimpri-Chinchwad - IITM",21-10-2025 07:00:00,18.614767,73.799516,PM10,NA,NA,NA
India,Maharashtra,Pimpri-Chinchwad,"Savta Mali Nagar, Pimpri-Chinchwad - IITM",21-10-2025 07:00:00,18.614767,73.799516,OZONE,NA,NA,NA
India,Maharashtra,Pimpri-Chinchwad,"Thergaon, Pimpri Chinchwad - MPCB",21-10-2025 07:00:00,18.616318,73.765797,PM10,100,165,122
India,Maharashtra,Pimpri-Chinchwad,"Thergaon, Pimpri Chinchwad - MPCB",21-10-2025 07:00:00,18.616318,73.765797,NH3,2,3,3
India,Maharashtra,Pimpri-Chinchwad,"Thergaon, Pimpri Chinchwad - MPCB",21-10-2025 07:00:00,18.616318,73.765797,OZONE,21,63,34
India,Maharashtra,Pune,"Bhumkar Nagar, Pune - IITM",21-10-2025 07:00:00,18.605770,73.749976,PM10,15,288,161
India,Maharashtra,Pune,"Hadapsar, Pune - IITM",21-10-2025 07:00:00,18.501793,73.927532,PM2.5,1,75,33
India,Maharashtra,Pune,"Katraj Dairy, Pune - MPCB",21-10-2025 07:00:00,18.454450,73.854155,PM2.5,27,82,50
India,Maharashtra,Pune,"Katraj Dairy, Pune - MPCB",21-10-2025 07:00:00,18.454450,73.854155,PM10,74,143,106
India,Maharashtra,Pune,"Katraj Dairy, Pune - MPCB",21-10-2025 07:00:00,18.454450,73.854155,NO2,10,63,26
India,Maharashtra,Pune,"Mhada Colony, Pune - IITM",21-10-2025 07:00:00,18.573040,73.927715,PM2.5,99,335,214
India,Maharashtra,Pune,"Mhada Colony, Pune - IITM",21-10-2025 07:00:00,18.573040,73.927715,CO,8,90,35
India,Maharashtra,Pune,"Panchawati_Pashan, Pune - IITM",21-10-2025 07:00:00,18.536457,73.805454,PM2.5,53,226,127
India,Maharashtra,Pune,"Panchawati_Pashan, Pune - IITM",21-10-2025 07:00:00,18.536457,73.805454,PM10,83,145,109
India,Maharashtra,Pune,"Revenue Colony-Shivajinagar, Pune - IITM",21-10-2025 07:00:00,18.530085,73.849598,PM2.5,NA,NA,NA
India,Maharashtra,Pune,"Savitribai Phule Pune University, Pune - MPCB",21-10-2025 07:00:00,18.547056,73.826908,PM2.5,17,249,91
India,Maharashtra,Pune,"Savitribai Phule Pune University, Pune - MPCB",21-10-2025 07:00:00,18.547056,73.826908,PM10,24,193,101
India,Maharashtra,Nanded,"Sneh Nagar, Nanded - MPCB",21-10-2025 07:00:00,19.173852,77.296291,PM2.5,158,306,227
India,Maharashtra,Nanded,"Sneh Nagar, Nanded - MPCB",21-10-2025 07:00:00,19.173852,77.296291,OZONE,12,79,26
India,Maharashtra,Nashik,"Gangapur Road, Nashik - MPCB",21-10-2025 07:00:00,20.0073285,73.7762427,NO2,7,8,7
India,Maharashtra,Nashik,"Gangapur Road, Nashik - MPCB",21-10-2025 07:00:00,20.0073285,73.7762427,SO2,1,7,5
India,Maharashtra,Nashik,"Gangapur Road, Nashik - MPCB",21-10-2025 07:00:00,20.0073285,73.7762427,OZONE,8,54,43
India,Maharashtra,Nashik,"Hirawadi, Nashik - MPCB",21-10-2025 07:00:00,20.021503,73.813844,NH3,1,2,1
India,Maharashtra,Nashik,"Hirawadi, Nashik - MPCB",21-10-2025 07:00:00,20.021503,73.813844,SO2,30,137,42
India,Maharashtra,Nashik,"Hirawadi, Nashik - MPCB",21-10-2025 07:00:00,20.021503,73.813844,CO,51,71,58
India,Maharashtra,Nashik,"MIDC Ambad, Nashik - MPCB",21-10-2025 07:00:00,19.950220,73.731480,PM10,118,175,141
India,Maharashtra,Nashik,"MIDC Ambad, Nashik - MPCB",21-10-2025 07:00:00,19.950220,73.731480,OZONE,38,95,65
India,Maharashtra,Navi Mumbai,"Tondare-Taloja, Navi Mumbai - MPCB",21-10-2025 07:00:00,19.0630,73.1209,NH3,4,26,9
India,Maharashtra,Navi Mumbai,"Tondare-Taloja, Navi Mumbai - MPCB",21-10-2025 07:00:00,19.0630,73.1209,SO2,3,4,4
India,Maharashtra,Parbhani,"Masoom Colony, Parbhani - MPCB",21-10-2025 07:00:00,19.265594,76.761463,PM10,NA,NA,NA
India,Maharashtra,Parbhani,"Masoom Colony, Parbhani - MPCB",21-10-2025 07:00:00,19.265594,76.761463,CO,8,15,12
India,Maharashtra,Pimpri-Chinchwad,"Gavalinagar, Pimpri Chinchwad - MPCB",21-10-2025 07:00:00,18.63673,73.82487,PM10,103,133,118
India,Maharashtra,Pimpri-Chinchwad,"Gavalinagar, Pimpri Chinchwad - MPCB",21-10-2025 07:00:00,18.63673,73.82487,NO2,23,64,41
India,Maharashtra,Pune,"Savitribai Phule Pune University, Pune - MPCB",21-10-2025 07:00:00,18.547056,73.826908,SO2,2,4,3
India,Maharashtra,Sangli,"Vijay Nagar, Sangli - MPCB",21-10-2025 07:00:00, 16.5038,74.3623,PM2.5,34,228,94
India,Maharashtra,Solapur,"Ratandeep Housing Society, Solapur - MPCB",21-10-2025 07:00:00,17.65439,75.90649,NH3,1,2,2
India,Maharashtra,Solapur,"Ratandeep Housing Society, Solapur - MPCB",21-10-2025 07:00:00,17.65439,75.90649,CO,16,26,19
India,Maharashtra,Nagpur,"Ambazari, Nagpur - MPCB",21-10-2025 07:00:00,21.121801,79.04952,NH3,2,10,5
India,Maharashtra,Nagpur,"Ambazari, Nagpur - MPCB",21-10-2025 07:00:00,21.121801,79.04952,CO,12,38,27
India,Maharashtra,Nagpur,"Ambazari, Nagpur - MPCB",21-10-2025 07:00:00,21.121801,79.04952,OZONE,13,89,19
India,Maharashtra,Nagpur,"Ram Nagar, Nagpur - MPCB",21-10-2025 07:00:00,21.143383,79.048912,SO2,9,33,18
India,Maharashtra,Nashik,"Pandav Nagari, Nashik - MPCB",21-10-2025 07:00:00,19.9591346,73.7788008,CO,19,52,29
India,Maharashtra,Nashik,"Pandav Nagari, Nashik - MPCB",21-10-2025 07:00:00,19.9591346,73.7788008,OZONE,24,77,42
India,Maharashtra,Navi Mumbai,"Mahape, Navi Mumbai - MPCB",21-10-2025 07:00:00,19.1135051,73.008978,NH3,3,3,3
India,Maharashtra,Mumbai,"Worli, Mumbai - MPCB",21-10-2025 07:00:00,18.9936162,72.8128113,PM10,99,183,117
India,Maharashtra,Nagpur,"Ambazari, Nagpur - MPCB",21-10-2025 07:00:00,21.121801,79.04952,PM10,83,189,114
India,Maharashtra,Mumbai,"Siddharth Nagar-Worli, Mumbai - IITM",21-10-2025 07:00:00,19.000083,72.813993,NO2,32,94,56
India,Odisha,Byasanagar,"Ferro Chrome Colony, Byasanagar - OSPCB",21-10-2025 07:00:00,20.94185,86.11510,PM10,20,330,105
India,Odisha,Byasanagar,"Ferro Chrome Colony, Byasanagar - OSPCB",21-10-2025 07:00:00,20.94185,86.11510,SO2,2,29,8
India,Odisha,Cuttack,"CDA Area, Cuttack - OSPCB",21-10-2025 07:00:00,20.48891     ,85.84768     ,PM10,23,491,137
India,Odisha,Cuttack,"CDA Area, Cuttack - OSPCB",21-10-2025 07:00:00,20.48891     ,85.84768     ,SO2,3,26,10
India,Odisha,Cuttack,"CDA Area, Cuttack - OSPCB",21-10-2025 07:00:00,20.48891     ,85.84768     ,CO,23,50,39
India,Odisha,Cuttack,"CDA Area, Cuttack - OSPCB",21-10-2025 07:00:00,20.48891     ,85.84768     ,OZONE,10,44,13
India,Odisha,Keonjhar,"Jagamohanpur, Keonjhar - OSPCB",21-10-2025 07:00:00,21.643900,85.599355,PM2.5,44,59,51
India,Odisha,Keonjhar,"Jagamohanpur, Keonjhar - OSPCB",21-10-2025 07:00:00,21.643900,85.599355,CO,1,107,14
India,Odisha,Nayagarh,"Dabuna, Nayagarh - OSPCB",21-10-2025 07:00:00,21.847279,85.416905,PM2.5,34,58,45
India,Maharashtra,Virar,"Bolinj, Virar - MPCB",21-10-2025 07:00:00,19.4458210,72.7988231,OZONE,9,53,30
India,Meghalaya,Shillong,"JN Stadium, Shillong - Meghalaya PCB",21-10-2025 07:00:00,25.5803419,91.8942571,NH3,9,16,12
India,Meghalaya,Shillong,"JN Stadium, Shillong - Meghalaya PCB",21-10-2025 07:00:00,25.5803419,91.8942571,CO,8,63,32
India,Meghalaya,Shillong,"Lumpyngngad, Shillong - Meghalaya PCB",21-10-2025 07:00:00,25.5586,91.8985,CO,1,5,2
India,Nagaland,Kohima,"PWD Junction, Kohima - NPCB",21-10-2025 07:00:00,25.6635413,94.0989878,SO2,70,75,71
India,Nagaland,Kohima,"PWD Junction, Kohima - NPCB",21-10-2025 07:00:00,25.6635413,94.0989878,CO,4,16,7
India,Odisha,Angul,"Hakimapada, Angul - OSPCB",21-10-2025 07:00:00,20.832874,85.104082,SO2,1,74,19
India,Punjab,Rupnagar,"Ratanpura, Rupnagar - Ambuja Cements",21-10-2025 07:00:00,31.0325454,76.5623046,PM10,4,236,105
India,Rajasthan,Alwar,"Moti Doongri, Alwar - RSPCB",21-10-2025 07:00:00,27.554793,76.611536,SO2,30,68,45
India,Rajasthan,Alwar,"Moti Doongri, Alwar - RSPCB",21-10-2025 07:00:00,27.554793,76.611536,OZONE,15,70,43
India,Rajasthan,Banswara,"Rati Talai, Banswara - RSPCB",21-10-2025 07:00:00,23.555190,74.440010,NO2,14,79,33
India,Rajasthan,Banswara,"Rati Talai, Banswara - RSPCB",21-10-2025 07:00:00,23.555190,74.440010,NH3,5,10,8
India,Rajasthan,Baran,"Bamboliya, Baran - RSPCB",21-10-2025 07:00:00,25.106006,76.469948,NO2,4,27,9
India,Puducherry,Puducherry,"Jawahar Nagar, Puducherry - PPCC",21-10-2025 07:00:00,11.9309,79.8027,NO2,5,33,15
India,Punjab,Amritsar,"Golden Temple, Amritsar - PPCB",21-10-2025 07:00:00,31.620000,74.876512,SO2,13,37,20
India,Punjab,Bathinda,"Hardev Nagar, Bathinda - PPCB",21-10-2025 07:00:00,30.233011,74.907758,NO2,19,25,22
India,Punjab,Bathinda,"Hardev Nagar, Bathinda - PPCB",21-10-2025 07:00:00,30.233011,74.907758,CO,10,101,57
India,Punjab,Jalandhar,"Civil Line, Jalandhar - PPCB",21-10-2025 07:00:00,31.321907,75.578914,NO2,33,44,39
India,Odisha,Balasore,"Kalidaspur, Balasore - OSPCB",21-10-2025 07:00:00,21.51161,86.89088,CO,14,33,24
India,Odisha,Barbil,"Forest Office, Barbil - OSPCB",21-10-2025 07:00:00,22.1166054,85.3945546,CO,26,72,41
India,Odisha,Bhubaneswar,"Lingraj Mandir, Bhubaneswar - OSPCB",21-10-2025 07:00:00,20.240790,85.836784,PM10,21,500,110
India,Odisha,Bhubaneswar,"Lingraj Mandir, Bhubaneswar - OSPCB",21-10-2025 07:00:00,20.240790,85.836784,NH3,2,4,3
India,Odisha,Bhubaneswar,"Patia, Bhubaneswar - OSPCB",21-10-2025 07:00:00,20.34652,85.81630,OZONE,6,25,11
India,Maharashtra,Thane,"Kasarvadavali, Thane - MPCB",21-10-2025 07:00:00,19.26777,72.97182,SO2,4,8,5
India,Maharashtra,Thane,"Upvan Fort, Thane - MPCB",21-10-2025 07:00:00,19.222279,72.957979,PM2.5,17,500,201
India,Maharashtra,Ulhasnagar,"Sidhi Vinayak Nagar, Ulhasnagar - MPCB",21-10-2025 07:00:00,19.235581,73.159121,NO2,15,42,28
India,Maharashtra,Ulhasnagar,"Sidhi Vinayak Nagar, Ulhasnagar - MPCB",21-10-2025 07:00:00,19.235581,73.159121,NH3,2,6,4
India,Punjab,Ludhiana,"Punjab Agricultural University, Ludhiana - PPCB",21-10-2025 07:00:00,30.9028,75.8086,SO2,4,40,18
India,Punjab,Mandi Gobindgarh,"RIMT University, Mandi Gobindgarh - PPCB",21-10-2025 07:00:00,30.649961,76.331442,NO2,23,26,24
India,Punjab,Mandi Gobindgarh,"RIMT University, Mandi Gobindgarh - PPCB",21-10-2025 07:00:00,30.649961,76.331442,NH3,6,6,6
India,Odisha,Rourkela,"Raghunathpali, Rourkela - OSPCB",21-10-2025 07:00:00,22.220833,84.809444,CO,24,54,37
India,Odisha,Talcher,"Talcher Coalfields,Talcher - OSPCB",21-10-2025 07:00:00,20.9360711,85.1707021,OZONE,1,18,17
India,Odisha,Rairangpur,"Divisional Forest Office, Rairangpur - OSPCB",21-10-2025 07:00:00,22.265816,86.174829,OZONE,17,35,18
India,Odisha,Rourkela,"Raghunathpali, Rourkela - OSPCB",21-10-2025 07:00:00,22.220833,84.809444,PM10,NA,NA,NA
India,Rajasthan,Bhiwadi,"Vasundhara Nagar_UIT, Bhiwadi - RSPCB",21-10-2025 07:00:00,28.207266,76.829265,PM10,85,500,308
India,Rajasthan,Bhiwadi,"Vasundhara Nagar_UIT, Bhiwadi - RSPCB",21-10-2025 07:00:00,28.207266,76.829265,OZONE,3,95,7
India,Rajasthan,Bikaner,"MM Ground, Bikaner - RSPCB",21-10-2025 07:00:00,28.018792,73.292658,PM2.5,41,425,160
India,Rajasthan,Bikaner,"MM Ground, Bikaner - RSPCB",21-10-2025 07:00:00,28.018792,73.292658,PM10,104,442,236
India,Rajasthan,Bikaner,"MM Ground, Bikaner - RSPCB",21-10-2025 07:00:00,28.018792,73.292658,NH3,5,32,20
India,Rajasthan,Bundi,"New Colony, Bundi - RSPCB",21-10-2025 07:00:00,25.435774,75.644272,PM2.5,67,362,147
India,Rajasthan,Bundi,"New Colony, Bundi - RSPCB",21-10-2025 07:00:00,25.435774,75.644272,PM10,77,234,125
India,Rajasthan,Bundi,"New Colony, Bundi - RSPCB",21-10-2025 07:00:00,25.435774,75.644272,NO2,4,44,16
India,Rajasthan,Bundi,"New Colony, Bundi - RSPCB",21-10-2025 07:00:00,25.435774,75.644272,OZONE,7,169,45
India,Rajasthan,Chittorgarh,"Shastri Nagar, Chittorgarh - RSPCB",21-10-2025 07:00:00,24.892047,74.623527,PM2.5,57,455,165
India,Rajasthan,Churu,"Subash Chowk, Churu - RSPCB",21-10-2025 07:00:00,28.296139,74.961696,PM2.5,44,500,204
India,Rajasthan,Churu,"Subash Chowk, Churu - RSPCB",21-10-2025 07:00:00,28.296139,74.961696,NH3,6,11,9
India,Rajasthan,Dungarpur,"Bhoiwada, Dungarpur - RSPCB",21-10-2025 07:00:00,23.837789,73.714926,CO,8,22,10
India,Rajasthan,Hanumangarh,"Housing Board, Hanumangarh - RSPCB",21-10-2025 07:00:00,29.610750,74.283608,PM2.5,87,500,246
India,Rajasthan,Hanumangarh,"Housing Board, Hanumangarh - RSPCB",21-10-2025 07:00:00,29.610750,74.283608,PM10,89,500,189
India,Rajasthan,Hanumangarh,"Housing Board, Hanumangarh - RSPCB",21-10-2025 07:00:00,29.610750,74.283608,NO2,15,61,28
India,Rajasthan,Jaipur,"Adarsh Nagar, Jaipur - RSPCB",21-10-2025 07:00:00,26.902909,75.836858,PM2.5,91,500,243
India,Rajasthan,Jaipur,"Adarsh Nagar, Jaipur - RSPCB",21-10-2025 07:00:00,26.902909,75.836858,NO2,9,104,42
India,Rajasthan,Jaipur,"Mansarovar Sector-12, Jaipur - RSPCB",21-10-2025 07:00:00,26.843698,75.766894,CO,39,122,114
India,Rajasthan,Jaipur,"Police Commissionerate, Jaipur - RSPCB",21-10-2025 07:00:00,26.9164092,75.7994901,NH3,8,19,12
India,Rajasthan,Kota,"Shrinath Puram, Kota - RSPCB",21-10-2025 07:00:00,25.14389,75.821256,PM2.5,74,500,279
India,Rajasthan,Kota,"Shrinath Puram, Kota - RSPCB",21-10-2025 07:00:00,25.14389,75.821256,SO2,6,45,21
India,Rajasthan,Nagaur,"Karni Colony, Nagaur - RSPCB",21-10-2025 07:00:00,27.213494,73.734444,SO2,4,103,27
India,Rajasthan,Nagaur,"Karni Colony, Nagaur - RSPCB",21-10-2025 07:00:00,27.213494,73.734444,CO,16,50,40
India,Rajasthan,Pali,"Indira Colony Vistar, Pali - RSPCB",21-10-2025 07:00:00,25.771061, 73.340227,CO,10,133,76
India,Rajasthan,Pali,"Indira Colony Vistar, Pali - RSPCB",21-10-2025 07:00:00,25.771061, 73.340227,OZONE,9,64,13
India,Rajasthan,Pratapgarh,"Pragati Nagar, Pratapgarh - RSPCB",21-10-2025 07:00:00,24.041198,74.780702,PM2.5,63,349,153
India,Rajasthan,Pratapgarh,"Pragati Nagar, Pratapgarh - RSPCB",21-10-2025 07:00:00,24.041198,74.780702,PM10,60,253,125
India,Rajasthan,Jhunjhunu,"Indra Nagar, Jhunjhunu - RSPCB",21-10-2025 07:00:00,28.108988,75.386577,NH3,5,18,12
India,Rajasthan,Jodhpur,"Collectorate, Jodhpur - RSPCB",21-10-2025 07:00:00,26.268249,73.0193853,NO2,13,30,20
India,Rajasthan,Jodhpur,"Collectorate, Jodhpur - RSPCB",21-10-2025 07:00:00,26.268249,73.0193853,CO,5,125,45
India,Rajasthan,Jodhpur,"Digari Kalan, Jodhpur - RSPCB",21-10-2025 07:00:00,26.295810,73.082283,PM2.5,37,500,186
India,Rajasthan,Jodhpur,"Digari Kalan, Jodhpur - RSPCB",21-10-2025 07:00:00,26.295810,73.082283,NO2,6,118,36
India,Rajasthan,Jodhpur,"Digari Kalan, Jodhpur - RSPCB",21-10-2025 07:00:00,26.295810,73.082283,SO2,1,11,4
India,Rajasthan,Jodhpur,"Jhalamand, Jodhpur - RSPCB",21-10-2025 07:00:00,26.215415,73.070156,NO2,4,66,22
India,Rajasthan,Jodhpur,"Mandor, Jodhpur - RSPCB",21-10-2025 07:00:00,26.358805,73.047444,NO2,4,62,19
India,Rajasthan,Baran,"Bamboliya, Baran - RSPCB",21-10-2025 07:00:00,25.106006,76.469948,OZONE,16,153,34
India,Rajasthan,Barmer,"Railway Colony, Barmer - RSPCB",21-10-2025 07:00:00,25.747299,71.393989,NH3,3,10,5
India,Rajasthan,Bharatpur,"Krishna Nagar, Bharatpur - RSPCB",21-10-2025 07:00:00,27.215415,77.50873,PM10,89,459,190
India,Rajasthan,Bhilwara,"Pratap Nagar, Bhilwara - RSPCB",21-10-2025 07:00:00,25.339605,74.618883,NO2,11,67,31
India,Rajasthan,Bhilwara,"Pratap Nagar, Bhilwara - RSPCB",21-10-2025 07:00:00,25.339605,74.618883,SO2,15,99,39
India,Rajasthan,Jaipur,"RIICO Sitapura, Jaipur - RSPCB",21-10-2025 07:00:00,26.786682,75.827928,NO2,12,109,47
India,Rajasthan,Jaipur,"Shastri Nagar, Jaipur - RSPCB",21-10-2025 07:00:00,26.9502929,75.730943,NH3,1,28,12
India,Rajasthan,Jaipur,"Shastri Nagar, Jaipur - RSPCB",21-10-2025 07:00:00,26.9502929,75.730943,CO,63,162,127
India,Rajasthan,Jaisalmer,"Sadar Bazar, Jaisalmer - RSPCB",21-10-2025 07:00:00,26.912329,70.909168,CO,6,56,23
India,Rajasthan,Churu,"Subash Chowk, Churu - RSPCB",21-10-2025 07:00:00,28.296139,74.961696,OZONE,10,138,38
India,Rajasthan,Dausa,"Khatikan Mohalla, Dausa - RSPCB",21-10-2025 07:00:00,26.895552,76.334753,NO2,12,112,45
India,Rajasthan,Dausa,"Khatikan Mohalla, Dausa - RSPCB",21-10-2025 07:00:00,26.895552,76.334753,OZONE,4,126,37
India,Rajasthan,Dungarpur,"Bhoiwada, Dungarpur - RSPCB",21-10-2025 07:00:00,23.837789,73.714926,PM10,81,287,147
India,Rajasthan,Jodhpur,"Samrat Ashok Udhyan, Jodhpur - RSPCB",21-10-2025 07:00:00,26.253384,72.976571,PM10,44,457,164
India,Rajasthan,Kota,"Dhanmandi, Kota - RSPCB",21-10-2025 07:00:00,25.164090,75.858137,OZONE,2,164,11
India,Rajasthan,Kota,"Nayapura, Kota - RSPCB",21-10-2025 07:00:00,25.196024,75.855668,NO2,7,114,46
India,Rajasthan,Jalore,"Mudtra Sili, Jalore - RSPCB",21-10-2025 07:00:00,25.344694,72.626208,NH3,4,9,6
India,TamilNadu,Chennai,"Perungudi, Chennai - TNPCB",21-10-2025 07:00:00,12.9533,80.2357,SO2,1,3,2
India,TamilNadu,Chennai,"Velachery Res. Area, Chennai - CPCB",21-10-2025 07:00:00,13.0052189,80.2398125,NH3,6,8,7
India,TamilNadu,Chennai,"Velachery Res. Area, Chennai - CPCB",21-10-2025 07:00:00,13.0052189,80.2398125,SO2,8,48,18
India,TamilNadu,Chennai,"Velachery Res. Area, Chennai - CPCB",21-10-2025 07:00:00,13.0052189,80.2398125,OZONE,5,9,6
India,TamilNadu,Coimbatore,"PSG College of Arts and Science, Coimbatore - TNPCB",21-10-2025 07:00:00,11.0328,77.0349,NO2,9,11,10
India,TamilNadu,Coimbatore,"PSG College of Arts and Science, Coimbatore - TNPCB",21-10-2025 07:00:00,11.0328,77.0349,NH3,2,2,2
India,TamilNadu,Coimbatore,"PSG College of Arts and Science, Coimbatore - TNPCB",21-10-2025 07:00:00,11.0328,77.0349,OZONE,5,6,6
India,TamilNadu,Coimbatore,"SIDCO Kurichi, Coimbatore - TNPCB",21-10-2025 07:00:00,10.942451,76.978996,PM10,17,488,107
India,TamilNadu,Cuddalore,"Kudikadu, Cuddalore - TNPCB",21-10-2025 07:00:00,11.6829898,79.7532099,PM10,25,498,102
India,Rajasthan,Sri Ganganagar,"Old City, Sri Ganganagar - RSPCB",21-10-2025 07:00:00,29.931624,73.864511,SO2,2,7,5
India,Rajasthan,Tonk,"Shastri Nagar, Tonk - RSPCB",21-10-2025 07:00:00,26.159933,75.780517,SO2,2,7,4
India,Rajasthan,Tonk,"Shastri Nagar, Tonk - RSPCB",21-10-2025 07:00:00,26.159933,75.780517,CO,4,105,34
India,Rajasthan,Udaipur,"Ashok Nagar, Udaipur - RSPCB",21-10-2025 07:00:00,24.5886166,73.6321397,PM10,95,500,190
India,Sikkim,Gangtok,"Zero Point GICI, Gangtok - SSPCB",21-10-2025 07:00:00,27.338530,88.614099,PM10,16,42,27
India,Sikkim,Gangtok,"Zero Point GICI, Gangtok - SSPCB",21-10-2025 07:00:00,27.338530,88.614099,CO,2,7,2
India,TamilNadu,Chengalpattu,"Crescent University, Chengalpattu - TNPCB",21-10-2025 07:00:00,12.8777316,80.0834807,PM2.5,78,239,150
India,TamilNadu,Chengalpattu,"Crescent University, Chengalpattu - TNPCB",21-10-2025 07:00:00,12.8777316,80.0834807,PM10,85,360,163
India,TamilNadu,Kanchipuram,"Kilambi, Kanchipuram - TNPCB",21-10-2025 07:00:00,12.864618,79.659968,OZONE,8,9,8
India,TamilNadu,Karur,"Kamadenu Nagar, Karur - TNPCB",21-10-2025 07:00:00,10.967820,78.080882,PM10,12,500,71
India,TamilNadu,Karur,"Kamadenu Nagar, Karur - TNPCB",21-10-2025 07:00:00,10.967820,78.080882,CO,6,34,23
India,TamilNadu,Madurai,"Uchapatti, Madurai - TNPCB",21-10-2025 07:00:00,9.865935,78.022669,SO2,11,12,12
India,TamilNadu,Nagapattinam,"Velippalayam, Nagapattinam - TNPCB",21-10-2025 07:00:00,10.798548,79.838212,PM10,6,312,50
India,TamilNadu,Nagapattinam,"Velippalayam, Nagapattinam - TNPCB",21-10-2025 07:00:00,10.798548,79.838212,NH3,2,2,2
India,TamilNadu,Nagapattinam,"Velippalayam, Nagapattinam - TNPCB",21-10-2025 07:00:00,10.798548,79.838212,CO,12,18,15
India,TamilNadu,Nagapattinam,"Velippalayam, Nagapattinam - TNPCB",21-10-2025 07:00:00,10.798548,79.838212,OZONE,18,72,28
India,TamilNadu,Namakkal,"Ponnusamy Nagar, Namakkal - TNPCB",21-10-2025 07:00:00,11.273992,78.163545,NO2,7,11,9
India,Rajasthan,Rajsamand,"Dhoinda, Rajsamand - RSPCB",21-10-2025 07:00:00,25.036360,73.883502,SO2,2,101,18
India,Rajasthan,Sawai Madhopur,"Sahu Nagar, Sawai Madhopur - RSPCB",21-10-2025 07:00:00,26.031443,76.359327,PM10,47,381,124
India,Rajasthan,Sawai Madhopur,"Sahu Nagar, Sawai Madhopur - RSPCB",21-10-2025 07:00:00,26.031443,76.359327,NH3,10,15,12
India,Rajasthan,Sikar,"Radhakishan Pura, Sikar - RSPCB",21-10-2025 07:00:00,27.608912,75.153302,PM2.5,57,500,256
India,Rajasthan,Sikar,"Radhakishan Pura, Sikar - RSPCB",21-10-2025 07:00:00,27.608912,75.153302,OZONE,5,143,26
India,Rajasthan,Sirohi,"Vedhaynath Colony, Sirohi - RSPCB",21-10-2025 07:00:00,24.885261,72.857549,PM10,43,319,123
India,Rajasthan,Sri Ganganagar,"Old City, Sri Ganganagar - RSPCB",21-10-2025 07:00:00,29.931624,73.864511,PM10,127,409,198
India,Rajasthan,Sri Ganganagar,"Old City, Sri Ganganagar - RSPCB",21-10-2025 07:00:00,29.931624,73.864511,NO2,31,99,67
India,TamilNadu,Chennai,"Alandur Bus Depot, Chennai - CPCB",21-10-2025 07:00:00,12.9099161,80.1076538,PM2.5,20,500,129
India,TamilNadu,Chennai,"Arumbakkam, Chennai - TNPCB",21-10-2025 07:00:00,13.0664,80.2112 ,SO2,1,7,3
India,TamilNadu,Chennai,"Gandhi Nagar_Ennore, Chennai - TNPCB",21-10-2025 07:00:00,13.218341,80.32027,PM10,NA,NA,NA
India,TamilNadu,Chennai,"Kodungaiyur, Chennai - TNPCB",21-10-2025 07:00:00,13.1278,80.2642,PM2.5,19,500,103
India,TamilNadu,Chennai,"Kodungaiyur, Chennai - TNPCB",21-10-2025 07:00:00,13.1278,80.2642,NH3,6,16,9
India,TamilNadu,Chennai,"Kodungaiyur, Chennai - TNPCB",21-10-2025 07:00:00,13.1278,80.2642,CO,5,32,19
India,TamilNadu,Chennai,"Manali Village, Chennai - TNPCB",21-10-2025 07:00:00,13.1662,80.2584,PM10,22,500,152
India,TamilNadu,Cuddalore,"Semmandalam, Cuddalore - TNPCB",21-10-2025 07:00:00,11.7637683,79.7499835,NH3,2,3,2
India,TamilNadu,Dindigul,"Mendonsa Colony, Dindigul - TNPCB",21-10-2025 07:00:00,10.358535,77.984321,NH3,1,1,1
India,TamilNadu,Hosur,"SIPCOT Phase-1, Hosur - TNPCB",21-10-2025 07:00:00,12.746998,77.813811,PM2.5,44,425,204
India,TamilNadu,Hosur,"SIPCOT Phase-1, Hosur - TNPCB",21-10-2025 07:00:00,12.746998,77.813811,SO2,47,47,47
India,TamilNadu,Kanchipuram,"Kilambi, Kanchipuram - TNPCB",21-10-2025 07:00:00,12.864618,79.659968,PM2.5,13,35,24
India,TamilNadu,Kanchipuram,"Kilambi, Kanchipuram - TNPCB",21-10-2025 07:00:00,12.864618,79.659968,PM10,15,44,29
India,TamilNadu,Kanchipuram,"Kilambi, Kanchipuram - TNPCB",21-10-2025 07:00:00,12.864618,79.659968,NO2,1,16,6
India,TamilNadu,Chennai,"Manali Village, Chennai - TNPCB",21-10-2025 07:00:00,13.1662,80.2584,NO2,4,7,5
India,TamilNadu,Chennai,"Manali Village, Chennai - TNPCB",21-10-2025 07:00:00,13.1662,80.2584,OZONE,27,57,52
India,TamilNadu,Chennai,"Manali, Chennai - CPCB",21-10-2025 07:00:00,13.164544,80.26285,PM2.5,31,500,185
India,TamilNadu,Chennai,"Manali, Chennai - CPCB",21-10-2025 07:00:00,13.164544,80.26285,PM10,36,500,141
India,TamilNadu,Chennai,"Perungudi, Chennai - TNPCB",21-10-2025 07:00:00,12.9533,80.2357,PM2.5,10,500,206
India,TamilNadu,Chennai,"Perungudi, Chennai - TNPCB",21-10-2025 07:00:00,12.9533,80.2357,NO2,1,5,2
India,TamilNadu,Palkalaiperur,"Bharathidasan University, Palkalaiperur - TNPCB",21-10-2025 07:00:00,10.681158,78.741746,OZONE,14,14,14
India,TamilNadu,Perundurai,"SIPCOT Industrial Park, Perundurai - TNPCB",21-10-2025 07:00:00,11.258242,77.552761,NH3,2,2,2
India,TamilNadu,Namakkal,"Ponnusamy Nagar, Namakkal - TNPCB",21-10-2025 07:00:00,11.273992,78.163545,OZONE,5,32,12
India,TamilNadu,Ooty,"Bombay Castel, Ooty - TNPCB",21-10-2025 07:00:00,11.4068288,76.7138973,NH3,1,5,3
India,TamilNadu,Tirupur,"Kumaran College, Tirupur - TNPCB",21-10-2025 07:00:00,11.0973603,77.3228673,CO,16,20,18
India,TamilNadu,Vellore,"Vasanthapuram, Vellore - TNPCB",21-10-2025 07:00:00,12.909494,79.131861,PM10,21,447,108
India,TamilNadu,Vellore,"Vasanthapuram, Vellore - TNPCB",21-10-2025 07:00:00,12.909494,79.131861,NH3,2,14,3
India,TamilNadu,Vellore,"Vasanthapuram, Vellore - TNPCB",21-10-2025 07:00:00,12.909494,79.131861,SO2,14,109,24
India,TamilNadu,Virudhunagar,"Collectorate Office, Virudhunagar - TNPCB",21-10-2025 07:00:00,9.559382,77.948828,PM2.5,22,405,163
India,Telangana,Hyderabad,"Central University, Hyderabad - TSPCB",21-10-2025 07:00:00,17.460103,78.334361,NH3,4,13,8
India,Uttar_Pradesh,Agra,"Shahjahan Garden, Agra - UPPCB",21-10-2025 07:00:00,27.169338,78.03582,NO2,27,28,27
India,Uttar_Pradesh,Agra,"Shahjahan Garden, Agra - UPPCB",21-10-2025 07:00:00,27.169338,78.03582,OZONE,2,23,9
India,Uttar_Pradesh,Baghpat,"Sardar Patel Inter College, Baghpat - UPPCB",21-10-2025 07:00:00,28.964949,77.278761,PM10,110,271,175
India,Uttar_Pradesh,Baghpat,"Sardar Patel Inter College, Baghpat - UPPCB",21-10-2025 07:00:00,28.964949,77.278761,NH3,5,9,6
India,Uttar_Pradesh,Baghpat,"Sardar Patel Inter College, Baghpat - UPPCB",21-10-2025 07:00:00,28.964949,77.278761,SO2,23,58,36
India,Uttar_Pradesh,Bareilly,"Civil Lines, Bareilly - UPPCB",21-10-2025 07:00:00,28.359581,79.414455,PM2.5,3,334,82
India,TamilNadu,Thanjavur,"Parisutham Nagar, Thanjavur - TNPCB",21-10-2025 07:00:00,10.7654824,79.1389968,OZONE,5,32,20
India,TamilNadu,Thoothukudi,"Meelavittan, Thoothukudi - TNPCB",21-10-2025 07:00:00,8.816428 ,78.099039,CO,24,120,54
India,TamilNadu,Tiruchirappalli,"St Joseph College, Tiruchirappalli - TNPCB",21-10-2025 07:00:00,10.830158,78.691849,PM10,24,127,58
India,TamilNadu,Tirunelveli,"Municipal Corporation Office, Tirunelveli - TNPCB",21-10-2025 07:00:00,8.728442,77.6962,PM2.5,20,64,52
India,Tripura,Agartala,"Bardowali, Agartala - Tripura SPCB",21-10-2025 07:00:00,23.8175497,91.2726974,PM10,25,120,61
India,Uttar_Pradesh,Agra,"Manoharpur, Agra - UPPCB",21-10-2025 07:00:00,27.23711,78.01936,NH3,2,3,2
India,Uttar_Pradesh,Agra,"Rohta, Agra - UPPCB",21-10-2025 07:00:00,27.106972,78.000111,NH3,6,7,6
India,Uttar_Pradesh,Agra,"Sector-3B Avas Vikas Colony, Agra - UPPCB",21-10-2025 07:00:00,27.19412,77.96237,PM10,78,500,183
India,TamilNadu,Ranipet,"VOC Nagar_SIPCOT, Ranipet - TNPCB",21-10-2025 07:00:00,12.952707,79.30394,NH3,7,24,8
India,TamilNadu,Salem,"Sona College of Technology, Salem - TNPCB",21-10-2025 07:00:00,11.679111,78.125052,PM2.5,15,500,163
India,TamilNadu,Salem,"Sona College of Technology, Salem - TNPCB",21-10-2025 07:00:00,11.679111,78.125052,NH3,3,3,3
India,TamilNadu,Thanjavur,"Parisutham Nagar, Thanjavur - TNPCB",21-10-2025 07:00:00,10.7654824,79.1389968,PM2.5,17,163,54
India,Telangana,Hyderabad,"Ramachandrapuram, Hyderabad - TSPCB",21-10-2025 07:00:00,17.528544,78.286195,PM2.5,29,465,87
India,Telangana,Hyderabad,"Ramachandrapuram, Hyderabad - TSPCB",21-10-2025 07:00:00,17.528544,78.286195,CO,22,106,56
India,Telangana,Hyderabad,"Sanathnagar, Hyderabad - TSPCB",21-10-2025 07:00:00,17.4559458,78.4332152,PM2.5,28,500,153
India,Telangana,Hyderabad,"Somajiguda, Hyderabad - TSPCB",21-10-2025 07:00:00,17.417094,78.457437,SO2,8,101,21
India,Telangana,Hyderabad,"Somajiguda, Hyderabad - TSPCB",21-10-2025 07:00:00,17.417094,78.457437,CO,8,158,59
India,Uttar_Pradesh,Bareilly,"Civil Lines, Bareilly - UPPCB",21-10-2025 07:00:00,28.359581,79.414455,NO2,2,3,2
India,Uttar_Pradesh,Bareilly,"Civil Lines, Bareilly - UPPCB",21-10-2025 07:00:00,28.359581,79.414455,SO2,18,39,25
India,Uttar_Pradesh,Bareilly,"Rajendra Nagar, Bareilly - UPPCB",21-10-2025 07:00:00,28.38910936,79.42963708,NH3,1,1,1
India,Uttar_Pradesh,Bulandshahr,"Yamunapuram, Bulandshahr - UPPCB",21-10-2025 07:00:00,28.406963,77.849831,SO2,8,139,42
India,Telangana,Hyderabad,"IDA Pashamylaram, Hyderabad - TSPCB",21-10-2025 07:00:00,17.5316895,78.218939,PM2.5,13,150,56
India,Telangana,Hyderabad,"IDA Pashamylaram, Hyderabad - TSPCB",21-10-2025 07:00:00,17.5316895,78.218939,CO,4,151,13
India,Telangana,Hyderabad,"IITH Kandi, Hyderabad - TSPCB",21-10-2025 07:00:00,17.585705,78.126199,NO2,9,17,14
India,Telangana,Hyderabad,"IITH Kandi, Hyderabad - TSPCB",21-10-2025 07:00:00,17.585705,78.126199,NH3,3,6,4
India,Telangana,Hyderabad,"IITH Kandi, Hyderabad - TSPCB",21-10-2025 07:00:00,17.585705,78.126199,SO2,7,17,12
India,Telangana,Hyderabad,"Kokapet, Hyderabad - TSPCB",21-10-2025 07:00:00,17.393559,78.339194,NH3,3,10,5
India,Telangana,Hyderabad,"Nacharam_TSIIC IALA, Hyderabad - TSPCB",21-10-2025 07:00:00,17.429398,78.569354,NH3,NA,NA,NA
India,Telangana,Hyderabad,"New Malakpet, Hyderabad - TSPCB",21-10-2025 07:00:00,17.37206,78.50864,NO2,21,71,30
India,Telangana,Hyderabad,"New Malakpet, Hyderabad - TSPCB",21-10-2025 07:00:00,17.37206,78.50864,NH3,3,10,4
India,Uttar_Pradesh,Lucknow,"B R Ambedkar University, Lucknow - UPPCB",21-10-2025 07:00:00,26.766433,80.927299,OZONE,25,30,28
India,Uttar_Pradesh,Lucknow,"Gomti Nagar, Lucknow - UPPCB",21-10-2025 07:00:00,26.868120,81.005119,CO,36,40,36
India,Uttar_Pradesh,Lucknow,"Gomti Nagar, Lucknow - UPPCB",21-10-2025 07:00:00,26.868120,81.005119,OZONE,36,44,37
India,Uttar_Pradesh,Lucknow,"Kendriya Vidyalaya, Lucknow - CPCB",21-10-2025 07:00:00,26.906111,80.948222,PM2.5,50,500,238
India,Uttar_Pradesh,Lucknow,"Kendriya Vidyalaya, Lucknow - CPCB",21-10-2025 07:00:00,26.906111,80.948222,OZONE,10,78,14
India,Uttar_Pradesh,Lucknow,"Kukrail Picnic Spot-1, Lucknow - UPPCB",21-10-2025 07:00:00,26.90723,80.98579,PM10,64,500,128
India,Uttar_Pradesh,Lucknow,"Lalbagh, Lucknow - CPCB",21-10-2025 07:00:00,26.8458805,80.9365541,PM10,122,500,223
India,Uttar_Pradesh,Lucknow,"Lalbagh, Lucknow - CPCB",21-10-2025 07:00:00,26.8458805,80.9365541,CO,2,109,61
India,Uttar_Pradesh,Greater Noida,"Knowledge Park - III, Greater Noida - UPPCB",21-10-2025 07:00:00,28.47272,77.482000,CO,12,54,36
India,Uttar_Pradesh,Greater Noida,"Knowledge Park - V, Greater Noida - UPPCB",21-10-2025 07:00:00,28.557054,77.453663,PM10,102,500,240
India,Uttar_Pradesh,Greater Noida,"Knowledge Park - V, Greater Noida - UPPCB",21-10-2025 07:00:00,28.557054,77.453663,NH3,11,15,13
India,Uttar_Pradesh,Hapur,"Anand Vihar, Hapur - UPPCB",21-10-2025 07:00:00,28.725645,77.749675,PM10,117,500,246
India,Uttar_Pradesh,Hapur,"Anand Vihar, Hapur - UPPCB",21-10-2025 07:00:00,28.725645,77.749675,NO2,24,43,30
India,Uttar_Pradesh,Hapur,"Anand Vihar, Hapur - UPPCB",21-10-2025 07:00:00,28.725645,77.749675,OZONE,15,27,25
India,Uttar_Pradesh,Kanpur,"FTI Kidwai Nagar, Kanpur - UPPCB",21-10-2025 07:00:00,26.428282,80.327067,PM2.5,61,500,220
India,Uttar_Pradesh,Moradabad,"Buddhi Vihar, Moradabad - UPPCB",21-10-2025 07:00:00,28.83526,78.74460,NH3,5,5,5
India,Uttar_Pradesh,Moradabad,"Eco Herbal Park, Moradabad - UPPCB",21-10-2025 07:00:00,28.840739,78.697531,PM10,80,256,155
India,Uttar_Pradesh,Moradabad,"Employment Office, Moradabad - UPPCB",21-10-2025 07:00:00,28.88528,78.73880,PM2.5,48,500,242
India,Uttar_Pradesh,Moradabad,"Jigar Colony, Moradabad - UPPCB",21-10-2025 07:00:00,28.856664,78.772638,PM2.5,43,328,172
India,Uttar_Pradesh,Moradabad,"Jigar Colony, Moradabad - UPPCB",21-10-2025 07:00:00,28.856664,78.772638,NO2,25,25,25
India,Uttar_Pradesh,Moradabad,"Jigar Colony, Moradabad - UPPCB",21-10-2025 07:00:00,28.856664,78.772638,NH3,6,6,6
India,Uttar_Pradesh,Moradabad,"Jigar Colony, Moradabad - UPPCB",21-10-2025 07:00:00,28.856664,78.772638,CO,40,40,40
India,Uttar_Pradesh,Kanpur,"NSI Kalyanpur, Kanpur - UPPCB",21-10-2025 07:00:00,26.509954,80.249612,PM2.5,59,500,215
India,Uttar_Pradesh,Kanpur,"NSI Kalyanpur, Kanpur - UPPCB",21-10-2025 07:00:00,26.509954,80.249612,SO2,15,22,17
India,Uttar_Pradesh,Kanpur,"NSI Kalyanpur, Kanpur - UPPCB",21-10-2025 07:00:00,26.509954,80.249612,OZONE,20,22,21
India,Uttar_Pradesh,Kanpur,"Nehru Nagar, Kanpur - UPPCB",21-10-2025 07:00:00,26.4703136,80.3229863,SO2,5,13,10
India,Uttar_Pradesh,Lucknow,"B R Ambedkar University, Lucknow - UPPCB",21-10-2025 07:00:00,26.766433,80.927299,PM10,60,403,159
India,Uttar_Pradesh,Moradabad,"Kashiram Nagar, Moradabad - UPPCB",21-10-2025 07:00:00,28.849399,78.742362,CO,23,65,34
India,Uttar_Pradesh,Moradabad,"Transport Nagar, Moradabad - UPPCB",21-10-2025 07:00:00,28.802625,78.753728,NH3,5,6,5
India,Uttar_Pradesh,Moradabad,"Transport Nagar, Moradabad - UPPCB",21-10-2025 07:00:00,28.802625,78.753728,CO,3,16,14
India,Uttar_Pradesh,Noida,"Sector - 125, Noida - UPPCB",21-10-2025 07:00:00,28.5447608,77.3231257,NH3,17,31,23
India,Uttar_Pradesh,Noida,"Sector - 125, Noida - UPPCB",21-10-2025 07:00:00,28.5447608,77.3231257,OZONE,11,138,13
India,Uttar_Pradesh,Bulandshahr,"Yamunapuram, Bulandshahr - UPPCB",21-10-2025 07:00:00,28.406963,77.849831,OZONE,2,54,13
India,Uttar_Pradesh,Firozabad,"Nagla Bhau, Firozabad - UPPCB",21-10-2025 07:00:00,27.168897,78.376960,CO,2,24,10
India,Uttar_Pradesh,Firozabad,"Vibhab Nagar, Firozabad - UPPCB",21-10-2025 07:00:00,27.1594,78.3953,NO2,15,15,15
India,Uttar_Pradesh,Ghaziabad,"Loni, Ghaziabad - UPPCB",21-10-2025 07:00:00,28.757294,77.278792,SO2,2,134,40
India,Uttar_Pradesh,Ghaziabad,"Sanjay Nagar, Ghaziabad - UPPCB",21-10-2025 07:00:00,28.685382,77.453839,NO2,38,109,65
India,Uttar_Pradesh,Ghaziabad,"Sanjay Nagar, Ghaziabad - UPPCB",21-10-2025 07:00:00,28.685382,77.453839,NH3,8,11,9
India,Uttar_Pradesh,Gorakhpur,"Madan Mohan Malaviya University of Technology, Gorakhpur - UPPCB",21-10-2025 07:00:00,26.730136,83.433859,NO2,10,12,11
India,Uttar_Pradesh,Gorakhpur,"Madan Mohan Malaviya University of Technology, Gorakhpur - UPPCB",21-10-2025 07:00:00,26.730136,83.433859,SO2,27,30,29
India,Uttar_Pradesh,Lucknow,"Talkatora District Industries Center, Lucknow - CPCB",21-10-2025 07:00:00,26.83399722,80.8917361,CO,4,101,73
India,Uttar_Pradesh,Meerut,"Ganga Nagar, Meerut - UPPCB",21-10-2025 07:00:00,28.999264,77.7590354,CO,38,93,57
India,Uttar_Pradesh,Meerut,"Jai Bhim Nagar, Meerut - UPPCB",21-10-2025 07:00:00,28.9535882,77.7622941,NO2,13,114,41
India,Uttar_Pradesh,Greater Noida,"Knowledge Park - III, Greater Noida - UPPCB",21-10-2025 07:00:00,28.47272,77.482000,SO2,16,70,27
India,Uttar_Pradesh,Varanasi,"Maldahiya, Varanasi - UPPCB",21-10-2025 07:00:00,25.32393,82.99687,PM10,65,458,158
India,Uttar_Pradesh,Varanasi,"Maldahiya, Varanasi - UPPCB",21-10-2025 07:00:00,25.32393,82.99687,OZONE,2,7,2
India,Uttar_Pradesh,Vrindavan,"Omex Eternity, Vrindavan - UPPCB",21-10-2025 07:00:00,27.5714090,77.6557570,PM2.5,31,355,132
India,Uttar_Pradesh,Vrindavan,"Omex Eternity, Vrindavan - UPPCB",21-10-2025 07:00:00,27.5714090,77.6557570,OZONE,15,16,15
India,Uttarakhand,Dehradun,"Doon University, Dehradun - UKPCB",21-10-2025 07:00:00,30.269444,78.044167,NO2,1,6,2
India,Uttarakhand,Dehradun,"Doon University, Dehradun - UKPCB",21-10-2025 07:00:00,30.269444,78.044167,SO2,1,2,2
India,Uttarakhand,Dehradun,"Doon University, Dehradun - UKPCB",21-10-2025 07:00:00,30.269444,78.044167,OZONE,24,82,28
India,Uttarakhand,Rishikesh,"Shivaji Nagar, Rishikesh - UKPCB",21-10-2025 07:00:00,30.075911,78.2859547,PM2.5,17,144,48
India,Uttarakhand,Rishikesh,"Shivaji Nagar, Rishikesh - UKPCB",21-10-2025 07:00:00,30.075911,78.2859547,NO2,10,17,13
India,Uttarakhand,Rishikesh,"Shivaji Nagar, Rishikesh - UKPCB",21-10-2025 07:00:00,30.075911,78.2859547,SO2,6,8,7
India,Uttarakhand,Rishikesh,"Shivaji Nagar, Rishikesh - UKPCB",21-10-2025 07:00:00,30.075911,78.2859547,OZONE,5,130,13
India,Uttar_Pradesh,Noida,"Sector - 62, Noida - IMD",21-10-2025 07:00:00,28.6245479,77.3577104,NO2,3,34,19
India,Uttar_Pradesh,Noida,"Sector - 62, Noida - IMD",21-10-2025 07:00:00,28.6245479,77.3577104,OZONE,32,148,62
India,Uttar_Pradesh,Noida,"Sector-1, Noida - UPPCB",21-10-2025 07:00:00,28.5898,77.3101,CO,12,113,91
India,Uttar_Pradesh,Noida,"Sector-116, Noida - UPPCB",21-10-2025 07:00:00,28.569230,77.393848,PM2.5,198,489,340
India,Uttar_Pradesh,Noida,"Sector-116, Noida - UPPCB",21-10-2025 07:00:00,28.569230,77.393848,PM10,156,470,327
India,Uttar_Pradesh,Noida,"Sector-116, Noida - UPPCB",21-10-2025 07:00:00,28.569230,77.393848,NH3,16,29,19
India,Uttar_Pradesh,Prayagraj,"Jhunsi, Prayagraj - UPPCB",21-10-2025 07:00:00,25.425602,81.917152,NH3,5,5,5
India,Uttar_Pradesh,Prayagraj,"Motilal Nehru NIT, Prayagraj - UPPCB",21-10-2025 07:00:00,25.494,81.863,NH3,5,8,8
India,West_Bengal,Kolkata,"Ballygunge, Kolkata - WBPCB",21-10-2025 07:00:00,22.5367507,88.3638022,CO,8,52,33
India,West_Bengal,Kolkata,"Bidhannagar, Kolkata - WBPCB",21-10-2025 07:00:00,22.58157048,88.41002457,NO2,7,17,12
India,West_Bengal,Kolkata,"Fort William, Kolkata - WBPCB",21-10-2025 07:00:00,22.556640,88.342674,SO2,9,14,10
India,West_Bengal,Kolkata,"Fort William, Kolkata - WBPCB",21-10-2025 07:00:00,22.556640,88.342674,CO,21,50,41
India,West_Bengal,Kolkata,"Fort William, Kolkata - WBPCB",21-10-2025 07:00:00,22.556640,88.342674,OZONE,18,81,23
India,West_Bengal,Kolkata,"Rabindra Bharati University, Kolkata - WBPCB",21-10-2025 07:00:00,22.627847,88.380669,PM10,44,416,128
India,Uttar_Pradesh,Varanasi,"Ardhali Bazar, Varanasi - UPPCB",21-10-2025 07:00:00,25.3505986,82.9083074,PM2.5,49,372,169
India,Uttar_Pradesh,Varanasi,"Ardhali Bazar, Varanasi - UPPCB",21-10-2025 07:00:00,25.3505986,82.9083074,SO2,17,19,18
India,Uttar_Pradesh,Varanasi,"Ardhali Bazar, Varanasi - UPPCB",21-10-2025 07:00:00,25.3505986,82.9083074,CO,6,18,10
India,Uttar_Pradesh,Varanasi,"Bhelupur, Varanasi - UPPCB",21-10-2025 07:00:00,25.301778,82.996789,NH3,1,1,1
India,Uttar_Pradesh,Varanasi,"IESD Banaras Hindu University, Varanasi - UPPCB",21-10-2025 07:00:00,25.262326,82.995408,SO2,18,28,21
India,West_Bengal,Howrah,"Botanical Garden, Howrah - WBPCB",21-10-2025 07:00:00,22.554954,88.292568,PM2.5,29,373,177
India,West_Bengal,Howrah,"Botanical Garden, Howrah - WBPCB",21-10-2025 07:00:00,22.554954,88.292568,NO2,16,93,63
India,West_Bengal,Howrah,"Botanical Garden, Howrah - WBPCB",21-10-2025 07:00:00,22.554954,88.292568,CO,16,31,28
India,West_Bengal,Howrah,"Dasnagar, Howrah - WBPCB",21-10-2025 07:00:00,22.6025571,88.3105664,NH3,1,2,1
India,West_Bengal,Asansol,"Mahabir Colliery, Asansol - WBPCB",21-10-2025 07:00:00,23.6181830,87.1057180,PM10,61,196,104
India,West_Bengal,Asansol,"Mahabir Colliery, Asansol - WBPCB",21-10-2025 07:00:00,23.6181830,87.1057180,NH3,1,7,4
India,West_Bengal,Asansol,"Trivenidevi Bhalotia College, Asansol - WBPCB",21-10-2025 07:00:00,23.616515,87.119133,SO2,7,12,10
India,West_Bengal,Durgapur,"Mahishkapur Road_B-Zone, Durgapur - WBPCB",21-10-2025 07:00:00,23.567923,87.306843,CO,12,65,39
India,West_Bengal,Durgapur,"Womens College_City Center, Durgapur - WBPCB (Formerly known as Sidhu Kanhu Indoor Stadium)",21-10-2025 07:00:00,23.549395,87.300496,OZONE,9,84,12
India,West_Bengal,Barrackpore,"SVSPA Campus, Barrackpore - WBPCB",21-10-2025 07:00:00,22.7605581,88.3617589,CO,26,46,42
India,West_Bengal,Durgapur,"Mahishkapur Road_B-Zone, Durgapur - WBPCB",21-10-2025 07:00:00,23.567923,87.306843,PM2.5,50,336,142
India,West_Bengal,Howrah,"Ghusuri, Howrah - WBPCB",21-10-2025 07:00:00,22.611968,88.347422,NO2,21,26,24
India,West_Bengal,Kolkata,"Ballygunge, Kolkata - WBPCB",21-10-2025 07:00:00,22.5367507,88.3638022,NH3,7,13,9
India,West_Bengal,Kolkata,"Rabindra Sarobar, Kolkata - WBPCB",21-10-2025 07:00:00,22.51106,88.35142,NH3,7,17,10
India,West_Bengal,Kolkata,"Rabindra Sarobar, Kolkata - WBPCB",21-10-2025 07:00:00,22.51106,88.35142,OZONE,3,70,13
India,West_Bengal,Kolkata,"Victoria, Kolkata - WBPCB",21-10-2025 07:00:00,22.5448082,88.3403691,PM2.5,89,500,227
India,West_Bengal,Kolkata,"Victoria, Kolkata - WBPCB",21-10-2025 07:00:00,22.5448082,88.3403691,NH3,4,5,4
India,West_Bengal,Kolkata,"Victoria, Kolkata - WBPCB",21-10-2025 07:00:00,22.5448082,88.3403691,CO,40,62,51
India,West_Bengal,Kolkata,"Victoria, Kolkata - WBPCB",21-10-2025 07:00:00,22.5448082,88.3403691,OZONE,9,41,14
India,West_Bengal,Siliguri,"Ward-32 Bapupara, Siliguri - WBPCB",21-10-2025 07:00:00,26.6879226,88.4152495,OZONE,38,57,52
India,Andhra_Pradesh,Vijayawada,"Rajiv Gandhi Park, Vijayawada - APPCB",21-10-2025 07:00:00,16.509717,80.612222,SO2,11,138,44
India,Andhra_Pradesh,Vijayawada,"Rajiv Gandhi Park, Vijayawada - APPCB",21-10-2025 07:00:00,16.509717,80.612222,CO,34,119,48
India,Andhra_Pradesh,Vijayawada,"Rajiv Gandhi Park, Vijayawada - APPCB",21-10-2025 07:00:00,16.509717,80.612222,OZONE,23,70,55
India,Andhra_Pradesh,Visakhapatnam,"GVM Corporation, Visakhapatnam - APPCB",21-10-2025 07:00:00,17.72,83.3,PM10,31,468,102
India,Andhra_Pradesh,Visakhapatnam,"GVM Corporation, Visakhapatnam - APPCB",21-10-2025 07:00:00,17.72,83.3,OZONE,8,46,13
India,Arunachal_Pradesh,Naharlagun,"Naharlagun, Naharlagun - APSPCB",21-10-2025 07:00:00,27.103358,93.679645,PM2.5,28,194,82
India,Arunachal_Pradesh,Naharlagun,"Naharlagun, Naharlagun - APSPCB",21-10-2025 07:00:00,27.103358,93.679645,SO2,8,8,8
India,Assam,Silchar,"Tarapur, Silchar - PCBA",21-10-2025 07:00:00,24.82827,92.79525,PM10,NA,NA,NA
India,Assam,Silchar,"Tarapur, Silchar - PCBA",21-10-2025 07:00:00,24.82827,92.79525,NO2,NA,NA,NA
India,Assam,Silchar,"Tarapur, Silchar - PCBA",21-10-2025 07:00:00,24.82827,92.79525,NH3,NA,NA,NA
India,Assam,Sivasagar,"Girls College, Sivasagar - PCBA",21-10-2025 07:00:00,26.987634,94.636574,SO2,8,13,10
India,Bihar,Araria,"Kharahiya Basti, Araria - BSPCB",21-10-2025 07:00:00,26.146529,87.454184,NH3,5,5,5
India,Bihar,Araria,"Kharahiya Basti, Araria - BSPCB",21-10-2025 07:00:00,26.146529,87.454184,CO,15,25,24
India,Bihar,Araria,"Kharahiya Basti, Araria - BSPCB",21-10-2025 07:00:00,26.146529,87.454184,OZONE,9,12,10
India,Bihar,Arrah,"New DM Office, Arrah - BSPCB",21-10-2025 07:00:00,25.5626095,84.663264,SO2,8,10,10
India,Andhra_Pradesh,Rajamahendravaram,"Anand Kala Kshetram, Rajamahendravaram - APPCB",21-10-2025 07:00:00,16.9872867,81.7363176,PM2.5,8,500,98
India,Andhra_Pradesh,Rajamahendravaram,"Anand Kala Kshetram, Rajamahendravaram - APPCB",21-10-2025 07:00:00,16.9872867,81.7363176,NO2,8,54,19
India,Andhra_Pradesh,Tirumala,"Toll Gate, Tirumala - APPCB",21-10-2025 07:00:00,13.67,79.35,PM2.5,3,60,18
India,Andhra_Pradesh,Tirumala,"Toll Gate, Tirumala - APPCB",21-10-2025 07:00:00,13.67,79.35,PM10,6,53,21
India,Andhra_Pradesh,Tirumala,"Toll Gate, Tirumala - APPCB",21-10-2025 07:00:00,13.67,79.35,OZONE,5,24,20
India,Andhra_Pradesh,Tirupati,"Vaikuntapuram, Tirupati - APPCB",21-10-2025 07:00:00,13.615387,79.409230,OZONE,19,51,25
India,Bihar,Begusarai,"Lohiyanagar, Begusarai - BSPCB",21-10-2025 07:00:00,25.42742023,86.13886079,SO2,9,70,37
India,Bihar,Bettiah,"Kamalnath Nagar, Bettiah - BSPCB",21-10-2025 07:00:00,26.80365,84.51954,NO2,6,14,9
India,Bihar,Bettiah,"Kamalnath Nagar, Bettiah - BSPCB",21-10-2025 07:00:00,26.80365,84.51954,SO2,1,16,10
India,Bihar,Bettiah,"Kamalnath Nagar, Bettiah - BSPCB",21-10-2025 07:00:00,26.80365,84.51954,CO,46,71,64
India,Bihar,Bhagalpur,"DM Office_Kachari Chowk, Bhagalpur - BSPCB",21-10-2025 07:00:00,25.251013,86.989001,CO,14,20,17
India,Bihar,Bhagalpur,"DM Office_Kachari Chowk, Bhagalpur - BSPCB",21-10-2025 07:00:00,25.251013,86.989001,OZONE,9,24,14
India,Andhra_Pradesh,Amaravati,"Secretariat, Amaravati - APPCB",21-10-2025 07:00:00,16.5150833,80.5181667,CO,2,71,30
India,Andhra_Pradesh,Amaravati,"Secretariat, Amaravati - APPCB",21-10-2025 07:00:00,16.5150833,80.5181667,OZONE,2,17,5
India,Andhra_Pradesh,Anantapur,"Gulzarpet, Anantapur - APPCB",21-10-2025 07:00:00,14.675886,77.593027,PM10,43,220,100
India,Andhra_Pradesh,Anantapur,"Gulzarpet, Anantapur - APPCB",21-10-2025 07:00:00,14.675886,77.593027,NO2,20,174,49
India,Andhra_Pradesh,Chittoor,"Gangineni Cheruvu, Chittoor - APPCB",21-10-2025 07:00:00,13.204880,79.097889,OZONE,7,49,45
India,Assam,Byrnihat,"Central Academy for SFS, Byrnihat - PCBA",21-10-2025 07:00:00,26.071318,91.87488,NO2,4,10,7
India,Assam,Guwahati,"IITG, Guwahati - PCBA",21-10-2025 07:00:00,26.2028636,91.70046436,PM2.5,13,353,116
India,Assam,Guwahati,"IITG, Guwahati - PCBA",21-10-2025 07:00:00,26.2028636,91.70046436,OZONE,NA,NA,NA
India,Bihar,Bhagalpur,"Mayaganj, Bhagalpur - BSPCB",21-10-2025 07:00:00,25.265194,87.012947,SO2,32,103,60
India,Bihar,Buxar,"Charitra Van, Buxar - BSPCB",21-10-2025 07:00:00,25.567520,83.966379,NO2,9,10,10
India,Andhra_Pradesh,Amaravati,"Secretariat, Amaravati - APPCB",21-10-2025 07:00:00,16.5150833,80.5181667,PM10,12,201,52
India,Andhra_Pradesh,Amaravati,"Secretariat, Amaravati - APPCB",21-10-2025 07:00:00,16.5150833,80.5181667,NH3,4,5,5
India,Assam,Guwahati,"Railway Colony, Guwahati - PCBA",21-10-2025 07:00:00,26.181742,91.78063,SO2,29,31,30
India,Assam,Nagaon,"Christianpatty, Nagaon - PCBA",21-10-2025 07:00:00,26.349082,92.68449,NH3,4,4,4
India,Bihar,Muzaffarpur,"Buddha Colony, Muzaffarpur - BSPCB",21-10-2025 07:00:00,26.11442,85.39813,SO2,2,8,4
India,Bihar,Muzaffarpur,"Buddha Colony, Muzaffarpur - BSPCB",21-10-2025 07:00:00,26.11442,85.39813,OZONE,17,166,30
India,Bihar,Muzaffarpur,"MIT-Daudpur Kothi, Muzaffarpur - BSPCB",21-10-2025 07:00:00,26.1403345,85.3650192,NH3,1,4,3
India,Bihar,Muzaffarpur,"MIT-Daudpur Kothi, Muzaffarpur - BSPCB",21-10-2025 07:00:00,26.1403345,85.3650192,OZONE,12,89,28
India,Bihar,Patna,"Govt. High School Shikarpur, Patna - BSPCB",21-10-2025 07:00:00,25.592539,85.227158,PM2.5,28,422,172
India,Bihar,Patna,"Govt. High School Shikarpur, Patna - BSPCB",21-10-2025 07:00:00,25.592539,85.227158,PM10,47,500,224
India,Bihar,Patna,"Govt. High School Shikarpur, Patna - BSPCB",21-10-2025 07:00:00,25.592539,85.227158,SO2,6,9,8
India,Bihar,Patna,"Govt. High School Shikarpur, Patna - BSPCB",21-10-2025 07:00:00,25.592539,85.227158,CO,57,102,71
India,Bihar,Patna,"Govt. High School Shikarpur, Patna - BSPCB",21-10-2025 07:00:00,25.592539,85.227158,OZONE,7,12,10
India,Bihar,Patna,"Samanpura, Patna - BSPCB",21-10-2025 07:00:00,25.596727,85.085624,OZONE,13,63,24
India,Bihar,Purnia,"Mariam Nagar, Purnia - BSPCB",21-10-2025 07:00:00,25.366336,87.117468,NO2,5,6,6
India,Bihar,Purnia,"Mariam Nagar, Purnia - BSPCB",21-10-2025 07:00:00,25.366336,87.117468,SO2,NA,NA,NA
India,Bihar,Saharsa,"Police Line, Saharsa - BSPCB",21-10-2025 07:00:00,25.892357,86.590325,NH3,4,4,4
India,Bihar,Saharsa,"Police Line, Saharsa - BSPCB",21-10-2025 07:00:00,25.892357,86.590325,CO,33,44,40
India,Bihar,Samastipur,"DM Office_Kasipur, Samastipur - BSPCB",21-10-2025 07:00:00,25.859655,85.77944,PM2.5,43,425,217
India,Chhattisgarh,Bhilai,"Civic Center, Bhilai - Bhilai Steel Plant",21-10-2025 07:00:00,21.185571,81.343175,PM2.5,16,105,49
India,Chhattisgarh,Bhilai,"Civic Center, Bhilai - Bhilai Steel Plant",21-10-2025 07:00:00,21.185571,81.343175,OZONE,3,15,11
India,Chhattisgarh,Bhilai,"Hathkhoj, Bhilai - CECB",21-10-2025 07:00:00,21.224231,81.408350,PM2.5,16,79,40
India,Chhattisgarh,Bhilai,"Hathkhoj, Bhilai - CECB",21-10-2025 07:00:00,21.224231,81.408350,NO2,9,43,19
India,Chhattisgarh,Chhal,"Nawapara SECL Colony, Chhal - CECB",21-10-2025 07:00:00,22.118125,83.140608,OZONE,28,104,34
India,Chhattisgarh,Korba,"Rampur, Korba - CECB",21-10-2025 07:00:00,22.368195,82.746431,PM2.5,47,98,63
India,Chandigarh,Chandigarh,"Sector 22, Chandigarh - CPCC",21-10-2025 07:00:00,30.735567,76.775714,NO2,12,143,43
India,Chandigarh,Chandigarh,"Sector-25, Chandigarh - CPCC",21-10-2025 07:00:00,30.751462,76.762879,OZONE,4,56,12
India,Chandigarh,Chandigarh,"Sector-53, Chandigarh - CPCC",21-10-2025 07:00:00,30.719859,76.738637,PM2.5,22,401,92
India,Chandigarh,Chandigarh,"Sector-53, Chandigarh - CPCC",21-10-2025 07:00:00,30.719859,76.738637,OZONE,4,102,11
India,Chhattisgarh,Bhilai,"32Bungalows, Bhilai - CECB",21-10-2025 07:00:00,21.194815,81.314770,CO,13,32,27
India,Bihar,Chhapra,"Darshan Nagar, Chhapra - BSPCB",21-10-2025 07:00:00,25.7808257,84.7446768,CO,4,12,7
India,Bihar,Gaya,"Collectorate, Gaya - BSPCB",21-10-2025 07:00:00,24.7955,84.9994,SO2,9,13,11
India,Bihar,Gaya,"Collectorate, Gaya - BSPCB",21-10-2025 07:00:00,24.7955,84.9994,OZONE,19,21,20
India,Bihar,Gaya,"Kareemganj, Gaya - BSPCB",21-10-2025 07:00:00,24.792403,84.992416,CO,38,48,41
India,Bihar,Patna,"IGSC Planetarium Complex, Patna - BSPCB",21-10-2025 07:00:00,25.610369,85.132568,NO2,11,18,14
India,Bihar,Patna,"IGSC Planetarium Complex, Patna - BSPCB",21-10-2025 07:00:00,25.610369,85.132568,CO,55,68,61
India,Bihar,Patna,"Samanpura, Patna - BSPCB",21-10-2025 07:00:00,25.596727,85.085624,PM10,121,500,220
India,Bihar,Patna,"Samanpura, Patna - BSPCB",21-10-2025 07:00:00,25.596727,85.085624,NH3,5,7,6
India,Bihar,Hajipur,"Industrial Area, Hajipur - BSPCB",21-10-2025 07:00:00,25.697189,85.245900,NO2,5,13,8
India,Bihar,Katihar,"Mirchaibari, Katihar - BSPCB",21-10-2025 07:00:00,25.560083,87.553265,NH3,1,1,1
India,Bihar,Katihar,"Mirchaibari, Katihar - BSPCB",21-10-2025 07:00:00,25.560083,87.553265,SO2,16,25,20
India,Bihar,Katihar,"Mirchaibari, Katihar - BSPCB",21-10-2025 07:00:00,25.560083,87.553265,OZONE,4,36,6
India,Bihar,Sasaram,"Dada Peer, Sasaram - BSPCB",21-10-2025 07:00:00,24.952822,84.002396,PM2.5,47,396,140
India,Bihar,Sasaram,"Dada Peer, Sasaram - BSPCB",21-10-2025 07:00:00,24.952822,84.002396,NO2,2,5,2
India,Bihar,Siwan,"Chitragupta Nagar, Siwan - BSPCB",21-10-2025 07:00:00,26.2271665,84.3570427,CO,78,114,104
India,Bihar,Manguraha,"Forest Rest House, Manguraha - BSPCB",21-10-2025 07:00:00,27.308328,84.531742,NH3,1,2,1
India,Bihar,Motihari,"Gandak Colony, Motihari - BSPCB",21-10-2025 07:00:00,26.63086,84.90051,PM2.5,59,301,122
India,Delhi,Delhi,"Dr. Karni Singh Shooting Range, Delhi - DPCC",21-10-2025 07:00:00,28.498571,77.264840,CO,5,75,51
India,Delhi,Delhi,"Dwarka-Sector 8, Delhi - DPCC ",21-10-2025 07:00:00,28.5710274,77.0719006,PM2.5,NA,NA,NA
India,Delhi,Delhi,"IGI Airport (T3), Delhi - IMD",21-10-2025 07:00:00,28.5627763,77.1180053,PM10,144,500,237
India,Delhi,Delhi,"IHBAS, Dilshad Garden, Delhi - CPCB",21-10-2025 07:00:00,28.6811736,77.3025234,NH3,4,8,5
India,Delhi,Delhi,"IHBAS, Dilshad Garden, Delhi - CPCB",21-10-2025 07:00:00,28.6811736,77.3025234,SO2,1,47,19
India,Delhi,Delhi,"Bawana, Delhi - DPCC",21-10-2025 07:00:00,28.776200,77.051074,CO,44,98,60
India,Delhi,Delhi,"CRRI Mathura Road, Delhi - IMD",21-10-2025 07:00:00,28.5512005,77.2735737,NO2,4,78,28
India,Delhi,Delhi,"Chandni Chowk, Delhi - IITM",21-10-2025 07:00:00,28.656756,77.227234,CO,101,121,114
India,Delhi,Delhi,"DTU, Delhi - CPCB",21-10-2025 07:00:00,28.7500499,77.1112615,PM2.5,78,402,247
India,Delhi,Delhi,"Alipur, Delhi - DPCC",21-10-2025 07:00:00,28.815329,77.153010,OZONE,4,61,7
India,Delhi,Delhi,"Anand Vihar, Delhi - DPCC",21-10-2025 07:00:00,28.647622,77.3158090,NO2,34,124,75
India,Delhi,Delhi,"Ashok Vihar, Delhi - DPCC",21-10-2025 07:00:00,28.695381,77.181665,OZONE,3,186,8
India,Delhi,Delhi,"Aya Nagar, Delhi - IMD",21-10-2025 07:00:00,28.4706914,77.1099364,PM10,147,500,294
India,Delhi,Delhi,"Lodhi Road, Delhi - IMD",21-10-2025 07:00:00,28.5918245,77.2273074,PM2.5,210,500,330
India,Delhi,Delhi,"Mandir Marg, Delhi - DPCC",21-10-2025 07:00:00,28.636429,77.201067,PM2.5,160,500,321
India,Delhi,Delhi,"Mandir Marg, Delhi - DPCC",21-10-2025 07:00:00,28.636429,77.201067,NH3,4,6,5
India,Delhi,Delhi,"Mandir Marg, Delhi - DPCC",21-10-2025 07:00:00,28.636429,77.201067,CO,24,104,77
India,Chhattisgarh,Raipur,"Siltara Phase-II, Raipur - CECB",21-10-2025 07:00:00,21.371751,81.664929,OZONE,3,30,12
India,Chhattisgarh,Tumidih,"OP Jindal Industrial Park, Tumidih - CECB",21-10-2025 07:00:00,22.06631475,83.33820077,PM2.5,35,177,70
India,Delhi,Delhi,"NSIT Dwarka, Delhi - CPCB",21-10-2025 07:00:00,28.60909,77.0325413,CO,12,104,48
India,Delhi,Delhi,"Narela, Delhi - DPCC",21-10-2025 07:00:00,28.822836,77.101981,NO2,8,54,32
India,Delhi,Delhi,"Narela, Delhi - DPCC",21-10-2025 07:00:00,28.822836,77.101981,NH3,15,19,17
India,Delhi,Delhi,"ITO, Delhi - CPCB",21-10-2025 07:00:00,28.628624,77.241060,SO2,10,30,22
India,Delhi,Delhi,"ITO, Delhi - CPCB",21-10-2025 07:00:00,28.628624,77.241060,OZONE,5,30,6
India,Delhi,Delhi,"Jawaharlal Nehru Stadium, Delhi - DPCC",21-10-2025 07:00:00,28.580280,77.233829,OZONE,4,55,7
India,Chhattisgarh,Korba,"Rampur, Korba - CECB",21-10-2025 07:00:00,22.368195,82.746431,OZONE,NA,NA,NA
India,Chhattisgarh,Milupara,"Govt. Higher Secondary School, Milupara - CECB",21-10-2025 07:00:00,22.1910172,83.5197009,PM2.5,NA,NA,NA
India,Chhattisgarh,Raipur,"Bhatagaon New ISBT, Raipur - CECB",21-10-2025 07:00:00,21.219665,81.630094,PM10,10,94,45
India,Gujarat,Ahmedabad,"Rakhial, Ahmedabad - IITM",21-10-2025 07:00:00,23.016834,72.625775,NH3,7,17,11
India,Gujarat,Ahmedabad,"Rakhial, Ahmedabad - IITM",21-10-2025 07:00:00,23.016834,72.625775,SO2,9,123,44
India,Gujarat,Ahmedabad,"Rakhial, Ahmedabad - IITM",21-10-2025 07:00:00,23.016834,72.625775,OZONE,2,62,4
India,Gujarat,Ahmedabad,"SAC ISRO Bopal, Ahmedabad - IITM",21-10-2025 07:00:00,23.041137,72.456691,NO2,19,26,22
India,Gujarat,Ahmedabad,"SAC ISRO Bopal, Ahmedabad - IITM",21-10-2025 07:00:00,23.041137,72.456691,CO,13,112,94
India,Gujarat,Ahmedabad,"SVPI Airport Hansol, Ahmedabad - IITM",21-10-2025 07:00:00,23.076793,72.627874,PM10,26,470,142
India,Gujarat,Ahmedabad,"SVPI Airport Hansol, Ahmedabad - IITM",21-10-2025 07:00:00,23.076793,72.627874,NH3,2,7,3
India,Gujarat,Vapi,"Phase-1 GIDC, Vapi - GPCB",21-10-2025 07:00:00,20.362421,72.918013,PM10,109,281,187
India,Gujarat,Vapi,"Phase-1 GIDC, Vapi - GPCB",21-10-2025 07:00:00,20.362421,72.918013,SO2,42,44,43
India,Gujarat,Vatva,"Phase-4 GIDC, Vatva - GPCB",21-10-2025 07:00:00,22.969611,72.643500,PM2.5,40,500,219
India,Gujarat,Vatva,"Phase-4 GIDC, Vatva - GPCB",21-10-2025 07:00:00,22.969611,72.643500,PM10,38,451,178
India,Gujarat,Vatva,"Phase-4 GIDC, Vatva - GPCB",21-10-2025 07:00:00,22.969611,72.643500,NO2,25,40,33
India,Haryana,Ambala,"Patti Mehar, Ambala - HSPCB",21-10-2025 07:00:00,30.379589,76.778328,PM2.5,8,500,222
India,Gujarat,Gandhinagar,"IIPHG Lekawada, Gandhinagar - IITM",21-10-2025 07:00:00,23.243639,72.68994,PM10,56,223,106
India,Gujarat,Gandhinagar,"Sector-10, Gandhinagar - GPCB",21-10-2025 07:00:00,23.221714,72.654328,PM10,119,170,130
India,Gujarat,Nandesari,"GIDC, Nandesari - Nandesari Ind. Association",21-10-2025 07:00:00,22.410802,73.097923,PM2.5,303,303,303
India,Gujarat,Surat,"Science Center, Surat - SMC",21-10-2025 07:00:00,21.170046,72.795405,PM2.5,35,425,129
India,Delhi,Delhi,"Rohini, Delhi - DPCC",21-10-2025 07:00:00,28.732528,77.119920,SO2,4,124,30
India,Delhi,Delhi,"Rohini, Delhi - DPCC",21-10-2025 07:00:00,28.732528,77.119920,OZONE,10,236,11
India,Delhi,Delhi,"Shadipur, Delhi - CPCB",21-10-2025 07:00:00,28.6514781,77.1473105,SO2,1,40,13
India,Delhi,Delhi,"Sonia Vihar, Delhi - DPCC",21-10-2025 07:00:00,28.710508,77.249485,PM10,123,500,280
India,Delhi,Delhi,"Sonia Vihar, Delhi - DPCC",21-10-2025 07:00:00,28.710508,77.249485,OZONE,5,179,9
India,Haryana,Bahadurgarh,"Arya Nagar, Bahadurgarh - HSPCB",21-10-2025 07:00:00,28.6701,76.9254,OZONE,15,20,18
India,Haryana,Ballabgarh,"Nathu Colony, Ballabgarh - HSPCB",21-10-2025 07:00:00,28.3419248,77.319699,NH3,3,3,3
India,Haryana,Bhiwani,"H.B. Colony, Bhiwani - HSPCB",21-10-2025 07:00:00,28.806223,76.141105,PM10,42,500,203
India,Delhi,Delhi,"Sri Aurobindo Marg, Delhi - DPCC",21-10-2025 07:00:00,28.531346,77.190156,CO,32,102,95
India,Delhi,Delhi,"Wazirpur, Delhi - DPCC",21-10-2025 07:00:00,28.699793,77.165453,CO,26,106,52
India,Gujarat,Ahmedabad,"Chandkheda, Ahmedabad - IITM",21-10-2025 07:00:00,23.107969,72.574648,NO2,8,117,50
India,Gujarat,Ahmedabad,"Chandkheda, Ahmedabad - IITM",21-10-2025 07:00:00,23.107969,72.574648,OZONE,2,64,7
India,Gujarat,Ahmedabad,"Gyaspur, Ahmedabad - IITM",21-10-2025 07:00:00,22.977134,72.553024,SO2,36,102,54
India,Gujarat,Ahmedabad,"Maninagar, Ahmedabad - GPCB",21-10-2025 07:00:00,23.002657,72.591912,CO,19,68,46
India,Delhi,Delhi,"North Campus, DU, Delhi - IMD",21-10-2025 07:00:00,28.6573814,77.1585447,CO,25,123,89
India,Delhi,Delhi,"North Campus, DU, Delhi - IMD",21-10-2025 07:00:00,28.6573814,77.1585447,OZONE,32,302,35
India,Delhi,Delhi,"Punjabi Bagh, Delhi - DPCC",21-10-2025 07:00:00,28.674045,77.131023,PM10,159,500,312
India,Delhi,Delhi,"Pusa, Delhi - DPCC",21-10-2025 07:00:00,28.639652,77.146275,CO,34,102,83
India,Delhi,Delhi,"Pusa, Delhi - IMD",21-10-2025 07:00:00,28.636110,77.173332,NO2,19,120,66
India,Delhi,Delhi,"Rohini, Delhi - DPCC",21-10-2025 07:00:00,28.732528,77.119920,PM2.5,187,500,369
India,Karnataka,Bengaluru,"BTM Layout, Bengaluru - CPCB",21-10-2025 07:00:00,12.9135218,77.5950804,SO2,14,38,21
India,Karnataka,Bengaluru,"BTM Layout, Bengaluru - CPCB",21-10-2025 07:00:00,12.9135218,77.5950804,CO,16,56,49
India,Karnataka,Bengaluru,"BWSSB Kadabesanahalli, Bengaluru - CPCB",21-10-2025 07:00:00,12.9352049,77.6814488,PM10,40,372,140
India,Karnataka,Bengaluru,"BWSSB Kadabesanahalli, Bengaluru - CPCB",21-10-2025 07:00:00,12.9352049,77.6814488,NO2,23,23,23
India,Karnataka,Bengaluru,"BWSSB Kadabesanahalli, Bengaluru - CPCB",21-10-2025 07:00:00,12.9352049,77.6814488,CO,2,68,4
India,Karnataka,Bengaluru,"Bapuji Nagar, Bengaluru - KSPCB",21-10-2025 07:00:00,12.951913,77.539784,NO2,4,9,7
India,Karnataka,Bengaluru,"Bapuji Nagar, Bengaluru - KSPCB",21-10-2025 07:00:00,12.951913,77.539784,SO2,2,7,4
India,Karnataka,Bengaluru,"Bapuji Nagar, Bengaluru - KSPCB",21-10-2025 07:00:00,12.951913,77.539784,CO,12,56,27
India,Karnataka,Bengaluru,"City Railway Station, Bengaluru - KSPCB",21-10-2025 07:00:00,12.9756843,77.5660749,NO2,44,58,50
India,Karnataka,Bengaluru,"Hebbal, Bengaluru - KSPCB",21-10-2025 07:00:00,13.029152,77.585901,PM2.5,3,416,79
India,Haryana,Charkhi Dadri,"Mini Secretariat, Charkhi Dadri - HSPCB",21-10-2025 07:00:00,28.593883,76.270653,PM10,50,330,194
India,Haryana,Charkhi Dadri,"Mini Secretariat, Charkhi Dadri - HSPCB",21-10-2025 07:00:00,28.593883,76.270653,NO2,9,21,15
India,Haryana,Charkhi Dadri,"Mini Secretariat, Charkhi Dadri - HSPCB",21-10-2025 07:00:00,28.593883,76.270653,OZONE,14,18,15
India,Haryana,Dharuhera,"Municipal Corporation Office, Dharuhera -  HSPCB",21-10-2025 07:00:00,28.206800,76.799700,PM10,135,497,297
India,Haryana,Dharuhera,"Municipal Corporation Office, Dharuhera -  HSPCB",21-10-2025 07:00:00,28.206800,76.799700,NO2,14,51,38
India,Haryana,Faridabad,"New Industrial Town, Faridabad - HSPCB",21-10-2025 07:00:00,28.39072,77.30059,NO2,23,27,25
India,Haryana,Faridabad,"New Industrial Town, Faridabad - HSPCB",21-10-2025 07:00:00,28.39072,77.30059,CO,3,14,12
India,Haryana,Faridabad,"Sector 30, Faridabad - HSPCB",21-10-2025 07:00:00,28.4417,77.3217,PM10,143,330,205
India,Jammu_and_Kashmir,Srinagar,"Rajbagh, Srinagar - JKSPCB",21-10-2025 07:00:00,34.066206,74.819820,CO,14,23,18
India,Jharkhand,Dhanbad,"Sardar Patel Nagar, Dhanbad - JSPCB",21-10-2025 07:00:00,23.80569,86.44268,PM2.5,26,444,169
India,Jharkhand,Dhanbad,"Sardar Patel Nagar, Dhanbad - JSPCB",21-10-2025 07:00:00,23.80569,86.44268,PM10,166,349,210
India,Jharkhand,Dhanbad,"Sardar Patel Nagar, Dhanbad - JSPCB",21-10-2025 07:00:00,23.80569,86.44268,CO,1,17,6
India,Jharkhand,Jorapokhar,"Tata Stadium, Jorapokhar - JSPCB",21-10-2025 07:00:00,23.707909,86.414670,OZONE,NA,NA,NA
India,Karnataka,Bagalkot,"Vidayagiri, Bagalkot - KSPCB",21-10-2025 07:00:00,16.172806,75.659694,PM2.5,33,34,33
India,Karnataka,Bagalkot,"Vidayagiri, Bagalkot - KSPCB",21-10-2025 07:00:00,16.172806,75.659694,OZONE,10,16,15
India,Haryana,Gurugram,"Vikas Sadan, Gurugram - HSPCB",21-10-2025 07:00:00,28.4501238,77.0263051,OZONE,8,56,17
India,Haryana,Hisar,"Urban Estate-II, Hisar - HSPCB",21-10-2025 07:00:00,29.140560,75.744941,NO2,11,12,12
India,Haryana,Hisar,"Urban Estate-II, Hisar - HSPCB",21-10-2025 07:00:00,29.140560,75.744941,SO2,14,22,16
India,Haryana,Hisar,"Urban Estate-II, Hisar - HSPCB",21-10-2025 07:00:00,29.140560,75.744941,OZONE,44,109,56
India,Haryana,Jind,"Police Lines, Jind - HSPCB",21-10-2025 07:00:00,29.307814,76.337619,PM2.5,97,500,341
India,Haryana,Jind,"Police Lines, Jind - HSPCB",21-10-2025 07:00:00,29.307814,76.337619,NO2,12,14,13
India,Haryana,Kaithal,"Rishi Nagar, Kaithal - HSPCB",21-10-2025 07:00:00,29.8006,76.4155,NH3,5,6,6
India,Haryana,Fatehabad,"Huda Sector, Fatehabad - HSPCB",21-10-2025 07:00:00,29.503664,75.467934,PM10,100,300,142
India,Haryana,Fatehabad,"Huda Sector, Fatehabad - HSPCB",21-10-2025 07:00:00,29.503664,75.467934,NO2,18,20,19
India,Haryana,Fatehabad,"Huda Sector, Fatehabad - HSPCB",21-10-2025 07:00:00,29.503664,75.467934,CO,25,109,29
India,Haryana,Gurugram,"NISE Gwal Pahari, Gurugram - IMD",21-10-2025 07:00:00,28.422681,77.148944,NO2,11,19,14
India,Haryana,Gurugram,"Sector-51, Gurugram - HSPCB",21-10-2025 07:00:00,28.4227,77.0667,NH3,3,21,9
India,Haryana,Gurugram,"Sector-51, Gurugram - HSPCB",21-10-2025 07:00:00,28.4227,77.0667,SO2,3,25,11
India,Haryana,Gurugram,"Sector-51, Gurugram - HSPCB",21-10-2025 07:00:00,28.4227,77.0667,OZONE,7,57,32
India,Haryana,Karnal,"Sector-12, Karnal - HSPCB",21-10-2025 07:00:00,29.695300,77.002700,OZONE,20,26,25
India,Haryana,Kurukshetra,"Sector-7, Kurukshetra - HSPCB",21-10-2025 07:00:00,29.966942,76.875879,NH3,5,5,5
India,Haryana,Kurukshetra,"Sector-7, Kurukshetra - HSPCB",21-10-2025 07:00:00,29.966942,76.875879,OZONE,20,22,21
India,Haryana,Mandikhera,"General Hospital, Mandikhera - HSPCB",21-10-2025 07:00:00,27.9002,76.9938,OZONE,16,17,16
India,Haryana,Manesar,"Sector-2 IMT, Manesar - HSPCB",21-10-2025 07:00:00,28.360699,76.936090,PM2.5,93,500,313
India,Haryana,Manesar,"Sector-2 IMT, Manesar - HSPCB",21-10-2025 07:00:00,28.360699,76.936090,SO2,9,16,11
India,Haryana,Sonipat,"Murthal, Sonipat - HSPCB",21-10-2025 07:00:00,29.027200,77.062100,NO2,29,55,46
India,Haryana,Sonipat,"Murthal, Sonipat - HSPCB",21-10-2025 07:00:00,29.027200,77.062100,SO2,6,11,8
India,Haryana,Sonipat,"Murthal, Sonipat - HSPCB",21-10-2025 07:00:00,29.027200,77.062100,OZONE,25,26,26
India,Haryana,Yamuna Nagar,"Gobind Pura, Yamuna Nagar - HSPCB",21-10-2025 07:00:00,30.1480566,77.2893471,NH3,7,10,10
India,Himachal Pradesh,Baddi,"HIMUDA Complex Phase-1, Baddi - HPPCB",21-10-2025 07:00:00,30.943887,76.801991,NH3,2,5,4
India,Haryana,Panchkula,"Sector-6, Panchkula - HSPCB ",21-10-2025 07:00:00,30.7057778,76.8531805555555,OZONE,NA,NA,NA
India,Haryana,Panipat,"Sector-18, Panipat - HSPCB",21-10-2025 07:00:00,29.432304,76.972765,PM2.5,37,471,228
India,Haryana,Panipat,"Sector-18, Panipat - HSPCB",21-10-2025 07:00:00,29.432304,76.972765,NO2,31,32,31
India,Haryana,Rohtak,"MD University, Rohtak - HSPCB",21-10-2025 07:00:00,28.52123,76.37138,PM2.5,61,500,344
India,Haryana,Rohtak,"MD University, Rohtak - HSPCB",21-10-2025 07:00:00,28.52123,76.37138,CO,28,193,127
