country,state,city,station,last_update,latitude,longitude,pollutant_id,min_value,max_value,avg_value
India,Andhra_Pradesh,Chittoor,"Gangineni Cheruvu, Chittoor - APPCB",02-09-2025 07:00:00,13.204880,79.097889,NO2,24,28,26
India,Andhra_Pradesh,Chittoor,"Gangineni Cheruvu, Chittoor - APPCB",02-09-2025 07:00:00,13.204880,79.097889,OZONE,45,58,49
India,Andhra_Pradesh,Kadapa,"Yerramukkapalli, Kadapa - APPCB",02-09-2025 07:00:00,14.465052,78.824187,CO,1,34,16
India,Andhra_Pradesh,Rajamahendravaram,"Anand Kala Kshetram, Rajamahendravaram - APPCB",02-09-2025 07:00:00,16.9872867,81.7363176,PM10,14,44,24
India,Andhra_Pradesh,Rajamahendravaram,"Anand Kala Kshetram, Rajamahendravaram - APPCB",02-09-2025 07:00:00,16.9872867,81.7363176,OZONE,10,11,10
India,Andhra_Pradesh,Vijayawada,"HB Colony, Vijayawada - APPCB",02-09-2025 07:00:00,16.536107,80.594233,OZONE,NA,NA,NA
India,Andhra_Pradesh,Vijayawada,"Rajiv Gandhi Park, Vijayawada - APPCB",02-09-2025 07:00:00,16.509717,80.612222,PM2.5,36,71,51
India,Andhra_Pradesh,Vijayawada,"Rajiv Gandhi Park, Vijayawada - APPCB",02-09-2025 07:00:00,16.509717,80.612222,PM10,36,70,50
India,Andhra_Pradesh,Vijayawada,"Rajiv Nagar, Vijayawada - APPCB",02-09-2025 07:00:00,16.554731,80.649110,PM2.5,66,84,75
India,Assam,Guwahati,"IITG, Guwahati - PCBA",02-09-2025 07:00:00,26.2028636,91.70046436,OZONE,1,30,1
India,Assam,Guwahati,"LGBI Airport, Guwahati - PCBA",02-09-2025 07:00:00,26.10887,91.589544,NO2,14,20,15
India,Assam,Guwahati,"LGBI Airport, Guwahati - PCBA",02-09-2025 07:00:00,26.10887,91.589544,OZONE,13,24,16
India,Andhra_Pradesh,Tirupati,"Vaikuntapuram, Tirupati - APPCB",02-09-2025 07:00:00,13.615387,79.409230,SO2,21,22,22
India,Andhra_Pradesh,Vijayawada,"HB Colony, Vijayawada - APPCB",02-09-2025 07:00:00,16.536107,80.594233,PM2.5,63,90,74
India,Andhra_Pradesh,Tirumala,"Toll Gate, Tirumala - APPCB",02-09-2025 07:00:00,13.67,79.35,PM2.5,10,32,20
India,Andhra_Pradesh,Tirumala,"Toll Gate, Tirumala - APPCB",02-09-2025 07:00:00,13.67,79.35,PM10,20,37,28
India,Andhra_Pradesh,Tirumala,"Toll Gate, Tirumala - APPCB",02-09-2025 07:00:00,13.67,79.35,OZONE,8,15,11
India,Andhra_Pradesh,Amaravati,"Secretariat, Amaravati - APPCB",02-09-2025 07:00:00,16.5150833,80.5181667,PM2.5,4,31,17
India,Andhra_Pradesh,Amaravati,"Secretariat, Amaravati - APPCB",02-09-2025 07:00:00,16.5150833,80.5181667,OZONE,5,37,10
India,Assam,Guwahati,"IITG, Guwahati - PCBA",02-09-2025 07:00:00,26.2028636,91.70046436,NO2,1,2,1
India,Assam,Guwahati,"IITG, Guwahati - PCBA",02-09-2025 07:00:00,26.2028636,91.70046436,SO2,21,26,23
India,Andhra_Pradesh,Vijayawada,"Rajiv Nagar, Vijayawada - APPCB",02-09-2025 07:00:00,16.554731,80.649110,NO2,19,25,21
India,Andhra_Pradesh,Vijayawada,"Rajiv Nagar, Vijayawada - APPCB",02-09-2025 07:00:00,16.554731,80.649110,CO,16,47,23
India,Andhra_Pradesh,Tirupati,"Vaikuntapuram, Tirupati - APPCB",02-09-2025 07:00:00,13.615387,79.409230,NO2,4,9,6
India,Assam,Nagaon,"Christianpatty, Nagaon - PCBA",02-09-2025 07:00:00,26.349082,92.68449,PM10,38,50,45
India,Assam,Nagaon,"Christianpatty, Nagaon - PCBA",02-09-2025 07:00:00,26.349082,92.68449,CO,32,48,45
India,Assam,Nalbari,"Bata Chowk, Nalbari - PCBA",02-09-2025 07:00:00,26.446912,91.439057,PM2.5,15,386,79
India,Assam,Nalbari,"Bata Chowk, Nalbari - PCBA",02-09-2025 07:00:00,26.446912,91.439057,OZONE,3,41,11
India,Assam,Silchar,"Tarapur, Silchar - PCBA",02-09-2025 07:00:00,24.82827,92.79525,PM2.5,32,36,33
India,Assam,Silchar,"Tarapur, Silchar - PCBA",02-09-2025 07:00:00,24.82827,92.79525,NO2,14,15,14
India,Assam,Silchar,"Tarapur, Silchar - PCBA",02-09-2025 07:00:00,24.82827,92.79525,SO2,1,71,21
India,Bihar,Aurangabad,"Gurdeo Nagar, Aurangabad - BSPCB",02-09-2025 07:00:00,24.75746,84.366208,OZONE,4,55,10
India,Bihar,Begusarai,"Lohiyanagar, Begusarai - BSPCB",02-09-2025 07:00:00,25.42742023,86.13886079,OZONE,19,62,42
India,Bihar,Bettiah,"Kamalnath Nagar, Bettiah - BSPCB",02-09-2025 07:00:00,26.80365,84.51954,NH3,1,3,2
India,Bihar,Araria,"Kharahiya Basti, Araria - BSPCB",02-09-2025 07:00:00,26.146529,87.454184,PM10,NA,NA,NA
India,Bihar,Araria,"Kharahiya Basti, Araria - BSPCB",02-09-2025 07:00:00,26.146529,87.454184,OZONE,NA,NA,NA
India,Bihar,Aurangabad,"Gurdeo Nagar, Aurangabad - BSPCB",02-09-2025 07:00:00,24.75746,84.366208,NH3,1,2,1
India,Bihar,Bihar Sharif,"D M Colony, Bihar Sharif - BSPCB",02-09-2025 07:00:00,25.204762,85.514960,OZONE,17,47,28
India,Bihar,Buxar,"Charitra Van, Buxar - BSPCB",02-09-2025 07:00:00,25.567520,83.966379,PM2.5,63,63,63
India,Bihar,Bhagalpur,"Mayaganj, Bhagalpur - BSPCB",02-09-2025 07:00:00,25.265194,87.012947,PM10,NA,NA,NA
India,Bihar,Bihar Sharif,"D M Colony, Bihar Sharif - BSPCB",02-09-2025 07:00:00,25.204762,85.514960,PM10,NA,NA,NA
India,Bihar,Bhagalpur,"DM Office_Kachari Chowk, Bhagalpur - BSPCB",02-09-2025 07:00:00,25.251013,86.989001,NO2,17,24,21
India,Bihar,Chhapra,"Darshan Nagar, Chhapra - BSPCB",02-09-2025 07:00:00,25.7808257,84.7446768,PM2.5,39,52,47
India,Bihar,Bihar Sharif,"D M Colony, Bihar Sharif - BSPCB",02-09-2025 07:00:00,25.204762,85.514960,NH3,NA,NA,NA
India,Assam,Silchar,"Tarapur, Silchar - PCBA",02-09-2025 07:00:00,24.82827,92.79525,OZONE,1,19,6
India,Bihar,Chhapra,"Darshan Nagar, Chhapra - BSPCB",02-09-2025 07:00:00,25.7808257,84.7446768,NH3,3,4,4
India,Bihar,Chhapra,"Darshan Nagar, Chhapra - BSPCB",02-09-2025 07:00:00,25.7808257,84.7446768,SO2,8,9,8
India,Bihar,Gaya,"Collectorate, Gaya - BSPCB",02-09-2025 07:00:00,24.7955,84.9994,PM2.5,15,86,60
India,Bihar,Muzaffarpur,"Buddha Colony, Muzaffarpur - BSPCB",02-09-2025 07:00:00,26.11442,85.39813,CO,12,48,30
India,Bihar,Muzaffarpur,"MIT-Daudpur Kothi, Muzaffarpur - BSPCB",02-09-2025 07:00:00,26.1403345,85.3650192,PM2.5,37,72,53
India,Bihar,Muzaffarpur,"MIT-Daudpur Kothi, Muzaffarpur - BSPCB",02-09-2025 07:00:00,26.1403345,85.3650192,CO,56,82,81
India,Bihar,Manguraha,"Forest Rest House, Manguraha - BSPCB",02-09-2025 07:00:00,27.308328,84.531742,PM2.5,NA,NA,NA
India,Bihar,Manguraha,"Forest Rest House, Manguraha - BSPCB",02-09-2025 07:00:00,27.308328,84.531742,NO2,3,8,5
India,Bihar,Muzaffarpur,"Buddha Colony, Muzaffarpur - BSPCB",02-09-2025 07:00:00,26.11442,85.39813,PM2.5,18,85,48
India,Bihar,Muzaffarpur,"Buddha Colony, Muzaffarpur - BSPCB",02-09-2025 07:00:00,26.11442,85.39813,NO2,6,16,11
India,Bihar,Gaya,"SFTI Kusdihra, Gaya - BSPCB",02-09-2025 07:00:00,24.762518,84.982348,PM2.5,16,63,30
India,Bihar,Gaya,"SFTI Kusdihra, Gaya - BSPCB",02-09-2025 07:00:00,24.762518,84.982348,NH3,3,4,3
India,Bihar,Hajipur,"Industrial Area, Hajipur - BSPCB",02-09-2025 07:00:00,25.697189,85.245900,PM10,41,93,60
India,Bihar,Hajipur,"Industrial Area, Hajipur - BSPCB",02-09-2025 07:00:00,25.697189,85.245900,NO2,7,22,13
India,Bihar,Gaya,"SFTI Kusdihra, Gaya - BSPCB",02-09-2025 07:00:00,24.762518,84.982348,CO,20,32,23
India,Bihar,Gaya,"SFTI Kusdihra, Gaya - BSPCB",02-09-2025 07:00:00,24.762518,84.982348,OZONE,9,22,10
India,Bihar,Patna,"Govt. High School Shikarpur, Patna - BSPCB",02-09-2025 07:00:00,25.592539,85.227158,NO2,5,6,5
India,Bihar,Motihari,"Gandak Colony, Motihari - BSPCB",02-09-2025 07:00:00,26.63086,84.90051,SO2,2,3,3
India,Bihar,Siwan,"Chitragupta Nagar, Siwan - BSPCB",02-09-2025 07:00:00,26.2271665,84.3570427,SO2,4,9,6
India,Chandigarh,Chandigarh,"Sector 22, Chandigarh - CPCC",02-09-2025 07:00:00,30.735567,76.775714,NH3,9,22,12
India,Bihar,Patna,"Rajbansi Nagar, Patna - BSPCB",02-09-2025 07:00:00,25.599486,85.113666,SO2,4,10,8
India,Bihar,Patna,"Samanpura, Patna - BSPCB",02-09-2025 07:00:00,25.596727,85.085624,PM2.5,45,90,67
India,Bihar,Sasaram,"Dada Peer, Sasaram - BSPCB",02-09-2025 07:00:00,24.952822,84.002396,PM10,NA,NA,NA
India,Bihar,Sasaram,"Dada Peer, Sasaram - BSPCB",02-09-2025 07:00:00,24.952822,84.002396,NO2,NA,NA,NA
India,Bihar,Sasaram,"Dada Peer, Sasaram - BSPCB",02-09-2025 07:00:00,24.952822,84.002396,SO2,NA,NA,NA
India,Bihar,Patna,"Rajbansi Nagar, Patna - BSPCB",02-09-2025 07:00:00,25.599486,85.113666,PM10,37,70,55
India,Bihar,Patna,"Rajbansi Nagar, Patna - BSPCB",02-09-2025 07:00:00,25.599486,85.113666,NO2,21,26,24
India,Bihar,Rajgir,"Dangi Tola, Rajgir - BSPCB",02-09-2025 07:00:00,25.03280,85.41948,SO2,16,24,21
India,Bihar,Rajgir,"Dangi Tola, Rajgir - BSPCB",02-09-2025 07:00:00,25.03280,85.41948,OZONE,23,77,31
India,Chhattisgarh,Bhilai,"Hathkhoj, Bhilai - CECB",02-09-2025 07:00:00,21.224231,81.408350,NH3,4,5,4
India,Chhattisgarh,Bhilai,"Hathkhoj, Bhilai - CECB",02-09-2025 07:00:00,21.224231,81.408350,SO2,7,9,9
India,Chhattisgarh,Bilaspur,"Mangala, Bilaspur - NTPC",02-09-2025 07:00:00,22.08815,82.13737,PM2.5,11,58,31
India,Chandigarh,Chandigarh,"Sector-25, Chandigarh - CPCC",02-09-2025 07:00:00,30.751462,76.762879,PM2.5,NA,NA,NA
India,Bihar,Patna,"Samanpura, Patna - BSPCB",02-09-2025 07:00:00,25.596727,85.085624,NH3,6,7,6
India,Delhi,Delhi,"Aya Nagar, Delhi - IMD",02-09-2025 07:00:00,28.4706914,77.1099364,PM2.5,5,57,15
India,Delhi,Delhi,"Aya Nagar, Delhi - IMD",02-09-2025 07:00:00,28.4706914,77.1099364,NO2,3,13,9
India,Delhi,Delhi,"Aya Nagar, Delhi - IMD",02-09-2025 07:00:00,28.4706914,77.1099364,OZONE,24,74,40
India,Delhi,Delhi,"Bawana, Delhi - DPCC",02-09-2025 07:00:00,28.776200,77.051074,PM10,NA,NA,NA
India,Delhi,Delhi,"Burari Crossing, Delhi - IMD",02-09-2025 07:00:00,28.7256504,77.2011573,OZONE,20,41,28
India,Delhi,Delhi,"CRRI Mathura Road, Delhi - IMD",02-09-2025 07:00:00,28.5512005,77.2735737,NO2,12,38,22
India,Delhi,Delhi,"CRRI Mathura Road, Delhi - IMD",02-09-2025 07:00:00,28.5512005,77.2735737,CO,14,28,18
India,Delhi,Delhi,"Chandni Chowk, Delhi - IITM",02-09-2025 07:00:00,28.656756,77.227234,PM2.5,10,34,20
India,Delhi,Delhi,"Chandni Chowk, Delhi - IITM",02-09-2025 07:00:00,28.656756,77.227234,PM10,20,62,41
India,Chhattisgarh,Raipur,"Siltara Phase-II, Raipur - CECB",02-09-2025 07:00:00,21.371751,81.664929,CO,12,48,35
India,Chhattisgarh,Tumidih,"OP Jindal Industrial Park, Tumidih - CECB",02-09-2025 07:00:00,22.06631475,83.33820077,PM2.5,20,67,34
India,Delhi,Delhi,"Alipur, Delhi - DPCC",02-09-2025 07:00:00,28.815329,77.153010,PM2.5,NA,NA,NA
India,Chhattisgarh,Raipur,"Krishak Nagar, Raipur - CECB",02-09-2025 07:00:00,21.237755,81.705301,PM10,9,41,20
India,Chhattisgarh,Raipur,"Siltara Phase-II, Raipur - CECB",02-09-2025 07:00:00,21.371751,81.664929,PM10,23,137,63
India,Chhattisgarh,Raipur,"AIIMS, Raipur - CECB",02-09-2025 07:00:00,21.258815,81.578979,NO2,7,15,9
India,Chhattisgarh,Raipur,"AIIMS, Raipur - CECB",02-09-2025 07:00:00,21.258815,81.578979,SO2,8,11,10
India,Chhattisgarh,Raipur,"AIIMS, Raipur - CECB",02-09-2025 07:00:00,21.258815,81.578979,CO,24,32,26
India,Chhattisgarh,Raipur,"AIIMS, Raipur - CECB",02-09-2025 07:00:00,21.258815,81.578979,OZONE,6,18,6
India,Chhattisgarh,Raipur,"Bhatagaon New ISBT, Raipur - CECB",02-09-2025 07:00:00,21.219665,81.630094,NH3,2,2,2
India,Chhattisgarh,Kunjemura,"OP Jindal School, Kunjemura - CECB",02-09-2025 07:00:00,22.126650,83.483212,PM2.5,10,26,17
India,Chhattisgarh,Kunjemura,"OP Jindal School, Kunjemura - CECB",02-09-2025 07:00:00,22.126650,83.483212,PM10,18,45,34
India,Delhi,Delhi,"DTU, Delhi - CPCB",02-09-2025 07:00:00,28.7500499,77.1112615,PM2.5,3,89,21
India,Delhi,Delhi,"DTU, Delhi - CPCB",02-09-2025 07:00:00,28.7500499,77.1112615,CO,13,19,14
India,Chhattisgarh,Chhal,"Nawapara SECL Colony, Chhal - CECB",02-09-2025 07:00:00,22.118125,83.140608,PM10,22,54,34
India,Chhattisgarh,Kunjemura,"OP Jindal School, Kunjemura - CECB",02-09-2025 07:00:00,22.126650,83.483212,SO2,1,19,6
India,Delhi,Delhi,"R K Puram, Delhi - DPCC",02-09-2025 07:00:00,28.563262,77.186937,PM10,NA,NA,NA
India,Delhi,Delhi,"R K Puram, Delhi - DPCC",02-09-2025 07:00:00,28.563262,77.186937,NO2,8,28,19
India,Delhi,Delhi,"R K Puram, Delhi - DPCC",02-09-2025 07:00:00,28.563262,77.186937,CO,18,30,21
India,Delhi,Delhi,"Rohini, Delhi - DPCC",02-09-2025 07:00:00,28.732528,77.119920,PM2.5,5,52,23
India,Delhi,Delhi,"Rohini, Delhi - DPCC",02-09-2025 07:00:00,28.732528,77.119920,NH3,1,13,4
India,Delhi,Delhi,"Shadipur, Delhi - CPCB",02-09-2025 07:00:00,28.6514781,77.1473105,NH3,7,11,9
India,Delhi,Delhi,"Shadipur, Delhi - CPCB",02-09-2025 07:00:00,28.6514781,77.1473105,SO2,2,14,10
India,Delhi,Delhi,"Shadipur, Delhi - CPCB",02-09-2025 07:00:00,28.6514781,77.1473105,CO,38,89,54
India,Delhi,Delhi,"Shadipur, Delhi - CPCB",02-09-2025 07:00:00,28.6514781,77.1473105,OZONE,7,9,8
India,Delhi,Delhi,"Sirifort, Delhi - CPCB",02-09-2025 07:00:00,28.5504249,77.2159377,NH3,8,10,10
India,Delhi,Delhi,"Sirifort, Delhi - CPCB",02-09-2025 07:00:00,28.5504249,77.2159377,CO,2,10,3
India,Gujarat,Ahmedabad,"Chandkheda, Ahmedabad - IITM",02-09-2025 07:00:00,23.107969,72.574648,SO2,1,24,9
India,Gujarat,Ahmedabad,"Gyaspur, Ahmedabad - IITM",02-09-2025 07:00:00,22.977134,72.553024,PM2.5,12,55,25
India,Gujarat,Ahmedabad,"Gyaspur, Ahmedabad - IITM",02-09-2025 07:00:00,22.977134,72.553024,NH3,7,10,9
India,Gujarat,Ahmedabad,"Gyaspur, Ahmedabad - IITM",02-09-2025 07:00:00,22.977134,72.553024,CO,20,44,29
India,Gujarat,Ahmedabad,"Maninagar, Ahmedabad - GPCB",02-09-2025 07:00:00,23.002657,72.591912,PM2.5,20,81,40
India,Gujarat,Ahmedabad,"Maninagar, Ahmedabad - GPCB",02-09-2025 07:00:00,23.002657,72.591912,CO,24,30,26
India,Gujarat,Ahmedabad,"Maninagar, Ahmedabad - GPCB",02-09-2025 07:00:00,23.002657,72.591912,OZONE,7,39,22
India,Gujarat,Ahmedabad,"Raikhad, Ahmedabad - IITM",02-09-2025 07:00:00,23.020509,72.579261,PM2.5,18,57,37
India,Gujarat,Ahmedabad,"Rakhial, Ahmedabad - IITM",02-09-2025 07:00:00,23.016834,72.625775,NO2,8,29,16
India,Gujarat,Gandhinagar,"IIPHG Lekawada, Gandhinagar - IITM",02-09-2025 07:00:00,23.243639,72.68994,PM2.5,28,46,36
India,Gujarat,Gandhinagar,"IIPHG Lekawada, Gandhinagar - IITM",02-09-2025 07:00:00,23.243639,72.68994,SO2,5,8,7
India,Gujarat,Gandhinagar,"Sector-10, Gandhinagar - GPCB",02-09-2025 07:00:00,23.221714,72.654328,PM10,40,98,71
India,Gujarat,Gandhinagar,"Sector-10, Gandhinagar - GPCB",02-09-2025 07:00:00,23.221714,72.654328,NH3,2,7,4
India,Gujarat,Gandhinagar,"Sector-10, Gandhinagar - GPCB",02-09-2025 07:00:00,23.221714,72.654328,SO2,7,10,8
India,Gujarat,Surat,"Science Center, Surat - SMC",02-09-2025 07:00:00,21.170046,72.795405,PM2.5,2,36,16
India,Gujarat,Vapi,"Phase-1 GIDC, Vapi - GPCB",02-09-2025 07:00:00,20.362421,72.918013,PM2.5,26,73,44
India,Gujarat,Vapi,"Phase-1 GIDC, Vapi - GPCB",02-09-2025 07:00:00,20.362421,72.918013,PM10,48,100,74
India,Delhi,Delhi,"Okhla Phase-2, Delhi - DPCC",02-09-2025 07:00:00,28.530785,77.271255,NO2,12,21,16
India,Delhi,Delhi,"Patparganj, Delhi - DPCC",02-09-2025 07:00:00,28.623763,77.287209,SO2,7,11,9
India,Delhi,Delhi,"Patparganj, Delhi - DPCC",02-09-2025 07:00:00,28.623763,77.287209,CO,36,46,38
India,Delhi,Delhi,"Patparganj, Delhi - DPCC",02-09-2025 07:00:00,28.623763,77.287209,OZONE,14,35,22
India,Delhi,Delhi,"Punjabi Bagh, Delhi - DPCC",02-09-2025 07:00:00,28.674045,77.131023,NH3,2,6,4
India,Delhi,Delhi,"Pusa, Delhi - DPCC",02-09-2025 07:00:00,28.639652,77.146275,PM2.5,NA,NA,NA
India,Delhi,Delhi,"Pusa, Delhi - DPCC",02-09-2025 07:00:00,28.639652,77.146275,NO2,16,27,22
India,Delhi,Delhi,"Pusa, Delhi - IMD",02-09-2025 07:00:00,28.636110,77.173332,PM10,1,85,25
India,Delhi,Delhi,"Najafgarh, Delhi - DPCC",02-09-2025 07:00:00,28.570173,76.933762,PM2.5,2,28,12
India,Delhi,Delhi,"Najafgarh, Delhi - DPCC",02-09-2025 07:00:00,28.570173,76.933762,NO2,17,92,36
India,Delhi,Delhi,"Najafgarh, Delhi - DPCC",02-09-2025 07:00:00,28.570173,76.933762,SO2,6,66,41
India,Delhi,Delhi,"Najafgarh, Delhi - DPCC",02-09-2025 07:00:00,28.570173,76.933762,CO,15,18,15
India,Delhi,Delhi,"Narela, Delhi - DPCC",02-09-2025 07:00:00,28.822836,77.101981,OZONE,1,24,11
India,Delhi,Delhi,"Nehru Nagar, Delhi - DPCC",02-09-2025 07:00:00,28.567890,77.250515,PM2.5,2,23,14
India,Delhi,Delhi,"Nehru Nagar, Delhi - DPCC",02-09-2025 07:00:00,28.567890,77.250515,SO2,7,13,10
India,Delhi,Delhi,"North Campus, DU, Delhi - IMD",02-09-2025 07:00:00,28.6573814,77.1585447,OZONE,7,56,19
India,Gujarat,Ahmedabad,"Rakhial, Ahmedabad - IITM",02-09-2025 07:00:00,23.016834,72.625775,CO,1,32,3
India,Gujarat,Ahmedabad,"SAC ISRO Bopal, Ahmedabad - IITM",02-09-2025 07:00:00,23.041137,72.456691,PM2.5,26,57,42
India,Gujarat,Ahmedabad,"SAC ISRO Satellite, Ahmedabad - IITM",02-09-2025 07:00:00,23.023389,72.515201,OZONE,5,20,9
India,Gujarat,Ahmedabad,"SVPI Airport Hansol, Ahmedabad - IITM",02-09-2025 07:00:00,23.076793,72.627874,CO,17,30,22
India,Gujarat,Ankleshwar,"GIDC, Ankleshwar - GPCB",02-09-2025 07:00:00,21.613267,73.010555,NH3,5,8,5
India,Gujarat,Ankleshwar,"GIDC, Ankleshwar - GPCB",02-09-2025 07:00:00,21.613267,73.010555,CO,12,40,24
India,Delhi,Delhi,"Sonia Vihar, Delhi - DPCC",02-09-2025 07:00:00,28.710508,77.249485,PM2.5,3,63,20
India,Delhi,Delhi,"Sonia Vihar, Delhi - DPCC",02-09-2025 07:00:00,28.710508,77.249485,SO2,12,19,15
India,Delhi,Delhi,"Sri Aurobindo Marg, Delhi - DPCC",02-09-2025 07:00:00,28.531346,77.190156,PM2.5,2,22,8
India,Delhi,Delhi,"Vivek Vihar, Delhi - DPCC",02-09-2025 07:00:00,28.672342,77.315260,PM2.5,12,39,24
India,Delhi,Delhi,"Vivek Vihar, Delhi - DPCC",02-09-2025 07:00:00,28.672342,77.315260,NO2,24,104,44
India,Delhi,Delhi,"Vivek Vihar, Delhi - DPCC",02-09-2025 07:00:00,28.672342,77.315260,OZONE,5,23,9
India,Delhi,Delhi,"Wazirpur, Delhi - DPCC",02-09-2025 07:00:00,28.699793,77.165453,NH3,8,10,9
India,Delhi,Delhi,"Major Dhyan Chand National Stadium, Delhi - DPCC",02-09-2025 07:00:00,28.611281,77.237738,CO,16,34,21
India,Delhi,Delhi,"Mandir Marg, Delhi - DPCC",02-09-2025 07:00:00,28.636429,77.201067,PM10,NA,NA,NA
India,Delhi,Delhi,"Mundka, Delhi - DPCC",02-09-2025 07:00:00,28.684678,77.076574,SO2,6,7,6
India,Delhi,Delhi,"NSIT Dwarka, Delhi - CPCB",02-09-2025 07:00:00,28.60909,77.0325413,SO2,3,10,5
India,Delhi,Delhi,"NSIT Dwarka, Delhi - CPCB",02-09-2025 07:00:00,28.60909,77.0325413,CO,10,29,18
India,Delhi,Delhi,"ITO, Delhi - CPCB",02-09-2025 07:00:00,28.628624,77.241060,CO,13,47,17
India,Delhi,Delhi,"Jahangirpuri, Delhi - DPCC",02-09-2025 07:00:00,28.732820,77.170633,NH3,6,6,6
India,Delhi,Delhi,"Jawaharlal Nehru Stadium, Delhi - DPCC",02-09-2025 07:00:00,28.580280,77.233829,PM2.5,2,33,10
India,Delhi,Delhi,"Jawaharlal Nehru Stadium, Delhi - DPCC",02-09-2025 07:00:00,28.580280,77.233829,OZONE,9,66,23
India,Delhi,Delhi,"Lodhi Road, Delhi - IITM",02-09-2025 07:00:00,28.588333,77.221667,NO2,64,95,82
India,Haryana,Panchgaon,"Amity University, Panchgaon - IITM",02-09-2025 07:00:00,28.3153,76.9143,PM10,13,167,35
India,Haryana,Panchgaon,"Amity University, Panchgaon - IITM",02-09-2025 07:00:00,28.3153,76.9143,SO2,5,8,6
India,Himachal Pradesh,Baddi,"HIMUDA Complex Phase-1, Baddi - HPPCB",02-09-2025 07:00:00,30.943887,76.801991,PM2.5,8,43,20
India,Himachal Pradesh,Baddi,"HIMUDA Complex Phase-1, Baddi - HPPCB",02-09-2025 07:00:00,30.943887,76.801991,SO2,20,51,34
India,Jammu_and_Kashmir,Srinagar,"Rajbagh, Srinagar - JKSPCB",02-09-2025 07:00:00,34.066206,74.819820,PM10,29,36,32
India,Jharkhand,Dhanbad,"Sardar Patel Nagar, Dhanbad - JSPCB",02-09-2025 07:00:00,23.80569,86.44268,SO2,23,85,40
India,Jharkhand,Dhanbad,"Sardar Patel Nagar, Dhanbad - JSPCB",02-09-2025 07:00:00,23.80569,86.44268,OZONE,3,186,47
India,Jharkhand,Jorapokhar,"Tata Stadium, Jorapokhar - JSPCB",02-09-2025 07:00:00,23.707909,86.414670,PM10,36,112,72
India,Karnataka,Bagalkot,"Vidayagiri, Bagalkot - KSPCB",02-09-2025 07:00:00,16.172806,75.659694,PM2.5,33,34,34
India,Karnataka,Bagalkot,"Vidayagiri, Bagalkot - KSPCB",02-09-2025 07:00:00,16.172806,75.659694,NO2,9,11,9
India,Kerala,Eloor,"Udyogamandal, Eloor - Kerala PCB",02-09-2025 07:00:00,10.073232,76.302765,OZONE,10,15,11
India,Kerala,Kannur,"Thavakkara, Kannur - Kerala PCB",02-09-2025 07:00:00,11.875000,75.373200,PM10,57,62,58
India,Kerala,Kannur,"Thavakkara, Kannur - Kerala PCB",02-09-2025 07:00:00,11.875000,75.373200,OZONE,29,33,29
India,Kerala,Kollam,"Polayathode, Kollam - Kerala PCB",02-09-2025 07:00:00,8.8787,76.6073,NO2,NA,NA,NA
India,Kerala,Kollam,"Polayathode, Kollam - Kerala PCB",02-09-2025 07:00:00,8.8787,76.6073,CO,NA,NA,NA
India,Kerala,Thiruvananthapuram,"Kariavattom, Thiruvananthapuram - Kerala PCB",02-09-2025 07:00:00,8.563700,76.886500,CO,24,46,38
India,Kerala,Thiruvananthapuram,"Kariavattom, Thiruvananthapuram - Kerala PCB",02-09-2025 07:00:00,8.563700,76.886500,OZONE,36,36,36
India,Kerala,Thiruvananthapuram,"Plammoodu, Thiruvananthapuram - Kerala PCB",02-09-2025 07:00:00,8.5149093,76.9435879,PM10,1,77,23
India,Kerala,Thiruvananthapuram,"Plammoodu, Thiruvananthapuram - Kerala PCB",02-09-2025 07:00:00,8.5149093,76.9435879,OZONE,12,16,15
India,Kerala,Thrissur,"Corporation Ground, Thrissur - Kerala PCB",02-09-2025 07:00:00,10.532400,76.215900,PM2.5,50,61,55
India,Karnataka,Bagalkot,"Vidayagiri, Bagalkot - KSPCB",02-09-2025 07:00:00,16.172806,75.659694,OZONE,10,16,15
India,Karnataka,Bengaluru,"BTM Layout, Bengaluru - CPCB",02-09-2025 07:00:00,12.9135218,77.5950804,NH3,6,6,6
India,Karnataka,Bengaluru,"Hebbal, Bengaluru - KSPCB",02-09-2025 07:00:00,13.029152,77.585901,OZONE,7,8,8
India,Karnataka,Bengaluru,"Hombegowda Nagar, Bengaluru - KSPCB",02-09-2025 07:00:00,12.938539,77.590100,NO2,7,21,12
India,Karnataka,Bengaluru,"Hombegowda Nagar, Bengaluru - KSPCB",02-09-2025 07:00:00,12.938539,77.590100,SO2,4,14,9
India,Karnataka,Bengaluru,"Hombegowda Nagar, Bengaluru - KSPCB",02-09-2025 07:00:00,12.938539,77.590100,OZONE,2,17,4
India,Karnataka,Bengaluru,"Jayanagar 5th Block, Bengaluru - KSPCB",02-09-2025 07:00:00,12.920984,77.584908,PM10,NA,NA,NA
India,Karnataka,Bengaluru,"Jayanagar 5th Block, Bengaluru - KSPCB",02-09-2025 07:00:00,12.920984,77.584908,CO,NA,NA,NA
India,Karnataka,Bengaluru,"Silk Board, Bengaluru - KSPCB",02-09-2025 07:00:00,12.917348,77.622813,NO2,6,17,12
India,Karnataka,Bengaluru,"Silk Board, Bengaluru - KSPCB",02-09-2025 07:00:00,12.917348,77.622813,SO2,9,11,10
India,Karnataka,Bengaluru,"Silk Board, Bengaluru - KSPCB",02-09-2025 07:00:00,12.917348,77.622813,OZONE,20,26,20
India,Karnataka,Chamarajanagar,"Urban, Chamarajanagar - KSPCB",02-09-2025 07:00:00,11.55358,76.55521,PM2.5,19,48,30
India,Karnataka,Chamarajanagar,"Urban, Chamarajanagar - KSPCB",02-09-2025 07:00:00,11.55358,76.55521,OZONE,13,49,15
India,Karnataka,Chikkaballapur,"Chikkaballapur Rural, Chikkaballapur - KSPCB",02-09-2025 07:00:00,13.428828,77.731418,NO2,8,17,12
India,Karnataka,Chikkaballapur,"Chikkaballapur Rural, Chikkaballapur - KSPCB",02-09-2025 07:00:00,13.428828,77.731418,OZONE,18,27,20
India,Karnataka,Chikkamagaluru,"Kalyana Nagara, Chikkamagaluru - KSPCB",02-09-2025 07:00:00,13.328028,75.797056,PM10,32,78,47
India,Karnataka,Bengaluru,"Jigani, Bengaluru - KSPCB",02-09-2025 07:00:00,12.7816279,77.6299145,NH3,4,6,5
India,Karnataka,Bengaluru,"Peenya, Bengaluru - CPCB",02-09-2025 07:00:00,13.0270199,77.494094,NO2,16,24,21
India,Karnataka,Bengaluru,"RVCE-Mailasandra, Bengaluru - KSPCB",02-09-2025 07:00:00,12.921418,77.502466,NO2,24,27,25
India,Karnataka,Bengaluru,"RVCE-Mailasandra, Bengaluru - KSPCB",02-09-2025 07:00:00,12.921418,77.502466,CO,24,60,37
India,Karnataka,Bengaluru,"Sanegurava Halli, Bengaluru - KSPCB",02-09-2025 07:00:00,12.990328,77.5431385,PM10,39,40,39
India,Karnataka,Bengaluru,"Silk Board, Bengaluru - KSPCB",02-09-2025 07:00:00,12.917348,77.622813,PM2.5,11,30,21
India,Karnataka,Bengaluru,"Silk Board, Bengaluru - KSPCB",02-09-2025 07:00:00,12.917348,77.622813,PM10,14,39,27
India,Karnataka,Tumakuru,"Thimmalapura, Tumakuru - KSPCB",02-09-2025 07:00:00,13.377516,77.099072,PM2.5,NA,NA,NA
India,Karnataka,Tumakuru,"Thimmalapura, Tumakuru - KSPCB",02-09-2025 07:00:00,13.377516,77.099072,PM10,NA,NA,NA
India,Karnataka,Tumakuru,"Thimmalapura, Tumakuru - KSPCB",02-09-2025 07:00:00,13.377516,77.099072,CO,19,42,31
India,Karnataka,Vijayapura,"Ibrahimpur, Vijayapura - KSPCB",02-09-2025 07:00:00,16.802639,75.722694,CO,12,121,31
India,Karnataka,Yadgir,"Collector Office, Yadgir - KSPCB",02-09-2025 07:00:00,16.7602,77.1428,SO2,3,37,20
India,Karnataka,Yadgir,"Collector Office, Yadgir - KSPCB",02-09-2025 07:00:00,16.7602,77.1428,CO,64,111,110
India,Kerala,Eloor,"Udyogamandal, Eloor - Kerala PCB",02-09-2025 07:00:00,10.073232,76.302765,NO2,7,8,8
India,Karnataka,Koppal,"Diwator Nagar, Koppal - KSPCB",02-09-2025 07:00:00,15.347630,76.181767,NH3,7,8,7
India,Karnataka,Koppal,"Diwator Nagar, Koppal - KSPCB",02-09-2025 07:00:00,15.347630,76.181767,CO,20,22,21
India,Karnataka,Madikeri,"Stuart Hill, Madikeri - KSPCB",02-09-2025 07:00:00,12.415911,75.735050,PM10,14,35,23
India,Karnataka,Madikeri,"Stuart Hill, Madikeri - KSPCB",02-09-2025 07:00:00,12.415911,75.735050,OZONE,4,5,5
India,Karnataka,Mangalore,"Kadri, Mangalore - KSPCB",02-09-2025 07:00:00,12.889250,74.853000,SO2,6,7,7
India,Karnataka,Mysuru,"Hebbal 1st Stage, Mysuru - KSPCB",02-09-2025 07:00:00,12.21041,76.37376,NH3,3,7,5
India,Karnataka,Mysuru,"Hebbal 1st Stage, Mysuru - KSPCB",02-09-2025 07:00:00,12.21041,76.37376,SO2,1,36,11
India,Madhya Pradesh,Bhopal,"Idgah Hills, Bhopal - MPPCB",02-09-2025 07:00:00,23.264759,77.381568,NO2,8,30,18
India,Madhya Pradesh,Bhopal,"Idgah Hills, Bhopal - MPPCB",02-09-2025 07:00:00,23.264759,77.381568,CO,12,62,18
India,Madhya Pradesh,Bhopal,"Paryavaran Parisar, Bhopal - MPPCB",02-09-2025 07:00:00,23.210494,77.425409,PM2.5,13,37,25
India,Madhya Pradesh,Bhopal,"Paryavaran Parisar, Bhopal - MPPCB",02-09-2025 07:00:00,23.210494,77.425409,SO2,12,22,15
India,Madhya Pradesh,Damoh,"Shrivastav Colony, Damoh - MPPCB",02-09-2025 07:00:00,23.81748678,79.446246,PM10,8,28,15
India,Madhya Pradesh,Dewas,"Bhopal Chauraha, Dewas - MPPCB",02-09-2025 07:00:00,22.9682591,76.064118,NH3,2,9,4
India,Karnataka,Haveri,"Ashwini Nagar, Haveri - KSPCB",02-09-2025 07:00:00,14.791800,75.389600,PM10,36,55,43
India,Karnataka,Haveri,"Ashwini Nagar, Haveri - KSPCB",02-09-2025 07:00:00,14.791800,75.389600,SO2,44,67,57
India,Karnataka,Haveri,"Ashwini Nagar, Haveri - KSPCB",02-09-2025 07:00:00,14.791800,75.389600,CO,24,26,25
India,Karnataka,Kalaburagi,"Mahatma Basaveswar Colony, Kalaburgi - KSPCB",02-09-2025 07:00:00,17.336318,76.847397,NH3,2,4,2
India,Karnataka,Karwar,"KHB Colony, Karwar - KSPCB",02-09-2025 07:00:00,14.816666,74.141003,PM10,1,14,7
India,Karnataka,Karwar,"KHB Colony, Karwar - KSPCB",02-09-2025 07:00:00,14.816666,74.141003,SO2,20,20,20
India,Karnataka,Karwar,"KHB Colony, Karwar - KSPCB",02-09-2025 07:00:00,14.816666,74.141003,CO,8,8,8
India,Maharashtra,Jalna,"Old MIDC, Jalna - MPCB",02-09-2025 07:00:00,19.854616,75.905894,SO2,1,2,2
India,Maharashtra,Jalna,"Old MIDC, Jalna - MPCB",02-09-2025 07:00:00,19.854616,75.905894,CO,4,13,6
India,Maharashtra,Kolhapur,"Shivaji University, Kolhapur - MPCB",02-09-2025 07:00:00,16.6870449,74.2505872,OZONE,10,21,16
India,Maharashtra,Kolhapur,"Sinchan Bhavan, Kolhapur - MPCB",02-09-2025 07:00:00,16.7143745,74.2426398,PM10,16,24,19
India,Maharashtra,Kolhapur,"Sinchan Bhavan, Kolhapur - MPCB",02-09-2025 07:00:00,16.7143745,74.2426398,NO2,2,10,5
India,Maharashtra,Latur,"Sawe Wadi, Latur - MPCB",02-09-2025 07:00:00,18.39963,76.57452,PM2.5,26,60,37
India,Maharashtra,Latur,"Sawe Wadi, Latur - MPCB",02-09-2025 07:00:00,18.39963,76.57452,PM10,29,67,41
India,Maharashtra,Latur,"Sawe Wadi, Latur - MPCB",02-09-2025 07:00:00,18.39963,76.57452,NH3,2,11,4
India,Maharashtra,Mahad,"Kamble Tarf Birwadi, Mahad - MPCB",02-09-2025 07:00:00,18.1023399,73.4783687,PM2.5,10,30,19
India,Madhya Pradesh,Jabalpur,"Gupteshwar, Jabalpur - JMC",02-09-2025 07:00:00,23.142888,79.916147,PM10,7,14,9
India,Madhya Pradesh,Jabalpur,"Gupteshwar, Jabalpur - JMC",02-09-2025 07:00:00,23.142888,79.916147,OZONE,6,12,6
India,Madhya Pradesh,Jabalpur,"Suhagi, Jabalpur - JMC",02-09-2025 07:00:00,23.218135,79.957770,SO2,4,9,6
India,Madhya Pradesh,Jabalpur,"Suhagi, Jabalpur - JMC",02-09-2025 07:00:00,23.218135,79.957770,CO,12,98,16
India,Madhya Pradesh,Katni,"Gole Bazar, Katni - MPPCB",02-09-2025 07:00:00,23.50016,80.23284,NH3,3,3,3
India,Madhya Pradesh,Katni,"Gole Bazar, Katni - MPPCB",02-09-2025 07:00:00,23.50016,80.23284,OZONE,15,34,21
India,Madhya Pradesh,Pithampur,"Sector-2 Industrial Area, Pithampur - MPPCB",02-09-2025 07:00:00,22.624758,75.675238,CO,15,20,18
India,Madhya Pradesh,Pithampur,"Sector-2 Industrial Area, Pithampur - MPPCB",02-09-2025 07:00:00,22.624758,75.675238,OZONE,11,20,17
India,Maharashtra,Akola,"Ramdaspeth, Akola - MPCB",02-09-2025 07:00:00,20.719516,77.000253,CO,9,22,11
India,Maharashtra,Akola,"Ramdaspeth, Akola - MPCB",02-09-2025 07:00:00,20.719516,77.000253,OZONE,6,27,7
India,Maharashtra,Amravati,"Shri Shivaji Science College, Amravati - MPCB",02-09-2025 07:00:00,20.939198,77.765701,CO,28,35,31
India,Maharashtra,Aurangabad,"MIDC Chilkalthana, Aurangabad - MPCB",02-09-2025 07:00:00,19.875620,75.387310,PM2.5,16,58,25
India,Maharashtra,Aurangabad,"MIDC Chilkalthana, Aurangabad - MPCB",02-09-2025 07:00:00,19.875620,75.387310,NO2,8,30,22
India,Maharashtra,Aurangabad,"MIDC Chilkalthana, Aurangabad - MPCB",02-09-2025 07:00:00,19.875620,75.387310,NH3,1,3,2
India,Maharashtra,Aurangabad,"More Chowk Waluj, Aurangabad - MPCB",02-09-2025 07:00:00,19.8389439,75.244448,CO,1,100,19
India,Maharashtra,Chandrapur,"Chauhan Colony, Chandrapur - MPCB",02-09-2025 07:00:00,19.962900,79.298714,PM2.5,NA,NA,NA
India,Maharashtra,Chandrapur,"Chauhan Colony, Chandrapur - MPCB",02-09-2025 07:00:00,19.962900,79.298714,NO2,NA,NA,NA
India,Maharashtra,Chandrapur,"MIDC Khutala, Chandrapur - MPCB",02-09-2025 07:00:00,19.9775302,79.2337086,PM10,5,57,23
India,Maharashtra,Dhule,"Deopur, Dhule - MPCB",02-09-2025 07:00:00,20.918946,74.776388,NO2,NA,NA,NA
India,Maharashtra,Dhule,"Deopur, Dhule - MPCB",02-09-2025 07:00:00,20.918946,74.776388,NH3,NA,NA,NA
India,Maharashtra,Dhule,"Deopur, Dhule - MPCB",02-09-2025 07:00:00,20.918946,74.776388,SO2,NA,NA,NA
India,Maharashtra,Jalgaon,"Prabhat Colony, Jalgaon - MPCB",02-09-2025 07:00:00,21.001264,75.565602,PM2.5,12,90,34
India,Madhya Pradesh,Indore,"Maguda Nagar, Indore - IMC",02-09-2025 07:00:00,22.7524,75.8872,NH3,NA,NA,NA
India,Madhya Pradesh,Indore,"Maguda Nagar, Indore - IMC",02-09-2025 07:00:00,22.7524,75.8872,SO2,35,37,36
India,Madhya Pradesh,Indore,"Regional Park, Indore - IMC",02-09-2025 07:00:00,22.6780,75.8559,SO2,44,54,51
India,Madhya Pradesh,Indore,"Residency Area, Indore - IMC",02-09-2025 07:00:00,22.7084,75.8815,SO2,32,37,34
India,Madhya Pradesh,Jabalpur,"Govindh Bhavan Colony, Jabalpur - JMC",02-09-2025 07:00:00,23.163174,79.973061,PM2.5,12,32,21
India,Madhya Pradesh,Jabalpur,"Govindh Bhavan Colony, Jabalpur - JMC",02-09-2025 07:00:00,23.163174,79.973061,PM10,18,42,26
India,Madhya Pradesh,Satna,"Bandhavgar Colony, Satna - Birla Cement",02-09-2025 07:00:00,24.58434363,80.8549414,PM10,58,60,59
India,Madhya Pradesh,Satna,"Bandhavgar Colony, Satna - Birla Cement",02-09-2025 07:00:00,24.58434363,80.8549414,SO2,18,23,20
India,Madhya Pradesh,Satna,"Bandhavgar Colony, Satna - Birla Cement",02-09-2025 07:00:00,24.58434363,80.8549414,CO,16,36,18
India,Maharashtra,Ahmednagar,"Tarakpur, Ahmednagar - MPCB",02-09-2025 07:00:00,19.10122,74.73339,NO2,17,27,22
India,Maharashtra,Ahmednagar,"Tarakpur, Ahmednagar - MPCB",02-09-2025 07:00:00,19.10122,74.73339,SO2,NA,NA,NA
India,Maharashtra,Ahmednagar,"Tarakpur, Ahmednagar - MPCB",02-09-2025 07:00:00,19.10122,74.73339,CO,4,34,11
India,Maharashtra,Mira-Bhayandar,"Bhayandar West, Mira-Bhayandar - MPCB",02-09-2025 07:00:00,19.296481,72.840923,PM2.5,11,35,21
India,Maharashtra,Mira-Bhayandar,"Bhayandar West, Mira-Bhayandar - MPCB",02-09-2025 07:00:00,19.296481,72.840923,CO,26,30,29
India,Maharashtra,Mumbai,"Bandra Kurla Complex, Mumbai - IITM",02-09-2025 07:00:00,19.053536,72.84643,OZONE,2,6,4
India,Maharashtra,Mumbai,"Bandra Kurla Complex, Mumbai - MPCB",02-09-2025 07:00:00,19.065931,72.862131,SO2,1,4,3
India,Madhya Pradesh,Gwalior,"City Center, Gwalior - MPPCB",02-09-2025 07:00:00,26.203442,78.193251,NO2,7,9,7
India,Madhya Pradesh,Gwalior,"Maharaj Bada, Gwalior - MPPCB",02-09-2025 07:00:00,26.200388,78.147714,SO2,3,10,7
India,Madhya Pradesh,Indore,"Airport Area, Indore - IMC",02-09-2025 07:00:00,22.7289,75.8076,PM2.5,6,32,16
India,Maharashtra,Badlapur,"Katrap, Badlapur - MPCB",02-09-2025 07:00:00,19.16485,73.23409,CO,NA,NA,NA
India,Maharashtra,Badlapur,"Katrap, Badlapur - MPCB",02-09-2025 07:00:00,19.16485,73.23409,OZONE,NA,NA,NA
India,Maharashtra,Bhiwandi,"Gokul Nagar, Bhiwandi - MPCB",02-09-2025 07:00:00,19.309073,73.057223,SO2,8,19,12
India,Maharashtra,Bhiwandi,"Gokul Nagar, Bhiwandi - MPCB",02-09-2025 07:00:00,19.309073,73.057223,OZONE,13,41,16
India,Maharashtra,Mumbai,"Malad West, Mumbai - IITM",02-09-2025 07:00:00,19.19709,72.82204,SO2,5,9,9
India,Maharashtra,Mumbai,"Mazgaon, Mumbai - IITM",02-09-2025 07:00:00,18.96702,72.84214,PM2.5,7,28,16
India,Maharashtra,Mumbai,"Mazgaon, Mumbai - IITM",02-09-2025 07:00:00,18.96702,72.84214,NO2,13,34,21
India,Maharashtra,Mumbai,"Mazgaon, Mumbai - IITM",02-09-2025 07:00:00,18.96702,72.84214,CO,18,52,33
India,Maharashtra,Mumbai,"Mindspace-Malad West, Mumbai - MPCB",02-09-2025 07:00:00,19.1878657,72.8304069,NO2,15,16,15
India,Maharashtra,Mumbai,"Mindspace-Malad West, Mumbai - MPCB",02-09-2025 07:00:00,19.1878657,72.8304069,SO2,6,7,6
India,Maharashtra,Mumbai,"Mindspace-Malad West, Mumbai - MPCB",02-09-2025 07:00:00,19.1878657,72.8304069,CO,30,30,30
India,Maharashtra,Mumbai,"Mindspace-Malad West, Mumbai - MPCB",02-09-2025 07:00:00,19.1878657,72.8304069,OZONE,29,31,30
India,Maharashtra,Mumbai,"Mulund West, Mumbai - MPCB",02-09-2025 07:00:00,19.1750,72.9419,PM10,30,56,44
India,Maharashtra,Mumbai,"Mulund West, Mumbai - MPCB",02-09-2025 07:00:00,19.1750,72.9419,NH3,4,4,4
India,Maharashtra,Mumbai,"Navy Nagar-Colaba, Mumbai - IITM",02-09-2025 07:00:00,18.897756,72.813320,PM10,NA,NA,NA
India,Maharashtra,Mumbai,"Navy Nagar-Colaba, Mumbai - IITM",02-09-2025 07:00:00,18.897756,72.813320,OZONE,NA,NA,NA
India,Maharashtra,Nashik,"Pandav Nagari, Nashik - MPCB",02-09-2025 07:00:00,19.9591346,73.7788008,PM2.5,8,22,15
India,Maharashtra,Nashik,"Pandav Nagari, Nashik - MPCB",02-09-2025 07:00:00,19.9591346,73.7788008,NO2,2,7,4
India,Maharashtra,Nashik,"Pandav Nagari, Nashik - MPCB",02-09-2025 07:00:00,19.9591346,73.7788008,SO2,1,7,3
India,Maharashtra,Navi Mumbai,"Kopripada-Vashi, Navi Mumbai - MPCB",02-09-2025 07:00:00,19.090337,73.014232,PM2.5,6,24,14
India,Maharashtra,Navi Mumbai,"Mahape, Navi Mumbai - MPCB",02-09-2025 07:00:00,19.1135051,73.008978,PM2.5,7,12,10
India,Maharashtra,Navi Mumbai,"Mahape, Navi Mumbai - MPCB",02-09-2025 07:00:00,19.1135051,73.008978,OZONE,8,10,10
India,Maharashtra,Navi Mumbai,"Nerul, Navi Mumbai - MPCB",02-09-2025 07:00:00,19.008751,73.016620,PM2.5,17,36,26
India,Maharashtra,Navi Mumbai,"Nerul, Navi Mumbai - MPCB",02-09-2025 07:00:00,19.008751,73.016620,PM10,NA,NA,NA
India,Maharashtra,Navi Mumbai,"Nerul, Navi Mumbai - MPCB",02-09-2025 07:00:00,19.008751,73.016620,NO2,27,27,27
India,Maharashtra,Mumbai,"Chhatrapati Shivaji Intl. Airport (T2), Mumbai - MPCB",02-09-2025 07:00:00,19.10078,72.87462,PM10,59,68,64
India,Maharashtra,Mumbai,"Chhatrapati Shivaji Intl. Airport (T2), Mumbai - MPCB",02-09-2025 07:00:00,19.10078,72.87462,NH3,1,1,1
India,Maharashtra,Mumbai,"Chhatrapati Shivaji Intl. Airport (T2), Mumbai - MPCB",02-09-2025 07:00:00,19.10078,72.87462,OZONE,7,8,7
India,Maharashtra,Mumbai,"Colaba, Mumbai - MPCB",02-09-2025 07:00:00,18.910000,72.820000,PM10,NA,NA,NA
India,Maharashtra,Mumbai,"Colaba, Mumbai - MPCB",02-09-2025 07:00:00,18.910000,72.820000,CO,22,22,22
India,Maharashtra,Mumbai,"Ghatkopar, Mumbai - BMC",02-09-2025 07:00:00,19.083694,72.920967,NO2,10,19,14
India,Maharashtra,Mumbai,"Ghatkopar, Mumbai - BMC",02-09-2025 07:00:00,19.083694,72.920967,CO,8,18,11
India,Maharashtra,Mumbai,"Kandivali East, Mumbai - MPCB",02-09-2025 07:00:00,19.205800,72.868200,PM2.5,30,30,30
India,Maharashtra,Navi Mumbai,"Sector-2E Kalamboli, Navi Mumbai - MPCB",02-09-2025 07:00:00,19.02579,73.10297,PM2.5,NA,NA,NA
India,Maharashtra,Navi Mumbai,"Sector-2E Kalamboli, Navi Mumbai - MPCB",02-09-2025 07:00:00,19.02579,73.10297,PM10,NA,NA,NA
India,Maharashtra,Navi Mumbai,"Sector-2E Kalamboli, Navi Mumbai - MPCB",02-09-2025 07:00:00,19.02579,73.10297,CO,12,18,14
India,Maharashtra,Parbhani,"Masoom Colony, Parbhani - MPCB",02-09-2025 07:00:00,19.265594,76.761463,PM10,33,44,38
India,Maharashtra,Pimpri-Chinchwad,"Gavalinagar, Pimpri Chinchwad - MPCB",02-09-2025 07:00:00,18.63673,73.82487,PM10,45,69,58
India,Maharashtra,Pimpri-Chinchwad,"Gavalinagar, Pimpri Chinchwad - MPCB",02-09-2025 07:00:00,18.63673,73.82487,NO2,14,28,21
India,Maharashtra,Pimpri-Chinchwad,"Gavalinagar, Pimpri Chinchwad - MPCB",02-09-2025 07:00:00,18.63673,73.82487,SO2,2,3,2
India,Maharashtra,Pimpri-Chinchwad,"Gavalinagar, Pimpri Chinchwad - MPCB",02-09-2025 07:00:00,18.63673,73.82487,CO,3,18,6
India,Maharashtra,Mumbai,"Borivali East, Mumbai - IITM",02-09-2025 07:00:00,19.23241,72.86895,PM10,62,113,89
India,Maharashtra,Mumbai,"Borivali East, Mumbai - MPCB",02-09-2025 07:00:00,19.2243333,72.8658113,NH3,1,1,1
India,Maharashtra,Mumbai,"Borivali East, Mumbai - MPCB",02-09-2025 07:00:00,19.2243333,72.8658113,OZONE,9,11,10
India,Maharashtra,Mumbai,"Byculla, Mumbai - BMC",02-09-2025 07:00:00,18.9767,72.8380,SO2,2,3,2
India,Maharashtra,Mumbai,"Byculla, Mumbai - BMC",02-09-2025 07:00:00,18.9767,72.8380,CO,10,22,13
India,Maharashtra,Mumbai,"Chakala-Andheri East, Mumbai - IITM",02-09-2025 07:00:00,19.11074,72.86084,SO2,1,16,8
India,Maharashtra,Mumbai,"Chembur, Mumbai - MPCB",02-09-2025 07:00:00,19.0364585,72.8954371,NO2,NA,NA,NA
India,Maharashtra,Nagpur,"Opp GPO Civil Lines, Nagpur - MPCB",02-09-2025 07:00:00,21.152875,79.0517531,CO,12,32,17
India,Maharashtra,Nagpur,"Ram Nagar, Nagpur - MPCB",02-09-2025 07:00:00,21.143383,79.048912,CO,10,26,13
India,Maharashtra,Nanded,"Sneh Nagar, Nanded - MPCB",02-09-2025 07:00:00,19.173852,77.296291,CO,12,62,41
India,Maharashtra,Nashik,"Gangapur Road, Nashik - MPCB",02-09-2025 07:00:00,20.0073285,73.7762427,PM2.5,17,36,25
India,Maharashtra,Nashik,"Gangapur Road, Nashik - MPCB",02-09-2025 07:00:00,20.0073285,73.7762427,NO2,5,5,5
India,Maharashtra,Nashik,"Hirawadi, Nashik - MPCB",02-09-2025 07:00:00,20.021503,73.813844,NH3,1,2,2
India,Maharashtra,Mumbai,"Sewri, Mumbai - BMC",02-09-2025 07:00:00,19.000084,72.856730,OZONE,3,8,8
India,Maharashtra,Mumbai,"Siddharth Nagar-Worli, Mumbai - IITM",02-09-2025 07:00:00,19.000083,72.813993,CO,41,66,58
India,Maharashtra,Mumbai,"Worli, Mumbai - MPCB",02-09-2025 07:00:00,18.9936162,72.8128113,PM10,61,81,68
India,Maharashtra,Mumbai,"Worli, Mumbai - MPCB",02-09-2025 07:00:00,18.9936162,72.8128113,CO,14,36,23
India,Maharashtra,Nagpur,"Mahal, Nagpur - MPCB",02-09-2025 07:00:00,21.14472,79.107595,PM2.5,12,63,30
India,Maharashtra,Nagpur,"Mahal, Nagpur - MPCB",02-09-2025 07:00:00,21.14472,79.107595,PM10,16,84,39
India,Maharashtra,Pimpri-Chinchwad,"Park Street Wakad, Pimpri Chinchwad - MPCB",02-09-2025 07:00:00,18.59051,73.77946,NO2,6,14,9
India,Maharashtra,Pimpri-Chinchwad,"Park Street Wakad, Pimpri Chinchwad - MPCB",02-09-2025 07:00:00,18.59051,73.77946,SO2,2,4,3
India,Maharashtra,Pimpri-Chinchwad,"Savta Mali Nagar, Pimpri-Chinchwad - IITM",02-09-2025 07:00:00,18.614767,73.799516,PM2.5,5,43,18
India,Maharashtra,Pimpri-Chinchwad,"Thergaon, Pimpri Chinchwad - MPCB",02-09-2025 07:00:00,18.616318,73.765797,SO2,1,5,2
India,Maharashtra,Pune,"Bhumkar Nagar, Pune - IITM",02-09-2025 07:00:00,18.605770,73.749976,PM2.5,9,37,16
India,Maharashtra,Mumbai,"Kandivali West, Mumbai - BMC",02-09-2025 07:00:00,19.215859,72.831718,PM2.5,6,17,10
India,Maharashtra,Mumbai,"Kherwadi_Bandra East, Mumbai - MPCB",02-09-2025 07:00:00,19.0632143,72.8456324,PM2.5,8,36,20
India,Maharashtra,Mumbai,"Kherwadi_Bandra East, Mumbai - MPCB",02-09-2025 07:00:00,19.0632143,72.8456324,NH3,1,2,2
India,Maharashtra,Mumbai,"Kurla, Mumbai - MPCB",02-09-2025 07:00:00,19.0863,72.8888,OZONE,28,29,28
India,Odisha,Suakati,"OMC Colony, Suakati - OSPCB",02-09-2025 07:00:00,21.606865,85.510538,CO,14,30,25
India,Odisha,Tensa,"Barsua Iron Ore Mines, Tensa - OSPCB",02-09-2025 07:00:00,21.869985,85.167016,NH3,8,10,8
India,Odisha,Tensa,"Barsua Iron Ore Mines, Tensa - OSPCB",02-09-2025 07:00:00,21.869985,85.167016,SO2,1,45,19
India,Odisha,Tensa,"Barsua Iron Ore Mines, Tensa - OSPCB",02-09-2025 07:00:00,21.869985,85.167016,CO,28,44,35
India,Punjab,Amritsar,"Golden Temple, Amritsar - PPCB",02-09-2025 07:00:00,31.620000,74.876512,PM2.5,39,58,52
India,Punjab,Amritsar,"Golden Temple, Amritsar - PPCB",02-09-2025 07:00:00,31.620000,74.876512,NO2,3,107,42
India,Punjab,Jalandhar,"Civil Line, Jalandhar - PPCB",02-09-2025 07:00:00,31.321907,75.578914,PM10,42,49,44
India,Punjab,Jalandhar,"Civil Line, Jalandhar - PPCB",02-09-2025 07:00:00,31.321907,75.578914,NH3,1,1,1
India,Punjab,Jalandhar,"Civil Line, Jalandhar - PPCB",02-09-2025 07:00:00,31.321907,75.578914,SO2,13,13,13
India,Punjab,Khanna,"Kalal Majra, Khanna - PPCB",02-09-2025 07:00:00,30.736056 ,76.209694,NH3,7,7,7
India,Maharashtra,Pune,"Dhankawadi, Pune - IITM",02-09-2025 07:00:00,18.459883,73.852193,NO2,NA,NA,NA
India,Maharashtra,Pune,"Katraj Dairy, Pune - MPCB",02-09-2025 07:00:00,18.454450,73.854155,PM10,16,42,30
India,Maharashtra,Pune,"Mhada Colony, Pune - IITM",02-09-2025 07:00:00,18.573040,73.927715,CO,48,98,62
India,Maharashtra,Pune,"Panchawati_Pashan, Pune - IITM",02-09-2025 07:00:00,18.536457,73.805454,PM2.5,25,42,32
India,Maharashtra,Pune,"Panchawati_Pashan, Pune - IITM",02-09-2025 07:00:00,18.536457,73.805454,PM10,30,56,40
India,Maharashtra,Pune,"Panchawati_Pashan, Pune - IITM",02-09-2025 07:00:00,18.536457,73.805454,OZONE,5,15,9
India,Maharashtra,Pune,"Savitribai Phule Pune University, Pune - MPCB",02-09-2025 07:00:00,18.547056,73.826908,NO2,13,210,64
India,Maharashtra,Sangli,"Vijay Nagar, Sangli - MPCB",02-09-2025 07:00:00, 16.5038,74.3623,NO2,1,12,4
India,Rajasthan,Ajmer,"Civil Lines,  Ajmer - RSPCB",02-09-2025 07:00:00,26.470859,74.646594,OZONE,8,39,14
India,Rajasthan,Banswara,"Rati Talai, Banswara - RSPCB",02-09-2025 07:00:00,23.555190,74.440010,NH3,2,4,2
India,Rajasthan,Banswara,"Rati Talai, Banswara - RSPCB",02-09-2025 07:00:00,23.555190,74.440010,OZONE,5,63,20
India,Rajasthan,Baran,"Bamboliya, Baran - RSPCB",02-09-2025 07:00:00,25.106006,76.469948,NO2,5,16,8
India,Rajasthan,Barmer,"Railway Colony, Barmer - RSPCB",02-09-2025 07:00:00,25.747299,71.393989,PM10,83,127,103
India,Rajasthan,Barmer,"Railway Colony, Barmer - RSPCB",02-09-2025 07:00:00,25.747299,71.393989,SO2,3,5,4
India,Rajasthan,Bharatpur,"Krishna Nagar, Bharatpur - RSPCB",02-09-2025 07:00:00,27.215415,77.50873,PM10,3,19,11
India,Rajasthan,Bharatpur,"Krishna Nagar, Bharatpur - RSPCB",02-09-2025 07:00:00,27.215415,77.50873,NH3,3,10,5
India,Punjab,Ludhiana,"Punjab Agricultural University, Ludhiana - PPCB",02-09-2025 07:00:00,30.9028,75.8086,CO,26,55,33
India,Punjab,Patiala,"Model Town, Patiala - PPCB",02-09-2025 07:00:00,30.349388,76.366642,NO2,18,22,20
India,Punjab,Patiala,"Model Town, Patiala - PPCB",02-09-2025 07:00:00,30.349388,76.366642,NH3,5,6,5
India,Punjab,Rupnagar,"Ratanpura, Rupnagar - Ambuja Cements",02-09-2025 07:00:00,31.0325454,76.5623046,PM10,6,41,18
India,Punjab,Rupnagar,"Ratanpura, Rupnagar - Ambuja Cements",02-09-2025 07:00:00,31.0325454,76.5623046,SO2,5,12,9
India,Rajasthan,Ajmer,"Civil Lines,  Ajmer - RSPCB",02-09-2025 07:00:00,26.470859,74.646594,PM10,30,105,73
India,Rajasthan,Ajmer,"Civil Lines,  Ajmer - RSPCB",02-09-2025 07:00:00,26.470859,74.646594,CO,2,54,10
India,Maharashtra,Sangli,"Vijay Nagar, Sangli - MPCB",02-09-2025 07:00:00, 16.5038,74.3623,NH3,1,2,2
India,Maharashtra,Sangli,"Vijay Nagar, Sangli - MPCB",02-09-2025 07:00:00, 16.5038,74.3623,CO,14,16,14
India,Maharashtra,Solapur,"Dnyaneshwar Nagar, Solapur - MPCB",02-09-2025 07:00:00,17.6336264,75.9132495,NO2,3,13,6
India,Maharashtra,Solapur,"Dnyaneshwar Nagar, Solapur - MPCB",02-09-2025 07:00:00,17.6336264,75.9132495,NH3,6,19,9
India,Maharashtra,Solapur,"Ratandeep Housing Society, Solapur - MPCB",02-09-2025 07:00:00,17.65439,75.90649,PM2.5,8,39,20
India,Maharashtra,Solapur,"Ratandeep Housing Society, Solapur - MPCB",02-09-2025 07:00:00,17.65439,75.90649,NH3,2,6,3
India,Maharashtra,Thane,"Upvan Fort, Thane - MPCB",02-09-2025 07:00:00,19.222279,72.957979,PM10,39,54,46
India,Maharashtra,Thane,"Upvan Fort, Thane - MPCB",02-09-2025 07:00:00,19.222279,72.957979,SO2,1,6,3
India,Odisha,Brajrajnagar,"GM Office, Brajrajnagar - OSPCB",02-09-2025 07:00:00,21.8004996,83.8396977,SO2,16,17,16
India,Odisha,Byasanagar,"Ferro Chrome Colony, Byasanagar - OSPCB",02-09-2025 07:00:00,20.94185,86.11510,NO2,17,22,20
India,Odisha,Cuttack,"CDA Area, Cuttack - OSPCB",02-09-2025 07:00:00,20.48891     ,85.84768     ,PM10,10,68,31
India,Odisha,Keonjhar,"Jagamohanpur, Keonjhar - OSPCB",02-09-2025 07:00:00,21.643900,85.599355,PM2.5,16,28,21
India,Odisha,Keonjhar,"Jagamohanpur, Keonjhar - OSPCB",02-09-2025 07:00:00,21.643900,85.599355,SO2,17,20,17
India,Odisha,Nayagarh,"Dabuna, Nayagarh - OSPCB",02-09-2025 07:00:00,21.847279,85.416905,PM10,25,123,64
India,Odisha,Barbil,"Forest Office, Barbil - OSPCB",02-09-2025 07:00:00,22.1166054,85.3945546,OZONE,2,25,5
India,Odisha,Bhubaneswar,"Lingraj Mandir, Bhubaneswar - OSPCB",02-09-2025 07:00:00,20.240790,85.836784,NO2,6,25,13
India,Odisha,Bileipada,"Tata Township, Bileipada - OSPCB",02-09-2025 07:00:00,22.06156703,85.47409613,OZONE,NA,NA,NA
India,Odisha,Brajrajnagar,"GM Office, Brajrajnagar - OSPCB",02-09-2025 07:00:00,21.8004996,83.8396977,PM2.5,13,132,33
India,Maharashtra,Ulhasnagar,"Sidhi Vinayak Nagar, Ulhasnagar - MPCB",02-09-2025 07:00:00,19.235581,73.159121,OZONE,14,40,16
India,Odisha,Balasore,"Kalidaspur, Balasore - OSPCB",02-09-2025 07:00:00,21.51161,86.89088,SO2,4,6,6
India,Odisha,Barbil,"Forest Office, Barbil - OSPCB",02-09-2025 07:00:00,22.1166054,85.3945546,PM2.5,5,77,33
India,Odisha,Barbil,"Forest Office, Barbil - OSPCB",02-09-2025 07:00:00,22.1166054,85.3945546,SO2,5,18,10
India,Odisha,Rourkela,"Fertilizer Township, Rourkela - OSPCB",02-09-2025 07:00:00,22.18972222,84.86277778,SO2,NA,NA,NA
India,Odisha,Rourkela,"Raghunathpali, Rourkela - OSPCB",02-09-2025 07:00:00,22.220833,84.809444,PM2.5,12,39,26
India,Odisha,Suakati,"OMC Colony, Suakati - OSPCB",02-09-2025 07:00:00,21.606865,85.510538,SO2,18,21,19
India,Rajasthan,Hanumangarh,"Housing Board, Hanumangarh - RSPCB",02-09-2025 07:00:00,29.610750,74.283608,PM2.5,3,52,25
India,Rajasthan,Hanumangarh,"Housing Board, Hanumangarh - RSPCB",02-09-2025 07:00:00,29.610750,74.283608,PM10,3,59,26
India,Rajasthan,Hanumangarh,"Housing Board, Hanumangarh - RSPCB",02-09-2025 07:00:00,29.610750,74.283608,SO2,3,4,4
India,Rajasthan,Hanumangarh,"Housing Board, Hanumangarh - RSPCB",02-09-2025 07:00:00,29.610750,74.283608,CO,9,26,13
India,Rajasthan,Jaipur,"Adarsh Nagar, Jaipur - RSPCB",02-09-2025 07:00:00,26.902909,75.836858,SO2,14,30,23
India,Rajasthan,Jaipur,"Mansarovar Sector-12, Jaipur - RSPCB",02-09-2025 07:00:00,26.843698,75.766894,NH3,7,9,8
India,Rajasthan,Jaipur,"Mansarovar Sector-12, Jaipur - RSPCB",02-09-2025 07:00:00,26.843698,75.766894,OZONE,22,97,32
India,Rajasthan,Jaipur,"Police Commissionerate, Jaipur - RSPCB",02-09-2025 07:00:00,26.9164092,75.7994901,PM2.5,9,37,17
India,Rajasthan,Jaipur,"Police Commissionerate, Jaipur - RSPCB",02-09-2025 07:00:00,26.9164092,75.7994901,PM10,8,57,31
India,Rajasthan,Jaipur,"Police Commissionerate, Jaipur - RSPCB",02-09-2025 07:00:00,26.9164092,75.7994901,NH3,6,12,9
India,Rajasthan,Jodhpur,"Jhalamand, Jodhpur - RSPCB",02-09-2025 07:00:00,26.215415,73.070156,NH3,3,5,4
India,Rajasthan,Jodhpur,"Mandor, Jodhpur - RSPCB",02-09-2025 07:00:00,26.358805,73.047444,PM2.5,8,75,46
India,Rajasthan,Jodhpur,"Mandor, Jodhpur - RSPCB",02-09-2025 07:00:00,26.358805,73.047444,CO,11,22,20
India,Rajasthan,Jodhpur,"Samrat Ashok Udhyan, Jodhpur - RSPCB",02-09-2025 07:00:00,26.253384,72.976571,NO2,1,11,4
India,Rajasthan,Jodhpur,"Samrat Ashok Udhyan, Jodhpur - RSPCB",02-09-2025 07:00:00,26.253384,72.976571,NH3,2,2,2
India,Rajasthan,Jodhpur,"Samrat Ashok Udhyan, Jodhpur - RSPCB",02-09-2025 07:00:00,26.253384,72.976571,CO,12,27,16
India,Rajasthan,Karauli,"Satyawati Vihar, Karauli - RSPCB",02-09-2025 07:00:00,26.506177,77.025989,SO2,6,12,9
India,Rajasthan,Karauli,"Satyawati Vihar, Karauli - RSPCB",02-09-2025 07:00:00,26.506177,77.025989,OZONE,26,49,34
India,Rajasthan,Kota,"Dhanmandi, Kota - RSPCB",02-09-2025 07:00:00,25.164090,75.858137,PM10,15,103,42
India,Rajasthan,Pratapgarh,"Pragati Nagar, Pratapgarh - RSPCB",02-09-2025 07:00:00,24.041198,74.780702,PM2.5,45,95,61
India,Rajasthan,Rajsamand,"Dhoinda, Rajsamand - RSPCB",02-09-2025 07:00:00,25.036360,73.883502,PM2.5,22,75,42
India,Rajasthan,Rajsamand,"Dhoinda, Rajsamand - RSPCB",02-09-2025 07:00:00,25.036360,73.883502,NO2,6,10,8
India,Rajasthan,Rajsamand,"Dhoinda, Rajsamand - RSPCB",02-09-2025 07:00:00,25.036360,73.883502,SO2,6,8,7
India,Rajasthan,Sawai Madhopur,"Sahu Nagar, Sawai Madhopur - RSPCB",02-09-2025 07:00:00,26.031443,76.359327,CO,10,142,22
India,Rajasthan,Sikar,"Radhakishan Pura, Sikar - RSPCB",02-09-2025 07:00:00,27.608912,75.153302,PM2.5,3,27,12
India,Rajasthan,Sikar,"Radhakishan Pura, Sikar - RSPCB",02-09-2025 07:00:00,27.608912,75.153302,PM10,10,32,18
India,Rajasthan,Sirohi,"Vedhaynath Colony, Sirohi - RSPCB",02-09-2025 07:00:00,24.885261,72.857549,PM2.5,28,47,35
India,Rajasthan,Bharatpur,"Krishna Nagar, Bharatpur - RSPCB",02-09-2025 07:00:00,27.215415,77.50873,OZONE,22,35,30
India,Rajasthan,Bhilwara,"Pratap Nagar, Bhilwara - RSPCB",02-09-2025 07:00:00,25.339605,74.618883,PM10,5,97,62
India,Rajasthan,Bhiwadi,"RIICO Ind. Area III, Bhiwadi - RSPCB",02-09-2025 07:00:00,28.194909,76.862296,NO2,6,21,11
India,Rajasthan,Bhiwadi,"Vasundhara Nagar_UIT, Bhiwadi - RSPCB",02-09-2025 07:00:00,28.207266,76.829265,PM2.5,4,43,23
India,Rajasthan,Bhiwadi,"Vasundhara Nagar_UIT, Bhiwadi - RSPCB",02-09-2025 07:00:00,28.207266,76.829265,SO2,2,15,8
India,Rajasthan,Bhiwadi,"Vasundhara Nagar_UIT, Bhiwadi - RSPCB",02-09-2025 07:00:00,28.207266,76.829265,OZONE,10,41,19
India,Rajasthan,Bikaner,"MM Ground, Bikaner - RSPCB",02-09-2025 07:00:00,28.018792,73.292658,PM2.5,5,65,24
India,Rajasthan,Jalore,"Mudtra Sili, Jalore - RSPCB",02-09-2025 07:00:00,25.344694,72.626208,NO2,1,20,8
India,Rajasthan,Jalore,"Mudtra Sili, Jalore - RSPCB",02-09-2025 07:00:00,25.344694,72.626208,NH3,2,7,4
India,Rajasthan,Jhalawar,"Rajlaxmi Nagar, Jhalawar - RSPCB",02-09-2025 07:00:00,24.588397,76.172782,SO2,6,8,7
India,Rajasthan,Jhunjhunu,"Indra Nagar, Jhunjhunu - RSPCB",02-09-2025 07:00:00,28.108988,75.386577,NH3,3,4,3
India,Rajasthan,Jodhpur,"Collectorate, Jodhpur - RSPCB",02-09-2025 07:00:00,26.268249,73.0193853,CO,8,64,19
India,Rajasthan,Jodhpur,"Digari Kalan, Jodhpur - RSPCB",02-09-2025 07:00:00,26.295810,73.082283,PM10,14,99,74
India,Rajasthan,Kota,"Dhanmandi, Kota - RSPCB",02-09-2025 07:00:00,25.164090,75.858137,NH3,1,2,2
India,Rajasthan,Kota,"Dhanmandi, Kota - RSPCB",02-09-2025 07:00:00,25.164090,75.858137,SO2,2,5,3
India,Rajasthan,Kota,"Nayapura, Kota - RSPCB",02-09-2025 07:00:00,25.196024,75.855668,OZONE,4,49,12
India,Rajasthan,Kota,"Shrinath Puram, Kota - RSPCB",02-09-2025 07:00:00,25.14389,75.821256,PM10,43,92,62
India,Rajasthan,Kota,"Shrinath Puram, Kota - RSPCB",02-09-2025 07:00:00,25.14389,75.821256,NH3,2,4,2
India,Rajasthan,Kota,"Shrinath Puram, Kota - RSPCB",02-09-2025 07:00:00,25.14389,75.821256,CO,49,104,71
India,Rajasthan,Pali,"Indira Colony Vistar, Pali - RSPCB",02-09-2025 07:00:00,25.771061, 73.340227,PM10,68,111,88
India,Rajasthan,Bundi,"New Colony, Bundi - RSPCB",02-09-2025 07:00:00,25.435774,75.644272,PM10,3,58,23
India,Rajasthan,Chittorgarh,"Shastri Nagar, Chittorgarh - RSPCB",02-09-2025 07:00:00,24.892047,74.623527,PM2.5,3,34,23
India,Rajasthan,Chittorgarh,"Shastri Nagar, Chittorgarh - RSPCB",02-09-2025 07:00:00,24.892047,74.623527,NH3,4,4,4
India,Rajasthan,Churu,"Subash Chowk, Churu - RSPCB",02-09-2025 07:00:00,28.296139,74.961696,PM10,6,26,15
India,Rajasthan,Churu,"Subash Chowk, Churu - RSPCB",02-09-2025 07:00:00,28.296139,74.961696,NH3,1,2,1
India,Rajasthan,Dausa,"Khatikan Mohalla, Dausa - RSPCB",02-09-2025 07:00:00,26.895552,76.334753,PM2.5,2,67,18
India,Rajasthan,Jaipur,"RIICO Sitapura, Jaipur - RSPCB",02-09-2025 07:00:00,26.786682,75.827928,PM2.5,8,43,20
India,Rajasthan,Jaipur,"Sector-2 Murlipura, Jaipur - RSPCB",02-09-2025 07:00:00,26.960669,75.771817,SO2,4,8,6
India,Rajasthan,Jaipur,"Sector-2 Murlipura, Jaipur - RSPCB",02-09-2025 07:00:00,26.960669,75.771817,CO,8,46,12
India,Rajasthan,Jaisalmer,"Sadar Bazar, Jaisalmer - RSPCB",02-09-2025 07:00:00,26.912329,70.909168,CO,4,16,6
India,Rajasthan,Jalore,"Mudtra Sili, Jalore - RSPCB",02-09-2025 07:00:00,25.344694,72.626208,PM2.5,17,48,31
India,TamilNadu,Gummidipoondi,"Anthoni Pillai Nagar, Gummidipoondi - TNPCB",02-09-2025 07:00:00,13.4127,80.1081,NH3,1,6,3
India,TamilNadu,Hosur,"SIPCOT Phase-1, Hosur - TNPCB",02-09-2025 07:00:00,12.746998,77.813811,NO2,1,2,2
India,TamilNadu,Hosur,"SIPCOT Phase-1, Hosur - TNPCB",02-09-2025 07:00:00,12.746998,77.813811,NH3,1,1,1
India,TamilNadu,Hosur,"SIPCOT Phase-1, Hosur - TNPCB",02-09-2025 07:00:00,12.746998,77.813811,OZONE,8,11,9
India,TamilNadu,Kanchipuram,"Kilambi, Kanchipuram - TNPCB",02-09-2025 07:00:00,12.864618,79.659968,OZONE,1,4,1
India,TamilNadu,Karur,"Kamadenu Nagar, Karur - TNPCB",02-09-2025 07:00:00,10.967820,78.080882,NO2,NA,NA,NA
India,TamilNadu,Karur,"Kamadenu Nagar, Karur - TNPCB",02-09-2025 07:00:00,10.967820,78.080882,SO2,NA,NA,NA
India,TamilNadu,Karur,"Kamadenu Nagar, Karur - TNPCB",02-09-2025 07:00:00,10.967820,78.080882,CO,8,46,8
India,TamilNadu,Madurai,"Uchapatti, Madurai - TNPCB",02-09-2025 07:00:00,9.865935,78.022669,PM2.5,15,29,22
India,TamilNadu,Madurai,"Uchapatti, Madurai - TNPCB",02-09-2025 07:00:00,9.865935,78.022669,PM10,21,38,29
India,TamilNadu,Perundurai,"SIPCOT Industrial Park, Perundurai - TNPCB",02-09-2025 07:00:00,11.258242,77.552761,PM2.5,17,44,32
India,TamilNadu,Perundurai,"SIPCOT Industrial Park, Perundurai - TNPCB",02-09-2025 07:00:00,11.258242,77.552761,CO,19,32,30
India,TamilNadu,Pudukottai,"SIPCOT Nathampannai, Pudukottai - TNPCB",02-09-2025 07:00:00,10.423417,78.784889,PM2.5,10,55,27
India,TamilNadu,Ramanathapuram,"Chalai Bazaar, Ramanathapuram - TNPCB",02-09-2025 07:00:00,9.36399,78.831977,PM2.5,16,61,33
India,TamilNadu,Ramanathapuram,"Chalai Bazaar, Ramanathapuram - TNPCB",02-09-2025 07:00:00,9.36399,78.831977,NO2,13,13,13
India,TamilNadu,Ranipet,"VOC Nagar_SIPCOT, Ranipet - TNPCB",02-09-2025 07:00:00,12.952707,79.30394,NH3,8,8,8
India,TamilNadu,Ranipet,"VOC Nagar_SIPCOT, Ranipet - TNPCB",02-09-2025 07:00:00,12.952707,79.30394,CO,18,20,20
India,TamilNadu,Salem,"Sona College of Technology, Salem - TNPCB",02-09-2025 07:00:00,11.679111,78.125052,NO2,13,14,13
India,TamilNadu,Thanjavur,"Parisutham Nagar, Thanjavur - TNPCB",02-09-2025 07:00:00,10.7654824,79.1389968,PM2.5,14,38,23
India,TamilNadu,Thanjavur,"Parisutham Nagar, Thanjavur - TNPCB",02-09-2025 07:00:00,10.7654824,79.1389968,CO,8,10,8
India,TamilNadu,Thoothukudi,"Meelavittan, Thoothukudi - TNPCB",02-09-2025 07:00:00,8.816428 ,78.099039,SO2,2,9,5
India,TamilNadu,Thoothukudi,"Meelavittan, Thoothukudi - TNPCB",02-09-2025 07:00:00,8.816428 ,78.099039,OZONE,25,54,36
India,TamilNadu,Tiruchirappalli,"St Joseph College, Tiruchirappalli - TNPCB",02-09-2025 07:00:00,10.830158,78.691849,NO2,1,5,3
India,TamilNadu,Tiruchirappalli,"St Joseph College, Tiruchirappalli - TNPCB",02-09-2025 07:00:00,10.830158,78.691849,OZONE,4,32,18
India,TamilNadu,Tirupur,"Kumaran College, Tirupur - TNPCB",02-09-2025 07:00:00,11.0973603,77.3228673,PM10,23,59,41
India,Rajasthan,Udaipur,"Ashok Nagar, Udaipur - RSPCB",02-09-2025 07:00:00,24.5886166,73.6321397,CO,5,96,13
India,Sikkim,Gangtok,"Zero Point GICI, Gangtok - SSPCB",02-09-2025 07:00:00,27.338530,88.614099,PM2.5,6,19,10
India,TamilNadu,Ariyalur,"Keelapalur, Ariyalur - TNPCB",02-09-2025 07:00:00,11.06825,79.07033,PM2.5,25,49,38
India,TamilNadu,Chengalpattu,"Crescent University, Chengalpattu - TNPCB",02-09-2025 07:00:00,12.8777316,80.0834807,CO,8,10,9
India,TamilNadu,Chennai,"Arumbakkam, Chennai - TNPCB",02-09-2025 07:00:00,13.0664,80.2112 ,SO2,2,2,2
India,Rajasthan,Sirohi,"Vedhaynath Colony, Sirohi - RSPCB",02-09-2025 07:00:00,24.885261,72.857549,NO2,2,23,6
India,Rajasthan,Sirohi,"Vedhaynath Colony, Sirohi - RSPCB",02-09-2025 07:00:00,24.885261,72.857549,OZONE,9,30,22
India,Rajasthan,Sri Ganganagar,"Old City, Sri Ganganagar - RSPCB",02-09-2025 07:00:00,29.931624,73.864511,PM2.5,2,243,55
India,Rajasthan,Sri Ganganagar,"Old City, Sri Ganganagar - RSPCB",02-09-2025 07:00:00,29.931624,73.864511,PM10,9,180,62
India,Rajasthan,Sri Ganganagar,"Old City, Sri Ganganagar - RSPCB",02-09-2025 07:00:00,29.931624,73.864511,NO2,34,59,47
India,Rajasthan,Sri Ganganagar,"Old City, Sri Ganganagar - RSPCB",02-09-2025 07:00:00,29.931624,73.864511,OZONE,11,291,23
India,Rajasthan,Udaipur,"Ashok Nagar, Udaipur - RSPCB",02-09-2025 07:00:00,24.5886166,73.6321397,PM10,36,109,82
India,TamilNadu,Coimbatore,"PSG College of Arts and Science, Coimbatore - TNPCB",02-09-2025 07:00:00,11.0328,77.0349,SO2,3,5,4
India,TamilNadu,Cuddalore,"Kudikadu, Cuddalore - TNPCB",02-09-2025 07:00:00,11.6829898,79.7532099,OZONE,5,13,7
India,TamilNadu,Cuddalore,"Semmandalam, Cuddalore - TNPCB",02-09-2025 07:00:00,11.7637683,79.7499835,OZONE,1,2,2
India,TamilNadu,Dindigul,"Mendonsa Colony, Dindigul - TNPCB",02-09-2025 07:00:00,10.358535,77.984321,PM2.5,14,51,23
India,TamilNadu,Madurai,"Uchapatti, Madurai - TNPCB",02-09-2025 07:00:00,9.865935,78.022669,CO,18,22,21
India,TamilNadu,Nagapattinam,"Velippalayam, Nagapattinam - TNPCB",02-09-2025 07:00:00,10.798548,79.838212,NH3,2,2,2
India,TamilNadu,Namakkal,"Ponnusamy Nagar, Namakkal - TNPCB",02-09-2025 07:00:00,11.273992,78.163545,NH3,2,2,2
India,TamilNadu,Palkalaiperur,"Bharathidasan University, Palkalaiperur - TNPCB",02-09-2025 07:00:00,10.681158,78.741746,NH3,1,2,1
India,TamilNadu,Chennai,"Manali Village, Chennai - TNPCB",02-09-2025 07:00:00,13.1662,80.2584,CO,20,69,54
India,TamilNadu,Chennai,"Manali, Chennai - CPCB",02-09-2025 07:00:00,13.164544,80.26285,NO2,NA,NA,NA
India,TamilNadu,Chennai,"Manali, Chennai - CPCB",02-09-2025 07:00:00,13.164544,80.26285,OZONE,27,29,28
India,TamilNadu,Chennai,"Royapuram, Chennai - TNPCB",02-09-2025 07:00:00,13.1036,80.2909,NH3,3,6,4
India,TamilNadu,Chennai,"Royapuram, Chennai - TNPCB",02-09-2025 07:00:00,13.1036,80.2909,CO,4,113,20
India,TamilNadu,Chennai,"Kodungaiyur, Chennai - TNPCB",02-09-2025 07:00:00,13.1278,80.2642,CO,3,92,43
India,TamilNadu,Tirupur,"Kumaran College, Tirupur - TNPCB",02-09-2025 07:00:00,11.0973603,77.3228673,OZONE,3,3,3
India,TamilNadu,Vellore,"Vasanthapuram, Vellore - TNPCB",02-09-2025 07:00:00,12.909494,79.131861,PM2.5,NA,NA,NA
India,TamilNadu,Vellore,"Vasanthapuram, Vellore - TNPCB",02-09-2025 07:00:00,12.909494,79.131861,NH3,NA,NA,NA
India,TamilNadu,Vellore,"Vasanthapuram, Vellore - TNPCB",02-09-2025 07:00:00,12.909494,79.131861,SO2,NA,NA,NA
India,TamilNadu,Vellore,"Vasanthapuram, Vellore - TNPCB",02-09-2025 07:00:00,12.909494,79.131861,OZONE,NA,NA,NA
India,TamilNadu,Virudhunagar,"Collectorate Office, Virudhunagar - TNPCB",02-09-2025 07:00:00,9.559382,77.948828,NO2,19,19,19
India,TamilNadu,Virudhunagar,"Collectorate Office, Virudhunagar - TNPCB",02-09-2025 07:00:00,9.559382,77.948828,NH3,8,8,8
India,Telangana,Hyderabad,"Bollaram Industrial Area, Hyderabad - TSPCB",02-09-2025 07:00:00,17.540891,78.358528,SO2,2,12,7
India,Telangana,Hyderabad,"Central University, Hyderabad - TSPCB",02-09-2025 07:00:00,17.460103,78.334361,PM2.5,5,22,10
India,Telangana,Hyderabad,"Central University, Hyderabad - TSPCB",02-09-2025 07:00:00,17.460103,78.334361,PM10,20,40,32
India,Uttar_Pradesh,Khurja,"Kalindi Kunj, Khurja - UPPCB",02-09-2025 07:00:00,28.2348927,77.8683002,PM2.5,4,55,19
India,Uttar_Pradesh,Khurja,"Kalindi Kunj, Khurja - UPPCB",02-09-2025 07:00:00,28.2348927,77.8683002,NO2,3,4,3
India,Uttar_Pradesh,Khurja,"Kalindi Kunj, Khurja - UPPCB",02-09-2025 07:00:00,28.2348927,77.8683002,SO2,14,15,15
India,Uttar_Pradesh,Lucknow,"Gomti Nagar, Lucknow - UPPCB",02-09-2025 07:00:00,26.868120,81.005119,PM2.5,2,48,23
India,Uttar_Pradesh,Lucknow,"Gomti Nagar, Lucknow - UPPCB",02-09-2025 07:00:00,26.868120,81.005119,NO2,8,9,9
India,Uttar_Pradesh,Lucknow,"Kendriya Vidyalaya, Lucknow - CPCB",02-09-2025 07:00:00,26.906111,80.948222,PM10,10,43,29
India,Uttar_Pradesh,Lucknow,"Kendriya Vidyalaya, Lucknow - CPCB",02-09-2025 07:00:00,26.906111,80.948222,NO2,22,34,29
India,Uttar_Pradesh,Lucknow,"Kendriya Vidyalaya, Lucknow - CPCB",02-09-2025 07:00:00,26.906111,80.948222,SO2,1,25,8
India,Uttar_Pradesh,Lucknow,"Lalbagh, Lucknow - CPCB",02-09-2025 07:00:00,26.8458805,80.9365541,PM2.5,29,109,69
India,Uttar_Pradesh,Greater Noida,"Knowledge Park - V, Greater Noida - UPPCB",02-09-2025 07:00:00,28.557054,77.453663,CO,35,62,42
India,Uttar_Pradesh,Hapur,"Anand Vihar, Hapur - UPPCB",02-09-2025 07:00:00,28.725645,77.749675,PM10,4,29,14
India,Uttar_Pradesh,Hapur,"Anand Vihar, Hapur - UPPCB",02-09-2025 07:00:00,28.725645,77.749675,NH3,7,10,8
India,Uttar_Pradesh,Jhansi,"Shivaji Nagar, Jhansi - UPPCB",02-09-2025 07:00:00,25.4547,78.6039,PM2.5,17,53,36
India,Uttar_Pradesh,Kanpur,"FTI Kidwai Nagar, Kanpur - UPPCB",02-09-2025 07:00:00,26.428282,80.327067,NH3,2,2,2
India,Uttar_Pradesh,Kanpur,"NSI Kalyanpur, Kanpur - UPPCB",02-09-2025 07:00:00,26.509954,80.249612,PM10,16,34,26
India,Telangana,Hyderabad,"Zoo Park, Hyderabad - TSPCB",02-09-2025 07:00:00,17.349694,78.451437,CO,10,19,14
India,Tripura,Agartala,"Bardowali, Agartala - Tripura SPCB",02-09-2025 07:00:00,23.8175497,91.2726974,PM2.5,7,25,16
India,Uttar_Pradesh,Agra,"Manoharpur, Agra - UPPCB",02-09-2025 07:00:00,27.23711,78.01936,CO,7,11,8
India,Uttar_Pradesh,Agra,"Rohta, Agra - UPPCB",02-09-2025 07:00:00,27.106972,78.000111,NO2,20,20,20
India,Uttar_Pradesh,Agra,"Sanjay Palace, Agra - UPPCB",02-09-2025 07:00:00,27.19865833,78.00598056,CO,42,64,58
India,Uttar_Pradesh,Agra,"Sanjay Palace, Agra - UPPCB",02-09-2025 07:00:00,27.19865833,78.00598056,OZONE,14,24,20
India,Uttar_Pradesh,Bulandshahr,"Yamunapuram, Bulandshahr - UPPCB",02-09-2025 07:00:00,28.406963,77.849831,SO2,1,8,4
India,Uttar_Pradesh,Bulandshahr,"Yamunapuram, Bulandshahr - UPPCB",02-09-2025 07:00:00,28.406963,77.849831,CO,29,42,31
India,Uttar_Pradesh,Firozabad,"Nagla Bhau, Firozabad - UPPCB",02-09-2025 07:00:00,27.168897,78.376960,SO2,10,32,18
India,Uttar_Pradesh,Firozabad,"Vibhab Nagar, Firozabad - UPPCB",02-09-2025 07:00:00,27.1594,78.3953,NO2,15,15,15
India,Uttar_Pradesh,Ghaziabad,"Indirapuram, Ghaziabad - UPPCB",02-09-2025 07:00:00,28.646233,77.358075,NH3,5,9,6
India,Telangana,Hyderabad,"Nacharam_TSIIC IALA, Hyderabad - TSPCB",02-09-2025 07:00:00,17.429398,78.569354,OZONE,28,35,28
India,Telangana,Hyderabad,"Sanathnagar, Hyderabad - TSPCB",02-09-2025 07:00:00,17.4559458,78.4332152,SO2,4,9,6
India,Telangana,Hyderabad,"Sanathnagar, Hyderabad - TSPCB",02-09-2025 07:00:00,17.4559458,78.4332152,OZONE,12,17,15
India,Telangana,Hyderabad,"Somajiguda, Hyderabad - TSPCB",02-09-2025 07:00:00,17.417094,78.457437,OZONE,16,22,19
India,Telangana,Hyderabad,"Zoo Park, Hyderabad - TSPCB",02-09-2025 07:00:00,17.349694,78.451437,NO2,11,14,12
India,Telangana,Hyderabad,"ICRISAT Patancheru, Hyderabad - TSPCB",02-09-2025 07:00:00,17.518400,78.278777,OZONE,9,22,13
India,Telangana,Hyderabad,"Kokapet, Hyderabad - TSPCB",02-09-2025 07:00:00,17.393559,78.339194,OZONE,NA,NA,NA
India,Telangana,Hyderabad,"Kompally Municipal Office, Hyderabad - TSPCB",02-09-2025 07:00:00,17.544899,78.486949,PM2.5,55,63,60
India,Telangana,Hyderabad,"Nacharam_TSIIC IALA, Hyderabad - TSPCB",02-09-2025 07:00:00,17.429398,78.569354,PM2.5,44,50,46
India,Uttar_Pradesh,Ghaziabad,"Sanjay Nagar, Ghaziabad - UPPCB",02-09-2025 07:00:00,28.685382,77.453839,NO2,19,29,23
India,Uttar_Pradesh,Gorakhpur,"Madan Mohan Malaviya University of Technology, Gorakhpur - UPPCB",02-09-2025 07:00:00,26.730136,83.433859,PM10,14,115,52
India,Uttar_Pradesh,Gorakhpur,"Madan Mohan Malaviya University of Technology, Gorakhpur - UPPCB",02-09-2025 07:00:00,26.730136,83.433859,NH3,1,1,1
India,Uttar_Pradesh,Gorakhpur,"Madan Mohan Malaviya University of Technology, Gorakhpur - UPPCB",02-09-2025 07:00:00,26.730136,83.433859,CO,4,6,5
India,Uttar_Pradesh,Agra,"Shastripuram, Agra - UPPCB",02-09-2025 07:00:00,27.19862,77.92066,PM10,25,57,38
India,Uttar_Pradesh,Agra,"Shastripuram, Agra - UPPCB",02-09-2025 07:00:00,27.19862,77.92066,SO2,17,23,19
India,Uttar_Pradesh,Agra,"Shastripuram, Agra - UPPCB",02-09-2025 07:00:00,27.19862,77.92066,CO,8,12,8
India,Uttar_Pradesh,Bareilly,"Civil Lines, Bareilly - UPPCB",02-09-2025 07:00:00,28.359581,79.414455,NO2,2,3,2
India,West_Bengal,Durgapur,"Womens College_City Center, Durgapur - WBPCB (Formerly known as Sidhu Kanhu Indoor Stadium)",02-09-2025 07:00:00,23.549395,87.300496,SO2,25,36,28
India,West_Bengal,Haldia,"Priyambada Housing Estate, Haldia - WBPCB",02-09-2025 07:00:00,22.06047,88.109737,PM2.5,16,97,44
India,West_Bengal,Haldia,"Priyambada Housing Estate, Haldia - WBPCB",02-09-2025 07:00:00,22.06047,88.109737,PM10,24,130,60
India,West_Bengal,Howrah,"Belur Math, Howrah - WBPCB",02-09-2025 07:00:00,22.629801,88.352017,PM10,9,168,72
India,West_Bengal,Howrah,"Belur Math, Howrah - WBPCB",02-09-2025 07:00:00,22.629801,88.352017,CO,16,61,23
India,West_Bengal,Howrah,"Belur Math, Howrah - WBPCB",02-09-2025 07:00:00,22.629801,88.352017,OZONE,15,31,19
India,West_Bengal,Howrah,"Botanical Garden, Howrah - WBPCB",02-09-2025 07:00:00,22.554954,88.292568,SO2,13,15,14
India,West_Bengal,Howrah,"Botanical Garden, Howrah - WBPCB",02-09-2025 07:00:00,22.554954,88.292568,OZONE,20,30,21
India,West_Bengal,Howrah,"Dasnagar, Howrah - WBPCB",02-09-2025 07:00:00,22.6025571,88.3105664,PM10,25,110,66
India,Uttar_Pradesh,Lucknow,"Lalbagh, Lucknow - CPCB",02-09-2025 07:00:00,26.8458805,80.9365541,NO2,28,39,35
India,Uttar_Pradesh,Lucknow,"Lalbagh, Lucknow - CPCB",02-09-2025 07:00:00,26.8458805,80.9365541,OZONE,33,43,37
India,Uttar_Pradesh,Lucknow,"Talkatora District Industries Center, Lucknow - CPCB",02-09-2025 07:00:00,26.83399722,80.8917361,NO2,31,48,40
India,Uttar_Pradesh,Meerut,"Jai Bhim Nagar, Meerut - UPPCB",02-09-2025 07:00:00,28.9535882,77.7622941,PM10,NA,NA,NA
India,Uttar_Pradesh,Meerut,"Jai Bhim Nagar, Meerut - UPPCB",02-09-2025 07:00:00,28.9535882,77.7622941,NH3,2,3,2
India,Uttar_Pradesh,Meerut,"Pallavpuram Phase 2, Meerut - UPPCB",02-09-2025 07:00:00,29.063510,77.709723,NO2,9,17,12
India,Uttar_Pradesh,Meerut,"Pallavpuram Phase 2, Meerut - UPPCB",02-09-2025 07:00:00,29.063510,77.709723,NH3,1,4,2
India,Uttar_Pradesh,Meerut,"Pallavpuram Phase 2, Meerut - UPPCB",02-09-2025 07:00:00,29.063510,77.709723,CO,10,39,21
India,Uttar_Pradesh,Meerut,"Pallavpuram Phase 2, Meerut - UPPCB",02-09-2025 07:00:00,29.063510,77.709723,OZONE,19,44,35
India,Uttar_Pradesh,Moradabad,"Buddhi Vihar, Moradabad - UPPCB",02-09-2025 07:00:00,28.83526,78.74460,PM2.5,NA,NA,NA
India,West_Bengal,Barrackpore,"SVSPA Campus, Barrackpore - WBPCB",02-09-2025 07:00:00,22.7605581,88.3617589,PM2.5,9,57,33
India,West_Bengal,Durgapur,"Mahishkapur Road_B-Zone, Durgapur - WBPCB",02-09-2025 07:00:00,23.567923,87.306843,PM2.5,NA,NA,NA
India,West_Bengal,Durgapur,"Mahishkapur Road_B-Zone, Durgapur - WBPCB",02-09-2025 07:00:00,23.567923,87.306843,SO2,9,11,10
India,West_Bengal,Durgapur,"Mahishkapur Road_B-Zone, Durgapur - WBPCB",02-09-2025 07:00:00,23.567923,87.306843,OZONE,12,66,26
India,West_Bengal,Durgapur,"PCBL Residential Complex, Durgapur - WBPCB",02-09-2025 07:00:00,23.5087640,87.3544400,PM2.5,10,40,21
India,West_Bengal,Durgapur,"PCBL Residential Complex, Durgapur - WBPCB",02-09-2025 07:00:00,23.5087640,87.3544400,NO2,2,22,11
India,West_Bengal,Durgapur,"PCBL Residential Complex, Durgapur - WBPCB",02-09-2025 07:00:00,23.5087640,87.3544400,NH3,1,58,7
India,West_Bengal,Durgapur,"Womens College_City Center, Durgapur - WBPCB (Formerly known as Sidhu Kanhu Indoor Stadium)",02-09-2025 07:00:00,23.549395,87.300496,PM10,22,101,58
India,Uttar_Pradesh,Moradabad,"Buddhi Vihar, Moradabad - UPPCB",02-09-2025 07:00:00,28.83526,78.74460,NH3,5,5,5
India,Uttar_Pradesh,Moradabad,"Buddhi Vihar, Moradabad - UPPCB",02-09-2025 07:00:00,28.83526,78.74460,CO,30,42,37
India,Uttar_Pradesh,Moradabad,"Employment Office, Moradabad - UPPCB",02-09-2025 07:00:00,28.88528,78.73880,PM2.5,27,75,56
India,Uttar_Pradesh,Moradabad,"Jigar Colony, Moradabad - UPPCB",02-09-2025 07:00:00,28.856664,78.772638,PM10,19,54,28
India,Uttar_Pradesh,Moradabad,"Jigar Colony, Moradabad - UPPCB",02-09-2025 07:00:00,28.856664,78.772638,NH3,6,6,6
India,Uttar_Pradesh,Moradabad,"Jigar Colony, Moradabad - UPPCB",02-09-2025 07:00:00,28.856664,78.772638,CO,39,40,40
India,Uttar_Pradesh,Moradabad,"Kashiram Nagar, Moradabad - UPPCB",02-09-2025 07:00:00,28.849399,78.742362,NO2,25,25,25
India,Uttar_Pradesh,Prayagraj,"Motilal Nehru NIT, Prayagraj - UPPCB",02-09-2025 07:00:00,25.494,81.863,PM2.5,18,43,30
India,Uttar_Pradesh,Prayagraj,"Nagar Nigam, Prayagraj - UPPCB",02-09-2025 07:00:00,25.44919916 ,81.82735986 ,NH3,1,3,2
India,Uttar_Pradesh,Varanasi,"Ardhali Bazar, Varanasi - UPPCB",02-09-2025 07:00:00,25.3505986,82.9083074,SO2,NA,NA,NA
India,Uttar_Pradesh,Varanasi,"Ardhali Bazar, Varanasi - UPPCB",02-09-2025 07:00:00,25.3505986,82.9083074,CO,1,20,11
India,Uttar_Pradesh,Varanasi,"Bhelupur, Varanasi - UPPCB",02-09-2025 07:00:00,25.301778,82.996789,PM2.5,4,291,43
India,West_Bengal,Howrah,"Padmapukur, Howrah - WBPCB",02-09-2025 07:00:00,22.5687319,88.2797276,NO2,11,23,16
India,West_Bengal,Kolkata,"Ballygunge, Kolkata - WBPCB",02-09-2025 07:00:00,22.5367507,88.3638022,OZONE,14,19,17
India,West_Bengal,Kolkata,"Bidhannagar, Kolkata - WBPCB",02-09-2025 07:00:00,22.58157048,88.41002457,PM10,44,84,55
India,West_Bengal,Kolkata,"Bidhannagar, Kolkata - WBPCB",02-09-2025 07:00:00,22.58157048,88.41002457,CO,33,62,38
India,West_Bengal,Kolkata,"Rabindra Bharati University, Kolkata - WBPCB",02-09-2025 07:00:00,22.627847,88.380669,PM2.5,15,95,41
India,West_Bengal,Asansol,"Asansol Court Area, Asansol - WBPCB",02-09-2025 07:00:00,23.685297,86.945968,PM2.5,30,110,58
India,West_Bengal,Asansol,"Asansol Court Area, Asansol - WBPCB",02-09-2025 07:00:00,23.685297,86.945968,SO2,9,15,13
India,West_Bengal,Asansol,"Asansol Court Area, Asansol - WBPCB",02-09-2025 07:00:00,23.685297,86.945968,OZONE,12,27,16
India,West_Bengal,Asansol,"Mahabir Colliery, Asansol - WBPCB",02-09-2025 07:00:00,23.6181830,87.1057180,NH3,6,15,10
India,West_Bengal,Asansol,"Mahabir Colliery, Asansol - WBPCB",02-09-2025 07:00:00,23.6181830,87.1057180,SO2,5,8,6
India,Uttar_Pradesh,Varanasi,"Maldahiya, Varanasi - UPPCB",02-09-2025 07:00:00,25.32393,82.99687,OZONE,2,4,2
India,Uttar_Pradesh,Vrindavan,"Omex Eternity, Vrindavan - UPPCB",02-09-2025 07:00:00,27.5714090,77.6557570,CO,16,24,18
India,Uttarakhand,Dehradun,"Doon University, Dehradun - UKPCB",02-09-2025 07:00:00,30.269444,78.044167,PM2.5,1,22,11
India,Uttar_Pradesh,Moradabad,"Transport Nagar, Moradabad - UPPCB",02-09-2025 07:00:00,28.802625,78.753728,SO2,40,56,44
India,Uttar_Pradesh,Moradabad,"Transport Nagar, Moradabad - UPPCB",02-09-2025 07:00:00,28.802625,78.753728,OZONE,26,87,34
India,Uttar_Pradesh,Noida,"Sector-1, Noida - UPPCB",02-09-2025 07:00:00,28.5898,77.3101,CO,23,32,25
India,Uttar_Pradesh,Noida,"Sector-116, Noida - UPPCB",02-09-2025 07:00:00,28.569230,77.393848,PM2.5,2,28,14
India,West_Bengal,Kolkata,"Rabindra Bharati University, Kolkata - WBPCB",02-09-2025 07:00:00,22.627847,88.380669,CO,22,46,25
India,West_Bengal,Kolkata,"Rabindra Sarobar, Kolkata - WBPCB",02-09-2025 07:00:00,22.51106,88.35142,NH3,7,13,9
India,West_Bengal,Kolkata,"Victoria, Kolkata - WBPCB",02-09-2025 07:00:00,22.5448082,88.3403691,OZONE,12,38,18
India,Andhra_Pradesh,Anantapur,"Gulzarpet, Anantapur - APPCB",02-09-2025 07:00:00,14.675886,77.593027,CO,15,22,15
India,Andhra_Pradesh,Chittoor,"Gangineni Cheruvu, Chittoor - APPCB",02-09-2025 07:00:00,13.204880,79.097889,NH3,9,10,9
India,Andhra_Pradesh,Rajamahendravaram,"Anand Kala Kshetram, Rajamahendravaram - APPCB",02-09-2025 07:00:00,16.9872867,81.7363176,NO2,6,18,12
India,Andhra_Pradesh,Vijayawada,"Rajiv Nagar, Vijayawada - APPCB",02-09-2025 07:00:00,16.554731,80.649110,OZONE,1,1,1
India,Andhra_Pradesh,Visakhapatnam,"GVM Corporation, Visakhapatnam - APPCB",02-09-2025 07:00:00,17.72,83.3,PM10,53,146,96
India,Andhra_Pradesh,Visakhapatnam,"GVM Corporation, Visakhapatnam - APPCB",02-09-2025 07:00:00,17.72,83.3,NH3,3,3,3
India,Andhra_Pradesh,Visakhapatnam,"GVM Corporation, Visakhapatnam - APPCB",02-09-2025 07:00:00,17.72,83.3,CO,6,78,22
India,Assam,Guwahati,"LGBI Airport, Guwahati - PCBA",02-09-2025 07:00:00,26.10887,91.589544,NH3,8,15,10
India,Assam,Guwahati,"Pan Bazaar, Guwahati - PCBA",02-09-2025 07:00:00,26.187500,91.744194,PM10,1,25,12
India,Assam,Guwahati,"Pan Bazaar, Guwahati - PCBA",02-09-2025 07:00:00,26.187500,91.744194,OZONE,17,25,19
India,Assam,Nalbari,"Bata Chowk, Nalbari - PCBA",02-09-2025 07:00:00,26.446912,91.439057,PM10,20,271,63
India,Assam,Nalbari,"Bata Chowk, Nalbari - PCBA",02-09-2025 07:00:00,26.446912,91.439057,SO2,7,8,8
India,Assam,Nalbari,"Bata Chowk, Nalbari - PCBA",02-09-2025 07:00:00,26.446912,91.439057,CO,14,50,39
India,Andhra_Pradesh,Vijayawada,"Rajiv Gandhi Park, Vijayawada - APPCB",02-09-2025 07:00:00,16.509717,80.612222,OZONE,45,54,46
India,Andhra_Pradesh,Amaravati,"Secretariat, Amaravati - APPCB",02-09-2025 07:00:00,16.5150833,80.5181667,CO,10,24,14
India,Andhra_Pradesh,Vijayawada,"Rajiv Nagar, Vijayawada - APPCB",02-09-2025 07:00:00,16.554731,80.649110,NH3,3,5,4
India,Assam,Sivasagar,"Girls College, Sivasagar - PCBA",02-09-2025 07:00:00,26.987634,94.636574,PM2.5,27,46,34
India,Assam,Guwahati,"Railway Colony, Guwahati - PCBA",02-09-2025 07:00:00,26.181742,91.78063,PM10,13,120,47
India,Andhra_Pradesh,Tirumala,"Toll Gate, Tirumala - APPCB",02-09-2025 07:00:00,13.67,79.35,NH3,1,2,1
India,Assam,Sivasagar,"Girls College, Sivasagar - PCBA",02-09-2025 07:00:00,26.987634,94.636574,SO2,9,12,10
India,Assam,Sivasagar,"Girls College, Sivasagar - PCBA",02-09-2025 07:00:00,26.987634,94.636574,OZONE,1,7,1
India,Bihar,Araria,"Kharahiya Basti, Araria - BSPCB",02-09-2025 07:00:00,26.146529,87.454184,SO2,NA,NA,NA
India,Bihar,Araria,"Kharahiya Basti, Araria - BSPCB",02-09-2025 07:00:00,26.146529,87.454184,CO,NA,NA,NA
India,Bihar,Arrah,"New DM Office, Arrah - BSPCB",02-09-2025 07:00:00,25.5626095,84.663264,PM10,27,28,28
India,Bihar,Aurangabad,"Gurdeo Nagar, Aurangabad - BSPCB",02-09-2025 07:00:00,24.75746,84.366208,PM10,29,228,78
India,Bihar,Motihari,"Gandak Colony, Motihari - BSPCB",02-09-2025 07:00:00,26.63086,84.90051,CO,1,20,4
India,Bihar,Munger,"Town Hall, Munger - BSPCB",02-09-2025 07:00:00,25.376776,86.471523,PM2.5,5,500,90
India,Bihar,Munger,"Town Hall, Munger - BSPCB",02-09-2025 07:00:00,25.376776,86.471523,NH3,6,6,6
India,Bihar,Bhagalpur,"Mayaganj, Bhagalpur - BSPCB",02-09-2025 07:00:00,25.265194,87.012947,SO2,22,77,51
India,Bihar,Bhagalpur,"Mayaganj, Bhagalpur - BSPCB",02-09-2025 07:00:00,25.265194,87.012947,OZONE,3,14,10
India,Bihar,Bihar Sharif,"D M Colony, Bihar Sharif - BSPCB",02-09-2025 07:00:00,25.204762,85.514960,NO2,NA,NA,NA
India,Bihar,Aurangabad,"Gurdeo Nagar, Aurangabad - BSPCB",02-09-2025 07:00:00,24.75746,84.366208,CO,NA,NA,NA
India,Bihar,Begusarai,"Lohiyanagar, Begusarai - BSPCB",02-09-2025 07:00:00,25.42742023,86.13886079,NH3,3,4,4
India,Bihar,Katihar,"Mirchaibari, Katihar - BSPCB",02-09-2025 07:00:00,25.560083,87.553265,PM2.5,NA,NA,NA
India,Bihar,Kishanganj,"SDM Office_Khagra, Kishanganj - BSPCB",02-09-2025 07:00:00,26.0881305,87.93840336,PM2.5,52,100,68
India,Bihar,Muzaffarpur,"Buddha Colony, Muzaffarpur - BSPCB",02-09-2025 07:00:00,26.11442,85.39813,NH3,3,5,4
India,Bihar,Munger,"Town Hall, Munger - BSPCB",02-09-2025 07:00:00,25.376776,86.471523,SO2,17,21,19
India,Bihar,Gaya,"Kareemganj, Gaya - BSPCB",02-09-2025 07:00:00,24.792403,84.992416,PM10,10,108,53
India,Bihar,Buxar,"Charitra Van, Buxar - BSPCB",02-09-2025 07:00:00,25.567520,83.966379,NH3,3,3,3
India,Bihar,Muzaffarpur,"MIT-Daudpur Kothi, Muzaffarpur - BSPCB",02-09-2025 07:00:00,26.1403345,85.3650192,NO2,7,12,8
India,Bihar,Patna,"DRM Office Danapur, Patna - BSPCB",02-09-2025 07:00:00,25.586562,85.043586,NH3,2,3,3
India,Bihar,Patna,"DRM Office Danapur, Patna - BSPCB",02-09-2025 07:00:00,25.586562,85.043586,SO2,5,9,7
India,Bihar,Patna,"DRM Office Danapur, Patna - BSPCB",02-09-2025 07:00:00,25.586562,85.043586,CO,24,45,40
India,Bihar,Patna,"DRM Office Danapur, Patna - BSPCB",02-09-2025 07:00:00,25.586562,85.043586,OZONE,23,28,25
India,Bihar,Samastipur,"DM Office_Kasipur, Samastipur - BSPCB",02-09-2025 07:00:00,25.859655,85.77944,NH3,2,2,2
India,Bihar,Sasaram,"Dada Peer, Sasaram - BSPCB",02-09-2025 07:00:00,24.952822,84.002396,CO,32,101,57
India,Bihar,Siwan,"Chitragupta Nagar, Siwan - BSPCB",02-09-2025 07:00:00,26.2271665,84.3570427,PM2.5,26,29,28
India,Bihar,Patna,"Muradpur, Patna - BSPCB",02-09-2025 07:00:00,25.619651,85.147382,SO2,1,11,4
India,Bihar,Patna,"Rajbansi Nagar, Patna - BSPCB",02-09-2025 07:00:00,25.599486,85.113666,PM2.5,30,60,46
India,Bihar,Rajgir,"Dangi Tola, Rajgir - BSPCB",02-09-2025 07:00:00,25.03280,85.41948,NO2,8,10,9
India,Bihar,Rajgir,"Dangi Tola, Rajgir - BSPCB",02-09-2025 07:00:00,25.03280,85.41948,NH3,5,8,6
India,Bihar,Patna,"Govt. High School Shikarpur, Patna - BSPCB",02-09-2025 07:00:00,25.592539,85.227158,NH3,3,4,3
India,Bihar,Siwan,"Chitragupta Nagar, Siwan - BSPCB",02-09-2025 07:00:00,26.2271665,84.3570427,PM10,22,27,24
India,Bihar,Saharsa,"Police Line, Saharsa - BSPCB",02-09-2025 07:00:00,25.892357,86.590325,PM10,34,224,106
India,Bihar,Patna,"Rajbansi Nagar, Patna - BSPCB",02-09-2025 07:00:00,25.599486,85.113666,OZONE,17,38,18
India,Bihar,Purnia,"Mariam Nagar, Purnia - BSPCB",02-09-2025 07:00:00,25.366336,87.117468,PM10,NA,NA,NA
India,Chhattisgarh,Kunjemura,"OP Jindal School, Kunjemura - CECB",02-09-2025 07:00:00,22.126650,83.483212,OZONE,3,20,3
India,Chhattisgarh,Milupara,"Govt. Higher Secondary School, Milupara - CECB",02-09-2025 07:00:00,22.1910172,83.5197009,PM2.5,9,87,40
India,Chhattisgarh,Milupara,"Govt. Higher Secondary School, Milupara - CECB",02-09-2025 07:00:00,22.1910172,83.5197009,CO,12,37,13
India,Chhattisgarh,Raipur,"Bhatagaon New ISBT, Raipur - CECB",02-09-2025 07:00:00,21.219665,81.630094,SO2,4,6,5
India,Chhattisgarh,Raipur,"Bhatagaon New ISBT, Raipur - CECB",02-09-2025 07:00:00,21.219665,81.630094,CO,12,34,19
India,Chhattisgarh,Raipur,"Krishak Nagar, Raipur - CECB",02-09-2025 07:00:00,21.237755,81.705301,PM2.5,5,21,13
India,Delhi,Delhi,"Anand Vihar, Delhi - DPCC",02-09-2025 07:00:00,28.647622,77.3158090,PM10,16,144,41
India,Delhi,Delhi,"Ashok Vihar, Delhi - DPCC",02-09-2025 07:00:00,28.695381,77.181665,PM10,14,74,32
India,Delhi,Delhi,"Ashok Vihar, Delhi - DPCC",02-09-2025 07:00:00,28.695381,77.181665,NO2,18,41,26
India,Chhattisgarh,Bhilai,"32Bungalows, Bhilai - CECB",02-09-2025 07:00:00,21.194815,81.314770,OZONE,11,24,16
India,Chhattisgarh,Bhilai,"Hathkhoj, Bhilai - CECB",02-09-2025 07:00:00,21.224231,81.408350,CO,10,24,15
India,Chhattisgarh,Tumidih,"OP Jindal Industrial Park, Tumidih - CECB",02-09-2025 07:00:00,22.06631475,83.33820077,NH3,1,2,2
India,Chhattisgarh,Bhilai,"32Bungalows, Bhilai - CECB",02-09-2025 07:00:00,21.194815,81.314770,PM10,12,31,18
India,Chhattisgarh,Bilaspur,"Mangala, Bilaspur - NTPC",02-09-2025 07:00:00,22.08815,82.13737,SO2,4,16,12
India,Chhattisgarh,Raipur,"AIIMS, Raipur - CECB",02-09-2025 07:00:00,21.258815,81.578979,PM2.5,1,15,8
India,Delhi,Delhi,"Ashok Vihar, Delhi - DPCC",02-09-2025 07:00:00,28.695381,77.181665,CO,52,72,55
India,Delhi,Delhi,"Major Dhyan Chand National Stadium, Delhi - DPCC",02-09-2025 07:00:00,28.611281,77.237738,SO2,1,8,5
India,Delhi,Delhi,"Major Dhyan Chand National Stadium, Delhi - DPCC",02-09-2025 07:00:00,28.611281,77.237738,OZONE,12,35,19
India,Delhi,Delhi,"Mandir Marg, Delhi - DPCC",02-09-2025 07:00:00,28.636429,77.201067,PM2.5,3,65,24
India,Delhi,Delhi,"Mundka, Delhi - DPCC",02-09-2025 07:00:00,28.684678,77.076574,PM10,7,101,38
India,Delhi,Delhi,"Mundka, Delhi - DPCC",02-09-2025 07:00:00,28.684678,77.076574,NO2,24,42,34
India,Delhi,Delhi,"Mundka, Delhi - DPCC",02-09-2025 07:00:00,28.684678,77.076574,CO,28,39,30
India,Delhi,Delhi,"NSIT Dwarka, Delhi - CPCB",02-09-2025 07:00:00,28.60909,77.0325413,NO2,14,43,26
India,Delhi,Delhi,"ITO, Delhi - CPCB",02-09-2025 07:00:00,28.628624,77.241060,PM2.5,13,34,22
India,Delhi,Delhi,"Jahangirpuri, Delhi - DPCC",02-09-2025 07:00:00,28.732820,77.170633,PM10,NA,NA,NA
India,Delhi,Delhi,"Jahangirpuri, Delhi - DPCC",02-09-2025 07:00:00,28.732820,77.170633,NO2,10,24,16
India,Delhi,Delhi,"Jahangirpuri, Delhi - DPCC",02-09-2025 07:00:00,28.732820,77.170633,SO2,8,13,9
India,Delhi,Delhi,"Jahangirpuri, Delhi - DPCC",02-09-2025 07:00:00,28.732820,77.170633,OZONE,6,27,18
India,Delhi,Delhi,"Jawaharlal Nehru Stadium, Delhi - DPCC",02-09-2025 07:00:00,28.580280,77.233829,PM10,12,109,28
India,Delhi,Delhi,"Lodhi Road, Delhi - IITM",02-09-2025 07:00:00,28.588333,77.221667,SO2,5,15,12
India,Delhi,Delhi,"Najafgarh, Delhi - DPCC",02-09-2025 07:00:00,28.570173,76.933762,PM10,15,40,26
India,Delhi,Delhi,"Najafgarh, Delhi - DPCC",02-09-2025 07:00:00,28.570173,76.933762,NH3,1,32,5
India,Delhi,Delhi,"Najafgarh, Delhi - DPCC",02-09-2025 07:00:00,28.570173,76.933762,OZONE,9,32,15
India,Delhi,Delhi,"Nehru Nagar, Delhi - DPCC",02-09-2025 07:00:00,28.567890,77.250515,PM10,6,50,22
India,Delhi,Delhi,"Nehru Nagar, Delhi - DPCC",02-09-2025 07:00:00,28.567890,77.250515,CO,10,26,14
India,Delhi,Delhi,"North Campus, DU, Delhi - IMD",02-09-2025 07:00:00,28.6573814,77.1585447,PM10,4,238,60
India,Delhi,Delhi,"Dr. Karni Singh Shooting Range, Delhi - DPCC",02-09-2025 07:00:00,28.498571,77.264840,NH3,4,8,5
India,Delhi,Delhi,"Dwarka-Sector 8, Delhi - DPCC ",02-09-2025 07:00:00,28.5710274,77.0719006,PM10,5,104,31
India,Delhi,Delhi,"Dwarka-Sector 8, Delhi - DPCC ",02-09-2025 07:00:00,28.5710274,77.0719006,NO2,12,44,32
India,Delhi,Delhi,"Dwarka-Sector 8, Delhi - DPCC ",02-09-2025 07:00:00,28.5710274,77.0719006,NH3,4,6,5
India,Delhi,Delhi,"Dwarka-Sector 8, Delhi - DPCC ",02-09-2025 07:00:00,28.5710274,77.0719006,SO2,8,13,10
India,Delhi,Delhi,"Dwarka-Sector 8, Delhi - DPCC ",02-09-2025 07:00:00,28.5710274,77.0719006,OZONE,14,53,23
India,Delhi,Delhi,"Pusa, Delhi - IMD",02-09-2025 07:00:00,28.636110,77.173332,OZONE,5,14,11
India,Delhi,Delhi,"R K Puram, Delhi - DPCC",02-09-2025 07:00:00,28.563262,77.186937,PM2.5,NA,NA,NA
India,Delhi,Delhi,"R K Puram, Delhi - DPCC",02-09-2025 07:00:00,28.563262,77.186937,OZONE,19,33,26
India,Delhi,Delhi,"Rohini, Delhi - DPCC",02-09-2025 07:00:00,28.732528,77.119920,PM10,8,84,31
India,Delhi,Delhi,"Rohini, Delhi - DPCC",02-09-2025 07:00:00,28.732528,77.119920,SO2,3,4,3
India,Delhi,Delhi,"DTU, Delhi - CPCB",02-09-2025 07:00:00,28.7500499,77.1112615,PM10,21,79,38
India,Delhi,Delhi,"DTU, Delhi - CPCB",02-09-2025 07:00:00,28.7500499,77.1112615,NO2,59,72,67
India,Delhi,Delhi,"DTU, Delhi - CPCB",02-09-2025 07:00:00,28.7500499,77.1112615,SO2,28,31,29
India,Delhi,Delhi,"DTU, Delhi - CPCB",02-09-2025 07:00:00,28.7500499,77.1112615,OZONE,24,29,25
India,Delhi,Delhi,"Dr. Karni Singh Shooting Range, Delhi - DPCC",02-09-2025 07:00:00,28.498571,77.264840,PM2.5,10,28,17
India,Delhi,Delhi,"IGI Airport (T3), Delhi - IMD",02-09-2025 07:00:00,28.5627763,77.1180053,OZONE,NA,NA,NA
India,Delhi,Delhi,"IHBAS, Dilshad Garden, Delhi - CPCB",02-09-2025 07:00:00,28.6811736,77.3025234,PM2.5,25,34,31
India,Delhi,Delhi,"Chandni Chowk, Delhi - IITM",02-09-2025 07:00:00,28.656756,77.227234,NO2,21,43,30
India,Delhi,Delhi,"Chandni Chowk, Delhi - IITM",02-09-2025 07:00:00,28.656756,77.227234,NH3,7,10,8
India,Delhi,Delhi,"Chandni Chowk, Delhi - IITM",02-09-2025 07:00:00,28.656756,77.227234,SO2,3,15,9
India,Delhi,Delhi,"Okhla Phase-2, Delhi - DPCC",02-09-2025 07:00:00,28.530785,77.271255,OZONE,30,45,34
India,Delhi,Delhi,"Patparganj, Delhi - DPCC",02-09-2025 07:00:00,28.623763,77.287209,PM2.5,8,33,20
India,Karnataka,Bengaluru,"Silk Board, Bengaluru - KSPCB",02-09-2025 07:00:00,12.917348,77.622813,CO,28,47,32
India,Karnataka,Bidar,"Naubad, Bidar - KSPCB",02-09-2025 07:00:00,17.930306,77.482194,CO,NA,NA,NA
India,Karnataka,Chamarajanagar,"Urban, Chamarajanagar - KSPCB",02-09-2025 07:00:00,11.55358,76.55521,PM10,34,62,44
India,Karnataka,Chamarajanagar,"Urban, Chamarajanagar - KSPCB",02-09-2025 07:00:00,11.55358,76.55521,SO2,2,7,4
India,Karnataka,Chamarajanagar,"Urban, Chamarajanagar - KSPCB",02-09-2025 07:00:00,11.55358,76.55521,CO,17,120,29
India,Karnataka,Chikkaballapur,"Chikkaballapur Rural, Chikkaballapur - KSPCB",02-09-2025 07:00:00,13.428828,77.731418,PM2.5,6,27,12
India,Karnataka,Chikkamagaluru,"Kalyana Nagara, Chikkamagaluru - KSPCB",02-09-2025 07:00:00,13.328028,75.797056,NO2,23,34,31
India,Karnataka,Davanagere,"Devaraj Urs Badavane, Davanagere - KSPCB",02-09-2025 07:00:00,14.475800,75.905200,PM10,NA,NA,NA
India,Gujarat,Gandhinagar,"GIFT City, Gandhinagar - IITM",02-09-2025 07:00:00,23.163798,72.677768,NO2,9,35,16
India,Gujarat,Gandhinagar,"IIPHG Lekawada, Gandhinagar - IITM",02-09-2025 07:00:00,23.243639,72.68994,CO,34,67,41
India,Gujarat,Gandhinagar,"Sector-10, Gandhinagar - GPCB",02-09-2025 07:00:00,23.221714,72.654328,CO,8,41,19
India,Gujarat,Surat,"Science Center, Surat - SMC",02-09-2025 07:00:00,21.170046,72.795405,NO2,12,22,17
India,Gujarat,Vapi,"Phase-1 GIDC, Vapi - GPCB",02-09-2025 07:00:00,20.362421,72.918013,NO2,13,14,14
India,Gujarat,Vapi,"Phase-1 GIDC, Vapi - GPCB",02-09-2025 07:00:00,20.362421,72.918013,OZONE,2,2,2
India,Haryana,Gurugram,"NISE Gwal Pahari, Gurugram - IMD",02-09-2025 07:00:00,28.422681,77.148944,PM2.5,1,93,23
India,Haryana,Gurugram,"NISE Gwal Pahari, Gurugram - IMD",02-09-2025 07:00:00,28.422681,77.148944,PM10,5,92,33
India,Karnataka,Bengaluru,"BTM Layout, Bengaluru - CPCB",02-09-2025 07:00:00,12.9135218,77.5950804,NO2,29,30,30
India,Karnataka,Bengaluru,"BTM Layout, Bengaluru - CPCB",02-09-2025 07:00:00,12.9135218,77.5950804,CO,20,30,21
India,Karnataka,Bengaluru,"City Railway Station, Bengaluru - KSPCB",02-09-2025 07:00:00,12.9756843,77.5660749,SO2,7,12,9
India,Karnataka,Bengaluru,"City Railway Station, Bengaluru - KSPCB",02-09-2025 07:00:00,12.9756843,77.5660749,CO,58,63,60
India,Karnataka,Bengaluru,"Hebbal, Bengaluru - KSPCB",02-09-2025 07:00:00,13.029152,77.585901,CO,4,40,12
India,Karnataka,Bengaluru,"Hombegowda Nagar, Bengaluru - KSPCB",02-09-2025 07:00:00,12.938539,77.590100,PM2.5,5,20,14
India,Karnataka,Bengaluru,"Jayanagar 5th Block, Bengaluru - KSPCB",02-09-2025 07:00:00,12.920984,77.584908,PM2.5,NA,NA,NA
India,Karnataka,Bengaluru,"Jayanagar 5th Block, Bengaluru - KSPCB",02-09-2025 07:00:00,12.920984,77.584908,NH3,NA,NA,NA
India,Karnataka,Bengaluru,"Jigani, Bengaluru - KSPCB",02-09-2025 07:00:00,12.7816279,77.6299145,PM2.5,34,40,36
India,Gujarat,Ahmedabad,"SAC ISRO Bopal, Ahmedabad - IITM",02-09-2025 07:00:00,23.041137,72.456691,NO2,23,28,26
India,Gujarat,Ahmedabad,"SAC ISRO Bopal, Ahmedabad - IITM",02-09-2025 07:00:00,23.041137,72.456691,CO,16,38,23
India,Gujarat,Ahmedabad,"SAC ISRO Satellite, Ahmedabad - IITM",02-09-2025 07:00:00,23.023389,72.515201,PM2.5,33,74,45
India,Gujarat,Ahmedabad,"SAC ISRO Satellite, Ahmedabad - IITM",02-09-2025 07:00:00,23.023389,72.515201,CO,10,62,20
India,Gujarat,Ahmedabad,"SVPI Airport Hansol, Ahmedabad - IITM",02-09-2025 07:00:00,23.076793,72.627874,PM2.5,10,39,22
India,Gujarat,Ahmedabad,"SVPI Airport Hansol, Ahmedabad - IITM",02-09-2025 07:00:00,23.076793,72.627874,NH3,1,1,1
India,Gujarat,Ankleshwar,"GIDC, Ankleshwar - GPCB",02-09-2025 07:00:00,21.613267,73.010555,PM2.5,17,49,33
India,Gujarat,Ankleshwar,"GIDC, Ankleshwar - GPCB",02-09-2025 07:00:00,21.613267,73.010555,PM10,51,62,61
India,Karnataka,Haveri,"Ashwini Nagar, Haveri - KSPCB",02-09-2025 07:00:00,14.791800,75.389600,PM2.5,31,46,36
India,Karnataka,Haveri,"Ashwini Nagar, Haveri - KSPCB",02-09-2025 07:00:00,14.791800,75.389600,OZONE,19,32,21
India,Karnataka,Kalaburagi,"Lal Bahadur Shastri Nagar, Kalaburagi - KSPCB",02-09-2025 07:00:00,17.321993,76.822628,PM2.5,28,67,47
India,Karnataka,Kalaburagi,"Lal Bahadur Shastri Nagar, Kalaburagi - KSPCB",02-09-2025 07:00:00,17.321993,76.822628,CO,31,58,37
India,Karnataka,Kalaburagi,"Lal Bahadur Shastri Nagar, Kalaburagi - KSPCB",02-09-2025 07:00:00,17.321993,76.822628,OZONE,20,68,29
India,Karnataka,Kalaburagi,"Mahatma Basaveswar Colony, Kalaburgi - KSPCB",02-09-2025 07:00:00,17.336318,76.847397,NO2,9,18,13
India,Karnataka,Kalaburagi,"Mahatma Basaveswar Colony, Kalaburgi - KSPCB",02-09-2025 07:00:00,17.336318,76.847397,SO2,2,6,4
India,Himachal Pradesh,Baddi,"HIMUDA Complex Phase-1, Baddi - HPPCB",02-09-2025 07:00:00,30.943887,76.801991,PM10,17,86,40
India,Himachal Pradesh,Baddi,"HIMUDA Complex Phase-1, Baddi - HPPCB",02-09-2025 07:00:00,30.943887,76.801991,NH3,6,7,6
India,Himachal Pradesh,Baddi,"HIMUDA Complex Phase-1, Baddi - HPPCB",02-09-2025 07:00:00,30.943887,76.801991,OZONE,6,34,10
India,Jammu_and_Kashmir,Srinagar,"Rajbagh, Srinagar - JKSPCB",02-09-2025 07:00:00,34.066206,74.819820,PM2.5,23,29,26
India,Jammu_and_Kashmir,Srinagar,"Rajbagh, Srinagar - JKSPCB",02-09-2025 07:00:00,34.066206,74.819820,CO,11,17,16
India,Jharkhand,Jorapokhar,"Tata Stadium, Jorapokhar - JSPCB",02-09-2025 07:00:00,23.707909,86.414670,SO2,3,3,3
India,Gujarat,Ahmedabad,"Chandkheda, Ahmedabad - IITM",02-09-2025 07:00:00,23.107969,72.574648,NO2,2,9,3
India,Gujarat,Ahmedabad,"Chandkheda, Ahmedabad - IITM",02-09-2025 07:00:00,23.107969,72.574648,CO,20,70,37
India,Gujarat,Ahmedabad,"Gyaspur, Ahmedabad - IITM",02-09-2025 07:00:00,22.977134,72.553024,OZONE,14,20,17
India,Gujarat,Ahmedabad,"Maninagar, Ahmedabad - GPCB",02-09-2025 07:00:00,23.002657,72.591912,SO2,22,28,25
India,Gujarat,Ahmedabad,"Raikhad, Ahmedabad - IITM",02-09-2025 07:00:00,23.020509,72.579261,CO,1,28,1
India,Gujarat,Ahmedabad,"Rakhial, Ahmedabad - IITM",02-09-2025 07:00:00,23.016834,72.625775,SO2,10,15,11
India,Karnataka,Bengaluru,"Jigani, Bengaluru - KSPCB",02-09-2025 07:00:00,12.7816279,77.6299145,PM10,43,59,50
India,Karnataka,Bengaluru,"Jigani, Bengaluru - KSPCB",02-09-2025 07:00:00,12.7816279,77.6299145,NO2,24,31,27
India,Karnataka,Bengaluru,"Jigani, Bengaluru - KSPCB",02-09-2025 07:00:00,12.7816279,77.6299145,CO,32,43,42
India,Karnataka,Bengaluru,"Peenya, Bengaluru - CPCB",02-09-2025 07:00:00,13.0270199,77.494094,SO2,2,9,5
India,Karnataka,Bengaluru,"Sanegurava Halli, Bengaluru - KSPCB",02-09-2025 07:00:00,12.990328,77.5431385,NO2,17,21,18
India,Delhi,Delhi,"Vivek Vihar, Delhi - DPCC",02-09-2025 07:00:00,28.672342,77.315260,PM10,19,54,31
India,Delhi,Delhi,"Vivek Vihar, Delhi - DPCC",02-09-2025 07:00:00,28.672342,77.315260,NH3,5,33,9
India,Delhi,Delhi,"Wazirpur, Delhi - DPCC",02-09-2025 07:00:00,28.699793,77.165453,CO,10,30,18
India,Delhi,Delhi,"Wazirpur, Delhi - DPCC",02-09-2025 07:00:00,28.699793,77.165453,OZONE,8,42,33
India,Madhya Pradesh,Gwalior,"City Center, Gwalior - MPPCB",02-09-2025 07:00:00,26.203442,78.193251,PM2.5,2,19,9
India,Madhya Pradesh,Gwalior,"City Center, Gwalior - MPPCB",02-09-2025 07:00:00,26.203442,78.193251,SO2,2,11,7
India,Madhya Pradesh,Gwalior,"City Center, Gwalior - MPPCB",02-09-2025 07:00:00,26.203442,78.193251,CO,31,42,34
India,Madhya Pradesh,Gwalior,"Deen Dayal Nagar, Gwalior - MPPCB",02-09-2025 07:00:00,26.259242,78.216432,NH3,4,13,7
India,Madhya Pradesh,Gwalior,"Deen Dayal Nagar, Gwalior - MPPCB",02-09-2025 07:00:00,26.259242,78.216432,CO,19,56,29
India,Madhya Pradesh,Gwalior,"Deen Dayal Nagar, Gwalior - MPPCB",02-09-2025 07:00:00,26.259242,78.216432,OZONE,26,63,36
India,Madhya Pradesh,Indore,"Airport Area, Indore - IMC",02-09-2025 07:00:00,22.7289,75.8076,CO,4,5,5
India,Madhya Pradesh,Indore,"Airport Area, Indore - IMC",02-09-2025 07:00:00,22.7289,75.8076,OZONE,1,2,1
India,Madhya Pradesh,Indore,"Chhoti Gwaltoli, Indore - MPPCB",02-09-2025 07:00:00,22.4310,75.5213,PM10,22,100,63
India,Kerala,Kannur,"Thavakkara, Kannur - Kerala PCB",02-09-2025 07:00:00,11.875000,75.373200,NO2,13,14,14
India,Kerala,Kollam,"Polayathode, Kollam - Kerala PCB",02-09-2025 07:00:00,8.8787,76.6073,OZONE,NA,NA,NA
India,Kerala,Thiruvananthapuram,"Kariavattom, Thiruvananthapuram - Kerala PCB",02-09-2025 07:00:00,8.563700,76.886500,NO2,6,7,6
India,Kerala,Thiruvananthapuram,"Kariavattom, Thiruvananthapuram - Kerala PCB",02-09-2025 07:00:00,8.563700,76.886500,SO2,1,23,5
India,Kerala,Thiruvananthapuram,"Plammoodu, Thiruvananthapuram - Kerala PCB",02-09-2025 07:00:00,8.5149093,76.9435879,NO2,55,101,77
India,Kerala,Thiruvananthapuram,"Plammoodu, Thiruvananthapuram - Kerala PCB",02-09-2025 07:00:00,8.5149093,76.9435879,SO2,12,22,16
India,Kerala,Thrissur,"Corporation Ground, Thrissur - Kerala PCB",02-09-2025 07:00:00,10.532400,76.215900,SO2,1,1,1
India,Madhya Pradesh,Indore,"Chhoti Gwaltoli, Indore - MPPCB",02-09-2025 07:00:00,22.4310,75.5213,SO2,8,14,12
India,Madhya Pradesh,Indore,"Chhoti Gwaltoli, Indore - MPPCB",02-09-2025 07:00:00,22.4310,75.5213,OZONE,11,26,22
India,Madhya Pradesh,Indore,"Regional Park, Indore - IMC",02-09-2025 07:00:00,22.6780,75.8559,PM2.5,10,41,18
India,Madhya Pradesh,Indore,"Regional Park, Indore - IMC",02-09-2025 07:00:00,22.6780,75.8559,NH3,1,2,1
India,Madhya Pradesh,Indore,"Residency Area, Indore - IMC",02-09-2025 07:00:00,22.7084,75.8815,NO2,14,18,16
India,Madhya Pradesh,Jabalpur,"Govindh Bhavan Colony, Jabalpur - JMC",02-09-2025 07:00:00,23.163174,79.973061,SO2,26,32,28
India,Madhya Pradesh,Jabalpur,"Govindh Bhavan Colony, Jabalpur - JMC",02-09-2025 07:00:00,23.163174,79.973061,OZONE,9,36,22
India,Karnataka,Tumakuru,"Thimmalapura, Tumakuru - KSPCB",02-09-2025 07:00:00,13.377516,77.099072,NO2,NA,NA,NA
India,Karnataka,Vijayapura,"Ibrahimpur, Vijayapura - KSPCB",02-09-2025 07:00:00,16.802639,75.722694,PM2.5,30,38,37
India,Karnataka,Vijayapura,"Ibrahimpur, Vijayapura - KSPCB",02-09-2025 07:00:00,16.802639,75.722694,PM10,43,44,44
India,Karnataka,Vijayapura,"Ibrahimpur, Vijayapura - KSPCB",02-09-2025 07:00:00,16.802639,75.722694,OZONE,14,17,16
India,Karnataka,Yadgir,"Collector Office, Yadgir - KSPCB",02-09-2025 07:00:00,16.7602,77.1428,NO2,22,43,31
India,Kerala,Eloor,"Udyogamandal, Eloor - Kerala PCB",02-09-2025 07:00:00,10.073232,76.302765,PM2.5,45,83,60
India,Kerala,Eloor,"Udyogamandal, Eloor - Kerala PCB",02-09-2025 07:00:00,10.073232,76.302765,PM10,42,65,51
India,Madhya Pradesh,Sagar,"Civil Lines, Sagar - MPPCB",02-09-2025 07:00:00,23.838586,78.759431,NO2,3,5,4
India,Madhya Pradesh,Sagar,"Civil Lines, Sagar - MPPCB",02-09-2025 07:00:00,23.838586,78.759431,CO,25,45,30
India,Madhya Pradesh,Sagar,"Civil Lines, Sagar - MPPCB",02-09-2025 07:00:00,23.838586,78.759431,OZONE,18,35,22
India,Madhya Pradesh,Satna,"Bandhavgar Colony, Satna - Birla Cement",02-09-2025 07:00:00,24.58434363,80.8549414,NO2,100,148,114
India,Madhya Pradesh,Singrauli,"Suryakiran Bhawan NCL, Singrauli - MPPCB",02-09-2025 07:00:00,24.108970,82.645580,PM2.5,90,315,203
India,Karnataka,Koppal,"Diwator Nagar, Koppal - KSPCB",02-09-2025 07:00:00,15.347630,76.181767,OZONE,6,15,8
India,Karnataka,Mangalore,"Kadri, Mangalore - KSPCB",02-09-2025 07:00:00,12.889250,74.853000,OZONE,10,43,26
India,Karnataka,Mysuru,"Hebbal 1st Stage, Mysuru - KSPCB",02-09-2025 07:00:00,12.21041,76.37376,CO,2,36,8
India,Madhya Pradesh,Bhopal,"Paryavaran Parisar, Bhopal - MPPCB",02-09-2025 07:00:00,23.210494,77.425409,PM10,13,50,33
India,Madhya Pradesh,Bhopal,"T T Nagar, Bhopal - MPPCB",02-09-2025 07:00:00,23.233584,77.400574,PM2.5,16,40,29
India,Madhya Pradesh,Damoh,"Shrivastav Colony, Damoh - MPPCB",02-09-2025 07:00:00,23.81748678,79.446246,CO,24,27,25
India,Madhya Pradesh,Pithampur,"Sector-2 Industrial Area, Pithampur - MPPCB",02-09-2025 07:00:00,22.624758,75.675238,SO2,11,14,12
India,Madhya Pradesh,Ratlam,"Shasthri Nagar, Ratlam - IPCA Lab",02-09-2025 07:00:00,23.331731,75.045981,PM2.5,1,63,27
India,Madhya Pradesh,Dewas,"Bhopal Chauraha, Dewas - MPPCB",02-09-2025 07:00:00,22.9682591,76.064118,CO,6,38,13
India,Maharashtra,Jalgaon,"Prabhat Colony, Jalgaon - MPCB",02-09-2025 07:00:00,21.001264,75.565602,CO,1,24,5
India,Maharashtra,Jalna,"Old MIDC, Jalna - MPCB",02-09-2025 07:00:00,19.854616,75.905894,PM2.5,38,72,52
India,Maharashtra,Jalna,"Old MIDC, Jalna - MPCB",02-09-2025 07:00:00,19.854616,75.905894,OZONE,11,36,16
India,Maharashtra,Kolhapur,"Shivaji University, Kolhapur - MPCB",02-09-2025 07:00:00,16.6870449,74.2505872,SO2,1,2,1
India,Maharashtra,Kolhapur,"Shivaji University, Kolhapur - MPCB",02-09-2025 07:00:00,16.6870449,74.2505872,CO,2,23,6
India,Maharashtra,Kolhapur,"Sinchan Bhavan, Kolhapur - MPCB",02-09-2025 07:00:00,16.7143745,74.2426398,PM2.5,11,29,20
India,Maharashtra,Kolhapur,"Sinchan Bhavan, Kolhapur - MPCB",02-09-2025 07:00:00,16.7143745,74.2426398,NH3,NA,NA,NA
India,Maharashtra,Kolhapur,"Sinchan Bhavan, Kolhapur - MPCB",02-09-2025 07:00:00,16.7143745,74.2426398,CO,1,10,4
India,Maharashtra,Kolhapur,"Sinchan Bhavan, Kolhapur - MPCB",02-09-2025 07:00:00,16.7143745,74.2426398,OZONE,11,24,17
India,Maharashtra,Latur,"Sawe Wadi, Latur - MPCB",02-09-2025 07:00:00,18.39963,76.57452,NO2,5,36,14
India,Maharashtra,Latur,"Sawe Wadi, Latur - MPCB",02-09-2025 07:00:00,18.39963,76.57452,SO2,1,5,4
India,Maharashtra,Mumbai,"Chembur, Mumbai - MPCB",02-09-2025 07:00:00,19.0364585,72.8954371,CO,NA,NA,NA
India,Maharashtra,Mumbai,"Chembur, Mumbai - MPCB",02-09-2025 07:00:00,19.0364585,72.8954371,OZONE,NA,NA,NA
India,Maharashtra,Mumbai,"Chhatrapati Shivaji Intl. Airport (T2), Mumbai - MPCB",02-09-2025 07:00:00,19.10078,72.87462,NO2,27,29,28
India,Maharashtra,Mumbai,"Colaba, Mumbai - MPCB",02-09-2025 07:00:00,18.910000,72.820000,PM2.5,NA,NA,NA
India,Maharashtra,Mumbai,"Colaba, Mumbai - MPCB",02-09-2025 07:00:00,18.910000,72.820000,NO2,22,23,22
India,Maharashtra,Mumbai,"Colaba, Mumbai - MPCB",02-09-2025 07:00:00,18.910000,72.820000,NH3,3,3,3
India,Maharashtra,Mumbai,"Deonar, Mumbai - IITM",02-09-2025 07:00:00,19.04946,72.9230,PM2.5,8,42,18
India,Maharashtra,Mumbai,"Ghatkopar, Mumbai - BMC",02-09-2025 07:00:00,19.083694,72.920967,PM10,18,41,28
India,Maharashtra,Mumbai,"Ghatkopar, Mumbai - BMC",02-09-2025 07:00:00,19.083694,72.920967,NH3,1,3,2
India,Maharashtra,Mumbai,"Ghatkopar, Mumbai - BMC",02-09-2025 07:00:00,19.083694,72.920967,OZONE,1,40,3
India,Maharashtra,Mumbai,"Mazgaon, Mumbai - IITM",02-09-2025 07:00:00,18.96702,72.84214,SO2,1,5,2
India,Maharashtra,Mumbai,"Mazgaon, Mumbai - IITM",02-09-2025 07:00:00,18.96702,72.84214,OZONE,7,16,10
India,Maharashtra,Mumbai,"Mindspace-Malad West, Mumbai - MPCB",02-09-2025 07:00:00,19.1878657,72.8304069,PM2.5,32,35,33
India,Maharashtra,Mumbai,"Mindspace-Malad West, Mumbai - MPCB",02-09-2025 07:00:00,19.1878657,72.8304069,NH3,5,6,6
India,Maharashtra,Mumbai,"Mulund West, Mumbai - MPCB",02-09-2025 07:00:00,19.1750,72.9419,NO2,12,12,12
India,Maharashtra,Mumbai,"Mulund West, Mumbai - MPCB",02-09-2025 07:00:00,19.1750,72.9419,SO2,NA,NA,NA
India,Maharashtra,Mumbai,"Navy Nagar-Colaba, Mumbai - IITM",02-09-2025 07:00:00,18.897756,72.813320,NO2,NA,NA,NA
India,Maharashtra,Mumbai,"Navy Nagar-Colaba, Mumbai - IITM",02-09-2025 07:00:00,18.897756,72.813320,CO,NA,NA,NA
India,Maharashtra,Mumbai,"Sewri, Mumbai - BMC",02-09-2025 07:00:00,19.000084,72.856730,PM2.5,15,31,25
India,Maharashtra,Mumbai,"Sewri, Mumbai - BMC",02-09-2025 07:00:00,19.000084,72.856730,NO2,NA,NA,NA
India,Maharashtra,Aurangabad,"Rachnakar Colony, Aurangabad - MPCB",02-09-2025 07:00:00,19.863756,75.321188,PM2.5,29,36,33
India,Maharashtra,Aurangabad,"Rachnakar Colony, Aurangabad - MPCB",02-09-2025 07:00:00,19.863756,75.321188,SO2,8,28,17
India,Maharashtra,Badlapur,"Katrap, Badlapur - MPCB",02-09-2025 07:00:00,19.16485,73.23409,PM2.5,NA,NA,NA
India,Maharashtra,Badlapur,"Katrap, Badlapur - MPCB",02-09-2025 07:00:00,19.16485,73.23409,NO2,NA,NA,NA
India,Maharashtra,Bhiwandi,"Gokul Nagar, Bhiwandi - MPCB",02-09-2025 07:00:00,19.309073,73.057223,PM10,28,58,48
India,Maharashtra,Bhiwandi,"Gokul Nagar, Bhiwandi - MPCB",02-09-2025 07:00:00,19.309073,73.057223,NO2,31,51,42
India,Maharashtra,Bhiwandi,"Gokul Nagar, Bhiwandi - MPCB",02-09-2025 07:00:00,19.309073,73.057223,NH3,5,9,7
India,Maharashtra,Boisar,"Khaira, Boisar - MPCB",02-09-2025 07:00:00,19.786089,72.757971,PM2.5,25,50,35
India,Maharashtra,Boisar,"Khaira, Boisar - MPCB",02-09-2025 07:00:00,19.786089,72.757971,OZONE,30,31,31
India,Maharashtra,Chandrapur,"MIDC Khutala, Chandrapur - MPCB",02-09-2025 07:00:00,19.9775302,79.2337086,NO2,3,17,10
India,Maharashtra,Chandrapur,"MIDC Khutala, Chandrapur - MPCB",02-09-2025 07:00:00,19.9775302,79.2337086,SO2,1,5,3
India,Maharashtra,Chandrapur,"MIDC Khutala, Chandrapur - MPCB",02-09-2025 07:00:00,19.9775302,79.2337086,CO,54,60,58
