country,state,city,station,last_update,latitude,longitude,pollutant_id,min_value,max_value,avg_value
India,Andhra_Pradesh,Kadapa,"Yerramukkapalli, Kadapa - APPCB",23-10-2025 07:00:00,14.465052,78.824187,OZONE,14,16,15
India,Andhra_Pradesh,Rajamahendravaram,"Anand Kala Kshetram, Rajamahendravaram - APPCB",23-10-2025 07:00:00,16.9872867,81.7363176,NH3,2,9,5
India,Andhra_Pradesh,Rajamahendravaram,"Anand Kala Kshetram, Rajamahendravaram - APPCB",23-10-2025 07:00:00,16.9872867,81.7363176,OZONE,NA,NA,NA
India,Andhra_Pradesh,Tirumala,"Toll Gate, Tirumala - APPCB",23-10-2025 07:00:00,13.67,79.35,PM2.5,3,28,14
India,Andhra_Pradesh,Tirupati,"Vaikuntapuram, Tirupati - APPCB",23-10-2025 07:00:00,13.615387,79.409230,CO,30,48,32
India,Andhra_Pradesh,Tirupati,"Vaikuntapuram, Tirupati - APPCB",23-10-2025 07:00:00,13.615387,79.409230,OZONE,29,30,29
India,Andhra_Pradesh,Vijayawada,"HB Colony, Vijayawada - APPCB",23-10-2025 07:00:00,16.536107,80.594233,PM10,55,87,62
India,Bihar,Bettiah,"Kamalnath Nagar, Bettiah - BSPCB",23-10-2025 07:00:00,26.80365,84.51954,NH3,1,2,1
India,Bihar,Bhagalpur,"DM Office_Kachari Chowk, Bhagalpur - BSPCB",23-10-2025 07:00:00,25.251013,86.989001,SO2,42,82,53
India,Bihar,Bhagalpur,"Mayaganj, Bhagalpur - BSPCB",23-10-2025 07:00:00,25.265194,87.012947,PM2.5,43,308,149
India,Bihar,Bhagalpur,"Mayaganj, Bhagalpur - BSPCB",23-10-2025 07:00:00,25.265194,87.012947,NO2,36,59,56
India,Bihar,Bhagalpur,"Mayaganj, Bhagalpur - BSPCB",23-10-2025 07:00:00,25.265194,87.012947,SO2,23,40,32
India,Bihar,Bihar Sharif,"D M Colony, Bihar Sharif - BSPCB",23-10-2025 07:00:00,25.204762,85.514960,NO2,9,10,10
India,Assam,Byrnihat,"Central Academy for SFS, Byrnihat - PCBA",23-10-2025 07:00:00,26.071318,91.87488,PM10,NA,NA,NA
India,Assam,Byrnihat,"Central Academy for SFS, Byrnihat - PCBA",23-10-2025 07:00:00,26.071318,91.87488,NO2,NA,NA,NA
India,Assam,Guwahati,"IITG, Guwahati - PCBA",23-10-2025 07:00:00,26.2028636,91.70046436,NO2,1,6,2
India,Assam,Guwahati,"LGBI Airport, Guwahati - PCBA",23-10-2025 07:00:00,26.10887,91.589544,NO2,9,73,17
India,Assam,Guwahati,"Pan Bazaar, Guwahati - PCBA",23-10-2025 07:00:00,26.187500,91.744194,SO2,41,78,58
India,Assam,Guwahati,"Pan Bazaar, Guwahati - PCBA",23-10-2025 07:00:00,26.187500,91.744194,OZONE,18,19,18
India,Bihar,Hajipur,"Industrial Area, Hajipur - BSPCB",23-10-2025 07:00:00,25.697189,85.245900,CO,40,104,74
India,Bihar,Katihar,"Mirchaibari, Katihar - BSPCB",23-10-2025 07:00:00,25.560083,87.553265,NH3,1,1,1
India,Bihar,Katihar,"Mirchaibari, Katihar - BSPCB",23-10-2025 07:00:00,25.560083,87.553265,SO2,12,22,16
India,Bihar,Katihar,"Mirchaibari, Katihar - BSPCB",23-10-2025 07:00:00,25.560083,87.553265,CO,48,87,74
India,Bihar,Katihar,"Mirchaibari, Katihar - BSPCB",23-10-2025 07:00:00,25.560083,87.553265,OZONE,4,10,7
India,Bihar,Kishanganj,"SDM Office_Khagra, Kishanganj - BSPCB",23-10-2025 07:00:00,26.0881305,87.93840336,PM10,54,421,174
India,Assam,Guwahati,"Railway Colony, Guwahati - PCBA",23-10-2025 07:00:00,26.181742,91.78063,CO,30,81,43
India,Assam,Nagaon,"Christianpatty, Nagaon - PCBA",23-10-2025 07:00:00,26.349082,92.68449,OZONE,7,9,9
India,Assam,Nalbari,"Bata Chowk, Nalbari - PCBA",23-10-2025 07:00:00,26.446912,91.439057,PM2.5,22,217,71
India,Assam,Silchar,"Tarapur, Silchar - PCBA",23-10-2025 07:00:00,24.82827,92.79525,NO2,18,24,20
India,Assam,Silchar,"Tarapur, Silchar - PCBA",23-10-2025 07:00:00,24.82827,92.79525,SO2,4,6,5
India,Andhra_Pradesh,Amaravati,"Secretariat, Amaravati - APPCB",23-10-2025 07:00:00,16.5150833,80.5181667,NO2,10,25,16
India,Andhra_Pradesh,Anantapur,"Gulzarpet, Anantapur - APPCB",23-10-2025 07:00:00,14.675886,77.593027,NO2,19,25,21
India,Andhra_Pradesh,Anantapur,"Gulzarpet, Anantapur - APPCB",23-10-2025 07:00:00,14.675886,77.593027,NH3,5,6,6
India,Andhra_Pradesh,Anantapur,"Gulzarpet, Anantapur - APPCB",23-10-2025 07:00:00,14.675886,77.593027,OZONE,NA,NA,NA
India,Andhra_Pradesh,Chittoor,"Gangineni Cheruvu, Chittoor - APPCB",23-10-2025 07:00:00,13.204880,79.097889,PM10,40,57,46
India,Assam,Sivasagar,"Girls College, Sivasagar - PCBA",23-10-2025 07:00:00,26.987634,94.636574,CO,12,32,26
India,Bihar,Araria,"Kharahiya Basti, Araria - BSPCB",23-10-2025 07:00:00,26.146529,87.454184,NO2,6,86,24
India,Bihar,Araria,"Kharahiya Basti, Araria - BSPCB",23-10-2025 07:00:00,26.146529,87.454184,NH3,5,5,5
India,Bihar,Arrah,"New DM Office, Arrah - BSPCB",23-10-2025 07:00:00,25.5626095,84.663264,NH3,1,1,1
India,Bihar,Bihar Sharif,"D M Colony, Bihar Sharif - BSPCB",23-10-2025 07:00:00,25.204762,85.514960,NH3,1,2,2
India,Bihar,Buxar,"Charitra Van, Buxar - BSPCB",23-10-2025 07:00:00,25.567520,83.966379,CO,23,30,25
India,Bihar,Chhapra,"Darshan Nagar, Chhapra - BSPCB",23-10-2025 07:00:00,25.7808257,84.7446768,SO2,20,22,20
India,Andhra_Pradesh,Vijayawada,"Rajiv Gandhi Park, Vijayawada - APPCB",23-10-2025 07:00:00,16.509717,80.612222,OZONE,24,35,27
India,Andhra_Pradesh,Visakhapatnam,"GVM Corporation, Visakhapatnam - APPCB",23-10-2025 07:00:00,17.72,83.3,NO2,8,37,20
India,Andaman and Nicobar,Sri Vijaya Puram,"Police Line, Sri Vijaya Puram - ANPCC",23-10-2025 07:00:00,11.654054,92.734055,PM2.5,NA,NA,NA
India,Chhattisgarh,Korba,"Rampur, Korba - CECB",23-10-2025 07:00:00,22.368195,82.746431,NH3,2,2,2
India,Chhattisgarh,Korba,"Rampur, Korba - CECB",23-10-2025 07:00:00,22.368195,82.746431,CO,12,26,21
India,Chhattisgarh,Korba,"Urja Nagar, Korba - CECB",23-10-2025 07:00:00,22.348441,82.549611,PM10,68,73,69
India,Chhattisgarh,Korba,"Urja Nagar, Korba - CECB",23-10-2025 07:00:00,22.348441,82.549611,NO2,23,28,25
India,Chhattisgarh,Korba,"Urja Nagar, Korba - CECB",23-10-2025 07:00:00,22.348441,82.549611,NH3,1,2,2
India,Chhattisgarh,Kunjemura,"OP Jindal School, Kunjemura - CECB",23-10-2025 07:00:00,22.126650,83.483212,PM2.5,20,45,31
India,Chhattisgarh,Kunjemura,"OP Jindal School, Kunjemura - CECB",23-10-2025 07:00:00,22.126650,83.483212,CO,10,39,20
India,Chhattisgarh,Milupara,"Govt. Higher Secondary School, Milupara - CECB",23-10-2025 07:00:00,22.1910172,83.5197009,PM2.5,43,74,57
India,Chhattisgarh,Milupara,"Govt. Higher Secondary School, Milupara - CECB",23-10-2025 07:00:00,22.1910172,83.5197009,NO2,NA,NA,NA
India,Chhattisgarh,Milupara,"Govt. Higher Secondary School, Milupara - CECB",23-10-2025 07:00:00,22.1910172,83.5197009,NH3,NA,NA,NA
India,Chhattisgarh,Milupara,"Govt. Higher Secondary School, Milupara - CECB",23-10-2025 07:00:00,22.1910172,83.5197009,OZONE,11,87,14
India,Bihar,Purnia,"Mariam Nagar, Purnia - BSPCB",23-10-2025 07:00:00,25.366336,87.117468,PM2.5,22,95,68
India,Bihar,Purnia,"Mariam Nagar, Purnia - BSPCB",23-10-2025 07:00:00,25.366336,87.117468,NO2,5,6,6
India,Bihar,Purnia,"Mariam Nagar, Purnia - BSPCB",23-10-2025 07:00:00,25.366336,87.117468,NH3,3,3,3
India,Bihar,Purnia,"Mariam Nagar, Purnia - BSPCB",23-10-2025 07:00:00,25.366336,87.117468,SO2,16,33,17
India,Bihar,Rajgir,"Dangi Tola, Rajgir - BSPCB",23-10-2025 07:00:00,25.03280,85.41948,NO2,8,10,9
India,Bihar,Saharsa,"Police Line, Saharsa - BSPCB",23-10-2025 07:00:00,25.892357,86.590325,SO2,14,17,15
India,Bihar,Saharsa,"Police Line, Saharsa - BSPCB",23-10-2025 07:00:00,25.892357,86.590325,CO,32,39,36
India,Bihar,Samastipur,"DM Office_Kasipur, Samastipur - BSPCB",23-10-2025 07:00:00,25.859655,85.77944,PM10,49,163,100
India,Chhattisgarh,Bhilai,"Civic Center, Bhilai - Bhilai Steel Plant",23-10-2025 07:00:00,21.185571,81.343175,OZONE,7,15,10
India,Chhattisgarh,Bhilai,"Hathkhoj, Bhilai - CECB",23-10-2025 07:00:00,21.224231,81.408350,CO,11,47,32
India,Chhattisgarh,Bilaspur,"Mangala, Bilaspur - NTPC",23-10-2025 07:00:00,22.08815,82.13737,PM10,9,350,104
India,Chhattisgarh,Chhal,"Nawapara SECL Colony, Chhal - CECB",23-10-2025 07:00:00,22.118125,83.140608,PM10,28,118,70
India,Chhattisgarh,Chhal,"Nawapara SECL Colony, Chhal - CECB",23-10-2025 07:00:00,22.118125,83.140608,NO2,1,2,1
India,Chhattisgarh,Korba,"Rampur, Korba - CECB",23-10-2025 07:00:00,22.368195,82.746431,NO2,3,10,6
India,Bihar,Manguraha,"Forest Rest House, Manguraha - BSPCB",23-10-2025 07:00:00,27.308328,84.531742,PM10,51,222,95
India,Bihar,Manguraha,"Forest Rest House, Manguraha - BSPCB",23-10-2025 07:00:00,27.308328,84.531742,SO2,16,17,17
India,Bihar,Motihari,"Gandak Colony, Motihari - BSPCB",23-10-2025 07:00:00,26.63086,84.90051,NO2,7,9,8
India,Bihar,Motihari,"Gandak Colony, Motihari - BSPCB",23-10-2025 07:00:00,26.63086,84.90051,SO2,2,3,2
India,Bihar,Motihari,"Gandak Colony, Motihari - BSPCB",23-10-2025 07:00:00,26.63086,84.90051,CO,32,42,38
India,Bihar,Munger,"Town Hall, Munger - BSPCB",23-10-2025 07:00:00,25.376776,86.471523,CO,20,41,28
India,Chandigarh,Chandigarh,"Sector 22, Chandigarh - CPCC",23-10-2025 07:00:00,30.735567,76.775714,OZONE,1,51,7
India,Chhattisgarh,Bhilai,"32Bungalows, Bhilai - CECB",23-10-2025 07:00:00,21.194815,81.314770,NH3,5,5,5
India,Chhattisgarh,Bhilai,"Civic Center, Bhilai - Bhilai Steel Plant",23-10-2025 07:00:00,21.185571,81.343175,PM2.5,22,151,68
India,Chhattisgarh,Bhilai,"Civic Center, Bhilai - Bhilai Steel Plant",23-10-2025 07:00:00,21.185571,81.343175,PM10,37,122,74
India,Chhattisgarh,Bhilai,"Civic Center, Bhilai - Bhilai Steel Plant",23-10-2025 07:00:00,21.185571,81.343175,NO2,6,11,10
India,Chhattisgarh,Raipur,"AIIMS, Raipur - CECB",23-10-2025 07:00:00,21.258815,81.578979,NO2,14,22,18
India,Chhattisgarh,Raipur,"Bhatagaon New ISBT, Raipur - CECB",23-10-2025 07:00:00,21.219665,81.630094,NO2,10,32,15
India,Chhattisgarh,Raipur,"Krishak Nagar, Raipur - CECB",23-10-2025 07:00:00,21.237755,81.705301,CO,10,23,18
India,Chhattisgarh,Raipur,"Siltara Phase-II, Raipur - CECB",23-10-2025 07:00:00,21.371751,81.664929,SO2,2,13,3
India,Bihar,Patna,"Govt. High School Shikarpur, Patna - BSPCB",23-10-2025 07:00:00,25.592539,85.227158,SO2,6,10,8
India,Bihar,Patna,"IGSC Planetarium Complex, Patna - BSPCB",23-10-2025 07:00:00,25.610369,85.132568,NO2,15,16,16
India,Bihar,Patna,"IGSC Planetarium Complex, Patna - BSPCB",23-10-2025 07:00:00,25.610369,85.132568,OZONE,45,47,45
India,Bihar,Patna,"Samanpura, Patna - BSPCB",23-10-2025 07:00:00,25.596727,85.085624,PM10,157,500,292
India,Bihar,Muzaffarpur,"MIT-Daudpur Kothi, Muzaffarpur - BSPCB",23-10-2025 07:00:00,26.1403345,85.3650192,PM2.5,40,77,53
India,Bihar,Muzaffarpur,"Muzaffarpur Collectorate, Muzaffarpur - BSPCB",23-10-2025 07:00:00,26.1209,85.3647,PM2.5,47,90,70
India,Bihar,Muzaffarpur,"Muzaffarpur Collectorate, Muzaffarpur - BSPCB",23-10-2025 07:00:00,26.1209,85.3647,NO2,9,21,12
India,Bihar,Muzaffarpur,"Muzaffarpur Collectorate, Muzaffarpur - BSPCB",23-10-2025 07:00:00,26.1209,85.3647,OZONE,12,58,58
India,Bihar,Sasaram,"Dada Peer, Sasaram - BSPCB",23-10-2025 07:00:00,24.952822,84.002396,CO,44,94,52
India,Chandigarh,Chandigarh,"Sector 22, Chandigarh - CPCC",23-10-2025 07:00:00,30.735567,76.775714,CO,48,103,65
India,Delhi,Delhi,"Mandir Marg, Delhi - DPCC",23-10-2025 07:00:00,28.636429,77.201067,CO,23,102,66
India,Delhi,Delhi,"Mundka, Delhi - DPCC",23-10-2025 07:00:00,28.684678,77.076574,NO2,40,88,63
India,Delhi,Delhi,"Mundka, Delhi - DPCC",23-10-2025 07:00:00,28.684678,77.076574,NH3,7,12,9
India,Delhi,Delhi,"NSIT Dwarka, Delhi - CPCB",23-10-2025 07:00:00,28.60909,77.0325413,PM2.5,73,308,176
India,Delhi,Delhi,"NSIT Dwarka, Delhi - CPCB",23-10-2025 07:00:00,28.60909,77.0325413,PM10,174,380,268
India,Delhi,Delhi,"NSIT Dwarka, Delhi - CPCB",23-10-2025 07:00:00,28.60909,77.0325413,NO2,59,108,84
India,Delhi,Delhi,"Najafgarh, Delhi - DPCC",23-10-2025 07:00:00,28.570173,76.933762,PM2.5,NA,NA,NA
India,Delhi,Delhi,"Najafgarh, Delhi - DPCC",23-10-2025 07:00:00,28.570173,76.933762,NO2,NA,NA,NA
India,Delhi,Delhi,"Narela, Delhi - DPCC",23-10-2025 07:00:00,28.822836,77.101981,NO2,7,44,22
India,Delhi,Delhi,"Dwarka-Sector 8, Delhi - DPCC ",23-10-2025 07:00:00,28.5710274,77.0719006,CO,62,126,82
India,Delhi,Delhi,"IGI Airport (T3), Delhi - IMD",23-10-2025 07:00:00,28.5627763,77.1180053,OZONE,2,4,3
India,Delhi,Delhi,"IHBAS, Dilshad Garden, Delhi - CPCB",23-10-2025 07:00:00,28.6811736,77.3025234,PM10,146,288,201
India,Delhi,Delhi,"IHBAS, Dilshad Garden, Delhi - CPCB",23-10-2025 07:00:00,28.6811736,77.3025234,CO,57,82,76
India,Delhi,Delhi,"ITO, Delhi - CPCB",23-10-2025 07:00:00,28.628624,77.241060,PM2.5,260,454,351
India,Delhi,Delhi,"ITO, Delhi - CPCB",23-10-2025 07:00:00,28.628624,77.241060,OZONE,5,21,6
India,Delhi,Delhi,"Jahangirpuri, Delhi - DPCC",23-10-2025 07:00:00,28.732820,77.170633,CO,38,110,77
India,Delhi,Delhi,"Narela, Delhi - DPCC",23-10-2025 07:00:00,28.822836,77.101981,SO2,4,23,10
India,Delhi,Delhi,"Nehru Nagar, Delhi - DPCC",23-10-2025 07:00:00,28.567890,77.250515,NO2,12,51,30
India,Delhi,Delhi,"North Campus, DU, Delhi - IMD",23-10-2025 07:00:00,28.6573814,77.1585447,PM10,134,406,210
India,Delhi,Delhi,"North Campus, DU, Delhi - IMD",23-10-2025 07:00:00,28.6573814,77.1585447,CO,16,106,61
India,Delhi,Delhi,"Patparganj, Delhi - DPCC",23-10-2025 07:00:00,28.623763,77.287209,PM10,171,444,294
India,Delhi,Delhi,"Patparganj, Delhi - DPCC",23-10-2025 07:00:00,28.623763,77.287209,NO2,24,142,86
India,Delhi,Delhi,"Patparganj, Delhi - DPCC",23-10-2025 07:00:00,28.623763,77.287209,SO2,8,12,10
India,Chhattisgarh,Tumidih,"OP Jindal Industrial Park, Tumidih - CECB",23-10-2025 07:00:00,22.06631475,83.33820077,PM10,55,116,69
India,Chhattisgarh,Tumidih,"OP Jindal Industrial Park, Tumidih - CECB",23-10-2025 07:00:00,22.06631475,83.33820077,NH3,1,2,2
India,Delhi,Delhi,"Anand Vihar, Delhi - DPCC",23-10-2025 07:00:00,28.647622,77.3158090,PM10,308,500,428
India,Delhi,Delhi,"Anand Vihar, Delhi - DPCC",23-10-2025 07:00:00,28.647622,77.3158090,CO,57,119,96
India,Delhi,Delhi,"Anand Vihar, Delhi - DPCC",23-10-2025 07:00:00,28.647622,77.3158090,OZONE,17,26,20
India,Delhi,Delhi,"R K Puram, Delhi - DPCC",23-10-2025 07:00:00,28.563262,77.186937,OZONE,4,144,4
India,Delhi,Delhi,"Rohini, Delhi - DPCC",23-10-2025 07:00:00,28.732528,77.119920,NO2,5,43,19
India,Delhi,Delhi,"Rohini, Delhi - DPCC",23-10-2025 07:00:00,28.732528,77.119920,SO2,4,11,6
India,Delhi,Delhi,"Rohini, Delhi - DPCC",23-10-2025 07:00:00,28.732528,77.119920,CO,12,38,24
India,Delhi,Delhi,"Shadipur, Delhi - CPCB",23-10-2025 07:00:00,28.6514781,77.1473105,NH3,13,18,16
India,Delhi,Delhi,"Shadipur, Delhi - CPCB",23-10-2025 07:00:00,28.6514781,77.1473105,SO2,4,21,11
India,Delhi,Delhi,"Punjabi Bagh, Delhi - DPCC",23-10-2025 07:00:00,28.674045,77.131023,NO2,29,78,46
India,Delhi,Delhi,"Pusa, Delhi - DPCC",23-10-2025 07:00:00,28.639652,77.146275,PM10,167,430,243
India,Delhi,Delhi,"Pusa, Delhi - DPCC",23-10-2025 07:00:00,28.639652,77.146275,NH3,8,20,15
India,Delhi,Delhi,"Pusa, Delhi - DPCC",23-10-2025 07:00:00,28.639652,77.146275,CO,66,103,80
India,Delhi,Delhi,"Pusa, Delhi - IMD",23-10-2025 07:00:00,28.636110,77.173332,CO,10,104,67
India,Delhi,Delhi,"Lodhi Road, Delhi - IMD",23-10-2025 07:00:00,28.5918245,77.2273074,PM2.5,232,416,331
India,Delhi,Delhi,"Lodhi Road, Delhi - IMD",23-10-2025 07:00:00,28.5918245,77.2273074,PM10,150,394,229
India,Delhi,Delhi,"Major Dhyan Chand National Stadium, Delhi - DPCC",23-10-2025 07:00:00,28.611281,77.237738,PM10,145,413,227
India,Delhi,Delhi,"Major Dhyan Chand National Stadium, Delhi - DPCC",23-10-2025 07:00:00,28.611281,77.237738,CO,18,104,64
India,Delhi,Delhi,"CRRI Mathura Road, Delhi - IMD",23-10-2025 07:00:00,28.5512005,77.2735737,PM10,154,413,274
India,Delhi,Delhi,"CRRI Mathura Road, Delhi - IMD",23-10-2025 07:00:00,28.5512005,77.2735737,NO2,6,58,33
India,Delhi,Delhi,"CRRI Mathura Road, Delhi - IMD",23-10-2025 07:00:00,28.5512005,77.2735737,CO,56,116,97
India,Delhi,Delhi,"Chandni Chowk, Delhi - IITM",23-10-2025 07:00:00,28.656756,77.227234,PM10,175,406,281
India,Delhi,Delhi,"Dr. Karni Singh Shooting Range, Delhi - DPCC",23-10-2025 07:00:00,28.498571,77.264840,SO2,21,32,25
India,Haryana,Fatehabad,"Huda Sector, Fatehabad - HSPCB",23-10-2025 07:00:00,29.503664,75.467934,NO2,18,20,19
India,Haryana,Fatehabad,"Huda Sector, Fatehabad - HSPCB",23-10-2025 07:00:00,29.503664,75.467934,NH3,13,15,14
India,Haryana,Fatehabad,"Huda Sector, Fatehabad - HSPCB",23-10-2025 07:00:00,29.503664,75.467934,SO2,4,30,13
India,Haryana,Gurugram,"NISE Gwal Pahari, Gurugram - IMD",23-10-2025 07:00:00,28.422681,77.148944,PM2.5,18,373,212
India,Haryana,Gurugram,"Sector-51, Gurugram - HSPCB",23-10-2025 07:00:00,28.4227,77.0667,CO,26,92,69
India,Haryana,Gurugram,"Sector-51, Gurugram - HSPCB",23-10-2025 07:00:00,28.4227,77.0667,OZONE,9,14,11
India,Haryana,Gurugram,"Vikas Sadan, Gurugram - HSPCB",23-10-2025 07:00:00,28.4501238,77.0263051,PM10,66,131,107
India,Haryana,Bahadurgarh,"Arya Nagar, Bahadurgarh - HSPCB",23-10-2025 07:00:00,28.6701,76.9254,SO2,6,7,6
India,Haryana,Bahadurgarh,"Arya Nagar, Bahadurgarh - HSPCB",23-10-2025 07:00:00,28.6701,76.9254,CO,22,50,45
India,Haryana,Ballabgarh,"Nathu Colony, Ballabgarh - HSPCB",23-10-2025 07:00:00,28.3419248,77.319699,SO2,NA,NA,NA
India,Haryana,Bhiwani,"H.B. Colony, Bhiwani - HSPCB",23-10-2025 07:00:00,28.806223,76.141105,PM10,75,404,139
India,Haryana,Bhiwani,"H.B. Colony, Bhiwani - HSPCB",23-10-2025 07:00:00,28.806223,76.141105,SO2,12,13,12
India,Haryana,Charkhi Dadri,"Mini Secretariat, Charkhi Dadri - HSPCB",23-10-2025 07:00:00,28.593883,76.270653,PM10,87,284,156
India,Gujarat,Ankleshwar,"GIDC, Ankleshwar - GPCB",23-10-2025 07:00:00,21.613267,73.010555,SO2,NA,NA,NA
India,Gujarat,Gandhinagar,"GIFT City, Gandhinagar - IITM",23-10-2025 07:00:00,23.163798,72.677768,PM2.5,64,145,98
India,Gujarat,Gandhinagar,"GIFT City, Gandhinagar - IITM",23-10-2025 07:00:00,23.163798,72.677768,PM10,103,140,125
India,Gujarat,Gandhinagar,"GIFT City, Gandhinagar - IITM",23-10-2025 07:00:00,23.163798,72.677768,CO,35,50,39
India,Gujarat,Gandhinagar,"IIPHG Lekawada, Gandhinagar - IITM",23-10-2025 07:00:00,23.243639,72.68994,OZONE,7,45,15
India,Gujarat,Gandhinagar,"Sector-10, Gandhinagar - GPCB",23-10-2025 07:00:00,23.221714,72.654328,PM2.5,42,120,62
India,Delhi,Delhi,"Sonia Vihar, Delhi - DPCC",23-10-2025 07:00:00,28.710508,77.249485,OZONE,6,132,6
India,Delhi,Delhi,"Sri Aurobindo Marg, Delhi - DPCC",23-10-2025 07:00:00,28.531346,77.190156,PM10,123,312,183
India,Delhi,Delhi,"Vivek Vihar, Delhi - DPCC",23-10-2025 07:00:00,28.672342,77.315260,PM10,156,421,252
India,Delhi,Delhi,"Vivek Vihar, Delhi - DPCC",23-10-2025 07:00:00,28.672342,77.315260,NO2,23,100,51
India,Delhi,Delhi,"Vivek Vihar, Delhi - DPCC",23-10-2025 07:00:00,28.672342,77.315260,CO,44,114,71
India,Delhi,Delhi,"Wazirpur, Delhi - DPCC",23-10-2025 07:00:00,28.699793,77.165453,PM2.5,237,457,364
India,Gujarat,Ahmedabad,"Rakhial, Ahmedabad - IITM",23-10-2025 07:00:00,23.016834,72.625775,SO2,6,25,11
India,Gujarat,Ahmedabad,"SAC ISRO Bopal, Ahmedabad - IITM",23-10-2025 07:00:00,23.041137,72.456691,PM2.5,55,209,100
India,Gujarat,Ahmedabad,"SAC ISRO Bopal, Ahmedabad - IITM",23-10-2025 07:00:00,23.041137,72.456691,CO,25,57,48
India,Gujarat,Ahmedabad,"SAC ISRO Satellite, Ahmedabad - IITM",23-10-2025 07:00:00,23.023389,72.515201,NO2,13,100,44
India,Gujarat,Ahmedabad,"SAC ISRO Satellite, Ahmedabad - IITM",23-10-2025 07:00:00,23.023389,72.515201,CO,5,94,40
India,Gujarat,Ahmedabad,"SAC ISRO Satellite, Ahmedabad - IITM",23-10-2025 07:00:00,23.023389,72.515201,OZONE,4,57,30
India,Haryana,Jind,"Police Lines, Jind - HSPCB",23-10-2025 07:00:00,29.307814,76.337619,PM10,110,182,150
India,Haryana,Jind,"Police Lines, Jind - HSPCB",23-10-2025 07:00:00,29.307814,76.337619,OZONE,1,3,1
India,Haryana,Karnal,"Sector-12, Karnal - HSPCB",23-10-2025 07:00:00,29.695300,77.002700,CO,41,62,50
India,Haryana,Kurukshetra,"Sector-7, Kurukshetra - HSPCB",23-10-2025 07:00:00,29.966942,76.875879,PM2.5,98,389,260
India,Gujarat,Ahmedabad,"Gyaspur, Ahmedabad - IITM",23-10-2025 07:00:00,22.977134,72.553024,NH3,NA,NA,NA
India,Gujarat,Ahmedabad,"Maninagar, Ahmedabad - GPCB",23-10-2025 07:00:00,23.002657,72.591912,SO2,16,28,23
India,Gujarat,Ahmedabad,"Maninagar, Ahmedabad - GPCB",23-10-2025 07:00:00,23.002657,72.591912,OZONE,46,100,76
India,Gujarat,Ahmedabad,"Rakhial, Ahmedabad - IITM",23-10-2025 07:00:00,23.016834,72.625775,PM2.5,67,301,124
India,Gujarat,Surat,"Science Center, Surat - SMC",23-10-2025 07:00:00,21.170046,72.795405,CO,34,36,36
India,Gujarat,Vapi,"Phase-1 GIDC, Vapi - GPCB",23-10-2025 07:00:00,20.362421,72.918013,NH3,10,10,10
India,Gujarat,Vatva,"Phase-4 GIDC, Vatva - GPCB",23-10-2025 07:00:00,22.969611,72.643500,NH3,2,3,3
India,Haryana,Faridabad,"New Industrial Town, Faridabad - HSPCB",23-10-2025 07:00:00,28.39072,77.30059,PM10,164,169,167
India,Haryana,Faridabad,"New Industrial Town, Faridabad - HSPCB",23-10-2025 07:00:00,28.39072,77.30059,CO,10,12,11
India,Haryana,Faridabad,"Sector 30, Faridabad - HSPCB",23-10-2025 07:00:00,28.4417,77.3217,PM10,164,169,167
India,Haryana,Yamuna Nagar,"Gobind Pura, Yamuna Nagar - HSPCB",23-10-2025 07:00:00,30.1480566,77.2893471,NO2,10,12,11
India,Haryana,Yamuna Nagar,"Gobind Pura, Yamuna Nagar - HSPCB",23-10-2025 07:00:00,30.1480566,77.2893471,NH3,8,10,10
India,Himachal Pradesh,Baddi,"HIMUDA Complex Phase-1, Baddi - HPPCB",23-10-2025 07:00:00,30.943887,76.801991,PM2.5,72,303,142
India,Himachal Pradesh,Baddi,"HIMUDA Complex Phase-1, Baddi - HPPCB",23-10-2025 07:00:00,30.943887,76.801991,NO2,11,39,23
India,Himachal Pradesh,Baddi,"HIMUDA Complex Phase-1, Baddi - HPPCB",23-10-2025 07:00:00,30.943887,76.801991,NH3,4,5,4
India,Himachal Pradesh,Baddi,"HIMUDA Complex Phase-1, Baddi - HPPCB",23-10-2025 07:00:00,30.943887,76.801991,CO,44,66,49
India,Jharkhand,Dhanbad,"Sardar Patel Nagar, Dhanbad - JSPCB",23-10-2025 07:00:00,23.80569,86.44268,CO,1,32,11
India,Jharkhand,Dhanbad,"Sardar Patel Nagar, Dhanbad - JSPCB",23-10-2025 07:00:00,23.80569,86.44268,OZONE,1,32,2
India,Karnataka,Belgaum,"Ramteerth Nagar, Belgaum - KSPCB",23-10-2025 07:00:00,15.888653,74.541751,PM10,8,45,25
India,Karnataka,Belgaum,"Ramteerth Nagar, Belgaum - KSPCB",23-10-2025 07:00:00,15.888653,74.541751,NH3,NA,NA,NA
India,Karnataka,Bengaluru,"BTM Layout, Bengaluru - CPCB",23-10-2025 07:00:00,12.9135218,77.5950804,PM2.5,47,145,65
India,Karnataka,Bengaluru,"BTM Layout, Bengaluru - CPCB",23-10-2025 07:00:00,12.9135218,77.5950804,SO2,24,39,27
India,Karnataka,Bengaluru,"BWSSB Kadabesanahalli, Bengaluru - CPCB",23-10-2025 07:00:00,12.9352049,77.6814488,PM2.5,58,59,59
India,Karnataka,Bengaluru,"BWSSB Kadabesanahalli, Bengaluru - CPCB",23-10-2025 07:00:00,12.9352049,77.6814488,PM10,41,132,88
India,Karnataka,Bengaluru,"BWSSB Kadabesanahalli, Bengaluru - CPCB",23-10-2025 07:00:00,12.9352049,77.6814488,CO,4,38,11
India,Haryana,Panipat,"Sector-18, Panipat - HSPCB",23-10-2025 07:00:00,29.432304,76.972765,NO2,31,32,31
India,Haryana,Panipat,"Sector-18, Panipat - HSPCB",23-10-2025 07:00:00,29.432304,76.972765,SO2,7,10,8
India,Haryana,Rohtak,"MD University, Rohtak - HSPCB",23-10-2025 07:00:00,28.52123,76.37138,PM2.5,191,500,312
India,Haryana,Sirsa,"F-Block, Sirsa - HSPCB",23-10-2025 07:00:00,29.536400,75.015800,PM10,92,219,129
India,Haryana,Sirsa,"F-Block, Sirsa - HSPCB",23-10-2025 07:00:00,29.536400,75.015800,CO,40,84,55
India,Haryana,Sonipat,"Murthal, Sonipat - HSPCB",23-10-2025 07:00:00,29.027200,77.062100,PM2.5,78,377,230
India,Karnataka,Chamarajanagar,"Urban, Chamarajanagar - KSPCB",23-10-2025 07:00:00,11.55358,76.55521,NO2,14,51,30
India,Karnataka,Chamarajanagar,"Urban, Chamarajanagar - KSPCB",23-10-2025 07:00:00,11.55358,76.55521,OZONE,13,30,17
India,Karnataka,Chikkamagaluru,"Kalyana Nagara, Chikkamagaluru - KSPCB",23-10-2025 07:00:00,13.328028,75.797056,PM2.5,8,53,23
India,Karnataka,Chikkamagaluru,"Kalyana Nagara, Chikkamagaluru - KSPCB",23-10-2025 07:00:00,13.328028,75.797056,OZONE,8,14,14
India,Karnataka,Davanagere,"Devaraj Urs Badavane, Davanagere - KSPCB",23-10-2025 07:00:00,14.475800,75.905200,PM2.5,NA,NA,NA
India,Karnataka,Davanagere,"Devaraj Urs Badavane, Davanagere - KSPCB",23-10-2025 07:00:00,14.475800,75.905200,OZONE,19,23,22
India,Karnataka,Bengaluru,"Jayanagar 5th Block, Bengaluru - KSPCB",23-10-2025 07:00:00,12.920984,77.584908,OZONE,12,56,39
India,Karnataka,Bengaluru,"Jigani, Bengaluru - KSPCB",23-10-2025 07:00:00,12.7816279,77.6299145,PM2.5,22,186,70
India,Karnataka,Bengaluru,"Jigani, Bengaluru - KSPCB",23-10-2025 07:00:00,12.7816279,77.6299145,NH3,4,8,6
India,Karnataka,Bengaluru,"Kasturi Nagar, Bengaluru - KSPCB",23-10-2025 07:00:00,13.003872,77.664217,NO2,30,31,31
India,Karnataka,Bengaluru,"RVCE-Mailasandra, Bengaluru - KSPCB",23-10-2025 07:00:00,12.921418,77.502466,PM2.5,47,60,54
India,Karnataka,Bengaluru,"City Railway Station, Bengaluru - KSPCB",23-10-2025 07:00:00,12.9756843,77.5660749,SO2,11,21,14
India,Karnataka,Bengaluru,"Hebbal, Bengaluru - KSPCB",23-10-2025 07:00:00,13.029152,77.585901,PM2.5,2,315,67
India,Karnataka,Bengaluru,"Hebbal, Bengaluru - KSPCB",23-10-2025 07:00:00,13.029152,77.585901,PM10,3,152,33
India,Karnataka,Bengaluru,"Hombegowda Nagar, Bengaluru - KSPCB",23-10-2025 07:00:00,12.938539,77.590100,NO2,5,26,14
India,Karnataka,Bengaluru,"Jayanagar 5th Block, Bengaluru - KSPCB",23-10-2025 07:00:00,12.920984,77.584908,PM2.5,7,328,59
India,Haryana,Mandikhera,"General Hospital, Mandikhera - HSPCB",23-10-2025 07:00:00,27.9002,76.9938,NH3,12,14,14
India,Haryana,Narnaul,"Shastri Nagar, Narnaul - HSPCB",23-10-2025 07:00:00,28.060249,76.113115,OZONE,39,58,54
India,Haryana,Palwal,"Shyam Nagar, Palwal - HSPCB",23-10-2025 07:00:00,28.1485564,77.3320667,PM10,93,97,96
India,Karnataka,Bengaluru,"RVCE-Mailasandra, Bengaluru - KSPCB",23-10-2025 07:00:00,12.921418,77.502466,OZONE,16,33,32
India,Karnataka,Bengaluru,"Silk Board, Bengaluru - KSPCB",23-10-2025 07:00:00,12.917348,77.622813,CO,20,32,24
India,Haryana,Panchkula,"Sector-6, Panchkula - HSPCB ",23-10-2025 07:00:00,30.7057778,76.8531805555555,NO2,24,27,25
India,Karnataka,Mysuru,"Hebbal 1st Stage, Mysuru - KSPCB",23-10-2025 07:00:00,12.21041,76.37376,NH3,3,11,6
India,Karnataka,Mysuru,"Hebbal 1st Stage, Mysuru - KSPCB",23-10-2025 07:00:00,12.21041,76.37376,SO2,1,36,7
India,Karnataka,Mysuru,"Hebbal 1st Stage, Mysuru - KSPCB",23-10-2025 07:00:00,12.21041,76.37376,OZONE,5,50,10
India,Karnataka,Ramanagara,"Vijay Nagar, Ramanagara - KSPCB",23-10-2025 07:00:00,12.733409,77.298051,PM2.5,3,40,18
India,Karnataka,Ramanagara,"Vijay Nagar, Ramanagara - KSPCB",23-10-2025 07:00:00,12.733409,77.298051,NO2,43,58,50
India,Karnataka,Shivamogga,"Vinoba Nagara, Shivamogga - KSPCB",23-10-2025 07:00:00,13.940000,75.555917,NO2,5,209,33
India,Karnataka,Udupi,"Brahmagiri, Udupi - KSPCB",23-10-2025 07:00:00,13.34194444,74.74694444,NO2,NA,NA,NA
India,Karnataka,Udupi,"Brahmagiri, Udupi - KSPCB",23-10-2025 07:00:00,13.34194444,74.74694444,SO2,7,7,7
India,Madhya Pradesh,Dewas,"Bhopal Chauraha, Dewas - MPPCB",23-10-2025 07:00:00,22.9682591,76.064118,SO2,20,77,39
India,Madhya Pradesh,Gwalior,"City Center, Gwalior - MPPCB",23-10-2025 07:00:00,26.203442,78.193251,PM10,102,223,138
India,Madhya Pradesh,Gwalior,"City Center, Gwalior - MPPCB",23-10-2025 07:00:00,26.203442,78.193251,NH3,3,4,3
India,Madhya Pradesh,Gwalior,"Deen Dayal Nagar, Gwalior - MPPCB",23-10-2025 07:00:00,26.259242,78.216432,PM2.5,67,379,195
India,Madhya Pradesh,Gwalior,"Deen Dayal Nagar, Gwalior - MPPCB",23-10-2025 07:00:00,26.259242,78.216432,NO2,8,115,31
India,Madhya Pradesh,Gwalior,"Deen Dayal Nagar, Gwalior - MPPCB",23-10-2025 07:00:00,26.259242,78.216432,NH3,7,10,8
India,Madhya Pradesh,Gwalior,"Maharaj Bada, Gwalior - MPPCB",23-10-2025 07:00:00,26.200388,78.147714,SO2,12,26,18
India,Kerala,Thiruvananthapuram,"Plammoodu, Thiruvananthapuram - Kerala PCB",23-10-2025 07:00:00,8.5149093,76.9435879,NO2,59,101,77
India,Kerala,Thiruvananthapuram,"Plammoodu, Thiruvananthapuram - Kerala PCB",23-10-2025 07:00:00,8.5149093,76.9435879,NH3,5,11,7
India,Kerala,Thiruvananthapuram,"Plammoodu, Thiruvananthapuram - Kerala PCB",23-10-2025 07:00:00,8.5149093,76.9435879,CO,4,42,9
India,Kerala,Thrissur,"Corporation Ground, Thrissur - Kerala PCB",23-10-2025 07:00:00,10.532400,76.215900,PM2.5,47,64,53
India,Kerala,Thrissur,"Corporation Ground, Thrissur - Kerala PCB",23-10-2025 07:00:00,10.532400,76.215900,NO2,9,11,9
India,Kerala,Thrissur,"Corporation Ground, Thrissur - Kerala PCB",23-10-2025 07:00:00,10.532400,76.215900,SO2,1,1,1
India,Madhya Pradesh,Bhopal,"Idgah Hills, Bhopal - MPPCB",23-10-2025 07:00:00,23.264759,77.381568,PM10,84,275,130
India,Karnataka,Dharwad,"Kalabhavan, Dharwad - KSPCB",23-10-2025 07:00:00,15.459706,75.008381,NO2,16,27,21
India,Karnataka,Dharwad,"Kalabhavan, Dharwad - KSPCB",23-10-2025 07:00:00,15.459706,75.008381,NH3,4,7,5
India,Karnataka,Gadag,"Panchal Nagar, Gadag - KSPCB",23-10-2025 07:00:00,15.411456,75.638133,OZONE,4,48,22
India,Karnataka,Hassan,"B.Katihalli, Hassan - KSPCB",23-10-2025 07:00:00,13.008556,76.125258,PM10,36,94,61
India,Karnataka,Hassan,"B.Katihalli, Hassan - KSPCB",23-10-2025 07:00:00,13.008556,76.125258,NO2,7,30,15
India,Karnataka,Haveri,"Ashwini Nagar, Haveri - KSPCB",23-10-2025 07:00:00,14.791800,75.389600,PM10,NA,NA,NA
India,Karnataka,Haveri,"Ashwini Nagar, Haveri - KSPCB",23-10-2025 07:00:00,14.791800,75.389600,CO,44,54,45
India,Karnataka,Hubballi,"Deshpande Nagar, Hubballi - KSPCB",23-10-2025 07:00:00,15.351773,75.140726,NH3,4,4,4
India,Karnataka,Hubballi,"Lingaraj Nagar, Hubballi - KSPCB",23-10-2025 07:00:00,15.3714823,75.1160168,PM2.5,32,50,39
India,Karnataka,Hubballi,"Lingaraj Nagar, Hubballi - KSPCB",23-10-2025 07:00:00,15.3714823,75.1160168,SO2,1,2,2
India,Karnataka,Kalaburagi,"Lal Bahadur Shastri Nagar, Kalaburagi - KSPCB",23-10-2025 07:00:00,17.321993,76.822628,CO,29,32,32
India,Karnataka,Kalaburagi,"Lal Bahadur Shastri Nagar, Kalaburagi - KSPCB",23-10-2025 07:00:00,17.321993,76.822628,OZONE,20,20,20
India,Karnataka,Kalaburagi,"Mahatma Basaveswar Colony, Kalaburgi - KSPCB",23-10-2025 07:00:00,17.336318,76.847397,NH3,2,5,3
India,Karnataka,Vijayapura,"Ibrahimpur, Vijayapura - KSPCB",23-10-2025 07:00:00,16.802639,75.722694,PM2.5,63,64,64
India,Karnataka,Vijayapura,"Ibrahimpur, Vijayapura - KSPCB",23-10-2025 07:00:00,16.802639,75.722694,NH3,1,1,1
India,Kerala,Eloor,"Udyogamandal, Eloor - Kerala PCB",23-10-2025 07:00:00,10.073232,76.302765,SO2,1,1,1
India,Kerala,Eloor,"Udyogamandal, Eloor - Kerala PCB",23-10-2025 07:00:00,10.073232,76.302765,CO,16,113,46
India,Kerala,Kannur,"Thavakkara, Kannur - Kerala PCB",23-10-2025 07:00:00,11.875000,75.373200,NH3,2,2,2
India,Kerala,Kannur,"Thavakkara, Kannur - Kerala PCB",23-10-2025 07:00:00,11.875000,75.373200,OZONE,28,30,28
India,Madhya Pradesh,Indore,"Chhoti Gwaltoli, Indore - MPPCB",23-10-2025 07:00:00,22.4310,75.5213,CO,25,63,39
India,Madhya Pradesh,Indore,"Regional Park, Indore - IMC",23-10-2025 07:00:00,22.6780,75.8559,SO2,18,24,22
India,Madhya Pradesh,Indore,"Residency Area, Indore - IMC",23-10-2025 07:00:00,22.7084,75.8815,PM2.5,39,380,74
India,Madhya Pradesh,Bhopal,"Paryavaran Parisar, Bhopal - MPPCB",23-10-2025 07:00:00,23.210494,77.425409,PM2.5,55,350,180
India,Madhya Pradesh,Bhopal,"T T Nagar, Bhopal - MPPCB",23-10-2025 07:00:00,23.233584,77.400574,NH3,5,6,6
India,Madhya Pradesh,Bhopal,"T T Nagar, Bhopal - MPPCB",23-10-2025 07:00:00,23.233584,77.400574,OZONE,12,98,29
India,Karnataka,Koppal,"Diwator Nagar, Koppal - KSPCB",23-10-2025 07:00:00,15.347630,76.181767,NO2,26,31,29
India,Maharashtra,Badlapur,"Katrap, Badlapur - MPCB",23-10-2025 07:00:00,19.16485,73.23409,CO,NA,NA,NA
India,Maharashtra,Belapur,"CBD Belapur, Belapur - MPCB",23-10-2025 07:00:00,19.0243902,73.0406721,PM2.5,24,272,86
India,Maharashtra,Belapur,"CBD Belapur, Belapur - MPCB",23-10-2025 07:00:00,19.0243902,73.0406721,PM10,65,148,96
India,Maharashtra,Belapur,"CBD Belapur, Belapur - MPCB",23-10-2025 07:00:00,19.0243902,73.0406721,NO2,2,4,3
India,Maharashtra,Bhiwandi,"Gokul Nagar, Bhiwandi - MPCB",23-10-2025 07:00:00,19.309073,73.057223,NH3,3,7,5
India,Maharashtra,Bhiwandi,"Gokul Nagar, Bhiwandi - MPCB",23-10-2025 07:00:00,19.309073,73.057223,CO,12,26,21
India,Maharashtra,Boisar,"Khaira, Boisar - MPCB",23-10-2025 07:00:00,19.786089,72.757971,PM2.5,26,81,48
India,Maharashtra,Boisar,"Khaira, Boisar - MPCB",23-10-2025 07:00:00,19.786089,72.757971,NH3,5,8,6
India,Madhya Pradesh,Jabalpur,"Marhatal, Jabalpur - MPPCB",23-10-2025 07:00:00,23.168606,79.932247,PM10,38,108,66
India,Madhya Pradesh,Jabalpur,"Marhatal, Jabalpur - MPPCB",23-10-2025 07:00:00,23.168606,79.932247,NO2,8,51,20
India,Madhya Pradesh,Jabalpur,"Marhatal, Jabalpur - MPPCB",23-10-2025 07:00:00,23.168606,79.932247,SO2,5,35,26
India,Madhya Pradesh,Jabalpur,"Marhatal, Jabalpur - MPPCB",23-10-2025 07:00:00,23.168606,79.932247,OZONE,28,52,28
India,Madhya Pradesh,Katni,"Gole Bazar, Katni - MPPCB",23-10-2025 07:00:00,23.50016,80.23284,PM2.5,30,143,75
India,Madhya Pradesh,Katni,"Gole Bazar, Katni - MPPCB",23-10-2025 07:00:00,23.50016,80.23284,NO2,14,54,36
India,Madhya Pradesh,Maihar,"Sahilara, Maihar - KJS Cements",23-10-2025 07:00:00,24.2613009,80.7231783,PM2.5,16,222,94
India,Madhya Pradesh,Maihar,"Sahilara, Maihar - KJS Cements",23-10-2025 07:00:00,24.2613009,80.7231783,SO2,16,17,16
India,Madhya Pradesh,Pithampur,"Sector-2 Industrial Area, Pithampur - MPPCB",23-10-2025 07:00:00,22.624758,75.675238,PM10,51,165,107
India,Madhya Pradesh,Pithampur,"Sector-2 Industrial Area, Pithampur - MPPCB",23-10-2025 07:00:00,22.624758,75.675238,SO2,16,19,18
India,Madhya Pradesh,Ratlam,"Shasthri Nagar, Ratlam - IPCA Lab",23-10-2025 07:00:00,23.331731,75.045981,PM2.5,58,163,100
India,Madhya Pradesh,Satna,"Bandhavgar Colony, Satna - Birla Cement",23-10-2025 07:00:00,24.58434363,80.8549414,PM10,69,72,71
India,Maharashtra,Chandrapur,"Chauhan Colony, Chandrapur - MPCB",23-10-2025 07:00:00,19.962900,79.298714,SO2,29,29,29
India,Maharashtra,Jalgaon,"Prabhat Colony, Jalgaon - MPCB",23-10-2025 07:00:00,21.001264,75.565602,PM10,34,387,90
India,Maharashtra,Jalgaon,"Prabhat Colony, Jalgaon - MPCB",23-10-2025 07:00:00,21.001264,75.565602,NH3,2,3,3
India,Maharashtra,Jalna,"Old MIDC, Jalna - MPCB",23-10-2025 07:00:00,19.854616,75.905894,PM2.5,33,438,153
India,Maharashtra,Jalna,"Old MIDC, Jalna - MPCB",23-10-2025 07:00:00,19.854616,75.905894,NO2,36,50,45
India,Madhya Pradesh,Singrauli,"Suryakiran Bhawan NCL, Singrauli - MPPCB",23-10-2025 07:00:00,24.108970,82.645580,CO,12,16,12
India,Maharashtra,Ahmednagar,"Tarakpur, Ahmednagar - MPCB",23-10-2025 07:00:00,19.10122,74.73339,NO2,16,29,21
India,Maharashtra,Akola,"Ramdaspeth, Akola - MPCB",23-10-2025 07:00:00,20.719516,77.000253,NH3,7,11,9
India,Maharashtra,Akola,"Ramdaspeth, Akola - MPCB",23-10-2025 07:00:00,20.719516,77.000253,SO2,15,20,16
India,Maharashtra,Kalyan,"Pimpleshwar Mandir, Kalyan - MPCB",23-10-2025 07:00:00,19.192056,72.9585188,PM2.5,NA,NA,NA
India,Maharashtra,Kolhapur,"Shivaji University, Kolhapur - MPCB",23-10-2025 07:00:00,16.6870449,74.2505872,PM2.5,13,81,36
India,Maharashtra,Kolhapur,"Sinchan Bhavan, Kolhapur - MPCB",23-10-2025 07:00:00,16.7143745,74.2426398,OZONE,2,62,20
India,Maharashtra,Amravati,"Shivneri Colony, Amravati - MPCB",23-10-2025 07:00:00,20.9402359,77.7895248,SO2,14,16,15
India,Maharashtra,Amravati,"Shri Shivaji Science College, Amravati - MPCB",23-10-2025 07:00:00,20.939198,77.765701,OZONE,17,49,20
India,Madhya Pradesh,Jabalpur,"Govindh Bhavan Colony, Jabalpur - JMC",23-10-2025 07:00:00,23.163174,79.973061,SO2,10,13,12
India,Maharashtra,Malegaon,"Mahesh Nagar, Malegaon - MPCB",23-10-2025 07:00:00,20.555712,74.529236,NO2,2,28,14
India,Maharashtra,Mira-Bhayandar,"Bhayandar West, Mira-Bhayandar - MPCB",23-10-2025 07:00:00,19.296481,72.840923,CO,22,40,28
India,Maharashtra,Mumbai,"Bandra Kurla Complex, Mumbai - IITM",23-10-2025 07:00:00,19.053536,72.84643,PM2.5,88,411,208
India,Maharashtra,Mumbai,"Bandra Kurla Complex, Mumbai - MPCB",23-10-2025 07:00:00,19.065931,72.862131,PM2.5,24,272,92
India,Maharashtra,Mumbai,"Borivali East, Mumbai - IITM",23-10-2025 07:00:00,19.23241,72.86895,PM2.5,17,262,106
India,Maharashtra,Mumbai,"Borivali East, Mumbai - IITM",23-10-2025 07:00:00,19.23241,72.86895,OZONE,6,189,18
India,Maharashtra,Mumbai,"Navy Nagar-Colaba, Mumbai - IITM",23-10-2025 07:00:00,18.897756,72.813320,CO,8,26,24
India,Maharashtra,Mumbai,"Navy Nagar-Colaba, Mumbai - IITM",23-10-2025 07:00:00,18.897756,72.813320,OZONE,6,99,12
India,Maharashtra,Mumbai,"Powai, Mumbai - MPCB",23-10-2025 07:00:00,19.137500,72.915056,SO2,27,28,28
India,Maharashtra,Mumbai,"Sewri, Mumbai - BMC",23-10-2025 07:00:00,19.000084,72.856730,NO2,1,10,4
India,Maharashtra,Mumbai,"Sewri, Mumbai - BMC",23-10-2025 07:00:00,19.000084,72.856730,SO2,1,62,18
India,Maharashtra,Mumbai,"Shivaji Nagar, Mumbai - BMC",23-10-2025 07:00:00,19.060498,72.923356,NH3,1,2,2
India,Maharashtra,Mumbai,"Worli, Mumbai - MPCB",23-10-2025 07:00:00,18.9936162,72.8128113,CO,4,20,5
India,Maharashtra,Nagpur,"Ambazari, Nagpur - MPCB",23-10-2025 07:00:00,21.121801,79.04952,PM10,45,122,88
India,Maharashtra,Nagpur,"Ambazari, Nagpur - MPCB",23-10-2025 07:00:00,21.121801,79.04952,NO2,4,53,21
India,Maharashtra,Nagpur,"Mahal, Nagpur - MPCB",23-10-2025 07:00:00,21.14472,79.107595,NO2,11,57,26
India,Maharashtra,Nagpur,"Mahal, Nagpur - MPCB",23-10-2025 07:00:00,21.14472,79.107595,NH3,2,3,2
India,Maharashtra,Nagpur,"Mahal, Nagpur - MPCB",23-10-2025 07:00:00,21.14472,79.107595,CO,21,128,31
India,Maharashtra,Mumbai,"Borivali East, Mumbai - MPCB",23-10-2025 07:00:00,19.2243333,72.8658113,OZONE,13,18,16
India,Maharashtra,Mumbai,"Chakala-Andheri East, Mumbai - IITM",23-10-2025 07:00:00,19.11074,72.86084,OZONE,2,80,10
India,Maharashtra,Mumbai,"Chembur, Mumbai - MPCB",23-10-2025 07:00:00,19.0364585,72.8954371,PM10,49,136,84
India,Maharashtra,Mumbai,"Chhatrapati Shivaji Intl. Airport (T2), Mumbai - MPCB",23-10-2025 07:00:00,19.10078,72.87462,PM10,NA,NA,NA
India,Maharashtra,Mumbai,"Colaba, Mumbai - MPCB",23-10-2025 07:00:00,18.910000,72.820000,PM2.5,31,75,49
India,Maharashtra,Mumbai,"Deonar, Mumbai - IITM",23-10-2025 07:00:00,19.04946,72.9230,NH3,12,16,14
India,Maharashtra,Mumbai,"Ghatkopar, Mumbai - BMC",23-10-2025 07:00:00,19.083694,72.920967,NH3,2,6,3
India,Maharashtra,Mumbai,"Ghatkopar, Mumbai - BMC",23-10-2025 07:00:00,19.083694,72.920967,CO,14,26,21
India,Maharashtra,Mumbai,"Ghatkopar, Mumbai - BMC",23-10-2025 07:00:00,19.083694,72.920967,OZONE,5,144,7
India,Maharashtra,Mumbai,"Siddharth Nagar-Worli, Mumbai - IITM",23-10-2025 07:00:00,19.000083,72.813993,PM10,44,156,82
India,Maharashtra,Mumbai,"Siddharth Nagar-Worli, Mumbai - IITM",23-10-2025 07:00:00,19.000083,72.813993,NO2,33,90,53
India,Maharashtra,Mumbai,"Siddharth Nagar-Worli, Mumbai - IITM",23-10-2025 07:00:00,19.000083,72.813993,NH3,4,7,5
India,Maharashtra,Mumbai,"Sion, Mumbai - MPCB",23-10-2025 07:00:00,19.047000,72.874600,PM2.5,21,250,61
India,Maharashtra,Mumbai,"Sion, Mumbai - MPCB",23-10-2025 07:00:00,19.047000,72.874600,OZONE,10,15,14
India,Maharashtra,Nagpur,"Ram Nagar, Nagpur - MPCB",23-10-2025 07:00:00,21.143383,79.048912,PM2.5,28,323,126
India,Maharashtra,Nagpur,"Ram Nagar, Nagpur - MPCB",23-10-2025 07:00:00,21.143383,79.048912,PM10,63,157,107
India,Maharashtra,Nagpur,"Ram Nagar, Nagpur - MPCB",23-10-2025 07:00:00,21.143383,79.048912,NH3,2,5,3
India,Maharashtra,Nagpur,"Ram Nagar, Nagpur - MPCB",23-10-2025 07:00:00,21.143383,79.048912,OZONE,9,59,18
India,Maharashtra,Nashik,"Hirawadi, Nashik - MPCB",23-10-2025 07:00:00,20.021503,73.813844,PM10,29,106,54
India,Maharashtra,Mumbai,"Malad West, Mumbai - IITM",23-10-2025 07:00:00,19.19709,72.82204,SO2,7,11,8
India,Maharashtra,Mumbai,"Mindspace-Malad West, Mumbai - MPCB",23-10-2025 07:00:00,19.1878657,72.8304069,PM2.5,6,416,119
India,Maharashtra,Mumbai,"Mindspace-Malad West, Mumbai - MPCB",23-10-2025 07:00:00,19.1878657,72.8304069,CO,28,70,46
India,Maharashtra,Mumbai,"Mindspace-Malad West, Mumbai - MPCB",23-10-2025 07:00:00,19.1878657,72.8304069,OZONE,8,42,17
India,Maharashtra,Mumbai,"Kandivali West, Mumbai - BMC",23-10-2025 07:00:00,19.215859,72.831718,SO2,1,22,3
India,Maharashtra,Mumbai,"Kandivali West, Mumbai - BMC",23-10-2025 07:00:00,19.215859,72.831718,OZONE,1,62,4
India,Maharashtra,Mumbai,"Kurla, Mumbai - MPCB",23-10-2025 07:00:00,19.0863,72.8888,NH3,1,2,1
India,Maharashtra,Mumbai,"Kurla, Mumbai - MPCB",23-10-2025 07:00:00,19.0863,72.8888,OZONE,28,29,28
India,Maharashtra,Nashik,"MIDC Ambad, Nashik - MPCB",23-10-2025 07:00:00,19.950220,73.731480,PM10,24,84,55
India,Maharashtra,Nashik,"MIDC Ambad, Nashik - MPCB",23-10-2025 07:00:00,19.950220,73.731480,SO2,16,23,18
India,Maharashtra,Nashik,"Pandav Nagari, Nashik - MPCB",23-10-2025 07:00:00,19.9591346,73.7788008,NH3,1,3,2
India,Maharashtra,Nashik,"Pandav Nagari, Nashik - MPCB",23-10-2025 07:00:00,19.9591346,73.7788008,SO2,1,16,10
India,Maharashtra,Nashik,"Pandav Nagari, Nashik - MPCB",23-10-2025 07:00:00,19.9591346,73.7788008,OZONE,8,42,14
India,Maharashtra,Navi Mumbai,"Kopripada-Vashi, Navi Mumbai - MPCB",23-10-2025 07:00:00,19.090337,73.014232,PM10,26,78,43
India,Maharashtra,Navi Mumbai,"Mahape, Navi Mumbai - MPCB",23-10-2025 07:00:00,19.1135051,73.008978,PM10,54,119,75
India,Maharashtra,Pune,"Panchawati_Pashan, Pune - IITM",23-10-2025 07:00:00,18.536457,73.805454,OZONE,3,84,12
India,Maharashtra,Pune,"Savitribai Phule Pune University, Pune - MPCB",23-10-2025 07:00:00,18.547056,73.826908,NH3,1,1,1
India,Maharashtra,Pune,"Savitribai Phule Pune University, Pune - MPCB",23-10-2025 07:00:00,18.547056,73.826908,CO,14,28,23
India,Maharashtra,Pune,"Transport Nagar-Nigdi, Pune - IITM",23-10-2025 07:00:00,18.664282,73.763966,CO,49,80,65
India,Maharashtra,Sangli,"Vijay Nagar, Sangli - MPCB",23-10-2025 07:00:00, 16.5038,74.3623,PM10,20,107,51
India,Maharashtra,Sangli,"Vijay Nagar, Sangli - MPCB",23-10-2025 07:00:00, 16.5038,74.3623,NH3,1,4,3
India,Maharashtra,Virar,"Bolinj, Virar - MPCB",23-10-2025 07:00:00,19.4458210,72.7988231,PM2.5,35,140,70
India,Maharashtra,Virar,"Bolinj, Virar - MPCB",23-10-2025 07:00:00,19.4458210,72.7988231,OZONE,9,42,15
India,Meghalaya,Shillong,"JN Stadium, Shillong - Meghalaya PCB",23-10-2025 07:00:00,25.5803419,91.8942571,OZONE,NA,NA,NA
India,Meghalaya,Shillong,"Lumpyngngad, Shillong - Meghalaya PCB",23-10-2025 07:00:00,25.5586,91.8985,PM2.5,NA,NA,NA
India,Meghalaya,Shillong,"Lumpyngngad, Shillong - Meghalaya PCB",23-10-2025 07:00:00,25.5586,91.8985,PM10,4,30,13
India,Meghalaya,Shillong,"Lumpyngngad, Shillong - Meghalaya PCB",23-10-2025 07:00:00,25.5586,91.8985,SO2,5,6,6
India,Odisha,Barbil,"Forest Office, Barbil - OSPCB",23-10-2025 07:00:00,22.1166054,85.3945546,CO,27,72,44
India,Odisha,Bhubaneswar,"Lingraj Mandir, Bhubaneswar - OSPCB",23-10-2025 07:00:00,20.240790,85.836784,NO2,9,32,21
India,Odisha,Bhubaneswar,"Lingraj Mandir, Bhubaneswar - OSPCB",23-10-2025 07:00:00,20.240790,85.836784,OZONE,38,134,66
India,Odisha,Bhubaneswar,"Patia, Bhubaneswar - OSPCB",23-10-2025 07:00:00,20.34652,85.81630,NO2,10,23,15
India,Odisha,Bhubaneswar,"Patia, Bhubaneswar - OSPCB",23-10-2025 07:00:00,20.34652,85.81630,CO,36,65,52
India,Odisha,Bhubaneswar,"Patia, Bhubaneswar - OSPCB",23-10-2025 07:00:00,20.34652,85.81630,OZONE,4,56,12
India,Maharashtra,Navi Mumbai,"Nerul, Navi Mumbai - MPCB",23-10-2025 07:00:00,19.008751,73.016620,NO2,31,32,32
India,Maharashtra,Navi Mumbai,"Sanpada, Navi Mumbai - MPCB",23-10-2025 07:00:00,19.0575752,73.0151367,NO2,3,7,5
India,Maharashtra,Navi Mumbai,"Sanpada, Navi Mumbai - MPCB",23-10-2025 07:00:00,19.0575752,73.0151367,SO2,6,15,11
India,Maharashtra,Navi Mumbai,"Sector-2E Kalamboli, Navi Mumbai - MPCB",23-10-2025 07:00:00,19.02579,73.10297,OZONE,1,57,2
India,Maharashtra,Solapur,"Dnyaneshwar Nagar, Solapur - MPCB",23-10-2025 07:00:00,17.6336264,75.9132495,CO,8,36,11
India,Maharashtra,Solapur,"Ratandeep Housing Society, Solapur - MPCB",23-10-2025 07:00:00,17.65439,75.90649,PM10,29,85,47
India,Maharashtra,Solapur,"Ratandeep Housing Society, Solapur - MPCB",23-10-2025 07:00:00,17.65439,75.90649,OZONE,12,53,30
India,Maharashtra,Navi Mumbai,"Tondare-Taloja, Navi Mumbai - MPCB",23-10-2025 07:00:00,19.0630,73.1209,CO,30,49,40
India,Maharashtra,Navi Mumbai,"Tondare-Taloja, Navi Mumbai - MPCB",23-10-2025 07:00:00,19.0630,73.1209,OZONE,NA,NA,NA
India,Maharashtra,Parbhani,"Masoom Colony, Parbhani - MPCB",23-10-2025 07:00:00,19.265594,76.761463,CO,8,14,11
India,Nagaland,Kohima,"PWD Junction, Kohima - NPCB",23-10-2025 07:00:00,25.6635413,94.0989878,PM2.5,17,102,62
India,Odisha,Angul,"Hakimapada, Angul - OSPCB",23-10-2025 07:00:00,20.832874,85.104082,OZONE,3,28,3
India,Maharashtra,Pimpri-Chinchwad,"Savta Mali Nagar, Pimpri-Chinchwad - IITM",23-10-2025 07:00:00,18.614767,73.799516,CO,32,82,61
India,Punjab,Mandi Gobindgarh,"RIMT University, Mandi Gobindgarh - PPCB",23-10-2025 07:00:00,30.649961,76.331442,NH3,6,6,6
India,Punjab,Mandi Gobindgarh,"RIMT University, Mandi Gobindgarh - PPCB",23-10-2025 07:00:00,30.649961,76.331442,CO,8,94,24
India,Punjab,Mandi Gobindgarh,"RIMT University, Mandi Gobindgarh - PPCB",23-10-2025 07:00:00,30.649961,76.331442,OZONE,32,35,34
India,Punjab,Patiala,"Model Town, Patiala - PPCB",23-10-2025 07:00:00,30.349388,76.366642,NH3,6,7,6
India,Punjab,Patiala,"Model Town, Patiala - PPCB",23-10-2025 07:00:00,30.349388,76.366642,OZONE,34,35,35
India,Punjab,Rupnagar,"Ratanpura, Rupnagar - Ambuja Cements",23-10-2025 07:00:00,31.0325454,76.5623046,PM2.5,1,341,133
India,Punjab,Rupnagar,"Ratanpura, Rupnagar - Ambuja Cements",23-10-2025 07:00:00,31.0325454,76.5623046,NO2,10,54,24
India,Rajasthan,Ajmer,"Civil Lines,  Ajmer - RSPCB",23-10-2025 07:00:00,26.470859,74.646594,NO2,23,36,32
India,Rajasthan,Ajmer,"Civil Lines,  Ajmer - RSPCB",23-10-2025 07:00:00,26.470859,74.646594,SO2,3,72,28
India,Rajasthan,Alwar,"Moti Doongri, Alwar - RSPCB",23-10-2025 07:00:00,27.554793,76.611536,PM10,90,371,152
India,Rajasthan,Alwar,"Moti Doongri, Alwar - RSPCB",23-10-2025 07:00:00,27.554793,76.611536,NH3,8,18,12
India,Rajasthan,Dausa,"Khatikan Mohalla, Dausa - RSPCB",23-10-2025 07:00:00,26.895552,76.334753,PM10,96,477,181
India,Rajasthan,Dausa,"Khatikan Mohalla, Dausa - RSPCB",23-10-2025 07:00:00,26.895552,76.334753,NH3,7,17,11
India,Rajasthan,Dausa,"Khatikan Mohalla, Dausa - RSPCB",23-10-2025 07:00:00,26.895552,76.334753,SO2,1,7,5
India,Rajasthan,Dausa,"Khatikan Mohalla, Dausa - RSPCB",23-10-2025 07:00:00,26.895552,76.334753,CO,48,92,55
India,Rajasthan,Dholpur,"Raja Ganj, Dholpur - RSPCB",23-10-2025 07:00:00,26.699557,77.898881,PM2.5,72,443,298
India,Rajasthan,Dholpur,"Raja Ganj, Dholpur - RSPCB",23-10-2025 07:00:00,26.699557,77.898881,PM10,112,338,182
India,Rajasthan,Dholpur,"Raja Ganj, Dholpur - RSPCB",23-10-2025 07:00:00,26.699557,77.898881,SO2,7,11,9
India,Rajasthan,Dungarpur,"Bhoiwada, Dungarpur - RSPCB",23-10-2025 07:00:00,23.837789,73.714926,NH3,4,6,5
India,Rajasthan,Hanumangarh,"Housing Board, Hanumangarh - RSPCB",23-10-2025 07:00:00,29.610750,74.283608,PM2.5,48,407,259
India,Rajasthan,Hanumangarh,"Housing Board, Hanumangarh - RSPCB",23-10-2025 07:00:00,29.610750,74.283608,PM10,70,449,210
India,Rajasthan,Hanumangarh,"Housing Board, Hanumangarh - RSPCB",23-10-2025 07:00:00,29.610750,74.283608,NO2,8,78,37
India,Rajasthan,Bharatpur,"Krishna Nagar, Bharatpur - RSPCB",23-10-2025 07:00:00,27.215415,77.50873,NO2,13,78,29
India,Rajasthan,Bharatpur,"Krishna Nagar, Bharatpur - RSPCB",23-10-2025 07:00:00,27.215415,77.50873,NH3,6,8,7
India,Rajasthan,Bhiwadi,"RIICO Ind. Area III, Bhiwadi - RSPCB",23-10-2025 07:00:00,28.194909,76.862296,PM2.5,102,328,235
India,Rajasthan,Bhiwadi,"RIICO Ind. Area III, Bhiwadi - RSPCB",23-10-2025 07:00:00,28.194909,76.862296,PM10,126,283,189
India,Rajasthan,Bhiwadi,"RIICO Ind. Area III, Bhiwadi - RSPCB",23-10-2025 07:00:00,28.194909,76.862296,NH3,9,17,13
India,Rajasthan,Bhiwadi,"RIICO Ind. Area III, Bhiwadi - RSPCB",23-10-2025 07:00:00,28.194909,76.862296,CO,4,100,46
India,Rajasthan,Bikaner,"MM Ground, Bikaner - RSPCB",23-10-2025 07:00:00,28.018792,73.292658,NO2,40,152,83
India,Odisha,Bileipada,"Tata Township, Bileipada - OSPCB",23-10-2025 07:00:00,22.06156703,85.47409613,SO2,8,122,53
India,Odisha,Brajrajnagar,"GM Office, Brajrajnagar - OSPCB",23-10-2025 07:00:00,21.8004996,83.8396977,NO2,14,52,37
India,Odisha,Brajrajnagar,"GM Office, Brajrajnagar - OSPCB",23-10-2025 07:00:00,21.8004996,83.8396977,SO2,15,17,16
India,Odisha,Cuttack,"CDA Area, Cuttack - OSPCB",23-10-2025 07:00:00,20.48891     ,85.84768     ,PM2.5,95,277,157
India,Odisha,Keonjhar,"Jagamohanpur, Keonjhar - OSPCB",23-10-2025 07:00:00,21.643900,85.599355,PM2.5,124,145,133
India,Punjab,Jalandhar,"Civil Line, Jalandhar - PPCB",23-10-2025 07:00:00,31.321907,75.578914,SO2,23,26,24
India,Punjab,Jalandhar,"Civil Line, Jalandhar - PPCB",23-10-2025 07:00:00,31.321907,75.578914,CO,74,90,80
India,Punjab,Jalandhar,"Civil Line, Jalandhar - PPCB",23-10-2025 07:00:00,31.321907,75.578914,OZONE,26,39,36
India,Punjab,Khanna,"Kalal Majra, Khanna - PPCB",23-10-2025 07:00:00,30.736056 ,76.209694,NH3,7,8,7
India,Punjab,Khanna,"Kalal Majra, Khanna - PPCB",23-10-2025 07:00:00,30.736056 ,76.209694,OZONE,35,35,35
India,Punjab,Ludhiana,"Punjab Agricultural University, Ludhiana - PPCB",23-10-2025 07:00:00,30.9028,75.8086,PM10,146,260,174
India,Odisha,Nayagarh,"Dabuna, Nayagarh - OSPCB",23-10-2025 07:00:00,21.847279,85.416905,PM10,21,138,80
India,Odisha,Nayagarh,"Dabuna, Nayagarh - OSPCB",23-10-2025 07:00:00,21.847279,85.416905,OZONE,14,60,14
India,Odisha,Rourkela,"Fertilizer Township, Rourkela - OSPCB",23-10-2025 07:00:00,22.18972222,84.86277778,PM2.5,54,81,63
India,Odisha,Rourkela,"Raghunathpali, Rourkela - OSPCB",23-10-2025 07:00:00,22.220833,84.809444,PM2.5,40,181,97
India,Odisha,Rourkela,"Raghunathpali, Rourkela - OSPCB",23-10-2025 07:00:00,22.220833,84.809444,PM10,56,116,87
India,Odisha,Rourkela,"Raghunathpali, Rourkela - OSPCB",23-10-2025 07:00:00,22.220833,84.809444,OZONE,17,81,20
India,Odisha,Tensa,"Barsua Iron Ore Mines, Tensa - OSPCB",23-10-2025 07:00:00,21.869985,85.167016,SO2,NA,NA,NA
India,Puducherry,Puducherry,"Jawahar Nagar, Puducherry - PPCC",23-10-2025 07:00:00,11.9309,79.8027,PM10,2,44,16
India,Puducherry,Puducherry,"Jawahar Nagar, Puducherry - PPCC",23-10-2025 07:00:00,11.9309,79.8027,NH3,1,9,3
India,Punjab,Amritsar,"Golden Temple, Amritsar - PPCB",23-10-2025 07:00:00,31.620000,74.876512,PM2.5,44,306,150
India,Rajasthan,Barmer,"Railway Colony, Barmer - RSPCB",23-10-2025 07:00:00,25.747299,71.393989,SO2,1,17,7
India,Rajasthan,Bundi,"New Colony, Bundi - RSPCB",23-10-2025 07:00:00,25.435774,75.644272,NH3,3,6,4
India,Rajasthan,Jaipur,"Adarsh Nagar, Jaipur - RSPCB",23-10-2025 07:00:00,26.902909,75.836858,NO2,11,56,30
India,Rajasthan,Jaipur,"Mansarovar Sector-12, Jaipur - RSPCB",23-10-2025 07:00:00,26.843698,75.766894,PM2.5,52,473,203
India,Rajasthan,Jaipur,"Police Commissionerate, Jaipur - RSPCB",23-10-2025 07:00:00,26.9164092,75.7994901,CO,52,79,57
India,Rajasthan,Jaipur,"RIICO Sitapura, Jaipur - RSPCB",23-10-2025 07:00:00,26.786682,75.827928,PM2.5,73,344,186
India,Rajasthan,Jaipur,"RIICO Sitapura, Jaipur - RSPCB",23-10-2025 07:00:00,26.786682,75.827928,NO2,13,83,30
India,Rajasthan,Jaipur,"RIICO Sitapura, Jaipur - RSPCB",23-10-2025 07:00:00,26.786682,75.827928,SO2,5,11,8
India,Rajasthan,Jaipur,"RIICO Sitapura, Jaipur - RSPCB",23-10-2025 07:00:00,26.786682,75.827928,CO,18,48,21
India,Rajasthan,Jaipur,"Sector-2 Murlipura, Jaipur - RSPCB",23-10-2025 07:00:00,26.960669,75.771817,PM2.5,17,336,172
India,Rajasthan,Jhalawar,"Rajlaxmi Nagar, Jhalawar - RSPCB",23-10-2025 07:00:00,24.588397,76.172782,OZONE,25,151,53
India,Rajasthan,Jhunjhunu,"Indra Nagar, Jhunjhunu - RSPCB",23-10-2025 07:00:00,28.108988,75.386577,PM10,55,181,117
India,Rajasthan,Jodhpur,"Collectorate, Jodhpur - RSPCB",23-10-2025 07:00:00,26.268249,73.0193853,PM10,49,251,123
India,Rajasthan,Jodhpur,"Collectorate, Jodhpur - RSPCB",23-10-2025 07:00:00,26.268249,73.0193853,OZONE,23,81,44
India,Rajasthan,Jodhpur,"Digari Kalan, Jodhpur - RSPCB",23-10-2025 07:00:00,26.295810,73.082283,CO,17,50,25
India,Rajasthan,Jodhpur,"Digari Kalan, Jodhpur - RSPCB",23-10-2025 07:00:00,26.295810,73.082283,OZONE,24,157,69
India,Rajasthan,Jodhpur,"Jhalamand, Jodhpur - RSPCB",23-10-2025 07:00:00,26.215415,73.070156,PM2.5,45,300,119
India,Rajasthan,Pali,"Indira Colony Vistar, Pali - RSPCB",23-10-2025 07:00:00,25.771061, 73.340227,NH3,9,12,10
India,Rajasthan,Pali,"Indira Colony Vistar, Pali - RSPCB",23-10-2025 07:00:00,25.771061, 73.340227,SO2,10,14,13
India,Rajasthan,Pratapgarh,"Pragati Nagar, Pratapgarh - RSPCB",23-10-2025 07:00:00,24.041198,74.780702,NH3,6,9,7
India,Rajasthan,Rajsamand,"Dhoinda, Rajsamand - RSPCB",23-10-2025 07:00:00,25.036360,73.883502,SO2,19,27,22
India,Rajasthan,Sawai Madhopur,"Sahu Nagar, Sawai Madhopur - RSPCB",23-10-2025 07:00:00,26.031443,76.359327,PM10,105,500,202
India,Rajasthan,Kota,"Nayapura, Kota - RSPCB",23-10-2025 07:00:00,25.196024,75.855668,PM2.5,85,343,191
India,Rajasthan,Kota,"Nayapura, Kota - RSPCB",23-10-2025 07:00:00,25.196024,75.855668,PM10,88,209,129
India,Rajasthan,Kota,"Nayapura, Kota - RSPCB",23-10-2025 07:00:00,25.196024,75.855668,OZONE,8,220,26
India,Rajasthan,Kota,"Shrinath Puram, Kota - RSPCB",23-10-2025 07:00:00,25.14389,75.821256,OZONE,29,48,33
India,Rajasthan,Nagaur,"Karni Colony, Nagaur - RSPCB",23-10-2025 07:00:00,27.213494,73.734444,NH3,5,9,6
India,Rajasthan,Nagaur,"Karni Colony, Nagaur - RSPCB",23-10-2025 07:00:00,27.213494,73.734444,SO2,4,25,10
India,Rajasthan,Udaipur,"Ashok Nagar, Udaipur - RSPCB",23-10-2025 07:00:00,24.5886166,73.6321397,NH3,1,5,3
India,Sikkim,Gangtok,"Zero Point GICI, Gangtok - SSPCB",23-10-2025 07:00:00,27.338530,88.614099,NH3,1,1,1
India,TamilNadu,Chengalpattu,"Crescent University, Chengalpattu - TNPCB",23-10-2025 07:00:00,12.8777316,80.0834807,NH3,1,3,2
India,TamilNadu,Chennai,"Arumbakkam, Chennai - TNPCB",23-10-2025 07:00:00,13.0664,80.2112 ,NO2,10,20,14
India,Rajasthan,Jodhpur,"Mandor, Jodhpur - RSPCB",23-10-2025 07:00:00,26.358805,73.047444,NH3,3,6,4
India,Rajasthan,Jodhpur,"Samrat Ashok Udhyan, Jodhpur - RSPCB",23-10-2025 07:00:00,26.253384,72.976571,PM2.5,48,424,160
India,Rajasthan,Jodhpur,"Samrat Ashok Udhyan, Jodhpur - RSPCB",23-10-2025 07:00:00,26.253384,72.976571,NO2,4,81,26
India,Rajasthan,Jodhpur,"Samrat Ashok Udhyan, Jodhpur - RSPCB",23-10-2025 07:00:00,26.253384,72.976571,SO2,1,9,5
India,Rajasthan,Karauli,"Satyawati Vihar, Karauli - RSPCB",23-10-2025 07:00:00,26.506177,77.025989,SO2,2,11,4
India,Rajasthan,Jaipur,"Sector-2 Murlipura, Jaipur - RSPCB",23-10-2025 07:00:00,26.960669,75.771817,CO,26,49,35
India,Rajasthan,Jaipur,"Shastri Nagar, Jaipur - RSPCB",23-10-2025 07:00:00,26.9502929,75.730943,NH3,8,22,14
India,Rajasthan,Jaisalmer,"Sadar Bazar, Jaisalmer - RSPCB",23-10-2025 07:00:00,26.912329,70.909168,NO2,10,100,33
India,Rajasthan,Jaisalmer,"Sadar Bazar, Jaisalmer - RSPCB",23-10-2025 07:00:00,26.912329,70.909168,CO,8,76,24
India,Rajasthan,Sirohi,"Vedhaynath Colony, Sirohi - RSPCB",23-10-2025 07:00:00,24.885261,72.857549,SO2,4,11,6
India,Rajasthan,Sri Ganganagar,"Old City, Sri Ganganagar - RSPCB",23-10-2025 07:00:00,29.931624,73.864511,NH3,4,37,9
India,Rajasthan,Tonk,"Shastri Nagar, Tonk - RSPCB",23-10-2025 07:00:00,26.159933,75.780517,OZONE,6,74,24
India,TamilNadu,Chennai,"Arumbakkam, Chennai - TNPCB",23-10-2025 07:00:00,13.0664,80.2112 ,NH3,3,4,3
India,TamilNadu,Chennai,"Gandhi Nagar_Ennore, Chennai - TNPCB",23-10-2025 07:00:00,13.218341,80.32027,NO2,9,19,12
India,TamilNadu,Chennai,"Gandhi Nagar_Ennore, Chennai - TNPCB",23-10-2025 07:00:00,13.218341,80.32027,OZONE,9,10,10
India,TamilNadu,Chennai,"Kodungaiyur, Chennai - TNPCB",23-10-2025 07:00:00,13.1278,80.2642,NO2,3,75,9
India,TamilNadu,Chennai,"Kodungaiyur, Chennai - TNPCB",23-10-2025 07:00:00,13.1278,80.2642,NH3,5,21,7
India,TamilNadu,Chennai,"Manali Village, Chennai - TNPCB",23-10-2025 07:00:00,13.1662,80.2584,NO2,4,7,6
India,TamilNadu,Chennai,"Manali Village, Chennai - TNPCB",23-10-2025 07:00:00,13.1662,80.2584,CO,30,44,39
India,TamilNadu,Chennai,"Manali, Chennai - CPCB",23-10-2025 07:00:00,13.164544,80.26285,PM10,30,48,37
India,TamilNadu,Chennai,"Manali, Chennai - CPCB",23-10-2025 07:00:00,13.164544,80.26285,NH3,7,9,8
India,TamilNadu,Tiruchirappalli,"St Joseph College, Tiruchirappalli - TNPCB",23-10-2025 07:00:00,10.830158,78.691849,NO2,3,4,4
India,TamilNadu,Tiruchirappalli,"St Joseph College, Tiruchirappalli - TNPCB",23-10-2025 07:00:00,10.830158,78.691849,OZONE,2,20,6
India,TamilNadu,Tirunelveli,"Municipal Corporation Office, Tirunelveli - TNPCB",23-10-2025 07:00:00,8.728442,77.6962,PM2.5,10,25,20
India,TamilNadu,Tirunelveli,"Municipal Corporation Office, Tirunelveli - TNPCB",23-10-2025 07:00:00,8.728442,77.6962,SO2,24,40,35
India,TamilNadu,Tirupur,"Kumaran College, Tirupur - TNPCB",23-10-2025 07:00:00,11.0973603,77.3228673,PM10,7,42,19
India,TamilNadu,Tirupur,"Kumaran College, Tirupur - TNPCB",23-10-2025 07:00:00,11.0973603,77.3228673,CO,16,23,19
India,TamilNadu,Tirupur,"Kumaran College, Tirupur - TNPCB",23-10-2025 07:00:00,11.0973603,77.3228673,OZONE,4,4,4
India,Telangana,Hyderabad,"ICRISAT Patancheru, Hyderabad - TSPCB",23-10-2025 07:00:00,17.518400,78.278777,OZONE,7,34,14
India,Telangana,Hyderabad,"IDA Pashamylaram, Hyderabad - TSPCB",23-10-2025 07:00:00,17.5316895,78.218939,PM10,16,65,33
India,Telangana,Hyderabad,"IITH Kandi, Hyderabad - TSPCB",23-10-2025 07:00:00,17.585705,78.126199,PM2.5,49,69,59
India,Telangana,Hyderabad,"IITH Kandi, Hyderabad - TSPCB",23-10-2025 07:00:00,17.585705,78.126199,NO2,8,12,9
India,Telangana,Hyderabad,"IITH Kandi, Hyderabad - TSPCB",23-10-2025 07:00:00,17.585705,78.126199,CO,18,35,25
India,Telangana,Hyderabad,"Kokapet, Hyderabad - TSPCB",23-10-2025 07:00:00,17.393559,78.339194,NH3,2,3,2
India,TamilNadu,Cuddalore,"Semmandalam, Cuddalore - TNPCB",23-10-2025 07:00:00,11.7637683,79.7499835,OZONE,1,2,2
India,TamilNadu,Dindigul,"Mendonsa Colony, Dindigul - TNPCB",23-10-2025 07:00:00,10.358535,77.984321,OZONE,NA,NA,NA
India,TamilNadu,Hosur,"SIPCOT Phase-1, Hosur - TNPCB",23-10-2025 07:00:00,12.746998,77.813811,NO2,1,2,2
India,TamilNadu,Hosur,"SIPCOT Phase-1, Hosur - TNPCB",23-10-2025 07:00:00,12.746998,77.813811,OZONE,9,10,10
India,TamilNadu,Kanchipuram,"Kilambi, Kanchipuram - TNPCB",23-10-2025 07:00:00,12.864618,79.659968,PM10,NA,NA,NA
India,TamilNadu,Kanchipuram,"Kilambi, Kanchipuram - TNPCB",23-10-2025 07:00:00,12.864618,79.659968,NH3,NA,NA,NA
India,TamilNadu,Vellore,"Vasanthapuram, Vellore - TNPCB",23-10-2025 07:00:00,12.909494,79.131861,CO,7,7,7
India,TamilNadu,Virudhunagar,"Collectorate Office, Virudhunagar - TNPCB",23-10-2025 07:00:00,9.559382,77.948828,NO2,19,20,20
India,Telangana,Hyderabad,"Bollaram Industrial Area, Hyderabad - TSPCB",23-10-2025 07:00:00,17.540891,78.358528,NH3,1,7,4
India,Telangana,Hyderabad,"Central University, Hyderabad - TSPCB",23-10-2025 07:00:00,17.460103,78.334361,OZONE,8,25,20
India,TamilNadu,Chennai,"Perungudi, Chennai - TNPCB",23-10-2025 07:00:00,12.9533,80.2357,PM2.5,2,54,13
India,TamilNadu,Chennai,"Velachery Res. Area, Chennai - CPCB",23-10-2025 07:00:00,13.0052189,80.2398125,CO,21,43,41
India,TamilNadu,Coimbatore,"SIDCO Kurichi, Coimbatore - TNPCB",23-10-2025 07:00:00,10.942451,76.978996,PM2.5,7,39,21
India,TamilNadu,Coimbatore,"SIDCO Kurichi, Coimbatore - TNPCB",23-10-2025 07:00:00,10.942451,76.978996,NO2,1,12,5
India,TamilNadu,Coimbatore,"SIDCO Kurichi, Coimbatore - TNPCB",23-10-2025 07:00:00,10.942451,76.978996,CO,22,27,24
India,TamilNadu,Palkalaiperur,"Bharathidasan University, Palkalaiperur - TNPCB",23-10-2025 07:00:00,10.681158,78.741746,NH3,1,1,1
India,TamilNadu,Perundurai,"SIPCOT Industrial Park, Perundurai - TNPCB",23-10-2025 07:00:00,11.258242,77.552761,PM10,4,31,15
India,TamilNadu,Perundurai,"SIPCOT Industrial Park, Perundurai - TNPCB",23-10-2025 07:00:00,11.258242,77.552761,NO2,6,8,8
India,TamilNadu,Pudukottai,"SIPCOT Nathampannai, Pudukottai - TNPCB",23-10-2025 07:00:00,10.423417,78.784889,PM2.5,8,38,24
India,TamilNadu,Ranipet,"VOC Nagar_SIPCOT, Ranipet - TNPCB",23-10-2025 07:00:00,12.952707,79.30394,NO2,1,1,1
India,TamilNadu,Thanjavur,"Parisutham Nagar, Thanjavur - TNPCB",23-10-2025 07:00:00,10.7654824,79.1389968,SO2,16,17,16
India,TamilNadu,Thanjavur,"Parisutham Nagar, Thanjavur - TNPCB",23-10-2025 07:00:00,10.7654824,79.1389968,CO,8,10,10
India,TamilNadu,Karur,"Kamadenu Nagar, Karur - TNPCB",23-10-2025 07:00:00,10.967820,78.080882,CO,NA,NA,NA
India,TamilNadu,Nagapattinam,"Velippalayam, Nagapattinam - TNPCB",23-10-2025 07:00:00,10.798548,79.838212,PM2.5,7,23,12
India,TamilNadu,Nagapattinam,"Velippalayam, Nagapattinam - TNPCB",23-10-2025 07:00:00,10.798548,79.838212,NO2,5,5,5
India,Uttar_Pradesh,Lucknow,"Gomti Nagar, Lucknow - UPPCB",23-10-2025 07:00:00,26.868120,81.005119,SO2,10,11,10
India,Uttar_Pradesh,Lucknow,"Kendriya Vidyalaya, Lucknow - CPCB",23-10-2025 07:00:00,26.906111,80.948222,OZONE,10,77,14
India,Uttar_Pradesh,Lucknow,"Kukrail Picnic Spot-1, Lucknow - UPPCB",23-10-2025 07:00:00,26.90723,80.98579,PM2.5,66,213,124
India,Uttar_Pradesh,Lucknow,"Kukrail Picnic Spot-1, Lucknow - UPPCB",23-10-2025 07:00:00,26.90723,80.98579,PM10,67,144,105
India,Uttar_Pradesh,Lucknow,"Lalbagh, Lucknow - CPCB",23-10-2025 07:00:00,26.8458805,80.9365541,NH3,16,26,21
India,Uttar_Pradesh,Lucknow,"Lalbagh, Lucknow - CPCB",23-10-2025 07:00:00,26.8458805,80.9365541,CO,18,140,72
India,Uttar_Pradesh,Lucknow,"Talkatora District Industries Center, Lucknow - CPCB",23-10-2025 07:00:00,26.83399722,80.8917361,PM10,132,273,186
India,Uttar_Pradesh,Lucknow,"Talkatora District Industries Center, Lucknow - CPCB",23-10-2025 07:00:00,26.83399722,80.8917361,NO2,49,70,58
India,Uttar_Pradesh,Ghaziabad,"Sanjay Nagar, Ghaziabad - UPPCB",23-10-2025 07:00:00,28.685382,77.453839,PM2.5,124,413,272
India,Uttar_Pradesh,Ghaziabad,"Sanjay Nagar, Ghaziabad - UPPCB",23-10-2025 07:00:00,28.685382,77.453839,CO,20,113,53
India,Uttar_Pradesh,Ghaziabad,"Sanjay Nagar, Ghaziabad - UPPCB",23-10-2025 07:00:00,28.685382,77.453839,OZONE,14,126,26
India,Uttar_Pradesh,Ghaziabad,"Vasundhara, Ghaziabad - UPPCB",23-10-2025 07:00:00,28.6603346,77.3572563,NH3,9,10,9
India,Uttar_Pradesh,Ghaziabad,"Vasundhara, Ghaziabad - UPPCB",23-10-2025 07:00:00,28.6603346,77.3572563,SO2,17,24,20
India,Uttar_Pradesh,Gorakhpur,"Madan Mohan Malaviya University of Technology, Gorakhpur - UPPCB",23-10-2025 07:00:00,26.730136,83.433859,PM2.5,11,216,79
India,Uttar_Pradesh,Greater Noida,"Knowledge Park - III, Greater Noida - UPPCB",23-10-2025 07:00:00,28.47272,77.482000,PM10,120,210,159
India,Uttar_Pradesh,Greater Noida,"Knowledge Park - III, Greater Noida - UPPCB",23-10-2025 07:00:00,28.47272,77.482000,SO2,16,33,20
India,Telangana,Hyderabad,"Somajiguda, Hyderabad - TSPCB",23-10-2025 07:00:00,17.417094,78.457437,NO2,13,14,13
India,Telangana,Hyderabad,"Somajiguda, Hyderabad - TSPCB",23-10-2025 07:00:00,17.417094,78.457437,CO,14,22,16
India,Telangana,Hyderabad,"Zoo Park, Hyderabad - TSPCB",23-10-2025 07:00:00,17.349694,78.451437,NO2,17,26,22
India,Telangana,Hyderabad,"Zoo Park, Hyderabad - TSPCB",23-10-2025 07:00:00,17.349694,78.451437,SO2,4,4,4
India,Telangana,Hyderabad,"Zoo Park, Hyderabad - TSPCB",23-10-2025 07:00:00,17.349694,78.451437,CO,12,14,13
India,Tripura,Agartala,"Bardowali, Agartala - Tripura SPCB",23-10-2025 07:00:00,23.8175497,91.2726974,PM2.5,7,64,31
India,Tripura,Agartala,"Bardowali, Agartala - Tripura SPCB",23-10-2025 07:00:00,23.8175497,91.2726974,NH3,3,5,4
India,Tripura,Agartala,"Bardowali, Agartala - Tripura SPCB",23-10-2025 07:00:00,23.8175497,91.2726974,SO2,28,28,28
India,Uttar_Pradesh,Agra,"Manoharpur, Agra - UPPCB",23-10-2025 07:00:00,27.23711,78.01936,PM2.5,57,201,125
India,Telangana,Hyderabad,"Kompally Municipal Office, Hyderabad - TSPCB",23-10-2025 07:00:00,17.544899,78.486949,NO2,12,17,14
India,Telangana,Hyderabad,"Kompally Municipal Office, Hyderabad - TSPCB",23-10-2025 07:00:00,17.544899,78.486949,CO,10,25,10
India,Telangana,Hyderabad,"Nacharam_TSIIC IALA, Hyderabad - TSPCB",23-10-2025 07:00:00,17.429398,78.569354,NH3,4,6,6
India,Telangana,Hyderabad,"Nacharam_TSIIC IALA, Hyderabad - TSPCB",23-10-2025 07:00:00,17.429398,78.569354,OZONE,21,33,28
India,Telangana,Hyderabad,"Ramachandrapuram, Hyderabad - TSPCB",23-10-2025 07:00:00,17.528544,78.286195,CO,20,36,32
India,Telangana,Hyderabad,"Ramachandrapuram, Hyderabad - TSPCB",23-10-2025 07:00:00,17.528544,78.286195,OZONE,12,63,24
India,Telangana,Hyderabad,"Sanathnagar, Hyderabad - TSPCB",23-10-2025 07:00:00,17.4559458,78.4332152,PM2.5,20,122,41
India,Telangana,Hyderabad,"Sanathnagar, Hyderabad - TSPCB",23-10-2025 07:00:00,17.4559458,78.4332152,NO2,25,29,27
India,Telangana,Hyderabad,"Sanathnagar, Hyderabad - TSPCB",23-10-2025 07:00:00,17.4559458,78.4332152,SO2,1,8,5
India,Uttar_Pradesh,Kanpur,"NSI Kalyanpur, Kanpur - UPPCB",23-10-2025 07:00:00,26.509954,80.249612,CO,34,76,52
India,Uttar_Pradesh,Kanpur,"NSI Kalyanpur, Kanpur - UPPCB",23-10-2025 07:00:00,26.509954,80.249612,OZONE,20,22,21
India,Uttar_Pradesh,Kanpur,"Nehru Nagar, Kanpur - UPPCB",23-10-2025 07:00:00,26.4703136,80.3229863,PM2.5,70,324,175
India,Uttar_Pradesh,Lucknow,"B R Ambedkar University, Lucknow - UPPCB",23-10-2025 07:00:00,26.766433,80.927299,PM2.5,77,328,204
India,Uttar_Pradesh,Lucknow,"B R Ambedkar University, Lucknow - UPPCB",23-10-2025 07:00:00,26.766433,80.927299,NO2,21,22,22
India,Uttar_Pradesh,Lucknow,"B R Ambedkar University, Lucknow - UPPCB",23-10-2025 07:00:00,26.766433,80.927299,NH3,4,5,4
India,Uttar_Pradesh,Lucknow,"B R Ambedkar University, Lucknow - UPPCB",23-10-2025 07:00:00,26.766433,80.927299,SO2,23,25,24
India,Uttar_Pradesh,Lucknow,"Gomti Nagar, Lucknow - UPPCB",23-10-2025 07:00:00,26.868120,81.005119,PM2.5,23,98,52
India,Uttar_Pradesh,Agra,"Shastripuram, Agra - UPPCB",23-10-2025 07:00:00,27.19862,77.92066,CO,20,30,29
India,Uttar_Pradesh,Agra,"Shastripuram, Agra - UPPCB",23-10-2025 07:00:00,27.19862,77.92066,OZONE,7,8,7
India,Uttar_Pradesh,Baghpat,"Sardar Patel Inter College, Baghpat - UPPCB",23-10-2025 07:00:00,28.964949,77.278761,PM2.5,160,416,295
India,Uttar_Pradesh,Baghpat,"Sardar Patel Inter College, Baghpat - UPPCB",23-10-2025 07:00:00,28.964949,77.278761,NO2,53,92,69
India,Uttar_Pradesh,Bareilly,"Civil Lines, Bareilly - UPPCB",23-10-2025 07:00:00,28.359581,79.414455,NH3,1,1,1
India,Uttar_Pradesh,Bareilly,"Civil Lines, Bareilly - UPPCB",23-10-2025 07:00:00,28.359581,79.414455,SO2,22,29,25
India,Uttar_Pradesh,Bareilly,"Civil Lines, Bareilly - UPPCB",23-10-2025 07:00:00,28.359581,79.414455,CO,46,72,60
India,Uttar_Pradesh,Agra,"Rohta, Agra - UPPCB",23-10-2025 07:00:00,27.106972,78.000111,NH3,7,7,7
India,Uttar_Pradesh,Agra,"Rohta, Agra - UPPCB",23-10-2025 07:00:00,27.106972,78.000111,OZONE,10,12,11
India,Uttar_Pradesh,Agra,"Sector-3B Avas Vikas Colony, Agra - UPPCB",23-10-2025 07:00:00,27.19412,77.96237,NO2,28,33,29
India,Uttar_Pradesh,Agra,"Sector-3B Avas Vikas Colony, Agra - UPPCB",23-10-2025 07:00:00,27.19412,77.96237,NH3,8,9,9
India,Uttar_Pradesh,Agra,"Shahjahan Garden, Agra - UPPCB",23-10-2025 07:00:00,27.169338,78.03582,PM10,80,222,132
India,Uttar_Pradesh,Agra,"Shastripuram, Agra - UPPCB",23-10-2025 07:00:00,27.19862,77.92066,PM2.5,31,158,85
India,Uttar_Pradesh,Greater Noida,"Knowledge Park - V, Greater Noida - UPPCB",23-10-2025 07:00:00,28.557054,77.453663,SO2,11,32,18
India,Uttar_Pradesh,Greater Noida,"Knowledge Park - V, Greater Noida - UPPCB",23-10-2025 07:00:00,28.557054,77.453663,CO,29,84,61
India,Uttar_Pradesh,Jhansi,"Shivaji Nagar, Jhansi - UPPCB",23-10-2025 07:00:00,25.4547,78.6039,CO,10,44,26
India,Uttar_Pradesh,Kanpur,"FTI Kidwai Nagar, Kanpur - UPPCB",23-10-2025 07:00:00,26.428282,80.327067,NH3,2,2,2
India,Uttar_Pradesh,Kanpur,"NSI Kalyanpur, Kanpur - UPPCB",23-10-2025 07:00:00,26.509954,80.249612,PM2.5,93,315,239
India,Uttar_Pradesh,Firozabad,"Vibhab Nagar, Firozabad - UPPCB",23-10-2025 07:00:00,27.1594,78.3953,PM10,45,147,89
India,Uttar_Pradesh,Firozabad,"Vibhab Nagar, Firozabad - UPPCB",23-10-2025 07:00:00,27.1594,78.3953,OZONE,4,36,7
India,Uttar_Pradesh,Ghaziabad,"Indirapuram, Ghaziabad - UPPCB",23-10-2025 07:00:00,28.646233,77.358075,NH3,10,13,11
India,Uttar_Pradesh,Ghaziabad,"Indirapuram, Ghaziabad - UPPCB",23-10-2025 07:00:00,28.646233,77.358075,SO2,46,61,50
India,Uttar_Pradesh,Ghaziabad,"Indirapuram, Ghaziabad - UPPCB",23-10-2025 07:00:00,28.646233,77.358075,CO,40,124,65
India,Uttar_Pradesh,Ghaziabad,"Loni, Ghaziabad - UPPCB",23-10-2025 07:00:00,28.757294,77.278792,PM2.5,147,409,318
India,West_Bengal,Durgapur,"Mahishkapur Road_B-Zone, Durgapur - WBPCB",23-10-2025 07:00:00,23.567923,87.306843,NO2,5,45,18
India,West_Bengal,Durgapur,"PCBL Residential Complex, Durgapur - WBPCB",23-10-2025 07:00:00,23.5087640,87.3544400,PM2.5,44,170,89
India,West_Bengal,Durgapur,"PCBL Residential Complex, Durgapur - WBPCB",23-10-2025 07:00:00,23.5087640,87.3544400,NH3,3,4,3
India,West_Bengal,Durgapur,"PCBL Residential Complex, Durgapur - WBPCB",23-10-2025 07:00:00,23.5087640,87.3544400,CO,20,67,50
India,West_Bengal,Haldia,"Priyambada Housing Estate, Haldia - WBPCB",23-10-2025 07:00:00,22.06047,88.109737,PM2.5,78,242,162
India,West_Bengal,Haldia,"Priyambada Housing Estate, Haldia - WBPCB",23-10-2025 07:00:00,22.06047,88.109737,NO2,10,33,17
India,West_Bengal,Haldia,"Priyambada Housing Estate, Haldia - WBPCB",23-10-2025 07:00:00,22.06047,88.109737,CO,30,50,41
India,West_Bengal,Haldia,"Priyambada Housing Estate, Haldia - WBPCB",23-10-2025 07:00:00,22.06047,88.109737,OZONE,20,62,22
India,Uttarakhand,Kashipur,"Govt. Girls Inter College, Kashipur - UKPCB",23-10-2025 07:00:00,29.2124114,78.9611753,CO,32,36,35
India,Uttarakhand,Kashipur,"Govt. Girls Inter College, Kashipur - UKPCB",23-10-2025 07:00:00,29.2124114,78.9611753,OZONE,1,29,10
India,Uttarakhand,Rishikesh,"Shivaji Nagar, Rishikesh - UKPCB",23-10-2025 07:00:00,30.075911,78.2859547,SO2,7,8,7
India,Uttarakhand,Rishikesh,"Shivaji Nagar, Rishikesh - UKPCB",23-10-2025 07:00:00,30.075911,78.2859547,OZONE,1,4,1
India,West_Bengal,Asansol,"Asansol Court Area, Asansol - WBPCB",23-10-2025 07:00:00,23.685297,86.945968,PM2.5,79,218,141
India,West_Bengal,Asansol,"Evelyn Lodge, Asansol - WBPCB",23-10-2025 07:00:00,23.6979360,86.9443950,NH3,2,2,2
India,West_Bengal,Asansol,"Evelyn Lodge, Asansol - WBPCB",23-10-2025 07:00:00,23.6979360,86.9443950,CO,16,60,52
India,West_Bengal,Asansol,"Evelyn Lodge, Asansol - WBPCB",23-10-2025 07:00:00,23.6979360,86.9443950,OZONE,2,57,2
India,West_Bengal,Asansol,"Trivenidevi Bhalotia College, Asansol - WBPCB",23-10-2025 07:00:00,23.616515,87.119133,NH3,3,5,4
India,West_Bengal,Barrackpore,"SVSPA Campus, Barrackpore - WBPCB",23-10-2025 07:00:00,22.7605581,88.3617589,CO,28,64,51
India,West_Bengal,Barrackpore,"SVSPA Campus, Barrackpore - WBPCB",23-10-2025 07:00:00,22.7605581,88.3617589,OZONE,3,45,5
India,West_Bengal,Durgapur,"Mahishkapur Road_B-Zone, Durgapur - WBPCB",23-10-2025 07:00:00,23.567923,87.306843,PM10,36,114,68
India,Uttar_Pradesh,Varanasi,"IESD Banaras Hindu University, Varanasi - UPPCB",23-10-2025 07:00:00,25.262326,82.995408,PM10,65,124,94
India,Uttar_Pradesh,Varanasi,"Maldahiya, Varanasi - UPPCB",23-10-2025 07:00:00,25.32393,82.99687,OZONE,2,7,2
India,Uttar_Pradesh,Vrindavan,"Omex Eternity, Vrindavan - UPPCB",23-10-2025 07:00:00,27.5714090,77.6557570,PM2.5,33,217,96
India,Uttarakhand,Dehradun,"Doon University, Dehradun - UKPCB",23-10-2025 07:00:00,30.269444,78.044167,PM2.5,45,247,85
India,Uttarakhand,Dehradun,"Doon University, Dehradun - UKPCB",23-10-2025 07:00:00,30.269444,78.044167,OZONE,24,80,32
India,Uttar_Pradesh,Meerut,"Ganga Nagar, Meerut - UPPCB",23-10-2025 07:00:00,28.999264,77.7590354,PM2.5,92,303,174
India,Uttar_Pradesh,Meerut,"Jai Bhim Nagar, Meerut - UPPCB",23-10-2025 07:00:00,28.9535882,77.7622941,CO,33,80,63
India,Uttar_Pradesh,Meerut,"Pallavpuram Phase 2, Meerut - UPPCB",23-10-2025 07:00:00,29.063510,77.709723,SO2,16,31,23
India,Uttar_Pradesh,Moradabad,"Buddhi Vihar, Moradabad - UPPCB",23-10-2025 07:00:00,28.83526,78.74460,PM2.5,65,319,171
India,Uttar_Pradesh,Moradabad,"Kashiram Nagar, Moradabad - UPPCB",23-10-2025 07:00:00,28.849399,78.742362,NH3,4,4,4
India,Uttar_Pradesh,Moradabad,"Transport Nagar, Moradabad - UPPCB",23-10-2025 07:00:00,28.802625,78.753728,NH3,5,6,5
India,Uttar_Pradesh,Moradabad,"Transport Nagar, Moradabad - UPPCB",23-10-2025 07:00:00,28.802625,78.753728,OZONE,26,72,29
India,Uttar_Pradesh,Muzaffarnagar,"New Mandi, Muzaffarnagar - UPPCB",23-10-2025 07:00:00,29.4723508,77.7194031,CO,38,101,78
India,Uttar_Pradesh,Moradabad,"Eco Herbal Park, Moradabad - UPPCB",23-10-2025 07:00:00,28.840739,78.697531,PM2.5,80,203,142
India,Uttar_Pradesh,Moradabad,"Eco Herbal Park, Moradabad - UPPCB",23-10-2025 07:00:00,28.840739,78.697531,OZONE,8,92,15
India,Uttar_Pradesh,Moradabad,"Employment Office, Moradabad - UPPCB",23-10-2025 07:00:00,28.88528,78.73880,OZONE,14,59,15
India,Uttar_Pradesh,Moradabad,"Jigar Colony, Moradabad - UPPCB",23-10-2025 07:00:00,28.856664,78.772638,PM2.5,56,312,121
India,Uttar_Pradesh,Noida,"Sector - 62, Noida - IMD",23-10-2025 07:00:00,28.6245479,77.3577104,PM10,153,310,195
India,Uttar_Pradesh,Noida,"Sector-1, Noida - UPPCB",23-10-2025 07:00:00,28.5898,77.3101,SO2,10,23,16
India,Uttar_Pradesh,Noida,"Sector-1, Noida - UPPCB",23-10-2025 07:00:00,28.5898,77.3101,OZONE,8,141,9
India,Uttar_Pradesh,Noida,"Sector-116, Noida - UPPCB",23-10-2025 07:00:00,28.569230,77.393848,CO,5,103,51
India,Uttar_Pradesh,Prayagraj,"Motilal Nehru NIT, Prayagraj - UPPCB",23-10-2025 07:00:00,25.494,81.863,PM2.5,95,208,142
India,Uttar_Pradesh,Prayagraj,"Nagar Nigam, Prayagraj - UPPCB",23-10-2025 07:00:00,25.44919916 ,81.82735986 ,NO2,5,5,5
India,Uttar_Pradesh,Prayagraj,"Nagar Nigam, Prayagraj - UPPCB",23-10-2025 07:00:00,25.44919916 ,81.82735986 ,OZONE,12,16,14
India,West_Bengal,Howrah,"Belur Math, Howrah - WBPCB",23-10-2025 07:00:00,22.629801,88.352017,NH3,7,13,10
India,West_Bengal,Howrah,"Botanical Garden, Howrah - WBPCB",23-10-2025 07:00:00,22.554954,88.292568,NH3,4,4,4
India,West_Bengal,Howrah,"Botanical Garden, Howrah - WBPCB",23-10-2025 07:00:00,22.554954,88.292568,CO,14,44,34
India,West_Bengal,Howrah,"Botanical Garden, Howrah - WBPCB",23-10-2025 07:00:00,22.554954,88.292568,OZONE,20,69,21
India,West_Bengal,Howrah,"Dasnagar, Howrah - WBPCB",23-10-2025 07:00:00,22.6025571,88.3105664,PM10,60,126,94
India,West_Bengal,Howrah,"Dasnagar, Howrah - WBPCB",23-10-2025 07:00:00,22.6025571,88.3105664,NH3,1,2,2
India,West_Bengal,Howrah,"Ghusuri, Howrah - WBPCB",23-10-2025 07:00:00,22.611968,88.347422,NH3,7,15,11
India,West_Bengal,Howrah,"Padmapukur, Howrah - WBPCB",23-10-2025 07:00:00,22.5687319,88.2797276,NH3,3,11,7
India,West_Bengal,Howrah,"Padmapukur, Howrah - WBPCB",23-10-2025 07:00:00,22.5687319,88.2797276,OZONE,8,27,11
India,West_Bengal,Kolkata,"Ballygunge, Kolkata - WBPCB",23-10-2025 07:00:00,22.5367507,88.3638022,PM10,90,150,117
India,West_Bengal,Kolkata,"Ballygunge, Kolkata - WBPCB",23-10-2025 07:00:00,22.5367507,88.3638022,NO2,27,73,50
India,West_Bengal,Kolkata,"Bidhannagar, Kolkata - WBPCB",23-10-2025 07:00:00,22.58157048,88.41002457,PM2.5,32,109,71
India,West_Bengal,Kolkata,"Bidhannagar, Kolkata - WBPCB",23-10-2025 07:00:00,22.58157048,88.41002457,PM10,61,140,106
India,West_Bengal,Kolkata,"Fort William, Kolkata - WBPCB",23-10-2025 07:00:00,22.556640,88.342674,PM2.5,78,166,112
India,West_Bengal,Kolkata,"Fort William, Kolkata - WBPCB",23-10-2025 07:00:00,22.556640,88.342674,PM10,80,125,102
India,West_Bengal,Kolkata,"Fort William, Kolkata - WBPCB",23-10-2025 07:00:00,22.556640,88.342674,OZONE,15,48,19
India,West_Bengal,Kolkata,"Jadavpur, Kolkata - WBPCB",23-10-2025 07:00:00,22.49929,88.36917,PM10,108,175,137
India,West_Bengal,Kolkata,"Jadavpur, Kolkata - WBPCB",23-10-2025 07:00:00,22.49929,88.36917,NO2,6,36,19
India,West_Bengal,Kolkata,"Jadavpur, Kolkata - WBPCB",23-10-2025 07:00:00,22.49929,88.36917,NH3,6,9,7
India,West_Bengal,Kolkata,"Jadavpur, Kolkata - WBPCB",23-10-2025 07:00:00,22.49929,88.36917,SO2,7,11,8
India,West_Bengal,Kolkata,"Rabindra Sarobar, Kolkata - WBPCB",23-10-2025 07:00:00,22.51106,88.35142,SO2,4,15,8
India,West_Bengal,Siliguri,"Ward-32 Bapupara, Siliguri - WBPCB",23-10-2025 07:00:00,26.6879226,88.4152495,PM10,39,108,68
India,West_Bengal,Siliguri,"Ward-32 Bapupara, Siliguri - WBPCB",23-10-2025 07:00:00,26.6879226,88.4152495,NO2,17,24,21
India,West_Bengal,Siliguri,"Ward-32 Bapupara, Siliguri - WBPCB",23-10-2025 07:00:00,26.6879226,88.4152495,OZONE,46,62,57
India,Andhra_Pradesh,Vijayawada,"HB Colony, Vijayawada - APPCB",23-10-2025 07:00:00,16.536107,80.594233,CO,30,37,30
India,Andhra_Pradesh,Vijayawada,"HB Colony, Vijayawada - APPCB",23-10-2025 07:00:00,16.536107,80.594233,OZONE,NA,NA,NA
India,Andhra_Pradesh,Vijayawada,"Rajiv Gandhi Park, Vijayawada - APPCB",23-10-2025 07:00:00,16.509717,80.612222,PM2.5,58,75,65
India,Andhra_Pradesh,Vijayawada,"Rajiv Gandhi Park, Vijayawada - APPCB",23-10-2025 07:00:00,16.509717,80.612222,PM10,54,70,61
India,Andhra_Pradesh,Vijayawada,"Rajiv Gandhi Park, Vijayawada - APPCB",23-10-2025 07:00:00,16.509717,80.612222,CO,30,33,31
India,Andhra_Pradesh,Vijayawada,"Rajiv Nagar, Vijayawada - APPCB",23-10-2025 07:00:00,16.554731,80.649110,PM10,26,138,49
India,Andhra_Pradesh,Vijayawada,"Rajiv Nagar, Vijayawada - APPCB",23-10-2025 07:00:00,16.554731,80.649110,SO2,13,28,18
India,Andhra_Pradesh,Visakhapatnam,"GVM Corporation, Visakhapatnam - APPCB",23-10-2025 07:00:00,17.72,83.3,PM10,31,70,53
India,Andhra_Pradesh,Visakhapatnam,"GVM Corporation, Visakhapatnam - APPCB",23-10-2025 07:00:00,17.72,83.3,CO,2,36,8
India,Arunachal_Pradesh,Naharlagun,"Naharlagun, Naharlagun - APSPCB",23-10-2025 07:00:00,27.103358,93.679645,OZONE,5,5,5
India,Assam,Sivasagar,"Girls College, Sivasagar - PCBA",23-10-2025 07:00:00,26.987634,94.636574,NH3,3,5,5
India,Assam,Sivasagar,"Girls College, Sivasagar - PCBA",23-10-2025 07:00:00,26.987634,94.636574,OZONE,2,13,2
India,Bihar,Araria,"Kharahiya Basti, Araria - BSPCB",23-10-2025 07:00:00,26.146529,87.454184,PM2.5,52,309,122
India,Bihar,Araria,"Kharahiya Basti, Araria - BSPCB",23-10-2025 07:00:00,26.146529,87.454184,PM10,40,152,82
India,Bihar,Araria,"Kharahiya Basti, Araria - BSPCB",23-10-2025 07:00:00,26.146529,87.454184,SO2,10,25,18
India,Bihar,Arrah,"New DM Office, Arrah - BSPCB",23-10-2025 07:00:00,25.5626095,84.663264,NO2,4,9,7
India,Bihar,Aurangabad,"Gurdeo Nagar, Aurangabad - BSPCB",23-10-2025 07:00:00,24.75746,84.366208,PM10,61,111,82
India,Bihar,Begusarai,"Lohiyanagar, Begusarai - BSPCB",23-10-2025 07:00:00,25.42742023,86.13886079,NO2,1,21,13
India,Bihar,Begusarai,"Lohiyanagar, Begusarai - BSPCB",23-10-2025 07:00:00,25.42742023,86.13886079,SO2,44,64,53
India,Bihar,Gaya,"SFTI Kusdihra, Gaya - BSPCB",23-10-2025 07:00:00,24.762518,84.982348,NO2,24,26,25
India,Bihar,Gaya,"SFTI Kusdihra, Gaya - BSPCB",23-10-2025 07:00:00,24.762518,84.982348,OZONE,12,55,14
India,Bihar,Hajipur,"Industrial Area, Hajipur - BSPCB",23-10-2025 07:00:00,25.697189,85.245900,PM2.5,101,351,233
India,Bihar,Hajipur,"Industrial Area, Hajipur - BSPCB",23-10-2025 07:00:00,25.697189,85.245900,PM10,75,188,123
India,Bihar,Hajipur,"Industrial Area, Hajipur - BSPCB",23-10-2025 07:00:00,25.697189,85.245900,NH3,10,15,13
India,Bihar,Katihar,"Mirchaibari, Katihar - BSPCB",23-10-2025 07:00:00,25.560083,87.553265,NO2,9,19,14
India,Bihar,Kishanganj,"SDM Office_Khagra, Kishanganj - BSPCB",23-10-2025 07:00:00,26.0881305,87.93840336,SO2,6,10,7
India,Bihar,Kishanganj,"SDM Office_Khagra, Kishanganj - BSPCB",23-10-2025 07:00:00,26.0881305,87.93840336,OZONE,16,21,16
India,Andhra_Pradesh,Amaravati,"Secretariat, Amaravati - APPCB",23-10-2025 07:00:00,16.5150833,80.5181667,NH3,4,5,5
India,Andhra_Pradesh,Anantapur,"Gulzarpet, Anantapur - APPCB",23-10-2025 07:00:00,14.675886,77.593027,PM10,42,53,49
India,Andhra_Pradesh,Anantapur,"Gulzarpet, Anantapur - APPCB",23-10-2025 07:00:00,14.675886,77.593027,SO2,7,27,13
India,Andhra_Pradesh,Chittoor,"Gangineni Cheruvu, Chittoor - APPCB",23-10-2025 07:00:00,13.204880,79.097889,NO2,18,28,25
India,Andhra_Pradesh,Chittoor,"Gangineni Cheruvu, Chittoor - APPCB",23-10-2025 07:00:00,13.204880,79.097889,SO2,16,44,26
India,Andhra_Pradesh,Kadapa,"Yerramukkapalli, Kadapa - APPCB",23-10-2025 07:00:00,14.465052,78.824187,NO2,17,29,20
India,Andhra_Pradesh,Kadapa,"Yerramukkapalli, Kadapa - APPCB",23-10-2025 07:00:00,14.465052,78.824187,SO2,17,21,18
India,Bihar,Bihar Sharif,"D M Colony, Bihar Sharif - BSPCB",23-10-2025 07:00:00,25.204762,85.514960,CO,8,8,8
India,Bihar,Buxar,"Charitra Van, Buxar - BSPCB",23-10-2025 07:00:00,25.567520,83.966379,NH3,3,3,3
India,Bihar,Chhapra,"Darshan Nagar, Chhapra - BSPCB",23-10-2025 07:00:00,25.7808257,84.7446768,CO,4,12,7
India,Bihar,Gaya,"Kareemganj, Gaya - BSPCB",23-10-2025 07:00:00,24.792403,84.992416,PM10,105,195,141
India,Bihar,Gaya,"SFTI Kusdihra, Gaya - BSPCB",23-10-2025 07:00:00,24.762518,84.982348,PM10,50,69,60
India,Bihar,Manguraha,"Forest Rest House, Manguraha - BSPCB",23-10-2025 07:00:00,27.308328,84.531742,NH3,1,3,2
India,Bihar,Manguraha,"Forest Rest House, Manguraha - BSPCB",23-10-2025 07:00:00,27.308328,84.531742,CO,32,34,33
India,Bihar,Munger,"Town Hall, Munger - BSPCB",23-10-2025 07:00:00,25.376776,86.471523,PM2.5,57,270,131
India,Bihar,Munger,"Town Hall, Munger - BSPCB",23-10-2025 07:00:00,25.376776,86.471523,PM10,57,159,104
India,Bihar,Munger,"Town Hall, Munger - BSPCB",23-10-2025 07:00:00,25.376776,86.471523,NO2,4,5,5
India,Andhra_Pradesh,Rajamahendravaram,"Anand Kala Kshetram, Rajamahendravaram - APPCB",23-10-2025 07:00:00,16.9872867,81.7363176,NO2,8,40,19
India,Andhra_Pradesh,Tirumala,"Toll Gate, Tirumala - APPCB",23-10-2025 07:00:00,13.67,79.35,OZONE,14,22,17
India,Andhra_Pradesh,Tirupati,"Vaikuntapuram, Tirupati - APPCB",23-10-2025 07:00:00,13.615387,79.409230,PM10,33,190,88
India,Assam,Nalbari,"Bata Chowk, Nalbari - PCBA",23-10-2025 07:00:00,26.446912,91.439057,NH3,5,8,6
India,Assam,Silchar,"Tarapur, Silchar - PCBA",23-10-2025 07:00:00,24.82827,92.79525,NH3,1,1,1
India,Assam,Sivasagar,"Girls College, Sivasagar - PCBA",23-10-2025 07:00:00,26.987634,94.636574,NO2,19,33,26
India,Assam,Guwahati,"IITG, Guwahati - PCBA",23-10-2025 07:00:00,26.2028636,91.70046436,SO2,22,26,24
India,Assam,Guwahati,"IITG, Guwahati - PCBA",23-10-2025 07:00:00,26.2028636,91.70046436,OZONE,1,33,1
India,Assam,Guwahati,"Pan Bazaar, Guwahati - PCBA",23-10-2025 07:00:00,26.187500,91.744194,PM2.5,24,64,46
India,Assam,Guwahati,"Pan Bazaar, Guwahati - PCBA",23-10-2025 07:00:00,26.187500,91.744194,PM10,22,53,37
India,Bihar,Begusarai,"Lohiyanagar, Begusarai - BSPCB",23-10-2025 07:00:00,25.42742023,86.13886079,OZONE,18,22,21
India,Bihar,Bhagalpur,"DM Office_Kachari Chowk, Bhagalpur - BSPCB",23-10-2025 07:00:00,25.251013,86.989001,CO,14,23,17
India,Bihar,Samastipur,"DM Office_Kasipur, Samastipur - BSPCB",23-10-2025 07:00:00,25.859655,85.77944,OZONE,7,8,8
India,Bihar,Sasaram,"Dada Peer, Sasaram - BSPCB",23-10-2025 07:00:00,24.952822,84.002396,OZONE,7,24,16
India,Bihar,Siwan,"Chitragupta Nagar, Siwan - BSPCB",23-10-2025 07:00:00,26.2271665,84.3570427,PM10,51,111,67
India,Bihar,Siwan,"Chitragupta Nagar, Siwan - BSPCB",23-10-2025 07:00:00,26.2271665,84.3570427,NO2,1,1,1
India,Bihar,Siwan,"Chitragupta Nagar, Siwan - BSPCB",23-10-2025 07:00:00,26.2271665,84.3570427,CO,79,119,102
India,Bihar,Siwan,"Chitragupta Nagar, Siwan - BSPCB",23-10-2025 07:00:00,26.2271665,84.3570427,OZONE,2,3,2
India,Chandigarh,Chandigarh,"Sector 22, Chandigarh - CPCC",23-10-2025 07:00:00,30.735567,76.775714,PM2.5,75,325,177
India,Chandigarh,Chandigarh,"Sector 22, Chandigarh - CPCC",23-10-2025 07:00:00,30.735567,76.775714,PM10,57,210,116
India,Bihar,Patna,"Samanpura, Patna - BSPCB",23-10-2025 07:00:00,25.596727,85.085624,CO,16,70,44
India,Bihar,Patna,"Samanpura, Patna - BSPCB",23-10-2025 07:00:00,25.596727,85.085624,OZONE,4,118,10
India,Bihar,Purnia,"Mariam Nagar, Purnia - BSPCB",23-10-2025 07:00:00,25.366336,87.117468,PM10,19,82,59
India,Bihar,Rajgir,"Dangi Tola, Rajgir - BSPCB",23-10-2025 07:00:00,25.03280,85.41948,NH3,6,7,6
India,Bihar,Saharsa,"Police Line, Saharsa - BSPCB",23-10-2025 07:00:00,25.892357,86.590325,PM2.5,28,240,78
India,Bihar,Saharsa,"Police Line, Saharsa - BSPCB",23-10-2025 07:00:00,25.892357,86.590325,PM10,NA,NA,NA
India,Bihar,Patna,"Govt. High School Shikarpur, Patna - BSPCB",23-10-2025 07:00:00,25.592539,85.227158,CO,28,86,59
India,Bihar,Patna,"Govt. High School Shikarpur, Patna - BSPCB",23-10-2025 07:00:00,25.592539,85.227158,OZONE,8,12,10
India,Bihar,Patna,"IGSC Planetarium Complex, Patna - BSPCB",23-10-2025 07:00:00,25.610369,85.132568,PM2.5,87,253,146
India,Bihar,Patna,"Muradpur, Patna - BSPCB",23-10-2025 07:00:00,25.619651,85.147382,SO2,8,11,9
India,Bihar,Patna,"Rajbansi Nagar, Patna - BSPCB",23-10-2025 07:00:00,25.599486,85.113666,PM10,90,153,115
India,Bihar,Patna,"Rajbansi Nagar, Patna - BSPCB",23-10-2025 07:00:00,25.599486,85.113666,OZONE,4,49,4
India,Chhattisgarh,Korba,"Rampur, Korba - CECB",23-10-2025 07:00:00,22.368195,82.746431,OZONE,2,24,2
India,Chhattisgarh,Kunjemura,"OP Jindal School, Kunjemura - CECB",23-10-2025 07:00:00,22.126650,83.483212,OZONE,12,25,13
India,Chhattisgarh,Milupara,"Govt. Higher Secondary School, Milupara - CECB",23-10-2025 07:00:00,22.1910172,83.5197009,PM10,48,121,80
India,Chhattisgarh,Milupara,"Govt. Higher Secondary School, Milupara - CECB",23-10-2025 07:00:00,22.1910172,83.5197009,SO2,14,16,15
India,Chhattisgarh,Milupara,"Govt. Higher Secondary School, Milupara - CECB",23-10-2025 07:00:00,22.1910172,83.5197009,CO,5,36,20
India,Chhattisgarh,Tumidih,"OP Jindal Industrial Park, Tumidih - CECB",23-10-2025 07:00:00,22.06631475,83.33820077,CO,20,38,27
India,Delhi,Delhi,"Alipur, Delhi - DPCC",23-10-2025 07:00:00,28.815329,77.153010,PM2.5,167,390,298
India,Delhi,Delhi,"Ashok Vihar, Delhi - DPCC",23-10-2025 07:00:00,28.695381,77.181665,PM10,155,413,244
India,Delhi,Delhi,"Ashok Vihar, Delhi - DPCC",23-10-2025 07:00:00,28.695381,77.181665,SO2,15,33,25
India,Chhattisgarh,Raipur,"AIIMS, Raipur - CECB",23-10-2025 07:00:00,21.258815,81.578979,NH3,4,5,4
India,Chhattisgarh,Raipur,"Bhatagaon New ISBT, Raipur - CECB",23-10-2025 07:00:00,21.219665,81.630094,PM10,19,85,51
India,Chhattisgarh,Raipur,"Krishak Nagar, Raipur - CECB",23-10-2025 07:00:00,21.237755,81.705301,SO2,5,9,7
India,Chhattisgarh,Raipur,"Siltara Phase-II, Raipur - CECB",23-10-2025 07:00:00,21.371751,81.664929,NH3,3,3,3
India,Bihar,Muzaffarpur,"Buddha Colony, Muzaffarpur - BSPCB",23-10-2025 07:00:00,26.11442,85.39813,CO,25,109,51
India,Bihar,Muzaffarpur,"MIT-Daudpur Kothi, Muzaffarpur - BSPCB",23-10-2025 07:00:00,26.1403345,85.3650192,NH3,1,2,1
India,Bihar,Patna,"DRM Office Danapur, Patna - BSPCB",23-10-2025 07:00:00,25.586562,85.043586,NO2,15,64,42
India,Chhattisgarh,Bhilai,"Hathkhoj, Bhilai - CECB",23-10-2025 07:00:00,21.224231,81.408350,SO2,12,21,16
India,Chhattisgarh,Bilaspur,"Mangala, Bilaspur - NTPC",23-10-2025 07:00:00,22.08815,82.13737,PM2.5,7,342,99
India,Chhattisgarh,Bilaspur,"Mangala, Bilaspur - NTPC",23-10-2025 07:00:00,22.08815,82.13737,NO2,15,19,18
India,Chandigarh,Chandigarh,"Sector-25, Chandigarh - CPCC",23-10-2025 07:00:00,30.751462,76.762879,PM2.5,51,170,111
India,Chhattisgarh,Bhilai,"32Bungalows, Bhilai - CECB",23-10-2025 07:00:00,21.194815,81.314770,CO,22,44,39
India,Delhi,Delhi,"Chandni Chowk, Delhi - IITM",23-10-2025 07:00:00,28.656756,77.227234,SO2,4,64,22
India,Delhi,Delhi,"Chandni Chowk, Delhi - IITM",23-10-2025 07:00:00,28.656756,77.227234,OZONE,2,110,9
India,Delhi,Delhi,"DTU, Delhi - CPCB",23-10-2025 07:00:00,28.7500499,77.1112615,SO2,25,34,27
India,Delhi,Delhi,"Dr. Karni Singh Shooting Range, Delhi - DPCC",23-10-2025 07:00:00,28.498571,77.264840,PM2.5,240,422,343
India,Delhi,Delhi,"Dr. Karni Singh Shooting Range, Delhi - DPCC",23-10-2025 07:00:00,28.498571,77.264840,NH3,9,12,10
India,Delhi,Delhi,"Dr. Karni Singh Shooting Range, Delhi - DPCC",23-10-2025 07:00:00,28.498571,77.264840,OZONE,7,134,15
India,Delhi,Delhi,"Dwarka-Sector 8, Delhi - DPCC ",23-10-2025 07:00:00,28.5710274,77.0719006,NO2,38,134,71
India,Delhi,Delhi,"Dwarka-Sector 8, Delhi - DPCC ",23-10-2025 07:00:00,28.5710274,77.0719006,SO2,13,24,19
India,Delhi,Delhi,"IGI Airport (T3), Delhi - IMD",23-10-2025 07:00:00,28.5627763,77.1180053,PM10,152,345,225
India,Delhi,Delhi,"IHBAS, Dilshad Garden, Delhi - CPCB",23-10-2025 07:00:00,28.6811736,77.3025234,PM2.5,249,408,320
India,Delhi,Delhi,"IHBAS, Dilshad Garden, Delhi - CPCB",23-10-2025 07:00:00,28.6811736,77.3025234,SO2,8,16,11
India,Delhi,Delhi,"ITO, Delhi - CPCB",23-10-2025 07:00:00,28.628624,77.241060,PM10,119,342,188
India,Delhi,Delhi,"ITO, Delhi - CPCB",23-10-2025 07:00:00,28.628624,77.241060,CO,42,114,79
India,Delhi,Delhi,"Jahangirpuri, Delhi - DPCC",23-10-2025 07:00:00,28.732820,77.170633,PM2.5,260,449,367
India,Delhi,Delhi,"Jahangirpuri, Delhi - DPCC",23-10-2025 07:00:00,28.732820,77.170633,NH3,4,7,6
India,Delhi,Delhi,"Jahangirpuri, Delhi - DPCC",23-10-2025 07:00:00,28.732820,77.170633,OZONE,4,157,9
India,Delhi,Delhi,"Aya Nagar, Delhi - IMD",23-10-2025 07:00:00,28.4706914,77.1099364,PM2.5,173,377,300
India,Delhi,Delhi,"Bawana, Delhi - DPCC",23-10-2025 07:00:00,28.776200,77.051074,PM10,124,300,186
India,Delhi,Delhi,"Bawana, Delhi - DPCC",23-10-2025 07:00:00,28.776200,77.051074,NH3,7,9,8
India,Delhi,Delhi,"Bawana, Delhi - DPCC",23-10-2025 07:00:00,28.776200,77.051074,SO2,10,31,14
India,Delhi,Delhi,"Bawana, Delhi - DPCC",23-10-2025 07:00:00,28.776200,77.051074,OZONE,4,105,13
India,Delhi,Delhi,"Burari Crossing, Delhi - IMD",23-10-2025 07:00:00,28.7256504,77.2011573,OZONE,13,197,15
India,Delhi,Delhi,"Chandni Chowk, Delhi - IITM",23-10-2025 07:00:00,28.656756,77.227234,PM2.5,261,364,328
India,Delhi,Delhi,"Rohini, Delhi - DPCC",23-10-2025 07:00:00,28.732528,77.119920,NH3,11,15,13
India,Delhi,Delhi,"Shadipur, Delhi - CPCB",23-10-2025 07:00:00,28.6514781,77.1473105,PM10,141,258,200
India,Delhi,Delhi,"Shadipur, Delhi - CPCB",23-10-2025 07:00:00,28.6514781,77.1473105,NO2,49,132,84
India,Delhi,Delhi,"Sirifort, Delhi - CPCB",23-10-2025 07:00:00,28.5504249,77.2159377,PM2.5,236,408,337
India,Delhi,Delhi,"Sirifort, Delhi - CPCB",23-10-2025 07:00:00,28.5504249,77.2159377,CO,10,110,66
India,Delhi,Delhi,"Sonia Vihar, Delhi - DPCC",23-10-2025 07:00:00,28.710508,77.249485,PM2.5,203,449,330
India,Delhi,Delhi,"Sonia Vihar, Delhi - DPCC",23-10-2025 07:00:00,28.710508,77.249485,NH3,4,5,5
India,Delhi,Delhi,"Vivek Vihar, Delhi - DPCC",23-10-2025 07:00:00,28.672342,77.315260,PM2.5,253,463,362
India,Delhi,Delhi,"Vivek Vihar, Delhi - DPCC",23-10-2025 07:00:00,28.672342,77.315260,NH3,10,12,11
India,Delhi,Delhi,"Vivek Vihar, Delhi - DPCC",23-10-2025 07:00:00,28.672342,77.315260,OZONE,4,21,4
India,Delhi,Delhi,"Wazirpur, Delhi - DPCC",23-10-2025 07:00:00,28.699793,77.165453,PM10,172,422,307
India,Delhi,Delhi,"Wazirpur, Delhi - DPCC",23-10-2025 07:00:00,28.699793,77.165453,NH3,11,14,12
India,Delhi,Delhi,"Wazirpur, Delhi - DPCC",23-10-2025 07:00:00,28.699793,77.165453,OZONE,13,92,19
India,Gujarat,Ahmedabad,"Chandkheda, Ahmedabad - IITM",23-10-2025 07:00:00,23.107969,72.574648,PM2.5,59,325,142
India,Delhi,Delhi,"Mandir Marg, Delhi - DPCC",23-10-2025 07:00:00,28.636429,77.201067,SO2,12,48,31
India,Delhi,Delhi,"Mandir Marg, Delhi - DPCC",23-10-2025 07:00:00,28.636429,77.201067,OZONE,6,198,7
India,Delhi,Delhi,"Mundka, Delhi - DPCC",23-10-2025 07:00:00,28.684678,77.076574,PM10,140,437,234
India,Delhi,Delhi,"Najafgarh, Delhi - DPCC",23-10-2025 07:00:00,28.570173,76.933762,NH3,NA,NA,NA
India,Delhi,Delhi,"Najafgarh, Delhi - DPCC",23-10-2025 07:00:00,28.570173,76.933762,CO,NA,NA,NA
India,Delhi,Delhi,"Najafgarh, Delhi - DPCC",23-10-2025 07:00:00,28.570173,76.933762,OZONE,NA,NA,NA
India,Delhi,Delhi,"Narela, Delhi - DPCC",23-10-2025 07:00:00,28.822836,77.101981,NH3,15,20,17
India,Delhi,Delhi,"Narela, Delhi - DPCC",23-10-2025 07:00:00,28.822836,77.101981,OZONE,6,70,24
India,Delhi,Delhi,"Okhla Phase-2, Delhi - DPCC",23-10-2025 07:00:00,28.530785,77.271255,PM10,159,405,260
India,Delhi,Delhi,"Okhla Phase-2, Delhi - DPCC",23-10-2025 07:00:00,28.530785,77.271255,NO2,40,133,89
India,Delhi,Delhi,"Okhla Phase-2, Delhi - DPCC",23-10-2025 07:00:00,28.530785,77.271255,SO2,15,22,18
India,Delhi,Delhi,"Punjabi Bagh, Delhi - DPCC",23-10-2025 07:00:00,28.674045,77.131023,CO,34,86,50
India,Delhi,Delhi,"Pusa, Delhi - IMD",23-10-2025 07:00:00,28.636110,77.173332,PM10,126,343,211
India,Delhi,Delhi,"R K Puram, Delhi - DPCC",23-10-2025 07:00:00,28.563262,77.186937,PM2.5,230,442,358
India,Delhi,Delhi,"R K Puram, Delhi - DPCC",23-10-2025 07:00:00,28.563262,77.186937,PM10,152,358,241
India,Delhi,Delhi,"Jawaharlal Nehru Stadium, Delhi - DPCC",23-10-2025 07:00:00,28.580280,77.233829,NO2,35,144,90
India,Delhi,Delhi,"Lodhi Road, Delhi - IITM",23-10-2025 07:00:00,28.588333,77.221667,NO2,106,223,143
India,Delhi,Delhi,"Lodhi Road, Delhi - IMD",23-10-2025 07:00:00,28.5918245,77.2273074,NO2,32,77,48
India,Haryana,Charkhi Dadri,"Mini Secretariat, Charkhi Dadri - HSPCB",23-10-2025 07:00:00,28.593883,76.270653,NH3,5,7,6
India,Haryana,Charkhi Dadri,"Mini Secretariat, Charkhi Dadri - HSPCB",23-10-2025 07:00:00,28.593883,76.270653,SO2,9,11,10
India,Haryana,Charkhi Dadri,"Mini Secretariat, Charkhi Dadri - HSPCB",23-10-2025 07:00:00,28.593883,76.270653,OZONE,12,17,14
India,Haryana,Dharuhera,"Municipal Corporation Office, Dharuhera -  HSPCB",23-10-2025 07:00:00,28.206800,76.799700,PM2.5,186,427,340
India,Haryana,Dharuhera,"Municipal Corporation Office, Dharuhera -  HSPCB",23-10-2025 07:00:00,28.206800,76.799700,NO2,14,50,38
India,Haryana,Dharuhera,"Municipal Corporation Office, Dharuhera -  HSPCB",23-10-2025 07:00:00,28.206800,76.799700,NH3,9,26,19
India,Haryana,Faridabad,"New Industrial Town, Faridabad - HSPCB",23-10-2025 07:00:00,28.39072,77.30059,NO2,24,27,25
India,Haryana,Faridabad,"New Industrial Town, Faridabad - HSPCB",23-10-2025 07:00:00,28.39072,77.30059,OZONE,27,32,30
India,Haryana,Faridabad,"Sector 30, Faridabad - HSPCB",23-10-2025 07:00:00,28.4417,77.3217,PM2.5,163,170,167
India,Haryana,Faridabad,"Sector 30, Faridabad - HSPCB",23-10-2025 07:00:00,28.4417,77.3217,SO2,6,6,6
India,Haryana,Jind,"Police Lines, Jind - HSPCB",23-10-2025 07:00:00,29.307814,76.337619,PM2.5,206,345,308
India,Haryana,Kaithal,"Rishi Nagar, Kaithal - HSPCB",23-10-2025 07:00:00,29.8006,76.4155,SO2,NA,NA,NA
India,Haryana,Karnal,"Sector-12, Karnal - HSPCB",23-10-2025 07:00:00,29.695300,77.002700,PM2.5,85,347,222
India,Haryana,Karnal,"Sector-12, Karnal - HSPCB",23-10-2025 07:00:00,29.695300,77.002700,NO2,9,10,10
India,Haryana,Karnal,"Sector-12, Karnal - HSPCB",23-10-2025 07:00:00,29.695300,77.002700,NH3,6,7,6
India,Haryana,Karnal,"Sector-12, Karnal - HSPCB",23-10-2025 07:00:00,29.695300,77.002700,SO2,14,17,15
India,Haryana,Kurukshetra,"Sector-7, Kurukshetra - HSPCB",23-10-2025 07:00:00,29.966942,76.875879,NO2,16,21,19
India,Haryana,Kurukshetra,"Sector-7, Kurukshetra - HSPCB",23-10-2025 07:00:00,29.966942,76.875879,NH3,5,5,5
India,Haryana,Kurukshetra,"Sector-7, Kurukshetra - HSPCB",23-10-2025 07:00:00,29.966942,76.875879,CO,9,103,40
India,Haryana,Ambala,"Patti Mehar, Ambala - HSPCB",23-10-2025 07:00:00,30.379589,76.778328,OZONE,42,58,51
India,Haryana,Bahadurgarh,"Arya Nagar, Bahadurgarh - HSPCB",23-10-2025 07:00:00,28.6701,76.9254,NO2,12,15,14
India,Haryana,Bahadurgarh,"Arya Nagar, Bahadurgarh - HSPCB",23-10-2025 07:00:00,28.6701,76.9254,NH3,12,14,13
India,Haryana,Ballabgarh,"Nathu Colony, Ballabgarh - HSPCB",23-10-2025 07:00:00,28.3419248,77.319699,NH3,NA,NA,NA
India,Haryana,Ballabgarh,"Nathu Colony, Ballabgarh - HSPCB",23-10-2025 07:00:00,28.3419248,77.319699,CO,NA,NA,NA
India,Haryana,Ballabgarh,"Nathu Colony, Ballabgarh - HSPCB",23-10-2025 07:00:00,28.3419248,77.319699,OZONE,NA,NA,NA
India,Haryana,Bhiwani,"H.B. Colony, Bhiwani - HSPCB",23-10-2025 07:00:00,28.806223,76.141105,CO,4,14,12
India,Gujarat,Ahmedabad,"Rakhial, Ahmedabad - IITM",23-10-2025 07:00:00,23.016834,72.625775,OZONE,13,82,54
India,Gujarat,Ahmedabad,"SAC ISRO Satellite, Ahmedabad - IITM",23-10-2025 07:00:00,23.023389,72.515201,PM2.5,33,116,67
India,Gujarat,Ahmedabad,"SVPI Airport Hansol, Ahmedabad - IITM",23-10-2025 07:00:00,23.076793,72.627874,NH3,NA,NA,NA
India,Gujarat,Ahmedabad,"SVPI Airport Hansol, Ahmedabad - IITM",23-10-2025 07:00:00,23.076793,72.627874,OZONE,30,61,34
India,Gujarat,Ankleshwar,"GIDC, Ankleshwar - GPCB",23-10-2025 07:00:00,21.613267,73.010555,PM2.5,NA,NA,NA
India,Gujarat,Ankleshwar,"GIDC, Ankleshwar - GPCB",23-10-2025 07:00:00,21.613267,73.010555,PM10,NA,NA,NA
India,Haryana,Gurugram,"Sector-51, Gurugram - HSPCB",23-10-2025 07:00:00,28.4227,77.0667,PM10,152,444,278
India,Haryana,Hisar,"Urban Estate-II, Hisar - HSPCB",23-10-2025 07:00:00,29.140560,75.744941,PM2.5,60,222,138
India,Haryana,Hisar,"Urban Estate-II, Hisar - HSPCB",23-10-2025 07:00:00,29.140560,75.744941,NO2,11,12,12
India,Haryana,Hisar,"Urban Estate-II, Hisar - HSPCB",23-10-2025 07:00:00,29.140560,75.744941,NH3,4,5,5
India,Gujarat,Gandhinagar,"GIFT City, Gandhinagar - IITM",23-10-2025 07:00:00,23.163798,72.677768,SO2,1,9,4
India,Gujarat,Gandhinagar,"IIPHG Lekawada, Gandhinagar - IITM",23-10-2025 07:00:00,23.243639,72.68994,PM2.5,54,126,77
India,Gujarat,Gandhinagar,"IIPHG Lekawada, Gandhinagar - IITM",23-10-2025 07:00:00,23.243639,72.68994,NH3,2,2,2
India,Gujarat,Gandhinagar,"IIPHG Lekawada, Gandhinagar - IITM",23-10-2025 07:00:00,23.243639,72.68994,SO2,6,8,7
India,Gujarat,Surat,"Science Center, Surat - SMC",23-10-2025 07:00:00,21.170046,72.795405,NO2,14,26,18
India,Gujarat,Surat,"Science Center, Surat - SMC",23-10-2025 07:00:00,21.170046,72.795405,SO2,31,52,41
India,Gujarat,Vapi,"Phase-1 GIDC, Vapi - GPCB",23-10-2025 07:00:00,20.362421,72.918013,PM10,32,151,81
India,Haryana,Mandikhera,"General Hospital, Mandikhera - HSPCB",23-10-2025 07:00:00,27.9002,76.9938,PM10,7,29,16
India,Haryana,Palwal,"Shyam Nagar, Palwal - HSPCB",23-10-2025 07:00:00,28.1485564,77.3320667,NO2,22,24,24
India,Gujarat,Ahmedabad,"Gyaspur, Ahmedabad - IITM",23-10-2025 07:00:00,22.977134,72.553024,SO2,NA,NA,NA
India,Gujarat,Ahmedabad,"Raikhad, Ahmedabad - IITM",23-10-2025 07:00:00,23.020509,72.579261,SO2,11,23,16
India,Haryana,Panipat,"Sector-18, Panipat - HSPCB",23-10-2025 07:00:00,29.432304,76.972765,PM2.5,161,339,284
India,Haryana,Panipat,"Sector-18, Panipat - HSPCB",23-10-2025 07:00:00,29.432304,76.972765,CO,20,61,60
India,Haryana,Panipat,"Sector-18, Panipat - HSPCB",23-10-2025 07:00:00,29.432304,76.972765,OZONE,30,30,30
India,Haryana,Rohtak,"MD University, Rohtak - HSPCB",23-10-2025 07:00:00,28.52123,76.37138,PM10,116,489,191
India,Haryana,Rohtak,"MD University, Rohtak - HSPCB",23-10-2025 07:00:00,28.52123,76.37138,CO,60,66,64
India,Haryana,Sirsa,"F-Block, Sirsa - HSPCB",23-10-2025 07:00:00,29.536400,75.015800,PM2.5,42,268,82
India,Haryana,Sirsa,"F-Block, Sirsa - HSPCB",23-10-2025 07:00:00,29.536400,75.015800,SO2,3,9,7
India,Haryana,Sonipat,"Murthal, Sonipat - HSPCB",23-10-2025 07:00:00,29.027200,77.062100,PM10,124,272,196
India,Haryana,Sonipat,"Murthal, Sonipat - HSPCB",23-10-2025 07:00:00,29.027200,77.062100,NO2,38,62,46
India,Haryana,Sonipat,"Murthal, Sonipat - HSPCB",23-10-2025 07:00:00,29.027200,77.062100,NH3,14,23,17
India,Haryana,Yamuna Nagar,"Gobind Pura, Yamuna Nagar - HSPCB",23-10-2025 07:00:00,30.1480566,77.2893471,PM2.5,99,336,172
India,Himachal Pradesh,Baddi,"HIMUDA Complex Phase-1, Baddi - HPPCB",23-10-2025 07:00:00,30.943887,76.801991,PM10,70,191,120
India,Jammu_and_Kashmir,Srinagar,"Rajbagh, Srinagar - JKSPCB",23-10-2025 07:00:00,34.066206,74.819820,PM2.5,45,72,62
India,Jammu_and_Kashmir,Srinagar,"Rajbagh, Srinagar - JKSPCB",23-10-2025 07:00:00,34.066206,74.819820,PM10,56,91,77
India,Jammu_and_Kashmir,Srinagar,"Rajbagh, Srinagar - JKSPCB",23-10-2025 07:00:00,34.066206,74.819820,CO,10,22,16
India,Jharkhand,Jorapokhar,"Tata Stadium, Jorapokhar - JSPCB",23-10-2025 07:00:00,23.707909,86.414670,SO2,NA,NA,NA
India,Karnataka,Bengaluru,"Jigani, Bengaluru - KSPCB",23-10-2025 07:00:00,12.7816279,77.6299145,PM10,47,115,84
India,Karnataka,Bengaluru,"Jigani, Bengaluru - KSPCB",23-10-2025 07:00:00,12.7816279,77.6299145,NO2,23,34,28
India,Karnataka,Bengaluru,"Jigani, Bengaluru - KSPCB",23-10-2025 07:00:00,12.7816279,77.6299145,SO2,12,30,19
India,Karnataka,Bengaluru,"Kasturi Nagar, Bengaluru - KSPCB",23-10-2025 07:00:00,13.003872,77.664217,PM10,85,169,101
India,Karnataka,Bengaluru,"Kasturi Nagar, Bengaluru - KSPCB",23-10-2025 07:00:00,13.003872,77.664217,OZONE,22,23,22
India,Karnataka,Bengaluru,"Peenya, Bengaluru - CPCB",23-10-2025 07:00:00,13.0270199,77.494094,PM2.5,28,174,46
India,Karnataka,Bengaluru,"Peenya, Bengaluru - CPCB",23-10-2025 07:00:00,13.0270199,77.494094,NO2,24,33,28
India,Karnataka,Bengaluru,"Peenya, Bengaluru - CPCB",23-10-2025 07:00:00,13.0270199,77.494094,NH3,3,4,3
India,Karnataka,Bengaluru,"Peenya, Bengaluru - CPCB",23-10-2025 07:00:00,13.0270199,77.494094,OZONE,18,19,18
India,Karnataka,Bengaluru,"Bapuji Nagar, Bengaluru - KSPCB",23-10-2025 07:00:00,12.951913,77.539784,PM10,6,107,52
India,Karnataka,Bengaluru,"Bapuji Nagar, Bengaluru - KSPCB",23-10-2025 07:00:00,12.951913,77.539784,SO2,2,11,6
