country,state,city,station,last_update,latitude,longitude,pollutant_id,min_value,max_value,avg_value
India,Andhra_Pradesh,Tirupati,"Vaikuntapuram, Tirupati - APPCB",12-04-2026 09:00:00,13.615387,79.409230,NO2,18,21,20
India,Andhra_Pradesh,Vijayawada,"HB Colony, Vijayawada - APPCB",12-04-2026 09:00:00,16.536107,80.594233,PM2.5,35,377,66
India,Andhra_Pradesh,Vijayawada,"HB Colony, Vijayawada - APPCB",12-04-2026 09:00:00,16.536107,80.594233,SO2,14,21,20
India,Andhra_Pradesh,Vijayawada,"HB Colony, Vijayawada - APPCB",12-04-2026 09:00:00,16.536107,80.594233,CO,17,22,21
India,Andhra_Pradesh,Vijayawada,"Kanuru, Vijayawada - APPCB",12-04-2026 09:00:00,16.486692,80.699436,PM10,NA,NA,NA
India,Andhra_Pradesh,Vijayawada,"Kanuru, Vijayawada - APPCB",12-04-2026 09:00:00,16.486692,80.699436,NH3,NA,NA,NA
India,Andhra_Pradesh,Vijayawada,"Kanuru, Vijayawada - APPCB",12-04-2026 09:00:00,16.486692,80.699436,SO2,NA,NA,NA
India,Andhra_Pradesh,Vijayawada,"Rajiv Gandhi Park, Vijayawada - APPCB",12-04-2026 09:00:00,16.509717,80.612222,PM10,46,78,64
India,Andhra_Pradesh,Eluru,"District Court, Eluru - APPCB",12-04-2026 09:00:00,16.711754,81.092095,PM10,31,67,46
India,Andhra_Pradesh,Eluru,"District Court, Eluru - APPCB",12-04-2026 09:00:00,16.711754,81.092095,NH3,2,8,5
India,Andhra_Pradesh,Guntur,"Rajendra Nagar North, Guntur - APPCB",12-04-2026 09:00:00,16.316553,80.413302,PM2.5,47,57,51
India,Andhra_Pradesh,Guntur,"Rajendra Nagar North, Guntur - APPCB",12-04-2026 09:00:00,16.316553,80.413302,NO2,18,29,23
India,Andhra_Pradesh,Guntur,"Rajendra Nagar North, Guntur - APPCB",12-04-2026 09:00:00,16.316553,80.413302,NH3,4,6,5
India,Andhra_Pradesh,Kadapa,"Yerramukkapalli, Kadapa - APPCB",12-04-2026 09:00:00,14.465052,78.824187,PM2.5,59,71,68
India,Andhra_Pradesh,Kadapa,"Yerramukkapalli, Kadapa - APPCB",12-04-2026 09:00:00,14.465052,78.824187,NO2,19,21,19
India,Andhra_Pradesh,Machilipatnam,"Srinivas Nagar Colony, Machilipatnam - APPCB",12-04-2026 09:00:00,16.186555,81.13219,CO,4,46,11
India,Andhra_Pradesh,Machilipatnam,"Srinivas Nagar Colony, Machilipatnam - APPCB",12-04-2026 09:00:00,16.186555,81.13219,OZONE,31,39,32
India,Arunachal_Pradesh,Naharlagun,"Naharlagun, Naharlagun - APSPCB",12-04-2026 09:00:00,27.103358,93.679645,NH3,1,1,1
India,Assam,Byrnihat,"Central Academy for SFS, Byrnihat - PCBA",12-04-2026 09:00:00,26.071318,91.87488,CO,30,111,64
India,Andhra_Pradesh,Rajamahendravaram,"Anand Kala Kshetram, Rajamahendravaram - APPCB",12-04-2026 09:00:00,16.9872867,81.7363176,SO2,4,12,6
India,Andhra_Pradesh,Tirumala,"Toll Gate, Tirumala - APPCB",12-04-2026 09:00:00,13.67,79.35,NO2,42,78,54
India,Assam,Guwahati,"IITG, Guwahati - PCBA",12-04-2026 09:00:00,26.2028636,91.70046436,OZONE,1,23,6
India,Assam,Guwahati,"LGBI Airport, Guwahati - PCBA",12-04-2026 09:00:00,26.10887,91.589544,NH3,2,11,4
India,Andhra_Pradesh,Vijayawada,"Rajiv Nagar, Vijayawada - APPCB",12-04-2026 09:00:00,16.554731,80.649110,PM2.5,55,84,67
India,Andhra_Pradesh,Vijayawada,"Rajiv Nagar, Vijayawada - APPCB",12-04-2026 09:00:00,16.554731,80.649110,NH3,3,5,4
India,Andhra_Pradesh,Anantapur,"Gulzarpet, Anantapur - APPCB",12-04-2026 09:00:00,14.675886,77.593027,NH3,4,5,4
India,Andhra_Pradesh,Anantapur,"Gulzarpet, Anantapur - APPCB",12-04-2026 09:00:00,14.675886,77.593027,SO2,9,17,16
India,Andhra_Pradesh,Tirumala,"Toll Gate, Tirumala - APPCB",12-04-2026 09:00:00,13.67,79.35,OZONE,20,73,30
India,Assam,Guwahati,"Pan Bazaar, Guwahati - PCBA",12-04-2026 09:00:00,26.187500,91.744194,NH3,1,1,1
India,Bihar,Aurangabad,"Gurdeo Nagar, Aurangabad - BSPCB",12-04-2026 09:00:00,24.75746,84.366208,PM10,34,389,98
India,Bihar,Aurangabad,"Gurdeo Nagar, Aurangabad - BSPCB",12-04-2026 09:00:00,24.75746,84.366208,NO2,7,10,9
India,Bihar,Aurangabad,"Gurdeo Nagar, Aurangabad - BSPCB",12-04-2026 09:00:00,24.75746,84.366208,CO,101,109,106
India,Bihar,Begusarai,"Lohiyanagar, Begusarai - BSPCB",12-04-2026 09:00:00,25.42742023,86.13886079,PM10,72,134,99
India,Bihar,Begusarai,"Lohiyanagar, Begusarai - BSPCB",12-04-2026 09:00:00,25.42742023,86.13886079,NO2,10,16,13
India,Bihar,Begusarai,"Lohiyanagar, Begusarai - BSPCB",12-04-2026 09:00:00,25.42742023,86.13886079,CO,15,19,16
India,Bihar,Bettiah,"Kamalnath Nagar, Bettiah - BSPCB",12-04-2026 09:00:00,26.80365,84.51954,PM10,15,74,40
India,Bihar,Bhagalpur,"DM Office_Kachari Chowk, Bhagalpur - BSPCB",12-04-2026 09:00:00,25.251013,86.989001,OZONE,8,25,16
India,Bihar,Bhagalpur,"Mayaganj, Bhagalpur - BSPCB",12-04-2026 09:00:00,25.265194,87.012947,PM2.5,15,73,38
India,Bihar,Bhagalpur,"Mayaganj, Bhagalpur - BSPCB",12-04-2026 09:00:00,25.265194,87.012947,NO2,7,8,7
India,Bihar,Bhagalpur,"Mayaganj, Bhagalpur - BSPCB",12-04-2026 09:00:00,25.265194,87.012947,SO2,51,74,59
India,Bihar,Bihar Sharif,"D M Colony, Bihar Sharif - BSPCB",12-04-2026 09:00:00,25.204762,85.514960,PM2.5,15,87,38
India,Assam,Guwahati,"Railway Colony, Guwahati - PCBA",12-04-2026 09:00:00,26.181742,91.78063,NH3,1,1,1
India,Assam,Nagaon,"Christianpatty, Nagaon - PCBA",12-04-2026 09:00:00,26.349082,92.68449,PM2.5,33,82,52
India,Assam,Nagaon,"Christianpatty, Nagaon - PCBA",12-04-2026 09:00:00,26.349082,92.68449,SO2,7,15,12
India,Assam,Silchar,"Tarapur, Silchar - PCBA",12-04-2026 09:00:00,24.82827,92.79525,NH3,1,1,1
India,Assam,Sivasagar,"Girls College, Sivasagar - PCBA",12-04-2026 09:00:00,26.987634,94.636574,PM2.5,9,48,28
India,Assam,Sivasagar,"Girls College, Sivasagar - PCBA",12-04-2026 09:00:00,26.987634,94.636574,CO,14,35,33
India,Bihar,Araria,"Kharahiya Basti, Araria - BSPCB",12-04-2026 09:00:00,26.146529,87.454184,PM2.5,68,344,129
India,Bihar,Araria,"Kharahiya Basti, Araria - BSPCB",12-04-2026 09:00:00,26.146529,87.454184,NH3,5,6,6
India,Bihar,Buxar,"Charitra Van, Buxar - BSPCB",12-04-2026 09:00:00,25.567520,83.966379,NH3,3,3,3
India,Bihar,Chhapra,"Darshan Nagar, Chhapra - BSPCB",12-04-2026 09:00:00,25.7808257,84.7446768,SO2,20,22,21
India,Bihar,Gaya,"SFTI Kusdihra, Gaya - BSPCB",12-04-2026 09:00:00,24.762518,84.982348,CO,12,35,26
India,Bihar,Hajipur,"Industrial Area, Hajipur - BSPCB",12-04-2026 09:00:00,25.697189,85.245900,PM10,121,431,206
India,Bihar,Araria,"Kharahiya Basti, Araria - BSPCB",12-04-2026 09:00:00,26.146529,87.454184,SO2,39,80,59
India,Bihar,Araria,"Kharahiya Basti, Araria - BSPCB",12-04-2026 09:00:00,26.146529,87.454184,OZONE,10,11,10
India,Bihar,Bettiah,"Kamalnath Nagar, Bettiah - BSPCB",12-04-2026 09:00:00,26.80365,84.51954,CO,28,51,34
India,Bihar,Gaya,"SFTI Kusdihra, Gaya - BSPCB",12-04-2026 09:00:00,24.762518,84.982348,NH3,2,7,4
India,Bihar,Katihar,"Mirchaibari, Katihar - BSPCB",12-04-2026 09:00:00,25.560083,87.553265,CO,70,100,91
India,Bihar,Kishanganj,"SDM Office_Khagra, Kishanganj - BSPCB",12-04-2026 09:00:00,26.0881305,87.93840336,PM10,27,125,49
India,Bihar,Manguraha,"Forest Rest House, Manguraha - BSPCB",12-04-2026 09:00:00,27.308328,84.531742,PM10,87,159,121
India,Bihar,Manguraha,"Forest Rest House, Manguraha - BSPCB",12-04-2026 09:00:00,27.308328,84.531742,CO,32,34,32
India,Bihar,Manguraha,"Forest Rest House, Manguraha - BSPCB",12-04-2026 09:00:00,27.308328,84.531742,OZONE,7,11,9
India,Bihar,Motihari,"Gandak Colony, Motihari - BSPCB",12-04-2026 09:00:00,26.63086,84.90051,NH3,3,3,3
India,Bihar,Motihari,"Gandak Colony, Motihari - BSPCB",12-04-2026 09:00:00,26.63086,84.90051,OZONE,3,10,4
India,Bihar,Munger,"Town Hall, Munger - BSPCB",12-04-2026 09:00:00,25.376776,86.471523,PM10,32,74,50
India,Bihar,Munger,"Town Hall, Munger - BSPCB",12-04-2026 09:00:00,25.376776,86.471523,CO,26,32,28
India,Bihar,Siwan,"Chitragupta Nagar, Siwan - BSPCB",12-04-2026 09:00:00,26.2271665,84.3570427,PM10,47,133,89
India,Bihar,Siwan,"Chitragupta Nagar, Siwan - BSPCB",12-04-2026 09:00:00,26.2271665,84.3570427,NO2,2,2,2
India,Chandigarh,Chandigarh,"Sector 22, Chandigarh - CPCC",12-04-2026 09:00:00,30.735567,76.775714,PM2.5,35,113,70
India,Chandigarh,Chandigarh,"Sector-25, Chandigarh - CPCC",12-04-2026 09:00:00,30.751462,76.762879,PM10,40,114,61
India,Chandigarh,Chandigarh,"Sector-53, Chandigarh - CPCC",12-04-2026 09:00:00,30.719859,76.738637,OZONE,2,87,12
India,Bihar,Muzaffarpur,"Buddha Colony, Muzaffarpur - BSPCB",12-04-2026 09:00:00,26.11442,85.39813,NH3,18,23,20
India,Bihar,Muzaffarpur,"Buddha Colony, Muzaffarpur - BSPCB",12-04-2026 09:00:00,26.11442,85.39813,SO2,5,39,10
India,Bihar,Muzaffarpur,"Buddha Colony, Muzaffarpur - BSPCB",12-04-2026 09:00:00,26.11442,85.39813,OZONE,29,140,38
India,Bihar,Muzaffarpur,"MIT-Daudpur Kothi, Muzaffarpur - BSPCB",12-04-2026 09:00:00,26.1403345,85.3650192,NH3,2,3,3
India,Bihar,Muzaffarpur,"Muzaffarpur Collectorate, Muzaffarpur - BSPCB",12-04-2026 09:00:00,26.1209,85.3647,SO2,4,8,5
India,Bihar,Muzaffarpur,"Muzaffarpur Collectorate, Muzaffarpur - BSPCB",12-04-2026 09:00:00,26.1209,85.3647,OZONE,7,19,7
India,Bihar,Patna,"Muradpur, Patna - BSPCB",12-04-2026 09:00:00,25.619651,85.147382,OZONE,16,96,25
India,Bihar,Patna,"Rajbansi Nagar, Patna - BSPCB",12-04-2026 09:00:00,25.599486,85.113666,NO2,28,33,31
India,Bihar,Patna,"Samanpura, Patna - BSPCB",12-04-2026 09:00:00,25.596727,85.085624,OZONE,7,306,217
India,Bihar,Purnia,"Mariam Nagar, Purnia - BSPCB",12-04-2026 09:00:00,25.366336,87.117468,PM10,47,69,59
India,Bihar,Purnia,"Mariam Nagar, Purnia - BSPCB",12-04-2026 09:00:00,25.366336,87.117468,CO,55,60,59
India,Chhattisgarh,Bhilai,"32Bungalows, Bhilai - CECB",12-04-2026 09:00:00,21.194815,81.314770,NH3,3,6,4
India,Chhattisgarh,Bhilai,"32Bungalows, Bhilai - CECB",12-04-2026 09:00:00,21.194815,81.314770,CO,10,67,47
India,Chhattisgarh,Bhilai,"Civic Center, Bhilai - Bhilai Steel Plant",12-04-2026 09:00:00,21.185571,81.343175,NH3,3,3,3
India,Chhattisgarh,Bhilai,"Civic Center, Bhilai - Bhilai Steel Plant",12-04-2026 09:00:00,21.185571,81.343175,SO2,5,26,9
India,Chhattisgarh,Bhilai,"Civic Center, Bhilai - Bhilai Steel Plant",12-04-2026 09:00:00,21.185571,81.343175,CO,25,31,26
India,Bihar,Samastipur,"DM Office_Kasipur, Samastipur - BSPCB",12-04-2026 09:00:00,25.859655,85.77944,PM2.5,22,213,112
India,Bihar,Samastipur,"DM Office_Kasipur, Samastipur - BSPCB",12-04-2026 09:00:00,25.859655,85.77944,OZONE,6,10,8
India,Bihar,Sasaram,"Dada Peer, Sasaram - BSPCB",12-04-2026 09:00:00,24.952822,84.002396,PM10,61,142,96
India,Bihar,Sasaram,"Dada Peer, Sasaram - BSPCB",12-04-2026 09:00:00,24.952822,84.002396,NO2,1,7,3
India,Bihar,Rajgir,"Dangi Tola, Rajgir - BSPCB",12-04-2026 09:00:00,25.03280,85.41948,NO2,13,15,14
India,Bihar,Rajgir,"Dangi Tola, Rajgir - BSPCB",12-04-2026 09:00:00,25.03280,85.41948,SO2,2,3,3
India,Bihar,Rajgir,"Dangi Tola, Rajgir - BSPCB",12-04-2026 09:00:00,25.03280,85.41948,OZONE,24,29,26
India,Bihar,Patna,"IGSC Planetarium Complex, Patna - BSPCB",12-04-2026 09:00:00,25.610369,85.132568,CO,6,50,47
India,Bihar,Hajipur,"Industrial Area, Hajipur - BSPCB",12-04-2026 09:00:00,25.697189,85.245900,OZONE,15,169,26
India,Chhattisgarh,Korba,"Urja Nagar, Korba - CECB",12-04-2026 09:00:00,22.348441,82.549611,OZONE,2,5,2
India,Chhattisgarh,Kunjemura,"OP Jindal School, Kunjemura - CECB",12-04-2026 09:00:00,22.126650,83.483212,SO2,10,46,21
India,Chhattisgarh,Kunjemura,"OP Jindal School, Kunjemura - CECB",12-04-2026 09:00:00,22.126650,83.483212,CO,10,56,31
India,Chhattisgarh,Milupara,"Govt. Higher Secondary School, Milupara - CECB",12-04-2026 09:00:00,22.1910172,83.5197009,NO2,14,53,29
India,Chhattisgarh,Raipur,"AIIMS, Raipur - CECB",12-04-2026 09:00:00,21.258815,81.578979,OZONE,6,21,6
India,Chhattisgarh,Raipur,"Bhatagaon New ISBT, Raipur - CECB",12-04-2026 09:00:00,21.219665,81.630094,NO2,10,55,29
India,Chhattisgarh,Raipur,"Krishak Nagar, Raipur - CECB",12-04-2026 09:00:00,21.237755,81.705301,CO,1,36,8
India,Chhattisgarh,Tumidih,"OP Jindal Industrial Park, Tumidih - CECB",12-04-2026 09:00:00,22.06631475,83.33820077,PM2.5,10,87,44
India,Chhattisgarh,Tumidih,"OP Jindal Industrial Park, Tumidih - CECB",12-04-2026 09:00:00,22.06631475,83.33820077,SO2,5,9,6
India,Chhattisgarh,Tumidih,"OP Jindal Industrial Park, Tumidih - CECB",12-04-2026 09:00:00,22.06631475,83.33820077,CO,13,57,29
India,Chhattisgarh,Tumidih,"OP Jindal Industrial Park, Tumidih - CECB",12-04-2026 09:00:00,22.06631475,83.33820077,OZONE,6,94,18
India,Delhi,Delhi,"Anand Vihar, Delhi - DPCC",12-04-2026 09:00:00,28.647622,77.3158090,OZONE,1,44,10
India,Delhi,Delhi,"Aya Nagar, Delhi - IMD",12-04-2026 09:00:00,28.4706914,77.1099364,PM10,66,309,133
India,Delhi,Delhi,"Aya Nagar, Delhi - IMD",12-04-2026 09:00:00,28.4706914,77.1099364,OZONE,5,74,21
India,Delhi,Delhi,"Bawana, Delhi - DPCC",12-04-2026 09:00:00,28.776200,77.051074,PM10,103,341,163
India,Delhi,Delhi,"CRRI Mathura Road, Delhi - IMD",12-04-2026 09:00:00,28.5512005,77.2735737,PM10,89,247,145
India,Delhi,Delhi,"CRRI Mathura Road, Delhi - IMD",12-04-2026 09:00:00,28.5512005,77.2735737,NO2,44,129,71
India,Delhi,Delhi,"Cantonment Area, Delhi - DPCC ",12-04-2026 09:00:00,28.594169 ,77.125100 ,SO2,23,32,25
India,Chhattisgarh,Chhal,"Nawapara SECL Colony, Chhal - CECB",12-04-2026 09:00:00,22.118125,83.140608,PM10,35,87,59
India,Chhattisgarh,Chhal,"Nawapara SECL Colony, Chhal - CECB",12-04-2026 09:00:00,22.118125,83.140608,CO,14,56,32
India,Chhattisgarh,Bhilai,"Hathkhoj, Bhilai - CECB",12-04-2026 09:00:00,21.224231,81.408350,CO,1,58,46
India,Delhi,Delhi,"Burari Crossing, Delhi - IMD",12-04-2026 09:00:00,28.7256504,77.2011573,CO,1,42,4
India,Chhattisgarh,Korba,"Rampur, Korba - CECB",12-04-2026 09:00:00,22.368195,82.746431,CO,7,36,31
India,Delhi,Delhi,"Shadipur, Delhi - CPCB",12-04-2026 09:00:00,28.6514781,77.1473105,CO,8,68,39
India,Delhi,Delhi,"Shadipur, Delhi - CPCB",12-04-2026 09:00:00,28.6514781,77.1473105,OZONE,7,37,19
India,Delhi,Delhi,"Sirifort, Delhi - CPCB",12-04-2026 09:00:00,28.5504249,77.2159377,PM10,97,317,154
India,Delhi,Delhi,"Sirifort, Delhi - CPCB",12-04-2026 09:00:00,28.5504249,77.2159377,NO2,20,34,25
India,Delhi,Delhi,"Sonia Vihar, Delhi - DPCC",12-04-2026 09:00:00,28.710508,77.249485,CO,34,108,74
India,Delhi,Delhi,"Sonia Vihar, Delhi - DPCC",12-04-2026 09:00:00,28.710508,77.249485,OZONE,2,60,14
India,Delhi,Delhi,"Sri Aurobindo Marg, Delhi - DPCC",12-04-2026 09:00:00,28.531346,77.190156,PM2.5,140,140,140
India,Delhi,Delhi,"Talkatora Garden, Delhi - DPCC",12-04-2026 09:00:00,28.621810,77.1944633,SO2,17,34,24
India,Delhi,Delhi,"Vivek Vihar, Delhi - DPCC",12-04-2026 09:00:00,28.672342,77.315260,PM2.5,37,332,120
India,Delhi,Delhi,"Vivek Vihar, Delhi - DPCC",12-04-2026 09:00:00,28.672342,77.315260,PM10,103,230,148
India,Delhi,Delhi,"Chandni Chowk, Delhi - IITM",12-04-2026 09:00:00,28.656756,77.227234,PM10,127,328,177
India,Delhi,Delhi,"Commonwealth Sports Complex, Delhi - DPCC",12-04-2026 09:00:00,28.615828 ,77.271992 ,SO2,25,29,27
India,Delhi,Delhi,"Dr. Karni Singh Shooting Range, Delhi - DPCC",12-04-2026 09:00:00,28.498571,77.264840,NH3,3,4,3
India,Delhi,Delhi,"Dr. Karni Singh Shooting Range, Delhi - DPCC",12-04-2026 09:00:00,28.498571,77.264840,SO2,9,66,17
India,Delhi,Delhi,"Dr. Karni Singh Shooting Range, Delhi - DPCC",12-04-2026 09:00:00,28.498571,77.264840,OZONE,4,73,19
India,Delhi,Delhi,"Dwarka-Sector 8, Delhi - DPCC ",12-04-2026 09:00:00,28.5710274,77.0719006,CO,55,106,69
India,Delhi,Delhi,"IGI Airport (T3), Delhi - IMD",12-04-2026 09:00:00,28.5627763,77.1180053,PM10,84,311,152
India,Delhi,Delhi,"IGI Airport (T3), Delhi - IMD",12-04-2026 09:00:00,28.5627763,77.1180053,OZONE,19,78,28
India,Delhi,Delhi,"Mundka, Delhi - DPCC",12-04-2026 09:00:00,28.684678,77.076574,NH3,4,11,6
India,Delhi,Delhi,"Mundka, Delhi - DPCC",12-04-2026 09:00:00,28.684678,77.076574,CO,33,65,50
India,Delhi,Delhi,"NSIT Dwarka, Delhi - CPCB",12-04-2026 09:00:00,28.60909,77.0325413,PM2.5,50,205,88
India,Delhi,Delhi,"NSIT Dwarka, Delhi - CPCB",12-04-2026 09:00:00,28.60909,77.0325413,OZONE,29,124,55
India,Delhi,Delhi,"NSUT Jaffarpur, Delhi - DPCC",12-04-2026 09:00:00,28.594004 ,76.909423 ,PM10,48,331,156
India,Delhi,Delhi,"Najafgarh, Delhi - DPCC",12-04-2026 09:00:00,28.570173,76.933762,PM2.5,23,363,135
India,Delhi,Delhi,"Najafgarh, Delhi - DPCC",12-04-2026 09:00:00,28.570173,76.933762,NH3,9,11,10
India,Delhi,Delhi,"Najafgarh, Delhi - DPCC",12-04-2026 09:00:00,28.570173,76.933762,SO2,13,102,30
India,Delhi,Delhi,"Narela, Delhi - DPCC",12-04-2026 09:00:00,28.822836,77.101981,NO2,6,56,23
India,Delhi,Delhi,"IGNOU_Maidan Garhi, Delhi - DPCC",12-04-2026 09:00:00,28.493624 ,77.201159 ,PM10,72,283,154
India,Delhi,Delhi,"IGNOU_Maidan Garhi, Delhi - DPCC",12-04-2026 09:00:00,28.493624 ,77.201159 ,OZONE,9,129,32
India,Delhi,Delhi,"IHBAS, Dilshad Garden, Delhi - CPCB",12-04-2026 09:00:00,28.6811736,77.3025234,PM2.5,77,347,216
India,Delhi,Delhi,"IHBAS, Dilshad Garden, Delhi - CPCB",12-04-2026 09:00:00,28.6811736,77.3025234,NH3,5,21,8
India,Delhi,Delhi,"IIT Delhi, Delhi - IITM",12-04-2026 09:00:00,28.542460,77.191651,PM2.5,19,324,91
India,Delhi,Delhi,"IIT Delhi, Delhi - IITM",12-04-2026 09:00:00,28.542460,77.191651,CO,64,106,87
India,Delhi,Delhi,"ITO, Delhi - CPCB",12-04-2026 09:00:00,28.628624,77.241060,SO2,15,35,25
India,Delhi,Delhi,"Punjabi Bagh, Delhi - DPCC",12-04-2026 09:00:00,28.674045,77.131023,NH3,3,5,4
India,Delhi,Delhi,"Punjabi Bagh, Delhi - DPCC",12-04-2026 09:00:00,28.674045,77.131023,OZONE,5,53,19
India,Delhi,Delhi,"Pusa, Delhi - DPCC",12-04-2026 09:00:00,28.639652,77.146275,CO,42,109,64
India,Delhi,Delhi,"Pusa, Delhi - IMD",12-04-2026 09:00:00,28.636110,77.173332,CO,30,142,126
India,Delhi,Delhi,"R K Puram, Delhi - DPCC",12-04-2026 09:00:00,28.563262,77.186937,CO,46,134,58
India,Delhi,Delhi,"Jawaharlal Nehru Stadium, Delhi - DPCC",12-04-2026 09:00:00,28.580280,77.233829,CO,9,101,15
India,Delhi,Delhi,"Jawaharlal Nehru Stadium, Delhi - DPCC",12-04-2026 09:00:00,28.580280,77.233829,OZONE,2,76,15
India,Delhi,Delhi,"Lodhi Road, Delhi - IMD",12-04-2026 09:00:00,28.5918245,77.2273074,PM2.5,31,316,84
India,Delhi,Delhi,"Lodhi Road, Delhi - IMD",12-04-2026 09:00:00,28.5918245,77.2273074,NO2,11,40,23
India,Delhi,Delhi,"Major Dhyan Chand National Stadium, Delhi - DPCC",12-04-2026 09:00:00,28.611281,77.237738,PM10,72,224,131
India,Delhi,Delhi,"Mandir Marg, Delhi - DPCC",12-04-2026 09:00:00,28.636429,77.201067,PM2.5,150,348,225
India,Delhi,Delhi,"Shadipur, Delhi - CPCB",12-04-2026 09:00:00,28.6514781,77.1473105,PM2.5,79,331,174
India,Delhi,Delhi,"Nehru Nagar, Delhi - DPCC",12-04-2026 09:00:00,28.567890,77.250515,SO2,10,120,25
India,Haryana,Ballabgarh,"Nathu Colony, Ballabgarh - HSPCB",12-04-2026 09:00:00,28.3419248,77.319699,PM10,156,361,234
India,Haryana,Bhiwani,"H.B. Colony, Bhiwani - HSPCB",12-04-2026 09:00:00,28.806223,76.141105,NO2,2,37,9
India,Haryana,Bhiwani,"H.B. Colony, Bhiwani - HSPCB",12-04-2026 09:00:00,28.806223,76.141105,OZONE,4,15,7
India,Haryana,Charkhi Dadri,"Mini Secretariat, Charkhi Dadri - HSPCB",12-04-2026 09:00:00,28.593883,76.270653,SO2,9,12,11
India,Haryana,Dharuhera,"Municipal Corporation Office, Dharuhera -  HSPCB",12-04-2026 09:00:00,28.206800,76.799700,NH3,9,26,19
India,Haryana,Faridabad,"New Industrial Town, Faridabad - HSPCB",12-04-2026 09:00:00,28.39072,77.30059,PM2.5,116,139,131
India,Haryana,Faridabad,"New Industrial Town, Faridabad - HSPCB",12-04-2026 09:00:00,28.39072,77.30059,PM10,101,109,106
India,Haryana,Faridabad,"New Industrial Town, Faridabad - HSPCB",12-04-2026 09:00:00,28.39072,77.30059,NO2,23,26,25
India,Haryana,Faridabad,"New Industrial Town, Faridabad - HSPCB",12-04-2026 09:00:00,28.39072,77.30059,OZONE,13,50,14
India,Delhi,Delhi,"Vivek Vihar, Delhi - DPCC",12-04-2026 09:00:00,28.672342,77.315260,NH3,5,7,6
India,Delhi,Delhi,"Wazirpur, Delhi - DPCC",12-04-2026 09:00:00,28.699793,77.165453,PM2.5,48,340,125
India,Delhi,Delhi,"Wazirpur, Delhi - DPCC",12-04-2026 09:00:00,28.699793,77.165453,PM10,127,336,206
India,Delhi,Delhi,"Wazirpur, Delhi - DPCC",12-04-2026 09:00:00,28.699793,77.165453,NH3,7,8,8
India,Gujarat,Ahmedabad,"Chandkheda, Ahmedabad - IITM",12-04-2026 09:00:00,23.107969,72.574648,PM10,112,380,178
India,Gujarat,Ahmedabad,"Chandkheda, Ahmedabad - IITM",12-04-2026 09:00:00,23.107969,72.574648,CO,10,120,37
India,Gujarat,Ahmedabad,"Gyaspur, Ahmedabad - IITM",12-04-2026 09:00:00,22.977134,72.553024,PM2.5,57,332,203
India,Gujarat,Ahmedabad,"Gyaspur, Ahmedabad - IITM",12-04-2026 09:00:00,22.977134,72.553024,SO2,NA,NA,NA
India,Gujarat,Vapi,"Phase-1 GIDC, Vapi - GPCB",12-04-2026 09:00:00,20.362421,72.918013,PM2.5,NA,NA,NA
India,Gujarat,Vatva,"Phase-4 GIDC, Vatva - GPCB",12-04-2026 09:00:00,22.969611,72.643500,PM2.5,75,351,173
India,Gujarat,Vatva,"Phase-4 GIDC, Vatva - GPCB",12-04-2026 09:00:00,22.969611,72.643500,PM10,84,368,152
India,Gujarat,Vatva,"Phase-4 GIDC, Vatva - GPCB",12-04-2026 09:00:00,22.969611,72.643500,OZONE,29,45,30
India,Haryana,Ambala,"Patti Mehar, Ambala - HSPCB",12-04-2026 09:00:00,30.379589,76.778328,NH3,7,8,8
India,Haryana,Bahadurgarh,"Arya Nagar, Bahadurgarh - HSPCB",12-04-2026 09:00:00,28.6701,76.9254,NO2,12,14,13
India,Haryana,Faridabad,"Sector 11, Faridabad - HSPCB",12-04-2026 09:00:00,28.376058,77.315741,CO,40,41,40
India,Haryana,Faridabad,"Sector 11, Faridabad - HSPCB",12-04-2026 09:00:00,28.376058,77.315741,OZONE,14,16,15
India,Haryana,Faridabad,"Sector 30, Faridabad - HSPCB",12-04-2026 09:00:00,28.4417,77.3217,NH3,11,12,11
India,Haryana,Faridabad,"Sector 30, Faridabad - HSPCB",12-04-2026 09:00:00,28.4417,77.3217,OZONE,10,10,10
India,Haryana,Fatehabad,"Huda Sector, Fatehabad - HSPCB",12-04-2026 09:00:00,29.503664,75.467934,PM2.5,45,131,75
India,Haryana,Fatehabad,"Huda Sector, Fatehabad - HSPCB",12-04-2026 09:00:00,29.503664,75.467934,PM10,60,136,95
India,Haryana,Fatehabad,"Huda Sector, Fatehabad - HSPCB",12-04-2026 09:00:00,29.503664,75.467934,CO,9,34,26
India,Gujarat,Rajkot,"Mavdi, Rajkot - Nexteng Enviro ",12-04-2026 09:00:00,22.248853,70.776774,PM2.5,28,83,50
India,Gujarat,Rajkot,"Mavdi, Rajkot - Nexteng Enviro ",12-04-2026 09:00:00,22.248853,70.776774,OZONE,5,18,6
India,Gujarat,Surat,"Katargam, Surat - Nexteng Enviro",12-04-2026 09:00:00,21.217779 ,72.834787 ,NO2,11,133,42
India,Gujarat,Surat,"Science Center, Surat - SMC",12-04-2026 09:00:00,21.170046,72.795405,CO,31,112,53
India,Gujarat,Vadodara,"Bapunagar, Vadodara - Nexteng Enviro",12-04-2026 09:00:00,22.320153,73.216285,PM10,58,169,101
India,Gujarat,Gandhinagar,"Sector-10, Gandhinagar - GPCB",12-04-2026 09:00:00,23.221714,72.654328,NH3,1,4,2
India,Gujarat,Mehsana,"Sadanand Nagar, Mehsana - Nexteng Enviro",12-04-2026 09:00:00,23.593150,72.372792,PM10,52,161,118
India,Gujarat,Mehsana,"Sadanand Nagar, Mehsana - Nexteng Enviro",12-04-2026 09:00:00,23.593150,72.372792,CO,54,68,59
India,Gujarat,Nandesari,"GIDC, Nandesari - Nandesari Ind. Association",12-04-2026 09:00:00,22.410802,73.097923,SO2,3,6,3
India,Gujarat,Ahmedabad,"SAC ISRO Satellite, Ahmedabad - IITM",12-04-2026 09:00:00,23.023389,72.515201,PM10,112,199,140
India,Gujarat,Ahmedabad,"SAC ISRO Satellite, Ahmedabad - IITM",12-04-2026 09:00:00,23.023389,72.515201,SO2,10,109,25
India,Gujarat,Ahmedabad,"SVPI Airport Hansol, Ahmedabad - IITM",12-04-2026 09:00:00,23.076793,72.627874,PM2.5,72,202,123
India,Gujarat,Ahmedabad,"Rakhial, Ahmedabad - IITM",12-04-2026 09:00:00,23.016834,72.625775,PM10,112,269,171
India,Gujarat,Ahmedabad,"Rakhial, Ahmedabad - IITM",12-04-2026 09:00:00,23.016834,72.625775,NO2,5,26,10
India,Gujarat,Ahmedabad,"SAC ISRO Bopal, Ahmedabad - IITM",12-04-2026 09:00:00,23.041137,72.456691,PM10,86,152,125
India,Gujarat,Gandhinagar,"IIPHG Lekawada, Gandhinagar - IITM",12-04-2026 09:00:00,23.243639,72.68994,PM10,98,139,118
India,Haryana,Mandikhera,"General Hospital, Mandikhera(Nuh) - HSPCB",12-04-2026 09:00:00,27.9002,76.9938,OZONE,24,30,28
India,Haryana,Manesar,"Sector-2 IMT, Manesar - HSPCB",12-04-2026 09:00:00,28.360699,76.936090,PM10,59,152,113
India,Haryana,Manesar,"Sector-2 IMT, Manesar - HSPCB",12-04-2026 09:00:00,28.360699,76.936090,OZONE,10,51,16
India,Haryana,Narnaul,"Shastri Nagar, Narnaul - HSPCB",12-04-2026 09:00:00,28.060249,76.113115,PM2.5,72,208,117
India,Haryana,Narnaul,"Shastri Nagar, Narnaul - HSPCB",12-04-2026 09:00:00,28.060249,76.113115,PM10,65,126,92
India,Haryana,Palwal,"Shyam Nagar, Palwal - HSPCB",12-04-2026 09:00:00,28.1485564,77.3320667,OZONE,23,25,24
India,Haryana,Panchgaon,"Amity University, Panchgaon - IITM",12-04-2026 09:00:00,28.3153,76.9143,PM2.5,29,246,121
India,Haryana,Panchgaon,"Amity University, Panchgaon - IITM",12-04-2026 09:00:00,28.3153,76.9143,NO2,7,33,14
India,Haryana,Panchgaon,"Amity University, Panchgaon - IITM",12-04-2026 09:00:00,28.3153,76.9143,OZONE,1,84,12
India,Haryana,Panchkula,"Sector-6, Panchkula - HSPCB ",12-04-2026 09:00:00,30.7057778,76.8531805555555,PM2.5,24,137,67
India,Jammu_and_Kashmir,Srinagar,"Rajbagh, Srinagar - JKPCC",12-04-2026 09:00:00,34.066206,74.819820,OZONE,1,2,1
India,Jharkhand,Jorapokhar,"Tata Stadium, Jorapokhar - JSPCB",12-04-2026 09:00:00,23.707909,86.414670,CO,38,40,39
India,Karnataka,Bagalkot,"Vidayagiri, Bagalkot - KSPCB",12-04-2026 09:00:00,16.172806,75.659694,NO2,11,12,12
India,Karnataka,Belgaum,"Ramteerth Nagar, Belgaum - KSPCB",12-04-2026 09:00:00,15.888653,74.541751,PM2.5,30,86,62
India,Karnataka,Bengaluru,"BWSSB Kadabesanahalli, Bengaluru - CPCB",12-04-2026 09:00:00,12.9352049,77.6814488,PM2.5,7,50,36
India,Haryana,Yamuna Nagar,"Gobind Pura, Yamuna Nagar - HSPCB",12-04-2026 09:00:00,30.1480566,77.2893471,NH3,1,6,4
India,Haryana,Yamuna Nagar,"Gobind Pura, Yamuna Nagar - HSPCB",12-04-2026 09:00:00,30.1480566,77.2893471,OZONE,8,34,14
India,Himachal Pradesh,Baddi,"HIMUDA Complex Phase-1, Baddi - HPPCB",12-04-2026 09:00:00,30.943887,76.801991,PM2.5,37,190,78
India,Himachal Pradesh,Baddi,"HIMUDA Complex Phase-1, Baddi - HPPCB",12-04-2026 09:00:00,30.943887,76.801991,NO2,2,57,12
India,Haryana,Kaithal,"Rishi Nagar, Kaithal - HSPCB",12-04-2026 09:00:00,29.8006,76.4155,SO2,40,49,42
India,Haryana,Kaithal,"Rishi Nagar, Kaithal - HSPCB",12-04-2026 09:00:00,29.8006,76.4155,CO,4,94,38
India,Haryana,Karnal,"Sector-12, Karnal - HSPCB",12-04-2026 09:00:00,29.695300,77.002700,PM10,53,93,75
India,Haryana,Karnal,"Sector-12, Karnal - HSPCB",12-04-2026 09:00:00,29.695300,77.002700,SO2,7,10,9
India,Haryana,Karnal,"Sector-12, Karnal - HSPCB",12-04-2026 09:00:00,29.695300,77.002700,OZONE,6,49,16
India,Haryana,Fatehabad,"Huda Sector, Fatehabad - HSPCB",12-04-2026 09:00:00,29.503664,75.467934,OZONE,11,114,16
India,Haryana,Gurugram,"NISE Gwal Pahari, Gurugram - IMD",12-04-2026 09:00:00,28.422681,77.148944,OZONE,12,80,14
India,Haryana,Gurugram,"Sector-51, Gurugram - HSPCB",12-04-2026 09:00:00,28.4227,77.0667,PM2.5,128,444,245
India,Haryana,Panipat,"Sector-18, Panipat - HSPCB",12-04-2026 09:00:00,29.432304,76.972765,CO,50,50,50
India,Haryana,Rohtak,"MD University, Rohtak - HSPCB",12-04-2026 09:00:00,28.52123,76.37138,PM2.5,45,356,143
India,Haryana,Rohtak,"MD University, Rohtak - HSPCB",12-04-2026 09:00:00,28.52123,76.37138,PM10,34,290,91
India,Haryana,Panchkula,"Sector-6, Panchkula - HSPCB ",12-04-2026 09:00:00,30.7057778,76.8531805555555,NO2,22,25,24
India,Haryana,Panchkula,"Sector-6, Panchkula - HSPCB ",12-04-2026 09:00:00,30.7057778,76.8531805555555,CO,18,48,38
India,Haryana,Panipat,"Sector-18, Panipat - HSPCB",12-04-2026 09:00:00,29.432304,76.972765,NO2,31,32,31
India,Haryana,Hisar,"Urban Estate-II, Hisar - HSPCB",12-04-2026 09:00:00,29.140560,75.744941,PM2.5,4,49,22
India,Haryana,Hisar,"Urban Estate-II, Hisar - HSPCB",12-04-2026 09:00:00,29.140560,75.744941,PM10,87,268,134
India,Haryana,Hisar,"Urban Estate-II, Hisar - HSPCB",12-04-2026 09:00:00,29.140560,75.744941,OZONE,1,15,1
India,Karnataka,Vijayapura,"Ibrahimpur, Vijayapura - KSPCB",12-04-2026 09:00:00,16.802639,75.722694,PM10,38,39,39
India,Karnataka,Vijayapura,"Ibrahimpur, Vijayapura - KSPCB",12-04-2026 09:00:00,16.802639,75.722694,NO2,11,12,11
India,Karnataka,Yadgir,"Collector Office, Yadgir - KSPCB",12-04-2026 09:00:00,16.7602,77.1428,PM2.5,57,93,73
India,Karnataka,Yadgir,"Collector Office, Yadgir - KSPCB",12-04-2026 09:00:00,16.7602,77.1428,PM10,107,151,120
India,Karnataka,Yadgir,"Collector Office, Yadgir - KSPCB",12-04-2026 09:00:00,16.7602,77.1428,SO2,6,35,15
India,Kerala,Kannur,"Thavakkara, Kannur - Kerala PCB",12-04-2026 09:00:00,11.875000,75.373200,CO,14,16,14
India,Kerala,Kollam,"Polayathode, Kollam - Kerala PCB",12-04-2026 09:00:00,8.8787,76.6073,NH3,NA,NA,NA
India,Kerala,Kollam,"Polayathode, Kollam - Kerala PCB",12-04-2026 09:00:00,8.8787,76.6073,SO2,NA,NA,NA
India,Karnataka,Bengaluru,"RVCE-Mailasandra, Bengaluru - KSPCB",12-04-2026 09:00:00,12.921418,77.502466,NO2,20,26,26
India,Karnataka,Bengaluru,"RVCE-Mailasandra, Bengaluru - KSPCB",12-04-2026 09:00:00,12.921418,77.502466,OZONE,24,30,29
India,Karnataka,Bengaluru,"Shivapura_Peenya, Bengaluru - KSPCB",12-04-2026 09:00:00,13.0246342,77.5080115,PM10,30,30,30
India,Karnataka,Bengaluru,"Silk Board, Bengaluru - KSPCB",12-04-2026 09:00:00,12.917348,77.622813,NO2,6,22,12
India,Karnataka,Chamarajanagar,"Urban, Chamarajanagar - KSPCB",12-04-2026 09:00:00,11.55358,76.55521,NH3,1,2,2
India,Karnataka,Chikkaballapur,"Chikkaballapur Rural, Chikkaballapur - KSPCB",12-04-2026 09:00:00,13.428828,77.731418,SO2,9,15,13
India,Karnataka,Chikkaballapur,"Chikkaballapur Rural, Chikkaballapur - KSPCB",12-04-2026 09:00:00,13.428828,77.731418,OZONE,6,18,17
India,Karnataka,Bengaluru,"Bapuji Nagar, Bengaluru - KSPCB",12-04-2026 09:00:00,12.951913,77.539784,OZONE,2,67,10
India,Karnataka,Bengaluru,"City Railway Station, Bengaluru - KSPCB",12-04-2026 09:00:00,12.9756843,77.5660749,PM10,110,111,111
India,Karnataka,Bengaluru,"City Railway Station, Bengaluru - KSPCB",12-04-2026 09:00:00,12.9756843,77.5660749,SO2,14,15,15
India,Karnataka,Bengaluru,"Hebbal, Bengaluru - KSPCB",12-04-2026 09:00:00,13.029152,77.585901,PM2.5,52,96,74
India,Karnataka,Bengaluru,"Hebbal, Bengaluru - KSPCB",12-04-2026 09:00:00,13.029152,77.585901,NO2,31,116,64
India,Karnataka,Bengaluru,"Hombegowda Nagar, Bengaluru - KSPCB",12-04-2026 09:00:00,12.938539,77.590100,OZONE,50,126,66
India,Karnataka,Bengaluru,"Jayanagar 5th Block, Bengaluru - KSPCB",12-04-2026 09:00:00,12.920984,77.584908,NH3,1,1,1
India,Karnataka,Dharwad,"Kalabhavan, Dharwad - KSPCB",12-04-2026 09:00:00,15.459706,75.008381,CO,36,57,38
India,Karnataka,Hubballi,"Lingaraj Nagar, Hubballi - KSPCB",12-04-2026 09:00:00,15.3714823,75.1160168,PM10,56,58,57
India,Karnataka,Hubballi,"Lingaraj Nagar, Hubballi - KSPCB",12-04-2026 09:00:00,15.3714823,75.1160168,SO2,1,2,2
India,Karnataka,Hubballi,"Lingaraj Nagar, Hubballi - KSPCB",12-04-2026 09:00:00,15.3714823,75.1160168,CO,8,28,24
India,Karnataka,Bengaluru,"Jigani, Bengaluru - KSPCB",12-04-2026 09:00:00,12.7816279,77.6299145,PM10,42,500,116
India,Karnataka,Bengaluru,"Jigani, Bengaluru - KSPCB",12-04-2026 09:00:00,12.7816279,77.6299145,NO2,22,24,23
India,Karnataka,Bengaluru,"Jigani, Bengaluru - KSPCB",12-04-2026 09:00:00,12.7816279,77.6299145,NH3,4,4,4
India,Karnataka,Bengaluru,"Peenya, Bengaluru - CPCB",12-04-2026 09:00:00,13.0270199,77.494094,SO2,5,17,10
India,Karnataka,Mangalore,"Kadri, Mangalore - KSPCB",12-04-2026 09:00:00,12.889250,74.853000,OZONE,9,68,36
India,Karnataka,Mysuru,"Hebbal 1st Stage, Mysuru - KSPCB",12-04-2026 09:00:00,12.21041,76.37376,NH3,3,5,4
India,Karnataka,Mysuru,"Hebbal 1st Stage, Mysuru - KSPCB",12-04-2026 09:00:00,12.21041,76.37376,CO,17,44,21
India,Karnataka,Kalaburagi,"Mahatma Basaveswar Colony, Kalaburgi - KSPCB",12-04-2026 09:00:00,17.336318,76.847397,NH3,2,3,3
India,Karnataka,Kalaburagi,"Mahatma Basaveswar Colony, Kalaburgi - KSPCB",12-04-2026 09:00:00,17.336318,76.847397,SO2,3,6,4
India,Karnataka,Kalaburagi,"Mahatma Basaveswar Colony, Kalaburgi - KSPCB",12-04-2026 09:00:00,17.336318,76.847397,OZONE,18,18,18
India,Karnataka,Chikkamagaluru,"Kalyana Nagara, Chikkamagaluru - KSPCB",12-04-2026 09:00:00,13.328028,75.797056,PM10,38,58,45
India,Karnataka,Chikkamagaluru,"Kalyana Nagara, Chikkamagaluru - KSPCB",12-04-2026 09:00:00,13.328028,75.797056,OZONE,14,35,14
India,Karnataka,Madikeri,"Stuart Hill, Madikeri - KSPCB",12-04-2026 09:00:00,12.415911,75.735050,SO2,7,8,7
India,Madhya Pradesh,Jabalpur,"Govindh Bhavan Colony, Jabalpur - JMC",12-04-2026 09:00:00,23.163174,79.973061,PM2.5,22,78,48
India,Madhya Pradesh,Jabalpur,"Govindh Bhavan Colony, Jabalpur - JMC",12-04-2026 09:00:00,23.163174,79.973061,NO2,6,15,11
India,Madhya Pradesh,Jabalpur,"Gupteshwar, Jabalpur - JMC",12-04-2026 09:00:00,23.142888,79.916147,CO,NA,NA,NA
India,Madhya Pradesh,Jabalpur,"Marhatal, Jabalpur - MPPCB",12-04-2026 09:00:00,23.168606,79.932247,OZONE,16,55,18
India,Madhya Pradesh,Jabalpur,"Suhagi, Jabalpur - JMC",12-04-2026 09:00:00,23.218135,79.957770,NH3,5,6,5
India,Madhya Pradesh,Jabalpur,"Suhagi, Jabalpur - JMC",12-04-2026 09:00:00,23.218135,79.957770,OZONE,1,73,9
India,Madhya Pradesh,Katni,"Gole Bazar, Katni - MPPCB",12-04-2026 09:00:00,23.50016,80.23284,PM10,68,240,128
India,Madhya Pradesh,Gwalior,"City Center, Gwalior - MPPCB",12-04-2026 09:00:00,26.203442,78.193251,NO2,20,135,57
India,Madhya Pradesh,Gwalior,"City Center, Gwalior - MPPCB",12-04-2026 09:00:00,26.203442,78.193251,CO,16,128,28
India,Madhya Pradesh,Gwalior,"Deen Dayal Nagar, Gwalior - MPPCB",12-04-2026 09:00:00,26.259242,78.216432,NH3,2,6,4
India,Madhya Pradesh,Gwalior,"Maharaj Bada, Gwalior - MPPCB",12-04-2026 09:00:00,26.200388,78.147714,PM2.5,20,305,92
India,Madhya Pradesh,Gwalior,"Maharaj Bada, Gwalior - MPPCB",12-04-2026 09:00:00,26.200388,78.147714,PM10,95,411,170
India,Madhya Pradesh,Gwalior,"Maharaj Bada, Gwalior - MPPCB",12-04-2026 09:00:00,26.200388,78.147714,NO2,22,48,29
India,Madhya Pradesh,Gwalior,"Maharaj Bada, Gwalior - MPPCB",12-04-2026 09:00:00,26.200388,78.147714,NH3,3,5,4
India,Madhya Pradesh,Gwalior,"Maharaj Bada, Gwalior - MPPCB",12-04-2026 09:00:00,26.200388,78.147714,SO2,2,98,29
India,Madhya Pradesh,Indore,"Airport Area, Indore - IMC",12-04-2026 09:00:00,22.7289,75.8076,PM10,49,181,102
India,Madhya Pradesh,Indore,"Airport Area, Indore - IMC",12-04-2026 09:00:00,22.7289,75.8076,NO2,16,46,21
India,Madhya Pradesh,Indore,"Chhoti Gwaltoli, Indore - MPPCB",12-04-2026 09:00:00,22.4310,75.5213,PM10,74,404,165
India,Madhya Pradesh,Indore,"Chhoti Gwaltoli, Indore - MPPCB",12-04-2026 09:00:00,22.4310,75.5213,NH3,11,21,18
India,Madhya Pradesh,Indore,"Chhoti Gwaltoli, Indore - MPPCB",12-04-2026 09:00:00,22.4310,75.5213,CO,22,160,78
India,Madhya Pradesh,Indore,"Maguda Nagar, Indore - IMC",12-04-2026 09:00:00,22.7524,75.8872,PM2.5,39,314,144
India,Madhya Pradesh,Indore,"Maguda Nagar, Indore - IMC",12-04-2026 09:00:00,22.7524,75.8872,CO,37,100,90
India,Madhya Pradesh,Singrauli,"Suryakiran Bhawan NCL, Singrauli - MPPCB",12-04-2026 09:00:00,24.108970,82.645580,PM10,129,361,195
India,Madhya Pradesh,Singrauli,"Suryakiran Bhawan NCL, Singrauli - MPPCB",12-04-2026 09:00:00,24.108970,82.645580,NO2,14,19,15
India,Madhya Pradesh,Singrauli,"Suryakiran Bhawan NCL, Singrauli - MPPCB",12-04-2026 09:00:00,24.108970,82.645580,SO2,18,51,35
India,Madhya Pradesh,Ujjain,"Mahashweta Nagar, Ujjain - MPPCB",12-04-2026 09:00:00,23.1633321,75.800225,OZONE,NA,NA,NA
India,Maharashtra,Ahmednagar,"Tarakpur, Ahmednagar - MPCB",12-04-2026 09:00:00,19.10122,74.73339,NO2,NA,NA,NA
India,Madhya Pradesh,Mandideep,"Sector-D Industrial Area, Mandideep - MPPCB",12-04-2026 09:00:00,23.108440,77.511428,OZONE,6,137,25
India,Madhya Pradesh,Pithampur,"Sector-2 Industrial Area, Pithampur - MPPCB",12-04-2026 09:00:00,22.624758,75.675238,NO2,13,69,28
India,Madhya Pradesh,Pithampur,"Sector-2 Industrial Area, Pithampur - MPPCB",12-04-2026 09:00:00,22.624758,75.675238,CO,5,46,16
India,Madhya Pradesh,Sagar,"Civil Lines, Sagar - MPPCB",12-04-2026 09:00:00,23.838586,78.759431,OZONE,50,163,70
India,Madhya Pradesh,Katni,"Gole Bazar, Katni - MPPCB",12-04-2026 09:00:00,23.50016,80.23284,NH3,6,10,8
India,Madhya Pradesh,Katni,"Gole Bazar, Katni - MPPCB",12-04-2026 09:00:00,23.50016,80.23284,OZONE,10,96,17
India,Madhya Pradesh,Mandideep,"Sector-D Industrial Area, Mandideep - MPPCB",12-04-2026 09:00:00,23.108440,77.511428,NH3,1,10,7
India,Kerala,Thiruvananthapuram,"Plammoodu, Thiruvananthapuram - Kerala PCB",12-04-2026 09:00:00,8.5149093,76.9435879,PM10,20,61,40
India,Kerala,Thrissur,"Corporation Ground, Thrissur - Kerala PCB",12-04-2026 09:00:00,10.532400,76.215900,CO,9,22,20
India,Madhya Pradesh,Bhopal,"Paryavaran Parisar, Bhopal - MPPCB",12-04-2026 09:00:00,23.210494,77.425409,PM2.5,15,305,151
India,Madhya Pradesh,Bhopal,"T T Nagar, Bhopal - MPPCB",12-04-2026 09:00:00,23.233584,77.400574,PM2.5,28,309,142
India,Madhya Pradesh,Indore,"Regional Park, Indore - IMC",12-04-2026 09:00:00,22.6780,75.8559,SO2,68,76,72
India,Maharashtra,Kolhapur,"Sinchan Bhavan, Kolhapur - MPCB",12-04-2026 09:00:00,16.7143745,74.2426398,SO2,NA,NA,NA
India,Maharashtra,Latur,"Sawe Wadi, Latur - MPCB",12-04-2026 09:00:00,18.39963,76.57452,OZONE,8,62,23
India,Maharashtra,Mahad,"Kamble Tarf Birwadi, Mahad - MPCB",12-04-2026 09:00:00,18.1023399,73.4783687,NH3,7,8,8
India,Maharashtra,Malegaon,"Mahesh Nagar, Malegaon - MPCB",12-04-2026 09:00:00,20.555712,74.529236,SO2,NA,NA,NA
India,Maharashtra,Mira-Bhayandar,"Bhayandar West, Mira-Bhayandar - MPCB",12-04-2026 09:00:00,19.296481,72.840923,PM2.5,61,81,70
India,Maharashtra,Mira-Bhayandar,"Bhayandar West, Mira-Bhayandar - MPCB",12-04-2026 09:00:00,19.296481,72.840923,PM10,65,111,93
India,Maharashtra,Mira-Bhayandar,"Bhayandar West, Mira-Bhayandar - MPCB",12-04-2026 09:00:00,19.296481,72.840923,NO2,11,52,22
India,Maharashtra,Mira-Bhayandar,"Bhayandar West, Mira-Bhayandar - MPCB",12-04-2026 09:00:00,19.296481,72.840923,SO2,7,10,8
India,Maharashtra,Akola,"Ramdaspeth, Akola - MPCB",12-04-2026 09:00:00,20.719516,77.000253,PM10,61,197,112
India,Maharashtra,Akola,"Ramdaspeth, Akola - MPCB",12-04-2026 09:00:00,20.719516,77.000253,CO,18,48,24
India,Maharashtra,Akola,"Ramdaspeth, Akola - MPCB",12-04-2026 09:00:00,20.719516,77.000253,OZONE,2,132,20
India,Maharashtra,Ambernath,"Chinchpada, Ambernath - MPCB",12-04-2026 09:00:00,19.2157840,73.1997810,PM10,62,126,89
India,Maharashtra,Ambernath,"Chinchpada, Ambernath - MPCB",12-04-2026 09:00:00,19.2157840,73.1997810,NH3,3,9,6
India,Maharashtra,Amravati,"Shivneri Colony, Amravati - MPCB",12-04-2026 09:00:00,20.9402359,77.7895248,PM2.5,29,70,48
India,Maharashtra,Amravati,"Shivneri Colony, Amravati - MPCB",12-04-2026 09:00:00,20.9402359,77.7895248,NH3,1,1,1
India,Maharashtra,Amravati,"Shri Shivaji Science College, Amravati - MPCB",12-04-2026 09:00:00,20.939198,77.765701,PM2.5,55,141,78
India,Maharashtra,Chandrapur,"Chauhan Colony, Chandrapur - MPCB",12-04-2026 09:00:00,19.962900,79.298714,PM10,74,240,136
India,Maharashtra,Chandrapur,"MIDC Khutala, Chandrapur - MPCB",12-04-2026 09:00:00,19.9775302,79.2337086,NO2,8,16,12
India,Maharashtra,Dombivli,"Kalu Nagar, Dombivli - MPCB",12-04-2026 09:00:00,19.2268427 ,73.0788456 ,NO2,15,70,35
India,Maharashtra,Hingoli,"Ashta Vinayak Nagar, Hingoli - MPCB",12-04-2026 09:00:00,19.710842,77.151824,OZONE,30,294,60
India,Maharashtra,Jalgaon,"Prabhat Colony, Jalgaon - MPCB",12-04-2026 09:00:00,21.001264,75.565602,NO2,6,64,19
India,Maharashtra,Jalgaon,"Prabhat Colony, Jalgaon - MPCB",12-04-2026 09:00:00,21.001264,75.565602,CO,18,49,22
India,Maharashtra,Jalgaon,"Prabhat Colony, Jalgaon - MPCB",12-04-2026 09:00:00,21.001264,75.565602,OZONE,2,162,64
India,Maharashtra,Badlapur,"Katrap, Badlapur - MPCB",12-04-2026 09:00:00,19.16485,73.23409,NH3,3,7,6
India,Maharashtra,Beed,"Bir, Beed - MPCB",12-04-2026 09:00:00,18.988474,75.753873,PM10,69,279,110
India,Maharashtra,Belapur,"CBD Belapur, Belapur - MPCB",12-04-2026 09:00:00,19.0243902,73.0406721,PM10,87,223,168
India,Maharashtra,Aurangabad,"More Chowk Waluj, Aurangabad - MPCB",12-04-2026 09:00:00,19.8389439,75.244448,SO2,26,36,30
India,Maharashtra,Aurangabad,"Rachnakar Colony, Aurangabad - MPCB",12-04-2026 09:00:00,19.863756,75.321188,NO2,15,114,44
India,Maharashtra,Hingoli,"Ashta Vinayak Nagar, Hingoli - MPCB",12-04-2026 09:00:00,19.710842,77.151824,NO2,9,92,32
India,Maharashtra,Aurangabad,"MIDC Chilkalthana, Aurangabad - MPCB",12-04-2026 09:00:00,19.875620,75.387310,PM10,NA,NA,NA
India,Maharashtra,Boisar,"Khaira, Boisar - MPCB",12-04-2026 09:00:00,19.786089,72.757971,SO2,12,12,12
India,Maharashtra,Mumbai,"Sewri, Mumbai - BMC",12-04-2026 09:00:00,19.000084,72.856730,PM2.5,28,183,62
India,Maharashtra,Mumbai,"Sewri, Mumbai - BMC",12-04-2026 09:00:00,19.000084,72.856730,NO2,24,64,37
India,Maharashtra,Mumbai,"Sewri, Mumbai - BMC",12-04-2026 09:00:00,19.000084,72.856730,SO2,1,9,4
India,Maharashtra,Mumbai,"Shivaji Nagar, Mumbai - BMC",12-04-2026 09:00:00,19.060498,72.923356,NH3,3,12,6
India,Maharashtra,Mumbai,"Sion, Mumbai - MPCB",12-04-2026 09:00:00,19.047000,72.874600,NH3,7,7,7
India,Maharashtra,Mumbai,"Vile Parle West, Mumbai - MPCB",12-04-2026 09:00:00,19.10861,72.83622,PM10,63,136,86
India,Maharashtra,Mumbai,"Colaba, Mumbai - MPCB",12-04-2026 09:00:00,18.910000,72.820000,PM10,36,73,51
India,Maharashtra,Mumbai,"Colaba, Mumbai - MPCB",12-04-2026 09:00:00,18.910000,72.820000,NO2,28,28,28
India,Maharashtra,Mumbai,"Colaba, Mumbai - MPCB",12-04-2026 09:00:00,18.910000,72.820000,SO2,NA,NA,NA
India,Maharashtra,Mumbai,"Deonar, Mumbai - IITM",12-04-2026 09:00:00,19.04946,72.9230,NO2,13,42,21
India,Maharashtra,Mumbai,"Deonar, Mumbai - IITM",12-04-2026 09:00:00,19.04946,72.9230,SO2,1,3,1
India,Maharashtra,Mumbai,"Kandivali East, Mumbai - MPCB",12-04-2026 09:00:00,19.205800,72.868200,OZONE,15,15,15
India,Maharashtra,Mumbai,"Borivali East, Mumbai - IITM",12-04-2026 09:00:00,19.23241,72.86895,PM2.5,68,150,92
India,Maharashtra,Mumbai,"Borivali East, Mumbai - IITM",12-04-2026 09:00:00,19.23241,72.86895,NH3,4,5,4
India,Maharashtra,Mumbai,"Borivali East, Mumbai - MPCB",12-04-2026 09:00:00,19.2243333,72.8658113,PM2.5,50,91,73
India,Maharashtra,Mumbai,"Borivali East, Mumbai - MPCB",12-04-2026 09:00:00,19.2243333,72.8658113,SO2,11,17,14
India,Maharashtra,Mumbai,"Byculla, Mumbai - BMC",12-04-2026 09:00:00,18.9767,72.8380,PM10,83,139,114
India,Maharashtra,Mumbai,"Malad West, Mumbai - IITM",12-04-2026 09:00:00,19.19709,72.82204,OZONE,4,83,20
India,Maharashtra,Mumbai,"Mindspace-Malad West, Mumbai - MPCB",12-04-2026 09:00:00,19.1878657,72.8304069,PM10,52,148,80
India,Maharashtra,Mumbai,"Mulund West, Mumbai - MPCB",12-04-2026 09:00:00,19.1750,72.9419,NH3,1,3,2
India,Maharashtra,Mumbai,"Navy Nagar-Colaba, Mumbai - IITM",12-04-2026 09:00:00,18.897756,72.813320,SO2,5,15,9
India,Maharashtra,Mumbai,"Kandivali West, Mumbai - BMC",12-04-2026 09:00:00,19.215859,72.831718,NO2,14,26,17
India,Maharashtra,Mumbai,"Kandivali West, Mumbai - BMC",12-04-2026 09:00:00,19.215859,72.831718,CO,9,27,19
India,Maharashtra,Mumbai,"Kherwadi_Bandra East, Mumbai - MPCB",12-04-2026 09:00:00,19.0632143,72.8456324,PM2.5,47,131,73
India,Maharashtra,Mumbai,"Malad West, Mumbai - IITM",12-04-2026 09:00:00,19.19709,72.82204,PM10,85,135,115
India,Maharashtra,Mumbai,"Vile Parle West, Mumbai - MPCB",12-04-2026 09:00:00,19.10861,72.83622,SO2,47,51,49
India,Maharashtra,Mumbai,"Vile Parle West, Mumbai - MPCB",12-04-2026 09:00:00,19.10861,72.83622,CO,32,32,32
India,Maharashtra,Mumbai,"Worli, Mumbai -MPCB",12-04-2026 09:00:00,18.9942180,72.8158167,PM2.5,33,179,70
India,Maharashtra,Mumbai,"Worli, Mumbai -MPCB",12-04-2026 09:00:00,18.9942180,72.8158167,NH3,3,3,3
India,Maharashtra,Mumbai,"Chakala-Andheri East, Mumbai - IITM",12-04-2026 09:00:00,19.11074,72.86084,NH3,NA,NA,NA
India,Maharashtra,Mumbai,"Chakala-Andheri East, Mumbai - IITM",12-04-2026 09:00:00,19.11074,72.86084,OZONE,4,76,20
India,Maharashtra,Mumbai,"Chembur, Mumbai - MPCB",12-04-2026 09:00:00,19.0364585,72.8954371,SO2,3,13,7
India,Maharashtra,Mumbai,"Bandra Kurla Complex, Mumbai - MPCB",12-04-2026 09:00:00,19.065931,72.862131,NO2,1,33,15
India,Maharashtra,Mumbai,"Worli, Mumbai -MPCB",12-04-2026 09:00:00,18.9942180,72.8158167,SO2,30,32,31
India,Maharashtra,Nagpur,"Mahal, Nagpur - MPCB",12-04-2026 09:00:00,21.14472,79.107595,CO,22,142,66
India,Maharashtra,Nagpur,"Opp GPO Civil Lines, Nagpur - MPCB",12-04-2026 09:00:00,21.152875,79.0517531,OZONE,5,88,17
India,Maharashtra,Nagpur,"Ram Nagar, Nagpur - MPCB",12-04-2026 09:00:00,21.143383,79.048912,CO,14,106,69
India,Maharashtra,Nanded,"Sneh Nagar, Nanded - MPCB",12-04-2026 09:00:00,19.173852,77.296291,PM10,84,157,119
India,Maharashtra,Nanded,"Sneh Nagar, Nanded - MPCB",12-04-2026 09:00:00,19.173852,77.296291,NO2,6,98,45
India,Maharashtra,Navi Mumbai,"Tondare-Taloja, Navi Mumbai - MPCB",12-04-2026 09:00:00,19.0630,73.1209,CO,5,30,5
India,Maharashtra,Parbhani,"Masoom Colony, Parbhani - MPCB",12-04-2026 09:00:00,19.265594,76.761463,PM2.5,56,192,121
India,Maharashtra,Parbhani,"Masoom Colony, Parbhani - MPCB",12-04-2026 09:00:00,19.265594,76.761463,PM10,64,401,119
India,Maharashtra,Parbhani,"Masoom Colony, Parbhani - MPCB",12-04-2026 09:00:00,19.265594,76.761463,NH3,3,6,4
India,Maharashtra,Navi Mumbai,"Sector-2E Kalamboli, Navi Mumbai - MPCB",12-04-2026 09:00:00,19.02579,73.10297,NH3,3,7,5
India,Maharashtra,Navi Mumbai,"Tondare-Taloja, Navi Mumbai - MPCB",12-04-2026 09:00:00,19.0630,73.1209,PM2.5,68,168,115
India,Maharashtra,Navi Mumbai,"Sanpada, Navi Mumbai - MPCB",12-04-2026 09:00:00,19.0575752,73.0151367,NH3,3,30,7
India,Maharashtra,Navi Mumbai,"Sanpada, Navi Mumbai - MPCB",12-04-2026 09:00:00,19.0575752,73.0151367,CO,21,76,44
India,Maharashtra,Navi Mumbai,"Tondare-Taloja, Navi Mumbai - MPCB",12-04-2026 09:00:00,19.0630,73.1209,PM10,97,161,133
India,Maharashtra,Navi Mumbai,"Kopripada-Vashi, Navi Mumbai - MPCB",12-04-2026 09:00:00,19.090337,73.014232,SO2,1,4,3
India,Maharashtra,Nanded,"Sneh Nagar, Nanded - MPCB",12-04-2026 09:00:00,19.173852,77.296291,OZONE,24,283,48
India,Maharashtra,Nashik,"MIDC Ambad, Nashik - MPCB",12-04-2026 09:00:00,19.950220,73.731480,CO,34,40,37
India,Maharashtra,Nashik,"MIDC Ambad, Nashik - MPCB",12-04-2026 09:00:00,19.950220,73.731480,NH3,2,4,3
India,Maharashtra,Pimpri-Chinchwad,"Transport Nagar-Nigdi, Pune - IITM",12-04-2026 09:00:00,18.664282,73.763966,PM2.5,53,98,74
India,Maharashtra,Pune,"Dhankawadi, Pune - IITM",12-04-2026 09:00:00,18.459883,73.852193,OZONE,12,103,19
India,Maharashtra,Pune,"Katraj Dairy, Pune - MPCB",12-04-2026 09:00:00,18.454450,73.854155,NH3,2,7,4
India,Maharashtra,Pune,"Katraj Dairy, Pune - MPCB",12-04-2026 09:00:00,18.454450,73.854155,SO2,1,3,3
India,Maharashtra,Pune,"Panchawati_Pashan, Pune - IITM",12-04-2026 09:00:00,18.536457,73.805454,NO2,12,45,19
India,Maharashtra,Pune,"Revenue Colony-Shivajinagar, Pune - IITM",12-04-2026 09:00:00,18.530085,73.849598,OZONE,8,111,21
India,Maharashtra,Pune,"Savitribai Phule Pune University, Pune - MPCB",12-04-2026 09:00:00,18.547056,73.826908,PM2.5,64,123,86
India,Meghalaya,Shillong,"JN Stadium, Shillong - Meghalaya PCB",12-04-2026 09:00:00,25.5803419,91.8942571,NO2,NA,NA,NA
India,Meghalaya,Shillong,"Lumpyngngad, Shillong - Meghalaya PCB",12-04-2026 09:00:00,25.5586,91.8985,PM2.5,5,299,32
India,Meghalaya,Shillong,"Lumpyngngad, Shillong - Meghalaya PCB",12-04-2026 09:00:00,25.5586,91.8985,CO,6,12,8
India,Nagaland,Kohima,"PWD Junction, Kohima - NPCB",12-04-2026 09:00:00,25.6635413,94.0989878,PM2.5,29,99,55
India,Nagaland,Kohima,"PWD Junction, Kohima - NPCB",12-04-2026 09:00:00,25.6635413,94.0989878,OZONE,1,6,1
India,Odisha,Angul,"Hakimapada, Angul - OSPCB",12-04-2026 09:00:00,20.832874,85.104082,NO2,11,80,36
India,Odisha,Balasore,"Kalidaspur, Balasore - OSPCB",12-04-2026 09:00:00,21.51161,86.89088,NH3,1,3,2
India,Maharashtra,Pimpri-Chinchwad,"Gavalinagar, Pimpri Chinchwad - MPCB",12-04-2026 09:00:00,18.63673,73.82487,NH3,NA,NA,NA
India,Maharashtra,Pimpri-Chinchwad,"Park Street Wakad, Pimpri Chinchwad - MPCB",12-04-2026 09:00:00,18.59051,73.77946,NH3,3,4,3
India,Maharashtra,Pimpri-Chinchwad,"Park Street Wakad, Pimpri Chinchwad - MPCB",12-04-2026 09:00:00,18.59051,73.77946,CO,24,72,35
India,Maharashtra,Pimpri-Chinchwad,"Savta Mali Nagar, Pimpri-Chinchwad - IITM",12-04-2026 09:00:00,18.614767,73.799516,PM2.5,18,208,93
India,Maharashtra,Pimpri-Chinchwad,"Savta Mali Nagar, Pimpri-Chinchwad - IITM",12-04-2026 09:00:00,18.614767,73.799516,OZONE,7,39,11
India,Maharashtra,Pimpri-Chinchwad,"Thergaon, Pimpri Chinchwad - MPCB",12-04-2026 09:00:00,18.616318,73.765797,PM10,119,202,148
India,Maharashtra,Pimpri-Chinchwad,"Thergaon, Pimpri Chinchwad - MPCB",12-04-2026 09:00:00,18.616318,73.765797,SO2,1,5,1
India,Odisha,Baripada,"Meher Colony, Baripada - OSPCB",12-04-2026 09:00:00,21.941841,86.728318,PM10,78,120,97
India,Odisha,Baripada,"Meher Colony, Baripada - OSPCB",12-04-2026 09:00:00,21.941841,86.728318,CO,3,43,14
India,Odisha,Bhubaneswar,"Lingraj Mandir, Bhubaneswar - OSPCB",12-04-2026 09:00:00,20.240790,85.836784,NH3,6,11,8
India,Odisha,Bileipada,"Tata Township, Bileipada - OSPCB",12-04-2026 09:00:00,22.06156703,85.47409613,PM2.5,72,254,158
India,Odisha,Bileipada,"Tata Township, Bileipada - OSPCB",12-04-2026 09:00:00,22.06156703,85.47409613,PM10,92,446,176
India,Odisha,Brajrajnagar,"GM Office, Brajrajnagar - OSPCB",12-04-2026 09:00:00,21.8004996,83.8396977,NO2,9,14,12
India,Maharashtra,Thane,"Upvan Fort, Thane - MPCB",12-04-2026 09:00:00,19.222279,72.957979,OZONE,35,63,47
India,Maharashtra,Ulhasnagar,"Vithalwadi, Ulhasnagar - MPCB",12-04-2026 09:00:00,19.2307571 ,73.1551920,NH3,3,4,3
India,Meghalaya,Byrnihat,"15th Mile-Nongthymmai, Byrnihat - Meghalaya PCB",12-04-2026 09:00:00,26.05374,91.86796,SO2,1,3,1
India,Maharashtra,Sangli,"Vijay Nagar, Sangli - MPCB",12-04-2026 09:00:00, 16.5038,74.3623,PM10,85,114,100
India,Maharashtra,Solapur,"Dnyaneshwar Nagar, Solapur - MPCB",12-04-2026 09:00:00,17.6336264,75.9132495,PM2.5,51,160,79
India,Maharashtra,Solapur,"Dnyaneshwar Nagar, Solapur - MPCB",12-04-2026 09:00:00,17.6336264,75.9132495,PM10,83,127,103
India,Maharashtra,Solapur,"Dnyaneshwar Nagar, Solapur - MPCB",12-04-2026 09:00:00,17.6336264,75.9132495,OZONE,39,91,58
India,Maharashtra,Solapur,"Ratandeep Housing Society, Solapur - MPCB",12-04-2026 09:00:00,17.65439,75.90649,PM10,108,142,123
India,Maharashtra,Pimpri-Chinchwad,"Bhosari, Pune - IITM",12-04-2026 09:00:00,18.640051,73.848956,NO2,5,18,12
India,Maharashtra,Pimpri-Chinchwad,"Bhumkar Nagar, Pune - IITM",12-04-2026 09:00:00,18.605770,73.749976,NO2,8,36,18
India,Maharashtra,Pimpri-Chinchwad,"Bhumkar Nagar, Pune - IITM",12-04-2026 09:00:00,18.605770,73.749976,CO,26,112,63
India,Maharashtra,Parbhani,"Masoom Colony, Parbhani - MPCB",12-04-2026 09:00:00,19.265594,76.761463,OZONE,6,8,7
India,Rajasthan,Ajmer,"Civil Lines,  Ajmer - RSPCB",12-04-2026 09:00:00,26.470859,74.646594,OZONE,7,46,30
India,Rajasthan,Alwar,"Moti Doongri, Alwar - RSPCB",12-04-2026 09:00:00,27.554793,76.611536,PM10,83,134,104
India,Rajasthan,Alwar,"Moti Doongri, Alwar - RSPCB",12-04-2026 09:00:00,27.554793,76.611536,NO2,68,129,84
India,Rajasthan,Banswara,"Rati Talai, Banswara - RSPCB",12-04-2026 09:00:00,23.555190,74.440010,PM2.5,10,183,83
India,Rajasthan,Banswara,"Rati Talai, Banswara - RSPCB",12-04-2026 09:00:00,23.555190,74.440010,SO2,3,41,12
India,Rajasthan,Banswara,"Rati Talai, Banswara - RSPCB",12-04-2026 09:00:00,23.555190,74.440010,CO,14,52,36
India,Rajasthan,Baran,"Bamboliya, Baran - RSPCB",12-04-2026 09:00:00,25.106006,76.469948,CO,12,60,21
India,Rajasthan,Bharatpur,"Krishna Nagar, Bharatpur - RSPCB",12-04-2026 09:00:00,27.215415,77.50873,NO2,11,63,29
India,Rajasthan,Bharatpur,"Krishna Nagar, Bharatpur - RSPCB",12-04-2026 09:00:00,27.215415,77.50873,SO2,6,31,12
India,Odisha,Brajrajnagar,"GM Office, Brajrajnagar - OSPCB",12-04-2026 09:00:00,21.8004996,83.8396977,OZONE,41,54,42
India,Odisha,Byasanagar,"Ferro Chrome Colony, Byasanagar - OSPCB",12-04-2026 09:00:00,20.94185,86.11510,PM2.5,30,163,74
India,Odisha,Byasanagar,"Ferro Chrome Colony, Byasanagar - OSPCB",12-04-2026 09:00:00,20.94185,86.11510,NH3,2,4,3
India,Odisha,Byasanagar,"Ferro Chrome Colony, Byasanagar - OSPCB",12-04-2026 09:00:00,20.94185,86.11510,CO,4,34,16
India,Odisha,Byasanagar,"Ferro Chrome Colony, Byasanagar - OSPCB",12-04-2026 09:00:00,20.94185,86.11510,OZONE,6,203,14
India,Odisha,Cuttack,"CDA Area, Cuttack - OSPCB",12-04-2026 09:00:00,20.48891     ,85.84768     ,NO2,5,17,9
India,Odisha,Cuttack,"CDA Area, Cuttack - OSPCB",12-04-2026 09:00:00,20.48891     ,85.84768     ,NH3,2,3,2
India,Odisha,Cuttack,"CDA Area, Cuttack - OSPCB",12-04-2026 09:00:00,20.48891     ,85.84768     ,CO,20,100,96
India,Odisha,Nayagarh,"Dabuna, Nayagarh - OSPCB",12-04-2026 09:00:00,21.847279,85.416905,NO2,3,7,5
India,Odisha,Talcher,"Talcher Coalfields,Talcher - OSPCB",12-04-2026 09:00:00,20.9360711,85.1707021,CO,46,87,77
India,Puducherry,Puducherry,"Jawahar Nagar, Puducherry - PPCC",12-04-2026 09:00:00,11.9309,79.8027,PM2.5,5,96,27
India,Puducherry,Puducherry,"Jawahar Nagar, Puducherry - PPCC",12-04-2026 09:00:00,11.9309,79.8027,PM10,8,80,33
India,Puducherry,Puducherry,"Jawahar Nagar, Puducherry - PPCC",12-04-2026 09:00:00,11.9309,79.8027,NO2,2,22,8
India,Punjab,Jalandhar,"Civil Line, Jalandhar - PPCB",12-04-2026 09:00:00,31.321907,75.578914,PM10,54,91,68
India,Punjab,Khanna,"Kalal Majra, Khanna - PPCB",12-04-2026 09:00:00,30.736056 ,76.209694,PM10,40,73,57
India,Punjab,Ludhiana,"Punjab Agricultural University, Ludhiana - PPCB",12-04-2026 09:00:00,30.9028,75.8086,PM2.5,57,64,60
India,Punjab,Ludhiana,"Punjab Agricultural University, Ludhiana - PPCB",12-04-2026 09:00:00,30.9028,75.8086,PM10,69,77,73
India,Punjab,Ludhiana,"Punjab Agricultural University, Ludhiana - PPCB",12-04-2026 09:00:00,30.9028,75.8086,NO2,38,45,41
India,Rajasthan,Ajmer,"Civil Lines,  Ajmer - RSPCB",12-04-2026 09:00:00,26.470859,74.646594,PM10,99,146,118
India,Rajasthan,Bhiwadi,"Vasundhara Nagar_UIT, Bhiwadi - RSPCB",12-04-2026 09:00:00,28.207266,76.829265,SO2,5,53,15
India,Rajasthan,Bundi,"New Colony, Bundi - RSPCB",12-04-2026 09:00:00,25.435774,75.644272,OZONE,31,171,67
India,Rajasthan,Chittorgarh,"Shastri Nagar, Chittorgarh - RSPCB",12-04-2026 09:00:00,24.892047,74.623527,PM2.5,28,173,68
India,Rajasthan,Chittorgarh,"Shastri Nagar, Chittorgarh - RSPCB",12-04-2026 09:00:00,24.892047,74.623527,PM10,61,214,112
India,Rajasthan,Bhilwara,"Pratap Nagar, Bhilwara - RSPCB",12-04-2026 09:00:00,25.339605,74.618883,CO,32,77,39
India,Rajasthan,Bhilwara,"Pratap Nagar, Bhilwara - RSPCB",12-04-2026 09:00:00,25.339605,74.618883,OZONE,32,94,62
India,Rajasthan,Bhiwadi,"Vasundhara Nagar_UIT, Bhiwadi - RSPCB",12-04-2026 09:00:00,28.207266,76.829265,PM2.5,25,257,103
India,Rajasthan,Chittorgarh,"Shastri Nagar, Chittorgarh - RSPCB",12-04-2026 09:00:00,24.892047,74.623527,SO2,5,117,14
India,Rajasthan,Churu,"Subash Chowk, Churu - RSPCB",12-04-2026 09:00:00,28.296139,74.961696,PM10,90,184,115
India,Rajasthan,Churu,"Subash Chowk, Churu - RSPCB",12-04-2026 09:00:00,28.296139,74.961696,SO2,5,14,8
India,Odisha,Nayagarh,"Dabuna, Nayagarh - OSPCB",12-04-2026 09:00:00,21.847279,85.416905,CO,6,26,22
India,Odisha,Rairangpur,"Divisional Forest Office, Rairangpur - OSPCB",12-04-2026 09:00:00,22.265816,86.174829,NO2,9,11,11
India,Odisha,Rairangpur,"Divisional Forest Office, Rairangpur - OSPCB",12-04-2026 09:00:00,22.265816,86.174829,SO2,7,16,10
India,Odisha,Suakati,"OMC Colony, Suakati - OSPCB",12-04-2026 09:00:00,21.606865,85.510538,CO,9,30,18
India,Rajasthan,Jaipur,"Mansarovar Sector-12, Jaipur - RSPCB",12-04-2026 09:00:00,26.843698,75.766894,NH3,13,23,18
India,Rajasthan,Jaipur,"Mansarovar Sector-12, Jaipur - RSPCB",12-04-2026 09:00:00,26.843698,75.766894,OZONE,3,147,66
India,Rajasthan,Jaipur,"RIICO Sitapura, Jaipur - RSPCB",12-04-2026 09:00:00,26.786682,75.827928,PM10,90,371,182
India,Rajasthan,Jaipur,"RIICO Sitapura, Jaipur - RSPCB",12-04-2026 09:00:00,26.786682,75.827928,NO2,17,142,62
India,Rajasthan,Jaipur,"RIICO Sitapura, Jaipur - RSPCB",12-04-2026 09:00:00,26.786682,75.827928,NH3,2,3,2
India,Rajasthan,Jaipur,"RIICO Sitapura, Jaipur - RSPCB",12-04-2026 09:00:00,26.786682,75.827928,OZONE,6,122,21
India,Rajasthan,Jaipur,"Sector-2 Murlipura, Jaipur - RSPCB",12-04-2026 09:00:00,26.960669,75.771817,NO2,18,132,52
India,Rajasthan,Jaipur,"Shastri Nagar, Jaipur - RSPCB",12-04-2026 09:00:00,26.9502929,75.730943,PM2.5,78,309,140
India,Rajasthan,Jaipur,"Shastri Nagar, Jaipur - RSPCB",12-04-2026 09:00:00,26.9502929,75.730943,SO2,2,47,25
India,Rajasthan,Jaipur,"Shastri Nagar, Jaipur - RSPCB",12-04-2026 09:00:00,26.9502929,75.730943,OZONE,13,58,26
India,Rajasthan,Jhunjhunu,"Indra Nagar, Jhunjhunu - RSPCB",12-04-2026 09:00:00,28.108988,75.386577,NH3,6,12,9
India,Rajasthan,Jodhpur,"Collectorate, Jodhpur - RSPCB",12-04-2026 09:00:00,26.268249,73.0193853,OZONE,42,92,63
India,Rajasthan,Jodhpur,"Digari Kalan, Jodhpur - RSPCB",12-04-2026 09:00:00,26.295810,73.082283,NO2,9,35,18
India,Rajasthan,Jodhpur,"Digari Kalan, Jodhpur - RSPCB",12-04-2026 09:00:00,26.295810,73.082283,SO2,2,8,4
India,Rajasthan,Jodhpur,"Digari Kalan, Jodhpur - RSPCB",12-04-2026 09:00:00,26.295810,73.082283,CO,12,27,16
India,Rajasthan,Jodhpur,"Jhalamand, Jodhpur - RSPCB",12-04-2026 09:00:00,26.215415,73.070156,PM2.5,32,133,57
India,Rajasthan,Jodhpur,"Mandor, Jodhpur - RSPCB",12-04-2026 09:00:00,26.358805,73.047444,PM2.5,37,88,56
India,Rajasthan,Jodhpur,"Mandor, Jodhpur - RSPCB",12-04-2026 09:00:00,26.358805,73.047444,NH3,3,6,4
India,Rajasthan,Jaisalmer,"Sadar Bazar, Jaisalmer - RSPCB",12-04-2026 09:00:00,26.912329,70.909168,PM10,95,380,145
India,Rajasthan,Jaisalmer,"Sadar Bazar, Jaisalmer - RSPCB",12-04-2026 09:00:00,26.912329,70.909168,CO,18,44,23
India,Rajasthan,Jalore,"Mudtra Sili, Jalore - RSPCB",12-04-2026 09:00:00,25.344694,72.626208,NO2,4,70,14
India,Rajasthan,Jalore,"Mudtra Sili, Jalore - RSPCB",12-04-2026 09:00:00,25.344694,72.626208,SO2,3,11,5
India,Rajasthan,Jalore,"Mudtra Sili, Jalore - RSPCB",12-04-2026 09:00:00,25.344694,72.626208,OZONE,38,112,70
India,Rajasthan,Jhalawar,"Rajlaxmi Nagar, Jhalawar - RSPCB",12-04-2026 09:00:00,24.588397,76.172782,PM2.5,22,290,83
India,Rajasthan,Kota,"Nayapura, Kota - RSPCB",12-04-2026 09:00:00,25.196024,75.855668,SO2,9,85,20
India,Rajasthan,Kota,"Shrinath Puram, Kota - RSPCB",12-04-2026 09:00:00,25.14389,75.821256,NO2,9,29,17
India,Rajasthan,Nagaur,"Karni Colony, Nagaur - RSPCB",12-04-2026 09:00:00,27.213494,73.734444,OZONE,47,94,70
India,Rajasthan,Hanumangarh,"Housing Board, Hanumangarh - RSPCB",12-04-2026 09:00:00,29.610750,74.283608,PM2.5,33,205,65
India,Rajasthan,Hanumangarh,"Housing Board, Hanumangarh - RSPCB",12-04-2026 09:00:00,29.610750,74.283608,PM10,61,131,84
India,Rajasthan,Hanumangarh,"Housing Board, Hanumangarh - RSPCB",12-04-2026 09:00:00,29.610750,74.283608,NO2,7,35,19
India,Rajasthan,Hanumangarh,"Housing Board, Hanumangarh - RSPCB",12-04-2026 09:00:00,29.610750,74.283608,NH3,4,7,5
India,Rajasthan,Dausa,"Khatikan Mohalla, Dausa - RSPCB",12-04-2026 09:00:00,26.895552,76.334753,CO,2,126,7
India,Rajasthan,Dholpur,"Raja Ganj, Dholpur - RSPCB",12-04-2026 09:00:00,26.699557,77.898881,NO2,16,68,31
India,Rajasthan,Karauli,"Satyawati Vihar, Karauli - RSPCB",12-04-2026 09:00:00,26.506177,77.025989,OZONE,NA,NA,NA
India,Rajasthan,Kota,"Dhanmandi, Kota - RSPCB",12-04-2026 09:00:00,25.164090,75.858137,OZONE,6,161,50
India,Rajasthan,Pali,"Indira Colony Vistar, Pali - RSPCB",12-04-2026 09:00:00,25.771061, 73.340227,PM2.5,73,222,124
India,Rajasthan,Jhunjhunu,"Indra Nagar, Jhunjhunu - RSPCB",12-04-2026 09:00:00,28.108988,75.386577,PM2.5,25,232,65
India,Rajasthan,Sri Ganganagar,"Old City, Sri Ganganagar - RSPCB",12-04-2026 09:00:00,29.931624,73.864511,NO2,5,21,14
India,Rajasthan,Sri Ganganagar,"Old City, Sri Ganganagar - RSPCB",12-04-2026 09:00:00,29.931624,73.864511,NH3,6,7,7
India,Rajasthan,Sri Ganganagar,"Old City, Sri Ganganagar - RSPCB",12-04-2026 09:00:00,29.931624,73.864511,CO,26,54,44
India,Rajasthan,Tonk,"Shastri Nagar, Tonk - RSPCB",12-04-2026 09:00:00,26.159933,75.780517,PM2.5,34,96,59
India,Rajasthan,Tonk,"Shastri Nagar, Tonk - RSPCB",12-04-2026 09:00:00,26.159933,75.780517,PM10,111,310,154
India,Rajasthan,Tonk,"Shastri Nagar, Tonk - RSPCB",12-04-2026 09:00:00,26.159933,75.780517,NO2,9,83,25
India,Rajasthan,Tonk,"Shastri Nagar, Tonk - RSPCB",12-04-2026 09:00:00,26.159933,75.780517,SO2,3,10,5
India,Rajasthan,Tonk,"Shastri Nagar, Tonk - RSPCB",12-04-2026 09:00:00,26.159933,75.780517,CO,20,72,36
India,Rajasthan,Udaipur,"Ashok Nagar, Udaipur - RSPCB",12-04-2026 09:00:00,24.5886166,73.6321397,OZONE,3,37,12
India,Sikkim,Gangtok,"Zero Point GICI, Gangtok - SSPCB",12-04-2026 09:00:00,27.338530,88.614099,NO2,6,7,6
India,Sikkim,Gangtok,"Zero Point GICI, Gangtok - SSPCB",12-04-2026 09:00:00,27.338530,88.614099,NH3,1,1,1
India,Sikkim,Gangtok,"Zero Point GICI, Gangtok - SSPCB",12-04-2026 09:00:00,27.338530,88.614099,SO2,1,1,1
India,TamilNadu,Chennai,"Arumbakkam, Chennai - TNPCB",12-04-2026 09:00:00,13.0664,80.2112 ,NO2,9,18,12
India,TamilNadu,Chennai,"Kodungaiyur, Chennai - TNPCB",12-04-2026 09:00:00,13.1278,80.2642,PM2.5,3,63,34
India,TamilNadu,Chennai,"Manali Village, Chennai - TNPCB",12-04-2026 09:00:00,13.1662,80.2584,SO2,11,31,13
India,TamilNadu,Chennai,"Manali Village, Chennai - TNPCB",12-04-2026 09:00:00,13.1662,80.2584,OZONE,29,82,70
India,TamilNadu,Chennai,"Manali, Chennai - CPCB",12-04-2026 09:00:00,13.164544,80.26285,PM2.5,9,64,25
India,TamilNadu,Chennai,"Manali, Chennai - CPCB",12-04-2026 09:00:00,13.164544,80.26285,NO2,10,14,12
India,TamilNadu,Chennai,"Perungudi, Chennai - TNPCB",12-04-2026 09:00:00,12.9533,80.2357,SO2,1,7,5
India,TamilNadu,Chennai,"Perungudi, Chennai - TNPCB",12-04-2026 09:00:00,12.9533,80.2357,OZONE,1,5,2
India,TamilNadu,Chennai,"Royapuram, Chennai - TNPCB",12-04-2026 09:00:00,13.1036,80.2909,PM2.5,8,132,33
India,TamilNadu,Madurai,"Uchapatti, Madurai - TNPCB",12-04-2026 09:00:00,9.865935,78.022669,PM10,NA,NA,NA
India,TamilNadu,Ooty,"Bombay Castel, Ooty - TNPCB",12-04-2026 09:00:00,11.4068288,76.7138973,PM10,67,132,86
India,TamilNadu,Ooty,"Bombay Castel, Ooty - TNPCB",12-04-2026 09:00:00,11.4068288,76.7138973,SO2,2,4,3
India,TamilNadu,Perundurai,"SIPCOT Industrial Park, Perundurai - TNPCB",12-04-2026 09:00:00,11.258242,77.552761,SO2,NA,NA,NA
India,TamilNadu,Thoothukudi,"Meelavittan, Thoothukudi - TNPCB",12-04-2026 09:00:00,8.816428 ,78.099039,NO2,11,23,15
India,Rajasthan,Rajsamand,"Dhoinda, Rajsamand - RSPCB",12-04-2026 09:00:00,25.036360,73.883502,CO,34,53,37
India,Rajasthan,Sawai Madhopur,"Sahu Nagar, Sawai Madhopur - RSPCB",12-04-2026 09:00:00,26.031443,76.359327,PM2.5,15,221,48
India,Rajasthan,Sikar,"Radhakishan Pura, Sikar - RSPCB",12-04-2026 09:00:00,27.608912,75.153302,CO,14,102,27
India,Rajasthan,Sikar,"Radhakishan Pura, Sikar - RSPCB",12-04-2026 09:00:00,27.608912,75.153302,OZONE,13,128,78
India,TamilNadu,Coimbatore,"PSG College of Arts and Science, Coimbatore - TNPCB",12-04-2026 09:00:00,11.0328,77.0349,SO2,4,26,11
India,TamilNadu,Coimbatore,"PSG College of Arts and Science, Coimbatore - TNPCB",12-04-2026 09:00:00,11.0328,77.0349,OZONE,4,7,6
India,TamilNadu,Coimbatore,"SIDCO Kurichi, Coimbatore - TNPCB",12-04-2026 09:00:00,10.942451,76.978996,NO2,11,14,12
India,TamilNadu,Coimbatore,"SIDCO Kurichi, Coimbatore - TNPCB",12-04-2026 09:00:00,10.942451,76.978996,CO,20,26,23
India,Telangana,Hyderabad,"ICRISAT Patancheru, Hyderabad - TSPCB",12-04-2026 09:00:00,17.518400,78.278777,OZONE,NA,NA,NA
India,Telangana,Hyderabad,"IDA Pashamylaram, Hyderabad - TSPCB",12-04-2026 09:00:00,17.5316895,78.218939,NH3,1,1,1
India,Telangana,Hyderabad,"IITH Kandi, Hyderabad - TSPCB",12-04-2026 09:00:00,17.585705,78.126199,PM10,66,115,82
India,Telangana,Hyderabad,"IITH Kandi, Hyderabad - TSPCB",12-04-2026 09:00:00,17.585705,78.126199,NO2,11,18,13
India,Rajasthan,Sirohi,"Vedhaynath Colony, Sirohi - RSPCB",12-04-2026 09:00:00,24.885261,72.857549,OZONE,20,103,35
India,Telangana,Hyderabad,"Central University, Hyderabad - TSPCB",12-04-2026 09:00:00,17.460103,78.334361,NH3,2,6,4
India,Uttar_Pradesh,Agra,"Manoharpur, Agra - UPPCB",12-04-2026 09:00:00,27.23711,78.01936,OZONE,6,14,6
India,Uttar_Pradesh,Agra,"Rohta, Agra - UPPCB",12-04-2026 09:00:00,27.106972,78.000111,PM2.5,20,385,138
India,Uttar_Pradesh,Agra,"Rohta, Agra - UPPCB",12-04-2026 09:00:00,27.106972,78.000111,PM10,78,212,140
India,Uttar_Pradesh,Agra,"Rohta, Agra - UPPCB",12-04-2026 09:00:00,27.106972,78.000111,NO2,13,13,13
India,Uttar_Pradesh,Agra,"Rohta, Agra - UPPCB",12-04-2026 09:00:00,27.106972,78.000111,OZONE,13,15,15
India,Uttar_Pradesh,Agra,"Sanjay Palace, Agra - UPPCB",12-04-2026 09:00:00,27.19865833,78.00598056,NO2,7,19,12
India,Uttar_Pradesh,Agra,"Sanjay Palace, Agra - UPPCB",12-04-2026 09:00:00,27.19865833,78.00598056,SO2,17,18,17
India,Telangana,Hyderabad,"Sanathnagar, Hyderabad - TSPCB",12-04-2026 09:00:00,17.4559458,78.4332152,NO2,7,34,21
India,Telangana,Hyderabad,"Sanathnagar, Hyderabad - TSPCB",12-04-2026 09:00:00,17.4559458,78.4332152,SO2,4,18,11
India,Telangana,Hyderabad,"Somajiguda, Hyderabad - TSPCB",12-04-2026 09:00:00,17.417094,78.457437,PM2.5,34,54,42
India,Tripura,Agartala,"Bardowali, Agartala - Tripura SPCB",12-04-2026 09:00:00,23.8175497,91.2726974,OZONE,4,29,6
India,Uttar_Pradesh,Agra,"Manoharpur, Agra - UPPCB",12-04-2026 09:00:00,27.23711,78.01936,NO2,20,22,20
India,Telangana,Hyderabad,"IITH Kandi, Hyderabad - TSPCB",12-04-2026 09:00:00,17.585705,78.126199,OZONE,24,35,25
India,Telangana,Hyderabad,"Kompally Municipal Office, Hyderabad - TSPCB",12-04-2026 09:00:00,17.544899,78.486949,PM2.5,39,60,49
India,Telangana,Hyderabad,"Zoo Park, Hyderabad - TSPCB",12-04-2026 09:00:00,17.349694,78.451437,PM2.5,NA,NA,NA
India,Telangana,Hyderabad,"Zoo Park, Hyderabad - TSPCB",12-04-2026 09:00:00,17.349694,78.451437,NO2,3,14,9
India,Telangana,Hyderabad,"New Malakpet, Hyderabad - TSPCB",12-04-2026 09:00:00,17.37206,78.50864,PM2.5,38,72,52
India,Telangana,Hyderabad,"New Malakpet, Hyderabad - TSPCB",12-04-2026 09:00:00,17.37206,78.50864,OZONE,20,58,24
India,Uttar_Pradesh,Agra,"Sector-3B Avas Vikas Colony, Agra - UPPCB",12-04-2026 09:00:00,27.19412,77.96237,OZONE,4,20,4
India,Telangana,Hyderabad,"Ramachandrapuram, Hyderabad - TSPCB",12-04-2026 09:00:00,17.528544,78.286195,NH3,3,5,4
India,Telangana,Hyderabad,"Zoo Park, Hyderabad - TSPCB",12-04-2026 09:00:00,17.349694,78.451437,CO,1,56,8
India,Uttar_Pradesh,Firozabad,"Nagla Bhau, Firozabad - UPPCB",12-04-2026 09:00:00,27.168897,78.376960,CO,22,38,24
India,Uttar_Pradesh,Firozabad,"Vibhab Nagar, Firozabad - UPPCB",12-04-2026 09:00:00,27.1594,78.3953,PM2.5,51,296,109
India,Uttar_Pradesh,Firozabad,"Vibhab Nagar, Firozabad - UPPCB",12-04-2026 09:00:00,27.1594,78.3953,SO2,3,4,3
India,Uttar_Pradesh,Ghaziabad,"Indirapuram, Ghaziabad - UPPCB",12-04-2026 09:00:00,28.646233,77.358075,PM10,104,409,187
India,Uttar_Pradesh,Ghaziabad,"Indirapuram, Ghaziabad - UPPCB",12-04-2026 09:00:00,28.646233,77.358075,NH3,14,16,15
India,Uttar_Pradesh,Ghaziabad,"Loni, Ghaziabad - UPPCB",12-04-2026 09:00:00,28.757294,77.278792,NO2,8,96,40
India,Uttar_Pradesh,Ghaziabad,"Loni, Ghaziabad - UPPCB",12-04-2026 09:00:00,28.757294,77.278792,NH3,1,8,4
India,Uttar_Pradesh,Ghaziabad,"Sanjay Nagar, Ghaziabad - UPPCB",12-04-2026 09:00:00,28.685382,77.453839,PM2.5,23,213,89
India,Uttar_Pradesh,Ghaziabad,"Sanjay Nagar, Ghaziabad - UPPCB",12-04-2026 09:00:00,28.685382,77.453839,NO2,24,138,53
India,Uttar_Pradesh,Ghaziabad,"Sanjay Nagar, Ghaziabad - UPPCB",12-04-2026 09:00:00,28.685382,77.453839,SO2,10,49,21
India,Uttar_Pradesh,Ghaziabad,"Sanjay Nagar, Ghaziabad - UPPCB",12-04-2026 09:00:00,28.685382,77.453839,OZONE,3,117,32
India,Uttar_Pradesh,Ghaziabad,"Vasundhara, Ghaziabad - UPPCB",12-04-2026 09:00:00,28.6603346,77.3572563,NO2,46,138,80
India,Uttar_Pradesh,Ghaziabad,"Ved Vihar-Loni, Ghaziabad - UPPCB",12-04-2026 09:00:00,28.739153 ,77.273668 ,SO2,4,5,4
India,Uttar_Pradesh,Gorakhpur,"Madan Mohan Malaviya University of Technology, Gorakhpur - UPPCB",12-04-2026 09:00:00,26.730136,83.433859,PM10,31,133,98
India,Uttar_Pradesh,Gorakhpur,"Madan Mohan Malaviya University of Technology, Gorakhpur - UPPCB",12-04-2026 09:00:00,26.730136,83.433859,NO2,11,12,11
India,Uttar_Pradesh,Greater Noida,"Knowledge Park - V, Greater Noida - UPPCB",12-04-2026 09:00:00,28.557054,77.453663,PM2.5,49,337,151
India,Uttar_Pradesh,Greater Noida,"Knowledge Park - V, Greater Noida - UPPCB",12-04-2026 09:00:00,28.557054,77.453663,NO2,35,144,79
India,Uttar_Pradesh,Greater Noida,"Knowledge Park - V, Greater Noida - UPPCB",12-04-2026 09:00:00,28.557054,77.453663,SO2,12,36,20
India,Uttar_Pradesh,Hapur,"Anand Vihar, Hapur - UPPCB",12-04-2026 09:00:00,28.725645,77.749675,PM10,104,206,151
India,Uttar_Pradesh,Lucknow,"Kukrail Picnic Spot-1, Lucknow - UPPCB",12-04-2026 09:00:00,26.90723,80.98579,PM10,82,151,121
India,Uttar_Pradesh,Lucknow,"Kukrail Picnic Spot-1, Lucknow - UPPCB",12-04-2026 09:00:00,26.90723,80.98579,NO2,31,32,32
India,Uttar_Pradesh,Lucknow,"Kukrail Picnic Spot-1, Lucknow - UPPCB",12-04-2026 09:00:00,26.90723,80.98579,OZONE,13,31,17
India,Uttar_Pradesh,Lucknow,"Lalbagh, Lucknow - CPCB",12-04-2026 09:00:00,26.8458805,80.9365541,OZONE,10,46,19
India,Uttar_Pradesh,Lucknow,"Talkatora District Industries Center, Lucknow - CPCB",12-04-2026 09:00:00,26.83399722,80.8917361,CO,18,33,22
India,Uttar_Pradesh,Meerut,"Ganga Nagar, Meerut - UPPCB",12-04-2026 09:00:00,28.999264,77.7590354,PM2.5,20,128,64
India,Uttar_Pradesh,Moradabad,"Buddhi Vihar, Moradabad - UPPCB",12-04-2026 09:00:00,28.83526,78.74460,NH3,5,5,5
India,Uttar_Pradesh,Moradabad,"Buddhi Vihar, Moradabad - UPPCB",12-04-2026 09:00:00,28.83526,78.74460,OZONE,13,121,14
India,Uttar_Pradesh,Moradabad,"Eco Herbal Park, Moradabad - UPPCB",12-04-2026 09:00:00,28.840739,78.697531,PM2.5,26,85,49
India,Uttar_Pradesh,Moradabad,"Eco Herbal Park, Moradabad - UPPCB",12-04-2026 09:00:00,28.840739,78.697531,OZONE,22,110,40
India,Uttar_Pradesh,Moradabad,"Employment Office, Moradabad - UPPCB",12-04-2026 09:00:00,28.88528,78.73880,NO2,15,16,16
India,Uttar_Pradesh,Moradabad,"Jigar Colony, Moradabad - UPPCB",12-04-2026 09:00:00,28.856664,78.772638,PM2.5,34,83,55
India,Uttar_Pradesh,Agra,"Shahjahan Garden, Agra - UPPCB",12-04-2026 09:00:00,27.169338,78.03582,SO2,71,94,81
India,Uttar_Pradesh,Agra,"Shahjahan Garden, Agra - UPPCB",12-04-2026 09:00:00,27.169338,78.03582,CO,4,19,9
India,Uttar_Pradesh,Baghpat,"Sardar Patel Inter College, Baghpat - UPPCB",12-04-2026 09:00:00,28.964949,77.278761,SO2,5,115,38
India,Uttar_Pradesh,Bareilly,"Civil Lines, Bareilly - UPPCB",12-04-2026 09:00:00,28.359581,79.414455,PM10,38,61,48
India,Uttar_Pradesh,Meerut,"Jai Bhim Nagar, Meerut - UPPCB",12-04-2026 09:00:00,28.9535882,77.7622941,PM2.5,20,133,60
India,Uttar_Pradesh,Meerut,"Jai Bhim Nagar, Meerut - UPPCB",12-04-2026 09:00:00,28.9535882,77.7622941,NH3,5,8,6
India,Uttar_Pradesh,Modinagar,"SRM University, Modinagar - UPPCB",12-04-2026 09:00:00,28.798171 ,77.540243 ,NO2,23,84,45
India,Uttar_Pradesh,Modinagar,"SRM University, Modinagar - UPPCB",12-04-2026 09:00:00,28.798171 ,77.540243 ,SO2,13,61,27
India,Uttar_Pradesh,Modinagar,"SRM University, Modinagar - UPPCB",12-04-2026 09:00:00,28.798171 ,77.540243 ,CO,40,78,65
India,Uttar_Pradesh,Kanpur,"Nehru Nagar, Kanpur - UPPCB",12-04-2026 09:00:00,26.4703136,80.3229863,SO2,6,106,21
India,Uttar_Pradesh,Kanpur,"Nehru Nagar, Kanpur - UPPCB",12-04-2026 09:00:00,26.4703136,80.3229863,CO,26,111,64
India,Uttar_Pradesh,Khora,"Prashant Garden, Khora - UPPCB",12-04-2026 09:00:00,28.61119,77.34206,CO,64,113,81
India,Uttar_Pradesh,Khurja,"Kalindi Kunj, Khurja - UPPCB",12-04-2026 09:00:00,28.2348927,77.8683002,OZONE,10,68,11
India,Uttar_Pradesh,Hapur,"Anand Vihar, Hapur - UPPCB",12-04-2026 09:00:00,28.725645,77.749675,SO2,28,60,38
India,Uttar_Pradesh,Jhansi,"Shivaji Nagar, Jhansi - UPPCB",12-04-2026 09:00:00,25.4547,78.6039,PM2.5,16,58,29
India,Uttar_Pradesh,Jhansi,"Shivaji Nagar, Jhansi - UPPCB",12-04-2026 09:00:00,25.4547,78.6039,PM10,51,154,76
India,Uttar_Pradesh,Kanpur,"FTI Kidwai Nagar, Kanpur - UPPCB",12-04-2026 09:00:00,26.428282,80.327067,PM2.5,7,200,77
India,Uttar_Pradesh,Lucknow,"B R Ambedkar University, Lucknow - UPPCB",12-04-2026 09:00:00,26.766433,80.927299,CO,28,32,30
India,Uttar_Pradesh,Lucknow,"Gomti Nagar, Lucknow - UPPCB",12-04-2026 09:00:00,26.868120,81.005119,PM2.5,79,253,165
India,Uttar_Pradesh,Lucknow,"Gomti Nagar, Lucknow - UPPCB",12-04-2026 09:00:00,26.868120,81.005119,NO2,9,11,10
India,Uttar_Pradesh,Raebareli," Indira Nagar, Raebareli - NTPC Unchahar",12-04-2026 09:00:00,26.207781,81.245571,SO2,5,15,12
India,Uttar_Pradesh,Varanasi,"Ardhali Bazar, Varanasi - UPPCB",12-04-2026 09:00:00,25.3505986,82.9083074,PM10,85,165,118
India,Uttar_Pradesh,Varanasi,"Bhelupur, Varanasi - UPPCB",12-04-2026 09:00:00,25.301778,82.996789,PM10,82,186,112
India,Uttar_Pradesh,Varanasi,"Bhelupur, Varanasi - UPPCB",12-04-2026 09:00:00,25.301778,82.996789,NO2,8,8,8
India,Uttar_Pradesh,Varanasi,"Bhelupur, Varanasi - UPPCB",12-04-2026 09:00:00,25.301778,82.996789,NH3,1,1,1
India,Uttar_Pradesh,Varanasi,"Bhelupur, Varanasi - UPPCB",12-04-2026 09:00:00,25.301778,82.996789,OZONE,10,23,14
India,Uttar_Pradesh,Varanasi,"IESD Banaras Hindu University, Varanasi - UPPCB",12-04-2026 09:00:00,25.262326,82.995408,PM10,75,119,94
India,Uttar_Pradesh,Varanasi,"Maldahiya, Varanasi - UPPCB",12-04-2026 09:00:00,25.32393,82.99687,PM10,74,145,106
India,Uttar_Pradesh,Vrindavan,"Omex Eternity, Vrindavan - UPPCB",12-04-2026 09:00:00,27.5714090,77.6557570,PM10,30,180,118
India,Uttar_Pradesh,Vrindavan,"Omex Eternity, Vrindavan - UPPCB",12-04-2026 09:00:00,27.5714090,77.6557570,CO,12,50,39
India,Uttarakhand,Dehradun,"Doon University, Dehradun - UKPCB",12-04-2026 09:00:00,30.269444,78.044167,SO2,1,1,1
India,Uttarakhand,Kashipur,"Govt. Girls Inter College, Kashipur - UKPCB",12-04-2026 09:00:00,29.2124114,78.9611753,NO2,5,18,9
India,West_Bengal,Asansol,"Asansol Court Area, Asansol - WBPCB",12-04-2026 09:00:00,23.685297,86.945968,PM10,54,121,89
India,West_Bengal,Asansol,"Asansol Court Area, Asansol - WBPCB",12-04-2026 09:00:00,23.685297,86.945968,OZONE,16,49,22
India,West_Bengal,Asansol,"Evelyn Lodge, Asansol - WBPCB",12-04-2026 09:00:00,23.6979360,86.9443950,NO2,9,69,26
India,West_Bengal,Asansol,"Mahabir Colliery, Asansol - WBPCB",12-04-2026 09:00:00,23.6181830,87.1057180,PM2.5,18,195,55
India,West_Bengal,Asansol,"Mahabir Colliery, Asansol - WBPCB",12-04-2026 09:00:00,23.6181830,87.1057180,OZONE,8,67,19
India,West_Bengal,Barrackpore,"SVSPA Campus, Barrackpore - WBPCB",12-04-2026 09:00:00,22.7605581,88.3617589,NO2,21,42,29
India,West_Bengal,Durgapur,"Mahishkapur Road_B-Zone, Durgapur - WBPCB",12-04-2026 09:00:00,23.567923,87.306843,PM2.5,63,63,63
India,West_Bengal,Durgapur,"Mahishkapur Road_B-Zone, Durgapur - WBPCB",12-04-2026 09:00:00,23.567923,87.306843,PM10,55,137,91
India,West_Bengal,Durgapur,"Mahishkapur Road_B-Zone, Durgapur - WBPCB",12-04-2026 09:00:00,23.567923,87.306843,OZONE,5,92,28
India,West_Bengal,Durgapur,"PCBL Residential Complex, Durgapur - WBPCB",12-04-2026 09:00:00,23.5087640,87.3544400,NH3,5,9,7
India,Uttar_Pradesh,Moradabad,"Transport Nagar, Moradabad - UPPCB",12-04-2026 09:00:00,28.802625,78.753728,NO2,29,29,29
India,Uttar_Pradesh,Muzaffarnagar,"New Mandi, Muzaffarnagar - UPPCB",12-04-2026 09:00:00,29.4723508,77.7194031,PM2.5,27,191,80
India,Uttar_Pradesh,Muzaffarnagar,"New Mandi, Muzaffarnagar - UPPCB",12-04-2026 09:00:00,29.4723508,77.7194031,OZONE,41,143,62
India,Uttar_Pradesh,Moradabad,"Jigar Colony, Moradabad - UPPCB",12-04-2026 09:00:00,28.856664,78.772638,CO,39,40,40
India,Uttar_Pradesh,Moradabad,"Kashiram Nagar, Moradabad - UPPCB",12-04-2026 09:00:00,28.849399,78.742362,PM2.5,19,76,42
India,Uttar_Pradesh,Moradabad,"Kashiram Nagar, Moradabad - UPPCB",12-04-2026 09:00:00,28.849399,78.742362,NO2,25,25,25
India,Uttar_Pradesh,Prayagraj,"Jhunsi, Prayagraj - UPPCB",12-04-2026 09:00:00,25.425602,81.917152,NH3,5,6,6
India,Uttar_Pradesh,Prayagraj,"Motilal Nehru NIT, Prayagraj - UPPCB",12-04-2026 09:00:00,25.494,81.863,PM10,71,145,96
India,West_Bengal,Durgapur,"Womens College_City Center, Durgapur - WBPCB",12-04-2026 09:00:00,23.549395,87.300496,PM2.5,39,93,65
India,West_Bengal,Durgapur,"Womens College_City Center, Durgapur - WBPCB",12-04-2026 09:00:00,23.549395,87.300496,PM10,69,134,95
India,Uttar_Pradesh,Prayagraj,"Motilal Nehru NIT, Prayagraj - UPPCB",12-04-2026 09:00:00,25.494,81.863,CO,8,24,19
India,West_Bengal,Howrah,"Dasnagar, Howrah - WBPCB",12-04-2026 09:00:00,22.6025571,88.3105664,OZONE,11,82,24
India,West_Bengal,Howrah,"Padmapukur, Howrah - WBPCB",12-04-2026 09:00:00,22.5687319,88.2797276,SO2,8,38,19
India,West_Bengal,Kolkata,"Ballygunge, Kolkata - WBPCB",12-04-2026 09:00:00,22.5367507,88.3638022,NH3,7,13,9
India,West_Bengal,Kolkata,"Bidhannagar, Kolkata - WBPCB",12-04-2026 09:00:00,22.58157048,88.41002457,NH3,5,6,5
India,West_Bengal,Kolkata,"Bidhannagar, Kolkata - WBPCB",12-04-2026 09:00:00,22.58157048,88.41002457,CO,12,65,16
India,West_Bengal,Kolkata,"Fort William, Kolkata - WBPCB",12-04-2026 09:00:00,22.556640,88.342674,PM10,43,91,57
India,West_Bengal,Kolkata,"Fort William, Kolkata - WBPCB",12-04-2026 09:00:00,22.556640,88.342674,NH3,9,12,10
India,West_Bengal,Kolkata,"Jadavpur, Kolkata - WBPCB",12-04-2026 09:00:00,22.49929,88.36917,OZONE,10,110,13
India,West_Bengal,Kolkata,"Rabindra Sarobar, Kolkata - WBPCB",12-04-2026 09:00:00,22.51106,88.35142,OZONE,11,61,14
India,West_Bengal,Siliguri,"Ward-32 Bapupara, Siliguri - WBPCB",12-04-2026 09:00:00,26.6879226,88.4152495,PM2.5,26,55,43
India,Andhra_Pradesh,Tirupati,"Vaikuntapuram, Tirupati - APPCB",12-04-2026 09:00:00,13.615387,79.409230,PM2.5,48,214,70
India,Andhra_Pradesh,Tirupati,"Vaikuntapuram, Tirupati - APPCB",12-04-2026 09:00:00,13.615387,79.409230,NH3,4,6,6
India,Andhra_Pradesh,Tirupati,"Vaikuntapuram, Tirupati - APPCB",12-04-2026 09:00:00,13.615387,79.409230,SO2,7,12,8
India,Andhra_Pradesh,Tirupati,"Vaikuntapuram, Tirupati - APPCB",12-04-2026 09:00:00,13.615387,79.409230,OZONE,19,26,26
India,Andhra_Pradesh,Vijayawada,"HB Colony, Vijayawada - APPCB",12-04-2026 09:00:00,16.536107,80.594233,NO2,16,27,26
India,Andhra_Pradesh,Vijayawada,"Rajiv Nagar, Vijayawada - APPCB",12-04-2026 09:00:00,16.554731,80.649110,NO2,19,27,23
India,Andhra_Pradesh,Visakhapatnam,"GVM Corporation, Visakhapatnam - APPCB",12-04-2026 09:00:00,17.72,83.3,PM10,46,239,106
India,Andhra_Pradesh,Visakhapatnam,"GVM Corporation, Visakhapatnam - APPCB",12-04-2026 09:00:00,17.72,83.3,NH3,3,4,3
India,Andhra_Pradesh,Nellore,"Ambedkar Nagar, Nellore - APPCB ",12-04-2026 09:00:00,14.438164 ,79.966814 ,OZONE,3,38,6
India,Andhra_Pradesh,Rajamahendravaram,"Anand Kala Kshetram, Rajamahendravaram - APPCB",12-04-2026 09:00:00,16.9872867,81.7363176,OZONE,3,25,7
India,Assam,Byrnihat,"Central Academy for SFS, Byrnihat - PCBA",12-04-2026 09:00:00,26.071318,91.87488,SO2,24,32,31
India,Assam,Guwahati,"LGBI Airport, Guwahati - PCBA",12-04-2026 09:00:00,26.10887,91.589544,OZONE,12,15,13
India,Andhra_Pradesh,Anantapur,"Gulzarpet, Anantapur - APPCB",12-04-2026 09:00:00,14.675886,77.593027,PM10,78,90,83
India,Andhra_Pradesh,Chittoor,"Gangineni Cheruvu, Chittoor - APPCB",12-04-2026 09:00:00,13.204880,79.097889,PM2.5,NA,NA,NA
India,Assam,Guwahati,"Pan Bazaar, Guwahati - PCBA",12-04-2026 09:00:00,26.187500,91.744194,PM2.5,47,95,69
India,Assam,Guwahati,"Pan Bazaar, Guwahati - PCBA",12-04-2026 09:00:00,26.187500,91.744194,SO2,11,13,12
India,Andhra_Pradesh,Amaravati,"Secretariat, Amaravati - APPCB",12-04-2026 09:00:00,16.5150833,80.5181667,PM2.5,17,82,39
India,Andhra_Pradesh,Eluru,"District Court, Eluru - APPCB",12-04-2026 09:00:00,16.711754,81.092095,OZONE,2,16,3
India,Arunachal_Pradesh,Naharlagun,"Naharlagun, Naharlagun - APSPCB",12-04-2026 09:00:00,27.103358,93.679645,OZONE,6,6,6
India,Andhra_Pradesh,Vijayawada,"Kanuru, Vijayawada - APPCB",12-04-2026 09:00:00,16.486692,80.699436,PM2.5,NA,NA,NA
India,Assam,Guwahati,"Railway Colony, Guwahati - PCBA",12-04-2026 09:00:00,26.181742,91.78063,PM2.5,40,214,93
India,Assam,Nagaon,"Christianpatty, Nagaon - PCBA",12-04-2026 09:00:00,26.349082,92.68449,PM10,27,75,46
India,Assam,Nagaon,"Christianpatty, Nagaon - PCBA",12-04-2026 09:00:00,26.349082,92.68449,NH3,4,5,5
India,Assam,Nagaon,"Christianpatty, Nagaon - PCBA",12-04-2026 09:00:00,26.349082,92.68449,CO,6,26,20
India,Assam,Nalbari,"Bata Chowk, Nalbari - PCBA",12-04-2026 09:00:00,26.446912,91.439057,PM2.5,29,45,39
India,Assam,Silchar,"Tarapur, Silchar - PCBA",12-04-2026 09:00:00,24.82827,92.79525,PM2.5,39,86,62
India,Assam,Silchar,"Tarapur, Silchar - PCBA",12-04-2026 09:00:00,24.82827,92.79525,NO2,22,29,26
India,Assam,Silchar,"Tarapur, Silchar - PCBA",12-04-2026 09:00:00,24.82827,92.79525,OZONE,2,4,2
India,Assam,Sivasagar,"Girls College, Sivasagar - PCBA",12-04-2026 09:00:00,26.987634,94.636574,SO2,6,7,6
India,Bihar,Aurangabad,"Gurdeo Nagar, Aurangabad - BSPCB",12-04-2026 09:00:00,24.75746,84.366208,NH3,1,3,2
India,Bihar,Begusarai,"Lohiyanagar, Begusarai - BSPCB",12-04-2026 09:00:00,25.42742023,86.13886079,PM2.5,28,200,94
India,Bihar,Bettiah,"Kamalnath Nagar, Bettiah - BSPCB",12-04-2026 09:00:00,26.80365,84.51954,PM2.5,12,62,33
India,Bihar,Bettiah,"Kamalnath Nagar, Bettiah - BSPCB",12-04-2026 09:00:00,26.80365,84.51954,NO2,7,10,8
India,Bihar,Bettiah,"Kamalnath Nagar, Bettiah - BSPCB",12-04-2026 09:00:00,26.80365,84.51954,NH3,1,1,1
India,Bihar,Bhagalpur,"DM Office_Kachari Chowk, Bhagalpur - BSPCB",12-04-2026 09:00:00,25.251013,86.989001,NO2,8,15,12
India,Bihar,Bihar Sharif,"D M Colony, Bihar Sharif - BSPCB",12-04-2026 09:00:00,25.204762,85.514960,NH3,3,4,3
India,Bihar,Bihar Sharif,"D M Colony, Bihar Sharif - BSPCB",12-04-2026 09:00:00,25.204762,85.514960,SO2,10,10,10
India,Bihar,Buxar,"Charitra Van, Buxar - BSPCB",12-04-2026 09:00:00,25.567520,83.966379,PM2.5,43,65,52
India,Bihar,Gaya,"Collectorate, Gaya - BSPCB",12-04-2026 09:00:00,24.7955,84.9994,NO2,9,9,9
India,Bihar,Gaya,"Kareemganj, Gaya - BSPCB",12-04-2026 09:00:00,24.792403,84.992416,PM10,104,161,138
India,Bihar,Gaya,"Kareemganj, Gaya - BSPCB",12-04-2026 09:00:00,24.792403,84.992416,NH3,1,5,2
India,Bihar,Katihar,"Mirchaibari, Katihar - BSPCB",12-04-2026 09:00:00,25.560083,87.553265,PM2.5,17,62,42
India,Bihar,Katihar,"Mirchaibari, Katihar - BSPCB",12-04-2026 09:00:00,25.560083,87.553265,NO2,9,10,9
India,Bihar,Katihar,"Mirchaibari, Katihar - BSPCB",12-04-2026 09:00:00,25.560083,87.553265,SO2,17,25,23
India,Bihar,Chhapra,"Darshan Nagar, Chhapra - BSPCB",12-04-2026 09:00:00,25.7808257,84.7446768,NO2,3,4,3
India,Bihar,Chhapra,"Darshan Nagar, Chhapra - BSPCB",12-04-2026 09:00:00,25.7808257,84.7446768,NH3,4,9,6
India,Bihar,Arrah,"New DM Office, Arrah - BSPCB",12-04-2026 09:00:00,25.5626095,84.663264,PM2.5,23,85,52
India,Bihar,Hajipur,"Industrial Area, Hajipur - BSPCB",12-04-2026 09:00:00,25.697189,85.245900,NH3,10,13,11
India,Bihar,Arrah,"New DM Office, Arrah - BSPCB",12-04-2026 09:00:00,25.5626095,84.663264,NO2,5,8,7
India,Bihar,Saharsa,"Police Line, Saharsa - BSPCB",12-04-2026 09:00:00,25.892357,86.590325,NO2,4,10,7
India,Bihar,Saharsa,"Police Line, Saharsa - BSPCB",12-04-2026 09:00:00,25.892357,86.590325,CO,38,42,38
India,Bihar,Samastipur,"DM Office_Kasipur, Samastipur - BSPCB",12-04-2026 09:00:00,25.859655,85.77944,NO2,8,9,8
India,Bihar,Sasaram,"Dada Peer, Sasaram - BSPCB",12-04-2026 09:00:00,24.952822,84.002396,CO,27,98,48
India,Bihar,Sasaram,"Dada Peer, Sasaram - BSPCB",12-04-2026 09:00:00,24.952822,84.002396,OZONE,8,39,17
India,Bihar,Siwan,"Chitragupta Nagar, Siwan - BSPCB",12-04-2026 09:00:00,26.2271665,84.3570427,CO,29,113,56
India,Chandigarh,Chandigarh,"Sector 22, Chandigarh - CPCC",12-04-2026 09:00:00,30.735567,76.775714,PM10,43,141,89
India,Chandigarh,Chandigarh,"Sector 22, Chandigarh - CPCC",12-04-2026 09:00:00,30.735567,76.775714,NO2,9,36,15
India,Bihar,Muzaffarpur,"MIT-Daudpur Kothi, Muzaffarpur - BSPCB",12-04-2026 09:00:00,26.1403345,85.3650192,OZONE,11,67,14
India,Bihar,Muzaffarpur,"Muzaffarpur Collectorate, Muzaffarpur - BSPCB",12-04-2026 09:00:00,26.1209,85.3647,CO,10,57,14
India,Bihar,Patna,"DRM Office Danapur, Patna - BSPCB",12-04-2026 09:00:00,25.586562,85.043586,PM10,103,464,230
India,Bihar,Patna,"DRM Office Danapur, Patna - BSPCB",12-04-2026 09:00:00,25.586562,85.043586,SO2,3,8,6
India,Bihar,Patna,"Govt. High School Shikarpur, Patna - BSPCB",12-04-2026 09:00:00,25.592539,85.227158,PM10,141,193,164
India,Bihar,Patna,"Govt. High School Shikarpur, Patna - BSPCB",12-04-2026 09:00:00,25.592539,85.227158,NO2,10,35,19
India,Bihar,Patna,"Govt. High School Shikarpur, Patna - BSPCB",12-04-2026 09:00:00,25.592539,85.227158,CO,6,107,37
India,Bihar,Manguraha,"Forest Rest House, Manguraha - BSPCB",12-04-2026 09:00:00,27.308328,84.531742,SO2,16,17,16
India,Bihar,Munger,"Town Hall, Munger - BSPCB",12-04-2026 09:00:00,25.376776,86.471523,NO2,4,5,5
India,Bihar,Munger,"Town Hall, Munger - BSPCB",12-04-2026 09:00:00,25.376776,86.471523,SO2,46,116,93
India,Bihar,Muzaffarpur,"Buddha Colony, Muzaffarpur - BSPCB",12-04-2026 09:00:00,26.11442,85.39813,PM2.5,71,313,201
India,Bihar,Muzaffarpur,"Buddha Colony, Muzaffarpur - BSPCB",12-04-2026 09:00:00,26.11442,85.39813,PM10,118,286,163
India,Bihar,Muzaffarpur,"Buddha Colony, Muzaffarpur - BSPCB",12-04-2026 09:00:00,26.11442,85.39813,NO2,41,61,49
India,Bihar,Muzaffarpur,"Buddha Colony, Muzaffarpur - BSPCB",12-04-2026 09:00:00,26.11442,85.39813,CO,15,50,43
India,Chandigarh,Chandigarh,"Sector-25, Chandigarh - CPCC",12-04-2026 09:00:00,30.751462,76.762879,CO,7,66,15
India,Chandigarh,Chandigarh,"Sector-53, Chandigarh - CPCC",12-04-2026 09:00:00,30.719859,76.738637,PM10,26,80,47
India,Chandigarh,Chandigarh,"Sector-53, Chandigarh - CPCC",12-04-2026 09:00:00,30.719859,76.738637,NH3,14,16,15
India,Chhattisgarh,Bhilai,"Civic Center, Bhilai - Bhilai Steel Plant",12-04-2026 09:00:00,21.185571,81.343175,NO2,13,14,13
India,Chhattisgarh,Bhilai,"Hathkhoj, Bhilai - CECB",12-04-2026 09:00:00,21.224231,81.408350,PM10,29,145,61
India,Bihar,Patna,"Muradpur, Patna - BSPCB",12-04-2026 09:00:00,25.619651,85.147382,SO2,9,12,10
India,Bihar,Patna,"Rajbansi Nagar, Patna - BSPCB",12-04-2026 09:00:00,25.599486,85.113666,CO,24,107,46
India,Bihar,Patna,"Samanpura, Patna - BSPCB",12-04-2026 09:00:00,25.596727,85.085624,NO2,32,65,42
India,Bihar,Purnia,"Mariam Nagar, Purnia - BSPCB",12-04-2026 09:00:00,25.366336,87.117468,PM2.5,60,87,75
India,Chhattisgarh,Bilaspur,"Mangala, Bilaspur - NTPC",12-04-2026 09:00:00,22.08815,82.13737,PM10,41,96,69
India,Chhattisgarh,Bilaspur,"Mangala, Bilaspur - NTPC",12-04-2026 09:00:00,22.08815,82.13737,CO,2,118,31
India,Chhattisgarh,Chhal,"Nawapara SECL Colony, Chhal - CECB",12-04-2026 09:00:00,22.118125,83.140608,PM2.5,29,68,48
India,Chhattisgarh,Korba,"Rampur, Korba - CECB",12-04-2026 09:00:00,22.368195,82.746431,SO2,9,89,39
India,Chhattisgarh,Korba,"Urja Nagar, Korba - CECB",12-04-2026 09:00:00,22.348441,82.549611,NO2,17,24,20
India,Chhattisgarh,Korba,"Urja Nagar, Korba - CECB",12-04-2026 09:00:00,22.348441,82.549611,NH3,1,1,1
India,Bihar,Saharsa,"Police Line, Saharsa - BSPCB",12-04-2026 09:00:00,25.892357,86.590325,PM2.5,3,305,104
India,Chhattisgarh,Bhilai,"Hathkhoj, Bhilai - CECB",12-04-2026 09:00:00,21.224231,81.408350,NO2,15,80,45
India,Delhi,Delhi,"Chandni Chowk, Delhi - IITM",12-04-2026 09:00:00,28.656756,77.227234,NO2,34,205,95
India,Delhi,Delhi,"Chandni Chowk, Delhi - IITM",12-04-2026 09:00:00,28.656756,77.227234,NH3,6,20,10
India,Delhi,Delhi,"Commonwealth Sports Complex, Delhi - DPCC",12-04-2026 09:00:00,28.615828 ,77.271992 ,NH3,2,7,4
India,Delhi,Delhi,"DTU, Delhi - CPCB",12-04-2026 09:00:00,28.7500499,77.1112615,NO2,9,36,19
India,Delhi,Delhi,"Dwarka-Sector 8, Delhi - DPCC ",12-04-2026 09:00:00,28.5710274,77.0719006,SO2,10,54,19
India,Delhi,Delhi,"Dwarka-Sector 8, Delhi - DPCC ",12-04-2026 09:00:00,28.5710274,77.0719006,OZONE,12,83,24
India,Delhi,Delhi,"IGI Airport (T3), Delhi - IMD",12-04-2026 09:00:00,28.5627763,77.1180053,PM2.5,15,345,97
India,Delhi,Delhi,"IGNOU_Maidan Garhi, Delhi - DPCC",12-04-2026 09:00:00,28.493624 ,77.201159 ,PM2.5,23,372,140
India,Chhattisgarh,Kunjemura,"OP Jindal School, Kunjemura - CECB",12-04-2026 09:00:00,22.126650,83.483212,NO2,11,61,35
India,Chhattisgarh,Kunjemura,"OP Jindal School, Kunjemura - CECB",12-04-2026 09:00:00,22.126650,83.483212,OZONE,2,38,4
India,Chhattisgarh,Milupara,"Govt. Higher Secondary School, Milupara - CECB",12-04-2026 09:00:00,22.1910172,83.5197009,OZONE,11,145,25
India,Chhattisgarh,Raipur,"AIIMS, Raipur - CECB",12-04-2026 09:00:00,21.258815,81.578979,NH3,3,4,3
India,Chhattisgarh,Raipur,"Bhatagaon New ISBT, Raipur - CECB",12-04-2026 09:00:00,21.219665,81.630094,NH3,2,2,2
India,Chhattisgarh,Raipur,"Bhatagaon New ISBT, Raipur - CECB",12-04-2026 09:00:00,21.219665,81.630094,SO2,3,72,14
India,Delhi,Delhi,"Alipur, Delhi - DPCC",12-04-2026 09:00:00,28.815329,77.153010,PM2.5,27,356,133
India,Delhi,Delhi,"Alipur, Delhi - DPCC",12-04-2026 09:00:00,28.815329,77.153010,NO2,15,85,34
India,Delhi,Delhi,"Alipur, Delhi - DPCC",12-04-2026 09:00:00,28.815329,77.153010,NH3,11,14,12
India,Delhi,Delhi,"Anand Vihar, Delhi - DPCC",12-04-2026 09:00:00,28.647622,77.3158090,PM2.5,20,371,132
India,Delhi,Delhi,"Anand Vihar, Delhi - DPCC",12-04-2026 09:00:00,28.647622,77.3158090,CO,24,74,49
India,Delhi,Delhi,"Ashok Vihar, Delhi - DPCC",12-04-2026 09:00:00,28.695381,77.181665,NO2,17,100,42
India,Delhi,Delhi,"Ashok Vihar, Delhi - DPCC",12-04-2026 09:00:00,28.695381,77.181665,CO,2,64,23
India,Delhi,Delhi,"IHBAS, Dilshad Garden, Delhi - CPCB",12-04-2026 09:00:00,28.6811736,77.3025234,CO,15,109,42
India,Delhi,Delhi,"IHBAS, Dilshad Garden, Delhi - CPCB",12-04-2026 09:00:00,28.6811736,77.3025234,OZONE,11,82,15
India,Delhi,Delhi,"IIT Delhi, Delhi - IITM",12-04-2026 09:00:00,28.542460,77.191651,PM10,105,309,156
India,Delhi,Delhi,"ITO, Delhi - CPCB",12-04-2026 09:00:00,28.628624,77.241060,NO2,36,60,46
India,Delhi,Delhi,"Jahangirpuri, Delhi - DPCC",12-04-2026 09:00:00,28.732820,77.170633,CO,14,71,37
India,Delhi,Delhi,"Bawana, Delhi - DPCC",12-04-2026 09:00:00,28.776200,77.051074,CO,32,88,48
India,Delhi,Delhi,"Bawana, Delhi - DPCC",12-04-2026 09:00:00,28.776200,77.051074,OZONE,7,50,16
India,Delhi,Delhi,"Burari Crossing, Delhi - IMD",12-04-2026 09:00:00,28.7256504,77.2011573,NO2,15,69,39
India,Delhi,Delhi,"Burari Crossing, Delhi - IMD",12-04-2026 09:00:00,28.7256504,77.2011573,OZONE,29,125,35
India,Delhi,Delhi,"CRRI Mathura Road, Delhi - IMD",12-04-2026 09:00:00,28.5512005,77.2735737,CO,23,110,83
India,Delhi,Delhi,"Cantonment Area, Delhi - DPCC ",12-04-2026 09:00:00,28.594169 ,77.125100 ,PM2.5,11,45,26
India,Delhi,Delhi,"Cantonment Area, Delhi - DPCC ",12-04-2026 09:00:00,28.594169 ,77.125100 ,PM10,68,179,121
India,Delhi,Delhi,"Aya Nagar, Delhi - IMD",12-04-2026 09:00:00,28.4706914,77.1099364,PM2.5,14,343,87
India,Delhi,Delhi,"Bawana, Delhi - DPCC",12-04-2026 09:00:00,28.776200,77.051074,PM2.5,27,342,132
India,Chhattisgarh,Raipur,"Siltara Phase-II, Raipur - CECB",12-04-2026 09:00:00,21.371751,81.664929,NO2,17,59,29
India,Chhattisgarh,Raipur,"Siltara Phase-II, Raipur - CECB",12-04-2026 09:00:00,21.371751,81.664929,SO2,2,70,10
India,Delhi,Delhi,"Bawana, Delhi - DPCC",12-04-2026 09:00:00,28.776200,77.051074,SO2,10,49,19
India,Gujarat,Ahmedabad,"Chandkheda, Ahmedabad - IITM",12-04-2026 09:00:00,23.107969,72.574648,NO2,8,117,37
India,Gujarat,Ahmedabad,"Chandkheda, Ahmedabad - IITM",12-04-2026 09:00:00,23.107969,72.574648,NH3,1,10,7
India,Gujarat,Ahmedabad,"Gyaspur, Ahmedabad - IITM",12-04-2026 09:00:00,22.977134,72.553024,NO2,39,147,84
India,Gujarat,Ahmedabad,"Gyaspur, Ahmedabad - IITM",12-04-2026 09:00:00,22.977134,72.553024,OZONE,1,109,2
India,Gujarat,Ahmedabad,"Maninagar, Ahmedabad - GPCB",12-04-2026 09:00:00,23.002657,72.591912,PM2.5,43,355,139
India,Gujarat,Ahmedabad,"Raikhad, Ahmedabad - IITM",12-04-2026 09:00:00,23.020509,72.579261,PM10,84,420,187
India,Gujarat,Ahmedabad,"Raikhad, Ahmedabad - IITM",12-04-2026 09:00:00,23.020509,72.579261,CO,4,127,39
India,Gujarat,Ahmedabad,"Raikhad, Ahmedabad - IITM",12-04-2026 09:00:00,23.020509,72.579261,OZONE,1,82,4
India,Delhi,Delhi,"Sirifort, Delhi - CPCB",12-04-2026 09:00:00,28.5504249,77.2159377,CO,2,98,44
India,Delhi,Delhi,"Sonia Vihar, Delhi - DPCC",12-04-2026 09:00:00,28.710508,77.249485,PM2.5,23,344,108
India,Delhi,Delhi,"Sonia Vihar, Delhi - DPCC",12-04-2026 09:00:00,28.710508,77.249485,NO2,9,53,27
India,Delhi,Delhi,"Sonia Vihar, Delhi - DPCC",12-04-2026 09:00:00,28.710508,77.249485,SO2,25,66,33
India,Delhi,Delhi,"Talkatora Garden, Delhi - DPCC",12-04-2026 09:00:00,28.621810,77.1944633,PM2.5,32,335,102
India,Delhi,Delhi,"Vivek Vihar, Delhi - DPCC",12-04-2026 09:00:00,28.672342,77.315260,SO2,14,50,24
India,Delhi,Delhi,"Vivek Vihar, Delhi - DPCC",12-04-2026 09:00:00,28.672342,77.315260,CO,52,105,59
India,Delhi,Delhi,"Punjabi Bagh, Delhi - DPCC",12-04-2026 09:00:00,28.674045,77.131023,PM2.5,18,332,108
India,Delhi,Delhi,"Punjabi Bagh, Delhi - DPCC",12-04-2026 09:00:00,28.674045,77.131023,NO2,14,74,36
India,Delhi,Delhi,"Pusa, Delhi - IMD",12-04-2026 09:00:00,28.636110,77.173332,PM2.5,29,281,78
India,Delhi,Delhi,"Pusa, Delhi - IMD",12-04-2026 09:00:00,28.636110,77.173332,PM10,84,208,128
India,Delhi,Delhi,"R K Puram, Delhi - DPCC",12-04-2026 09:00:00,28.563262,77.186937,PM10,47,335,152
India,Delhi,Delhi,"Narela, Delhi - DPCC",12-04-2026 09:00:00,28.822836,77.101981,NH3,5,7,6
India,Delhi,Delhi,"Narela, Delhi - DPCC",12-04-2026 09:00:00,28.822836,77.101981,OZONE,12,48,19
India,Delhi,Delhi,"Nehru Nagar, Delhi - DPCC",12-04-2026 09:00:00,28.567890,77.250515,PM10,107,374,181
India,Delhi,Delhi,"Patparganj, Delhi - DPCC",12-04-2026 09:00:00,28.623763,77.287209,PM10,112,306,170
India,Delhi,Delhi,"Mundka, Delhi - DPCC",12-04-2026 09:00:00,28.684678,77.076574,SO2,20,53,28
India,Delhi,Delhi,"Mundka, Delhi - DPCC",12-04-2026 09:00:00,28.684678,77.076574,OZONE,1,28,5
India,Delhi,Delhi,"NSUT Jaffarpur, Delhi - DPCC",12-04-2026 09:00:00,28.594004 ,76.909423 ,PM2.5,13,382,167
India,Delhi,Delhi,"NSUT Jaffarpur, Delhi - DPCC",12-04-2026 09:00:00,28.594004 ,76.909423 ,CO,20,71,45
India,Delhi,Delhi,"Jawaharlal Nehru Stadium, Delhi - DPCC",12-04-2026 09:00:00,28.580280,77.233829,PM10,108,414,170
India,Delhi,Delhi,"Lodhi Road, Delhi - IMD",12-04-2026 09:00:00,28.5918245,77.2273074,PM10,104,218,132
India,Delhi,Delhi,"Lodhi Road, Delhi - IMD",12-04-2026 09:00:00,28.5918245,77.2273074,CO,16,42,33
India,Delhi,Delhi,"Rohini, Delhi - DPCC",12-04-2026 09:00:00,28.732528,77.119920,SO2,11,68,20
India,Delhi,Delhi,"Rohini, Delhi - DPCC",12-04-2026 09:00:00,28.732528,77.119920,OZONE,8,62,22
India,Delhi,Delhi,"Shadipur, Delhi - CPCB",12-04-2026 09:00:00,28.6514781,77.1473105,NO2,31,71,45
India,Gujarat,Ahmedabad,"Rakhial, Ahmedabad - IITM",12-04-2026 09:00:00,23.016834,72.625775,SO2,21,125,62
India,Gujarat,Ahmedabad,"SAC ISRO Bopal, Ahmedabad - IITM",12-04-2026 09:00:00,23.041137,72.456691,NH3,2,12,6
India,Delhi,Delhi,"R K Puram, Delhi - DPCC",12-04-2026 09:00:00,28.563262,77.186937,OZONE,7,76,15
India,Delhi,Delhi,"Rohini, Delhi - DPCC",12-04-2026 09:00:00,28.732528,77.119920,NO2,9,82,31
India,Haryana,Ambala,"Patti Mehar, Ambala - HSPCB",12-04-2026 09:00:00,30.379589,76.778328,NO2,8,11,10
India,Haryana,Bahadurgarh,"Arya Nagar, Bahadurgarh - HSPCB",12-04-2026 09:00:00,28.6701,76.9254,PM2.5,57,85,67
India,Haryana,Bahadurgarh,"Arya Nagar, Bahadurgarh - HSPCB",12-04-2026 09:00:00,28.6701,76.9254,NH3,12,13,13
India,Haryana,Bahadurgarh,"Arya Nagar, Bahadurgarh - HSPCB",12-04-2026 09:00:00,28.6701,76.9254,SO2,6,7,6
India,Haryana,Ballabgarh,"Nathu Colony, Ballabgarh - HSPCB",12-04-2026 09:00:00,28.3419248,77.319699,PM2.5,54,167,88
India,Haryana,Ballabgarh,"Nathu Colony, Ballabgarh - HSPCB",12-04-2026 09:00:00,28.3419248,77.319699,NH3,3,3,3
India,Haryana,Bhiwani,"H.B. Colony, Bhiwani - HSPCB",12-04-2026 09:00:00,28.806223,76.141105,PM2.5,29,44,34
India,Haryana,Bhiwani,"H.B. Colony, Bhiwani - HSPCB",12-04-2026 09:00:00,28.806223,76.141105,CO,1,7,6
India,Haryana,Charkhi Dadri,"Mini Secretariat, Charkhi Dadri - HSPCB",12-04-2026 09:00:00,28.593883,76.270653,PM10,88,192,140
India,Haryana,Dharuhera,"Municipal Corporation Office, Dharuhera -  HSPCB",12-04-2026 09:00:00,28.206800,76.799700,PM2.5,54,253,122
India,Haryana,Gurugram,"NISE Gwal Pahari, Gurugram - IMD",12-04-2026 09:00:00,28.422681,77.148944,PM10,93,301,157
India,Haryana,Gurugram,"Sector-51, Gurugram - HSPCB",12-04-2026 09:00:00,28.4227,77.0667,PM10,103,423,172
India,Haryana,Gurugram,"Sector-51, Gurugram - HSPCB",12-04-2026 09:00:00,28.4227,77.0667,NH3,6,10,8
India,Haryana,Gurugram,"Teri Gram, Gurugram - HSPCB",12-04-2026 09:00:00,28.4275,77.1465,PM10,106,138,119
India,Haryana,Gurugram,"Teri Gram, Gurugram - HSPCB",12-04-2026 09:00:00,28.4275,77.1465,NO2,36,77,54
India,Haryana,Gurugram,"Teri Gram, Gurugram - HSPCB",12-04-2026 09:00:00,28.4275,77.1465,SO2,4,12,9
India,Gujarat,Gandhinagar,"Sector-10, Gandhinagar - GPCB",12-04-2026 09:00:00,23.221714,72.654328,SO2,7,38,13
India,Gujarat,Mehsana,"Sadanand Nagar, Mehsana - Nexteng Enviro",12-04-2026 09:00:00,23.593150,72.372792,NO2,36,52,44
India,Gujarat,Mehsana,"Sadanand Nagar, Mehsana - Nexteng Enviro",12-04-2026 09:00:00,23.593150,72.372792,NH3,2,4,3
India,Gujarat,Mehsana,"Sadanand Nagar, Mehsana - Nexteng Enviro",12-04-2026 09:00:00,23.593150,72.372792,SO2,4,16,9
India,Gujarat,Nandesari,"GIDC, Nandesari - Nandesari Ind. Association",12-04-2026 09:00:00,22.410802,73.097923,PM2.5,64,391,188
India,Gujarat,Ahmedabad,"SVPI Airport Hansol, Ahmedabad - IITM",12-04-2026 09:00:00,23.076793,72.627874,NH3,1,9,4
India,Gujarat,Ahmedabad,"SVPI Airport Hansol, Ahmedabad - IITM",12-04-2026 09:00:00,23.076793,72.627874,CO,14,105,38
India,Gujarat,Ahmedabad,"SVPI Airport Hansol, Ahmedabad - IITM",12-04-2026 09:00:00,23.076793,72.627874,OZONE,2,132,6
India,Gujarat,Bhavnagar,"Vidhyanagar, Bhavnagar - Nexteng Enviro",12-04-2026 09:00:00,21.755417,72.139056,PM2.5,40,176,87
India,Gujarat,Bhavnagar,"Vidhyanagar, Bhavnagar - Nexteng Enviro",12-04-2026 09:00:00,21.755417,72.139056,PM10,83,142,113
India,Gujarat,Bhavnagar,"Vidhyanagar, Bhavnagar - Nexteng Enviro",12-04-2026 09:00:00,21.755417,72.139056,OZONE,3,45,8
India,Haryana,Dharuhera,"Municipal Corporation Office, Dharuhera -  HSPCB",12-04-2026 09:00:00,28.206800,76.799700,SO2,6,8,7
India,Haryana,Dharuhera,"Municipal Corporation Office, Dharuhera -  HSPCB",12-04-2026 09:00:00,28.206800,76.799700,CO,53,102,84
India,Haryana,Faridabad,"Sector 11, Faridabad - HSPCB",12-04-2026 09:00:00,28.376058,77.315741,PM2.5,103,338,215
India,Haryana,Faridabad,"Sector 11, Faridabad - HSPCB",12-04-2026 09:00:00,28.376058,77.315741,PM10,120,316,181
India,Haryana,Faridabad,"Sector 30, Faridabad - HSPCB",12-04-2026 09:00:00,28.4417,77.3217,SO2,6,6,6
India,Gujarat,Surat,"Science Center, Surat - SMC",12-04-2026 09:00:00,21.170046,72.795405,NO2,15,16,15
India,Gujarat,Surat,"Science Center, Surat - SMC",12-04-2026 09:00:00,21.170046,72.795405,SO2,18,24,20
India,Gujarat,Vadodara,"Bapunagar, Vadodara - Nexteng Enviro",12-04-2026 09:00:00,22.320153,73.216285,PM2.5,53,228,98
India,Gujarat,Vapi,"Phase-1 GIDC, Vapi - GPCB",12-04-2026 09:00:00,20.362421,72.918013,PM10,NA,NA,NA
India,Gujarat,Vatva,"Phase-4 GIDC, Vatva - GPCB",12-04-2026 09:00:00,22.969611,72.643500,NO2,61,76,68
India,Gujarat,Gandhinagar,"IIPHG Lekawada, Gandhinagar - IITM",12-04-2026 09:00:00,23.243639,72.68994,NH3,1,2,1
India,Gujarat,Gandhinagar,"GIFT City, Gandhinagar - IITM",12-04-2026 09:00:00,23.163798,72.677768,SO2,9,22,15
India,Haryana,Jind,"Police Lines, Jind - HSPCB",12-04-2026 09:00:00,29.307814,76.337619,OZONE,22,54,29
India,Haryana,Kaithal,"Rishi Nagar, Kaithal - HSPCB",12-04-2026 09:00:00,29.8006,76.4155,PM10,51,100,70
India,Haryana,Kaithal,"Rishi Nagar, Kaithal - HSPCB",12-04-2026 09:00:00,29.8006,76.4155,NH3,5,6,6
India,Haryana,Kaithal,"Rishi Nagar, Kaithal - HSPCB",12-04-2026 09:00:00,29.8006,76.4155,OZONE,10,17,12
India,Haryana,Karnal,"Sector-12, Karnal - HSPCB",12-04-2026 09:00:00,29.695300,77.002700,PM2.5,59,106,84
India,Haryana,Karnal,"Sector-12, Karnal - HSPCB",12-04-2026 09:00:00,29.695300,77.002700,NO2,5,7,6
India,Haryana,Kurukshetra,"Sector-7, Kurukshetra - HSPCB",12-04-2026 09:00:00,29.966942,76.875879,PM10,84,121,108
India,Haryana,Kurukshetra,"Sector-7, Kurukshetra - HSPCB",12-04-2026 09:00:00,29.966942,76.875879,NO2,4,4,4
India,Haryana,Kurukshetra,"Sector-7, Kurukshetra - HSPCB",12-04-2026 09:00:00,29.966942,76.875879,SO2,2,3,2
India,Haryana,Mandikhera,"General Hospital, Mandikhera(Nuh) - HSPCB",12-04-2026 09:00:00,27.9002,76.9938,SO2,31,36,34
India,Jharkhand,Jorapokhar,"Tata Stadium, Jorapokhar - JSPCB",12-04-2026 09:00:00,23.707909,86.414670,PM2.5,38,262,58
India,Jharkhand,Jorapokhar,"Tata Stadium, Jorapokhar - JSPCB",12-04-2026 09:00:00,23.707909,86.414670,NO2,8,8,8
India,Karnataka,Bagalkot,"Vidayagiri, Bagalkot - KSPCB",12-04-2026 09:00:00,16.172806,75.659694,PM2.5,35,36,35
India,Karnataka,Bagalkot,"Vidayagiri, Bagalkot - KSPCB",12-04-2026 09:00:00,16.172806,75.659694,NH3,1,1,1
