country,state,city,station,last_update,latitude,longitude,pollutant_id,min_value,max_value,avg_value
India,Bihar,Gaya,"Kareemganj, Gaya - BSPCB",20-09-2025 14:00:00,24.792403,84.992416,PM2.5,7,243,52
India,Bihar,Gaya,"Kareemganj, Gaya - BSPCB",20-09-2025 14:00:00,24.792403,84.992416,PM10,45,129,76
India,Bihar,Gaya,"Kareemganj, Gaya - BSPCB",20-09-2025 14:00:00,24.792403,84.992416,NO2,2,7,4
India,Bihar,Gaya,"Kareemganj, Gaya - BSPCB",20-09-2025 14:00:00,24.792403,84.992416,CO,39,45,42
India,Bihar,Gaya,"SFTI Kusdihra, Gaya - BSPCB",20-09-2025 14:00:00,24.762518,84.982348,PM10,15,37,22
India,Bihar,Gaya,"SFTI Kusdihra, Gaya - BSPCB",20-09-2025 14:00:00,24.762518,84.982348,NH3,3,4,3
India,Bihar,Gaya,"SFTI Kusdihra, Gaya - BSPCB",20-09-2025 14:00:00,24.762518,84.982348,SO2,7,10,8
India,Bihar,Gaya,"SFTI Kusdihra, Gaya - BSPCB",20-09-2025 14:00:00,24.762518,84.982348,CO,22,30,26
India,Bihar,Hajipur,"Industrial Area, Hajipur - BSPCB",20-09-2025 14:00:00,25.697189,85.245900,PM10,35,60,43
India,Bihar,Hajipur,"Industrial Area, Hajipur - BSPCB",20-09-2025 14:00:00,25.697189,85.245900,SO2,1,6,4
India,Bihar,Hajipur,"Industrial Area, Hajipur - BSPCB",20-09-2025 14:00:00,25.697189,85.245900,OZONE,4,57,30
India,Bihar,Katihar,"Mirchaibari, Katihar - BSPCB",20-09-2025 14:00:00,25.560083,87.553265,NH3,1,1,1
India,Bihar,Katihar,"Mirchaibari, Katihar - BSPCB",20-09-2025 14:00:00,25.560083,87.553265,CO,42,82,72
India,Bihar,Bhagalpur,"Mayaganj, Bhagalpur - BSPCB",20-09-2025 14:00:00,25.265194,87.012947,CO,41,78,57
India,Bihar,Bhagalpur,"Mayaganj, Bhagalpur - BSPCB",20-09-2025 14:00:00,25.265194,87.012947,OZONE,25,48,35
India,Bihar,Bihar Sharif,"D M Colony, Bihar Sharif - BSPCB",20-09-2025 14:00:00,25.204762,85.514960,NH3,2,5,3
India,Bihar,Bihar Sharif,"D M Colony, Bihar Sharif - BSPCB",20-09-2025 14:00:00,25.204762,85.514960,CO,2,2,1
India,Bihar,Buxar,"Charitra Van, Buxar - BSPCB",20-09-2025 14:00:00,25.567520,83.966379,NO2,8,10,9
India,Bihar,Buxar,"Charitra Van, Buxar - BSPCB",20-09-2025 14:00:00,25.567520,83.966379,OZONE,1,52,15
India,Bihar,Chhapra,"Darshan Nagar, Chhapra - BSPCB",20-09-2025 14:00:00,25.7808257,84.7446768,NO2,1,1,1
India,Bihar,Chhapra,"Darshan Nagar, Chhapra - BSPCB",20-09-2025 14:00:00,25.7808257,84.7446768,OZONE,1,18,8
India,Bihar,Gaya,"Collectorate, Gaya - BSPCB",20-09-2025 14:00:00,24.7955,84.9994,PM2.5,12,125,70
India,Assam,Guwahati,"LGBI Airport, Guwahati - PCBA",20-09-2025 14:00:00,26.10887,91.589544,PM2.5,56,58,57
India,Assam,Guwahati,"LGBI Airport, Guwahati - PCBA",20-09-2025 14:00:00,26.10887,91.589544,NO2,12,17,14
India,Assam,Guwahati,"Pan Bazaar, Guwahati - PCBA",20-09-2025 14:00:00,26.187500,91.744194,PM10,15,85,43
India,Assam,Guwahati,"Railway Colony, Guwahati - PCBA",20-09-2025 14:00:00,26.181742,91.78063,CO,22,40,30
India,Assam,Nagaon,"Christianpatty, Nagaon - PCBA",20-09-2025 14:00:00,26.349082,92.68449,NO2,1,1,1
India,Assam,Nagaon,"Christianpatty, Nagaon - PCBA",20-09-2025 14:00:00,26.349082,92.68449,CO,10,108,40
India,Assam,Nalbari,"Bata Chowk, Nalbari - PCBA",20-09-2025 14:00:00,26.446912,91.439057,PM2.5,18,43,33
India,Andhra_Pradesh,Vijayawada,"Rajiv Gandhi Park, Vijayawada - APPCB",20-09-2025 14:00:00,16.509717,80.612222,NH3,3,4,3
India,Andhra_Pradesh,Vijayawada,"Rajiv Nagar, Vijayawada - APPCB",20-09-2025 14:00:00,16.554731,80.649110,NO2,6,12,7
India,Andhra_Pradesh,Visakhapatnam,"GVM Corporation, Visakhapatnam - APPCB",20-09-2025 14:00:00,17.72,83.3,PM10,48,193,103
India,Andhra_Pradesh,Visakhapatnam,"GVM Corporation, Visakhapatnam - APPCB",20-09-2025 14:00:00,17.72,83.3,OZONE,9,24,15
India,Arunachal_Pradesh,Naharlagun,"Naharlagun, Naharlagun - APSPCB",20-09-2025 14:00:00,27.103358,93.679645,PM2.5,2,36,26
India,Andhra_Pradesh,Kadapa,"Yerramukkapalli, Kadapa - APPCB",20-09-2025 14:00:00,14.465052,78.824187,CO,24,42,34
India,Andhra_Pradesh,Tirumala,"Toll Gate, Tirumala - APPCB",20-09-2025 14:00:00,13.67,79.35,NO2,9,14,11
India,Andhra_Pradesh,Tirumala,"Toll Gate, Tirumala - APPCB",20-09-2025 14:00:00,13.67,79.35,NH3,1,2,1
India,Andhra_Pradesh,Tirupati,"Vaikuntapuram, Tirupati - APPCB",20-09-2025 14:00:00,13.615387,79.409230,PM10,NA,NA,NA
India,Andhra_Pradesh,Vijayawada,"Rajiv Gandhi Park, Vijayawada - APPCB",20-09-2025 14:00:00,16.509717,80.612222,PM2.5,31,80,54
India,Andaman and Nicobar,Sri Vijaya Puram,"Police Line, Sri Vijaya Puram - ANPCC",20-09-2025 14:00:00,11.654054,92.734055,NH3,1,2,1
India,Andhra_Pradesh,Anantapur,"Gulzarpet, Anantapur - APPCB",20-09-2025 14:00:00,14.675886,77.593027,SO2,5,10,8
India,Andhra_Pradesh,Chittoor,"Gangineni Cheruvu, Chittoor - APPCB",20-09-2025 14:00:00,13.204880,79.097889,PM10,63,95,82
India,Andhra_Pradesh,Chittoor,"Gangineni Cheruvu, Chittoor - APPCB",20-09-2025 14:00:00,13.204880,79.097889,OZONE,50,63,57
India,Bihar,Muzaffarpur,"MIT-Daudpur Kothi, Muzaffarpur - BSPCB",20-09-2025 14:00:00,26.1403345,85.3650192,NH3,1,1,1
India,Bihar,Patna,"DRM Office Danapur, Patna - BSPCB",20-09-2025 14:00:00,25.586562,85.043586,NH3,2,3,2
India,Bihar,Patna,"DRM Office Danapur, Patna - BSPCB",20-09-2025 14:00:00,25.586562,85.043586,CO,29,62,33
India,Bihar,Patna,"IGSC Planetarium Complex, Patna - BSPCB",20-09-2025 14:00:00,25.610369,85.132568,OZONE,46,47,46
India,Assam,Silchar,"Tarapur, Silchar - PCBA",20-09-2025 14:00:00,24.82827,92.79525,NO2,11,16,15
India,Assam,Sivasagar,"Girls College, Sivasagar - PCBA",20-09-2025 14:00:00,26.987634,94.636574,CO,4,42,4
India,Bihar,Arrah,"New DM Office, Arrah - BSPCB",20-09-2025 14:00:00,25.5626095,84.663264,PM10,26,28,27
India,Bihar,Arrah,"New DM Office, Arrah - BSPCB",20-09-2025 14:00:00,25.5626095,84.663264,NO2,4,9,7
India,Bihar,Begusarai,"Lohiyanagar, Begusarai - BSPCB",20-09-2025 14:00:00,25.42742023,86.13886079,PM2.5,13,37,20
India,Bihar,Bettiah,"Kamalnath Nagar, Bettiah - BSPCB",20-09-2025 14:00:00,26.80365,84.51954,PM2.5,NA,NA,NA
India,Bihar,Bettiah,"Kamalnath Nagar, Bettiah - BSPCB",20-09-2025 14:00:00,26.80365,84.51954,OZONE,21,27,25
India,Bihar,Bhagalpur,"DM Office_Kachari Chowk, Bhagalpur - BSPCB",20-09-2025 14:00:00,25.251013,86.989001,PM2.5,40,95,60
India,Bihar,Manguraha,"Forest Rest House, Manguraha - BSPCB",20-09-2025 14:00:00,27.308328,84.531742,PM10,21,48,27
India,Bihar,Munger,"Town Hall, Munger - BSPCB",20-09-2025 14:00:00,25.376776,86.471523,PM10,3,90,29
India,Chhattisgarh,Milupara,"Govt. Higher Secondary School, Milupara - CECB",20-09-2025 14:00:00,22.1910172,83.5197009,NO2,9,38,18
India,Chhattisgarh,Milupara,"Govt. Higher Secondary School, Milupara - CECB",20-09-2025 14:00:00,22.1910172,83.5197009,CO,14,36,26
India,Chhattisgarh,Raipur,"AIIMS, Raipur - CECB",20-09-2025 14:00:00,21.258815,81.578979,PM2.5,21,32,27
India,Chhattisgarh,Raipur,"Bhatagaon New ISBT, Raipur - CECB",20-09-2025 14:00:00,21.219665,81.630094,CO,12,36,22
India,Chhattisgarh,Raipur,"Krishak Nagar, Raipur - CECB",20-09-2025 14:00:00,21.237755,81.705301,NH3,2,4,3
India,Chhattisgarh,Raipur,"Krishak Nagar, Raipur - CECB",20-09-2025 14:00:00,21.237755,81.705301,CO,10,18,12
India,Chhattisgarh,Raipur,"Siltara Phase-II, Raipur - CECB",20-09-2025 14:00:00,21.371751,81.664929,NO2,10,58,28
India,Chhattisgarh,Raipur,"Siltara Phase-II, Raipur - CECB",20-09-2025 14:00:00,21.371751,81.664929,SO2,5,9,7
India,Delhi,Delhi,"Jahangirpuri, Delhi - DPCC",20-09-2025 14:00:00,28.732820,77.170633,NO2,28,64,48
India,Delhi,Delhi,"Jahangirpuri, Delhi - DPCC",20-09-2025 14:00:00,28.732820,77.170633,NH3,6,7,6
India,Delhi,Delhi,"Jahangirpuri, Delhi - DPCC",20-09-2025 14:00:00,28.732820,77.170633,OZONE,26,46,34
India,Delhi,Delhi,"Jawaharlal Nehru Stadium, Delhi - DPCC",20-09-2025 14:00:00,28.580280,77.233829,CO,17,143,137
India,Delhi,Delhi,"Jawaharlal Nehru Stadium, Delhi - DPCC",20-09-2025 14:00:00,28.580280,77.233829,OZONE,5,39,19
India,Delhi,Delhi,"Lodhi Road, Delhi - IITM",20-09-2025 14:00:00,28.588333,77.221667,NO2,25,83,49
India,Delhi,Delhi,"Major Dhyan Chand National Stadium, Delhi - DPCC",20-09-2025 14:00:00,28.611281,77.237738,PM2.5,8,147,70
India,Delhi,Delhi,"Major Dhyan Chand National Stadium, Delhi - DPCC",20-09-2025 14:00:00,28.611281,77.237738,SO2,1,14,8
India,Delhi,Delhi,"Major Dhyan Chand National Stadium, Delhi - DPCC",20-09-2025 14:00:00,28.611281,77.237738,CO,30,80,44
India,Delhi,Delhi,"Dr. Karni Singh Shooting Range, Delhi - DPCC",20-09-2025 14:00:00,28.498571,77.264840,NH3,4,11,6
India,Delhi,Delhi,"Dwarka-Sector 8, Delhi - DPCC ",20-09-2025 14:00:00,28.5710274,77.0719006,NH3,8,11,9
India,Delhi,Delhi,"IGI Airport (T3), Delhi - IMD",20-09-2025 14:00:00,28.5627763,77.1180053,PM2.5,15,93,59
India,Delhi,Delhi,"IHBAS, Dilshad Garden, Delhi - CPCB",20-09-2025 14:00:00,28.6811736,77.3025234,PM2.5,26,88,73
India,Delhi,Delhi,"IHBAS, Dilshad Garden, Delhi - CPCB",20-09-2025 14:00:00,28.6811736,77.3025234,NH3,2,3,2
India,Delhi,Delhi,"IHBAS, Dilshad Garden, Delhi - CPCB",20-09-2025 14:00:00,28.6811736,77.3025234,SO2,16,23,19
India,Delhi,Delhi,"ITO, Delhi - CPCB",20-09-2025 14:00:00,28.628624,77.241060,PM10,86,132,108
India,Delhi,Delhi,"ITO, Delhi - CPCB",20-09-2025 14:00:00,28.628624,77.241060,NO2,76,94,84
India,Chandigarh,Chandigarh,"Sector-25, Chandigarh - CPCC",20-09-2025 14:00:00,30.751462,76.762879,OZONE,5,25,13
India,Chhattisgarh,Bhilai,"32Bungalows, Bhilai - CECB",20-09-2025 14:00:00,21.194815,81.314770,PM10,21,47,36
India,Chhattisgarh,Bhilai,"32Bungalows, Bhilai - CECB",20-09-2025 14:00:00,21.194815,81.314770,NO2,4,19,8
India,Chhattisgarh,Bhilai,"32Bungalows, Bhilai - CECB",20-09-2025 14:00:00,21.194815,81.314770,OZONE,3,40,20
India,Chhattisgarh,Bhilai,"Civic Center, Bhilai - Bhilai Steel Plant",20-09-2025 14:00:00,21.185571,81.343175,PM2.5,16,79,41
India,Chhattisgarh,Bhilai,"Hathkhoj, Bhilai - CECB",20-09-2025 14:00:00,21.224231,81.408350,NO2,7,35,18
India,Chhattisgarh,Bhilai,"Hathkhoj, Bhilai - CECB",20-09-2025 14:00:00,21.224231,81.408350,CO,6,32,12
India,Delhi,Delhi,"Bawana, Delhi - DPCC",20-09-2025 14:00:00,28.776200,77.051074,PM10,104,181,130
India,Delhi,Delhi,"CRRI Mathura Road, Delhi - IMD",20-09-2025 14:00:00,28.5512005,77.2735737,NO2,9,76,35
India,Delhi,Delhi,"CRRI Mathura Road, Delhi - IMD",20-09-2025 14:00:00,28.5512005,77.2735737,OZONE,7,71,26
India,Delhi,Delhi,"DTU, Delhi - CPCB",20-09-2025 14:00:00,28.7500499,77.1112615,PM2.5,16,67,37
India,Delhi,Delhi,"DTU, Delhi - CPCB",20-09-2025 14:00:00,28.7500499,77.1112615,PM10,88,159,113
India,Delhi,Delhi,"DTU, Delhi - CPCB",20-09-2025 14:00:00,28.7500499,77.1112615,NO2,61,108,84
India,Delhi,Delhi,"DTU, Delhi - CPCB",20-09-2025 14:00:00,28.7500499,77.1112615,SO2,41,51,44
India,Delhi,Delhi,"DTU, Delhi - CPCB",20-09-2025 14:00:00,28.7500499,77.1112615,CO,15,37,26
India,Delhi,Delhi,"Alipur, Delhi - DPCC",20-09-2025 14:00:00,28.815329,77.153010,NH3,2,3,2
India,Delhi,Delhi,"Alipur, Delhi - DPCC",20-09-2025 14:00:00,28.815329,77.153010,CO,34,52,40
India,Delhi,Delhi,"Anand Vihar, Delhi - DPCC",20-09-2025 14:00:00,28.647622,77.3158090,PM2.5,55,307,114
India,Delhi,Delhi,"Anand Vihar, Delhi - DPCC",20-09-2025 14:00:00,28.647622,77.3158090,NH3,3,8,7
India,Delhi,Delhi,"Anand Vihar, Delhi - DPCC",20-09-2025 14:00:00,28.647622,77.3158090,OZONE,3,21,11
India,Delhi,Delhi,"Ashok Vihar, Delhi - DPCC",20-09-2025 14:00:00,28.695381,77.181665,SO2,9,21,12
India,Delhi,Delhi,"Aya Nagar, Delhi - IMD",20-09-2025 14:00:00,28.4706914,77.1099364,OZONE,11,116,48
India,Bihar,Purnia,"Mariam Nagar, Purnia - BSPCB",20-09-2025 14:00:00,25.366336,87.117468,NH3,3,3,3
India,Bihar,Rajgir,"Dangi Tola, Rajgir - BSPCB",20-09-2025 14:00:00,25.03280,85.41948,PM10,NA,NA,NA
India,Bihar,Rajgir,"Dangi Tola, Rajgir - BSPCB",20-09-2025 14:00:00,25.03280,85.41948,SO2,19,23,21
India,Bihar,Saharsa,"Police Line, Saharsa - BSPCB",20-09-2025 14:00:00,25.892357,86.590325,PM2.5,3,33,12
India,Bihar,Saharsa,"Police Line, Saharsa - BSPCB",20-09-2025 14:00:00,25.892357,86.590325,PM10,16,101,44
India,Bihar,Saharsa,"Police Line, Saharsa - BSPCB",20-09-2025 14:00:00,25.892357,86.590325,NH3,4,5,4
India,Bihar,Saharsa,"Police Line, Saharsa - BSPCB",20-09-2025 14:00:00,25.892357,86.590325,OZONE,10,64,22
India,Bihar,Samastipur,"DM Office_Kasipur, Samastipur - BSPCB",20-09-2025 14:00:00,25.859655,85.77944,PM2.5,5,78,26
India,Bihar,Samastipur,"DM Office_Kasipur, Samastipur - BSPCB",20-09-2025 14:00:00,25.859655,85.77944,PM10,4,95,25
India,Bihar,Siwan,"Chitragupta Nagar, Siwan - BSPCB",20-09-2025 14:00:00,26.2271665,84.3570427,NH3,1,1,1
India,Chhattisgarh,Bilaspur,"Mangala, Bilaspur - NTPC",20-09-2025 14:00:00,22.08815,82.13737,PM2.5,10,61,32
India,Chhattisgarh,Korba,"Rampur, Korba - CECB",20-09-2025 14:00:00,22.368195,82.746431,CO,8,24,22
India,Chhattisgarh,Milupara,"Govt. Higher Secondary School, Milupara - CECB",20-09-2025 14:00:00,22.1910172,83.5197009,PM2.5,21,63,44
India,Gujarat,Ahmedabad,"Chandkheda, Ahmedabad - IITM",20-09-2025 14:00:00,23.107969,72.574648,CO,14,76,40
India,Gujarat,Ahmedabad,"Gyaspur, Ahmedabad - IITM",20-09-2025 14:00:00,22.977134,72.553024,PM2.5,25,84,53
India,Gujarat,Ahmedabad,"Gyaspur, Ahmedabad - IITM",20-09-2025 14:00:00,22.977134,72.553024,NO2,NA,NA,NA
India,Gujarat,Ahmedabad,"Gyaspur, Ahmedabad - IITM",20-09-2025 14:00:00,22.977134,72.553024,OZONE,18,125,108
India,Gujarat,Ahmedabad,"Maninagar, Ahmedabad - GPCB",20-09-2025 14:00:00,23.002657,72.591912,PM10,NA,NA,NA
India,Gujarat,Ahmedabad,"Maninagar, Ahmedabad - GPCB",20-09-2025 14:00:00,23.002657,72.591912,SO2,NA,NA,NA
India,Gujarat,Ahmedabad,"Raikhad, Ahmedabad - IITM",20-09-2025 14:00:00,23.020509,72.579261,PM10,54,125,85
India,Gujarat,Ahmedabad,"Raikhad, Ahmedabad - IITM",20-09-2025 14:00:00,23.020509,72.579261,SO2,1,46,10
India,Gujarat,Ahmedabad,"Rakhial, Ahmedabad - IITM",20-09-2025 14:00:00,23.016834,72.625775,PM2.5,37,77,56
India,Gujarat,Ahmedabad,"Rakhial, Ahmedabad - IITM",20-09-2025 14:00:00,23.016834,72.625775,SO2,5,14,9
India,Gujarat,Ahmedabad,"SAC ISRO Bopal, Ahmedabad - IITM",20-09-2025 14:00:00,23.041137,72.456691,SO2,1,2,1
India,Gujarat,Ahmedabad,"SVPI Airport Hansol, Ahmedabad - IITM",20-09-2025 14:00:00,23.076793,72.627874,PM2.5,28,57,40
India,Gujarat,Ahmedabad,"SVPI Airport Hansol, Ahmedabad - IITM",20-09-2025 14:00:00,23.076793,72.627874,CO,26,64,30
India,Delhi,Delhi,"Sri Aurobindo Marg, Delhi - DPCC",20-09-2025 14:00:00,28.531346,77.190156,PM2.5,40,95,67
India,Delhi,Delhi,"Sri Aurobindo Marg, Delhi - DPCC",20-09-2025 14:00:00,28.531346,77.190156,NO2,4,36,15
India,Delhi,Delhi,"Sri Aurobindo Marg, Delhi - DPCC",20-09-2025 14:00:00,28.531346,77.190156,NH3,5,7,6
India,Delhi,Delhi,"Vivek Vihar, Delhi - DPCC",20-09-2025 14:00:00,28.672342,77.315260,PM10,108,216,133
India,Delhi,Delhi,"Wazirpur, Delhi - DPCC",20-09-2025 14:00:00,28.699793,77.165453,SO2,8,24,11
India,Delhi,Delhi,"Wazirpur, Delhi - DPCC",20-09-2025 14:00:00,28.699793,77.165453,CO,30,56,42
India,Gujarat,Gandhinagar,"IIPHG Lekawada, Gandhinagar - IITM",20-09-2025 14:00:00,23.243639,72.68994,PM2.5,34,66,52
India,Gujarat,Gandhinagar,"Sector-10, Gandhinagar - GPCB",20-09-2025 14:00:00,23.221714,72.654328,PM10,36,113,61
India,Gujarat,Gandhinagar,"Sector-10, Gandhinagar - GPCB",20-09-2025 14:00:00,23.221714,72.654328,NH3,1,1,1
India,Gujarat,Nandesari,"GIDC, Nandesari - Nandesari Ind. Association",20-09-2025 14:00:00,22.410802,73.097923,PM2.5,NA,NA,NA
India,Gujarat,Nandesari,"GIDC, Nandesari - Nandesari Ind. Association",20-09-2025 14:00:00,22.410802,73.097923,SO2,NA,NA,NA
India,Delhi,Delhi,"Pusa, Delhi - IMD",20-09-2025 14:00:00,28.636110,77.173332,PM10,67,137,109
India,Delhi,Delhi,"Pusa, Delhi - IMD",20-09-2025 14:00:00,28.636110,77.173332,OZONE,22,54,25
India,Delhi,Delhi,"R K Puram, Delhi - DPCC",20-09-2025 14:00:00,28.563262,77.186937,SO2,1,16,10
India,Delhi,Delhi,"R K Puram, Delhi - DPCC",20-09-2025 14:00:00,28.563262,77.186937,CO,4,89,27
India,Delhi,Delhi,"Shadipur, Delhi - CPCB",20-09-2025 14:00:00,28.6514781,77.1473105,PM2.5,92,244,191
India,Delhi,Delhi,"Sirifort, Delhi - CPCB",20-09-2025 14:00:00,28.5504249,77.2159377,PM10,110,191,135
India,Delhi,Delhi,"Sirifort, Delhi - CPCB",20-09-2025 14:00:00,28.5504249,77.2159377,NH3,6,14,12
India,Delhi,Delhi,"Sonia Vihar, Delhi - DPCC",20-09-2025 14:00:00,28.710508,77.249485,PM2.5,27,97,58
India,Delhi,Delhi,"Sonia Vihar, Delhi - DPCC",20-09-2025 14:00:00,28.710508,77.249485,PM10,89,156,114
India,Delhi,Delhi,"Sonia Vihar, Delhi - DPCC",20-09-2025 14:00:00,28.710508,77.249485,NO2,11,39,22
India,Delhi,Delhi,"Nehru Nagar, Delhi - DPCC",20-09-2025 14:00:00,28.567890,77.250515,SO2,4,13,8
India,Delhi,Delhi,"Nehru Nagar, Delhi - DPCC",20-09-2025 14:00:00,28.567890,77.250515,CO,9,34,16
India,Delhi,Delhi,"North Campus, DU, Delhi - IMD",20-09-2025 14:00:00,28.6573814,77.1585447,NO2,15,46,28
India,Delhi,Delhi,"Patparganj, Delhi - DPCC",20-09-2025 14:00:00,28.623763,77.287209,PM2.5,50,98,74
India,Delhi,Delhi,"Najafgarh, Delhi - DPCC",20-09-2025 14:00:00,28.570173,76.933762,PM2.5,32,63,49
India,Delhi,Delhi,"Narela, Delhi - DPCC",20-09-2025 14:00:00,28.822836,77.101981,NO2,2,26,16
India,Delhi,Delhi,"Narela, Delhi - DPCC",20-09-2025 14:00:00,28.822836,77.101981,CO,56,60,57
India,Delhi,Delhi,"Narela, Delhi - DPCC",20-09-2025 14:00:00,28.822836,77.101981,OZONE,1,66,9
India,Gujarat,Ankleshwar,"GIDC, Ankleshwar - GPCB",20-09-2025 14:00:00,21.613267,73.010555,NO2,NA,NA,NA
India,Gujarat,Ankleshwar,"GIDC, Ankleshwar - GPCB",20-09-2025 14:00:00,21.613267,73.010555,OZONE,46,54,52
India,Karnataka,Bengaluru,"Hebbal, Bengaluru - KSPCB",20-09-2025 14:00:00,13.029152,77.585901,OZONE,7,8,7
India,Karnataka,Bengaluru,"Hombegowda Nagar, Bengaluru - KSPCB",20-09-2025 14:00:00,12.938539,77.590100,PM2.5,6,20,15
India,Karnataka,Bengaluru,"Hombegowda Nagar, Bengaluru - KSPCB",20-09-2025 14:00:00,12.938539,77.590100,PM10,18,40,32
India,Karnataka,Bengaluru,"Hombegowda Nagar, Bengaluru - KSPCB",20-09-2025 14:00:00,12.938539,77.590100,SO2,4,14,10
India,Karnataka,Bengaluru,"Jayanagar 5th Block, Bengaluru - KSPCB",20-09-2025 14:00:00,12.920984,77.584908,NO2,11,55,25
India,Karnataka,Bengaluru,"Jayanagar 5th Block, Bengaluru - KSPCB",20-09-2025 14:00:00,12.920984,77.584908,NH3,1,1,1
India,Karnataka,Bengaluru,"Kasturi Nagar, Bengaluru - KSPCB",20-09-2025 14:00:00,13.003872,77.664217,CO,NA,NA,NA
India,Karnataka,Bengaluru,"Sanegurava Halli, Bengaluru - KSPCB",20-09-2025 14:00:00,12.990328,77.5431385,SO2,4,102,13
India,Karnataka,Bengaluru,"Shivapura_Peenya, Bengaluru - KSPCB",20-09-2025 14:00:00,13.0246342,77.5080115,NO2,24,25,24
India,Karnataka,Davanagere,"Devaraj Urs Badavane, Davanagere - KSPCB",20-09-2025 14:00:00,14.475800,75.905200,NO2,10,20,14
India,Karnataka,Davanagere,"Devaraj Urs Badavane, Davanagere - KSPCB",20-09-2025 14:00:00,14.475800,75.905200,CO,6,14,7
India,Karnataka,Dharwad,"Kalabhavan, Dharwad - KSPCB",20-09-2025 14:00:00,15.459706,75.008381,CO,19,34,24
India,Karnataka,Hassan,"B.Katihalli, Hassan - KSPCB",20-09-2025 14:00:00,13.008556,76.125258,PM2.5,14,87,32
India,Karnataka,Hassan,"B.Katihalli, Hassan - KSPCB",20-09-2025 14:00:00,13.008556,76.125258,SO2,1,1,1
India,Karnataka,Hassan,"B.Katihalli, Hassan - KSPCB",20-09-2025 14:00:00,13.008556,76.125258,OZONE,1,1,1
India,Karnataka,Haveri,"Ashwini Nagar, Haveri - KSPCB",20-09-2025 14:00:00,14.791800,75.389600,PM10,NA,NA,NA
India,Karnataka,Hubballi,"Lingaraj Nagar, Hubballi - KSPCB",20-09-2025 14:00:00,15.3714823,75.1160168,NH3,1,2,1
India,Karnataka,Hubballi,"Lingaraj Nagar, Hubballi - KSPCB",20-09-2025 14:00:00,15.3714823,75.1160168,CO,10,14,13
India,Karnataka,Bengaluru,"Shivapura_Peenya, Bengaluru - KSPCB",20-09-2025 14:00:00,13.0246342,77.5080115,NH3,4,4,4
India,Karnataka,Bengaluru,"Shivapura_Peenya, Bengaluru - KSPCB",20-09-2025 14:00:00,13.0246342,77.5080115,OZONE,24,25,24
India,Karnataka,Bengaluru,"Silk Board, Bengaluru - KSPCB",20-09-2025 14:00:00,12.917348,77.622813,NH3,1,2,1
India,Karnataka,Bengaluru,"Silk Board, Bengaluru - KSPCB",20-09-2025 14:00:00,12.917348,77.622813,CO,30,50,35
India,Karnataka,Chamarajanagar,"Urban, Chamarajanagar - KSPCB",20-09-2025 14:00:00,11.55358,76.55521,PM10,29,58,43
India,Karnataka,Chamarajanagar,"Urban, Chamarajanagar - KSPCB",20-09-2025 14:00:00,11.55358,76.55521,NH3,2,3,2
India,Karnataka,Chamarajanagar,"Urban, Chamarajanagar - KSPCB",20-09-2025 14:00:00,11.55358,76.55521,CO,14,119,22
India,Karnataka,Chikkamagaluru,"Kalyana Nagara, Chikkamagaluru - KSPCB",20-09-2025 14:00:00,13.328028,75.797056,PM2.5,6,26,15
India,Gujarat,Vapi,"Phase-1 GIDC, Vapi - GPCB",20-09-2025 14:00:00,20.362421,72.918013,PM10,44,246,93
India,Gujarat,Vatva,"Phase-4 GIDC, Vatva - GPCB",20-09-2025 14:00:00,22.969611,72.643500,PM2.5,22,71,35
India,Gujarat,Vatva,"Phase-4 GIDC, Vatva - GPCB",20-09-2025 14:00:00,22.969611,72.643500,CO,8,18,8
India,Haryana,Gurugram,"NISE Gwal Pahari, Gurugram - IMD",20-09-2025 14:00:00,28.422681,77.148944,CO,45,78,65
India,Haryana,Panchgaon,"Amity University, Panchgaon - IITM",20-09-2025 14:00:00,28.3153,76.9143,NO2,2,25,10
India,Haryana,Panchgaon,"Amity University, Panchgaon - IITM",20-09-2025 14:00:00,28.3153,76.9143,CO,6,68,30
India,Himachal Pradesh,Baddi,"HIMUDA Complex Phase-1, Baddi - HPPCB",20-09-2025 14:00:00,30.943887,76.801991,NH3,5,9,8
India,Karnataka,Bagalkot,"Vidayagiri, Bagalkot - KSPCB",20-09-2025 14:00:00,16.172806,75.659694,NO2,9,10,9
India,Karnataka,Bagalkot,"Vidayagiri, Bagalkot - KSPCB",20-09-2025 14:00:00,16.172806,75.659694,SO2,7,7,7
India,Karnataka,Bengaluru,"BTM Layout, Bengaluru - CPCB",20-09-2025 14:00:00,12.9135218,77.5950804,CO,20,30,22
India,Karnataka,Bengaluru,"Hebbal, Bengaluru - KSPCB",20-09-2025 14:00:00,13.029152,77.585901,PM10,14,30,24
India,Madhya Pradesh,Bhopal,"Idgah Hills, Bhopal - MPPCB",20-09-2025 14:00:00,23.264759,77.381568,PM2.5,18,50,34
India,Madhya Pradesh,Bhopal,"Idgah Hills, Bhopal - MPPCB",20-09-2025 14:00:00,23.264759,77.381568,SO2,10,12,11
India,Madhya Pradesh,Bhopal,"Paryavaran Parisar, Bhopal - MPPCB",20-09-2025 14:00:00,23.210494,77.425409,PM10,4,85,33
India,Madhya Pradesh,Bhopal,"T T Nagar, Bhopal - MPPCB",20-09-2025 14:00:00,23.233584,77.400574,PM2.5,21,56,34
India,Madhya Pradesh,Bhopal,"T T Nagar, Bhopal - MPPCB",20-09-2025 14:00:00,23.233584,77.400574,PM10,20,92,47
India,Madhya Pradesh,Bhopal,"T T Nagar, Bhopal - MPPCB",20-09-2025 14:00:00,23.233584,77.400574,NH3,5,6,5
India,Madhya Pradesh,Bhopal,"T T Nagar, Bhopal - MPPCB",20-09-2025 14:00:00,23.233584,77.400574,CO,27,104,34
India,Karnataka,Kalaburagi,"Lal Bahadur Shastri Nagar, Kalaburagi - KSPCB",20-09-2025 14:00:00,17.321993,76.822628,NH3,1,1,1
India,Karnataka,Kalaburagi,"Mahatma Basaveswar Colony, Kalaburgi - KSPCB",20-09-2025 14:00:00,17.336318,76.847397,CO,33,45,42
India,Karnataka,Karwar,"KHB Colony, Karwar - KSPCB",20-09-2025 14:00:00,14.816666,74.141003,PM2.5,2,12,5
India,Karnataka,Karwar,"KHB Colony, Karwar - KSPCB",20-09-2025 14:00:00,14.816666,74.141003,SO2,24,26,24
India,Karnataka,Mangalore,"Kadri, Mangalore - KSPCB",20-09-2025 14:00:00,12.889250,74.853000,NO2,2,10,6
India,Karnataka,Ramanagara,"Vijay Nagar, Ramanagara - KSPCB",20-09-2025 14:00:00,12.733409,77.298051,PM10,NA,NA,NA
India,Karnataka,Shivamogga,"Vinoba Nagara, Shivamogga - KSPCB",20-09-2025 14:00:00,13.940000,75.555917,NO2,12,16,14
India,Karnataka,Shivamogga,"Vinoba Nagara, Shivamogga - KSPCB",20-09-2025 14:00:00,13.940000,75.555917,SO2,2,5,4
India,Karnataka,Vijayapura,"Ibrahimpur, Vijayapura - KSPCB",20-09-2025 14:00:00,16.802639,75.722694,NO2,9,10,9
India,Karnataka,Yadgir,"Collector Office, Yadgir - KSPCB",20-09-2025 14:00:00,16.7602,77.1428,NH3,2,2,2
India,Kerala,Kannur,"Thavakkara, Kannur - Kerala PCB",20-09-2025 14:00:00,11.875000,75.373200,PM10,58,62,59
India,Kerala,Kannur,"Thavakkara, Kannur - Kerala PCB",20-09-2025 14:00:00,11.875000,75.373200,SO2,5,6,6
India,Kerala,Thiruvananthapuram,"Kariavattom, Thiruvananthapuram - Kerala PCB",20-09-2025 14:00:00,8.563700,76.886500,CO,31,82,37
India,Kerala,Thiruvananthapuram,"Plammoodu, Thiruvananthapuram - Kerala PCB",20-09-2025 14:00:00,8.5149093,76.9435879,PM2.5,18,127,46
India,Kerala,Thiruvananthapuram,"Plammoodu, Thiruvananthapuram - Kerala PCB",20-09-2025 14:00:00,8.5149093,76.9435879,PM10,1,62,33
India,Madhya Pradesh,Indore,"Residency Area, Indore - IMC",20-09-2025 14:00:00,22.7084,75.8815,OZONE,9,14,11
India,Madhya Pradesh,Jabalpur,"Govindh Bhavan Colony, Jabalpur - JMC",20-09-2025 14:00:00,23.163174,79.973061,PM10,31,65,47
India,Madhya Pradesh,Jabalpur,"Govindh Bhavan Colony, Jabalpur - JMC",20-09-2025 14:00:00,23.163174,79.973061,NO2,36,37,36
India,Madhya Pradesh,Jabalpur,"Govindh Bhavan Colony, Jabalpur - JMC",20-09-2025 14:00:00,23.163174,79.973061,NH3,1,1,1
India,Madhya Pradesh,Jabalpur,"Gupteshwar, Jabalpur - JMC",20-09-2025 14:00:00,23.142888,79.916147,NO2,12,45,24
India,Madhya Pradesh,Jabalpur,"Gupteshwar, Jabalpur - JMC",20-09-2025 14:00:00,23.142888,79.916147,CO,30,96,39
India,Madhya Pradesh,Jabalpur,"Marhatal, Jabalpur - MPPCB",20-09-2025 14:00:00,23.168606,79.932247,NH3,1,3,1
India,Madhya Pradesh,Jabalpur,"Suhagi, Jabalpur - JMC",20-09-2025 14:00:00,23.218135,79.957770,NH3,2,2,2
India,Madhya Pradesh,Sagar,"Civil Lines, Sagar - MPPCB",20-09-2025 14:00:00,23.838586,78.759431,CO,28,42,33
India,Madhya Pradesh,Sagar,"Civil Lines, Sagar - MPPCB",20-09-2025 14:00:00,23.838586,78.759431,OZONE,15,55,31
India,Madhya Pradesh,Singrauli,"Suryakiran Bhawan NCL, Singrauli - MPPCB",20-09-2025 14:00:00,24.108970,82.645580,PM2.5,22,95,41
India,Madhya Pradesh,Singrauli,"Suryakiran Bhawan NCL, Singrauli - MPPCB",20-09-2025 14:00:00,24.108970,82.645580,NO2,16,18,17
India,Madhya Pradesh,Singrauli,"Suryakiran Bhawan NCL, Singrauli - MPPCB",20-09-2025 14:00:00,24.108970,82.645580,SO2,17,46,30
India,Maharashtra,Ahmednagar,"Tarakpur, Ahmednagar - MPCB",20-09-2025 14:00:00,19.10122,74.73339,SO2,NA,NA,NA
India,Maharashtra,Ahmednagar,"Tarakpur, Ahmednagar - MPCB",20-09-2025 14:00:00,19.10122,74.73339,OZONE,2,29,19
India,Madhya Pradesh,Gwalior,"Maharaj Bada, Gwalior - MPPCB",20-09-2025 14:00:00,26.200388,78.147714,OZONE,22,44,30
India,Madhya Pradesh,Indore,"Airport Area, Indore - IMC",20-09-2025 14:00:00,22.7289,75.8076,PM10,3,45,24
India,Madhya Pradesh,Indore,"Airport Area, Indore - IMC",20-09-2025 14:00:00,22.7289,75.8076,OZONE,1,5,3
India,Madhya Pradesh,Indore,"Chhoti Gwaltoli, Indore - MPPCB",20-09-2025 14:00:00,22.4310,75.5213,PM2.5,3,84,48
India,Madhya Pradesh,Indore,"Maguda Nagar, Indore - IMC",20-09-2025 14:00:00,22.7524,75.8872,NO2,1,2,2
India,Madhya Pradesh,Indore,"Regional Park, Indore - IMC",20-09-2025 14:00:00,22.6780,75.8559,NH3,1,1,1
India,Maharashtra,Aurangabad,"Rachnakar Colony, Aurangabad - MPCB",20-09-2025 14:00:00,19.863756,75.321188,PM10,10,143,38
India,Maharashtra,Badlapur,"Katrap, Badlapur - MPCB",20-09-2025 14:00:00,19.16485,73.23409,NH3,5,10,8
India,Maharashtra,Belapur,"CBD Belapur, Belapur - MPCB",20-09-2025 14:00:00,19.0243902,73.0406721,PM10,36,57,44
India,Maharashtra,Bhiwandi,"Gokul Nagar, Bhiwandi - MPCB",20-09-2025 14:00:00,19.309073,73.057223,PM2.5,19,54,37
India,Maharashtra,Bhiwandi,"Gokul Nagar, Bhiwandi - MPCB",20-09-2025 14:00:00,19.309073,73.057223,NH3,5,9,7
India,Maharashtra,Bhiwandi,"Gokul Nagar, Bhiwandi - MPCB",20-09-2025 14:00:00,19.309073,73.057223,SO2,6,17,11
India,Madhya Pradesh,Dewas,"Bhopal Chauraha, Dewas - MPPCB",20-09-2025 14:00:00,22.9682591,76.064118,PM2.5,NA,NA,NA
India,Madhya Pradesh,Dewas,"Bhopal Chauraha, Dewas - MPPCB",20-09-2025 14:00:00,22.9682591,76.064118,PM10,NA,NA,NA
India,Madhya Pradesh,Dewas,"Bhopal Chauraha, Dewas - MPPCB",20-09-2025 14:00:00,22.9682591,76.064118,CO,7,103,55
India,Madhya Pradesh,Gwalior,"City Center, Gwalior - MPPCB",20-09-2025 14:00:00,26.203442,78.193251,SO2,14,24,19
India,Madhya Pradesh,Gwalior,"Deen Dayal Nagar, Gwalior - MPPCB",20-09-2025 14:00:00,26.259242,78.216432,SO2,5,13,7
India,Madhya Pradesh,Gwalior,"Maharaj Bada, Gwalior - MPPCB",20-09-2025 14:00:00,26.200388,78.147714,PM10,32,134,64
India,Maharashtra,Akola,"Ramdaspeth, Akola - MPCB",20-09-2025 14:00:00,20.719516,77.000253,OZONE,7,44,14
India,Maharashtra,Amravati,"Shivneri Colony, Amravati - MPCB",20-09-2025 14:00:00,20.9402359,77.7895248,OZONE,1,33,24
India,Maharashtra,Aurangabad,"MIDC Chilkalthana, Aurangabad - MPCB",20-09-2025 14:00:00,19.875620,75.387310,PM10,30,94,58
India,Maharashtra,Aurangabad,"MIDC Chilkalthana, Aurangabad - MPCB",20-09-2025 14:00:00,19.875620,75.387310,NO2,NA,NA,NA
India,Maharashtra,Aurangabad,"More Chowk Waluj, Aurangabad - MPCB",20-09-2025 14:00:00,19.8389439,75.244448,NH3,10,12,11
India,Maharashtra,Chandrapur,"Chauhan Colony, Chandrapur - MPCB",20-09-2025 14:00:00,19.962900,79.298714,PM2.5,4,42,20
India,Maharashtra,Chandrapur,"Chauhan Colony, Chandrapur - MPCB",20-09-2025 14:00:00,19.962900,79.298714,NH3,3,3,3
India,Maharashtra,Chandrapur,"MIDC Khutala, Chandrapur - MPCB",20-09-2025 14:00:00,19.9775302,79.2337086,NH3,NA,NA,NA
India,Maharashtra,Chandrapur,"MIDC Khutala, Chandrapur - MPCB",20-09-2025 14:00:00,19.9775302,79.2337086,SO2,NA,NA,NA
India,Maharashtra,Chandrapur,"MIDC Khutala, Chandrapur - MPCB",20-09-2025 14:00:00,19.9775302,79.2337086,OZONE,NA,NA,NA
India,Maharashtra,Jalgaon,"Prabhat Colony, Jalgaon - MPCB",20-09-2025 14:00:00,21.001264,75.565602,SO2,4,7,5
India,Madhya Pradesh,Katni,"Gole Bazar, Katni - MPPCB",20-09-2025 14:00:00,23.50016,80.23284,SO2,7,30,17
India,Madhya Pradesh,Katni,"Gole Bazar, Katni - MPPCB",20-09-2025 14:00:00,23.50016,80.23284,OZONE,18,72,39
India,Madhya Pradesh,Mandideep,"Sector-D Industrial Area, Mandideep - MPPCB",20-09-2025 14:00:00,23.108440,77.511428,NO2,13,52,29
India,Madhya Pradesh,Sagar,"Civil Lines, Sagar - MPPCB",20-09-2025 14:00:00,23.838586,78.759431,NO2,3,5,4
India,Maharashtra,Jalna,"Old MIDC, Jalna - MPCB",20-09-2025 14:00:00,19.854616,75.905894,NO2,39,52,44
India,Maharashtra,Kolhapur,"Sinchan Bhavan, Kolhapur - MPCB",20-09-2025 14:00:00,16.7143745,74.2426398,NH3,NA,NA,NA
India,Maharashtra,Mumbai,"Bandra Kurla Complex, Mumbai - IITM",20-09-2025 14:00:00,19.053536,72.84643,NH3,9,39,16
India,Maharashtra,Mumbai,"Bandra Kurla Complex, Mumbai - IITM",20-09-2025 14:00:00,19.053536,72.84643,OZONE,1,4,1
India,Maharashtra,Mumbai,"Bandra Kurla Complex, Mumbai - MPCB",20-09-2025 14:00:00,19.065931,72.862131,SO2,NA,NA,NA
India,Maharashtra,Mumbai,"Borivali East, Mumbai - MPCB",20-09-2025 14:00:00,19.2243333,72.8658113,PM2.5,16,34,23
India,Maharashtra,Mumbai,"Borivali East, Mumbai - MPCB",20-09-2025 14:00:00,19.2243333,72.8658113,NO2,1,5,2
India,Maharashtra,Mumbai,"Borivali East, Mumbai - MPCB",20-09-2025 14:00:00,19.2243333,72.8658113,SO2,3,4,4
India,Maharashtra,Mumbai,"Byculla, Mumbai - BMC",20-09-2025 14:00:00,18.9767,72.8380,PM2.5,12,33,20
India,Maharashtra,Mumbai,"Byculla, Mumbai - BMC",20-09-2025 14:00:00,18.9767,72.8380,NO2,9,43,19
India,Maharashtra,Mumbai,"Byculla, Mumbai - BMC",20-09-2025 14:00:00,18.9767,72.8380,NH3,3,14,7
India,Maharashtra,Mumbai,"Byculla, Mumbai - BMC",20-09-2025 14:00:00,18.9767,72.8380,SO2,10,11,11
India,Maharashtra,Mumbai,"Byculla, Mumbai - BMC",20-09-2025 14:00:00,18.9767,72.8380,OZONE,8,35,13
India,Maharashtra,Mumbai,"Chakala-Andheri East, Mumbai - IITM",20-09-2025 14:00:00,19.11074,72.86084,CO,2,54,6
India,Maharashtra,Mumbai,"Chembur, Mumbai - MPCB",20-09-2025 14:00:00,19.0364585,72.8954371,PM2.5,8,30,18
India,Maharashtra,Mumbai,"Chembur, Mumbai - MPCB",20-09-2025 14:00:00,19.0364585,72.8954371,PM10,15,43,26
India,Maharashtra,Mumbai,"Deonar, Mumbai - IITM",20-09-2025 14:00:00,19.04946,72.9230,PM2.5,7,42,21
India,Maharashtra,Mumbai,"Deonar, Mumbai - IITM",20-09-2025 14:00:00,19.04946,72.9230,SO2,4,8,5
India,Maharashtra,Mumbai,"Deonar, Mumbai - IITM",20-09-2025 14:00:00,19.04946,72.9230,CO,3,43,19
India,Maharashtra,Mumbai,"Ghatkopar, Mumbai - BMC",20-09-2025 14:00:00,19.083694,72.920967,NO2,10,39,18
India,Maharashtra,Mumbai,"Ghatkopar, Mumbai - BMC",20-09-2025 14:00:00,19.083694,72.920967,NH3,2,10,4
India,Maharashtra,Mumbai,"Kandivali East, Mumbai - MPCB",20-09-2025 14:00:00,19.205800,72.868200,PM10,NA,NA,NA
India,Maharashtra,Mumbai,"Kandivali East, Mumbai - MPCB",20-09-2025 14:00:00,19.205800,72.868200,SO2,NA,NA,NA
India,Maharashtra,Mumbai,"Kandivali West, Mumbai - BMC",20-09-2025 14:00:00,19.215859,72.831718,SO2,1,4,2
India,Maharashtra,Mumbai,"Kandivali West, Mumbai - BMC",20-09-2025 14:00:00,19.215859,72.831718,CO,5,65,16
India,Maharashtra,Mumbai,"Kherwadi_Bandra East, Mumbai - MPCB",20-09-2025 14:00:00,19.0632143,72.8456324,OZONE,1,14,5
India,Maharashtra,Mumbai,"Khindipada-Bhandup West, Mumbai - IITM",20-09-2025 14:00:00,19.1653323,72.922099,NH3,4,6,5
India,Maharashtra,Mumbai,"Khindipada-Bhandup West, Mumbai - IITM",20-09-2025 14:00:00,19.1653323,72.922099,OZONE,2,29,10
India,Maharashtra,Mumbai,"Malad West, Mumbai - IITM",20-09-2025 14:00:00,19.19709,72.82204,NH3,1,2,2
India,Maharashtra,Mumbai,"Malad West, Mumbai - IITM",20-09-2025 14:00:00,19.19709,72.82204,SO2,5,10,6
India,Maharashtra,Navi Mumbai,"Kopripada-Vashi, Navi Mumbai - MPCB",20-09-2025 14:00:00,19.090337,73.014232,NO2,10,20,15
India,Maharashtra,Navi Mumbai,"Mahape, Navi Mumbai - MPCB",20-09-2025 14:00:00,19.1135051,73.008978,PM10,35,73,55
India,Maharashtra,Navi Mumbai,"Mahape, Navi Mumbai - MPCB",20-09-2025 14:00:00,19.1135051,73.008978,CO,16,22,17
India,Maharashtra,Navi Mumbai,"Sanpada, Navi Mumbai - MPCB",20-09-2025 14:00:00,19.0575752,73.0151367,SO2,14,21,17
India,Maharashtra,Navi Mumbai,"Sector-2E Kalamboli, Navi Mumbai - MPCB",20-09-2025 14:00:00,19.02579,73.10297,NO2,11,106,35
India,Maharashtra,Navi Mumbai,"Sector-2E Kalamboli, Navi Mumbai - MPCB",20-09-2025 14:00:00,19.02579,73.10297,OZONE,3,39,17
India,Maharashtra,Nashik,"Gangapur Road, Nashik - MPCB",20-09-2025 14:00:00,20.0073285,73.7762427,CO,8,10,9
India,Maharashtra,Nashik,"Gangapur Road, Nashik - MPCB",20-09-2025 14:00:00,20.0073285,73.7762427,OZONE,10,12,11
India,Maharashtra,Nashik,"Hirawadi, Nashik - MPCB",20-09-2025 14:00:00,20.021503,73.813844,PM10,14,54,30
India,Maharashtra,Nashik,"Hirawadi, Nashik - MPCB",20-09-2025 14:00:00,20.021503,73.813844,OZONE,10,24,16
India,Maharashtra,Nashik,"MIDC Ambad, Nashik - MPCB",20-09-2025 14:00:00,19.950220,73.731480,PM10,33,53,45
India,Maharashtra,Nashik,"Pandav Nagari, Nashik - MPCB",20-09-2025 14:00:00,19.9591346,73.7788008,PM2.5,11,41,22
India,Maharashtra,Mumbai,"Mindspace-Malad West, Mumbai - MPCB",20-09-2025 14:00:00,19.1878657,72.8304069,NH3,5,6,5
India,Maharashtra,Mumbai,"Mulund West, Mumbai - MPCB",20-09-2025 14:00:00,19.1750,72.9419,PM10,36,72,50
India,Maharashtra,Mumbai,"Navy Nagar-Colaba, Mumbai - IITM",20-09-2025 14:00:00,18.897756,72.813320,SO2,8,33,24
India,Maharashtra,Mumbai,"Sewri, Mumbai - BMC",20-09-2025 14:00:00,19.000084,72.856730,CO,2,65,2
India,Maharashtra,Mumbai,"Sewri, Mumbai - BMC",20-09-2025 14:00:00,19.000084,72.856730,OZONE,34,51,34
India,Maharashtra,Latur,"Sawe Wadi, Latur - MPCB",20-09-2025 14:00:00,18.39963,76.57452,PM2.5,13,55,26
India,Maharashtra,Mahad,"Kamble Tarf Birwadi, Mahad - MPCB",20-09-2025 14:00:00,18.1023399,73.4783687,PM10,11,34,21
India,Maharashtra,Mahad,"Kamble Tarf Birwadi, Mahad - MPCB",20-09-2025 14:00:00,18.1023399,73.4783687,OZONE,14,50,29
India,Maharashtra,Mira-Bhayandar,"Bhayandar West, Mira-Bhayandar - MPCB",20-09-2025 14:00:00,19.296481,72.840923,NH3,1,4,2
India,Maharashtra,Mumbai,"Siddharth Nagar-Worli, Mumbai - IITM",20-09-2025 14:00:00,19.000083,72.813993,CO,2,76,66
India,Maharashtra,Mumbai,"Vasai West, Mumbai - MPCB",20-09-2025 14:00:00,19.383200,72.820400,PM2.5,12,52,33
India,Maharashtra,Mumbai,"Vasai West, Mumbai - MPCB",20-09-2025 14:00:00,19.383200,72.820400,SO2,8,8,8
India,Maharashtra,Nagpur,"Ambazari, Nagpur - MPCB",20-09-2025 14:00:00,21.121801,79.04952,OZONE,6,38,15
India,Maharashtra,Nagpur,"Mahal, Nagpur - MPCB",20-09-2025 14:00:00,21.14472,79.107595,PM10,11,401,65
India,Odisha,Rourkela,"Raghunathpali, Rourkela - OSPCB",20-09-2025 14:00:00,22.220833,84.809444,NH3,1,2,1
India,Odisha,Suakati,"OMC Colony, Suakati - OSPCB",20-09-2025 14:00:00,21.606865,85.510538,CO,14,31,26
India,Odisha,Talcher,"Talcher Coalfields,Talcher - OSPCB",20-09-2025 14:00:00,20.9360711,85.1707021,PM10,NA,NA,NA
India,Odisha,Tensa,"Barsua Iron Ore Mines, Tensa - OSPCB",20-09-2025 14:00:00,21.869985,85.167016,PM10,48,92,66
India,Odisha,Tensa,"Barsua Iron Ore Mines, Tensa - OSPCB",20-09-2025 14:00:00,21.869985,85.167016,OZONE,8,52,21
India,Punjab,Amritsar,"Golden Temple, Amritsar - PPCB",20-09-2025 14:00:00,31.620000,74.876512,PM2.5,45,56,51
India,Punjab,Amritsar,"Golden Temple, Amritsar - PPCB",20-09-2025 14:00:00,31.620000,74.876512,SO2,17,24,19
India,Punjab,Amritsar,"Golden Temple, Amritsar - PPCB",20-09-2025 14:00:00,31.620000,74.876512,OZONE,29,38,33
India,Maharashtra,Pune,"Mhada Colony, Pune - IITM",20-09-2025 14:00:00,18.573040,73.927715,PM10,33,90,57
India,Maharashtra,Pune,"Panchawati_Pashan, Pune - IITM",20-09-2025 14:00:00,18.536457,73.805454,PM2.5,14,43,23
India,Maharashtra,Pune,"Savitribai Phule Pune University, Pune - MPCB",20-09-2025 14:00:00,18.547056,73.826908,NO2,NA,NA,NA
India,Maharashtra,Pune,"Savitribai Phule Pune University, Pune - MPCB",20-09-2025 14:00:00,18.547056,73.826908,OZONE,NA,NA,NA
India,Maharashtra,Pune,"Transport Nagar-Nigdi, Pune - IITM",20-09-2025 14:00:00,18.664282,73.763966,PM2.5,6,28,15
India,Maharashtra,Pune,"Transport Nagar-Nigdi, Pune - IITM",20-09-2025 14:00:00,18.664282,73.763966,CO,36,82,51
India,Maharashtra,Pune,"Transport Nagar-Nigdi, Pune - IITM",20-09-2025 14:00:00,18.664282,73.763966,OZONE,12,40,29
India,Maharashtra,Sangli,"Vijay Nagar, Sangli - MPCB",20-09-2025 14:00:00, 16.5038,74.3623,PM2.5,11,56,28
India,Maharashtra,Solapur,"Ratandeep Housing Society, Solapur - MPCB",20-09-2025 14:00:00,17.65439,75.90649,PM2.5,4,43,19
India,Maharashtra,Solapur,"Ratandeep Housing Society, Solapur - MPCB",20-09-2025 14:00:00,17.65439,75.90649,PM10,NA,NA,NA
India,Maharashtra,Solapur,"Ratandeep Housing Society, Solapur - MPCB",20-09-2025 14:00:00,17.65439,75.90649,SO2,NA,NA,NA
India,Maharashtra,Thane,"Kasarvadavali, Thane - MPCB",20-09-2025 14:00:00,19.26777,72.97182,NH3,2,12,6
India,Maharashtra,Thane,"Upvan Fort, Thane - MPCB",20-09-2025 14:00:00,19.222279,72.957979,NO2,6,25,13
India,Maharashtra,Thane,"Upvan Fort, Thane - MPCB",20-09-2025 14:00:00,19.222279,72.957979,NH3,1,8,2
India,Maharashtra,Ulhasnagar,"Sidhi Vinayak Nagar, Ulhasnagar - MPCB",20-09-2025 14:00:00,19.235581,73.159121,PM2.5,15,44,30
India,Maharashtra,Ulhasnagar,"Sidhi Vinayak Nagar, Ulhasnagar - MPCB",20-09-2025 14:00:00,19.235581,73.159121,SO2,8,21,14
India,Maharashtra,Virar,"Bolinj, Virar - MPCB",20-09-2025 14:00:00,19.4458210,72.7988231,NH3,1,3,2
India,Meghalaya,Shillong,"Lumpyngngad, Shillong - Meghalaya PCB",20-09-2025 14:00:00,25.5586,91.8985,OZONE,5,11,6
India,Nagaland,Kohima,"PWD Junction, Kohima - NPCB",20-09-2025 14:00:00,25.6635413,94.0989878,NO2,3,4,3
India,Nagaland,Kohima,"PWD Junction, Kohima - NPCB",20-09-2025 14:00:00,25.6635413,94.0989878,NH3,1,1,1
India,Nagaland,Kohima,"PWD Junction, Kohima - NPCB",20-09-2025 14:00:00,25.6635413,94.0989878,SO2,68,71,69
India,Odisha,Bileipada,"Tata Township, Bileipada - OSPCB",20-09-2025 14:00:00,22.06156703,85.47409613,PM2.5,54,310,181
India,Odisha,Bileipada,"Tata Township, Bileipada - OSPCB",20-09-2025 14:00:00,22.06156703,85.47409613,NH3,4,4,4
India,Odisha,Bileipada,"Tata Township, Bileipada - OSPCB",20-09-2025 14:00:00,22.06156703,85.47409613,CO,40,52,47
India,Odisha,Brajrajnagar,"GM Office, Brajrajnagar - OSPCB",20-09-2025 14:00:00,21.8004996,83.8396977,PM2.5,18,69,40
India,Odisha,Byasanagar,"Ferro Chrome Colony, Byasanagar - OSPCB",20-09-2025 14:00:00,20.94185,86.11510,NO2,3,32,8
India,Odisha,Byasanagar,"Ferro Chrome Colony, Byasanagar - OSPCB",20-09-2025 14:00:00,20.94185,86.11510,NH3,1,3,2
India,Odisha,Byasanagar,"Ferro Chrome Colony, Byasanagar - OSPCB",20-09-2025 14:00:00,20.94185,86.11510,CO,14,36,24
India,Odisha,Cuttack,"CDA Area, Cuttack - OSPCB",20-09-2025 14:00:00,20.48891     ,85.84768     ,NO2,2,24,11
India,Odisha,Cuttack,"CDA Area, Cuttack - OSPCB",20-09-2025 14:00:00,20.48891     ,85.84768     ,NH3,1,13,2
India,Odisha,Cuttack,"CDA Area, Cuttack - OSPCB",20-09-2025 14:00:00,20.48891     ,85.84768     ,SO2,4,16,6
India,Odisha,Nayagarh,"Dabuna, Nayagarh - OSPCB",20-09-2025 14:00:00,21.847279,85.416905,PM10,36,56,47
India,Odisha,Rairangpur,"Divisional Forest Office, Rairangpur - OSPCB",20-09-2025 14:00:00,22.265816,86.174829,OZONE,19,31,19
India,Odisha,Rourkela,"Raghunathpali, Rourkela - OSPCB",20-09-2025 14:00:00,22.220833,84.809444,PM10,49,139,85
India,Maharashtra,Navi Mumbai,"Tondare-Taloja, Navi Mumbai - MPCB",20-09-2025 14:00:00,19.0630,73.1209,CO,19,28,23
India,Maharashtra,Navi Mumbai,"Tondare-Taloja, Navi Mumbai - MPCB",20-09-2025 14:00:00,19.0630,73.1209,OZONE,3,5,4
India,Maharashtra,Parbhani,"Masoom Colony, Parbhani - MPCB",20-09-2025 14:00:00,19.265594,76.761463,OZONE,9,75,22
India,Maharashtra,Pimpri-Chinchwad,"Gavalinagar, Pimpri Chinchwad - MPCB",20-09-2025 14:00:00,18.63673,73.82487,NO2,18,30,23
India,Maharashtra,Pimpri-Chinchwad,"Gavalinagar, Pimpri Chinchwad - MPCB",20-09-2025 14:00:00,18.63673,73.82487,CO,8,21,10
India,Maharashtra,Pimpri-Chinchwad,"Gavalinagar, Pimpri Chinchwad - MPCB",20-09-2025 14:00:00,18.63673,73.82487,OZONE,3,26,10
India,Odisha,Barbil,"Forest Office, Barbil - OSPCB",20-09-2025 14:00:00,22.1166054,85.3945546,PM2.5,50,173,87
India,Odisha,Barbil,"Forest Office, Barbil - OSPCB",20-09-2025 14:00:00,22.1166054,85.3945546,NO2,16,41,25
India,Odisha,Barbil,"Forest Office, Barbil - OSPCB",20-09-2025 14:00:00,22.1166054,85.3945546,CO,22,43,30
India,Odisha,Baripada,"Meher Colony, Baripada - OSPCB",20-09-2025 14:00:00,21.941841,86.728318,NH3,1,1,1
India,Odisha,Bhubaneswar,"Lingraj Mandir, Bhubaneswar - OSPCB",20-09-2025 14:00:00,20.240790,85.836784,NH3,2,5,3
India,Maharashtra,Pune,"Bhumkar Nagar, Pune - IITM",20-09-2025 14:00:00,18.605770,73.749976,PM2.5,15,51,29
India,Maharashtra,Pune,"Dhankawadi, Pune - IITM",20-09-2025 14:00:00,18.459883,73.852193,PM10,8,45,25
India,Maharashtra,Pune,"Dhankawadi, Pune - IITM",20-09-2025 14:00:00,18.459883,73.852193,NO2,8,10,9
India,Maharashtra,Pune,"Dhankawadi, Pune - IITM",20-09-2025 14:00:00,18.459883,73.852193,CO,NA,NA,NA
India,Maharashtra,Pune,"Katraj Dairy, Pune - MPCB",20-09-2025 14:00:00,18.454450,73.854155,NH3,1,3,2
India,Maharashtra,Pune,"Katraj Dairy, Pune - MPCB",20-09-2025 14:00:00,18.454450,73.854155,CO,9,83,45
India,Rajasthan,Jaipur,"Sector-2 Murlipura, Jaipur - RSPCB",20-09-2025 14:00:00,26.960669,75.771817,OZONE,1,30,9
India,Rajasthan,Jaipur,"Shastri Nagar, Jaipur - RSPCB",20-09-2025 14:00:00,26.9502929,75.730943,SO2,5,36,20
India,Rajasthan,Jaipur,"Shastri Nagar, Jaipur - RSPCB",20-09-2025 14:00:00,26.9502929,75.730943,CO,44,114,63
India,Rajasthan,Jaisalmer,"Sadar Bazar, Jaisalmer - RSPCB",20-09-2025 14:00:00,26.912329,70.909168,OZONE,30,52,42
India,Rajasthan,Jalore,"Mudtra Sili, Jalore - RSPCB",20-09-2025 14:00:00,25.344694,72.626208,PM2.5,25,53,37
India,Rajasthan,Jalore,"Mudtra Sili, Jalore - RSPCB",20-09-2025 14:00:00,25.344694,72.626208,NO2,7,32,18
India,Rajasthan,Jalore,"Mudtra Sili, Jalore - RSPCB",20-09-2025 14:00:00,25.344694,72.626208,NH3,5,7,6
India,Rajasthan,Jalore,"Mudtra Sili, Jalore - RSPCB",20-09-2025 14:00:00,25.344694,72.626208,CO,14,47,23
India,Punjab,Patiala,"Model Town, Patiala - PPCB",20-09-2025 14:00:00,30.349388,76.366642,OZONE,25,28,27
India,Punjab,Rupnagar,"Ratanpura, Rupnagar - Ambuja Cements",20-09-2025 14:00:00,31.0325454,76.5623046,PM2.5,13,58,30
India,Punjab,Rupnagar,"Ratanpura, Rupnagar - Ambuja Cements",20-09-2025 14:00:00,31.0325454,76.5623046,PM10,15,65,34
India,Rajasthan,Alwar,"Moti Doongri, Alwar - RSPCB",20-09-2025 14:00:00,27.554793,76.611536,NH3,4,7,6
India,Rajasthan,Banswara,"Rati Talai, Banswara - RSPCB",20-09-2025 14:00:00,23.555190,74.440010,PM10,27,162,83
India,Rajasthan,Jodhpur,"Jhalamand, Jodhpur - RSPCB",20-09-2025 14:00:00,26.215415,73.070156,OZONE,9,51,31
India,Rajasthan,Jodhpur,"Mandor, Jodhpur - RSPCB",20-09-2025 14:00:00,26.358805,73.047444,NH3,NA,NA,NA
India,Rajasthan,Jodhpur,"Mandor, Jodhpur - RSPCB",20-09-2025 14:00:00,26.358805,73.047444,SO2,NA,NA,NA
India,Rajasthan,Jodhpur,"Mandor, Jodhpur - RSPCB",20-09-2025 14:00:00,26.358805,73.047444,OZONE,2,52,35
India,Rajasthan,Jodhpur,"Samrat Ashok Udhyan, Jodhpur - RSPCB",20-09-2025 14:00:00,26.253384,72.976571,PM10,49,123,74
India,Rajasthan,Jodhpur,"Samrat Ashok Udhyan, Jodhpur - RSPCB",20-09-2025 14:00:00,26.253384,72.976571,CO,16,22,18
India,Rajasthan,Karauli,"Satyawati Vihar, Karauli - RSPCB",20-09-2025 14:00:00,26.506177,77.025989,CO,16,36,28
India,Punjab,Bathinda,"Hardev Nagar, Bathinda - PPCB",20-09-2025 14:00:00,30.233011,74.907758,SO2,4,26,12
India,Punjab,Jalandhar,"Civil Line, Jalandhar - PPCB",20-09-2025 14:00:00,31.321907,75.578914,PM2.5,32,84,57
India,Punjab,Jalandhar,"Civil Line, Jalandhar - PPCB",20-09-2025 14:00:00,31.321907,75.578914,NH3,1,1,1
India,Punjab,Jalandhar,"Civil Line, Jalandhar - PPCB",20-09-2025 14:00:00,31.321907,75.578914,OZONE,36,41,38
India,Punjab,Ludhiana,"Punjab Agricultural University, Ludhiana - PPCB",20-09-2025 14:00:00,30.9028,75.8086,OZONE,27,62,38
India,Rajasthan,Barmer,"Railway Colony, Barmer - RSPCB",20-09-2025 14:00:00,25.747299,71.393989,SO2,3,7,5
India,Rajasthan,Barmer,"Railway Colony, Barmer - RSPCB",20-09-2025 14:00:00,25.747299,71.393989,CO,12,46,22
India,Rajasthan,Bharatpur,"Krishna Nagar, Bharatpur - RSPCB",20-09-2025 14:00:00,27.215415,77.50873,NO2,8,24,13
India,Rajasthan,Bhiwadi,"RIICO Ind. Area III, Bhiwadi - RSPCB",20-09-2025 14:00:00,28.194909,76.862296,PM10,NA,NA,NA
India,Rajasthan,Bhiwadi,"RIICO Ind. Area III, Bhiwadi - RSPCB",20-09-2025 14:00:00,28.194909,76.862296,NO2,NA,NA,NA
India,Rajasthan,Bikaner,"MM Ground, Bikaner - RSPCB",20-09-2025 14:00:00,28.018792,73.292658,CO,8,42,12
India,Rajasthan,Bikaner,"MM Ground, Bikaner - RSPCB",20-09-2025 14:00:00,28.018792,73.292658,OZONE,26,54,39
India,Rajasthan,Bundi,"New Colony, Bundi - RSPCB",20-09-2025 14:00:00,25.435774,75.644272,CO,22,44,26
India,Rajasthan,Bundi,"New Colony, Bundi - RSPCB",20-09-2025 14:00:00,25.435774,75.644272,OZONE,17,80,47
India,Rajasthan,Chittorgarh,"Shastri Nagar, Chittorgarh - RSPCB",20-09-2025 14:00:00,24.892047,74.623527,PM10,29,86,48
India,Rajasthan,Jaipur,"Mansarovar Sector-12, Jaipur - RSPCB",20-09-2025 14:00:00,26.843698,75.766894,NO2,11,88,38
India,Rajasthan,Jaipur,"Mansarovar Sector-12, Jaipur - RSPCB",20-09-2025 14:00:00,26.843698,75.766894,SO2,1,2,1
India,Rajasthan,Jaipur,"Police Commissionerate, Jaipur - RSPCB",20-09-2025 14:00:00,26.9164092,75.7994901,NO2,86,100,95
India,Rajasthan,Jaipur,"RIICO Sitapura, Jaipur - RSPCB",20-09-2025 14:00:00,26.786682,75.827928,PM2.5,18,70,38
India,Rajasthan,Jhunjhunu,"Indra Nagar, Jhunjhunu - RSPCB",20-09-2025 14:00:00,28.108988,75.386577,PM10,64,156,91
India,Rajasthan,Jodhpur,"Collectorate, Jodhpur - RSPCB",20-09-2025 14:00:00,26.268249,73.0193853,CO,5,94,21
India,Rajasthan,Jodhpur,"Digari Kalan, Jodhpur - RSPCB",20-09-2025 14:00:00,26.295810,73.082283,CO,8,42,12
India,Rajasthan,Churu,"Subash Chowk, Churu - RSPCB",20-09-2025 14:00:00,28.296139,74.961696,NO2,2,5,2
India,Rajasthan,Hanumangarh,"Housing Board, Hanumangarh - RSPCB",20-09-2025 14:00:00,29.610750,74.283608,PM2.5,15,62,40
India,Rajasthan,Hanumangarh,"Housing Board, Hanumangarh - RSPCB",20-09-2025 14:00:00,29.610750,74.283608,PM10,70,117,88
India,TamilNadu,Madurai,"Uchapatti, Madurai - TNPCB",20-09-2025 14:00:00,9.865935,78.022669,CO,18,23,20
India,TamilNadu,Nagapattinam,"Velippalayam, Nagapattinam - TNPCB",20-09-2025 14:00:00,10.798548,79.838212,PM2.5,5,52,18
India,TamilNadu,Nagapattinam,"Velippalayam, Nagapattinam - TNPCB",20-09-2025 14:00:00,10.798548,79.838212,SO2,3,10,5
India,TamilNadu,Nagapattinam,"Velippalayam, Nagapattinam - TNPCB",20-09-2025 14:00:00,10.798548,79.838212,OZONE,NA,NA,NA
India,TamilNadu,Ooty,"Bombay Castel, Ooty - TNPCB",20-09-2025 14:00:00,11.4068288,76.7138973,PM10,38,116,67
India,TamilNadu,Palkalaiperur,"Bharathidasan University, Palkalaiperur - TNPCB",20-09-2025 14:00:00,10.681158,78.741746,NO2,7,7,7
India,TamilNadu,Pudukottai,"SIPCOT Nathampannai, Pudukottai - TNPCB",20-09-2025 14:00:00,10.423417,78.784889,NH3,2,3,3
India,TamilNadu,Pudukottai,"SIPCOT Nathampannai, Pudukottai - TNPCB",20-09-2025 14:00:00,10.423417,78.784889,SO2,12,13,12
India,TamilNadu,Chennai,"Kodungaiyur, Chennai - TNPCB",20-09-2025 14:00:00,13.1278,80.2642,CO,2,50,9
India,TamilNadu,Chennai,"Manali Village, Chennai - TNPCB",20-09-2025 14:00:00,13.1662,80.2584,PM2.5,7,71,37
India,TamilNadu,Chennai,"Manali, Chennai - CPCB",20-09-2025 14:00:00,13.164544,80.26285,PM2.5,10,42,23
India,TamilNadu,Chennai,"Manali, Chennai - CPCB",20-09-2025 14:00:00,13.164544,80.26285,SO2,14,17,15
India,TamilNadu,Chennai,"Perungudi, Chennai - TNPCB",20-09-2025 14:00:00,12.9533,80.2357,PM10,14,53,30
India,TamilNadu,Chennai,"Perungudi, Chennai - TNPCB",20-09-2025 14:00:00,12.9533,80.2357,NO2,1,5,3
India,TamilNadu,Chennai,"Perungudi, Chennai - TNPCB",20-09-2025 14:00:00,12.9533,80.2357,NH3,4,6,5
India,TamilNadu,Chennai,"Perungudi, Chennai - TNPCB",20-09-2025 14:00:00,12.9533,80.2357,CO,20,38,29
India,TamilNadu,Chennai,"Royapuram, Chennai - TNPCB",20-09-2025 14:00:00,13.1036,80.2909,NO2,9,34,20
India,Rajasthan,Sirohi,"Vedhaynath Colony, Sirohi - RSPCB",20-09-2025 14:00:00,24.885261,72.857549,NH3,2,4,3
India,Rajasthan,Sri Ganganagar,"Old City, Sri Ganganagar - RSPCB",20-09-2025 14:00:00,29.931624,73.864511,PM2.5,79,378,129
India,Rajasthan,Sri Ganganagar,"Old City, Sri Ganganagar - RSPCB",20-09-2025 14:00:00,29.931624,73.864511,NH3,1,2,2
India,Rajasthan,Sri Ganganagar,"Old City, Sri Ganganagar - RSPCB",20-09-2025 14:00:00,29.931624,73.864511,CO,28,71,29
India,Rajasthan,Tonk,"Shastri Nagar, Tonk - RSPCB",20-09-2025 14:00:00,26.159933,75.780517,NH3,3,11,5
India,Rajasthan,Tonk,"Shastri Nagar, Tonk - RSPCB",20-09-2025 14:00:00,26.159933,75.780517,SO2,NA,NA,NA
India,Rajasthan,Udaipur,"Ashok Nagar, Udaipur - RSPCB",20-09-2025 14:00:00,24.5886166,73.6321397,NO2,1,45,12
India,Rajasthan,Udaipur,"Ashok Nagar, Udaipur - RSPCB",20-09-2025 14:00:00,24.5886166,73.6321397,OZONE,3,53,16
India,TamilNadu,Cuddalore,"Semmandalam, Cuddalore - TNPCB",20-09-2025 14:00:00,11.7637683,79.7499835,NH3,2,3,3
India,TamilNadu,Dindigul,"Mendonsa Colony, Dindigul - TNPCB",20-09-2025 14:00:00,10.358535,77.984321,NO2,NA,NA,NA
India,TamilNadu,Gummidipoondi,"Anthoni Pillai Nagar, Gummidipoondi - TNPCB",20-09-2025 14:00:00,13.4127,80.1081,PM2.5,NA,NA,NA
India,TamilNadu,Gummidipoondi,"Anthoni Pillai Nagar, Gummidipoondi - TNPCB",20-09-2025 14:00:00,13.4127,80.1081,NO2,3,8,5
India,TamilNadu,Hosur,"SIPCOT Phase-1, Hosur - TNPCB",20-09-2025 14:00:00,12.746998,77.813811,CO,12,22,17
India,Sikkim,Gangtok,"Zero Point GICI, Gangtok - SSPCB",20-09-2025 14:00:00,27.338530,88.614099,SO2,1,1,1
India,TamilNadu,Chengalpattu,"Crescent University, Chengalpattu - TNPCB",20-09-2025 14:00:00,12.8777316,80.0834807,NO2,3,4,4
India,TamilNadu,Chennai,"Arumbakkam, Chennai - TNPCB",20-09-2025 14:00:00,13.0664,80.2112 ,NH3,3,4,3
India,TamilNadu,Chennai,"Arumbakkam, Chennai - TNPCB",20-09-2025 14:00:00,13.0664,80.2112 ,SO2,1,3,2
India,TamilNadu,Chennai,"Kodungaiyur, Chennai - TNPCB",20-09-2025 14:00:00,13.1278,80.2642,PM2.5,18,52,36
India,TamilNadu,Coimbatore,"PSG College of Arts and Science, Coimbatore - TNPCB",20-09-2025 14:00:00,11.0328,77.0349,OZONE,4,6,4
India,TamilNadu,Coimbatore,"SIDCO Kurichi, Coimbatore - TNPCB",20-09-2025 14:00:00,10.942451,76.978996,PM2.5,34,80,52
India,TamilNadu,Cuddalore,"Semmandalam, Cuddalore - TNPCB",20-09-2025 14:00:00,11.7637683,79.7499835,PM2.5,5,272,39
India,TamilNadu,Cuddalore,"Semmandalam, Cuddalore - TNPCB",20-09-2025 14:00:00,11.7637683,79.7499835,NO2,1,10,4
India,Rajasthan,Kota,"Dhanmandi, Kota - RSPCB",20-09-2025 14:00:00,25.164090,75.858137,PM2.5,5,42,20
India,Rajasthan,Kota,"Shrinath Puram, Kota - RSPCB",20-09-2025 14:00:00,25.14389,75.821256,PM2.5,34,81,53
India,Rajasthan,Kota,"Shrinath Puram, Kota - RSPCB",20-09-2025 14:00:00,25.14389,75.821256,NH3,1,2,1
India,Rajasthan,Nagaur,"Karni Colony, Nagaur - RSPCB",20-09-2025 14:00:00,27.213494,73.734444,PM2.5,15,37,25
India,Rajasthan,Rajsamand,"Dhoinda, Rajsamand - RSPCB",20-09-2025 14:00:00,25.036360,73.883502,PM10,24,55,38
India,Rajasthan,Rajsamand,"Dhoinda, Rajsamand - RSPCB",20-09-2025 14:00:00,25.036360,73.883502,NO2,5,12,8
India,Rajasthan,Rajsamand,"Dhoinda, Rajsamand - RSPCB",20-09-2025 14:00:00,25.036360,73.883502,SO2,1,11,5
India,Rajasthan,Sawai Madhopur,"Sahu Nagar, Sawai Madhopur - RSPCB",20-09-2025 14:00:00,26.031443,76.359327,SO2,2,8,4
India,Rajasthan,Nagaur,"Karni Colony, Nagaur - RSPCB",20-09-2025 14:00:00,27.213494,73.734444,NH3,3,7,5
India,Uttar_Pradesh,Ghaziabad,"Sanjay Nagar, Ghaziabad - UPPCB",20-09-2025 14:00:00,28.685382,77.453839,SO2,12,26,19
India,Uttar_Pradesh,Ghaziabad,"Vasundhara, Ghaziabad - UPPCB",20-09-2025 14:00:00,28.6603346,77.3572563,CO,2,103,49
India,Uttar_Pradesh,Gorakhpur,"Madan Mohan Malaviya University of Technology, Gorakhpur - UPPCB",20-09-2025 14:00:00,26.730136,83.433859,PM10,29,66,47
India,Uttar_Pradesh,Gorakhpur,"Madan Mohan Malaviya University of Technology, Gorakhpur - UPPCB",20-09-2025 14:00:00,26.730136,83.433859,SO2,24,28,25
India,Uttar_Pradesh,Greater Noida,"Knowledge Park - III, Greater Noida - UPPCB",20-09-2025 14:00:00,28.47272,77.482000,SO2,8,19,14
India,Uttar_Pradesh,Greater Noida,"Knowledge Park - V, Greater Noida - UPPCB",20-09-2025 14:00:00,28.557054,77.453663,PM10,127,427,203
India,Uttar_Pradesh,Greater Noida,"Knowledge Park - V, Greater Noida - UPPCB",20-09-2025 14:00:00,28.557054,77.453663,NO2,26,98,45
India,Uttar_Pradesh,Greater Noida,"Knowledge Park - V, Greater Noida - UPPCB",20-09-2025 14:00:00,28.557054,77.453663,NH3,8,11,9
India,Uttar_Pradesh,Greater Noida,"Knowledge Park - V, Greater Noida - UPPCB",20-09-2025 14:00:00,28.557054,77.453663,SO2,8,12,11
India,Telangana,Hyderabad,"Kokapet, Hyderabad - TSPCB",20-09-2025 14:00:00,17.393559,78.339194,PM10,63,284,80
India,Telangana,Hyderabad,"Kokapet, Hyderabad - TSPCB",20-09-2025 14:00:00,17.393559,78.339194,SO2,7,8,7
India,Telangana,Hyderabad,"Kokapet, Hyderabad - TSPCB",20-09-2025 14:00:00,17.393559,78.339194,CO,24,26,25
India,Telangana,Hyderabad,"Kompally Municipal Office, Hyderabad - TSPCB",20-09-2025 14:00:00,17.544899,78.486949,SO2,NA,NA,NA
India,Telangana,Hyderabad,"Nacharam_TSIIC IALA, Hyderabad - TSPCB",20-09-2025 14:00:00,17.429398,78.569354,CO,21,43,36
India,Telangana,Hyderabad,"Nacharam_TSIIC IALA, Hyderabad - TSPCB",20-09-2025 14:00:00,17.429398,78.569354,OZONE,23,36,28
India,Telangana,Hyderabad,"New Malakpet, Hyderabad - TSPCB",20-09-2025 14:00:00,17.37206,78.50864,PM2.5,43,57,49
India,Telangana,Hyderabad,"New Malakpet, Hyderabad - TSPCB",20-09-2025 14:00:00,17.37206,78.50864,CO,24,33,29
India,Telangana,Hyderabad,"Ramachandrapuram, Hyderabad - TSPCB",20-09-2025 14:00:00,17.528544,78.286195,NO2,10,17,11
India,Telangana,Hyderabad,"Ramachandrapuram, Hyderabad - TSPCB",20-09-2025 14:00:00,17.528544,78.286195,CO,30,52,32
India,Telangana,Hyderabad,"Sanathnagar, Hyderabad - TSPCB",20-09-2025 14:00:00,17.4559458,78.4332152,OZONE,12,16,14
India,Telangana,Hyderabad,"Zoo Park, Hyderabad - TSPCB",20-09-2025 14:00:00,17.349694,78.451437,NH3,NA,NA,NA
India,Telangana,Hyderabad,"Zoo Park, Hyderabad - TSPCB",20-09-2025 14:00:00,17.349694,78.451437,CO,13,24,18
India,Tripura,Agartala,"Bardowali, Agartala - Tripura SPCB",20-09-2025 14:00:00,23.8175497,91.2726974,OZONE,6,6,6
India,Uttar_Pradesh,Agra,"Manoharpur, Agra - UPPCB",20-09-2025 14:00:00,27.23711,78.01936,PM2.5,13,110,65
India,Uttar_Pradesh,Agra,"Manoharpur, Agra - UPPCB",20-09-2025 14:00:00,27.23711,78.01936,PM10,11,91,57
India,Uttar_Pradesh,Agra,"Manoharpur, Agra - UPPCB",20-09-2025 14:00:00,27.23711,78.01936,NH3,1,1,1
India,Uttar_Pradesh,Firozabad,"Vibhab Nagar, Firozabad - UPPCB",20-09-2025 14:00:00,27.1594,78.3953,SO2,9,30,17
India,Uttar_Pradesh,Firozabad,"Vibhab Nagar, Firozabad - UPPCB",20-09-2025 14:00:00,27.1594,78.3953,CO,11,20,15
India,Uttar_Pradesh,Ghaziabad,"Indirapuram, Ghaziabad - UPPCB",20-09-2025 14:00:00,28.646233,77.358075,NO2,16,61,40
India,Uttar_Pradesh,Ghaziabad,"Indirapuram, Ghaziabad - UPPCB",20-09-2025 14:00:00,28.646233,77.358075,NH3,6,9,7
India,Uttar_Pradesh,Ghaziabad,"Loni, Ghaziabad - UPPCB",20-09-2025 14:00:00,28.757294,77.278792,NH3,1,8,4
India,Uttar_Pradesh,Ghaziabad,"Loni, Ghaziabad - UPPCB",20-09-2025 14:00:00,28.757294,77.278792,CO,60,101,79
India,Uttar_Pradesh,Ghaziabad,"Sanjay Nagar, Ghaziabad - UPPCB",20-09-2025 14:00:00,28.685382,77.453839,PM2.5,32,113,65
India,Uttar_Pradesh,Agra,"Shahjahan Garden, Agra - UPPCB",20-09-2025 14:00:00,27.169338,78.03582,OZONE,1,21,11
India,Uttar_Pradesh,Agra,"Shastripuram, Agra - UPPCB",20-09-2025 14:00:00,27.19862,77.92066,NO2,37,38,37
India,Uttar_Pradesh,Bareilly,"Rajendra Nagar, Bareilly - UPPCB",20-09-2025 14:00:00,28.38910936,79.42963708,PM10,45,128,97
India,Uttar_Pradesh,Bareilly,"Rajendra Nagar, Bareilly - UPPCB",20-09-2025 14:00:00,28.38910936,79.42963708,SO2,42,42,42
India,Uttar_Pradesh,Bulandshahr,"Yamunapuram, Bulandshahr - UPPCB",20-09-2025 14:00:00,28.406963,77.849831,PM2.5,34,157,77
India,Uttar_Pradesh,Bulandshahr,"Yamunapuram, Bulandshahr - UPPCB",20-09-2025 14:00:00,28.406963,77.849831,PM10,57,168,112
India,TamilNadu,Tiruchirappalli,"St Joseph College, Tiruchirappalli - TNPCB",20-09-2025 14:00:00,10.830158,78.691849,SO2,21,23,22
India,TamilNadu,Tirunelveli,"Municipal Corporation Office, Tirunelveli - TNPCB",20-09-2025 14:00:00,8.728442,77.6962,NH3,1,2,1
India,TamilNadu,Tirunelveli,"Municipal Corporation Office, Tirunelveli - TNPCB",20-09-2025 14:00:00,8.728442,77.6962,SO2,15,16,16
India,TamilNadu,Tirunelveli,"Municipal Corporation Office, Tirunelveli - TNPCB",20-09-2025 14:00:00,8.728442,77.6962,CO,21,22,21
India,TamilNadu,Virudhunagar,"Collectorate Office, Virudhunagar - TNPCB",20-09-2025 14:00:00,9.559382,77.948828,PM2.5,27,498,76
India,TamilNadu,Virudhunagar,"Collectorate Office, Virudhunagar - TNPCB",20-09-2025 14:00:00,9.559382,77.948828,PM10,29,433,68
India,Telangana,Hyderabad,"ECIL Kapra, Hyderabad - TSPCB",20-09-2025 14:00:00,17.470431,78.566959,PM2.5,16,54,44
India,Telangana,Hyderabad,"ECIL Kapra, Hyderabad - TSPCB",20-09-2025 14:00:00,17.470431,78.566959,PM10,71,92,77
India,Telangana,Hyderabad,"ECIL Kapra, Hyderabad - TSPCB",20-09-2025 14:00:00,17.470431,78.566959,CO,12,38,20
India,Telangana,Hyderabad,"ICRISAT Patancheru, Hyderabad - TSPCB",20-09-2025 14:00:00,17.518400,78.278777,CO,12,26,16
India,Telangana,Hyderabad,"IDA Pashamylaram, Hyderabad - TSPCB",20-09-2025 14:00:00,17.5316895,78.218939,PM10,47,148,74
India,Telangana,Hyderabad,"IITH Kandi, Hyderabad - TSPCB",20-09-2025 14:00:00,17.585705,78.126199,NH3,NA,NA,NA
India,Uttar_Pradesh,Agra,"Rohta, Agra - UPPCB",20-09-2025 14:00:00,27.106972,78.000111,PM2.5,59,303,101
India,Uttar_Pradesh,Agra,"Sanjay Palace, Agra - UPPCB",20-09-2025 14:00:00,27.19865833,78.00598056,PM10,23,98,65
India,Uttar_Pradesh,Agra,"Sanjay Palace, Agra - UPPCB",20-09-2025 14:00:00,27.19865833,78.00598056,CO,30,42,32
India,TamilNadu,Ramanathapuram,"Chalai Bazaar, Ramanathapuram - TNPCB",20-09-2025 14:00:00,9.36399,78.831977,NH3,2,2,2
India,TamilNadu,Salem,"Sona College of Technology, Salem - TNPCB",20-09-2025 14:00:00,11.679111,78.125052,OZONE,20,21,20
India,Uttar_Pradesh,Khurja,"Kalindi Kunj, Khurja - UPPCB",20-09-2025 14:00:00,28.2348927,77.8683002,NO2,3,4,4
India,Uttar_Pradesh,Khurja,"Kalindi Kunj, Khurja - UPPCB",20-09-2025 14:00:00,28.2348927,77.8683002,OZONE,4,22,7
India,Uttar_Pradesh,Lucknow,"B R Ambedkar University, Lucknow - UPPCB",20-09-2025 14:00:00,26.766433,80.927299,SO2,4,6,4
India,Uttar_Pradesh,Lucknow,"B R Ambedkar University, Lucknow - UPPCB",20-09-2025 14:00:00,26.766433,80.927299,CO,26,56,36
India,Uttar_Pradesh,Lucknow,"Gomti Nagar, Lucknow - UPPCB",20-09-2025 14:00:00,26.868120,81.005119,PM10,24,76,45
India,Uttar_Pradesh,Lucknow,"Kukrail Picnic Spot-1, Lucknow - UPPCB",20-09-2025 14:00:00,26.90723,80.98579,PM2.5,18,41,29
India,Uttar_Pradesh,Lucknow,"Kukrail Picnic Spot-1, Lucknow - UPPCB",20-09-2025 14:00:00,26.90723,80.98579,PM10,28,47,36
India,Uttar_Pradesh,Lucknow,"Kukrail Picnic Spot-1, Lucknow - UPPCB",20-09-2025 14:00:00,26.90723,80.98579,SO2,40,49,41
India,Uttar_Pradesh,Lucknow,"Kukrail Picnic Spot-1, Lucknow - UPPCB",20-09-2025 14:00:00,26.90723,80.98579,OZONE,8,54,25
India,Uttar_Pradesh,Lucknow,"Lalbagh, Lucknow - CPCB",20-09-2025 14:00:00,26.8458805,80.9365541,PM10,74,500,155
India,Uttar_Pradesh,Prayagraj,"Nagar Nigam, Prayagraj - UPPCB",20-09-2025 14:00:00,25.44919916 ,81.82735986 ,CO,12,58,17
India,Uttar_Pradesh,Varanasi,"Ardhali Bazar, Varanasi - UPPCB",20-09-2025 14:00:00,25.3505986,82.9083074,PM2.5,18,39,29
India,Uttar_Pradesh,Varanasi,"Ardhali Bazar, Varanasi - UPPCB",20-09-2025 14:00:00,25.3505986,82.9083074,SO2,18,18,18
India,Uttar_Pradesh,Varanasi,"Bhelupur, Varanasi - UPPCB",20-09-2025 14:00:00,25.301778,82.996789,NO2,NA,NA,NA
India,Uttar_Pradesh,Varanasi,"Bhelupur, Varanasi - UPPCB",20-09-2025 14:00:00,25.301778,82.996789,NH3,NA,NA,NA
India,Uttar_Pradesh,Varanasi,"Maldahiya, Varanasi - UPPCB",20-09-2025 14:00:00,25.32393,82.99687,PM10,21,339,71
India,Uttar_Pradesh,Vrindavan,"Omex Eternity, Vrindavan - UPPCB",20-09-2025 14:00:00,27.5714090,77.6557570,PM2.5,12,81,40
India,Uttar_Pradesh,Vrindavan,"Omex Eternity, Vrindavan - UPPCB",20-09-2025 14:00:00,27.5714090,77.6557570,PM10,31,116,77
India,Uttar_Pradesh,Vrindavan,"Omex Eternity, Vrindavan - UPPCB",20-09-2025 14:00:00,27.5714090,77.6557570,NH3,1,2,2
India,Uttar_Pradesh,Noida,"Sector-1, Noida - UPPCB",20-09-2025 14:00:00,28.5898,77.3101,PM2.5,39,153,76
India,Uttar_Pradesh,Noida,"Sector-116, Noida - UPPCB",20-09-2025 14:00:00,28.569230,77.393848,NH3,7,16,12
India,Uttar_Pradesh,Prayagraj,"Jhunsi, Prayagraj - UPPCB",20-09-2025 14:00:00,25.425602,81.917152,SO2,30,49,37
India,Uttar_Pradesh,Prayagraj,"Motilal Nehru NIT, Prayagraj - UPPCB",20-09-2025 14:00:00,25.494,81.863,PM2.5,15,38,24
India,Uttar_Pradesh,Prayagraj,"Motilal Nehru NIT, Prayagraj - UPPCB",20-09-2025 14:00:00,25.494,81.863,CO,3,22,10
India,Uttar_Pradesh,Prayagraj,"Nagar Nigam, Prayagraj - UPPCB",20-09-2025 14:00:00,25.44919916 ,81.82735986 ,PM10,22,88,42
India,Uttar_Pradesh,Lucknow,"Lalbagh, Lucknow - CPCB",20-09-2025 14:00:00,26.8458805,80.9365541,OZONE,17,60,31
India,Uttar_Pradesh,Meerut,"Ganga Nagar, Meerut - UPPCB",20-09-2025 14:00:00,28.999264,77.7590354,NO2,29,43,38
India,Uttar_Pradesh,Meerut,"Jai Bhim Nagar, Meerut - UPPCB",20-09-2025 14:00:00,28.9535882,77.7622941,PM2.5,27,86,57
India,Uttar_Pradesh,Meerut,"Jai Bhim Nagar, Meerut - UPPCB",20-09-2025 14:00:00,28.9535882,77.7622941,PM10,54,163,117
India,Uttar_Pradesh,Meerut,"Jai Bhim Nagar, Meerut - UPPCB",20-09-2025 14:00:00,28.9535882,77.7622941,CO,26,46,38
India,Uttar_Pradesh,Meerut,"Pallavpuram Phase 2, Meerut - UPPCB",20-09-2025 14:00:00,29.063510,77.709723,CO,22,53,31
India,Uttar_Pradesh,Moradabad,"Buddhi Vihar, Moradabad - UPPCB",20-09-2025 14:00:00,28.83526,78.74460,NO2,NA,NA,NA
India,Uttar_Pradesh,Moradabad,"Eco Herbal Park, Moradabad - UPPCB",20-09-2025 14:00:00,28.840739,78.697531,PM2.5,50,114,72
India,Uttar_Pradesh,Moradabad,"Eco Herbal Park, Moradabad - UPPCB",20-09-2025 14:00:00,28.840739,78.697531,CO,30,62,37
India,Uttar_Pradesh,Moradabad,"Employment Office, Moradabad - UPPCB",20-09-2025 14:00:00,28.88528,78.73880,PM10,72,136,110
India,Uttar_Pradesh,Moradabad,"Jigar Colony, Moradabad - UPPCB",20-09-2025 14:00:00,28.856664,78.772638,CO,40,42,41
India,Uttar_Pradesh,Moradabad,"Jigar Colony, Moradabad - UPPCB",20-09-2025 14:00:00,28.856664,78.772638,OZONE,18,23,19
India,Uttar_Pradesh,Moradabad,"Kashiram Nagar, Moradabad - UPPCB",20-09-2025 14:00:00,28.849399,78.742362,SO2,38,71,57
India,Uttar_Pradesh,Moradabad,"Kashiram Nagar, Moradabad - UPPCB",20-09-2025 14:00:00,28.849399,78.742362,CO,17,28,21
India,Uttar_Pradesh,Moradabad,"Transport Nagar, Moradabad - UPPCB",20-09-2025 14:00:00,28.802625,78.753728,CO,36,59,55
India,Uttar_Pradesh,Muzaffarnagar,"New Mandi, Muzaffarnagar - UPPCB",20-09-2025 14:00:00,29.4723508,77.7194031,OZONE,11,83,44
India,Uttar_Pradesh,Noida,"Sector - 125, Noida - UPPCB",20-09-2025 14:00:00,28.5447608,77.3231257,SO2,6,16,10
India,Uttarakhand,Kashipur,"Govt. Girls Inter College, Kashipur - UKPCB",20-09-2025 14:00:00,29.2124114,78.9611753,CO,14,22,19
India,West_Bengal,Asansol,"Asansol Court Area, Asansol - WBPCB",20-09-2025 14:00:00,23.685297,86.945968,NO2,24,78,40
India,West_Bengal,Asansol,"Asansol Court Area, Asansol - WBPCB",20-09-2025 14:00:00,23.685297,86.945968,CO,27,57,40
India,West_Bengal,Asansol,"Evelyn Lodge, Asansol - WBPCB",20-09-2025 14:00:00,23.6979360,86.9443950,NO2,3,17,9
India,West_Bengal,Asansol,"Evelyn Lodge, Asansol - WBPCB",20-09-2025 14:00:00,23.6979360,86.9443950,SO2,4,5,4
India,Uttar_Pradesh,Jhansi,"Shivaji Nagar, Jhansi - UPPCB",20-09-2025 14:00:00,25.4547,78.6039,NO2,6,6,6
India,Uttar_Pradesh,Jhansi,"Shivaji Nagar, Jhansi - UPPCB",20-09-2025 14:00:00,25.4547,78.6039,CO,8,52,8
India,Uttar_Pradesh,Kanpur,"FTI Kidwai Nagar, Kanpur - UPPCB",20-09-2025 14:00:00,26.428282,80.327067,CO,47,53,49
India,Uttar_Pradesh,Kanpur,"NSI Kalyanpur, Kanpur - UPPCB",20-09-2025 14:00:00,26.509954,80.249612,PM2.5,19,114,53
India,Uttar_Pradesh,Kanpur,"NSI Kalyanpur, Kanpur - UPPCB",20-09-2025 14:00:00,26.509954,80.249612,NO2,16,17,16
India,Uttar_Pradesh,Hapur,"Anand Vihar, Hapur - UPPCB",20-09-2025 14:00:00,28.725645,77.749675,NO2,2,58,32
India,West_Bengal,Asansol,"Mahabir Colliery, Asansol - WBPCB",20-09-2025 14:00:00,23.6181830,87.1057180,NH3,1,2,2
India,West_Bengal,Asansol,"Mahabir Colliery, Asansol - WBPCB",20-09-2025 14:00:00,23.6181830,87.1057180,CO,44,110,88
India,West_Bengal,Asansol,"Trivenidevi Bhalotia College, Asansol - WBPCB",20-09-2025 14:00:00,23.616515,87.119133,NH3,1,1,1
India,West_Bengal,Barrackpore,"SVSPA Campus, Barrackpore - WBPCB",20-09-2025 14:00:00,22.7605581,88.3617589,PM2.5,47,63,55
India,West_Bengal,Durgapur,"PCBL Residential Complex, Durgapur - WBPCB",20-09-2025 14:00:00,23.5087640,87.3544400,PM10,NA,NA,NA
India,West_Bengal,Durgapur,"PCBL Residential Complex, Durgapur - WBPCB",20-09-2025 14:00:00,23.5087640,87.3544400,NO2,NA,NA,NA
India,West_Bengal,Durgapur,"Womens College_City Center, Durgapur - WBPCB (Formerly known as Sidhu Kanhu Indoor Stadium)",20-09-2025 14:00:00,23.549395,87.300496,PM10,46,99,78
India,West_Bengal,Haldia,"Priyambada Housing Estate, Haldia - WBPCB",20-09-2025 14:00:00,22.06047,88.109737,NO2,7,22,12
India,West_Bengal,Howrah,"Belur Math, Howrah - WBPCB",20-09-2025 14:00:00,22.629801,88.352017,NO2,6,11,9
India,West_Bengal,Howrah,"Botanical Garden, Howrah - WBPCB",20-09-2025 14:00:00,22.554954,88.292568,CO,68,77,71
India,West_Bengal,Howrah,"Dasnagar, Howrah - WBPCB",20-09-2025 14:00:00,22.6025571,88.3105664,CO,36,130,53
India,West_Bengal,Howrah,"Dasnagar, Howrah - WBPCB",20-09-2025 14:00:00,22.6025571,88.3105664,OZONE,2,58,22
India,West_Bengal,Howrah,"Ghusuri, Howrah - WBPCB",20-09-2025 14:00:00,22.611968,88.347422,PM10,60,441,126
India,West_Bengal,Howrah,"Ghusuri, Howrah - WBPCB",20-09-2025 14:00:00,22.611968,88.347422,SO2,6,10,8
India,West_Bengal,Howrah,"Padmapukur, Howrah - WBPCB",20-09-2025 14:00:00,22.5687319,88.2797276,PM10,62,102,80
India,West_Bengal,Kolkata,"Bidhannagar, Kolkata - WBPCB",20-09-2025 14:00:00,22.58157048,88.41002457,NO2,10,17,14
India,West_Bengal,Kolkata,"Jadavpur, Kolkata - WBPCB",20-09-2025 14:00:00,22.49929,88.36917,PM10,57,83,68
India,West_Bengal,Kolkata,"Rabindra Sarobar, Kolkata - WBPCB",20-09-2025 14:00:00,22.51106,88.35142,CO,14,30,17
India,West_Bengal,Kolkata,"Victoria, Kolkata - WBPCB",20-09-2025 14:00:00,22.5448082,88.3403691,OZONE,17,42,26
India,West_Bengal,Siliguri,"Ward-32 Bapupara, Siliguri - WBPCB",20-09-2025 14:00:00,26.6879226,88.4152495,PM10,32,65,49
India,West_Bengal,Siliguri,"Ward-32 Bapupara, Siliguri - WBPCB",20-09-2025 14:00:00,26.6879226,88.4152495,SO2,10,13,11
India,Andhra_Pradesh,Vijayawada,"Rajiv Nagar, Vijayawada - APPCB",20-09-2025 14:00:00,16.554731,80.649110,OZONE,63,86,67
India,Andhra_Pradesh,Visakhapatnam,"GVM Corporation, Visakhapatnam - APPCB",20-09-2025 14:00:00,17.72,83.3,CO,6,82,22
India,Arunachal_Pradesh,Naharlagun,"Naharlagun, Naharlagun - APSPCB",20-09-2025 14:00:00,27.103358,93.679645,CO,8,20,9
India,Arunachal_Pradesh,Naharlagun,"Naharlagun, Naharlagun - APSPCB",20-09-2025 14:00:00,27.103358,93.679645,OZONE,4,5,5
India,Assam,Guwahati,"IITG, Guwahati - PCBA",20-09-2025 14:00:00,26.2028636,91.70046436,PM10,14,72,44
India,Assam,Guwahati,"IITG, Guwahati - PCBA",20-09-2025 14:00:00,26.2028636,91.70046436,SO2,20,26,23
India,Assam,Guwahati,"IITG, Guwahati - PCBA",20-09-2025 14:00:00,26.2028636,91.70046436,CO,2,14,7
India,Assam,Guwahati,"IITG, Guwahati - PCBA",20-09-2025 14:00:00,26.2028636,91.70046436,OZONE,2,36,18
India,Bihar,Aurangabad,"Gurdeo Nagar, Aurangabad - BSPCB",20-09-2025 14:00:00,24.75746,84.366208,OZONE,5,17,9
India,Bihar,Begusarai,"Lohiyanagar, Begusarai - BSPCB",20-09-2025 14:00:00,25.42742023,86.13886079,NO2,9,20,15
India,Bihar,Begusarai,"Lohiyanagar, Begusarai - BSPCB",20-09-2025 14:00:00,25.42742023,86.13886079,NH3,3,4,4
India,Bihar,Begusarai,"Lohiyanagar, Begusarai - BSPCB",20-09-2025 14:00:00,25.42742023,86.13886079,CO,8,92,57
India,Bihar,Bettiah,"Kamalnath Nagar, Bettiah - BSPCB",20-09-2025 14:00:00,26.80365,84.51954,PM10,2,34,12
India,Bihar,Bhagalpur,"DM Office_Kachari Chowk, Bhagalpur - BSPCB",20-09-2025 14:00:00,25.251013,86.989001,NH3,4,7,6
India,Bihar,Bhagalpur,"Mayaganj, Bhagalpur - BSPCB",20-09-2025 14:00:00,25.265194,87.012947,NO2,5,10,10
India,Bihar,Bhagalpur,"Mayaganj, Bhagalpur - BSPCB",20-09-2025 14:00:00,25.265194,87.012947,NH3,6,10,7
India,Andhra_Pradesh,Amaravati,"Secretariat, Amaravati - APPCB",20-09-2025 14:00:00,16.5150833,80.5181667,SO2,9,13,11
India,Andhra_Pradesh,Anantapur,"Gulzarpet, Anantapur - APPCB",20-09-2025 14:00:00,14.675886,77.593027,PM10,45,73,64
India,Andhra_Pradesh,Anantapur,"Gulzarpet, Anantapur - APPCB",20-09-2025 14:00:00,14.675886,77.593027,NH3,2,4,4
India,Andhra_Pradesh,Anantapur,"Gulzarpet, Anantapur - APPCB",20-09-2025 14:00:00,14.675886,77.593027,CO,2,51,11
India,Andhra_Pradesh,Anantapur,"Gulzarpet, Anantapur - APPCB",20-09-2025 14:00:00,14.675886,77.593027,OZONE,7,13,10
India,Andhra_Pradesh,Chittoor,"Gangineni Cheruvu, Chittoor - APPCB",20-09-2025 14:00:00,13.204880,79.097889,PM2.5,60,95,81
India,Andhra_Pradesh,Chittoor,"Gangineni Cheruvu, Chittoor - APPCB",20-09-2025 14:00:00,13.204880,79.097889,NH3,6,8,7
India,Andhra_Pradesh,Kadapa,"Yerramukkapalli, Kadapa - APPCB",20-09-2025 14:00:00,14.465052,78.824187,NH3,4,6,5
India,Bihar,Gaya,"Kareemganj, Gaya - BSPCB",20-09-2025 14:00:00,24.792403,84.992416,OZONE,1,58,17
India,Bihar,Gaya,"SFTI Kusdihra, Gaya - BSPCB",20-09-2025 14:00:00,24.762518,84.982348,NO2,16,19,18
India,Bihar,Hajipur,"Industrial Area, Hajipur - BSPCB",20-09-2025 14:00:00,25.697189,85.245900,NO2,2,9,4
India,Bihar,Kishanganj,"SDM Office_Khagra, Kishanganj - BSPCB",20-09-2025 14:00:00,26.0881305,87.93840336,OZONE,15,18,17
India,Bihar,Manguraha,"Forest Rest House, Manguraha - BSPCB",20-09-2025 14:00:00,27.308328,84.531742,NH3,1,1,1
India,Andhra_Pradesh,Tirumala,"Toll Gate, Tirumala - APPCB",20-09-2025 14:00:00,13.67,79.35,PM2.5,15,39,25
India,Andhra_Pradesh,Tirumala,"Toll Gate, Tirumala - APPCB",20-09-2025 14:00:00,13.67,79.35,OZONE,8,14,10
India,Andhra_Pradesh,Tirupati,"Vaikuntapuram, Tirupati - APPCB",20-09-2025 14:00:00,13.615387,79.409230,SO2,20,23,21
India,Andhra_Pradesh,Vijayawada,"HB Colony, Vijayawada - APPCB",20-09-2025 14:00:00,16.536107,80.594233,NO2,20,28,21
India,Andhra_Pradesh,Vijayawada,"HB Colony, Vijayawada - APPCB",20-09-2025 14:00:00,16.536107,80.594233,SO2,7,17,15
India,Andhra_Pradesh,Vijayawada,"Rajiv Nagar, Vijayawada - APPCB",20-09-2025 14:00:00,16.554731,80.649110,PM10,38,50,46
India,Assam,Sivasagar,"Girls College, Sivasagar - PCBA",20-09-2025 14:00:00,26.987634,94.636574,SO2,8,11,9
India,Bihar,Araria,"Kharahiya Basti, Araria - BSPCB",20-09-2025 14:00:00,26.146529,87.454184,OZONE,10,11,10
India,Bihar,Arrah,"New DM Office, Arrah - BSPCB",20-09-2025 14:00:00,25.5626095,84.663264,SO2,7,10,10
India,Bihar,Aurangabad,"Gurdeo Nagar, Aurangabad - BSPCB",20-09-2025 14:00:00,24.75746,84.366208,PM10,44,275,98
India,Bihar,Motihari,"Gandak Colony, Motihari - BSPCB",20-09-2025 14:00:00,26.63086,84.90051,PM10,NA,NA,NA
India,Bihar,Motihari,"Gandak Colony, Motihari - BSPCB",20-09-2025 14:00:00,26.63086,84.90051,CO,15,24,17
India,Bihar,Munger,"Town Hall, Munger - BSPCB",20-09-2025 14:00:00,25.376776,86.471523,NO2,4,5,5
India,Bihar,Munger,"Town Hall, Munger - BSPCB",20-09-2025 14:00:00,25.376776,86.471523,SO2,1,18,13
India,Bihar,Muzaffarpur,"Buddha Colony, Muzaffarpur - BSPCB",20-09-2025 14:00:00,26.11442,85.39813,NH3,4,4,4
India,Assam,Guwahati,"Pan Bazaar, Guwahati - PCBA",20-09-2025 14:00:00,26.187500,91.744194,PM2.5,18,107,53
India,Assam,Guwahati,"Railway Colony, Guwahati - PCBA",20-09-2025 14:00:00,26.181742,91.78063,SO2,28,28,28
India,Assam,Nalbari,"Bata Chowk, Nalbari - PCBA",20-09-2025 14:00:00,26.446912,91.439057,SO2,3,8,8
India,Bihar,Gaya,"Collectorate, Gaya - BSPCB",20-09-2025 14:00:00,24.7955,84.9994,CO,44,51,47
India,Bihar,Gaya,"Collectorate, Gaya - BSPCB",20-09-2025 14:00:00,24.7955,84.9994,OZONE,19,21,20
India,Andaman and Nicobar,Sri Vijaya Puram,"Police Line, Sri Vijaya Puram - ANPCC",20-09-2025 14:00:00,11.654054,92.734055,CO,10,20,17
India,Chhattisgarh,Bhilai,"32Bungalows, Bhilai - CECB",20-09-2025 14:00:00,21.194815,81.314770,SO2,6,8,7
India,Chhattisgarh,Bhilai,"32Bungalows, Bhilai - CECB",20-09-2025 14:00:00,21.194815,81.314770,CO,9,27,14
India,Chhattisgarh,Bhilai,"Civic Center, Bhilai - Bhilai Steel Plant",20-09-2025 14:00:00,21.185571,81.343175,PM10,39,77,56
India,Chhattisgarh,Bhilai,"Civic Center, Bhilai - Bhilai Steel Plant",20-09-2025 14:00:00,21.185571,81.343175,SO2,7,9,8
India,Chhattisgarh,Bhilai,"Hathkhoj, Bhilai - CECB",20-09-2025 14:00:00,21.224231,81.408350,SO2,6,9,7
India,Chhattisgarh,Bilaspur,"Mangala, Bilaspur - NTPC",20-09-2025 14:00:00,22.08815,82.13737,PM10,13,82,42
India,Chhattisgarh,Bilaspur,"Mangala, Bilaspur - NTPC",20-09-2025 14:00:00,22.08815,82.13737,SO2,15,22,17
India,Chhattisgarh,Chhal,"Nawapara SECL Colony, Chhal - CECB",20-09-2025 14:00:00,22.118125,83.140608,PM10,23,157,64
India,Bihar,Siwan,"Chitragupta Nagar, Siwan - BSPCB",20-09-2025 14:00:00,26.2271665,84.3570427,PM10,10,340,46
India,Bihar,Siwan,"Chitragupta Nagar, Siwan - BSPCB",20-09-2025 14:00:00,26.2271665,84.3570427,OZONE,2,5,4
India,Chandigarh,Chandigarh,"Sector 22, Chandigarh - CPCC",20-09-2025 14:00:00,30.735567,76.775714,NH3,17,33,26
India,Chandigarh,Chandigarh,"Sector 22, Chandigarh - CPCC",20-09-2025 14:00:00,30.735567,76.775714,OZONE,5,58,30
India,Chandigarh,Chandigarh,"Sector-25, Chandigarh - CPCC",20-09-2025 14:00:00,30.751462,76.762879,CO,16,28,22
India,Chandigarh,Chandigarh,"Sector-53, Chandigarh - CPCC",20-09-2025 14:00:00,30.719859,76.738637,PM2.5,NA,NA,NA
India,Chandigarh,Chandigarh,"Sector-53, Chandigarh - CPCC",20-09-2025 14:00:00,30.719859,76.738637,OZONE,33,36,35
India,Delhi,Delhi,"IHBAS, Dilshad Garden, Delhi - CPCB",20-09-2025 14:00:00,28.6811736,77.3025234,PM10,24,104,85
India,Delhi,Delhi,"IHBAS, Dilshad Garden, Delhi - CPCB",20-09-2025 14:00:00,28.6811736,77.3025234,CO,25,40,30
India,Delhi,Delhi,"ITO, Delhi - CPCB",20-09-2025 14:00:00,28.628624,77.241060,NH3,4,5,5
India,Delhi,Delhi,"Jahangirpuri, Delhi - DPCC",20-09-2025 14:00:00,28.732820,77.170633,PM2.5,78,307,183
India,Delhi,Delhi,"Jahangirpuri, Delhi - DPCC",20-09-2025 14:00:00,28.732820,77.170633,PM10,105,197,136
India,Delhi,Delhi,"Jahangirpuri, Delhi - DPCC",20-09-2025 14:00:00,28.732820,77.170633,SO2,6,17,10
India,Delhi,Delhi,"Jawaharlal Nehru Stadium, Delhi - DPCC",20-09-2025 14:00:00,28.580280,77.233829,NO2,35,96,63
India,Chhattisgarh,Korba,"Rampur, Korba - CECB",20-09-2025 14:00:00,22.368195,82.746431,SO2,7,19,9
India,Chhattisgarh,Korba,"Urja Nagar, Korba - CECB",20-09-2025 14:00:00,22.348441,82.549611,PM2.5,16,22,17
India,Chhattisgarh,Kunjemura,"OP Jindal School, Kunjemura - CECB",20-09-2025 14:00:00,22.126650,83.483212,CO,26,46,38
India,Chhattisgarh,Kunjemura,"OP Jindal School, Kunjemura - CECB",20-09-2025 14:00:00,22.126650,83.483212,OZONE,1,4,3
India,Chhattisgarh,Raipur,"AIIMS, Raipur - CECB",20-09-2025 14:00:00,21.258815,81.578979,PM10,24,45,35
India,Chhattisgarh,Raipur,"AIIMS, Raipur - CECB",20-09-2025 14:00:00,21.258815,81.578979,OZONE,5,14,9
India,Delhi,Delhi,"CRRI Mathura Road, Delhi - IMD",20-09-2025 14:00:00,28.5512005,77.2735737,PM10,99,231,149
India,Delhi,Delhi,"Chandni Chowk, Delhi - IITM",20-09-2025 14:00:00,28.656756,77.227234,NO2,24,69,46
India,Delhi,Delhi,"Chandni Chowk, Delhi - IITM",20-09-2025 14:00:00,28.656756,77.227234,OZONE,2,61,34
India,Delhi,Delhi,"Dr. Karni Singh Shooting Range, Delhi - DPCC",20-09-2025 14:00:00,28.498571,77.264840,PM2.5,42,150,82
India,Delhi,Delhi,"Dwarka-Sector 8, Delhi - DPCC ",20-09-2025 14:00:00,28.5710274,77.0719006,PM10,101,218,156
India,Chhattisgarh,Raipur,"Krishak Nagar, Raipur - CECB",20-09-2025 14:00:00,21.237755,81.705301,PM2.5,21,35,29
India,Chhattisgarh,Raipur,"Krishak Nagar, Raipur - CECB",20-09-2025 14:00:00,21.237755,81.705301,SO2,5,8,6
India,Chhattisgarh,Raipur,"Siltara Phase-II, Raipur - CECB",20-09-2025 14:00:00,21.371751,81.664929,PM2.5,24,39,31
India,Chhattisgarh,Raipur,"Siltara Phase-II, Raipur - CECB",20-09-2025 14:00:00,21.371751,81.664929,PM10,39,133,73
India,Delhi,Delhi,"Alipur, Delhi - DPCC",20-09-2025 14:00:00,28.815329,77.153010,NO2,16,42,27
India,Delhi,Delhi,"Alipur, Delhi - DPCC",20-09-2025 14:00:00,28.815329,77.153010,SO2,1,6,3
India,Bihar,Patna,"DRM Office Danapur, Patna - BSPCB",20-09-2025 14:00:00,25.586562,85.043586,NO2,29,36,32
India,Bihar,Patna,"Govt. High School Shikarpur, Patna - BSPCB",20-09-2025 14:00:00,25.592539,85.227158,PM2.5,NA,NA,NA
India,Bihar,Patna,"Govt. High School Shikarpur, Patna - BSPCB",20-09-2025 14:00:00,25.592539,85.227158,NO2,14,18,16
India,Bihar,Patna,"IGSC Planetarium Complex, Patna - BSPCB",20-09-2025 14:00:00,25.610369,85.132568,NO2,NA,NA,NA
India,Bihar,Patna,"Rajbansi Nagar, Patna - BSPCB",20-09-2025 14:00:00,25.599486,85.113666,NO2,NA,NA,NA
India,Bihar,Patna,"Rajbansi Nagar, Patna - BSPCB",20-09-2025 14:00:00,25.599486,85.113666,NH3,NA,NA,NA
India,Delhi,Delhi,"Ashok Vihar, Delhi - DPCC",20-09-2025 14:00:00,28.695381,77.181665,PM10,107,238,136
India,Delhi,Delhi,"Ashok Vihar, Delhi - DPCC",20-09-2025 14:00:00,28.695381,77.181665,OZONE,2,48,24
India,Delhi,Delhi,"Bawana, Delhi - DPCC",20-09-2025 14:00:00,28.776200,77.051074,PM2.5,45,297,90
India,Delhi,Delhi,"Bawana, Delhi - DPCC",20-09-2025 14:00:00,28.776200,77.051074,CO,90,103,99
India,Delhi,Delhi,"CRRI Mathura Road, Delhi - IMD",20-09-2025 14:00:00,28.5512005,77.2735737,PM2.5,30,152,67
India,Bihar,Patna,"Rajbansi Nagar, Patna - BSPCB",20-09-2025 14:00:00,25.599486,85.113666,CO,NA,NA,NA
India,Bihar,Patna,"Rajbansi Nagar, Patna - BSPCB",20-09-2025 14:00:00,25.599486,85.113666,OZONE,NA,NA,NA
India,Bihar,Purnia,"Mariam Nagar, Purnia - BSPCB",20-09-2025 14:00:00,25.366336,87.117468,PM2.5,12,48,32
India,Bihar,Rajgir,"Dangi Tola, Rajgir - BSPCB",20-09-2025 14:00:00,25.03280,85.41948,OZONE,25,47,32
India,Delhi,Delhi,"Major Dhyan Chand National Stadium, Delhi - DPCC",20-09-2025 14:00:00,28.611281,77.237738,PM10,103,177,125
India,Delhi,Delhi,"Major Dhyan Chand National Stadium, Delhi - DPCC",20-09-2025 14:00:00,28.611281,77.237738,OZONE,2,63,24
India,Delhi,Delhi,"Mandir Marg, Delhi - DPCC",20-09-2025 14:00:00,28.636429,77.201067,NO2,2,11,4
India,Delhi,Delhi,"Mandir Marg, Delhi - DPCC",20-09-2025 14:00:00,28.636429,77.201067,SO2,1,25,12
India,Delhi,Delhi,"Mandir Marg, Delhi - DPCC",20-09-2025 14:00:00,28.636429,77.201067,OZONE,7,124,57
India,Delhi,Delhi,"Mundka, Delhi - DPCC",20-09-2025 14:00:00,28.684678,77.076574,NH3,3,5,4
India,Delhi,Delhi,"NSIT Dwarka, Delhi - CPCB",20-09-2025 14:00:00,28.60909,77.0325413,PM10,74,113,93
India,Delhi,Delhi,"Najafgarh, Delhi - DPCC",20-09-2025 14:00:00,28.570173,76.933762,NO2,4,57,18
India,Delhi,Delhi,"Narela, Delhi - DPCC",20-09-2025 14:00:00,28.822836,77.101981,NH3,12,38,18
India,Delhi,Delhi,"Nehru Nagar, Delhi - DPCC",20-09-2025 14:00:00,28.567890,77.250515,NO2,13,40,26
India,Delhi,Delhi,"Nehru Nagar, Delhi - DPCC",20-09-2025 14:00:00,28.567890,77.250515,NH3,4,14,5
India,Delhi,Delhi,"Okhla Phase-2, Delhi - DPCC",20-09-2025 14:00:00,28.530785,77.271255,PM2.5,32,107,61
India,Delhi,Delhi,"Okhla Phase-2, Delhi - DPCC",20-09-2025 14:00:00,28.530785,77.271255,SO2,4,7,5
India,Delhi,Delhi,"Okhla Phase-2, Delhi - DPCC",20-09-2025 14:00:00,28.530785,77.271255,OZONE,7,85,38
India,Delhi,Delhi,"Rohini, Delhi - DPCC",20-09-2025 14:00:00,28.732528,77.119920,NO2,2,22,10
India,Delhi,Delhi,"Rohini, Delhi - DPCC",20-09-2025 14:00:00,28.732528,77.119920,SO2,2,3,3
India,Delhi,Delhi,"Rohini, Delhi - DPCC",20-09-2025 14:00:00,28.732528,77.119920,OZONE,11,26,21
India,Delhi,Delhi,"Shadipur, Delhi - CPCB",20-09-2025 14:00:00,28.6514781,77.1473105,NO2,56,155,85
India,Delhi,Delhi,"Shadipur, Delhi - CPCB",20-09-2025 14:00:00,28.6514781,77.1473105,OZONE,4,9,7
India,Delhi,Delhi,"Sonia Vihar, Delhi - DPCC",20-09-2025 14:00:00,28.710508,77.249485,NH3,5,8,7
India,Delhi,Delhi,"Vivek Vihar, Delhi - DPCC",20-09-2025 14:00:00,28.672342,77.315260,NH3,3,6,5
India,Delhi,Delhi,"Vivek Vihar, Delhi - DPCC",20-09-2025 14:00:00,28.672342,77.315260,SO2,11,36,20
India,Delhi,Delhi,"Vivek Vihar, Delhi - DPCC",20-09-2025 14:00:00,28.672342,77.315260,CO,5,53,36
India,Gujarat,Ahmedabad,"Chandkheda, Ahmedabad - IITM",20-09-2025 14:00:00,23.107969,72.574648,SO2,4,15,11
India,Gujarat,Ahmedabad,"Gyaspur, Ahmedabad - IITM",20-09-2025 14:00:00,22.977134,72.553024,CO,32,50,37
India,Gujarat,Ahmedabad,"SAC ISRO Satellite, Ahmedabad - IITM",20-09-2025 14:00:00,23.023389,72.515201,NO2,13,72,26
India,Gujarat,Ahmedabad,"SVPI Airport Hansol, Ahmedabad - IITM",20-09-2025 14:00:00,23.076793,72.627874,NH3,1,2,1
India,Gujarat,Ahmedabad,"SVPI Airport Hansol, Ahmedabad - IITM",20-09-2025 14:00:00,23.076793,72.627874,SO2,3,101,14
India,Gujarat,Ankleshwar,"GIDC, Ankleshwar - GPCB",20-09-2025 14:00:00,21.613267,73.010555,NH3,NA,NA,NA
India,Gujarat,Ankleshwar,"GIDC, Ankleshwar - GPCB",20-09-2025 14:00:00,21.613267,73.010555,SO2,NA,NA,NA
India,Gujarat,Ahmedabad,"Rakhial, Ahmedabad - IITM",20-09-2025 14:00:00,23.016834,72.625775,NH3,1,8,5
India,Gujarat,Ahmedabad,"Rakhial, Ahmedabad - IITM",20-09-2025 14:00:00,23.016834,72.625775,CO,109,152,142
India,Gujarat,Ahmedabad,"SAC ISRO Bopal, Ahmedabad - IITM",20-09-2025 14:00:00,23.041137,72.456691,PM2.5,33,193,67
India,Gujarat,Ahmedabad,"SAC ISRO Bopal, Ahmedabad - IITM",20-09-2025 14:00:00,23.041137,72.456691,NH3,2,3,3
India,Gujarat,Ahmedabad,"SAC ISRO Bopal, Ahmedabad - IITM",20-09-2025 14:00:00,23.041137,72.456691,CO,13,30,19
India,Delhi,Delhi,"Patparganj, Delhi - DPCC",20-09-2025 14:00:00,28.623763,77.287209,OZONE,1,61,26
India,Delhi,Delhi,"Pusa, Delhi - DPCC",20-09-2025 14:00:00,28.639652,77.146275,NH3,6,13,8
India,Delhi,Delhi,"R K Puram, Delhi - DPCC",20-09-2025 14:00:00,28.563262,77.186937,OZONE,15,67,39
India,Gujarat,Gandhinagar,"IIPHG Lekawada, Gandhinagar - IITM",20-09-2025 14:00:00,23.243639,72.68994,NH3,1,1,1
India,Gujarat,Gandhinagar,"IIPHG Lekawada, Gandhinagar - IITM",20-09-2025 14:00:00,23.243639,72.68994,SO2,1,10,2
India,Gujarat,Gandhinagar,"IIPHG Lekawada, Gandhinagar - IITM",20-09-2025 14:00:00,23.243639,72.68994,CO,23,66,34
India,Delhi,Delhi,"Sri Aurobindo Marg, Delhi - DPCC",20-09-2025 14:00:00,28.531346,77.190156,PM10,78,133,100
India,Karnataka,Bengaluru,"BTM Layout, Bengaluru - CPCB",20-09-2025 14:00:00,12.9135218,77.5950804,SO2,15,16,16
India,Karnataka,Bengaluru,"Bapuji Nagar, Bengaluru - KSPCB",20-09-2025 14:00:00,12.951913,77.539784,PM10,15,118,42
India,Karnataka,Bengaluru,"Bapuji Nagar, Bengaluru - KSPCB",20-09-2025 14:00:00,12.951913,77.539784,NH3,1,2,1
India,Karnataka,Bengaluru,"Hebbal, Bengaluru - KSPCB",20-09-2025 14:00:00,13.029152,77.585901,NO2,18,21,20
India,Karnataka,Bengaluru,"Hombegowda Nagar, Bengaluru - KSPCB",20-09-2025 14:00:00,12.938539,77.590100,NO2,6,26,12
India,Karnataka,Bengaluru,"Hombegowda Nagar, Bengaluru - KSPCB",20-09-2025 14:00:00,12.938539,77.590100,CO,6,32,12
India,Karnataka,Bengaluru,"Hombegowda Nagar, Bengaluru - KSPCB",20-09-2025 14:00:00,12.938539,77.590100,OZONE,1,15,7
India,Karnataka,Bengaluru,"Jayanagar 5th Block, Bengaluru - KSPCB",20-09-2025 14:00:00,12.920984,77.584908,PM2.5,12,31,21
India,Karnataka,Bengaluru,"Kasturi Nagar, Bengaluru - KSPCB",20-09-2025 14:00:00,13.003872,77.664217,PM10,NA,NA,NA
India,Karnataka,Bengaluru,"Kasturi Nagar, Bengaluru - KSPCB",20-09-2025 14:00:00,13.003872,77.664217,NO2,NA,NA,NA
India,Kerala,Thiruvananthapuram,"Kariavattom, Thiruvananthapuram - Kerala PCB",20-09-2025 14:00:00,8.563700,76.886500,OZONE,36,37,36
India,Kerala,Thiruvananthapuram,"Plammoodu, Thiruvananthapuram - Kerala PCB",20-09-2025 14:00:00,8.5149093,76.9435879,NO2,52,117,79
India,Kerala,Thiruvananthapuram,"Plammoodu, Thiruvananthapuram - Kerala PCB",20-09-2025 14:00:00,8.5149093,76.9435879,SO2,10,27,17
India,Kerala,Thiruvananthapuram,"Plammoodu, Thiruvananthapuram - Kerala PCB",20-09-2025 14:00:00,8.5149093,76.9435879,OZONE,14,17,15
India,Kerala,Thrissur,"Corporation Ground, Thrissur - Kerala PCB",20-09-2025 14:00:00,10.532400,76.215900,SO2,1,1,1
India,Madhya Pradesh,Bhopal,"Idgah Hills, Bhopal - MPPCB",20-09-2025 14:00:00,23.264759,77.381568,OZONE,14,49,33
India,Madhya Pradesh,Bhopal,"Paryavaran Parisar, Bhopal - MPPCB",20-09-2025 14:00:00,23.210494,77.425409,PM2.5,2,50,19
India,Madhya Pradesh,Bhopal,"Paryavaran Parisar, Bhopal - MPPCB",20-09-2025 14:00:00,23.210494,77.425409,OZONE,29,54,43
India,Karnataka,Hubballi,"Lingaraj Nagar, Hubballi - KSPCB",20-09-2025 14:00:00,15.3714823,75.1160168,SO2,1,1,1
India,Karnataka,Hubballi,"Lingaraj Nagar, Hubballi - KSPCB",20-09-2025 14:00:00,15.3714823,75.1160168,OZONE,11,19,17
India,Karnataka,Kalaburagi,"Lal Bahadur Shastri Nagar, Kalaburagi - KSPCB",20-09-2025 14:00:00,17.321993,76.822628,PM10,37,75,56
India,Karnataka,Kalaburagi,"Mahatma Basaveswar Colony, Kalaburgi - KSPCB",20-09-2025 14:00:00,17.336318,76.847397,OZONE,8,13,10
India,Karnataka,Karwar,"KHB Colony, Karwar - KSPCB",20-09-2025 14:00:00,14.816666,74.141003,NH3,1,1,1
India,Karnataka,Madikeri,"Stuart Hill, Madikeri - KSPCB",20-09-2025 14:00:00,12.415911,75.735050,PM2.5,16,29,24
India,Kerala,Kannur,"Thavakkara, Kannur - Kerala PCB",20-09-2025 14:00:00,11.875000,75.373200,NO2,15,18,16
India,Kerala,Kannur,"Thavakkara, Kannur - Kerala PCB",20-09-2025 14:00:00,11.875000,75.373200,NH3,2,2,2
India,Kerala,Kannur,"Thavakkara, Kannur - Kerala PCB",20-09-2025 14:00:00,11.875000,75.373200,CO,14,16,15
India,Kerala,Kollam,"Polayathode, Kollam - Kerala PCB",20-09-2025 14:00:00,8.8787,76.6073,PM10,NA,NA,NA
India,Kerala,Kollam,"Polayathode, Kollam - Kerala PCB",20-09-2025 14:00:00,8.8787,76.6073,SO2,NA,NA,NA
India,Kerala,Thiruvananthapuram,"Kariavattom, Thiruvananthapuram - Kerala PCB",20-09-2025 14:00:00,8.563700,76.886500,PM2.5,38,46,41
India,Kerala,Thiruvananthapuram,"Kariavattom, Thiruvananthapuram - Kerala PCB",20-09-2025 14:00:00,8.563700,76.886500,NO2,6,7,6
India,Kerala,Thiruvananthapuram,"Kariavattom, Thiruvananthapuram - Kerala PCB",20-09-2025 14:00:00,8.563700,76.886500,NH3,1,1,1
India,Karnataka,Mangalore,"Kadri, Mangalore - KSPCB",20-09-2025 14:00:00,12.889250,74.853000,OZONE,18,33,24
India,Karnataka,Mysuru,"Hebbal 1st Stage, Mysuru - KSPCB",20-09-2025 14:00:00,12.21041,76.37376,PM2.5,15,36,24
India,Karnataka,Ramanagara,"Vijay Nagar, Ramanagara - KSPCB",20-09-2025 14:00:00,12.733409,77.298051,PM2.5,NA,NA,NA
India,Karnataka,Ramanagara,"Vijay Nagar, Ramanagara - KSPCB",20-09-2025 14:00:00,12.733409,77.298051,NH3,NA,NA,NA
India,Karnataka,Ramanagara,"Vijay Nagar, Ramanagara - KSPCB",20-09-2025 14:00:00,12.733409,77.298051,CO,14,37,17
India,Karnataka,Vijayapura,"Ibrahimpur, Vijayapura - KSPCB",20-09-2025 14:00:00,16.802639,75.722694,PM2.5,30,38,37
India,Karnataka,Vijayapura,"Ibrahimpur, Vijayapura - KSPCB",20-09-2025 14:00:00,16.802639,75.722694,CO,12,122,23
India,Karnataka,Chikkamagaluru,"Kalyana Nagara, Chikkamagaluru - KSPCB",20-09-2025 14:00:00,13.328028,75.797056,OZONE,31,57,40
India,Karnataka,Dharwad,"Kalabhavan, Dharwad - KSPCB",20-09-2025 14:00:00,15.459706,75.008381,SO2,2,3,2
India,Karnataka,Dharwad,"Kalabhavan, Dharwad - KSPCB",20-09-2025 14:00:00,15.459706,75.008381,OZONE,9,22,15
India,Karnataka,Hassan,"B.Katihalli, Hassan - KSPCB",20-09-2025 14:00:00,13.008556,76.125258,NO2,9,15,12
India,Karnataka,Hubballi,"Lingaraj Nagar, Hubballi - KSPCB",20-09-2025 14:00:00,15.3714823,75.1160168,PM2.5,32,39,38
India,Gujarat,Gandhinagar,"IIPHG Lekawada, Gandhinagar - IITM",20-09-2025 14:00:00,23.243639,72.68994,OZONE,1,25,6
India,Gujarat,Gandhinagar,"Sector-10, Gandhinagar - GPCB",20-09-2025 14:00:00,23.221714,72.654328,NO2,11,11,11
India,Gujarat,Gandhinagar,"Sector-10, Gandhinagar - GPCB",20-09-2025 14:00:00,23.221714,72.654328,CO,15,40,19
India,Gujarat,Vapi,"Phase-1 GIDC, Vapi - GPCB",20-09-2025 14:00:00,20.362421,72.918013,PM2.5,24,125,55
India,Gujarat,Vapi,"Phase-1 GIDC, Vapi - GPCB",20-09-2025 14:00:00,20.362421,72.918013,OZONE,2,2,2
India,Karnataka,Bengaluru,"Sanegurava Halli, Bengaluru - KSPCB",20-09-2025 14:00:00,12.990328,77.5431385,PM10,39,46,40
India,Karnataka,Bengaluru,"Sanegurava Halli, Bengaluru - KSPCB",20-09-2025 14:00:00,12.990328,77.5431385,CO,20,34,26
India,Karnataka,Bengaluru,"Silk Board, Bengaluru - KSPCB",20-09-2025 14:00:00,12.917348,77.622813,PM10,24,194,99
India,Karnataka,Chikkaballapur,"Chikkaballapur Rural, Chikkaballapur - KSPCB",20-09-2025 14:00:00,13.428828,77.731418,PM2.5,NA,NA,NA
India,Haryana,Gurugram,"NISE Gwal Pahari, Gurugram - IMD",20-09-2025 14:00:00,28.422681,77.148944,NO2,4,15,8
India,Karnataka,Bagalkot,"Vidayagiri, Bagalkot - KSPCB",20-09-2025 14:00:00,16.172806,75.659694,PM2.5,33,34,34
India,Madhya Pradesh,Jabalpur,"Suhagi, Jabalpur - JMC",20-09-2025 14:00:00,23.218135,79.957770,SO2,6,11,8
India,Madhya Pradesh,Jabalpur,"Suhagi, Jabalpur - JMC",20-09-2025 14:00:00,23.218135,79.957770,CO,28,102,33
India,Madhya Pradesh,Katni,"Gole Bazar, Katni - MPPCB",20-09-2025 14:00:00,23.50016,80.23284,PM10,44,114,79
India,Madhya Pradesh,Katni,"Gole Bazar, Katni - MPPCB",20-09-2025 14:00:00,23.50016,80.23284,NO2,32,37,34
India,Madhya Pradesh,Katni,"Gole Bazar, Katni - MPPCB",20-09-2025 14:00:00,23.50016,80.23284,NH3,3,3,3
India,Madhya Pradesh,Pithampur,"Sector-2 Industrial Area, Pithampur - MPPCB",20-09-2025 14:00:00,22.624758,75.675238,PM10,23,110,65
India,Madhya Pradesh,Ratlam,"Shasthri Nagar, Ratlam - IPCA Lab",20-09-2025 14:00:00,23.331731,75.045981,SO2,27,29,28
India,Madhya Pradesh,Sagar,"Civil Lines, Sagar - MPPCB",20-09-2025 14:00:00,23.838586,78.759431,PM10,60,86,70
India,Madhya Pradesh,Gwalior,"Maharaj Bada, Gwalior - MPPCB",20-09-2025 14:00:00,26.200388,78.147714,SO2,5,10,7
India,Madhya Pradesh,Indore,"Airport Area, Indore - IMC",20-09-2025 14:00:00,22.7289,75.8076,CO,5,6,5
India,Madhya Pradesh,Indore,"Chhoti Gwaltoli, Indore - MPPCB",20-09-2025 14:00:00,22.4310,75.5213,SO2,12,15,13
India,Madhya Pradesh,Indore,"Chhoti Gwaltoli, Indore - MPPCB",20-09-2025 14:00:00,22.4310,75.5213,OZONE,17,51,45
India,Madhya Pradesh,Indore,"Maguda Nagar, Indore - IMC",20-09-2025 14:00:00,22.7524,75.8872,SO2,37,41,39
India,Madhya Pradesh,Indore,"Maguda Nagar, Indore - IMC",20-09-2025 14:00:00,22.7524,75.8872,CO,17,26,21
India,Madhya Pradesh,Indore,"Regional Park, Indore - IMC",20-09-2025 14:00:00,22.6780,75.8559,NO2,11,17,13
India,Maharashtra,Akola,"Ramdaspeth, Akola - MPCB",20-09-2025 14:00:00,20.719516,77.000253,CO,5,22,8
India,Maharashtra,Amravati,"Shivneri Colony, Amravati - MPCB",20-09-2025 14:00:00,20.9402359,77.7895248,NH3,2,2,2
India,Maharashtra,Amravati,"Shri Shivaji Science College, Amravati - MPCB",20-09-2025 14:00:00,20.939198,77.765701,NO2,3,36,12
India,Maharashtra,Amravati,"Shri Shivaji Science College, Amravati - MPCB",20-09-2025 14:00:00,20.939198,77.765701,SO2,1,6,2
India,Maharashtra,Amravati,"Shri Shivaji Science College, Amravati - MPCB",20-09-2025 14:00:00,20.939198,77.765701,OZONE,1,37,24
India,Maharashtra,Aurangabad,"MIDC Chilkalthana, Aurangabad - MPCB",20-09-2025 14:00:00,19.875620,75.387310,SO2,NA,NA,NA
India,Madhya Pradesh,Satna,"Bandhavgar Colony, Satna - Birla Cement",20-09-2025 14:00:00,24.58434363,80.8549414,SO2,18,19,18
India,Madhya Pradesh,Singrauli,"Suryakiran Bhawan NCL, Singrauli - MPPCB",20-09-2025 14:00:00,24.108970,82.645580,PM10,28,87,53
India,Madhya Pradesh,Singrauli,"Suryakiran Bhawan NCL, Singrauli - MPPCB",20-09-2025 14:00:00,24.108970,82.645580,OZONE,11,47,29
India,Maharashtra,Ahmednagar,"Tarakpur, Ahmednagar - MPCB",20-09-2025 14:00:00,19.10122,74.73339,PM2.5,1,39,15
India,Maharashtra,Akola,"Ramdaspeth, Akola - MPCB",20-09-2025 14:00:00,20.719516,77.000253,NO2,12,30,18
India,Madhya Pradesh,Indore,"Regional Park, Indore - IMC",20-09-2025 14:00:00,22.6780,75.8559,CO,18,28,19
India,Madhya Pradesh,Indore,"Residency Area, Indore - IMC",20-09-2025 14:00:00,22.7084,75.8815,SO2,25,26,26
India,Madhya Pradesh,Jabalpur,"Govindh Bhavan Colony, Jabalpur - JMC",20-09-2025 14:00:00,23.163174,79.973061,PM2.5,23,60,40
India,Madhya Pradesh,Jabalpur,"Suhagi, Jabalpur - JMC",20-09-2025 14:00:00,23.218135,79.957770,PM10,20,113,69
India,Madhya Pradesh,Jabalpur,"Suhagi, Jabalpur - JMC",20-09-2025 14:00:00,23.218135,79.957770,NO2,25,54,34
India,Maharashtra,Boisar,"Khaira, Boisar - MPCB",20-09-2025 14:00:00,19.786089,72.757971,SO2,NA,NA,NA
India,Maharashtra,Chandrapur,"Chauhan Colony, Chandrapur - MPCB",20-09-2025 14:00:00,19.962900,79.298714,CO,24,32,28
India,Maharashtra,Dhule,"Deopur, Dhule - MPCB",20-09-2025 14:00:00,20.918946,74.776388,PM2.5,24,55,40
India,Maharashtra,Dhule,"Deopur, Dhule - MPCB",20-09-2025 14:00:00,20.918946,74.776388,PM10,38,78,57
India,Maharashtra,Jalgaon,"Prabhat Colony, Jalgaon - MPCB",20-09-2025 14:00:00,21.001264,75.565602,NO2,5,11,7
India,Maharashtra,Jalna,"Old MIDC, Jalna - MPCB",20-09-2025 14:00:00,19.854616,75.905894,PM10,15,79,45
India,Maharashtra,Kalyan,"Khadakpada, Kalyan - MPCB",20-09-2025 14:00:00,19.25292,73.142019,PM2.5,24,165,55
India,Maharashtra,Kalyan,"Khadakpada, Kalyan - MPCB",20-09-2025 14:00:00,19.25292,73.142019,PM10,36,166,79
India,Maharashtra,Kolhapur,"Sinchan Bhavan, Kolhapur - MPCB",20-09-2025 14:00:00,16.7143745,74.2426398,PM10,NA,NA,NA
India,Maharashtra,Kolhapur,"Sinchan Bhavan, Kolhapur - MPCB",20-09-2025 14:00:00,16.7143745,74.2426398,OZONE,18,22,20
India,Maharashtra,Aurangabad,"Rachnakar Colony, Aurangabad - MPCB",20-09-2025 14:00:00,19.863756,75.321188,NH3,2,5,3
India,Maharashtra,Badlapur,"Katrap, Badlapur - MPCB",20-09-2025 14:00:00,19.16485,73.23409,CO,10,38,17
India,Maharashtra,Badlapur,"Katrap, Badlapur - MPCB",20-09-2025 14:00:00,19.16485,73.23409,OZONE,12,37,22
India,Maharashtra,Bhiwandi,"Gokul Nagar, Bhiwandi - MPCB",20-09-2025 14:00:00,19.309073,73.057223,OZONE,12,32,20
India,Madhya Pradesh,Dewas,"Bhopal Chauraha, Dewas - MPPCB",20-09-2025 14:00:00,22.9682591,76.064118,OZONE,25,29,27
India,Madhya Pradesh,Gwalior,"City Center, Gwalior - MPPCB",20-09-2025 14:00:00,26.203442,78.193251,NH3,2,2,2
India,Madhya Pradesh,Gwalior,"Deen Dayal Nagar, Gwalior - MPPCB",20-09-2025 14:00:00,26.259242,78.216432,PM10,6,107,68
India,Madhya Pradesh,Gwalior,"Deen Dayal Nagar, Gwalior - MPPCB",20-09-2025 14:00:00,26.259242,78.216432,CO,23,62,29
India,Maharashtra,Mumbai,"Siddharth Nagar-Worli, Mumbai - IITM",20-09-2025 14:00:00,19.000083,72.813993,PM2.5,10,39,19
India,Maharashtra,Mumbai,"Siddharth Nagar-Worli, Mumbai - IITM",20-09-2025 14:00:00,19.000083,72.813993,PM10,23,51,34
India,Maharashtra,Mumbai,"Siddharth Nagar-Worli, Mumbai - IITM",20-09-2025 14:00:00,19.000083,72.813993,NO2,61,93,74
India,Maharashtra,Mumbai,"Siddharth Nagar-Worli, Mumbai - IITM",20-09-2025 14:00:00,19.000083,72.813993,NH3,4,5,5
India,Maharashtra,Mumbai,"Vasai West, Mumbai - MPCB",20-09-2025 14:00:00,19.383200,72.820400,PM10,20,76,42
India,Maharashtra,Mumbai,"Vasai West, Mumbai - MPCB",20-09-2025 14:00:00,19.383200,72.820400,OZONE,12,26,13
India,Maharashtra,Mumbai,"Vile Parle West, Mumbai - MPCB",20-09-2025 14:00:00,19.10861,72.83622,PM2.5,9,54,25
India,Maharashtra,Mumbai,"Worli, Mumbai - MPCB",20-09-2025 14:00:00,18.9936162,72.8128113,NH3,1,2,1
India,Maharashtra,Mumbai,"Worli, Mumbai - MPCB",20-09-2025 14:00:00,18.9936162,72.8128113,OZONE,20,20,20
India,Maharashtra,Nagpur,"Ambazari, Nagpur - MPCB",20-09-2025 14:00:00,21.121801,79.04952,PM2.5,14,86,40
India,Maharashtra,Nagpur,"Ambazari, Nagpur - MPCB",20-09-2025 14:00:00,21.121801,79.04952,PM10,25,90,45
India,Maharashtra,Mahad,"Kamble Tarf Birwadi, Mahad - MPCB",20-09-2025 14:00:00,18.1023399,73.4783687,PM2.5,9,30,17
India,Maharashtra,Mahad,"Kamble Tarf Birwadi, Mahad - MPCB",20-09-2025 14:00:00,18.1023399,73.4783687,NO2,22,47,29
India,Maharashtra,Malegaon,"Mahesh Nagar, Malegaon - MPCB",20-09-2025 14:00:00,20.555712,74.529236,PM2.5,25,39,32
India,Maharashtra,Malegaon,"Mahesh Nagar, Malegaon - MPCB",20-09-2025 14:00:00,20.555712,74.529236,OZONE,14,58,25
India,Maharashtra,Mira-Bhayandar,"Bhayandar West, Mira-Bhayandar - MPCB",20-09-2025 14:00:00,19.296481,72.840923,PM2.5,6,23,15
India,Maharashtra,Mira-Bhayandar,"Bhayandar West, Mira-Bhayandar - MPCB",20-09-2025 14:00:00,19.296481,72.840923,OZONE,1,29,10
India,Maharashtra,Mumbai,"Bandra Kurla Complex, Mumbai - IITM",20-09-2025 14:00:00,19.053536,72.84643,PM2.5,15,47,28
India,Maharashtra,Mumbai,"Bandra Kurla Complex, Mumbai - IITM",20-09-2025 14:00:00,19.053536,72.84643,PM10,37,68,52
India,Maharashtra,Mumbai,"Mulund West, Mumbai - MPCB",20-09-2025 14:00:00,19.1750,72.9419,NH3,4,4,4
India,Maharashtra,Mumbai,"Navy Nagar-Colaba, Mumbai - IITM",20-09-2025 14:00:00,18.897756,72.813320,PM2.5,19,61,38
India,Maharashtra,Mumbai,"Navy Nagar-Colaba, Mumbai - IITM",20-09-2025 14:00:00,18.897756,72.813320,NO2,14,50,27
India,Maharashtra,Mumbai,"Navy Nagar-Colaba, Mumbai - IITM",20-09-2025 14:00:00,18.897756,72.813320,OZONE,6,13,8
India,Maharashtra,Mumbai,"Sewri, Mumbai - BMC",20-09-2025 14:00:00,19.000084,72.856730,PM10,NA,NA,NA
India,Maharashtra,Mumbai,"Sewri, Mumbai - BMC",20-09-2025 14:00:00,19.000084,72.856730,NH3,NA,NA,NA
India,Maharashtra,Mumbai,"Shivaji Nagar, Mumbai - BMC",20-09-2025 14:00:00,19.060498,72.923356,PM2.5,16,39,27
India,Maharashtra,Mumbai,"Shivaji Nagar, Mumbai - BMC",20-09-2025 14:00:00,19.060498,72.923356,PM10,38,66,51
India,Maharashtra,Mumbai,"Shivaji Nagar, Mumbai - BMC",20-09-2025 14:00:00,19.060498,72.923356,CO,11,61,24
India,Maharashtra,Nagpur,"Mahal, Nagpur - MPCB",20-09-2025 14:00:00,21.14472,79.107595,NO2,12,52,24
India,Maharashtra,Nagpur,"Mahal, Nagpur - MPCB",20-09-2025 14:00:00,21.14472,79.107595,NH3,3,5,3
India,Maharashtra,Nagpur,"Opp GPO Civil Lines, Nagpur - MPCB",20-09-2025 14:00:00,21.152875,79.0517531,NO2,8,66,23
India,Maharashtra,Nagpur,"Opp GPO Civil Lines, Nagpur - MPCB",20-09-2025 14:00:00,21.152875,79.0517531,NH3,2,5,3
India,Maharashtra,Nagpur,"Ram Nagar, Nagpur - MPCB",20-09-2025 14:00:00,21.143383,79.048912,PM10,28,62,47
India,Maharashtra,Nanded,"Sneh Nagar, Nanded - MPCB",20-09-2025 14:00:00,19.173852,77.296291,NH3,4,6,4
India,Maharashtra,Nanded,"Sneh Nagar, Nanded - MPCB",20-09-2025 14:00:00,19.173852,77.296291,OZONE,27,64,48
India,Maharashtra,Nashik,"Hirawadi, Nashik - MPCB",20-09-2025 14:00:00,20.021503,73.813844,NH3,1,2,2
India,Maharashtra,Nashik,"Hirawadi, Nashik - MPCB",20-09-2025 14:00:00,20.021503,73.813844,SO2,1,4,2
India,Maharashtra,Nashik,"MIDC Ambad, Nashik - MPCB",20-09-2025 14:00:00,19.950220,73.731480,NH3,2,2,2
India,Maharashtra,Nashik,"MIDC Ambad, Nashik - MPCB",20-09-2025 14:00:00,19.950220,73.731480,OZONE,5,25,14
India,Maharashtra,Nashik,"Pandav Nagari, Nashik - MPCB",20-09-2025 14:00:00,19.9591346,73.7788008,NO2,1,8,4
India,Maharashtra,Nashik,"Pandav Nagari, Nashik - MPCB",20-09-2025 14:00:00,19.9591346,73.7788008,NH3,2,8,4
India,Maharashtra,Nashik,"Pandav Nagari, Nashik - MPCB",20-09-2025 14:00:00,19.9591346,73.7788008,SO2,4,8,6
India,Maharashtra,Nashik,"Pandav Nagari, Nashik - MPCB",20-09-2025 14:00:00,19.9591346,73.7788008,OZONE,4,25,12
India,Maharashtra,Mumbai,"Borivali East, Mumbai - MPCB",20-09-2025 14:00:00,19.2243333,72.8658113,NH3,1,1,1
India,Maharashtra,Mumbai,"Chakala-Andheri East, Mumbai - IITM",20-09-2025 14:00:00,19.11074,72.86084,PM10,22,52,36
India,Maharashtra,Mumbai,"Chakala-Andheri East, Mumbai - IITM",20-09-2025 14:00:00,19.11074,72.86084,NH3,7,20,12
