country,state,city,station,last_update,latitude,longitude,pollutant_id,min_value,max_value,avg_value
India,Andhra_Pradesh,Tirumala,"Toll Gate, Tirumala - APPCB",06-01-2026 08:00:00,13.67,79.35,NH3,1,2,1
India,Andhra_Pradesh,Tirupati,"Vaikuntapuram, Tirupati - APPCB",06-01-2026 08:00:00,13.615387,79.409230,NO2,31,36,32
India,Andhra_Pradesh,Tirupati,"Vaikuntapuram, Tirupati - APPCB",06-01-2026 08:00:00,13.615387,79.409230,SO2,13,19,16
India,Andhra_Pradesh,Tirupati,"Vaikuntapuram, Tirupati - APPCB",06-01-2026 08:00:00,13.615387,79.409230,CO,24,33,26
India,Andhra_Pradesh,Tirupati,"Vaikuntapuram, Tirupati - APPCB",06-01-2026 08:00:00,13.615387,79.409230,OZONE,16,23,19
India,Andhra_Pradesh,Vijayawada,"HB Colony, Vijayawada - APPCB",06-01-2026 08:00:00,16.536107,80.594233,PM10,71,113,94
India,Andhra_Pradesh,Vijayawada,"HB Colony, Vijayawada - APPCB",06-01-2026 08:00:00,16.536107,80.594233,NH3,3,5,3
India,Andhra_Pradesh,Vijayawada,"Rajiv Gandhi Park, Vijayawada - APPCB",06-01-2026 08:00:00,16.509717,80.612222,PM2.5,98,214,162
India,Assam,Nagaon,"Christianpatty, Nagaon - PCBA",06-01-2026 08:00:00,26.349082,92.68449,CO,8,24,21
India,Assam,Nalbari,"Bata Chowk, Nalbari - PCBA",06-01-2026 08:00:00,26.446912,91.439057,NH3,6,6,6
India,Assam,Nalbari,"Bata Chowk, Nalbari - PCBA",06-01-2026 08:00:00,26.446912,91.439057,OZONE,12,16,16
India,Assam,Sivasagar,"Girls College, Sivasagar - PCBA",06-01-2026 08:00:00,26.987634,94.636574,NH3,4,7,5
India,Assam,Sivasagar,"Girls College, Sivasagar - PCBA",06-01-2026 08:00:00,26.987634,94.636574,CO,24,66,44
India,Bihar,Araria,"Kharahiya Basti, Araria - BSPCB",06-01-2026 08:00:00,26.146529,87.454184,PM2.5,72,319,176
India,Bihar,Araria,"Kharahiya Basti, Araria - BSPCB",06-01-2026 08:00:00,26.146529,87.454184,PM10,55,140,93
India,Bihar,Bihar Sharif,"D M Colony, Bihar Sharif - BSPCB",06-01-2026 08:00:00,25.204762,85.514960,NO2,9,10,9
India,Bihar,Buxar,"Charitra Van, Buxar - BSPCB",06-01-2026 08:00:00,25.567520,83.966379,NH3,3,3,3
India,Bihar,Buxar,"Charitra Van, Buxar - BSPCB",06-01-2026 08:00:00,25.567520,83.966379,OZONE,2,26,6
India,Bihar,Chhapra,"Darshan Nagar, Chhapra - BSPCB",06-01-2026 08:00:00,25.7808257,84.7446768,CO,40,60,43
India,Bihar,Gaya,"Collectorate, Gaya - BSPCB",06-01-2026 08:00:00,24.7955,84.9994,NO2,9,9,9
India,Assam,Guwahati,"LGBI Airport, Guwahati - PCBA",06-01-2026 08:00:00,26.10887,91.589544,PM2.5,34,150,68
India,Assam,Guwahati,"Pan Bazaar, Guwahati - PCBA",06-01-2026 08:00:00,26.187500,91.744194,PM2.5,1,1,1
India,Assam,Guwahati,"Pan Bazaar, Guwahati - PCBA",06-01-2026 08:00:00,26.187500,91.744194,CO,24,43,28
India,Assam,Nagaon,"Christianpatty, Nagaon - PCBA",06-01-2026 08:00:00,26.349082,92.68449,PM2.5,71,224,127
India,Assam,Nagaon,"Christianpatty, Nagaon - PCBA",06-01-2026 08:00:00,26.349082,92.68449,PM10,76,141,107
India,Bihar,Hajipur,"Industrial Area, Hajipur - BSPCB",06-01-2026 08:00:00,25.697189,85.245900,NH3,7,12,9
India,Bihar,Hajipur,"Industrial Area, Hajipur - BSPCB",06-01-2026 08:00:00,25.697189,85.245900,SO2,7,10,8
India,Bihar,Kishanganj,"SDM Office_Khagra, Kishanganj - BSPCB",06-01-2026 08:00:00,26.0881305,87.93840336,PM10,96,159,132
India,Bihar,Kishanganj,"SDM Office_Khagra, Kishanganj - BSPCB",06-01-2026 08:00:00,26.0881305,87.93840336,NO2,8,10,9
India,Bihar,Bhagalpur,"DM Office_Kachari Chowk, Bhagalpur - BSPCB",06-01-2026 08:00:00,25.251013,86.989001,PM10,74,163,118
India,Bihar,Bhagalpur,"DM Office_Kachari Chowk, Bhagalpur - BSPCB",06-01-2026 08:00:00,25.251013,86.989001,NH3,1,1,1
India,Bihar,Bhagalpur,"DM Office_Kachari Chowk, Bhagalpur - BSPCB",06-01-2026 08:00:00,25.251013,86.989001,CO,34,102,62
India,Bihar,Bihar Sharif,"D M Colony, Bihar Sharif - BSPCB",06-01-2026 08:00:00,25.204762,85.514960,PM10,54,173,78
India,Bihar,Araria,"Kharahiya Basti, Araria - BSPCB",06-01-2026 08:00:00,26.146529,87.454184,OZONE,9,11,10
India,Bihar,Arrah,"New DM Office, Arrah - BSPCB",06-01-2026 08:00:00,25.5626095,84.663264,NO2,5,9,7
India,Bihar,Aurangabad,"Gurdeo Nagar, Aurangabad - BSPCB",06-01-2026 08:00:00,24.75746,84.366208,PM2.5,NA,NA,NA
India,Andhra_Pradesh,Vijayawada,"Rajiv Nagar, Vijayawada - APPCB",06-01-2026 08:00:00,16.554731,80.649110,NO2,17,30,23
India,Assam,Byrnihat,"Central Academy for SFS, Byrnihat - PCBA",06-01-2026 08:00:00,26.071318,91.87488,PM2.5,98,188,125
India,Andhra_Pradesh,Chittoor,"Gangineni Cheruvu, Chittoor - APPCB",06-01-2026 08:00:00,13.204880,79.097889,CO,10,20,19
India,Andhra_Pradesh,Kadapa,"Yerramukkapalli, Kadapa - APPCB",06-01-2026 08:00:00,14.465052,78.824187,PM10,83,161,121
India,Andhra_Pradesh,Amaravati,"Secretariat, Amaravati - APPCB",06-01-2026 08:00:00,16.5150833,80.5181667,OZONE,2,50,8
India,Andhra_Pradesh,Anantapur,"Gulzarpet, Anantapur - APPCB",06-01-2026 08:00:00,14.675886,77.593027,OZONE,37,86,55
India,Bihar,Patna,"Samanpura, Patna - BSPCB",06-01-2026 08:00:00,25.596727,85.085624,SO2,NA,NA,NA
India,Bihar,Patna,"Samanpura, Patna - BSPCB",06-01-2026 08:00:00,25.596727,85.085624,OZONE,11,31,14
India,Bihar,Purnia,"Mariam Nagar, Purnia - BSPCB",06-01-2026 08:00:00,25.366336,87.117468,NO2,5,6,6
India,Bihar,Rajgir,"Dangi Tola, Rajgir - BSPCB",06-01-2026 08:00:00,25.03280,85.41948,PM2.5,33,187,99
India,Bihar,Saharsa,"Police Line, Saharsa - BSPCB",06-01-2026 08:00:00,25.892357,86.590325,PM2.5,18,358,159
India,Bihar,Saharsa,"Police Line, Saharsa - BSPCB",06-01-2026 08:00:00,25.892357,86.590325,NO2,6,8,7
India,Bihar,Saharsa,"Police Line, Saharsa - BSPCB",06-01-2026 08:00:00,25.892357,86.590325,OZONE,3,11,8
India,Bihar,Samastipur,"DM Office_Kasipur, Samastipur - BSPCB",06-01-2026 08:00:00,25.859655,85.77944,PM10,54,147,104
India,Bihar,Samastipur,"DM Office_Kasipur, Samastipur - BSPCB",06-01-2026 08:00:00,25.859655,85.77944,SO2,22,33,26
India,Bihar,Sasaram,"Dada Peer, Sasaram - BSPCB",06-01-2026 08:00:00,24.952822,84.002396,PM10,48,135,84
India,Bihar,Sasaram,"Dada Peer, Sasaram - BSPCB",06-01-2026 08:00:00,24.952822,84.002396,NO2,2,3,2
India,Bihar,Siwan,"Chitragupta Nagar, Siwan - BSPCB",06-01-2026 08:00:00,26.2271665,84.3570427,PM2.5,92,300,167
India,Bihar,Siwan,"Chitragupta Nagar, Siwan - BSPCB",06-01-2026 08:00:00,26.2271665,84.3570427,OZONE,16,17,17
India,Chandigarh,Chandigarh,"Sector 22, Chandigarh - CPCC",06-01-2026 08:00:00,30.735567,76.775714,PM2.5,75,227,120
India,Chhattisgarh,Kunjemura,"OP Jindal School, Kunjemura - CECB",06-01-2026 08:00:00,22.126650,83.483212,OZONE,NA,NA,NA
India,Chhattisgarh,Milupara,"Govt. Higher Secondary School, Milupara - CECB",06-01-2026 08:00:00,22.1910172,83.5197009,PM2.5,32,95,61
India,Chhattisgarh,Milupara,"Govt. Higher Secondary School, Milupara - CECB",06-01-2026 08:00:00,22.1910172,83.5197009,PM10,36,126,75
India,Chhattisgarh,Raipur,"AIIMS, Raipur - CECB",06-01-2026 08:00:00,21.258815,81.578979,PM10,21,151,94
India,Chhattisgarh,Raipur,"AIIMS, Raipur - CECB",06-01-2026 08:00:00,21.258815,81.578979,CO,16,96,59
India,Chhattisgarh,Raipur,"Bhatagaon New ISBT, Raipur - CECB",06-01-2026 08:00:00,21.219665,81.630094,PM10,20,42,34
India,Chhattisgarh,Bhilai,"Hathkhoj, Bhilai - CECB",06-01-2026 08:00:00,21.224231,81.408350,NH3,4,6,5
India,Chhattisgarh,Bhilai,"Hathkhoj, Bhilai - CECB",06-01-2026 08:00:00,21.224231,81.408350,SO2,11,50,28
India,Chhattisgarh,Bhilai,"Hathkhoj, Bhilai - CECB",06-01-2026 08:00:00,21.224231,81.408350,CO,12,58,31
India,Chhattisgarh,Bilaspur,"Mangala, Bilaspur - NTPC",06-01-2026 08:00:00,22.08815,82.13737,NO2,21,100,27
India,Chhattisgarh,Bilaspur,"Mangala, Bilaspur - NTPC",06-01-2026 08:00:00,22.08815,82.13737,SO2,8,18,11
India,Chhattisgarh,Korba,"Rampur, Korba - CECB",06-01-2026 08:00:00,22.368195,82.746431,NH3,1,1,1
India,Chhattisgarh,Raipur,"Bhatagaon New ISBT, Raipur - CECB",06-01-2026 08:00:00,21.219665,81.630094,CO,33,79,42
India,Chhattisgarh,Raipur,"Krishak Nagar, Raipur - CECB",06-01-2026 08:00:00,21.237755,81.705301,NO2,20,35,27
India,Chhattisgarh,Raipur,"Krishak Nagar, Raipur - CECB",06-01-2026 08:00:00,21.237755,81.705301,SO2,2,6,4
India,Chhattisgarh,Raipur,"Krishak Nagar, Raipur - CECB",06-01-2026 08:00:00,21.237755,81.705301,OZONE,NA,NA,NA
India,Chhattisgarh,Tumidih,"OP Jindal Industrial Park, Tumidih - CECB",06-01-2026 08:00:00,22.06631475,83.33820077,NO2,44,99,63
India,Bihar,Muzaffarpur,"Buddha Colony, Muzaffarpur - BSPCB",06-01-2026 08:00:00,26.11442,85.39813,SO2,4,10,6
India,Bihar,Muzaffarpur,"Buddha Colony, Muzaffarpur - BSPCB",06-01-2026 08:00:00,26.11442,85.39813,CO,35,85,40
India,Bihar,Muzaffarpur,"MIT-Daudpur Kothi, Muzaffarpur - BSPCB",06-01-2026 08:00:00,26.1403345,85.3650192,OZONE,6,48,10
India,Bihar,Patna,"Govt. High School Shikarpur, Patna - BSPCB",06-01-2026 08:00:00,25.592539,85.227158,PM2.5,96,98,97
India,Delhi,Delhi,"Anand Vihar, Delhi - DPCC",06-01-2026 08:00:00,28.647622,77.3158090,PM2.5,300,425,344
India,Delhi,Delhi,"Anand Vihar, Delhi - DPCC",06-01-2026 08:00:00,28.647622,77.3158090,CO,31,109,41
India,Delhi,Delhi,"Ashok Vihar, Delhi - DPCC",06-01-2026 08:00:00,28.695381,77.181665,PM2.5,233,378,305
India,Delhi,Delhi,"Ashok Vihar, Delhi - DPCC",06-01-2026 08:00:00,28.695381,77.181665,NH3,8,8,8
India,Bihar,Patna,"Muradpur, Patna - BSPCB",06-01-2026 08:00:00,25.619651,85.147382,NH3,4,5,4
India,Bihar,Patna,"Rajbansi Nagar, Patna - BSPCB",06-01-2026 08:00:00,25.599486,85.113666,PM10,104,158,138
India,Bihar,Patna,"Samanpura, Patna - BSPCB",06-01-2026 08:00:00,25.596727,85.085624,PM2.5,68,310,169
India,Bihar,Manguraha,"Forest Rest House, Manguraha - BSPCB",06-01-2026 08:00:00,27.308328,84.531742,NO2,4,10,6
India,Bihar,Manguraha,"Forest Rest House, Manguraha - BSPCB",06-01-2026 08:00:00,27.308328,84.531742,NH3,1,2,1
India,Bihar,Munger,"Town Hall, Munger - BSPCB",06-01-2026 08:00:00,25.376776,86.471523,OZONE,14,23,18
India,Delhi,Delhi,"Najafgarh, Delhi - DPCC",06-01-2026 08:00:00,28.570173,76.933762,NO2,83,112,96
India,Delhi,Delhi,"Najafgarh, Delhi - DPCC",06-01-2026 08:00:00,28.570173,76.933762,OZONE,4,10,5
India,Delhi,Delhi,"Narela, Delhi - DPCC",06-01-2026 08:00:00,28.822836,77.101981,PM2.5,208,356,292
India,Delhi,Delhi,"Narela, Delhi - DPCC",06-01-2026 08:00:00,28.822836,77.101981,NO2,15,62,28
India,Delhi,Delhi,"Narela, Delhi - DPCC",06-01-2026 08:00:00,28.822836,77.101981,NH3,7,9,8
India,Delhi,Delhi,"Nehru Nagar, Delhi - DPCC",06-01-2026 08:00:00,28.567890,77.250515,SO2,3,108,17
India,Delhi,Delhi,"Nehru Nagar, Delhi - DPCC",06-01-2026 08:00:00,28.567890,77.250515,OZONE,2,129,5
India,Delhi,Delhi,"North Campus, DU, Delhi - IMD",06-01-2026 08:00:00,28.6573814,77.1585447,OZONE,8,182,11
India,Delhi,Delhi,"Okhla Phase-2, Delhi - DPCC",06-01-2026 08:00:00,28.530785,77.271255,SO2,5,15,10
India,Delhi,Delhi,"Aya Nagar, Delhi - IMD",06-01-2026 08:00:00,28.4706914,77.1099364,CO,26,62,44
India,Delhi,Delhi,"Bawana, Delhi - DPCC",06-01-2026 08:00:00,28.776200,77.051074,PM10,123,300,172
India,Delhi,Delhi,"Bawana, Delhi - DPCC",06-01-2026 08:00:00,28.776200,77.051074,NH3,7,10,8
India,Delhi,Delhi,"Bawana, Delhi - DPCC",06-01-2026 08:00:00,28.776200,77.051074,OZONE,6,73,7
India,Delhi,Delhi,"Burari Crossing, Delhi - IMD",06-01-2026 08:00:00,28.7256504,77.2011573,CO,14,74,26
India,Delhi,Delhi,"Burari Crossing, Delhi - IMD",06-01-2026 08:00:00,28.7256504,77.2011573,OZONE,9,91,10
India,Delhi,Delhi,"CRRI Mathura Road, Delhi - IMD",06-01-2026 08:00:00,28.5512005,77.2735737,NO2,18,86,37
India,Delhi,Delhi,"Chandni Chowk, Delhi - IITM",06-01-2026 08:00:00,28.656756,77.227234,PM10,185,409,282
India,Delhi,Delhi,"Jahangirpuri, Delhi - DPCC",06-01-2026 08:00:00,28.732820,77.170633,NO2,32,134,97
India,Delhi,Delhi,"Jahangirpuri, Delhi - DPCC",06-01-2026 08:00:00,28.732820,77.170633,NH3,4,34,11
India,Delhi,Delhi,"Jawaharlal Nehru Stadium, Delhi - DPCC",06-01-2026 08:00:00,28.580280,77.233829,PM10,137,274,202
India,Delhi,Delhi,"Jawaharlal Nehru Stadium, Delhi - DPCC",06-01-2026 08:00:00,28.580280,77.233829,NH3,14,17,16
India,Delhi,Delhi,"Lodhi Road, Delhi - IMD",06-01-2026 08:00:00,28.5918245,77.2273074,PM2.5,101,323,214
India,Delhi,Delhi,"Major Dhyan Chand National Stadium, Delhi - DPCC",06-01-2026 08:00:00,28.611281,77.237738,PM2.5,193,349,286
India,Delhi,Delhi,"Okhla Phase-2, Delhi - DPCC",06-01-2026 08:00:00,28.530785,77.271255,OZONE,2,111,4
India,Delhi,Delhi,"Patparganj, Delhi - DPCC",06-01-2026 08:00:00,28.623763,77.287209,PM2.5,301,382,328
India,Delhi,Delhi,"Patparganj, Delhi - DPCC",06-01-2026 08:00:00,28.623763,77.287209,OZONE,2,174,5
India,Delhi,Delhi,"Pusa, Delhi - DPCC",06-01-2026 08:00:00,28.639652,77.146275,PM2.5,267,416,333
India,Delhi,Delhi,"R K Puram, Delhi - DPCC",06-01-2026 08:00:00,28.563262,77.186937,NH3,4,6,5
India,Delhi,Delhi,"R K Puram, Delhi - DPCC",06-01-2026 08:00:00,28.563262,77.186937,SO2,23,35,28
India,Delhi,Delhi,"R K Puram, Delhi - DPCC",06-01-2026 08:00:00,28.563262,77.186937,CO,34,104,72
India,Delhi,Delhi,"Mandir Marg, Delhi - DPCC",06-01-2026 08:00:00,28.636429,77.201067,OZONE,10,88,14
India,Delhi,Delhi,"Mundka, Delhi - DPCC",06-01-2026 08:00:00,28.684678,77.076574,NO2,33,90,53
India,Delhi,Delhi,"Mundka, Delhi - DPCC",06-01-2026 08:00:00,28.684678,77.076574,NH3,10,17,13
India,Delhi,Delhi,"Mundka, Delhi - DPCC",06-01-2026 08:00:00,28.684678,77.076574,SO2,7,14,10
India,Delhi,Delhi,"NSIT Dwarka, Delhi - CPCB",06-01-2026 08:00:00,28.60909,77.0325413,PM10,NA,NA,NA
India,Delhi,Delhi,"NSIT Dwarka, Delhi - CPCB",06-01-2026 08:00:00,28.60909,77.0325413,SO2,13,24,18
India,Delhi,Delhi,"NSIT Dwarka, Delhi - CPCB",06-01-2026 08:00:00,28.60909,77.0325413,CO,44,102,56
India,Delhi,Delhi,"Sri Aurobindo Marg, Delhi - DPCC",06-01-2026 08:00:00,28.531346,77.190156,NO2,29,45,38
India,Delhi,Delhi,"Sri Aurobindo Marg, Delhi - DPCC",06-01-2026 08:00:00,28.531346,77.190156,CO,59,100,78
India,Delhi,Delhi,"Vivek Vihar, Delhi - DPCC",06-01-2026 08:00:00,28.672342,77.315260,SO2,5,11,8
India,Gujarat,Ahmedabad,"Chandkheda, Ahmedabad - IITM",06-01-2026 08:00:00,23.107969,72.574648,SO2,1,8,3
India,Delhi,Delhi,"IHBAS, Dilshad Garden, Delhi - CPCB",06-01-2026 08:00:00,28.6811736,77.3025234,CO,60,102,79
India,Delhi,Delhi,"IIT Delhi, Delhi - IITM",06-01-2026 08:00:00,28.542460,77.191651,OZONE,5,37,7
India,Delhi,Delhi,"ITO, Delhi - CPCB",06-01-2026 08:00:00,28.628624,77.241060,PM10,132,256,172
India,Delhi,Delhi,"DTU, Delhi - CPCB",06-01-2026 08:00:00,28.7500499,77.1112615,PM10,123,287,162
India,Delhi,Delhi,"Dwarka-Sector 8, Delhi - DPCC ",06-01-2026 08:00:00,28.5710274,77.0719006,NH3,23,27,25
India,Delhi,Delhi,"Dwarka-Sector 8, Delhi - DPCC ",06-01-2026 08:00:00,28.5710274,77.0719006,CO,39,108,63
India,Delhi,Delhi,"Sonia Vihar, Delhi - DPCC",06-01-2026 08:00:00,28.710508,77.249485,PM2.5,250,397,320
India,Haryana,Hisar,"Urban Estate-II, Hisar - HSPCB",06-01-2026 08:00:00,29.140560,75.744941,SO2,6,16,11
India,Haryana,Jind,"Police Lines, Jind - HSPCB",06-01-2026 08:00:00,29.307814,76.337619,PM10,89,118,104
India,Haryana,Kaithal,"Rishi Nagar, Kaithal - HSPCB",06-01-2026 08:00:00,29.8006,76.4155,PM10,79,112,101
India,Haryana,Karnal,"Sector-12, Karnal - HSPCB",06-01-2026 08:00:00,29.695300,77.002700,PM2.5,91,198,144
India,Haryana,Karnal,"Sector-12, Karnal - HSPCB",06-01-2026 08:00:00,29.695300,77.002700,NO2,6,7,6
India,Haryana,Kurukshetra,"Sector-7, Kurukshetra - HSPCB",06-01-2026 08:00:00,29.966942,76.875879,PM2.5,86,166,124
India,Haryana,Kurukshetra,"Sector-7, Kurukshetra - HSPCB",06-01-2026 08:00:00,29.966942,76.875879,SO2,1,18,9
India,Gujarat,Ankleshwar,"GIDC, Ankleshwar - GPCB",06-01-2026 08:00:00,21.613267,73.010555,OZONE,36,40,37
India,Gujarat,Gandhinagar,"GIFT City, Gandhinagar - IITM",06-01-2026 08:00:00,23.163798,72.677768,PM2.5,8,34,19
India,Gujarat,Gandhinagar,"GIFT City, Gandhinagar - IITM",06-01-2026 08:00:00,23.163798,72.677768,NO2,19,44,26
India,Gujarat,Gandhinagar,"GIFT City, Gandhinagar - IITM",06-01-2026 08:00:00,23.163798,72.677768,NH3,3,6,4
India,Gujarat,Gandhinagar,"GIFT City, Gandhinagar - IITM",06-01-2026 08:00:00,23.163798,72.677768,CO,14,38,26
India,Gujarat,Gandhinagar,"IIPHG Lekawada, Gandhinagar - IITM",06-01-2026 08:00:00,23.243639,72.68994,PM2.5,61,137,89
India,Gujarat,Gandhinagar,"IIPHG Lekawada, Gandhinagar - IITM",06-01-2026 08:00:00,23.243639,72.68994,OZONE,2,195,8
India,Gujarat,Gandhinagar,"Sector-10, Gandhinagar - GPCB",06-01-2026 08:00:00,23.221714,72.654328,SO2,6,16,12
India,Gujarat,Ahmedabad,"Maninagar, Ahmedabad - GPCB",06-01-2026 08:00:00,23.002657,72.591912,PM2.5,63,142,88
India,Gujarat,Ahmedabad,"Maninagar, Ahmedabad - GPCB",06-01-2026 08:00:00,23.002657,72.591912,PM10,73,125,98
India,Gujarat,Ahmedabad,"Maninagar, Ahmedabad - GPCB",06-01-2026 08:00:00,23.002657,72.591912,NO2,64,64,64
India,Gujarat,Ahmedabad,"Maninagar, Ahmedabad - GPCB",06-01-2026 08:00:00,23.002657,72.591912,SO2,71,103,88
India,Gujarat,Ahmedabad,"Maninagar, Ahmedabad - GPCB",06-01-2026 08:00:00,23.002657,72.591912,OZONE,40,66,53
India,Gujarat,Ahmedabad,"Raikhad, Ahmedabad - IITM",06-01-2026 08:00:00,23.020509,72.579261,PM2.5,70,124,98
India,Gujarat,Ahmedabad,"Raikhad, Ahmedabad - IITM",06-01-2026 08:00:00,23.020509,72.579261,CO,20,60,23
India,Gujarat,Ahmedabad,"Rakhial, Ahmedabad - IITM",06-01-2026 08:00:00,23.016834,72.625775,CO,38,73,45
India,Haryana,Mandikhera,"General Hospital, Mandikhera(Nuh) - HSPCB",06-01-2026 08:00:00,27.9002,76.9938,PM2.5,64,179,110
India,Haryana,Mandikhera,"General Hospital, Mandikhera(Nuh) - HSPCB",06-01-2026 08:00:00,27.9002,76.9938,PM10,72,138,106
India,Haryana,Manesar,"Sector-2 IMT, Manesar - HSPCB",06-01-2026 08:00:00,28.360699,76.936090,PM2.5,87,243,169
India,Haryana,Narnaul,"Shastri Nagar, Narnaul - HSPCB",06-01-2026 08:00:00,28.060249,76.113115,CO,11,36,27
India,Haryana,Palwal,"Shyam Nagar, Palwal - HSPCB",06-01-2026 08:00:00,28.1485564,77.3320667,PM10,70,89,81
India,Haryana,Ballabgarh,"Nathu Colony, Ballabgarh - HSPCB",06-01-2026 08:00:00,28.3419248,77.319699,OZONE,15,16,15
India,Haryana,Bhiwani,"H.B. Colony, Bhiwani - HSPCB",06-01-2026 08:00:00,28.806223,76.141105,SO2,12,13,13
India,Haryana,Dharuhera,"Municipal Corporation Office, Dharuhera -  HSPCB",06-01-2026 08:00:00,28.206800,76.799700,NH3,7,20,15
India,Haryana,Faridabad,"New Industrial Town, Faridabad - HSPCB",06-01-2026 08:00:00,28.39072,77.30059,PM10,167,178,174
India,Haryana,Faridabad,"New Industrial Town, Faridabad - HSPCB",06-01-2026 08:00:00,28.39072,77.30059,CO,10,13,12
India,Haryana,Faridabad,"Sector 11, Faridabad - HSPCB",06-01-2026 08:00:00,28.376058,77.315741,PM10,84,179,130
India,Haryana,Faridabad,"Sector 11, Faridabad - HSPCB",06-01-2026 08:00:00,28.376058,77.315741,CO,12,60,24
India,Haryana,Faridabad,"Sector 30, Faridabad - HSPCB",06-01-2026 08:00:00,28.4417,77.3217,NO2,36,39,37
India,Haryana,Fatehabad,"Huda Sector, Fatehabad - HSPCB",06-01-2026 08:00:00,29.503664,75.467934,NO2,18,20,19
India,Haryana,Gurugram,"Sector-51, Gurugram - HSPCB",06-01-2026 08:00:00,28.4227,77.0667,PM2.5,239,358,318
India,Haryana,Gurugram,"Sector-51, Gurugram - HSPCB",06-01-2026 08:00:00,28.4227,77.0667,NO2,6,15,9
India,Haryana,Gurugram,"Teri Gram, Gurugram - HSPCB",06-01-2026 08:00:00,28.4275,77.1465,PM10,NA,NA,NA
India,Haryana,Gurugram,"Teri Gram, Gurugram - HSPCB",06-01-2026 08:00:00,28.4275,77.1465,NO2,NA,NA,NA
India,Haryana,Hisar,"Urban Estate-II, Hisar - HSPCB",06-01-2026 08:00:00,29.140560,75.744941,NO2,26,27,27
India,Gujarat,Vapi,"Phase-1 GIDC, Vapi - GPCB",06-01-2026 08:00:00,20.362421,72.918013,SO2,11,17,14
India,Gujarat,Vatva,"Phase-4 GIDC, Vatva - GPCB",06-01-2026 08:00:00,22.969611,72.643500,PM2.5,76,274,156
India,Gujarat,Vatva,"Phase-4 GIDC, Vatva - GPCB",06-01-2026 08:00:00,22.969611,72.643500,CO,10,30,12
India,Haryana,Ambala,"Patti Mehar, Ambala - HSPCB",06-01-2026 08:00:00,30.379589,76.778328,OZONE,12,39,12
India,Gujarat,Ahmedabad,"SAC ISRO Bopal, Ahmedabad - IITM",06-01-2026 08:00:00,23.041137,72.456691,PM2.5,63,174,109
India,Gujarat,Ahmedabad,"SAC ISRO Bopal, Ahmedabad - IITM",06-01-2026 08:00:00,23.041137,72.456691,PM10,61,129,98
India,Gujarat,Ahmedabad,"SAC ISRO Bopal, Ahmedabad - IITM",06-01-2026 08:00:00,23.041137,72.456691,OZONE,3,53,14
India,Gujarat,Ahmedabad,"SAC ISRO Satellite, Ahmedabad - IITM",06-01-2026 08:00:00,23.023389,72.515201,NH3,8,14,10
India,Jammu_and_Kashmir,Pampore,"Khrew, Pampore - JKPCC",06-01-2026 08:00:00,34.031606,75.009712,PM10,43,78,60
India,Jammu_and_Kashmir,Srinagar,"Khunmoh, Srinagar - JKPCC",06-01-2026 08:00:00,34.06313,74.96017,PM10,42,60,53
India,Jammu_and_Kashmir,Srinagar,"Rajbagh, Srinagar - JKPCC",06-01-2026 08:00:00,34.066206,74.819820,CO,10,18,12
India,Jharkhand,Dhanbad,"Sardar Patel Nagar, Dhanbad - JSPCB",06-01-2026 08:00:00,23.80569,86.44268,PM10,110,224,141
India,Jharkhand,Dhanbad,"Sardar Patel Nagar, Dhanbad - JSPCB",06-01-2026 08:00:00,23.80569,86.44268,OZONE,1,10,1
India,Karnataka,Bagalkot,"Vidayagiri, Bagalkot - KSPCB",06-01-2026 08:00:00,16.172806,75.659694,PM10,53,54,53
India,Karnataka,Bagalkot,"Vidayagiri, Bagalkot - KSPCB",06-01-2026 08:00:00,16.172806,75.659694,NO2,11,12,12
India,Haryana,Sirsa,"F-Block, Sirsa - HSPCB",06-01-2026 08:00:00,29.536400,75.015800,PM10,18,120,88
India,Haryana,Sirsa,"F-Block, Sirsa - HSPCB",06-01-2026 08:00:00,29.536400,75.015800,NO2,13,28,21
India,Haryana,Sirsa,"F-Block, Sirsa - HSPCB",06-01-2026 08:00:00,29.536400,75.015800,NH3,11,15,13
India,Haryana,Sirsa,"F-Block, Sirsa - HSPCB",06-01-2026 08:00:00,29.536400,75.015800,SO2,2,24,13
India,Haryana,Sonipat,"Murthal, Sonipat - HSPCB",06-01-2026 08:00:00,29.027200,77.062100,CO,20,28,22
India,Haryana,Yamuna Nagar,"Gobind Pura, Yamuna Nagar - HSPCB",06-01-2026 08:00:00,30.1480566,77.2893471,NO2,11,20,16
India,Haryana,Yamuna Nagar,"Gobind Pura, Yamuna Nagar - HSPCB",06-01-2026 08:00:00,30.1480566,77.2893471,NH3,1,6,4
India,Karnataka,Chikkaballapur,"Chikkaballapur Rural, Chikkaballapur - KSPCB",06-01-2026 08:00:00,13.428828,77.731418,PM10,98,167,132
India,Karnataka,Davanagere,"Devaraj Urs Badavane, Davanagere - KSPCB",06-01-2026 08:00:00,14.475800,75.905200,PM2.5,47,180,90
India,Karnataka,Davanagere,"Devaraj Urs Badavane, Davanagere - KSPCB",06-01-2026 08:00:00,14.475800,75.905200,OZONE,19,21,20
India,Karnataka,Dharwad,"Kalabhavan, Dharwad - KSPCB",06-01-2026 08:00:00,15.459706,75.008381,PM10,67,104,98
India,Karnataka,Dharwad,"Kalabhavan, Dharwad - KSPCB",06-01-2026 08:00:00,15.459706,75.008381,NH3,3,4,3
India,Karnataka,Dharwad,"Kalabhavan, Dharwad - KSPCB",06-01-2026 08:00:00,15.459706,75.008381,SO2,6,12,7
India,Haryana,Palwal,"Shyam Nagar, Palwal - HSPCB",06-01-2026 08:00:00,28.1485564,77.3320667,SO2,1,13,9
India,Haryana,Panchkula,"Sector-6, Panchkula - HSPCB ",06-01-2026 08:00:00,30.7057778,76.8531805555555,OZONE,32,52,50
India,Haryana,Panipat,"Sector-18, Panipat - HSPCB",06-01-2026 08:00:00,29.432304,76.972765,PM10,132,180,162
India,Haryana,Panipat,"Sector-18, Panipat - HSPCB",06-01-2026 08:00:00,29.432304,76.972765,CO,48,49,48
India,Haryana,Rohtak,"MD University, Rohtak - HSPCB",06-01-2026 08:00:00,28.52123,76.37138,PM10,65,112,89
India,Karnataka,Bengaluru,"BTM Layout, Bengaluru - CPCB",06-01-2026 08:00:00,12.9135218,77.5950804,PM10,109,110,109
India,Karnataka,Bengaluru,"BTM Layout, Bengaluru - CPCB",06-01-2026 08:00:00,12.9135218,77.5950804,OZONE,18,19,18
India,Karnataka,Bengaluru,"BWSSB Kadabesanahalli, Bengaluru - CPCB",06-01-2026 08:00:00,12.9352049,77.6814488,PM10,137,500,244
India,Karnataka,Bengaluru,"BWSSB Kadabesanahalli, Bengaluru - CPCB",06-01-2026 08:00:00,12.9352049,77.6814488,NO2,9,25,19
India,Karnataka,Bengaluru,"Bapuji Nagar, Bengaluru - KSPCB",06-01-2026 08:00:00,12.951913,77.539784,PM10,NA,NA,NA
India,Karnataka,Bengaluru,"Bapuji Nagar, Bengaluru - KSPCB",06-01-2026 08:00:00,12.951913,77.539784,NO2,7,23,13
India,Karnataka,Bengaluru,"Sanegurava Halli, Bengaluru - KSPCB",06-01-2026 08:00:00,12.990328,77.5431385,PM10,67,70,68
India,Karnataka,Bengaluru,"Sanegurava Halli, Bengaluru - KSPCB",06-01-2026 08:00:00,12.990328,77.5431385,CO,12,30,16
India,Karnataka,Bengaluru,"Shivapura_Peenya, Bengaluru - KSPCB",06-01-2026 08:00:00,13.0246342,77.5080115,PM10,105,135,118
India,Karnataka,Bengaluru,"Shivapura_Peenya, Bengaluru - KSPCB",06-01-2026 08:00:00,13.0246342,77.5080115,OZONE,21,22,21
India,Karnataka,Bengaluru,"Silk Board, Bengaluru - KSPCB",06-01-2026 08:00:00,12.917348,77.622813,CO,12,103,28
India,Karnataka,Bengaluru,"Kasturi Nagar, Bengaluru - KSPCB",06-01-2026 08:00:00,13.003872,77.664217,OZONE,23,24,23
India,Karnataka,Bengaluru,"Peenya, Bengaluru - CPCB",06-01-2026 08:00:00,13.0270199,77.494094,NO2,23,29,26
India,Karnataka,Bengaluru,"Peenya, Bengaluru - CPCB",06-01-2026 08:00:00,13.0270199,77.494094,OZONE,21,21,21
India,Karnataka,Bengaluru,"RVCE-Mailasandra, Bengaluru - KSPCB",06-01-2026 08:00:00,12.921418,77.502466,PM10,83,174,118
India,Karnataka,Bengaluru,"Hombegowda Nagar, Bengaluru - KSPCB",06-01-2026 08:00:00,12.938539,77.590100,SO2,6,16,12
India,Karnataka,Bengaluru,"Hombegowda Nagar, Bengaluru - KSPCB",06-01-2026 08:00:00,12.938539,77.590100,OZONE,24,49,42
India,Karnataka,Bengaluru,"City Railway Station, Bengaluru - KSPCB",06-01-2026 08:00:00,12.9756843,77.5660749,SO2,21,22,22
India,Kerala,Thrissur,"Corporation Ground, Thrissur - Kerala PCB",06-01-2026 08:00:00,10.532400,76.215900,PM2.5,44,64,51
India,Kerala,Thrissur,"Corporation Ground, Thrissur - Kerala PCB",06-01-2026 08:00:00,10.532400,76.215900,CO,24,32,29
India,Madhya Pradesh,Bhopal,"Idgah Hills, Bhopal - MPPCB",06-01-2026 08:00:00,23.264759,77.381568,NO2,18,44,26
India,Madhya Pradesh,Bhopal,"Paryavaran Parisar, Bhopal - MPPCB",06-01-2026 08:00:00,23.210494,77.425409,PM10,71,376,156
India,Madhya Pradesh,Bhopal,"Paryavaran Parisar, Bhopal - MPPCB",06-01-2026 08:00:00,23.210494,77.425409,NO2,30,109,56
India,Madhya Pradesh,Bhopal,"Paryavaran Parisar, Bhopal - MPPCB",06-01-2026 08:00:00,23.210494,77.425409,OZONE,2,45,24
India,Kerala,Eloor,"Udyogamandal, Eloor - Kerala PCB",06-01-2026 08:00:00,10.073232,76.302765,CO,6,103,26
India,Kerala,Kannur,"Thavakkara, Kannur - Kerala PCB",06-01-2026 08:00:00,11.875000,75.373200,NO2,16,18,16
India,Kerala,Kannur,"Thavakkara, Kannur - Kerala PCB",06-01-2026 08:00:00,11.875000,75.373200,SO2,4,8,6
India,Kerala,Kannur,"Thavakkara, Kannur - Kerala PCB",06-01-2026 08:00:00,11.875000,75.373200,CO,14,20,16
India,Kerala,Thiruvananthapuram,"Kariavattom, Thiruvananthapuram - Kerala PCB",06-01-2026 08:00:00,8.563700,76.886500,PM10,59,109,86
India,Kerala,Thiruvananthapuram,"Kariavattom, Thiruvananthapuram - Kerala PCB",06-01-2026 08:00:00,8.563700,76.886500,CO,40,106,67
India,Madhya Pradesh,Indore,"Residency Area, Indore - IMC",06-01-2026 08:00:00,22.7084,75.8815,PM2.5,40,73,52
India,Madhya Pradesh,Indore,"Residency Area, Indore - IMC",06-01-2026 08:00:00,22.7084,75.8815,CO,17,20,19
India,Madhya Pradesh,Jabalpur,"Govindh Bhavan Colony, Jabalpur - JMC",06-01-2026 08:00:00,23.163174,79.973061,PM2.5,30,113,60
India,Madhya Pradesh,Jabalpur,"Govindh Bhavan Colony, Jabalpur - JMC",06-01-2026 08:00:00,23.163174,79.973061,NO2,17,25,20
India,Madhya Pradesh,Jabalpur,"Gupteshwar, Jabalpur - JMC",06-01-2026 08:00:00,23.142888,79.916147,PM10,44,111,71
India,Madhya Pradesh,Gwalior,"Deen Dayal Nagar, Gwalior - MPPCB",06-01-2026 08:00:00,26.259242,78.216432,SO2,8,72,13
India,Madhya Pradesh,Indore,"Airport Area, Indore - IMC",06-01-2026 08:00:00,22.7289,75.8076,NO2,2,4,3
India,Madhya Pradesh,Indore,"Chhoti Gwaltoli, Indore - MPPCB",06-01-2026 08:00:00,22.4310,75.5213,NO2,44,104,74
India,Madhya Pradesh,Indore,"Chhoti Gwaltoli, Indore - MPPCB",06-01-2026 08:00:00,22.4310,75.5213,OZONE,7,53,20
India,Madhya Pradesh,Jabalpur,"Marhatal, Jabalpur - MPPCB",06-01-2026 08:00:00,23.168606,79.932247,PM10,41,173,97
India,Madhya Pradesh,Jabalpur,"Suhagi, Jabalpur - JMC",06-01-2026 08:00:00,23.218135,79.957770,NO2,22,114,48
India,Madhya Pradesh,Katni,"Gole Bazar, Katni - MPPCB",06-01-2026 08:00:00,23.50016,80.23284,PM2.5,50,278,112
India,Madhya Pradesh,Katni,"Gole Bazar, Katni - MPPCB",06-01-2026 08:00:00,23.50016,80.23284,NO2,20,54,34
India,Karnataka,Hubballi,"Lingaraj Nagar, Hubballi - KSPCB",06-01-2026 08:00:00,15.3714823,75.1160168,PM10,54,75,57
India,Karnataka,Koppal,"Diwator Nagar, Koppal - KSPCB",06-01-2026 08:00:00,15.347630,76.181767,NH3,7,8,8
India,Karnataka,Madikeri,"Stuart Hill, Madikeri - KSPCB",06-01-2026 08:00:00,12.415911,75.735050,PM10,26,61,40
India,Karnataka,Shivamogga,"Vinoba Nagara, Shivamogga - KSPCB",06-01-2026 08:00:00,13.940000,75.555917,OZONE,6,73,12
India,Karnataka,Vijayapura,"Ibrahimpur, Vijayapura - KSPCB",06-01-2026 08:00:00,16.802639,75.722694,NO2,11,12,11
India,Karnataka,Vijayapura,"Ibrahimpur, Vijayapura - KSPCB",06-01-2026 08:00:00,16.802639,75.722694,CO,14,120,37
India,Karnataka,Ramanagara,"Vijay Nagar, Ramanagara - KSPCB",06-01-2026 08:00:00,12.733409,77.298051,PM2.5,NA,NA,NA
India,Karnataka,Shivamogga,"Vinoba Nagara, Shivamogga - KSPCB",06-01-2026 08:00:00,13.940000,75.555917,PM10,37,70,47
India,Madhya Pradesh,Dewas,"Bhopal Chauraha, Dewas - MPPCB",06-01-2026 08:00:00,22.9682591,76.064118,NH3,1,8,6
India,Madhya Pradesh,Mandideep,"Sector-D Industrial Area, Mandideep - MPPCB",06-01-2026 08:00:00,23.108440,77.511428,PM10,82,172,128
India,Madhya Pradesh,Mandideep,"Sector-D Industrial Area, Mandideep - MPPCB",06-01-2026 08:00:00,23.108440,77.511428,SO2,10,103,56
India,Madhya Pradesh,Mandideep,"Sector-D Industrial Area, Mandideep - MPPCB",06-01-2026 08:00:00,23.108440,77.511428,CO,26,96,80
India,Madhya Pradesh,Mandideep,"Sector-D Industrial Area, Mandideep - MPPCB",06-01-2026 08:00:00,23.108440,77.511428,OZONE,4,49,6
India,Madhya Pradesh,Pithampur,"Sector-2 Industrial Area, Pithampur - MPPCB",06-01-2026 08:00:00,22.624758,75.675238,SO2,11,14,12
India,Madhya Pradesh,Ratlam,"Shasthri Nagar, Ratlam - IPCA Lab",06-01-2026 08:00:00,23.331731,75.045981,PM10,88,154,122
India,Madhya Pradesh,Ratlam,"Shasthri Nagar, Ratlam - IPCA Lab",06-01-2026 08:00:00,23.331731,75.045981,NO2,14,33,21
India,Madhya Pradesh,Sagar,"Civil Lines, Sagar - MPPCB",06-01-2026 08:00:00,23.838586,78.759431,CO,28,74,37
India,Madhya Pradesh,Sagar,"Deen Dayal Nagar, Sagar - MPPCB",06-01-2026 08:00:00,23.8640158,78.80289321,PM2.5,31,207,102
India,Maharashtra,Mumbai,"Bandra Kurla Complex, Mumbai - MPCB",06-01-2026 08:00:00,19.065931,72.862131,SO2,5,12,8
India,Maharashtra,Mumbai,"Bandra Kurla Complex, Mumbai - MPCB",06-01-2026 08:00:00,19.065931,72.862131,CO,14,19,16
India,Maharashtra,Mumbai,"Borivali East, Mumbai - IITM",06-01-2026 08:00:00,19.23241,72.86895,PM2.5,90,166,132
India,Maharashtra,Mumbai,"Borivali East, Mumbai - MPCB",06-01-2026 08:00:00,19.2243333,72.8658113,NH3,1,10,5
India,Maharashtra,Mumbai,"Byculla, Mumbai - BMC",06-01-2026 08:00:00,18.9767,72.8380,PM2.5,132,209,158
India,Maharashtra,Mumbai,"Byculla, Mumbai - BMC",06-01-2026 08:00:00,18.9767,72.8380,NO2,63,131,94
India,Maharashtra,Mumbai,"Byculla, Mumbai - BMC",06-01-2026 08:00:00,18.9767,72.8380,NH3,12,32,20
India,Maharashtra,Mumbai,"Byculla, Mumbai - BMC",06-01-2026 08:00:00,18.9767,72.8380,SO2,23,26,25
India,Maharashtra,Mumbai,"Byculla, Mumbai - BMC",06-01-2026 08:00:00,18.9767,72.8380,OZONE,NA,NA,NA
India,Maharashtra,Mumbai,"Chakala-Andheri East, Mumbai - IITM",06-01-2026 08:00:00,19.11074,72.86084,NH3,15,35,26
India,Maharashtra,Bhiwandi,"Gokul Nagar, Bhiwandi - MPCB",06-01-2026 08:00:00,19.309073,73.057223,NO2,16,32,24
India,Maharashtra,Bhiwandi,"Gokul Nagar, Bhiwandi - MPCB",06-01-2026 08:00:00,19.309073,73.057223,CO,28,56,48
India,Maharashtra,Boisar,"Khaira, Boisar - MPCB",06-01-2026 08:00:00,19.786089,72.757971,PM10,94,125,109
India,Maharashtra,Boisar,"Khaira, Boisar - MPCB",06-01-2026 08:00:00,19.786089,72.757971,SO2,4,38,11
India,Maharashtra,Chandrapur,"Chauhan Colony, Chandrapur - MPCB",06-01-2026 08:00:00,19.962900,79.298714,PM10,62,170,119
India,Maharashtra,Chandrapur,"Chauhan Colony, Chandrapur - MPCB",06-01-2026 08:00:00,19.962900,79.298714,CO,28,164,164
India,Maharashtra,Chandrapur,"MIDC Khutala, Chandrapur - MPCB",06-01-2026 08:00:00,19.9775302,79.2337086,PM10,48,84,69
India,Maharashtra,Chandrapur,"MIDC Khutala, Chandrapur - MPCB",06-01-2026 08:00:00,19.9775302,79.2337086,NO2,13,52,23
India,Maharashtra,Kalyan,"Pimpleshwar Mandir, Kalyan - MPCB",06-01-2026 08:00:00,19.192056,72.9585188,PM10,138,218,177
India,Maharashtra,Kalyan,"Pimpleshwar Mandir, Kalyan - MPCB",06-01-2026 08:00:00,19.192056,72.9585188,NO2,NA,NA,NA
India,Maharashtra,Kalyan,"Pimpleshwar Mandir, Kalyan - MPCB",06-01-2026 08:00:00,19.192056,72.9585188,CO,4,36,29
India,Maharashtra,Kolhapur,"Shivaji University, Kolhapur - MPCB",06-01-2026 08:00:00,16.6870449,74.2505872,NO2,NA,NA,NA
India,Maharashtra,Kolhapur,"Sinchan Bhavan, Kolhapur - MPCB",06-01-2026 08:00:00,16.7143745,74.2426398,PM10,58,124,81
India,Maharashtra,Latur,"Sawe Wadi, Latur - MPCB",06-01-2026 08:00:00,18.39963,76.57452,PM2.5,53,164,110
India,Maharashtra,Latur,"Sawe Wadi, Latur - MPCB",06-01-2026 08:00:00,18.39963,76.57452,NH3,5,24,13
India,Maharashtra,Mahad,"Kamble Tarf Birwadi, Mahad - MPCB",06-01-2026 08:00:00,18.1023399,73.4783687,PM10,63,163,124
India,Maharashtra,Mahad,"Kamble Tarf Birwadi, Mahad - MPCB",06-01-2026 08:00:00,18.1023399,73.4783687,SO2,4,24,10
India,Maharashtra,Malegaon,"Mahesh Nagar, Malegaon - MPCB",06-01-2026 08:00:00,20.555712,74.529236,PM2.5,79,158,112
India,Maharashtra,Mira-Bhayandar,"Bhayandar West, Mira-Bhayandar - MPCB",06-01-2026 08:00:00,19.296481,72.840923,SO2,4,16,13
India,Maharashtra,Mumbai,"Bandra Kurla Complex, Mumbai - IITM",06-01-2026 08:00:00,19.053536,72.84643,PM2.5,NA,NA,NA
India,Madhya Pradesh,Satna,"Bandhavgar Colony, Satna - Birla Cement",06-01-2026 08:00:00,24.58434363,80.8549414,PM10,69,71,70
India,Madhya Pradesh,Satna,"Bandhavgar Colony, Satna - Birla Cement",06-01-2026 08:00:00,24.58434363,80.8549414,CO,25,72,55
India,Madhya Pradesh,Satna,"Bandhavgar Colony, Satna - Birla Cement",06-01-2026 08:00:00,24.58434363,80.8549414,OZONE,NA,NA,NA
India,Madhya Pradesh,Singrauli,"Suryakiran Bhawan NCL, Singrauli - MPPCB",06-01-2026 08:00:00,24.108970,82.645580,SO2,6,13,7
India,Maharashtra,Ahmednagar,"Tarakpur, Ahmednagar - MPCB",06-01-2026 08:00:00,19.10122,74.73339,PM10,72,126,101
India,Maharashtra,Akola,"Ramdaspeth, Akola - MPCB",06-01-2026 08:00:00,20.719516,77.000253,PM10,53,138,110
India,Maharashtra,Akola,"Ramdaspeth, Akola - MPCB",06-01-2026 08:00:00,20.719516,77.000253,NH3,4,7,5
India,Maharashtra,Akola,"Ramdaspeth, Akola - MPCB",06-01-2026 08:00:00,20.719516,77.000253,OZONE,6,53,18
India,Maharashtra,Amravati,"Shivneri Colony, Amravati - MPCB",06-01-2026 08:00:00,20.9402359,77.7895248,CO,8,32,10
India,Maharashtra,Amravati,"Shri Shivaji Science College, Amravati - MPCB",06-01-2026 08:00:00,20.939198,77.765701,SO2,19,41,26
India,Maharashtra,Amravati,"Shri Shivaji Science College, Amravati - MPCB",06-01-2026 08:00:00,20.939198,77.765701,OZONE,1,80,27
India,Maharashtra,Dhule,"Deopur, Dhule - MPCB",06-01-2026 08:00:00,20.918946,74.776388,OZONE,14,58,18
India,Maharashtra,Jalna,"Old MIDC, Jalna - MPCB",06-01-2026 08:00:00,19.854616,75.905894,PM10,NA,NA,NA
India,Maharashtra,Aurangabad,"More Chowk Waluj, Aurangabad - MPCB",06-01-2026 08:00:00,19.8389439,75.244448,NO2,12,23,18
India,Maharashtra,Navi Mumbai,"Nerul, Navi Mumbai - MPCB",06-01-2026 08:00:00,19.008751,73.016620,NO2,37,38,37
India,Maharashtra,Navi Mumbai,"Sanpada, Navi Mumbai - MPCB",06-01-2026 08:00:00,19.0575752,73.0151367,SO2,5,34,12
India,Maharashtra,Navi Mumbai,"Sanpada, Navi Mumbai - MPCB",06-01-2026 08:00:00,19.0575752,73.0151367,CO,4,130,104
India,Maharashtra,Navi Mumbai,"Sanpada, Navi Mumbai - MPCB",06-01-2026 08:00:00,19.0575752,73.0151367,OZONE,1,122,1
India,Maharashtra,Navi Mumbai,"Sector-2E Kalamboli, Navi Mumbai - MPCB",06-01-2026 08:00:00,19.02579,73.10297,PM2.5,45,83,64
India,Maharashtra,Navi Mumbai,"Sector-2E Kalamboli, Navi Mumbai - MPCB",06-01-2026 08:00:00,19.02579,73.10297,PM10,60,133,88
India,Maharashtra,Navi Mumbai,"Sector-2E Kalamboli, Navi Mumbai - MPCB",06-01-2026 08:00:00,19.02579,73.10297,NH3,4,14,8
India,Maharashtra,Navi Mumbai,"Sector-2E Kalamboli, Navi Mumbai - MPCB",06-01-2026 08:00:00,19.02579,73.10297,OZONE,10,81,10
India,Maharashtra,Navi Mumbai,"Tondare-Taloja, Navi Mumbai - MPCB",06-01-2026 08:00:00,19.0630,73.1209,NO2,NA,NA,NA
India,Maharashtra,Parbhani,"Masoom Colony, Parbhani - MPCB",06-01-2026 08:00:00,19.265594,76.761463,PM2.5,89,160,122
India,Maharashtra,Mumbai,"Sewri, Mumbai - BMC",06-01-2026 08:00:00,19.000084,72.856730,NH3,5,18,11
India,Maharashtra,Mumbai,"Shivaji Nagar, Mumbai - BMC",06-01-2026 08:00:00,19.060498,72.923356,PM10,NA,NA,NA
India,Maharashtra,Mumbai,"Shivaji Nagar, Mumbai - BMC",06-01-2026 08:00:00,19.060498,72.923356,NO2,38,101,65
India,Maharashtra,Mumbai,"Siddharth Nagar-Worli, Mumbai - IITM",06-01-2026 08:00:00,19.000083,72.813993,PM10,127,173,148
India,Maharashtra,Mumbai,"Siddharth Nagar-Worli, Mumbai - IITM",06-01-2026 08:00:00,19.000083,72.813993,NH3,4,7,5
India,Maharashtra,Mumbai,"Siddharth Nagar-Worli, Mumbai - IITM",06-01-2026 08:00:00,19.000083,72.813993,OZONE,3,72,11
India,Maharashtra,Mumbai,"Sion, Mumbai - MPCB",06-01-2026 08:00:00,19.047000,72.874600,PM2.5,33,79,50
India,Maharashtra,Mumbai,"Sion, Mumbai - MPCB",06-01-2026 08:00:00,19.047000,72.874600,NH3,1,3,3
India,Maharashtra,Mumbai,"Vile Parle West, Mumbai - MPCB",06-01-2026 08:00:00,19.10861,72.83622,PM2.5,81,185,127
India,Maharashtra,Mumbai,"Vile Parle West, Mumbai - MPCB",06-01-2026 08:00:00,19.10861,72.83622,NO2,11,11,11
India,Maharashtra,Mumbai,"Vile Parle West, Mumbai - MPCB",06-01-2026 08:00:00,19.10861,72.83622,NH3,6,6,6
India,Maharashtra,Mumbai,"Chembur, Mumbai - MPCB",06-01-2026 08:00:00,19.0364585,72.8954371,NO2,20,96,59
India,Maharashtra,Mumbai,"Chhatrapati Shivaji Intl. Airport (T2), Mumbai - MPCB",06-01-2026 08:00:00,19.10078,72.87462,SO2,NA,NA,NA
India,Maharashtra,Mumbai,"Chhatrapati Shivaji Intl. Airport (T2), Mumbai - MPCB",06-01-2026 08:00:00,19.10078,72.87462,OZONE,NA,NA,NA
India,Maharashtra,Mumbai,"Colaba, Mumbai - MPCB",06-01-2026 08:00:00,18.910000,72.820000,PM2.5,57,69,64
India,Maharashtra,Mumbai,"Colaba, Mumbai - MPCB",06-01-2026 08:00:00,18.910000,72.820000,PM10,107,122,116
India,Maharashtra,Mumbai,"Colaba, Mumbai - MPCB",06-01-2026 08:00:00,18.910000,72.820000,OZONE,NA,NA,NA
India,Maharashtra,Mumbai,"Deonar, Mumbai - IITM",06-01-2026 08:00:00,19.04946,72.9230,NO2,17,91,41
India,Maharashtra,Nashik,"Pandav Nagari, Nashik - MPCB",06-01-2026 08:00:00,19.9591346,73.7788008,NH3,4,6,5
India,Maharashtra,Navi Mumbai,"Kopripada-Vashi, Navi Mumbai - MPCB",06-01-2026 08:00:00,19.090337,73.014232,PM2.5,72,348,148
India,Maharashtra,Navi Mumbai,"Kopripada-Vashi, Navi Mumbai - MPCB",06-01-2026 08:00:00,19.090337,73.014232,SO2,17,24,20
India,Maharashtra,Navi Mumbai,"Mahape, Navi Mumbai - MPCB",06-01-2026 08:00:00,19.1135051,73.008978,PM2.5,74,318,144
India,Maharashtra,Navi Mumbai,"Mahape, Navi Mumbai - MPCB",06-01-2026 08:00:00,19.1135051,73.008978,SO2,21,23,22
India,Maharashtra,Mumbai,"Kherwadi_Bandra East, Mumbai - MPCB",06-01-2026 08:00:00,19.0632143,72.8456324,OZONE,1,69,2
India,Maharashtra,Mumbai,"Malad West, Mumbai - IITM",06-01-2026 08:00:00,19.19709,72.82204,PM2.5,75,193,124
India,Maharashtra,Mumbai,"Mazgaon, Mumbai - IITM",06-01-2026 08:00:00,18.96702,72.84214,PM10,96,125,113
India,Maharashtra,Mumbai,"Mindspace-Malad West, Mumbai - MPCB",06-01-2026 08:00:00,19.1878657,72.8304069,PM2.5,66,75,71
India,Maharashtra,Nanded,"Sneh Nagar, Nanded - MPCB",06-01-2026 08:00:00,19.173852,77.296291,SO2,6,7,7
India,Maharashtra,Nanded,"Sneh Nagar, Nanded - MPCB",06-01-2026 08:00:00,19.173852,77.296291,CO,18,26,22
India,Maharashtra,Nashik,"Gangapur Road, Nashik - MPCB",06-01-2026 08:00:00,20.0073285,73.7762427,NO2,5,5,5
India,Maharashtra,Nashik,"Gangapur Road, Nashik - MPCB",06-01-2026 08:00:00,20.0073285,73.7762427,OZONE,10,47,18
India,Maharashtra,Nashik,"MIDC Ambad, Nashik - MPCB",06-01-2026 08:00:00,19.950220,73.731480,SO2,15,19,17
India,Maharashtra,Mumbai,"Ghatkopar, Mumbai - BMC",06-01-2026 08:00:00,19.083694,72.920967,PM2.5,80,100,90
India,Maharashtra,Mumbai,"Ghatkopar, Mumbai - BMC",06-01-2026 08:00:00,19.083694,72.920967,NH3,1,7,4
India,Maharashtra,Mumbai,"Kandivali East, Mumbai - MPCB",06-01-2026 08:00:00,19.205800,72.868200,CO,24,25,25
India,Maharashtra,Mumbai,"Kandivali West, Mumbai - BMC",06-01-2026 08:00:00,19.215859,72.831718,NO2,19,62,33
India,Maharashtra,Nagpur,"Mahal, Nagpur - MPCB",06-01-2026 08:00:00,21.14472,79.107595,PM2.5,52,110,81
India,Maharashtra,Nagpur,"Ram Nagar, Nagpur - MPCB",06-01-2026 08:00:00,21.143383,79.048912,PM2.5,43,118,87
India,Maharashtra,Nagpur,"Ram Nagar, Nagpur - MPCB",06-01-2026 08:00:00,21.143383,79.048912,SO2,1,117,29
India,Maharashtra,Nagpur,"Ram Nagar, Nagpur - MPCB",06-01-2026 08:00:00,21.143383,79.048912,CO,20,41,25
India,Maharashtra,Mumbai,"Navy Nagar-Colaba, Mumbai - IITM",06-01-2026 08:00:00,18.897756,72.813320,CO,43,84,69
India,Maharashtra,Mumbai,"Powai, Mumbai - MPCB",06-01-2026 08:00:00,19.137500,72.915056,PM10,64,115,77
India,Maharashtra,Thane,"Upvan Fort, Thane - MPCB",06-01-2026 08:00:00,19.222279,72.957979,SO2,3,17,9
India,Maharashtra,Thane,"Upvan Fort, Thane - MPCB",06-01-2026 08:00:00,19.222279,72.957979,CO,62,102,90
India,Maharashtra,Thane,"Upvan Fort, Thane - MPCB",06-01-2026 08:00:00,19.222279,72.957979,OZONE,2,75,22
India,Maharashtra,Ulhasnagar,"Sidhi Vinayak Nagar, Ulhasnagar - MPCB",06-01-2026 08:00:00,19.235581,73.159121,PM2.5,96,270,173
India,Maharashtra,Virar,"Bolinj, Virar - MPCB",06-01-2026 08:00:00,19.4458210,72.7988231,SO2,4,12,8
India,Meghalaya,Shillong,"Lumpyngngad, Shillong - Meghalaya PCB",06-01-2026 08:00:00,25.5586,91.8985,NO2,NA,NA,NA
India,Mizoram,Aizawl,"Sikulpuikawn, Aizawl - Mizoram PCB",06-01-2026 08:00:00,23.7176342,92.7192841,CO,3,3,3
India,Odisha,Barbil,"Forest Office, Barbil - OSPCB",06-01-2026 08:00:00,22.1166054,85.3945546,SO2,8,75,25
India,Odisha,Baripada,"Meher Colony, Baripada - OSPCB",06-01-2026 08:00:00,21.941841,86.728318,PM2.5,104,169,140
India,Odisha,Baripada,"Meher Colony, Baripada - OSPCB",06-01-2026 08:00:00,21.941841,86.728318,CO,117,148,132
India,Odisha,Bhubaneswar,"Lingraj Mandir, Bhubaneswar - OSPCB",06-01-2026 08:00:00,20.240790,85.836784,NO2,6,16,10
India,Odisha,Bhubaneswar,"Lingraj Mandir, Bhubaneswar - OSPCB",06-01-2026 08:00:00,20.240790,85.836784,OZONE,55,262,109
India,Odisha,Bhubaneswar,"Patia, Bhubaneswar - OSPCB",06-01-2026 08:00:00,20.34652,85.81630,PM10,136,243,157
India,Odisha,Bhubaneswar,"Patia, Bhubaneswar - OSPCB",06-01-2026 08:00:00,20.34652,85.81630,NH3,6,9,8
India,Odisha,Bhubaneswar,"Patia, Bhubaneswar - OSPCB",06-01-2026 08:00:00,20.34652,85.81630,SO2,4,15,9
India,Maharashtra,Pune,"Panchawati_Pashan, Pune - IITM",06-01-2026 08:00:00,18.536457,73.805454,NO2,14,42,28
India,Maharashtra,Pune,"Panchawati_Pashan, Pune - IITM",06-01-2026 08:00:00,18.536457,73.805454,OZONE,2,36,2
India,Maharashtra,Pune,"Revenue Colony-Shivajinagar, Pune - IITM",06-01-2026 08:00:00,18.530085,73.849598,NO2,28,109,68
India,Maharashtra,Pune,"Savitribai Phule Pune University, Pune - MPCB",06-01-2026 08:00:00,18.547056,73.826908,NH3,1,9,3
India,Maharashtra,Pune,"Savitribai Phule Pune University, Pune - MPCB",06-01-2026 08:00:00,18.547056,73.826908,SO2,1,4,2
India,Maharashtra,Sangli,"Vijay Nagar, Sangli - MPCB",06-01-2026 08:00:00, 16.5038,74.3623,SO2,1,20,10
India,Maharashtra,Pune,"Bhumkar Nagar, Pune - IITM",06-01-2026 08:00:00,18.605770,73.749976,NO2,44,101,68
India,Maharashtra,Pune,"Bhumkar Nagar, Pune - IITM",06-01-2026 08:00:00,18.605770,73.749976,OZONE,3,84,3
India,Maharashtra,Pune,"Hadapsar, Pune - IITM",06-01-2026 08:00:00,18.501793,73.927532,PM10,126,241,193
India,Maharashtra,Pune,"Katraj Dairy, Pune - MPCB",06-01-2026 08:00:00,18.454450,73.854155,OZONE,5,45,12
India,Maharashtra,Pune,"Mhada Colony, Pune - IITM",06-01-2026 08:00:00,18.573040,73.927715,NO2,13,61,30
India,Odisha,Brajrajnagar,"GM Office, Brajrajnagar - OSPCB",06-01-2026 08:00:00,21.8004996,83.8396977,CO,1,35,10
India,Odisha,Byasanagar,"Ferro Chrome Colony, Byasanagar - OSPCB",06-01-2026 08:00:00,20.94185,86.11510,NH3,2,4,3
India,Odisha,Byasanagar,"Ferro Chrome Colony, Byasanagar - OSPCB",06-01-2026 08:00:00,20.94185,86.11510,SO2,2,13,6
India,Odisha,Keonjhar,"Jagamohanpur, Keonjhar - OSPCB",06-01-2026 08:00:00,21.643900,85.599355,PM2.5,81,126,103
India,Maharashtra,Solapur,"Dnyaneshwar Nagar, Solapur - MPCB",06-01-2026 08:00:00,17.6336264,75.9132495,PM2.5,75,125,93
India,Maharashtra,Solapur,"Dnyaneshwar Nagar, Solapur - MPCB",06-01-2026 08:00:00,17.6336264,75.9132495,CO,16,42,26
India,Maharashtra,Thane,"Kasarvadavali, Thane - MPCB",06-01-2026 08:00:00,19.26777,72.97182,PM10,107,138,122
India,Maharashtra,Thane,"Kasarvadavali, Thane - MPCB",06-01-2026 08:00:00,19.26777,72.97182,CO,18,50,41
India,Maharashtra,Pimpri-Chinchwad,"Gavalinagar, Pimpri Chinchwad - MPCB",06-01-2026 08:00:00,18.63673,73.82487,NO2,13,122,69
India,Maharashtra,Pimpri-Chinchwad,"Park Street Wakad, Pimpri Chinchwad - MPCB",06-01-2026 08:00:00,18.59051,73.77946,PM2.5,79,227,148
India,Maharashtra,Pimpri-Chinchwad,"Savta Mali Nagar, Pimpri-Chinchwad - IITM",06-01-2026 08:00:00,18.614767,73.799516,PM10,NA,NA,NA
India,Odisha,Nayagarh,"Dabuna, Nayagarh - OSPCB",06-01-2026 08:00:00,21.847279,85.416905,PM2.5,38,81,60
India,Odisha,Rairangpur,"Divisional Forest Office, Rairangpur - OSPCB",06-01-2026 08:00:00,22.265816,86.174829,PM10,88,125,107
India,Odisha,Rairangpur,"Divisional Forest Office, Rairangpur - OSPCB",06-01-2026 08:00:00,22.265816,86.174829,NO2,11,12,11
India,Odisha,Angul,"Hakimapada, Angul - OSPCB",06-01-2026 08:00:00,20.832874,85.104082,PM2.5,123,318,209
India,Odisha,Barbil,"Forest Office, Barbil - OSPCB",06-01-2026 08:00:00,22.1166054,85.3945546,PM2.5,55,308,141
India,Punjab,Amritsar,"Golden Temple, Amritsar - PPCB",06-01-2026 08:00:00,31.620000,74.876512,PM2.5,35,177,77
India,Punjab,Amritsar,"Golden Temple, Amritsar - PPCB",06-01-2026 08:00:00,31.620000,74.876512,CO,19,34,21
India,Punjab,Bathinda,"Hardev Nagar, Bathinda - PPCB",06-01-2026 08:00:00,30.233011,74.907758,PM2.5,17,82,54
India,Punjab,Bathinda,"Hardev Nagar, Bathinda - PPCB",06-01-2026 08:00:00,30.233011,74.907758,SO2,3,7,5
India,Punjab,Bathinda,"Hardev Nagar, Bathinda - PPCB",06-01-2026 08:00:00,30.233011,74.907758,CO,59,79,76
India,Punjab,Jalandhar,"Civil Line, Jalandhar - PPCB",06-01-2026 08:00:00,31.321907,75.578914,NO2,27,31,29
India,Punjab,Jalandhar,"Civil Line, Jalandhar - PPCB",06-01-2026 08:00:00,31.321907,75.578914,OZONE,38,59,56
India,Punjab,Khanna,"Kalal Majra, Khanna - PPCB",06-01-2026 08:00:00,30.736056 ,76.209694,SO2,8,18,10
India,Punjab,Khanna,"Kalal Majra, Khanna - PPCB",06-01-2026 08:00:00,30.736056 ,76.209694,CO,42,62,57
India,Punjab,Khanna,"Kalal Majra, Khanna - PPCB",06-01-2026 08:00:00,30.736056 ,76.209694,OZONE,20,41,20
India,Rajasthan,Jaipur,"Adarsh Nagar, Jaipur - RSPCB",06-01-2026 08:00:00,26.902909,75.836858,NO2,38,87,59
India,Rajasthan,Jaipur,"Adarsh Nagar, Jaipur - RSPCB",06-01-2026 08:00:00,26.902909,75.836858,OZONE,12,66,18
India,Rajasthan,Jaipur,"Mansarovar Sector-12, Jaipur - RSPCB",06-01-2026 08:00:00,26.843698,75.766894,PM2.5,127,387,243
India,Rajasthan,Jaipur,"Mansarovar Sector-12, Jaipur - RSPCB",06-01-2026 08:00:00,26.843698,75.766894,PM10,96,403,168
India,Rajasthan,Jaipur,"Mansarovar Sector-12, Jaipur - RSPCB",06-01-2026 08:00:00,26.843698,75.766894,NO2,14,44,26
India,Rajasthan,Jaipur,"Police Commissionerate, Jaipur - RSPCB",06-01-2026 08:00:00,26.9164092,75.7994901,NH3,4,39,19
India,Rajasthan,Jaipur,"Police Commissionerate, Jaipur - RSPCB",06-01-2026 08:00:00,26.9164092,75.7994901,SO2,15,16,16
India,Rajasthan,Jaipur,"RIICO Sitapura, Jaipur - RSPCB",06-01-2026 08:00:00,26.786682,75.827928,NH3,3,6,4
India,Odisha,Suakati,"OMC Colony, Suakati - OSPCB",06-01-2026 08:00:00,21.606865,85.510538,PM10,81,189,112
India,Odisha,Suakati,"OMC Colony, Suakati - OSPCB",06-01-2026 08:00:00,21.606865,85.510538,NO2,13,23,22
India,Odisha,Talcher,"Talcher Coalfields,Talcher - OSPCB",06-01-2026 08:00:00,20.9360711,85.1707021,PM10,105,500,198
India,Odisha,Tensa,"Barsua Iron Ore Mines, Tensa - OSPCB",06-01-2026 08:00:00,21.869985,85.167016,PM2.5,NA,NA,NA
India,Puducherry,Puducherry,"Jawahar Nagar, Puducherry - PPCC",06-01-2026 08:00:00,11.9309,79.8027,PM10,81,119,91
India,Puducherry,Puducherry,"Jawahar Nagar, Puducherry - PPCC",06-01-2026 08:00:00,11.9309,79.8027,SO2,3,11,8
India,Puducherry,Puducherry,"Jawahar Nagar, Puducherry - PPCC",06-01-2026 08:00:00,11.9309,79.8027,OZONE,20,90,47
India,Rajasthan,Churu,"Subash Chowk, Churu - RSPCB",06-01-2026 08:00:00,28.296139,74.961696,OZONE,32,94,38
India,Rajasthan,Dausa,"Khatikan Mohalla, Dausa - RSPCB",06-01-2026 08:00:00,26.895552,76.334753,PM10,33,139,91
India,Rajasthan,Dholpur,"Raja Ganj, Dholpur - RSPCB",06-01-2026 08:00:00,26.699557,77.898881,PM2.5,12,273,145
India,Rajasthan,Dholpur,"Raja Ganj, Dholpur - RSPCB",06-01-2026 08:00:00,26.699557,77.898881,NH3,8,14,10
India,Rajasthan,Dungarpur,"Bhoiwada, Dungarpur - RSPCB",06-01-2026 08:00:00,23.837789,73.714926,PM2.5,68,257,121
India,Rajasthan,Dungarpur,"Bhoiwada, Dungarpur - RSPCB",06-01-2026 08:00:00,23.837789,73.714926,NH3,4,6,5
India,Rajasthan,Dungarpur,"Bhoiwada, Dungarpur - RSPCB",06-01-2026 08:00:00,23.837789,73.714926,SO2,2,6,4
India,Rajasthan,Dungarpur,"Bhoiwada, Dungarpur - RSPCB",06-01-2026 08:00:00,23.837789,73.714926,CO,17,34,29
India,Punjab,Mandi Gobindgarh,"RIMT University, Mandi Gobindgarh - PPCB",06-01-2026 08:00:00,30.649961,76.331442,NH3,6,6,6
India,Punjab,Mandi Gobindgarh,"RIMT University, Mandi Gobindgarh - PPCB",06-01-2026 08:00:00,30.649961,76.331442,OZONE,31,35,34
India,Punjab,Patiala,"Model Town, Patiala - PPCB",06-01-2026 08:00:00,30.349388,76.366642,PM10,68,108,93
India,Punjab,Patiala,"Model Town, Patiala - PPCB",06-01-2026 08:00:00,30.349388,76.366642,NO2,12,19,17
India,Punjab,Rupnagar,"Ratanpura, Rupnagar - Ambuja Cements",06-01-2026 08:00:00,31.0325454,76.5623046,CO,66,78,72
India,Rajasthan,Ajmer,"Civil Lines,  Ajmer - RSPCB",06-01-2026 08:00:00,26.470859,74.646594,PM2.5,72,154,108
India,Rajasthan,Bhilwara,"Pratap Nagar, Bhilwara - RSPCB",06-01-2026 08:00:00,25.339605,74.618883,PM10,33,115,78
India,Rajasthan,Bhiwadi,"RIICO Ind. Area III, Bhiwadi - RSPCB",06-01-2026 08:00:00,28.194909,76.862296,NO2,16,94,51
India,Rajasthan,Bhiwadi,"Vasundhara Nagar_UIT, Bhiwadi - RSPCB",06-01-2026 08:00:00,28.207266,76.829265,PM2.5,124,344,208
India,Rajasthan,Bhiwadi,"Vasundhara Nagar_UIT, Bhiwadi - RSPCB",06-01-2026 08:00:00,28.207266,76.829265,NO2,17,93,42
India,Rajasthan,Chittorgarh,"Shastri Nagar, Chittorgarh - RSPCB",06-01-2026 08:00:00,24.892047,74.623527,PM2.5,62,267,151
India,Rajasthan,Chittorgarh,"Shastri Nagar, Chittorgarh - RSPCB",06-01-2026 08:00:00,24.892047,74.623527,NO2,21,80,46
India,Rajasthan,Churu,"Subash Chowk, Churu - RSPCB",06-01-2026 08:00:00,28.296139,74.961696,PM10,144,216,172
India,Rajasthan,Churu,"Subash Chowk, Churu - RSPCB",06-01-2026 08:00:00,28.296139,74.961696,NH3,4,5,5
India,Rajasthan,Churu,"Subash Chowk, Churu - RSPCB",06-01-2026 08:00:00,28.296139,74.961696,SO2,4,6,6
India,Rajasthan,Jaipur,"Sector-2 Murlipura, Jaipur - RSPCB",06-01-2026 08:00:00,26.960669,75.771817,NO2,36,79,59
India,Rajasthan,Jaipur,"Sector-2 Murlipura, Jaipur - RSPCB",06-01-2026 08:00:00,26.960669,75.771817,OZONE,3,55,3
India,Rajasthan,Jaisalmer,"Sadar Bazar, Jaisalmer - RSPCB",06-01-2026 08:00:00,26.912329,70.909168,OZONE,38,87,50
India,Rajasthan,Jalore,"Mudtra Sili, Jalore - RSPCB",06-01-2026 08:00:00,25.344694,72.626208,NO2,24,129,50
India,Rajasthan,Ajmer,"Civil Lines,  Ajmer - RSPCB",06-01-2026 08:00:00,26.470859,74.646594,SO2,6,15,12
India,Rajasthan,Alwar,"Moti Doongri, Alwar - RSPCB",06-01-2026 08:00:00,27.554793,76.611536,PM10,32,137,115
India,Rajasthan,Banswara,"Rati Talai, Banswara - RSPCB",06-01-2026 08:00:00,23.555190,74.440010,NH3,3,7,4
India,TamilNadu,Chennai,"Gandhi Nagar_Ennore, Chennai - TNPCB",06-01-2026 08:00:00,13.218341,80.32027,PM10,7,83,37
India,TamilNadu,Chennai,"Gandhi Nagar_Ennore, Chennai - TNPCB",06-01-2026 08:00:00,13.218341,80.32027,SO2,22,23,22
India,TamilNadu,Chennai,"Gandhi Nagar_Ennore, Chennai - TNPCB",06-01-2026 08:00:00,13.218341,80.32027,CO,4,21,8
India,TamilNadu,Chennai,"Kodungaiyur, Chennai - TNPCB",06-01-2026 08:00:00,13.1278,80.2642,NO2,1,14,5
India,TamilNadu,Chennai,"Kodungaiyur, Chennai - TNPCB",06-01-2026 08:00:00,13.1278,80.2642,NH3,3,5,4
India,TamilNadu,Chennai,"Manali Village, Chennai - TNPCB",06-01-2026 08:00:00,13.1662,80.2584,OZONE,13,31,29
India,TamilNadu,Chennai,"Manali, Chennai - CPCB",06-01-2026 08:00:00,13.164544,80.26285,PM10,83,111,102
India,TamilNadu,Chennai,"Manali, Chennai - CPCB",06-01-2026 08:00:00,13.164544,80.26285,NO2,9,11,10
India,TamilNadu,Chennai,"Manali, Chennai - CPCB",06-01-2026 08:00:00,13.164544,80.26285,SO2,4,18,12
India,Rajasthan,Karauli,"Satyawati Vihar, Karauli - RSPCB",06-01-2026 08:00:00,26.506177,77.025989,NO2,NA,NA,NA
India,Rajasthan,Karauli,"Satyawati Vihar, Karauli - RSPCB",06-01-2026 08:00:00,26.506177,77.025989,SO2,NA,NA,NA
India,Rajasthan,Kota,"Dhanmandi, Kota - RSPCB",06-01-2026 08:00:00,25.164090,75.858137,PM10,45,159,91
India,Rajasthan,Kota,"Dhanmandi, Kota - RSPCB",06-01-2026 08:00:00,25.164090,75.858137,NH3,5,8,7
India,Rajasthan,Kota,"Dhanmandi, Kota - RSPCB",06-01-2026 08:00:00,25.164090,75.858137,SO2,7,80,18
India,Rajasthan,Kota,"Dhanmandi, Kota - RSPCB",06-01-2026 08:00:00,25.164090,75.858137,CO,29,109,32
India,Rajasthan,Kota,"Nayapura, Kota - RSPCB",06-01-2026 08:00:00,25.196024,75.855668,SO2,5,18,9
India,Rajasthan,Kota,"Shrinath Puram, Kota - RSPCB",06-01-2026 08:00:00,25.14389,75.821256,NO2,15,17,16
India,Rajasthan,Kota,"Shrinath Puram, Kota - RSPCB",06-01-2026 08:00:00,25.14389,75.821256,NH3,3,6,4
India,TamilNadu,Chennai,"Perungudi, Chennai - TNPCB",06-01-2026 08:00:00,12.9533,80.2357,PM2.5,110,162,133
India,TamilNadu,Chennai,"Perungudi, Chennai - TNPCB",06-01-2026 08:00:00,12.9533,80.2357,SO2,2,7,5
India,TamilNadu,Chennai,"Royapuram, Chennai - TNPCB",06-01-2026 08:00:00,13.1036,80.2909,PM10,34,55,46
India,TamilNadu,Chennai,"Royapuram, Chennai - TNPCB",06-01-2026 08:00:00,13.1036,80.2909,NH3,NA,NA,NA
India,TamilNadu,Chennai,"Royapuram, Chennai - TNPCB",06-01-2026 08:00:00,13.1036,80.2909,SO2,5,7,6
India,TamilNadu,Chennai,"Velachery Res. Area, Chennai - CPCB",06-01-2026 08:00:00,13.0052189,80.2398125,OZONE,5,8,5
India,TamilNadu,Coimbatore,"PSG College of Arts and Science, Coimbatore - TNPCB",06-01-2026 08:00:00,11.0328,77.0349,OZONE,4,6,6
India,Rajasthan,Rajsamand,"Dhoinda, Rajsamand - RSPCB",06-01-2026 08:00:00,25.036360,73.883502,PM2.5,30,315,138
India,Rajasthan,Rajsamand,"Dhoinda, Rajsamand - RSPCB",06-01-2026 08:00:00,25.036360,73.883502,NO2,15,54,24
India,Rajasthan,Sawai Madhopur,"Sahu Nagar, Sawai Madhopur - RSPCB",06-01-2026 08:00:00,26.031443,76.359327,NO2,2,12,6
India,Rajasthan,Sawai Madhopur,"Sahu Nagar, Sawai Madhopur - RSPCB",06-01-2026 08:00:00,26.031443,76.359327,SO2,4,5,4
India,Rajasthan,Sikar,"Radhakishan Pura, Sikar - RSPCB",06-01-2026 08:00:00,27.608912,75.153302,PM2.5,123,327,267
India,Rajasthan,Sikar,"Radhakishan Pura, Sikar - RSPCB",06-01-2026 08:00:00,27.608912,75.153302,NO2,12,45,27
India,Rajasthan,Sikar,"Radhakishan Pura, Sikar - RSPCB",06-01-2026 08:00:00,27.608912,75.153302,CO,28,56,33
India,Rajasthan,Sri Ganganagar,"Old City, Sri Ganganagar - RSPCB",06-01-2026 08:00:00,29.931624,73.864511,PM10,36,248,126
India,Rajasthan,Sri Ganganagar,"Old City, Sri Ganganagar - RSPCB",06-01-2026 08:00:00,29.931624,73.864511,NO2,35,64,49
India,Rajasthan,Tonk,"Shastri Nagar, Tonk - RSPCB",06-01-2026 08:00:00,26.159933,75.780517,PM10,79,176,128
India,Rajasthan,Tonk,"Shastri Nagar, Tonk - RSPCB",06-01-2026 08:00:00,26.159933,75.780517,NH3,6,9,8
India,Rajasthan,Udaipur,"Ashok Nagar, Udaipur - RSPCB",06-01-2026 08:00:00,24.5886166,73.6321397,CO,6,104,23
India,Rajasthan,Udaipur,"Ashok Nagar, Udaipur - RSPCB",06-01-2026 08:00:00,24.5886166,73.6321397,OZONE,1,27,3
India,Rajasthan,Pali,"Indira Colony Vistar, Pali - RSPCB",06-01-2026 08:00:00,25.771061, 73.340227,PM2.5,36,183,112
India,Rajasthan,Pali,"Indira Colony Vistar, Pali - RSPCB",06-01-2026 08:00:00,25.771061, 73.340227,NH3,2,10,6
India,Rajasthan,Pratapgarh,"Pragati Nagar, Pratapgarh - RSPCB",06-01-2026 08:00:00,24.041198,74.780702,PM10,44,115,80
India,Rajasthan,Pratapgarh,"Pragati Nagar, Pratapgarh - RSPCB",06-01-2026 08:00:00,24.041198,74.780702,NO2,14,34,23
India,Rajasthan,Pratapgarh,"Pragati Nagar, Pratapgarh - RSPCB",06-01-2026 08:00:00,24.041198,74.780702,NH3,2,5,4
India,Rajasthan,Pratapgarh,"Pragati Nagar, Pratapgarh - RSPCB",06-01-2026 08:00:00,24.041198,74.780702,SO2,1,4,2
India,Rajasthan,Pratapgarh,"Pragati Nagar, Pratapgarh - RSPCB",06-01-2026 08:00:00,24.041198,74.780702,CO,22,34,26
India,TamilNadu,Coimbatore,"SIDCO Kurichi, Coimbatore - TNPCB",06-01-2026 08:00:00,10.942451,76.978996,OZONE,5,10,10
India,TamilNadu,Cuddalore,"Kudikadu, Cuddalore - TNPCB",06-01-2026 08:00:00,11.6829898,79.7532099,SO2,19,20,20
India,TamilNadu,Cuddalore,"Kudikadu, Cuddalore - TNPCB",06-01-2026 08:00:00,11.6829898,79.7532099,OZONE,13,14,13
India,TamilNadu,Gummidipoondi,"Anthoni Pillai Nagar, Gummidipoondi - TNPCB",06-01-2026 08:00:00,13.4127,80.1081,PM2.5,NA,NA,NA
India,TamilNadu,Gummidipoondi,"Anthoni Pillai Nagar, Gummidipoondi - TNPCB",06-01-2026 08:00:00,13.4127,80.1081,NO2,1,6,3
India,Rajasthan,Jodhpur,"Jhalamand, Jodhpur - RSPCB",06-01-2026 08:00:00,26.215415,73.070156,PM2.5,25,147,79
India,Rajasthan,Jodhpur,"Jhalamand, Jodhpur - RSPCB",06-01-2026 08:00:00,26.215415,73.070156,NO2,6,34,16
India,Rajasthan,Jodhpur,"Jhalamand, Jodhpur - RSPCB",06-01-2026 08:00:00,26.215415,73.070156,SO2,2,4,3
India,Rajasthan,Jodhpur,"Mandor, Jodhpur - RSPCB",06-01-2026 08:00:00,26.358805,73.047444,OZONE,32,90,40
India,Rajasthan,Jodhpur,"Samrat Ashok Udhyan, Jodhpur - RSPCB",06-01-2026 08:00:00,26.253384,72.976571,PM10,66,198,112
India,Rajasthan,Jhalawar,"Rajlaxmi Nagar, Jhalawar - RSPCB",06-01-2026 08:00:00,24.588397,76.172782,PM2.5,45,237,150
India,Rajasthan,Jhalawar,"Rajlaxmi Nagar, Jhalawar - RSPCB",06-01-2026 08:00:00,24.588397,76.172782,SO2,11,20,15
India,Rajasthan,Jhalawar,"Rajlaxmi Nagar, Jhalawar - RSPCB",06-01-2026 08:00:00,24.588397,76.172782,OZONE,14,101,37
India,Rajasthan,Jhunjhunu,"Indra Nagar, Jhunjhunu - RSPCB",06-01-2026 08:00:00,28.108988,75.386577,CO,24,52,36
India,Uttar_Pradesh,Bareilly,"Civil Lines, Bareilly - UPPCB",06-01-2026 08:00:00,28.359581,79.414455,NO2,2,3,2
India,Uttar_Pradesh,Bareilly,"Civil Lines, Bareilly - UPPCB",06-01-2026 08:00:00,28.359581,79.414455,CO,49,94,75
India,Uttar_Pradesh,Bareilly,"Rajendra Nagar, Bareilly - UPPCB",06-01-2026 08:00:00,28.38910936,79.42963708,PM2.5,37,92,68
India,Uttar_Pradesh,Bareilly,"Rajendra Nagar, Bareilly - UPPCB",06-01-2026 08:00:00,28.38910936,79.42963708,NO2,9,10,10
India,Uttar_Pradesh,Bareilly,"Rajendra Nagar, Bareilly - UPPCB",06-01-2026 08:00:00,28.38910936,79.42963708,SO2,36,38,37
India,Uttar_Pradesh,Bulandshahr,"Yamunapuram, Bulandshahr - UPPCB",06-01-2026 08:00:00,28.406963,77.849831,PM2.5,93,337,233
India,Uttar_Pradesh,Bulandshahr,"Yamunapuram, Bulandshahr - UPPCB",06-01-2026 08:00:00,28.406963,77.849831,PM10,114,318,189
India,Uttar_Pradesh,Bulandshahr,"Yamunapuram, Bulandshahr - UPPCB",06-01-2026 08:00:00,28.406963,77.849831,CO,52,106,95
India,Uttar_Pradesh,Firozabad,"Nagla Bhau, Firozabad - UPPCB",06-01-2026 08:00:00,27.168897,78.376960,OZONE,5,6,6
India,Telangana,Hyderabad,"Bollaram Industrial Area, Hyderabad - TSPCB",06-01-2026 08:00:00,17.540891,78.358528,OZONE,48,60,49
India,Telangana,Hyderabad,"Central University, Hyderabad - TSPCB",06-01-2026 08:00:00,17.460103,78.334361,NH3,1,4,2
India,Telangana,Hyderabad,"Central University, Hyderabad - TSPCB",06-01-2026 08:00:00,17.460103,78.334361,SO2,1,10,5
India,Telangana,Hyderabad,"ECIL Kapra, Hyderabad - TSPCB",06-01-2026 08:00:00,17.470431,78.566959,PM10,61,406,99
India,Telangana,Hyderabad,"ECIL Kapra, Hyderabad - TSPCB",06-01-2026 08:00:00,17.470431,78.566959,CO,15,32,25
India,Telangana,Hyderabad,"IDA Pashamylaram, Hyderabad - TSPCB",06-01-2026 08:00:00,17.5316895,78.218939,PM2.5,52,131,86
India,Telangana,Hyderabad,"IDA Pashamylaram, Hyderabad - TSPCB",06-01-2026 08:00:00,17.5316895,78.218939,NO2,58,64,60
India,Telangana,Hyderabad,"IITH Kandi, Hyderabad - TSPCB",06-01-2026 08:00:00,17.585705,78.126199,PM2.5,61,86,74
India,Uttar_Pradesh,Ghaziabad,"Vasundhara, Ghaziabad - UPPCB",06-01-2026 08:00:00,28.6603346,77.3572563,SO2,2,20,13
India,Uttar_Pradesh,Gorakhpur,"Madan Mohan Malaviya University of Technology, Gorakhpur - UPPCB",06-01-2026 08:00:00,26.730136,83.433859,PM2.5,66,313,95
India,Uttar_Pradesh,Gorakhpur,"Madan Mohan Malaviya University of Technology, Gorakhpur - UPPCB",06-01-2026 08:00:00,26.730136,83.433859,PM10,5,137,94
India,Uttar_Pradesh,Greater Noida,"Knowledge Park - III, Greater Noida - UPPCB",06-01-2026 08:00:00,28.47272,77.482000,PM10,148,255,194
India,Uttar_Pradesh,Greater Noida,"Knowledge Park - III, Greater Noida - UPPCB",06-01-2026 08:00:00,28.47272,77.482000,CO,3,171,20
India,Uttar_Pradesh,Greater Noida,"Knowledge Park - V, Greater Noida - UPPCB",06-01-2026 08:00:00,28.557054,77.453663,NH3,2,20,11
India,Uttar_Pradesh,Agra,"Shahjahan Garden, Agra - UPPCB",06-01-2026 08:00:00,27.169338,78.03582,NH3,6,6,6
India,Uttar_Pradesh,Agra,"Shastripuram, Agra - UPPCB",06-01-2026 08:00:00,27.19862,77.92066,PM2.5,NA,NA,NA
India,Uttar_Pradesh,Agra,"Shastripuram, Agra - UPPCB",06-01-2026 08:00:00,27.19862,77.92066,NH3,3,3,3
India,Uttar_Pradesh,Agra,"Shastripuram, Agra - UPPCB",06-01-2026 08:00:00,27.19862,77.92066,CO,20,40,28
India,Uttar_Pradesh,Agra,"Shastripuram, Agra - UPPCB",06-01-2026 08:00:00,27.19862,77.92066,OZONE,6,7,7
India,Uttar_Pradesh,Baghpat,"Sardar Patel Inter College, Baghpat - UPPCB",06-01-2026 08:00:00,28.964949,77.278761,NO2,54,81,65
India,Uttar_Pradesh,Baghpat,"Sardar Patel Inter College, Baghpat - UPPCB",06-01-2026 08:00:00,28.964949,77.278761,SO2,8,18,11
India,Uttar_Pradesh,Baghpat,"Sardar Patel Inter College, Baghpat - UPPCB",06-01-2026 08:00:00,28.964949,77.278761,CO,12,24,17
India,Uttar_Pradesh,Ghaziabad,"Indirapuram, Ghaziabad - UPPCB",06-01-2026 08:00:00,28.646233,77.358075,CO,52,103,68
India,Uttar_Pradesh,Ghaziabad,"Loni, Ghaziabad - UPPCB",06-01-2026 08:00:00,28.757294,77.278792,PM10,178,415,241
India,Uttar_Pradesh,Ghaziabad,"Sanjay Nagar, Ghaziabad - UPPCB",06-01-2026 08:00:00,28.685382,77.453839,PM2.5,206,357,281
India,Uttar_Pradesh,Ghaziabad,"Sanjay Nagar, Ghaziabad - UPPCB",06-01-2026 08:00:00,28.685382,77.453839,NO2,66,118,81
India,Uttar_Pradesh,Ghaziabad,"Sanjay Nagar, Ghaziabad - UPPCB",06-01-2026 08:00:00,28.685382,77.453839,NH3,6,8,8
India,Uttar_Pradesh,Ghaziabad,"Sanjay Nagar, Ghaziabad - UPPCB",06-01-2026 08:00:00,28.685382,77.453839,CO,6,92,18
India,Uttar_Pradesh,Ghaziabad,"Sanjay Nagar, Ghaziabad - UPPCB",06-01-2026 08:00:00,28.685382,77.453839,OZONE,8,63,10
India,Telangana,Hyderabad,"IITH Kandi, Hyderabad - TSPCB",06-01-2026 08:00:00,17.585705,78.126199,CO,13,34,32
India,Telangana,Hyderabad,"Kompally Municipal Office, Hyderabad - TSPCB",06-01-2026 08:00:00,17.544899,78.486949,CO,6,14,6
India,Telangana,Hyderabad,"Nacharam_TSIIC IALA, Hyderabad - TSPCB",06-01-2026 08:00:00,17.429398,78.569354,CO,20,42,35
India,Telangana,Hyderabad,"Nacharam_TSIIC IALA, Hyderabad - TSPCB",06-01-2026 08:00:00,17.429398,78.569354,OZONE,15,35,16
India,Telangana,Hyderabad,"New Malakpet, Hyderabad - TSPCB",06-01-2026 08:00:00,17.37206,78.50864,PM2.5,45,96,70
India,Telangana,Hyderabad,"New Malakpet, Hyderabad - TSPCB",06-01-2026 08:00:00,17.37206,78.50864,NO2,13,18,15
India,Telangana,Hyderabad,"Sanathnagar, Hyderabad - TSPCB",06-01-2026 08:00:00,17.4559458,78.4332152,CO,41,59,52
India,Telangana,Hyderabad,"Somajiguda, Hyderabad - TSPCB",06-01-2026 08:00:00,17.417094,78.457437,NH3,3,4,3
India,Telangana,Hyderabad,"Somajiguda, Hyderabad - TSPCB",06-01-2026 08:00:00,17.417094,78.457437,SO2,14,17,15
India,Telangana,Hyderabad,"Zoo Park, Hyderabad - TSPCB",06-01-2026 08:00:00,17.349694,78.451437,PM2.5,74,183,113
India,Tripura,Agartala,"Bardowali, Agartala - Tripura SPCB",06-01-2026 08:00:00,23.8175497,91.2726974,PM2.5,2,65,26
India,Tripura,Agartala,"Bardowali, Agartala - Tripura SPCB",06-01-2026 08:00:00,23.8175497,91.2726974,SO2,8,8,8
India,Tripura,Agartala,"Bardowali, Agartala - Tripura SPCB",06-01-2026 08:00:00,23.8175497,91.2726974,CO,22,30,23
India,Uttar_Pradesh,Agra,"Rohta, Agra - UPPCB",06-01-2026 08:00:00,27.106972,78.000111,NH3,5,7,7
India,TamilNadu,Madurai,"Uchapatti, Madurai - TNPCB",06-01-2026 08:00:00,9.865935,78.022669,SO2,40,43,41
India,TamilNadu,Thoothukudi,"Meelavittan, Thoothukudi - TNPCB",06-01-2026 08:00:00,8.816428 ,78.099039,PM10,67,94,76
India,TamilNadu,Thoothukudi,"Meelavittan, Thoothukudi - TNPCB",06-01-2026 08:00:00,8.816428 ,78.099039,NO2,12,22,16
India,Uttar_Pradesh,Lucknow,"Gomti Nagar, Lucknow - UPPCB",06-01-2026 08:00:00,26.868120,81.005119,SO2,10,11,10
India,Uttar_Pradesh,Lucknow,"Gomti Nagar, Lucknow - UPPCB",06-01-2026 08:00:00,26.868120,81.005119,CO,26,32,26
India,Uttar_Pradesh,Lucknow,"Kendriya Vidyalaya, Lucknow - CPCB",06-01-2026 08:00:00,26.906111,80.948222,NH3,12,17,15
India,Uttar_Pradesh,Lucknow,"Kendriya Vidyalaya, Lucknow - CPCB",06-01-2026 08:00:00,26.906111,80.948222,OZONE,10,78,14
India,Uttar_Pradesh,Lucknow,"Kukrail Picnic Spot-1, Lucknow - UPPCB",06-01-2026 08:00:00,26.90723,80.98579,PM2.5,45,100,75
India,Uttar_Pradesh,Lucknow,"Kukrail Picnic Spot-1, Lucknow - UPPCB",06-01-2026 08:00:00,26.90723,80.98579,PM10,37,82,61
India,Uttar_Pradesh,Lucknow,"Kukrail Picnic Spot-1, Lucknow - UPPCB",06-01-2026 08:00:00,26.90723,80.98579,CO,8,14,12
India,Uttar_Pradesh,Lucknow,"Lalbagh, Lucknow - CPCB",06-01-2026 08:00:00,26.8458805,80.9365541,PM2.5,97,350,260
India,Uttar_Pradesh,Prayagraj,"Jhunsi, Prayagraj - UPPCB",06-01-2026 08:00:00,25.425602,81.917152,PM10,76,281,140
India,Uttar_Pradesh,Prayagraj,"Jhunsi, Prayagraj - UPPCB",06-01-2026 08:00:00,25.425602,81.917152,NO2,6,6,6
India,Uttar_Pradesh,Prayagraj,"Motilal Nehru NIT, Prayagraj - UPPCB",06-01-2026 08:00:00,25.494,81.863,PM10,60,134,89
India,Uttar_Pradesh,Prayagraj,"Motilal Nehru NIT, Prayagraj - UPPCB",06-01-2026 08:00:00,25.494,81.863,NO2,12,12,12
India,Uttar_Pradesh,Prayagraj,"Nagar Nigam, Prayagraj - UPPCB",06-01-2026 08:00:00,25.44919916 ,81.82735986 ,NO2,5,5,5
India,Uttar_Pradesh,Varanasi,"Ardhali Bazar, Varanasi - UPPCB",06-01-2026 08:00:00,25.3505986,82.9083074,PM2.5,28,94,55
India,Uttar_Pradesh,Varanasi,"Ardhali Bazar, Varanasi - UPPCB",06-01-2026 08:00:00,25.3505986,82.9083074,NO2,89,98,93
India,Uttar_Pradesh,Varanasi,"Ardhali Bazar, Varanasi - UPPCB",06-01-2026 08:00:00,25.3505986,82.9083074,SO2,9,11,10
India,Uttar_Pradesh,Moradabad,"Jigar Colony, Moradabad - UPPCB",06-01-2026 08:00:00,28.856664,78.772638,PM2.5,69,214,133
India,Uttar_Pradesh,Moradabad,"Jigar Colony, Moradabad - UPPCB",06-01-2026 08:00:00,28.856664,78.772638,PM10,82,173,128
India,Uttar_Pradesh,Moradabad,"Jigar Colony, Moradabad - UPPCB",06-01-2026 08:00:00,28.856664,78.772638,SO2,15,43,28
India,Uttar_Pradesh,Moradabad,"Transport Nagar, Moradabad - UPPCB",06-01-2026 08:00:00,28.802625,78.753728,NH3,5,6,6
India,Uttar_Pradesh,Moradabad,"Transport Nagar, Moradabad - UPPCB",06-01-2026 08:00:00,28.802625,78.753728,SO2,37,40,38
India,Uttar_Pradesh,Muzaffarnagar,"New Mandi, Muzaffarnagar - UPPCB",06-01-2026 08:00:00,29.4723508,77.7194031,PM10,104,205,145
India,Uttar_Pradesh,Kanpur,"Nehru Nagar, Kanpur - UPPCB",06-01-2026 08:00:00,26.4703136,80.3229863,NO2,54,60,58
India,Uttar_Pradesh,Khurja,"Kalindi Kunj, Khurja - UPPCB",06-01-2026 08:00:00,28.2348927,77.8683002,NO2,7,18,9
India,Uttar_Pradesh,Lucknow,"B R Ambedkar University, Lucknow - UPPCB",06-01-2026 08:00:00,26.766433,80.927299,NO2,4,5,5
India,Uttar_Pradesh,Lucknow,"B R Ambedkar University, Lucknow - UPPCB",06-01-2026 08:00:00,26.766433,80.927299,NH3,4,4,4
India,Uttar_Pradesh,Lucknow,"B R Ambedkar University, Lucknow - UPPCB",06-01-2026 08:00:00,26.766433,80.927299,CO,13,22,15
India,Uttar_Pradesh,Lucknow,"Talkatora District Industries Center, Lucknow - CPCB",06-01-2026 08:00:00,26.83399722,80.8917361,NH3,4,8,6
India,Uttar_Pradesh,Lucknow,"Talkatora District Industries Center, Lucknow - CPCB",06-01-2026 08:00:00,26.83399722,80.8917361,SO2,2,18,8
India,Uttar_Pradesh,Meerut,"Jai Bhim Nagar, Meerut - UPPCB",06-01-2026 08:00:00,28.9535882,77.7622941,NH3,14,36,19
India,Uttar_Pradesh,Meerut,"Pallavpuram Phase 2, Meerut - UPPCB",06-01-2026 08:00:00,29.063510,77.709723,PM2.5,197,362,280
India,Uttar_Pradesh,Hapur,"Anand Vihar, Hapur - UPPCB",06-01-2026 08:00:00,28.725645,77.749675,OZONE,2,35,4
India,Uttar_Pradesh,Jhansi,"Shivaji Nagar, Jhansi - UPPCB",06-01-2026 08:00:00,25.4547,78.6039,NH3,4,4,4
India,Uttar_Pradesh,Jhansi,"Shivaji Nagar, Jhansi - UPPCB",06-01-2026 08:00:00,25.4547,78.6039,CO,14,86,29
India,Uttar_Pradesh,Kanpur,"NSI Kalyanpur, Kanpur - UPPCB",06-01-2026 08:00:00,26.509954,80.249612,PM10,83,153,124
India,Uttar_Pradesh,Noida,"Sector-1, Noida - UPPCB",06-01-2026 08:00:00,28.5898,77.3101,PM2.5,263,358,308
India,Uttar_Pradesh,Noida,"Sector-1, Noida - UPPCB",06-01-2026 08:00:00,28.5898,77.3101,NO2,43,131,78
India,Uttar_Pradesh,Noida,"Sector-1, Noida - UPPCB",06-01-2026 08:00:00,28.5898,77.3101,SO2,13,16,14
India,Uttar_Pradesh,Noida,"Sector-116, Noida - UPPCB",06-01-2026 08:00:00,28.569230,77.393848,PM2.5,269,353,316
India,Uttar_Pradesh,Noida,"Sector-116, Noida - UPPCB",06-01-2026 08:00:00,28.569230,77.393848,NO2,65,164,105
India,Uttar_Pradesh,Varanasi,"Maldahiya, Varanasi - UPPCB",06-01-2026 08:00:00,25.32393,82.99687,OZONE,2,4,2
India,Uttar_Pradesh,Vrindavan,"Omex Eternity, Vrindavan - UPPCB",06-01-2026 08:00:00,27.5714090,77.6557570,PM2.5,28,87,43
India,Uttar_Pradesh,Vrindavan,"Omex Eternity, Vrindavan - UPPCB",06-01-2026 08:00:00,27.5714090,77.6557570,CO,30,68,61
India,Uttar_Pradesh,Moradabad,"Buddhi Vihar, Moradabad - UPPCB",06-01-2026 08:00:00,28.83526,78.74460,PM10,85,283,133
India,Uttar_Pradesh,Moradabad,"Eco Herbal Park, Moradabad - UPPCB",06-01-2026 08:00:00,28.840739,78.697531,SO2,5,18,12
India,Uttar_Pradesh,Moradabad,"Eco Herbal Park, Moradabad - UPPCB",06-01-2026 08:00:00,28.840739,78.697531,CO,6,110,12
India,Uttar_Pradesh,Vrindavan,"Omex Eternity, Vrindavan - UPPCB",06-01-2026 08:00:00,27.5714090,77.6557570,OZONE,15,16,15
India,Uttarakhand,Kashipur,"Govt. Girls Inter College, Kashipur - UKPCB",06-01-2026 08:00:00,29.2124114,78.9611753,NH3,4,13,9
India,Uttarakhand,Kashipur,"Govt. Girls Inter College, Kashipur - UKPCB",06-01-2026 08:00:00,29.2124114,78.9611753,SO2,8,10,9
India,West_Bengal,Asansol,"Evelyn Lodge, Asansol - WBPCB",06-01-2026 08:00:00,23.6979360,86.9443950,PM10,85,136,112
India,West_Bengal,Asansol,"Mahabir Colliery, Asansol - WBPCB",06-01-2026 08:00:00,23.6181830,87.1057180,PM2.5,69,258,158
India,West_Bengal,Asansol,"Mahabir Colliery, Asansol - WBPCB",06-01-2026 08:00:00,23.6181830,87.1057180,OZONE,6,36,8
India,West_Bengal,Asansol,"Trivenidevi Bhalotia College, Asansol - WBPCB",06-01-2026 08:00:00,23.616515,87.119133,PM2.5,77,207,136
India,West_Bengal,Asansol,"Trivenidevi Bhalotia College, Asansol - WBPCB",06-01-2026 08:00:00,23.616515,87.119133,SO2,3,10,5
India,West_Bengal,Asansol,"Trivenidevi Bhalotia College, Asansol - WBPCB",06-01-2026 08:00:00,23.616515,87.119133,CO,8,84,54
India,West_Bengal,Barrackpore,"SVSPA Campus, Barrackpore - WBPCB",06-01-2026 08:00:00,22.7605581,88.3617589,PM2.5,NA,NA,NA
India,West_Bengal,Barrackpore,"SVSPA Campus, Barrackpore - WBPCB",06-01-2026 08:00:00,22.7605581,88.3617589,PM10,NA,NA,NA
India,West_Bengal,Durgapur,"Mahishkapur Road_B-Zone, Durgapur - WBPCB",06-01-2026 08:00:00,23.567923,87.306843,OZONE,19,67,33
India,West_Bengal,Durgapur,"PCBL Residential Complex, Durgapur - WBPCB",06-01-2026 08:00:00,23.5087640,87.3544400,CO,2,22,14
India,West_Bengal,Durgapur,"Womens College_City Center, Durgapur - WBPCB (Formerly known as Sidhu Kanhu Indoor Stadium)",06-01-2026 08:00:00,23.549395,87.300496,NO2,21,30,25
India,West_Bengal,Durgapur,"Womens College_City Center, Durgapur - WBPCB (Formerly known as Sidhu Kanhu Indoor Stadium)",06-01-2026 08:00:00,23.549395,87.300496,SO2,18,38,23
India,West_Bengal,Durgapur,"Womens College_City Center, Durgapur - WBPCB (Formerly known as Sidhu Kanhu Indoor Stadium)",06-01-2026 08:00:00,23.549395,87.300496,CO,25,54,40
India,West_Bengal,Durgapur,"Womens College_City Center, Durgapur - WBPCB (Formerly known as Sidhu Kanhu Indoor Stadium)",06-01-2026 08:00:00,23.549395,87.300496,OZONE,2,43,5
India,West_Bengal,Haldia,"Priyambada Housing Estate, Haldia - WBPCB",06-01-2026 08:00:00,22.06047,88.109737,PM2.5,102,160,134
India,West_Bengal,Haldia,"Priyambada Housing Estate, Haldia - WBPCB",06-01-2026 08:00:00,22.06047,88.109737,PM10,84,115,99
India,West_Bengal,Haldia,"Priyambada Housing Estate, Haldia - WBPCB",06-01-2026 08:00:00,22.06047,88.109737,SO2,13,19,15
India,West_Bengal,Howrah,"Belur Math, Howrah - WBPCB",06-01-2026 08:00:00,22.629801,88.352017,SO2,6,15,9
India,West_Bengal,Howrah,"Belur Math, Howrah - WBPCB",06-01-2026 08:00:00,22.629801,88.352017,OZONE,13,35,17
India,West_Bengal,Howrah,"Botanical Garden, Howrah - WBPCB",06-01-2026 08:00:00,22.554954,88.292568,NH3,1,1,1
India,West_Bengal,Howrah,"Dasnagar, Howrah - WBPCB",06-01-2026 08:00:00,22.6025571,88.3105664,NH3,3,5,4
India,West_Bengal,Howrah,"Dasnagar, Howrah - WBPCB",06-01-2026 08:00:00,22.6025571,88.3105664,SO2,4,26,10
India,West_Bengal,Howrah,"Dasnagar, Howrah - WBPCB",06-01-2026 08:00:00,22.6025571,88.3105664,OZONE,19,92,26
India,West_Bengal,Howrah,"Ghusuri, Howrah - WBPCB",06-01-2026 08:00:00,22.611968,88.347422,NO2,49,53,51
India,West_Bengal,Howrah,"Ghusuri, Howrah - WBPCB",06-01-2026 08:00:00,22.611968,88.347422,SO2,5,12,8
India,West_Bengal,Howrah,"Padmapukur, Howrah - WBPCB",06-01-2026 08:00:00,22.5687319,88.2797276,SO2,3,12,6
India,West_Bengal,Howrah,"Padmapukur, Howrah - WBPCB",06-01-2026 08:00:00,22.5687319,88.2797276,OZONE,2,64,6
India,West_Bengal,Kolkata,"Ballygunge, Kolkata - WBPCB",06-01-2026 08:00:00,22.5367507,88.3638022,PM2.5,153,241,193
India,West_Bengal,Kolkata,"Bidhannagar, Kolkata - WBPCB",06-01-2026 08:00:00,22.58157048,88.41002457,PM10,82,113,96
India,West_Bengal,Kolkata,"Bidhannagar, Kolkata - WBPCB",06-01-2026 08:00:00,22.58157048,88.41002457,NO2,25,27,25
India,West_Bengal,Kolkata,"Fort William, Kolkata - WBPCB",06-01-2026 08:00:00,22.556640,88.342674,NH3,9,9,9
India,West_Bengal,Kolkata,"Jadavpur, Kolkata - WBPCB",06-01-2026 08:00:00,22.49929,88.36917,PM2.5,152,240,196
India,West_Bengal,Kolkata,"Jadavpur, Kolkata - WBPCB",06-01-2026 08:00:00,22.49929,88.36917,SO2,11,13,12
India,West_Bengal,Kolkata,"Jadavpur, Kolkata - WBPCB",06-01-2026 08:00:00,22.49929,88.36917,OZONE,7,32,8
India,West_Bengal,Kolkata,"Rabindra Bharati University, Kolkata - WBPCB",06-01-2026 08:00:00,22.627847,88.380669,PM2.5,122,331,243
India,West_Bengal,Kolkata,"Rabindra Bharati University, Kolkata - WBPCB",06-01-2026 08:00:00,22.627847,88.380669,PM10,115,175,135
India,West_Bengal,Kolkata,"Rabindra Sarobar, Kolkata - WBPCB",06-01-2026 08:00:00,22.51106,88.35142,NH3,8,11,9
India,West_Bengal,Kolkata,"Rabindra Sarobar, Kolkata - WBPCB",06-01-2026 08:00:00,22.51106,88.35142,CO,24,42,26
India,West_Bengal,Siliguri,"Ward-32 Bapupara, Siliguri - WBPCB",06-01-2026 08:00:00,26.6879226,88.4152495,NO2,10,20,15
India,West_Bengal,Siliguri,"Ward-32 Bapupara, Siliguri - WBPCB",06-01-2026 08:00:00,26.6879226,88.4152495,NH3,10,11,11
India,Andhra_Pradesh,Rajamahendravaram,"Anand Kala Kshetram, Rajamahendravaram - APPCB",06-01-2026 08:00:00,16.9872867,81.7363176,NO2,20,53,32
India,Andhra_Pradesh,Tirumala,"Toll Gate, Tirumala - APPCB",06-01-2026 08:00:00,13.67,79.35,PM2.5,133,231,189
India,Andhra_Pradesh,Tirumala,"Toll Gate, Tirumala - APPCB",06-01-2026 08:00:00,13.67,79.35,PM10,100,119,112
India,Andhra_Pradesh,Tirumala,"Toll Gate, Tirumala - APPCB",06-01-2026 08:00:00,13.67,79.35,NO2,11,19,15
India,Andhra_Pradesh,Tirumala,"Toll Gate, Tirumala - APPCB",06-01-2026 08:00:00,13.67,79.35,OZONE,55,160,94
India,Andhra_Pradesh,Tirupati,"Vaikuntapuram, Tirupati - APPCB",06-01-2026 08:00:00,13.615387,79.409230,NH3,4,5,4
India,Andhra_Pradesh,Vijayawada,"HB Colony, Vijayawada - APPCB",06-01-2026 08:00:00,16.536107,80.594233,PM2.5,66,130,88
India,Andhra_Pradesh,Vijayawada,"HB Colony, Vijayawada - APPCB",06-01-2026 08:00:00,16.536107,80.594233,SO2,6,15,9
India,Andhra_Pradesh,Vijayawada,"HB Colony, Vijayawada - APPCB",06-01-2026 08:00:00,16.536107,80.594233,CO,16,36,16
India,Bihar,Chhapra,"Darshan Nagar, Chhapra - BSPCB",06-01-2026 08:00:00,25.7808257,84.7446768,OZONE,14,20,14
India,Bihar,Gaya,"Collectorate, Gaya - BSPCB",06-01-2026 08:00:00,24.7955,84.9994,SO2,6,7,6
India,Bihar,Gaya,"Collectorate, Gaya - BSPCB",06-01-2026 08:00:00,24.7955,84.9994,CO,33,42,35
India,Bihar,Gaya,"Kareemganj, Gaya - BSPCB",06-01-2026 08:00:00,24.792403,84.992416,SO2,14,16,15
India,Bihar,Gaya,"Kareemganj, Gaya - BSPCB",06-01-2026 08:00:00,24.792403,84.992416,OZONE,1,31,2
India,Bihar,Gaya,"SFTI Kusdihra, Gaya - BSPCB",06-01-2026 08:00:00,24.762518,84.982348,NO2,19,23,21
India,Bihar,Gaya,"SFTI Kusdihra, Gaya - BSPCB",06-01-2026 08:00:00,24.762518,84.982348,OZONE,10,52,12
India,Bihar,Hajipur,"Industrial Area, Hajipur - BSPCB",06-01-2026 08:00:00,25.697189,85.245900,PM10,125,157,140
India,Bihar,Hajipur,"Industrial Area, Hajipur - BSPCB",06-01-2026 08:00:00,25.697189,85.245900,NO2,27,47,35
India,Arunachal_Pradesh,Naharlagun,"Naharlagun, Naharlagun - APSPCB",06-01-2026 08:00:00,27.103358,93.679645,NO2,6,7,7
India,Arunachal_Pradesh,Naharlagun,"Naharlagun, Naharlagun - APSPCB",06-01-2026 08:00:00,27.103358,93.679645,NH3,NA,NA,NA
India,Assam,Byrnihat,"Central Academy for SFS, Byrnihat - PCBA",06-01-2026 08:00:00,26.071318,91.87488,PM10,73,105,84
India,Assam,Byrnihat,"Central Academy for SFS, Byrnihat - PCBA",06-01-2026 08:00:00,26.071318,91.87488,OZONE,14,21,17
India,Assam,Guwahati,"LGBI Airport, Guwahati - PCBA",06-01-2026 08:00:00,26.10887,91.589544,PM10,43,152,86
India,Assam,Guwahati,"LGBI Airport, Guwahati - PCBA",06-01-2026 08:00:00,26.10887,91.589544,NO2,11,26,16
India,Assam,Guwahati,"LGBI Airport, Guwahati - PCBA",06-01-2026 08:00:00,26.10887,91.589544,OZONE,10,15,12
India,Andhra_Pradesh,Amaravati,"Secretariat, Amaravati - APPCB",06-01-2026 08:00:00,16.5150833,80.5181667,SO2,5,13,9
India,Andhra_Pradesh,Anantapur,"Gulzarpet, Anantapur - APPCB",06-01-2026 08:00:00,14.675886,77.593027,PM10,80,119,102
India,Andhra_Pradesh,Chittoor,"Gangineni Cheruvu, Chittoor - APPCB",06-01-2026 08:00:00,13.204880,79.097889,PM2.5,53,137,83
India,Andhra_Pradesh,Chittoor,"Gangineni Cheruvu, Chittoor - APPCB",06-01-2026 08:00:00,13.204880,79.097889,PM10,54,109,80
India,Andhra_Pradesh,Kadapa,"Yerramukkapalli, Kadapa - APPCB",06-01-2026 08:00:00,14.465052,78.824187,NH3,3,5,4
India,Bihar,Bihar Sharif,"D M Colony, Bihar Sharif - BSPCB",06-01-2026 08:00:00,25.204762,85.514960,PM2.5,65,325,104
India,Bihar,Bihar Sharif,"D M Colony, Bihar Sharif - BSPCB",06-01-2026 08:00:00,25.204762,85.514960,OZONE,1,8,2
India,Bihar,Buxar,"Charitra Van, Buxar - BSPCB",06-01-2026 08:00:00,25.567520,83.966379,SO2,2,20,9
India,Bihar,Buxar,"Charitra Van, Buxar - BSPCB",06-01-2026 08:00:00,25.567520,83.966379,CO,22,27,25
India,Bihar,Chhapra,"Darshan Nagar, Chhapra - BSPCB",06-01-2026 08:00:00,25.7808257,84.7446768,PM10,84,137,114
India,Andhra_Pradesh,Vijayawada,"Rajiv Gandhi Park, Vijayawada - APPCB",06-01-2026 08:00:00,16.509717,80.612222,PM10,89,122,109
India,Andhra_Pradesh,Vijayawada,"Rajiv Gandhi Park, Vijayawada - APPCB",06-01-2026 08:00:00,16.509717,80.612222,SO2,14,21,16
India,Andhra_Pradesh,Vijayawada,"Rajiv Nagar, Vijayawada - APPCB",06-01-2026 08:00:00,16.554731,80.649110,SO2,14,17,16
India,Andhra_Pradesh,Visakhapatnam,"GVM Corporation, Visakhapatnam - APPCB",06-01-2026 08:00:00,17.72,83.3,CO,28,68,42
India,Bihar,Aurangabad,"Gurdeo Nagar, Aurangabad - BSPCB",06-01-2026 08:00:00,24.75746,84.366208,PM10,95,189,126
India,Bihar,Aurangabad,"Gurdeo Nagar, Aurangabad - BSPCB",06-01-2026 08:00:00,24.75746,84.366208,NH3,1,2,2
India,Bihar,Aurangabad,"Gurdeo Nagar, Aurangabad - BSPCB",06-01-2026 08:00:00,24.75746,84.366208,OZONE,1,34,9
India,Bihar,Begusarai,"Lohiyanagar, Begusarai - BSPCB",06-01-2026 08:00:00,25.42742023,86.13886079,PM2.5,91,304,164
India,Bihar,Katihar,"Mirchaibari, Katihar - BSPCB",06-01-2026 08:00:00,25.560083,87.553265,OZONE,5,11,6
India,Bihar,Kishanganj,"SDM Office_Khagra, Kishanganj - BSPCB",06-01-2026 08:00:00,26.0881305,87.93840336,SO2,4,8,7
India,Bihar,Motihari,"Gandak Colony, Motihari - BSPCB",06-01-2026 08:00:00,26.63086,84.90051,PM2.5,35,347,182
India,Assam,Silchar,"Tarapur, Silchar - PCBA",06-01-2026 08:00:00,24.82827,92.79525,OZONE,1,7,2
India,Assam,Sivasagar,"Girls College, Sivasagar - PCBA",06-01-2026 08:00:00,26.987634,94.636574,NO2,22,32,26
India,Assam,Sivasagar,"Girls College, Sivasagar - PCBA",06-01-2026 08:00:00,26.987634,94.636574,SO2,9,13,11
India,Assam,Nagaon,"Christianpatty, Nagaon - PCBA",06-01-2026 08:00:00,26.349082,92.68449,NO2,1,2,1
India,Assam,Silchar,"Tarapur, Silchar - PCBA",06-01-2026 08:00:00,24.82827,92.79525,PM10,29,76,62
India,Bihar,Muzaffarpur,"Muzaffarpur Collectorate, Muzaffarpur - BSPCB",06-01-2026 08:00:00,26.1209,85.3647,OZONE,8,18,9
India,Bihar,Patna,"DRM Office Danapur, Patna - BSPCB",06-01-2026 08:00:00,25.586562,85.043586,NO2,30,65,43
India,Bihar,Patna,"DRM Office Danapur, Patna - BSPCB",06-01-2026 08:00:00,25.586562,85.043586,NH3,5,9,7
India,Bihar,Patna,"Govt. High School Shikarpur, Patna - BSPCB",06-01-2026 08:00:00,25.592539,85.227158,NO2,14,18,16
India,Bihar,Patna,"IGSC Planetarium Complex, Patna - BSPCB",06-01-2026 08:00:00,25.610369,85.132568,CO,74,78,78
India,Bihar,Patna,"IGSC Planetarium Complex, Patna - BSPCB",06-01-2026 08:00:00,25.610369,85.132568,OZONE,28,29,29
India,Bihar,Patna,"Muradpur, Patna - BSPCB",06-01-2026 08:00:00,25.619651,85.147382,PM10,102,138,125
India,Bihar,Patna,"Muradpur, Patna - BSPCB",06-01-2026 08:00:00,25.619651,85.147382,OZONE,4,17,5
India,Chandigarh,Chandigarh,"Sector-25, Chandigarh - CPCC",06-01-2026 08:00:00,30.751462,76.762879,NO2,10,21,14
India,Chandigarh,Chandigarh,"Sector-25, Chandigarh - CPCC",06-01-2026 08:00:00,30.751462,76.762879,SO2,7,9,8
India,Chandigarh,Chandigarh,"Sector-25, Chandigarh - CPCC",06-01-2026 08:00:00,30.751462,76.762879,OZONE,1,45,7
India,Chandigarh,Chandigarh,"Sector-53, Chandigarh - CPCC",06-01-2026 08:00:00,30.719859,76.738637,PM2.5,70,170,103
India,Chhattisgarh,Bhilai,"32Bungalows, Bhilai - CECB",06-01-2026 08:00:00,21.194815,81.314770,PM10,31,90,52
India,Chhattisgarh,Bhilai,"32Bungalows, Bhilai - CECB",06-01-2026 08:00:00,21.194815,81.314770,SO2,1,14,5
India,Chhattisgarh,Bhilai,"32Bungalows, Bhilai - CECB",06-01-2026 08:00:00,21.194815,81.314770,CO,7,74,31
India,Chhattisgarh,Raipur,"Siltara Phase-II, Raipur - CECB",06-01-2026 08:00:00,21.371751,81.664929,OZONE,3,3,3
India,Chhattisgarh,Tumidih,"OP Jindal Industrial Park, Tumidih - CECB",06-01-2026 08:00:00,22.06631475,83.33820077,PM2.5,45,88,65
India,Chhattisgarh,Tumidih,"OP Jindal Industrial Park, Tumidih - CECB",06-01-2026 08:00:00,22.06631475,83.33820077,NH3,1,2,2
India,Chhattisgarh,Tumidih,"OP Jindal Industrial Park, Tumidih - CECB",06-01-2026 08:00:00,22.06631475,83.33820077,SO2,5,27,9
India,Delhi,Delhi,"Alipur, Delhi - DPCC",06-01-2026 08:00:00,28.815329,77.153010,CO,80,106,96
India,Bihar,Saharsa,"Police Line, Saharsa - BSPCB",06-01-2026 08:00:00,25.892357,86.590325,PM10,63,394,174
India,Bihar,Samastipur,"DM Office_Kasipur, Samastipur - BSPCB",06-01-2026 08:00:00,25.859655,85.77944,PM2.5,53,240,125
India,Bihar,Samastipur,"DM Office_Kasipur, Samastipur - BSPCB",06-01-2026 08:00:00,25.859655,85.77944,OZONE,8,10,8
India,Bihar,Siwan,"Chitragupta Nagar, Siwan - BSPCB",06-01-2026 08:00:00,26.2271665,84.3570427,SO2,9,10,10
India,Chhattisgarh,Korba,"Urja Nagar, Korba - CECB",06-01-2026 08:00:00,22.348441,82.549611,PM2.5,30,68,49
India,Chhattisgarh,Korba,"Urja Nagar, Korba - CECB",06-01-2026 08:00:00,22.348441,82.549611,OZONE,28,36,29
India,Chhattisgarh,Kunjemura,"OP Jindal School, Kunjemura - CECB",06-01-2026 08:00:00,22.126650,83.483212,SO2,1,95,29
India,Chhattisgarh,Milupara,"Govt. Higher Secondary School, Milupara - CECB",06-01-2026 08:00:00,22.1910172,83.5197009,CO,17,57,24
India,Bihar,Munger,"Town Hall, Munger - BSPCB",06-01-2026 08:00:00,25.376776,86.471523,SO2,39,59,48
India,Bihar,Muzaffarpur,"MIT-Daudpur Kothi, Muzaffarpur - BSPCB",06-01-2026 08:00:00,26.1403345,85.3650192,PM10,63,74,70
India,Bihar,Muzaffarpur,"Muzaffarpur Collectorate, Muzaffarpur - BSPCB",06-01-2026 08:00:00,26.1209,85.3647,PM2.5,92,117,101
India,Bihar,Muzaffarpur,"Muzaffarpur Collectorate, Muzaffarpur - BSPCB",06-01-2026 08:00:00,26.1209,85.3647,CO,13,58,21
India,Chhattisgarh,Raipur,"AIIMS, Raipur - CECB",06-01-2026 08:00:00,21.258815,81.578979,NH3,4,5,4
India,Chhattisgarh,Raipur,"Bhatagaon New ISBT, Raipur - CECB",06-01-2026 08:00:00,21.219665,81.630094,OZONE,2,4,2
India,Chhattisgarh,Raipur,"Krishak Nagar, Raipur - CECB",06-01-2026 08:00:00,21.237755,81.705301,CO,20,36,29
India,Bihar,Purnia,"Mariam Nagar, Purnia - BSPCB",06-01-2026 08:00:00,25.366336,87.117468,PM2.5,83,310,163
India,Bihar,Purnia,"Mariam Nagar, Purnia - BSPCB",06-01-2026 08:00:00,25.366336,87.117468,OZONE,20,31,21
India,Bihar,Rajgir,"Dangi Tola, Rajgir - BSPCB",06-01-2026 08:00:00,25.03280,85.41948,CO,78,104,90
India,Chhattisgarh,Bhilai,"Civic Center, Bhilai - Bhilai Steel Plant",06-01-2026 08:00:00,21.185571,81.343175,CO,28,30,30
India,Chhattisgarh,Bhilai,"Civic Center, Bhilai - Bhilai Steel Plant",06-01-2026 08:00:00,21.185571,81.343175,OZONE,3,13,11
India,Chhattisgarh,Korba,"Rampur, Korba - CECB",06-01-2026 08:00:00,22.368195,82.746431,PM10,54,88,68
India,Delhi,Delhi,"Sirifort, Delhi - CPCB",06-01-2026 08:00:00,28.5504249,77.2159377,NO2,8,49,28
India,Delhi,Delhi,"Sonia Vihar, Delhi - DPCC",06-01-2026 08:00:00,28.710508,77.249485,CO,50,118,89
India,Delhi,Delhi,"Sri Aurobindo Marg, Delhi - DPCC",06-01-2026 08:00:00,28.531346,77.190156,PM2.5,95,320,272
India,Delhi,Delhi,"Sri Aurobindo Marg, Delhi - DPCC",06-01-2026 08:00:00,28.531346,77.190156,SO2,6,12,10
India,Delhi,Delhi,"Sri Aurobindo Marg, Delhi - DPCC",06-01-2026 08:00:00,28.531346,77.190156,OZONE,1,21,2
India,Delhi,Delhi,"Vivek Vihar, Delhi - DPCC",06-01-2026 08:00:00,28.672342,77.315260,OZONE,2,95,6
India,Delhi,Delhi,"IIT Delhi, Delhi - IITM",06-01-2026 08:00:00,28.542460,77.191651,CO,36,84,60
India,Delhi,Delhi,"ITO, Delhi - CPCB",06-01-2026 08:00:00,28.628624,77.241060,PM2.5,174,370,290
India,Delhi,Delhi,"ITO, Delhi - CPCB",06-01-2026 08:00:00,28.628624,77.241060,CO,34,89,40
India,Delhi,Delhi,"Jahangirpuri, Delhi - DPCC",06-01-2026 08:00:00,28.732820,77.170633,SO2,5,30,15
India,Delhi,Delhi,"Jahangirpuri, Delhi - DPCC",06-01-2026 08:00:00,28.732820,77.170633,OZONE,4,61,4
India,Delhi,Delhi,"Jawaharlal Nehru Stadium, Delhi - DPCC",06-01-2026 08:00:00,28.580280,77.233829,PM2.5,230,371,315
India,Delhi,Delhi,"Pusa, Delhi - DPCC",06-01-2026 08:00:00,28.639652,77.146275,NH3,12,23,18
India,Delhi,Delhi,"Rohini, Delhi - DPCC",06-01-2026 08:00:00,28.732528,77.119920,NH3,7,12,9
India,Delhi,Delhi,"Rohini, Delhi - DPCC",06-01-2026 08:00:00,28.732528,77.119920,SO2,5,13,7
India,Delhi,Delhi,"Rohini, Delhi - DPCC",06-01-2026 08:00:00,28.732528,77.119920,OZONE,20,81,23
India,Delhi,Delhi,"Shadipur, Delhi - CPCB",06-01-2026 08:00:00,28.6514781,77.1473105,OZONE,18,38,28
India,Delhi,Delhi,"Sirifort, Delhi - CPCB",06-01-2026 08:00:00,28.5504249,77.2159377,PM2.5,220,388,328
India,Delhi,Delhi,"Okhla Phase-2, Delhi - DPCC",06-01-2026 08:00:00,28.530785,77.271255,NH3,13,30,22
India,Delhi,Delhi,"Patparganj, Delhi - DPCC",06-01-2026 08:00:00,28.623763,77.287209,NH3,7,13,10
India,Delhi,Delhi,"Patparganj, Delhi - DPCC",06-01-2026 08:00:00,28.623763,77.287209,SO2,7,14,10
India,Delhi,Delhi,"Punjabi Bagh, Delhi - DPCC",06-01-2026 08:00:00,28.674045,77.131023,PM2.5,223,395,305
India,Delhi,Delhi,"Punjabi Bagh, Delhi - DPCC",06-01-2026 08:00:00,28.674045,77.131023,PM10,130,311,190
India,Delhi,Delhi,"Punjabi Bagh, Delhi - DPCC",06-01-2026 08:00:00,28.674045,77.131023,OZONE,3,49,5
India,Delhi,Delhi,"Chandni Chowk, Delhi - IITM",06-01-2026 08:00:00,28.656756,77.227234,NO2,44,85,58
India,Delhi,Delhi,"Chandni Chowk, Delhi - IITM",06-01-2026 08:00:00,28.656756,77.227234,SO2,21,43,32
India,Delhi,Delhi,"DTU, Delhi - CPCB",06-01-2026 08:00:00,28.7500499,77.1112615,PM2.5,197,407,290
India,Delhi,Delhi,"DTU, Delhi - CPCB",06-01-2026 08:00:00,28.7500499,77.1112615,SO2,32,40,36
India,Delhi,Delhi,"Dr. Karni Singh Shooting Range, Delhi - DPCC",06-01-2026 08:00:00,28.498571,77.264840,NH3,7,11,9
India,Delhi,Delhi,"Dwarka-Sector 8, Delhi - DPCC ",06-01-2026 08:00:00,28.5710274,77.0719006,PM10,134,221,170
India,Delhi,Delhi,"IGI Airport (T3), Delhi - IMD",06-01-2026 08:00:00,28.5627763,77.1180053,PM10,126,214,152
India,Delhi,Delhi,"IHBAS, Dilshad Garden, Delhi - CPCB",06-01-2026 08:00:00,28.6811736,77.3025234,NO2,41,113,64
India,Delhi,Delhi,"IHBAS, Dilshad Garden, Delhi - CPCB",06-01-2026 08:00:00,28.6811736,77.3025234,NH3,12,39,16
India,Delhi,Delhi,"IHBAS, Dilshad Garden, Delhi - CPCB",06-01-2026 08:00:00,28.6811736,77.3025234,OZONE,10,27,10
India,Delhi,Delhi,"Lodhi Road, Delhi - IMD",06-01-2026 08:00:00,28.5918245,77.2273074,OZONE,15,122,17
India,Delhi,Delhi,"Major Dhyan Chand National Stadium, Delhi - DPCC",06-01-2026 08:00:00,28.611281,77.237738,OZONE,4,7,5
India,Delhi,Delhi,"Mundka, Delhi - DPCC",06-01-2026 08:00:00,28.684678,77.076574,CO,46,101,67
India,Delhi,Delhi,"Najafgarh, Delhi - DPCC",06-01-2026 08:00:00,28.570173,76.933762,PM10,92,230,126
India,Delhi,Delhi,"Najafgarh, Delhi - DPCC",06-01-2026 08:00:00,28.570173,76.933762,SO2,3,81,16
India,Delhi,Delhi,"Narela, Delhi - DPCC",06-01-2026 08:00:00,28.822836,77.101981,PM10,134,245,174
India,Delhi,Delhi,"Bawana, Delhi - DPCC",06-01-2026 08:00:00,28.776200,77.051074,CO,43,96,47
India,Delhi,Delhi,"Burari Crossing, Delhi - IMD",06-01-2026 08:00:00,28.7256504,77.2011573,NO2,76,146,105
India,Haryana,Bahadurgarh,"Arya Nagar, Bahadurgarh - HSPCB",06-01-2026 08:00:00,28.6701,76.9254,NH3,12,13,13
India,Haryana,Bahadurgarh,"Arya Nagar, Bahadurgarh - HSPCB",06-01-2026 08:00:00,28.6701,76.9254,OZONE,15,19,17
India,Haryana,Ballabgarh,"Nathu Colony, Ballabgarh - HSPCB",06-01-2026 08:00:00,28.3419248,77.319699,PM2.5,138,302,227
India,Haryana,Ballabgarh,"Nathu Colony, Ballabgarh - HSPCB",06-01-2026 08:00:00,28.3419248,77.319699,NO2,19,21,20
India,Haryana,Ballabgarh,"Nathu Colony, Ballabgarh - HSPCB",06-01-2026 08:00:00,28.3419248,77.319699,SO2,1,5,4
India,Haryana,Bhiwani,"H.B. Colony, Bhiwani - HSPCB",06-01-2026 08:00:00,28.806223,76.141105,PM2.5,204,321,289
India,Haryana,Bhiwani,"H.B. Colony, Bhiwani - HSPCB",06-01-2026 08:00:00,28.806223,76.141105,NH3,1,9,8
India,Haryana,Bhiwani,"H.B. Colony, Bhiwani - HSPCB",06-01-2026 08:00:00,28.806223,76.141105,CO,4,14,12
India,Gujarat,Gandhinagar,"Sector-10, Gandhinagar - GPCB",06-01-2026 08:00:00,23.221714,72.654328,NH3,2,4,3
India,Gujarat,Gandhinagar,"Sector-10, Gandhinagar - GPCB",06-01-2026 08:00:00,23.221714,72.654328,CO,28,39,34
India,Gujarat,Gandhinagar,"Sector-10, Gandhinagar - GPCB",06-01-2026 08:00:00,23.221714,72.654328,OZONE,7,61,22
India,Gujarat,Surat,"Science Center, Surat - SMC",06-01-2026 08:00:00,21.170046,72.795405,NO2,16,16,16
India,Gujarat,Vapi,"Phase-1 GIDC, Vapi - GPCB",06-01-2026 08:00:00,20.362421,72.918013,PM10,58,113,90
India,Gujarat,Vatva,"Phase-4 GIDC, Vatva - GPCB",06-01-2026 08:00:00,22.969611,72.643500,NO2,43,47,45
India,Gujarat,Vatva,"Phase-4 GIDC, Vatva - GPCB",06-01-2026 08:00:00,22.969611,72.643500,NH3,6,7,7
India,Gujarat,Ahmedabad,"Rakhial, Ahmedabad - IITM",06-01-2026 08:00:00,23.016834,72.625775,PM2.5,55,122,87
India,Gujarat,Ahmedabad,"Rakhial, Ahmedabad - IITM",06-01-2026 08:00:00,23.016834,72.625775,SO2,18,26,21
India,Gujarat,Ahmedabad,"SAC ISRO Bopal, Ahmedabad - IITM",06-01-2026 08:00:00,23.041137,72.456691,CO,17,48,40
India,Gujarat,Ahmedabad,"SAC ISRO Satellite, Ahmedabad - IITM",06-01-2026 08:00:00,23.023389,72.515201,NO2,13,34,20
India,Gujarat,Ahmedabad,"SAC ISRO Satellite, Ahmedabad - IITM",06-01-2026 08:00:00,23.023389,72.515201,SO2,2,69,16
India,Gujarat,Ahmedabad,"SAC ISRO Satellite, Ahmedabad - IITM",06-01-2026 08:00:00,23.023389,72.515201,CO,16,49,40
India,Gujarat,Ahmedabad,"SVPI Airport Hansol, Ahmedabad - IITM",06-01-2026 08:00:00,23.076793,72.627874,PM2.5,45,107,71
India,Delhi,Delhi,"Wazirpur, Delhi - DPCC",06-01-2026 08:00:00,28.699793,77.165453,PM10,145,375,216
India,Delhi,Delhi,"Wazirpur, Delhi - DPCC",06-01-2026 08:00:00,28.699793,77.165453,CO,40,95,64
India,Delhi,Delhi,"Wazirpur, Delhi - DPCC",06-01-2026 08:00:00,28.699793,77.165453,OZONE,15,251,18
India,Gujarat,Ahmedabad,"Chandkheda, Ahmedabad - IITM",06-01-2026 08:00:00,23.107969,72.574648,NH3,4,7,5
India,Gujarat,Ahmedabad,"Chandkheda, Ahmedabad - IITM",06-01-2026 08:00:00,23.107969,72.574648,OZONE,11,45,20
India,Gujarat,Ahmedabad,"Gyaspur, Ahmedabad - IITM",06-01-2026 08:00:00,22.977134,72.553024,NH3,5,16,7
India,Gujarat,Ahmedabad,"Gyaspur, Ahmedabad - IITM",06-01-2026 08:00:00,22.977134,72.553024,OZONE,19,38,22
India,Gujarat,Ahmedabad,"SVPI Airport Hansol, Ahmedabad - IITM",06-01-2026 08:00:00,23.076793,72.627874,NO2,16,51,29
India,Gujarat,Ahmedabad,"SVPI Airport Hansol, Ahmedabad - IITM",06-01-2026 08:00:00,23.076793,72.627874,NH3,1,2,1
India,Gujarat,Gandhinagar,"GIFT City, Gandhinagar - IITM",06-01-2026 08:00:00,23.163798,72.677768,PM10,78,129,108
India,Gujarat,Gandhinagar,"IIPHG Lekawada, Gandhinagar - IITM",06-01-2026 08:00:00,23.243639,72.68994,NO2,1,7,6
India,Gujarat,Gandhinagar,"IIPHG Lekawada, Gandhinagar - IITM",06-01-2026 08:00:00,23.243639,72.68994,NH3,1,2,1
India,Gujarat,Gandhinagar,"Sector-10, Gandhinagar - GPCB",06-01-2026 08:00:00,23.221714,72.654328,PM10,55,125,86
India,Haryana,Gurugram,"Vikas Sadan, Gurugram - HSPCB",06-01-2026 08:00:00,28.4501238,77.0263051,CO,62,115,97
India,Haryana,Jind,"Police Lines, Jind - HSPCB",06-01-2026 08:00:00,29.307814,76.337619,NO2,34,54,44
India,Haryana,Jind,"Police Lines, Jind - HSPCB",06-01-2026 08:00:00,29.307814,76.337619,OZONE,7,29,10
India,Haryana,Kaithal,"Rishi Nagar, Kaithal - HSPCB",06-01-2026 08:00:00,29.8006,76.4155,PM2.5,64,97,84
India,Haryana,Kaithal,"Rishi Nagar, Kaithal - HSPCB",06-01-2026 08:00:00,29.8006,76.4155,NO2,29,33,31
India,Haryana,Kaithal,"Rishi Nagar, Kaithal - HSPCB",06-01-2026 08:00:00,29.8006,76.4155,OZONE,2,14,2
India,Haryana,Karnal,"Sector-12, Karnal - HSPCB",06-01-2026 08:00:00,29.695300,77.002700,PM10,95,138,118
India,Haryana,Karnal,"Sector-12, Karnal - HSPCB",06-01-2026 08:00:00,29.695300,77.002700,OZONE,36,36,36
India,Haryana,Kurukshetra,"Sector-7, Kurukshetra - HSPCB",06-01-2026 08:00:00,29.966942,76.875879,OZONE,7,45,8
India,Haryana,Manesar,"Sector-2 IMT, Manesar - HSPCB",06-01-2026 08:00:00,28.360699,76.936090,OZONE,5,26,7
India,Haryana,Narnaul,"Shastri Nagar, Narnaul - HSPCB",06-01-2026 08:00:00,28.060249,76.113115,PM2.5,174,350,283
India,Haryana,Fatehabad,"Huda Sector, Fatehabad - HSPCB",06-01-2026 08:00:00,29.503664,75.467934,OZONE,43,59,54
India,Haryana,Gurugram,"NISE Gwal Pahari, Gurugram - IMD",06-01-2026 08:00:00,28.422681,77.148944,PM2.5,121,331,253
India,Haryana,Gurugram,"Sector-51, Gurugram - HSPCB",06-01-2026 08:00:00,28.4227,77.0667,PM10,134,242,187
India,Haryana,Gurugram,"Teri Gram, Gurugram - HSPCB",06-01-2026 08:00:00,28.4275,77.1465,SO2,NA,NA,NA
India,Haryana,Dharuhera,"Municipal Corporation Office, Dharuhera -  HSPCB",06-01-2026 08:00:00,28.206800,76.799700,SO2,NA,NA,NA
India,Haryana,Faridabad,"Sector 11, Faridabad - HSPCB",06-01-2026 08:00:00,28.376058,77.315741,PM2.5,84,308,192
India,Haryana,Faridabad,"Sector 11, Faridabad - HSPCB",06-01-2026 08:00:00,28.376058,77.315741,OZONE,15,16,15
India,Haryana,Faridabad,"Sector 30, Faridabad - HSPCB",06-01-2026 08:00:00,28.4417,77.3217,PM10,161,163,162
India,Haryana,Narnaul,"Shastri Nagar, Narnaul - HSPCB",06-01-2026 08:00:00,28.060249,76.113115,SO2,7,9,8
India,Haryana,Panchgaon,"Amity University, Panchgaon - IITM",06-01-2026 08:00:00,28.3153,76.9143,PM10,15,102,60
India,Haryana,Panchgaon,"Amity University, Panchgaon - IITM",06-01-2026 08:00:00,28.3153,76.9143,NH3,8,14,11
India,Haryana,Panchgaon,"Amity University, Panchgaon - IITM",06-01-2026 08:00:00,28.3153,76.9143,SO2,5,11,7
India,Haryana,Panchkula,"Sector-6, Panchkula - HSPCB ",06-01-2026 08:00:00,30.7057778,76.8531805555555,PM2.5,70,160,123
India,Haryana,Panchkula,"Sector-6, Panchkula - HSPCB ",06-01-2026 08:00:00,30.7057778,76.8531805555555,SO2,13,14,13
India,Haryana,Panchkula,"Sector-6, Panchkula - HSPCB ",06-01-2026 08:00:00,30.7057778,76.8531805555555,CO,6,30,16
India,Haryana,Panipat,"Sector-18, Panipat - HSPCB",06-01-2026 08:00:00,29.432304,76.972765,NO2,31,32,31
India,Haryana,Panipat,"Sector-18, Panipat - HSPCB",06-01-2026 08:00:00,29.432304,76.972765,OZONE,30,30,30
India,Haryana,Rohtak,"MD University, Rohtak - HSPCB",06-01-2026 08:00:00,28.52123,76.37138,PM2.5,75,176,114
India,Haryana,Rohtak,"MD University, Rohtak - HSPCB",06-01-2026 08:00:00,28.52123,76.37138,OZONE,39,40,39
India,Haryana,Sonipat,"Murthal, Sonipat - HSPCB",06-01-2026 08:00:00,29.027200,77.062100,PM2.5,53,293,148
India,Haryana,Sonipat,"Murthal, Sonipat - HSPCB",06-01-2026 08:00:00,29.027200,77.062100,NH3,26,73,48
India,Haryana,Sonipat,"Murthal, Sonipat - HSPCB",06-01-2026 08:00:00,29.027200,77.062100,SO2,6,10,7
India,Karnataka,Bengaluru,"RVCE-Mailasandra, Bengaluru - KSPCB",06-01-2026 08:00:00,12.921418,77.502466,CO,23,42,33
India,Karnataka,Bengaluru,"Sanegurava Halli, Bengaluru - KSPCB",06-01-2026 08:00:00,12.990328,77.5431385,SO2,6,6,6
India,Karnataka,Bengaluru,"Shivapura_Peenya, Bengaluru - KSPCB",06-01-2026 08:00:00,13.0246342,77.5080115,PM2.5,77,194,125
India,Karnataka,Bengaluru,"Shivapura_Peenya, Bengaluru - KSPCB",06-01-2026 08:00:00,13.0246342,77.5080115,NO2,29,33,32
India,Karnataka,Bengaluru,"Silk Board, Bengaluru - KSPCB",06-01-2026 08:00:00,12.917348,77.622813,NO2,NA,NA,NA
India,Karnataka,Bengaluru,"Silk Board, Bengaluru - KSPCB",06-01-2026 08:00:00,12.917348,77.622813,SO2,2,19,13
India,Karnataka,Bengaluru,"Jayanagar 5th Block, Bengaluru - KSPCB",06-01-2026 08:00:00,12.920984,77.584908,NH3,1,2,1
India,Karnataka,Bengaluru,"Jayanagar 5th Block, Bengaluru - KSPCB",06-01-2026 08:00:00,12.920984,77.584908,CO,4,57,12
India,Karnataka,Bengaluru,"Jigani, Bengaluru - KSPCB",06-01-2026 08:00:00,12.7816279,77.6299145,PM2.5,46,67,56
India,Karnataka,Bengaluru,"Jigani, Bengaluru - KSPCB",06-01-2026 08:00:00,12.7816279,77.6299145,NO2,16,19,17
India,Karnataka,Bengaluru,"Jigani, Bengaluru - KSPCB",06-01-2026 08:00:00,12.7816279,77.6299145,SO2,16,20,18
India,Karnataka,Bengaluru,"Jigani, Bengaluru - KSPCB",06-01-2026 08:00:00,12.7816279,77.6299145,CO,34,49,34
India,Himachal Pradesh,Baddi,"HIMUDA Complex Phase-1, Baddi - HPPCB",06-01-2026 08:00:00,30.943887,76.801991,OZONE,8,96,15
India,Jammu_and_Kashmir,Srinagar,"Khunmoh, Srinagar - JKPCC",06-01-2026 08:00:00,34.06313,74.96017,NO2,2,4,3
India,Jammu_and_Kashmir,Srinagar,"Rajbagh, Srinagar - JKPCC",06-01-2026 08:00:00,34.066206,74.819820,PM10,22,43,35
India,Karnataka,Belgaum,"Ramteerth Nagar, Belgaum - KSPCB",06-01-2026 08:00:00,15.888653,74.541751,SO2,24,25,24
India,Karnataka,Bengaluru,"BTM Layout, Bengaluru - CPCB",06-01-2026 08:00:00,12.9135218,77.5950804,NO2,17,26,22
India,Karnataka,Bengaluru,"BWSSB Kadabesanahalli, Bengaluru - CPCB",06-01-2026 08:00:00,12.9352049,77.6814488,NH3,NA,NA,NA
India,Karnataka,Bengaluru,"Hombegowda Nagar, Bengaluru - KSPCB",06-01-2026 08:00:00,12.938539,77.590100,NH3,3,5,4
India,Karnataka,Chamarajanagar,"Urban, Chamarajanagar - KSPCB",06-01-2026 08:00:00,11.55358,76.55521,SO2,2,10,5
India,Karnataka,Chamarajanagar,"Urban, Chamarajanagar - KSPCB",06-01-2026 08:00:00,11.55358,76.55521,CO,22,120,34
India,Karnataka,Chamarajanagar,"Urban, Chamarajanagar - KSPCB",06-01-2026 08:00:00,11.55358,76.55521,OZONE,14,51,20
India,Karnataka,Chikkaballapur,"Chikkaballapur Rural, Chikkaballapur - KSPCB",06-01-2026 08:00:00,13.428828,77.731418,PM2.5,65,167,107
India,Karnataka,Chikkaballapur,"Chikkaballapur Rural, Chikkaballapur - KSPCB",06-01-2026 08:00:00,13.428828,77.731418,NH3,3,11,7
India,Karnataka,Chikkaballapur,"Chikkaballapur Rural, Chikkaballapur - KSPCB",06-01-2026 08:00:00,13.428828,77.731418,CO,4,30,17
India,Karnataka,Chikkaballapur,"Chikkaballapur Rural, Chikkaballapur - KSPCB",06-01-2026 08:00:00,13.428828,77.731418,OZONE,18,154,36
India,Karnataka,Chikkamagaluru,"Kalyana Nagara, Chikkamagaluru - KSPCB",06-01-2026 08:00:00,13.328028,75.797056,PM10,39,65,50
