country,state,city,station,last_update,latitude,longitude,pollutant_id,min_value,max_value,avg_value
India,Bihar,Motihari,"Gandak Colony, Motihari - BSPCB",13-11-2025 07:00:00,26.63086,84.90051,PM10,NA,NA,NA
India,Bihar,Motihari,"Gandak Colony, Motihari - BSPCB",13-11-2025 07:00:00,26.63086,84.90051,SO2,3,3,3
India,Bihar,Munger,"Town Hall, Munger - BSPCB",13-11-2025 07:00:00,25.376776,86.471523,PM2.5,NA,NA,NA
India,Bihar,Munger,"Town Hall, Munger - BSPCB",13-11-2025 07:00:00,25.376776,86.471523,CO,NA,NA,NA
India,Bihar,Muzaffarpur,"Buddha Colony, Muzaffarpur - BSPCB",13-11-2025 07:00:00,26.11442,85.39813,CO,26,112,61
India,Bihar,Muzaffarpur,"MIT-Daudpur Kothi, Muzaffarpur - BSPCB",13-11-2025 07:00:00,26.1403345,85.3650192,PM2.5,92,120,106
India,Bihar,Muzaffarpur,"MIT-Daudpur Kothi, Muzaffarpur - BSPCB",13-11-2025 07:00:00,26.1403345,85.3650192,CO,40,66,48
India,Bihar,Muzaffarpur,"MIT-Daudpur Kothi, Muzaffarpur - BSPCB",13-11-2025 07:00:00,26.1403345,85.3650192,OZONE,8,65,21
India,Andaman and Nicobar,Sri Vijaya Puram,"Police Line, Sri Vijaya Puram - ANPCC",13-11-2025 07:00:00,11.654054,92.734055,NH3,NA,NA,NA
India,Andhra_Pradesh,Amaravati,"Secretariat, Amaravati - APPCB",13-11-2025 07:00:00,16.5150833,80.5181667,PM10,106,306,144
India,Andhra_Pradesh,Anantapur,"Gulzarpet, Anantapur - APPCB",13-11-2025 07:00:00,14.675886,77.593027,NO2,19,20,20
India,Andhra_Pradesh,Anantapur,"Gulzarpet, Anantapur - APPCB",13-11-2025 07:00:00,14.675886,77.593027,NH3,4,5,5
India,Andhra_Pradesh,Anantapur,"Gulzarpet, Anantapur - APPCB",13-11-2025 07:00:00,14.675886,77.593027,OZONE,26,73,44
India,Andhra_Pradesh,Chittoor,"Gangineni Cheruvu, Chittoor - APPCB",13-11-2025 07:00:00,13.204880,79.097889,OZONE,51,59,56
India,Bihar,Hajipur,"Industrial Area, Hajipur - BSPCB",13-11-2025 07:00:00,25.697189,85.245900,PM2.5,102,310,190
India,Bihar,Hajipur,"Industrial Area, Hajipur - BSPCB",13-11-2025 07:00:00,25.697189,85.245900,PM10,75,143,105
India,Bihar,Katihar,"Mirchaibari, Katihar - BSPCB",13-11-2025 07:00:00,25.560083,87.553265,PM10,65,99,79
India,Bihar,Katihar,"Mirchaibari, Katihar - BSPCB",13-11-2025 07:00:00,25.560083,87.553265,NH3,1,1,1
India,Bihar,Kishanganj,"SDM Office_Khagra, Kishanganj - BSPCB",13-11-2025 07:00:00,26.0881305,87.93840336,OZONE,16,17,17
India,Bihar,Manguraha,"Forest Rest House, Manguraha - BSPCB",13-11-2025 07:00:00,27.308328,84.531742,PM2.5,25,88,57
India,Andhra_Pradesh,Rajamahendravaram,"Anand Kala Kshetram, Rajamahendravaram - APPCB",13-11-2025 07:00:00,16.9872867,81.7363176,PM2.5,97,189,147
India,Andhra_Pradesh,Rajamahendravaram,"Anand Kala Kshetram, Rajamahendravaram - APPCB",13-11-2025 07:00:00,16.9872867,81.7363176,PM10,105,144,127
India,Andhra_Pradesh,Tirumala,"Toll Gate, Tirumala - APPCB",13-11-2025 07:00:00,13.67,79.35,OZONE,21,90,31
India,Andhra_Pradesh,Tirupati,"Vaikuntapuram, Tirupati - APPCB",13-11-2025 07:00:00,13.615387,79.409230,PM2.5,33,437,168
India,Andhra_Pradesh,Tirupati,"Vaikuntapuram, Tirupati - APPCB",13-11-2025 07:00:00,13.615387,79.409230,OZONE,16,27,17
India,Bihar,Araria,"Kharahiya Basti, Araria - BSPCB",13-11-2025 07:00:00,26.146529,87.454184,PM2.5,NA,NA,NA
India,Bihar,Araria,"Kharahiya Basti, Araria - BSPCB",13-11-2025 07:00:00,26.146529,87.454184,PM10,NA,NA,NA
India,Bihar,Arrah,"New DM Office, Arrah - BSPCB",13-11-2025 07:00:00,25.5626095,84.663264,NH3,1,1,1
India,Bihar,Aurangabad,"Gurdeo Nagar, Aurangabad - BSPCB",13-11-2025 07:00:00,24.75746,84.366208,NO2,7,8,8
India,Bihar,Begusarai,"Lohiyanagar, Begusarai - BSPCB",13-11-2025 07:00:00,25.42742023,86.13886079,OZONE,4,21,19
India,Assam,Guwahati,"Railway Colony, Guwahati - PCBA",13-11-2025 07:00:00,26.181742,91.78063,CO,35,76,52
India,Assam,Nagaon,"Christianpatty, Nagaon - PCBA",13-11-2025 07:00:00,26.349082,92.68449,NO2,1,2,1
India,Assam,Nalbari,"Bata Chowk, Nalbari - PCBA",13-11-2025 07:00:00,26.446912,91.439057,NH3,5,8,6
India,Assam,Nalbari,"Bata Chowk, Nalbari - PCBA",13-11-2025 07:00:00,26.446912,91.439057,OZONE,3,31,17
India,Assam,Silchar,"Tarapur, Silchar - PCBA",13-11-2025 07:00:00,24.82827,92.79525,CO,30,83,41
India,Andhra_Pradesh,Vijayawada,"Rajiv Gandhi Park, Vijayawada - APPCB",13-11-2025 07:00:00,16.509717,80.612222,NO2,31,81,48
India,Andhra_Pradesh,Visakhapatnam,"GVM Corporation, Visakhapatnam - APPCB",13-11-2025 07:00:00,17.72,83.3,PM2.5,130,256,182
India,Andhra_Pradesh,Visakhapatnam,"GVM Corporation, Visakhapatnam - APPCB",13-11-2025 07:00:00,17.72,83.3,CO,8,32,14
India,Arunachal_Pradesh,Naharlagun,"Naharlagun, Naharlagun - APSPCB",13-11-2025 07:00:00,27.103358,93.679645,SO2,8,8,8
India,Bihar,Bettiah,"Kamalnath Nagar, Bettiah - BSPCB",13-11-2025 07:00:00,26.80365,84.51954,OZONE,20,22,22
India,Bihar,Bhagalpur,"DM Office_Kachari Chowk, Bhagalpur - BSPCB",13-11-2025 07:00:00,25.251013,86.989001,CO,14,18,16
India,Bihar,Bhagalpur,"Mayaganj, Bhagalpur - BSPCB",13-11-2025 07:00:00,25.265194,87.012947,NO2,6,10,7
India,Bihar,Bhagalpur,"Mayaganj, Bhagalpur - BSPCB",13-11-2025 07:00:00,25.265194,87.012947,SO2,30,46,36
India,Assam,Guwahati,"IITG, Guwahati - PCBA",13-11-2025 07:00:00,26.2028636,91.70046436,PM10,74,145,114
India,Assam,Guwahati,"Pan Bazaar, Guwahati - PCBA",13-11-2025 07:00:00,26.187500,91.744194,CO,20,100,56
India,Assam,Guwahati,"Railway Colony, Guwahati - PCBA",13-11-2025 07:00:00,26.181742,91.78063,PM10,73,166,114
India,Assam,Guwahati,"Railway Colony, Guwahati - PCBA",13-11-2025 07:00:00,26.181742,91.78063,SO2,31,33,32
India,Bihar,Bihar Sharif,"D M Colony, Bihar Sharif - BSPCB",13-11-2025 07:00:00,25.204762,85.514960,SO2,10,10,10
India,Bihar,Buxar,"Charitra Van, Buxar - BSPCB",13-11-2025 07:00:00,25.567520,83.966379,CO,20,29,24
India,Bihar,Chhapra,"Darshan Nagar, Chhapra - BSPCB",13-11-2025 07:00:00,25.7808257,84.7446768,OZONE,15,50,23
India,Bihar,Patna,"Rajbansi Nagar, Patna - BSPCB",13-11-2025 07:00:00,25.599486,85.113666,PM10,86,132,115
India,Bihar,Patna,"Rajbansi Nagar, Patna - BSPCB",13-11-2025 07:00:00,25.599486,85.113666,NO2,50,251,108
India,Bihar,Patna,"Rajbansi Nagar, Patna - BSPCB",13-11-2025 07:00:00,25.599486,85.113666,NH3,1,10,6
India,Bihar,Patna,"Samanpura, Patna - BSPCB",13-11-2025 07:00:00,25.596727,85.085624,PM2.5,73,308,211
India,Bihar,Patna,"Samanpura, Patna - BSPCB",13-11-2025 07:00:00,25.596727,85.085624,NO2,39,51,45
India,Bihar,Purnia,"Mariam Nagar, Purnia - BSPCB",13-11-2025 07:00:00,25.366336,87.117468,PM10,55,134,100
India,Bihar,Purnia,"Mariam Nagar, Purnia - BSPCB",13-11-2025 07:00:00,25.366336,87.117468,NO2,5,6,6
India,Bihar,Purnia,"Mariam Nagar, Purnia - BSPCB",13-11-2025 07:00:00,25.366336,87.117468,SO2,14,16,16
India,Bihar,Purnia,"Mariam Nagar, Purnia - BSPCB",13-11-2025 07:00:00,25.366336,87.117468,OZONE,22,46,23
India,Bihar,Rajgir,"Dangi Tola, Rajgir - BSPCB",13-11-2025 07:00:00,25.03280,85.41948,OZONE,30,35,32
India,Chhattisgarh,Kunjemura,"OP Jindal School, Kunjemura - CECB",13-11-2025 07:00:00,22.126650,83.483212,PM10,NA,NA,NA
India,Chhattisgarh,Kunjemura,"OP Jindal School, Kunjemura - CECB",13-11-2025 07:00:00,22.126650,83.483212,NH3,NA,NA,NA
India,Chhattisgarh,Milupara,"Govt. Higher Secondary School, Milupara - CECB",13-11-2025 07:00:00,22.1910172,83.5197009,SO2,10,19,13
India,Chhattisgarh,Milupara,"Govt. Higher Secondary School, Milupara - CECB",13-11-2025 07:00:00,22.1910172,83.5197009,OZONE,13,178,22
India,Chhattisgarh,Raipur,"AIIMS, Raipur - CECB",13-11-2025 07:00:00,21.258815,81.578979,NO2,42,92,53
India,Chhattisgarh,Raipur,"AIIMS, Raipur - CECB",13-11-2025 07:00:00,21.258815,81.578979,CO,20,72,47
India,Bihar,Sasaram,"Dada Peer, Sasaram - BSPCB",13-11-2025 07:00:00,24.952822,84.002396,PM2.5,51,102,73
India,Bihar,Siwan,"Chitragupta Nagar, Siwan - BSPCB",13-11-2025 07:00:00,26.2271665,84.3570427,NO2,NA,NA,NA
India,Bihar,Siwan,"Chitragupta Nagar, Siwan - BSPCB",13-11-2025 07:00:00,26.2271665,84.3570427,NH3,NA,NA,NA
India,Bihar,Siwan,"Chitragupta Nagar, Siwan - BSPCB",13-11-2025 07:00:00,26.2271665,84.3570427,SO2,NA,NA,NA
India,Chandigarh,Chandigarh,"Sector 22, Chandigarh - CPCC",13-11-2025 07:00:00,30.735567,76.775714,PM2.5,50,223,110
India,Chandigarh,Chandigarh,"Sector 22, Chandigarh - CPCC",13-11-2025 07:00:00,30.735567,76.775714,PM10,45,148,89
India,Chhattisgarh,Raipur,"Siltara Phase-II, Raipur - CECB",13-11-2025 07:00:00,21.371751,81.664929,NO2,7,24,13
India,Chhattisgarh,Raipur,"Siltara Phase-II, Raipur - CECB",13-11-2025 07:00:00,21.371751,81.664929,SO2,3,5,4
India,Chhattisgarh,Raipur,"Siltara Phase-II, Raipur - CECB",13-11-2025 07:00:00,21.371751,81.664929,OZONE,4,14,6
India,Chhattisgarh,Tumidih,"OP Jindal Industrial Park, Tumidih - CECB",13-11-2025 07:00:00,22.06631475,83.33820077,CO,19,66,34
India,Chhattisgarh,Tumidih,"OP Jindal Industrial Park, Tumidih - CECB",13-11-2025 07:00:00,22.06631475,83.33820077,OZONE,5,118,9
India,Chhattisgarh,Bhilai,"Hathkhoj, Bhilai - CECB",13-11-2025 07:00:00,21.224231,81.408350,PM10,NA,NA,NA
India,Chhattisgarh,Bilaspur,"Mangala, Bilaspur - NTPC",13-11-2025 07:00:00,22.08815,82.13737,CO,38,46,44
India,Chhattisgarh,Chhal,"Nawapara SECL Colony, Chhal - CECB",13-11-2025 07:00:00,22.118125,83.140608,SO2,6,69,25
India,Chhattisgarh,Chhal,"Nawapara SECL Colony, Chhal - CECB",13-11-2025 07:00:00,22.118125,83.140608,CO,24,48,31
India,Chandigarh,Chandigarh,"Sector-25, Chandigarh - CPCC",13-11-2025 07:00:00,30.751462,76.762879,PM2.5,65,96,81
India,Chandigarh,Chandigarh,"Sector-25, Chandigarh - CPCC",13-11-2025 07:00:00,30.751462,76.762879,OZONE,1,47,2
India,Chhattisgarh,Bhilai,"32Bungalows, Bhilai - CECB",13-11-2025 07:00:00,21.194815,81.314770,PM10,48,114,72
India,Chhattisgarh,Bhilai,"32Bungalows, Bhilai - CECB",13-11-2025 07:00:00,21.194815,81.314770,CO,14,90,55
India,Chhattisgarh,Chhal,"Nawapara SECL Colony, Chhal - CECB",13-11-2025 07:00:00,22.118125,83.140608,OZONE,9,201,19
India,Chhattisgarh,Korba,"Rampur, Korba - CECB",13-11-2025 07:00:00,22.368195,82.746431,NH3,2,2,2
India,Chhattisgarh,Korba,"Urja Nagar, Korba - CECB",13-11-2025 07:00:00,22.348441,82.549611,CO,18,45,32
India,Chhattisgarh,Raipur,"Bhatagaon New ISBT, Raipur - CECB",13-11-2025 07:00:00,21.219665,81.630094,PM2.5,28,101,54
India,Chhattisgarh,Raipur,"Krishak Nagar, Raipur - CECB",13-11-2025 07:00:00,21.237755,81.705301,PM10,63,119,96
India,Chhattisgarh,Raipur,"Siltara Phase-II, Raipur - CECB",13-11-2025 07:00:00,21.371751,81.664929,PM2.5,57,116,80
India,Bihar,Patna,"Govt. High School Shikarpur, Patna - BSPCB",13-11-2025 07:00:00,25.592539,85.227158,OZONE,9,13,11
India,Bihar,Patna,"IGSC Planetarium Complex, Patna - BSPCB",13-11-2025 07:00:00,25.610369,85.132568,PM2.5,70,244,173
India,Delhi,Delhi,"Dr. Karni Singh Shooting Range, Delhi - DPCC",13-11-2025 07:00:00,28.498571,77.264840,NO2,61,138,104
India,Delhi,Delhi,"Dwarka-Sector 8, Delhi - DPCC ",13-11-2025 07:00:00,28.5710274,77.0719006,NH3,13,30,17
India,Delhi,Delhi,"Dwarka-Sector 8, Delhi - DPCC ",13-11-2025 07:00:00,28.5710274,77.0719006,SO2,4,24,15
India,Delhi,Delhi,"IGI Airport (T3), Delhi - IMD",13-11-2025 07:00:00,28.5627763,77.1180053,NO2,100,278,181
India,Delhi,Delhi,"Jawaharlal Nehru Stadium, Delhi - DPCC",13-11-2025 07:00:00,28.580280,77.233829,PM10,246,483,401
India,Delhi,Delhi,"Lodhi Road, Delhi - IITM",13-11-2025 07:00:00,28.588333,77.221667,PM2.5,289,404,319
India,Delhi,Delhi,"Lodhi Road, Delhi - IITM",13-11-2025 07:00:00,28.588333,77.221667,PM10,158,253,194
India,Delhi,Delhi,"Lodhi Road, Delhi - IMD",13-11-2025 07:00:00,28.5918245,77.2273074,PM10,205,446,322
India,Delhi,Delhi,"Mundka, Delhi - DPCC",13-11-2025 07:00:00,28.684678,77.076574,CO,38,114,85
India,Delhi,Delhi,"NSIT Dwarka, Delhi - CPCB",13-11-2025 07:00:00,28.60909,77.0325413,NH3,4,12,9
India,Delhi,Delhi,"Najafgarh, Delhi - DPCC",13-11-2025 07:00:00,28.570173,76.933762,NO2,68,147,126
India,Delhi,Delhi,"Najafgarh, Delhi - DPCC",13-11-2025 07:00:00,28.570173,76.933762,CO,45,96,87
India,Delhi,Delhi,"CRRI Mathura Road, Delhi - IMD",13-11-2025 07:00:00,28.5512005,77.2735737,PM10,249,459,388
India,Delhi,Delhi,"Chandni Chowk, Delhi - IITM",13-11-2025 07:00:00,28.656756,77.227234,NO2,28,66,43
India,Delhi,Delhi,"Chandni Chowk, Delhi - IITM",13-11-2025 07:00:00,28.656756,77.227234,SO2,12,43,25
India,Delhi,Delhi,"Mandir Marg, Delhi - DPCC",13-11-2025 07:00:00,28.636429,77.201067,SO2,11,101,68
India,Delhi,Delhi,"Mandir Marg, Delhi - DPCC",13-11-2025 07:00:00,28.636429,77.201067,OZONE,6,172,7
India,Delhi,Delhi,"Mundka, Delhi - DPCC",13-11-2025 07:00:00,28.684678,77.076574,PM10,162,499,336
India,Delhi,Delhi,"Alipur, Delhi - DPCC",13-11-2025 07:00:00,28.815329,77.153010,CO,52,106,101
India,Delhi,Delhi,"Anand Vihar, Delhi - DPCC",13-11-2025 07:00:00,28.647622,77.3158090,NH3,13,17,15
India,Delhi,Delhi,"Anand Vihar, Delhi - DPCC",13-11-2025 07:00:00,28.647622,77.3158090,CO,84,185,140
India,Delhi,Delhi,"Nehru Nagar, Delhi - DPCC",13-11-2025 07:00:00,28.567890,77.250515,CO,92,145,128
India,Delhi,Delhi,"North Campus, DU, Delhi - IMD",13-11-2025 07:00:00,28.6573814,77.1585447,PM2.5,323,500,415
India,Delhi,Delhi,"IHBAS, Dilshad Garden, Delhi - CPCB",13-11-2025 07:00:00,28.6811736,77.3025234,OZONE,9,70,24
India,Delhi,Delhi,"Aya Nagar, Delhi - IMD",13-11-2025 07:00:00,28.4706914,77.1099364,PM2.5,297,477,396
India,Gujarat,Ahmedabad,"SAC ISRO Satellite, Ahmedabad - IITM",13-11-2025 07:00:00,23.023389,72.515201,PM10,83,144,109
India,Gujarat,Ahmedabad,"SAC ISRO Satellite, Ahmedabad - IITM",13-11-2025 07:00:00,23.023389,72.515201,SO2,1,43,9
India,Gujarat,Ahmedabad,"SVPI Airport Hansol, Ahmedabad - IITM",13-11-2025 07:00:00,23.076793,72.627874,CO,3,101,72
India,Gujarat,Ankleshwar,"GIDC, Ankleshwar - GPCB",13-11-2025 07:00:00,21.613267,73.010555,PM10,97,172,140
India,Gujarat,Gandhinagar,"GIFT City, Gandhinagar - IITM",13-11-2025 07:00:00,23.163798,72.677768,PM2.5,3,184,101
India,Gujarat,Gandhinagar,"GIFT City, Gandhinagar - IITM",13-11-2025 07:00:00,23.163798,72.677768,SO2,6,17,10
India,Gujarat,Gandhinagar,"IIPHG Lekawada, Gandhinagar - IITM",13-11-2025 07:00:00,23.243639,72.68994,CO,13,105,64
India,Gujarat,Gandhinagar,"Sector-10, Gandhinagar - GPCB",13-11-2025 07:00:00,23.221714,72.654328,PM2.5,60,304,164
India,Gujarat,Ahmedabad,"Rakhial, Ahmedabad - IITM",13-11-2025 07:00:00,23.016834,72.625775,PM2.5,65,370,193
India,Gujarat,Ahmedabad,"Rakhial, Ahmedabad - IITM",13-11-2025 07:00:00,23.016834,72.625775,SO2,17,80,44
India,Gujarat,Ahmedabad,"SAC ISRO Bopal, Ahmedabad - IITM",13-11-2025 07:00:00,23.041137,72.456691,SO2,2,8,3
India,Gujarat,Ahmedabad,"SAC ISRO Satellite, Ahmedabad - IITM",13-11-2025 07:00:00,23.023389,72.515201,PM2.5,69,194,104
India,Delhi,Delhi,"Sonia Vihar, Delhi - DPCC",13-11-2025 07:00:00,28.710508,77.249485,NO2,29,101,63
India,Delhi,Delhi,"Sonia Vihar, Delhi - DPCC",13-11-2025 07:00:00,28.710508,77.249485,OZONE,4,285,7
India,Delhi,Delhi,"Sri Aurobindo Marg, Delhi - DPCC",13-11-2025 07:00:00,28.531346,77.190156,PM10,163,465,304
India,Delhi,Delhi,"Vivek Vihar, Delhi - DPCC",13-11-2025 07:00:00,28.672342,77.315260,PM2.5,333,500,434
India,Delhi,Delhi,"Wazirpur, Delhi - DPCC",13-11-2025 07:00:00,28.699793,77.165453,PM2.5,335,500,443
India,Delhi,Delhi,"Wazirpur, Delhi - DPCC",13-11-2025 07:00:00,28.699793,77.165453,NO2,61,135,96
India,Delhi,Delhi,"Wazirpur, Delhi - DPCC",13-11-2025 07:00:00,28.699793,77.165453,CO,61,122,109
India,Gujarat,Ahmedabad,"Chandkheda, Ahmedabad - IITM",13-11-2025 07:00:00,23.107969,72.574648,NH3,8,43,19
India,Delhi,Delhi,"Rohini, Delhi - DPCC",13-11-2025 07:00:00,28.732528,77.119920,NO2,16,128,63
India,Delhi,Delhi,"Rohini, Delhi - DPCC",13-11-2025 07:00:00,28.732528,77.119920,SO2,6,37,13
India,Delhi,Delhi,"Shadipur, Delhi - CPCB",13-11-2025 07:00:00,28.6514781,77.1473105,CO,34,121,103
India,Delhi,Delhi,"Sirifort, Delhi - CPCB",13-11-2025 07:00:00,28.5504249,77.2159377,CO,34,137,120
India,Delhi,Delhi,"Punjabi Bagh, Delhi - DPCC",13-11-2025 07:00:00,28.674045,77.131023,OZONE,2,141,3
India,Delhi,Delhi,"Pusa, Delhi - DPCC",13-11-2025 07:00:00,28.639652,77.146275,CO,78,109,99
India,Delhi,Delhi,"R K Puram, Delhi - DPCC",13-11-2025 07:00:00,28.563262,77.186937,PM2.5,326,500,442
India,Delhi,Delhi,"R K Puram, Delhi - DPCC",13-11-2025 07:00:00,28.563262,77.186937,NH3,NA,NA,NA
India,Delhi,Delhi,"Okhla Phase-2, Delhi - DPCC",13-11-2025 07:00:00,28.530785,77.271255,NO2,80,190,133
India,Delhi,Delhi,"Punjabi Bagh, Delhi - DPCC",13-11-2025 07:00:00,28.674045,77.131023,PM2.5,322,500,429
India,Delhi,Delhi,"Punjabi Bagh, Delhi - DPCC",13-11-2025 07:00:00,28.674045,77.131023,PM10,227,482,400
India,Delhi,Delhi,"Punjabi Bagh, Delhi - DPCC",13-11-2025 07:00:00,28.674045,77.131023,NO2,34,96,60
India,Gujarat,Ahmedabad,"Gyaspur, Ahmedabad - IITM",13-11-2025 07:00:00,22.977134,72.553024,NH3,2,58,20
India,Gujarat,Ahmedabad,"Raikhad, Ahmedabad - IITM",13-11-2025 07:00:00,23.020509,72.579261,NO2,24,188,103
India,Gujarat,Ahmedabad,"Raikhad, Ahmedabad - IITM",13-11-2025 07:00:00,23.020509,72.579261,CO,2,150,83
India,Haryana,Charkhi Dadri,"Mini Secretariat, Charkhi Dadri - HSPCB",13-11-2025 07:00:00,28.593883,76.270653,OZONE,14,16,16
India,Haryana,Dharuhera,"Municipal Corporation Office, Dharuhera -  HSPCB",13-11-2025 07:00:00,28.206800,76.799700,PM2.5,152,324,282
India,Haryana,Faridabad,"New Industrial Town, Faridabad - HSPCB",13-11-2025 07:00:00,28.39072,77.30059,PM10,187,198,194
India,Haryana,Faridabad,"New Industrial Town, Faridabad - HSPCB",13-11-2025 07:00:00,28.39072,77.30059,CO,10,14,11
India,Haryana,Bahadurgarh,"Arya Nagar, Bahadurgarh - HSPCB",13-11-2025 07:00:00,28.6701,76.9254,OZONE,13,20,17
India,Haryana,Ballabgarh,"Nathu Colony, Ballabgarh - HSPCB",13-11-2025 07:00:00,28.3419248,77.319699,NO2,20,21,20
India,Haryana,Bhiwani,"H.B. Colony, Bhiwani - HSPCB",13-11-2025 07:00:00,28.806223,76.141105,PM2.5,318,356,331
India,Haryana,Bhiwani,"H.B. Colony, Bhiwani - HSPCB",13-11-2025 07:00:00,28.806223,76.141105,PM10,140,188,163
India,Haryana,Ambala,"Patti Mehar, Ambala - HSPCB",13-11-2025 07:00:00,30.379589,76.778328,PM10,92,253,161
India,Haryana,Ambala,"Patti Mehar, Ambala - HSPCB",13-11-2025 07:00:00,30.379589,76.778328,SO2,31,32,31
India,Haryana,Ambala,"Patti Mehar, Ambala - HSPCB",13-11-2025 07:00:00,30.379589,76.778328,CO,96,101,99
India,Haryana,Bahadurgarh,"Arya Nagar, Bahadurgarh - HSPCB",13-11-2025 07:00:00,28.6701,76.9254,NO2,12,14,13
India,Haryana,Bahadurgarh,"Arya Nagar, Bahadurgarh - HSPCB",13-11-2025 07:00:00,28.6701,76.9254,SO2,6,7,7
India,Gujarat,Gandhinagar,"Sector-10, Gandhinagar - GPCB",13-11-2025 07:00:00,23.221714,72.654328,CO,27,48,36
India,Gujarat,Vapi,"Phase-1 GIDC, Vapi - GPCB",13-11-2025 07:00:00,20.362421,72.918013,PM2.5,73,403,257
India,Gujarat,Vapi,"Phase-1 GIDC, Vapi - GPCB",13-11-2025 07:00:00,20.362421,72.918013,SO2,13,29,25
India,Gujarat,Vatva,"Phase-4 GIDC, Vatva - GPCB",13-11-2025 07:00:00,22.969611,72.643500,PM2.5,30,247,85
India,Haryana,Faridabad,"Sector 11, Faridabad - HSPCB",13-11-2025 07:00:00,28.376058,77.315741,SO2,1,103,39
India,Haryana,Faridabad,"Sector 30, Faridabad - HSPCB",13-11-2025 07:00:00,28.4417,77.3217,NO2,36,40,38
India,Haryana,Gurugram,"Vikas Sadan, Gurugram - HSPCB",13-11-2025 07:00:00,28.4501238,77.0263051,SO2,2,8,5
India,Haryana,Gurugram,"Vikas Sadan, Gurugram - HSPCB",13-11-2025 07:00:00,28.4501238,77.0263051,OZONE,7,49,14
India,Haryana,Kurukshetra,"Sector-7, Kurukshetra - HSPCB",13-11-2025 07:00:00,29.966942,76.875879,NH3,5,5,5
India,Haryana,Jind,"Police Lines, Jind - HSPCB",13-11-2025 07:00:00,29.307814,76.337619,SO2,27,29,28
India,Haryana,Gurugram,"Sector-51, Gurugram - HSPCB",13-11-2025 07:00:00,28.4227,77.0667,NH3,6,10,8
India,Haryana,Panchgaon,"Amity University, Panchgaon - IITM",13-11-2025 07:00:00,28.3153,76.9143,PM2.5,75,304,135
India,Haryana,Panchgaon,"Amity University, Panchgaon - IITM",13-11-2025 07:00:00,28.3153,76.9143,PM10,85,191,123
India,Haryana,Panchkula,"Sector-6, Panchkula - HSPCB ",13-11-2025 07:00:00,30.7057778,76.8531805555555,PM2.5,NA,NA,NA
India,Haryana,Panchkula,"Sector-6, Panchkula - HSPCB ",13-11-2025 07:00:00,30.7057778,76.8531805555555,NO2,NA,NA,NA
India,Haryana,Panchkula,"Sector-6, Panchkula - HSPCB ",13-11-2025 07:00:00,30.7057778,76.8531805555555,CO,20,22,20
India,Haryana,Panipat,"Sector-18, Panipat - HSPCB",13-11-2025 07:00:00,29.432304,76.972765,PM10,72,459,240
India,Haryana,Panipat,"Sector-18, Panipat - HSPCB",13-11-2025 07:00:00,29.432304,76.972765,NO2,31,32,31
India,Jharkhand,Dhanbad,"Sardar Patel Nagar, Dhanbad - JSPCB",13-11-2025 07:00:00,23.80569,86.44268,OZONE,1,32,1
India,Karnataka,Bagalkot,"Vidayagiri, Bagalkot - KSPCB",13-11-2025 07:00:00,16.172806,75.659694,NO2,11,12,12
India,Karnataka,Bagalkot,"Vidayagiri, Bagalkot - KSPCB",13-11-2025 07:00:00,16.172806,75.659694,SO2,7,7,7
India,Karnataka,Bagalkot,"Vidayagiri, Bagalkot - KSPCB",13-11-2025 07:00:00,16.172806,75.659694,OZONE,10,16,15
India,Karnataka,Belgaum,"Ramteerth Nagar, Belgaum - KSPCB",13-11-2025 07:00:00,15.888653,74.541751,PM2.5,34,134,78
India,Haryana,Panipat,"Sector-18, Panipat - HSPCB",13-11-2025 07:00:00,29.432304,76.972765,NH3,2,3,3
India,Haryana,Rohtak,"MD University, Rohtak - HSPCB",13-11-2025 07:00:00,28.52123,76.37138,CO,20,66,63
India,Haryana,Rohtak,"MD University, Rohtak - HSPCB",13-11-2025 07:00:00,28.52123,76.37138,OZONE,12,13,13
India,Haryana,Sirsa,"F-Block, Sirsa - HSPCB",13-11-2025 07:00:00,29.536400,75.015800,NO2,8,26,20
India,Karnataka,Bengaluru,"BTM Layout, Bengaluru - CPCB",13-11-2025 07:00:00,12.9135218,77.5950804,PM10,73,75,74
India,Karnataka,Bengaluru,"BTM Layout, Bengaluru - CPCB",13-11-2025 07:00:00,12.9135218,77.5950804,NO2,23,24,23
India,Karnataka,Bengaluru,"BTM Layout, Bengaluru - CPCB",13-11-2025 07:00:00,12.9135218,77.5950804,NH3,3,3,3
India,Karnataka,Bengaluru,"BWSSB Kadabesanahalli, Bengaluru - CPCB",13-11-2025 07:00:00,12.9352049,77.6814488,PM10,132,377,238
India,Karnataka,Bengaluru,"BWSSB Kadabesanahalli, Bengaluru - CPCB",13-11-2025 07:00:00,12.9352049,77.6814488,CO,48,88,57
India,Karnataka,Bengaluru,"Hebbal, Bengaluru - KSPCB",13-11-2025 07:00:00,13.029152,77.585901,SO2,1,5,3
India,Karnataka,Bengaluru,"Hombegowda Nagar, Bengaluru - KSPCB",13-11-2025 07:00:00,12.938539,77.590100,PM2.5,50,78,60
India,Karnataka,Bengaluru,"Hombegowda Nagar, Bengaluru - KSPCB",13-11-2025 07:00:00,12.938539,77.590100,SO2,10,18,13
India,Karnataka,Bengaluru,"Jayanagar 5th Block, Bengaluru - KSPCB",13-11-2025 07:00:00,12.920984,77.584908,CO,3,78,11
India,Haryana,Yamuna Nagar,"Gobind Pura, Yamuna Nagar - HSPCB",13-11-2025 07:00:00,30.1480566,77.2893471,PM2.5,110,303,223
India,Haryana,Yamuna Nagar,"Gobind Pura, Yamuna Nagar - HSPCB",13-11-2025 07:00:00,30.1480566,77.2893471,PM10,100,165,138
India,Himachal Pradesh,Baddi,"HIMUDA Complex Phase-1, Baddi - HPPCB",13-11-2025 07:00:00,30.943887,76.801991,PM2.5,33,368,156
India,Haryana,Manesar,"Sector-2 IMT, Manesar - HSPCB",13-11-2025 07:00:00,28.360699,76.936090,PM10,85,458,163
India,Haryana,Manesar,"Sector-2 IMT, Manesar - HSPCB",13-11-2025 07:00:00,28.360699,76.936090,CO,12,102,81
India,Haryana,Manesar,"Sector-2 IMT, Manesar - HSPCB",13-11-2025 07:00:00,28.360699,76.936090,OZONE,7,38,9
India,Haryana,Narnaul,"Shastri Nagar, Narnaul - HSPCB",13-11-2025 07:00:00,28.060249,76.113115,NH3,3,9,5
India,Karnataka,Bengaluru,"Jigani, Bengaluru - KSPCB",13-11-2025 07:00:00,12.7816279,77.6299145,OZONE,19,21,20
India,Karnataka,Bengaluru,"Kasturi Nagar, Bengaluru - KSPCB",13-11-2025 07:00:00,13.003872,77.664217,PM2.5,57,59,58
India,Karnataka,Bengaluru,"RVCE-Mailasandra, Bengaluru - KSPCB",13-11-2025 07:00:00,12.921418,77.502466,NH3,NA,NA,NA
India,Himachal Pradesh,Baddi,"HIMUDA Complex Phase-1, Baddi - HPPCB",13-11-2025 07:00:00,30.943887,76.801991,SO2,21,104,37
India,Karnataka,Chamarajanagar,"Urban, Chamarajanagar - KSPCB",13-11-2025 07:00:00,11.55358,76.55521,PM2.5,20,49,31
India,Karnataka,Chamarajanagar,"Urban, Chamarajanagar - KSPCB",13-11-2025 07:00:00,11.55358,76.55521,OZONE,14,38,16
India,Karnataka,Chikkamagaluru,"Kalyana Nagara, Chikkamagaluru - KSPCB",13-11-2025 07:00:00,13.328028,75.797056,NH3,2,3,3
India,Karnataka,Chikkamagaluru,"Kalyana Nagara, Chikkamagaluru - KSPCB",13-11-2025 07:00:00,13.328028,75.797056,CO,11,18,11
India,Karnataka,Davanagere,"Devaraj Urs Badavane, Davanagere - KSPCB",13-11-2025 07:00:00,14.475800,75.905200,PM2.5,53,159,99
India,Karnataka,Davanagere,"Devaraj Urs Badavane, Davanagere - KSPCB",13-11-2025 07:00:00,14.475800,75.905200,PM10,59,140,106
India,Karnataka,Davanagere,"Devaraj Urs Badavane, Davanagere - KSPCB",13-11-2025 07:00:00,14.475800,75.905200,NO2,23,49,30
India,Karnataka,Bengaluru,"RVCE-Mailasandra, Bengaluru - KSPCB",13-11-2025 07:00:00,12.921418,77.502466,OZONE,NA,NA,NA
India,Karnataka,Bengaluru,"Sanegurava Halli, Bengaluru - KSPCB",13-11-2025 07:00:00,12.990328,77.5431385,SO2,7,7,7
India,Karnataka,Bengaluru,"Shivapura_Peenya, Bengaluru - KSPCB",13-11-2025 07:00:00,13.0246342,77.5080115,CO,46,62,54
India,Karnataka,Bengaluru,"Shivapura_Peenya, Bengaluru - KSPCB",13-11-2025 07:00:00,13.0246342,77.5080115,OZONE,19,20,20
India,Karnataka,Bengaluru,"Silk Board, Bengaluru - KSPCB",13-11-2025 07:00:00,12.917348,77.622813,PM2.5,63,108,82
India,Karnataka,Bengaluru,"Silk Board, Bengaluru - KSPCB",13-11-2025 07:00:00,12.917348,77.622813,OZONE,14,19,15
India,Karnataka,Hubballi,"Lingaraj Nagar, Hubballi - KSPCB",13-11-2025 07:00:00,15.3714823,75.1160168,OZONE,15,20,19
India,Karnataka,Kalaburagi,"Lal Bahadur Shastri Nagar, Kalaburagi - KSPCB",13-11-2025 07:00:00,17.321993,76.822628,CO,30,70,30
India,Karnataka,Kalaburagi,"Mahatma Basaveswar Colony, Kalaburgi - KSPCB",13-11-2025 07:00:00,17.336318,76.847397,PM2.5,19,54,34
India,Karnataka,Kalaburagi,"Mahatma Basaveswar Colony, Kalaburgi - KSPCB",13-11-2025 07:00:00,17.336318,76.847397,CO,32,47,42
India,Karnataka,Koppal,"Diwator Nagar, Koppal - KSPCB",13-11-2025 07:00:00,15.347630,76.181767,PM2.5,22,36,26
India,Kerala,Eloor,"Udyogamandal, Eloor - Kerala PCB",13-11-2025 07:00:00,10.073232,76.302765,PM10,47,71,57
India,Kerala,Kannur,"Thavakkara, Kannur - Kerala PCB",13-11-2025 07:00:00,11.875000,75.373200,NO2,15,17,16
India,Kerala,Kannur,"Thavakkara, Kannur - Kerala PCB",13-11-2025 07:00:00,11.875000,75.373200,NH3,2,2,2
India,Kerala,Kannur,"Thavakkara, Kannur - Kerala PCB",13-11-2025 07:00:00,11.875000,75.373200,CO,16,18,16
India,Kerala,Kollam,"Polayathode, Kollam - Kerala PCB",13-11-2025 07:00:00,8.8787,76.6073,NH3,1,1,1
India,Karnataka,Mysuru,"Hebbal 1st Stage, Mysuru - KSPCB",13-11-2025 07:00:00,12.21041,76.37376,OZONE,9,89,21
India,Karnataka,Shivamogga,"Vinoba Nagara, Shivamogga - KSPCB",13-11-2025 07:00:00,13.940000,75.555917,PM2.5,25,43,32
India,Karnataka,Tumakuru,"Thimmalapura, Tumakuru - KSPCB",13-11-2025 07:00:00,13.377516,77.099072,NH3,NA,NA,NA
India,Karnataka,Tumakuru,"Thimmalapura, Tumakuru - KSPCB",13-11-2025 07:00:00,13.377516,77.099072,OZONE,23,23,23
India,Karnataka,Udupi,"Brahmagiri, Udupi - KSPCB",13-11-2025 07:00:00,13.34194444,74.74694444,PM2.5,42,102,66
India,Karnataka,Yadgir,"Collector Office, Yadgir - KSPCB",13-11-2025 07:00:00,16.7602,77.1428,NO2,17,52,29
India,Karnataka,Koppal,"Diwator Nagar, Koppal - KSPCB",13-11-2025 07:00:00,15.347630,76.181767,CO,6,43,27
India,Karnataka,Madikeri,"Stuart Hill, Madikeri - KSPCB",13-11-2025 07:00:00,12.415911,75.735050,PM2.5,52,96,67
India,Karnataka,Mangalore,"Kadri, Mangalore - KSPCB",13-11-2025 07:00:00,12.889250,74.853000,OZONE,4,43,25
India,Karnataka,Davanagere,"Devaraj Urs Badavane, Davanagere - KSPCB",13-11-2025 07:00:00,14.475800,75.905200,OZONE,18,21,21
India,Karnataka,Gadag,"Panchal Nagar, Gadag - KSPCB",13-11-2025 07:00:00,15.411456,75.638133,NH3,2,3,2
India,Karnataka,Gadag,"Panchal Nagar, Gadag - KSPCB",13-11-2025 07:00:00,15.411456,75.638133,OZONE,5,46,23
India,Karnataka,Koppal,"Diwator Nagar, Koppal - KSPCB",13-11-2025 07:00:00,15.347630,76.181767,SO2,5,16,11
India,Madhya Pradesh,Bhopal,"T T Nagar, Bhopal - MPPCB",13-11-2025 07:00:00,23.233584,77.400574,OZONE,7,179,22
India,Madhya Pradesh,Damoh,"Shrivastav Colony, Damoh - MPPCB",13-11-2025 07:00:00,23.81748678,79.446246,PM2.5,NA,NA,NA
India,Madhya Pradesh,Damoh,"Shrivastav Colony, Damoh - MPPCB",13-11-2025 07:00:00,23.81748678,79.446246,CO,24,26,25
India,Madhya Pradesh,Dewas,"Bhopal Chauraha, Dewas - MPPCB",13-11-2025 07:00:00,22.9682591,76.064118,PM2.5,70,178,102
India,Madhya Pradesh,Dewas,"Bhopal Chauraha, Dewas - MPPCB",13-11-2025 07:00:00,22.9682591,76.064118,PM10,110,153,128
India,Madhya Pradesh,Gwalior,"City Center, Gwalior - MPPCB",13-11-2025 07:00:00,26.203442,78.193251,PM10,78,189,121
India,Madhya Pradesh,Bhopal,"Idgah Hills, Bhopal - MPPCB",13-11-2025 07:00:00,23.264759,77.381568,PM10,NA,NA,NA
India,Madhya Pradesh,Bhopal,"Idgah Hills, Bhopal - MPPCB",13-11-2025 07:00:00,23.264759,77.381568,NO2,NA,NA,NA
India,Madhya Pradesh,Bhopal,"Idgah Hills, Bhopal - MPPCB",13-11-2025 07:00:00,23.264759,77.381568,NH3,NA,NA,NA
India,Madhya Pradesh,Bhopal,"Paryavaran Parisar, Bhopal - MPPCB",13-11-2025 07:00:00,23.210494,77.425409,NH3,5,10,8
India,Madhya Pradesh,Bhopal,"Paryavaran Parisar, Bhopal - MPPCB",13-11-2025 07:00:00,23.210494,77.425409,SO2,1,14,7
India,Madhya Pradesh,Bhopal,"T T Nagar, Bhopal - MPPCB",13-11-2025 07:00:00,23.233584,77.400574,PM2.5,80,367,225
India,Madhya Pradesh,Bhopal,"T T Nagar, Bhopal - MPPCB",13-11-2025 07:00:00,23.233584,77.400574,PM10,121,402,227
India,Madhya Pradesh,Gwalior,"Deen Dayal Nagar, Gwalior - MPPCB",13-11-2025 07:00:00,26.259242,78.216432,OZONE,2,238,19
India,Madhya Pradesh,Gwalior,"Maharaj Bada, Gwalior - MPPCB",13-11-2025 07:00:00,26.200388,78.147714,PM2.5,48,318,175
India,Madhya Pradesh,Gwalior,"Maharaj Bada, Gwalior - MPPCB",13-11-2025 07:00:00,26.200388,78.147714,OZONE,3,140,28
India,Madhya Pradesh,Indore,"Airport Area, Indore - IMC",13-11-2025 07:00:00,22.7289,75.8076,NO2,2,2,2
India,Madhya Pradesh,Indore,"Airport Area, Indore - IMC",13-11-2025 07:00:00,22.7289,75.8076,OZONE,1,10,2
India,Madhya Pradesh,Pithampur,"Sector-2 Industrial Area, Pithampur - MPPCB",13-11-2025 07:00:00,22.624758,75.675238,PM2.5,85,315,168
India,Madhya Pradesh,Pithampur,"Sector-2 Industrial Area, Pithampur - MPPCB",13-11-2025 07:00:00,22.624758,75.675238,SO2,9,25,15
India,Madhya Pradesh,Pithampur,"Sector-2 Industrial Area, Pithampur - MPPCB",13-11-2025 07:00:00,22.624758,75.675238,OZONE,24,58,36
India,Madhya Pradesh,Ratlam,"Shasthri Nagar, Ratlam - IPCA Lab",13-11-2025 07:00:00,23.331731,75.045981,PM10,116,240,161
India,Madhya Pradesh,Ratlam,"Shasthri Nagar, Ratlam - IPCA Lab",13-11-2025 07:00:00,23.331731,75.045981,SO2,2,36,9
India,Madhya Pradesh,Indore,"Chhoti Gwaltoli, Indore - MPPCB",13-11-2025 07:00:00,22.4310,75.5213,NH3,NA,NA,NA
India,Madhya Pradesh,Indore,"Regional Park, Indore - IMC",13-11-2025 07:00:00,22.6780,75.8559,PM2.5,45,186,84
India,Madhya Pradesh,Indore,"Regional Park, Indore - IMC",13-11-2025 07:00:00,22.6780,75.8559,OZONE,10,19,16
India,Madhya Pradesh,Jabalpur,"Govindh Bhavan Colony, Jabalpur - JMC",13-11-2025 07:00:00,23.163174,79.973061,NH3,1,2,2
India,Madhya Pradesh,Satna,"Bandhavgar Colony, Satna - Birla Cement",13-11-2025 07:00:00,24.58434363,80.8549414,SO2,20,26,22
India,Madhya Pradesh,Singrauli,"Suryakiran Bhawan NCL, Singrauli - MPPCB",13-11-2025 07:00:00,24.108970,82.645580,SO2,NA,NA,NA
India,Madhya Pradesh,Singrauli,"Suryakiran Bhawan NCL, Singrauli - MPPCB",13-11-2025 07:00:00,24.108970,82.645580,OZONE,10,108,11
India,Madhya Pradesh,Jabalpur,"Marhatal, Jabalpur - MPPCB",13-11-2025 07:00:00,23.168606,79.932247,PM2.5,89,369,228
India,Madhya Pradesh,Jabalpur,"Suhagi, Jabalpur - JMC",13-11-2025 07:00:00,23.218135,79.957770,PM2.5,107,350,253
India,Madhya Pradesh,Jabalpur,"Suhagi, Jabalpur - JMC",13-11-2025 07:00:00,23.218135,79.957770,SO2,1,4,3
India,Madhya Pradesh,Jabalpur,"Suhagi, Jabalpur - JMC",13-11-2025 07:00:00,23.218135,79.957770,CO,4,109,56
India,Kerala,Thiruvananthapuram,"Kariavattom, Thiruvananthapuram - Kerala PCB",13-11-2025 07:00:00,8.563700,76.886500,CO,38,70,50
India,Kerala,Thiruvananthapuram,"Plammoodu, Thiruvananthapuram - Kerala PCB",13-11-2025 07:00:00,8.5149093,76.9435879,PM10,NA,NA,NA
India,Madhya Pradesh,Mandideep,"Sector-D Industrial Area, Mandideep - MPPCB",13-11-2025 07:00:00,23.108440,77.511428,PM2.5,118,475,303
India,Madhya Pradesh,Mandideep,"Sector-D Industrial Area, Mandideep - MPPCB",13-11-2025 07:00:00,23.108440,77.511428,PM10,118,360,218
India,Maharashtra,Belapur,"CBD Belapur, Belapur - MPCB",13-11-2025 07:00:00,19.0243902,73.0406721,PM2.5,78,185,120
India,Maharashtra,Belapur,"CBD Belapur, Belapur - MPCB",13-11-2025 07:00:00,19.0243902,73.0406721,OZONE,1,64,14
India,Maharashtra,Bhiwandi,"Gokul Nagar, Bhiwandi - MPCB",13-11-2025 07:00:00,19.309073,73.057223,CO,22,62,39
India,Maharashtra,Boisar,"Khaira, Boisar - MPCB",13-11-2025 07:00:00,19.786089,72.757971,PM10,45,151,106
India,Maharashtra,Mira-Bhayandar,"Bhayandar West, Mira-Bhayandar - MPCB",13-11-2025 07:00:00,19.296481,72.840923,PM10,84,136,108
India,Maharashtra,Mira-Bhayandar,"Bhayandar West, Mira-Bhayandar - MPCB",13-11-2025 07:00:00,19.296481,72.840923,NO2,22,100,62
India,Maharashtra,Mira-Bhayandar,"Bhayandar West, Mira-Bhayandar - MPCB",13-11-2025 07:00:00,19.296481,72.840923,SO2,2,4,3
India,Maharashtra,Mumbai,"Bandra Kurla Complex, Mumbai - IITM",13-11-2025 07:00:00,19.053536,72.84643,NH3,22,95,48
India,Maharashtra,Chandrapur,"Chauhan Colony, Chandrapur - MPCB",13-11-2025 07:00:00,19.962900,79.298714,PM10,97,319,162
India,Maharashtra,Chandrapur,"Chauhan Colony, Chandrapur - MPCB",13-11-2025 07:00:00,19.962900,79.298714,NH3,2,2,2
India,Maharashtra,Chandrapur,"Chauhan Colony, Chandrapur - MPCB",13-11-2025 07:00:00,19.962900,79.298714,OZONE,20,20,20
India,Maharashtra,Chandrapur,"MIDC Khutala, Chandrapur - MPCB",13-11-2025 07:00:00,19.9775302,79.2337086,PM2.5,78,263,198
India,Maharashtra,Amravati,"Shivneri Colony, Amravati - MPCB",13-11-2025 07:00:00,20.9402359,77.7895248,NO2,11,45,23
India,Maharashtra,Amravati,"Shivneri Colony, Amravati - MPCB",13-11-2025 07:00:00,20.9402359,77.7895248,CO,13,72,35
India,Maharashtra,Amravati,"Shri Shivaji Science College, Amravati - MPCB",13-11-2025 07:00:00,20.939198,77.765701,PM10,86,378,154
India,Maharashtra,Aurangabad,"MIDC Chilkalthana, Aurangabad - MPCB",13-11-2025 07:00:00,19.875620,75.387310,SO2,1,2,1
India,Maharashtra,Aurangabad,"MIDC Chilkalthana, Aurangabad - MPCB",13-11-2025 07:00:00,19.875620,75.387310,CO,23,88,65
India,Maharashtra,Aurangabad,"Rachnakar Colony, Aurangabad - MPCB",13-11-2025 07:00:00,19.863756,75.321188,SO2,9,46,20
India,Maharashtra,Dhule,"Deopur, Dhule - MPCB",13-11-2025 07:00:00,20.918946,74.776388,PM10,92,428,141
India,Maharashtra,Jalgaon,"Prabhat Colony, Jalgaon - MPCB",13-11-2025 07:00:00,21.001264,75.565602,PM2.5,92,296,165
India,Maharashtra,Jalgaon,"Prabhat Colony, Jalgaon - MPCB",13-11-2025 07:00:00,21.001264,75.565602,PM10,88,170,126
India,Maharashtra,Kolhapur,"Sinchan Bhavan, Kolhapur - MPCB",13-11-2025 07:00:00,16.7143745,74.2426398,SO2,NA,NA,NA
India,Maharashtra,Latur,"Sawe Wadi, Latur - MPCB",13-11-2025 07:00:00,18.39963,76.57452,PM10,64,106,83
India,Maharashtra,Akola,"Ramdaspeth, Akola - MPCB",13-11-2025 07:00:00,20.719516,77.000253,PM10,44,112,70
India,Maharashtra,Jalna,"Old MIDC, Jalna - MPCB",13-11-2025 07:00:00,19.854616,75.905894,PM2.5,NA,NA,NA
India,Maharashtra,Mumbai,"Deonar, Mumbai - IITM",13-11-2025 07:00:00,19.04946,72.9230,CO,20,100,47
India,Maharashtra,Mumbai,"Ghatkopar, Mumbai - BMC",13-11-2025 07:00:00,19.083694,72.920967,PM10,70,246,170
India,Maharashtra,Mumbai,"Ghatkopar, Mumbai - BMC",13-11-2025 07:00:00,19.083694,72.920967,SO2,5,10,7
India,Maharashtra,Mumbai,"Kandivali East, Mumbai - MPCB",13-11-2025 07:00:00,19.205800,72.868200,PM2.5,62,230,113
India,Maharashtra,Mumbai,"Kandivali East, Mumbai - MPCB",13-11-2025 07:00:00,19.205800,72.868200,NO2,6,11,8
India,Maharashtra,Mumbai,"Kandivali East, Mumbai - MPCB",13-11-2025 07:00:00,19.205800,72.868200,CO,NA,NA,NA
India,Maharashtra,Mumbai,"Kandivali West, Mumbai - BMC",13-11-2025 07:00:00,19.215859,72.831718,NO2,NA,NA,NA
India,Maharashtra,Mumbai,"Borivali East, Mumbai - IITM",13-11-2025 07:00:00,19.23241,72.86895,PM2.5,76,182,117
India,Maharashtra,Mumbai,"Borivali East, Mumbai - IITM",13-11-2025 07:00:00,19.23241,72.86895,CO,2,78,25
India,Maharashtra,Mumbai,"Byculla, Mumbai - BMC",13-11-2025 07:00:00,18.9767,72.8380,OZONE,2,51,13
India,Maharashtra,Mumbai,"Chakala-Andheri East, Mumbai - IITM",13-11-2025 07:00:00,19.11074,72.86084,PM2.5,87,194,117
India,Maharashtra,Mumbai,"Kherwadi_Bandra East, Mumbai - MPCB",13-11-2025 07:00:00,19.0632143,72.8456324,PM10,136,223,152
India,Maharashtra,Mumbai,"Kherwadi_Bandra East, Mumbai - MPCB",13-11-2025 07:00:00,19.0632143,72.8456324,SO2,2,3,3
India,Maharashtra,Mumbai,"Kherwadi_Bandra East, Mumbai - MPCB",13-11-2025 07:00:00,19.0632143,72.8456324,CO,21,46,39
India,Maharashtra,Mumbai,"Khindipada-Bhandup West, Mumbai - IITM",13-11-2025 07:00:00,19.1653323,72.922099,SO2,2,19,13
India,Maharashtra,Mumbai,"Kurla, Mumbai - MPCB",13-11-2025 07:00:00,19.0863,72.8888,PM10,85,142,106
India,Maharashtra,Mumbai,"Kurla, Mumbai - MPCB",13-11-2025 07:00:00,19.0863,72.8888,NO2,5,8,6
India,Maharashtra,Mumbai,"Malad West, Mumbai - IITM",13-11-2025 07:00:00,19.19709,72.82204,NO2,29,125,84
India,Maharashtra,Mumbai,"Malad West, Mumbai - IITM",13-11-2025 07:00:00,19.19709,72.82204,NH3,5,14,9
India,Maharashtra,Mumbai,"Chhatrapati Shivaji Intl. Airport (T2), Mumbai - MPCB",13-11-2025 07:00:00,19.10078,72.87462,CO,14,18,16
India,Maharashtra,Mumbai,"Chhatrapati Shivaji Intl. Airport (T2), Mumbai - MPCB",13-11-2025 07:00:00,19.10078,72.87462,OZONE,7,8,7
India,Maharashtra,Mumbai,"Colaba, Mumbai - MPCB",13-11-2025 07:00:00,18.910000,72.820000,CO,26,30,28
India,Maharashtra,Mumbai,"Chembur, Mumbai - MPCB",13-11-2025 07:00:00,19.0364585,72.8954371,PM2.5,98,170,134
India,Maharashtra,Mumbai,"Chembur, Mumbai - MPCB",13-11-2025 07:00:00,19.0364585,72.8954371,NH3,2,3,2
India,Maharashtra,Mumbai,"Chhatrapati Shivaji Intl. Airport (T2), Mumbai - MPCB",13-11-2025 07:00:00,19.10078,72.87462,NH3,1,1,1
India,Maharashtra,Mumbai,"Navy Nagar-Colaba, Mumbai - IITM",13-11-2025 07:00:00,18.897756,72.813320,CO,12,42,21
India,Maharashtra,Mumbai,"Navy Nagar-Colaba, Mumbai - IITM",13-11-2025 07:00:00,18.897756,72.813320,OZONE,8,21,11
India,Maharashtra,Mumbai,"Powai, Mumbai - MPCB",13-11-2025 07:00:00,19.137500,72.915056,PM2.5,NA,NA,NA
India,Maharashtra,Mumbai,"Mindspace-Malad West, Mumbai - MPCB",13-11-2025 07:00:00,19.1878657,72.8304069,OZONE,5,78,15
India,Maharashtra,Mumbai,"Mazgaon, Mumbai - IITM",13-11-2025 07:00:00,18.96702,72.84214,NO2,50,170,85
India,Maharashtra,Navi Mumbai,"Mahape, Navi Mumbai - MPCB",13-11-2025 07:00:00,19.1135051,73.008978,SO2,23,26,25
India,Maharashtra,Navi Mumbai,"Nerul, Navi Mumbai - MPCB",13-11-2025 07:00:00,19.008751,73.016620,PM10,112,198,142
India,Maharashtra,Navi Mumbai,"Sanpada, Navi Mumbai - MPCB",13-11-2025 07:00:00,19.0575752,73.0151367,PM10,48,140,116
India,Maharashtra,Navi Mumbai,"Sanpada, Navi Mumbai - MPCB",13-11-2025 07:00:00,19.0575752,73.0151367,NO2,5,15,9
India,Maharashtra,Navi Mumbai,"Sanpada, Navi Mumbai - MPCB",13-11-2025 07:00:00,19.0575752,73.0151367,SO2,8,20,15
India,Maharashtra,Nagpur,"Opp GPO Civil Lines, Nagpur - MPCB",13-11-2025 07:00:00,21.152875,79.0517531,OZONE,3,78,6
India,Maharashtra,Nagpur,"Ram Nagar, Nagpur - MPCB",13-11-2025 07:00:00,21.143383,79.048912,PM2.5,112,202,150
India,Maharashtra,Nagpur,"Ram Nagar, Nagpur - MPCB",13-11-2025 07:00:00,21.143383,79.048912,NH3,3,12,5
India,Maharashtra,Nanded,"Sneh Nagar, Nanded - MPCB",13-11-2025 07:00:00,19.173852,77.296291,NO2,10,35,20
India,Maharashtra,Mumbai,"Worli, Mumbai - MPCB",13-11-2025 07:00:00,18.9936162,72.8128113,CO,4,14,6
India,Maharashtra,Mumbai,"Worli, Mumbai - MPCB",13-11-2025 07:00:00,18.9936162,72.8128113,OZONE,20,20,20
India,Maharashtra,Nagpur,"Ambazari, Nagpur - MPCB",13-11-2025 07:00:00,21.121801,79.04952,PM10,99,122,112
India,Maharashtra,Nagpur,"Ambazari, Nagpur - MPCB",13-11-2025 07:00:00,21.121801,79.04952,CO,10,76,36
India,Maharashtra,Nashik,"Gangapur Road, Nashik - MPCB",13-11-2025 07:00:00,20.0073285,73.7762427,NO2,NA,NA,NA
India,Maharashtra,Nashik,"Gangapur Road, Nashik - MPCB",13-11-2025 07:00:00,20.0073285,73.7762427,OZONE,9,29,22
India,Maharashtra,Nashik,"Hirawadi, Nashik - MPCB",13-11-2025 07:00:00,20.021503,73.813844,PM10,100,167,135
India,Maharashtra,Nashik,"Pandav Nagari, Nashik - MPCB",13-11-2025 07:00:00,19.9591346,73.7788008,NO2,6,52,23
India,Maharashtra,Navi Mumbai,"Kopripada-Vashi, Navi Mumbai - MPCB",13-11-2025 07:00:00,19.090337,73.014232,OZONE,3,58,17
India,Maharashtra,Nagpur,"Mahal, Nagpur - MPCB",13-11-2025 07:00:00,21.14472,79.107595,PM2.5,139,304,210
India,Maharashtra,Nagpur,"Opp GPO Civil Lines, Nagpur - MPCB",13-11-2025 07:00:00,21.152875,79.0517531,CO,16,114,62
India,Maharashtra,Mumbai,"Vasai West, Mumbai - MPCB",13-11-2025 07:00:00,19.383200,72.820400,OZONE,12,26,17
India,Maharashtra,Mumbai,"Vile Parle West, Mumbai - MPCB",13-11-2025 07:00:00,19.10861,72.83622,SO2,11,59,48
India,Maharashtra,Mumbai,"Powai, Mumbai - MPCB",13-11-2025 07:00:00,19.137500,72.915056,CO,NA,NA,NA
India,Maharashtra,Mumbai,"Shivaji Nagar, Mumbai - BMC",13-11-2025 07:00:00,19.060498,72.923356,CO,1,34,10
India,Maharashtra,Mumbai,"Sion, Mumbai - MPCB",13-11-2025 07:00:00,19.047000,72.874600,PM10,56,150,77
India,Maharashtra,Mumbai,"Sion, Mumbai - MPCB",13-11-2025 07:00:00,19.047000,72.874600,NO2,7,8,8
India,Maharashtra,Parbhani,"Masoom Colony, Parbhani - MPCB",13-11-2025 07:00:00,19.265594,76.761463,SO2,2,40,17
India,Maharashtra,Pimpri-Chinchwad,"Gavalinagar, Pimpri Chinchwad - MPCB",13-11-2025 07:00:00,18.63673,73.82487,PM2.5,NA,NA,NA
India,Maharashtra,Pimpri-Chinchwad,"Gavalinagar, Pimpri Chinchwad - MPCB",13-11-2025 07:00:00,18.63673,73.82487,NO2,NA,NA,NA
India,Maharashtra,Pimpri-Chinchwad,"Gavalinagar, Pimpri Chinchwad - MPCB",13-11-2025 07:00:00,18.63673,73.82487,CO,18,101,94
India,Maharashtra,Pimpri-Chinchwad,"Park Street Wakad, Pimpri Chinchwad - MPCB",13-11-2025 07:00:00,18.59051,73.77946,PM10,105,341,146
India,Maharashtra,Pimpri-Chinchwad,"Park Street Wakad, Pimpri Chinchwad - MPCB",13-11-2025 07:00:00,18.59051,73.77946,NO2,40,96,57
India,Maharashtra,Pimpri-Chinchwad,"Park Street Wakad, Pimpri Chinchwad - MPCB",13-11-2025 07:00:00,18.59051,73.77946,CO,22,117,63
India,Maharashtra,Pimpri-Chinchwad,"Park Street Wakad, Pimpri Chinchwad - MPCB",13-11-2025 07:00:00,18.59051,73.77946,OZONE,1,130,3
India,Maharashtra,Pimpri-Chinchwad,"Savta Mali Nagar, Pimpri-Chinchwad - IITM",13-11-2025 07:00:00,18.614767,73.799516,NO2,26,151,83
India,Maharashtra,Sangli,"Vijay Nagar, Sangli - MPCB",13-11-2025 07:00:00, 16.5038,74.3623,OZONE,9,68,35
India,Maharashtra,Solapur,"Dnyaneshwar Nagar, Solapur - MPCB",13-11-2025 07:00:00,17.6336264,75.9132495,SO2,1,8,2
India,Maharashtra,Thane,"Kasarvadavali, Thane - MPCB",13-11-2025 07:00:00,19.26777,72.97182,PM10,113,170,137
India,Maharashtra,Thane,"Kasarvadavali, Thane - MPCB",13-11-2025 07:00:00,19.26777,72.97182,NO2,19,102,50
India,Maharashtra,Thane,"Kasarvadavali, Thane - MPCB",13-11-2025 07:00:00,19.26777,72.97182,NH3,1,20,6
India,Maharashtra,Pune,"Revenue Colony-Shivajinagar, Pune - IITM",13-11-2025 07:00:00,18.530085,73.849598,OZONE,1,77,2
India,Maharashtra,Pune,"Savitribai Phule Pune University, Pune - MPCB",13-11-2025 07:00:00,18.547056,73.826908,SO2,1,11,3
India,Maharashtra,Pune,"Savitribai Phule Pune University, Pune - MPCB",13-11-2025 07:00:00,18.547056,73.826908,CO,16,121,101
India,Maharashtra,Sangli,"Vijay Nagar, Sangli - MPCB",13-11-2025 07:00:00, 16.5038,74.3623,PM10,90,478,204
India,Meghalaya,Shillong,"JN Stadium, Shillong - Meghalaya PCB",13-11-2025 07:00:00,25.5803419,91.8942571,CO,19,32,25
India,Meghalaya,Shillong,"Lumpyngngad, Shillong - Meghalaya PCB",13-11-2025 07:00:00,25.5586,91.8985,PM10,5,52,20
India,Nagaland,Kohima,"PWD Junction, Kohima - NPCB",13-11-2025 07:00:00,25.6635413,94.0989878,CO,3,15,6
India,Maharashtra,Pimpri-Chinchwad,"Thergaon, Pimpri Chinchwad - MPCB",13-11-2025 07:00:00,18.616318,73.765797,PM2.5,163,347,262
India,Maharashtra,Pimpri-Chinchwad,"Thergaon, Pimpri Chinchwad - MPCB",13-11-2025 07:00:00,18.616318,73.765797,SO2,2,4,2
India,Maharashtra,Pune,"Bhumkar Nagar, Pune - IITM",13-11-2025 07:00:00,18.605770,73.749976,PM10,NA,NA,NA
India,Maharashtra,Navi Mumbai,"Sector-2E Kalamboli, Navi Mumbai - MPCB",13-11-2025 07:00:00,19.02579,73.10297,PM2.5,88,273,176
India,Maharashtra,Navi Mumbai,"Tondare-Taloja, Navi Mumbai - MPCB",13-11-2025 07:00:00,19.0630,73.1209,NH3,5,8,6
India,Maharashtra,Pune,"Katraj Dairy, Pune - MPCB",13-11-2025 07:00:00,18.454450,73.854155,PM10,93,129,111
India,Maharashtra,Pune,"Katraj Dairy, Pune - MPCB",13-11-2025 07:00:00,18.454450,73.854155,NO2,26,81,53
India,Maharashtra,Pune,"Katraj Dairy, Pune - MPCB",13-11-2025 07:00:00,18.454450,73.854155,SO2,3,21,5
India,Maharashtra,Thane,"Upvan Fort, Thane - MPCB",13-11-2025 07:00:00,19.222279,72.957979,SO2,1,3,2
India,Maharashtra,Thane,"Upvan Fort, Thane - MPCB",13-11-2025 07:00:00,19.222279,72.957979,CO,16,38,23
India,Maharashtra,Pune,"Revenue Colony-Shivajinagar, Pune - IITM",13-11-2025 07:00:00,18.530085,73.849598,PM2.5,65,311,161
India,Odisha,Keonjhar,"Jagamohanpur, Keonjhar - OSPCB",13-11-2025 07:00:00,21.643900,85.599355,OZONE,16,21,18
India,Odisha,Nayagarh,"Dabuna, Nayagarh - OSPCB",13-11-2025 07:00:00,21.847279,85.416905,PM2.5,43,81,62
India,Odisha,Nayagarh,"Dabuna, Nayagarh - OSPCB",13-11-2025 07:00:00,21.847279,85.416905,SO2,6,18,9
India,Odisha,Nayagarh,"Dabuna, Nayagarh - OSPCB",13-11-2025 07:00:00,21.847279,85.416905,OZONE,4,62,10
India,Odisha,Rairangpur,"Divisional Forest Office, Rairangpur - OSPCB",13-11-2025 07:00:00,22.265816,86.174829,PM10,78,122,95
India,Odisha,Rairangpur,"Divisional Forest Office, Rairangpur - OSPCB",13-11-2025 07:00:00,22.265816,86.174829,NO2,8,8,8
India,Odisha,Barbil,"Forest Office, Barbil - OSPCB",13-11-2025 07:00:00,22.1166054,85.3945546,NH3,2,4,3
India,Odisha,Barbil,"Forest Office, Barbil - OSPCB",13-11-2025 07:00:00,22.1166054,85.3945546,SO2,8,39,13
India,Odisha,Barbil,"Forest Office, Barbil - OSPCB",13-11-2025 07:00:00,22.1166054,85.3945546,OZONE,3,147,11
India,Odisha,Baripada,"Meher Colony, Baripada - OSPCB",13-11-2025 07:00:00,21.941841,86.728318,NH3,1,2,1
India,Odisha,Baripada,"Meher Colony, Baripada - OSPCB",13-11-2025 07:00:00,21.941841,86.728318,CO,20,80,27
India,Odisha,Brajrajnagar,"GM Office, Brajrajnagar - OSPCB",13-11-2025 07:00:00,21.8004996,83.8396977,OZONE,26,28,27
India,Odisha,Byasanagar,"Ferro Chrome Colony, Byasanagar - OSPCB",13-11-2025 07:00:00,20.94185,86.11510,NO2,7,40,16
India,Odisha,Byasanagar,"Ferro Chrome Colony, Byasanagar - OSPCB",13-11-2025 07:00:00,20.94185,86.11510,SO2,4,32,17
India,Odisha,Byasanagar,"Ferro Chrome Colony, Byasanagar - OSPCB",13-11-2025 07:00:00,20.94185,86.11510,CO,19,70,30
India,Odisha,Rourkela,"Fertilizer Township, Rourkela - OSPCB",13-11-2025 07:00:00,22.18972222,84.86277778,PM10,91,112,105
India,Odisha,Rourkela,"Fertilizer Township, Rourkela - OSPCB",13-11-2025 07:00:00,22.18972222,84.86277778,NO2,11,11,11
India,Odisha,Rourkela,"Raghunathpali, Rourkela - OSPCB",13-11-2025 07:00:00,22.220833,84.809444,NH3,1,4,2
India,Odisha,Rourkela,"Raghunathpali, Rourkela - OSPCB",13-11-2025 07:00:00,22.220833,84.809444,SO2,3,8,5
India,Punjab,Amritsar,"Golden Temple, Amritsar - PPCB",13-11-2025 07:00:00,31.620000,74.876512,SO2,13,37,21
India,Punjab,Bathinda,"Hardev Nagar, Bathinda - PPCB",13-11-2025 07:00:00,30.233011,74.907758,PM2.5,22,238,85
India,Punjab,Jalandhar,"Civil Line, Jalandhar - PPCB",13-11-2025 07:00:00,31.321907,75.578914,PM10,106,202,155
India,Odisha,Angul,"Hakimapada, Angul - OSPCB",13-11-2025 07:00:00,20.832874,85.104082,NO2,13,31,20
India,Odisha,Angul,"Hakimapada, Angul - OSPCB",13-11-2025 07:00:00,20.832874,85.104082,CO,27,74,43
India,Odisha,Tensa,"Barsua Iron Ore Mines, Tensa - OSPCB",13-11-2025 07:00:00,21.869985,85.167016,PM10,38,144,103
India,Odisha,Balasore,"Kalidaspur, Balasore - OSPCB",13-11-2025 07:00:00,21.51161,86.89088,CO,2,40,26
India,Odisha,Bhubaneswar,"Patia, Bhubaneswar - OSPCB",13-11-2025 07:00:00,20.34652,85.81630,NH3,4,8,6
India,Rajasthan,Dholpur,"Raja Ganj, Dholpur - RSPCB",13-11-2025 07:00:00,26.699557,77.898881,OZONE,9,22,12
India,Rajasthan,Dungarpur,"Bhoiwada, Dungarpur - RSPCB",13-11-2025 07:00:00,23.837789,73.714926,NO2,12,66,24
India,Rajasthan,Dungarpur,"Bhoiwada, Dungarpur - RSPCB",13-11-2025 07:00:00,23.837789,73.714926,CO,9,65,25
India,Rajasthan,Dungarpur,"Bhoiwada, Dungarpur - RSPCB",13-11-2025 07:00:00,23.837789,73.714926,OZONE,3,140,12
India,Rajasthan,Hanumangarh,"Housing Board, Hanumangarh - RSPCB",13-11-2025 07:00:00,29.610750,74.283608,PM10,68,272,121
India,Rajasthan,Hanumangarh,"Housing Board, Hanumangarh - RSPCB",13-11-2025 07:00:00,29.610750,74.283608,SO2,5,24,11
India,Rajasthan,Hanumangarh,"Housing Board, Hanumangarh - RSPCB",13-11-2025 07:00:00,29.610750,74.283608,CO,43,136,69
India,Rajasthan,Jaipur,"Adarsh Nagar, Jaipur - RSPCB",13-11-2025 07:00:00,26.902909,75.836858,NO2,24,128,70
India,Rajasthan,Jaipur,"Adarsh Nagar, Jaipur - RSPCB",13-11-2025 07:00:00,26.902909,75.836858,OZONE,20,82,23
India,Rajasthan,Jaipur,"Mansarovar Sector-12, Jaipur - RSPCB",13-11-2025 07:00:00,26.843698,75.766894,PM10,107,428,228
India,Rajasthan,Jaipur,"Mansarovar Sector-12, Jaipur - RSPCB",13-11-2025 07:00:00,26.843698,75.766894,NH3,7,12,10
India,Rajasthan,Jaipur,"Police Commissionerate, Jaipur - RSPCB",13-11-2025 07:00:00,26.9164092,75.7994901,NO2,5,166,104
India,Rajasthan,Jaipur,"Police Commissionerate, Jaipur - RSPCB",13-11-2025 07:00:00,26.9164092,75.7994901,CO,46,69,56
India,Rajasthan,Churu,"Subash Chowk, Churu - RSPCB",13-11-2025 07:00:00,28.296139,74.961696,SO2,1,7,4
India,Rajasthan,Churu,"Subash Chowk, Churu - RSPCB",13-11-2025 07:00:00,28.296139,74.961696,OZONE,4,118,27
India,Rajasthan,Dausa,"Khatikan Mohalla, Dausa - RSPCB",13-11-2025 07:00:00,26.895552,76.334753,NO2,30,134,72
India,Rajasthan,Dholpur,"Raja Ganj, Dholpur - RSPCB",13-11-2025 07:00:00,26.699557,77.898881,PM10,60,173,111
India,Rajasthan,Dholpur,"Raja Ganj, Dholpur - RSPCB",13-11-2025 07:00:00,26.699557,77.898881,NO2,16,111,46
India,Punjab,Patiala,"Model Town, Patiala - PPCB",13-11-2025 07:00:00,30.349388,76.366642,PM10,100,159,134
India,Punjab,Patiala,"Model Town, Patiala - PPCB",13-11-2025 07:00:00,30.349388,76.366642,SO2,19,105,43
India,Punjab,Rupnagar,"Ratanpura, Rupnagar - Ambuja Cements",13-11-2025 07:00:00,31.0325454,76.5623046,PM10,25,482,92
India,Rajasthan,Bhilwara,"Pratap Nagar, Bhilwara - RSPCB",13-11-2025 07:00:00,25.339605,74.618883,PM10,89,385,161
India,Rajasthan,Bhiwadi,"Vasundhara Nagar_UIT, Bhiwadi - RSPCB",13-11-2025 07:00:00,28.207266,76.829265,NO2,19,110,51
India,Punjab,Ludhiana,"Punjab Agricultural University, Ludhiana - PPCB",13-11-2025 07:00:00,30.9028,75.8086,PM2.5,114,197,147
India,Punjab,Ludhiana,"Punjab Agricultural University, Ludhiana - PPCB",13-11-2025 07:00:00,30.9028,75.8086,OZONE,24,43,34
India,Rajasthan,Bharatpur,"Krishna Nagar, Bharatpur - RSPCB",13-11-2025 07:00:00,27.215415,77.50873,SO2,6,26,11
India,Rajasthan,Bharatpur,"Krishna Nagar, Bharatpur - RSPCB",13-11-2025 07:00:00,27.215415,77.50873,OZONE,7,156,22
India,Rajasthan,Bundi,"New Colony, Bundi - RSPCB",13-11-2025 07:00:00,25.435774,75.644272,SO2,2,11,6
India,Rajasthan,Bundi,"New Colony, Bundi - RSPCB",13-11-2025 07:00:00,25.435774,75.644272,CO,18,66,31
India,Rajasthan,Banswara,"Rati Talai, Banswara - RSPCB",13-11-2025 07:00:00,23.555190,74.440010,PM2.5,3,311,68
India,Rajasthan,Pratapgarh,"Pragati Nagar, Pratapgarh - RSPCB",13-11-2025 07:00:00,24.041198,74.780702,PM2.5,28,200,95
India,Rajasthan,Rajsamand,"Dhoinda, Rajsamand - RSPCB",13-11-2025 07:00:00,25.036360,73.883502,CO,8,83,19
India,Rajasthan,Sawai Madhopur,"Sahu Nagar, Sawai Madhopur - RSPCB",13-11-2025 07:00:00,26.031443,76.359327,SO2,3,16,5
India,Rajasthan,Jaipur,"RIICO Sitapura, Jaipur - RSPCB",13-11-2025 07:00:00,26.786682,75.827928,NO2,13,146,80
India,Rajasthan,Jaipur,"RIICO Sitapura, Jaipur - RSPCB",13-11-2025 07:00:00,26.786682,75.827928,CO,14,138,92
India,Rajasthan,Jaipur,"Shastri Nagar, Jaipur - RSPCB",13-11-2025 07:00:00,26.9502929,75.730943,PM10,73,319,154
India,Rajasthan,Jaipur,"Shastri Nagar, Jaipur - RSPCB",13-11-2025 07:00:00,26.9502929,75.730943,NH3,9,46,21
India,Rajasthan,Tonk,"Shastri Nagar, Tonk - RSPCB",13-11-2025 07:00:00,26.159933,75.780517,SO2,1,3,2
India,Rajasthan,Udaipur,"Ashok Nagar, Udaipur - RSPCB",13-11-2025 07:00:00,24.5886166,73.6321397,CO,8,133,35
India,Rajasthan,Udaipur,"Ashok Nagar, Udaipur - RSPCB",13-11-2025 07:00:00,24.5886166,73.6321397,OZONE,2,85,5
India,Rajasthan,Jodhpur,"Samrat Ashok Udhyan, Jodhpur - RSPCB",13-11-2025 07:00:00,26.253384,72.976571,SO2,1,16,5
India,Rajasthan,Karauli,"Satyawati Vihar, Karauli - RSPCB",13-11-2025 07:00:00,26.506177,77.025989,NO2,11,109,36
India,Rajasthan,Karauli,"Satyawati Vihar, Karauli - RSPCB",13-11-2025 07:00:00,26.506177,77.025989,SO2,7,11,9
India,Rajasthan,Jodhpur,"Collectorate, Jodhpur - RSPCB",13-11-2025 07:00:00,26.268249,73.0193853,OZONE,2,63,6
India,Rajasthan,Jodhpur,"Digari Kalan, Jodhpur - RSPCB",13-11-2025 07:00:00,26.295810,73.082283,NO2,NA,NA,NA
India,Rajasthan,Jodhpur,"Digari Kalan, Jodhpur - RSPCB",13-11-2025 07:00:00,26.295810,73.082283,CO,NA,NA,NA
India,Rajasthan,Jodhpur,"Jhalamand, Jodhpur - RSPCB",13-11-2025 07:00:00,26.215415,73.070156,CO,10,72,46
India,Rajasthan,Jodhpur,"Mandor, Jodhpur - RSPCB",13-11-2025 07:00:00,26.358805,73.047444,PM10,60,175,112
India,Rajasthan,Kota,"Shrinath Puram, Kota - RSPCB",13-11-2025 07:00:00,25.14389,75.821256,PM2.5,NA,NA,NA
India,Rajasthan,Kota,"Shrinath Puram, Kota - RSPCB",13-11-2025 07:00:00,25.14389,75.821256,NO2,NA,NA,NA
India,Rajasthan,Kota,"Shrinath Puram, Kota - RSPCB",13-11-2025 07:00:00,25.14389,75.821256,CO,24,86,40
India,Rajasthan,Jaisalmer,"Sadar Bazar, Jaisalmer - RSPCB",13-11-2025 07:00:00,26.912329,70.909168,PM10,74,277,145
India,Rajasthan,Jaisalmer,"Sadar Bazar, Jaisalmer - RSPCB",13-11-2025 07:00:00,26.912329,70.909168,CO,24,100,53
India,Rajasthan,Sirohi,"Vedhaynath Colony, Sirohi - RSPCB",13-11-2025 07:00:00,24.885261,72.857549,NO2,5,82,40
India,Rajasthan,Sirohi,"Vedhaynath Colony, Sirohi - RSPCB",13-11-2025 07:00:00,24.885261,72.857549,SO2,1,8,4
India,TamilNadu,Chennai,"Alandur Bus Depot, Chennai - CPCB",13-11-2025 07:00:00,12.9099161,80.1076538,CO,16,30,27
India,TamilNadu,Chennai,"Arumbakkam, Chennai - TNPCB",13-11-2025 07:00:00,13.0664,80.2112 ,PM10,74,500,128
India,TamilNadu,Chennai,"Gandhi Nagar_Ennore, Chennai - TNPCB",13-11-2025 07:00:00,13.218341,80.32027,PM10,44,86,59
India,TamilNadu,Chennai,"Gandhi Nagar_Ennore, Chennai - TNPCB",13-11-2025 07:00:00,13.218341,80.32027,NO2,7,20,11
India,TamilNadu,Chennai,"Gandhi Nagar_Ennore, Chennai - TNPCB",13-11-2025 07:00:00,13.218341,80.32027,OZONE,7,27,8
India,Sikkim,Gangtok,"Zero Point GICI, Gangtok - SSPCB",13-11-2025 07:00:00,27.338530,88.614099,NH3,1,1,1
India,Sikkim,Gangtok,"Zero Point GICI, Gangtok - SSPCB",13-11-2025 07:00:00,27.338530,88.614099,OZONE,64,115,68
India,TamilNadu,Chengalpattu,"Crescent University, Chengalpattu - TNPCB",13-11-2025 07:00:00,12.8777316,80.0834807,NO2,NA,NA,NA
India,TamilNadu,Chengalpattu,"Crescent University, Chengalpattu - TNPCB",13-11-2025 07:00:00,12.8777316,80.0834807,NH3,NA,NA,NA
India,TamilNadu,Coimbatore,"SIDCO Kurichi, Coimbatore - TNPCB",13-11-2025 07:00:00,10.942451,76.978996,NH3,1,1,1
India,TamilNadu,Coimbatore,"SIDCO Kurichi, Coimbatore - TNPCB",13-11-2025 07:00:00,10.942451,76.978996,CO,27,57,39
India,TamilNadu,Cuddalore,"Kudikadu, Cuddalore - TNPCB",13-11-2025 07:00:00,11.6829898,79.7532099,PM2.5,28,192,58
India,TamilNadu,Cuddalore,"Kudikadu, Cuddalore - TNPCB",13-11-2025 07:00:00,11.6829898,79.7532099,NO2,19,19,19
India,TamilNadu,Chennai,"Velachery Res. Area, Chennai - CPCB",13-11-2025 07:00:00,13.0052189,80.2398125,NH3,3,4,3
India,TamilNadu,Coimbatore,"PSG College of Arts and Science, Coimbatore - TNPCB",13-11-2025 07:00:00,11.0328,77.0349,PM10,24,77,50
India,TamilNadu,Coimbatore,"PSG College of Arts and Science, Coimbatore - TNPCB",13-11-2025 07:00:00,11.0328,77.0349,SO2,1,8,2
India,TamilNadu,Dindigul,"Mendonsa Colony, Dindigul - TNPCB",13-11-2025 07:00:00,10.358535,77.984321,NH3,1,3,2
India,TamilNadu,Gummidipoondi,"Anthoni Pillai Nagar, Gummidipoondi - TNPCB",13-11-2025 07:00:00,13.4127,80.1081,NH3,1,4,3
India,TamilNadu,Chennai,"Perungudi, Chennai - TNPCB",13-11-2025 07:00:00,12.9533,80.2357,PM2.5,44,123,71
India,TamilNadu,Chennai,"Perungudi, Chennai - TNPCB",13-11-2025 07:00:00,12.9533,80.2357,OZONE,2,36,10
India,TamilNadu,Cuddalore,"Semmandalam, Cuddalore - TNPCB",13-11-2025 07:00:00,11.7637683,79.7499835,OZONE,1,2,2
India,TamilNadu,Chennai,"Manali Village, Chennai - TNPCB",13-11-2025 07:00:00,13.1662,80.2584,CO,41,52,47
India,TamilNadu,Chennai,"Kodungaiyur, Chennai - TNPCB",13-11-2025 07:00:00,13.1278,80.2642,PM10,75,182,114
India,TamilNadu,Tirunelveli,"Municipal Corporation Office, Tirunelveli - TNPCB",13-11-2025 07:00:00,8.728442,77.6962,OZONE,6,7,6
India,TamilNadu,Tirupur,"Kumaran College, Tirupur - TNPCB",13-11-2025 07:00:00,11.0973603,77.3228673,NO2,6,9,8
India,TamilNadu,Tirupur,"Kumaran College, Tirupur - TNPCB",13-11-2025 07:00:00,11.0973603,77.3228673,SO2,3,13,5
India,TamilNadu,Vellore,"Vasanthapuram, Vellore - TNPCB",13-11-2025 07:00:00,12.909494,79.131861,NO2,NA,NA,NA
India,TamilNadu,Virudhunagar,"Collectorate Office, Virudhunagar - TNPCB",13-11-2025 07:00:00,9.559382,77.948828,NH3,5,8,6
India,TamilNadu,Kanchipuram,"Kilambi, Kanchipuram - TNPCB",13-11-2025 07:00:00,12.864618,79.659968,PM2.5,NA,NA,NA
India,TamilNadu,Kanchipuram,"Kilambi, Kanchipuram - TNPCB",13-11-2025 07:00:00,12.864618,79.659968,NH3,4,5,4
India,TamilNadu,Karur,"Kamadenu Nagar, Karur - TNPCB",13-11-2025 07:00:00,10.967820,78.080882,NO2,3,6,4
India,TamilNadu,Karur,"Kamadenu Nagar, Karur - TNPCB",13-11-2025 07:00:00,10.967820,78.080882,SO2,15,15,15
India,TamilNadu,Karur,"Kamadenu Nagar, Karur - TNPCB",13-11-2025 07:00:00,10.967820,78.080882,OZONE,6,9,8
India,TamilNadu,Madurai,"Uchapatti, Madurai - TNPCB",13-11-2025 07:00:00,9.865935,78.022669,PM10,NA,NA,NA
India,TamilNadu,Perundurai,"SIPCOT Industrial Park, Perundurai - TNPCB",13-11-2025 07:00:00,11.258242,77.552761,NH3,NA,NA,NA
India,TamilNadu,Pudukottai,"SIPCOT Nathampannai, Pudukottai - TNPCB",13-11-2025 07:00:00,10.423417,78.784889,PM2.5,55,238,108
India,TamilNadu,Pudukottai,"SIPCOT Nathampannai, Pudukottai - TNPCB",13-11-2025 07:00:00,10.423417,78.784889,SO2,11,14,13
India,TamilNadu,Ramanathapuram,"Chalai Bazaar, Ramanathapuram - TNPCB",13-11-2025 07:00:00,9.36399,78.831977,NH3,3,3,3
India,TamilNadu,Ramanathapuram,"Chalai Bazaar, Ramanathapuram - TNPCB",13-11-2025 07:00:00,9.36399,78.831977,SO2,1,23,4
India,TamilNadu,Virudhunagar,"Collectorate Office, Virudhunagar - TNPCB",13-11-2025 07:00:00,9.559382,77.948828,OZONE,NA,NA,NA
India,Telangana,Hyderabad,"Bollaram Industrial Area, Hyderabad - TSPCB",13-11-2025 07:00:00,17.540891,78.358528,NH3,3,5,4
India,Telangana,Hyderabad,"Bollaram Industrial Area, Hyderabad - TSPCB",13-11-2025 07:00:00,17.540891,78.358528,SO2,4,8,6
India,Telangana,Hyderabad,"ECIL Kapra, Hyderabad - TSPCB",13-11-2025 07:00:00,17.470431,78.566959,NH3,6,7,6
India,Telangana,Hyderabad,"ECIL Kapra, Hyderabad - TSPCB",13-11-2025 07:00:00,17.470431,78.566959,OZONE,19,65,64
India,Telangana,Hyderabad,"IITH Kandi, Hyderabad - TSPCB",13-11-2025 07:00:00,17.585705,78.126199,NO2,16,77,25
India,Telangana,Hyderabad,"IITH Kandi, Hyderabad - TSPCB",13-11-2025 07:00:00,17.585705,78.126199,NH3,3,8,4
India,Telangana,Hyderabad,"Kokapet, Hyderabad - TSPCB",13-11-2025 07:00:00,17.393559,78.339194,NH3,2,3,2
India,Telangana,Hyderabad,"Kokapet, Hyderabad - TSPCB",13-11-2025 07:00:00,17.393559,78.339194,OZONE,16,28,18
India,Telangana,Hyderabad,"Kompally Municipal Office, Hyderabad - TSPCB",13-11-2025 07:00:00,17.544899,78.486949,NO2,15,17,16
India,TamilNadu,Ooty,"Bombay Castel, Ooty - TNPCB",13-11-2025 07:00:00,11.4068288,76.7138973,SO2,4,26,14
India,TamilNadu,Palkalaiperur,"Bharathidasan University, Palkalaiperur - TNPCB",13-11-2025 07:00:00,10.681158,78.741746,PM2.5,NA,NA,NA
India,TamilNadu,Palkalaiperur,"Bharathidasan University, Palkalaiperur - TNPCB",13-11-2025 07:00:00,10.681158,78.741746,NH3,NA,NA,NA
India,TamilNadu,Perundurai,"SIPCOT Industrial Park, Perundurai - TNPCB",13-11-2025 07:00:00,11.258242,77.552761,PM2.5,NA,NA,NA
India,TamilNadu,Thoothukudi,"Meelavittan, Thoothukudi - TNPCB",13-11-2025 07:00:00,8.816428 ,78.099039,CO,56,197,122
India,TamilNadu,Tiruchirappalli,"St Joseph College, Tiruchirappalli - TNPCB",13-11-2025 07:00:00,10.830158,78.691849,SO2,7,12,10
India,TamilNadu,Tirunelveli,"Municipal Corporation Office, Tirunelveli - TNPCB",13-11-2025 07:00:00,8.728442,77.6962,PM10,NA,NA,NA
India,Telangana,Hyderabad,"ICRISAT Patancheru, Hyderabad - TSPCB",13-11-2025 07:00:00,17.518400,78.278777,SO2,4,81,23
India,Telangana,Hyderabad,"IDA Pashamylaram, Hyderabad - TSPCB",13-11-2025 07:00:00,17.5316895,78.218939,NH3,1,5,2
India,Telangana,Hyderabad,"IITH Kandi, Hyderabad - TSPCB",13-11-2025 07:00:00,17.585705,78.126199,PM2.5,33,223,103
India,TamilNadu,Nagapattinam,"Velippalayam, Nagapattinam - TNPCB",13-11-2025 07:00:00,10.798548,79.838212,PM10,NA,NA,NA
India,TamilNadu,Nagapattinam,"Velippalayam, Nagapattinam - TNPCB",13-11-2025 07:00:00,10.798548,79.838212,SO2,NA,NA,NA
India,TamilNadu,Namakkal,"Ponnusamy Nagar, Namakkal - TNPCB",13-11-2025 07:00:00,11.273992,78.163545,PM2.5,22,31,28
India,TamilNadu,Namakkal,"Ponnusamy Nagar, Namakkal - TNPCB",13-11-2025 07:00:00,11.273992,78.163545,OZONE,11,12,11
India,Uttar_Pradesh,Bareilly,"Civil Lines, Bareilly - UPPCB",13-11-2025 07:00:00,28.359581,79.414455,CO,46,91,73
India,Uttar_Pradesh,Bareilly,"Rajendra Nagar, Bareilly - UPPCB",13-11-2025 07:00:00,28.38910936,79.42963708,PM10,54,137,106
India,Uttar_Pradesh,Bulandshahr,"Yamunapuram, Bulandshahr - UPPCB",13-11-2025 07:00:00,28.406963,77.849831,NO2,51,171,117
India,Uttar_Pradesh,Bulandshahr,"Yamunapuram, Bulandshahr - UPPCB",13-11-2025 07:00:00,28.406963,77.849831,SO2,5,31,17
India,Uttar_Pradesh,Bulandshahr,"Yamunapuram, Bulandshahr - UPPCB",13-11-2025 07:00:00,28.406963,77.849831,CO,38,113,98
India,Uttar_Pradesh,Firozabad,"Nagla Bhau, Firozabad - UPPCB",13-11-2025 07:00:00,27.168897,78.376960,PM2.5,40,161,91
India,Uttar_Pradesh,Firozabad,"Nagla Bhau, Firozabad - UPPCB",13-11-2025 07:00:00,27.168897,78.376960,OZONE,10,25,10
India,Telangana,Hyderabad,"Zoo Park, Hyderabad - TSPCB",13-11-2025 07:00:00,17.349694,78.451437,PM10,99,154,126
India,Telangana,Hyderabad,"Zoo Park, Hyderabad - TSPCB",13-11-2025 07:00:00,17.349694,78.451437,SO2,2,2,2
India,Uttar_Pradesh,Agra,"Manoharpur, Agra - UPPCB",13-11-2025 07:00:00,27.23711,78.01936,SO2,31,65,43
India,Uttar_Pradesh,Agra,"Manoharpur, Agra - UPPCB",13-11-2025 07:00:00,27.23711,78.01936,OZONE,8,10,10
India,Uttar_Pradesh,Agra,"Rohta, Agra - UPPCB",13-11-2025 07:00:00,27.106972,78.000111,OZONE,11,16,16
India,Uttar_Pradesh,Agra,"Sector-3B Avas Vikas Colony, Agra - UPPCB",13-11-2025 07:00:00,27.19412,77.96237,PM2.5,42,206,103
India,Uttar_Pradesh,Ghaziabad,"Indirapuram, Ghaziabad - UPPCB",13-11-2025 07:00:00,28.646233,77.358075,NO2,37,138,84
India,Uttar_Pradesh,Ghaziabad,"Indirapuram, Ghaziabad - UPPCB",13-11-2025 07:00:00,28.646233,77.358075,CO,32,165,106
India,Uttar_Pradesh,Ghaziabad,"Loni, Ghaziabad - UPPCB",13-11-2025 07:00:00,28.757294,77.278792,PM2.5,262,500,412
India,Uttar_Pradesh,Ghaziabad,"Loni, Ghaziabad - UPPCB",13-11-2025 07:00:00,28.757294,77.278792,NH3,5,13,10
India,Uttar_Pradesh,Ghaziabad,"Sanjay Nagar, Ghaziabad - UPPCB",13-11-2025 07:00:00,28.685382,77.453839,OZONE,12,133,19
India,Uttar_Pradesh,Ghaziabad,"Vasundhara, Ghaziabad - UPPCB",13-11-2025 07:00:00,28.6603346,77.3572563,NH3,5,10,8
India,Uttar_Pradesh,Gorakhpur,"Madan Mohan Malaviya University of Technology, Gorakhpur - UPPCB",13-11-2025 07:00:00,26.730136,83.433859,PM2.5,2,98,65
India,Uttar_Pradesh,Gorakhpur,"Madan Mohan Malaviya University of Technology, Gorakhpur - UPPCB",13-11-2025 07:00:00,26.730136,83.433859,SO2,30,31,31
India,Uttar_Pradesh,Greater Noida,"Knowledge Park - III, Greater Noida - UPPCB",13-11-2025 07:00:00,28.47272,77.482000,PM2.5,299,494,382
India,Uttar_Pradesh,Greater Noida,"Knowledge Park - V, Greater Noida - UPPCB",13-11-2025 07:00:00,28.557054,77.453663,NO2,70,130,102
India,Uttar_Pradesh,Agra,"Sector-3B Avas Vikas Colony, Agra - UPPCB",13-11-2025 07:00:00,27.19412,77.96237,NO2,38,42,39
India,Uttar_Pradesh,Baghpat,"Sardar Patel Inter College, Baghpat - UPPCB",13-11-2025 07:00:00,28.964949,77.278761,NH3,4,9,7
India,Uttar_Pradesh,Bareilly,"Civil Lines, Bareilly - UPPCB",13-11-2025 07:00:00,28.359581,79.414455,PM2.5,5,69,37
India,Telangana,Hyderabad,"Kompally Municipal Office, Hyderabad - TSPCB",13-11-2025 07:00:00,17.544899,78.486949,SO2,9,16,14
India,Telangana,Hyderabad,"Kompally Municipal Office, Hyderabad - TSPCB",13-11-2025 07:00:00,17.544899,78.486949,OZONE,28,45,29
India,Telangana,Hyderabad,"Nacharam_TSIIC IALA, Hyderabad - TSPCB",13-11-2025 07:00:00,17.429398,78.569354,PM2.5,NA,NA,NA
India,Telangana,Hyderabad,"Nacharam_TSIIC IALA, Hyderabad - TSPCB",13-11-2025 07:00:00,17.429398,78.569354,PM10,NA,NA,NA
India,Telangana,Hyderabad,"New Malakpet, Hyderabad - TSPCB",13-11-2025 07:00:00,17.37206,78.50864,OZONE,10,42,11
India,Telangana,Hyderabad,"Ramachandrapuram, Hyderabad - TSPCB",13-11-2025 07:00:00,17.528544,78.286195,CO,18,36,31
India,Telangana,Hyderabad,"Somajiguda, Hyderabad - TSPCB",13-11-2025 07:00:00,17.417094,78.457437,CO,15,45,23
India,Uttar_Pradesh,Greater Noida,"Knowledge Park - V, Greater Noida - UPPCB",13-11-2025 07:00:00,28.557054,77.453663,OZONE,9,18,10
India,Telangana,Hyderabad,"New Malakpet, Hyderabad - TSPCB",13-11-2025 07:00:00,17.37206,78.50864,NH3,2,3,2
India,Uttar_Pradesh,Lucknow,"Lalbagh, Lucknow - CPCB",13-11-2025 07:00:00,26.8458805,80.9365541,NH3,15,22,19
India,Uttar_Pradesh,Lucknow,"Talkatora District Industries Center, Lucknow - CPCB",13-11-2025 07:00:00,26.83399722,80.8917361,NO2,48,59,54
India,Uttar_Pradesh,Meerut,"Ganga Nagar, Meerut - UPPCB",13-11-2025 07:00:00,28.999264,77.7590354,PM2.5,111,348,262
India,Uttar_Pradesh,Meerut,"Ganga Nagar, Meerut - UPPCB",13-11-2025 07:00:00,28.999264,77.7590354,PM10,132,395,239
India,Uttar_Pradesh,Meerut,"Ganga Nagar, Meerut - UPPCB",13-11-2025 07:00:00,28.999264,77.7590354,SO2,5,29,18
India,Uttar_Pradesh,Meerut,"Pallavpuram Phase 2, Meerut - UPPCB",13-11-2025 07:00:00,29.063510,77.709723,PM10,152,433,337
India,Uttar_Pradesh,Meerut,"Pallavpuram Phase 2, Meerut - UPPCB",13-11-2025 07:00:00,29.063510,77.709723,SO2,9,45,24
India,Uttar_Pradesh,Meerut,"Pallavpuram Phase 2, Meerut - UPPCB",13-11-2025 07:00:00,29.063510,77.709723,CO,10,84,37
India,Uttar_Pradesh,Moradabad,"Buddhi Vihar, Moradabad - UPPCB",13-11-2025 07:00:00,28.83526,78.74460,SO2,28,86,58
India,Uttar_Pradesh,Moradabad,"Buddhi Vihar, Moradabad - UPPCB",13-11-2025 07:00:00,28.83526,78.74460,CO,38,54,53
India,Uttar_Pradesh,Moradabad,"Buddhi Vihar, Moradabad - UPPCB",13-11-2025 07:00:00,28.83526,78.74460,OZONE,10,31,12
India,Uttar_Pradesh,Moradabad,"Eco Herbal Park, Moradabad - UPPCB",13-11-2025 07:00:00,28.840739,78.697531,NH3,2,5,2
India,Uttar_Pradesh,Moradabad,"Eco Herbal Park, Moradabad - UPPCB",13-11-2025 07:00:00,28.840739,78.697531,CO,4,57,22
India,Uttar_Pradesh,Moradabad,"Jigar Colony, Moradabad - UPPCB",13-11-2025 07:00:00,28.856664,78.772638,NO2,25,25,25
India,Uttar_Pradesh,Moradabad,"Kashiram Nagar, Moradabad - UPPCB",13-11-2025 07:00:00,28.849399,78.742362,PM2.5,36,175,107
India,Uttar_Pradesh,Moradabad,"Kashiram Nagar, Moradabad - UPPCB",13-11-2025 07:00:00,28.849399,78.742362,NO2,25,25,25
India,Uttar_Pradesh,Moradabad,"Kashiram Nagar, Moradabad - UPPCB",13-11-2025 07:00:00,28.849399,78.742362,NH3,4,4,4
India,Uttar_Pradesh,Jhansi,"Shivaji Nagar, Jhansi - UPPCB",13-11-2025 07:00:00,25.4547,78.6039,NH3,4,4,4
India,Uttar_Pradesh,Kanpur,"FTI Kidwai Nagar, Kanpur - UPPCB",13-11-2025 07:00:00,26.428282,80.327067,PM10,74,234,144
India,Uttar_Pradesh,Kanpur,"FTI Kidwai Nagar, Kanpur - UPPCB",13-11-2025 07:00:00,26.428282,80.327067,OZONE,20,24,23
India,Uttar_Pradesh,Kanpur,"NSI Kalyanpur, Kanpur - UPPCB",13-11-2025 07:00:00,26.509954,80.249612,PM2.5,53,314,180
India,Uttar_Pradesh,Kanpur,"NSI Kalyanpur, Kanpur - UPPCB",13-11-2025 07:00:00,26.509954,80.249612,PM10,80,179,132
India,Uttar_Pradesh,Kanpur,"Nehru Nagar, Kanpur - UPPCB",13-11-2025 07:00:00,26.4703136,80.3229863,PM10,76,218,145
India,Uttar_Pradesh,Kanpur,"Nehru Nagar, Kanpur - UPPCB",13-11-2025 07:00:00,26.4703136,80.3229863,SO2,8,19,12
India,Uttar_Pradesh,Kanpur,"Nehru Nagar, Kanpur - UPPCB",13-11-2025 07:00:00,26.4703136,80.3229863,OZONE,9,62,26
India,Uttar_Pradesh,Prayagraj,"Jhunsi, Prayagraj - UPPCB",13-11-2025 07:00:00,25.425602,81.917152,NO2,6,6,6
India,Uttar_Pradesh,Prayagraj,"Jhunsi, Prayagraj - UPPCB",13-11-2025 07:00:00,25.425602,81.917152,NH3,5,5,5
India,Uttar_Pradesh,Prayagraj,"Jhunsi, Prayagraj - UPPCB",13-11-2025 07:00:00,25.425602,81.917152,SO2,8,17,10
India,Uttar_Pradesh,Prayagraj,"Motilal Nehru NIT, Prayagraj - UPPCB",13-11-2025 07:00:00,25.494,81.863,NO2,12,12,12
India,Uttar_Pradesh,Prayagraj,"Nagar Nigam, Prayagraj - UPPCB",13-11-2025 07:00:00,25.44919916 ,81.82735986 ,CO,30,107,82
India,Uttar_Pradesh,Prayagraj,"Nagar Nigam, Prayagraj - UPPCB",13-11-2025 07:00:00,25.44919916 ,81.82735986 ,OZONE,11,12,11
India,Uttar_Pradesh,Varanasi,"Bhelupur, Varanasi - UPPCB",13-11-2025 07:00:00,25.301778,82.996789,NH3,1,1,1
India,Uttar_Pradesh,Varanasi,"Bhelupur, Varanasi - UPPCB",13-11-2025 07:00:00,25.301778,82.996789,SO2,29,31,30
India,Uttar_Pradesh,Lucknow,"B R Ambedkar University, Lucknow - UPPCB",13-11-2025 07:00:00,26.766433,80.927299,PM2.5,40,309,136
India,Uttar_Pradesh,Lucknow,"B R Ambedkar University, Lucknow - UPPCB",13-11-2025 07:00:00,26.766433,80.927299,PM10,83,231,142
India,Uttar_Pradesh,Lucknow,"B R Ambedkar University, Lucknow - UPPCB",13-11-2025 07:00:00,26.766433,80.927299,OZONE,27,28,27
India,Uttar_Pradesh,Lucknow,"Gomti Nagar, Lucknow - UPPCB",13-11-2025 07:00:00,26.868120,81.005119,NO2,7,9,8
India,Uttar_Pradesh,Lucknow,"Gomti Nagar, Lucknow - UPPCB",13-11-2025 07:00:00,26.868120,81.005119,SO2,10,11,10
India,Uttar_Pradesh,Lucknow,"Gomti Nagar, Lucknow - UPPCB",13-11-2025 07:00:00,26.868120,81.005119,CO,31,38,33
India,Uttar_Pradesh,Lucknow,"Kendriya Vidyalaya, Lucknow - CPCB",13-11-2025 07:00:00,26.906111,80.948222,NH3,12,17,15
India,Uttar_Pradesh,Lucknow,"Kendriya Vidyalaya, Lucknow - CPCB",13-11-2025 07:00:00,26.906111,80.948222,CO,16,71,54
India,Uttarakhand,Dehradun,"Doon University, Dehradun - UKPCB",13-11-2025 07:00:00,30.269444,78.044167,OZONE,27,64,34
India,West_Bengal,Asansol,"Asansol Court Area, Asansol - WBPCB",13-11-2025 07:00:00,23.685297,86.945968,OZONE,16,80,24
India,West_Bengal,Asansol,"Evelyn Lodge, Asansol - WBPCB",13-11-2025 07:00:00,23.6979360,86.9443950,PM2.5,67,227,141
India,West_Bengal,Asansol,"Mahabir Colliery, Asansol - WBPCB",13-11-2025 07:00:00,23.6181830,87.1057180,PM2.5,74,341,219
India,West_Bengal,Asansol,"Mahabir Colliery, Asansol - WBPCB",13-11-2025 07:00:00,23.6181830,87.1057180,NO2,1,65,23
India,Uttar_Pradesh,Muzaffarnagar,"New Mandi, Muzaffarnagar - UPPCB",13-11-2025 07:00:00,29.4723508,77.7194031,PM10,84,278,179
India,Uttar_Pradesh,Muzaffarnagar,"New Mandi, Muzaffarnagar - UPPCB",13-11-2025 07:00:00,29.4723508,77.7194031,NH3,7,11,9
India,Uttar_Pradesh,Muzaffarnagar,"New Mandi, Muzaffarnagar - UPPCB",13-11-2025 07:00:00,29.4723508,77.7194031,CO,20,101,54
India,Uttar_Pradesh,Noida,"Sector - 62, Noida - IMD",13-11-2025 07:00:00,28.6245479,77.3577104,CO,28,90,77
India,Uttar_Pradesh,Noida,"Sector-116, Noida - UPPCB",13-11-2025 07:00:00,28.569230,77.393848,PM10,207,446,363
India,Uttar_Pradesh,Noida,"Sector-116, Noida - UPPCB",13-11-2025 07:00:00,28.569230,77.393848,NO2,58,201,137
India,Uttar_Pradesh,Varanasi,"IESD Banaras Hindu University, Varanasi - UPPCB",13-11-2025 07:00:00,25.262326,82.995408,PM2.5,51,161,80
India,Uttar_Pradesh,Varanasi,"IESD Banaras Hindu University, Varanasi - UPPCB",13-11-2025 07:00:00,25.262326,82.995408,NH3,1,3,2
India,Uttar_Pradesh,Varanasi,"IESD Banaras Hindu University, Varanasi - UPPCB",13-11-2025 07:00:00,25.262326,82.995408,OZONE,16,50,23
India,Uttar_Pradesh,Varanasi,"Maldahiya, Varanasi - UPPCB",13-11-2025 07:00:00,25.32393,82.99687,PM2.5,51,202,94
India,Uttar_Pradesh,Varanasi,"Maldahiya, Varanasi - UPPCB",13-11-2025 07:00:00,25.32393,82.99687,CO,22,67,47
India,Uttar_Pradesh,Vrindavan,"Omex Eternity, Vrindavan - UPPCB",13-11-2025 07:00:00,27.5714090,77.6557570,SO2,11,18,12
India,West_Bengal,Asansol,"Trivenidevi Bhalotia College, Asansol - WBPCB",13-11-2025 07:00:00,23.616515,87.119133,OZONE,11,85,18
India,West_Bengal,Barrackpore,"SVSPA Campus, Barrackpore - WBPCB",13-11-2025 07:00:00,22.7605581,88.3617589,NO2,12,61,33
India,West_Bengal,Barrackpore,"SVSPA Campus, Barrackpore - WBPCB",13-11-2025 07:00:00,22.7605581,88.3617589,CO,40,76,63
India,West_Bengal,Barrackpore,"SVSPA Campus, Barrackpore - WBPCB",13-11-2025 07:00:00,22.7605581,88.3617589,OZONE,4,100,6
India,West_Bengal,Durgapur,"Womens College_City Center, Durgapur - WBPCB (Formerly known as Sidhu Kanhu Indoor Stadium)",13-11-2025 07:00:00,23.549395,87.300496,NH3,2,4,3
India,West_Bengal,Haldia,"Priyambada Housing Estate, Haldia - WBPCB",13-11-2025 07:00:00,22.06047,88.109737,NO2,15,31,22
India,West_Bengal,Howrah,"Belur Math, Howrah - WBPCB",13-11-2025 07:00:00,22.629801,88.352017,NO2,21,50,32
India,West_Bengal,Howrah,"Belur Math, Howrah - WBPCB",13-11-2025 07:00:00,22.629801,88.352017,SO2,14,27,19
India,West_Bengal,Howrah,"Botanical Garden, Howrah - WBPCB",13-11-2025 07:00:00,22.554954,88.292568,SO2,8,16,10
India,West_Bengal,Howrah,"Dasnagar, Howrah - WBPCB",13-11-2025 07:00:00,22.6025571,88.3105664,PM2.5,94,305,188
India,West_Bengal,Howrah,"Dasnagar, Howrah - WBPCB",13-11-2025 07:00:00,22.6025571,88.3105664,PM10,101,172,133
India,West_Bengal,Howrah,"Dasnagar, Howrah - WBPCB",13-11-2025 07:00:00,22.6025571,88.3105664,NO2,15,85,44
India,West_Bengal,Howrah,"Padmapukur, Howrah - WBPCB",13-11-2025 07:00:00,22.5687319,88.2797276,PM2.5,223,381,299
India,West_Bengal,Howrah,"Padmapukur, Howrah - WBPCB",13-11-2025 07:00:00,22.5687319,88.2797276,PM10,121,262,169
India,West_Bengal,Howrah,"Padmapukur, Howrah - WBPCB",13-11-2025 07:00:00,22.5687319,88.2797276,CO,6,88,33
India,West_Bengal,Howrah,"Padmapukur, Howrah - WBPCB",13-11-2025 07:00:00,22.5687319,88.2797276,OZONE,3,174,6
India,West_Bengal,Kolkata,"Jadavpur, Kolkata - WBPCB",13-11-2025 07:00:00,22.49929,88.36917,PM2.5,192,373,311
India,West_Bengal,Kolkata,"Rabindra Sarobar, Kolkata - WBPCB",13-11-2025 07:00:00,22.51106,88.35142,PM10,95,136,115
India,West_Bengal,Kolkata,"Rabindra Sarobar, Kolkata - WBPCB",13-11-2025 07:00:00,22.51106,88.35142,NH3,8,26,14
India,West_Bengal,Kolkata,"Rabindra Sarobar, Kolkata - WBPCB",13-11-2025 07:00:00,22.51106,88.35142,SO2,11,33,19
India,West_Bengal,Kolkata,"Victoria, Kolkata - WBPCB",13-11-2025 07:00:00,22.5448082,88.3403691,NO2,13,25,18
India,West_Bengal,Kolkata,"Victoria, Kolkata - WBPCB",13-11-2025 07:00:00,22.5448082,88.3403691,CO,44,94,69
India,West_Bengal,Siliguri,"Ward-32 Bapupara, Siliguri - WBPCB",13-11-2025 07:00:00,26.6879226,88.4152495,PM2.5,41,94,61
India,West_Bengal,Siliguri,"Ward-32 Bapupara, Siliguri - WBPCB",13-11-2025 07:00:00,26.6879226,88.4152495,NO2,17,22,20
India,Bihar,Buxar,"Charitra Van, Buxar - BSPCB",13-11-2025 07:00:00,25.567520,83.966379,NO2,9,10,10
India,Bihar,Buxar,"Charitra Van, Buxar - BSPCB",13-11-2025 07:00:00,25.567520,83.966379,NH3,3,3,3
India,Bihar,Chhapra,"Darshan Nagar, Chhapra - BSPCB",13-11-2025 07:00:00,25.7808257,84.7446768,PM10,78,224,143
India,Bihar,Chhapra,"Darshan Nagar, Chhapra - BSPCB",13-11-2025 07:00:00,25.7808257,84.7446768,NO2,2,4,3
India,Bihar,Gaya,"Collectorate, Gaya - BSPCB",13-11-2025 07:00:00,24.7955,84.9994,PM2.5,91,331,229
India,Bihar,Gaya,"Collectorate, Gaya - BSPCB",13-11-2025 07:00:00,24.7955,84.9994,SO2,10,21,12
India,Bihar,Gaya,"Collectorate, Gaya - BSPCB",13-11-2025 07:00:00,24.7955,84.9994,CO,42,100,50
India,Bihar,Gaya,"Collectorate, Gaya - BSPCB",13-11-2025 07:00:00,24.7955,84.9994,OZONE,19,21,20
India,Bihar,Gaya,"SFTI Kusdihra, Gaya - BSPCB",13-11-2025 07:00:00,24.762518,84.982348,PM10,57,129,73
India,Andhra_Pradesh,Vijayawada,"Rajiv Gandhi Park, Vijayawada - APPCB",13-11-2025 07:00:00,16.509717,80.612222,OZONE,18,50,29
India,Andhra_Pradesh,Vijayawada,"Rajiv Nagar, Vijayawada - APPCB",13-11-2025 07:00:00,16.554731,80.649110,PM10,NA,NA,NA
India,Andhra_Pradesh,Vijayawada,"Rajiv Nagar, Vijayawada - APPCB",13-11-2025 07:00:00,16.554731,80.649110,CO,NA,NA,NA
India,Andhra_Pradesh,Vijayawada,"Rajiv Nagar, Vijayawada - APPCB",13-11-2025 07:00:00,16.554731,80.649110,OZONE,NA,NA,NA
India,Andhra_Pradesh,Visakhapatnam,"GVM Corporation, Visakhapatnam - APPCB",13-11-2025 07:00:00,17.72,83.3,NH3,3,4,3
India,Assam,Byrnihat,"Central Academy for SFS, Byrnihat - PCBA",13-11-2025 07:00:00,26.071318,91.87488,PM10,74,133,93
India,Assam,Byrnihat,"Central Academy for SFS, Byrnihat - PCBA",13-11-2025 07:00:00,26.071318,91.87488,SO2,5,11,7
India,Assam,Byrnihat,"Central Academy for SFS, Byrnihat - PCBA",13-11-2025 07:00:00,26.071318,91.87488,CO,34,60,52
India,Assam,Nalbari,"Bata Chowk, Nalbari - PCBA",13-11-2025 07:00:00,26.446912,91.439057,PM2.5,57,257,142
India,Assam,Nalbari,"Bata Chowk, Nalbari - PCBA",13-11-2025 07:00:00,26.446912,91.439057,NO2,12,20,15
India,Assam,Silchar,"Tarapur, Silchar - PCBA",13-11-2025 07:00:00,24.82827,92.79525,PM2.5,37,87,54
India,Assam,Silchar,"Tarapur, Silchar - PCBA",13-11-2025 07:00:00,24.82827,92.79525,NO2,15,20,18
India,Assam,Sivasagar,"Girls College, Sivasagar - PCBA",13-11-2025 07:00:00,26.987634,94.636574,PM10,1,74,45
India,Assam,Sivasagar,"Girls College, Sivasagar - PCBA",13-11-2025 07:00:00,26.987634,94.636574,NO2,19,42,28
India,Assam,Sivasagar,"Girls College, Sivasagar - PCBA",13-11-2025 07:00:00,26.987634,94.636574,SO2,7,10,9
India,Assam,Sivasagar,"Girls College, Sivasagar - PCBA",13-11-2025 07:00:00,26.987634,94.636574,CO,18,58,42
India,Assam,Guwahati,"LGBI Airport, Guwahati - PCBA",13-11-2025 07:00:00,26.10887,91.589544,PM2.5,27,78,53
India,Assam,Guwahati,"LGBI Airport, Guwahati - PCBA",13-11-2025 07:00:00,26.10887,91.589544,NH3,6,6,6
India,Assam,Guwahati,"Pan Bazaar, Guwahati - PCBA",13-11-2025 07:00:00,26.187500,91.744194,SO2,36,69,52
India,Assam,Guwahati,"Railway Colony, Guwahati - PCBA",13-11-2025 07:00:00,26.181742,91.78063,PM2.5,2,293,153
India,Assam,Nagaon,"Christianpatty, Nagaon - PCBA",13-11-2025 07:00:00,26.349082,92.68449,PM2.5,17,32,28
India,Assam,Nagaon,"Christianpatty, Nagaon - PCBA",13-11-2025 07:00:00,26.349082,92.68449,PM10,18,33,31
India,Andhra_Pradesh,Amaravati,"Secretariat, Amaravati - APPCB",13-11-2025 07:00:00,16.5150833,80.5181667,NO2,16,102,37
India,Andhra_Pradesh,Amaravati,"Secretariat, Amaravati - APPCB",13-11-2025 07:00:00,16.5150833,80.5181667,SO2,7,72,12
India,Andhra_Pradesh,Amaravati,"Secretariat, Amaravati - APPCB",13-11-2025 07:00:00,16.5150833,80.5181667,CO,22,46,35
India,Andhra_Pradesh,Chittoor,"Gangineni Cheruvu, Chittoor - APPCB",13-11-2025 07:00:00,13.204880,79.097889,NH3,5,6,6
India,Andhra_Pradesh,Chittoor,"Gangineni Cheruvu, Chittoor - APPCB",13-11-2025 07:00:00,13.204880,79.097889,SO2,6,35,16
India,Andhra_Pradesh,Kadapa,"Yerramukkapalli, Kadapa - APPCB",13-11-2025 07:00:00,14.465052,78.824187,OZONE,18,19,18
India,Andhra_Pradesh,Rajamahendravaram,"Anand Kala Kshetram, Rajamahendravaram - APPCB",13-11-2025 07:00:00,16.9872867,81.7363176,SO2,7,22,13
India,Andhra_Pradesh,Vijayawada,"HB Colony, Vijayawada - APPCB",13-11-2025 07:00:00,16.536107,80.594233,PM2.5,38,79,62
India,Andhra_Pradesh,Vijayawada,"HB Colony, Vijayawada - APPCB",13-11-2025 07:00:00,16.536107,80.594233,PM10,41,86,67
India,Andhra_Pradesh,Vijayawada,"Rajiv Gandhi Park, Vijayawada - APPCB",13-11-2025 07:00:00,16.509717,80.612222,PM2.5,54,82,72
India,Bihar,Arrah,"New DM Office, Arrah - BSPCB",13-11-2025 07:00:00,25.5626095,84.663264,PM10,26,61,39
India,Bihar,Bettiah,"Kamalnath Nagar, Bettiah - BSPCB",13-11-2025 07:00:00,26.80365,84.51954,NO2,6,10,8
India,Bihar,Bhagalpur,"DM Office_Kachari Chowk, Bhagalpur - BSPCB",13-11-2025 07:00:00,25.251013,86.989001,PM2.5,52,311,138
India,Bihar,Bhagalpur,"DM Office_Kachari Chowk, Bhagalpur - BSPCB",13-11-2025 07:00:00,25.251013,86.989001,PM10,52,135,99
India,Bihar,Bhagalpur,"DM Office_Kachari Chowk, Bhagalpur - BSPCB",13-11-2025 07:00:00,25.251013,86.989001,SO2,41,58,49
India,Bihar,Bhagalpur,"Mayaganj, Bhagalpur - BSPCB",13-11-2025 07:00:00,25.265194,87.012947,PM10,39,111,83
India,Bihar,Buxar,"Charitra Van, Buxar - BSPCB",13-11-2025 07:00:00,25.567520,83.966379,PM10,71,138,99
India,Bihar,Motihari,"Gandak Colony, Motihari - BSPCB",13-11-2025 07:00:00,26.63086,84.90051,CO,35,60,39
India,Bihar,Muzaffarpur,"Buddha Colony, Muzaffarpur - BSPCB",13-11-2025 07:00:00,26.11442,85.39813,NH3,5,10,8
India,Bihar,Hajipur,"Industrial Area, Hajipur - BSPCB",13-11-2025 07:00:00,25.697189,85.245900,SO2,3,6,4
India,Bihar,Manguraha,"Forest Rest House, Manguraha - BSPCB",13-11-2025 07:00:00,27.308328,84.531742,NH3,1,2,1
India,Chandigarh,Chandigarh,"Sector-25, Chandigarh - CPCC",13-11-2025 07:00:00,30.751462,76.762879,CO,17,42,33
India,Chandigarh,Chandigarh,"Sector-53, Chandigarh - CPCC",13-11-2025 07:00:00,30.719859,76.738637,OZONE,2,92,3
India,Chhattisgarh,Bhilai,"32Bungalows, Bhilai - CECB",13-11-2025 07:00:00,21.194815,81.314770,OZONE,1,75,2
India,Chhattisgarh,Bhilai,"Civic Center, Bhilai - Bhilai Steel Plant",13-11-2025 07:00:00,21.185571,81.343175,PM10,47,114,78
India,Bihar,Patna,"Rajbansi Nagar, Patna - BSPCB",13-11-2025 07:00:00,25.599486,85.113666,OZONE,6,72,22
India,Bihar,Patna,"Samanpura, Patna - BSPCB",13-11-2025 07:00:00,25.596727,85.085624,SO2,2,4,3
India,Bihar,Patna,"Samanpura, Patna - BSPCB",13-11-2025 07:00:00,25.596727,85.085624,CO,12,80,42
India,Bihar,Rajgir,"Dangi Tola, Rajgir - BSPCB",13-11-2025 07:00:00,25.03280,85.41948,PM10,55,115,83
India,Bihar,Rajgir,"Dangi Tola, Rajgir - BSPCB",13-11-2025 07:00:00,25.03280,85.41948,NO2,8,10,9
India,Bihar,Patna,"DRM Office Danapur, Patna - BSPCB",13-11-2025 07:00:00,25.586562,85.043586,PM2.5,68,264,146
India,Bihar,Patna,"DRM Office Danapur, Patna - BSPCB",13-11-2025 07:00:00,25.586562,85.043586,NO2,48,93,61
India,Bihar,Patna,"DRM Office Danapur, Patna - BSPCB",13-11-2025 07:00:00,25.586562,85.043586,NH3,6,14,8
India,Bihar,Patna,"Muradpur, Patna - BSPCB",13-11-2025 07:00:00,25.619651,85.147382,CO,32,78,51
India,Bihar,Patna,"Rajbansi Nagar, Patna - BSPCB",13-11-2025 07:00:00,25.599486,85.113666,PM2.5,82,141,110
India,Chhattisgarh,Bhilai,"Civic Center, Bhilai - Bhilai Steel Plant",13-11-2025 07:00:00,21.185571,81.343175,OZONE,4,13,10
India,Chhattisgarh,Bhilai,"Hathkhoj, Bhilai - CECB",13-11-2025 07:00:00,21.224231,81.408350,CO,NA,NA,NA
India,Chhattisgarh,Chhal,"Nawapara SECL Colony, Chhal - CECB",13-11-2025 07:00:00,22.118125,83.140608,PM2.5,56,92,70
India,Chhattisgarh,Chhal,"Nawapara SECL Colony, Chhal - CECB",13-11-2025 07:00:00,22.118125,83.140608,NO2,10,29,16
India,Chhattisgarh,Raipur,"Bhatagaon New ISBT, Raipur - CECB",13-11-2025 07:00:00,21.219665,81.630094,CO,36,108,93
India,Chhattisgarh,Raipur,"Krishak Nagar, Raipur - CECB",13-11-2025 07:00:00,21.237755,81.705301,SO2,5,10,7
India,Chhattisgarh,Raipur,"Krishak Nagar, Raipur - CECB",13-11-2025 07:00:00,21.237755,81.705301,CO,22,56,42
India,Chhattisgarh,Raipur,"Siltara Phase-II, Raipur - CECB",13-11-2025 07:00:00,21.371751,81.664929,PM10,102,165,133
India,Chhattisgarh,Kunjemura,"OP Jindal School, Kunjemura - CECB",13-11-2025 07:00:00,22.126650,83.483212,OZONE,NA,NA,NA
India,Chhattisgarh,Milupara,"Govt. Higher Secondary School, Milupara - CECB",13-11-2025 07:00:00,22.1910172,83.5197009,PM10,64,156,100
India,Chhattisgarh,Raipur,"AIIMS, Raipur - CECB",13-11-2025 07:00:00,21.258815,81.578979,OZONE,5,24,6
India,Bihar,Samastipur,"DM Office_Kasipur, Samastipur - BSPCB",13-11-2025 07:00:00,25.859655,85.77944,NO2,8,9,8
India,Bihar,Samastipur,"DM Office_Kasipur, Samastipur - BSPCB",13-11-2025 07:00:00,25.859655,85.77944,OZONE,8,9,8
India,Bihar,Siwan,"Chitragupta Nagar, Siwan - BSPCB",13-11-2025 07:00:00,26.2271665,84.3570427,PM10,NA,NA,NA
India,Chhattisgarh,Korba,"Rampur, Korba - CECB",13-11-2025 07:00:00,22.368195,82.746431,CO,24,36,30
India,Delhi,Delhi,"Alipur, Delhi - DPCC",13-11-2025 07:00:00,28.815329,77.153010,PM10,217,500,412
India,Delhi,Delhi,"Burari Crossing, Delhi - IMD",13-11-2025 07:00:00,28.7256504,77.2011573,NO2,65,167,101
India,Delhi,Delhi,"Burari Crossing, Delhi - IMD",13-11-2025 07:00:00,28.7256504,77.2011573,OZONE,12,223,14
India,Delhi,Delhi,"Chandni Chowk, Delhi - IITM",13-11-2025 07:00:00,28.656756,77.227234,PM2.5,321,500,455
India,Delhi,Delhi,"Chandni Chowk, Delhi - IITM",13-11-2025 07:00:00,28.656756,77.227234,NH3,9,23,15
India,Delhi,Delhi,"DTU, Delhi - CPCB",13-11-2025 07:00:00,28.7500499,77.1112615,PM2.5,170,378,291
India,Delhi,Delhi,"DTU, Delhi - CPCB",13-11-2025 07:00:00,28.7500499,77.1112615,NH3,7,14,11
India,Delhi,Delhi,"Major Dhyan Chand National Stadium, Delhi - DPCC",13-11-2025 07:00:00,28.611281,77.237738,SO2,24,52,34
India,Delhi,Delhi,"Major Dhyan Chand National Stadium, Delhi - DPCC",13-11-2025 07:00:00,28.611281,77.237738,OZONE,NA,NA,NA
India,Delhi,Delhi,"Mandir Marg, Delhi - DPCC",13-11-2025 07:00:00,28.636429,77.201067,PM10,157,468,329
India,Delhi,Delhi,"Mundka, Delhi - DPCC",13-11-2025 07:00:00,28.684678,77.076574,NO2,73,182,121
India,Delhi,Delhi,"Alipur, Delhi - DPCC",13-11-2025 07:00:00,28.815329,77.153010,SO2,6,40,19
India,Delhi,Delhi,"Anand Vihar, Delhi - DPCC",13-11-2025 07:00:00,28.647622,77.3158090,PM10,248,500,410
India,Delhi,Delhi,"Ashok Vihar, Delhi - DPCC",13-11-2025 07:00:00,28.695381,77.181665,PM2.5,328,500,438
India,Delhi,Delhi,"Ashok Vihar, Delhi - DPCC",13-11-2025 07:00:00,28.695381,77.181665,PM10,265,500,416
India,Delhi,Delhi,"Narela, Delhi - DPCC",13-11-2025 07:00:00,28.822836,77.101981,PM2.5,305,500,432
India,Delhi,Delhi,"Narela, Delhi - DPCC",13-11-2025 07:00:00,28.822836,77.101981,OZONE,4,231,17
India,Delhi,Delhi,"North Campus, DU, Delhi - IMD",13-11-2025 07:00:00,28.6573814,77.1585447,NO2,66,230,141
India,Delhi,Delhi,"Dwarka-Sector 8, Delhi - DPCC ",13-11-2025 07:00:00,28.5710274,77.0719006,PM2.5,318,473,401
India,Delhi,Delhi,"Dwarka-Sector 8, Delhi - DPCC ",13-11-2025 07:00:00,28.5710274,77.0719006,OZONE,3,199,11
India,Delhi,Delhi,"IGI Airport (T3), Delhi - IMD",13-11-2025 07:00:00,28.5627763,77.1180053,PM10,235,461,382
India,Delhi,Delhi,"Mundka, Delhi - DPCC",13-11-2025 07:00:00,28.684678,77.076574,OZONE,1,131,2
India,Delhi,Delhi,"NSIT Dwarka, Delhi - CPCB",13-11-2025 07:00:00,28.60909,77.0325413,NO2,66,157,93
India,Delhi,Delhi,"Jawaharlal Nehru Stadium, Delhi - DPCC",13-11-2025 07:00:00,28.580280,77.233829,SO2,5,41,24
India,Delhi,Delhi,"Jawaharlal Nehru Stadium, Delhi - DPCC",13-11-2025 07:00:00,28.580280,77.233829,CO,52,156,126
India,Delhi,Delhi,"Ashok Vihar, Delhi - DPCC",13-11-2025 07:00:00,28.695381,77.181665,SO2,15,39,24
India,Delhi,Delhi,"ITO, Delhi - CPCB",13-11-2025 07:00:00,28.628624,77.241060,CO,52,129,104
India,Gujarat,Ankleshwar,"GIDC, Ankleshwar - GPCB",13-11-2025 07:00:00,21.613267,73.010555,NO2,20,29,27
India,Gujarat,Ankleshwar,"GIDC, Ankleshwar - GPCB",13-11-2025 07:00:00,21.613267,73.010555,NH3,4,5,5
India,Gujarat,Ankleshwar,"GIDC, Ankleshwar - GPCB",13-11-2025 07:00:00,21.613267,73.010555,CO,64,107,102
India,Gujarat,Gandhinagar,"GIFT City, Gandhinagar - IITM",13-11-2025 07:00:00,23.163798,72.677768,PM10,85,375,179
India,Gujarat,Gandhinagar,"GIFT City, Gandhinagar - IITM",13-11-2025 07:00:00,23.163798,72.677768,CO,31,82,54
India,Gujarat,Gandhinagar,"GIFT City, Gandhinagar - IITM",13-11-2025 07:00:00,23.163798,72.677768,OZONE,2,80,6
India,Gujarat,Gandhinagar,"IIPHG Lekawada, Gandhinagar - IITM",13-11-2025 07:00:00,23.243639,72.68994,PM2.5,45,101,79
India,Gujarat,Gandhinagar,"IIPHG Lekawada, Gandhinagar - IITM",13-11-2025 07:00:00,23.243639,72.68994,NO2,5,15,9
India,Delhi,Delhi,"Rohini, Delhi - DPCC",13-11-2025 07:00:00,28.732528,77.119920,PM10,270,500,431
India,Delhi,Delhi,"Rohini, Delhi - DPCC",13-11-2025 07:00:00,28.732528,77.119920,NH3,5,6,5
India,Delhi,Delhi,"Shadipur, Delhi - CPCB",13-11-2025 07:00:00,28.6514781,77.1473105,PM10,250,444,388
India,Delhi,Delhi,"Shadipur, Delhi - CPCB",13-11-2025 07:00:00,28.6514781,77.1473105,NO2,60,199,105
India,Delhi,Delhi,"Shadipur, Delhi - CPCB",13-11-2025 07:00:00,28.6514781,77.1473105,SO2,6,26,16
India,Delhi,Delhi,"Shadipur, Delhi - CPCB",13-11-2025 07:00:00,28.6514781,77.1473105,OZONE,12,54,19
India,Delhi,Delhi,"Sirifort, Delhi - CPCB",13-11-2025 07:00:00,28.5504249,77.2159377,NO2,38,60,50
India,Delhi,Delhi,"Sri Aurobindo Marg, Delhi - DPCC",13-11-2025 07:00:00,28.531346,77.190156,OZONE,1,156,2
India,Delhi,Delhi,"Vivek Vihar, Delhi - DPCC",13-11-2025 07:00:00,28.672342,77.315260,NO2,35,145,93
India,Delhi,Delhi,"Vivek Vihar, Delhi - DPCC",13-11-2025 07:00:00,28.672342,77.315260,NH3,10,13,11
India,Delhi,Delhi,"Wazirpur, Delhi - DPCC",13-11-2025 07:00:00,28.699793,77.165453,PM10,289,500,454
India,Gujarat,Ahmedabad,"Chandkheda, Ahmedabad - IITM",13-11-2025 07:00:00,23.107969,72.574648,NO2,10,127,62
India,Gujarat,Ahmedabad,"Gyaspur, Ahmedabad - IITM",13-11-2025 07:00:00,22.977134,72.553024,SO2,1,101,39
India,Gujarat,Ahmedabad,"Gyaspur, Ahmedabad - IITM",13-11-2025 07:00:00,22.977134,72.553024,CO,60,99,78
India,Gujarat,Ahmedabad,"Maninagar, Ahmedabad - GPCB",13-11-2025 07:00:00,23.002657,72.591912,NO2,41,54,48
India,Gujarat,Ahmedabad,"Raikhad, Ahmedabad - IITM",13-11-2025 07:00:00,23.020509,72.579261,PM2.5,75,325,189
India,Gujarat,Ahmedabad,"Raikhad, Ahmedabad - IITM",13-11-2025 07:00:00,23.020509,72.579261,SO2,9,26,16
India,Gujarat,Ahmedabad,"Rakhial, Ahmedabad - IITM",13-11-2025 07:00:00,23.016834,72.625775,OZONE,1,74,3
India,Gujarat,Ahmedabad,"SAC ISRO Bopal, Ahmedabad - IITM",13-11-2025 07:00:00,23.041137,72.456691,CO,22,59,51
India,Delhi,Delhi,"Punjabi Bagh, Delhi - DPCC",13-11-2025 07:00:00,28.674045,77.131023,SO2,32,48,38
India,Delhi,Delhi,"Pusa, Delhi - DPCC",13-11-2025 07:00:00,28.639652,77.146275,NO2,65,187,122
India,Delhi,Delhi,"Pusa, Delhi - IMD",13-11-2025 07:00:00,28.636110,77.173332,PM10,197,465,365
India,Gujarat,Ahmedabad,"SAC ISRO Satellite, Ahmedabad - IITM",13-11-2025 07:00:00,23.023389,72.515201,NO2,23,163,91
India,Gujarat,Ahmedabad,"SAC ISRO Satellite, Ahmedabad - IITM",13-11-2025 07:00:00,23.023389,72.515201,NH3,4,19,9
India,Gujarat,Ahmedabad,"SVPI Airport Hansol, Ahmedabad - IITM",13-11-2025 07:00:00,23.076793,72.627874,NO2,32,65,48
India,Delhi,Delhi,"Sonia Vihar, Delhi - DPCC",13-11-2025 07:00:00,28.710508,77.249485,PM2.5,322,500,425
India,Delhi,Delhi,"Sonia Vihar, Delhi - DPCC",13-11-2025 07:00:00,28.710508,77.249485,NH3,5,11,8
India,Delhi,Delhi,"Sri Aurobindo Marg, Delhi - DPCC",13-11-2025 07:00:00,28.531346,77.190156,CO,37,104,86
India,Delhi,Delhi,"Patparganj, Delhi - DPCC",13-11-2025 07:00:00,28.623763,77.287209,PM2.5,321,500,423
India,Delhi,Delhi,"Patparganj, Delhi - DPCC",13-11-2025 07:00:00,28.623763,77.287209,PM10,256,482,406
India,Haryana,Kaithal,"Rishi Nagar, Kaithal - HSPCB",13-11-2025 07:00:00,29.8006,76.4155,NO2,27,33,31
India,Haryana,Kaithal,"Rishi Nagar, Kaithal - HSPCB",13-11-2025 07:00:00,29.8006,76.4155,NH3,5,6,6
India,Haryana,Kaithal,"Rishi Nagar, Kaithal - HSPCB",13-11-2025 07:00:00,29.8006,76.4155,CO,18,101,83
India,Haryana,Karnal,"Sector-12, Karnal - HSPCB",13-11-2025 07:00:00,29.695300,77.002700,PM2.5,70,249,156
India,Haryana,Karnal,"Sector-12, Karnal - HSPCB",13-11-2025 07:00:00,29.695300,77.002700,PM10,60,133,102
India,Haryana,Karnal,"Sector-12, Karnal - HSPCB",13-11-2025 07:00:00,29.695300,77.002700,NO2,9,11,10
India,Haryana,Kurukshetra,"Sector-7, Kurukshetra - HSPCB",13-11-2025 07:00:00,29.966942,76.875879,SO2,4,17,11
India,Haryana,Faridabad,"Sector 30, Faridabad - HSPCB",13-11-2025 07:00:00,28.4417,77.3217,OZONE,17,19,18
India,Haryana,Fatehabad,"Huda Sector, Fatehabad - HSPCB",13-11-2025 07:00:00,29.503664,75.467934,NH3,13,14,14
India,Haryana,Fatehabad,"Huda Sector, Fatehabad - HSPCB",13-11-2025 07:00:00,29.503664,75.467934,CO,25,68,29
India,Haryana,Fatehabad,"Huda Sector, Fatehabad - HSPCB",13-11-2025 07:00:00,29.503664,75.467934,OZONE,11,21,11
India,Haryana,Gurugram,"NISE Gwal Pahari, Gurugram - IMD",13-11-2025 07:00:00,28.422681,77.148944,PM10,180,500,316
India,Haryana,Charkhi Dadri,"Mini Secretariat, Charkhi Dadri - HSPCB",13-11-2025 07:00:00,28.593883,76.270653,PM10,175,416,245
India,Haryana,Dharuhera,"Municipal Corporation Office, Dharuhera -  HSPCB",13-11-2025 07:00:00,28.206800,76.799700,NO2,18,65,47
India,Haryana,Dharuhera,"Municipal Corporation Office, Dharuhera -  HSPCB",13-11-2025 07:00:00,28.206800,76.799700,NH3,8,23,15
India,Haryana,Dharuhera,"Municipal Corporation Office, Dharuhera -  HSPCB",13-11-2025 07:00:00,28.206800,76.799700,CO,53,72,67
India,Gujarat,Vatva,"Phase-4 GIDC, Vatva - GPCB",13-11-2025 07:00:00,22.969611,72.643500,PM10,23,439,104
India,Haryana,Ambala,"Patti Mehar, Ambala - HSPCB",13-11-2025 07:00:00,30.379589,76.778328,OZONE,47,52,50
India,Haryana,Bahadurgarh,"Arya Nagar, Bahadurgarh - HSPCB",13-11-2025 07:00:00,28.6701,76.9254,PM10,52,484,375
India,Haryana,Gurugram,"Vikas Sadan, Gurugram - HSPCB",13-11-2025 07:00:00,28.4501238,77.0263051,PM10,58,185,142
India,Haryana,Hisar,"Urban Estate-II, Hisar - HSPCB",13-11-2025 07:00:00,29.140560,75.744941,OZONE,54,119,61
India,Haryana,Jind,"Police Lines, Jind - HSPCB",13-11-2025 07:00:00,29.307814,76.337619,NO2,12,14,13
India,Haryana,Faridabad,"New Industrial Town, Faridabad - HSPCB",13-11-2025 07:00:00,28.39072,77.30059,SO2,8,8,8
India,Haryana,Faridabad,"Sector 11, Faridabad - HSPCB",13-11-2025 07:00:00,28.376058,77.315741,PM10,128,278,168
India,Haryana,Faridabad,"Sector 30, Faridabad - HSPCB",13-11-2025 07:00:00,28.4417,77.3217,PM10,NA,NA,NA
India,Gujarat,Gandhinagar,"Sector-10, Gandhinagar - GPCB",13-11-2025 07:00:00,23.221714,72.654328,PM10,96,225,138
India,Gujarat,Gandhinagar,"Sector-10, Gandhinagar - GPCB",13-11-2025 07:00:00,23.221714,72.654328,NO2,16,37,23
India,Gujarat,Surat,"Science Center, Surat - SMC",13-11-2025 07:00:00,21.170046,72.795405,PM10,55,134,103
India,Haryana,Gurugram,"Sector-51, Gurugram - HSPCB",13-11-2025 07:00:00,28.4227,77.0667,PM2.5,316,500,388
India,Haryana,Gurugram,"Sector-51, Gurugram - HSPCB",13-11-2025 07:00:00,28.4227,77.0667,SO2,3,30,12
India,Haryana,Gurugram,"Sector-51, Gurugram - HSPCB",13-11-2025 07:00:00,28.4227,77.0667,CO,6,109,39
India,Haryana,Ballabgarh,"Nathu Colony, Ballabgarh - HSPCB",13-11-2025 07:00:00,28.3419248,77.319699,NH3,3,3,3
India,Haryana,Ballabgarh,"Nathu Colony, Ballabgarh - HSPCB",13-11-2025 07:00:00,28.3419248,77.319699,SO2,10,13,11
India,Haryana,Ballabgarh,"Nathu Colony, Ballabgarh - HSPCB",13-11-2025 07:00:00,28.3419248,77.319699,CO,49,52,51
India,Himachal Pradesh,Baddi,"HIMUDA Complex Phase-1, Baddi - HPPCB",13-11-2025 07:00:00,30.943887,76.801991,NO2,21,99,58
India,Himachal Pradesh,Baddi,"HIMUDA Complex Phase-1, Baddi - HPPCB",13-11-2025 07:00:00,30.943887,76.801991,NH3,4,8,6
India,Himachal Pradesh,Baddi,"HIMUDA Complex Phase-1, Baddi - HPPCB",13-11-2025 07:00:00,30.943887,76.801991,CO,45,102,66
India,Jammu_and_Kashmir,Srinagar,"Rajbagh, Srinagar - JKSPCB",13-11-2025 07:00:00,34.066206,74.819820,PM2.5,36,500,132
India,Jammu_and_Kashmir,Srinagar,"Rajbagh, Srinagar - JKSPCB",13-11-2025 07:00:00,34.066206,74.819820,CO,5,19,13
India,Jharkhand,Dhanbad,"Sardar Patel Nagar, Dhanbad - JSPCB",13-11-2025 07:00:00,23.80569,86.44268,CO,1,14,4
India,Karnataka,Bengaluru,"BTM Layout, Bengaluru - CPCB",13-11-2025 07:00:00,12.9135218,77.5950804,OZONE,20,20,20
India,Karnataka,Bengaluru,"BWSSB Kadabesanahalli, Bengaluru - CPCB",13-11-2025 07:00:00,12.9352049,77.6814488,NO2,23,25,25
India,Karnataka,Bengaluru,"BWSSB Kadabesanahalli, Bengaluru - CPCB",13-11-2025 07:00:00,12.9352049,77.6814488,NH3,4,5,5
India,Karnataka,Bengaluru,"BWSSB Kadabesanahalli, Bengaluru - CPCB",13-11-2025 07:00:00,12.9352049,77.6814488,OZONE,29,29,29
India,Karnataka,Bengaluru,"Hombegowda Nagar, Bengaluru - KSPCB",13-11-2025 07:00:00,12.938539,77.590100,NH3,3,4,3
India,Haryana,Narnaul,"Shastri Nagar, Narnaul - HSPCB",13-11-2025 07:00:00,28.060249,76.113115,CO,14,41,30
India,Haryana,Palwal,"Shyam Nagar, Palwal - HSPCB",13-11-2025 07:00:00,28.1485564,77.3320667,PM2.5,72,305,170
India,Haryana,Panchgaon,"Amity University, Panchgaon - IITM",13-11-2025 07:00:00,28.3153,76.9143,CO,14,120,72
India,Haryana,Panchgaon,"Amity University, Panchgaon - IITM",13-11-2025 07:00:00,28.3153,76.9143,OZONE,1,94,2
India,Jharkhand,Jorapokhar,"Tata Stadium, Jorapokhar - JSPCB",13-11-2025 07:00:00,23.707909,86.414670,SO2,NA,NA,NA
India,Karnataka,Bagalkot,"Vidayagiri, Bagalkot - KSPCB",13-11-2025 07:00:00,16.172806,75.659694,NH3,1,2,1
India,Karnataka,Bengaluru,"BTM Layout, Bengaluru - CPCB",13-11-2025 07:00:00,12.9135218,77.5950804,CO,41,54,50
India,Haryana,Mandikhera,"General Hospital, Mandikhera - HSPCB",13-11-2025 07:00:00,27.9002,76.9938,PM10,88,203,123
India,Haryana,Mandikhera,"General Hospital, Mandikhera - HSPCB",13-11-2025 07:00:00,27.9002,76.9938,SO2,32,36,34
India,Haryana,Mandikhera,"General Hospital, Mandikhera - HSPCB",13-11-2025 07:00:00,27.9002,76.9938,CO,80,123,89
India,Haryana,Manesar,"Sector-2 IMT, Manesar - HSPCB",13-11-2025 07:00:00,28.360699,76.936090,SO2,14,24,18
India,Karnataka,Bengaluru,"Hombegowda Nagar, Bengaluru - KSPCB",13-11-2025 07:00:00,12.938539,77.590100,OZONE,17,60,31
India,Karnataka,Bengaluru,"Jigani, Bengaluru - KSPCB",13-11-2025 07:00:00,12.7816279,77.6299145,NO2,20,21,20
India,Karnataka,Bengaluru,"Kasturi Nagar, Bengaluru - KSPCB",13-11-2025 07:00:00,13.003872,77.664217,NO2,29,30,29
India,Haryana,Sirsa,"F-Block, Sirsa - HSPCB",13-11-2025 07:00:00,29.536400,75.015800,NH3,12,15,13
India,Haryana,Sonipat,"Murthal, Sonipat - HSPCB",13-11-2025 07:00:00,29.027200,77.062100,NO2,25,57,45
India,Haryana,Sonipat,"Murthal, Sonipat - HSPCB",13-11-2025 07:00:00,29.027200,77.062100,NH3,9,21,17
India,Haryana,Sonipat,"Murthal, Sonipat - HSPCB",13-11-2025 07:00:00,29.027200,77.062100,SO2,6,11,8
India,Karnataka,Bengaluru,"Kasturi Nagar, Bengaluru - KSPCB",13-11-2025 07:00:00,13.003872,77.664217,SO2,10,12,11
India,Karnataka,Bengaluru,"Shivapura_Peenya, Bengaluru - KSPCB",13-11-2025 07:00:00,13.0246342,77.5080115,PM10,103,124,114
India,Haryana,Panipat,"Sector-18, Panipat - HSPCB",13-11-2025 07:00:00,29.432304,76.972765,PM2.5,60,500,296
India,Haryana,Rohtak,"MD University, Rohtak - HSPCB",13-11-2025 07:00:00,28.52123,76.37138,PM10,146,457,338
India,Karnataka,Mysuru,"Hebbal 1st Stage, Mysuru - KSPCB",13-11-2025 07:00:00,12.21041,76.37376,CO,14,40,20
India,Karnataka,Shivamogga,"Vinoba Nagara, Shivamogga - KSPCB",13-11-2025 07:00:00,13.940000,75.555917,NO2,12,18,16
India,Karnataka,Shivamogga,"Vinoba Nagara, Shivamogga - KSPCB",13-11-2025 07:00:00,13.940000,75.555917,SO2,3,7,5
India,Karnataka,Tumakuru,"Thimmalapura, Tumakuru - KSPCB",13-11-2025 07:00:00,13.377516,77.099072,CO,52,54,54
India,Karnataka,Udupi,"Brahmagiri, Udupi - KSPCB",13-11-2025 07:00:00,13.34194444,74.74694444,PM10,51,114,79
India,Karnataka,Davanagere,"Devaraj Urs Badavane, Davanagere - KSPCB",13-11-2025 07:00:00,14.475800,75.905200,SO2,1,6,3
India,Karnataka,Dharwad,"Kalabhavan, Dharwad - KSPCB",13-11-2025 07:00:00,15.459706,75.008381,PM10,52,83,72
India,Karnataka,Dharwad,"Kalabhavan, Dharwad - KSPCB",13-11-2025 07:00:00,15.459706,75.008381,NH3,6,7,6
India,Karnataka,Dharwad,"Kalabhavan, Dharwad - KSPCB",13-11-2025 07:00:00,15.459706,75.008381,CO,51,111,84
India,Karnataka,Dharwad,"Kalabhavan, Dharwad - KSPCB",13-11-2025 07:00:00,15.459706,75.008381,OZONE,21,24,24
India,Karnataka,Gadag,"Panchal Nagar, Gadag - KSPCB",13-11-2025 07:00:00,15.411456,75.638133,PM10,13,195,31
India,Karnataka,Hubballi,"Lingaraj Nagar, Hubballi - KSPCB",13-11-2025 07:00:00,15.3714823,75.1160168,PM10,43,93,60
India,Karnataka,Hubballi,"Lingaraj Nagar, Hubballi - KSPCB",13-11-2025 07:00:00,15.3714823,75.1160168,NO2,7,11,8
India,Karnataka,Kalaburagi,"Lal Bahadur Shastri Nagar, Kalaburagi - KSPCB",13-11-2025 07:00:00,17.321993,76.822628,PM2.5,25,65,46
India,Karnataka,Kalaburagi,"Lal Bahadur Shastri Nagar, Kalaburagi - KSPCB",13-11-2025 07:00:00,17.321993,76.822628,NO2,12,12,12
India,Karnataka,Kalaburagi,"Lal Bahadur Shastri Nagar, Kalaburagi - KSPCB",13-11-2025 07:00:00,17.321993,76.822628,SO2,61,87,67
