country,state,city,station,last_update,latitude,longitude,pollutant_id,min_value,max_value,avg_value
India,Delhi,Delhi,"Lodhi Road, Delhi - IMD",17-03-2026 08:00:00,28.5918245,77.2273074,NO2,13,47,23
India,Andhra_Pradesh,Chittoor,"Gangineni Cheruvu, Chittoor - APPCB",17-03-2026 08:00:00,13.204880,79.097889,NH3,6,8,6
India,Andhra_Pradesh,Chittoor,"Gangineni Cheruvu, Chittoor - APPCB",17-03-2026 08:00:00,13.204880,79.097889,SO2,14,22,16
India,Andhra_Pradesh,Chittoor,"Gangineni Cheruvu, Chittoor - APPCB",17-03-2026 08:00:00,13.204880,79.097889,CO,24,36,25
India,Delhi,Delhi,"Lodhi Road, Delhi - IMD",17-03-2026 08:00:00,28.5918245,77.2273074,OZONE,17,100,36
India,Delhi,Delhi,"Major Dhyan Chand National Stadium, Delhi - DPCC",17-03-2026 08:00:00,28.611281,77.237738,OZONE,2,100,27
India,Andhra_Pradesh,Guntur,"Rajendra Nagar North, Guntur - APPCB",17-03-2026 08:00:00,16.316553,80.413302,NH3,4,5,4
India,Andhra_Pradesh,Guntur,"Rajendra Nagar North, Guntur - APPCB",17-03-2026 08:00:00,16.316553,80.413302,SO2,11,23,15
India,Delhi,Delhi,"Mandir Marg, Delhi - DPCC",17-03-2026 08:00:00,28.636429,77.201067,CO,44,88,48
India,Delhi,Delhi,"Mandir Marg, Delhi - DPCC",17-03-2026 08:00:00,28.636429,77.201067,OZONE,12,116,48
India,Andhra_Pradesh,Kadapa,"Yerramukkapalli, Kadapa - APPCB",17-03-2026 08:00:00,14.465052,78.824187,PM10,60,73,66
India,Delhi,Delhi,"Mundka, Delhi - DPCC",17-03-2026 08:00:00,28.684678,77.076574,NO2,82,116,95
India,Delhi,Delhi,"Mundka, Delhi - DPCC",17-03-2026 08:00:00,28.684678,77.076574,NH3,5,12,7
India,Andhra_Pradesh,Kadapa,"Yerramukkapalli, Kadapa - APPCB",17-03-2026 08:00:00,14.465052,78.824187,OZONE,16,24,17
India,Delhi,Delhi,"NSIT Dwarka, Delhi - CPCB",17-03-2026 08:00:00,28.60909,77.0325413,CO,34,74,56
India,Andhra_Pradesh,Machilipatnam,"Srinivas Nagar Colony, Machilipatnam - APPCB",17-03-2026 08:00:00,16.186555,81.13219,OZONE,1,25,2
India,Andhra_Pradesh,Rajamahendravaram,"Anand Kala Kshetram, Rajamahendravaram - APPCB",17-03-2026 08:00:00,16.9872867,81.7363176,PM2.5,8,42,18
India,Delhi,Delhi,"NSUT Jaffarpur, Delhi - DPCC",17-03-2026 08:00:00,28.594004 ,76.909423 ,SO2,78,91,81
India,Andhra_Pradesh,Rajamahendravaram,"Anand Kala Kshetram, Rajamahendravaram - APPCB",17-03-2026 08:00:00,16.9872867,81.7363176,CO,23,42,28
India,Delhi,Delhi,"Vivek Vihar, Delhi - DPCC",17-03-2026 08:00:00,28.672342,77.315260,NH3,5,7,6
India,Delhi,Delhi,"Vivek Vihar, Delhi - DPCC",17-03-2026 08:00:00,28.672342,77.315260,CO,55,100,66
India,Delhi,Delhi,"Vivek Vihar, Delhi - DPCC",17-03-2026 08:00:00,28.672342,77.315260,OZONE,7,99,21
India,Bihar,Bhagalpur,"DM Office_Kachari Chowk, Bhagalpur - BSPCB",17-03-2026 08:00:00,25.251013,86.989001,PM10,89,187,123
India,Delhi,Delhi,"Wazirpur, Delhi - DPCC",17-03-2026 08:00:00,28.699793,77.165453,NH3,9,12,10
India,Bihar,Bihar Sharif,"D M Colony, Bihar Sharif - BSPCB",17-03-2026 08:00:00,25.204762,85.514960,PM10,16,136,52
India,Bihar,Bihar Sharif,"D M Colony, Bihar Sharif - BSPCB",17-03-2026 08:00:00,25.204762,85.514960,NO2,9,10,9
India,Gujarat,Ahmedabad,"Gyaspur, Ahmedabad - IITM",17-03-2026 08:00:00,22.977134,72.553024,NO2,42,142,85
India,Gujarat,Ahmedabad,"Gyaspur, Ahmedabad - IITM",17-03-2026 08:00:00,22.977134,72.553024,NH3,3,18,7
India,Bihar,Bihar Sharif,"D M Colony, Bihar Sharif - BSPCB",17-03-2026 08:00:00,25.204762,85.514960,OZONE,1,3,2
India,Gujarat,Ahmedabad,"Maninagar, Ahmedabad - GPCB",17-03-2026 08:00:00,23.002657,72.591912,PM10,90,122,107
India,Gujarat,Ahmedabad,"Maninagar, Ahmedabad - GPCB",17-03-2026 08:00:00,23.002657,72.591912,SO2,28,109,63
India,Bihar,Buxar,"Charitra Van, Buxar - BSPCB",17-03-2026 08:00:00,25.567520,83.966379,CO,20,28,25
India,Bihar,Chhapra,"Darshan Nagar, Chhapra - BSPCB",17-03-2026 08:00:00,25.7808257,84.7446768,PM2.5,32,187,71
India,Gujarat,Ahmedabad,"Raikhad, Ahmedabad - IITM",17-03-2026 08:00:00,23.020509,72.579261,PM10,135,251,172
India,Bihar,Chhapra,"Darshan Nagar, Chhapra - BSPCB",17-03-2026 08:00:00,25.7808257,84.7446768,NH3,7,12,10
India,Bihar,Chhapra,"Darshan Nagar, Chhapra - BSPCB",17-03-2026 08:00:00,25.7808257,84.7446768,SO2,20,24,21
India,Delhi,Delhi,"IHBAS, Dilshad Garden, Delhi - CPCB",17-03-2026 08:00:00,28.6811736,77.3025234,SO2,3,29,14
India,Delhi,Delhi,"IHBAS, Dilshad Garden, Delhi - CPCB",17-03-2026 08:00:00,28.6811736,77.3025234,CO,1,126,106
India,Delhi,Delhi,"IHBAS, Dilshad Garden, Delhi - CPCB",17-03-2026 08:00:00,28.6811736,77.3025234,OZONE,10,35,12
India,Delhi,Delhi,"IIT Delhi, Delhi - IITM",17-03-2026 08:00:00,28.542460,77.191651,CO,28,101,40
India,Delhi,Delhi,"ITO, Delhi - CPCB",17-03-2026 08:00:00,28.628624,77.241060,PM2.5,49,144,67
India,Delhi,Delhi,"ITO, Delhi - CPCB",17-03-2026 08:00:00,28.628624,77.241060,OZONE,27,66,30
India,Delhi,Delhi,"JNU, Delhi - DPCC",17-03-2026 08:00:00,28.540721 ,77.168544 ,NH3,2,7,4
India,Delhi,Delhi,"JNU, Delhi - DPCC",17-03-2026 08:00:00,28.540721 ,77.168544 ,SO2,17,20,18
India,Andhra_Pradesh,Amaravati,"Secretariat, Amaravati - APPCB",17-03-2026 08:00:00,16.5150833,80.5181667,PM2.5,4,23,12
India,Delhi,Delhi,"Jahangirpuri, Delhi - DPCC",17-03-2026 08:00:00,28.732820,77.170633,NO2,45,98,61
India,Andhra_Pradesh,Amaravati,"Secretariat, Amaravati - APPCB",17-03-2026 08:00:00,16.5150833,80.5181667,CO,8,24,16
India,Delhi,Delhi,"Jahangirpuri, Delhi - DPCC",17-03-2026 08:00:00,28.732820,77.170633,OZONE,10,82,13
India,Delhi,Delhi,"Jawaharlal Nehru Stadium, Delhi - DPCC",17-03-2026 08:00:00,28.580280,77.233829,PM2.5,45,143,66
India,Delhi,Delhi,"Jawaharlal Nehru Stadium, Delhi - DPCC",17-03-2026 08:00:00,28.580280,77.233829,PM10,79,205,126
India,Andhra_Pradesh,Anantapur,"Gulzarpet, Anantapur - APPCB",17-03-2026 08:00:00,14.675886,77.593027,NH3,4,7,4
India,Delhi,Delhi,"Jawaharlal Nehru Stadium, Delhi - DPCC",17-03-2026 08:00:00,28.580280,77.233829,SO2,11,26,19
India,Andhra_Pradesh,Anantapur,"Gulzarpet, Anantapur - APPCB",17-03-2026 08:00:00,14.675886,77.593027,CO,13,43,33
India,Delhi,Delhi,"Punjabi Bagh, Delhi - DPCC",17-03-2026 08:00:00,28.674045,77.131023,PM2.5,15,150,69
India,Andhra_Pradesh,Visakhapatnam,"GVM Corporation, Visakhapatnam - APPCB",17-03-2026 08:00:00,17.72,83.3,NO2,19,69,48
India,Delhi,Delhi,"Pusa, Delhi - DPCC",17-03-2026 08:00:00,28.639652,77.146275,PM2.5,28,321,71
India,Arunachal_Pradesh,Naharlagun,"Naharlagun, Naharlagun - APSPCB",17-03-2026 08:00:00,27.103358,93.679645,PM10,11,57,29
India,Delhi,Delhi,"Pusa, Delhi - DPCC",17-03-2026 08:00:00,28.639652,77.146275,NH3,6,21,16
India,Delhi,Delhi,"Pusa, Delhi - DPCC",17-03-2026 08:00:00,28.639652,77.146275,SO2,12,46,19
India,Arunachal_Pradesh,Naharlagun,"Naharlagun, Naharlagun - APSPCB",17-03-2026 08:00:00,27.103358,93.679645,CO,9,20,12
India,Assam,Byrnihat,"Central Academy for SFS, Byrnihat - PCBA",17-03-2026 08:00:00,26.071318,91.87488,NH3,3,5,4
India,Delhi,Delhi,"Pusa, Delhi - IMD",17-03-2026 08:00:00,28.636110,77.173332,OZONE,44,219,74
India,Delhi,Delhi,"R K Puram, Delhi - DPCC",17-03-2026 08:00:00,28.563262,77.186937,PM2.5,45,277,86
India,Assam,Byrnihat,"Central Academy for SFS, Byrnihat - PCBA",17-03-2026 08:00:00,26.071318,91.87488,CO,18,64,47
India,Delhi,Delhi,"R K Puram, Delhi - DPCC",17-03-2026 08:00:00,28.563262,77.186937,PM10,85,249,133
India,Assam,Guwahati,"IITG, Guwahati - PCBA",17-03-2026 08:00:00,26.2028636,91.70046436,NH3,5,5,5
India,Delhi,Delhi,"R K Puram, Delhi - DPCC",17-03-2026 08:00:00,28.563262,77.186937,OZONE,8,99,24
India,Assam,Guwahati,"IITG, Guwahati - PCBA",17-03-2026 08:00:00,26.2028636,91.70046436,CO,5,18,8
India,Gujarat,Rajkot,"Mavdi, Rajkot - Nexteng Enviro ",17-03-2026 08:00:00,22.248853,70.776774,PM2.5,1,113,65
India,Bihar,Manguraha,"Forest Rest House, Manguraha - BSPCB",17-03-2026 08:00:00,27.308328,84.531742,SO2,NA,NA,NA
India,Bihar,Motihari,"Gandak Colony, Motihari - BSPCB",17-03-2026 08:00:00,26.63086,84.90051,PM2.5,27,333,64
India,Bihar,Motihari,"Gandak Colony, Motihari - BSPCB",17-03-2026 08:00:00,26.63086,84.90051,OZONE,3,6,3
India,Gujarat,Surat,"Katargam, Surat - Nexteng Enviro",17-03-2026 08:00:00,21.217779 ,72.834787 ,SO2,4,5,4
India,Gujarat,Surat,"Katargam, Surat - Nexteng Enviro",17-03-2026 08:00:00,21.217779 ,72.834787 ,OZONE,9,9,9
India,Gujarat,Surat,"Science Center, Surat - SMC",17-03-2026 08:00:00,21.170046,72.795405,PM2.5,30,86,63
India,Bihar,Muzaffarpur,"Buddha Colony, Muzaffarpur - BSPCB",17-03-2026 08:00:00,26.11442,85.39813,PM10,70,233,108
India,Bihar,Muzaffarpur,"Buddha Colony, Muzaffarpur - BSPCB",17-03-2026 08:00:00,26.11442,85.39813,NO2,19,42,29
India,Bihar,Muzaffarpur,"Buddha Colony, Muzaffarpur - BSPCB",17-03-2026 08:00:00,26.11442,85.39813,OZONE,21,102,35
India,Gujarat,Vadodara,"Bapunagar, Vadodara - Nexteng Enviro",17-03-2026 08:00:00,22.320153,73.216285,SO2,5,26,13
India,Bihar,Muzaffarpur,"MIT-Daudpur Kothi, Muzaffarpur - BSPCB",17-03-2026 08:00:00,26.1403345,85.3650192,PM10,NA,NA,NA
India,Bihar,Muzaffarpur,"MIT-Daudpur Kothi, Muzaffarpur - BSPCB",17-03-2026 08:00:00,26.1403345,85.3650192,NO2,NA,NA,NA
India,Gujarat,Vatva,"Phase-4 GIDC, Vatva - GPCB",17-03-2026 08:00:00,22.969611,72.643500,PM2.5,85,308,137
India,Gujarat,Ahmedabad,"Rakhial, Ahmedabad - IITM",17-03-2026 08:00:00,23.016834,72.625775,NH3,6,11,8
India,Bihar,Gaya,"SFTI Kusdihra, Gaya - BSPCB",17-03-2026 08:00:00,24.762518,84.982348,SO2,6,7,7
India,Bihar,Hajipur,"Industrial Area, Hajipur - BSPCB",17-03-2026 08:00:00,25.697189,85.245900,NO2,17,31,23
India,Bihar,Hajipur,"Industrial Area, Hajipur - BSPCB",17-03-2026 08:00:00,25.697189,85.245900,SO2,4,6,5
India,Bihar,Hajipur,"Industrial Area, Hajipur - BSPCB",17-03-2026 08:00:00,25.697189,85.245900,CO,5,43,24
India,Gujarat,Ahmedabad,"SAC ISRO Satellite, Ahmedabad - IITM",17-03-2026 08:00:00,23.023389,72.515201,NH3,2,7,4
India,Bihar,Katihar,"Mirchaibari, Katihar - BSPCB",17-03-2026 08:00:00,25.560083,87.553265,CO,57,84,74
India,Bihar,Kishanganj,"SDM Office_Khagra, Kishanganj - BSPCB",17-03-2026 08:00:00,26.0881305,87.93840336,NO2,8,9,8
India,Gujarat,Ankleshwar,"GIDC, Ankleshwar - GPCB",17-03-2026 08:00:00,21.613267,73.010555,PM2.5,44,113,76
India,Gujarat,Ankleshwar,"GIDC, Ankleshwar - GPCB",17-03-2026 08:00:00,21.613267,73.010555,NO2,20,27,24
India,Bihar,Kishanganj,"SDM Office_Khagra, Kishanganj - BSPCB",17-03-2026 08:00:00,26.0881305,87.93840336,CO,14,17,15
India,Gujarat,Ankleshwar,"GIDC, Ankleshwar - GPCB",17-03-2026 08:00:00,21.613267,73.010555,SO2,25,33,28
India,Delhi,Delhi,"Najafgarh, Delhi - DPCC",17-03-2026 08:00:00,28.570173,76.933762,NH3,4,22,11
India,Andhra_Pradesh,Vijayawada,"HB Colony, Vijayawada - APPCB",17-03-2026 08:00:00,16.536107,80.594233,NO2,14,22,16
India,Delhi,Delhi,"Nehru Nagar, Delhi - DPCC",17-03-2026 08:00:00,28.567890,77.250515,NH3,20,25,23
India,Andhra_Pradesh,Vijayawada,"Kanuru, Vijayawada - APPCB",17-03-2026 08:00:00,16.486692,80.699436,PM2.5,47,69,54
India,Andhra_Pradesh,Vijayawada,"Kanuru, Vijayawada - APPCB",17-03-2026 08:00:00,16.486692,80.699436,NH3,4,6,5
India,Delhi,Delhi,"North Campus, DU, Delhi - IMD",17-03-2026 08:00:00,28.6573814,77.1585447,NO2,41,196,81
India,Delhi,Delhi,"Okhla Phase-2, Delhi - DPCC",17-03-2026 08:00:00,28.530785,77.271255,NO2,32,110,62
India,Andhra_Pradesh,Vijayawada,"Rajiv Gandhi Park, Vijayawada - APPCB",17-03-2026 08:00:00,16.509717,80.612222,OZONE,42,56,42
India,Andhra_Pradesh,Vijayawada,"Rajiv Nagar, Vijayawada - APPCB",17-03-2026 08:00:00,16.554731,80.649110,NO2,NA,NA,NA
India,Delhi,Delhi,"Shadipur, Delhi - CPCB",17-03-2026 08:00:00,28.6514781,77.1473105,NH3,10,16,11
India,Delhi,Delhi,"Shadipur, Delhi - CPCB",17-03-2026 08:00:00,28.6514781,77.1473105,SO2,11,17,16
India,Assam,Sivasagar,"Girls College, Sivasagar - PCBA",17-03-2026 08:00:00,26.987634,94.636574,CO,15,24,19
India,Delhi,Delhi,"Sirifort, Delhi - CPCB",17-03-2026 08:00:00,28.5504249,77.2159377,PM10,95,240,139
India,Bihar,Arrah,"New DM Office, Arrah - BSPCB",17-03-2026 08:00:00,25.5626095,84.663264,NH3,1,2,2
India,Bihar,Arrah,"New DM Office, Arrah - BSPCB",17-03-2026 08:00:00,25.5626095,84.663264,SO2,4,6,5
India,Bihar,Aurangabad,"Gurdeo Nagar, Aurangabad - BSPCB",17-03-2026 08:00:00,24.75746,84.366208,OZONE,8,83,14
India,Bihar,Begusarai,"Lohiyanagar, Begusarai - BSPCB",17-03-2026 08:00:00,25.42742023,86.13886079,SO2,21,26,24
India,Delhi,Delhi,"Vivek Vihar, Delhi - DPCC",17-03-2026 08:00:00,28.672342,77.315260,PM10,86,296,144
India,Gujarat,Bhavnagar,"Vidhyanagar, Bhavnagar - Nexteng Enviro",17-03-2026 08:00:00,21.755417,72.139056,CO,50,56,54
India,Gujarat,Bhavnagar,"Vidhyanagar, Bhavnagar - Nexteng Enviro",17-03-2026 08:00:00,21.755417,72.139056,OZONE,5,19,7
India,Gujarat,Gandhinagar,"GIFT City, Gandhinagar - IITM",17-03-2026 08:00:00,23.163798,72.677768,NO2,17,81,37
India,Gujarat,Gandhinagar,"GIFT City, Gandhinagar - IITM",17-03-2026 08:00:00,23.163798,72.677768,CO,38,76,57
India,Gujarat,Gandhinagar,"GIFT City, Gandhinagar - IITM",17-03-2026 08:00:00,23.163798,72.677768,OZONE,1,54,12
India,Gujarat,Gandhinagar,"IIPHG Lekawada, Gandhinagar - IITM",17-03-2026 08:00:00,23.243639,72.68994,PM2.5,31,85,58
India,Gujarat,Gandhinagar,"Sector-10, Gandhinagar - GPCB",17-03-2026 08:00:00,23.221714,72.654328,NH3,2,4,3
India,Gujarat,Gandhinagar,"Sector-10, Gandhinagar - GPCB",17-03-2026 08:00:00,23.221714,72.654328,SO2,8,112,27
India,Gujarat,Mehsana,"Sadanand Nagar, Mehsana - Nexteng Enviro",17-03-2026 08:00:00,23.593150,72.372792,PM10,21,117,63
India,Gujarat,Mehsana,"Sadanand Nagar, Mehsana - Nexteng Enviro",17-03-2026 08:00:00,23.593150,72.372792,CO,102,106,104
India,Assam,Guwahati,"Pan Bazaar, Guwahati - PCBA",17-03-2026 08:00:00,26.187500,91.744194,PM2.5,9,124,58
India,Assam,Guwahati,"Pan Bazaar, Guwahati - PCBA",17-03-2026 08:00:00,26.187500,91.744194,SO2,7,9,8
India,Assam,Guwahati,"Railway Colony, Guwahati - PCBA",17-03-2026 08:00:00,26.181742,91.78063,PM2.5,2,306,92
India,Assam,Nagaon,"Christianpatty, Nagaon - PCBA",17-03-2026 08:00:00,26.349082,92.68449,NO2,NA,NA,NA
India,Assam,Nagaon,"Christianpatty, Nagaon - PCBA",17-03-2026 08:00:00,26.349082,92.68449,NH3,NA,NA,NA
India,Assam,Nagaon,"Christianpatty, Nagaon - PCBA",17-03-2026 08:00:00,26.349082,92.68449,OZONE,15,30,20
India,Assam,Nalbari,"Bata Chowk, Nalbari - PCBA",17-03-2026 08:00:00,26.446912,91.439057,PM2.5,60,142,98
India,Assam,Silchar,"Tarapur, Silchar - PCBA",17-03-2026 08:00:00,24.82827,92.79525,NO2,19,24,22
India,Assam,Silchar,"Tarapur, Silchar - PCBA",17-03-2026 08:00:00,24.82827,92.79525,NH3,1,1,1
India,Bihar,Samastipur,"DM Office_Kasipur, Samastipur - BSPCB",17-03-2026 08:00:00,25.859655,85.77944,SO2,NA,NA,NA
India,Bihar,Sasaram,"Dada Peer, Sasaram - BSPCB",17-03-2026 08:00:00,24.952822,84.002396,NO2,2,3,2
India,Bihar,Sasaram,"Dada Peer, Sasaram - BSPCB",17-03-2026 08:00:00,24.952822,84.002396,SO2,2,6,4
India,Haryana,Gurugram,"Teri Gram, Gurugram - HSPCB",17-03-2026 08:00:00,28.4275,77.1465,NH3,11,20,15
India,Bihar,Sasaram,"Dada Peer, Sasaram - BSPCB",17-03-2026 08:00:00,24.952822,84.002396,CO,33,63,54
India,Haryana,Gurugram,"Teri Gram, Gurugram - HSPCB",17-03-2026 08:00:00,28.4275,77.1465,CO,18,28,22
India,Haryana,Gurugram,"Vikas Sadan, Gurugram - HSPCB",17-03-2026 08:00:00,28.4501238,77.0263051,PM2.5,58,356,179
India,Haryana,Gurugram,"Vikas Sadan, Gurugram - HSPCB",17-03-2026 08:00:00,28.4501238,77.0263051,PM10,47,212,113
India,Haryana,Gurugram,"Vikas Sadan, Gurugram - HSPCB",17-03-2026 08:00:00,28.4501238,77.0263051,CO,62,115,96
India,Bihar,Siwan,"Chitragupta Nagar, Siwan - BSPCB",17-03-2026 08:00:00,26.2271665,84.3570427,OZONE,12,13,13
India,Haryana,Gurugram,"Vikas Sadan, Gurugram - HSPCB",17-03-2026 08:00:00,28.4501238,77.0263051,OZONE,4,31,10
India,Haryana,Hisar,"Urban Estate-II, Hisar - HSPCB",17-03-2026 08:00:00,29.140560,75.744941,PM10,49,95,71
India,Chandigarh,Chandigarh,"Sector 22, Chandigarh - CPCC",17-03-2026 08:00:00,30.735567,76.775714,NO2,7,26,12
India,Chandigarh,Chandigarh,"Sector 22, Chandigarh - CPCC",17-03-2026 08:00:00,30.735567,76.775714,NH3,13,25,19
India,Chandigarh,Chandigarh,"Sector 22, Chandigarh - CPCC",17-03-2026 08:00:00,30.735567,76.775714,SO2,6,14,8
India,Haryana,Hisar,"Urban Estate-II, Hisar - HSPCB",17-03-2026 08:00:00,29.140560,75.744941,CO,28,53,28
India,Chandigarh,Chandigarh,"Sector-25, Chandigarh - CPCC",17-03-2026 08:00:00,30.751462,76.762879,PM10,29,66,48
India,Chandigarh,Chandigarh,"Sector-25, Chandigarh - CPCC",17-03-2026 08:00:00,30.751462,76.762879,NH3,4,10,8
India,Chandigarh,Chandigarh,"Sector-53, Chandigarh - CPCC",17-03-2026 08:00:00,30.719859,76.738637,PM2.5,12,60,27
India,Chandigarh,Chandigarh,"Sector-53, Chandigarh - CPCC",17-03-2026 08:00:00,30.719859,76.738637,PM10,16,58,33
India,Haryana,Kaithal,"Rishi Nagar, Kaithal - HSPCB",17-03-2026 08:00:00,29.8006,76.4155,PM10,26,57,39
India,Chhattisgarh,Chhal,"Nawapara SECL Colony, Chhal - CECB",17-03-2026 08:00:00,22.118125,83.140608,NO2,9,27,15
India,Chhattisgarh,Korba,"Rampur, Korba - CECB",17-03-2026 08:00:00,22.368195,82.746431,PM2.5,52,77,68
India,Chhattisgarh,Korba,"Rampur, Korba - CECB",17-03-2026 08:00:00,22.368195,82.746431,NO2,12,26,20
India,Haryana,Panchgaon,"Amity University, Panchgaon - IITM",17-03-2026 08:00:00,28.3153,76.9143,PM10,16,128,54
India,Haryana,Panchgaon,"Amity University, Panchgaon - IITM",17-03-2026 08:00:00,28.3153,76.9143,CO,24,37,27
India,Haryana,Panchgaon,"Amity University, Panchgaon - IITM",17-03-2026 08:00:00,28.3153,76.9143,OZONE,1,87,15
India,Chhattisgarh,Korba,"Urja Nagar, Korba - CECB",17-03-2026 08:00:00,22.348441,82.549611,NO2,26,32,28
India,Chhattisgarh,Kunjemura,"OP Jindal School, Kunjemura - CECB",17-03-2026 08:00:00,22.126650,83.483212,NH3,2,2,2
India,Chhattisgarh,Kunjemura,"OP Jindal School, Kunjemura - CECB",17-03-2026 08:00:00,22.126650,83.483212,SO2,17,44,25
India,Chhattisgarh,Milupara,"Govt. Higher Secondary School, Milupara - CECB",17-03-2026 08:00:00,22.1910172,83.5197009,SO2,NA,NA,NA
India,Haryana,Rohtak,"MD University, Rohtak - HSPCB",17-03-2026 08:00:00,28.52123,76.37138,CO,30,40,35
India,Haryana,Rohtak,"MD University, Rohtak - HSPCB",17-03-2026 08:00:00,28.52123,76.37138,OZONE,39,40,39
India,Chhattisgarh,Raipur,"AIIMS, Raipur - CECB",17-03-2026 08:00:00,21.258815,81.578979,PM10,34,76,55
India,Haryana,Sirsa,"F-Block, Sirsa - HSPCB",17-03-2026 08:00:00,29.536400,75.015800,NH3,13,14,14
India,Chhattisgarh,Raipur,"AIIMS, Raipur - CECB",17-03-2026 08:00:00,21.258815,81.578979,SO2,3,6,4
India,Haryana,Sirsa,"F-Block, Sirsa - HSPCB",17-03-2026 08:00:00,29.536400,75.015800,CO,21,72,58
India,Karnataka,Bagalkot,"Vidayagiri, Bagalkot - KSPCB",17-03-2026 08:00:00,16.172806,75.659694,OZONE,6,12,11
India,Delhi,Delhi,"Anand Vihar, Delhi - DPCC",17-03-2026 08:00:00,28.647622,77.3158090,CO,NA,NA,NA
India,Delhi,Delhi,"Ashok Vihar, Delhi - DPCC",17-03-2026 08:00:00,28.695381,77.181665,CO,23,92,31
India,Delhi,Delhi,"Aya Nagar, Delhi - IMD",17-03-2026 08:00:00,28.4706914,77.1099364,PM2.5,31,132,64
India,Delhi,Delhi,"Aya Nagar, Delhi - IMD",17-03-2026 08:00:00,28.4706914,77.1099364,PM2.5,31,132,64
India,Delhi,Delhi,"Aya Nagar, Delhi - IMD",17-03-2026 08:00:00,28.4706914,77.1099364,NO2,10,81,27
India,Karnataka,Bengaluru,"Hebbal, Bengaluru - KSPCB",17-03-2026 08:00:00,13.029152,77.585901,NH3,3,4,3
India,Karnataka,Bengaluru,"Hebbal, Bengaluru - KSPCB",17-03-2026 08:00:00,13.029152,77.585901,CO,2,44,22
India,Delhi,Delhi,"Burari Crossing, Delhi - IMD",17-03-2026 08:00:00,28.7256504,77.2011573,PM10,57,217,112
India,Karnataka,Bengaluru,"Hombegowda Nagar, Bengaluru - KSPCB",17-03-2026 08:00:00,12.938539,77.590100,NH3,3,11,5
India,Delhi,Delhi,"CRRI Mathura Road, Delhi - IMD",17-03-2026 08:00:00,28.5512005,77.2735737,OZONE,9,74,18
India,Delhi,Delhi,"Cantonment Area, Delhi - DPCC ",17-03-2026 08:00:00,28.594169 ,77.125100 ,NH3,1,3,2
India,Chhattisgarh,Raipur,"AIIMS, Raipur - CECB",17-03-2026 08:00:00,21.258815,81.578979,OZONE,5,7,5
India,Chhattisgarh,Raipur,"Bhatagaon New ISBT, Raipur - CECB",17-03-2026 08:00:00,21.219665,81.630094,PM10,12,97,46
India,Himachal Pradesh,Baddi,"HIMUDA Complex Phase-1, Baddi - HPPCB",17-03-2026 08:00:00,30.943887,76.801991,OZONE,1,92,84
India,Chhattisgarh,Raipur,"Siltara Phase-II, Raipur - CECB",17-03-2026 08:00:00,21.371751,81.664929,NH3,2,2,2
India,Jammu_and_Kashmir,Srinagar,"Rajbagh, Srinagar - JKPCC",17-03-2026 08:00:00,34.066206,74.819820,PM2.5,14,26,17
India,Jammu_and_Kashmir,Srinagar,"Rajbagh, Srinagar - JKPCC",17-03-2026 08:00:00,34.066206,74.819820,OZONE,NA,NA,NA
India,Jharkhand,Dhanbad,"Sardar Patel Nagar, Dhanbad - JSPCB",17-03-2026 08:00:00,23.80569,86.44268,PM10,59,156,94
India,Delhi,Delhi,"Alipur, Delhi - DPCC",17-03-2026 08:00:00,28.815329,77.153010,NH3,12,15,13
India,Delhi,Delhi,"Alipur, Delhi - DPCC",17-03-2026 08:00:00,28.815329,77.153010,SO2,6,22,14
India,Karnataka,Bagalkot,"Vidayagiri, Bagalkot - KSPCB",17-03-2026 08:00:00,16.172806,75.659694,PM10,NA,NA,NA
India,Karnataka,Bagalkot,"Vidayagiri, Bagalkot - KSPCB",17-03-2026 08:00:00,16.172806,75.659694,SO2,NA,NA,NA
India,Haryana,Kaithal,"Rishi Nagar, Kaithal - HSPCB",17-03-2026 08:00:00,29.8006,76.4155,OZONE,4,18,6
India,Haryana,Karnal,"Sector-12, Karnal - HSPCB",17-03-2026 08:00:00,29.695300,77.002700,NO2,6,6,6
India,Chhattisgarh,Bhilai,"Civic Center, Bhilai - Bhilai Steel Plant",17-03-2026 08:00:00,21.185571,81.343175,PM10,25,45,32
India,Chhattisgarh,Bhilai,"Civic Center, Bhilai - Bhilai Steel Plant",17-03-2026 08:00:00,21.185571,81.343175,CO,27,34,33
India,Haryana,Kurukshetra,"Sector-7, Kurukshetra - HSPCB",17-03-2026 08:00:00,29.966942,76.875879,OZONE,2,52,8
India,Chhattisgarh,Bhilai,"Hathkhoj, Bhilai - CECB",17-03-2026 08:00:00,21.224231,81.408350,NH3,4,6,5
India,Chhattisgarh,Bhilai,"Hathkhoj, Bhilai - CECB",17-03-2026 08:00:00,21.224231,81.408350,SO2,10,57,20
India,Haryana,Manesar,"Sector-2 IMT, Manesar - HSPCB",17-03-2026 08:00:00,28.360699,76.936090,PM2.5,67,206,106
India,Chhattisgarh,Bilaspur,"Mangala, Bilaspur - NTPC",17-03-2026 08:00:00,22.08815,82.13737,NO2,23,33,26
India,Haryana,Manesar,"Sector-2 IMT, Manesar - HSPCB",17-03-2026 08:00:00,28.360699,76.936090,NO2,34,40,37
India,Haryana,Manesar,"Sector-2 IMT, Manesar - HSPCB",17-03-2026 08:00:00,28.360699,76.936090,SO2,1,13,7
India,Haryana,Faridabad,"New Industrial Town, Faridabad - HSPCB",17-03-2026 08:00:00,28.39072,77.30059,NH3,11,12,11
India,Bihar,Purnia,"Mariam Nagar, Purnia - BSPCB",17-03-2026 08:00:00,25.366336,87.117468,OZONE,19,30,24
India,Haryana,Faridabad,"Sector 11, Faridabad - HSPCB",17-03-2026 08:00:00,28.376058,77.315741,PM10,106,252,138
India,Haryana,Faridabad,"Sector 11, Faridabad - HSPCB",17-03-2026 08:00:00,28.376058,77.315741,NO2,30,33,31
India,Bihar,Rajgir,"Dangi Tola, Rajgir - BSPCB",17-03-2026 08:00:00,25.03280,85.41948,NO2,13,15,14
India,Haryana,Faridabad,"Sector 11, Faridabad - HSPCB",17-03-2026 08:00:00,28.376058,77.315741,OZONE,14,16,15
India,Haryana,Faridabad,"Sector 30, Faridabad - HSPCB",17-03-2026 08:00:00,28.4417,77.3217,PM2.5,118,142,125
India,Bihar,Saharsa,"Police Line, Saharsa - BSPCB",17-03-2026 08:00:00,25.892357,86.590325,PM2.5,15,303,88
India,Haryana,Faridabad,"Sector 30, Faridabad - HSPCB",17-03-2026 08:00:00,28.4417,77.3217,SO2,4,5,4
India,Haryana,Gurugram,"NISE Gwal Pahari, Gurugram - IMD",17-03-2026 08:00:00,28.422681,77.148944,NO2,9,41,22
India,Bihar,Patna,"Govt. High School Shikarpur, Patna - BSPCB",17-03-2026 08:00:00,25.592539,85.227158,OZONE,22,92,26
India,Bihar,Patna,"IGSC Planetarium Complex, Patna - BSPCB",17-03-2026 08:00:00,25.610369,85.132568,PM2.5,40,147,87
India,Bihar,Patna,"IGSC Planetarium Complex, Patna - BSPCB",17-03-2026 08:00:00,25.610369,85.132568,SO2,1,32,17
India,Haryana,Bhiwani,"H.B. Colony, Bhiwani - HSPCB",17-03-2026 08:00:00,28.806223,76.141105,NH3,3,14,8
India,Haryana,Bhiwani,"H.B. Colony, Bhiwani - HSPCB",17-03-2026 08:00:00,28.806223,76.141105,OZONE,1,64,4
India,Haryana,Charkhi Dadri,"Mini Secretariat, Charkhi Dadri - HSPCB",17-03-2026 08:00:00,28.593883,76.270653,PM10,85,106,97
India,Bihar,Patna,"Samanpura, Patna - BSPCB",17-03-2026 08:00:00,25.596727,85.085624,NH3,12,22,15
India,Haryana,Dharuhera,"Municipal Corporation Office, Dharuhera -  HSPCB",17-03-2026 08:00:00,28.206800,76.799700,CO,10,22,17
India,Bihar,Purnia,"Mariam Nagar, Purnia - BSPCB",17-03-2026 08:00:00,25.366336,87.117468,PM2.5,57,85,70
India,Bihar,Purnia,"Mariam Nagar, Purnia - BSPCB",17-03-2026 08:00:00,25.366336,87.117468,NH3,3,3,3
India,Bihar,Patna,"DRM Office Danapur, Patna - BSPCB",17-03-2026 08:00:00,25.586562,85.043586,SO2,3,8,6
India,Haryana,Ambala,"Patti Mehar, Ambala - HSPCB",17-03-2026 08:00:00,30.379589,76.778328,SO2,15,32,22
India,Bihar,Patna,"Govt. High School Shikarpur, Patna - BSPCB",17-03-2026 08:00:00,25.592539,85.227158,PM10,104,148,129
India,Delhi,Delhi,"Punjabi Bagh, Delhi - DPCC",17-03-2026 08:00:00,28.674045,77.131023,NH3,3,6,5
India,Delhi,Delhi,"Punjabi Bagh, Delhi - DPCC",17-03-2026 08:00:00,28.674045,77.131023,OZONE,7,82,19
India,Delhi,Delhi,"Pusa, Delhi - DPCC",17-03-2026 08:00:00,28.639652,77.146275,PM10,48,376,127
India,Kerala,Kannur,"Thavakkara, Kannur - Kerala PCB",17-03-2026 08:00:00,11.875000,75.373200,NO2,NA,NA,NA
India,Delhi,Delhi,"Pusa, Delhi - DPCC",17-03-2026 08:00:00,28.639652,77.146275,NO2,30,109,59
India,Delhi,Delhi,"Pusa, Delhi - DPCC",17-03-2026 08:00:00,28.639652,77.146275,SO2,12,46,19
India,Delhi,Delhi,"Pusa, Delhi - IMD",17-03-2026 08:00:00,28.636110,77.173332,CO,73,103,80
India,Delhi,Delhi,"R K Puram, Delhi - DPCC",17-03-2026 08:00:00,28.563262,77.186937,NO2,20,114,53
India,Kerala,Thiruvananthapuram,"Kariavattom, Thiruvananthapuram - Kerala PCB",17-03-2026 08:00:00,8.563700,76.886500,NO2,6,7,6
India,Delhi,Delhi,"Rohini, Delhi - DPCC",17-03-2026 08:00:00,28.732528,77.119920,PM10,79,401,162
India,Delhi,Delhi,"Rohini, Delhi - DPCC",17-03-2026 08:00:00,28.732528,77.119920,NO2,23,65,36
India,Kerala,Thiruvananthapuram,"Plammoodu, Thiruvananthapuram - Kerala PCB",17-03-2026 08:00:00,8.5149093,76.9435879,NO2,NA,NA,NA
India,Kerala,Thiruvananthapuram,"Plammoodu, Thiruvananthapuram - Kerala PCB",17-03-2026 08:00:00,8.5149093,76.9435879,OZONE,9,39,28
India,Delhi,Delhi,"Shadipur, Delhi - CPCB",17-03-2026 08:00:00,28.6514781,77.1473105,NO2,28,59,45
India,Kerala,Thrissur,"Corporation Ground, Thrissur - Kerala PCB",17-03-2026 08:00:00,10.532400,76.215900,SO2,1,1,1
India,Kerala,Thrissur,"Corporation Ground, Thrissur - Kerala PCB",17-03-2026 08:00:00,10.532400,76.215900,CO,9,24,11
India,Delhi,Delhi,"Shadipur, Delhi - CPCB",17-03-2026 08:00:00,28.6514781,77.1473105,SO2,11,17,16
India,Kerala,Thrissur,"Corporation Ground, Thrissur - Kerala PCB",17-03-2026 08:00:00,10.532400,76.215900,OZONE,30,31,31
India,Delhi,Delhi,"Shadipur, Delhi - CPCB",17-03-2026 08:00:00,28.6514781,77.1473105,CO,2,106,72
India,Madhya Pradesh,Bhopal,"Idgah Hills, Bhopal - MPPCB",17-03-2026 08:00:00,23.264759,77.381568,PM2.5,13,92,50
India,Delhi,Delhi,"Sirifort, Delhi - CPCB",17-03-2026 08:00:00,28.5504249,77.2159377,OZONE,7,42,8
India,Madhya Pradesh,Bhopal,"Paryavaran Parisar, Bhopal - MPPCB",17-03-2026 08:00:00,23.210494,77.425409,PM10,66,139,94
India,Delhi,Delhi,"Sonia Vihar, Delhi - DPCC",17-03-2026 08:00:00,28.710508,77.249485,PM10,88,320,142
India,Delhi,Delhi,"Sonia Vihar, Delhi - DPCC",17-03-2026 08:00:00,28.710508,77.249485,SO2,30,65,40
India,Madhya Pradesh,Bhopal,"T T Nagar, Bhopal - MPPCB",17-03-2026 08:00:00,23.233584,77.400574,NO2,16,39,24
India,Delhi,Delhi,"Sri Aurobindo Marg, Delhi - DPCC",17-03-2026 08:00:00,28.531346,77.190156,NO2,20,79,35
India,Delhi,Delhi,"Sri Aurobindo Marg, Delhi - DPCC",17-03-2026 08:00:00,28.531346,77.190156,NH3,5,7,6
India,Madhya Pradesh,Bhopal,"T T Nagar, Bhopal - MPPCB",17-03-2026 08:00:00,23.233584,77.400574,CO,26,52,29
India,Delhi,Delhi,"Sri Aurobindo Marg, Delhi - DPCC",17-03-2026 08:00:00,28.531346,77.190156,CO,18,76,21
India,Madhya Pradesh,Damoh,"Shrivastav Colony, Damoh - MPPCB",17-03-2026 08:00:00,23.81748678,79.446246,PM2.5,17,76,45
India,Delhi,Delhi,"Talkatora Garden, Delhi - DPCC",17-03-2026 08:00:00,28.621810,77.1944633,PM10,61,164,107
India,Madhya Pradesh,Dewas,"Bhopal Chauraha, Dewas - MPPCB",17-03-2026 08:00:00,22.9682591,76.064118,PM2.5,35,140,61
India,Madhya Pradesh,Gwalior,"City Center, Gwalior - MPPCB",17-03-2026 08:00:00,26.203442,78.193251,PM2.5,22,205,75
India,Madhya Pradesh,Gwalior,"City Center, Gwalior - MPPCB",17-03-2026 08:00:00,26.203442,78.193251,CO,30,124,52
India,Delhi,Delhi,"JNU, Delhi - DPCC",17-03-2026 08:00:00,28.540721 ,77.168544 ,SO2,17,20,18
India,Karnataka,Bengaluru,"Silk Board, Bengaluru - KSPCB",17-03-2026 08:00:00,12.917348,77.622813,CO,8,60,12
India,Karnataka,Chamarajanagar,"Urban, Chamarajanagar - KSPCB",17-03-2026 08:00:00,11.55358,76.55521,PM2.5,23,49,30
India,Karnataka,Chamarajanagar,"Urban, Chamarajanagar - KSPCB",17-03-2026 08:00:00,11.55358,76.55521,NO2,14,35,23
India,Delhi,Delhi,"Jahangirpuri, Delhi - DPCC",17-03-2026 08:00:00,28.732820,77.170633,SO2,42,57,47
India,Delhi,Delhi,"Jawaharlal Nehru Stadium, Delhi - DPCC",17-03-2026 08:00:00,28.580280,77.233829,PM10,79,205,126
India,Karnataka,Chikkaballapur,"Chikkaballapur Rural, Chikkaballapur - KSPCB",17-03-2026 08:00:00,13.428828,77.731418,NO2,4,33,13
India,Karnataka,Chikkaballapur,"Chikkaballapur Rural, Chikkaballapur - KSPCB",17-03-2026 08:00:00,13.428828,77.731418,SO2,3,32,10
India,Karnataka,Chikkaballapur,"Chikkaballapur Rural, Chikkaballapur - KSPCB",17-03-2026 08:00:00,13.428828,77.731418,OZONE,13,18,16
India,Delhi,Delhi,"Lodhi Road, Delhi - IMD",17-03-2026 08:00:00,28.5918245,77.2273074,PM2.5,49,158,74
India,Karnataka,Chikkamagaluru,"Kalyana Nagara, Chikkamagaluru - KSPCB",17-03-2026 08:00:00,13.328028,75.797056,PM2.5,38,56,43
India,Karnataka,Dharwad,"Kalabhavan, Dharwad - KSPCB",17-03-2026 08:00:00,15.459706,75.008381,PM2.5,56,89,70
India,Karnataka,Dharwad,"Kalabhavan, Dharwad - KSPCB",17-03-2026 08:00:00,15.459706,75.008381,OZONE,40,41,40
India,Karnataka,Mysuru,"Hebbal 1st Stage, Mysuru - KSPCB",17-03-2026 08:00:00,12.21041,76.37376,PM10,40,85,60
India,Delhi,Delhi,"Nehru Nagar, Delhi - DPCC",17-03-2026 08:00:00,28.567890,77.250515,NO2,31,95,51
India,Delhi,Delhi,"Nehru Nagar, Delhi - DPCC",17-03-2026 08:00:00,28.567890,77.250515,NH3,20,25,23
India,Karnataka,Ramanagara,"Vijay Nagar, Ramanagara - KSPCB",17-03-2026 08:00:00,12.733409,77.298051,PM2.5,15,148,62
India,Karnataka,Ramanagara,"Vijay Nagar, Ramanagara - KSPCB",17-03-2026 08:00:00,12.733409,77.298051,PM10,14,106,62
India,Karnataka,Ramanagara,"Vijay Nagar, Ramanagara - KSPCB",17-03-2026 08:00:00,12.733409,77.298051,NO2,11,50,18
India,Karnataka,Ramanagara,"Vijay Nagar, Ramanagara - KSPCB",17-03-2026 08:00:00,12.733409,77.298051,OZONE,27,86,46
India,Karnataka,Shivamogga,"Vinoba Nagara, Shivamogga - KSPCB",17-03-2026 08:00:00,13.940000,75.555917,CO,16,40,25
India,Karnataka,Vijayapura,"Ibrahimpur, Vijayapura - KSPCB",17-03-2026 08:00:00,16.802639,75.722694,CO,10,57,20
India,Delhi,Delhi,"Patparganj, Delhi - DPCC",17-03-2026 08:00:00,28.623763,77.287209,NO2,20,119,48
India,Karnataka,Yadgir,"Collector Office, Yadgir - KSPCB",17-03-2026 08:00:00,16.7602,77.1428,NO2,7,28,14
India,Karnataka,Yadgir,"Collector Office, Yadgir - KSPCB",17-03-2026 08:00:00,16.7602,77.1428,SO2,6,19,12
India,Karnataka,Yadgir,"Collector Office, Yadgir - KSPCB",17-03-2026 08:00:00,16.7602,77.1428,OZONE,15,20,16
India,Delhi,Delhi,"Dwarka-Sector 8, Delhi - DPCC ",17-03-2026 08:00:00,28.5710274,77.0719006,SO2,24,30,27
India,Delhi,Delhi,"Dwarka-Sector 8, Delhi - DPCC ",17-03-2026 08:00:00,28.5710274,77.0719006,OZONE,6,116,38
India,Delhi,Delhi,"IGI Airport (T3), Delhi - IMD",17-03-2026 08:00:00,28.5627763,77.1180053,PM2.5,15,171,68
India,Karnataka,Bengaluru,"Peenya, Bengaluru - CPCB",17-03-2026 08:00:00,13.0270199,77.494094,NO2,20,33,26
India,Delhi,Delhi,"IGNOU_Maidan Garhi, Delhi - DPCC",17-03-2026 08:00:00,28.493624 ,77.201159 ,NO2,1,1,1
India,Karnataka,Bengaluru,"Peenya, Bengaluru - CPCB",17-03-2026 08:00:00,13.0270199,77.494094,OZONE,24,25,25
India,Karnataka,Bengaluru,"Sanegurava Halli, Bengaluru - KSPCB",17-03-2026 08:00:00,12.990328,77.5431385,NO2,17,18,18
India,Delhi,Delhi,"IIT Delhi, Delhi - IITM",17-03-2026 08:00:00,28.542460,77.191651,CO,28,101,40
India,Delhi,Delhi,"ITO, Delhi - CPCB",17-03-2026 08:00:00,28.628624,77.241060,PM2.5,49,144,67
India,Karnataka,Bengaluru,"Silk Board, Bengaluru - KSPCB",17-03-2026 08:00:00,12.917348,77.622813,NO2,NA,NA,NA
India,Karnataka,Hubballi,"Lingaraj Nagar, Hubballi - KSPCB",17-03-2026 08:00:00,15.3714823,75.1160168,PM2.5,44,48,46
India,Delhi,Delhi,"Mandir Marg, Delhi - DPCC",17-03-2026 08:00:00,28.636429,77.201067,OZONE,12,116,48
India,Karnataka,Hubballi,"Lingaraj Nagar, Hubballi - KSPCB",17-03-2026 08:00:00,15.3714823,75.1160168,CO,18,30,20
India,Karnataka,Kalaburagi,"Lal Bahadur Shastri Nagar, Kalaburagi - KSPCB",17-03-2026 08:00:00,17.321993,76.822628,PM10,NA,NA,NA
India,Karnataka,Kalaburagi,"Lal Bahadur Shastri Nagar, Kalaburagi - KSPCB",17-03-2026 08:00:00,17.321993,76.822628,NH3,NA,NA,NA
India,Delhi,Delhi,"NSUT Jaffarpur, Delhi - DPCC",17-03-2026 08:00:00,28.594004 ,76.909423 ,SO2,78,91,81
India,Delhi,Delhi,"Najafgarh, Delhi - DPCC",17-03-2026 08:00:00,28.570173,76.933762,PM2.5,NA,NA,NA
India,Karnataka,Madikeri,"Stuart Hill, Madikeri - KSPCB",17-03-2026 08:00:00,12.415911,75.735050,OZONE,2,5,3
India,Karnataka,Mangalore,"Kadri, Mangalore - KSPCB",17-03-2026 08:00:00,12.889250,74.853000,PM10,NA,NA,NA
India,Delhi,Delhi,"Wazirpur, Delhi - DPCC",17-03-2026 08:00:00,28.699793,77.165453,OZONE,1,92,14
India,Gujarat,Ahmedabad,"Maninagar, Ahmedabad - GPCB",17-03-2026 08:00:00,23.002657,72.591912,PM10,90,122,107
India,Gujarat,Ahmedabad,"Raikhad, Ahmedabad - IITM",17-03-2026 08:00:00,23.020509,72.579261,SO2,13,132,47
India,Gujarat,Ahmedabad,"Rakhial, Ahmedabad - IITM",17-03-2026 08:00:00,23.016834,72.625775,NO2,39,127,79
India,Gujarat,Ahmedabad,"Rakhial, Ahmedabad - IITM",17-03-2026 08:00:00,23.016834,72.625775,SO2,11,138,48
India,Madhya Pradesh,Indore,"Residency Area, Indore - IMC",17-03-2026 08:00:00,22.7084,75.8815,PM2.5,41,125,69
India,Gujarat,Ahmedabad,"Rakhial, Ahmedabad - IITM",17-03-2026 08:00:00,23.016834,72.625775,OZONE,2,62,6
India,Madhya Pradesh,Gwalior,"Maharaj Bada, Gwalior - MPPCB",17-03-2026 08:00:00,26.200388,78.147714,SO2,13,25,17
India,Madhya Pradesh,Indore,"Airport Area, Indore - IMC",17-03-2026 08:00:00,22.7289,75.8076,OZONE,8,20,10
India,Madhya Pradesh,Indore,"Maguda Nagar, Indore - IMC",17-03-2026 08:00:00,22.7524,75.8872,PM2.5,43,88,65
India,Delhi,Delhi,"Wazirpur, Delhi - DPCC",17-03-2026 08:00:00,28.699793,77.165453,NO2,51,114,74
India,Delhi,Delhi,"Commonwealth Sports Complex, Delhi - DPCC",17-03-2026 08:00:00,28.615828 ,77.271992 ,PM10,91,233,126
India,Delhi,Delhi,"DTU, Delhi - CPCB",17-03-2026 08:00:00,28.7500499,77.1112615,NO2,35,71,48
India,Delhi,Delhi,"DTU, Delhi - CPCB",17-03-2026 08:00:00,28.7500499,77.1112615,CO,10,25,13
India,Haryana,Sonipat,"Murthal, Sonipat - HSPCB",17-03-2026 08:00:00,29.027200,77.062100,SO2,3,16,8
India,Maharashtra,Malegaon,"Mahesh Nagar, Malegaon - MPCB",17-03-2026 08:00:00,20.555712,74.529236,CO,14,52,20
India,Haryana,Yamuna Nagar,"Gobind Pura, Yamuna Nagar - HSPCB",17-03-2026 08:00:00,30.1480566,77.2893471,PM2.5,8,95,68
India,Maharashtra,Mira-Bhayandar,"Bhayandar West, Mira-Bhayandar - MPCB",17-03-2026 08:00:00,19.296481,72.840923,PM2.5,16,75,38
India,Maharashtra,Mira-Bhayandar,"Bhayandar West, Mira-Bhayandar - MPCB",17-03-2026 08:00:00,19.296481,72.840923,SO2,6,12,9
India,Maharashtra,Mira-Bhayandar,"Bhayandar West, Mira-Bhayandar - MPCB",17-03-2026 08:00:00,19.296481,72.840923,CO,14,55,32
India,Haryana,Yamuna Nagar,"Gobind Pura, Yamuna Nagar - HSPCB",17-03-2026 08:00:00,30.1480566,77.2893471,OZONE,8,33,9
India,Maharashtra,Mumbai,"Bandra Kurla Complex, Mumbai - IITM",17-03-2026 08:00:00,19.053536,72.84643,PM2.5,12,36,24
India,Himachal Pradesh,Baddi,"HIMUDA Complex Phase-1, Baddi - HPPCB",17-03-2026 08:00:00,30.943887,76.801991,NO2,NA,NA,NA
India,Maharashtra,Mumbai,"Bandra Kurla Complex, Mumbai - IITM",17-03-2026 08:00:00,19.053536,72.84643,NO2,21,41,29
India,Himachal Pradesh,Baddi,"HIMUDA Complex Phase-1, Baddi - HPPCB",17-03-2026 08:00:00,30.943887,76.801991,NH3,NA,NA,NA
India,Himachal Pradesh,Baddi,"HIMUDA Complex Phase-1, Baddi - HPPCB",17-03-2026 08:00:00,30.943887,76.801991,CO,36,68,43
India,Himachal Pradesh,Baddi,"HIMUDA Complex Phase-1, Baddi - HPPCB",17-03-2026 08:00:00,30.943887,76.801991,OZONE,1,92,84
India,Jammu_and_Kashmir,Pampore,"Khrew, Pampore - JKPCC",17-03-2026 08:00:00,34.031606,75.009712,PM2.5,5,69,30
India,Maharashtra,Mumbai,"Bandra Kurla Complex, Mumbai - MPCB",17-03-2026 08:00:00,19.065931,72.862131,OZONE,2,36,7
India,Maharashtra,Mumbai,"Borivali East, Mumbai - IITM",17-03-2026 08:00:00,19.23241,72.86895,CO,28,77,52
India,Jharkhand,Dhanbad,"Sardar Patel Nagar, Dhanbad - JSPCB",17-03-2026 08:00:00,23.80569,86.44268,CO,1,8,2
India,Jharkhand,Dhanbad,"Sardar Patel Nagar, Dhanbad - JSPCB",17-03-2026 08:00:00,23.80569,86.44268,OZONE,3,84,6
India,Maharashtra,Mumbai,"Borivali East, Mumbai - MPCB",17-03-2026 08:00:00,19.2243333,72.8658113,PM10,20,47,34
India,Karnataka,Bagalkot,"Vidayagiri, Bagalkot - KSPCB",17-03-2026 08:00:00,16.172806,75.659694,SO2,NA,NA,NA
India,Maharashtra,Dhule,"Deopur, Dhule - MPCB",17-03-2026 08:00:00,20.918946,74.776388,NH3,1,2,1
India,Haryana,Karnal,"Sector-12, Karnal - HSPCB",17-03-2026 08:00:00,29.695300,77.002700,SO2,2,8,5
India,Maharashtra,Dombivli,"Kalu Nagar, Dombivli - MPCB",17-03-2026 08:00:00,19.2268427 ,73.0788456 ,NO2,14,47,32
India,Haryana,Kurukshetra,"Sector-7, Kurukshetra - HSPCB",17-03-2026 08:00:00,29.966942,76.875879,SO2,4,19,12
India,Maharashtra,Hingoli,"Ashta Vinayak Nagar, Hingoli - MPCB",17-03-2026 08:00:00,19.710842,77.151824,NO2,12,94,29
India,Maharashtra,Hingoli,"Ashta Vinayak Nagar, Hingoli - MPCB",17-03-2026 08:00:00,19.710842,77.151824,NH3,2,5,4
India,Maharashtra,Hingoli,"Ashta Vinayak Nagar, Hingoli - MPCB",17-03-2026 08:00:00,19.710842,77.151824,SO2,2,27,9
India,Maharashtra,Hingoli,"Ashta Vinayak Nagar, Hingoli - MPCB",17-03-2026 08:00:00,19.710842,77.151824,OZONE,45,185,89
India,Haryana,Mandikhera,"General Hospital, Mandikhera(Nuh) - HSPCB",17-03-2026 08:00:00,27.9002,76.9938,OZONE,23,30,27
India,Maharashtra,Jalgaon,"Prabhat Colony, Jalgaon - MPCB",17-03-2026 08:00:00,21.001264,75.565602,NO2,3,23,6
India,Haryana,Manesar,"Sector-2 IMT, Manesar - HSPCB",17-03-2026 08:00:00,28.360699,76.936090,NO2,34,40,37
India,Haryana,Narnaul,"Shastri Nagar, Narnaul - HSPCB",17-03-2026 08:00:00,28.060249,76.113115,PM10,76,112,93
India,Maharashtra,Jalna,"Old MIDC, Jalna - MPCB",17-03-2026 08:00:00,19.854616,75.905894,SO2,NA,NA,NA
India,Haryana,Narnaul,"Shastri Nagar, Narnaul - HSPCB",17-03-2026 08:00:00,28.060249,76.113115,SO2,6,7,7
India,Maharashtra,Kalyan,"Khadakpada, Kalyan - MPCB",17-03-2026 08:00:00,19.25292,73.142019,PM2.5,28,64,44
India,Maharashtra,Kalyan,"Khadakpada, Kalyan - MPCB",17-03-2026 08:00:00,19.25292,73.142019,PM10,29,67,46
India,Haryana,Palwal,"Shyam Nagar, Palwal - HSPCB",17-03-2026 08:00:00,28.1485564,77.3320667,NO2,23,24,24
India,Maharashtra,Kalyan,"Khadakpada, Kalyan - MPCB",17-03-2026 08:00:00,19.25292,73.142019,OZONE,8,8,8
India,Haryana,Palwal,"Shyam Nagar, Palwal - HSPCB",17-03-2026 08:00:00,28.1485564,77.3320667,CO,14,110,54
India,Maharashtra,Kalyan,"Pimpleshwar Mandir, Kalyan - MPCB",17-03-2026 08:00:00,19.192056,72.9585188,PM10,72,140,115
India,Haryana,Panchgaon,"Amity University, Panchgaon - IITM",17-03-2026 08:00:00,28.3153,76.9143,PM2.5,14,202,59
India,Maharashtra,Kalyan,"Pimpleshwar Mandir, Kalyan - MPCB",17-03-2026 08:00:00,19.192056,72.9585188,SO2,8,16,11
India,Haryana,Panchgaon,"Amity University, Panchgaon - IITM",17-03-2026 08:00:00,28.3153,76.9143,OZONE,1,87,15
India,Haryana,Panipat,"Sector-18, Panipat - HSPCB",17-03-2026 08:00:00,29.432304,76.972765,NH3,2,3,2
India,Maharashtra,Kolhapur,"Sinchan Bhavan, Kolhapur - MPCB",17-03-2026 08:00:00,16.7143745,74.2426398,CO,6,34,9
India,Haryana,Panipat,"Sector-18, Panipat - HSPCB",17-03-2026 08:00:00,29.432304,76.972765,OZONE,30,30,30
India,Haryana,Rohtak,"MD University, Rohtak - HSPCB",17-03-2026 08:00:00,28.52123,76.37138,PM2.5,35,101,68
India,Haryana,Rohtak,"MD University, Rohtak - HSPCB",17-03-2026 08:00:00,28.52123,76.37138,SO2,10,13,12
India,Maharashtra,Latur,"Sawe Wadi, Latur - MPCB",17-03-2026 08:00:00,18.39963,76.57452,SO2,2,13,6
India,Maharashtra,Latur,"Sawe Wadi, Latur - MPCB",17-03-2026 08:00:00,18.39963,76.57452,CO,6,102,22
India,Maharashtra,Latur,"Sawe Wadi, Latur - MPCB",17-03-2026 08:00:00,18.39963,76.57452,OZONE,9,53,27
India,Haryana,Sirsa,"F-Block, Sirsa - HSPCB",17-03-2026 08:00:00,29.536400,75.015800,PM2.5,29,54,39
India,Maharashtra,Mahad,"Kamble Tarf Birwadi, Mahad - MPCB",17-03-2026 08:00:00,18.1023399,73.4783687,NH3,3,8,6
India,Haryana,Sonipat,"Murthal, Sonipat - HSPCB",17-03-2026 08:00:00,29.027200,77.062100,PM2.5,55,265,136
India,Maharashtra,Malegaon,"Mahesh Nagar, Malegaon - MPCB",17-03-2026 08:00:00,20.555712,74.529236,PM10,64,135,100
India,Haryana,Sonipat,"Murthal, Sonipat - HSPCB",17-03-2026 08:00:00,29.027200,77.062100,PM10,53,113,85
India,Madhya Pradesh,Singrauli,"Suryakiran Bhawan NCL, Singrauli - MPPCB",17-03-2026 08:00:00,24.108970,82.645580,NH3,4,5,5
India,Gujarat,Vadodara,"Bapunagar, Vadodara - Nexteng Enviro",17-03-2026 08:00:00,22.320153,73.216285,SO2,5,26,13
India,Gujarat,Vapi,"Phase-1 GIDC, Vapi - GPCB",17-03-2026 08:00:00,20.362421,72.918013,PM2.5,37,75,48
India,Madhya Pradesh,Ujjain,"Mahashweta Nagar, Ujjain - MPPCB",17-03-2026 08:00:00,23.1633321,75.800225,PM10,68,142,95
India,Gujarat,Vapi,"Phase-1 GIDC, Vapi - GPCB",17-03-2026 08:00:00,20.362421,72.918013,OZONE,5,23,5
India,Maharashtra,Ahmednagar,"Tarakpur, Ahmednagar - MPCB",17-03-2026 08:00:00,19.10122,74.73339,CO,12,101,26
India,Maharashtra,Akola,"Ramdaspeth, Akola - MPCB",17-03-2026 08:00:00,20.719516,77.000253,PM2.5,51,117,85
India,Haryana,Ambala,"Patti Mehar, Ambala - HSPCB",17-03-2026 08:00:00,30.379589,76.778328,SO2,15,32,22
India,Haryana,Ballabgarh,"Nathu Colony, Ballabgarh - HSPCB",17-03-2026 08:00:00,28.3419248,77.319699,PM2.5,26,158,62
India,Maharashtra,Akola,"Ramdaspeth, Akola - MPCB",17-03-2026 08:00:00,20.719516,77.000253,CO,17,40,20
India,Haryana,Ballabgarh,"Nathu Colony, Ballabgarh - HSPCB",17-03-2026 08:00:00,28.3419248,77.319699,NH3,3,4,3
India,Maharashtra,Ambernath,"Chinchpada, Ambernath - MPCB",17-03-2026 08:00:00,19.2157840,73.1997810,NH3,4,8,3
India,Haryana,Bhiwani,"H.B. Colony, Bhiwani - HSPCB",17-03-2026 08:00:00,28.806223,76.141105,SO2,1,24,7
India,Maharashtra,Belapur,"CBD Belapur, Belapur - MPCB",17-03-2026 08:00:00,19.0243902,73.0406721,NO2,19,27,23
India,Haryana,Gurugram,"Teri Gram, Gurugram - HSPCB",17-03-2026 08:00:00,28.4275,77.1465,PM10,46,121,96
India,Maharashtra,Belapur,"CBD Belapur, Belapur - MPCB",17-03-2026 08:00:00,19.0243902,73.0406721,NH3,2,4,4
India,Haryana,Gurugram,"Teri Gram, Gurugram - HSPCB",17-03-2026 08:00:00,28.4275,77.1465,NO2,37,75,53
India,Haryana,Gurugram,"Teri Gram, Gurugram - HSPCB",17-03-2026 08:00:00,28.4275,77.1465,CO,18,28,22
India,Haryana,Gurugram,"Vikas Sadan, Gurugram - HSPCB",17-03-2026 08:00:00,28.4501238,77.0263051,PM2.5,58,356,179
India,Haryana,Gurugram,"Vikas Sadan, Gurugram - HSPCB",17-03-2026 08:00:00,28.4501238,77.0263051,CO,62,115,96
India,Maharashtra,Bhiwandi,"Gokul Nagar, Bhiwandi - MPCB",17-03-2026 08:00:00,19.309073,73.057223,OZONE,12,107,14
India,Haryana,Gurugram,"Vikas Sadan, Gurugram - HSPCB",17-03-2026 08:00:00,28.4501238,77.0263051,OZONE,4,31,10
India,Haryana,Hisar,"Urban Estate-II, Hisar - HSPCB",17-03-2026 08:00:00,29.140560,75.744941,PM2.5,7,36,18
India,Maharashtra,Boisar,"Khaira, Boisar - MPCB",17-03-2026 08:00:00,19.786089,72.757971,OZONE,3,27,5
India,Maharashtra,Chandrapur,"Chauhan Colony, Chandrapur - MPCB",17-03-2026 08:00:00,19.962900,79.298714,PM10,49,115,92
India,Maharashtra,Chandrapur,"MIDC Khutala, Chandrapur - MPCB",17-03-2026 08:00:00,19.9775302,79.2337086,PM2.5,21,74,44
India,Maharashtra,Chandrapur,"MIDC Khutala, Chandrapur - MPCB",17-03-2026 08:00:00,19.9775302,79.2337086,NO2,8,21,15
India,Maharashtra,Chandrapur,"MIDC Khutala, Chandrapur - MPCB",17-03-2026 08:00:00,19.9775302,79.2337086,NH3,1,4,3
India,Maharashtra,Chandrapur,"MIDC Khutala, Chandrapur - MPCB",17-03-2026 08:00:00,19.9775302,79.2337086,OZONE,21,129,31
India,Madhya Pradesh,Indore,"Residency Area, Indore - IMC",17-03-2026 08:00:00,22.7084,75.8815,OZONE,5,10,5
India,Madhya Pradesh,Jabalpur,"Govindh Bhavan Colony, Jabalpur - JMC",17-03-2026 08:00:00,23.163174,79.973061,OZONE,6,90,7
India,Gujarat,Ahmedabad,"SVPI Airport Hansol, Ahmedabad - IITM",17-03-2026 08:00:00,23.076793,72.627874,PM10,113,154,134
India,Gujarat,Ahmedabad,"SVPI Airport Hansol, Ahmedabad - IITM",17-03-2026 08:00:00,23.076793,72.627874,NH3,2,9,5
India,Madhya Pradesh,Jabalpur,"Gupteshwar, Jabalpur - JMC",17-03-2026 08:00:00,23.142888,79.916147,CO,26,66,40
India,Gujarat,Ankleshwar,"GIDC, Ankleshwar - GPCB",17-03-2026 08:00:00,21.613267,73.010555,PM2.5,44,113,76
India,Madhya Pradesh,Jabalpur,"Marhatal, Jabalpur - MPPCB",17-03-2026 08:00:00,23.168606,79.932247,NO2,28,39,32
India,Madhya Pradesh,Jabalpur,"Marhatal, Jabalpur - MPPCB",17-03-2026 08:00:00,23.168606,79.932247,NH3,3,4,3
India,Madhya Pradesh,Jabalpur,"Marhatal, Jabalpur - MPPCB",17-03-2026 08:00:00,23.168606,79.932247,CO,36,100,77
India,Madhya Pradesh,Jabalpur,"Suhagi, Jabalpur - JMC",17-03-2026 08:00:00,23.218135,79.957770,NH3,5,6,6
India,Madhya Pradesh,Jabalpur,"Suhagi, Jabalpur - JMC",17-03-2026 08:00:00,23.218135,79.957770,CO,15,44,32
India,Gujarat,Gandhinagar,"GIFT City, Gandhinagar - IITM",17-03-2026 08:00:00,23.163798,72.677768,PM10,115,199,164
India,Madhya Pradesh,Katni,"Gole Bazar, Katni - MPPCB",17-03-2026 08:00:00,23.50016,80.23284,SO2,10,113,42
India,Madhya Pradesh,Katni,"Gole Bazar, Katni - MPPCB",17-03-2026 08:00:00,23.50016,80.23284,OZONE,10,76,20
India,Maharashtra,Amravati,"Shri Shivaji Science College, Amravati - MPCB",17-03-2026 08:00:00,20.939198,77.765701,CO,31,74,49
India,Haryana,Dharuhera,"Municipal Corporation Office, Dharuhera -  HSPCB",17-03-2026 08:00:00,28.206800,76.799700,NH3,10,29,21
India,Haryana,Dharuhera,"Municipal Corporation Office, Dharuhera -  HSPCB",17-03-2026 08:00:00,28.206800,76.799700,CO,10,22,17
India,Maharashtra,Aurangabad,"MIDC Chilkalthana, Aurangabad - MPCB",17-03-2026 08:00:00,19.875620,75.387310,CO,6,14,10
India,Haryana,Faridabad,"New Industrial Town, Faridabad - HSPCB",17-03-2026 08:00:00,28.39072,77.30059,SO2,8,9,8
India,Maharashtra,Aurangabad,"More Chowk Waluj, Aurangabad - MPCB",17-03-2026 08:00:00,19.8389439,75.244448,NH3,10,12,11
India,Haryana,Faridabad,"Sector 11, Faridabad - HSPCB",17-03-2026 08:00:00,28.376058,77.315741,CO,34,58,41
India,Haryana,Faridabad,"Sector 30, Faridabad - HSPCB",17-03-2026 08:00:00,28.4417,77.3217,NH3,11,12,11
India,Haryana,Gurugram,"NISE Gwal Pahari, Gurugram - IMD",17-03-2026 08:00:00,28.422681,77.148944,PM2.5,34,251,91
India,Haryana,Gurugram,"NISE Gwal Pahari, Gurugram - IMD",17-03-2026 08:00:00,28.422681,77.148944,PM10,73,252,125
India,Maharashtra,Badlapur,"Katrap, Badlapur - MPCB",17-03-2026 08:00:00,19.16485,73.23409,SO2,2,18,9
India,Maharashtra,Badlapur,"Katrap, Badlapur - MPCB",17-03-2026 08:00:00,19.16485,73.23409,OZONE,11,97,13
India,Gujarat,Gandhinagar,"IIPHG Lekawada, Gandhinagar - IITM",17-03-2026 08:00:00,23.243639,72.68994,CO,4,55,26
India,Madhya Pradesh,Mandideep,"Sector-D Industrial Area, Mandideep - MPPCB",17-03-2026 08:00:00,23.108440,77.511428,NO2,11,106,30
India,Madhya Pradesh,Mandideep,"Sector-D Industrial Area, Mandideep - MPPCB",17-03-2026 08:00:00,23.108440,77.511428,SO2,9,22,14
India,Madhya Pradesh,Pithampur,"Sector-2 Industrial Area, Pithampur - MPPCB",17-03-2026 08:00:00,22.624758,75.675238,PM2.5,61,320,160
India,Madhya Pradesh,Ratlam,"Shasthri Nagar, Ratlam - IPCA Lab",17-03-2026 08:00:00,23.331731,75.045981,PM2.5,29,97,51
India,Gujarat,Rajkot,"Mavdi, Rajkot - Nexteng Enviro ",17-03-2026 08:00:00,22.248853,70.776774,PM2.5,1,113,65
India,Madhya Pradesh,Sagar,"Civil Lines, Sagar - MPPCB",17-03-2026 08:00:00,23.838586,78.759431,NO2,7,53,16
India,Madhya Pradesh,Sagar,"Deen Dayal Nagar, Sagar - MPPCB",17-03-2026 08:00:00,23.8640158,78.80289321,PM2.5,6,88,40
India,Gujarat,Surat,"Katargam, Surat - Nexteng Enviro",17-03-2026 08:00:00,21.217779 ,72.834787 ,CO,44,56,46
India,Madhya Pradesh,Sagar,"Deen Dayal Nagar, Sagar - MPPCB",17-03-2026 08:00:00,23.8640158,78.80289321,NO2,3,97,30
India,Madhya Pradesh,Sagar,"Deen Dayal Nagar, Sagar - MPPCB",17-03-2026 08:00:00,23.8640158,78.80289321,SO2,3,6,4
India,Haryana,Bhiwani,"H.B. Colony, Bhiwani - HSPCB",17-03-2026 08:00:00,28.806223,76.141105,OZONE,1,64,4
India,Maharashtra,Amravati,"Shivneri Colony, Amravati - MPCB",17-03-2026 08:00:00,20.9402359,77.7895248,CO,14,40,19
India,Maharashtra,Amravati,"Shivneri Colony, Amravati - MPCB",17-03-2026 08:00:00,20.9402359,77.7895248,OZONE,4,70,20
India,Haryana,Charkhi Dadri,"Mini Secretariat, Charkhi Dadri - HSPCB",17-03-2026 08:00:00,28.593883,76.270653,NO2,9,23,15
India,Haryana,Charkhi Dadri,"Mini Secretariat, Charkhi Dadri - HSPCB",17-03-2026 08:00:00,28.593883,76.270653,NH3,5,8,6
India,Maharashtra,Amravati,"Shri Shivaji Science College, Amravati - MPCB",17-03-2026 08:00:00,20.939198,77.765701,NH3,2,7,3
India,Haryana,Charkhi Dadri,"Mini Secretariat, Charkhi Dadri - HSPCB",17-03-2026 08:00:00,28.593883,76.270653,OZONE,13,17,15
India,Karnataka,Shivamogga,"Vinoba Nagara, Shivamogga - KSPCB",17-03-2026 08:00:00,13.940000,75.555917,PM10,50,75,69
India,Karnataka,Shivamogga,"Vinoba Nagara, Shivamogga - KSPCB",17-03-2026 08:00:00,13.940000,75.555917,NO2,19,28,26
India,Maharashtra,Nagpur,"Ambazari, Nagpur - MPCB",17-03-2026 08:00:00,21.121801,79.04952,NH3,1,6,3
India,Maharashtra,Nagpur,"Ambazari, Nagpur - MPCB",17-03-2026 08:00:00,21.121801,79.04952,CO,16,68,28
India,Maharashtra,Nagpur,"Mahal, Nagpur - MPCB",17-03-2026 08:00:00,21.14472,79.107595,PM10,84,166,117
India,Maharashtra,Nagpur,"Mahal, Nagpur - MPCB",17-03-2026 08:00:00,21.14472,79.107595,NO2,23,111,50
India,Maharashtra,Nagpur,"Mahal, Nagpur - MPCB",17-03-2026 08:00:00,21.14472,79.107595,CO,15,107,21
India,Karnataka,Yadgir,"Collector Office, Yadgir - KSPCB",17-03-2026 08:00:00,16.7602,77.1428,NO2,7,28,14
India,Maharashtra,Nagpur,"Opp GPO Civil Lines, Nagpur - MPCB",17-03-2026 08:00:00,21.152875,79.0517531,NO2,13,67,29
India,Maharashtra,Nagpur,"Opp GPO Civil Lines, Nagpur - MPCB",17-03-2026 08:00:00,21.152875,79.0517531,NH3,5,12,8
India,Maharashtra,Nagpur,"Opp GPO Civil Lines, Nagpur - MPCB",17-03-2026 08:00:00,21.152875,79.0517531,OZONE,4,47,14
India,Maharashtra,Nagpur,"Ram Nagar, Nagpur - MPCB",17-03-2026 08:00:00,21.143383,79.048912,PM10,102,123,111
India,Maharashtra,Nagpur,"Ram Nagar, Nagpur - MPCB",17-03-2026 08:00:00,21.143383,79.048912,SO2,10,59,21
India,Kerala,Kannur,"Thavakkara, Kannur - Kerala PCB",17-03-2026 08:00:00,11.875000,75.373200,PM10,NA,NA,NA
India,Maharashtra,Nagpur,"Ram Nagar, Nagpur - MPCB",17-03-2026 08:00:00,21.143383,79.048912,OZONE,11,101,30
India,Kerala,Kannur,"Thavakkara, Kannur - Kerala PCB",17-03-2026 08:00:00,11.875000,75.373200,CO,19,22,20
India,Maharashtra,Nanded,"Sneh Nagar, Nanded - MPCB",17-03-2026 08:00:00,19.173852,77.296291,NH3,3,5,4
India,Maharashtra,Nanded,"Sneh Nagar, Nanded - MPCB",17-03-2026 08:00:00,19.173852,77.296291,CO,16,26,25
India,Kerala,Kollam,"Polayathode, Kollam - Kerala PCB",17-03-2026 08:00:00,8.8787,76.6073,PM2.5,42,49,46
India,Maharashtra,Nashik,"Gangapur Road, Nashik - MPCB",17-03-2026 08:00:00,20.0073285,73.7762427,PM2.5,34,197,72
India,Kerala,Kollam,"Polayathode, Kollam - Kerala PCB",17-03-2026 08:00:00,8.8787,76.6073,NH3,1,1,1
India,Maharashtra,Nashik,"Gangapur Road, Nashik - MPCB",17-03-2026 08:00:00,20.0073285,73.7762427,OZONE,9,29,27
India,Kerala,Thiruvananthapuram,"Kariavattom, Thiruvananthapuram - Kerala PCB",17-03-2026 08:00:00,8.563700,76.886500,OZONE,30,31,30
India,Kerala,Thiruvananthapuram,"Plammoodu, Thiruvananthapuram - Kerala PCB",17-03-2026 08:00:00,8.5149093,76.9435879,PM2.5,18,35,25
India,Maharashtra,Nashik,"Hirawadi, Nashik - MPCB",17-03-2026 08:00:00,20.021503,73.813844,SO2,22,30,27
India,Kerala,Thiruvananthapuram,"Plammoodu, Thiruvananthapuram - Kerala PCB",17-03-2026 08:00:00,8.5149093,76.9435879,OZONE,9,39,28
India,Kerala,Thrissur,"Corporation Ground, Thrissur - Kerala PCB",17-03-2026 08:00:00,10.532400,76.215900,PM10,65,88,76
India,Kerala,Thrissur,"Corporation Ground, Thrissur - Kerala PCB",17-03-2026 08:00:00,10.532400,76.215900,SO2,1,1,1
India,Madhya Pradesh,Bhopal,"Idgah Hills, Bhopal - MPPCB",17-03-2026 08:00:00,23.264759,77.381568,PM2.5,13,92,50
India,Madhya Pradesh,Bhopal,"Idgah Hills, Bhopal - MPPCB",17-03-2026 08:00:00,23.264759,77.381568,OZONE,8,48,24
India,Madhya Pradesh,Bhopal,"Paryavaran Parisar, Bhopal - MPPCB",17-03-2026 08:00:00,23.210494,77.425409,PM2.5,12,77,37
India,Maharashtra,Nashik,"Pandav Nagari, Nashik - MPCB",17-03-2026 08:00:00,19.9591346,73.7788008,OZONE,8,60,18
India,Madhya Pradesh,Bhopal,"Paryavaran Parisar, Bhopal - MPPCB",17-03-2026 08:00:00,23.210494,77.425409,PM10,66,139,94
India,Madhya Pradesh,Bhopal,"Paryavaran Parisar, Bhopal - MPPCB",17-03-2026 08:00:00,23.210494,77.425409,NH3,5,8,6
India,Maharashtra,Navi Mumbai,"Kopripada-Vashi, Navi Mumbai - MPCB",17-03-2026 08:00:00,19.090337,73.014232,PM10,57,91,70
India,Maharashtra,Navi Mumbai,"Kopripada-Vashi, Navi Mumbai - MPCB",17-03-2026 08:00:00,19.090337,73.014232,NO2,10,43,18
India,Maharashtra,Navi Mumbai,"Kopripada-Vashi, Navi Mumbai - MPCB",17-03-2026 08:00:00,19.090337,73.014232,SO2,15,17,16
India,Madhya Pradesh,Bhopal,"Paryavaran Parisar, Bhopal - MPPCB",17-03-2026 08:00:00,23.210494,77.425409,OZONE,27,67,54
India,Maharashtra,Pune,"Katraj Dairy, Pune - MPCB",17-03-2026 08:00:00,18.454450,73.854155,OZONE,13,44,19
India,Madhya Pradesh,Jabalpur,"Suhagi, Jabalpur - JMC",17-03-2026 08:00:00,23.218135,79.957770,NO2,11,31,18
India,Madhya Pradesh,Jabalpur,"Suhagi, Jabalpur - JMC",17-03-2026 08:00:00,23.218135,79.957770,OZONE,25,127,25
India,Maharashtra,Pune,"Panchawati_Pashan, Pune - IITM",17-03-2026 08:00:00,18.536457,73.805454,CO,12,86,79
India,Maharashtra,Pune,"Revenue Colony-Shivajinagar, Pune - IITM",17-03-2026 08:00:00,18.530085,73.849598,PM2.5,31,84,58
India,Maharashtra,Pune,"Revenue Colony-Shivajinagar, Pune - IITM",17-03-2026 08:00:00,18.530085,73.849598,PM10,76,113,96
India,Madhya Pradesh,Katni,"Gole Bazar, Katni - MPPCB",17-03-2026 08:00:00,23.50016,80.23284,CO,17,103,59
India,Maharashtra,Pune,"Revenue Colony-Shivajinagar, Pune - IITM",17-03-2026 08:00:00,18.530085,73.849598,NO2,30,88,50
India,Madhya Pradesh,Maihar,"Sahilara, Maihar - KJS Cements",17-03-2026 08:00:00,24.2613009,80.7231783,PM2.5,4,81,26
India,Madhya Pradesh,Maihar,"Sahilara, Maihar - KJS Cements",17-03-2026 08:00:00,24.2613009,80.7231783,PM10,26,60,46
India,Madhya Pradesh,Maihar,"Sahilara, Maihar - KJS Cements",17-03-2026 08:00:00,24.2613009,80.7231783,NO2,13,79,44
India,Madhya Pradesh,Mandideep,"Sector-D Industrial Area, Mandideep - MPPCB",17-03-2026 08:00:00,23.108440,77.511428,PM10,90,226,117
India,Madhya Pradesh,Mandideep,"Sector-D Industrial Area, Mandideep - MPPCB",17-03-2026 08:00:00,23.108440,77.511428,SO2,9,22,14
India,Maharashtra,Pune,"Transport Nagar-Nigdi, Pune - IITM",17-03-2026 08:00:00,18.664282,73.763966,NO2,18,63,33
India,Madhya Pradesh,Pithampur,"Sector-2 Industrial Area, Pithampur - MPPCB",17-03-2026 08:00:00,22.624758,75.675238,NO2,26,43,30
India,Maharashtra,Sangli,"Vijay Nagar, Sangli - MPCB",17-03-2026 08:00:00, 16.5038,74.3623,SO2,9,20,16
India,Karnataka,Kalaburagi,"Lal Bahadur Shastri Nagar, Kalaburagi - KSPCB",17-03-2026 08:00:00,17.321993,76.822628,PM10,NA,NA,NA
India,Karnataka,Kalaburagi,"Lal Bahadur Shastri Nagar, Kalaburagi - KSPCB",17-03-2026 08:00:00,17.321993,76.822628,NH3,NA,NA,NA
India,Karnataka,Kalaburagi,"Lal Bahadur Shastri Nagar, Kalaburagi - KSPCB",17-03-2026 08:00:00,17.321993,76.822628,SO2,NA,NA,NA
India,Maharashtra,Mumbai,"Sewri, Mumbai - BMC",17-03-2026 08:00:00,19.000084,72.856730,OZONE,4,19,12
India,Maharashtra,Mumbai,"Shivaji Nagar, Mumbai - BMC",17-03-2026 08:00:00,19.060498,72.923356,NH3,2,5,3
India,Karnataka,Kalaburagi,"Mahatma Basaveswar Colony, Kalaburgi - KSPCB",17-03-2026 08:00:00,17.336318,76.847397,SO2,2,4,3
India,Karnataka,Madikeri,"Stuart Hill, Madikeri - KSPCB",17-03-2026 08:00:00,12.415911,75.735050,PM2.5,11,47,28
India,Karnataka,Madikeri,"Stuart Hill, Madikeri - KSPCB",17-03-2026 08:00:00,12.415911,75.735050,SO2,7,7,7
India,Maharashtra,Mumbai,"Siddharth Nagar-Worli, Mumbai - IITM",17-03-2026 08:00:00,19.000083,72.813993,OZONE,11,80,55
India,Karnataka,Madikeri,"Stuart Hill, Madikeri - KSPCB",17-03-2026 08:00:00,12.415911,75.735050,CO,10,20,14
India,Maharashtra,Mumbai,"Sion, Mumbai - MPCB",17-03-2026 08:00:00,19.047000,72.874600,NH3,7,7,7
India,Karnataka,Mangalore,"Kadri, Mangalore - KSPCB",17-03-2026 08:00:00,12.889250,74.853000,PM10,NA,NA,NA
India,Maharashtra,Mumbai,"Sion, Mumbai - MPCB",17-03-2026 08:00:00,19.047000,72.874600,SO2,1,5,1
India,Karnataka,Mysuru,"Hebbal 1st Stage, Mysuru - KSPCB",17-03-2026 08:00:00,12.21041,76.37376,CO,15,50,22
India,Maharashtra,Mumbai,"Worli, Mumbai -MPCB",17-03-2026 08:00:00,18.9942180,72.8158167,PM10,53,135,91
India,Karnataka,Ramanagara,"Vijay Nagar, Ramanagara - KSPCB",17-03-2026 08:00:00,12.733409,77.298051,NO2,11,50,18
India,Karnataka,Ramanagara,"Vijay Nagar, Ramanagara - KSPCB",17-03-2026 08:00:00,12.733409,77.298051,SO2,1,23,12
India,Madhya Pradesh,Indore,"Chhoti Gwaltoli, Indore - MPPCB",17-03-2026 08:00:00,22.4310,75.5213,NO2,52,181,135
India,Maharashtra,Pimpri-Chinchwad,"Gavalinagar, Pimpri Chinchwad - MPCB",17-03-2026 08:00:00,18.63673,73.82487,OZONE,1,76,7
India,Maharashtra,Pimpri-Chinchwad,"Savta Mali Nagar, Pimpri-Chinchwad - IITM",17-03-2026 08:00:00,18.614767,73.799516,PM2.5,40,94,63
India,Maharashtra,Pimpri-Chinchwad,"Thergaon, Pimpri Chinchwad - MPCB",17-03-2026 08:00:00,18.616318,73.765797,PM10,88,111,98
India,Maharashtra,Pimpri-Chinchwad,"Thergaon, Pimpri Chinchwad - MPCB",17-03-2026 08:00:00,18.616318,73.765797,NO2,21,69,38
India,Maharashtra,Pimpri-Chinchwad,"Thergaon, Pimpri Chinchwad - MPCB",17-03-2026 08:00:00,18.616318,73.765797,CO,17,68,26
India,Madhya Pradesh,Indore,"Residency Area, Indore - IMC",17-03-2026 08:00:00,22.7084,75.8815,PM10,51,119,78
India,Maharashtra,Pune,"Bhumkar Nagar, Pune - IITM",17-03-2026 08:00:00,18.605770,73.749976,CO,8,67,29
India,Maharashtra,Pune,"Bhumkar Nagar, Pune - IITM",17-03-2026 08:00:00,18.605770,73.749976,OZONE,2,119,10
India,Maharashtra,Pune,"Dhankawadi, Pune - IITM",17-03-2026 08:00:00,18.459883,73.852193,PM2.5,17,86,44
India,Madhya Pradesh,Jabalpur,"Govindh Bhavan Colony, Jabalpur - JMC",17-03-2026 08:00:00,23.163174,79.973061,OZONE,6,90,7
India,Madhya Pradesh,Jabalpur,"Gupteshwar, Jabalpur - JMC",17-03-2026 08:00:00,23.142888,79.916147,PM2.5,24,80,50
India,Maharashtra,Pune,"Hadapsar, Pune - IITM",17-03-2026 08:00:00,18.501793,73.927532,NO2,38,156,89
India,Maharashtra,Pune,"Hadapsar, Pune - IITM",17-03-2026 08:00:00,18.501793,73.927532,CO,28,114,38
India,Maharashtra,Pune,"Katraj Dairy, Pune - MPCB",17-03-2026 08:00:00,18.454450,73.854155,PM2.5,60,60,60
India,Karnataka,Bengaluru,"Jigani, Bengaluru - KSPCB",17-03-2026 08:00:00,12.7816279,77.6299145,NH3,NA,NA,NA
India,Karnataka,Bengaluru,"Jigani, Bengaluru - KSPCB",17-03-2026 08:00:00,12.7816279,77.6299145,CO,42,44,43
India,Karnataka,Bengaluru,"Peenya, Bengaluru - CPCB",17-03-2026 08:00:00,13.0270199,77.494094,SO2,4,15,9
India,Maharashtra,Mumbai,"Kandivali West, Mumbai - BMC",17-03-2026 08:00:00,19.215859,72.831718,OZONE,2,30,18
India,Karnataka,Bengaluru,"RVCE-Mailasandra, Bengaluru - KSPCB",17-03-2026 08:00:00,12.921418,77.502466,CO,3,26,11
India,Maharashtra,Mumbai,"Khindipada-Bhandup West, Mumbai - IITM",17-03-2026 08:00:00,19.1653323,72.922099,NH3,3,4,4
India,Karnataka,Bengaluru,"Sanegurava Halli, Bengaluru - KSPCB",17-03-2026 08:00:00,12.990328,77.5431385,SO2,6,7,6
India,Maharashtra,Mumbai,"Khindipada-Bhandup West, Mumbai - IITM",17-03-2026 08:00:00,19.1653323,72.922099,CO,NA,NA,NA
India,Maharashtra,Mumbai,"Kurla, Mumbai - MPCB",17-03-2026 08:00:00,19.0863,72.8888,PM2.5,35,84,57
India,Karnataka,Bengaluru,"Shivapura_Peenya, Bengaluru - KSPCB",17-03-2026 08:00:00,13.0246342,77.5080115,NO2,23,24,23
India,Karnataka,Bengaluru,"Shivapura_Peenya, Bengaluru - KSPCB",17-03-2026 08:00:00,13.0246342,77.5080115,OZONE,26,27,26
India,Karnataka,Bengaluru,"Silk Board, Bengaluru - KSPCB",17-03-2026 08:00:00,12.917348,77.622813,PM2.5,NA,NA,NA
India,Maharashtra,Mumbai,"Malad West, Mumbai - IITM",17-03-2026 08:00:00,19.19709,72.82204,PM10,80,136,109
India,Maharashtra,Mumbai,"Malad West, Mumbai - IITM",17-03-2026 08:00:00,19.19709,72.82204,NO2,31,94,51
India,Karnataka,Bengaluru,"Silk Board, Bengaluru - KSPCB",17-03-2026 08:00:00,12.917348,77.622813,NO2,NA,NA,NA
India,Maharashtra,Mumbai,"Byculla, Mumbai - BMC",17-03-2026 08:00:00,18.9767,72.8380,PM2.5,16,34,25
India,Karnataka,Bengaluru,"BWSSB Kadabesanahalli, Bengaluru - CPCB",17-03-2026 08:00:00,12.9352049,77.6814488,PM10,53,392,143
India,Karnataka,Bengaluru,"BWSSB Kadabesanahalli, Bengaluru - CPCB",17-03-2026 08:00:00,12.9352049,77.6814488,NO2,4,34,15
India,Maharashtra,Mumbai,"Byculla, Mumbai - BMC",17-03-2026 08:00:00,18.9767,72.8380,OZONE,1,23,11
India,Maharashtra,Mumbai,"Chakala-Andheri East, Mumbai - IITM",17-03-2026 08:00:00,19.11074,72.86084,SO2,5,22,15
India,Karnataka,Bengaluru,"City Railway Station, Bengaluru - KSPCB",17-03-2026 08:00:00,12.9756843,77.5660749,PM10,108,109,108
India,Maharashtra,Mumbai,"Chembur, Mumbai - MPCB",17-03-2026 08:00:00,19.0364585,72.8954371,NO2,13,42,24
India,Karnataka,Bengaluru,"Hebbal, Bengaluru - KSPCB",17-03-2026 08:00:00,13.029152,77.585901,PM10,29,144,94
India,Karnataka,Bengaluru,"Hebbal, Bengaluru - KSPCB",17-03-2026 08:00:00,13.029152,77.585901,NO2,27,142,57
India,Karnataka,Bengaluru,"Hombegowda Nagar, Bengaluru - KSPCB",17-03-2026 08:00:00,12.938539,77.590100,PM2.5,32,160,95
India,Maharashtra,Mumbai,"Deonar, Mumbai - IITM",17-03-2026 08:00:00,19.04946,72.9230,SO2,NA,NA,NA
India,Karnataka,Bengaluru,"Hombegowda Nagar, Bengaluru - KSPCB",17-03-2026 08:00:00,12.938539,77.590100,NO2,18,55,31
India,Karnataka,Bengaluru,"Hombegowda Nagar, Bengaluru - KSPCB",17-03-2026 08:00:00,12.938539,77.590100,CO,5,30,13
India,Karnataka,Bengaluru,"Jayanagar 5th Block, Bengaluru - KSPCB",17-03-2026 08:00:00,12.920984,77.584908,SO2,3,16,9
India,Madhya Pradesh,Bhopal,"T T Nagar, Bhopal - MPPCB",17-03-2026 08:00:00,23.233584,77.400574,CO,26,52,29
India,Maharashtra,Navi Mumbai,"Nerul, Navi Mumbai - MPCB",17-03-2026 08:00:00,19.008751,73.016620,PM2.5,NA,NA,NA
India,Maharashtra,Navi Mumbai,"Nerul, Navi Mumbai - MPCB",17-03-2026 08:00:00,19.008751,73.016620,NO2,NA,NA,NA
India,Maharashtra,Navi Mumbai,"Sector-2E Kalamboli, Navi Mumbai - MPCB",17-03-2026 08:00:00,19.02579,73.10297,NO2,11,23,15
India,Madhya Pradesh,Gwalior,"Maharaj Bada, Gwalior - MPPCB",17-03-2026 08:00:00,26.200388,78.147714,PM2.5,43,293,102
India,Madhya Pradesh,Gwalior,"Maharaj Bada, Gwalior - MPPCB",17-03-2026 08:00:00,26.200388,78.147714,PM10,103,276,136
India,Maharashtra,Navi Mumbai,"Tondare-Taloja, Navi Mumbai - MPCB",17-03-2026 08:00:00,19.0630,73.1209,CO,12,20,14
India,Maharashtra,Navi Mumbai,"Tondare-Taloja, Navi Mumbai - MPCB",17-03-2026 08:00:00,19.0630,73.1209,OZONE,NA,NA,NA
India,Maharashtra,Parbhani,"Masoom Colony, Parbhani - MPCB",17-03-2026 08:00:00,19.265594,76.761463,PM2.5,25,147,51
India,Madhya Pradesh,Indore,"Airport Area, Indore - IMC",17-03-2026 08:00:00,22.7289,75.8076,PM2.5,83,223,135
India,Madhya Pradesh,Indore,"Airport Area, Indore - IMC",17-03-2026 08:00:00,22.7289,75.8076,PM10,82,140,109
India,Maharashtra,Parbhani,"Masoom Colony, Parbhani - MPCB",17-03-2026 08:00:00,19.265594,76.761463,OZONE,10,10,10
India,Karnataka,Bengaluru,"Silk Board, Bengaluru - KSPCB",17-03-2026 08:00:00,12.917348,77.622813,OZONE,NA,NA,NA
India,Maharashtra,Mumbai,"Mazgaon, Mumbai - IITM",17-03-2026 08:00:00,18.96702,72.84214,CO,35,56,51
India,Karnataka,Chamarajanagar,"Urban, Chamarajanagar - KSPCB",17-03-2026 08:00:00,11.55358,76.55521,OZONE,13,39,15
India,Maharashtra,Mumbai,"Mindspace-Malad West, Mumbai - MPCB",17-03-2026 08:00:00,19.1878657,72.8304069,PM2.5,2,6,3
India,Karnataka,Chikkaballapur,"Chikkaballapur Rural, Chikkaballapur - KSPCB",17-03-2026 08:00:00,13.428828,77.731418,NO2,4,33,13
India,Maharashtra,Mumbai,"Mindspace-Malad West, Mumbai - MPCB",17-03-2026 08:00:00,19.1878657,72.8304069,NO2,4,25,10
India,Maharashtra,Mumbai,"Mindspace-Malad West, Mumbai - MPCB",17-03-2026 08:00:00,19.1878657,72.8304069,NH3,2,6,2
India,Maharashtra,Mumbai,"Navy Nagar-Colaba, Mumbai - IITM",17-03-2026 08:00:00,18.897756,72.813320,NH3,6,9,7
India,Karnataka,Dharwad,"Kalabhavan, Dharwad - KSPCB",17-03-2026 08:00:00,15.459706,75.008381,SO2,6,7,7
India,Maharashtra,Mumbai,"Sewri, Mumbai - BMC",17-03-2026 08:00:00,19.000084,72.856730,PM2.5,13,36,20
India,Maharashtra,Mumbai,"Sewri, Mumbai - BMC",17-03-2026 08:00:00,19.000084,72.856730,PM10,57,105,79
India,Maharashtra,Mahad,"Kamble Tarf Birwadi, Mahad - MPCB",17-03-2026 08:00:00,18.1023399,73.4783687,CO,21,46,36
India,Maharashtra,Mahad,"Kamble Tarf Birwadi, Mahad - MPCB",17-03-2026 08:00:00,18.1023399,73.4783687,OZONE,30,76,35
India,Rajasthan,Barmer,"Railway Colony, Barmer - RSPCB",17-03-2026 08:00:00,25.747299,71.393989,OZONE,44,118,70
India,Maharashtra,Malegaon,"Mahesh Nagar, Malegaon - MPCB",17-03-2026 08:00:00,20.555712,74.529236,PM2.5,11,211,86
India,Rajasthan,Bharatpur,"Krishna Nagar, Bharatpur - RSPCB",17-03-2026 08:00:00,27.215415,77.50873,NO2,13,101,29
India,Rajasthan,Bharatpur,"Krishna Nagar, Bharatpur - RSPCB",17-03-2026 08:00:00,27.215415,77.50873,SO2,3,9,6
India,Rajasthan,Bharatpur,"Krishna Nagar, Bharatpur - RSPCB",17-03-2026 08:00:00,27.215415,77.50873,CO,16,74,45
India,Maharashtra,Malegaon,"Mahesh Nagar, Malegaon - MPCB",17-03-2026 08:00:00,20.555712,74.529236,CO,14,52,20
India,Rajasthan,Bharatpur,"Krishna Nagar, Bharatpur - RSPCB",17-03-2026 08:00:00,27.215415,77.50873,OZONE,11,109,32
India,Rajasthan,Bhilwara,"Pratap Nagar, Bhilwara - RSPCB",17-03-2026 08:00:00,25.339605,74.618883,NO2,11,81,25
India,Maharashtra,Mira-Bhayandar,"Bhayandar West, Mira-Bhayandar - MPCB",17-03-2026 08:00:00,19.296481,72.840923,NH3,6,13,9
India,Rajasthan,Bhilwara,"Pratap Nagar, Bhilwara - RSPCB",17-03-2026 08:00:00,25.339605,74.618883,OZONE,4,20,12
India,Rajasthan,Bhiwadi,"RIICO Ind. Area III, Bhiwadi - RSPCB",17-03-2026 08:00:00,28.194909,76.862296,PM10,72,180,113
India,Maharashtra,Mumbai,"Bandra Kurla Complex, Mumbai - IITM",17-03-2026 08:00:00,19.053536,72.84643,SO2,1,3,2
India,Rajasthan,Bhiwadi,"Vasundhara Nagar_UIT, Bhiwadi - RSPCB",17-03-2026 08:00:00,28.207266,76.829265,PM2.5,46,153,76
India,Rajasthan,Bhiwadi,"Vasundhara Nagar_UIT, Bhiwadi - RSPCB",17-03-2026 08:00:00,28.207266,76.829265,CO,10,70,40
India,Rajasthan,Bikaner,"MM Ground, Bikaner - RSPCB",17-03-2026 08:00:00,28.018792,73.292658,NO2,11,35,18
India,Maharashtra,Aurangabad,"More Chowk Waluj, Aurangabad - MPCB",17-03-2026 08:00:00,19.8389439,75.244448,NH3,10,12,11
India,Odisha,Barbil,"Forest Office, Barbil - OSPCB",17-03-2026 08:00:00,22.1166054,85.3945546,PM10,12,121,67
India,Maharashtra,Aurangabad,"More Chowk Waluj, Aurangabad - MPCB",17-03-2026 08:00:00,19.8389439,75.244448,SO2,18,31,23
India,Odisha,Baripada,"Meher Colony, Baripada - OSPCB",17-03-2026 08:00:00,21.941841,86.728318,SO2,4,26,11
India,Maharashtra,Badlapur,"Katrap, Badlapur - MPCB",17-03-2026 08:00:00,19.16485,73.23409,NH3,3,7,5
India,Maharashtra,Badlapur,"Katrap, Badlapur - MPCB",17-03-2026 08:00:00,19.16485,73.23409,OZONE,11,97,13
India,Odisha,Bhubaneswar,"Patia, Bhubaneswar - OSPCB",17-03-2026 08:00:00,20.34652,85.81630,PM10,24,108,54
India,Maharashtra,Beed,"Bir, Beed - MPCB",17-03-2026 08:00:00,18.988474,75.753873,NH3,4,6,5
India,Odisha,Bhubaneswar,"Patia, Bhubaneswar - OSPCB",17-03-2026 08:00:00,20.34652,85.81630,CO,92,102,96
India,Odisha,Bileipada,"Tata Township, Bileipada - OSPCB",17-03-2026 08:00:00,22.06156703,85.47409613,PM2.5,18,252,120
India,Odisha,Bileipada,"Tata Township, Bileipada - OSPCB",17-03-2026 08:00:00,22.06156703,85.47409613,PM10,24,268,120
India,Maharashtra,Belapur,"CBD Belapur, Belapur - MPCB",17-03-2026 08:00:00,19.0243902,73.0406721,SO2,1,8,2
India,Maharashtra,Belapur,"CBD Belapur, Belapur - MPCB",17-03-2026 08:00:00,19.0243902,73.0406721,CO,2,7,3
India,Odisha,Bileipada,"Tata Township, Bileipada - OSPCB",17-03-2026 08:00:00,22.06156703,85.47409613,CO,20,32,23
India,Maharashtra,Bhiwandi,"Gokul Nagar, Bhiwandi - MPCB",17-03-2026 08:00:00,19.309073,73.057223,PM2.5,43,83,60
India,Odisha,Bileipada,"Tata Township, Bileipada - OSPCB",17-03-2026 08:00:00,22.06156703,85.47409613,OZONE,11,30,28
India,Odisha,Brajrajnagar,"GM Office, Brajrajnagar - OSPCB",17-03-2026 08:00:00,21.8004996,83.8396977,PM2.5,22,71,45
India,Maharashtra,Virar,"Bolinj, Virar - MPCB",17-03-2026 08:00:00,19.4458210,72.7988231,NO2,NA,NA,NA
India,Maharashtra,Virar,"Bolinj, Virar - MPCB",17-03-2026 08:00:00,19.4458210,72.7988231,NH3,NA,NA,NA
India,Maharashtra,Akola,"Ramdaspeth, Akola - MPCB",17-03-2026 08:00:00,20.719516,77.000253,OZONE,4,62,20
India,Meghalaya,Shillong,"JN Stadium, Shillong - Meghalaya PCB",17-03-2026 08:00:00,25.5803419,91.8942571,PM10,NA,NA,NA
India,Meghalaya,Shillong,"JN Stadium, Shillong - Meghalaya PCB",17-03-2026 08:00:00,25.5803419,91.8942571,SO2,NA,NA,NA
India,Maharashtra,Ambernath,"Chinchpada, Ambernath - MPCB",17-03-2026 08:00:00,19.2157840,73.1997810,OZONE,4,82,5
India,Nagaland,Kohima,"PWD Junction, Kohima - NPCB",17-03-2026 08:00:00,25.6635413,94.0989878,NO2,NA,NA,NA
India,Maharashtra,Amravati,"Shivneri Colony, Amravati - MPCB",17-03-2026 08:00:00,20.9402359,77.7895248,SO2,8,17,12
India,Nagaland,Kohima,"PWD Junction, Kohima - NPCB",17-03-2026 08:00:00,25.6635413,94.0989878,NH3,NA,NA,NA
India,Nagaland,Kohima,"PWD Junction, Kohima - NPCB",17-03-2026 08:00:00,25.6635413,94.0989878,SO2,NA,NA,NA
India,Maharashtra,Amravati,"Shivneri Colony, Amravati - MPCB",17-03-2026 08:00:00,20.9402359,77.7895248,OZONE,4,70,20
India,Maharashtra,Amravati,"Shri Shivaji Science College, Amravati - MPCB",17-03-2026 08:00:00,20.939198,77.765701,PM2.5,47,86,65
India,Odisha,Angul,"Hakimapada, Angul - OSPCB",17-03-2026 08:00:00,20.832874,85.104082,PM10,42,123,73
India,Maharashtra,Amravati,"Shri Shivaji Science College, Amravati - MPCB",17-03-2026 08:00:00,20.939198,77.765701,NH3,2,7,3
India,Maharashtra,Aurangabad,"MIDC Chilkalthana, Aurangabad - MPCB",17-03-2026 08:00:00,19.875620,75.387310,SO2,4,29,10
India,Odisha,Balasore,"Kalidaspur, Balasore - OSPCB",17-03-2026 08:00:00,21.51161,86.89088,OZONE,69,137,86
India,Maharashtra,Boisar,"Khaira, Boisar - MPCB",17-03-2026 08:00:00,19.786089,72.757971,PM2.5,16,66,40
India,Odisha,Cuttack,"CDA Area, Cuttack - OSPCB",17-03-2026 08:00:00,20.48891     ,85.84768     ,NH3,3,6,5
India,Maharashtra,Chandrapur,"Chauhan Colony, Chandrapur - MPCB",17-03-2026 08:00:00,19.962900,79.298714,PM2.5,28,61,42
India,Maharashtra,Chandrapur,"Chauhan Colony, Chandrapur - MPCB",17-03-2026 08:00:00,19.962900,79.298714,PM10,49,115,92
India,Maharashtra,Chandrapur,"Chauhan Colony, Chandrapur - MPCB",17-03-2026 08:00:00,19.962900,79.298714,NH3,1,2,1
India,Odisha,Keonjhar,"Jagamohanpur, Keonjhar - OSPCB",17-03-2026 08:00:00,21.643900,85.599355,NH3,5,5,5
India,Odisha,Keonjhar,"Jagamohanpur, Keonjhar - OSPCB",17-03-2026 08:00:00,21.643900,85.599355,SO2,8,38,14
India,Maharashtra,Chandrapur,"MIDC Khutala, Chandrapur - MPCB",17-03-2026 08:00:00,19.9775302,79.2337086,NH3,1,4,3
India,Maharashtra,Chandrapur,"MIDC Khutala, Chandrapur - MPCB",17-03-2026 08:00:00,19.9775302,79.2337086,SO2,NA,NA,NA
India,Odisha,Nayagarh,"Dabuna, Nayagarh - OSPCB",17-03-2026 08:00:00,21.847279,85.416905,CO,14,30,16
India,Odisha,Nayagarh,"Dabuna, Nayagarh - OSPCB",17-03-2026 08:00:00,21.847279,85.416905,OZONE,16,27,19
India,Maharashtra,Dhule,"Deopur, Dhule - MPCB",17-03-2026 08:00:00,20.918946,74.776388,SO2,2,17,9
India,Maharashtra,Dombivli,"Kalu Nagar, Dombivli - MPCB",17-03-2026 08:00:00,19.2268427 ,73.0788456 ,PM10,25,85,58
India,Odisha,Rairangpur,"Divisional Forest Office, Rairangpur - OSPCB",17-03-2026 08:00:00,22.265816,86.174829,SO2,7,14,10
India,Maharashtra,Dombivli,"Kalu Nagar, Dombivli - MPCB",17-03-2026 08:00:00,19.2268427 ,73.0788456 ,NO2,14,47,32
India,Maharashtra,Kalyan,"Khadakpada, Kalyan - MPCB",17-03-2026 08:00:00,19.25292,73.142019,NH3,1,1,1
India,Rajasthan,Ajmer,"Civil Lines,  Ajmer - RSPCB",17-03-2026 08:00:00,26.470859,74.646594,PM2.5,55,135,82
India,Rajasthan,Banswara,"Rati Talai, Banswara - RSPCB",17-03-2026 08:00:00,23.555190,74.440010,NH3,4,10,6
India,Maharashtra,Kolhapur,"Sinchan Bhavan, Kolhapur - MPCB",17-03-2026 08:00:00,16.7143745,74.2426398,SO2,1,5,2
India,Rajasthan,Banswara,"Rati Talai, Banswara - RSPCB",17-03-2026 08:00:00,23.555190,74.440010,SO2,7,21,13
India,Maharashtra,Latur,"Sawe Wadi, Latur - MPCB",17-03-2026 08:00:00,18.39963,76.57452,PM2.5,50,139,85
India,Rajasthan,Baran,"Bamboliya, Baran - RSPCB",17-03-2026 08:00:00,25.106006,76.469948,PM10,102,171,123
India,Maharashtra,Latur,"Sawe Wadi, Latur - MPCB",17-03-2026 08:00:00,18.39963,76.57452,SO2,2,13,6
India,Rajasthan,Baran,"Bamboliya, Baran - RSPCB",17-03-2026 08:00:00,25.106006,76.469948,CO,6,44,13
India,Rajasthan,Baran,"Bamboliya, Baran - RSPCB",17-03-2026 08:00:00,25.106006,76.469948,OZONE,18,158,48
India,Maharashtra,Mahad,"Kamble Tarf Birwadi, Mahad - MPCB",17-03-2026 08:00:00,18.1023399,73.4783687,NO2,15,52,28
India,Rajasthan,Barmer,"Railway Colony, Barmer - RSPCB",17-03-2026 08:00:00,25.747299,71.393989,PM10,85,200,119
India,Maharashtra,Solapur,"Dnyaneshwar Nagar, Solapur - MPCB",17-03-2026 08:00:00,17.6336264,75.9132495,SO2,NA,NA,NA
India,Maharashtra,Solapur,"Dnyaneshwar Nagar, Solapur - MPCB",17-03-2026 08:00:00,17.6336264,75.9132495,OZONE,NA,NA,NA
India,Madhya Pradesh,Sagar,"Deen Dayal Nagar, Sagar - MPPCB",17-03-2026 08:00:00,23.8640158,78.80289321,PM2.5,6,88,40
India,Madhya Pradesh,Satna,"Bandhavgar Colony, Satna - Birla Cement",17-03-2026 08:00:00,24.58434363,80.8549414,PM2.5,48,52,50
India,Madhya Pradesh,Satna,"Bandhavgar Colony, Satna - Birla Cement",17-03-2026 08:00:00,24.58434363,80.8549414,PM10,69,72,70
India,Madhya Pradesh,Singrauli,"Suryakiran Bhawan NCL, Singrauli - MPPCB",17-03-2026 08:00:00,24.108970,82.645580,NH3,4,5,5
India,Madhya Pradesh,Singrauli,"Suryakiran Bhawan NCL, Singrauli - MPPCB",17-03-2026 08:00:00,24.108970,82.645580,SO2,15,77,55
India,Madhya Pradesh,Singrauli,"Suryakiran Bhawan NCL, Singrauli - MPPCB",17-03-2026 08:00:00,24.108970,82.645580,CO,51,78,62
India,Maharashtra,Ulhasnagar,"Sidhi Vinayak Nagar, Ulhasnagar - MPCB",17-03-2026 08:00:00,19.235581,73.159121,PM2.5,30,57,46
India,Madhya Pradesh,Ujjain,"Mahashweta Nagar, Ujjain - MPPCB",17-03-2026 08:00:00,23.1633321,75.800225,PM2.5,25,90,63
India,Maharashtra,Ulhasnagar,"Vithalwadi, Ulhasnagar - MPCB",17-03-2026 08:00:00,19.2307571 ,73.1551920,NH3,3,5,4
India,Maharashtra,Ulhasnagar,"Vithalwadi, Ulhasnagar - MPCB",17-03-2026 08:00:00,19.2307571 ,73.1551920,SO2,NA,NA,NA
India,Maharashtra,Hingoli,"Ashta Vinayak Nagar, Hingoli - MPCB",17-03-2026 08:00:00,19.710842,77.151824,PM10,44,132,82
India,Odisha,Rourkela,"Sector-2, Rourkela - OSPCB",17-03-2026 08:00:00,22.24500000,84.88111111,NO2,NA,NA,NA
India,Maharashtra,Jalgaon,"Prabhat Colony, Jalgaon - MPCB",17-03-2026 08:00:00,21.001264,75.565602,SO2,2,13,6
India,Odisha,Talcher,"Talcher Coalfields,Talcher - OSPCB",17-03-2026 08:00:00,20.9360711,85.1707021,NH3,6,8,6
India,Odisha,Talcher,"Talcher Coalfields,Talcher - OSPCB",17-03-2026 08:00:00,20.9360711,85.1707021,SO2,NA,NA,NA
India,Odisha,Tensa,"Barsua Iron Ore Mines, Tensa - OSPCB",17-03-2026 08:00:00,21.869985,85.167016,PM10,21,90,58
India,Odisha,Tensa,"Barsua Iron Ore Mines, Tensa - OSPCB",17-03-2026 08:00:00,21.869985,85.167016,SO2,23,67,42
India,Odisha,Tensa,"Barsua Iron Ore Mines, Tensa - OSPCB",17-03-2026 08:00:00,21.869985,85.167016,CO,42,92,46
India,Puducherry,Puducherry,"Jawahar Nagar, Puducherry - PPCC",17-03-2026 08:00:00,11.9309,79.8027,NH3,1,4,2
India,Puducherry,Puducherry,"Jawahar Nagar, Puducherry - PPCC",17-03-2026 08:00:00,11.9309,79.8027,SO2,4,11,7
India,Punjab,Jalandhar,"Civil Line, Jalandhar - PPCB",17-03-2026 08:00:00,31.321907,75.578914,PM2.5,36,75,56
India,Punjab,Jalandhar,"Civil Line, Jalandhar - PPCB",17-03-2026 08:00:00,31.321907,75.578914,NO2,38,42,40
India,Punjab,Jalandhar,"Civil Line, Jalandhar - PPCB",17-03-2026 08:00:00,31.321907,75.578914,CO,56,66,57
India,Punjab,Khanna,"Kalal Majra, Khanna - PPCB",17-03-2026 08:00:00,30.736056 ,76.209694,NO2,25,30,28
India,Punjab,Khanna,"Kalal Majra, Khanna - PPCB",17-03-2026 08:00:00,30.736056 ,76.209694,SO2,6,18,9
India,Punjab,Ludhiana,"Punjab Agricultural University, Ludhiana - PPCB",17-03-2026 08:00:00,30.9028,75.8086,SO2,18,27,22
India,Punjab,Ludhiana,"Punjab Agricultural University, Ludhiana - PPCB",17-03-2026 08:00:00,30.9028,75.8086,OZONE,24,33,28
India,Punjab,Mandi Gobindgarh,"RIMT University, Mandi Gobindgarh - PPCB",17-03-2026 08:00:00,30.649961,76.331442,NO2,23,24,24
India,Punjab,Mandi Gobindgarh,"RIMT University, Mandi Gobindgarh - PPCB",17-03-2026 08:00:00,30.649961,76.331442,NH3,6,6,6
India,Punjab,Mandi Gobindgarh,"RIMT University, Mandi Gobindgarh - PPCB",17-03-2026 08:00:00,30.649961,76.331442,OZONE,33,33,33
India,Maharashtra,Jalna,"Old MIDC, Jalna - MPCB",17-03-2026 08:00:00,19.854616,75.905894,NH3,NA,NA,NA
India,Maharashtra,Jalna,"Old MIDC, Jalna - MPCB",17-03-2026 08:00:00,19.854616,75.905894,SO2,NA,NA,NA
India,Punjab,Bathinda,"Hardev Nagar, Bathinda - PPCB",17-03-2026 08:00:00,30.233011,74.907758,NO2,26,32,28
India,Rajasthan,Jhunjhunu,"Indra Nagar, Jhunjhunu - RSPCB",17-03-2026 08:00:00,28.108988,75.386577,PM10,51,204,115
India,Rajasthan,Jhunjhunu,"Indra Nagar, Jhunjhunu - RSPCB",17-03-2026 08:00:00,28.108988,75.386577,NO2,10,29,17
India,Rajasthan,Jhunjhunu,"Indra Nagar, Jhunjhunu - RSPCB",17-03-2026 08:00:00,28.108988,75.386577,SO2,4,14,7
India,Rajasthan,Jhunjhunu,"Indra Nagar, Jhunjhunu - RSPCB",17-03-2026 08:00:00,28.108988,75.386577,OZONE,28,62,35
India,Maharashtra,Mumbai,"Mazgaon, Mumbai - IITM",17-03-2026 08:00:00,18.96702,72.84214,PM2.5,14,49,29
India,Maharashtra,Mumbai,"Mazgaon, Mumbai - IITM",17-03-2026 08:00:00,18.96702,72.84214,NO2,24,75,46
India,Maharashtra,Mumbai,"Mazgaon, Mumbai - IITM",17-03-2026 08:00:00,18.96702,72.84214,OZONE,7,49,32
India,Maharashtra,Mumbai,"Mindspace-Malad West, Mumbai - MPCB",17-03-2026 08:00:00,19.1878657,72.8304069,PM10,49,116,77
India,Rajasthan,Jodhpur,"Digari Kalan, Jodhpur - RSPCB",17-03-2026 08:00:00,26.295810,73.082283,OZONE,27,114,59
India,Rajasthan,Jodhpur,"Jhalamand, Jodhpur - RSPCB",17-03-2026 08:00:00,26.215415,73.070156,PM2.5,10,140,40
India,Rajasthan,Jodhpur,"Jhalamand, Jodhpur - RSPCB",17-03-2026 08:00:00,26.215415,73.070156,NH3,1,6,2
India,Maharashtra,Mumbai,"Mulund West, Mumbai - MPCB",17-03-2026 08:00:00,19.1750,72.9419,NO2,17,23,19
India,Rajasthan,Jodhpur,"Jhalamand, Jodhpur - RSPCB",17-03-2026 08:00:00,26.215415,73.070156,SO2,1,8,4
India,Maharashtra,Mumbai,"Mulund West, Mumbai - MPCB",17-03-2026 08:00:00,19.1750,72.9419,NH3,4,4,4
India,Maharashtra,Mumbai,"Mulund West, Mumbai - MPCB",17-03-2026 08:00:00,19.1750,72.9419,SO2,NA,NA,NA
India,Maharashtra,Mumbai,"Navy Nagar-Colaba, Mumbai - IITM",17-03-2026 08:00:00,18.897756,72.813320,PM10,87,137,111
India,Maharashtra,Mumbai,"Navy Nagar-Colaba, Mumbai - IITM",17-03-2026 08:00:00,18.897756,72.813320,NO2,20,81,32
India,Maharashtra,Mumbai,"Powai, Mumbai - MPCB",17-03-2026 08:00:00,19.137500,72.915056,NO2,7,8,7
India,Maharashtra,Mumbai,"Powai, Mumbai - MPCB",17-03-2026 08:00:00,19.137500,72.915056,SO2,10,14,12
India,Maharashtra,Mumbai,"Powai, Mumbai - MPCB",17-03-2026 08:00:00,19.137500,72.915056,OZONE,9,9,9
India,Maharashtra,Mumbai,"Sewri, Mumbai - BMC",17-03-2026 08:00:00,19.000084,72.856730,PM2.5,13,36,20
India,Maharashtra,Mumbai,"Shivaji Nagar, Mumbai - BMC",17-03-2026 08:00:00,19.060498,72.923356,NO2,9,18,12
India,Rajasthan,Kota,"Dhanmandi, Kota - RSPCB",17-03-2026 08:00:00,25.164090,75.858137,NO2,22,124,47
India,Rajasthan,Kota,"Dhanmandi, Kota - RSPCB",17-03-2026 08:00:00,25.164090,75.858137,NH3,4,9,6
India,Maharashtra,Mumbai,"Siddharth Nagar-Worli, Mumbai - IITM",17-03-2026 08:00:00,19.000083,72.813993,PM2.5,24,55,41
India,Maharashtra,Mumbai,"Siddharth Nagar-Worli, Mumbai - IITM",17-03-2026 08:00:00,19.000083,72.813993,PM10,70,158,118
India,Rajasthan,Kota,"Nayapura, Kota - RSPCB",17-03-2026 08:00:00,25.196024,75.855668,PM2.5,13,203,59
India,Maharashtra,Mumbai,"Siddharth Nagar-Worli, Mumbai - IITM",17-03-2026 08:00:00,19.000083,72.813993,OZONE,11,80,55
India,Rajasthan,Kota,"Nayapura, Kota - RSPCB",17-03-2026 08:00:00,25.196024,75.855668,NH3,1,18,5
India,Rajasthan,Kota,"Nayapura, Kota - RSPCB",17-03-2026 08:00:00,25.196024,75.855668,CO,7,105,16
India,Maharashtra,Mumbai,"Sion, Mumbai - MPCB",17-03-2026 08:00:00,19.047000,72.874600,SO2,1,5,1
India,Maharashtra,Mumbai,"Vile Parle West, Mumbai - MPCB",17-03-2026 08:00:00,19.10861,72.83622,PM2.5,11,28,18
India,Maharashtra,Mumbai,"Worli, Mumbai -MPCB",17-03-2026 08:00:00,18.9942180,72.8158167,NH3,3,3,3
India,Rajasthan,Bundi,"New Colony, Bundi - RSPCB",17-03-2026 08:00:00,25.435774,75.644272,NH3,2,41,11
India,Rajasthan,Chittorgarh,"Shastri Nagar, Chittorgarh - RSPCB",17-03-2026 08:00:00,24.892047,74.623527,OZONE,8,97,23
India,Rajasthan,Churu,"Subash Chowk, Churu - RSPCB",17-03-2026 08:00:00,28.296139,74.961696,PM2.5,14,90,43
India,Rajasthan,Churu,"Subash Chowk, Churu - RSPCB",17-03-2026 08:00:00,28.296139,74.961696,NH3,4,9,6
India,Rajasthan,Dausa,"Khatikan Mohalla, Dausa - RSPCB",17-03-2026 08:00:00,26.895552,76.334753,PM2.5,22,83,47
India,Maharashtra,Mumbai,"Bandra Kurla Complex, Mumbai - MPCB",17-03-2026 08:00:00,19.065931,72.862131,SO2,1,2,1
India,Maharashtra,Mumbai,"Borivali East, Mumbai - IITM",17-03-2026 08:00:00,19.23241,72.86895,PM2.5,15,64,37
India,Maharashtra,Mumbai,"Borivali East, Mumbai - IITM",17-03-2026 08:00:00,19.23241,72.86895,NO2,18,34,24
India,Maharashtra,Mumbai,"Borivali East, Mumbai - IITM",17-03-2026 08:00:00,19.23241,72.86895,NH3,6,12,8
India,Maharashtra,Mumbai,"Borivali East, Mumbai - IITM",17-03-2026 08:00:00,19.23241,72.86895,OZONE,6,61,14
India,Maharashtra,Mumbai,"Borivali East, Mumbai - MPCB",17-03-2026 08:00:00,19.2243333,72.8658113,PM10,20,47,34
India,Rajasthan,Dungarpur,"Bhoiwada, Dungarpur - RSPCB",17-03-2026 08:00:00,23.837789,73.714926,PM10,91,198,119
India,Maharashtra,Mumbai,"Kandivali East, Mumbai - MPCB",17-03-2026 08:00:00,19.205800,72.868200,SO2,21,24,22
India,Rajasthan,Jaipur,"Shastri Nagar, Jaipur - RSPCB",17-03-2026 08:00:00,26.9502929,75.730943,CO,12,107,19
India,Maharashtra,Mumbai,"Kherwadi_Bandra East, Mumbai - MPCB",17-03-2026 08:00:00,19.0632143,72.8456324,PM10,63,96,76
India,Rajasthan,Jalore,"Mudtra Sili, Jalore - RSPCB",17-03-2026 08:00:00,25.344694,72.626208,PM10,66,215,108
India,Maharashtra,Mumbai,"Khindipada-Bhandup West, Mumbai - IITM",17-03-2026 08:00:00,19.1653323,72.922099,NO2,11,29,16
India,Maharashtra,Mumbai,"Khindipada-Bhandup West, Mumbai - IITM",17-03-2026 08:00:00,19.1653323,72.922099,SO2,NA,NA,NA
India,Rajasthan,Jalore,"Mudtra Sili, Jalore - RSPCB",17-03-2026 08:00:00,25.344694,72.626208,OZONE,11,85,48
India,Maharashtra,Mumbai,"Kurla, Mumbai - MPCB",17-03-2026 08:00:00,19.0863,72.8888,PM10,56,122,88
India,Rajasthan,Jhalawar,"Rajlaxmi Nagar, Jhalawar - RSPCB",17-03-2026 08:00:00,24.588397,76.172782,NH3,6,9,7
India,Maharashtra,Mumbai,"Worli, Mumbai -MPCB",17-03-2026 08:00:00,18.9942180,72.8158167,SO2,25,30,26
India,Maharashtra,Nagpur,"Mahal, Nagpur - MPCB",17-03-2026 08:00:00,21.14472,79.107595,NO2,23,111,50
India,Maharashtra,Nagpur,"Mahal, Nagpur - MPCB",17-03-2026 08:00:00,21.14472,79.107595,OZONE,11,33,21
India,Maharashtra,Nagpur,"Opp GPO Civil Lines, Nagpur - MPCB",17-03-2026 08:00:00,21.152875,79.0517531,PM10,97,155,117
India,Maharashtra,Nagpur,"Opp GPO Civil Lines, Nagpur - MPCB",17-03-2026 08:00:00,21.152875,79.0517531,NO2,13,67,29
India,Maharashtra,Nagpur,"Ram Nagar, Nagpur - MPCB",17-03-2026 08:00:00,21.143383,79.048912,PM2.5,70,134,94
India,Maharashtra,Nagpur,"Ram Nagar, Nagpur - MPCB",17-03-2026 08:00:00,21.143383,79.048912,PM10,102,123,111
India,Maharashtra,Nagpur,"Ram Nagar, Nagpur - MPCB",17-03-2026 08:00:00,21.143383,79.048912,CO,15,39,25
India,Maharashtra,Nanded,"Sneh Nagar, Nanded - MPCB",17-03-2026 08:00:00,19.173852,77.296291,CO,16,26,25
India,Maharashtra,Nashik,"Gangapur Road, Nashik - MPCB",17-03-2026 08:00:00,20.0073285,73.7762427,SO2,1,8,4
India,Maharashtra,Nashik,"Hirawadi, Nashik - MPCB",17-03-2026 08:00:00,20.021503,73.813844,NO2,1,10,5
India,Maharashtra,Nashik,"MIDC Ambad, Nashik - MPCB",17-03-2026 08:00:00,19.950220,73.731480,NO2,4,20,11
India,Maharashtra,Nashik,"MIDC Ambad, Nashik - MPCB",17-03-2026 08:00:00,19.950220,73.731480,CO,28,32,30
India,Maharashtra,Navi Mumbai,"Kopripada-Vashi, Navi Mumbai - MPCB",17-03-2026 08:00:00,19.090337,73.014232,PM2.5,26,155,67
India,Rajasthan,Kota,"Shrinath Puram, Kota - RSPCB",17-03-2026 08:00:00,25.14389,75.821256,CO,6,108,23
India,Maharashtra,Navi Mumbai,"Kopripada-Vashi, Navi Mumbai - MPCB",17-03-2026 08:00:00,19.090337,73.014232,OZONE,3,31,7
India,Rajasthan,Jaipur,"Sector-2 Murlipura, Jaipur - RSPCB",17-03-2026 08:00:00,26.960669,75.771817,NH3,3,7,5
India,Maharashtra,Mumbai,"Byculla, Mumbai - BMC",17-03-2026 08:00:00,18.9767,72.8380,NO2,18,54,28
India,Maharashtra,Mumbai,"Chakala-Andheri East, Mumbai - IITM",17-03-2026 08:00:00,19.11074,72.86084,SO2,5,22,15
India,Maharashtra,Mumbai,"Chembur, Mumbai - MPCB",17-03-2026 08:00:00,19.0364585,72.8954371,OZONE,2,21,5
India,Maharashtra,Mumbai,"Deonar, Mumbai - IITM",17-03-2026 08:00:00,19.04946,72.9230,OZONE,4,29,6
India,Maharashtra,Mumbai,"Ghatkopar, Mumbai - BMC",17-03-2026 08:00:00,19.083694,72.920967,NH3,7,8,8
India,Rajasthan,Hanumangarh,"Housing Board, Hanumangarh - RSPCB",17-03-2026 08:00:00,29.610750,74.283608,CO,13,34,16
India,Rajasthan,Jaipur,"Adarsh Nagar, Jaipur - RSPCB",17-03-2026 08:00:00,26.902909,75.836858,NH3,8,19,11
India,Rajasthan,Jaipur,"Adarsh Nagar, Jaipur - RSPCB",17-03-2026 08:00:00,26.902909,75.836858,CO,22,68,45
India,Rajasthan,Jaipur,"Police Commissionerate, Jaipur - RSPCB",17-03-2026 08:00:00,26.9164092,75.7994901,NO2,15,150,94
India,Rajasthan,Jaipur,"Police Commissionerate, Jaipur - RSPCB",17-03-2026 08:00:00,26.9164092,75.7994901,SO2,21,35,26
India,Rajasthan,Jaipur,"RIICO Sitapura, Jaipur - RSPCB",17-03-2026 08:00:00,26.786682,75.827928,NO2,87,172,116
India,Maharashtra,Nashik,"Gangapur Road, Nashik - MPCB",17-03-2026 08:00:00,20.0073285,73.7762427,PM2.5,34,197,72
India,Maharashtra,Pimpri-Chinchwad,"Gavalinagar, Pimpri Chinchwad - MPCB",17-03-2026 08:00:00,18.63673,73.82487,NH3,NA,NA,NA
India,Rajasthan,Sirohi,"Vedhaynath Colony, Sirohi - RSPCB",17-03-2026 08:00:00,24.885261,72.857549,CO,13,40,25
India,Rajasthan,Sri Ganganagar,"Old City, Sri Ganganagar - RSPCB",17-03-2026 08:00:00,29.931624,73.864511,NH3,5,5,5
India,Maharashtra,Pimpri-Chinchwad,"Savta Mali Nagar, Pimpri-Chinchwad - IITM",17-03-2026 08:00:00,18.614767,73.799516,NO2,25,93,49
India,Rajasthan,Sri Ganganagar,"Old City, Sri Ganganagar - RSPCB",17-03-2026 08:00:00,29.931624,73.864511,CO,5,24,10
India,Maharashtra,Pimpri-Chinchwad,"Savta Mali Nagar, Pimpri-Chinchwad - IITM",17-03-2026 08:00:00,18.614767,73.799516,CO,2,78,47
India,Maharashtra,Pimpri-Chinchwad,"Thergaon, Pimpri Chinchwad - MPCB",17-03-2026 08:00:00,18.616318,73.765797,PM2.5,33,150,50
India,Rajasthan,Tonk,"Shastri Nagar, Tonk - RSPCB",17-03-2026 08:00:00,26.159933,75.780517,NO2,12,122,36
India,Maharashtra,Pimpri-Chinchwad,"Thergaon, Pimpri Chinchwad - MPCB",17-03-2026 08:00:00,18.616318,73.765797,OZONE,21,80,29
India,Rajasthan,Udaipur,"Ashok Nagar, Udaipur - RSPCB",17-03-2026 08:00:00,24.5886166,73.6321397,PM2.5,47,196,102
India,Rajasthan,Udaipur,"Ashok Nagar, Udaipur - RSPCB",17-03-2026 08:00:00,24.5886166,73.6321397,NO2,7,114,38
India,Rajasthan,Udaipur,"Ashok Nagar, Udaipur - RSPCB",17-03-2026 08:00:00,24.5886166,73.6321397,NH3,4,6,5
India,Maharashtra,Pune,"Bhumkar Nagar, Pune - IITM",17-03-2026 08:00:00,18.605770,73.749976,PM10,86,139,114
India,Sikkim,Gangtok,"Zero Point GICI, Gangtok - SSPCB",17-03-2026 08:00:00,27.338530,88.614099,PM10,9,61,35
India,Sikkim,Gangtok,"Zero Point GICI, Gangtok - SSPCB",17-03-2026 08:00:00,27.338530,88.614099,NO2,6,12,6
India,Sikkim,Gangtok,"Zero Point GICI, Gangtok - SSPCB",17-03-2026 08:00:00,27.338530,88.614099,SO2,1,1,1
India,Sikkim,Gangtok,"Zero Point GICI, Gangtok - SSPCB",17-03-2026 08:00:00,27.338530,88.614099,CO,NA,NA,NA
India,Sikkim,Gangtok,"Zero Point GICI, Gangtok - SSPCB",17-03-2026 08:00:00,27.338530,88.614099,OZONE,7,26,16
India,Maharashtra,Pune,"Hadapsar, Pune - IITM",17-03-2026 08:00:00,18.501793,73.927532,PM10,33,127,96
India,Maharashtra,Pune,"Hadapsar, Pune - IITM",17-03-2026 08:00:00,18.501793,73.927532,CO,28,114,38
India,Maharashtra,Pune,"Hadapsar, Pune - IITM",17-03-2026 08:00:00,18.501793,73.927532,OZONE,1,54,8
India,Maharashtra,Solapur,"Dnyaneshwar Nagar, Solapur - MPCB",17-03-2026 08:00:00,17.6336264,75.9132495,OZONE,NA,NA,NA
India,Maharashtra,Solapur,"Ratandeep Housing Society, Solapur - MPCB",17-03-2026 08:00:00,17.65439,75.90649,PM2.5,73,104,87
India,Telangana,Hyderabad,"IITH Kandi, Hyderabad - TSPCB",17-03-2026 08:00:00,17.585705,78.126199,SO2,10,17,14
India,Telangana,Hyderabad,"IITH Kandi, Hyderabad - TSPCB",17-03-2026 08:00:00,17.585705,78.126199,CO,24,38,29
India,Maharashtra,Solapur,"Ratandeep Housing Society, Solapur - MPCB",17-03-2026 08:00:00,17.65439,75.90649,CO,25,103,48
India,Telangana,Hyderabad,"Kokapet, Hyderabad - TSPCB",17-03-2026 08:00:00,17.393559,78.339194,NO2,12,15,14
India,Telangana,Hyderabad,"Kokapet, Hyderabad - TSPCB",17-03-2026 08:00:00,17.393559,78.339194,SO2,12,14,13
India,Maharashtra,Thane,"Kasarvadavali, Thane - MPCB",17-03-2026 08:00:00,19.26777,72.97182,SO2,2,8,3
India,Maharashtra,Thane,"Kasarvadavali, Thane - MPCB",17-03-2026 08:00:00,19.26777,72.97182,OZONE,2,34,5
India,Maharashtra,Thane,"Upvan Fort, Thane - MPCB",17-03-2026 08:00:00,19.222279,72.957979,CO,NA,NA,NA
India,Maharashtra,Ulhasnagar,"Sidhi Vinayak Nagar, Ulhasnagar - MPCB",17-03-2026 08:00:00,19.235581,73.159121,PM10,42,80,65
India,Telangana,Hyderabad,"Nacharam_TSIIC IALA, Hyderabad - TSPCB",17-03-2026 08:00:00,17.429398,78.569354,NO2,13,16,13
India,Maharashtra,Ulhasnagar,"Sidhi Vinayak Nagar, Ulhasnagar - MPCB",17-03-2026 08:00:00,19.235581,73.159121,SO2,5,17,7
India,Maharashtra,Ulhasnagar,"Vithalwadi, Ulhasnagar - MPCB",17-03-2026 08:00:00,19.2307571 ,73.1551920,PM10,38,123,90
India,Telangana,Hyderabad,"New Malakpet, Hyderabad - TSPCB",17-03-2026 08:00:00,17.37206,78.50864,NO2,14,17,15
India,Maharashtra,Ulhasnagar,"Vithalwadi, Ulhasnagar - MPCB",17-03-2026 08:00:00,19.2307571 ,73.1551920,OZONE,2,78,4
India,Telangana,Hyderabad,"New Malakpet, Hyderabad - TSPCB",17-03-2026 08:00:00,17.37206,78.50864,OZONE,11,47,20
India,Maharashtra,Virar,"Bolinj, Virar - MPCB",17-03-2026 08:00:00,19.4458210,72.7988231,PM10,NA,NA,NA
India,Maharashtra,Virar,"Bolinj, Virar - MPCB",17-03-2026 08:00:00,19.4458210,72.7988231,NO2,NA,NA,NA
India,Maharashtra,Virar,"Bolinj, Virar - MPCB",17-03-2026 08:00:00,19.4458210,72.7988231,CO,NA,NA,NA
India,Meghalaya,Shillong,"JN Stadium, Shillong - Meghalaya PCB",17-03-2026 08:00:00,25.5803419,91.8942571,NH3,NA,NA,NA
India,Telangana,Hyderabad,"Sanathnagar, Hyderabad - TSPCB",17-03-2026 08:00:00,17.4559458,78.4332152,CO,38,60,43
India,Meghalaya,Shillong,"JN Stadium, Shillong - Meghalaya PCB",17-03-2026 08:00:00,25.5803419,91.8942571,CO,6,18,12
India,Telangana,Hyderabad,"Somajiguda, Hyderabad - TSPCB",17-03-2026 08:00:00,17.417094,78.457437,PM10,NA,NA,NA
India,Meghalaya,Shillong,"Lumpyngngad, Shillong - Meghalaya PCB",17-03-2026 08:00:00,25.5586,91.8985,SO2,9,14,12
India,Telangana,Hyderabad,"Somajiguda, Hyderabad - TSPCB",17-03-2026 08:00:00,17.417094,78.457437,NH3,NA,NA,NA
India,Telangana,Hyderabad,"Somajiguda, Hyderabad - TSPCB",17-03-2026 08:00:00,17.417094,78.457437,SO2,NA,NA,NA
India,Telangana,Hyderabad,"Somajiguda, Hyderabad - TSPCB",17-03-2026 08:00:00,17.417094,78.457437,CO,NA,NA,NA
India,Nagaland,Kohima,"PWD Junction, Kohima - NPCB",17-03-2026 08:00:00,25.6635413,94.0989878,PM2.5,NA,NA,NA
India,Telangana,Hyderabad,"Zoo Park, Hyderabad - TSPCB",17-03-2026 08:00:00,17.349694,78.451437,PM2.5,33,108,59
India,Nagaland,Kohima,"PWD Junction, Kohima - NPCB",17-03-2026 08:00:00,25.6635413,94.0989878,NO2,NA,NA,NA
India,Telangana,Hyderabad,"Zoo Park, Hyderabad - TSPCB",17-03-2026 08:00:00,17.349694,78.451437,SO2,2,3,2
India,Nagaland,Kohima,"PWD Junction, Kohima - NPCB",17-03-2026 08:00:00,25.6635413,94.0989878,OZONE,NA,NA,NA
India,Uttar_Pradesh,Agra,"Manoharpur, Agra - UPPCB",17-03-2026 08:00:00,27.23711,78.01936,PM2.5,24,115,55
India,Uttar_Pradesh,Agra,"Manoharpur, Agra - UPPCB",17-03-2026 08:00:00,27.23711,78.01936,NH3,5,5,5
India,Odisha,Balasore,"Kalidaspur, Balasore - OSPCB",17-03-2026 08:00:00,21.51161,86.89088,NH3,1,2,2
India,Uttar_Pradesh,Agra,"Rohta, Agra - UPPCB",17-03-2026 08:00:00,27.106972,78.000111,NH3,5,6,6
India,Uttar_Pradesh,Agra,"Rohta, Agra - UPPCB",17-03-2026 08:00:00,27.106972,78.000111,CO,8,20,16
India,Maharashtra,Navi Mumbai,"Mahape, Navi Mumbai - MPCB",17-03-2026 08:00:00,19.1135051,73.008978,PM10,87,132,116
India,Maharashtra,Navi Mumbai,"Mahape, Navi Mumbai - MPCB",17-03-2026 08:00:00,19.1135051,73.008978,NH3,1,2,1
India,Rajasthan,Pali,"Indira Colony Vistar, Pali - RSPCB",17-03-2026 08:00:00,25.771061, 73.340227,NO2,20,26,23
India,Maharashtra,Navi Mumbai,"Mahape, Navi Mumbai - MPCB",17-03-2026 08:00:00,19.1135051,73.008978,OZONE,7,15,10
India,Rajasthan,Pali,"Indira Colony Vistar, Pali - RSPCB",17-03-2026 08:00:00,25.771061, 73.340227,CO,10,38,28
India,Maharashtra,Navi Mumbai,"Sanpada, Navi Mumbai - MPCB",17-03-2026 08:00:00,19.0575752,73.0151367,PM2.5,4,55,26
India,Maharashtra,Navi Mumbai,"Sanpada, Navi Mumbai - MPCB",17-03-2026 08:00:00,19.0575752,73.0151367,NO2,10,28,14
India,Maharashtra,Navi Mumbai,"Sanpada, Navi Mumbai - MPCB",17-03-2026 08:00:00,19.0575752,73.0151367,SO2,9,20,15
India,Rajasthan,Pratapgarh,"Pragati Nagar, Pratapgarh - RSPCB",17-03-2026 08:00:00,24.041198,74.780702,OZONE,47,109,66
India,Rajasthan,Rajsamand,"Dhoinda, Rajsamand - RSPCB",17-03-2026 08:00:00,25.036360,73.883502,NO2,4,22,11
India,Maharashtra,Navi Mumbai,"Sector-2E Kalamboli, Navi Mumbai - MPCB",17-03-2026 08:00:00,19.02579,73.10297,PM10,48,73,60
India,Rajasthan,Rajsamand,"Dhoinda, Rajsamand - RSPCB",17-03-2026 08:00:00,25.036360,73.883502,NH3,6,15,9
India,Maharashtra,Parbhani,"Masoom Colony, Parbhani - MPCB",17-03-2026 08:00:00,19.265594,76.761463,PM2.5,25,147,51
India,Maharashtra,Parbhani,"Masoom Colony, Parbhani - MPCB",17-03-2026 08:00:00,19.265594,76.761463,SO2,3,13,8
India,TamilNadu,Coimbatore,"PSG College of Arts and Science, Coimbatore - TNPCB",17-03-2026 08:00:00,11.0328,77.0349,OZONE,NA,NA,NA
India,TamilNadu,Coimbatore,"SIDCO Kurichi, Coimbatore - TNPCB",17-03-2026 08:00:00,10.942451,76.978996,CO,30,34,33
India,TamilNadu,Perundurai,"SIPCOT Industrial Park, Perundurai - TNPCB",17-03-2026 08:00:00,11.258242,77.552761,NH3,2,2,2
India,TamilNadu,Perundurai,"SIPCOT Industrial Park, Perundurai - TNPCB",17-03-2026 08:00:00,11.258242,77.552761,SO2,14,16,15
India,TamilNadu,Perundurai,"SIPCOT Industrial Park, Perundurai - TNPCB",17-03-2026 08:00:00,11.258242,77.552761,CO,42,48,47
India,Maharashtra,Pune,"Savitribai Phule Pune University, Pune - MPCB",17-03-2026 08:00:00,18.547056,73.826908,CO,18,77,29
India,Maharashtra,Pune,"Transport Nagar-Nigdi, Pune - IITM",17-03-2026 08:00:00,18.664282,73.763966,PM10,55,85,72
India,Maharashtra,Sangli,"Vijay Nagar, Sangli - MPCB",17-03-2026 08:00:00, 16.5038,74.3623,PM2.5,43,92,64
India,Maharashtra,Sangli,"Vijay Nagar, Sangli - MPCB",17-03-2026 08:00:00, 16.5038,74.3623,PM10,48,90,67
India,Telangana,Hyderabad,"ECIL Kapra, Hyderabad - TSPCB",17-03-2026 08:00:00,17.470431,78.566959,PM2.5,42,63,53
India,Maharashtra,Pune,"Mhada Colony, Pune - IITM",17-03-2026 08:00:00,18.573040,73.927715,CO,2,90,50
India,Maharashtra,Pune,"Panchawati_Pashan, Pune - IITM",17-03-2026 08:00:00,18.536457,73.805454,CO,12,86,79
India,TamilNadu,Chennai,"Perungudi, Chennai - TNPCB",17-03-2026 08:00:00,12.9533,80.2357,PM2.5,10,73,21
India,TamilNadu,Chennai,"Perungudi, Chennai - TNPCB",17-03-2026 08:00:00,12.9533,80.2357,PM10,15,76,46
India,Maharashtra,Pune,"Savitribai Phule Pune University, Pune - MPCB",17-03-2026 08:00:00,18.547056,73.826908,PM2.5,NA,NA,NA
India,Maharashtra,Pune,"Savitribai Phule Pune University, Pune - MPCB",17-03-2026 08:00:00,18.547056,73.826908,PM10,67,103,80
India,TamilNadu,Chennai,"Royapuram, Chennai - TNPCB",17-03-2026 08:00:00,13.1036,80.2909,OZONE,16,19,17
India,Telangana,Hyderabad,"ECIL Kapra, Hyderabad - TSPCB",17-03-2026 08:00:00,17.470431,78.566959,OZONE,6,32,6
India,Telangana,Hyderabad,"ICRISAT Patancheru, Hyderabad - TSPCB",17-03-2026 08:00:00,17.518400,78.278777,NH3,1,5,3
India,Telangana,Hyderabad,"ICRISAT Patancheru, Hyderabad - TSPCB",17-03-2026 08:00:00,17.518400,78.278777,OZONE,20,80,36
India,Telangana,Hyderabad,"IDA Pashamylaram, Hyderabad - TSPCB",17-03-2026 08:00:00,17.5316895,78.218939,PM2.5,18,100,55
India,Maharashtra,Solapur,"Dnyaneshwar Nagar, Solapur - MPCB",17-03-2026 08:00:00,17.6336264,75.9132495,PM2.5,NA,NA,NA
India,Telangana,Hyderabad,"IDA Pashamylaram, Hyderabad - TSPCB",17-03-2026 08:00:00,17.5316895,78.218939,NH3,1,1,1
India,Odisha,Baripada,"Meher Colony, Baripada - OSPCB",17-03-2026 08:00:00,21.941841,86.728318,CO,30,60,34
India,Uttar_Pradesh,Agra,"Shahjahan Garden, Agra - UPPCB",17-03-2026 08:00:00,27.169338,78.03582,NO2,14,23,20
India,Uttar_Pradesh,Agra,"Shahjahan Garden, Agra - UPPCB",17-03-2026 08:00:00,27.169338,78.03582,SO2,38,66,56
India,Uttar_Pradesh,Agra,"Shahjahan Garden, Agra - UPPCB",17-03-2026 08:00:00,27.169338,78.03582,CO,4,15,10
India,Odisha,Bhubaneswar,"Lingraj Mandir, Bhubaneswar - OSPCB",17-03-2026 08:00:00,20.240790,85.836784,CO,46,68,52
India,Odisha,Bhubaneswar,"Patia, Bhubaneswar - OSPCB",17-03-2026 08:00:00,20.34652,85.81630,SO2,5,43,10
India,Uttar_Pradesh,Agra,"Shastripuram, Agra - UPPCB",17-03-2026 08:00:00,27.19862,77.92066,CO,10,44,20
India,Odisha,Bileipada,"Tata Township, Bileipada - OSPCB",17-03-2026 08:00:00,22.06156703,85.47409613,NO2,6,7,7
India,Odisha,Bileipada,"Tata Township, Bileipada - OSPCB",17-03-2026 08:00:00,22.06156703,85.47409613,SO2,11,12,11
India,Odisha,Brajrajnagar,"GM Office, Brajrajnagar - OSPCB",17-03-2026 08:00:00,21.8004996,83.8396977,PM2.5,22,71,45
India,Uttar_Pradesh,Ghaziabad,"Sanjay Nagar, Ghaziabad - UPPCB",17-03-2026 08:00:00,28.685382,77.453839,PM2.5,28,349,96
India,Uttar_Pradesh,Ghaziabad,"Sanjay Nagar, Ghaziabad - UPPCB",17-03-2026 08:00:00,28.685382,77.453839,PM10,70,292,119
India,Uttar_Pradesh,Ghaziabad,"Vasundhara, Ghaziabad - UPPCB",17-03-2026 08:00:00,28.6603346,77.3572563,PM2.5,37,310,102
India,Uttar_Pradesh,Gorakhpur,"Madan Mohan Malaviya University of Technology, Gorakhpur - UPPCB",17-03-2026 08:00:00,26.730136,83.433859,NO2,11,12,11
India,Uttar_Pradesh,Gorakhpur,"Madan Mohan Malaviya University of Technology, Gorakhpur - UPPCB",17-03-2026 08:00:00,26.730136,83.433859,NH3,1,1,1
India,Uttar_Pradesh,Gorakhpur,"Madan Mohan Malaviya University of Technology, Gorakhpur - UPPCB",17-03-2026 08:00:00,26.730136,83.433859,SO2,44,48,46
India,Uttar_Pradesh,Greater Noida,"Knowledge Park - V, Greater Noida - UPPCB",17-03-2026 08:00:00,28.557054,77.453663,PM10,112,488,213
India,Uttar_Pradesh,Greater Noida,"Knowledge Park - V, Greater Noida - UPPCB",17-03-2026 08:00:00,28.557054,77.453663,CO,10,96,44
India,Uttar_Pradesh,Bareilly,"Rajendra Nagar, Bareilly - UPPCB",17-03-2026 08:00:00,28.38910936,79.42963708,PM2.5,12,51,24
India,Uttar_Pradesh,Bareilly,"Rajendra Nagar, Bareilly - UPPCB",17-03-2026 08:00:00,28.38910936,79.42963708,PM10,28,101,50
India,Uttar_Pradesh,Firozabad,"Nagla Bhau, Firozabad - UPPCB",17-03-2026 08:00:00,27.168897,78.376960,NH3,2,2,2
India,Uttar_Pradesh,Ghaziabad,"Indirapuram, Ghaziabad - UPPCB",17-03-2026 08:00:00,28.646233,77.358075,NH3,14,16,14
India,Uttar_Pradesh,Ghaziabad,"Indirapuram, Ghaziabad - UPPCB",17-03-2026 08:00:00,28.646233,77.358075,CO,29,92,39
India,Uttar_Pradesh,Ghaziabad,"Loni, Ghaziabad - UPPCB",17-03-2026 08:00:00,28.757294,77.278792,NO2,18,68,32
India,Uttar_Pradesh,Ghaziabad,"Loni, Ghaziabad - UPPCB",17-03-2026 08:00:00,28.757294,77.278792,NH3,2,6,3
