country,state,city,station,last_update,latitude,longitude,pollutant_id,min_value,max_value,avg_value
India,Assam,Sivasagar,"Girls College, Sivasagar - PCBA",12-11-2025 07:00:00,26.987634,94.636574,NH3,2,6,4
India,Assam,Sivasagar,"Girls College, Sivasagar - PCBA",12-11-2025 07:00:00,26.987634,94.636574,SO2,7,11,9
India,Assam,Sivasagar,"Girls College, Sivasagar - PCBA",12-11-2025 07:00:00,26.987634,94.636574,CO,6,45,42
India,Bihar,Araria,"Kharahiya Basti, Araria - BSPCB",12-11-2025 07:00:00,26.146529,87.454184,PM2.5,2,167,60
India,Bihar,Araria,"Kharahiya Basti, Araria - BSPCB",12-11-2025 07:00:00,26.146529,87.454184,NO2,3,68,21
India,Bihar,Araria,"Kharahiya Basti, Araria - BSPCB",12-11-2025 07:00:00,26.146529,87.454184,OZONE,10,10,10
India,Bihar,Arrah,"New DM Office, Arrah - BSPCB",12-11-2025 07:00:00,25.5626095,84.663264,NO2,6,9,7
India,Andhra_Pradesh,Rajamahendravaram,"Anand Kala Kshetram, Rajamahendravaram - APPCB",12-11-2025 07:00:00,16.9872867,81.7363176,CO,24,46,30
India,Andhra_Pradesh,Rajamahendravaram,"Anand Kala Kshetram, Rajamahendravaram - APPCB",12-11-2025 07:00:00,16.9872867,81.7363176,OZONE,4,61,13
India,Andhra_Pradesh,Tirumala,"Toll Gate, Tirumala - APPCB",12-11-2025 07:00:00,13.67,79.35,NO2,20,34,26
India,Andhra_Pradesh,Tirupati,"Vaikuntapuram, Tirupati - APPCB",12-11-2025 07:00:00,13.615387,79.409230,PM2.5,NA,NA,NA
India,Andhra_Pradesh,Tirupati,"Vaikuntapuram, Tirupati - APPCB",12-11-2025 07:00:00,13.615387,79.409230,PM10,NA,NA,NA
India,Andhra_Pradesh,Amaravati,"Secretariat, Amaravati - APPCB",12-11-2025 07:00:00,16.5150833,80.5181667,SO2,6,28,9
India,Andhra_Pradesh,Amaravati,"Secretariat, Amaravati - APPCB",12-11-2025 07:00:00,16.5150833,80.5181667,CO,22,37,30
India,Andhra_Pradesh,Anantapur,"Gulzarpet, Anantapur - APPCB",12-11-2025 07:00:00,14.675886,77.593027,PM2.5,42,213,82
India,Andhra_Pradesh,Anantapur,"Gulzarpet, Anantapur - APPCB",12-11-2025 07:00:00,14.675886,77.593027,NO2,19,25,20
India,Andhra_Pradesh,Vijayawada,"Rajiv Nagar, Vijayawada - APPCB",12-11-2025 07:00:00,16.554731,80.649110,NO2,7,14,9
India,Andhra_Pradesh,Visakhapatnam,"GVM Corporation, Visakhapatnam - APPCB",12-11-2025 07:00:00,17.72,83.3,PM2.5,159,301,185
India,Andhra_Pradesh,Visakhapatnam,"GVM Corporation, Visakhapatnam - APPCB",12-11-2025 07:00:00,17.72,83.3,OZONE,28,150,94
India,Assam,Nalbari,"Bata Chowk, Nalbari - PCBA",12-11-2025 07:00:00,26.446912,91.439057,PM2.5,43,173,88
India,Assam,Silchar,"Tarapur, Silchar - PCBA",12-11-2025 07:00:00,24.82827,92.79525,PM10,53,60,55
India,Assam,Silchar,"Tarapur, Silchar - PCBA",12-11-2025 07:00:00,24.82827,92.79525,NH3,1,1,1
India,Assam,Silchar,"Tarapur, Silchar - PCBA",12-11-2025 07:00:00,24.82827,92.79525,SO2,3,7,5
India,Assam,Guwahati,"LGBI Airport, Guwahati - PCBA",12-11-2025 07:00:00,26.10887,91.589544,NH3,6,6,6
India,Assam,Guwahati,"Pan Bazaar, Guwahati - PCBA",12-11-2025 07:00:00,26.187500,91.744194,PM10,34,72,53
India,Assam,Nagaon,"Christianpatty, Nagaon - PCBA",12-11-2025 07:00:00,26.349082,92.68449,NO2,1,9,1
India,Andhra_Pradesh,Tirupati,"Vaikuntapuram, Tirupati - APPCB",12-11-2025 07:00:00,13.615387,79.409230,OZONE,NA,NA,NA
India,Andhra_Pradesh,Vijayawada,"HB Colony, Vijayawada - APPCB",12-11-2025 07:00:00,16.536107,80.594233,SO2,11,24,15
India,Andhra_Pradesh,Vijayawada,"Rajiv Gandhi Park, Vijayawada - APPCB",12-11-2025 07:00:00,16.509717,80.612222,SO2,10,17,14
India,Bihar,Begusarai,"Lohiyanagar, Begusarai - BSPCB",12-11-2025 07:00:00,25.42742023,86.13886079,SO2,36,49,43
India,Bihar,Bettiah,"Kamalnath Nagar, Bettiah - BSPCB",12-11-2025 07:00:00,26.80365,84.51954,PM2.5,48,200,125
India,Bihar,Bettiah,"Kamalnath Nagar, Bettiah - BSPCB",12-11-2025 07:00:00,26.80365,84.51954,SO2,2,13,8
India,Assam,Byrnihat,"Central Academy for SFS, Byrnihat - PCBA",12-11-2025 07:00:00,26.071318,91.87488,PM10,75,195,102
India,Assam,Guwahati,"IITG, Guwahati - PCBA",12-11-2025 07:00:00,26.2028636,91.70046436,CO,7,18,12
India,Andhra_Pradesh,Kadapa,"Yerramukkapalli, Kadapa - APPCB",12-11-2025 07:00:00,14.465052,78.824187,CO,30,42,34
India,Bihar,Hajipur,"Industrial Area, Hajipur - BSPCB",12-11-2025 07:00:00,25.697189,85.245900,OZONE,13,187,36
India,Bihar,Katihar,"Mirchaibari, Katihar - BSPCB",12-11-2025 07:00:00,25.560083,87.553265,PM10,54,107,77
India,Bihar,Katihar,"Mirchaibari, Katihar - BSPCB",12-11-2025 07:00:00,25.560083,87.553265,SO2,18,24,21
India,Bihar,Kishanganj,"SDM Office_Khagra, Kishanganj - BSPCB",12-11-2025 07:00:00,26.0881305,87.93840336,PM2.5,NA,NA,NA
India,Bihar,Manguraha,"Forest Rest House, Manguraha - BSPCB",12-11-2025 07:00:00,27.308328,84.531742,NO2,3,11,5
India,Bihar,Purnia,"Mariam Nagar, Purnia - BSPCB",12-11-2025 07:00:00,25.366336,87.117468,CO,48,70,56
India,Bihar,Purnia,"Mariam Nagar, Purnia - BSPCB",12-11-2025 07:00:00,25.366336,87.117468,OZONE,23,49,25
India,Bihar,Rajgir,"Dangi Tola, Rajgir - BSPCB",12-11-2025 07:00:00,25.03280,85.41948,NO2,8,10,9
India,Bihar,Rajgir,"Dangi Tola, Rajgir - BSPCB",12-11-2025 07:00:00,25.03280,85.41948,NH3,4,7,6
India,Bihar,Saharsa,"Police Line, Saharsa - BSPCB",12-11-2025 07:00:00,25.892357,86.590325,PM10,26,114,63
India,Bihar,Saharsa,"Police Line, Saharsa - BSPCB",12-11-2025 07:00:00,25.892357,86.590325,NH3,4,4,4
India,Bihar,Patna,"Govt. High School Shikarpur, Patna - BSPCB",12-11-2025 07:00:00,25.592539,85.227158,CO,44,79,55
India,Bihar,Patna,"IGSC Planetarium Complex, Patna - BSPCB",12-11-2025 07:00:00,25.610369,85.132568,PM2.5,83,288,172
India,Bihar,Patna,"Muradpur, Patna - BSPCB",12-11-2025 07:00:00,25.619651,85.147382,CO,22,78,52
India,Bihar,Gaya,"SFTI Kusdihra, Gaya - BSPCB",12-11-2025 07:00:00,24.762518,84.982348,OZONE,12,36,14
India,Bihar,Hajipur,"Industrial Area, Hajipur - BSPCB",12-11-2025 07:00:00,25.697189,85.245900,PM10,68,133,101
India,Bihar,Hajipur,"Industrial Area, Hajipur - BSPCB",12-11-2025 07:00:00,25.697189,85.245900,NO2,28,65,41
India,Bihar,Patna,"Samanpura, Patna - BSPCB",12-11-2025 07:00:00,25.596727,85.085624,NH3,5,7,6
India,Bihar,Purnia,"Mariam Nagar, Purnia - BSPCB",12-11-2025 07:00:00,25.366336,87.117468,PM2.5,67,315,159
India,Bihar,Purnia,"Mariam Nagar, Purnia - BSPCB",12-11-2025 07:00:00,25.366336,87.117468,NO2,5,6,6
India,Bihar,Chhapra,"Darshan Nagar, Chhapra - BSPCB",12-11-2025 07:00:00,25.7808257,84.7446768,NH3,4,6,5
India,Bihar,Gaya,"Collectorate, Gaya - BSPCB",12-11-2025 07:00:00,24.7955,84.9994,CO,34,66,44
India,Bihar,Buxar,"Charitra Van, Buxar - BSPCB",12-11-2025 07:00:00,25.567520,83.966379,PM10,33,131,99
India,Bihar,Buxar,"Charitra Van, Buxar - BSPCB",12-11-2025 07:00:00,25.567520,83.966379,NH3,3,3,3
India,Bihar,Buxar,"Charitra Van, Buxar - BSPCB",12-11-2025 07:00:00,25.567520,83.966379,CO,22,28,25
India,Bihar,Muzaffarpur,"Muzaffarpur Collectorate, Muzaffarpur - BSPCB",12-11-2025 07:00:00,26.1209,85.3647,PM2.5,88,118,105
India,Bihar,Munger,"Town Hall, Munger - BSPCB",12-11-2025 07:00:00,25.376776,86.471523,PM10,73,141,96
India,Chhattisgarh,Raipur,"Krishak Nagar, Raipur - CECB",12-11-2025 07:00:00,21.237755,81.705301,PM2.5,55,97,76
India,Chhattisgarh,Raipur,"Krishak Nagar, Raipur - CECB",12-11-2025 07:00:00,21.237755,81.705301,PM10,63,107,87
India,Chhattisgarh,Raipur,"Siltara Phase-II, Raipur - CECB",12-11-2025 07:00:00,21.371751,81.664929,PM10,67,143,111
India,Chhattisgarh,Tumidih,"OP Jindal Industrial Park, Tumidih - CECB",12-11-2025 07:00:00,22.06631475,83.33820077,PM2.5,51,86,68
India,Chhattisgarh,Bhilai,"32Bungalows, Bhilai - CECB",12-11-2025 07:00:00,21.194815,81.314770,NO2,12,96,44
India,Chhattisgarh,Bhilai,"32Bungalows, Bhilai - CECB",12-11-2025 07:00:00,21.194815,81.314770,OZONE,1,67,3
India,Chhattisgarh,Bhilai,"Civic Center, Bhilai - Bhilai Steel Plant",12-11-2025 07:00:00,21.185571,81.343175,PM2.5,9,83,41
India,Chhattisgarh,Bhilai,"Civic Center, Bhilai - Bhilai Steel Plant",12-11-2025 07:00:00,21.185571,81.343175,NO2,8,10,9
India,Delhi,Delhi,"Alipur, Delhi - DPCC",12-11-2025 07:00:00,28.815329,77.153010,NH3,4,4,4
India,Delhi,Delhi,"Anand Vihar, Delhi - DPCC",12-11-2025 07:00:00,28.647622,77.3158090,PM2.5,312,500,438
India,Delhi,Delhi,"Anand Vihar, Delhi - DPCC",12-11-2025 07:00:00,28.647622,77.3158090,NO2,102,255,170
India,Delhi,Delhi,"Anand Vihar, Delhi - DPCC",12-11-2025 07:00:00,28.647622,77.3158090,NH3,14,17,16
India,Chandigarh,Chandigarh,"Sector-25, Chandigarh - CPCC",12-11-2025 07:00:00,30.751462,76.762879,NH3,8,15,10
India,Chandigarh,Chandigarh,"Sector-25, Chandigarh - CPCC",12-11-2025 07:00:00,30.751462,76.762879,CO,12,33,22
India,Chandigarh,Chandigarh,"Sector-53, Chandigarh - CPCC",12-11-2025 07:00:00,30.719859,76.738637,SO2,7,32,11
India,Chandigarh,Chandigarh,"Sector-53, Chandigarh - CPCC",12-11-2025 07:00:00,30.719859,76.738637,CO,30,102,52
India,Chhattisgarh,Bilaspur,"Mangala, Bilaspur - NTPC",12-11-2025 07:00:00,22.08815,82.13737,PM10,56,109,83
India,Chhattisgarh,Bilaspur,"Mangala, Bilaspur - NTPC",12-11-2025 07:00:00,22.08815,82.13737,NO2,16,28,22
India,Chhattisgarh,Chhal,"Nawapara SECL Colony, Chhal - CECB",12-11-2025 07:00:00,22.118125,83.140608,NO2,12,33,18
India,Bihar,Samastipur,"DM Office_Kasipur, Samastipur - BSPCB",12-11-2025 07:00:00,25.859655,85.77944,NH3,2,2,2
India,Bihar,Samastipur,"DM Office_Kasipur, Samastipur - BSPCB",12-11-2025 07:00:00,25.859655,85.77944,SO2,27,35,31
India,Bihar,Samastipur,"DM Office_Kasipur, Samastipur - BSPCB",12-11-2025 07:00:00,25.859655,85.77944,OZONE,8,9,8
India,Chhattisgarh,Raipur,"AIIMS, Raipur - CECB",12-11-2025 07:00:00,21.258815,81.578979,PM10,41,175,110
India,Chhattisgarh,Raipur,"AIIMS, Raipur - CECB",12-11-2025 07:00:00,21.258815,81.578979,NO2,41,52,46
India,Chhattisgarh,Raipur,"AIIMS, Raipur - CECB",12-11-2025 07:00:00,21.258815,81.578979,CO,34,74,55
India,Chhattisgarh,Kunjemura,"OP Jindal School, Kunjemura - CECB",12-11-2025 07:00:00,22.126650,83.483212,NO2,3,22,6
India,Chhattisgarh,Kunjemura,"OP Jindal School, Kunjemura - CECB",12-11-2025 07:00:00,22.126650,83.483212,SO2,3,17,8
India,Chandigarh,Chandigarh,"Sector 22, Chandigarh - CPCC",12-11-2025 07:00:00,30.735567,76.775714,PM10,41,131,70
India,Delhi,Delhi,"Ashok Vihar, Delhi - DPCC",12-11-2025 07:00:00,28.695381,77.181665,OZONE,1,156,12
India,Delhi,Delhi,"Aya Nagar, Delhi - IMD",12-11-2025 07:00:00,28.4706914,77.1099364,PM2.5,313,500,405
India,Delhi,Delhi,"Aya Nagar, Delhi - IMD",12-11-2025 07:00:00,28.4706914,77.1099364,OZONE,5,202,22
India,Delhi,Delhi,"Bawana, Delhi - DPCC",12-11-2025 07:00:00,28.776200,77.051074,SO2,6,37,20
India,Delhi,Delhi,"Bawana, Delhi - DPCC",12-11-2025 07:00:00,28.776200,77.051074,CO,42,102,101
India,Delhi,Delhi,"Burari Crossing, Delhi - IMD",12-11-2025 07:00:00,28.7256504,77.2011573,PM10,184,500,395
India,Delhi,Delhi,"Najafgarh, Delhi - DPCC",12-11-2025 07:00:00,28.570173,76.933762,SO2,11,28,19
India,Delhi,Delhi,"Najafgarh, Delhi - DPCC",12-11-2025 07:00:00,28.570173,76.933762,OZONE,6,20,6
India,Delhi,Delhi,"Narela, Delhi - DPCC",12-11-2025 07:00:00,28.822836,77.101981,PM2.5,308,500,437
India,Delhi,Delhi,"Narela, Delhi - DPCC",12-11-2025 07:00:00,28.822836,77.101981,NO2,19,80,45
India,Delhi,Delhi,"Narela, Delhi - DPCC",12-11-2025 07:00:00,28.822836,77.101981,CO,10,102,87
India,Delhi,Delhi,"Nehru Nagar, Delhi - DPCC",12-11-2025 07:00:00,28.567890,77.250515,NO2,42,141,88
India,Delhi,Delhi,"Nehru Nagar, Delhi - DPCC",12-11-2025 07:00:00,28.567890,77.250515,NH3,8,15,12
India,Delhi,Delhi,"Dwarka-Sector 8, Delhi - DPCC ",12-11-2025 07:00:00,28.5710274,77.0719006,OZONE,2,210,15
India,Delhi,Delhi,"IGI Airport (T3), Delhi - IMD",12-11-2025 07:00:00,28.5627763,77.1180053,PM10,211,500,373
India,Delhi,Delhi,"IGI Airport (T3), Delhi - IMD",12-11-2025 07:00:00,28.5627763,77.1180053,NO2,116,254,180
India,Delhi,Delhi,"IHBAS, Dilshad Garden, Delhi - CPCB",12-11-2025 07:00:00,28.6811736,77.3025234,PM10,172,421,307
India,Delhi,Delhi,"ITO, Delhi - CPCB",12-11-2025 07:00:00,28.628624,77.241060,PM10,86,500,389
India,Delhi,Delhi,"Lodhi Road, Delhi - IMD",12-11-2025 07:00:00,28.5918245,77.2273074,CO,32,87,77
India,Delhi,Delhi,"Major Dhyan Chand National Stadium, Delhi - DPCC",12-11-2025 07:00:00,28.611281,77.237738,SO2,18,40,30
India,Delhi,Delhi,"Mundka, Delhi - DPCC",12-11-2025 07:00:00,28.684678,77.076574,PM2.5,323,500,443
India,Delhi,Delhi,"Mundka, Delhi - DPCC",12-11-2025 07:00:00,28.684678,77.076574,NH3,9,22,15
India,Delhi,Delhi,"Mundka, Delhi - DPCC",12-11-2025 07:00:00,28.684678,77.076574,OZONE,2,128,5
India,Delhi,Delhi,"NSIT Dwarka, Delhi - CPCB",12-11-2025 07:00:00,28.60909,77.0325413,OZONE,7,85,8
India,Delhi,Delhi,"Dr. Karni Singh Shooting Range, Delhi - DPCC",12-11-2025 07:00:00,28.498571,77.264840,CO,2,74,63
India,Delhi,Delhi,"Dwarka-Sector 8, Delhi - DPCC ",12-11-2025 07:00:00,28.5710274,77.0719006,PM10,245,500,414
India,Delhi,Delhi,"Punjabi Bagh, Delhi - DPCC",12-11-2025 07:00:00,28.674045,77.131023,PM2.5,315,500,437
India,Delhi,Delhi,"Punjabi Bagh, Delhi - DPCC",12-11-2025 07:00:00,28.674045,77.131023,CO,40,106,73
India,Delhi,Delhi,"Pusa, Delhi - IMD",12-11-2025 07:00:00,28.636110,77.173332,OZONE,2,175,14
India,Delhi,Delhi,"Okhla Phase-2, Delhi - DPCC",12-11-2025 07:00:00,28.530785,77.271255,PM10,233,485,373
India,Delhi,Delhi,"Okhla Phase-2, Delhi - DPCC",12-11-2025 07:00:00,28.530785,77.271255,SO2,16,26,20
India,Delhi,Delhi,"Okhla Phase-2, Delhi - DPCC",12-11-2025 07:00:00,28.530785,77.271255,OZONE,5,263,11
India,Delhi,Delhi,"Jawaharlal Nehru Stadium, Delhi - DPCC",12-11-2025 07:00:00,28.580280,77.233829,PM2.5,314,500,421
India,Delhi,Delhi,"Lodhi Road, Delhi - IITM",12-11-2025 07:00:00,28.588333,77.221667,NO2,46,207,116
India,Gujarat,Gandhinagar,"IIPHG Lekawada, Gandhinagar - IITM",12-11-2025 07:00:00,23.243639,72.68994,CO,14,107,75
India,Gujarat,Gandhinagar,"Sector-10, Gandhinagar - GPCB",12-11-2025 07:00:00,23.221714,72.654328,PM10,82,213,144
India,Gujarat,Gandhinagar,"Sector-10, Gandhinagar - GPCB",12-11-2025 07:00:00,23.221714,72.654328,OZONE,8,113,11
India,Gujarat,Surat,"Science Center, Surat - SMC",12-11-2025 07:00:00,21.170046,72.795405,NO2,4,15,8
India,Delhi,Delhi,"R K Puram, Delhi - DPCC",12-11-2025 07:00:00,28.563262,77.186937,NH3,4,6,5
India,Delhi,Delhi,"R K Puram, Delhi - DPCC",12-11-2025 07:00:00,28.563262,77.186937,OZONE,4,258,8
India,Delhi,Delhi,"Shadipur, Delhi - CPCB",12-11-2025 07:00:00,28.6514781,77.1473105,OZONE,16,55,18
India,Delhi,Delhi,"Sirifort, Delhi - CPCB",12-11-2025 07:00:00,28.5504249,77.2159377,PM2.5,324,500,318
India,Delhi,Delhi,"Sirifort, Delhi - CPCB",12-11-2025 07:00:00,28.5504249,77.2159377,PM10,211,482,402
India,Delhi,Delhi,"Sirifort, Delhi - CPCB",12-11-2025 07:00:00,28.5504249,77.2159377,NH3,7,13,10
India,Delhi,Delhi,"Sonia Vihar, Delhi - DPCC",12-11-2025 07:00:00,28.710508,77.249485,CO,20,118,110
India,Gujarat,Ahmedabad,"Rakhial, Ahmedabad - IITM",12-11-2025 07:00:00,23.016834,72.625775,PM2.5,64,374,203
India,Gujarat,Ahmedabad,"SAC ISRO Bopal, Ahmedabad - IITM",12-11-2025 07:00:00,23.041137,72.456691,OZONE,1,98,4
India,Gujarat,Ahmedabad,"Gyaspur, Ahmedabad - IITM",12-11-2025 07:00:00,22.977134,72.553024,OZONE,2,50,5
India,Gujarat,Ahmedabad,"Maninagar, Ahmedabad - GPCB",12-11-2025 07:00:00,23.002657,72.591912,SO2,28,46,39
India,Delhi,Delhi,"Vivek Vihar, Delhi - DPCC",12-11-2025 07:00:00,28.672342,77.315260,PM10,197,492,389
India,Delhi,Delhi,"Vivek Vihar, Delhi - DPCC",12-11-2025 07:00:00,28.672342,77.315260,NO2,40,169,93
India,Gujarat,Vatva,"Phase-4 GIDC, Vatva - GPCB",12-11-2025 07:00:00,22.969611,72.643500,PM10,34,173,93
India,Gujarat,Vatva,"Phase-4 GIDC, Vatva - GPCB",12-11-2025 07:00:00,22.969611,72.643500,OZONE,18,109,48
India,Gujarat,Ahmedabad,"SVPI Airport Hansol, Ahmedabad - IITM",12-11-2025 07:00:00,23.076793,72.627874,OZONE,1,50,1
India,Gujarat,Ahmedabad,"Chandkheda, Ahmedabad - IITM",12-11-2025 07:00:00,23.107969,72.574648,NH3,5,38,17
India,Haryana,Kaithal,"Rishi Nagar, Kaithal - HSPCB",12-11-2025 07:00:00,29.8006,76.4155,PM10,141,407,230
India,Haryana,Kaithal,"Rishi Nagar, Kaithal - HSPCB",12-11-2025 07:00:00,29.8006,76.4155,NO2,12,33,30
India,Haryana,Kaithal,"Rishi Nagar, Kaithal - HSPCB",12-11-2025 07:00:00,29.8006,76.4155,NH3,2,6,6
India,Haryana,Kaithal,"Rishi Nagar, Kaithal - HSPCB",12-11-2025 07:00:00,29.8006,76.4155,SO2,27,33,31
India,Haryana,Karnal,"Sector-12, Karnal - HSPCB",12-11-2025 07:00:00,29.695300,77.002700,PM10,49,161,106
India,Haryana,Karnal,"Sector-12, Karnal - HSPCB",12-11-2025 07:00:00,29.695300,77.002700,NO2,9,11,10
India,Haryana,Karnal,"Sector-12, Karnal - HSPCB",12-11-2025 07:00:00,29.695300,77.002700,CO,38,59,47
India,Haryana,Gurugram,"Vikas Sadan, Gurugram - HSPCB",12-11-2025 07:00:00,28.4501238,77.0263051,PM10,125,234,176
India,Haryana,Gurugram,"Vikas Sadan, Gurugram - HSPCB",12-11-2025 07:00:00,28.4501238,77.0263051,SO2,3,8,5
India,Haryana,Gurugram,"Vikas Sadan, Gurugram - HSPCB",12-11-2025 07:00:00,28.4501238,77.0263051,CO,90,134,114
India,Haryana,Hisar,"Urban Estate-II, Hisar - HSPCB",12-11-2025 07:00:00,29.140560,75.744941,NO2,11,12,12
India,Haryana,Hisar,"Urban Estate-II, Hisar - HSPCB",12-11-2025 07:00:00,29.140560,75.744941,NH3,4,5,5
India,Haryana,Mandikhera,"General Hospital, Mandikhera - HSPCB",12-11-2025 07:00:00,27.9002,76.9938,PM2.5,72,201,119
India,Haryana,Mandikhera,"General Hospital, Mandikhera - HSPCB",12-11-2025 07:00:00,27.9002,76.9938,NO2,19,24,21
India,Haryana,Mandikhera,"General Hospital, Mandikhera - HSPCB",12-11-2025 07:00:00,27.9002,76.9938,CO,83,114,87
India,Haryana,Manesar,"Sector-2 IMT, Manesar - HSPCB",12-11-2025 07:00:00,28.360699,76.936090,PM10,92,351,170
India,Haryana,Faridabad,"Sector 30, Faridabad - HSPCB",12-11-2025 07:00:00,28.4417,77.3217,NH3,11,12,11
India,Haryana,Faridabad,"Sector 30, Faridabad - HSPCB",12-11-2025 07:00:00,28.4417,77.3217,CO,18,66,62
India,Haryana,Fatehabad,"Huda Sector, Fatehabad - HSPCB",12-11-2025 07:00:00,29.503664,75.467934,PM10,183,500,378
India,Haryana,Fatehabad,"Huda Sector, Fatehabad - HSPCB",12-11-2025 07:00:00,29.503664,75.467934,NH3,13,14,14
India,Haryana,Dharuhera,"Municipal Corporation Office, Dharuhera -  HSPCB",12-11-2025 07:00:00,28.206800,76.799700,SO2,10,22,15
India,Haryana,Faridabad,"New Industrial Town, Faridabad - HSPCB",12-11-2025 07:00:00,28.39072,77.30059,CO,8,13,12
India,Haryana,Ballabgarh,"Nathu Colony, Ballabgarh - HSPCB",12-11-2025 07:00:00,28.3419248,77.319699,PM2.5,97,137,112
India,Haryana,Ballabgarh,"Nathu Colony, Ballabgarh - HSPCB",12-11-2025 07:00:00,28.3419248,77.319699,OZONE,15,15,15
India,Haryana,Bhiwani,"H.B. Colony, Bhiwani - HSPCB",12-11-2025 07:00:00,28.806223,76.141105,NH3,1,8,8
India,Haryana,Bhiwani,"H.B. Colony, Bhiwani - HSPCB",12-11-2025 07:00:00,28.806223,76.141105,OZONE,6,19,13
India,Haryana,Gurugram,"Sector-51, Gurugram - HSPCB",12-11-2025 07:00:00,28.4227,77.0667,PM2.5,192,435,368
India,Haryana,Gurugram,"Sector-51, Gurugram - HSPCB",12-11-2025 07:00:00,28.4227,77.0667,PM10,136,438,332
India,Haryana,Panchgaon,"Amity University, Panchgaon - IITM",12-11-2025 07:00:00,28.3153,76.9143,NH3,11,24,17
India,Karnataka,Chamarajanagar,"Urban, Chamarajanagar - KSPCB",12-11-2025 07:00:00,11.55358,76.55521,NH3,1,3,2
India,Karnataka,Chikkamagaluru,"Kalyana Nagara, Chikkamagaluru - KSPCB",12-11-2025 07:00:00,13.328028,75.797056,PM2.5,2,70,44
India,Karnataka,Davanagere,"Devaraj Urs Badavane, Davanagere - KSPCB",12-11-2025 07:00:00,14.475800,75.905200,PM10,57,116,91
India,Karnataka,Davanagere,"Devaraj Urs Badavane, Davanagere - KSPCB",12-11-2025 07:00:00,14.475800,75.905200,NH3,1,4,2
India,Karnataka,Davanagere,"Devaraj Urs Badavane, Davanagere - KSPCB",12-11-2025 07:00:00,14.475800,75.905200,OZONE,20,22,21
India,Haryana,Panchkula,"Sector-6, Panchkula - HSPCB ",12-11-2025 07:00:00,30.7057778,76.8531805555555,OZONE,17,36,26
India,Haryana,Panipat,"Sector-18, Panipat - HSPCB",12-11-2025 07:00:00,29.432304,76.972765,PM2.5,96,447,257
India,Haryana,Panipat,"Sector-18, Panipat - HSPCB",12-11-2025 07:00:00,29.432304,76.972765,NH3,2,3,2
India,Haryana,Panipat,"Sector-18, Panipat - HSPCB",12-11-2025 07:00:00,29.432304,76.972765,OZONE,30,30,30
India,Haryana,Sirsa,"F-Block, Sirsa - HSPCB",12-11-2025 07:00:00,29.536400,75.015800,NH3,10,18,13
India,Karnataka,Bengaluru,"BWSSB Kadabesanahalli, Bengaluru - CPCB",12-11-2025 07:00:00,12.9352049,77.6814488,NH3,4,5,5
India,Karnataka,Bengaluru,"BWSSB Kadabesanahalli, Bengaluru - CPCB",12-11-2025 07:00:00,12.9352049,77.6814488,SO2,2,11,5
India,Karnataka,Bengaluru,"City Railway Station, Bengaluru - KSPCB",12-11-2025 07:00:00,12.9756843,77.5660749,SO2,11,20,15
India,Karnataka,Bengaluru,"City Railway Station, Bengaluru - KSPCB",12-11-2025 07:00:00,12.9756843,77.5660749,CO,86,88,86
India,Karnataka,Bengaluru,"Hebbal, Bengaluru - KSPCB",12-11-2025 07:00:00,13.029152,77.585901,PM2.5,66,153,99
India,Haryana,Sirsa,"F-Block, Sirsa - HSPCB",12-11-2025 07:00:00,29.536400,75.015800,CO,78,109,105
India,Haryana,Sonipat,"Murthal, Sonipat - HSPCB",12-11-2025 07:00:00,29.027200,77.062100,CO,36,38,37
India,Haryana,Yamuna Nagar,"Gobind Pura, Yamuna Nagar - HSPCB",12-11-2025 07:00:00,30.1480566,77.2893471,PM2.5,17,238,167
India,Haryana,Yamuna Nagar,"Gobind Pura, Yamuna Nagar - HSPCB",12-11-2025 07:00:00,30.1480566,77.2893471,NO2,11,11,11
India,Haryana,Yamuna Nagar,"Gobind Pura, Yamuna Nagar - HSPCB",12-11-2025 07:00:00,30.1480566,77.2893471,OZONE,38,38,38
India,Karnataka,Belgaum,"Ramteerth Nagar, Belgaum - KSPCB",12-11-2025 07:00:00,15.888653,74.541751,PM2.5,22,166,66
India,Karnataka,Belgaum,"Ramteerth Nagar, Belgaum - KSPCB",12-11-2025 07:00:00,15.888653,74.541751,NO2,6,77,39
India,Karnataka,Belgaum,"Ramteerth Nagar, Belgaum - KSPCB",12-11-2025 07:00:00,15.888653,74.541751,CO,14,19,17
India,Karnataka,Belgaum,"Ramteerth Nagar, Belgaum - KSPCB",12-11-2025 07:00:00,15.888653,74.541751,OZONE,19,20,19
India,Karnataka,Bengaluru,"BTM Layout, Bengaluru - CPCB",12-11-2025 07:00:00,12.9135218,77.5950804,PM10,73,75,74
India,Jharkhand,Dhanbad,"Sardar Patel Nagar, Dhanbad - JSPCB",12-11-2025 07:00:00,23.80569,86.44268,PM2.5,NA,NA,NA
India,Jharkhand,Dhanbad,"Sardar Patel Nagar, Dhanbad - JSPCB",12-11-2025 07:00:00,23.80569,86.44268,SO2,NA,NA,NA
India,Jharkhand,Dhanbad,"Sardar Patel Nagar, Dhanbad - JSPCB",12-11-2025 07:00:00,23.80569,86.44268,CO,NA,NA,NA
India,Jharkhand,Jorapokhar,"Tata Stadium, Jorapokhar - JSPCB",12-11-2025 07:00:00,23.707909,86.414670,PM10,NA,NA,NA
India,Karnataka,Bagalkot,"Vidayagiri, Bagalkot - KSPCB",12-11-2025 07:00:00,16.172806,75.659694,PM2.5,35,36,35
India,Karnataka,Bengaluru,"Shivapura_Peenya, Bengaluru - KSPCB",12-11-2025 07:00:00,13.0246342,77.5080115,SO2,6,12,9
India,Karnataka,Bengaluru,"Silk Board, Bengaluru - KSPCB",12-11-2025 07:00:00,12.917348,77.622813,OZONE,18,19,19
India,Karnataka,Bidar,"Naubad, Bidar - KSPCB",12-11-2025 07:00:00,17.930306,77.482194,PM10,NA,NA,NA
India,Karnataka,Bengaluru,"Hombegowda Nagar, Bengaluru - KSPCB",12-11-2025 07:00:00,12.938539,77.590100,CO,17,68,22
India,Karnataka,Bengaluru,"Jigani, Bengaluru - KSPCB",12-11-2025 07:00:00,12.7816279,77.6299145,PM10,39,500,126
India,Karnataka,Bengaluru,"Jigani, Bengaluru - KSPCB",12-11-2025 07:00:00,12.7816279,77.6299145,NO2,20,21,20
India,Karnataka,Bengaluru,"Kasturi Nagar, Bengaluru - KSPCB",12-11-2025 07:00:00,13.003872,77.664217,SO2,10,12,11
India,Karnataka,Kalaburagi,"Lal Bahadur Shastri Nagar, Kalaburagi - KSPCB",12-11-2025 07:00:00,17.321993,76.822628,OZONE,20,20,20
India,Karnataka,Kalaburagi,"Mahatma Basaveswar Colony, Kalaburgi - KSPCB",12-11-2025 07:00:00,17.336318,76.847397,PM10,25,89,45
India,Karnataka,Kalaburagi,"Mahatma Basaveswar Colony, Kalaburgi - KSPCB",12-11-2025 07:00:00,17.336318,76.847397,NO2,12,19,15
India,Karnataka,Kalaburagi,"Mahatma Basaveswar Colony, Kalaburgi - KSPCB",12-11-2025 07:00:00,17.336318,76.847397,NH3,3,4,3
India,Karnataka,Kalaburagi,"Mahatma Basaveswar Colony, Kalaburgi - KSPCB",12-11-2025 07:00:00,17.336318,76.847397,CO,36,72,40
India,Karnataka,Koppal,"Diwator Nagar, Koppal - KSPCB",12-11-2025 07:00:00,15.347630,76.181767,PM10,41,78,59
India,Karnataka,Koppal,"Diwator Nagar, Koppal - KSPCB",12-11-2025 07:00:00,15.347630,76.181767,NH3,7,7,7
India,Kerala,Thiruvananthapuram,"Plammoodu, Thiruvananthapuram - Kerala PCB",12-11-2025 07:00:00,8.5149093,76.9435879,OZONE,8,46,21
India,Kerala,Thrissur,"Corporation Ground, Thrissur - Kerala PCB",12-11-2025 07:00:00,10.532400,76.215900,OZONE,NA,NA,NA
India,Madhya Pradesh,Bhopal,"Idgah Hills, Bhopal - MPPCB",12-11-2025 07:00:00,23.264759,77.381568,NO2,13,56,26
India,Kerala,Eloor,"Udyogamandal, Eloor - Kerala PCB",12-11-2025 07:00:00,10.073232,76.302765,OZONE,9,16,11
India,Kerala,Kannur,"Thavakkara, Kannur - Kerala PCB",12-11-2025 07:00:00,11.875000,75.373200,CO,15,18,16
India,Kerala,Kollam,"Polayathode, Kollam - Kerala PCB",12-11-2025 07:00:00,8.8787,76.6073,NH3,NA,NA,NA
India,Karnataka,Dharwad,"Kalabhavan, Dharwad - KSPCB",12-11-2025 07:00:00,15.459706,75.008381,NO2,22,27,26
India,Karnataka,Dharwad,"Kalabhavan, Dharwad - KSPCB",12-11-2025 07:00:00,15.459706,75.008381,OZONE,21,27,21
India,Karnataka,Gadag,"Panchal Nagar, Gadag - KSPCB",12-11-2025 07:00:00,15.411456,75.638133,PM2.5,17,30,23
India,Karnataka,Gadag,"Panchal Nagar, Gadag - KSPCB",12-11-2025 07:00:00,15.411456,75.638133,PM10,14,25,20
India,Karnataka,Mysuru,"Hebbal 1st Stage, Mysuru - KSPCB",12-11-2025 07:00:00,12.21041,76.37376,NO2,15,27,20
India,Karnataka,Shivamogga,"Vinoba Nagara, Shivamogga - KSPCB",12-11-2025 07:00:00,13.940000,75.555917,PM10,65,69,68
India,Karnataka,Vijayapura,"Ibrahimpur, Vijayapura - KSPCB",12-11-2025 07:00:00,16.802639,75.722694,OZONE,14,17,16
India,Karnataka,Yadgir,"Collector Office, Yadgir - KSPCB",12-11-2025 07:00:00,16.7602,77.1428,PM2.5,72,122,88
India,Madhya Pradesh,Bhopal,"Idgah Hills, Bhopal - MPPCB",12-11-2025 07:00:00,23.264759,77.381568,CO,25,61,28
India,Madhya Pradesh,Bhopal,"Paryavaran Parisar, Bhopal - MPPCB",12-11-2025 07:00:00,23.210494,77.425409,OZONE,16,93,48
India,Karnataka,Udupi,"Brahmagiri, Udupi - KSPCB",12-11-2025 07:00:00,13.34194444,74.74694444,NO2,2,56,18
India,Karnataka,Udupi,"Brahmagiri, Udupi - KSPCB",12-11-2025 07:00:00,13.34194444,74.74694444,NH3,1,2,2
India,Karnataka,Udupi,"Brahmagiri, Udupi - KSPCB",12-11-2025 07:00:00,13.34194444,74.74694444,OZONE,8,8,8
India,Karnataka,Mangalore,"Kadri, Mangalore - KSPCB",12-11-2025 07:00:00,12.889250,74.853000,PM2.5,53,94,69
India,Karnataka,Mangalore,"Kadri, Mangalore - KSPCB",12-11-2025 07:00:00,12.889250,74.853000,SO2,14,15,14
India,Maharashtra,Ahmednagar,"Tarakpur, Ahmednagar - MPCB",12-11-2025 07:00:00,19.10122,74.73339,NH3,5,7,5
India,Maharashtra,Akola,"Ramdaspeth, Akola - MPCB",12-11-2025 07:00:00,20.719516,77.000253,NO2,14,85,28
India,Maharashtra,Akola,"Ramdaspeth, Akola - MPCB",12-11-2025 07:00:00,20.719516,77.000253,OZONE,1,58,2
India,Maharashtra,Amravati,"Shivneri Colony, Amravati - MPCB",12-11-2025 07:00:00,20.9402359,77.7895248,PM10,112,233,143
India,Maharashtra,Amravati,"Shivneri Colony, Amravati - MPCB",12-11-2025 07:00:00,20.9402359,77.7895248,NO2,10,41,21
India,Madhya Pradesh,Mandideep,"Sector-D Industrial Area, Mandideep - MPPCB",12-11-2025 07:00:00,23.108440,77.511428,PM2.5,114,413,288
India,Madhya Pradesh,Mandideep,"Sector-D Industrial Area, Mandideep - MPPCB",12-11-2025 07:00:00,23.108440,77.511428,PM10,110,369,215
India,Madhya Pradesh,Mandideep,"Sector-D Industrial Area, Mandideep - MPPCB",12-11-2025 07:00:00,23.108440,77.511428,CO,18,113,97
India,Madhya Pradesh,Pithampur,"Sector-2 Industrial Area, Pithampur - MPPCB",12-11-2025 07:00:00,22.624758,75.675238,PM10,107,240,161
India,Madhya Pradesh,Pithampur,"Sector-2 Industrial Area, Pithampur - MPPCB",12-11-2025 07:00:00,22.624758,75.675238,NH3,1,4,3
India,Madhya Pradesh,Gwalior,"City Center, Gwalior - MPPCB",12-11-2025 07:00:00,26.203442,78.193251,NH3,2,5,3
India,Madhya Pradesh,Gwalior,"Deen Dayal Nagar, Gwalior - MPPCB",12-11-2025 07:00:00,26.259242,78.216432,PM10,89,451,201
India,Madhya Pradesh,Gwalior,"Deen Dayal Nagar, Gwalior - MPPCB",12-11-2025 07:00:00,26.259242,78.216432,CO,14,142,57
India,Madhya Pradesh,Gwalior,"Maharaj Bada, Gwalior - MPPCB",12-11-2025 07:00:00,26.200388,78.147714,NH3,3,4,4
India,Madhya Pradesh,Jabalpur,"Marhatal, Jabalpur - MPPCB",12-11-2025 07:00:00,23.168606,79.932247,NO2,13,155,49
India,Madhya Pradesh,Jabalpur,"Suhagi, Jabalpur - JMC",12-11-2025 07:00:00,23.218135,79.957770,NO2,22,149,57
India,Madhya Pradesh,Jabalpur,"Suhagi, Jabalpur - JMC",12-11-2025 07:00:00,23.218135,79.957770,NH3,1,6,2
India,Madhya Pradesh,Jabalpur,"Suhagi, Jabalpur - JMC",12-11-2025 07:00:00,23.218135,79.957770,OZONE,20,139,31
India,Madhya Pradesh,Indore,"Residency Area, Indore - IMC",12-11-2025 07:00:00,22.7084,75.8815,PM10,NA,NA,NA
India,Madhya Pradesh,Indore,"Residency Area, Indore - IMC",12-11-2025 07:00:00,22.7084,75.8815,NO2,NA,NA,NA
India,Madhya Pradesh,Indore,"Residency Area, Indore - IMC",12-11-2025 07:00:00,22.7084,75.8815,OZONE,NA,NA,NA
India,Madhya Pradesh,Jabalpur,"Gupteshwar, Jabalpur - JMC",12-11-2025 07:00:00,23.142888,79.916147,SO2,7,10,8
India,Madhya Pradesh,Gwalior,"Maharaj Bada, Gwalior - MPPCB",12-11-2025 07:00:00,26.200388,78.147714,CO,2,110,28
India,Madhya Pradesh,Indore,"Regional Park, Indore - IMC",12-11-2025 07:00:00,22.6780,75.8559,NH3,NA,NA,NA
India,Madhya Pradesh,Indore,"Regional Park, Indore - IMC",12-11-2025 07:00:00,22.6780,75.8559,CO,22,36,28
India,Madhya Pradesh,Satna,"Bandhavgar Colony, Satna - Birla Cement",12-11-2025 07:00:00,24.58434363,80.8549414,SO2,19,25,21
India,Madhya Pradesh,Singrauli,"Suryakiran Bhawan NCL, Singrauli - MPPCB",12-11-2025 07:00:00,24.108970,82.645580,NH3,7,12,9
India,Madhya Pradesh,Dewas,"Bhopal Chauraha, Dewas - MPPCB",12-11-2025 07:00:00,22.9682591,76.064118,NH3,2,2,2
India,Madhya Pradesh,Dewas,"Bhopal Chauraha, Dewas - MPPCB",12-11-2025 07:00:00,22.9682591,76.064118,OZONE,20,25,23
India,Madhya Pradesh,Ratlam,"Shasthri Nagar, Ratlam - IPCA Lab",12-11-2025 07:00:00,23.331731,75.045981,PM2.5,11,226,83
India,Maharashtra,Bhiwandi,"Gokul Nagar, Bhiwandi - MPCB",12-11-2025 07:00:00,19.309073,73.057223,PM2.5,45,199,96
India,Maharashtra,Bhiwandi,"Gokul Nagar, Bhiwandi - MPCB",12-11-2025 07:00:00,19.309073,73.057223,NH3,3,7,5
India,Maharashtra,Boisar,"Khaira, Boisar - MPCB",12-11-2025 07:00:00,19.786089,72.757971,PM10,72,139,103
India,Maharashtra,Boisar,"Khaira, Boisar - MPCB",12-11-2025 07:00:00,19.786089,72.757971,NH3,4,8,5
India,Maharashtra,Chandrapur,"Chauhan Colony, Chandrapur - MPCB",12-11-2025 07:00:00,19.962900,79.298714,PM10,98,177,136
India,Maharashtra,Aurangabad,"Rachnakar Colony, Aurangabad - MPCB",12-11-2025 07:00:00,19.863756,75.321188,PM2.5,53,186,114
India,Maharashtra,Aurangabad,"Rachnakar Colony, Aurangabad - MPCB",12-11-2025 07:00:00,19.863756,75.321188,PM10,50,124,93
India,Maharashtra,Aurangabad,"Rachnakar Colony, Aurangabad - MPCB",12-11-2025 07:00:00,19.863756,75.321188,NO2,13,26,19
India,Maharashtra,Aurangabad,"Rachnakar Colony, Aurangabad - MPCB",12-11-2025 07:00:00,19.863756,75.321188,OZONE,9,75,12
India,Maharashtra,Belapur,"CBD Belapur, Belapur - MPCB",12-11-2025 07:00:00,19.0243902,73.0406721,NO2,18,20,19
India,Maharashtra,Kalyan,"Khadakpada, Kalyan - MPCB",12-11-2025 07:00:00,19.25292,73.142019,PM2.5,24,137,59
India,Maharashtra,Kalyan,"Khadakpada, Kalyan - MPCB",12-11-2025 07:00:00,19.25292,73.142019,PM10,58,139,82
India,Maharashtra,Kalyan,"Khadakpada, Kalyan - MPCB",12-11-2025 07:00:00,19.25292,73.142019,NH3,1,1,1
India,Maharashtra,Kolhapur,"Sinchan Bhavan, Kolhapur - MPCB",12-11-2025 07:00:00,16.7143745,74.2426398,PM10,31,120,87
India,Maharashtra,Kolhapur,"Sinchan Bhavan, Kolhapur - MPCB",12-11-2025 07:00:00,16.7143745,74.2426398,NO2,10,76,30
India,Maharashtra,Mira-Bhayandar,"Bhayandar West, Mira-Bhayandar - MPCB",12-11-2025 07:00:00,19.296481,72.840923,CO,10,56,30
India,Maharashtra,Mumbai,"Bandra Kurla Complex, Mumbai - IITM",12-11-2025 07:00:00,19.053536,72.84643,SO2,4,8,5
India,Maharashtra,Mumbai,"Bandra Kurla Complex, Mumbai - MPCB",12-11-2025 07:00:00,19.065931,72.862131,NO2,22,87,55
India,Maharashtra,Mumbai,"Bandra Kurla Complex, Mumbai - MPCB",12-11-2025 07:00:00,19.065931,72.862131,OZONE,2,173,8
India,Maharashtra,Jalgaon,"Prabhat Colony, Jalgaon - MPCB",12-11-2025 07:00:00,21.001264,75.565602,CO,20,74,32
India,Maharashtra,Jalgaon,"Prabhat Colony, Jalgaon - MPCB",12-11-2025 07:00:00,21.001264,75.565602,OZONE,2,87,13
India,Maharashtra,Aurangabad,"MIDC Chilkalthana, Aurangabad - MPCB",12-11-2025 07:00:00,19.875620,75.387310,PM2.5,3,119,32
India,Maharashtra,Chandrapur,"MIDC Khutala, Chandrapur - MPCB",12-11-2025 07:00:00,19.9775302,79.2337086,NH3,2,10,5
India,Maharashtra,Malegaon,"Mahesh Nagar, Malegaon - MPCB",12-11-2025 07:00:00,20.555712,74.529236,CO,40,48,45
India,Maharashtra,Latur,"Sawe Wadi, Latur - MPCB",12-11-2025 07:00:00,18.39963,76.57452,CO,18,42,24
India,Maharashtra,Mumbai,"Deonar, Mumbai - IITM",12-11-2025 07:00:00,19.04946,72.9230,NO2,18,82,40
India,Maharashtra,Mumbai,"Deonar, Mumbai - IITM",12-11-2025 07:00:00,19.04946,72.9230,CO,24,102,46
India,Maharashtra,Mumbai,"Deonar, Mumbai - IITM",12-11-2025 07:00:00,19.04946,72.9230,OZONE,1,65,10
India,Maharashtra,Mumbai,"Ghatkopar, Mumbai - BMC",12-11-2025 07:00:00,19.083694,72.920967,NO2,21,78,48
India,Maharashtra,Mumbai,"Ghatkopar, Mumbai - BMC",12-11-2025 07:00:00,19.083694,72.920967,NH3,3,10,6
India,Maharashtra,Mumbai,"Kurla, Mumbai - MPCB",12-11-2025 07:00:00,19.0863,72.8888,PM2.5,71,121,89
India,Maharashtra,Mumbai,"Kurla, Mumbai - MPCB",12-11-2025 07:00:00,19.0863,72.8888,PM10,91,133,111
India,Maharashtra,Mumbai,"Kurla, Mumbai - MPCB",12-11-2025 07:00:00,19.0863,72.8888,SO2,36,37,37
India,Maharashtra,Mumbai,"Kherwadi_Bandra East, Mumbai - MPCB",12-11-2025 07:00:00,19.0632143,72.8456324,SO2,3,4,3
India,Maharashtra,Mumbai,"Khindipada-Bhandup West, Mumbai - IITM",12-11-2025 07:00:00,19.1653323,72.922099,NH3,3,4,3
India,Maharashtra,Mumbai,"Kherwadi_Bandra East, Mumbai - MPCB",12-11-2025 07:00:00,19.0632143,72.8456324,PM2.5,100,196,145
India,Maharashtra,Mumbai,"Kherwadi_Bandra East, Mumbai - MPCB",12-11-2025 07:00:00,19.0632143,72.8456324,NO2,15,92,50
India,Maharashtra,Mumbai,"Chembur, Mumbai - MPCB",12-11-2025 07:00:00,19.0364585,72.8954371,PM2.5,84,154,113
India,Maharashtra,Mumbai,"Chembur, Mumbai - MPCB",12-11-2025 07:00:00,19.0364585,72.8954371,SO2,1,17,7
India,Maharashtra,Mumbai,"Mindspace-Malad West, Mumbai - MPCB",12-11-2025 07:00:00,19.1878657,72.8304069,PM10,NA,NA,NA
India,Maharashtra,Mumbai,"Mindspace-Malad West, Mumbai - MPCB",12-11-2025 07:00:00,19.1878657,72.8304069,SO2,15,16,15
India,Maharashtra,Mumbai,"Kandivali East, Mumbai - MPCB",12-11-2025 07:00:00,19.205800,72.868200,NO2,6,11,8
India,Maharashtra,Mumbai,"Kandivali East, Mumbai - MPCB",12-11-2025 07:00:00,19.205800,72.868200,SO2,NA,NA,NA
India,Maharashtra,Mumbai,"Borivali East, Mumbai - IITM",12-11-2025 07:00:00,19.23241,72.86895,NH3,NA,NA,NA
India,Maharashtra,Mumbai,"Deonar, Mumbai - IITM",12-11-2025 07:00:00,19.04946,72.9230,PM2.5,66,209,132
India,Maharashtra,Navi Mumbai,"Mahape, Navi Mumbai - MPCB",12-11-2025 07:00:00,19.1135051,73.008978,OZONE,8,15,10
India,Maharashtra,Navi Mumbai,"Nerul, Navi Mumbai - MPCB",12-11-2025 07:00:00,19.008751,73.016620,PM2.5,72,218,137
India,Maharashtra,Navi Mumbai,"Sector-2E Kalamboli, Navi Mumbai - MPCB",12-11-2025 07:00:00,19.02579,73.10297,PM2.5,85,321,203
India,Maharashtra,Navi Mumbai,"Sector-2E Kalamboli, Navi Mumbai - MPCB",12-11-2025 07:00:00,19.02579,73.10297,NO2,12,107,35
India,Maharashtra,Mumbai,"Powai, Mumbai - MPCB",12-11-2025 07:00:00,19.137500,72.915056,PM2.5,74,228,113
India,Maharashtra,Mumbai,"Powai, Mumbai - MPCB",12-11-2025 07:00:00,19.137500,72.915056,NO2,7,8,8
India,Maharashtra,Mumbai,"Powai, Mumbai - MPCB",12-11-2025 07:00:00,19.137500,72.915056,CO,16,17,16
India,Maharashtra,Mumbai,"Sewri, Mumbai - BMC",12-11-2025 07:00:00,19.000084,72.856730,PM2.5,1,303,21
India,Maharashtra,Mumbai,"Sewri, Mumbai - BMC",12-11-2025 07:00:00,19.000084,72.856730,NH3,7,27,15
India,Maharashtra,Navi Mumbai,"Kopripada-Vashi, Navi Mumbai - MPCB",12-11-2025 07:00:00,19.090337,73.014232,PM2.5,34,97,59
India,Maharashtra,Navi Mumbai,"Kopripada-Vashi, Navi Mumbai - MPCB",12-11-2025 07:00:00,19.090337,73.014232,NH3,NA,NA,NA
India,Maharashtra,Navi Mumbai,"Kopripada-Vashi, Navi Mumbai - MPCB",12-11-2025 07:00:00,19.090337,73.014232,OZONE,1,73,15
India,Maharashtra,Navi Mumbai,"Mahape, Navi Mumbai - MPCB",12-11-2025 07:00:00,19.1135051,73.008978,PM2.5,13,24,17
India,Maharashtra,Mumbai,"Mulund West, Mumbai - MPCB",12-11-2025 07:00:00,19.1750,72.9419,SO2,NA,NA,NA
India,Maharashtra,Mumbai,"Navy Nagar-Colaba, Mumbai - IITM",12-11-2025 07:00:00,18.897756,72.813320,PM2.5,137,309,192
India,Maharashtra,Nagpur,"Mahal, Nagpur - MPCB",12-11-2025 07:00:00,21.14472,79.107595,CO,14,149,41
India,Maharashtra,Nagpur,"Opp GPO Civil Lines, Nagpur - MPCB",12-11-2025 07:00:00,21.152875,79.0517531,PM2.5,94,244,136
India,Maharashtra,Nashik,"MIDC Ambad, Nashik - MPCB",12-11-2025 07:00:00,19.950220,73.731480,PM2.5,12,101,61
India,Maharashtra,Nashik,"MIDC Ambad, Nashik - MPCB",12-11-2025 07:00:00,19.950220,73.731480,PM10,68,279,119
India,Maharashtra,Nashik,"MIDC Ambad, Nashik - MPCB",12-11-2025 07:00:00,19.950220,73.731480,NH3,4,7,5
India,Maharashtra,Nanded,"Sneh Nagar, Nanded - MPCB",12-11-2025 07:00:00,19.173852,77.296291,NH3,3,5,4
India,Maharashtra,Nanded,"Sneh Nagar, Nanded - MPCB",12-11-2025 07:00:00,19.173852,77.296291,CO,18,28,21
India,Maharashtra,Mumbai,"Vasai West, Mumbai - MPCB",12-11-2025 07:00:00,19.383200,72.820400,PM10,87,190,124
India,Maharashtra,Nagpur,"Mahal, Nagpur - MPCB",12-11-2025 07:00:00,21.14472,79.107595,PM2.5,119,287,188
India,Maharashtra,Sangli,"Vijay Nagar, Sangli - MPCB",12-11-2025 07:00:00, 16.5038,74.3623,PM10,93,391,156
India,Maharashtra,Sangli,"Vijay Nagar, Sangli - MPCB",12-11-2025 07:00:00, 16.5038,74.3623,CO,28,76,33
India,Maharashtra,Solapur,"Dnyaneshwar Nagar, Solapur - MPCB",12-11-2025 07:00:00,17.6336264,75.9132495,NO2,6,109,30
India,Maharashtra,Solapur,"Dnyaneshwar Nagar, Solapur - MPCB",12-11-2025 07:00:00,17.6336264,75.9132495,SO2,1,9,4
India,Maharashtra,Solapur,"Ratandeep Housing Society, Solapur - MPCB",12-11-2025 07:00:00,17.65439,75.90649,PM10,92,158,117
India,Maharashtra,Solapur,"Ratandeep Housing Society, Solapur - MPCB",12-11-2025 07:00:00,17.65439,75.90649,NH3,2,42,10
India,Maharashtra,Solapur,"Ratandeep Housing Society, Solapur - MPCB",12-11-2025 07:00:00,17.65439,75.90649,SO2,1,12,5
India,Maharashtra,Thane,"Kasarvadavali, Thane - MPCB",12-11-2025 07:00:00,19.26777,72.97182,PM2.5,30,241,99
India,Maharashtra,Navi Mumbai,"Tondare-Taloja, Navi Mumbai - MPCB",12-11-2025 07:00:00,19.0630,73.1209,PM2.5,72,218,147
India,Maharashtra,Navi Mumbai,"Tondare-Taloja, Navi Mumbai - MPCB",12-11-2025 07:00:00,19.0630,73.1209,NH3,4,9,7
India,Maharashtra,Parbhani,"Masoom Colony, Parbhani - MPCB",12-11-2025 07:00:00,19.265594,76.761463,NO2,NA,NA,NA
India,Maharashtra,Parbhani,"Masoom Colony, Parbhani - MPCB",12-11-2025 07:00:00,19.265594,76.761463,SO2,2,40,14
India,Maharashtra,Parbhani,"Masoom Colony, Parbhani - MPCB",12-11-2025 07:00:00,19.265594,76.761463,CO,8,14,11
India,Maharashtra,Parbhani,"Masoom Colony, Parbhani - MPCB",12-11-2025 07:00:00,19.265594,76.761463,OZONE,38,40,39
India,Odisha,Angul,"Hakimapada, Angul - OSPCB",12-11-2025 07:00:00,20.832874,85.104082,PM10,127,199,157
India,Odisha,Angul,"Hakimapada, Angul - OSPCB",12-11-2025 07:00:00,20.832874,85.104082,SO2,11,60,27
India,Odisha,Balasore,"Kalidaspur, Balasore - OSPCB",12-11-2025 07:00:00,21.51161,86.89088,PM10,80,404,150
India,Odisha,Balasore,"Kalidaspur, Balasore - OSPCB",12-11-2025 07:00:00,21.51161,86.89088,SO2,6,22,13
India,Odisha,Barbil,"Forest Office, Barbil - OSPCB",12-11-2025 07:00:00,22.1166054,85.3945546,NO2,18,60,28
India,Meghalaya,Shillong,"Lumpyngngad, Shillong - Meghalaya PCB",12-11-2025 07:00:00,25.5586,91.8985,PM10,5,40,18
India,Meghalaya,Shillong,"Lumpyngngad, Shillong - Meghalaya PCB",12-11-2025 07:00:00,25.5586,91.8985,CO,4,18,5
India,Meghalaya,Shillong,"Lumpyngngad, Shillong - Meghalaya PCB",12-11-2025 07:00:00,25.5586,91.8985,OZONE,1,6,1
India,Nagaland,Kohima,"PWD Junction, Kohima - NPCB",12-11-2025 07:00:00,25.6635413,94.0989878,NO2,3,4,3
India,Nagaland,Kohima,"PWD Junction, Kohima - NPCB",12-11-2025 07:00:00,25.6635413,94.0989878,NH3,1,1,1
India,Maharashtra,Pimpri-Chinchwad,"Savta Mali Nagar, Pimpri-Chinchwad - IITM",12-11-2025 07:00:00,18.614767,73.799516,OZONE,2,72,10
India,Maharashtra,Pimpri-Chinchwad,"Thergaon, Pimpri Chinchwad - MPCB",12-11-2025 07:00:00,18.616318,73.765797,PM2.5,146,273,207
India,Maharashtra,Pimpri-Chinchwad,"Thergaon, Pimpri Chinchwad - MPCB",12-11-2025 07:00:00,18.616318,73.765797,NO2,20,63,36
India,Maharashtra,Pune,"Hadapsar, Pune - IITM",12-11-2025 07:00:00,18.501793,73.927532,PM2.5,58,222,119
India,Maharashtra,Pune,"Revenue Colony-Shivajinagar, Pune - IITM",12-11-2025 07:00:00,18.530085,73.849598,SO2,4,15,9
India,Maharashtra,Pune,"Savitribai Phule Pune University, Pune - MPCB",12-11-2025 07:00:00,18.547056,73.826908,NO2,1,28,17
India,Maharashtra,Pune,"Transport Nagar-Nigdi, Pune - IITM",12-11-2025 07:00:00,18.664282,73.763966,PM2.5,56,90,74
India,Maharashtra,Thane,"Kasarvadavali, Thane - MPCB",12-11-2025 07:00:00,19.26777,72.97182,NO2,12,81,39
India,Maharashtra,Thane,"Kasarvadavali, Thane - MPCB",12-11-2025 07:00:00,19.26777,72.97182,CO,10,48,29
India,Maharashtra,Thane,"Upvan Fort, Thane - MPCB",12-11-2025 07:00:00,19.222279,72.957979,NH3,1,2,1
India,Maharashtra,Thane,"Upvan Fort, Thane - MPCB",12-11-2025 07:00:00,19.222279,72.957979,CO,10,32,20
India,Maharashtra,Pune,"Hadapsar, Pune - IITM",12-11-2025 07:00:00,18.501793,73.927532,CO,52,64,61
India,Maharashtra,Pune,"Panchawati_Pashan, Pune - IITM",12-11-2025 07:00:00,18.536457,73.805454,NO2,11,54,30
India,Maharashtra,Pune,"Revenue Colony-Shivajinagar, Pune - IITM",12-11-2025 07:00:00,18.530085,73.849598,PM2.5,54,177,103
India,Maharashtra,Pimpri-Chinchwad,"Gavalinagar, Pimpri Chinchwad - MPCB",12-11-2025 07:00:00,18.63673,73.82487,PM10,98,150,124
India,Odisha,Baripada,"Meher Colony, Baripada - OSPCB",12-11-2025 07:00:00,21.941841,86.728318,PM10,79,150,112
India,Odisha,Baripada,"Meher Colony, Baripada - OSPCB",12-11-2025 07:00:00,21.941841,86.728318,OZONE,14,107,35
India,Odisha,Bhubaneswar,"Lingraj Mandir, Bhubaneswar - OSPCB",12-11-2025 07:00:00,20.240790,85.836784,PM10,110,403,179
India,Odisha,Bhubaneswar,"Lingraj Mandir, Bhubaneswar - OSPCB",12-11-2025 07:00:00,20.240790,85.836784,SO2,7,57,22
India,Odisha,Bhubaneswar,"Lingraj Mandir, Bhubaneswar - OSPCB",12-11-2025 07:00:00,20.240790,85.836784,CO,16,118,54
India,Odisha,Bhubaneswar,"Patia, Bhubaneswar - OSPCB",12-11-2025 07:00:00,20.34652,85.81630,SO2,4,8,6
India,Odisha,Bhubaneswar,"Patia, Bhubaneswar - OSPCB",12-11-2025 07:00:00,20.34652,85.81630,CO,25,110,89
India,Odisha,Bhubaneswar,"Patia, Bhubaneswar - OSPCB",12-11-2025 07:00:00,20.34652,85.81630,OZONE,4,157,41
India,Odisha,Keonjhar,"Jagamohanpur, Keonjhar - OSPCB",12-11-2025 07:00:00,21.643900,85.599355,OZONE,17,21,18
India,Odisha,Nayagarh,"Dabuna, Nayagarh - OSPCB",12-11-2025 07:00:00,21.847279,85.416905,SO2,6,23,10
India,Odisha,Nayagarh,"Dabuna, Nayagarh - OSPCB",12-11-2025 07:00:00,21.847279,85.416905,OZONE,13,35,31
India,Odisha,Rairangpur,"Divisional Forest Office, Rairangpur - OSPCB",12-11-2025 07:00:00,22.265816,86.174829,PM10,62,123,86
India,Odisha,Rairangpur,"Divisional Forest Office, Rairangpur - OSPCB",12-11-2025 07:00:00,22.265816,86.174829,SO2,6,13,8
India,Odisha,Rairangpur,"Divisional Forest Office, Rairangpur - OSPCB",12-11-2025 07:00:00,22.265816,86.174829,CO,27,57,35
India,Odisha,Talcher,"Talcher Coalfields,Talcher - OSPCB",12-11-2025 07:00:00,20.9360711,85.1707021,CO,62,106,102
India,Odisha,Tensa,"Barsua Iron Ore Mines, Tensa - OSPCB",12-11-2025 07:00:00,21.869985,85.167016,PM10,NA,NA,NA
India,Puducherry,Puducherry,"Jawahar Nagar, Puducherry - PPCC",12-11-2025 07:00:00,11.9309,79.8027,PM2.5,58,154,97
India,Puducherry,Puducherry,"Jawahar Nagar, Puducherry - PPCC",12-11-2025 07:00:00,11.9309,79.8027,PM10,60,102,81
India,Puducherry,Puducherry,"Jawahar Nagar, Puducherry - PPCC",12-11-2025 07:00:00,11.9309,79.8027,NO2,9,32,21
India,Punjab,Khanna,"Kalal Majra, Khanna - PPCB",12-11-2025 07:00:00,30.736056 ,76.209694,PM2.5,79,295,168
India,Punjab,Khanna,"Kalal Majra, Khanna - PPCB",12-11-2025 07:00:00,30.736056 ,76.209694,PM10,80,167,122
India,Punjab,Khanna,"Kalal Majra, Khanna - PPCB",12-11-2025 07:00:00,30.736056 ,76.209694,NO2,26,31,28
India,Punjab,Mandi Gobindgarh,"RIMT University, Mandi Gobindgarh - PPCB",12-11-2025 07:00:00,30.649961,76.331442,PM2.5,89,362,218
India,Punjab,Mandi Gobindgarh,"RIMT University, Mandi Gobindgarh - PPCB",12-11-2025 07:00:00,30.649961,76.331442,PM10,109,394,210
India,Punjab,Mandi Gobindgarh,"RIMT University, Mandi Gobindgarh - PPCB",12-11-2025 07:00:00,30.649961,76.331442,SO2,5,18,10
India,Odisha,Rourkela,"Raghunathpali, Rourkela - OSPCB",12-11-2025 07:00:00,22.220833,84.809444,NO2,6,18,10
India,Odisha,Rourkela,"Sector-2, Rourkela - OSPCB",12-11-2025 07:00:00,22.24500000,84.88111111,PM10,NA,NA,NA
India,Odisha,Talcher,"Talcher Coalfields,Talcher - OSPCB",12-11-2025 07:00:00,20.9360711,85.1707021,PM10,103,258,154
India,Odisha,Talcher,"Talcher Coalfields,Talcher - OSPCB",12-11-2025 07:00:00,20.9360711,85.1707021,SO2,41,78,60
India,Punjab,Patiala,"Model Town, Patiala - PPCB",12-11-2025 07:00:00,30.349388,76.366642,PM2.5,60,245,126
India,Punjab,Patiala,"Model Town, Patiala - PPCB",12-11-2025 07:00:00,30.349388,76.366642,OZONE,10,42,11
India,Punjab,Rupnagar,"Ratanpura, Rupnagar - Ambuja Cements",12-11-2025 07:00:00,31.0325454,76.5623046,PM2.5,19,490,84
India,Puducherry,Puducherry,"Jawahar Nagar, Puducherry - PPCC",12-11-2025 07:00:00,11.9309,79.8027,OZONE,17,84,37
India,Punjab,Amritsar,"Golden Temple, Amritsar - PPCB",12-11-2025 07:00:00,31.620000,74.876512,SO2,11,38,20
India,Punjab,Amritsar,"Golden Temple, Amritsar - PPCB",12-11-2025 07:00:00,31.620000,74.876512,CO,22,76,37
India,Odisha,Brajrajnagar,"GM Office, Brajrajnagar - OSPCB",12-11-2025 07:00:00,21.8004996,83.8396977,SO2,15,16,15
India,Odisha,Brajrajnagar,"GM Office, Brajrajnagar - OSPCB",12-11-2025 07:00:00,21.8004996,83.8396977,OZONE,26,32,27
India,Odisha,Cuttack,"CDA Area, Cuttack - OSPCB",12-11-2025 07:00:00,20.48891     ,85.84768     ,NO2,15,131,44
India,Rajasthan,Ajmer,"Civil Lines,  Ajmer - RSPCB",12-11-2025 07:00:00,26.470859,74.646594,PM10,59,133,98
India,Rajasthan,Ajmer,"Civil Lines,  Ajmer - RSPCB",12-11-2025 07:00:00,26.470859,74.646594,NH3,3,4,3
India,Rajasthan,Jaipur,"RIICO Sitapura, Jaipur - RSPCB",12-11-2025 07:00:00,26.786682,75.827928,OZONE,2,170,17
India,Rajasthan,Jaipur,"Sector-2 Murlipura, Jaipur - RSPCB",12-11-2025 07:00:00,26.960669,75.771817,PM2.5,18,358,111
India,Rajasthan,Jaipur,"Sector-2 Murlipura, Jaipur - RSPCB",12-11-2025 07:00:00,26.960669,75.771817,PM10,90,441,179
India,Rajasthan,Jaipur,"Sector-2 Murlipura, Jaipur - RSPCB",12-11-2025 07:00:00,26.960669,75.771817,OZONE,10,106,42
India,Rajasthan,Jaipur,"Shastri Nagar, Jaipur - RSPCB",12-11-2025 07:00:00,26.9502929,75.730943,PM10,104,242,155
India,Rajasthan,Jaipur,"Shastri Nagar, Jaipur - RSPCB",12-11-2025 07:00:00,26.9502929,75.730943,OZONE,12,51,16
India,Rajasthan,Jaisalmer,"Sadar Bazar, Jaisalmer - RSPCB",12-11-2025 07:00:00,26.912329,70.909168,PM2.5,32,312,76
India,Rajasthan,Jaisalmer,"Sadar Bazar, Jaisalmer - RSPCB",12-11-2025 07:00:00,26.912329,70.909168,PM10,70,414,134
India,Rajasthan,Jaisalmer,"Sadar Bazar, Jaisalmer - RSPCB",12-11-2025 07:00:00,26.912329,70.909168,NH3,4,16,8
India,Rajasthan,Jaisalmer,"Sadar Bazar, Jaisalmer - RSPCB",12-11-2025 07:00:00,26.912329,70.909168,SO2,2,11,5
India,Rajasthan,Jaisalmer,"Sadar Bazar, Jaisalmer - RSPCB",12-11-2025 07:00:00,26.912329,70.909168,OZONE,1,117,42
India,Rajasthan,Jodhpur,"Digari Kalan, Jodhpur - RSPCB",12-11-2025 07:00:00,26.295810,73.082283,NO2,15,111,52
India,Rajasthan,Jodhpur,"Digari Kalan, Jodhpur - RSPCB",12-11-2025 07:00:00,26.295810,73.082283,SO2,1,6,3
India,Rajasthan,Jodhpur,"Digari Kalan, Jodhpur - RSPCB",12-11-2025 07:00:00,26.295810,73.082283,CO,26,101,58
India,Rajasthan,Jodhpur,"Digari Kalan, Jodhpur - RSPCB",12-11-2025 07:00:00,26.295810,73.082283,OZONE,1,191,2
India,Rajasthan,Jodhpur,"Mandor, Jodhpur - RSPCB",12-11-2025 07:00:00,26.358805,73.047444,SO2,2,9,5
India,Rajasthan,Jodhpur,"Samrat Ashok Udhyan, Jodhpur - RSPCB",12-11-2025 07:00:00,26.253384,72.976571,PM2.5,52,385,183
India,Rajasthan,Jaipur,"Adarsh Nagar, Jaipur - RSPCB",12-11-2025 07:00:00,26.902909,75.836858,SO2,17,27,22
India,Rajasthan,Jaipur,"Adarsh Nagar, Jaipur - RSPCB",12-11-2025 07:00:00,26.902909,75.836858,OZONE,20,74,21
India,Rajasthan,Jaipur,"Police Commissionerate, Jaipur - RSPCB",12-11-2025 07:00:00,26.9164092,75.7994901,NO2,12,167,112
India,Rajasthan,Jaipur,"Police Commissionerate, Jaipur - RSPCB",12-11-2025 07:00:00,26.9164092,75.7994901,NH3,3,76,15
India,Rajasthan,Jaipur,"RIICO Sitapura, Jaipur - RSPCB",12-11-2025 07:00:00,26.786682,75.827928,NH3,3,48,14
India,Rajasthan,Dausa,"Khatikan Mohalla, Dausa - RSPCB",12-11-2025 07:00:00,26.895552,76.334753,SO2,3,16,7
India,Rajasthan,Dungarpur,"Bhoiwada, Dungarpur - RSPCB",12-11-2025 07:00:00,23.837789,73.714926,NO2,11,69,23
India,Rajasthan,Hanumangarh,"Housing Board, Hanumangarh - RSPCB",12-11-2025 07:00:00,29.610750,74.283608,PM10,87,206,155
India,Rajasthan,Jalore,"Mudtra Sili, Jalore - RSPCB",12-11-2025 07:00:00,25.344694,72.626208,NH3,4,10,7
India,Rajasthan,Jhalawar,"Rajlaxmi Nagar, Jhalawar - RSPCB",12-11-2025 07:00:00,24.588397,76.172782,PM10,57,167,95
India,Rajasthan,Jhalawar,"Rajlaxmi Nagar, Jhalawar - RSPCB",12-11-2025 07:00:00,24.588397,76.172782,SO2,8,17,12
India,Rajasthan,Bundi,"New Colony, Bundi - RSPCB",12-11-2025 07:00:00,25.435774,75.644272,NO2,7,97,25
India,Rajasthan,Chittorgarh,"Shastri Nagar, Chittorgarh - RSPCB",12-11-2025 07:00:00,24.892047,74.623527,PM2.5,12,250,106
India,Rajasthan,Bhilwara,"Pratap Nagar, Bhilwara - RSPCB",12-11-2025 07:00:00,25.339605,74.618883,PM10,100,342,164
India,Rajasthan,Bhiwadi,"RIICO Ind. Area III, Bhiwadi - RSPCB",12-11-2025 07:00:00,28.194909,76.862296,PM2.5,306,362,339
India,Rajasthan,Bhiwadi,"RIICO Ind. Area III, Bhiwadi - RSPCB",12-11-2025 07:00:00,28.194909,76.862296,OZONE,11,69,13
India,Rajasthan,Bikaner,"MM Ground, Bikaner - RSPCB",12-11-2025 07:00:00,28.018792,73.292658,PM2.5,17,129,64
India,Rajasthan,Banswara,"Rati Talai, Banswara - RSPCB",12-11-2025 07:00:00,23.555190,74.440010,NO2,12,128,43
India,Rajasthan,Banswara,"Rati Talai, Banswara - RSPCB",12-11-2025 07:00:00,23.555190,74.440010,NH3,3,57,12
India,Rajasthan,Pratapgarh,"Pragati Nagar, Pratapgarh - RSPCB",12-11-2025 07:00:00,24.041198,74.780702,PM2.5,28,163,65
India,Rajasthan,Pratapgarh,"Pragati Nagar, Pratapgarh - RSPCB",12-11-2025 07:00:00,24.041198,74.780702,PM10,79,180,106
India,Rajasthan,Pratapgarh,"Pragati Nagar, Pratapgarh - RSPCB",12-11-2025 07:00:00,24.041198,74.780702,NO2,10,86,23
India,Rajasthan,Pratapgarh,"Pragati Nagar, Pratapgarh - RSPCB",12-11-2025 07:00:00,24.041198,74.780702,SO2,3,11,5
India,Rajasthan,Pratapgarh,"Pragati Nagar, Pratapgarh - RSPCB",12-11-2025 07:00:00,24.041198,74.780702,CO,14,55,18
India,Rajasthan,Sawai Madhopur,"Sahu Nagar, Sawai Madhopur - RSPCB",12-11-2025 07:00:00,26.031443,76.359327,PM10,64,410,149
India,Rajasthan,Sawai Madhopur,"Sahu Nagar, Sawai Madhopur - RSPCB",12-11-2025 07:00:00,26.031443,76.359327,NO2,16,42,24
India,Rajasthan,Sawai Madhopur,"Sahu Nagar, Sawai Madhopur - RSPCB",12-11-2025 07:00:00,26.031443,76.359327,NH3,6,8,8
India,Rajasthan,Sikar,"Radhakishan Pura, Sikar - RSPCB",12-11-2025 07:00:00,27.608912,75.153302,NO2,14,133,58
India,Rajasthan,Sikar,"Radhakishan Pura, Sikar - RSPCB",12-11-2025 07:00:00,27.608912,75.153302,NH3,7,18,13
India,TamilNadu,Chennai,"Arumbakkam, Chennai - TNPCB",12-11-2025 07:00:00,13.0664,80.2112 ,PM10,91,159,124
India,TamilNadu,Chennai,"Arumbakkam, Chennai - TNPCB",12-11-2025 07:00:00,13.0664,80.2112 ,NO2,12,30,17
India,TamilNadu,Chennai,"Arumbakkam, Chennai - TNPCB",12-11-2025 07:00:00,13.0664,80.2112 ,NH3,3,5,4
India,TamilNadu,Chennai,"Gandhi Nagar_Ennore, Chennai - TNPCB",12-11-2025 07:00:00,13.218341,80.32027,SO2,22,23,22
India,TamilNadu,Chennai,"Kodungaiyur, Chennai - TNPCB",12-11-2025 07:00:00,13.1278,80.2642,PM10,89,150,114
India,TamilNadu,Chennai,"Kodungaiyur, Chennai - TNPCB",12-11-2025 07:00:00,13.1278,80.2642,NH3,4,5,4
India,TamilNadu,Chennai,"Manali Village, Chennai - TNPCB",12-11-2025 07:00:00,13.1662,80.2584,NH3,1,2,2
India,TamilNadu,Chennai,"Manali Village, Chennai - TNPCB",12-11-2025 07:00:00,13.1662,80.2584,SO2,3,17,12
India,Rajasthan,Sirohi,"Vedhaynath Colony, Sirohi - RSPCB",12-11-2025 07:00:00,24.885261,72.857549,OZONE,10,89,44
India,Rajasthan,Sri Ganganagar,"Old City, Sri Ganganagar - RSPCB",12-11-2025 07:00:00,29.931624,73.864511,SO2,1,9,4
India,Rajasthan,Sri Ganganagar,"Old City, Sri Ganganagar - RSPCB",12-11-2025 07:00:00,29.931624,73.864511,CO,90,172,105
India,Rajasthan,Tonk,"Shastri Nagar, Tonk - RSPCB",12-11-2025 07:00:00,26.159933,75.780517,NO2,13,141,39
India,Rajasthan,Tonk,"Shastri Nagar, Tonk - RSPCB",12-11-2025 07:00:00,26.159933,75.780517,NH3,5,13,8
India,Rajasthan,Tonk,"Shastri Nagar, Tonk - RSPCB",12-11-2025 07:00:00,26.159933,75.780517,CO,14,116,23
India,Rajasthan,Tonk,"Shastri Nagar, Tonk - RSPCB",12-11-2025 07:00:00,26.159933,75.780517,OZONE,1,73,21
India,TamilNadu,Ariyalur,"Keelapalur, Ariyalur - TNPCB",12-11-2025 07:00:00,11.06825,79.07033,PM2.5,47,89,68
India,TamilNadu,Ariyalur,"Keelapalur, Ariyalur - TNPCB",12-11-2025 07:00:00,11.06825,79.07033,PM10,52,102,78
India,TamilNadu,Ariyalur,"Keelapalur, Ariyalur - TNPCB",12-11-2025 07:00:00,11.06825,79.07033,SO2,12,13,13
India,TamilNadu,Chengalpattu,"Crescent University, Chengalpattu - TNPCB",12-11-2025 07:00:00,12.8777316,80.0834807,PM10,32,75,49
India,TamilNadu,Chengalpattu,"Crescent University, Chengalpattu - TNPCB",12-11-2025 07:00:00,12.8777316,80.0834807,OZONE,3,26,14
India,TamilNadu,Chennai,"Alandur Bus Depot, Chennai - CPCB",12-11-2025 07:00:00,12.9099161,80.1076538,SO2,15,16,15
India,TamilNadu,Gummidipoondi,"Anthoni Pillai Nagar, Gummidipoondi - TNPCB",12-11-2025 07:00:00,13.4127,80.1081,NH3,2,4,3
India,TamilNadu,Hosur,"SIPCOT Phase-1, Hosur - TNPCB",12-11-2025 07:00:00,12.746998,77.813811,PM10,NA,NA,NA
India,TamilNadu,Hosur,"SIPCOT Phase-1, Hosur - TNPCB",12-11-2025 07:00:00,12.746998,77.813811,NH3,NA,NA,NA
India,TamilNadu,Kanchipuram,"Kilambi, Kanchipuram - TNPCB",12-11-2025 07:00:00,12.864618,79.659968,NH3,NA,NA,NA
India,TamilNadu,Karur,"Kamadenu Nagar, Karur - TNPCB",12-11-2025 07:00:00,10.967820,78.080882,NO2,1,6,4
India,Rajasthan,Kota,"Shrinath Puram, Kota - RSPCB",12-11-2025 07:00:00,25.14389,75.821256,PM10,60,136,89
India,Rajasthan,Kota,"Shrinath Puram, Kota - RSPCB",12-11-2025 07:00:00,25.14389,75.821256,NH3,1,6,3
India,Rajasthan,Nagaur,"Karni Colony, Nagaur - RSPCB",12-11-2025 07:00:00,27.213494,73.734444,PM2.5,27,361,138
India,Rajasthan,Nagaur,"Karni Colony, Nagaur - RSPCB",12-11-2025 07:00:00,27.213494,73.734444,PM10,93,496,208
India,Rajasthan,Pali,"Indira Colony Vistar, Pali - RSPCB",12-11-2025 07:00:00,25.771061, 73.340227,CO,6,100,74
India,Rajasthan,Jodhpur,"Samrat Ashok Udhyan, Jodhpur - RSPCB",12-11-2025 07:00:00,26.253384,72.976571,PM10,93,432,198
India,Rajasthan,Jodhpur,"Samrat Ashok Udhyan, Jodhpur - RSPCB",12-11-2025 07:00:00,26.253384,72.976571,NO2,10,155,72
India,Rajasthan,Jodhpur,"Samrat Ashok Udhyan, Jodhpur - RSPCB",12-11-2025 07:00:00,26.253384,72.976571,SO2,1,14,6
India,Rajasthan,Kota,"Nayapura, Kota - RSPCB",12-11-2025 07:00:00,25.196024,75.855668,NO2,22,115,56
India,TamilNadu,Chennai,"Velachery Res. Area, Chennai - CPCB",12-11-2025 07:00:00,13.0052189,80.2398125,PM2.5,28,89,53
India,TamilNadu,Chennai,"Velachery Res. Area, Chennai - CPCB",12-11-2025 07:00:00,13.0052189,80.2398125,SO2,14,16,15
India,TamilNadu,Chennai,"Velachery Res. Area, Chennai - CPCB",12-11-2025 07:00:00,13.0052189,80.2398125,CO,36,45,43
India,TamilNadu,Cuddalore,"Kudikadu, Cuddalore - TNPCB",12-11-2025 07:00:00,11.6829898,79.7532099,NH3,1,6,3
India,TamilNadu,Cuddalore,"Semmandalam, Cuddalore - TNPCB",12-11-2025 07:00:00,11.7637683,79.7499835,NH3,1,3,2
India,TamilNadu,Tiruchirappalli,"St Joseph College, Tiruchirappalli - TNPCB",12-11-2025 07:00:00,10.830158,78.691849,NO2,2,5,3
India,TamilNadu,Tirunelveli,"Municipal Corporation Office, Tirunelveli - TNPCB",12-11-2025 07:00:00,8.728442,77.6962,PM10,NA,NA,NA
India,TamilNadu,Tirupur,"Kumaran College, Tirupur - TNPCB",12-11-2025 07:00:00,11.0973603,77.3228673,SO2,5,8,7
India,TamilNadu,Tirupur,"Kumaran College, Tirupur - TNPCB",12-11-2025 07:00:00,11.0973603,77.3228673,CO,22,31,25
India,TamilNadu,Vellore,"Vasanthapuram, Vellore - TNPCB",12-11-2025 07:00:00,12.909494,79.131861,CO,NA,NA,NA
India,TamilNadu,Virudhunagar,"Collectorate Office, Virudhunagar - TNPCB",12-11-2025 07:00:00,9.559382,77.948828,PM2.5,65,170,106
India,Telangana,Hyderabad,"New Malakpet, Hyderabad - TSPCB",12-11-2025 07:00:00,17.37206,78.50864,PM10,80,90,85
India,Telangana,Hyderabad,"New Malakpet, Hyderabad - TSPCB",12-11-2025 07:00:00,17.37206,78.50864,NH3,2,3,3
India,Telangana,Hyderabad,"New Malakpet, Hyderabad - TSPCB",12-11-2025 07:00:00,17.37206,78.50864,SO2,11,15,12
India,Telangana,Hyderabad,"New Malakpet, Hyderabad - TSPCB",12-11-2025 07:00:00,17.37206,78.50864,CO,22,32,22
India,Telangana,Hyderabad,"Ramachandrapuram, Hyderabad - TSPCB",12-11-2025 07:00:00,17.528544,78.286195,NO2,9,11,11
India,Telangana,Hyderabad,"Ramachandrapuram, Hyderabad - TSPCB",12-11-2025 07:00:00,17.528544,78.286195,CO,18,48,31
India,Telangana,Hyderabad,"Sanathnagar, Hyderabad - TSPCB",12-11-2025 07:00:00,17.4559458,78.4332152,NO2,NA,NA,NA
India,Telangana,Hyderabad,"Somajiguda, Hyderabad - TSPCB",12-11-2025 07:00:00,17.417094,78.457437,PM10,40,62,49
India,TamilNadu,Perundurai,"SIPCOT Industrial Park, Perundurai - TNPCB",12-11-2025 07:00:00,11.258242,77.552761,NH3,2,3,2
India,TamilNadu,Pudukottai,"SIPCOT Nathampannai, Pudukottai - TNPCB",12-11-2025 07:00:00,10.423417,78.784889,PM10,95,163,118
India,TamilNadu,Ramanathapuram,"Chalai Bazaar, Ramanathapuram - TNPCB",12-11-2025 07:00:00,9.36399,78.831977,OZONE,4,5,4
India,TamilNadu,Thanjavur,"Parisutham Nagar, Thanjavur - TNPCB",12-11-2025 07:00:00,10.7654824,79.1389968,PM2.5,41,117,72
India,TamilNadu,Thanjavur,"Parisutham Nagar, Thanjavur - TNPCB",12-11-2025 07:00:00,10.7654824,79.1389968,NO2,3,4,3
India,TamilNadu,Thanjavur,"Parisutham Nagar, Thanjavur - TNPCB",12-11-2025 07:00:00,10.7654824,79.1389968,NH3,1,1,1
India,Telangana,Hyderabad,"Central University, Hyderabad - TSPCB",12-11-2025 07:00:00,17.460103,78.334361,SO2,5,14,10
India,Telangana,Hyderabad,"ECIL Kapra, Hyderabad - TSPCB",12-11-2025 07:00:00,17.470431,78.566959,NH3,7,7,7
India,Telangana,Hyderabad,"ICRISAT Patancheru, Hyderabad - TSPCB",12-11-2025 07:00:00,17.518400,78.278777,NO2,7,21,15
India,Telangana,Hyderabad,"ICRISAT Patancheru, Hyderabad - TSPCB",12-11-2025 07:00:00,17.518400,78.278777,CO,18,52,42
India,Telangana,Hyderabad,"IDA Pashamylaram, Hyderabad - TSPCB",12-11-2025 07:00:00,17.5316895,78.218939,PM10,NA,NA,NA
India,TamilNadu,Nagapattinam,"Velippalayam, Nagapattinam - TNPCB",12-11-2025 07:00:00,10.798548,79.838212,NH3,NA,NA,NA
India,TamilNadu,Palkalaiperur,"Bharathidasan University, Palkalaiperur - TNPCB",12-11-2025 07:00:00,10.681158,78.741746,PM10,29,55,44
India,TamilNadu,Palkalaiperur,"Bharathidasan University, Palkalaiperur - TNPCB",12-11-2025 07:00:00,10.681158,78.741746,NH3,1,1,1
India,TamilNadu,Perundurai,"SIPCOT Industrial Park, Perundurai - TNPCB",12-11-2025 07:00:00,11.258242,77.552761,PM2.5,51,250,146
India,Uttar_Pradesh,Agra,"Manoharpur, Agra - UPPCB",12-11-2025 07:00:00,27.23711,78.01936,PM10,111,275,171
India,Uttar_Pradesh,Agra,"Manoharpur, Agra - UPPCB",12-11-2025 07:00:00,27.23711,78.01936,CO,25,32,27
India,Uttar_Pradesh,Agra,"Rohta, Agra - UPPCB",12-11-2025 07:00:00,27.106972,78.000111,SO2,21,39,29
India,Telangana,Hyderabad,"Zoo Park, Hyderabad - TSPCB",12-11-2025 07:00:00,17.349694,78.451437,PM2.5,134,186,160
India,Telangana,Hyderabad,"Zoo Park, Hyderabad - TSPCB",12-11-2025 07:00:00,17.349694,78.451437,CO,2,64,2
India,TamilNadu,Karur,"Kamadenu Nagar, Karur - TNPCB",12-11-2025 07:00:00,10.967820,78.080882,NH3,3,4,3
India,TamilNadu,Karur,"Kamadenu Nagar, Karur - TNPCB",12-11-2025 07:00:00,10.967820,78.080882,OZONE,7,9,8
India,Telangana,Hyderabad,"Kompally Municipal Office, Hyderabad - TSPCB",12-11-2025 07:00:00,17.544899,78.486949,PM2.5,44,64,59
India,Uttar_Pradesh,Kanpur,"NSI Kalyanpur, Kanpur - UPPCB",12-11-2025 07:00:00,26.509954,80.249612,OZONE,16,17,16
India,Uttar_Pradesh,Khurja,"Kalindi Kunj, Khurja - UPPCB",12-11-2025 07:00:00,28.2348927,77.8683002,NO2,3,4,3
India,Uttar_Pradesh,Khurja,"Kalindi Kunj, Khurja - UPPCB",12-11-2025 07:00:00,28.2348927,77.8683002,CO,37,103,83
India,Uttar_Pradesh,Lucknow,"B R Ambedkar University, Lucknow - UPPCB",12-11-2025 07:00:00,26.766433,80.927299,PM10,74,192,142
India,Uttar_Pradesh,Lucknow,"Gomti Nagar, Lucknow - UPPCB",12-11-2025 07:00:00,26.868120,81.005119,PM2.5,59,285,185
India,Uttar_Pradesh,Lucknow,"Gomti Nagar, Lucknow - UPPCB",12-11-2025 07:00:00,26.868120,81.005119,PM10,52,135,105
India,Uttar_Pradesh,Lucknow,"Kendriya Vidyalaya, Lucknow - CPCB",12-11-2025 07:00:00,26.906111,80.948222,PM2.5,72,262,177
India,Uttar_Pradesh,Greater Noida,"Knowledge Park - V, Greater Noida - UPPCB",12-11-2025 07:00:00,28.557054,77.453663,CO,62,112,101
India,Uttar_Pradesh,Hapur,"Anand Vihar, Hapur - UPPCB",12-11-2025 07:00:00,28.725645,77.749675,NO2,11,103,42
India,Uttar_Pradesh,Jhansi,"Shivaji Nagar, Jhansi - UPPCB",12-11-2025 07:00:00,25.4547,78.6039,PM10,40,119,72
India,Uttar_Pradesh,Jhansi,"Shivaji Nagar, Jhansi - UPPCB",12-11-2025 07:00:00,25.4547,78.6039,NH3,4,4,4
India,Uttar_Pradesh,Kanpur,"FTI Kidwai Nagar, Kanpur - UPPCB",12-11-2025 07:00:00,26.428282,80.327067,NH3,2,2,2
India,Uttar_Pradesh,Kanpur,"NSI Kalyanpur, Kanpur - UPPCB",12-11-2025 07:00:00,26.509954,80.249612,PM10,86,174,134
India,Uttar_Pradesh,Ghaziabad,"Sanjay Nagar, Ghaziabad - UPPCB",12-11-2025 07:00:00,28.685382,77.453839,OZONE,16,213,38
India,Uttar_Pradesh,Gorakhpur,"Madan Mohan Malaviya University of Technology, Gorakhpur - UPPCB",12-11-2025 07:00:00,26.730136,83.433859,CO,6,8,7
India,Uttar_Pradesh,Greater Noida,"Knowledge Park - III, Greater Noida - UPPCB",12-11-2025 07:00:00,28.47272,77.482000,SO2,27,61,41
India,Uttar_Pradesh,Greater Noida,"Knowledge Park - III, Greater Noida - UPPCB",12-11-2025 07:00:00,28.47272,77.482000,CO,22,120,96
India,Uttar_Pradesh,Greater Noida,"Knowledge Park - V, Greater Noida - UPPCB",12-11-2025 07:00:00,28.557054,77.453663,PM10,211,429,318
India,Uttar_Pradesh,Firozabad,"Nagla Bhau, Firozabad - UPPCB",12-11-2025 07:00:00,27.168897,78.376960,NO2,17,17,17
India,Uttar_Pradesh,Firozabad,"Nagla Bhau, Firozabad - UPPCB",12-11-2025 07:00:00,27.168897,78.376960,CO,7,20,18
India,Uttar_Pradesh,Firozabad,"Nagla Bhau, Firozabad - UPPCB",12-11-2025 07:00:00,27.168897,78.376960,OZONE,10,23,10
India,Uttar_Pradesh,Firozabad,"Vibhab Nagar, Firozabad - UPPCB",12-11-2025 07:00:00,27.1594,78.3953,OZONE,NA,NA,NA
India,Uttar_Pradesh,Ghaziabad,"Indirapuram, Ghaziabad - UPPCB",12-11-2025 07:00:00,28.646233,77.358075,NH3,10,17,13
India,Uttar_Pradesh,Ghaziabad,"Loni, Ghaziabad - UPPCB",12-11-2025 07:00:00,28.757294,77.278792,CO,43,114,106
India,Uttar_Pradesh,Baghpat,"Sardar Patel Inter College, Baghpat - UPPCB",12-11-2025 07:00:00,28.964949,77.278761,CO,NA,NA,NA
India,Uttar_Pradesh,Bareilly,"Civil Lines, Bareilly - UPPCB",12-11-2025 07:00:00,28.359581,79.414455,NO2,2,3,3
India,Uttar_Pradesh,Bareilly,"Civil Lines, Bareilly - UPPCB",12-11-2025 07:00:00,28.359581,79.414455,SO2,11,27,19
India,Uttar_Pradesh,Bareilly,"Rajendra Nagar, Bareilly - UPPCB",12-11-2025 07:00:00,28.38910936,79.42963708,NO2,9,10,9
India,Uttar_Pradesh,Bareilly,"Rajendra Nagar, Bareilly - UPPCB",12-11-2025 07:00:00,28.38910936,79.42963708,NH3,1,1,1
India,Uttar_Pradesh,Bareilly,"Rajendra Nagar, Bareilly - UPPCB",12-11-2025 07:00:00,28.38910936,79.42963708,OZONE,NA,NA,NA
India,Uttar_Pradesh,Lucknow,"Talkatora District Industries Center, Lucknow - CPCB",12-11-2025 07:00:00,26.83399722,80.8917361,CO,2,42,25
India,Uttar_Pradesh,Lucknow,"Talkatora District Industries Center, Lucknow - CPCB",12-11-2025 07:00:00,26.83399722,80.8917361,OZONE,9,53,12
India,Uttar_Pradesh,Meerut,"Jai Bhim Nagar, Meerut - UPPCB",12-11-2025 07:00:00,28.9535882,77.7622941,CO,26,110,86
India,Uttar_Pradesh,Meerut,"Pallavpuram Phase 2, Meerut - UPPCB",12-11-2025 07:00:00,29.063510,77.709723,PM10,120,454,316
India,Uttar_Pradesh,Meerut,"Pallavpuram Phase 2, Meerut - UPPCB",12-11-2025 07:00:00,29.063510,77.709723,NH3,10,16,13
India,Uttar_Pradesh,Agra,"Sanjay Palace, Agra - UPPCB",12-11-2025 07:00:00,27.19865833,78.00598056,CO,30,52,33
India,Uttar_Pradesh,Agra,"Sector-3B Avas Vikas Colony, Agra - UPPCB",12-11-2025 07:00:00,27.19412,77.96237,PM2.5,60,319,167
India,Uttar_Pradesh,Agra,"Sector-3B Avas Vikas Colony, Agra - UPPCB",12-11-2025 07:00:00,27.19412,77.96237,SO2,8,10,9
India,Uttar_Pradesh,Agra,"Shastripuram, Agra - UPPCB",12-11-2025 07:00:00,27.19862,77.92066,NO2,33,39,36
India,Uttar_Pradesh,Lucknow,"Lalbagh, Lucknow - CPCB",12-11-2025 07:00:00,26.8458805,80.9365541,CO,1,79,18
India,Uttar_Pradesh,Lucknow,"Lalbagh, Lucknow - CPCB",12-11-2025 07:00:00,26.8458805,80.9365541,OZONE,12,52,21
India,Uttar_Pradesh,Lucknow,"Talkatora District Industries Center, Lucknow - CPCB",12-11-2025 07:00:00,26.83399722,80.8917361,PM2.5,72,320,243
India,Uttar_Pradesh,Lucknow,"Talkatora District Industries Center, Lucknow - CPCB",12-11-2025 07:00:00,26.83399722,80.8917361,NO2,33,63,52
India,Uttar_Pradesh,Lucknow,"Kendriya Vidyalaya, Lucknow - CPCB",12-11-2025 07:00:00,26.906111,80.948222,CO,18,95,36
India,Uttar_Pradesh,Moradabad,"Transport Nagar, Moradabad - UPPCB",12-11-2025 07:00:00,28.802625,78.753728,PM2.5,28,157,81
India,Uttar_Pradesh,Moradabad,"Transport Nagar, Moradabad - UPPCB",12-11-2025 07:00:00,28.802625,78.753728,NH3,5,6,5
India,Uttar_Pradesh,Moradabad,"Transport Nagar, Moradabad - UPPCB",12-11-2025 07:00:00,28.802625,78.753728,SO2,32,36,34
India,Uttar_Pradesh,Muzaffarnagar,"New Mandi, Muzaffarnagar - UPPCB",12-11-2025 07:00:00,29.4723508,77.7194031,CO,16,104,37
India,Uttar_Pradesh,Noida,"Sector - 125, Noida - UPPCB",12-11-2025 07:00:00,28.5447608,77.3231257,NO2,65,217,148
India,Uttar_Pradesh,Noida,"Sector - 62, Noida - IMD",12-11-2025 07:00:00,28.6245479,77.3577104,PM2.5,NA,NA,NA
India,Uttar_Pradesh,Noida,"Sector - 62, Noida - IMD",12-11-2025 07:00:00,28.6245479,77.3577104,PM10,192,468,371
India,Uttar_Pradesh,Noida,"Sector-1, Noida - UPPCB",12-11-2025 07:00:00,28.5898,77.3101,PM10,181,445,365
India,West_Bengal,Asansol,"Asansol Court Area, Asansol - WBPCB",12-11-2025 07:00:00,23.685297,86.945968,SO2,16,32,22
India,West_Bengal,Asansol,"Asansol Court Area, Asansol - WBPCB",12-11-2025 07:00:00,23.685297,86.945968,OZONE,20,86,27
India,West_Bengal,Asansol,"Evelyn Lodge, Asansol - WBPCB",12-11-2025 07:00:00,23.6979360,86.9443950,PM10,87,139,114
India,West_Bengal,Asansol,"Evelyn Lodge, Asansol - WBPCB",12-11-2025 07:00:00,23.6979360,86.9443950,NO2,11,37,23
India,West_Bengal,Asansol,"Evelyn Lodge, Asansol - WBPCB",12-11-2025 07:00:00,23.6979360,86.9443950,SO2,5,10,7
India,West_Bengal,Asansol,"Evelyn Lodge, Asansol - WBPCB",12-11-2025 07:00:00,23.6979360,86.9443950,CO,16,64,41
India,West_Bengal,Barrackpore,"SVSPA Campus, Barrackpore - WBPCB",12-11-2025 07:00:00,22.7605581,88.3617589,PM10,64,127,102
India,Uttar_Pradesh,Vrindavan,"Omex Eternity, Vrindavan - UPPCB",12-11-2025 07:00:00,27.5714090,77.6557570,NH3,1,3,2
India,Uttarakhand,Dehradun,"Doon University, Dehradun - UKPCB",12-11-2025 07:00:00,30.269444,78.044167,SO2,2,2,2
India,Uttarakhand,Kashipur,"Govt. Girls Inter College, Kashipur - UKPCB",12-11-2025 07:00:00,29.2124114,78.9611753,PM2.5,59,183,110
India,Uttarakhand,Rishikesh,"Shivaji Nagar, Rishikesh - UKPCB",12-11-2025 07:00:00,30.075911,78.2859547,PM2.5,NA,NA,NA
India,West_Bengal,Haldia,"Priyambada Housing Estate, Haldia - WBPCB",12-11-2025 07:00:00,22.06047,88.109737,CO,33,58,49
India,West_Bengal,Howrah,"Belur Math, Howrah - WBPCB",12-11-2025 07:00:00,22.629801,88.352017,PM10,118,215,165
India,West_Bengal,Howrah,"Belur Math, Howrah - WBPCB",12-11-2025 07:00:00,22.629801,88.352017,OZONE,7,41,10
India,West_Bengal,Howrah,"Dasnagar, Howrah - WBPCB",12-11-2025 07:00:00,22.6025571,88.3105664,PM10,72,139,113
India,West_Bengal,Howrah,"Dasnagar, Howrah - WBPCB",12-11-2025 07:00:00,22.6025571,88.3105664,CO,26,89,55
India,West_Bengal,Howrah,"Padmapukur, Howrah - WBPCB",12-11-2025 07:00:00,22.5687319,88.2797276,PM2.5,146,329,262
India,West_Bengal,Howrah,"Padmapukur, Howrah - WBPCB",12-11-2025 07:00:00,22.5687319,88.2797276,NO2,15,51,29
India,West_Bengal,Kolkata,"Ballygunge, Kolkata - WBPCB",12-11-2025 07:00:00,22.5367507,88.3638022,CO,2,61,32
India,West_Bengal,Kolkata,"Bidhannagar, Kolkata - WBPCB",12-11-2025 07:00:00,22.58157048,88.41002457,PM2.5,41,214,131
India,West_Bengal,Kolkata,"Bidhannagar, Kolkata - WBPCB",12-11-2025 07:00:00,22.58157048,88.41002457,CO,30,77,71
India,Uttar_Pradesh,Prayagraj,"Nagar Nigam, Prayagraj - UPPCB",12-11-2025 07:00:00,25.44919916 ,81.82735986 ,OZONE,11,12,11
India,Uttar_Pradesh,Varanasi,"Bhelupur, Varanasi - UPPCB",12-11-2025 07:00:00,25.301778,82.996789,PM10,102,243,137
India,Uttar_Pradesh,Varanasi,"Bhelupur, Varanasi - UPPCB",12-11-2025 07:00:00,25.301778,82.996789,CO,19,56,33
India,Uttar_Pradesh,Varanasi,"IESD Banaras Hindu University, Varanasi - UPPCB",12-11-2025 07:00:00,25.262326,82.995408,CO,12,34,17
India,Uttar_Pradesh,Moradabad,"Eco Herbal Park, Moradabad - UPPCB",12-11-2025 07:00:00,28.840739,78.697531,NO2,5,14,10
India,Uttar_Pradesh,Moradabad,"Employment Office, Moradabad - UPPCB",12-11-2025 07:00:00,28.88528,78.73880,CO,2,70,4
India,Uttar_Pradesh,Moradabad,"Kashiram Nagar, Moradabad - UPPCB",12-11-2025 07:00:00,28.849399,78.742362,PM2.5,37,191,92
India,West_Bengal,Durgapur,"PCBL Residential Complex, Durgapur - WBPCB",12-11-2025 07:00:00,23.5087640,87.3544400,PM2.5,82,215,134
India,West_Bengal,Durgapur,"PCBL Residential Complex, Durgapur - WBPCB",12-11-2025 07:00:00,23.5087640,87.3544400,PM10,94,140,116
India,Uttar_Pradesh,Prayagraj,"Jhunsi, Prayagraj - UPPCB",12-11-2025 07:00:00,25.425602,81.917152,SO2,8,17,11
India,Uttar_Pradesh,Prayagraj,"Jhunsi, Prayagraj - UPPCB",12-11-2025 07:00:00,25.425602,81.917152,OZONE,15,34,15
India,West_Bengal,Kolkata,"Jadavpur, Kolkata - WBPCB",12-11-2025 07:00:00,22.49929,88.36917,PM10,136,298,193
India,West_Bengal,Kolkata,"Rabindra Bharati University, Kolkata - WBPCB",12-11-2025 07:00:00,22.627847,88.380669,PM10,88,170,128
India,West_Bengal,Kolkata,"Rabindra Bharati University, Kolkata - WBPCB",12-11-2025 07:00:00,22.627847,88.380669,SO2,7,9,8
India,West_Bengal,Kolkata,"Rabindra Bharati University, Kolkata - WBPCB",12-11-2025 07:00:00,22.627847,88.380669,OZONE,6,133,16
India,West_Bengal,Kolkata,"Rabindra Sarobar, Kolkata - WBPCB",12-11-2025 07:00:00,22.51106,88.35142,OZONE,4,140,16
India,West_Bengal,Kolkata,"Victoria, Kolkata - WBPCB",12-11-2025 07:00:00,22.5448082,88.3403691,SO2,2,14,7
India,West_Bengal,Kolkata,"Victoria, Kolkata - WBPCB",12-11-2025 07:00:00,22.5448082,88.3403691,CO,20,114,53
India,West_Bengal,Siliguri,"Ward-32 Bapupara, Siliguri - WBPCB",12-11-2025 07:00:00,26.6879226,88.4152495,PM10,29,141,89
India,West_Bengal,Siliguri,"Ward-32 Bapupara, Siliguri - WBPCB",12-11-2025 07:00:00,26.6879226,88.4152495,NH3,11,11,11
India,Assam,Guwahati,"LGBI Airport, Guwahati - PCBA",12-11-2025 07:00:00,26.10887,91.589544,OZONE,13,16,15
India,Assam,Guwahati,"Pan Bazaar, Guwahati - PCBA",12-11-2025 07:00:00,26.187500,91.744194,PM2.5,45,94,69
India,Assam,Guwahati,"Pan Bazaar, Guwahati - PCBA",12-11-2025 07:00:00,26.187500,91.744194,SO2,40,77,56
India,Assam,Guwahati,"Pan Bazaar, Guwahati - PCBA",12-11-2025 07:00:00,26.187500,91.744194,CO,18,68,42
India,Assam,Nagaon,"Christianpatty, Nagaon - PCBA",12-11-2025 07:00:00,26.349082,92.68449,NH3,4,4,4
India,Andhra_Pradesh,Vijayawada,"Rajiv Nagar, Vijayawada - APPCB",12-11-2025 07:00:00,16.554731,80.649110,CO,22,44,30
India,Andhra_Pradesh,Visakhapatnam,"GVM Corporation, Visakhapatnam - APPCB",12-11-2025 07:00:00,17.72,83.3,NH3,4,4,4
India,Arunachal_Pradesh,Naharlagun,"Naharlagun, Naharlagun - APSPCB",12-11-2025 07:00:00,27.103358,93.679645,SO2,8,13,11
India,Andhra_Pradesh,Rajamahendravaram,"Anand Kala Kshetram, Rajamahendravaram - APPCB",12-11-2025 07:00:00,16.9872867,81.7363176,NH3,3,5,4
India,Andhra_Pradesh,Tirumala,"Toll Gate, Tirumala - APPCB",12-11-2025 07:00:00,13.67,79.35,PM10,78,117,99
India,Andhra_Pradesh,Tirumala,"Toll Gate, Tirumala - APPCB",12-11-2025 07:00:00,13.67,79.35,SO2,5,9,7
India,Andhra_Pradesh,Tirumala,"Toll Gate, Tirumala - APPCB",12-11-2025 07:00:00,13.67,79.35,OZONE,21,101,29
India,Andhra_Pradesh,Kadapa,"Yerramukkapalli, Kadapa - APPCB",12-11-2025 07:00:00,14.465052,78.824187,PM10,66,83,71
India,Andhra_Pradesh,Kadapa,"Yerramukkapalli, Kadapa - APPCB",12-11-2025 07:00:00,14.465052,78.824187,OZONE,17,19,18
India,Andhra_Pradesh,Rajamahendravaram,"Anand Kala Kshetram, Rajamahendravaram - APPCB",12-11-2025 07:00:00,16.9872867,81.7363176,PM10,105,167,132
India,Bihar,Aurangabad,"Gurdeo Nagar, Aurangabad - BSPCB",12-11-2025 07:00:00,24.75746,84.366208,NO2,7,8,8
India,Bihar,Begusarai,"Lohiyanagar, Begusarai - BSPCB",12-11-2025 07:00:00,25.42742023,86.13886079,PM10,56,122,79
India,Andhra_Pradesh,Anantapur,"Gulzarpet, Anantapur - APPCB",12-11-2025 07:00:00,14.675886,77.593027,PM10,45,144,82
India,Andhra_Pradesh,Chittoor,"Gangineni Cheruvu, Chittoor - APPCB",12-11-2025 07:00:00,13.204880,79.097889,PM2.5,38,329,145
India,Assam,Silchar,"Tarapur, Silchar - PCBA",12-11-2025 07:00:00,24.82827,92.79525,NO2,17,25,18
India,Assam,Sivasagar,"Girls College, Sivasagar - PCBA",12-11-2025 07:00:00,26.987634,94.636574,PM10,32,81,49
India,Assam,Guwahati,"IITG, Guwahati - PCBA",12-11-2025 07:00:00,26.2028636,91.70046436,NH3,5,5,5
India,Assam,Guwahati,"LGBI Airport, Guwahati - PCBA",12-11-2025 07:00:00,26.10887,91.589544,SO2,7,14,12
India,Andhra_Pradesh,Vijayawada,"HB Colony, Vijayawada - APPCB",12-11-2025 07:00:00,16.536107,80.594233,PM2.5,48,91,67
India,Andhra_Pradesh,Vijayawada,"HB Colony, Vijayawada - APPCB",12-11-2025 07:00:00,16.536107,80.594233,PM10,49,110,72
India,Bihar,Arrah,"New DM Office, Arrah - BSPCB",12-11-2025 07:00:00,25.5626095,84.663264,PM2.5,26,53,42
India,Bihar,Patna,"Rajbansi Nagar, Patna - BSPCB",12-11-2025 07:00:00,25.599486,85.113666,OZONE,39,74,61
India,Bihar,Patna,"Samanpura, Patna - BSPCB",12-11-2025 07:00:00,25.596727,85.085624,NO2,38,52,44
India,Bihar,Patna,"Samanpura, Patna - BSPCB",12-11-2025 07:00:00,25.596727,85.085624,SO2,3,4,4
India,Bihar,Patna,"Samanpura, Patna - BSPCB",12-11-2025 07:00:00,25.596727,85.085624,CO,24,110,43
India,Bihar,Patna,"Samanpura, Patna - BSPCB",12-11-2025 07:00:00,25.596727,85.085624,OZONE,9,147,12
India,Bihar,Purnia,"Mariam Nagar, Purnia - BSPCB",12-11-2025 07:00:00,25.366336,87.117468,PM10,59,169,106
India,Bihar,Motihari,"Gandak Colony, Motihari - BSPCB",12-11-2025 07:00:00,26.63086,84.90051,PM2.5,NA,NA,NA
India,Bihar,Motihari,"Gandak Colony, Motihari - BSPCB",12-11-2025 07:00:00,26.63086,84.90051,SO2,2,3,2
India,Bihar,Munger,"Town Hall, Munger - BSPCB",12-11-2025 07:00:00,25.376776,86.471523,PM2.5,72,220,106
India,Bihar,Munger,"Town Hall, Munger - BSPCB",12-11-2025 07:00:00,25.376776,86.471523,CO,16,34,29
India,Bihar,Muzaffarpur,"Buddha Colony, Muzaffarpur - BSPCB",12-11-2025 07:00:00,26.11442,85.39813,SO2,3,6,4
India,Bihar,Kishanganj,"SDM Office_Khagra, Kishanganj - BSPCB",12-11-2025 07:00:00,26.0881305,87.93840336,NO2,9,11,10
India,Bihar,Kishanganj,"SDM Office_Khagra, Kishanganj - BSPCB",12-11-2025 07:00:00,26.0881305,87.93840336,CO,16,21,17
India,Bihar,Kishanganj,"SDM Office_Khagra, Kishanganj - BSPCB",12-11-2025 07:00:00,26.0881305,87.93840336,OZONE,16,18,17
India,Bihar,Manguraha,"Forest Rest House, Manguraha - BSPCB",12-11-2025 07:00:00,27.308328,84.531742,PM2.5,47,280,85
India,Bihar,Manguraha,"Forest Rest House, Manguraha - BSPCB",12-11-2025 07:00:00,27.308328,84.531742,NH3,1,2,1
India,Bihar,Muzaffarpur,"MIT-Daudpur Kothi, Muzaffarpur - BSPCB",12-11-2025 07:00:00,26.1403345,85.3650192,PM2.5,60,127,104
India,Bihar,Muzaffarpur,"Muzaffarpur Collectorate, Muzaffarpur - BSPCB",12-11-2025 07:00:00,26.1209,85.3647,NO2,9,18,11
India,Bihar,Muzaffarpur,"Muzaffarpur Collectorate, Muzaffarpur - BSPCB",12-11-2025 07:00:00,26.1209,85.3647,SO2,4,9,5
India,Bihar,Patna,"Govt. High School Shikarpur, Patna - BSPCB",12-11-2025 07:00:00,25.592539,85.227158,PM2.5,56,89,72
India,Bihar,Chhapra,"Darshan Nagar, Chhapra - BSPCB",12-11-2025 07:00:00,25.7808257,84.7446768,CO,6,21,7
India,Bihar,Gaya,"Collectorate, Gaya - BSPCB",12-11-2025 07:00:00,24.7955,84.9994,SO2,8,14,10
India,Bihar,Gaya,"Kareemganj, Gaya - BSPCB",12-11-2025 07:00:00,24.792403,84.992416,PM2.5,87,283,143
India,Bihar,Gaya,"Kareemganj, Gaya - BSPCB",12-11-2025 07:00:00,24.792403,84.992416,OZONE,4,57,15
India,Bihar,Gaya,"SFTI Kusdihra, Gaya - BSPCB",12-11-2025 07:00:00,24.762518,84.982348,PM10,54,76,66
India,Bihar,Gaya,"SFTI Kusdihra, Gaya - BSPCB",12-11-2025 07:00:00,24.762518,84.982348,SO2,5,11,8
India,Bihar,Gaya,"SFTI Kusdihra, Gaya - BSPCB",12-11-2025 07:00:00,24.762518,84.982348,CO,28,50,41
India,Bihar,Hajipur,"Industrial Area, Hajipur - BSPCB",12-11-2025 07:00:00,25.697189,85.245900,NH3,3,9,7
India,Bihar,Bettiah,"Kamalnath Nagar, Bettiah - BSPCB",12-11-2025 07:00:00,26.80365,84.51954,CO,62,104,102
India,Bihar,Bettiah,"Kamalnath Nagar, Bettiah - BSPCB",12-11-2025 07:00:00,26.80365,84.51954,OZONE,19,22,22
India,Bihar,Bhagalpur,"DM Office_Kachari Chowk, Bhagalpur - BSPCB",12-11-2025 07:00:00,25.251013,86.989001,NO2,7,9,8
India,Bihar,Patna,"IGSC Planetarium Complex, Patna - BSPCB",12-11-2025 07:00:00,25.610369,85.132568,CO,34,78,58
India,Bihar,Patna,"Muradpur, Patna - BSPCB",12-11-2025 07:00:00,25.619651,85.147382,NO2,3,3,3
India,Bihar,Patna,"Muradpur, Patna - BSPCB",12-11-2025 07:00:00,25.619651,85.147382,OZONE,4,41,6
India,Bihar,Chhapra,"Darshan Nagar, Chhapra - BSPCB",12-11-2025 07:00:00,25.7808257,84.7446768,NO2,2,4,3
India,Chhattisgarh,Korba,"Rampur, Korba - CECB",12-11-2025 07:00:00,22.368195,82.746431,SO2,7,22,9
India,Chhattisgarh,Korba,"Urja Nagar, Korba - CECB",12-11-2025 07:00:00,22.348441,82.549611,OZONE,35,36,36
India,Chhattisgarh,Kunjemura,"OP Jindal School, Kunjemura - CECB",12-11-2025 07:00:00,22.126650,83.483212,PM2.5,29,69,50
India,Chhattisgarh,Kunjemura,"OP Jindal School, Kunjemura - CECB",12-11-2025 07:00:00,22.126650,83.483212,PM10,22,204,84
India,Chhattisgarh,Kunjemura,"OP Jindal School, Kunjemura - CECB",12-11-2025 07:00:00,22.126650,83.483212,NH3,2,3,2
India,Chhattisgarh,Milupara,"Govt. Higher Secondary School, Milupara - CECB",12-11-2025 07:00:00,22.1910172,83.5197009,PM2.5,3,105,75
India,Chhattisgarh,Milupara,"Govt. Higher Secondary School, Milupara - CECB",12-11-2025 07:00:00,22.1910172,83.5197009,SO2,8,16,11
India,Chhattisgarh,Raipur,"AIIMS, Raipur - CECB",12-11-2025 07:00:00,21.258815,81.578979,NH3,4,5,4
India,Chhattisgarh,Raipur,"AIIMS, Raipur - CECB",12-11-2025 07:00:00,21.258815,81.578979,SO2,11,16,13
India,Chhattisgarh,Raipur,"AIIMS, Raipur - CECB",12-11-2025 07:00:00,21.258815,81.578979,OZONE,5,9,5
India,Chhattisgarh,Raipur,"Bhatagaon New ISBT, Raipur - CECB",12-11-2025 07:00:00,21.219665,81.630094,OZONE,3,10,3
India,Chhattisgarh,Raipur,"Krishak Nagar, Raipur - CECB",12-11-2025 07:00:00,21.237755,81.705301,NO2,15,20,18
India,Chhattisgarh,Raipur,"Krishak Nagar, Raipur - CECB",12-11-2025 07:00:00,21.237755,81.705301,OZONE,2,5,2
India,Chhattisgarh,Raipur,"Siltara Phase-II, Raipur - CECB",12-11-2025 07:00:00,21.371751,81.664929,PM2.5,50,183,89
India,Chhattisgarh,Raipur,"Siltara Phase-II, Raipur - CECB",12-11-2025 07:00:00,21.371751,81.664929,NO2,6,37,16
India,Chhattisgarh,Raipur,"Siltara Phase-II, Raipur - CECB",12-11-2025 07:00:00,21.371751,81.664929,NH3,3,3,3
India,Chhattisgarh,Tumidih,"OP Jindal Industrial Park, Tumidih - CECB",12-11-2025 07:00:00,22.06631475,83.33820077,NO2,53,95,72
India,Chhattisgarh,Tumidih,"OP Jindal Industrial Park, Tumidih - CECB",12-11-2025 07:00:00,22.06631475,83.33820077,OZONE,9,105,15
India,Bihar,Sasaram,"Dada Peer, Sasaram - BSPCB",12-11-2025 07:00:00,24.952822,84.002396,NH3,2,5,3
India,Bihar,Sasaram,"Dada Peer, Sasaram - BSPCB",12-11-2025 07:00:00,24.952822,84.002396,CO,48,64,51
India,Bihar,Siwan,"Chitragupta Nagar, Siwan - BSPCB",12-11-2025 07:00:00,26.2271665,84.3570427,PM10,NA,NA,NA
India,Chhattisgarh,Bhilai,"32Bungalows, Bhilai - CECB",12-11-2025 07:00:00,21.194815,81.314770,NH3,5,5,5
India,Chhattisgarh,Bhilai,"Civic Center, Bhilai - Bhilai Steel Plant",12-11-2025 07:00:00,21.185571,81.343175,NH3,3,3,3
India,Chhattisgarh,Bhilai,"Hathkhoj, Bhilai - CECB",12-11-2025 07:00:00,21.224231,81.408350,NH3,3,5,4
India,Bihar,Siwan,"Chitragupta Nagar, Siwan - BSPCB",12-11-2025 07:00:00,26.2271665,84.3570427,SO2,NA,NA,NA
India,Chandigarh,Chandigarh,"Sector 22, Chandigarh - CPCC",12-11-2025 07:00:00,30.735567,76.775714,NO2,3,29,11
India,Bihar,Rajgir,"Dangi Tola, Rajgir - BSPCB",12-11-2025 07:00:00,25.03280,85.41948,PM10,38,103,78
India,Bihar,Rajgir,"Dangi Tola, Rajgir - BSPCB",12-11-2025 07:00:00,25.03280,85.41948,SO2,14,23,20
India,Chhattisgarh,Chhal,"Nawapara SECL Colony, Chhal - CECB",12-11-2025 07:00:00,22.118125,83.140608,NH3,5,5,5
India,Chandigarh,Chandigarh,"Sector-53, Chandigarh - CPCC",12-11-2025 07:00:00,30.719859,76.738637,NO2,20,131,63
India,Delhi,Delhi,"Burari Crossing, Delhi - IMD",12-11-2025 07:00:00,28.7256504,77.2011573,NO2,74,160,117
India,Delhi,Delhi,"CRRI Mathura Road, Delhi - IMD",12-11-2025 07:00:00,28.5512005,77.2735737,PM2.5,165,500,428
India,Delhi,Delhi,"CRRI Mathura Road, Delhi - IMD",12-11-2025 07:00:00,28.5512005,77.2735737,OZONE,13,168,18
India,Delhi,Delhi,"Chandni Chowk, Delhi - IITM",12-11-2025 07:00:00,28.656756,77.227234,PM2.5,352,500,449
India,Delhi,Delhi,"Chandni Chowk, Delhi - IITM",12-11-2025 07:00:00,28.656756,77.227234,NH3,8,18,13
India,Delhi,Delhi,"Chandni Chowk, Delhi - IITM",12-11-2025 07:00:00,28.656756,77.227234,CO,46,106,100
India,Delhi,Delhi,"Chandni Chowk, Delhi - IITM",12-11-2025 07:00:00,28.656756,77.227234,OZONE,1,105,3
India,Delhi,Delhi,"Jahangirpuri, Delhi - DPCC",12-11-2025 07:00:00,28.732820,77.170633,PM10,248,500,443
India,Delhi,Delhi,"Jahangirpuri, Delhi - DPCC",12-11-2025 07:00:00,28.732820,77.170633,OZONE,7,43,10
India,Delhi,Delhi,"Jawaharlal Nehru Stadium, Delhi - DPCC",12-11-2025 07:00:00,28.580280,77.233829,PM10,211,500,413
India,Delhi,Delhi,"Jawaharlal Nehru Stadium, Delhi - DPCC",12-11-2025 07:00:00,28.580280,77.233829,NO2,52,177,121
India,Delhi,Delhi,"Jawaharlal Nehru Stadium, Delhi - DPCC",12-11-2025 07:00:00,28.580280,77.233829,OZONE,4,284,5
India,Delhi,Delhi,"IGI Airport (T3), Delhi - IMD",12-11-2025 07:00:00,28.5627763,77.1180053,PM2.5,290,500,395
India,Delhi,Delhi,"IHBAS, Dilshad Garden, Delhi - CPCB",12-11-2025 07:00:00,28.6811736,77.3025234,SO2,14,40,27
India,Delhi,Delhi,"ITO, Delhi - CPCB",12-11-2025 07:00:00,28.628624,77.241060,PM2.5,98,500,433
India,Delhi,Delhi,"ITO, Delhi - CPCB",12-11-2025 07:00:00,28.628624,77.241060,NH3,3,5,4
India,Delhi,Delhi,"Nehru Nagar, Delhi - DPCC",12-11-2025 07:00:00,28.567890,77.250515,PM2.5,321,500,440
India,Delhi,Delhi,"Nehru Nagar, Delhi - DPCC",12-11-2025 07:00:00,28.567890,77.250515,SO2,13,36,25
India,Delhi,Delhi,"Nehru Nagar, Delhi - DPCC",12-11-2025 07:00:00,28.567890,77.250515,CO,92,137,113
India,Delhi,Delhi,"North Campus, DU, Delhi - IMD",12-11-2025 07:00:00,28.6573814,77.1585447,NO2,24,234,113
India,Delhi,Delhi,"Anand Vihar, Delhi - DPCC",12-11-2025 07:00:00,28.647622,77.3158090,SO2,52,69,61
India,Delhi,Delhi,"Ashok Vihar, Delhi - DPCC",12-11-2025 07:00:00,28.695381,77.181665,NH3,1,1,1
India,Delhi,Delhi,"Ashok Vihar, Delhi - DPCC",12-11-2025 07:00:00,28.695381,77.181665,CO,43,114,86
India,Delhi,Delhi,"Major Dhyan Chand National Stadium, Delhi - DPCC",12-11-2025 07:00:00,28.611281,77.237738,PM10,186,468,373
India,Delhi,Delhi,"Mandir Marg, Delhi - DPCC",12-11-2025 07:00:00,28.636429,77.201067,PM10,143,465,341
India,Delhi,Delhi,"Mundka, Delhi - DPCC",12-11-2025 07:00:00,28.684678,77.076574,CO,28,103,86
India,Delhi,Delhi,"NSIT Dwarka, Delhi - CPCB",12-11-2025 07:00:00,28.60909,77.0325413,NO2,61,129,88
India,Delhi,Delhi,"Dwarka-Sector 8, Delhi - DPCC ",12-11-2025 07:00:00,28.5710274,77.0719006,CO,6,128,50
India,Delhi,Delhi,"Bawana, Delhi - DPCC",12-11-2025 07:00:00,28.776200,77.051074,PM10,197,500,400
India,Gujarat,Ahmedabad,"SVPI Airport Hansol, Ahmedabad - IITM",12-11-2025 07:00:00,23.076793,72.627874,PM2.5,52,244,135
India,Gujarat,Ahmedabad,"SVPI Airport Hansol, Ahmedabad - IITM",12-11-2025 07:00:00,23.076793,72.627874,NO2,32,63,46
India,Gujarat,Ahmedabad,"SVPI Airport Hansol, Ahmedabad - IITM",12-11-2025 07:00:00,23.076793,72.627874,NH3,1,7,4
India,Gujarat,Ankleshwar,"GIDC, Ankleshwar - GPCB",12-11-2025 07:00:00,21.613267,73.010555,NO2,19,28,23
India,Gujarat,Ankleshwar,"GIDC, Ankleshwar - GPCB",12-11-2025 07:00:00,21.613267,73.010555,SO2,33,43,37
India,Gujarat,Ankleshwar,"GIDC, Ankleshwar - GPCB",12-11-2025 07:00:00,21.613267,73.010555,CO,67,110,93
India,Gujarat,Gandhinagar,"GIFT City, Gandhinagar - IITM",12-11-2025 07:00:00,23.163798,72.677768,PM10,114,432,181
India,Gujarat,Gandhinagar,"GIFT City, Gandhinagar - IITM",12-11-2025 07:00:00,23.163798,72.677768,SO2,1,23,10
India,Delhi,Delhi,"Sirifort, Delhi - CPCB",12-11-2025 07:00:00,28.5504249,77.2159377,SO2,23,32,27
India,Delhi,Delhi,"Sirifort, Delhi - CPCB",12-11-2025 07:00:00,28.5504249,77.2159377,CO,27,107,101
India,Delhi,Delhi,"Sonia Vihar, Delhi - DPCC",12-11-2025 07:00:00,28.710508,77.249485,PM2.5,306,500,434
India,Delhi,Delhi,"Sonia Vihar, Delhi - DPCC",12-11-2025 07:00:00,28.710508,77.249485,NO2,27,123,65
India,Delhi,Delhi,"Sri Aurobindo Marg, Delhi - DPCC",12-11-2025 07:00:00,28.531346,77.190156,CO,37,98,89
India,Gujarat,Ahmedabad,"Rakhial, Ahmedabad - IITM",12-11-2025 07:00:00,23.016834,72.625775,PM10,74,301,143
India,Gujarat,Ahmedabad,"Rakhial, Ahmedabad - IITM",12-11-2025 07:00:00,23.016834,72.625775,CO,NA,NA,NA
India,Gujarat,Ahmedabad,"SAC ISRO Bopal, Ahmedabad - IITM",12-11-2025 07:00:00,23.041137,72.456691,PM2.5,34,251,129
India,Gujarat,Ahmedabad,"SAC ISRO Satellite, Ahmedabad - IITM",12-11-2025 07:00:00,23.023389,72.515201,PM2.5,78,181,112
India,Delhi,Delhi,"R K Puram, Delhi - DPCC",12-11-2025 07:00:00,28.563262,77.186937,CO,18,107,97
India,Delhi,Delhi,"Rohini, Delhi - DPCC",12-11-2025 07:00:00,28.732528,77.119920,SO2,3,11,6
India,Delhi,Delhi,"Shadipur, Delhi - CPCB",12-11-2025 07:00:00,28.6514781,77.1473105,SO2,1,27,8
India,Delhi,Delhi,"Shadipur, Delhi - CPCB",12-11-2025 07:00:00,28.6514781,77.1473105,CO,34,117,83
India,Gujarat,Ahmedabad,"Maninagar, Ahmedabad - GPCB",12-11-2025 07:00:00,23.002657,72.591912,PM2.5,65,361,251
India,Gujarat,Ahmedabad,"Maninagar, Ahmedabad - GPCB",12-11-2025 07:00:00,23.002657,72.591912,PM10,73,273,160
India,Gujarat,Ahmedabad,"Maninagar, Ahmedabad - GPCB",12-11-2025 07:00:00,23.002657,72.591912,OZONE,1,63,4
India,Gujarat,Ahmedabad,"Raikhad, Ahmedabad - IITM",12-11-2025 07:00:00,23.020509,72.579261,CO,3,132,60
India,Delhi,Delhi,"Wazirpur, Delhi - DPCC",12-11-2025 07:00:00,28.699793,77.165453,OZONE,8,302,14
India,Gujarat,Ahmedabad,"Chandkheda, Ahmedabad - IITM",12-11-2025 07:00:00,23.107969,72.574648,PM2.5,47,193,100
India,Gujarat,Ahmedabad,"Chandkheda, Ahmedabad - IITM",12-11-2025 07:00:00,23.107969,72.574648,NO2,13,125,62
India,Delhi,Delhi,"Pusa, Delhi - DPCC",12-11-2025 07:00:00,28.639652,77.146275,OZONE,3,64,5
India,Delhi,Delhi,"Pusa, Delhi - IMD",12-11-2025 07:00:00,28.636110,77.173332,CO,19,124,104
India,Delhi,Delhi,"R K Puram, Delhi - DPCC",12-11-2025 07:00:00,28.563262,77.186937,NO2,48,154,104
India,Delhi,Delhi,"Okhla Phase-2, Delhi - DPCC",12-11-2025 07:00:00,28.530785,77.271255,NO2,78,189,136
India,Delhi,Delhi,"Patparganj, Delhi - DPCC",12-11-2025 07:00:00,28.623763,77.287209,PM10,228,500,416
India,Delhi,Delhi,"Vivek Vihar, Delhi - DPCC",12-11-2025 07:00:00,28.672342,77.315260,NH3,11,12,12
India,Delhi,Delhi,"Wazirpur, Delhi - DPCC",12-11-2025 07:00:00,28.699793,77.165453,NO2,58,142,99
India,Haryana,Faridabad,"Sector 30, Faridabad - HSPCB",12-11-2025 07:00:00,28.4417,77.3217,PM10,191,198,194
India,Haryana,Faridabad,"Sector 30, Faridabad - HSPCB",12-11-2025 07:00:00,28.4417,77.3217,NO2,35,40,38
India,Haryana,Fatehabad,"Huda Sector, Fatehabad - HSPCB",12-11-2025 07:00:00,29.503664,75.467934,CO,25,58,31
India,Haryana,Gurugram,"NISE Gwal Pahari, Gurugram - IMD",12-11-2025 07:00:00,28.422681,77.148944,PM2.5,320,500,417
India,Haryana,Gurugram,"NISE Gwal Pahari, Gurugram - IMD",12-11-2025 07:00:00,28.422681,77.148944,PM10,207,500,382
India,Haryana,Bahadurgarh,"Arya Nagar, Bahadurgarh - HSPCB",12-11-2025 07:00:00,28.6701,76.9254,SO2,7,7,7
India,Haryana,Bahadurgarh,"Arya Nagar, Bahadurgarh - HSPCB",12-11-2025 07:00:00,28.6701,76.9254,OZONE,14,19,18
India,Haryana,Ballabgarh,"Nathu Colony, Ballabgarh - HSPCB",12-11-2025 07:00:00,28.3419248,77.319699,PM10,111,129,119
India,Haryana,Ballabgarh,"Nathu Colony, Ballabgarh - HSPCB",12-11-2025 07:00:00,28.3419248,77.319699,NO2,19,21,20
India,Haryana,Bhiwani,"H.B. Colony, Bhiwani - HSPCB",12-11-2025 07:00:00,28.806223,76.141105,PM2.5,187,460,324
India,Haryana,Bhiwani,"H.B. Colony, Bhiwani - HSPCB",12-11-2025 07:00:00,28.806223,76.141105,SO2,12,13,13
India,Haryana,Charkhi Dadri,"Mini Secretariat, Charkhi Dadri - HSPCB",12-11-2025 07:00:00,28.593883,76.270653,PM10,158,292,232
India,Haryana,Charkhi Dadri,"Mini Secretariat, Charkhi Dadri - HSPCB",12-11-2025 07:00:00,28.593883,76.270653,NO2,9,24,16
India,Haryana,Charkhi Dadri,"Mini Secretariat, Charkhi Dadri - HSPCB",12-11-2025 07:00:00,28.593883,76.270653,NH3,5,8,6
India,Haryana,Charkhi Dadri,"Mini Secretariat, Charkhi Dadri - HSPCB",12-11-2025 07:00:00,28.593883,76.270653,OZONE,13,17,15
India,Haryana,Kaithal,"Rishi Nagar, Kaithal - HSPCB",12-11-2025 07:00:00,29.8006,76.4155,PM2.5,163,377,273
India,Haryana,Karnal,"Sector-12, Karnal - HSPCB",12-11-2025 07:00:00,29.695300,77.002700,PM2.5,57,311,174
India,Haryana,Kurukshetra,"Sector-7, Kurukshetra - HSPCB",12-11-2025 07:00:00,29.966942,76.875879,NH3,5,5,5
India,Gujarat,Surat,"Science Center, Surat - SMC",12-11-2025 07:00:00,21.170046,72.795405,CO,36,40,39
India,Gujarat,Vapi,"Phase-1 GIDC, Vapi - GPCB",12-11-2025 07:00:00,20.362421,72.918013,PM2.5,62,331,234
India,Gujarat,Vapi,"Phase-1 GIDC, Vapi - GPCB",12-11-2025 07:00:00,20.362421,72.918013,NH3,5,6,5
India,Gujarat,Vapi,"Phase-1 GIDC, Vapi - GPCB",12-11-2025 07:00:00,20.362421,72.918013,OZONE,2,2,2
India,Haryana,Gurugram,"NISE Gwal Pahari, Gurugram - IMD",12-11-2025 07:00:00,28.422681,77.148944,NO2,28,75,44
India,Haryana,Gurugram,"NISE Gwal Pahari, Gurugram - IMD",12-11-2025 07:00:00,28.422681,77.148944,OZONE,5,104,9
India,Haryana,Gurugram,"Sector-51, Gurugram - HSPCB",12-11-2025 07:00:00,28.4227,77.0667,SO2,1,8,4
India,Haryana,Faridabad,"Sector 11, Faridabad - HSPCB",12-11-2025 07:00:00,28.376058,77.315741,PM2.5,180,347,288
India,Haryana,Faridabad,"Sector 11, Faridabad - HSPCB",12-11-2025 07:00:00,28.376058,77.315741,SO2,1,79,35
India,Haryana,Faridabad,"Sector 11, Faridabad - HSPCB",12-11-2025 07:00:00,28.376058,77.315741,CO,14,91,67
India,Gujarat,Gandhinagar,"GIFT City, Gandhinagar - IITM",12-11-2025 07:00:00,23.163798,72.677768,CO,29,92,54
India,Gujarat,Surat,"Science Center, Surat - SMC",12-11-2025 07:00:00,21.170046,72.795405,SO2,30,39,32
India,Haryana,Jind,"Police Lines, Jind - HSPCB",12-11-2025 07:00:00,29.307814,76.337619,NO2,12,14,13
India,Himachal Pradesh,Baddi,"HIMUDA Complex Phase-1, Baddi - HPPCB",12-11-2025 07:00:00,30.943887,76.801991,CO,40,94,68
India,Jammu_and_Kashmir,Srinagar,"Rajbagh, Srinagar - JKSPCB",12-11-2025 07:00:00,34.066206,74.819820,OZONE,1,45,1
India,Jharkhand,Dhanbad,"Sardar Patel Nagar, Dhanbad - JSPCB",12-11-2025 07:00:00,23.80569,86.44268,NO2,NA,NA,NA
India,Karnataka,Bagalkot,"Vidayagiri, Bagalkot - KSPCB",12-11-2025 07:00:00,16.172806,75.659694,PM10,53,54,54
India,Karnataka,Bengaluru,"Jigani, Bengaluru - KSPCB",12-11-2025 07:00:00,12.7816279,77.6299145,OZONE,19,21,20
India,Karnataka,Bengaluru,"Kasturi Nagar, Bengaluru - KSPCB",12-11-2025 07:00:00,13.003872,77.664217,PM2.5,57,59,58
India,Karnataka,Bengaluru,"Kasturi Nagar, Bengaluru - KSPCB",12-11-2025 07:00:00,13.003872,77.664217,NH3,2,3,2
India,Karnataka,Bengaluru,"RVCE-Mailasandra, Bengaluru - KSPCB",12-11-2025 07:00:00,12.921418,77.502466,PM2.5,27,29,28
India,Karnataka,Bengaluru,"Sanegurava Halli, Bengaluru - KSPCB",12-11-2025 07:00:00,12.990328,77.5431385,SO2,7,7,7
India,Karnataka,Bengaluru,"Hombegowda Nagar, Bengaluru - KSPCB",12-11-2025 07:00:00,12.938539,77.590100,NH3,3,4,3
India,Karnataka,Bengaluru,"Hombegowda Nagar, Bengaluru - KSPCB",12-11-2025 07:00:00,12.938539,77.590100,OZONE,5,80,22
India,Karnataka,Bengaluru,"Jayanagar 5th Block, Bengaluru - KSPCB",12-11-2025 07:00:00,12.920984,77.584908,PM10,87,168,114
India,Karnataka,Bengaluru,"Jayanagar 5th Block, Bengaluru - KSPCB",12-11-2025 07:00:00,12.920984,77.584908,SO2,2,47,14
India,Karnataka,Bengaluru,"Jayanagar 5th Block, Bengaluru - KSPCB",12-11-2025 07:00:00,12.920984,77.584908,OZONE,9,78,53
India,Haryana,Panipat,"Sector-18, Panipat - HSPCB",12-11-2025 07:00:00,29.432304,76.972765,NO2,31,32,31
India,Haryana,Rohtak,"MD University, Rohtak - HSPCB",12-11-2025 07:00:00,28.52123,76.37138,OZONE,12,13,13
India,Haryana,Sirsa,"F-Block, Sirsa - HSPCB",12-11-2025 07:00:00,29.536400,75.015800,PM2.5,213,458,343
India,Haryana,Sirsa,"F-Block, Sirsa - HSPCB",12-11-2025 07:00:00,29.536400,75.015800,NO2,11,28,18
India,Haryana,Mandikhera,"General Hospital, Mandikhera - HSPCB",12-11-2025 07:00:00,27.9002,76.9938,PM10,84,151,115
India,Haryana,Narnaul,"Shastri Nagar, Narnaul - HSPCB",12-11-2025 07:00:00,28.060249,76.113115,NH3,3,8,5
India,Haryana,Narnaul,"Shastri Nagar, Narnaul - HSPCB",12-11-2025 07:00:00,28.060249,76.113115,SO2,11,12,11
India,Haryana,Narnaul,"Shastri Nagar, Narnaul - HSPCB",12-11-2025 07:00:00,28.060249,76.113115,CO,18,48,33
India,Haryana,Palwal,"Shyam Nagar, Palwal - HSPCB",12-11-2025 07:00:00,28.1485564,77.3320667,OZONE,23,24,24
India,Haryana,Panchgaon,"Amity University, Panchgaon - IITM",12-11-2025 07:00:00,28.3153,76.9143,OZONE,1,97,3
India,Haryana,Panchkula,"Sector-6, Panchkula - HSPCB ",12-11-2025 07:00:00,30.7057778,76.8531805555555,NO2,24,26,25
India,Karnataka,Bengaluru,"BWSSB Kadabesanahalli, Bengaluru - CPCB",12-11-2025 07:00:00,12.9352049,77.6814488,OZONE,29,29,29
India,Karnataka,Bengaluru,"Hebbal, Bengaluru - KSPCB",12-11-2025 07:00:00,13.029152,77.585901,PM10,83,132,102
India,Karnataka,Bengaluru,"Hombegowda Nagar, Bengaluru - KSPCB",12-11-2025 07:00:00,12.938539,77.590100,PM2.5,60,94,70
India,Karnataka,Bengaluru,"BTM Layout, Bengaluru - CPCB",12-11-2025 07:00:00,12.9135218,77.5950804,PM2.5,41,65,51
India,Karnataka,Bengaluru,"BTM Layout, Bengaluru - CPCB",12-11-2025 07:00:00,12.9135218,77.5950804,NH3,3,3,3
India,Karnataka,Bengaluru,"BTM Layout, Bengaluru - CPCB",12-11-2025 07:00:00,12.9135218,77.5950804,OZONE,20,20,20
India,Haryana,Sonipat,"Murthal, Sonipat - HSPCB",12-11-2025 07:00:00,29.027200,77.062100,OZONE,25,26,26
India,Karnataka,Mangalore,"Kadri, Mangalore - KSPCB",12-11-2025 07:00:00,12.889250,74.853000,OZONE,17,43,28
India,Karnataka,Mysuru,"Hebbal 1st Stage, Mysuru - KSPCB",12-11-2025 07:00:00,12.21041,76.37376,PM2.5,14,62,30
India,Karnataka,Mysuru,"Hebbal 1st Stage, Mysuru - KSPCB",12-11-2025 07:00:00,12.21041,76.37376,NH3,4,6,5
India,Karnataka,Mysuru,"Hebbal 1st Stage, Mysuru - KSPCB",12-11-2025 07:00:00,12.21041,76.37376,CO,5,112,18
India,Karnataka,Shivamogga,"Vinoba Nagara, Shivamogga - KSPCB",12-11-2025 07:00:00,13.940000,75.555917,PM2.5,41,53,43
India,Karnataka,Shivamogga,"Vinoba Nagara, Shivamogga - KSPCB",12-11-2025 07:00:00,13.940000,75.555917,NH3,3,4,3
India,Karnataka,Shivamogga,"Vinoba Nagara, Shivamogga - KSPCB",12-11-2025 07:00:00,13.940000,75.555917,CO,8,26,23
India,Karnataka,Tumakuru,"Thimmalapura, Tumakuru - KSPCB",12-11-2025 07:00:00,13.377516,77.099072,NO2,NA,NA,NA
India,Kerala,Eloor,"Udyogamandal, Eloor - Kerala PCB",12-11-2025 07:00:00,10.073232,76.302765,SO2,1,1,1
India,Kerala,Kannur,"Thavakkara, Kannur - Kerala PCB",12-11-2025 07:00:00,11.875000,75.373200,NO2,13,17,15
India,Kerala,Kannur,"Thavakkara, Kannur - Kerala PCB",12-11-2025 07:00:00,11.875000,75.373200,OZONE,27,32,28
India,Kerala,Kollam,"Polayathode, Kollam - Kerala PCB",12-11-2025 07:00:00,8.8787,76.6073,PM2.5,NA,NA,NA
India,Kerala,Kollam,"Polayathode, Kollam - Kerala PCB",12-11-2025 07:00:00,8.8787,76.6073,PM10,NA,NA,NA
India,Karnataka,Chamarajanagar,"Urban, Chamarajanagar - KSPCB",12-11-2025 07:00:00,11.55358,76.55521,NO2,14,35,20
India,Karnataka,Chamarajanagar,"Urban, Chamarajanagar - KSPCB",12-11-2025 07:00:00,11.55358,76.55521,OZONE,14,37,15
India,Karnataka,Chikkamagaluru,"Kalyana Nagara, Chikkamagaluru - KSPCB",12-11-2025 07:00:00,13.328028,75.797056,PM10,41,61,55
India,Karnataka,Davanagere,"Devaraj Urs Badavane, Davanagere - KSPCB",12-11-2025 07:00:00,14.475800,75.905200,PM2.5,45,250,91
India,Karnataka,Hubballi,"Lingaraj Nagar, Hubballi - KSPCB",12-11-2025 07:00:00,15.3714823,75.1160168,PM10,49,63,60
India,Karnataka,Hubballi,"Lingaraj Nagar, Hubballi - KSPCB",12-11-2025 07:00:00,15.3714823,75.1160168,NO2,7,11,10
India,Karnataka,Hubballi,"Lingaraj Nagar, Hubballi - KSPCB",12-11-2025 07:00:00,15.3714823,75.1160168,NH3,1,2,2
India,Karnataka,Hubballi,"Lingaraj Nagar, Hubballi - KSPCB",12-11-2025 07:00:00,15.3714823,75.1160168,OZONE,15,22,15
India,Karnataka,Kalaburagi,"Lal Bahadur Shastri Nagar, Kalaburagi - KSPCB",12-11-2025 07:00:00,17.321993,76.822628,SO2,67,69,69
India,Karnataka,Kalaburagi,"Lal Bahadur Shastri Nagar, Kalaburagi - KSPCB",12-11-2025 07:00:00,17.321993,76.822628,CO,50,70,51
India,Karnataka,Koppal,"Diwator Nagar, Koppal - KSPCB",12-11-2025 07:00:00,15.347630,76.181767,NO2,29,38,33
India,Karnataka,Bengaluru,"Shivapura_Peenya, Bengaluru - KSPCB",12-11-2025 07:00:00,13.0246342,77.5080115,PM2.5,83,242,141
India,Karnataka,Bengaluru,"Shivapura_Peenya, Bengaluru - KSPCB",12-11-2025 07:00:00,13.0246342,77.5080115,OZONE,19,20,20
India,Karnataka,Bengaluru,"Silk Board, Bengaluru - KSPCB",12-11-2025 07:00:00,12.917348,77.622813,PM2.5,76,116,90
India,Karnataka,Madikeri,"Stuart Hill, Madikeri - KSPCB",12-11-2025 07:00:00,12.415911,75.735050,SO2,7,8,8
India,Karnataka,Mangalore,"Kadri, Mangalore - KSPCB",12-11-2025 07:00:00,12.889250,74.853000,PM10,54,95,70
India,Karnataka,Mangalore,"Kadri, Mangalore - KSPCB",12-11-2025 07:00:00,12.889250,74.853000,NH3,1,2,1
India,Karnataka,Dharwad,"Kalabhavan, Dharwad - KSPCB",12-11-2025 07:00:00,15.459706,75.008381,PM2.5,51,71,64
India,Karnataka,Dharwad,"Kalabhavan, Dharwad - KSPCB",12-11-2025 07:00:00,15.459706,75.008381,CO,46,103,55
India,Karnataka,Gadag,"Panchal Nagar, Gadag - KSPCB",12-11-2025 07:00:00,15.411456,75.638133,OZONE,12,48,29
India,Karnataka,Yadgir,"Collector Office, Yadgir - KSPCB",12-11-2025 07:00:00,16.7602,77.1428,PM10,76,130,95
India,Karnataka,Yadgir,"Collector Office, Yadgir - KSPCB",12-11-2025 07:00:00,16.7602,77.1428,NH3,2,2,2
India,Madhya Pradesh,Gwalior,"Maharaj Bada, Gwalior - MPPCB",12-11-2025 07:00:00,26.200388,78.147714,NO2,18,122,48
India,Madhya Pradesh,Gwalior,"Maharaj Bada, Gwalior - MPPCB",12-11-2025 07:00:00,26.200388,78.147714,OZONE,8,142,32
India,Madhya Pradesh,Indore,"Airport Area, Indore - IMC",12-11-2025 07:00:00,22.7289,75.8076,PM10,54,166,103
India,Madhya Pradesh,Indore,"Airport Area, Indore - IMC",12-11-2025 07:00:00,22.7289,75.8076,OZONE,1,10,2
India,Madhya Pradesh,Indore,"Chhoti Gwaltoli, Indore - MPPCB",12-11-2025 07:00:00,22.4310,75.5213,PM2.5,43,344,216
India,Madhya Pradesh,Indore,"Chhoti Gwaltoli, Indore - MPPCB",12-11-2025 07:00:00,22.4310,75.5213,CO,42,150,130
India,Kerala,Thiruvananthapuram,"Plammoodu, Thiruvananthapuram - Kerala PCB",12-11-2025 07:00:00,8.5149093,76.9435879,NO2,8,104,41
India,Kerala,Thiruvananthapuram,"Plammoodu, Thiruvananthapuram - Kerala PCB",12-11-2025 07:00:00,8.5149093,76.9435879,NH3,3,16,8
India,Kerala,Thiruvananthapuram,"Plammoodu, Thiruvananthapuram - Kerala PCB",12-11-2025 07:00:00,8.5149093,76.9435879,CO,10,24,11
India,Kerala,Thrissur,"Corporation Ground, Thrissur - Kerala PCB",12-11-2025 07:00:00,10.532400,76.215900,NO2,NA,NA,NA
India,Kerala,Thrissur,"Corporation Ground, Thrissur - Kerala PCB",12-11-2025 07:00:00,10.532400,76.215900,SO2,NA,NA,NA
