country,state,city,station,last_update,latitude,longitude,pollutant_id,min_value,max_value,avg_value
India,Assam,Silchar,"Tarapur, Silchar - PCBA",25-11-2025 05:00:00,24.82827,92.79525,SO2,4,7,6
India,Assam,Silchar,"Tarapur, Silchar - PCBA",25-11-2025 05:00:00,24.82827,92.79525,CO,30,68,53
India,Assam,Sivasagar,"Girls College, Sivasagar - PCBA",25-11-2025 05:00:00,26.987634,94.636574,NO2,19,38,26
India,Assam,Sivasagar,"Girls College, Sivasagar - PCBA",25-11-2025 05:00:00,26.987634,94.636574,NH3,4,21,10
India,Assam,Sivasagar,"Girls College, Sivasagar - PCBA",25-11-2025 05:00:00,26.987634,94.636574,CO,9,106,54
India,Assam,Sivasagar,"Girls College, Sivasagar - PCBA",25-11-2025 05:00:00,26.987634,94.636574,OZONE,3,58,6
India,Bihar,Araria,"Kharahiya Basti, Araria - BSPCB",25-11-2025 05:00:00,26.146529,87.454184,CO,25,34,32
India,Bihar,Arrah,"New DM Office, Arrah - BSPCB",25-11-2025 05:00:00,25.5626095,84.663264,PM2.5,75,243,177
India,Bihar,Aurangabad,"Gurdeo Nagar, Aurangabad - BSPCB",25-11-2025 05:00:00,24.75746,84.366208,NO2,7,8,8
India,Bihar,Bihar Sharif,"D M Colony, Bihar Sharif - BSPCB",25-11-2025 05:00:00,25.204762,85.514960,PM10,60,151,98
India,Bihar,Bihar Sharif,"D M Colony, Bihar Sharif - BSPCB",25-11-2025 05:00:00,25.204762,85.514960,CO,6,54,46
India,Bihar,Buxar,"Charitra Van, Buxar - BSPCB",25-11-2025 05:00:00,25.567520,83.966379,PM2.5,73,305,178
India,Bihar,Buxar,"Charitra Van, Buxar - BSPCB",25-11-2025 05:00:00,25.567520,83.966379,PM10,72,184,129
India,Bihar,Buxar,"Charitra Van, Buxar - BSPCB",25-11-2025 05:00:00,25.567520,83.966379,NH3,3,3,3
India,Bihar,Chhapra,"Darshan Nagar, Chhapra - BSPCB",25-11-2025 05:00:00,25.7808257,84.7446768,SO2,20,30,22
India,Bihar,Chhapra,"Darshan Nagar, Chhapra - BSPCB",25-11-2025 05:00:00,25.7808257,84.7446768,CO,8,22,14
India,Bihar,Chhapra,"Darshan Nagar, Chhapra - BSPCB",25-11-2025 05:00:00,25.7808257,84.7446768,OZONE,25,70,46
India,Bihar,Gaya,"Collectorate, Gaya - BSPCB",25-11-2025 05:00:00,24.7955,84.9994,NO2,9,9,9
India,Bihar,Gaya,"Collectorate, Gaya - BSPCB",25-11-2025 05:00:00,24.7955,84.9994,SO2,8,20,11
India,Assam,Guwahati,"LGBI Airport, Guwahati - PCBA",25-11-2025 05:00:00,26.10887,91.589544,CO,16,112,33
India,Assam,Guwahati,"Pan Bazaar, Guwahati - PCBA",25-11-2025 05:00:00,26.187500,91.744194,SO2,26,41,33
India,Assam,Guwahati,"Pan Bazaar, Guwahati - PCBA",25-11-2025 05:00:00,26.187500,91.744194,CO,11,64,46
India,Assam,Nagaon,"Christianpatty, Nagaon - PCBA",25-11-2025 05:00:00,26.349082,92.68449,NO2,1,1,1
India,Assam,Nagaon,"Christianpatty, Nagaon - PCBA",25-11-2025 05:00:00,26.349082,92.68449,SO2,12,14,13
India,Assam,Nalbari,"Bata Chowk, Nalbari - PCBA",25-11-2025 05:00:00,26.446912,91.439057,PM2.5,30,103,56
India,Assam,Silchar,"Tarapur, Silchar - PCBA",25-11-2025 05:00:00,24.82827,92.79525,PM2.5,35,87,61
India,Assam,Silchar,"Tarapur, Silchar - PCBA",25-11-2025 05:00:00,24.82827,92.79525,NH3,1,1,1
India,Assam,Byrnihat,"Central Academy for SFS, Byrnihat - PCBA",25-11-2025 05:00:00,26.071318,91.87488,PM10,50,141,89
India,Assam,Byrnihat,"Central Academy for SFS, Byrnihat - PCBA",25-11-2025 05:00:00,26.071318,91.87488,NH3,4,4,4
India,Assam,Byrnihat,"Central Academy for SFS, Byrnihat - PCBA",25-11-2025 05:00:00,26.071318,91.87488,OZONE,11,35,19
India,Assam,Guwahati,"IITG, Guwahati - PCBA",25-11-2025 05:00:00,26.2028636,91.70046436,NO2,1,6,2
India,Assam,Guwahati,"IITG, Guwahati - PCBA",25-11-2025 05:00:00,26.2028636,91.70046436,SO2,23,26,24
India,Assam,Guwahati,"LGBI Airport, Guwahati - PCBA",25-11-2025 05:00:00,26.10887,91.589544,PM2.5,31,77,65
India,Assam,Guwahati,"LGBI Airport, Guwahati - PCBA",25-11-2025 05:00:00,26.10887,91.589544,PM10,35,88,74
India,Assam,Guwahati,"LGBI Airport, Guwahati - PCBA",25-11-2025 05:00:00,26.10887,91.589544,SO2,5,31,15
India,Bihar,Gaya,"Kareemganj, Gaya - BSPCB",25-11-2025 05:00:00,24.792403,84.992416,NO2,2,7,5
India,Bihar,Gaya,"Kareemganj, Gaya - BSPCB",25-11-2025 05:00:00,24.792403,84.992416,CO,34,40,38
India,Bihar,Gaya,"SFTI Kusdihra, Gaya - BSPCB",25-11-2025 05:00:00,24.762518,84.982348,SO2,8,9,8
India,Bihar,Hajipur,"Industrial Area, Hajipur - BSPCB",25-11-2025 05:00:00,25.697189,85.245900,PM2.5,98,303,193
India,Bihar,Hajipur,"Industrial Area, Hajipur - BSPCB",25-11-2025 05:00:00,25.697189,85.245900,PM10,73,135,104
India,Bihar,Katihar,"Mirchaibari, Katihar - BSPCB",25-11-2025 05:00:00,25.560083,87.553265,SO2,18,27,22
India,Andhra_Pradesh,Anantapur,"Gulzarpet, Anantapur - APPCB",25-11-2025 05:00:00,14.675886,77.593027,OZONE,18,40,32
India,Andhra_Pradesh,Rajamahendravaram,"Anand Kala Kshetram, Rajamahendravaram - APPCB",25-11-2025 05:00:00,16.9872867,81.7363176,CO,25,42,33
India,Andhra_Pradesh,Tirumala,"Toll Gate, Tirumala - APPCB",25-11-2025 05:00:00,13.67,79.35,OZONE,6,321,58
India,Andhra_Pradesh,Tirupati,"Vaikuntapuram, Tirupati - APPCB",25-11-2025 05:00:00,13.615387,79.409230,NH3,NA,NA,NA
India,Andhra_Pradesh,Tirupati,"Vaikuntapuram, Tirupati - APPCB",25-11-2025 05:00:00,13.615387,79.409230,SO2,NA,NA,NA
India,Bihar,Katihar,"Mirchaibari, Katihar - BSPCB",25-11-2025 05:00:00,25.560083,87.553265,CO,72,102,91
India,Bihar,Kishanganj,"SDM Office_Khagra, Kishanganj - BSPCB",25-11-2025 05:00:00,26.0881305,87.93840336,OZONE,16,18,17
India,Bihar,Manguraha,"Forest Rest House, Manguraha - BSPCB",25-11-2025 05:00:00,27.308328,84.531742,CO,32,57,40
India,Bihar,Munger,"Town Hall, Munger - BSPCB",25-11-2025 05:00:00,25.376776,86.471523,NH3,5,8,6
India,Bihar,Aurangabad,"Gurdeo Nagar, Aurangabad - BSPCB",25-11-2025 05:00:00,24.75746,84.366208,OZONE,1,49,4
India,Bihar,Begusarai,"Lohiyanagar, Begusarai - BSPCB",25-11-2025 05:00:00,25.42742023,86.13886079,PM2.5,21,317,81
India,Bihar,Begusarai,"Lohiyanagar, Begusarai - BSPCB",25-11-2025 05:00:00,25.42742023,86.13886079,PM10,19,172,56
India,Bihar,Begusarai,"Lohiyanagar, Begusarai - BSPCB",25-11-2025 05:00:00,25.42742023,86.13886079,CO,29,32,30
India,Andhra_Pradesh,Amaravati,"Secretariat, Amaravati - APPCB",25-11-2025 05:00:00,16.5150833,80.5181667,OZONE,17,43,28
India,Andhra_Pradesh,Anantapur,"Gulzarpet, Anantapur - APPCB",25-11-2025 05:00:00,14.675886,77.593027,PM10,39,98,52
India,Andhra_Pradesh,Anantapur,"Gulzarpet, Anantapur - APPCB",25-11-2025 05:00:00,14.675886,77.593027,NO2,19,24,22
India,Andhra_Pradesh,Anantapur,"Gulzarpet, Anantapur - APPCB",25-11-2025 05:00:00,14.675886,77.593027,CO,22,40,34
India,Andhra_Pradesh,Vijayawada,"Rajiv Nagar, Vijayawada - APPCB",25-11-2025 05:00:00,16.554731,80.649110,CO,25,48,39
India,Andhra_Pradesh,Visakhapatnam,"GVM Corporation, Visakhapatnam - APPCB",25-11-2025 05:00:00,17.72,83.3,SO2,8,29,18
India,Chhattisgarh,Raipur,"Krishak Nagar, Raipur - CECB",25-11-2025 05:00:00,21.237755,81.705301,SO2,5,14,8
India,Chhattisgarh,Raipur,"Siltara Phase-II, Raipur - CECB",25-11-2025 05:00:00,21.371751,81.664929,NH3,3,3,3
India,Chhattisgarh,Tumidih,"OP Jindal Industrial Park, Tumidih - CECB",25-11-2025 05:00:00,22.06631475,83.33820077,NH3,1,2,2
India,Chhattisgarh,Tumidih,"OP Jindal Industrial Park, Tumidih - CECB",25-11-2025 05:00:00,22.06631475,83.33820077,CO,23,55,47
India,Delhi,Delhi,"Alipur, Delhi - DPCC",25-11-2025 05:00:00,28.815329,77.153010,PM10,167,443,364
India,Delhi,Delhi,"Alipur, Delhi - DPCC",25-11-2025 05:00:00,28.815329,77.153010,NH3,18,21,19
India,Delhi,Delhi,"Anand Vihar, Delhi - DPCC",25-11-2025 05:00:00,28.647622,77.3158090,PM2.5,280,479,403
India,Bihar,Samastipur,"DM Office_Kasipur, Samastipur - BSPCB",25-11-2025 05:00:00,25.859655,85.77944,OZONE,8,8,8
India,Bihar,Sasaram,"Dada Peer, Sasaram - BSPCB",25-11-2025 05:00:00,24.952822,84.002396,CO,22,100,58
India,Bihar,Siwan,"Chitragupta Nagar, Siwan - BSPCB",25-11-2025 05:00:00,26.2271665,84.3570427,NO2,NA,NA,NA
India,Bihar,Siwan,"Chitragupta Nagar, Siwan - BSPCB",25-11-2025 05:00:00,26.2271665,84.3570427,NH3,NA,NA,NA
India,Bihar,Siwan,"Chitragupta Nagar, Siwan - BSPCB",25-11-2025 05:00:00,26.2271665,84.3570427,CO,88,131,129
India,Chandigarh,Chandigarh,"Sector 22, Chandigarh - CPCC",25-11-2025 05:00:00,30.735567,76.775714,CO,54,122,92
India,Chandigarh,Chandigarh,"Sector-25, Chandigarh - CPCC",25-11-2025 05:00:00,30.751462,76.762879,PM2.5,86,176,137
India,Bihar,Muzaffarpur,"Buddha Colony, Muzaffarpur - BSPCB",25-11-2025 05:00:00,26.11442,85.39813,NO2,25,51,37
India,Bihar,Muzaffarpur,"MIT-Daudpur Kothi, Muzaffarpur - BSPCB",25-11-2025 05:00:00,26.1403345,85.3650192,NH3,1,1,1
India,Bihar,Muzaffarpur,"MIT-Daudpur Kothi, Muzaffarpur - BSPCB",25-11-2025 05:00:00,26.1403345,85.3650192,OZONE,16,55,43
India,Bihar,Muzaffarpur,"Muzaffarpur Collectorate, Muzaffarpur - BSPCB",25-11-2025 05:00:00,26.1209,85.3647,NO2,7,13,10
India,Bihar,Patna,"DRM Office Danapur, Patna - BSPCB",25-11-2025 05:00:00,25.586562,85.043586,PM2.5,95,270,163
India,Bihar,Patna,"Govt. High School Shikarpur, Patna - BSPCB",25-11-2025 05:00:00,25.592539,85.227158,PM10,77,110,91
India,Delhi,Delhi,"Anand Vihar, Delhi - DPCC",25-11-2025 05:00:00,28.647622,77.3158090,OZONE,15,27,18
India,Delhi,Delhi,"Ashok Vihar, Delhi - DPCC",25-11-2025 05:00:00,28.695381,77.181665,NH3,1,2,2
India,Delhi,Delhi,"Aya Nagar, Delhi - IMD",25-11-2025 05:00:00,28.4706914,77.1099364,PM2.5,287,390,345
India,Delhi,Delhi,"Aya Nagar, Delhi - IMD",25-11-2025 05:00:00,28.4706914,77.1099364,NO2,22,93,51
India,Delhi,Delhi,"Aya Nagar, Delhi - IMD",25-11-2025 05:00:00,28.4706914,77.1099364,OZONE,8,166,16
India,Delhi,Delhi,"Burari Crossing, Delhi - IMD",25-11-2025 05:00:00,28.7256504,77.2011573,PM10,157,439,336
India,Delhi,Delhi,"Burari Crossing, Delhi - IMD",25-11-2025 05:00:00,28.7256504,77.2011573,NO2,1,203,68
India,Delhi,Delhi,"Burari Crossing, Delhi - IMD",25-11-2025 05:00:00,28.7256504,77.2011573,CO,8,122,116
India,Bihar,Patna,"IGSC Planetarium Complex, Patna - BSPCB",25-11-2025 05:00:00,25.610369,85.132568,CO,34,70,59
India,Bihar,Patna,"Muradpur, Patna - BSPCB",25-11-2025 05:00:00,25.619651,85.147382,CO,NA,NA,NA
India,Bihar,Patna,"Rajbansi Nagar, Patna - BSPCB",25-11-2025 05:00:00,25.599486,85.113666,PM10,93,155,126
India,Bihar,Patna,"Rajbansi Nagar, Patna - BSPCB",25-11-2025 05:00:00,25.599486,85.113666,OZONE,20,28,26
India,Bihar,Patna,"Samanpura, Patna - BSPCB",25-11-2025 05:00:00,25.596727,85.085624,PM2.5,66,346,216
India,Bihar,Patna,"Samanpura, Patna - BSPCB",25-11-2025 05:00:00,25.596727,85.085624,PM10,115,390,198
India,Bihar,Patna,"Samanpura, Patna - BSPCB",25-11-2025 05:00:00,25.596727,85.085624,NH3,5,7,6
India,Chhattisgarh,Bilaspur,"Mangala, Bilaspur - NTPC",25-11-2025 05:00:00,22.08815,82.13737,SO2,7,46,18
India,Chhattisgarh,Chhal,"Nawapara SECL Colony, Chhal - CECB",25-11-2025 05:00:00,22.118125,83.140608,SO2,1,52,16
India,Chhattisgarh,Chhal,"Nawapara SECL Colony, Chhal - CECB",25-11-2025 05:00:00,22.118125,83.140608,CO,30,46,39
India,Chhattisgarh,Chhal,"Nawapara SECL Colony, Chhal - CECB",25-11-2025 05:00:00,22.118125,83.140608,OZONE,5,146,13
India,Chhattisgarh,Korba,"Rampur, Korba - CECB",25-11-2025 05:00:00,22.368195,82.746431,SO2,7,12,9
India,Chhattisgarh,Korba,"Urja Nagar, Korba - CECB",25-11-2025 05:00:00,22.348441,82.549611,PM10,72,73,73
India,Chandigarh,Chandigarh,"Sector-25, Chandigarh - CPCC",25-11-2025 05:00:00,30.751462,76.762879,OZONE,1,82,1
India,Chhattisgarh,Bhilai,"32Bungalows, Bhilai - CECB",25-11-2025 05:00:00,21.194815,81.314770,PM2.5,29,58,41
India,Chhattisgarh,Bhilai,"32Bungalows, Bhilai - CECB",25-11-2025 05:00:00,21.194815,81.314770,NO2,21,107,54
India,Chhattisgarh,Bhilai,"Civic Center, Bhilai - Bhilai Steel Plant",25-11-2025 05:00:00,21.185571,81.343175,PM10,35,148,61
India,Chhattisgarh,Bhilai,"Hathkhoj, Bhilai - CECB",25-11-2025 05:00:00,21.224231,81.408350,NO2,28,97,57
India,Bihar,Purnia,"Mariam Nagar, Purnia - BSPCB",25-11-2025 05:00:00,25.366336,87.117468,NO2,5,6,6
India,Bihar,Purnia,"Mariam Nagar, Purnia - BSPCB",25-11-2025 05:00:00,25.366336,87.117468,NH3,3,3,3
India,Bihar,Rajgir,"Dangi Tola, Rajgir - BSPCB",25-11-2025 05:00:00,25.03280,85.41948,PM10,68,145,110
India,Bihar,Rajgir,"Dangi Tola, Rajgir - BSPCB",25-11-2025 05:00:00,25.03280,85.41948,OZONE,31,34,32
India,Bihar,Saharsa,"Police Line, Saharsa - BSPCB",25-11-2025 05:00:00,25.892357,86.590325,PM2.5,43,229,131
India,Bihar,Saharsa,"Police Line, Saharsa - BSPCB",25-11-2025 05:00:00,25.892357,86.590325,OZONE,1,39,12
India,Chhattisgarh,Kunjemura,"OP Jindal School, Kunjemura - CECB",25-11-2025 05:00:00,22.126650,83.483212,CO,23,39,33
India,Chhattisgarh,Raipur,"AIIMS, Raipur - CECB",25-11-2025 05:00:00,21.258815,81.578979,SO2,5,8,6
India,Chhattisgarh,Raipur,"Bhatagaon New ISBT, Raipur - CECB",25-11-2025 05:00:00,21.219665,81.630094,PM2.5,NA,NA,NA
India,Chhattisgarh,Raipur,"Bhatagaon New ISBT, Raipur - CECB",25-11-2025 05:00:00,21.219665,81.630094,PM10,NA,NA,NA
India,Delhi,Delhi,"Wazirpur, Delhi - DPCC",25-11-2025 05:00:00,28.699793,77.165453,NO2,70,166,114
India,Delhi,Delhi,"Wazirpur, Delhi - DPCC",25-11-2025 05:00:00,28.699793,77.165453,NH3,11,16,13
India,Delhi,Delhi,"Wazirpur, Delhi - DPCC",25-11-2025 05:00:00,28.699793,77.165453,OZONE,1,148,6
India,Gujarat,Ahmedabad,"Gyaspur, Ahmedabad - IITM",25-11-2025 05:00:00,22.977134,72.553024,PM2.5,92,236,158
India,Gujarat,Ahmedabad,"Gyaspur, Ahmedabad - IITM",25-11-2025 05:00:00,22.977134,72.553024,NO2,37,150,94
India,Gujarat,Ahmedabad,"Gyaspur, Ahmedabad - IITM",25-11-2025 05:00:00,22.977134,72.553024,SO2,4,60,29
India,Gujarat,Ahmedabad,"Gyaspur, Ahmedabad - IITM",25-11-2025 05:00:00,22.977134,72.553024,CO,44,124,108
India,Gujarat,Ahmedabad,"Maninagar, Ahmedabad - GPCB",25-11-2025 05:00:00,23.002657,72.591912,PM2.5,NA,NA,NA
India,Gujarat,Ahmedabad,"Maninagar, Ahmedabad - GPCB",25-11-2025 05:00:00,23.002657,72.591912,OZONE,8,69,11
India,Delhi,Delhi,"R K Puram, Delhi - DPCC",25-11-2025 05:00:00,28.563262,77.186937,NH3,5,8,6
India,Delhi,Delhi,"R K Puram, Delhi - DPCC",25-11-2025 05:00:00,28.563262,77.186937,SO2,2,13,9
India,Delhi,Delhi,"Rohini, Delhi - DPCC",25-11-2025 05:00:00,28.732528,77.119920,PM2.5,303,500,418
India,Delhi,Delhi,"Rohini, Delhi - DPCC",25-11-2025 05:00:00,28.732528,77.119920,CO,48,156,138
India,Delhi,Delhi,"Shadipur, Delhi - CPCB",25-11-2025 05:00:00,28.6514781,77.1473105,PM10,199,446,342
India,Delhi,Delhi,"Sirifort, Delhi - CPCB",25-11-2025 05:00:00,28.5504249,77.2159377,NH3,6,12,10
India,Delhi,Delhi,"Narela, Delhi - DPCC",25-11-2025 05:00:00,28.822836,77.101981,NO2,23,96,61
India,Delhi,Delhi,"Narela, Delhi - DPCC",25-11-2025 05:00:00,28.822836,77.101981,CO,6,90,62
India,Delhi,Delhi,"North Campus, DU, Delhi - IMD",25-11-2025 05:00:00,28.6573814,77.1585447,OZONE,16,308,46
India,Delhi,Delhi,"Okhla Phase-2, Delhi - DPCC",25-11-2025 05:00:00,28.530785,77.271255,NO2,82,214,148
India,Delhi,Delhi,"Okhla Phase-2, Delhi - DPCC",25-11-2025 05:00:00,28.530785,77.271255,SO2,14,24,17
India,Delhi,Delhi,"Okhla Phase-2, Delhi - DPCC",25-11-2025 05:00:00,28.530785,77.271255,CO,48,139,130
India,Delhi,Delhi,"Jahangirpuri, Delhi - DPCC",25-11-2025 05:00:00,28.732820,77.170633,PM2.5,257,489,401
India,Delhi,Delhi,"Jahangirpuri, Delhi - DPCC",25-11-2025 05:00:00,28.732820,77.170633,SO2,17,52,36
India,Delhi,Delhi,"Jawaharlal Nehru Stadium, Delhi - DPCC",25-11-2025 05:00:00,28.580280,77.233829,CO,47,149,134
India,Delhi,Delhi,"Jawaharlal Nehru Stadium, Delhi - DPCC",25-11-2025 05:00:00,28.580280,77.233829,OZONE,2,257,3
India,Delhi,Delhi,"Lodhi Road, Delhi - IMD",25-11-2025 05:00:00,28.5918245,77.2273074,PM10,178,414,268
India,Delhi,Delhi,"Sirifort, Delhi - CPCB",25-11-2025 05:00:00,28.5504249,77.2159377,OZONE,7,23,10
India,Delhi,Delhi,"Sonia Vihar, Delhi - DPCC",25-11-2025 05:00:00,28.710508,77.249485,CO,68,154,154
India,Delhi,Delhi,"Sri Aurobindo Marg, Delhi - DPCC",25-11-2025 05:00:00,28.531346,77.190156,PM10,134,298,205
India,Delhi,Delhi,"Sri Aurobindo Marg, Delhi - DPCC",25-11-2025 05:00:00,28.531346,77.190156,SO2,1,16,9
India,Delhi,Delhi,"Mandir Marg, Delhi - DPCC",25-11-2025 05:00:00,28.636429,77.201067,NO2,34,118,78
India,Delhi,Delhi,"Mandir Marg, Delhi - DPCC",25-11-2025 05:00:00,28.636429,77.201067,OZONE,9,116,12
India,Delhi,Delhi,"Mundka, Delhi - DPCC",25-11-2025 05:00:00,28.684678,77.076574,CO,68,121,108
India,Delhi,Delhi,"NSIT Dwarka, Delhi - CPCB",25-11-2025 05:00:00,28.60909,77.0325413,SO2,12,20,15
India,Delhi,Delhi,"Patparganj, Delhi - DPCC",25-11-2025 05:00:00,28.623763,77.287209,NH3,11,15,13
India,Delhi,Delhi,"Punjabi Bagh, Delhi - DPCC",25-11-2025 05:00:00,28.674045,77.131023,PM10,181,449,353
India,Delhi,Delhi,"Pusa, Delhi - DPCC",25-11-2025 05:00:00,28.639652,77.146275,PM2.5,309,434,364
India,Delhi,Delhi,"Pusa, Delhi - DPCC",25-11-2025 05:00:00,28.639652,77.146275,NO2,47,189,113
India,Delhi,Delhi,"Chandni Chowk, Delhi - IITM",25-11-2025 05:00:00,28.656756,77.227234,SO2,2,41,14
India,Delhi,Delhi,"Dr. Karni Singh Shooting Range, Delhi - DPCC",25-11-2025 05:00:00,28.498571,77.264840,PM2.5,257,483,376
India,Delhi,Delhi,"Dr. Karni Singh Shooting Range, Delhi - DPCC",25-11-2025 05:00:00,28.498571,77.264840,SO2,12,34,20
India,Delhi,Delhi,"IHBAS, Dilshad Garden, Delhi - CPCB",25-11-2025 05:00:00,28.6811736,77.3025234,PM10,189,301,249
India,Delhi,Delhi,"IHBAS, Dilshad Garden, Delhi - CPCB",25-11-2025 05:00:00,28.6811736,77.3025234,NH3,4,7,5
India,Delhi,Delhi,"ITO, Delhi - CPCB",25-11-2025 05:00:00,28.628624,77.241060,NH3,3,7,5
India,Haryana,Faridabad,"Sector 30, Faridabad - HSPCB",25-11-2025 05:00:00,28.4417,77.3217,NO2,35,38,37
India,Haryana,Faridabad,"Sector 30, Faridabad - HSPCB",25-11-2025 05:00:00,28.4417,77.3217,NH3,11,12,11
India,Haryana,Fatehabad,"Huda Sector, Fatehabad - HSPCB",25-11-2025 05:00:00,29.503664,75.467934,PM2.5,83,317,195
India,Haryana,Fatehabad,"Huda Sector, Fatehabad - HSPCB",25-11-2025 05:00:00,29.503664,75.467934,PM10,116,227,163
India,Haryana,Fatehabad,"Huda Sector, Fatehabad - HSPCB",25-11-2025 05:00:00,29.503664,75.467934,NO2,18,20,19
India,Haryana,Fatehabad,"Huda Sector, Fatehabad - HSPCB",25-11-2025 05:00:00,29.503664,75.467934,OZONE,10,120,12
India,Haryana,Gurugram,"NISE Gwal Pahari, Gurugram - IMD",25-11-2025 05:00:00,28.422681,77.148944,PM10,NA,NA,NA
India,Haryana,Gurugram,"Sector-51, Gurugram - HSPCB",25-11-2025 05:00:00,28.4227,77.0667,OZONE,9,47,14
India,Haryana,Ambala,"Patti Mehar, Ambala - HSPCB",25-11-2025 05:00:00,30.379589,76.778328,CO,98,101,100
India,Haryana,Bahadurgarh,"Arya Nagar, Bahadurgarh - HSPCB",25-11-2025 05:00:00,28.6701,76.9254,PM10,NA,NA,NA
India,Haryana,Ballabgarh,"Nathu Colony, Ballabgarh - HSPCB",25-11-2025 05:00:00,28.3419248,77.319699,SO2,5,9,7
India,Haryana,Ballabgarh,"Nathu Colony, Ballabgarh - HSPCB",25-11-2025 05:00:00,28.3419248,77.319699,OZONE,14,15,15
India,Haryana,Bhiwani,"H.B. Colony, Bhiwani - HSPCB",25-11-2025 05:00:00,28.806223,76.141105,NO2,1,34,31
India,Haryana,Bhiwani,"H.B. Colony, Bhiwani - HSPCB",25-11-2025 05:00:00,28.806223,76.141105,NH3,1,9,8
India,Haryana,Charkhi Dadri,"Mini Secretariat, Charkhi Dadri - HSPCB",25-11-2025 05:00:00,28.593883,76.270653,OZONE,13,17,15
India,Haryana,Dharuhera,"Municipal Corporation Office, Dharuhera -  HSPCB",25-11-2025 05:00:00,28.206800,76.799700,SO2,10,22,15
India,Haryana,Faridabad,"New Industrial Town, Faridabad - HSPCB",25-11-2025 05:00:00,28.39072,77.30059,PM2.5,222,237,230
India,Haryana,Faridabad,"New Industrial Town, Faridabad - HSPCB",25-11-2025 05:00:00,28.39072,77.30059,PM10,163,170,167
India,Gujarat,Gandhinagar,"Sector-10, Gandhinagar - GPCB",25-11-2025 05:00:00,23.221714,72.654328,CO,26,42,34
India,Gujarat,Gandhinagar,"Sector-10, Gandhinagar - GPCB",25-11-2025 05:00:00,23.221714,72.654328,OZONE,7,79,17
India,Gujarat,Surat,"Science Center, Surat - SMC",25-11-2025 05:00:00,21.170046,72.795405,PM10,111,263,171
India,Gujarat,Vapi,"Phase-1 GIDC, Vapi - GPCB",25-11-2025 05:00:00,20.362421,72.918013,NO2,29,95,50
India,Gujarat,Vapi,"Phase-1 GIDC, Vapi - GPCB",25-11-2025 05:00:00,20.362421,72.918013,NH3,2,4,3
India,Gujarat,Ahmedabad,"SVPI Airport Hansol, Ahmedabad - IITM",25-11-2025 05:00:00,23.076793,72.627874,PM10,133,401,204
India,Gujarat,Ankleshwar,"GIDC, Ankleshwar - GPCB",25-11-2025 05:00:00,21.613267,73.010555,OZONE,41,47,43
India,Gujarat,Gandhinagar,"Sector-10, Gandhinagar - GPCB",25-11-2025 05:00:00,23.221714,72.654328,PM2.5,54,124,79
India,Gujarat,Gandhinagar,"Sector-10, Gandhinagar - GPCB",25-11-2025 05:00:00,23.221714,72.654328,NH3,2,3,2
India,Haryana,Kaithal,"Rishi Nagar, Kaithal - HSPCB",25-11-2025 05:00:00,29.8006,76.4155,PM10,87,279,142
India,Haryana,Kaithal,"Rishi Nagar, Kaithal - HSPCB",25-11-2025 05:00:00,29.8006,76.4155,NH3,5,6,6
India,Haryana,Kaithal,"Rishi Nagar, Kaithal - HSPCB",25-11-2025 05:00:00,29.8006,76.4155,CO,8,109,51
India,Haryana,Kurukshetra,"Sector-7, Kurukshetra - HSPCB",25-11-2025 05:00:00,29.966942,76.875879,NO2,17,22,19
India,Haryana,Gurugram,"Vikas Sadan, Gurugram - HSPCB",25-11-2025 05:00:00,28.4501238,77.0263051,NO2,9,47,27
India,Haryana,Hisar,"Urban Estate-II, Hisar - HSPCB",25-11-2025 05:00:00,29.140560,75.744941,PM10,116,280,174
India,Haryana,Hisar,"Urban Estate-II, Hisar - HSPCB",25-11-2025 05:00:00,29.140560,75.744941,OZONE,42,119,50
India,Gujarat,Ahmedabad,"Raikhad, Ahmedabad - IITM",25-11-2025 05:00:00,23.020509,72.579261,NH3,4,11,8
India,Gujarat,Ahmedabad,"Rakhial, Ahmedabad - IITM",25-11-2025 05:00:00,23.016834,72.625775,PM2.5,138,330,234
India,Gujarat,Ahmedabad,"SAC ISRO Satellite, Ahmedabad - IITM",25-11-2025 05:00:00,23.023389,72.515201,CO,2,123,69
India,Haryana,Manesar,"Sector-2 IMT, Manesar - HSPCB",25-11-2025 05:00:00,28.360699,76.936090,OZONE,10,50,12
India,Haryana,Palwal,"Shyam Nagar, Palwal - HSPCB",25-11-2025 05:00:00,28.1485564,77.3320667,PM2.5,39,83,57
India,Haryana,Palwal,"Shyam Nagar, Palwal - HSPCB",25-11-2025 05:00:00,28.1485564,77.3320667,NO2,23,24,24
India,Haryana,Rohtak,"MD University, Rohtak - HSPCB",25-11-2025 05:00:00,28.52123,76.37138,OZONE,12,13,13
India,Haryana,Sirsa,"F-Block, Sirsa - HSPCB",25-11-2025 05:00:00,29.536400,75.015800,SO2,1,48,13
India,Haryana,Sonipat,"Murthal, Sonipat - HSPCB",25-11-2025 05:00:00,29.027200,77.062100,CO,14,63,47
India,Haryana,Yamuna Nagar,"Gobind Pura, Yamuna Nagar - HSPCB",25-11-2025 05:00:00,30.1480566,77.2893471,PM10,140,186,165
India,Himachal Pradesh,Baddi,"HIMUDA Complex Phase-1, Baddi - HPPCB",25-11-2025 05:00:00,30.943887,76.801991,PM10,63,352,165
India,Haryana,Panchgaon,"Amity University, Panchgaon - IITM",25-11-2025 05:00:00,28.3153,76.9143,PM10,NA,NA,NA
India,Haryana,Panchgaon,"Amity University, Panchgaon - IITM",25-11-2025 05:00:00,28.3153,76.9143,SO2,NA,NA,NA
India,Haryana,Panchkula,"Sector-6, Panchkula - HSPCB ",25-11-2025 05:00:00,30.7057778,76.8531805555555,PM2.5,6,278,98
India,Haryana,Panipat,"Sector-18, Panipat - HSPCB",25-11-2025 05:00:00,29.432304,76.972765,NO2,8,53,28
India,Haryana,Rohtak,"MD University, Rohtak - HSPCB",25-11-2025 05:00:00,28.52123,76.37138,PM2.5,101,342,237
India,Haryana,Rohtak,"MD University, Rohtak - HSPCB",25-11-2025 05:00:00,28.52123,76.37138,NO2,5,6,6
India,Karnataka,Belgaum,"Ramteerth Nagar, Belgaum - KSPCB",25-11-2025 05:00:00,15.888653,74.541751,CO,10,16,10
India,Karnataka,Bengaluru,"BWSSB Kadabesanahalli, Bengaluru - CPCB",25-11-2025 05:00:00,12.9352049,77.6814488,SO2,NA,NA,NA
India,Karnataka,Bengaluru,"City Railway Station, Bengaluru - KSPCB",25-11-2025 05:00:00,12.9756843,77.5660749,NO2,NA,NA,NA
India,Karnataka,Bengaluru,"Hombegowda Nagar, Bengaluru - KSPCB",25-11-2025 05:00:00,12.938539,77.590100,PM10,20,70,48
India,Karnataka,Bengaluru,"Jayanagar 5th Block, Bengaluru - KSPCB",25-11-2025 05:00:00,12.920984,77.584908,CO,4,55,28
India,Karnataka,Chamarajanagar,"Urban, Chamarajanagar - KSPCB",25-11-2025 05:00:00,11.55358,76.55521,NO2,14,35,26
India,Karnataka,Chamarajanagar,"Urban, Chamarajanagar - KSPCB",25-11-2025 05:00:00,11.55358,76.55521,NH3,1,3,2
India,Karnataka,Chamarajanagar,"Urban, Chamarajanagar - KSPCB",25-11-2025 05:00:00,11.55358,76.55521,CO,18,120,33
India,Karnataka,Davanagere,"Devaraj Urs Badavane, Davanagere - KSPCB",25-11-2025 05:00:00,14.475800,75.905200,CO,26,28,27
India,Karnataka,Dharwad,"Kalabhavan, Dharwad - KSPCB",25-11-2025 05:00:00,15.459706,75.008381,PM10,68,89,78
India,Karnataka,Dharwad,"Kalabhavan, Dharwad - KSPCB",25-11-2025 05:00:00,15.459706,75.008381,NO2,20,27,25
India,Jharkhand,Dhanbad,"Sardar Patel Nagar, Dhanbad - JSPCB",25-11-2025 05:00:00,23.80569,86.44268,PM2.5,NA,NA,NA
India,Jharkhand,Dhanbad,"Sardar Patel Nagar, Dhanbad - JSPCB",25-11-2025 05:00:00,23.80569,86.44268,PM10,78,217,156
India,Jharkhand,Dhanbad,"Sardar Patel Nagar, Dhanbad - JSPCB",25-11-2025 05:00:00,23.80569,86.44268,SO2,15,111,50
India,Jharkhand,Dhanbad,"Sardar Patel Nagar, Dhanbad - JSPCB",25-11-2025 05:00:00,23.80569,86.44268,OZONE,NA,NA,NA
India,Karnataka,Bagalkot,"Vidayagiri, Bagalkot - KSPCB",25-11-2025 05:00:00,16.172806,75.659694,PM10,53,54,54
India,Karnataka,Bengaluru,"RVCE-Mailasandra, Bengaluru - KSPCB",25-11-2025 05:00:00,12.921418,77.502466,PM2.5,48,58,50
India,Karnataka,Bengaluru,"RVCE-Mailasandra, Bengaluru - KSPCB",25-11-2025 05:00:00,12.921418,77.502466,PM10,31,158,76
India,Karnataka,Bengaluru,"RVCE-Mailasandra, Bengaluru - KSPCB",25-11-2025 05:00:00,12.921418,77.502466,NH3,3,5,4
India,Karnataka,Bengaluru,"Silk Board, Bengaluru - KSPCB",25-11-2025 05:00:00,12.917348,77.622813,SO2,7,10,9
India,Karnataka,Gadag,"Panchal Nagar, Gadag - KSPCB",25-11-2025 05:00:00,15.411456,75.638133,PM2.5,NA,NA,NA
India,Karnataka,Gadag,"Panchal Nagar, Gadag - KSPCB",25-11-2025 05:00:00,15.411456,75.638133,OZONE,9,39,26
India,Karnataka,Kalaburagi,"Lal Bahadur Shastri Nagar, Kalaburagi - KSPCB",25-11-2025 05:00:00,17.321993,76.822628,PM10,NA,NA,NA
India,Karnataka,Kalaburagi,"Lal Bahadur Shastri Nagar, Kalaburagi - KSPCB",25-11-2025 05:00:00,17.321993,76.822628,SO2,NA,NA,NA
India,Karnataka,Belgaum,"Ramteerth Nagar, Belgaum - KSPCB",25-11-2025 05:00:00,15.888653,74.541751,PM2.5,NA,NA,NA
India,Karnataka,Belgaum,"Ramteerth Nagar, Belgaum - KSPCB",25-11-2025 05:00:00,15.888653,74.541751,PM10,NA,NA,NA
India,Karnataka,Belgaum,"Ramteerth Nagar, Belgaum - KSPCB",25-11-2025 05:00:00,15.888653,74.541751,NO2,NA,NA,NA
India,Karnataka,Kalaburagi,"Mahatma Basaveswar Colony, Kalaburgi - KSPCB",25-11-2025 05:00:00,17.336318,76.847397,CO,38,56,46
India,Kerala,Thiruvananthapuram,"Kariavattom, Thiruvananthapuram - Kerala PCB",25-11-2025 05:00:00,8.563700,76.886500,OZONE,36,36,36
India,Kerala,Thiruvananthapuram,"Plammoodu, Thiruvananthapuram - Kerala PCB",25-11-2025 05:00:00,8.5149093,76.9435879,NO2,5,62,35
India,Kerala,Thiruvananthapuram,"Plammoodu, Thiruvananthapuram - Kerala PCB",25-11-2025 05:00:00,8.5149093,76.9435879,SO2,10,24,16
India,Kerala,Thrissur,"Corporation Ground, Thrissur - Kerala PCB",25-11-2025 05:00:00,10.532400,76.215900,CO,18,36,20
India,Madhya Pradesh,Bhopal,"Idgah Hills, Bhopal - MPPCB",25-11-2025 05:00:00,23.264759,77.381568,PM10,165,379,219
India,Madhya Pradesh,Bhopal,"Idgah Hills, Bhopal - MPPCB",25-11-2025 05:00:00,23.264759,77.381568,NO2,23,79,40
India,Madhya Pradesh,Bhopal,"Idgah Hills, Bhopal - MPPCB",25-11-2025 05:00:00,23.264759,77.381568,OZONE,18,97,32
India,Madhya Pradesh,Jabalpur,"Gupteshwar, Jabalpur - JMC",25-11-2025 05:00:00,23.142888,79.916147,NO2,26,103,50
India,Madhya Pradesh,Jabalpur,"Gupteshwar, Jabalpur - JMC",25-11-2025 05:00:00,23.142888,79.916147,NH3,9,13,11
India,Madhya Pradesh,Jabalpur,"Gupteshwar, Jabalpur - JMC",25-11-2025 05:00:00,23.142888,79.916147,SO2,7,9,8
India,Madhya Pradesh,Jabalpur,"Gupteshwar, Jabalpur - JMC",25-11-2025 05:00:00,23.142888,79.916147,OZONE,3,95,20
India,Madhya Pradesh,Jabalpur,"Suhagi, Jabalpur - JMC",25-11-2025 05:00:00,23.218135,79.957770,SO2,6,7,7
India,Madhya Pradesh,Jabalpur,"Suhagi, Jabalpur - JMC",25-11-2025 05:00:00,23.218135,79.957770,CO,12,104,54
India,Madhya Pradesh,Katni,"Gole Bazar, Katni - MPPCB",25-11-2025 05:00:00,23.50016,80.23284,SO2,14,36,26
India,Madhya Pradesh,Katni,"Gole Bazar, Katni - MPPCB",25-11-2025 05:00:00,23.50016,80.23284,OZONE,12,145,26
India,Karnataka,Mysuru,"Hebbal 1st Stage, Mysuru - KSPCB",25-11-2025 05:00:00,12.21041,76.37376,PM10,26,61,41
India,Karnataka,Shivamogga,"Vinoba Nagara, Shivamogga - KSPCB",25-11-2025 05:00:00,13.940000,75.555917,PM2.5,24,38,30
India,Karnataka,Vijayapura,"Ibrahimpur, Vijayapura - KSPCB",25-11-2025 05:00:00,16.802639,75.722694,PM2.5,25,31,30
India,Karnataka,Vijayapura,"Ibrahimpur, Vijayapura - KSPCB",25-11-2025 05:00:00,16.802639,75.722694,NH3,1,2,1
India,Karnataka,Yadgir,"Collector Office, Yadgir - KSPCB",25-11-2025 05:00:00,16.7602,77.1428,PM10,45,108,63
India,Madhya Pradesh,Gwalior,"Deen Dayal Nagar, Gwalior - MPPCB",25-11-2025 05:00:00,26.259242,78.216432,CO,4,138,101
India,Madhya Pradesh,Gwalior,"Maharaj Bada, Gwalior - MPPCB",25-11-2025 05:00:00,26.200388,78.147714,PM10,76,309,139
India,Madhya Pradesh,Indore,"Airport Area, Indore - IMC",25-11-2025 05:00:00,22.7289,75.8076,CO,6,10,8
India,Madhya Pradesh,Indore,"Chhoti Gwaltoli, Indore - MPPCB",25-11-2025 05:00:00,22.4310,75.5213,PM10,105,210,163
India,Madhya Pradesh,Indore,"Chhoti Gwaltoli, Indore - MPPCB",25-11-2025 05:00:00,22.4310,75.5213,NH3,1,4,2
India,Madhya Pradesh,Bhopal,"Paryavaran Parisar, Bhopal - MPPCB",25-11-2025 05:00:00,23.210494,77.425409,CO,5,112,42
India,Madhya Pradesh,Bhopal,"Paryavaran Parisar, Bhopal - MPPCB",25-11-2025 05:00:00,23.210494,77.425409,OZONE,4,67,20
India,Madhya Pradesh,Bhopal,"T T Nagar, Bhopal - MPPCB",25-11-2025 05:00:00,23.233584,77.400574,SO2,5,14,10
India,Madhya Pradesh,Gwalior,"City Center, Gwalior - MPPCB",25-11-2025 05:00:00,26.203442,78.193251,SO2,9,17,13
India,Madhya Pradesh,Gwalior,"Deen Dayal Nagar, Gwalior - MPPCB",25-11-2025 05:00:00,26.259242,78.216432,PM2.5,72,378,236
India,Madhya Pradesh,Mandideep,"Sector-D Industrial Area, Mandideep - MPPCB",25-11-2025 05:00:00,23.108440,77.511428,CO,NA,NA,NA
India,Madhya Pradesh,Mandideep,"Sector-D Industrial Area, Mandideep - MPPCB",25-11-2025 05:00:00,23.108440,77.511428,OZONE,10,92,47
India,Madhya Pradesh,Pithampur,"Sector-2 Industrial Area, Pithampur - MPPCB",25-11-2025 05:00:00,22.624758,75.675238,PM2.5,180,362,290
India,Madhya Pradesh,Ratlam,"Shasthri Nagar, Ratlam - IPCA Lab",25-11-2025 05:00:00,23.331731,75.045981,PM10,141,414,190
India,Kerala,Kannur,"Thavakkara, Kannur - Kerala PCB",25-11-2025 05:00:00,11.875000,75.373200,PM2.5,45,55,50
India,Kerala,Kannur,"Thavakkara, Kannur - Kerala PCB",25-11-2025 05:00:00,11.875000,75.373200,OZONE,28,31,28
India,Kerala,Kollam,"Polayathode, Kollam - Kerala PCB",25-11-2025 05:00:00,8.8787,76.6073,SO2,2,3,2
India,Karnataka,Koppal,"Diwator Nagar, Koppal - KSPCB",25-11-2025 05:00:00,15.347630,76.181767,PM2.5,17,38,24
India,Karnataka,Madikeri,"Stuart Hill, Madikeri - KSPCB",25-11-2025 05:00:00,12.415911,75.735050,SO2,7,7,7
India,Madhya Pradesh,Indore,"Regional Park, Indore - IMC",25-11-2025 05:00:00,22.6780,75.8559,NO2,5,7,7
India,Madhya Pradesh,Indore,"Regional Park, Indore - IMC",25-11-2025 05:00:00,22.6780,75.8559,OZONE,13,18,15
India,Maharashtra,Aurangabad,"MIDC Chilkalthana, Aurangabad - MPCB",25-11-2025 05:00:00,19.875620,75.387310,NH3,1,3,2
India,Maharashtra,Aurangabad,"MIDC Chilkalthana, Aurangabad - MPCB",25-11-2025 05:00:00,19.875620,75.387310,SO2,1,2,1
India,Maharashtra,Aurangabad,"MIDC Chilkalthana, Aurangabad - MPCB",25-11-2025 05:00:00,19.875620,75.387310,CO,2,73,48
India,Maharashtra,Aurangabad,"More Chowk Waluj, Aurangabad - MPCB",25-11-2025 05:00:00,19.8389439,75.244448,PM10,52,117,83
India,Maharashtra,Aurangabad,"More Chowk Waluj, Aurangabad - MPCB",25-11-2025 05:00:00,19.8389439,75.244448,NH3,10,12,10
India,Maharashtra,Aurangabad,"More Chowk Waluj, Aurangabad - MPCB",25-11-2025 05:00:00,19.8389439,75.244448,OZONE,26,29,27
India,Maharashtra,Aurangabad,"Rachnakar Colony, Aurangabad - MPCB",25-11-2025 05:00:00,19.863756,75.321188,PM10,43,166,127
India,Maharashtra,Aurangabad,"Rachnakar Colony, Aurangabad - MPCB",25-11-2025 05:00:00,19.863756,75.321188,NH3,2,5,3
India,Maharashtra,Badlapur,"Katrap, Badlapur - MPCB",25-11-2025 05:00:00,19.16485,73.23409,PM2.5,42,329,143
India,Maharashtra,Badlapur,"Katrap, Badlapur - MPCB",25-11-2025 05:00:00,19.16485,73.23409,PM10,68,318,148
India,Maharashtra,Badlapur,"Katrap, Badlapur - MPCB",25-11-2025 05:00:00,19.16485,73.23409,SO2,5,16,10
India,Maharashtra,Belapur,"CBD Belapur, Belapur - MPCB",25-11-2025 05:00:00,19.0243902,73.0406721,PM2.5,157,307,221
India,Maharashtra,Chandrapur,"MIDC Khutala, Chandrapur - MPCB",25-11-2025 05:00:00,19.9775302,79.2337086,NH3,2,9,5
India,Maharashtra,Chandrapur,"MIDC Khutala, Chandrapur - MPCB",25-11-2025 05:00:00,19.9775302,79.2337086,CO,35,43,39
India,Maharashtra,Chandrapur,"MIDC Khutala, Chandrapur - MPCB",25-11-2025 05:00:00,19.9775302,79.2337086,OZONE,16,19,18
India,Maharashtra,Dhule,"Deopur, Dhule - MPCB",25-11-2025 05:00:00,20.918946,74.776388,PM2.5,34,221,109
India,Maharashtra,Dhule,"Deopur, Dhule - MPCB",25-11-2025 05:00:00,20.918946,74.776388,NO2,9,50,26
India,Maharashtra,Dhule,"Deopur, Dhule - MPCB",25-11-2025 05:00:00,20.918946,74.776388,CO,25,58,43
India,Maharashtra,Jalgaon,"Prabhat Colony, Jalgaon - MPCB",25-11-2025 05:00:00,21.001264,75.565602,PM10,59,118,86
India,Maharashtra,Jalgaon,"Prabhat Colony, Jalgaon - MPCB",25-11-2025 05:00:00,21.001264,75.565602,CO,20,28,24
India,Maharashtra,Jalgaon,"Prabhat Colony, Jalgaon - MPCB",25-11-2025 05:00:00,21.001264,75.565602,OZONE,25,81,37
India,Maharashtra,Jalna,"Old MIDC, Jalna - MPCB",25-11-2025 05:00:00,19.854616,75.905894,PM10,34,244,93
India,Maharashtra,Jalna,"Old MIDC, Jalna - MPCB",25-11-2025 05:00:00,19.854616,75.905894,NO2,39,48,43
India,Maharashtra,Kalyan,"Khadakpada, Kalyan - MPCB",25-11-2025 05:00:00,19.25292,73.142019,NH3,1,1,1
India,Maharashtra,Kalyan,"Pimpleshwar Mandir, Kalyan - MPCB",25-11-2025 05:00:00,19.192056,72.9585188,PM2.5,NA,NA,NA
India,Maharashtra,Kalyan,"Pimpleshwar Mandir, Kalyan - MPCB",25-11-2025 05:00:00,19.192056,72.9585188,SO2,10,27,14
India,Maharashtra,Kalyan,"Pimpleshwar Mandir, Kalyan - MPCB",25-11-2025 05:00:00,19.192056,72.9585188,OZONE,5,157,29
India,Maharashtra,Kolhapur,"Shivaji University, Kolhapur - MPCB",25-11-2025 05:00:00,16.6870449,74.2505872,NH3,2,3,3
India,Maharashtra,Malegaon,"Mahesh Nagar, Malegaon - MPCB",25-11-2025 05:00:00,20.555712,74.529236,OZONE,6,72,30
India,Maharashtra,Mira-Bhayandar,"Bhayandar West, Mira-Bhayandar - MPCB",25-11-2025 05:00:00,19.296481,72.840923,PM2.5,138,278,184
India,Maharashtra,Mira-Bhayandar,"Bhayandar West, Mira-Bhayandar - MPCB",25-11-2025 05:00:00,19.296481,72.840923,SO2,3,5,4
India,Maharashtra,Mumbai,"Bandra Kurla Complex, Mumbai - MPCB",25-11-2025 05:00:00,19.065931,72.862131,OZONE,1,82,9
India,Maharashtra,Mumbai,"Borivali East, Mumbai - IITM",25-11-2025 05:00:00,19.23241,72.86895,PM2.5,131,302,217
India,Maharashtra,Mumbai,"Borivali East, Mumbai - MPCB",25-11-2025 05:00:00,19.2243333,72.8658113,SO2,NA,NA,NA
India,Maharashtra,Mumbai,"Byculla, Mumbai - BMC",25-11-2025 05:00:00,18.9767,72.8380,CO,32,106,73
India,Maharashtra,Mumbai,"Chakala-Andheri East, Mumbai - IITM",25-11-2025 05:00:00,19.11074,72.86084,PM2.5,225,315,278
India,Maharashtra,Mumbai,"Chakala-Andheri East, Mumbai - IITM",25-11-2025 05:00:00,19.11074,72.86084,SO2,1,32,13
India,Maharashtra,Mumbai,"Chakala-Andheri East, Mumbai - IITM",25-11-2025 05:00:00,19.11074,72.86084,OZONE,2,96,9
India,Madhya Pradesh,Sagar,"Civil Lines, Sagar - MPPCB",25-11-2025 05:00:00,23.838586,78.759431,CO,36,87,54
India,Madhya Pradesh,Satna,"Bandhavgar Colony, Satna - Birla Cement",25-11-2025 05:00:00,24.58434363,80.8549414,NO2,12,13,12
India,Madhya Pradesh,Singrauli,"Suryakiran Bhawan NCL, Singrauli - MPPCB",25-11-2025 05:00:00,24.108970,82.645580,NH3,11,51,19
India,Maharashtra,Bhiwandi,"Gokul Nagar, Bhiwandi - MPCB",25-11-2025 05:00:00,19.309073,73.057223,SO2,8,19,12
India,Maharashtra,Chandrapur,"Chauhan Colony, Chandrapur - MPCB",25-11-2025 05:00:00,19.962900,79.298714,NO2,30,34,32
India,Maharashtra,Chandrapur,"Chauhan Colony, Chandrapur - MPCB",25-11-2025 05:00:00,19.962900,79.298714,NH3,2,2,2
India,Maharashtra,Chandrapur,"Chauhan Colony, Chandrapur - MPCB",25-11-2025 05:00:00,19.962900,79.298714,OZONE,20,20,20
India,Maharashtra,Kolhapur,"Sinchan Bhavan, Kolhapur - MPCB",25-11-2025 05:00:00,16.7143745,74.2426398,SO2,1,5,3
India,Maharashtra,Malegaon,"Mahesh Nagar, Malegaon - MPCB",25-11-2025 05:00:00,20.555712,74.529236,PM2.5,20,187,64
India,Maharashtra,Malegaon,"Mahesh Nagar, Malegaon - MPCB",25-11-2025 05:00:00,20.555712,74.529236,PM10,57,149,84
India,Maharashtra,Amravati,"Shri Shivaji Science College, Amravati - MPCB",25-11-2025 05:00:00,20.939198,77.765701,NH3,2,5,3
India,Maharashtra,Amravati,"Shri Shivaji Science College, Amravati - MPCB",25-11-2025 05:00:00,20.939198,77.765701,OZONE,23,85,68
India,Maharashtra,Mumbai,"Shivaji Nagar, Mumbai - BMC",25-11-2025 05:00:00,19.060498,72.923356,OZONE,2,83,15
India,Maharashtra,Mumbai,"Siddharth Nagar-Worli, Mumbai - IITM",25-11-2025 05:00:00,19.000083,72.813993,OZONE,3,140,87
India,Maharashtra,Mumbai,"Sion, Mumbai - MPCB",25-11-2025 05:00:00,19.047000,72.874600,NH3,4,6,5
India,Maharashtra,Mumbai,"Sion, Mumbai - MPCB",25-11-2025 05:00:00,19.047000,72.874600,CO,12,18,16
India,Maharashtra,Mumbai,"Vasai West, Mumbai - MPCB",25-11-2025 05:00:00,19.383200,72.820400,PM2.5,65,173,101
India,Maharashtra,Mumbai,"Vasai West, Mumbai - MPCB",25-11-2025 05:00:00,19.383200,72.820400,SO2,8,9,8
India,Maharashtra,Mumbai,"Vasai West, Mumbai - MPCB",25-11-2025 05:00:00,19.383200,72.820400,CO,48,50,50
India,Maharashtra,Mumbai,"Vasai West, Mumbai - MPCB",25-11-2025 05:00:00,19.383200,72.820400,OZONE,10,22,11
India,Maharashtra,Mumbai,"Vile Parle West, Mumbai - MPCB",25-11-2025 05:00:00,19.10861,72.83622,PM2.5,80,204,131
India,Maharashtra,Nagpur,"Opp GPO Civil Lines, Nagpur - MPCB",25-11-2025 05:00:00,21.152875,79.0517531,PM10,97,173,119
India,Maharashtra,Nagpur,"Opp GPO Civil Lines, Nagpur - MPCB",25-11-2025 05:00:00,21.152875,79.0517531,NH3,1,7,3
India,Maharashtra,Nagpur,"Opp GPO Civil Lines, Nagpur - MPCB",25-11-2025 05:00:00,21.152875,79.0517531,CO,20,129,121
India,Maharashtra,Nanded,"Sneh Nagar, Nanded - MPCB",25-11-2025 05:00:00,19.173852,77.296291,NO2,7,45,16
India,Maharashtra,Nashik,"Gangapur Road, Nashik - MPCB",25-11-2025 05:00:00,20.0073285,73.7762427,PM2.5,58,95,73
India,Maharashtra,Nashik,"Gangapur Road, Nashik - MPCB",25-11-2025 05:00:00,20.0073285,73.7762427,PM10,73,128,100
India,Maharashtra,Nashik,"Gangapur Road, Nashik - MPCB",25-11-2025 05:00:00,20.0073285,73.7762427,CO,32,34,33
India,Maharashtra,Nashik,"Hirawadi, Nashik - MPCB",25-11-2025 05:00:00,20.021503,73.813844,NO2,11,39,21
India,Maharashtra,Nashik,"Pandav Nagari, Nashik - MPCB",25-11-2025 05:00:00,19.9591346,73.7788008,CO,NA,NA,NA
India,Maharashtra,Navi Mumbai,"Kopripada-Vashi, Navi Mumbai - MPCB",25-11-2025 05:00:00,19.090337,73.014232,PM2.5,74,298,165
India,Maharashtra,Navi Mumbai,"Kopripada-Vashi, Navi Mumbai - MPCB",25-11-2025 05:00:00,19.090337,73.014232,NO2,15,54,34
India,Maharashtra,Navi Mumbai,"Kopripada-Vashi, Navi Mumbai - MPCB",25-11-2025 05:00:00,19.090337,73.014232,NH3,3,11,6
India,Maharashtra,Mumbai,"Kurla, Mumbai - MPCB",25-11-2025 05:00:00,19.0863,72.8888,PM10,103,175,127
India,Maharashtra,Mumbai,"Mazgaon, Mumbai - IITM",25-11-2025 05:00:00,18.96702,72.84214,NO2,45,154,99
India,Maharashtra,Mumbai,"Mazgaon, Mumbai - IITM",25-11-2025 05:00:00,18.96702,72.84214,SO2,4,12,9
India,Maharashtra,Mumbai,"Mazgaon, Mumbai - IITM",25-11-2025 05:00:00,18.96702,72.84214,CO,76,113,100
India,Maharashtra,Mumbai,"Mazgaon, Mumbai - IITM",25-11-2025 05:00:00,18.96702,72.84214,OZONE,4,169,36
India,Maharashtra,Mumbai,"Deonar, Mumbai - IITM",25-11-2025 05:00:00,19.04946,72.9230,NH3,13,17,15
India,Maharashtra,Mumbai,"Ghatkopar, Mumbai - BMC",25-11-2025 05:00:00,19.083694,72.920967,PM2.5,70,157,102
India,Maharashtra,Mumbai,"Kandivali East, Mumbai - MPCB",25-11-2025 05:00:00,19.205800,72.868200,PM10,69,184,132
India,Maharashtra,Mumbai,"Kherwadi_Bandra East, Mumbai - MPCB",25-11-2025 05:00:00,19.0632143,72.8456324,NO2,4,61,23
India,Maharashtra,Mumbai,"Khindipada-Bhandup West, Mumbai - IITM",25-11-2025 05:00:00,19.1653323,72.922099,PM10,60,160,118
India,Maharashtra,Mumbai,"Khindipada-Bhandup West, Mumbai - IITM",25-11-2025 05:00:00,19.1653323,72.922099,NH3,2,3,2
India,Maharashtra,Navi Mumbai,"Mahape, Navi Mumbai - MPCB",25-11-2025 05:00:00,19.1135051,73.008978,PM10,104,160,128
India,Maharashtra,Navi Mumbai,"Sector-2E Kalamboli, Navi Mumbai - MPCB",25-11-2025 05:00:00,19.02579,73.10297,NH3,6,15,11
India,Maharashtra,Navi Mumbai,"Sector-2E Kalamboli, Navi Mumbai - MPCB",25-11-2025 05:00:00,19.02579,73.10297,SO2,1,6,3
India,Maharashtra,Mumbai,"Navy Nagar-Colaba, Mumbai - IITM",25-11-2025 05:00:00,18.897756,72.813320,OZONE,6,108,59
India,Maharashtra,Mumbai,"Shivaji Nagar, Mumbai - BMC",25-11-2025 05:00:00,19.060498,72.923356,NH3,3,5,4
India,Maharashtra,Nagpur,"Mahal, Nagpur - MPCB",25-11-2025 05:00:00,21.14472,79.107595,CO,34,123,84
India,Maharashtra,Pune,"Mhada Colony, Pune - IITM",25-11-2025 05:00:00,18.573040,73.927715,NO2,11,80,45
India,Maharashtra,Pune,"Mhada Colony, Pune - IITM",25-11-2025 05:00:00,18.573040,73.927715,CO,3,151,87
India,Maharashtra,Pune,"Panchawati_Pashan, Pune - IITM",25-11-2025 05:00:00,18.536457,73.805454,PM2.5,NA,NA,NA
India,Maharashtra,Pune,"Revenue Colony-Shivajinagar, Pune - IITM",25-11-2025 05:00:00,18.530085,73.849598,PM10,57,182,130
India,Maharashtra,Pune,"Revenue Colony-Shivajinagar, Pune - IITM",25-11-2025 05:00:00,18.530085,73.849598,CO,54,144,99
India,Maharashtra,Pune,"Revenue Colony-Shivajinagar, Pune - IITM",25-11-2025 05:00:00,18.530085,73.849598,OZONE,1,67,2
India,Maharashtra,Pune,"Savitribai Phule Pune University, Pune - MPCB",25-11-2025 05:00:00,18.547056,73.826908,PM2.5,12,138,72
India,Maharashtra,Pune,"Transport Nagar-Nigdi, Pune - IITM",25-11-2025 05:00:00,18.664282,73.763966,PM2.5,35,203,103
India,Maharashtra,Pimpri-Chinchwad,"Savta Mali Nagar, Pimpri-Chinchwad - IITM",25-11-2025 05:00:00,18.614767,73.799516,NO2,NA,NA,NA
India,Maharashtra,Pimpri-Chinchwad,"Thergaon, Pimpri Chinchwad - MPCB",25-11-2025 05:00:00,18.616318,73.765797,PM2.5,63,156,94
India,Maharashtra,Pune,"Bhumkar Nagar, Pune - IITM",25-11-2025 05:00:00,18.605770,73.749976,NO2,4,12,7
India,Maharashtra,Pune,"Hadapsar, Pune - IITM",25-11-2025 05:00:00,18.501793,73.927532,PM2.5,57,160,97
India,Maharashtra,Pune,"Hadapsar, Pune - IITM",25-11-2025 05:00:00,18.501793,73.927532,NO2,13,57,38
India,Maharashtra,Pune,"Hadapsar, Pune - IITM",25-11-2025 05:00:00,18.501793,73.927532,CO,26,82,70
India,Maharashtra,Pune,"Katraj Dairy, Pune - MPCB",25-11-2025 05:00:00,18.454450,73.854155,NO2,15,86,47
India,Maharashtra,Pune,"Katraj Dairy, Pune - MPCB",25-11-2025 05:00:00,18.454450,73.854155,CO,22,114,81
India,Odisha,Brajrajnagar,"GM Office, Brajrajnagar - OSPCB",25-11-2025 05:00:00,21.8004996,83.8396977,CO,6,27,11
India,Odisha,Byasanagar,"Ferro Chrome Colony, Byasanagar - OSPCB",25-11-2025 05:00:00,20.94185,86.11510,CO,18,64,29
India,Odisha,Cuttack,"CDA Area, Cuttack - OSPCB",25-11-2025 05:00:00,20.48891     ,85.84768     ,PM2.5,287,370,320
India,Odisha,Cuttack,"CDA Area, Cuttack - OSPCB",25-11-2025 05:00:00,20.48891     ,85.84768     ,PM10,156,409,207
India,Odisha,Cuttack,"CDA Area, Cuttack - OSPCB",25-11-2025 05:00:00,20.48891     ,85.84768     ,CO,34,100,59
India,Odisha,Keonjhar,"Jagamohanpur, Keonjhar - OSPCB",25-11-2025 05:00:00,21.643900,85.599355,CO,5,100,41
India,Odisha,Keonjhar,"Jagamohanpur, Keonjhar - OSPCB",25-11-2025 05:00:00,21.643900,85.599355,OZONE,16,19,18
India,Maharashtra,Sangli,"Vijay Nagar, Sangli - MPCB",25-11-2025 05:00:00, 16.5038,74.3623,NO2,8,45,24
India,Maharashtra,Solapur,"Dnyaneshwar Nagar, Solapur - MPCB",25-11-2025 05:00:00,17.6336264,75.9132495,SO2,1,19,5
India,Maharashtra,Solapur,"Dnyaneshwar Nagar, Solapur - MPCB",25-11-2025 05:00:00,17.6336264,75.9132495,CO,11,60,25
India,Maharashtra,Solapur,"Ratandeep Housing Society, Solapur - MPCB",25-11-2025 05:00:00,17.65439,75.90649,PM10,71,134,96
India,Maharashtra,Solapur,"Ratandeep Housing Society, Solapur - MPCB",25-11-2025 05:00:00,17.65439,75.90649,NH3,2,20,5
India,Maharashtra,Thane,"Kasarvadavali, Thane - MPCB",25-11-2025 05:00:00,19.26777,72.97182,NO2,10,47,13
India,Maharashtra,Thane,"Kasarvadavali, Thane - MPCB",25-11-2025 05:00:00,19.26777,72.97182,SO2,1,10,5
India,Odisha,Nayagarh,"Dabuna, Nayagarh - OSPCB",25-11-2025 05:00:00,21.847279,85.416905,SO2,7,15,10
India,Odisha,Rairangpur,"Divisional Forest Office, Rairangpur - OSPCB",25-11-2025 05:00:00,22.265816,86.174829,PM10,NA,NA,NA
India,Odisha,Rairangpur,"Divisional Forest Office, Rairangpur - OSPCB",25-11-2025 05:00:00,22.265816,86.174829,OZONE,18,57,20
India,Odisha,Rourkela,"Fertilizer Township, Rourkela - OSPCB",25-11-2025 05:00:00,22.18972222,84.86277778,PM2.5,89,129,97
India,Odisha,Rourkela,"Fertilizer Township, Rourkela - OSPCB",25-11-2025 05:00:00,22.18972222,84.86277778,PM10,86,94,89
India,Odisha,Rourkela,"Fertilizer Township, Rourkela - OSPCB",25-11-2025 05:00:00,22.18972222,84.86277778,NO2,11,11,11
India,Maharashtra,Ulhasnagar,"Sidhi Vinayak Nagar, Ulhasnagar - MPCB",25-11-2025 05:00:00,19.235581,73.159121,OZONE,12,112,16
India,Maharashtra,Virar,"Bolinj, Virar - MPCB",25-11-2025 05:00:00,19.4458210,72.7988231,PM10,111,186,131
India,Maharashtra,Virar,"Bolinj, Virar - MPCB",25-11-2025 05:00:00,19.4458210,72.7988231,OZONE,1,86,52
India,Nagaland,Kohima,"PWD Junction, Kohima - NPCB",25-11-2025 05:00:00,25.6635413,94.0989878,PM10,36,175,90
India,Odisha,Bhubaneswar,"Lingraj Mandir, Bhubaneswar - OSPCB",25-11-2025 05:00:00,20.240790,85.836784,NH3,5,7,6
India,Odisha,Bhubaneswar,"Patia, Bhubaneswar - OSPCB",25-11-2025 05:00:00,20.34652,85.81630,PM2.5,167,358,276
India,Odisha,Bhubaneswar,"Patia, Bhubaneswar - OSPCB",25-11-2025 05:00:00,20.34652,85.81630,OZONE,3,141,43
India,Odisha,Bileipada,"Tata Township, Bileipada - OSPCB",25-11-2025 05:00:00,22.06156703,85.47409613,PM2.5,63,63,63
India,Maharashtra,Parbhani,"Masoom Colony, Parbhani - MPCB",25-11-2025 05:00:00,19.265594,76.761463,PM10,60,170,108
India,Maharashtra,Pimpri-Chinchwad,"Gavalinagar, Pimpri Chinchwad - MPCB",25-11-2025 05:00:00,18.63673,73.82487,NO2,22,94,60
India,Maharashtra,Pimpri-Chinchwad,"Savta Mali Nagar, Pimpri-Chinchwad - IITM",25-11-2025 05:00:00,18.614767,73.799516,PM2.5,NA,NA,NA
India,Odisha,Angul,"Hakimapada, Angul - OSPCB",25-11-2025 05:00:00,20.832874,85.104082,NH3,6,12,9
India,Odisha,Balasore,"Kalidaspur, Balasore - OSPCB",25-11-2025 05:00:00,21.51161,86.89088,OZONE,19,74,30
India,Odisha,Barbil,"Forest Office, Barbil - OSPCB",25-11-2025 05:00:00,22.1166054,85.3945546,NH3,3,4,4
India,Rajasthan,Bikaner,"MM Ground, Bikaner - RSPCB",25-11-2025 05:00:00,28.018792,73.292658,OZONE,20,108,63
India,Rajasthan,Bundi,"New Colony, Bundi - RSPCB",25-11-2025 05:00:00,25.435774,75.644272,NO2,17,64,30
India,Rajasthan,Chittorgarh,"Shastri Nagar, Chittorgarh - RSPCB",25-11-2025 05:00:00,24.892047,74.623527,PM2.5,53,253,143
India,Rajasthan,Chittorgarh,"Shastri Nagar, Chittorgarh - RSPCB",25-11-2025 05:00:00,24.892047,74.623527,NH3,3,5,4
India,Rajasthan,Churu,"Subash Chowk, Churu - RSPCB",25-11-2025 05:00:00,28.296139,74.961696,NH3,4,7,5
India,Rajasthan,Churu,"Subash Chowk, Churu - RSPCB",25-11-2025 05:00:00,28.296139,74.961696,SO2,1,8,4
India,Rajasthan,Churu,"Subash Chowk, Churu - RSPCB",25-11-2025 05:00:00,28.296139,74.961696,CO,2,48,25
India,Rajasthan,Dausa,"Khatikan Mohalla, Dausa - RSPCB",25-11-2025 05:00:00,26.895552,76.334753,OZONE,3,157,48
India,Rajasthan,Dholpur,"Raja Ganj, Dholpur - RSPCB",25-11-2025 05:00:00,26.699557,77.898881,PM2.5,55,302,148
India,Rajasthan,Jaipur,"Police Commissionerate, Jaipur - RSPCB",25-11-2025 05:00:00,26.9164092,75.7994901,PM10,84,187,128
India,Rajasthan,Jaipur,"Police Commissionerate, Jaipur - RSPCB",25-11-2025 05:00:00,26.9164092,75.7994901,NH3,5,13,9
India,Rajasthan,Jaipur,"Police Commissionerate, Jaipur - RSPCB",25-11-2025 05:00:00,26.9164092,75.7994901,OZONE,28,66,48
India,Rajasthan,Jaipur,"RIICO Sitapura, Jaipur - RSPCB",25-11-2025 05:00:00,26.786682,75.827928,OZONE,11,150,16
India,Rajasthan,Jaipur,"Sector-2 Murlipura, Jaipur - RSPCB",25-11-2025 05:00:00,26.960669,75.771817,SO2,1,7,3
India,Rajasthan,Jaipur,"Shastri Nagar, Jaipur - RSPCB",25-11-2025 05:00:00,26.9502929,75.730943,NO2,44,121,75
India,Rajasthan,Jaipur,"Shastri Nagar, Jaipur - RSPCB",25-11-2025 05:00:00,26.9502929,75.730943,SO2,2,31,12
India,Rajasthan,Jaisalmer,"Sadar Bazar, Jaisalmer - RSPCB",25-11-2025 05:00:00,26.912329,70.909168,PM2.5,57,301,125
India,Rajasthan,Banswara,"Rati Talai, Banswara - RSPCB",25-11-2025 05:00:00,23.555190,74.440010,NO2,14,86,39
India,Rajasthan,Banswara,"Rati Talai, Banswara - RSPCB",25-11-2025 05:00:00,23.555190,74.440010,SO2,4,24,11
India,Rajasthan,Banswara,"Rati Talai, Banswara - RSPCB",25-11-2025 05:00:00,23.555190,74.440010,CO,22,56,30
India,Rajasthan,Baran,"Bamboliya, Baran - RSPCB",25-11-2025 05:00:00,25.106006,76.469948,PM10,62,123,86
India,Rajasthan,Baran,"Bamboliya, Baran - RSPCB",25-11-2025 05:00:00,25.106006,76.469948,OZONE,13,165,57
India,Rajasthan,Bharatpur,"Krishna Nagar, Bharatpur - RSPCB",25-11-2025 05:00:00,27.215415,77.50873,NO2,27,100,52
India,Rajasthan,Bhilwara,"Pratap Nagar, Bhilwara - RSPCB",25-11-2025 05:00:00,25.339605,74.618883,PM10,94,157,123
India,Rajasthan,Bhilwara,"Pratap Nagar, Bhilwara - RSPCB",25-11-2025 05:00:00,25.339605,74.618883,NO2,16,60,29
India,Rajasthan,Bhiwadi,"RIICO Ind. Area III, Bhiwadi - RSPCB",25-11-2025 05:00:00,28.194909,76.862296,OZONE,8,72,12
India,Rajasthan,Bhiwadi,"Vasundhara Nagar_UIT, Bhiwadi - RSPCB",25-11-2025 05:00:00,28.207266,76.829265,PM2.5,59,450,274
India,Rajasthan,Bhiwadi,"Vasundhara Nagar_UIT, Bhiwadi - RSPCB",25-11-2025 05:00:00,28.207266,76.829265,PM10,95,500,259
India,Rajasthan,Dungarpur,"Bhoiwada, Dungarpur - RSPCB",25-11-2025 05:00:00,23.837789,73.714926,PM2.5,103,313,208
India,Rajasthan,Jaipur,"Adarsh Nagar, Jaipur - RSPCB",25-11-2025 05:00:00,26.902909,75.836858,PM2.5,84,284,168
India,Rajasthan,Jaipur,"Mansarovar Sector-12, Jaipur - RSPCB",25-11-2025 05:00:00,26.843698,75.766894,PM2.5,NA,NA,NA
India,Rajasthan,Jaipur,"Mansarovar Sector-12, Jaipur - RSPCB",25-11-2025 05:00:00,26.843698,75.766894,NH3,7,11,9
India,Rajasthan,Jaipur,"Mansarovar Sector-12, Jaipur - RSPCB",25-11-2025 05:00:00,26.843698,75.766894,SO2,3,9,5
India,Odisha,Talcher,"Talcher Coalfields,Talcher - OSPCB",25-11-2025 05:00:00,20.9360711,85.1707021,SO2,21,92,42
India,Odisha,Talcher,"Talcher Coalfields,Talcher - OSPCB",25-11-2025 05:00:00,20.9360711,85.1707021,OZONE,10,22,20
India,Odisha,Tensa,"Barsua Iron Ore Mines, Tensa - OSPCB",25-11-2025 05:00:00,21.869985,85.167016,PM2.5,NA,NA,NA
India,Puducherry,Puducherry,"Jawahar Nagar, Puducherry - PPCC",25-11-2025 05:00:00,11.9309,79.8027,NO2,4,37,17
India,Punjab,Amritsar,"Golden Temple, Amritsar - PPCB",25-11-2025 05:00:00,31.620000,74.876512,CO,24,35,29
India,Punjab,Jalandhar,"Civil Line, Jalandhar - PPCB",25-11-2025 05:00:00,31.321907,75.578914,PM2.5,91,206,145
India,Punjab,Jalandhar,"Civil Line, Jalandhar - PPCB",25-11-2025 05:00:00,31.321907,75.578914,NO2,35,41,39
India,Punjab,Ludhiana,"Punjab Agricultural University, Ludhiana - PPCB",25-11-2025 05:00:00,30.9028,75.8086,SO2,16,30,22
India,Punjab,Mandi Gobindgarh,"RIMT University, Mandi Gobindgarh - PPCB",25-11-2025 05:00:00,30.649961,76.331442,NH3,6,6,6
India,Punjab,Mandi Gobindgarh,"RIMT University, Mandi Gobindgarh - PPCB",25-11-2025 05:00:00,30.649961,76.331442,OZONE,33,35,34
India,Punjab,Patiala,"Model Town, Patiala - PPCB",25-11-2025 05:00:00,30.349388,76.366642,NO2,16,19,18
India,Punjab,Patiala,"Model Town, Patiala - PPCB",25-11-2025 05:00:00,30.349388,76.366642,NH3,6,7,6
India,Odisha,Talcher,"Talcher Coalfields,Talcher - OSPCB",25-11-2025 05:00:00,20.9360711,85.1707021,PM2.5,66,387,237
India,Rajasthan,Sirohi,"Vedhaynath Colony, Sirohi - RSPCB",25-11-2025 05:00:00,24.885261,72.857549,CO,29,62,47
India,Rajasthan,Sirohi,"Vedhaynath Colony, Sirohi - RSPCB",25-11-2025 05:00:00,24.885261,72.857549,OZONE,31,120,76
India,Rajasthan,Sri Ganganagar,"Old City, Sri Ganganagar - RSPCB",25-11-2025 05:00:00,29.931624,73.864511,PM2.5,19,97,62
India,Rajasthan,Sri Ganganagar,"Old City, Sri Ganganagar - RSPCB",25-11-2025 05:00:00,29.931624,73.864511,NO2,50,177,104
India,Rajasthan,Sri Ganganagar,"Old City, Sri Ganganagar - RSPCB",25-11-2025 05:00:00,29.931624,73.864511,OZONE,1,199,3
India,Rajasthan,Tonk,"Shastri Nagar, Tonk - RSPCB",25-11-2025 05:00:00,26.159933,75.780517,NH3,9,17,12
India,Rajasthan,Tonk,"Shastri Nagar, Tonk - RSPCB",25-11-2025 05:00:00,26.159933,75.780517,SO2,1,3,1
India,Rajasthan,Udaipur,"Ashok Nagar, Udaipur - RSPCB",25-11-2025 05:00:00,24.5886166,73.6321397,PM10,109,170,138
India,Rajasthan,Udaipur,"Ashok Nagar, Udaipur - RSPCB",25-11-2025 05:00:00,24.5886166,73.6321397,NH3,3,23,10
India,TamilNadu,Cuddalore,"Kudikadu, Cuddalore - TNPCB",25-11-2025 05:00:00,11.6829898,79.7532099,NH3,5,5,5
India,TamilNadu,Cuddalore,"Kudikadu, Cuddalore - TNPCB",25-11-2025 05:00:00,11.6829898,79.7532099,SO2,19,20,19
India,TamilNadu,Cuddalore,"Semmandalam, Cuddalore - TNPCB",25-11-2025 05:00:00,11.7637683,79.7499835,PM10,6,95,47
India,TamilNadu,Dindigul,"Mendonsa Colony, Dindigul - TNPCB",25-11-2025 05:00:00,10.358535,77.984321,PM10,1,32,14
India,TamilNadu,Dindigul,"Mendonsa Colony, Dindigul - TNPCB",25-11-2025 05:00:00,10.358535,77.984321,CO,26,32,29
India,TamilNadu,Gummidipoondi,"Anthoni Pillai Nagar, Gummidipoondi - TNPCB",25-11-2025 05:00:00,13.4127,80.1081,PM10,43,369,129
India,TamilNadu,Madurai,"Uchapatti, Madurai - TNPCB",25-11-2025 05:00:00,9.865935,78.022669,NO2,16,16,16
India,TamilNadu,Madurai,"Uchapatti, Madurai - TNPCB",25-11-2025 05:00:00,9.865935,78.022669,NH3,4,4,4
India,Rajasthan,Jhunjhunu,"Indra Nagar, Jhunjhunu - RSPCB",25-11-2025 05:00:00,28.108988,75.386577,NH3,3,13,9
India,Rajasthan,Jhunjhunu,"Indra Nagar, Jhunjhunu - RSPCB",25-11-2025 05:00:00,28.108988,75.386577,OZONE,17,154,32
India,Rajasthan,Jodhpur,"Collectorate, Jodhpur - RSPCB",25-11-2025 05:00:00,26.268249,73.0193853,PM10,62,224,136
India,Rajasthan,Jodhpur,"Collectorate, Jodhpur - RSPCB",25-11-2025 05:00:00,26.268249,73.0193853,NH3,5,15,8
India,Rajasthan,Jodhpur,"Collectorate, Jodhpur - RSPCB",25-11-2025 05:00:00,26.268249,73.0193853,OZONE,4,75,40
India,Rajasthan,Jodhpur,"Digari Kalan, Jodhpur - RSPCB",25-11-2025 05:00:00,26.295810,73.082283,NH3,6,10,7
India,Rajasthan,Jodhpur,"Jhalamand, Jodhpur - RSPCB",25-11-2025 05:00:00,26.215415,73.070156,OZONE,36,116,58
India,TamilNadu,Chennai,"Alandur Bus Depot, Chennai - CPCB",25-11-2025 05:00:00,12.9099161,80.1076538,PM2.5,NA,NA,NA
India,TamilNadu,Chennai,"Alandur Bus Depot, Chennai - CPCB",25-11-2025 05:00:00,12.9099161,80.1076538,NH3,NA,NA,NA
India,TamilNadu,Chennai,"Alandur Bus Depot, Chennai - CPCB",25-11-2025 05:00:00,12.9099161,80.1076538,OZONE,3,4,3
India,TamilNadu,Chennai,"Arumbakkam, Chennai - TNPCB",25-11-2025 05:00:00,13.0664,80.2112 ,PM10,46,110,86
India,TamilNadu,Chennai,"Gandhi Nagar_Ennore, Chennai - TNPCB",25-11-2025 05:00:00,13.218341,80.32027,NO2,7,7,7
India,TamilNadu,Chennai,"Manali Village, Chennai - TNPCB",25-11-2025 05:00:00,13.1662,80.2584,PM2.5,5,73,37
India,Rajasthan,Kota,"Nayapura, Kota - RSPCB",25-11-2025 05:00:00,25.196024,75.855668,NO2,27,131,55
India,Rajasthan,Pali,"Indira Colony Vistar, Pali - RSPCB",25-11-2025 05:00:00,25.771061, 73.340227,PM10,109,190,145
India,Rajasthan,Pali,"Indira Colony Vistar, Pali - RSPCB",25-11-2025 05:00:00,25.771061, 73.340227,NH3,6,14,10
India,Rajasthan,Pali,"Indira Colony Vistar, Pali - RSPCB",25-11-2025 05:00:00,25.771061, 73.340227,SO2,9,14,11
India,Rajasthan,Jaisalmer,"Sadar Bazar, Jaisalmer - RSPCB",25-11-2025 05:00:00,26.912329,70.909168,SO2,3,9,6
India,Rajasthan,Jaisalmer,"Sadar Bazar, Jaisalmer - RSPCB",25-11-2025 05:00:00,26.912329,70.909168,CO,20,103,49
India,Rajasthan,Jalore,"Mudtra Sili, Jalore - RSPCB",25-11-2025 05:00:00,25.344694,72.626208,NO2,18,144,56
India,Rajasthan,Karauli,"Satyawati Vihar, Karauli - RSPCB",25-11-2025 05:00:00,26.506177,77.025989,NO2,14,76,35
India,Rajasthan,Kota,"Dhanmandi, Kota - RSPCB",25-11-2025 05:00:00,25.164090,75.858137,SO2,1,19,6
India,Rajasthan,Kota,"Dhanmandi, Kota - RSPCB",25-11-2025 05:00:00,25.164090,75.858137,OZONE,7,157,40
India,Rajasthan,Rajsamand,"Dhoinda, Rajsamand - RSPCB",25-11-2025 05:00:00,25.036360,73.883502,OZONE,32,168,50
India,Rajasthan,Sawai Madhopur,"Sahu Nagar, Sawai Madhopur - RSPCB",25-11-2025 05:00:00,26.031443,76.359327,SO2,1,6,3
India,TamilNadu,Chennai,"Perungudi, Chennai - TNPCB",25-11-2025 05:00:00,12.9533,80.2357,PM2.5,30,107,65
India,TamilNadu,Cuddalore,"Kudikadu, Cuddalore - TNPCB",25-11-2025 05:00:00,11.6829898,79.7532099,NO2,19,19,19
India,Telangana,Hyderabad,"Zoo Park, Hyderabad - TSPCB",25-11-2025 05:00:00,17.349694,78.451437,PM10,72,156,116
India,Telangana,Hyderabad,"Zoo Park, Hyderabad - TSPCB",25-11-2025 05:00:00,17.349694,78.451437,NH3,3,4,3
India,Tripura,Agartala,"Bardowali, Agartala - Tripura SPCB",25-11-2025 05:00:00,23.8175497,91.2726974,PM10,NA,NA,NA
India,Tripura,Agartala,"Bardowali, Agartala - Tripura SPCB",25-11-2025 05:00:00,23.8175497,91.2726974,OZONE,1,7,1
India,Uttar_Pradesh,Agra,"Manoharpur, Agra - UPPCB",25-11-2025 05:00:00,27.23711,78.01936,PM2.5,92,312,168
India,Uttar_Pradesh,Agra,"Manoharpur, Agra - UPPCB",25-11-2025 05:00:00,27.23711,78.01936,SO2,52,63,56
India,Uttar_Pradesh,Agra,"Rohta, Agra - UPPCB",25-11-2025 05:00:00,27.106972,78.000111,PM10,94,405,203
India,Uttar_Pradesh,Agra,"Rohta, Agra - UPPCB",25-11-2025 05:00:00,27.106972,78.000111,NH3,7,7,7
India,Uttar_Pradesh,Agra,"Rohta, Agra - UPPCB",25-11-2025 05:00:00,27.106972,78.000111,CO,41,100,82
India,Uttar_Pradesh,Agra,"Rohta, Agra - UPPCB",25-11-2025 05:00:00,27.106972,78.000111,OZONE,11,16,15
India,Uttar_Pradesh,Agra,"Sanjay Palace, Agra - UPPCB",25-11-2025 05:00:00,27.19865833,78.00598056,PM2.5,44,471,209
India,TamilNadu,Thanjavur,"Parisutham Nagar, Thanjavur - TNPCB",25-11-2025 05:00:00,10.7654824,79.1389968,NH3,1,1,1
India,TamilNadu,Thanjavur,"Parisutham Nagar, Thanjavur - TNPCB",25-11-2025 05:00:00,10.7654824,79.1389968,SO2,16,17,17
India,TamilNadu,Thoothukudi,"Meelavittan, Thoothukudi - TNPCB",25-11-2025 05:00:00,8.816428 ,78.099039,NO2,9,12,11
India,TamilNadu,Thoothukudi,"Meelavittan, Thoothukudi - TNPCB",25-11-2025 05:00:00,8.816428 ,78.099039,CO,55,113,62
India,TamilNadu,Thoothukudi,"Meelavittan, Thoothukudi - TNPCB",25-11-2025 05:00:00,8.816428 ,78.099039,OZONE,26,35,27
India,TamilNadu,Tiruchirappalli,"St Joseph College, Tiruchirappalli - TNPCB",25-11-2025 05:00:00,10.830158,78.691849,PM2.5,5,50,23
India,TamilNadu,Tiruchirappalli,"St Joseph College, Tiruchirappalli - TNPCB",25-11-2025 05:00:00,10.830158,78.691849,PM10,5,64,29
India,TamilNadu,Tiruchirappalli,"St Joseph College, Tiruchirappalli - TNPCB",25-11-2025 05:00:00,10.830158,78.691849,NO2,1,2,1
India,TamilNadu,Tirupur,"Kumaran College, Tirupur - TNPCB",25-11-2025 05:00:00,11.0973603,77.3228673,SO2,4,6,5
India,Uttar_Pradesh,Firozabad,"Vibhab Nagar, Firozabad - UPPCB",25-11-2025 05:00:00,27.1594,78.3953,PM10,68,155,109
India,Uttar_Pradesh,Ghaziabad,"Indirapuram, Ghaziabad - UPPCB",25-11-2025 05:00:00,28.646233,77.358075,PM10,NA,NA,NA
India,Uttar_Pradesh,Ghaziabad,"Indirapuram, Ghaziabad - UPPCB",25-11-2025 05:00:00,28.646233,77.358075,NH3,10,13,11
India,Uttar_Pradesh,Ghaziabad,"Indirapuram, Ghaziabad - UPPCB",25-11-2025 05:00:00,28.646233,77.358075,CO,16,197,141
India,Uttar_Pradesh,Ghaziabad,"Loni, Ghaziabad - UPPCB",25-11-2025 05:00:00,28.757294,77.278792,PM10,173,456,332
India,Uttar_Pradesh,Ghaziabad,"Loni, Ghaziabad - UPPCB",25-11-2025 05:00:00,28.757294,77.278792,NH3,3,13,9
India,Uttar_Pradesh,Ghaziabad,"Sanjay Nagar, Ghaziabad - UPPCB",25-11-2025 05:00:00,28.685382,77.453839,PM2.5,203,398,341
India,Uttar_Pradesh,Ghaziabad,"Sanjay Nagar, Ghaziabad - UPPCB",25-11-2025 05:00:00,28.685382,77.453839,PM10,177,402,285
India,Uttar_Pradesh,Ghaziabad,"Vasundhara, Ghaziabad - UPPCB",25-11-2025 05:00:00,28.6603346,77.3572563,PM2.5,270,428,358
India,Uttar_Pradesh,Agra,"Sanjay Palace, Agra - UPPCB",25-11-2025 05:00:00,27.19865833,78.00598056,SO2,15,17,16
India,Uttar_Pradesh,Agra,"Sanjay Palace, Agra - UPPCB",25-11-2025 05:00:00,27.19865833,78.00598056,CO,31,116,93
India,Uttar_Pradesh,Agra,"Sector-3B Avas Vikas Colony, Agra - UPPCB",25-11-2025 05:00:00,27.19412,77.96237,SO2,9,10,9
India,Uttar_Pradesh,Agra,"Shahjahan Garden, Agra - UPPCB",25-11-2025 05:00:00,27.169338,78.03582,PM2.5,58,310,146
India,Uttar_Pradesh,Agra,"Shahjahan Garden, Agra - UPPCB",25-11-2025 05:00:00,27.169338,78.03582,CO,24,120,107
India,Uttar_Pradesh,Baghpat,"Sardar Patel Inter College, Baghpat - UPPCB",25-11-2025 05:00:00,28.964949,77.278761,PM10,164,398,230
India,Uttar_Pradesh,Baghpat,"Sardar Patel Inter College, Baghpat - UPPCB",25-11-2025 05:00:00,28.964949,77.278761,NH3,2,13,8
India,TamilNadu,Virudhunagar,"Collectorate Office, Virudhunagar - TNPCB",25-11-2025 05:00:00,9.559382,77.948828,SO2,NA,NA,NA
India,Telangana,Hyderabad,"Bollaram Industrial Area, Hyderabad - TSPCB",25-11-2025 05:00:00,17.540891,78.358528,NO2,8,59,31
India,Telangana,Hyderabad,"Bollaram Industrial Area, Hyderabad - TSPCB",25-11-2025 05:00:00,17.540891,78.358528,NH3,1,8,4
India,Telangana,Hyderabad,"Bollaram Industrial Area, Hyderabad - TSPCB",25-11-2025 05:00:00,17.540891,78.358528,SO2,2,12,6
India,Telangana,Hyderabad,"Central University, Hyderabad - TSPCB",25-11-2025 05:00:00,17.460103,78.334361,OZONE,7,17,16
India,Telangana,Hyderabad,"ECIL Kapra, Hyderabad - TSPCB",25-11-2025 05:00:00,17.470431,78.566959,CO,18,45,38
India,Uttar_Pradesh,Baghpat,"Sardar Patel Inter College, Baghpat - UPPCB",25-11-2025 05:00:00,28.964949,77.278761,OZONE,1,115,9
India,Uttar_Pradesh,Bareilly,"Civil Lines, Bareilly - UPPCB",25-11-2025 05:00:00,28.359581,79.414455,PM10,57,121,85
India,Uttar_Pradesh,Bareilly,"Civil Lines, Bareilly - UPPCB",25-11-2025 05:00:00,28.359581,79.414455,NH3,1,3,1
India,Uttar_Pradesh,Bareilly,"Rajendra Nagar, Bareilly - UPPCB",25-11-2025 05:00:00,28.38910936,79.42963708,CO,16,56,44
India,Uttar_Pradesh,Firozabad,"Nagla Bhau, Firozabad - UPPCB",25-11-2025 05:00:00,27.168897,78.376960,NH3,2,2,2
India,TamilNadu,Nagapattinam,"Velippalayam, Nagapattinam - TNPCB",25-11-2025 05:00:00,10.798548,79.838212,SO2,NA,NA,NA
India,TamilNadu,Ooty,"Bombay Castel, Ooty - TNPCB",25-11-2025 05:00:00,11.4068288,76.7138973,PM2.5,8,32,16
India,TamilNadu,Palkalaiperur,"Bharathidasan University, Palkalaiperur - TNPCB",25-11-2025 05:00:00,10.681158,78.741746,PM2.5,19,37,32
India,TamilNadu,Perundurai,"SIPCOT Industrial Park, Perundurai - TNPCB",25-11-2025 05:00:00,11.258242,77.552761,SO2,12,13,13
India,Telangana,Hyderabad,"IDA Pashamylaram, Hyderabad - TSPCB",25-11-2025 05:00:00,17.5316895,78.218939,PM2.5,27,123,57
India,Telangana,Hyderabad,"IDA Pashamylaram, Hyderabad - TSPCB",25-11-2025 05:00:00,17.5316895,78.218939,CO,30,80,43
India,Telangana,Hyderabad,"IITH Kandi, Hyderabad - TSPCB",25-11-2025 05:00:00,17.585705,78.126199,OZONE,18,29,19
India,Telangana,Hyderabad,"Kokapet, Hyderabad - TSPCB",25-11-2025 05:00:00,17.393559,78.339194,PM2.5,NA,NA,NA
India,Telangana,Hyderabad,"Kokapet, Hyderabad - TSPCB",25-11-2025 05:00:00,17.393559,78.339194,PM10,NA,NA,NA
India,Telangana,Hyderabad,"Kokapet, Hyderabad - TSPCB",25-11-2025 05:00:00,17.393559,78.339194,CO,NA,NA,NA
India,Telangana,Hyderabad,"Ramachandrapuram, Hyderabad - TSPCB",25-11-2025 05:00:00,17.528544,78.286195,SO2,9,16,12
India,Telangana,Hyderabad,"Sanathnagar, Hyderabad - TSPCB",25-11-2025 05:00:00,17.4559458,78.4332152,PM2.5,43,107,71
India,Telangana,Hyderabad,"Sanathnagar, Hyderabad - TSPCB",25-11-2025 05:00:00,17.4559458,78.4332152,NO2,25,29,27
India,Telangana,Hyderabad,"Somajiguda, Hyderabad - TSPCB",25-11-2025 05:00:00,17.417094,78.457437,CO,16,52,35
India,Uttar_Pradesh,Ghaziabad,"Vasundhara, Ghaziabad - UPPCB",25-11-2025 05:00:00,28.6603346,77.3572563,NO2,53,229,127
India,Uttar_Pradesh,Ghaziabad,"Vasundhara, Ghaziabad - UPPCB",25-11-2025 05:00:00,28.6603346,77.3572563,OZONE,10,31,24
India,Uttar_Pradesh,Gorakhpur,"Madan Mohan Malaviya University of Technology, Gorakhpur - UPPCB",25-11-2025 05:00:00,26.730136,83.433859,PM10,22,108,60
India,Uttar_Pradesh,Greater Noida,"Knowledge Park - III, Greater Noida - UPPCB",25-11-2025 05:00:00,28.47272,77.482000,NH3,8,21,13
India,Uttar_Pradesh,Greater Noida,"Knowledge Park - V, Greater Noida - UPPCB",25-11-2025 05:00:00,28.557054,77.453663,PM2.5,238,500,426
India,Uttar_Pradesh,Greater Noida,"Knowledge Park - V, Greater Noida - UPPCB",25-11-2025 05:00:00,28.557054,77.453663,NO2,79,173,119
India,Uttar_Pradesh,Greater Noida,"Knowledge Park - V, Greater Noida - UPPCB",25-11-2025 05:00:00,28.557054,77.453663,CO,24,150,131
India,Uttar_Pradesh,Hapur,"Anand Vihar, Hapur - UPPCB",25-11-2025 05:00:00,28.725645,77.749675,NO2,12,80,39
India,Uttar_Pradesh,Hapur,"Anand Vihar, Hapur - UPPCB",25-11-2025 05:00:00,28.725645,77.749675,CO,46,112,104
India,Uttar_Pradesh,Jhansi,"Shivaji Nagar, Jhansi - UPPCB",25-11-2025 05:00:00,25.4547,78.6039,NO2,6,6,6
India,Uttar_Pradesh,Kanpur,"FTI Kidwai Nagar, Kanpur - UPPCB",25-11-2025 05:00:00,26.428282,80.327067,NH3,2,2,2
India,Uttar_Pradesh,Kanpur,"NSI Kalyanpur, Kanpur - UPPCB",25-11-2025 05:00:00,26.509954,80.249612,PM2.5,44,240,120
India,Uttar_Pradesh,Kanpur,"NSI Kalyanpur, Kanpur - UPPCB",25-11-2025 05:00:00,26.509954,80.249612,NH3,3,3,3
India,Uttar_Pradesh,Kanpur,"NSI Kalyanpur, Kanpur - UPPCB",25-11-2025 05:00:00,26.509954,80.249612,CO,46,89,82
India,Uttar_Pradesh,Kanpur,"NSI Kalyanpur, Kanpur - UPPCB",25-11-2025 05:00:00,26.509954,80.249612,OZONE,15,18,17
India,Uttar_Pradesh,Moradabad,"Kashiram Nagar, Moradabad - UPPCB",25-11-2025 05:00:00,28.849399,78.742362,SO2,78,137,116
India,Uttar_Pradesh,Moradabad,"Transport Nagar, Moradabad - UPPCB",25-11-2025 05:00:00,28.802625,78.753728,OZONE,25,57,26
India,Uttar_Pradesh,Muzaffarnagar,"New Mandi, Muzaffarnagar - UPPCB",25-11-2025 05:00:00,29.4723508,77.7194031,PM10,128,439,231
India,Uttar_Pradesh,Muzaffarnagar,"New Mandi, Muzaffarnagar - UPPCB",25-11-2025 05:00:00,29.4723508,77.7194031,NH3,11,17,13
India,Uttar_Pradesh,Noida,"Sector - 125, Noida - UPPCB",25-11-2025 05:00:00,28.5447608,77.3231257,PM2.5,306,500,420
India,Uttar_Pradesh,Noida,"Sector - 125, Noida - UPPCB",25-11-2025 05:00:00,28.5447608,77.3231257,NH3,13,20,18
India,Uttar_Pradesh,Noida,"Sector - 125, Noida - UPPCB",25-11-2025 05:00:00,28.5447608,77.3231257,OZONE,10,82,12
India,Uttar_Pradesh,Kanpur,"Nehru Nagar, Kanpur - UPPCB",25-11-2025 05:00:00,26.4703136,80.3229863,NO2,18,49,30
India,Uttar_Pradesh,Khurja,"Kalindi Kunj, Khurja - UPPCB",25-11-2025 05:00:00,28.2348927,77.8683002,PM10,107,423,289
India,Uttar_Pradesh,Khurja,"Kalindi Kunj, Khurja - UPPCB",25-11-2025 05:00:00,28.2348927,77.8683002,NH3,1,1,1
India,Uttar_Pradesh,Lucknow,"B R Ambedkar University, Lucknow - UPPCB",25-11-2025 05:00:00,26.766433,80.927299,NH3,6,19,11
India,Uttar_Pradesh,Lucknow,"Gomti Nagar, Lucknow - UPPCB",25-11-2025 05:00:00,26.868120,81.005119,SO2,10,13,11
India,Uttar_Pradesh,Lucknow,"Kendriya Vidyalaya, Lucknow - CPCB",25-11-2025 05:00:00,26.906111,80.948222,PM10,117,212,158
India,Uttar_Pradesh,Noida,"Sector-1, Noida - UPPCB",25-11-2025 05:00:00,28.5898,77.3101,PM2.5,310,444,384
India,Uttar_Pradesh,Noida,"Sector-1, Noida - UPPCB",25-11-2025 05:00:00,28.5898,77.3101,NH3,NA,NA,NA
India,Uttar_Pradesh,Noida,"Sector-1, Noida - UPPCB",25-11-2025 05:00:00,28.5898,77.3101,CO,30,127,119
India,Uttar_Pradesh,Noida,"Sector-116, Noida - UPPCB",25-11-2025 05:00:00,28.569230,77.393848,PM10,231,500,400
India,Uttar_Pradesh,Prayagraj,"Jhunsi, Prayagraj - UPPCB",25-11-2025 05:00:00,25.425602,81.917152,PM10,97,393,202
India,Uttar_Pradesh,Prayagraj,"Jhunsi, Prayagraj - UPPCB",25-11-2025 05:00:00,25.425602,81.917152,NH3,5,5,5
India,Uttar_Pradesh,Prayagraj,"Jhunsi, Prayagraj - UPPCB",25-11-2025 05:00:00,25.425602,81.917152,CO,30,106,99
India,Uttar_Pradesh,Prayagraj,"Jhunsi, Prayagraj - UPPCB",25-11-2025 05:00:00,25.425602,81.917152,OZONE,15,35,15
India,Uttar_Pradesh,Prayagraj,"Nagar Nigam, Prayagraj - UPPCB",25-11-2025 05:00:00,25.44919916 ,81.82735986 ,NO2,5,5,5
India,Uttar_Pradesh,Prayagraj,"Nagar Nigam, Prayagraj - UPPCB",25-11-2025 05:00:00,25.44919916 ,81.82735986 ,CO,32,121,103
India,Uttar_Pradesh,Varanasi,"Ardhali Bazar, Varanasi - UPPCB",25-11-2025 05:00:00,25.3505986,82.9083074,PM10,60,185,136
India,Uttar_Pradesh,Varanasi,"Ardhali Bazar, Varanasi - UPPCB",25-11-2025 05:00:00,25.3505986,82.9083074,SO2,9,12,10
India,Uttar_Pradesh,Varanasi,"Bhelupur, Varanasi - UPPCB",25-11-2025 05:00:00,25.301778,82.996789,PM2.5,NA,NA,NA
India,Uttar_Pradesh,Varanasi,"Bhelupur, Varanasi - UPPCB",25-11-2025 05:00:00,25.301778,82.996789,NO2,8,8,8
India,Uttar_Pradesh,Meerut,"Jai Bhim Nagar, Meerut - UPPCB",25-11-2025 05:00:00,28.9535882,77.7622941,NO2,17,233,93
India,Uttar_Pradesh,Meerut,"Jai Bhim Nagar, Meerut - UPPCB",25-11-2025 05:00:00,28.9535882,77.7622941,SO2,2,19,9
India,Uttar_Pradesh,Meerut,"Pallavpuram Phase 2, Meerut - UPPCB",25-11-2025 05:00:00,29.063510,77.709723,NH3,8,9,9
India,Uttar_Pradesh,Moradabad,"Buddhi Vihar, Moradabad - UPPCB",25-11-2025 05:00:00,28.83526,78.74460,NO2,29,29,29
India,Uttar_Pradesh,Moradabad,"Buddhi Vihar, Moradabad - UPPCB",25-11-2025 05:00:00,28.83526,78.74460,NH3,5,5,5
India,Uttar_Pradesh,Moradabad,"Buddhi Vihar, Moradabad - UPPCB",25-11-2025 05:00:00,28.83526,78.74460,CO,46,103,92
India,Uttar_Pradesh,Lucknow,"Kendriya Vidyalaya, Lucknow - CPCB",25-11-2025 05:00:00,26.906111,80.948222,CO,34,102,70
India,Uttar_Pradesh,Lucknow,"Kukrail Picnic Spot-1, Lucknow - UPPCB",25-11-2025 05:00:00,26.90723,80.98579,PM10,64,168,118
India,Uttar_Pradesh,Lucknow,"Kukrail Picnic Spot-1, Lucknow - UPPCB",25-11-2025 05:00:00,26.90723,80.98579,CO,12,19,16
India,Uttar_Pradesh,Lucknow,"Lalbagh, Lucknow - CPCB",25-11-2025 05:00:00,26.8458805,80.9365541,NH3,13,21,17
India,Uttar_Pradesh,Lucknow,"Lalbagh, Lucknow - CPCB",25-11-2025 05:00:00,26.8458805,80.9365541,SO2,3,28,12
India,Uttar_Pradesh,Lucknow,"Lalbagh, Lucknow - CPCB",25-11-2025 05:00:00,26.8458805,80.9365541,CO,22,144,54
India,Uttar_Pradesh,Moradabad,"Eco Herbal Park, Moradabad - UPPCB",25-11-2025 05:00:00,28.840739,78.697531,PM2.5,122,337,259
India,Uttar_Pradesh,Moradabad,"Eco Herbal Park, Moradabad - UPPCB",25-11-2025 05:00:00,28.840739,78.697531,OZONE,2,99,5
India,Uttar_Pradesh,Moradabad,"Kashiram Nagar, Moradabad - UPPCB",25-11-2025 05:00:00,28.849399,78.742362,PM10,63,192,135
India,Uttar_Pradesh,Varanasi,"IESD Banaras Hindu University, Varanasi - UPPCB",25-11-2025 05:00:00,25.262326,82.995408,SO2,29,32,30
India,Uttar_Pradesh,Vrindavan,"Omex Eternity, Vrindavan - UPPCB",25-11-2025 05:00:00,27.5714090,77.6557570,PM10,83,303,151
India,Uttarakhand,Dehradun,"Doon University, Dehradun - UKPCB",25-11-2025 05:00:00,30.269444,78.044167,PM2.5,31,127,74
India,Uttarakhand,Dehradun,"Doon University, Dehradun - UKPCB",25-11-2025 05:00:00,30.269444,78.044167,SO2,2,2,2
India,Uttarakhand,Dehradun,"Doon University, Dehradun - UKPCB",25-11-2025 05:00:00,30.269444,78.044167,OZONE,26,66,37
India,Uttarakhand,Rishikesh,"Shivaji Nagar, Rishikesh - UKPCB",25-11-2025 05:00:00,30.075911,78.2859547,PM10,40,114,75
India,Uttarakhand,Rishikesh,"Shivaji Nagar, Rishikesh - UKPCB",25-11-2025 05:00:00,30.075911,78.2859547,NO2,4,25,17
India,Uttarakhand,Rishikesh,"Shivaji Nagar, Rishikesh - UKPCB",25-11-2025 05:00:00,30.075911,78.2859547,NH3,5,11,7
India,Uttarakhand,Rishikesh,"Shivaji Nagar, Rishikesh - UKPCB",25-11-2025 05:00:00,30.075911,78.2859547,OZONE,2,74,23
India,West_Bengal,Asansol,"Mahabir Colliery, Asansol - WBPCB",25-11-2025 05:00:00,23.6181830,87.1057180,PM10,91,216,138
India,West_Bengal,Asansol,"Mahabir Colliery, Asansol - WBPCB",25-11-2025 05:00:00,23.6181830,87.1057180,NH3,1,1,1
India,West_Bengal,Asansol,"Mahabir Colliery, Asansol - WBPCB",25-11-2025 05:00:00,23.6181830,87.1057180,SO2,7,19,9
India,West_Bengal,Asansol,"Trivenidevi Bhalotia College, Asansol - WBPCB",25-11-2025 05:00:00,23.616515,87.119133,SO2,4,16,8
India,West_Bengal,Barrackpore,"SVSPA Campus, Barrackpore - WBPCB",25-11-2025 05:00:00,22.7605581,88.3617589,CO,50,90,80
India,West_Bengal,Durgapur,"Mahishkapur Road_B-Zone, Durgapur - WBPCB",25-11-2025 05:00:00,23.567923,87.306843,NO2,13,69,33
India,West_Bengal,Durgapur,"Mahishkapur Road_B-Zone, Durgapur - WBPCB",25-11-2025 05:00:00,23.567923,87.306843,SO2,20,33,24
India,West_Bengal,Durgapur,"Mahishkapur Road_B-Zone, Durgapur - WBPCB",25-11-2025 05:00:00,23.567923,87.306843,OZONE,20,110,27
India,West_Bengal,Durgapur,"PCBL Residential Complex, Durgapur - WBPCB",25-11-2025 05:00:00,23.5087640,87.3544400,PM2.5,85,114,94
India,West_Bengal,Durgapur,"PCBL Residential Complex, Durgapur - WBPCB",25-11-2025 05:00:00,23.5087640,87.3544400,SO2,4,5,4
India,West_Bengal,Durgapur,"Womens College_City Center, Durgapur - WBPCB (Formerly known as Sidhu Kanhu Indoor Stadium)",25-11-2025 05:00:00,23.549395,87.300496,NH3,2,2,2
India,West_Bengal,Howrah,"Belur Math, Howrah - WBPCB",25-11-2025 05:00:00,22.629801,88.352017,PM10,132,347,184
India,West_Bengal,Howrah,"Belur Math, Howrah - WBPCB",25-11-2025 05:00:00,22.629801,88.352017,NO2,21,51,32
India,West_Bengal,Howrah,"Botanical Garden, Howrah - WBPCB",25-11-2025 05:00:00,22.554954,88.292568,PM10,81,195,123
India,West_Bengal,Howrah,"Botanical Garden, Howrah - WBPCB",25-11-2025 05:00:00,22.554954,88.292568,CO,21,105,84
India,West_Bengal,Howrah,"Dasnagar, Howrah - WBPCB",25-11-2025 05:00:00,22.6025571,88.3105664,CO,18,100,82
India,West_Bengal,Kolkata,"Ballygunge, Kolkata - WBPCB",25-11-2025 05:00:00,22.5367507,88.3638022,PM10,122,331,158
India,West_Bengal,Kolkata,"Bidhannagar, Kolkata - WBPCB",25-11-2025 05:00:00,22.58157048,88.41002457,NH3,6,12,9
India,West_Bengal,Kolkata,"Jadavpur, Kolkata - WBPCB",25-11-2025 05:00:00,22.49929,88.36917,NO2,46,102,69
India,West_Bengal,Kolkata,"Rabindra Bharati University, Kolkata - WBPCB",25-11-2025 05:00:00,22.627847,88.380669,PM10,112,203,145
India,West_Bengal,Kolkata,"Rabindra Bharati University, Kolkata - WBPCB",25-11-2025 05:00:00,22.627847,88.380669,CO,32,105,87
India,West_Bengal,Kolkata,"Rabindra Sarobar, Kolkata - WBPCB",25-11-2025 05:00:00,22.51106,88.35142,PM10,62,167,118
India,West_Bengal,Kolkata,"Rabindra Sarobar, Kolkata - WBPCB",25-11-2025 05:00:00,22.51106,88.35142,NO2,46,256,131
India,West_Bengal,Kolkata,"Rabindra Sarobar, Kolkata - WBPCB",25-11-2025 05:00:00,22.51106,88.35142,OZONE,2,122,5
India,West_Bengal,Kolkata,"Victoria, Kolkata - WBPCB",25-11-2025 05:00:00,22.5448082,88.3403691,OZONE,5,57,7
India,West_Bengal,Siliguri,"Ward-32 Bapupara, Siliguri - WBPCB",25-11-2025 05:00:00,26.6879226,88.4152495,PM2.5,49,152,85
India,West_Bengal,Siliguri,"Ward-32 Bapupara, Siliguri - WBPCB",25-11-2025 05:00:00,26.6879226,88.4152495,OZONE,7,89,8
India,Bihar,Muzaffarpur,"Buddha Colony, Muzaffarpur - BSPCB",25-11-2025 05:00:00,26.11442,85.39813,NH3,5,11,8
India,Bihar,Muzaffarpur,"Buddha Colony, Muzaffarpur - BSPCB",25-11-2025 05:00:00,26.11442,85.39813,CO,20,117,89
India,Bihar,Muzaffarpur,"MIT-Daudpur Kothi, Muzaffarpur - BSPCB",25-11-2025 05:00:00,26.1403345,85.3650192,PM2.5,82,123,106
India,Bihar,Muzaffarpur,"Muzaffarpur Collectorate, Muzaffarpur - BSPCB",25-11-2025 05:00:00,26.1209,85.3647,PM2.5,93,143,117
India,Bihar,Muzaffarpur,"Muzaffarpur Collectorate, Muzaffarpur - BSPCB",25-11-2025 05:00:00,26.1209,85.3647,CO,8,24,17
India,Bihar,Patna,"DRM Office Danapur, Patna - BSPCB",25-11-2025 05:00:00,25.586562,85.043586,NH3,6,24,12
India,Bihar,Patna,"DRM Office Danapur, Patna - BSPCB",25-11-2025 05:00:00,25.586562,85.043586,OZONE,7,60,7
India,Bihar,Patna,"Govt. High School Shikarpur, Patna - BSPCB",25-11-2025 05:00:00,25.592539,85.227158,PM2.5,60,78,67
India,Bihar,Patna,"Govt. High School Shikarpur, Patna - BSPCB",25-11-2025 05:00:00,25.592539,85.227158,NH3,4,5,5
India,Bihar,Chhapra,"Darshan Nagar, Chhapra - BSPCB",25-11-2025 05:00:00,25.7808257,84.7446768,NH3,3,7,6
India,Bihar,Gaya,"Collectorate, Gaya - BSPCB",25-11-2025 05:00:00,24.7955,84.9994,PM2.5,109,329,215
India,Bihar,Gaya,"Collectorate, Gaya - BSPCB",25-11-2025 05:00:00,24.7955,84.9994,CO,30,99,79
India,Bihar,Gaya,"Collectorate, Gaya - BSPCB",25-11-2025 05:00:00,24.7955,84.9994,OZONE,19,20,20
India,Bihar,Gaya,"Kareemganj, Gaya - BSPCB",25-11-2025 05:00:00,24.792403,84.992416,PM10,128,342,195
India,Bihar,Gaya,"Kareemganj, Gaya - BSPCB",25-11-2025 05:00:00,24.792403,84.992416,OZONE,1,34,4
India,Bihar,Gaya,"SFTI Kusdihra, Gaya - BSPCB",25-11-2025 05:00:00,24.762518,84.982348,NH3,3,4,3
India,Bihar,Hajipur,"Industrial Area, Hajipur - BSPCB",25-11-2025 05:00:00,25.697189,85.245900,SO2,3,6,4
India,Bihar,Hajipur,"Industrial Area, Hajipur - BSPCB",25-11-2025 05:00:00,25.697189,85.245900,OZONE,9,139,15
India,Bihar,Katihar,"Mirchaibari, Katihar - BSPCB",25-11-2025 05:00:00,25.560083,87.553265,NO2,12,20,16
India,Bihar,Katihar,"Mirchaibari, Katihar - BSPCB",25-11-2025 05:00:00,25.560083,87.553265,OZONE,4,10,6
India,Bihar,Kishanganj,"SDM Office_Khagra, Kishanganj - BSPCB",25-11-2025 05:00:00,26.0881305,87.93840336,PM2.5,38,52,45
India,Bihar,Kishanganj,"SDM Office_Khagra, Kishanganj - BSPCB",25-11-2025 05:00:00,26.0881305,87.93840336,PM10,40,157,101
India,Bihar,Kishanganj,"SDM Office_Khagra, Kishanganj - BSPCB",25-11-2025 05:00:00,26.0881305,87.93840336,SO2,7,8,7
India,Bihar,Kishanganj,"SDM Office_Khagra, Kishanganj - BSPCB",25-11-2025 05:00:00,26.0881305,87.93840336,CO,16,24,19
India,Bihar,Motihari,"Gandak Colony, Motihari - BSPCB",25-11-2025 05:00:00,26.63086,84.90051,NO2,10,12,10
India,Bihar,Munger,"Town Hall, Munger - BSPCB",25-11-2025 05:00:00,25.376776,86.471523,PM10,96,187,131
India,Andhra_Pradesh,Tirupati,"Vaikuntapuram, Tirupati - APPCB",25-11-2025 05:00:00,13.615387,79.409230,CO,20,30,25
India,Andhra_Pradesh,Vijayawada,"HB Colony, Vijayawada - APPCB",25-11-2025 05:00:00,16.536107,80.594233,PM2.5,72,133,91
India,Andhra_Pradesh,Vijayawada,"HB Colony, Vijayawada - APPCB",25-11-2025 05:00:00,16.536107,80.594233,NO2,19,26,22
India,Andhra_Pradesh,Vijayawada,"HB Colony, Vijayawada - APPCB",25-11-2025 05:00:00,16.536107,80.594233,OZONE,25,48,32
India,Andhra_Pradesh,Vijayawada,"Rajiv Gandhi Park, Vijayawada - APPCB",25-11-2025 05:00:00,16.509717,80.612222,PM2.5,56,83,67
India,Andhra_Pradesh,Visakhapatnam,"GVM Corporation, Visakhapatnam - APPCB",25-11-2025 05:00:00,17.72,83.3,PM2.5,131,278,192
India,Andhra_Pradesh,Visakhapatnam,"GVM Corporation, Visakhapatnam - APPCB",25-11-2025 05:00:00,17.72,83.3,CO,5,36,15
India,Bihar,Arrah,"New DM Office, Arrah - BSPCB",25-11-2025 05:00:00,25.5626095,84.663264,NO2,5,9,7
India,Bihar,Aurangabad,"Gurdeo Nagar, Aurangabad - BSPCB",25-11-2025 05:00:00,24.75746,84.366208,CO,101,103,102
India,Bihar,Begusarai,"Lohiyanagar, Begusarai - BSPCB",25-11-2025 05:00:00,25.42742023,86.13886079,OZONE,8,58,10
India,Bihar,Bettiah,"Kamalnath Nagar, Bettiah - BSPCB",25-11-2025 05:00:00,26.80365,84.51954,PM2.5,52,220,124
India,Bihar,Bettiah,"Kamalnath Nagar, Bettiah - BSPCB",25-11-2025 05:00:00,26.80365,84.51954,NO2,6,10,8
India,Bihar,Bettiah,"Kamalnath Nagar, Bettiah - BSPCB",25-11-2025 05:00:00,26.80365,84.51954,SO2,1,34,14
India,Bihar,Bettiah,"Kamalnath Nagar, Bettiah - BSPCB",25-11-2025 05:00:00,26.80365,84.51954,CO,70,138,109
India,Arunachal_Pradesh,Naharlagun,"Naharlagun, Naharlagun - APSPCB",25-11-2025 05:00:00,27.103358,93.679645,PM2.5,NA,NA,NA
India,Arunachal_Pradesh,Naharlagun,"Naharlagun, Naharlagun - APSPCB",25-11-2025 05:00:00,27.103358,93.679645,NO2,NA,NA,NA
India,Arunachal_Pradesh,Naharlagun,"Naharlagun, Naharlagun - APSPCB",25-11-2025 05:00:00,27.103358,93.679645,CO,NA,NA,NA
India,Assam,Byrnihat,"Central Academy for SFS, Byrnihat - PCBA",25-11-2025 05:00:00,26.071318,91.87488,PM2.5,55,257,111
India,Assam,Byrnihat,"Central Academy for SFS, Byrnihat - PCBA",25-11-2025 05:00:00,26.071318,91.87488,CO,35,63,50
India,Assam,Guwahati,"LGBI Airport, Guwahati - PCBA",25-11-2025 05:00:00,26.10887,91.589544,OZONE,14,18,16
India,Bihar,Bhagalpur,"DM Office_Kachari Chowk, Bhagalpur - BSPCB",25-11-2025 05:00:00,25.251013,86.989001,SO2,32,53,41
India,Bihar,Bhagalpur,"Mayaganj, Bhagalpur - BSPCB",25-11-2025 05:00:00,25.265194,87.012947,PM10,61,153,117
India,Bihar,Bhagalpur,"Mayaganj, Bhagalpur - BSPCB",25-11-2025 05:00:00,25.265194,87.012947,NO2,3,8,7
India,Bihar,Bhagalpur,"Mayaganj, Bhagalpur - BSPCB",25-11-2025 05:00:00,25.265194,87.012947,SO2,34,74,52
India,Bihar,Bhagalpur,"Mayaganj, Bhagalpur - BSPCB",25-11-2025 05:00:00,25.265194,87.012947,CO,50,104,77
India,Bihar,Chhapra,"Darshan Nagar, Chhapra - BSPCB",25-11-2025 05:00:00,25.7808257,84.7446768,PM2.5,32,117,63
India,Andhra_Pradesh,Kadapa,"Yerramukkapalli, Kadapa - APPCB",25-11-2025 05:00:00,14.465052,78.824187,NO2,NA,NA,NA
India,Andhra_Pradesh,Kadapa,"Yerramukkapalli, Kadapa - APPCB",25-11-2025 05:00:00,14.465052,78.824187,NH3,NA,NA,NA
India,Andhra_Pradesh,Kadapa,"Yerramukkapalli, Kadapa - APPCB",25-11-2025 05:00:00,14.465052,78.824187,CO,NA,NA,NA
India,Andhra_Pradesh,Tirumala,"Toll Gate, Tirumala - APPCB",25-11-2025 05:00:00,13.67,79.35,NO2,10,17,14
India,Andhra_Pradesh,Tirumala,"Toll Gate, Tirumala - APPCB",25-11-2025 05:00:00,13.67,79.35,SO2,5,7,6
India,Andhra_Pradesh,Tirupati,"Vaikuntapuram, Tirupati - APPCB",25-11-2025 05:00:00,13.615387,79.409230,PM10,NA,NA,NA
India,Andaman and Nicobar,Sri Vijaya Puram,"Police Line, Sri Vijaya Puram - ANPCC",25-11-2025 05:00:00,11.654054,92.734055,OZONE,3,28,4
India,Andhra_Pradesh,Amaravati,"Secretariat, Amaravati - APPCB",25-11-2025 05:00:00,16.5150833,80.5181667,PM10,65,500,117
India,Andhra_Pradesh,Amaravati,"Secretariat, Amaravati - APPCB",25-11-2025 05:00:00,16.5150833,80.5181667,CO,18,30,27
India,Assam,Nalbari,"Bata Chowk, Nalbari - PCBA",25-11-2025 05:00:00,26.446912,91.439057,PM10,41,117,70
India,Assam,Nalbari,"Bata Chowk, Nalbari - PCBA",25-11-2025 05:00:00,26.446912,91.439057,NO2,12,15,14
India,Assam,Nalbari,"Bata Chowk, Nalbari - PCBA",25-11-2025 05:00:00,26.446912,91.439057,SO2,7,8,8
India,Assam,Sivasagar,"Girls College, Sivasagar - PCBA",25-11-2025 05:00:00,26.987634,94.636574,PM2.5,15,81,40
India,Chhattisgarh,Raipur,"Bhatagaon New ISBT, Raipur - CECB",25-11-2025 05:00:00,21.219665,81.630094,NH3,NA,NA,NA
India,Chhattisgarh,Raipur,"Bhatagaon New ISBT, Raipur - CECB",25-11-2025 05:00:00,21.219665,81.630094,SO2,NA,NA,NA
India,Chhattisgarh,Raipur,"Krishak Nagar, Raipur - CECB",25-11-2025 05:00:00,21.237755,81.705301,NO2,15,34,20
India,Chhattisgarh,Raipur,"Siltara Phase-II, Raipur - CECB",25-11-2025 05:00:00,21.371751,81.664929,NO2,9,60,21
India,Chhattisgarh,Tumidih,"OP Jindal Industrial Park, Tumidih - CECB",25-11-2025 05:00:00,22.06631475,83.33820077,PM10,71,168,106
India,Chhattisgarh,Tumidih,"OP Jindal Industrial Park, Tumidih - CECB",25-11-2025 05:00:00,22.06631475,83.33820077,OZONE,4,125,7
India,Delhi,Delhi,"Alipur, Delhi - DPCC",25-11-2025 05:00:00,28.815329,77.153010,NO2,31,126,82
India,Delhi,Delhi,"Alipur, Delhi - DPCC",25-11-2025 05:00:00,28.815329,77.153010,CO,56,133,104
India,Delhi,Delhi,"CRRI Mathura Road, Delhi - IMD",25-11-2025 05:00:00,28.5512005,77.2735737,CO,12,130,126
India,Delhi,Delhi,"Chandni Chowk, Delhi - IITM",25-11-2025 05:00:00,28.656756,77.227234,PM2.5,NA,NA,NA
India,Delhi,Delhi,"Chandni Chowk, Delhi - IITM",25-11-2025 05:00:00,28.656756,77.227234,PM10,157,451,351
India,Delhi,Delhi,"Chandni Chowk, Delhi - IITM",25-11-2025 05:00:00,28.656756,77.227234,NO2,42,139,82
India,Delhi,Delhi,"DTU, Delhi - CPCB",25-11-2025 05:00:00,28.7500499,77.1112615,CO,34,104,97
India,Delhi,Delhi,"Dr. Karni Singh Shooting Range, Delhi - DPCC",25-11-2025 05:00:00,28.498571,77.264840,NH3,5,11,9
India,Delhi,Delhi,"Dwarka-Sector 8, Delhi - DPCC ",25-11-2025 05:00:00,28.5710274,77.0719006,PM2.5,287,424,381
India,Bihar,Purnia,"Mariam Nagar, Purnia - BSPCB",25-11-2025 05:00:00,25.366336,87.117468,SO2,11,25,16
India,Bihar,Rajgir,"Dangi Tola, Rajgir - BSPCB",25-11-2025 05:00:00,25.03280,85.41948,PM2.5,70,283,165
India,Bihar,Saharsa,"Police Line, Saharsa - BSPCB",25-11-2025 05:00:00,25.892357,86.590325,SO2,16,18,17
India,Bihar,Samastipur,"DM Office_Kasipur, Samastipur - BSPCB",25-11-2025 05:00:00,25.859655,85.77944,PM10,36,105,79
India,Bihar,Sasaram,"Dada Peer, Sasaram - BSPCB",25-11-2025 05:00:00,24.952822,84.002396,NO2,1,7,2
India,Bihar,Sasaram,"Dada Peer, Sasaram - BSPCB",25-11-2025 05:00:00,24.952822,84.002396,SO2,1,6,4
India,Bihar,Patna,"Govt. High School Shikarpur, Patna - BSPCB",25-11-2025 05:00:00,25.592539,85.227158,SO2,9,14,11
India,Bihar,Patna,"IGSC Planetarium Complex, Patna - BSPCB",25-11-2025 05:00:00,25.610369,85.132568,NO2,1,19,9
India,Bihar,Patna,"IGSC Planetarium Complex, Patna - BSPCB",25-11-2025 05:00:00,25.610369,85.132568,OZONE,27,32,29
India,Bihar,Patna,"Muradpur, Patna - BSPCB",25-11-2025 05:00:00,25.619651,85.147382,NH3,NA,NA,NA
India,Bihar,Patna,"Samanpura, Patna - BSPCB",25-11-2025 05:00:00,25.596727,85.085624,OZONE,7,65,11
India,Bihar,Purnia,"Mariam Nagar, Purnia - BSPCB",25-11-2025 05:00:00,25.366336,87.117468,PM10,49,105,86
India,Bihar,Siwan,"Chitragupta Nagar, Siwan - BSPCB",25-11-2025 05:00:00,26.2271665,84.3570427,OZONE,7,8,8
India,Chandigarh,Chandigarh,"Sector 22, Chandigarh - CPCC",25-11-2025 05:00:00,30.735567,76.775714,NH3,7,20,17
India,Chandigarh,Chandigarh,"Sector-25, Chandigarh - CPCC",25-11-2025 05:00:00,30.751462,76.762879,PM10,79,129,112
India,Chandigarh,Chandigarh,"Sector-25, Chandigarh - CPCC",25-11-2025 05:00:00,30.751462,76.762879,CO,26,62,51
India,Chandigarh,Chandigarh,"Sector-53, Chandigarh - CPCC",25-11-2025 05:00:00,30.719859,76.738637,PM10,NA,NA,NA
India,Chandigarh,Chandigarh,"Sector-53, Chandigarh - CPCC",25-11-2025 05:00:00,30.719859,76.738637,NH3,NA,NA,NA
India,Chandigarh,Chandigarh,"Sector-53, Chandigarh - CPCC",25-11-2025 05:00:00,30.719859,76.738637,SO2,NA,NA,NA
India,Chhattisgarh,Bhilai,"Civic Center, Bhilai - Bhilai Steel Plant",25-11-2025 05:00:00,21.185571,81.343175,SO2,5,12,8
India,Chhattisgarh,Bhilai,"Civic Center, Bhilai - Bhilai Steel Plant",25-11-2025 05:00:00,21.185571,81.343175,OZONE,9,15,10
India,Chhattisgarh,Bilaspur,"Mangala, Bilaspur - NTPC",25-11-2025 05:00:00,22.08815,82.13737,PM2.5,49,120,92
India,Chhattisgarh,Chhal,"Nawapara SECL Colony, Chhal - CECB",25-11-2025 05:00:00,22.118125,83.140608,NO2,6,18,8
India,Chhattisgarh,Korba,"Rampur, Korba - CECB",25-11-2025 05:00:00,22.368195,82.746431,NO2,9,19,15
India,Chhattisgarh,Korba,"Rampur, Korba - CECB",25-11-2025 05:00:00,22.368195,82.746431,NH3,2,2,2
India,Chhattisgarh,Korba,"Urja Nagar, Korba - CECB",25-11-2025 05:00:00,22.348441,82.549611,NH3,1,2,2
India,Chhattisgarh,Korba,"Urja Nagar, Korba - CECB",25-11-2025 05:00:00,22.348441,82.549611,OZONE,35,36,36
India,Chhattisgarh,Kunjemura,"OP Jindal School, Kunjemura - CECB",25-11-2025 05:00:00,22.126650,83.483212,SO2,1,19,8
India,Chhattisgarh,Milupara,"Govt. Higher Secondary School, Milupara - CECB",25-11-2025 05:00:00,22.1910172,83.5197009,NO2,13,52,25
India,Chhattisgarh,Milupara,"Govt. Higher Secondary School, Milupara - CECB",25-11-2025 05:00:00,22.1910172,83.5197009,SO2,13,18,15
India,Delhi,Delhi,"IHBAS, Dilshad Garden, Delhi - CPCB",25-11-2025 05:00:00,28.6811736,77.3025234,NO2,48,56,52
India,Delhi,Delhi,"IHBAS, Dilshad Garden, Delhi - CPCB",25-11-2025 05:00:00,28.6811736,77.3025234,CO,44,98,74
India,Delhi,Delhi,"IHBAS, Dilshad Garden, Delhi - CPCB",25-11-2025 05:00:00,28.6811736,77.3025234,OZONE,19,28,22
India,Delhi,Delhi,"ITO, Delhi - CPCB",25-11-2025 05:00:00,28.628624,77.241060,PM10,176,388,301
India,Delhi,Delhi,"ITO, Delhi - CPCB",25-11-2025 05:00:00,28.628624,77.241060,SO2,13,24,19
India,Delhi,Delhi,"ITO, Delhi - CPCB",25-11-2025 05:00:00,28.628624,77.241060,OZONE,11,88,12
India,Delhi,Delhi,"Anand Vihar, Delhi - DPCC",25-11-2025 05:00:00,28.647622,77.3158090,NO2,119,190,145
India,Delhi,Delhi,"Ashok Vihar, Delhi - DPCC",25-11-2025 05:00:00,28.695381,77.181665,PM10,197,462,354
India,Delhi,Delhi,"Aya Nagar, Delhi - IMD",25-11-2025 05:00:00,28.4706914,77.1099364,PM10,210,435,347
India,Delhi,Delhi,"CRRI Mathura Road, Delhi - IMD",25-11-2025 05:00:00,28.5512005,77.2735737,PM10,208,435,366
India,Delhi,Delhi,"Pusa, Delhi - IMD",25-11-2025 05:00:00,28.636110,77.173332,PM2.5,264,404,362
India,Delhi,Delhi,"Pusa, Delhi - IMD",25-11-2025 05:00:00,28.636110,77.173332,NO2,20,119,68
India,Delhi,Delhi,"Pusa, Delhi - IMD",25-11-2025 05:00:00,28.636110,77.173332,CO,56,151,140
India,Delhi,Delhi,"Pusa, Delhi - IMD",25-11-2025 05:00:00,28.636110,77.173332,OZONE,26,122,33
India,Delhi,Delhi,"R K Puram, Delhi - DPCC",25-11-2025 05:00:00,28.563262,77.186937,PM10,183,423,316
India,Delhi,Delhi,"R K Puram, Delhi - DPCC",25-11-2025 05:00:00,28.563262,77.186937,NO2,38,129,86
India,Delhi,Delhi,"R K Puram, Delhi - DPCC",25-11-2025 05:00:00,28.563262,77.186937,CO,16,130,123
India,Delhi,Delhi,"R K Puram, Delhi - DPCC",25-11-2025 05:00:00,28.563262,77.186937,OZONE,1,341,43
India,Delhi,Delhi,"Rohini, Delhi - DPCC",25-11-2025 05:00:00,28.732528,77.119920,SO2,12,30,18
India,Delhi,Delhi,"Shadipur, Delhi - CPCB",25-11-2025 05:00:00,28.6514781,77.1473105,PM2.5,90,343,309
India,Delhi,Delhi,"Shadipur, Delhi - CPCB",25-11-2025 05:00:00,28.6514781,77.1473105,NH3,11,25,17
India,Delhi,Delhi,"Shadipur, Delhi - CPCB",25-11-2025 05:00:00,28.6514781,77.1473105,SO2,3,39,18
India,Delhi,Delhi,"Mundka, Delhi - DPCC",25-11-2025 05:00:00,28.684678,77.076574,OZONE,NA,NA,NA
India,Delhi,Delhi,"NSIT Dwarka, Delhi - CPCB",25-11-2025 05:00:00,28.60909,77.0325413,PM10,126,460,254
India,Delhi,Delhi,"NSIT Dwarka, Delhi - CPCB",25-11-2025 05:00:00,28.60909,77.0325413,OZONE,12,56,14
India,Delhi,Delhi,"Najafgarh, Delhi - DPCC",25-11-2025 05:00:00,28.570173,76.933762,CO,54,95,78
India,Delhi,Delhi,"Narela, Delhi - DPCC",25-11-2025 05:00:00,28.822836,77.101981,PM10,179,431,305
India,Delhi,Delhi,"Nehru Nagar, Delhi - DPCC",25-11-2025 05:00:00,28.567890,77.250515,SO2,13,50,33
India,Delhi,Delhi,"Wazirpur, Delhi - DPCC",25-11-2025 05:00:00,28.699793,77.165453,SO2,5,15,10
India,Delhi,Delhi,"Wazirpur, Delhi - DPCC",25-11-2025 05:00:00,28.699793,77.165453,CO,44,122,114
India,Gujarat,Ahmedabad,"Chandkheda, Ahmedabad - IITM",25-11-2025 05:00:00,23.107969,72.574648,NH3,1,7,5
India,Gujarat,Ahmedabad,"Chandkheda, Ahmedabad - IITM",25-11-2025 05:00:00,23.107969,72.574648,OZONE,16,117,58
India,Gujarat,Ahmedabad,"Gyaspur, Ahmedabad - IITM",25-11-2025 05:00:00,22.977134,72.553024,PM10,129,330,206
India,Gujarat,Ahmedabad,"Raikhad, Ahmedabad - IITM",25-11-2025 05:00:00,23.020509,72.579261,PM10,117,247,178
India,Delhi,Delhi,"Nehru Nagar, Delhi - DPCC",25-11-2025 05:00:00,28.567890,77.250515,OZONE,3,270,4
India,Delhi,Delhi,"North Campus, DU, Delhi - IMD",25-11-2025 05:00:00,28.6573814,77.1585447,PM2.5,300,449,370
India,Delhi,Delhi,"North Campus, DU, Delhi - IMD",25-11-2025 05:00:00,28.6573814,77.1585447,CO,64,163,147
India,Delhi,Delhi,"Patparganj, Delhi - DPCC",25-11-2025 05:00:00,28.623763,77.287209,NO2,56,190,124
India,Delhi,Delhi,"Patparganj, Delhi - DPCC",25-11-2025 05:00:00,28.623763,77.287209,CO,69,167,158
India,Delhi,Delhi,"Pusa, Delhi - DPCC",25-11-2025 05:00:00,28.639652,77.146275,PM10,206,459,301
India,Gujarat,Ankleshwar,"GIDC, Ankleshwar - GPCB",25-11-2025 05:00:00,21.613267,73.010555,CO,40,103,92
India,Gujarat,Gandhinagar,"IIPHG Lekawada, Gandhinagar - IITM",25-11-2025 05:00:00,23.243639,72.68994,PM10,102,154,126
India,Gujarat,Gandhinagar,"IIPHG Lekawada, Gandhinagar - IITM",25-11-2025 05:00:00,23.243639,72.68994,NH3,2,3,2
India,Gujarat,Gandhinagar,"IIPHG Lekawada, Gandhinagar - IITM",25-11-2025 05:00:00,23.243639,72.68994,SO2,2,9,5
India,Gujarat,Nandesari,"GIDC, Nandesari - Nandesari Ind. Association",25-11-2025 05:00:00,22.410802,73.097923,PM2.5,NA,NA,NA
India,Gujarat,Nandesari,"GIDC, Nandesari - Nandesari Ind. Association",25-11-2025 05:00:00,22.410802,73.097923,NO2,NA,NA,NA
India,Gujarat,Ahmedabad,"SAC ISRO Bopal, Ahmedabad - IITM",25-11-2025 05:00:00,23.041137,72.456691,OZONE,3,70,7
India,Gujarat,Ahmedabad,"SAC ISRO Satellite, Ahmedabad - IITM",25-11-2025 05:00:00,23.023389,72.515201,PM2.5,83,261,126
India,Gujarat,Ahmedabad,"SAC ISRO Satellite, Ahmedabad - IITM",25-11-2025 05:00:00,23.023389,72.515201,NO2,12,104,41
India,Gujarat,Ahmedabad,"SVPI Airport Hansol, Ahmedabad - IITM",25-11-2025 05:00:00,23.076793,72.627874,PM2.5,107,252,174
India,Gujarat,Ahmedabad,"SVPI Airport Hansol, Ahmedabad - IITM",25-11-2025 05:00:00,23.076793,72.627874,NO2,32,79,57
India,Delhi,Delhi,"Sirifort, Delhi - CPCB",25-11-2025 05:00:00,28.5504249,77.2159377,PM2.5,284,431,369
India,Delhi,Delhi,"Sonia Vihar, Delhi - DPCC",25-11-2025 05:00:00,28.710508,77.249485,NO2,27,122,58
India,Delhi,Delhi,"Sri Aurobindo Marg, Delhi - DPCC",25-11-2025 05:00:00,28.531346,77.190156,NO2,10,55,30
India,Delhi,Delhi,"Vivek Vihar, Delhi - DPCC",25-11-2025 05:00:00,28.672342,77.315260,SO2,5,34,15
India,Gujarat,Vatva,"Phase-4 GIDC, Vatva - GPCB",25-11-2025 05:00:00,22.969611,72.643500,PM2.5,NA,NA,NA
India,Gujarat,Vatva,"Phase-4 GIDC, Vatva - GPCB",25-11-2025 05:00:00,22.969611,72.643500,PM10,NA,NA,NA
India,Gujarat,Vatva,"Phase-4 GIDC, Vatva - GPCB",25-11-2025 05:00:00,22.969611,72.643500,NO2,34,52,43
India,Gujarat,Vatva,"Phase-4 GIDC, Vatva - GPCB",25-11-2025 05:00:00,22.969611,72.643500,CO,10,45,21
India,Haryana,Bahadurgarh,"Arya Nagar, Bahadurgarh - HSPCB",25-11-2025 05:00:00,28.6701,76.9254,PM2.5,97,374,305
India,Delhi,Delhi,"Jawaharlal Nehru Stadium, Delhi - DPCC",25-11-2025 05:00:00,28.580280,77.233829,PM10,189,439,349
India,Delhi,Delhi,"Jawaharlal Nehru Stadium, Delhi - DPCC",25-11-2025 05:00:00,28.580280,77.233829,NO2,50,164,103
India,Delhi,Delhi,"Major Dhyan Chand National Stadium, Delhi - DPCC",25-11-2025 05:00:00,28.611281,77.237738,PM2.5,207,398,331
India,Delhi,Delhi,"Major Dhyan Chand National Stadium, Delhi - DPCC",25-11-2025 05:00:00,28.611281,77.237738,SO2,13,30,21
India,Haryana,Sonipat,"Murthal, Sonipat - HSPCB",25-11-2025 05:00:00,29.027200,77.062100,PM2.5,131,405,291
India,Haryana,Sonipat,"Murthal, Sonipat - HSPCB",25-11-2025 05:00:00,29.027200,77.062100,PM10,NA,NA,NA
India,Haryana,Yamuna Nagar,"Gobind Pura, Yamuna Nagar - HSPCB",25-11-2025 05:00:00,30.1480566,77.2893471,PM2.5,235,318,295
India,Haryana,Yamuna Nagar,"Gobind Pura, Yamuna Nagar - HSPCB",25-11-2025 05:00:00,30.1480566,77.2893471,SO2,10,15,12
India,Haryana,Yamuna Nagar,"Gobind Pura, Yamuna Nagar - HSPCB",25-11-2025 05:00:00,30.1480566,77.2893471,CO,4,106,62
India,Himachal Pradesh,Baddi,"HIMUDA Complex Phase-1, Baddi - HPPCB",25-11-2025 05:00:00,30.943887,76.801991,NO2,29,122,68
India,Himachal Pradesh,Baddi,"HIMUDA Complex Phase-1, Baddi - HPPCB",25-11-2025 05:00:00,30.943887,76.801991,CO,48,102,74
India,Jammu_and_Kashmir,Srinagar,"Rajbagh, Srinagar - JKSPCB",25-11-2025 05:00:00,34.066206,74.819820,PM10,99,158,120
India,Jammu_and_Kashmir,Srinagar,"Rajbagh, Srinagar - JKSPCB",25-11-2025 05:00:00,34.066206,74.819820,SO2,3,4,3
India,Jammu_and_Kashmir,Srinagar,"Rajbagh, Srinagar - JKSPCB",25-11-2025 05:00:00,34.066206,74.819820,CO,12,24,15
India,Haryana,Kurukshetra,"Sector-7, Kurukshetra - HSPCB",25-11-2025 05:00:00,29.966942,76.875879,CO,28,62,46
India,Haryana,Mandikhera,"General Hospital, Mandikhera - HSPCB",25-11-2025 05:00:00,27.9002,76.9938,PM10,127,186,154
India,Haryana,Mandikhera,"General Hospital, Mandikhera - HSPCB",25-11-2025 05:00:00,27.9002,76.9938,SO2,32,38,35
India,Haryana,Mandikhera,"General Hospital, Mandikhera - HSPCB",25-11-2025 05:00:00,27.9002,76.9938,CO,62,88,80
India,Haryana,Manesar,"Sector-2 IMT, Manesar - HSPCB",25-11-2025 05:00:00,28.360699,76.936090,SO2,6,38,12
India,Haryana,Narnaul,"Shastri Nagar, Narnaul - HSPCB",25-11-2025 05:00:00,28.060249,76.113115,NO2,51,108,85
India,Haryana,Palwal,"Shyam Nagar, Palwal - HSPCB",25-11-2025 05:00:00,28.1485564,77.3320667,NH3,8,9,9
India,Haryana,Palwal,"Shyam Nagar, Palwal - HSPCB",25-11-2025 05:00:00,28.1485564,77.3320667,CO,18,54,38
India,Haryana,Palwal,"Shyam Nagar, Palwal - HSPCB",25-11-2025 05:00:00,28.1485564,77.3320667,OZONE,23,25,24
India,Karnataka,Bagalkot,"Vidayagiri, Bagalkot - KSPCB",25-11-2025 05:00:00,16.172806,75.659694,SO2,7,7,7
India,Karnataka,Bengaluru,"BWSSB Kadabesanahalli, Bengaluru - CPCB",25-11-2025 05:00:00,12.9352049,77.6814488,NH3,1,1,1
India,Karnataka,Bengaluru,"BWSSB Kadabesanahalli, Bengaluru - CPCB",25-11-2025 05:00:00,12.9352049,77.6814488,CO,62,90,72
India,Karnataka,Bengaluru,"BWSSB Kadabesanahalli, Bengaluru - CPCB",25-11-2025 05:00:00,12.9352049,77.6814488,OZONE,24,24,24
India,Karnataka,Bengaluru,"Hombegowda Nagar, Bengaluru - KSPCB",25-11-2025 05:00:00,12.938539,77.590100,NO2,8,35,18
India,Haryana,Faridabad,"Sector 11, Faridabad - HSPCB",25-11-2025 05:00:00,28.376058,77.315741,NO2,NA,NA,NA
India,Haryana,Faridabad,"Sector 11, Faridabad - HSPCB",25-11-2025 05:00:00,28.376058,77.315741,SO2,NA,NA,NA
India,Haryana,Faridabad,"Sector 11, Faridabad - HSPCB",25-11-2025 05:00:00,28.376058,77.315741,CO,NA,NA,NA
India,Haryana,Faridabad,"Sector 30, Faridabad - HSPCB",25-11-2025 05:00:00,28.4417,77.3217,PM10,150,157,152
India,Haryana,Faridabad,"Sector 30, Faridabad - HSPCB",25-11-2025 05:00:00,28.4417,77.3217,SO2,6,6,6
India,Haryana,Gurugram,"Sector-51, Gurugram - HSPCB",25-11-2025 05:00:00,28.4227,77.0667,PM10,94,500,248
India,Haryana,Kaithal,"Rishi Nagar, Kaithal - HSPCB",25-11-2025 05:00:00,29.8006,76.4155,PM2.5,71,332,162
India,Haryana,Kaithal,"Rishi Nagar, Kaithal - HSPCB",25-11-2025 05:00:00,29.8006,76.4155,SO2,29,35,32
India,Haryana,Karnal,"Sector-12, Karnal - HSPCB",25-11-2025 05:00:00,29.695300,77.002700,NH3,6,7,6
India,Haryana,Karnal,"Sector-12, Karnal - HSPCB",25-11-2025 05:00:00,29.695300,77.002700,CO,36,54,50
India,Haryana,Kurukshetra,"Sector-7, Kurukshetra - HSPCB",25-11-2025 05:00:00,29.966942,76.875879,SO2,2,35,10
India,Haryana,Gurugram,"Teri Gram, Gurugram - HSPCB",25-11-2025 05:00:00,28.4275,77.1465,NO2,1,61,19
India,Haryana,Gurugram,"Teri Gram, Gurugram - HSPCB",25-11-2025 05:00:00,28.4275,77.1465,CO,22,75,57
India,Haryana,Gurugram,"Vikas Sadan, Gurugram - HSPCB",25-11-2025 05:00:00,28.4501238,77.0263051,SO2,2,8,5
India,Haryana,Hisar,"Urban Estate-II, Hisar - HSPCB",25-11-2025 05:00:00,29.140560,75.744941,NO2,11,21,18
India,Haryana,Hisar,"Urban Estate-II, Hisar - HSPCB",25-11-2025 05:00:00,29.140560,75.744941,NH3,4,8,7
India,Haryana,Bhiwani,"H.B. Colony, Bhiwani - HSPCB",25-11-2025 05:00:00,28.806223,76.141105,OZONE,4,25,14
India,Haryana,Dharuhera,"Municipal Corporation Office, Dharuhera -  HSPCB",25-11-2025 05:00:00,28.206800,76.799700,PM10,104,404,247
India,Haryana,Dharuhera,"Municipal Corporation Office, Dharuhera -  HSPCB",25-11-2025 05:00:00,28.206800,76.799700,NH3,9,27,19
India,Haryana,Dharuhera,"Municipal Corporation Office, Dharuhera -  HSPCB",25-11-2025 05:00:00,28.206800,76.799700,CO,72,97,86
India,Haryana,Dharuhera,"Municipal Corporation Office, Dharuhera -  HSPCB",25-11-2025 05:00:00,28.206800,76.799700,OZONE,6,47,11
India,Haryana,Panipat,"Sector-18, Panipat - HSPCB",25-11-2025 05:00:00,29.432304,76.972765,SO2,1,15,8
India,Haryana,Rohtak,"MD University, Rohtak - HSPCB",25-11-2025 05:00:00,28.52123,76.37138,CO,60,67,63
India,Haryana,Sirsa,"F-Block, Sirsa - HSPCB",25-11-2025 05:00:00,29.536400,75.015800,PM2.5,18,148,79
India,Jharkhand,Dhanbad,"Sardar Patel Nagar, Dhanbad - JSPCB",25-11-2025 05:00:00,23.80569,86.44268,NO2,86,88,88
India,Karnataka,Bagalkot,"Vidayagiri, Bagalkot - KSPCB",25-11-2025 05:00:00,16.172806,75.659694,PM2.5,35,36,35
India,Karnataka,Bagalkot,"Vidayagiri, Bagalkot - KSPCB",25-11-2025 05:00:00,16.172806,75.659694,NO2,11,12,12
India,Kerala,Kannur,"Thavakkara, Kannur - Kerala PCB",25-11-2025 05:00:00,11.875000,75.373200,PM10,48,60,56
India,Kerala,Kannur,"Thavakkara, Kannur - Kerala PCB",25-11-2025 05:00:00,11.875000,75.373200,CO,14,16,16
India,Kerala,Kollam,"Polayathode, Kollam - Kerala PCB",25-11-2025 05:00:00,8.8787,76.6073,OZONE,29,33,30
India,Kerala,Thiruvananthapuram,"Kariavattom, Thiruvananthapuram - Kerala PCB",25-11-2025 05:00:00,8.563700,76.886500,PM2.5,22,39,28
India,Kerala,Thiruvananthapuram,"Plammoodu, Thiruvananthapuram - Kerala PCB",25-11-2025 05:00:00,8.5149093,76.9435879,NH3,2,3,2
India,Kerala,Thiruvananthapuram,"Plammoodu, Thiruvananthapuram - Kerala PCB",25-11-2025 05:00:00,8.5149093,76.9435879,OZONE,14,20,16
India,Kerala,Thrissur,"Corporation Ground, Thrissur - Kerala PCB",25-11-2025 05:00:00,10.532400,76.215900,PM2.5,45,57,50
India,Kerala,Thrissur,"Corporation Ground, Thrissur - Kerala PCB",25-11-2025 05:00:00,10.532400,76.215900,PM10,47,58,51
India,Madhya Pradesh,Gwalior,"City Center, Gwalior - MPPCB",25-11-2025 05:00:00,26.203442,78.193251,NO2,16,153,59
