country,state,city,station,last_update,latitude,longitude,pollutant_id,min_value,max_value,avg_value
India,Andhra_Pradesh,Vijayawada,"Rajiv Gandhi Park, Vijayawada - APPCB",08-11-2025 07:00:00,16.509717,80.612222,NH3,3,4,4
India,Andhra_Pradesh,Vijayawada,"Rajiv Gandhi Park, Vijayawada - APPCB",08-11-2025 07:00:00,16.509717,80.612222,SO2,10,18,15
India,Andhra_Pradesh,Vijayawada,"Rajiv Nagar, Vijayawada - APPCB",08-11-2025 07:00:00,16.554731,80.649110,CO,27,48,32
India,Andhra_Pradesh,Visakhapatnam,"GVM Corporation, Visakhapatnam - APPCB",08-11-2025 07:00:00,17.72,83.3,PM2.5,100,254,176
India,Andhra_Pradesh,Visakhapatnam,"GVM Corporation, Visakhapatnam - APPCB",08-11-2025 07:00:00,17.72,83.3,PM10,114,431,195
India,Arunachal_Pradesh,Naharlagun,"Naharlagun, Naharlagun - APSPCB",08-11-2025 07:00:00,27.103358,93.679645,CO,6,21,9
India,Arunachal_Pradesh,Naharlagun,"Naharlagun, Naharlagun - APSPCB",08-11-2025 07:00:00,27.103358,93.679645,OZONE,5,5,5
India,Assam,Byrnihat,"Central Academy for SFS, Byrnihat - PCBA",08-11-2025 07:00:00,26.071318,91.87488,CO,NA,NA,NA
India,Assam,Nalbari,"Bata Chowk, Nalbari - PCBA",08-11-2025 07:00:00,26.446912,91.439057,CO,84,118,107
India,Assam,Silchar,"Tarapur, Silchar - PCBA",08-11-2025 07:00:00,24.82827,92.79525,NO2,14,18,17
India,Assam,Silchar,"Tarapur, Silchar - PCBA",08-11-2025 07:00:00,24.82827,92.79525,CO,13,53,27
India,Assam,Silchar,"Tarapur, Silchar - PCBA",08-11-2025 07:00:00,24.82827,92.79525,OZONE,1,6,2
India,Assam,Sivasagar,"Girls College, Sivasagar - PCBA",08-11-2025 07:00:00,26.987634,94.636574,PM2.5,26,89,54
India,Assam,Sivasagar,"Girls College, Sivasagar - PCBA",08-11-2025 07:00:00,26.987634,94.636574,PM10,34,82,58
India,Bihar,Araria,"Kharahiya Basti, Araria - BSPCB",08-11-2025 07:00:00,26.146529,87.454184,PM2.5,69,324,193
India,Bihar,Arrah,"New DM Office, Arrah - BSPCB",08-11-2025 07:00:00,25.5626095,84.663264,PM2.5,33,65,44
India,Bihar,Gaya,"Collectorate, Gaya - BSPCB",08-11-2025 07:00:00,24.7955,84.9994,NO2,9,9,9
India,Bihar,Gaya,"Collectorate, Gaya - BSPCB",08-11-2025 07:00:00,24.7955,84.9994,CO,44,81,47
India,Bihar,Gaya,"Kareemganj, Gaya - BSPCB",08-11-2025 07:00:00,24.792403,84.992416,NH3,5,6,5
India,Bihar,Gaya,"SFTI Kusdihra, Gaya - BSPCB",08-11-2025 07:00:00,24.762518,84.982348,PM2.5,8,42,22
India,Bihar,Gaya,"SFTI Kusdihra, Gaya - BSPCB",08-11-2025 07:00:00,24.762518,84.982348,OZONE,12,36,14
India,Bihar,Hajipur,"Industrial Area, Hajipur - BSPCB",08-11-2025 07:00:00,25.697189,85.245900,SO2,3,5,4
India,Bihar,Hajipur,"Industrial Area, Hajipur - BSPCB",08-11-2025 07:00:00,25.697189,85.245900,CO,11,49,22
India,Bihar,Aurangabad,"Gurdeo Nagar, Aurangabad - BSPCB",08-11-2025 07:00:00,24.75746,84.366208,PM2.5,55,223,111
India,Bihar,Aurangabad,"Gurdeo Nagar, Aurangabad - BSPCB",08-11-2025 07:00:00,24.75746,84.366208,SO2,7,15,12
India,Bihar,Begusarai,"Lohiyanagar, Begusarai - BSPCB",08-11-2025 07:00:00,25.42742023,86.13886079,PM10,23,136,112
India,Bihar,Bhagalpur,"DM Office_Kachari Chowk, Bhagalpur - BSPCB",08-11-2025 07:00:00,25.251013,86.989001,PM2.5,23,53,34
India,Bihar,Bhagalpur,"DM Office_Kachari Chowk, Bhagalpur - BSPCB",08-11-2025 07:00:00,25.251013,86.989001,SO2,10,65,36
India,Bihar,Bhagalpur,"Mayaganj, Bhagalpur - BSPCB",08-11-2025 07:00:00,25.265194,87.012947,PM2.5,33,77,48
India,Bihar,Kishanganj,"SDM Office_Khagra, Kishanganj - BSPCB",08-11-2025 07:00:00,26.0881305,87.93840336,PM2.5,18,267,192
India,Bihar,Kishanganj,"SDM Office_Khagra, Kishanganj - BSPCB",08-11-2025 07:00:00,26.0881305,87.93840336,NO2,7,8,7
India,Bihar,Motihari,"Gandak Colony, Motihari - BSPCB",08-11-2025 07:00:00,26.63086,84.90051,PM2.5,20,25,22
India,Bihar,Motihari,"Gandak Colony, Motihari - BSPCB",08-11-2025 07:00:00,26.63086,84.90051,SO2,2,3,3
India,Bihar,Munger,"Town Hall, Munger - BSPCB",08-11-2025 07:00:00,25.376776,86.471523,PM10,55,94,73
India,Bihar,Muzaffarpur,"Buddha Colony, Muzaffarpur - BSPCB",08-11-2025 07:00:00,26.11442,85.39813,PM10,49,84,64
India,Bihar,Bihar Sharif,"D M Colony, Bihar Sharif - BSPCB",08-11-2025 07:00:00,25.204762,85.514960,PM10,44,101,68
India,Bihar,Bihar Sharif,"D M Colony, Bihar Sharif - BSPCB",08-11-2025 07:00:00,25.204762,85.514960,NH3,3,5,4
India,Bihar,Buxar,"Charitra Van, Buxar - BSPCB",08-11-2025 07:00:00,25.567520,83.966379,PM2.5,62,87,75
India,Bihar,Buxar,"Charitra Van, Buxar - BSPCB",08-11-2025 07:00:00,25.567520,83.966379,NH3,3,3,3
India,Bihar,Buxar,"Charitra Van, Buxar - BSPCB",08-11-2025 07:00:00,25.567520,83.966379,OZONE,1,91,2
India,Bihar,Chhapra,"Darshan Nagar, Chhapra - BSPCB",08-11-2025 07:00:00,25.7808257,84.7446768,NO2,2,3,2
India,Bihar,Chhapra,"Darshan Nagar, Chhapra - BSPCB",08-11-2025 07:00:00,25.7808257,84.7446768,OZONE,17,35,21
India,Andhra_Pradesh,Rajamahendravaram,"Anand Kala Kshetram, Rajamahendravaram - APPCB",08-11-2025 07:00:00,16.9872867,81.7363176,OZONE,2,25,15
India,Andhra_Pradesh,Tirupati,"Vaikuntapuram, Tirupati - APPCB",08-11-2025 07:00:00,13.615387,79.409230,SO2,NA,NA,NA
India,Andhra_Pradesh,Vijayawada,"HB Colony, Vijayawada - APPCB",08-11-2025 07:00:00,16.536107,80.594233,CO,20,43,40
India,Andhra_Pradesh,Vijayawada,"Rajiv Gandhi Park, Vijayawada - APPCB",08-11-2025 07:00:00,16.509717,80.612222,PM2.5,40,92,76
India,Andhra_Pradesh,Vijayawada,"Rajiv Gandhi Park, Vijayawada - APPCB",08-11-2025 07:00:00,16.509717,80.612222,NO2,41,64,52
India,Assam,Guwahati,"IITG, Guwahati - PCBA",08-11-2025 07:00:00,26.2028636,91.70046436,NO2,1,6,3
India,Assam,Guwahati,"LGBI Airport, Guwahati - PCBA",08-11-2025 07:00:00,26.10887,91.589544,OZONE,13,18,14
India,Assam,Guwahati,"Pan Bazaar, Guwahati - PCBA",08-11-2025 07:00:00,26.187500,91.744194,OZONE,18,18,18
India,Assam,Guwahati,"Railway Colony, Guwahati - PCBA",08-11-2025 07:00:00,26.181742,91.78063,SO2,30,33,32
India,Assam,Nagaon,"Christianpatty, Nagaon - PCBA",08-11-2025 07:00:00,26.349082,92.68449,PM2.5,NA,NA,NA
India,Andhra_Pradesh,Amaravati,"Secretariat, Amaravati - APPCB",08-11-2025 07:00:00,16.5150833,80.5181667,SO2,8,56,15
India,Andhra_Pradesh,Chittoor,"Gangineni Cheruvu, Chittoor - APPCB",08-11-2025 07:00:00,13.204880,79.097889,CO,NA,NA,NA
India,Andhra_Pradesh,Kadapa,"Yerramukkapalli, Kadapa - APPCB",08-11-2025 07:00:00,14.465052,78.824187,SO2,NA,NA,NA
India,Andhra_Pradesh,Kadapa,"Yerramukkapalli, Kadapa - APPCB",08-11-2025 07:00:00,14.465052,78.824187,CO,NA,NA,NA
India,Andhra_Pradesh,Amaravati,"Secretariat, Amaravati - APPCB",08-11-2025 07:00:00,16.5150833,80.5181667,PM2.5,60,110,77
India,Bihar,Siwan,"Chitragupta Nagar, Siwan - BSPCB",08-11-2025 07:00:00,26.2271665,84.3570427,NO2,1,1,1
India,Bihar,Siwan,"Chitragupta Nagar, Siwan - BSPCB",08-11-2025 07:00:00,26.2271665,84.3570427,SO2,7,8,8
India,Chandigarh,Chandigarh,"Sector 22, Chandigarh - CPCC",08-11-2025 07:00:00,30.735567,76.775714,PM2.5,85,276,152
India,Chandigarh,Chandigarh,"Sector 22, Chandigarh - CPCC",08-11-2025 07:00:00,30.735567,76.775714,PM10,72,198,111
India,Chandigarh,Chandigarh,"Sector-25, Chandigarh - CPCC",08-11-2025 07:00:00,30.751462,76.762879,PM2.5,84,178,112
India,Chandigarh,Chandigarh,"Sector-25, Chandigarh - CPCC",08-11-2025 07:00:00,30.751462,76.762879,NO2,15,53,27
India,Chandigarh,Chandigarh,"Sector-25, Chandigarh - CPCC",08-11-2025 07:00:00,30.751462,76.762879,NH3,10,16,12
India,Chandigarh,Chandigarh,"Sector-53, Chandigarh - CPCC",08-11-2025 07:00:00,30.719859,76.738637,SO2,7,22,15
India,Chhattisgarh,Bhilai,"32Bungalows, Bhilai - CECB",08-11-2025 07:00:00,21.194815,81.314770,PM2.5,12,32,19
India,Bihar,Patna,"IGSC Planetarium Complex, Patna - BSPCB",08-11-2025 07:00:00,25.610369,85.132568,SO2,1,26,22
India,Bihar,Patna,"Muradpur, Patna - BSPCB",08-11-2025 07:00:00,25.619651,85.147382,CO,28,72,52
India,Bihar,Patna,"Muradpur, Patna - BSPCB",08-11-2025 07:00:00,25.619651,85.147382,OZONE,4,40,5
India,Bihar,Patna,"Rajbansi Nagar, Patna - BSPCB",08-11-2025 07:00:00,25.599486,85.113666,PM10,97,135,115
India,Bihar,Patna,"Rajbansi Nagar, Patna - BSPCB",08-11-2025 07:00:00,25.599486,85.113666,NH3,4,7,6
India,Bihar,Patna,"Rajbansi Nagar, Patna - BSPCB",08-11-2025 07:00:00,25.599486,85.113666,CO,17,64,22
India,Bihar,Purnia,"Mariam Nagar, Purnia - BSPCB",08-11-2025 07:00:00,25.366336,87.117468,NH3,3,3,3
India,Bihar,Muzaffarpur,"Buddha Colony, Muzaffarpur - BSPCB",08-11-2025 07:00:00,26.11442,85.39813,SO2,3,5,4
India,Bihar,Muzaffarpur,"MIT-Daudpur Kothi, Muzaffarpur - BSPCB",08-11-2025 07:00:00,26.1403345,85.3650192,PM10,41,63,57
India,Bihar,Muzaffarpur,"MIT-Daudpur Kothi, Muzaffarpur - BSPCB",08-11-2025 07:00:00,26.1403345,85.3650192,OZONE,10,66,14
India,Bihar,Patna,"DRM Office Danapur, Patna - BSPCB",08-11-2025 07:00:00,25.586562,85.043586,NH3,5,8,7
India,Bihar,Patna,"DRM Office Danapur, Patna - BSPCB",08-11-2025 07:00:00,25.586562,85.043586,CO,26,56,40
India,Bihar,Patna,"DRM Office Danapur, Patna - BSPCB",08-11-2025 07:00:00,25.586562,85.043586,OZONE,8,104,13
India,Delhi,Delhi,"Alipur, Delhi - DPCC",08-11-2025 07:00:00,28.815329,77.153010,NO2,34,146,75
India,Delhi,Delhi,"Anand Vihar, Delhi - DPCC",08-11-2025 07:00:00,28.647622,77.3158090,NO2,82,201,134
India,Delhi,Delhi,"Anand Vihar, Delhi - DPCC",08-11-2025 07:00:00,28.647622,77.3158090,SO2,36,55,48
India,Delhi,Delhi,"Aya Nagar, Delhi - IMD",08-11-2025 07:00:00,28.4706914,77.1099364,OZONE,11,150,46
India,Delhi,Delhi,"Bawana, Delhi - DPCC",08-11-2025 07:00:00,28.776200,77.051074,PM2.5,257,500,403
India,Chhattisgarh,Bhilai,"32Bungalows, Bhilai - CECB",08-11-2025 07:00:00,21.194815,81.314770,PM10,22,71,40
India,Chhattisgarh,Bhilai,"Civic Center, Bhilai - Bhilai Steel Plant",08-11-2025 07:00:00,21.185571,81.343175,OZONE,8,11,10
India,Chhattisgarh,Bhilai,"Hathkhoj, Bhilai - CECB",08-11-2025 07:00:00,21.224231,81.408350,OZONE,15,45,22
India,Chhattisgarh,Bilaspur,"Mangala, Bilaspur - NTPC",08-11-2025 07:00:00,22.08815,82.13737,NO2,16,31,20
India,Chhattisgarh,Raipur,"Siltara Phase-II, Raipur - CECB",08-11-2025 07:00:00,21.371751,81.664929,PM2.5,27,90,56
India,Chhattisgarh,Raipur,"Siltara Phase-II, Raipur - CECB",08-11-2025 07:00:00,21.371751,81.664929,PM10,43,157,109
India,Chhattisgarh,Raipur,"Siltara Phase-II, Raipur - CECB",08-11-2025 07:00:00,21.371751,81.664929,SO2,2,6,4
India,Chhattisgarh,Tumidih,"OP Jindal Industrial Park, Tumidih - CECB",08-11-2025 07:00:00,22.06631475,83.33820077,OZONE,9,84,13
India,Chhattisgarh,Chhal,"Nawapara SECL Colony, Chhal - CECB",08-11-2025 07:00:00,22.118125,83.140608,OZONE,13,125,22
India,Chhattisgarh,Korba,"Rampur, Korba - CECB",08-11-2025 07:00:00,22.368195,82.746431,CO,14,20,19
India,Chhattisgarh,Korba,"Rampur, Korba - CECB",08-11-2025 07:00:00,22.368195,82.746431,OZONE,2,5,3
India,Chhattisgarh,Kunjemura,"OP Jindal School, Kunjemura - CECB",08-11-2025 07:00:00,22.126650,83.483212,CO,4,20,16
India,Chhattisgarh,Raipur,"AIIMS, Raipur - CECB",08-11-2025 07:00:00,21.258815,81.578979,NH3,4,5,4
India,Chhattisgarh,Raipur,"AIIMS, Raipur - CECB",08-11-2025 07:00:00,21.258815,81.578979,SO2,11,15,12
India,Chhattisgarh,Raipur,"Bhatagaon New ISBT, Raipur - CECB",08-11-2025 07:00:00,21.219665,81.630094,SO2,6,12,8
India,Chhattisgarh,Raipur,"Krishak Nagar, Raipur - CECB",08-11-2025 07:00:00,21.237755,81.705301,PM2.5,32,60,47
India,Bihar,Samastipur,"DM Office_Kasipur, Samastipur - BSPCB",08-11-2025 07:00:00,25.859655,85.77944,PM2.5,NA,NA,NA
India,Bihar,Samastipur,"DM Office_Kasipur, Samastipur - BSPCB",08-11-2025 07:00:00,25.859655,85.77944,PM10,NA,NA,NA
India,Bihar,Samastipur,"DM Office_Kasipur, Samastipur - BSPCB",08-11-2025 07:00:00,25.859655,85.77944,NH3,NA,NA,NA
India,Bihar,Samastipur,"DM Office_Kasipur, Samastipur - BSPCB",08-11-2025 07:00:00,25.859655,85.77944,SO2,NA,NA,NA
India,Bihar,Siwan,"Chitragupta Nagar, Siwan - BSPCB",08-11-2025 07:00:00,26.2271665,84.3570427,PM2.5,18,58,41
India,Delhi,Delhi,"Bawana, Delhi - DPCC",08-11-2025 07:00:00,28.776200,77.051074,PM10,159,447,325
India,Delhi,Delhi,"Bawana, Delhi - DPCC",08-11-2025 07:00:00,28.776200,77.051074,SO2,10,42,22
India,Delhi,Delhi,"Bawana, Delhi - DPCC",08-11-2025 07:00:00,28.776200,77.051074,OZONE,6,150,9
India,Delhi,Delhi,"Burari Crossing, Delhi - IMD",08-11-2025 07:00:00,28.7256504,77.2011573,PM10,132,440,298
India,Delhi,Delhi,"CRRI Mathura Road, Delhi - IMD",08-11-2025 07:00:00,28.5512005,77.2735737,PM10,159,414,288
India,Delhi,Delhi,"CRRI Mathura Road, Delhi - IMD",08-11-2025 07:00:00,28.5512005,77.2735737,CO,14,106,56
India,Delhi,Delhi,"CRRI Mathura Road, Delhi - IMD",08-11-2025 07:00:00,28.5512005,77.2735737,OZONE,12,127,18
India,Delhi,Delhi,"Chandni Chowk, Delhi - IITM",08-11-2025 07:00:00,28.656756,77.227234,CO,36,107,94
India,Delhi,Delhi,"Shadipur, Delhi - CPCB",08-11-2025 07:00:00,28.6514781,77.1473105,SO2,1,29,12
India,Delhi,Delhi,"Sirifort, Delhi - CPCB",08-11-2025 07:00:00,28.5504249,77.2159377,PM2.5,223,433,344
India,Delhi,Delhi,"Sirifort, Delhi - CPCB",08-11-2025 07:00:00,28.5504249,77.2159377,NH3,8,13,11
India,Delhi,Delhi,"Sonia Vihar, Delhi - DPCC",08-11-2025 07:00:00,28.710508,77.249485,PM2.5,177,500,365
India,Delhi,Delhi,"Sonia Vihar, Delhi - DPCC",08-11-2025 07:00:00,28.710508,77.249485,PM10,144,448,308
India,Delhi,Delhi,"Sonia Vihar, Delhi - DPCC",08-11-2025 07:00:00,28.710508,77.249485,NH3,1,12,6
India,Delhi,Delhi,"Sri Aurobindo Marg, Delhi - DPCC",08-11-2025 07:00:00,28.531346,77.190156,PM2.5,147,406,301
India,Delhi,Delhi,"Sri Aurobindo Marg, Delhi - DPCC",08-11-2025 07:00:00,28.531346,77.190156,NH3,3,4,4
India,Delhi,Delhi,"ITO, Delhi - CPCB",08-11-2025 07:00:00,28.628624,77.241060,OZONE,4,72,9
India,Delhi,Delhi,"Jahangirpuri, Delhi - DPCC",08-11-2025 07:00:00,28.732820,77.170633,PM2.5,177,500,365
India,Delhi,Delhi,"Jahangirpuri, Delhi - DPCC",08-11-2025 07:00:00,28.732820,77.170633,PM10,169,452,340
India,Delhi,Delhi,"Jahangirpuri, Delhi - DPCC",08-11-2025 07:00:00,28.732820,77.170633,NH3,6,10,8
India,Delhi,Delhi,"Jawaharlal Nehru Stadium, Delhi - DPCC",08-11-2025 07:00:00,28.580280,77.233829,PM2.5,170,418,322
India,Delhi,Delhi,"Jawaharlal Nehru Stadium, Delhi - DPCC",08-11-2025 07:00:00,28.580280,77.233829,OZONE,1,187,3
India,Delhi,Delhi,"Lodhi Road, Delhi - IITM",08-11-2025 07:00:00,28.588333,77.221667,SO2,3,30,15
India,Delhi,Delhi,"Dwarka-Sector 8, Delhi - DPCC ",08-11-2025 07:00:00,28.5710274,77.0719006,NO2,51,148,88
India,Delhi,Delhi,"Dwarka-Sector 8, Delhi - DPCC ",08-11-2025 07:00:00,28.5710274,77.0719006,CO,37,126,70
India,Delhi,Delhi,"IGI Airport (T3), Delhi - IMD",08-11-2025 07:00:00,28.5627763,77.1180053,NO2,77,210,147
India,Delhi,Delhi,"IGI Airport (T3), Delhi - IMD",08-11-2025 07:00:00,28.5627763,77.1180053,OZONE,1,4,2
India,Delhi,Delhi,"IHBAS, Dilshad Garden, Delhi - CPCB",08-11-2025 07:00:00,28.6811736,77.3025234,CO,59,103,68
India,Delhi,Delhi,"IHBAS, Dilshad Garden, Delhi - CPCB",08-11-2025 07:00:00,28.6811736,77.3025234,OZONE,2,67,4
India,Delhi,Delhi,"Mandir Marg, Delhi - DPCC",08-11-2025 07:00:00,28.636429,77.201067,NO2,22,68,39
India,Delhi,Delhi,"Mundka, Delhi - DPCC",08-11-2025 07:00:00,28.684678,77.076574,PM10,141,500,366
India,Delhi,Delhi,"Mundka, Delhi - DPCC",08-11-2025 07:00:00,28.684678,77.076574,NH3,6,15,10
India,Delhi,Delhi,"Mundka, Delhi - DPCC",08-11-2025 07:00:00,28.684678,77.076574,CO,33,104,64
India,Delhi,Delhi,"NSIT Dwarka, Delhi - CPCB",08-11-2025 07:00:00,28.60909,77.0325413,PM2.5,37,386,167
India,Delhi,Delhi,"Okhla Phase-2, Delhi - DPCC",08-11-2025 07:00:00,28.530785,77.271255,SO2,20,29,25
India,Delhi,Delhi,"Patparganj, Delhi - DPCC",08-11-2025 07:00:00,28.623763,77.287209,NO2,40,187,111
India,Delhi,Delhi,"Patparganj, Delhi - DPCC",08-11-2025 07:00:00,28.623763,77.287209,CO,54,124,98
India,Delhi,Delhi,"Punjabi Bagh, Delhi - DPCC",08-11-2025 07:00:00,28.674045,77.131023,PM10,157,437,329
India,Delhi,Delhi,"Punjabi Bagh, Delhi - DPCC",08-11-2025 07:00:00,28.674045,77.131023,NO2,35,96,60
India,Delhi,Delhi,"Najafgarh, Delhi - DPCC",08-11-2025 07:00:00,28.570173,76.933762,PM2.5,123,405,288
India,Delhi,Delhi,"Najafgarh, Delhi - DPCC",08-11-2025 07:00:00,28.570173,76.933762,PM10,118,301,181
India,Delhi,Delhi,"Najafgarh, Delhi - DPCC",08-11-2025 07:00:00,28.570173,76.933762,SO2,NA,NA,NA
India,Delhi,Delhi,"Narela, Delhi - DPCC",08-11-2025 07:00:00,28.822836,77.101981,NH3,14,17,16
India,Delhi,Delhi,"Nehru Nagar, Delhi - DPCC",08-11-2025 07:00:00,28.567890,77.250515,OZONE,2,301,8
India,Delhi,Delhi,"Wazirpur, Delhi - DPCC",08-11-2025 07:00:00,28.699793,77.165453,PM2.5,200,500,374
India,Gujarat,Ahmedabad,"Chandkheda, Ahmedabad - IITM",08-11-2025 07:00:00,23.107969,72.574648,SO2,5,10,8
India,Gujarat,Ahmedabad,"Gyaspur, Ahmedabad - IITM",08-11-2025 07:00:00,22.977134,72.553024,PM10,105,406,199
India,Gujarat,Ahmedabad,"Gyaspur, Ahmedabad - IITM",08-11-2025 07:00:00,22.977134,72.553024,SO2,1,102,40
India,Delhi,Delhi,"R K Puram, Delhi - DPCC",08-11-2025 07:00:00,28.563262,77.186937,NH3,4,6,4
India,Delhi,Delhi,"Rohini, Delhi - DPCC",08-11-2025 07:00:00,28.732528,77.119920,PM2.5,177,500,361
India,Delhi,Delhi,"Rohini, Delhi - DPCC",08-11-2025 07:00:00,28.732528,77.119920,NO2,12,51,26
India,Delhi,Delhi,"Rohini, Delhi - DPCC",08-11-2025 07:00:00,28.732528,77.119920,CO,12,55,33
India,Gujarat,Gandhinagar,"IIPHG Lekawada, Gandhinagar - IITM",08-11-2025 07:00:00,23.243639,72.68994,OZONE,5,42,5
India,Gujarat,Gandhinagar,"Sector-10, Gandhinagar - GPCB",08-11-2025 07:00:00,23.221714,72.654328,SO2,4,12,8
India,Gujarat,Surat,"Science Center, Surat - SMC",08-11-2025 07:00:00,21.170046,72.795405,SO2,28,38,32
India,Gujarat,Vapi,"Phase-1 GIDC, Vapi - GPCB",08-11-2025 07:00:00,20.362421,72.918013,NH3,5,5,5
India,Gujarat,Vapi,"Phase-1 GIDC, Vapi - GPCB",08-11-2025 07:00:00,20.362421,72.918013,OZONE,2,2,2
India,Gujarat,Vatva,"Phase-4 GIDC, Vatva - GPCB",08-11-2025 07:00:00,22.969611,72.643500,PM2.5,47,350,134
India,Gujarat,Vatva,"Phase-4 GIDC, Vatva - GPCB",08-11-2025 07:00:00,22.969611,72.643500,PM10,43,178,85
India,Gujarat,Vatva,"Phase-4 GIDC, Vatva - GPCB",08-11-2025 07:00:00,22.969611,72.643500,NH3,3,4,3
India,Haryana,Faridabad,"Sector 11, Faridabad - HSPCB",08-11-2025 07:00:00,28.376058,77.315741,OZONE,4,98,16
India,Haryana,Faridabad,"Sector 30, Faridabad - HSPCB",08-11-2025 07:00:00,28.4417,77.3217,PM2.5,335,342,337
India,Haryana,Faridabad,"Sector 30, Faridabad - HSPCB",08-11-2025 07:00:00,28.4417,77.3217,NH3,11,12,11
India,Haryana,Fatehabad,"Huda Sector, Fatehabad - HSPCB",08-11-2025 07:00:00,29.503664,75.467934,NO2,18,20,19
India,Haryana,Fatehabad,"Huda Sector, Fatehabad - HSPCB",08-11-2025 07:00:00,29.503664,75.467934,OZONE,11,21,11
India,Haryana,Gurugram,"NISE Gwal Pahari, Gurugram - IMD",08-11-2025 07:00:00,28.422681,77.148944,NO2,17,58,32
India,Haryana,Gurugram,"Sector-51, Gurugram - HSPCB",08-11-2025 07:00:00,28.4227,77.0667,PM2.5,149,354,277
India,Haryana,Gurugram,"Sector-51, Gurugram - HSPCB",08-11-2025 07:00:00,28.4227,77.0667,NO2,4,10,6
India,Haryana,Manesar,"Sector-2 IMT, Manesar - HSPCB",08-11-2025 07:00:00,28.360699,76.936090,PM2.5,164,343,282
India,Haryana,Manesar,"Sector-2 IMT, Manesar - HSPCB",08-11-2025 07:00:00,28.360699,76.936090,PM10,114,220,163
India,Haryana,Manesar,"Sector-2 IMT, Manesar - HSPCB",08-11-2025 07:00:00,28.360699,76.936090,SO2,16,29,23
India,Haryana,Manesar,"Sector-2 IMT, Manesar - HSPCB",08-11-2025 07:00:00,28.360699,76.936090,OZONE,9,50,12
India,Haryana,Narnaul,"Shastri Nagar, Narnaul - HSPCB",08-11-2025 07:00:00,28.060249,76.113115,OZONE,16,82,18
India,Haryana,Palwal,"Shyam Nagar, Palwal - HSPCB",08-11-2025 07:00:00,28.1485564,77.3320667,PM10,99,117,110
India,Haryana,Palwal,"Shyam Nagar, Palwal - HSPCB",08-11-2025 07:00:00,28.1485564,77.3320667,CO,28,28,28
India,Gujarat,Ahmedabad,"Raikhad, Ahmedabad - IITM",08-11-2025 07:00:00,23.020509,72.579261,PM10,102,214,144
India,Gujarat,Ahmedabad,"Raikhad, Ahmedabad - IITM",08-11-2025 07:00:00,23.020509,72.579261,NO2,28,171,95
India,Gujarat,Ahmedabad,"Raikhad, Ahmedabad - IITM",08-11-2025 07:00:00,23.020509,72.579261,SO2,NA,NA,NA
India,Gujarat,Ahmedabad,"Rakhial, Ahmedabad - IITM",08-11-2025 07:00:00,23.016834,72.625775,SO2,13,59,31
India,Gujarat,Ahmedabad,"Rakhial, Ahmedabad - IITM",08-11-2025 07:00:00,23.016834,72.625775,CO,16,117,77
India,Gujarat,Ahmedabad,"SAC ISRO Bopal, Ahmedabad - IITM",08-11-2025 07:00:00,23.041137,72.456691,NH3,2,3,3
India,Gujarat,Ahmedabad,"SAC ISRO Satellite, Ahmedabad - IITM",08-11-2025 07:00:00,23.023389,72.515201,NO2,14,135,73
India,Haryana,Charkhi Dadri,"Mini Secretariat, Charkhi Dadri - HSPCB",08-11-2025 07:00:00,28.593883,76.270653,PM10,99,214,162
India,Haryana,Charkhi Dadri,"Mini Secretariat, Charkhi Dadri - HSPCB",08-11-2025 07:00:00,28.593883,76.270653,OZONE,14,17,15
India,Haryana,Dharuhera,"Municipal Corporation Office, Dharuhera -  HSPCB",08-11-2025 07:00:00,28.206800,76.799700,PM10,82,209,141
India,Haryana,Dharuhera,"Municipal Corporation Office, Dharuhera -  HSPCB",08-11-2025 07:00:00,28.206800,76.799700,SO2,1,1,1
India,Haryana,Faridabad,"Sector 11, Faridabad - HSPCB",08-11-2025 07:00:00,28.376058,77.315741,PM10,86,179,136
India,Haryana,Ambala,"Patti Mehar, Ambala - HSPCB",08-11-2025 07:00:00,30.379589,76.778328,CO,98,101,100
India,Haryana,Ballabgarh,"Nathu Colony, Ballabgarh - HSPCB",08-11-2025 07:00:00,28.3419248,77.319699,OZONE,15,15,15
India,Haryana,Bhiwani,"H.B. Colony, Bhiwani - HSPCB",08-11-2025 07:00:00,28.806223,76.141105,CO,10,14,12
India,Haryana,Bhiwani,"H.B. Colony, Bhiwani - HSPCB",08-11-2025 07:00:00,28.806223,76.141105,OZONE,5,19,13
India,Haryana,Kaithal,"Rishi Nagar, Kaithal - HSPCB",08-11-2025 07:00:00,29.8006,76.4155,NO2,16,33,29
India,Haryana,Kaithal,"Rishi Nagar, Kaithal - HSPCB",08-11-2025 07:00:00,29.8006,76.4155,OZONE,49,51,50
India,Haryana,Karnal,"Sector-12, Karnal - HSPCB",08-11-2025 07:00:00,29.695300,77.002700,OZONE,26,27,26
India,Haryana,Kurukshetra,"Sector-7, Kurukshetra - HSPCB",08-11-2025 07:00:00,29.966942,76.875879,CO,14,84,64
India,Gujarat,Ahmedabad,"SAC ISRO Satellite, Ahmedabad - IITM",08-11-2025 07:00:00,23.023389,72.515201,CO,2,144,118
India,Gujarat,Ahmedabad,"SVPI Airport Hansol, Ahmedabad - IITM",08-11-2025 07:00:00,23.076793,72.627874,NO2,18,56,35
India,Gujarat,Ankleshwar,"GIDC, Ankleshwar - GPCB",08-11-2025 07:00:00,21.613267,73.010555,PM2.5,69,192,123
India,Haryana,Gurugram,"Teri Gram, Gurugram - HSPCB",08-11-2025 07:00:00,28.4275,77.1465,SO2,NA,NA,NA
India,Haryana,Gurugram,"Teri Gram, Gurugram - HSPCB",08-11-2025 07:00:00,28.4275,77.1465,CO,12,77,48
India,Haryana,Hisar,"Urban Estate-II, Hisar - HSPCB",08-11-2025 07:00:00,29.140560,75.744941,CO,55,105,65
India,Karnataka,Chamarajanagar,"Urban, Chamarajanagar - KSPCB",08-11-2025 07:00:00,11.55358,76.55521,PM10,32,51,44
India,Karnataka,Chikkamagaluru,"Kalyana Nagara, Chikkamagaluru - KSPCB",08-11-2025 07:00:00,13.328028,75.797056,CO,11,36,11
India,Karnataka,Davanagere,"Devaraj Urs Badavane, Davanagere - KSPCB",08-11-2025 07:00:00,14.475800,75.905200,CO,30,32,31
India,Karnataka,Dharwad,"Kalabhavan, Dharwad - KSPCB",08-11-2025 07:00:00,15.459706,75.008381,PM2.5,47,94,69
India,Karnataka,Dharwad,"Kalabhavan, Dharwad - KSPCB",08-11-2025 07:00:00,15.459706,75.008381,OZONE,18,25,25
India,Karnataka,Gadag,"Panchal Nagar, Gadag - KSPCB",08-11-2025 07:00:00,15.411456,75.638133,PM2.5,12,314,38
India,Jharkhand,Dhanbad,"Sardar Patel Nagar, Dhanbad - JSPCB",08-11-2025 07:00:00,23.80569,86.44268,PM2.5,5,96,57
India,Jharkhand,Dhanbad,"Sardar Patel Nagar, Dhanbad - JSPCB",08-11-2025 07:00:00,23.80569,86.44268,NO2,90,115,97
India,Jharkhand,Jorapokhar,"Tata Stadium, Jorapokhar - JSPCB",08-11-2025 07:00:00,23.707909,86.414670,OZONE,2,3,3
India,Karnataka,Belgaum,"Ramteerth Nagar, Belgaum - KSPCB",08-11-2025 07:00:00,15.888653,74.541751,OZONE,18,20,19
India,Karnataka,Bengaluru,"BWSSB Kadabesanahalli, Bengaluru - CPCB",08-11-2025 07:00:00,12.9352049,77.6814488,NH3,4,5,5
India,Haryana,Panchkula,"Sector-6, Panchkula - HSPCB ",08-11-2025 07:00:00,30.7057778,76.8531805555555,CO,20,28,20
India,Haryana,Panchkula,"Sector-6, Panchkula - HSPCB ",08-11-2025 07:00:00,30.7057778,76.8531805555555,OZONE,17,33,20
India,Haryana,Panipat,"Sector-18, Panipat - HSPCB",08-11-2025 07:00:00,29.432304,76.972765,NO2,31,32,31
India,Haryana,Panipat,"Sector-18, Panipat - HSPCB",08-11-2025 07:00:00,29.432304,76.972765,NH3,2,3,2
India,Haryana,Rohtak,"MD University, Rohtak - HSPCB",08-11-2025 07:00:00,28.52123,76.37138,OZONE,12,13,13
India,Haryana,Sirsa,"F-Block, Sirsa - HSPCB",08-11-2025 07:00:00,29.536400,75.015800,NH3,10,16,13
India,Haryana,Sirsa,"F-Block, Sirsa - HSPCB",08-11-2025 07:00:00,29.536400,75.015800,CO,45,87,80
India,Haryana,Yamuna Nagar,"Gobind Pura, Yamuna Nagar - HSPCB",08-11-2025 07:00:00,30.1480566,77.2893471,PM2.5,155,281,233
India,Himachal Pradesh,Baddi,"HIMUDA Complex Phase-1, Baddi - HPPCB",08-11-2025 07:00:00,30.943887,76.801991,CO,42,101,63
India,Jammu_and_Kashmir,Srinagar,"Rajbagh, Srinagar - JKSPCB",08-11-2025 07:00:00,34.066206,74.819820,PM10,51,400,92
India,Karnataka,Koppal,"Diwator Nagar, Koppal - KSPCB",08-11-2025 07:00:00,15.347630,76.181767,SO2,6,13,10
India,Karnataka,Madikeri,"Stuart Hill, Madikeri - KSPCB",08-11-2025 07:00:00,12.415911,75.735050,SO2,6,7,7
India,Karnataka,Mangalore,"Kadri, Mangalore - KSPCB",08-11-2025 07:00:00,12.889250,74.853000,PM10,44,93,65
India,Karnataka,Mysuru,"Hebbal 1st Stage, Mysuru - KSPCB",08-11-2025 07:00:00,12.21041,76.37376,PM10,39,78,62
India,Karnataka,Mysuru,"Hebbal 1st Stage, Mysuru - KSPCB",08-11-2025 07:00:00,12.21041,76.37376,SO2,1,16,7
India,Karnataka,Gadag,"Panchal Nagar, Gadag - KSPCB",08-11-2025 07:00:00,15.411456,75.638133,NO2,NA,NA,NA
India,Karnataka,Haveri,"Ashwini Nagar, Haveri - KSPCB",08-11-2025 07:00:00,14.791800,75.389600,PM10,NA,NA,NA
India,Karnataka,Hubballi,"Lingaraj Nagar, Hubballi - KSPCB",08-11-2025 07:00:00,15.3714823,75.1160168,NH3,1,2,2
India,Karnataka,Kalaburagi,"Lal Bahadur Shastri Nagar, Kalaburagi - KSPCB",08-11-2025 07:00:00,17.321993,76.822628,NH3,1,1,1
India,Karnataka,Kalaburagi,"Lal Bahadur Shastri Nagar, Kalaburagi - KSPCB",08-11-2025 07:00:00,17.321993,76.822628,CO,NA,NA,NA
India,Karnataka,Bengaluru,"BWSSB Kadabesanahalli, Bengaluru - CPCB",08-11-2025 07:00:00,12.9352049,77.6814488,OZONE,29,29,29
India,Karnataka,Bengaluru,"Bapuji Nagar, Bengaluru - KSPCB",08-11-2025 07:00:00,12.951913,77.539784,PM10,72,168,125
India,Karnataka,Bengaluru,"Bapuji Nagar, Bengaluru - KSPCB",08-11-2025 07:00:00,12.951913,77.539784,SO2,5,17,9
India,Karnataka,Bengaluru,"City Railway Station, Bengaluru - KSPCB",08-11-2025 07:00:00,12.9756843,77.5660749,PM10,99,108,103
India,Karnataka,Bengaluru,"Jayanagar 5th Block, Bengaluru - KSPCB",08-11-2025 07:00:00,12.920984,77.584908,NH3,1,2,1
India,Karnataka,Bengaluru,"Jigani, Bengaluru - KSPCB",08-11-2025 07:00:00,12.7816279,77.6299145,SO2,18,22,18
India,Karnataka,Bengaluru,"Jigani, Bengaluru - KSPCB",08-11-2025 07:00:00,12.7816279,77.6299145,OZONE,19,21,20
India,Karnataka,Bengaluru,"Kasturi Nagar, Bengaluru - KSPCB",08-11-2025 07:00:00,13.003872,77.664217,PM2.5,50,59,56
India,Karnataka,Bengaluru,"Sanegurava Halli, Bengaluru - KSPCB",08-11-2025 07:00:00,12.990328,77.5431385,SO2,7,7,7
India,Karnataka,Bengaluru,"Shivapura_Peenya, Bengaluru - KSPCB",08-11-2025 07:00:00,13.0246342,77.5080115,NH3,5,5,5
India,Karnataka,Bengaluru,"Shivapura_Peenya, Bengaluru - KSPCB",08-11-2025 07:00:00,13.0246342,77.5080115,CO,52,56,52
India,Madhya Pradesh,Pithampur,"Sector-2 Industrial Area, Pithampur - MPPCB",08-11-2025 07:00:00,22.624758,75.675238,NH3,1,24,4
India,Madhya Pradesh,Pithampur,"Sector-2 Industrial Area, Pithampur - MPPCB",08-11-2025 07:00:00,22.624758,75.675238,OZONE,33,67,51
India,Madhya Pradesh,Sagar,"Civil Lines, Sagar - MPPCB",08-11-2025 07:00:00,23.838586,78.759431,PM2.5,66,187,101
India,Madhya Pradesh,Sagar,"Civil Lines, Sagar - MPPCB",08-11-2025 07:00:00,23.838586,78.759431,PM10,83,128,99
India,Madhya Pradesh,Sagar,"Civil Lines, Sagar - MPPCB",08-11-2025 07:00:00,23.838586,78.759431,NO2,10,47,24
India,Madhya Pradesh,Satna,"Bandhavgar Colony, Satna - Birla Cement",08-11-2025 07:00:00,24.58434363,80.8549414,PM2.5,45,47,46
India,Madhya Pradesh,Satna,"Bandhavgar Colony, Satna - Birla Cement",08-11-2025 07:00:00,24.58434363,80.8549414,NO2,27,38,31
India,Madhya Pradesh,Satna,"Bandhavgar Colony, Satna - Birla Cement",08-11-2025 07:00:00,24.58434363,80.8549414,SO2,20,22,21
India,Kerala,Thiruvananthapuram,"Plammoodu, Thiruvananthapuram - Kerala PCB",08-11-2025 07:00:00,8.5149093,76.9435879,SO2,9,23,17
India,Kerala,Thiruvananthapuram,"Plammoodu, Thiruvananthapuram - Kerala PCB",08-11-2025 07:00:00,8.5149093,76.9435879,OZONE,21,26,24
India,Kerala,Thrissur,"Corporation Ground, Thrissur - Kerala PCB",08-11-2025 07:00:00,10.532400,76.215900,PM2.5,46,56,50
India,Kerala,Thrissur,"Corporation Ground, Thrissur - Kerala PCB",08-11-2025 07:00:00,10.532400,76.215900,CO,14,18,16
India,Madhya Pradesh,Bhopal,"Idgah Hills, Bhopal - MPPCB",08-11-2025 07:00:00,23.264759,77.381568,NO2,10,32,18
India,Madhya Pradesh,Bhopal,"Paryavaran Parisar, Bhopal - MPPCB",08-11-2025 07:00:00,23.210494,77.425409,CO,10,58,22
India,Madhya Pradesh,Indore,"Residency Area, Indore - IMC",08-11-2025 07:00:00,22.7084,75.8815,CO,14,24,22
India,Madhya Pradesh,Jabalpur,"Govindh Bhavan Colony, Jabalpur - JMC",08-11-2025 07:00:00,23.163174,79.973061,PM2.5,47,93,77
India,Madhya Pradesh,Jabalpur,"Govindh Bhavan Colony, Jabalpur - JMC",08-11-2025 07:00:00,23.163174,79.973061,OZONE,5,170,9
India,Madhya Pradesh,Jabalpur,"Gupteshwar, Jabalpur - JMC",08-11-2025 07:00:00,23.142888,79.916147,CO,38,120,54
India,Madhya Pradesh,Jabalpur,"Marhatal, Jabalpur - MPPCB",08-11-2025 07:00:00,23.168606,79.932247,NH3,3,5,3
India,Madhya Pradesh,Jabalpur,"Marhatal, Jabalpur - MPPCB",08-11-2025 07:00:00,23.168606,79.932247,CO,14,106,74
India,Kerala,Kannur,"Thavakkara, Kannur - Kerala PCB",08-11-2025 07:00:00,11.875000,75.373200,PM10,54,65,58
India,Kerala,Kannur,"Thavakkara, Kannur - Kerala PCB",08-11-2025 07:00:00,11.875000,75.373200,NO2,13,15,14
India,Kerala,Kollam,"Polayathode, Kollam - Kerala PCB",08-11-2025 07:00:00,8.8787,76.6073,NH3,NA,NA,NA
India,Kerala,Kollam,"Polayathode, Kollam - Kerala PCB",08-11-2025 07:00:00,8.8787,76.6073,CO,NA,NA,NA
India,Kerala,Thiruvananthapuram,"Kariavattom, Thiruvananthapuram - Kerala PCB",08-11-2025 07:00:00,8.563700,76.886500,NH3,1,1,1
India,Kerala,Thiruvananthapuram,"Plammoodu, Thiruvananthapuram - Kerala PCB",08-11-2025 07:00:00,8.5149093,76.9435879,PM2.5,15,36,24
India,Karnataka,Mysuru,"Hebbal 1st Stage, Mysuru - KSPCB",08-11-2025 07:00:00,12.21041,76.37376,OZONE,4,78,6
India,Karnataka,Shivamogga,"Vinoba Nagara, Shivamogga - KSPCB",08-11-2025 07:00:00,13.940000,75.555917,OZONE,24,63,30
India,Kerala,Eloor,"Udyogamandal, Eloor - Kerala PCB",08-11-2025 07:00:00,10.073232,76.302765,PM10,43,77,53
India,Kerala,Eloor,"Udyogamandal, Eloor - Kerala PCB",08-11-2025 07:00:00,10.073232,76.302765,OZONE,10,15,12
India,Madhya Pradesh,Bhopal,"T T Nagar, Bhopal - MPPCB",08-11-2025 07:00:00,23.233584,77.400574,NO2,32,69,45
India,Madhya Pradesh,Dewas,"Bhopal Chauraha, Dewas - MPPCB",08-11-2025 07:00:00,22.9682591,76.064118,PM2.5,59,174,97
India,Madhya Pradesh,Dewas,"Bhopal Chauraha, Dewas - MPPCB",08-11-2025 07:00:00,22.9682591,76.064118,SO2,33,74,42
India,Madhya Pradesh,Gwalior,"City Center, Gwalior - MPPCB",08-11-2025 07:00:00,26.203442,78.193251,CO,14,115,36
India,Madhya Pradesh,Indore,"Maguda Nagar, Indore - IMC",08-11-2025 07:00:00,22.7524,75.8872,PM10,27,85,55
India,Madhya Pradesh,Indore,"Maguda Nagar, Indore - IMC",08-11-2025 07:00:00,22.7524,75.8872,NO2,2,2,2
India,Madhya Pradesh,Indore,"Maguda Nagar, Indore - IMC",08-11-2025 07:00:00,22.7524,75.8872,NH3,NA,NA,NA
India,Madhya Pradesh,Indore,"Maguda Nagar, Indore - IMC",08-11-2025 07:00:00,22.7524,75.8872,OZONE,7,14,10
India,Madhya Pradesh,Indore,"Regional Park, Indore - IMC",08-11-2025 07:00:00,22.6780,75.8559,CO,20,70,56
India,Madhya Pradesh,Jabalpur,"Suhagi, Jabalpur - JMC",08-11-2025 07:00:00,23.218135,79.957770,NH3,2,4,3
India,Madhya Pradesh,Jabalpur,"Suhagi, Jabalpur - JMC",08-11-2025 07:00:00,23.218135,79.957770,CO,20,104,43
India,Madhya Pradesh,Gwalior,"Maharaj Bada, Gwalior - MPPCB",08-11-2025 07:00:00,26.200388,78.147714,SO2,4,12,8
India,Maharashtra,Mumbai,"Byculla, Mumbai - BMC",08-11-2025 07:00:00,18.9767,72.8380,CO,1,56,21
India,Maharashtra,Mumbai,"Chakala-Andheri East, Mumbai - IITM",08-11-2025 07:00:00,19.11074,72.86084,PM2.5,52,245,116
India,Maharashtra,Mumbai,"Chembur, Mumbai - MPCB",08-11-2025 07:00:00,19.0364585,72.8954371,PM10,74,139,112
India,Maharashtra,Mumbai,"Chembur, Mumbai - MPCB",08-11-2025 07:00:00,19.0364585,72.8954371,SO2,1,21,7
India,Maharashtra,Mumbai,"Chembur, Mumbai - MPCB",08-11-2025 07:00:00,19.0364585,72.8954371,CO,20,50,38
India,Maharashtra,Mumbai,"Chhatrapati Shivaji Intl. Airport (T2), Mumbai - MPCB",08-11-2025 07:00:00,19.10078,72.87462,PM10,85,173,123
India,Maharashtra,Mumbai,"Chhatrapati Shivaji Intl. Airport (T2), Mumbai - MPCB",08-11-2025 07:00:00,19.10078,72.87462,SO2,20,21,21
India,Maharashtra,Latur,"Sawe Wadi, Latur - MPCB",08-11-2025 07:00:00,18.39963,76.57452,NO2,8,37,16
India,Maharashtra,Latur,"Sawe Wadi, Latur - MPCB",08-11-2025 07:00:00,18.39963,76.57452,NH3,2,11,5
India,Maharashtra,Mahad,"Kamble Tarf Birwadi, Mahad - MPCB",08-11-2025 07:00:00,18.1023399,73.4783687,PM10,61,114,83
India,Maharashtra,Malegaon,"Mahesh Nagar, Malegaon - MPCB",08-11-2025 07:00:00,20.555712,74.529236,PM2.5,48,109,80
India,Maharashtra,Malegaon,"Mahesh Nagar, Malegaon - MPCB",08-11-2025 07:00:00,20.555712,74.529236,OZONE,27,53,30
India,Maharashtra,Mumbai,"Bandra Kurla Complex, Mumbai - IITM",08-11-2025 07:00:00,19.053536,72.84643,CO,6,68,23
India,Maharashtra,Chandrapur,"MIDC Khutala, Chandrapur - MPCB",08-11-2025 07:00:00,19.9775302,79.2337086,SO2,8,9,9
India,Maharashtra,Dhule,"Deopur, Dhule - MPCB",08-11-2025 07:00:00,20.918946,74.776388,OZONE,15,33,30
India,Maharashtra,Jalgaon,"Prabhat Colony, Jalgaon - MPCB",08-11-2025 07:00:00,21.001264,75.565602,NO2,7,50,21
India,Maharashtra,Jalgaon,"Prabhat Colony, Jalgaon - MPCB",08-11-2025 07:00:00,21.001264,75.565602,NH3,2,3,2
India,Maharashtra,Jalna,"Old MIDC, Jalna - MPCB",08-11-2025 07:00:00,19.854616,75.905894,PM10,75,217,134
India,Maharashtra,Jalna,"Old MIDC, Jalna - MPCB",08-11-2025 07:00:00,19.854616,75.905894,NO2,32,50,43
India,Madhya Pradesh,Singrauli,"Suryakiran Bhawan NCL, Singrauli - MPPCB",08-11-2025 07:00:00,24.108970,82.645580,PM10,72,500,142
India,Madhya Pradesh,Singrauli,"Suryakiran Bhawan NCL, Singrauli - MPPCB",08-11-2025 07:00:00,24.108970,82.645580,OZONE,11,75,17
India,Maharashtra,Ahmednagar,"Tarakpur, Ahmednagar - MPCB",08-11-2025 07:00:00,19.10122,74.73339,NH3,5,6,6
India,Maharashtra,Ahmednagar,"Tarakpur, Ahmednagar - MPCB",08-11-2025 07:00:00,19.10122,74.73339,CO,16,78,18
India,Maharashtra,Amravati,"Shivneri Colony, Amravati - MPCB",08-11-2025 07:00:00,20.9402359,77.7895248,PM2.5,22,110,73
India,Maharashtra,Boisar,"Khaira, Boisar - MPCB",08-11-2025 07:00:00,19.786089,72.757971,PM10,54,130,89
India,Maharashtra,Boisar,"Khaira, Boisar - MPCB",08-11-2025 07:00:00,19.786089,72.757971,NO2,NA,NA,NA
India,Maharashtra,Boisar,"Khaira, Boisar - MPCB",08-11-2025 07:00:00,19.786089,72.757971,NH3,1,6,4
India,Maharashtra,Chandrapur,"Chauhan Colony, Chandrapur - MPCB",08-11-2025 07:00:00,19.962900,79.298714,SO2,29,29,29
India,Maharashtra,Chandrapur,"MIDC Khutala, Chandrapur - MPCB",08-11-2025 07:00:00,19.9775302,79.2337086,PM10,88,233,149
India,Maharashtra,Chandrapur,"MIDC Khutala, Chandrapur - MPCB",08-11-2025 07:00:00,19.9775302,79.2337086,NH3,1,6,4
India,Maharashtra,Amravati,"Shri Shivaji Science College, Amravati - MPCB",08-11-2025 07:00:00,20.939198,77.765701,NO2,5,87,28
India,Maharashtra,Aurangabad,"MIDC Chilkalthana, Aurangabad - MPCB",08-11-2025 07:00:00,19.875620,75.387310,PM10,5,144,84
India,Maharashtra,Aurangabad,"MIDC Chilkalthana, Aurangabad - MPCB",08-11-2025 07:00:00,19.875620,75.387310,NO2,9,137,58
India,Maharashtra,Aurangabad,"More Chowk Waluj, Aurangabad - MPCB",08-11-2025 07:00:00,19.8389439,75.244448,SO2,NA,NA,NA
India,Maharashtra,Mumbai,"Bandra Kurla Complex, Mumbai - MPCB",08-11-2025 07:00:00,19.065931,72.862131,SO2,4,9,6
India,Maharashtra,Mumbai,"Bandra Kurla Complex, Mumbai - MPCB",08-11-2025 07:00:00,19.065931,72.862131,CO,2,60,30
India,Maharashtra,Mumbai,"Borivali East, Mumbai - MPCB",08-11-2025 07:00:00,19.2243333,72.8658113,CO,6,7,6
India,Maharashtra,Mumbai,"Byculla, Mumbai - BMC",08-11-2025 07:00:00,18.9767,72.8380,PM10,49,88,65
India,Maharashtra,Mumbai,"Deonar, Mumbai - IITM",08-11-2025 07:00:00,19.04946,72.9230,CO,10,85,34
India,Maharashtra,Mumbai,"Ghatkopar, Mumbai - BMC",08-11-2025 07:00:00,19.083694,72.920967,NH3,3,10,6
India,Maharashtra,Mumbai,"Kandivali East, Mumbai - MPCB",08-11-2025 07:00:00,19.205800,72.868200,PM2.5,59,109,83
India,Maharashtra,Kalyan,"Pimpleshwar Mandir, Kalyan - MPCB",08-11-2025 07:00:00,19.192056,72.9585188,SO2,9,9,9
India,Maharashtra,Kolhapur,"Shivaji University, Kolhapur - MPCB",08-11-2025 07:00:00,16.6870449,74.2505872,PM10,NA,NA,NA
India,Maharashtra,Kolhapur,"Shivaji University, Kolhapur - MPCB",08-11-2025 07:00:00,16.6870449,74.2505872,CO,8,56,14
India,Maharashtra,Mumbai,"Kandivali East, Mumbai - MPCB",08-11-2025 07:00:00,19.205800,72.868200,NH3,1,1,1
India,Maharashtra,Mumbai,"Kandivali East, Mumbai - MPCB",08-11-2025 07:00:00,19.205800,72.868200,SO2,NA,NA,NA
India,Maharashtra,Mumbai,"Kandivali East, Mumbai - MPCB",08-11-2025 07:00:00,19.205800,72.868200,CO,NA,NA,NA
India,Maharashtra,Mumbai,"Kherwadi_Bandra East, Mumbai - MPCB",08-11-2025 07:00:00,19.0632143,72.8456324,PM10,80,177,129
India,Maharashtra,Mumbai,"Kherwadi_Bandra East, Mumbai - MPCB",08-11-2025 07:00:00,19.0632143,72.8456324,SO2,2,11,5
India,Maharashtra,Mumbai,"Khindipada-Bhandup West, Mumbai - IITM",08-11-2025 07:00:00,19.1653323,72.922099,CO,31,54,46
India,Maharashtra,Mumbai,"Kurla, Mumbai - MPCB",08-11-2025 07:00:00,19.0863,72.8888,NH3,1,2,1
India,Maharashtra,Mumbai,"Kurla, Mumbai - MPCB",08-11-2025 07:00:00,19.0863,72.8888,SO2,35,37,36
India,Maharashtra,Mumbai,"Sewri, Mumbai - BMC",08-11-2025 07:00:00,19.000084,72.856730,CO,2,165,44
India,Maharashtra,Mumbai,"Shivaji Nagar, Mumbai - BMC",08-11-2025 07:00:00,19.060498,72.923356,PM10,108,146,130
India,Maharashtra,Mumbai,"Siddharth Nagar-Worli, Mumbai - IITM",08-11-2025 07:00:00,19.000083,72.813993,PM2.5,54,241,124
India,Maharashtra,Mumbai,"Sion, Mumbai - MPCB",08-11-2025 07:00:00,19.047000,72.874600,PM10,46,153,74
India,Maharashtra,Mumbai,"Sion, Mumbai - MPCB",08-11-2025 07:00:00,19.047000,72.874600,NO2,8,10,9
India,Maharashtra,Mumbai,"Sion, Mumbai - MPCB",08-11-2025 07:00:00,19.047000,72.874600,CO,10,18,15
India,Maharashtra,Mumbai,"Vasai West, Mumbai - MPCB",08-11-2025 07:00:00,19.383200,72.820400,PM2.5,15,68,31
India,Maharashtra,Nashik,"Pandav Nagari, Nashik - MPCB",08-11-2025 07:00:00,19.9591346,73.7788008,NH3,4,4,4
India,Maharashtra,Nashik,"Pandav Nagari, Nashik - MPCB",08-11-2025 07:00:00,19.9591346,73.7788008,OZONE,6,55,28
India,Maharashtra,Navi Mumbai,"Kopripada-Vashi, Navi Mumbai - MPCB",08-11-2025 07:00:00,19.090337,73.014232,PM2.5,44,152,68
India,Maharashtra,Navi Mumbai,"Kopripada-Vashi, Navi Mumbai - MPCB",08-11-2025 07:00:00,19.090337,73.014232,PM10,58,108,81
India,Maharashtra,Navi Mumbai,"Kopripada-Vashi, Navi Mumbai - MPCB",08-11-2025 07:00:00,19.090337,73.014232,SO2,10,22,14
India,Maharashtra,Navi Mumbai,"Kopripada-Vashi, Navi Mumbai - MPCB",08-11-2025 07:00:00,19.090337,73.014232,OZONE,1,100,4
India,Maharashtra,Navi Mumbai,"Sanpada, Navi Mumbai - MPCB",08-11-2025 07:00:00,19.0575752,73.0151367,PM10,105,221,141
India,Maharashtra,Nanded,"Sneh Nagar, Nanded - MPCB",08-11-2025 07:00:00,19.173852,77.296291,NH3,3,6,4
India,Maharashtra,Nashik,"Gangapur Road, Nashik - MPCB",08-11-2025 07:00:00,20.0073285,73.7762427,NH3,4,4,4
India,Maharashtra,Nashik,"Hirawadi, Nashik - MPCB",08-11-2025 07:00:00,20.021503,73.813844,NH3,1,10,3
India,Maharashtra,Nashik,"Hirawadi, Nashik - MPCB",08-11-2025 07:00:00,20.021503,73.813844,OZONE,2,53,8
India,Maharashtra,Nashik,"MIDC Ambad, Nashik - MPCB",08-11-2025 07:00:00,19.950220,73.731480,PM2.5,36,60,45
India,Maharashtra,Nashik,"MIDC Ambad, Nashik - MPCB",08-11-2025 07:00:00,19.950220,73.731480,NH3,2,6,4
India,Maharashtra,Nashik,"MIDC Ambad, Nashik - MPCB",08-11-2025 07:00:00,19.950220,73.731480,SO2,1,126,12
India,Maharashtra,Mumbai,"Malad West, Mumbai - IITM",08-11-2025 07:00:00,19.19709,72.82204,PM2.5,23,152,67
India,Maharashtra,Mumbai,"Malad West, Mumbai - IITM",08-11-2025 07:00:00,19.19709,72.82204,SO2,3,14,8
India,Maharashtra,Mumbai,"Mazgaon, Mumbai - IITM",08-11-2025 07:00:00,18.96702,72.84214,PM10,88,150,122
India,Maharashtra,Mumbai,"Mazgaon, Mumbai - IITM",08-11-2025 07:00:00,18.96702,72.84214,SO2,8,16,10
India,Maharashtra,Mumbai,"Mindspace-Malad West, Mumbai - MPCB",08-11-2025 07:00:00,19.1878657,72.8304069,NH3,4,22,12
India,Maharashtra,Mumbai,"Vasai West, Mumbai - MPCB",08-11-2025 07:00:00,19.383200,72.820400,OZONE,11,22,15
India,Maharashtra,Mumbai,"Vile Parle West, Mumbai - MPCB",08-11-2025 07:00:00,19.10861,72.83622,CO,24,26,24
India,Maharashtra,Mumbai,"Vile Parle West, Mumbai - MPCB",08-11-2025 07:00:00,19.10861,72.83622,OZONE,5,27,26
India,Maharashtra,Nagpur,"Ambazari, Nagpur - MPCB",08-11-2025 07:00:00,21.121801,79.04952,PM10,73,138,101
India,Maharashtra,Nagpur,"Ambazari, Nagpur - MPCB",08-11-2025 07:00:00,21.121801,79.04952,SO2,13,81,20
India,Maharashtra,Nagpur,"Mahal, Nagpur - MPCB",08-11-2025 07:00:00,21.14472,79.107595,PM10,89,129,108
India,Maharashtra,Nagpur,"Opp GPO Civil Lines, Nagpur - MPCB",08-11-2025 07:00:00,21.152875,79.0517531,PM10,40,133,99
India,Maharashtra,Mumbai,"Mulund West, Mumbai - MPCB",08-11-2025 07:00:00,19.1750,72.9419,NH3,3,4,4
India,Maharashtra,Mumbai,"Sewri, Mumbai - BMC",08-11-2025 07:00:00,19.000084,72.856730,PM2.5,1,35,7
India,Maharashtra,Pimpri-Chinchwad,"Gavalinagar, Pimpri Chinchwad - MPCB",08-11-2025 07:00:00,18.63673,73.82487,NH3,7,12,8
India,Maharashtra,Thane,"Upvan Fort, Thane - MPCB",08-11-2025 07:00:00,19.222279,72.957979,NH3,1,2,1
India,Maharashtra,Ulhasnagar,"Sidhi Vinayak Nagar, Ulhasnagar - MPCB",08-11-2025 07:00:00,19.235581,73.159121,PM2.5,31,138,84
India,Maharashtra,Ulhasnagar,"Sidhi Vinayak Nagar, Ulhasnagar - MPCB",08-11-2025 07:00:00,19.235581,73.159121,NO2,12,37,27
India,Maharashtra,Ulhasnagar,"Sidhi Vinayak Nagar, Ulhasnagar - MPCB",08-11-2025 07:00:00,19.235581,73.159121,OZONE,11,65,12
India,Maharashtra,Virar,"Bolinj, Virar - MPCB",08-11-2025 07:00:00,19.4458210,72.7988231,PM2.5,41,147,65
India,Maharashtra,Virar,"Bolinj, Virar - MPCB",08-11-2025 07:00:00,19.4458210,72.7988231,PM10,37,202,79
India,Meghalaya,Shillong,"JN Stadium, Shillong - Meghalaya PCB",08-11-2025 07:00:00,25.5803419,91.8942571,NH3,13,19,15
India,Meghalaya,Shillong,"JN Stadium, Shillong - Meghalaya PCB",08-11-2025 07:00:00,25.5803419,91.8942571,SO2,1,8,4
India,Maharashtra,Pune,"Katraj Dairy, Pune - MPCB",08-11-2025 07:00:00,18.454450,73.854155,CO,10,100,38
India,Maharashtra,Pune,"Mhada Colony, Pune - IITM",08-11-2025 07:00:00,18.573040,73.927715,PM10,98,159,121
India,Maharashtra,Pune,"Mhada Colony, Pune - IITM",08-11-2025 07:00:00,18.573040,73.927715,NO2,29,89,55
India,Maharashtra,Pune,"Mhada Colony, Pune - IITM",08-11-2025 07:00:00,18.573040,73.927715,CO,8,111,49
India,Maharashtra,Pune,"Revenue Colony-Shivajinagar, Pune - IITM",08-11-2025 07:00:00,18.530085,73.849598,CO,52,108,73
India,Maharashtra,Pune,"Revenue Colony-Shivajinagar, Pune - IITM",08-11-2025 07:00:00,18.530085,73.849598,OZONE,2,55,14
India,Maharashtra,Pune,"Savitribai Phule Pune University, Pune - MPCB",08-11-2025 07:00:00,18.547056,73.826908,SO2,1,2,2
India,Maharashtra,Pune,"Transport Nagar-Nigdi, Pune - IITM",08-11-2025 07:00:00,18.664282,73.763966,PM10,80,118,101
India,Meghalaya,Shillong,"Lumpyngngad, Shillong - Meghalaya PCB",08-11-2025 07:00:00,25.5586,91.8985,OZONE,1,7,3
India,Odisha,Angul,"Hakimapada, Angul - OSPCB",08-11-2025 07:00:00,20.832874,85.104082,PM10,46,179,111
India,Odisha,Angul,"Hakimapada, Angul - OSPCB",08-11-2025 07:00:00,20.832874,85.104082,OZONE,19,110,21
India,Odisha,Balasore,"Kalidaspur, Balasore - OSPCB",08-11-2025 07:00:00,21.51161,86.89088,NO2,5,27,13
India,Odisha,Balasore,"Kalidaspur, Balasore - OSPCB",08-11-2025 07:00:00,21.51161,86.89088,CO,12,20,13
India,Odisha,Barbil,"Forest Office, Barbil - OSPCB",08-11-2025 07:00:00,22.1166054,85.3945546,PM2.5,42,382,102
India,Odisha,Barbil,"Forest Office, Barbil - OSPCB",08-11-2025 07:00:00,22.1166054,85.3945546,OZONE,4,59,6
India,Odisha,Baripada,"Meher Colony, Baripada - OSPCB",08-11-2025 07:00:00,21.941841,86.728318,NO2,3,95,35
India,Odisha,Baripada,"Meher Colony, Baripada - OSPCB",08-11-2025 07:00:00,21.941841,86.728318,SO2,4,8,6
India,Odisha,Baripada,"Meher Colony, Baripada - OSPCB",08-11-2025 07:00:00,21.941841,86.728318,OZONE,23,85,33
India,Odisha,Bhubaneswar,"Lingraj Mandir, Bhubaneswar - OSPCB",08-11-2025 07:00:00,20.240790,85.836784,NH3,4,7,6
India,Odisha,Bhubaneswar,"Patia, Bhubaneswar - OSPCB",08-11-2025 07:00:00,20.34652,85.81630,PM10,81,230,134
India,Maharashtra,Sangli,"Vijay Nagar, Sangli - MPCB",08-11-2025 07:00:00, 16.5038,74.3623,PM2.5,71,249,128
India,Maharashtra,Sangli,"Vijay Nagar, Sangli - MPCB",08-11-2025 07:00:00, 16.5038,74.3623,SO2,3,8,5
India,Maharashtra,Solapur,"Dnyaneshwar Nagar, Solapur - MPCB",08-11-2025 07:00:00,17.6336264,75.9132495,NO2,7,89,25
India,Maharashtra,Solapur,"Dnyaneshwar Nagar, Solapur - MPCB",08-11-2025 07:00:00,17.6336264,75.9132495,SO2,1,3,1
India,Maharashtra,Solapur,"Ratandeep Housing Society, Solapur - MPCB",08-11-2025 07:00:00,17.65439,75.90649,NH3,1,32,6
India,Maharashtra,Thane,"Kasarvadavali, Thane - MPCB",08-11-2025 07:00:00,19.26777,72.97182,SO2,4,11,6
India,Maharashtra,Pimpri-Chinchwad,"Park Street Wakad, Pimpri Chinchwad - MPCB",08-11-2025 07:00:00,18.59051,73.77946,OZONE,2,86,24
India,Maharashtra,Pimpri-Chinchwad,"Savta Mali Nagar, Pimpri-Chinchwad - IITM",08-11-2025 07:00:00,18.614767,73.799516,NO2,23,89,54
India,Maharashtra,Pune,"Bhumkar Nagar, Pune - IITM",08-11-2025 07:00:00,18.605770,73.749976,OZONE,1,92,22
India,Maharashtra,Pune,"Hadapsar, Pune - IITM",08-11-2025 07:00:00,18.501793,73.927532,CO,NA,NA,NA
India,Maharashtra,Pune,"Katraj Dairy, Pune - MPCB",08-11-2025 07:00:00,18.454450,73.854155,NO2,10,63,34
India,Odisha,Rourkela,"Raghunathpali, Rourkela - OSPCB",08-11-2025 07:00:00,22.220833,84.809444,NO2,7,20,12
India,Odisha,Rourkela,"Raghunathpali, Rourkela - OSPCB",08-11-2025 07:00:00,22.220833,84.809444,SO2,5,8,6
India,Odisha,Rourkela,"Raghunathpali, Rourkela - OSPCB",08-11-2025 07:00:00,22.220833,84.809444,CO,26,101,58
India,Odisha,Talcher,"Talcher Coalfields,Talcher - OSPCB",08-11-2025 07:00:00,20.9360711,85.1707021,NH3,3,7,5
India,Odisha,Tensa,"Barsua Iron Ore Mines, Tensa - OSPCB",08-11-2025 07:00:00,21.869985,85.167016,PM2.5,NA,NA,NA
India,Odisha,Tensa,"Barsua Iron Ore Mines, Tensa - OSPCB",08-11-2025 07:00:00,21.869985,85.167016,CO,22,48,48
India,Odisha,Bileipada,"Tata Township, Bileipada - OSPCB",08-11-2025 07:00:00,22.06156703,85.47409613,PM10,71,149,98
India,Odisha,Brajrajnagar,"GM Office, Brajrajnagar - OSPCB",08-11-2025 07:00:00,21.8004996,83.8396977,PM10,50,149,86
India,Odisha,Byasanagar,"Ferro Chrome Colony, Byasanagar - OSPCB",08-11-2025 07:00:00,20.94185,86.11510,PM2.5,47,223,88
India,Odisha,Byasanagar,"Ferro Chrome Colony, Byasanagar - OSPCB",08-11-2025 07:00:00,20.94185,86.11510,PM10,55,159,92
India,Odisha,Byasanagar,"Ferro Chrome Colony, Byasanagar - OSPCB",08-11-2025 07:00:00,20.94185,86.11510,CO,14,60,25
India,Odisha,Keonjhar,"Jagamohanpur, Keonjhar - OSPCB",08-11-2025 07:00:00,21.643900,85.599355,CO,4,100,20
India,Odisha,Nayagarh,"Dabuna, Nayagarh - OSPCB",08-11-2025 07:00:00,21.847279,85.416905,PM10,46,86,64
India,Odisha,Nayagarh,"Dabuna, Nayagarh - OSPCB",08-11-2025 07:00:00,21.847279,85.416905,SO2,5,10,7
India,Odisha,Rairangpur,"Divisional Forest Office, Rairangpur - OSPCB",08-11-2025 07:00:00,22.265816,86.174829,NO2,8,8,8
India,Rajasthan,Dungarpur,"Bhoiwada, Dungarpur - RSPCB",08-11-2025 07:00:00,23.837789,73.714926,PM2.5,35,213,92
India,Rajasthan,Dungarpur,"Bhoiwada, Dungarpur - RSPCB",08-11-2025 07:00:00,23.837789,73.714926,NO2,12,58,24
India,Rajasthan,Dungarpur,"Bhoiwada, Dungarpur - RSPCB",08-11-2025 07:00:00,23.837789,73.714926,SO2,1,15,3
India,Rajasthan,Hanumangarh,"Housing Board, Hanumangarh - RSPCB",08-11-2025 07:00:00,29.610750,74.283608,PM10,91,409,189
India,Rajasthan,Hanumangarh,"Housing Board, Hanumangarh - RSPCB",08-11-2025 07:00:00,29.610750,74.283608,NO2,7,65,36
India,Rajasthan,Hanumangarh,"Housing Board, Hanumangarh - RSPCB",08-11-2025 07:00:00,29.610750,74.283608,NH3,10,53,22
India,Rajasthan,Jaipur,"Adarsh Nagar, Jaipur - RSPCB",08-11-2025 07:00:00,26.902909,75.836858,NH3,7,35,19
India,Rajasthan,Jaipur,"Adarsh Nagar, Jaipur - RSPCB",08-11-2025 07:00:00,26.902909,75.836858,SO2,4,38,23
India,Rajasthan,Jaipur,"Adarsh Nagar, Jaipur - RSPCB",08-11-2025 07:00:00,26.902909,75.836858,CO,32,88,62
India,Rajasthan,Bundi,"New Colony, Bundi - RSPCB",08-11-2025 07:00:00,25.435774,75.644272,NH3,4,6,4
India,Rajasthan,Chittorgarh,"Shastri Nagar, Chittorgarh - RSPCB",08-11-2025 07:00:00,24.892047,74.623527,NH3,1,4,2
India,Rajasthan,Churu,"Subash Chowk, Churu - RSPCB",08-11-2025 07:00:00,28.296139,74.961696,PM2.5,52,310,125
India,Rajasthan,Churu,"Subash Chowk, Churu - RSPCB",08-11-2025 07:00:00,28.296139,74.961696,NH3,3,7,5
India,Rajasthan,Churu,"Subash Chowk, Churu - RSPCB",08-11-2025 07:00:00,28.296139,74.961696,SO2,3,42,9
India,Rajasthan,Churu,"Subash Chowk, Churu - RSPCB",08-11-2025 07:00:00,28.296139,74.961696,CO,20,102,38
India,Rajasthan,Dausa,"Khatikan Mohalla, Dausa - RSPCB",08-11-2025 07:00:00,26.895552,76.334753,PM2.5,27,338,80
India,Punjab,Rupnagar,"Ratanpura, Rupnagar - Ambuja Cements",08-11-2025 07:00:00,31.0325454,76.5623046,PM2.5,NA,NA,NA
India,Punjab,Rupnagar,"Ratanpura, Rupnagar - Ambuja Cements",08-11-2025 07:00:00,31.0325454,76.5623046,SO2,NA,NA,NA
India,Punjab,Rupnagar,"Ratanpura, Rupnagar - Ambuja Cements",08-11-2025 07:00:00,31.0325454,76.5623046,CO,33,45,36
India,Rajasthan,Alwar,"Moti Doongri, Alwar - RSPCB",08-11-2025 07:00:00,27.554793,76.611536,NH3,11,17,13
India,Rajasthan,Alwar,"Moti Doongri, Alwar - RSPCB",08-11-2025 07:00:00,27.554793,76.611536,SO2,11,78,36
India,Rajasthan,Banswara,"Rati Talai, Banswara - RSPCB",08-11-2025 07:00:00,23.555190,74.440010,PM2.5,30,103,58
India,Rajasthan,Banswara,"Rati Talai, Banswara - RSPCB",08-11-2025 07:00:00,23.555190,74.440010,NO2,15,115,42
India,Rajasthan,Barmer,"Railway Colony, Barmer - RSPCB",08-11-2025 07:00:00,25.747299,71.393989,NO2,7,126,33
India,Rajasthan,Barmer,"Railway Colony, Barmer - RSPCB",08-11-2025 07:00:00,25.747299,71.393989,SO2,5,13,7
India,Rajasthan,Barmer,"Railway Colony, Barmer - RSPCB",08-11-2025 07:00:00,25.747299,71.393989,OZONE,4,156,97
India,Rajasthan,Bharatpur,"Krishna Nagar, Bharatpur - RSPCB",08-11-2025 07:00:00,27.215415,77.50873,PM2.5,23,191,72
India,Rajasthan,Bharatpur,"Krishna Nagar, Bharatpur - RSPCB",08-11-2025 07:00:00,27.215415,77.50873,CO,33,143,43
India,Rajasthan,Bhilwara,"Pratap Nagar, Bhilwara - RSPCB",08-11-2025 07:00:00,25.339605,74.618883,SO2,3,41,18
India,Rajasthan,Bhiwadi,"RIICO Ind. Area III, Bhiwadi - RSPCB",08-11-2025 07:00:00,28.194909,76.862296,PM2.5,117,336,246
India,Rajasthan,Bhiwadi,"RIICO Ind. Area III, Bhiwadi - RSPCB",08-11-2025 07:00:00,28.194909,76.862296,NO2,29,69,42
India,Rajasthan,Bhiwadi,"Vasundhara Nagar_UIT, Bhiwadi - RSPCB",08-11-2025 07:00:00,28.207266,76.829265,NH3,2,4,3
India,Rajasthan,Bhiwadi,"Vasundhara Nagar_UIT, Bhiwadi - RSPCB",08-11-2025 07:00:00,28.207266,76.829265,OZONE,8,140,10
India,Rajasthan,Bikaner,"MM Ground, Bikaner - RSPCB",08-11-2025 07:00:00,28.018792,73.292658,SO2,5,13,8
India,Punjab,Khanna,"Kalal Majra, Khanna - PPCB",08-11-2025 07:00:00,30.736056 ,76.209694,NH3,7,7,7
India,Punjab,Khanna,"Kalal Majra, Khanna - PPCB",08-11-2025 07:00:00,30.736056 ,76.209694,SO2,15,54,26
India,Punjab,Mandi Gobindgarh,"RIMT University, Mandi Gobindgarh - PPCB",08-11-2025 07:00:00,30.649961,76.331442,PM10,115,338,203
India,Punjab,Patiala,"Model Town, Patiala - PPCB",08-11-2025 07:00:00,30.349388,76.366642,PM10,76,255,172
India,Puducherry,Puducherry,"Jawahar Nagar, Puducherry - PPCC",08-11-2025 07:00:00,11.9309,79.8027,OZONE,2,61,12
India,Punjab,Amritsar,"Golden Temple, Amritsar - PPCB",08-11-2025 07:00:00,31.620000,74.876512,PM10,66,290,175
India,Punjab,Bathinda,"Hardev Nagar, Bathinda - PPCB",08-11-2025 07:00:00,30.233011,74.907758,SO2,NA,NA,NA
India,Rajasthan,Jaipur,"RIICO Sitapura, Jaipur - RSPCB",08-11-2025 07:00:00,26.786682,75.827928,NO2,21,136,71
India,Rajasthan,Jaipur,"Sector-2 Murlipura, Jaipur - RSPCB",08-11-2025 07:00:00,26.960669,75.771817,NO2,23,125,62
India,Rajasthan,Jaipur,"Sector-2 Murlipura, Jaipur - RSPCB",08-11-2025 07:00:00,26.960669,75.771817,SO2,5,62,16
India,Rajasthan,Jaipur,"Police Commissionerate, Jaipur - RSPCB",08-11-2025 07:00:00,26.9164092,75.7994901,NH3,3,29,9
India,Rajasthan,Kota,"Dhanmandi, Kota - RSPCB",08-11-2025 07:00:00,25.164090,75.858137,NO2,20,119,59
India,Rajasthan,Kota,"Dhanmandi, Kota - RSPCB",08-11-2025 07:00:00,25.164090,75.858137,OZONE,1,141,3
India,Rajasthan,Kota,"Nayapura, Kota - RSPCB",08-11-2025 07:00:00,25.196024,75.855668,PM2.5,32,253,109
India,Rajasthan,Kota,"Nayapura, Kota - RSPCB",08-11-2025 07:00:00,25.196024,75.855668,PM10,79,175,119
India,Rajasthan,Kota,"Shrinath Puram, Kota - RSPCB",08-11-2025 07:00:00,25.14389,75.821256,NH3,2,7,3
India,Rajasthan,Kota,"Shrinath Puram, Kota - RSPCB",08-11-2025 07:00:00,25.14389,75.821256,SO2,3,18,7
India,Rajasthan,Kota,"Shrinath Puram, Kota - RSPCB",08-11-2025 07:00:00,25.14389,75.821256,CO,20,80,29
India,Rajasthan,Nagaur,"Karni Colony, Nagaur - RSPCB",08-11-2025 07:00:00,27.213494,73.734444,NH3,6,11,8
India,Rajasthan,Pali,"Indira Colony Vistar, Pali - RSPCB",08-11-2025 07:00:00,25.771061, 73.340227,PM10,56,163,97
India,Rajasthan,Sikar,"Radhakishan Pura, Sikar - RSPCB",08-11-2025 07:00:00,27.608912,75.153302,NH3,6,15,10
India,Rajasthan,Sikar,"Radhakishan Pura, Sikar - RSPCB",08-11-2025 07:00:00,27.608912,75.153302,SO2,3,6,4
India,Rajasthan,Sikar,"Radhakishan Pura, Sikar - RSPCB",08-11-2025 07:00:00,27.608912,75.153302,CO,19,104,49
India,Rajasthan,Sirohi,"Vedhaynath Colony, Sirohi - RSPCB",08-11-2025 07:00:00,24.885261,72.857549,OZONE,22,87,48
India,Rajasthan,Sri Ganganagar,"Old City, Sri Ganganagar - RSPCB",08-11-2025 07:00:00,29.931624,73.864511,PM2.5,50,386,142
India,Rajasthan,Sri Ganganagar,"Old City, Sri Ganganagar - RSPCB",08-11-2025 07:00:00,29.931624,73.864511,PM10,106,500,213
India,Rajasthan,Sri Ganganagar,"Old City, Sri Ganganagar - RSPCB",08-11-2025 07:00:00,29.931624,73.864511,OZONE,2,80,3
India,Rajasthan,Tonk,"Shastri Nagar, Tonk - RSPCB",08-11-2025 07:00:00,26.159933,75.780517,PM2.5,66,403,159
India,Rajasthan,Tonk,"Shastri Nagar, Tonk - RSPCB",08-11-2025 07:00:00,26.159933,75.780517,PM10,120,484,203
India,Rajasthan,Pali,"Indira Colony Vistar, Pali - RSPCB",08-11-2025 07:00:00,25.771061, 73.340227,NO2,28,69,40
India,Rajasthan,Pali,"Indira Colony Vistar, Pali - RSPCB",08-11-2025 07:00:00,25.771061, 73.340227,CO,11,87,54
India,Rajasthan,Pratapgarh,"Pragati Nagar, Pratapgarh - RSPCB",08-11-2025 07:00:00,24.041198,74.780702,NO2,9,54,19
India,Rajasthan,Pratapgarh,"Pragati Nagar, Pratapgarh - RSPCB",08-11-2025 07:00:00,24.041198,74.780702,CO,10,30,13
India,Rajasthan,Rajsamand,"Dhoinda, Rajsamand - RSPCB",08-11-2025 07:00:00,25.036360,73.883502,SO2,2,11,6
India,Rajasthan,Rajsamand,"Dhoinda, Rajsamand - RSPCB",08-11-2025 07:00:00,25.036360,73.883502,OZONE,6,74,9
India,Rajasthan,Sawai Madhopur,"Sahu Nagar, Sawai Madhopur - RSPCB",08-11-2025 07:00:00,26.031443,76.359327,NH3,6,46,9
India,Rajasthan,Sawai Madhopur,"Sahu Nagar, Sawai Madhopur - RSPCB",08-11-2025 07:00:00,26.031443,76.359327,OZONE,1,160,16
India,Rajasthan,Jhunjhunu,"Indra Nagar, Jhunjhunu - RSPCB",08-11-2025 07:00:00,28.108988,75.386577,PM10,85,271,152
India,Rajasthan,Jodhpur,"Collectorate, Jodhpur - RSPCB",08-11-2025 07:00:00,26.268249,73.0193853,PM10,49,403,156
India,Rajasthan,Jodhpur,"Collectorate, Jodhpur - RSPCB",08-11-2025 07:00:00,26.268249,73.0193853,NH3,7,47,20
India,Rajasthan,Jodhpur,"Collectorate, Jodhpur - RSPCB",08-11-2025 07:00:00,26.268249,73.0193853,SO2,1,17,9
India,Rajasthan,Jodhpur,"Collectorate, Jodhpur - RSPCB",08-11-2025 07:00:00,26.268249,73.0193853,OZONE,9,57,14
India,Rajasthan,Jodhpur,"Digari Kalan, Jodhpur - RSPCB",08-11-2025 07:00:00,26.295810,73.082283,OZONE,1,112,2
India,Rajasthan,Jodhpur,"Jhalamand, Jodhpur - RSPCB",08-11-2025 07:00:00,26.215415,73.070156,PM2.5,43,351,122
India,Rajasthan,Jodhpur,"Jhalamand, Jodhpur - RSPCB",08-11-2025 07:00:00,26.215415,73.070156,PM10,72,425,160
India,Rajasthan,Tonk,"Shastri Nagar, Tonk - RSPCB",08-11-2025 07:00:00,26.159933,75.780517,CO,22,119,27
India,Rajasthan,Udaipur,"Ashok Nagar, Udaipur - RSPCB",08-11-2025 07:00:00,24.5886166,73.6321397,PM10,46,171,96
India,Rajasthan,Udaipur,"Ashok Nagar, Udaipur - RSPCB",08-11-2025 07:00:00,24.5886166,73.6321397,NH3,5,9,7
India,Sikkim,Gangtok,"Zero Point GICI, Gangtok - SSPCB",08-11-2025 07:00:00,27.338530,88.614099,PM10,8,40,20
India,TamilNadu,Ariyalur,"Keelapalur, Ariyalur - TNPCB",08-11-2025 07:00:00,11.06825,79.07033,PM2.5,25,53,39
India,Rajasthan,Jaipur,"Shastri Nagar, Jaipur - RSPCB",08-11-2025 07:00:00,26.9502929,75.730943,NH3,1,24,11
India,Rajasthan,Jaipur,"Shastri Nagar, Jaipur - RSPCB",08-11-2025 07:00:00,26.9502929,75.730943,OZONE,14,52,29
India,Rajasthan,Jaisalmer,"Sadar Bazar, Jaisalmer - RSPCB",08-11-2025 07:00:00,26.912329,70.909168,NO2,11,131,44
India,Rajasthan,Jalore,"Mudtra Sili, Jalore - RSPCB",08-11-2025 07:00:00,25.344694,72.626208,NO2,22,113,56
India,Rajasthan,Jalore,"Mudtra Sili, Jalore - RSPCB",08-11-2025 07:00:00,25.344694,72.626208,NH3,3,10,6
India,Rajasthan,Jhalawar,"Rajlaxmi Nagar, Jhalawar - RSPCB",08-11-2025 07:00:00,24.588397,76.172782,NH3,3,5,4
India,TamilNadu,Chengalpattu,"Crescent University, Chengalpattu - TNPCB",08-11-2025 07:00:00,12.8777316,80.0834807,OZONE,5,32,11
India,TamilNadu,Chennai,"Arumbakkam, Chennai - TNPCB",08-11-2025 07:00:00,13.0664,80.2112 ,NH3,3,5,4
India,TamilNadu,Chennai,"Gandhi Nagar_Ennore, Chennai - TNPCB",08-11-2025 07:00:00,13.218341,80.32027,PM2.5,18,57,37
India,TamilNadu,Chennai,"Manali Village, Chennai - TNPCB",08-11-2025 07:00:00,13.1662,80.2584,SO2,2,7,5
India,Rajasthan,Jodhpur,"Jhalamand, Jodhpur - RSPCB",08-11-2025 07:00:00,26.215415,73.070156,CO,14,105,52
India,Rajasthan,Jodhpur,"Samrat Ashok Udhyan, Jodhpur - RSPCB",08-11-2025 07:00:00,26.253384,72.976571,NO2,9,112,64
India,Rajasthan,Jodhpur,"Samrat Ashok Udhyan, Jodhpur - RSPCB",08-11-2025 07:00:00,26.253384,72.976571,NH3,6,25,10
India,Rajasthan,Karauli,"Satyawati Vihar, Karauli - RSPCB",08-11-2025 07:00:00,26.506177,77.025989,NO2,4,85,28
India,Rajasthan,Karauli,"Satyawati Vihar, Karauli - RSPCB",08-11-2025 07:00:00,26.506177,77.025989,CO,4,57,11
India,TamilNadu,Chennai,"Manali, Chennai - CPCB",08-11-2025 07:00:00,13.164544,80.26285,CO,16,42,24
India,TamilNadu,Chennai,"Perungudi, Chennai - TNPCB",08-11-2025 07:00:00,12.9533,80.2357,NO2,3,19,7
India,TamilNadu,Chennai,"Royapuram, Chennai - TNPCB",08-11-2025 07:00:00,13.1036,80.2909,PM10,49,493,208
India,TamilNadu,Chennai,"Royapuram, Chennai - TNPCB",08-11-2025 07:00:00,13.1036,80.2909,SO2,1,8,4
India,TamilNadu,Thoothukudi,"Meelavittan, Thoothukudi - TNPCB",08-11-2025 07:00:00,8.816428 ,78.099039,OZONE,1,13,4
India,TamilNadu,Tiruchirappalli,"St Joseph College, Tiruchirappalli - TNPCB",08-11-2025 07:00:00,10.830158,78.691849,SO2,12,14,13
India,TamilNadu,Tirunelveli,"Municipal Corporation Office, Tirunelveli - TNPCB",08-11-2025 07:00:00,8.728442,77.6962,PM10,20,37,30
India,TamilNadu,Tirunelveli,"Municipal Corporation Office, Tirunelveli - TNPCB",08-11-2025 07:00:00,8.728442,77.6962,SO2,15,19,19
India,TamilNadu,Tirunelveli,"Municipal Corporation Office, Tirunelveli - TNPCB",08-11-2025 07:00:00,8.728442,77.6962,CO,28,30,29
India,TamilNadu,Tirupur,"Kumaran College, Tirupur - TNPCB",08-11-2025 07:00:00,11.0973603,77.3228673,SO2,4,6,5
India,TamilNadu,Tirupur,"Kumaran College, Tirupur - TNPCB",08-11-2025 07:00:00,11.0973603,77.3228673,OZONE,3,3,3
India,TamilNadu,Vellore,"Vasanthapuram, Vellore - TNPCB",08-11-2025 07:00:00,12.909494,79.131861,PM2.5,58,172,96
India,TamilNadu,Vellore,"Vasanthapuram, Vellore - TNPCB",08-11-2025 07:00:00,12.909494,79.131861,CO,8,8,8
India,TamilNadu,Namakkal,"Ponnusamy Nagar, Namakkal - TNPCB",08-11-2025 07:00:00,11.273992,78.163545,NO2,10,10,10
India,TamilNadu,Namakkal,"Ponnusamy Nagar, Namakkal - TNPCB",08-11-2025 07:00:00,11.273992,78.163545,SO2,8,9,8
India,TamilNadu,Ooty,"Bombay Castel, Ooty - TNPCB",08-11-2025 07:00:00,11.4068288,76.7138973,PM2.5,35,163,65
India,TamilNadu,Ooty,"Bombay Castel, Ooty - TNPCB",08-11-2025 07:00:00,11.4068288,76.7138973,NO2,2,4,1
India,TamilNadu,Ooty,"Bombay Castel, Ooty - TNPCB",08-11-2025 07:00:00,11.4068288,76.7138973,OZONE,4,29,8
India,TamilNadu,Palkalaiperur,"Bharathidasan University, Palkalaiperur - TNPCB",08-11-2025 07:00:00,10.681158,78.741746,OZONE,1,43,28
India,TamilNadu,Perundurai,"SIPCOT Industrial Park, Perundurai - TNPCB",08-11-2025 07:00:00,11.258242,77.552761,PM10,58,343,114
India,TamilNadu,Perundurai,"SIPCOT Industrial Park, Perundurai - TNPCB",08-11-2025 07:00:00,11.258242,77.552761,NH3,2,4,2
India,TamilNadu,Kanchipuram,"Kilambi, Kanchipuram - TNPCB",08-11-2025 07:00:00,12.864618,79.659968,SO2,8,12,10
India,TamilNadu,Karur,"Kamadenu Nagar, Karur - TNPCB",08-11-2025 07:00:00,10.967820,78.080882,NO2,1,6,4
India,TamilNadu,Karur,"Kamadenu Nagar, Karur - TNPCB",08-11-2025 07:00:00,10.967820,78.080882,NH3,3,4,3
India,TamilNadu,Madurai,"Uchapatti, Madurai - TNPCB",08-11-2025 07:00:00,9.865935,78.022669,NO2,NA,NA,NA
India,TamilNadu,Madurai,"Uchapatti, Madurai - TNPCB",08-11-2025 07:00:00,9.865935,78.022669,SO2,NA,NA,NA
India,TamilNadu,Madurai,"Uchapatti, Madurai - TNPCB",08-11-2025 07:00:00,9.865935,78.022669,CO,22,41,30
India,TamilNadu,Nagapattinam,"Velippalayam, Nagapattinam - TNPCB",08-11-2025 07:00:00,10.798548,79.838212,PM10,38,103,55
India,TamilNadu,Pudukottai,"SIPCOT Nathampannai, Pudukottai - TNPCB",08-11-2025 07:00:00,10.423417,78.784889,NH3,NA,NA,NA
India,TamilNadu,Ramanathapuram,"Chalai Bazaar, Ramanathapuram - TNPCB",08-11-2025 07:00:00,9.36399,78.831977,SO2,2,4,3
India,TamilNadu,Salem,"Sona College of Technology, Salem - TNPCB",08-11-2025 07:00:00,11.679111,78.125052,NH3,1,1,1
India,TamilNadu,Salem,"Sona College of Technology, Salem - TNPCB",08-11-2025 07:00:00,11.679111,78.125052,SO2,18,19,18
India,TamilNadu,Thanjavur,"Parisutham Nagar, Thanjavur - TNPCB",08-11-2025 07:00:00,10.7654824,79.1389968,PM2.5,31,75,44
India,TamilNadu,Thanjavur,"Parisutham Nagar, Thanjavur - TNPCB",08-11-2025 07:00:00,10.7654824,79.1389968,CO,NA,NA,NA
India,TamilNadu,Coimbatore,"SIDCO Kurichi, Coimbatore - TNPCB",08-11-2025 07:00:00,10.942451,76.978996,OZONE,2,76,15
India,TamilNadu,Dindigul,"Mendonsa Colony, Dindigul - TNPCB",08-11-2025 07:00:00,10.358535,77.984321,PM2.5,34,65,48
India,TamilNadu,Dindigul,"Mendonsa Colony, Dindigul - TNPCB",08-11-2025 07:00:00,10.358535,77.984321,NO2,7,13,9
India,TamilNadu,Dindigul,"Mendonsa Colony, Dindigul - TNPCB",08-11-2025 07:00:00,10.358535,77.984321,CO,12,16,14
India,TamilNadu,Gummidipoondi,"Anthoni Pillai Nagar, Gummidipoondi - TNPCB",08-11-2025 07:00:00,13.4127,80.1081,PM10,60,412,144
India,TamilNadu,Gummidipoondi,"Anthoni Pillai Nagar, Gummidipoondi - TNPCB",08-11-2025 07:00:00,13.4127,80.1081,NO2,6,56,19
India,Telangana,Hyderabad,"IDA Pashamylaram, Hyderabad - TSPCB",08-11-2025 07:00:00,17.5316895,78.218939,NH3,2,7,4
India,Telangana,Hyderabad,"Kokapet, Hyderabad - TSPCB",08-11-2025 07:00:00,17.393559,78.339194,PM10,87,102,95
India,Telangana,Hyderabad,"Kompally Municipal Office, Hyderabad - TSPCB",08-11-2025 07:00:00,17.544899,78.486949,PM10,87,205,114
India,Telangana,Hyderabad,"Kompally Municipal Office, Hyderabad - TSPCB",08-11-2025 07:00:00,17.544899,78.486949,CO,10,20,10
India,Telangana,Hyderabad,"Nacharam_TSIIC IALA, Hyderabad - TSPCB",08-11-2025 07:00:00,17.429398,78.569354,PM10,NA,NA,NA
India,Telangana,Hyderabad,"Nacharam_TSIIC IALA, Hyderabad - TSPCB",08-11-2025 07:00:00,17.429398,78.569354,NO2,NA,NA,NA
India,Telangana,Hyderabad,"Bollaram Industrial Area, Hyderabad - TSPCB",08-11-2025 07:00:00,17.540891,78.358528,PM2.5,37,180,71
India,Telangana,Hyderabad,"ECIL Kapra, Hyderabad - TSPCB",08-11-2025 07:00:00,17.470431,78.566959,NO2,23,50,32
India,Telangana,Hyderabad,"ICRISAT Patancheru, Hyderabad - TSPCB",08-11-2025 07:00:00,17.518400,78.278777,OZONE,2,64,6
India,Telangana,Hyderabad,"IDA Pashamylaram, Hyderabad - TSPCB",08-11-2025 07:00:00,17.5316895,78.218939,PM2.5,54,180,122
India,Uttar_Pradesh,Agra,"Manoharpur, Agra - UPPCB",08-11-2025 07:00:00,27.23711,78.01936,SO2,32,58,52
India,Uttar_Pradesh,Agra,"Rohta, Agra - UPPCB",08-11-2025 07:00:00,27.106972,78.000111,PM10,94,311,152
India,Uttar_Pradesh,Agra,"Rohta, Agra - UPPCB",08-11-2025 07:00:00,27.106972,78.000111,SO2,18,32,24
India,Uttar_Pradesh,Agra,"Sanjay Palace, Agra - UPPCB",08-11-2025 07:00:00,27.19865833,78.00598056,PM2.5,38,302,170
India,Telangana,Hyderabad,"New Malakpet, Hyderabad - TSPCB",08-11-2025 07:00:00,17.37206,78.50864,PM2.5,NA,NA,NA
India,Telangana,Hyderabad,"Ramachandrapuram, Hyderabad - TSPCB",08-11-2025 07:00:00,17.528544,78.286195,PM2.5,37,47,45
India,Telangana,Hyderabad,"Sanathnagar, Hyderabad - TSPCB",08-11-2025 07:00:00,17.4559458,78.4332152,NO2,26,29,28
India,Telangana,Hyderabad,"Sanathnagar, Hyderabad - TSPCB",08-11-2025 07:00:00,17.4559458,78.4332152,CO,2,24,17
India,Uttar_Pradesh,Meerut,"Jai Bhim Nagar, Meerut - UPPCB",08-11-2025 07:00:00,28.9535882,77.7622941,PM2.5,56,436,274
India,Uttar_Pradesh,Meerut,"Jai Bhim Nagar, Meerut - UPPCB",08-11-2025 07:00:00,28.9535882,77.7622941,PM10,127,421,266
India,Uttar_Pradesh,Meerut,"Pallavpuram Phase 2, Meerut - UPPCB",08-11-2025 07:00:00,29.063510,77.709723,PM2.5,67,431,289
India,Uttar_Pradesh,Meerut,"Pallavpuram Phase 2, Meerut - UPPCB",08-11-2025 07:00:00,29.063510,77.709723,NH3,4,12,8
India,Uttar_Pradesh,Meerut,"Pallavpuram Phase 2, Meerut - UPPCB",08-11-2025 07:00:00,29.063510,77.709723,SO2,10,35,22
India,Uttar_Pradesh,Meerut,"Pallavpuram Phase 2, Meerut - UPPCB",08-11-2025 07:00:00,29.063510,77.709723,CO,10,66,39
India,Uttar_Pradesh,Moradabad,"Buddhi Vihar, Moradabad - UPPCB",08-11-2025 07:00:00,28.83526,78.74460,CO,50,57,52
India,Uttar_Pradesh,Moradabad,"Eco Herbal Park, Moradabad - UPPCB",08-11-2025 07:00:00,28.840739,78.697531,NO2,8,12,9
India,Uttar_Pradesh,Moradabad,"Eco Herbal Park, Moradabad - UPPCB",08-11-2025 07:00:00,28.840739,78.697531,OZONE,19,172,31
India,Uttar_Pradesh,Lucknow,"Kendriya Vidyalaya, Lucknow - CPCB",08-11-2025 07:00:00,26.906111,80.948222,SO2,7,13,9
India,Uttar_Pradesh,Lucknow,"Kendriya Vidyalaya, Lucknow - CPCB",08-11-2025 07:00:00,26.906111,80.948222,CO,22,74,45
India,Uttar_Pradesh,Lucknow,"Lalbagh, Lucknow - CPCB",08-11-2025 07:00:00,26.8458805,80.9365541,NO2,11,68,47
India,Uttar_Pradesh,Lucknow,"Talkatora District Industries Center, Lucknow - CPCB",08-11-2025 07:00:00,26.83399722,80.8917361,PM10,116,179,147
India,Uttar_Pradesh,Meerut,"Ganga Nagar, Meerut - UPPCB",08-11-2025 07:00:00,28.999264,77.7590354,PM2.5,NA,NA,NA
India,Uttar_Pradesh,Meerut,"Ganga Nagar, Meerut - UPPCB",08-11-2025 07:00:00,28.999264,77.7590354,PM10,NA,NA,NA
India,Uttar_Pradesh,Meerut,"Ganga Nagar, Meerut - UPPCB",08-11-2025 07:00:00,28.999264,77.7590354,SO2,14,36,28
India,Uttar_Pradesh,Meerut,"Ganga Nagar, Meerut - UPPCB",08-11-2025 07:00:00,28.999264,77.7590354,CO,20,90,76
India,Uttar_Pradesh,Agra,"Sanjay Palace, Agra - UPPCB",08-11-2025 07:00:00,27.19865833,78.00598056,NO2,5,32,14
India,Uttar_Pradesh,Agra,"Sector-3B Avas Vikas Colony, Agra - UPPCB",08-11-2025 07:00:00,27.19412,77.96237,NO2,38,39,38
India,Uttar_Pradesh,Agra,"Shahjahan Garden, Agra - UPPCB",08-11-2025 07:00:00,27.169338,78.03582,CO,18,83,42
India,Uttar_Pradesh,Agra,"Shastripuram, Agra - UPPCB",08-11-2025 07:00:00,27.19862,77.92066,PM2.5,25,147,86
India,Uttar_Pradesh,Baghpat,"Sardar Patel Inter College, Baghpat - UPPCB",08-11-2025 07:00:00,28.964949,77.278761,NH3,4,10,7
India,Uttar_Pradesh,Baghpat,"Sardar Patel Inter College, Baghpat - UPPCB",08-11-2025 07:00:00,28.964949,77.278761,CO,50,91,81
India,Uttar_Pradesh,Ghaziabad,"Vasundhara, Ghaziabad - UPPCB",08-11-2025 07:00:00,28.6603346,77.3572563,OZONE,3,204,11
India,Uttar_Pradesh,Gorakhpur,"Madan Mohan Malaviya University of Technology, Gorakhpur - UPPCB",08-11-2025 07:00:00,26.730136,83.433859,PM10,39,140,92
India,Uttar_Pradesh,Greater Noida,"Knowledge Park - III, Greater Noida - UPPCB",08-11-2025 07:00:00,28.47272,77.482000,SO2,28,69,42
India,Uttar_Pradesh,Greater Noida,"Knowledge Park - V, Greater Noida - UPPCB",08-11-2025 07:00:00,28.557054,77.453663,PM2.5,122,434,302
India,Uttar_Pradesh,Greater Noida,"Knowledge Park - V, Greater Noida - UPPCB",08-11-2025 07:00:00,28.557054,77.453663,PM10,164,315,232
India,Uttar_Pradesh,Kanpur,"Nehru Nagar, Kanpur - UPPCB",08-11-2025 07:00:00,26.4703136,80.3229863,PM10,NA,NA,NA
India,Uttar_Pradesh,Khurja,"Kalindi Kunj, Khurja - UPPCB",08-11-2025 07:00:00,28.2348927,77.8683002,CO,45,67,57
India,Uttar_Pradesh,Lucknow,"B R Ambedkar University, Lucknow - UPPCB",08-11-2025 07:00:00,26.766433,80.927299,PM2.5,36,251,116
India,Uttar_Pradesh,Lucknow,"Gomti Nagar, Lucknow - UPPCB",08-11-2025 07:00:00,26.868120,81.005119,OZONE,29,41,31
India,Uttar_Pradesh,Lucknow,"Kendriya Vidyalaya, Lucknow - CPCB",08-11-2025 07:00:00,26.906111,80.948222,NH3,12,17,15
India,Uttar_Pradesh,Bareilly,"Rajendra Nagar, Bareilly - UPPCB",08-11-2025 07:00:00,28.38910936,79.42963708,PM10,64,144,116
India,Uttar_Pradesh,Bareilly,"Rajendra Nagar, Bareilly - UPPCB",08-11-2025 07:00:00,28.38910936,79.42963708,CO,22,66,45
India,Uttar_Pradesh,Firozabad,"Nagla Bhau, Firozabad - UPPCB",08-11-2025 07:00:00,27.168897,78.376960,SO2,4,8,5
India,Uttar_Pradesh,Firozabad,"Nagla Bhau, Firozabad - UPPCB",08-11-2025 07:00:00,27.168897,78.376960,CO,4,5,4
India,Uttar_Pradesh,Firozabad,"Nagla Bhau, Firozabad - UPPCB",08-11-2025 07:00:00,27.168897,78.376960,OZONE,10,23,10
India,Uttar_Pradesh,Ghaziabad,"Indirapuram, Ghaziabad - UPPCB",08-11-2025 07:00:00,28.646233,77.358075,NH3,9,14,11
India,Uttar_Pradesh,Ghaziabad,"Indirapuram, Ghaziabad - UPPCB",08-11-2025 07:00:00,28.646233,77.358075,CO,37,108,91
India,Uttar_Pradesh,Ghaziabad,"Loni, Ghaziabad - UPPCB",08-11-2025 07:00:00,28.757294,77.278792,SO2,19,36,27
India,Uttar_Pradesh,Ghaziabad,"Sanjay Nagar, Ghaziabad - UPPCB",08-11-2025 07:00:00,28.685382,77.453839,PM10,122,281,200
India,Uttar_Pradesh,Ghaziabad,"Sanjay Nagar, Ghaziabad - UPPCB",08-11-2025 07:00:00,28.685382,77.453839,NO2,53,139,87
India,Uttar_Pradesh,Hapur,"Anand Vihar, Hapur - UPPCB",08-11-2025 07:00:00,28.725645,77.749675,OZONE,10,141,11
India,Uttar_Pradesh,Jhansi,"Shivaji Nagar, Jhansi - UPPCB",08-11-2025 07:00:00,25.4547,78.6039,NH3,4,4,4
India,Uttar_Pradesh,Jhansi,"Shivaji Nagar, Jhansi - UPPCB",08-11-2025 07:00:00,25.4547,78.6039,SO2,10,14,12
India,Uttar_Pradesh,Kanpur,"NSI Kalyanpur, Kanpur - UPPCB",08-11-2025 07:00:00,26.509954,80.249612,CO,39,68,60
India,Uttar_Pradesh,Moradabad,"Jigar Colony, Moradabad - UPPCB",08-11-2025 07:00:00,28.856664,78.772638,OZONE,17,103,18
India,Uttar_Pradesh,Moradabad,"Kashiram Nagar, Moradabad - UPPCB",08-11-2025 07:00:00,28.849399,78.742362,PM10,101,168,136
India,Uttar_Pradesh,Moradabad,"Transport Nagar, Moradabad - UPPCB",08-11-2025 07:00:00,28.802625,78.753728,NO2,29,30,30
India,Uttar_Pradesh,Muzaffarnagar,"New Mandi, Muzaffarnagar - UPPCB",08-11-2025 07:00:00,29.4723508,77.7194031,NH3,5,10,7
India,Uttar_Pradesh,Noida,"Sector - 125, Noida - UPPCB",08-11-2025 07:00:00,28.5447608,77.3231257,PM10,154,400,257
India,Uttar_Pradesh,Noida,"Sector - 125, Noida - UPPCB",08-11-2025 07:00:00,28.5447608,77.3231257,SO2,16,28,22
India,Uttar_Pradesh,Noida,"Sector - 62, Noida - IMD",08-11-2025 07:00:00,28.6245479,77.3577104,CO,19,40,38
India,Uttar_Pradesh,Noida,"Sector-116, Noida - UPPCB",08-11-2025 07:00:00,28.569230,77.393848,NO2,68,202,126
India,Uttar_Pradesh,Noida,"Sector-116, Noida - UPPCB",08-11-2025 07:00:00,28.569230,77.393848,NH3,7,15,11
India,Uttar_Pradesh,Noida,"Sector-116, Noida - UPPCB",08-11-2025 07:00:00,28.569230,77.393848,SO2,10,22,17
India,Uttar_Pradesh,Varanasi,"Bhelupur, Varanasi - UPPCB",08-11-2025 07:00:00,25.301778,82.996789,NH3,1,1,1
India,Uttar_Pradesh,Varanasi,"IESD Banaras Hindu University, Varanasi - UPPCB",08-11-2025 07:00:00,25.262326,82.995408,CO,6,26,12
India,Uttar_Pradesh,Varanasi,"Maldahiya, Varanasi - UPPCB",08-11-2025 07:00:00,25.32393,82.99687,PM2.5,28,78,50
India,Uttar_Pradesh,Varanasi,"Maldahiya, Varanasi - UPPCB",08-11-2025 07:00:00,25.32393,82.99687,SO2,28,29,29
India,Uttar_Pradesh,Vrindavan,"Omex Eternity, Vrindavan - UPPCB",08-11-2025 07:00:00,27.5714090,77.6557570,PM2.5,45,154,77
India,Uttar_Pradesh,Vrindavan,"Omex Eternity, Vrindavan - UPPCB",08-11-2025 07:00:00,27.5714090,77.6557570,NH3,1,3,2
India,West_Bengal,Durgapur,"Womens College_City Center, Durgapur - WBPCB (Formerly known as Sidhu Kanhu Indoor Stadium)",08-11-2025 07:00:00,23.549395,87.300496,NO2,28,33,30
India,West_Bengal,Haldia,"Priyambada Housing Estate, Haldia - WBPCB",08-11-2025 07:00:00,22.06047,88.109737,PM2.5,97,194,160
India,West_Bengal,Haldia,"Priyambada Housing Estate, Haldia - WBPCB",08-11-2025 07:00:00,22.06047,88.109737,CO,27,54,36
India,West_Bengal,Haldia,"Priyambada Housing Estate, Haldia - WBPCB",08-11-2025 07:00:00,22.06047,88.109737,OZONE,27,51,33
India,West_Bengal,Howrah,"Belur Math, Howrah - WBPCB",08-11-2025 07:00:00,22.629801,88.352017,NO2,21,50,32
India,West_Bengal,Howrah,"Padmapukur, Howrah - WBPCB",08-11-2025 07:00:00,22.5687319,88.2797276,OZONE,34,128,49
India,West_Bengal,Kolkata,"Ballygunge, Kolkata - WBPCB",08-11-2025 07:00:00,22.5367507,88.3638022,SO2,8,20,13
India,West_Bengal,Kolkata,"Bidhannagar, Kolkata - WBPCB",08-11-2025 07:00:00,22.58157048,88.41002457,SO2,5,9,8
India,West_Bengal,Kolkata,"Jadavpur, Kolkata - WBPCB",08-11-2025 07:00:00,22.49929,88.36917,PM2.5,165,281,231
India,West_Bengal,Kolkata,"Jadavpur, Kolkata - WBPCB",08-11-2025 07:00:00,22.49929,88.36917,NO2,10,45,22
India,West_Bengal,Asansol,"Evelyn Lodge, Asansol - WBPCB",08-11-2025 07:00:00,23.6979360,86.9443950,PM2.5,52,136,82
India,West_Bengal,Asansol,"Evelyn Lodge, Asansol - WBPCB",08-11-2025 07:00:00,23.6979360,86.9443950,NO2,6,22,12
India,West_Bengal,Asansol,"Mahabir Colliery, Asansol - WBPCB",08-11-2025 07:00:00,23.6181830,87.1057180,SO2,4,7,5
India,West_Bengal,Barrackpore,"SVSPA Campus, Barrackpore - WBPCB",08-11-2025 07:00:00,22.7605581,88.3617589,PM2.5,72,141,93
India,West_Bengal,Barrackpore,"SVSPA Campus, Barrackpore - WBPCB",08-11-2025 07:00:00,22.7605581,88.3617589,CO,29,53,35
India,West_Bengal,Howrah,"Botanical Garden, Howrah - WBPCB",08-11-2025 07:00:00,22.554954,88.292568,PM2.5,40,85,62
India,West_Bengal,Howrah,"Botanical Garden, Howrah - WBPCB",08-11-2025 07:00:00,22.554954,88.292568,NO2,13,55,34
India,West_Bengal,Howrah,"Ghusuri, Howrah - WBPCB",08-11-2025 07:00:00,22.611968,88.347422,PM10,93,145,119
India,West_Bengal,Howrah,"Padmapukur, Howrah - WBPCB",08-11-2025 07:00:00,22.5687319,88.2797276,CO,2,61,8
India,Uttarakhand,Rishikesh,"Shivaji Nagar, Rishikesh - UKPCB",08-11-2025 07:00:00,30.075911,78.2859547,PM2.5,28,86,51
India,Uttarakhand,Rishikesh,"Shivaji Nagar, Rishikesh - UKPCB",08-11-2025 07:00:00,30.075911,78.2859547,SO2,5,5,5
India,Uttarakhand,Rishikesh,"Shivaji Nagar, Rishikesh - UKPCB",08-11-2025 07:00:00,30.075911,78.2859547,OZONE,NA,NA,NA
India,West_Bengal,Asansol,"Asansol Court Area, Asansol - WBPCB",08-11-2025 07:00:00,23.685297,86.945968,PM2.5,98,262,170
India,Uttar_Pradesh,Prayagraj,"Motilal Nehru NIT, Prayagraj - UPPCB",08-11-2025 07:00:00,25.494,81.863,CO,12,44,31
India,Uttar_Pradesh,Prayagraj,"Nagar Nigam, Prayagraj - UPPCB",08-11-2025 07:00:00,25.44919916 ,81.82735986 ,CO,22,78,44
India,Uttar_Pradesh,Varanasi,"Ardhali Bazar, Varanasi - UPPCB",08-11-2025 07:00:00,25.3505986,82.9083074,NO2,30,70,42
India,West_Bengal,Kolkata,"Rabindra Bharati University, Kolkata - WBPCB",08-11-2025 07:00:00,22.627847,88.380669,PM2.5,50,119,87
India,West_Bengal,Kolkata,"Victoria, Kolkata - WBPCB",08-11-2025 07:00:00,22.5448082,88.3403691,PM2.5,135,287,226
India,West_Bengal,Kolkata,"Victoria, Kolkata - WBPCB",08-11-2025 07:00:00,22.5448082,88.3403691,NH3,4,5,4
India,West_Bengal,Siliguri,"Ward-32 Bapupara, Siliguri - WBPCB",08-11-2025 07:00:00,26.6879226,88.4152495,NO2,18,24,20
India,West_Bengal,Siliguri,"Ward-32 Bapupara, Siliguri - WBPCB",08-11-2025 07:00:00,26.6879226,88.4152495,SO2,11,13,12
India,Assam,Byrnihat,"Central Academy for SFS, Byrnihat - PCBA",08-11-2025 07:00:00,26.071318,91.87488,PM10,NA,NA,NA
India,Assam,Guwahati,"IITG, Guwahati - PCBA",08-11-2025 07:00:00,26.2028636,91.70046436,PM2.5,10,234,55
India,Assam,Guwahati,"IITG, Guwahati - PCBA",08-11-2025 07:00:00,26.2028636,91.70046436,NH3,5,5,5
India,Assam,Guwahati,"IITG, Guwahati - PCBA",08-11-2025 07:00:00,26.2028636,91.70046436,OZONE,NA,NA,NA
India,Assam,Guwahati,"LGBI Airport, Guwahati - PCBA",08-11-2025 07:00:00,26.10887,91.589544,PM10,38,89,69
India,Assam,Guwahati,"LGBI Airport, Guwahati - PCBA",08-11-2025 07:00:00,26.10887,91.589544,SO2,8,23,14
India,Assam,Guwahati,"LGBI Airport, Guwahati - PCBA",08-11-2025 07:00:00,26.10887,91.589544,CO,22,52,35
India,Assam,Guwahati,"Pan Bazaar, Guwahati - PCBA",08-11-2025 07:00:00,26.187500,91.744194,PM10,10,70,41
India,Assam,Guwahati,"Pan Bazaar, Guwahati - PCBA",08-11-2025 07:00:00,26.187500,91.744194,CO,11,73,48
India,Assam,Guwahati,"Railway Colony, Guwahati - PCBA",08-11-2025 07:00:00,26.181742,91.78063,PM10,24,121,75
India,Bihar,Bhagalpur,"DM Office_Kachari Chowk, Bhagalpur - BSPCB",08-11-2025 07:00:00,25.251013,86.989001,CO,7,19,16
India,Bihar,Bhagalpur,"DM Office_Kachari Chowk, Bhagalpur - BSPCB",08-11-2025 07:00:00,25.251013,86.989001,OZONE,12,22,16
India,Bihar,Bhagalpur,"Mayaganj, Bhagalpur - BSPCB",08-11-2025 07:00:00,25.265194,87.012947,OZONE,24,106,54
India,Bihar,Bihar Sharif,"D M Colony, Bihar Sharif - BSPCB",08-11-2025 07:00:00,25.204762,85.514960,NO2,9,10,9
India,Bihar,Buxar,"Charitra Van, Buxar - BSPCB",08-11-2025 07:00:00,25.567520,83.966379,SO2,3,7,5
India,Bihar,Chhapra,"Darshan Nagar, Chhapra - BSPCB",08-11-2025 07:00:00,25.7808257,84.7446768,PM2.5,5,17,8
India,Bihar,Chhapra,"Darshan Nagar, Chhapra - BSPCB",08-11-2025 07:00:00,25.7808257,84.7446768,PM10,7,26,13
India,Bihar,Chhapra,"Darshan Nagar, Chhapra - BSPCB",08-11-2025 07:00:00,25.7808257,84.7446768,SO2,19,21,20
India,Andhra_Pradesh,Rajamahendravaram,"Anand Kala Kshetram, Rajamahendravaram - APPCB",08-11-2025 07:00:00,16.9872867,81.7363176,PM10,69,138,95
India,Andhra_Pradesh,Rajamahendravaram,"Anand Kala Kshetram, Rajamahendravaram - APPCB",08-11-2025 07:00:00,16.9872867,81.7363176,NH3,2,4,3
India,Andhra_Pradesh,Tirumala,"Toll Gate, Tirumala - APPCB",08-11-2025 07:00:00,13.67,79.35,PM2.5,80,172,103
India,Andhra_Pradesh,Tirumala,"Toll Gate, Tirumala - APPCB",08-11-2025 07:00:00,13.67,79.35,PM10,59,102,77
India,Andhra_Pradesh,Tirumala,"Toll Gate, Tirumala - APPCB",08-11-2025 07:00:00,13.67,79.35,OZONE,7,153,18
India,Andhra_Pradesh,Tirupati,"Vaikuntapuram, Tirupati - APPCB",08-11-2025 07:00:00,13.615387,79.409230,PM2.5,NA,NA,NA
India,Andhra_Pradesh,Tirupati,"Vaikuntapuram, Tirupati - APPCB",08-11-2025 07:00:00,13.615387,79.409230,CO,32,45,39
India,Andhra_Pradesh,Tirupati,"Vaikuntapuram, Tirupati - APPCB",08-11-2025 07:00:00,13.615387,79.409230,OZONE,29,30,30
India,Assam,Nagaon,"Christianpatty, Nagaon - PCBA",08-11-2025 07:00:00,26.349082,92.68449,PM10,NA,NA,NA
India,Assam,Nalbari,"Bata Chowk, Nalbari - PCBA",08-11-2025 07:00:00,26.446912,91.439057,NH3,5,12,8
India,Assam,Silchar,"Tarapur, Silchar - PCBA",08-11-2025 07:00:00,24.82827,92.79525,PM10,44,54,49
India,Assam,Silchar,"Tarapur, Silchar - PCBA",08-11-2025 07:00:00,24.82827,92.79525,NH3,1,1,1
India,Assam,Sivasagar,"Girls College, Sivasagar - PCBA",08-11-2025 07:00:00,26.987634,94.636574,CO,12,64,46
India,Assam,Sivasagar,"Girls College, Sivasagar - PCBA",08-11-2025 07:00:00,26.987634,94.636574,OZONE,2,3,2
India,Bihar,Araria,"Kharahiya Basti, Araria - BSPCB",08-11-2025 07:00:00,26.146529,87.454184,NH3,10,13,11
India,Bihar,Araria,"Kharahiya Basti, Araria - BSPCB",08-11-2025 07:00:00,26.146529,87.454184,SO2,14,22,19
India,Bihar,Aurangabad,"Gurdeo Nagar, Aurangabad - BSPCB",08-11-2025 07:00:00,24.75746,84.366208,PM10,44,120,79
India,Bihar,Begusarai,"Lohiyanagar, Begusarai - BSPCB",08-11-2025 07:00:00,25.42742023,86.13886079,SO2,36,49,42
India,Bihar,Begusarai,"Lohiyanagar, Begusarai - BSPCB",08-11-2025 07:00:00,25.42742023,86.13886079,CO,53,62,55
India,Bihar,Bettiah,"Kamalnath Nagar, Bettiah - BSPCB",08-11-2025 07:00:00,26.80365,84.51954,PM2.5,58,203,126
India,Bihar,Bettiah,"Kamalnath Nagar, Bettiah - BSPCB",08-11-2025 07:00:00,26.80365,84.51954,CO,60,106,101
India,Andhra_Pradesh,Amaravati,"Secretariat, Amaravati - APPCB",08-11-2025 07:00:00,16.5150833,80.5181667,NO2,21,64,34
India,Andhra_Pradesh,Anantapur,"Gulzarpet, Anantapur - APPCB",08-11-2025 07:00:00,14.675886,77.593027,PM10,60,90,71
India,Andhra_Pradesh,Anantapur,"Gulzarpet, Anantapur - APPCB",08-11-2025 07:00:00,14.675886,77.593027,NH3,5,6,5
India,Andhra_Pradesh,Anantapur,"Gulzarpet, Anantapur - APPCB",08-11-2025 07:00:00,14.675886,77.593027,OZONE,25,65,31
India,Andhra_Pradesh,Chittoor,"Gangineni Cheruvu, Chittoor - APPCB",08-11-2025 07:00:00,13.204880,79.097889,PM10,NA,NA,NA
India,Andhra_Pradesh,Chittoor,"Gangineni Cheruvu, Chittoor - APPCB",08-11-2025 07:00:00,13.204880,79.097889,NO2,NA,NA,NA
India,Bihar,Munger,"Town Hall, Munger - BSPCB",08-11-2025 07:00:00,25.376776,86.471523,OZONE,11,35,14
India,Bihar,Muzaffarpur,"Buddha Colony, Muzaffarpur - BSPCB",08-11-2025 07:00:00,26.11442,85.39813,NO2,15,41,28
India,Bihar,Muzaffarpur,"MIT-Daudpur Kothi, Muzaffarpur - BSPCB",08-11-2025 07:00:00,26.1403345,85.3650192,SO2,9,14,13
India,Bihar,Patna,"DRM Office Danapur, Patna - BSPCB",08-11-2025 07:00:00,25.586562,85.043586,PM2.5,14,182,122
India,Bihar,Gaya,"Kareemganj, Gaya - BSPCB",08-11-2025 07:00:00,24.792403,84.992416,SO2,16,17,16
India,Bihar,Gaya,"Kareemganj, Gaya - BSPCB",08-11-2025 07:00:00,24.792403,84.992416,CO,40,42,41
India,Bihar,Gaya,"SFTI Kusdihra, Gaya - BSPCB",08-11-2025 07:00:00,24.762518,84.982348,NO2,19,27,22
India,Andhra_Pradesh,Vijayawada,"Rajiv Nagar, Vijayawada - APPCB",08-11-2025 07:00:00,16.554731,80.649110,NO2,5,14,11
India,Andhra_Pradesh,Vijayawada,"Rajiv Nagar, Vijayawada - APPCB",08-11-2025 07:00:00,16.554731,80.649110,SO2,13,25,18
India,Bihar,Katihar,"Mirchaibari, Katihar - BSPCB",08-11-2025 07:00:00,25.560083,87.553265,PM2.5,42,90,62
India,Bihar,Katihar,"Mirchaibari, Katihar - BSPCB",08-11-2025 07:00:00,25.560083,87.553265,CO,64,82,71
India,Delhi,Delhi,"Chandni Chowk, Delhi - IITM",08-11-2025 07:00:00,28.656756,77.227234,OZONE,1,92,6
India,Delhi,Delhi,"DTU, Delhi - CPCB",08-11-2025 07:00:00,28.7500499,77.1112615,SO2,29,31,30
India,Delhi,Delhi,"DTU, Delhi - CPCB",08-11-2025 07:00:00,28.7500499,77.1112615,CO,19,72,61
India,Delhi,Delhi,"DTU, Delhi - CPCB",08-11-2025 07:00:00,28.7500499,77.1112615,OZONE,6,33,7
India,Delhi,Delhi,"Dr. Karni Singh Shooting Range, Delhi - DPCC",08-11-2025 07:00:00,28.498571,77.264840,SO2,20,32,26
India,Delhi,Delhi,"Dr. Karni Singh Shooting Range, Delhi - DPCC",08-11-2025 07:00:00,28.498571,77.264840,CO,26,78,47
India,Delhi,Delhi,"Dr. Karni Singh Shooting Range, Delhi - DPCC",08-11-2025 07:00:00,28.498571,77.264840,OZONE,9,127,20
India,Delhi,Delhi,"Dwarka-Sector 8, Delhi - DPCC ",08-11-2025 07:00:00,28.5710274,77.0719006,PM10,165,445,291
India,Delhi,Delhi,"Dwarka-Sector 8, Delhi - DPCC ",08-11-2025 07:00:00,28.5710274,77.0719006,SO2,1,17,11
India,Chhattisgarh,Tumidih,"OP Jindal Industrial Park, Tumidih - CECB",08-11-2025 07:00:00,22.06631475,83.33820077,SO2,5,8,6
India,Delhi,Delhi,"Alipur, Delhi - DPCC",08-11-2025 07:00:00,28.815329,77.153010,SO2,25,38,31
India,Delhi,Delhi,"Alipur, Delhi - DPCC",08-11-2025 07:00:00,28.815329,77.153010,CO,44,110,88
India,Delhi,Delhi,"Alipur, Delhi - DPCC",08-11-2025 07:00:00,28.815329,77.153010,OZONE,4,62,8
India,Delhi,Delhi,"Anand Vihar, Delhi - DPCC",08-11-2025 07:00:00,28.647622,77.3158090,PM2.5,177,500,355
India,Delhi,Delhi,"Ashok Vihar, Delhi - DPCC",08-11-2025 07:00:00,28.695381,77.181665,PM10,155,446,309
India,Delhi,Delhi,"Ashok Vihar, Delhi - DPCC",08-11-2025 07:00:00,28.695381,77.181665,NO2,32,142,78
India,Bihar,Patna,"Govt. High School Shikarpur, Patna - BSPCB",08-11-2025 07:00:00,25.592539,85.227158,PM2.5,54,67,59
India,Bihar,Patna,"Govt. High School Shikarpur, Patna - BSPCB",08-11-2025 07:00:00,25.592539,85.227158,NO2,9,19,13
India,Bihar,Patna,"Govt. High School Shikarpur, Patna - BSPCB",08-11-2025 07:00:00,25.592539,85.227158,CO,33,70,39
India,Bihar,Patna,"IGSC Planetarium Complex, Patna - BSPCB",08-11-2025 07:00:00,25.610369,85.132568,CO,34,66,62
India,Bihar,Patna,"Muradpur, Patna - BSPCB",08-11-2025 07:00:00,25.619651,85.147382,PM2.5,70,134,94
India,Bihar,Patna,"Muradpur, Patna - BSPCB",08-11-2025 07:00:00,25.619651,85.147382,NH3,4,5,5
India,Bihar,Patna,"Samanpura, Patna - BSPCB",08-11-2025 07:00:00,25.596727,85.085624,NO2,37,48,43
India,Chandigarh,Chandigarh,"Sector-25, Chandigarh - CPCC",08-11-2025 07:00:00,30.751462,76.762879,OZONE,1,49,4
India,Chandigarh,Chandigarh,"Sector-53, Chandigarh - CPCC",08-11-2025 07:00:00,30.719859,76.738637,PM10,62,175,105
India,Chandigarh,Chandigarh,"Sector-53, Chandigarh - CPCC",08-11-2025 07:00:00,30.719859,76.738637,NH3,4,6,5
India,Chhattisgarh,Bhilai,"32Bungalows, Bhilai - CECB",08-11-2025 07:00:00,21.194815,81.314770,NO2,6,70,31
India,Chhattisgarh,Bilaspur,"Mangala, Bilaspur - NTPC",08-11-2025 07:00:00,22.08815,82.13737,PM2.5,30,67,48
India,Chhattisgarh,Bilaspur,"Mangala, Bilaspur - NTPC",08-11-2025 07:00:00,22.08815,82.13737,SO2,13,24,15
India,Chhattisgarh,Chhal,"Nawapara SECL Colony, Chhal - CECB",08-11-2025 07:00:00,22.118125,83.140608,CO,22,37,27
India,Chhattisgarh,Korba,"Rampur, Korba - CECB",08-11-2025 07:00:00,22.368195,82.746431,SO2,6,9,8
India,Chhattisgarh,Korba,"Urja Nagar, Korba - CECB",08-11-2025 07:00:00,22.348441,82.549611,CO,12,24,21
India,Chhattisgarh,Kunjemura,"OP Jindal School, Kunjemura - CECB",08-11-2025 07:00:00,22.126650,83.483212,OZONE,5,31,5
India,Chhattisgarh,Milupara,"Govt. Higher Secondary School, Milupara - CECB",08-11-2025 07:00:00,22.1910172,83.5197009,OZONE,6,91,12
India,Chhattisgarh,Raipur,"Bhatagaon New ISBT, Raipur - CECB",08-11-2025 07:00:00,21.219665,81.630094,PM2.5,24,87,54
India,Delhi,Delhi,"Aya Nagar, Delhi - IMD",08-11-2025 07:00:00,28.4706914,77.1099364,PM10,133,444,262
India,Delhi,Delhi,"Bawana, Delhi - DPCC",08-11-2025 07:00:00,28.776200,77.051074,NH3,4,7,6
India,Delhi,Delhi,"Bawana, Delhi - DPCC",08-11-2025 07:00:00,28.776200,77.051074,CO,24,76,60
India,Delhi,Delhi,"Chandni Chowk, Delhi - IITM",08-11-2025 07:00:00,28.656756,77.227234,PM10,167,479,349
India,Bihar,Patna,"Samanpura, Patna - BSPCB",08-11-2025 07:00:00,25.596727,85.085624,SO2,1,1,1
India,Bihar,Purnia,"Mariam Nagar, Purnia - BSPCB",08-11-2025 07:00:00,25.366336,87.117468,NO2,5,6,6
India,Bihar,Saharsa,"Police Line, Saharsa - BSPCB",08-11-2025 07:00:00,25.892357,86.590325,CO,34,40,38
India,Bihar,Sasaram,"Dada Peer, Sasaram - BSPCB",08-11-2025 07:00:00,24.952822,84.002396,OZONE,16,18,17
India,Bihar,Siwan,"Chitragupta Nagar, Siwan - BSPCB",08-11-2025 07:00:00,26.2271665,84.3570427,NH3,1,1,1
India,Bihar,Siwan,"Chitragupta Nagar, Siwan - BSPCB",08-11-2025 07:00:00,26.2271665,84.3570427,OZONE,12,14,13
India,Delhi,Delhi,"Rohini, Delhi - DPCC",08-11-2025 07:00:00,28.732528,77.119920,SO2,5,17,8
India,Delhi,Delhi,"Rohini, Delhi - DPCC",08-11-2025 07:00:00,28.732528,77.119920,OZONE,5,208,15
India,Delhi,Delhi,"Shadipur, Delhi - CPCB",08-11-2025 07:00:00,28.6514781,77.1473105,NO2,48,180,81
India,Delhi,Delhi,"Shadipur, Delhi - CPCB",08-11-2025 07:00:00,28.6514781,77.1473105,OZONE,7,55,13
India,Delhi,Delhi,"Sirifort, Delhi - CPCB",08-11-2025 07:00:00,28.5504249,77.2159377,SO2,26,31,29
India,Delhi,Delhi,"Sirifort, Delhi - CPCB",08-11-2025 07:00:00,28.5504249,77.2159377,CO,14,107,72
India,Delhi,Delhi,"Sirifort, Delhi - CPCB",08-11-2025 07:00:00,28.5504249,77.2159377,OZONE,1,27,1
India,Delhi,Delhi,"Sonia Vihar, Delhi - DPCC",08-11-2025 07:00:00,28.710508,77.249485,NO2,24,97,58
India,Delhi,Delhi,"Sonia Vihar, Delhi - DPCC",08-11-2025 07:00:00,28.710508,77.249485,CO,56,122,108
India,Gujarat,Ahmedabad,"SAC ISRO Bopal, Ahmedabad - IITM",08-11-2025 07:00:00,23.041137,72.456691,SO2,1,8,3
India,Gujarat,Ahmedabad,"SAC ISRO Satellite, Ahmedabad - IITM",08-11-2025 07:00:00,23.023389,72.515201,PM10,80,163,121
India,Gujarat,Ankleshwar,"GIDC, Ankleshwar - GPCB",08-11-2025 07:00:00,21.613267,73.010555,NO2,17,24,22
India,Gujarat,Ankleshwar,"GIDC, Ankleshwar - GPCB",08-11-2025 07:00:00,21.613267,73.010555,CO,82,118,110
India,Gujarat,Gandhinagar,"GIFT City, Gandhinagar - IITM",08-11-2025 07:00:00,23.163798,72.677768,NO2,11,84,42
India,Gujarat,Ahmedabad,"Gyaspur, Ahmedabad - IITM",08-11-2025 07:00:00,22.977134,72.553024,NO2,32,158,93
India,Gujarat,Ahmedabad,"Gyaspur, Ahmedabad - IITM",08-11-2025 07:00:00,22.977134,72.553024,NH3,4,59,25
India,Gujarat,Ahmedabad,"Maninagar, Ahmedabad - GPCB",08-11-2025 07:00:00,23.002657,72.591912,PM2.5,54,348,206
India,Gujarat,Ahmedabad,"Maninagar, Ahmedabad - GPCB",08-11-2025 07:00:00,23.002657,72.591912,PM10,35,272,143
India,Gujarat,Ahmedabad,"Maninagar, Ahmedabad - GPCB",08-11-2025 07:00:00,23.002657,72.591912,OZONE,2,80,4
India,Gujarat,Ahmedabad,"Raikhad, Ahmedabad - IITM",08-11-2025 07:00:00,23.020509,72.579261,NH3,5,24,14
India,Delhi,Delhi,"IHBAS, Dilshad Garden, Delhi - CPCB",08-11-2025 07:00:00,28.6811736,77.3025234,PM2.5,85,219,134
India,Delhi,Delhi,"IHBAS, Dilshad Garden, Delhi - CPCB",08-11-2025 07:00:00,28.6811736,77.3025234,SO2,11,32,24
India,Delhi,Delhi,"Jahangirpuri, Delhi - DPCC",08-11-2025 07:00:00,28.732820,77.170633,OZONE,4,190,6
India,Delhi,Delhi,"Jawaharlal Nehru Stadium, Delhi - DPCC",08-11-2025 07:00:00,28.580280,77.233829,PM10,118,268,192
India,Delhi,Delhi,"Jawaharlal Nehru Stadium, Delhi - DPCC",08-11-2025 07:00:00,28.580280,77.233829,SO2,14,40,22
India,Delhi,Delhi,"Lodhi Road, Delhi - IITM",08-11-2025 07:00:00,28.588333,77.221667,PM2.5,99,394,236
India,Delhi,Delhi,"Lodhi Road, Delhi - IITM",08-11-2025 07:00:00,28.588333,77.221667,NO2,42,48,44
India,Delhi,Delhi,"Lodhi Road, Delhi - IMD",08-11-2025 07:00:00,28.5918245,77.2273074,CO,20,72,51
India,Delhi,Delhi,"Major Dhyan Chand National Stadium, Delhi - DPCC",08-11-2025 07:00:00,28.611281,77.237738,PM2.5,130,473,323
India,Delhi,Delhi,"Nehru Nagar, Delhi - DPCC",08-11-2025 07:00:00,28.567890,77.250515,SO2,1,42,20
India,Delhi,Delhi,"North Campus, DU, Delhi - IMD",08-11-2025 07:00:00,28.6573814,77.1585447,PM10,155,446,286
India,Delhi,Delhi,"North Campus, DU, Delhi - IMD",08-11-2025 07:00:00,28.6573814,77.1585447,OZONE,11,325,41
India,Delhi,Delhi,"Patparganj, Delhi - DPCC",08-11-2025 07:00:00,28.623763,77.287209,SO2,7,10,9
India,Delhi,Delhi,"Punjabi Bagh, Delhi - DPCC",08-11-2025 07:00:00,28.674045,77.131023,PM2.5,187,499,373
India,Delhi,Delhi,"Pusa, Delhi - IMD",08-11-2025 07:00:00,28.636110,77.173332,PM2.5,199,472,367
India,Delhi,Delhi,"R K Puram, Delhi - DPCC",08-11-2025 07:00:00,28.563262,77.186937,PM2.5,193,425,337
India,Delhi,Delhi,"R K Puram, Delhi - DPCC",08-11-2025 07:00:00,28.563262,77.186937,PM10,159,473,281
India,Delhi,Delhi,"Wazirpur, Delhi - DPCC",08-11-2025 07:00:00,28.699793,77.165453,NO2,50,131,84
India,Gujarat,Ahmedabad,"Chandkheda, Ahmedabad - IITM",08-11-2025 07:00:00,23.107969,72.574648,NH3,3,32,13
India,Gujarat,Ahmedabad,"Chandkheda, Ahmedabad - IITM",08-11-2025 07:00:00,23.107969,72.574648,OZONE,2,70,3
India,Delhi,Delhi,"Narela, Delhi - DPCC",08-11-2025 07:00:00,28.822836,77.101981,PM2.5,142,500,358
India,Delhi,Delhi,"Narela, Delhi - DPCC",08-11-2025 07:00:00,28.822836,77.101981,CO,26,86,77
India,Delhi,Delhi,"Nehru Nagar, Delhi - DPCC",08-11-2025 07:00:00,28.567890,77.250515,NO2,33,123,70
India,Haryana,Rohtak,"MD University, Rohtak - HSPCB",08-11-2025 07:00:00,28.52123,76.37138,NO2,5,6,5
India,Haryana,Rohtak,"MD University, Rohtak - HSPCB",08-11-2025 07:00:00,28.52123,76.37138,SO2,4,6,5
India,Haryana,Sirsa,"F-Block, Sirsa - HSPCB",08-11-2025 07:00:00,29.536400,75.015800,NO2,7,31,18
India,Haryana,Sonipat,"Murthal, Sonipat - HSPCB",08-11-2025 07:00:00,29.027200,77.062100,NH3,10,21,16
India,Haryana,Sonipat,"Murthal, Sonipat - HSPCB",08-11-2025 07:00:00,29.027200,77.062100,CO,36,38,37
India,Haryana,Yamuna Nagar,"Gobind Pura, Yamuna Nagar - HSPCB",08-11-2025 07:00:00,30.1480566,77.2893471,SO2,9,15,12
India,Himachal Pradesh,Baddi,"HIMUDA Complex Phase-1, Baddi - HPPCB",08-11-2025 07:00:00,30.943887,76.801991,PM2.5,72,481,224
India,Himachal Pradesh,Baddi,"HIMUDA Complex Phase-1, Baddi - HPPCB",08-11-2025 07:00:00,30.943887,76.801991,PM10,107,447,192
India,Haryana,Jind,"Police Lines, Jind - HSPCB",08-11-2025 07:00:00,29.307814,76.337619,PM10,95,284,171
India,Haryana,Jind,"Police Lines, Jind - HSPCB",08-11-2025 07:00:00,29.307814,76.337619,CO,1,130,29
India,Haryana,Kaithal,"Rishi Nagar, Kaithal - HSPCB",08-11-2025 07:00:00,29.8006,76.4155,NH3,3,6,5
India,Haryana,Karnal,"Sector-12, Karnal - HSPCB",08-11-2025 07:00:00,29.695300,77.002700,NO2,9,11,10
India,Haryana,Karnal,"Sector-12, Karnal - HSPCB",08-11-2025 07:00:00,29.695300,77.002700,NH3,6,7,6
India,Haryana,Kurukshetra,"Sector-7, Kurukshetra - HSPCB",08-11-2025 07:00:00,29.966942,76.875879,PM10,76,304,198
India,Haryana,Kurukshetra,"Sector-7, Kurukshetra - HSPCB",08-11-2025 07:00:00,29.966942,76.875879,OZONE,16,75,27
India,Haryana,Bhiwani,"H.B. Colony, Bhiwani - HSPCB",08-11-2025 07:00:00,28.806223,76.141105,PM2.5,197,328,260
India,Haryana,Bhiwani,"H.B. Colony, Bhiwani - HSPCB",08-11-2025 07:00:00,28.806223,76.141105,NO2,1,34,31
India,Haryana,Dharuhera,"Municipal Corporation Office, Dharuhera -  HSPCB",08-11-2025 07:00:00,28.206800,76.799700,PM2.5,60,303,155
India,Haryana,Dharuhera,"Municipal Corporation Office, Dharuhera -  HSPCB",08-11-2025 07:00:00,28.206800,76.799700,OZONE,10,12,11
India,Haryana,Faridabad,"New Industrial Town, Faridabad - HSPCB",08-11-2025 07:00:00,28.39072,77.30059,PM2.5,220,240,229
India,Haryana,Faridabad,"New Industrial Town, Faridabad - HSPCB",08-11-2025 07:00:00,28.39072,77.30059,PM10,161,172,166
India,Haryana,Faridabad,"New Industrial Town, Faridabad - HSPCB",08-11-2025 07:00:00,28.39072,77.30059,NO2,24,26,25
India,Haryana,Gurugram,"Sector-51, Gurugram - HSPCB",08-11-2025 07:00:00,28.4227,77.0667,PM10,133,345,231
India,Haryana,Gurugram,"Teri Gram, Gurugram - HSPCB",08-11-2025 07:00:00,28.4275,77.1465,PM2.5,73,216,129
India,Haryana,Gurugram,"Teri Gram, Gurugram - HSPCB",08-11-2025 07:00:00,28.4275,77.1465,NO2,11,88,34
India,Haryana,Gurugram,"Vikas Sadan, Gurugram - HSPCB",08-11-2025 07:00:00,28.4501238,77.0263051,SO2,2,7,5
India,Haryana,Gurugram,"Vikas Sadan, Gurugram - HSPCB",08-11-2025 07:00:00,28.4501238,77.0263051,CO,92,135,114
India,Haryana,Hisar,"Urban Estate-II, Hisar - HSPCB",08-11-2025 07:00:00,29.140560,75.744941,PM10,105,184,151
India,Haryana,Hisar,"Urban Estate-II, Hisar - HSPCB",08-11-2025 07:00:00,29.140560,75.744941,NH3,4,5,5
India,Gujarat,Gandhinagar,"GIFT City, Gandhinagar - IITM",08-11-2025 07:00:00,23.163798,72.677768,NH3,2,18,9
India,Gujarat,Gandhinagar,"GIFT City, Gandhinagar - IITM",08-11-2025 07:00:00,23.163798,72.677768,CO,13,65,40
India,Gujarat,Gandhinagar,"Sector-10, Gandhinagar - GPCB",08-11-2025 07:00:00,23.221714,72.654328,PM2.5,71,297,148
India,Gujarat,Gandhinagar,"Sector-10, Gandhinagar - GPCB",08-11-2025 07:00:00,23.221714,72.654328,PM10,78,164,129
India,Gujarat,Gandhinagar,"Sector-10, Gandhinagar - GPCB",08-11-2025 07:00:00,23.221714,72.654328,CO,20,50,33
India,Gujarat,Gandhinagar,"Sector-10, Gandhinagar - GPCB",08-11-2025 07:00:00,23.221714,72.654328,OZONE,7,96,12
India,Gujarat,Surat,"Science Center, Surat - SMC",08-11-2025 07:00:00,21.170046,72.795405,PM2.5,NA,NA,NA
India,Gujarat,Surat,"Science Center, Surat - SMC",08-11-2025 07:00:00,21.170046,72.795405,PM10,NA,NA,NA
India,Haryana,Narnaul,"Shastri Nagar, Narnaul - HSPCB",08-11-2025 07:00:00,28.060249,76.113115,CO,30,38,34
India,Haryana,Palwal,"Shyam Nagar, Palwal - HSPCB",08-11-2025 07:00:00,28.1485564,77.3320667,SO2,12,13,12
India,Haryana,Panchgaon,"Amity University, Panchgaon - IITM",08-11-2025 07:00:00,28.3153,76.9143,NH3,6,21,11
India,Haryana,Panipat,"Sector-18, Panipat - HSPCB",08-11-2025 07:00:00,29.432304,76.972765,PM2.5,24,500,235
India,Haryana,Panipat,"Sector-18, Panipat - HSPCB",08-11-2025 07:00:00,29.432304,76.972765,OZONE,30,30,30
India,Haryana,Ambala,"Patti Mehar, Ambala - HSPCB",08-11-2025 07:00:00,30.379589,76.778328,NO2,20,25,22
India,Haryana,Bahadurgarh,"Arya Nagar, Bahadurgarh - HSPCB",08-11-2025 07:00:00,28.6701,76.9254,NO2,12,14,13
India,Haryana,Bahadurgarh,"Arya Nagar, Bahadurgarh - HSPCB",08-11-2025 07:00:00,28.6701,76.9254,SO2,6,7,7
India,Haryana,Bahadurgarh,"Arya Nagar, Bahadurgarh - HSPCB",08-11-2025 07:00:00,28.6701,76.9254,CO,45,50,48
India,Haryana,Bahadurgarh,"Arya Nagar, Bahadurgarh - HSPCB",08-11-2025 07:00:00,28.6701,76.9254,OZONE,16,19,18
India,Haryana,Ballabgarh,"Nathu Colony, Ballabgarh - HSPCB",08-11-2025 07:00:00,28.3419248,77.319699,NO2,19,21,20
India,Haryana,Faridabad,"Sector 11, Faridabad - HSPCB",08-11-2025 07:00:00,28.376058,77.315741,SO2,3,50,23
India,Haryana,Fatehabad,"Huda Sector, Fatehabad - HSPCB",08-11-2025 07:00:00,29.503664,75.467934,PM2.5,137,395,283
India,Haryana,Fatehabad,"Huda Sector, Fatehabad - HSPCB",08-11-2025 07:00:00,29.503664,75.467934,CO,25,46,30
India,Haryana,Gurugram,"NISE Gwal Pahari, Gurugram - IMD",08-11-2025 07:00:00,28.422681,77.148944,PM2.5,68,410,235
India,Haryana,Mandikhera,"General Hospital, Mandikhera - HSPCB",08-11-2025 07:00:00,27.9002,76.9938,PM10,16,79,41
India,Haryana,Mandikhera,"General Hospital, Mandikhera - HSPCB",08-11-2025 07:00:00,27.9002,76.9938,SO2,28,37,34
India,Haryana,Manesar,"Sector-2 IMT, Manesar - HSPCB",08-11-2025 07:00:00,28.360699,76.936090,CO,24,52,39
India,Karnataka,Bengaluru,"Silk Board, Bengaluru - KSPCB",08-11-2025 07:00:00,12.917348,77.622813,NO2,11,18,14
India,Karnataka,Bengaluru,"Silk Board, Bengaluru - KSPCB",08-11-2025 07:00:00,12.917348,77.622813,CO,17,38,26
India,Karnataka,Bengaluru,"Silk Board, Bengaluru - KSPCB",08-11-2025 07:00:00,12.917348,77.622813,OZONE,18,19,19
India,Karnataka,Chamarajanagar,"Urban, Chamarajanagar - KSPCB",08-11-2025 07:00:00,11.55358,76.55521,NO2,13,32,26
India,Karnataka,Chikkamagaluru,"Kalyana Nagara, Chikkamagaluru - KSPCB",08-11-2025 07:00:00,13.328028,75.797056,NH3,NA,NA,NA
India,Karnataka,Chikkamagaluru,"Kalyana Nagara, Chikkamagaluru - KSPCB",08-11-2025 07:00:00,13.328028,75.797056,SO2,NA,NA,NA
India,Karnataka,Chikkamagaluru,"Kalyana Nagara, Chikkamagaluru - KSPCB",08-11-2025 07:00:00,13.328028,75.797056,OZONE,10,45,21
India,Karnataka,Davanagere,"Devaraj Urs Badavane, Davanagere - KSPCB",08-11-2025 07:00:00,14.475800,75.905200,PM2.5,27,92,58
India,Karnataka,Davanagere,"Devaraj Urs Badavane, Davanagere - KSPCB",08-11-2025 07:00:00,14.475800,75.905200,NO2,15,40,25
India,Karnataka,Davanagere,"Devaraj Urs Badavane, Davanagere - KSPCB",08-11-2025 07:00:00,14.475800,75.905200,SO2,1,5,3
India,Karnataka,Davanagere,"Devaraj Urs Badavane, Davanagere - KSPCB",08-11-2025 07:00:00,14.475800,75.905200,OZONE,21,23,22
India,Himachal Pradesh,Baddi,"HIMUDA Complex Phase-1, Baddi - HPPCB",08-11-2025 07:00:00,30.943887,76.801991,NH3,5,8,6
India,Jammu_and_Kashmir,Srinagar,"Rajbagh, Srinagar - JKSPCB",08-11-2025 07:00:00,34.066206,74.819820,SO2,3,4,3
India,Jammu_and_Kashmir,Srinagar,"Rajbagh, Srinagar - JKSPCB",08-11-2025 07:00:00,34.066206,74.819820,CO,12,20,14
India,Jharkhand,Dhanbad,"Sardar Patel Nagar, Dhanbad - JSPCB",08-11-2025 07:00:00,23.80569,86.44268,CO,1,25,9
India,Karnataka,Belgaum,"Ramteerth Nagar, Belgaum - KSPCB",08-11-2025 07:00:00,15.888653,74.541751,PM10,24,154,78
India,Karnataka,Belgaum,"Ramteerth Nagar, Belgaum - KSPCB",08-11-2025 07:00:00,15.888653,74.541751,NH3,NA,NA,NA
India,Karnataka,Bengaluru,"BTM Layout, Bengaluru - CPCB",08-11-2025 07:00:00,12.9135218,77.5950804,NO2,NA,NA,NA
India,Karnataka,Bengaluru,"BTM Layout, Bengaluru - CPCB",08-11-2025 07:00:00,12.9135218,77.5950804,OZONE,22,22,22
