country,state,city,station,last_update,latitude,longitude,pollutant_id,min_value,max_value,avg_value
India,Bihar,Kishanganj,"SDM Office_Khagra, Kishanganj - BSPCB",03-03-2026 15:00:00,26.0881305,87.93840336,CO,17,22,21
India,Bihar,Motihari,"Gandak Colony, Motihari - BSPCB",03-03-2026 15:00:00,26.63086,84.90051,NO2,8,10,9
India,Bihar,Motihari,"Gandak Colony, Motihari - BSPCB",03-03-2026 15:00:00,26.63086,84.90051,SO2,3,3,3
India,Bihar,Motihari,"Gandak Colony, Motihari - BSPCB",03-03-2026 15:00:00,26.63086,84.90051,CO,36,46,40
India,Bihar,Motihari,"Gandak Colony, Motihari - BSPCB",03-03-2026 15:00:00,26.63086,84.90051,OZONE,3,5,4
India,Bihar,Munger,"Town Hall, Munger - BSPCB",03-03-2026 15:00:00,25.376776,86.471523,PM2.5,35,113,67
India,Bihar,Munger,"Town Hall, Munger - BSPCB",03-03-2026 15:00:00,25.376776,86.471523,SO2,7,119,72
India,Bihar,Munger,"Town Hall, Munger - BSPCB",03-03-2026 15:00:00,25.376776,86.471523,CO,12,45,37
India,Bihar,Munger,"Town Hall, Munger - BSPCB",03-03-2026 15:00:00,25.376776,86.471523,OZONE,9,11,10
India,Bihar,Muzaffarpur,"Buddha Colony, Muzaffarpur - BSPCB",03-03-2026 15:00:00,26.11442,85.39813,SO2,5,41,13
India,Bihar,Muzaffarpur,"Buddha Colony, Muzaffarpur - BSPCB",03-03-2026 15:00:00,26.11442,85.39813,OZONE,12,99,54
India,Bihar,Muzaffarpur,"MIT-Daudpur Kothi, Muzaffarpur - BSPCB",03-03-2026 15:00:00,26.1403345,85.3650192,NH3,1,1,1
India,Bihar,Muzaffarpur,"MIT-Daudpur Kothi, Muzaffarpur - BSPCB",03-03-2026 15:00:00,26.1403345,85.3650192,SO2,13,17,14
India,Bihar,Muzaffarpur,"MIT-Daudpur Kothi, Muzaffarpur - BSPCB",03-03-2026 15:00:00,26.1403345,85.3650192,CO,36,52,39
India,Bihar,Muzaffarpur,"MIT-Daudpur Kothi, Muzaffarpur - BSPCB",03-03-2026 15:00:00,26.1403345,85.3650192,OZONE,10,54,36
India,Andhra_Pradesh,Visakhapatnam,"GVM Corporation, Visakhapatnam - APPCB",03-03-2026 15:00:00,17.72,83.3,SO2,7,105,35
India,Arunachal_Pradesh,Naharlagun,"Naharlagun, Naharlagun - APSPCB",03-03-2026 15:00:00,27.103358,93.679645,SO2,9,10,10
India,Assam,Byrnihat,"Central Academy for SFS, Byrnihat - PCBA",03-03-2026 15:00:00,26.071318,91.87488,NH3,4,4,4
India,Assam,Byrnihat,"Central Academy for SFS, Byrnihat - PCBA",03-03-2026 15:00:00,26.071318,91.87488,OZONE,12,54,29
India,Assam,Guwahati,"LGBI Airport, Guwahati - PCBA",03-03-2026 15:00:00,26.10887,91.589544,PM2.5,89,125,106
India,Assam,Guwahati,"LGBI Airport, Guwahati - PCBA",03-03-2026 15:00:00,26.10887,91.589544,NO2,8,29,17
India,Assam,Guwahati,"LGBI Airport, Guwahati - PCBA",03-03-2026 15:00:00,26.10887,91.589544,NH3,4,6,5
India,Assam,Guwahati,"LGBI Airport, Guwahati - PCBA",03-03-2026 15:00:00,26.10887,91.589544,CO,16,129,90
India,Assam,Guwahati,"Pan Bazaar, Guwahati - PCBA",03-03-2026 15:00:00,26.187500,91.744194,CO,12,28,20
India,Assam,Guwahati,"Pan Bazaar, Guwahati - PCBA",03-03-2026 15:00:00,26.187500,91.744194,OZONE,15,25,19
India,Assam,Guwahati,"Railway Colony, Guwahati - PCBA",03-03-2026 15:00:00,26.181742,91.78063,NO2,NA,NA,NA
India,Andhra_Pradesh,Kadapa,"Yerramukkapalli, Kadapa - APPCB",03-03-2026 15:00:00,14.465052,78.824187,PM2.5,50,73,60
India,Andhra_Pradesh,Kadapa,"Yerramukkapalli, Kadapa - APPCB",03-03-2026 15:00:00,14.465052,78.824187,PM10,65,105,82
India,Andhra_Pradesh,Kadapa,"Yerramukkapalli, Kadapa - APPCB",03-03-2026 15:00:00,14.465052,78.824187,NO2,20,26,21
India,Andhra_Pradesh,Kadapa,"Yerramukkapalli, Kadapa - APPCB",03-03-2026 15:00:00,14.465052,78.824187,SO2,13,17,16
India,Andhra_Pradesh,Rajamahendravaram,"Anand Kala Kshetram, Rajamahendravaram - APPCB",03-03-2026 15:00:00,16.9872867,81.7363176,SO2,7,34,16
India,Andhra_Pradesh,Tirupati,"Vaikuntapuram, Tirupati - APPCB",03-03-2026 15:00:00,13.615387,79.409230,PM2.5,NA,NA,NA
India,Andhra_Pradesh,Tirupati,"Vaikuntapuram, Tirupati - APPCB",03-03-2026 15:00:00,13.615387,79.409230,PM10,NA,NA,NA
India,Andhra_Pradesh,Tirupati,"Vaikuntapuram, Tirupati - APPCB",03-03-2026 15:00:00,13.615387,79.409230,NO2,30,32,31
India,Andhra_Pradesh,Vijayawada,"HB Colony, Vijayawada - APPCB",03-03-2026 15:00:00,16.536107,80.594233,PM10,45,65,52
India,Andhra_Pradesh,Vijayawada,"HB Colony, Vijayawada - APPCB",03-03-2026 15:00:00,16.536107,80.594233,NO2,24,24,24
India,Andhra_Pradesh,Vijayawada,"HB Colony, Vijayawada - APPCB",03-03-2026 15:00:00,16.536107,80.594233,NH3,3,3,3
India,Bihar,Begusarai,"Lohiyanagar, Begusarai - BSPCB",03-03-2026 15:00:00,25.42742023,86.13886079,OZONE,32,44,38
India,Bihar,Bettiah,"Kamalnath Nagar, Bettiah - BSPCB",03-03-2026 15:00:00,26.80365,84.51954,PM2.5,20,103,64
India,Bihar,Bettiah,"Kamalnath Nagar, Bettiah - BSPCB",03-03-2026 15:00:00,26.80365,84.51954,CO,42,89,53
India,Bihar,Bettiah,"Kamalnath Nagar, Bettiah - BSPCB",03-03-2026 15:00:00,26.80365,84.51954,OZONE,21,23,22
India,Bihar,Bhagalpur,"DM Office_Kachari Chowk, Bhagalpur - BSPCB",03-03-2026 15:00:00,25.251013,86.989001,NO2,6,10,8
India,Bihar,Bhagalpur,"DM Office_Kachari Chowk, Bhagalpur - BSPCB",03-03-2026 15:00:00,25.251013,86.989001,SO2,34,79,54
India,Bihar,Bihar Sharif,"D M Colony, Bihar Sharif - BSPCB",03-03-2026 15:00:00,25.204762,85.514960,SO2,10,10,10
India,Bihar,Buxar,"Charitra Van, Buxar - BSPCB",03-03-2026 15:00:00,25.567520,83.966379,NO2,9,10,10
India,Bihar,Buxar,"Charitra Van, Buxar - BSPCB",03-03-2026 15:00:00,25.567520,83.966379,NH3,3,3,3
India,Assam,Sivasagar,"Girls College, Sivasagar - PCBA",03-03-2026 15:00:00,26.987634,94.636574,CO,22,60,31
India,Assam,Sivasagar,"Girls College, Sivasagar - PCBA",03-03-2026 15:00:00,26.987634,94.636574,OZONE,3,91,49
India,Bihar,Arrah,"New DM Office, Arrah - BSPCB",03-03-2026 15:00:00,25.5626095,84.663264,PM2.5,35,177,92
India,Bihar,Aurangabad,"Gurdeo Nagar, Aurangabad - BSPCB",03-03-2026 15:00:00,24.75746,84.366208,NH3,NA,NA,NA
India,Bihar,Begusarai,"Lohiyanagar, Begusarai - BSPCB",03-03-2026 15:00:00,25.42742023,86.13886079,PM2.5,25,250,112
India,Andhra_Pradesh,Vijayawada,"HB Colony, Vijayawada - APPCB",03-03-2026 15:00:00,16.536107,80.594233,OZONE,13,25,13
India,Andhra_Pradesh,Vijayawada,"Rajiv Gandhi Park, Vijayawada - APPCB",03-03-2026 15:00:00,16.509717,80.612222,NH3,3,3,3
India,Andhra_Pradesh,Vijayawada,"Rajiv Nagar, Vijayawada - APPCB",03-03-2026 15:00:00,16.554731,80.649110,NH3,3,4,4
India,Andhra_Pradesh,Vijayawada,"Rajiv Nagar, Vijayawada - APPCB",03-03-2026 15:00:00,16.554731,80.649110,SO2,10,14,12
India,Andhra_Pradesh,Visakhapatnam,"GVM Corporation, Visakhapatnam - APPCB",03-03-2026 15:00:00,17.72,83.3,PM10,78,241,146
India,Assam,Nagaon,"Christianpatty, Nagaon - PCBA",03-03-2026 15:00:00,26.349082,92.68449,PM2.5,50,150,86
India,Assam,Nagaon,"Christianpatty, Nagaon - PCBA",03-03-2026 15:00:00,26.349082,92.68449,PM10,56,118,84
India,Assam,Nagaon,"Christianpatty, Nagaon - PCBA",03-03-2026 15:00:00,26.349082,92.68449,NH3,4,4,4
India,Assam,Nagaon,"Christianpatty, Nagaon - PCBA",03-03-2026 15:00:00,26.349082,92.68449,OZONE,8,10,9
India,Assam,Nalbari,"Bata Chowk, Nalbari - PCBA",03-03-2026 15:00:00,26.446912,91.439057,PM2.5,116,167,155
India,Assam,Silchar,"Tarapur, Silchar - PCBA",03-03-2026 15:00:00,24.82827,92.79525,PM2.5,3,70,31
India,Bihar,Gaya,"SFTI Kusdihra, Gaya - BSPCB",03-03-2026 15:00:00,24.762518,84.982348,PM10,55,104,72
India,Bihar,Hajipur,"Industrial Area, Hajipur - BSPCB",03-03-2026 15:00:00,25.697189,85.245900,SO2,6,8,7
India,Bihar,Katihar,"Mirchaibari, Katihar - BSPCB",03-03-2026 15:00:00,25.560083,87.553265,NO2,9,9,9
India,Bihar,Kishanganj,"SDM Office_Khagra, Kishanganj - BSPCB",03-03-2026 15:00:00,26.0881305,87.93840336,NO2,9,12,11
India,Bihar,Chhapra,"Darshan Nagar, Chhapra - BSPCB",03-03-2026 15:00:00,25.7808257,84.7446768,PM10,53,115,82
India,Bihar,Chhapra,"Darshan Nagar, Chhapra - BSPCB",03-03-2026 15:00:00,25.7808257,84.7446768,NO2,2,2,2
India,Bihar,Gaya,"Collectorate, Gaya - BSPCB",03-03-2026 15:00:00,24.7955,84.9994,CO,42,100,47
India,Bihar,Gaya,"Collectorate, Gaya - BSPCB",03-03-2026 15:00:00,24.7955,84.9994,OZONE,17,53,18
India,Bihar,Gaya,"Kareemganj, Gaya - BSPCB",03-03-2026 15:00:00,24.792403,84.992416,OZONE,16,38,29
India,Andhra_Pradesh,Amaravati,"Secretariat, Amaravati - APPCB",03-03-2026 15:00:00,16.5150833,80.5181667,NH3,3,4,4
India,Chhattisgarh,Raipur,"Bhatagaon New ISBT, Raipur - CECB",03-03-2026 15:00:00,21.219665,81.630094,NH3,2,2,2
India,Chhattisgarh,Raipur,"Bhatagaon New ISBT, Raipur - CECB",03-03-2026 15:00:00,21.219665,81.630094,SO2,5,55,18
India,Chhattisgarh,Raipur,"Krishak Nagar, Raipur - CECB",03-03-2026 15:00:00,21.237755,81.705301,PM10,34,157,73
India,Chhattisgarh,Raipur,"Siltara Phase-II, Raipur - CECB",03-03-2026 15:00:00,21.371751,81.664929,PM2.5,28,102,59
India,Chhattisgarh,Tumidih,"OP Jindal Industrial Park, Tumidih - CECB",03-03-2026 15:00:00,22.06631475,83.33820077,PM10,37,208,106
India,Chhattisgarh,Tumidih,"OP Jindal Industrial Park, Tumidih - CECB",03-03-2026 15:00:00,22.06631475,83.33820077,NH3,NA,NA,NA
India,Chhattisgarh,Tumidih,"OP Jindal Industrial Park, Tumidih - CECB",03-03-2026 15:00:00,22.06631475,83.33820077,CO,14,94,25
India,Delhi,Delhi,"Alipur, Delhi - DPCC",03-03-2026 15:00:00,28.815329,77.153010,NO2,1,24,14
India,Delhi,Delhi,"Alipur, Delhi - DPCC",03-03-2026 15:00:00,28.815329,77.153010,NH3,14,18,16
India,Bihar,Sasaram,"Dada Peer, Sasaram - BSPCB",03-03-2026 15:00:00,24.952822,84.002396,PM10,54,156,85
India,Bihar,Sasaram,"Dada Peer, Sasaram - BSPCB",03-03-2026 15:00:00,24.952822,84.002396,NO2,2,7,3
India,Bihar,Siwan,"Chitragupta Nagar, Siwan - BSPCB",03-03-2026 15:00:00,26.2271665,84.3570427,NO2,2,2,2
India,Bihar,Siwan,"Chitragupta Nagar, Siwan - BSPCB",03-03-2026 15:00:00,26.2271665,84.3570427,NH3,1,1,1
India,Chandigarh,Chandigarh,"Sector 22, Chandigarh - CPCC",03-03-2026 15:00:00,30.735567,76.775714,PM10,37,83,56
India,Chandigarh,Chandigarh,"Sector 22, Chandigarh - CPCC",03-03-2026 15:00:00,30.735567,76.775714,SO2,5,23,11
India,Chandigarh,Chandigarh,"Sector 22, Chandigarh - CPCC",03-03-2026 15:00:00,30.735567,76.775714,CO,62,100,78
India,Chandigarh,Chandigarh,"Sector-25, Chandigarh - CPCC",03-03-2026 15:00:00,30.751462,76.762879,PM2.5,61,93,77
India,Chhattisgarh,Bhilai,"32Bungalows, Bhilai - CECB",03-03-2026 15:00:00,21.194815,81.314770,NO2,24,45,31
India,Chhattisgarh,Bhilai,"Civic Center, Bhilai - Bhilai Steel Plant",03-03-2026 15:00:00,21.185571,81.343175,NH3,3,3,3
India,Chhattisgarh,Bhilai,"Civic Center, Bhilai - Bhilai Steel Plant",03-03-2026 15:00:00,21.185571,81.343175,CO,28,34,30
India,Chhattisgarh,Bhilai,"Hathkhoj, Bhilai - CECB",03-03-2026 15:00:00,21.224231,81.408350,PM10,19,103,49
India,Chhattisgarh,Bhilai,"Hathkhoj, Bhilai - CECB",03-03-2026 15:00:00,21.224231,81.408350,SO2,8,69,28
India,Chhattisgarh,Chhal,"Nawapara SECL Colony, Chhal - CECB",03-03-2026 15:00:00,22.118125,83.140608,PM10,40,87,61
India,Chhattisgarh,Chhal,"Nawapara SECL Colony, Chhal - CECB",03-03-2026 15:00:00,22.118125,83.140608,CO,15,48,26
India,Chhattisgarh,Korba,"Rampur, Korba - CECB",03-03-2026 15:00:00,22.368195,82.746431,NH3,1,1,1
India,Chhattisgarh,Korba,"Rampur, Korba - CECB",03-03-2026 15:00:00,22.368195,82.746431,CO,7,51,26
India,Chhattisgarh,Korba,"Urja Nagar, Korba - CECB",03-03-2026 15:00:00,22.348441,82.549611,NO2,15,23,20
India,Chhattisgarh,Korba,"Urja Nagar, Korba - CECB",03-03-2026 15:00:00,22.348441,82.549611,CO,12,34,27
India,Chhattisgarh,Korba,"Urja Nagar, Korba - CECB",03-03-2026 15:00:00,22.348441,82.549611,OZONE,2,20,7
India,Chhattisgarh,Kunjemura,"OP Jindal School, Kunjemura - CECB",03-03-2026 15:00:00,22.126650,83.483212,PM10,68,209,133
India,Chhattisgarh,Raipur,"AIIMS, Raipur - CECB",03-03-2026 15:00:00,21.258815,81.578979,NO2,NA,NA,NA
India,Bihar,Muzaffarpur,"Muzaffarpur Collectorate, Muzaffarpur - BSPCB",03-03-2026 15:00:00,26.1209,85.3647,OZONE,8,23,14
India,Bihar,Patna,"DRM Office Danapur, Patna - BSPCB",03-03-2026 15:00:00,25.586562,85.043586,NH3,10,12,11
India,Bihar,Patna,"DRM Office Danapur, Patna - BSPCB",03-03-2026 15:00:00,25.586562,85.043586,OZONE,8,38,17
India,Bihar,Patna,"Govt. High School Shikarpur, Patna - BSPCB",03-03-2026 15:00:00,25.592539,85.227158,PM10,107,176,143
India,Bihar,Patna,"Govt. High School Shikarpur, Patna - BSPCB",03-03-2026 15:00:00,25.592539,85.227158,SO2,3,7,5
India,Bihar,Patna,"Muradpur, Patna - BSPCB",03-03-2026 15:00:00,25.619651,85.147382,SO2,7,9,8
India,Delhi,Delhi,"Anand Vihar, Delhi - DPCC",03-03-2026 15:00:00,28.647622,77.3158090,CO,114,130,118
India,Delhi,Delhi,"Anand Vihar, Delhi - DPCC",03-03-2026 15:00:00,28.647622,77.3158090,OZONE,9,98,17
India,Delhi,Delhi,"Aya Nagar, Delhi - IMD",03-03-2026 15:00:00,28.4706914,77.1099364,PM2.5,81,262,149
India,Delhi,Delhi,"Bawana, Delhi - DPCC",03-03-2026 15:00:00,28.776200,77.051074,NH3,5,11,7
India,Delhi,Delhi,"Burari Crossing, Delhi - IMD",03-03-2026 15:00:00,28.7256504,77.2011573,PM2.5,80,320,211
India,Delhi,Delhi,"Burari Crossing, Delhi - IMD",03-03-2026 15:00:00,28.7256504,77.2011573,PM10,132,329,173
India,Bihar,Patna,"Rajbansi Nagar, Patna - BSPCB",03-03-2026 15:00:00,25.599486,85.113666,CO,20,92,36
India,Bihar,Purnia,"Mariam Nagar, Purnia - BSPCB",03-03-2026 15:00:00,25.366336,87.117468,NO2,5,7,6
India,Bihar,Saharsa,"Police Line, Saharsa - BSPCB",03-03-2026 15:00:00,25.892357,86.590325,NH3,4,4,4
India,Delhi,Delhi,"Cantonment Area, Delhi - DPCC ",03-03-2026 15:00:00,28.594169 ,77.125100 ,SO2,56,64,60
India,Delhi,Delhi,"Chandni Chowk, Delhi - IITM",03-03-2026 15:00:00,28.656756,77.227234,SO2,7,100,36
India,Delhi,Delhi,"Chandni Chowk, Delhi - IITM",03-03-2026 15:00:00,28.656756,77.227234,OZONE,21,97,77
India,Delhi,Delhi,"Dr. Karni Singh Shooting Range, Delhi - DPCC",03-03-2026 15:00:00,28.498571,77.264840,PM10,147,308,191
India,Delhi,Delhi,"NSIT Dwarka, Delhi - CPCB",03-03-2026 15:00:00,28.60909,77.0325413,NH3,6,8,7
India,Delhi,Delhi,"NSIT Dwarka, Delhi - CPCB",03-03-2026 15:00:00,28.60909,77.0325413,OZONE,14,52,45
India,Delhi,Delhi,"NSUT Jaffarpur, Delhi - DPCC",03-03-2026 15:00:00,28.594004 ,76.909423 ,PM2.5,77,353,251
India,Delhi,Delhi,"NSUT Jaffarpur, Delhi - DPCC",03-03-2026 15:00:00,28.594004 ,76.909423 ,PM10,128,247,175
India,Delhi,Delhi,"NSUT Jaffarpur, Delhi - DPCC",03-03-2026 15:00:00,28.594004 ,76.909423 ,NO2,1,67,31
India,Delhi,Delhi,"NSUT Jaffarpur, Delhi - DPCC",03-03-2026 15:00:00,28.594004 ,76.909423 ,NH3,16,21,19
India,Delhi,Delhi,"NSUT Jaffarpur, Delhi - DPCC",03-03-2026 15:00:00,28.594004 ,76.909423 ,CO,102,118,107
India,Delhi,Delhi,"NSUT Jaffarpur, Delhi - DPCC",03-03-2026 15:00:00,28.594004 ,76.909423 ,OZONE,13,112,71
India,Delhi,Delhi,"Najafgarh, Delhi - DPCC",03-03-2026 15:00:00,28.570173,76.933762,NH3,10,12,11
India,Delhi,Delhi,"Narela, Delhi - DPCC",03-03-2026 15:00:00,28.822836,77.101981,NH3,5,6,5
India,Delhi,Delhi,"Narela, Delhi - DPCC",03-03-2026 15:00:00,28.822836,77.101981,SO2,13,24,19
India,Delhi,Delhi,"Nehru Nagar, Delhi - DPCC",03-03-2026 15:00:00,28.567890,77.250515,PM2.5,93,341,221
India,Delhi,Delhi,"Nehru Nagar, Delhi - DPCC",03-03-2026 15:00:00,28.567890,77.250515,PM10,148,276,182
India,Delhi,Delhi,"Nehru Nagar, Delhi - DPCC",03-03-2026 15:00:00,28.567890,77.250515,NO2,23,78,42
India,Delhi,Delhi,"North Campus, DU, Delhi - IMD",03-03-2026 15:00:00,28.6573814,77.1585447,PM2.5,95,302,173
India,Delhi,Delhi,"North Campus, DU, Delhi - IMD",03-03-2026 15:00:00,28.6573814,77.1585447,PM10,119,277,170
India,Delhi,Delhi,"North Campus, DU, Delhi - IMD",03-03-2026 15:00:00,28.6573814,77.1585447,NO2,27,174,74
India,Delhi,Delhi,"Talkatora Garden, Delhi - DPCC",03-03-2026 15:00:00,28.621810,77.1944633,NH3,6,8,7
India,Delhi,Delhi,"Vivek Vihar, Delhi - DPCC",03-03-2026 15:00:00,28.672342,77.315260,PM10,151,265,184
India,Delhi,Delhi,"Vivek Vihar, Delhi - DPCC",03-03-2026 15:00:00,28.672342,77.315260,NH3,6,8,6
India,Delhi,Delhi,"Vivek Vihar, Delhi - DPCC",03-03-2026 15:00:00,28.672342,77.315260,CO,38,101,46
India,Delhi,Delhi,"Vivek Vihar, Delhi - DPCC",03-03-2026 15:00:00,28.672342,77.315260,OZONE,10,108,72
India,Delhi,Delhi,"Wazirpur, Delhi - DPCC",03-03-2026 15:00:00,28.699793,77.165453,PM2.5,97,325,221
India,Delhi,Delhi,"Wazirpur, Delhi - DPCC",03-03-2026 15:00:00,28.699793,77.165453,NH3,10,16,12
India,Gujarat,Ahmedabad,"Chandkheda, Ahmedabad - IITM",03-03-2026 15:00:00,23.107969,72.574648,PM2.5,55,178,91
India,Delhi,Delhi,"R K Puram, Delhi - DPCC",03-03-2026 15:00:00,28.563262,77.186937,CO,22,82,58
India,Delhi,Delhi,"Rohini, Delhi - DPCC",03-03-2026 15:00:00,28.732528,77.119920,SO2,13,51,23
India,Delhi,Delhi,"Shadipur, Delhi - CPCB",03-03-2026 15:00:00,28.6514781,77.1473105,NH3,11,15,12
India,Delhi,Delhi,"Shadipur, Delhi - CPCB",03-03-2026 15:00:00,28.6514781,77.1473105,SO2,13,19,18
India,Delhi,Delhi,"Sonia Vihar, Delhi - DPCC",03-03-2026 15:00:00,28.710508,77.249485,NO2,16,63,34
India,Delhi,Delhi,"Sonia Vihar, Delhi - DPCC",03-03-2026 15:00:00,28.710508,77.249485,SO2,34,53,42
India,Delhi,Delhi,"Sonia Vihar, Delhi - DPCC",03-03-2026 15:00:00,28.710508,77.249485,CO,35,98,58
India,Delhi,Delhi,"Jahangirpuri, Delhi - DPCC",03-03-2026 15:00:00,28.732820,77.170633,OZONE,3,83,49
India,Delhi,Delhi,"Jawaharlal Nehru Stadium, Delhi - DPCC",03-03-2026 15:00:00,28.580280,77.233829,PM10,141,277,180
India,Delhi,Delhi,"Jawaharlal Nehru Stadium, Delhi - DPCC",03-03-2026 15:00:00,28.580280,77.233829,CO,44,105,52
India,Delhi,Delhi,"Jawaharlal Nehru Stadium, Delhi - DPCC",03-03-2026 15:00:00,28.580280,77.233829,OZONE,5,135,92
India,Delhi,Delhi,"Lodhi Road, Delhi - IMD",03-03-2026 15:00:00,28.5918245,77.2273074,PM10,137,232,168
India,Delhi,Delhi,"Lodhi Road, Delhi - IMD",03-03-2026 15:00:00,28.5918245,77.2273074,CO,19,46,26
India,Delhi,Delhi,"Major Dhyan Chand National Stadium, Delhi - DPCC",03-03-2026 15:00:00,28.611281,77.237738,NH3,15,17,16
India,Delhi,Delhi,"Major Dhyan Chand National Stadium, Delhi - DPCC",03-03-2026 15:00:00,28.611281,77.237738,SO2,20,38,31
India,Delhi,Delhi,"Mandir Marg, Delhi - DPCC",03-03-2026 15:00:00,28.636429,77.201067,PM2.5,12,130,62
India,Delhi,Delhi,"Okhla Phase-2, Delhi - DPCC",03-03-2026 15:00:00,28.530785,77.271255,PM10,163,261,199
India,Delhi,Delhi,"Okhla Phase-2, Delhi - DPCC",03-03-2026 15:00:00,28.530785,77.271255,NH3,8,13,10
India,Delhi,Delhi,"Punjabi Bagh, Delhi - DPCC",03-03-2026 15:00:00,28.674045,77.131023,OZONE,16,72,50
India,Delhi,Delhi,"Pusa, Delhi - IMD",03-03-2026 15:00:00,28.636110,77.173332,OZONE,38,124,48
India,Delhi,Delhi,"IHBAS, Dilshad Garden, Delhi - CPCB",03-03-2026 15:00:00,28.6811736,77.3025234,NH3,5,12,9
India,Delhi,Delhi,"IIT Delhi, Delhi - IITM",03-03-2026 15:00:00,28.542460,77.191651,PM10,139,227,178
India,Delhi,Delhi,"JNU, Delhi - DPCC",03-03-2026 15:00:00,28.540721 ,77.168544 ,SO2,19,23,20
India,Delhi,Delhi,"Mundka, Delhi - DPCC",03-03-2026 15:00:00,28.684678,77.076574,PM10,173,293,218
India,Delhi,Delhi,"NSIT Dwarka, Delhi - CPCB",03-03-2026 15:00:00,28.60909,77.0325413,PM2.5,126,350,207
India,Delhi,Delhi,"Dwarka-Sector 8, Delhi - DPCC ",03-03-2026 15:00:00,28.5710274,77.0719006,NH3,13,26,19
India,Delhi,Delhi,"Dwarka-Sector 8, Delhi - DPCC ",03-03-2026 15:00:00,28.5710274,77.0719006,CO,15,100,34
India,Gujarat,Rajkot,"Mavdi, Rajkot - Nexteng Enviro ",03-03-2026 15:00:00,22.248853,70.776774,OZONE,7,29,19
India,Gujarat,Surat,"Katargam, Surat - Nexteng Enviro",03-03-2026 15:00:00,21.217779 ,72.834787 ,NO2,10,73,30
India,Gujarat,Surat,"Katargam, Surat - Nexteng Enviro",03-03-2026 15:00:00,21.217779 ,72.834787 ,CO,65,123,74
India,Gujarat,Surat,"Science Center, Surat - SMC",03-03-2026 15:00:00,21.170046,72.795405,PM2.5,179,447,251
India,Gujarat,Vadodara,"Bapunagar, Vadodara - Nexteng Enviro",03-03-2026 15:00:00,22.320153,73.216285,CO,60,139,86
India,Gujarat,Vapi,"Phase-1 GIDC, Vapi - GPCB",03-03-2026 15:00:00,20.362421,72.918013,PM10,66,120,97
India,Gujarat,Vatva,"Phase-4 GIDC, Vatva - GPCB",03-03-2026 15:00:00,22.969611,72.643500,NO2,57,142,101
India,Gujarat,Vatva,"Phase-4 GIDC, Vatva - GPCB",03-03-2026 15:00:00,22.969611,72.643500,NH3,7,18,12
India,Gujarat,Vatva,"Phase-4 GIDC, Vatva - GPCB",03-03-2026 15:00:00,22.969611,72.643500,OZONE,29,45,36
India,Haryana,Ambala,"Patti Mehar, Ambala - HSPCB",03-03-2026 15:00:00,30.379589,76.778328,NO2,8,12,10
India,Haryana,Jind,"Police Lines, Jind - HSPCB",03-03-2026 15:00:00,29.307814,76.337619,NH3,1,3,2
India,Haryana,Jind,"Police Lines, Jind - HSPCB",03-03-2026 15:00:00,29.307814,76.337619,CO,4,86,20
India,Haryana,Kaithal,"Rishi Nagar, Kaithal - HSPCB",03-03-2026 15:00:00,29.8006,76.4155,PM2.5,64,84,76
India,Haryana,Karnal,"Sector-12, Karnal - HSPCB",03-03-2026 15:00:00,29.695300,77.002700,NO2,6,7,6
India,Haryana,Karnal,"Sector-12, Karnal - HSPCB",03-03-2026 15:00:00,29.695300,77.002700,CO,1,4,2
India,Haryana,Kurukshetra,"Sector-7, Kurukshetra - HSPCB",03-03-2026 15:00:00,29.966942,76.875879,CO,23,38,30
India,Haryana,Kurukshetra,"Sector-7, Kurukshetra - HSPCB",03-03-2026 15:00:00,29.966942,76.875879,OZONE,20,65,44
India,Haryana,Mandikhera,"General Hospital, Mandikhera(Nuh) - HSPCB",03-03-2026 15:00:00,27.9002,76.9938,PM2.5,25,84,52
India,Haryana,Mandikhera,"General Hospital, Mandikhera(Nuh) - HSPCB",03-03-2026 15:00:00,27.9002,76.9938,PM10,28,94,58
India,Haryana,Mandikhera,"General Hospital, Mandikhera(Nuh) - HSPCB",03-03-2026 15:00:00,27.9002,76.9938,SO2,31,37,34
India,Haryana,Mandikhera,"General Hospital, Mandikhera(Nuh) - HSPCB",03-03-2026 15:00:00,27.9002,76.9938,OZONE,22,30,28
India,Haryana,Faridabad,"Sector 30, Faridabad - HSPCB",03-03-2026 15:00:00,28.4417,77.3217,NO2,36,39,38
India,Haryana,Faridabad,"Sector 30, Faridabad - HSPCB",03-03-2026 15:00:00,28.4417,77.3217,NH3,11,12,11
India,Haryana,Faridabad,"Sector 30, Faridabad - HSPCB",03-03-2026 15:00:00,28.4417,77.3217,CO,20,65,56
India,Haryana,Fatehabad,"Huda Sector, Fatehabad - HSPCB",03-03-2026 15:00:00,29.503664,75.467934,PM10,17,54,31
India,Haryana,Fatehabad,"Huda Sector, Fatehabad - HSPCB",03-03-2026 15:00:00,29.503664,75.467934,NH3,13,15,14
India,Haryana,Fatehabad,"Huda Sector, Fatehabad - HSPCB",03-03-2026 15:00:00,29.503664,75.467934,CO,25,33,27
India,Haryana,Fatehabad,"Huda Sector, Fatehabad - HSPCB",03-03-2026 15:00:00,29.503664,75.467934,OZONE,57,81,71
India,Haryana,Gurugram,"NISE Gwal Pahari, Gurugram - IMD",03-03-2026 15:00:00,28.422681,77.148944,CO,17,46,28
India,Haryana,Gurugram,"Sector-51, Gurugram - HSPCB",03-03-2026 15:00:00,28.4227,77.0667,NO2,4,10,6
India,Haryana,Gurugram,"Sector-51, Gurugram - HSPCB",03-03-2026 15:00:00,28.4227,77.0667,CO,26,63,39
India,Haryana,Gurugram,"Vikas Sadan, Gurugram - HSPCB",03-03-2026 15:00:00,28.4501238,77.0263051,OZONE,4,31,22
India,Haryana,Bahadurgarh,"Arya Nagar, Bahadurgarh - HSPCB",03-03-2026 15:00:00,28.6701,76.9254,PM2.5,70,337,241
India,Haryana,Bahadurgarh,"Arya Nagar, Bahadurgarh - HSPCB",03-03-2026 15:00:00,28.6701,76.9254,NH3,12,13,13
India,Haryana,Bhiwani,"H.B. Colony, Bhiwani - HSPCB",03-03-2026 15:00:00,28.806223,76.141105,PM10,44,268,72
India,Haryana,Bhiwani,"H.B. Colony, Bhiwani - HSPCB",03-03-2026 15:00:00,28.806223,76.141105,SO2,1,8,5
India,Haryana,Bhiwani,"H.B. Colony, Bhiwani - HSPCB",03-03-2026 15:00:00,28.806223,76.141105,CO,14,20,18
India,Haryana,Charkhi Dadri,"Mini Secretariat, Charkhi Dadri - HSPCB",03-03-2026 15:00:00,28.593883,76.270653,PM2.5,257,311,291
India,Haryana,Charkhi Dadri,"Mini Secretariat, Charkhi Dadri - HSPCB",03-03-2026 15:00:00,28.593883,76.270653,NO2,9,20,15
India,Gujarat,Ahmedabad,"Maninagar, Ahmedabad - GPCB",03-03-2026 15:00:00,23.002657,72.591912,OZONE,42,109,72
India,Gujarat,Ahmedabad,"Raikhad, Ahmedabad - IITM",03-03-2026 15:00:00,23.020509,72.579261,PM2.5,76,302,160
India,Gujarat,Ahmedabad,"Raikhad, Ahmedabad - IITM",03-03-2026 15:00:00,23.020509,72.579261,PM10,110,224,158
India,Gujarat,Ahmedabad,"Raikhad, Ahmedabad - IITM",03-03-2026 15:00:00,23.020509,72.579261,NH3,13,114,46
India,Gujarat,Ahmedabad,"Rakhial, Ahmedabad - IITM",03-03-2026 15:00:00,23.016834,72.625775,NH3,4,8,5
India,Gujarat,Ahmedabad,"Rakhial, Ahmedabad - IITM",03-03-2026 15:00:00,23.016834,72.625775,CO,33,172,50
India,Gujarat,Ahmedabad,"SAC ISRO Bopal, Ahmedabad - IITM",03-03-2026 15:00:00,23.041137,72.456691,NO2,11,78,33
India,Gujarat,Ahmedabad,"SVPI Airport Hansol, Ahmedabad - IITM",03-03-2026 15:00:00,23.076793,72.627874,PM2.5,44,356,182
India,Gujarat,Ahmedabad,"SVPI Airport Hansol, Ahmedabad - IITM",03-03-2026 15:00:00,23.076793,72.627874,PM10,95,230,132
India,Gujarat,Ahmedabad,"SVPI Airport Hansol, Ahmedabad - IITM",03-03-2026 15:00:00,23.076793,72.627874,NH3,1,11,4
India,Gujarat,Ankleshwar,"GIDC, Ankleshwar - GPCB",03-03-2026 15:00:00,21.613267,73.010555,SO2,28,29,29
India,Gujarat,Bhavnagar,"Vidhyanagar, Bhavnagar - Nexteng Enviro",03-03-2026 15:00:00,21.755417,72.139056,NO2,60,103,89
India,Gujarat,Gandhinagar,"Sector-10, Gandhinagar - GPCB",03-03-2026 15:00:00,23.221714,72.654328,SO2,6,24,16
India,Gujarat,Mehsana,"Sadanand Nagar, Mehsana - Nexteng Enviro",03-03-2026 15:00:00,23.593150,72.372792,PM10,45,255,109
India,Gujarat,Mehsana,"Sadanand Nagar, Mehsana - Nexteng Enviro",03-03-2026 15:00:00,23.593150,72.372792,CO,114,120,116
India,Gujarat,Rajkot,"Mavdi, Rajkot - Nexteng Enviro ",03-03-2026 15:00:00,22.248853,70.776774,NO2,9,104,30
India,Haryana,Dharuhera,"Municipal Corporation Office, Dharuhera -  HSPCB",03-03-2026 15:00:00,28.206800,76.799700,PM10,115,193,162
India,Haryana,Dharuhera,"Municipal Corporation Office, Dharuhera -  HSPCB",03-03-2026 15:00:00,28.206800,76.799700,OZONE,6,45,30
India,Haryana,Faridabad,"New Industrial Town, Faridabad - HSPCB",03-03-2026 15:00:00,28.39072,77.30059,SO2,8,8,8
India,Haryana,Faridabad,"New Industrial Town, Faridabad - HSPCB",03-03-2026 15:00:00,28.39072,77.30059,OZONE,29,34,31
India,Haryana,Manesar,"Sector-2 IMT, Manesar - HSPCB",03-03-2026 15:00:00,28.360699,76.936090,PM10,98,137,118
India,Haryana,Manesar,"Sector-2 IMT, Manesar - HSPCB",03-03-2026 15:00:00,28.360699,76.936090,OZONE,10,51,35
India,Haryana,Narnaul,"Shastri Nagar, Narnaul - HSPCB",03-03-2026 15:00:00,28.060249,76.113115,OZONE,8,30,19
India,Haryana,Sirsa,"F-Block, Sirsa - HSPCB",03-03-2026 15:00:00,29.536400,75.015800,PM2.5,71,287,170
India,Haryana,Sonipat,"Murthal, Sonipat - HSPCB",03-03-2026 15:00:00,29.027200,77.062100,PM10,53,113,85
India,Haryana,Yamuna Nagar,"Gobind Pura, Yamuna Nagar - HSPCB",03-03-2026 15:00:00,30.1480566,77.2893471,NH3,1,4,4
India,Haryana,Yamuna Nagar,"Gobind Pura, Yamuna Nagar - HSPCB",03-03-2026 15:00:00,30.1480566,77.2893471,CO,27,52,50
India,Haryana,Yamuna Nagar,"Gobind Pura, Yamuna Nagar - HSPCB",03-03-2026 15:00:00,30.1480566,77.2893471,OZONE,8,33,33
India,Himachal Pradesh,Baddi,"HIMUDA Complex Phase-1, Baddi - HPPCB",03-03-2026 15:00:00,30.943887,76.801991,NO2,9,57,30
India,Jammu_and_Kashmir,Pampore,"Khrew, Pampore - JKPCC",03-03-2026 15:00:00,34.031606,75.009712,NO2,10,70,34
India,Jammu_and_Kashmir,Srinagar,"Khunmoh, Srinagar - JKPCC",03-03-2026 15:00:00,34.06313,74.96017,SO2,2,4,3
India,Jammu_and_Kashmir,Srinagar,"Rajbagh, Srinagar - JKPCC",03-03-2026 15:00:00,34.066206,74.819820,PM2.5,15,33,23
India,Karnataka,Bengaluru,"BTM Layout, Bengaluru - CPCB",03-03-2026 15:00:00,12.9135218,77.5950804,PM2.5,39,65,52
India,Karnataka,Bengaluru,"BTM Layout, Bengaluru - CPCB",03-03-2026 15:00:00,12.9135218,77.5950804,NO2,26,27,27
India,Karnataka,Bengaluru,"Bapuji Nagar, Bengaluru - KSPCB",03-03-2026 15:00:00,12.951913,77.539784,OZONE,46,206,206
India,Karnataka,Bengaluru,"Hebbal, Bengaluru - KSPCB",03-03-2026 15:00:00,13.029152,77.585901,PM2.5,69,151,108
India,Karnataka,Bengaluru,"Hebbal, Bengaluru - KSPCB",03-03-2026 15:00:00,13.029152,77.585901,OZONE,7,20,13
India,Karnataka,Bengaluru,"Hombegowda Nagar, Bengaluru - KSPCB",03-03-2026 15:00:00,12.938539,77.590100,NH3,3,10,4
India,Karnataka,Mysuru,"Hebbal 1st Stage, Mysuru - KSPCB",03-03-2026 15:00:00,12.21041,76.37376,NH3,3,6,5
India,Karnataka,Mysuru,"Hebbal 1st Stage, Mysuru - KSPCB",03-03-2026 15:00:00,12.21041,76.37376,SO2,2,8,4
India,Karnataka,Shivamogga,"Vinoba Nagara, Shivamogga - KSPCB",03-03-2026 15:00:00,13.940000,75.555917,CO,12,46,33
India,Karnataka,Yadgir,"Collector Office, Yadgir - KSPCB",03-03-2026 15:00:00,16.7602,77.1428,PM2.5,52,162,100
India,Haryana,Panchgaon,"Amity University, Panchgaon - IITM",03-03-2026 15:00:00,28.3153,76.9143,NO2,2,39,16
India,Haryana,Panchgaon,"Amity University, Panchgaon - IITM",03-03-2026 15:00:00,28.3153,76.9143,NH3,4,10,7
India,Haryana,Panipat,"Sector-18, Panipat - HSPCB",03-03-2026 15:00:00,29.432304,76.972765,PM10,111,144,128
India,Haryana,Rohtak,"MD University, Rohtak - HSPCB",03-03-2026 15:00:00,28.52123,76.37138,SO2,NA,NA,NA
India,Karnataka,Bengaluru,"Silk Board, Bengaluru - KSPCB",03-03-2026 15:00:00,12.917348,77.622813,OZONE,21,57,44
India,Karnataka,Chikkaballapur,"Chikkaballapur Rural, Chikkaballapur - KSPCB",03-03-2026 15:00:00,13.428828,77.731418,NH3,NA,NA,NA
India,Karnataka,Chikkamagaluru,"Kalyana Nagara, Chikkamagaluru - KSPCB",03-03-2026 15:00:00,13.328028,75.797056,PM2.5,50,82,64
India,Karnataka,Bengaluru,"Hombegowda Nagar, Bengaluru - KSPCB",03-03-2026 15:00:00,12.938539,77.590100,SO2,6,41,19
India,Karnataka,Bengaluru,"Jigani, Bengaluru - KSPCB",03-03-2026 15:00:00,12.7816279,77.6299145,PM2.5,50,313,90
India,Karnataka,Bengaluru,"Peenya, Bengaluru - CPCB",03-03-2026 15:00:00,13.0270199,77.494094,PM2.5,18,59,35
India,Karnataka,Kalaburagi,"Mahatma Basaveswar Colony, Kalaburgi - KSPCB",03-03-2026 15:00:00,17.336318,76.847397,SO2,2,4,1
India,Karnataka,Kalaburagi,"Mahatma Basaveswar Colony, Kalaburgi - KSPCB",03-03-2026 15:00:00,17.336318,76.847397,OZONE,29,33,30
India,Karnataka,Dharwad,"Kalabhavan, Dharwad - KSPCB",03-03-2026 15:00:00,15.459706,75.008381,CO,28,83,65
India,Haryana,Palwal,"Shyam Nagar, Palwal - HSPCB",03-03-2026 15:00:00,28.1485564,77.3320667,NH3,8,9,9
India,Madhya Pradesh,Gwalior,"Deen Dayal Nagar, Gwalior - MPPCB",03-03-2026 15:00:00,26.259242,78.216432,PM2.5,44,420,156
India,Madhya Pradesh,Gwalior,"Deen Dayal Nagar, Gwalior - MPPCB",03-03-2026 15:00:00,26.259242,78.216432,NO2,11,18,15
India,Madhya Pradesh,Gwalior,"Deen Dayal Nagar, Gwalior - MPPCB",03-03-2026 15:00:00,26.259242,78.216432,NH3,2,7,4
India,Madhya Pradesh,Gwalior,"Maharaj Bada, Gwalior - MPPCB",03-03-2026 15:00:00,26.200388,78.147714,NO2,8,84,24
India,Madhya Pradesh,Indore,"Airport Area, Indore - IMC",03-03-2026 15:00:00,22.7289,75.8076,PM10,31,352,96
India,Madhya Pradesh,Indore,"Airport Area, Indore - IMC",03-03-2026 15:00:00,22.7289,75.8076,OZONE,8,23,20
India,Madhya Pradesh,Indore,"Chhoti Gwaltoli, Indore - MPPCB",03-03-2026 15:00:00,22.4310,75.5213,PM2.5,NA,NA,NA
India,Madhya Pradesh,Indore,"Chhoti Gwaltoli, Indore - MPPCB",03-03-2026 15:00:00,22.4310,75.5213,PM10,NA,NA,NA
India,Madhya Pradesh,Indore,"Maguda Nagar, Indore - IMC",03-03-2026 15:00:00,22.7524,75.8872,CO,33,119,101
India,Maharashtra,Boisar,"Khaira, Boisar - MPCB",03-03-2026 15:00:00,19.786089,72.757971,SO2,2,30,9
India,Maharashtra,Boisar,"Khaira, Boisar - MPCB",03-03-2026 15:00:00,19.786089,72.757971,OZONE,3,129,60
India,Maharashtra,Chandrapur,"Chauhan Colony, Chandrapur - MPCB",03-03-2026 15:00:00,19.962900,79.298714,CO,26,33,29
India,Maharashtra,Chandrapur,"MIDC Khutala, Chandrapur - MPCB",03-03-2026 15:00:00,19.9775302,79.2337086,SO2,1,96,28
India,Maharashtra,Chandrapur,"MIDC Khutala, Chandrapur - MPCB",03-03-2026 15:00:00,19.9775302,79.2337086,CO,35,41,40
India,Maharashtra,Dhule,"Deopur, Dhule - MPCB",03-03-2026 15:00:00,20.918946,74.776388,PM10,64,250,148
India,Maharashtra,Dhule,"Deopur, Dhule - MPCB",03-03-2026 15:00:00,20.918946,74.776388,NH3,2,3,2
India,Maharashtra,Dhule,"Deopur, Dhule - MPCB",03-03-2026 15:00:00,20.918946,74.776388,OZONE,29,84,31
India,Maharashtra,Jalgaon,"Prabhat Colony, Jalgaon - MPCB",03-03-2026 15:00:00,21.001264,75.565602,SO2,12,100,29
India,Maharashtra,Amravati,"Shivneri Colony, Amravati - MPCB",03-03-2026 15:00:00,20.9402359,77.7895248,PM2.5,56,95,72
India,Maharashtra,Amravati,"Shivneri Colony, Amravati - MPCB",03-03-2026 15:00:00,20.9402359,77.7895248,NH3,1,3,3
India,Maharashtra,Amravati,"Shivneri Colony, Amravati - MPCB",03-03-2026 15:00:00,20.9402359,77.7895248,SO2,5,13,8
India,Maharashtra,Amravati,"Shri Shivaji Science College, Amravati - MPCB",03-03-2026 15:00:00,20.939198,77.765701,PM2.5,34,194,72
India,Maharashtra,Amravati,"Shri Shivaji Science College, Amravati - MPCB",03-03-2026 15:00:00,20.939198,77.765701,CO,30,104,34
India,Maharashtra,Aurangabad,"MIDC Chilkalthana, Aurangabad - MPCB",03-03-2026 15:00:00,19.875620,75.387310,SO2,12,25,16
India,Maharashtra,Aurangabad,"More Chowk Waluj, Aurangabad - MPCB",03-03-2026 15:00:00,19.8389439,75.244448,PM2.5,37,323,104
India,Madhya Pradesh,Satna,"Bandhavgar Colony, Satna - Birla Cement",03-03-2026 15:00:00,24.58434363,80.8549414,SO2,19,21,20
India,Madhya Pradesh,Singrauli,"Suryakiran Bhawan NCL, Singrauli - MPPCB",03-03-2026 15:00:00,24.108970,82.645580,SO2,36,54,41
India,Madhya Pradesh,Singrauli,"Suryakiran Bhawan NCL, Singrauli - MPPCB",03-03-2026 15:00:00,24.108970,82.645580,OZONE,1,78,44
India,Maharashtra,Ahmednagar,"Tarakpur, Ahmednagar - MPCB",03-03-2026 15:00:00,19.10122,74.73339,PM10,60,124,83
India,Maharashtra,Ahmednagar,"Tarakpur, Ahmednagar - MPCB",03-03-2026 15:00:00,19.10122,74.73339,NH3,5,7,6
India,Maharashtra,Ahmednagar,"Tarakpur, Ahmednagar - MPCB",03-03-2026 15:00:00,19.10122,74.73339,OZONE,23,157,108
India,Madhya Pradesh,Jabalpur,"Suhagi, Jabalpur - JMC",03-03-2026 15:00:00,23.218135,79.957770,PM2.5,18,270,90
India,Madhya Pradesh,Katni,"Gole Bazar, Katni - MPPCB",03-03-2026 15:00:00,23.50016,80.23284,PM2.5,27,307,137
India,Madhya Pradesh,Katni,"Gole Bazar, Katni - MPPCB",03-03-2026 15:00:00,23.50016,80.23284,OZONE,10,100,73
India,Madhya Pradesh,Mandideep,"Sector-D Industrial Area, Mandideep - MPPCB",03-03-2026 15:00:00,23.108440,77.511428,PM10,74,325,144
India,Madhya Pradesh,Sagar,"Civil Lines, Sagar - MPPCB",03-03-2026 15:00:00,23.838586,78.759431,NH3,4,9,6
India,Karnataka,Yadgir,"Collector Office, Yadgir - KSPCB",03-03-2026 15:00:00,16.7602,77.1428,OZONE,18,19,18
India,Kerala,Kannur,"Thavakkara, Kannur - Kerala PCB",03-03-2026 15:00:00,11.875000,75.373200,NH3,1,2,2
India,Kerala,Kollam,"Polayathode, Kollam - Kerala PCB",03-03-2026 15:00:00,8.8787,76.6073,PM2.5,41,49,46
India,Kerala,Thiruvananthapuram,"Plammoodu, Thiruvananthapuram - Kerala PCB",03-03-2026 15:00:00,8.5149093,76.9435879,PM2.5,30,58,42
India,Kerala,Thiruvananthapuram,"Plammoodu, Thiruvananthapuram - Kerala PCB",03-03-2026 15:00:00,8.5149093,76.9435879,OZONE,2,57,38
India,Maharashtra,Badlapur,"Katrap, Badlapur - MPCB",03-03-2026 15:00:00,19.16485,73.23409,CO,24,66,53
India,Maharashtra,Belapur,"CBD Belapur, Belapur - MPCB",03-03-2026 15:00:00,19.0243902,73.0406721,NO2,33,60,49
India,Maharashtra,Belapur,"CBD Belapur, Belapur - MPCB",03-03-2026 15:00:00,19.0243902,73.0406721,OZONE,1,59,36
India,Maharashtra,Bhiwandi,"Gokul Nagar, Bhiwandi - MPCB",03-03-2026 15:00:00,19.309073,73.057223,PM10,84,185,132
India,Maharashtra,Bhiwandi,"Gokul Nagar, Bhiwandi - MPCB",03-03-2026 15:00:00,19.309073,73.057223,NH3,4,7,5
India,Maharashtra,Bhiwandi,"Gokul Nagar, Bhiwandi - MPCB",03-03-2026 15:00:00,19.309073,73.057223,SO2,3,17,10
India,Madhya Pradesh,Jabalpur,"Govindh Bhavan Colony, Jabalpur - JMC",03-03-2026 15:00:00,23.163174,79.973061,SO2,4,7,6
India,Madhya Pradesh,Jabalpur,"Govindh Bhavan Colony, Jabalpur - JMC",03-03-2026 15:00:00,23.163174,79.973061,OZONE,5,48,21
India,Madhya Pradesh,Jabalpur,"Gupteshwar, Jabalpur - JMC",03-03-2026 15:00:00,23.142888,79.916147,NO2,7,111,45
India,Madhya Pradesh,Jabalpur,"Marhatal, Jabalpur - MPPCB",03-03-2026 15:00:00,23.168606,79.932247,PM2.5,25,356,144
India,Madhya Pradesh,Jabalpur,"Marhatal, Jabalpur - MPPCB",03-03-2026 15:00:00,23.168606,79.932247,CO,4,132,37
India,Madhya Pradesh,Bhopal,"Paryavaran Parisar, Bhopal - MPPCB",03-03-2026 15:00:00,23.210494,77.425409,NH3,4,6,5
India,Madhya Pradesh,Bhopal,"Paryavaran Parisar, Bhopal - MPPCB",03-03-2026 15:00:00,23.210494,77.425409,CO,4,109,9
India,Madhya Pradesh,Bhopal,"T T Nagar, Bhopal - MPPCB",03-03-2026 15:00:00,23.233584,77.400574,PM2.5,33,397,175
India,Madhya Pradesh,Dewas,"Bhopal Chauraha, Dewas - MPPCB",03-03-2026 15:00:00,22.9682591,76.064118,OZONE,30,90,44
India,Maharashtra,Mumbai,"Khindipada-Bhandup West, Mumbai - IITM",03-03-2026 15:00:00,19.1653323,72.922099,CO,4,95,49
India,Maharashtra,Mumbai,"Mazgaon, Mumbai - IITM",03-03-2026 15:00:00,18.96702,72.84214,PM10,64,154,110
India,Maharashtra,Mumbai,"Mazgaon, Mumbai - IITM",03-03-2026 15:00:00,18.96702,72.84214,NO2,38,109,64
India,Maharashtra,Mumbai,"Mindspace-Malad West, Mumbai - MPCB",03-03-2026 15:00:00,19.1878657,72.8304069,PM10,30,184,91
India,Maharashtra,Mumbai,"Mindspace-Malad West, Mumbai - MPCB",03-03-2026 15:00:00,19.1878657,72.8304069,OZONE,1,28,10
India,Maharashtra,Mumbai,"Mulund West, Mumbai - MPCB",03-03-2026 15:00:00,19.1750,72.9419,PM2.5,30,365,154
India,Maharashtra,Mumbai,"Navy Nagar-Colaba, Mumbai - IITM",03-03-2026 15:00:00,18.897756,72.813320,NH3,3,5,4
India,Maharashtra,Nagpur,"Ambazari, Nagpur - MPCB",03-03-2026 15:00:00,21.121801,79.04952,NH3,1,13,4
India,Maharashtra,Nagpur,"Mahal, Nagpur - MPCB",03-03-2026 15:00:00,21.14472,79.107595,PM2.5,64,353,186
India,Maharashtra,Nagpur,"Mahal, Nagpur - MPCB",03-03-2026 15:00:00,21.14472,79.107595,NO2,22,112,44
India,Maharashtra,Nagpur,"Opp GPO Civil Lines, Nagpur - MPCB",03-03-2026 15:00:00,21.152875,79.0517531,NH3,5,9,7
India,Maharashtra,Nagpur,"Opp GPO Civil Lines, Nagpur - MPCB",03-03-2026 15:00:00,21.152875,79.0517531,SO2,3,93,27
India,Maharashtra,Nagpur,"Opp GPO Civil Lines, Nagpur - MPCB",03-03-2026 15:00:00,21.152875,79.0517531,OZONE,2,20,16
India,Maharashtra,Nagpur,"Ram Nagar, Nagpur - MPCB",03-03-2026 15:00:00,21.143383,79.048912,CO,9,110,30
India,Maharashtra,Jalgaon,"Prabhat Colony, Jalgaon - MPCB",03-03-2026 15:00:00,21.001264,75.565602,OZONE,15,95,68
India,Maharashtra,Jalna,"Old MIDC, Jalna - MPCB",03-03-2026 15:00:00,19.854616,75.905894,NO2,3,10,6
India,Maharashtra,Jalna,"Old MIDC, Jalna - MPCB",03-03-2026 15:00:00,19.854616,75.905894,SO2,15,22,18
India,Maharashtra,Kalyan,"Pimpleshwar Mandir, Kalyan - MPCB",03-03-2026 15:00:00,19.192056,72.9585188,PM10,98,101,98
India,Maharashtra,Kalyan,"Pimpleshwar Mandir, Kalyan - MPCB",03-03-2026 15:00:00,19.192056,72.9585188,SO2,10,40,19
India,Maharashtra,Kolhapur,"Shivaji University, Kolhapur - MPCB",03-03-2026 15:00:00,16.6870449,74.2505872,SO2,NA,NA,NA
India,Maharashtra,Mumbai,"Ghatkopar, Mumbai - BMC",03-03-2026 15:00:00,19.083694,72.920967,CO,8,129,39
India,Maharashtra,Mumbai,"Kandivali East, Mumbai - MPCB",03-03-2026 15:00:00,19.205800,72.868200,CO,21,22,22
India,Maharashtra,Mumbai,"Kandivali West, Mumbai - BMC",03-03-2026 15:00:00,19.215859,72.831718,PM2.5,31,305,164
India,Maharashtra,Mumbai,"Kandivali West, Mumbai - BMC",03-03-2026 15:00:00,19.215859,72.831718,PM10,78,155,121
India,Maharashtra,Mumbai,"Kandivali West, Mumbai - BMC",03-03-2026 15:00:00,19.215859,72.831718,NH3,2,3,3
India,Maharashtra,Mumbai,"Kherwadi_Bandra East, Mumbai - MPCB",03-03-2026 15:00:00,19.0632143,72.8456324,NH3,4,14,9
India,Maharashtra,Malegaon,"Mahesh Nagar, Malegaon - MPCB",03-03-2026 15:00:00,20.555712,74.529236,CO,6,110,20
India,Maharashtra,Malegaon,"Mahesh Nagar, Malegaon - MPCB",03-03-2026 15:00:00,20.555712,74.529236,OZONE,1,95,74
India,Maharashtra,Mira-Bhayandar,"Bhayandar West, Mira-Bhayandar - MPCB",03-03-2026 15:00:00,19.296481,72.840923,CO,NA,NA,NA
India,Maharashtra,Mira-Bhayandar,"Bhayandar West, Mira-Bhayandar - MPCB",03-03-2026 15:00:00,19.296481,72.840923,OZONE,NA,NA,NA
India,Maharashtra,Mumbai,"Borivali East, Mumbai - IITM",03-03-2026 15:00:00,19.23241,72.86895,PM10,60,153,105
India,Maharashtra,Mumbai,"Borivali East, Mumbai - IITM",03-03-2026 15:00:00,19.23241,72.86895,NO2,4,25,14
India,Maharashtra,Mumbai,"Borivali East, Mumbai - IITM",03-03-2026 15:00:00,19.23241,72.86895,NH3,1,5,4
India,Maharashtra,Mumbai,"Borivali East, Mumbai - IITM",03-03-2026 15:00:00,19.23241,72.86895,CO,34,80,56
India,Maharashtra,Mumbai,"Byculla, Mumbai - BMC",03-03-2026 15:00:00,18.9767,72.8380,PM2.5,33,141,58
India,Maharashtra,Mumbai,"Byculla, Mumbai - BMC",03-03-2026 15:00:00,18.9767,72.8380,OZONE,1,59,43
India,Maharashtra,Mumbai,"Chakala-Andheri East, Mumbai - IITM",03-03-2026 15:00:00,19.11074,72.86084,PM2.5,NA,NA,NA
India,Maharashtra,Mumbai,"Chakala-Andheri East, Mumbai - IITM",03-03-2026 15:00:00,19.11074,72.86084,NO2,49,102,74
India,Maharashtra,Mumbai,"Shivaji Nagar, Mumbai - BMC",03-03-2026 15:00:00,19.060498,72.923356,SO2,1,13,6
India,Maharashtra,Mumbai,"Siddharth Nagar-Worli, Mumbai - IITM",03-03-2026 15:00:00,19.000083,72.813993,NO2,35,100,58
India,Maharashtra,Mumbai,"Vile Parle West, Mumbai - MPCB",03-03-2026 15:00:00,19.10861,72.83622,PM10,37,220,111
India,Maharashtra,Mumbai,"Vile Parle West, Mumbai - MPCB",03-03-2026 15:00:00,19.10861,72.83622,NH3,6,6,6
India,Maharashtra,Mumbai,"Chhatrapati Shivaji Intl. Airport (T2), Mumbai - MPCB",03-03-2026 15:00:00,19.10078,72.87462,PM10,68,190,108
India,Maharashtra,Mumbai,"Colaba, Mumbai - MPCB",03-03-2026 15:00:00,18.910000,72.820000,SO2,NA,NA,NA
India,Maharashtra,Mumbai,"Deonar, Mumbai - IITM",03-03-2026 15:00:00,19.04946,72.9230,PM2.5,22,185,94
India,Maharashtra,Nanded,"Sneh Nagar, Nanded - MPCB",03-03-2026 15:00:00,19.173852,77.296291,PM10,50,247,99
India,Maharashtra,Solapur,"Ratandeep Housing Society, Solapur - MPCB",03-03-2026 15:00:00,17.65439,75.90649,PM10,64,312,115
India,Maharashtra,Solapur,"Ratandeep Housing Society, Solapur - MPCB",03-03-2026 15:00:00,17.65439,75.90649,CO,20,152,36
India,Maharashtra,Thane,"Kasarvadavali, Thane - MPCB",03-03-2026 15:00:00,19.26777,72.97182,NH3,4,18,9
India,Maharashtra,Thane,"Upvan Fort, Thane - MPCB",03-03-2026 15:00:00,19.222279,72.957979,OZONE,1,57,40
India,Maharashtra,Ulhasnagar,"Sidhi Vinayak Nagar, Ulhasnagar - MPCB",03-03-2026 15:00:00,19.235581,73.159121,PM2.5,40,379,169
India,Maharashtra,Ulhasnagar,"Sidhi Vinayak Nagar, Ulhasnagar - MPCB",03-03-2026 15:00:00,19.235581,73.159121,PM10,52,421,165
India,Maharashtra,Ulhasnagar,"Sidhi Vinayak Nagar, Ulhasnagar - MPCB",03-03-2026 15:00:00,19.235581,73.159121,SO2,4,104,26
India,Maharashtra,Ulhasnagar,"Sidhi Vinayak Nagar, Ulhasnagar - MPCB",03-03-2026 15:00:00,19.235581,73.159121,OZONE,7,79,46
India,Maharashtra,Virar,"Bolinj, Virar - MPCB",03-03-2026 15:00:00,19.4458210,72.7988231,PM2.5,2,156,83
India,Maharashtra,Virar,"Bolinj, Virar - MPCB",03-03-2026 15:00:00,19.4458210,72.7988231,SO2,1,30,10
India,Meghalaya,Shillong,"JN Stadium, Shillong - Meghalaya PCB",03-03-2026 15:00:00,25.5803419,91.8942571,PM2.5,NA,NA,NA
India,Meghalaya,Shillong,"JN Stadium, Shillong - Meghalaya PCB",03-03-2026 15:00:00,25.5803419,91.8942571,PM10,NA,NA,NA
India,Maharashtra,Parbhani,"Masoom Colony, Parbhani - MPCB",03-03-2026 15:00:00,19.265594,76.761463,PM10,35,111,56
India,Maharashtra,Pimpri-Chinchwad,"Park Street Wakad, Pimpri Chinchwad - MPCB",03-03-2026 15:00:00,18.59051,73.77946,NO2,34,85,58
India,Maharashtra,Pimpri-Chinchwad,"Park Street Wakad, Pimpri Chinchwad - MPCB",03-03-2026 15:00:00,18.59051,73.77946,NH3,3,5,4
India,Maharashtra,Pimpri-Chinchwad,"Savta Mali Nagar, Pimpri-Chinchwad - IITM",03-03-2026 15:00:00,18.614767,73.799516,OZONE,2,38,25
India,Maharashtra,Pimpri-Chinchwad,"Thergaon, Pimpri Chinchwad - MPCB",03-03-2026 15:00:00,18.616318,73.765797,PM2.5,49,145,78
India,Meghalaya,Shillong,"JN Stadium, Shillong - Meghalaya PCB",03-03-2026 15:00:00,25.5803419,91.8942571,SO2,23,32,30
India,Mizoram,Aizawl,"Sikulpuikawn, Aizawl - Mizoram PCB",03-03-2026 15:00:00,23.7176342,92.7192841,PM10,56,59,58
India,Nagaland,Kohima,"PWD Junction, Kohima - NPCB",03-03-2026 15:00:00,25.6635413,94.0989878,OZONE,2,8,3
India,Odisha,Balasore,"Kalidaspur, Balasore - OSPCB",03-03-2026 15:00:00,21.51161,86.89088,NH3,1,2,1
India,Maharashtra,Navi Mumbai,"Mahape, Navi Mumbai - MPCB",03-03-2026 15:00:00,19.1135051,73.008978,NO2,84,86,85
India,Maharashtra,Navi Mumbai,"Mahape, Navi Mumbai - MPCB",03-03-2026 15:00:00,19.1135051,73.008978,OZONE,8,10,10
India,Maharashtra,Navi Mumbai,"Sanpada, Navi Mumbai - MPCB",03-03-2026 15:00:00,19.0575752,73.0151367,PM10,93,198,143
India,Maharashtra,Navi Mumbai,"Sector-2E Kalamboli, Navi Mumbai - MPCB",03-03-2026 15:00:00,19.02579,73.10297,PM2.5,27,120,63
India,Maharashtra,Navi Mumbai,"Sector-2E Kalamboli, Navi Mumbai - MPCB",03-03-2026 15:00:00,19.02579,73.10297,NH3,4,14,8
India,Maharashtra,Navi Mumbai,"Sector-2E Kalamboli, Navi Mumbai - MPCB",03-03-2026 15:00:00,19.02579,73.10297,SO2,1,11,4
India,Odisha,Barbil,"Forest Office, Barbil - OSPCB",03-03-2026 15:00:00,22.1166054,85.3945546,PM2.5,15,273,64
India,Odisha,Barbil,"Forest Office, Barbil - OSPCB",03-03-2026 15:00:00,22.1166054,85.3945546,OZONE,10,172,172
India,Odisha,Baripada,"Meher Colony, Baripada - OSPCB",03-03-2026 15:00:00,21.941841,86.728318,OZONE,14,88,60
India,Odisha,Bhubaneswar,"Lingraj Mandir, Bhubaneswar - OSPCB",03-03-2026 15:00:00,20.240790,85.836784,OZONE,18,195,85
India,Odisha,Bhubaneswar,"Patia, Bhubaneswar - OSPCB",03-03-2026 15:00:00,20.34652,85.81630,NO2,11,37,21
India,Maharashtra,Nashik,"Hirawadi, Nashik - MPCB",03-03-2026 15:00:00,20.021503,73.813844,SO2,8,29,15
India,Maharashtra,Nashik,"Hirawadi, Nashik - MPCB",03-03-2026 15:00:00,20.021503,73.813844,CO,12,64,28
India,Maharashtra,Nashik,"Hirawadi, Nashik - MPCB",03-03-2026 15:00:00,20.021503,73.813844,OZONE,4,81,59
India,Maharashtra,Nashik,"Pandav Nagari, Nashik - MPCB",03-03-2026 15:00:00,19.9591346,73.7788008,PM2.5,50,224,101
India,Maharashtra,Nashik,"Pandav Nagari, Nashik - MPCB",03-03-2026 15:00:00,19.9591346,73.7788008,NO2,5,50,13
India,Maharashtra,Pune,"Dhankawadi, Pune - IITM",03-03-2026 15:00:00,18.459883,73.852193,PM10,76,210,134
India,Maharashtra,Pune,"Hadapsar, Pune - IITM",03-03-2026 15:00:00,18.501793,73.927532,NO2,71,209,119
India,Maharashtra,Pune,"Mhada Colony, Pune - IITM",03-03-2026 15:00:00,18.573040,73.927715,NO2,17,112,73
India,Maharashtra,Pune,"Mhada Colony, Pune - IITM",03-03-2026 15:00:00,18.573040,73.927715,CO,2,94,52
India,Maharashtra,Pune,"Revenue Colony-Shivajinagar, Pune - IITM",03-03-2026 15:00:00,18.530085,73.849598,OZONE,8,69,46
India,Maharashtra,Pune,"Savitribai Phule Pune University, Pune - MPCB",03-03-2026 15:00:00,18.547056,73.826908,NO2,12,75,41
India,Maharashtra,Pune,"Transport Nagar-Nigdi, Pune - IITM",03-03-2026 15:00:00,18.664282,73.763966,OZONE,3,34,22
India,Odisha,Byasanagar,"Ferro Chrome Colony, Byasanagar - OSPCB",03-03-2026 15:00:00,20.94185,86.11510,PM10,71,350,144
India,Odisha,Talcher,"Talcher Coalfields,Talcher - OSPCB",03-03-2026 15:00:00,20.9360711,85.1707021,SO2,6,75,24
India,Puducherry,Puducherry,"Jawahar Nagar, Puducherry - PPCC",03-03-2026 15:00:00,11.9309,79.8027,OZONE,9,79,56
India,Punjab,Amritsar,"Golden Temple, Amritsar - PPCB",03-03-2026 15:00:00,31.620000,74.876512,PM2.5,40,76,58
India,Punjab,Bathinda,"Hardev Nagar, Bathinda - PPCB",03-03-2026 15:00:00,30.233011,74.907758,CO,57,80,78
India,Punjab,Jalandhar,"Civil Line, Jalandhar - PPCB",03-03-2026 15:00:00,31.321907,75.578914,PM10,96,138,119
India,Punjab,Jalandhar,"Civil Line, Jalandhar - PPCB",03-03-2026 15:00:00,31.321907,75.578914,NO2,32,37,35
India,Punjab,Jalandhar,"Civil Line, Jalandhar - PPCB",03-03-2026 15:00:00,31.321907,75.578914,SO2,20,23,21
India,Rajasthan,Ajmer,"Civil Lines,  Ajmer - RSPCB",03-03-2026 15:00:00,26.470859,74.646594,SO2,3,6,4
India,Rajasthan,Ajmer,"Civil Lines,  Ajmer - RSPCB",03-03-2026 15:00:00,26.470859,74.646594,CO,15,75,29
India,Rajasthan,Ajmer,"Civil Lines,  Ajmer - RSPCB",03-03-2026 15:00:00,26.470859,74.646594,OZONE,6,85,54
India,Rajasthan,Alwar,"Moti Doongri, Alwar - RSPCB",03-03-2026 15:00:00,27.554793,76.611536,PM10,110,182,136
India,Rajasthan,Banswara,"Rati Talai, Banswara - RSPCB",03-03-2026 15:00:00,23.555190,74.440010,NH3,4,11,6
India,Rajasthan,Banswara,"Rati Talai, Banswara - RSPCB",03-03-2026 15:00:00,23.555190,74.440010,CO,18,107,25
India,Rajasthan,Baran,"Bamboliya, Baran - RSPCB",03-03-2026 15:00:00,25.106006,76.469948,PM10,71,165,97
India,Rajasthan,Baran,"Bamboliya, Baran - RSPCB",03-03-2026 15:00:00,25.106006,76.469948,OZONE,9,129,90
India,Punjab,Khanna,"Kalal Majra, Khanna - PPCB",03-03-2026 15:00:00,30.736056 ,76.209694,PM10,59,240,105
India,Punjab,Khanna,"Kalal Majra, Khanna - PPCB",03-03-2026 15:00:00,30.736056 ,76.209694,NH3,7,7,7
India,Punjab,Ludhiana,"Punjab Agricultural University, Ludhiana - PPCB",03-03-2026 15:00:00,30.9028,75.8086,NH3,8,9,8
India,Punjab,Mandi Gobindgarh,"RIMT University, Mandi Gobindgarh - PPCB",03-03-2026 15:00:00,30.649961,76.331442,SO2,1,94,27
India,Punjab,Mandi Gobindgarh,"RIMT University, Mandi Gobindgarh - PPCB",03-03-2026 15:00:00,30.649961,76.331442,CO,8,128,85
India,Punjab,Patiala,"Model Town, Patiala - PPCB",03-03-2026 15:00:00,30.349388,76.366642,NO2,16,19,18
India,Rajasthan,Bhiwadi,"RIICO Ind. Area III, Bhiwadi - RSPCB",03-03-2026 15:00:00,28.194909,76.862296,PM2.5,84,327,247
India,Rajasthan,Bhiwadi,"RIICO Ind. Area III, Bhiwadi - RSPCB",03-03-2026 15:00:00,28.194909,76.862296,OZONE,4,41,24
India,Rajasthan,Bhiwadi,"Vasundhara Nagar_UIT, Bhiwadi - RSPCB",03-03-2026 15:00:00,28.207266,76.829265,CO,32,107,57
India,Rajasthan,Bikaner,"MM Ground, Bikaner - RSPCB",03-03-2026 15:00:00,28.018792,73.292658,SO2,5,20,10
India,Odisha,Rourkela,"Sector-2, Rourkela - OSPCB",03-03-2026 15:00:00,22.24500000,84.88111111,PM10,50,106,70
India,Odisha,Suakati,"OMC Colony, Suakati - OSPCB",03-03-2026 15:00:00,21.606865,85.510538,CO,28,36,31
India,Odisha,Talcher,"Talcher Coalfields,Talcher - OSPCB",03-03-2026 15:00:00,20.9360711,85.1707021,NO2,24,85,56
India,Odisha,Byasanagar,"Ferro Chrome Colony, Byasanagar - OSPCB",03-03-2026 15:00:00,20.94185,86.11510,CO,5,12,10
India,Odisha,Cuttack,"CDA Area, Cuttack - OSPCB",03-03-2026 15:00:00,20.48891     ,85.84768     ,NO2,18,49,32
India,Odisha,Keonjhar,"Jagamohanpur, Keonjhar - OSPCB",03-03-2026 15:00:00,21.643900,85.599355,SO2,10,28,16
India,Odisha,Nayagarh,"Dabuna, Nayagarh - OSPCB",03-03-2026 15:00:00,21.847279,85.416905,NO2,8,10,10
India,Odisha,Rourkela,"Fertilizer Township, Rourkela - OSPCB",03-03-2026 15:00:00,22.18972222,84.86277778,PM2.5,76,98,86
India,Rajasthan,Bharatpur,"Krishna Nagar, Bharatpur - RSPCB",03-03-2026 15:00:00,27.215415,77.50873,SO2,2,45,15
India,Rajasthan,Jaipur,"Shastri Nagar, Jaipur - RSPCB",03-03-2026 15:00:00,26.9502929,75.730943,OZONE,14,49,37
India,Rajasthan,Jaisalmer,"Sadar Bazar, Jaisalmer - RSPCB",03-03-2026 15:00:00,26.912329,70.909168,NH3,5,13,7
India,Rajasthan,Jalore,"Mudtra Sili, Jalore - RSPCB",03-03-2026 15:00:00,25.344694,72.626208,PM2.5,NA,NA,NA
India,Rajasthan,Jalore,"Mudtra Sili, Jalore - RSPCB",03-03-2026 15:00:00,25.344694,72.626208,PM10,NA,NA,NA
India,Rajasthan,Jalore,"Mudtra Sili, Jalore - RSPCB",03-03-2026 15:00:00,25.344694,72.626208,NO2,NA,NA,NA
India,Rajasthan,Jalore,"Mudtra Sili, Jalore - RSPCB",03-03-2026 15:00:00,25.344694,72.626208,SO2,NA,NA,NA
India,Rajasthan,Jalore,"Mudtra Sili, Jalore - RSPCB",03-03-2026 15:00:00,25.344694,72.626208,OZONE,6,103,70
India,Rajasthan,Jhalawar,"Rajlaxmi Nagar, Jhalawar - RSPCB",03-03-2026 15:00:00,24.588397,76.172782,PM2.5,27,331,146
India,Rajasthan,Jhalawar,"Rajlaxmi Nagar, Jhalawar - RSPCB",03-03-2026 15:00:00,24.588397,76.172782,PM10,79,232,137
India,Rajasthan,Jhalawar,"Rajlaxmi Nagar, Jhalawar - RSPCB",03-03-2026 15:00:00,24.588397,76.172782,NO2,47,103,80
India,Rajasthan,Jhunjhunu,"Indra Nagar, Jhunjhunu - RSPCB",03-03-2026 15:00:00,28.108988,75.386577,NO2,7,121,37
India,Rajasthan,Jhunjhunu,"Indra Nagar, Jhunjhunu - RSPCB",03-03-2026 15:00:00,28.108988,75.386577,CO,7,44,20
India,Rajasthan,Jhunjhunu,"Indra Nagar, Jhunjhunu - RSPCB",03-03-2026 15:00:00,28.108988,75.386577,OZONE,7,137,110
India,Rajasthan,Jodhpur,"Collectorate, Jodhpur - RSPCB",03-03-2026 15:00:00,26.268249,73.0193853,CO,5,119,26
India,Rajasthan,Jaipur,"Mansarovar Sector-12, Jaipur - RSPCB",03-03-2026 15:00:00,26.843698,75.766894,CO,2,111,36
India,Rajasthan,Jaipur,"Mansarovar Sector-12, Jaipur - RSPCB",03-03-2026 15:00:00,26.843698,75.766894,OZONE,3,133,102
India,Rajasthan,Jaipur,"Police Commissionerate, Jaipur - RSPCB",03-03-2026 15:00:00,26.9164092,75.7994901,PM10,64,174,109
India,Rajasthan,Jaipur,"Police Commissionerate, Jaipur - RSPCB",03-03-2026 15:00:00,26.9164092,75.7994901,NH3,1,5,2
India,Rajasthan,Jaipur,"RIICO Sitapura, Jaipur - RSPCB",03-03-2026 15:00:00,26.786682,75.827928,NH3,5,11,7
India,Rajasthan,Jaipur,"RIICO Sitapura, Jaipur - RSPCB",03-03-2026 15:00:00,26.786682,75.827928,SO2,2,6,4
India,Rajasthan,Jaipur,"Sector-2 Murlipura, Jaipur - RSPCB",03-03-2026 15:00:00,26.960669,75.771817,PM10,61,284,131
India,Rajasthan,Jaipur,"Sector-2 Murlipura, Jaipur - RSPCB",03-03-2026 15:00:00,26.960669,75.771817,NO2,17,111,48
India,Rajasthan,Jaipur,"Sector-2 Murlipura, Jaipur - RSPCB",03-03-2026 15:00:00,26.960669,75.771817,CO,4,94,33
India,Rajasthan,Jaipur,"Sector-2 Murlipura, Jaipur - RSPCB",03-03-2026 15:00:00,26.960669,75.771817,OZONE,5,77,63
India,TamilNadu,Chennai,"Kodungaiyur, Chennai - TNPCB",03-03-2026 15:00:00,13.1278,80.2642,NO2,11,16,13
India,TamilNadu,Chennai,"Kodungaiyur, Chennai - TNPCB",03-03-2026 15:00:00,13.1278,80.2642,CO,42,63,52
India,TamilNadu,Chennai,"Manali Village, Chennai - TNPCB",03-03-2026 15:00:00,13.1662,80.2584,PM10,51,137,80
India,TamilNadu,Chennai,"Manali Village, Chennai - TNPCB",03-03-2026 15:00:00,13.1662,80.2584,NH3,1,2,2
India,TamilNadu,Chennai,"Manali, Chennai - CPCB",03-03-2026 15:00:00,13.164544,80.26285,SO2,14,27,19
India,TamilNadu,Chennai,"Manali, Chennai - CPCB",03-03-2026 15:00:00,13.164544,80.26285,CO,12,114,38
India,TamilNadu,Chennai,"Perungudi, Chennai - TNPCB",03-03-2026 15:00:00,12.9533,80.2357,NO2,5,18,9
India,TamilNadu,Chennai,"Royapuram, Chennai - TNPCB",03-03-2026 15:00:00,13.1036,80.2909,SO2,4,7,6
India,TamilNadu,Chennai,"Velachery Res. Area, Chennai - CPCB",03-03-2026 15:00:00,13.0052189,80.2398125,PM2.5,67,162,104
India,Rajasthan,Pali,"Indira Colony Vistar, Pali - RSPCB",03-03-2026 15:00:00,25.771061, 73.340227,CO,12,88,43
India,Rajasthan,Rajsamand,"Dhoinda, Rajsamand - RSPCB",03-03-2026 15:00:00,25.036360,73.883502,NH3,6,17,11
India,Rajasthan,Sawai Madhopur,"Sahu Nagar, Sawai Madhopur - RSPCB",03-03-2026 15:00:00,26.031443,76.359327,NH3,8,13,10
India,Rajasthan,Sawai Madhopur,"Sahu Nagar, Sawai Madhopur - RSPCB",03-03-2026 15:00:00,26.031443,76.359327,SO2,2,13,6
India,Rajasthan,Sikar,"Radhakishan Pura, Sikar - RSPCB",03-03-2026 15:00:00,27.608912,75.153302,PM2.5,35,348,132
India,Rajasthan,Sikar,"Radhakishan Pura, Sikar - RSPCB",03-03-2026 15:00:00,27.608912,75.153302,PM10,68,385,165
India,Rajasthan,Sikar,"Radhakishan Pura, Sikar - RSPCB",03-03-2026 15:00:00,27.608912,75.153302,NO2,11,84,35
India,Rajasthan,Sirohi,"Vedhaynath Colony, Sirohi - RSPCB",03-03-2026 15:00:00,24.885261,72.857549,PM10,62,131,87
India,Rajasthan,Dausa,"Khatikan Mohalla, Dausa - RSPCB",03-03-2026 15:00:00,26.895552,76.334753,PM10,39,115,77
India,Rajasthan,Dausa,"Khatikan Mohalla, Dausa - RSPCB",03-03-2026 15:00:00,26.895552,76.334753,NO2,15,78,44
India,Rajasthan,Dausa,"Khatikan Mohalla, Dausa - RSPCB",03-03-2026 15:00:00,26.895552,76.334753,SO2,4,7,7
India,Rajasthan,Dausa,"Khatikan Mohalla, Dausa - RSPCB",03-03-2026 15:00:00,26.895552,76.334753,CO,34,78,53
India,Rajasthan,Dholpur,"Raja Ganj, Dholpur - RSPCB",03-03-2026 15:00:00,26.699557,77.898881,NO2,18,70,30
India,Rajasthan,Dungarpur,"Bhoiwada, Dungarpur - RSPCB",03-03-2026 15:00:00,23.837789,73.714926,NO2,15,27,21
India,Rajasthan,Dungarpur,"Bhoiwada, Dungarpur - RSPCB",03-03-2026 15:00:00,23.837789,73.714926,OZONE,9,73,53
India,Rajasthan,Jaipur,"Adarsh Nagar, Jaipur - RSPCB",03-03-2026 15:00:00,26.902909,75.836858,NO2,15,88,43
India,Rajasthan,Jodhpur,"Jhalamand, Jodhpur - RSPCB",03-03-2026 15:00:00,26.215415,73.070156,NO2,4,81,32
India,Rajasthan,Jodhpur,"Jhalamand, Jodhpur - RSPCB",03-03-2026 15:00:00,26.215415,73.070156,SO2,2,9,4
India,Rajasthan,Jodhpur,"Samrat Ashok Udhyan, Jodhpur - RSPCB",03-03-2026 15:00:00,26.253384,72.976571,NO2,4,133,34
India,Rajasthan,Jodhpur,"Samrat Ashok Udhyan, Jodhpur - RSPCB",03-03-2026 15:00:00,26.253384,72.976571,OZONE,9,213,122
India,Rajasthan,Karauli,"Satyawati Vihar, Karauli - RSPCB",03-03-2026 15:00:00,26.506177,77.025989,PM10,67,143,105
India,Rajasthan,Kota,"Dhanmandi, Kota - RSPCB",03-03-2026 15:00:00,25.164090,75.858137,PM2.5,35,227,87
India,Rajasthan,Bundi,"New Colony, Bundi - RSPCB",03-03-2026 15:00:00,25.435774,75.644272,PM2.5,25,100,60
India,Rajasthan,Bundi,"New Colony, Bundi - RSPCB",03-03-2026 15:00:00,25.435774,75.644272,OZONE,17,122,95
India,Rajasthan,Chittorgarh,"Shastri Nagar, Chittorgarh - RSPCB",03-03-2026 15:00:00,24.892047,74.623527,NH3,7,17,12
India,Rajasthan,Churu,"Subash Chowk, Churu - RSPCB",03-03-2026 15:00:00,28.296139,74.961696,NO2,9,57,22
India,Rajasthan,Churu,"Subash Chowk, Churu - RSPCB",03-03-2026 15:00:00,28.296139,74.961696,CO,2,40,19
India,Rajasthan,Churu,"Subash Chowk, Churu - RSPCB",03-03-2026 15:00:00,28.296139,74.961696,OZONE,22,104,84
India,Rajasthan,Sri Ganganagar,"Old City, Sri Ganganagar - RSPCB",03-03-2026 15:00:00,29.931624,73.864511,NH3,2,8,4
India,Sikkim,Gangtok,"Zero Point GICI, Gangtok - SSPCB",03-03-2026 15:00:00,27.338530,88.614099,PM2.5,64,107,82
India,Sikkim,Gangtok,"Zero Point GICI, Gangtok - SSPCB",03-03-2026 15:00:00,27.338530,88.614099,SO2,1,1,1
India,Rajasthan,Kota,"Dhanmandi, Kota - RSPCB",03-03-2026 15:00:00,25.164090,75.858137,CO,22,109,30
India,Rajasthan,Kota,"Nayapura, Kota - RSPCB",03-03-2026 15:00:00,25.196024,75.855668,NO2,1,112,41
India,Rajasthan,Nagaur,"Karni Colony, Nagaur - RSPCB",03-03-2026 15:00:00,27.213494,73.734444,PM2.5,20,273,81
India,TamilNadu,Chennai,"Velachery Res. Area, Chennai - CPCB",03-03-2026 15:00:00,13.0052189,80.2398125,NH3,3,4,3
India,TamilNadu,Coimbatore,"PSG College of Arts and Science, Coimbatore - TNPCB",03-03-2026 15:00:00,11.0328,77.0349,PM2.5,55,151,102
India,TamilNadu,Coimbatore,"PSG College of Arts and Science, Coimbatore - TNPCB",03-03-2026 15:00:00,11.0328,77.0349,PM10,43,95,72
India,TamilNadu,Coimbatore,"SIDCO Kurichi, Coimbatore - TNPCB",03-03-2026 15:00:00,10.942451,76.978996,NO2,2,2,2
India,TamilNadu,Gummidipoondi,"Anthoni Pillai Nagar, Gummidipoondi - TNPCB",03-03-2026 15:00:00,13.4127,80.1081,PM2.5,77,430,220
India,TamilNadu,Gummidipoondi,"Anthoni Pillai Nagar, Gummidipoondi - TNPCB",03-03-2026 15:00:00,13.4127,80.1081,NO2,17,42,25
India,TamilNadu,Gummidipoondi,"Anthoni Pillai Nagar, Gummidipoondi - TNPCB",03-03-2026 15:00:00,13.4127,80.1081,SO2,4,27,20
India,TamilNadu,Perundurai,"SIPCOT Industrial Park, Perundurai - TNPCB",03-03-2026 15:00:00,11.258242,77.552761,NO2,12,13,12
India,TamilNadu,Thoothukudi,"Meelavittan, Thoothukudi - TNPCB",03-03-2026 15:00:00,8.816428 ,78.099039,CO,26,59,34
India,TamilNadu,Thoothukudi,"Meelavittan, Thoothukudi - TNPCB",03-03-2026 15:00:00,8.816428 ,78.099039,OZONE,24,35,31
India,Telangana,Hyderabad,"Zoo Park, Hyderabad - TSPCB",03-03-2026 15:00:00,17.349694,78.451437,NO2,6,14,9
India,Tripura,Agartala,"Bardowali, Agartala - Tripura SPCB",03-03-2026 15:00:00,23.8175497,91.2726974,PM2.5,122,325,209
India,Tripura,Agartala,"Bardowali, Agartala - Tripura SPCB",03-03-2026 15:00:00,23.8175497,91.2726974,PM10,NA,NA,NA
India,Tripura,Agartala,"Bardowali, Agartala - Tripura SPCB",03-03-2026 15:00:00,23.8175497,91.2726974,NO2,19,34,24
India,Tripura,Agartala,"Bardowali, Agartala - Tripura SPCB",03-03-2026 15:00:00,23.8175497,91.2726974,OZONE,1,4,3
India,Uttar_Pradesh,Agra,"Manoharpur, Agra - UPPCB",03-03-2026 15:00:00,27.23711,78.01936,PM2.5,29,213,70
India,Uttar_Pradesh,Agra,"Manoharpur, Agra - UPPCB",03-03-2026 15:00:00,27.23711,78.01936,OZONE,6,6,6
India,Uttar_Pradesh,Agra,"Rohta, Agra - UPPCB",03-03-2026 15:00:00,27.106972,78.000111,NH3,5,5,5
India,Telangana,Hyderabad,"Kompally Municipal Office, Hyderabad - TSPCB",03-03-2026 15:00:00,17.544899,78.486949,NO2,14,17,15
India,Telangana,Hyderabad,"Nacharam_TSIIC IALA, Hyderabad - TSPCB",03-03-2026 15:00:00,17.429398,78.569354,PM2.5,48,78,54
India,Telangana,Hyderabad,"Nacharam_TSIIC IALA, Hyderabad - TSPCB",03-03-2026 15:00:00,17.429398,78.569354,OZONE,16,36,24
India,Telangana,Hyderabad,"Ramachandrapuram, Hyderabad - TSPCB",03-03-2026 15:00:00,17.528544,78.286195,NH3,3,5,3
India,Telangana,Hyderabad,"Ramachandrapuram, Hyderabad - TSPCB",03-03-2026 15:00:00,17.528544,78.286195,CO,18,51,30
India,Telangana,Hyderabad,"Somajiguda, Hyderabad - TSPCB",03-03-2026 15:00:00,17.417094,78.457437,PM2.5,65,74,68
India,Uttar_Pradesh,Agra,"Sector-3B Avas Vikas Colony, Agra - UPPCB",03-03-2026 15:00:00,27.19412,77.96237,OZONE,1,12,3
India,Uttar_Pradesh,Agra,"Shahjahan Garden, Agra - UPPCB",03-03-2026 15:00:00,27.169338,78.03582,NO2,14,21,17
India,Uttar_Pradesh,Agra,"Shahjahan Garden, Agra - UPPCB",03-03-2026 15:00:00,27.169338,78.03582,SO2,41,61,50
India,Uttar_Pradesh,Baghpat,"Sardar Patel Inter College, Baghpat - UPPCB",03-03-2026 15:00:00,28.964949,77.278761,SO2,26,72,37
India,Telangana,Hyderabad,"IDA Pashamylaram, Hyderabad - TSPCB",03-03-2026 15:00:00,17.5316895,78.218939,NH3,1,1,1
India,Telangana,Hyderabad,"IDA Pashamylaram, Hyderabad - TSPCB",03-03-2026 15:00:00,17.5316895,78.218939,CO,27,68,50
India,Telangana,Hyderabad,"IITH Kandi, Hyderabad - TSPCB",03-03-2026 15:00:00,17.585705,78.126199,CO,22,55,37
India,Telangana,Hyderabad,"IITH Kandi, Hyderabad - TSPCB",03-03-2026 15:00:00,17.585705,78.126199,OZONE,15,34,24
India,Telangana,Hyderabad,"Kokapet, Hyderabad - TSPCB",03-03-2026 15:00:00,17.393559,78.339194,NH3,2,3,2
India,Uttar_Pradesh,Bareilly,"Civil Lines, Bareilly - UPPCB",03-03-2026 15:00:00,28.359581,79.414455,SO2,45,78,60
India,Uttar_Pradesh,Bareilly,"Civil Lines, Bareilly - UPPCB",03-03-2026 15:00:00,28.359581,79.414455,OZONE,14,92,46
India,Uttar_Pradesh,Firozabad,"Nagla Bhau, Firozabad - UPPCB",03-03-2026 15:00:00,27.168897,78.376960,SO2,6,52,23
India,Uttar_Pradesh,Firozabad,"Vibhab Nagar, Firozabad - UPPCB",03-03-2026 15:00:00,27.1594,78.3953,PM2.5,35,111,64
India,Uttar_Pradesh,Agra,"Sanjay Palace, Agra - UPPCB",03-03-2026 15:00:00,27.19865833,78.00598056,SO2,17,19,18
India,Uttar_Pradesh,Agra,"Sector-3B Avas Vikas Colony, Agra - UPPCB",03-03-2026 15:00:00,27.19412,77.96237,PM10,82,273,134
India,Telangana,Hyderabad,"Somajiguda, Hyderabad - TSPCB",03-03-2026 15:00:00,17.417094,78.457437,OZONE,5,33,23
India,Telangana,Hyderabad,"Zoo Park, Hyderabad - TSPCB",03-03-2026 15:00:00,17.349694,78.451437,PM2.5,69,177,117
India,Telangana,Hyderabad,"Central University, Hyderabad - TSPCB",03-03-2026 15:00:00,17.460103,78.334361,SO2,4,20,10
India,Telangana,Hyderabad,"ECIL Kapra, Hyderabad - TSPCB",03-03-2026 15:00:00,17.470431,78.566959,SO2,5,17,10
India,Uttar_Pradesh,Lucknow,"Kendriya Vidyalaya, Lucknow - CPCB",03-03-2026 15:00:00,26.906111,80.948222,PM2.5,42,164,109
India,Uttar_Pradesh,Lucknow,"Kukrail Picnic Spot-1, Lucknow - UPPCB",03-03-2026 15:00:00,26.90723,80.98579,PM10,70,134,95
India,Uttar_Pradesh,Lucknow,"Kukrail Picnic Spot-1, Lucknow - UPPCB",03-03-2026 15:00:00,26.90723,80.98579,NO2,31,33,32
India,Uttar_Pradesh,Lucknow,"Kukrail Picnic Spot-1, Lucknow - UPPCB",03-03-2026 15:00:00,26.90723,80.98579,CO,10,16,11
India,Uttar_Pradesh,Lucknow,"Lalbagh, Lucknow - CPCB",03-03-2026 15:00:00,26.8458805,80.9365541,PM2.5,121,246,176
India,Uttar_Pradesh,Lucknow,"Lalbagh, Lucknow - CPCB",03-03-2026 15:00:00,26.8458805,80.9365541,SO2,2,20,10
India,Uttar_Pradesh,Lucknow,"Lalbagh, Lucknow - CPCB",03-03-2026 15:00:00,26.8458805,80.9365541,CO,40,78,57
India,Uttar_Pradesh,Lucknow,"Talkatora District Industries Center, Lucknow - CPCB",03-03-2026 15:00:00,26.83399722,80.8917361,PM2.5,95,290,153
India,Uttar_Pradesh,Lucknow,"Talkatora District Industries Center, Lucknow - CPCB",03-03-2026 15:00:00,26.83399722,80.8917361,NO2,8,12,9
India,Uttar_Pradesh,Lucknow,"Talkatora District Industries Center, Lucknow - CPCB",03-03-2026 15:00:00,26.83399722,80.8917361,NH3,1,3,3
India,Uttar_Pradesh,Ghaziabad,"Loni, Ghaziabad - UPPCB",03-03-2026 15:00:00,28.757294,77.278792,PM10,149,353,232
India,Uttar_Pradesh,Ghaziabad,"Sanjay Nagar, Ghaziabad - UPPCB",03-03-2026 15:00:00,28.685382,77.453839,NH3,7,25,10
India,Uttar_Pradesh,Ghaziabad,"Vasundhara, Ghaziabad - UPPCB",03-03-2026 15:00:00,28.6603346,77.3572563,SO2,1,70,19
India,Uttar_Pradesh,Gorakhpur,"Madan Mohan Malaviya University of Technology, Gorakhpur - UPPCB",03-03-2026 15:00:00,26.730136,83.433859,OZONE,1,5,3
India,Uttar_Pradesh,Greater Noida,"Knowledge Park - III, Greater Noida - UPPCB",03-03-2026 15:00:00,28.47272,77.482000,NH3,7,12,10
India,Uttar_Pradesh,Greater Noida,"Knowledge Park - III, Greater Noida - UPPCB",03-03-2026 15:00:00,28.47272,77.482000,CO,40,97,58
India,Uttar_Pradesh,Muzaffarnagar,"New Mandi, Muzaffarnagar - UPPCB",03-03-2026 15:00:00,29.4723508,77.7194031,PM2.5,58,234,138
India,Uttar_Pradesh,Muzaffarnagar,"New Mandi, Muzaffarnagar - UPPCB",03-03-2026 15:00:00,29.4723508,77.7194031,SO2,2,19,12
India,Uttar_Pradesh,Noida,"Sector - 125, Noida - UPPCB",03-03-2026 15:00:00,28.5447608,77.3231257,NO2,18,107,53
India,Uttar_Pradesh,Noida,"Sector - 125, Noida - UPPCB",03-03-2026 15:00:00,28.5447608,77.3231257,NH3,9,14,12
India,Uttar_Pradesh,Noida,"Sector - 125, Noida - UPPCB",03-03-2026 15:00:00,28.5447608,77.3231257,SO2,10,18,13
India,Uttar_Pradesh,Noida,"Sector - 125, Noida - UPPCB",03-03-2026 15:00:00,28.5447608,77.3231257,OZONE,19,111,82
India,Uttar_Pradesh,Noida,"Sector-1, Noida - UPPCB",03-03-2026 15:00:00,28.5898,77.3101,PM2.5,80,330,229
India,Uttar_Pradesh,Meerut,"Ganga Nagar, Meerut - UPPCB",03-03-2026 15:00:00,28.999264,77.7590354,PM2.5,47,178,99
India,Uttar_Pradesh,Meerut,"Pallavpuram Phase 2, Meerut - UPPCB",03-03-2026 15:00:00,29.063510,77.709723,OZONE,38,117,84
India,Uttar_Pradesh,Moradabad,"Buddhi Vihar, Moradabad - UPPCB",03-03-2026 15:00:00,28.83526,78.74460,PM10,70,286,123
India,Uttar_Pradesh,Moradabad,"Buddhi Vihar, Moradabad - UPPCB",03-03-2026 15:00:00,28.83526,78.74460,NO2,28,29,28
India,Uttar_Pradesh,Moradabad,"Buddhi Vihar, Moradabad - UPPCB",03-03-2026 15:00:00,28.83526,78.74460,CO,30,46,42
India,Uttar_Pradesh,Jhansi,"Shivaji Nagar, Jhansi - UPPCB",03-03-2026 15:00:00,25.4547,78.6039,CO,6,100,23
India,Uttar_Pradesh,Kanpur,"FTI Kidwai Nagar, Kanpur - UPPCB",03-03-2026 15:00:00,26.428282,80.327067,PM2.5,32,324,109
India,Uttar_Pradesh,Kanpur,"FTI Kidwai Nagar, Kanpur - UPPCB",03-03-2026 15:00:00,26.428282,80.327067,SO2,17,20,19
India,Uttar_Pradesh,Kanpur,"FTI Kidwai Nagar, Kanpur - UPPCB",03-03-2026 15:00:00,26.428282,80.327067,OZONE,10,13,12
India,Uttar_Pradesh,Kanpur,"NSI Kalyanpur, Kanpur - UPPCB",03-03-2026 15:00:00,26.509954,80.249612,NH3,5,5,5
India,Uttar_Pradesh,Noida,"Sector-116, Noida - UPPCB",03-03-2026 15:00:00,28.569230,77.393848,CO,23,106,43
India,Uttar_Pradesh,Prayagraj,"Jhunsi, Prayagraj - UPPCB",03-03-2026 15:00:00,25.425602,81.917152,PM2.5,31,80,54
India,Uttar_Pradesh,Prayagraj,"Motilal Nehru NIT, Prayagraj - UPPCB",03-03-2026 15:00:00,25.494,81.863,NO2,11,12,12
India,Uttar_Pradesh,Kanpur,"NSI Kalyanpur, Kanpur - UPPCB",03-03-2026 15:00:00,26.509954,80.249612,CO,28,49,36
India,Uttar_Pradesh,Kanpur,"Nehru Nagar, Kanpur - UPPCB",03-03-2026 15:00:00,26.4703136,80.3229863,CO,53,67,61
India,Uttar_Pradesh,Khurja,"Kalindi Kunj, Khurja - UPPCB",03-03-2026 15:00:00,28.2348927,77.8683002,OZONE,10,20,15
India,Uttar_Pradesh,Lucknow,"B R Ambedkar University, Lucknow - UPPCB",03-03-2026 15:00:00,26.766433,80.927299,CO,7,27,15
India,Uttar_Pradesh,Lucknow,"Gomti Nagar, Lucknow - UPPCB",03-03-2026 15:00:00,26.868120,81.005119,CO,32,40,37
India,Uttar_Pradesh,Moradabad,"Kashiram Nagar, Moradabad - UPPCB",03-03-2026 15:00:00,28.849399,78.742362,PM10,74,126,97
India,Uttar_Pradesh,Moradabad,"Kashiram Nagar, Moradabad - UPPCB",03-03-2026 15:00:00,28.849399,78.742362,CO,20,40,30
India,Uttar_Pradesh,Prayagraj,"Nagar Nigam, Prayagraj - UPPCB",03-03-2026 15:00:00,25.44919916 ,81.82735986 ,CO,20,78,27
India,Uttar_Pradesh,Varanasi,"Bhelupur, Varanasi - UPPCB",03-03-2026 15:00:00,25.301778,82.996789,OZONE,6,16,9
India,Uttar_Pradesh,Varanasi,"IESD Banaras Hindu University, Varanasi - UPPCB",03-03-2026 15:00:00,25.262326,82.995408,OZONE,1,14,9
India,Uttar_Pradesh,Varanasi,"Maldahiya, Varanasi - UPPCB",03-03-2026 15:00:00,25.32393,82.99687,PM2.5,6,70,42
India,Uttar_Pradesh,Vrindavan,"Omex Eternity, Vrindavan - UPPCB",03-03-2026 15:00:00,27.5714090,77.6557570,NO2,27,27,27
India,Uttar_Pradesh,Vrindavan,"Omex Eternity, Vrindavan - UPPCB",03-03-2026 15:00:00,27.5714090,77.6557570,SO2,17,27,20
India,Uttarakhand,Kashipur,"Govt. Girls Inter College, Kashipur - UKPCB",03-03-2026 15:00:00,29.2124114,78.9611753,CO,14,21,18
India,Uttarakhand,Rishikesh,"Shivaji Nagar, Rishikesh - UKPCB",03-03-2026 15:00:00,30.075911,78.2859547,NO2,17,24,20
India,West_Bengal,Asansol,"Asansol Court Area, Asansol - WBPCB",03-03-2026 15:00:00,23.685297,86.945968,SO2,21,103,50
India,West_Bengal,Asansol,"Asansol Court Area, Asansol - WBPCB",03-03-2026 15:00:00,23.685297,86.945968,OZONE,12,37,30
India,West_Bengal,Asansol,"Mahabir Colliery, Asansol - WBPCB",03-03-2026 15:00:00,23.6181830,87.1057180,NO2,12,26,20
India,West_Bengal,Asansol,"Mahabir Colliery, Asansol - WBPCB",03-03-2026 15:00:00,23.6181830,87.1057180,CO,24,114,80
India,West_Bengal,Barrackpore,"SVSPA Campus, Barrackpore - WBPCB",03-03-2026 15:00:00,22.7605581,88.3617589,CO,40,104,56
India,West_Bengal,Durgapur,"PCBL Residential Complex, Durgapur - WBPCB",03-03-2026 15:00:00,23.5087640,87.3544400,PM10,50,154,101
India,West_Bengal,Durgapur,"PCBL Residential Complex, Durgapur - WBPCB",03-03-2026 15:00:00,23.5087640,87.3544400,NO2,25,73,46
India,West_Bengal,Durgapur,"PCBL Residential Complex, Durgapur - WBPCB",03-03-2026 15:00:00,23.5087640,87.3544400,NH3,14,16,15
India,West_Bengal,Durgapur,"PCBL Residential Complex, Durgapur - WBPCB",03-03-2026 15:00:00,23.5087640,87.3544400,CO,42,103,83
India,West_Bengal,Durgapur,"Womens College_City Center, Durgapur - WBPCB",03-03-2026 15:00:00,23.549395,87.300496,CO,12,92,54
India,West_Bengal,Haldia,"Priyambada Housing Estate, Haldia - WBPCB",03-03-2026 15:00:00,22.06047,88.109737,NH3,2,8,5
India,West_Bengal,Haldia,"Priyambada Housing Estate, Haldia - WBPCB",03-03-2026 15:00:00,22.06047,88.109737,SO2,10,25,16
India,West_Bengal,Haldia,"Priyambada Housing Estate, Haldia - WBPCB",03-03-2026 15:00:00,22.06047,88.109737,OZONE,18,28,25
India,West_Bengal,Howrah,"Belur Math, Howrah - WBPCB",03-03-2026 15:00:00,22.629801,88.352017,NO2,22,173,80
India,West_Bengal,Howrah,"Belur Math, Howrah - WBPCB",03-03-2026 15:00:00,22.629801,88.352017,SO2,11,27,16
India,West_Bengal,Howrah,"Botanical Garden, Howrah - WBPCB",03-03-2026 15:00:00,22.554954,88.292568,NH3,1,2,1
India,West_Bengal,Howrah,"Botanical Garden, Howrah - WBPCB",03-03-2026 15:00:00,22.554954,88.292568,OZONE,12,69,54
India,West_Bengal,Howrah,"Dasnagar, Howrah - WBPCB",03-03-2026 15:00:00,22.6025571,88.3105664,NO2,5,109,50
India,West_Bengal,Howrah,"Dasnagar, Howrah - WBPCB",03-03-2026 15:00:00,22.6025571,88.3105664,OZONE,15,149,106
India,West_Bengal,Howrah,"Ghusuri, Howrah - WBPCB",03-03-2026 15:00:00,22.611968,88.347422,NO2,20,51,35
India,West_Bengal,Howrah,"Padmapukur, Howrah - WBPCB",03-03-2026 15:00:00,22.5687319,88.2797276,NH3,4,15,8
India,West_Bengal,Kolkata,"Ballygunge, Kolkata - WBPCB",03-03-2026 15:00:00,22.5367507,88.3638022,PM2.5,59,302,174
India,West_Bengal,Kolkata,"Ballygunge, Kolkata - WBPCB",03-03-2026 15:00:00,22.5367507,88.3638022,NO2,21,120,69
India,West_Bengal,Kolkata,"Ballygunge, Kolkata - WBPCB",03-03-2026 15:00:00,22.5367507,88.3638022,NH3,6,14,9
India,West_Bengal,Kolkata,"Bidhannagar, Kolkata - WBPCB",03-03-2026 15:00:00,22.58157048,88.41002457,PM2.5,59,259,148
India,West_Bengal,Kolkata,"Bidhannagar, Kolkata - WBPCB",03-03-2026 15:00:00,22.58157048,88.41002457,OZONE,13,74,58
India,West_Bengal,Kolkata,"Fort William, Kolkata - WBPCB",03-03-2026 15:00:00,22.556640,88.342674,PM2.5,52,321,166
India,West_Bengal,Kolkata,"Fort William, Kolkata - WBPCB",03-03-2026 15:00:00,22.556640,88.342674,PM10,55,209,121
India,West_Bengal,Kolkata,"Fort William, Kolkata - WBPCB",03-03-2026 15:00:00,22.556640,88.342674,SO2,8,37,14
India,West_Bengal,Kolkata,"Jadavpur, Kolkata - WBPCB",03-03-2026 15:00:00,22.49929,88.36917,NO2,18,56,33
India,West_Bengal,Kolkata,"Jadavpur, Kolkata - WBPCB",03-03-2026 15:00:00,22.49929,88.36917,NH3,5,10,7
India,West_Bengal,Kolkata,"Jadavpur, Kolkata - WBPCB",03-03-2026 15:00:00,22.49929,88.36917,SO2,2,5,3
India,West_Bengal,Kolkata,"Rabindra Bharati University, Kolkata - WBPCB",03-03-2026 15:00:00,22.627847,88.380669,NH3,12,13,12
India,West_Bengal,Kolkata,"Rabindra Bharati University, Kolkata - WBPCB",03-03-2026 15:00:00,22.627847,88.380669,CO,24,117,37
India,West_Bengal,Kolkata,"Victoria, Kolkata - WBPCB",03-03-2026 15:00:00,22.5448082,88.3403691,NO2,19,54,40
India,West_Bengal,Siliguri,"Ward-32 Bapupara, Siliguri - WBPCB",03-03-2026 15:00:00,26.6879226,88.4152495,PM10,79,168,110
India,West_Bengal,Siliguri,"Ward-32 Bapupara, Siliguri - WBPCB",03-03-2026 15:00:00,26.6879226,88.4152495,OZONE,17,92,80
India,Bihar,Kishanganj,"SDM Office_Khagra, Kishanganj - BSPCB",03-03-2026 15:00:00,26.0881305,87.93840336,OZONE,31,34,32
India,Bihar,Manguraha,"Forest Rest House, Manguraha - BSPCB",03-03-2026 15:00:00,27.308328,84.531742,PM10,109,217,148
India,Bihar,Motihari,"Gandak Colony, Motihari - BSPCB",03-03-2026 15:00:00,26.63086,84.90051,NH3,3,3,3
India,Bihar,Munger,"Town Hall, Munger - BSPCB",03-03-2026 15:00:00,25.376776,86.471523,PM10,34,102,65
India,Bihar,Munger,"Town Hall, Munger - BSPCB",03-03-2026 15:00:00,25.376776,86.471523,NO2,4,5,5
India,Bihar,Muzaffarpur,"Buddha Colony, Muzaffarpur - BSPCB",03-03-2026 15:00:00,26.11442,85.39813,PM10,102,171,132
India,Bihar,Muzaffarpur,"Buddha Colony, Muzaffarpur - BSPCB",03-03-2026 15:00:00,26.11442,85.39813,NH3,13,24,18
India,Bihar,Muzaffarpur,"Buddha Colony, Muzaffarpur - BSPCB",03-03-2026 15:00:00,26.11442,85.39813,CO,20,88,40
India,Bihar,Muzaffarpur,"MIT-Daudpur Kothi, Muzaffarpur - BSPCB",03-03-2026 15:00:00,26.1403345,85.3650192,PM2.5,67,90,85
India,Andhra_Pradesh,Visakhapatnam,"GVM Corporation, Visakhapatnam - APPCB",03-03-2026 15:00:00,17.72,83.3,CO,6,104,20
India,Andhra_Pradesh,Visakhapatnam,"GVM Corporation, Visakhapatnam - APPCB",03-03-2026 15:00:00,17.72,83.3,OZONE,5,66,42
India,Arunachal_Pradesh,Naharlagun,"Naharlagun, Naharlagun - APSPCB",03-03-2026 15:00:00,27.103358,93.679645,PM2.5,12,161,82
India,Arunachal_Pradesh,Naharlagun,"Naharlagun, Naharlagun - APSPCB",03-03-2026 15:00:00,27.103358,93.679645,NH3,1,1,1
India,Assam,Byrnihat,"Central Academy for SFS, Byrnihat - PCBA",03-03-2026 15:00:00,26.071318,91.87488,SO2,21,33,32
India,Assam,Guwahati,"LGBI Airport, Guwahati - PCBA",03-03-2026 15:00:00,26.10887,91.589544,PM10,116,139,129
India,Assam,Guwahati,"LGBI Airport, Guwahati - PCBA",03-03-2026 15:00:00,26.10887,91.589544,OZONE,12,16,15
India,Assam,Guwahati,"Pan Bazaar, Guwahati - PCBA",03-03-2026 15:00:00,26.187500,91.744194,PM10,37,110,68
India,Assam,Silchar,"Tarapur, Silchar - PCBA",03-03-2026 15:00:00,24.82827,92.79525,NH3,1,1,1
India,Assam,Sivasagar,"Girls College, Sivasagar - PCBA",03-03-2026 15:00:00,26.987634,94.636574,PM10,30,79,50
India,Bihar,Araria,"Kharahiya Basti, Araria - BSPCB",03-03-2026 15:00:00,26.146529,87.454184,SO2,19,58,38
India,Bihar,Arrah,"New DM Office, Arrah - BSPCB",03-03-2026 15:00:00,25.5626095,84.663264,PM10,31,115,75
India,Bihar,Arrah,"New DM Office, Arrah - BSPCB",03-03-2026 15:00:00,25.5626095,84.663264,NO2,6,9,7
India,Bihar,Arrah,"New DM Office, Arrah - BSPCB",03-03-2026 15:00:00,25.5626095,84.663264,OZONE,5,10,8
India,Bihar,Begusarai,"Lohiyanagar, Begusarai - BSPCB",03-03-2026 15:00:00,25.42742023,86.13886079,NH3,3,4,4
India,Bihar,Begusarai,"Lohiyanagar, Begusarai - BSPCB",03-03-2026 15:00:00,25.42742023,86.13886079,SO2,21,27,25
India,Bihar,Bettiah,"Kamalnath Nagar, Bettiah - BSPCB",03-03-2026 15:00:00,26.80365,84.51954,NH3,1,1,1
India,Bihar,Bettiah,"Kamalnath Nagar, Bettiah - BSPCB",03-03-2026 15:00:00,26.80365,84.51954,SO2,19,44,32
India,Bihar,Bhagalpur,"DM Office_Kachari Chowk, Bhagalpur - BSPCB",03-03-2026 15:00:00,25.251013,86.989001,NH3,1,1,1
India,Bihar,Bhagalpur,"DM Office_Kachari Chowk, Bhagalpur - BSPCB",03-03-2026 15:00:00,25.251013,86.989001,CO,12,28,18
India,Bihar,Bhagalpur,"Mayaganj, Bhagalpur - BSPCB",03-03-2026 15:00:00,25.265194,87.012947,PM10,59,138,91
India,Bihar,Bihar Sharif,"D M Colony, Bihar Sharif - BSPCB",03-03-2026 15:00:00,25.204762,85.514960,CO,35,89,61
India,Bihar,Buxar,"Charitra Van, Buxar - BSPCB",03-03-2026 15:00:00,25.567520,83.966379,PM10,39,98,71
India,Bihar,Gaya,"SFTI Kusdihra, Gaya - BSPCB",03-03-2026 15:00:00,24.762518,84.982348,PM2.5,41,118,76
India,Bihar,Gaya,"SFTI Kusdihra, Gaya - BSPCB",03-03-2026 15:00:00,24.762518,84.982348,NO2,13,39,22
India,Bihar,Gaya,"SFTI Kusdihra, Gaya - BSPCB",03-03-2026 15:00:00,24.762518,84.982348,NH3,4,5,5
India,Bihar,Gaya,"SFTI Kusdihra, Gaya - BSPCB",03-03-2026 15:00:00,24.762518,84.982348,SO2,9,14,11
India,Bihar,Hajipur,"Industrial Area, Hajipur - BSPCB",03-03-2026 15:00:00,25.697189,85.245900,CO,26,52,39
India,Bihar,Katihar,"Mirchaibari, Katihar - BSPCB",03-03-2026 15:00:00,25.560083,87.553265,PM2.5,28,130,63
India,Bihar,Kishanganj,"SDM Office_Khagra, Kishanganj - BSPCB",03-03-2026 15:00:00,26.0881305,87.93840336,PM10,39,199,84
India,Andaman and Nicobar,Sri Vijaya Puram,"Police Line, Sri Vijaya Puram - ANPCC",03-03-2026 15:00:00,11.654054,92.734055,PM10,NA,NA,NA
India,Andaman and Nicobar,Sri Vijaya Puram,"Police Line, Sri Vijaya Puram - ANPCC",03-03-2026 15:00:00,11.654054,92.734055,OZONE,NA,NA,NA
India,Andhra_Pradesh,Amaravati,"Secretariat, Amaravati - APPCB",03-03-2026 15:00:00,16.5150833,80.5181667,NO2,13,47,24
India,Andhra_Pradesh,Anantapur,"Gulzarpet, Anantapur - APPCB",03-03-2026 15:00:00,14.675886,77.593027,PM2.5,56,65,60
India,Andhra_Pradesh,Anantapur,"Gulzarpet, Anantapur - APPCB",03-03-2026 15:00:00,14.675886,77.593027,CO,12,26,17
India,Andhra_Pradesh,Vijayawada,"HB Colony, Vijayawada - APPCB",03-03-2026 15:00:00,16.536107,80.594233,CO,26,28,27
India,Andhra_Pradesh,Vijayawada,"Rajiv Gandhi Park, Vijayawada - APPCB",03-03-2026 15:00:00,16.509717,80.612222,PM2.5,60,114,85
India,Andhra_Pradesh,Vijayawada,"Rajiv Gandhi Park, Vijayawada - APPCB",03-03-2026 15:00:00,16.509717,80.612222,SO2,15,16,16
India,Andhra_Pradesh,Vijayawada,"Rajiv Nagar, Vijayawada - APPCB",03-03-2026 15:00:00,16.554731,80.649110,PM2.5,53,76,69
India,Andhra_Pradesh,Vijayawada,"Rajiv Nagar, Vijayawada - APPCB",03-03-2026 15:00:00,16.554731,80.649110,CO,24,36,35
India,Andhra_Pradesh,Vijayawada,"Rajiv Nagar, Vijayawada - APPCB",03-03-2026 15:00:00,16.554731,80.649110,OZONE,10,13,12
India,Andhra_Pradesh,Kadapa,"Yerramukkapalli, Kadapa - APPCB",03-03-2026 15:00:00,14.465052,78.824187,NH3,4,4,4
India,Andhra_Pradesh,Tirumala,"Toll Gate, Tirumala - APPCB",03-03-2026 15:00:00,13.67,79.35,NO2,13,71,43
India,Andhra_Pradesh,Tirupati,"Vaikuntapuram, Tirupati - APPCB",03-03-2026 15:00:00,13.615387,79.409230,SO2,12,14,13
India,Andhra_Pradesh,Tirupati,"Vaikuntapuram, Tirupati - APPCB",03-03-2026 15:00:00,13.615387,79.409230,OZONE,28,31,29
India,Assam,Guwahati,"Railway Colony, Guwahati - PCBA",03-03-2026 15:00:00,26.181742,91.78063,SO2,NA,NA,NA
India,Assam,Nagaon,"Christianpatty, Nagaon - PCBA",03-03-2026 15:00:00,26.349082,92.68449,NO2,1,1,1
India,Assam,Nagaon,"Christianpatty, Nagaon - PCBA",03-03-2026 15:00:00,26.349082,92.68449,SO2,9,16,13
India,Assam,Nalbari,"Bata Chowk, Nalbari - PCBA",03-03-2026 15:00:00,26.446912,91.439057,NO2,14,15,14
India,Bihar,Chhapra,"Darshan Nagar, Chhapra - BSPCB",03-03-2026 15:00:00,25.7808257,84.7446768,PM2.5,37,87,59
India,Bihar,Chhapra,"Darshan Nagar, Chhapra - BSPCB",03-03-2026 15:00:00,25.7808257,84.7446768,NH3,3,11,7
India,Bihar,Gaya,"Kareemganj, Gaya - BSPCB",03-03-2026 15:00:00,24.792403,84.992416,NO2,11,12,12
India,Bihar,Gaya,"Kareemganj, Gaya - BSPCB",03-03-2026 15:00:00,24.792403,84.992416,CO,1,46,18
India,Bihar,Patna,"Samanpura, Patna - BSPCB",03-03-2026 15:00:00,25.596727,85.085624,NO2,33,44,36
India,Bihar,Patna,"Samanpura, Patna - BSPCB",03-03-2026 15:00:00,25.596727,85.085624,NH3,14,15,14
India,Bihar,Patna,"Samanpura, Patna - BSPCB",03-03-2026 15:00:00,25.596727,85.085624,OZONE,66,181,148
India,Bihar,Purnia,"Mariam Nagar, Purnia - BSPCB",03-03-2026 15:00:00,25.366336,87.117468,PM2.5,72,130,94
India,Bihar,Purnia,"Mariam Nagar, Purnia - BSPCB",03-03-2026 15:00:00,25.366336,87.117468,OZONE,2,46,18
India,Bihar,Rajgir,"Dangi Tola, Rajgir - BSPCB",03-03-2026 15:00:00,25.03280,85.41948,NH3,3,3,3
India,Bihar,Rajgir,"Dangi Tola, Rajgir - BSPCB",03-03-2026 15:00:00,25.03280,85.41948,CO,37,48,42
India,Bihar,Saharsa,"Police Line, Saharsa - BSPCB",03-03-2026 15:00:00,25.892357,86.590325,PM10,63,197,137
India,Bihar,Saharsa,"Police Line, Saharsa - BSPCB",03-03-2026 15:00:00,25.892357,86.590325,CO,34,40,36
India,Bihar,Samastipur,"DM Office_Kasipur, Samastipur - BSPCB",03-03-2026 15:00:00,25.859655,85.77944,SO2,12,28,22
India,Delhi,Delhi,"Anand Vihar, Delhi - DPCC",03-03-2026 15:00:00,28.647622,77.3158090,PM10,117,417,275
India,Delhi,Delhi,"Ashok Vihar, Delhi - DPCC",03-03-2026 15:00:00,28.695381,77.181665,PM2.5,104,315,214
India,Delhi,Delhi,"Bawana, Delhi - DPCC",03-03-2026 15:00:00,28.776200,77.051074,PM10,143,247,185
India,Delhi,Delhi,"Bawana, Delhi - DPCC",03-03-2026 15:00:00,28.776200,77.051074,NO2,8,45,19
India,Delhi,Delhi,"Bawana, Delhi - DPCC",03-03-2026 15:00:00,28.776200,77.051074,CO,34,72,50
India,Delhi,Delhi,"Bawana, Delhi - DPCC",03-03-2026 15:00:00,28.776200,77.051074,OZONE,11,95,52
India,Delhi,Delhi,"Burari Crossing, Delhi - IMD",03-03-2026 15:00:00,28.7256504,77.2011573,NO2,65,124,86
India,Delhi,Delhi,"Burari Crossing, Delhi - IMD",03-03-2026 15:00:00,28.7256504,77.2011573,OZONE,12,295,277
India,Chhattisgarh,Raipur,"Bhatagaon New ISBT, Raipur - CECB",03-03-2026 15:00:00,21.219665,81.630094,PM2.5,15,86,54
India,Chhattisgarh,Raipur,"Bhatagaon New ISBT, Raipur - CECB",03-03-2026 15:00:00,21.219665,81.630094,NO2,10,69,34
India,Chhattisgarh,Raipur,"Krishak Nagar, Raipur - CECB",03-03-2026 15:00:00,21.237755,81.705301,CO,15,73,43
India,Chhattisgarh,Raipur,"Krishak Nagar, Raipur - CECB",03-03-2026 15:00:00,21.237755,81.705301,OZONE,7,33,13
India,Chhattisgarh,Raipur,"Siltara Phase-II, Raipur - CECB",03-03-2026 15:00:00,21.371751,81.664929,PM10,56,148,100
India,Delhi,Delhi,"Alipur, Delhi - DPCC",03-03-2026 15:00:00,28.815329,77.153010,PM2.5,92,334,178
India,Delhi,Delhi,"Alipur, Delhi - DPCC",03-03-2026 15:00:00,28.815329,77.153010,PM10,135,233,173
India,Chhattisgarh,Bhilai,"32Bungalows, Bhilai - CECB",03-03-2026 15:00:00,21.194815,81.314770,PM2.5,10,36,23
India,Chhattisgarh,Bhilai,"Civic Center, Bhilai - Bhilai Steel Plant",03-03-2026 15:00:00,21.185571,81.343175,PM2.5,1,81,35
India,Chhattisgarh,Bhilai,"Civic Center, Bhilai - Bhilai Steel Plant",03-03-2026 15:00:00,21.185571,81.343175,PM10,18,88,42
India,Chhattisgarh,Bhilai,"Hathkhoj, Bhilai - CECB",03-03-2026 15:00:00,21.224231,81.408350,PM2.5,17,81,41
India,Chhattisgarh,Bhilai,"Hathkhoj, Bhilai - CECB",03-03-2026 15:00:00,21.224231,81.408350,OZONE,4,17,14
India,Chhattisgarh,Chhal,"Nawapara SECL Colony, Chhal - CECB",03-03-2026 15:00:00,22.118125,83.140608,OZONE,98,98,98
India,Chhattisgarh,Korba,"Rampur, Korba - CECB",03-03-2026 15:00:00,22.368195,82.746431,NO2,10,42,22
India,Bihar,Sasaram,"Dada Peer, Sasaram - BSPCB",03-03-2026 15:00:00,24.952822,84.002396,PM2.5,14,113,40
India,Bihar,Siwan,"Chitragupta Nagar, Siwan - BSPCB",03-03-2026 15:00:00,26.2271665,84.3570427,PM2.5,43,88,58
India,Bihar,Siwan,"Chitragupta Nagar, Siwan - BSPCB",03-03-2026 15:00:00,26.2271665,84.3570427,PM10,63,120,84
India,Chandigarh,Chandigarh,"Sector-25, Chandigarh - CPCC",03-03-2026 15:00:00,30.751462,76.762879,SO2,4,13,8
India,Chandigarh,Chandigarh,"Sector-53, Chandigarh - CPCC",03-03-2026 15:00:00,30.719859,76.738637,NO2,16,75,31
India,Delhi,Delhi,"Cantonment Area, Delhi - DPCC ",03-03-2026 15:00:00,28.594169 ,77.125100 ,OZONE,2,54,37
India,Delhi,Delhi,"Chandni Chowk, Delhi - IITM",03-03-2026 15:00:00,28.656756,77.227234,PM2.5,97,253,180
India,Delhi,Delhi,"Chandni Chowk, Delhi - IITM",03-03-2026 15:00:00,28.656756,77.227234,NO2,10,42,20
India,Delhi,Delhi,"Chandni Chowk, Delhi - IITM",03-03-2026 15:00:00,28.656756,77.227234,NH3,8,11,9
India,Delhi,Delhi,"Commonwealth Sports Complex, Delhi - DPCC",03-03-2026 15:00:00,28.615828 ,77.271992 ,PM10,138,233,167
India,Delhi,Delhi,"Commonwealth Sports Complex, Delhi - DPCC",03-03-2026 15:00:00,28.615828 ,77.271992 ,SO2,45,57,54
India,Chhattisgarh,Korba,"Urja Nagar, Korba - CECB",03-03-2026 15:00:00,22.348441,82.549611,SO2,4,18,11
India,Chhattisgarh,Kunjemura,"OP Jindal School, Kunjemura - CECB",03-03-2026 15:00:00,22.126650,83.483212,NO2,16,63,40
India,Chhattisgarh,Kunjemura,"OP Jindal School, Kunjemura - CECB",03-03-2026 15:00:00,22.126650,83.483212,SO2,2,90,19
India,Chhattisgarh,Milupara,"Govt. Higher Secondary School, Milupara - CECB",03-03-2026 15:00:00,22.1910172,83.5197009,SO2,NA,NA,NA
India,Chhattisgarh,Raipur,"AIIMS, Raipur - CECB",03-03-2026 15:00:00,21.258815,81.578979,NH3,NA,NA,NA
India,Bihar,Patna,"DRM Office Danapur, Patna - BSPCB",03-03-2026 15:00:00,25.586562,85.043586,CO,42,78,49
India,Bihar,Patna,"IGSC Planetarium Complex, Patna - BSPCB",03-03-2026 15:00:00,25.610369,85.132568,OZONE,47,49,48
India,Bihar,Patna,"Muradpur, Patna - BSPCB",03-03-2026 15:00:00,25.619651,85.147382,NO2,10,14,11
India,Delhi,Delhi,"DTU, Delhi - CPCB",03-03-2026 15:00:00,28.7500499,77.1112615,NO2,30,71,46
India,Delhi,Delhi,"DTU, Delhi - CPCB",03-03-2026 15:00:00,28.7500499,77.1112615,NH3,6,9,8
India,Delhi,Delhi,"Dr. Karni Singh Shooting Range, Delhi - DPCC",03-03-2026 15:00:00,28.498571,77.264840,NH3,7,11,9
India,Delhi,Delhi,"Nehru Nagar, Delhi - DPCC",03-03-2026 15:00:00,28.567890,77.250515,SO2,23,112,33
India,Delhi,Delhi,"Okhla Phase-2, Delhi - DPCC",03-03-2026 15:00:00,28.530785,77.271255,PM2.5,85,336,226
India,Delhi,Delhi,"Okhla Phase-2, Delhi - DPCC",03-03-2026 15:00:00,28.530785,77.271255,NO2,31,127,70
India,Delhi,Delhi,"Okhla Phase-2, Delhi - DPCC",03-03-2026 15:00:00,28.530785,77.271255,SO2,20,31,24
India,Delhi,Delhi,"Okhla Phase-2, Delhi - DPCC",03-03-2026 15:00:00,28.530785,77.271255,CO,39,119,86
India,Delhi,Delhi,"Patparganj, Delhi - DPCC",03-03-2026 15:00:00,28.623763,77.287209,PM10,142,262,183
India,Delhi,Delhi,"Patparganj, Delhi - DPCC",03-03-2026 15:00:00,28.623763,77.287209,NH3,5,8,7
India,Delhi,Delhi,"Punjabi Bagh, Delhi - DPCC",03-03-2026 15:00:00,28.674045,77.131023,NO2,20,55,34
India,Delhi,Delhi,"Pusa, Delhi - DPCC",03-03-2026 15:00:00,28.639652,77.146275,PM2.5,120,362,248
India,Delhi,Delhi,"Pusa, Delhi - DPCC",03-03-2026 15:00:00,28.639652,77.146275,PM10,165,366,223
India,Delhi,Delhi,"Pusa, Delhi - DPCC",03-03-2026 15:00:00,28.639652,77.146275,SO2,12,29,19
India,Delhi,Delhi,"R K Puram, Delhi - DPCC",03-03-2026 15:00:00,28.563262,77.186937,PM2.5,98,354,242
India,Delhi,Delhi,"R K Puram, Delhi - DPCC",03-03-2026 15:00:00,28.563262,77.186937,PM10,137,281,194
India,Delhi,Delhi,"Rohini, Delhi - DPCC",03-03-2026 15:00:00,28.732528,77.119920,PM2.5,93,346,237
India,Delhi,Delhi,"Rohini, Delhi - DPCC",03-03-2026 15:00:00,28.732528,77.119920,NO2,9,56,25
India,Delhi,Delhi,"Shadipur, Delhi - CPCB",03-03-2026 15:00:00,28.6514781,77.1473105,PM2.5,176,315,256
India,Delhi,Delhi,"Sirifort, Delhi - CPCB",03-03-2026 15:00:00,28.5504249,77.2159377,PM2.5,100,345,236
India,Delhi,Delhi,"Sirifort, Delhi - CPCB",03-03-2026 15:00:00,28.5504249,77.2159377,CO,10,40,22
India,Delhi,Delhi,"Sirifort, Delhi - CPCB",03-03-2026 15:00:00,28.5504249,77.2159377,OZONE,7,37,18
India,Delhi,Delhi,"Sonia Vihar, Delhi - DPCC",03-03-2026 15:00:00,28.710508,77.249485,PM2.5,92,325,226
India,Delhi,Delhi,"Sonia Vihar, Delhi - DPCC",03-03-2026 15:00:00,28.710508,77.249485,PM10,133,197,165
India,Delhi,Delhi,"Sri Aurobindo Marg, Delhi - DPCC",03-03-2026 15:00:00,28.531346,77.190156,PM2.5,85,328,208
India,Delhi,Delhi,"Sri Aurobindo Marg, Delhi - DPCC",03-03-2026 15:00:00,28.531346,77.190156,SO2,3,10,5
India,Delhi,Delhi,"Talkatora Garden, Delhi - DPCC",03-03-2026 15:00:00,28.621810,77.1944633,OZONE,1,2,1
India,Delhi,Delhi,"Vivek Vihar, Delhi - DPCC",03-03-2026 15:00:00,28.672342,77.315260,PM2.5,82,378,221
India,Delhi,Delhi,"Vivek Vihar, Delhi - DPCC",03-03-2026 15:00:00,28.672342,77.315260,SO2,15,43,26
India,Delhi,Delhi,"Mundka, Delhi - DPCC",03-03-2026 15:00:00,28.684678,77.076574,SO2,19,28,23
India,Delhi,Delhi,"NSIT Dwarka, Delhi - CPCB",03-03-2026 15:00:00,28.60909,77.0325413,PM10,105,249,167
India,Delhi,Delhi,"NSIT Dwarka, Delhi - CPCB",03-03-2026 15:00:00,28.60909,77.0325413,NO2,71,197,106
India,Delhi,Delhi,"NSIT Dwarka, Delhi - CPCB",03-03-2026 15:00:00,28.60909,77.0325413,SO2,9,21,15
India,Delhi,Delhi,"Najafgarh, Delhi - DPCC",03-03-2026 15:00:00,28.570173,76.933762,SO2,16,83,25
India,Delhi,Delhi,"Dwarka-Sector 8, Delhi - DPCC ",03-03-2026 15:00:00,28.5710274,77.0719006,SO2,16,47,29
India,Delhi,Delhi,"IGI Airport (T3), Delhi - IMD",03-03-2026 15:00:00,28.5627763,77.1180053,PM2.5,96,308,150
India,Delhi,Delhi,"IGI Airport (T3), Delhi - IMD",03-03-2026 15:00:00,28.5627763,77.1180053,PM10,131,256,167
India,Delhi,Delhi,"IGNOU_Maidan Garhi, Delhi - DPCC",03-03-2026 15:00:00,28.493624 ,77.201159 ,OZONE,14,64,46
India,Delhi,Delhi,"Jahangirpuri, Delhi - DPCC",03-03-2026 15:00:00,28.732820,77.170633,PM10,140,243,188
India,Delhi,Delhi,"Jahangirpuri, Delhi - DPCC",03-03-2026 15:00:00,28.732820,77.170633,CO,34,96,58
India,Delhi,Delhi,"Jawaharlal Nehru Stadium, Delhi - DPCC",03-03-2026 15:00:00,28.580280,77.233829,NH3,13,17,15
India,Delhi,Delhi,"Mandir Marg, Delhi - DPCC",03-03-2026 15:00:00,28.636429,77.201067,PM10,137,202,163
India,Delhi,Delhi,"Mandir Marg, Delhi - DPCC",03-03-2026 15:00:00,28.636429,77.201067,SO2,12,43,29
India,Delhi,Delhi,"Mundka, Delhi - DPCC",03-03-2026 15:00:00,28.684678,77.076574,PM2.5,120,353,262
India,Delhi,Delhi,"IIT Delhi, Delhi - IITM",03-03-2026 15:00:00,28.542460,77.191651,PM2.5,89,335,193
India,Delhi,Delhi,"IIT Delhi, Delhi - IITM",03-03-2026 15:00:00,28.542460,77.191651,CO,30,104,42
India,Delhi,Delhi,"ITO, Delhi - CPCB",03-03-2026 15:00:00,28.628624,77.241060,PM2.5,90,327,202
India,Delhi,Delhi,"ITO, Delhi - CPCB",03-03-2026 15:00:00,28.628624,77.241060,CO,12,63,26
India,Delhi,Delhi,"JNU, Delhi - DPCC",03-03-2026 15:00:00,28.540721 ,77.168544 ,OZONE,2,31,22
India,Haryana,Faridabad,"Sector 11, Faridabad - HSPCB",03-03-2026 15:00:00,28.376058,77.315741,SO2,3,38,5
India,Haryana,Faridabad,"Sector 11, Faridabad - HSPCB",03-03-2026 15:00:00,28.376058,77.315741,OZONE,14,16,15
India,Haryana,Faridabad,"Sector 30, Faridabad - HSPCB",03-03-2026 15:00:00,28.4417,77.3217,PM2.5,94,110,97
India,Haryana,Faridabad,"Sector 30, Faridabad - HSPCB",03-03-2026 15:00:00,28.4417,77.3217,SO2,4,5,4
India,Haryana,Fatehabad,"Huda Sector, Fatehabad - HSPCB",03-03-2026 15:00:00,29.503664,75.467934,PM2.5,11,36,21
India,Haryana,Fatehabad,"Huda Sector, Fatehabad - HSPCB",03-03-2026 15:00:00,29.503664,75.467934,NO2,18,20,19
India,Haryana,Gurugram,"NISE Gwal Pahari, Gurugram - IMD",03-03-2026 15:00:00,28.422681,77.148944,PM10,141,244,176
India,Haryana,Gurugram,"Sector-51, Gurugram - HSPCB",03-03-2026 15:00:00,28.4227,77.0667,NH3,6,10,8
India,Haryana,Gurugram,"Vikas Sadan, Gurugram - HSPCB",03-03-2026 15:00:00,28.4501238,77.0263051,NO2,9,45,26
India,Haryana,Hisar,"Urban Estate-II, Hisar - HSPCB",03-03-2026 15:00:00,29.140560,75.744941,PM2.5,30,118,64
India,Gujarat,Rajkot,"Mavdi, Rajkot - Nexteng Enviro ",03-03-2026 15:00:00,22.248853,70.776774,CO,113,123,116
India,Gujarat,Surat,"Katargam, Surat - Nexteng Enviro",03-03-2026 15:00:00,21.217779 ,72.834787 ,PM10,40,227,103
India,Gujarat,Surat,"Science Center, Surat - SMC",03-03-2026 15:00:00,21.170046,72.795405,NO2,13,24,17
India,Gujarat,Vadodara,"Bapunagar, Vadodara - Nexteng Enviro",03-03-2026 15:00:00,22.320153,73.216285,PM10,35,261,90
India,Gujarat,Vadodara,"Bapunagar, Vadodara - Nexteng Enviro",03-03-2026 15:00:00,22.320153,73.216285,SO2,7,18,11
India,Gujarat,Vapi,"Phase-1 GIDC, Vapi - GPCB",03-03-2026 15:00:00,20.362421,72.918013,NH3,3,6,5
India,Gujarat,Gandhinagar,"GIFT City, Gandhinagar - IITM",03-03-2026 15:00:00,23.163798,72.677768,SO2,5,28,16
India,Gujarat,Gandhinagar,"IIPHG Lekawada, Gandhinagar - IITM",03-03-2026 15:00:00,23.243639,72.68994,PM2.5,16,300,144
India,Gujarat,Gandhinagar,"IIPHG Lekawada, Gandhinagar - IITM",03-03-2026 15:00:00,23.243639,72.68994,PM10,68,185,129
India,Gujarat,Gandhinagar,"IIPHG Lekawada, Gandhinagar - IITM",03-03-2026 15:00:00,23.243639,72.68994,SO2,2,11,6
India,Gujarat,Gandhinagar,"IIPHG Lekawada, Gandhinagar - IITM",03-03-2026 15:00:00,23.243639,72.68994,OZONE,1,26,15
India,Gujarat,Gandhinagar,"Sector-10, Gandhinagar - GPCB",03-03-2026 15:00:00,23.221714,72.654328,CO,31,46,37
India,Gujarat,Mehsana,"Sadanand Nagar, Mehsana - Nexteng Enviro",03-03-2026 15:00:00,23.593150,72.372792,SO2,3,15,9
India,Gujarat,Ahmedabad,"SAC ISRO Bopal, Ahmedabad - IITM",03-03-2026 15:00:00,23.041137,72.456691,PM2.5,66,325,195
India,Gujarat,Ahmedabad,"SAC ISRO Bopal, Ahmedabad - IITM",03-03-2026 15:00:00,23.041137,72.456691,PM10,77,213,136
India,Gujarat,Ahmedabad,"SAC ISRO Bopal, Ahmedabad - IITM",03-03-2026 15:00:00,23.041137,72.456691,SO2,9,18,12
India,Gujarat,Ahmedabad,"SAC ISRO Satellite, Ahmedabad - IITM",03-03-2026 15:00:00,23.023389,72.515201,OZONE,1,86,40
India,Gujarat,Ahmedabad,"SVPI Airport Hansol, Ahmedabad - IITM",03-03-2026 15:00:00,23.076793,72.627874,SO2,7,101,37
India,Gujarat,Ahmedabad,"SVPI Airport Hansol, Ahmedabad - IITM",03-03-2026 15:00:00,23.076793,72.627874,OZONE,1,80,41
India,Gujarat,Ankleshwar,"GIDC, Ankleshwar - GPCB",03-03-2026 15:00:00,21.613267,73.010555,NO2,17,18,17
India,Haryana,Hisar,"Urban Estate-II, Hisar - HSPCB",03-03-2026 15:00:00,29.140560,75.744941,PM10,58,137,114
India,Haryana,Hisar,"Urban Estate-II, Hisar - HSPCB",03-03-2026 15:00:00,29.140560,75.744941,SO2,6,16,11
India,Haryana,Hisar,"Urban Estate-II, Hisar - HSPCB",03-03-2026 15:00:00,29.140560,75.744941,CO,28,55,31
India,Haryana,Jind,"Police Lines, Jind - HSPCB",03-03-2026 15:00:00,29.307814,76.337619,PM2.5,134,223,174
India,Haryana,Karnal,"Sector-12, Karnal - HSPCB",03-03-2026 15:00:00,29.695300,77.002700,NH3,6,7,6
India,Haryana,Kurukshetra,"Sector-7, Kurukshetra - HSPCB",03-03-2026 15:00:00,29.966942,76.875879,PM10,149,173,162
India,Haryana,Kurukshetra,"Sector-7, Kurukshetra - HSPCB",03-03-2026 15:00:00,29.966942,76.875879,NH3,6,11,7
India,Haryana,Mandikhera,"General Hospital, Mandikhera(Nuh) - HSPCB",03-03-2026 15:00:00,27.9002,76.9938,NO2,19,23,21
India,Haryana,Manesar,"Sector-2 IMT, Manesar - HSPCB",03-03-2026 15:00:00,28.360699,76.936090,NH3,8,11,9
India,Haryana,Manesar,"Sector-2 IMT, Manesar - HSPCB",03-03-2026 15:00:00,28.360699,76.936090,CO,14,30,21
India,Haryana,Narnaul,"Shastri Nagar, Narnaul - HSPCB",03-03-2026 15:00:00,28.060249,76.113115,PM10,63,123,98
India,Haryana,Narnaul,"Shastri Nagar, Narnaul - HSPCB",03-03-2026 15:00:00,28.060249,76.113115,NH3,9,15,12
India,Haryana,Ambala,"Patti Mehar, Ambala - HSPCB",03-03-2026 15:00:00,30.379589,76.778328,NH3,7,8,8
India,Haryana,Bahadurgarh,"Arya Nagar, Bahadurgarh - HSPCB",03-03-2026 15:00:00,28.6701,76.9254,NO2,12,14,13
India,Haryana,Bahadurgarh,"Arya Nagar, Bahadurgarh - HSPCB",03-03-2026 15:00:00,28.6701,76.9254,OZONE,14,18,17
India,Haryana,Ballabgarh,"Nathu Colony, Ballabgarh - HSPCB",03-03-2026 15:00:00,28.3419248,77.319699,NO2,19,20,20
India,Haryana,Ballabgarh,"Nathu Colony, Ballabgarh - HSPCB",03-03-2026 15:00:00,28.3419248,77.319699,CO,20,90,32
India,Gujarat,Ahmedabad,"Chandkheda, Ahmedabad - IITM",03-03-2026 15:00:00,23.107969,72.574648,NH3,4,17,9
India,Gujarat,Ahmedabad,"Chandkheda, Ahmedabad - IITM",03-03-2026 15:00:00,23.107969,72.574648,CO,13,89,27
India,Gujarat,Ahmedabad,"Gyaspur, Ahmedabad - IITM",03-03-2026 15:00:00,22.977134,72.553024,PM10,109,248,164
India,Gujarat,Ahmedabad,"Maninagar, Ahmedabad - GPCB",03-03-2026 15:00:00,23.002657,72.591912,PM10,54,305,125
India,Gujarat,Ahmedabad,"Rakhial, Ahmedabad - IITM",03-03-2026 15:00:00,23.016834,72.625775,PM2.5,53,401,205
India,Haryana,Charkhi Dadri,"Mini Secretariat, Charkhi Dadri - HSPCB",03-03-2026 15:00:00,28.593883,76.270653,OZONE,13,18,15
India,Haryana,Dharuhera,"Municipal Corporation Office, Dharuhera -  HSPCB",03-03-2026 15:00:00,28.206800,76.799700,NO2,16,56,42
India,Haryana,Dharuhera,"Municipal Corporation Office, Dharuhera -  HSPCB",03-03-2026 15:00:00,28.206800,76.799700,NH3,10,29,21
India,Haryana,Dharuhera,"Municipal Corporation Office, Dharuhera -  HSPCB",03-03-2026 15:00:00,28.206800,76.799700,CO,54,102,66
India,Karnataka,Madikeri,"Stuart Hill, Madikeri - KSPCB",03-03-2026 15:00:00,12.415911,75.735050,SO2,7,7,7
India,Karnataka,Mysuru,"Hebbal 1st Stage, Mysuru - KSPCB",03-03-2026 15:00:00,12.21041,76.37376,PM2.5,28,70,48
India,Karnataka,Mysuru,"Hebbal 1st Stage, Mysuru - KSPCB",03-03-2026 15:00:00,12.21041,76.37376,PM10,48,111,76
India,Karnataka,Mysuru,"Hebbal 1st Stage, Mysuru - KSPCB",03-03-2026 15:00:00,12.21041,76.37376,NO2,9,28,19
India,Karnataka,Ramanagara,"Vijay Nagar, Ramanagara - KSPCB",03-03-2026 15:00:00,12.733409,77.298051,OZONE,22,68,50
India,Karnataka,Shivamogga,"Vinoba Nagara, Shivamogga - KSPCB",03-03-2026 15:00:00,13.940000,75.555917,PM2.5,25,61,55
India,Karnataka,Shivamogga,"Vinoba Nagara, Shivamogga - KSPCB",03-03-2026 15:00:00,13.940000,75.555917,NO2,8,33,30
India,Karnataka,Shivamogga,"Vinoba Nagara, Shivamogga - KSPCB",03-03-2026 15:00:00,13.940000,75.555917,OZONE,31,106,72
India,Karnataka,Vijayapura,"Ibrahimpur, Vijayapura - KSPCB",03-03-2026 15:00:00,16.802639,75.722694,CO,9,39,27
India,Karnataka,Yadgir,"Collector Office, Yadgir - KSPCB",03-03-2026 15:00:00,16.7602,77.1428,NH3,2,3,2
India,Karnataka,Yadgir,"Collector Office, Yadgir - KSPCB",03-03-2026 15:00:00,16.7602,77.1428,SO2,3,14,9
India,Kerala,Eloor,"Udyogamandal, Eloor - Kerala PCB",03-03-2026 15:00:00,10.073232,76.302765,PM10,71,81,76
India,Kerala,Kannur,"Thavakkara, Kannur - Kerala PCB",03-03-2026 15:00:00,11.875000,75.373200,SO2,1,12,4
India,Kerala,Kannur,"Thavakkara, Kannur - Kerala PCB",03-03-2026 15:00:00,11.875000,75.373200,OZONE,27,32,30
India,Kerala,Kollam,"Polayathode, Kollam - Kerala PCB",03-03-2026 15:00:00,8.8787,76.6073,CO,14,17,16
India,Kerala,Thiruvananthapuram,"Kariavattom, Thiruvananthapuram - Kerala PCB",03-03-2026 15:00:00,8.563700,76.886500,PM10,53,114,90
India,Jammu_and_Kashmir,Pampore,"Khrew, Pampore - JKPCC",03-03-2026 15:00:00,34.031606,75.009712,PM2.5,21,75,46
India,Jammu_and_Kashmir,Pampore,"Khrew, Pampore - JKPCC",03-03-2026 15:00:00,34.031606,75.009712,SO2,2,3,3
India,Jharkhand,Dhanbad,"Sardar Patel Nagar, Dhanbad - JSPCB",03-03-2026 15:00:00,23.80569,86.44268,PM2.5,NA,NA,NA
India,Karnataka,Bengaluru,"BTM Layout, Bengaluru - CPCB",03-03-2026 15:00:00,12.9135218,77.5950804,CO,40,46,43
India,Karnataka,Bengaluru,"BTM Layout, Bengaluru - CPCB",03-03-2026 15:00:00,12.9135218,77.5950804,OZONE,27,28,28
India,Karnataka,Bengaluru,"Bapuji Nagar, Bengaluru - KSPCB",03-03-2026 15:00:00,12.951913,77.539784,NO2,11,13,12
India,Karnataka,Bengaluru,"Hebbal, Bengaluru - KSPCB",03-03-2026 15:00:00,13.029152,77.585901,NH3,1,1,1
India,Karnataka,Bengaluru,"Hebbal, Bengaluru - KSPCB",03-03-2026 15:00:00,13.029152,77.585901,CO,23,60,39
India,Karnataka,Bengaluru,"Hombegowda Nagar, Bengaluru - KSPCB",03-03-2026 15:00:00,12.938539,77.590100,CO,6,56,13
India,Karnataka,Bengaluru,"Hombegowda Nagar, Bengaluru - KSPCB",03-03-2026 15:00:00,12.938539,77.590100,OZONE,24,125,105
India,Karnataka,Bengaluru,"Jigani, Bengaluru - KSPCB",03-03-2026 15:00:00,12.7816279,77.6299145,CO,42,48,43
India,Karnataka,Bengaluru,"Jigani, Bengaluru - KSPCB",03-03-2026 15:00:00,12.7816279,77.6299145,OZONE,19,23,22
India,Karnataka,Bengaluru,"Peenya, Bengaluru - CPCB",03-03-2026 15:00:00,13.0270199,77.494094,NH3,3,6,4
India,Karnataka,Bengaluru,"RVCE-Mailasandra, Bengaluru - KSPCB",03-03-2026 15:00:00,12.921418,77.502466,PM2.5,10,481,221
India,Karnataka,Bengaluru,"RVCE-Mailasandra, Bengaluru - KSPCB",03-03-2026 15:00:00,12.921418,77.502466,NO2,24,31,31
India,Karnataka,Bengaluru,"RVCE-Mailasandra, Bengaluru - KSPCB",03-03-2026 15:00:00,12.921418,77.502466,CO,4,42,26
India,Karnataka,Bengaluru,"RVCE-Mailasandra, Bengaluru - KSPCB",03-03-2026 15:00:00,12.921418,77.502466,OZONE,23,24,23
India,Karnataka,Bengaluru,"Silk Board, Bengaluru - KSPCB",03-03-2026 15:00:00,12.917348,77.622813,PM2.5,91,211,154
India,Karnataka,Bengaluru,"Silk Board, Bengaluru - KSPCB",03-03-2026 15:00:00,12.917348,77.622813,SO2,4,24,10
