country,state,city,station,last_update,latitude,longitude,pollutant_id,min_value,max_value,avg_value
India,Bihar,Bettiah,"Kamalnath Nagar, Bettiah - BSPCB",09-12-2025 07:00:00,26.80365,84.51954,CO,66,134,109
India,Bihar,Bhagalpur,"DM Office_Kachari Chowk, Bhagalpur - BSPCB",09-12-2025 07:00:00,25.251013,86.989001,PM2.5,120,308,253
India,Bihar,Bhagalpur,"DM Office_Kachari Chowk, Bhagalpur - BSPCB",09-12-2025 07:00:00,25.251013,86.989001,NH3,1,1,1
India,Bihar,Bhagalpur,"DM Office_Kachari Chowk, Bhagalpur - BSPCB",09-12-2025 07:00:00,25.251013,86.989001,CO,14,20,17
India,Bihar,Bhagalpur,"DM Office_Kachari Chowk, Bhagalpur - BSPCB",09-12-2025 07:00:00,25.251013,86.989001,OZONE,11,21,15
India,Bihar,Bhagalpur,"Mayaganj, Bhagalpur - BSPCB",09-12-2025 07:00:00,25.265194,87.012947,CO,79,109,94
India,Bihar,Bihar Sharif,"D M Colony, Bihar Sharif - BSPCB",09-12-2025 07:00:00,25.204762,85.514960,OZONE,1,4,1
India,Assam,Sivasagar,"Girls College, Sivasagar - PCBA",09-12-2025 07:00:00,26.987634,94.636574,NH3,3,26,11
India,Assam,Sivasagar,"Girls College, Sivasagar - PCBA",09-12-2025 07:00:00,26.987634,94.636574,SO2,7,18,13
India,Assam,Sivasagar,"Girls College, Sivasagar - PCBA",09-12-2025 07:00:00,26.987634,94.636574,CO,8,113,71
India,Bihar,Araria,"Kharahiya Basti, Araria - BSPCB",09-12-2025 07:00:00,26.146529,87.454184,NH3,4,5,4
India,Bihar,Begusarai,"Lohiyanagar, Begusarai - BSPCB",09-12-2025 07:00:00,25.42742023,86.13886079,SO2,1,25,5
India,Bihar,Bettiah,"Kamalnath Nagar, Bettiah - BSPCB",09-12-2025 07:00:00,26.80365,84.51954,PM2.5,33,283,147
India,Assam,Guwahati,"Railway Colony, Guwahati - PCBA",09-12-2025 07:00:00,26.181742,91.78063,PM2.5,43,352,175
India,Assam,Nagaon,"Christianpatty, Nagaon - PCBA",09-12-2025 07:00:00,26.349082,92.68449,OZONE,6,9,9
India,Assam,Nalbari,"Bata Chowk, Nalbari - PCBA",09-12-2025 07:00:00,26.446912,91.439057,PM10,34,117,76
India,Assam,Nalbari,"Bata Chowk, Nalbari - PCBA",09-12-2025 07:00:00,26.446912,91.439057,NO2,14,16,15
India,Assam,Nalbari,"Bata Chowk, Nalbari - PCBA",09-12-2025 07:00:00,26.446912,91.439057,SO2,4,9,8
India,Bihar,Hajipur,"Industrial Area, Hajipur - BSPCB",09-12-2025 07:00:00,25.697189,85.245900,PM2.5,168,328,236
India,Bihar,Hajipur,"Industrial Area, Hajipur - BSPCB",09-12-2025 07:00:00,25.697189,85.245900,OZONE,6,92,10
India,Bihar,Kishanganj,"SDM Office_Khagra, Kishanganj - BSPCB",09-12-2025 07:00:00,26.0881305,87.93840336,SO2,5,9,7
India,Bihar,Manguraha,"Forest Rest House, Manguraha - BSPCB",09-12-2025 07:00:00,27.308328,84.531742,PM2.5,7,107,52
India,Andaman and Nicobar,Sri Vijaya Puram,"Police Line, Sri Vijaya Puram - ANPCC",09-12-2025 07:00:00,11.654054,92.734055,SO2,1,47,29
India,Andhra_Pradesh,Anantapur,"Gulzarpet, Anantapur - APPCB",09-12-2025 07:00:00,14.675886,77.593027,NO2,14,24,21
India,Andhra_Pradesh,Anantapur,"Gulzarpet, Anantapur - APPCB",09-12-2025 07:00:00,14.675886,77.593027,NH3,5,7,5
India,Andhra_Pradesh,Chittoor,"Gangineni Cheruvu, Chittoor - APPCB",09-12-2025 07:00:00,13.204880,79.097889,NH3,5,7,6
India,Assam,Byrnihat,"Central Academy for SFS, Byrnihat - PCBA",09-12-2025 07:00:00,26.071318,91.87488,SO2,5,8,6
India,Assam,Guwahati,"IITG, Guwahati - PCBA",09-12-2025 07:00:00,26.2028636,91.70046436,NO2,1,8,4
India,Assam,Guwahati,"LGBI Airport, Guwahati - PCBA",09-12-2025 07:00:00,26.10887,91.589544,PM10,60,132,110
India,Assam,Guwahati,"Pan Bazaar, Guwahati - PCBA",09-12-2025 07:00:00,26.187500,91.744194,PM2.5,34,143,87
India,Bihar,Motihari,"Gandak Colony, Motihari - BSPCB",09-12-2025 07:00:00,26.63086,84.90051,SO2,2,3,2
India,Bihar,Munger,"Town Hall, Munger - BSPCB",09-12-2025 07:00:00,25.376776,86.471523,OZONE,13,27,18
India,Bihar,Muzaffarpur,"Buddha Colony, Muzaffarpur - BSPCB",09-12-2025 07:00:00,26.11442,85.39813,SO2,5,14,9
India,Andhra_Pradesh,Vijayawada,"Rajiv Gandhi Park, Vijayawada - APPCB",09-12-2025 07:00:00,16.509717,80.612222,PM10,67,112,87
India,Andhra_Pradesh,Visakhapatnam,"GVM Corporation, Visakhapatnam - APPCB",09-12-2025 07:00:00,17.72,83.3,NO2,28,183,107
India,Andhra_Pradesh,Visakhapatnam,"GVM Corporation, Visakhapatnam - APPCB",09-12-2025 07:00:00,17.72,83.3,CO,13,74,49
India,Andhra_Pradesh,Kadapa,"Yerramukkapalli, Kadapa - APPCB",09-12-2025 07:00:00,14.465052,78.824187,PM2.5,41,128,69
India,Andhra_Pradesh,Kadapa,"Yerramukkapalli, Kadapa - APPCB",09-12-2025 07:00:00,14.465052,78.824187,SO2,7,16,9
India,Andhra_Pradesh,Tirumala,"Toll Gate, Tirumala - APPCB",09-12-2025 07:00:00,13.67,79.35,SO2,4,7,6
India,Bihar,Chhapra,"Darshan Nagar, Chhapra - BSPCB",09-12-2025 07:00:00,25.7808257,84.7446768,OZONE,25,54,29
India,Bihar,Gaya,"SFTI Kusdihra, Gaya - BSPCB",09-12-2025 07:00:00,24.762518,84.982348,PM10,57,93,70
India,Bihar,Rajgir,"Dangi Tola, Rajgir - BSPCB",09-12-2025 07:00:00,25.03280,85.41948,SO2,19,23,21
India,Bihar,Saharsa,"Police Line, Saharsa - BSPCB",09-12-2025 07:00:00,25.892357,86.590325,NH3,4,4,4
India,Bihar,Saharsa,"Police Line, Saharsa - BSPCB",09-12-2025 07:00:00,25.892357,86.590325,SO2,8,19,13
India,Bihar,Saharsa,"Police Line, Saharsa - BSPCB",09-12-2025 07:00:00,25.892357,86.590325,CO,19,44,36
India,Bihar,Samastipur,"DM Office_Kasipur, Samastipur - BSPCB",09-12-2025 07:00:00,25.859655,85.77944,SO2,12,36,25
India,Bihar,Sasaram,"Dada Peer, Sasaram - BSPCB",09-12-2025 07:00:00,24.952822,84.002396,NO2,2,3,2
India,Bihar,Sasaram,"Dada Peer, Sasaram - BSPCB",09-12-2025 07:00:00,24.952822,84.002396,NH3,3,3,3
India,Bihar,Sasaram,"Dada Peer, Sasaram - BSPCB",09-12-2025 07:00:00,24.952822,84.002396,SO2,4,6,4
India,Bihar,Sasaram,"Dada Peer, Sasaram - BSPCB",09-12-2025 07:00:00,24.952822,84.002396,CO,50,56,52
India,Bihar,Siwan,"Chitragupta Nagar, Siwan - BSPCB",09-12-2025 07:00:00,26.2271665,84.3570427,NH3,1,1,1
India,Chhattisgarh,Milupara,"Govt. Higher Secondary School, Milupara - CECB",09-12-2025 07:00:00,22.1910172,83.5197009,CO,16,54,30
India,Chhattisgarh,Raipur,"AIIMS, Raipur - CECB",09-12-2025 07:00:00,21.258815,81.578979,SO2,4,33,8
India,Chhattisgarh,Raipur,"AIIMS, Raipur - CECB",09-12-2025 07:00:00,21.258815,81.578979,CO,23,84,60
India,Chhattisgarh,Raipur,"Bhatagaon New ISBT, Raipur - CECB",09-12-2025 07:00:00,21.219665,81.630094,PM10,28,134,91
India,Chhattisgarh,Raipur,"Krishak Nagar, Raipur - CECB",09-12-2025 07:00:00,21.237755,81.705301,PM2.5,28,87,56
India,Chhattisgarh,Raipur,"Krishak Nagar, Raipur - CECB",09-12-2025 07:00:00,21.237755,81.705301,NO2,17,27,21
India,Chhattisgarh,Raipur,"Krishak Nagar, Raipur - CECB",09-12-2025 07:00:00,21.237755,81.705301,OZONE,NA,NA,NA
India,Chhattisgarh,Raipur,"Siltara Phase-II, Raipur - CECB",09-12-2025 07:00:00,21.371751,81.664929,PM10,64,154,104
India,Bihar,Siwan,"Chitragupta Nagar, Siwan - BSPCB",09-12-2025 07:00:00,26.2271665,84.3570427,CO,27,32,28
India,Chandigarh,Chandigarh,"Sector-25, Chandigarh - CPCC",09-12-2025 07:00:00,30.751462,76.762879,PM2.5,93,182,124
India,Chandigarh,Chandigarh,"Sector-25, Chandigarh - CPCC",09-12-2025 07:00:00,30.751462,76.762879,NO2,17,40,26
India,Chandigarh,Chandigarh,"Sector-25, Chandigarh - CPCC",09-12-2025 07:00:00,30.751462,76.762879,SO2,4,37,14
India,Chandigarh,Chandigarh,"Sector-25, Chandigarh - CPCC",09-12-2025 07:00:00,30.751462,76.762879,OZONE,1,66,31
India,Chandigarh,Chandigarh,"Sector-53, Chandigarh - CPCC",09-12-2025 07:00:00,30.719859,76.738637,NH3,6,10,8
India,Chhattisgarh,Bhilai,"32Bungalows, Bhilai - CECB",09-12-2025 07:00:00,21.194815,81.314770,CO,16,108,79
India,Delhi,Delhi,"Aya Nagar, Delhi - IMD",09-12-2025 07:00:00,28.4706914,77.1099364,CO,11,56,22
India,Delhi,Delhi,"Bawana, Delhi - DPCC",09-12-2025 07:00:00,28.776200,77.051074,NH3,4,5,5
India,Delhi,Delhi,"Bawana, Delhi - DPCC",09-12-2025 07:00:00,28.776200,77.051074,SO2,9,27,17
India,Delhi,Delhi,"Burari Crossing, Delhi - IMD",09-12-2025 07:00:00,28.7256504,77.2011573,PM10,148,270,202
India,Delhi,Delhi,"Burari Crossing, Delhi - IMD",09-12-2025 07:00:00,28.7256504,77.2011573,NO2,73,147,106
India,Delhi,Delhi,"CRRI Mathura Road, Delhi - IMD",09-12-2025 07:00:00,28.5512005,77.2735737,PM2.5,106,326,269
India,Delhi,Delhi,"DTU, Delhi - CPCB",09-12-2025 07:00:00,28.7500499,77.1112615,PM10,130,270,202
India,Bihar,Muzaffarpur,"Muzaffarpur Collectorate, Muzaffarpur - BSPCB",09-12-2025 07:00:00,26.1209,85.3647,SO2,4,8,5
India,Bihar,Muzaffarpur,"Muzaffarpur Collectorate, Muzaffarpur - BSPCB",09-12-2025 07:00:00,26.1209,85.3647,OZONE,8,52,13
India,Bihar,Patna,"Govt. High School Shikarpur, Patna - BSPCB",09-12-2025 07:00:00,25.592539,85.227158,PM10,72,204,113
India,Bihar,Patna,"IGSC Planetarium Complex, Patna - BSPCB",09-12-2025 07:00:00,25.610369,85.132568,OZONE,28,30,29
India,Bihar,Patna,"Muradpur, Patna - BSPCB",09-12-2025 07:00:00,25.619651,85.147382,PM2.5,146,319,212
India,Bihar,Patna,"Muradpur, Patna - BSPCB",09-12-2025 07:00:00,25.619651,85.147382,PM10,127,171,147
India,Chhattisgarh,Korba,"Urja Nagar, Korba - CECB",09-12-2025 07:00:00,22.348441,82.549611,PM2.5,70,86,72
India,Chhattisgarh,Korba,"Urja Nagar, Korba - CECB",09-12-2025 07:00:00,22.348441,82.549611,CO,16,78,51
India,Chhattisgarh,Kunjemura,"OP Jindal School, Kunjemura - CECB",09-12-2025 07:00:00,22.126650,83.483212,PM10,41,110,77
India,Chhattisgarh,Kunjemura,"OP Jindal School, Kunjemura - CECB",09-12-2025 07:00:00,22.126650,83.483212,CO,8,66,25
India,Chhattisgarh,Milupara,"Govt. Higher Secondary School, Milupara - CECB",09-12-2025 07:00:00,22.1910172,83.5197009,PM10,29,277,86
India,Chhattisgarh,Milupara,"Govt. Higher Secondary School, Milupara - CECB",09-12-2025 07:00:00,22.1910172,83.5197009,NH3,1,2,2
India,Chhattisgarh,Bhilai,"Civic Center, Bhilai - Bhilai Steel Plant",09-12-2025 07:00:00,21.185571,81.343175,SO2,6,10,8
India,Chhattisgarh,Bhilai,"Hathkhoj, Bhilai - CECB",09-12-2025 07:00:00,21.224231,81.408350,CO,14,112,99
India,Chhattisgarh,Bilaspur,"Mangala, Bilaspur - NTPC",09-12-2025 07:00:00,22.08815,82.13737,PM10,43,109,71
India,Chhattisgarh,Bilaspur,"Mangala, Bilaspur - NTPC",09-12-2025 07:00:00,22.08815,82.13737,NO2,19,84,36
India,Chhattisgarh,Chhal,"Nawapara SECL Colony, Chhal - CECB",09-12-2025 07:00:00,22.118125,83.140608,NH3,6,6,6
India,Delhi,Delhi,"Alipur, Delhi - DPCC",09-12-2025 07:00:00,28.815329,77.153010,CO,48,86,68
India,Delhi,Delhi,"Anand Vihar, Delhi - DPCC",09-12-2025 07:00:00,28.647622,77.3158090,CO,76,123,103
India,Delhi,Delhi,"Anand Vihar, Delhi - DPCC",09-12-2025 07:00:00,28.647622,77.3158090,OZONE,1,27,17
India,Delhi,Delhi,"Ashok Vihar, Delhi - DPCC",09-12-2025 07:00:00,28.695381,77.181665,OZONE,4,96,25
India,Bihar,Patna,"Rajbansi Nagar, Patna - BSPCB",09-12-2025 07:00:00,25.599486,85.113666,SO2,5,9,8
India,Bihar,Patna,"Rajbansi Nagar, Patna - BSPCB",09-12-2025 07:00:00,25.599486,85.113666,OZONE,21,31,25
India,Delhi,Delhi,"Sirifort, Delhi - CPCB",09-12-2025 07:00:00,28.5504249,77.2159377,CO,24,81,50
India,Delhi,Delhi,"Sonia Vihar, Delhi - DPCC",09-12-2025 07:00:00,28.710508,77.249485,PM2.5,143,351,300
India,Delhi,Delhi,"Sonia Vihar, Delhi - DPCC",09-12-2025 07:00:00,28.710508,77.249485,NO2,24,102,56
India,Delhi,Delhi,"Sri Aurobindo Marg, Delhi - DPCC",09-12-2025 07:00:00,28.531346,77.190156,CO,53,90,65
India,Delhi,Delhi,"Vivek Vihar, Delhi - DPCC",09-12-2025 07:00:00,28.672342,77.315260,PM10,168,381,243
India,Delhi,Delhi,"Vivek Vihar, Delhi - DPCC",09-12-2025 07:00:00,28.672342,77.315260,NO2,38,139,79
India,Delhi,Delhi,"Vivek Vihar, Delhi - DPCC",09-12-2025 07:00:00,28.672342,77.315260,CO,48,108,73
India,Delhi,Delhi,"Wazirpur, Delhi - DPCC",09-12-2025 07:00:00,28.699793,77.165453,NO2,55,129,84
India,Gujarat,Ahmedabad,"Rakhial, Ahmedabad - IITM",09-12-2025 07:00:00,23.016834,72.625775,OZONE,1,61,7
India,Gujarat,Ahmedabad,"SAC ISRO Bopal, Ahmedabad - IITM",09-12-2025 07:00:00,23.041137,72.456691,PM10,50,184,106
India,Gujarat,Ahmedabad,"SAC ISRO Bopal, Ahmedabad - IITM",09-12-2025 07:00:00,23.041137,72.456691,CO,4,28,21
India,Gujarat,Ahmedabad,"SVPI Airport Hansol, Ahmedabad - IITM",09-12-2025 07:00:00,23.076793,72.627874,PM10,37,182,111
India,Gujarat,Ahmedabad,"SVPI Airport Hansol, Ahmedabad - IITM",09-12-2025 07:00:00,23.076793,72.627874,SO2,5,13,7
India,Gujarat,Ankleshwar,"GIDC, Ankleshwar - GPCB",09-12-2025 07:00:00,21.613267,73.010555,CO,26,74,65
India,Delhi,Delhi,"NSIT Dwarka, Delhi - CPCB",09-12-2025 07:00:00,28.60909,77.0325413,OZONE,7,82,10
India,Delhi,Delhi,"Najafgarh, Delhi - DPCC",09-12-2025 07:00:00,28.570173,76.933762,NO2,62,85,74
India,Delhi,Delhi,"Najafgarh, Delhi - DPCC",09-12-2025 07:00:00,28.570173,76.933762,NH3,16,19,18
India,Delhi,Delhi,"Najafgarh, Delhi - DPCC",09-12-2025 07:00:00,28.570173,76.933762,SO2,21,42,28
India,Delhi,Delhi,"Nehru Nagar, Delhi - DPCC",09-12-2025 07:00:00,28.567890,77.250515,OZONE,3,294,14
India,Delhi,Delhi,"North Campus, DU, Delhi - IMD",09-12-2025 07:00:00,28.6573814,77.1585447,PM2.5,139,356,282
India,Delhi,Delhi,"IIT Delhi, Delhi - IITM",09-12-2025 07:00:00,28.542460,77.191651,OZONE,5,49,15
India,Delhi,Delhi,"ITO, Delhi - CPCB",09-12-2025 07:00:00,28.628624,77.241060,NH3,2,4,3
India,Delhi,Delhi,"Jahangirpuri, Delhi - DPCC",09-12-2025 07:00:00,28.732820,77.170633,CO,38,126,61
India,Delhi,Delhi,"Jahangirpuri, Delhi - DPCC",09-12-2025 07:00:00,28.732820,77.170633,OZONE,7,113,25
India,Delhi,Delhi,"Jawaharlal Nehru Stadium, Delhi - DPCC",09-12-2025 07:00:00,28.580280,77.233829,SO2,3,16,9
India,Gujarat,Ahmedabad,"Gyaspur, Ahmedabad - IITM",09-12-2025 07:00:00,22.977134,72.553024,NH3,4,33,13
India,Gujarat,Ahmedabad,"Gyaspur, Ahmedabad - IITM",09-12-2025 07:00:00,22.977134,72.553024,CO,30,131,89
India,Gujarat,Ahmedabad,"Maninagar, Ahmedabad - GPCB",09-12-2025 07:00:00,23.002657,72.591912,PM10,69,259,120
India,Gujarat,Ahmedabad,"Maninagar, Ahmedabad - GPCB",09-12-2025 07:00:00,23.002657,72.591912,SO2,39,52,45
India,Gujarat,Ahmedabad,"Raikhad, Ahmedabad - IITM",09-12-2025 07:00:00,23.020509,72.579261,CO,6,77,25
India,Delhi,Delhi,"Dr. Karni Singh Shooting Range, Delhi - DPCC",09-12-2025 07:00:00,28.498571,77.264840,PM2.5,187,366,312
India,Delhi,Delhi,"Dr. Karni Singh Shooting Range, Delhi - DPCC",09-12-2025 07:00:00,28.498571,77.264840,PM10,161,321,221
India,Delhi,Delhi,"Dwarka-Sector 8, Delhi - DPCC ",09-12-2025 07:00:00,28.5710274,77.0719006,SO2,25,37,29
India,Delhi,Delhi,"Dwarka-Sector 8, Delhi - DPCC ",09-12-2025 07:00:00,28.5710274,77.0719006,OZONE,1,145,7
India,Delhi,Delhi,"Lodhi Road, Delhi - IITM",09-12-2025 07:00:00,28.588333,77.221667,PM2.5,128,325,267
India,Delhi,Delhi,"Lodhi Road, Delhi - IITM",09-12-2025 07:00:00,28.588333,77.221667,PM10,126,207,159
India,Delhi,Delhi,"Lodhi Road, Delhi - IMD",09-12-2025 07:00:00,28.5918245,77.2273074,OZONE,6,95,8
India,Delhi,Delhi,"Mandir Marg, Delhi - DPCC",09-12-2025 07:00:00,28.636429,77.201067,OZONE,2,92,4
India,Delhi,Delhi,"Okhla Phase-2, Delhi - DPCC",09-12-2025 07:00:00,28.530785,77.271255,PM10,157,364,215
India,Delhi,Delhi,"Okhla Phase-2, Delhi - DPCC",09-12-2025 07:00:00,28.530785,77.271255,CO,80,122,97
India,Delhi,Delhi,"Okhla Phase-2, Delhi - DPCC",09-12-2025 07:00:00,28.530785,77.271255,OZONE,5,134,19
India,Delhi,Delhi,"Punjabi Bagh, Delhi - DPCC",09-12-2025 07:00:00,28.674045,77.131023,OZONE,6,72,16
India,Delhi,Delhi,"R K Puram, Delhi - DPCC",09-12-2025 07:00:00,28.563262,77.186937,NO2,33,145,91
India,Delhi,Delhi,"Rohini, Delhi - DPCC",09-12-2025 07:00:00,28.732528,77.119920,SO2,14,44,22
India,Delhi,Delhi,"Shadipur, Delhi - CPCB",09-12-2025 07:00:00,28.6514781,77.1473105,NH3,9,15,11
India,Haryana,Yamuna Nagar,"Gobind Pura, Yamuna Nagar - HSPCB",09-12-2025 07:00:00,30.1480566,77.2893471,NH3,1,6,4
India,Haryana,Yamuna Nagar,"Gobind Pura, Yamuna Nagar - HSPCB",09-12-2025 07:00:00,30.1480566,77.2893471,OZONE,8,34,9
India,Jammu_and_Kashmir,Srinagar,"Rajbagh, Srinagar - JKSPCB",09-12-2025 07:00:00,34.066206,74.819820,PM2.5,44,84,65
India,Jammu_and_Kashmir,Srinagar,"Rajbagh, Srinagar - JKSPCB",09-12-2025 07:00:00,34.066206,74.819820,SO2,3,4,3
India,Jammu_and_Kashmir,Srinagar,"Rajbagh, Srinagar - JKSPCB",09-12-2025 07:00:00,34.066206,74.819820,OZONE,NA,NA,NA
India,Jharkhand,Dhanbad,"Sardar Patel Nagar, Dhanbad - JSPCB",09-12-2025 07:00:00,23.80569,86.44268,PM10,10,267,174
India,Jharkhand,Jorapokhar,"Tata Stadium, Jorapokhar - JSPCB",09-12-2025 07:00:00,23.707909,86.414670,PM2.5,NA,NA,NA
India,Gujarat,Ankleshwar,"GIDC, Ankleshwar - GPCB",09-12-2025 07:00:00,21.613267,73.010555,OZONE,39,49,49
India,Gujarat,Gandhinagar,"Sector-10, Gandhinagar - GPCB",09-12-2025 07:00:00,23.221714,72.654328,OZONE,2,59,6
India,Gujarat,Nandesari,"GIDC, Nandesari - Nandesari Ind. Association",09-12-2025 07:00:00,22.410802,73.097923,SO2,NA,NA,NA
India,Gujarat,Surat,"Science Center, Surat - SMC",09-12-2025 07:00:00,21.170046,72.795405,PM2.5,10,407,62
India,Gujarat,Surat,"Science Center, Surat - SMC",09-12-2025 07:00:00,21.170046,72.795405,SO2,35,41,38
India,Gujarat,Surat,"Science Center, Surat - SMC",09-12-2025 07:00:00,21.170046,72.795405,CO,34,42,39
India,Gujarat,Vapi,"Phase-1 GIDC, Vapi - GPCB",09-12-2025 07:00:00,20.362421,72.918013,PM2.5,28,199,74
India,Haryana,Kaithal,"Rishi Nagar, Kaithal - HSPCB",09-12-2025 07:00:00,29.8006,76.4155,CO,11,54,20
India,Haryana,Karnal,"Sector-12, Karnal - HSPCB",09-12-2025 07:00:00,29.695300,77.002700,PM2.5,NA,NA,NA
India,Haryana,Karnal,"Sector-12, Karnal - HSPCB",09-12-2025 07:00:00,29.695300,77.002700,NO2,NA,NA,NA
India,Haryana,Karnal,"Sector-12, Karnal - HSPCB",09-12-2025 07:00:00,29.695300,77.002700,SO2,NA,NA,NA
India,Haryana,Mandikhera,"General Hospital, Mandikhera(Nuh) - HSPCB",09-12-2025 07:00:00,27.9002,76.9938,PM2.5,60,175,105
India,Haryana,Mandikhera,"General Hospital, Mandikhera(Nuh) - HSPCB",09-12-2025 07:00:00,27.9002,76.9938,NO2,19,24,21
India,Haryana,Mandikhera,"General Hospital, Mandikhera(Nuh) - HSPCB",09-12-2025 07:00:00,27.9002,76.9938,SO2,32,37,34
India,Haryana,Manesar,"Sector-2 IMT, Manesar - HSPCB",09-12-2025 07:00:00,28.360699,76.936090,NO2,42,49,45
India,Haryana,Gurugram,"Sector-51, Gurugram - HSPCB",09-12-2025 07:00:00,28.4227,77.0667,NH3,6,10,8
India,Haryana,Gurugram,"Teri Gram, Gurugram - HSPCB",09-12-2025 07:00:00,28.4275,77.1465,PM10,135,190,173
India,Haryana,Gurugram,"Teri Gram, Gurugram - HSPCB",09-12-2025 07:00:00,28.4275,77.1465,OZONE,10,45,12
India,Haryana,Gurugram,"Vikas Sadan, Gurugram - HSPCB",09-12-2025 07:00:00,28.4501238,77.0263051,NO2,6,46,21
India,Haryana,Hisar,"Urban Estate-II, Hisar - HSPCB",09-12-2025 07:00:00,29.140560,75.744941,SO2,7,15,10
India,Haryana,Jind,"Police Lines, Jind - HSPCB",09-12-2025 07:00:00,29.307814,76.337619,CO,1,111,47
India,Haryana,Ballabgarh,"Nathu Colony, Ballabgarh - HSPCB",09-12-2025 07:00:00,28.3419248,77.319699,OZONE,15,16,15
India,Haryana,Charkhi Dadri,"Mini Secretariat, Charkhi Dadri - HSPCB",09-12-2025 07:00:00,28.593883,76.270653,PM2.5,181,306,239
India,Haryana,Charkhi Dadri,"Mini Secretariat, Charkhi Dadri - HSPCB",09-12-2025 07:00:00,28.593883,76.270653,PM10,123,169,142
India,Haryana,Dharuhera,"Municipal Corporation Office, Dharuhera -  HSPCB",09-12-2025 07:00:00,28.206800,76.799700,NH3,6,17,13
India,Haryana,Faridabad,"New Industrial Town, Faridabad - HSPCB",09-12-2025 07:00:00,28.39072,77.30059,NH3,11,12,11
India,Haryana,Faridabad,"Sector 11, Faridabad - HSPCB",09-12-2025 07:00:00,28.376058,77.315741,PM2.5,79,222,137
India,Haryana,Faridabad,"Sector 11, Faridabad - HSPCB",09-12-2025 07:00:00,28.376058,77.315741,PM10,95,162,128
India,Haryana,Faridabad,"Sector 30, Faridabad - HSPCB",09-12-2025 07:00:00,28.4417,77.3217,NH3,11,12,11
India,Haryana,Fatehabad,"Huda Sector, Fatehabad - HSPCB",09-12-2025 07:00:00,29.503664,75.467934,PM10,109,174,148
India,Haryana,Fatehabad,"Huda Sector, Fatehabad - HSPCB",09-12-2025 07:00:00,29.503664,75.467934,OZONE,15,19,16
India,Haryana,Gurugram,"NISE Gwal Pahari, Gurugram - IMD",09-12-2025 07:00:00,28.422681,77.148944,NO2,22,37,29
India,Haryana,Narnaul,"Shastri Nagar, Narnaul - HSPCB",09-12-2025 07:00:00,28.060249,76.113115,PM2.5,168,308,216
India,Haryana,Narnaul,"Shastri Nagar, Narnaul - HSPCB",09-12-2025 07:00:00,28.060249,76.113115,NO2,65,148,91
India,Haryana,Narnaul,"Shastri Nagar, Narnaul - HSPCB",09-12-2025 07:00:00,28.060249,76.113115,SO2,6,7,6
India,Haryana,Panchgaon,"Amity University, Panchgaon - IITM",09-12-2025 07:00:00,28.3153,76.9143,CO,8,24,17
India,Haryana,Panipat,"Sector-18, Panipat - HSPCB",09-12-2025 07:00:00,29.432304,76.972765,OZONE,30,30,30
India,Haryana,Rohtak,"MD University, Rohtak - HSPCB",09-12-2025 07:00:00,28.52123,76.37138,PM10,43,92,65
India,Haryana,Rohtak,"MD University, Rohtak - HSPCB",09-12-2025 07:00:00,28.52123,76.37138,CO,54,58,56
India,Haryana,Rohtak,"MD University, Rohtak - HSPCB",09-12-2025 07:00:00,28.52123,76.37138,OZONE,25,26,25
India,Gujarat,Vatva,"Phase-4 GIDC, Vatva - GPCB",09-12-2025 07:00:00,22.969611,72.643500,NO2,38,49,43
India,Gujarat,Vatva,"Phase-4 GIDC, Vatva - GPCB",09-12-2025 07:00:00,22.969611,72.643500,CO,9,36,14
India,Haryana,Bahadurgarh,"Arya Nagar, Bahadurgarh - HSPCB",09-12-2025 07:00:00,28.6701,76.9254,NH3,12,14,13
India,Kerala,Kannur,"Thavakkara, Kannur - Kerala PCB",09-12-2025 07:00:00,11.875000,75.373200,NO2,15,16,16
India,Kerala,Kannur,"Thavakkara, Kannur - Kerala PCB",09-12-2025 07:00:00,11.875000,75.373200,NH3,2,2,2
India,Kerala,Kannur,"Thavakkara, Kannur - Kerala PCB",09-12-2025 07:00:00,11.875000,75.373200,OZONE,27,32,28
India,Kerala,Kollam,"Polayathode, Kollam - Kerala PCB",09-12-2025 07:00:00,8.8787,76.6073,CO,14,18,16
India,Kerala,Thiruvananthapuram,"Kariavattom, Thiruvananthapuram - Kerala PCB",09-12-2025 07:00:00,8.563700,76.886500,SO2,1,12,3
India,Kerala,Thiruvananthapuram,"Plammoodu, Thiruvananthapuram - Kerala PCB",09-12-2025 07:00:00,8.5149093,76.9435879,NH3,2,3,3
India,Kerala,Thiruvananthapuram,"Plammoodu, Thiruvananthapuram - Kerala PCB",09-12-2025 07:00:00,8.5149093,76.9435879,SO2,9,19,15
India,Kerala,Thiruvananthapuram,"Plammoodu, Thiruvananthapuram - Kerala PCB",09-12-2025 07:00:00,8.5149093,76.9435879,OZONE,2,23,18
India,Kerala,Thrissur,"Corporation Ground, Thrissur - Kerala PCB",09-12-2025 07:00:00,10.532400,76.215900,NO2,6,8,7
India,Karnataka,Chikkamagaluru,"Kalyana Nagara, Chikkamagaluru - KSPCB",09-12-2025 07:00:00,13.328028,75.797056,PM2.5,9,23,14
India,Karnataka,Chikkamagaluru,"Kalyana Nagara, Chikkamagaluru - KSPCB",09-12-2025 07:00:00,13.328028,75.797056,NO2,15,26,21
India,Karnataka,Chikkamagaluru,"Kalyana Nagara, Chikkamagaluru - KSPCB",09-12-2025 07:00:00,13.328028,75.797056,SO2,2,8,5
India,Karnataka,Chikkamagaluru,"Kalyana Nagara, Chikkamagaluru - KSPCB",09-12-2025 07:00:00,13.328028,75.797056,OZONE,11,61,11
India,Karnataka,Davanagere,"Devaraj Urs Badavane, Davanagere - KSPCB",09-12-2025 07:00:00,14.475800,75.905200,NO2,NA,NA,NA
India,Karnataka,Dharwad,"Kalabhavan, Dharwad - KSPCB",09-12-2025 07:00:00,15.459706,75.008381,PM10,66,105,84
India,Karnataka,Dharwad,"Kalabhavan, Dharwad - KSPCB",09-12-2025 07:00:00,15.459706,75.008381,OZONE,21,32,22
India,Karnataka,Hubballi,"Lingaraj Nagar, Hubballi - KSPCB",09-12-2025 07:00:00,15.3714823,75.1160168,NH3,1,2,1
India,Madhya Pradesh,Dewas,"Bhopal Chauraha, Dewas - MPPCB",09-12-2025 07:00:00,22.9682591,76.064118,CO,10,39,16
India,Madhya Pradesh,Gwalior,"City Center, Gwalior - MPPCB",09-12-2025 07:00:00,26.203442,78.193251,SO2,10,20,15
India,Madhya Pradesh,Gwalior,"Deen Dayal Nagar, Gwalior - MPPCB",09-12-2025 07:00:00,26.259242,78.216432,NO2,16,121,54
India,Madhya Pradesh,Gwalior,"Deen Dayal Nagar, Gwalior - MPPCB",09-12-2025 07:00:00,26.259242,78.216432,NH3,7,13,10
India,Madhya Pradesh,Gwalior,"Deen Dayal Nagar, Gwalior - MPPCB",09-12-2025 07:00:00,26.259242,78.216432,SO2,13,16,15
India,Madhya Pradesh,Gwalior,"Maharaj Bada, Gwalior - MPPCB",09-12-2025 07:00:00,26.200388,78.147714,PM2.5,45,316,134
India,Madhya Pradesh,Gwalior,"Maharaj Bada, Gwalior - MPPCB",09-12-2025 07:00:00,26.200388,78.147714,NH3,6,6,6
India,Madhya Pradesh,Gwalior,"Maharaj Bada, Gwalior - MPPCB",09-12-2025 07:00:00,26.200388,78.147714,OZONE,7,32,12
India,Karnataka,Mangalore,"Kadri, Mangalore - KSPCB",09-12-2025 07:00:00,12.889250,74.853000,OZONE,4,43,19
India,Karnataka,Shivamogga,"Vinoba Nagara, Shivamogga - KSPCB",09-12-2025 07:00:00,13.940000,75.555917,PM2.5,29,49,43
India,Karnataka,Yadgir,"Collector Office, Yadgir - KSPCB",09-12-2025 07:00:00,16.7602,77.1428,PM2.5,83,201,119
India,Karnataka,Yadgir,"Collector Office, Yadgir - KSPCB",09-12-2025 07:00:00,16.7602,77.1428,NO2,5,23,11
India,Kerala,Eloor,"Udyogamandal, Eloor - Kerala PCB",09-12-2025 07:00:00,10.073232,76.302765,CO,28,79,38
India,Kerala,Kannur,"Thavakkara, Kannur - Kerala PCB",09-12-2025 07:00:00,11.875000,75.373200,PM2.5,45,56,52
India,Karnataka,Kalaburagi,"Lal Bahadur Shastri Nagar, Kalaburagi - KSPCB",09-12-2025 07:00:00,17.321993,76.822628,NH3,1,2,1
India,Karnataka,Kalaburagi,"Mahatma Basaveswar Colony, Kalaburgi - KSPCB",09-12-2025 07:00:00,17.336318,76.847397,SO2,2,7,4
India,Karnataka,Kalaburagi,"Mahatma Basaveswar Colony, Kalaburgi - KSPCB",09-12-2025 07:00:00,17.336318,76.847397,CO,36,67,53
India,Karnataka,Kalaburagi,"Mahatma Basaveswar Colony, Kalaburgi - KSPCB",09-12-2025 07:00:00,17.336318,76.847397,OZONE,14,22,15
India,Karnataka,Koppal,"Diwator Nagar, Koppal - KSPCB",09-12-2025 07:00:00,15.347630,76.181767,NO2,32,37,35
India,Karnataka,Koppal,"Diwator Nagar, Koppal - KSPCB",09-12-2025 07:00:00,15.347630,76.181767,NH3,7,7,7
India,Karnataka,Madikeri,"Stuart Hill, Madikeri - KSPCB",09-12-2025 07:00:00,12.415911,75.735050,SO2,7,7,7
India,Karnataka,Bengaluru,"Hombegowda Nagar, Bengaluru - KSPCB",09-12-2025 07:00:00,12.938539,77.590100,NO2,11,46,24
India,Karnataka,Bengaluru,"Jigani, Bengaluru - KSPCB",09-12-2025 07:00:00,12.7816279,77.6299145,NH3,4,4,4
India,Karnataka,Bengaluru,"Jigani, Bengaluru - KSPCB",09-12-2025 07:00:00,12.7816279,77.6299145,SO2,16,17,17
India,Karnataka,Bengaluru,"Jigani, Bengaluru - KSPCB",09-12-2025 07:00:00,12.7816279,77.6299145,CO,42,44,42
India,Karnataka,Bengaluru,"Jigani, Bengaluru - KSPCB",09-12-2025 07:00:00,12.7816279,77.6299145,OZONE,24,25,24
India,Karnataka,Bengaluru,"Kasturi Nagar, Bengaluru - KSPCB",09-12-2025 07:00:00,13.003872,77.664217,PM2.5,59,64,62
India,Karnataka,Bengaluru,"Kasturi Nagar, Bengaluru - KSPCB",09-12-2025 07:00:00,13.003872,77.664217,PM10,70,74,73
India,Kerala,Thrissur,"Corporation Ground, Thrissur - Kerala PCB",09-12-2025 07:00:00,10.532400,76.215900,OZONE,31,32,31
India,Madhya Pradesh,Bhopal,"Idgah Hills, Bhopal - MPPCB",09-12-2025 07:00:00,23.264759,77.381568,NH3,4,6,5
India,Madhya Pradesh,Bhopal,"T T Nagar, Bhopal - MPPCB",09-12-2025 07:00:00,23.233584,77.400574,NO2,43,112,79
India,Madhya Pradesh,Bhopal,"T T Nagar, Bhopal - MPPCB",09-12-2025 07:00:00,23.233584,77.400574,NH3,5,7,6
India,Madhya Pradesh,Damoh,"Shrivastav Colony, Damoh - MPPCB",09-12-2025 07:00:00,23.81748678,79.446246,PM10,10,68,28
India,Karnataka,Bagalkot,"Vidayagiri, Bagalkot - KSPCB",09-12-2025 07:00:00,16.172806,75.659694,SO2,7,7,7
India,Karnataka,Bengaluru,"City Railway Station, Bengaluru - KSPCB",09-12-2025 07:00:00,12.9756843,77.5660749,PM10,86,88,88
India,Karnataka,Bengaluru,"Hebbal, Bengaluru - KSPCB",09-12-2025 07:00:00,13.029152,77.585901,NO2,NA,NA,NA
India,Karnataka,Bengaluru,"Hebbal, Bengaluru - KSPCB",09-12-2025 07:00:00,13.029152,77.585901,OZONE,7,13,10
India,Karnataka,Bengaluru,"Hombegowda Nagar, Bengaluru - KSPCB",09-12-2025 07:00:00,12.938539,77.590100,PM2.5,23,72,54
India,Karnataka,Bengaluru,"RVCE-Mailasandra, Bengaluru - KSPCB",09-12-2025 07:00:00,12.921418,77.502466,NH3,2,5,3
India,Karnataka,Bengaluru,"RVCE-Mailasandra, Bengaluru - KSPCB",09-12-2025 07:00:00,12.921418,77.502466,SO2,6,6,6
India,Karnataka,Bengaluru,"Shivapura_Peenya, Bengaluru - KSPCB",09-12-2025 07:00:00,13.0246342,77.5080115,SO2,3,21,10
India,Karnataka,Bengaluru,"Silk Board, Bengaluru - KSPCB",09-12-2025 07:00:00,12.917348,77.622813,NO2,10,17,13
India,Karnataka,Bengaluru,"Silk Board, Bengaluru - KSPCB",09-12-2025 07:00:00,12.917348,77.622813,NH3,1,2,2
India,Madhya Pradesh,Indore,"Residency Area, Indore - IMC",09-12-2025 07:00:00,22.7084,75.8815,CO,16,26,21
India,Madhya Pradesh,Indore,"Residency Area, Indore - IMC",09-12-2025 07:00:00,22.7084,75.8815,OZONE,11,15,13
India,Madhya Pradesh,Jabalpur,"Govindh Bhavan Colony, Jabalpur - JMC",09-12-2025 07:00:00,23.163174,79.973061,SO2,13,16,15
India,Madhya Pradesh,Jabalpur,"Govindh Bhavan Colony, Jabalpur - JMC",09-12-2025 07:00:00,23.163174,79.973061,CO,26,46,36
India,Madhya Pradesh,Jabalpur,"Govindh Bhavan Colony, Jabalpur - JMC",09-12-2025 07:00:00,23.163174,79.973061,OZONE,23,24,23
India,Madhya Pradesh,Jabalpur,"Gupteshwar, Jabalpur - JMC",09-12-2025 07:00:00,23.142888,79.916147,PM2.5,19,90,52
India,Madhya Pradesh,Jabalpur,"Gupteshwar, Jabalpur - JMC",09-12-2025 07:00:00,23.142888,79.916147,SO2,6,11,8
India,Madhya Pradesh,Jabalpur,"Marhatal, Jabalpur - MPPCB",09-12-2025 07:00:00,23.168606,79.932247,PM10,62,432,148
India,Madhya Pradesh,Jabalpur,"Marhatal, Jabalpur - MPPCB",09-12-2025 07:00:00,23.168606,79.932247,OZONE,4,166,7
India,Madhya Pradesh,Jabalpur,"Suhagi, Jabalpur - JMC",09-12-2025 07:00:00,23.218135,79.957770,NH3,1,5,3
India,Maharashtra,Bhiwandi,"Gokul Nagar, Bhiwandi - MPCB",09-12-2025 07:00:00,19.309073,73.057223,OZONE,12,135,14
India,Maharashtra,Boisar,"Khaira, Boisar - MPCB",09-12-2025 07:00:00,19.786089,72.757971,NH3,4,10,6
India,Maharashtra,Boisar,"Khaira, Boisar - MPCB",09-12-2025 07:00:00,19.786089,72.757971,SO2,18,40,26
India,Maharashtra,Boisar,"Khaira, Boisar - MPCB",09-12-2025 07:00:00,19.786089,72.757971,OZONE,30,31,30
India,Maharashtra,Chandrapur,"MIDC Khutala, Chandrapur - MPCB",09-12-2025 07:00:00,19.9775302,79.2337086,PM10,92,202,136
India,Maharashtra,Chandrapur,"MIDC Khutala, Chandrapur - MPCB",09-12-2025 07:00:00,19.9775302,79.2337086,OZONE,17,19,18
India,Maharashtra,Dhule,"Deopur, Dhule - MPCB",09-12-2025 07:00:00,20.918946,74.776388,CO,14,126,41
India,Maharashtra,Dhule,"Deopur, Dhule - MPCB",09-12-2025 07:00:00,20.918946,74.776388,OZONE,20,55,47
India,Maharashtra,Aurangabad,"Rachnakar Colony, Aurangabad - MPCB",09-12-2025 07:00:00,19.863756,75.321188,NO2,16,20,18
India,Maharashtra,Aurangabad,"Rachnakar Colony, Aurangabad - MPCB",09-12-2025 07:00:00,19.863756,75.321188,NH3,1,5,3
India,Maharashtra,Aurangabad,"Rachnakar Colony, Aurangabad - MPCB",09-12-2025 07:00:00,19.863756,75.321188,SO2,8,38,21
India,Maharashtra,Badlapur,"Katrap, Badlapur - MPCB",09-12-2025 07:00:00,19.16485,73.23409,PM2.5,46,183,101
India,Maharashtra,Badlapur,"Katrap, Badlapur - MPCB",09-12-2025 07:00:00,19.16485,73.23409,NH3,3,7,5
India,Maharashtra,Badlapur,"Katrap, Badlapur - MPCB",09-12-2025 07:00:00,19.16485,73.23409,OZONE,13,125,16
India,Maharashtra,Belapur,"CBD Belapur, Belapur - MPCB",09-12-2025 07:00:00,19.0243902,73.0406721,NH3,1,1,1
India,Maharashtra,Bhiwandi,"Gokul Nagar, Bhiwandi - MPCB",09-12-2025 07:00:00,19.309073,73.057223,SO2,6,21,10
India,Maharashtra,Kolhapur,"Shivaji University, Kolhapur - MPCB",09-12-2025 07:00:00,16.6870449,74.2505872,SO2,2,6,4
India,Maharashtra,Kolhapur,"Sinchan Bhavan, Kolhapur - MPCB",09-12-2025 07:00:00,16.7143745,74.2426398,PM2.5,100,212,143
India,Maharashtra,Latur,"Sawe Wadi, Latur - MPCB",09-12-2025 07:00:00,18.39963,76.57452,PM10,47,113,83
India,Maharashtra,Mahad,"Kamble Tarf Birwadi, Mahad - MPCB",09-12-2025 07:00:00,18.1023399,73.4783687,PM2.5,56,255,110
India,Maharashtra,Mahad,"Kamble Tarf Birwadi, Mahad - MPCB",09-12-2025 07:00:00,18.1023399,73.4783687,SO2,12,92,26
India,Maharashtra,Malegaon,"Mahesh Nagar, Malegaon - MPCB",09-12-2025 07:00:00,20.555712,74.529236,PM2.5,67,173,108
India,Maharashtra,Jalgaon,"Prabhat Colony, Jalgaon - MPCB",09-12-2025 07:00:00,21.001264,75.565602,NH3,2,3,2
India,Maharashtra,Kalyan,"Khadakpada, Kalyan - MPCB",09-12-2025 07:00:00,19.25292,73.142019,PM2.5,31,309,104
India,Maharashtra,Kalyan,"Pimpleshwar Mandir, Kalyan - MPCB",09-12-2025 07:00:00,19.192056,72.9585188,CO,NA,NA,NA
India,Maharashtra,Kolhapur,"Shivaji University, Kolhapur - MPCB",09-12-2025 07:00:00,16.6870449,74.2505872,PM2.5,95,358,231
India,Madhya Pradesh,Indore,"Chhoti Gwaltoli, Indore - MPPCB",09-12-2025 07:00:00,22.4310,75.5213,SO2,5,29,15
India,Madhya Pradesh,Indore,"Maguda Nagar, Indore - IMC",09-12-2025 07:00:00,22.7524,75.8872,NO2,1,2,2
India,Madhya Pradesh,Indore,"Regional Park, Indore - IMC",09-12-2025 07:00:00,22.6780,75.8559,NH3,NA,NA,NA
India,Madhya Pradesh,Indore,"Residency Area, Indore - IMC",09-12-2025 07:00:00,22.7084,75.8815,PM2.5,18,104,47
India,Madhya Pradesh,Indore,"Residency Area, Indore - IMC",09-12-2025 07:00:00,22.7084,75.8815,NO2,11,18,15
India,Madhya Pradesh,Katni,"Gole Bazar, Katni - MPPCB",09-12-2025 07:00:00,23.50016,80.23284,PM10,54,293,129
India,Madhya Pradesh,Maihar,"Sahilara, Maihar - KJS Cements",09-12-2025 07:00:00,24.2613009,80.7231783,SO2,17,17,17
India,Madhya Pradesh,Mandideep,"Sector-D Industrial Area, Mandideep - MPPCB",09-12-2025 07:00:00,23.108440,77.511428,NO2,NA,NA,NA
India,Madhya Pradesh,Mandideep,"Sector-D Industrial Area, Mandideep - MPPCB",09-12-2025 07:00:00,23.108440,77.511428,OZONE,4,64,4
India,Madhya Pradesh,Sagar,"Civil Lines, Sagar - MPPCB",09-12-2025 07:00:00,23.838586,78.759431,OZONE,40,69,48
India,Madhya Pradesh,Satna,"Bandhavgar Colony, Satna - Birla Cement",09-12-2025 07:00:00,24.58434363,80.8549414,OZONE,27,31,31
India,Maharashtra,Ahmednagar,"Tarakpur, Ahmednagar - MPCB",09-12-2025 07:00:00,19.10122,74.73339,PM2.5,39,139,78
India,Maharashtra,Akola,"Ramdaspeth, Akola - MPCB",09-12-2025 07:00:00,20.719516,77.000253,OZONE,1,45,1
India,Maharashtra,Aurangabad,"More Chowk Waluj, Aurangabad - MPCB",09-12-2025 07:00:00,19.8389439,75.244448,PM2.5,48,151,89
India,Maharashtra,Aurangabad,"More Chowk Waluj, Aurangabad - MPCB",09-12-2025 07:00:00,19.8389439,75.244448,PM10,42,107,74
India,Maharashtra,Mumbai,"Khindipada-Bhandup West, Mumbai - IITM",09-12-2025 07:00:00,19.1653323,72.922099,CO,NA,NA,NA
India,Maharashtra,Mumbai,"Kurla, Mumbai - MPCB",09-12-2025 07:00:00,19.0863,72.8888,SO2,36,37,37
India,Maharashtra,Mumbai,"Malad West, Mumbai - IITM",09-12-2025 07:00:00,19.19709,72.82204,PM10,100,163,129
India,Maharashtra,Mumbai,"Malad West, Mumbai - IITM",09-12-2025 07:00:00,19.19709,72.82204,OZONE,3,85,40
India,Maharashtra,Mumbai,"Mazgaon, Mumbai - IITM",09-12-2025 07:00:00,18.96702,72.84214,NH3,11,25,16
India,Maharashtra,Mumbai,"Mazgaon, Mumbai - IITM",09-12-2025 07:00:00,18.96702,72.84214,CO,1,78,36
India,Maharashtra,Mumbai,"Mindspace-Malad West, Mumbai - MPCB",09-12-2025 07:00:00,19.1878657,72.8304069,PM2.5,49,225,110
India,Maharashtra,Mumbai,"Mindspace-Malad West, Mumbai - MPCB",09-12-2025 07:00:00,19.1878657,72.8304069,PM10,73,162,112
India,Maharashtra,Mumbai,"Mulund West, Mumbai - MPCB",09-12-2025 07:00:00,19.1750,72.9419,PM2.5,35,308,65
India,Maharashtra,Mumbai,"Navy Nagar-Colaba, Mumbai - IITM",09-12-2025 07:00:00,18.897756,72.813320,NO2,35,184,118
India,Maharashtra,Mumbai,"Navy Nagar-Colaba, Mumbai - IITM",09-12-2025 07:00:00,18.897756,72.813320,NH3,8,30,16
India,Maharashtra,Mumbai,"Navy Nagar-Colaba, Mumbai - IITM",09-12-2025 07:00:00,18.897756,72.813320,SO2,16,46,29
India,Maharashtra,Mumbai,"Sewri, Mumbai - BMC",09-12-2025 07:00:00,19.000084,72.856730,PM10,36,75,51
India,Maharashtra,Mumbai,"Sewri, Mumbai - BMC",09-12-2025 07:00:00,19.000084,72.856730,CO,1,158,25
India,Maharashtra,Mumbai,"Shivaji Nagar, Mumbai - BMC",09-12-2025 07:00:00,19.060498,72.923356,NH3,NA,NA,NA
India,Maharashtra,Mumbai,"Shivaji Nagar, Mumbai - BMC",09-12-2025 07:00:00,19.060498,72.923356,SO2,NA,NA,NA
India,Maharashtra,Mumbai,"Shivaji Nagar, Mumbai - BMC",09-12-2025 07:00:00,19.060498,72.923356,CO,4,113,25
India,Maharashtra,Mumbai,"Siddharth Nagar-Worli, Mumbai - IITM",09-12-2025 07:00:00,19.000083,72.813993,NH3,5,12,8
India,Maharashtra,Nashik,"Hirawadi, Nashik - MPCB",09-12-2025 07:00:00,20.021503,73.813844,NO2,8,61,22
India,Maharashtra,Nashik,"MIDC Ambad, Nashik - MPCB",09-12-2025 07:00:00,19.950220,73.731480,PM10,90,159,118
India,Maharashtra,Nashik,"MIDC Ambad, Nashik - MPCB",09-12-2025 07:00:00,19.950220,73.731480,OZONE,13,86,48
India,Maharashtra,Nashik,"Pandav Nagari, Nashik - MPCB",09-12-2025 07:00:00,19.9591346,73.7788008,NO2,11,54,25
India,Maharashtra,Nashik,"Pandav Nagari, Nashik - MPCB",09-12-2025 07:00:00,19.9591346,73.7788008,SO2,1,20,7
India,Maharashtra,Navi Mumbai,"Kopripada-Vashi, Navi Mumbai - MPCB",09-12-2025 07:00:00,19.090337,73.014232,PM10,46,401,107
India,Maharashtra,Navi Mumbai,"Kopripada-Vashi, Navi Mumbai - MPCB",09-12-2025 07:00:00,19.090337,73.014232,NH3,2,17,6
India,Maharashtra,Mumbai,"Ghatkopar, Mumbai - BMC",09-12-2025 07:00:00,19.083694,72.920967,NO2,36,135,61
India,Maharashtra,Mumbai,"Kandivali West, Mumbai - BMC",09-12-2025 07:00:00,19.215859,72.831718,NO2,NA,NA,NA
India,Maharashtra,Mumbai,"Kandivali West, Mumbai - BMC",09-12-2025 07:00:00,19.215859,72.831718,OZONE,NA,NA,NA
India,Maharashtra,Mumbai,"Kherwadi_Bandra East, Mumbai - MPCB",09-12-2025 07:00:00,19.0632143,72.8456324,PM2.5,95,200,152
India,Maharashtra,Mumbai,"Kherwadi_Bandra East, Mumbai - MPCB",09-12-2025 07:00:00,19.0632143,72.8456324,NH3,6,19,15
India,Maharashtra,Mumbai,"Kherwadi_Bandra East, Mumbai - MPCB",09-12-2025 07:00:00,19.0632143,72.8456324,SO2,3,4,3
India,Maharashtra,Mumbai,"Khindipada-Bhandup West, Mumbai - IITM",09-12-2025 07:00:00,19.1653323,72.922099,NH3,NA,NA,NA
India,Maharashtra,Nagpur,"Opp GPO Civil Lines, Nagpur - MPCB",09-12-2025 07:00:00,21.152875,79.0517531,NH3,1,23,8
India,Maharashtra,Nagpur,"Ram Nagar, Nagpur - MPCB",09-12-2025 07:00:00,21.143383,79.048912,OZONE,5,53,11
India,Maharashtra,Nanded,"Sneh Nagar, Nanded - MPCB",09-12-2025 07:00:00,19.173852,77.296291,NO2,NA,NA,NA
India,Maharashtra,Nashik,"Gangapur Road, Nashik - MPCB",09-12-2025 07:00:00,20.0073285,73.7762427,PM2.5,26,135,80
India,Maharashtra,Nashik,"Gangapur Road, Nashik - MPCB",09-12-2025 07:00:00,20.0073285,73.7762427,SO2,1,29,10
India,Maharashtra,Mumbai,"Sion, Mumbai - MPCB",09-12-2025 07:00:00,19.047000,72.874600,PM10,78,158,112
India,Maharashtra,Mumbai,"Vile Parle West, Mumbai - MPCB",09-12-2025 07:00:00,19.10861,72.83622,SO2,46,59,50
India,Maharashtra,Mumbai,"Vile Parle West, Mumbai - MPCB",09-12-2025 07:00:00,19.10861,72.83622,OZONE,NA,NA,NA
India,Maharashtra,Mumbai,"Worli, Mumbai - MPCB",09-12-2025 07:00:00,18.9936162,72.8128113,PM10,86,118,103
India,Maharashtra,Nagpur,"Ambazari, Nagpur - MPCB",09-12-2025 07:00:00,21.121801,79.04952,NH3,2,14,6
India,Maharashtra,Mumbai,"Chakala-Andheri East, Mumbai - IITM",09-12-2025 07:00:00,19.11074,72.86084,PM10,64,135,110
India,Maharashtra,Mumbai,"Chakala-Andheri East, Mumbai - IITM",09-12-2025 07:00:00,19.11074,72.86084,NH3,8,35,17
India,Maharashtra,Mumbai,"Chakala-Andheri East, Mumbai - IITM",09-12-2025 07:00:00,19.11074,72.86084,SO2,1,29,10
India,Maharashtra,Mumbai,"Chembur, Mumbai - MPCB",09-12-2025 07:00:00,19.0364585,72.8954371,NH3,1,6,3
India,Maharashtra,Mumbai,"Bandra Kurla Complex, Mumbai - MPCB",09-12-2025 07:00:00,19.065931,72.862131,OZONE,1,309,2
India,Maharashtra,Mumbai,"Borivali East, Mumbai - IITM",09-12-2025 07:00:00,19.23241,72.86895,NO2,54,94,69
India,Maharashtra,Navi Mumbai,"Sanpada, Navi Mumbai - MPCB",09-12-2025 07:00:00,19.0575752,73.0151367,NO2,8,30,19
India,Maharashtra,Navi Mumbai,"Sanpada, Navi Mumbai - MPCB",09-12-2025 07:00:00,19.0575752,73.0151367,CO,27,132,87
India,Maharashtra,Navi Mumbai,"Sanpada, Navi Mumbai - MPCB",09-12-2025 07:00:00,19.0575752,73.0151367,OZONE,1,121,3
India,Maharashtra,Pune,"Revenue Colony-Shivajinagar, Pune - IITM",09-12-2025 07:00:00,18.530085,73.849598,CO,68,130,108
India,Maharashtra,Pune,"Revenue Colony-Shivajinagar, Pune - IITM",09-12-2025 07:00:00,18.530085,73.849598,OZONE,5,94,11
India,Maharashtra,Pune,"Savitribai Phule Pune University, Pune - MPCB",09-12-2025 07:00:00,18.547056,73.826908,SO2,1,4,2
India,Maharashtra,Pune,"Savitribai Phule Pune University, Pune - MPCB",09-12-2025 07:00:00,18.547056,73.826908,OZONE,NA,NA,NA
India,Maharashtra,Sangli,"Vijay Nagar, Sangli - MPCB",09-12-2025 07:00:00, 16.5038,74.3623,PM10,124,198,160
India,Maharashtra,Sangli,"Vijay Nagar, Sangli - MPCB",09-12-2025 07:00:00, 16.5038,74.3623,NH3,2,6,4
India,Maharashtra,Sangli,"Vijay Nagar, Sangli - MPCB",09-12-2025 07:00:00, 16.5038,74.3623,SO2,1,22,10
India,Maharashtra,Sangli,"Vijay Nagar, Sangli - MPCB",09-12-2025 07:00:00, 16.5038,74.3623,CO,32,50,35
India,Maharashtra,Solapur,"Dnyaneshwar Nagar, Solapur - MPCB",09-12-2025 07:00:00,17.6336264,75.9132495,PM10,80,133,103
India,Maharashtra,Solapur,"Dnyaneshwar Nagar, Solapur - MPCB",09-12-2025 07:00:00,17.6336264,75.9132495,NH3,6,38,12
India,Maharashtra,Solapur,"Dnyaneshwar Nagar, Solapur - MPCB",09-12-2025 07:00:00,17.6336264,75.9132495,OZONE,16,66,39
India,Maharashtra,Pimpri-Chinchwad,"Gavalinagar, Pimpri Chinchwad - MPCB",09-12-2025 07:00:00,18.63673,73.82487,PM2.5,48,252,116
India,Maharashtra,Pimpri-Chinchwad,"Park Street Wakad, Pimpri Chinchwad - MPCB",09-12-2025 07:00:00,18.59051,73.77946,CO,20,110,70
India,Maharashtra,Pimpri-Chinchwad,"Savta Mali Nagar, Pimpri-Chinchwad - IITM",09-12-2025 07:00:00,18.614767,73.799516,PM2.5,94,325,185
India,Maharashtra,Pimpri-Chinchwad,"Savta Mali Nagar, Pimpri-Chinchwad - IITM",09-12-2025 07:00:00,18.614767,73.799516,PM10,102,197,142
India,Maharashtra,Pimpri-Chinchwad,"Savta Mali Nagar, Pimpri-Chinchwad - IITM",09-12-2025 07:00:00,18.614767,73.799516,CO,62,105,92
India,Maharashtra,Pimpri-Chinchwad,"Thergaon, Pimpri Chinchwad - MPCB",09-12-2025 07:00:00,18.616318,73.765797,PM10,9,178,122
India,Odisha,Cuttack,"CDA Area, Cuttack - OSPCB",09-12-2025 07:00:00,20.48891     ,85.84768     ,NO2,23,184,74
India,Odisha,Cuttack,"CDA Area, Cuttack - OSPCB",09-12-2025 07:00:00,20.48891     ,85.84768     ,OZONE,2,189,13
India,Odisha,Keonjhar,"Jagamohanpur, Keonjhar - OSPCB",09-12-2025 07:00:00,21.643900,85.599355,OZONE,16,19,17
India,Odisha,Rourkela,"Fertilizer Township, Rourkela - OSPCB",09-12-2025 07:00:00,22.18972222,84.86277778,CO,10,31,26
India,Odisha,Rourkela,"Raghunathpali, Rourkela - OSPCB",09-12-2025 07:00:00,22.220833,84.809444,NO2,5,18,10
India,Meghalaya,Shillong,"JN Stadium, Shillong - Meghalaya PCB",09-12-2025 07:00:00,25.5803419,91.8942571,PM10,NA,NA,NA
India,Meghalaya,Shillong,"JN Stadium, Shillong - Meghalaya PCB",09-12-2025 07:00:00,25.5803419,91.8942571,NH3,7,16,11
India,Meghalaya,Shillong,"JN Stadium, Shillong - Meghalaya PCB",09-12-2025 07:00:00,25.5803419,91.8942571,OZONE,NA,NA,NA
India,Nagaland,Kohima,"PWD Junction, Kohima - NPCB",09-12-2025 07:00:00,25.6635413,94.0989878,PM10,12,75,33
India,Nagaland,Kohima,"PWD Junction, Kohima - NPCB",09-12-2025 07:00:00,25.6635413,94.0989878,NO2,3,4,3
India,Nagaland,Kohima,"PWD Junction, Kohima - NPCB",09-12-2025 07:00:00,25.6635413,94.0989878,NH3,1,1,1
India,Nagaland,Kohima,"PWD Junction, Kohima - NPCB",09-12-2025 07:00:00,25.6635413,94.0989878,SO2,72,75,74
India,Maharashtra,Pune,"Bhumkar Nagar, Pune - IITM",09-12-2025 07:00:00,18.605770,73.749976,OZONE,2,60,8
India,Maharashtra,Pune,"Hadapsar, Pune - IITM",09-12-2025 07:00:00,18.501793,73.927532,OZONE,NA,NA,NA
India,Maharashtra,Pune,"Katraj Dairy, Pune - MPCB",09-12-2025 07:00:00,18.454450,73.854155,CO,30,107,45
India,Maharashtra,Pune,"Katraj Dairy, Pune - MPCB",09-12-2025 07:00:00,18.454450,73.854155,OZONE,7,85,23
India,Maharashtra,Pune,"Mhada Colony, Pune - IITM",09-12-2025 07:00:00,18.573040,73.927715,CO,13,79,58
India,Odisha,Rourkela,"Raghunathpali, Rourkela - OSPCB",09-12-2025 07:00:00,22.220833,84.809444,SO2,2,7,3
India,Odisha,Talcher,"Talcher Coalfields,Talcher - OSPCB",09-12-2025 07:00:00,20.9360711,85.1707021,NH3,5,7,6
India,Odisha,Talcher,"Talcher Coalfields,Talcher - OSPCB",09-12-2025 07:00:00,20.9360711,85.1707021,CO,49,112,104
India,Punjab,Amritsar,"Golden Temple, Amritsar - PPCB",09-12-2025 07:00:00,31.620000,74.876512,PM10,24,101,61
India,Odisha,Bhubaneswar,"Lingraj Mandir, Bhubaneswar - OSPCB",09-12-2025 07:00:00,20.240790,85.836784,CO,9,104,53
India,Odisha,Bhubaneswar,"Patia, Bhubaneswar - OSPCB",09-12-2025 07:00:00,20.34652,85.81630,OZONE,5,180,23
India,Odisha,Byasanagar,"Ferro Chrome Colony, Byasanagar - OSPCB",09-12-2025 07:00:00,20.94185,86.11510,PM2.5,83,306,173
India,Maharashtra,Solapur,"Ratandeep Housing Society, Solapur - MPCB",09-12-2025 07:00:00,17.65439,75.90649,CO,20,78,36
India,Maharashtra,Solapur,"Ratandeep Housing Society, Solapur - MPCB",09-12-2025 07:00:00,17.65439,75.90649,OZONE,4,209,52
India,Maharashtra,Thane,"Kasarvadavali, Thane - MPCB",09-12-2025 07:00:00,19.26777,72.97182,CO,9,58,31
India,Maharashtra,Thane,"Kasarvadavali, Thane - MPCB",09-12-2025 07:00:00,19.26777,72.97182,OZONE,1,76,14
India,Odisha,Balasore,"Kalidaspur, Balasore - OSPCB",09-12-2025 07:00:00,21.51161,86.89088,CO,4,103,43
India,Odisha,Barbil,"Forest Office, Barbil - OSPCB",09-12-2025 07:00:00,22.1166054,85.3945546,NO2,6,46,22
India,Odisha,Barbil,"Forest Office, Barbil - OSPCB",09-12-2025 07:00:00,22.1166054,85.3945546,SO2,7,43,13
India,Rajasthan,Jaipur,"Shastri Nagar, Jaipur - RSPCB",09-12-2025 07:00:00,26.9502929,75.730943,OZONE,14,59,26
India,Rajasthan,Jaisalmer,"Sadar Bazar, Jaisalmer - RSPCB",09-12-2025 07:00:00,26.912329,70.909168,PM10,55,487,173
India,Rajasthan,Jaisalmer,"Sadar Bazar, Jaisalmer - RSPCB",09-12-2025 07:00:00,26.912329,70.909168,CO,26,121,51
India,Rajasthan,Jalore,"Mudtra Sili, Jalore - RSPCB",09-12-2025 07:00:00,25.344694,72.626208,PM10,49,263,136
India,Rajasthan,Jalore,"Mudtra Sili, Jalore - RSPCB",09-12-2025 07:00:00,25.344694,72.626208,NH3,2,6,5
India,Rajasthan,Jhalawar,"Rajlaxmi Nagar, Jhalawar - RSPCB",09-12-2025 07:00:00,24.588397,76.172782,NO2,48,95,64
India,Rajasthan,Jhalawar,"Rajlaxmi Nagar, Jhalawar - RSPCB",09-12-2025 07:00:00,24.588397,76.172782,OZONE,4,122,6
India,Rajasthan,Jhunjhunu,"Indra Nagar, Jhunjhunu - RSPCB",09-12-2025 07:00:00,28.108988,75.386577,NO2,12,105,46
India,Rajasthan,Jhunjhunu,"Indra Nagar, Jhunjhunu - RSPCB",09-12-2025 07:00:00,28.108988,75.386577,NH3,8,18,12
India,Rajasthan,Baran,"Bamboliya, Baran - RSPCB",09-12-2025 07:00:00,25.106006,76.469948,PM10,93,284,135
India,Rajasthan,Baran,"Bamboliya, Baran - RSPCB",09-12-2025 07:00:00,25.106006,76.469948,NH3,8,16,11
India,Rajasthan,Baran,"Bamboliya, Baran - RSPCB",09-12-2025 07:00:00,25.106006,76.469948,SO2,5,16,11
India,Rajasthan,Baran,"Bamboliya, Baran - RSPCB",09-12-2025 07:00:00,25.106006,76.469948,OZONE,4,160,4
India,Rajasthan,Barmer,"Railway Colony, Barmer - RSPCB",09-12-2025 07:00:00,25.747299,71.393989,NO2,10,56,23
India,Rajasthan,Barmer,"Railway Colony, Barmer - RSPCB",09-12-2025 07:00:00,25.747299,71.393989,SO2,4,14,9
India,Rajasthan,Barmer,"Railway Colony, Barmer - RSPCB",09-12-2025 07:00:00,25.747299,71.393989,CO,2,44,14
India,Rajasthan,Bhilwara,"Pratap Nagar, Bhilwara - RSPCB",09-12-2025 07:00:00,25.339605,74.618883,NH3,NA,NA,NA
India,Rajasthan,Bhilwara,"Pratap Nagar, Bhilwara - RSPCB",09-12-2025 07:00:00,25.339605,74.618883,OZONE,2,42,3
India,Rajasthan,Bhiwadi,"RIICO Ind. Area III, Bhiwadi - RSPCB",09-12-2025 07:00:00,28.194909,76.862296,PM2.5,157,330,252
India,Rajasthan,Jhunjhunu,"Indra Nagar, Jhunjhunu - RSPCB",09-12-2025 07:00:00,28.108988,75.386577,CO,24,102,57
India,Rajasthan,Jodhpur,"Collectorate, Jodhpur - RSPCB",09-12-2025 07:00:00,26.268249,73.0193853,NO2,5,11,9
India,Rajasthan,Jodhpur,"Collectorate, Jodhpur - RSPCB",09-12-2025 07:00:00,26.268249,73.0193853,SO2,2,22,9
India,Rajasthan,Jodhpur,"Digari Kalan, Jodhpur - RSPCB",09-12-2025 07:00:00,26.295810,73.082283,NH3,5,17,9
India,Rajasthan,Jodhpur,"Digari Kalan, Jodhpur - RSPCB",09-12-2025 07:00:00,26.295810,73.082283,SO2,3,8,5
India,Rajasthan,Jodhpur,"Jhalamand, Jodhpur - RSPCB",09-12-2025 07:00:00,26.215415,73.070156,SO2,4,8,5
India,Rajasthan,Jodhpur,"Jhalamand, Jodhpur - RSPCB",09-12-2025 07:00:00,26.215415,73.070156,OZONE,9,93,17
India,Rajasthan,Jodhpur,"Mandor, Jodhpur - RSPCB",09-12-2025 07:00:00,26.358805,73.047444,PM2.5,18,107,57
India,Rajasthan,Jodhpur,"Mandor, Jodhpur - RSPCB",09-12-2025 07:00:00,26.358805,73.047444,SO2,3,7,5
India,Rajasthan,Jodhpur,"Mandor, Jodhpur - RSPCB",09-12-2025 07:00:00,26.358805,73.047444,CO,20,70,40
India,Rajasthan,Jaipur,"Mansarovar Sector-12, Jaipur - RSPCB",09-12-2025 07:00:00,26.843698,75.766894,SO2,1,13,5
India,Rajasthan,Jaipur,"Police Commissionerate, Jaipur - RSPCB",09-12-2025 07:00:00,26.9164092,75.7994901,PM2.5,36,237,113
India,Rajasthan,Jaipur,"Police Commissionerate, Jaipur - RSPCB",09-12-2025 07:00:00,26.9164092,75.7994901,SO2,8,17,15
India,Rajasthan,Jaipur,"RIICO Sitapura, Jaipur - RSPCB",09-12-2025 07:00:00,26.786682,75.827928,CO,20,123,72
India,Rajasthan,Jaipur,"RIICO Sitapura, Jaipur - RSPCB",09-12-2025 07:00:00,26.786682,75.827928,OZONE,16,171,18
India,Rajasthan,Jaipur,"Sector-2 Murlipura, Jaipur - RSPCB",09-12-2025 07:00:00,26.960669,75.771817,NO2,27,133,75
India,Rajasthan,Jaipur,"Sector-2 Murlipura, Jaipur - RSPCB",09-12-2025 07:00:00,26.960669,75.771817,OZONE,3,74,12
India,Rajasthan,Jaipur,"Shastri Nagar, Jaipur - RSPCB",09-12-2025 07:00:00,26.9502929,75.730943,PM2.5,69,308,149
India,Rajasthan,Dungarpur,"Bhoiwada, Dungarpur - RSPCB",09-12-2025 07:00:00,23.837789,73.714926,PM2.5,23,217,82
India,Rajasthan,Dungarpur,"Bhoiwada, Dungarpur - RSPCB",09-12-2025 07:00:00,23.837789,73.714926,PM10,43,145,92
India,Rajasthan,Dungarpur,"Bhoiwada, Dungarpur - RSPCB",09-12-2025 07:00:00,23.837789,73.714926,NO2,16,93,33
India,Rajasthan,Dungarpur,"Bhoiwada, Dungarpur - RSPCB",09-12-2025 07:00:00,23.837789,73.714926,SO2,2,13,5
India,Rajasthan,Dungarpur,"Bhoiwada, Dungarpur - RSPCB",09-12-2025 07:00:00,23.837789,73.714926,CO,8,70,24
India,Rajasthan,Hanumangarh,"Housing Board, Hanumangarh - RSPCB",09-12-2025 07:00:00,29.610750,74.283608,NH3,16,44,23
India,Rajasthan,Hanumangarh,"Housing Board, Hanumangarh - RSPCB",09-12-2025 07:00:00,29.610750,74.283608,CO,28,118,65
India,Rajasthan,Jaipur,"Adarsh Nagar, Jaipur - RSPCB",09-12-2025 07:00:00,26.902909,75.836858,OZONE,13,67,14
India,Rajasthan,Bundi,"New Colony, Bundi - RSPCB",09-12-2025 07:00:00,25.435774,75.644272,NH3,2,8,4
India,Rajasthan,Chittorgarh,"Shastri Nagar, Chittorgarh - RSPCB",09-12-2025 07:00:00,24.892047,74.623527,CO,4,101,26
India,Rajasthan,Chittorgarh,"Shastri Nagar, Chittorgarh - RSPCB",09-12-2025 07:00:00,24.892047,74.623527,OZONE,1,71,1
India,Rajasthan,Churu,"Subash Chowk, Churu - RSPCB",09-12-2025 07:00:00,28.296139,74.961696,SO2,2,8,4
India,Rajasthan,Churu,"Subash Chowk, Churu - RSPCB",09-12-2025 07:00:00,28.296139,74.961696,CO,4,77,21
India,Rajasthan,Churu,"Subash Chowk, Churu - RSPCB",09-12-2025 07:00:00,28.296139,74.961696,OZONE,5,145,7
India,Rajasthan,Dausa,"Khatikan Mohalla, Dausa - RSPCB",09-12-2025 07:00:00,26.895552,76.334753,NH3,7,25,12
India,Punjab,Jalandhar,"Civil Line, Jalandhar - PPCB",09-12-2025 07:00:00,31.321907,75.578914,NO2,31,36,33
India,Punjab,Jalandhar,"Civil Line, Jalandhar - PPCB",09-12-2025 07:00:00,31.321907,75.578914,SO2,20,23,21
India,Punjab,Jalandhar,"Civil Line, Jalandhar - PPCB",09-12-2025 07:00:00,31.321907,75.578914,CO,44,52,46
India,Punjab,Khanna,"Kalal Majra, Khanna - PPCB",09-12-2025 07:00:00,30.736056 ,76.209694,NH3,7,8,7
India,Punjab,Khanna,"Kalal Majra, Khanna - PPCB",09-12-2025 07:00:00,30.736056 ,76.209694,OZONE,24,26,25
India,Punjab,Ludhiana,"Punjab Agricultural University, Ludhiana - PPCB",09-12-2025 07:00:00,30.9028,75.8086,CO,1,76,50
India,Punjab,Patiala,"Model Town, Patiala - PPCB",09-12-2025 07:00:00,30.349388,76.366642,CO,42,72,56
India,Rajasthan,Ajmer,"Civil Lines,  Ajmer - RSPCB",09-12-2025 07:00:00,26.470859,74.646594,PM2.5,57,96,73
India,Rajasthan,Alwar,"Moti Doongri, Alwar - RSPCB",09-12-2025 07:00:00,27.554793,76.611536,PM10,78,156,106
India,Rajasthan,Alwar,"Moti Doongri, Alwar - RSPCB",09-12-2025 07:00:00,27.554793,76.611536,CO,21,105,57
India,Rajasthan,Banswara,"Rati Talai, Banswara - RSPCB",09-12-2025 07:00:00,23.555190,74.440010,NH3,2,4,3
India,Rajasthan,Bhiwadi,"RIICO Ind. Area III, Bhiwadi - RSPCB",09-12-2025 07:00:00,28.194909,76.862296,NO2,22,93,55
India,Rajasthan,Bhiwadi,"RIICO Ind. Area III, Bhiwadi - RSPCB",09-12-2025 07:00:00,28.194909,76.862296,OZONE,7,64,10
India,Rajasthan,Bundi,"New Colony, Bundi - RSPCB",09-12-2025 07:00:00,25.435774,75.644272,PM2.5,30,157,67
India,Rajasthan,Sawai Madhopur,"Sahu Nagar, Sawai Madhopur - RSPCB",09-12-2025 07:00:00,26.031443,76.359327,NH3,NA,NA,NA
India,Rajasthan,Sawai Madhopur,"Sahu Nagar, Sawai Madhopur - RSPCB",09-12-2025 07:00:00,26.031443,76.359327,OZONE,NA,NA,NA
India,Rajasthan,Sikar,"Radhakishan Pura, Sikar - RSPCB",09-12-2025 07:00:00,27.608912,75.153302,PM2.5,43,500,232
India,Rajasthan,Sikar,"Radhakishan Pura, Sikar - RSPCB",09-12-2025 07:00:00,27.608912,75.153302,CO,17,122,70
India,Rajasthan,Sri Ganganagar,"Old City, Sri Ganganagar - RSPCB",09-12-2025 07:00:00,29.931624,73.864511,PM2.5,40,127,73
India,Rajasthan,Sri Ganganagar,"Old City, Sri Ganganagar - RSPCB",09-12-2025 07:00:00,29.931624,73.864511,NH3,2,15,6
India,Rajasthan,Tonk,"Shastri Nagar, Tonk - RSPCB",09-12-2025 07:00:00,26.159933,75.780517,PM2.5,7,426,200
India,TamilNadu,Karur,"Kamadenu Nagar, Karur - TNPCB",09-12-2025 07:00:00,10.967820,78.080882,PM2.5,57,136,105
India,TamilNadu,Karur,"Kamadenu Nagar, Karur - TNPCB",09-12-2025 07:00:00,10.967820,78.080882,NH3,3,3,3
India,TamilNadu,Madurai,"Uchapatti, Madurai - TNPCB",09-12-2025 07:00:00,9.865935,78.022669,CO,10,16,10
India,TamilNadu,Nagapattinam,"Velippalayam, Nagapattinam - TNPCB",09-12-2025 07:00:00,10.798548,79.838212,PM10,69,111,95
India,TamilNadu,Nagapattinam,"Velippalayam, Nagapattinam - TNPCB",09-12-2025 07:00:00,10.798548,79.838212,NO2,6,6,6
India,TamilNadu,Ooty,"Bombay Castel, Ooty - TNPCB",09-12-2025 07:00:00,11.4068288,76.7138973,SO2,14,16,15
India,Rajasthan,Tonk,"Shastri Nagar, Tonk - RSPCB",09-12-2025 07:00:00,26.159933,75.780517,NO2,17,128,54
India,Rajasthan,Tonk,"Shastri Nagar, Tonk - RSPCB",09-12-2025 07:00:00,26.159933,75.780517,OZONE,19,45,23
India,Rajasthan,Udaipur,"Ashok Nagar, Udaipur - RSPCB",09-12-2025 07:00:00,24.5886166,73.6321397,PM2.5,36,242,88
India,Sikkim,Gangtok,"Zero Point GICI, Gangtok - SSPCB",09-12-2025 07:00:00,27.338530,88.614099,PM10,21,42,28
India,Sikkim,Gangtok,"Zero Point GICI, Gangtok - SSPCB",09-12-2025 07:00:00,27.338530,88.614099,OZONE,3,6,3
India,TamilNadu,Ramanathapuram,"Chalai Bazaar, Ramanathapuram - TNPCB",09-12-2025 07:00:00,9.36399,78.831977,NO2,2,5,4
India,TamilNadu,Thoothukudi,"Meelavittan, Thoothukudi - TNPCB",09-12-2025 07:00:00,8.816428 ,78.099039,PM10,63,125,83
India,TamilNadu,Thoothukudi,"Meelavittan, Thoothukudi - TNPCB",09-12-2025 07:00:00,8.816428 ,78.099039,NO2,9,14,10
India,TamilNadu,Tirunelveli,"Municipal Corporation Office, Tirunelveli - TNPCB",09-12-2025 07:00:00,8.728442,77.6962,NO2,6,47,22
India,Rajasthan,Karauli,"Satyawati Vihar, Karauli - RSPCB",09-12-2025 07:00:00,26.506177,77.025989,NO2,18,104,39
India,Rajasthan,Karauli,"Satyawati Vihar, Karauli - RSPCB",09-12-2025 07:00:00,26.506177,77.025989,CO,21,124,43
India,Rajasthan,Kota,"Dhanmandi, Kota - RSPCB",09-12-2025 07:00:00,25.164090,75.858137,PM2.5,37,320,110
India,Rajasthan,Kota,"Dhanmandi, Kota - RSPCB",09-12-2025 07:00:00,25.164090,75.858137,CO,12,138,31
India,Rajasthan,Kota,"Nayapura, Kota - RSPCB",09-12-2025 07:00:00,25.196024,75.855668,NH3,11,34,17
India,TamilNadu,Coimbatore,"PSG College of Arts and Science, Coimbatore - TNPCB",09-12-2025 07:00:00,11.0328,77.0349,OZONE,4,7,5
India,TamilNadu,Cuddalore,"Kudikadu, Cuddalore - TNPCB",09-12-2025 07:00:00,11.6829898,79.7532099,SO2,19,20,20
India,TamilNadu,Cuddalore,"Semmandalam, Cuddalore - TNPCB",09-12-2025 07:00:00,11.7637683,79.7499835,PM2.5,89,193,143
India,TamilNadu,Virudhunagar,"Collectorate Office, Virudhunagar - TNPCB",09-12-2025 07:00:00,9.559382,77.948828,NH3,14,18,16
India,TamilNadu,Virudhunagar,"Collectorate Office, Virudhunagar - TNPCB",09-12-2025 07:00:00,9.559382,77.948828,CO,21,61,23
India,Telangana,Hyderabad,"Central University, Hyderabad - TSPCB",09-12-2025 07:00:00,17.460103,78.334361,PM10,93,150,116
India,Rajasthan,Nagaur,"Karni Colony, Nagaur - RSPCB",09-12-2025 07:00:00,27.213494,73.734444,NH3,7,18,11
India,Rajasthan,Nagaur,"Karni Colony, Nagaur - RSPCB",09-12-2025 07:00:00,27.213494,73.734444,CO,26,98,38
India,Rajasthan,Rajsamand,"Dhoinda, Rajsamand - RSPCB",09-12-2025 07:00:00,25.036360,73.883502,PM10,35,190,77
India,TamilNadu,Chennai,"Manali Village, Chennai - TNPCB",09-12-2025 07:00:00,13.1662,80.2584,NO2,3,5,4
India,TamilNadu,Chennai,"Perungudi, Chennai - TNPCB",09-12-2025 07:00:00,12.9533,80.2357,NO2,4,12,7
India,Uttar_Pradesh,Ghaziabad,"Vasundhara, Ghaziabad - UPPCB",09-12-2025 07:00:00,28.6603346,77.3572563,PM10,119,266,184
India,Uttar_Pradesh,Ghaziabad,"Vasundhara, Ghaziabad - UPPCB",09-12-2025 07:00:00,28.6603346,77.3572563,NO2,67,173,130
India,Uttar_Pradesh,Ghaziabad,"Vasundhara, Ghaziabad - UPPCB",09-12-2025 07:00:00,28.6603346,77.3572563,SO2,15,26,20
India,Uttar_Pradesh,Ghaziabad,"Vasundhara, Ghaziabad - UPPCB",09-12-2025 07:00:00,28.6603346,77.3572563,CO,35,134,86
India,Uttar_Pradesh,Gorakhpur,"Madan Mohan Malaviya University of Technology, Gorakhpur - UPPCB",09-12-2025 07:00:00,26.730136,83.433859,PM10,17,164,76
India,Uttar_Pradesh,Gorakhpur,"Madan Mohan Malaviya University of Technology, Gorakhpur - UPPCB",09-12-2025 07:00:00,26.730136,83.433859,NH3,1,1,1
India,Uttar_Pradesh,Gorakhpur,"Madan Mohan Malaviya University of Technology, Gorakhpur - UPPCB",09-12-2025 07:00:00,26.730136,83.433859,CO,7,10,8
India,Uttar_Pradesh,Greater Noida,"Knowledge Park - III, Greater Noida - UPPCB",09-12-2025 07:00:00,28.47272,77.482000,CO,17,112,30
India,Uttar_Pradesh,Greater Noida,"Knowledge Park - III, Greater Noida - UPPCB",09-12-2025 07:00:00,28.47272,77.482000,OZONE,4,113,8
India,Uttar_Pradesh,Agra,"Shastripuram, Agra - UPPCB",09-12-2025 07:00:00,27.19862,77.92066,OZONE,6,7,6
India,Uttar_Pradesh,Baghpat,"Sardar Patel Inter College, Baghpat - UPPCB",09-12-2025 07:00:00,28.964949,77.278761,PM10,110,286,164
India,Uttar_Pradesh,Baghpat,"Sardar Patel Inter College, Baghpat - UPPCB",09-12-2025 07:00:00,28.964949,77.278761,CO,18,46,23
India,Uttar_Pradesh,Bareilly,"Civil Lines, Bareilly - UPPCB",09-12-2025 07:00:00,28.359581,79.414455,NO2,2,3,2
India,Uttar_Pradesh,Bareilly,"Civil Lines, Bareilly - UPPCB",09-12-2025 07:00:00,28.359581,79.414455,CO,56,112,76
India,Uttar_Pradesh,Bareilly,"Civil Lines, Bareilly - UPPCB",09-12-2025 07:00:00,28.359581,79.414455,OZONE,13,313,313
India,Uttar_Pradesh,Bulandshahr,"Yamunapuram, Bulandshahr - UPPCB",09-12-2025 07:00:00,28.406963,77.849831,CO,32,103,49
India,Uttar_Pradesh,Bulandshahr,"Yamunapuram, Bulandshahr - UPPCB",09-12-2025 07:00:00,28.406963,77.849831,OZONE,2,120,8
India,Uttar_Pradesh,Agra,"Manoharpur, Agra - UPPCB",09-12-2025 07:00:00,27.23711,78.01936,CO,19,24,22
India,Uttar_Pradesh,Agra,"Rohta, Agra - UPPCB",09-12-2025 07:00:00,27.106972,78.000111,NO2,13,15,14
India,Uttar_Pradesh,Agra,"Rohta, Agra - UPPCB",09-12-2025 07:00:00,27.106972,78.000111,NH3,5,6,5
India,Uttar_Pradesh,Agra,"Rohta, Agra - UPPCB",09-12-2025 07:00:00,27.106972,78.000111,CO,16,30,22
India,Uttar_Pradesh,Agra,"Sanjay Palace, Agra - UPPCB",09-12-2025 07:00:00,27.19865833,78.00598056,PM2.5,45,373,167
India,Uttar_Pradesh,Agra,"Sector-3B Avas Vikas Colony, Agra - UPPCB",09-12-2025 07:00:00,27.19412,77.96237,PM2.5,37,126,63
India,Uttar_Pradesh,Agra,"Sector-3B Avas Vikas Colony, Agra - UPPCB",09-12-2025 07:00:00,27.19412,77.96237,OZONE,2,51,3
India,Uttar_Pradesh,Agra,"Shastripuram, Agra - UPPCB",09-12-2025 07:00:00,27.19862,77.92066,PM2.5,49,116,66
India,Telangana,Hyderabad,"Central University, Hyderabad - TSPCB",09-12-2025 07:00:00,17.460103,78.334361,NH3,3,23,11
India,Telangana,Hyderabad,"Central University, Hyderabad - TSPCB",09-12-2025 07:00:00,17.460103,78.334361,SO2,7,53,25
India,Telangana,Hyderabad,"Central University, Hyderabad - TSPCB",09-12-2025 07:00:00,17.460103,78.334361,OZONE,8,24,21
India,Telangana,Hyderabad,"ECIL Kapra, Hyderabad - TSPCB",09-12-2025 07:00:00,17.470431,78.566959,NH3,3,5,4
India,Telangana,Hyderabad,"ICRISAT Patancheru, Hyderabad - TSPCB",09-12-2025 07:00:00,17.518400,78.278777,PM10,68,155,120
India,Telangana,Hyderabad,"IITH Kandi, Hyderabad - TSPCB",09-12-2025 07:00:00,17.585705,78.126199,PM10,44,86,72
India,Telangana,Hyderabad,"Kokapet, Hyderabad - TSPCB",09-12-2025 07:00:00,17.393559,78.339194,NO2,11,16,13
India,Uttar_Pradesh,Greater Noida,"Knowledge Park - V, Greater Noida - UPPCB",09-12-2025 07:00:00,28.557054,77.453663,OZONE,13,149,33
India,Uttar_Pradesh,Hapur,"Anand Vihar, Hapur - UPPCB",09-12-2025 07:00:00,28.725645,77.749675,PM2.5,58,250,136
India,Uttar_Pradesh,Jhansi,"Shivaji Nagar, Jhansi - UPPCB",09-12-2025 07:00:00,25.4547,78.6039,NH3,4,4,4
India,Uttar_Pradesh,Jhansi,"Shivaji Nagar, Jhansi - UPPCB",09-12-2025 07:00:00,25.4547,78.6039,SO2,12,19,15
India,Uttar_Pradesh,Jhansi,"Shivaji Nagar, Jhansi - UPPCB",09-12-2025 07:00:00,25.4547,78.6039,OZONE,1,12,1
India,Uttar_Pradesh,Kanpur,"FTI Kidwai Nagar, Kanpur - UPPCB",09-12-2025 07:00:00,26.428282,80.327067,SO2,18,28,23
India,Uttar_Pradesh,Firozabad,"Vibhab Nagar, Firozabad - UPPCB",09-12-2025 07:00:00,27.1594,78.3953,PM10,53,125,89
India,Uttar_Pradesh,Firozabad,"Vibhab Nagar, Firozabad - UPPCB",09-12-2025 07:00:00,27.1594,78.3953,NH3,2,2,2
India,Uttar_Pradesh,Firozabad,"Vibhab Nagar, Firozabad - UPPCB",09-12-2025 07:00:00,27.1594,78.3953,CO,NA,NA,NA
India,Uttar_Pradesh,Firozabad,"Vibhab Nagar, Firozabad - UPPCB",09-12-2025 07:00:00,27.1594,78.3953,OZONE,NA,NA,NA
India,Uttar_Pradesh,Ghaziabad,"Indirapuram, Ghaziabad - UPPCB",09-12-2025 07:00:00,28.646233,77.358075,OZONE,4,72,12
India,Uttar_Pradesh,Ghaziabad,"Loni, Ghaziabad - UPPCB",09-12-2025 07:00:00,28.757294,77.278792,NH3,3,11,6
India,Telangana,Hyderabad,"Kokapet, Hyderabad - TSPCB",09-12-2025 07:00:00,17.393559,78.339194,SO2,14,19,16
India,Telangana,Hyderabad,"Kompally Municipal Office, Hyderabad - TSPCB",09-12-2025 07:00:00,17.544899,78.486949,NH3,2,4,3
India,Telangana,Hyderabad,"Nacharam_TSIIC IALA, Hyderabad - TSPCB",09-12-2025 07:00:00,17.429398,78.569354,PM10,80,99,94
India,Telangana,Hyderabad,"Nacharam_TSIIC IALA, Hyderabad - TSPCB",09-12-2025 07:00:00,17.429398,78.569354,NO2,7,15,9
India,Telangana,Hyderabad,"Sanathnagar, Hyderabad - TSPCB",09-12-2025 07:00:00,17.4559458,78.4332152,NO2,25,31,28
India,Telangana,Hyderabad,"Sanathnagar, Hyderabad - TSPCB",09-12-2025 07:00:00,17.4559458,78.4332152,CO,39,57,50
India,Tripura,Agartala,"Bardowali, Agartala - Tripura SPCB",09-12-2025 07:00:00,23.8175497,91.2726974,NO2,13,13,13
India,Uttar_Pradesh,Kanpur,"NSI Kalyanpur, Kanpur - UPPCB",09-12-2025 07:00:00,26.509954,80.249612,OZONE,15,17,16
India,Uttar_Pradesh,Lucknow,"Gomti Nagar, Lucknow - UPPCB",09-12-2025 07:00:00,26.868120,81.005119,CO,28,36,30
India,Uttar_Pradesh,Lucknow,"Gomti Nagar, Lucknow - UPPCB",09-12-2025 07:00:00,26.868120,81.005119,OZONE,24,36,27
India,Uttar_Pradesh,Varanasi,"Bhelupur, Varanasi - UPPCB",09-12-2025 07:00:00,25.301778,82.996789,OZONE,1,6,1
India,Uttar_Pradesh,Varanasi,"IESD Banaras Hindu University, Varanasi - UPPCB",09-12-2025 07:00:00,25.262326,82.995408,PM2.5,53,170,81
India,Uttar_Pradesh,Varanasi,"IESD Banaras Hindu University, Varanasi - UPPCB",09-12-2025 07:00:00,25.262326,82.995408,CO,14,42,25
India,Uttar_Pradesh,Varanasi,"Maldahiya, Varanasi - UPPCB",09-12-2025 07:00:00,25.32393,82.99687,NO2,2,2,2
India,Uttar_Pradesh,Varanasi,"Maldahiya, Varanasi - UPPCB",09-12-2025 07:00:00,25.32393,82.99687,CO,23,102,65
India,Uttar_Pradesh,Vrindavan,"Omex Eternity, Vrindavan - UPPCB",09-12-2025 07:00:00,27.5714090,77.6557570,PM10,33,106,77
India,Uttar_Pradesh,Vrindavan,"Omex Eternity, Vrindavan - UPPCB",09-12-2025 07:00:00,27.5714090,77.6557570,CO,29,40,34
India,Uttar_Pradesh,Vrindavan,"Omex Eternity, Vrindavan - UPPCB",09-12-2025 07:00:00,27.5714090,77.6557570,OZONE,13,16,15
India,Uttarakhand,Dehradun,"Doon University, Dehradun - UKPCB",09-12-2025 07:00:00,30.269444,78.044167,PM2.5,46,272,116
India,Uttarakhand,Dehradun,"Doon University, Dehradun - UKPCB",09-12-2025 07:00:00,30.269444,78.044167,PM10,62,118,89
India,Uttarakhand,Dehradun,"Doon University, Dehradun - UKPCB",09-12-2025 07:00:00,30.269444,78.044167,SO2,2,2,2
India,West_Bengal,Durgapur,"Womens College_City Center, Durgapur - WBPCB (Formerly known as Sidhu Kanhu Indoor Stadium)",09-12-2025 07:00:00,23.549395,87.300496,NO2,27,41,31
India,West_Bengal,Durgapur,"Womens College_City Center, Durgapur - WBPCB (Formerly known as Sidhu Kanhu Indoor Stadium)",09-12-2025 07:00:00,23.549395,87.300496,SO2,15,33,23
India,West_Bengal,Durgapur,"Womens College_City Center, Durgapur - WBPCB (Formerly known as Sidhu Kanhu Indoor Stadium)",09-12-2025 07:00:00,23.549395,87.300496,CO,48,87,65
India,West_Bengal,Howrah,"Belur Math, Howrah - WBPCB",09-12-2025 07:00:00,22.629801,88.352017,PM10,161,366,239
India,West_Bengal,Howrah,"Botanical Garden, Howrah - WBPCB",09-12-2025 07:00:00,22.554954,88.292568,NH3,2,2,2
India,West_Bengal,Howrah,"Dasnagar, Howrah - WBPCB",09-12-2025 07:00:00,22.6025571,88.3105664,PM2.5,NA,NA,NA
India,Uttarakhand,Kashipur,"Govt. Girls Inter College, Kashipur - UKPCB",09-12-2025 07:00:00,29.2124114,78.9611753,NO2,9,44,16
India,Uttarakhand,Kashipur,"Govt. Girls Inter College, Kashipur - UKPCB",09-12-2025 07:00:00,29.2124114,78.9611753,SO2,2,11,8
India,Uttarakhand,Rishikesh,"Shivaji Nagar, Rishikesh - UKPCB",09-12-2025 07:00:00,30.075911,78.2859547,PM2.5,NA,NA,NA
India,Uttarakhand,Rishikesh,"Shivaji Nagar, Rishikesh - UKPCB",09-12-2025 07:00:00,30.075911,78.2859547,OZONE,NA,NA,NA
India,West_Bengal,Asansol,"Asansol Court Area, Asansol - WBPCB",09-12-2025 07:00:00,23.685297,86.945968,NH3,3,8,5
India,West_Bengal,Asansol,"Asansol Court Area, Asansol - WBPCB",09-12-2025 07:00:00,23.685297,86.945968,CO,50,104,69
India,West_Bengal,Asansol,"Evelyn Lodge, Asansol - WBPCB",09-12-2025 07:00:00,23.6979360,86.9443950,NH3,3,5,4
India,Uttar_Pradesh,Moradabad,"Employment Office, Moradabad - UPPCB",09-12-2025 07:00:00,28.88528,78.73880,NH3,4,4,4
India,Uttar_Pradesh,Moradabad,"Employment Office, Moradabad - UPPCB",09-12-2025 07:00:00,28.88528,78.73880,SO2,20,26,21
India,Uttar_Pradesh,Moradabad,"Jigar Colony, Moradabad - UPPCB",09-12-2025 07:00:00,28.856664,78.772638,PM2.5,75,277,145
India,Uttar_Pradesh,Moradabad,"Kashiram Nagar, Moradabad - UPPCB",09-12-2025 07:00:00,28.849399,78.742362,PM2.5,51,258,123
India,Uttar_Pradesh,Moradabad,"Transport Nagar, Moradabad - UPPCB",09-12-2025 07:00:00,28.802625,78.753728,PM2.5,44,313,100
India,Uttar_Pradesh,Moradabad,"Transport Nagar, Moradabad - UPPCB",09-12-2025 07:00:00,28.802625,78.753728,PM10,67,197,98
India,Uttar_Pradesh,Moradabad,"Transport Nagar, Moradabad - UPPCB",09-12-2025 07:00:00,28.802625,78.753728,OZONE,26,125,29
India,Uttar_Pradesh,Prayagraj,"Jhunsi, Prayagraj - UPPCB",09-12-2025 07:00:00,25.425602,81.917152,PM10,69,165,134
India,Uttar_Pradesh,Prayagraj,"Jhunsi, Prayagraj - UPPCB",09-12-2025 07:00:00,25.425602,81.917152,CO,22,42,39
India,Uttar_Pradesh,Prayagraj,"Jhunsi, Prayagraj - UPPCB",09-12-2025 07:00:00,25.425602,81.917152,OZONE,15,110,15
India,Uttar_Pradesh,Prayagraj,"Motilal Nehru NIT, Prayagraj - UPPCB",09-12-2025 07:00:00,25.494,81.863,NO2,12,12,12
India,Uttar_Pradesh,Prayagraj,"Nagar Nigam, Prayagraj - UPPCB",09-12-2025 07:00:00,25.44919916 ,81.82735986 ,SO2,18,41,29
India,Uttar_Pradesh,Prayagraj,"Nagar Nigam, Prayagraj - UPPCB",09-12-2025 07:00:00,25.44919916 ,81.82735986 ,OZONE,10,36,11
India,Uttar_Pradesh,Varanasi,"Ardhali Bazar, Varanasi - UPPCB",09-12-2025 07:00:00,25.3505986,82.9083074,CO,11,20,13
India,Uttar_Pradesh,Lucknow,"Kukrail Picnic Spot-1, Lucknow - UPPCB",09-12-2025 07:00:00,26.90723,80.98579,NH3,5,5,5
India,Uttar_Pradesh,Lucknow,"Kukrail Picnic Spot-1, Lucknow - UPPCB",09-12-2025 07:00:00,26.90723,80.98579,SO2,51,57,53
India,Uttar_Pradesh,Lucknow,"Lalbagh, Lucknow - CPCB",09-12-2025 07:00:00,26.8458805,80.9365541,PM10,111,477,264
India,Uttar_Pradesh,Lucknow,"Lalbagh, Lucknow - CPCB",09-12-2025 07:00:00,26.8458805,80.9365541,NH3,16,25,21
India,Uttar_Pradesh,Lucknow,"Talkatora District Industries Center, Lucknow - CPCB",09-12-2025 07:00:00,26.83399722,80.8917361,PM2.5,146,309,235
India,Uttar_Pradesh,Lucknow,"Talkatora District Industries Center, Lucknow - CPCB",09-12-2025 07:00:00,26.83399722,80.8917361,CO,2,100,30
India,Uttar_Pradesh,Lucknow,"Talkatora District Industries Center, Lucknow - CPCB",09-12-2025 07:00:00,26.83399722,80.8917361,OZONE,9,53,12
India,Uttar_Pradesh,Meerut,"Jai Bhim Nagar, Meerut - UPPCB",09-12-2025 07:00:00,28.9535882,77.7622941,PM2.5,55,321,208
India,Uttar_Pradesh,Meerut,"Jai Bhim Nagar, Meerut - UPPCB",09-12-2025 07:00:00,28.9535882,77.7622941,NH3,22,34,28
India,Uttar_Pradesh,Meerut,"Jai Bhim Nagar, Meerut - UPPCB",09-12-2025 07:00:00,28.9535882,77.7622941,OZONE,26,131,65
India,Uttar_Pradesh,Meerut,"Pallavpuram Phase 2, Meerut - UPPCB",09-12-2025 07:00:00,29.063510,77.709723,PM10,NA,NA,NA
India,Uttar_Pradesh,Moradabad,"Buddhi Vihar, Moradabad - UPPCB",09-12-2025 07:00:00,28.83526,78.74460,SO2,78,80,79
India,West_Bengal,Asansol,"Trivenidevi Bhalotia College, Asansol - WBPCB",09-12-2025 07:00:00,23.616515,87.119133,NO2,19,44,33
India,West_Bengal,Barrackpore,"SVSPA Campus, Barrackpore - WBPCB",09-12-2025 07:00:00,22.7605581,88.3617589,NH3,8,12,10
India,West_Bengal,Durgapur,"Mahishkapur Road_B-Zone, Durgapur - WBPCB",09-12-2025 07:00:00,23.567923,87.306843,CO,42,105,77
India,Uttar_Pradesh,Noida,"Sector - 62, Noida - IMD",09-12-2025 07:00:00,28.6245479,77.3577104,OZONE,19,116,21
India,Uttar_Pradesh,Noida,"Sector-1, Noida - UPPCB",09-12-2025 07:00:00,28.5898,77.3101,PM10,NA,NA,NA
India,West_Bengal,Howrah,"Dasnagar, Howrah - WBPCB",09-12-2025 07:00:00,22.6025571,88.3105664,PM10,NA,NA,NA
India,West_Bengal,Howrah,"Dasnagar, Howrah - WBPCB",09-12-2025 07:00:00,22.6025571,88.3105664,SO2,4,59,19
India,West_Bengal,Howrah,"Dasnagar, Howrah - WBPCB",09-12-2025 07:00:00,22.6025571,88.3105664,CO,18,88,46
India,West_Bengal,Howrah,"Ghusuri, Howrah - WBPCB",09-12-2025 07:00:00,22.611968,88.347422,OZONE,3,39,8
India,West_Bengal,Howrah,"Padmapukur, Howrah - WBPCB",09-12-2025 07:00:00,22.5687319,88.2797276,CO,11,68,32
India,West_Bengal,Kolkata,"Ballygunge, Kolkata - WBPCB",09-12-2025 07:00:00,22.5367507,88.3638022,PM10,150,270,195
India,West_Bengal,Kolkata,"Ballygunge, Kolkata - WBPCB",09-12-2025 07:00:00,22.5367507,88.3638022,OZONE,6,31,8
India,West_Bengal,Kolkata,"Bidhannagar, Kolkata - WBPCB",09-12-2025 07:00:00,22.58157048,88.41002457,PM10,124,270,186
India,West_Bengal,Kolkata,"Fort William, Kolkata - WBPCB",09-12-2025 07:00:00,22.556640,88.342674,PM2.5,NA,NA,NA
India,West_Bengal,Kolkata,"Fort William, Kolkata - WBPCB",09-12-2025 07:00:00,22.556640,88.342674,NH3,NA,NA,NA
India,West_Bengal,Kolkata,"Jadavpur, Kolkata - WBPCB",09-12-2025 07:00:00,22.49929,88.36917,NO2,41,127,72
India,West_Bengal,Kolkata,"Jadavpur, Kolkata - WBPCB",09-12-2025 07:00:00,22.49929,88.36917,SO2,7,13,9
India,West_Bengal,Kolkata,"Rabindra Bharati University, Kolkata - WBPCB",09-12-2025 07:00:00,22.627847,88.380669,PM10,148,215,173
India,West_Bengal,Kolkata,"Rabindra Bharati University, Kolkata - WBPCB",09-12-2025 07:00:00,22.627847,88.380669,SO2,9,13,11
India,West_Bengal,Kolkata,"Rabindra Bharati University, Kolkata - WBPCB",09-12-2025 07:00:00,22.627847,88.380669,CO,48,103,77
India,West_Bengal,Siliguri,"Ward-32 Bapupara, Siliguri - WBPCB",09-12-2025 07:00:00,26.6879226,88.4152495,NO2,14,24,19
India,Andhra_Pradesh,Vijayawada,"Kanuru, Vijayawada - APPCB",09-12-2025 07:00:00,16.486692,80.699436,NH3,2,3,3
India,Andhra_Pradesh,Vijayawada,"Kanuru, Vijayawada - APPCB",09-12-2025 07:00:00,16.486692,80.699436,SO2,7,22,12
India,Andhra_Pradesh,Vijayawada,"Kanuru, Vijayawada - APPCB",09-12-2025 07:00:00,16.486692,80.699436,CO,22,45,38
India,Andhra_Pradesh,Vijayawada,"Rajiv Gandhi Park, Vijayawada - APPCB",09-12-2025 07:00:00,16.509717,80.612222,CO,34,52,42
India,Andhra_Pradesh,Vijayawada,"Rajiv Gandhi Park, Vijayawada - APPCB",09-12-2025 07:00:00,16.509717,80.612222,OZONE,5,63,12
India,Andhra_Pradesh,Vijayawada,"Rajiv Nagar, Vijayawada - APPCB",09-12-2025 07:00:00,16.554731,80.649110,CO,32,64,36
India,Andhra_Pradesh,Visakhapatnam,"GVM Corporation, Visakhapatnam - APPCB",09-12-2025 07:00:00,17.72,83.3,PM2.5,139,312,218
India,Andhra_Pradesh,Visakhapatnam,"GVM Corporation, Visakhapatnam - APPCB",09-12-2025 07:00:00,17.72,83.3,PM10,127,454,219
India,Andhra_Pradesh,Visakhapatnam,"GVM Corporation, Visakhapatnam - APPCB",09-12-2025 07:00:00,17.72,83.3,OZONE,4,92,5
India,Arunachal_Pradesh,Naharlagun,"Naharlagun, Naharlagun - APSPCB",09-12-2025 07:00:00,27.103358,93.679645,PM10,52,424,154
India,Bihar,Bhagalpur,"DM Office_Kachari Chowk, Bhagalpur - BSPCB",09-12-2025 07:00:00,25.251013,86.989001,SO2,43,71,59
India,Bihar,Bhagalpur,"Mayaganj, Bhagalpur - BSPCB",09-12-2025 07:00:00,25.265194,87.012947,PM10,125,213,167
India,Bihar,Bhagalpur,"Mayaganj, Bhagalpur - BSPCB",09-12-2025 07:00:00,25.265194,87.012947,OZONE,13,108,38
India,Bihar,Bihar Sharif,"D M Colony, Bihar Sharif - BSPCB",09-12-2025 07:00:00,25.204762,85.514960,PM2.5,210,331,278
India,Bihar,Buxar,"Charitra Van, Buxar - BSPCB",09-12-2025 07:00:00,25.567520,83.966379,PM2.5,123,321,236
India,Bihar,Buxar,"Charitra Van, Buxar - BSPCB",09-12-2025 07:00:00,25.567520,83.966379,PM10,110,213,155
India,Bihar,Chhapra,"Darshan Nagar, Chhapra - BSPCB",09-12-2025 07:00:00,25.7808257,84.7446768,PM2.5,82,358,285
India,Arunachal_Pradesh,Naharlagun,"Naharlagun, Naharlagun - APSPCB",09-12-2025 07:00:00,27.103358,93.679645,CO,10,64,20
India,Assam,Byrnihat,"Central Academy for SFS, Byrnihat - PCBA",09-12-2025 07:00:00,26.071318,91.87488,NH3,4,4,4
India,Assam,Guwahati,"LGBI Airport, Guwahati - PCBA",09-12-2025 07:00:00,26.10887,91.589544,CO,25,50,35
India,Assam,Guwahati,"LGBI Airport, Guwahati - PCBA",09-12-2025 07:00:00,26.10887,91.589544,OZONE,10,14,12
India,Assam,Guwahati,"Pan Bazaar, Guwahati - PCBA",09-12-2025 07:00:00,26.187500,91.744194,PM10,29,107,73
India,Assam,Guwahati,"Pan Bazaar, Guwahati - PCBA",09-12-2025 07:00:00,26.187500,91.744194,SO2,19,38,27
India,Assam,Guwahati,"Pan Bazaar, Guwahati - PCBA",09-12-2025 07:00:00,26.187500,91.744194,OZONE,16,31,17
India,Andhra_Pradesh,Rajamahendravaram,"Anand Kala Kshetram, Rajamahendravaram - APPCB",09-12-2025 07:00:00,16.9872867,81.7363176,PM2.5,74,249,149
India,Andhra_Pradesh,Rajamahendravaram,"Anand Kala Kshetram, Rajamahendravaram - APPCB",09-12-2025 07:00:00,16.9872867,81.7363176,NH3,2,5,4
India,Andhra_Pradesh,Rajamahendravaram,"Anand Kala Kshetram, Rajamahendravaram - APPCB",09-12-2025 07:00:00,16.9872867,81.7363176,SO2,8,48,27
India,Andhra_Pradesh,Tirupati,"Vaikuntapuram, Tirupati - APPCB",09-12-2025 07:00:00,13.615387,79.409230,PM10,55,70,60
India,Andhra_Pradesh,Tirupati,"Vaikuntapuram, Tirupati - APPCB",09-12-2025 07:00:00,13.615387,79.409230,NO2,13,17,15
India,Andhra_Pradesh,Tirupati,"Vaikuntapuram, Tirupati - APPCB",09-12-2025 07:00:00,13.615387,79.409230,SO2,11,16,12
India,Andhra_Pradesh,Vijayawada,"HB Colony, Vijayawada - APPCB",09-12-2025 07:00:00,16.536107,80.594233,SO2,9,16,11
India,Bihar,Hajipur,"Industrial Area, Hajipur - BSPCB",09-12-2025 07:00:00,25.697189,85.245900,CO,48,177,135
India,Bihar,Katihar,"Mirchaibari, Katihar - BSPCB",09-12-2025 07:00:00,25.560083,87.553265,PM10,87,151,116
India,Bihar,Katihar,"Mirchaibari, Katihar - BSPCB",09-12-2025 07:00:00,25.560083,87.553265,CO,67,92,82
India,Bihar,Manguraha,"Forest Rest House, Manguraha - BSPCB",09-12-2025 07:00:00,27.308328,84.531742,NH3,1,2,1
India,Bihar,Manguraha,"Forest Rest House, Manguraha - BSPCB",09-12-2025 07:00:00,27.308328,84.531742,SO2,16,17,17
India,Bihar,Motihari,"Gandak Colony, Motihari - BSPCB",09-12-2025 07:00:00,26.63086,84.90051,NH3,3,3,3
India,Bihar,Araria,"Kharahiya Basti, Araria - BSPCB",09-12-2025 07:00:00,26.146529,87.454184,SO2,NA,NA,NA
India,Bihar,Arrah,"New DM Office, Arrah - BSPCB",09-12-2025 07:00:00,25.5626095,84.663264,PM10,179,290,221
India,Bihar,Arrah,"New DM Office, Arrah - BSPCB",09-12-2025 07:00:00,25.5626095,84.663264,NO2,6,9,7
India,Bihar,Arrah,"New DM Office, Arrah - BSPCB",09-12-2025 07:00:00,25.5626095,84.663264,SO2,10,10,10
India,Bihar,Begusarai,"Lohiyanagar, Begusarai - BSPCB",09-12-2025 07:00:00,25.42742023,86.13886079,NO2,18,24,20
India,Bihar,Begusarai,"Lohiyanagar, Begusarai - BSPCB",09-12-2025 07:00:00,25.42742023,86.13886079,CO,14,42,29
India,Bihar,Begusarai,"Lohiyanagar, Begusarai - BSPCB",09-12-2025 07:00:00,25.42742023,86.13886079,OZONE,2,39,4
India,Andhra_Pradesh,Amaravati,"Secretariat, Amaravati - APPCB",09-12-2025 07:00:00,16.5150833,80.5181667,PM10,107,290,172
India,Andhra_Pradesh,Amaravati,"Secretariat, Amaravati - APPCB",09-12-2025 07:00:00,16.5150833,80.5181667,NO2,28,119,51
India,Andhra_Pradesh,Chittoor,"Gangineni Cheruvu, Chittoor - APPCB",09-12-2025 07:00:00,13.204880,79.097889,NO2,24,30,28
India,Andhra_Pradesh,Kadapa,"Yerramukkapalli, Kadapa - APPCB",09-12-2025 07:00:00,14.465052,78.824187,PM10,39,112,67
India,Bihar,Chhapra,"Darshan Nagar, Chhapra - BSPCB",09-12-2025 07:00:00,25.7808257,84.7446768,NO2,2,3,3
India,Bihar,Chhapra,"Darshan Nagar, Chhapra - BSPCB",09-12-2025 07:00:00,25.7808257,84.7446768,NH3,7,9,8
India,Bihar,Chhapra,"Darshan Nagar, Chhapra - BSPCB",09-12-2025 07:00:00,25.7808257,84.7446768,CO,8,16,9
India,Bihar,Hajipur,"Industrial Area, Hajipur - BSPCB",09-12-2025 07:00:00,25.697189,85.245900,NH3,4,13,9
India,Assam,Guwahati,"Railway Colony, Guwahati - PCBA",09-12-2025 07:00:00,26.181742,91.78063,NO2,3,3,3
India,Assam,Nagaon,"Christianpatty, Nagaon - PCBA",09-12-2025 07:00:00,26.349082,92.68449,NO2,1,1,1
India,Assam,Nagaon,"Christianpatty, Nagaon - PCBA",09-12-2025 07:00:00,26.349082,92.68449,CO,11,24,21
India,Andaman and Nicobar,Sri Vijaya Puram,"Police Line, Sri Vijaya Puram - ANPCC",09-12-2025 07:00:00,11.654054,92.734055,PM2.5,13,13,13
India,Bihar,Patna,"Rajbansi Nagar, Patna - BSPCB",09-12-2025 07:00:00,25.599486,85.113666,NH3,1,9,5
India,Bihar,Patna,"Samanpura, Patna - BSPCB",09-12-2025 07:00:00,25.596727,85.085624,PM10,NA,NA,NA
India,Bihar,Patna,"Samanpura, Patna - BSPCB",09-12-2025 07:00:00,25.596727,85.085624,OZONE,22,72,22
India,Bihar,Purnia,"Mariam Nagar, Purnia - BSPCB",09-12-2025 07:00:00,25.366336,87.117468,PM10,63,125,100
India,Bihar,Purnia,"Mariam Nagar, Purnia - BSPCB",09-12-2025 07:00:00,25.366336,87.117468,NO2,5,7,6
India,Bihar,Purnia,"Mariam Nagar, Purnia - BSPCB",09-12-2025 07:00:00,25.366336,87.117468,CO,50,57,54
India,Bihar,Purnia,"Mariam Nagar, Purnia - BSPCB",09-12-2025 07:00:00,25.366336,87.117468,OZONE,21,50,23
India,Bihar,Rajgir,"Dangi Tola, Rajgir - BSPCB",09-12-2025 07:00:00,25.03280,85.41948,PM2.5,NA,NA,NA
India,Bihar,Rajgir,"Dangi Tola, Rajgir - BSPCB",09-12-2025 07:00:00,25.03280,85.41948,PM10,NA,NA,NA
India,Bihar,Saharsa,"Police Line, Saharsa - BSPCB",09-12-2025 07:00:00,25.892357,86.590325,PM2.5,92,332,197
India,Chhattisgarh,Korba,"Rampur, Korba - CECB",09-12-2025 07:00:00,22.368195,82.746431,OZONE,2,7,2
India,Chhattisgarh,Korba,"Urja Nagar, Korba - CECB",09-12-2025 07:00:00,22.348441,82.549611,PM10,92,93,93
India,Chhattisgarh,Korba,"Urja Nagar, Korba - CECB",09-12-2025 07:00:00,22.348441,82.549611,NO2,35,57,48
India,Chhattisgarh,Korba,"Urja Nagar, Korba - CECB",09-12-2025 07:00:00,22.348441,82.549611,NH3,1,2,2
India,Chhattisgarh,Korba,"Urja Nagar, Korba - CECB",09-12-2025 07:00:00,22.348441,82.549611,SO2,1,47,13
India,Chhattisgarh,Korba,"Urja Nagar, Korba - CECB",09-12-2025 07:00:00,22.348441,82.549611,OZONE,35,36,35
India,Chhattisgarh,Kunjemura,"OP Jindal School, Kunjemura - CECB",09-12-2025 07:00:00,22.126650,83.483212,OZONE,1,58,1
India,Chhattisgarh,Milupara,"Govt. Higher Secondary School, Milupara - CECB",09-12-2025 07:00:00,22.1910172,83.5197009,OZONE,1,126,8
India,Chhattisgarh,Raipur,"AIIMS, Raipur - CECB",09-12-2025 07:00:00,21.258815,81.578979,PM2.5,59,172,109
India,Chandigarh,Chandigarh,"Sector 22, Chandigarh - CPCC",09-12-2025 07:00:00,30.735567,76.775714,NH3,13,17,15
India,Chandigarh,Chandigarh,"Sector 22, Chandigarh - CPCC",09-12-2025 07:00:00,30.735567,76.775714,SO2,7,91,18
India,Chandigarh,Chandigarh,"Sector 22, Chandigarh - CPCC",09-12-2025 07:00:00,30.735567,76.775714,CO,64,100,73
India,Chandigarh,Chandigarh,"Sector-25, Chandigarh - CPCC",09-12-2025 07:00:00,30.751462,76.762879,PM10,80,145,110
India,Chandigarh,Chandigarh,"Sector-25, Chandigarh - CPCC",09-12-2025 07:00:00,30.751462,76.762879,NH3,2,3,3
India,Chandigarh,Chandigarh,"Sector-53, Chandigarh - CPCC",09-12-2025 07:00:00,30.719859,76.738637,PM2.5,58,220,116
India,Chhattisgarh,Bhilai,"Civic Center, Bhilai - Bhilai Steel Plant",09-12-2025 07:00:00,21.185571,81.343175,PM2.5,24,135,58
India,Chhattisgarh,Bhilai,"Civic Center, Bhilai - Bhilai Steel Plant",09-12-2025 07:00:00,21.185571,81.343175,NO2,22,219,72
India,Bihar,Munger,"Town Hall, Munger - BSPCB",09-12-2025 07:00:00,25.376776,86.471523,PM2.5,150,332,267
India,Bihar,Munger,"Town Hall, Munger - BSPCB",09-12-2025 07:00:00,25.376776,86.471523,SO2,35,67,50
India,Bihar,Muzaffarpur,"Buddha Colony, Muzaffarpur - BSPCB",09-12-2025 07:00:00,26.11442,85.39813,OZONE,3,179,18
India,Bihar,Muzaffarpur,"MIT-Daudpur Kothi, Muzaffarpur - BSPCB",09-12-2025 07:00:00,26.1403345,85.3650192,NO2,1,4,2
India,Bihar,Muzaffarpur,"MIT-Daudpur Kothi, Muzaffarpur - BSPCB",09-12-2025 07:00:00,26.1403345,85.3650192,CO,44,70,52
India,Bihar,Muzaffarpur,"Muzaffarpur Collectorate, Muzaffarpur - BSPCB",09-12-2025 07:00:00,26.1209,85.3647,NO2,6,16,12
India,Delhi,Delhi,"Alipur, Delhi - DPCC",09-12-2025 07:00:00,28.815329,77.153010,PM2.5,97,374,281
India,Delhi,Delhi,"Alipur, Delhi - DPCC",09-12-2025 07:00:00,28.815329,77.153010,NO2,27,77,51
India,Delhi,Delhi,"Alipur, Delhi - DPCC",09-12-2025 07:00:00,28.815329,77.153010,NH3,6,9,7
India,Delhi,Delhi,"Anand Vihar, Delhi - DPCC",09-12-2025 07:00:00,28.647622,77.3158090,PM2.5,163,456,319
India,Delhi,Delhi,"Ashok Vihar, Delhi - DPCC",09-12-2025 07:00:00,28.695381,77.181665,PM2.5,107,384,305
India,Delhi,Delhi,"Ashok Vihar, Delhi - DPCC",09-12-2025 07:00:00,28.695381,77.181665,NH3,1,1,1
India,Delhi,Delhi,"Aya Nagar, Delhi - IMD",09-12-2025 07:00:00,28.4706914,77.1099364,PM10,160,314,213
India,Bihar,Patna,"DRM Office Danapur, Patna - BSPCB",09-12-2025 07:00:00,25.586562,85.043586,PM2.5,140,343,245
India,Bihar,Patna,"Govt. High School Shikarpur, Patna - BSPCB",09-12-2025 07:00:00,25.592539,85.227158,PM2.5,55,71,65
India,Bihar,Patna,"Govt. High School Shikarpur, Patna - BSPCB",09-12-2025 07:00:00,25.592539,85.227158,NO2,13,54,36
India,Bihar,Patna,"Govt. High School Shikarpur, Patna - BSPCB",09-12-2025 07:00:00,25.592539,85.227158,NH3,4,5,5
India,Bihar,Patna,"Muradpur, Patna - BSPCB",09-12-2025 07:00:00,25.619651,85.147382,OZONE,4,23,5
India,Bihar,Patna,"Rajbansi Nagar, Patna - BSPCB",09-12-2025 07:00:00,25.599486,85.113666,PM10,8,324,130
India,Chhattisgarh,Raipur,"Bhatagaon New ISBT, Raipur - CECB",09-12-2025 07:00:00,21.219665,81.630094,PM2.5,33,98,69
India,Chhattisgarh,Raipur,"Bhatagaon New ISBT, Raipur - CECB",09-12-2025 07:00:00,21.219665,81.630094,SO2,5,26,9
India,Chhattisgarh,Raipur,"Bhatagaon New ISBT, Raipur - CECB",09-12-2025 07:00:00,21.219665,81.630094,OZONE,3,15,3
India,Chhattisgarh,Raipur,"Siltara Phase-II, Raipur - CECB",09-12-2025 07:00:00,21.371751,81.664929,SO2,3,8,5
India,Bihar,Siwan,"Chitragupta Nagar, Siwan - BSPCB",09-12-2025 07:00:00,26.2271665,84.3570427,PM2.5,92,240,153
India,Bihar,Siwan,"Chitragupta Nagar, Siwan - BSPCB",09-12-2025 07:00:00,26.2271665,84.3570427,NO2,1,2,1
India,Bihar,Siwan,"Chitragupta Nagar, Siwan - BSPCB",09-12-2025 07:00:00,26.2271665,84.3570427,OZONE,5,6,5
India,Chhattisgarh,Bhilai,"Hathkhoj, Bhilai - CECB",09-12-2025 07:00:00,21.224231,81.408350,NO2,17,83,46
India,Chhattisgarh,Bhilai,"Hathkhoj, Bhilai - CECB",09-12-2025 07:00:00,21.224231,81.408350,NH3,3,8,5
India,Delhi,Delhi,"Sirifort, Delhi - CPCB",09-12-2025 07:00:00,28.5504249,77.2159377,OZONE,10,29,14
India,Delhi,Delhi,"Sonia Vihar, Delhi - DPCC",09-12-2025 07:00:00,28.710508,77.249485,CO,52,117,85
India,Delhi,Delhi,"Sri Aurobindo Marg, Delhi - DPCC",09-12-2025 07:00:00,28.531346,77.190156,NH3,6,8,7
India,Delhi,Delhi,"Vivek Vihar, Delhi - DPCC",09-12-2025 07:00:00,28.672342,77.315260,SO2,9,22,15
India,Delhi,Delhi,"Wazirpur, Delhi - DPCC",09-12-2025 07:00:00,28.699793,77.165453,NH3,10,12,11
India,Delhi,Delhi,"Wazirpur, Delhi - DPCC",09-12-2025 07:00:00,28.699793,77.165453,SO2,7,18,14
India,Delhi,Delhi,"Wazirpur, Delhi - DPCC",09-12-2025 07:00:00,28.699793,77.165453,CO,34,101,63
India,Gujarat,Ahmedabad,"Chandkheda, Ahmedabad - IITM",09-12-2025 07:00:00,23.107969,72.574648,PM10,77,180,119
India,Delhi,Delhi,"Bawana, Delhi - DPCC",09-12-2025 07:00:00,28.776200,77.051074,PM2.5,133,442,343
India,Delhi,Delhi,"Bawana, Delhi - DPCC",09-12-2025 07:00:00,28.776200,77.051074,PM10,140,404,238
India,Delhi,Delhi,"Bawana, Delhi - DPCC",09-12-2025 07:00:00,28.776200,77.051074,NO2,10,64,34
India,Delhi,Delhi,"CRRI Mathura Road, Delhi - IMD",09-12-2025 07:00:00,28.5512005,77.2735737,NO2,38,47,42
India,Delhi,Delhi,"Chandni Chowk, Delhi - IITM",09-12-2025 07:00:00,28.656756,77.227234,NO2,14,84,54
India,Delhi,Delhi,"Chandni Chowk, Delhi - IITM",09-12-2025 07:00:00,28.656756,77.227234,NH3,2,11,8
India,Delhi,Delhi,"DTU, Delhi - CPCB",09-12-2025 07:00:00,28.7500499,77.1112615,OZONE,14,42,15
India,Delhi,Delhi,"Najafgarh, Delhi - DPCC",09-12-2025 07:00:00,28.570173,76.933762,PM2.5,130,348,279
India,Delhi,Delhi,"Narela, Delhi - DPCC",09-12-2025 07:00:00,28.822836,77.101981,OZONE,10,97,24
India,Delhi,Delhi,"Nehru Nagar, Delhi - DPCC",09-12-2025 07:00:00,28.567890,77.250515,NH3,16,30,20
India,Delhi,Delhi,"Nehru Nagar, Delhi - DPCC",09-12-2025 07:00:00,28.567890,77.250515,CO,106,115,109
India,Delhi,Delhi,"North Campus, DU, Delhi - IMD",09-12-2025 07:00:00,28.6573814,77.1585447,CO,43,124,78
India,Delhi,Delhi,"North Campus, DU, Delhi - IMD",09-12-2025 07:00:00,28.6573814,77.1585447,OZONE,22,312,79
India,Delhi,Delhi,"R K Puram, Delhi - DPCC",09-12-2025 07:00:00,28.563262,77.186937,PM10,137,478,238
India,Delhi,Delhi,"R K Puram, Delhi - DPCC",09-12-2025 07:00:00,28.563262,77.186937,CO,32,104,49
India,Delhi,Delhi,"Rohini, Delhi - DPCC",09-12-2025 07:00:00,28.732528,77.119920,OZONE,8,147,27
India,Delhi,Delhi,"Shadipur, Delhi - CPCB",09-12-2025 07:00:00,28.6514781,77.1473105,PM10,148,456,242
India,Delhi,Delhi,"Shadipur, Delhi - CPCB",09-12-2025 07:00:00,28.6514781,77.1473105,OZONE,9,26,9
India,Delhi,Delhi,"Sirifort, Delhi - CPCB",09-12-2025 07:00:00,28.5504249,77.2159377,PM2.5,135,365,308
India,Delhi,Delhi,"Jahangirpuri, Delhi - DPCC",09-12-2025 07:00:00,28.732820,77.170633,PM2.5,197,384,332
India,Delhi,Delhi,"Jahangirpuri, Delhi - DPCC",09-12-2025 07:00:00,28.732820,77.170633,NO2,60,131,92
India,Delhi,Delhi,"Jahangirpuri, Delhi - DPCC",09-12-2025 07:00:00,28.732820,77.170633,SO2,19,102,32
India,Delhi,Delhi,"Jawaharlal Nehru Stadium, Delhi - DPCC",09-12-2025 07:00:00,28.580280,77.233829,NO2,71,146,101
India,Delhi,Delhi,"Jawaharlal Nehru Stadium, Delhi - DPCC",09-12-2025 07:00:00,28.580280,77.233829,CO,34,105,59
India,Delhi,Delhi,"Lodhi Road, Delhi - IITM",09-12-2025 07:00:00,28.588333,77.221667,SO2,8,18,11
India,Delhi,Delhi,"Mandir Marg, Delhi - DPCC",09-12-2025 07:00:00,28.636429,77.201067,PM2.5,8,341,219
India,Delhi,Delhi,"Mandir Marg, Delhi - DPCC",09-12-2025 07:00:00,28.636429,77.201067,PM10,101,329,202
India,Delhi,Delhi,"Mandir Marg, Delhi - DPCC",09-12-2025 07:00:00,28.636429,77.201067,NO2,62,131,90
India,Delhi,Delhi,"Mandir Marg, Delhi - DPCC",09-12-2025 07:00:00,28.636429,77.201067,SO2,71,102,91
India,Delhi,Delhi,"Mundka, Delhi - DPCC",09-12-2025 07:00:00,28.684678,77.076574,PM2.5,103,408,319
India,Delhi,Delhi,"Mundka, Delhi - DPCC",09-12-2025 07:00:00,28.684678,77.076574,NO2,42,137,83
India,Delhi,Delhi,"Mundka, Delhi - DPCC",09-12-2025 07:00:00,28.684678,77.076574,CO,38,88,59
India,Delhi,Delhi,"Dwarka-Sector 8, Delhi - DPCC ",09-12-2025 07:00:00,28.5710274,77.0719006,NO2,67,142,94
India,Delhi,Delhi,"IGI Airport (T3), Delhi - IMD",09-12-2025 07:00:00,28.5627763,77.1180053,PM2.5,99,314,216
India,Delhi,Delhi,"IGI Airport (T3), Delhi - IMD",09-12-2025 07:00:00,28.5627763,77.1180053,CO,24,56,43
India,Delhi,Delhi,"IIT Delhi, Delhi - IITM",09-12-2025 07:00:00,28.542460,77.191651,PM10,137,286,197
India,Delhi,Delhi,"IIT Delhi, Delhi - IITM",09-12-2025 07:00:00,28.542460,77.191651,NO2,42,69,58
India,Gujarat,Ahmedabad,"Maninagar, Ahmedabad - GPCB",09-12-2025 07:00:00,23.002657,72.591912,CO,18,32,23
India,Gujarat,Ahmedabad,"Raikhad, Ahmedabad - IITM",09-12-2025 07:00:00,23.020509,72.579261,PM10,86,174,123
India,Gujarat,Ahmedabad,"Raikhad, Ahmedabad - IITM",09-12-2025 07:00:00,23.020509,72.579261,OZONE,4,60,9
India,Gujarat,Ahmedabad,"Rakhial, Ahmedabad - IITM",09-12-2025 07:00:00,23.016834,72.625775,PM2.5,5,167,60
India,Gujarat,Ahmedabad,"Rakhial, Ahmedabad - IITM",09-12-2025 07:00:00,23.016834,72.625775,CO,8,122,63
India,Delhi,Delhi,"Okhla Phase-2, Delhi - DPCC",09-12-2025 07:00:00,28.530785,77.271255,SO2,6,19,11
India,Delhi,Delhi,"Punjabi Bagh, Delhi - DPCC",09-12-2025 07:00:00,28.674045,77.131023,NH3,5,6,6
India,Delhi,Delhi,"Punjabi Bagh, Delhi - DPCC",09-12-2025 07:00:00,28.674045,77.131023,CO,32,80,52
India,Gujarat,Ahmedabad,"SAC ISRO Bopal, Ahmedabad - IITM",09-12-2025 07:00:00,23.041137,72.456691,NO2,22,55,39
India,Gujarat,Ahmedabad,"SAC ISRO Bopal, Ahmedabad - IITM",09-12-2025 07:00:00,23.041137,72.456691,SO2,2,17,5
India,Gujarat,Ahmedabad,"SAC ISRO Bopal, Ahmedabad - IITM",09-12-2025 07:00:00,23.041137,72.456691,OZONE,1,48,3
India,Gujarat,Ahmedabad,"SAC ISRO Satellite, Ahmedabad - IITM",09-12-2025 07:00:00,23.023389,72.515201,PM2.5,37,75,57
India,Gujarat,Ahmedabad,"SAC ISRO Satellite, Ahmedabad - IITM",09-12-2025 07:00:00,23.023389,72.515201,CO,12,86,47
India,Gujarat,Ahmedabad,"SAC ISRO Satellite, Ahmedabad - IITM",09-12-2025 07:00:00,23.023389,72.515201,OZONE,1,45,6
India,Gujarat,Ahmedabad,"SVPI Airport Hansol, Ahmedabad - IITM",09-12-2025 07:00:00,23.076793,72.627874,OZONE,2,37,6
India,Gujarat,Ankleshwar,"GIDC, Ankleshwar - GPCB",09-12-2025 07:00:00,21.613267,73.010555,PM10,81,149,121
India,Gujarat,Ankleshwar,"GIDC, Ankleshwar - GPCB",09-12-2025 07:00:00,21.613267,73.010555,NH3,6,8,8
India,Gujarat,Gandhinagar,"IIPHG Lekawada, Gandhinagar - IITM",09-12-2025 07:00:00,23.243639,72.68994,PM10,5,119,59
India,Haryana,Narnaul,"Shastri Nagar, Narnaul - HSPCB",09-12-2025 07:00:00,28.060249,76.113115,PM10,152,244,196
India,Haryana,Narnaul,"Shastri Nagar, Narnaul - HSPCB",09-12-2025 07:00:00,28.060249,76.113115,CO,18,38,26
India,Haryana,Narnaul,"Shastri Nagar, Narnaul - HSPCB",09-12-2025 07:00:00,28.060249,76.113115,OZONE,16,81,17
India,Haryana,Palwal,"Shyam Nagar, Palwal - HSPCB",09-12-2025 07:00:00,28.1485564,77.3320667,NH3,8,9,9
India,Haryana,Panchgaon,"Amity University, Panchgaon - IITM",09-12-2025 07:00:00,28.3153,76.9143,PM10,93,138,114
India,Haryana,Panchgaon,"Amity University, Panchgaon - IITM",09-12-2025 07:00:00,28.3153,76.9143,SO2,2,14,7
India,Haryana,Panchgaon,"Amity University, Panchgaon - IITM",09-12-2025 07:00:00,28.3153,76.9143,OZONE,1,234,6
India,Haryana,Panchkula,"Sector-6, Panchkula - HSPCB ",09-12-2025 07:00:00,30.7057778,76.8531805555555,CO,20,22,22
India,Haryana,Bhiwani,"H.B. Colony, Bhiwani - HSPCB",09-12-2025 07:00:00,28.806223,76.141105,NH3,1,9,8
India,Haryana,Charkhi Dadri,"Mini Secretariat, Charkhi Dadri - HSPCB",09-12-2025 07:00:00,28.593883,76.270653,NH3,5,8,6
India,Haryana,Charkhi Dadri,"Mini Secretariat, Charkhi Dadri - HSPCB",09-12-2025 07:00:00,28.593883,76.270653,SO2,9,11,10
India,Haryana,Charkhi Dadri,"Mini Secretariat, Charkhi Dadri - HSPCB",09-12-2025 07:00:00,28.593883,76.270653,OZONE,13,17,15
India,Haryana,Dharuhera,"Municipal Corporation Office, Dharuhera -  HSPCB",09-12-2025 07:00:00,28.206800,76.799700,PM2.5,283,338,312
India,Haryana,Faridabad,"New Industrial Town, Faridabad - HSPCB",09-12-2025 07:00:00,28.39072,77.30059,SO2,8,8,8
India,Haryana,Faridabad,"New Industrial Town, Faridabad - HSPCB",09-12-2025 07:00:00,28.39072,77.30059,CO,10,12,12
India,Haryana,Faridabad,"Sector 11, Faridabad - HSPCB",09-12-2025 07:00:00,28.376058,77.315741,NO2,30,33,32
India,Haryana,Faridabad,"Sector 11, Faridabad - HSPCB",09-12-2025 07:00:00,28.376058,77.315741,CO,7,28,21
India,Haryana,Faridabad,"Sector 11, Faridabad - HSPCB",09-12-2025 07:00:00,28.376058,77.315741,OZONE,14,16,15
India,Haryana,Faridabad,"Sector 30, Faridabad - HSPCB",09-12-2025 07:00:00,28.4417,77.3217,CO,60,66,62
India,Haryana,Fatehabad,"Huda Sector, Fatehabad - HSPCB",09-12-2025 07:00:00,29.503664,75.467934,SO2,10,11,11
India,Haryana,Gurugram,"Sector-51, Gurugram - HSPCB",09-12-2025 07:00:00,28.4227,77.0667,PM2.5,223,421,313
India,Haryana,Gurugram,"Sector-51, Gurugram - HSPCB",09-12-2025 07:00:00,28.4227,77.0667,NO2,4,10,6
India,Haryana,Gurugram,"Sector-51, Gurugram - HSPCB",09-12-2025 07:00:00,28.4227,77.0667,CO,18,22,20
India,Haryana,Gurugram,"Vikas Sadan, Gurugram - HSPCB",09-12-2025 07:00:00,28.4501238,77.0263051,PM10,136,141,138
India,Haryana,Gurugram,"Vikas Sadan, Gurugram - HSPCB",09-12-2025 07:00:00,28.4501238,77.0263051,SO2,2,8,5
India,Haryana,Gurugram,"Vikas Sadan, Gurugram - HSPCB",09-12-2025 07:00:00,28.4501238,77.0263051,CO,101,140,119
India,Haryana,Hisar,"Urban Estate-II, Hisar - HSPCB",09-12-2025 07:00:00,29.140560,75.744941,NO2,18,20,19
India,Haryana,Jind,"Police Lines, Jind - HSPCB",09-12-2025 07:00:00,29.307814,76.337619,PM10,34,500,157
India,Haryana,Jind,"Police Lines, Jind - HSPCB",09-12-2025 07:00:00,29.307814,76.337619,NH3,2,3,2
India,Haryana,Ambala,"Patti Mehar, Ambala - HSPCB",09-12-2025 07:00:00,30.379589,76.778328,PM2.5,58,108,80
India,Haryana,Ambala,"Patti Mehar, Ambala - HSPCB",09-12-2025 07:00:00,30.379589,76.778328,NH3,9,11,10
India,Haryana,Bahadurgarh,"Arya Nagar, Bahadurgarh - HSPCB",09-12-2025 07:00:00,28.6701,76.9254,NO2,12,13,13
India,Haryana,Ballabgarh,"Nathu Colony, Ballabgarh - HSPCB",09-12-2025 07:00:00,28.3419248,77.319699,NO2,19,21,20
India,Haryana,Bhiwani,"H.B. Colony, Bhiwani - HSPCB",09-12-2025 07:00:00,28.806223,76.141105,PM2.5,214,378,272
India,Gujarat,Gandhinagar,"Sector-10, Gandhinagar - GPCB",09-12-2025 07:00:00,23.221714,72.654328,CO,23,46,31
India,Gujarat,Nandesari,"GIDC, Nandesari - Nandesari Ind. Association",09-12-2025 07:00:00,22.410802,73.097923,PM10,72,330,151
India,Gujarat,Nandesari,"GIDC, Nandesari - Nandesari Ind. Association",09-12-2025 07:00:00,22.410802,73.097923,NO2,13,100,54
India,Gujarat,Vapi,"Phase-1 GIDC, Vapi - GPCB",09-12-2025 07:00:00,20.362421,72.918013,NH3,5,5,5
India,Gujarat,Vatva,"Phase-4 GIDC, Vatva - GPCB",09-12-2025 07:00:00,22.969611,72.643500,SO2,3,9,7
India,Haryana,Karnal,"Sector-12, Karnal - HSPCB",09-12-2025 07:00:00,29.695300,77.002700,OZONE,NA,NA,NA
India,Haryana,Manesar,"Sector-2 IMT, Manesar - HSPCB",09-12-2025 07:00:00,28.360699,76.936090,CO,26,40,31
India,Haryana,Kaithal,"Rishi Nagar, Kaithal - HSPCB",09-12-2025 07:00:00,29.8006,76.4155,NH3,5,6,6
India,Kerala,Kollam,"Polayathode, Kollam - Kerala PCB",09-12-2025 07:00:00,8.8787,76.6073,NO2,8,9,9
India,Kerala,Kollam,"Polayathode, Kollam - Kerala PCB",09-12-2025 07:00:00,8.8787,76.6073,SO2,2,3,2
India,Kerala,Thiruvananthapuram,"Kariavattom, Thiruvananthapuram - Kerala PCB",09-12-2025 07:00:00,8.563700,76.886500,PM10,59,120,89
India,Kerala,Thiruvananthapuram,"Kariavattom, Thiruvananthapuram - Kerala PCB",09-12-2025 07:00:00,8.563700,76.886500,NO2,6,7,6
India,Kerala,Thiruvananthapuram,"Kariavattom, Thiruvananthapuram - Kerala PCB",09-12-2025 07:00:00,8.563700,76.886500,OZONE,36,37,36
India,Kerala,Thiruvananthapuram,"Plammoodu, Thiruvananthapuram - Kerala PCB",09-12-2025 07:00:00,8.5149093,76.9435879,PM2.5,18,68,42
India,Kerala,Thiruvananthapuram,"Plammoodu, Thiruvananthapuram - Kerala PCB",09-12-2025 07:00:00,8.5149093,76.9435879,CO,14,34,22
India,Kerala,Thrissur,"Corporation Ground, Thrissur - Kerala PCB",09-12-2025 07:00:00,10.532400,76.215900,PM2.5,46,68,54
India,Kerala,Thrissur,"Corporation Ground, Thrissur - Kerala PCB",09-12-2025 07:00:00,10.532400,76.215900,PM10,47,66,54
India,Karnataka,Shivamogga,"Vinoba Nagara, Shivamogga - KSPCB",09-12-2025 07:00:00,13.940000,75.555917,SO2,2,6,5
India,Karnataka,Shivamogga,"Vinoba Nagara, Shivamogga - KSPCB",09-12-2025 07:00:00,13.940000,75.555917,CO,9,27,13
India,Karnataka,Shivamogga,"Vinoba Nagara, Shivamogga - KSPCB",09-12-2025 07:00:00,13.940000,75.555917,OZONE,10,59,44
India,Karnataka,Yadgir,"Collector Office, Yadgir - KSPCB",09-12-2025 07:00:00,16.7602,77.1428,PM10,86,126,108
India,Karnataka,Yadgir,"Collector Office, Yadgir - KSPCB",09-12-2025 07:00:00,16.7602,77.1428,NH3,1,2,1
India,Kerala,Eloor,"Udyogamandal, Eloor - Kerala PCB",09-12-2025 07:00:00,10.073232,76.302765,PM2.5,55,96,73
India,Kerala,Kannur,"Thavakkara, Kannur - Kerala PCB",09-12-2025 07:00:00,11.875000,75.373200,SO2,7,9,8
India,Himachal Pradesh,Baddi,"HIMUDA Complex Phase-1, Baddi - HPPCB",09-12-2025 07:00:00,30.943887,76.801991,PM10,98,448,158
India,Himachal Pradesh,Baddi,"HIMUDA Complex Phase-1, Baddi - HPPCB",09-12-2025 07:00:00,30.943887,76.801991,NH3,6,15,9
India,Jharkhand,Dhanbad,"Sardar Patel Nagar, Dhanbad - JSPCB",09-12-2025 07:00:00,23.80569,86.44268,PM2.5,14,301,159
India,Jharkhand,Dhanbad,"Sardar Patel Nagar, Dhanbad - JSPCB",09-12-2025 07:00:00,23.80569,86.44268,CO,NA,NA,NA
India,Jharkhand,Jorapokhar,"Tata Stadium, Jorapokhar - JSPCB",09-12-2025 07:00:00,23.707909,86.414670,SO2,NA,NA,NA
India,Karnataka,Bagalkot,"Vidayagiri, Bagalkot - KSPCB",09-12-2025 07:00:00,16.172806,75.659694,NH3,1,2,1
India,Karnataka,Kalaburagi,"Lal Bahadur Shastri Nagar, Kalaburagi - KSPCB",09-12-2025 07:00:00,17.321993,76.822628,SO2,46,53,49
India,Karnataka,Kalaburagi,"Mahatma Basaveswar Colony, Kalaburgi - KSPCB",09-12-2025 07:00:00,17.336318,76.847397,PM10,28,78,53
India,Karnataka,Koppal,"Diwator Nagar, Koppal - KSPCB",09-12-2025 07:00:00,15.347630,76.181767,PM2.5,37,47,42
India,Karnataka,Koppal,"Diwator Nagar, Koppal - KSPCB",09-12-2025 07:00:00,15.347630,76.181767,SO2,8,39,17
India,Karnataka,Madikeri,"Stuart Hill, Madikeri - KSPCB",09-12-2025 07:00:00,12.415911,75.735050,PM2.5,30,500,84
India,Karnataka,Mysuru,"Hebbal 1st Stage, Mysuru - KSPCB",09-12-2025 07:00:00,12.21041,76.37376,PM2.5,30,74,49
India,Karnataka,Davanagere,"Devaraj Urs Badavane, Davanagere - KSPCB",09-12-2025 07:00:00,14.475800,75.905200,OZONE,NA,NA,NA
India,Karnataka,Dharwad,"Kalabhavan, Dharwad - KSPCB",09-12-2025 07:00:00,15.459706,75.008381,CO,46,75,59
India,Karnataka,Hubballi,"Lingaraj Nagar, Hubballi - KSPCB",09-12-2025 07:00:00,15.3714823,75.1160168,PM2.5,34,42,37
India,Karnataka,Hubballi,"Lingaraj Nagar, Hubballi - KSPCB",09-12-2025 07:00:00,15.3714823,75.1160168,PM10,54,60,56
India,Karnataka,Hubballi,"Lingaraj Nagar, Hubballi - KSPCB",09-12-2025 07:00:00,15.3714823,75.1160168,CO,10,18,16
India,Karnataka,Kalaburagi,"Lal Bahadur Shastri Nagar, Kalaburagi - KSPCB",09-12-2025 07:00:00,17.321993,76.822628,PM2.5,33,58,47
India,Haryana,Rohtak,"MD University, Rohtak - HSPCB",09-12-2025 07:00:00,28.52123,76.37138,NO2,10,13,11
India,Haryana,Sirsa,"F-Block, Sirsa - HSPCB",09-12-2025 07:00:00,29.536400,75.015800,NO2,14,25,18
India,Haryana,Sirsa,"F-Block, Sirsa - HSPCB",09-12-2025 07:00:00,29.536400,75.015800,NH3,10,16,13
India,Haryana,Sonipat,"Murthal, Sonipat - HSPCB",09-12-2025 07:00:00,29.027200,77.062100,PM2.5,126,401,286
India,Haryana,Sonipat,"Murthal, Sonipat - HSPCB",09-12-2025 07:00:00,29.027200,77.062100,SO2,6,11,8
India,Haryana,Yamuna Nagar,"Gobind Pura, Yamuna Nagar - HSPCB",09-12-2025 07:00:00,30.1480566,77.2893471,PM2.5,100,214,146
India,Karnataka,Bengaluru,"City Railway Station, Bengaluru - KSPCB",09-12-2025 07:00:00,12.9756843,77.5660749,SO2,12,20,15
India,Karnataka,Bengaluru,"City Railway Station, Bengaluru - KSPCB",09-12-2025 07:00:00,12.9756843,77.5660749,CO,84,88,87
India,Karnataka,Bengaluru,"Hebbal, Bengaluru - KSPCB",09-12-2025 07:00:00,13.029152,77.585901,NH3,NA,NA,NA
India,Karnataka,Bengaluru,"Hebbal, Bengaluru - KSPCB",09-12-2025 07:00:00,13.029152,77.585901,CO,6,47,23
India,Karnataka,Bengaluru,"Hombegowda Nagar, Bengaluru - KSPCB",09-12-2025 07:00:00,12.938539,77.590100,OZONE,20,49,40
India,Karnataka,Bengaluru,"Jayanagar 5th Block, Bengaluru - KSPCB",09-12-2025 07:00:00,12.920984,77.584908,PM2.5,32,107,76
India,Karnataka,Bengaluru,"Jayanagar 5th Block, Bengaluru - KSPCB",09-12-2025 07:00:00,12.920984,77.584908,SO2,1,50,20
India,Karnataka,Bengaluru,"Jigani, Bengaluru - KSPCB",09-12-2025 07:00:00,12.7816279,77.6299145,PM2.5,38,317,96
India,Karnataka,Bengaluru,"Kasturi Nagar, Bengaluru - KSPCB",09-12-2025 07:00:00,13.003872,77.664217,SO2,10,11,11
