country,state,city,station,last_update,latitude,longitude,pollutant_id,min_value,max_value,avg_value
India,Andhra_Pradesh,Visakhapatnam,"GVM Corporation, Visakhapatnam - APPCB",19-10-2025 07:00:00,17.72,83.3,SO2,NA,NA,NA
India,Arunachal_Pradesh,Naharlagun,"Naharlagun, Naharlagun - APSPCB",19-10-2025 07:00:00,27.103358,93.679645,PM10,18,172,58
India,Arunachal_Pradesh,Naharlagun,"Naharlagun, Naharlagun - APSPCB",19-10-2025 07:00:00,27.103358,93.679645,CO,7,31,11
India,Assam,Byrnihat,"Central Academy for SFS, Byrnihat - PCBA",19-10-2025 07:00:00,26.071318,91.87488,NO2,4,8,7
India,Assam,Guwahati,"IITG, Guwahati - PCBA",19-10-2025 07:00:00,26.2028636,91.70046436,NO2,1,6,3
India,Assam,Guwahati,"IITG, Guwahati - PCBA",19-10-2025 07:00:00,26.2028636,91.70046436,NH3,5,5,5
India,Assam,Guwahati,"LGBI Airport, Guwahati - PCBA",19-10-2025 07:00:00,26.10887,91.589544,PM2.5,49,67,56
India,Bihar,Kishanganj,"SDM Office_Khagra, Kishanganj - BSPCB",19-10-2025 07:00:00,26.0881305,87.93840336,CO,12,14,13
India,Bihar,Manguraha,"Forest Rest House, Manguraha - BSPCB",19-10-2025 07:00:00,27.308328,84.531742,NH3,1,3,2
India,Bihar,Manguraha,"Forest Rest House, Manguraha - BSPCB",19-10-2025 07:00:00,27.308328,84.531742,SO2,16,17,17
India,Bihar,Manguraha,"Forest Rest House, Manguraha - BSPCB",19-10-2025 07:00:00,27.308328,84.531742,CO,32,34,33
India,Bihar,Manguraha,"Forest Rest House, Manguraha - BSPCB",19-10-2025 07:00:00,27.308328,84.531742,OZONE,2,20,7
India,Bihar,Motihari,"Gandak Colony, Motihari - BSPCB",19-10-2025 07:00:00,26.63086,84.90051,NO2,9,11,10
India,Bihar,Motihari,"Gandak Colony, Motihari - BSPCB",19-10-2025 07:00:00,26.63086,84.90051,CO,38,48,42
India,Bihar,Munger,"Town Hall, Munger - BSPCB",19-10-2025 07:00:00,25.376776,86.471523,NH3,5,7,6
India,Bihar,Bihar Sharif,"D M Colony, Bihar Sharif - BSPCB",19-10-2025 07:00:00,25.204762,85.514960,PM10,43,62,53
India,Bihar,Bihar Sharif,"D M Colony, Bihar Sharif - BSPCB",19-10-2025 07:00:00,25.204762,85.514960,NO2,9,10,9
India,Bihar,Bihar Sharif,"D M Colony, Bihar Sharif - BSPCB",19-10-2025 07:00:00,25.204762,85.514960,SO2,10,10,10
India,Bihar,Buxar,"Charitra Van, Buxar - BSPCB",19-10-2025 07:00:00,25.567520,83.966379,CO,19,26,24
India,Bihar,Chhapra,"Darshan Nagar, Chhapra - BSPCB",19-10-2025 07:00:00,25.7808257,84.7446768,OZONE,15,36,23
India,Bihar,Gaya,"Collectorate, Gaya - BSPCB",19-10-2025 07:00:00,24.7955,84.9994,CO,34,72,44
India,Bihar,Gaya,"Kareemganj, Gaya - BSPCB",19-10-2025 07:00:00,24.792403,84.992416,PM2.5,45,305,137
India,Bihar,Aurangabad,"Gurdeo Nagar, Aurangabad - BSPCB",19-10-2025 07:00:00,24.75746,84.366208,SO2,1,18,9
India,Bihar,Aurangabad,"Gurdeo Nagar, Aurangabad - BSPCB",19-10-2025 07:00:00,24.75746,84.366208,OZONE,4,34,7
India,Bihar,Begusarai,"Lohiyanagar, Begusarai - BSPCB",19-10-2025 07:00:00,25.42742023,86.13886079,NO2,8,21,14
India,Bihar,Begusarai,"Lohiyanagar, Begusarai - BSPCB",19-10-2025 07:00:00,25.42742023,86.13886079,OZONE,4,23,21
India,Bihar,Bettiah,"Kamalnath Nagar, Bettiah - BSPCB",19-10-2025 07:00:00,26.80365,84.51954,PM10,66,115,90
India,Bihar,Bettiah,"Kamalnath Nagar, Bettiah - BSPCB",19-10-2025 07:00:00,26.80365,84.51954,NH3,NA,NA,NA
India,Bihar,Bhagalpur,"Mayaganj, Bhagalpur - BSPCB",19-10-2025 07:00:00,25.265194,87.012947,NH3,6,15,9
India,Assam,Guwahati,"Pan Bazaar, Guwahati - PCBA",19-10-2025 07:00:00,26.187500,91.744194,PM10,17,83,46
India,Assam,Nagaon,"Christianpatty, Nagaon - PCBA",19-10-2025 07:00:00,26.349082,92.68449,SO2,10,13,12
India,Assam,Nalbari,"Bata Chowk, Nalbari - PCBA",19-10-2025 07:00:00,26.446912,91.439057,PM2.5,51,53,53
India,Assam,Nalbari,"Bata Chowk, Nalbari - PCBA",19-10-2025 07:00:00,26.446912,91.439057,PM10,46,47,47
India,Assam,Nalbari,"Bata Chowk, Nalbari - PCBA",19-10-2025 07:00:00,26.446912,91.439057,SO2,14,21,20
India,Assam,Nalbari,"Bata Chowk, Nalbari - PCBA",19-10-2025 07:00:00,26.446912,91.439057,CO,4,28,28
India,Assam,Silchar,"Tarapur, Silchar - PCBA",19-10-2025 07:00:00,24.82827,92.79525,NH3,1,1,1
India,Bihar,Gaya,"Kareemganj, Gaya - BSPCB",19-10-2025 07:00:00,24.792403,84.992416,PM10,105,345,173
India,Bihar,Gaya,"SFTI Kusdihra, Gaya - BSPCB",19-10-2025 07:00:00,24.762518,84.982348,NO2,16,19,18
India,Bihar,Gaya,"SFTI Kusdihra, Gaya - BSPCB",19-10-2025 07:00:00,24.762518,84.982348,OZONE,8,54,11
India,Bihar,Katihar,"Mirchaibari, Katihar - BSPCB",19-10-2025 07:00:00,25.560083,87.553265,PM2.5,60,142,102
India,Bihar,Katihar,"Mirchaibari, Katihar - BSPCB",19-10-2025 07:00:00,25.560083,87.553265,CO,70,101,89
India,Andhra_Pradesh,Chittoor,"Gangineni Cheruvu, Chittoor - APPCB",19-10-2025 07:00:00,13.204880,79.097889,NO2,5,14,12
India,Andhra_Pradesh,Chittoor,"Gangineni Cheruvu, Chittoor - APPCB",19-10-2025 07:00:00,13.204880,79.097889,OZONE,7,14,10
India,Andhra_Pradesh,Rajamahendravaram,"Anand Kala Kshetram, Rajamahendravaram - APPCB",19-10-2025 07:00:00,16.9872867,81.7363176,PM10,1,106,56
India,Andhra_Pradesh,Tirumala,"Toll Gate, Tirumala - APPCB",19-10-2025 07:00:00,13.67,79.35,NH3,1,2,1
India,Bihar,Arrah,"New DM Office, Arrah - BSPCB",19-10-2025 07:00:00,25.5626095,84.663264,NH3,1,1,1
India,Bihar,Arrah,"New DM Office, Arrah - BSPCB",19-10-2025 07:00:00,25.5626095,84.663264,OZONE,7,8,8
India,Andhra_Pradesh,Amaravati,"Secretariat, Amaravati - APPCB",19-10-2025 07:00:00,16.5150833,80.5181667,PM2.5,2,90,48
India,Andhra_Pradesh,Vijayawada,"Rajiv Nagar, Vijayawada - APPCB",19-10-2025 07:00:00,16.554731,80.649110,NO2,NA,NA,NA
India,Chhattisgarh,Raipur,"AIIMS, Raipur - CECB",19-10-2025 07:00:00,21.258815,81.578979,SO2,11,18,13
India,Chhattisgarh,Raipur,"AIIMS, Raipur - CECB",19-10-2025 07:00:00,21.258815,81.578979,OZONE,5,17,6
India,Chhattisgarh,Raipur,"Bhatagaon New ISBT, Raipur - CECB",19-10-2025 07:00:00,21.219665,81.630094,NO2,11,43,24
India,Chhattisgarh,Raipur,"Bhatagaon New ISBT, Raipur - CECB",19-10-2025 07:00:00,21.219665,81.630094,NH3,2,2,2
India,Chhattisgarh,Raipur,"Bhatagaon New ISBT, Raipur - CECB",19-10-2025 07:00:00,21.219665,81.630094,OZONE,2,10,2
India,Chhattisgarh,Raipur,"Krishak Nagar, Raipur - CECB",19-10-2025 07:00:00,21.237755,81.705301,PM10,41,54,48
India,Chhattisgarh,Raipur,"Krishak Nagar, Raipur - CECB",19-10-2025 07:00:00,21.237755,81.705301,SO2,7,18,10
India,Chhattisgarh,Raipur,"Siltara Phase-II, Raipur - CECB",19-10-2025 07:00:00,21.371751,81.664929,PM2.5,31,90,59
India,Chhattisgarh,Raipur,"Siltara Phase-II, Raipur - CECB",19-10-2025 07:00:00,21.371751,81.664929,PM10,33,161,98
India,Chhattisgarh,Tumidih,"OP Jindal Industrial Park, Tumidih - CECB",19-10-2025 07:00:00,22.06631475,83.33820077,PM10,NA,NA,NA
India,Chhattisgarh,Tumidih,"OP Jindal Industrial Park, Tumidih - CECB",19-10-2025 07:00:00,22.06631475,83.33820077,NO2,NA,NA,NA
India,Chhattisgarh,Korba,"Rampur, Korba - CECB",19-10-2025 07:00:00,22.368195,82.746431,PM10,31,32,32
India,Chhattisgarh,Korba,"Urja Nagar, Korba - CECB",19-10-2025 07:00:00,22.348441,82.549611,NH3,1,2,2
India,Chhattisgarh,Kunjemura,"OP Jindal School, Kunjemura - CECB",19-10-2025 07:00:00,22.126650,83.483212,PM10,38,149,74
India,Chhattisgarh,Kunjemura,"OP Jindal School, Kunjemura - CECB",19-10-2025 07:00:00,22.126650,83.483212,NO2,3,3,3
India,Chhattisgarh,Kunjemura,"OP Jindal School, Kunjemura - CECB",19-10-2025 07:00:00,22.126650,83.483212,NH3,2,2,2
India,Chhattisgarh,Kunjemura,"OP Jindal School, Kunjemura - CECB",19-10-2025 07:00:00,22.126650,83.483212,SO2,2,14,6
India,Chhattisgarh,Milupara,"Govt. Higher Secondary School, Milupara - CECB",19-10-2025 07:00:00,22.1910172,83.5197009,PM2.5,41,71,56
India,Chhattisgarh,Milupara,"Govt. Higher Secondary School, Milupara - CECB",19-10-2025 07:00:00,22.1910172,83.5197009,NO2,19,59,30
India,Chhattisgarh,Milupara,"Govt. Higher Secondary School, Milupara - CECB",19-10-2025 07:00:00,22.1910172,83.5197009,SO2,12,20,15
India,Chhattisgarh,Raipur,"AIIMS, Raipur - CECB",19-10-2025 07:00:00,21.258815,81.578979,PM2.5,34,85,53
India,Chhattisgarh,Bhilai,"Civic Center, Bhilai - Bhilai Steel Plant",19-10-2025 07:00:00,21.185571,81.343175,SO2,7,10,8
India,Chhattisgarh,Bhilai,"Hathkhoj, Bhilai - CECB",19-10-2025 07:00:00,21.224231,81.408350,PM2.5,26,79,48
India,Chhattisgarh,Bilaspur,"Mangala, Bilaspur - NTPC",19-10-2025 07:00:00,22.08815,82.13737,PM10,72,187,101
India,Chhattisgarh,Bilaspur,"Mangala, Bilaspur - NTPC",19-10-2025 07:00:00,22.08815,82.13737,NO2,19,27,21
India,Chhattisgarh,Chhal,"Nawapara SECL Colony, Chhal - CECB",19-10-2025 07:00:00,22.118125,83.140608,NO2,1,3,2
India,Chhattisgarh,Chhal,"Nawapara SECL Colony, Chhal - CECB",19-10-2025 07:00:00,22.118125,83.140608,OZONE,29,192,33
India,Chhattisgarh,Korba,"Rampur, Korba - CECB",19-10-2025 07:00:00,22.368195,82.746431,PM2.5,47,47,47
India,Bihar,Patna,"IGSC Planetarium Complex, Patna - BSPCB",19-10-2025 07:00:00,25.610369,85.132568,OZONE,45,48,46
India,Bihar,Patna,"Muradpur, Patna - BSPCB",19-10-2025 07:00:00,25.619651,85.147382,PM10,53,66,59
India,Bihar,Patna,"Rajbansi Nagar, Patna - BSPCB",19-10-2025 07:00:00,25.599486,85.113666,SO2,6,8,7
India,Bihar,Patna,"Samanpura, Patna - BSPCB",19-10-2025 07:00:00,25.596727,85.085624,NO2,39,52,45
India,Bihar,Purnia,"Mariam Nagar, Purnia - BSPCB",19-10-2025 07:00:00,25.366336,87.117468,PM10,53,113,92
India,Bihar,Purnia,"Mariam Nagar, Purnia - BSPCB",19-10-2025 07:00:00,25.366336,87.117468,SO2,13,18,16
India,Bihar,Purnia,"Mariam Nagar, Purnia - BSPCB",19-10-2025 07:00:00,25.366336,87.117468,CO,44,62,59
India,Delhi,Delhi,"Bawana, Delhi - DPCC",19-10-2025 07:00:00,28.776200,77.051074,NO2,10,60,38
India,Delhi,Delhi,"Bawana, Delhi - DPCC",19-10-2025 07:00:00,28.776200,77.051074,SO2,10,20,15
India,Delhi,Delhi,"Burari Crossing, Delhi - IMD",19-10-2025 07:00:00,28.7256504,77.2011573,PM2.5,10,346,277
India,Delhi,Delhi,"Burari Crossing, Delhi - IMD",19-10-2025 07:00:00,28.7256504,77.2011573,OZONE,12,196,13
India,Delhi,Delhi,"CRRI Mathura Road, Delhi - IMD",19-10-2025 07:00:00,28.5512005,77.2735737,NO2,9,86,31
India,Delhi,Delhi,"Chandni Chowk, Delhi - IITM",19-10-2025 07:00:00,28.656756,77.227234,PM10,155,409,285
India,Delhi,Delhi,"Chandni Chowk, Delhi - IITM",19-10-2025 07:00:00,28.656756,77.227234,NH3,13,51,25
India,Bihar,Rajgir,"Dangi Tola, Rajgir - BSPCB",19-10-2025 07:00:00,25.03280,85.41948,PM10,82,101,91
India,Bihar,Rajgir,"Dangi Tola, Rajgir - BSPCB",19-10-2025 07:00:00,25.03280,85.41948,NH3,6,7,6
India,Bihar,Saharsa,"Police Line, Saharsa - BSPCB",19-10-2025 07:00:00,25.892357,86.590325,PM2.5,35,203,76
India,Bihar,Saharsa,"Police Line, Saharsa - BSPCB",19-10-2025 07:00:00,25.892357,86.590325,NH3,4,4,4
India,Bihar,Saharsa,"Police Line, Saharsa - BSPCB",19-10-2025 07:00:00,25.892357,86.590325,OZONE,8,70,12
India,Bihar,Sasaram,"Dada Peer, Sasaram - BSPCB",19-10-2025 07:00:00,24.952822,84.002396,OZONE,15,18,16
India,Delhi,Delhi,"Alipur, Delhi - DPCC",19-10-2025 07:00:00,28.815329,77.153010,PM10,133,350,214
India,Delhi,Delhi,"Alipur, Delhi - DPCC",19-10-2025 07:00:00,28.815329,77.153010,NO2,32,121,72
India,Delhi,Delhi,"Anand Vihar, Delhi - DPCC",19-10-2025 07:00:00,28.647622,77.3158090,PM10,234,500,426
India,Delhi,Delhi,"Anand Vihar, Delhi - DPCC",19-10-2025 07:00:00,28.647622,77.3158090,NO2,30,57,43
India,Delhi,Delhi,"Anand Vihar, Delhi - DPCC",19-10-2025 07:00:00,28.647622,77.3158090,NH3,2,6,4
India,Delhi,Delhi,"Anand Vihar, Delhi - DPCC",19-10-2025 07:00:00,28.647622,77.3158090,OZONE,9,45,11
India,Bihar,Patna,"DRM Office Danapur, Patna - BSPCB",19-10-2025 07:00:00,25.586562,85.043586,PM10,58,355,127
India,Bihar,Patna,"DRM Office Danapur, Patna - BSPCB",19-10-2025 07:00:00,25.586562,85.043586,NO2,46,55,49
India,Bihar,Patna,"DRM Office Danapur, Patna - BSPCB",19-10-2025 07:00:00,25.586562,85.043586,NH3,4,6,5
India,Bihar,Patna,"Govt. High School Shikarpur, Patna - BSPCB",19-10-2025 07:00:00,25.592539,85.227158,NH3,4,5,5
India,Bihar,Patna,"Govt. High School Shikarpur, Patna - BSPCB",19-10-2025 07:00:00,25.592539,85.227158,CO,26,88,74
India,Chandigarh,Chandigarh,"Sector 22, Chandigarh - CPCC",19-10-2025 07:00:00,30.735567,76.775714,SO2,4,22,8
India,Chandigarh,Chandigarh,"Sector-53, Chandigarh - CPCC",19-10-2025 07:00:00,30.719859,76.738637,PM2.5,18,78,44
India,Chhattisgarh,Bhilai,"32Bungalows, Bhilai - CECB",19-10-2025 07:00:00,21.194815,81.314770,PM10,34,136,73
India,Delhi,Delhi,"Najafgarh, Delhi - DPCC",19-10-2025 07:00:00,28.570173,76.933762,PM2.5,110,303,212
India,Delhi,Delhi,"Najafgarh, Delhi - DPCC",19-10-2025 07:00:00,28.570173,76.933762,NO2,56,142,120
India,Delhi,Delhi,"Narela, Delhi - DPCC",19-10-2025 07:00:00,28.822836,77.101981,SO2,1,13,6
India,Delhi,Delhi,"Narela, Delhi - DPCC",19-10-2025 07:00:00,28.822836,77.101981,OZONE,1,158,2
India,Delhi,Delhi,"Nehru Nagar, Delhi - DPCC",19-10-2025 07:00:00,28.567890,77.250515,NH3,9,16,12
India,Delhi,Delhi,"Nehru Nagar, Delhi - DPCC",19-10-2025 07:00:00,28.567890,77.250515,OZONE,3,252,4
India,Delhi,Delhi,"North Campus, DU, Delhi - IMD",19-10-2025 07:00:00,28.6573814,77.1585447,CO,18,132,123
India,Delhi,Delhi,"Okhla Phase-2, Delhi - DPCC",19-10-2025 07:00:00,28.530785,77.271255,NH3,6,8,7
India,Delhi,Delhi,"Pusa, Delhi - IMD",19-10-2025 07:00:00,28.636110,77.173332,OZONE,NA,NA,NA
India,Delhi,Delhi,"R K Puram, Delhi - DPCC",19-10-2025 07:00:00,28.563262,77.186937,OZONE,5,198,6
India,Delhi,Delhi,"Rohini, Delhi - DPCC",19-10-2025 07:00:00,28.732528,77.119920,SO2,3,10,5
India,Delhi,Delhi,"Rohini, Delhi - DPCC",19-10-2025 07:00:00,28.732528,77.119920,OZONE,12,171,14
India,Delhi,Delhi,"Shadipur, Delhi - CPCB",19-10-2025 07:00:00,28.6514781,77.1473105,PM10,162,464,259
India,Delhi,Delhi,"Shadipur, Delhi - CPCB",19-10-2025 07:00:00,28.6514781,77.1473105,NO2,44,165,96
India,Delhi,Delhi,"Sirifort, Delhi - CPCB",19-10-2025 07:00:00,28.5504249,77.2159377,PM10,162,414,254
India,Delhi,Delhi,"Sirifort, Delhi - CPCB",19-10-2025 07:00:00,28.5504249,77.2159377,OZONE,12,48,13
India,Gujarat,Ahmedabad,"Rakhial, Ahmedabad - IITM",19-10-2025 07:00:00,23.016834,72.625775,OZONE,2,59,11
India,Gujarat,Ahmedabad,"SAC ISRO Bopal, Ahmedabad - IITM",19-10-2025 07:00:00,23.041137,72.456691,NO2,17,138,26
India,Gujarat,Ahmedabad,"SAC ISRO Satellite, Ahmedabad - IITM",19-10-2025 07:00:00,23.023389,72.515201,PM10,75,179,108
India,Gujarat,Ahmedabad,"SAC ISRO Satellite, Ahmedabad - IITM",19-10-2025 07:00:00,23.023389,72.515201,NO2,17,171,71
India,Gujarat,Ahmedabad,"SAC ISRO Satellite, Ahmedabad - IITM",19-10-2025 07:00:00,23.023389,72.515201,SO2,4,107,27
India,Gujarat,Ahmedabad,"SAC ISRO Satellite, Ahmedabad - IITM",19-10-2025 07:00:00,23.023389,72.515201,OZONE,2,60,7
India,Gujarat,Ahmedabad,"SVPI Airport Hansol, Ahmedabad - IITM",19-10-2025 07:00:00,23.076793,72.627874,NO2,39,91,61
India,Gujarat,Ahmedabad,"SVPI Airport Hansol, Ahmedabad - IITM",19-10-2025 07:00:00,23.076793,72.627874,NH3,2,3,3
India,Gujarat,Ahmedabad,"Chandkheda, Ahmedabad - IITM",19-10-2025 07:00:00,23.107969,72.574648,PM10,40,424,123
India,Gujarat,Ahmedabad,"Gyaspur, Ahmedabad - IITM",19-10-2025 07:00:00,22.977134,72.553024,PM2.5,55,196,111
India,Gujarat,Ahmedabad,"Gyaspur, Ahmedabad - IITM",19-10-2025 07:00:00,22.977134,72.553024,PM10,90,191,132
India,Gujarat,Ahmedabad,"Gyaspur, Ahmedabad - IITM",19-10-2025 07:00:00,22.977134,72.553024,NO2,13,70,42
India,Gujarat,Ahmedabad,"Gyaspur, Ahmedabad - IITM",19-10-2025 07:00:00,22.977134,72.553024,CO,44,80,55
India,Gujarat,Ahmedabad,"Maninagar, Ahmedabad - GPCB",19-10-2025 07:00:00,23.002657,72.591912,NO2,23,41,33
India,Gujarat,Ahmedabad,"Raikhad, Ahmedabad - IITM",19-10-2025 07:00:00,23.020509,72.579261,CO,4,135,61
India,Gujarat,Ahmedabad,"Raikhad, Ahmedabad - IITM",19-10-2025 07:00:00,23.020509,72.579261,OZONE,1,85,7
India,Delhi,Delhi,"Sonia Vihar, Delhi - DPCC",19-10-2025 07:00:00,28.710508,77.249485,SO2,36,45,39
India,Delhi,Delhi,"Sonia Vihar, Delhi - DPCC",19-10-2025 07:00:00,28.710508,77.249485,OZONE,4,154,5
India,Delhi,Delhi,"Sri Aurobindo Marg, Delhi - DPCC",19-10-2025 07:00:00,28.531346,77.190156,NO2,9,66,27
India,Delhi,Delhi,"Sri Aurobindo Marg, Delhi - DPCC",19-10-2025 07:00:00,28.531346,77.190156,OZONE,1,157,2
India,Delhi,Delhi,"Vivek Vihar, Delhi - DPCC",19-10-2025 07:00:00,28.672342,77.315260,CO,34,106,102
India,Delhi,Delhi,"Wazirpur, Delhi - DPCC",19-10-2025 07:00:00,28.699793,77.165453,NO2,56,162,110
India,Delhi,Delhi,"Wazirpur, Delhi - DPCC",19-10-2025 07:00:00,28.699793,77.165453,CO,12,112,65
India,Delhi,Delhi,"Wazirpur, Delhi - DPCC",19-10-2025 07:00:00,28.699793,77.165453,OZONE,2,197,3
India,Delhi,Delhi,"Lodhi Road, Delhi - IMD",19-10-2025 07:00:00,28.5918245,77.2273074,OZONE,22,301,28
India,Delhi,Delhi,"Major Dhyan Chand National Stadium, Delhi - DPCC",19-10-2025 07:00:00,28.611281,77.237738,NO2,27,182,89
India,Delhi,Delhi,"Mandir Marg, Delhi - DPCC",19-10-2025 07:00:00,28.636429,77.201067,PM10,94,275,164
India,Delhi,Delhi,"Mandir Marg, Delhi - DPCC",19-10-2025 07:00:00,28.636429,77.201067,SO2,1,28,14
India,Delhi,Delhi,"Mundka, Delhi - DPCC",19-10-2025 07:00:00,28.684678,77.076574,OZONE,2,119,3
India,Delhi,Delhi,"NSIT Dwarka, Delhi - CPCB",19-10-2025 07:00:00,28.60909,77.0325413,NH3,13,33,22
India,Delhi,Delhi,"Patparganj, Delhi - DPCC",19-10-2025 07:00:00,28.623763,77.287209,PM2.5,107,358,293
India,Delhi,Delhi,"Patparganj, Delhi - DPCC",19-10-2025 07:00:00,28.623763,77.287209,SO2,10,14,12
India,Delhi,Delhi,"Patparganj, Delhi - DPCC",19-10-2025 07:00:00,28.623763,77.287209,OZONE,4,212,5
India,Delhi,Delhi,"Pusa, Delhi - DPCC",19-10-2025 07:00:00,28.639652,77.146275,NO2,23,130,51
India,Delhi,Delhi,"Pusa, Delhi - IMD",19-10-2025 07:00:00,28.636110,77.173332,PM10,NA,NA,NA
India,Delhi,Delhi,"Pusa, Delhi - IMD",19-10-2025 07:00:00,28.636110,77.173332,CO,NA,NA,NA
India,Delhi,Delhi,"Jahangirpuri, Delhi - DPCC",19-10-2025 07:00:00,28.732820,77.170633,NO2,40,127,77
India,Delhi,Delhi,"Jahangirpuri, Delhi - DPCC",19-10-2025 07:00:00,28.732820,77.170633,OZONE,5,183,16
India,Delhi,Delhi,"Jawaharlal Nehru Stadium, Delhi - DPCC",19-10-2025 07:00:00,28.580280,77.233829,CO,40,126,121
India,Delhi,Delhi,"Lodhi Road, Delhi - IITM",19-10-2025 07:00:00,28.588333,77.221667,PM10,140,241,166
India,Delhi,Delhi,"IGI Airport (T3), Delhi - IMD",19-10-2025 07:00:00,28.5627763,77.1180053,OZONE,2,6,6
India,Haryana,Kaithal,"Rishi Nagar, Kaithal - HSPCB",19-10-2025 07:00:00,29.8006,76.4155,PM10,62,228,141
India,Haryana,Kaithal,"Rishi Nagar, Kaithal - HSPCB",19-10-2025 07:00:00,29.8006,76.4155,NO2,29,32,30
India,Haryana,Kaithal,"Rishi Nagar, Kaithal - HSPCB",19-10-2025 07:00:00,29.8006,76.4155,NH3,5,6,6
India,Haryana,Karnal,"Sector-12, Karnal - HSPCB",19-10-2025 07:00:00,29.695300,77.002700,NO2,5,5,5
India,Haryana,Karnal,"Sector-12, Karnal - HSPCB",19-10-2025 07:00:00,29.695300,77.002700,NH3,6,7,6
India,Haryana,Karnal,"Sector-12, Karnal - HSPCB",19-10-2025 07:00:00,29.695300,77.002700,SO2,8,10,9
India,Haryana,Kurukshetra,"Sector-7, Kurukshetra - HSPCB",19-10-2025 07:00:00,29.966942,76.875879,PM10,73,173,124
India,Haryana,Kurukshetra,"Sector-7, Kurukshetra - HSPCB",19-10-2025 07:00:00,29.966942,76.875879,NH3,5,5,5
India,Haryana,Manesar,"Sector-2 IMT, Manesar - HSPCB",19-10-2025 07:00:00,28.360699,76.936090,PM2.5,83,379,206
India,Jammu_and_Kashmir,Srinagar,"Rajbagh, Srinagar - JKSPCB",19-10-2025 07:00:00,34.066206,74.819820,PM2.5,49,92,71
India,Jammu_and_Kashmir,Srinagar,"Rajbagh, Srinagar - JKSPCB",19-10-2025 07:00:00,34.066206,74.819820,PM10,61,110,87
India,Jharkhand,Dhanbad,"Sardar Patel Nagar, Dhanbad - JSPCB",19-10-2025 07:00:00,23.80569,86.44268,SO2,1,30,26
India,Jharkhand,Dhanbad,"Sardar Patel Nagar, Dhanbad - JSPCB",19-10-2025 07:00:00,23.80569,86.44268,CO,26,111,49
India,Jharkhand,Jorapokhar,"Tata Stadium, Jorapokhar - JSPCB",19-10-2025 07:00:00,23.707909,86.414670,PM10,NA,NA,NA
India,Karnataka,Bagalkot,"Vidayagiri, Bagalkot - KSPCB",19-10-2025 07:00:00,16.172806,75.659694,NO2,9,11,9
India,Karnataka,Bagalkot,"Vidayagiri, Bagalkot - KSPCB",19-10-2025 07:00:00,16.172806,75.659694,SO2,7,7,7
India,Haryana,Panipat,"Sector-18, Panipat - HSPCB",19-10-2025 07:00:00,29.432304,76.972765,NO2,31,32,31
India,Haryana,Panipat,"Sector-18, Panipat - HSPCB",19-10-2025 07:00:00,29.432304,76.972765,NH3,2,3,2
India,Haryana,Rohtak,"MD University, Rohtak - HSPCB",19-10-2025 07:00:00,28.52123,76.37138,CO,27,31,30
India,Haryana,Sirsa,"F-Block, Sirsa - HSPCB",19-10-2025 07:00:00,29.536400,75.015800,NH3,1,7,4
India,Haryana,Sonipat,"Murthal, Sonipat - HSPCB",19-10-2025 07:00:00,29.027200,77.062100,PM2.5,73,185,177
India,Haryana,Sonipat,"Murthal, Sonipat - HSPCB",19-10-2025 07:00:00,29.027200,77.062100,PM10,133,138,136
India,Haryana,Sonipat,"Murthal, Sonipat - HSPCB",19-10-2025 07:00:00,29.027200,77.062100,NH3,14,36,20
India,Haryana,Sonipat,"Murthal, Sonipat - HSPCB",19-10-2025 07:00:00,29.027200,77.062100,OZONE,23,26,26
India,Gujarat,Surat,"Science Center, Surat - SMC",19-10-2025 07:00:00,21.170046,72.795405,PM2.5,39,217,82
India,Gujarat,Surat,"Science Center, Surat - SMC",19-10-2025 07:00:00,21.170046,72.795405,PM10,35,198,106
India,Gujarat,Surat,"Science Center, Surat - SMC",19-10-2025 07:00:00,21.170046,72.795405,SO2,24,30,26
India,Gujarat,Surat,"Science Center, Surat - SMC",19-10-2025 07:00:00,21.170046,72.795405,CO,35,40,40
India,Gujarat,Vapi,"Phase-1 GIDC, Vapi - GPCB",19-10-2025 07:00:00,20.362421,72.918013,PM2.5,62,314,230
India,Gujarat,Vatva,"Phase-4 GIDC, Vatva - GPCB",19-10-2025 07:00:00,22.969611,72.643500,NO2,27,44,36
India,Gujarat,Vatva,"Phase-4 GIDC, Vatva - GPCB",19-10-2025 07:00:00,22.969611,72.643500,CO,20,80,22
India,Haryana,Ambala,"Patti Mehar, Ambala - HSPCB",19-10-2025 07:00:00,30.379589,76.778328,PM10,42,310,116
India,Haryana,Charkhi Dadri,"Mini Secretariat, Charkhi Dadri - HSPCB",19-10-2025 07:00:00,28.593883,76.270653,OZONE,14,19,16
India,Haryana,Dharuhera,"Municipal Corporation Office, Dharuhera -  HSPCB",19-10-2025 07:00:00,28.206800,76.799700,PM2.5,64,270,168
India,Haryana,Faridabad,"New Industrial Town, Faridabad - HSPCB",19-10-2025 07:00:00,28.39072,77.30059,PM10,108,117,113
India,Haryana,Faridabad,"New Industrial Town, Faridabad - HSPCB",19-10-2025 07:00:00,28.39072,77.30059,OZONE,24,33,29
India,Haryana,Faridabad,"Sector 11, Faridabad - HSPCB",19-10-2025 07:00:00,28.376058,77.315741,SO2,NA,NA,NA
India,Haryana,Faridabad,"Sector 11, Faridabad - HSPCB",19-10-2025 07:00:00,28.376058,77.315741,CO,NA,NA,NA
India,Haryana,Bahadurgarh,"Arya Nagar, Bahadurgarh - HSPCB",19-10-2025 07:00:00,28.6701,76.9254,PM10,161,240,191
India,Haryana,Bahadurgarh,"Arya Nagar, Bahadurgarh - HSPCB",19-10-2025 07:00:00,28.6701,76.9254,NO2,11,16,14
India,Haryana,Ballabgarh,"Nathu Colony, Ballabgarh - HSPCB",19-10-2025 07:00:00,28.3419248,77.319699,NH3,3,4,3
India,Haryana,Ballabgarh,"Nathu Colony, Ballabgarh - HSPCB",19-10-2025 07:00:00,28.3419248,77.319699,CO,48,51,50
India,Haryana,Bhiwani,"H.B. Colony, Bhiwani - HSPCB",19-10-2025 07:00:00,28.806223,76.141105,NH3,7,8,8
India,Haryana,Bhiwani,"H.B. Colony, Bhiwani - HSPCB",19-10-2025 07:00:00,28.806223,76.141105,SO2,12,13,13
India,Haryana,Gurugram,"Sector-51, Gurugram - HSPCB",19-10-2025 07:00:00,28.4227,77.0667,CO,28,112,92
India,Haryana,Gurugram,"Vikas Sadan, Gurugram - HSPCB",19-10-2025 07:00:00,28.4501238,77.0263051,CO,102,142,119
India,Haryana,Jind,"Police Lines, Jind - HSPCB",19-10-2025 07:00:00,29.307814,76.337619,NO2,12,14,13
India,Haryana,Kaithal,"Rishi Nagar, Kaithal - HSPCB",19-10-2025 07:00:00,29.8006,76.4155,PM2.5,44,289,140
India,Gujarat,Gandhinagar,"GIFT City, Gandhinagar - IITM",19-10-2025 07:00:00,23.163798,72.677768,SO2,2,11,4
India,Gujarat,Gandhinagar,"GIFT City, Gandhinagar - IITM",19-10-2025 07:00:00,23.163798,72.677768,OZONE,8,72,23
India,Gujarat,Gandhinagar,"IIPHG Lekawada, Gandhinagar - IITM",19-10-2025 07:00:00,23.243639,72.68994,NO2,4,18,10
India,Gujarat,Gandhinagar,"Sector-10, Gandhinagar - GPCB",19-10-2025 07:00:00,23.221714,72.654328,PM10,30,122,94
India,Haryana,Palwal,"Shyam Nagar, Palwal - HSPCB",19-10-2025 07:00:00,28.1485564,77.3320667,SO2,12,13,13
India,Haryana,Palwal,"Shyam Nagar, Palwal - HSPCB",19-10-2025 07:00:00,28.1485564,77.3320667,OZONE,24,25,24
India,Haryana,Panchkula,"Sector-6, Panchkula - HSPCB ",19-10-2025 07:00:00,30.7057778,76.8531805555555,PM2.5,67,266,120
India,Karnataka,Yadgir,"Collector Office, Yadgir - KSPCB",19-10-2025 07:00:00,16.7602,77.1428,SO2,NA,NA,NA
India,Karnataka,Yadgir,"Collector Office, Yadgir - KSPCB",19-10-2025 07:00:00,16.7602,77.1428,OZONE,NA,NA,NA
India,Kerala,Eloor,"Udyogamandal, Eloor - Kerala PCB",19-10-2025 07:00:00,10.073232,76.302765,PM2.5,NA,NA,NA
India,Kerala,Eloor,"Udyogamandal, Eloor - Kerala PCB",19-10-2025 07:00:00,10.073232,76.302765,NO2,NA,NA,NA
India,Kerala,Kannur,"Thavakkara, Kannur - Kerala PCB",19-10-2025 07:00:00,11.875000,75.373200,NO2,15,17,16
India,Kerala,Kollam,"Polayathode, Kollam - Kerala PCB",19-10-2025 07:00:00,8.8787,76.6073,PM2.5,NA,NA,NA
India,Kerala,Kollam,"Polayathode, Kollam - Kerala PCB",19-10-2025 07:00:00,8.8787,76.6073,NH3,1,1,1
India,Kerala,Thiruvananthapuram,"Kariavattom, Thiruvananthapuram - Kerala PCB",19-10-2025 07:00:00,8.563700,76.886500,SO2,NA,NA,NA
India,Karnataka,Chamarajanagar,"Urban, Chamarajanagar - KSPCB",19-10-2025 07:00:00,11.55358,76.55521,PM2.5,20,46,32
India,Karnataka,Chikkamagaluru,"Kalyana Nagara, Chikkamagaluru - KSPCB",19-10-2025 07:00:00,13.328028,75.797056,PM10,21,78,43
India,Karnataka,Chikkamagaluru,"Kalyana Nagara, Chikkamagaluru - KSPCB",19-10-2025 07:00:00,13.328028,75.797056,NO2,16,29,21
India,Karnataka,Chikkamagaluru,"Kalyana Nagara, Chikkamagaluru - KSPCB",19-10-2025 07:00:00,13.328028,75.797056,CO,11,13,11
India,Karnataka,Davanagere,"Devaraj Urs Badavane, Davanagere - KSPCB",19-10-2025 07:00:00,14.475800,75.905200,NH3,1,29,5
India,Karnataka,Davanagere,"Devaraj Urs Badavane, Davanagere - KSPCB",19-10-2025 07:00:00,14.475800,75.905200,CO,21,30,28
India,Karnataka,Davanagere,"Devaraj Urs Badavane, Davanagere - KSPCB",19-10-2025 07:00:00,14.475800,75.905200,OZONE,22,27,24
India,Karnataka,Mysuru,"Hebbal 1st Stage, Mysuru - KSPCB",19-10-2025 07:00:00,12.21041,76.37376,OZONE,6,61,10
India,Karnataka,Shivamogga,"Vinoba Nagara, Shivamogga - KSPCB",19-10-2025 07:00:00,13.940000,75.555917,NH3,2,5,3
India,Karnataka,Shivamogga,"Vinoba Nagara, Shivamogga - KSPCB",19-10-2025 07:00:00,13.940000,75.555917,SO2,5,7,6
India,Karnataka,Vijayapura,"Ibrahimpur, Vijayapura - KSPCB",19-10-2025 07:00:00,16.802639,75.722694,PM10,43,44,44
India,Karnataka,Yadgir,"Collector Office, Yadgir - KSPCB",19-10-2025 07:00:00,16.7602,77.1428,PM10,NA,NA,NA
India,Karnataka,Yadgir,"Collector Office, Yadgir - KSPCB",19-10-2025 07:00:00,16.7602,77.1428,NH3,NA,NA,NA
India,Karnataka,Kalaburagi,"Mahatma Basaveswar Colony, Kalaburgi - KSPCB",19-10-2025 07:00:00,17.336318,76.847397,PM10,26,95,51
India,Karnataka,Kalaburagi,"Mahatma Basaveswar Colony, Kalaburgi - KSPCB",19-10-2025 07:00:00,17.336318,76.847397,NO2,11,22,15
India,Karnataka,Kalaburagi,"Mahatma Basaveswar Colony, Kalaburgi - KSPCB",19-10-2025 07:00:00,17.336318,76.847397,SO2,1,10,5
India,Karnataka,Kalaburagi,"Mahatma Basaveswar Colony, Kalaburgi - KSPCB",19-10-2025 07:00:00,17.336318,76.847397,CO,26,54,39
India,Karnataka,Madikeri,"Stuart Hill, Madikeri - KSPCB",19-10-2025 07:00:00,12.415911,75.735050,CO,6,10,8
India,Karnataka,Mysuru,"Hebbal 1st Stage, Mysuru - KSPCB",19-10-2025 07:00:00,12.21041,76.37376,NO2,11,36,20
India,Karnataka,Dharwad,"Kalabhavan, Dharwad - KSPCB",19-10-2025 07:00:00,15.459706,75.008381,OZONE,15,45,16
India,Karnataka,Hassan,"B.Katihalli, Hassan - KSPCB",19-10-2025 07:00:00,13.008556,76.125258,SO2,NA,NA,NA
India,Karnataka,Hubballi,"Lingaraj Nagar, Hubballi - KSPCB",19-10-2025 07:00:00,15.3714823,75.1160168,PM2.5,34,35,35
India,Karnataka,Kalaburagi,"Lal Bahadur Shastri Nagar, Kalaburagi - KSPCB",19-10-2025 07:00:00,17.321993,76.822628,CO,NA,NA,NA
India,Karnataka,Bagalkot,"Vidayagiri, Bagalkot - KSPCB",19-10-2025 07:00:00,16.172806,75.659694,OZONE,10,16,15
India,Karnataka,Bengaluru,"BTM Layout, Bengaluru - CPCB",19-10-2025 07:00:00,12.9135218,77.5950804,CO,17,32,21
India,Karnataka,Bengaluru,"Bapuji Nagar, Bengaluru - KSPCB",19-10-2025 07:00:00,12.951913,77.539784,PM2.5,10,103,46
India,Karnataka,Bengaluru,"Bapuji Nagar, Bengaluru - KSPCB",19-10-2025 07:00:00,12.951913,77.539784,NH3,1,2,2
India,Karnataka,Bengaluru,"Shivapura_Peenya, Bengaluru - KSPCB",19-10-2025 07:00:00,13.0246342,77.5080115,NO2,24,25,24
India,Karnataka,Bengaluru,"Shivapura_Peenya, Bengaluru - KSPCB",19-10-2025 07:00:00,13.0246342,77.5080115,CO,30,49,36
India,Karnataka,Bengaluru,"Silk Board, Bengaluru - KSPCB",19-10-2025 07:00:00,12.917348,77.622813,PM2.5,3,26,12
India,Karnataka,Bengaluru,"Silk Board, Bengaluru - KSPCB",19-10-2025 07:00:00,12.917348,77.622813,SO2,6,12,8
India,Karnataka,Bengaluru,"Jayanagar 5th Block, Bengaluru - KSPCB",19-10-2025 07:00:00,12.920984,77.584908,CO,NA,NA,NA
India,Karnataka,Bengaluru,"Jigani, Bengaluru - KSPCB",19-10-2025 07:00:00,12.7816279,77.6299145,PM2.5,NA,NA,NA
India,Karnataka,Bengaluru,"Kasturi Nagar, Bengaluru - KSPCB",19-10-2025 07:00:00,13.003872,77.664217,NO2,27,28,28
India,Karnataka,Bengaluru,"RVCE-Mailasandra, Bengaluru - KSPCB",19-10-2025 07:00:00,12.921418,77.502466,NO2,9,27,26
India,Maharashtra,Akola,"Ramdaspeth, Akola - MPCB",19-10-2025 07:00:00,20.719516,77.000253,CO,18,56,23
India,Maharashtra,Akola,"Ramdaspeth, Akola - MPCB",19-10-2025 07:00:00,20.719516,77.000253,OZONE,2,49,13
India,Maharashtra,Amravati,"Shivneri Colony, Amravati - MPCB",19-10-2025 07:00:00,20.9402359,77.7895248,PM10,95,149,122
India,Maharashtra,Amravati,"Shivneri Colony, Amravati - MPCB",19-10-2025 07:00:00,20.9402359,77.7895248,NO2,9,20,12
India,Maharashtra,Amravati,"Shivneri Colony, Amravati - MPCB",19-10-2025 07:00:00,20.9402359,77.7895248,NH3,2,3,3
India,Maharashtra,Amravati,"Shivneri Colony, Amravati - MPCB",19-10-2025 07:00:00,20.9402359,77.7895248,CO,17,30,21
India,Maharashtra,Amravati,"Shri Shivaji Science College, Amravati - MPCB",19-10-2025 07:00:00,20.939198,77.765701,NO2,7,51,16
India,Maharashtra,Amravati,"Shri Shivaji Science College, Amravati - MPCB",19-10-2025 07:00:00,20.939198,77.765701,NH3,2,5,2
India,Maharashtra,Amravati,"Shri Shivaji Science College, Amravati - MPCB",19-10-2025 07:00:00,20.939198,77.765701,SO2,2,19,6
India,Maharashtra,Aurangabad,"MIDC Chilkalthana, Aurangabad - MPCB",19-10-2025 07:00:00,19.875620,75.387310,PM2.5,NA,NA,NA
India,Madhya Pradesh,Indore,"Residency Area, Indore - IMC",19-10-2025 07:00:00,22.7084,75.8815,SO2,22,27,24
India,Madhya Pradesh,Indore,"Residency Area, Indore - IMC",19-10-2025 07:00:00,22.7084,75.8815,CO,14,16,16
India,Madhya Pradesh,Jabalpur,"Govindh Bhavan Colony, Jabalpur - JMC",19-10-2025 07:00:00,23.163174,79.973061,PM2.5,47,88,68
India,Madhya Pradesh,Jabalpur,"Gupteshwar, Jabalpur - JMC",19-10-2025 07:00:00,23.142888,79.916147,NO2,7,146,43
India,Madhya Pradesh,Jabalpur,"Gupteshwar, Jabalpur - JMC",19-10-2025 07:00:00,23.142888,79.916147,OZONE,16,113,24
India,Madhya Pradesh,Jabalpur,"Marhatal, Jabalpur - MPPCB",19-10-2025 07:00:00,23.168606,79.932247,PM10,64,167,100
India,Madhya Pradesh,Jabalpur,"Marhatal, Jabalpur - MPPCB",19-10-2025 07:00:00,23.168606,79.932247,CO,34,131,69
India,Madhya Pradesh,Jabalpur,"Suhagi, Jabalpur - JMC",19-10-2025 07:00:00,23.218135,79.957770,PM2.5,NA,NA,NA
India,Madhya Pradesh,Jabalpur,"Suhagi, Jabalpur - JMC",19-10-2025 07:00:00,23.218135,79.957770,PM10,NA,NA,NA
India,Maharashtra,Boisar,"Khaira, Boisar - MPCB",19-10-2025 07:00:00,19.786089,72.757971,NH3,NA,NA,NA
India,Maharashtra,Chandrapur,"Chauhan Colony, Chandrapur - MPCB",19-10-2025 07:00:00,19.962900,79.298714,NO2,31,38,33
India,Maharashtra,Chandrapur,"Chauhan Colony, Chandrapur - MPCB",19-10-2025 07:00:00,19.962900,79.298714,SO2,30,31,30
India,Maharashtra,Chandrapur,"MIDC Khutala, Chandrapur - MPCB",19-10-2025 07:00:00,19.9775302,79.2337086,NO2,8,32,20
India,Maharashtra,Chandrapur,"MIDC Khutala, Chandrapur - MPCB",19-10-2025 07:00:00,19.9775302,79.2337086,SO2,8,9,9
India,Maharashtra,Chandrapur,"MIDC Khutala, Chandrapur - MPCB",19-10-2025 07:00:00,19.9775302,79.2337086,CO,35,42,39
India,Maharashtra,Dhule,"Deopur, Dhule - MPCB",19-10-2025 07:00:00,20.918946,74.776388,NO2,4,62,19
India,Maharashtra,Dhule,"Deopur, Dhule - MPCB",19-10-2025 07:00:00,20.918946,74.776388,NH3,2,4,2
India,Maharashtra,Dhule,"Deopur, Dhule - MPCB",19-10-2025 07:00:00,20.918946,74.776388,SO2,7,15,11
India,Maharashtra,Dhule,"Deopur, Dhule - MPCB",19-10-2025 07:00:00,20.918946,74.776388,OZONE,15,54,23
India,Kerala,Thiruvananthapuram,"Plammoodu, Thiruvananthapuram - Kerala PCB",19-10-2025 07:00:00,8.5149093,76.9435879,NO2,48,86,66
India,Kerala,Thrissur,"Corporation Ground, Thrissur - Kerala PCB",19-10-2025 07:00:00,10.532400,76.215900,NO2,10,12,11
India,Madhya Pradesh,Bhopal,"Idgah Hills, Bhopal - MPPCB",19-10-2025 07:00:00,23.264759,77.381568,PM2.5,110,310,190
India,Madhya Pradesh,Bhopal,"Idgah Hills, Bhopal - MPPCB",19-10-2025 07:00:00,23.264759,77.381568,PM10,112,233,151
India,Madhya Pradesh,Bhopal,"Paryavaran Parisar, Bhopal - MPPCB",19-10-2025 07:00:00,23.210494,77.425409,PM2.5,100,324,195
India,Madhya Pradesh,Bhopal,"Paryavaran Parisar, Bhopal - MPPCB",19-10-2025 07:00:00,23.210494,77.425409,PM10,103,214,137
India,Madhya Pradesh,Bhopal,"Paryavaran Parisar, Bhopal - MPPCB",19-10-2025 07:00:00,23.210494,77.425409,SO2,10,19,14
India,Madhya Pradesh,Bhopal,"Paryavaran Parisar, Bhopal - MPPCB",19-10-2025 07:00:00,23.210494,77.425409,CO,7,62,29
India,Maharashtra,Aurangabad,"Rachnakar Colony, Aurangabad - MPCB",19-10-2025 07:00:00,19.863756,75.321188,NH3,2,7,4
India,Maharashtra,Aurangabad,"Rachnakar Colony, Aurangabad - MPCB",19-10-2025 07:00:00,19.863756,75.321188,SO2,14,58,27
India,Maharashtra,Aurangabad,"Rachnakar Colony, Aurangabad - MPCB",19-10-2025 07:00:00,19.863756,75.321188,CO,10,42,20
India,Maharashtra,Badlapur,"Katrap, Badlapur - MPCB",19-10-2025 07:00:00,19.16485,73.23409,PM2.5,16,198,82
India,Maharashtra,Badlapur,"Katrap, Badlapur - MPCB",19-10-2025 07:00:00,19.16485,73.23409,OZONE,12,80,13
India,Maharashtra,Belapur,"CBD Belapur, Belapur - MPCB",19-10-2025 07:00:00,19.0243902,73.0406721,CO,12,37,27
India,Maharashtra,Bhiwandi,"Gokul Nagar, Bhiwandi - MPCB",19-10-2025 07:00:00,19.309073,73.057223,NO2,13,31,23
India,Maharashtra,Bhiwandi,"Gokul Nagar, Bhiwandi - MPCB",19-10-2025 07:00:00,19.309073,73.057223,NH3,3,7,4
India,Madhya Pradesh,Damoh,"Shrivastav Colony, Damoh - MPPCB",19-10-2025 07:00:00,23.81748678,79.446246,CO,16,27,26
India,Madhya Pradesh,Dewas,"Bhopal Chauraha, Dewas - MPPCB",19-10-2025 07:00:00,22.9682591,76.064118,NH3,4,6,5
India,Madhya Pradesh,Dewas,"Bhopal Chauraha, Dewas - MPPCB",19-10-2025 07:00:00,22.9682591,76.064118,CO,17,28,22
India,Madhya Pradesh,Gwalior,"City Center, Gwalior - MPPCB",19-10-2025 07:00:00,26.203442,78.193251,PM2.5,53,250,120
India,Madhya Pradesh,Gwalior,"City Center, Gwalior - MPPCB",19-10-2025 07:00:00,26.203442,78.193251,NO2,16,87,47
India,Madhya Pradesh,Gwalior,"Deen Dayal Nagar, Gwalior - MPPCB",19-10-2025 07:00:00,26.259242,78.216432,PM2.5,42,372,183
India,Madhya Pradesh,Gwalior,"Deen Dayal Nagar, Gwalior - MPPCB",19-10-2025 07:00:00,26.259242,78.216432,NH3,7,10,9
India,Madhya Pradesh,Indore,"Airport Area, Indore - IMC",19-10-2025 07:00:00,22.7289,75.8076,PM2.5,44,94,61
India,Madhya Pradesh,Indore,"Airport Area, Indore - IMC",19-10-2025 07:00:00,22.7289,75.8076,PM10,52,115,79
India,Madhya Pradesh,Indore,"Airport Area, Indore - IMC",19-10-2025 07:00:00,22.7289,75.8076,OZONE,1,4,2
India,Madhya Pradesh,Indore,"Chhoti Gwaltoli, Indore - MPPCB",19-10-2025 07:00:00,22.4310,75.5213,PM2.5,82,286,171
India,Madhya Pradesh,Indore,"Chhoti Gwaltoli, Indore - MPPCB",19-10-2025 07:00:00,22.4310,75.5213,CO,32,68,43
India,Madhya Pradesh,Indore,"Chhoti Gwaltoli, Indore - MPPCB",19-10-2025 07:00:00,22.4310,75.5213,OZONE,22,84,30
India,Madhya Pradesh,Indore,"Regional Park, Indore - IMC",19-10-2025 07:00:00,22.6780,75.8559,NH3,NA,NA,NA
India,Madhya Pradesh,Jabalpur,"Suhagi, Jabalpur - JMC",19-10-2025 07:00:00,23.218135,79.957770,OZONE,NA,NA,NA
India,Madhya Pradesh,Katni,"Gole Bazar, Katni - MPPCB",19-10-2025 07:00:00,23.50016,80.23284,SO2,17,48,31
India,Madhya Pradesh,Mandideep,"Sector-D Industrial Area, Mandideep - MPPCB",19-10-2025 07:00:00,23.108440,77.511428,NO2,32,94,54
India,Madhya Pradesh,Mandideep,"Sector-D Industrial Area, Mandideep - MPPCB",19-10-2025 07:00:00,23.108440,77.511428,SO2,18,102,33
India,Madhya Pradesh,Pithampur,"Sector-2 Industrial Area, Pithampur - MPPCB",19-10-2025 07:00:00,22.624758,75.675238,SO2,17,21,19
India,Madhya Pradesh,Satna,"Bandhavgar Colony, Satna - Birla Cement",19-10-2025 07:00:00,24.58434363,80.8549414,PM10,53,57,56
India,Madhya Pradesh,Singrauli,"Suryakiran Bhawan NCL, Singrauli - MPPCB",19-10-2025 07:00:00,24.108970,82.645580,SO2,16,27,22
India,Madhya Pradesh,Singrauli,"Suryakiran Bhawan NCL, Singrauli - MPPCB",19-10-2025 07:00:00,24.108970,82.645580,OZONE,13,92,14
India,Maharashtra,Ahmednagar,"Tarakpur, Ahmednagar - MPCB",19-10-2025 07:00:00,19.10122,74.73339,PM10,41,121,83
India,Maharashtra,Mumbai,"Mazgaon, Mumbai - IITM",19-10-2025 07:00:00,18.96702,72.84214,CO,30,90,56
India,Maharashtra,Mumbai,"Mindspace-Malad West, Mumbai - MPCB",19-10-2025 07:00:00,19.1878657,72.8304069,NH3,6,27,13
India,Maharashtra,Mumbai,"Mindspace-Malad West, Mumbai - MPCB",19-10-2025 07:00:00,19.1878657,72.8304069,CO,36,55,47
India,Maharashtra,Mumbai,"Mindspace-Malad West, Mumbai - MPCB",19-10-2025 07:00:00,19.1878657,72.8304069,OZONE,8,62,19
India,Maharashtra,Mumbai,"Mulund West, Mumbai - MPCB",19-10-2025 07:00:00,19.1750,72.9419,NO2,12,15,14
India,Maharashtra,Mumbai,"Mulund West, Mumbai - MPCB",19-10-2025 07:00:00,19.1750,72.9419,NH3,4,4,4
India,Maharashtra,Mumbai,"Navy Nagar-Colaba, Mumbai - IITM",19-10-2025 07:00:00,18.897756,72.813320,PM2.5,151,306,221
India,Maharashtra,Mumbai,"Navy Nagar-Colaba, Mumbai - IITM",19-10-2025 07:00:00,18.897756,72.813320,PM10,117,160,137
India,Maharashtra,Mumbai,"Navy Nagar-Colaba, Mumbai - IITM",19-10-2025 07:00:00,18.897756,72.813320,OZONE,9,148,18
India,Maharashtra,Mumbai,"Powai, Mumbai - MPCB",19-10-2025 07:00:00,19.137500,72.915056,PM2.5,NA,NA,NA
India,Maharashtra,Mumbai,"Deonar, Mumbai - IITM",19-10-2025 07:00:00,19.04946,72.9230,PM10,161,308,211
India,Maharashtra,Mumbai,"Deonar, Mumbai - IITM",19-10-2025 07:00:00,19.04946,72.9230,CO,36,78,52
India,Maharashtra,Mumbai,"Deonar, Mumbai - IITM",19-10-2025 07:00:00,19.04946,72.9230,OZONE,1,61,2
India,Maharashtra,Mumbai,"Ghatkopar, Mumbai - BMC",19-10-2025 07:00:00,19.083694,72.920967,NO2,30,57,46
India,Maharashtra,Mumbai,"Kandivali East, Mumbai - MPCB",19-10-2025 07:00:00,19.205800,72.868200,NH3,1,1,1
India,Maharashtra,Mumbai,"Kandivali West, Mumbai - BMC",19-10-2025 07:00:00,19.215859,72.831718,NO2,9,45,20
India,Maharashtra,Mumbai,"Kandivali West, Mumbai - BMC",19-10-2025 07:00:00,19.215859,72.831718,NH3,1,3,2
India,Maharashtra,Mumbai,"Kandivali West, Mumbai - BMC",19-10-2025 07:00:00,19.215859,72.831718,CO,11,46,23
India,Maharashtra,Mumbai,"Kandivali West, Mumbai - BMC",19-10-2025 07:00:00,19.215859,72.831718,OZONE,1,76,10
India,Maharashtra,Mumbai,"Borivali East, Mumbai - MPCB",19-10-2025 07:00:00,19.2243333,72.8658113,CO,2,8,6
India,Maharashtra,Mumbai,"Byculla, Mumbai - BMC",19-10-2025 07:00:00,18.9767,72.8380,PM2.5,94,222,135
India,Maharashtra,Mumbai,"Byculla, Mumbai - BMC",19-10-2025 07:00:00,18.9767,72.8380,CO,4,28,18
India,Maharashtra,Mumbai,"Byculla, Mumbai - BMC",19-10-2025 07:00:00,18.9767,72.8380,OZONE,8,124,14
India,Maharashtra,Mumbai,"Chakala-Andheri East, Mumbai - IITM",19-10-2025 07:00:00,19.11074,72.86084,NO2,36,111,63
India,Maharashtra,Mumbai,"Chembur, Mumbai - MPCB",19-10-2025 07:00:00,19.0364585,72.8954371,CO,32,68,52
India,Maharashtra,Mumbai,"Colaba, Mumbai - MPCB",19-10-2025 07:00:00,18.910000,72.820000,PM2.5,135,283,192
India,Maharashtra,Mumbai,"Vasai West, Mumbai - MPCB",19-10-2025 07:00:00,19.383200,72.820400,NO2,16,20,17
India,Maharashtra,Mumbai,"Vile Parle West, Mumbai - MPCB",19-10-2025 07:00:00,19.10861,72.83622,PM10,82,148,108
India,Maharashtra,Mumbai,"Vile Parle West, Mumbai - MPCB",19-10-2025 07:00:00,19.10861,72.83622,OZONE,3,27,27
India,Maharashtra,Mumbai,"Worli, Mumbai - MPCB",19-10-2025 07:00:00,18.9936162,72.8128113,NH3,1,2,1
India,Maharashtra,Mumbai,"Worli, Mumbai - MPCB",19-10-2025 07:00:00,18.9936162,72.8128113,SO2,18,24,20
India,Maharashtra,Nagpur,"Mahal, Nagpur - MPCB",19-10-2025 07:00:00,21.14472,79.107595,PM10,115,162,133
India,Maharashtra,Mumbai,"Shivaji Nagar, Mumbai - BMC",19-10-2025 07:00:00,19.060498,72.923356,SO2,10,16,13
India,Maharashtra,Mumbai,"Siddharth Nagar-Worli, Mumbai - IITM",19-10-2025 07:00:00,19.000083,72.813993,NH3,3,6,5
India,Maharashtra,Mumbai,"Sion, Mumbai - MPCB",19-10-2025 07:00:00,19.047000,72.874600,CO,12,17,16
India,Maharashtra,Mumbai,"Sion, Mumbai - MPCB",19-10-2025 07:00:00,19.047000,72.874600,OZONE,9,13,13
India,Maharashtra,Mumbai,"Vasai West, Mumbai - MPCB",19-10-2025 07:00:00,19.383200,72.820400,PM10,45,127,84
India,Maharashtra,Kolhapur,"Shivaji University, Kolhapur - MPCB",19-10-2025 07:00:00,16.6870449,74.2505872,CO,8,46,21
India,Maharashtra,Kolhapur,"Sinchan Bhavan, Kolhapur - MPCB",19-10-2025 07:00:00,16.7143745,74.2426398,CO,20,78,35
India,Maharashtra,Mahad,"Kamble Tarf Birwadi, Mahad - MPCB",19-10-2025 07:00:00,18.1023399,73.4783687,SO2,23,30,26
India,Maharashtra,Malegaon,"Mahesh Nagar, Malegaon - MPCB",19-10-2025 07:00:00,20.555712,74.529236,PM10,NA,NA,NA
India,Maharashtra,Mumbai,"Khindipada-Bhandup West, Mumbai - IITM",19-10-2025 07:00:00,19.1653323,72.922099,NH3,11,15,12
India,Maharashtra,Mumbai,"Kurla, Mumbai - MPCB",19-10-2025 07:00:00,19.0863,72.8888,PM2.5,70,129,89
India,Maharashtra,Mumbai,"Kurla, Mumbai - MPCB",19-10-2025 07:00:00,19.0863,72.8888,NH3,1,2,2
India,Maharashtra,Mumbai,"Kurla, Mumbai - MPCB",19-10-2025 07:00:00,19.0863,72.8888,CO,8,17,12
India,Maharashtra,Mumbai,"Bandra Kurla Complex, Mumbai - IITM",19-10-2025 07:00:00,19.053536,72.84643,PM10,155,304,211
India,Maharashtra,Mumbai,"Bandra Kurla Complex, Mumbai - IITM",19-10-2025 07:00:00,19.053536,72.84643,NO2,39,87,61
India,Maharashtra,Mumbai,"Borivali East, Mumbai - MPCB",19-10-2025 07:00:00,19.2243333,72.8658113,PM2.5,NA,NA,NA
India,Maharashtra,Jalna,"Old MIDC, Jalna - MPCB",19-10-2025 07:00:00,19.854616,75.905894,NH3,3,5,4
India,Maharashtra,Kalyan,"Pimpleshwar Mandir, Kalyan - MPCB",19-10-2025 07:00:00,19.192056,72.9585188,NH3,5,5,5
India,Maharashtra,Kalyan,"Pimpleshwar Mandir, Kalyan - MPCB",19-10-2025 07:00:00,19.192056,72.9585188,SO2,8,9,9
India,Maharashtra,Nagpur,"Mahal, Nagpur - MPCB",19-10-2025 07:00:00,21.14472,79.107595,NH3,2,3,2
India,Maharashtra,Nagpur,"Mahal, Nagpur - MPCB",19-10-2025 07:00:00,21.14472,79.107595,SO2,7,51,29
India,Maharashtra,Nagpur,"Mahal, Nagpur - MPCB",19-10-2025 07:00:00,21.14472,79.107595,OZONE,32,33,32
India,Maharashtra,Nagpur,"Opp GPO Civil Lines, Nagpur - MPCB",19-10-2025 07:00:00,21.152875,79.0517531,PM2.5,97,227,150
India,Maharashtra,Nagpur,"Ram Nagar, Nagpur - MPCB",19-10-2025 07:00:00,21.143383,79.048912,NO2,9,39,18
India,Maharashtra,Nagpur,"Ram Nagar, Nagpur - MPCB",19-10-2025 07:00:00,21.143383,79.048912,OZONE,4,71,9
India,Maharashtra,Nanded,"Sneh Nagar, Nanded - MPCB",19-10-2025 07:00:00,19.173852,77.296291,PM2.5,125,232,195
India,Maharashtra,Nanded,"Sneh Nagar, Nanded - MPCB",19-10-2025 07:00:00,19.173852,77.296291,NO2,14,19,16
India,Maharashtra,Nashik,"Gangapur Road, Nashik - MPCB",19-10-2025 07:00:00,20.0073285,73.7762427,NH3,4,4,4
India,Meghalaya,Shillong,"JN Stadium, Shillong - Meghalaya PCB",19-10-2025 07:00:00,25.5803419,91.8942571,PM2.5,NA,NA,NA
India,Meghalaya,Shillong,"JN Stadium, Shillong - Meghalaya PCB",19-10-2025 07:00:00,25.5803419,91.8942571,NO2,3,10,7
India,Meghalaya,Shillong,"JN Stadium, Shillong - Meghalaya PCB",19-10-2025 07:00:00,25.5803419,91.8942571,NH3,8,14,11
India,Meghalaya,Shillong,"JN Stadium, Shillong - Meghalaya PCB",19-10-2025 07:00:00,25.5803419,91.8942571,CO,12,57,27
India,Meghalaya,Shillong,"Lumpyngngad, Shillong - Meghalaya PCB",19-10-2025 07:00:00,25.5586,91.8985,SO2,5,7,5
India,Meghalaya,Shillong,"Lumpyngngad, Shillong - Meghalaya PCB",19-10-2025 07:00:00,25.5586,91.8985,CO,1,6,2
India,Meghalaya,Shillong,"Lumpyngngad, Shillong - Meghalaya PCB",19-10-2025 07:00:00,25.5586,91.8985,OZONE,1,12,10
India,Odisha,Angul,"Hakimapada, Angul - OSPCB",19-10-2025 07:00:00,20.832874,85.104082,NO2,9,60,23
India,Odisha,Angul,"Hakimapada, Angul - OSPCB",19-10-2025 07:00:00,20.832874,85.104082,CO,14,102,55
India,Maharashtra,Parbhani,"Masoom Colony, Parbhani - MPCB",19-10-2025 07:00:00,19.265594,76.761463,CO,10,16,12
India,Maharashtra,Pimpri-Chinchwad,"Gavalinagar, Pimpri Chinchwad - MPCB",19-10-2025 07:00:00,18.63673,73.82487,PM2.5,79,196,117
India,Maharashtra,Pimpri-Chinchwad,"Gavalinagar, Pimpri Chinchwad - MPCB",19-10-2025 07:00:00,18.63673,73.82487,NO2,40,90,56
India,Maharashtra,Pimpri-Chinchwad,"Gavalinagar, Pimpri Chinchwad - MPCB",19-10-2025 07:00:00,18.63673,73.82487,NH3,5,7,5
India,Maharashtra,Pimpri-Chinchwad,"Park Street Wakad, Pimpri Chinchwad - MPCB",19-10-2025 07:00:00,18.59051,73.77946,SO2,1,6,5
India,Maharashtra,Pimpri-Chinchwad,"Park Street Wakad, Pimpri Chinchwad - MPCB",19-10-2025 07:00:00,18.59051,73.77946,OZONE,1,71,11
India,Maharashtra,Pimpri-Chinchwad,"Savta Mali Nagar, Pimpri-Chinchwad - IITM",19-10-2025 07:00:00,18.614767,73.799516,PM10,64,165,108
India,Maharashtra,Pune,"Revenue Colony-Shivajinagar, Pune - IITM",19-10-2025 07:00:00,18.530085,73.849598,PM10,NA,NA,NA
India,Maharashtra,Pune,"Savitribai Phule Pune University, Pune - MPCB",19-10-2025 07:00:00,18.547056,73.826908,NO2,11,24,23
India,Maharashtra,Pune,"Savitribai Phule Pune University, Pune - MPCB",19-10-2025 07:00:00,18.547056,73.826908,OZONE,4,27,1
India,Maharashtra,Pune,"Transport Nagar-Nigdi, Pune - IITM",19-10-2025 07:00:00,18.664282,73.763966,PM10,76,126,101
India,Maharashtra,Sangli,"Vijay Nagar, Sangli - MPCB",19-10-2025 07:00:00, 16.5038,74.3623,PM2.5,79,242,137
India,Maharashtra,Solapur,"Dnyaneshwar Nagar, Solapur - MPCB",19-10-2025 07:00:00,17.6336264,75.9132495,PM10,4,135,90
India,Maharashtra,Solapur,"Dnyaneshwar Nagar, Solapur - MPCB",19-10-2025 07:00:00,17.6336264,75.9132495,OZONE,26,50,39
India,Maharashtra,Solapur,"Ratandeep Housing Society, Solapur - MPCB",19-10-2025 07:00:00,17.65439,75.90649,SO2,1,3,2
India,Maharashtra,Solapur,"Ratandeep Housing Society, Solapur - MPCB",19-10-2025 07:00:00,17.65439,75.90649,CO,16,42,18
India,Maharashtra,Solapur,"Ratandeep Housing Society, Solapur - MPCB",19-10-2025 07:00:00,17.65439,75.90649,OZONE,53,104,81
India,Maharashtra,Thane,"Kasarvadavali, Thane - MPCB",19-10-2025 07:00:00,19.26777,72.97182,OZONE,4,16,8
India,Maharashtra,Ulhasnagar,"Sidhi Vinayak Nagar, Ulhasnagar - MPCB",19-10-2025 07:00:00,19.235581,73.159121,PM2.5,58,256,116
India,Maharashtra,Ulhasnagar,"Sidhi Vinayak Nagar, Ulhasnagar - MPCB",19-10-2025 07:00:00,19.235581,73.159121,CO,32,42,36
India,Odisha,Balasore,"Kalidaspur, Balasore - OSPCB",19-10-2025 07:00:00,21.51161,86.89088,NO2,4,53,14
India,Odisha,Balasore,"Kalidaspur, Balasore - OSPCB",19-10-2025 07:00:00,21.51161,86.89088,SO2,4,13,7
India,Odisha,Balasore,"Kalidaspur, Balasore - OSPCB",19-10-2025 07:00:00,21.51161,86.89088,OZONE,47,172,73
India,Odisha,Baripada,"Meher Colony, Baripada - OSPCB",19-10-2025 07:00:00,21.941841,86.728318,PM2.5,93,221,158
India,Odisha,Baripada,"Meher Colony, Baripada - OSPCB",19-10-2025 07:00:00,21.941841,86.728318,NO2,15,113,42
India,Odisha,Bhubaneswar,"Lingraj Mandir, Bhubaneswar - OSPCB",19-10-2025 07:00:00,20.240790,85.836784,PM10,60,140,91
India,Odisha,Bhubaneswar,"Lingraj Mandir, Bhubaneswar - OSPCB",19-10-2025 07:00:00,20.240790,85.836784,NO2,9,33,18
India,Odisha,Bhubaneswar,"Lingraj Mandir, Bhubaneswar - OSPCB",19-10-2025 07:00:00,20.240790,85.836784,SO2,5,22,10
India,Maharashtra,Pimpri-Chinchwad,"Thergaon, Pimpri Chinchwad - MPCB",19-10-2025 07:00:00,18.616318,73.765797,NO2,26,82,46
India,Maharashtra,Pimpri-Chinchwad,"Thergaon, Pimpri Chinchwad - MPCB",19-10-2025 07:00:00,18.616318,73.765797,CO,4,102,36
India,Maharashtra,Pimpri-Chinchwad,"Thergaon, Pimpri Chinchwad - MPCB",19-10-2025 07:00:00,18.616318,73.765797,OZONE,2,44,8
India,Maharashtra,Pune,"Bhumkar Nagar, Pune - IITM",19-10-2025 07:00:00,18.605770,73.749976,PM2.5,157,364,278
India,Maharashtra,Pune,"Bhumkar Nagar, Pune - IITM",19-10-2025 07:00:00,18.605770,73.749976,NO2,14,40,23
India,Maharashtra,Pune,"Mhada Colony, Pune - IITM",19-10-2025 07:00:00,18.573040,73.927715,PM2.5,71,342,203
India,Maharashtra,Pune,"Mhada Colony, Pune - IITM",19-10-2025 07:00:00,18.573040,73.927715,NO2,26,69,47
India,Maharashtra,Pune,"Mhada Colony, Pune - IITM",19-10-2025 07:00:00,18.573040,73.927715,CO,3,133,91
India,Maharashtra,Nashik,"Hirawadi, Nashik - MPCB",19-10-2025 07:00:00,20.021503,73.813844,NH3,1,2,1
India,Maharashtra,Nashik,"Hirawadi, Nashik - MPCB",19-10-2025 07:00:00,20.021503,73.813844,CO,47,61,54
India,Maharashtra,Nashik,"MIDC Ambad, Nashik - MPCB",19-10-2025 07:00:00,19.950220,73.731480,PM10,80,106,92
India,Maharashtra,Nashik,"Pandav Nagari, Nashik - MPCB",19-10-2025 07:00:00,19.9591346,73.7788008,PM2.5,81,306,138
India,Maharashtra,Navi Mumbai,"Sanpada, Navi Mumbai - MPCB",19-10-2025 07:00:00,19.0575752,73.0151367,CO,26,78,39
India,Maharashtra,Navi Mumbai,"Sanpada, Navi Mumbai - MPCB",19-10-2025 07:00:00,19.0575752,73.0151367,OZONE,15,15,15
India,Maharashtra,Navi Mumbai,"Sector-2E Kalamboli, Navi Mumbai - MPCB",19-10-2025 07:00:00,19.02579,73.10297,PM10,79,318,158
India,Maharashtra,Navi Mumbai,"Sector-2E Kalamboli, Navi Mumbai - MPCB",19-10-2025 07:00:00,19.02579,73.10297,NH3,2,10,6
India,Punjab,Amritsar,"Golden Temple, Amritsar - PPCB",19-10-2025 07:00:00,31.620000,74.876512,PM2.5,1,74,35
India,Punjab,Amritsar,"Golden Temple, Amritsar - PPCB",19-10-2025 07:00:00,31.620000,74.876512,PM10,8,92,46
India,Punjab,Amritsar,"Golden Temple, Amritsar - PPCB",19-10-2025 07:00:00,31.620000,74.876512,SO2,9,29,18
India,Punjab,Bathinda,"Hardev Nagar, Bathinda - PPCB",19-10-2025 07:00:00,30.233011,74.907758,PM2.5,37,325,213
India,Punjab,Bathinda,"Hardev Nagar, Bathinda - PPCB",19-10-2025 07:00:00,30.233011,74.907758,SO2,2,16,8
India,Punjab,Jalandhar,"Civil Line, Jalandhar - PPCB",19-10-2025 07:00:00,31.321907,75.578914,CO,50,62,58
India,Punjab,Jalandhar,"Civil Line, Jalandhar - PPCB",19-10-2025 07:00:00,31.321907,75.578914,OZONE,39,49,46
India,Punjab,Khanna,"Kalal Majra, Khanna - PPCB",19-10-2025 07:00:00,30.736056 ,76.209694,PM2.5,52,120,84
India,Punjab,Khanna,"Kalal Majra, Khanna - PPCB",19-10-2025 07:00:00,30.736056 ,76.209694,PM10,58,114,91
India,Punjab,Ludhiana,"Punjab Agricultural University, Ludhiana - PPCB",19-10-2025 07:00:00,30.9028,75.8086,PM2.5,88,135,103
India,Punjab,Ludhiana,"Punjab Agricultural University, Ludhiana - PPCB",19-10-2025 07:00:00,30.9028,75.8086,PM10,111,137,122
India,Punjab,Ludhiana,"Punjab Agricultural University, Ludhiana - PPCB",19-10-2025 07:00:00,30.9028,75.8086,SO2,7,21,15
India,Odisha,Rourkela,"Raghunathpali, Rourkela - OSPCB",19-10-2025 07:00:00,22.220833,84.809444,SO2,5,9,6
India,Odisha,Rourkela,"Raghunathpali, Rourkela - OSPCB",19-10-2025 07:00:00,22.220833,84.809444,CO,2,103,14
India,Odisha,Talcher,"Talcher Coalfields,Talcher - OSPCB",19-10-2025 07:00:00,20.9360711,85.1707021,PM10,57,166,113
India,Odisha,Talcher,"Talcher Coalfields,Talcher - OSPCB",19-10-2025 07:00:00,20.9360711,85.1707021,SO2,4,46,20
India,Odisha,Tensa,"Barsua Iron Ore Mines, Tensa - OSPCB",19-10-2025 07:00:00,21.869985,85.167016,NO2,NA,NA,NA
India,Odisha,Tensa,"Barsua Iron Ore Mines, Tensa - OSPCB",19-10-2025 07:00:00,21.869985,85.167016,NH3,NA,NA,NA
India,Odisha,Tensa,"Barsua Iron Ore Mines, Tensa - OSPCB",19-10-2025 07:00:00,21.869985,85.167016,SO2,15,51,21
India,Odisha,Tensa,"Barsua Iron Ore Mines, Tensa - OSPCB",19-10-2025 07:00:00,21.869985,85.167016,CO,32,42,34
India,Puducherry,Puducherry,"Jawahar Nagar, Puducherry - PPCC",19-10-2025 07:00:00,11.9309,79.8027,NO2,9,29,18
India,Puducherry,Puducherry,"Jawahar Nagar, Puducherry - PPCC",19-10-2025 07:00:00,11.9309,79.8027,CO,10,36,17
India,Puducherry,Puducherry,"Jawahar Nagar, Puducherry - PPCC",19-10-2025 07:00:00,11.9309,79.8027,OZONE,1,37,3
India,Rajasthan,Banswara,"Rati Talai, Banswara - RSPCB",19-10-2025 07:00:00,23.555190,74.440010,PM10,38,161,93
India,Rajasthan,Banswara,"Rati Talai, Banswara - RSPCB",19-10-2025 07:00:00,23.555190,74.440010,NH3,6,11,8
India,Rajasthan,Banswara,"Rati Talai, Banswara - RSPCB",19-10-2025 07:00:00,23.555190,74.440010,SO2,2,34,13
India,Rajasthan,Banswara,"Rati Talai, Banswara - RSPCB",19-10-2025 07:00:00,23.555190,74.440010,OZONE,5,91,39
India,Rajasthan,Baran,"Bamboliya, Baran - RSPCB",19-10-2025 07:00:00,25.106006,76.469948,NO2,4,21,9
India,Rajasthan,Baran,"Bamboliya, Baran - RSPCB",19-10-2025 07:00:00,25.106006,76.469948,SO2,4,8,6
India,Rajasthan,Baran,"Bamboliya, Baran - RSPCB",19-10-2025 07:00:00,25.106006,76.469948,CO,22,34,30
India,Rajasthan,Bharatpur,"Krishna Nagar, Bharatpur - RSPCB",19-10-2025 07:00:00,27.215415,77.50873,PM2.5,52,164,91
India,Odisha,Byasanagar,"Ferro Chrome Colony, Byasanagar - OSPCB",19-10-2025 07:00:00,20.94185,86.11510,OZONE,5,162,33
India,Odisha,Cuttack,"CDA Area, Cuttack - OSPCB",19-10-2025 07:00:00,20.48891     ,85.84768     ,PM10,103,167,130
India,Odisha,Keonjhar,"Jagamohanpur, Keonjhar - OSPCB",19-10-2025 07:00:00,21.643900,85.599355,PM10,100,173,130
India,Odisha,Keonjhar,"Jagamohanpur, Keonjhar - OSPCB",19-10-2025 07:00:00,21.643900,85.599355,NH3,8,16,12
India,Odisha,Rairangpur,"Divisional Forest Office, Rairangpur - OSPCB",19-10-2025 07:00:00,22.265816,86.174829,PM10,27,474,151
India,Odisha,Rairangpur,"Divisional Forest Office, Rairangpur - OSPCB",19-10-2025 07:00:00,22.265816,86.174829,SO2,7,10,8
India,Punjab,Mandi Gobindgarh,"RIMT University, Mandi Gobindgarh - PPCB",19-10-2025 07:00:00,30.649961,76.331442,PM10,150,182,162
India,Punjab,Patiala,"Model Town, Patiala - PPCB",19-10-2025 07:00:00,30.349388,76.366642,PM2.5,49,85,70
India,Punjab,Patiala,"Model Town, Patiala - PPCB",19-10-2025 07:00:00,30.349388,76.366642,OZONE,35,35,35
India,Punjab,Rupnagar,"Ratanpura, Rupnagar - Ambuja Cements",19-10-2025 07:00:00,31.0325454,76.5623046,NO2,4,10,7
India,Punjab,Rupnagar,"Ratanpura, Rupnagar - Ambuja Cements",19-10-2025 07:00:00,31.0325454,76.5623046,SO2,9,14,12
India,Punjab,Rupnagar,"Ratanpura, Rupnagar - Ambuja Cements",19-10-2025 07:00:00,31.0325454,76.5623046,CO,24,34,30
India,Rajasthan,Bharatpur,"Krishna Nagar, Bharatpur - RSPCB",19-10-2025 07:00:00,27.215415,77.50873,CO,30,91,55
India,Rajasthan,Bhilwara,"Pratap Nagar, Bhilwara - RSPCB",19-10-2025 07:00:00,25.339605,74.618883,OZONE,1,58,12
India,Rajasthan,Bhiwadi,"RIICO Ind. Area III, Bhiwadi - RSPCB",19-10-2025 07:00:00,28.194909,76.862296,CO,14,76,56
India,Rajasthan,Bikaner,"MM Ground, Bikaner - RSPCB",19-10-2025 07:00:00,28.018792,73.292658,PM2.5,48,338,144
India,Rajasthan,Bikaner,"MM Ground, Bikaner - RSPCB",19-10-2025 07:00:00,28.018792,73.292658,PM10,118,443,259
India,Odisha,Bhubaneswar,"Patia, Bhubaneswar - OSPCB",19-10-2025 07:00:00,20.34652,85.81630,PM2.5,82,247,143
India,Odisha,Bhubaneswar,"Patia, Bhubaneswar - OSPCB",19-10-2025 07:00:00,20.34652,85.81630,PM10,70,155,108
India,Odisha,Bhubaneswar,"Patia, Bhubaneswar - OSPCB",19-10-2025 07:00:00,20.34652,85.81630,NO2,1,247,30
India,Odisha,Bhubaneswar,"Patia, Bhubaneswar - OSPCB",19-10-2025 07:00:00,20.34652,85.81630,CO,32,63,36
India,Odisha,Bileipada,"Tata Township, Bileipada - OSPCB",19-10-2025 07:00:00,22.06156703,85.47409613,NH3,4,4,4
India,Odisha,Byasanagar,"Ferro Chrome Colony, Byasanagar - OSPCB",19-10-2025 07:00:00,20.94185,86.11510,NH3,3,4,3
India,Rajasthan,Dholpur,"Raja Ganj, Dholpur - RSPCB",19-10-2025 07:00:00,26.699557,77.898881,NO2,12,84,36
India,Rajasthan,Dungarpur,"Bhoiwada, Dungarpur - RSPCB",19-10-2025 07:00:00,23.837789,73.714926,PM2.5,42,173,84
India,Rajasthan,Dungarpur,"Bhoiwada, Dungarpur - RSPCB",19-10-2025 07:00:00,23.837789,73.714926,PM10,48,145,91
India,Rajasthan,Hanumangarh,"Housing Board, Hanumangarh - RSPCB",19-10-2025 07:00:00,29.610750,74.283608,PM10,74,171,118
India,Rajasthan,Hanumangarh,"Housing Board, Hanumangarh - RSPCB",19-10-2025 07:00:00,29.610750,74.283608,CO,26,101,42
India,Rajasthan,Hanumangarh,"Housing Board, Hanumangarh - RSPCB",19-10-2025 07:00:00,29.610750,74.283608,OZONE,24,80,39
India,Rajasthan,Bundi,"New Colony, Bundi - RSPCB",19-10-2025 07:00:00,25.435774,75.644272,PM2.5,40,110,70
India,Rajasthan,Chittorgarh,"Shastri Nagar, Chittorgarh - RSPCB",19-10-2025 07:00:00,24.892047,74.623527,SO2,2,107,18
India,Rajasthan,Churu,"Subash Chowk, Churu - RSPCB",19-10-2025 07:00:00,28.296139,74.961696,PM2.5,60,301,139
India,Rajasthan,Churu,"Subash Chowk, Churu - RSPCB",19-10-2025 07:00:00,28.296139,74.961696,NH3,6,11,8
India,Rajasthan,Churu,"Subash Chowk, Churu - RSPCB",19-10-2025 07:00:00,28.296139,74.961696,CO,1,30,8
India,TamilNadu,Chennai,"Manali Village, Chennai - TNPCB",19-10-2025 07:00:00,13.1662,80.2584,CO,34,60,55
India,TamilNadu,Chennai,"Manali, Chennai - CPCB",19-10-2025 07:00:00,13.164544,80.26285,NO2,1,22,11
India,TamilNadu,Chennai,"Manali, Chennai - CPCB",19-10-2025 07:00:00,13.164544,80.26285,OZONE,10,12,11
India,TamilNadu,Chennai,"Perungudi, Chennai - TNPCB",19-10-2025 07:00:00,12.9533,80.2357,PM2.5,3,500,204
India,TamilNadu,Chennai,"Perungudi, Chennai - TNPCB",19-10-2025 07:00:00,12.9533,80.2357,CO,22,74,71
India,TamilNadu,Chennai,"Velachery Res. Area, Chennai - CPCB",19-10-2025 07:00:00,13.0052189,80.2398125,PM2.5,31,97,60
India,TamilNadu,Chennai,"Velachery Res. Area, Chennai - CPCB",19-10-2025 07:00:00,13.0052189,80.2398125,SO2,8,15,11
India,TamilNadu,Chennai,"Velachery Res. Area, Chennai - CPCB",19-10-2025 07:00:00,13.0052189,80.2398125,CO,49,96,74
India,Rajasthan,Jaipur,"Mansarovar Sector-12, Jaipur - RSPCB",19-10-2025 07:00:00,26.843698,75.766894,PM2.5,44,357,181
India,Rajasthan,Jaipur,"Police Commissionerate, Jaipur - RSPCB",19-10-2025 07:00:00,26.9164092,75.7994901,SO2,5,8,6
India,Rajasthan,Jaipur,"RIICO Sitapura, Jaipur - RSPCB",19-10-2025 07:00:00,26.786682,75.827928,PM2.5,NA,NA,NA
India,Rajasthan,Jaipur,"RIICO Sitapura, Jaipur - RSPCB",19-10-2025 07:00:00,26.786682,75.827928,PM10,NA,NA,NA
India,Rajasthan,Jaipur,"RIICO Sitapura, Jaipur - RSPCB",19-10-2025 07:00:00,26.786682,75.827928,NO2,NA,NA,NA
India,Rajasthan,Jaipur,"RIICO Sitapura, Jaipur - RSPCB",19-10-2025 07:00:00,26.786682,75.827928,SO2,NA,NA,NA
India,Rajasthan,Jaipur,"RIICO Sitapura, Jaipur - RSPCB",19-10-2025 07:00:00,26.786682,75.827928,OZONE,NA,NA,NA
India,Rajasthan,Jaipur,"Sector-2 Murlipura, Jaipur - RSPCB",19-10-2025 07:00:00,26.960669,75.771817,NH3,4,9,6
India,TamilNadu,Ariyalur,"Keelapalur, Ariyalur - TNPCB",19-10-2025 07:00:00,11.06825,79.07033,NH3,1,1,1
India,TamilNadu,Chengalpattu,"Crescent University, Chengalpattu - TNPCB",19-10-2025 07:00:00,12.8777316,80.0834807,NO2,NA,NA,NA
India,TamilNadu,Chengalpattu,"Crescent University, Chengalpattu - TNPCB",19-10-2025 07:00:00,12.8777316,80.0834807,CO,8,10,8
India,TamilNadu,Chennai,"Alandur Bus Depot, Chennai - CPCB",19-10-2025 07:00:00,12.9099161,80.1076538,PM10,50,264,128
India,TamilNadu,Chennai,"Alandur Bus Depot, Chennai - CPCB",19-10-2025 07:00:00,12.9099161,80.1076538,OZONE,30,58,46
India,TamilNadu,Chennai,"Arumbakkam, Chennai - TNPCB",19-10-2025 07:00:00,13.0664,80.2112 ,SO2,2,3,2
India,Rajasthan,Sri Ganganagar,"Old City, Sri Ganganagar - RSPCB",19-10-2025 07:00:00,29.931624,73.864511,NH3,2,25,8
India,Rajasthan,Sri Ganganagar,"Old City, Sri Ganganagar - RSPCB",19-10-2025 07:00:00,29.931624,73.864511,CO,72,143,90
India,Rajasthan,Tonk,"Shastri Nagar, Tonk - RSPCB",19-10-2025 07:00:00,26.159933,75.780517,SO2,3,9,7
India,Rajasthan,Udaipur,"Ashok Nagar, Udaipur - RSPCB",19-10-2025 07:00:00,24.5886166,73.6321397,OZONE,3,84,5
India,Sikkim,Gangtok,"Zero Point GICI, Gangtok - SSPCB",19-10-2025 07:00:00,27.338530,88.614099,OZONE,14,43,18
India,Rajasthan,Rajsamand,"Dhoinda, Rajsamand - RSPCB",19-10-2025 07:00:00,25.036360,73.883502,PM10,34,124,61
India,Rajasthan,Sawai Madhopur,"Sahu Nagar, Sawai Madhopur - RSPCB",19-10-2025 07:00:00,26.031443,76.359327,PM10,40,159,75
India,Rajasthan,Sawai Madhopur,"Sahu Nagar, Sawai Madhopur - RSPCB",19-10-2025 07:00:00,26.031443,76.359327,CO,30,75,53
India,Rajasthan,Sirohi,"Vedhaynath Colony, Sirohi - RSPCB",19-10-2025 07:00:00,24.885261,72.857549,PM2.5,28,107,48
India,Rajasthan,Sirohi,"Vedhaynath Colony, Sirohi - RSPCB",19-10-2025 07:00:00,24.885261,72.857549,OZONE,26,99,48
India,Rajasthan,Jaipur,"Shastri Nagar, Jaipur - RSPCB",19-10-2025 07:00:00,26.9502929,75.730943,PM2.5,65,336,148
India,Rajasthan,Jaisalmer,"Sadar Bazar, Jaisalmer - RSPCB",19-10-2025 07:00:00,26.912329,70.909168,PM10,60,371,109
India,Rajasthan,Jalore,"Mudtra Sili, Jalore - RSPCB",19-10-2025 07:00:00,25.344694,72.626208,NH3,4,9,6
India,Rajasthan,Jalore,"Mudtra Sili, Jalore - RSPCB",19-10-2025 07:00:00,25.344694,72.626208,SO2,3,20,6
India,Rajasthan,Jhalawar,"Rajlaxmi Nagar, Jhalawar - RSPCB",19-10-2025 07:00:00,24.588397,76.172782,OZONE,12,147,46
India,Rajasthan,Jodhpur,"Digari Kalan, Jodhpur - RSPCB",19-10-2025 07:00:00,26.295810,73.082283,CO,12,72,25
India,Rajasthan,Jodhpur,"Jhalamand, Jodhpur - RSPCB",19-10-2025 07:00:00,26.215415,73.070156,PM2.5,22,93,56
India,Rajasthan,Jodhpur,"Jhalamand, Jodhpur - RSPCB",19-10-2025 07:00:00,26.215415,73.070156,OZONE,13,169,34
India,Rajasthan,Kota,"Shrinath Puram, Kota - RSPCB",19-10-2025 07:00:00,25.14389,75.821256,PM2.5,35,270,100
India,Rajasthan,Nagaur,"Karni Colony, Nagaur - RSPCB",19-10-2025 07:00:00,27.213494,73.734444,SO2,5,13,8
India,Rajasthan,Pali,"Indira Colony Vistar, Pali - RSPCB",19-10-2025 07:00:00,25.771061, 73.340227,PM2.5,48,275,126
India,Rajasthan,Jodhpur,"Samrat Ashok Udhyan, Jodhpur - RSPCB",19-10-2025 07:00:00,26.253384,72.976571,PM10,52,241,109
India,Rajasthan,Karauli,"Satyawati Vihar, Karauli - RSPCB",19-10-2025 07:00:00,26.506177,77.025989,NO2,11,25,18
India,Rajasthan,Kota,"Dhanmandi, Kota - RSPCB",19-10-2025 07:00:00,25.164090,75.858137,OZONE,1,154,11
India,TamilNadu,Coimbatore,"PSG College of Arts and Science, Coimbatore - TNPCB",19-10-2025 07:00:00,11.0328,77.0349,NO2,8,10,9
India,TamilNadu,Coimbatore,"SIDCO Kurichi, Coimbatore - TNPCB",19-10-2025 07:00:00,10.942451,76.978996,PM2.5,3,101,41
India,TamilNadu,Coimbatore,"SIDCO Kurichi, Coimbatore - TNPCB",19-10-2025 07:00:00,10.942451,76.978996,PM10,14,90,42
India,TamilNadu,Coimbatore,"SIDCO Kurichi, Coimbatore - TNPCB",19-10-2025 07:00:00,10.942451,76.978996,CO,26,39,29
India,TamilNadu,Cuddalore,"Kudikadu, Cuddalore - TNPCB",19-10-2025 07:00:00,11.6829898,79.7532099,PM10,8,33,17
India,TamilNadu,Cuddalore,"Semmandalam, Cuddalore - TNPCB",19-10-2025 07:00:00,11.7637683,79.7499835,PM2.5,7,342,48
India,TamilNadu,Cuddalore,"Semmandalam, Cuddalore - TNPCB",19-10-2025 07:00:00,11.7637683,79.7499835,PM10,5,169,32
India,TamilNadu,Dindigul,"Mendonsa Colony, Dindigul - TNPCB",19-10-2025 07:00:00,10.358535,77.984321,PM2.5,11,36,23
India,TamilNadu,Dindigul,"Mendonsa Colony, Dindigul - TNPCB",19-10-2025 07:00:00,10.358535,77.984321,PM10,19,56,37
India,Telangana,Hyderabad,"ECIL Kapra, Hyderabad - TSPCB",19-10-2025 07:00:00,17.470431,78.566959,SO2,10,20,12
India,Telangana,Hyderabad,"ECIL Kapra, Hyderabad - TSPCB",19-10-2025 07:00:00,17.470431,78.566959,OZONE,18,36,21
India,Telangana,Hyderabad,"IDA Pashamylaram, Hyderabad - TSPCB",19-10-2025 07:00:00,17.5316895,78.218939,PM2.5,116,185,158
India,Telangana,Hyderabad,"IDA Pashamylaram, Hyderabad - TSPCB",19-10-2025 07:00:00,17.5316895,78.218939,SO2,2,12,7
India,Telangana,Hyderabad,"IDA Pashamylaram, Hyderabad - TSPCB",19-10-2025 07:00:00,17.5316895,78.218939,CO,24,60,47
India,Telangana,Hyderabad,"IITH Kandi, Hyderabad - TSPCB",19-10-2025 07:00:00,17.585705,78.126199,PM2.5,68,146,111
India,Telangana,Hyderabad,"IITH Kandi, Hyderabad - TSPCB",19-10-2025 07:00:00,17.585705,78.126199,OZONE,24,29,28
India,Telangana,Hyderabad,"Kokapet, Hyderabad - TSPCB",19-10-2025 07:00:00,17.393559,78.339194,NO2,14,18,15
India,Telangana,Hyderabad,"Kokapet, Hyderabad - TSPCB",19-10-2025 07:00:00,17.393559,78.339194,SO2,12,19,17
India,Telangana,Hyderabad,"Kokapet, Hyderabad - TSPCB",19-10-2025 07:00:00,17.393559,78.339194,CO,22,36,34
India,Telangana,Hyderabad,"Kokapet, Hyderabad - TSPCB",19-10-2025 07:00:00,17.393559,78.339194,OZONE,19,38,24
India,TamilNadu,Perundurai,"SIPCOT Industrial Park, Perundurai - TNPCB",19-10-2025 07:00:00,11.258242,77.552761,NH3,2,3,3
India,TamilNadu,Perundurai,"SIPCOT Industrial Park, Perundurai - TNPCB",19-10-2025 07:00:00,11.258242,77.552761,SO2,11,12,12
India,TamilNadu,Pudukottai,"SIPCOT Nathampannai, Pudukottai - TNPCB",19-10-2025 07:00:00,10.423417,78.784889,NH3,2,3,3
India,TamilNadu,Ramanathapuram,"Chalai Bazaar, Ramanathapuram - TNPCB",19-10-2025 07:00:00,9.36399,78.831977,SO2,8,33,15
India,TamilNadu,Ranipet,"VOC Nagar_SIPCOT, Ranipet - TNPCB",19-10-2025 07:00:00,12.952707,79.30394,PM2.5,19,103,52
India,TamilNadu,Salem,"Sona College of Technology, Salem - TNPCB",19-10-2025 07:00:00,11.679111,78.125052,PM2.5,2,48,21
India,TamilNadu,Vellore,"Vasanthapuram, Vellore - TNPCB",19-10-2025 07:00:00,12.909494,79.131861,NH3,2,7,4
India,TamilNadu,Virudhunagar,"Collectorate Office, Virudhunagar - TNPCB",19-10-2025 07:00:00,9.559382,77.948828,SO2,19,19,19
India,Telangana,Hyderabad,"Bollaram Industrial Area, Hyderabad - TSPCB",19-10-2025 07:00:00,17.540891,78.358528,NH3,3,8,5
India,Telangana,Hyderabad,"Central University, Hyderabad - TSPCB",19-10-2025 07:00:00,17.460103,78.334361,CO,12,30,23
India,Telangana,Hyderabad,"ECIL Kapra, Hyderabad - TSPCB",19-10-2025 07:00:00,17.470431,78.566959,PM2.5,60,63,61
India,Telangana,Hyderabad,"ECIL Kapra, Hyderabad - TSPCB",19-10-2025 07:00:00,17.470431,78.566959,NO2,6,37,18
India,TamilNadu,Thanjavur,"Parisutham Nagar, Thanjavur - TNPCB",19-10-2025 07:00:00,10.7654824,79.1389968,OZONE,4,20,11
India,TamilNadu,Tiruchirappalli,"St Joseph College, Tiruchirappalli - TNPCB",19-10-2025 07:00:00,10.830158,78.691849,PM2.5,28,90,52
India,TamilNadu,Tiruchirappalli,"St Joseph College, Tiruchirappalli - TNPCB",19-10-2025 07:00:00,10.830158,78.691849,OZONE,28,129,47
India,TamilNadu,Tirunelveli,"Municipal Corporation Office, Tirunelveli - TNPCB",19-10-2025 07:00:00,8.728442,77.6962,NH3,NA,NA,NA
India,TamilNadu,Tirupur,"Kumaran College, Tirupur - TNPCB",19-10-2025 07:00:00,11.0973603,77.3228673,PM2.5,9,69,32
India,TamilNadu,Gummidipoondi,"Anthoni Pillai Nagar, Gummidipoondi - TNPCB",19-10-2025 07:00:00,13.4127,80.1081,PM10,16,232,98
India,TamilNadu,Gummidipoondi,"Anthoni Pillai Nagar, Gummidipoondi - TNPCB",19-10-2025 07:00:00,13.4127,80.1081,NH3,3,6,4
India,TamilNadu,Kanchipuram,"Kilambi, Kanchipuram - TNPCB",19-10-2025 07:00:00,12.864618,79.659968,NO2,3,33,12
India,TamilNadu,Kanchipuram,"Kilambi, Kanchipuram - TNPCB",19-10-2025 07:00:00,12.864618,79.659968,SO2,1,44,14
India,TamilNadu,Karur,"Kamadenu Nagar, Karur - TNPCB",19-10-2025 07:00:00,10.967820,78.080882,SO2,15,16,15
India,Telangana,Hyderabad,"Kompally Municipal Office, Hyderabad - TSPCB",19-10-2025 07:00:00,17.544899,78.486949,PM2.5,46,63,59
India,Telangana,Hyderabad,"Kompally Municipal Office, Hyderabad - TSPCB",19-10-2025 07:00:00,17.544899,78.486949,PM10,NA,NA,NA
India,Telangana,Hyderabad,"Nacharam_TSIIC IALA, Hyderabad - TSPCB",19-10-2025 07:00:00,17.429398,78.569354,PM10,88,172,121
India,Telangana,Hyderabad,"Nacharam_TSIIC IALA, Hyderabad - TSPCB",19-10-2025 07:00:00,17.429398,78.569354,CO,21,46,39
India,Telangana,Hyderabad,"Ramachandrapuram, Hyderabad - TSPCB",19-10-2025 07:00:00,17.528544,78.286195,NH3,3,5,3
India,TamilNadu,Namakkal,"Ponnusamy Nagar, Namakkal - TNPCB",19-10-2025 07:00:00,11.273992,78.163545,NO2,7,10,8
India,TamilNadu,Ooty,"Bombay Castel, Ooty - TNPCB",19-10-2025 07:00:00,11.4068288,76.7138973,PM10,NA,NA,NA
India,TamilNadu,Ooty,"Bombay Castel, Ooty - TNPCB",19-10-2025 07:00:00,11.4068288,76.7138973,CO,21,24,23
India,TamilNadu,Palkalaiperur,"Bharathidasan University, Palkalaiperur - TNPCB",19-10-2025 07:00:00,10.681158,78.741746,PM10,18,500,48
India,Tripura,Agartala,"Bardowali, Agartala - Tripura SPCB",19-10-2025 07:00:00,23.8175497,91.2726974,SO2,27,28,27
India,Uttar_Pradesh,Agra,"Manoharpur, Agra - UPPCB",19-10-2025 07:00:00,27.23711,78.01936,NH3,2,3,2
India,Uttar_Pradesh,Ghaziabad,"Sanjay Nagar, Ghaziabad - UPPCB",19-10-2025 07:00:00,28.685382,77.453839,PM2.5,201,484,339
India,Uttar_Pradesh,Ghaziabad,"Sanjay Nagar, Ghaziabad - UPPCB",19-10-2025 07:00:00,28.685382,77.453839,OZONE,17,145,20
India,Uttar_Pradesh,Ghaziabad,"Vasundhara, Ghaziabad - UPPCB",19-10-2025 07:00:00,28.6603346,77.3572563,PM10,176,434,301
India,Uttar_Pradesh,Ghaziabad,"Vasundhara, Ghaziabad - UPPCB",19-10-2025 07:00:00,28.6603346,77.3572563,SO2,10,15,13
India,Uttar_Pradesh,Gorakhpur,"Madan Mohan Malaviya University of Technology, Gorakhpur - UPPCB",19-10-2025 07:00:00,26.730136,83.433859,PM2.5,52,301,124
India,Uttar_Pradesh,Greater Noida,"Knowledge Park - III, Greater Noida - UPPCB",19-10-2025 07:00:00,28.47272,77.482000,NH3,9,18,14
India,Uttar_Pradesh,Greater Noida,"Knowledge Park - V, Greater Noida - UPPCB",19-10-2025 07:00:00,28.557054,77.453663,PM2.5,98,372,269
India,Uttar_Pradesh,Meerut,"Pallavpuram Phase 2, Meerut - UPPCB",19-10-2025 07:00:00,29.063510,77.709723,NO2,22,145,70
India,Uttar_Pradesh,Meerut,"Pallavpuram Phase 2, Meerut - UPPCB",19-10-2025 07:00:00,29.063510,77.709723,NH3,6,14,10
India,Uttar_Pradesh,Moradabad,"Buddhi Vihar, Moradabad - UPPCB",19-10-2025 07:00:00,28.83526,78.74460,OZONE,9,20,10
India,Uttar_Pradesh,Moradabad,"Eco Herbal Park, Moradabad - UPPCB",19-10-2025 07:00:00,28.840739,78.697531,PM2.5,62,308,114
India,Uttar_Pradesh,Moradabad,"Eco Herbal Park, Moradabad - UPPCB",19-10-2025 07:00:00,28.840739,78.697531,SO2,1,43,12
India,Uttar_Pradesh,Moradabad,"Employment Office, Moradabad - UPPCB",19-10-2025 07:00:00,28.88528,78.73880,PM10,98,155,125
India,Uttar_Pradesh,Moradabad,"Employment Office, Moradabad - UPPCB",19-10-2025 07:00:00,28.88528,78.73880,NH3,4,4,4
India,Uttar_Pradesh,Moradabad,"Employment Office, Moradabad - UPPCB",19-10-2025 07:00:00,28.88528,78.73880,SO2,20,32,24
India,Uttar_Pradesh,Lucknow,"B R Ambedkar University, Lucknow - UPPCB",19-10-2025 07:00:00,26.766433,80.927299,OZONE,25,26,25
India,Uttar_Pradesh,Lucknow,"Gomti Nagar, Lucknow - UPPCB",19-10-2025 07:00:00,26.868120,81.005119,NO2,8,10,9
India,Uttar_Pradesh,Lucknow,"Kendriya Vidyalaya, Lucknow - CPCB",19-10-2025 07:00:00,26.906111,80.948222,NO2,36,44,40
India,Uttar_Pradesh,Lucknow,"Kendriya Vidyalaya, Lucknow - CPCB",19-10-2025 07:00:00,26.906111,80.948222,SO2,3,39,14
India,Uttar_Pradesh,Lucknow,"Kendriya Vidyalaya, Lucknow - CPCB",19-10-2025 07:00:00,26.906111,80.948222,OZONE,10,79,14
India,Uttar_Pradesh,Lucknow,"Kukrail Picnic Spot-1, Lucknow - UPPCB",19-10-2025 07:00:00,26.90723,80.98579,NO2,19,23,23
India,Uttar_Pradesh,Lucknow,"Kukrail Picnic Spot-1, Lucknow - UPPCB",19-10-2025 07:00:00,26.90723,80.98579,SO2,23,30,28
India,Uttar_Pradesh,Agra,"Shastripuram, Agra - UPPCB",19-10-2025 07:00:00,27.19862,77.92066,PM2.5,50,306,166
India,Uttar_Pradesh,Baghpat,"Sardar Patel Inter College, Baghpat - UPPCB",19-10-2025 07:00:00,28.964949,77.278761,PM10,134,256,199
India,Uttar_Pradesh,Bareilly,"Civil Lines, Bareilly - UPPCB",19-10-2025 07:00:00,28.359581,79.414455,NO2,2,3,2
India,Uttar_Pradesh,Bareilly,"Rajendra Nagar, Bareilly - UPPCB",19-10-2025 07:00:00,28.38910936,79.42963708,PM2.5,49,222,109
India,Uttar_Pradesh,Bareilly,"Rajendra Nagar, Bareilly - UPPCB",19-10-2025 07:00:00,28.38910936,79.42963708,SO2,40,42,41
India,Uttar_Pradesh,Greater Noida,"Knowledge Park - V, Greater Noida - UPPCB",19-10-2025 07:00:00,28.557054,77.453663,PM10,123,498,300
India,Uttar_Pradesh,Greater Noida,"Knowledge Park - V, Greater Noida - UPPCB",19-10-2025 07:00:00,28.557054,77.453663,NO2,37,180,111
India,Uttar_Pradesh,Hapur,"Anand Vihar, Hapur - UPPCB",19-10-2025 07:00:00,28.725645,77.749675,NH3,8,9,9
India,Uttar_Pradesh,Jhansi,"Shivaji Nagar, Jhansi - UPPCB",19-10-2025 07:00:00,25.4547,78.6039,PM2.5,30,98,59
India,Uttar_Pradesh,Jhansi,"Shivaji Nagar, Jhansi - UPPCB",19-10-2025 07:00:00,25.4547,78.6039,PM10,50,124,81
India,Uttar_Pradesh,Jhansi,"Shivaji Nagar, Jhansi - UPPCB",19-10-2025 07:00:00,25.4547,78.6039,NO2,6,6,6
India,Uttar_Pradesh,Bulandshahr,"Yamunapuram, Bulandshahr - UPPCB",19-10-2025 07:00:00,28.406963,77.849831,NH3,12,16,14
India,Uttar_Pradesh,Firozabad,"Nagla Bhau, Firozabad - UPPCB",19-10-2025 07:00:00,27.168897,78.376960,CO,14,30,24
India,Uttar_Pradesh,Firozabad,"Nagla Bhau, Firozabad - UPPCB",19-10-2025 07:00:00,27.168897,78.376960,OZONE,9,22,10
India,Uttar_Pradesh,Ghaziabad,"Indirapuram, Ghaziabad - UPPCB",19-10-2025 07:00:00,28.646233,77.358075,PM2.5,232,384,333
India,Uttar_Pradesh,Ghaziabad,"Loni, Ghaziabad - UPPCB",19-10-2025 07:00:00,28.757294,77.278792,NO2,18,99,63
India,Uttar_Pradesh,Meerut,"Ganga Nagar, Meerut - UPPCB",19-10-2025 07:00:00,28.999264,77.7590354,NH3,14,18,15
India,Uttar_Pradesh,Meerut,"Ganga Nagar, Meerut - UPPCB",19-10-2025 07:00:00,28.999264,77.7590354,CO,56,110,88
India,Uttar_Pradesh,Meerut,"Jai Bhim Nagar, Meerut - UPPCB",19-10-2025 07:00:00,28.9535882,77.7622941,PM10,173,429,276
India,Uttar_Pradesh,Meerut,"Pallavpuram Phase 2, Meerut - UPPCB",19-10-2025 07:00:00,29.063510,77.709723,PM2.5,165,346,264
India,Uttar_Pradesh,Agra,"Manoharpur, Agra - UPPCB",19-10-2025 07:00:00,27.23711,78.01936,OZONE,8,8,8
India,Uttar_Pradesh,Agra,"Rohta, Agra - UPPCB",19-10-2025 07:00:00,27.106972,78.000111,SO2,16,37,26
India,Uttar_Pradesh,Agra,"Sanjay Palace, Agra - UPPCB",19-10-2025 07:00:00,27.19865833,78.00598056,OZONE,5,138,7
India,Uttar_Pradesh,Khurja,"Kalindi Kunj, Khurja - UPPCB",19-10-2025 07:00:00,28.2348927,77.8683002,OZONE,5,14,5
India,Uttarakhand,Dehradun,"Doon University, Dehradun - UKPCB",19-10-2025 07:00:00,30.269444,78.044167,PM10,NA,NA,NA
India,Uttarakhand,Kashipur,"Govt. Girls Inter College, Kashipur - UKPCB",19-10-2025 07:00:00,29.2124114,78.9611753,NO2,10,48,17
India,Uttarakhand,Kashipur,"Govt. Girls Inter College, Kashipur - UKPCB",19-10-2025 07:00:00,29.2124114,78.9611753,NH3,3,22,8
India,Uttarakhand,Kashipur,"Govt. Girls Inter College, Kashipur - UKPCB",19-10-2025 07:00:00,29.2124114,78.9611753,CO,14,21,17
India,Uttarakhand,Kashipur,"Govt. Girls Inter College, Kashipur - UKPCB",19-10-2025 07:00:00,29.2124114,78.9611753,OZONE,2,30,2
India,Uttarakhand,Rishikesh,"Shivaji Nagar, Rishikesh - UKPCB",19-10-2025 07:00:00,30.075911,78.2859547,PM10,36,78,51
India,Uttarakhand,Rishikesh,"Shivaji Nagar, Rishikesh - UKPCB",19-10-2025 07:00:00,30.075911,78.2859547,NH3,6,9,7
India,West_Bengal,Asansol,"Asansol Court Area, Asansol - WBPCB",19-10-2025 07:00:00,23.685297,86.945968,PM10,106,171,135
India,West_Bengal,Asansol,"Asansol Court Area, Asansol - WBPCB",19-10-2025 07:00:00,23.685297,86.945968,CO,26,101,56
India,West_Bengal,Asansol,"Evelyn Lodge, Asansol - WBPCB",19-10-2025 07:00:00,23.6979360,86.9443950,PM2.5,NA,NA,NA
India,West_Bengal,Asansol,"Evelyn Lodge, Asansol - WBPCB",19-10-2025 07:00:00,23.6979360,86.9443950,PM10,NA,NA,NA
India,Uttar_Pradesh,Muzaffarnagar,"New Mandi, Muzaffarnagar - UPPCB",19-10-2025 07:00:00,29.4723508,77.7194031,CO,40,109,67
India,Uttar_Pradesh,Noida,"Sector - 125, Noida - UPPCB",19-10-2025 07:00:00,28.5447608,77.3231257,PM10,153,497,342
India,Uttar_Pradesh,Noida,"Sector - 62, Noida - IMD",19-10-2025 07:00:00,28.6245479,77.3577104,NO2,1,45,10
India,Uttar_Pradesh,Noida,"Sector - 62, Noida - IMD",19-10-2025 07:00:00,28.6245479,77.3577104,OZONE,25,224,30
India,Uttar_Pradesh,Noida,"Sector-1, Noida - UPPCB",19-10-2025 07:00:00,28.5898,77.3101,PM10,165,398,280
India,Uttar_Pradesh,Noida,"Sector-1, Noida - UPPCB",19-10-2025 07:00:00,28.5898,77.3101,NH3,16,22,18
India,Uttar_Pradesh,Noida,"Sector-116, Noida - UPPCB",19-10-2025 07:00:00,28.569230,77.393848,PM2.5,214,399,333
India,Uttar_Pradesh,Noida,"Sector-116, Noida - UPPCB",19-10-2025 07:00:00,28.569230,77.393848,NO2,25,239,134
India,Uttar_Pradesh,Moradabad,"Employment Office, Moradabad - UPPCB",19-10-2025 07:00:00,28.88528,78.73880,OZONE,10,92,23
India,Uttar_Pradesh,Moradabad,"Jigar Colony, Moradabad - UPPCB",19-10-2025 07:00:00,28.856664,78.772638,PM2.5,55,206,104
India,Uttar_Pradesh,Moradabad,"Jigar Colony, Moradabad - UPPCB",19-10-2025 07:00:00,28.856664,78.772638,PM10,101,188,134
India,Uttar_Pradesh,Moradabad,"Jigar Colony, Moradabad - UPPCB",19-10-2025 07:00:00,28.856664,78.772638,NO2,19,25,25
India,Uttar_Pradesh,Moradabad,"Transport Nagar, Moradabad - UPPCB",19-10-2025 07:00:00,28.802625,78.753728,PM10,88,281,168
India,Uttar_Pradesh,Moradabad,"Transport Nagar, Moradabad - UPPCB",19-10-2025 07:00:00,28.802625,78.753728,SO2,31,37,33
India,Uttar_Pradesh,Muzaffarnagar,"New Mandi, Muzaffarnagar - UPPCB",19-10-2025 07:00:00,29.4723508,77.7194031,NO2,25,101,56
India,Uttar_Pradesh,Noida,"Sector-116, Noida - UPPCB",19-10-2025 07:00:00,28.569230,77.393848,CO,10,154,66
India,Uttar_Pradesh,Prayagraj,"Jhunsi, Prayagraj - UPPCB",19-10-2025 07:00:00,25.425602,81.917152,OZONE,15,30,16
India,Uttar_Pradesh,Prayagraj,"Motilal Nehru NIT, Prayagraj - UPPCB",19-10-2025 07:00:00,25.494,81.863,NH3,8,8,8
India,Uttar_Pradesh,Prayagraj,"Nagar Nigam, Prayagraj - UPPCB",19-10-2025 07:00:00,25.44919916 ,81.82735986 ,PM2.5,53,193,102
India,Uttar_Pradesh,Prayagraj,"Nagar Nigam, Prayagraj - UPPCB",19-10-2025 07:00:00,25.44919916 ,81.82735986 ,CO,24,76,56
India,Uttar_Pradesh,Varanasi,"Ardhali Bazar, Varanasi - UPPCB",19-10-2025 07:00:00,25.3505986,82.9083074,SO2,18,18,18
India,Uttar_Pradesh,Varanasi,"Bhelupur, Varanasi - UPPCB",19-10-2025 07:00:00,25.301778,82.996789,NO2,8,8,8
India,Uttar_Pradesh,Varanasi,"Bhelupur, Varanasi - UPPCB",19-10-2025 07:00:00,25.301778,82.996789,SO2,25,30,28
India,Uttar_Pradesh,Varanasi,"Bhelupur, Varanasi - UPPCB",19-10-2025 07:00:00,25.301778,82.996789,CO,10,38,28
India,Uttar_Pradesh,Varanasi,"IESD Banaras Hindu University, Varanasi - UPPCB",19-10-2025 07:00:00,25.262326,82.995408,PM10,72,162,104
India,Uttar_Pradesh,Vrindavan,"Omex Eternity, Vrindavan - UPPCB",19-10-2025 07:00:00,27.5714090,77.6557570,NH3,1,3,2
India,Uttarakhand,Dehradun,"Doon University, Dehradun - UKPCB",19-10-2025 07:00:00,30.269444,78.044167,PM2.5,NA,NA,NA
India,West_Bengal,Asansol,"Mahabir Colliery, Asansol - WBPCB",19-10-2025 07:00:00,23.6181830,87.1057180,NH3,5,89,12
India,West_Bengal,Asansol,"Mahabir Colliery, Asansol - WBPCB",19-10-2025 07:00:00,23.6181830,87.1057180,SO2,6,10,8
India,West_Bengal,Asansol,"Mahabir Colliery, Asansol - WBPCB",19-10-2025 07:00:00,23.6181830,87.1057180,CO,46,118,105
India,West_Bengal,Asansol,"Trivenidevi Bhalotia College, Asansol - WBPCB",19-10-2025 07:00:00,23.616515,87.119133,PM10,77,161,116
India,West_Bengal,Asansol,"Trivenidevi Bhalotia College, Asansol - WBPCB",19-10-2025 07:00:00,23.616515,87.119133,NO2,16,45,29
India,West_Bengal,Asansol,"Trivenidevi Bhalotia College, Asansol - WBPCB",19-10-2025 07:00:00,23.616515,87.119133,SO2,16,25,19
India,West_Bengal,Haldia,"Priyambada Housing Estate, Haldia - WBPCB",19-10-2025 07:00:00,22.06047,88.109737,NO2,9,41,17
India,West_Bengal,Haldia,"Priyambada Housing Estate, Haldia - WBPCB",19-10-2025 07:00:00,22.06047,88.109737,OZONE,18,57,22
India,West_Bengal,Howrah,"Belur Math, Howrah - WBPCB",19-10-2025 07:00:00,22.629801,88.352017,SO2,7,10,8
India,West_Bengal,Howrah,"Botanical Garden, Howrah - WBPCB",19-10-2025 07:00:00,22.554954,88.292568,PM2.5,50,160,102
India,West_Bengal,Howrah,"Botanical Garden, Howrah - WBPCB",19-10-2025 07:00:00,22.554954,88.292568,NH3,4,4,4
India,West_Bengal,Howrah,"Padmapukur, Howrah - WBPCB",19-10-2025 07:00:00,22.5687319,88.2797276,PM10,81,146,114
India,West_Bengal,Howrah,"Padmapukur, Howrah - WBPCB",19-10-2025 07:00:00,22.5687319,88.2797276,NO2,11,23,16
India,West_Bengal,Kolkata,"Bidhannagar, Kolkata - WBPCB",19-10-2025 07:00:00,22.58157048,88.41002457,PM10,57,126,87
India,West_Bengal,Kolkata,"Bidhannagar, Kolkata - WBPCB",19-10-2025 07:00:00,22.58157048,88.41002457,NO2,14,21,18
India,West_Bengal,Kolkata,"Bidhannagar, Kolkata - WBPCB",19-10-2025 07:00:00,22.58157048,88.41002457,CO,27,44,37
India,West_Bengal,Barrackpore,"SVSPA Campus, Barrackpore - WBPCB",19-10-2025 07:00:00,22.7605581,88.3617589,NH3,3,7,5
India,West_Bengal,Barrackpore,"SVSPA Campus, Barrackpore - WBPCB",19-10-2025 07:00:00,22.7605581,88.3617589,SO2,16,20,17
India,West_Bengal,Barrackpore,"SVSPA Campus, Barrackpore - WBPCB",19-10-2025 07:00:00,22.7605581,88.3617589,CO,24,52,47
India,West_Bengal,Barrackpore,"SVSPA Campus, Barrackpore - WBPCB",19-10-2025 07:00:00,22.7605581,88.3617589,OZONE,3,40,4
India,West_Bengal,Kolkata,"Fort William, Kolkata - WBPCB",19-10-2025 07:00:00,22.556640,88.342674,NO2,18,21,19
India,West_Bengal,Kolkata,"Jadavpur, Kolkata - WBPCB",19-10-2025 07:00:00,22.49929,88.36917,NO2,1,50,20
India,West_Bengal,Kolkata,"Rabindra Bharati University, Kolkata - WBPCB",19-10-2025 07:00:00,22.627847,88.380669,OZONE,17,47,22
India,West_Bengal,Kolkata,"Rabindra Sarobar, Kolkata - WBPCB",19-10-2025 07:00:00,22.51106,88.35142,PM2.5,39,102,67
India,West_Bengal,Kolkata,"Rabindra Sarobar, Kolkata - WBPCB",19-10-2025 07:00:00,22.51106,88.35142,CO,20,51,28
India,West_Bengal,Kolkata,"Victoria, Kolkata - WBPCB",19-10-2025 07:00:00,22.5448082,88.3403691,NH3,4,5,4
India,Bihar,Bettiah,"Kamalnath Nagar, Bettiah - BSPCB",19-10-2025 07:00:00,26.80365,84.51954,OZONE,22,23,22
India,Bihar,Bhagalpur,"DM Office_Kachari Chowk, Bhagalpur - BSPCB",19-10-2025 07:00:00,25.251013,86.989001,CO,14,20,17
India,Bihar,Bhagalpur,"DM Office_Kachari Chowk, Bhagalpur - BSPCB",19-10-2025 07:00:00,25.251013,86.989001,OZONE,9,21,14
India,Bihar,Bhagalpur,"Mayaganj, Bhagalpur - BSPCB",19-10-2025 07:00:00,25.265194,87.012947,PM2.5,77,227,128
India,Bihar,Bhagalpur,"Mayaganj, Bhagalpur - BSPCB",19-10-2025 07:00:00,25.265194,87.012947,NO2,7,7,7
India,Bihar,Bihar Sharif,"D M Colony, Bihar Sharif - BSPCB",19-10-2025 07:00:00,25.204762,85.514960,OZONE,24,31,29
India,Bihar,Buxar,"Charitra Van, Buxar - BSPCB",19-10-2025 07:00:00,25.567520,83.966379,NO2,9,10,10
India,Assam,Guwahati,"IITG, Guwahati - PCBA",19-10-2025 07:00:00,26.2028636,91.70046436,OZONE,NA,NA,NA
India,Assam,Guwahati,"LGBI Airport, Guwahati - PCBA",19-10-2025 07:00:00,26.10887,91.589544,PM10,47,58,51
India,Assam,Guwahati,"LGBI Airport, Guwahati - PCBA",19-10-2025 07:00:00,26.10887,91.589544,NO2,13,19,15
India,Assam,Guwahati,"Pan Bazaar, Guwahati - PCBA",19-10-2025 07:00:00,26.187500,91.744194,PM2.5,1,101,52
India,Assam,Guwahati,"Railway Colony, Guwahati - PCBA",19-10-2025 07:00:00,26.181742,91.78063,PM2.5,51,304,119
India,Assam,Guwahati,"Railway Colony, Guwahati - PCBA",19-10-2025 07:00:00,26.181742,91.78063,PM10,51,157,94
India,Assam,Guwahati,"Railway Colony, Guwahati - PCBA",19-10-2025 07:00:00,26.181742,91.78063,SO2,29,31,30
India,Andhra_Pradesh,Vijayawada,"Rajiv Gandhi Park, Vijayawada - APPCB",19-10-2025 07:00:00,16.509717,80.612222,PM10,39,96,64
India,Andhra_Pradesh,Vijayawada,"Rajiv Gandhi Park, Vijayawada - APPCB",19-10-2025 07:00:00,16.509717,80.612222,CO,32,40,34
India,Arunachal_Pradesh,Naharlagun,"Naharlagun, Naharlagun - APSPCB",19-10-2025 07:00:00,27.103358,93.679645,OZONE,5,5,5
India,Assam,Byrnihat,"Central Academy for SFS, Byrnihat - PCBA",19-10-2025 07:00:00,26.071318,91.87488,PM10,75,92,84
India,Assam,Byrnihat,"Central Academy for SFS, Byrnihat - PCBA",19-10-2025 07:00:00,26.071318,91.87488,SO2,6,7,7
India,Bihar,Arrah,"New DM Office, Arrah - BSPCB",19-10-2025 07:00:00,25.5626095,84.663264,NO2,6,9,8
India,Bihar,Aurangabad,"Gurdeo Nagar, Aurangabad - BSPCB",19-10-2025 07:00:00,24.75746,84.366208,PM10,12,26,16
India,Bihar,Begusarai,"Lohiyanagar, Begusarai - BSPCB",19-10-2025 07:00:00,25.42742023,86.13886079,NH3,3,4,4
India,Bihar,Begusarai,"Lohiyanagar, Begusarai - BSPCB",19-10-2025 07:00:00,25.42742023,86.13886079,SO2,18,49,37
India,Bihar,Bettiah,"Kamalnath Nagar, Bettiah - BSPCB",19-10-2025 07:00:00,26.80365,84.51954,SO2,8,32,19
India,Bihar,Katihar,"Mirchaibari, Katihar - BSPCB",19-10-2025 07:00:00,25.560083,87.553265,NH3,1,1,1
India,Bihar,Kishanganj,"SDM Office_Khagra, Kishanganj - BSPCB",19-10-2025 07:00:00,26.0881305,87.93840336,PM2.5,NA,NA,NA
India,Bihar,Kishanganj,"SDM Office_Khagra, Kishanganj - BSPCB",19-10-2025 07:00:00,26.0881305,87.93840336,NH3,2,3,3
India,Bihar,Kishanganj,"SDM Office_Khagra, Kishanganj - BSPCB",19-10-2025 07:00:00,26.0881305,87.93840336,OZONE,14,23,17
India,Bihar,Motihari,"Gandak Colony, Motihari - BSPCB",19-10-2025 07:00:00,26.63086,84.90051,PM2.5,52,67,61
India,Bihar,Motihari,"Gandak Colony, Motihari - BSPCB",19-10-2025 07:00:00,26.63086,84.90051,NH3,3,3,3
India,Andhra_Pradesh,Amaravati,"Secretariat, Amaravati - APPCB",19-10-2025 07:00:00,16.5150833,80.5181667,OZONE,8,40,12
India,Andhra_Pradesh,Anantapur,"Gulzarpet, Anantapur - APPCB",19-10-2025 07:00:00,14.675886,77.593027,NH3,5,6,5
India,Andhra_Pradesh,Anantapur,"Gulzarpet, Anantapur - APPCB",19-10-2025 07:00:00,14.675886,77.593027,OZONE,9,18,10
India,Andhra_Pradesh,Kadapa,"Yerramukkapalli, Kadapa - APPCB",19-10-2025 07:00:00,14.465052,78.824187,PM2.5,NA,NA,NA
India,Andhra_Pradesh,Kadapa,"Yerramukkapalli, Kadapa - APPCB",19-10-2025 07:00:00,14.465052,78.824187,NO2,NA,NA,NA
India,Andhra_Pradesh,Kadapa,"Yerramukkapalli, Kadapa - APPCB",19-10-2025 07:00:00,14.465052,78.824187,OZONE,NA,NA,NA
India,Bihar,Gaya,"Collectorate, Gaya - BSPCB",19-10-2025 07:00:00,24.7955,84.9994,PM2.5,68,328,198
India,Bihar,Gaya,"Collectorate, Gaya - BSPCB",19-10-2025 07:00:00,24.7955,84.9994,NO2,9,9,9
India,Bihar,Gaya,"Kareemganj, Gaya - BSPCB",19-10-2025 07:00:00,24.792403,84.992416,NH3,4,6,5
India,Bihar,Gaya,"SFTI Kusdihra, Gaya - BSPCB",19-10-2025 07:00:00,24.762518,84.982348,CO,19,39,33
India,Bihar,Hajipur,"Industrial Area, Hajipur - BSPCB",19-10-2025 07:00:00,25.697189,85.245900,PM10,74,147,116
India,Bihar,Motihari,"Gandak Colony, Motihari - BSPCB",19-10-2025 07:00:00,26.63086,84.90051,OZONE,2,2,2
India,Bihar,Muzaffarpur,"Buddha Colony, Muzaffarpur - BSPCB",19-10-2025 07:00:00,26.11442,85.39813,NO2,7,24,16
India,Bihar,Muzaffarpur,"Buddha Colony, Muzaffarpur - BSPCB",19-10-2025 07:00:00,26.11442,85.39813,SO2,3,6,4
India,Bihar,Muzaffarpur,"Muzaffarpur Collectorate, Muzaffarpur - BSPCB",19-10-2025 07:00:00,26.1209,85.3647,NO2,NA,NA,NA
India,Assam,Nalbari,"Bata Chowk, Nalbari - PCBA",19-10-2025 07:00:00,26.446912,91.439057,OZONE,4,12,12
India,Assam,Silchar,"Tarapur, Silchar - PCBA",19-10-2025 07:00:00,24.82827,92.79525,NO2,18,21,19
India,Assam,Silchar,"Tarapur, Silchar - PCBA",19-10-2025 07:00:00,24.82827,92.79525,OZONE,1,28,1
India,Assam,Sivasagar,"Girls College, Sivasagar - PCBA",19-10-2025 07:00:00,26.987634,94.636574,OZONE,2,7,2
India,Andhra_Pradesh,Rajamahendravaram,"Anand Kala Kshetram, Rajamahendravaram - APPCB",19-10-2025 07:00:00,16.9872867,81.7363176,OZONE,2,306,50
India,Andhra_Pradesh,Tirupati,"Vaikuntapuram, Tirupati - APPCB",19-10-2025 07:00:00,13.615387,79.409230,PM2.5,NA,NA,NA
India,Chandigarh,Chandigarh,"Sector-25, Chandigarh - CPCC",19-10-2025 07:00:00,30.751462,76.762879,PM2.5,3,124,74
India,Chandigarh,Chandigarh,"Sector-25, Chandigarh - CPCC",19-10-2025 07:00:00,30.751462,76.762879,SO2,1,11,8
India,Chandigarh,Chandigarh,"Sector-25, Chandigarh - CPCC",19-10-2025 07:00:00,30.751462,76.762879,CO,16,56,31
India,Chhattisgarh,Bhilai,"32Bungalows, Bhilai - CECB",19-10-2025 07:00:00,21.194815,81.314770,NH3,5,5,5
India,Chhattisgarh,Bhilai,"32Bungalows, Bhilai - CECB",19-10-2025 07:00:00,21.194815,81.314770,CO,12,102,39
India,Chhattisgarh,Bhilai,"Civic Center, Bhilai - Bhilai Steel Plant",19-10-2025 07:00:00,21.185571,81.343175,PM10,48,114,77
India,Chhattisgarh,Bhilai,"Civic Center, Bhilai - Bhilai Steel Plant",19-10-2025 07:00:00,21.185571,81.343175,NH3,3,3,3
India,Chhattisgarh,Bhilai,"Civic Center, Bhilai - Bhilai Steel Plant",19-10-2025 07:00:00,21.185571,81.343175,OZONE,4,22,10
India,Chhattisgarh,Bhilai,"Hathkhoj, Bhilai - CECB",19-10-2025 07:00:00,21.224231,81.408350,PM10,33,98,58
India,Bihar,Patna,"Govt. High School Shikarpur, Patna - BSPCB",19-10-2025 07:00:00,25.592539,85.227158,PM10,35,54,44
India,Bihar,Patna,"Govt. High School Shikarpur, Patna - BSPCB",19-10-2025 07:00:00,25.592539,85.227158,SO2,7,15,9
India,Bihar,Patna,"IGSC Planetarium Complex, Patna - BSPCB",19-10-2025 07:00:00,25.610369,85.132568,SO2,1,35,15
India,Bihar,Patna,"Muradpur, Patna - BSPCB",19-10-2025 07:00:00,25.619651,85.147382,PM2.5,47,56,51
India,Bihar,Patna,"Muradpur, Patna - BSPCB",19-10-2025 07:00:00,25.619651,85.147382,SO2,8,10,9
India,Bihar,Patna,"Rajbansi Nagar, Patna - BSPCB",19-10-2025 07:00:00,25.599486,85.113666,PM2.5,57,96,74
India,Bihar,Patna,"Rajbansi Nagar, Patna - BSPCB",19-10-2025 07:00:00,25.599486,85.113666,CO,19,70,46
India,Chhattisgarh,Bhilai,"Hathkhoj, Bhilai - CECB",19-10-2025 07:00:00,21.224231,81.408350,SO2,11,31,21
India,Chhattisgarh,Bhilai,"Hathkhoj, Bhilai - CECB",19-10-2025 07:00:00,21.224231,81.408350,OZONE,12,51,15
India,Chhattisgarh,Bilaspur,"Mangala, Bilaspur - NTPC",19-10-2025 07:00:00,22.08815,82.13737,SO2,16,37,27
India,Chhattisgarh,Chhal,"Nawapara SECL Colony, Chhal - CECB",19-10-2025 07:00:00,22.118125,83.140608,PM10,36,132,71
India,Chhattisgarh,Chhal,"Nawapara SECL Colony, Chhal - CECB",19-10-2025 07:00:00,22.118125,83.140608,CO,20,32,26
India,Chhattisgarh,Korba,"Urja Nagar, Korba - CECB",19-10-2025 07:00:00,22.348441,82.549611,CO,18,33,23
India,Delhi,Delhi,"Chandni Chowk, Delhi - IITM",19-10-2025 07:00:00,28.656756,77.227234,SO2,7,43,24
India,Delhi,Delhi,"Chandni Chowk, Delhi - IITM",19-10-2025 07:00:00,28.656756,77.227234,OZONE,2,119,2
India,Delhi,Delhi,"DTU, Delhi - CPCB",19-10-2025 07:00:00,28.7500499,77.1112615,PM2.5,71,176,104
India,Delhi,Delhi,"DTU, Delhi - CPCB",19-10-2025 07:00:00,28.7500499,77.1112615,NO2,35,71,49
India,Delhi,Delhi,"DTU, Delhi - CPCB",19-10-2025 07:00:00,28.7500499,77.1112615,OZONE,15,26,17
India,Delhi,Delhi,"Dr. Karni Singh Shooting Range, Delhi - DPCC",19-10-2025 07:00:00,28.498571,77.264840,NO2,49,123,88
India,Delhi,Delhi,"Dr. Karni Singh Shooting Range, Delhi - DPCC",19-10-2025 07:00:00,28.498571,77.264840,OZONE,5,166,6
India,Delhi,Delhi,"Anand Vihar, Delhi - DPCC",19-10-2025 07:00:00,28.647622,77.3158090,CO,62,113,109
India,Delhi,Delhi,"Ashok Vihar, Delhi - DPCC",19-10-2025 07:00:00,28.695381,77.181665,PM2.5,150,391,304
India,Delhi,Delhi,"Aya Nagar, Delhi - IMD",19-10-2025 07:00:00,28.4706914,77.1099364,PM10,141,292,203
India,Delhi,Delhi,"Aya Nagar, Delhi - IMD",19-10-2025 07:00:00,28.4706914,77.1099364,OZONE,10,302,14
India,Delhi,Delhi,"Bawana, Delhi - DPCC",19-10-2025 07:00:00,28.776200,77.051074,PM10,135,265,187
India,Chhattisgarh,Raipur,"Krishak Nagar, Raipur - CECB",19-10-2025 07:00:00,21.237755,81.705301,OZONE,2,57,2
India,Chhattisgarh,Raipur,"Siltara Phase-II, Raipur - CECB",19-10-2025 07:00:00,21.371751,81.664929,SO2,2,9,6
India,Chhattisgarh,Raipur,"Siltara Phase-II, Raipur - CECB",19-10-2025 07:00:00,21.371751,81.664929,CO,NA,NA,NA
India,Chhattisgarh,Raipur,"Siltara Phase-II, Raipur - CECB",19-10-2025 07:00:00,21.371751,81.664929,OZONE,3,13,5
India,Bihar,Patna,"Samanpura, Patna - BSPCB",19-10-2025 07:00:00,25.596727,85.085624,CO,16,76,45
India,Bihar,Patna,"Samanpura, Patna - BSPCB",19-10-2025 07:00:00,25.596727,85.085624,OZONE,15,152,20
India,Bihar,Saharsa,"Police Line, Saharsa - BSPCB",19-10-2025 07:00:00,25.892357,86.590325,SO2,6,20,14
India,Chhattisgarh,Milupara,"Govt. Higher Secondary School, Milupara - CECB",19-10-2025 07:00:00,22.1910172,83.5197009,PM10,43,115,80
India,Chhattisgarh,Raipur,"AIIMS, Raipur - CECB",19-10-2025 07:00:00,21.258815,81.578979,NH3,4,5,4
India,Chandigarh,Chandigarh,"Sector 22, Chandigarh - CPCC",19-10-2025 07:00:00,30.735567,76.775714,PM2.5,42,193,91
India,Chandigarh,Chandigarh,"Sector 22, Chandigarh - CPCC",19-10-2025 07:00:00,30.735567,76.775714,NH3,10,14,11
India,Delhi,Delhi,"Dwarka-Sector 8, Delhi - DPCC ",19-10-2025 07:00:00,28.5710274,77.0719006,SO2,14,18,16
India,Delhi,Delhi,"IGI Airport (T3), Delhi - IMD",19-10-2025 07:00:00,28.5627763,77.1180053,NO2,61,195,140
India,Delhi,Delhi,"IHBAS, Dilshad Garden, Delhi - CPCB",19-10-2025 07:00:00,28.6811736,77.3025234,PM10,131,444,242
India,Delhi,Delhi,"IHBAS, Dilshad Garden, Delhi - CPCB",19-10-2025 07:00:00,28.6811736,77.3025234,CO,27,91,72
India,Delhi,Delhi,"IHBAS, Dilshad Garden, Delhi - CPCB",19-10-2025 07:00:00,28.6811736,77.3025234,OZONE,4,67,6
India,Delhi,Delhi,"ITO, Delhi - CPCB",19-10-2025 07:00:00,28.628624,77.241060,PM10,104,204,163
India,Delhi,Delhi,"ITO, Delhi - CPCB",19-10-2025 07:00:00,28.628624,77.241060,NO2,80,115,92
India,Delhi,Delhi,"ITO, Delhi - CPCB",19-10-2025 07:00:00,28.628624,77.241060,NH3,4,9,6
India,Delhi,Delhi,"ITO, Delhi - CPCB",19-10-2025 07:00:00,28.628624,77.241060,SO2,8,30,21
India,Delhi,Delhi,"Sri Aurobindo Marg, Delhi - DPCC",19-10-2025 07:00:00,28.531346,77.190156,NH3,4,5,4
India,Delhi,Delhi,"Sri Aurobindo Marg, Delhi - DPCC",19-10-2025 07:00:00,28.531346,77.190156,SO2,1,10,6
India,Delhi,Delhi,"Vivek Vihar, Delhi - DPCC",19-10-2025 07:00:00,28.672342,77.315260,NO2,26,115,67
India,Delhi,Delhi,"Vivek Vihar, Delhi - DPCC",19-10-2025 07:00:00,28.672342,77.315260,SO2,12,34,20
India,Delhi,Delhi,"Vivek Vihar, Delhi - DPCC",19-10-2025 07:00:00,28.672342,77.315260,OZONE,3,31,4
India,Delhi,Delhi,"Wazirpur, Delhi - DPCC",19-10-2025 07:00:00,28.699793,77.165453,NH3,14,17,16
India,Gujarat,Ahmedabad,"Chandkheda, Ahmedabad - IITM",19-10-2025 07:00:00,23.107969,72.574648,SO2,11,46,20
India,Gujarat,Ahmedabad,"Chandkheda, Ahmedabad - IITM",19-10-2025 07:00:00,23.107969,72.574648,CO,18,116,44
India,Gujarat,Ahmedabad,"SVPI Airport Hansol, Ahmedabad - IITM",19-10-2025 07:00:00,23.076793,72.627874,PM10,52,103,80
India,Gujarat,Ahmedabad,"SVPI Airport Hansol, Ahmedabad - IITM",19-10-2025 07:00:00,23.076793,72.627874,SO2,8,14,10
India,Gujarat,Ahmedabad,"SVPI Airport Hansol, Ahmedabad - IITM",19-10-2025 07:00:00,23.076793,72.627874,CO,39,86,54
India,Gujarat,Ankleshwar,"GIDC, Ankleshwar - GPCB",19-10-2025 07:00:00,21.613267,73.010555,PM2.5,88,297,177
India,Gujarat,Ankleshwar,"GIDC, Ankleshwar - GPCB",19-10-2025 07:00:00,21.613267,73.010555,NO2,27,28,28
India,Gujarat,Ankleshwar,"GIDC, Ankleshwar - GPCB",19-10-2025 07:00:00,21.613267,73.010555,SO2,64,66,65
India,Gujarat,Ankleshwar,"GIDC, Ankleshwar - GPCB",19-10-2025 07:00:00,21.613267,73.010555,CO,48,90,63
India,Gujarat,Ahmedabad,"Gyaspur, Ahmedabad - IITM",19-10-2025 07:00:00,22.977134,72.553024,NH3,1,13,4
India,Gujarat,Ahmedabad,"Maninagar, Ahmedabad - GPCB",19-10-2025 07:00:00,23.002657,72.591912,OZONE,38,133,54
India,Gujarat,Ahmedabad,"Raikhad, Ahmedabad - IITM",19-10-2025 07:00:00,23.020509,72.579261,PM10,93,176,133
India,Gujarat,Ahmedabad,"Raikhad, Ahmedabad - IITM",19-10-2025 07:00:00,23.020509,72.579261,NH3,8,18,13
India,Gujarat,Ahmedabad,"SAC ISRO Bopal, Ahmedabad - IITM",19-10-2025 07:00:00,23.041137,72.456691,PM10,91,191,130
India,Delhi,Delhi,"North Campus, DU, Delhi - IMD",19-10-2025 07:00:00,28.6573814,77.1585447,PM2.5,147,374,278
India,Delhi,Delhi,"North Campus, DU, Delhi - IMD",19-10-2025 07:00:00,28.6573814,77.1585447,PM10,128,313,213
India,Delhi,Delhi,"Okhla Phase-2, Delhi - DPCC",19-10-2025 07:00:00,28.530785,77.271255,PM2.5,167,375,283
India,Delhi,Delhi,"Okhla Phase-2, Delhi - DPCC",19-10-2025 07:00:00,28.530785,77.271255,PM10,152,410,257
India,Delhi,Delhi,"Okhla Phase-2, Delhi - DPCC",19-10-2025 07:00:00,28.530785,77.271255,OZONE,15,306,22
India,Delhi,Delhi,"Pusa, Delhi - DPCC",19-10-2025 07:00:00,28.639652,77.146275,PM10,149,435,229
India,Delhi,Delhi,"Pusa, Delhi - IMD",19-10-2025 07:00:00,28.636110,77.173332,PM2.5,NA,NA,NA
India,Delhi,Delhi,"R K Puram, Delhi - DPCC",19-10-2025 07:00:00,28.563262,77.186937,PM2.5,167,422,322
India,Delhi,Delhi,"Rohini, Delhi - DPCC",19-10-2025 07:00:00,28.732528,77.119920,PM2.5,150,361,292
India,Delhi,Delhi,"Shadipur, Delhi - CPCB",19-10-2025 07:00:00,28.6514781,77.1473105,NH3,7,20,14
India,Delhi,Delhi,"Sirifort, Delhi - CPCB",19-10-2025 07:00:00,28.5504249,77.2159377,PM2.5,243,365,317
India,Delhi,Delhi,"Sonia Vihar, Delhi - DPCC",19-10-2025 07:00:00,28.710508,77.249485,PM2.5,143,354,267
India,Delhi,Delhi,"Sonia Vihar, Delhi - DPCC",19-10-2025 07:00:00,28.710508,77.249485,NH3,5,6,6
India,Delhi,Delhi,"Jawaharlal Nehru Stadium, Delhi - DPCC",19-10-2025 07:00:00,28.580280,77.233829,SO2,5,37,18
India,Delhi,Delhi,"Jawaharlal Nehru Stadium, Delhi - DPCC",19-10-2025 07:00:00,28.580280,77.233829,OZONE,2,136,128
India,Delhi,Delhi,"Lodhi Road, Delhi - IMD",19-10-2025 07:00:00,28.5918245,77.2273074,PM2.5,187,326,269
India,Delhi,Delhi,"Lodhi Road, Delhi - IMD",19-10-2025 07:00:00,28.5918245,77.2273074,PM10,152,305,193
India,Delhi,Delhi,"Mundka, Delhi - DPCC",19-10-2025 07:00:00,28.684678,77.076574,NH3,5,7,6
India,Delhi,Delhi,"Najafgarh, Delhi - DPCC",19-10-2025 07:00:00,28.570173,76.933762,SO2,3,16,7
India,Delhi,Delhi,"Najafgarh, Delhi - DPCC",19-10-2025 07:00:00,28.570173,76.933762,OZONE,7,95,8
India,Haryana,Karnal,"Sector-12, Karnal - HSPCB",19-10-2025 07:00:00,29.695300,77.002700,CO,46,56,51
India,Haryana,Karnal,"Sector-12, Karnal - HSPCB",19-10-2025 07:00:00,29.695300,77.002700,OZONE,26,26,26
India,Haryana,Kurukshetra,"Sector-7, Kurukshetra - HSPCB",19-10-2025 07:00:00,29.966942,76.875879,PM2.5,78,267,161
India,Haryana,Mandikhera,"General Hospital, Mandikhera - HSPCB",19-10-2025 07:00:00,27.9002,76.9938,PM10,NA,NA,NA
India,Haryana,Mandikhera,"General Hospital, Mandikhera - HSPCB",19-10-2025 07:00:00,27.9002,76.9938,OZONE,16,17,16
India,Haryana,Manesar,"Sector-2 IMT, Manesar - HSPCB",19-10-2025 07:00:00,28.360699,76.936090,PM10,103,412,189
India,Haryana,Narnaul,"Shastri Nagar, Narnaul - HSPCB",19-10-2025 07:00:00,28.060249,76.113115,PM10,52,221,147
India,Haryana,Narnaul,"Shastri Nagar, Narnaul - HSPCB",19-10-2025 07:00:00,28.060249,76.113115,NO2,24,49,40
India,Haryana,Narnaul,"Shastri Nagar, Narnaul - HSPCB",19-10-2025 07:00:00,28.060249,76.113115,OZONE,10,39,12
India,Haryana,Palwal,"Shyam Nagar, Palwal - HSPCB",19-10-2025 07:00:00,28.1485564,77.3320667,NO2,23,24,24
India,Haryana,Palwal,"Shyam Nagar, Palwal - HSPCB",19-10-2025 07:00:00,28.1485564,77.3320667,CO,28,28,28
India,Haryana,Panchgaon,"Amity University, Panchgaon - IITM",19-10-2025 07:00:00,28.3153,76.9143,NH3,13,22,18
India,Haryana,Panchgaon,"Amity University, Panchgaon - IITM",19-10-2025 07:00:00,28.3153,76.9143,OZONE,7,111,16
India,Haryana,Panchkula,"Sector-6, Panchkula - HSPCB ",19-10-2025 07:00:00,30.7057778,76.8531805555555,NO2,23,27,25
India,Haryana,Panchkula,"Sector-6, Panchkula - HSPCB ",19-10-2025 07:00:00,30.7057778,76.8531805555555,CO,17,22,20
India,Haryana,Rohtak,"MD University, Rohtak - HSPCB",19-10-2025 07:00:00,28.52123,76.37138,PM2.5,NA,NA,NA
India,Himachal Pradesh,Baddi,"HIMUDA Complex Phase-1, Baddi - HPPCB",19-10-2025 07:00:00,30.943887,76.801991,OZONE,49,168,77
India,Jammu_and_Kashmir,Srinagar,"Rajbagh, Srinagar - JKSPCB",19-10-2025 07:00:00,34.066206,74.819820,OZONE,NA,NA,NA
India,Jharkhand,Dhanbad,"Sardar Patel Nagar, Dhanbad - JSPCB",19-10-2025 07:00:00,23.80569,86.44268,PM2.5,36,342,124
India,Karnataka,Bagalkot,"Vidayagiri, Bagalkot - KSPCB",19-10-2025 07:00:00,16.172806,75.659694,PM2.5,33,34,34
India,Karnataka,Bengaluru,"BTM Layout, Bengaluru - CPCB",19-10-2025 07:00:00,12.9135218,77.5950804,PM2.5,25,31,26
India,Karnataka,Bengaluru,"BTM Layout, Bengaluru - CPCB",19-10-2025 07:00:00,12.9135218,77.5950804,NO2,22,22,22
India,Haryana,Bahadurgarh,"Arya Nagar, Bahadurgarh - HSPCB",19-10-2025 07:00:00,28.6701,76.9254,CO,24,50,45
India,Haryana,Bhiwani,"H.B. Colony, Bhiwani - HSPCB",19-10-2025 07:00:00,28.806223,76.141105,PM2.5,4,12,7
India,Haryana,Charkhi Dadri,"Mini Secretariat, Charkhi Dadri - HSPCB",19-10-2025 07:00:00,28.593883,76.270653,PM2.5,NA,NA,NA
India,Haryana,Charkhi Dadri,"Mini Secretariat, Charkhi Dadri - HSPCB",19-10-2025 07:00:00,28.593883,76.270653,CO,11,25,17
India,Haryana,Dharuhera,"Municipal Corporation Office, Dharuhera -  HSPCB",19-10-2025 07:00:00,28.206800,76.799700,PM10,67,163,124
India,Haryana,Faridabad,"New Industrial Town, Faridabad - HSPCB",19-10-2025 07:00:00,28.39072,77.30059,PM2.5,118,143,133
India,Haryana,Faridabad,"New Industrial Town, Faridabad - HSPCB",19-10-2025 07:00:00,28.39072,77.30059,CO,10,12,11
India,Haryana,Faridabad,"Sector 30, Faridabad - HSPCB",19-10-2025 07:00:00,28.4417,77.3217,NO2,37,39,38
India,Haryana,Fatehabad,"Huda Sector, Fatehabad - HSPCB",19-10-2025 07:00:00,29.503664,75.467934,PM2.5,117,237,174
India,Haryana,Fatehabad,"Huda Sector, Fatehabad - HSPCB",19-10-2025 07:00:00,29.503664,75.467934,OZONE,10,34,19
