country,state,city,station,last_update,latitude,longitude,pollutant_id,min_value,max_value,avg_value
India,Andhra_Pradesh,Chittoor,"Gangineni Cheruvu, Chittoor - APPCB",19-11-2025 07:00:00,13.204880,79.097889,NH3,5,6,6
India,Andhra_Pradesh,Kadapa,"Yerramukkapalli, Kadapa - APPCB",19-11-2025 07:00:00,14.465052,78.824187,PM10,63,73,65
India,Andhra_Pradesh,Kadapa,"Yerramukkapalli, Kadapa - APPCB",19-11-2025 07:00:00,14.465052,78.824187,CO,27,38,29
India,Andhra_Pradesh,Rajamahendravaram,"Anand Kala Kshetram, Rajamahendravaram - APPCB",19-11-2025 07:00:00,16.9872867,81.7363176,PM2.5,49,103,80
India,Andhra_Pradesh,Rajamahendravaram,"Anand Kala Kshetram, Rajamahendravaram - APPCB",19-11-2025 07:00:00,16.9872867,81.7363176,PM10,64,126,99
India,Andhra_Pradesh,Rajamahendravaram,"Anand Kala Kshetram, Rajamahendravaram - APPCB",19-11-2025 07:00:00,16.9872867,81.7363176,NO2,11,38,23
India,Andhra_Pradesh,Rajamahendravaram,"Anand Kala Kshetram, Rajamahendravaram - APPCB",19-11-2025 07:00:00,16.9872867,81.7363176,NH3,1,3,2
India,Andhra_Pradesh,Tirumala,"Toll Gate, Tirumala - APPCB",19-11-2025 07:00:00,13.67,79.35,PM2.5,22,91,49
India,Andhra_Pradesh,Visakhapatnam,"GVM Corporation, Visakhapatnam - APPCB",19-11-2025 07:00:00,17.72,83.3,OZONE,46,144,83
India,Assam,Byrnihat,"Central Academy for SFS, Byrnihat - PCBA",19-11-2025 07:00:00,26.071318,91.87488,NH3,4,4,4
India,Assam,Guwahati,"IITG, Guwahati - PCBA",19-11-2025 07:00:00,26.2028636,91.70046436,PM2.5,23,105,55
India,Assam,Guwahati,"IITG, Guwahati - PCBA",19-11-2025 07:00:00,26.2028636,91.70046436,NO2,1,7,3
India,Andhra_Pradesh,Amaravati,"Secretariat, Amaravati - APPCB",19-11-2025 07:00:00,16.5150833,80.5181667,PM10,75,152,111
India,Andhra_Pradesh,Amaravati,"Secretariat, Amaravati - APPCB",19-11-2025 07:00:00,16.5150833,80.5181667,CO,20,38,29
India,Andhra_Pradesh,Amaravati,"Secretariat, Amaravati - APPCB",19-11-2025 07:00:00,16.5150833,80.5181667,OZONE,7,54,18
India,Andhra_Pradesh,Anantapur,"Gulzarpet, Anantapur - APPCB",19-11-2025 07:00:00,14.675886,77.593027,NO2,14,20,19
India,Andhra_Pradesh,Anantapur,"Gulzarpet, Anantapur - APPCB",19-11-2025 07:00:00,14.675886,77.593027,NH3,4,5,4
India,Bihar,Begusarai,"Lohiyanagar, Begusarai - BSPCB",19-11-2025 07:00:00,25.42742023,86.13886079,PM10,14,162,77
India,Bihar,Begusarai,"Lohiyanagar, Begusarai - BSPCB",19-11-2025 07:00:00,25.42742023,86.13886079,CO,62,86,78
India,Bihar,Bettiah,"Kamalnath Nagar, Bettiah - BSPCB",19-11-2025 07:00:00,26.80365,84.51954,PM10,38,157,106
India,Bihar,Bhagalpur,"DM Office_Kachari Chowk, Bhagalpur - BSPCB",19-11-2025 07:00:00,25.251013,86.989001,PM10,NA,NA,NA
India,Assam,Silchar,"Tarapur, Silchar - PCBA",19-11-2025 07:00:00,24.82827,92.79525,PM10,42,88,56
India,Assam,Silchar,"Tarapur, Silchar - PCBA",19-11-2025 07:00:00,24.82827,92.79525,NH3,1,1,1
India,Assam,Sivasagar,"Girls College, Sivasagar - PCBA",19-11-2025 07:00:00,26.987634,94.636574,PM2.5,10,73,40
India,Assam,Sivasagar,"Girls College, Sivasagar - PCBA",19-11-2025 07:00:00,26.987634,94.636574,NO2,21,35,26
India,Assam,Sivasagar,"Girls College, Sivasagar - PCBA",19-11-2025 07:00:00,26.987634,94.636574,SO2,5,14,10
India,Assam,Guwahati,"LGBI Airport, Guwahati - PCBA",19-11-2025 07:00:00,26.10887,91.589544,NH3,6,6,6
India,Assam,Guwahati,"LGBI Airport, Guwahati - PCBA",19-11-2025 07:00:00,26.10887,91.589544,CO,24,68,35
India,Assam,Guwahati,"Pan Bazaar, Guwahati - PCBA",19-11-2025 07:00:00,26.187500,91.744194,CO,7,64,39
India,Assam,Guwahati,"Railway Colony, Guwahati - PCBA",19-11-2025 07:00:00,26.181742,91.78063,CO,22,88,56
India,Bihar,Gaya,"SFTI Kusdihra, Gaya - BSPCB",19-11-2025 07:00:00,24.762518,84.982348,CO,22,46,43
India,Bihar,Gaya,"SFTI Kusdihra, Gaya - BSPCB",19-11-2025 07:00:00,24.762518,84.982348,OZONE,12,50,14
India,Bihar,Katihar,"Mirchaibari, Katihar - BSPCB",19-11-2025 07:00:00,25.560083,87.553265,NH3,1,1,1
India,Bihar,Katihar,"Mirchaibari, Katihar - BSPCB",19-11-2025 07:00:00,25.560083,87.553265,OZONE,4,8,5
India,Bihar,Bihar Sharif,"D M Colony, Bihar Sharif - BSPCB",19-11-2025 07:00:00,25.204762,85.514960,PM10,29,81,47
India,Bihar,Gaya,"Kareemganj, Gaya - BSPCB",19-11-2025 07:00:00,24.792403,84.992416,NH3,4,6,5
India,Bihar,Gaya,"Kareemganj, Gaya - BSPCB",19-11-2025 07:00:00,24.792403,84.992416,OZONE,2,38,5
India,Andhra_Pradesh,Vijayawada,"HB Colony, Vijayawada - APPCB",19-11-2025 07:00:00,16.536107,80.594233,NH3,4,4,4
India,Andhra_Pradesh,Vijayawada,"Rajiv Gandhi Park, Vijayawada - APPCB",19-11-2025 07:00:00,16.509717,80.612222,NO2,44,93,65
India,Bihar,Bhagalpur,"Mayaganj, Bhagalpur - BSPCB",19-11-2025 07:00:00,25.265194,87.012947,PM10,31,134,73
India,Bihar,Bhagalpur,"Mayaganj, Bhagalpur - BSPCB",19-11-2025 07:00:00,25.265194,87.012947,NH3,1,13,7
India,Bihar,Patna,"DRM Office Danapur, Patna - BSPCB",19-11-2025 07:00:00,25.586562,85.043586,PM2.5,90,221,161
India,Bihar,Patna,"DRM Office Danapur, Patna - BSPCB",19-11-2025 07:00:00,25.586562,85.043586,PM10,77,188,136
India,Bihar,Patna,"DRM Office Danapur, Patna - BSPCB",19-11-2025 07:00:00,25.586562,85.043586,NH3,7,13,10
India,Bihar,Patna,"Govt. High School Shikarpur, Patna - BSPCB",19-11-2025 07:00:00,25.592539,85.227158,SO2,9,12,10
India,Bihar,Patna,"IGSC Planetarium Complex, Patna - BSPCB",19-11-2025 07:00:00,25.610369,85.132568,SO2,7,21,19
India,Bihar,Muzaffarpur,"Buddha Colony, Muzaffarpur - BSPCB",19-11-2025 07:00:00,26.11442,85.39813,CO,2,132,14
India,Bihar,Muzaffarpur,"MIT-Daudpur Kothi, Muzaffarpur - BSPCB",19-11-2025 07:00:00,26.1403345,85.3650192,NO2,17,18,17
India,Bihar,Muzaffarpur,"MIT-Daudpur Kothi, Muzaffarpur - BSPCB",19-11-2025 07:00:00,26.1403345,85.3650192,NH3,1,1,1
India,Bihar,Muzaffarpur,"MIT-Daudpur Kothi, Muzaffarpur - BSPCB",19-11-2025 07:00:00,26.1403345,85.3650192,SO2,9,10,10
India,Bihar,Kishanganj,"SDM Office_Khagra, Kishanganj - BSPCB",19-11-2025 07:00:00,26.0881305,87.93840336,PM10,32,434,149
India,Bihar,Kishanganj,"SDM Office_Khagra, Kishanganj - BSPCB",19-11-2025 07:00:00,26.0881305,87.93840336,SO2,6,10,8
India,Bihar,Manguraha,"Forest Rest House, Manguraha - BSPCB",19-11-2025 07:00:00,27.308328,84.531742,OZONE,9,16,11
India,Bihar,Manguraha,"Forest Rest House, Manguraha - BSPCB",19-11-2025 07:00:00,27.308328,84.531742,NO2,3,12,5
India,Bihar,Muzaffarpur,"Buddha Colony, Muzaffarpur - BSPCB",19-11-2025 07:00:00,26.11442,85.39813,NO2,25,134,46
India,Bihar,Motihari,"Gandak Colony, Motihari - BSPCB",19-11-2025 07:00:00,26.63086,84.90051,OZONE,2,8,2
India,Bihar,Munger,"Town Hall, Munger - BSPCB",19-11-2025 07:00:00,25.376776,86.471523,NH3,5,8,6
India,Bihar,Patna,"Muradpur, Patna - BSPCB",19-11-2025 07:00:00,25.619651,85.147382,NH3,4,5,4
India,Bihar,Purnia,"Mariam Nagar, Purnia - BSPCB",19-11-2025 07:00:00,25.366336,87.117468,OZONE,18,30,20
India,Bihar,Purnia,"Mariam Nagar, Purnia - BSPCB",19-11-2025 07:00:00,25.366336,87.117468,CO,28,101,52
India,Bihar,Patna,"Samanpura, Patna - BSPCB",19-11-2025 07:00:00,25.596727,85.085624,PM2.5,34,274,146
India,Bihar,Patna,"Rajbansi Nagar, Patna - BSPCB",19-11-2025 07:00:00,25.599486,85.113666,NH3,2,8,6
India,Bihar,Patna,"Rajbansi Nagar, Patna - BSPCB",19-11-2025 07:00:00,25.599486,85.113666,OZONE,6,6,6
India,Bihar,Patna,"Samanpura, Patna - BSPCB",19-11-2025 07:00:00,25.596727,85.085624,OZONE,1,147,4
India,Bihar,Patna,"Rajbansi Nagar, Patna - BSPCB",19-11-2025 07:00:00,25.599486,85.113666,SO2,6,8,8
India,Bihar,Rajgir,"Dangi Tola, Rajgir - BSPCB",19-11-2025 07:00:00,25.03280,85.41948,NO2,6,11,9
India,Bihar,Patna,"Samanpura, Patna - BSPCB",19-11-2025 07:00:00,25.596727,85.085624,NH3,6,7,6
India,Chandigarh,Chandigarh,"Sector 22, Chandigarh - CPCC",19-11-2025 07:00:00,30.735567,76.775714,PM10,34,148,90
India,Chandigarh,Chandigarh,"Sector 22, Chandigarh - CPCC",19-11-2025 07:00:00,30.735567,76.775714,NO2,4,39,17
India,Chandigarh,Chandigarh,"Sector 22, Chandigarh - CPCC",19-11-2025 07:00:00,30.735567,76.775714,NH3,6,10,8
India,Chandigarh,Chandigarh,"Sector-25, Chandigarh - CPCC",19-11-2025 07:00:00,30.751462,76.762879,PM10,33,132,95
India,Chandigarh,Chandigarh,"Sector-25, Chandigarh - CPCC",19-11-2025 07:00:00,30.751462,76.762879,NO2,12,53,24
India,Chandigarh,Chandigarh,"Sector-53, Chandigarh - CPCC",19-11-2025 07:00:00,30.719859,76.738637,NO2,24,163,68
India,Chhattisgarh,Korba,"Urja Nagar, Korba - CECB",19-11-2025 07:00:00,22.348441,82.549611,CO,22,44,31
India,Chhattisgarh,Milupara,"Govt. Higher Secondary School, Milupara - CECB",19-11-2025 07:00:00,22.1910172,83.5197009,OZONE,9,126,11
India,Chhattisgarh,Raipur,"AIIMS, Raipur - CECB",19-11-2025 07:00:00,21.258815,81.578979,PM2.5,18,62,39
India,Chhattisgarh,Raipur,"AIIMS, Raipur - CECB",19-11-2025 07:00:00,21.258815,81.578979,NO2,57,99,71
India,Chhattisgarh,Bhilai,"32Bungalows, Bhilai - CECB",19-11-2025 07:00:00,21.194815,81.314770,SO2,5,75,26
India,Chhattisgarh,Bhilai,"32Bungalows, Bhilai - CECB",19-11-2025 07:00:00,21.194815,81.314770,CO,22,82,46
India,Chhattisgarh,Bhilai,"Civic Center, Bhilai - Bhilai Steel Plant",19-11-2025 07:00:00,21.185571,81.343175,PM2.5,62,184,102
India,Chhattisgarh,Bhilai,"Hathkhoj, Bhilai - CECB",19-11-2025 07:00:00,21.224231,81.408350,CO,22,58,50
India,Chhattisgarh,Chhal,"Nawapara SECL Colony, Chhal - CECB",19-11-2025 07:00:00,22.118125,83.140608,CO,28,51,38
India,Chhattisgarh,Korba,"Rampur, Korba - CECB",19-11-2025 07:00:00,22.368195,82.746431,CO,20,34,30
India,Chhattisgarh,Korba,"Urja Nagar, Korba - CECB",19-11-2025 07:00:00,22.348441,82.549611,NH3,1,2,2
India,Bihar,Sasaram,"Dada Peer, Sasaram - BSPCB",19-11-2025 07:00:00,24.952822,84.002396,OZONE,16,18,17
India,Bihar,Siwan,"Chitragupta Nagar, Siwan - BSPCB",19-11-2025 07:00:00,26.2271665,84.3570427,NO2,NA,NA,NA
India,Bihar,Rajgir,"Dangi Tola, Rajgir - BSPCB",19-11-2025 07:00:00,25.03280,85.41948,SO2,6,32,21
India,Bihar,Rajgir,"Dangi Tola, Rajgir - BSPCB",19-11-2025 07:00:00,25.03280,85.41948,CO,28,109,87
India,Bihar,Samastipur,"DM Office_Kasipur, Samastipur - BSPCB",19-11-2025 07:00:00,25.859655,85.77944,NH3,2,2,2
India,Bihar,Saharsa,"Police Line, Saharsa - BSPCB",19-11-2025 07:00:00,25.892357,86.590325,PM10,7,93,52
India,Bihar,Saharsa,"Police Line, Saharsa - BSPCB",19-11-2025 07:00:00,25.892357,86.590325,SO2,11,17,14
India,Chhattisgarh,Tumidih,"OP Jindal Industrial Park, Tumidih - CECB",19-11-2025 07:00:00,22.06631475,83.33820077,SO2,5,24,8
India,Delhi,Delhi,"Alipur, Delhi - DPCC",19-11-2025 07:00:00,28.815329,77.153010,PM2.5,257,486,352
India,Delhi,Delhi,"Alipur, Delhi - DPCC",19-11-2025 07:00:00,28.815329,77.153010,SO2,5,24,13
India,Delhi,Delhi,"Anand Vihar, Delhi - DPCC",19-11-2025 07:00:00,28.647622,77.3158090,PM10,232,493,403
India,Delhi,Delhi,"Anand Vihar, Delhi - DPCC",19-11-2025 07:00:00,28.647622,77.3158090,OZONE,5,16,7
India,Delhi,Delhi,"Ashok Vihar, Delhi - DPCC",19-11-2025 07:00:00,28.695381,77.181665,NH3,1,2,1
India,Delhi,Delhi,"Aya Nagar, Delhi - IMD",19-11-2025 07:00:00,28.4706914,77.1099364,NO2,23,85,54
India,Delhi,Delhi,"Aya Nagar, Delhi - IMD",19-11-2025 07:00:00,28.4706914,77.1099364,OZONE,3,182,12
India,Delhi,Delhi,"Bawana, Delhi - DPCC",19-11-2025 07:00:00,28.776200,77.051074,NH3,6,9,7
India,Delhi,Delhi,"Burari Crossing, Delhi - IMD",19-11-2025 07:00:00,28.7256504,77.2011573,OZONE,11,201,15
India,Delhi,Delhi,"Chandni Chowk, Delhi - IITM",19-11-2025 07:00:00,28.656756,77.227234,SO2,5,30,16
India,Delhi,Delhi,"Dr. Karni Singh Shooting Range, Delhi - DPCC",19-11-2025 07:00:00,28.498571,77.264840,PM2.5,319,466,388
India,Delhi,Delhi,"Dr. Karni Singh Shooting Range, Delhi - DPCC",19-11-2025 07:00:00,28.498571,77.264840,NO2,87,122,108
India,Delhi,Delhi,"IHBAS, Dilshad Garden, Delhi - CPCB",19-11-2025 07:00:00,28.6811736,77.3025234,CO,30,94,63
India,Delhi,Delhi,"ITO, Delhi - CPCB",19-11-2025 07:00:00,28.628624,77.241060,PM2.5,86,483,384
India,Delhi,Delhi,"ITO, Delhi - CPCB",19-11-2025 07:00:00,28.628624,77.241060,OZONE,9,62,10
India,Delhi,Delhi,"Jahangirpuri, Delhi - DPCC",19-11-2025 07:00:00,28.732820,77.170633,PM2.5,318,500,442
India,Chhattisgarh,Raipur,"Bhatagaon New ISBT, Raipur - CECB",19-11-2025 07:00:00,21.219665,81.630094,PM10,32,132,86
India,Chhattisgarh,Raipur,"Bhatagaon New ISBT, Raipur - CECB",19-11-2025 07:00:00,21.219665,81.630094,NO2,4,45,24
India,Delhi,Delhi,"IHBAS, Dilshad Garden, Delhi - CPCB",19-11-2025 07:00:00,28.6811736,77.3025234,PM2.5,149,445,290
India,Delhi,Delhi,"IGI Airport (T3), Delhi - IMD",19-11-2025 07:00:00,28.5627763,77.1180053,PM10,199,429,342
India,Delhi,Delhi,"ITO, Delhi - CPCB",19-11-2025 07:00:00,28.628624,77.241060,NH3,3,6,5
India,Delhi,Delhi,"Sri Aurobindo Marg, Delhi - DPCC",19-11-2025 07:00:00,28.531346,77.190156,NH3,5,7,6
India,Delhi,Delhi,"Wazirpur, Delhi - DPCC",19-11-2025 07:00:00,28.699793,77.165453,PM10,226,500,447
India,Delhi,Delhi,"Wazirpur, Delhi - DPCC",19-11-2025 07:00:00,28.699793,77.165453,NO2,68,154,111
India,Delhi,Delhi,"Wazirpur, Delhi - DPCC",19-11-2025 07:00:00,28.699793,77.165453,SO2,6,21,13
India,Delhi,Delhi,"Wazirpur, Delhi - DPCC",19-11-2025 07:00:00,28.699793,77.165453,OZONE,3,193,6
India,Gujarat,Ahmedabad,"Chandkheda, Ahmedabad - IITM",19-11-2025 07:00:00,23.107969,72.574648,PM2.5,77,160,109
India,Gujarat,Ahmedabad,"Chandkheda, Ahmedabad - IITM",19-11-2025 07:00:00,23.107969,72.574648,NH3,7,29,15
India,Delhi,Delhi,"Shadipur, Delhi - CPCB",19-11-2025 07:00:00,28.6514781,77.1473105,NO2,84,155,118
India,Delhi,Delhi,"Shadipur, Delhi - CPCB",19-11-2025 07:00:00,28.6514781,77.1473105,CO,44,122,106
India,Delhi,Delhi,"Sirifort, Delhi - CPCB",19-11-2025 07:00:00,28.5504249,77.2159377,CO,48,122,111
India,Delhi,Delhi,"Sonia Vihar, Delhi - DPCC",19-11-2025 07:00:00,28.710508,77.249485,PM10,207,485,361
India,Delhi,Delhi,"Sonia Vihar, Delhi - DPCC",19-11-2025 07:00:00,28.710508,77.249485,NO2,35,127,67
India,Delhi,Delhi,"Sri Aurobindo Marg, Delhi - DPCC",19-11-2025 07:00:00,28.531346,77.190156,PM2.5,293,422,361
India,Delhi,Delhi,"Nehru Nagar, Delhi - DPCC",19-11-2025 07:00:00,28.567890,77.250515,OZONE,3,294,4
India,Delhi,Delhi,"North Campus, DU, Delhi - IMD",19-11-2025 07:00:00,28.6573814,77.1585447,CO,64,199,165
India,Delhi,Delhi,"Patparganj, Delhi - DPCC",19-11-2025 07:00:00,28.623763,77.287209,CO,12,109,100
India,Delhi,Delhi,"Patparganj, Delhi - DPCC",19-11-2025 07:00:00,28.623763,77.287209,OZONE,2,257,3
India,Delhi,Delhi,"Punjabi Bagh, Delhi - DPCC",19-11-2025 07:00:00,28.674045,77.131023,PM10,182,476,390
India,Delhi,Delhi,"Najafgarh, Delhi - DPCC",19-11-2025 07:00:00,28.570173,76.933762,NO2,58,142,95
India,Delhi,Delhi,"Najafgarh, Delhi - DPCC",19-11-2025 07:00:00,28.570173,76.933762,OZONE,5,22,6
India,Delhi,Delhi,"Narela, Delhi - DPCC",19-11-2025 07:00:00,28.822836,77.101981,PM2.5,311,500,426
India,Delhi,Delhi,"Narela, Delhi - DPCC",19-11-2025 07:00:00,28.822836,77.101981,NO2,32,123,74
India,Delhi,Delhi,"Nehru Nagar, Delhi - DPCC",19-11-2025 07:00:00,28.567890,77.250515,PM2.5,342,500,416
India,Delhi,Delhi,"Nehru Nagar, Delhi - DPCC",19-11-2025 07:00:00,28.567890,77.250515,NH3,11,14,12
India,Delhi,Delhi,"Jawaharlal Nehru Stadium, Delhi - DPCC",19-11-2025 07:00:00,28.580280,77.233829,PM2.5,309,446,381
India,Delhi,Delhi,"Jawaharlal Nehru Stadium, Delhi - DPCC",19-11-2025 07:00:00,28.580280,77.233829,PM10,227,447,376
India,Delhi,Delhi,"Lodhi Road, Delhi - IITM",19-11-2025 07:00:00,28.588333,77.221667,PM2.5,97,322,239
India,Delhi,Delhi,"Lodhi Road, Delhi - IMD",19-11-2025 07:00:00,28.5918245,77.2273074,PM2.5,300,401,349
India,Delhi,Delhi,"Lodhi Road, Delhi - IMD",19-11-2025 07:00:00,28.5918245,77.2273074,NO2,24,69,37
India,Gujarat,Ahmedabad,"Gyaspur, Ahmedabad - IITM",19-11-2025 07:00:00,22.977134,72.553024,NO2,43,222,100
India,Gujarat,Ahmedabad,"Maninagar, Ahmedabad - GPCB",19-11-2025 07:00:00,23.002657,72.591912,PM10,44,173,91
India,Gujarat,Ahmedabad,"Maninagar, Ahmedabad - GPCB",19-11-2025 07:00:00,23.002657,72.591912,SO2,28,46,39
India,Gujarat,Ahmedabad,"Maninagar, Ahmedabad - GPCB",19-11-2025 07:00:00,23.002657,72.591912,CO,22,62,39
India,Gujarat,Ahmedabad,"Raikhad, Ahmedabad - IITM",19-11-2025 07:00:00,23.020509,72.579261,NH3,10,33,18
India,Delhi,Delhi,"Major Dhyan Chand National Stadium, Delhi - DPCC",19-11-2025 07:00:00,28.611281,77.237738,NH3,16,23,19
India,Delhi,Delhi,"Mandir Marg, Delhi - DPCC",19-11-2025 07:00:00,28.636429,77.201067,NH3,16,28,23
India,Delhi,Delhi,"Mundka, Delhi - DPCC",19-11-2025 07:00:00,28.684678,77.076574,OZONE,1,4,1
India,Delhi,Delhi,"Jahangirpuri, Delhi - DPCC",19-11-2025 07:00:00,28.732820,77.170633,NO2,102,179,141
India,Delhi,Delhi,"Jahangirpuri, Delhi - DPCC",19-11-2025 07:00:00,28.732820,77.170633,NH3,2,12,10
India,Delhi,Delhi,"Pusa, Delhi - DPCC",19-11-2025 07:00:00,28.639652,77.146275,OZONE,NA,NA,NA
India,Delhi,Delhi,"Pusa, Delhi - IMD",19-11-2025 07:00:00,28.636110,77.173332,OZONE,14,49,27
India,Gujarat,Gandhinagar,"IIPHG Lekawada, Gandhinagar - IITM",19-11-2025 07:00:00,23.243639,72.68994,NO2,7,12,9
India,Gujarat,Gandhinagar,"IIPHG Lekawada, Gandhinagar - IITM",19-11-2025 07:00:00,23.243639,72.68994,CO,38,105,90
India,Gujarat,Gandhinagar,"IIPHG Lekawada, Gandhinagar - IITM",19-11-2025 07:00:00,23.243639,72.68994,OZONE,5,54,6
India,Gujarat,Gandhinagar,"Sector-10, Gandhinagar - GPCB",19-11-2025 07:00:00,23.221714,72.654328,PM2.5,50,149,77
India,Gujarat,Gandhinagar,"Sector-10, Gandhinagar - GPCB",19-11-2025 07:00:00,23.221714,72.654328,PM10,42,222,83
India,Gujarat,Gandhinagar,"Sector-10, Gandhinagar - GPCB",19-11-2025 07:00:00,23.221714,72.654328,OZONE,6,85,10
India,Gujarat,Surat,"Science Center, Surat - SMC",19-11-2025 07:00:00,21.170046,72.795405,NO2,1,20,10
India,Gujarat,Ankleshwar,"GIDC, Ankleshwar - GPCB",19-11-2025 07:00:00,21.613267,73.010555,SO2,25,31,26
India,Gujarat,Ankleshwar,"GIDC, Ankleshwar - GPCB",19-11-2025 07:00:00,21.613267,73.010555,OZONE,34,75,36
India,Gujarat,Gandhinagar,"IIPHG Lekawada, Gandhinagar - IITM",19-11-2025 07:00:00,23.243639,72.68994,PM10,94,134,113
India,Gujarat,Ahmedabad,"Raikhad, Ahmedabad - IITM",19-11-2025 07:00:00,23.020509,72.579261,SO2,12,24,16
India,Gujarat,Ahmedabad,"Raikhad, Ahmedabad - IITM",19-11-2025 07:00:00,23.020509,72.579261,CO,1,129,25
India,Gujarat,Ahmedabad,"Rakhial, Ahmedabad - IITM",19-11-2025 07:00:00,23.016834,72.625775,PM2.5,78,347,179
India,Gujarat,Vatva,"Phase-4 GIDC, Vatva - GPCB",19-11-2025 07:00:00,22.969611,72.643500,PM10,64,125,91
India,Gujarat,Vatva,"Phase-4 GIDC, Vatva - GPCB",19-11-2025 07:00:00,22.969611,72.643500,NH3,4,6,5
India,Gujarat,Ahmedabad,"SVPI Airport Hansol, Ahmedabad - IITM",19-11-2025 07:00:00,23.076793,72.627874,NO2,29,70,48
India,Gujarat,Ahmedabad,"SAC ISRO Bopal, Ahmedabad - IITM",19-11-2025 07:00:00,23.041137,72.456691,OZONE,1,70,4
India,Gujarat,Ahmedabad,"Rakhial, Ahmedabad - IITM",19-11-2025 07:00:00,23.016834,72.625775,OZONE,2,96,28
India,Haryana,Ambala,"Patti Mehar, Ambala - HSPCB",19-11-2025 07:00:00,30.379589,76.778328,NO2,20,25,23
India,Gujarat,Vapi,"Phase-1 GIDC, Vapi - GPCB",19-11-2025 07:00:00,20.362421,72.918013,PM10,42,116,75
India,Haryana,Charkhi Dadri,"Mini Secretariat, Charkhi Dadri - HSPCB",19-11-2025 07:00:00,28.593883,76.270653,CO,8,25,15
India,Haryana,Dharuhera,"Municipal Corporation Office, Dharuhera -  HSPCB",19-11-2025 07:00:00,28.206800,76.799700,SO2,1,15,4
India,Haryana,Ballabgarh,"Nathu Colony, Ballabgarh - HSPCB",19-11-2025 07:00:00,28.3419248,77.319699,NO2,20,20,20
India,Haryana,Ballabgarh,"Nathu Colony, Ballabgarh - HSPCB",19-11-2025 07:00:00,28.3419248,77.319699,OZONE,2,2,2
India,Haryana,Gurugram,"NISE Gwal Pahari, Gurugram - IMD",19-11-2025 07:00:00,28.422681,77.148944,PM10,197,453,303
India,Haryana,Faridabad,"New Industrial Town, Faridabad - HSPCB",19-11-2025 07:00:00,28.39072,77.30059,CO,10,12,11
India,Haryana,Faridabad,"Sector 11, Faridabad - HSPCB",19-11-2025 07:00:00,28.376058,77.315741,PM10,118,179,148
India,Haryana,Bahadurgarh,"Arya Nagar, Bahadurgarh - HSPCB",19-11-2025 07:00:00,28.6701,76.9254,OZONE,15,19,17
India,Haryana,Bahadurgarh,"Arya Nagar, Bahadurgarh - HSPCB",19-11-2025 07:00:00,28.6701,76.9254,NO2,12,14,13
India,Haryana,Ambala,"Patti Mehar, Ambala - HSPCB",19-11-2025 07:00:00,30.379589,76.778328,OZONE,48,52,50
India,Haryana,Fatehabad,"Huda Sector, Fatehabad - HSPCB",19-11-2025 07:00:00,29.503664,75.467934,SO2,1,44,19
India,Haryana,Palwal,"Shyam Nagar, Palwal - HSPCB",19-11-2025 07:00:00,28.1485564,77.3320667,PM2.5,71,127,100
India,Haryana,Palwal,"Shyam Nagar, Palwal - HSPCB",19-11-2025 07:00:00,28.1485564,77.3320667,SO2,12,13,13
India,Haryana,Panchkula,"Sector-6, Panchkula - HSPCB ",19-11-2025 07:00:00,30.7057778,76.8531805555555,NO2,24,27,25
India,Haryana,Panchkula,"Sector-6, Panchkula - HSPCB ",19-11-2025 07:00:00,30.7057778,76.8531805555555,CO,18,22,18
India,Haryana,Manesar,"Sector-2 IMT, Manesar - HSPCB",19-11-2025 07:00:00,28.360699,76.936090,OZONE,6,33,6
India,Haryana,Narnaul,"Shastri Nagar, Narnaul - HSPCB",19-11-2025 07:00:00,28.060249,76.113115,PM2.5,207,312,270
India,Haryana,Narnaul,"Shastri Nagar, Narnaul - HSPCB",19-11-2025 07:00:00,28.060249,76.113115,PM10,125,168,146
India,Haryana,Jind,"Police Lines, Jind - HSPCB",19-11-2025 07:00:00,29.307814,76.337619,CO,5,147,50
India,Haryana,Kaithal,"Rishi Nagar, Kaithal - HSPCB",19-11-2025 07:00:00,29.8006,76.4155,NO2,29,32,31
India,Haryana,Kaithal,"Rishi Nagar, Kaithal - HSPCB",19-11-2025 07:00:00,29.8006,76.4155,NH3,5,6,6
India,Haryana,Sirsa,"F-Block, Sirsa - HSPCB",19-11-2025 07:00:00,29.536400,75.015800,PM10,30,151,112
India,Haryana,Sirsa,"F-Block, Sirsa - HSPCB",19-11-2025 07:00:00,29.536400,75.015800,NO2,13,25,18
India,Haryana,Sonipat,"Murthal, Sonipat - HSPCB",19-11-2025 07:00:00,29.027200,77.062100,PM2.5,199,450,344
India,Haryana,Gurugram,"Teri Gram, Gurugram - HSPCB",19-11-2025 07:00:00,28.4275,77.1465,PM10,113,253,155
India,Haryana,Gurugram,"Teri Gram, Gurugram - HSPCB",19-11-2025 07:00:00,28.4275,77.1465,NO2,2,62,18
India,Haryana,Gurugram,"NISE Gwal Pahari, Gurugram - IMD",19-11-2025 07:00:00,28.422681,77.148944,NO2,18,67,28
India,Haryana,Gurugram,"NISE Gwal Pahari, Gurugram - IMD",19-11-2025 07:00:00,28.422681,77.148944,CO,44,101,90
India,Haryana,Kurukshetra,"Sector-7, Kurukshetra - HSPCB",19-11-2025 07:00:00,29.966942,76.875879,PM2.5,81,201,149
India,Haryana,Gurugram,"Vikas Sadan, Gurugram - HSPCB",19-11-2025 07:00:00,28.4501238,77.0263051,NO2,9,45,26
India,Haryana,Gurugram,"Teri Gram, Gurugram - HSPCB",19-11-2025 07:00:00,28.4275,77.1465,CO,24,97,62
India,Karnataka,Bengaluru,"Silk Board, Bengaluru - KSPCB",19-11-2025 07:00:00,12.917348,77.622813,PM10,21,178,109
India,Karnataka,Bengaluru,"Silk Board, Bengaluru - KSPCB",19-11-2025 07:00:00,12.917348,77.622813,NO2,9,17,13
India,Karnataka,Bengaluru,"Silk Board, Bengaluru - KSPCB",19-11-2025 07:00:00,12.917348,77.622813,SO2,7,10,9
India,Karnataka,Chamarajanagar,"Urban, Chamarajanagar - KSPCB",19-11-2025 07:00:00,11.55358,76.55521,PM10,34,54,40
India,Karnataka,Chikkamagaluru,"Kalyana Nagara, Chikkamagaluru - KSPCB",19-11-2025 07:00:00,13.328028,75.797056,NO2,19,24,23
India,Karnataka,Chikkamagaluru,"Kalyana Nagara, Chikkamagaluru - KSPCB",19-11-2025 07:00:00,13.328028,75.797056,SO2,6,6,6
India,Karnataka,Davanagere,"Devaraj Urs Badavane, Davanagere - KSPCB",19-11-2025 07:00:00,14.475800,75.905200,PM10,62,105,88
India,Karnataka,Davanagere,"Devaraj Urs Badavane, Davanagere - KSPCB",19-11-2025 07:00:00,14.475800,75.905200,NH3,2,3,2
India,Karnataka,Davanagere,"Devaraj Urs Badavane, Davanagere - KSPCB",19-11-2025 07:00:00,14.475800,75.905200,CO,40,44,41
India,Karnataka,Mangalore,"Kadri, Mangalore - KSPCB",19-11-2025 07:00:00,12.889250,74.853000,NH3,1,1,1
India,Karnataka,Mysuru,"Hebbal 1st Stage, Mysuru - KSPCB",19-11-2025 07:00:00,12.21041,76.37376,CO,7,40,12
India,Karnataka,Shivamogga,"Vinoba Nagara, Shivamogga - KSPCB",19-11-2025 07:00:00,13.940000,75.555917,PM10,41,52,43
India,Karnataka,Udupi,"Brahmagiri, Udupi - KSPCB",19-11-2025 07:00:00,13.34194444,74.74694444,PM10,77,116,102
India,Karnataka,Udupi,"Brahmagiri, Udupi - KSPCB",19-11-2025 07:00:00,13.34194444,74.74694444,NH3,1,2,1
India,Karnataka,Vijayapura,"Ibrahimpur, Vijayapura - KSPCB",19-11-2025 07:00:00,16.802639,75.722694,PM2.5,26,31,30
India,Himachal Pradesh,Baddi,"HIMUDA Complex Phase-1, Baddi - HPPCB",19-11-2025 07:00:00,30.943887,76.801991,PM2.5,43,326,129
India,Himachal Pradesh,Baddi,"HIMUDA Complex Phase-1, Baddi - HPPCB",19-11-2025 07:00:00,30.943887,76.801991,NO2,32,121,62
India,Himachal Pradesh,Baddi,"HIMUDA Complex Phase-1, Baddi - HPPCB",19-11-2025 07:00:00,30.943887,76.801991,CO,46,101,56
India,Jammu_and_Kashmir,Srinagar,"Rajbagh, Srinagar - JKSPCB",19-11-2025 07:00:00,34.066206,74.819820,SO2,3,4,3
India,Jammu_and_Kashmir,Srinagar,"Rajbagh, Srinagar - JKSPCB",19-11-2025 07:00:00,34.066206,74.819820,OZONE,NA,NA,NA
India,Jharkhand,Dhanbad,"Sardar Patel Nagar, Dhanbad - JSPCB",19-11-2025 07:00:00,23.80569,86.44268,CO,2,68,2
India,Karnataka,Kalaburagi,"Lal Bahadur Shastri Nagar, Kalaburagi - KSPCB",19-11-2025 07:00:00,17.321993,76.822628,NH3,1,1,1
India,Karnataka,Kalaburagi,"Lal Bahadur Shastri Nagar, Kalaburagi - KSPCB",19-11-2025 07:00:00,17.321993,76.822628,SO2,46,62,58
India,Karnataka,Kalaburagi,"Mahatma Basaveswar Colony, Kalaburgi - KSPCB",19-11-2025 07:00:00,17.336318,76.847397,PM2.5,17,44,32
India,Karnataka,Kalaburagi,"Mahatma Basaveswar Colony, Kalaburgi - KSPCB",19-11-2025 07:00:00,17.336318,76.847397,NO2,9,18,13
India,Karnataka,Koppal,"Diwator Nagar, Koppal - KSPCB",19-11-2025 07:00:00,15.347630,76.181767,PM2.5,39,54,44
India,Karnataka,Madikeri,"Stuart Hill, Madikeri - KSPCB",19-11-2025 07:00:00,12.415911,75.735050,SO2,7,7,7
India,Karnataka,Belgaum,"Ramteerth Nagar, Belgaum - KSPCB",19-11-2025 07:00:00,15.888653,74.541751,NH3,8,11,10
India,Karnataka,Belgaum,"Ramteerth Nagar, Belgaum - KSPCB",19-11-2025 07:00:00,15.888653,74.541751,CO,8,16,12
India,Karnataka,Belgaum,"Ramteerth Nagar, Belgaum - KSPCB",19-11-2025 07:00:00,15.888653,74.541751,OZONE,19,20,20
India,Karnataka,Bengaluru,"BWSSB Kadabesanahalli, Bengaluru - CPCB",19-11-2025 07:00:00,12.9352049,77.6814488,PM10,NA,NA,NA
India,Karnataka,Bengaluru,"BWSSB Kadabesanahalli, Bengaluru - CPCB",19-11-2025 07:00:00,12.9352049,77.6814488,CO,NA,NA,NA
India,Karnataka,Bengaluru,"City Railway Station, Bengaluru - KSPCB",19-11-2025 07:00:00,12.9756843,77.5660749,PM10,96,106,102
India,Karnataka,Bengaluru,"Hebbal, Bengaluru - KSPCB",19-11-2025 07:00:00,13.029152,77.585901,PM10,19,97,62
India,Karnataka,Bengaluru,"Hebbal, Bengaluru - KSPCB",19-11-2025 07:00:00,13.029152,77.585901,NH3,1,2,1
India,Karnataka,Bengaluru,"Hombegowda Nagar, Bengaluru - KSPCB",19-11-2025 07:00:00,12.938539,77.590100,SO2,8,13,11
India,Karnataka,Bengaluru,"Jigani, Bengaluru - KSPCB",19-11-2025 07:00:00,12.7816279,77.6299145,PM10,55,57,56
India,Karnataka,Dharwad,"Kalabhavan, Dharwad - KSPCB",19-11-2025 07:00:00,15.459706,75.008381,NH3,5,6,5
India,Karnataka,Dharwad,"Kalabhavan, Dharwad - KSPCB",19-11-2025 07:00:00,15.459706,75.008381,OZONE,18,24,18
India,Karnataka,Hubballi,"Lingaraj Nagar, Hubballi - KSPCB",19-11-2025 07:00:00,15.3714823,75.1160168,CO,17,34,22
India,Karnataka,Hubballi,"Lingaraj Nagar, Hubballi - KSPCB",19-11-2025 07:00:00,15.3714823,75.1160168,OZONE,14,22,14
India,Karnataka,Bengaluru,"RVCE-Mailasandra, Bengaluru - KSPCB",19-11-2025 07:00:00,12.921418,77.502466,OZONE,16,16,16
India,Karnataka,Bengaluru,"Shivapura_Peenya, Bengaluru - KSPCB",19-11-2025 07:00:00,13.0246342,77.5080115,CO,46,57,51
India,Karnataka,Bengaluru,"Shivapura_Peenya, Bengaluru - KSPCB",19-11-2025 07:00:00,13.0246342,77.5080115,OZONE,19,20,20
India,Karnataka,Bengaluru,"Peenya, Bengaluru - CPCB",19-11-2025 07:00:00,13.0270199,77.494094,NH3,6,7,6
India,Karnataka,Bengaluru,"RVCE-Mailasandra, Bengaluru - KSPCB",19-11-2025 07:00:00,12.921418,77.502466,PM10,39,228,105
India,Madhya Pradesh,Bhopal,"Paryavaran Parisar, Bhopal - MPPCB",19-11-2025 07:00:00,23.210494,77.425409,SO2,2,16,9
India,Madhya Pradesh,Bhopal,"T T Nagar, Bhopal - MPPCB",19-11-2025 07:00:00,23.233584,77.400574,SO2,8,13,10
India,Madhya Pradesh,Damoh,"Shrivastav Colony, Damoh - MPPCB",19-11-2025 07:00:00,23.81748678,79.446246,PM10,31,94,44
India,Madhya Pradesh,Damoh,"Shrivastav Colony, Damoh - MPPCB",19-11-2025 07:00:00,23.81748678,79.446246,SO2,26,27,26
India,Madhya Pradesh,Dewas,"Bhopal Chauraha, Dewas - MPPCB",19-11-2025 07:00:00,22.9682591,76.064118,PM2.5,115,342,242
India,Karnataka,Vijayapura,"Ibrahimpur, Vijayapura - KSPCB",19-11-2025 07:00:00,16.802639,75.722694,PM10,42,43,43
India,Karnataka,Yadgir,"Collector Office, Yadgir - KSPCB",19-11-2025 07:00:00,16.7602,77.1428,NO2,16,59,27
India,Kerala,Kannur,"Thavakkara, Kannur - Kerala PCB",19-11-2025 07:00:00,11.875000,75.373200,NH3,NA,NA,NA
India,Kerala,Kannur,"Thavakkara, Kannur - Kerala PCB",19-11-2025 07:00:00,11.875000,75.373200,OZONE,NA,NA,NA
India,Kerala,Kollam,"Polayathode, Kollam - Kerala PCB",19-11-2025 07:00:00,8.8787,76.6073,PM2.5,14,20,17
India,Kerala,Kollam,"Polayathode, Kollam - Kerala PCB",19-11-2025 07:00:00,8.8787,76.6073,PM10,62,69,65
India,Kerala,Kollam,"Polayathode, Kollam - Kerala PCB",19-11-2025 07:00:00,8.8787,76.6073,NO2,8,9,9
India,Kerala,Kollam,"Polayathode, Kollam - Kerala PCB",19-11-2025 07:00:00,8.8787,76.6073,SO2,2,3,2
India,Madhya Pradesh,Bhopal,"Idgah Hills, Bhopal - MPPCB",19-11-2025 07:00:00,23.264759,77.381568,NH3,7,8,7
India,Madhya Pradesh,Bhopal,"Idgah Hills, Bhopal - MPPCB",19-11-2025 07:00:00,23.264759,77.381568,OZONE,50,133,61
India,Kerala,Thiruvananthapuram,"Plammoodu, Thiruvananthapuram - Kerala PCB",19-11-2025 07:00:00,8.5149093,76.9435879,PM2.5,2,37,15
India,Madhya Pradesh,Gwalior,"Deen Dayal Nagar, Gwalior - MPPCB",19-11-2025 07:00:00,26.259242,78.216432,PM2.5,121,362,253
India,Madhya Pradesh,Gwalior,"City Center, Gwalior - MPPCB",19-11-2025 07:00:00,26.203442,78.193251,PM2.5,98,335,220
India,Kerala,Thrissur,"Corporation Ground, Thrissur - Kerala PCB",19-11-2025 07:00:00,10.532400,76.215900,OZONE,30,31,30
India,Kerala,Thrissur,"Corporation Ground, Thrissur - Kerala PCB",19-11-2025 07:00:00,10.532400,76.215900,NO2,7,9,8
India,Madhya Pradesh,Indore,"Residency Area, Indore - IMC",19-11-2025 07:00:00,22.7084,75.8815,NO2,6,19,13
India,Madhya Pradesh,Indore,"Residency Area, Indore - IMC",19-11-2025 07:00:00,22.7084,75.8815,NH3,NA,NA,NA
India,Madhya Pradesh,Jabalpur,"Gupteshwar, Jabalpur - JMC",19-11-2025 07:00:00,23.142888,79.916147,PM10,102,275,159
India,Madhya Pradesh,Jabalpur,"Marhatal, Jabalpur - MPPCB",19-11-2025 07:00:00,23.168606,79.932247,PM10,102,432,191
India,Madhya Pradesh,Indore,"Chhoti Gwaltoli, Indore - MPPCB",19-11-2025 07:00:00,22.4310,75.5213,PM10,76,228,140
India,Madhya Pradesh,Gwalior,"Maharaj Bada, Gwalior - MPPCB",19-11-2025 07:00:00,26.200388,78.147714,CO,3,126,15
India,Madhya Pradesh,Indore,"Residency Area, Indore - IMC",19-11-2025 07:00:00,22.7084,75.8815,PM10,55,141,99
India,Madhya Pradesh,Indore,"Residency Area, Indore - IMC",19-11-2025 07:00:00,22.7084,75.8815,OZONE,13,41,15
India,Madhya Pradesh,Jabalpur,"Gupteshwar, Jabalpur - JMC",19-11-2025 07:00:00,23.142888,79.916147,SO2,6,9,7
India,Madhya Pradesh,Indore,"Maguda Nagar, Indore - IMC",19-11-2025 07:00:00,22.7524,75.8872,NH3,NA,NA,NA
India,Madhya Pradesh,Maihar,"Sahilara, Maihar - KJS Cements",19-11-2025 07:00:00,24.2613009,80.7231783,CO,24,34,31
India,Madhya Pradesh,Mandideep,"Sector-D Industrial Area, Mandideep - MPPCB",19-11-2025 07:00:00,23.108440,77.511428,PM2.5,92,378,301
India,Madhya Pradesh,Mandideep,"Sector-D Industrial Area, Mandideep - MPPCB",19-11-2025 07:00:00,23.108440,77.511428,NH3,1,9,4
India,Madhya Pradesh,Mandideep,"Sector-D Industrial Area, Mandideep - MPPCB",19-11-2025 07:00:00,23.108440,77.511428,SO2,10,127,85
India,Madhya Pradesh,Ratlam,"Shasthri Nagar, Ratlam - IPCA Lab",19-11-2025 07:00:00,23.331731,75.045981,PM10,115,193,155
India,Madhya Pradesh,Ratlam,"Shasthri Nagar, Ratlam - IPCA Lab",19-11-2025 07:00:00,23.331731,75.045981,NO2,7,52,20
India,Madhya Pradesh,Pithampur,"Sector-2 Industrial Area, Pithampur - MPPCB",19-11-2025 07:00:00,22.624758,75.675238,PM2.5,133,346,260
India,Madhya Pradesh,Mandideep,"Sector-D Industrial Area, Mandideep - MPPCB",19-11-2025 07:00:00,23.108440,77.511428,NO2,15,216,116
India,Madhya Pradesh,Sagar,"Civil Lines, Sagar - MPPCB",19-11-2025 07:00:00,23.838586,78.759431,PM2.5,177,309,251
India,Madhya Pradesh,Katni,"Gole Bazar, Katni - MPPCB",19-11-2025 07:00:00,23.50016,80.23284,OZONE,11,171,14
India,Madhya Pradesh,Katni,"Gole Bazar, Katni - MPPCB",19-11-2025 07:00:00,23.50016,80.23284,NO2,15,66,47
India,Madhya Pradesh,Jabalpur,"Suhagi, Jabalpur - JMC",19-11-2025 07:00:00,23.218135,79.957770,NH3,2,7,5
India,Maharashtra,Chandrapur,"MIDC Khutala, Chandrapur - MPCB",19-11-2025 07:00:00,19.9775302,79.2337086,OZONE,16,19,17
India,Maharashtra,Dhule,"Deopur, Dhule - MPCB",19-11-2025 07:00:00,20.918946,74.776388,NH3,1,24,3
India,Maharashtra,Dhule,"Deopur, Dhule - MPCB",19-11-2025 07:00:00,20.918946,74.776388,OZONE,8,64,29
India,Maharashtra,Jalgaon,"Prabhat Colony, Jalgaon - MPCB",19-11-2025 07:00:00,21.001264,75.565602,OZONE,4,116,18
India,Maharashtra,Jalna,"Old MIDC, Jalna - MPCB",19-11-2025 07:00:00,19.854616,75.905894,PM2.5,53,187,82
India,Maharashtra,Jalna,"Old MIDC, Jalna - MPCB",19-11-2025 07:00:00,19.854616,75.905894,NO2,35,52,44
India,Maharashtra,Jalna,"Old MIDC, Jalna - MPCB",19-11-2025 07:00:00,19.854616,75.905894,CO,14,54,25
India,Maharashtra,Badlapur,"Katrap, Badlapur - MPCB",19-11-2025 07:00:00,19.16485,73.23409,PM2.5,61,250,136
India,Maharashtra,Belapur,"CBD Belapur, Belapur - MPCB",19-11-2025 07:00:00,19.0243902,73.0406721,NO2,19,23,21
India,Maharashtra,Belapur,"CBD Belapur, Belapur - MPCB",19-11-2025 07:00:00,19.0243902,73.0406721,SO2,15,21,17
India,Maharashtra,Belapur,"CBD Belapur, Belapur - MPCB",19-11-2025 07:00:00,19.0243902,73.0406721,OZONE,7,75,10
India,Maharashtra,Bhiwandi,"Gokul Nagar, Bhiwandi - MPCB",19-11-2025 07:00:00,19.309073,73.057223,PM2.5,79,238,167
India,Maharashtra,Bhiwandi,"Gokul Nagar, Bhiwandi - MPCB",19-11-2025 07:00:00,19.309073,73.057223,NO2,17,35,27
India,Madhya Pradesh,Satna,"Bandhavgar Colony, Satna - Birla Cement",19-11-2025 07:00:00,24.58434363,80.8549414,PM2.5,45,48,46
India,Madhya Pradesh,Singrauli,"Suryakiran Bhawan NCL, Singrauli - MPPCB",19-11-2025 07:00:00,24.108970,82.645580,NH3,11,17,14
India,Maharashtra,Ahmednagar,"Tarakpur, Ahmednagar - MPCB",19-11-2025 07:00:00,19.10122,74.73339,PM10,71,123,98
India,Maharashtra,Bhiwandi,"Gokul Nagar, Bhiwandi - MPCB",19-11-2025 07:00:00,19.309073,73.057223,CO,26,88,64
India,Maharashtra,Boisar,"Khaira, Boisar - MPCB",19-11-2025 07:00:00,19.786089,72.757971,PM10,69,144,104
India,Maharashtra,Boisar,"Khaira, Boisar - MPCB",19-11-2025 07:00:00,19.786089,72.757971,SO2,11,18,13
India,Maharashtra,Chandrapur,"MIDC Khutala, Chandrapur - MPCB",19-11-2025 07:00:00,19.9775302,79.2337086,PM2.5,NA,NA,NA
India,Maharashtra,Akola,"Ramdaspeth, Akola - MPCB",19-11-2025 07:00:00,20.719516,77.000253,CO,17,109,33
India,Maharashtra,Amravati,"Shivneri Colony, Amravati - MPCB",19-11-2025 07:00:00,20.9402359,77.7895248,NH3,2,2,2
India,Maharashtra,Aurangabad,"MIDC Chilkalthana, Aurangabad - MPCB",19-11-2025 07:00:00,19.875620,75.387310,OZONE,8,126,40
India,Maharashtra,Aurangabad,"Rachnakar Colony, Aurangabad - MPCB",19-11-2025 07:00:00,19.863756,75.321188,CO,27,84,51
India,Maharashtra,Aurangabad,"More Chowk Waluj, Aurangabad - MPCB",19-11-2025 07:00:00,19.8389439,75.244448,NH3,10,11,10
India,Madhya Pradesh,Sagar,"Civil Lines, Sagar - MPPCB",19-11-2025 07:00:00,23.838586,78.759431,CO,41,66,48
India,Maharashtra,Kalyan,"Khadakpada, Kalyan - MPCB",19-11-2025 07:00:00,19.25292,73.142019,NO2,36,36,36
India,Maharashtra,Kalyan,"Khadakpada, Kalyan - MPCB",19-11-2025 07:00:00,19.25292,73.142019,NH3,1,1,1
India,Maharashtra,Kalyan,"Khadakpada, Kalyan - MPCB",19-11-2025 07:00:00,19.25292,73.142019,CO,65,103,88
India,Maharashtra,Kalyan,"Pimpleshwar Mandir, Kalyan - MPCB",19-11-2025 07:00:00,19.192056,72.9585188,SO2,7,33,12
India,Maharashtra,Kolhapur,"Shivaji University, Kolhapur - MPCB",19-11-2025 07:00:00,16.6870449,74.2505872,PM10,42,71,57
India,Maharashtra,Kolhapur,"Shivaji University, Kolhapur - MPCB",19-11-2025 07:00:00,16.6870449,74.2505872,SO2,2,6,4
India,Maharashtra,Kolhapur,"Shivaji University, Kolhapur - MPCB",19-11-2025 07:00:00,16.6870449,74.2505872,CO,16,64,33
India,Maharashtra,Kolhapur,"Shivaji University, Kolhapur - MPCB",19-11-2025 07:00:00,16.6870449,74.2505872,OZONE,1,54,8
India,Maharashtra,Kolhapur,"Sinchan Bhavan, Kolhapur - MPCB",19-11-2025 07:00:00,16.7143745,74.2426398,PM2.5,42,74,60
India,Maharashtra,Mumbai,"Chakala-Andheri East, Mumbai - IITM",19-11-2025 07:00:00,19.11074,72.86084,SO2,8,24,17
India,Maharashtra,Mumbai,"Chakala-Andheri East, Mumbai - IITM",19-11-2025 07:00:00,19.11074,72.86084,CO,18,84,34
India,Maharashtra,Mumbai,"Chembur, Mumbai - MPCB",19-11-2025 07:00:00,19.0364585,72.8954371,NO2,13,126,81
India,Maharashtra,Mumbai,"Chembur, Mumbai - MPCB",19-11-2025 07:00:00,19.0364585,72.8954371,CO,42,94,77
India,Maharashtra,Mumbai,"Chembur, Mumbai - MPCB",19-11-2025 07:00:00,19.0364585,72.8954371,OZONE,2,164,6
India,Maharashtra,Mumbai,"Chhatrapati Shivaji Intl. Airport (T2), Mumbai - MPCB",19-11-2025 07:00:00,19.10078,72.87462,NO2,18,26,21
India,Maharashtra,Mumbai,"Chhatrapati Shivaji Intl. Airport (T2), Mumbai - MPCB",19-11-2025 07:00:00,19.10078,72.87462,NH3,1,1,1
India,Maharashtra,Mumbai,"Colaba, Mumbai - MPCB",19-11-2025 07:00:00,18.910000,72.820000,PM10,43,81,62
India,Maharashtra,Mumbai,"Shivaji Nagar, Mumbai - BMC",19-11-2025 07:00:00,19.060498,72.923356,PM10,125,198,155
India,Maharashtra,Mumbai,"Siddharth Nagar-Worli, Mumbai - IITM",19-11-2025 07:00:00,19.000083,72.813993,PM2.5,116,236,179
India,Maharashtra,Mumbai,"Siddharth Nagar-Worli, Mumbai - IITM",19-11-2025 07:00:00,19.000083,72.813993,NO2,50,146,87
India,Maharashtra,Mumbai,"Sion, Mumbai - MPCB",19-11-2025 07:00:00,19.047000,72.874600,PM10,39,120,67
India,Maharashtra,Mumbai,"Sion, Mumbai - MPCB",19-11-2025 07:00:00,19.047000,72.874600,NO2,NA,NA,NA
India,Maharashtra,Mumbai,"Vile Parle West, Mumbai - MPCB",19-11-2025 07:00:00,19.10861,72.83622,PM2.5,62,93,79
India,Maharashtra,Mumbai,"Vile Parle West, Mumbai - MPCB",19-11-2025 07:00:00,19.10861,72.83622,PM10,103,135,120
India,Maharashtra,Mumbai,"Vile Parle West, Mumbai - MPCB",19-11-2025 07:00:00,19.10861,72.83622,OZONE,5,27,17
India,Maharashtra,Latur,"Sawe Wadi, Latur - MPCB",19-11-2025 07:00:00,18.39963,76.57452,PM10,56,98,82
India,Maharashtra,Mahad,"Kamble Tarf Birwadi, Mahad - MPCB",19-11-2025 07:00:00,18.1023399,73.4783687,PM2.5,39,209,126
India,Maharashtra,Mahad,"Kamble Tarf Birwadi, Mahad - MPCB",19-11-2025 07:00:00,18.1023399,73.4783687,SO2,13,74,28
India,Maharashtra,Malegaon,"Mahesh Nagar, Malegaon - MPCB",19-11-2025 07:00:00,20.555712,74.529236,PM2.5,59,184,97
India,Maharashtra,Malegaon,"Mahesh Nagar, Malegaon - MPCB",19-11-2025 07:00:00,20.555712,74.529236,SO2,1,34,9
India,Maharashtra,Malegaon,"Mahesh Nagar, Malegaon - MPCB",19-11-2025 07:00:00,20.555712,74.529236,OZONE,11,55,18
India,Maharashtra,Mumbai,"Colaba, Mumbai - MPCB",19-11-2025 07:00:00,18.910000,72.820000,NH3,3,3,3
India,Maharashtra,Mumbai,"Colaba, Mumbai - MPCB",19-11-2025 07:00:00,18.910000,72.820000,SO2,NA,NA,NA
India,Maharashtra,Mumbai,"Deonar, Mumbai - IITM",19-11-2025 07:00:00,19.04946,72.9230,CO,20,108,65
India,Maharashtra,Mumbai,"Ghatkopar, Mumbai - BMC",19-11-2025 07:00:00,19.083694,72.920967,NH3,1,3,1
India,Maharashtra,Mumbai,"Ghatkopar, Mumbai - BMC",19-11-2025 07:00:00,19.083694,72.920967,OZONE,1,184,2
India,Maharashtra,Mumbai,"Kandivali West, Mumbai - BMC",19-11-2025 07:00:00,19.215859,72.831718,PM2.5,87,214,134
India,Maharashtra,Mumbai,"Kherwadi_Bandra East, Mumbai - MPCB",19-11-2025 07:00:00,19.0632143,72.8456324,PM10,96,166,131
India,Maharashtra,Mumbai,"Malad West, Mumbai - IITM",19-11-2025 07:00:00,19.19709,72.82204,PM2.5,124,319,237
India,Maharashtra,Mumbai,"Malad West, Mumbai - IITM",19-11-2025 07:00:00,19.19709,72.82204,NH3,4,22,8
India,Maharashtra,Mumbai,"Malad West, Mumbai - IITM",19-11-2025 07:00:00,19.19709,72.82204,OZONE,4,300,33
India,Maharashtra,Mumbai,"Mindspace-Malad West, Mumbai - MPCB",19-11-2025 07:00:00,19.1878657,72.8304069,PM10,119,197,149
India,Maharashtra,Mumbai,"Borivali East, Mumbai - IITM",19-11-2025 07:00:00,19.23241,72.86895,OZONE,31,186,69
India,Maharashtra,Mumbai,"Borivali East, Mumbai - MPCB",19-11-2025 07:00:00,19.2243333,72.8658113,NH3,1,2,2
India,Maharashtra,Mumbai,"Powai, Mumbai - MPCB",19-11-2025 07:00:00,19.137500,72.915056,PM10,129,174,156
India,Maharashtra,Mumbai,"Sewri, Mumbai - BMC",19-11-2025 07:00:00,19.000084,72.856730,NO2,2,17,7
India,Maharashtra,Solapur,"Ratandeep Housing Society, Solapur - MPCB",19-11-2025 07:00:00,17.65439,75.90649,OZONE,1,99,65
India,Maharashtra,Thane,"Kasarvadavali, Thane - MPCB",19-11-2025 07:00:00,19.26777,72.97182,SO2,3,13,6
India,Maharashtra,Thane,"Upvan Fort, Thane - MPCB",19-11-2025 07:00:00,19.222279,72.957979,PM2.5,52,151,92
India,Maharashtra,Thane,"Upvan Fort, Thane - MPCB",19-11-2025 07:00:00,19.222279,72.957979,SO2,1,6,3
India,Maharashtra,Ulhasnagar,"Sidhi Vinayak Nagar, Ulhasnagar - MPCB",19-11-2025 07:00:00,19.235581,73.159121,OZONE,12,96,14
India,Maharashtra,Virar,"Bolinj, Virar - MPCB",19-11-2025 07:00:00,19.4458210,72.7988231,PM2.5,74,228,127
India,Maharashtra,Virar,"Bolinj, Virar - MPCB",19-11-2025 07:00:00,19.4458210,72.7988231,NO2,12,101,43
India,Maharashtra,Pimpri-Chinchwad,"Park Street Wakad, Pimpri Chinchwad - MPCB",19-11-2025 07:00:00,18.59051,73.77946,PM10,76,232,153
India,Maharashtra,Pimpri-Chinchwad,"Park Street Wakad, Pimpri Chinchwad - MPCB",19-11-2025 07:00:00,18.59051,73.77946,OZONE,1,120,2
India,Maharashtra,Pimpri-Chinchwad,"Thergaon, Pimpri Chinchwad - MPCB",19-11-2025 07:00:00,18.616318,73.765797,PM10,116,164,144
India,Maharashtra,Pimpri-Chinchwad,"Thergaon, Pimpri Chinchwad - MPCB",19-11-2025 07:00:00,18.616318,73.765797,NH3,3,4,4
India,Maharashtra,Pune,"Bhumkar Nagar, Pune - IITM",19-11-2025 07:00:00,18.605770,73.749976,NO2,NA,NA,NA
India,Maharashtra,Pune,"Dhankawadi, Pune - IITM",19-11-2025 07:00:00,18.459883,73.852193,NO2,1,11,5
India,Maharashtra,Mumbai,"Worli, Mumbai - MPCB",19-11-2025 07:00:00,18.9936162,72.8128113,NO2,4,16,9
India,Maharashtra,Mumbai,"Worli, Mumbai - MPCB",19-11-2025 07:00:00,18.9936162,72.8128113,SO2,18,26,21
India,Maharashtra,Mumbai,"Worli, Mumbai - MPCB",19-11-2025 07:00:00,18.9936162,72.8128113,CO,6,22,12
India,Maharashtra,Nagpur,"Ambazari, Nagpur - MPCB",19-11-2025 07:00:00,21.121801,79.04952,PM2.5,110,234,178
India,Maharashtra,Nagpur,"Ambazari, Nagpur - MPCB",19-11-2025 07:00:00,21.121801,79.04952,NH3,4,19,7
India,Maharashtra,Nagpur,"Opp GPO Civil Lines, Nagpur - MPCB",19-11-2025 07:00:00,21.152875,79.0517531,PM10,108,194,137
India,Maharashtra,Navi Mumbai,"Sector-2E Kalamboli, Navi Mumbai - MPCB",19-11-2025 07:00:00,19.02579,73.10297,CO,7,89,27
India,Maharashtra,Navi Mumbai,"Tondare-Taloja, Navi Mumbai - MPCB",19-11-2025 07:00:00,19.0630,73.1209,PM2.5,61,186,109
India,Maharashtra,Pimpri-Chinchwad,"Gavalinagar, Pimpri Chinchwad - MPCB",19-11-2025 07:00:00,18.63673,73.82487,PM10,124,191,160
India,Maharashtra,Pimpri-Chinchwad,"Park Street Wakad, Pimpri Chinchwad - MPCB",19-11-2025 07:00:00,18.59051,73.77946,PM2.5,94,349,259
India,Maharashtra,Navi Mumbai,"Mahape, Navi Mumbai - MPCB",19-11-2025 07:00:00,19.1135051,73.008978,PM10,80,173,126
India,Maharashtra,Navi Mumbai,"Mahape, Navi Mumbai - MPCB",19-11-2025 07:00:00,19.1135051,73.008978,NO2,34,35,35
India,Maharashtra,Navi Mumbai,"Mahape, Navi Mumbai - MPCB",19-11-2025 07:00:00,19.1135051,73.008978,SO2,24,27,26
India,Maharashtra,Navi Mumbai,"Nerul, Navi Mumbai - MPCB",19-11-2025 07:00:00,19.008751,73.016620,PM2.5,93,338,229
India,Maharashtra,Navi Mumbai,"Nerul, Navi Mumbai - MPCB",19-11-2025 07:00:00,19.008751,73.016620,SO2,NA,NA,NA
India,Maharashtra,Navi Mumbai,"Sanpada, Navi Mumbai - MPCB",19-11-2025 07:00:00,19.0575752,73.0151367,SO2,8,18,13
India,Maharashtra,Pune,"Hadapsar, Pune - IITM",19-11-2025 07:00:00,18.501793,73.927532,CO,38,66,63
India,Maharashtra,Pune,"Katraj Dairy, Pune - MPCB",19-11-2025 07:00:00,18.454450,73.854155,OZONE,4,134,36
India,Maharashtra,Pune,"Panchawati_Pashan, Pune - IITM",19-11-2025 07:00:00,18.536457,73.805454,NO2,15,50,24
India,Maharashtra,Pune,"Revenue Colony-Shivajinagar, Pune - IITM",19-11-2025 07:00:00,18.530085,73.849598,NO2,23,151,101
India,Maharashtra,Nagpur,"Ram Nagar, Nagpur - MPCB",19-11-2025 07:00:00,21.143383,79.048912,PM2.5,96,300,194
India,Maharashtra,Nagpur,"Ram Nagar, Nagpur - MPCB",19-11-2025 07:00:00,21.143383,79.048912,PM10,131,225,154
India,Maharashtra,Nagpur,"Ram Nagar, Nagpur - MPCB",19-11-2025 07:00:00,21.143383,79.048912,OZONE,5,93,21
India,Maharashtra,Nashik,"Gangapur Road, Nashik - MPCB",19-11-2025 07:00:00,20.0073285,73.7762427,PM2.5,91,242,167
India,Maharashtra,Nashik,"Gangapur Road, Nashik - MPCB",19-11-2025 07:00:00,20.0073285,73.7762427,PM10,93,168,124
India,Maharashtra,Pune,"Transport Nagar-Nigdi, Pune - IITM",19-11-2025 07:00:00,18.664282,73.763966,CO,48,96,81
India,Maharashtra,Solapur,"Dnyaneshwar Nagar, Solapur - MPCB",19-11-2025 07:00:00,17.6336264,75.9132495,CO,2,113,21
India,Maharashtra,Solapur,"Ratandeep Housing Society, Solapur - MPCB",19-11-2025 07:00:00,17.65439,75.90649,NO2,22,139,60
India,Maharashtra,Nashik,"Hirawadi, Nashik - MPCB",19-11-2025 07:00:00,20.021503,73.813844,PM10,108,157,127
India,Maharashtra,Nashik,"Hirawadi, Nashik - MPCB",19-11-2025 07:00:00,20.021503,73.813844,NH3,1,15,3
India,Maharashtra,Nashik,"Hirawadi, Nashik - MPCB",19-11-2025 07:00:00,20.021503,73.813844,OZONE,6,92,50
India,Maharashtra,Nashik,"Pandav Nagari, Nashik - MPCB",19-11-2025 07:00:00,19.9591346,73.7788008,NO2,8,38,16
India,Maharashtra,Virar,"Bolinj, Virar - MPCB",19-11-2025 07:00:00,19.4458210,72.7988231,SO2,5,13,9
India,Meghalaya,Shillong,"Lumpyngngad, Shillong - Meghalaya PCB",19-11-2025 07:00:00,25.5586,91.8985,SO2,5,6,6
India,Nagaland,Kohima,"PWD Junction, Kohima - NPCB",19-11-2025 07:00:00,25.6635413,94.0989878,PM2.5,19,309,85
India,Nagaland,Kohima,"PWD Junction, Kohima - NPCB",19-11-2025 07:00:00,25.6635413,94.0989878,SO2,72,80,73
India,Nagaland,Kohima,"PWD Junction, Kohima - NPCB",19-11-2025 07:00:00,25.6635413,94.0989878,OZONE,8,38,9
India,Odisha,Angul,"Hakimapada, Angul - OSPCB",19-11-2025 07:00:00,20.832874,85.104082,NO2,15,61,30
India,Odisha,Nayagarh,"Dabuna, Nayagarh - OSPCB",19-11-2025 07:00:00,21.847279,85.416905,OZONE,11,40,11
India,Odisha,Rourkela,"Raghunathpali, Rourkela - OSPCB",19-11-2025 07:00:00,22.220833,84.809444,PM2.5,19,209,116
India,Odisha,Rourkela,"Raghunathpali, Rourkela - OSPCB",19-11-2025 07:00:00,22.220833,84.809444,SO2,4,6,5
India,Odisha,Talcher,"Talcher Coalfields,Talcher - OSPCB",19-11-2025 07:00:00,20.9360711,85.1707021,SO2,29,107,51
India,Odisha,Bhubaneswar,"Patia, Bhubaneswar - OSPCB",19-11-2025 07:00:00,20.34652,85.81630,NH3,4,8,6
India,Odisha,Bileipada,"Tata Township, Bileipada - OSPCB",19-11-2025 07:00:00,22.06156703,85.47409613,PM10,71,152,126
India,Odisha,Bileipada,"Tata Township, Bileipada - OSPCB",19-11-2025 07:00:00,22.06156703,85.47409613,NO2,6,7,7
India,Odisha,Bileipada,"Tata Township, Bileipada - OSPCB",19-11-2025 07:00:00,22.06156703,85.47409613,OZONE,11,14,11
India,Odisha,Barbil,"Forest Office, Barbil - OSPCB",19-11-2025 07:00:00,22.1166054,85.3945546,CO,32,80,43
India,Odisha,Baripada,"Meher Colony, Baripada - OSPCB",19-11-2025 07:00:00,21.941841,86.728318,PM2.5,74,167,93
India,Odisha,Baripada,"Meher Colony, Baripada - OSPCB",19-11-2025 07:00:00,21.941841,86.728318,PM10,64,122,94
India,Odisha,Baripada,"Meher Colony, Baripada - OSPCB",19-11-2025 07:00:00,21.941841,86.728318,NO2,12,69,40
India,Odisha,Cuttack,"CDA Area, Cuttack - OSPCB",19-11-2025 07:00:00,20.48891     ,85.84768     ,NO2,19,158,55
India,Odisha,Keonjhar,"Jagamohanpur, Keonjhar - OSPCB",19-11-2025 07:00:00,21.643900,85.599355,NO2,17,58,37
India,Odisha,Nayagarh,"Dabuna, Nayagarh - OSPCB",19-11-2025 07:00:00,21.847279,85.416905,NH3,7,7,7
India,Odisha,Balasore,"Kalidaspur, Balasore - OSPCB",19-11-2025 07:00:00,21.51161,86.89088,NH3,2,3,2
India,Odisha,Balasore,"Kalidaspur, Balasore - OSPCB",19-11-2025 07:00:00,21.51161,86.89088,SO2,6,16,9
India,Odisha,Balasore,"Kalidaspur, Balasore - OSPCB",19-11-2025 07:00:00,21.51161,86.89088,CO,12,78,34
India,Odisha,Balasore,"Kalidaspur, Balasore - OSPCB",19-11-2025 07:00:00,21.51161,86.89088,OZONE,5,70,24
India,Odisha,Bhubaneswar,"Lingraj Mandir, Bhubaneswar - OSPCB",19-11-2025 07:00:00,20.240790,85.836784,PM2.5,120,361,243
India,Odisha,Bhubaneswar,"Lingraj Mandir, Bhubaneswar - OSPCB",19-11-2025 07:00:00,20.240790,85.836784,PM10,102,369,166
India,Odisha,Bhubaneswar,"Lingraj Mandir, Bhubaneswar - OSPCB",19-11-2025 07:00:00,20.240790,85.836784,NO2,21,170,77
India,Odisha,Bhubaneswar,"Patia, Bhubaneswar - OSPCB",19-11-2025 07:00:00,20.34652,85.81630,PM2.5,97,316,200
India,Rajasthan,Bundi,"New Colony, Bundi - RSPCB",19-11-2025 07:00:00,25.435774,75.644272,PM10,112,332,150
India,Rajasthan,Bundi,"New Colony, Bundi - RSPCB",19-11-2025 07:00:00,25.435774,75.644272,NH3,NA,NA,NA
India,Rajasthan,Chittorgarh,"Shastri Nagar, Chittorgarh - RSPCB",19-11-2025 07:00:00,24.892047,74.623527,PM10,61,311,125
India,Rajasthan,Chittorgarh,"Shastri Nagar, Chittorgarh - RSPCB",19-11-2025 07:00:00,24.892047,74.623527,NH3,2,5,4
India,Rajasthan,Churu,"Subash Chowk, Churu - RSPCB",19-11-2025 07:00:00,28.296139,74.961696,NO2,9,115,55
India,Rajasthan,Churu,"Subash Chowk, Churu - RSPCB",19-11-2025 07:00:00,28.296139,74.961696,NH3,7,12,9
India,Rajasthan,Churu,"Subash Chowk, Churu - RSPCB",19-11-2025 07:00:00,28.296139,74.961696,SO2,1,11,5
India,Rajasthan,Dausa,"Khatikan Mohalla, Dausa - RSPCB",19-11-2025 07:00:00,26.895552,76.334753,PM2.5,58,338,179
India,Rajasthan,Dausa,"Khatikan Mohalla, Dausa - RSPCB",19-11-2025 07:00:00,26.895552,76.334753,NH3,7,20,11
India,Punjab,Bathinda,"Hardev Nagar, Bathinda - PPCB",19-11-2025 07:00:00,30.233011,74.907758,SO2,NA,NA,NA
India,Punjab,Jalandhar,"Civil Line, Jalandhar - PPCB",19-11-2025 07:00:00,31.321907,75.578914,PM10,94,141,119
India,Punjab,Jalandhar,"Civil Line, Jalandhar - PPCB",19-11-2025 07:00:00,31.321907,75.578914,CO,61,66,64
India,Punjab,Jalandhar,"Civil Line, Jalandhar - PPCB",19-11-2025 07:00:00,31.321907,75.578914,OZONE,48,52,50
India,Punjab,Khanna,"Kalal Majra, Khanna - PPCB",19-11-2025 07:00:00,30.736056 ,76.209694,PM2.5,61,198,122
India,Punjab,Mandi Gobindgarh,"RIMT University, Mandi Gobindgarh - PPCB",19-11-2025 07:00:00,30.649961,76.331442,NH3,6,6,6
India,Punjab,Mandi Gobindgarh,"RIMT University, Mandi Gobindgarh - PPCB",19-11-2025 07:00:00,30.649961,76.331442,SO2,4,17,9
India,Punjab,Mandi Gobindgarh,"RIMT University, Mandi Gobindgarh - PPCB",19-11-2025 07:00:00,30.649961,76.331442,OZONE,32,36,34
India,Punjab,Patiala,"Model Town, Patiala - PPCB",19-11-2025 07:00:00,30.349388,76.366642,PM10,82,174,134
India,Punjab,Rupnagar,"Ratanpura, Rupnagar - Ambuja Cements",19-11-2025 07:00:00,31.0325454,76.5623046,SO2,12,18,15
India,Rajasthan,Alwar,"Moti Doongri, Alwar - RSPCB",19-11-2025 07:00:00,27.554793,76.611536,PM10,70,144,100
India,Odisha,Talcher,"Talcher Coalfields,Talcher - OSPCB",19-11-2025 07:00:00,20.9360711,85.1707021,CO,50,104,91
India,Odisha,Tensa,"Barsua Iron Ore Mines, Tensa - OSPCB",19-11-2025 07:00:00,21.869985,85.167016,CO,42,57,45
India,Puducherry,Puducherry,"Jawahar Nagar, Puducherry - PPCC",19-11-2025 07:00:00,11.9309,79.8027,SO2,4,9,7
India,Punjab,Bathinda,"Hardev Nagar, Bathinda - PPCB",19-11-2025 07:00:00,30.233011,74.907758,PM2.5,NA,NA,NA
India,Rajasthan,Alwar,"Moti Doongri, Alwar - RSPCB",19-11-2025 07:00:00,27.554793,76.611536,CO,26,96,42
India,Rajasthan,Banswara,"Rati Talai, Banswara - RSPCB",19-11-2025 07:00:00,23.555190,74.440010,PM2.5,NA,NA,NA
India,Rajasthan,Baran,"Bamboliya, Baran - RSPCB",19-11-2025 07:00:00,25.106006,76.469948,PM2.5,45,253,115
India,Rajasthan,Baran,"Bamboliya, Baran - RSPCB",19-11-2025 07:00:00,25.106006,76.469948,CO,26,72,53
India,Rajasthan,Barmer,"Railway Colony, Barmer - RSPCB",19-11-2025 07:00:00,25.747299,71.393989,NH3,3,37,14
India,Rajasthan,Jaipur,"Shastri Nagar, Jaipur - RSPCB",19-11-2025 07:00:00,26.9502929,75.730943,PM2.5,69,314,195
India,Rajasthan,Jaipur,"Shastri Nagar, Jaipur - RSPCB",19-11-2025 07:00:00,26.9502929,75.730943,NH3,7,35,18
India,Rajasthan,Jaipur,"Shastri Nagar, Jaipur - RSPCB",19-11-2025 07:00:00,26.9502929,75.730943,CO,54,126,101
India,Rajasthan,Jaisalmer,"Sadar Bazar, Jaisalmer - RSPCB",19-11-2025 07:00:00,26.912329,70.909168,NH3,10,18,13
India,Rajasthan,Jalore,"Mudtra Sili, Jalore - RSPCB",19-11-2025 07:00:00,25.344694,72.626208,SO2,3,10,6
India,Rajasthan,Bhilwara,"Pratap Nagar, Bhilwara - RSPCB",19-11-2025 07:00:00,25.339605,74.618883,PM10,93,259,157
India,Rajasthan,Bhiwadi,"Vasundhara Nagar_UIT, Bhiwadi - RSPCB",19-11-2025 07:00:00,28.207266,76.829265,SO2,1,16,9
India,Rajasthan,Bhiwadi,"Vasundhara Nagar_UIT, Bhiwadi - RSPCB",19-11-2025 07:00:00,28.207266,76.829265,OZONE,3,303,6
India,Rajasthan,Bikaner,"MM Ground, Bikaner - RSPCB",19-11-2025 07:00:00,28.018792,73.292658,PM2.5,41,354,148
India,Rajasthan,Jaipur,"Mansarovar Sector-12, Jaipur - RSPCB",19-11-2025 07:00:00,26.843698,75.766894,PM10,125,290,198
India,Rajasthan,Jaipur,"RIICO Sitapura, Jaipur - RSPCB",19-11-2025 07:00:00,26.786682,75.827928,NO2,22,418,100
India,Rajasthan,Jaipur,"Sector-2 Murlipura, Jaipur - RSPCB",19-11-2025 07:00:00,26.960669,75.771817,PM2.5,32,283,96
India,Rajasthan,Hanumangarh,"Housing Board, Hanumangarh - RSPCB",19-11-2025 07:00:00,29.610750,74.283608,PM2.5,93,336,249
India,Rajasthan,Hanumangarh,"Housing Board, Hanumangarh - RSPCB",19-11-2025 07:00:00,29.610750,74.283608,CO,30,128,70
India,Sikkim,Gangtok,"Zero Point GICI, Gangtok - SSPCB",19-11-2025 07:00:00,27.338530,88.614099,PM10,NA,NA,NA
India,TamilNadu,Ariyalur,"Keelapalur, Ariyalur - TNPCB",19-11-2025 07:00:00,11.06825,79.07033,PM10,NA,NA,NA
India,TamilNadu,Ariyalur,"Keelapalur, Ariyalur - TNPCB",19-11-2025 07:00:00,11.06825,79.07033,NH3,NA,NA,NA
India,TamilNadu,Chennai,"Alandur Bus Depot, Chennai - CPCB",19-11-2025 07:00:00,12.9099161,80.1076538,PM2.5,94,191,137
India,TamilNadu,Chennai,"Arumbakkam, Chennai - TNPCB",19-11-2025 07:00:00,13.0664,80.2112 ,PM10,47,120,81
India,TamilNadu,Chennai,"Gandhi Nagar_Ennore, Chennai - TNPCB",19-11-2025 07:00:00,13.218341,80.32027,SO2,NA,NA,NA
India,Rajasthan,Rajsamand,"Dhoinda, Rajsamand - RSPCB",19-11-2025 07:00:00,25.036360,73.883502,NH3,11,31,15
India,Rajasthan,Sawai Madhopur,"Sahu Nagar, Sawai Madhopur - RSPCB",19-11-2025 07:00:00,26.031443,76.359327,NH3,8,12,10
India,Rajasthan,Sawai Madhopur,"Sahu Nagar, Sawai Madhopur - RSPCB",19-11-2025 07:00:00,26.031443,76.359327,SO2,1,19,5
India,Rajasthan,Sawai Madhopur,"Sahu Nagar, Sawai Madhopur - RSPCB",19-11-2025 07:00:00,26.031443,76.359327,OZONE,1,247,5
India,Rajasthan,Sikar,"Radhakishan Pura, Sikar - RSPCB",19-11-2025 07:00:00,27.608912,75.153302,CO,20,127,49
India,Rajasthan,Sirohi,"Vedhaynath Colony, Sirohi - RSPCB",19-11-2025 07:00:00,24.885261,72.857549,PM2.5,33,187,75
India,TamilNadu,Coimbatore,"SIDCO Kurichi, Coimbatore - TNPCB",19-11-2025 07:00:00,10.942451,76.978996,NO2,7,25,16
India,TamilNadu,Cuddalore,"Kudikadu, Cuddalore - TNPCB",19-11-2025 07:00:00,11.6829898,79.7532099,PM2.5,NA,NA,NA
India,TamilNadu,Cuddalore,"Kudikadu, Cuddalore - TNPCB",19-11-2025 07:00:00,11.6829898,79.7532099,NH3,NA,NA,NA
India,TamilNadu,Cuddalore,"Kudikadu, Cuddalore - TNPCB",19-11-2025 07:00:00,11.6829898,79.7532099,SO2,NA,NA,NA
India,TamilNadu,Cuddalore,"Semmandalam, Cuddalore - TNPCB",19-11-2025 07:00:00,11.7637683,79.7499835,NH3,NA,NA,NA
India,TamilNadu,Gummidipoondi,"Anthoni Pillai Nagar, Gummidipoondi - TNPCB",19-11-2025 07:00:00,13.4127,80.1081,PM2.5,85,340,220
India,Rajasthan,Tonk,"Shastri Nagar, Tonk - RSPCB",19-11-2025 07:00:00,26.159933,75.780517,SO2,2,3,2
India,Rajasthan,Udaipur,"Ashok Nagar, Udaipur - RSPCB",19-11-2025 07:00:00,24.5886166,73.6321397,PM2.5,50,307,123
India,Rajasthan,Udaipur,"Ashok Nagar, Udaipur - RSPCB",19-11-2025 07:00:00,24.5886166,73.6321397,PM10,72,202,120
India,Rajasthan,Udaipur,"Ashok Nagar, Udaipur - RSPCB",19-11-2025 07:00:00,24.5886166,73.6321397,NO2,13,66,41
India,Rajasthan,Udaipur,"Ashok Nagar, Udaipur - RSPCB",19-11-2025 07:00:00,24.5886166,73.6321397,SO2,6,14,9
India,TamilNadu,Chennai,"Perungudi, Chennai - TNPCB",19-11-2025 07:00:00,12.9533,80.2357,NO2,4,15,7
India,TamilNadu,Chennai,"Velachery Res. Area, Chennai - CPCB",19-11-2025 07:00:00,13.0052189,80.2398125,PM2.5,24,54,39
India,TamilNadu,Chennai,"Velachery Res. Area, Chennai - CPCB",19-11-2025 07:00:00,13.0052189,80.2398125,PM10,78,102,91
India,Rajasthan,Karauli,"Satyawati Vihar, Karauli - RSPCB",19-11-2025 07:00:00,26.506177,77.025989,SO2,6,14,9
India,Rajasthan,Karauli,"Satyawati Vihar, Karauli - RSPCB",19-11-2025 07:00:00,26.506177,77.025989,OZONE,7,157,8
India,Rajasthan,Kota,"Nayapura, Kota - RSPCB",19-11-2025 07:00:00,25.196024,75.855668,PM2.5,88,325,198
India,Rajasthan,Jodhpur,"Jhalamand, Jodhpur - RSPCB",19-11-2025 07:00:00,26.215415,73.070156,OZONE,3,150,11
India,Rajasthan,Jodhpur,"Samrat Ashok Udhyan, Jodhpur - RSPCB",19-11-2025 07:00:00,26.253384,72.976571,NH3,5,12,8
India,Rajasthan,Jodhpur,"Samrat Ashok Udhyan, Jodhpur - RSPCB",19-11-2025 07:00:00,26.253384,72.976571,CO,36,113,92
India,Rajasthan,Jodhpur,"Collectorate, Jodhpur - RSPCB",19-11-2025 07:00:00,26.268249,73.0193853,NH3,6,51,21
India,Rajasthan,Jodhpur,"Digari Kalan, Jodhpur - RSPCB",19-11-2025 07:00:00,26.295810,73.082283,NH3,5,18,10
India,Rajasthan,Jodhpur,"Digari Kalan, Jodhpur - RSPCB",19-11-2025 07:00:00,26.295810,73.082283,SO2,1,6,5
India,Rajasthan,Nagaur,"Karni Colony, Nagaur - RSPCB",19-11-2025 07:00:00,27.213494,73.734444,NH3,10,26,14
India,Rajasthan,Pali,"Indira Colony Vistar, Pali - RSPCB",19-11-2025 07:00:00,25.771061, 73.340227,OZONE,6,46,7
India,Telangana,Hyderabad,"Zoo Park, Hyderabad - TSPCB",19-11-2025 07:00:00,17.349694,78.451437,PM2.5,144,180,166
India,Telangana,Hyderabad,"Zoo Park, Hyderabad - TSPCB",19-11-2025 07:00:00,17.349694,78.451437,NH3,3,4,3
India,Telangana,Hyderabad,"Zoo Park, Hyderabad - TSPCB",19-11-2025 07:00:00,17.349694,78.451437,SO2,3,4,4
India,Telangana,Hyderabad,"Zoo Park, Hyderabad - TSPCB",19-11-2025 07:00:00,17.349694,78.451437,CO,3,74,20
India,Uttar_Pradesh,Agra,"Manoharpur, Agra - UPPCB",19-11-2025 07:00:00,27.23711,78.01936,NO2,44,45,45
India,Uttar_Pradesh,Agra,"Manoharpur, Agra - UPPCB",19-11-2025 07:00:00,27.23711,78.01936,NH3,2,2,2
India,Uttar_Pradesh,Agra,"Rohta, Agra - UPPCB",19-11-2025 07:00:00,27.106972,78.000111,PM2.5,64,298,153
India,Uttar_Pradesh,Agra,"Rohta, Agra - UPPCB",19-11-2025 07:00:00,27.106972,78.000111,NO2,15,15,15
India,TamilNadu,Nagapattinam,"Velippalayam, Nagapattinam - TNPCB",19-11-2025 07:00:00,10.798548,79.838212,CO,10,26,11
India,TamilNadu,Salem,"Sona College of Technology, Salem - TNPCB",19-11-2025 07:00:00,11.679111,78.125052,PM2.5,13,146,43
India,TamilNadu,Salem,"Sona College of Technology, Salem - TNPCB",19-11-2025 07:00:00,11.679111,78.125052,CO,12,12,12
India,TamilNadu,Thoothukudi,"Meelavittan, Thoothukudi - TNPCB",19-11-2025 07:00:00,8.816428 ,78.099039,OZONE,2,16,5
India,TamilNadu,Tirupur,"Kumaran College, Tirupur - TNPCB",19-11-2025 07:00:00,11.0973603,77.3228673,NO2,NA,NA,NA
India,TamilNadu,Tirupur,"Kumaran College, Tirupur - TNPCB",19-11-2025 07:00:00,11.0973603,77.3228673,CO,22,26,26
India,Telangana,Hyderabad,"IDA Pashamylaram, Hyderabad - TSPCB",19-11-2025 07:00:00,17.5316895,78.218939,NO2,8,55,25
India,Telangana,Hyderabad,"IDA Pashamylaram, Hyderabad - TSPCB",19-11-2025 07:00:00,17.5316895,78.218939,SO2,2,15,7
India,Telangana,Hyderabad,"IDA Pashamylaram, Hyderabad - TSPCB",19-11-2025 07:00:00,17.5316895,78.218939,OZONE,8,27,8
India,Telangana,Hyderabad,"Kokapet, Hyderabad - TSPCB",19-11-2025 07:00:00,17.393559,78.339194,NO2,12,17,14
India,Telangana,Hyderabad,"Kompally Municipal Office, Hyderabad - TSPCB",19-11-2025 07:00:00,17.544899,78.486949,PM2.5,42,67,60
India,Telangana,Hyderabad,"Nacharam_TSIIC IALA, Hyderabad - TSPCB",19-11-2025 07:00:00,17.429398,78.569354,PM2.5,43,61,48
India,Uttar_Pradesh,Agra,"Sector-3B Avas Vikas Colony, Agra - UPPCB",19-11-2025 07:00:00,27.19412,77.96237,CO,28,103,70
India,Uttar_Pradesh,Agra,"Sector-3B Avas Vikas Colony, Agra - UPPCB",19-11-2025 07:00:00,27.19412,77.96237,OZONE,6,15,8
India,Uttar_Pradesh,Agra,"Shahjahan Garden, Agra - UPPCB",19-11-2025 07:00:00,27.169338,78.03582,CO,23,106,62
India,Uttar_Pradesh,Agra,"Shastripuram, Agra - UPPCB",19-11-2025 07:00:00,27.19862,77.92066,PM2.5,56,258,106
India,Uttar_Pradesh,Agra,"Shastripuram, Agra - UPPCB",19-11-2025 07:00:00,27.19862,77.92066,NH3,3,3,3
India,Uttar_Pradesh,Agra,"Shastripuram, Agra - UPPCB",19-11-2025 07:00:00,27.19862,77.92066,CO,24,38,31
India,Telangana,Hyderabad,"Bollaram Industrial Area, Hyderabad - TSPCB",19-11-2025 07:00:00,17.540891,78.358528,CO,17,37,24
India,Telangana,Hyderabad,"Central University, Hyderabad - TSPCB",19-11-2025 07:00:00,17.460103,78.334361,PM10,108,140,118
India,Telangana,Hyderabad,"ICRISAT Patancheru, Hyderabad - TSPCB",19-11-2025 07:00:00,17.518400,78.278777,PM2.5,108,190,165
India,Telangana,Hyderabad,"ICRISAT Patancheru, Hyderabad - TSPCB",19-11-2025 07:00:00,17.518400,78.278777,PM10,84,154,126
India,Telangana,Hyderabad,"ICRISAT Patancheru, Hyderabad - TSPCB",19-11-2025 07:00:00,17.518400,78.278777,NH3,1,5,3
India,Uttar_Pradesh,Bareilly,"Civil Lines, Bareilly - UPPCB",19-11-2025 07:00:00,28.359581,79.414455,PM10,35,89,56
India,Uttar_Pradesh,Bareilly,"Rajendra Nagar, Bareilly - UPPCB",19-11-2025 07:00:00,28.38910936,79.42963708,PM10,40,142,90
India,Uttar_Pradesh,Bulandshahr,"Yamunapuram, Bulandshahr - UPPCB",19-11-2025 07:00:00,28.406963,77.849831,PM2.5,204,416,340
India,Uttar_Pradesh,Bulandshahr,"Yamunapuram, Bulandshahr - UPPCB",19-11-2025 07:00:00,28.406963,77.849831,OZONE,1,145,6
India,Telangana,Hyderabad,"New Malakpet, Hyderabad - TSPCB",19-11-2025 07:00:00,17.37206,78.50864,CO,28,42,31
India,Telangana,Hyderabad,"Ramachandrapuram, Hyderabad - TSPCB",19-11-2025 07:00:00,17.528544,78.286195,SO2,12,16,14
India,Telangana,Hyderabad,"Ramachandrapuram, Hyderabad - TSPCB",19-11-2025 07:00:00,17.528544,78.286195,OZONE,22,27,23
India,Telangana,Hyderabad,"Sanathnagar, Hyderabad - TSPCB",19-11-2025 07:00:00,17.4559458,78.4332152,SO2,4,11,7
India,Telangana,Hyderabad,"Sanathnagar, Hyderabad - TSPCB",19-11-2025 07:00:00,17.4559458,78.4332152,OZONE,12,17,15
India,TamilNadu,Gummidipoondi,"Anthoni Pillai Nagar, Gummidipoondi - TNPCB",19-11-2025 07:00:00,13.4127,80.1081,SO2,NA,NA,NA
India,TamilNadu,Karur,"Kamadenu Nagar, Karur - TNPCB",19-11-2025 07:00:00,10.967820,78.080882,NH3,NA,NA,NA
India,TamilNadu,Karur,"Kamadenu Nagar, Karur - TNPCB",19-11-2025 07:00:00,10.967820,78.080882,OZONE,NA,NA,NA
India,TamilNadu,Nagapattinam,"Velippalayam, Nagapattinam - TNPCB",19-11-2025 07:00:00,10.798548,79.838212,PM2.5,NA,NA,NA
India,TamilNadu,Nagapattinam,"Velippalayam, Nagapattinam - TNPCB",19-11-2025 07:00:00,10.798548,79.838212,SO2,NA,NA,NA
India,Uttar_Pradesh,Firozabad,"Nagla Bhau, Firozabad - UPPCB",19-11-2025 07:00:00,27.168897,78.376960,NO2,17,17,17
India,Uttar_Pradesh,Firozabad,"Vibhab Nagar, Firozabad - UPPCB",19-11-2025 07:00:00,27.1594,78.3953,PM2.5,NA,NA,NA
India,Uttar_Pradesh,Ghaziabad,"Sanjay Nagar, Ghaziabad - UPPCB",19-11-2025 07:00:00,28.685382,77.453839,NO2,4,25,10
India,Uttar_Pradesh,Ghaziabad,"Sanjay Nagar, Ghaziabad - UPPCB",19-11-2025 07:00:00,28.685382,77.453839,NH3,7,32,13
India,Uttar_Pradesh,Ghaziabad,"Sanjay Nagar, Ghaziabad - UPPCB",19-11-2025 07:00:00,28.685382,77.453839,CO,NA,NA,NA
India,Uttar_Pradesh,Ghaziabad,"Vasundhara, Ghaziabad - UPPCB",19-11-2025 07:00:00,28.6603346,77.3572563,NH3,15,32,22
India,Uttar_Pradesh,Ghaziabad,"Vasundhara, Ghaziabad - UPPCB",19-11-2025 07:00:00,28.6603346,77.3572563,OZONE,11,184,13
India,Uttar_Pradesh,Gorakhpur,"Madan Mohan Malaviya University of Technology, Gorakhpur - UPPCB",19-11-2025 07:00:00,26.730136,83.433859,SO2,30,32,31
India,Uttar_Pradesh,Greater Noida,"Knowledge Park - III, Greater Noida - UPPCB",19-11-2025 07:00:00,28.47272,77.482000,PM2.5,323,500,422
India,Uttar_Pradesh,Greater Noida,"Knowledge Park - III, Greater Noida - UPPCB",19-11-2025 07:00:00,28.47272,77.482000,PM10,266,500,423
India,Uttar_Pradesh,Greater Noida,"Knowledge Park - III, Greater Noida - UPPCB",19-11-2025 07:00:00,28.47272,77.482000,NO2,50,211,121
India,Uttar_Pradesh,Lucknow,"Gomti Nagar, Lucknow - UPPCB",19-11-2025 07:00:00,26.868120,81.005119,OZONE,28,41,30
India,Uttar_Pradesh,Lucknow,"Kendriya Vidyalaya, Lucknow - CPCB",19-11-2025 07:00:00,26.906111,80.948222,PM10,55,155,112
India,Uttar_Pradesh,Lucknow,"Kendriya Vidyalaya, Lucknow - CPCB",19-11-2025 07:00:00,26.906111,80.948222,NO2,45,48,47
India,Uttar_Pradesh,Lucknow,"Kendriya Vidyalaya, Lucknow - CPCB",19-11-2025 07:00:00,26.906111,80.948222,SO2,4,18,9
India,Uttar_Pradesh,Lucknow,"Kendriya Vidyalaya, Lucknow - CPCB",19-11-2025 07:00:00,26.906111,80.948222,CO,34,114,76
India,Uttar_Pradesh,Lucknow,"Kukrail Picnic Spot-1, Lucknow - UPPCB",19-11-2025 07:00:00,26.90723,80.98579,PM2.5,19,106,57
India,Uttar_Pradesh,Lucknow,"Lalbagh, Lucknow - CPCB",19-11-2025 07:00:00,26.8458805,80.9365541,PM2.5,NA,NA,NA
India,Uttar_Pradesh,Lucknow,"Lalbagh, Lucknow - CPCB",19-11-2025 07:00:00,26.8458805,80.9365541,PM10,NA,NA,NA
India,Uttar_Pradesh,Moradabad,"Buddhi Vihar, Moradabad - UPPCB",19-11-2025 07:00:00,28.83526,78.74460,NH3,5,5,5
India,Uttar_Pradesh,Moradabad,"Buddhi Vihar, Moradabad - UPPCB",19-11-2025 07:00:00,28.83526,78.74460,SO2,78,86,81
India,Uttar_Pradesh,Moradabad,"Eco Herbal Park, Moradabad - UPPCB",19-11-2025 07:00:00,28.840739,78.697531,SO2,8,26,15
India,Uttar_Pradesh,Moradabad,"Employment Office, Moradabad - UPPCB",19-11-2025 07:00:00,28.88528,78.73880,PM2.5,41,142,84
India,Uttar_Pradesh,Moradabad,"Employment Office, Moradabad - UPPCB",19-11-2025 07:00:00,28.88528,78.73880,PM10,45,124,93
India,Uttar_Pradesh,Moradabad,"Jigar Colony, Moradabad - UPPCB",19-11-2025 07:00:00,28.856664,78.772638,SO2,17,36,29
India,Uttar_Pradesh,Moradabad,"Kashiram Nagar, Moradabad - UPPCB",19-11-2025 07:00:00,28.849399,78.742362,PM10,51,156,108
India,Uttar_Pradesh,Lucknow,"Talkatora District Industries Center, Lucknow - CPCB",19-11-2025 07:00:00,26.83399722,80.8917361,NH3,8,31,16
India,Uttar_Pradesh,Meerut,"Ganga Nagar, Meerut - UPPCB",19-11-2025 07:00:00,28.999264,77.7590354,OZONE,9,154,17
India,Uttar_Pradesh,Meerut,"Jai Bhim Nagar, Meerut - UPPCB",19-11-2025 07:00:00,28.9535882,77.7622941,CO,31,108,89
India,Uttar_Pradesh,Meerut,"Pallavpuram Phase 2, Meerut - UPPCB",19-11-2025 07:00:00,29.063510,77.709723,PM2.5,218,497,381
India,Uttar_Pradesh,Moradabad,"Buddhi Vihar, Moradabad - UPPCB",19-11-2025 07:00:00,28.83526,78.74460,PM10,50,209,107
India,Uttar_Pradesh,Greater Noida,"Knowledge Park - V, Greater Noida - UPPCB",19-11-2025 07:00:00,28.557054,77.453663,NO2,53,186,129
India,Uttar_Pradesh,Hapur,"Anand Vihar, Hapur - UPPCB",19-11-2025 07:00:00,28.725645,77.749675,NH3,5,59,31
India,Uttar_Pradesh,Kanpur,"FTI Kidwai Nagar, Kanpur - UPPCB",19-11-2025 07:00:00,26.428282,80.327067,PM10,35,150,96
India,Uttar_Pradesh,Kanpur,"FTI Kidwai Nagar, Kanpur - UPPCB",19-11-2025 07:00:00,26.428282,80.327067,SO2,34,43,39
India,Uttar_Pradesh,Kanpur,"NSI Kalyanpur, Kanpur - UPPCB",19-11-2025 07:00:00,26.509954,80.249612,PM10,37,136,94
India,Uttar_Pradesh,Noida,"Sector-116, Noida - UPPCB",19-11-2025 07:00:00,28.569230,77.393848,PM10,283,500,434
India,Uttar_Pradesh,Noida,"Sector-116, Noida - UPPCB",19-11-2025 07:00:00,28.569230,77.393848,NH3,7,12,9
India,Uttar_Pradesh,Prayagraj,"Jhunsi, Prayagraj - UPPCB",19-11-2025 07:00:00,25.425602,81.917152,SO2,7,19,9
India,Uttar_Pradesh,Prayagraj,"Jhunsi, Prayagraj - UPPCB",19-11-2025 07:00:00,25.425602,81.917152,OZONE,15,47,15
India,Uttar_Pradesh,Prayagraj,"Motilal Nehru NIT, Prayagraj - UPPCB",19-11-2025 07:00:00,25.494,81.863,PM10,105,299,191
India,Uttar_Pradesh,Prayagraj,"Motilal Nehru NIT, Prayagraj - UPPCB",19-11-2025 07:00:00,25.494,81.863,CO,24,70,63
India,Uttar_Pradesh,Prayagraj,"Nagar Nigam, Prayagraj - UPPCB",19-11-2025 07:00:00,25.44919916 ,81.82735986 ,PM2.5,78,311,209
India,Uttar_Pradesh,Prayagraj,"Nagar Nigam, Prayagraj - UPPCB",19-11-2025 07:00:00,25.44919916 ,81.82735986 ,CO,32,106,91
India,Uttar_Pradesh,Varanasi,"Bhelupur, Varanasi - UPPCB",19-11-2025 07:00:00,25.301778,82.996789,NO2,7,8,8
India,Uttar_Pradesh,Kanpur,"Nehru Nagar, Kanpur - UPPCB",19-11-2025 07:00:00,26.4703136,80.3229863,OZONE,6,43,6
India,Uttar_Pradesh,Khurja,"Kalindi Kunj, Khurja - UPPCB",19-11-2025 07:00:00,28.2348927,77.8683002,PM2.5,157,363,299
India,Uttar_Pradesh,Khurja,"Kalindi Kunj, Khurja - UPPCB",19-11-2025 07:00:00,28.2348927,77.8683002,CO,14,98,81
India,Uttar_Pradesh,Moradabad,"Transport Nagar, Moradabad - UPPCB",19-11-2025 07:00:00,28.802625,78.753728,PM2.5,27,132,72
India,Uttar_Pradesh,Muzaffarnagar,"New Mandi, Muzaffarnagar - UPPCB",19-11-2025 07:00:00,29.4723508,77.7194031,PM10,118,334,204
India,Uttar_Pradesh,Varanasi,"IESD Banaras Hindu University, Varanasi - UPPCB",19-11-2025 07:00:00,25.262326,82.995408,NH3,1,5,3
India,Uttar_Pradesh,Varanasi,"Maldahiya, Varanasi - UPPCB",19-11-2025 07:00:00,25.32393,82.99687,SO2,27,28,27
India,Uttar_Pradesh,Vrindavan,"Omex Eternity, Vrindavan - UPPCB",19-11-2025 07:00:00,27.5714090,77.6557570,PM2.5,28,196,102
India,Uttar_Pradesh,Vrindavan,"Omex Eternity, Vrindavan - UPPCB",19-11-2025 07:00:00,27.5714090,77.6557570,SO2,11,23,14
India,Uttar_Pradesh,Vrindavan,"Omex Eternity, Vrindavan - UPPCB",19-11-2025 07:00:00,27.5714090,77.6557570,OZONE,15,16,15
India,Uttarakhand,Dehradun,"Doon University, Dehradun - UKPCB",19-11-2025 07:00:00,30.269444,78.044167,SO2,2,2,2
India,Uttarakhand,Dehradun,"Doon University, Dehradun - UKPCB",19-11-2025 07:00:00,30.269444,78.044167,CO,2,24,9
India,Uttarakhand,Kashipur,"Govt. Girls Inter College, Kashipur - UKPCB",19-11-2025 07:00:00,29.2124114,78.9611753,NH3,3,14,6
India,Uttarakhand,Kashipur,"Govt. Girls Inter College, Kashipur - UKPCB",19-11-2025 07:00:00,29.2124114,78.9611753,SO2,7,9,8
India,Uttarakhand,Kashipur,"Govt. Girls Inter College, Kashipur - UKPCB",19-11-2025 07:00:00,29.2124114,78.9611753,OZONE,1,4,1
India,Uttarakhand,Rishikesh,"Shivaji Nagar, Rishikesh - UKPCB",19-11-2025 07:00:00,30.075911,78.2859547,NO2,12,16,14
India,West_Bengal,Asansol,"Asansol Court Area, Asansol - WBPCB",19-11-2025 07:00:00,23.685297,86.945968,PM2.5,37,218,99
India,West_Bengal,Asansol,"Asansol Court Area, Asansol - WBPCB",19-11-2025 07:00:00,23.685297,86.945968,SO2,15,23,17
India,West_Bengal,Asansol,"Evelyn Lodge, Asansol - WBPCB",19-11-2025 07:00:00,23.6979360,86.9443950,PM2.5,28,198,95
India,West_Bengal,Asansol,"Evelyn Lodge, Asansol - WBPCB",19-11-2025 07:00:00,23.6979360,86.9443950,NH3,3,3,3
India,West_Bengal,Asansol,"Mahabir Colliery, Asansol - WBPCB",19-11-2025 07:00:00,23.6181830,87.1057180,PM10,30,157,95
India,West_Bengal,Asansol,"Mahabir Colliery, Asansol - WBPCB",19-11-2025 07:00:00,23.6181830,87.1057180,OZONE,11,46,12
India,West_Bengal,Asansol,"Trivenidevi Bhalotia College, Asansol - WBPCB",19-11-2025 07:00:00,23.616515,87.119133,PM2.5,32,268,113
India,West_Bengal,Asansol,"Trivenidevi Bhalotia College, Asansol - WBPCB",19-11-2025 07:00:00,23.616515,87.119133,PM10,43,158,107
India,West_Bengal,Asansol,"Trivenidevi Bhalotia College, Asansol - WBPCB",19-11-2025 07:00:00,23.616515,87.119133,NH3,6,8,6
India,West_Bengal,Asansol,"Trivenidevi Bhalotia College, Asansol - WBPCB",19-11-2025 07:00:00,23.616515,87.119133,CO,16,107,59
India,West_Bengal,Barrackpore,"SVSPA Campus, Barrackpore - WBPCB",19-11-2025 07:00:00,22.7605581,88.3617589,PM2.5,28,149,81
India,West_Bengal,Barrackpore,"SVSPA Campus, Barrackpore - WBPCB",19-11-2025 07:00:00,22.7605581,88.3617589,NO2,6,50,23
India,West_Bengal,Durgapur,"Mahishkapur Road_B-Zone, Durgapur - WBPCB",19-11-2025 07:00:00,23.567923,87.306843,PM2.5,22,142,70
India,West_Bengal,Durgapur,"Mahishkapur Road_B-Zone, Durgapur - WBPCB",19-11-2025 07:00:00,23.567923,87.306843,NO2,9,61,31
India,West_Bengal,Durgapur,"Mahishkapur Road_B-Zone, Durgapur - WBPCB",19-11-2025 07:00:00,23.567923,87.306843,CO,27,77,50
India,West_Bengal,Durgapur,"PCBL Residential Complex, Durgapur - WBPCB",19-11-2025 07:00:00,23.5087640,87.3544400,PM10,34,113,78
India,West_Bengal,Durgapur,"Womens College_City Center, Durgapur - WBPCB (Formerly known as Sidhu Kanhu Indoor Stadium)",19-11-2025 07:00:00,23.549395,87.300496,CO,14,52,38
India,West_Bengal,Haldia,"Priyambada Housing Estate, Haldia - WBPCB",19-11-2025 07:00:00,22.06047,88.109737,NH3,NA,NA,NA
India,West_Bengal,Haldia,"Priyambada Housing Estate, Haldia - WBPCB",19-11-2025 07:00:00,22.06047,88.109737,SO2,5,28,14
India,West_Bengal,Haldia,"Priyambada Housing Estate, Haldia - WBPCB",19-11-2025 07:00:00,22.06047,88.109737,OZONE,18,38,23
India,West_Bengal,Howrah,"Botanical Garden, Howrah - WBPCB",19-11-2025 07:00:00,22.554954,88.292568,NH3,2,2,2
India,West_Bengal,Howrah,"Botanical Garden, Howrah - WBPCB",19-11-2025 07:00:00,22.554954,88.292568,CO,48,112,109
India,West_Bengal,Howrah,"Ghusuri, Howrah - WBPCB",19-11-2025 07:00:00,22.611968,88.347422,PM2.5,68,311,183
India,West_Bengal,Howrah,"Ghusuri, Howrah - WBPCB",19-11-2025 07:00:00,22.611968,88.347422,NO2,21,37,26
India,West_Bengal,Howrah,"Ghusuri, Howrah - WBPCB",19-11-2025 07:00:00,22.611968,88.347422,CO,14,108,103
India,West_Bengal,Howrah,"Ghusuri, Howrah - WBPCB",19-11-2025 07:00:00,22.611968,88.347422,OZONE,3,24,8
India,West_Bengal,Kolkata,"Ballygunge, Kolkata - WBPCB",19-11-2025 07:00:00,22.5367507,88.3638022,CO,18,111,106
India,West_Bengal,Kolkata,"Bidhannagar, Kolkata - WBPCB",19-11-2025 07:00:00,22.58157048,88.41002457,PM2.5,37,184,86
India,West_Bengal,Kolkata,"Fort William, Kolkata - WBPCB",19-11-2025 07:00:00,22.556640,88.342674,SO2,10,32,14
India,West_Bengal,Kolkata,"Fort William, Kolkata - WBPCB",19-11-2025 07:00:00,22.556640,88.342674,OZONE,22,74,29
India,West_Bengal,Kolkata,"Jadavpur, Kolkata - WBPCB",19-11-2025 07:00:00,22.49929,88.36917,NH3,3,5,4
India,West_Bengal,Kolkata,"Jadavpur, Kolkata - WBPCB",19-11-2025 07:00:00,22.49929,88.36917,SO2,1,3,2
India,West_Bengal,Kolkata,"Rabindra Bharati University, Kolkata - WBPCB",19-11-2025 07:00:00,22.627847,88.380669,PM2.5,43,325,140
India,West_Bengal,Kolkata,"Rabindra Bharati University, Kolkata - WBPCB",19-11-2025 07:00:00,22.627847,88.380669,PM10,66,195,124
India,West_Bengal,Kolkata,"Rabindra Bharati University, Kolkata - WBPCB",19-11-2025 07:00:00,22.627847,88.380669,SO2,8,11,9
India,West_Bengal,Kolkata,"Rabindra Sarobar, Kolkata - WBPCB",19-11-2025 07:00:00,22.51106,88.35142,NH3,8,27,16
India,Andhra_Pradesh,Vijayawada,"Rajiv Nagar, Vijayawada - APPCB",19-11-2025 07:00:00,16.554731,80.649110,OZONE,66,116,90
India,Andhra_Pradesh,Visakhapatnam,"GVM Corporation, Visakhapatnam - APPCB",19-11-2025 07:00:00,17.72,83.3,CO,10,40,15
India,Arunachal_Pradesh,Naharlagun,"Naharlagun, Naharlagun - APSPCB",19-11-2025 07:00:00,27.103358,93.679645,PM10,37,216,98
India,Arunachal_Pradesh,Naharlagun,"Naharlagun, Naharlagun - APSPCB",19-11-2025 07:00:00,27.103358,93.679645,SO2,8,9,8
India,Arunachal_Pradesh,Naharlagun,"Naharlagun, Naharlagun - APSPCB",19-11-2025 07:00:00,27.103358,93.679645,CO,7,54,13
India,Assam,Byrnihat,"Central Academy for SFS, Byrnihat - PCBA",19-11-2025 07:00:00,26.071318,91.87488,PM2.5,80,147,104
India,Assam,Byrnihat,"Central Academy for SFS, Byrnihat - PCBA",19-11-2025 07:00:00,26.071318,91.87488,NO2,6,10,7
India,Assam,Byrnihat,"Central Academy for SFS, Byrnihat - PCBA",19-11-2025 07:00:00,26.071318,91.87488,SO2,5,8,6
India,Assam,Guwahati,"IITG, Guwahati - PCBA",19-11-2025 07:00:00,26.2028636,91.70046436,SO2,22,25,24
India,Andhra_Pradesh,Chittoor,"Gangineni Cheruvu, Chittoor - APPCB",19-11-2025 07:00:00,13.204880,79.097889,PM10,11,184,73
India,Andhra_Pradesh,Chittoor,"Gangineni Cheruvu, Chittoor - APPCB",19-11-2025 07:00:00,13.204880,79.097889,SO2,7,34,16
India,Andhra_Pradesh,Kadapa,"Yerramukkapalli, Kadapa - APPCB",19-11-2025 07:00:00,14.465052,78.824187,NO2,17,28,21
India,Andhra_Pradesh,Kadapa,"Yerramukkapalli, Kadapa - APPCB",19-11-2025 07:00:00,14.465052,78.824187,NH3,3,4,4
India,Andhra_Pradesh,Tirumala,"Toll Gate, Tirumala - APPCB",19-11-2025 07:00:00,13.67,79.35,PM10,20,64,36
India,Bihar,Arrah,"New DM Office, Arrah - BSPCB",19-11-2025 07:00:00,25.5626095,84.663264,CO,39,65,50
India,Bihar,Aurangabad,"Gurdeo Nagar, Aurangabad - BSPCB",19-11-2025 07:00:00,24.75746,84.366208,SO2,8,18,12
India,Bihar,Begusarai,"Lohiyanagar, Begusarai - BSPCB",19-11-2025 07:00:00,25.42742023,86.13886079,OZONE,20,106,20
India,Bihar,Bettiah,"Kamalnath Nagar, Bettiah - BSPCB",19-11-2025 07:00:00,26.80365,84.51954,NH3,1,1,1
India,Bihar,Bihar Sharif,"D M Colony, Bihar Sharif - BSPCB",19-11-2025 07:00:00,25.204762,85.514960,SO2,10,10,10
India,Bihar,Bihar Sharif,"D M Colony, Bihar Sharif - BSPCB",19-11-2025 07:00:00,25.204762,85.514960,CO,10,48,42
India,Bihar,Bihar Sharif,"D M Colony, Bihar Sharif - BSPCB",19-11-2025 07:00:00,25.204762,85.514960,OZONE,NA,NA,NA
India,Bihar,Buxar,"Charitra Van, Buxar - BSPCB",19-11-2025 07:00:00,25.567520,83.966379,NH3,3,3,3
India,Bihar,Chhapra,"Darshan Nagar, Chhapra - BSPCB",19-11-2025 07:00:00,25.7808257,84.7446768,NO2,2,4,3
India,Assam,Nalbari,"Bata Chowk, Nalbari - PCBA",19-11-2025 07:00:00,26.446912,91.439057,CO,14,28,21
India,Assam,Silchar,"Tarapur, Silchar - PCBA",19-11-2025 07:00:00,24.82827,92.79525,NO2,15,19,18
India,Assam,Silchar,"Tarapur, Silchar - PCBA",19-11-2025 07:00:00,24.82827,92.79525,CO,22,60,49
India,Assam,Silchar,"Tarapur, Silchar - PCBA",19-11-2025 07:00:00,24.82827,92.79525,OZONE,1,12,2
India,Assam,Sivasagar,"Girls College, Sivasagar - PCBA",19-11-2025 07:00:00,26.987634,94.636574,NH3,7,22,12
India,Andhra_Pradesh,Tirumala,"Toll Gate, Tirumala - APPCB",19-11-2025 07:00:00,13.67,79.35,OZONE,8,165,67
India,Andhra_Pradesh,Vijayawada,"Rajiv Gandhi Park, Vijayawada - APPCB",19-11-2025 07:00:00,16.509717,80.612222,SO2,10,21,15
India,Andhra_Pradesh,Vijayawada,"Rajiv Gandhi Park, Vijayawada - APPCB",19-11-2025 07:00:00,16.509717,80.612222,OZONE,18,58,25
India,Andhra_Pradesh,Vijayawada,"Rajiv Nagar, Vijayawada - APPCB",19-11-2025 07:00:00,16.554731,80.649110,SO2,15,24,20
India,Bihar,Gaya,"Kareemganj, Gaya - BSPCB",19-11-2025 07:00:00,24.792403,84.992416,CO,39,43,42
India,Bihar,Gaya,"SFTI Kusdihra, Gaya - BSPCB",19-11-2025 07:00:00,24.762518,84.982348,NH3,4,5,5
India,Bihar,Gaya,"SFTI Kusdihra, Gaya - BSPCB",19-11-2025 07:00:00,24.762518,84.982348,SO2,8,9,9
India,Bihar,Hajipur,"Industrial Area, Hajipur - BSPCB",19-11-2025 07:00:00,25.697189,85.245900,PM10,72,98,85
India,Assam,Guwahati,"LGBI Airport, Guwahati - PCBA",19-11-2025 07:00:00,26.10887,91.589544,NO2,8,19,14
India,Assam,Guwahati,"Railway Colony, Guwahati - PCBA",19-11-2025 07:00:00,26.181742,91.78063,PM2.5,17,330,108
India,Assam,Nalbari,"Bata Chowk, Nalbari - PCBA",19-11-2025 07:00:00,26.446912,91.439057,PM10,31,133,53
India,Bihar,Bhagalpur,"DM Office_Kachari Chowk, Bhagalpur - BSPCB",19-11-2025 07:00:00,25.251013,86.989001,OZONE,NA,NA,NA
India,Bihar,Bhagalpur,"Mayaganj, Bhagalpur - BSPCB",19-11-2025 07:00:00,25.265194,87.012947,SO2,7,64,34
India,Andhra_Pradesh,Amaravati,"Secretariat, Amaravati - APPCB",19-11-2025 07:00:00,16.5150833,80.5181667,PM2.5,49,99,80
India,Bihar,Muzaffarpur,"Muzaffarpur Collectorate, Muzaffarpur - BSPCB",19-11-2025 07:00:00,26.1209,85.3647,SO2,4,5,4
India,Bihar,Muzaffarpur,"Muzaffarpur Collectorate, Muzaffarpur - BSPCB",19-11-2025 07:00:00,26.1209,85.3647,OZONE,8,18,8
India,Bihar,Patna,"Govt. High School Shikarpur, Patna - BSPCB",19-11-2025 07:00:00,25.592539,85.227158,PM10,58,146,118
India,Bihar,Patna,"Govt. High School Shikarpur, Patna - BSPCB",19-11-2025 07:00:00,25.592539,85.227158,NO2,9,31,17
India,Bihar,Patna,"Govt. High School Shikarpur, Patna - BSPCB",19-11-2025 07:00:00,25.592539,85.227158,OZONE,8,14,11
India,Bihar,Patna,"IGSC Planetarium Complex, Patna - BSPCB",19-11-2025 07:00:00,25.610369,85.132568,NO2,5,13,12
India,Bihar,Patna,"IGSC Planetarium Complex, Patna - BSPCB",19-11-2025 07:00:00,25.610369,85.132568,OZONE,28,30,30
India,Bihar,Kishanganj,"SDM Office_Khagra, Kishanganj - BSPCB",19-11-2025 07:00:00,26.0881305,87.93840336,PM2.5,40,48,43
India,Bihar,Muzaffarpur,"Buddha Colony, Muzaffarpur - BSPCB",19-11-2025 07:00:00,26.11442,85.39813,PM10,55,108,91
India,Bihar,Manguraha,"Forest Rest House, Manguraha - BSPCB",19-11-2025 07:00:00,27.308328,84.531742,CO,17,32,32
India,Bihar,Munger,"Town Hall, Munger - BSPCB",19-11-2025 07:00:00,25.376776,86.471523,OZONE,10,27,12
India,Bihar,Munger,"Town Hall, Munger - BSPCB",19-11-2025 07:00:00,25.376776,86.471523,PM10,31,127,90
India,Bihar,Motihari,"Gandak Colony, Motihari - BSPCB",19-11-2025 07:00:00,26.63086,84.90051,NO2,5,8,6
India,Bihar,Munger,"Town Hall, Munger - BSPCB",19-11-2025 07:00:00,25.376776,86.471523,SO2,16,21,19
India,Bihar,Siwan,"Chitragupta Nagar, Siwan - BSPCB",19-11-2025 07:00:00,26.2271665,84.3570427,OZONE,5,14,12
India,Chandigarh,Chandigarh,"Sector 22, Chandigarh - CPCC",19-11-2025 07:00:00,30.735567,76.775714,PM2.5,42,197,100
India,Chandigarh,Chandigarh,"Sector-25, Chandigarh - CPCC",19-11-2025 07:00:00,30.751462,76.762879,PM2.5,39,170,100
India,Chhattisgarh,Bhilai,"32Bungalows, Bhilai - CECB",19-11-2025 07:00:00,21.194815,81.314770,OZONE,2,87,6
India,Chhattisgarh,Bhilai,"Civic Center, Bhilai - Bhilai Steel Plant",19-11-2025 07:00:00,21.185571,81.343175,PM10,52,128,87
India,Chhattisgarh,Bhilai,"Civic Center, Bhilai - Bhilai Steel Plant",19-11-2025 07:00:00,21.185571,81.343175,NO2,10,11,11
India,Chhattisgarh,Bhilai,"Civic Center, Bhilai - Bhilai Steel Plant",19-11-2025 07:00:00,21.185571,81.343175,CO,30,32,31
India,Bihar,Saharsa,"Police Line, Saharsa - BSPCB",19-11-2025 07:00:00,25.892357,86.590325,CO,26,39,34
India,Bihar,Samastipur,"DM Office_Kasipur, Samastipur - BSPCB",19-11-2025 07:00:00,25.859655,85.77944,PM2.5,25,157,77
India,Bihar,Samastipur,"DM Office_Kasipur, Samastipur - BSPCB",19-11-2025 07:00:00,25.859655,85.77944,NO2,7,9,8
India,Bihar,Samastipur,"DM Office_Kasipur, Samastipur - BSPCB",19-11-2025 07:00:00,25.859655,85.77944,OZONE,8,8,8
India,Bihar,Siwan,"Chitragupta Nagar, Siwan - BSPCB",19-11-2025 07:00:00,26.2271665,84.3570427,PM10,30,92,60
India,Bihar,Siwan,"Chitragupta Nagar, Siwan - BSPCB",19-11-2025 07:00:00,26.2271665,84.3570427,NH3,1,3,1
India,Bihar,Rajgir,"Dangi Tola, Rajgir - BSPCB",19-11-2025 07:00:00,25.03280,85.41948,OZONE,28,38,32
India,Bihar,Patna,"Muradpur, Patna - BSPCB",19-11-2025 07:00:00,25.619651,85.147382,CO,36,75,53
India,Delhi,Delhi,"Bawana, Delhi - DPCC",19-11-2025 07:00:00,28.776200,77.051074,OZONE,4,154,5
India,Delhi,Delhi,"Burari Crossing, Delhi - IMD",19-11-2025 07:00:00,28.7256504,77.2011573,PM2.5,302,479,388
India,Delhi,Delhi,"Burari Crossing, Delhi - IMD",19-11-2025 07:00:00,28.7256504,77.2011573,NO2,6,207,87
India,Delhi,Delhi,"CRRI Mathura Road, Delhi - IMD",19-11-2025 07:00:00,28.5512005,77.2735737,PM10,236,424,374
India,Delhi,Delhi,"CRRI Mathura Road, Delhi - IMD",19-11-2025 07:00:00,28.5512005,77.2735737,NO2,1,72,34
India,Delhi,Delhi,"CRRI Mathura Road, Delhi - IMD",19-11-2025 07:00:00,28.5512005,77.2735737,OZONE,11,176,14
India,Delhi,Delhi,"DTU, Delhi - CPCB",19-11-2025 07:00:00,28.7500499,77.1112615,PM2.5,307,500,435
India,Delhi,Delhi,"DTU, Delhi - CPCB",19-11-2025 07:00:00,28.7500499,77.1112615,PM10,150,449,349
India,Delhi,Delhi,"DTU, Delhi - CPCB",19-11-2025 07:00:00,28.7500499,77.1112615,NH3,4,12,9
India,Chhattisgarh,Bhilai,"Hathkhoj, Bhilai - CECB",19-11-2025 07:00:00,21.224231,81.408350,PM2.5,65,127,92
India,Chhattisgarh,Bhilai,"Hathkhoj, Bhilai - CECB",19-11-2025 07:00:00,21.224231,81.408350,PM10,76,124,97
India,Chhattisgarh,Chhal,"Nawapara SECL Colony, Chhal - CECB",19-11-2025 07:00:00,22.118125,83.140608,NH3,6,6,6
India,Chhattisgarh,Chhal,"Nawapara SECL Colony, Chhal - CECB",19-11-2025 07:00:00,22.118125,83.140608,OZONE,6,180,13
India,Chhattisgarh,Korba,"Rampur, Korba - CECB",19-11-2025 07:00:00,22.368195,82.746431,PM2.5,37,58,49
India,Delhi,Delhi,"Anand Vihar, Delhi - DPCC",19-11-2025 07:00:00,28.647622,77.3158090,SO2,43,62,51
India,Delhi,Delhi,"Anand Vihar, Delhi - DPCC",19-11-2025 07:00:00,28.647622,77.3158090,CO,39,157,141
India,Delhi,Delhi,"Ashok Vihar, Delhi - DPCC",19-11-2025 07:00:00,28.695381,77.181665,PM2.5,316,500,435
India,Delhi,Delhi,"Aya Nagar, Delhi - IMD",19-11-2025 07:00:00,28.4706914,77.1099364,PM10,231,445,374
India,Chhattisgarh,Korba,"Rampur, Korba - CECB",19-11-2025 07:00:00,22.368195,82.746431,NO2,14,25,20
India,Chhattisgarh,Korba,"Rampur, Korba - CECB",19-11-2025 07:00:00,22.368195,82.746431,OZONE,2,8,2
India,Chhattisgarh,Milupara,"Govt. Higher Secondary School, Milupara - CECB",19-11-2025 07:00:00,22.1910172,83.5197009,NH3,1,2,1
India,Chhattisgarh,Milupara,"Govt. Higher Secondary School, Milupara - CECB",19-11-2025 07:00:00,22.1910172,83.5197009,SO2,11,14,13
India,Chhattisgarh,Raipur,"AIIMS, Raipur - CECB",19-11-2025 07:00:00,21.258815,81.578979,SO2,4,14,8
India,Chhattisgarh,Raipur,"Bhatagaon New ISBT, Raipur - CECB",19-11-2025 07:00:00,21.219665,81.630094,SO2,6,16,9
India,Chhattisgarh,Raipur,"Krishak Nagar, Raipur - CECB",19-11-2025 07:00:00,21.237755,81.705301,PM10,33,64,48
India,Chhattisgarh,Raipur,"Krishak Nagar, Raipur - CECB",19-11-2025 07:00:00,21.237755,81.705301,SO2,2,11,6
India,Chhattisgarh,Raipur,"Siltara Phase-II, Raipur - CECB",19-11-2025 07:00:00,21.371751,81.664929,OZONE,3,3,3
India,Chhattisgarh,Tumidih,"OP Jindal Industrial Park, Tumidih - CECB",19-11-2025 07:00:00,22.06631475,83.33820077,NO2,32,93,60
India,Delhi,Delhi,"IHBAS, Dilshad Garden, Delhi - CPCB",19-11-2025 07:00:00,28.6811736,77.3025234,PM10,204,424,316
India,Delhi,Delhi,"Dwarka-Sector 8, Delhi - DPCC ",19-11-2025 07:00:00,28.5710274,77.0719006,NH3,12,16,14
India,Delhi,Delhi,"IGI Airport (T3), Delhi - IMD",19-11-2025 07:00:00,28.5627763,77.1180053,OZONE,1,7,5
India,Delhi,Delhi,"Narela, Delhi - DPCC",19-11-2025 07:00:00,28.822836,77.101981,SO2,1,25,11
India,Delhi,Delhi,"Nehru Nagar, Delhi - DPCC",19-11-2025 07:00:00,28.567890,77.250515,PM10,250,445,374
India,Delhi,Delhi,"North Campus, DU, Delhi - IMD",19-11-2025 07:00:00,28.6573814,77.1585447,PM2.5,313,500,411
India,Delhi,Delhi,"North Campus, DU, Delhi - IMD",19-11-2025 07:00:00,28.6573814,77.1585447,NO2,80,279,149
India,Delhi,Delhi,"North Campus, DU, Delhi - IMD",19-11-2025 07:00:00,28.6573814,77.1585447,OZONE,20,325,29
India,Delhi,Delhi,"Okhla Phase-2, Delhi - DPCC",19-11-2025 07:00:00,28.530785,77.271255,PM2.5,316,455,395
India,Delhi,Delhi,"Okhla Phase-2, Delhi - DPCC",19-11-2025 07:00:00,28.530785,77.271255,PM10,229,432,377
India,Delhi,Delhi,"R K Puram, Delhi - DPCC",19-11-2025 07:00:00,28.563262,77.186937,NH3,5,8,6
India,Delhi,Delhi,"R K Puram, Delhi - DPCC",19-11-2025 07:00:00,28.563262,77.186937,SO2,12,35,21
India,Delhi,Delhi,"Rohini, Delhi - DPCC",19-11-2025 07:00:00,28.732528,77.119920,NH3,15,27,21
India,Delhi,Delhi,"Rohini, Delhi - DPCC",19-11-2025 07:00:00,28.732528,77.119920,CO,28,139,114
India,Delhi,Delhi,"Shadipur, Delhi - CPCB",19-11-2025 07:00:00,28.6514781,77.1473105,PM2.5,200,319,266
India,Delhi,Delhi,"Sirifort, Delhi - CPCB",19-11-2025 07:00:00,28.5504249,77.2159377,NO2,45,64,55
India,Delhi,Delhi,"Sirifort, Delhi - CPCB",19-11-2025 07:00:00,28.5504249,77.2159377,SO2,21,32,28
India,Delhi,Delhi,"Sirifort, Delhi - CPCB",19-11-2025 07:00:00,28.5504249,77.2159377,OZONE,6,24,8
India,Delhi,Delhi,"Sonia Vihar, Delhi - DPCC",19-11-2025 07:00:00,28.710508,77.249485,OZONE,1,40,4
India,Delhi,Delhi,"Sri Aurobindo Marg, Delhi - DPCC",19-11-2025 07:00:00,28.531346,77.190156,SO2,3,18,11
India,Delhi,Delhi,"Mundka, Delhi - DPCC",19-11-2025 07:00:00,28.684678,77.076574,NO2,65,183,131
India,Delhi,Delhi,"Mundka, Delhi - DPCC",19-11-2025 07:00:00,28.684678,77.076574,CO,13,109,79
India,Delhi,Delhi,"NSIT Dwarka, Delhi - CPCB",19-11-2025 07:00:00,28.60909,77.0325413,PM10,138,204,170
India,Delhi,Delhi,"Najafgarh, Delhi - DPCC",19-11-2025 07:00:00,28.570173,76.933762,PM2.5,311,420,365
India,Delhi,Delhi,"Lodhi Road, Delhi - IMD",19-11-2025 07:00:00,28.5918245,77.2273074,OZONE,8,158,9
India,Delhi,Delhi,"Major Dhyan Chand National Stadium, Delhi - DPCC",19-11-2025 07:00:00,28.611281,77.237738,SO2,14,39,26
India,Delhi,Delhi,"Mandir Marg, Delhi - DPCC",19-11-2025 07:00:00,28.636429,77.201067,SO2,69,102,81
India,Delhi,Delhi,"Jahangirpuri, Delhi - DPCC",19-11-2025 07:00:00,28.732820,77.170633,CO,62,183,110
India,Delhi,Delhi,"Jahangirpuri, Delhi - DPCC",19-11-2025 07:00:00,28.732820,77.170633,OZONE,6,186,7
India,Delhi,Delhi,"Jawaharlal Nehru Stadium, Delhi - DPCC",19-11-2025 07:00:00,28.580280,77.233829,SO2,11,46,23
India,Delhi,Delhi,"Punjabi Bagh, Delhi - DPCC",19-11-2025 07:00:00,28.674045,77.131023,CO,30,132,70
India,Delhi,Delhi,"Pusa, Delhi - DPCC",19-11-2025 07:00:00,28.639652,77.146275,CO,78,104,93
India,Delhi,Delhi,"IHBAS, Dilshad Garden, Delhi - CPCB",19-11-2025 07:00:00,28.6811736,77.3025234,NO2,50,55,53
India,Delhi,Delhi,"ITO, Delhi - CPCB",19-11-2025 07:00:00,28.628624,77.241060,CO,28,130,79
India,Gujarat,Ahmedabad,"SVPI Airport Hansol, Ahmedabad - IITM",19-11-2025 07:00:00,23.076793,72.627874,CO,34,102,63
India,Gujarat,Ankleshwar,"GIDC, Ankleshwar - GPCB",19-11-2025 07:00:00,21.613267,73.010555,PM2.5,178,306,243
India,Gujarat,Ankleshwar,"GIDC, Ankleshwar - GPCB",19-11-2025 07:00:00,21.613267,73.010555,PM10,107,175,145
India,Gujarat,Surat,"Science Center, Surat - SMC",19-11-2025 07:00:00,21.170046,72.795405,PM2.5,58,163,99
India,Gujarat,Surat,"Science Center, Surat - SMC",19-11-2025 07:00:00,21.170046,72.795405,PM10,58,172,119
India,Gujarat,Surat,"Science Center, Surat - SMC",19-11-2025 07:00:00,21.170046,72.795405,SO2,31,37,33
India,Gujarat,Surat,"Science Center, Surat - SMC",19-11-2025 07:00:00,21.170046,72.795405,CO,38,44,41
India,Delhi,Delhi,"Vivek Vihar, Delhi - DPCC",19-11-2025 07:00:00,28.672342,77.315260,OZONE,3,92,4
India,Gujarat,Ahmedabad,"Chandkheda, Ahmedabad - IITM",19-11-2025 07:00:00,23.107969,72.574648,CO,6,113,67
India,Gujarat,Ahmedabad,"Rakhial, Ahmedabad - IITM",19-11-2025 07:00:00,23.016834,72.625775,PM10,93,237,129
India,Gujarat,Ahmedabad,"Rakhial, Ahmedabad - IITM",19-11-2025 07:00:00,23.016834,72.625775,NO2,10,153,39
India,Gujarat,Ahmedabad,"Rakhial, Ahmedabad - IITM",19-11-2025 07:00:00,23.016834,72.625775,NH3,2,11,3
India,Gujarat,Ahmedabad,"SAC ISRO Bopal, Ahmedabad - IITM",19-11-2025 07:00:00,23.041137,72.456691,NH3,3,3,3
India,Gujarat,Ahmedabad,"SAC ISRO Bopal, Ahmedabad - IITM",19-11-2025 07:00:00,23.041137,72.456691,CO,14,68,56
India,Gujarat,Ahmedabad,"SVPI Airport Hansol, Ahmedabad - IITM",19-11-2025 07:00:00,23.076793,72.627874,PM2.5,70,217,135
India,Gujarat,Gandhinagar,"IIPHG Lekawada, Gandhinagar - IITM",19-11-2025 07:00:00,23.243639,72.68994,NH3,2,3,3
India,Gujarat,Ahmedabad,"Raikhad, Ahmedabad - IITM",19-11-2025 07:00:00,23.020509,72.579261,PM10,130,403,198
India,Gujarat,Vapi,"Phase-1 GIDC, Vapi - GPCB",19-11-2025 07:00:00,20.362421,72.918013,NO2,NA,NA,NA
India,Haryana,Ballabgarh,"Nathu Colony, Ballabgarh - HSPCB",19-11-2025 07:00:00,28.3419248,77.319699,PM10,83,134,101
India,Haryana,Ballabgarh,"Nathu Colony, Ballabgarh - HSPCB",19-11-2025 07:00:00,28.3419248,77.319699,SO2,7,12,9
India,Haryana,Charkhi Dadri,"Mini Secretariat, Charkhi Dadri - HSPCB",19-11-2025 07:00:00,28.593883,76.270653,PM2.5,186,388,303
India,Haryana,Ambala,"Patti Mehar, Ambala - HSPCB",19-11-2025 07:00:00,30.379589,76.778328,PM2.5,108,321,248
India,Haryana,Ambala,"Patti Mehar, Ambala - HSPCB",19-11-2025 07:00:00,30.379589,76.778328,PM10,103,198,155
India,Haryana,Bhiwani,"H.B. Colony, Bhiwani - HSPCB",19-11-2025 07:00:00,28.806223,76.141105,PM10,75,118,108
India,Haryana,Bahadurgarh,"Arya Nagar, Bahadurgarh - HSPCB",19-11-2025 07:00:00,28.6701,76.9254,CO,44,50,47
India,Haryana,Bahadurgarh,"Arya Nagar, Bahadurgarh - HSPCB",19-11-2025 07:00:00,28.6701,76.9254,NH3,12,13,13
India,Haryana,Bhiwani,"H.B. Colony, Bhiwani - HSPCB",19-11-2025 07:00:00,28.806223,76.141105,CO,10,14,12
India,Gujarat,Vapi,"Phase-1 GIDC, Vapi - GPCB",19-11-2025 07:00:00,20.362421,72.918013,NH3,5,5,5
India,Haryana,Fatehabad,"Huda Sector, Fatehabad - HSPCB",19-11-2025 07:00:00,29.503664,75.467934,PM2.5,62,353,261
India,Haryana,Fatehabad,"Huda Sector, Fatehabad - HSPCB",19-11-2025 07:00:00,29.503664,75.467934,PM10,115,214,167
India,Haryana,Faridabad,"New Industrial Town, Faridabad - HSPCB",19-11-2025 07:00:00,28.39072,77.30059,PM10,NA,NA,NA
India,Haryana,Faridabad,"New Industrial Town, Faridabad - HSPCB",19-11-2025 07:00:00,28.39072,77.30059,SO2,NA,NA,NA
India,Haryana,Dharuhera,"Municipal Corporation Office, Dharuhera -  HSPCB",19-11-2025 07:00:00,28.206800,76.799700,PM10,137,327,223
India,Haryana,Charkhi Dadri,"Mini Secretariat, Charkhi Dadri - HSPCB",19-11-2025 07:00:00,28.593883,76.270653,PM10,125,332,191
India,Haryana,Gurugram,"NISE Gwal Pahari, Gurugram - IMD",19-11-2025 07:00:00,28.422681,77.148944,OZONE,4,91,5
India,Haryana,Fatehabad,"Huda Sector, Fatehabad - HSPCB",19-11-2025 07:00:00,29.503664,75.467934,NO2,18,20,19
India,Haryana,Faridabad,"Sector 11, Faridabad - HSPCB",19-11-2025 07:00:00,28.376058,77.315741,OZONE,1,119,1
India,Haryana,Gurugram,"Sector-51, Gurugram - HSPCB",19-11-2025 07:00:00,28.4227,77.0667,OZONE,10,45,12
India,Haryana,Gurugram,"Teri Gram, Gurugram - HSPCB",19-11-2025 07:00:00,28.4275,77.1465,SO2,3,60,21
India,Himachal Pradesh,Baddi,"HIMUDA Complex Phase-1, Baddi - HPPCB",19-11-2025 07:00:00,30.943887,76.801991,NH3,6,9,7
India,Jharkhand,Jorapokhar,"Tata Stadium, Jorapokhar - JSPCB",19-11-2025 07:00:00,23.707909,86.414670,PM10,NA,NA,NA
India,Karnataka,Bagalkot,"Vidayagiri, Bagalkot - KSPCB",19-11-2025 07:00:00,16.172806,75.659694,PM10,53,54,53
India,Karnataka,Bagalkot,"Vidayagiri, Bagalkot - KSPCB",19-11-2025 07:00:00,16.172806,75.659694,NO2,11,12,12
India,Karnataka,Bagalkot,"Vidayagiri, Bagalkot - KSPCB",19-11-2025 07:00:00,16.172806,75.659694,OZONE,12,16,16
India,Karnataka,Belgaum,"Ramteerth Nagar, Belgaum - KSPCB",19-11-2025 07:00:00,15.888653,74.541751,PM10,44,149,94
India,Haryana,Panchgaon,"Amity University, Panchgaon - IITM",19-11-2025 07:00:00,28.3153,76.9143,SO2,1,8,4
India,Haryana,Panchkula,"Sector-6, Panchkula - HSPCB ",19-11-2025 07:00:00,30.7057778,76.8531805555555,PM2.5,38,302,113
India,Haryana,Panipat,"Sector-18, Panipat - HSPCB",19-11-2025 07:00:00,29.432304,76.972765,PM2.5,11,455,122
India,Haryana,Panipat,"Sector-18, Panipat - HSPCB",19-11-2025 07:00:00,29.432304,76.972765,SO2,18,19,19
India,Haryana,Panipat,"Sector-18, Panipat - HSPCB",19-11-2025 07:00:00,29.432304,76.972765,OZONE,30,30,30
India,Haryana,Rohtak,"MD University, Rohtak - HSPCB",19-11-2025 07:00:00,28.52123,76.37138,PM2.5,138,500,361
India,Karnataka,Belgaum,"Ramteerth Nagar, Belgaum - KSPCB",19-11-2025 07:00:00,15.888653,74.541751,NO2,29,124,57
India,Karnataka,Bengaluru,"BTM Layout, Bengaluru - CPCB",19-11-2025 07:00:00,12.9135218,77.5950804,NO2,65,82,72
India,Karnataka,Bengaluru,"BTM Layout, Bengaluru - CPCB",19-11-2025 07:00:00,12.9135218,77.5950804,SO2,15,16,16
India,Karnataka,Bengaluru,"BWSSB Kadabesanahalli, Bengaluru - CPCB",19-11-2025 07:00:00,12.9352049,77.6814488,PM2.5,NA,NA,NA
India,Karnataka,Bengaluru,"Hebbal, Bengaluru - KSPCB",19-11-2025 07:00:00,13.029152,77.585901,PM2.5,13,109,57
India,Haryana,Rohtak,"MD University, Rohtak - HSPCB",19-11-2025 07:00:00,28.52123,76.37138,SO2,3,6,5
India,Haryana,Rohtak,"MD University, Rohtak - HSPCB",19-11-2025 07:00:00,28.52123,76.37138,CO,10,52,34
India,Haryana,Sirsa,"F-Block, Sirsa - HSPCB",19-11-2025 07:00:00,29.536400,75.015800,CO,42,92,61
India,Haryana,Sirsa,"F-Block, Sirsa - HSPCB",19-11-2025 07:00:00,29.536400,75.015800,OZONE,54,63,57
India,Haryana,Yamuna Nagar,"Gobind Pura, Yamuna Nagar - HSPCB",19-11-2025 07:00:00,30.1480566,77.2893471,PM2.5,74,349,245
India,Haryana,Jind,"Police Lines, Jind - HSPCB",19-11-2025 07:00:00,29.307814,76.337619,OZONE,5,37,7
India,Haryana,Kaithal,"Rishi Nagar, Kaithal - HSPCB",19-11-2025 07:00:00,29.8006,76.4155,PM2.5,93,231,158
India,Haryana,Kaithal,"Rishi Nagar, Kaithal - HSPCB",19-11-2025 07:00:00,29.8006,76.4155,PM10,109,168,138
India,Haryana,Karnal,"Sector-12, Karnal - HSPCB",19-11-2025 07:00:00,29.695300,77.002700,PM2.5,74,265,168
India,Haryana,Mandikhera,"General Hospital, Mandikhera - HSPCB",19-11-2025 07:00:00,27.9002,76.9938,OZONE,24,33,27
India,Haryana,Narnaul,"Shastri Nagar, Narnaul - HSPCB",19-11-2025 07:00:00,28.060249,76.113115,SO2,11,12,12
India,Haryana,Gurugram,"Vikas Sadan, Gurugram - HSPCB",19-11-2025 07:00:00,28.4501238,77.0263051,PM10,85,247,165
India,Haryana,Mandikhera,"General Hospital, Mandikhera - HSPCB",19-11-2025 07:00:00,27.9002,76.9938,NO2,20,24,22
India,Haryana,Hisar,"Urban Estate-II, Hisar - HSPCB",19-11-2025 07:00:00,29.140560,75.744941,SO2,9,13,12
India,Karnataka,Vijayapura,"Ibrahimpur, Vijayapura - KSPCB",19-11-2025 07:00:00,16.802639,75.722694,OZONE,14,17,16
India,Karnataka,Yadgir,"Collector Office, Yadgir - KSPCB",19-11-2025 07:00:00,16.7602,77.1428,NH3,2,2,2
India,Karnataka,Yadgir,"Collector Office, Yadgir - KSPCB",19-11-2025 07:00:00,16.7602,77.1428,SO2,5,26,14
India,Karnataka,Yadgir,"Collector Office, Yadgir - KSPCB",19-11-2025 07:00:00,16.7602,77.1428,CO,16,33,21
India,Karnataka,Yadgir,"Collector Office, Yadgir - KSPCB",19-11-2025 07:00:00,16.7602,77.1428,OZONE,17,19,18
India,Kerala,Eloor,"Udyogamandal, Eloor - Kerala PCB",19-11-2025 07:00:00,10.073232,76.302765,PM2.5,42,86,61
India,Kerala,Kannur,"Thavakkara, Kannur - Kerala PCB",19-11-2025 07:00:00,11.875000,75.373200,PM2.5,NA,NA,NA
India,Kerala,Kannur,"Thavakkara, Kannur - Kerala PCB",19-11-2025 07:00:00,11.875000,75.373200,PM10,NA,NA,NA
India,Kerala,Kannur,"Thavakkara, Kannur - Kerala PCB",19-11-2025 07:00:00,11.875000,75.373200,CO,NA,NA,NA
India,Karnataka,Dharwad,"Kalabhavan, Dharwad - KSPCB",19-11-2025 07:00:00,15.459706,75.008381,CO,46,106,76
India,Karnataka,Gadag,"Panchal Nagar, Gadag - KSPCB",19-11-2025 07:00:00,15.411456,75.638133,PM2.5,36,64,54
India,Karnataka,Gadag,"Panchal Nagar, Gadag - KSPCB",19-11-2025 07:00:00,15.411456,75.638133,PM10,36,64,54
India,Karnataka,Gadag,"Panchal Nagar, Gadag - KSPCB",19-11-2025 07:00:00,15.411456,75.638133,CO,10,20,17
India,Karnataka,Gadag,"Panchal Nagar, Gadag - KSPCB",19-11-2025 07:00:00,15.411456,75.638133,OZONE,18,44,34
India,Karnataka,Haveri,"Ashwini Nagar, Haveri - KSPCB",19-11-2025 07:00:00,14.791800,75.389600,PM2.5,NA,NA,NA
India,Karnataka,Haveri,"Ashwini Nagar, Haveri - KSPCB",19-11-2025 07:00:00,14.791800,75.389600,CO,29,31,30
India,Karnataka,Hubballi,"Lingaraj Nagar, Hubballi - KSPCB",19-11-2025 07:00:00,15.3714823,75.1160168,PM2.5,44,48,45
India,Karnataka,Hubballi,"Lingaraj Nagar, Hubballi - KSPCB",19-11-2025 07:00:00,15.3714823,75.1160168,NH3,2,3,2
India,Karnataka,Chamarajanagar,"Urban, Chamarajanagar - KSPCB",19-11-2025 07:00:00,11.55358,76.55521,OZONE,13,35,15
India,Karnataka,Chikkamagaluru,"Kalyana Nagara, Chikkamagaluru - KSPCB",19-11-2025 07:00:00,13.328028,75.797056,OZONE,11,43,11
India,Karnataka,Davanagere,"Devaraj Urs Badavane, Davanagere - KSPCB",19-11-2025 07:00:00,14.475800,75.905200,PM2.5,49,94,75
India,Karnataka,Davanagere,"Devaraj Urs Badavane, Davanagere - KSPCB",19-11-2025 07:00:00,14.475800,75.905200,OZONE,19,21,20
India,Karnataka,Dharwad,"Kalabhavan, Dharwad - KSPCB",19-11-2025 07:00:00,15.459706,75.008381,PM10,70,103,92
India,Karnataka,Bengaluru,"Hombegowda Nagar, Bengaluru - KSPCB",19-11-2025 07:00:00,12.938539,77.590100,CO,14,29,17
India,Karnataka,Bengaluru,"Jayanagar 5th Block, Bengaluru - KSPCB",19-11-2025 07:00:00,12.920984,77.584908,PM2.5,22,78,52
India,Karnataka,Bengaluru,"Jayanagar 5th Block, Bengaluru - KSPCB",19-11-2025 07:00:00,12.920984,77.584908,PM10,15,100,60
India,Karnataka,Bengaluru,"Jigani, Bengaluru - KSPCB",19-11-2025 07:00:00,12.7816279,77.6299145,CO,38,39,38
India,Karnataka,Mysuru,"Hebbal 1st Stage, Mysuru - KSPCB",19-11-2025 07:00:00,12.21041,76.37376,NO2,12,40,21
India,Karnataka,Shivamogga,"Vinoba Nagara, Shivamogga - KSPCB",19-11-2025 07:00:00,13.940000,75.555917,NH3,3,4,3
India,Karnataka,Udupi,"Brahmagiri, Udupi - KSPCB",19-11-2025 07:00:00,13.34194444,74.74694444,NO2,5,15,9
India,Karnataka,Kalaburagi,"Mahatma Basaveswar Colony, Kalaburgi - KSPCB",19-11-2025 07:00:00,17.336318,76.847397,CO,36,98,47
India,Karnataka,Koppal,"Diwator Nagar, Koppal - KSPCB",19-11-2025 07:00:00,15.347630,76.181767,SO2,16,41,31
India,Karnataka,Koppal,"Diwator Nagar, Koppal - KSPCB",19-11-2025 07:00:00,15.347630,76.181767,OZONE,8,11,8
