country,state,city,station,last_update,latitude,longitude,pollutant_id,min_value,max_value,avg_value
India,Bihar,Araria,"Kharahiya Basti, Araria - BSPCB",07-11-2025 07:00:00,26.146529,87.454184,PM10,69,152,111
India,Bihar,Araria,"Kharahiya Basti, Araria - BSPCB",07-11-2025 07:00:00,26.146529,87.454184,NO2,5,51,22
India,Bihar,Araria,"Kharahiya Basti, Araria - BSPCB",07-11-2025 07:00:00,26.146529,87.454184,NH3,10,11,11
India,Bihar,Araria,"Kharahiya Basti, Araria - BSPCB",07-11-2025 07:00:00,26.146529,87.454184,SO2,10,20,17
India,Bihar,Arrah,"New DM Office, Arrah - BSPCB",07-11-2025 07:00:00,25.5626095,84.663264,PM2.5,31,59,40
India,Bihar,Arrah,"New DM Office, Arrah - BSPCB",07-11-2025 07:00:00,25.5626095,84.663264,PM10,30,50,37
India,Bihar,Aurangabad,"Gurdeo Nagar, Aurangabad - BSPCB",07-11-2025 07:00:00,24.75746,84.366208,NO2,7,8,8
India,Bihar,Begusarai,"Lohiyanagar, Begusarai - BSPCB",07-11-2025 07:00:00,25.42742023,86.13886079,CO,55,58,57
India,Bihar,Bettiah,"Kamalnath Nagar, Bettiah - BSPCB",07-11-2025 07:00:00,26.80365,84.51954,PM2.5,28,233,87
India,Andhra_Pradesh,Vijayawada,"Rajiv Gandhi Park, Vijayawada - APPCB",07-11-2025 07:00:00,16.509717,80.612222,NO2,12,63,45
India,Andhra_Pradesh,Vijayawada,"Rajiv Gandhi Park, Vijayawada - APPCB",07-11-2025 07:00:00,16.509717,80.612222,NH3,3,6,4
India,Andhra_Pradesh,Vijayawada,"Rajiv Gandhi Park, Vijayawada - APPCB",07-11-2025 07:00:00,16.509717,80.612222,CO,27,38,28
India,Andhra_Pradesh,Vijayawada,"Rajiv Nagar, Vijayawada - APPCB",07-11-2025 07:00:00,16.554731,80.649110,CO,16,48,34
India,Andhra_Pradesh,Visakhapatnam,"GVM Corporation, Visakhapatnam - APPCB",07-11-2025 07:00:00,17.72,83.3,PM2.5,86,228,148
India,Andhra_Pradesh,Visakhapatnam,"GVM Corporation, Visakhapatnam - APPCB",07-11-2025 07:00:00,17.72,83.3,PM10,108,280,163
India,Assam,Byrnihat,"Central Academy for SFS, Byrnihat - PCBA",07-11-2025 07:00:00,26.071318,91.87488,PM10,NA,NA,NA
India,Bihar,Bettiah,"Kamalnath Nagar, Bettiah - BSPCB",07-11-2025 07:00:00,26.80365,84.51954,SO2,10,22,16
India,Bihar,Bhagalpur,"DM Office_Kachari Chowk, Bhagalpur - BSPCB",07-11-2025 07:00:00,25.251013,86.989001,PM2.5,NA,NA,NA
India,Bihar,Bhagalpur,"Mayaganj, Bhagalpur - BSPCB",07-11-2025 07:00:00,25.265194,87.012947,PM10,61,111,82
India,Bihar,Bhagalpur,"Mayaganj, Bhagalpur - BSPCB",07-11-2025 07:00:00,25.265194,87.012947,SO2,4,48,31
India,Bihar,Bihar Sharif,"D M Colony, Bihar Sharif - BSPCB",07-11-2025 07:00:00,25.204762,85.514960,SO2,10,10,10
India,Bihar,Buxar,"Charitra Van, Buxar - BSPCB",07-11-2025 07:00:00,25.567520,83.966379,PM2.5,53,110,80
India,Bihar,Munger,"Town Hall, Munger - BSPCB",07-11-2025 07:00:00,25.376776,86.471523,NH3,5,7,6
India,Bihar,Munger,"Town Hall, Munger - BSPCB",07-11-2025 07:00:00,25.376776,86.471523,CO,18,28,25
India,Bihar,Muzaffarpur,"Buddha Colony, Muzaffarpur - BSPCB",07-11-2025 07:00:00,26.11442,85.39813,PM10,41,90,66
India,Bihar,Muzaffarpur,"Buddha Colony, Muzaffarpur - BSPCB",07-11-2025 07:00:00,26.11442,85.39813,NO2,12,46,25
India,Bihar,Muzaffarpur,"Buddha Colony, Muzaffarpur - BSPCB",07-11-2025 07:00:00,26.11442,85.39813,CO,28,54,38
India,Bihar,Muzaffarpur,"Buddha Colony, Muzaffarpur - BSPCB",07-11-2025 07:00:00,26.11442,85.39813,OZONE,31,121,72
India,Bihar,Muzaffarpur,"MIT-Daudpur Kothi, Muzaffarpur - BSPCB",07-11-2025 07:00:00,26.1403345,85.3650192,PM10,41,90,54
India,Assam,Byrnihat,"Central Academy for SFS, Byrnihat - PCBA",07-11-2025 07:00:00,26.071318,91.87488,SO2,NA,NA,NA
India,Assam,Guwahati,"IITG, Guwahati - PCBA",07-11-2025 07:00:00,26.2028636,91.70046436,CO,4,18,16
India,Assam,Guwahati,"LGBI Airport, Guwahati - PCBA",07-11-2025 07:00:00,26.10887,91.589544,CO,16,74,35
India,Assam,Guwahati,"Pan Bazaar, Guwahati - PCBA",07-11-2025 07:00:00,26.187500,91.744194,OZONE,17,18,18
India,Assam,Guwahati,"Railway Colony, Guwahati - PCBA",07-11-2025 07:00:00,26.181742,91.78063,NO2,3,3,3
India,Bihar,Buxar,"Charitra Van, Buxar - BSPCB",07-11-2025 07:00:00,25.567520,83.966379,NO2,9,10,9
India,Bihar,Buxar,"Charitra Van, Buxar - BSPCB",07-11-2025 07:00:00,25.567520,83.966379,CO,19,29,24
India,Bihar,Chhapra,"Darshan Nagar, Chhapra - BSPCB",07-11-2025 07:00:00,25.7808257,84.7446768,PM10,12,31,20
India,Bihar,Gaya,"Collectorate, Gaya - BSPCB",07-11-2025 07:00:00,24.7955,84.9994,SO2,10,14,11
India,Bihar,Gaya,"SFTI Kusdihra, Gaya - BSPCB",07-11-2025 07:00:00,24.762518,84.982348,NH3,3,4,3
India,Bihar,Gaya,"SFTI Kusdihra, Gaya - BSPCB",07-11-2025 07:00:00,24.762518,84.982348,OZONE,12,37,14
India,Bihar,Katihar,"Mirchaibari, Katihar - BSPCB",07-11-2025 07:00:00,25.560083,87.553265,NH3,1,1,1
India,Bihar,Kishanganj,"SDM Office_Khagra, Kishanganj - BSPCB",07-11-2025 07:00:00,26.0881305,87.93840336,PM2.5,NA,NA,NA
India,Bihar,Kishanganj,"SDM Office_Khagra, Kishanganj - BSPCB",07-11-2025 07:00:00,26.0881305,87.93840336,PM10,NA,NA,NA
India,Bihar,Kishanganj,"SDM Office_Khagra, Kishanganj - BSPCB",07-11-2025 07:00:00,26.0881305,87.93840336,SO2,NA,NA,NA
India,Andhra_Pradesh,Amaravati,"Secretariat, Amaravati - APPCB",07-11-2025 07:00:00,16.5150833,80.5181667,NO2,20,70,40
India,Andhra_Pradesh,Amaravati,"Secretariat, Amaravati - APPCB",07-11-2025 07:00:00,16.5150833,80.5181667,CO,16,38,23
India,Andhra_Pradesh,Amaravati,"Secretariat, Amaravati - APPCB",07-11-2025 07:00:00,16.5150833,80.5181667,OZONE,1,36,7
India,Andhra_Pradesh,Anantapur,"Gulzarpet, Anantapur - APPCB",07-11-2025 07:00:00,14.675886,77.593027,NH3,5,6,6
India,Andhra_Pradesh,Rajamahendravaram,"Anand Kala Kshetram, Rajamahendravaram - APPCB",07-11-2025 07:00:00,16.9872867,81.7363176,PM10,45,98,70
India,Andhra_Pradesh,Tirumala,"Toll Gate, Tirumala - APPCB",07-11-2025 07:00:00,13.67,79.35,NH3,1,2,1
India,Assam,Silchar,"Tarapur, Silchar - PCBA",07-11-2025 07:00:00,24.82827,92.79525,PM10,45,50,47
India,Assam,Silchar,"Tarapur, Silchar - PCBA",07-11-2025 07:00:00,24.82827,92.79525,CO,22,74,51
India,Bihar,Samastipur,"DM Office_Kasipur, Samastipur - BSPCB",07-11-2025 07:00:00,25.859655,85.77944,OZONE,NA,NA,NA
India,Bihar,Sasaram,"Dada Peer, Sasaram - BSPCB",07-11-2025 07:00:00,24.952822,84.002396,NH3,2,5,3
India,Bihar,Sasaram,"Dada Peer, Sasaram - BSPCB",07-11-2025 07:00:00,24.952822,84.002396,SO2,2,5,4
India,Chandigarh,Chandigarh,"Sector 22, Chandigarh - CPCC",07-11-2025 07:00:00,30.735567,76.775714,PM10,65,147,92
India,Chandigarh,Chandigarh,"Sector 22, Chandigarh - CPCC",07-11-2025 07:00:00,30.735567,76.775714,NO2,12,62,23
India,Chandigarh,Chandigarh,"Sector 22, Chandigarh - CPCC",07-11-2025 07:00:00,30.735567,76.775714,SO2,5,50,10
India,Chandigarh,Chandigarh,"Sector-25, Chandigarh - CPCC",07-11-2025 07:00:00,30.751462,76.762879,PM2.5,94,188,122
India,Chandigarh,Chandigarh,"Sector-25, Chandigarh - CPCC",07-11-2025 07:00:00,30.751462,76.762879,CO,22,36,25
India,Delhi,Delhi,"Ashok Vihar, Delhi - DPCC",07-11-2025 07:00:00,28.695381,77.181665,PM10,153,483,287
India,Delhi,Delhi,"Ashok Vihar, Delhi - DPCC",07-11-2025 07:00:00,28.695381,77.181665,NH3,1,1,1
India,Delhi,Delhi,"Ashok Vihar, Delhi - DPCC",07-11-2025 07:00:00,28.695381,77.181665,OZONE,7,110,16
India,Delhi,Delhi,"Aya Nagar, Delhi - IMD",07-11-2025 07:00:00,28.4706914,77.1099364,OZONE,11,141,31
India,Delhi,Delhi,"Bawana, Delhi - DPCC",07-11-2025 07:00:00,28.776200,77.051074,PM10,138,479,291
India,Delhi,Delhi,"Burari Crossing, Delhi - IMD",07-11-2025 07:00:00,28.7256504,77.2011573,PM10,124,464,281
India,Delhi,Delhi,"CRRI Mathura Road, Delhi - IMD",07-11-2025 07:00:00,28.5512005,77.2735737,PM10,143,447,283
India,Delhi,Delhi,"CRRI Mathura Road, Delhi - IMD",07-11-2025 07:00:00,28.5512005,77.2735737,CO,9,84,53
India,Chhattisgarh,Bhilai,"32Bungalows, Bhilai - CECB",07-11-2025 07:00:00,21.194815,81.314770,PM2.5,15,33,22
India,Chhattisgarh,Bhilai,"32Bungalows, Bhilai - CECB",07-11-2025 07:00:00,21.194815,81.314770,SO2,3,14,7
India,Chhattisgarh,Bhilai,"32Bungalows, Bhilai - CECB",07-11-2025 07:00:00,21.194815,81.314770,OZONE,1,59,5
India,Chhattisgarh,Bhilai,"Hathkhoj, Bhilai - CECB",07-11-2025 07:00:00,21.224231,81.408350,OZONE,11,42,17
India,Chhattisgarh,Bilaspur,"Mangala, Bilaspur - NTPC",07-11-2025 07:00:00,22.08815,82.13737,PM2.5,15,62,39
India,Chhattisgarh,Bilaspur,"Mangala, Bilaspur - NTPC",07-11-2025 07:00:00,22.08815,82.13737,PM10,21,83,52
India,Chhattisgarh,Bilaspur,"Mangala, Bilaspur - NTPC",07-11-2025 07:00:00,22.08815,82.13737,CO,37,52,38
India,Chhattisgarh,Chhal,"Nawapara SECL Colony, Chhal - CECB",07-11-2025 07:00:00,22.118125,83.140608,PM2.5,55,184,109
India,Bihar,Muzaffarpur,"MIT-Daudpur Kothi, Muzaffarpur - BSPCB",07-11-2025 07:00:00,26.1403345,85.3650192,OZONE,10,66,17
India,Bihar,Muzaffarpur,"Muzaffarpur Collectorate, Muzaffarpur - BSPCB",07-11-2025 07:00:00,26.1209,85.3647,PM2.5,45,82,55
India,Bihar,Muzaffarpur,"Muzaffarpur Collectorate, Muzaffarpur - BSPCB",07-11-2025 07:00:00,26.1209,85.3647,SO2,3,5,4
India,Bihar,Muzaffarpur,"Muzaffarpur Collectorate, Muzaffarpur - BSPCB",07-11-2025 07:00:00,26.1209,85.3647,OZONE,8,68,9
India,Bihar,Patna,"DRM Office Danapur, Patna - BSPCB",07-11-2025 07:00:00,25.586562,85.043586,NH3,4,7,6
India,Bihar,Patna,"Govt. High School Shikarpur, Patna - BSPCB",07-11-2025 07:00:00,25.592539,85.227158,NH3,4,5,5
India,Bihar,Patna,"Govt. High School Shikarpur, Patna - BSPCB",07-11-2025 07:00:00,25.592539,85.227158,OZONE,9,12,10
India,Chhattisgarh,Milupara,"Govt. Higher Secondary School, Milupara - CECB",07-11-2025 07:00:00,22.1910172,83.5197009,NO2,12,65,31
India,Chhattisgarh,Milupara,"Govt. Higher Secondary School, Milupara - CECB",07-11-2025 07:00:00,22.1910172,83.5197009,OZONE,4,118,16
India,Chhattisgarh,Raipur,"AIIMS, Raipur - CECB",07-11-2025 07:00:00,21.258815,81.578979,PM2.5,26,60,41
India,Chhattisgarh,Raipur,"Bhatagaon New ISBT, Raipur - CECB",07-11-2025 07:00:00,21.219665,81.630094,NO2,2,37,13
India,Chhattisgarh,Raipur,"Krishak Nagar, Raipur - CECB",07-11-2025 07:00:00,21.237755,81.705301,PM2.5,36,71,54
India,Bihar,Patna,"Muradpur, Patna - BSPCB",07-11-2025 07:00:00,25.619651,85.147382,PM10,96,146,127
India,Bihar,Patna,"Muradpur, Patna - BSPCB",07-11-2025 07:00:00,25.619651,85.147382,NH3,4,5,4
India,Bihar,Patna,"Muradpur, Patna - BSPCB",07-11-2025 07:00:00,25.619651,85.147382,CO,35,76,53
India,Bihar,Patna,"Samanpura, Patna - BSPCB",07-11-2025 07:00:00,25.596727,85.085624,PM2.5,202,303,237
India,Bihar,Purnia,"Mariam Nagar, Purnia - BSPCB",07-11-2025 07:00:00,25.366336,87.117468,PM2.5,67,163,96
India,Chhattisgarh,Raipur,"Siltara Phase-II, Raipur - CECB",07-11-2025 07:00:00,21.371751,81.664929,NO2,5,33,17
India,Chhattisgarh,Raipur,"Siltara Phase-II, Raipur - CECB",07-11-2025 07:00:00,21.371751,81.664929,OZONE,4,13,6
India,Delhi,Delhi,"Alipur, Delhi - DPCC",07-11-2025 07:00:00,28.815329,77.153010,PM10,131,496,307
India,Delhi,Delhi,"Alipur, Delhi - DPCC",07-11-2025 07:00:00,28.815329,77.153010,SO2,25,33,28
India,Delhi,Delhi,"Alipur, Delhi - DPCC",07-11-2025 07:00:00,28.815329,77.153010,CO,37,106,99
India,Chhattisgarh,Chhal,"Nawapara SECL Colony, Chhal - CECB",07-11-2025 07:00:00,22.118125,83.140608,CO,25,42,30
India,Chhattisgarh,Chhal,"Nawapara SECL Colony, Chhal - CECB",07-11-2025 07:00:00,22.118125,83.140608,OZONE,13,197,19
India,Chhattisgarh,Kunjemura,"OP Jindal School, Kunjemura - CECB",07-11-2025 07:00:00,22.126650,83.483212,NO2,3,3,3
India,Chhattisgarh,Kunjemura,"OP Jindal School, Kunjemura - CECB",07-11-2025 07:00:00,22.126650,83.483212,CO,13,26,19
India,Bihar,Purnia,"Mariam Nagar, Purnia - BSPCB",07-11-2025 07:00:00,25.366336,87.117468,OZONE,10,43,20
India,Bihar,Rajgir,"Dangi Tola, Rajgir - BSPCB",07-11-2025 07:00:00,25.03280,85.41948,NO2,8,11,9
India,Bihar,Rajgir,"Dangi Tola, Rajgir - BSPCB",07-11-2025 07:00:00,25.03280,85.41948,OZONE,29,34,32
India,Delhi,Delhi,"Jawaharlal Nehru Stadium, Delhi - DPCC",07-11-2025 07:00:00,28.580280,77.233829,SO2,17,29,22
India,Delhi,Delhi,"Jawaharlal Nehru Stadium, Delhi - DPCC",07-11-2025 07:00:00,28.580280,77.233829,OZONE,1,139,6
India,Delhi,Delhi,"Lodhi Road, Delhi - IITM",07-11-2025 07:00:00,28.588333,77.221667,PM10,91,374,190
India,Delhi,Delhi,"Lodhi Road, Delhi - IITM",07-11-2025 07:00:00,28.588333,77.221667,NO2,NA,NA,NA
India,Delhi,Delhi,"Major Dhyan Chand National Stadium, Delhi - DPCC",07-11-2025 07:00:00,28.611281,77.237738,NO2,27,137,77
India,Delhi,Delhi,"Major Dhyan Chand National Stadium, Delhi - DPCC",07-11-2025 07:00:00,28.611281,77.237738,NH3,13,22,18
India,Delhi,Delhi,"Major Dhyan Chand National Stadium, Delhi - DPCC",07-11-2025 07:00:00,28.611281,77.237738,SO2,19,48,33
India,Delhi,Delhi,"Major Dhyan Chand National Stadium, Delhi - DPCC",07-11-2025 07:00:00,28.611281,77.237738,OZONE,3,152,8
India,Delhi,Delhi,"Mandir Marg, Delhi - DPCC",07-11-2025 07:00:00,28.636429,77.201067,PM10,84,434,256
India,Delhi,Delhi,"IGI Airport (T3), Delhi - IMD",07-11-2025 07:00:00,28.5627763,77.1180053,NO2,68,223,122
India,Delhi,Delhi,"IHBAS, Dilshad Garden, Delhi - CPCB",07-11-2025 07:00:00,28.6811736,77.3025234,PM2.5,131,227,155
India,Delhi,Delhi,"IHBAS, Dilshad Garden, Delhi - CPCB",07-11-2025 07:00:00,28.6811736,77.3025234,NO2,50,56,53
India,Delhi,Delhi,"ITO, Delhi - CPCB",07-11-2025 07:00:00,28.628624,77.241060,PM2.5,96,500,337
India,Delhi,Delhi,"ITO, Delhi - CPCB",07-11-2025 07:00:00,28.628624,77.241060,PM10,117,459,284
India,Delhi,Delhi,"ITO, Delhi - CPCB",07-11-2025 07:00:00,28.628624,77.241060,NH3,1,2,1
India,Delhi,Delhi,"ITO, Delhi - CPCB",07-11-2025 07:00:00,28.628624,77.241060,CO,38,103,87
India,Delhi,Delhi,"ITO, Delhi - CPCB",07-11-2025 07:00:00,28.628624,77.241060,OZONE,8,281,18
India,Delhi,Delhi,"Jahangirpuri, Delhi - DPCC",07-11-2025 07:00:00,28.732820,77.170633,NH3,6,8,7
India,Delhi,Delhi,"Narela, Delhi - DPCC",07-11-2025 07:00:00,28.822836,77.101981,OZONE,1,140,11
India,Delhi,Delhi,"North Campus, DU, Delhi - IMD",07-11-2025 07:00:00,28.6573814,77.1585447,PM2.5,96,500,319
India,Delhi,Delhi,"Okhla Phase-2, Delhi - DPCC",07-11-2025 07:00:00,28.530785,77.271255,PM10,141,478,277
India,Delhi,Delhi,"Okhla Phase-2, Delhi - DPCC",07-11-2025 07:00:00,28.530785,77.271255,OZONE,9,160,14
India,Delhi,Delhi,"Patparganj, Delhi - DPCC",07-11-2025 07:00:00,28.623763,77.287209,PM2.5,88,500,314
India,Delhi,Delhi,"Patparganj, Delhi - DPCC",07-11-2025 07:00:00,28.623763,77.287209,PM10,140,462,295
India,Delhi,Delhi,"Patparganj, Delhi - DPCC",07-11-2025 07:00:00,28.623763,77.287209,NO2,25,176,90
India,Delhi,Delhi,"Sonia Vihar, Delhi - DPCC",07-11-2025 07:00:00,28.710508,77.249485,NH3,1,1,1
India,Delhi,Delhi,"Sonia Vihar, Delhi - DPCC",07-11-2025 07:00:00,28.710508,77.249485,SO2,11,24,16
India,Delhi,Delhi,"Sri Aurobindo Marg, Delhi - DPCC",07-11-2025 07:00:00,28.531346,77.190156,OZONE,1,99,3
India,Delhi,Delhi,"Vivek Vihar, Delhi - DPCC",07-11-2025 07:00:00,28.672342,77.315260,PM10,137,440,280
India,Delhi,Delhi,"Vivek Vihar, Delhi - DPCC",07-11-2025 07:00:00,28.672342,77.315260,SO2,13,28,20
India,Delhi,Delhi,"Vivek Vihar, Delhi - DPCC",07-11-2025 07:00:00,28.672342,77.315260,CO,48,104,98
India,Delhi,Delhi,"Wazirpur, Delhi - DPCC",07-11-2025 07:00:00,28.699793,77.165453,PM10,171,494,328
India,Delhi,Delhi,"NSIT Dwarka, Delhi - CPCB",07-11-2025 07:00:00,28.60909,77.0325413,NO2,55,100,73
India,Delhi,Delhi,"NSIT Dwarka, Delhi - CPCB",07-11-2025 07:00:00,28.60909,77.0325413,NH3,6,10,8
India,Delhi,Delhi,"Najafgarh, Delhi - DPCC",07-11-2025 07:00:00,28.570173,76.933762,PM10,111,430,193
India,Delhi,Delhi,"Najafgarh, Delhi - DPCC",07-11-2025 07:00:00,28.570173,76.933762,NO2,35,128,107
India,Delhi,Delhi,"Narela, Delhi - DPCC",07-11-2025 07:00:00,28.822836,77.101981,PM10,128,467,291
India,Delhi,Delhi,"R K Puram, Delhi - DPCC",07-11-2025 07:00:00,28.563262,77.186937,SO2,12,49,28
India,Delhi,Delhi,"Shadipur, Delhi - CPCB",07-11-2025 07:00:00,28.6514781,77.1473105,SO2,1,24,11
India,Delhi,Delhi,"Shadipur, Delhi - CPCB",07-11-2025 07:00:00,28.6514781,77.1473105,OZONE,7,48,7
India,Delhi,Delhi,"Sirifort, Delhi - CPCB",07-11-2025 07:00:00,28.5504249,77.2159377,PM10,136,482,309
India,Delhi,Delhi,"Sirifort, Delhi - CPCB",07-11-2025 07:00:00,28.5504249,77.2159377,OZONE,5,19,6
India,Delhi,Delhi,"Chandni Chowk, Delhi - IITM",07-11-2025 07:00:00,28.656756,77.227234,NH3,6,8,7
India,Delhi,Delhi,"Dr. Karni Singh Shooting Range, Delhi - DPCC",07-11-2025 07:00:00,28.498571,77.264840,PM10,141,454,282
India,Delhi,Delhi,"Dwarka-Sector 8, Delhi - DPCC ",07-11-2025 07:00:00,28.5710274,77.0719006,PM2.5,107,500,310
India,Delhi,Delhi,"Dwarka-Sector 8, Delhi - DPCC ",07-11-2025 07:00:00,28.5710274,77.0719006,PM10,148,500,266
India,Delhi,Delhi,"Punjabi Bagh, Delhi - DPCC",07-11-2025 07:00:00,28.674045,77.131023,PM10,133,468,296
India,Delhi,Delhi,"Punjabi Bagh, Delhi - DPCC",07-11-2025 07:00:00,28.674045,77.131023,SO2,14,28,22
India,Delhi,Delhi,"Pusa, Delhi - DPCC",07-11-2025 07:00:00,28.639652,77.146275,NO2,86,163,114
India,Delhi,Delhi,"Pusa, Delhi - IMD",07-11-2025 07:00:00,28.636110,77.173332,PM2.5,79,500,319
India,Delhi,Delhi,"Patparganj, Delhi - DPCC",07-11-2025 07:00:00,28.623763,77.287209,OZONE,6,144,13
India,Haryana,Ambala,"Patti Mehar, Ambala - HSPCB",07-11-2025 07:00:00,30.379589,76.778328,OZONE,48,52,50
India,Haryana,Bahadurgarh,"Arya Nagar, Bahadurgarh - HSPCB",07-11-2025 07:00:00,28.6701,76.9254,PM10,NA,NA,NA
India,Haryana,Bahadurgarh,"Arya Nagar, Bahadurgarh - HSPCB",07-11-2025 07:00:00,28.6701,76.9254,SO2,7,7,7
India,Haryana,Ballabgarh,"Nathu Colony, Ballabgarh - HSPCB",07-11-2025 07:00:00,28.3419248,77.319699,PM10,112,146,121
India,Haryana,Bhiwani,"H.B. Colony, Bhiwani - HSPCB",07-11-2025 07:00:00,28.806223,76.141105,SO2,12,13,13
India,Haryana,Charkhi Dadri,"Mini Secretariat, Charkhi Dadri - HSPCB",07-11-2025 07:00:00,28.593883,76.270653,PM10,114,345,184
India,Haryana,Charkhi Dadri,"Mini Secretariat, Charkhi Dadri - HSPCB",07-11-2025 07:00:00,28.593883,76.270653,NH3,5,8,6
India,Gujarat,Ahmedabad,"Chandkheda, Ahmedabad - IITM",07-11-2025 07:00:00,23.107969,72.574648,NH3,3,31,12
India,Gujarat,Ahmedabad,"Chandkheda, Ahmedabad - IITM",07-11-2025 07:00:00,23.107969,72.574648,SO2,6,16,10
India,Gujarat,Ahmedabad,"Chandkheda, Ahmedabad - IITM",07-11-2025 07:00:00,23.107969,72.574648,OZONE,1,55,4
India,Gujarat,Ahmedabad,"Gyaspur, Ahmedabad - IITM",07-11-2025 07:00:00,22.977134,72.553024,NH3,3,50,16
India,Gujarat,Ahmedabad,"Raikhad, Ahmedabad - IITM",07-11-2025 07:00:00,23.020509,72.579261,PM2.5,54,256,129
India,Gujarat,Ahmedabad,"Raikhad, Ahmedabad - IITM",07-11-2025 07:00:00,23.020509,72.579261,NH3,6,19,12
India,Gujarat,Ahmedabad,"Rakhial, Ahmedabad - IITM",07-11-2025 07:00:00,23.016834,72.625775,PM10,92,174,124
India,Gujarat,Ankleshwar,"GIDC, Ankleshwar - GPCB",07-11-2025 07:00:00,21.613267,73.010555,SO2,26,34,28
India,Gujarat,Ankleshwar,"GIDC, Ankleshwar - GPCB",07-11-2025 07:00:00,21.613267,73.010555,OZONE,34,66,36
India,Gujarat,Gandhinagar,"IIPHG Lekawada, Gandhinagar - IITM",07-11-2025 07:00:00,23.243639,72.68994,PM10,82,142,109
India,Gujarat,Gandhinagar,"Sector-10, Gandhinagar - GPCB",07-11-2025 07:00:00,23.221714,72.654328,PM2.5,60,220,121
India,Gujarat,Gandhinagar,"Sector-10, Gandhinagar - GPCB",07-11-2025 07:00:00,23.221714,72.654328,NO2,19,58,37
India,Gujarat,Gandhinagar,"Sector-10, Gandhinagar - GPCB",07-11-2025 07:00:00,23.221714,72.654328,CO,22,36,30
India,Gujarat,Ahmedabad,"Rakhial, Ahmedabad - IITM",07-11-2025 07:00:00,23.016834,72.625775,NH3,2,13,5
India,Gujarat,Ahmedabad,"Rakhial, Ahmedabad - IITM",07-11-2025 07:00:00,23.016834,72.625775,SO2,11,44,28
India,Gujarat,Ahmedabad,"SAC ISRO Satellite, Ahmedabad - IITM",07-11-2025 07:00:00,23.023389,72.515201,SO2,3,14,7
India,Gujarat,Ahmedabad,"SAC ISRO Satellite, Ahmedabad - IITM",07-11-2025 07:00:00,23.023389,72.515201,CO,2,115,78
India,Gujarat,Ahmedabad,"SVPI Airport Hansol, Ahmedabad - IITM",07-11-2025 07:00:00,23.076793,72.627874,PM2.5,4,152,80
India,Gujarat,Ahmedabad,"SVPI Airport Hansol, Ahmedabad - IITM",07-11-2025 07:00:00,23.076793,72.627874,SO2,1,11,7
India,Haryana,Fatehabad,"Huda Sector, Fatehabad - HSPCB",07-11-2025 07:00:00,29.503664,75.467934,NH3,13,15,14
India,Haryana,Fatehabad,"Huda Sector, Fatehabad - HSPCB",07-11-2025 07:00:00,29.503664,75.467934,OZONE,12,23,12
India,Haryana,Gurugram,"Sector-51, Gurugram - HSPCB",07-11-2025 07:00:00,28.4227,77.0667,SO2,2,16,8
India,Haryana,Gurugram,"Vikas Sadan, Gurugram - HSPCB",07-11-2025 07:00:00,28.4501238,77.0263051,PM10,NA,NA,NA
India,Haryana,Gurugram,"Vikas Sadan, Gurugram - HSPCB",07-11-2025 07:00:00,28.4501238,77.0263051,OZONE,8,55,17
India,Haryana,Mandikhera,"General Hospital, Mandikhera - HSPCB",07-11-2025 07:00:00,27.9002,76.9938,PM10,13,74,38
India,Haryana,Mandikhera,"General Hospital, Mandikhera - HSPCB",07-11-2025 07:00:00,27.9002,76.9938,SO2,30,37,34
India,Haryana,Manesar,"Sector-2 IMT, Manesar - HSPCB",07-11-2025 07:00:00,28.360699,76.936090,OZONE,9,52,12
India,Haryana,Narnaul,"Shastri Nagar, Narnaul - HSPCB",07-11-2025 07:00:00,28.060249,76.113115,PM2.5,173,307,218
India,Gujarat,Surat,"Science Center, Surat - SMC",07-11-2025 07:00:00,21.170046,72.795405,CO,33,39,37
India,Gujarat,Vatva,"Phase-4 GIDC, Vatva - GPCB",07-11-2025 07:00:00,22.969611,72.643500,PM2.5,63,232,131
India,Gujarat,Vatva,"Phase-4 GIDC, Vatva - GPCB",07-11-2025 07:00:00,22.969611,72.643500,NH3,4,4,4
India,Haryana,Ambala,"Patti Mehar, Ambala - HSPCB",07-11-2025 07:00:00,30.379589,76.778328,PM2.5,81,315,217
India,Haryana,Dharuhera,"Municipal Corporation Office, Dharuhera -  HSPCB",07-11-2025 07:00:00,28.206800,76.799700,CO,28,56,42
India,Haryana,Faridabad,"Sector 11, Faridabad - HSPCB",07-11-2025 07:00:00,28.376058,77.315741,PM2.5,84,314,194
India,Haryana,Faridabad,"Sector 30, Faridabad - HSPCB",07-11-2025 07:00:00,28.4417,77.3217,CO,42,64,61
India,Haryana,Faridabad,"Sector 30, Faridabad - HSPCB",07-11-2025 07:00:00,28.4417,77.3217,OZONE,17,20,18
India,Haryana,Jind,"Police Lines, Jind - HSPCB",07-11-2025 07:00:00,29.307814,76.337619,NO2,12,14,13
India,Haryana,Karnal,"Sector-12, Karnal - HSPCB",07-11-2025 07:00:00,29.695300,77.002700,PM2.5,54,367,247
India,Karnataka,Dharwad,"Kalabhavan, Dharwad - KSPCB",07-11-2025 07:00:00,15.459706,75.008381,OZONE,21,27,21
India,Karnataka,Gadag,"Panchal Nagar, Gadag - KSPCB",07-11-2025 07:00:00,15.411456,75.638133,OZONE,12,48,29
India,Karnataka,Haveri,"Ashwini Nagar, Haveri - KSPCB",07-11-2025 07:00:00,14.791800,75.389600,NO2,45,50,48
India,Karnataka,Haveri,"Ashwini Nagar, Haveri - KSPCB",07-11-2025 07:00:00,14.791800,75.389600,CO,27,36,30
India,Karnataka,Haveri,"Ashwini Nagar, Haveri - KSPCB",07-11-2025 07:00:00,14.791800,75.389600,OZONE,16,16,16
India,Karnataka,Hubballi,"Lingaraj Nagar, Hubballi - KSPCB",07-11-2025 07:00:00,15.3714823,75.1160168,PM10,51,59,55
India,Karnataka,Hubballi,"Lingaraj Nagar, Hubballi - KSPCB",07-11-2025 07:00:00,15.3714823,75.1160168,NH3,1,2,2
India,Karnataka,Kalaburagi,"Lal Bahadur Shastri Nagar, Kalaburagi - KSPCB",07-11-2025 07:00:00,17.321993,76.822628,PM10,42,73,59
India,Haryana,Sonipat,"Murthal, Sonipat - HSPCB",07-11-2025 07:00:00,29.027200,77.062100,SO2,6,11,8
India,Haryana,Yamuna Nagar,"Gobind Pura, Yamuna Nagar - HSPCB",07-11-2025 07:00:00,30.1480566,77.2893471,PM2.5,162,302,224
India,Haryana,Yamuna Nagar,"Gobind Pura, Yamuna Nagar - HSPCB",07-11-2025 07:00:00,30.1480566,77.2893471,PM10,117,164,137
India,Jammu_and_Kashmir,Srinagar,"Rajbagh, Srinagar - JKSPCB",07-11-2025 07:00:00,34.066206,74.819820,PM2.5,36,80,56
India,Jammu_and_Kashmir,Srinagar,"Rajbagh, Srinagar - JKSPCB",07-11-2025 07:00:00,34.066206,74.819820,SO2,3,4,3
India,Jharkhand,Dhanbad,"Sardar Patel Nagar, Dhanbad - JSPCB",07-11-2025 07:00:00,23.80569,86.44268,OZONE,1,39,2
India,Karnataka,Bengaluru,"Shivapura_Peenya, Bengaluru - KSPCB",07-11-2025 07:00:00,13.0246342,77.5080115,SO2,10,16,12
India,Karnataka,Bengaluru,"Silk Board, Bengaluru - KSPCB",07-11-2025 07:00:00,12.917348,77.622813,PM10,32,98,65
India,Karnataka,Bengaluru,"Silk Board, Bengaluru - KSPCB",07-11-2025 07:00:00,12.917348,77.622813,NH3,2,2,2
India,Karnataka,Bengaluru,"Silk Board, Bengaluru - KSPCB",07-11-2025 07:00:00,12.917348,77.622813,CO,19,48,24
India,Karnataka,Davanagere,"Devaraj Urs Badavane, Davanagere - KSPCB",07-11-2025 07:00:00,14.475800,75.905200,OZONE,21,24,22
India,Karnataka,Dharwad,"Kalabhavan, Dharwad - KSPCB",07-11-2025 07:00:00,15.459706,75.008381,NH3,4,7,6
India,Karnataka,Dharwad,"Kalabhavan, Dharwad - KSPCB",07-11-2025 07:00:00,15.459706,75.008381,SO2,3,4,4
India,Karnataka,Mysuru,"Hebbal 1st Stage, Mysuru - KSPCB",07-11-2025 07:00:00,12.21041,76.37376,NH3,2,8,5
India,Karnataka,Shivamogga,"Vinoba Nagara, Shivamogga - KSPCB",07-11-2025 07:00:00,13.940000,75.555917,PM2.5,17,19,18
India,Karnataka,Shivamogga,"Vinoba Nagara, Shivamogga - KSPCB",07-11-2025 07:00:00,13.940000,75.555917,NO2,12,23,16
India,Karnataka,Shivamogga,"Vinoba Nagara, Shivamogga - KSPCB",07-11-2025 07:00:00,13.940000,75.555917,SO2,4,4,4
India,Karnataka,Udupi,"Brahmagiri, Udupi - KSPCB",07-11-2025 07:00:00,13.34194444,74.74694444,SO2,8,8,8
India,Kerala,Eloor,"Udyogamandal, Eloor - Kerala PCB",07-11-2025 07:00:00,10.073232,76.302765,OZONE,10,14,12
India,Jharkhand,Jorapokhar,"Tata Stadium, Jorapokhar - JSPCB",07-11-2025 07:00:00,23.707909,86.414670,OZONE,NA,NA,NA
India,Karnataka,Belgaum,"Ramteerth Nagar, Belgaum - KSPCB",07-11-2025 07:00:00,15.888653,74.541751,PM2.5,13,93,51
India,Karnataka,Bengaluru,"BWSSB Kadabesanahalli, Bengaluru - CPCB",07-11-2025 07:00:00,12.9352049,77.6814488,PM10,51,192,120
India,Karnataka,Bengaluru,"Bapuji Nagar, Bengaluru - KSPCB",07-11-2025 07:00:00,12.951913,77.539784,SO2,3,16,8
India,Haryana,Panchkula,"Sector-6, Panchkula - HSPCB ",07-11-2025 07:00:00,30.7057778,76.8531805555555,PM2.5,233,316,292
India,Haryana,Panipat,"Sector-18, Panipat - HSPCB",07-11-2025 07:00:00,29.432304,76.972765,CO,8,26,25
India,Haryana,Rohtak,"MD University, Rohtak - HSPCB",07-11-2025 07:00:00,28.52123,76.37138,SO2,NA,NA,NA
India,Haryana,Rohtak,"MD University, Rohtak - HSPCB",07-11-2025 07:00:00,28.52123,76.37138,CO,NA,NA,NA
India,Haryana,Sirsa,"F-Block, Sirsa - HSPCB",07-11-2025 07:00:00,29.536400,75.015800,CO,36,73,68
India,Karnataka,Kalaburagi,"Lal Bahadur Shastri Nagar, Kalaburagi - KSPCB",07-11-2025 07:00:00,17.321993,76.822628,SO2,62,66,65
India,Karnataka,Koppal,"Diwator Nagar, Koppal - KSPCB",07-11-2025 07:00:00,15.347630,76.181767,CO,44,78,51
India,Karnataka,Madikeri,"Stuart Hill, Madikeri - KSPCB",07-11-2025 07:00:00,12.415911,75.735050,PM2.5,2,79,27
India,Karnataka,Mangalore,"Kadri, Mangalore - KSPCB",07-11-2025 07:00:00,12.889250,74.853000,PM2.5,41,119,60
India,Karnataka,Bengaluru,"Peenya, Bengaluru - CPCB",07-11-2025 07:00:00,13.0270199,77.494094,PM2.5,19,49,29
India,Karnataka,Bengaluru,"Peenya, Bengaluru - CPCB",07-11-2025 07:00:00,13.0270199,77.494094,OZONE,19,20,19
India,Karnataka,Bengaluru,"RVCE-Mailasandra, Bengaluru - KSPCB",07-11-2025 07:00:00,12.921418,77.502466,PM2.5,27,52,30
India,Karnataka,Bengaluru,"RVCE-Mailasandra, Bengaluru - KSPCB",07-11-2025 07:00:00,12.921418,77.502466,PM10,74,123,94
India,Karnataka,Bengaluru,"City Railway Station, Bengaluru - KSPCB",07-11-2025 07:00:00,12.9756843,77.5660749,NO2,43,50,47
India,Karnataka,Bengaluru,"City Railway Station, Bengaluru - KSPCB",07-11-2025 07:00:00,12.9756843,77.5660749,SO2,11,21,14
India,Karnataka,Bengaluru,"City Railway Station, Bengaluru - KSPCB",07-11-2025 07:00:00,12.9756843,77.5660749,CO,85,88,87
India,Karnataka,Bengaluru,"Jigani, Bengaluru - KSPCB",07-11-2025 07:00:00,12.7816279,77.6299145,PM2.5,44,72,54
India,Madhya Pradesh,Maihar,"Sahilara, Maihar - KJS Cements",07-11-2025 07:00:00,24.2613009,80.7231783,PM10,29,78,49
India,Madhya Pradesh,Mandideep,"Sector-D Industrial Area, Mandideep - MPPCB",07-11-2025 07:00:00,23.108440,77.511428,NO2,20,128,70
India,Madhya Pradesh,Mandideep,"Sector-D Industrial Area, Mandideep - MPPCB",07-11-2025 07:00:00,23.108440,77.511428,SO2,11,117,54
India,Madhya Pradesh,Pithampur,"Sector-2 Industrial Area, Pithampur - MPPCB",07-11-2025 07:00:00,22.624758,75.675238,NH3,2,26,4
India,Madhya Pradesh,Pithampur,"Sector-2 Industrial Area, Pithampur - MPPCB",07-11-2025 07:00:00,22.624758,75.675238,SO2,7,30,22
India,Madhya Pradesh,Pithampur,"Sector-2 Industrial Area, Pithampur - MPPCB",07-11-2025 07:00:00,22.624758,75.675238,OZONE,31,62,55
India,Madhya Pradesh,Ratlam,"Shasthri Nagar, Ratlam - IPCA Lab",07-11-2025 07:00:00,23.331731,75.045981,NO2,NA,NA,NA
India,Madhya Pradesh,Sagar,"Civil Lines, Sagar - MPPCB",07-11-2025 07:00:00,23.838586,78.759431,PM10,60,137,99
India,Maharashtra,Amravati,"Shri Shivaji Science College, Amravati - MPCB",07-11-2025 07:00:00,20.939198,77.765701,PM10,60,111,86
India,Maharashtra,Amravati,"Shri Shivaji Science College, Amravati - MPCB",07-11-2025 07:00:00,20.939198,77.765701,NO2,3,52,19
India,Maharashtra,Amravati,"Shri Shivaji Science College, Amravati - MPCB",07-11-2025 07:00:00,20.939198,77.765701,CO,27,78,52
India,Maharashtra,Aurangabad,"MIDC Chilkalthana, Aurangabad - MPCB",07-11-2025 07:00:00,19.875620,75.387310,PM2.5,5,75,44
India,Maharashtra,Aurangabad,"MIDC Chilkalthana, Aurangabad - MPCB",07-11-2025 07:00:00,19.875620,75.387310,SO2,NA,NA,NA
India,Maharashtra,Aurangabad,"MIDC Chilkalthana, Aurangabad - MPCB",07-11-2025 07:00:00,19.875620,75.387310,CO,7,12,10
India,Maharashtra,Aurangabad,"Rachnakar Colony, Aurangabad - MPCB",07-11-2025 07:00:00,19.863756,75.321188,OZONE,10,87,13
India,Maharashtra,Badlapur,"Katrap, Badlapur - MPCB",07-11-2025 07:00:00,19.16485,73.23409,PM2.5,29,125,85
India,Maharashtra,Badlapur,"Katrap, Badlapur - MPCB",07-11-2025 07:00:00,19.16485,73.23409,NH3,4,8,5
India,Madhya Pradesh,Gwalior,"Deen Dayal Nagar, Gwalior - MPPCB",07-11-2025 07:00:00,26.259242,78.216432,NH3,3,9,5
India,Madhya Pradesh,Gwalior,"Deen Dayal Nagar, Gwalior - MPPCB",07-11-2025 07:00:00,26.259242,78.216432,CO,17,104,46
India,Madhya Pradesh,Gwalior,"Maharaj Bada, Gwalior - MPPCB",07-11-2025 07:00:00,26.200388,78.147714,PM10,72,245,140
India,Madhya Pradesh,Gwalior,"Maharaj Bada, Gwalior - MPPCB",07-11-2025 07:00:00,26.200388,78.147714,CO,2,108,36
India,Madhya Pradesh,Gwalior,"Maharaj Bada, Gwalior - MPPCB",07-11-2025 07:00:00,26.200388,78.147714,OZONE,18,152,35
India,Madhya Pradesh,Indore,"Airport Area, Indore - IMC",07-11-2025 07:00:00,22.7289,75.8076,PM10,22,240,85
India,Madhya Pradesh,Indore,"Airport Area, Indore - IMC",07-11-2025 07:00:00,22.7289,75.8076,CO,4,7,6
India,Madhya Pradesh,Indore,"Airport Area, Indore - IMC",07-11-2025 07:00:00,22.7289,75.8076,OZONE,3,7,3
India,Madhya Pradesh,Indore,"Chhoti Gwaltoli, Indore - MPPCB",07-11-2025 07:00:00,22.4310,75.5213,PM2.5,33,198,87
India,Madhya Pradesh,Satna,"Bandhavgar Colony, Satna - Birla Cement",07-11-2025 07:00:00,24.58434363,80.8549414,NO2,29,38,33
India,Madhya Pradesh,Singrauli,"Suryakiran Bhawan NCL, Singrauli - MPPCB",07-11-2025 07:00:00,24.108970,82.645580,SO2,39,46,42
India,Maharashtra,Ahmednagar,"Tarakpur, Ahmednagar - MPCB",07-11-2025 07:00:00,19.10122,74.73339,NH3,4,6,5
India,Maharashtra,Ahmednagar,"Tarakpur, Ahmednagar - MPCB",07-11-2025 07:00:00,19.10122,74.73339,CO,10,104,17
India,Maharashtra,Akola,"Ramdaspeth, Akola - MPCB",07-11-2025 07:00:00,20.719516,77.000253,PM2.5,39,91,61
India,Maharashtra,Akola,"Ramdaspeth, Akola - MPCB",07-11-2025 07:00:00,20.719516,77.000253,PM10,50,129,81
India,Madhya Pradesh,Indore,"Chhoti Gwaltoli, Indore - MPPCB",07-11-2025 07:00:00,22.4310,75.5213,NH3,1,7,2
India,Madhya Pradesh,Indore,"Chhoti Gwaltoli, Indore - MPPCB",07-11-2025 07:00:00,22.4310,75.5213,SO2,10,46,18
India,Madhya Pradesh,Indore,"Chhoti Gwaltoli, Indore - MPPCB",07-11-2025 07:00:00,22.4310,75.5213,CO,30,88,52
India,Madhya Pradesh,Indore,"Maguda Nagar, Indore - IMC",07-11-2025 07:00:00,22.7524,75.8872,NH3,NA,NA,NA
India,Madhya Pradesh,Indore,"Regional Park, Indore - IMC",07-11-2025 07:00:00,22.6780,75.8559,NH3,1,3,1
India,Madhya Pradesh,Indore,"Regional Park, Indore - IMC",07-11-2025 07:00:00,22.6780,75.8559,OZONE,11,26,17
India,Madhya Pradesh,Jabalpur,"Govindh Bhavan Colony, Jabalpur - JMC",07-11-2025 07:00:00,23.163174,79.973061,CO,31,50,40
India,Kerala,Thrissur,"Corporation Ground, Thrissur - Kerala PCB",07-11-2025 07:00:00,10.532400,76.215900,CO,13,37,16
India,Madhya Pradesh,Bhopal,"Idgah Hills, Bhopal - MPPCB",07-11-2025 07:00:00,23.264759,77.381568,PM2.5,37,123,77
India,Madhya Pradesh,Bhopal,"Idgah Hills, Bhopal - MPPCB",07-11-2025 07:00:00,23.264759,77.381568,NH3,3,5,4
India,Madhya Pradesh,Bhopal,"Idgah Hills, Bhopal - MPPCB",07-11-2025 07:00:00,23.264759,77.381568,OZONE,46,85,66
India,Madhya Pradesh,Bhopal,"Paryavaran Parisar, Bhopal - MPPCB",07-11-2025 07:00:00,23.210494,77.425409,PM2.5,58,143,78
India,Madhya Pradesh,Bhopal,"T T Nagar, Bhopal - MPPCB",07-11-2025 07:00:00,23.233584,77.400574,PM10,103,157,127
India,Kerala,Kannur,"Thavakkara, Kannur - Kerala PCB",07-11-2025 07:00:00,11.875000,75.373200,PM2.5,48,56,53
India,Kerala,Kollam,"Polayathode, Kollam - Kerala PCB",07-11-2025 07:00:00,8.8787,76.6073,PM10,65,103,83
India,Kerala,Kollam,"Polayathode, Kollam - Kerala PCB",07-11-2025 07:00:00,8.8787,76.6073,SO2,2,3,3
India,Kerala,Thiruvananthapuram,"Plammoodu, Thiruvananthapuram - Kerala PCB",07-11-2025 07:00:00,8.5149093,76.9435879,NO2,32,69,46
India,Kerala,Thrissur,"Corporation Ground, Thrissur - Kerala PCB",07-11-2025 07:00:00,10.532400,76.215900,PM2.5,43,59,51
India,Madhya Pradesh,Jabalpur,"Govindh Bhavan Colony, Jabalpur - JMC",07-11-2025 07:00:00,23.163174,79.973061,OZONE,2,238,7
India,Madhya Pradesh,Jabalpur,"Marhatal, Jabalpur - MPPCB",07-11-2025 07:00:00,23.168606,79.932247,CO,30,103,37
India,Madhya Pradesh,Jabalpur,"Suhagi, Jabalpur - JMC",07-11-2025 07:00:00,23.218135,79.957770,NO2,6,102,31
India,Madhya Pradesh,Katni,"Gole Bazar, Katni - MPPCB",07-11-2025 07:00:00,23.50016,80.23284,SO2,4,92,26
India,Madhya Pradesh,Bhopal,"T T Nagar, Bhopal - MPPCB",07-11-2025 07:00:00,23.233584,77.400574,NO2,28,52,37
India,Madhya Pradesh,Dewas,"Bhopal Chauraha, Dewas - MPPCB",07-11-2025 07:00:00,22.9682591,76.064118,SO2,16,62,31
India,Maharashtra,Mumbai,"Malad West, Mumbai - IITM",07-11-2025 07:00:00,19.19709,72.82204,PM2.5,27,177,93
India,Maharashtra,Mumbai,"Malad West, Mumbai - IITM",07-11-2025 07:00:00,19.19709,72.82204,NH3,4,5,5
India,Maharashtra,Mumbai,"Malad West, Mumbai - IITM",07-11-2025 07:00:00,19.19709,72.82204,OZONE,10,154,50
India,Maharashtra,Mumbai,"Mazgaon, Mumbai - IITM",07-11-2025 07:00:00,18.96702,72.84214,PM2.5,81,242,134
India,Maharashtra,Mumbai,"Mazgaon, Mumbai - IITM",07-11-2025 07:00:00,18.96702,72.84214,NO2,27,87,51
India,Maharashtra,Mumbai,"Mazgaon, Mumbai - IITM",07-11-2025 07:00:00,18.96702,72.84214,SO2,8,10,9
India,Maharashtra,Mumbai,"Mindspace-Malad West, Mumbai - MPCB",07-11-2025 07:00:00,19.1878657,72.8304069,PM10,64,126,101
India,Maharashtra,Mumbai,"Mindspace-Malad West, Mumbai - MPCB",07-11-2025 07:00:00,19.1878657,72.8304069,NH3,4,24,11
India,Maharashtra,Mumbai,"Mindspace-Malad West, Mumbai - MPCB",07-11-2025 07:00:00,19.1878657,72.8304069,SO2,14,16,15
India,Maharashtra,Mumbai,"Mulund West, Mumbai - MPCB",07-11-2025 07:00:00,19.1750,72.9419,PM2.5,54,210,110
India,Maharashtra,Mumbai,"Chhatrapati Shivaji Intl. Airport (T2), Mumbai - MPCB",07-11-2025 07:00:00,19.10078,72.87462,OZONE,7,8,7
India,Maharashtra,Mumbai,"Colaba, Mumbai - MPCB",07-11-2025 07:00:00,18.910000,72.820000,NO2,25,27,26
India,Maharashtra,Mumbai,"Colaba, Mumbai - MPCB",07-11-2025 07:00:00,18.910000,72.820000,OZONE,11,11,11
India,Maharashtra,Mumbai,"Ghatkopar, Mumbai - BMC",07-11-2025 07:00:00,19.083694,72.920967,PM10,92,181,132
India,Maharashtra,Mumbai,"Ghatkopar, Mumbai - BMC",07-11-2025 07:00:00,19.083694,72.920967,NH3,3,10,6
India,Maharashtra,Mumbai,"Ghatkopar, Mumbai - BMC",07-11-2025 07:00:00,19.083694,72.920967,SO2,4,11,7
India,Maharashtra,Mumbai,"Kandivali East, Mumbai - MPCB",07-11-2025 07:00:00,19.205800,72.868200,PM10,76,121,100
India,Maharashtra,Mumbai,"Kandivali East, Mumbai - MPCB",07-11-2025 07:00:00,19.205800,72.868200,NO2,6,12,8
India,Maharashtra,Mumbai,"Kandivali East, Mumbai - MPCB",07-11-2025 07:00:00,19.205800,72.868200,NH3,1,1,1
India,Maharashtra,Badlapur,"Katrap, Badlapur - MPCB",07-11-2025 07:00:00,19.16485,73.23409,CO,13,46,33
India,Maharashtra,Belapur,"CBD Belapur, Belapur - MPCB",07-11-2025 07:00:00,19.0243902,73.0406721,NH3,2,5,2
India,Maharashtra,Belapur,"CBD Belapur, Belapur - MPCB",07-11-2025 07:00:00,19.0243902,73.0406721,SO2,1,7,3
India,Maharashtra,Belapur,"CBD Belapur, Belapur - MPCB",07-11-2025 07:00:00,19.0243902,73.0406721,CO,10,30,27
India,Maharashtra,Belapur,"CBD Belapur, Belapur - MPCB",07-11-2025 07:00:00,19.0243902,73.0406721,OZONE,15,93,20
India,Maharashtra,Bhiwandi,"Gokul Nagar, Bhiwandi - MPCB",07-11-2025 07:00:00,19.309073,73.057223,NH3,4,6,5
India,Maharashtra,Chandrapur,"Chauhan Colony, Chandrapur - MPCB",07-11-2025 07:00:00,19.962900,79.298714,PM10,76,227,129
India,Maharashtra,Mumbai,"Kherwadi_Bandra East, Mumbai - MPCB",07-11-2025 07:00:00,19.0632143,72.8456324,PM2.5,64,184,104
India,Maharashtra,Mumbai,"Kherwadi_Bandra East, Mumbai - MPCB",07-11-2025 07:00:00,19.0632143,72.8456324,PM10,89,144,118
India,Maharashtra,Mumbai,"Kherwadi_Bandra East, Mumbai - MPCB",07-11-2025 07:00:00,19.0632143,72.8456324,NO2,1,52,21
India,Maharashtra,Mumbai,"Khindipada-Bhandup West, Mumbai - IITM",07-11-2025 07:00:00,19.1653323,72.922099,SO2,4,21,13
India,Maharashtra,Mumbai,"Kurla, Mumbai - MPCB",07-11-2025 07:00:00,19.0863,72.8888,NO2,4,7,5
India,Maharashtra,Mumbai,"Kurla, Mumbai - MPCB",07-11-2025 07:00:00,19.0863,72.8888,NH3,1,2,1
India,Maharashtra,Mumbai,"Borivali East, Mumbai - MPCB",07-11-2025 07:00:00,19.2243333,72.8658113,SO2,9,12,10
India,Maharashtra,Mumbai,"Borivali East, Mumbai - MPCB",07-11-2025 07:00:00,19.2243333,72.8658113,OZONE,5,12,10
India,Maharashtra,Mumbai,"Byculla, Mumbai - BMC",07-11-2025 07:00:00,18.9767,72.8380,SO2,10,14,12
India,Maharashtra,Mumbai,"Chembur, Mumbai - MPCB",07-11-2025 07:00:00,19.0364585,72.8954371,NH3,2,3,2
India,Maharashtra,Mumbai,"Chhatrapati Shivaji Intl. Airport (T2), Mumbai - MPCB",07-11-2025 07:00:00,19.10078,72.87462,PM2.5,52,129,86
India,Maharashtra,Kalyan,"Pimpleshwar Mandir, Kalyan - MPCB",07-11-2025 07:00:00,19.192056,72.9585188,CO,8,111,62
India,Maharashtra,Kolhapur,"Sinchan Bhavan, Kolhapur - MPCB",07-11-2025 07:00:00,16.7143745,74.2426398,PM10,32,108,63
India,Maharashtra,Latur,"Sawe Wadi, Latur - MPCB",07-11-2025 07:00:00,18.39963,76.57452,SO2,2,6,4
India,Maharashtra,Mahad,"Kamble Tarf Birwadi, Mahad - MPCB",07-11-2025 07:00:00,18.1023399,73.4783687,PM2.5,32,36,34
India,Maharashtra,Mumbai,"Sewri, Mumbai - BMC",07-11-2025 07:00:00,19.000084,72.856730,NH3,6,6,6
India,Maharashtra,Mumbai,"Shivaji Nagar, Mumbai - BMC",07-11-2025 07:00:00,19.060498,72.923356,NO2,17,52,33
India,Maharashtra,Mumbai,"Shivaji Nagar, Mumbai - BMC",07-11-2025 07:00:00,19.060498,72.923356,OZONE,2,56,13
India,Maharashtra,Mumbai,"Siddharth Nagar-Worli, Mumbai - IITM",07-11-2025 07:00:00,19.000083,72.813993,PM10,1,165,110
India,Maharashtra,Dhule,"Deopur, Dhule - MPCB",07-11-2025 07:00:00,20.918946,74.776388,NO2,7,72,23
India,Maharashtra,Jalgaon,"Prabhat Colony, Jalgaon - MPCB",07-11-2025 07:00:00,21.001264,75.565602,PM2.5,39,247,109
India,Maharashtra,Jalna,"Old MIDC, Jalna - MPCB",07-11-2025 07:00:00,19.854616,75.905894,CO,6,28,13
India,Maharashtra,Mumbai,"Bandra Kurla Complex, Mumbai - IITM",07-11-2025 07:00:00,19.053536,72.84643,NO2,NA,NA,NA
India,Maharashtra,Mumbai,"Bandra Kurla Complex, Mumbai - IITM",07-11-2025 07:00:00,19.053536,72.84643,NH3,NA,NA,NA
India,Maharashtra,Mumbai,"Borivali East, Mumbai - IITM",07-11-2025 07:00:00,19.23241,72.86895,PM2.5,62,159,106
India,Maharashtra,Nashik,"MIDC Ambad, Nashik - MPCB",07-11-2025 07:00:00,19.950220,73.731480,SO2,4,11,7
India,Maharashtra,Nashik,"MIDC Ambad, Nashik - MPCB",07-11-2025 07:00:00,19.950220,73.731480,OZONE,2,49,30
India,Maharashtra,Nashik,"Pandav Nagari, Nashik - MPCB",07-11-2025 07:00:00,19.9591346,73.7788008,NH3,2,7,4
India,Maharashtra,Navi Mumbai,"Kopripada-Vashi, Navi Mumbai - MPCB",07-11-2025 07:00:00,19.090337,73.014232,PM2.5,37,305,115
India,Maharashtra,Navi Mumbai,"Kopripada-Vashi, Navi Mumbai - MPCB",07-11-2025 07:00:00,19.090337,73.014232,SO2,9,28,14
India,Maharashtra,Navi Mumbai,"Mahape, Navi Mumbai - MPCB",07-11-2025 07:00:00,19.1135051,73.008978,PM2.5,NA,NA,NA
India,Maharashtra,Navi Mumbai,"Mahape, Navi Mumbai - MPCB",07-11-2025 07:00:00,19.1135051,73.008978,NO2,NA,NA,NA
India,Maharashtra,Navi Mumbai,"Mahape, Navi Mumbai - MPCB",07-11-2025 07:00:00,19.1135051,73.008978,NH3,NA,NA,NA
India,Maharashtra,Navi Mumbai,"Mahape, Navi Mumbai - MPCB",07-11-2025 07:00:00,19.1135051,73.008978,SO2,NA,NA,NA
India,Maharashtra,Navi Mumbai,"Mahape, Navi Mumbai - MPCB",07-11-2025 07:00:00,19.1135051,73.008978,CO,NA,NA,NA
India,Maharashtra,Navi Mumbai,"Nerul, Navi Mumbai - MPCB",07-11-2025 07:00:00,19.008751,73.016620,NH3,4,4,4
India,Maharashtra,Nagpur,"Mahal, Nagpur - MPCB",07-11-2025 07:00:00,21.14472,79.107595,NO2,14,83,32
India,Maharashtra,Nagpur,"Mahal, Nagpur - MPCB",07-11-2025 07:00:00,21.14472,79.107595,SO2,14,46,27
India,Maharashtra,Nagpur,"Opp GPO Civil Lines, Nagpur - MPCB",07-11-2025 07:00:00,21.152875,79.0517531,NH3,1,3,1
India,Maharashtra,Nagpur,"Opp GPO Civil Lines, Nagpur - MPCB",07-11-2025 07:00:00,21.152875,79.0517531,OZONE,2,43,21
India,Maharashtra,Nagpur,"Ram Nagar, Nagpur - MPCB",07-11-2025 07:00:00,21.143383,79.048912,PM2.5,44,123,61
India,Maharashtra,Nagpur,"Ram Nagar, Nagpur - MPCB",07-11-2025 07:00:00,21.143383,79.048912,NO2,5,19,10
India,Maharashtra,Navi Mumbai,"Sanpada, Navi Mumbai - MPCB",07-11-2025 07:00:00,19.0575752,73.0151367,PM2.5,83,307,144
India,Maharashtra,Navi Mumbai,"Sanpada, Navi Mumbai - MPCB",07-11-2025 07:00:00,19.0575752,73.0151367,PM10,100,164,127
India,Maharashtra,Navi Mumbai,"Sanpada, Navi Mumbai - MPCB",07-11-2025 07:00:00,19.0575752,73.0151367,NO2,3,9,6
India,Maharashtra,Navi Mumbai,"Sector-2E Kalamboli, Navi Mumbai - MPCB",07-11-2025 07:00:00,19.02579,73.10297,PM2.5,104,243,156
India,Maharashtra,Navi Mumbai,"Tondare-Taloja, Navi Mumbai - MPCB",07-11-2025 07:00:00,19.0630,73.1209,OZONE,11,28,11
India,Maharashtra,Pimpri-Chinchwad,"Gavalinagar, Pimpri Chinchwad - MPCB",07-11-2025 07:00:00,18.63673,73.82487,CO,10,64,25
India,Maharashtra,Pimpri-Chinchwad,"Park Street Wakad, Pimpri Chinchwad - MPCB",07-11-2025 07:00:00,18.59051,73.77946,OZONE,1,64,11
India,Maharashtra,Pimpri-Chinchwad,"Thergaon, Pimpri Chinchwad - MPCB",07-11-2025 07:00:00,18.616318,73.765797,NH3,4,5,5
India,Maharashtra,Pune,"Bhumkar Nagar, Pune - IITM",07-11-2025 07:00:00,18.605770,73.749976,PM2.5,67,214,102
India,Maharashtra,Nagpur,"Ram Nagar, Nagpur - MPCB",07-11-2025 07:00:00,21.143383,79.048912,CO,12,42,16
India,Maharashtra,Nanded,"Sneh Nagar, Nanded - MPCB",07-11-2025 07:00:00,19.173852,77.296291,PM10,74,99,87
India,Maharashtra,Nanded,"Sneh Nagar, Nanded - MPCB",07-11-2025 07:00:00,19.173852,77.296291,OZONE,28,120,54
India,Maharashtra,Nashik,"MIDC Ambad, Nashik - MPCB",07-11-2025 07:00:00,19.950220,73.731480,NO2,7,55,24
India,Maharashtra,Nashik,"MIDC Ambad, Nashik - MPCB",07-11-2025 07:00:00,19.950220,73.731480,NH3,3,4,4
India,Maharashtra,Mumbai,"Sion, Mumbai - MPCB",07-11-2025 07:00:00,19.047000,72.874600,PM2.5,45,124,74
India,Maharashtra,Mumbai,"Sion, Mumbai - MPCB",07-11-2025 07:00:00,19.047000,72.874600,CO,13,18,17
India,Maharashtra,Mumbai,"Vasai West, Mumbai - MPCB",07-11-2025 07:00:00,19.383200,72.820400,PM2.5,24,87,46
India,Maharashtra,Mumbai,"Vile Parle West, Mumbai - MPCB",07-11-2025 07:00:00,19.10861,72.83622,PM2.5,95,315,202
India,Maharashtra,Mumbai,"Vile Parle West, Mumbai - MPCB",07-11-2025 07:00:00,19.10861,72.83622,SO2,11,59,43
India,Maharashtra,Pune,"Hadapsar, Pune - IITM",07-11-2025 07:00:00,18.501793,73.927532,NO2,14,48,26
India,Maharashtra,Pune,"Hadapsar, Pune - IITM",07-11-2025 07:00:00,18.501793,73.927532,OZONE,8,26,10
India,Maharashtra,Pune,"Katraj Dairy, Pune - MPCB",07-11-2025 07:00:00,18.454450,73.854155,NH3,NA,NA,NA
India,Maharashtra,Pune,"Panchawati_Pashan, Pune - IITM",07-11-2025 07:00:00,18.536457,73.805454,PM2.5,19,61,41
India,Maharashtra,Pune,"Panchawati_Pashan, Pune - IITM",07-11-2025 07:00:00,18.536457,73.805454,PM10,30,61,44
India,Maharashtra,Sangli,"Vijay Nagar, Sangli - MPCB",07-11-2025 07:00:00, 16.5038,74.3623,SO2,3,7,5
India,Maharashtra,Thane,"Kasarvadavali, Thane - MPCB",07-11-2025 07:00:00,19.26777,72.97182,CO,16,41,33
India,Maharashtra,Thane,"Upvan Fort, Thane - MPCB",07-11-2025 07:00:00,19.222279,72.957979,NH3,1,2,1
India,Maharashtra,Pune,"Revenue Colony-Shivajinagar, Pune - IITM",07-11-2025 07:00:00,18.530085,73.849598,PM10,55,196,124
India,Maharashtra,Pune,"Savitribai Phule Pune University, Pune - MPCB",07-11-2025 07:00:00,18.547056,73.826908,CO,14,107,42
India,Nagaland,Kohima,"PWD Junction, Kohima - NPCB",07-11-2025 07:00:00,25.6635413,94.0989878,NO2,3,4,3
India,Nagaland,Kohima,"PWD Junction, Kohima - NPCB",07-11-2025 07:00:00,25.6635413,94.0989878,NH3,1,1,1
India,Odisha,Angul,"Hakimapada, Angul - OSPCB",07-11-2025 07:00:00,20.832874,85.104082,PM10,90,248,134
India,Odisha,Angul,"Hakimapada, Angul - OSPCB",07-11-2025 07:00:00,20.832874,85.104082,NH3,7,10,8
India,Odisha,Balasore,"Kalidaspur, Balasore - OSPCB",07-11-2025 07:00:00,21.51161,86.89088,PM2.5,78,350,150
India,Odisha,Balasore,"Kalidaspur, Balasore - OSPCB",07-11-2025 07:00:00,21.51161,86.89088,NH3,2,3,2
India,Odisha,Barbil,"Forest Office, Barbil - OSPCB",07-11-2025 07:00:00,22.1166054,85.3945546,SO2,6,30,12
India,Odisha,Baripada,"Meher Colony, Baripada - OSPCB",07-11-2025 07:00:00,21.941841,86.728318,NO2,12,75,36
India,Punjab,Jalandhar,"Civil Line, Jalandhar - PPCB",07-11-2025 07:00:00,31.321907,75.578914,OZONE,43,49,46
India,Punjab,Khanna,"Kalal Majra, Khanna - PPCB",07-11-2025 07:00:00,30.736056 ,76.209694,NO2,26,30,28
India,Punjab,Patiala,"Model Town, Patiala - PPCB",07-11-2025 07:00:00,30.349388,76.366642,PM2.5,53,305,133
India,Punjab,Patiala,"Model Town, Patiala - PPCB",07-11-2025 07:00:00,30.349388,76.366642,PM10,86,249,146
India,Punjab,Patiala,"Model Town, Patiala - PPCB",07-11-2025 07:00:00,30.349388,76.366642,NO2,16,20,17
India,Punjab,Patiala,"Model Town, Patiala - PPCB",07-11-2025 07:00:00,30.349388,76.366642,CO,4,62,42
India,Rajasthan,Ajmer,"Civil Lines,  Ajmer - RSPCB",07-11-2025 07:00:00,26.470859,74.646594,PM10,60,147,112
India,Odisha,Baripada,"Meher Colony, Baripada - OSPCB",07-11-2025 07:00:00,21.941841,86.728318,CO,16,48,19
India,Odisha,Bhubaneswar,"Lingraj Mandir, Bhubaneswar - OSPCB",07-11-2025 07:00:00,20.240790,85.836784,PM2.5,113,345,220
India,Odisha,Bhubaneswar,"Patia, Bhubaneswar - OSPCB",07-11-2025 07:00:00,20.34652,85.81630,SO2,4,18,8
India,Odisha,Bhubaneswar,"Patia, Bhubaneswar - OSPCB",07-11-2025 07:00:00,20.34652,85.81630,CO,13,180,180
India,Odisha,Bileipada,"Tata Township, Bileipada - OSPCB",07-11-2025 07:00:00,22.06156703,85.47409613,SO2,NA,NA,NA
India,Odisha,Bileipada,"Tata Township, Bileipada - OSPCB",07-11-2025 07:00:00,22.06156703,85.47409613,OZONE,11,13,12
India,Rajasthan,Alwar,"Moti Doongri, Alwar - RSPCB",07-11-2025 07:00:00,27.554793,76.611536,NH3,9,15,12
India,Rajasthan,Banswara,"Rati Talai, Banswara - RSPCB",07-11-2025 07:00:00,23.555190,74.440010,NH3,1,4,2
India,Rajasthan,Baran,"Bamboliya, Baran - RSPCB",07-11-2025 07:00:00,25.106006,76.469948,NO2,9,25,16
India,Rajasthan,Baran,"Bamboliya, Baran - RSPCB",07-11-2025 07:00:00,25.106006,76.469948,SO2,3,9,6
India,Rajasthan,Baran,"Bamboliya, Baran - RSPCB",07-11-2025 07:00:00,25.106006,76.469948,OZONE,16,161,44
India,Rajasthan,Barmer,"Railway Colony, Barmer - RSPCB",07-11-2025 07:00:00,25.747299,71.393989,PM10,97,291,143
India,Maharashtra,Virar,"Bolinj, Virar - MPCB",07-11-2025 07:00:00,19.4458210,72.7988231,PM10,64,106,87
India,Maharashtra,Virar,"Bolinj, Virar - MPCB",07-11-2025 07:00:00,19.4458210,72.7988231,NH3,1,3,2
India,Maharashtra,Virar,"Bolinj, Virar - MPCB",07-11-2025 07:00:00,19.4458210,72.7988231,CO,10,111,53
India,Maharashtra,Virar,"Bolinj, Virar - MPCB",07-11-2025 07:00:00,19.4458210,72.7988231,OZONE,4,78,25
India,Meghalaya,Shillong,"JN Stadium, Shillong - Meghalaya PCB",07-11-2025 07:00:00,25.5803419,91.8942571,OZONE,2,3,2
India,Meghalaya,Shillong,"Lumpyngngad, Shillong - Meghalaya PCB",07-11-2025 07:00:00,25.5586,91.8985,PM2.5,NA,NA,NA
India,Odisha,Tensa,"Barsua Iron Ore Mines, Tensa - OSPCB",07-11-2025 07:00:00,21.869985,85.167016,CO,34,52,37
India,Puducherry,Puducherry,"Jawahar Nagar, Puducherry - PPCC",07-11-2025 07:00:00,11.9309,79.8027,PM10,20,58,33
India,Puducherry,Puducherry,"Jawahar Nagar, Puducherry - PPCC",07-11-2025 07:00:00,11.9309,79.8027,NO2,11,53,24
India,Puducherry,Puducherry,"Jawahar Nagar, Puducherry - PPCC",07-11-2025 07:00:00,11.9309,79.8027,SO2,5,11,8
India,Punjab,Amritsar,"Golden Temple, Amritsar - PPCB",07-11-2025 07:00:00,31.620000,74.876512,PM2.5,92,194,137
India,Odisha,Brajrajnagar,"GM Office, Brajrajnagar - OSPCB",07-11-2025 07:00:00,21.8004996,83.8396977,OZONE,25,29,26
India,Odisha,Cuttack,"CDA Area, Cuttack - OSPCB",07-11-2025 07:00:00,20.48891     ,85.84768     ,PM2.5,113,316,211
India,Odisha,Cuttack,"CDA Area, Cuttack - OSPCB",07-11-2025 07:00:00,20.48891     ,85.84768     ,OZONE,2,69,10
India,Odisha,Keonjhar,"Jagamohanpur, Keonjhar - OSPCB",07-11-2025 07:00:00,21.643900,85.599355,PM10,96,157,121
India,Odisha,Keonjhar,"Jagamohanpur, Keonjhar - OSPCB",07-11-2025 07:00:00,21.643900,85.599355,CO,2,104,24
India,Odisha,Rairangpur,"Divisional Forest Office, Rairangpur - OSPCB",07-11-2025 07:00:00,22.265816,86.174829,CO,26,54,48
India,Odisha,Rourkela,"Fertilizer Township, Rourkela - OSPCB",07-11-2025 07:00:00,22.18972222,84.86277778,NO2,11,11,11
India,Odisha,Rourkela,"Fertilizer Township, Rourkela - OSPCB",07-11-2025 07:00:00,22.18972222,84.86277778,CO,1,86,42
India,Odisha,Rourkela,"Raghunathpali, Rourkela - OSPCB",07-11-2025 07:00:00,22.220833,84.809444,PM10,80,122,102
India,Odisha,Rourkela,"Raghunathpali, Rourkela - OSPCB",07-11-2025 07:00:00,22.220833,84.809444,NO2,8,19,12
India,Meghalaya,Shillong,"Lumpyngngad, Shillong - Meghalaya PCB",07-11-2025 07:00:00,25.5586,91.8985,OZONE,1,5,2
India,Rajasthan,Barmer,"Railway Colony, Barmer - RSPCB",07-11-2025 07:00:00,25.747299,71.393989,NH3,3,26,11
India,Rajasthan,Barmer,"Railway Colony, Barmer - RSPCB",07-11-2025 07:00:00,25.747299,71.393989,SO2,1,7,4
India,Rajasthan,Bharatpur,"Krishna Nagar, Bharatpur - RSPCB",07-11-2025 07:00:00,27.215415,77.50873,PM10,62,171,106
India,Rajasthan,Bharatpur,"Krishna Nagar, Bharatpur - RSPCB",07-11-2025 07:00:00,27.215415,77.50873,NO2,19,94,41
India,Rajasthan,Bhilwara,"Pratap Nagar, Bhilwara - RSPCB",07-11-2025 07:00:00,25.339605,74.618883,PM2.5,45,280,94
India,Rajasthan,Bhilwara,"Pratap Nagar, Bhilwara - RSPCB",07-11-2025 07:00:00,25.339605,74.618883,PM10,110,416,180
India,Rajasthan,Bhiwadi,"RIICO Ind. Area III, Bhiwadi - RSPCB",07-11-2025 07:00:00,28.194909,76.862296,PM2.5,110,381,230
India,Rajasthan,Bhiwadi,"Vasundhara Nagar_UIT, Bhiwadi - RSPCB",07-11-2025 07:00:00,28.207266,76.829265,PM2.5,39,396,146
India,Rajasthan,Churu,"Subash Chowk, Churu - RSPCB",07-11-2025 07:00:00,28.296139,74.961696,CO,2,34,16
India,Rajasthan,Dausa,"Khatikan Mohalla, Dausa - RSPCB",07-11-2025 07:00:00,26.895552,76.334753,PM10,47,275,133
India,Rajasthan,Dholpur,"Raja Ganj, Dholpur - RSPCB",07-11-2025 07:00:00,26.699557,77.898881,NH3,5,10,6
India,Rajasthan,Dholpur,"Raja Ganj, Dholpur - RSPCB",07-11-2025 07:00:00,26.699557,77.898881,CO,14,62,28
India,Rajasthan,Dungarpur,"Bhoiwada, Dungarpur - RSPCB",07-11-2025 07:00:00,23.837789,73.714926,NH3,3,7,4
India,Rajasthan,Hanumangarh,"Housing Board, Hanumangarh - RSPCB",07-11-2025 07:00:00,29.610750,74.283608,PM2.5,45,376,174
India,Rajasthan,Hanumangarh,"Housing Board, Hanumangarh - RSPCB",07-11-2025 07:00:00,29.610750,74.283608,NH3,10,26,16
India,Rajasthan,Jaipur,"Adarsh Nagar, Jaipur - RSPCB",07-11-2025 07:00:00,26.902909,75.836858,SO2,10,46,24
India,Rajasthan,Jaipur,"Mansarovar Sector-12, Jaipur - RSPCB",07-11-2025 07:00:00,26.843698,75.766894,NO2,12,117,59
India,Rajasthan,Jaipur,"Mansarovar Sector-12, Jaipur - RSPCB",07-11-2025 07:00:00,26.843698,75.766894,OZONE,2,124,14
India,Rajasthan,Jaipur,"Police Commissionerate, Jaipur - RSPCB",07-11-2025 07:00:00,26.9164092,75.7994901,NH3,3,14,8
India,Rajasthan,Jaipur,"Police Commissionerate, Jaipur - RSPCB",07-11-2025 07:00:00,26.9164092,75.7994901,OZONE,24,83,66
India,Rajasthan,Jaipur,"RIICO Sitapura, Jaipur - RSPCB",07-11-2025 07:00:00,26.786682,75.827928,SO2,5,9,7
India,Rajasthan,Jaipur,"RIICO Sitapura, Jaipur - RSPCB",07-11-2025 07:00:00,26.786682,75.827928,CO,16,104,59
India,Rajasthan,Jaipur,"RIICO Sitapura, Jaipur - RSPCB",07-11-2025 07:00:00,26.786682,75.827928,OZONE,3,127,7
India,Rajasthan,Bikaner,"MM Ground, Bikaner - RSPCB",07-11-2025 07:00:00,28.018792,73.292658,PM10,132,402,217
India,Rajasthan,Bikaner,"MM Ground, Bikaner - RSPCB",07-11-2025 07:00:00,28.018792,73.292658,SO2,4,9,7
India,Rajasthan,Bundi,"New Colony, Bundi - RSPCB",07-11-2025 07:00:00,25.435774,75.644272,OZONE,52,164,85
India,Rajasthan,Chittorgarh,"Shastri Nagar, Chittorgarh - RSPCB",07-11-2025 07:00:00,24.892047,74.623527,NO2,13,77,39
India,Rajasthan,Chittorgarh,"Shastri Nagar, Chittorgarh - RSPCB",07-11-2025 07:00:00,24.892047,74.623527,NH3,1,4,3
India,Rajasthan,Chittorgarh,"Shastri Nagar, Chittorgarh - RSPCB",07-11-2025 07:00:00,24.892047,74.623527,OZONE,3,154,4
India,Rajasthan,Churu,"Subash Chowk, Churu - RSPCB",07-11-2025 07:00:00,28.296139,74.961696,PM10,108,279,157
India,Rajasthan,Jaipur,"Sector-2 Murlipura, Jaipur - RSPCB",07-11-2025 07:00:00,26.960669,75.771817,PM10,68,242,142
India,Rajasthan,Jaipur,"Sector-2 Murlipura, Jaipur - RSPCB",07-11-2025 07:00:00,26.960669,75.771817,NO2,23,117,59
India,Rajasthan,Jaipur,"Shastri Nagar, Jaipur - RSPCB",07-11-2025 07:00:00,26.9502929,75.730943,PM10,88,401,161
India,Rajasthan,Jaisalmer,"Sadar Bazar, Jaisalmer - RSPCB",07-11-2025 07:00:00,26.912329,70.909168,NO2,8,45,21
India,Rajasthan,Jaisalmer,"Sadar Bazar, Jaisalmer - RSPCB",07-11-2025 07:00:00,26.912329,70.909168,SO2,4,7,5
India,Rajasthan,Jalore,"Mudtra Sili, Jalore - RSPCB",07-11-2025 07:00:00,25.344694,72.626208,PM10,107,500,178
India,Rajasthan,Kota,"Nayapura, Kota - RSPCB",07-11-2025 07:00:00,25.196024,75.855668,PM10,88,193,131
India,Rajasthan,Kota,"Shrinath Puram, Kota - RSPCB",07-11-2025 07:00:00,25.14389,75.821256,NO2,3,23,16
India,Rajasthan,Kota,"Shrinath Puram, Kota - RSPCB",07-11-2025 07:00:00,25.14389,75.821256,OZONE,5,31,11
India,Rajasthan,Nagaur,"Karni Colony, Nagaur - RSPCB",07-11-2025 07:00:00,27.213494,73.734444,NH3,3,9,5
India,Rajasthan,Pali,"Indira Colony Vistar, Pali - RSPCB",07-11-2025 07:00:00,25.771061, 73.340227,OZONE,8,55,9
India,Rajasthan,Pratapgarh,"Pragati Nagar, Pratapgarh - RSPCB",07-11-2025 07:00:00,24.041198,74.780702,PM2.5,42,127,76
India,Rajasthan,Jhalawar,"Rajlaxmi Nagar, Jhalawar - RSPCB",07-11-2025 07:00:00,24.588397,76.172782,PM2.5,55,203,114
India,Rajasthan,Jhalawar,"Rajlaxmi Nagar, Jhalawar - RSPCB",07-11-2025 07:00:00,24.588397,76.172782,SO2,5,14,9
India,Rajasthan,Jodhpur,"Samrat Ashok Udhyan, Jodhpur - RSPCB",07-11-2025 07:00:00,26.253384,72.976571,NO2,8,116,44
India,Rajasthan,Jodhpur,"Samrat Ashok Udhyan, Jodhpur - RSPCB",07-11-2025 07:00:00,26.253384,72.976571,CO,32,84,44
India,TamilNadu,Gummidipoondi,"Anthoni Pillai Nagar, Gummidipoondi - TNPCB",07-11-2025 07:00:00,13.4127,80.1081,SO2,30,133,64
India,TamilNadu,Hosur,"SIPCOT Phase-1, Hosur - TNPCB",07-11-2025 07:00:00,12.746998,77.813811,NH3,1,1,1
India,TamilNadu,Kanchipuram,"Kilambi, Kanchipuram - TNPCB",07-11-2025 07:00:00,12.864618,79.659968,PM2.5,32,65,49
India,TamilNadu,Kanchipuram,"Kilambi, Kanchipuram - TNPCB",07-11-2025 07:00:00,12.864618,79.659968,PM10,43,103,70
India,TamilNadu,Karur,"Kamadenu Nagar, Karur - TNPCB",07-11-2025 07:00:00,10.967820,78.080882,NO2,3,6,5
India,TamilNadu,Karur,"Kamadenu Nagar, Karur - TNPCB",07-11-2025 07:00:00,10.967820,78.080882,OZONE,6,9,8
India,Rajasthan,Sikar,"Radhakishan Pura, Sikar - RSPCB",07-11-2025 07:00:00,27.608912,75.153302,PM2.5,40,413,171
India,Rajasthan,Sikar,"Radhakishan Pura, Sikar - RSPCB",07-11-2025 07:00:00,27.608912,75.153302,PM10,107,430,225
India,Rajasthan,Sikar,"Radhakishan Pura, Sikar - RSPCB",07-11-2025 07:00:00,27.608912,75.153302,NH3,4,12,8
India,Rajasthan,Sikar,"Radhakishan Pura, Sikar - RSPCB",07-11-2025 07:00:00,27.608912,75.153302,CO,18,103,48
India,Rajasthan,Sirohi,"Vedhaynath Colony, Sirohi - RSPCB",07-11-2025 07:00:00,24.885261,72.857549,SO2,4,8,5
India,Rajasthan,Sri Ganganagar,"Old City, Sri Ganganagar - RSPCB",07-11-2025 07:00:00,29.931624,73.864511,NH3,3,21,7
India,Rajasthan,Sri Ganganagar,"Old City, Sri Ganganagar - RSPCB",07-11-2025 07:00:00,29.931624,73.864511,CO,34,125,78
India,TamilNadu,Coimbatore,"SIDCO Kurichi, Coimbatore - TNPCB",07-11-2025 07:00:00,10.942451,76.978996,CO,30,41,38
India,TamilNadu,Cuddalore,"Kudikadu, Cuddalore - TNPCB",07-11-2025 07:00:00,11.6829898,79.7532099,PM2.5,27,56,38
India,TamilNadu,Cuddalore,"Kudikadu, Cuddalore - TNPCB",07-11-2025 07:00:00,11.6829898,79.7532099,NH3,4,5,4
India,TamilNadu,Cuddalore,"Kudikadu, Cuddalore - TNPCB",07-11-2025 07:00:00,11.6829898,79.7532099,OZONE,14,15,14
India,TamilNadu,Cuddalore,"Semmandalam, Cuddalore - TNPCB",07-11-2025 07:00:00,11.7637683,79.7499835,PM2.5,NA,NA,NA
India,TamilNadu,Cuddalore,"Semmandalam, Cuddalore - TNPCB",07-11-2025 07:00:00,11.7637683,79.7499835,OZONE,2,2,2
India,TamilNadu,Chennai,"Gandhi Nagar_Ennore, Chennai - TNPCB",07-11-2025 07:00:00,13.218341,80.32027,CO,8,10,9
India,TamilNadu,Chennai,"Gandhi Nagar_Ennore, Chennai - TNPCB",07-11-2025 07:00:00,13.218341,80.32027,OZONE,6,25,18
India,TamilNadu,Chennai,"Kodungaiyur, Chennai - TNPCB",07-11-2025 07:00:00,13.1278,80.2642,SO2,2,12,7
India,TamilNadu,Chennai,"Manali Village, Chennai - TNPCB",07-11-2025 07:00:00,13.1662,80.2584,NH3,1,2,1
India,TamilNadu,Chennai,"Manali, Chennai - CPCB",07-11-2025 07:00:00,13.164544,80.26285,NO2,8,27,18
India,Rajasthan,Udaipur,"Ashok Nagar, Udaipur - RSPCB",07-11-2025 07:00:00,24.5886166,73.6321397,PM2.5,46,149,90
India,Rajasthan,Udaipur,"Ashok Nagar, Udaipur - RSPCB",07-11-2025 07:00:00,24.5886166,73.6321397,NH3,4,8,6
India,Sikkim,Gangtok,"Zero Point GICI, Gangtok - SSPCB",07-11-2025 07:00:00,27.338530,88.614099,PM2.5,3,20,10
India,Sikkim,Gangtok,"Zero Point GICI, Gangtok - SSPCB",07-11-2025 07:00:00,27.338530,88.614099,CO,1,20,2
India,Sikkim,Gangtok,"Zero Point GICI, Gangtok - SSPCB",07-11-2025 07:00:00,27.338530,88.614099,OZONE,24,82,54
India,TamilNadu,Chennai,"Perungudi, Chennai - TNPCB",07-11-2025 07:00:00,12.9533,80.2357,PM10,23,78,48
India,TamilNadu,Chennai,"Perungudi, Chennai - TNPCB",07-11-2025 07:00:00,12.9533,80.2357,NO2,3,13,6
India,TamilNadu,Chennai,"Velachery Res. Area, Chennai - CPCB",07-11-2025 07:00:00,13.0052189,80.2398125,PM10,80,103,88
India,TamilNadu,Coimbatore,"PSG College of Arts and Science, Coimbatore - TNPCB",07-11-2025 07:00:00,11.0328,77.0349,PM2.5,49,143,87
India,TamilNadu,Coimbatore,"PSG College of Arts and Science, Coimbatore - TNPCB",07-11-2025 07:00:00,11.0328,77.0349,PM10,38,93,65
India,Rajasthan,Sawai Madhopur,"Sahu Nagar, Sawai Madhopur - RSPCB",07-11-2025 07:00:00,26.031443,76.359327,PM2.5,12,322,138
India,TamilNadu,Chengalpattu,"Crescent University, Chengalpattu - TNPCB",07-11-2025 07:00:00,12.8777316,80.0834807,NH3,NA,NA,NA
India,TamilNadu,Salem,"Sona College of Technology, Salem - TNPCB",07-11-2025 07:00:00,11.679111,78.125052,OZONE,7,8,7
India,TamilNadu,Thanjavur,"Parisutham Nagar, Thanjavur - TNPCB",07-11-2025 07:00:00,10.7654824,79.1389968,NO2,NA,NA,NA
India,TamilNadu,Thoothukudi,"Meelavittan, Thoothukudi - TNPCB",07-11-2025 07:00:00,8.816428 ,78.099039,OZONE,1,14,4
India,TamilNadu,Tiruchirappalli,"St Joseph College, Tiruchirappalli - TNPCB",07-11-2025 07:00:00,10.830158,78.691849,NH3,NA,NA,NA
India,TamilNadu,Tirunelveli,"Municipal Corporation Office, Tirunelveli - TNPCB",07-11-2025 07:00:00,8.728442,77.6962,NO2,3,12,7
India,TamilNadu,Tirunelveli,"Municipal Corporation Office, Tirunelveli - TNPCB",07-11-2025 07:00:00,8.728442,77.6962,OZONE,6,7,6
India,TamilNadu,Tirupur,"Kumaran College, Tirupur - TNPCB",07-11-2025 07:00:00,11.0973603,77.3228673,PM2.5,27,80,43
India,TamilNadu,Tirupur,"Kumaran College, Tirupur - TNPCB",07-11-2025 07:00:00,11.0973603,77.3228673,SO2,5,10,7
India,Telangana,Hyderabad,"ECIL Kapra, Hyderabad - TSPCB",07-11-2025 07:00:00,17.470431,78.566959,PM2.5,37,39,38
India,Telangana,Hyderabad,"ECIL Kapra, Hyderabad - TSPCB",07-11-2025 07:00:00,17.470431,78.566959,SO2,11,18,13
India,Telangana,Hyderabad,"ICRISAT Patancheru, Hyderabad - TSPCB",07-11-2025 07:00:00,17.518400,78.278777,SO2,4,99,23
India,Telangana,Hyderabad,"ICRISAT Patancheru, Hyderabad - TSPCB",07-11-2025 07:00:00,17.518400,78.278777,OZONE,1,57,8
India,Telangana,Hyderabad,"IDA Pashamylaram, Hyderabad - TSPCB",07-11-2025 07:00:00,17.5316895,78.218939,PM2.5,38,182,125
India,Telangana,Hyderabad,"IDA Pashamylaram, Hyderabad - TSPCB",07-11-2025 07:00:00,17.5316895,78.218939,PM10,NA,NA,NA
India,Telangana,Hyderabad,"IDA Pashamylaram, Hyderabad - TSPCB",07-11-2025 07:00:00,17.5316895,78.218939,OZONE,7,13,8
India,Telangana,Hyderabad,"IITH Kandi, Hyderabad - TSPCB",07-11-2025 07:00:00,17.585705,78.126199,PM10,72,72,72
India,Telangana,Hyderabad,"IITH Kandi, Hyderabad - TSPCB",07-11-2025 07:00:00,17.585705,78.126199,NO2,13,16,14
India,Telangana,Hyderabad,"Kokapet, Hyderabad - TSPCB",07-11-2025 07:00:00,17.393559,78.339194,PM2.5,35,47,40
India,Telangana,Hyderabad,"Kokapet, Hyderabad - TSPCB",07-11-2025 07:00:00,17.393559,78.339194,NO2,12,17,15
India,Telangana,Hyderabad,"Kokapet, Hyderabad - TSPCB",07-11-2025 07:00:00,17.393559,78.339194,NH3,2,3,3
India,Telangana,Hyderabad,"Kompally Municipal Office, Hyderabad - TSPCB",07-11-2025 07:00:00,17.544899,78.486949,PM2.5,45,58,54
India,Telangana,Hyderabad,"Kompally Municipal Office, Hyderabad - TSPCB",07-11-2025 07:00:00,17.544899,78.486949,NH3,2,5,3
India,Telangana,Hyderabad,"Kompally Municipal Office, Hyderabad - TSPCB",07-11-2025 07:00:00,17.544899,78.486949,CO,18,22,19
India,Telangana,Hyderabad,"Nacharam_TSIIC IALA, Hyderabad - TSPCB",07-11-2025 07:00:00,17.429398,78.569354,PM10,64,118,89
India,Telangana,Hyderabad,"Nacharam_TSIIC IALA, Hyderabad - TSPCB",07-11-2025 07:00:00,17.429398,78.569354,SO2,10,16,14
India,Telangana,Hyderabad,"New Malakpet, Hyderabad - TSPCB",07-11-2025 07:00:00,17.37206,78.50864,PM2.5,41,83,58
India,Telangana,Hyderabad,"New Malakpet, Hyderabad - TSPCB",07-11-2025 07:00:00,17.37206,78.50864,PM10,79,88,83
India,Telangana,Hyderabad,"New Malakpet, Hyderabad - TSPCB",07-11-2025 07:00:00,17.37206,78.50864,NO2,13,17,15
India,Uttar_Pradesh,Agra,"Sanjay Palace, Agra - UPPCB",07-11-2025 07:00:00,27.19865833,78.00598056,CO,31,37,34
India,Uttar_Pradesh,Agra,"Sector-3B Avas Vikas Colony, Agra - UPPCB",07-11-2025 07:00:00,27.19412,77.96237,NH3,4,7,5
India,Uttar_Pradesh,Agra,"Sector-3B Avas Vikas Colony, Agra - UPPCB",07-11-2025 07:00:00,27.19412,77.96237,OZONE,3,21,5
India,Uttar_Pradesh,Agra,"Shahjahan Garden, Agra - UPPCB",07-11-2025 07:00:00,27.169338,78.03582,PM10,96,166,132
India,Uttar_Pradesh,Agra,"Shastripuram, Agra - UPPCB",07-11-2025 07:00:00,27.19862,77.92066,NO2,38,39,38
India,Uttar_Pradesh,Agra,"Shastripuram, Agra - UPPCB",07-11-2025 07:00:00,27.19862,77.92066,OZONE,7,8,8
India,Uttar_Pradesh,Baghpat,"Sardar Patel Inter College, Baghpat - UPPCB",07-11-2025 07:00:00,28.964949,77.278761,PM10,101,405,223
India,Uttar_Pradesh,Baghpat,"Sardar Patel Inter College, Baghpat - UPPCB",07-11-2025 07:00:00,28.964949,77.278761,NO2,54,97,74
India,TamilNadu,Palkalaiperur,"Bharathidasan University, Palkalaiperur - TNPCB",07-11-2025 07:00:00,10.681158,78.741746,SO2,16,16,16
India,TamilNadu,Perundurai,"SIPCOT Industrial Park, Perundurai - TNPCB",07-11-2025 07:00:00,11.258242,77.552761,PM2.5,23,180,63
India,TamilNadu,Perundurai,"SIPCOT Industrial Park, Perundurai - TNPCB",07-11-2025 07:00:00,11.258242,77.552761,OZONE,1,12,11
India,TamilNadu,Pudukottai,"SIPCOT Nathampannai, Pudukottai - TNPCB",07-11-2025 07:00:00,10.423417,78.784889,SO2,12,13,13
India,TamilNadu,Ramanathapuram,"Chalai Bazaar, Ramanathapuram - TNPCB",07-11-2025 07:00:00,9.36399,78.831977,NO2,14,14,14
India,TamilNadu,Ramanathapuram,"Chalai Bazaar, Ramanathapuram - TNPCB",07-11-2025 07:00:00,9.36399,78.831977,OZONE,3,5,4
India,Tripura,Agartala,"Bardowali, Agartala - Tripura SPCB",07-11-2025 07:00:00,23.8175497,91.2726974,OZONE,1,6,1
India,Uttar_Pradesh,Agra,"Manoharpur, Agra - UPPCB",07-11-2025 07:00:00,27.23711,78.01936,NO2,30,30,30
India,Uttar_Pradesh,Agra,"Manoharpur, Agra - UPPCB",07-11-2025 07:00:00,27.23711,78.01936,NH3,2,2,2
India,Uttar_Pradesh,Agra,"Rohta, Agra - UPPCB",07-11-2025 07:00:00,27.106972,78.000111,NO2,20,20,20
India,Uttar_Pradesh,Agra,"Sanjay Palace, Agra - UPPCB",07-11-2025 07:00:00,27.19865833,78.00598056,PM2.5,50,303,152
India,Uttar_Pradesh,Agra,"Sanjay Palace, Agra - UPPCB",07-11-2025 07:00:00,27.19865833,78.00598056,PM10,59,147,96
India,TamilNadu,Nagapattinam,"Velippalayam, Nagapattinam - TNPCB",07-11-2025 07:00:00,10.798548,79.838212,SO2,5,9,7
India,TamilNadu,Namakkal,"Ponnusamy Nagar, Namakkal - TNPCB",07-11-2025 07:00:00,11.273992,78.163545,PM10,13,48,25
India,TamilNadu,Ooty,"Bombay Castel, Ooty - TNPCB",07-11-2025 07:00:00,11.4068288,76.7138973,OZONE,4,19,5
India,TamilNadu,Palkalaiperur,"Bharathidasan University, Palkalaiperur - TNPCB",07-11-2025 07:00:00,10.681158,78.741746,PM2.5,6,39,25
India,Telangana,Hyderabad,"Sanathnagar, Hyderabad - TSPCB",07-11-2025 07:00:00,17.4559458,78.4332152,PM2.5,33,185,88
India,Telangana,Hyderabad,"Somajiguda, Hyderabad - TSPCB",07-11-2025 07:00:00,17.417094,78.457437,NO2,14,19,18
India,Telangana,Hyderabad,"Zoo Park, Hyderabad - TSPCB",07-11-2025 07:00:00,17.349694,78.451437,NH3,3,4,3
India,Telangana,Hyderabad,"Zoo Park, Hyderabad - TSPCB",07-11-2025 07:00:00,17.349694,78.451437,SO2,3,4,4
India,TamilNadu,Virudhunagar,"Collectorate Office, Virudhunagar - TNPCB",07-11-2025 07:00:00,9.559382,77.948828,PM2.5,34,70,51
India,Uttar_Pradesh,Lucknow,"Kukrail Picnic Spot-1, Lucknow - UPPCB",07-11-2025 07:00:00,26.90723,80.98579,PM2.5,40,94,67
India,Uttar_Pradesh,Lucknow,"Kukrail Picnic Spot-1, Lucknow - UPPCB",07-11-2025 07:00:00,26.90723,80.98579,NO2,29,33,32
India,Uttar_Pradesh,Lucknow,"Kukrail Picnic Spot-1, Lucknow - UPPCB",07-11-2025 07:00:00,26.90723,80.98579,SO2,39,43,41
India,Uttar_Pradesh,Lucknow,"Lalbagh, Lucknow - CPCB",07-11-2025 07:00:00,26.8458805,80.9365541,PM2.5,84,313,213
India,Uttar_Pradesh,Lucknow,"Lalbagh, Lucknow - CPCB",07-11-2025 07:00:00,26.8458805,80.9365541,NO2,51,66,59
India,Uttar_Pradesh,Lucknow,"Talkatora District Industries Center, Lucknow - CPCB",07-11-2025 07:00:00,26.83399722,80.8917361,CO,12,54,25
India,Uttar_Pradesh,Meerut,"Ganga Nagar, Meerut - UPPCB",07-11-2025 07:00:00,28.999264,77.7590354,CO,25,75,65
India,Uttar_Pradesh,Ghaziabad,"Loni, Ghaziabad - UPPCB",07-11-2025 07:00:00,28.757294,77.278792,NH3,3,9,6
India,Uttar_Pradesh,Ghaziabad,"Loni, Ghaziabad - UPPCB",07-11-2025 07:00:00,28.757294,77.278792,SO2,15,37,24
India,Uttar_Pradesh,Ghaziabad,"Loni, Ghaziabad - UPPCB",07-11-2025 07:00:00,28.757294,77.278792,CO,26,106,100
India,Uttar_Pradesh,Ghaziabad,"Loni, Ghaziabad - UPPCB",07-11-2025 07:00:00,28.757294,77.278792,OZONE,7,57,9
India,Uttar_Pradesh,Ghaziabad,"Sanjay Nagar, Ghaziabad - UPPCB",07-11-2025 07:00:00,28.685382,77.453839,PM10,113,280,189
India,Uttar_Pradesh,Ghaziabad,"Sanjay Nagar, Ghaziabad - UPPCB",07-11-2025 07:00:00,28.685382,77.453839,NO2,43,135,75
India,Uttar_Pradesh,Ghaziabad,"Sanjay Nagar, Ghaziabad - UPPCB",07-11-2025 07:00:00,28.685382,77.453839,SO2,14,28,19
India,Uttar_Pradesh,Ghaziabad,"Vasundhara, Ghaziabad - UPPCB",07-11-2025 07:00:00,28.6603346,77.3572563,OZONE,4,136,17
India,Uttar_Pradesh,Meerut,"Ganga Nagar, Meerut - UPPCB",07-11-2025 07:00:00,28.999264,77.7590354,OZONE,33,156,40
India,Uttar_Pradesh,Meerut,"Jai Bhim Nagar, Meerut - UPPCB",07-11-2025 07:00:00,28.9535882,77.7622941,PM10,128,301,206
India,Uttar_Pradesh,Meerut,"Jai Bhim Nagar, Meerut - UPPCB",07-11-2025 07:00:00,28.9535882,77.7622941,SO2,10,31,20
India,Uttar_Pradesh,Meerut,"Jai Bhim Nagar, Meerut - UPPCB",07-11-2025 07:00:00,28.9535882,77.7622941,CO,60,118,102
India,Uttar_Pradesh,Moradabad,"Buddhi Vihar, Moradabad - UPPCB",07-11-2025 07:00:00,28.83526,78.74460,NH3,5,5,5
India,Uttar_Pradesh,Moradabad,"Eco Herbal Park, Moradabad - UPPCB",07-11-2025 07:00:00,28.840739,78.697531,PM2.5,59,143,85
India,Uttar_Pradesh,Gorakhpur,"Madan Mohan Malaviya University of Technology, Gorakhpur - UPPCB",07-11-2025 07:00:00,26.730136,83.433859,CO,5,7,6
India,Uttar_Pradesh,Greater Noida,"Knowledge Park - III, Greater Noida - UPPCB",07-11-2025 07:00:00,28.47272,77.482000,PM2.5,92,432,260
India,Uttar_Pradesh,Greater Noida,"Knowledge Park - III, Greater Noida - UPPCB",07-11-2025 07:00:00,28.47272,77.482000,CO,38,120,83
India,Uttar_Pradesh,Hapur,"Anand Vihar, Hapur - UPPCB",07-11-2025 07:00:00,28.725645,77.749675,NO2,12,68,32
India,Uttar_Pradesh,Bareilly,"Civil Lines, Bareilly - UPPCB",07-11-2025 07:00:00,28.359581,79.414455,NO2,2,3,2
India,Uttar_Pradesh,Bareilly,"Civil Lines, Bareilly - UPPCB",07-11-2025 07:00:00,28.359581,79.414455,OZONE,14,24,17
India,Uttar_Pradesh,Bareilly,"Rajendra Nagar, Bareilly - UPPCB",07-11-2025 07:00:00,28.38910936,79.42963708,CO,22,36,29
India,Uttar_Pradesh,Firozabad,"Vibhab Nagar, Firozabad - UPPCB",07-11-2025 07:00:00,27.1594,78.3953,PM2.5,56,245,105
India,Uttar_Pradesh,Firozabad,"Vibhab Nagar, Firozabad - UPPCB",07-11-2025 07:00:00,27.1594,78.3953,NH3,2,2,2
India,Uttar_Pradesh,Noida,"Sector - 125, Noida - UPPCB",07-11-2025 07:00:00,28.5447608,77.3231257,OZONE,13,152,19
India,Uttar_Pradesh,Noida,"Sector - 62, Noida - IMD",07-11-2025 07:00:00,28.6245479,77.3577104,PM2.5,88,464,275
India,Uttar_Pradesh,Noida,"Sector - 62, Noida - IMD",07-11-2025 07:00:00,28.6245479,77.3577104,OZONE,22,149,59
India,Uttar_Pradesh,Noida,"Sector-1, Noida - UPPCB",07-11-2025 07:00:00,28.5898,77.3101,PM2.5,79,473,273
India,Uttar_Pradesh,Noida,"Sector-1, Noida - UPPCB",07-11-2025 07:00:00,28.5898,77.3101,OZONE,6,18,7
India,Uttar_Pradesh,Lucknow,"B R Ambedkar University, Lucknow - UPPCB",07-11-2025 07:00:00,26.766433,80.927299,PM2.5,35,224,94
India,Uttar_Pradesh,Lucknow,"B R Ambedkar University, Lucknow - UPPCB",07-11-2025 07:00:00,26.766433,80.927299,SO2,23,26,25
India,Uttar_Pradesh,Lucknow,"Kendriya Vidyalaya, Lucknow - CPCB",07-11-2025 07:00:00,26.906111,80.948222,PM2.5,26,253,174
India,Uttar_Pradesh,Lucknow,"Kendriya Vidyalaya, Lucknow - CPCB",07-11-2025 07:00:00,26.906111,80.948222,NO2,28,31,30
India,Uttar_Pradesh,Lucknow,"Kendriya Vidyalaya, Lucknow - CPCB",07-11-2025 07:00:00,26.906111,80.948222,NH3,12,18,15
India,Uttar_Pradesh,Jhansi,"Shivaji Nagar, Jhansi - UPPCB",07-11-2025 07:00:00,25.4547,78.6039,NH3,4,4,4
India,Uttar_Pradesh,Jhansi,"Shivaji Nagar, Jhansi - UPPCB",07-11-2025 07:00:00,25.4547,78.6039,SO2,10,15,12
India,Uttar_Pradesh,Kanpur,"NSI Kalyanpur, Kanpur - UPPCB",07-11-2025 07:00:00,26.509954,80.249612,OZONE,16,21,17
India,Uttar_Pradesh,Kanpur,"Nehru Nagar, Kanpur - UPPCB",07-11-2025 07:00:00,26.4703136,80.3229863,PM2.5,44,182,92
India,Uttar_Pradesh,Moradabad,"Employment Office, Moradabad - UPPCB",07-11-2025 07:00:00,28.88528,78.73880,OZONE,15,70,17
India,Uttar_Pradesh,Muzaffarnagar,"New Mandi, Muzaffarnagar - UPPCB",07-11-2025 07:00:00,29.4723508,77.7194031,PM2.5,71,339,200
India,Uttar_Pradesh,Prayagraj,"Jhunsi, Prayagraj - UPPCB",07-11-2025 07:00:00,25.425602,81.917152,SO2,8,17,10
India,Uttar_Pradesh,Prayagraj,"Motilal Nehru NIT, Prayagraj - UPPCB",07-11-2025 07:00:00,25.494,81.863,SO2,60,91,73
India,Uttar_Pradesh,Varanasi,"Bhelupur, Varanasi - UPPCB",07-11-2025 07:00:00,25.301778,82.996789,NO2,8,8,8
India,Uttar_Pradesh,Varanasi,"Maldahiya, Varanasi - UPPCB",07-11-2025 07:00:00,25.32393,82.99687,PM10,52,119,97
India,Uttar_Pradesh,Vrindavan,"Omex Eternity, Vrindavan - UPPCB",07-11-2025 07:00:00,27.5714090,77.6557570,PM2.5,20,171,74
India,Uttarakhand,Kashipur,"Govt. Girls Inter College, Kashipur - UKPCB",07-11-2025 07:00:00,29.2124114,78.9611753,SO2,4,9,7
India,Uttarakhand,Kashipur,"Govt. Girls Inter College, Kashipur - UKPCB",07-11-2025 07:00:00,29.2124114,78.9611753,OZONE,1,5,2
India,West_Bengal,Asansol,"Asansol Court Area, Asansol - WBPCB",07-11-2025 07:00:00,23.685297,86.945968,SO2,11,30,16
India,West_Bengal,Asansol,"Asansol Court Area, Asansol - WBPCB",07-11-2025 07:00:00,23.685297,86.945968,CO,34,95,43
India,West_Bengal,Asansol,"Evelyn Lodge, Asansol - WBPCB",07-11-2025 07:00:00,23.6979360,86.9443950,NH3,2,3,3
India,West_Bengal,Asansol,"Evelyn Lodge, Asansol - WBPCB",07-11-2025 07:00:00,23.6979360,86.9443950,SO2,NA,NA,NA
India,West_Bengal,Asansol,"Trivenidevi Bhalotia College, Asansol - WBPCB",07-11-2025 07:00:00,23.616515,87.119133,NH3,3,4,3
India,West_Bengal,Asansol,"Trivenidevi Bhalotia College, Asansol - WBPCB",07-11-2025 07:00:00,23.616515,87.119133,OZONE,11,72,21
India,West_Bengal,Durgapur,"Mahishkapur Road_B-Zone, Durgapur - WBPCB",07-11-2025 07:00:00,23.567923,87.306843,PM10,90,164,121
India,West_Bengal,Durgapur,"Mahishkapur Road_B-Zone, Durgapur - WBPCB",07-11-2025 07:00:00,23.567923,87.306843,NO2,8,48,20
India,West_Bengal,Durgapur,"PCBL Residential Complex, Durgapur - WBPCB",07-11-2025 07:00:00,23.5087640,87.3544400,PM10,59,131,93
India,West_Bengal,Durgapur,"Womens College_City Center, Durgapur - WBPCB (Formerly known as Sidhu Kanhu Indoor Stadium)",07-11-2025 07:00:00,23.549395,87.300496,PM2.5,65,186,104
India,West_Bengal,Howrah,"Belur Math, Howrah - WBPCB",07-11-2025 07:00:00,22.629801,88.352017,PM10,95,186,144
India,West_Bengal,Howrah,"Botanical Garden, Howrah - WBPCB",07-11-2025 07:00:00,22.554954,88.292568,PM2.5,43,89,64
India,West_Bengal,Howrah,"Dasnagar, Howrah - WBPCB",07-11-2025 07:00:00,22.6025571,88.3105664,NO2,10,36,24
India,West_Bengal,Howrah,"Padmapukur, Howrah - WBPCB",07-11-2025 07:00:00,22.5687319,88.2797276,PM2.5,144,302,204
India,West_Bengal,Howrah,"Padmapukur, Howrah - WBPCB",07-11-2025 07:00:00,22.5687319,88.2797276,NO2,15,52,29
India,West_Bengal,Kolkata,"Ballygunge, Kolkata - WBPCB",07-11-2025 07:00:00,22.5367507,88.3638022,NO2,27,68,48
India,West_Bengal,Kolkata,"Bidhannagar, Kolkata - WBPCB",07-11-2025 07:00:00,22.58157048,88.41002457,NH3,5,10,8
India,West_Bengal,Kolkata,"Bidhannagar, Kolkata - WBPCB",07-11-2025 07:00:00,22.58157048,88.41002457,CO,18,72,54
India,West_Bengal,Kolkata,"Jadavpur, Kolkata - WBPCB",07-11-2025 07:00:00,22.49929,88.36917,SO2,6,8,7
India,West_Bengal,Kolkata,"Rabindra Bharati University, Kolkata - WBPCB",07-11-2025 07:00:00,22.627847,88.380669,PM10,88,132,113
India,West_Bengal,Kolkata,"Rabindra Bharati University, Kolkata - WBPCB",07-11-2025 07:00:00,22.627847,88.380669,CO,30,60,42
India,West_Bengal,Kolkata,"Rabindra Sarobar, Kolkata - WBPCB",07-11-2025 07:00:00,22.51106,88.35142,NO2,38,162,99
India,West_Bengal,Kolkata,"Victoria, Kolkata - WBPCB",07-11-2025 07:00:00,22.5448082,88.3403691,CO,15,59,36
India,Andhra_Pradesh,Anantapur,"Gulzarpet, Anantapur - APPCB",07-11-2025 07:00:00,14.675886,77.593027,PM10,55,80,66
India,Andhra_Pradesh,Anantapur,"Gulzarpet, Anantapur - APPCB",07-11-2025 07:00:00,14.675886,77.593027,NO2,14,20,19
India,Andhra_Pradesh,Anantapur,"Gulzarpet, Anantapur - APPCB",07-11-2025 07:00:00,14.675886,77.593027,SO2,15,15,15
India,Andhra_Pradesh,Chittoor,"Gangineni Cheruvu, Chittoor - APPCB",07-11-2025 07:00:00,13.204880,79.097889,PM2.5,62,95,78
India,Andhra_Pradesh,Chittoor,"Gangineni Cheruvu, Chittoor - APPCB",07-11-2025 07:00:00,13.204880,79.097889,NO2,14,26,22
India,Andhra_Pradesh,Chittoor,"Gangineni Cheruvu, Chittoor - APPCB",07-11-2025 07:00:00,13.204880,79.097889,NH3,5,6,5
India,Andhra_Pradesh,Chittoor,"Gangineni Cheruvu, Chittoor - APPCB",07-11-2025 07:00:00,13.204880,79.097889,SO2,7,36,16
India,Andhra_Pradesh,Chittoor,"Gangineni Cheruvu, Chittoor - APPCB",07-11-2025 07:00:00,13.204880,79.097889,CO,26,52,37
India,Andhra_Pradesh,Kadapa,"Yerramukkapalli, Kadapa - APPCB",07-11-2025 07:00:00,14.465052,78.824187,PM2.5,51,61,58
India,Andhra_Pradesh,Kadapa,"Yerramukkapalli, Kadapa - APPCB",07-11-2025 07:00:00,14.465052,78.824187,PM10,52,62,58
India,Andhra_Pradesh,Kadapa,"Yerramukkapalli, Kadapa - APPCB",07-11-2025 07:00:00,14.465052,78.824187,NO2,18,23,19
India,Andhra_Pradesh,Kadapa,"Yerramukkapalli, Kadapa - APPCB",07-11-2025 07:00:00,14.465052,78.824187,NH3,3,6,4
India,Andhra_Pradesh,Kadapa,"Yerramukkapalli, Kadapa - APPCB",07-11-2025 07:00:00,14.465052,78.824187,CO,29,38,30
India,Andhra_Pradesh,Kadapa,"Yerramukkapalli, Kadapa - APPCB",07-11-2025 07:00:00,14.465052,78.824187,OZONE,15,17,16
India,Andhra_Pradesh,Rajamahendravaram,"Anand Kala Kshetram, Rajamahendravaram - APPCB",07-11-2025 07:00:00,16.9872867,81.7363176,SO2,3,20,7
India,Bihar,Begusarai,"Lohiyanagar, Begusarai - BSPCB",07-11-2025 07:00:00,25.42742023,86.13886079,PM10,22,107,81
India,Bihar,Begusarai,"Lohiyanagar, Begusarai - BSPCB",07-11-2025 07:00:00,25.42742023,86.13886079,NO2,13,27,20
India,Bihar,Begusarai,"Lohiyanagar, Begusarai - BSPCB",07-11-2025 07:00:00,25.42742023,86.13886079,SO2,36,48,41
India,Bihar,Bettiah,"Kamalnath Nagar, Bettiah - BSPCB",07-11-2025 07:00:00,26.80365,84.51954,PM10,32,163,89
India,Bihar,Bettiah,"Kamalnath Nagar, Bettiah - BSPCB",07-11-2025 07:00:00,26.80365,84.51954,NH3,1,2,1
India,Bihar,Bettiah,"Kamalnath Nagar, Bettiah - BSPCB",07-11-2025 07:00:00,26.80365,84.51954,CO,47,104,78
India,Bihar,Bettiah,"Kamalnath Nagar, Bettiah - BSPCB",07-11-2025 07:00:00,26.80365,84.51954,OZONE,22,24,23
India,Bihar,Bhagalpur,"Mayaganj, Bhagalpur - BSPCB",07-11-2025 07:00:00,25.265194,87.012947,PM2.5,53,95,67
India,Bihar,Bihar Sharif,"D M Colony, Bihar Sharif - BSPCB",07-11-2025 07:00:00,25.204762,85.514960,PM2.5,63,133,99
India,Andhra_Pradesh,Tirumala,"Toll Gate, Tirumala - APPCB",07-11-2025 07:00:00,13.67,79.35,SO2,6,11,8
India,Andhra_Pradesh,Tirumala,"Toll Gate, Tirumala - APPCB",07-11-2025 07:00:00,13.67,79.35,CO,20,45,27
India,Andhra_Pradesh,Vijayawada,"HB Colony, Vijayawada - APPCB",07-11-2025 07:00:00,16.536107,80.594233,PM2.5,31,138,53
India,Andhra_Pradesh,Vijayawada,"HB Colony, Vijayawada - APPCB",07-11-2025 07:00:00,16.536107,80.594233,CO,20,42,20
India,Andhra_Pradesh,Vijayawada,"Rajiv Nagar, Vijayawada - APPCB",07-11-2025 07:00:00,16.554731,80.649110,NO2,9,14,12
India,Andhra_Pradesh,Vijayawada,"Rajiv Nagar, Vijayawada - APPCB",07-11-2025 07:00:00,16.554731,80.649110,SO2,6,29,16
India,Andhra_Pradesh,Visakhapatnam,"GVM Corporation, Visakhapatnam - APPCB",07-11-2025 07:00:00,17.72,83.3,NH3,3,3,3
India,Andhra_Pradesh,Visakhapatnam,"GVM Corporation, Visakhapatnam - APPCB",07-11-2025 07:00:00,17.72,83.3,CO,6,56,23
India,Bihar,Gaya,"SFTI Kusdihra, Gaya - BSPCB",07-11-2025 07:00:00,24.762518,84.982348,PM2.5,13,46,26
India,Bihar,Hajipur,"Industrial Area, Hajipur - BSPCB",07-11-2025 07:00:00,25.697189,85.245900,PM2.5,43,161,97
India,Bihar,Hajipur,"Industrial Area, Hajipur - BSPCB",07-11-2025 07:00:00,25.697189,85.245900,PM10,32,97,68
India,Bihar,Hajipur,"Industrial Area, Hajipur - BSPCB",07-11-2025 07:00:00,25.697189,85.245900,NO2,11,22,15
India,Bihar,Katihar,"Mirchaibari, Katihar - BSPCB",07-11-2025 07:00:00,25.560083,87.553265,PM2.5,50,107,75
India,Bihar,Katihar,"Mirchaibari, Katihar - BSPCB",07-11-2025 07:00:00,25.560083,87.553265,PM10,46,97,70
India,Bihar,Katihar,"Mirchaibari, Katihar - BSPCB",07-11-2025 07:00:00,25.560083,87.553265,CO,66,82,74
India,Bihar,Kishanganj,"SDM Office_Khagra, Kishanganj - BSPCB",07-11-2025 07:00:00,26.0881305,87.93840336,NO2,NA,NA,NA
India,Bihar,Kishanganj,"SDM Office_Khagra, Kishanganj - BSPCB",07-11-2025 07:00:00,26.0881305,87.93840336,NH3,NA,NA,NA
India,Bihar,Manguraha,"Forest Rest House, Manguraha - BSPCB",07-11-2025 07:00:00,27.308328,84.531742,NO2,3,8,5
India,Bihar,Manguraha,"Forest Rest House, Manguraha - BSPCB",07-11-2025 07:00:00,27.308328,84.531742,OZONE,9,17,10
India,Bihar,Munger,"Town Hall, Munger - BSPCB",07-11-2025 07:00:00,25.376776,86.471523,NO2,4,6,5
India,Bihar,Munger,"Town Hall, Munger - BSPCB",07-11-2025 07:00:00,25.376776,86.471523,OZONE,11,23,14
India,Assam,Sivasagar,"Girls College, Sivasagar - PCBA",07-11-2025 07:00:00,26.987634,94.636574,PM10,36,62,48
India,Assam,Sivasagar,"Girls College, Sivasagar - PCBA",07-11-2025 07:00:00,26.987634,94.636574,NH3,5,9,7
India,Bihar,Araria,"Kharahiya Basti, Araria - BSPCB",07-11-2025 07:00:00,26.146529,87.454184,CO,16,32,30
India,Bihar,Aurangabad,"Gurdeo Nagar, Aurangabad - BSPCB",07-11-2025 07:00:00,24.75746,84.366208,PM10,42,98,70
India,Bihar,Aurangabad,"Gurdeo Nagar, Aurangabad - BSPCB",07-11-2025 07:00:00,24.75746,84.366208,OZONE,4,30,8
India,Assam,Guwahati,"Railway Colony, Guwahati - PCBA",07-11-2025 07:00:00,26.181742,91.78063,SO2,30,32,31
India,Assam,Nalbari,"Bata Chowk, Nalbari - PCBA",07-11-2025 07:00:00,26.446912,91.439057,PM2.5,34,38,36
India,Assam,Nalbari,"Bata Chowk, Nalbari - PCBA",07-11-2025 07:00:00,26.446912,91.439057,PM10,36,40,37
India,Assam,Silchar,"Tarapur, Silchar - PCBA",07-11-2025 07:00:00,24.82827,92.79525,NH3,1,1,1
India,Bihar,Bihar Sharif,"D M Colony, Bihar Sharif - BSPCB",07-11-2025 07:00:00,25.204762,85.514960,PM10,55,98,80
India,Bihar,Bihar Sharif,"D M Colony, Bihar Sharif - BSPCB",07-11-2025 07:00:00,25.204762,85.514960,NO2,9,10,10
India,Bihar,Bihar Sharif,"D M Colony, Bihar Sharif - BSPCB",07-11-2025 07:00:00,25.204762,85.514960,NH3,3,5,4
India,Bihar,Chhapra,"Darshan Nagar, Chhapra - BSPCB",07-11-2025 07:00:00,25.7808257,84.7446768,OZONE,13,28,19
India,Assam,Guwahati,"IITG, Guwahati - PCBA",07-11-2025 07:00:00,26.2028636,91.70046436,NO2,1,5,2
India,Assam,Guwahati,"IITG, Guwahati - PCBA",07-11-2025 07:00:00,26.2028636,91.70046436,NH3,5,5,5
India,Assam,Guwahati,"IITG, Guwahati - PCBA",07-11-2025 07:00:00,26.2028636,91.70046436,SO2,23,27,25
India,Assam,Guwahati,"LGBI Airport, Guwahati - PCBA",07-11-2025 07:00:00,26.10887,91.589544,NO2,13,65,17
India,Andhra_Pradesh,Amaravati,"Secretariat, Amaravati - APPCB",07-11-2025 07:00:00,16.5150833,80.5181667,PM2.5,44,93,65
India,Andhra_Pradesh,Amaravati,"Secretariat, Amaravati - APPCB",07-11-2025 07:00:00,16.5150833,80.5181667,NH3,1,4,3
India,Bihar,Purnia,"Mariam Nagar, Purnia - BSPCB",07-11-2025 07:00:00,25.366336,87.117468,PM10,57,110,79
India,Bihar,Purnia,"Mariam Nagar, Purnia - BSPCB",07-11-2025 07:00:00,25.366336,87.117468,NH3,3,3,3
India,Bihar,Rajgir,"Dangi Tola, Rajgir - BSPCB",07-11-2025 07:00:00,25.03280,85.41948,PM2.5,53,130,87
India,Bihar,Rajgir,"Dangi Tola, Rajgir - BSPCB",07-11-2025 07:00:00,25.03280,85.41948,NH3,6,7,6
India,Bihar,Rajgir,"Dangi Tola, Rajgir - BSPCB",07-11-2025 07:00:00,25.03280,85.41948,CO,80,100,93
India,Bihar,Saharsa,"Police Line, Saharsa - BSPCB",07-11-2025 07:00:00,25.892357,86.590325,NO2,6,8,7
India,Bihar,Saharsa,"Police Line, Saharsa - BSPCB",07-11-2025 07:00:00,25.892357,86.590325,NH3,4,4,4
India,Bihar,Saharsa,"Police Line, Saharsa - BSPCB",07-11-2025 07:00:00,25.892357,86.590325,OZONE,11,33,14
India,Chandigarh,Chandigarh,"Sector-25, Chandigarh - CPCC",07-11-2025 07:00:00,30.751462,76.762879,PM10,76,147,104
India,Chandigarh,Chandigarh,"Sector-53, Chandigarh - CPCC",07-11-2025 07:00:00,30.719859,76.738637,PM2.5,85,250,132
India,Chandigarh,Chandigarh,"Sector-53, Chandigarh - CPCC",07-11-2025 07:00:00,30.719859,76.738637,CO,49,81,54
India,Chandigarh,Chandigarh,"Sector-53, Chandigarh - CPCC",07-11-2025 07:00:00,30.719859,76.738637,OZONE,6,206,44
India,Chhattisgarh,Bhilai,"32Bungalows, Bhilai - CECB",07-11-2025 07:00:00,21.194815,81.314770,PM10,20,57,33
India,Chhattisgarh,Bhilai,"Hathkhoj, Bhilai - CECB",07-11-2025 07:00:00,21.224231,81.408350,NH3,3,5,4
India,Chhattisgarh,Milupara,"Govt. Higher Secondary School, Milupara - CECB",07-11-2025 07:00:00,22.1910172,83.5197009,NH3,1,2,2
India,Chhattisgarh,Milupara,"Govt. Higher Secondary School, Milupara - CECB",07-11-2025 07:00:00,22.1910172,83.5197009,CO,18,62,20
India,Chhattisgarh,Raipur,"AIIMS, Raipur - CECB",07-11-2025 07:00:00,21.258815,81.578979,OZONE,5,19,6
India,Chhattisgarh,Raipur,"Bhatagaon New ISBT, Raipur - CECB",07-11-2025 07:00:00,21.219665,81.630094,PM10,46,114,83
India,Chhattisgarh,Raipur,"Bhatagaon New ISBT, Raipur - CECB",07-11-2025 07:00:00,21.219665,81.630094,SO2,6,11,7
India,Bihar,Muzaffarpur,"Buddha Colony, Muzaffarpur - BSPCB",07-11-2025 07:00:00,26.11442,85.39813,SO2,2,5,4
India,Bihar,Muzaffarpur,"MIT-Daudpur Kothi, Muzaffarpur - BSPCB",07-11-2025 07:00:00,26.1403345,85.3650192,NO2,6,9,7
India,Bihar,Muzaffarpur,"MIT-Daudpur Kothi, Muzaffarpur - BSPCB",07-11-2025 07:00:00,26.1403345,85.3650192,CO,52,70,54
India,Bihar,Patna,"Govt. High School Shikarpur, Patna - BSPCB",07-11-2025 07:00:00,25.592539,85.227158,PM2.5,55,70,61
India,Chhattisgarh,Raipur,"Siltara Phase-II, Raipur - CECB",07-11-2025 07:00:00,21.371751,81.664929,PM10,NA,NA,NA
India,Chhattisgarh,Raipur,"Siltara Phase-II, Raipur - CECB",07-11-2025 07:00:00,21.371751,81.664929,NH3,3,3,3
India,Chhattisgarh,Tumidih,"OP Jindal Industrial Park, Tumidih - CECB",07-11-2025 07:00:00,22.06631475,83.33820077,SO2,5,8,6
India,Delhi,Delhi,"Alipur, Delhi - DPCC",07-11-2025 07:00:00,28.815329,77.153010,NH3,4,4,4
India,Bihar,Patna,"Govt. High School Shikarpur, Patna - BSPCB",07-11-2025 07:00:00,25.592539,85.227158,NO2,8,33,11
India,Bihar,Patna,"Muradpur, Patna - BSPCB",07-11-2025 07:00:00,25.619651,85.147382,OZONE,4,39,5
India,Bihar,Patna,"Rajbansi Nagar, Patna - BSPCB",07-11-2025 07:00:00,25.599486,85.113666,NH3,6,8,7
India,Bihar,Patna,"Rajbansi Nagar, Patna - BSPCB",07-11-2025 07:00:00,25.599486,85.113666,SO2,5,8,7
India,Bihar,Patna,"Rajbansi Nagar, Patna - BSPCB",07-11-2025 07:00:00,25.599486,85.113666,CO,24,43,31
India,Chhattisgarh,Korba,"Rampur, Korba - CECB",07-11-2025 07:00:00,22.368195,82.746431,PM10,45,69,53
India,Chhattisgarh,Korba,"Rampur, Korba - CECB",07-11-2025 07:00:00,22.368195,82.746431,NO2,4,19,11
India,Chhattisgarh,Korba,"Rampur, Korba - CECB",07-11-2025 07:00:00,22.368195,82.746431,NH3,2,2,2
India,Chhattisgarh,Korba,"Rampur, Korba - CECB",07-11-2025 07:00:00,22.368195,82.746431,OZONE,2,4,2
India,Chhattisgarh,Korba,"Urja Nagar, Korba - CECB",07-11-2025 07:00:00,22.348441,82.549611,PM2.5,64,68,64
India,Chhattisgarh,Korba,"Urja Nagar, Korba - CECB",07-11-2025 07:00:00,22.348441,82.549611,NH3,1,2,2
India,Delhi,Delhi,"Anand Vihar, Delhi - DPCC",07-11-2025 07:00:00,28.647622,77.3158090,PM2.5,120,500,329
India,Delhi,Delhi,"Ashok Vihar, Delhi - DPCC",07-11-2025 07:00:00,28.695381,77.181665,PM2.5,92,500,322
India,Delhi,Delhi,"Aya Nagar, Delhi - IMD",07-11-2025 07:00:00,28.4706914,77.1099364,PM2.5,93,470,261
India,Delhi,Delhi,"Bawana, Delhi - DPCC",07-11-2025 07:00:00,28.776200,77.051074,PM2.5,153,500,366
India,Bihar,Samastipur,"DM Office_Kasipur, Samastipur - BSPCB",07-11-2025 07:00:00,25.859655,85.77944,NO2,NA,NA,NA
India,Bihar,Samastipur,"DM Office_Kasipur, Samastipur - BSPCB",07-11-2025 07:00:00,25.859655,85.77944,SO2,NA,NA,NA
India,Chandigarh,Chandigarh,"Sector 22, Chandigarh - CPCC",07-11-2025 07:00:00,30.735567,76.775714,OZONE,7,68,25
India,Delhi,Delhi,"Jahangirpuri, Delhi - DPCC",07-11-2025 07:00:00,28.732820,77.170633,PM10,248,476,336
India,Delhi,Delhi,"Jahangirpuri, Delhi - DPCC",07-11-2025 07:00:00,28.732820,77.170633,SO2,2,53,21
India,Delhi,Delhi,"Jahangirpuri, Delhi - DPCC",07-11-2025 07:00:00,28.732820,77.170633,OZONE,8,156,11
India,Delhi,Delhi,"Jawaharlal Nehru Stadium, Delhi - DPCC",07-11-2025 07:00:00,28.580280,77.233829,NH3,6,12,9
India,Delhi,Delhi,"Jawaharlal Nehru Stadium, Delhi - DPCC",07-11-2025 07:00:00,28.580280,77.233829,CO,31,103,85
India,Delhi,Delhi,"Lodhi Road, Delhi - IMD",07-11-2025 07:00:00,28.5918245,77.2273074,PM10,131,439,254
India,Delhi,Delhi,"Major Dhyan Chand National Stadium, Delhi - DPCC",07-11-2025 07:00:00,28.611281,77.237738,PM2.5,90,500,297
India,Delhi,Delhi,"Major Dhyan Chand National Stadium, Delhi - DPCC",07-11-2025 07:00:00,28.611281,77.237738,PM10,133,437,271
India,Delhi,Delhi,"Najafgarh, Delhi - DPCC",07-11-2025 07:00:00,28.570173,76.933762,OZONE,6,83,7
India,Delhi,Delhi,"Narela, Delhi - DPCC",07-11-2025 07:00:00,28.822836,77.101981,SO2,11,33,22
India,Delhi,Delhi,"Nehru Nagar, Delhi - DPCC",07-11-2025 07:00:00,28.567890,77.250515,CO,46,104,86
India,Delhi,Delhi,"North Campus, DU, Delhi - IMD",07-11-2025 07:00:00,28.6573814,77.1585447,CO,32,112,106
India,Delhi,Delhi,"North Campus, DU, Delhi - IMD",07-11-2025 07:00:00,28.6573814,77.1585447,OZONE,36,316,70
India,Delhi,Delhi,"Okhla Phase-2, Delhi - DPCC",07-11-2025 07:00:00,28.530785,77.271255,NH3,7,13,10
India,Delhi,Delhi,"Burari Crossing, Delhi - IMD",07-11-2025 07:00:00,28.7256504,77.2011573,CO,8,74,63
India,Delhi,Delhi,"Burari Crossing, Delhi - IMD",07-11-2025 07:00:00,28.7256504,77.2011573,OZONE,25,115,33
India,Delhi,Delhi,"CRRI Mathura Road, Delhi - IMD",07-11-2025 07:00:00,28.5512005,77.2735737,PM2.5,128,500,334
India,Delhi,Delhi,"Chandni Chowk, Delhi - IITM",07-11-2025 07:00:00,28.656756,77.227234,CO,36,94,83
India,Delhi,Delhi,"DTU, Delhi - CPCB",07-11-2025 07:00:00,28.7500499,77.1112615,NO2,35,59,50
India,Delhi,Delhi,"DTU, Delhi - CPCB",07-11-2025 07:00:00,28.7500499,77.1112615,CO,20,72,53
India,Delhi,Delhi,"Dr. Karni Singh Shooting Range, Delhi - DPCC",07-11-2025 07:00:00,28.498571,77.264840,CO,14,68,49
India,Delhi,Delhi,"Dwarka-Sector 8, Delhi - DPCC ",07-11-2025 07:00:00,28.5710274,77.0719006,NO2,23,139,70
India,Delhi,Delhi,"Dwarka-Sector 8, Delhi - DPCC ",07-11-2025 07:00:00,28.5710274,77.0719006,NH3,7,22,14
India,Delhi,Delhi,"Dwarka-Sector 8, Delhi - DPCC ",07-11-2025 07:00:00,28.5710274,77.0719006,OZONE,3,131,23
India,Delhi,Delhi,"IHBAS, Dilshad Garden, Delhi - CPCB",07-11-2025 07:00:00,28.6811736,77.3025234,SO2,24,36,29
India,Delhi,Delhi,"Sirifort, Delhi - CPCB",07-11-2025 07:00:00,28.5504249,77.2159377,PM2.5,107,500,332
India,Delhi,Delhi,"Sirifort, Delhi - CPCB",07-11-2025 07:00:00,28.5504249,77.2159377,CO,18,100,70
India,Delhi,Delhi,"Sonia Vihar, Delhi - DPCC",07-11-2025 07:00:00,28.710508,77.249485,PM10,114,463,280
India,Delhi,Delhi,"Sonia Vihar, Delhi - DPCC",07-11-2025 07:00:00,28.710508,77.249485,NO2,20,96,50
India,Delhi,Delhi,"Sri Aurobindo Marg, Delhi - DPCC",07-11-2025 07:00:00,28.531346,77.190156,SO2,5,10,7
India,Delhi,Delhi,"Rohini, Delhi - DPCC",07-11-2025 07:00:00,28.732528,77.119920,PM2.5,93,500,336
India,Delhi,Delhi,"Shadipur, Delhi - CPCB",07-11-2025 07:00:00,28.6514781,77.1473105,PM10,145,400,267
India,Delhi,Delhi,"Shadipur, Delhi - CPCB",07-11-2025 07:00:00,28.6514781,77.1473105,NO2,42,136,65
India,Delhi,Delhi,"Shadipur, Delhi - CPCB",07-11-2025 07:00:00,28.6514781,77.1473105,NH3,8,12,10
India,Delhi,Delhi,"Major Dhyan Chand National Stadium, Delhi - DPCC",07-11-2025 07:00:00,28.611281,77.237738,CO,33,96,79
India,Delhi,Delhi,"Mundka, Delhi - DPCC",07-11-2025 07:00:00,28.684678,77.076574,NO2,68,159,99
India,Delhi,Delhi,"Najafgarh, Delhi - DPCC",07-11-2025 07:00:00,28.570173,76.933762,PM2.5,80,500,265
India,Delhi,Delhi,"Wazirpur, Delhi - DPCC",07-11-2025 07:00:00,28.699793,77.165453,SO2,9,23,15
India,Gujarat,Ahmedabad,"Maninagar, Ahmedabad - GPCB",07-11-2025 07:00:00,23.002657,72.591912,NO2,22,38,31
India,Delhi,Delhi,"Pusa, Delhi - DPCC",07-11-2025 07:00:00,28.639652,77.146275,PM2.5,110,500,334
India,Haryana,Narnaul,"Shastri Nagar, Narnaul - HSPCB",07-11-2025 07:00:00,28.060249,76.113115,OZONE,17,85,18
India,Haryana,Palwal,"Shyam Nagar, Palwal - HSPCB",07-11-2025 07:00:00,28.1485564,77.3320667,NO2,23,24,24
India,Haryana,Panchgaon,"Amity University, Panchgaon - IITM",07-11-2025 07:00:00,28.3153,76.9143,PM2.5,43,137,73
India,Haryana,Panchgaon,"Amity University, Panchgaon - IITM",07-11-2025 07:00:00,28.3153,76.9143,PM10,57,134,86
India,Haryana,Panchgaon,"Amity University, Panchgaon - IITM",07-11-2025 07:00:00,28.3153,76.9143,NH3,6,16,10
India,Haryana,Panchgaon,"Amity University, Panchgaon - IITM",07-11-2025 07:00:00,28.3153,76.9143,CO,42,102,75
India,Haryana,Panchkula,"Sector-6, Panchkula - HSPCB ",07-11-2025 07:00:00,30.7057778,76.8531805555555,SO2,8,9,9
India,Haryana,Panchkula,"Sector-6, Panchkula - HSPCB ",07-11-2025 07:00:00,30.7057778,76.8531805555555,OZONE,17,30,21
India,Haryana,Panipat,"Sector-18, Panipat - HSPCB",07-11-2025 07:00:00,29.432304,76.972765,PM10,33,500,300
India,Haryana,Panipat,"Sector-18, Panipat - HSPCB",07-11-2025 07:00:00,29.432304,76.972765,NH3,2,3,2
India,Haryana,Panipat,"Sector-18, Panipat - HSPCB",07-11-2025 07:00:00,29.432304,76.972765,SO2,18,19,19
India,Haryana,Rohtak,"MD University, Rohtak - HSPCB",07-11-2025 07:00:00,28.52123,76.37138,PM2.5,NA,NA,NA
India,Haryana,Gurugram,"Sector-51, Gurugram - HSPCB",07-11-2025 07:00:00,28.4227,77.0667,OZONE,4,26,8
India,Haryana,Gurugram,"Vikas Sadan, Gurugram - HSPCB",07-11-2025 07:00:00,28.4501238,77.0263051,PM2.5,48,329,183
India,Haryana,Gurugram,"Vikas Sadan, Gurugram - HSPCB",07-11-2025 07:00:00,28.4501238,77.0263051,NO2,9,45,26
India,Haryana,Hisar,"Urban Estate-II, Hisar - HSPCB",07-11-2025 07:00:00,29.140560,75.744941,PM2.5,34,145,73
India,Haryana,Hisar,"Urban Estate-II, Hisar - HSPCB",07-11-2025 07:00:00,29.140560,75.744941,PM10,81,209,142
India,Haryana,Hisar,"Urban Estate-II, Hisar - HSPCB",07-11-2025 07:00:00,29.140560,75.744941,NO2,11,12,11
India,Haryana,Kaithal,"Rishi Nagar, Kaithal - HSPCB",07-11-2025 07:00:00,29.8006,76.4155,NH3,5,6,6
India,Haryana,Kaithal,"Rishi Nagar, Kaithal - HSPCB",07-11-2025 07:00:00,29.8006,76.4155,OZONE,8,51,50
India,Haryana,Karnal,"Sector-12, Karnal - HSPCB",07-11-2025 07:00:00,29.695300,77.002700,PM10,64,380,209
India,Haryana,Karnal,"Sector-12, Karnal - HSPCB",07-11-2025 07:00:00,29.695300,77.002700,CO,36,64,54
India,Haryana,Kurukshetra,"Sector-7, Kurukshetra - HSPCB",07-11-2025 07:00:00,29.966942,76.875879,PM2.5,73,353,200
India,Haryana,Kurukshetra,"Sector-7, Kurukshetra - HSPCB",07-11-2025 07:00:00,29.966942,76.875879,NO2,16,22,19
India,Haryana,Kurukshetra,"Sector-7, Kurukshetra - HSPCB",07-11-2025 07:00:00,29.966942,76.875879,CO,14,81,48
India,Haryana,Mandikhera,"General Hospital, Mandikhera - HSPCB",07-11-2025 07:00:00,27.9002,76.9938,PM2.5,11,63,32
India,Haryana,Mandikhera,"General Hospital, Mandikhera - HSPCB",07-11-2025 07:00:00,27.9002,76.9938,NO2,20,23,22
India,Haryana,Mandikhera,"General Hospital, Mandikhera - HSPCB",07-11-2025 07:00:00,27.9002,76.9938,NH3,13,14,13
India,Haryana,Narnaul,"Shastri Nagar, Narnaul - HSPCB",07-11-2025 07:00:00,28.060249,76.113115,PM10,153,243,197
India,Haryana,Narnaul,"Shastri Nagar, Narnaul - HSPCB",07-11-2025 07:00:00,28.060249,76.113115,NO2,15,47,28
India,Haryana,Bhiwani,"H.B. Colony, Bhiwani - HSPCB",07-11-2025 07:00:00,28.806223,76.141105,CO,8,14,12
India,Haryana,Bhiwani,"H.B. Colony, Bhiwani - HSPCB",07-11-2025 07:00:00,28.806223,76.141105,OZONE,10,20,15
India,Haryana,Charkhi Dadri,"Mini Secretariat, Charkhi Dadri - HSPCB",07-11-2025 07:00:00,28.593883,76.270653,CO,8,25,14
India,Haryana,Dharuhera,"Municipal Corporation Office, Dharuhera -  HSPCB",07-11-2025 07:00:00,28.206800,76.799700,NO2,14,51,37
India,Haryana,Dharuhera,"Municipal Corporation Office, Dharuhera -  HSPCB",07-11-2025 07:00:00,28.206800,76.799700,SO2,1,5,2
India,Haryana,Faridabad,"New Industrial Town, Faridabad - HSPCB",07-11-2025 07:00:00,28.39072,77.30059,OZONE,26,33,30
India,Haryana,Faridabad,"Sector 11, Faridabad - HSPCB",07-11-2025 07:00:00,28.376058,77.315741,NO2,9,66,27
India,Gujarat,Ahmedabad,"SVPI Airport Hansol, Ahmedabad - IITM",07-11-2025 07:00:00,23.076793,72.627874,NO2,18,42,29
India,Gujarat,Ankleshwar,"GIDC, Ankleshwar - GPCB",07-11-2025 07:00:00,21.613267,73.010555,NH3,3,4,3
India,Gujarat,Gandhinagar,"GIFT City, Gandhinagar - IITM",07-11-2025 07:00:00,23.163798,72.677768,NH3,2,17,7
India,Gujarat,Gandhinagar,"GIFT City, Gandhinagar - IITM",07-11-2025 07:00:00,23.163798,72.677768,OZONE,1,46,8
India,Gujarat,Gandhinagar,"IIPHG Lekawada, Gandhinagar - IITM",07-11-2025 07:00:00,23.243639,72.68994,NH3,1,2,1
India,Gujarat,Gandhinagar,"IIPHG Lekawada, Gandhinagar - IITM",07-11-2025 07:00:00,23.243639,72.68994,SO2,2,7,4
India,Gujarat,Gandhinagar,"Sector-10, Gandhinagar - GPCB",07-11-2025 07:00:00,23.221714,72.654328,SO2,2,8,6
India,Gujarat,Surat,"Science Center, Surat - SMC",07-11-2025 07:00:00,21.170046,72.795405,PM10,NA,NA,NA
India,Gujarat,Surat,"Science Center, Surat - SMC",07-11-2025 07:00:00,21.170046,72.795405,NO2,4,30,14
India,Gujarat,Vapi,"Phase-1 GIDC, Vapi - GPCB",07-11-2025 07:00:00,20.362421,72.918013,PM2.5,66,330,207
India,Gujarat,Vapi,"Phase-1 GIDC, Vapi - GPCB",07-11-2025 07:00:00,20.362421,72.918013,NH3,5,5,5
India,Gujarat,Vatva,"Phase-4 GIDC, Vatva - GPCB",07-11-2025 07:00:00,22.969611,72.643500,NO2,19,20,19
India,Haryana,Ambala,"Patti Mehar, Ambala - HSPCB",07-11-2025 07:00:00,30.379589,76.778328,PM10,81,188,140
India,Haryana,Bahadurgarh,"Arya Nagar, Bahadurgarh - HSPCB",07-11-2025 07:00:00,28.6701,76.9254,PM2.5,NA,NA,NA
India,Haryana,Bahadurgarh,"Arya Nagar, Bahadurgarh - HSPCB",07-11-2025 07:00:00,28.6701,76.9254,CO,44,50,48
India,Haryana,Ballabgarh,"Nathu Colony, Ballabgarh - HSPCB",07-11-2025 07:00:00,28.3419248,77.319699,NH3,3,3,3
India,Haryana,Bhiwani,"H.B. Colony, Bhiwani - HSPCB",07-11-2025 07:00:00,28.806223,76.141105,PM2.5,193,293,233
India,Gujarat,Ahmedabad,"Raikhad, Ahmedabad - IITM",07-11-2025 07:00:00,23.020509,72.579261,NO2,20,131,72
India,Gujarat,Ahmedabad,"SAC ISRO Bopal, Ahmedabad - IITM",07-11-2025 07:00:00,23.041137,72.456691,PM2.5,12,74,35
India,Gujarat,Ahmedabad,"SAC ISRO Bopal, Ahmedabad - IITM",07-11-2025 07:00:00,23.041137,72.456691,PM10,13,101,43
India,Gujarat,Ahmedabad,"SAC ISRO Bopal, Ahmedabad - IITM",07-11-2025 07:00:00,23.041137,72.456691,NO2,18,24,21
India,Gujarat,Ahmedabad,"SAC ISRO Satellite, Ahmedabad - IITM",07-11-2025 07:00:00,23.023389,72.515201,OZONE,2,52,5
India,Haryana,Faridabad,"Sector 30, Faridabad - HSPCB",07-11-2025 07:00:00,28.4417,77.3217,PM10,165,251,202
India,Haryana,Faridabad,"Sector 30, Faridabad - HSPCB",07-11-2025 07:00:00,28.4417,77.3217,NO2,36,39,37
India,Haryana,Gurugram,"Sector-51, Gurugram - HSPCB",07-11-2025 07:00:00,28.4227,77.0667,NH3,7,11,9
India,Jammu_and_Kashmir,Srinagar,"Rajbagh, Srinagar - JKSPCB",07-11-2025 07:00:00,34.066206,74.819820,CO,12,20,14
India,Jharkhand,Dhanbad,"Sardar Patel Nagar, Dhanbad - JSPCB",07-11-2025 07:00:00,23.80569,86.44268,PM2.5,6,163,80
India,Jharkhand,Dhanbad,"Sardar Patel Nagar, Dhanbad - JSPCB",07-11-2025 07:00:00,23.80569,86.44268,PM10,19,124,90
India,Jharkhand,Jorapokhar,"Tata Stadium, Jorapokhar - JSPCB",07-11-2025 07:00:00,23.707909,86.414670,SO2,NA,NA,NA
India,Karnataka,Belgaum,"Ramteerth Nagar, Belgaum - KSPCB",07-11-2025 07:00:00,15.888653,74.541751,SO2,21,82,28
India,Karnataka,Bengaluru,"BTM Layout, Bengaluru - CPCB",07-11-2025 07:00:00,12.9135218,77.5950804,NO2,NA,NA,NA
India,Karnataka,Bengaluru,"BWSSB Kadabesanahalli, Bengaluru - CPCB",07-11-2025 07:00:00,12.9352049,77.6814488,NO2,23,25,25
India,Karnataka,Bengaluru,"Jayanagar 5th Block, Bengaluru - KSPCB",07-11-2025 07:00:00,12.920984,77.584908,NH3,1,2,1
India,Karnataka,Bengaluru,"Jigani, Bengaluru - KSPCB",07-11-2025 07:00:00,12.7816279,77.6299145,NO2,20,21,20
India,Karnataka,Bengaluru,"Jigani, Bengaluru - KSPCB",07-11-2025 07:00:00,12.7816279,77.6299145,SO2,18,18,18
India,Karnataka,Bengaluru,"Kasturi Nagar, Bengaluru - KSPCB",07-11-2025 07:00:00,13.003872,77.664217,PM2.5,44,52,50
India,Karnataka,Bengaluru,"Kasturi Nagar, Bengaluru - KSPCB",07-11-2025 07:00:00,13.003872,77.664217,NO2,29,30,29
India,Karnataka,Bengaluru,"Kasturi Nagar, Bengaluru - KSPCB",07-11-2025 07:00:00,13.003872,77.664217,SO2,10,12,11
India,Karnataka,Bengaluru,"Peenya, Bengaluru - CPCB",07-11-2025 07:00:00,13.0270199,77.494094,CO,23,62,30
India,Karnataka,Bengaluru,"RVCE-Mailasandra, Bengaluru - KSPCB",07-11-2025 07:00:00,12.921418,77.502466,SO2,6,6,6
India,Karnataka,Bengaluru,"BWSSB Kadabesanahalli, Bengaluru - CPCB",07-11-2025 07:00:00,12.9352049,77.6814488,CO,15,120,23
India,Karnataka,Bengaluru,"Bapuji Nagar, Bengaluru - KSPCB",07-11-2025 07:00:00,12.951913,77.539784,NO2,6,16,9
India,Karnataka,Bengaluru,"Hebbal, Bengaluru - KSPCB",07-11-2025 07:00:00,13.029152,77.585901,NH3,NA,NA,NA
India,Karnataka,Bengaluru,"Hebbal, Bengaluru - KSPCB",07-11-2025 07:00:00,13.029152,77.585901,OZONE,7,34,8
India,Karnataka,Bengaluru,"Hombegowda Nagar, Bengaluru - KSPCB",07-11-2025 07:00:00,12.938539,77.590100,NO2,13,57,25
India,Karnataka,Bengaluru,"Jayanagar 5th Block, Bengaluru - KSPCB",07-11-2025 07:00:00,12.920984,77.584908,PM2.5,30,73,48
India,Haryana,Rohtak,"MD University, Rohtak - HSPCB",07-11-2025 07:00:00,28.52123,76.37138,OZONE,NA,NA,NA
India,Haryana,Yamuna Nagar,"Gobind Pura, Yamuna Nagar - HSPCB",07-11-2025 07:00:00,30.1480566,77.2893471,NO2,11,12,11
