country,state,city,station,last_update,latitude,longitude,pollutant_id,min_value,max_value,avg_value
India,Bihar,Arrah,"New DM Office, Arrah - BSPCB",26-10-2025 21:00:00,25.5626095,84.663264,NH3,1,1,1
India,Karnataka,Chamarajanagar,"Urban, Chamarajanagar - KSPCB",26-10-2025 21:00:00,11.55358,76.55521,SO2,4,5,5
India,Bihar,Aurangabad,"Gurdeo Nagar, Aurangabad - BSPCB",26-10-2025 21:00:00,24.75746,84.366208,NO2,7,8,8
India,Karnataka,Chikkamagaluru,"Kalyana Nagara, Chikkamagaluru - KSPCB",26-10-2025 21:00:00,13.328028,75.797056,NO2,18,18,19
India,Bihar,Aurangabad,"Gurdeo Nagar, Aurangabad - BSPCB",26-10-2025 21:00:00,24.75746,84.366208,NH3,1,2,2
India,Bihar,Begusarai,"Lohiyanagar, Begusarai - BSPCB",26-10-2025 21:00:00,25.42742023,86.13886079,PM2.5,100,137,117
India,Bihar,Begusarai,"Lohiyanagar, Begusarai - BSPCB",26-10-2025 21:00:00,25.42742023,86.13886079,PM10,96,109,103
India,Bihar,Begusarai,"Lohiyanagar, Begusarai - BSPCB",26-10-2025 21:00:00,25.42742023,86.13886079,NO2,11,27,14
India,Bihar,Begusarai,"Lohiyanagar, Begusarai - BSPCB",26-10-2025 21:00:00,25.42742023,86.13886079,OZONE,19,22,21
India,Karnataka,Davanagere,"Devaraj Urs Badavane, Davanagere - KSPCB",26-10-2025 21:00:00,14.475800,75.905200,NH3,1,3,2
India,Bihar,Bettiah,"Kamalnath Nagar, Bettiah - BSPCB",26-10-2025 21:00:00,26.80365,84.51954,PM2.5,NA,NA,NA
India,Haryana,Sonipat,"Murthal, Sonipat - HSPCB",26-10-2025 21:00:00,29.027200,77.062100,NO2,31,64,47
India,Haryana,Sonipat,"Murthal, Sonipat - HSPCB",26-10-2025 21:00:00,29.027200,77.062100,SO2,6,12,8
India,Andhra_Pradesh,Amaravati,"Secretariat, Amaravati - APPCB",26-10-2025 21:00:00,16.5150833,80.5181667,NO2,11,16,20
India,Himachal Pradesh,Baddi,"HIMUDA Complex Phase-1, Baddi - HPPCB",26-10-2025 21:00:00,30.943887,76.801991,NO2,16,20,28
India,Himachal Pradesh,Baddi,"HIMUDA Complex Phase-1, Baddi - HPPCB",26-10-2025 21:00:00,30.943887,76.801991,NH3,2,4,3
India,Andhra_Pradesh,Amaravati,"Secretariat, Amaravati - APPCB",26-10-2025 21:00:00,16.5150833,80.5181667,NH3,5,5,4
India,Himachal Pradesh,Baddi,"HIMUDA Complex Phase-1, Baddi - HPPCB",26-10-2025 21:00:00,30.943887,76.801991,SO2,22,25,33
India,Andhra_Pradesh,Anantapur,"Gulzarpet, Anantapur - APPCB",26-10-2025 21:00:00,14.675886,77.593027,NO2,20,20,20
India,Jammu_and_Kashmir,Srinagar,"Rajbagh, Srinagar - JKSPCB",26-10-2025 21:00:00,34.066206,74.819820,OZONE,1,6,2
India,Jharkhand,Dhanbad,"Sardar Patel Nagar, Dhanbad - JSPCB",26-10-2025 21:00:00,23.80569,86.44268,PM10,122,136,130
India,Andhra_Pradesh,Anantapur,"Gulzarpet, Anantapur - APPCB",26-10-2025 21:00:00,14.675886,77.593027,CO,14,22,18
India,Karnataka,Bengaluru,"Shivapura_Peenya, Bengaluru - KSPCB",26-10-2025 21:00:00,13.0246342,77.5080115,PM2.5,39,83,57
India,Karnataka,Bengaluru,"Shivapura_Peenya, Bengaluru - KSPCB",26-10-2025 21:00:00,13.0246342,77.5080115,CO,34,39,37
India,Assam,Sivasagar,"Girls College, Sivasagar - PCBA",26-10-2025 21:00:00,26.987634,94.636574,CO,9,21,14
India,Assam,Sivasagar,"Girls College, Sivasagar - PCBA",26-10-2025 21:00:00,26.987634,94.636574,OZONE,2,5,4
India,Karnataka,Bengaluru,"Silk Board, Bengaluru - KSPCB",26-10-2025 21:00:00,12.917348,77.622813,OZONE,15,16,16
India,Bihar,Araria,"Kharahiya Basti, Araria - BSPCB",26-10-2025 21:00:00,26.146529,87.454184,NH3,5,5,5
India,Bihar,Araria,"Kharahiya Basti, Araria - BSPCB",26-10-2025 21:00:00,26.146529,87.454184,SO2,15,20,17
India,Karnataka,Bidar,"Naubad, Bidar - KSPCB",26-10-2025 21:00:00,17.930306,77.482194,PM10,NA,NA,NA
India,Bihar,Araria,"Kharahiya Basti, Araria - BSPCB",26-10-2025 21:00:00,26.146529,87.454184,OZONE,10,11,10
India,Karnataka,Bengaluru,"BWSSB Kadabesanahalli, Bengaluru - CPCB",26-10-2025 21:00:00,12.9352049,77.6814488,NH3,3,3,3
India,Karnataka,Bengaluru,"Bapuji Nagar, Bengaluru - KSPCB",26-10-2025 21:00:00,12.951913,77.539784,PM2.5,17,29,39
India,Andhra_Pradesh,Vijayawada,"HB Colony, Vijayawada - APPCB",26-10-2025 21:00:00,16.536107,80.594233,OZONE,9,9,9
India,Andhra_Pradesh,Vijayawada,"Rajiv Gandhi Park, Vijayawada - APPCB",26-10-2025 21:00:00,16.509717,80.612222,PM2.5,44,51,52
India,Andhra_Pradesh,Vijayawada,"Rajiv Gandhi Park, Vijayawada - APPCB",26-10-2025 21:00:00,16.509717,80.612222,CO,30,30,30
India,Andhra_Pradesh,Visakhapatnam,"GVM Corporation, Visakhapatnam - APPCB",26-10-2025 21:00:00,17.72,83.3,PM10,40,49,54
India,Karnataka,Bengaluru,"Hebbal, Bengaluru - KSPCB",26-10-2025 21:00:00,13.029152,77.585901,NO2,21,23,22
India,Andhra_Pradesh,Anantapur,"Gulzarpet, Anantapur - APPCB",26-10-2025 21:00:00,14.675886,77.593027,OZONE,27,38,32
India,Andhra_Pradesh,Kadapa,"Yerramukkapalli, Kadapa - APPCB",26-10-2025 21:00:00,14.465052,78.824187,NO2,NA,NA,NA
India,Andhra_Pradesh,Rajamahendravaram,"Anand Kala Kshetram, Rajamahendravaram - APPCB",26-10-2025 21:00:00,16.9872867,81.7363176,PM10,NA,NA,NA
India,Andhra_Pradesh,Rajamahendravaram,"Anand Kala Kshetram, Rajamahendravaram - APPCB",26-10-2025 21:00:00,16.9872867,81.7363176,SO2,NA,NA,NA
India,Karnataka,Bengaluru,"BTM Layout, Bengaluru - CPCB",26-10-2025 21:00:00,12.9135218,77.5950804,NO2,30,31,30
India,Andhra_Pradesh,Tirumala,"Toll Gate, Tirumala - APPCB",26-10-2025 21:00:00,13.67,79.35,SO2,7,13,10
India,Karnataka,Bengaluru,"BTM Layout, Bengaluru - CPCB",26-10-2025 21:00:00,12.9135218,77.5950804,CO,48,52,49
India,Karnataka,Bengaluru,"Hombegowda Nagar, Bengaluru - KSPCB",26-10-2025 21:00:00,12.938539,77.590100,CO,9,12,10
India,Assam,Guwahati,"IITG, Guwahati - PCBA",26-10-2025 21:00:00,26.2028636,91.70046436,PM2.5,22,43,41
India,Karnataka,Bengaluru,"Jayanagar 5th Block, Bengaluru - KSPCB",26-10-2025 21:00:00,12.920984,77.584908,PM10,13,27,37
India,Assam,Guwahati,"IITG, Guwahati - PCBA",26-10-2025 21:00:00,26.2028636,91.70046436,NH3,5,5,5
India,Karnataka,Bengaluru,"Jayanagar 5th Block, Bengaluru - KSPCB",26-10-2025 21:00:00,12.920984,77.584908,NH3,1,1,1
India,Assam,Guwahati,"LGBI Airport, Guwahati - PCBA",26-10-2025 21:00:00,26.10887,91.589544,NH3,6,6,6
India,Assam,Guwahati,"LGBI Airport, Guwahati - PCBA",26-10-2025 21:00:00,26.10887,91.589544,SO2,4,12,10
India,Karnataka,Bengaluru,"Jigani, Bengaluru - KSPCB",26-10-2025 21:00:00,12.7816279,77.6299145,CO,38,39,38
India,Assam,Guwahati,"Pan Bazaar, Guwahati - PCBA",26-10-2025 21:00:00,26.187500,91.744194,CO,13,23,19
India,Karnataka,Bengaluru,"Kasturi Nagar, Bengaluru - KSPCB",26-10-2025 21:00:00,13.003872,77.664217,NO2,43,45,45
India,Karnataka,Bengaluru,"Peenya, Bengaluru - CPCB",26-10-2025 21:00:00,13.0270199,77.494094,PM10,67,76,79
India,Karnataka,Bengaluru,"Peenya, Bengaluru - CPCB",26-10-2025 21:00:00,13.0270199,77.494094,NO2,20,30,28
India,Karnataka,Bengaluru,"Peenya, Bengaluru - CPCB",26-10-2025 21:00:00,13.0270199,77.494094,NH3,2,3,3
India,Bihar,Bihar Sharif,"D M Colony, Bihar Sharif - BSPCB",26-10-2025 21:00:00,25.204762,85.514960,NH3,3,6,4
India,Karnataka,Haveri,"Ashwini Nagar, Haveri - KSPCB",26-10-2025 21:00:00,14.791800,75.389600,NH3,NA,NA,NA
India,Bihar,Buxar,"Charitra Van, Buxar - BSPCB",26-10-2025 21:00:00,25.567520,83.966379,PM2.5,45,55,50
India,Bihar,Buxar,"Charitra Van, Buxar - BSPCB",26-10-2025 21:00:00,25.567520,83.966379,SO2,4,9,6
India,Bihar,Chhapra,"Darshan Nagar, Chhapra - BSPCB",26-10-2025 21:00:00,25.7808257,84.7446768,NH3,10,11,10
India,Karnataka,Davanagere,"Devaraj Urs Badavane, Davanagere - KSPCB",26-10-2025 21:00:00,14.475800,75.905200,OZONE,21,25,23
India,Bihar,Bettiah,"Kamalnath Nagar, Bettiah - BSPCB",26-10-2025 21:00:00,26.80365,84.51954,CO,52,81,66
India,Bihar,Bhagalpur,"Mayaganj, Bhagalpur - BSPCB",26-10-2025 21:00:00,25.265194,87.012947,CO,30,73,44
India,Karnataka,Hassan,"B.Katihalli, Hassan - KSPCB",26-10-2025 21:00:00,13.008556,76.125258,CO,6,34,12
India,Haryana,Sirsa,"F-Block, Sirsa - HSPCB",26-10-2025 21:00:00,29.536400,75.015800,SO2,5,7,6
India,Chandigarh,Chandigarh,"Sector-25, Chandigarh - CPCC",26-10-2025 21:00:00,30.751462,76.762879,PM10,35,114,78
India,Madhya Pradesh,Indore,"Residency Area, Indore - IMC",26-10-2025 21:00:00,22.7084,75.8815,PM10,10,48,25
India,Madhya Pradesh,Indore,"Residency Area, Indore - IMC",26-10-2025 21:00:00,22.7084,75.8815,NO2,12,17,16
India,Chandigarh,Chandigarh,"Sector-25, Chandigarh - CPCC",26-10-2025 21:00:00,30.751462,76.762879,SO2,6,9,7
India,Madhya Pradesh,Indore,"Residency Area, Indore - IMC",26-10-2025 21:00:00,22.7084,75.8815,CO,14,14,14
India,Chandigarh,Chandigarh,"Sector-25, Chandigarh - CPCC",26-10-2025 21:00:00,30.751462,76.762879,OZONE,10,75,40
India,Madhya Pradesh,Indore,"Residency Area, Indore - IMC",26-10-2025 21:00:00,22.7084,75.8815,OZONE,9,11,10
India,Chandigarh,Chandigarh,"Sector-53, Chandigarh - CPCC",26-10-2025 21:00:00,30.719859,76.738637,CO,46,53,48
India,Madhya Pradesh,Jabalpur,"Govindh Bhavan Colony, Jabalpur - JMC",26-10-2025 21:00:00,23.163174,79.973061,CO,33,36,34
India,Chandigarh,Chandigarh,"Sector-53, Chandigarh - CPCC",26-10-2025 21:00:00,30.719859,76.738637,OZONE,2,92,50
India,Chhattisgarh,Bhilai,"32Bungalows, Bhilai - CECB",26-10-2025 21:00:00,21.194815,81.314770,PM2.5,25,33,28
India,Madhya Pradesh,Jabalpur,"Gupteshwar, Jabalpur - JMC",26-10-2025 21:00:00,23.142888,79.916147,PM2.5,42,42,181
India,Madhya Pradesh,Jabalpur,"Gupteshwar, Jabalpur - JMC",26-10-2025 21:00:00,23.142888,79.916147,PM10,131,131,128
India,Karnataka,Shivamogga,"Vinoba Nagara, Shivamogga - KSPCB",26-10-2025 21:00:00,13.940000,75.555917,CO,24,38,27
India,Bihar,Muzaffarpur,"Buddha Colony, Muzaffarpur - BSPCB",26-10-2025 21:00:00,26.11442,85.39813,NO2,19,35,26
India,Bihar,Muzaffarpur,"Buddha Colony, Muzaffarpur - BSPCB",26-10-2025 21:00:00,26.11442,85.39813,CO,25,52,38
India,Karnataka,Vijayapura,"Ibrahimpur, Vijayapura - KSPCB",26-10-2025 21:00:00,16.802639,75.722694,CO,12,36,23
India,Bihar,Muzaffarpur,"MIT-Daudpur Kothi, Muzaffarpur - BSPCB",26-10-2025 21:00:00,26.1403345,85.3650192,NO2,7,7,8
India,Bihar,Muzaffarpur,"MIT-Daudpur Kothi, Muzaffarpur - BSPCB",26-10-2025 21:00:00,26.1403345,85.3650192,NH3,1,1,1
India,Karnataka,Yadgir,"Collector Office, Yadgir - KSPCB",26-10-2025 21:00:00,16.7602,77.1428,CO,9,12,12
India,Karnataka,Yadgir,"Collector Office, Yadgir - KSPCB",26-10-2025 21:00:00,16.7602,77.1428,OZONE,18,19,18
India,Bihar,Patna,"DRM Office Danapur, Patna - BSPCB",26-10-2025 21:00:00,25.586562,85.043586,PM2.5,102,147,136
India,Bihar,Gaya,"Collectorate, Gaya - BSPCB",26-10-2025 21:00:00,24.7955,84.9994,PM2.5,NA,NA,NA
India,Bihar,Gaya,"Collectorate, Gaya - BSPCB",26-10-2025 21:00:00,24.7955,84.9994,SO2,9,10,11
India,Karnataka,Kalaburagi,"Mahatma Basaveswar Colony, Kalaburgi - KSPCB",26-10-2025 21:00:00,17.336318,76.847397,PM10,29,49,42
India,Karnataka,Kalaburagi,"Mahatma Basaveswar Colony, Kalaburgi - KSPCB",26-10-2025 21:00:00,17.336318,76.847397,SO2,2,5,4
India,Bihar,Gaya,"Kareemganj, Gaya - BSPCB",26-10-2025 21:00:00,24.792403,84.992416,NH3,4,6,5
India,Karnataka,Koppal,"Diwator Nagar, Koppal - KSPCB",26-10-2025 21:00:00,15.347630,76.181767,PM2.5,12,32,18
India,Karnataka,Koppal,"Diwator Nagar, Koppal - KSPCB",26-10-2025 21:00:00,15.347630,76.181767,NH3,6,7,7
India,Bihar,Hajipur,"Industrial Area, Hajipur - BSPCB",26-10-2025 21:00:00,25.697189,85.245900,PM2.5,101,142,156
India,Karnataka,Madikeri,"Stuart Hill, Madikeri - KSPCB",26-10-2025 21:00:00,12.415911,75.735050,SO2,7,7,7
India,Madhya Pradesh,Bhopal,"Idgah Hills, Bhopal - MPPCB",26-10-2025 21:00:00,23.264759,77.381568,SO2,9,10,12
India,Bihar,Patna,"Rajbansi Nagar, Patna - BSPCB",26-10-2025 21:00:00,25.599486,85.113666,CO,22,68,36
India,Bihar,Patna,"Rajbansi Nagar, Patna - BSPCB",26-10-2025 21:00:00,25.599486,85.113666,OZONE,4,10,7
India,Madhya Pradesh,Bhopal,"Paryavaran Parisar, Bhopal - MPPCB",26-10-2025 21:00:00,23.210494,77.425409,NH3,5,5,5
India,Bihar,Patna,"Samanpura, Patna - BSPCB",26-10-2025 21:00:00,25.596727,85.085624,NH3,6,7,6
India,Madhya Pradesh,Bhopal,"T T Nagar, Bhopal - MPPCB",26-10-2025 21:00:00,23.233584,77.400574,PM10,38,85,64
India,Bihar,Purnia,"Mariam Nagar, Purnia - BSPCB",26-10-2025 21:00:00,25.366336,87.117468,PM2.5,47,62,88
India,Madhya Pradesh,Dewas,"Bhopal Chauraha, Dewas - MPPCB",26-10-2025 21:00:00,22.9682591,76.064118,PM2.5,30,53,45
India,Bihar,Sasaram,"Dada Peer, Sasaram - BSPCB",26-10-2025 21:00:00,24.952822,84.002396,NO2,2,2,2
India,Bihar,Siwan,"Chitragupta Nagar, Siwan - BSPCB",26-10-2025 21:00:00,26.2271665,84.3570427,NH3,1,1,1
India,Madhya Pradesh,Indore,"Chhoti Gwaltoli, Indore - MPPCB",26-10-2025 21:00:00,22.4310,75.5213,NH3,4,5,5
India,Chandigarh,Chandigarh,"Sector 22, Chandigarh - CPCC",26-10-2025 21:00:00,30.735567,76.775714,PM10,53,148,96
India,Madhya Pradesh,Indore,"Regional Park, Indore - IMC",26-10-2025 21:00:00,22.6780,75.8559,PM2.5,6,20,18
India,Madhya Pradesh,Indore,"Regional Park, Indore - IMC",26-10-2025 21:00:00,22.6780,75.8559,PM10,15,68,31
India,Madhya Pradesh,Indore,"Regional Park, Indore - IMC",26-10-2025 21:00:00,22.6780,75.8559,NO2,9,12,10
India,Chandigarh,Chandigarh,"Sector 22, Chandigarh - CPCC",26-10-2025 21:00:00,30.735567,76.775714,SO2,6,30,9
India,Madhya Pradesh,Indore,"Regional Park, Indore - IMC",26-10-2025 21:00:00,22.6780,75.8559,NH3,1,1,1
India,Madhya Pradesh,Dewas,"Bhopal Chauraha, Dewas - MPPCB",26-10-2025 21:00:00,22.9682591,76.064118,PM10,19,50,40
India,Madhya Pradesh,Dewas,"Bhopal Chauraha, Dewas - MPPCB",26-10-2025 21:00:00,22.9682591,76.064118,NO2,65,70,66
India,Madhya Pradesh,Gwalior,"City Center, Gwalior - MPPCB",26-10-2025 21:00:00,26.203442,78.193251,PM2.5,48,90,74
India,Madhya Pradesh,Gwalior,"City Center, Gwalior - MPPCB",26-10-2025 21:00:00,26.203442,78.193251,OZONE,11,59,35
India,Madhya Pradesh,Gwalior,"Deen Dayal Nagar, Gwalior - MPPCB",26-10-2025 21:00:00,26.259242,78.216432,PM2.5,150,308,210
India,Bihar,Saharsa,"Police Line, Saharsa - BSPCB",26-10-2025 21:00:00,25.892357,86.590325,CO,36,38,37
India,Madhya Pradesh,Gwalior,"Deen Dayal Nagar, Gwalior - MPPCB",26-10-2025 21:00:00,26.259242,78.216432,NO2,27,35,44
India,Bihar,Samastipur,"DM Office_Kasipur, Samastipur - BSPCB",26-10-2025 21:00:00,25.859655,85.77944,NH3,NA,NA,NA
India,Bihar,Manguraha,"Forest Rest House, Manguraha - BSPCB",26-10-2025 21:00:00,27.308328,84.531742,CO,32,33,32
India,Bihar,Manguraha,"Forest Rest House, Manguraha - BSPCB",26-10-2025 21:00:00,27.308328,84.531742,OZONE,3,16,11
India,Bihar,Motihari,"Gandak Colony, Motihari - BSPCB",26-10-2025 21:00:00,26.63086,84.90051,PM2.5,22,24,23
India,Karnataka,Mysuru,"Hebbal 1st Stage, Mysuru - KSPCB",26-10-2025 21:00:00,12.21041,76.37376,NO2,16,19,19
India,Bihar,Munger,"Town Hall, Munger - BSPCB",26-10-2025 21:00:00,25.376776,86.471523,NO2,4,5,5
India,Karnataka,Ramanagara,"Vijay Nagar, Ramanagara - KSPCB",26-10-2025 21:00:00,12.733409,77.298051,CO,8,28,20
India,Bihar,Munger,"Town Hall, Munger - BSPCB",26-10-2025 21:00:00,25.376776,86.471523,OZONE,11,12,12
India,Bihar,Patna,"DRM Office Danapur, Patna - BSPCB",26-10-2025 21:00:00,25.586562,85.043586,NO2,19,58,40
India,Kerala,Thiruvananthapuram,"Kariavattom, Thiruvananthapuram - Kerala PCB",26-10-2025 21:00:00,8.563700,76.886500,NH3,1,1,1
India,Bihar,Patna,"IGSC Planetarium Complex, Patna - BSPCB",26-10-2025 21:00:00,25.610369,85.132568,PM2.5,NA,NA,NA
India,Bihar,Patna,"Muradpur, Patna - BSPCB",26-10-2025 21:00:00,25.619651,85.147382,NH3,4,5,5
India,Madhya Pradesh,Bhopal,"Idgah Hills, Bhopal - MPPCB",26-10-2025 21:00:00,23.264759,77.381568,NH3,4,4,4
India,Karnataka,Mangalore,"Kadri, Mangalore - KSPCB",26-10-2025 21:00:00,12.889250,74.853000,NH3,1,2,2
India,Bihar,Kishanganj,"SDM Office_Khagra, Kishanganj - BSPCB",26-10-2025 21:00:00,26.0881305,87.93840336,CO,13,14,14
India,Delhi,Delhi,"Dr. Karni Singh Shooting Range, Delhi - DPCC",26-10-2025 21:00:00,28.498571,77.264840,NH3,8,11,10
India,Maharashtra,Kalyan,"Khadakpada, Kalyan - MPCB",26-10-2025 21:00:00,19.25292,73.142019,CO,58,60,59
India,Maharashtra,Kalyan,"Khadakpada, Kalyan - MPCB",26-10-2025 21:00:00,19.25292,73.142019,OZONE,8,9,8
India,Delhi,Delhi,"Dwarka-Sector 8, Delhi - DPCC ",26-10-2025 21:00:00,28.5710274,77.0719006,PM10,159,281,265
India,Maharashtra,Kalyan,"Pimpleshwar Mandir, Kalyan - MPCB",26-10-2025 21:00:00,19.192056,72.9585188,NH3,2,5,3
India,Delhi,Delhi,"Dwarka-Sector 8, Delhi - DPCC ",26-10-2025 21:00:00,28.5710274,77.0719006,CO,41,115,77
India,Delhi,Delhi,"Dwarka-Sector 8, Delhi - DPCC ",26-10-2025 21:00:00,28.5710274,77.0719006,OZONE,11,253,108
India,Maharashtra,Kalyan,"Pimpleshwar Mandir, Kalyan - MPCB",26-10-2025 21:00:00,19.192056,72.9585188,SO2,8,9,9
India,Delhi,Delhi,"IGI Airport (T3), Delhi - IMD",26-10-2025 21:00:00,28.5627763,77.1180053,PM2.5,132,241,254
India,Maharashtra,Kolhapur,"Shivaji University, Kolhapur - MPCB",26-10-2025 21:00:00,16.6870449,74.2505872,NO2,6,12,11
India,Maharashtra,Kolhapur,"Shivaji University, Kolhapur - MPCB",26-10-2025 21:00:00,16.6870449,74.2505872,CO,1,12,7
India,Chhattisgarh,Bhilai,"Civic Center, Bhilai - Bhilai Steel Plant",26-10-2025 21:00:00,21.185571,81.343175,NO2,7,11,8
India,Chhattisgarh,Bhilai,"Civic Center, Bhilai - Bhilai Steel Plant",26-10-2025 21:00:00,21.185571,81.343175,CO,22,22,22
India,Madhya Pradesh,Jabalpur,"Marhatal, Jabalpur - MPPCB",26-10-2025 21:00:00,23.168606,79.932247,NH3,1,2,2
India,Chhattisgarh,Bhilai,"Civic Center, Bhilai - Bhilai Steel Plant",26-10-2025 21:00:00,21.185571,81.343175,OZONE,10,13,11
India,Madhya Pradesh,Jabalpur,"Suhagi, Jabalpur - JMC",26-10-2025 21:00:00,23.218135,79.957770,PM10,27,51,141
India,Madhya Pradesh,Jabalpur,"Suhagi, Jabalpur - JMC",26-10-2025 21:00:00,23.218135,79.957770,NO2,8,24,36
India,Madhya Pradesh,Jabalpur,"Suhagi, Jabalpur - JMC",26-10-2025 21:00:00,23.218135,79.957770,SO2,10,10,10
India,Chhattisgarh,Bilaspur,"Mangala, Bilaspur - NTPC",26-10-2025 21:00:00,22.08815,82.13737,NO2,19,24,23
India,Madhya Pradesh,Katni,"Gole Bazar, Katni - MPPCB",26-10-2025 21:00:00,23.50016,80.23284,NH3,4,5,3
India,Chhattisgarh,Chhal,"Nawapara SECL Colony, Chhal - CECB",26-10-2025 21:00:00,22.118125,83.140608,SO2,4,35,10
India,Maharashtra,Dhule,"Deopur, Dhule - MPCB",26-10-2025 21:00:00,20.918946,74.776388,SO2,3,14,10
India,Delhi,Delhi,"Burari Crossing, Delhi - IMD",26-10-2025 21:00:00,28.7256504,77.2011573,CO,40,140,85
India,Delhi,Delhi,"Burari Crossing, Delhi - IMD",26-10-2025 21:00:00,28.7256504,77.2011573,OZONE,15,255,122
India,Maharashtra,Jalgaon,"Prabhat Colony, Jalgaon - MPCB",26-10-2025 21:00:00,21.001264,75.565602,SO2,NA,NA,NA
India,Delhi,Delhi,"Chandni Chowk, Delhi - IITM",26-10-2025 21:00:00,28.656756,77.227234,OZONE,2,169,92
India,Maharashtra,Jalna,"Old MIDC, Jalna - MPCB",26-10-2025 21:00:00,19.854616,75.905894,NO2,40,45,44
India,Delhi,Delhi,"Dr. Karni Singh Shooting Range, Delhi - DPCC",26-10-2025 21:00:00,28.498571,77.264840,PM10,119,285,248
India,Maharashtra,Kalyan,"Khadakpada, Kalyan - MPCB",26-10-2025 21:00:00,19.25292,73.142019,PM2.5,2,17,13
India,Chhattisgarh,Kunjemura,"OP Jindal School, Kunjemura - CECB",26-10-2025 21:00:00,22.126650,83.483212,SO2,5,12,8
India,Madhya Pradesh,Sagar,"Civil Lines, Sagar - MPPCB",26-10-2025 21:00:00,23.838586,78.759431,SO2,2,9,4
India,Chhattisgarh,Milupara,"Govt. Higher Secondary School, Milupara - CECB",26-10-2025 21:00:00,22.1910172,83.5197009,OZONE,33,46,40
India,Chhattisgarh,Raipur,"AIIMS, Raipur - CECB",26-10-2025 21:00:00,21.258815,81.578979,PM10,59,106,75
India,Chhattisgarh,Raipur,"AIIMS, Raipur - CECB",26-10-2025 21:00:00,21.258815,81.578979,SO2,12,14,13
India,Chhattisgarh,Raipur,"AIIMS, Raipur - CECB",26-10-2025 21:00:00,21.258815,81.578979,OZONE,6,11,8
India,Madhya Pradesh,Singrauli,"Suryakiran Bhawan NCL, Singrauli - MPPCB",26-10-2025 21:00:00,24.108970,82.645580,PM10,97,133,145
India,Chhattisgarh,Raipur,"Bhatagaon New ISBT, Raipur - CECB",26-10-2025 21:00:00,21.219665,81.630094,NO2,12,20,19
India,Delhi,Delhi,"Alipur, Delhi - DPCC",26-10-2025 21:00:00,28.815329,77.153010,CO,90,104,97
India,Maharashtra,Belapur,"CBD Belapur, Belapur - MPCB",26-10-2025 21:00:00,19.0243902,73.0406721,OZONE,4,23,15
India,Maharashtra,Bhiwandi,"Gokul Nagar, Bhiwandi - MPCB",26-10-2025 21:00:00,19.309073,73.057223,NH3,4,5,3
India,Delhi,Delhi,"Anand Vihar, Delhi - DPCC",26-10-2025 21:00:00,28.647622,77.3158090,CO,4,143,82
India,Maharashtra,Bhiwandi,"Gokul Nagar, Bhiwandi - MPCB",26-10-2025 21:00:00,19.309073,73.057223,CO,16,23,19
India,Maharashtra,Boisar,"Khaira, Boisar - MPCB",26-10-2025 21:00:00,19.786089,72.757971,PM2.5,11,15,18
India,Maharashtra,Boisar,"Khaira, Boisar - MPCB",26-10-2025 21:00:00,19.786089,72.757971,PM10,18,31,24
India,Maharashtra,Boisar,"Khaira, Boisar - MPCB",26-10-2025 21:00:00,19.786089,72.757971,CO,1,18,10
India,Madhya Pradesh,Maihar,"Sahilara, Maihar - KJS Cements",26-10-2025 21:00:00,24.2613009,80.7231783,PM10,50,176,129
India,Chhattisgarh,Chhal,"Nawapara SECL Colony, Chhal - CECB",26-10-2025 21:00:00,22.118125,83.140608,OZONE,27,95,66
India,Chhattisgarh,Korba,"Rampur, Korba - CECB",26-10-2025 21:00:00,22.368195,82.746431,NH3,2,2,2
India,Chhattisgarh,Korba,"Rampur, Korba - CECB",26-10-2025 21:00:00,22.368195,82.746431,CO,14,19,17
India,Chhattisgarh,Korba,"Urja Nagar, Korba - CECB",26-10-2025 21:00:00,22.348441,82.549611,PM10,68,69,69
India,Madhya Pradesh,Pithampur,"Sector-2 Industrial Area, Pithampur - MPPCB",26-10-2025 21:00:00,22.624758,75.675238,SO2,14,16,16
India,Chhattisgarh,Raipur,"Krishak Nagar, Raipur - CECB",26-10-2025 21:00:00,21.237755,81.705301,PM10,44,92,71
India,Maharashtra,Akola,"Ramdaspeth, Akola - MPCB",26-10-2025 21:00:00,20.719516,77.000253,OZONE,7,27,17
India,Chhattisgarh,Raipur,"Siltara Phase-II, Raipur - CECB",26-10-2025 21:00:00,21.371751,81.664929,NH3,3,3,3
India,Maharashtra,Amravati,"Shivneri Colony, Amravati - MPCB",26-10-2025 21:00:00,20.9402359,77.7895248,PM10,31,67,47
India,Maharashtra,Amravati,"Shri Shivaji Science College, Amravati - MPCB",26-10-2025 21:00:00,20.939198,77.765701,NO2,5,7,8
India,Maharashtra,Amravati,"Shri Shivaji Science College, Amravati - MPCB",26-10-2025 21:00:00,20.939198,77.765701,NH3,NA,NA,NA
India,Maharashtra,Aurangabad,"More Chowk Waluj, Aurangabad - MPCB",26-10-2025 21:00:00,19.8389439,75.244448,NO2,16,21,20
India,Maharashtra,Aurangabad,"Rachnakar Colony, Aurangabad - MPCB",26-10-2025 21:00:00,19.863756,75.321188,SO2,6,26,17
India,Chhattisgarh,Tumidih,"OP Jindal Industrial Park, Tumidih - CECB",26-10-2025 21:00:00,22.06631475,83.33820077,NH3,1,2,1
India,Maharashtra,Badlapur,"Katrap, Badlapur - MPCB",26-10-2025 21:00:00,19.16485,73.23409,PM10,NA,NA,NA
India,Maharashtra,Badlapur,"Katrap, Badlapur - MPCB",26-10-2025 21:00:00,19.16485,73.23409,SO2,NA,NA,NA
India,Maharashtra,Chandrapur,"Chauhan Colony, Chandrapur - MPCB",26-10-2025 21:00:00,19.962900,79.298714,NH3,2,2,2
India,Maharashtra,Chandrapur,"Chauhan Colony, Chandrapur - MPCB",26-10-2025 21:00:00,19.962900,79.298714,CO,20,32,28
India,Delhi,Delhi,"Aya Nagar, Delhi - IMD",26-10-2025 21:00:00,28.4706914,77.1099364,CO,48,82,64
India,Maharashtra,Chandrapur,"MIDC Khutala, Chandrapur - MPCB",26-10-2025 21:00:00,19.9775302,79.2337086,SO2,9,9,9
India,Delhi,Delhi,"Punjabi Bagh, Delhi - DPCC",26-10-2025 21:00:00,28.674045,77.131023,CO,30,60,40
India,Maharashtra,Mumbai,"Deonar, Mumbai - IITM",26-10-2025 21:00:00,19.04946,72.9230,SO2,5,6,7
India,Delhi,Delhi,"Punjabi Bagh, Delhi - DPCC",26-10-2025 21:00:00,28.674045,77.131023,OZONE,3,198,198
India,Delhi,Delhi,"Pusa, Delhi - DPCC",26-10-2025 21:00:00,28.639652,77.146275,PM10,133,229,196
India,Maharashtra,Mumbai,"Ghatkopar, Mumbai - BMC",26-10-2025 21:00:00,19.083694,72.920967,NO2,15,30,29
India,Maharashtra,Mumbai,"Ghatkopar, Mumbai - BMC",26-10-2025 21:00:00,19.083694,72.920967,NH3,2,5,4
India,Delhi,Delhi,"Pusa, Delhi - IMD",26-10-2025 21:00:00,28.636110,77.173332,PM2.5,87,319,276
India,Maharashtra,Mumbai,"Ghatkopar, Mumbai - BMC",26-10-2025 21:00:00,19.083694,72.920967,OZONE,8,58,28
India,Delhi,Delhi,"R K Puram, Delhi - DPCC",26-10-2025 21:00:00,28.563262,77.186937,PM2.5,193,392,316
India,Maharashtra,Mumbai,"Kandivali East, Mumbai - MPCB",26-10-2025 21:00:00,19.205800,72.868200,SO2,NA,NA,NA
India,Maharashtra,Mumbai,"Kandivali West, Mumbai - BMC",26-10-2025 21:00:00,19.215859,72.831718,PM2.5,13,25,18
India,Maharashtra,Mumbai,"Kandivali West, Mumbai - BMC",26-10-2025 21:00:00,19.215859,72.831718,NO2,11,21,18
India,Maharashtra,Mumbai,"Kandivali West, Mumbai - BMC",26-10-2025 21:00:00,19.215859,72.831718,CO,10,22,15
India,Delhi,Delhi,"Rohini, Delhi - DPCC",26-10-2025 21:00:00,28.732528,77.119920,NH3,12,15,12
India,Maharashtra,Mumbai,"Kandivali West, Mumbai - BMC",26-10-2025 21:00:00,19.215859,72.831718,OZONE,1,16,9
India,Maharashtra,Mumbai,"Kherwadi_Bandra East, Mumbai - MPCB",26-10-2025 21:00:00,19.0632143,72.8456324,PM2.5,22,45,28
India,Delhi,Delhi,"Shadipur, Delhi - CPCB",26-10-2025 21:00:00,28.6514781,77.1473105,PM2.5,229,335,320
India,Delhi,Delhi,"Shadipur, Delhi - CPCB",26-10-2025 21:00:00,28.6514781,77.1473105,PM10,154,220,224
India,Maharashtra,Mumbai,"Kherwadi_Bandra East, Mumbai - MPCB",26-10-2025 21:00:00,19.0632143,72.8456324,SO2,3,4,3
India,Maharashtra,Mumbai,"Khindipada-Bhandup West, Mumbai - IITM",26-10-2025 21:00:00,19.1653323,72.922099,NO2,9,24,15
India,Delhi,Delhi,"Sirifort, Delhi - CPCB",26-10-2025 21:00:00,28.5504249,77.2159377,PM2.5,147,366,314
India,Delhi,Delhi,"Sirifort, Delhi - CPCB",26-10-2025 21:00:00,28.5504249,77.2159377,PM10,128,387,223
India,Delhi,Delhi,"Sirifort, Delhi - CPCB",26-10-2025 21:00:00,28.5504249,77.2159377,NH3,6,10,7
India,Maharashtra,Mumbai,"Kurla, Mumbai - MPCB",26-10-2025 21:00:00,19.0863,72.8888,NO2,4,5,4
India,Delhi,Delhi,"Najafgarh, Delhi - DPCC",26-10-2025 21:00:00,28.570173,76.933762,SO2,25,31,27
India,Maharashtra,Mumbai,"Borivali East, Mumbai - MPCB",26-10-2025 21:00:00,19.2243333,72.8658113,NH3,4,4,4
India,Delhi,Delhi,"Najafgarh, Delhi - DPCC",26-10-2025 21:00:00,28.570173,76.933762,CO,33,95,68
India,Delhi,Delhi,"Narela, Delhi - DPCC",26-10-2025 21:00:00,28.822836,77.101981,PM2.5,240,416,345
India,Delhi,Delhi,"Narela, Delhi - DPCC",26-10-2025 21:00:00,28.822836,77.101981,NH3,15,19,17
India,Maharashtra,Mumbai,"Byculla, Mumbai - BMC",26-10-2025 21:00:00,18.9767,72.8380,PM10,33,39,33
India,Delhi,Delhi,"Narela, Delhi - DPCC",26-10-2025 21:00:00,28.822836,77.101981,CO,16,71,38
India,Maharashtra,Mumbai,"Byculla, Mumbai - BMC",26-10-2025 21:00:00,18.9767,72.8380,OZONE,9,22,15
India,Delhi,Delhi,"Nehru Nagar, Delhi - DPCC",26-10-2025 21:00:00,28.567890,77.250515,NO2,18,105,79
India,Delhi,Delhi,"Nehru Nagar, Delhi - DPCC",26-10-2025 21:00:00,28.567890,77.250515,NH3,10,15,13
India,Maharashtra,Mumbai,"Chakala-Andheri East, Mumbai - IITM",26-10-2025 21:00:00,19.11074,72.86084,NO2,26,39,40
India,Maharashtra,Mumbai,"Chakala-Andheri East, Mumbai - IITM",26-10-2025 21:00:00,19.11074,72.86084,NH3,8,10,10
India,Delhi,Delhi,"Nehru Nagar, Delhi - DPCC",26-10-2025 21:00:00,28.567890,77.250515,OZONE,7,302,159
India,Delhi,Delhi,"Jawaharlal Nehru Stadium, Delhi - DPCC",26-10-2025 21:00:00,28.580280,77.233829,OZONE,10,219,97
India,Maharashtra,Malegaon,"Mahesh Nagar, Malegaon - MPCB",26-10-2025 21:00:00,20.555712,74.529236,PM2.5,32,58,39
India,Delhi,Delhi,"Lodhi Road, Delhi - IITM",26-10-2025 21:00:00,28.588333,77.221667,PM2.5,103,314,267
India,Maharashtra,Malegaon,"Mahesh Nagar, Malegaon - MPCB",26-10-2025 21:00:00,20.555712,74.529236,NH3,2,5,3
India,Delhi,Delhi,"Lodhi Road, Delhi - IMD",26-10-2025 21:00:00,28.5918245,77.2273074,PM2.5,118,322,268
India,Maharashtra,Mira-Bhayandar,"Bhayandar West, Mira-Bhayandar - MPCB",26-10-2025 21:00:00,19.296481,72.840923,PM10,23,55,32
India,Delhi,Delhi,"Lodhi Road, Delhi - IMD",26-10-2025 21:00:00,28.5918245,77.2273074,OZONE,26,247,125
India,Maharashtra,Mumbai,"Bandra Kurla Complex, Mumbai - IITM",26-10-2025 21:00:00,19.053536,72.84643,PM10,NA,NA,NA
India,Delhi,Delhi,"Mandir Marg, Delhi - DPCC",26-10-2025 21:00:00,28.636429,77.201067,PM2.5,133,327,290
India,Maharashtra,Mumbai,"Mulund West, Mumbai - MPCB",26-10-2025 21:00:00,19.1750,72.9419,PM2.5,18,53,36
India,Maharashtra,Mumbai,"Mulund West, Mumbai - MPCB",26-10-2025 21:00:00,19.1750,72.9419,NO2,13,14,13
India,Delhi,Delhi,"Sri Aurobindo Marg, Delhi - DPCC",26-10-2025 21:00:00,28.531346,77.190156,PM10,121,167,138
India,Delhi,Delhi,"Sri Aurobindo Marg, Delhi - DPCC",26-10-2025 21:00:00,28.531346,77.190156,NH3,4,5,4
India,Maharashtra,Mumbai,"Navy Nagar-Colaba, Mumbai - IITM",26-10-2025 21:00:00,18.897756,72.813320,NO2,30,65,49
India,Delhi,Delhi,"Sri Aurobindo Marg, Delhi - DPCC",26-10-2025 21:00:00,28.531346,77.190156,CO,20,55,37
India,Delhi,Delhi,"Vivek Vihar, Delhi - DPCC",26-10-2025 21:00:00,28.672342,77.315260,NH3,10,12,11
India,Delhi,Delhi,"Vivek Vihar, Delhi - DPCC",26-10-2025 21:00:00,28.672342,77.315260,OZONE,4,24,16
India,Delhi,Delhi,"Mandir Marg, Delhi - DPCC",26-10-2025 21:00:00,28.636429,77.201067,NO2,11,24,18
India,Delhi,Delhi,"Mundka, Delhi - DPCC",26-10-2025 21:00:00,28.684678,77.076574,PM2.5,167,430,356
India,Maharashtra,Mumbai,"Bandra Kurla Complex, Mumbai - MPCB",26-10-2025 21:00:00,19.065931,72.862131,SO2,1,5,4
India,Maharashtra,Mumbai,"Bandra Kurla Complex, Mumbai - MPCB",26-10-2025 21:00:00,19.065931,72.862131,CO,7,13,10
India,Delhi,Delhi,"NSIT Dwarka, Delhi - CPCB",26-10-2025 21:00:00,28.60909,77.0325413,PM2.5,93,314,268
India,Delhi,Delhi,"NSIT Dwarka, Delhi - CPCB",26-10-2025 21:00:00,28.60909,77.0325413,NO2,65,120,102
India,Maharashtra,Mumbai,"Borivali East, Mumbai - IITM",26-10-2025 21:00:00,19.23241,72.86895,OZONE,10,62,38
India,Maharashtra,Mumbai,"Chembur, Mumbai - MPCB",26-10-2025 21:00:00,19.0364585,72.8954371,SO2,8,20,13
India,Delhi,Delhi,"Okhla Phase-2, Delhi - DPCC",26-10-2025 21:00:00,28.530785,77.271255,NH3,8,11,10
India,Maharashtra,Mumbai,"Chhatrapati Shivaji Intl. Airport (T2), Mumbai - MPCB",26-10-2025 21:00:00,19.10078,72.87462,OZONE,7,8,7
India,Delhi,Delhi,"Patparganj, Delhi - DPCC",26-10-2025 21:00:00,28.623763,77.287209,NO2,30,146,126
India,Maharashtra,Mumbai,"Colaba, Mumbai - MPCB",26-10-2025 21:00:00,18.910000,72.820000,CO,24,25,24
India,Maharashtra,Mumbai,"Deonar, Mumbai - IITM",26-10-2025 21:00:00,19.04946,72.9230,PM2.5,13,51,27
India,Maharashtra,Kolhapur,"Sinchan Bhavan, Kolhapur - MPCB",26-10-2025 21:00:00,16.7143745,74.2426398,PM10,NA,NA,NA
India,Delhi,Delhi,"ITO, Delhi - CPCB",26-10-2025 21:00:00,28.628624,77.241060,NO2,88,128,112
India,Delhi,Delhi,"ITO, Delhi - CPCB",26-10-2025 21:00:00,28.628624,77.241060,CO,27,125,58
India,Delhi,Delhi,"Jahangirpuri, Delhi - DPCC",26-10-2025 21:00:00,28.732820,77.170633,PM2.5,257,474,377
India,Maharashtra,Mahad,"Kamble Tarf Birwadi, Mahad - MPCB",26-10-2025 21:00:00,18.1023399,73.4783687,PM2.5,33,103,89
India,Maharashtra,Mahad,"Kamble Tarf Birwadi, Mahad - MPCB",26-10-2025 21:00:00,18.1023399,73.4783687,CO,24,28,25
India,Maharashtra,Mumbai,"Malad West, Mumbai - IITM",26-10-2025 21:00:00,19.19709,72.82204,NH3,5,5,6
India,Maharashtra,Mumbai,"Mazgaon, Mumbai - IITM",26-10-2025 21:00:00,18.96702,72.84214,NO2,36,50,49
India,Maharashtra,Mumbai,"Mazgaon, Mumbai - IITM",26-10-2025 21:00:00,18.96702,72.84214,SO2,8,11,9
India,Maharashtra,Mumbai,"Mindspace-Malad West, Mumbai - MPCB",26-10-2025 21:00:00,19.1878657,72.8304069,PM10,25,46,35
India,Maharashtra,Mumbai,"Mindspace-Malad West, Mumbai - MPCB",26-10-2025 21:00:00,19.1878657,72.8304069,SO2,15,15,15
India,Haryana,Ballabgarh,"Nathu Colony, Ballabgarh - HSPCB",26-10-2025 21:00:00,28.3419248,77.319699,OZONE,15,15,15
India,Maharashtra,Navi Mumbai,"Tondare-Taloja, Navi Mumbai - MPCB",26-10-2025 21:00:00,19.0630,73.1209,PM10,38,47,54
India,Maharashtra,Navi Mumbai,"Tondare-Taloja, Navi Mumbai - MPCB",26-10-2025 21:00:00,19.0630,73.1209,NH3,4,12,7
India,Maharashtra,Navi Mumbai,"Tondare-Taloja, Navi Mumbai - MPCB",26-10-2025 21:00:00,19.0630,73.1209,SO2,3,4,4
India,Maharashtra,Parbhani,"Masoom Colony, Parbhani - MPCB",26-10-2025 21:00:00,19.265594,76.761463,PM2.5,10,16,15
India,Haryana,Bhiwani,"H.B. Colony, Bhiwani - HSPCB",26-10-2025 21:00:00,28.806223,76.141105,CO,12,14,13
India,Haryana,Charkhi Dadri,"Mini Secretariat, Charkhi Dadri - HSPCB",26-10-2025 21:00:00,28.593883,76.270653,PM2.5,37,329,287
India,Maharashtra,Pimpri-Chinchwad,"Gavalinagar, Pimpri Chinchwad - MPCB",26-10-2025 21:00:00,18.63673,73.82487,NH3,7,8,7
India,Haryana,Charkhi Dadri,"Mini Secretariat, Charkhi Dadri - HSPCB",26-10-2025 21:00:00,28.593883,76.270653,OZONE,14,17,15
India,Maharashtra,Pimpri-Chinchwad,"Gavalinagar, Pimpri Chinchwad - MPCB",26-10-2025 21:00:00,18.63673,73.82487,CO,12,21,17
India,Haryana,Dharuhera,"Municipal Corporation Office, Dharuhera -  HSPCB",26-10-2025 21:00:00,28.206800,76.799700,NO2,14,49,39
India,Maharashtra,Nashik,"Hirawadi, Nashik - MPCB",26-10-2025 21:00:00,20.021503,73.813844,OZONE,13,24,19
India,Gujarat,Surat,"Science Center, Surat - SMC",26-10-2025 21:00:00,21.170046,72.795405,NO2,15,20,16
India,Maharashtra,Nashik,"MIDC Ambad, Nashik - MPCB",26-10-2025 21:00:00,19.950220,73.731480,OZONE,12,25,19
India,Maharashtra,Nashik,"Pandav Nagari, Nashik - MPCB",26-10-2025 21:00:00,19.9591346,73.7788008,PM2.5,16,23,18
India,Gujarat,Vapi,"Phase-1 GIDC, Vapi - GPCB",26-10-2025 21:00:00,20.362421,72.918013,PM2.5,15,57,38
India,Maharashtra,Nashik,"Pandav Nagari, Nashik - MPCB",26-10-2025 21:00:00,19.9591346,73.7788008,SO2,NA,NA,NA
India,Maharashtra,Nashik,"Pandav Nagari, Nashik - MPCB",26-10-2025 21:00:00,19.9591346,73.7788008,CO,10,16,14
India,Gujarat,Vapi,"Phase-1 GIDC, Vapi - GPCB",26-10-2025 21:00:00,20.362421,72.918013,SO2,43,45,44
India,Maharashtra,Navi Mumbai,"Kopripada-Vashi, Navi Mumbai - MPCB",26-10-2025 21:00:00,19.090337,73.014232,PM10,19,29,26
India,Maharashtra,Navi Mumbai,"Kopripada-Vashi, Navi Mumbai - MPCB",26-10-2025 21:00:00,19.090337,73.014232,NO2,7,16,15
India,Maharashtra,Navi Mumbai,"Kopripada-Vashi, Navi Mumbai - MPCB",26-10-2025 21:00:00,19.090337,73.014232,NH3,2,5,5
India,Gujarat,Vatva,"Phase-4 GIDC, Vatva - GPCB",26-10-2025 21:00:00,22.969611,72.643500,NO2,25,26,25
India,Maharashtra,Pimpri-Chinchwad,"Park Street Wakad, Pimpri Chinchwad - MPCB",26-10-2025 21:00:00,18.59051,73.77946,NO2,8,13,13
India,Maharashtra,Pimpri-Chinchwad,"Savta Mali Nagar, Pimpri-Chinchwad - IITM",26-10-2025 21:00:00,18.614767,73.799516,PM2.5,11,24,24
India,Maharashtra,Pimpri-Chinchwad,"Savta Mali Nagar, Pimpri-Chinchwad - IITM",26-10-2025 21:00:00,18.614767,73.799516,PM10,21,34,37
India,Maharashtra,Pimpri-Chinchwad,"Savta Mali Nagar, Pimpri-Chinchwad - IITM",26-10-2025 21:00:00,18.614767,73.799516,NO2,20,29,32
India,Haryana,Faridabad,"New Industrial Town, Faridabad - HSPCB",26-10-2025 21:00:00,28.39072,77.30059,OZONE,25,33,30
India,Maharashtra,Pimpri-Chinchwad,"Thergaon, Pimpri Chinchwad - MPCB",26-10-2025 21:00:00,18.616318,73.765797,PM2.5,41,54,47
India,Maharashtra,Pimpri-Chinchwad,"Thergaon, Pimpri Chinchwad - MPCB",26-10-2025 21:00:00,18.616318,73.765797,PM10,74,80,83
India,Maharashtra,Pimpri-Chinchwad,"Thergaon, Pimpri Chinchwad - MPCB",26-10-2025 21:00:00,18.616318,73.765797,NO2,9,23,19
India,Haryana,Faridabad,"Sector 30, Faridabad - HSPCB",26-10-2025 21:00:00,28.4417,77.3217,NH3,10,11,11
India,Haryana,Faridabad,"Sector 30, Faridabad - HSPCB",26-10-2025 21:00:00,28.4417,77.3217,SO2,6,6,6
India,Maharashtra,Pune,"Hadapsar, Pune - IITM",26-10-2025 21:00:00,18.501793,73.927532,PM2.5,19,55,29
India,Maharashtra,Mumbai,"Powai, Mumbai - MPCB",26-10-2025 21:00:00,19.137500,72.915056,CO,16,16,16
India,Maharashtra,Mumbai,"Sewri, Mumbai - BMC",26-10-2025 21:00:00,19.000084,72.856730,PM2.5,3,13,5
India,Gujarat,Ahmedabad,"Chandkheda, Ahmedabad - IITM",26-10-2025 21:00:00,23.107969,72.574648,PM2.5,33,66,72
India,Maharashtra,Mumbai,"Shivaji Nagar, Mumbai - BMC",26-10-2025 21:00:00,19.060498,72.923356,NO2,16,23,22
India,Gujarat,Ahmedabad,"Chandkheda, Ahmedabad - IITM",26-10-2025 21:00:00,23.107969,72.574648,CO,25,36,29
India,Maharashtra,Mumbai,"Shivaji Nagar, Mumbai - BMC",26-10-2025 21:00:00,19.060498,72.923356,OZONE,3,17,11
India,Maharashtra,Mumbai,"Siddharth Nagar-Worli, Mumbai - IITM",26-10-2025 21:00:00,19.000083,72.813993,NO2,32,52,43
India,Maharashtra,Mumbai,"Siddharth Nagar-Worli, Mumbai - IITM",26-10-2025 21:00:00,19.000083,72.813993,CO,30,40,35
India,Gujarat,Ahmedabad,"Gyaspur, Ahmedabad - IITM",26-10-2025 21:00:00,22.977134,72.553024,OZONE,13,23,19
India,Gujarat,Ahmedabad,"Maninagar, Ahmedabad - GPCB",26-10-2025 21:00:00,23.002657,72.591912,PM2.5,29,72,74
India,Maharashtra,Nagpur,"Mahal, Nagpur - MPCB",26-10-2025 21:00:00,21.14472,79.107595,PM2.5,44,59,48
India,Maharashtra,Nagpur,"Mahal, Nagpur - MPCB",26-10-2025 21:00:00,21.14472,79.107595,PM10,37,49,42
India,Gujarat,Ahmedabad,"SAC ISRO Satellite, Ahmedabad - IITM",26-10-2025 21:00:00,23.023389,72.515201,NO2,21,25,27
India,Maharashtra,Nagpur,"Mahal, Nagpur - MPCB",26-10-2025 21:00:00,21.14472,79.107595,NH3,2,2,2
India,Gujarat,Ahmedabad,"SVPI Airport Hansol, Ahmedabad - IITM",26-10-2025 21:00:00,23.076793,72.627874,PM2.5,19,44,52
India,Maharashtra,Nagpur,"Opp GPO Civil Lines, Nagpur - MPCB",26-10-2025 21:00:00,21.152875,79.0517531,PM10,32,43,37
India,Gujarat,Ahmedabad,"SVPI Airport Hansol, Ahmedabad - IITM",26-10-2025 21:00:00,23.076793,72.627874,NO2,41,51,53
India,Gujarat,Ahmedabad,"SVPI Airport Hansol, Ahmedabad - IITM",26-10-2025 21:00:00,23.076793,72.627874,NH3,2,2,2
India,Gujarat,Ankleshwar,"GIDC, Ankleshwar - GPCB",26-10-2025 21:00:00,21.613267,73.010555,PM10,7,30,27
India,Gujarat,Ankleshwar,"GIDC, Ankleshwar - GPCB",26-10-2025 21:00:00,21.613267,73.010555,SO2,65,65,65
India,Maharashtra,Navi Mumbai,"Nerul, Navi Mumbai - MPCB",26-10-2025 21:00:00,19.008751,73.016620,SO2,NA,NA,NA
India,Haryana,Ambala,"Patti Mehar, Ambala - HSPCB",26-10-2025 21:00:00,30.379589,76.778328,CO,102,105,103
India,Haryana,Bahadurgarh,"Arya Nagar, Bahadurgarh - HSPCB",26-10-2025 21:00:00,28.6701,76.9254,PM2.5,204,332,301
India,Haryana,Bahadurgarh,"Arya Nagar, Bahadurgarh - HSPCB",26-10-2025 21:00:00,28.6701,76.9254,OZONE,13,19,17
India,Maharashtra,Navi Mumbai,"Sector-2E Kalamboli, Navi Mumbai - MPCB",26-10-2025 21:00:00,19.02579,73.10297,PM2.5,22,38,31
India,Maharashtra,Navi Mumbai,"Sector-2E Kalamboli, Navi Mumbai - MPCB",26-10-2025 21:00:00,19.02579,73.10297,PM10,23,47,40
India,Haryana,Ballabgarh,"Nathu Colony, Ballabgarh - HSPCB",26-10-2025 21:00:00,28.3419248,77.319699,PM10,270,293,280
India,Maharashtra,Nanded,"Sneh Nagar, Nanded - MPCB",26-10-2025 21:00:00,19.173852,77.296291,NO2,16,18,16
India,Gujarat,Gandhinagar,"GIFT City, Gandhinagar - IITM",26-10-2025 21:00:00,23.163798,72.677768,CO,39,49,42
India,Maharashtra,Nashik,"Gangapur Road, Nashik - MPCB",26-10-2025 21:00:00,20.0073285,73.7762427,NH3,4,4,4
India,Gujarat,Gandhinagar,"IIPHG Lekawada, Gandhinagar - IITM",26-10-2025 21:00:00,23.243639,72.68994,OZONE,14,18,16
India,Maharashtra,Nashik,"Hirawadi, Nashik - MPCB",26-10-2025 21:00:00,20.021503,73.813844,PM2.5,17,46,19
India,Maharashtra,Nashik,"Hirawadi, Nashik - MPCB",26-10-2025 21:00:00,20.021503,73.813844,NO2,3,6,4
India,Maharashtra,Nashik,"Hirawadi, Nashik - MPCB",26-10-2025 21:00:00,20.021503,73.813844,CO,50,52,51
India,Maharashtra,Mumbai,"Sion, Mumbai - MPCB",26-10-2025 21:00:00,19.047000,72.874600,NO2,10,11,11
India,Maharashtra,Mumbai,"Sion, Mumbai - MPCB",26-10-2025 21:00:00,19.047000,72.874600,CO,14,18,16
India,Gujarat,Ahmedabad,"Raikhad, Ahmedabad - IITM",26-10-2025 21:00:00,23.020509,72.579261,PM10,44,65,79
India,Maharashtra,Mumbai,"Vasai West, Mumbai - MPCB",26-10-2025 21:00:00,19.383200,72.820400,NH3,3,4,4
India,Maharashtra,Mumbai,"Vasai West, Mumbai - MPCB",26-10-2025 21:00:00,19.383200,72.820400,CO,48,48,48
India,Maharashtra,Mumbai,"Vile Parle West, Mumbai - MPCB",26-10-2025 21:00:00,19.10861,72.83622,NO2,17,30,28
India,Maharashtra,Pune,"Mhada Colony, Pune - IITM",26-10-2025 21:00:00,18.573040,73.927715,NO2,24,28,29
India,Haryana,Gurugram,"Sector-51, Gurugram - HSPCB",26-10-2025 21:00:00,28.4227,77.0667,PM2.5,91,301,267
India,Haryana,Gurugram,"Sector-51, Gurugram - HSPCB",26-10-2025 21:00:00,28.4227,77.0667,NO2,7,16,12
India,Haryana,Gurugram,"Sector-51, Gurugram - HSPCB",26-10-2025 21:00:00,28.4227,77.0667,SO2,11,14,13
India,Maharashtra,Pune,"Revenue Colony-Shivajinagar, Pune - IITM",26-10-2025 21:00:00,18.530085,73.849598,CO,50,112,82
India,Odisha,Barbil,"Forest Office, Barbil - OSPCB",26-10-2025 21:00:00,22.1166054,85.3945546,OZONE,4,22,16
India,Odisha,Baripada,"Meher Colony, Baripada - OSPCB",26-10-2025 21:00:00,21.941841,86.728318,NH3,3,4,3
India,Haryana,Sirsa,"F-Block, Sirsa - HSPCB",26-10-2025 21:00:00,29.536400,75.015800,PM10,92,120,143
India,Odisha,Bhubaneswar,"Lingraj Mandir, Bhubaneswar - OSPCB",26-10-2025 21:00:00,20.240790,85.836784,PM10,33,92,46
India,Haryana,Sonipat,"Murthal, Sonipat - HSPCB",26-10-2025 21:00:00,29.027200,77.062100,PM2.5,99,321,225
India,Haryana,Sonipat,"Murthal, Sonipat - HSPCB",26-10-2025 21:00:00,29.027200,77.062100,PM10,128,229,192
India,Odisha,Bhubaneswar,"Patia, Bhubaneswar - OSPCB",26-10-2025 21:00:00,20.34652,85.81630,PM2.5,35,63,50
India,Haryana,Sonipat,"Murthal, Sonipat - HSPCB",26-10-2025 21:00:00,29.027200,77.062100,SO2,6,12,8
India,Haryana,Sonipat,"Murthal, Sonipat - HSPCB",26-10-2025 21:00:00,29.027200,77.062100,CO,36,38,37
India,Odisha,Bhubaneswar,"Patia, Bhubaneswar - OSPCB",26-10-2025 21:00:00,20.34652,85.81630,SO2,5,7,5
India,Himachal Pradesh,Baddi,"HIMUDA Complex Phase-1, Baddi - HPPCB",26-10-2025 21:00:00,30.943887,76.801991,NH3,2,4,3
India,Jammu_and_Kashmir,Srinagar,"Rajbagh, Srinagar - JKSPCB",26-10-2025 21:00:00,34.066206,74.819820,PM10,66,97,79
India,Odisha,Bileipada,"Tata Township, Bileipada - OSPCB",26-10-2025 21:00:00,22.06156703,85.47409613,OZONE,11,14,13
India,Odisha,Brajrajnagar,"GM Office, Brajrajnagar - OSPCB",26-10-2025 21:00:00,21.8004996,83.8396977,PM2.5,29,49,66
India,Odisha,Brajrajnagar,"GM Office, Brajrajnagar - OSPCB",26-10-2025 21:00:00,21.8004996,83.8396977,PM10,41,68,83
India,Odisha,Brajrajnagar,"GM Office, Brajrajnagar - OSPCB",26-10-2025 21:00:00,21.8004996,83.8396977,NO2,3,19,16
India,Odisha,Brajrajnagar,"GM Office, Brajrajnagar - OSPCB",26-10-2025 21:00:00,21.8004996,83.8396977,OZONE,25,28,26
India,Jharkhand,Dhanbad,"Sardar Patel Nagar, Dhanbad - JSPCB",26-10-2025 21:00:00,23.80569,86.44268,OZONE,1,36,20
India,Odisha,Byasanagar,"Ferro Chrome Colony, Byasanagar - OSPCB",26-10-2025 21:00:00,20.94185,86.11510,NO2,4,16,10
India,Karnataka,Belgaum,"Ramteerth Nagar, Belgaum - KSPCB",26-10-2025 21:00:00,15.888653,74.541751,NH3,NA,NA,NA
India,Karnataka,Bengaluru,"BTM Layout, Bengaluru - CPCB",26-10-2025 21:00:00,12.9135218,77.5950804,PM2.5,28,31,31
India,Haryana,Panchgaon,"Amity University, Panchgaon - IITM",26-10-2025 21:00:00,28.3153,76.9143,OZONE,22,101,76
India,Haryana,Panchkula,"Sector-6, Panchkula - HSPCB ",26-10-2025 21:00:00,30.7057778,76.8531805555555,NO2,23,26,25
India,Odisha,Angul,"Hakimapada, Angul - OSPCB",26-10-2025 21:00:00,20.832874,85.104082,SO2,8,47,15
India,Odisha,Angul,"Hakimapada, Angul - OSPCB",26-10-2025 21:00:00,20.832874,85.104082,OZONE,3,17,9
India,Odisha,Balasore,"Kalidaspur, Balasore - OSPCB",26-10-2025 21:00:00,21.51161,86.89088,SO2,5,6,5
India,Haryana,Panipat,"Sector-18, Panipat - HSPCB",26-10-2025 21:00:00,29.432304,76.972765,CO,15,70,54
India,Odisha,Barbil,"Forest Office, Barbil - OSPCB",26-10-2025 21:00:00,22.1166054,85.3945546,NO2,12,34,23
India,Haryana,Rohtak,"MD University, Rohtak - HSPCB",26-10-2025 21:00:00,28.52123,76.37138,PM2.5,NA,NA,NA
India,Odisha,Barbil,"Forest Office, Barbil - OSPCB",26-10-2025 21:00:00,22.1166054,85.3945546,CO,25,66,41
India,Karnataka,Bengaluru,"BTM Layout, Bengaluru - CPCB",26-10-2025 21:00:00,12.9135218,77.5950804,OZONE,24,24,24
India,Odisha,Keonjhar,"Jagamohanpur, Keonjhar - OSPCB",26-10-2025 21:00:00,21.643900,85.599355,PM2.5,123,133,132
India,Karnataka,Bengaluru,"BWSSB Kadabesanahalli, Bengaluru - CPCB",26-10-2025 21:00:00,12.9352049,77.6814488,OZONE,26,26,26
India,Odisha,Keonjhar,"Jagamohanpur, Keonjhar - OSPCB",26-10-2025 21:00:00,21.643900,85.599355,OZONE,17,20,18
India,Karnataka,Bengaluru,"Bapuji Nagar, Bengaluru - KSPCB",26-10-2025 21:00:00,12.951913,77.539784,NH3,1,1,1
India,Odisha,Nayagarh,"Dabuna, Nayagarh - OSPCB",26-10-2025 21:00:00,21.847279,85.416905,SO2,8,10,9
India,Odisha,Rairangpur,"Divisional Forest Office, Rairangpur - OSPCB",26-10-2025 21:00:00,22.265816,86.174829,NO2,16,21,17
India,Karnataka,Bengaluru,"City Railway Station, Bengaluru - KSPCB",26-10-2025 21:00:00,12.9756843,77.5660749,SO2,12,14,13
India,Haryana,Hisar,"Urban Estate-II, Hisar - HSPCB",26-10-2025 21:00:00,29.140560,75.744941,SO2,16,18,16
India,Haryana,Jind,"Police Lines, Jind - HSPCB",26-10-2025 21:00:00,29.307814,76.337619,NO2,12,14,13
India,Maharashtra,Pune,"Transport Nagar-Nigdi, Pune - IITM",26-10-2025 21:00:00,18.664282,73.763966,PM2.5,16,37,23
India,Haryana,Kaithal,"Rishi Nagar, Kaithal - HSPCB",26-10-2025 21:00:00,29.8006,76.4155,PM10,116,178,184
India,Maharashtra,Sangli,"Vijay Nagar, Sangli - MPCB",26-10-2025 21:00:00, 16.5038,74.3623,NO2,1,9,8
India,Maharashtra,Sangli,"Vijay Nagar, Sangli - MPCB",26-10-2025 21:00:00, 16.5038,74.3623,NH3,4,4,4
India,Haryana,Kaithal,"Rishi Nagar, Kaithal - HSPCB",26-10-2025 21:00:00,29.8006,76.4155,SO2,25,36,31
India,Maharashtra,Sangli,"Vijay Nagar, Sangli - MPCB",26-10-2025 21:00:00, 16.5038,74.3623,CO,28,30,28
India,Maharashtra,Solapur,"Dnyaneshwar Nagar, Solapur - MPCB",26-10-2025 21:00:00,17.6336264,75.9132495,NH3,7,13,9
India,Maharashtra,Ulhasnagar,"Sidhi Vinayak Nagar, Ulhasnagar - MPCB",26-10-2025 21:00:00,19.235581,73.159121,OZONE,14,68,40
India,Maharashtra,Virar,"Bolinj, Virar - MPCB",26-10-2025 21:00:00,19.4458210,72.7988231,SO2,2,3,2
India,Haryana,Narnaul,"Shastri Nagar, Narnaul - HSPCB",26-10-2025 21:00:00,28.060249,76.113115,PM10,51,68,56
India,Haryana,Narnaul,"Shastri Nagar, Narnaul - HSPCB",26-10-2025 21:00:00,28.060249,76.113115,NH3,7,10,10
India,Haryana,Narnaul,"Shastri Nagar, Narnaul - HSPCB",26-10-2025 21:00:00,28.060249,76.113115,SO2,24,25,24
India,Meghalaya,Shillong,"JN Stadium, Shillong - Meghalaya PCB",26-10-2025 21:00:00,25.5803419,91.8942571,NH3,13,22,15
India,Meghalaya,Shillong,"Lumpyngngad, Shillong - Meghalaya PCB",26-10-2025 21:00:00,25.5586,91.8985,PM10,9,20,15
India,Nagaland,Kohima,"PWD Junction, Kohima - NPCB",26-10-2025 21:00:00,25.6635413,94.0989878,CO,5,6,6
India,Odisha,Rairangpur,"Divisional Forest Office, Rairangpur - OSPCB",26-10-2025 21:00:00,22.265816,86.174829,OZONE,19,26,24
India,Karnataka,Bengaluru,"Hebbal, Bengaluru - KSPCB",26-10-2025 21:00:00,13.029152,77.585901,SO2,1,6,3
India,Karnataka,Bengaluru,"Hebbal, Bengaluru - KSPCB",26-10-2025 21:00:00,13.029152,77.585901,OZONE,7,9,8
India,Karnataka,Bengaluru,"Hombegowda Nagar, Bengaluru - KSPCB",26-10-2025 21:00:00,12.938539,77.590100,SO2,5,11,9
India,Odisha,Rourkela,"Raghunathpali, Rourkela - OSPCB",26-10-2025 21:00:00,22.220833,84.809444,OZONE,36,81,58
India,Odisha,Talcher,"Talcher Coalfields,Talcher - OSPCB",26-10-2025 21:00:00,20.9360711,85.1707021,PM2.5,33,97,57
India,Odisha,Talcher,"Talcher Coalfields,Talcher - OSPCB",26-10-2025 21:00:00,20.9360711,85.1707021,OZONE,2,7,2
India,Karnataka,Bengaluru,"Jigani, Bengaluru - KSPCB",26-10-2025 21:00:00,12.7816279,77.6299145,PM2.5,39,52,44
India,Odisha,Tensa,"Barsua Iron Ore Mines, Tensa - OSPCB",26-10-2025 21:00:00,21.869985,85.167016,CO,32,38,35
India,Karnataka,Bengaluru,"Kasturi Nagar, Bengaluru - KSPCB",26-10-2025 21:00:00,13.003872,77.664217,NH3,4,4,4
India,Puducherry,Puducherry,"Jawahar Nagar, Puducherry - PPCC",26-10-2025 21:00:00,11.9309,79.8027,PM2.5,9,51,27
India,Karnataka,Bengaluru,"Kasturi Nagar, Bengaluru - KSPCB",26-10-2025 21:00:00,13.003872,77.664217,OZONE,23,24,24
India,Karnataka,Bengaluru,"Peenya, Bengaluru - CPCB",26-10-2025 21:00:00,13.0270199,77.494094,PM10,67,76,79
India,Karnataka,Bengaluru,"Peenya, Bengaluru - CPCB",26-10-2025 21:00:00,13.0270199,77.494094,CO,33,42,36
India,Karnataka,Bengaluru,"Peenya, Bengaluru - CPCB",26-10-2025 21:00:00,13.0270199,77.494094,OZONE,22,23,22
India,Karnataka,Bengaluru,"Sanegurava Halli, Bengaluru - KSPCB",26-10-2025 21:00:00,12.990328,77.5431385,PM10,50,52,50
India,Haryana,Kurukshetra,"Sector-7, Kurukshetra - HSPCB",26-10-2025 21:00:00,29.966942,76.875879,PM10,115,180,182
India,Haryana,Kurukshetra,"Sector-7, Kurukshetra - HSPCB",26-10-2025 21:00:00,29.966942,76.875879,CO,18,30,26
India,Maharashtra,Ulhasnagar,"Sidhi Vinayak Nagar, Ulhasnagar - MPCB",26-10-2025 21:00:00,19.235581,73.159121,PM2.5,15,27,22
India,Haryana,Mandikhera,"General Hospital, Mandikhera - HSPCB",26-10-2025 21:00:00,27.9002,76.9938,NH3,12,16,14
India,Maharashtra,Ulhasnagar,"Sidhi Vinayak Nagar, Ulhasnagar - MPCB",26-10-2025 21:00:00,19.235581,73.159121,NO2,21,29,19
India,Haryana,Mandikhera,"General Hospital, Mandikhera - HSPCB",26-10-2025 21:00:00,27.9002,76.9938,OZONE,16,16,16
India,Karnataka,Chamarajanagar,"Urban, Chamarajanagar - KSPCB",26-10-2025 21:00:00,11.55358,76.55521,PM2.5,29,39,37
India,Karnataka,Chamarajanagar,"Urban, Chamarajanagar - KSPCB",26-10-2025 21:00:00,11.55358,76.55521,PM10,44,50,49
India,Punjab,Ludhiana,"Punjab Agricultural University, Ludhiana - PPCB",26-10-2025 21:00:00,30.9028,75.8086,PM10,154,173,160
India,Punjab,Ludhiana,"Punjab Agricultural University, Ludhiana - PPCB",26-10-2025 21:00:00,30.9028,75.8086,CO,34,72,57
India,Punjab,Mandi Gobindgarh,"RIMT University, Mandi Gobindgarh - PPCB",26-10-2025 21:00:00,30.649961,76.331442,PM10,105,131,116
India,Punjab,Mandi Gobindgarh,"RIMT University, Mandi Gobindgarh - PPCB",26-10-2025 21:00:00,30.649961,76.331442,CO,54,112,76
India,Karnataka,Chikkamagaluru,"Kalyana Nagara, Chikkamagaluru - KSPCB",26-10-2025 21:00:00,13.328028,75.797056,SO2,3,6,3
India,Karnataka,Chikkamagaluru,"Kalyana Nagara, Chikkamagaluru - KSPCB",26-10-2025 21:00:00,13.328028,75.797056,CO,11,11,11
India,Punjab,Patiala,"Model Town, Patiala - PPCB",26-10-2025 21:00:00,30.349388,76.366642,PM10,101,148,138
India,Karnataka,Chikkamagaluru,"Kalyana Nagara, Chikkamagaluru - KSPCB",26-10-2025 21:00:00,13.328028,75.797056,OZONE,14,44,22
India,Punjab,Patiala,"Model Town, Patiala - PPCB",26-10-2025 21:00:00,30.349388,76.366642,SO2,9,16,13
India,Karnataka,Davanagere,"Devaraj Urs Badavane, Davanagere - KSPCB",26-10-2025 21:00:00,14.475800,75.905200,OZONE,21,25,23
India,Karnataka,Dharwad,"Kalabhavan, Dharwad - KSPCB",26-10-2025 21:00:00,15.459706,75.008381,PM2.5,42,46,45
India,Punjab,Rupnagar,"Ratanpura, Rupnagar - Ambuja Cements",26-10-2025 21:00:00,31.0325454,76.5623046,SO2,12,15,13
India,Karnataka,Mysuru,"Hebbal 1st Stage, Mysuru - KSPCB",26-10-2025 21:00:00,12.21041,76.37376,CO,6,14,11
India,Rajasthan,Bhiwadi,"RIICO Ind. Area III, Bhiwadi - RSPCB",26-10-2025 21:00:00,28.194909,76.862296,NO2,26,29,43
India,Karnataka,Ramanagara,"Vijay Nagar, Ramanagara - KSPCB",26-10-2025 21:00:00,12.733409,77.298051,NO2,46,58,54
India,Rajasthan,Bhiwadi,"RIICO Ind. Area III, Bhiwadi - RSPCB",26-10-2025 21:00:00,28.194909,76.862296,CO,54,111,86
India,Karnataka,Shivamogga,"Vinoba Nagara, Shivamogga - KSPCB",26-10-2025 21:00:00,13.940000,75.555917,PM10,36,48,38
India,Rajasthan,Bhiwadi,"Vasundhara Nagar_UIT, Bhiwadi - RSPCB",26-10-2025 21:00:00,28.207266,76.829265,PM10,91,318,257
India,Karnataka,Shivamogga,"Vinoba Nagara, Shivamogga - KSPCB",26-10-2025 21:00:00,13.940000,75.555917,OZONE,10,20,16
India,Karnataka,Vijayapura,"Ibrahimpur, Vijayapura - KSPCB",26-10-2025 21:00:00,16.802639,75.722694,PM2.5,30,31,30
India,Karnataka,Vijayapura,"Ibrahimpur, Vijayapura - KSPCB",26-10-2025 21:00:00,16.802639,75.722694,PM10,42,43,43
India,Karnataka,Vijayapura,"Ibrahimpur, Vijayapura - KSPCB",26-10-2025 21:00:00,16.802639,75.722694,NO2,11,12,11
India,Rajasthan,Bikaner,"MM Ground, Bikaner - RSPCB",26-10-2025 21:00:00,28.018792,73.292658,NO2,68,97,81
India,Karnataka,Vijayapura,"Ibrahimpur, Vijayapura - KSPCB",26-10-2025 21:00:00,16.802639,75.722694,OZONE,16,17,16
India,Rajasthan,Bikaner,"MM Ground, Bikaner - RSPCB",26-10-2025 21:00:00,28.018792,73.292658,CO,46,79,57
India,Rajasthan,Bikaner,"MM Ground, Bikaner - RSPCB",26-10-2025 21:00:00,28.018792,73.292658,OZONE,56,128,93
India,Madhya Pradesh,Bhopal,"Paryavaran Parisar, Bhopal - MPPCB",26-10-2025 21:00:00,23.210494,77.425409,PM10,37,73,58
India,Madhya Pradesh,Bhopal,"Paryavaran Parisar, Bhopal - MPPCB",26-10-2025 21:00:00,23.210494,77.425409,NH3,5,5,5
India,Madhya Pradesh,Bhopal,"Paryavaran Parisar, Bhopal - MPPCB",26-10-2025 21:00:00,23.210494,77.425409,SO2,6,20,9
India,Rajasthan,Hanumangarh,"Housing Board, Hanumangarh - RSPCB",26-10-2025 21:00:00,29.610750,74.283608,NH3,9,23,13
India,Madhya Pradesh,Bhopal,"T T Nagar, Bhopal - MPPCB",26-10-2025 21:00:00,23.233584,77.400574,NH3,5,6,5
India,Rajasthan,Jaipur,"Adarsh Nagar, Jaipur - RSPCB",26-10-2025 21:00:00,26.902909,75.836858,PM10,92,105,97
India,Madhya Pradesh,Damoh,"Shrivastav Colony, Damoh - MPPCB",26-10-2025 21:00:00,23.81748678,79.446246,PM10,34,52,50
India,Rajasthan,Jaipur,"Adarsh Nagar, Jaipur - RSPCB",26-10-2025 21:00:00,26.902909,75.836858,OZONE,46,83,69
India,Rajasthan,Jaipur,"Mansarovar Sector-12, Jaipur - RSPCB",26-10-2025 21:00:00,26.843698,75.766894,PM10,125,165,127
India,Rajasthan,Jaipur,"Mansarovar Sector-12, Jaipur - RSPCB",26-10-2025 21:00:00,26.843698,75.766894,NO2,12,36,41
India,Karnataka,Yadgir,"Collector Office, Yadgir - KSPCB",26-10-2025 21:00:00,16.7602,77.1428,CO,9,12,12
India,Kerala,Kannur,"Thavakkara, Kannur - Kerala PCB",26-10-2025 21:00:00,11.875000,75.373200,PM10,56,61,57
India,Rajasthan,Chittorgarh,"Shastri Nagar, Chittorgarh - RSPCB",26-10-2025 21:00:00,24.892047,74.623527,PM2.5,133,352,220
India,Kerala,Kannur,"Thavakkara, Kannur - Kerala PCB",26-10-2025 21:00:00,11.875000,75.373200,NH3,2,2,2
India,Kerala,Thiruvananthapuram,"Kariavattom, Thiruvananthapuram - Kerala PCB",26-10-2025 21:00:00,8.563700,76.886500,NO2,6,7,6
India,Rajasthan,Churu,"Subash Chowk, Churu - RSPCB",26-10-2025 21:00:00,28.296139,74.961696,SO2,3,6,4
India,Rajasthan,Dausa,"Khatikan Mohalla, Dausa - RSPCB",26-10-2025 21:00:00,26.895552,76.334753,PM2.5,140,217,135
India,Kerala,Thiruvananthapuram,"Plammoodu, Thiruvananthapuram - Kerala PCB",26-10-2025 21:00:00,8.5149093,76.9435879,NO2,62,76,76
India,Rajasthan,Barmer,"Railway Colony, Barmer - RSPCB",26-10-2025 21:00:00,25.747299,71.393989,NH3,3,4,4
India,Karnataka,Koppal,"Diwator Nagar, Koppal - KSPCB",26-10-2025 21:00:00,15.347630,76.181767,NH3,6,7,7
India,Karnataka,Koppal,"Diwator Nagar, Koppal - KSPCB",26-10-2025 21:00:00,15.347630,76.181767,SO2,24,33,31
India,Karnataka,Koppal,"Diwator Nagar, Koppal - KSPCB",26-10-2025 21:00:00,15.347630,76.181767,CO,28,31,30
India,Rajasthan,Barmer,"Railway Colony, Barmer - RSPCB",26-10-2025 21:00:00,25.747299,71.393989,CO,22,30,27
India,Rajasthan,Barmer,"Railway Colony, Barmer - RSPCB",26-10-2025 21:00:00,25.747299,71.393989,OZONE,62,110,84
India,Karnataka,Madikeri,"Stuart Hill, Madikeri - KSPCB",26-10-2025 21:00:00,12.415911,75.735050,PM10,22,30,23
India,Karnataka,Mangalore,"Kadri, Mangalore - KSPCB",26-10-2025 21:00:00,12.889250,74.853000,NH3,1,2,2
India,Rajasthan,Bhilwara,"Pratap Nagar, Bhilwara - RSPCB",26-10-2025 21:00:00,25.339605,74.618883,SO2,1,8,9
India,Rajasthan,Bhilwara,"Pratap Nagar, Bhilwara - RSPCB",26-10-2025 21:00:00,25.339605,74.618883,CO,14,16,14
India,Rajasthan,Baran,"Bamboliya, Baran - RSPCB",26-10-2025 21:00:00,25.106006,76.469948,CO,35,42,39
India,Karnataka,Hubballi,"Lingaraj Nagar, Hubballi - KSPCB",26-10-2025 21:00:00,15.3714823,75.1160168,PM2.5,29,38,33
India,Karnataka,Hubballi,"Lingaraj Nagar, Hubballi - KSPCB",26-10-2025 21:00:00,15.3714823,75.1160168,PM10,37,45,40
India,Rajasthan,Barmer,"Railway Colony, Barmer - RSPCB",26-10-2025 21:00:00,25.747299,71.393989,PM10,81,128,107
India,Karnataka,Hubballi,"Lingaraj Nagar, Hubballi - KSPCB",26-10-2025 21:00:00,15.3714823,75.1160168,NH3,2,2,2
India,Karnataka,Kalaburagi,"Lal Bahadur Shastri Nagar, Kalaburagi - KSPCB",26-10-2025 21:00:00,17.321993,76.822628,SO2,59,83,65
India,Karnataka,Kalaburagi,"Lal Bahadur Shastri Nagar, Kalaburagi - KSPCB",26-10-2025 21:00:00,17.321993,76.822628,CO,34,38,36
India,Karnataka,Kalaburagi,"Mahatma Basaveswar Colony, Kalaburgi - KSPCB",26-10-2025 21:00:00,17.336318,76.847397,PM10,29,49,42
India,Rajasthan,Ajmer,"Civil Lines,  Ajmer - RSPCB",26-10-2025 21:00:00,26.470859,74.646594,NO2,28,33,31
India,Karnataka,Gadag,"Panchal Nagar, Gadag - KSPCB",26-10-2025 21:00:00,15.411456,75.638133,PM2.5,NA,NA,NA
India,Karnataka,Hassan,"B.Katihalli, Hassan - KSPCB",26-10-2025 21:00:00,13.008556,76.125258,NO2,6,19,14
India,Rajasthan,Banswara,"Rati Talai, Banswara - RSPCB",26-10-2025 21:00:00,23.555190,74.440010,NO2,NA,NA,NA
India,Rajasthan,Banswara,"Rati Talai, Banswara - RSPCB",26-10-2025 21:00:00,23.555190,74.440010,NH3,NA,NA,NA
India,Karnataka,Hassan,"B.Katihalli, Hassan - KSPCB",26-10-2025 21:00:00,13.008556,76.125258,OZONE,2,21,12
India,Rajasthan,Banswara,"Rati Talai, Banswara - RSPCB",26-10-2025 21:00:00,23.555190,74.440010,SO2,NA,NA,NA
India,Karnataka,Haveri,"Ashwini Nagar, Haveri - KSPCB",26-10-2025 21:00:00,14.791800,75.389600,PM2.5,NA,NA,NA
India,Rajasthan,Baran,"Bamboliya, Baran - RSPCB",26-10-2025 21:00:00,25.106006,76.469948,NH3,9,13,10
India,Kerala,Thiruvananthapuram,"Plammoodu, Thiruvananthapuram - Kerala PCB",26-10-2025 21:00:00,8.5149093,76.9435879,CO,7,11,9
India,Rajasthan,Dholpur,"Raja Ganj, Dholpur - RSPCB",26-10-2025 21:00:00,26.699557,77.898881,PM2.5,78,273,115
India,Kerala,Thrissur,"Corporation Ground, Thrissur - Kerala PCB",26-10-2025 21:00:00,10.532400,76.215900,NO2,9,10,10
India,Kerala,Thrissur,"Corporation Ground, Thrissur - Kerala PCB",26-10-2025 21:00:00,10.532400,76.215900,SO2,1,1,1
India,Kerala,Thrissur,"Corporation Ground, Thrissur - Kerala PCB",26-10-2025 21:00:00,10.532400,76.215900,CO,17,21,18
India,Madhya Pradesh,Bhopal,"Idgah Hills, Bhopal - MPPCB",26-10-2025 21:00:00,23.264759,77.381568,PM10,56,109,75
India,Madhya Pradesh,Bhopal,"Idgah Hills, Bhopal - MPPCB",26-10-2025 21:00:00,23.264759,77.381568,CO,16,29,22
India,Rajasthan,Dholpur,"Raja Ganj, Dholpur - RSPCB",26-10-2025 21:00:00,26.699557,77.898881,OZONE,27,36,31
India,Karnataka,Bengaluru,"Sanegurava Halli, Bengaluru - KSPCB",26-10-2025 21:00:00,12.990328,77.5431385,SO2,7,7,7
India,Punjab,Bathinda,"Hardev Nagar, Bathinda - PPCB",26-10-2025 21:00:00,30.233011,74.907758,CO,76,80,78
India,Karnataka,Bengaluru,"Shivapura_Peenya, Bengaluru - KSPCB",26-10-2025 21:00:00,13.0246342,77.5080115,SO2,9,10,10
India,Punjab,Khanna,"Kalal Majra, Khanna - PPCB",26-10-2025 21:00:00,30.736056 ,76.209694,PM2.5,98,175,123
India,Punjab,Khanna,"Kalal Majra, Khanna - PPCB",26-10-2025 21:00:00,30.736056 ,76.209694,NO2,26,29,28
India,Punjab,Khanna,"Kalal Majra, Khanna - PPCB",26-10-2025 21:00:00,30.736056 ,76.209694,NH3,7,7,7
India,Rajasthan,Jodhpur,"Samrat Ashok Udhyan, Jodhpur - RSPCB",26-10-2025 21:00:00,26.253384,72.976571,PM2.5,57,123,78
India,Madhya Pradesh,Maihar,"Sahilara, Maihar - KJS Cements",26-10-2025 21:00:00,24.2613009,80.7231783,CO,14,16,15
India,Rajasthan,Jodhpur,"Samrat Ashok Udhyan, Jodhpur - RSPCB",26-10-2025 21:00:00,26.253384,72.976571,PM10,91,127,103
India,Madhya Pradesh,Mandideep,"Sector-D Industrial Area, Mandideep - MPPCB",26-10-2025 21:00:00,23.108440,77.511428,CO,22,28,25
India,Rajasthan,Karauli,"Satyawati Vihar, Karauli - RSPCB",26-10-2025 21:00:00,26.506177,77.025989,PM10,130,186,145
India,Madhya Pradesh,Pithampur,"Sector-2 Industrial Area, Pithampur - MPPCB",26-10-2025 21:00:00,22.624758,75.675238,NO2,17,19,20
India,Madhya Pradesh,Pithampur,"Sector-2 Industrial Area, Pithampur - MPPCB",26-10-2025 21:00:00,22.624758,75.675238,OZONE,21,26,23
India,Rajasthan,Kota,"Dhanmandi, Kota - RSPCB",26-10-2025 21:00:00,25.164090,75.858137,PM10,109,118,125
India,Madhya Pradesh,Ratlam,"Shasthri Nagar, Ratlam - IPCA Lab",26-10-2025 21:00:00,23.331731,75.045981,NO2,38,39,41
India,Madhya Pradesh,Ratlam,"Shasthri Nagar, Ratlam - IPCA Lab",26-10-2025 21:00:00,23.331731,75.045981,SO2,40,43,39
India,Madhya Pradesh,Sagar,"Civil Lines, Sagar - MPPCB",26-10-2025 21:00:00,23.838586,78.759431,PM2.5,140,198,133
India,Maharashtra,Ahmednagar,"Tarakpur, Ahmednagar - MPCB",26-10-2025 21:00:00,19.10122,74.73339,SO2,NA,NA,NA
India,Rajasthan,Pali,"Indira Colony Vistar, Pali - RSPCB",26-10-2025 21:00:00,25.771061, 73.340227,NH3,7,9,8
India,Maharashtra,Akola,"Ramdaspeth, Akola - MPCB",26-10-2025 21:00:00,20.719516,77.000253,NO2,11,14,12
India,Maharashtra,Amravati,"Shivneri Colony, Amravati - MPCB",26-10-2025 21:00:00,20.9402359,77.7895248,SO2,12,14,13
India,Rajasthan,Rajsamand,"Dhoinda, Rajsamand - RSPCB",26-10-2025 21:00:00,25.036360,73.883502,CO,33,42,38
India,Rajasthan,Sawai Madhopur,"Sahu Nagar, Sawai Madhopur - RSPCB",26-10-2025 21:00:00,26.031443,76.359327,PM2.5,86,179,133
India,Maharashtra,Amravati,"Shri Shivaji Science College, Amravati - MPCB",26-10-2025 21:00:00,20.939198,77.765701,NO2,5,7,8
India,Rajasthan,Sawai Madhopur,"Sahu Nagar, Sawai Madhopur - RSPCB",26-10-2025 21:00:00,26.031443,76.359327,NO2,12,24,35
India,Rajasthan,Sawai Madhopur,"Sahu Nagar, Sawai Madhopur - RSPCB",26-10-2025 21:00:00,26.031443,76.359327,NH3,11,12,10
India,Rajasthan,Jaipur,"Police Commissionerate, Jaipur - RSPCB",26-10-2025 21:00:00,26.9164092,75.7994901,PM2.5,50,73,59
India,Madhya Pradesh,Gwalior,"City Center, Gwalior - MPPCB",26-10-2025 21:00:00,26.203442,78.193251,PM2.5,48,90,74
India,Rajasthan,Jaipur,"Police Commissionerate, Jaipur - RSPCB",26-10-2025 21:00:00,26.9164092,75.7994901,CO,55,70,62
India,Madhya Pradesh,Gwalior,"Deen Dayal Nagar, Gwalior - MPPCB",26-10-2025 21:00:00,26.259242,78.216432,PM2.5,150,308,210
India,Madhya Pradesh,Gwalior,"Deen Dayal Nagar, Gwalior - MPPCB",26-10-2025 21:00:00,26.259242,78.216432,NO2,27,35,44
India,Madhya Pradesh,Gwalior,"Deen Dayal Nagar, Gwalior - MPPCB",26-10-2025 21:00:00,26.259242,78.216432,NH3,7,8,7
India,Rajasthan,Jaipur,"RIICO Sitapura, Jaipur - RSPCB",26-10-2025 21:00:00,26.786682,75.827928,CO,28,32,31
India,Rajasthan,Jaipur,"RIICO Sitapura, Jaipur - RSPCB",26-10-2025 21:00:00,26.786682,75.827928,OZONE,93,155,126
India,Rajasthan,Jaipur,"Sector-2 Murlipura, Jaipur - RSPCB",26-10-2025 21:00:00,26.960669,75.771817,NO2,17,34,43
India,Madhya Pradesh,Gwalior,"Maharaj Bada, Gwalior - MPPCB",26-10-2025 21:00:00,26.200388,78.147714,NO2,38,55,67
India,Rajasthan,Jodhpur,"Digari Kalan, Jodhpur - RSPCB",26-10-2025 21:00:00,26.295810,73.082283,CO,20,34,26
India,Madhya Pradesh,Jabalpur,"Suhagi, Jabalpur - JMC",26-10-2025 21:00:00,23.218135,79.957770,NO2,8,24,36
India,Madhya Pradesh,Katni,"Gole Bazar, Katni - MPPCB",26-10-2025 21:00:00,23.50016,80.23284,CO,41,48,44
India,Rajasthan,Jodhpur,"Mandor, Jodhpur - RSPCB",26-10-2025 21:00:00,26.358805,73.047444,NO2,7,31,13
India,Madhya Pradesh,Katni,"Gole Bazar, Katni - MPPCB",26-10-2025 21:00:00,23.50016,80.23284,OZONE,37,66,50
India,Madhya Pradesh,Maihar,"Sahilara, Maihar - KJS Cements",26-10-2025 21:00:00,24.2613009,80.7231783,PM2.5,22,122,85
India,Madhya Pradesh,Maihar,"Sahilara, Maihar - KJS Cements",26-10-2025 21:00:00,24.2613009,80.7231783,NO2,43,56,47
India,Madhya Pradesh,Maihar,"Sahilara, Maihar - KJS Cements",26-10-2025 21:00:00,24.2613009,80.7231783,SO2,16,17,17
India,Rajasthan,Kota,"Nayapura, Kota - RSPCB",26-10-2025 21:00:00,25.196024,75.855668,PM10,88,141,114
India,Rajasthan,Kota,"Nayapura, Kota - RSPCB",26-10-2025 21:00:00,25.196024,75.855668,CO,28,42,37
India,Rajasthan,Kota,"Nayapura, Kota - RSPCB",26-10-2025 21:00:00,25.196024,75.855668,OZONE,47,134,102
India,Rajasthan,Kota,"Shrinath Puram, Kota - RSPCB",26-10-2025 21:00:00,25.14389,75.821256,PM2.5,214,306,274
India,Madhya Pradesh,Singrauli,"Suryakiran Bhawan NCL, Singrauli - MPPCB",26-10-2025 21:00:00,24.108970,82.645580,OZONE,14,31,22
India,Rajasthan,Nagaur,"Karni Colony, Nagaur - RSPCB",26-10-2025 21:00:00,27.213494,73.734444,SO2,5,8,7
India,Rajasthan,Pali,"Indira Colony Vistar, Pali - RSPCB",26-10-2025 21:00:00,25.771061, 73.340227,PM2.5,85,180,113
India,Madhya Pradesh,Indore,"Residency Area, Indore - IMC",26-10-2025 21:00:00,22.7084,75.8815,NO2,12,17,16
India,Rajasthan,Jhalawar,"Rajlaxmi Nagar, Jhalawar - RSPCB",26-10-2025 21:00:00,24.588397,76.172782,NO2,34,46,36
India,Madhya Pradesh,Jabalpur,"Govindh Bhavan Colony, Jabalpur - JMC",26-10-2025 21:00:00,23.163174,79.973061,NH3,1,1,1
India,Rajasthan,Jhunjhunu,"Indra Nagar, Jhunjhunu - RSPCB",26-10-2025 21:00:00,28.108988,75.386577,PM2.5,47,211,105
India,Madhya Pradesh,Jabalpur,"Govindh Bhavan Colony, Jabalpur - JMC",26-10-2025 21:00:00,23.163174,79.973061,OZONE,5,8,6
India,Rajasthan,Jhunjhunu,"Indra Nagar, Jhunjhunu - RSPCB",26-10-2025 21:00:00,28.108988,75.386577,NH3,5,9,6
India,Rajasthan,Jhunjhunu,"Indra Nagar, Jhunjhunu - RSPCB",26-10-2025 21:00:00,28.108988,75.386577,OZONE,75,147,119
India,Maharashtra,Aurangabad,"More Chowk Waluj, Aurangabad - MPCB",26-10-2025 21:00:00,19.8389439,75.244448,NH3,10,11,11
India,Rajasthan,Sikar,"Radhakishan Pura, Sikar - RSPCB",26-10-2025 21:00:00,27.608912,75.153302,NH3,6,14,9
India,Rajasthan,Sikar,"Radhakishan Pura, Sikar - RSPCB",26-10-2025 21:00:00,27.608912,75.153302,SO2,6,11,7
India,Rajasthan,Sirohi,"Vedhaynath Colony, Sirohi - RSPCB",26-10-2025 21:00:00,24.885261,72.857549,PM2.5,82,240,79
India,Maharashtra,Aurangabad,"Rachnakar Colony, Aurangabad - MPCB",26-10-2025 21:00:00,19.863756,75.321188,SO2,6,26,17
India,Rajasthan,Sirohi,"Vedhaynath Colony, Sirohi - RSPCB",26-10-2025 21:00:00,24.885261,72.857549,NH3,1,4,2
India,Rajasthan,Jaipur,"Shastri Nagar, Jaipur - RSPCB",26-10-2025 21:00:00,26.9502929,75.730943,PM2.5,129,229,155
India,Madhya Pradesh,Indore,"Chhoti Gwaltoli, Indore - MPPCB",26-10-2025 21:00:00,22.4310,75.5213,NH3,4,5,5
India,Madhya Pradesh,Indore,"Chhoti Gwaltoli, Indore - MPPCB",26-10-2025 21:00:00,22.4310,75.5213,CO,20,32,23
India,Rajasthan,Jalore,"Mudtra Sili, Jalore - RSPCB",26-10-2025 21:00:00,25.344694,72.626208,PM10,87,125,101
India,Rajasthan,Jalore,"Mudtra Sili, Jalore - RSPCB",26-10-2025 21:00:00,25.344694,72.626208,SO2,6,13,7
India,Rajasthan,Tonk,"Shastri Nagar, Tonk - RSPCB",26-10-2025 21:00:00,26.159933,75.780517,SO2,2,3,2
India,Rajasthan,Udaipur,"Ashok Nagar, Udaipur - RSPCB",26-10-2025 21:00:00,24.5886166,73.6321397,NO2,23,44,69
India,Maharashtra,Bhiwandi,"Gokul Nagar, Bhiwandi - MPCB",26-10-2025 21:00:00,19.309073,73.057223,CO,16,23,19
India,Sikkim,Gangtok,"Zero Point GICI, Gangtok - SSPCB",26-10-2025 21:00:00,27.338530,88.614099,NH3,1,18,2
India,Maharashtra,Latur,"Sawe Wadi, Latur - MPCB",26-10-2025 21:00:00,18.39963,76.57452,PM10,22,26,28
India,TamilNadu,Chennai,"Velachery Res. Area, Chennai - CPCB",26-10-2025 21:00:00,13.0052189,80.2398125,OZONE,6,9,8
India,Maharashtra,Latur,"Sawe Wadi, Latur - MPCB",26-10-2025 21:00:00,18.39963,76.57452,CO,12,17,14
India,TamilNadu,Coimbatore,"PSG College of Arts and Science, Coimbatore - TNPCB",26-10-2025 21:00:00,11.0328,77.0349,PM10,37,60,41
India,Maharashtra,Mahad,"Kamble Tarf Birwadi, Mahad - MPCB",26-10-2025 21:00:00,18.1023399,73.4783687,PM10,54,105,94
India,TamilNadu,Coimbatore,"PSG College of Arts and Science, Coimbatore - TNPCB",26-10-2025 21:00:00,11.0328,77.0349,OZONE,5,6,5
India,TamilNadu,Coimbatore,"SIDCO Kurichi, Coimbatore - TNPCB",26-10-2025 21:00:00,10.942451,76.978996,OZONE,10,32,19
India,Maharashtra,Malegaon,"Mahesh Nagar, Malegaon - MPCB",26-10-2025 21:00:00,20.555712,74.529236,OZONE,17,30,22
India,TamilNadu,Cuddalore,"Kudikadu, Cuddalore - TNPCB",26-10-2025 21:00:00,11.6829898,79.7532099,NO2,19,19,19
India,Maharashtra,Mira-Bhayandar,"Bhayandar West, Mira-Bhayandar - MPCB",26-10-2025 21:00:00,19.296481,72.840923,PM2.5,10,30,17
India,Maharashtra,Mira-Bhayandar,"Bhayandar West, Mira-Bhayandar - MPCB",26-10-2025 21:00:00,19.296481,72.840923,PM10,23,55,32
India,Maharashtra,Mira-Bhayandar,"Bhayandar West, Mira-Bhayandar - MPCB",26-10-2025 21:00:00,19.296481,72.840923,NH3,3,4,4
India,TamilNadu,Dindigul,"Mendonsa Colony, Dindigul - TNPCB",26-10-2025 21:00:00,10.358535,77.984321,NO2,10,17,14
India,TamilNadu,Dindigul,"Mendonsa Colony, Dindigul - TNPCB",26-10-2025 21:00:00,10.358535,77.984321,SO2,20,23,22
India,Maharashtra,Mumbai,"Bandra Kurla Complex, Mumbai - IITM",26-10-2025 21:00:00,19.053536,72.84643,PM2.5,NA,NA,NA
India,TamilNadu,Gummidipoondi,"Anthoni Pillai Nagar, Gummidipoondi - TNPCB",26-10-2025 21:00:00,13.4127,80.1081,NH3,3,5,4
India,TamilNadu,Hosur,"SIPCOT Phase-1, Hosur - TNPCB",26-10-2025 21:00:00,12.746998,77.813811,NO2,1,2,2
India,Maharashtra,Mumbai,"Bandra Kurla Complex, Mumbai - MPCB",26-10-2025 21:00:00,19.065931,72.862131,PM10,53,77,55
India,Maharashtra,Mumbai,"Bandra Kurla Complex, Mumbai - MPCB",26-10-2025 21:00:00,19.065931,72.862131,SO2,1,5,4
India,TamilNadu,Kanchipuram,"Kilambi, Kanchipuram - TNPCB",26-10-2025 21:00:00,12.864618,79.659968,NH3,4,4,4
India,Maharashtra,Mumbai,"Borivali East, Mumbai - IITM",26-10-2025 21:00:00,19.23241,72.86895,PM10,83,315,101
India,TamilNadu,Kanchipuram,"Kilambi, Kanchipuram - TNPCB",26-10-2025 21:00:00,12.864618,79.659968,OZONE,8,9,9
India,Sikkim,Gangtok,"Zero Point GICI, Gangtok - SSPCB",26-10-2025 21:00:00,27.338530,88.614099,CO,1,4,3
India,Maharashtra,Chandrapur,"Chauhan Colony, Chandrapur - MPCB",26-10-2025 21:00:00,19.962900,79.298714,SO2,29,29,29
India,TamilNadu,Ariyalur,"Keelapalur, Ariyalur - TNPCB",26-10-2025 21:00:00,11.06825,79.07033,NO2,9,9,9
India,Maharashtra,Chandrapur,"Chauhan Colony, Chandrapur - MPCB",26-10-2025 21:00:00,19.962900,79.298714,OZONE,19,19,19
India,TamilNadu,Ariyalur,"Keelapalur, Ariyalur - TNPCB",26-10-2025 21:00:00,11.06825,79.07033,NH3,1,1,1
India,Maharashtra,Chandrapur,"MIDC Khutala, Chandrapur - MPCB",26-10-2025 21:00:00,19.9775302,79.2337086,PM10,25,144,103
India,TamilNadu,Chengalpattu,"Crescent University, Chengalpattu - TNPCB",26-10-2025 21:00:00,12.8777316,80.0834807,PM10,66,83,73
India,Maharashtra,Chandrapur,"MIDC Khutala, Chandrapur - MPCB",26-10-2025 21:00:00,19.9775302,79.2337086,NO2,8,22,15
India,TamilNadu,Chengalpattu,"Crescent University, Chengalpattu - TNPCB",26-10-2025 21:00:00,12.8777316,80.0834807,NH3,1,2,1
India,Maharashtra,Dhule,"Deopur, Dhule - MPCB",26-10-2025 21:00:00,20.918946,74.776388,PM10,38,72,42
India,Maharashtra,Dhule,"Deopur, Dhule - MPCB",26-10-2025 21:00:00,20.918946,74.776388,NO2,5,8,8
India,Maharashtra,Mumbai,"Borivali East, Mumbai - IITM",26-10-2025 21:00:00,19.23241,72.86895,NH3,5,5,5
India,TamilNadu,Karur,"Kamadenu Nagar, Karur - TNPCB",26-10-2025 21:00:00,10.967820,78.080882,PM2.5,20,36,26
India,TamilNadu,Karur,"Kamadenu Nagar, Karur - TNPCB",26-10-2025 21:00:00,10.967820,78.080882,PM10,20,66,31
India,TamilNadu,Karur,"Kamadenu Nagar, Karur - TNPCB",26-10-2025 21:00:00,10.967820,78.080882,NO2,5,6,6
India,Maharashtra,Mumbai,"Borivali East, Mumbai - MPCB",26-10-2025 21:00:00,19.2243333,72.8658113,SO2,26,28,29
India,Maharashtra,Mumbai,"Byculla, Mumbai - BMC",26-10-2025 21:00:00,18.9767,72.8380,PM10,33,39,33
India,TamilNadu,Madurai,"Uchapatti, Madurai - TNPCB",26-10-2025 21:00:00,9.865935,78.022669,SO2,6,35,11
India,Maharashtra,Mumbai,"Byculla, Mumbai - BMC",26-10-2025 21:00:00,18.9767,72.8380,CO,6,11,8
India,TamilNadu,Nagapattinam,"Velippalayam, Nagapattinam - TNPCB",26-10-2025 21:00:00,10.798548,79.838212,PM2.5,29,72,40
India,Maharashtra,Mumbai,"Chakala-Andheri East, Mumbai - IITM",26-10-2025 21:00:00,19.11074,72.86084,SO2,4,15,11
India,Maharashtra,Kalyan,"Khadakpada, Kalyan - MPCB",26-10-2025 21:00:00,19.25292,73.142019,OZONE,8,9,8
India,Maharashtra,Kalyan,"Pimpleshwar Mandir, Kalyan - MPCB",26-10-2025 21:00:00,19.192056,72.9585188,PM2.5,32,72,41
India,TamilNadu,Chennai,"Manali, Chennai - CPCB",26-10-2025 21:00:00,13.164544,80.26285,NO2,9,16,11
India,TamilNadu,Chennai,"Manali, Chennai - CPCB",26-10-2025 21:00:00,13.164544,80.26285,NH3,7,9,7
India,Maharashtra,Kalyan,"Pimpleshwar Mandir, Kalyan - MPCB",26-10-2025 21:00:00,19.192056,72.9585188,NO2,9,18,12
India,TamilNadu,Chennai,"Perungudi, Chennai - TNPCB",26-10-2025 21:00:00,12.9533,80.2357,PM2.5,23,54,43
India,Maharashtra,Kolhapur,"Shivaji University, Kolhapur - MPCB",26-10-2025 21:00:00,16.6870449,74.2505872,NH3,3,4,3
India,Maharashtra,Kolhapur,"Shivaji University, Kolhapur - MPCB",26-10-2025 21:00:00,16.6870449,74.2505872,OZONE,5,25,18
India,TamilNadu,Chennai,"Velachery Res. Area, Chennai - CPCB",26-10-2025 21:00:00,13.0052189,80.2398125,PM2.5,19,37,32
India,TamilNadu,Chennai,"Alandur Bus Depot, Chennai - CPCB",26-10-2025 21:00:00,12.9099161,80.1076538,NH3,3,7,4
India,Maharashtra,Jalgaon,"Prabhat Colony, Jalgaon - MPCB",26-10-2025 21:00:00,21.001264,75.565602,NO2,7,9,10
India,Maharashtra,Jalgaon,"Prabhat Colony, Jalgaon - MPCB",26-10-2025 21:00:00,21.001264,75.565602,NH3,2,3,2
India,TamilNadu,Chennai,"Arumbakkam, Chennai - TNPCB",26-10-2025 21:00:00,13.0664,80.2112 ,NH3,3,4,3
India,Maharashtra,Jalgaon,"Prabhat Colony, Jalgaon - MPCB",26-10-2025 21:00:00,21.001264,75.565602,OZONE,6,25,13
India,Maharashtra,Jalna,"Old MIDC, Jalna - MPCB",26-10-2025 21:00:00,19.854616,75.905894,SO2,12,12,12
India,Maharashtra,Jalna,"Old MIDC, Jalna - MPCB",26-10-2025 21:00:00,19.854616,75.905894,OZONE,14,42,23
India,TamilNadu,Chennai,"Manali Village, Chennai - TNPCB",26-10-2025 21:00:00,13.1662,80.2584,SO2,3,6,5
India,TamilNadu,Ramanathapuram,"Chalai Bazaar, Ramanathapuram - TNPCB",26-10-2025 21:00:00,9.36399,78.831977,NH3,2,2,2
India,TamilNadu,Ranipet,"VOC Nagar_SIPCOT, Ranipet - TNPCB",26-10-2025 21:00:00,12.952707,79.30394,NO2,1,1,1
India,TamilNadu,Salem,"Sona College of Technology, Salem - TNPCB",26-10-2025 21:00:00,11.679111,78.125052,PM2.5,NA,NA,NA
India,TamilNadu,Salem,"Sona College of Technology, Salem - TNPCB",26-10-2025 21:00:00,11.679111,78.125052,NH3,3,3,3
India,TamilNadu,Thanjavur,"Parisutham Nagar, Thanjavur - TNPCB",26-10-2025 21:00:00,10.7654824,79.1389968,PM10,35,49,35
India,TamilNadu,Thanjavur,"Parisutham Nagar, Thanjavur - TNPCB",26-10-2025 21:00:00,10.7654824,79.1389968,NO2,3,3,3
India,TamilNadu,Namakkal,"Ponnusamy Nagar, Namakkal - TNPCB",26-10-2025 21:00:00,11.273992,78.163545,NO2,10,10,10
India,TamilNadu,Ooty,"Bombay Castel, Ooty - TNPCB",26-10-2025 21:00:00,11.4068288,76.7138973,PM2.5,28,59,32
India,TamilNadu,Ooty,"Bombay Castel, Ooty - TNPCB",26-10-2025 21:00:00,11.4068288,76.7138973,SO2,6,7,6
India,TamilNadu,Perundurai,"SIPCOT Industrial Park, Perundurai - TNPCB",26-10-2025 21:00:00,11.258242,77.552761,PM2.5,2,4,5
India,TamilNadu,Pudukottai,"SIPCOT Nathampannai, Pudukottai - TNPCB",26-10-2025 21:00:00,10.423417,78.784889,NO2,13,15,14
India,Maharashtra,Mumbai,"Deonar, Mumbai - IITM",26-10-2025 21:00:00,19.04946,72.9230,SO2,5,6,7
India,TamilNadu,Vellore,"Vasanthapuram, Vellore - TNPCB",26-10-2025 21:00:00,12.909494,79.131861,CO,7,7,7
India,TamilNadu,Vellore,"Vasanthapuram, Vellore - TNPCB",26-10-2025 21:00:00,12.909494,79.131861,OZONE,4,60,35
India,Maharashtra,Mumbai,"Deonar, Mumbai - IITM",26-10-2025 21:00:00,19.04946,72.9230,OZONE,1,15,10
India,Telangana,Hyderabad,"Bollaram Industrial Area, Hyderabad - TSPCB",26-10-2025 21:00:00,17.540891,78.358528,PM2.5,8,20,23
India,Maharashtra,Mumbai,"Ghatkopar, Mumbai - BMC",26-10-2025 21:00:00,19.083694,72.920967,PM2.5,8,20,15
India,Telangana,Hyderabad,"Bollaram Industrial Area, Hyderabad - TSPCB",26-10-2025 21:00:00,17.540891,78.358528,NO2,35,52,38
India,Telangana,Hyderabad,"Bollaram Industrial Area, Hyderabad - TSPCB",26-10-2025 21:00:00,17.540891,78.358528,NH3,4,7,5
India,Maharashtra,Mumbai,"Ghatkopar, Mumbai - BMC",26-10-2025 21:00:00,19.083694,72.920967,SO2,3,5,6
India,Maharashtra,Mumbai,"Ghatkopar, Mumbai - BMC",26-10-2025 21:00:00,19.083694,72.920967,CO,14,20,16
India,Maharashtra,Mumbai,"Ghatkopar, Mumbai - BMC",26-10-2025 21:00:00,19.083694,72.920967,OZONE,8,58,28
India,Telangana,Hyderabad,"Central University, Hyderabad - TSPCB",26-10-2025 21:00:00,17.460103,78.334361,PM10,16,19,29
India,Maharashtra,Mumbai,"Kandivali East, Mumbai - MPCB",26-10-2025 21:00:00,19.205800,72.868200,SO2,NA,NA,NA
India,Maharashtra,Mumbai,"Kandivali West, Mumbai - BMC",26-10-2025 21:00:00,19.215859,72.831718,NH3,2,2,2
India,Telangana,Hyderabad,"ECIL Kapra, Hyderabad - TSPCB",26-10-2025 21:00:00,17.470431,78.566959,SO2,10,13,12
India,Maharashtra,Mumbai,"Kherwadi_Bandra East, Mumbai - MPCB",26-10-2025 21:00:00,19.0632143,72.8456324,PM2.5,22,45,28
India,Maharashtra,Mumbai,"Kherwadi_Bandra East, Mumbai - MPCB",26-10-2025 21:00:00,19.0632143,72.8456324,NO2,4,6,8
India,Maharashtra,Mumbai,"Kherwadi_Bandra East, Mumbai - MPCB",26-10-2025 21:00:00,19.0632143,72.8456324,NH3,8,13,9
India,Maharashtra,Mumbai,"Navy Nagar-Colaba, Mumbai - IITM",26-10-2025 21:00:00,18.897756,72.813320,OZONE,16,30,23
India,Telangana,Hyderabad,"Somajiguda, Hyderabad - TSPCB",26-10-2025 21:00:00,17.417094,78.457437,CO,12,16,14
India,Maharashtra,Mumbai,"Powai, Mumbai - MPCB",26-10-2025 21:00:00,19.137500,72.915056,NO2,7,8,8
India,Telangana,Hyderabad,"Somajiguda, Hyderabad - TSPCB",26-10-2025 21:00:00,17.417094,78.457437,OZONE,17,21,19
India,Maharashtra,Mumbai,"Powai, Mumbai - MPCB",26-10-2025 21:00:00,19.137500,72.915056,SO2,27,29,28
India,Maharashtra,Mumbai,"Sewri, Mumbai - BMC",26-10-2025 21:00:00,19.000084,72.856730,PM10,5,16,9
India,Maharashtra,Mumbai,"Sewri, Mumbai - BMC",26-10-2025 21:00:00,19.000084,72.856730,SO2,2,7,3
India,Maharashtra,Mumbai,"Shivaji Nagar, Mumbai - BMC",26-10-2025 21:00:00,19.060498,72.923356,NO2,16,23,22
India,Maharashtra,Mumbai,"Shivaji Nagar, Mumbai - BMC",26-10-2025 21:00:00,19.060498,72.923356,SO2,12,14,12
India,Uttar_Pradesh,Agra,"Manoharpur, Agra - UPPCB",26-10-2025 21:00:00,27.23711,78.01936,SO2,30,54,37
India,Maharashtra,Mumbai,"Siddharth Nagar-Worli, Mumbai - IITM",26-10-2025 21:00:00,19.000083,72.813993,PM10,28,50,35
India,Maharashtra,Mumbai,"Siddharth Nagar-Worli, Mumbai - IITM",26-10-2025 21:00:00,19.000083,72.813993,NH3,3,4,4
India,Uttar_Pradesh,Agra,"Rohta, Agra - UPPCB",26-10-2025 21:00:00,27.106972,78.000111,SO2,18,23,24
India,Maharashtra,Mumbai,"Sion, Mumbai - MPCB",26-10-2025 21:00:00,19.047000,72.874600,PM2.5,33,51,43
India,Uttar_Pradesh,Agra,"Sanjay Palace, Agra - UPPCB",26-10-2025 21:00:00,27.19865833,78.00598056,PM2.5,68,160,157
India,Maharashtra,Mumbai,"Sion, Mumbai - MPCB",26-10-2025 21:00:00,19.047000,72.874600,SO2,10,10,10
India,Uttar_Pradesh,Agra,"Sector-3B Avas Vikas Colony, Agra - UPPCB",26-10-2025 21:00:00,27.19412,77.96237,NO2,25,31,29
India,Uttar_Pradesh,Agra,"Sector-3B Avas Vikas Colony, Agra - UPPCB",26-10-2025 21:00:00,27.19412,77.96237,SO2,11,11,11
India,Uttar_Pradesh,Agra,"Sector-3B Avas Vikas Colony, Agra - UPPCB",26-10-2025 21:00:00,27.19412,77.96237,OZONE,3,5,4
India,Maharashtra,Nanded,"Sneh Nagar, Nanded - MPCB",26-10-2025 21:00:00,19.173852,77.296291,CO,18,58,34
India,Uttar_Pradesh,Bareilly,"Civil Lines, Bareilly - UPPCB",26-10-2025 21:00:00,28.359581,79.414455,NH3,1,2,1
India,Maharashtra,Nashik,"Gangapur Road, Nashik - MPCB",26-10-2025 21:00:00,20.0073285,73.7762427,CO,16,18,16
India,Maharashtra,Nashik,"Hirawadi, Nashik - MPCB",26-10-2025 21:00:00,20.021503,73.813844,PM2.5,17,46,19
India,Maharashtra,Nashik,"Hirawadi, Nashik - MPCB",26-10-2025 21:00:00,20.021503,73.813844,SO2,29,31,32
India,Uttar_Pradesh,Firozabad,"Nagla Bhau, Firozabad - UPPCB",26-10-2025 21:00:00,27.168897,78.376960,PM2.5,24,58,49
India,Maharashtra,Nashik,"MIDC Ambad, Nashik - MPCB",26-10-2025 21:00:00,19.950220,73.731480,SO2,2,9,12
India,Uttar_Pradesh,Firozabad,"Nagla Bhau, Firozabad - UPPCB",26-10-2025 21:00:00,27.168897,78.376960,PM10,46,106,84
India,Telangana,Hyderabad,"New Malakpet, Hyderabad - TSPCB",26-10-2025 21:00:00,17.37206,78.50864,PM2.5,43,52,50
India,Maharashtra,Mumbai,"Mazgaon, Mumbai - IITM",26-10-2025 21:00:00,18.96702,72.84214,NO2,36,50,49
India,Telangana,Hyderabad,"New Malakpet, Hyderabad - TSPCB",26-10-2025 21:00:00,17.37206,78.50864,SO2,20,23,20
India,Maharashtra,Mumbai,"Mindspace-Malad West, Mumbai - MPCB",26-10-2025 21:00:00,19.1878657,72.8304069,PM2.5,3,5,14
India,Maharashtra,Mumbai,"Mulund West, Mumbai - MPCB",26-10-2025 21:00:00,19.1750,72.9419,NO2,13,14,13
India,Maharashtra,Mumbai,"Mulund West, Mumbai - MPCB",26-10-2025 21:00:00,19.1750,72.9419,SO2,NA,NA,NA
India,Telangana,Hyderabad,"Sanathnagar, Hyderabad - TSPCB",26-10-2025 21:00:00,17.4559458,78.4332152,SO2,4,7,7
India,Maharashtra,Mumbai,"Navy Nagar-Colaba, Mumbai - IITM",26-10-2025 21:00:00,18.897756,72.813320,PM10,26,46,37
India,Maharashtra,Mumbai,"Kherwadi_Bandra East, Mumbai - MPCB",26-10-2025 21:00:00,19.0632143,72.8456324,SO2,3,4,3
India,Telangana,Hyderabad,"IITH Kandi, Hyderabad - TSPCB",26-10-2025 21:00:00,17.585705,78.126199,PM2.5,56,61,59
India,Maharashtra,Mumbai,"Khindipada-Bhandup West, Mumbai - IITM",26-10-2025 21:00:00,19.1653323,72.922099,SO2,9,19,16
India,Telangana,Hyderabad,"Kokapet, Hyderabad - TSPCB",26-10-2025 21:00:00,17.393559,78.339194,PM2.5,44,54,45
India,Maharashtra,Mumbai,"Malad West, Mumbai - IITM",26-10-2025 21:00:00,19.19709,72.82204,SO2,6,8,7
India,Telangana,Hyderabad,"Kompally Municipal Office, Hyderabad - TSPCB",26-10-2025 21:00:00,17.544899,78.486949,SO2,NA,NA,NA
India,Telangana,Hyderabad,"Kompally Municipal Office, Hyderabad - TSPCB",26-10-2025 21:00:00,17.544899,78.486949,CO,6,12,7
India,Maharashtra,Nagpur,"Mahal, Nagpur - MPCB",26-10-2025 21:00:00,21.14472,79.107595,CO,22,31,28
India,Maharashtra,Nagpur,"Mahal, Nagpur - MPCB",26-10-2025 21:00:00,21.14472,79.107595,OZONE,3,9,6
India,Maharashtra,Nagpur,"Opp GPO Civil Lines, Nagpur - MPCB",26-10-2025 21:00:00,21.152875,79.0517531,PM10,32,43,37
India,Uttar_Pradesh,Agra,"Shastripuram, Agra - UPPCB",26-10-2025 21:00:00,27.19862,77.92066,NH3,3,3,3
India,Maharashtra,Nagpur,"Ram Nagar, Nagpur - MPCB",26-10-2025 21:00:00,21.143383,79.048912,NO2,7,9,9
India,Maharashtra,Nagpur,"Ram Nagar, Nagpur - MPCB",26-10-2025 21:00:00,21.143383,79.048912,OZONE,7,35,23
India,Maharashtra,Nanded,"Sneh Nagar, Nanded - MPCB",26-10-2025 21:00:00,19.173852,77.296291,PM2.5,37,44,32
India,TamilNadu,Thanjavur,"Parisutham Nagar, Thanjavur - TNPCB",26-10-2025 21:00:00,10.7654824,79.1389968,OZONE,6,17,11
India,Maharashtra,Mumbai,"Chembur, Mumbai - MPCB",26-10-2025 21:00:00,19.0364585,72.8954371,PM10,35,45,37
India,Maharashtra,Mumbai,"Chembur, Mumbai - MPCB",26-10-2025 21:00:00,19.0364585,72.8954371,CO,3,9,5
India,TamilNadu,Tirunelveli,"Municipal Corporation Office, Tirunelveli - TNPCB",26-10-2025 21:00:00,8.728442,77.6962,SO2,31,33,35
India,TamilNadu,Tirunelveli,"Municipal Corporation Office, Tirunelveli - TNPCB",26-10-2025 21:00:00,8.728442,77.6962,CO,40,42,41
India,Maharashtra,Mumbai,"Colaba, Mumbai - MPCB",26-10-2025 21:00:00,18.910000,72.820000,PM10,53,77,57
India,Maharashtra,Mumbai,"Colaba, Mumbai - MPCB",26-10-2025 21:00:00,18.910000,72.820000,NH3,3,3,3
India,Maharashtra,Mumbai,"Vile Parle West, Mumbai - MPCB",26-10-2025 21:00:00,19.10861,72.83622,SO2,34,59,54
India,Maharashtra,Nagpur,"Ambazari, Nagpur - MPCB",26-10-2025 21:00:00,21.121801,79.04952,CO,20,26,23
India,Uttar_Pradesh,Greater Noida,"Knowledge Park - V, Greater Noida - UPPCB",26-10-2025 21:00:00,28.557054,77.453663,PM2.5,88,348,300
India,Maharashtra,Pimpri-Chinchwad,"Gavalinagar, Pimpri Chinchwad - MPCB",26-10-2025 21:00:00,18.63673,73.82487,SO2,1,2,2
India,Uttar_Pradesh,Greater Noida,"Knowledge Park - V, Greater Noida - UPPCB",26-10-2025 21:00:00,28.557054,77.453663,SO2,15,18,16
India,Uttar_Pradesh,Greater Noida,"Knowledge Park - V, Greater Noida - UPPCB",26-10-2025 21:00:00,28.557054,77.453663,CO,8,92,47
India,Maharashtra,Pimpri-Chinchwad,"Park Street Wakad, Pimpri Chinchwad - MPCB",26-10-2025 21:00:00,18.59051,73.77946,CO,14,22,16
India,Uttar_Pradesh,Hapur,"Anand Vihar, Hapur - UPPCB",26-10-2025 21:00:00,28.725645,77.749675,PM2.5,65,310,238
India,Maharashtra,Pimpri-Chinchwad,"Savta Mali Nagar, Pimpri-Chinchwad - IITM",26-10-2025 21:00:00,18.614767,73.799516,PM2.5,11,24,24
India,Maharashtra,Pimpri-Chinchwad,"Savta Mali Nagar, Pimpri-Chinchwad - IITM",26-10-2025 21:00:00,18.614767,73.799516,CO,59,78,69
India,Maharashtra,Pimpri-Chinchwad,"Savta Mali Nagar, Pimpri-Chinchwad - IITM",26-10-2025 21:00:00,18.614767,73.799516,OZONE,6,21,15
India,Maharashtra,Pimpri-Chinchwad,"Thergaon, Pimpri Chinchwad - MPCB",26-10-2025 21:00:00,18.616318,73.765797,PM2.5,41,54,47
India,Maharashtra,Pimpri-Chinchwad,"Thergaon, Pimpri Chinchwad - MPCB",26-10-2025 21:00:00,18.616318,73.765797,PM10,74,80,83
India,Uttar_Pradesh,Jhansi,"Shivaji Nagar, Jhansi - UPPCB",26-10-2025 21:00:00,25.4547,78.6039,PM2.5,32,42,46
India,Maharashtra,Solapur,"Ratandeep Housing Society, Solapur - MPCB",26-10-2025 21:00:00,17.65439,75.90649,PM10,25,34,36
India,Maharashtra,Solapur,"Ratandeep Housing Society, Solapur - MPCB",26-10-2025 21:00:00,17.65439,75.90649,NO2,8,20,15
India,Maharashtra,Solapur,"Ratandeep Housing Society, Solapur - MPCB",26-10-2025 21:00:00,17.65439,75.90649,NH3,1,3,2
India,Maharashtra,Solapur,"Ratandeep Housing Society, Solapur - MPCB",26-10-2025 21:00:00,17.65439,75.90649,OZONE,14,114,48
India,Maharashtra,Thane,"Kasarvadavali, Thane - MPCB",26-10-2025 21:00:00,19.26777,72.97182,PM10,40,56,33
India,Uttar_Pradesh,Lucknow,"Kukrail Picnic Spot-1, Lucknow - UPPCB",26-10-2025 21:00:00,26.90723,80.98579,NO2,32,32,32
India,Uttar_Pradesh,Lucknow,"Kukrail Picnic Spot-1, Lucknow - UPPCB",26-10-2025 21:00:00,26.90723,80.98579,NH3,5,5,5
India,Maharashtra,Thane,"Kasarvadavali, Thane - MPCB",26-10-2025 21:00:00,19.26777,72.97182,OZONE,11,24,16
India,Maharashtra,Ulhasnagar,"Sidhi Vinayak Nagar, Ulhasnagar - MPCB",26-10-2025 21:00:00,19.235581,73.159121,PM2.5,15,27,22
India,Uttar_Pradesh,Lucknow,"Lalbagh, Lucknow - CPCB",26-10-2025 21:00:00,26.8458805,80.9365541,SO2,2,13,8
India,Maharashtra,Ulhasnagar,"Sidhi Vinayak Nagar, Ulhasnagar - MPCB",26-10-2025 21:00:00,19.235581,73.159121,CO,36,40,38
India,Uttar_Pradesh,Lucknow,"Talkatora District Industries Center, Lucknow - CPCB",26-10-2025 21:00:00,26.83399722,80.8917361,PM2.5,95,158,189
India,Uttar_Pradesh,Lucknow,"Talkatora District Industries Center, Lucknow - CPCB",26-10-2025 21:00:00,26.83399722,80.8917361,CO,53,78,70
India,Meghalaya,Shillong,"JN Stadium, Shillong - Meghalaya PCB",26-10-2025 21:00:00,25.5803419,91.8942571,PM10,NA,NA,NA
India,Uttar_Pradesh,Meerut,"Ganga Nagar, Meerut - UPPCB",26-10-2025 21:00:00,28.999264,77.7590354,NH3,12,16,15
India,Meghalaya,Shillong,"Lumpyngngad, Shillong - Meghalaya PCB",26-10-2025 21:00:00,25.5586,91.8985,PM2.5,NA,NA,NA
India,Uttar_Pradesh,Meerut,"Ganga Nagar, Meerut - UPPCB",26-10-2025 21:00:00,28.999264,77.7590354,SO2,11,19,14
India,Meghalaya,Shillong,"Lumpyngngad, Shillong - Meghalaya PCB",26-10-2025 21:00:00,25.5586,91.8985,SO2,5,6,5
India,Nagaland,Kohima,"PWD Junction, Kohima - NPCB",26-10-2025 21:00:00,25.6635413,94.0989878,PM10,26,56,64
India,Nagaland,Kohima,"PWD Junction, Kohima - NPCB",26-10-2025 21:00:00,25.6635413,94.0989878,SO2,70,73,71
India,Nagaland,Kohima,"PWD Junction, Kohima - NPCB",26-10-2025 21:00:00,25.6635413,94.0989878,CO,5,6,6
India,Nagaland,Kohima,"PWD Junction, Kohima - NPCB",26-10-2025 21:00:00,25.6635413,94.0989878,OZONE,10,15,12
India,Odisha,Angul,"Hakimapada, Angul - OSPCB",26-10-2025 21:00:00,20.832874,85.104082,PM2.5,52,90,62
India,Odisha,Angul,"Hakimapada, Angul - OSPCB",26-10-2025 21:00:00,20.832874,85.104082,PM10,61,114,79
India,Uttar_Pradesh,Ghaziabad,"Loni, Ghaziabad - UPPCB",26-10-2025 21:00:00,28.757294,77.278792,NH3,2,9,8
India,Maharashtra,Navi Mumbai,"Sanpada, Navi Mumbai - MPCB",26-10-2025 21:00:00,19.0575752,73.0151367,CO,14,24,17
India,Maharashtra,Navi Mumbai,"Sanpada, Navi Mumbai - MPCB",26-10-2025 21:00:00,19.0575752,73.0151367,OZONE,15,15,15
India,Uttar_Pradesh,Ghaziabad,"Loni, Ghaziabad - UPPCB",26-10-2025 21:00:00,28.757294,77.278792,CO,44,106,76
India,Uttar_Pradesh,Ghaziabad,"Sanjay Nagar, Ghaziabad - UPPCB",26-10-2025 21:00:00,28.685382,77.453839,PM10,90,222,181
India,Maharashtra,Navi Mumbai,"Sector-2E Kalamboli, Navi Mumbai - MPCB",26-10-2025 21:00:00,19.02579,73.10297,SO2,1,5,2
India,Maharashtra,Navi Mumbai,"Sector-2E Kalamboli, Navi Mumbai - MPCB",26-10-2025 21:00:00,19.02579,73.10297,OZONE,3,55,17
India,Maharashtra,Navi Mumbai,"Tondare-Taloja, Navi Mumbai - MPCB",26-10-2025 21:00:00,19.0630,73.1209,NH3,4,12,7
India,Uttar_Pradesh,Ghaziabad,"Vasundhara, Ghaziabad - UPPCB",26-10-2025 21:00:00,28.6603346,77.3572563,SO2,15,22,21
India,Maharashtra,Navi Mumbai,"Tondare-Taloja, Navi Mumbai - MPCB",26-10-2025 21:00:00,19.0630,73.1209,SO2,3,4,4
India,Maharashtra,Parbhani,"Masoom Colony, Parbhani - MPCB",26-10-2025 21:00:00,19.265594,76.761463,PM2.5,10,16,15
India,Maharashtra,Parbhani,"Masoom Colony, Parbhani - MPCB",26-10-2025 21:00:00,19.265594,76.761463,CO,8,13,11
India,Maharashtra,Nashik,"Pandav Nagari, Nashik - MPCB",26-10-2025 21:00:00,19.9591346,73.7788008,PM2.5,16,23,18
India,Maharashtra,Nashik,"Pandav Nagari, Nashik - MPCB",26-10-2025 21:00:00,19.9591346,73.7788008,PM10,19,22,21
India,Uttar_Pradesh,Firozabad,"Nagla Bhau, Firozabad - UPPCB",26-10-2025 21:00:00,27.168897,78.376960,CO,4,18,7
India,Maharashtra,Nashik,"Pandav Nagari, Nashik - MPCB",26-10-2025 21:00:00,19.9591346,73.7788008,SO2,NA,NA,NA
India,Uttar_Pradesh,Firozabad,"Nagla Bhau, Firozabad - UPPCB",26-10-2025 21:00:00,27.168897,78.376960,OZONE,11,15,13
India,Uttar_Pradesh,Firozabad,"Vibhab Nagar, Firozabad - UPPCB",26-10-2025 21:00:00,27.1594,78.3953,CO,15,18,17
India,Maharashtra,Navi Mumbai,"Kopripada-Vashi, Navi Mumbai - MPCB",26-10-2025 21:00:00,19.090337,73.014232,CO,10,32,19
India,Maharashtra,Navi Mumbai,"Kopripada-Vashi, Navi Mumbai - MPCB",26-10-2025 21:00:00,19.090337,73.014232,OZONE,1,27,14
India,Maharashtra,Navi Mumbai,"Nerul, Navi Mumbai - MPCB",26-10-2025 21:00:00,19.008751,73.016620,PM10,NA,NA,NA
India,Uttar_Pradesh,Ghaziabad,"Indirapuram, Ghaziabad - UPPCB",26-10-2025 21:00:00,28.646233,77.358075,NH3,9,11,10
India,Uttar_Pradesh,Ghaziabad,"Loni, Ghaziabad - UPPCB",26-10-2025 21:00:00,28.757294,77.278792,PM10,123,381,339
India,Maharashtra,Pune,"Savitribai Phule Pune University, Pune - MPCB",26-10-2025 21:00:00,18.547056,73.826908,CO,14,19,16
India,Uttar_Pradesh,Khurja,"Kalindi Kunj, Khurja - UPPCB",26-10-2025 21:00:00,28.2348927,77.8683002,PM10,115,176,171
India,Maharashtra,Pune,"Transport Nagar-Nigdi, Pune - IITM",26-10-2025 21:00:00,18.664282,73.763966,PM2.5,16,37,23
India,Uttar_Pradesh,Khurja,"Kalindi Kunj, Khurja - UPPCB",26-10-2025 21:00:00,28.2348927,77.8683002,NO2,3,4,3
India,Maharashtra,Sangli,"Vijay Nagar, Sangli - MPCB",26-10-2025 21:00:00, 16.5038,74.3623,NO2,1,9,8
India,Maharashtra,Sangli,"Vijay Nagar, Sangli - MPCB",26-10-2025 21:00:00, 16.5038,74.3623,SO2,5,7,6
India,Maharashtra,Sangli,"Vijay Nagar, Sangli - MPCB",26-10-2025 21:00:00, 16.5038,74.3623,OZONE,11,18,16
India,Maharashtra,Solapur,"Dnyaneshwar Nagar, Solapur - MPCB",26-10-2025 21:00:00,17.6336264,75.9132495,PM10,26,30,26
India,Uttar_Pradesh,Lucknow,"Gomti Nagar, Lucknow - UPPCB",26-10-2025 21:00:00,26.868120,81.005119,PM2.5,75,95,117
India,Maharashtra,Solapur,"Dnyaneshwar Nagar, Solapur - MPCB",26-10-2025 21:00:00,17.6336264,75.9132495,CO,11,19,13
India,Odisha,Angul,"Hakimapada, Angul - OSPCB",26-10-2025 21:00:00,20.832874,85.104082,CO,46,70,56
India,Odisha,Angul,"Hakimapada, Angul - OSPCB",26-10-2025 21:00:00,20.832874,85.104082,OZONE,3,17,9
India,Uttar_Pradesh,Moradabad,"Buddhi Vihar, Moradabad - UPPCB",26-10-2025 21:00:00,28.83526,78.74460,PM10,146,165,201
India,Odisha,Balasore,"Kalidaspur, Balasore - OSPCB",26-10-2025 21:00:00,21.51161,86.89088,SO2,5,6,5
India,Uttar_Pradesh,Moradabad,"Buddhi Vihar, Moradabad - UPPCB",26-10-2025 21:00:00,28.83526,78.74460,SO2,27,81,33
India,Uttar_Pradesh,Moradabad,"Buddhi Vihar, Moradabad - UPPCB",26-10-2025 21:00:00,28.83526,78.74460,CO,42,51,47
India,Uttar_Pradesh,Moradabad,"Eco Herbal Park, Moradabad - UPPCB",26-10-2025 21:00:00,28.840739,78.697531,NO2,14,32,24
India,Odisha,Baripada,"Meher Colony, Baripada - OSPCB",26-10-2025 21:00:00,21.941841,86.728318,NO2,23,34,28
India,Maharashtra,Pimpri-Chinchwad,"Thergaon, Pimpri Chinchwad - MPCB",26-10-2025 21:00:00,18.616318,73.765797,CO,24,32,27
India,Uttar_Pradesh,Kanpur,"FTI Kidwai Nagar, Kanpur - UPPCB",26-10-2025 21:00:00,26.428282,80.327067,PM2.5,NA,NA,NA
India,Uttar_Pradesh,Kanpur,"FTI Kidwai Nagar, Kanpur - UPPCB",26-10-2025 21:00:00,26.428282,80.327067,PM10,NA,NA,NA
India,Maharashtra,Pune,"Panchawati_Pashan, Pune - IITM",26-10-2025 21:00:00,18.536457,73.805454,CO,18,30,25
India,Maharashtra,Pune,"Panchawati_Pashan, Pune - IITM",26-10-2025 21:00:00,18.536457,73.805454,OZONE,7,58,41
India,Maharashtra,Pune,"Revenue Colony-Shivajinagar, Pune - IITM",26-10-2025 21:00:00,18.530085,73.849598,PM10,NA,NA,NA
India,Maharashtra,Pune,"Savitribai Phule Pune University, Pune - MPCB",26-10-2025 21:00:00,18.547056,73.826908,PM2.5,NA,NA,NA
India,Odisha,Bhubaneswar,"Lingraj Mandir, Bhubaneswar - OSPCB",26-10-2025 21:00:00,20.240790,85.836784,PM2.5,23,55,38
India,Uttar_Pradesh,Moradabad,"Jigar Colony, Moradabad - UPPCB",26-10-2025 21:00:00,28.856664,78.772638,NH3,6,6,6
India,Odisha,Bhubaneswar,"Lingraj Mandir, Bhubaneswar - OSPCB",26-10-2025 21:00:00,20.240790,85.836784,SO2,27,57,30
India,Odisha,Bhubaneswar,"Patia, Bhubaneswar - OSPCB",26-10-2025 21:00:00,20.34652,85.81630,OZONE,14,31,25
India,Odisha,Bileipada,"Tata Township, Bileipada - OSPCB",26-10-2025 21:00:00,22.06156703,85.47409613,PM2.5,52,52,52
India,Odisha,Bileipada,"Tata Township, Bileipada - OSPCB",26-10-2025 21:00:00,22.06156703,85.47409613,PM10,82,123,122
India,Uttar_Pradesh,Prayagraj,"Nagar Nigam, Prayagraj - UPPCB",26-10-2025 21:00:00,25.44919916 ,81.82735986 ,CO,27,30,28
India,Punjab,Amritsar,"Golden Temple, Amritsar - PPCB",26-10-2025 21:00:00,31.620000,74.876512,OZONE,42,48,45
India,Uttar_Pradesh,Varanasi,"Ardhali Bazar, Varanasi - UPPCB",26-10-2025 21:00:00,25.3505986,82.9083074,PM10,60,87,79
India,Punjab,Bathinda,"Hardev Nagar, Bathinda - PPCB",26-10-2025 21:00:00,30.233011,74.907758,NO2,20,28,22
India,Uttar_Pradesh,Varanasi,"Ardhali Bazar, Varanasi - UPPCB",26-10-2025 21:00:00,25.3505986,82.9083074,CO,9,12,10
India,Uttar_Pradesh,Varanasi,"Bhelupur, Varanasi - UPPCB",26-10-2025 21:00:00,25.301778,82.996789,PM10,70,79,76
India,Uttar_Pradesh,Varanasi,"IESD Banaras Hindu University, Varanasi - UPPCB",26-10-2025 21:00:00,25.262326,82.995408,PM10,58,95,84
India,Uttar_Pradesh,Varanasi,"IESD Banaras Hindu University, Varanasi - UPPCB",26-10-2025 21:00:00,25.262326,82.995408,SO2,26,27,27
India,Punjab,Khanna,"Kalal Majra, Khanna - PPCB",26-10-2025 21:00:00,30.736056 ,76.209694,OZONE,29,31,30
India,Uttar_Pradesh,Varanasi,"IESD Banaras Hindu University, Varanasi - UPPCB",26-10-2025 21:00:00,25.262326,82.995408,CO,10,12,11
India,Uttar_Pradesh,Varanasi,"IESD Banaras Hindu University, Varanasi - UPPCB",26-10-2025 21:00:00,25.262326,82.995408,OZONE,16,18,17
India,Punjab,Ludhiana,"Punjab Agricultural University, Ludhiana - PPCB",26-10-2025 21:00:00,30.9028,75.8086,CO,34,72,57
India,Odisha,Keonjhar,"Jagamohanpur, Keonjhar - OSPCB",26-10-2025 21:00:00,21.643900,85.599355,CO,3,50,26
India,Uttar_Pradesh,Muzaffarnagar,"New Mandi, Muzaffarnagar - UPPCB",26-10-2025 21:00:00,29.4723508,77.7194031,NO2,31,69,80
India,Uttar_Pradesh,Noida,"Sector - 125, Noida - UPPCB",26-10-2025 21:00:00,28.5447608,77.3231257,NO2,37,182,134
India,Uttar_Pradesh,Noida,"Sector - 125, Noida - UPPCB",26-10-2025 21:00:00,28.5447608,77.3231257,SO2,8,19,15
India,Odisha,Rairangpur,"Divisional Forest Office, Rairangpur - OSPCB",26-10-2025 21:00:00,22.265816,86.174829,OZONE,19,26,24
India,Uttar_Pradesh,Noida,"Sector - 62, Noida - IMD",26-10-2025 21:00:00,28.6245479,77.3577104,PM10,128,176,192
India,Uttar_Pradesh,Noida,"Sector - 62, Noida - IMD",26-10-2025 21:00:00,28.6245479,77.3577104,NO2,19,25,31
India,Odisha,Rourkela,"Raghunathpali, Rourkela - OSPCB",26-10-2025 21:00:00,22.220833,84.809444,PM10,93,117,114
India,Uttar_Pradesh,Noida,"Sector-1, Noida - UPPCB",26-10-2025 21:00:00,28.5898,77.3101,NH3,13,23,19
India,Odisha,Rourkela,"Raghunathpali, Rourkela - OSPCB",26-10-2025 21:00:00,22.220833,84.809444,CO,26,85,51
India,Uttar_Pradesh,Noida,"Sector-1, Noida - UPPCB",26-10-2025 21:00:00,28.5898,77.3101,CO,20,80,39
India,West_Bengal,Asansol,"Evelyn Lodge, Asansol - WBPCB",26-10-2025 21:00:00,23.6979360,86.9443950,OZONE,6,52,37
India,Rajasthan,Barmer,"Railway Colony, Barmer - RSPCB",26-10-2025 21:00:00,25.747299,71.393989,NH3,3,4,4
India,Rajasthan,Barmer,"Railway Colony, Barmer - RSPCB",26-10-2025 21:00:00,25.747299,71.393989,SO2,9,17,9
India,Rajasthan,Barmer,"Railway Colony, Barmer - RSPCB",26-10-2025 21:00:00,25.747299,71.393989,OZONE,62,110,84
India,West_Bengal,Asansol,"Trivenidevi Bhalotia College, Asansol - WBPCB",26-10-2025 21:00:00,23.616515,87.119133,PM2.5,56,119,80
India,Rajasthan,Bharatpur,"Krishna Nagar, Bharatpur - RSPCB",26-10-2025 21:00:00,27.215415,77.50873,PM10,133,214,160
India,Rajasthan,Bharatpur,"Krishna Nagar, Bharatpur - RSPCB",26-10-2025 21:00:00,27.215415,77.50873,NO2,18,54,45
India,West_Bengal,Asansol,"Trivenidevi Bhalotia College, Asansol - WBPCB",26-10-2025 21:00:00,23.616515,87.119133,PM10,57,122,91
India,Rajasthan,Bhilwara,"Pratap Nagar, Bhilwara - RSPCB",26-10-2025 21:00:00,25.339605,74.618883,PM10,110,121,136
India,West_Bengal,Barrackpore,"SVSPA Campus, Barrackpore - WBPCB",26-10-2025 21:00:00,22.7605581,88.3617589,PM2.5,75,91,80
India,West_Bengal,Barrackpore,"SVSPA Campus, Barrackpore - WBPCB",26-10-2025 21:00:00,22.7605581,88.3617589,PM10,74,105,84
India,Uttar_Pradesh,Noida,"Sector-116, Noida - UPPCB",26-10-2025 21:00:00,28.569230,77.393848,PM10,125,352,360
India,Odisha,Talcher,"Talcher Coalfields,Talcher - OSPCB",26-10-2025 21:00:00,20.9360711,85.1707021,NH3,5,6,5
India,Uttar_Pradesh,Noida,"Sector-116, Noida - UPPCB",26-10-2025 21:00:00,28.569230,77.393848,SO2,16,24,20
India,Odisha,Tensa,"Barsua Iron Ore Mines, Tensa - OSPCB",26-10-2025 21:00:00,21.869985,85.167016,PM10,64,85,79
India,Uttar_Pradesh,Prayagraj,"Jhunsi, Prayagraj - UPPCB",26-10-2025 21:00:00,25.425602,81.917152,NO2,6,6,6
India,Puducherry,Puducherry,"Jawahar Nagar, Puducherry - PPCC",26-10-2025 21:00:00,11.9309,79.8027,PM2.5,9,51,27
India,Puducherry,Puducherry,"Jawahar Nagar, Puducherry - PPCC",26-10-2025 21:00:00,11.9309,79.8027,NO2,10,18,20
India,Uttar_Pradesh,Prayagraj,"Motilal Nehru NIT, Prayagraj - UPPCB",26-10-2025 21:00:00,25.494,81.863,OZONE,20,62,38
India,Puducherry,Puducherry,"Jawahar Nagar, Puducherry - PPCC",26-10-2025 21:00:00,11.9309,79.8027,OZONE,2,26,15
India,Uttar_Pradesh,Prayagraj,"Nagar Nigam, Prayagraj - UPPCB",26-10-2025 21:00:00,25.44919916 ,81.82735986 ,PM10,108,127,116
India,Uttarakhand,Rishikesh,"Shivaji Nagar, Rishikesh - UKPCB",26-10-2025 21:00:00,30.075911,78.2859547,PM10,54,60,63
India,Rajasthan,Alwar,"Moti Doongri, Alwar - RSPCB",26-10-2025 21:00:00,27.554793,76.611536,PM2.5,91,168,104
India,Rajasthan,Alwar,"Moti Doongri, Alwar - RSPCB",26-10-2025 21:00:00,27.554793,76.611536,PM10,92,134,106
India,West_Bengal,Asansol,"Asansol Court Area, Asansol - WBPCB",26-10-2025 21:00:00,23.685297,86.945968,PM2.5,85,157,108
India,Rajasthan,Banswara,"Rati Talai, Banswara - RSPCB",26-10-2025 21:00:00,23.555190,74.440010,PM10,NA,NA,NA
India,West_Bengal,Asansol,"Asansol Court Area, Asansol - WBPCB",26-10-2025 21:00:00,23.685297,86.945968,NH3,3,12,5
India,West_Bengal,Asansol,"Asansol Court Area, Asansol - WBPCB",26-10-2025 21:00:00,23.685297,86.945968,OZONE,14,46,35
India,West_Bengal,Asansol,"Evelyn Lodge, Asansol - WBPCB",26-10-2025 21:00:00,23.6979360,86.9443950,PM2.5,58,143,95
India,West_Bengal,Asansol,"Evelyn Lodge, Asansol - WBPCB",26-10-2025 21:00:00,23.6979360,86.9443950,PM10,59,117,100
India,Rajasthan,Baran,"Bamboliya, Baran - RSPCB",26-10-2025 21:00:00,25.106006,76.469948,SO2,5,9,5
India,Punjab,Ludhiana,"Punjab Agricultural University, Ludhiana - PPCB",26-10-2025 21:00:00,30.9028,75.8086,OZONE,22,28,25
India,Punjab,Mandi Gobindgarh,"RIMT University, Mandi Gobindgarh - PPCB",26-10-2025 21:00:00,30.649961,76.331442,NO2,23,24,24
India,Punjab,Mandi Gobindgarh,"RIMT University, Mandi Gobindgarh - PPCB",26-10-2025 21:00:00,30.649961,76.331442,SO2,5,15,8
India,Punjab,Patiala,"Model Town, Patiala - PPCB",26-10-2025 21:00:00,30.349388,76.366642,SO2,9,16,13
India,Uttarakhand,Dehradun,"Doon University, Dehradun - UKPCB",26-10-2025 21:00:00,30.269444,78.044167,NO2,1,4,2
India,Punjab,Rupnagar,"Ratanpura, Rupnagar - Ambuja Cements",26-10-2025 21:00:00,31.0325454,76.5623046,NO2,6,8,5
India,Uttarakhand,Dehradun,"Doon University, Dehradun - UKPCB",26-10-2025 21:00:00,30.269444,78.044167,CO,6,12,9
India,Uttarakhand,Kashipur,"Govt. Girls Inter College, Kashipur - UKPCB",26-10-2025 21:00:00,29.2124114,78.9611753,PM2.5,69,175,107
India,West_Bengal,Barrackpore,"SVSPA Campus, Barrackpore - WBPCB",26-10-2025 21:00:00,22.7605581,88.3617589,NH3,2,4,4
India,Rajasthan,Bhilwara,"Pratap Nagar, Bhilwara - RSPCB",26-10-2025 21:00:00,25.339605,74.618883,CO,14,16,14
