country,state,city,station,last_update,latitude,longitude,pollutant_id,min_value,max_value,avg_value
India,Assam,Silchar,"Tarapur, Silchar - PCBA",06-09-2025 07:00:00,24.82827,92.79525,NH3,1,1,1
India,Assam,Silchar,"Tarapur, Silchar - PCBA",06-09-2025 07:00:00,24.82827,92.79525,SO2,1,30,11
India,Assam,Silchar,"Tarapur, Silchar - PCBA",06-09-2025 07:00:00,24.82827,92.79525,CO,24,46,29
India,Assam,Sivasagar,"Girls College, Sivasagar - PCBA",06-09-2025 07:00:00,26.987634,94.636574,PM2.5,26,37,29
India,Assam,Sivasagar,"Girls College, Sivasagar - PCBA",06-09-2025 07:00:00,26.987634,94.636574,NO2,11,21,15
India,Bihar,Araria,"Kharahiya Basti, Araria - BSPCB",06-09-2025 07:00:00,26.146529,87.454184,SO2,2,22,15
India,Bihar,Arrah,"New DM Office, Arrah - BSPCB",06-09-2025 07:00:00,25.5626095,84.663264,SO2,8,10,10
India,Bihar,Arrah,"New DM Office, Arrah - BSPCB",06-09-2025 07:00:00,25.5626095,84.663264,CO,19,65,51
India,Bihar,Aurangabad,"Gurdeo Nagar, Aurangabad - BSPCB",06-09-2025 07:00:00,24.75746,84.366208,SO2,7,13,9
India,Bihar,Aurangabad,"Gurdeo Nagar, Aurangabad - BSPCB",06-09-2025 07:00:00,24.75746,84.366208,OZONE,NA,NA,NA
India,Bihar,Begusarai,"Lohiyanagar, Begusarai - BSPCB",06-09-2025 07:00:00,25.42742023,86.13886079,OZONE,28,67,44
India,Bihar,Bettiah,"Kamalnath Nagar, Bettiah - BSPCB",06-09-2025 07:00:00,26.80365,84.51954,SO2,NA,NA,NA
India,Bihar,Bhagalpur,"DM Office_Kachari Chowk, Bhagalpur - BSPCB",06-09-2025 07:00:00,25.251013,86.989001,NO2,15,26,22
India,Bihar,Bhagalpur,"Mayaganj, Bhagalpur - BSPCB",06-09-2025 07:00:00,25.265194,87.012947,SO2,NA,NA,NA
India,Andhra_Pradesh,Visakhapatnam,"GVM Corporation, Visakhapatnam - APPCB",06-09-2025 07:00:00,17.72,83.3,SO2,6,28,14
India,Andhra_Pradesh,Visakhapatnam,"GVM Corporation, Visakhapatnam - APPCB",06-09-2025 07:00:00,17.72,83.3,CO,10,101,16
India,Arunachal_Pradesh,Naharlagun,"Naharlagun, Naharlagun - APSPCB",06-09-2025 07:00:00,27.103358,93.679645,PM2.5,2,68,30
India,Assam,Byrnihat,"Central Academy for SFS, Byrnihat - PCBA",06-09-2025 07:00:00,26.071318,91.87488,PM2.5,80,114,89
India,Assam,Guwahati,"LGBI Airport, Guwahati - PCBA",06-09-2025 07:00:00,26.10887,91.589544,SO2,9,17,14
India,Bihar,Bihar Sharif,"D M Colony, Bihar Sharif - BSPCB",06-09-2025 07:00:00,25.204762,85.514960,PM2.5,82,99,92
India,Bihar,Bihar Sharif,"D M Colony, Bihar Sharif - BSPCB",06-09-2025 07:00:00,25.204762,85.514960,OZONE,14,48,30
India,Bihar,Buxar,"Charitra Van, Buxar - BSPCB",06-09-2025 07:00:00,25.567520,83.966379,NO2,5,10,9
India,Bihar,Buxar,"Charitra Van, Buxar - BSPCB",06-09-2025 07:00:00,25.567520,83.966379,NH3,3,3,3
India,Bihar,Chhapra,"Darshan Nagar, Chhapra - BSPCB",06-09-2025 07:00:00,25.7808257,84.7446768,PM2.5,5,378,165
India,Bihar,Chhapra,"Darshan Nagar, Chhapra - BSPCB",06-09-2025 07:00:00,25.7808257,84.7446768,NO2,114,114,114
India,Bihar,Chhapra,"Darshan Nagar, Chhapra - BSPCB",06-09-2025 07:00:00,25.7808257,84.7446768,OZONE,2,33,4
India,Andhra_Pradesh,Rajamahendravaram,"Anand Kala Kshetram, Rajamahendravaram - APPCB",06-09-2025 07:00:00,16.9872867,81.7363176,NH3,2,3,2
India,Andhra_Pradesh,Tirumala,"Toll Gate, Tirumala - APPCB",06-09-2025 07:00:00,13.67,79.35,NH3,1,2,1
India,Andhra_Pradesh,Tirupati,"Vaikuntapuram, Tirupati - APPCB",06-09-2025 07:00:00,13.615387,79.409230,CO,6,20,12
India,Andhra_Pradesh,Vijayawada,"HB Colony, Vijayawada - APPCB",06-09-2025 07:00:00,16.536107,80.594233,PM2.5,56,77,64
India,Andhra_Pradesh,Vijayawada,"HB Colony, Vijayawada - APPCB",06-09-2025 07:00:00,16.536107,80.594233,PM10,54,75,62
India,Andhra_Pradesh,Amaravati,"Secretariat, Amaravati - APPCB",06-09-2025 07:00:00,16.5150833,80.5181667,NH3,4,5,5
India,Andhra_Pradesh,Anantapur,"Gulzarpet, Anantapur - APPCB",06-09-2025 07:00:00,14.675886,77.593027,NO2,18,19,18
India,Andhra_Pradesh,Chittoor,"Gangineni Cheruvu, Chittoor - APPCB",06-09-2025 07:00:00,13.204880,79.097889,PM2.5,66,139,94
India,Andhra_Pradesh,Chittoor,"Gangineni Cheruvu, Chittoor - APPCB",06-09-2025 07:00:00,13.204880,79.097889,PM10,66,110,87
India,Bihar,Gaya,"SFTI Kusdihra, Gaya - BSPCB",06-09-2025 07:00:00,24.762518,84.982348,CO,18,38,24
India,Bihar,Gaya,"SFTI Kusdihra, Gaya - BSPCB",06-09-2025 07:00:00,24.762518,84.982348,OZONE,8,21,10
India,Bihar,Katihar,"Mirchaibari, Katihar - BSPCB",06-09-2025 07:00:00,25.560083,87.553265,NH3,1,1,1
India,Bihar,Manguraha,"Forest Rest House, Manguraha - BSPCB",06-09-2025 07:00:00,27.308328,84.531742,NO2,3,5,4
India,Bihar,Manguraha,"Forest Rest House, Manguraha - BSPCB",06-09-2025 07:00:00,27.308328,84.531742,NH3,1,1,1
India,Bihar,Motihari,"Gandak Colony, Motihari - BSPCB",06-09-2025 07:00:00,26.63086,84.90051,PM10,NA,NA,NA
India,Bihar,Motihari,"Gandak Colony, Motihari - BSPCB",06-09-2025 07:00:00,26.63086,84.90051,NO2,NA,NA,NA
India,Bihar,Motihari,"Gandak Colony, Motihari - BSPCB",06-09-2025 07:00:00,26.63086,84.90051,NH3,NA,NA,NA
India,Bihar,Munger,"Town Hall, Munger - BSPCB",06-09-2025 07:00:00,25.376776,86.471523,NO2,4,5,5
India,Bihar,Muzaffarpur,"Buddha Colony, Muzaffarpur - BSPCB",06-09-2025 07:00:00,26.11442,85.39813,CO,16,38,22
India,Assam,Nagaon,"Christianpatty, Nagaon - PCBA",06-09-2025 07:00:00,26.349082,92.68449,NO2,1,1,1
India,Assam,Nalbari,"Bata Chowk, Nalbari - PCBA",06-09-2025 07:00:00,26.446912,91.439057,PM2.5,NA,NA,NA
India,Assam,Nalbari,"Bata Chowk, Nalbari - PCBA",06-09-2025 07:00:00,26.446912,91.439057,NH3,1,7,2
India,Assam,Nalbari,"Bata Chowk, Nalbari - PCBA",06-09-2025 07:00:00,26.446912,91.439057,CO,4,32,22
India,Andhra_Pradesh,Vijayawada,"Rajiv Nagar, Vijayawada - APPCB",06-09-2025 07:00:00,16.554731,80.649110,NO2,NA,NA,NA
India,Andhra_Pradesh,Visakhapatnam,"GVM Corporation, Visakhapatnam - APPCB",06-09-2025 07:00:00,17.72,83.3,PM10,76,163,109
India,Chhattisgarh,Raipur,"Bhatagaon New ISBT, Raipur - CECB",06-09-2025 07:00:00,21.219665,81.630094,NO2,8,16,11
India,Chhattisgarh,Raipur,"Krishak Nagar, Raipur - CECB",06-09-2025 07:00:00,21.237755,81.705301,CO,4,10,9
India,Chhattisgarh,Raipur,"Siltara Phase-II, Raipur - CECB",06-09-2025 07:00:00,21.371751,81.664929,NO2,5,50,18
India,Chhattisgarh,Raipur,"Siltara Phase-II, Raipur - CECB",06-09-2025 07:00:00,21.371751,81.664929,SO2,5,10,8
India,Chhattisgarh,Raipur,"Siltara Phase-II, Raipur - CECB",06-09-2025 07:00:00,21.371751,81.664929,CO,22,87,47
India,Chhattisgarh,Tumidih,"OP Jindal Industrial Park, Tumidih - CECB",06-09-2025 07:00:00,22.06631475,83.33820077,PM10,7,122,44
India,Chhattisgarh,Tumidih,"OP Jindal Industrial Park, Tumidih - CECB",06-09-2025 07:00:00,22.06631475,83.33820077,CO,13,35,17
India,Bihar,Siwan,"Chitragupta Nagar, Siwan - BSPCB",06-09-2025 07:00:00,26.2271665,84.3570427,PM2.5,12,92,57
India,Chandigarh,Chandigarh,"Sector 22, Chandigarh - CPCC",06-09-2025 07:00:00,30.735567,76.775714,OZONE,4,33,6
India,Chandigarh,Chandigarh,"Sector-25, Chandigarh - CPCC",06-09-2025 07:00:00,30.751462,76.762879,PM2.5,30,97,54
India,Chandigarh,Chandigarh,"Sector-25, Chandigarh - CPCC",06-09-2025 07:00:00,30.751462,76.762879,NH3,3,5,4
India,Chandigarh,Chandigarh,"Sector-25, Chandigarh - CPCC",06-09-2025 07:00:00,30.751462,76.762879,CO,15,57,25
India,Chandigarh,Chandigarh,"Sector-53, Chandigarh - CPCC",06-09-2025 07:00:00,30.719859,76.738637,SO2,8,19,13
India,Delhi,Delhi,"Alipur, Delhi - DPCC",06-09-2025 07:00:00,28.815329,77.153010,OZONE,5,20,7
India,Delhi,Delhi,"Anand Vihar, Delhi - DPCC",06-09-2025 07:00:00,28.647622,77.3158090,PM10,28,141,81
India,Delhi,Delhi,"Anand Vihar, Delhi - DPCC",06-09-2025 07:00:00,28.647622,77.3158090,NO2,18,39,27
India,Delhi,Delhi,"Anand Vihar, Delhi - DPCC",06-09-2025 07:00:00,28.647622,77.3158090,CO,73,100,82
India,Delhi,Delhi,"Anand Vihar, Delhi - DPCC",06-09-2025 07:00:00,28.647622,77.3158090,OZONE,7,18,11
India,Delhi,Delhi,"Ashok Vihar, Delhi - DPCC",06-09-2025 07:00:00,28.695381,77.181665,SO2,9,17,14
India,Delhi,Delhi,"Aya Nagar, Delhi - IMD",06-09-2025 07:00:00,28.4706914,77.1099364,NO2,10,24,15
India,Chhattisgarh,Chhal,"Nawapara SECL Colony, Chhal - CECB",06-09-2025 07:00:00,22.118125,83.140608,SO2,6,16,10
India,Chhattisgarh,Chhal,"Nawapara SECL Colony, Chhal - CECB",06-09-2025 07:00:00,22.118125,83.140608,OZONE,16,28,24
India,Chhattisgarh,Korba,"Rampur, Korba - CECB",06-09-2025 07:00:00,22.368195,82.746431,PM2.5,25,39,26
India,Chhattisgarh,Korba,"Rampur, Korba - CECB",06-09-2025 07:00:00,22.368195,82.746431,NH3,1,1,1
India,Chhattisgarh,Kunjemura,"OP Jindal School, Kunjemura - CECB",06-09-2025 07:00:00,22.126650,83.483212,PM10,17,172,59
India,Chhattisgarh,Kunjemura,"OP Jindal School, Kunjemura - CECB",06-09-2025 07:00:00,22.126650,83.483212,CO,20,31,27
India,Bihar,Patna,"IGSC Planetarium Complex, Patna - BSPCB",06-09-2025 07:00:00,25.610369,85.132568,SO2,2,32,19
India,Bihar,Patna,"Muradpur, Patna - BSPCB",06-09-2025 07:00:00,25.619651,85.147382,SO2,10,16,13
India,Bihar,Patna,"Muradpur, Patna - BSPCB",06-09-2025 07:00:00,25.619651,85.147382,OZONE,9,18,12
India,Bihar,Patna,"Samanpura, Patna - BSPCB",06-09-2025 07:00:00,25.596727,85.085624,SO2,1,1,1
India,Bihar,Patna,"Samanpura, Patna - BSPCB",06-09-2025 07:00:00,25.596727,85.085624,OZONE,16,43,19
India,Bihar,Purnia,"Mariam Nagar, Purnia - BSPCB",06-09-2025 07:00:00,25.366336,87.117468,SO2,NA,NA,NA
India,Bihar,Rajgir,"Dangi Tola, Rajgir - BSPCB",06-09-2025 07:00:00,25.03280,85.41948,NH3,5,7,6
India,Bihar,Rajgir,"Dangi Tola, Rajgir - BSPCB",06-09-2025 07:00:00,25.03280,85.41948,SO2,17,23,21
India,Bihar,Saharsa,"Police Line, Saharsa - BSPCB",06-09-2025 07:00:00,25.892357,86.590325,NH3,4,5,4
India,Bihar,Samastipur,"DM Office_Kasipur, Samastipur - BSPCB",06-09-2025 07:00:00,25.859655,85.77944,NH3,2,2,2
India,Bihar,Samastipur,"DM Office_Kasipur, Samastipur - BSPCB",06-09-2025 07:00:00,25.859655,85.77944,CO,2,46,12
India,Chhattisgarh,Bhilai,"Hathkhoj, Bhilai - CECB",06-09-2025 07:00:00,21.224231,81.408350,PM10,14,50,28
India,Chhattisgarh,Bhilai,"Hathkhoj, Bhilai - CECB",06-09-2025 07:00:00,21.224231,81.408350,NH3,3,4,4
India,Chhattisgarh,Bhilai,"Hathkhoj, Bhilai - CECB",06-09-2025 07:00:00,21.224231,81.408350,CO,9,100,24
India,Chhattisgarh,Bhilai,"Hathkhoj, Bhilai - CECB",06-09-2025 07:00:00,21.224231,81.408350,OZONE,7,26,9
India,Chhattisgarh,Bilaspur,"Mangala, Bilaspur - NTPC",06-09-2025 07:00:00,22.08815,82.13737,PM2.5,20,78,41
India,Chandigarh,Chandigarh,"Sector-53, Chandigarh - CPCC",06-09-2025 07:00:00,30.719859,76.738637,OZONE,5,28,8
India,Chhattisgarh,Bhilai,"Civic Center, Bhilai - Bhilai Steel Plant",06-09-2025 07:00:00,21.185571,81.343175,PM2.5,15,56,26
India,Bihar,Muzaffarpur,"Muzaffarpur Collectorate, Muzaffarpur - BSPCB",06-09-2025 07:00:00,26.1209,85.3647,SO2,4,6,5
India,Delhi,Delhi,"Sri Aurobindo Marg, Delhi - DPCC",06-09-2025 07:00:00,28.531346,77.190156,PM2.5,12,37,23
India,Delhi,Delhi,"Sri Aurobindo Marg, Delhi - DPCC",06-09-2025 07:00:00,28.531346,77.190156,PM10,25,77,49
India,Delhi,Delhi,"Sri Aurobindo Marg, Delhi - DPCC",06-09-2025 07:00:00,28.531346,77.190156,NH3,4,5,4
India,Delhi,Delhi,"Sri Aurobindo Marg, Delhi - DPCC",06-09-2025 07:00:00,28.531346,77.190156,OZONE,12,32,14
India,Delhi,Delhi,"Vivek Vihar, Delhi - DPCC",06-09-2025 07:00:00,28.672342,77.315260,CO,14,112,42
India,Delhi,Delhi,"Vivek Vihar, Delhi - DPCC",06-09-2025 07:00:00,28.672342,77.315260,OZONE,2,29,6
India,Delhi,Delhi,"Wazirpur, Delhi - DPCC",06-09-2025 07:00:00,28.699793,77.165453,NH3,6,7,7
India,Delhi,Delhi,"Wazirpur, Delhi - DPCC",06-09-2025 07:00:00,28.699793,77.165453,OZONE,14,42,29
India,Gujarat,Ahmedabad,"Chandkheda, Ahmedabad - IITM",06-09-2025 07:00:00,23.107969,72.574648,PM2.5,11,39,23
India,Gujarat,Ahmedabad,"Chandkheda, Ahmedabad - IITM",06-09-2025 07:00:00,23.107969,72.574648,SO2,1,9,3
India,Gujarat,Ahmedabad,"Gyaspur, Ahmedabad - IITM",06-09-2025 07:00:00,22.977134,72.553024,PM2.5,8,34,22
India,Delhi,Delhi,"Dr. Karni Singh Shooting Range, Delhi - DPCC",06-09-2025 07:00:00,28.498571,77.264840,OZONE,9,40,15
India,Delhi,Delhi,"Dwarka-Sector 8, Delhi - DPCC ",06-09-2025 07:00:00,28.5710274,77.0719006,NH3,4,5,4
India,Delhi,Delhi,"ITO, Delhi - CPCB",06-09-2025 07:00:00,28.628624,77.241060,PM10,24,56,36
India,Delhi,Delhi,"ITO, Delhi - CPCB",06-09-2025 07:00:00,28.628624,77.241060,NO2,76,93,82
India,Delhi,Delhi,"Jahangirpuri, Delhi - DPCC",06-09-2025 07:00:00,28.732820,77.170633,PM2.5,50,263,122
India,Delhi,Delhi,"Jahangirpuri, Delhi - DPCC",06-09-2025 07:00:00,28.732820,77.170633,NH3,6,6,6
India,Delhi,Delhi,"Bawana, Delhi - DPCC",06-09-2025 07:00:00,28.776200,77.051074,NH3,4,6,5
India,Delhi,Delhi,"CRRI Mathura Road, Delhi - IMD",06-09-2025 07:00:00,28.5512005,77.2735737,NO2,20,41,29
India,Delhi,Delhi,"Chandni Chowk, Delhi - IITM",06-09-2025 07:00:00,28.656756,77.227234,OZONE,7,72,9
India,Delhi,Delhi,"DTU, Delhi - CPCB",06-09-2025 07:00:00,28.7500499,77.1112615,PM10,25,76,51
India,Delhi,Delhi,"Dr. Karni Singh Shooting Range, Delhi - DPCC",06-09-2025 07:00:00,28.498571,77.264840,NH3,3,5,4
India,Delhi,Delhi,"Rohini, Delhi - DPCC",06-09-2025 07:00:00,28.732528,77.119920,PM2.5,5,80,45
India,Delhi,Delhi,"Shadipur, Delhi - CPCB",06-09-2025 07:00:00,28.6514781,77.1473105,PM2.5,NA,NA,NA
India,Delhi,Delhi,"Shadipur, Delhi - CPCB",06-09-2025 07:00:00,28.6514781,77.1473105,PM10,NA,NA,NA
India,Delhi,Delhi,"Shadipur, Delhi - CPCB",06-09-2025 07:00:00,28.6514781,77.1473105,OZONE,6,7,7
India,Delhi,Delhi,"Sirifort, Delhi - CPCB",06-09-2025 07:00:00,28.5504249,77.2159377,OZONE,28,34,31
India,Delhi,Delhi,"Sonia Vihar, Delhi - DPCC",06-09-2025 07:00:00,28.710508,77.249485,SO2,11,16,14
India,Gujarat,Ahmedabad,"Gyaspur, Ahmedabad - IITM",06-09-2025 07:00:00,22.977134,72.553024,CO,29,62,60
India,Gujarat,Ahmedabad,"Maninagar, Ahmedabad - GPCB",06-09-2025 07:00:00,23.002657,72.591912,PM10,20,63,44
India,Gujarat,Ahmedabad,"Maninagar, Ahmedabad - GPCB",06-09-2025 07:00:00,23.002657,72.591912,NO2,16,17,16
India,Gujarat,Ahmedabad,"Maninagar, Ahmedabad - GPCB",06-09-2025 07:00:00,23.002657,72.591912,CO,4,26,16
India,Gujarat,Ahmedabad,"Raikhad, Ahmedabad - IITM",06-09-2025 07:00:00,23.020509,72.579261,NH3,2,2,2
India,Gujarat,Ahmedabad,"Raikhad, Ahmedabad - IITM",06-09-2025 07:00:00,23.020509,72.579261,SO2,6,10,8
India,Gujarat,Ahmedabad,"SVPI Airport Hansol, Ahmedabad - IITM",06-09-2025 07:00:00,23.076793,72.627874,PM2.5,7,31,19
India,Gujarat,Ahmedabad,"SVPI Airport Hansol, Ahmedabad - IITM",06-09-2025 07:00:00,23.076793,72.627874,NH3,1,1,1
India,Gujarat,Ankleshwar,"GIDC, Ankleshwar - GPCB",06-09-2025 07:00:00,21.613267,73.010555,NO2,22,28,26
India,Gujarat,Gandhinagar,"GIFT City, Gandhinagar - IITM",06-09-2025 07:00:00,23.163798,72.677768,PM2.5,9,25,15
India,Delhi,Delhi,"Najafgarh, Delhi - DPCC",06-09-2025 07:00:00,28.570173,76.933762,PM2.5,15,45,31
India,Delhi,Delhi,"Najafgarh, Delhi - DPCC",06-09-2025 07:00:00,28.570173,76.933762,OZONE,5,33,7
India,Delhi,Delhi,"Narela, Delhi - DPCC",06-09-2025 07:00:00,28.822836,77.101981,PM2.5,22,73,45
India,Delhi,Delhi,"Narela, Delhi - DPCC",06-09-2025 07:00:00,28.822836,77.101981,NO2,2,22,10
India,Delhi,Delhi,"Narela, Delhi - DPCC",06-09-2025 07:00:00,28.822836,77.101981,OZONE,1,24,3
India,Delhi,Delhi,"Okhla Phase-2, Delhi - DPCC",06-09-2025 07:00:00,28.530785,77.271255,NH3,5,6,5
India,Delhi,Delhi,"Okhla Phase-2, Delhi - DPCC",06-09-2025 07:00:00,28.530785,77.271255,SO2,6,15,12
India,Delhi,Delhi,"Pusa, Delhi - DPCC",06-09-2025 07:00:00,28.639652,77.146275,PM2.5,15,63,35
India,Delhi,Delhi,"Pusa, Delhi - IMD",06-09-2025 07:00:00,28.636110,77.173332,NO2,7,23,12
India,Delhi,Delhi,"Jawaharlal Nehru Stadium, Delhi - DPCC",06-09-2025 07:00:00,28.580280,77.233829,NO2,36,73,47
India,Delhi,Delhi,"Lodhi Road, Delhi - IITM",06-09-2025 07:00:00,28.588333,77.221667,SO2,7,14,12
India,Delhi,Delhi,"Mandir Marg, Delhi - DPCC",06-09-2025 07:00:00,28.636429,77.201067,NH3,1,5,4
India,Karnataka,Mysuru,"Hebbal 1st Stage, Mysuru - KSPCB",06-09-2025 07:00:00,12.21041,76.37376,SO2,1,17,7
India,Karnataka,Ramanagara,"Vijay Nagar, Ramanagara - KSPCB",06-09-2025 07:00:00,12.733409,77.298051,SO2,21,25,23
India,Karnataka,Shivamogga,"Vinoba Nagara, Shivamogga - KSPCB",06-09-2025 07:00:00,13.940000,75.555917,PM2.5,16,37,27
India,Karnataka,Shivamogga,"Vinoba Nagara, Shivamogga - KSPCB",06-09-2025 07:00:00,13.940000,75.555917,NO2,11,17,13
India,Karnataka,Shivamogga,"Vinoba Nagara, Shivamogga - KSPCB",06-09-2025 07:00:00,13.940000,75.555917,OZONE,13,36,16
India,Karnataka,Vijayapura,"Ibrahimpur, Vijayapura - KSPCB",06-09-2025 07:00:00,16.802639,75.722694,PM2.5,30,38,37
India,Karnataka,Vijayapura,"Ibrahimpur, Vijayapura - KSPCB",06-09-2025 07:00:00,16.802639,75.722694,PM10,43,44,44
India,Karnataka,Vijayapura,"Ibrahimpur, Vijayapura - KSPCB",06-09-2025 07:00:00,16.802639,75.722694,OZONE,14,17,16
India,Karnataka,Kalaburagi,"Lal Bahadur Shastri Nagar, Kalaburagi - KSPCB",06-09-2025 07:00:00,17.321993,76.822628,PM2.5,NA,NA,NA
India,Karnataka,Kalaburagi,"Lal Bahadur Shastri Nagar, Kalaburagi - KSPCB",06-09-2025 07:00:00,17.321993,76.822628,CO,34,40,38
India,Karnataka,Kalaburagi,"Mahatma Basaveswar Colony, Kalaburgi - KSPCB",06-09-2025 07:00:00,17.336318,76.847397,SO2,3,7,5
India,Karnataka,Koppal,"Diwator Nagar, Koppal - KSPCB",06-09-2025 07:00:00,15.347630,76.181767,PM2.5,4,18,10
India,Karnataka,Mysuru,"Hebbal 1st Stage, Mysuru - KSPCB",06-09-2025 07:00:00,12.21041,76.37376,PM2.5,12,26,18
India,Karnataka,Mysuru,"Hebbal 1st Stage, Mysuru - KSPCB",06-09-2025 07:00:00,12.21041,76.37376,PM10,17,50,34
India,Karnataka,Chikkamagaluru,"Kalyana Nagara, Chikkamagaluru - KSPCB",06-09-2025 07:00:00,13.328028,75.797056,NO2,18,27,23
India,Karnataka,Chikkamagaluru,"Kalyana Nagara, Chikkamagaluru - KSPCB",06-09-2025 07:00:00,13.328028,75.797056,CO,8,11,11
India,Karnataka,Davanagere,"Devaraj Urs Badavane, Davanagere - KSPCB",06-09-2025 07:00:00,14.475800,75.905200,NO2,NA,NA,NA
India,Karnataka,Haveri,"Ashwini Nagar, Haveri - KSPCB",06-09-2025 07:00:00,14.791800,75.389600,SO2,102,115,106
India,Karnataka,Haveri,"Ashwini Nagar, Haveri - KSPCB",06-09-2025 07:00:00,14.791800,75.389600,OZONE,13,32,18
India,Karnataka,Hubballi,"Lingaraj Nagar, Hubballi - KSPCB",06-09-2025 07:00:00,15.3714823,75.1160168,SO2,1,1,1
India,Karnataka,Bengaluru,"Hombegowda Nagar, Bengaluru - KSPCB",06-09-2025 07:00:00,12.938539,77.590100,NH3,1,2,2
India,Karnataka,Bengaluru,"Jigani, Bengaluru - KSPCB",06-09-2025 07:00:00,12.7816279,77.6299145,CO,36,38,38
India,Karnataka,Bengaluru,"Peenya, Bengaluru - CPCB",06-09-2025 07:00:00,13.0270199,77.494094,PM2.5,18,48,29
India,Karnataka,Bengaluru,"Peenya, Bengaluru - CPCB",06-09-2025 07:00:00,13.0270199,77.494094,SO2,2,8,5
India,Karnataka,Bengaluru,"RVCE-Mailasandra, Bengaluru - KSPCB",06-09-2025 07:00:00,12.921418,77.502466,SO2,6,6,6
India,Karnataka,Bengaluru,"RVCE-Mailasandra, Bengaluru - KSPCB",06-09-2025 07:00:00,12.921418,77.502466,CO,22,44,31
India,Karnataka,Bengaluru,"Sanegurava Halli, Bengaluru - KSPCB",06-09-2025 07:00:00,12.990328,77.5431385,SO2,7,7,7
India,Karnataka,Bengaluru,"Silk Board, Bengaluru - KSPCB",06-09-2025 07:00:00,12.917348,77.622813,PM2.5,10,40,26
India,Karnataka,Bengaluru,"Silk Board, Bengaluru - KSPCB",06-09-2025 07:00:00,12.917348,77.622813,SO2,9,14,12
India,Karnataka,Chamarajanagar,"Urban, Chamarajanagar - KSPCB",06-09-2025 07:00:00,11.55358,76.55521,PM2.5,19,45,30
India,Karnataka,Chamarajanagar,"Urban, Chamarajanagar - KSPCB",06-09-2025 07:00:00,11.55358,76.55521,NO2,14,30,24
India,Karnataka,Bagalkot,"Vidayagiri, Bagalkot - KSPCB",06-09-2025 07:00:00,16.172806,75.659694,NH3,1,2,1
India,Karnataka,Bengaluru,"BTM Layout, Bengaluru - CPCB",06-09-2025 07:00:00,12.9135218,77.5950804,PM10,47,49,48
India,Karnataka,Bengaluru,"Bapuji Nagar, Bengaluru - KSPCB",06-09-2025 07:00:00,12.951913,77.539784,NO2,3,8,6
India,Karnataka,Bengaluru,"Hebbal, Bengaluru - KSPCB",06-09-2025 07:00:00,13.029152,77.585901,PM10,18,46,32
India,Gujarat,Gandhinagar,"IIPHG Lekawada, Gandhinagar - IITM",06-09-2025 07:00:00,23.243639,72.68994,PM2.5,12,40,28
India,Gujarat,Gandhinagar,"IIPHG Lekawada, Gandhinagar - IITM",06-09-2025 07:00:00,23.243639,72.68994,PM10,16,45,33
India,Gujarat,Gandhinagar,"IIPHG Lekawada, Gandhinagar - IITM",06-09-2025 07:00:00,23.243639,72.68994,NO2,5,8,6
India,Gujarat,Gandhinagar,"IIPHG Lekawada, Gandhinagar - IITM",06-09-2025 07:00:00,23.243639,72.68994,CO,37,60,40
India,Gujarat,Gandhinagar,"IIPHG Lekawada, Gandhinagar - IITM",06-09-2025 07:00:00,23.243639,72.68994,OZONE,5,21,13
India,Gujarat,Nandesari,"GIDC, Nandesari - Nandesari Ind. Association",06-09-2025 07:00:00,22.410802,73.097923,SO2,NA,NA,NA
India,Gujarat,Surat,"Science Center, Surat - SMC",06-09-2025 07:00:00,21.170046,72.795405,SO2,15,18,17
India,Jharkhand,Jorapokhar,"Tata Stadium, Jorapokhar - JSPCB",06-09-2025 07:00:00,23.707909,86.414670,OZONE,1,52,2
India,Maharashtra,Ahmednagar,"Tarakpur, Ahmednagar - MPCB",06-09-2025 07:00:00,19.10122,74.73339,SO2,1,5,3
India,Maharashtra,Ahmednagar,"Tarakpur, Ahmednagar - MPCB",06-09-2025 07:00:00,19.10122,74.73339,OZONE,6,29,10
India,Maharashtra,Akola,"Ramdaspeth, Akola - MPCB",06-09-2025 07:00:00,20.719516,77.000253,CO,14,23,16
India,Maharashtra,Amravati,"Shivneri Colony, Amravati - MPCB",06-09-2025 07:00:00,20.9402359,77.7895248,CO,10,30,12
India,Maharashtra,Amravati,"Shri Shivaji Science College, Amravati - MPCB",06-09-2025 07:00:00,20.939198,77.765701,PM2.5,5,40,21
India,Maharashtra,Amravati,"Shri Shivaji Science College, Amravati - MPCB",06-09-2025 07:00:00,20.939198,77.765701,NH3,1,3,1
India,Maharashtra,Amravati,"Shri Shivaji Science College, Amravati - MPCB",06-09-2025 07:00:00,20.939198,77.765701,CO,30,64,31
India,Maharashtra,Aurangabad,"MIDC Chilkalthana, Aurangabad - MPCB",06-09-2025 07:00:00,19.875620,75.387310,PM2.5,3,31,17
India,Maharashtra,Aurangabad,"MIDC Chilkalthana, Aurangabad - MPCB",06-09-2025 07:00:00,19.875620,75.387310,NH3,1,3,2
India,Kerala,Thiruvananthapuram,"Kariavattom, Thiruvananthapuram - Kerala PCB",06-09-2025 07:00:00,8.563700,76.886500,NO2,6,7,7
India,Kerala,Thiruvananthapuram,"Kariavattom, Thiruvananthapuram - Kerala PCB",06-09-2025 07:00:00,8.563700,76.886500,OZONE,36,36,36
India,Kerala,Thiruvananthapuram,"Plammoodu, Thiruvananthapuram - Kerala PCB",06-09-2025 07:00:00,8.5149093,76.9435879,PM2.5,7,178,46
India,Kerala,Thiruvananthapuram,"Plammoodu, Thiruvananthapuram - Kerala PCB",06-09-2025 07:00:00,8.5149093,76.9435879,PM10,3,123,31
India,Kerala,Thiruvananthapuram,"Plammoodu, Thiruvananthapuram - Kerala PCB",06-09-2025 07:00:00,8.5149093,76.9435879,CO,4,8,5
India,Kerala,Thrissur,"Corporation Ground, Thrissur - Kerala PCB",06-09-2025 07:00:00,10.532400,76.215900,CO,31,40,34
India,Madhya Pradesh,Bhopal,"Idgah Hills, Bhopal - MPPCB",06-09-2025 07:00:00,23.264759,77.381568,CO,14,30,20
India,Madhya Pradesh,Indore,"Maguda Nagar, Indore - IMC",06-09-2025 07:00:00,22.7524,75.8872,PM10,3,25,13
India,Madhya Pradesh,Indore,"Regional Park, Indore - IMC",06-09-2025 07:00:00,22.6780,75.8559,NH3,1,2,1
India,Madhya Pradesh,Indore,"Residency Area, Indore - IMC",06-09-2025 07:00:00,22.7084,75.8815,CO,12,14,13
India,Madhya Pradesh,Indore,"Residency Area, Indore - IMC",06-09-2025 07:00:00,22.7084,75.8815,OZONE,8,12,11
India,Madhya Pradesh,Jabalpur,"Govindh Bhavan Colony, Jabalpur - JMC",06-09-2025 07:00:00,23.163174,79.973061,NO2,36,37,36
India,Madhya Pradesh,Jabalpur,"Gupteshwar, Jabalpur - JMC",06-09-2025 07:00:00,23.142888,79.916147,PM10,24,47,30
India,Madhya Pradesh,Jabalpur,"Gupteshwar, Jabalpur - JMC",06-09-2025 07:00:00,23.142888,79.916147,NO2,10,30,14
India,Madhya Pradesh,Pithampur,"Sector-2 Industrial Area, Pithampur - MPPCB",06-09-2025 07:00:00,22.624758,75.675238,NO2,10,26,14
India,Madhya Pradesh,Sagar,"Civil Lines, Sagar - MPPCB",06-09-2025 07:00:00,23.838586,78.759431,NH3,1,1,1
India,Madhya Pradesh,Satna,"Bandhavgar Colony, Satna - Birla Cement",06-09-2025 07:00:00,24.58434363,80.8549414,PM10,58,60,59
India,Madhya Pradesh,Satna,"Bandhavgar Colony, Satna - Birla Cement",06-09-2025 07:00:00,24.58434363,80.8549414,CO,16,42,19
India,Madhya Pradesh,Singrauli,"Suryakiran Bhawan NCL, Singrauli - MPPCB",06-09-2025 07:00:00,24.108970,82.645580,NO2,18,28,21
India,Madhya Pradesh,Singrauli,"Suryakiran Bhawan NCL, Singrauli - MPPCB",06-09-2025 07:00:00,24.108970,82.645580,NH3,5,6,6
India,Madhya Pradesh,Bhopal,"Paryavaran Parisar, Bhopal - MPPCB",06-09-2025 07:00:00,23.210494,77.425409,OZONE,24,44,40
India,Madhya Pradesh,Damoh,"Shrivastav Colony, Damoh - MPPCB",06-09-2025 07:00:00,23.81748678,79.446246,PM2.5,4,24,11
India,Madhya Pradesh,Dewas,"Bhopal Chauraha, Dewas - MPPCB",06-09-2025 07:00:00,22.9682591,76.064118,CO,5,28,12
India,Madhya Pradesh,Gwalior,"City Center, Gwalior - MPPCB",06-09-2025 07:00:00,26.203442,78.193251,PM2.5,NA,NA,NA
India,Madhya Pradesh,Gwalior,"City Center, Gwalior - MPPCB",06-09-2025 07:00:00,26.203442,78.193251,NH3,2,2,2
India,Karnataka,Yadgir,"Collector Office, Yadgir - KSPCB",06-09-2025 07:00:00,16.7602,77.1428,PM2.5,8,38,17
India,Karnataka,Yadgir,"Collector Office, Yadgir - KSPCB",06-09-2025 07:00:00,16.7602,77.1428,PM10,26,66,41
India,Kerala,Kannur,"Thavakkara, Kannur - Kerala PCB",06-09-2025 07:00:00,11.875000,75.373200,PM10,58,63,59
India,Kerala,Kollam,"Polayathode, Kollam - Kerala PCB",06-09-2025 07:00:00,8.8787,76.6073,PM10,32,61,44
India,Madhya Pradesh,Jabalpur,"Suhagi, Jabalpur - JMC",06-09-2025 07:00:00,23.218135,79.957770,PM10,17,49,31
India,Madhya Pradesh,Katni,"Gole Bazar, Katni - MPPCB",06-09-2025 07:00:00,23.50016,80.23284,PM2.5,12,49,25
India,Madhya Pradesh,Katni,"Gole Bazar, Katni - MPPCB",06-09-2025 07:00:00,23.50016,80.23284,PM10,22,110,54
India,Madhya Pradesh,Katni,"Gole Bazar, Katni - MPPCB",06-09-2025 07:00:00,23.50016,80.23284,OZONE,12,48,17
India,Madhya Pradesh,Gwalior,"Deen Dayal Nagar, Gwalior - MPPCB",06-09-2025 07:00:00,26.259242,78.216432,PM10,6,85,39
India,Madhya Pradesh,Gwalior,"Deen Dayal Nagar, Gwalior - MPPCB",06-09-2025 07:00:00,26.259242,78.216432,SO2,7,16,10
India,Madhya Pradesh,Indore,"Chhoti Gwaltoli, Indore - MPPCB",06-09-2025 07:00:00,22.4310,75.5213,OZONE,12,33,28
India,Maharashtra,Aurangabad,"More Chowk Waluj, Aurangabad - MPCB",06-09-2025 07:00:00,19.8389439,75.244448,NO2,14,22,18
India,Maharashtra,Mumbai,"Malad West, Mumbai - IITM",06-09-2025 07:00:00,19.19709,72.82204,SO2,3,6,4
India,Maharashtra,Mumbai,"Mazgaon, Mumbai - IITM",06-09-2025 07:00:00,18.96702,72.84214,NO2,12,41,26
India,Maharashtra,Mumbai,"Mazgaon, Mumbai - IITM",06-09-2025 07:00:00,18.96702,72.84214,SO2,1,3,1
India,Maharashtra,Mumbai,"Mindspace-Malad West, Mumbai - MPCB",06-09-2025 07:00:00,19.1878657,72.8304069,PM10,35,37,36
India,Maharashtra,Mumbai,"Mindspace-Malad West, Mumbai - MPCB",06-09-2025 07:00:00,19.1878657,72.8304069,NO2,15,16,15
India,Maharashtra,Mumbai,"Mindspace-Malad West, Mumbai - MPCB",06-09-2025 07:00:00,19.1878657,72.8304069,OZONE,28,31,30
India,Maharashtra,Mumbai,"Mulund West, Mumbai - MPCB",06-09-2025 07:00:00,19.1750,72.9419,PM2.5,17,53,32
India,Maharashtra,Mumbai,"Mulund West, Mumbai - MPCB",06-09-2025 07:00:00,19.1750,72.9419,SO2,NA,NA,NA
India,Maharashtra,Mumbai,"Navy Nagar-Colaba, Mumbai - IITM",06-09-2025 07:00:00,18.897756,72.813320,PM2.5,22,87,55
India,Maharashtra,Mumbai,"Kandivali East, Mumbai - MPCB",06-09-2025 07:00:00,19.205800,72.868200,NH3,1,1,1
India,Maharashtra,Mumbai,"Kandivali East, Mumbai - MPCB",06-09-2025 07:00:00,19.205800,72.868200,CO,11,28,20
India,Maharashtra,Mumbai,"Kandivali West, Mumbai - BMC",06-09-2025 07:00:00,19.215859,72.831718,CO,1,22,4
India,Maharashtra,Mumbai,"Kherwadi_Bandra East, Mumbai - MPCB",06-09-2025 07:00:00,19.0632143,72.8456324,PM2.5,10,80,26
India,Maharashtra,Mumbai,"Kherwadi_Bandra East, Mumbai - MPCB",06-09-2025 07:00:00,19.0632143,72.8456324,PM10,24,78,42
India,Maharashtra,Mumbai,"Kherwadi_Bandra East, Mumbai - MPCB",06-09-2025 07:00:00,19.0632143,72.8456324,NO2,16,16,16
India,Maharashtra,Mumbai,"Khindipada-Bhandup West, Mumbai - IITM",06-09-2025 07:00:00,19.1653323,72.922099,NO2,2,13,6
India,Maharashtra,Mumbai,"Kurla, Mumbai - MPCB",06-09-2025 07:00:00,19.0863,72.8888,NO2,NA,NA,NA
India,Maharashtra,Mumbai,"Borivali East, Mumbai - MPCB",06-09-2025 07:00:00,19.2243333,72.8658113,NO2,2,6,4
India,Maharashtra,Mumbai,"Byculla, Mumbai - BMC",06-09-2025 07:00:00,18.9767,72.8380,PM2.5,15,42,29
India,Maharashtra,Mumbai,"Byculla, Mumbai - BMC",06-09-2025 07:00:00,18.9767,72.8380,PM10,10,59,35
India,Maharashtra,Mumbai,"Byculla, Mumbai - BMC",06-09-2025 07:00:00,18.9767,72.8380,NO2,7,28,15
India,Maharashtra,Mumbai,"Byculla, Mumbai - BMC",06-09-2025 07:00:00,18.9767,72.8380,NH3,1,5,2
India,Maharashtra,Mumbai,"Chakala-Andheri East, Mumbai - IITM",06-09-2025 07:00:00,19.11074,72.86084,CO,12,42,18
India,Maharashtra,Mumbai,"Chembur, Mumbai - MPCB",06-09-2025 07:00:00,19.0364585,72.8954371,PM10,36,77,53
India,Maharashtra,Mumbai,"Chembur, Mumbai - MPCB",06-09-2025 07:00:00,19.0364585,72.8954371,OZONE,3,40,21
India,Maharashtra,Bhiwandi,"Gokul Nagar, Bhiwandi - MPCB",06-09-2025 07:00:00,19.309073,73.057223,NO2,29,51,39
India,Maharashtra,Bhiwandi,"Gokul Nagar, Bhiwandi - MPCB",06-09-2025 07:00:00,19.309073,73.057223,CO,20,42,30
India,Maharashtra,Bhiwandi,"Gokul Nagar, Bhiwandi - MPCB",06-09-2025 07:00:00,19.309073,73.057223,OZONE,13,39,15
India,Maharashtra,Boisar,"Khaira, Boisar - MPCB",06-09-2025 07:00:00,19.786089,72.757971,NH3,6,26,11
India,Maharashtra,Chandrapur,"MIDC Khutala, Chandrapur - MPCB",06-09-2025 07:00:00,19.9775302,79.2337086,PM10,22,78,37
India,Maharashtra,Dhule,"Deopur, Dhule - MPCB",06-09-2025 07:00:00,20.918946,74.776388,NO2,3,40,15
India,Maharashtra,Dhule,"Deopur, Dhule - MPCB",06-09-2025 07:00:00,20.918946,74.776388,NH3,3,8,4
India,Maharashtra,Jalgaon,"Prabhat Colony, Jalgaon - MPCB",06-09-2025 07:00:00,21.001264,75.565602,PM2.5,7,35,19
India,Maharashtra,Jalgaon,"Prabhat Colony, Jalgaon - MPCB",06-09-2025 07:00:00,21.001264,75.565602,SO2,7,10,8
India,Maharashtra,Jalgaon,"Prabhat Colony, Jalgaon - MPCB",06-09-2025 07:00:00,21.001264,75.565602,OZONE,14,19,15
India,Maharashtra,Jalna,"Old MIDC, Jalna - MPCB",06-09-2025 07:00:00,19.854616,75.905894,NH3,2,4,4
India,Maharashtra,Jalna,"Old MIDC, Jalna - MPCB",06-09-2025 07:00:00,19.854616,75.905894,SO2,28,29,28
India,Maharashtra,Jalna,"Old MIDC, Jalna - MPCB",06-09-2025 07:00:00,19.854616,75.905894,CO,4,18,6
India,Maharashtra,Kalyan,"Khadakpada, Kalyan - MPCB",06-09-2025 07:00:00,19.25292,73.142019,PM10,31,112,62
India,Maharashtra,Mumbai,"Chhatrapati Shivaji Intl. Airport (T2), Mumbai - MPCB",06-09-2025 07:00:00,19.10078,72.87462,PM2.5,32,41,36
India,Maharashtra,Mumbai,"Deonar, Mumbai - IITM",06-09-2025 07:00:00,19.04946,72.9230,PM2.5,9,42,21
India,Maharashtra,Mumbai,"Deonar, Mumbai - IITM",06-09-2025 07:00:00,19.04946,72.9230,NO2,9,22,17
India,Maharashtra,Mumbai,"Deonar, Mumbai - IITM",06-09-2025 07:00:00,19.04946,72.9230,SO2,5,6,6
India,Maharashtra,Mumbai,"Ghatkopar, Mumbai - BMC",06-09-2025 07:00:00,19.083694,72.920967,CO,4,52,42
India,Maharashtra,Mumbai,"Kandivali East, Mumbai - MPCB",06-09-2025 07:00:00,19.205800,72.868200,NO2,6,9,8
India,Maharashtra,Latur,"Sawe Wadi, Latur - MPCB",06-09-2025 07:00:00,18.39963,76.57452,CO,8,36,9
India,Maharashtra,Mahad,"Kamble Tarf Birwadi, Mahad - MPCB",06-09-2025 07:00:00,18.1023399,73.4783687,PM2.5,11,44,22
India,Maharashtra,Mahad,"Kamble Tarf Birwadi, Mahad - MPCB",06-09-2025 07:00:00,18.1023399,73.4783687,NO2,6,30,18
India,Maharashtra,Mahad,"Kamble Tarf Birwadi, Mahad - MPCB",06-09-2025 07:00:00,18.1023399,73.4783687,NH3,3,6,5
India,Maharashtra,Mira-Bhayandar,"Bhayandar West, Mira-Bhayandar - MPCB",06-09-2025 07:00:00,19.296481,72.840923,NH3,1,8,2
India,Maharashtra,Mumbai,"Bandra Kurla Complex, Mumbai - IITM",06-09-2025 07:00:00,19.053536,72.84643,PM2.5,8,50,17
India,Maharashtra,Mumbai,"Bandra Kurla Complex, Mumbai - IITM",06-09-2025 07:00:00,19.053536,72.84643,OZONE,1,6,3
India,Maharashtra,Aurangabad,"Rachnakar Colony, Aurangabad - MPCB",06-09-2025 07:00:00,19.863756,75.321188,SO2,7,23,12
India,Maharashtra,Aurangabad,"Rachnakar Colony, Aurangabad - MPCB",06-09-2025 07:00:00,19.863756,75.321188,CO,10,18,13
India,Maharashtra,Badlapur,"Katrap, Badlapur - MPCB",06-09-2025 07:00:00,19.16485,73.23409,PM2.5,NA,NA,NA
India,Maharashtra,Solapur,"Ratandeep Housing Society, Solapur - MPCB",06-09-2025 07:00:00,17.65439,75.90649,NH3,2,5,3
India,Maharashtra,Solapur,"Ratandeep Housing Society, Solapur - MPCB",06-09-2025 07:00:00,17.65439,75.90649,CO,7,34,10
India,Maharashtra,Thane,"Kasarvadavali, Thane - MPCB",06-09-2025 07:00:00,19.26777,72.97182,OZONE,6,16,15
India,Maharashtra,Thane,"Upvan Fort, Thane - MPCB",06-09-2025 07:00:00,19.222279,72.957979,NH3,1,3,1
India,Maharashtra,Thane,"Upvan Fort, Thane - MPCB",06-09-2025 07:00:00,19.222279,72.957979,CO,54,85,58
India,Maharashtra,Thane,"Upvan Fort, Thane - MPCB",06-09-2025 07:00:00,19.222279,72.957979,OZONE,6,25,12
India,Maharashtra,Ulhasnagar,"Sidhi Vinayak Nagar, Ulhasnagar - MPCB",06-09-2025 07:00:00,19.235581,73.159121,PM2.5,25,58,40
India,Maharashtra,Ulhasnagar,"Sidhi Vinayak Nagar, Ulhasnagar - MPCB",06-09-2025 07:00:00,19.235581,73.159121,NO2,23,46,34
India,Maharashtra,Ulhasnagar,"Sidhi Vinayak Nagar, Ulhasnagar - MPCB",06-09-2025 07:00:00,19.235581,73.159121,OZONE,14,38,15
India,Maharashtra,Nashik,"MIDC Ambad, Nashik - MPCB",06-09-2025 07:00:00,19.950220,73.731480,SO2,1,8,4
India,Maharashtra,Nashik,"MIDC Ambad, Nashik - MPCB",06-09-2025 07:00:00,19.950220,73.731480,OZONE,12,44,19
India,Maharashtra,Nashik,"Pandav Nagari, Nashik - MPCB",06-09-2025 07:00:00,19.9591346,73.7788008,PM10,10,43,27
India,Maharashtra,Nashik,"Pandav Nagari, Nashik - MPCB",06-09-2025 07:00:00,19.9591346,73.7788008,CO,10,22,14
India,Maharashtra,Navi Mumbai,"Kopripada-Vashi, Navi Mumbai - MPCB",06-09-2025 07:00:00,19.090337,73.014232,CO,16,101,27
India,Maharashtra,Navi Mumbai,"Mahape, Navi Mumbai - MPCB",06-09-2025 07:00:00,19.1135051,73.008978,PM2.5,5,12,8
India,Maharashtra,Navi Mumbai,"Nerul, Navi Mumbai - MPCB",06-09-2025 07:00:00,19.008751,73.016620,NO2,NA,NA,NA
India,Maharashtra,Pimpri-Chinchwad,"Thergaon, Pimpri Chinchwad - MPCB",06-09-2025 07:00:00,18.616318,73.765797,NH3,1,11,4
India,Maharashtra,Pimpri-Chinchwad,"Thergaon, Pimpri Chinchwad - MPCB",06-09-2025 07:00:00,18.616318,73.765797,SO2,1,4,2
India,Maharashtra,Pune,"Bhosari, Pune - IITM",06-09-2025 07:00:00,18.640051,73.848956,PM10,25,55,38
India,Maharashtra,Pune,"Bhumkar Nagar, Pune - IITM",06-09-2025 07:00:00,18.605770,73.749976,PM2.5,7,34,19
India,Maharashtra,Pune,"Katraj Dairy, Pune - MPCB",06-09-2025 07:00:00,18.454450,73.854155,PM2.5,5,32,16
India,Maharashtra,Pune,"Katraj Dairy, Pune - MPCB",06-09-2025 07:00:00,18.454450,73.854155,OZONE,NA,NA,NA
India,Maharashtra,Pune,"Mhada Colony, Pune - IITM",06-09-2025 07:00:00,18.573040,73.927715,PM10,50,79,64
India,Maharashtra,Mumbai,"Worli, Mumbai - MPCB",06-09-2025 07:00:00,18.9936162,72.8128113,NH3,1,4,2
India,Maharashtra,Mumbai,"Worli, Mumbai - MPCB",06-09-2025 07:00:00,18.9936162,72.8128113,SO2,19,32,23
India,Maharashtra,Nagpur,"Ambazari, Nagpur - MPCB",06-09-2025 07:00:00,21.121801,79.04952,PM2.5,17,77,44
India,Maharashtra,Nagpur,"Mahal, Nagpur - MPCB",06-09-2025 07:00:00,21.14472,79.107595,PM10,23,57,42
India,Maharashtra,Nagpur,"Mahal, Nagpur - MPCB",06-09-2025 07:00:00,21.14472,79.107595,CO,38,108,55
India,Maharashtra,Nagpur,"Opp GPO Civil Lines, Nagpur - MPCB",06-09-2025 07:00:00,21.152875,79.0517531,OZONE,4,12,5
India,Maharashtra,Nagpur,"Ram Nagar, Nagpur - MPCB",06-09-2025 07:00:00,21.143383,79.048912,PM2.5,16,44,26
India,Maharashtra,Navi Mumbai,"Nerul, Navi Mumbai - MPCB",06-09-2025 07:00:00,19.008751,73.016620,NH3,NA,NA,NA
India,Maharashtra,Navi Mumbai,"Sanpada, Navi Mumbai - MPCB",06-09-2025 07:00:00,19.0575752,73.0151367,PM2.5,NA,NA,NA
India,Maharashtra,Navi Mumbai,"Sanpada, Navi Mumbai - MPCB",06-09-2025 07:00:00,19.0575752,73.0151367,OZONE,10,10,10
India,Maharashtra,Navi Mumbai,"Sector-2E Kalamboli, Navi Mumbai - MPCB",06-09-2025 07:00:00,19.02579,73.10297,PM2.5,21,58,37
India,Maharashtra,Navi Mumbai,"Sector-2E Kalamboli, Navi Mumbai - MPCB",06-09-2025 07:00:00,19.02579,73.10297,NO2,32,187,77
India,Maharashtra,Navi Mumbai,"Sector-2E Kalamboli, Navi Mumbai - MPCB",06-09-2025 07:00:00,19.02579,73.10297,CO,12,24,14
India,Maharashtra,Navi Mumbai,"Tondare-Taloja, Navi Mumbai - MPCB",06-09-2025 07:00:00,19.0630,73.1209,NH3,NA,NA,NA
India,Maharashtra,Navi Mumbai,"Tondare-Taloja, Navi Mumbai - MPCB",06-09-2025 07:00:00,19.0630,73.1209,SO2,NA,NA,NA
India,Maharashtra,Nagpur,"Ram Nagar, Nagpur - MPCB",06-09-2025 07:00:00,21.143383,79.048912,NO2,2,21,9
India,Maharashtra,Nagpur,"Ram Nagar, Nagpur - MPCB",06-09-2025 07:00:00,21.143383,79.048912,NH3,2,4,3
India,Maharashtra,Nagpur,"Ram Nagar, Nagpur - MPCB",06-09-2025 07:00:00,21.143383,79.048912,SO2,4,8,6
India,Maharashtra,Nanded,"Sneh Nagar, Nanded - MPCB",06-09-2025 07:00:00,19.173852,77.296291,NO2,NA,NA,NA
India,Maharashtra,Nashik,"Hirawadi, Nashik - MPCB",06-09-2025 07:00:00,20.021503,73.813844,PM2.5,2,49,25
India,Maharashtra,Nashik,"Hirawadi, Nashik - MPCB",06-09-2025 07:00:00,20.021503,73.813844,OZONE,11,55,22
India,Maharashtra,Nashik,"MIDC Ambad, Nashik - MPCB",06-09-2025 07:00:00,19.950220,73.731480,PM10,25,55,41
India,Maharashtra,Parbhani,"Masoom Colony, Parbhani - MPCB",06-09-2025 07:00:00,19.265594,76.761463,SO2,NA,NA,NA
India,Maharashtra,Parbhani,"Masoom Colony, Parbhani - MPCB",06-09-2025 07:00:00,19.265594,76.761463,CO,8,16,11
India,Maharashtra,Pimpri-Chinchwad,"Park Street Wakad, Pimpri Chinchwad - MPCB",06-09-2025 07:00:00,18.59051,73.77946,NO2,7,24,11
India,Maharashtra,Pimpri-Chinchwad,"Park Street Wakad, Pimpri Chinchwad - MPCB",06-09-2025 07:00:00,18.59051,73.77946,NH3,2,14,4
India,Maharashtra,Pimpri-Chinchwad,"Savta Mali Nagar, Pimpri-Chinchwad - IITM",06-09-2025 07:00:00,18.614767,73.799516,OZONE,3,23,10
India,Maharashtra,Pune,"Savitribai Phule Pune University, Pune - MPCB",06-09-2025 07:00:00,18.547056,73.826908,NO2,2,23,16
India,Maharashtra,Pune,"Savitribai Phule Pune University, Pune - MPCB",06-09-2025 07:00:00,18.547056,73.826908,NH3,1,2,1
India,Maharashtra,Pune,"Savitribai Phule Pune University, Pune - MPCB",06-09-2025 07:00:00,18.547056,73.826908,SO2,1,3,3
India,Maharashtra,Pune,"Savitribai Phule Pune University, Pune - MPCB",06-09-2025 07:00:00,18.547056,73.826908,CO,6,12,10
India,Maharashtra,Mumbai,"Sewri, Mumbai - BMC",06-09-2025 07:00:00,19.000084,72.856730,NO2,NA,NA,NA
India,Odisha,Brajrajnagar,"GM Office, Brajrajnagar - OSPCB",06-09-2025 07:00:00,21.8004996,83.8396977,SO2,16,17,16
India,Odisha,Byasanagar,"Ferro Chrome Colony, Byasanagar - OSPCB",06-09-2025 07:00:00,20.94185,86.11510,PM2.5,23,52,37
India,Odisha,Byasanagar,"Ferro Chrome Colony, Byasanagar - OSPCB",06-09-2025 07:00:00,20.94185,86.11510,PM10,33,86,58
India,Odisha,Cuttack,"CDA Area, Cuttack - OSPCB",06-09-2025 07:00:00,20.48891     ,85.84768     ,PM2.5,11,229,47
India,Odisha,Keonjhar,"Jagamohanpur, Keonjhar - OSPCB",06-09-2025 07:00:00,21.643900,85.599355,PM10,39,97,63
India,Odisha,Nayagarh,"Dabuna, Nayagarh - OSPCB",06-09-2025 07:00:00,21.847279,85.416905,PM10,24,70,43
India,Odisha,Baripada,"Meher Colony, Baripada - OSPCB",06-09-2025 07:00:00,21.941841,86.728318,NH3,1,3,1
India,Odisha,Bhubaneswar,"Lingraj Mandir, Bhubaneswar - OSPCB",06-09-2025 07:00:00,20.240790,85.836784,PM10,19,51,36
India,Odisha,Bhubaneswar,"Lingraj Mandir, Bhubaneswar - OSPCB",06-09-2025 07:00:00,20.240790,85.836784,NO2,6,36,17
India,Odisha,Bileipada,"Tata Township, Bileipada - OSPCB",06-09-2025 07:00:00,22.06156703,85.47409613,PM10,52,148,82
India,Odisha,Bileipada,"Tata Township, Bileipada - OSPCB",06-09-2025 07:00:00,22.06156703,85.47409613,OZONE,11,13,12
India,Odisha,Brajrajnagar,"GM Office, Brajrajnagar - OSPCB",06-09-2025 07:00:00,21.8004996,83.8396977,NH3,7,9,8
India,Odisha,Tensa,"Barsua Iron Ore Mines, Tensa - OSPCB",06-09-2025 07:00:00,21.869985,85.167016,NH3,NA,NA,NA
India,Odisha,Tensa,"Barsua Iron Ore Mines, Tensa - OSPCB",06-09-2025 07:00:00,21.869985,85.167016,OZONE,8,27,10
India,Punjab,Amritsar,"Golden Temple, Amritsar - PPCB",06-09-2025 07:00:00,31.620000,74.876512,PM2.5,38,48,45
India,Punjab,Amritsar,"Golden Temple, Amritsar - PPCB",06-09-2025 07:00:00,31.620000,74.876512,CO,28,64,53
India,Punjab,Jalandhar,"Civil Line, Jalandhar - PPCB",06-09-2025 07:00:00,31.321907,75.578914,SO2,14,15,15
India,Punjab,Khanna,"Kalal Majra, Khanna - PPCB",06-09-2025 07:00:00,30.736056 ,76.209694,NH3,7,7,7
India,Odisha,Rairangpur,"Divisional Forest Office, Rairangpur - OSPCB",06-09-2025 07:00:00,22.265816,86.174829,OZONE,18,23,19
India,Odisha,Rourkela,"Raghunathpali, Rourkela - OSPCB",06-09-2025 07:00:00,22.220833,84.809444,PM10,24,86,54
India,Odisha,Suakati,"OMC Colony, Suakati - OSPCB",06-09-2025 07:00:00,21.606865,85.510538,NO2,NA,NA,NA
India,Odisha,Suakati,"OMC Colony, Suakati - OSPCB",06-09-2025 07:00:00,21.606865,85.510538,NH3,NA,NA,NA
India,Odisha,Suakati,"OMC Colony, Suakati - OSPCB",06-09-2025 07:00:00,21.606865,85.510538,OZONE,8,9,8
India,Odisha,Tensa,"Barsua Iron Ore Mines, Tensa - OSPCB",06-09-2025 07:00:00,21.869985,85.167016,PM10,22,30,25
India,Maharashtra,Virar,"Bolinj, Virar - MPCB",06-09-2025 07:00:00,19.4458210,72.7988231,NH3,NA,NA,NA
India,Maharashtra,Virar,"Bolinj, Virar - MPCB",06-09-2025 07:00:00,19.4458210,72.7988231,OZONE,2,39,26
India,Odisha,Balasore,"Kalidaspur, Balasore - OSPCB",06-09-2025 07:00:00,21.51161,86.89088,PM10,19,110,55
India,Odisha,Balasore,"Kalidaspur, Balasore - OSPCB",06-09-2025 07:00:00,21.51161,86.89088,SO2,4,6,4
India,Odisha,Barbil,"Forest Office, Barbil - OSPCB",06-09-2025 07:00:00,22.1166054,85.3945546,SO2,6,15,10
India,Rajasthan,Alwar,"Moti Doongri, Alwar - RSPCB",06-09-2025 07:00:00,27.554793,76.611536,SO2,24,43,32
India,Rajasthan,Baran,"Bamboliya, Baran - RSPCB",06-09-2025 07:00:00,25.106006,76.469948,PM10,4,25,13
India,Rajasthan,Baran,"Bamboliya, Baran - RSPCB",06-09-2025 07:00:00,25.106006,76.469948,CO,17,22,21
India,Rajasthan,Barmer,"Railway Colony, Barmer - RSPCB",06-09-2025 07:00:00,25.747299,71.393989,NH3,1,6,3
India,Punjab,Khanna,"Kalal Majra, Khanna - PPCB",06-09-2025 07:00:00,30.736056 ,76.209694,OZONE,28,33,32
India,Punjab,Rupnagar,"Ratanpura, Rupnagar - Ambuja Cements",06-09-2025 07:00:00,31.0325454,76.5623046,PM2.5,16,83,41
India,Rajasthan,Ajmer,"Civil Lines,  Ajmer - RSPCB",06-09-2025 07:00:00,26.470859,74.646594,NO2,4,72,42
India,Rajasthan,Bharatpur,"Krishna Nagar, Bharatpur - RSPCB",06-09-2025 07:00:00,27.215415,77.50873,NH3,1,7,4
India,Rajasthan,Bhilwara,"Pratap Nagar, Bhilwara - RSPCB",06-09-2025 07:00:00,25.339605,74.618883,PM2.5,2,40,19
India,Rajasthan,Bhiwadi,"Vasundhara Nagar_UIT, Bhiwadi - RSPCB",06-09-2025 07:00:00,28.207266,76.829265,PM2.5,35,82,55
India,Rajasthan,Bikaner,"MM Ground, Bikaner - RSPCB",06-09-2025 07:00:00,28.018792,73.292658,SO2,2,4,3
India,Rajasthan,Bikaner,"MM Ground, Bikaner - RSPCB",06-09-2025 07:00:00,28.018792,73.292658,OZONE,2,47,14
India,Rajasthan,Churu,"Subash Chowk, Churu - RSPCB",06-09-2025 07:00:00,28.296139,74.961696,PM2.5,17,48,32
India,Sikkim,Gangtok,"Zero Point GICI, Gangtok - SSPCB",06-09-2025 07:00:00,27.338530,88.614099,NO2,NA,NA,NA
India,Sikkim,Gangtok,"Zero Point GICI, Gangtok - SSPCB",06-09-2025 07:00:00,27.338530,88.614099,NH3,1,1,1
India,Sikkim,Gangtok,"Zero Point GICI, Gangtok - SSPCB",06-09-2025 07:00:00,27.338530,88.614099,CO,NA,NA,NA
India,TamilNadu,Ariyalur,"Keelapalur, Ariyalur - TNPCB",06-09-2025 07:00:00,11.06825,79.07033,NO2,9,9,9
India,TamilNadu,Ariyalur,"Keelapalur, Ariyalur - TNPCB",06-09-2025 07:00:00,11.06825,79.07033,NH3,1,1,1
India,TamilNadu,Chennai,"Kodungaiyur, Chennai - TNPCB",06-09-2025 07:00:00,13.1278,80.2642,SO2,1,4,2
India,TamilNadu,Chennai,"Manali Village, Chennai - TNPCB",06-09-2025 07:00:00,13.1662,80.2584,PM2.5,3,77,35
India,TamilNadu,Chennai,"Manali Village, Chennai - TNPCB",06-09-2025 07:00:00,13.1662,80.2584,PM10,23,47,32
India,TamilNadu,Chennai,"Manali Village, Chennai - TNPCB",06-09-2025 07:00:00,13.1662,80.2584,NH3,1,2,1
India,TamilNadu,Chennai,"Manali Village, Chennai - TNPCB",06-09-2025 07:00:00,13.1662,80.2584,SO2,20,27,23
India,TamilNadu,Chennai,"Manali, Chennai - CPCB",06-09-2025 07:00:00,13.164544,80.26285,PM10,65,66,66
India,Rajasthan,Dausa,"Khatikan Mohalla, Dausa - RSPCB",06-09-2025 07:00:00,26.895552,76.334753,PM2.5,3,27,13
India,Rajasthan,Dausa,"Khatikan Mohalla, Dausa - RSPCB",06-09-2025 07:00:00,26.895552,76.334753,NH3,5,6,6
India,Rajasthan,Dausa,"Khatikan Mohalla, Dausa - RSPCB",06-09-2025 07:00:00,26.895552,76.334753,OZONE,14,31,26
India,Rajasthan,Dholpur,"Raja Ganj, Dholpur - RSPCB",06-09-2025 07:00:00,26.699557,77.898881,PM2.5,NA,NA,NA
India,Rajasthan,Dholpur,"Raja Ganj, Dholpur - RSPCB",06-09-2025 07:00:00,26.699557,77.898881,PM10,NA,NA,NA
India,Rajasthan,Dholpur,"Raja Ganj, Dholpur - RSPCB",06-09-2025 07:00:00,26.699557,77.898881,NH3,3,5,4
India,Rajasthan,Dungarpur,"Bhoiwada, Dungarpur - RSPCB",06-09-2025 07:00:00,23.837789,73.714926,NO2,1,7,4
India,Rajasthan,Hanumangarh,"Housing Board, Hanumangarh - RSPCB",06-09-2025 07:00:00,29.610750,74.283608,NH3,4,7,6
India,Rajasthan,Hanumangarh,"Housing Board, Hanumangarh - RSPCB",06-09-2025 07:00:00,29.610750,74.283608,CO,9,30,11
India,Rajasthan,Jhalawar,"Rajlaxmi Nagar, Jhalawar - RSPCB",06-09-2025 07:00:00,24.588397,76.172782,OZONE,19,47,25
India,Rajasthan,Jhunjhunu,"Indra Nagar, Jhunjhunu - RSPCB",06-09-2025 07:00:00,28.108988,75.386577,CO,16,32,17
India,Rajasthan,Jhunjhunu,"Indra Nagar, Jhunjhunu - RSPCB",06-09-2025 07:00:00,28.108988,75.386577,OZONE,11,42,19
India,Rajasthan,Jodhpur,"Digari Kalan, Jodhpur - RSPCB",06-09-2025 07:00:00,26.295810,73.082283,OZONE,9,32,18
India,Rajasthan,Jodhpur,"Jhalamand, Jodhpur - RSPCB",06-09-2025 07:00:00,26.215415,73.070156,SO2,2,5,3
India,Rajasthan,Jodhpur,"Jhalamand, Jodhpur - RSPCB",06-09-2025 07:00:00,26.215415,73.070156,OZONE,7,37,29
India,Rajasthan,Jodhpur,"Mandor, Jodhpur - RSPCB",06-09-2025 07:00:00,26.358805,73.047444,PM2.5,17,45,31
India,Rajasthan,Sirohi,"Vedhaynath Colony, Sirohi - RSPCB",06-09-2025 07:00:00,24.885261,72.857549,NH3,1,3,2
India,Rajasthan,Sri Ganganagar,"Old City, Sri Ganganagar - RSPCB",06-09-2025 07:00:00,29.931624,73.864511,NO2,53,89,73
India,Rajasthan,Tonk,"Shastri Nagar, Tonk - RSPCB",06-09-2025 07:00:00,26.159933,75.780517,PM10,28,57,37
India,Rajasthan,Tonk,"Shastri Nagar, Tonk - RSPCB",06-09-2025 07:00:00,26.159933,75.780517,SO2,1,12,2
India,Rajasthan,Udaipur,"Ashok Nagar, Udaipur - RSPCB",06-09-2025 07:00:00,24.5886166,73.6321397,CO,8,97,24
India,Rajasthan,Karauli,"Satyawati Vihar, Karauli - RSPCB",06-09-2025 07:00:00,26.506177,77.025989,PM10,NA,NA,NA
India,Rajasthan,Karauli,"Satyawati Vihar, Karauli - RSPCB",06-09-2025 07:00:00,26.506177,77.025989,SO2,NA,NA,NA
India,Rajasthan,Karauli,"Satyawati Vihar, Karauli - RSPCB",06-09-2025 07:00:00,26.506177,77.025989,OZONE,24,49,34
India,Rajasthan,Kota,"Dhanmandi, Kota - RSPCB",06-09-2025 07:00:00,25.164090,75.858137,PM2.5,20,60,34
India,Rajasthan,Kota,"Dhanmandi, Kota - RSPCB",06-09-2025 07:00:00,25.164090,75.858137,OZONE,16,49,19
India,Rajasthan,Kota,"Nayapura, Kota - RSPCB",06-09-2025 07:00:00,25.196024,75.855668,NH3,4,7,5
India,Rajasthan,Jaipur,"Adarsh Nagar, Jaipur - RSPCB",06-09-2025 07:00:00,26.902909,75.836858,NH3,4,13,8
India,Rajasthan,Jaipur,"Adarsh Nagar, Jaipur - RSPCB",06-09-2025 07:00:00,26.902909,75.836858,SO2,6,33,21
India,Rajasthan,Jaipur,"Police Commissionerate, Jaipur - RSPCB",06-09-2025 07:00:00,26.9164092,75.7994901,PM10,NA,NA,NA
India,Rajasthan,Jaipur,"RIICO Sitapura, Jaipur - RSPCB",06-09-2025 07:00:00,26.786682,75.827928,CO,9,24,13
India,Rajasthan,Kota,"Nayapura, Kota - RSPCB",06-09-2025 07:00:00,25.196024,75.855668,OZONE,9,54,16
India,Rajasthan,Nagaur,"Karni Colony, Nagaur - RSPCB",06-09-2025 07:00:00,27.213494,73.734444,SO2,3,9,6
India,Rajasthan,Pali,"Indira Colony Vistar, Pali - RSPCB",06-09-2025 07:00:00,25.771061, 73.340227,NH3,6,11,8
India,Rajasthan,Pali,"Indira Colony Vistar, Pali - RSPCB",06-09-2025 07:00:00,25.771061, 73.340227,SO2,5,11,9
India,Rajasthan,Jaisalmer,"Sadar Bazar, Jaisalmer - RSPCB",06-09-2025 07:00:00,26.912329,70.909168,PM10,24,85,50
India,Rajasthan,Jaisalmer,"Sadar Bazar, Jaisalmer - RSPCB",06-09-2025 07:00:00,26.912329,70.909168,CO,8,19,12
India,Rajasthan,Jalore,"Mudtra Sili, Jalore - RSPCB",06-09-2025 07:00:00,25.344694,72.626208,PM10,12,52,34
India,Rajasthan,Jalore,"Mudtra Sili, Jalore - RSPCB",06-09-2025 07:00:00,25.344694,72.626208,NO2,7,26,13
India,Rajasthan,Rajsamand,"Dhoinda, Rajsamand - RSPCB",06-09-2025 07:00:00,25.036360,73.883502,OZONE,29,122,57
India,Rajasthan,Sawai Madhopur,"Sahu Nagar, Sawai Madhopur - RSPCB",06-09-2025 07:00:00,26.031443,76.359327,PM2.5,NA,NA,NA
India,Rajasthan,Sawai Madhopur,"Sahu Nagar, Sawai Madhopur - RSPCB",06-09-2025 07:00:00,26.031443,76.359327,CO,14,62,40
India,TamilNadu,Hosur,"SIPCOT Phase-1, Hosur - TNPCB",06-09-2025 07:00:00,12.746998,77.813811,CO,15,21,19
India,TamilNadu,Hosur,"SIPCOT Phase-1, Hosur - TNPCB",06-09-2025 07:00:00,12.746998,77.813811,OZONE,9,9,9
India,TamilNadu,Kanchipuram,"Kilambi, Kanchipuram - TNPCB",06-09-2025 07:00:00,12.864618,79.659968,NO2,1,2,1
India,TamilNadu,Kanchipuram,"Kilambi, Kanchipuram - TNPCB",06-09-2025 07:00:00,12.864618,79.659968,CO,20,22,20
India,TamilNadu,Kanchipuram,"Kilambi, Kanchipuram - TNPCB",06-09-2025 07:00:00,12.864618,79.659968,OZONE,1,1,1
India,TamilNadu,Karur,"Kamadenu Nagar, Karur - TNPCB",06-09-2025 07:00:00,10.967820,78.080882,PM2.5,4,43,24
India,TamilNadu,Madurai,"Uchapatti, Madurai - TNPCB",06-09-2025 07:00:00,9.865935,78.022669,NO2,16,16,16
India,TamilNadu,Madurai,"Uchapatti, Madurai - TNPCB",06-09-2025 07:00:00,9.865935,78.022669,NH3,4,4,4
India,TamilNadu,Madurai,"Uchapatti, Madurai - TNPCB",06-09-2025 07:00:00,9.865935,78.022669,SO2,12,12,12
India,TamilNadu,Coimbatore,"SIDCO Kurichi, Coimbatore - TNPCB",06-09-2025 07:00:00,10.942451,76.978996,PM2.5,NA,NA,NA
India,TamilNadu,Coimbatore,"SIDCO Kurichi, Coimbatore - TNPCB",06-09-2025 07:00:00,10.942451,76.978996,NH3,1,1,1
India,TamilNadu,Cuddalore,"Kudikadu, Cuddalore - TNPCB",06-09-2025 07:00:00,11.6829898,79.7532099,PM10,13,73,36
India,TamilNadu,Cuddalore,"Semmandalam, Cuddalore - TNPCB",06-09-2025 07:00:00,11.7637683,79.7499835,PM2.5,5,71,32
India,TamilNadu,Cuddalore,"Semmandalam, Cuddalore - TNPCB",06-09-2025 07:00:00,11.7637683,79.7499835,NH3,2,3,3
India,TamilNadu,Cuddalore,"Semmandalam, Cuddalore - TNPCB",06-09-2025 07:00:00,11.7637683,79.7499835,OZONE,1,2,2
India,TamilNadu,Gummidipoondi,"Anthoni Pillai Nagar, Gummidipoondi - TNPCB",06-09-2025 07:00:00,13.4127,80.1081,PM2.5,35,374,98
India,TamilNadu,Gummidipoondi,"Anthoni Pillai Nagar, Gummidipoondi - TNPCB",06-09-2025 07:00:00,13.4127,80.1081,SO2,6,26,14
India,TamilNadu,Pudukottai,"SIPCOT Nathampannai, Pudukottai - TNPCB",06-09-2025 07:00:00,10.423417,78.784889,PM10,10,52,28
India,TamilNadu,Pudukottai,"SIPCOT Nathampannai, Pudukottai - TNPCB",06-09-2025 07:00:00,10.423417,78.784889,NO2,12,22,15
India,TamilNadu,Pudukottai,"SIPCOT Nathampannai, Pudukottai - TNPCB",06-09-2025 07:00:00,10.423417,78.784889,NH3,3,4,3
India,TamilNadu,Salem,"Sona College of Technology, Salem - TNPCB",06-09-2025 07:00:00,11.679111,78.125052,PM2.5,12,48,30
India,TamilNadu,Salem,"Sona College of Technology, Salem - TNPCB",06-09-2025 07:00:00,11.679111,78.125052,CO,18,19,18
India,TamilNadu,Thanjavur,"Parisutham Nagar, Thanjavur - TNPCB",06-09-2025 07:00:00,10.7654824,79.1389968,CO,8,9,8
India,TamilNadu,Thoothukudi,"Meelavittan, Thoothukudi - TNPCB",06-09-2025 07:00:00,8.816428 ,78.099039,PM10,21,500,73
India,Telangana,Hyderabad,"New Malakpet, Hyderabad - TSPCB",06-09-2025 07:00:00,17.37206,78.50864,PM2.5,43,86,54
India,Telangana,Hyderabad,"New Malakpet, Hyderabad - TSPCB",06-09-2025 07:00:00,17.37206,78.50864,CO,3,24,9
India,Telangana,Hyderabad,"New Malakpet, Hyderabad - TSPCB",06-09-2025 07:00:00,17.37206,78.50864,OZONE,29,47,35
India,Telangana,Hyderabad,"Ramachandrapuram, Hyderabad - TSPCB",06-09-2025 07:00:00,17.528544,78.286195,SO2,14,20,17
India,Telangana,Hyderabad,"Sanathnagar, Hyderabad - TSPCB",06-09-2025 07:00:00,17.4559458,78.4332152,NO2,24,28,27
India,Telangana,Hyderabad,"Sanathnagar, Hyderabad - TSPCB",06-09-2025 07:00:00,17.4559458,78.4332152,SO2,2,7,5
India,Telangana,Hyderabad,"Somajiguda, Hyderabad - TSPCB",06-09-2025 07:00:00,17.417094,78.457437,NO2,11,26,18
India,TamilNadu,Namakkal,"Ponnusamy Nagar, Namakkal - TNPCB",06-09-2025 07:00:00,11.273992,78.163545,PM10,36,88,54
India,TamilNadu,Namakkal,"Ponnusamy Nagar, Namakkal - TNPCB",06-09-2025 07:00:00,11.273992,78.163545,CO,2,22,15
India,TamilNadu,Namakkal,"Ponnusamy Nagar, Namakkal - TNPCB",06-09-2025 07:00:00,11.273992,78.163545,OZONE,1,2,1
India,TamilNadu,Palkalaiperur,"Bharathidasan University, Palkalaiperur - TNPCB",06-09-2025 07:00:00,10.681158,78.741746,NO2,7,7,7
India,TamilNadu,Palkalaiperur,"Bharathidasan University, Palkalaiperur - TNPCB",06-09-2025 07:00:00,10.681158,78.741746,SO2,5,5,5
India,TamilNadu,Palkalaiperur,"Bharathidasan University, Palkalaiperur - TNPCB",06-09-2025 07:00:00,10.681158,78.741746,OZONE,13,14,13
India,TamilNadu,Perundurai,"SIPCOT Industrial Park, Perundurai - TNPCB",06-09-2025 07:00:00,11.258242,77.552761,NO2,7,8,7
India,TamilNadu,Virudhunagar,"Collectorate Office, Virudhunagar - TNPCB",06-09-2025 07:00:00,9.559382,77.948828,SO2,19,21,19
India,TamilNadu,Virudhunagar,"Collectorate Office, Virudhunagar - TNPCB",06-09-2025 07:00:00,9.559382,77.948828,CO,17,22,19
India,Telangana,Hyderabad,"Bollaram Industrial Area, Hyderabad - TSPCB",06-09-2025 07:00:00,17.540891,78.358528,NH3,2,11,5
India,Telangana,Hyderabad,"Central University, Hyderabad - TSPCB",06-09-2025 07:00:00,17.460103,78.334361,PM10,32,60,45
India,Telangana,Hyderabad,"Central University, Hyderabad - TSPCB",06-09-2025 07:00:00,17.460103,78.334361,NO2,25,76,50
India,TamilNadu,Tiruchirappalli,"St Joseph College, Tiruchirappalli - TNPCB",06-09-2025 07:00:00,10.830158,78.691849,NH3,1,1,1
India,TamilNadu,Tirupur,"Kumaran College, Tirupur - TNPCB",06-09-2025 07:00:00,11.0973603,77.3228673,NO2,2,4,3
India,TamilNadu,Tirupur,"Kumaran College, Tirupur - TNPCB",06-09-2025 07:00:00,11.0973603,77.3228673,SO2,4,5,5
India,TamilNadu,Vellore,"Vasanthapuram, Vellore - TNPCB",06-09-2025 07:00:00,12.909494,79.131861,NO2,NA,NA,NA
India,TamilNadu,Vellore,"Vasanthapuram, Vellore - TNPCB",06-09-2025 07:00:00,12.909494,79.131861,OZONE,1,19,2
India,TamilNadu,Chennai,"Manali, Chennai - CPCB",06-09-2025 07:00:00,13.164544,80.26285,CO,11,56,24
India,TamilNadu,Chennai,"Perungudi, Chennai - TNPCB",06-09-2025 07:00:00,12.9533,80.2357,PM10,17,92,47
India,TamilNadu,Chennai,"Perungudi, Chennai - TNPCB",06-09-2025 07:00:00,12.9533,80.2357,NH3,6,8,7
India,TamilNadu,Chennai,"Perungudi, Chennai - TNPCB",06-09-2025 07:00:00,12.9533,80.2357,SO2,1,3,2
India,TamilNadu,Chennai,"Royapuram, Chennai - TNPCB",06-09-2025 07:00:00,13.1036,80.2909,NO2,9,21,17
India,Telangana,Hyderabad,"IITH Kandi, Hyderabad - TSPCB",06-09-2025 07:00:00,17.585705,78.126199,NH3,4,4,4
India,Telangana,Hyderabad,"Kokapet, Hyderabad - TSPCB",06-09-2025 07:00:00,17.393559,78.339194,NO2,NA,NA,NA
India,Telangana,Hyderabad,"Kompally Municipal Office, Hyderabad - TSPCB",06-09-2025 07:00:00,17.544899,78.486949,NH3,3,4,3
India,Uttar_Pradesh,Lucknow,"B R Ambedkar University, Lucknow - UPPCB",06-09-2025 07:00:00,26.766433,80.927299,NH3,4,4,4
India,Uttar_Pradesh,Lucknow,"B R Ambedkar University, Lucknow - UPPCB",06-09-2025 07:00:00,26.766433,80.927299,SO2,5,11,8
India,Uttar_Pradesh,Lucknow,"Gomti Nagar, Lucknow - UPPCB",06-09-2025 07:00:00,26.868120,81.005119,SO2,10,11,11
India,Uttar_Pradesh,Lucknow,"Kendriya Vidyalaya, Lucknow - CPCB",06-09-2025 07:00:00,26.906111,80.948222,PM10,31,48,38
India,Uttar_Pradesh,Lucknow,"Kukrail Picnic Spot-1, Lucknow - UPPCB",06-09-2025 07:00:00,26.90723,80.98579,PM2.5,16,35,27
India,Uttar_Pradesh,Lucknow,"Lalbagh, Lucknow - CPCB",06-09-2025 07:00:00,26.8458805,80.9365541,PM10,32,97,61
India,Uttar_Pradesh,Lucknow,"Lalbagh, Lucknow - CPCB",06-09-2025 07:00:00,26.8458805,80.9365541,NO2,36,39,38
India,Uttar_Pradesh,Lucknow,"Lalbagh, Lucknow - CPCB",06-09-2025 07:00:00,26.8458805,80.9365541,CO,2,92,44
India,Uttar_Pradesh,Firozabad,"Vibhab Nagar, Firozabad - UPPCB",06-09-2025 07:00:00,27.1594,78.3953,NH3,2,2,2
India,Uttar_Pradesh,Ghaziabad,"Indirapuram, Ghaziabad - UPPCB",06-09-2025 07:00:00,28.646233,77.358075,PM10,30,89,57
India,Uttar_Pradesh,Ghaziabad,"Sanjay Nagar, Ghaziabad - UPPCB",06-09-2025 07:00:00,28.685382,77.453839,NH3,NA,NA,NA
India,Uttar_Pradesh,Ghaziabad,"Sanjay Nagar, Ghaziabad - UPPCB",06-09-2025 07:00:00,28.685382,77.453839,OZONE,14,83,20
India,Uttar_Pradesh,Ghaziabad,"Vasundhara, Ghaziabad - UPPCB",06-09-2025 07:00:00,28.6603346,77.3572563,CO,34,73,39
India,Uttar_Pradesh,Ghaziabad,"Vasundhara, Ghaziabad - UPPCB",06-09-2025 07:00:00,28.6603346,77.3572563,OZONE,10,36,15
India,Uttar_Pradesh,Agra,"Shahjahan Garden, Agra - UPPCB",06-09-2025 07:00:00,27.169338,78.03582,NH3,1,1,1
India,Uttar_Pradesh,Agra,"Shastripuram, Agra - UPPCB",06-09-2025 07:00:00,27.19862,77.92066,PM2.5,3,54,32
India,Uttar_Pradesh,Agra,"Shastripuram, Agra - UPPCB",06-09-2025 07:00:00,27.19862,77.92066,CO,8,16,11
India,Uttar_Pradesh,Agra,"Shastripuram, Agra - UPPCB",06-09-2025 07:00:00,27.19862,77.92066,OZONE,2,3,3
India,Uttar_Pradesh,Baghpat,"Sardar Patel Inter College, Baghpat - UPPCB",06-09-2025 07:00:00,28.964949,77.278761,SO2,NA,NA,NA
India,Uttar_Pradesh,Baghpat,"Sardar Patel Inter College, Baghpat - UPPCB",06-09-2025 07:00:00,28.964949,77.278761,OZONE,15,41,32
India,Uttar_Pradesh,Gorakhpur,"Madan Mohan Malaviya University of Technology, Gorakhpur - UPPCB",06-09-2025 07:00:00,26.730136,83.433859,NO2,11,12,11
India,Uttar_Pradesh,Gorakhpur,"Madan Mohan Malaviya University of Technology, Gorakhpur - UPPCB",06-09-2025 07:00:00,26.730136,83.433859,SO2,23,26,23
India,Uttar_Pradesh,Gorakhpur,"Madan Mohan Malaviya University of Technology, Gorakhpur - UPPCB",06-09-2025 07:00:00,26.730136,83.433859,CO,5,8,5
India,Uttar_Pradesh,Greater Noida,"Knowledge Park - V, Greater Noida - UPPCB",06-09-2025 07:00:00,28.557054,77.453663,NO2,10,49,20
India,Uttar_Pradesh,Hapur,"Anand Vihar, Hapur - UPPCB",06-09-2025 07:00:00,28.725645,77.749675,CO,6,51,15
India,Uttar_Pradesh,Bareilly,"Rajendra Nagar, Bareilly - UPPCB",06-09-2025 07:00:00,28.38910936,79.42963708,PM2.5,28,50,38
India,Uttar_Pradesh,Bareilly,"Rajendra Nagar, Bareilly - UPPCB",06-09-2025 07:00:00,28.38910936,79.42963708,PM10,27,57,40
India,Uttar_Pradesh,Bulandshahr,"Yamunapuram, Bulandshahr - UPPCB",06-09-2025 07:00:00,28.406963,77.849831,NO2,8,16,11
India,Uttar_Pradesh,Bulandshahr,"Yamunapuram, Bulandshahr - UPPCB",06-09-2025 07:00:00,28.406963,77.849831,OZONE,5,22,6
India,Uttar_Pradesh,Firozabad,"Vibhab Nagar, Firozabad - UPPCB",06-09-2025 07:00:00,27.1594,78.3953,NO2,15,15,15
India,Uttar_Pradesh,Kanpur,"FTI Kidwai Nagar, Kanpur - UPPCB",06-09-2025 07:00:00,26.428282,80.327067,PM2.5,47,96,66
India,Uttar_Pradesh,Kanpur,"Nehru Nagar, Kanpur - UPPCB",06-09-2025 07:00:00,26.4703136,80.3229863,CO,56,76,74
India,Uttar_Pradesh,Kanpur,"Nehru Nagar, Kanpur - UPPCB",06-09-2025 07:00:00,26.4703136,80.3229863,OZONE,6,46,6
India,Uttar_Pradesh,Khurja,"Kalindi Kunj, Khurja - UPPCB",06-09-2025 07:00:00,28.2348927,77.8683002,PM10,17,85,45
India,Uttar_Pradesh,Khurja,"Kalindi Kunj, Khurja - UPPCB",06-09-2025 07:00:00,28.2348927,77.8683002,NO2,3,3,3
India,Uttar_Pradesh,Lucknow,"Talkatora District Industries Center, Lucknow - CPCB",06-09-2025 07:00:00,26.83399722,80.8917361,SO2,1,8,4
India,Uttar_Pradesh,Meerut,"Ganga Nagar, Meerut - UPPCB",06-09-2025 07:00:00,28.999264,77.7590354,NO2,NA,NA,NA
India,Uttar_Pradesh,Meerut,"Pallavpuram Phase 2, Meerut - UPPCB",06-09-2025 07:00:00,29.063510,77.709723,PM2.5,7,40,22
India,Uttar_Pradesh,Meerut,"Pallavpuram Phase 2, Meerut - UPPCB",06-09-2025 07:00:00,29.063510,77.709723,NO2,10,25,16
India,Uttar_Pradesh,Moradabad,"Buddhi Vihar, Moradabad - UPPCB",06-09-2025 07:00:00,28.83526,78.74460,CO,30,52,42
India,Uttar_Pradesh,Moradabad,"Employment Office, Moradabad - UPPCB",06-09-2025 07:00:00,28.88528,78.73880,SO2,36,53,39
India,Uttar_Pradesh,Moradabad,"Kashiram Nagar, Moradabad - UPPCB",06-09-2025 07:00:00,28.849399,78.742362,NH3,4,4,4
India,Uttar_Pradesh,Moradabad,"Kashiram Nagar, Moradabad - UPPCB",06-09-2025 07:00:00,28.849399,78.742362,OZONE,19,47,30
India,Uttar_Pradesh,Agra,"Manoharpur, Agra - UPPCB",06-09-2025 07:00:00,27.23711,78.01936,PM10,18,86,34
India,Uttar_Pradesh,Muzaffarnagar,"New Mandi, Muzaffarnagar - UPPCB",06-09-2025 07:00:00,29.4723508,77.7194031,NH3,3,7,4
India,Uttar_Pradesh,Noida,"Sector - 62, Noida - IMD",06-09-2025 07:00:00,28.6245479,77.3577104,NO2,3,14,7
India,Uttar_Pradesh,Noida,"Sector-1, Noida - UPPCB",06-09-2025 07:00:00,28.5898,77.3101,OZONE,16,20,18
India,Uttar_Pradesh,Noida,"Sector-116, Noida - UPPCB",06-09-2025 07:00:00,28.569230,77.393848,OZONE,16,64,25
India,Uttar_Pradesh,Prayagraj,"Jhunsi, Prayagraj - UPPCB",06-09-2025 07:00:00,25.425602,81.917152,CO,14,32,21
India,Uttar_Pradesh,Prayagraj,"Jhunsi, Prayagraj - UPPCB",06-09-2025 07:00:00,25.425602,81.917152,OZONE,2,20,6
India,Uttar_Pradesh,Prayagraj,"Motilal Nehru NIT, Prayagraj - UPPCB",06-09-2025 07:00:00,25.494,81.863,NH3,8,8,8
India,Uttar_Pradesh,Prayagraj,"Motilal Nehru NIT, Prayagraj - UPPCB",06-09-2025 07:00:00,25.494,81.863,SO2,24,25,25
India,Uttar_Pradesh,Varanasi,"IESD Banaras Hindu University, Varanasi - UPPCB",06-09-2025 07:00:00,25.262326,82.995408,PM10,NA,NA,NA
India,Uttar_Pradesh,Varanasi,"IESD Banaras Hindu University, Varanasi - UPPCB",06-09-2025 07:00:00,25.262326,82.995408,CO,4,14,6
India,Uttar_Pradesh,Varanasi,"Maldahiya, Varanasi - UPPCB",06-09-2025 07:00:00,25.32393,82.99687,CO,10,42,20
India,Uttar_Pradesh,Vrindavan,"Omex Eternity, Vrindavan - UPPCB",06-09-2025 07:00:00,27.5714090,77.6557570,PM2.5,9,59,22
India,Uttar_Pradesh,Vrindavan,"Omex Eternity, Vrindavan - UPPCB",06-09-2025 07:00:00,27.5714090,77.6557570,PM10,15,103,39
India,Uttarakhand,Dehradun,"Doon University, Dehradun - UKPCB",06-09-2025 07:00:00,30.269444,78.044167,PM2.5,3,34,16
India,Uttarakhand,Kashipur,"Govt. Girls Inter College, Kashipur - UKPCB",06-09-2025 07:00:00,29.2124114,78.9611753,NH3,NA,NA,NA
India,West_Bengal,Asansol,"Asansol Court Area, Asansol - WBPCB",06-09-2025 07:00:00,23.685297,86.945968,NH3,4,9,6
India,West_Bengal,Asansol,"Asansol Court Area, Asansol - WBPCB",06-09-2025 07:00:00,23.685297,86.945968,SO2,7,14,12
India,West_Bengal,Asansol,"Asansol Court Area, Asansol - WBPCB",06-09-2025 07:00:00,23.685297,86.945968,OZONE,12,22,14
India,West_Bengal,Asansol,"Evelyn Lodge, Asansol - WBPCB",06-09-2025 07:00:00,23.6979360,86.9443950,PM10,23,48,35
India,West_Bengal,Asansol,"Evelyn Lodge, Asansol - WBPCB",06-09-2025 07:00:00,23.6979360,86.9443950,NH3,1,1,1
India,West_Bengal,Asansol,"Mahabir Colliery, Asansol - WBPCB",06-09-2025 07:00:00,23.6181830,87.1057180,CO,1,108,98
India,West_Bengal,Asansol,"Trivenidevi Bhalotia College, Asansol - WBPCB",06-09-2025 07:00:00,23.616515,87.119133,PM2.5,25,76,49
India,West_Bengal,Asansol,"Trivenidevi Bhalotia College, Asansol - WBPCB",06-09-2025 07:00:00,23.616515,87.119133,NH3,NA,NA,NA
India,West_Bengal,Asansol,"Trivenidevi Bhalotia College, Asansol - WBPCB",06-09-2025 07:00:00,23.616515,87.119133,OZONE,6,49,16
India,West_Bengal,Barrackpore,"SVSPA Campus, Barrackpore - WBPCB",06-09-2025 07:00:00,22.7605581,88.3617589,SO2,13,14,14
India,West_Bengal,Durgapur,"Mahishkapur Road_B-Zone, Durgapur - WBPCB",06-09-2025 07:00:00,23.567923,87.306843,PM2.5,19,49,30
India,West_Bengal,Durgapur,"Mahishkapur Road_B-Zone, Durgapur - WBPCB",06-09-2025 07:00:00,23.567923,87.306843,CO,34,78,40
India,West_Bengal,Durgapur,"PCBL Residential Complex, Durgapur - WBPCB",06-09-2025 07:00:00,23.5087640,87.3544400,PM10,41,86,57
India,West_Bengal,Durgapur,"PCBL Residential Complex, Durgapur - WBPCB",06-09-2025 07:00:00,23.5087640,87.3544400,CO,11,44,24
India,West_Bengal,Durgapur,"Womens College_City Center, Durgapur - WBPCB (Formerly known as Sidhu Kanhu Indoor Stadium)",06-09-2025 07:00:00,23.549395,87.300496,PM2.5,41,73,55
India,West_Bengal,Durgapur,"Womens College_City Center, Durgapur - WBPCB (Formerly known as Sidhu Kanhu Indoor Stadium)",06-09-2025 07:00:00,23.549395,87.300496,OZONE,8,32,13
India,West_Bengal,Haldia,"Priyambada Housing Estate, Haldia - WBPCB",06-09-2025 07:00:00,22.06047,88.109737,PM10,13,74,46
India,West_Bengal,Haldia,"Priyambada Housing Estate, Haldia - WBPCB",06-09-2025 07:00:00,22.06047,88.109737,NH3,4,5,4
India,West_Bengal,Haldia,"Priyambada Housing Estate, Haldia - WBPCB",06-09-2025 07:00:00,22.06047,88.109737,SO2,12,15,13
India,West_Bengal,Haldia,"Priyambada Housing Estate, Haldia - WBPCB",06-09-2025 07:00:00,22.06047,88.109737,CO,19,26,23
India,West_Bengal,Howrah,"Belur Math, Howrah - WBPCB",06-09-2025 07:00:00,22.629801,88.352017,SO2,6,10,8
India,West_Bengal,Howrah,"Belur Math, Howrah - WBPCB",06-09-2025 07:00:00,22.629801,88.352017,CO,16,30,19
India,West_Bengal,Howrah,"Belur Math, Howrah - WBPCB",06-09-2025 07:00:00,22.629801,88.352017,OZONE,11,25,18
India,West_Bengal,Howrah,"Botanical Garden, Howrah - WBPCB",06-09-2025 07:00:00,22.554954,88.292568,SO2,13,14,13
India,West_Bengal,Howrah,"Botanical Garden, Howrah - WBPCB",06-09-2025 07:00:00,22.554954,88.292568,CO,58,67,64
India,West_Bengal,Howrah,"Dasnagar, Howrah - WBPCB",06-09-2025 07:00:00,22.6025571,88.3105664,OZONE,1,42,6
India,West_Bengal,Howrah,"Ghusuri, Howrah - WBPCB",06-09-2025 07:00:00,22.611968,88.347422,SO2,1,6,4
India,West_Bengal,Howrah,"Ghusuri, Howrah - WBPCB",06-09-2025 07:00:00,22.611968,88.347422,CO,9,14,10
India,West_Bengal,Howrah,"Padmapukur, Howrah - WBPCB",06-09-2025 07:00:00,22.5687319,88.2797276,NO2,11,23,15
India,West_Bengal,Kolkata,"Bidhannagar, Kolkata - WBPCB",06-09-2025 07:00:00,22.58157048,88.41002457,SO2,5,7,7
India,West_Bengal,Kolkata,"Jadavpur, Kolkata - WBPCB",06-09-2025 07:00:00,22.49929,88.36917,PM2.5,41,78,63
India,West_Bengal,Kolkata,"Rabindra Bharati University, Kolkata - WBPCB",06-09-2025 07:00:00,22.627847,88.380669,CO,20,26,22
India,West_Bengal,Kolkata,"Rabindra Sarobar, Kolkata - WBPCB",06-09-2025 07:00:00,22.51106,88.35142,PM2.5,20,39,30
India,West_Bengal,Kolkata,"Victoria, Kolkata - WBPCB",06-09-2025 07:00:00,22.5448082,88.3403691,CO,2,40,10
India,West_Bengal,Siliguri,"Ward-32 Bapupara, Siliguri - WBPCB",06-09-2025 07:00:00,26.6879226,88.4152495,PM2.5,28,41,36
India,West_Bengal,Siliguri,"Ward-32 Bapupara, Siliguri - WBPCB",06-09-2025 07:00:00,26.6879226,88.4152495,SO2,10,13,11
India,Bihar,Aurangabad,"Gurdeo Nagar, Aurangabad - BSPCB",06-09-2025 07:00:00,24.75746,84.366208,PM10,39,475,174
India,Bihar,Begusarai,"Lohiyanagar, Begusarai - BSPCB",06-09-2025 07:00:00,25.42742023,86.13886079,PM2.5,32,66,42
India,Bihar,Begusarai,"Lohiyanagar, Begusarai - BSPCB",06-09-2025 07:00:00,25.42742023,86.13886079,PM10,30,72,45
India,Bihar,Begusarai,"Lohiyanagar, Begusarai - BSPCB",06-09-2025 07:00:00,25.42742023,86.13886079,NO2,5,25,15
India,Bihar,Begusarai,"Lohiyanagar, Begusarai - BSPCB",06-09-2025 07:00:00,25.42742023,86.13886079,NH3,3,4,4
India,Bihar,Bettiah,"Kamalnath Nagar, Bettiah - BSPCB",06-09-2025 07:00:00,26.80365,84.51954,PM10,NA,NA,NA
India,Bihar,Bettiah,"Kamalnath Nagar, Bettiah - BSPCB",06-09-2025 07:00:00,26.80365,84.51954,NO2,NA,NA,NA
India,Bihar,Bhagalpur,"DM Office_Kachari Chowk, Bhagalpur - BSPCB",06-09-2025 07:00:00,25.251013,86.989001,NH3,2,4,3
India,Bihar,Bhagalpur,"DM Office_Kachari Chowk, Bhagalpur - BSPCB",06-09-2025 07:00:00,25.251013,86.989001,OZONE,11,21,16
India,Arunachal_Pradesh,Naharlagun,"Naharlagun, Naharlagun - APSPCB",06-09-2025 07:00:00,27.103358,93.679645,SO2,7,8,8
India,Arunachal_Pradesh,Naharlagun,"Naharlagun, Naharlagun - APSPCB",06-09-2025 07:00:00,27.103358,93.679645,CO,3,14,6
India,Assam,Byrnihat,"Central Academy for SFS, Byrnihat - PCBA",06-09-2025 07:00:00,26.071318,91.87488,NO2,5,11,7
India,Assam,Guwahati,"IITG, Guwahati - PCBA",06-09-2025 07:00:00,26.2028636,91.70046436,PM2.5,6,64,34
India,Assam,Guwahati,"IITG, Guwahati - PCBA",06-09-2025 07:00:00,26.2028636,91.70046436,NO2,1,6,2
India,Assam,Guwahati,"IITG, Guwahati - PCBA",06-09-2025 07:00:00,26.2028636,91.70046436,SO2,22,26,24
India,Assam,Guwahati,"LGBI Airport, Guwahati - PCBA",06-09-2025 07:00:00,26.10887,91.589544,CO,14,48,34
India,Assam,Guwahati,"Pan Bazaar, Guwahati - PCBA",06-09-2025 07:00:00,26.187500,91.744194,PM2.5,4,47,24
India,Andhra_Pradesh,Kadapa,"Yerramukkapalli, Kadapa - APPCB",06-09-2025 07:00:00,14.465052,78.824187,OZONE,30,41,37
India,Andhra_Pradesh,Rajamahendravaram,"Anand Kala Kshetram, Rajamahendravaram - APPCB",06-09-2025 07:00:00,16.9872867,81.7363176,NO2,6,35,13
India,Andhra_Pradesh,Rajamahendravaram,"Anand Kala Kshetram, Rajamahendravaram - APPCB",06-09-2025 07:00:00,16.9872867,81.7363176,OZONE,9,11,10
India,Andhra_Pradesh,Tirumala,"Toll Gate, Tirumala - APPCB",06-09-2025 07:00:00,13.67,79.35,NO2,10,19,14
India,Andhra_Pradesh,Tirumala,"Toll Gate, Tirumala - APPCB",06-09-2025 07:00:00,13.67,79.35,OZONE,7,13,10
India,Andhra_Pradesh,Tirupati,"Vaikuntapuram, Tirupati - APPCB",06-09-2025 07:00:00,13.615387,79.409230,OZONE,30,31,30
India,Andhra_Pradesh,Vijayawada,"HB Colony, Vijayawada - APPCB",06-09-2025 07:00:00,16.536107,80.594233,NO2,23,23,23
India,Assam,Silchar,"Tarapur, Silchar - PCBA",06-09-2025 07:00:00,24.82827,92.79525,PM2.5,36,41,39
India,Assam,Silchar,"Tarapur, Silchar - PCBA",06-09-2025 07:00:00,24.82827,92.79525,NO2,15,18,16
India,Assam,Silchar,"Tarapur, Silchar - PCBA",06-09-2025 07:00:00,24.82827,92.79525,OZONE,1,14,1
India,Assam,Sivasagar,"Girls College, Sivasagar - PCBA",06-09-2025 07:00:00,26.987634,94.636574,NH3,3,5,4
India,Assam,Sivasagar,"Girls College, Sivasagar - PCBA",06-09-2025 07:00:00,26.987634,94.636574,SO2,8,11,9
India,Bihar,Araria,"Kharahiya Basti, Araria - BSPCB",06-09-2025 07:00:00,26.146529,87.454184,PM2.5,NA,NA,NA
India,Bihar,Araria,"Kharahiya Basti, Araria - BSPCB",06-09-2025 07:00:00,26.146529,87.454184,PM10,NA,NA,NA
India,Bihar,Arrah,"New DM Office, Arrah - BSPCB",06-09-2025 07:00:00,25.5626095,84.663264,NH3,1,1,1
India,Bihar,Manguraha,"Forest Rest House, Manguraha - BSPCB",06-09-2025 07:00:00,27.308328,84.531742,OZONE,11,31,13
India,Bihar,Motihari,"Gandak Colony, Motihari - BSPCB",06-09-2025 07:00:00,26.63086,84.90051,PM2.5,NA,NA,NA
India,Bihar,Munger,"Town Hall, Munger - BSPCB",06-09-2025 07:00:00,25.376776,86.471523,NH3,5,7,6
India,Bihar,Munger,"Town Hall, Munger - BSPCB",06-09-2025 07:00:00,25.376776,86.471523,SO2,16,20,18
India,Bihar,Munger,"Town Hall, Munger - BSPCB",06-09-2025 07:00:00,25.376776,86.471523,OZONE,10,11,10
India,Bihar,Muzaffarpur,"MIT-Daudpur Kothi, Muzaffarpur - BSPCB",06-09-2025 07:00:00,26.1403345,85.3650192,PM2.5,32,58,41
India,Bihar,Muzaffarpur,"MIT-Daudpur Kothi, Muzaffarpur - BSPCB",06-09-2025 07:00:00,26.1403345,85.3650192,PM10,26,58,44
India,Andhra_Pradesh,Vijayawada,"HB Colony, Vijayawada - APPCB",06-09-2025 07:00:00,16.536107,80.594233,OZONE,5,22,13
India,Andhra_Pradesh,Vijayawada,"Rajiv Gandhi Park, Vijayawada - APPCB",06-09-2025 07:00:00,16.509717,80.612222,PM10,34,63,48
India,Andhra_Pradesh,Vijayawada,"Rajiv Gandhi Park, Vijayawada - APPCB",06-09-2025 07:00:00,16.509717,80.612222,NH3,5,7,6
India,Andhra_Pradesh,Vijayawada,"Rajiv Nagar, Vijayawada - APPCB",06-09-2025 07:00:00,16.554731,80.649110,SO2,NA,NA,NA
India,Andhra_Pradesh,Vijayawada,"Rajiv Nagar, Vijayawada - APPCB",06-09-2025 07:00:00,16.554731,80.649110,CO,NA,NA,NA
India,Andhra_Pradesh,Visakhapatnam,"GVM Corporation, Visakhapatnam - APPCB",06-09-2025 07:00:00,17.72,83.3,PM2.5,36,99,65
India,Bihar,Gaya,"SFTI Kusdihra, Gaya - BSPCB",06-09-2025 07:00:00,24.762518,84.982348,NO2,17,19,18
India,Bihar,Hajipur,"Industrial Area, Hajipur - BSPCB",06-09-2025 07:00:00,25.697189,85.245900,NH3,5,8,7
India,Bihar,Hajipur,"Industrial Area, Hajipur - BSPCB",06-09-2025 07:00:00,25.697189,85.245900,OZONE,8,78,15
India,Bihar,Kishanganj,"SDM Office_Khagra, Kishanganj - BSPCB",06-09-2025 07:00:00,26.0881305,87.93840336,PM2.5,43,197,80
India,Bihar,Kishanganj,"SDM Office_Khagra, Kishanganj - BSPCB",06-09-2025 07:00:00,26.0881305,87.93840336,PM10,52,111,71
India,Bihar,Kishanganj,"SDM Office_Khagra, Kishanganj - BSPCB",06-09-2025 07:00:00,26.0881305,87.93840336,NO2,7,8,8
India,Bihar,Bihar Sharif,"D M Colony, Bihar Sharif - BSPCB",06-09-2025 07:00:00,25.204762,85.514960,PM10,79,95,88
India,Bihar,Buxar,"Charitra Van, Buxar - BSPCB",06-09-2025 07:00:00,25.567520,83.966379,OZONE,1,157,3
India,Bihar,Gaya,"Collectorate, Gaya - BSPCB",06-09-2025 07:00:00,24.7955,84.9994,PM2.5,23,88,41
India,Bihar,Gaya,"Kareemganj, Gaya - BSPCB",06-09-2025 07:00:00,24.792403,84.992416,NO2,3,8,5
India,Bihar,Gaya,"Kareemganj, Gaya - BSPCB",06-09-2025 07:00:00,24.792403,84.992416,NH3,4,7,5
India,Assam,Guwahati,"Pan Bazaar, Guwahati - PCBA",06-09-2025 07:00:00,26.187500,91.744194,PM10,5,35,19
India,Assam,Guwahati,"Railway Colony, Guwahati - PCBA",06-09-2025 07:00:00,26.181742,91.78063,PM10,22,99,58
India,Assam,Guwahati,"Railway Colony, Guwahati - PCBA",06-09-2025 07:00:00,26.181742,91.78063,CO,22,44,33
India,Assam,Nagaon,"Christianpatty, Nagaon - PCBA",06-09-2025 07:00:00,26.349082,92.68449,PM2.5,22,48,38
India,Assam,Nagaon,"Christianpatty, Nagaon - PCBA",06-09-2025 07:00:00,26.349082,92.68449,OZONE,7,9,9
India,Andhra_Pradesh,Amaravati,"Secretariat, Amaravati - APPCB",06-09-2025 07:00:00,16.5150833,80.5181667,PM10,27,105,54
India,Andhra_Pradesh,Amaravati,"Secretariat, Amaravati - APPCB",06-09-2025 07:00:00,16.5150833,80.5181667,NO2,10,24,14
India,Andhra_Pradesh,Chittoor,"Gangineni Cheruvu, Chittoor - APPCB",06-09-2025 07:00:00,13.204880,79.097889,OZONE,47,64,53
India,Bihar,Rajgir,"Dangi Tola, Rajgir - BSPCB",06-09-2025 07:00:00,25.03280,85.41948,PM2.5,13,32,25
India,Bihar,Saharsa,"Police Line, Saharsa - BSPCB",06-09-2025 07:00:00,25.892357,86.590325,PM2.5,NA,NA,NA
India,Bihar,Saharsa,"Police Line, Saharsa - BSPCB",06-09-2025 07:00:00,25.892357,86.590325,PM10,38,181,110
India,Bihar,Saharsa,"Police Line, Saharsa - BSPCB",06-09-2025 07:00:00,25.892357,86.590325,SO2,12,20,15
India,Bihar,Samastipur,"DM Office_Kasipur, Samastipur - BSPCB",06-09-2025 07:00:00,25.859655,85.77944,PM10,52,176,106
India,Bihar,Samastipur,"DM Office_Kasipur, Samastipur - BSPCB",06-09-2025 07:00:00,25.859655,85.77944,OZONE,4,11,8
India,Bihar,Sasaram,"Dada Peer, Sasaram - BSPCB",06-09-2025 07:00:00,24.952822,84.002396,NO2,1,5,3
India,Bihar,Sasaram,"Dada Peer, Sasaram - BSPCB",06-09-2025 07:00:00,24.952822,84.002396,NH3,1,12,4
India,Bihar,Sasaram,"Dada Peer, Sasaram - BSPCB",06-09-2025 07:00:00,24.952822,84.002396,CO,35,82,57
India,Chandigarh,Chandigarh,"Sector 22, Chandigarh - CPCC",06-09-2025 07:00:00,30.735567,76.775714,PM10,11,83,29
India,Chandigarh,Chandigarh,"Sector 22, Chandigarh - CPCC",06-09-2025 07:00:00,30.735567,76.775714,CO,36,100,53
India,Chandigarh,Chandigarh,"Sector-25, Chandigarh - CPCC",06-09-2025 07:00:00,30.751462,76.762879,PM10,34,174,63
India,Chandigarh,Chandigarh,"Sector-25, Chandigarh - CPCC",06-09-2025 07:00:00,30.751462,76.762879,OZONE,16,61,37
India,Chandigarh,Chandigarh,"Sector-53, Chandigarh - CPCC",06-09-2025 07:00:00,30.719859,76.738637,PM10,13,63,31
India,Chandigarh,Chandigarh,"Sector-53, Chandigarh - CPCC",06-09-2025 07:00:00,30.719859,76.738637,NO2,4,66,20
India,Chandigarh,Chandigarh,"Sector-53, Chandigarh - CPCC",06-09-2025 07:00:00,30.719859,76.738637,NH3,1,8,3
India,Bihar,Muzaffarpur,"Muzaffarpur Collectorate, Muzaffarpur - BSPCB",06-09-2025 07:00:00,26.1209,85.3647,OZONE,18,54,21
India,Bihar,Patna,"DRM Office Danapur, Patna - BSPCB",06-09-2025 07:00:00,25.586562,85.043586,PM2.5,NA,NA,NA
India,Bihar,Patna,"DRM Office Danapur, Patna - BSPCB",06-09-2025 07:00:00,25.586562,85.043586,PM10,NA,NA,NA
India,Bihar,Patna,"Govt. High School Shikarpur, Patna - BSPCB",06-09-2025 07:00:00,25.592539,85.227158,PM2.5,16,38,23
India,Bihar,Patna,"Govt. High School Shikarpur, Patna - BSPCB",06-09-2025 07:00:00,25.592539,85.227158,NO2,4,6,5
India,Bihar,Patna,"Govt. High School Shikarpur, Patna - BSPCB",06-09-2025 07:00:00,25.592539,85.227158,OZONE,9,13,10
India,Bihar,Patna,"IGSC Planetarium Complex, Patna - BSPCB",06-09-2025 07:00:00,25.610369,85.132568,NO2,1,19,11
India,Chhattisgarh,Raipur,"AIIMS, Raipur - CECB",06-09-2025 07:00:00,21.258815,81.578979,OZONE,6,15,6
India,Chhattisgarh,Raipur,"Bhatagaon New ISBT, Raipur - CECB",06-09-2025 07:00:00,21.219665,81.630094,PM2.5,5,17,9
India,Chhattisgarh,Raipur,"Bhatagaon New ISBT, Raipur - CECB",06-09-2025 07:00:00,21.219665,81.630094,CO,12,20,12
India,Chhattisgarh,Raipur,"Bhatagaon New ISBT, Raipur - CECB",06-09-2025 07:00:00,21.219665,81.630094,OZONE,4,10,6
India,Chhattisgarh,Raipur,"Krishak Nagar, Raipur - CECB",06-09-2025 07:00:00,21.237755,81.705301,PM2.5,1,17,8
India,Chhattisgarh,Raipur,"Siltara Phase-II, Raipur - CECB",06-09-2025 07:00:00,21.371751,81.664929,PM10,12,68,36
India,Chhattisgarh,Raipur,"Siltara Phase-II, Raipur - CECB",06-09-2025 07:00:00,21.371751,81.664929,NH3,3,3,3
India,Bihar,Patna,"IGSC Planetarium Complex, Patna - BSPCB",06-09-2025 07:00:00,25.610369,85.132568,CO,35,102,80
India,Bihar,Patna,"Muradpur, Patna - BSPCB",06-09-2025 07:00:00,25.619651,85.147382,NO2,8,10,9
India,Bihar,Patna,"Rajbansi Nagar, Patna - BSPCB",06-09-2025 07:00:00,25.599486,85.113666,PM2.5,3,65,22
India,Bihar,Patna,"Rajbansi Nagar, Patna - BSPCB",06-09-2025 07:00:00,25.599486,85.113666,SO2,6,7,6
India,Bihar,Patna,"Rajbansi Nagar, Patna - BSPCB",06-09-2025 07:00:00,25.599486,85.113666,OZONE,18,64,18
India,Bihar,Patna,"Samanpura, Patna - BSPCB",06-09-2025 07:00:00,25.596727,85.085624,PM10,51,135,103
India,Chhattisgarh,Bhilai,"32Bungalows, Bhilai - CECB",06-09-2025 07:00:00,21.194815,81.314770,NH3,3,4,3
India,Chhattisgarh,Bhilai,"Civic Center, Bhilai - Bhilai Steel Plant",06-09-2025 07:00:00,21.185571,81.343175,PM10,18,46,30
India,Chhattisgarh,Bhilai,"Civic Center, Bhilai - Bhilai Steel Plant",06-09-2025 07:00:00,21.185571,81.343175,NH3,2,3,3
India,Chhattisgarh,Bhilai,"Civic Center, Bhilai - Bhilai Steel Plant",06-09-2025 07:00:00,21.185571,81.343175,SO2,7,10,9
India,Chhattisgarh,Bhilai,"Civic Center, Bhilai - Bhilai Steel Plant",06-09-2025 07:00:00,21.185571,81.343175,CO,48,50,49
India,Chhattisgarh,Bhilai,"Civic Center, Bhilai - Bhilai Steel Plant",06-09-2025 07:00:00,21.185571,81.343175,OZONE,9,11,10
India,Delhi,Delhi,"Alipur, Delhi - DPCC",06-09-2025 07:00:00,28.815329,77.153010,NH3,9,10,10
India,Delhi,Delhi,"Ashok Vihar, Delhi - DPCC",06-09-2025 07:00:00,28.695381,77.181665,PM10,20,111,64
India,Delhi,Delhi,"Ashok Vihar, Delhi - DPCC",06-09-2025 07:00:00,28.695381,77.181665,CO,14,55,20
India,Delhi,Delhi,"Aya Nagar, Delhi - IMD",06-09-2025 07:00:00,28.4706914,77.1099364,PM10,21,63,46
India,Delhi,Delhi,"Bawana, Delhi - DPCC",06-09-2025 07:00:00,28.776200,77.051074,PM10,37,66,49
India,Chhattisgarh,Bhilai,"Hathkhoj, Bhilai - CECB",06-09-2025 07:00:00,21.224231,81.408350,NO2,6,42,19
India,Chhattisgarh,Bilaspur,"Mangala, Bilaspur - NTPC",06-09-2025 07:00:00,22.08815,82.13737,SO2,9,21,13
India,Chhattisgarh,Kunjemura,"OP Jindal School, Kunjemura - CECB",06-09-2025 07:00:00,22.126650,83.483212,OZONE,4,9,7
India,Delhi,Delhi,"Bawana, Delhi - DPCC",06-09-2025 07:00:00,28.776200,77.051074,CO,36,62,41
India,Delhi,Delhi,"Burari Crossing, Delhi - IMD",06-09-2025 07:00:00,28.7256504,77.2011573,NO2,21,31,25
India,Delhi,Delhi,"CRRI Mathura Road, Delhi - IMD",06-09-2025 07:00:00,28.5512005,77.2735737,PM10,13,59,40
India,Delhi,Delhi,"CRRI Mathura Road, Delhi - IMD",06-09-2025 07:00:00,28.5512005,77.2735737,CO,63,124,90
India,Delhi,Delhi,"Chandni Chowk, Delhi - IITM",06-09-2025 07:00:00,28.656756,77.227234,PM2.5,NA,NA,NA
India,Delhi,Delhi,"Chandni Chowk, Delhi - IITM",06-09-2025 07:00:00,28.656756,77.227234,NH3,NA,NA,NA
India,Delhi,Delhi,"DTU, Delhi - CPCB",06-09-2025 07:00:00,28.7500499,77.1112615,SO2,28,33,30
India,Delhi,Delhi,"DTU, Delhi - CPCB",06-09-2025 07:00:00,28.7500499,77.1112615,OZONE,19,23,20
India,Delhi,Delhi,"Dr. Karni Singh Shooting Range, Delhi - DPCC",06-09-2025 07:00:00,28.498571,77.264840,CO,2,26,23
India,Delhi,Delhi,"Sonia Vihar, Delhi - DPCC",06-09-2025 07:00:00,28.710508,77.249485,OZONE,5,26,6
India,Delhi,Delhi,"Sri Aurobindo Marg, Delhi - DPCC",06-09-2025 07:00:00,28.531346,77.190156,NO2,8,38,19
India,Delhi,Delhi,"Vivek Vihar, Delhi - DPCC",06-09-2025 07:00:00,28.672342,77.315260,PM10,33,95,64
India,Delhi,Delhi,"Vivek Vihar, Delhi - DPCC",06-09-2025 07:00:00,28.672342,77.315260,NH3,1,50,6
India,Delhi,Delhi,"Vivek Vihar, Delhi - DPCC",06-09-2025 07:00:00,28.672342,77.315260,SO2,6,62,16
India,Delhi,Delhi,"Wazirpur, Delhi - DPCC",06-09-2025 07:00:00,28.699793,77.165453,PM2.5,37,237,89
India,Delhi,Delhi,"Wazirpur, Delhi - DPCC",06-09-2025 07:00:00,28.699793,77.165453,PM10,36,205,115
India,Delhi,Delhi,"Wazirpur, Delhi - DPCC",06-09-2025 07:00:00,28.699793,77.165453,SO2,4,11,7
India,Gujarat,Ahmedabad,"Chandkheda, Ahmedabad - IITM",06-09-2025 07:00:00,23.107969,72.574648,NO2,1,7,3
India,Gujarat,Ahmedabad,"SAC ISRO Bopal, Ahmedabad - IITM",06-09-2025 07:00:00,23.041137,72.456691,NH3,3,4,4
India,Gujarat,Ahmedabad,"SAC ISRO Bopal, Ahmedabad - IITM",06-09-2025 07:00:00,23.041137,72.456691,SO2,2,3,2
India,Gujarat,Ahmedabad,"SAC ISRO Satellite, Ahmedabad - IITM",06-09-2025 07:00:00,23.023389,72.515201,PM2.5,12,363,45
India,Gujarat,Ahmedabad,"SAC ISRO Satellite, Ahmedabad - IITM",06-09-2025 07:00:00,23.023389,72.515201,NH3,3,5,4
India,Gujarat,Ahmedabad,"SAC ISRO Satellite, Ahmedabad - IITM",06-09-2025 07:00:00,23.023389,72.515201,CO,14,56,40
India,Gujarat,Ahmedabad,"SAC ISRO Satellite, Ahmedabad - IITM",06-09-2025 07:00:00,23.023389,72.515201,OZONE,11,28,18
India,Gujarat,Ahmedabad,"SVPI Airport Hansol, Ahmedabad - IITM",06-09-2025 07:00:00,23.076793,72.627874,NO2,8,36,16
India,Gujarat,Ahmedabad,"SVPI Airport Hansol, Ahmedabad - IITM",06-09-2025 07:00:00,23.076793,72.627874,SO2,1,14,4
India,Gujarat,Gandhinagar,"GIFT City, Gandhinagar - IITM",06-09-2025 07:00:00,23.163798,72.677768,CO,40,103,65
India,Delhi,Delhi,"Patparganj, Delhi - DPCC",06-09-2025 07:00:00,28.623763,77.287209,PM10,44,108,67
India,Delhi,Delhi,"Patparganj, Delhi - DPCC",06-09-2025 07:00:00,28.623763,77.287209,NH3,3,4,4
India,Delhi,Delhi,"Punjabi Bagh, Delhi - DPCC",06-09-2025 07:00:00,28.674045,77.131023,NO2,16,38,26
India,Delhi,Delhi,"Punjabi Bagh, Delhi - DPCC",06-09-2025 07:00:00,28.674045,77.131023,SO2,9,13,10
India,Delhi,Delhi,"Punjabi Bagh, Delhi - DPCC",06-09-2025 07:00:00,28.674045,77.131023,CO,36,86,44
India,Delhi,Delhi,"Punjabi Bagh, Delhi - DPCC",06-09-2025 07:00:00,28.674045,77.131023,OZONE,14,36,15
India,Delhi,Delhi,"Pusa, Delhi - DPCC",06-09-2025 07:00:00,28.639652,77.146275,NO2,12,66,34
India,Delhi,Delhi,"Pusa, Delhi - IMD",06-09-2025 07:00:00,28.636110,77.173332,CO,86,104,96
India,Delhi,Delhi,"R K Puram, Delhi - DPCC",06-09-2025 07:00:00,28.563262,77.186937,NH3,3,5,3
India,Delhi,Delhi,"Major Dhyan Chand National Stadium, Delhi - DPCC",06-09-2025 07:00:00,28.611281,77.237738,PM2.5,27,67,45
India,Delhi,Delhi,"Major Dhyan Chand National Stadium, Delhi - DPCC",06-09-2025 07:00:00,28.611281,77.237738,NO2,19,62,34
India,Delhi,Delhi,"Major Dhyan Chand National Stadium, Delhi - DPCC",06-09-2025 07:00:00,28.611281,77.237738,SO2,1,13,6
India,Delhi,Delhi,"Mandir Marg, Delhi - DPCC",06-09-2025 07:00:00,28.636429,77.201067,NO2,11,64,41
India,Delhi,Delhi,"Mandir Marg, Delhi - DPCC",06-09-2025 07:00:00,28.636429,77.201067,OZONE,10,79,22
India,Delhi,Delhi,"Mundka, Delhi - DPCC",06-09-2025 07:00:00,28.684678,77.076574,PM2.5,13,87,46
India,Delhi,Delhi,"Mundka, Delhi - DPCC",06-09-2025 07:00:00,28.684678,77.076574,NH3,5,6,6
India,Delhi,Delhi,"R K Puram, Delhi - DPCC",06-09-2025 07:00:00,28.563262,77.186937,OZONE,12,54,14
India,Delhi,Delhi,"Rohini, Delhi - DPCC",06-09-2025 07:00:00,28.732528,77.119920,CO,9,22,12
India,Delhi,Delhi,"Rohini, Delhi - DPCC",06-09-2025 07:00:00,28.732528,77.119920,OZONE,16,23,20
India,Delhi,Delhi,"Sonia Vihar, Delhi - DPCC",06-09-2025 07:00:00,28.710508,77.249485,PM2.5,15,321,107
India,Delhi,Delhi,"Sonia Vihar, Delhi - DPCC",06-09-2025 07:00:00,28.710508,77.249485,PM10,19,145,73
India,Delhi,Delhi,"Sonia Vihar, Delhi - DPCC",06-09-2025 07:00:00,28.710508,77.249485,NO2,26,39,32
India,Delhi,Delhi,"Sonia Vihar, Delhi - DPCC",06-09-2025 07:00:00,28.710508,77.249485,CO,44,80,51
India,Delhi,Delhi,"Najafgarh, Delhi - DPCC",06-09-2025 07:00:00,28.570173,76.933762,NH3,1,2,1
India,Delhi,Delhi,"Narela, Delhi - DPCC",06-09-2025 07:00:00,28.822836,77.101981,PM10,38,89,63
India,Delhi,Delhi,"Nehru Nagar, Delhi - DPCC",06-09-2025 07:00:00,28.567890,77.250515,PM10,38,77,55
India,Delhi,Delhi,"Nehru Nagar, Delhi - DPCC",06-09-2025 07:00:00,28.567890,77.250515,NO2,12,37,20
India,Delhi,Delhi,"North Campus, DU, Delhi - IMD",06-09-2025 07:00:00,28.6573814,77.1585447,PM2.5,13,170,49
India,Delhi,Delhi,"North Campus, DU, Delhi - IMD",06-09-2025 07:00:00,28.6573814,77.1585447,NO2,13,25,16
India,Delhi,Delhi,"IHBAS, Dilshad Garden, Delhi - CPCB",06-09-2025 07:00:00,28.6811736,77.3025234,PM10,26,48,37
India,Delhi,Delhi,"IHBAS, Dilshad Garden, Delhi - CPCB",06-09-2025 07:00:00,28.6811736,77.3025234,NH3,1,3,2
India,Delhi,Delhi,"ITO, Delhi - CPCB",06-09-2025 07:00:00,28.628624,77.241060,CO,13,54,24
India,Delhi,Delhi,"Jahangirpuri, Delhi - DPCC",06-09-2025 07:00:00,28.732820,77.170633,PM10,NA,NA,NA
India,Delhi,Delhi,"Jahangirpuri, Delhi - DPCC",06-09-2025 07:00:00,28.732820,77.170633,NO2,10,22,16
India,Delhi,Delhi,"Jahangirpuri, Delhi - DPCC",06-09-2025 07:00:00,28.732820,77.170633,OZONE,14,22,16
India,Gujarat,Ahmedabad,"Gyaspur, Ahmedabad - IITM",06-09-2025 07:00:00,22.977134,72.553024,NH3,9,15,14
India,Gujarat,Ahmedabad,"Raikhad, Ahmedabad - IITM",06-09-2025 07:00:00,23.020509,72.579261,PM2.5,17,54,37
India,Gujarat,Ahmedabad,"Raikhad, Ahmedabad - IITM",06-09-2025 07:00:00,23.020509,72.579261,NO2,5,19,8
India,Gujarat,Ahmedabad,"Rakhial, Ahmedabad - IITM",06-09-2025 07:00:00,23.016834,72.625775,NH3,6,13,9
India,Gujarat,Ahmedabad,"Rakhial, Ahmedabad - IITM",06-09-2025 07:00:00,23.016834,72.625775,SO2,8,21,12
India,Karnataka,Hubballi,"Lingaraj Nagar, Hubballi - KSPCB",06-09-2025 07:00:00,15.3714823,75.1160168,OZONE,NA,NA,NA
India,Karnataka,Kalaburagi,"Lal Bahadur Shastri Nagar, Kalaburagi - KSPCB",06-09-2025 07:00:00,17.321993,76.822628,SO2,45,51,48
India,Karnataka,Kalaburagi,"Mahatma Basaveswar Colony, Kalaburgi - KSPCB",06-09-2025 07:00:00,17.336318,76.847397,PM10,38,84,53
India,Karnataka,Kalaburagi,"Mahatma Basaveswar Colony, Kalaburgi - KSPCB",06-09-2025 07:00:00,17.336318,76.847397,NO2,11,17,15
India,Karnataka,Kalaburagi,"Mahatma Basaveswar Colony, Kalaburgi - KSPCB",06-09-2025 07:00:00,17.336318,76.847397,CO,32,61,34
India,Karnataka,Koppal,"Diwator Nagar, Koppal - KSPCB",06-09-2025 07:00:00,15.347630,76.181767,NH3,7,8,7
India,Karnataka,Koppal,"Diwator Nagar, Koppal - KSPCB",06-09-2025 07:00:00,15.347630,76.181767,OZONE,2,13,3
India,Karnataka,Madikeri,"Stuart Hill, Madikeri - KSPCB",06-09-2025 07:00:00,12.415911,75.735050,SO2,7,7,7
India,Karnataka,Mangalore,"Kadri, Mangalore - KSPCB",06-09-2025 07:00:00,12.889250,74.853000,PM2.5,10,23,17
India,Karnataka,Mysuru,"Hebbal 1st Stage, Mysuru - KSPCB",06-09-2025 07:00:00,12.21041,76.37376,NO2,12,32,22
India,Karnataka,Bagalkot,"Vidayagiri, Bagalkot - KSPCB",06-09-2025 07:00:00,16.172806,75.659694,SO2,7,7,7
India,Karnataka,Bengaluru,"BTM Layout, Bengaluru - CPCB",06-09-2025 07:00:00,12.9135218,77.5950804,NO2,24,25,25
India,Karnataka,Bengaluru,"BTM Layout, Bengaluru - CPCB",06-09-2025 07:00:00,12.9135218,77.5950804,NH3,4,4,4
India,Karnataka,Bengaluru,"BTM Layout, Bengaluru - CPCB",06-09-2025 07:00:00,12.9135218,77.5950804,CO,16,28,28
India,Karnataka,Bengaluru,"Bapuji Nagar, Bengaluru - KSPCB",06-09-2025 07:00:00,12.951913,77.539784,PM2.5,16,55,32
India,Karnataka,Bengaluru,"Bapuji Nagar, Bengaluru - KSPCB",06-09-2025 07:00:00,12.951913,77.539784,PM10,24,83,48
India,Karnataka,Bengaluru,"Bapuji Nagar, Bengaluru - KSPCB",06-09-2025 07:00:00,12.951913,77.539784,NH3,1,1,1
India,Karnataka,Bengaluru,"Bapuji Nagar, Bengaluru - KSPCB",06-09-2025 07:00:00,12.951913,77.539784,OZONE,1,32,6
India,Karnataka,Bengaluru,"City Railway Station, Bengaluru - KSPCB",06-09-2025 07:00:00,12.9756843,77.5660749,SO2,6,13,10
India,Karnataka,Bengaluru,"City Railway Station, Bengaluru - KSPCB",06-09-2025 07:00:00,12.9756843,77.5660749,CO,58,62,61
India,Karnataka,Bengaluru,"Hebbal, Bengaluru - KSPCB",06-09-2025 07:00:00,13.029152,77.585901,OZONE,7,8,8
India,Haryana,Gurugram,"NISE Gwal Pahari, Gurugram - IMD",06-09-2025 07:00:00,28.422681,77.148944,NO2,1,10,7
India,Haryana,Panchgaon,"Amity University, Panchgaon - IITM",06-09-2025 07:00:00,28.3153,76.9143,SO2,NA,NA,NA
India,Himachal Pradesh,Baddi,"HIMUDA Complex Phase-1, Baddi - HPPCB",06-09-2025 07:00:00,30.943887,76.801991,NH3,5,8,7
India,Jharkhand,Dhanbad,"Sardar Patel Nagar, Dhanbad - JSPCB",06-09-2025 07:00:00,23.80569,86.44268,SO2,NA,NA,NA
India,Jharkhand,Jorapokhar,"Tata Stadium, Jorapokhar - JSPCB",06-09-2025 07:00:00,23.707909,86.414670,CO,12,53,34
India,Karnataka,Bagalkot,"Vidayagiri, Bagalkot - KSPCB",06-09-2025 07:00:00,16.172806,75.659694,PM2.5,33,34,34
India,Karnataka,Chikkaballapur,"Chikkaballapur Rural, Chikkaballapur - KSPCB",06-09-2025 07:00:00,13.428828,77.731418,OZONE,19,23,21
India,Karnataka,Chikkamagaluru,"Kalyana Nagara, Chikkamagaluru - KSPCB",06-09-2025 07:00:00,13.328028,75.797056,PM10,21,51,37
India,Karnataka,Davanagere,"Devaraj Urs Badavane, Davanagere - KSPCB",06-09-2025 07:00:00,14.475800,75.905200,PM2.5,NA,NA,NA
India,Karnataka,Davanagere,"Devaraj Urs Badavane, Davanagere - KSPCB",06-09-2025 07:00:00,14.475800,75.905200,SO2,NA,NA,NA
India,Karnataka,Haveri,"Ashwini Nagar, Haveri - KSPCB",06-09-2025 07:00:00,14.791800,75.389600,NH3,6,6,6
India,Karnataka,Hubballi,"Lingaraj Nagar, Hubballi - KSPCB",06-09-2025 07:00:00,15.3714823,75.1160168,PM10,33,40,36
India,Karnataka,Hubballi,"Lingaraj Nagar, Hubballi - KSPCB",06-09-2025 07:00:00,15.3714823,75.1160168,NH3,1,1,1
India,Karnataka,Bengaluru,"Sanegurava Halli, Bengaluru - KSPCB",06-09-2025 07:00:00,12.990328,77.5431385,PM10,39,40,39
India,Karnataka,Bengaluru,"Shivapura_Peenya, Bengaluru - KSPCB",06-09-2025 07:00:00,13.0246342,77.5080115,PM10,52,111,74
India,Karnataka,Bengaluru,"Shivapura_Peenya, Bengaluru - KSPCB",06-09-2025 07:00:00,13.0246342,77.5080115,SO2,2,16,8
India,Karnataka,Bengaluru,"Shivapura_Peenya, Bengaluru - KSPCB",06-09-2025 07:00:00,13.0246342,77.5080115,CO,26,35,28
India,Karnataka,Chikkaballapur,"Chikkaballapur Rural, Chikkaballapur - KSPCB",06-09-2025 07:00:00,13.428828,77.731418,PM2.5,12,70,26
India,Karnataka,Chikkaballapur,"Chikkaballapur Rural, Chikkaballapur - KSPCB",06-09-2025 07:00:00,13.428828,77.731418,PM10,18,104,39
India,Karnataka,Chikkaballapur,"Chikkaballapur Rural, Chikkaballapur - KSPCB",06-09-2025 07:00:00,13.428828,77.731418,NO2,10,35,18
India,Karnataka,Chikkaballapur,"Chikkaballapur Rural, Chikkaballapur - KSPCB",06-09-2025 07:00:00,13.428828,77.731418,CO,6,12,6
India,Karnataka,Bengaluru,"Hombegowda Nagar, Bengaluru - KSPCB",06-09-2025 07:00:00,12.938539,77.590100,CO,8,26,11
India,Karnataka,Bengaluru,"Jayanagar 5th Block, Bengaluru - KSPCB",06-09-2025 07:00:00,12.920984,77.584908,PM2.5,NA,NA,NA
India,Karnataka,Bengaluru,"Jayanagar 5th Block, Bengaluru - KSPCB",06-09-2025 07:00:00,12.920984,77.584908,CO,2,24,7
India,Karnataka,Bengaluru,"Jigani, Bengaluru - KSPCB",06-09-2025 07:00:00,12.7816279,77.6299145,PM10,43,72,56
India,Karnataka,Bengaluru,"Jigani, Bengaluru - KSPCB",06-09-2025 07:00:00,12.7816279,77.6299145,NO2,29,30,30
India,Karnataka,Bengaluru,"RVCE-Mailasandra, Bengaluru - KSPCB",06-09-2025 07:00:00,12.921418,77.502466,OZONE,21,22,21
India,Gujarat,Gandhinagar,"Sector-10, Gandhinagar - GPCB",06-09-2025 07:00:00,23.221714,72.654328,NO2,9,9,9
India,Gujarat,Gandhinagar,"Sector-10, Gandhinagar - GPCB",06-09-2025 07:00:00,23.221714,72.654328,SO2,6,8,7
India,Gujarat,Nandesari,"GIDC, Nandesari - Nandesari Ind. Association",06-09-2025 07:00:00,22.410802,73.097923,PM10,NA,NA,NA
India,Gujarat,Surat,"Science Center, Surat - SMC",06-09-2025 07:00:00,21.170046,72.795405,PM10,10,61,28
India,Gujarat,Vapi,"Phase-1 GIDC, Vapi - GPCB",06-09-2025 07:00:00,20.362421,72.918013,NO2,13,14,14
India,Gujarat,Gandhinagar,"IIPHG Lekawada, Gandhinagar - IITM",06-09-2025 07:00:00,23.243639,72.68994,SO2,5,8,7
India,Gujarat,Gandhinagar,"Sector-10, Gandhinagar - GPCB",06-09-2025 07:00:00,23.221714,72.654328,PM2.5,7,48,30
India,Karnataka,Vijayapura,"Ibrahimpur, Vijayapura - KSPCB",06-09-2025 07:00:00,16.802639,75.722694,CO,14,122,34
India,Madhya Pradesh,Pithampur,"Sector-2 Industrial Area, Pithampur - MPPCB",06-09-2025 07:00:00,22.624758,75.675238,SO2,12,18,15
India,Madhya Pradesh,Pithampur,"Sector-2 Industrial Area, Pithampur - MPPCB",06-09-2025 07:00:00,22.624758,75.675238,CO,17,24,24
India,Madhya Pradesh,Ratlam,"Shasthri Nagar, Ratlam - IPCA Lab",06-09-2025 07:00:00,23.331731,75.045981,PM2.5,1,43,17
India,Madhya Pradesh,Ratlam,"Shasthri Nagar, Ratlam - IPCA Lab",06-09-2025 07:00:00,23.331731,75.045981,NO2,34,35,35
India,Madhya Pradesh,Sagar,"Civil Lines, Sagar - MPPCB",06-09-2025 07:00:00,23.838586,78.759431,PM2.5,3,34,14
India,Madhya Pradesh,Sagar,"Civil Lines, Sagar - MPPCB",06-09-2025 07:00:00,23.838586,78.759431,SO2,2,5,4
India,Madhya Pradesh,Satna,"Bandhavgar Colony, Satna - Birla Cement",06-09-2025 07:00:00,24.58434363,80.8549414,SO2,18,20,19
India,Madhya Pradesh,Singrauli,"Suryakiran Bhawan NCL, Singrauli - MPPCB",06-09-2025 07:00:00,24.108970,82.645580,CO,12,17,12
India,Madhya Pradesh,Bhopal,"Paryavaran Parisar, Bhopal - MPPCB",06-09-2025 07:00:00,23.210494,77.425409,NH3,3,4,3
India,Madhya Pradesh,Bhopal,"T T Nagar, Bhopal - MPPCB",06-09-2025 07:00:00,23.233584,77.400574,PM2.5,12,26,19
India,Madhya Pradesh,Bhopal,"T T Nagar, Bhopal - MPPCB",06-09-2025 07:00:00,23.233584,77.400574,PM10,14,24,18
India,Madhya Pradesh,Bhopal,"T T Nagar, Bhopal - MPPCB",06-09-2025 07:00:00,23.233584,77.400574,OZONE,20,31,27
India,Madhya Pradesh,Damoh,"Shrivastav Colony, Damoh - MPPCB",06-09-2025 07:00:00,23.81748678,79.446246,SO2,11,18,14
India,Madhya Pradesh,Dewas,"Bhopal Chauraha, Dewas - MPPCB",06-09-2025 07:00:00,22.9682591,76.064118,NO2,17,56,43
India,Madhya Pradesh,Dewas,"Bhopal Chauraha, Dewas - MPPCB",06-09-2025 07:00:00,22.9682591,76.064118,NH3,2,3,2
India,Madhya Pradesh,Dewas,"Bhopal Chauraha, Dewas - MPPCB",06-09-2025 07:00:00,22.9682591,76.064118,OZONE,29,33,31
India,Madhya Pradesh,Gwalior,"City Center, Gwalior - MPPCB",06-09-2025 07:00:00,26.203442,78.193251,NO2,7,7,7
India,Karnataka,Yadgir,"Collector Office, Yadgir - KSPCB",06-09-2025 07:00:00,16.7602,77.1428,NO2,21,45,33
India,Karnataka,Yadgir,"Collector Office, Yadgir - KSPCB",06-09-2025 07:00:00,16.7602,77.1428,NH3,2,3,2
India,Kerala,Eloor,"Udyogamandal, Eloor - Kerala PCB",06-09-2025 07:00:00,10.073232,76.302765,NO2,7,8,8
India,Kerala,Eloor,"Udyogamandal, Eloor - Kerala PCB",06-09-2025 07:00:00,10.073232,76.302765,SO2,1,1,1
India,Kerala,Eloor,"Udyogamandal, Eloor - Kerala PCB",06-09-2025 07:00:00,10.073232,76.302765,CO,36,121,50
India,Kerala,Kannur,"Thavakkara, Kannur - Kerala PCB",06-09-2025 07:00:00,11.875000,75.373200,SO2,4,5,5
India,Kerala,Kollam,"Polayathode, Kollam - Kerala PCB",06-09-2025 07:00:00,8.8787,76.6073,PM2.5,17,26,23
India,Kerala,Thiruvananthapuram,"Kariavattom, Thiruvananthapuram - Kerala PCB",06-09-2025 07:00:00,8.563700,76.886500,PM10,55,61,58
India,Maharashtra,Ahmednagar,"Tarakpur, Ahmednagar - MPCB",06-09-2025 07:00:00,19.10122,74.73339,NO2,16,25,21
India,Maharashtra,Akola,"Ramdaspeth, Akola - MPCB",06-09-2025 07:00:00,20.719516,77.000253,NO2,15,29,21
India,Maharashtra,Amravati,"Shivneri Colony, Amravati - MPCB",06-09-2025 07:00:00,20.9402359,77.7895248,SO2,3,11,6
India,Maharashtra,Amravati,"Shri Shivaji Science College, Amravati - MPCB",06-09-2025 07:00:00,20.939198,77.765701,SO2,7,8,8
India,Maharashtra,Amravati,"Shri Shivaji Science College, Amravati - MPCB",06-09-2025 07:00:00,20.939198,77.765701,OZONE,4,35,28
India,Maharashtra,Aurangabad,"MIDC Chilkalthana, Aurangabad - MPCB",06-09-2025 07:00:00,19.875620,75.387310,SO2,NA,NA,NA
India,Madhya Pradesh,Jabalpur,"Suhagi, Jabalpur - JMC",06-09-2025 07:00:00,23.218135,79.957770,PM2.5,18,35,26
India,Madhya Pradesh,Jabalpur,"Suhagi, Jabalpur - JMC",06-09-2025 07:00:00,23.218135,79.957770,NH3,2,2,2
India,Madhya Pradesh,Katni,"Gole Bazar, Katni - MPPCB",06-09-2025 07:00:00,23.50016,80.23284,NH3,3,3,3
India,Madhya Pradesh,Maihar,"Sahilara, Maihar - KJS Cements",06-09-2025 07:00:00,24.2613009,80.7231783,PM2.5,NA,NA,NA
India,Madhya Pradesh,Mandideep,"Sector-D Industrial Area, Mandideep - MPPCB",06-09-2025 07:00:00,23.108440,77.511428,NO2,NA,NA,NA
India,Madhya Pradesh,Mandideep,"Sector-D Industrial Area, Mandideep - MPPCB",06-09-2025 07:00:00,23.108440,77.511428,NH3,NA,NA,NA
India,Madhya Pradesh,Mandideep,"Sector-D Industrial Area, Mandideep - MPPCB",06-09-2025 07:00:00,23.108440,77.511428,SO2,NA,NA,NA
India,Madhya Pradesh,Indore,"Maguda Nagar, Indore - IMC",06-09-2025 07:00:00,22.7524,75.8872,SO2,34,38,36
India,Madhya Pradesh,Indore,"Maguda Nagar, Indore - IMC",06-09-2025 07:00:00,22.7524,75.8872,OZONE,7,9,7
India,Madhya Pradesh,Indore,"Regional Park, Indore - IMC",06-09-2025 07:00:00,22.6780,75.8559,NO2,12,19,15
India,Madhya Pradesh,Indore,"Regional Park, Indore - IMC",06-09-2025 07:00:00,22.6780,75.8559,OZONE,6,7,6
India,Madhya Pradesh,Indore,"Residency Area, Indore - IMC",06-09-2025 07:00:00,22.7084,75.8815,PM10,9,23,15
India,Madhya Pradesh,Jabalpur,"Govindh Bhavan Colony, Jabalpur - JMC",06-09-2025 07:00:00,23.163174,79.973061,PM2.5,25,37,30
India,Kerala,Thiruvananthapuram,"Plammoodu, Thiruvananthapuram - Kerala PCB",06-09-2025 07:00:00,8.5149093,76.9435879,NH3,6,7,6
India,Kerala,Thiruvananthapuram,"Plammoodu, Thiruvananthapuram - Kerala PCB",06-09-2025 07:00:00,8.5149093,76.9435879,OZONE,13,16,15
India,Madhya Pradesh,Bhopal,"Idgah Hills, Bhopal - MPPCB",06-09-2025 07:00:00,23.264759,77.381568,SO2,8,10,9
India,Madhya Pradesh,Gwalior,"Maharaj Bada, Gwalior - MPPCB",06-09-2025 07:00:00,26.200388,78.147714,CO,5,85,14
India,Madhya Pradesh,Indore,"Chhoti Gwaltoli, Indore - MPPCB",06-09-2025 07:00:00,22.4310,75.5213,SO2,8,13,10
India,Maharashtra,Aurangabad,"More Chowk Waluj, Aurangabad - MPCB",06-09-2025 07:00:00,19.8389439,75.244448,PM10,9,49,35
India,Maharashtra,Mahad,"Kamble Tarf Birwadi, Mahad - MPCB",06-09-2025 07:00:00,18.1023399,73.4783687,CO,18,34,28
India,Maharashtra,Malegaon,"Mahesh Nagar, Malegaon - MPCB",06-09-2025 07:00:00,20.555712,74.529236,NH3,4,5,4
India,Maharashtra,Malegaon,"Mahesh Nagar, Malegaon - MPCB",06-09-2025 07:00:00,20.555712,74.529236,OZONE,12,42,34
India,Maharashtra,Mumbai,"Bandra Kurla Complex, Mumbai - IITM",06-09-2025 07:00:00,19.053536,72.84643,NH3,6,15,9
India,Maharashtra,Mumbai,"Bandra Kurla Complex, Mumbai - IITM",06-09-2025 07:00:00,19.053536,72.84643,SO2,4,5,4
India,Maharashtra,Mumbai,"Bandra Kurla Complex, Mumbai - IITM",06-09-2025 07:00:00,19.053536,72.84643,CO,30,94,62
India,Maharashtra,Mumbai,"Bandra Kurla Complex, Mumbai - MPCB",06-09-2025 07:00:00,19.065931,72.862131,PM2.5,6,58,32
India,Maharashtra,Mumbai,"Bandra Kurla Complex, Mumbai - MPCB",06-09-2025 07:00:00,19.065931,72.862131,PM10,19,48,36
India,Maharashtra,Mumbai,"Bandra Kurla Complex, Mumbai - MPCB",06-09-2025 07:00:00,19.065931,72.862131,NO2,8,26,18
India,Maharashtra,Mumbai,"Bandra Kurla Complex, Mumbai - MPCB",06-09-2025 07:00:00,19.065931,72.862131,OZONE,4,23,14
India,Maharashtra,Kalyan,"Khadakpada, Kalyan - MPCB",06-09-2025 07:00:00,19.25292,73.142019,CO,10,12,11
India,Maharashtra,Kolhapur,"Shivaji University, Kolhapur - MPCB",06-09-2025 07:00:00,16.6870449,74.2505872,PM10,21,52,34
India,Maharashtra,Kolhapur,"Shivaji University, Kolhapur - MPCB",06-09-2025 07:00:00,16.6870449,74.2505872,CO,4,24,8
India,Maharashtra,Kolhapur,"Sinchan Bhavan, Kolhapur - MPCB",06-09-2025 07:00:00,16.7143745,74.2426398,PM2.5,15,28,21
India,Maharashtra,Kolhapur,"Sinchan Bhavan, Kolhapur - MPCB",06-09-2025 07:00:00,16.7143745,74.2426398,NO2,2,16,7
India,Maharashtra,Latur,"Sawe Wadi, Latur - MPCB",06-09-2025 07:00:00,18.39963,76.57452,PM10,16,40,31
India,Maharashtra,Latur,"Sawe Wadi, Latur - MPCB",06-09-2025 07:00:00,18.39963,76.57452,NH3,1,9,4
India,Maharashtra,Latur,"Sawe Wadi, Latur - MPCB",06-09-2025 07:00:00,18.39963,76.57452,OZONE,14,35,17
India,Maharashtra,Mahad,"Kamble Tarf Birwadi, Mahad - MPCB",06-09-2025 07:00:00,18.1023399,73.4783687,PM10,15,46,30
India,Maharashtra,Mumbai,"Kandivali East, Mumbai - MPCB",06-09-2025 07:00:00,19.205800,72.868200,SO2,NA,NA,NA
