country,state,city,station,last_update,latitude,longitude,pollutant_id,min_value,max_value,avg_value
India,Andhra_Pradesh,Amaravati,"Secretariat, Amaravati - APPCB",01-03-2026 08:00:00,16.5150833,80.5181667,PM2.5,68,98,85
India,Andhra_Pradesh,Amaravati,"Secretariat, Amaravati - APPCB",01-03-2026 08:00:00,16.5150833,80.5181667,OZONE,3,44,10
India,Andhra_Pradesh,Anantapur,"Gulzarpet, Anantapur - APPCB",01-03-2026 08:00:00,14.675886,77.593027,PM2.5,64,80,72
India,Andhra_Pradesh,Anantapur,"Gulzarpet, Anantapur - APPCB",01-03-2026 08:00:00,14.675886,77.593027,SO2,10,11,11
India,Andhra_Pradesh,Kadapa,"Yerramukkapalli, Kadapa - APPCB",01-03-2026 08:00:00,14.465052,78.824187,SO2,13,13,13
India,Andhra_Pradesh,Kadapa,"Yerramukkapalli, Kadapa - APPCB",01-03-2026 08:00:00,14.465052,78.824187,CO,24,34,26
India,Andhra_Pradesh,Rajamahendravaram,"Anand Kala Kshetram, Rajamahendravaram - APPCB",01-03-2026 08:00:00,16.9872867,81.7363176,PM2.5,73,116,88
India,Andhra_Pradesh,Rajamahendravaram,"Anand Kala Kshetram, Rajamahendravaram - APPCB",01-03-2026 08:00:00,16.9872867,81.7363176,PM10,75,127,93
India,Andhra_Pradesh,Rajamahendravaram,"Anand Kala Kshetram, Rajamahendravaram - APPCB",01-03-2026 08:00:00,16.9872867,81.7363176,NO2,10,49,20
India,Andhra_Pradesh,Rajamahendravaram,"Anand Kala Kshetram, Rajamahendravaram - APPCB",01-03-2026 08:00:00,16.9872867,81.7363176,NH3,4,8,6
India,Andhra_Pradesh,Rajamahendravaram,"Anand Kala Kshetram, Rajamahendravaram - APPCB",01-03-2026 08:00:00,16.9872867,81.7363176,CO,24,46,34
India,Assam,Nagaon,"Christianpatty, Nagaon - PCBA",01-03-2026 08:00:00,26.349082,92.68449,SO2,7,15,10
India,Assam,Nalbari,"Bata Chowk, Nalbari - PCBA",01-03-2026 08:00:00,26.446912,91.439057,OZONE,14,17,15
India,Assam,Silchar,"Tarapur, Silchar - PCBA",01-03-2026 08:00:00,24.82827,92.79525,PM10,42,62,51
India,Assam,Silchar,"Tarapur, Silchar - PCBA",01-03-2026 08:00:00,24.82827,92.79525,SO2,5,6,5
India,Assam,Sivasagar,"Girls College, Sivasagar - PCBA",01-03-2026 08:00:00,26.987634,94.636574,NO2,29,46,36
India,Assam,Sivasagar,"Girls College, Sivasagar - PCBA",01-03-2026 08:00:00,26.987634,94.636574,NH3,5,9,7
India,Bihar,Araria,"Kharahiya Basti, Araria - BSPCB",01-03-2026 08:00:00,26.146529,87.454184,NO2,1,16,5
India,Bihar,Arrah,"New DM Office, Arrah - BSPCB",01-03-2026 08:00:00,25.5626095,84.663264,NO2,4,8,7
India,Bihar,Arrah,"New DM Office, Arrah - BSPCB",01-03-2026 08:00:00,25.5626095,84.663264,NH3,1,2,2
India,Andhra_Pradesh,Tirumala,"Toll Gate, Tirumala - APPCB",01-03-2026 08:00:00,13.67,79.35,SO2,9,17,11
India,Andhra_Pradesh,Tirumala,"Toll Gate, Tirumala - APPCB",01-03-2026 08:00:00,13.67,79.35,OZONE,27,70,55
India,Andhra_Pradesh,Tirupati,"Vaikuntapuram, Tirupati - APPCB",01-03-2026 08:00:00,13.615387,79.409230,NO2,29,32,31
India,Andhra_Pradesh,Vijayawada,"HB Colony, Vijayawada - APPCB",01-03-2026 08:00:00,16.536107,80.594233,PM2.5,NA,NA,NA
India,Andhra_Pradesh,Vijayawada,"Rajiv Gandhi Park, Vijayawada - APPCB",01-03-2026 08:00:00,16.509717,80.612222,PM10,52,89,74
India,Andhra_Pradesh,Vijayawada,"Rajiv Gandhi Park, Vijayawada - APPCB",01-03-2026 08:00:00,16.509717,80.612222,SO2,13,18,17
India,Andhra_Pradesh,Vijayawada,"Rajiv Gandhi Park, Vijayawada - APPCB",01-03-2026 08:00:00,16.509717,80.612222,OZONE,8,32,9
India,Andhra_Pradesh,Vijayawada,"Rajiv Nagar, Vijayawada - APPCB",01-03-2026 08:00:00,16.554731,80.649110,PM2.5,59,69,66
India,Bihar,Samastipur,"DM Office_Kasipur, Samastipur - BSPCB",01-03-2026 08:00:00,25.859655,85.77944,NH3,1,1,1
India,Bihar,Siwan,"Chitragupta Nagar, Siwan - BSPCB",01-03-2026 08:00:00,26.2271665,84.3570427,NO2,2,2,2
India,Bihar,Siwan,"Chitragupta Nagar, Siwan - BSPCB",01-03-2026 08:00:00,26.2271665,84.3570427,NH3,1,1,1
India,Bihar,Siwan,"Chitragupta Nagar, Siwan - BSPCB",01-03-2026 08:00:00,26.2271665,84.3570427,CO,53,100,65
India,Chandigarh,Chandigarh,"Sector 22, Chandigarh - CPCC",01-03-2026 08:00:00,30.735567,76.775714,NO2,6,66,25
India,Chandigarh,Chandigarh,"Sector 22, Chandigarh - CPCC",01-03-2026 08:00:00,30.735567,76.775714,CO,54,88,74
India,Chandigarh,Chandigarh,"Sector-25, Chandigarh - CPCC",01-03-2026 08:00:00,30.751462,76.762879,OZONE,4,53,10
India,Chandigarh,Chandigarh,"Sector-53, Chandigarh - CPCC",01-03-2026 08:00:00,30.719859,76.738637,NO2,13,78,35
India,Bihar,Arrah,"New DM Office, Arrah - BSPCB",01-03-2026 08:00:00,25.5626095,84.663264,CO,32,62,51
India,Bihar,Aurangabad,"Gurdeo Nagar, Aurangabad - BSPCB",01-03-2026 08:00:00,24.75746,84.366208,NO2,7,8,8
India,Bihar,Aurangabad,"Gurdeo Nagar, Aurangabad - BSPCB",01-03-2026 08:00:00,24.75746,84.366208,CO,101,103,102
India,Bihar,Bettiah,"Kamalnath Nagar, Bettiah - BSPCB",01-03-2026 08:00:00,26.80365,84.51954,OZONE,21,23,22
India,Bihar,Bhagalpur,"DM Office_Kachari Chowk, Bhagalpur - BSPCB",01-03-2026 08:00:00,25.251013,86.989001,NH3,1,1,1
India,Bihar,Bhagalpur,"DM Office_Kachari Chowk, Bhagalpur - BSPCB",01-03-2026 08:00:00,25.251013,86.989001,OZONE,10,20,15
India,Bihar,Bhagalpur,"Mayaganj, Bhagalpur - BSPCB",01-03-2026 08:00:00,25.265194,87.012947,SO2,48,60,54
India,Bihar,Patna,"Rajbansi Nagar, Patna - BSPCB",01-03-2026 08:00:00,25.599486,85.113666,PM10,52,140,94
India,Bihar,Patna,"Rajbansi Nagar, Patna - BSPCB",01-03-2026 08:00:00,25.599486,85.113666,OZONE,26,34,31
India,Bihar,Patna,"Samanpura, Patna - BSPCB",01-03-2026 08:00:00,25.596727,85.085624,NO2,34,45,39
India,Bihar,Patna,"Samanpura, Patna - BSPCB",01-03-2026 08:00:00,25.596727,85.085624,SO2,2,3,3
India,Bihar,Patna,"Samanpura, Patna - BSPCB",01-03-2026 08:00:00,25.596727,85.085624,CO,66,109,81
India,Bihar,Purnia,"Mariam Nagar, Purnia - BSPCB",01-03-2026 08:00:00,25.366336,87.117468,PM10,51,85,67
India,Bihar,Rajgir,"Dangi Tola, Rajgir - BSPCB",01-03-2026 08:00:00,25.03280,85.41948,NO2,12,15,14
India,Bihar,Rajgir,"Dangi Tola, Rajgir - BSPCB",01-03-2026 08:00:00,25.03280,85.41948,CO,36,48,42
India,Bihar,Bihar Sharif,"D M Colony, Bihar Sharif - BSPCB",01-03-2026 08:00:00,25.204762,85.514960,CO,101,105,103
India,Bihar,Buxar,"Charitra Van, Buxar - BSPCB",01-03-2026 08:00:00,25.567520,83.966379,PM2.5,45,80,65
India,Bihar,Buxar,"Charitra Van, Buxar - BSPCB",01-03-2026 08:00:00,25.567520,83.966379,SO2,2,45,22
India,Bihar,Gaya,"SFTI Kusdihra, Gaya - BSPCB",01-03-2026 08:00:00,24.762518,84.982348,PM2.5,45,78,64
India,Bihar,Gaya,"SFTI Kusdihra, Gaya - BSPCB",01-03-2026 08:00:00,24.762518,84.982348,NH3,4,4,4
India,Bihar,Hajipur,"Industrial Area, Hajipur - BSPCB",01-03-2026 08:00:00,25.697189,85.245900,PM2.5,64,310,167
India,Bihar,Muzaffarpur,"Buddha Colony, Muzaffarpur - BSPCB",01-03-2026 08:00:00,26.11442,85.39813,PM2.5,75,279,149
India,Bihar,Muzaffarpur,"MIT-Daudpur Kothi, Muzaffarpur - BSPCB",01-03-2026 08:00:00,26.1403345,85.3650192,CO,35,63,37
India,Bihar,Patna,"DRM Office Danapur, Patna - BSPCB",01-03-2026 08:00:00,25.586562,85.043586,SO2,5,8,7
India,Bihar,Patna,"Govt. High School Shikarpur, Patna - BSPCB",01-03-2026 08:00:00,25.592539,85.227158,CO,34,96,69
India,Andhra_Pradesh,Visakhapatnam,"GVM Corporation, Visakhapatnam - APPCB",01-03-2026 08:00:00,17.72,83.3,NO2,27,121,84
India,Andhra_Pradesh,Visakhapatnam,"GVM Corporation, Visakhapatnam - APPCB",01-03-2026 08:00:00,17.72,83.3,SO2,6,100,31
India,Assam,Byrnihat,"Central Academy for SFS, Byrnihat - PCBA",01-03-2026 08:00:00,26.071318,91.87488,PM2.5,84,397,171
India,Assam,Guwahati,"Pan Bazaar, Guwahati - PCBA",01-03-2026 08:00:00,26.187500,91.744194,PM10,48,108,74
India,Bihar,Kishanganj,"SDM Office_Khagra, Kishanganj - BSPCB",01-03-2026 08:00:00,26.0881305,87.93840336,SO2,6,11,8
India,Bihar,Kishanganj,"SDM Office_Khagra, Kishanganj - BSPCB",01-03-2026 08:00:00,26.0881305,87.93840336,CO,16,22,17
India,Bihar,Motihari,"Gandak Colony, Motihari - BSPCB",01-03-2026 08:00:00,26.63086,84.90051,SO2,3,3,3
India,Bihar,Munger,"Town Hall, Munger - BSPCB",01-03-2026 08:00:00,25.376776,86.471523,PM2.5,40,420,171
India,Delhi,Delhi,"DTU, Delhi - CPCB",01-03-2026 08:00:00,28.7500499,77.1112615,SO2,23,38,30
India,Delhi,Delhi,"Dr. Karni Singh Shooting Range, Delhi - DPCC",01-03-2026 08:00:00,28.498571,77.264840,PM10,90,219,150
India,Delhi,Delhi,"Dr. Karni Singh Shooting Range, Delhi - DPCC",01-03-2026 08:00:00,28.498571,77.264840,SO2,10,19,14
India,Delhi,Delhi,"Dr. Karni Singh Shooting Range, Delhi - DPCC",01-03-2026 08:00:00,28.498571,77.264840,CO,20,105,62
India,Delhi,Delhi,"Dr. Karni Singh Shooting Range, Delhi - DPCC",01-03-2026 08:00:00,28.498571,77.264840,OZONE,5,191,25
India,Delhi,Delhi,"Dwarka-Sector 8, Delhi - DPCC ",01-03-2026 08:00:00,28.5710274,77.0719006,PM2.5,65,344,206
India,Delhi,Delhi,"Dwarka-Sector 8, Delhi - DPCC ",01-03-2026 08:00:00,28.5710274,77.0719006,CO,23,121,63
India,Delhi,Delhi,"Dwarka-Sector 8, Delhi - DPCC ",01-03-2026 08:00:00,28.5710274,77.0719006,OZONE,10,139,13
India,Delhi,Delhi,"IGI Airport (T3), Delhi - IMD",01-03-2026 08:00:00,28.5627763,77.1180053,NO2,59,115,78
India,Delhi,Delhi,"IGNOU_Maidan Garhi, Delhi - DPCC",01-03-2026 08:00:00,28.493624 ,77.201159 ,SO2,61,73,65
India,Delhi,Delhi,"IHBAS, Dilshad Garden, Delhi - CPCB",01-03-2026 08:00:00,28.6811736,77.3025234,NH3,7,16,9
India,Chandigarh,Chandigarh,"Sector-53, Chandigarh - CPCC",01-03-2026 08:00:00,30.719859,76.738637,NH3,14,20,17
India,Chandigarh,Chandigarh,"Sector-53, Chandigarh - CPCC",01-03-2026 08:00:00,30.719859,76.738637,OZONE,7,70,27
India,Chhattisgarh,Bhilai,"32Bungalows, Bhilai - CECB",01-03-2026 08:00:00,21.194815,81.314770,PM2.5,20,33,28
India,Chhattisgarh,Bhilai,"32Bungalows, Bhilai - CECB",01-03-2026 08:00:00,21.194815,81.314770,CO,25,50,49
India,Chhattisgarh,Bhilai,"Hathkhoj, Bhilai - CECB",01-03-2026 08:00:00,21.224231,81.408350,PM2.5,30,99,60
India,Chhattisgarh,Bhilai,"Hathkhoj, Bhilai - CECB",01-03-2026 08:00:00,21.224231,81.408350,NO2,20,94,62
India,Chhattisgarh,Chhal,"Nawapara SECL Colony, Chhal - CECB",01-03-2026 08:00:00,22.118125,83.140608,CO,28,38,33
India,Chhattisgarh,Korba,"Rampur, Korba - CECB",01-03-2026 08:00:00,22.368195,82.746431,PM10,37,167,69
India,Chhattisgarh,Korba,"Rampur, Korba - CECB",01-03-2026 08:00:00,22.368195,82.746431,OZONE,4,16,6
India,Chhattisgarh,Kunjemura,"OP Jindal School, Kunjemura - CECB",01-03-2026 08:00:00,22.126650,83.483212,PM10,53,296,120
India,Chhattisgarh,Milupara,"Govt. Higher Secondary School, Milupara - CECB",01-03-2026 08:00:00,22.1910172,83.5197009,NH3,1,2,1
India,Chhattisgarh,Milupara,"Govt. Higher Secondary School, Milupara - CECB",01-03-2026 08:00:00,22.1910172,83.5197009,OZONE,12,147,20
India,Chhattisgarh,Raipur,"AIIMS, Raipur - CECB",01-03-2026 08:00:00,21.258815,81.578979,CO,26,54,38
India,Chhattisgarh,Raipur,"Bhatagaon New ISBT, Raipur - CECB",01-03-2026 08:00:00,21.219665,81.630094,NH3,NA,NA,NA
India,Chhattisgarh,Raipur,"Bhatagaon New ISBT, Raipur - CECB",01-03-2026 08:00:00,21.219665,81.630094,SO2,NA,NA,NA
India,Delhi,Delhi,"Ashok Vihar, Delhi - DPCC",01-03-2026 08:00:00,28.695381,77.181665,CO,19,86,50
India,Delhi,Delhi,"Aya Nagar, Delhi - IMD",01-03-2026 08:00:00,28.4706914,77.1099364,OZONE,6,95,15
India,Delhi,Delhi,"Bawana, Delhi - DPCC",01-03-2026 08:00:00,28.776200,77.051074,CO,18,103,64
India,Delhi,Delhi,"Burari Crossing, Delhi - IMD",01-03-2026 08:00:00,28.7256504,77.2011573,PM2.5,65,312,187
India,Delhi,Delhi,"CRRI Mathura Road, Delhi - IMD",01-03-2026 08:00:00,28.5512005,77.2735737,CO,18,108,82
India,Delhi,Delhi,"Chandni Chowk, Delhi - IITM",01-03-2026 08:00:00,28.656756,77.227234,PM10,102,318,195
India,Delhi,Delhi,"Chandni Chowk, Delhi - IITM",01-03-2026 08:00:00,28.656756,77.227234,SO2,12,55,27
India,Delhi,Delhi,"Punjabi Bagh, Delhi - DPCC",01-03-2026 08:00:00,28.674045,77.131023,SO2,27,35,30
India,Delhi,Delhi,"R K Puram, Delhi - DPCC",01-03-2026 08:00:00,28.563262,77.186937,CO,26,122,67
India,Delhi,Delhi,"Rohini, Delhi - DPCC",01-03-2026 08:00:00,28.732528,77.119920,PM2.5,75,385,226
India,Delhi,Delhi,"Rohini, Delhi - DPCC",01-03-2026 08:00:00,28.732528,77.119920,PM10,126,500,278
India,Delhi,Delhi,"Rohini, Delhi - DPCC",01-03-2026 08:00:00,28.732528,77.119920,SO2,8,27,14
India,Delhi,Delhi,"Sirifort, Delhi - CPCB",01-03-2026 08:00:00,28.5504249,77.2159377,PM10,121,500,212
India,Delhi,Delhi,"Sirifort, Delhi - CPCB",01-03-2026 08:00:00,28.5504249,77.2159377,SO2,33,38,35
India,Delhi,Delhi,"Narela, Delhi - DPCC",01-03-2026 08:00:00,28.822836,77.101981,NO2,11,87,33
India,Delhi,Delhi,"North Campus, DU, Delhi - IMD",01-03-2026 08:00:00,28.6573814,77.1585447,PM2.5,80,297,165
India,Delhi,Delhi,"Okhla Phase-2, Delhi - DPCC",01-03-2026 08:00:00,28.530785,77.271255,SO2,12,20,16
India,Delhi,Delhi,"Patparganj, Delhi - DPCC",01-03-2026 08:00:00,28.623763,77.287209,NO2,22,130,75
India,Delhi,Delhi,"Patparganj, Delhi - DPCC",01-03-2026 08:00:00,28.623763,77.287209,NH3,7,10,8
India,Delhi,Delhi,"Punjabi Bagh, Delhi - DPCC",01-03-2026 08:00:00,28.674045,77.131023,NO2,26,108,54
India,Chhattisgarh,Raipur,"Krishak Nagar, Raipur - CECB",01-03-2026 08:00:00,21.237755,81.705301,CO,19,38,32
India,Chhattisgarh,Raipur,"Krishak Nagar, Raipur - CECB",01-03-2026 08:00:00,21.237755,81.705301,OZONE,6,62,7
India,Chhattisgarh,Raipur,"Siltara Phase-II, Raipur - CECB",01-03-2026 08:00:00,21.371751,81.664929,NO2,15,51,27
India,Delhi,Delhi,"Alipur, Delhi - DPCC",01-03-2026 08:00:00,28.815329,77.153010,PM2.5,60,353,200
India,Delhi,Delhi,"Alipur, Delhi - DPCC",01-03-2026 08:00:00,28.815329,77.153010,NO2,21,129,61
India,Delhi,Delhi,"Ashok Vihar, Delhi - DPCC",01-03-2026 08:00:00,28.695381,77.181665,NO2,24,130,68
India,Delhi,Delhi,"NSIT Dwarka, Delhi - CPCB",01-03-2026 08:00:00,28.60909,77.0325413,PM2.5,125,272,187
India,Delhi,Delhi,"NSUT Jaffarpur, Delhi - DPCC",01-03-2026 08:00:00,28.594004 ,76.909423 ,PM2.5,59,331,217
India,Delhi,Delhi,"NSUT Jaffarpur, Delhi - DPCC",01-03-2026 08:00:00,28.594004 ,76.909423 ,PM10,74,405,190
India,Delhi,Delhi,"NSUT Jaffarpur, Delhi - DPCC",01-03-2026 08:00:00,28.594004 ,76.909423 ,NO2,2,159,64
India,Delhi,Delhi,"NSUT Jaffarpur, Delhi - DPCC",01-03-2026 08:00:00,28.594004 ,76.909423 ,OZONE,7,130,9
India,Delhi,Delhi,"Najafgarh, Delhi - DPCC",01-03-2026 08:00:00,28.570173,76.933762,PM10,64,241,141
India,Delhi,Delhi,"Najafgarh, Delhi - DPCC",01-03-2026 08:00:00,28.570173,76.933762,NO2,45,153,100
India,Delhi,Delhi,"JNU, Delhi - DPCC",01-03-2026 08:00:00,28.540721 ,77.168544 ,SO2,19,21,20
India,Delhi,Delhi,"Jahangirpuri, Delhi - DPCC",01-03-2026 08:00:00,28.732820,77.170633,PM2.5,75,387,223
India,Delhi,Delhi,"Jawaharlal Nehru Stadium, Delhi - DPCC",01-03-2026 08:00:00,28.580280,77.233829,CO,24,118,83
India,Delhi,Delhi,"Jawaharlal Nehru Stadium, Delhi - DPCC",01-03-2026 08:00:00,28.580280,77.233829,OZONE,1,283,3
India,Gujarat,Vadodara,"Bapunagar, Vadodara - Nexteng Enviro",01-03-2026 08:00:00,22.320153,73.216285,SO2,8,22,15
India,Gujarat,Vadodara,"Bapunagar, Vadodara - Nexteng Enviro",01-03-2026 08:00:00,22.320153,73.216285,OZONE,2,9,3
India,Gujarat,Vapi,"Phase-1 GIDC, Vapi - GPCB",01-03-2026 08:00:00,20.362421,72.918013,PM2.5,31,140,64
India,Gujarat,Vapi,"Phase-1 GIDC, Vapi - GPCB",01-03-2026 08:00:00,20.362421,72.918013,NO2,9,30,26
India,Gujarat,Vapi,"Phase-1 GIDC, Vapi - GPCB",01-03-2026 08:00:00,20.362421,72.918013,SO2,12,16,15
India,Gujarat,Vatva,"Phase-4 GIDC, Vatva - GPCB",01-03-2026 08:00:00,22.969611,72.643500,CO,8,56,22
India,Haryana,Ambala,"Patti Mehar, Ambala - HSPCB",01-03-2026 08:00:00,30.379589,76.778328,PM2.5,48,89,69
India,Haryana,Bahadurgarh,"Arya Nagar, Bahadurgarh - HSPCB",01-03-2026 08:00:00,28.6701,76.9254,NH3,13,13,13
India,Haryana,Ballabgarh,"Nathu Colony, Ballabgarh - HSPCB",01-03-2026 08:00:00,28.3419248,77.319699,PM10,114,419,268
India,Haryana,Ballabgarh,"Nathu Colony, Ballabgarh - HSPCB",01-03-2026 08:00:00,28.3419248,77.319699,SO2,1,6,4
India,Haryana,Faridabad,"Sector 30, Faridabad - HSPCB",01-03-2026 08:00:00,28.4417,77.3217,NH3,11,12,11
India,Haryana,Faridabad,"Sector 30, Faridabad - HSPCB",01-03-2026 08:00:00,28.4417,77.3217,OZONE,6,33,10
India,Haryana,Fatehabad,"Huda Sector, Fatehabad - HSPCB",01-03-2026 08:00:00,29.503664,75.467934,NO2,18,20,19
India,Haryana,Fatehabad,"Huda Sector, Fatehabad - HSPCB",01-03-2026 08:00:00,29.503664,75.467934,NH3,13,15,14
India,Haryana,Gurugram,"NISE Gwal Pahari, Gurugram - IMD",01-03-2026 08:00:00,28.422681,77.148944,PM2.5,33,239,123
India,Haryana,Gurugram,"NISE Gwal Pahari, Gurugram - IMD",01-03-2026 08:00:00,28.422681,77.148944,CO,8,62,44
India,Haryana,Gurugram,"Sector-51, Gurugram - HSPCB",01-03-2026 08:00:00,28.4227,77.0667,NH3,6,10,8
India,Haryana,Gurugram,"Sector-51, Gurugram - HSPCB",01-03-2026 08:00:00,28.4227,77.0667,OZONE,10,45,11
India,Haryana,Gurugram,"Teri Gram, Gurugram - HSPCB",01-03-2026 08:00:00,28.4275,77.1465,NH3,NA,NA,NA
India,Haryana,Gurugram,"Vikas Sadan, Gurugram - HSPCB",01-03-2026 08:00:00,28.4501238,77.0263051,SO2,2,8,5
India,Haryana,Gurugram,"Vikas Sadan, Gurugram - HSPCB",01-03-2026 08:00:00,28.4501238,77.0263051,OZONE,4,22,11
India,Haryana,Manesar,"Sector-2 IMT, Manesar - HSPCB",01-03-2026 08:00:00,28.360699,76.936090,SO2,2,11,7
India,Haryana,Narnaul,"Shastri Nagar, Narnaul - HSPCB",01-03-2026 08:00:00,28.060249,76.113115,PM10,36,101,73
India,Haryana,Narnaul,"Shastri Nagar, Narnaul - HSPCB",01-03-2026 08:00:00,28.060249,76.113115,SO2,5,6,5
India,Haryana,Palwal,"Shyam Nagar, Palwal - HSPCB",01-03-2026 08:00:00,28.1485564,77.3320667,PM10,34,69,45
India,Haryana,Palwal,"Shyam Nagar, Palwal - HSPCB",01-03-2026 08:00:00,28.1485564,77.3320667,NO2,23,24,24
India,Haryana,Palwal,"Shyam Nagar, Palwal - HSPCB",01-03-2026 08:00:00,28.1485564,77.3320667,NH3,8,9,9
India,Haryana,Palwal,"Shyam Nagar, Palwal - HSPCB",01-03-2026 08:00:00,28.1485564,77.3320667,CO,16,42,34
India,Haryana,Panchgaon,"Amity University, Panchgaon - IITM",01-03-2026 08:00:00,28.3153,76.9143,CO,1,34,25
India,Haryana,Panchkula,"Sector-6, Panchkula - HSPCB ",01-03-2026 08:00:00,30.7057778,76.8531805555555,PM2.5,NA,NA,NA
India,Haryana,Sirsa,"F-Block, Sirsa - HSPCB",01-03-2026 08:00:00,29.536400,75.015800,NH3,13,17,14
India,Gujarat,Ahmedabad,"SAC ISRO Satellite, Ahmedabad - IITM",01-03-2026 08:00:00,23.023389,72.515201,SO2,6,75,29
India,Gujarat,Ahmedabad,"SVPI Airport Hansol, Ahmedabad - IITM",01-03-2026 08:00:00,23.076793,72.627874,NH3,1,5,2
India,Gujarat,Ahmedabad,"SVPI Airport Hansol, Ahmedabad - IITM",01-03-2026 08:00:00,23.076793,72.627874,SO2,8,29,14
India,Gujarat,Ankleshwar,"GIDC, Ankleshwar - GPCB",01-03-2026 08:00:00,21.613267,73.010555,NO2,NA,NA,NA
India,Gujarat,Ankleshwar,"GIDC, Ankleshwar - GPCB",01-03-2026 08:00:00,21.613267,73.010555,CO,NA,NA,NA
India,Gujarat,Bhavnagar,"Vidhyanagar, Bhavnagar - Nexteng Enviro",01-03-2026 08:00:00,21.755417,72.139056,NO2,86,92,89
India,Gujarat,Bhavnagar,"Vidhyanagar, Bhavnagar - Nexteng Enviro",01-03-2026 08:00:00,21.755417,72.139056,CO,90,101,96
India,Gujarat,Gandhinagar,"GIFT City, Gandhinagar - IITM",01-03-2026 08:00:00,23.163798,72.677768,SO2,6,12,8
India,Gujarat,Gandhinagar,"IIPHG Lekawada, Gandhinagar - IITM",01-03-2026 08:00:00,23.243639,72.68994,PM2.5,39,98,67
India,Gujarat,Gandhinagar,"IIPHG Lekawada, Gandhinagar - IITM",01-03-2026 08:00:00,23.243639,72.68994,CO,1,50,14
India,Delhi,Delhi,"Sirifort, Delhi - CPCB",01-03-2026 08:00:00,28.5504249,77.2159377,CO,17,108,71
India,Delhi,Delhi,"Sonia Vihar, Delhi - DPCC",01-03-2026 08:00:00,28.710508,77.249485,PM10,115,371,186
India,Delhi,Delhi,"Sonia Vihar, Delhi - DPCC",01-03-2026 08:00:00,28.710508,77.249485,SO2,33,75,47
India,Delhi,Delhi,"Sri Aurobindo Marg, Delhi - DPCC",01-03-2026 08:00:00,28.531346,77.190156,OZONE,1,89,4
India,Delhi,Delhi,"Vivek Vihar, Delhi - DPCC",01-03-2026 08:00:00,28.672342,77.315260,PM10,134,259,172
India,Delhi,Delhi,"Vivek Vihar, Delhi - DPCC",01-03-2026 08:00:00,28.672342,77.315260,NO2,30,110,61
India,Delhi,Delhi,"Vivek Vihar, Delhi - DPCC",01-03-2026 08:00:00,28.672342,77.315260,SO2,12,38,21
India,Delhi,Delhi,"Wazirpur, Delhi - DPCC",01-03-2026 08:00:00,28.699793,77.165453,CO,15,111,55
India,Delhi,Delhi,"Wazirpur, Delhi - DPCC",01-03-2026 08:00:00,28.699793,77.165453,OZONE,7,46,20
India,Haryana,Bhiwani,"H.B. Colony, Bhiwani - HSPCB",01-03-2026 08:00:00,28.806223,76.141105,PM2.5,49,353,106
India,Haryana,Bhiwani,"H.B. Colony, Bhiwani - HSPCB",01-03-2026 08:00:00,28.806223,76.141105,PM10,42,221,79
India,Haryana,Bhiwani,"H.B. Colony, Bhiwani - HSPCB",01-03-2026 08:00:00,28.806223,76.141105,SO2,1,9,5
India,Haryana,Charkhi Dadri,"Mini Secretariat, Charkhi Dadri - HSPCB",01-03-2026 08:00:00,28.593883,76.270653,NO2,9,22,15
India,Haryana,Dharuhera,"Municipal Corporation Office, Dharuhera -  HSPCB",01-03-2026 08:00:00,28.206800,76.799700,CO,54,103,90
India,Haryana,Faridabad,"New Industrial Town, Faridabad - HSPCB",01-03-2026 08:00:00,28.39072,77.30059,PM10,129,138,133
India,Haryana,Faridabad,"Sector 30, Faridabad - HSPCB",01-03-2026 08:00:00,28.4417,77.3217,PM2.5,93,127,100
India,Haryana,Jind,"Police Lines, Jind - HSPCB",01-03-2026 08:00:00,29.307814,76.337619,NH3,1,3,2
India,Haryana,Karnal,"Sector-12, Karnal - HSPCB",01-03-2026 08:00:00,29.695300,77.002700,NO2,6,7,6
India,Haryana,Karnal,"Sector-12, Karnal - HSPCB",01-03-2026 08:00:00,29.695300,77.002700,SO2,1,7,4
India,Haryana,Kurukshetra,"Sector-7, Kurukshetra - HSPCB",01-03-2026 08:00:00,29.966942,76.875879,PM10,137,172,151
India,Haryana,Kurukshetra,"Sector-7, Kurukshetra - HSPCB",01-03-2026 08:00:00,29.966942,76.875879,CO,12,42,35
India,Haryana,Mandikhera,"General Hospital, Mandikhera(Nuh) - HSPCB",01-03-2026 08:00:00,27.9002,76.9938,CO,28,90,76
India,Haryana,Manesar,"Sector-2 IMT, Manesar - HSPCB",01-03-2026 08:00:00,28.360699,76.936090,PM2.5,47,360,193
India,Gujarat,Ahmedabad,"Chandkheda, Ahmedabad - IITM",01-03-2026 08:00:00,23.107969,72.574648,CO,20,50,24
India,Gujarat,Ahmedabad,"Chandkheda, Ahmedabad - IITM",01-03-2026 08:00:00,23.107969,72.574648,OZONE,1,42,14
India,Gujarat,Ahmedabad,"Gyaspur, Ahmedabad - IITM",01-03-2026 08:00:00,22.977134,72.553024,PM2.5,55,169,90
India,Gujarat,Ahmedabad,"Gyaspur, Ahmedabad - IITM",01-03-2026 08:00:00,22.977134,72.553024,SO2,5,108,47
India,Gujarat,Ahmedabad,"Gyaspur, Ahmedabad - IITM",01-03-2026 08:00:00,22.977134,72.553024,OZONE,1,32,1
India,Gujarat,Ahmedabad,"Rakhial, Ahmedabad - IITM",01-03-2026 08:00:00,23.016834,72.625775,OZONE,1,53,4
India,Gujarat,Ahmedabad,"SAC ISRO Bopal, Ahmedabad - IITM",01-03-2026 08:00:00,23.041137,72.456691,SO2,6,17,11
India,Gujarat,Ahmedabad,"SAC ISRO Bopal, Ahmedabad - IITM",01-03-2026 08:00:00,23.041137,72.456691,CO,8,44,27
India,Gujarat,Gandhinagar,"Sector-10, Gandhinagar - GPCB",01-03-2026 08:00:00,23.221714,72.654328,OZONE,2,18,6
India,Gujarat,Mehsana,"Sadanand Nagar, Mehsana - Nexteng Enviro",01-03-2026 08:00:00,23.593150,72.372792,NO2,21,38,29
India,Gujarat,Surat,"Katargam, Surat - Nexteng Enviro",01-03-2026 08:00:00,21.217779 ,72.834787 ,NO2,8,48,20
India,Gujarat,Surat,"Katargam, Surat - Nexteng Enviro",01-03-2026 08:00:00,21.217779 ,72.834787 ,CO,94,104,97
India,Kerala,Kollam,"Polayathode, Kollam - Kerala PCB",01-03-2026 08:00:00,8.8787,76.6073,CO,NA,NA,NA
India,Kerala,Thiruvananthapuram,"Kariavattom, Thiruvananthapuram - Kerala PCB",01-03-2026 08:00:00,8.563700,76.886500,PM2.5,48,56,51
India,Kerala,Thiruvananthapuram,"Kariavattom, Thiruvananthapuram - Kerala PCB",01-03-2026 08:00:00,8.563700,76.886500,NO2,6,7,6
India,Kerala,Thiruvananthapuram,"Kariavattom, Thiruvananthapuram - Kerala PCB",01-03-2026 08:00:00,8.563700,76.886500,CO,20,24,21
India,Kerala,Thiruvananthapuram,"Plammoodu, Thiruvananthapuram - Kerala PCB",01-03-2026 08:00:00,8.5149093,76.9435879,PM2.5,18,49,29
India,Kerala,Thrissur,"Corporation Ground, Thrissur - Kerala PCB",01-03-2026 08:00:00,10.532400,76.215900,OZONE,29,30,29
India,Madhya Pradesh,Bhopal,"Idgah Hills, Bhopal - MPPCB",01-03-2026 08:00:00,23.264759,77.381568,PM2.5,30,103,49
India,Madhya Pradesh,Bhopal,"Idgah Hills, Bhopal - MPPCB",01-03-2026 08:00:00,23.264759,77.381568,NO2,16,48,27
India,Madhya Pradesh,Bhopal,"Idgah Hills, Bhopal - MPPCB",01-03-2026 08:00:00,23.264759,77.381568,SO2,10,15,12
India,Madhya Pradesh,Bhopal,"Paryavaran Parisar, Bhopal - MPPCB",01-03-2026 08:00:00,23.210494,77.425409,NH3,4,8,6
India,Madhya Pradesh,Bhopal,"T T Nagar, Bhopal - MPPCB",01-03-2026 08:00:00,23.233584,77.400574,SO2,12,24,17
India,Madhya Pradesh,Jabalpur,"Marhatal, Jabalpur - MPPCB",01-03-2026 08:00:00,23.168606,79.932247,NH3,2,3,3
India,Madhya Pradesh,Jabalpur,"Suhagi, Jabalpur - JMC",01-03-2026 08:00:00,23.218135,79.957770,NO2,14,79,38
India,Madhya Pradesh,Jabalpur,"Suhagi, Jabalpur - JMC",01-03-2026 08:00:00,23.218135,79.957770,NH3,6,8,7
India,Madhya Pradesh,Katni,"Gole Bazar, Katni - MPPCB",01-03-2026 08:00:00,23.50016,80.23284,NO2,19,48,33
India,Madhya Pradesh,Mandideep,"Sector-D Industrial Area, Mandideep - MPPCB",01-03-2026 08:00:00,23.108440,77.511428,PM2.5,47,283,112
India,Madhya Pradesh,Mandideep,"Sector-D Industrial Area, Mandideep - MPPCB",01-03-2026 08:00:00,23.108440,77.511428,NO2,57,169,98
India,Madhya Pradesh,Mandideep,"Sector-D Industrial Area, Mandideep - MPPCB",01-03-2026 08:00:00,23.108440,77.511428,CO,22,66,31
India,Madhya Pradesh,Pithampur,"Sector-2 Industrial Area, Pithampur - MPPCB",01-03-2026 08:00:00,22.624758,75.675238,NH3,8,11,9
India,Madhya Pradesh,Pithampur,"Sector-2 Industrial Area, Pithampur - MPPCB",01-03-2026 08:00:00,22.624758,75.675238,SO2,1,63,36
India,Madhya Pradesh,Ratlam,"Shasthri Nagar, Ratlam - IPCA Lab",01-03-2026 08:00:00,23.331731,75.045981,NO2,11,32,16
India,Madhya Pradesh,Indore,"Chhoti Gwaltoli, Indore - MPPCB",01-03-2026 08:00:00,22.4310,75.5213,PM2.5,16,97,64
India,Madhya Pradesh,Indore,"Chhoti Gwaltoli, Indore - MPPCB",01-03-2026 08:00:00,22.4310,75.5213,SO2,14,23,18
India,Madhya Pradesh,Indore,"Maguda Nagar, Indore - IMC",01-03-2026 08:00:00,22.7524,75.8872,PM10,21,77,45
India,Madhya Pradesh,Indore,"Maguda Nagar, Indore - IMC",01-03-2026 08:00:00,22.7524,75.8872,OZONE,11,16,12
India,Madhya Pradesh,Indore,"Regional Park, Indore - IMC",01-03-2026 08:00:00,22.6780,75.8559,CO,6,24,18
India,Madhya Pradesh,Indore,"Regional Park, Indore - IMC",01-03-2026 08:00:00,22.6780,75.8559,OZONE,4,9,5
India,Madhya Pradesh,Indore,"Residency Area, Indore - IMC",01-03-2026 08:00:00,22.7084,75.8815,NO2,19,30,24
India,Madhya Pradesh,Jabalpur,"Govindh Bhavan Colony, Jabalpur - JMC",01-03-2026 08:00:00,23.163174,79.973061,OZONE,4,126,5
India,Madhya Pradesh,Jabalpur,"Gupteshwar, Jabalpur - JMC",01-03-2026 08:00:00,23.142888,79.916147,PM10,40,114,70
India,Madhya Pradesh,Jabalpur,"Gupteshwar, Jabalpur - JMC",01-03-2026 08:00:00,23.142888,79.916147,NO2,15,82,42
India,Madhya Pradesh,Jabalpur,"Gupteshwar, Jabalpur - JMC",01-03-2026 08:00:00,23.142888,79.916147,OZONE,2,132,11
India,Karnataka,Bengaluru,"RVCE-Mailasandra, Bengaluru - KSPCB",01-03-2026 08:00:00,12.921418,77.502466,NO2,24,31,31
India,Karnataka,Bengaluru,"Sanegurava Halli, Bengaluru - KSPCB",01-03-2026 08:00:00,12.990328,77.5431385,PM10,55,68,59
India,Karnataka,Bengaluru,"Shivapura_Peenya, Bengaluru - KSPCB",01-03-2026 08:00:00,13.0246342,77.5080115,SO2,3,7,4
India,Karnataka,Bengaluru,"Shivapura_Peenya, Bengaluru - KSPCB",01-03-2026 08:00:00,13.0246342,77.5080115,CO,27,60,30
India,Karnataka,Bengaluru,"Silk Board, Bengaluru - KSPCB",01-03-2026 08:00:00,12.917348,77.622813,PM10,105,178,126
India,Karnataka,Bengaluru,"Silk Board, Bengaluru - KSPCB",01-03-2026 08:00:00,12.917348,77.622813,NO2,36,103,56
India,Karnataka,Chamarajanagar,"Urban, Chamarajanagar - KSPCB",01-03-2026 08:00:00,11.55358,76.55521,SO2,4,5,4
India,Karnataka,Chikkaballapur,"Chikkaballapur Rural, Chikkaballapur - KSPCB",01-03-2026 08:00:00,13.428828,77.731418,PM2.5,74,193,131
India,Karnataka,Chikkaballapur,"Chikkaballapur Rural, Chikkaballapur - KSPCB",01-03-2026 08:00:00,13.428828,77.731418,NO2,6,98,54
India,Haryana,Sonipat,"Murthal, Sonipat - HSPCB",01-03-2026 08:00:00,29.027200,77.062100,SO2,NA,NA,NA
India,Haryana,Yamuna Nagar,"Gobind Pura, Yamuna Nagar - HSPCB",01-03-2026 08:00:00,30.1480566,77.2893471,OZONE,8,33,11
India,Himachal Pradesh,Baddi,"HIMUDA Complex Phase-1, Baddi - HPPCB",01-03-2026 08:00:00,30.943887,76.801991,NO2,10,53,30
India,Jammu_and_Kashmir,Srinagar,"Rajbagh, Srinagar - JKPCC",01-03-2026 08:00:00,34.066206,74.819820,PM10,25,52,37
India,Jammu_and_Kashmir,Srinagar,"Rajbagh, Srinagar - JKPCC",01-03-2026 08:00:00,34.066206,74.819820,CO,11,19,14
India,Jharkhand,Dhanbad,"Sardar Patel Nagar, Dhanbad - JSPCB",01-03-2026 08:00:00,23.80569,86.44268,PM2.5,NA,NA,NA
India,Jharkhand,Dhanbad,"Sardar Patel Nagar, Dhanbad - JSPCB",01-03-2026 08:00:00,23.80569,86.44268,PM10,NA,NA,NA
India,Jharkhand,Dhanbad,"Sardar Patel Nagar, Dhanbad - JSPCB",01-03-2026 08:00:00,23.80569,86.44268,SO2,NA,NA,NA
India,Karnataka,Chikkaballapur,"Chikkaballapur Rural, Chikkaballapur - KSPCB",01-03-2026 08:00:00,13.428828,77.731418,OZONE,20,24,23
India,Karnataka,Chikkamagaluru,"Kalyana Nagara, Chikkamagaluru - KSPCB",01-03-2026 08:00:00,13.328028,75.797056,NO2,NA,NA,NA
India,Karnataka,Chikkamagaluru,"Kalyana Nagara, Chikkamagaluru - KSPCB",01-03-2026 08:00:00,13.328028,75.797056,SO2,NA,NA,NA
India,Karnataka,Chikkamagaluru,"Kalyana Nagara, Chikkamagaluru - KSPCB",01-03-2026 08:00:00,13.328028,75.797056,CO,NA,NA,NA
India,Karnataka,Dharwad,"Kalabhavan, Dharwad - KSPCB",01-03-2026 08:00:00,15.459706,75.008381,PM10,77,89,81
India,Karnataka,Dharwad,"Kalabhavan, Dharwad - KSPCB",01-03-2026 08:00:00,15.459706,75.008381,NH3,6,6,6
India,Karnataka,Dharwad,"Kalabhavan, Dharwad - KSPCB",01-03-2026 08:00:00,15.459706,75.008381,SO2,8,10,9
India,Karnataka,Hubballi,"Lingaraj Nagar, Hubballi - KSPCB",01-03-2026 08:00:00,15.3714823,75.1160168,NH3,1,1,1
India,Karnataka,Hubballi,"Lingaraj Nagar, Hubballi - KSPCB",01-03-2026 08:00:00,15.3714823,75.1160168,CO,17,26,20
India,Madhya Pradesh,Dewas,"Bhopal Chauraha, Dewas - MPPCB",01-03-2026 08:00:00,22.9682591,76.064118,CO,16,44,30
India,Madhya Pradesh,Dewas,"Bhopal Chauraha, Dewas - MPPCB",01-03-2026 08:00:00,22.9682591,76.064118,OZONE,15,75,19
India,Madhya Pradesh,Gwalior,"Deen Dayal Nagar, Gwalior - MPPCB",01-03-2026 08:00:00,26.259242,78.216432,PM2.5,NA,NA,NA
India,Madhya Pradesh,Gwalior,"Deen Dayal Nagar, Gwalior - MPPCB",01-03-2026 08:00:00,26.259242,78.216432,NO2,11,18,14
India,Madhya Pradesh,Gwalior,"Maharaj Bada, Gwalior - MPPCB",01-03-2026 08:00:00,26.200388,78.147714,CO,3,117,10
India,Madhya Pradesh,Indore,"Airport Area, Indore - IMC",01-03-2026 08:00:00,22.7289,75.8076,PM10,31,73,53
India,Madhya Pradesh,Indore,"Airport Area, Indore - IMC",01-03-2026 08:00:00,22.7289,75.8076,SO2,2,4,3
India,Karnataka,Ramanagara,"Vijay Nagar, Ramanagara - KSPCB",01-03-2026 08:00:00,12.733409,77.298051,NO2,11,80,52
India,Karnataka,Vijayapura,"Ibrahimpur, Vijayapura - KSPCB",01-03-2026 08:00:00,16.802639,75.722694,NO2,11,12,11
India,Karnataka,Yadgir,"Collector Office, Yadgir - KSPCB",01-03-2026 08:00:00,16.7602,77.1428,NO2,8,20,13
India,Kerala,Kannur,"Thavakkara, Kannur - Kerala PCB",01-03-2026 08:00:00,11.875000,75.373200,NH3,2,2,2
India,Kerala,Kollam,"Polayathode, Kollam - Kerala PCB",01-03-2026 08:00:00,8.8787,76.6073,PM10,NA,NA,NA
India,Kerala,Kollam,"Polayathode, Kollam - Kerala PCB",01-03-2026 08:00:00,8.8787,76.6073,NO2,NA,NA,NA
India,Karnataka,Bengaluru,"Bapuji Nagar, Bengaluru - KSPCB",01-03-2026 08:00:00,12.951913,77.539784,OZONE,101,303,161
India,Karnataka,Bengaluru,"Hebbal, Bengaluru - KSPCB",01-03-2026 08:00:00,13.029152,77.585901,CO,16,76,20
India,Karnataka,Bengaluru,"Hombegowda Nagar, Bengaluru - KSPCB",01-03-2026 08:00:00,12.938539,77.590100,PM10,83,170,129
India,Karnataka,Bengaluru,"Hombegowda Nagar, Bengaluru - KSPCB",01-03-2026 08:00:00,12.938539,77.590100,OZONE,26,99,46
India,Karnataka,Bengaluru,"Jayanagar 5th Block, Bengaluru - KSPCB",01-03-2026 08:00:00,12.920984,77.584908,NH3,2,3,3
India,Maharashtra,Kalyan,"Pimpleshwar Mandir, Kalyan - MPCB",01-03-2026 08:00:00,19.192056,72.9585188,NH3,2,4,3
India,Maharashtra,Kalyan,"Pimpleshwar Mandir, Kalyan - MPCB",01-03-2026 08:00:00,19.192056,72.9585188,CO,23,48,40
India,Maharashtra,Kolhapur,"Shivaji University, Kolhapur - MPCB",01-03-2026 08:00:00,16.6870449,74.2505872,PM2.5,12,50,26
India,Maharashtra,Kolhapur,"Shivaji University, Kolhapur - MPCB",01-03-2026 08:00:00,16.6870449,74.2505872,NH3,4,4,4
India,Maharashtra,Kolhapur,"Sinchan Bhavan, Kolhapur - MPCB",01-03-2026 08:00:00,16.7143745,74.2426398,CO,10,12,11
India,Maharashtra,Latur,"Sawe Wadi, Latur - MPCB",01-03-2026 08:00:00,18.39963,76.57452,PM10,29,116,62
India,Maharashtra,Mahad,"Kamble Tarf Birwadi, Mahad - MPCB",01-03-2026 08:00:00,18.1023399,73.4783687,PM2.5,30,96,48
India,Maharashtra,Mahad,"Kamble Tarf Birwadi, Mahad - MPCB",01-03-2026 08:00:00,18.1023399,73.4783687,OZONE,29,75,35
India,Maharashtra,Malegaon,"Mahesh Nagar, Malegaon - MPCB",01-03-2026 08:00:00,20.555712,74.529236,PM2.5,54,99,76
India,Maharashtra,Malegaon,"Mahesh Nagar, Malegaon - MPCB",01-03-2026 08:00:00,20.555712,74.529236,NO2,15,19,17
India,Maharashtra,Aurangabad,"More Chowk Waluj, Aurangabad - MPCB",01-03-2026 08:00:00,19.8389439,75.244448,OZONE,7,72,32
India,Maharashtra,Aurangabad,"Rachnakar Colony, Aurangabad - MPCB",01-03-2026 08:00:00,19.863756,75.321188,SO2,3,29,20
India,Maharashtra,Badlapur,"Katrap, Badlapur - MPCB",01-03-2026 08:00:00,19.16485,73.23409,PM10,52,159,96
India,Maharashtra,Belapur,"CBD Belapur, Belapur - MPCB",01-03-2026 08:00:00,19.0243902,73.0406721,PM2.5,6,47,19
India,Maharashtra,Bhiwandi,"Gokul Nagar, Bhiwandi - MPCB",01-03-2026 08:00:00,19.309073,73.057223,PM2.5,26,117,58
India,Maharashtra,Bhiwandi,"Gokul Nagar, Bhiwandi - MPCB",01-03-2026 08:00:00,19.309073,73.057223,NH3,3,7,5
India,Maharashtra,Bhiwandi,"Gokul Nagar, Bhiwandi - MPCB",01-03-2026 08:00:00,19.309073,73.057223,SO2,5,15,10
India,Maharashtra,Boisar,"Khaira, Boisar - MPCB",01-03-2026 08:00:00,19.786089,72.757971,NH3,4,12,8
India,Maharashtra,Mumbai,"Kandivali East, Mumbai - MPCB",01-03-2026 08:00:00,19.205800,72.868200,SO2,24,27,26
India,Maharashtra,Mumbai,"Kandivali East, Mumbai - MPCB",01-03-2026 08:00:00,19.205800,72.868200,CO,21,22,22
India,Maharashtra,Mumbai,"Kandivali West, Mumbai - BMC",01-03-2026 08:00:00,19.215859,72.831718,NO2,2,38,8
India,Maharashtra,Mumbai,"Kandivali West, Mumbai - BMC",01-03-2026 08:00:00,19.215859,72.831718,SO2,1,6,3
India,Maharashtra,Mumbai,"Kherwadi_Bandra East, Mumbai - MPCB",01-03-2026 08:00:00,19.0632143,72.8456324,OZONE,NA,NA,NA
India,Maharashtra,Mumbai,"Khindipada-Bhandup West, Mumbai - IITM",01-03-2026 08:00:00,19.1653323,72.922099,CO,1,40,14
India,Maharashtra,Mumbai,"Khindipada-Bhandup West, Mumbai - IITM",01-03-2026 08:00:00,19.1653323,72.922099,OZONE,6,78,18
India,Maharashtra,Mumbai,"Kurla, Mumbai - MPCB",01-03-2026 08:00:00,19.0863,72.8888,SO2,NA,NA,NA
India,Maharashtra,Mumbai,"Kurla, Mumbai - MPCB",01-03-2026 08:00:00,19.0863,72.8888,OZONE,NA,NA,NA
India,Maharashtra,Ahmednagar,"Tarakpur, Ahmednagar - MPCB",01-03-2026 08:00:00,19.10122,74.73339,NH3,5,6,6
India,Maharashtra,Akola,"Ramdaspeth, Akola - MPCB",01-03-2026 08:00:00,20.719516,77.000253,SO2,11,22,16
India,Maharashtra,Amravati,"Shivneri Colony, Amravati - MPCB",01-03-2026 08:00:00,20.9402359,77.7895248,NH3,4,5,4
India,Maharashtra,Aurangabad,"MIDC Chilkalthana, Aurangabad - MPCB",01-03-2026 08:00:00,19.875620,75.387310,NO2,16,99,38
India,Maharashtra,Aurangabad,"More Chowk Waluj, Aurangabad - MPCB",01-03-2026 08:00:00,19.8389439,75.244448,PM2.5,13,75,41
India,Madhya Pradesh,Sagar,"Civil Lines, Sagar - MPPCB",01-03-2026 08:00:00,23.838586,78.759431,CO,6,57,18
India,Madhya Pradesh,Satna,"Bandhavgar Colony, Satna - Birla Cement",01-03-2026 08:00:00,24.58434363,80.8549414,CO,20,64,32
India,Madhya Pradesh,Singrauli,"Suryakiran Bhawan NCL, Singrauli - MPPCB",01-03-2026 08:00:00,24.108970,82.645580,PM10,90,329,181
India,Madhya Pradesh,Ujjain,"Mahashweta Nagar, Ujjain - MPPCB",01-03-2026 08:00:00,23.1633321,75.800225,PM10,39,109,74
India,Madhya Pradesh,Ujjain,"Mahashweta Nagar, Ujjain - MPPCB",01-03-2026 08:00:00,23.1633321,75.800225,SO2,1,8,3
India,Maharashtra,Chandrapur,"MIDC Khutala, Chandrapur - MPCB",01-03-2026 08:00:00,19.9775302,79.2337086,OZONE,2,144,12
India,Maharashtra,Dhule,"Deopur, Dhule - MPCB",01-03-2026 08:00:00,20.918946,74.776388,CO,1,22,18
India,Maharashtra,Jalna,"Old MIDC, Jalna - MPCB",01-03-2026 08:00:00,19.854616,75.905894,PM10,26,90,47
India,Maharashtra,Jalna,"Old MIDC, Jalna - MPCB",01-03-2026 08:00:00,19.854616,75.905894,SO2,12,18,14
India,Maharashtra,Kalyan,"Khadakpada, Kalyan - MPCB",01-03-2026 08:00:00,19.25292,73.142019,PM10,17,73,38
India,Maharashtra,Kalyan,"Khadakpada, Kalyan - MPCB",01-03-2026 08:00:00,19.25292,73.142019,NO2,37,37,37
India,Maharashtra,Mumbai,"Byculla, Mumbai - BMC",01-03-2026 08:00:00,18.9767,72.8380,NH3,4,40,19
India,Maharashtra,Mumbai,"Byculla, Mumbai - BMC",01-03-2026 08:00:00,18.9767,72.8380,OZONE,NA,NA,NA
India,Maharashtra,Mumbai,"Chakala-Andheri East, Mumbai - IITM",01-03-2026 08:00:00,19.11074,72.86084,NO2,41,106,77
India,Maharashtra,Mumbai,"Chakala-Andheri East, Mumbai - IITM",01-03-2026 08:00:00,19.11074,72.86084,SO2,1,15,6
India,Maharashtra,Mumbai,"Chembur, Mumbai - MPCB",01-03-2026 08:00:00,19.0364585,72.8954371,PM2.5,15,45,28
India,Maharashtra,Mumbai,"Chembur, Mumbai - MPCB",01-03-2026 08:00:00,19.0364585,72.8954371,PM10,42,94,58
India,Maharashtra,Mumbai,"Chembur, Mumbai - MPCB",01-03-2026 08:00:00,19.0364585,72.8954371,SO2,1,13,4
India,Maharashtra,Mira-Bhayandar,"Bhayandar West, Mira-Bhayandar - MPCB",01-03-2026 08:00:00,19.296481,72.840923,SO2,12,17,14
India,Maharashtra,Mira-Bhayandar,"Bhayandar West, Mira-Bhayandar - MPCB",01-03-2026 08:00:00,19.296481,72.840923,CO,14,70,41
India,Maharashtra,Mumbai,"Bandra Kurla Complex, Mumbai - MPCB",01-03-2026 08:00:00,19.065931,72.862131,PM2.5,21,73,46
India,Maharashtra,Mumbai,"Bandra Kurla Complex, Mumbai - MPCB",01-03-2026 08:00:00,19.065931,72.862131,NO2,13,54,34
India,Maharashtra,Mumbai,"Bandra Kurla Complex, Mumbai - MPCB",01-03-2026 08:00:00,19.065931,72.862131,NH3,10,10,10
India,Maharashtra,Mumbai,"Borivali East, Mumbai - MPCB",01-03-2026 08:00:00,19.2243333,72.8658113,CO,16,20,18
India,Maharashtra,Mumbai,"Mazgaon, Mumbai - IITM",01-03-2026 08:00:00,18.96702,72.84214,PM2.5,8,78,40
India,Maharashtra,Mumbai,"Mazgaon, Mumbai - IITM",01-03-2026 08:00:00,18.96702,72.84214,PM10,39,114,77
India,Maharashtra,Mumbai,"Mazgaon, Mumbai - IITM",01-03-2026 08:00:00,18.96702,72.84214,SO2,18,22,21
India,Maharashtra,Mumbai,"Mazgaon, Mumbai - IITM",01-03-2026 08:00:00,18.96702,72.84214,CO,18,68,60
India,Maharashtra,Mumbai,"Navy Nagar-Colaba, Mumbai - IITM",01-03-2026 08:00:00,18.897756,72.813320,PM10,38,72,54
India,Maharashtra,Mumbai,"Sewri, Mumbai - BMC",01-03-2026 08:00:00,19.000084,72.856730,NH3,1,34,12
India,Odisha,Baripada,"Meher Colony, Baripada - OSPCB",01-03-2026 08:00:00,21.941841,86.728318,NH3,4,6,5
India,Odisha,Baripada,"Meher Colony, Baripada - OSPCB",01-03-2026 08:00:00,21.941841,86.728318,CO,40,64,46
India,Odisha,Bhubaneswar,"Lingraj Mandir, Bhubaneswar - OSPCB",01-03-2026 08:00:00,20.240790,85.836784,NH3,8,15,11
India,Odisha,Bhubaneswar,"Lingraj Mandir, Bhubaneswar - OSPCB",01-03-2026 08:00:00,20.240790,85.836784,SO2,4,34,13
India,Odisha,Bhubaneswar,"Lingraj Mandir, Bhubaneswar - OSPCB",01-03-2026 08:00:00,20.240790,85.836784,OZONE,18,188,24
India,Odisha,Bhubaneswar,"Patia, Bhubaneswar - OSPCB",01-03-2026 08:00:00,20.34652,85.81630,PM10,71,191,108
India,Odisha,Bhubaneswar,"Patia, Bhubaneswar - OSPCB",01-03-2026 08:00:00,20.34652,85.81630,SO2,5,66,15
India,Odisha,Bhubaneswar,"Patia, Bhubaneswar - OSPCB",01-03-2026 08:00:00,20.34652,85.81630,OZONE,17,157,22
India,Odisha,Bileipada,"Tata Township, Bileipada - OSPCB",01-03-2026 08:00:00,22.06156703,85.47409613,CO,16,46,39
India,Odisha,Bileipada,"Tata Township, Bileipada - OSPCB",01-03-2026 08:00:00,22.06156703,85.47409613,OZONE,4,19,13
India,Odisha,Brajrajnagar,"GM Office, Brajrajnagar - OSPCB",01-03-2026 08:00:00,21.8004996,83.8396977,PM2.5,49,276,122
India,Odisha,Brajrajnagar,"GM Office, Brajrajnagar - OSPCB",01-03-2026 08:00:00,21.8004996,83.8396977,NO2,9,22,17
India,Odisha,Brajrajnagar,"GM Office, Brajrajnagar - OSPCB",01-03-2026 08:00:00,21.8004996,83.8396977,CO,12,60,15
India,Odisha,Byasanagar,"Ferro Chrome Colony, Byasanagar - OSPCB",01-03-2026 08:00:00,20.94185,86.11510,OZONE,8,212,22
India,Maharashtra,Pune,"Mhada Colony, Pune - IITM",01-03-2026 08:00:00,18.573040,73.927715,CO,18,68,60
India,Maharashtra,Pune,"Panchawati_Pashan, Pune - IITM",01-03-2026 08:00:00,18.536457,73.805454,PM2.5,7,62,33
India,Maharashtra,Pune,"Panchawati_Pashan, Pune - IITM",01-03-2026 08:00:00,18.536457,73.805454,CO,13,34,29
India,Maharashtra,Pune,"Revenue Colony-Shivajinagar, Pune - IITM",01-03-2026 08:00:00,18.530085,73.849598,PM10,31,60,46
India,Maharashtra,Pune,"Savitribai Phule Pune University, Pune - MPCB",01-03-2026 08:00:00,18.547056,73.826908,PM2.5,13,40,26
India,Maharashtra,Pune,"Savitribai Phule Pune University, Pune - MPCB",01-03-2026 08:00:00,18.547056,73.826908,OZONE,4,51,8
India,Maharashtra,Sangli,"Vijay Nagar, Sangli - MPCB",01-03-2026 08:00:00, 16.5038,74.3623,PM10,30,94,45
India,Maharashtra,Sangli,"Vijay Nagar, Sangli - MPCB",01-03-2026 08:00:00, 16.5038,74.3623,NO2,NA,NA,NA
India,Maharashtra,Sangli,"Vijay Nagar, Sangli - MPCB",01-03-2026 08:00:00, 16.5038,74.3623,CO,12,54,21
India,Maharashtra,Solapur,"Dnyaneshwar Nagar, Solapur - MPCB",01-03-2026 08:00:00,17.6336264,75.9132495,OZONE,1,80,29
India,Maharashtra,Nashik,"Hirawadi, Nashik - MPCB",01-03-2026 08:00:00,20.021503,73.813844,NH3,2,3,2
India,Maharashtra,Nashik,"Pandav Nagari, Nashik - MPCB",01-03-2026 08:00:00,19.9591346,73.7788008,PM2.5,17,51,34
India,Maharashtra,Navi Mumbai,"Kopripada-Vashi, Navi Mumbai - MPCB",01-03-2026 08:00:00,19.090337,73.014232,PM10,87,130,107
India,Maharashtra,Navi Mumbai,"Kopripada-Vashi, Navi Mumbai - MPCB",01-03-2026 08:00:00,19.090337,73.014232,NO2,10,78,28
India,Maharashtra,Navi Mumbai,"Kopripada-Vashi, Navi Mumbai - MPCB",01-03-2026 08:00:00,19.090337,73.014232,CO,6,30,20
India,Maharashtra,Navi Mumbai,"Mahape, Navi Mumbai - MPCB",01-03-2026 08:00:00,19.1135051,73.008978,PM2.5,34,135,75
India,Maharashtra,Navi Mumbai,"Mahape, Navi Mumbai - MPCB",01-03-2026 08:00:00,19.1135051,73.008978,NH3,1,2,1
India,Maharashtra,Navi Mumbai,"Nerul, Navi Mumbai - MPCB",01-03-2026 08:00:00,19.008751,73.016620,OZONE,NA,NA,NA
India,Maharashtra,Navi Mumbai,"Sanpada, Navi Mumbai - MPCB",01-03-2026 08:00:00,19.0575752,73.0151367,PM10,60,162,115
India,Maharashtra,Navi Mumbai,"Sanpada, Navi Mumbai - MPCB",01-03-2026 08:00:00,19.0575752,73.0151367,CO,20,101,75
India,Maharashtra,Navi Mumbai,"Sector-2E Kalamboli, Navi Mumbai - MPCB",01-03-2026 08:00:00,19.02579,73.10297,PM2.5,20,74,39
India,Maharashtra,Navi Mumbai,"Sector-2E Kalamboli, Navi Mumbai - MPCB",01-03-2026 08:00:00,19.02579,73.10297,NO2,8,32,18
India,Maharashtra,Navi Mumbai,"Sector-2E Kalamboli, Navi Mumbai - MPCB",01-03-2026 08:00:00,19.02579,73.10297,CO,8,48,36
India,Maharashtra,Parbhani,"Masoom Colony, Parbhani - MPCB",01-03-2026 08:00:00,19.265594,76.761463,NH3,3,5,4
India,Maharashtra,Parbhani,"Masoom Colony, Parbhani - MPCB",01-03-2026 08:00:00,19.265594,76.761463,SO2,8,21,14
India,Maharashtra,Pimpri-Chinchwad,"Gavalinagar, Pimpri Chinchwad - MPCB",01-03-2026 08:00:00,18.63673,73.82487,OZONE,32,32,32
India,Maharashtra,Solapur,"Ratandeep Housing Society, Solapur - MPCB",01-03-2026 08:00:00,17.65439,75.90649,NH3,3,45,9
India,Maharashtra,Thane,"Upvan Fort, Thane - MPCB",01-03-2026 08:00:00,19.222279,72.957979,SO2,3,14,7
India,Maharashtra,Ulhasnagar,"Sidhi Vinayak Nagar, Ulhasnagar - MPCB",01-03-2026 08:00:00,19.235581,73.159121,NH3,3,6,5
India,Maharashtra,Ulhasnagar,"Sidhi Vinayak Nagar, Ulhasnagar - MPCB",01-03-2026 08:00:00,19.235581,73.159121,CO,8,42,31
India,Meghalaya,Shillong,"JN Stadium, Shillong - Meghalaya PCB",01-03-2026 08:00:00,25.5803419,91.8942571,PM2.5,NA,NA,NA
India,Meghalaya,Shillong,"JN Stadium, Shillong - Meghalaya PCB",01-03-2026 08:00:00,25.5803419,91.8942571,NH3,22,33,27
India,Meghalaya,Shillong,"JN Stadium, Shillong - Meghalaya PCB",01-03-2026 08:00:00,25.5803419,91.8942571,CO,16,32,19
India,Maharashtra,Pimpri-Chinchwad,"Park Street Wakad, Pimpri Chinchwad - MPCB",01-03-2026 08:00:00,18.59051,73.77946,OZONE,8,94,15
India,Maharashtra,Pimpri-Chinchwad,"Thergaon, Pimpri Chinchwad - MPCB",01-03-2026 08:00:00,18.616318,73.765797,NH3,6,8,7
India,Maharashtra,Pimpri-Chinchwad,"Thergaon, Pimpri Chinchwad - MPCB",01-03-2026 08:00:00,18.616318,73.765797,CO,1,56,32
India,Maharashtra,Pune,"Bhosari, Pune - IITM",01-03-2026 08:00:00,18.640051,73.848956,NO2,8,14,11
India,Maharashtra,Pune,"Dhankawadi, Pune - IITM",01-03-2026 08:00:00,18.459883,73.852193,PM2.5,7,57,34
India,Maharashtra,Pune,"Dhankawadi, Pune - IITM",01-03-2026 08:00:00,18.459883,73.852193,NO2,21,84,32
India,Maharashtra,Pune,"Hadapsar, Pune - IITM",01-03-2026 08:00:00,18.501793,73.927532,PM2.5,13,87,53
India,Maharashtra,Mumbai,"Shivaji Nagar, Mumbai - BMC",01-03-2026 08:00:00,19.060498,72.923356,NH3,2,16,5
India,Maharashtra,Mumbai,"Shivaji Nagar, Mumbai - BMC",01-03-2026 08:00:00,19.060498,72.923356,SO2,1,12,7
India,Maharashtra,Mumbai,"Siddharth Nagar-Worli, Mumbai - IITM",01-03-2026 08:00:00,19.000083,72.813993,PM10,35,103,64
India,Maharashtra,Mumbai,"Sion, Mumbai - MPCB",01-03-2026 08:00:00,19.047000,72.874600,PM2.5,7,47,24
India,Maharashtra,Mumbai,"Sion, Mumbai - MPCB",01-03-2026 08:00:00,19.047000,72.874600,PM10,11,70,35
India,Maharashtra,Mumbai,"Worli, Mumbai -MPCB",01-03-2026 08:00:00,18.9942180,72.8158167,CO,2,46,36
India,Mizoram,Aizawl,"Sikulpuikawn, Aizawl - Mizoram PCB",01-03-2026 08:00:00,23.7176342,92.7192841,SO2,17,18,17
India,Odisha,Angul,"Hakimapada, Angul - OSPCB",01-03-2026 08:00:00,20.832874,85.104082,NO2,17,50,35
India,Odisha,Balasore,"Kalidaspur, Balasore - OSPCB",01-03-2026 08:00:00,21.51161,86.89088,SO2,9,26,17
India,Odisha,Barbil,"Forest Office, Barbil - OSPCB",01-03-2026 08:00:00,22.1166054,85.3945546,NH3,1,3,2
India,Maharashtra,Nagpur,"Ram Nagar, Nagpur - MPCB",01-03-2026 08:00:00,21.143383,79.048912,PM2.5,90,173,141
India,Maharashtra,Nashik,"Gangapur Road, Nashik - MPCB",01-03-2026 08:00:00,20.0073285,73.7762427,PM10,32,126,85
India,Maharashtra,Nashik,"Gangapur Road, Nashik - MPCB",01-03-2026 08:00:00,20.0073285,73.7762427,NO2,5,5,5
India,Rajasthan,Hanumangarh,"Housing Board, Hanumangarh - RSPCB",01-03-2026 08:00:00,29.610750,74.283608,SO2,4,18,8
India,Rajasthan,Hanumangarh,"Housing Board, Hanumangarh - RSPCB",01-03-2026 08:00:00,29.610750,74.283608,OZONE,12,92,15
India,Rajasthan,Jaipur,"Adarsh Nagar, Jaipur - RSPCB",01-03-2026 08:00:00,26.902909,75.836858,PM10,86,136,107
India,Rajasthan,Jaipur,"Adarsh Nagar, Jaipur - RSPCB",01-03-2026 08:00:00,26.902909,75.836858,SO2,7,42,23
India,Rajasthan,Jaipur,"Mansarovar Sector-12, Jaipur - RSPCB",01-03-2026 08:00:00,26.843698,75.766894,SO2,4,15,10
India,Rajasthan,Jaipur,"Police Commissionerate, Jaipur - RSPCB",01-03-2026 08:00:00,26.9164092,75.7994901,NO2,39,48,40
India,Rajasthan,Jaipur,"RIICO Sitapura, Jaipur - RSPCB",01-03-2026 08:00:00,26.786682,75.827928,PM2.5,38,361,146
India,Rajasthan,Jaipur,"Sector-2 Murlipura, Jaipur - RSPCB",01-03-2026 08:00:00,26.960669,75.771817,CO,1,101,29
India,Rajasthan,Dausa,"Khatikan Mohalla, Dausa - RSPCB",01-03-2026 08:00:00,26.895552,76.334753,PM10,38,186,98
India,Rajasthan,Dausa,"Khatikan Mohalla, Dausa - RSPCB",01-03-2026 08:00:00,26.895552,76.334753,SO2,6,13,7
India,Rajasthan,Dholpur,"Raja Ganj, Dholpur - RSPCB",01-03-2026 08:00:00,26.699557,77.898881,PM10,52,170,102
India,Rajasthan,Dholpur,"Raja Ganj, Dholpur - RSPCB",01-03-2026 08:00:00,26.699557,77.898881,NH3,10,19,13
India,Rajasthan,Dholpur,"Raja Ganj, Dholpur - RSPCB",01-03-2026 08:00:00,26.699557,77.898881,SO2,7,13,11
India,Rajasthan,Dholpur,"Raja Ganj, Dholpur - RSPCB",01-03-2026 08:00:00,26.699557,77.898881,OZONE,7,44,35
India,Rajasthan,Dungarpur,"Bhoiwada, Dungarpur - RSPCB",01-03-2026 08:00:00,23.837789,73.714926,SO2,3,10,7
India,Rajasthan,Dungarpur,"Bhoiwada, Dungarpur - RSPCB",01-03-2026 08:00:00,23.837789,73.714926,OZONE,16,61,25
India,Rajasthan,Hanumangarh,"Housing Board, Hanumangarh - RSPCB",01-03-2026 08:00:00,29.610750,74.283608,PM10,69,188,125
India,Rajasthan,Banswara,"Rati Talai, Banswara - RSPCB",01-03-2026 08:00:00,23.555190,74.440010,PM2.5,35,98,56
India,Rajasthan,Baran,"Bamboliya, Baran - RSPCB",01-03-2026 08:00:00,25.106006,76.469948,OZONE,8,133,24
India,Rajasthan,Barmer,"Railway Colony, Barmer - RSPCB",01-03-2026 08:00:00,25.747299,71.393989,PM10,62,286,97
India,Rajasthan,Barmer,"Railway Colony, Barmer - RSPCB",01-03-2026 08:00:00,25.747299,71.393989,NO2,5,94,17
India,Rajasthan,Barmer,"Railway Colony, Barmer - RSPCB",01-03-2026 08:00:00,25.747299,71.393989,OZONE,11,113,74
India,Rajasthan,Bharatpur,"Krishna Nagar, Bharatpur - RSPCB",01-03-2026 08:00:00,27.215415,77.50873,PM10,53,142,91
India,Rajasthan,Bharatpur,"Krishna Nagar, Bharatpur - RSPCB",01-03-2026 08:00:00,27.215415,77.50873,NH3,10,19,14
India,Odisha,Cuttack,"CDA Area, Cuttack - OSPCB",01-03-2026 08:00:00,20.48891     ,85.84768     ,NO2,18,42,29
India,Odisha,Cuttack,"CDA Area, Cuttack - OSPCB",01-03-2026 08:00:00,20.48891     ,85.84768     ,NH3,3,8,6
India,Odisha,Cuttack,"CDA Area, Cuttack - OSPCB",01-03-2026 08:00:00,20.48891     ,85.84768     ,SO2,2,23,9
India,Odisha,Rairangpur,"Divisional Forest Office, Rairangpur - OSPCB",01-03-2026 08:00:00,22.265816,86.174829,PM10,71,129,97
India,Odisha,Rourkela,"Raghunathpali, Rourkela - OSPCB",01-03-2026 08:00:00,22.220833,84.809444,OZONE,7,18,8
India,Odisha,Suakati,"OMC Colony, Suakati - OSPCB",01-03-2026 08:00:00,21.606865,85.510538,PM10,86,162,104
India,Odisha,Talcher,"Talcher Coalfields,Talcher - OSPCB",01-03-2026 08:00:00,20.9360711,85.1707021,NH3,6,8,6
India,Odisha,Tensa,"Barsua Iron Ore Mines, Tensa - OSPCB",01-03-2026 08:00:00,21.869985,85.167016,PM2.5,27,95,51
India,Odisha,Tensa,"Barsua Iron Ore Mines, Tensa - OSPCB",01-03-2026 08:00:00,21.869985,85.167016,CO,15,76,64
India,Puducherry,Puducherry,"Jawahar Nagar, Puducherry - PPCC",01-03-2026 08:00:00,11.9309,79.8027,PM10,66,138,88
India,Punjab,Jalandhar,"Civil Line, Jalandhar - PPCB",01-03-2026 08:00:00,31.321907,75.578914,PM10,54,90,72
India,Punjab,Khanna,"Kalal Majra, Khanna - PPCB",01-03-2026 08:00:00,30.736056 ,76.209694,PM10,52,128,95
India,Punjab,Ludhiana,"Punjab Agricultural University, Ludhiana - PPCB",01-03-2026 08:00:00,30.9028,75.8086,NH3,7,9,8
India,Punjab,Ludhiana,"Punjab Agricultural University, Ludhiana - PPCB",01-03-2026 08:00:00,30.9028,75.8086,SO2,17,41,30
India,Punjab,Patiala,"Model Town, Patiala - PPCB",01-03-2026 08:00:00,30.349388,76.366642,NH3,6,7,6
India,Rajasthan,Ajmer,"Civil Lines,  Ajmer - RSPCB",01-03-2026 08:00:00,26.470859,74.646594,PM2.5,54,90,72
India,Rajasthan,Jaisalmer,"Sadar Bazar, Jaisalmer - RSPCB",01-03-2026 08:00:00,26.912329,70.909168,CO,12,114,20
India,Rajasthan,Jalore,"Mudtra Sili, Jalore - RSPCB",01-03-2026 08:00:00,25.344694,72.626208,NH3,3,5,4
India,Rajasthan,Jhalawar,"Rajlaxmi Nagar, Jhalawar - RSPCB",01-03-2026 08:00:00,24.588397,76.172782,NO2,51,100,81
India,Rajasthan,Jhalawar,"Rajlaxmi Nagar, Jhalawar - RSPCB",01-03-2026 08:00:00,24.588397,76.172782,OZONE,28,105,40
India,Rajasthan,Jodhpur,"Jhalamand, Jodhpur - RSPCB",01-03-2026 08:00:00,26.215415,73.070156,NO2,6,91,31
India,Rajasthan,Jodhpur,"Mandor, Jodhpur - RSPCB",01-03-2026 08:00:00,26.358805,73.047444,PM2.5,32,82,45
India,Rajasthan,Jodhpur,"Mandor, Jodhpur - RSPCB",01-03-2026 08:00:00,26.358805,73.047444,PM10,39,117,62
India,Rajasthan,Jodhpur,"Samrat Ashok Udhyan, Jodhpur - RSPCB",01-03-2026 08:00:00,26.253384,72.976571,PM2.5,27,308,76
India,Rajasthan,Bhiwadi,"RIICO Ind. Area III, Bhiwadi - RSPCB",01-03-2026 08:00:00,28.194909,76.862296,NH3,6,23,13
India,Rajasthan,Bhiwadi,"Vasundhara Nagar_UIT, Bhiwadi - RSPCB",01-03-2026 08:00:00,28.207266,76.829265,SO2,7,60,15
India,Rajasthan,Bikaner,"MM Ground, Bikaner - RSPCB",01-03-2026 08:00:00,28.018792,73.292658,NO2,12,70,30
India,Uttar_Pradesh,Agra,"Sector-3B Avas Vikas Colony, Agra - UPPCB",01-03-2026 08:00:00,27.19412,77.96237,OZONE,1,10,3
India,Uttar_Pradesh,Baghpat,"Sardar Patel Inter College, Baghpat - UPPCB",01-03-2026 08:00:00,28.964949,77.278761,NH3,2,4,3
India,Uttar_Pradesh,Bareilly,"Civil Lines, Bareilly - UPPCB",01-03-2026 08:00:00,28.359581,79.414455,PM10,44,67,55
India,Uttar_Pradesh,Bareilly,"Civil Lines, Bareilly - UPPCB",01-03-2026 08:00:00,28.359581,79.414455,OZONE,15,78,19
India,Uttar_Pradesh,Bareilly,"Rajendra Nagar, Bareilly - UPPCB",01-03-2026 08:00:00,28.38910936,79.42963708,PM10,63,116,87
India,Uttar_Pradesh,Bareilly,"Rajendra Nagar, Bareilly - UPPCB",01-03-2026 08:00:00,28.38910936,79.42963708,NH3,1,1,1
India,Uttar_Pradesh,Bareilly,"Rajendra Nagar, Bareilly - UPPCB",01-03-2026 08:00:00,28.38910936,79.42963708,SO2,39,45,40
India,Uttar_Pradesh,Bulandshahr,"Yamunapuram, Bulandshahr - UPPCB",01-03-2026 08:00:00,28.406963,77.849831,PM2.5,25,229,98
India,Uttar_Pradesh,Bulandshahr,"Yamunapuram, Bulandshahr - UPPCB",01-03-2026 08:00:00,28.406963,77.849831,PM10,108,224,169
India,TamilNadu,Chennai,"Kodungaiyur, Chennai - TNPCB",01-03-2026 08:00:00,13.1278,80.2642,OZONE,26,34,29
India,TamilNadu,Chennai,"Manali Village, Chennai - TNPCB",01-03-2026 08:00:00,13.1662,80.2584,SO2,15,17,17
India,TamilNadu,Chennai,"Manali, Chennai - CPCB",01-03-2026 08:00:00,13.164544,80.26285,PM2.5,174,294,232
India,TamilNadu,Chennai,"Perungudi, Chennai - TNPCB",01-03-2026 08:00:00,12.9533,80.2357,PM2.5,83,147,102
India,TamilNadu,Chennai,"Royapuram, Chennai - TNPCB",01-03-2026 08:00:00,13.1036,80.2909,NO2,NA,NA,NA
India,TamilNadu,Chennai,"Royapuram, Chennai - TNPCB",01-03-2026 08:00:00,13.1036,80.2909,NH3,NA,NA,NA
India,TamilNadu,Chennai,"Velachery Res. Area, Chennai - CPCB",01-03-2026 08:00:00,13.0052189,80.2398125,NH3,2,4,3
India,TamilNadu,Coimbatore,"PSG College of Arts and Science, Coimbatore - TNPCB",01-03-2026 08:00:00,11.0328,77.0349,PM2.5,64,174,107
India,Telangana,Hyderabad,"Kompally Municipal Office, Hyderabad - TSPCB",01-03-2026 08:00:00,17.544899,78.486949,CO,8,42,27
India,Telangana,Hyderabad,"Nacharam_TSIIC IALA, Hyderabad - TSPCB",01-03-2026 08:00:00,17.429398,78.569354,OZONE,15,29,16
India,Telangana,Hyderabad,"New Malakpet, Hyderabad - TSPCB",01-03-2026 08:00:00,17.37206,78.50864,OZONE,14,33,20
India,Telangana,Hyderabad,"Ramachandrapuram, Hyderabad - TSPCB",01-03-2026 08:00:00,17.528544,78.286195,OZONE,18,29,20
India,Telangana,Hyderabad,"Sanathnagar, Hyderabad - TSPCB",01-03-2026 08:00:00,17.4559458,78.4332152,PM2.5,40,78,61
India,Telangana,Hyderabad,"Sanathnagar, Hyderabad - TSPCB",01-03-2026 08:00:00,17.4559458,78.4332152,NO2,8,51,29
India,Telangana,Hyderabad,"Sanathnagar, Hyderabad - TSPCB",01-03-2026 08:00:00,17.4559458,78.4332152,CO,36,78,44
India,Telangana,Hyderabad,"Somajiguda, Hyderabad - TSPCB",01-03-2026 08:00:00,17.417094,78.457437,PM2.5,48,80,63
India,Telangana,Hyderabad,"Somajiguda, Hyderabad - TSPCB",01-03-2026 08:00:00,17.417094,78.457437,OZONE,10,27,16
India,Telangana,Hyderabad,"Zoo Park, Hyderabad - TSPCB",01-03-2026 08:00:00,17.349694,78.451437,NH3,3,3,3
India,Tripura,Agartala,"Bardowali, Agartala - Tripura SPCB",01-03-2026 08:00:00,23.8175497,91.2726974,OZONE,1,11,2
India,Uttar_Pradesh,Agra,"Manoharpur, Agra - UPPCB",01-03-2026 08:00:00,27.23711,78.01936,NO2,20,20,20
India,Uttar_Pradesh,Agra,"Rohta, Agra - UPPCB",01-03-2026 08:00:00,27.106972,78.000111,NO2,14,14,14
India,Uttar_Pradesh,Agra,"Sanjay Palace, Agra - UPPCB",01-03-2026 08:00:00,27.19865833,78.00598056,OZONE,2,135,15
India,Uttar_Pradesh,Agra,"Sector-3B Avas Vikas Colony, Agra - UPPCB",01-03-2026 08:00:00,27.19412,77.96237,PM2.5,15,188,87
India,Uttar_Pradesh,Agra,"Sector-3B Avas Vikas Colony, Agra - UPPCB",01-03-2026 08:00:00,27.19412,77.96237,SO2,12,13,13
India,Telangana,Hyderabad,"ECIL Kapra, Hyderabad - TSPCB",01-03-2026 08:00:00,17.470431,78.566959,SO2,3,17,11
India,Telangana,Hyderabad,"ICRISAT Patancheru, Hyderabad - TSPCB",01-03-2026 08:00:00,17.518400,78.278777,PM2.5,48,84,65
India,Telangana,Hyderabad,"ICRISAT Patancheru, Hyderabad - TSPCB",01-03-2026 08:00:00,17.518400,78.278777,OZONE,21,70,36
India,Telangana,Hyderabad,"IDA Pashamylaram, Hyderabad - TSPCB",01-03-2026 08:00:00,17.5316895,78.218939,PM10,40,93,62
India,Telangana,Hyderabad,"IDA Pashamylaram, Hyderabad - TSPCB",01-03-2026 08:00:00,17.5316895,78.218939,NO2,6,8,7
India,Telangana,Hyderabad,"IDA Pashamylaram, Hyderabad - TSPCB",01-03-2026 08:00:00,17.5316895,78.218939,OZONE,16,22,18
India,Telangana,Hyderabad,"Kokapet, Hyderabad - TSPCB",01-03-2026 08:00:00,17.393559,78.339194,SO2,14,20,16
India,Telangana,Hyderabad,"Kompally Municipal Office, Hyderabad - TSPCB",01-03-2026 08:00:00,17.544899,78.486949,PM2.5,44,61,56
India,Rajasthan,Pali,"Indira Colony Vistar, Pali - RSPCB",01-03-2026 08:00:00,25.771061, 73.340227,OZONE,8,74,10
India,Rajasthan,Pratapgarh,"Pragati Nagar, Pratapgarh - RSPCB",01-03-2026 08:00:00,24.041198,74.780702,PM2.5,28,82,56
India,Rajasthan,Pratapgarh,"Pragati Nagar, Pratapgarh - RSPCB",01-03-2026 08:00:00,24.041198,74.780702,PM10,69,156,105
India,Rajasthan,Rajsamand,"Dhoinda, Rajsamand - RSPCB",01-03-2026 08:00:00,25.036360,73.883502,SO2,1,10,5
India,Rajasthan,Sawai Madhopur,"Sahu Nagar, Sawai Madhopur - RSPCB",01-03-2026 08:00:00,26.031443,76.359327,SO2,3,15,8
India,Rajasthan,Sawai Madhopur,"Sahu Nagar, Sawai Madhopur - RSPCB",01-03-2026 08:00:00,26.031443,76.359327,OZONE,2,144,27
India,Rajasthan,Sirohi,"Vedhaynath Colony, Sirohi - RSPCB",01-03-2026 08:00:00,24.885261,72.857549,PM2.5,22,127,51
India,TamilNadu,Coimbatore,"PSG College of Arts and Science, Coimbatore - TNPCB",01-03-2026 08:00:00,11.0328,77.0349,NO2,10,11,11
India,TamilNadu,Coimbatore,"SIDCO Kurichi, Coimbatore - TNPCB",01-03-2026 08:00:00,10.942451,76.978996,NO2,1,2,2
India,TamilNadu,Gummidipoondi,"Anthoni Pillai Nagar, Gummidipoondi - TNPCB",01-03-2026 08:00:00,13.4127,80.1081,PM2.5,122,419,236
India,TamilNadu,Perundurai,"SIPCOT Industrial Park, Perundurai - TNPCB",01-03-2026 08:00:00,11.258242,77.552761,NH3,2,2,2
India,TamilNadu,Perundurai,"SIPCOT Industrial Park, Perundurai - TNPCB",01-03-2026 08:00:00,11.258242,77.552761,SO2,15,16,15
India,TamilNadu,Perundurai,"SIPCOT Industrial Park, Perundurai - TNPCB",01-03-2026 08:00:00,11.258242,77.552761,CO,41,48,46
India,TamilNadu,Perundurai,"SIPCOT Industrial Park, Perundurai - TNPCB",01-03-2026 08:00:00,11.258242,77.552761,OZONE,25,31,30
India,Rajasthan,Sirohi,"Vedhaynath Colony, Sirohi - RSPCB",01-03-2026 08:00:00,24.885261,72.857549,CO,13,58,36
India,Rajasthan,Tonk,"Shastri Nagar, Tonk - RSPCB",01-03-2026 08:00:00,26.159933,75.780517,OZONE,2,115,4
India,Rajasthan,Udaipur,"Ashok Nagar, Udaipur - RSPCB",01-03-2026 08:00:00,24.5886166,73.6321397,NH3,5,6,5
India,Sikkim,Gangtok,"Zero Point GICI, Gangtok - SSPCB",01-03-2026 08:00:00,27.338530,88.614099,NO2,6,7,6
India,TamilNadu,Chennai,"Kodungaiyur, Chennai - TNPCB",01-03-2026 08:00:00,13.1278,80.2642,PM2.5,92,290,131
India,TamilNadu,Chennai,"Kodungaiyur, Chennai - TNPCB",01-03-2026 08:00:00,13.1278,80.2642,NO2,11,15,13
India,Rajasthan,Kota,"Dhanmandi, Kota - RSPCB",01-03-2026 08:00:00,25.164090,75.858137,CO,18,120,28
India,Rajasthan,Kota,"Dhanmandi, Kota - RSPCB",01-03-2026 08:00:00,25.164090,75.858137,OZONE,4,119,34
India,Rajasthan,Kota,"Nayapura, Kota - RSPCB",01-03-2026 08:00:00,25.196024,75.855668,OZONE,1,137,16
India,Rajasthan,Kota,"Shrinath Puram, Kota - RSPCB",01-03-2026 08:00:00,25.14389,75.821256,NH3,2,10,5
India,Rajasthan,Nagaur,"Karni Colony, Nagaur - RSPCB",01-03-2026 08:00:00,27.213494,73.734444,PM2.5,30,97,53
India,Rajasthan,Pali,"Indira Colony Vistar, Pali - RSPCB",01-03-2026 08:00:00,25.771061, 73.340227,PM10,81,335,130
India,Uttar_Pradesh,Moradabad,"Kashiram Nagar, Moradabad - UPPCB",01-03-2026 08:00:00,28.849399,78.742362,CO,22,37,30
India,Uttar_Pradesh,Moradabad,"Transport Nagar, Moradabad - UPPCB",01-03-2026 08:00:00,28.802625,78.753728,PM2.5,31,89,52
India,Uttar_Pradesh,Noida,"Sector - 125, Noida - UPPCB",01-03-2026 08:00:00,28.5447608,77.3231257,PM2.5,49,404,199
India,Uttar_Pradesh,Noida,"Sector - 125, Noida - UPPCB",01-03-2026 08:00:00,28.5447608,77.3231257,NO2,24,111,65
India,Uttar_Pradesh,Noida,"Sector - 125, Noida - UPPCB",01-03-2026 08:00:00,28.5447608,77.3231257,SO2,6,12,8
India,Uttar_Pradesh,Noida,"Sector - 62, Noida - IMD",01-03-2026 08:00:00,28.6245479,77.3577104,PM2.5,68,307,137
India,Uttar_Pradesh,Noida,"Sector-1, Noida - UPPCB",01-03-2026 08:00:00,28.5898,77.3101,NH3,NA,NA,NA
India,Uttar_Pradesh,Noida,"Sector-1, Noida - UPPCB",01-03-2026 08:00:00,28.5898,77.3101,SO2,NA,NA,NA
India,Uttar_Pradesh,Noida,"Sector-1, Noida - UPPCB",01-03-2026 08:00:00,28.5898,77.3101,OZONE,NA,NA,NA
India,Uttar_Pradesh,Noida,"Sector-116, Noida - UPPCB",01-03-2026 08:00:00,28.569230,77.393848,PM2.5,71,350,176
India,Uttar_Pradesh,Noida,"Sector-116, Noida - UPPCB",01-03-2026 08:00:00,28.569230,77.393848,NH3,14,21,17
India,Uttar_Pradesh,Kanpur,"FTI Kidwai Nagar, Kanpur - UPPCB",01-03-2026 08:00:00,26.428282,80.327067,NH3,5,5,5
India,Uttar_Pradesh,Kanpur,"NSI Kalyanpur, Kanpur - UPPCB",01-03-2026 08:00:00,26.509954,80.249612,NO2,24,25,25
India,Uttar_Pradesh,Kanpur,"Nehru Nagar, Kanpur - UPPCB",01-03-2026 08:00:00,26.4703136,80.3229863,SO2,4,22,13
India,Uttar_Pradesh,Khurja,"Kalindi Kunj, Khurja - UPPCB",01-03-2026 08:00:00,28.2348927,77.8683002,PM10,47,284,127
India,Uttar_Pradesh,Khurja,"Kalindi Kunj, Khurja - UPPCB",01-03-2026 08:00:00,28.2348927,77.8683002,SO2,14,15,14
India,Uttar_Pradesh,Lucknow,"B R Ambedkar University, Lucknow - UPPCB",01-03-2026 08:00:00,26.766433,80.927299,NO2,12,12,12
India,Uttar_Pradesh,Lucknow,"B R Ambedkar University, Lucknow - UPPCB",01-03-2026 08:00:00,26.766433,80.927299,CO,18,28,23
India,Uttar_Pradesh,Lucknow,"Gomti Nagar, Lucknow - UPPCB",01-03-2026 08:00:00,26.868120,81.005119,NO2,7,10,9
India,Uttar_Pradesh,Lucknow,"Gomti Nagar, Lucknow - UPPCB",01-03-2026 08:00:00,26.868120,81.005119,OZONE,31,44,33
India,Uttar_Pradesh,Prayagraj,"Jhunsi, Prayagraj - UPPCB",01-03-2026 08:00:00,25.425602,81.917152,NH3,5,5,5
India,Uttar_Pradesh,Prayagraj,"Jhunsi, Prayagraj - UPPCB",01-03-2026 08:00:00,25.425602,81.917152,CO,8,51,29
India,Uttar_Pradesh,Prayagraj,"Motilal Nehru NIT, Prayagraj - UPPCB",01-03-2026 08:00:00,25.494,81.863,CO,10,73,40
India,Uttar_Pradesh,Prayagraj,"Nagar Nigam, Prayagraj - UPPCB",01-03-2026 08:00:00,25.44919916 ,81.82735986 ,PM2.5,19,70,40
India,Uttar_Pradesh,Prayagraj,"Nagar Nigam, Prayagraj - UPPCB",01-03-2026 08:00:00,25.44919916 ,81.82735986 ,OZONE,11,12,12
India,Uttar_Pradesh,Raebareli," Indira Nagar, Raebareli - NTPC Unchahar",01-03-2026 08:00:00,26.207781,81.245571,PM2.5,90,303,197
India,Uttar_Pradesh,Raebareli," Indira Nagar, Raebareli - NTPC Unchahar",01-03-2026 08:00:00,26.207781,81.245571,PM10,90,171,132
India,Uttar_Pradesh,Varanasi,"Ardhali Bazar, Varanasi - UPPCB",01-03-2026 08:00:00,25.3505986,82.9083074,PM10,37,97,66
India,Uttar_Pradesh,Varanasi,"Ardhali Bazar, Varanasi - UPPCB",01-03-2026 08:00:00,25.3505986,82.9083074,NO2,40,42,41
India,Uttar_Pradesh,Ghaziabad,"Vasundhara, Ghaziabad - UPPCB",01-03-2026 08:00:00,28.6603346,77.3572563,CO,11,74,48
India,Uttar_Pradesh,Greater Noida,"Knowledge Park - III, Greater Noida - UPPCB",01-03-2026 08:00:00,28.47272,77.482000,PM2.5,36,303,103
India,Uttar_Pradesh,Greater Noida,"Knowledge Park - III, Greater Noida - UPPCB",01-03-2026 08:00:00,28.47272,77.482000,CO,10,101,44
India,Uttar_Pradesh,Greater Noida,"Knowledge Park - V, Greater Noida - UPPCB",01-03-2026 08:00:00,28.557054,77.453663,PM2.5,78,383,209
India,Uttar_Pradesh,Hapur,"Anand Vihar, Hapur - UPPCB",01-03-2026 08:00:00,28.725645,77.749675,OZONE,1,15,2
India,Uttar_Pradesh,Jhansi,"Shivaji Nagar, Jhansi - UPPCB",01-03-2026 08:00:00,25.4547,78.6039,CO,6,40,22
India,Uttar_Pradesh,Jhansi,"Shivaji Nagar, Jhansi - UPPCB",01-03-2026 08:00:00,25.4547,78.6039,OZONE,2,6,2
India,Uttar_Pradesh,Kanpur,"FTI Kidwai Nagar, Kanpur - UPPCB",01-03-2026 08:00:00,26.428282,80.327067,PM2.5,21,220,94
India,Uttar_Pradesh,Bulandshahr,"Yamunapuram, Bulandshahr - UPPCB",01-03-2026 08:00:00,28.406963,77.849831,SO2,14,30,20
India,Uttar_Pradesh,Bulandshahr,"Yamunapuram, Bulandshahr - UPPCB",01-03-2026 08:00:00,28.406963,77.849831,OZONE,1,64,1
India,Uttar_Pradesh,Firozabad,"Nagla Bhau, Firozabad - UPPCB",01-03-2026 08:00:00,27.168897,78.376960,SO2,1,40,16
India,Uttar_Pradesh,Firozabad,"Vibhab Nagar, Firozabad - UPPCB",01-03-2026 08:00:00,27.1594,78.3953,NO2,15,15,15
India,Uttar_Pradesh,Firozabad,"Vibhab Nagar, Firozabad - UPPCB",01-03-2026 08:00:00,27.1594,78.3953,NH3,2,2,2
India,Uttar_Pradesh,Ghaziabad,"Loni, Ghaziabad - UPPCB",01-03-2026 08:00:00,28.757294,77.278792,OZONE,4,125,13
India,Uttar_Pradesh,Ghaziabad,"Sanjay Nagar, Ghaziabad - UPPCB",01-03-2026 08:00:00,28.685382,77.453839,PM2.5,52,307,162
India,Uttar_Pradesh,Ghaziabad,"Vasundhara, Ghaziabad - UPPCB",01-03-2026 08:00:00,28.6603346,77.3572563,NH3,7,18,12
India,Uttar_Pradesh,Meerut,"Pallavpuram Phase 2, Meerut - UPPCB",01-03-2026 08:00:00,29.063510,77.709723,CO,18,70,42
India,Uttar_Pradesh,Moradabad,"Eco Herbal Park, Moradabad - UPPCB",01-03-2026 08:00:00,28.840739,78.697531,NH3,3,6,5
India,Uttar_Pradesh,Moradabad,"Eco Herbal Park, Moradabad - UPPCB",01-03-2026 08:00:00,28.840739,78.697531,CO,34,72,52
India,Uttar_Pradesh,Moradabad,"Eco Herbal Park, Moradabad - UPPCB",01-03-2026 08:00:00,28.840739,78.697531,OZONE,6,71,10
India,Uttar_Pradesh,Moradabad,"Employment Office, Moradabad - UPPCB",01-03-2026 08:00:00,28.88528,78.73880,NO2,15,16,16
India,Uttar_Pradesh,Moradabad,"Employment Office, Moradabad - UPPCB",01-03-2026 08:00:00,28.88528,78.73880,CO,2,56,13
India,Uttar_Pradesh,Moradabad,"Employment Office, Moradabad - UPPCB",01-03-2026 08:00:00,28.88528,78.73880,OZONE,17,30,17
India,Uttar_Pradesh,Moradabad,"Jigar Colony, Moradabad - UPPCB",01-03-2026 08:00:00,28.856664,78.772638,SO2,27,44,33
India,Uttar_Pradesh,Varanasi,"Bhelupur, Varanasi - UPPCB",01-03-2026 08:00:00,25.301778,82.996789,NH3,1,1,1
India,Uttar_Pradesh,Varanasi,"Maldahiya, Varanasi - UPPCB",01-03-2026 08:00:00,25.32393,82.99687,CO,20,48,32
India,Uttar_Pradesh,Vrindavan,"Omex Eternity, Vrindavan - UPPCB",01-03-2026 08:00:00,27.5714090,77.6557570,NO2,27,27,27
India,Uttar_Pradesh,Vrindavan,"Omex Eternity, Vrindavan - UPPCB",01-03-2026 08:00:00,27.5714090,77.6557570,NH3,7,9,8
India,Uttar_Pradesh,Vrindavan,"Omex Eternity, Vrindavan - UPPCB",01-03-2026 08:00:00,27.5714090,77.6557570,OZONE,15,15,15
India,Uttarakhand,Dehradun,"Doon University, Dehradun - UKPCB",01-03-2026 08:00:00,30.269444,78.044167,PM10,54,124,91
India,Uttarakhand,Dehradun,"Doon University, Dehradun - UKPCB",01-03-2026 08:00:00,30.269444,78.044167,OZONE,19,74,26
India,Uttarakhand,Rishikesh,"Shivaji Nagar, Rishikesh - UKPCB",01-03-2026 08:00:00,30.075911,78.2859547,CO,37,37,37
India,West_Bengal,Asansol,"Asansol Court Area, Asansol - WBPCB",01-03-2026 08:00:00,23.685297,86.945968,CO,15,108,88
India,West_Bengal,Asansol,"Evelyn Lodge, Asansol - WBPCB",01-03-2026 08:00:00,23.6979360,86.9443950,NO2,13,61,33
India,West_Bengal,Asansol,"Evelyn Lodge, Asansol - WBPCB",01-03-2026 08:00:00,23.6979360,86.9443950,CO,30,109,97
India,West_Bengal,Asansol,"Mahabir Colliery, Asansol - WBPCB",01-03-2026 08:00:00,23.6181830,87.1057180,PM2.5,24,313,163
India,West_Bengal,Asansol,"Mahabir Colliery, Asansol - WBPCB",01-03-2026 08:00:00,23.6181830,87.1057180,NO2,11,32,20
India,Uttar_Pradesh,Lucknow,"Kendriya Vidyalaya, Lucknow - CPCB",01-03-2026 08:00:00,26.906111,80.948222,SO2,4,37,14
India,Uttar_Pradesh,Lucknow,"Kukrail Picnic Spot-1, Lucknow - UPPCB",01-03-2026 08:00:00,26.90723,80.98579,PM2.5,11,70,39
India,Uttar_Pradesh,Lucknow,"Kukrail Picnic Spot-1, Lucknow - UPPCB",01-03-2026 08:00:00,26.90723,80.98579,CO,10,14,13
India,Uttar_Pradesh,Lucknow,"Lalbagh, Lucknow - CPCB",01-03-2026 08:00:00,26.8458805,80.9365541,NH3,13,21,17
India,West_Bengal,Barrackpore,"SVSPA Campus, Barrackpore - WBPCB",01-03-2026 08:00:00,22.7605581,88.3617589,CO,38,80,49
India,West_Bengal,Durgapur,"Mahishkapur Road_B-Zone, Durgapur - WBPCB",01-03-2026 08:00:00,23.567923,87.306843,PM2.5,34,244,117
India,West_Bengal,Durgapur,"PCBL Residential Complex, Durgapur - WBPCB",01-03-2026 08:00:00,23.5087640,87.3544400,NH3,12,16,14
India,West_Bengal,Durgapur,"Womens College_City Center, Durgapur - WBPCB",01-03-2026 08:00:00,23.549395,87.300496,SO2,27,28,28
India,West_Bengal,Haldia,"Priyambada Housing Estate, Haldia - WBPCB",01-03-2026 08:00:00,22.06047,88.109737,PM10,38,101,61
India,West_Bengal,Howrah,"Belur Math, Howrah - WBPCB",01-03-2026 08:00:00,22.629801,88.352017,NH3,7,12,9
India,West_Bengal,Howrah,"Dasnagar, Howrah - WBPCB",01-03-2026 08:00:00,22.6025571,88.3105664,PM10,39,120,66
India,West_Bengal,Howrah,"Dasnagar, Howrah - WBPCB",01-03-2026 08:00:00,22.6025571,88.3105664,NH3,8,10,10
India,West_Bengal,Howrah,"Ghusuri, Howrah - WBPCB",01-03-2026 08:00:00,22.611968,88.347422,CO,41,92,45
India,West_Bengal,Howrah,"Padmapukur, Howrah - WBPCB",01-03-2026 08:00:00,22.5687319,88.2797276,NH3,4,6,5
India,West_Bengal,Kolkata,"Ballygunge, Kolkata - WBPCB",01-03-2026 08:00:00,22.5367507,88.3638022,PM10,54,118,86
India,West_Bengal,Kolkata,"Bidhannagar, Kolkata - WBPCB",01-03-2026 08:00:00,22.58157048,88.41002457,OZONE,16,66,21
India,West_Bengal,Kolkata,"Fort William, Kolkata - WBPCB",01-03-2026 08:00:00,22.556640,88.342674,PM2.5,45,88,63
India,West_Bengal,Kolkata,"Fort William, Kolkata - WBPCB",01-03-2026 08:00:00,22.556640,88.342674,NH3,9,11,10
India,West_Bengal,Kolkata,"Fort William, Kolkata - WBPCB",01-03-2026 08:00:00,22.556640,88.342674,OZONE,2,42,4
India,West_Bengal,Kolkata,"Jadavpur, Kolkata - WBPCB",01-03-2026 08:00:00,22.49929,88.36917,CO,26,60,42
India,West_Bengal,Kolkata,"Jadavpur, Kolkata - WBPCB",01-03-2026 08:00:00,22.49929,88.36917,OZONE,7,76,9
India,West_Bengal,Kolkata,"Rabindra Bharati University, Kolkata - WBPCB",01-03-2026 08:00:00,22.627847,88.380669,PM10,83,144,107
India,West_Bengal,Kolkata,"Rabindra Bharati University, Kolkata - WBPCB",01-03-2026 08:00:00,22.627847,88.380669,NO2,51,157,82
India,West_Bengal,Kolkata,"Rabindra Bharati University, Kolkata - WBPCB",01-03-2026 08:00:00,22.627847,88.380669,NH3,12,12,12
India,West_Bengal,Kolkata,"Rabindra Sarobar, Kolkata - WBPCB",01-03-2026 08:00:00,22.51106,88.35142,NH3,7,12,8
India,West_Bengal,Kolkata,"Rabindra Sarobar, Kolkata - WBPCB",01-03-2026 08:00:00,22.51106,88.35142,CO,29,56,33
India,West_Bengal,Siliguri,"Ward-32 Bapupara, Siliguri - WBPCB",01-03-2026 08:00:00,26.6879226,88.4152495,NH3,10,10,10
India,Bihar,Aurangabad,"Gurdeo Nagar, Aurangabad - BSPCB",01-03-2026 08:00:00,24.75746,84.366208,PM10,53,138,81
India,Bihar,Begusarai,"Lohiyanagar, Begusarai - BSPCB",01-03-2026 08:00:00,25.42742023,86.13886079,PM2.5,25,180,80
India,Bihar,Begusarai,"Lohiyanagar, Begusarai - BSPCB",01-03-2026 08:00:00,25.42742023,86.13886079,OZONE,15,42,38
India,Bihar,Bettiah,"Kamalnath Nagar, Bettiah - BSPCB",01-03-2026 08:00:00,26.80365,84.51954,PM2.5,43,153,74
India,Bihar,Bettiah,"Kamalnath Nagar, Bettiah - BSPCB",01-03-2026 08:00:00,26.80365,84.51954,NH3,1,1,1
India,Bihar,Bettiah,"Kamalnath Nagar, Bettiah - BSPCB",01-03-2026 08:00:00,26.80365,84.51954,SO2,3,7,5
India,Bihar,Bettiah,"Kamalnath Nagar, Bettiah - BSPCB",01-03-2026 08:00:00,26.80365,84.51954,CO,32,88,44
India,Bihar,Bhagalpur,"DM Office_Kachari Chowk, Bhagalpur - BSPCB",01-03-2026 08:00:00,25.251013,86.989001,PM2.5,27,98,51
India,Bihar,Bhagalpur,"DM Office_Kachari Chowk, Bhagalpur - BSPCB",01-03-2026 08:00:00,25.251013,86.989001,SO2,35,79,55
India,Bihar,Bhagalpur,"Mayaganj, Bhagalpur - BSPCB",01-03-2026 08:00:00,25.265194,87.012947,NO2,5,8,7
India,Bihar,Bihar Sharif,"D M Colony, Bihar Sharif - BSPCB",01-03-2026 08:00:00,25.204762,85.514960,PM10,NA,NA,NA
India,Bihar,Samastipur,"DM Office_Kasipur, Samastipur - BSPCB",01-03-2026 08:00:00,25.859655,85.77944,PM2.5,20,422,144
India,Bihar,Samastipur,"DM Office_Kasipur, Samastipur - BSPCB",01-03-2026 08:00:00,25.859655,85.77944,CO,NA,NA,NA
India,Bihar,Samastipur,"DM Office_Kasipur, Samastipur - BSPCB",01-03-2026 08:00:00,25.859655,85.77944,OZONE,7,9,8
India,Bihar,Sasaram,"Dada Peer, Sasaram - BSPCB",01-03-2026 08:00:00,24.952822,84.002396,PM10,36,115,69
India,Bihar,Sasaram,"Dada Peer, Sasaram - BSPCB",01-03-2026 08:00:00,24.952822,84.002396,NH3,2,9,4
India,Bihar,Sasaram,"Dada Peer, Sasaram - BSPCB",01-03-2026 08:00:00,24.952822,84.002396,SO2,3,5,4
India,Bihar,Sasaram,"Dada Peer, Sasaram - BSPCB",01-03-2026 08:00:00,24.952822,84.002396,CO,20,120,49
India,Bihar,Siwan,"Chitragupta Nagar, Siwan - BSPCB",01-03-2026 08:00:00,26.2271665,84.3570427,PM10,53,87,69
India,Chandigarh,Chandigarh,"Sector 22, Chandigarh - CPCC",01-03-2026 08:00:00,30.735567,76.775714,PM10,43,97,60
India,Chandigarh,Chandigarh,"Sector 22, Chandigarh - CPCC",01-03-2026 08:00:00,30.735567,76.775714,SO2,7,36,15
India,Chandigarh,Chandigarh,"Sector-25, Chandigarh - CPCC",01-03-2026 08:00:00,30.751462,76.762879,NO2,2,8,4
India,Assam,Nagaon,"Christianpatty, Nagaon - PCBA",01-03-2026 08:00:00,26.349082,92.68449,CO,12,26,22
India,Assam,Nagaon,"Christianpatty, Nagaon - PCBA",01-03-2026 08:00:00,26.349082,92.68449,OZONE,8,9,9
India,Assam,Nalbari,"Bata Chowk, Nalbari - PCBA",01-03-2026 08:00:00,26.446912,91.439057,NH3,5,7,6
India,Assam,Silchar,"Tarapur, Silchar - PCBA",01-03-2026 08:00:00,24.82827,92.79525,NO2,28,34,28
India,Assam,Silchar,"Tarapur, Silchar - PCBA",01-03-2026 08:00:00,24.82827,92.79525,OZONE,2,4,2
India,Assam,Sivasagar,"Girls College, Sivasagar - PCBA",01-03-2026 08:00:00,26.987634,94.636574,PM2.5,28,82,53
India,Assam,Sivasagar,"Girls College, Sivasagar - PCBA",01-03-2026 08:00:00,26.987634,94.636574,PM10,32,69,52
India,Bihar,Araria,"Kharahiya Basti, Araria - BSPCB",01-03-2026 08:00:00,26.146529,87.454184,PM2.5,33,308,121
India,Bihar,Araria,"Kharahiya Basti, Araria - BSPCB",01-03-2026 08:00:00,26.146529,87.454184,PM10,28,160,83
India,Bihar,Arrah,"New DM Office, Arrah - BSPCB",01-03-2026 08:00:00,25.5626095,84.663264,PM10,30,83,55
India,Bihar,Hajipur,"Industrial Area, Hajipur - BSPCB",01-03-2026 08:00:00,25.697189,85.245900,NO2,31,57,41
India,Bihar,Hajipur,"Industrial Area, Hajipur - BSPCB",01-03-2026 08:00:00,25.697189,85.245900,NH3,18,21,20
India,Bihar,Katihar,"Mirchaibari, Katihar - BSPCB",01-03-2026 08:00:00,25.560083,87.553265,PM2.5,27,160,62
India,Bihar,Katihar,"Mirchaibari, Katihar - BSPCB",01-03-2026 08:00:00,25.560083,87.553265,OZONE,5,54,6
India,Bihar,Kishanganj,"SDM Office_Khagra, Kishanganj - BSPCB",01-03-2026 08:00:00,26.0881305,87.93840336,PM10,35,138,69
India,Bihar,Manguraha,"Forest Rest House, Manguraha - BSPCB",01-03-2026 08:00:00,27.308328,84.531742,PM2.5,73,240,119
India,Bihar,Munger,"Town Hall, Munger - BSPCB",01-03-2026 08:00:00,25.376776,86.471523,NH3,2,4,3
India,Bihar,Munger,"Town Hall, Munger - BSPCB",01-03-2026 08:00:00,25.376776,86.471523,SO2,20,85,47
India,Bihar,Munger,"Town Hall, Munger - BSPCB",01-03-2026 08:00:00,25.376776,86.471523,CO,6,93,21
India,Bihar,Bihar Sharif,"D M Colony, Bihar Sharif - BSPCB",01-03-2026 08:00:00,25.204762,85.514960,SO2,NA,NA,NA
India,Bihar,Bihar Sharif,"D M Colony, Bihar Sharif - BSPCB",01-03-2026 08:00:00,25.204762,85.514960,OZONE,1,2,2
India,Bihar,Buxar,"Charitra Van, Buxar - BSPCB",01-03-2026 08:00:00,25.567520,83.966379,NO2,9,10,10
India,Bihar,Buxar,"Charitra Van, Buxar - BSPCB",01-03-2026 08:00:00,25.567520,83.966379,OZONE,1,37,7
India,Bihar,Chhapra,"Darshan Nagar, Chhapra - BSPCB",01-03-2026 08:00:00,25.7808257,84.7446768,NO2,NA,NA,NA
India,Bihar,Chhapra,"Darshan Nagar, Chhapra - BSPCB",01-03-2026 08:00:00,25.7808257,84.7446768,OZONE,NA,NA,NA
India,Bihar,Gaya,"Kareemganj, Gaya - BSPCB",01-03-2026 08:00:00,24.792403,84.992416,OZONE,16,27,21
India,Bihar,Gaya,"SFTI Kusdihra, Gaya - BSPCB",01-03-2026 08:00:00,24.762518,84.982348,PM10,58,85,71
India,Bihar,Gaya,"SFTI Kusdihra, Gaya - BSPCB",01-03-2026 08:00:00,24.762518,84.982348,NO2,22,51,35
India,Bihar,Gaya,"SFTI Kusdihra, Gaya - BSPCB",01-03-2026 08:00:00,24.762518,84.982348,CO,23,43,31
India,Bihar,Muzaffarpur,"Buddha Colony, Muzaffarpur - BSPCB",01-03-2026 08:00:00,26.11442,85.39813,SO2,3,6,5
India,Bihar,Muzaffarpur,"Muzaffarpur Collectorate, Muzaffarpur - BSPCB",01-03-2026 08:00:00,26.1209,85.3647,CO,8,70,8
India,Bihar,Muzaffarpur,"Muzaffarpur Collectorate, Muzaffarpur - BSPCB",01-03-2026 08:00:00,26.1209,85.3647,OZONE,7,22,8
India,Bihar,Patna,"Govt. High School Shikarpur, Patna - BSPCB",01-03-2026 08:00:00,25.592539,85.227158,SO2,3,7,5
India,Bihar,Patna,"IGSC Planetarium Complex, Patna - BSPCB",01-03-2026 08:00:00,25.610369,85.132568,PM2.5,45,180,109
India,Bihar,Patna,"Muradpur, Patna - BSPCB",01-03-2026 08:00:00,25.619651,85.147382,PM2.5,96,169,129
India,Arunachal_Pradesh,Naharlagun,"Naharlagun, Naharlagun - APSPCB",01-03-2026 08:00:00,27.103358,93.679645,PM2.5,14,281,93
India,Arunachal_Pradesh,Naharlagun,"Naharlagun, Naharlagun - APSPCB",01-03-2026 08:00:00,27.103358,93.679645,PM10,66,165,98
India,Arunachal_Pradesh,Naharlagun,"Naharlagun, Naharlagun - APSPCB",01-03-2026 08:00:00,27.103358,93.679645,SO2,8,10,10
India,Arunachal_Pradesh,Naharlagun,"Naharlagun, Naharlagun - APSPCB",01-03-2026 08:00:00,27.103358,93.679645,OZONE,5,6,6
India,Assam,Byrnihat,"Central Academy for SFS, Byrnihat - PCBA",01-03-2026 08:00:00,26.071318,91.87488,NH3,4,4,4
India,Assam,Guwahati,"LGBI Airport, Guwahati - PCBA",01-03-2026 08:00:00,26.10887,91.589544,PM2.5,69,129,100
India,Andhra_Pradesh,Tirumala,"Toll Gate, Tirumala - APPCB",01-03-2026 08:00:00,13.67,79.35,NH3,1,2,1
India,Andhra_Pradesh,Tirupati,"Vaikuntapuram, Tirupati - APPCB",01-03-2026 08:00:00,13.615387,79.409230,NH3,5,6,6
India,Andhra_Pradesh,Vijayawada,"HB Colony, Vijayawada - APPCB",01-03-2026 08:00:00,16.536107,80.594233,NO2,NA,NA,NA
India,Andhra_Pradesh,Vijayawada,"Rajiv Gandhi Park, Vijayawada - APPCB",01-03-2026 08:00:00,16.509717,80.612222,PM2.5,55,95,79
India,Andhra_Pradesh,Vijayawada,"Rajiv Nagar, Vijayawada - APPCB",01-03-2026 08:00:00,16.554731,80.649110,SO2,12,17,15
India,Andhra_Pradesh,Amaravati,"Secretariat, Amaravati - APPCB",01-03-2026 08:00:00,16.5150833,80.5181667,NO2,13,39,19
India,Andhra_Pradesh,Amaravati,"Secretariat, Amaravati - APPCB",01-03-2026 08:00:00,16.5150833,80.5181667,CO,14,30,27
India,Andhra_Pradesh,Anantapur,"Gulzarpet, Anantapur - APPCB",01-03-2026 08:00:00,14.675886,77.593027,PM10,67,81,74
India,Andhra_Pradesh,Chittoor,"Gangineni Cheruvu, Chittoor - APPCB",01-03-2026 08:00:00,13.204880,79.097889,CO,20,24,22
India,Andhra_Pradesh,Tirumala,"Toll Gate, Tirumala - APPCB",01-03-2026 08:00:00,13.67,79.35,PM10,82,138,100
India,Bihar,Patna,"Muradpur, Patna - BSPCB",01-03-2026 08:00:00,25.619651,85.147382,PM10,126,147,135
India,Bihar,Patna,"Samanpura, Patna - BSPCB",01-03-2026 08:00:00,25.596727,85.085624,PM2.5,37,84,71
India,Bihar,Rajgir,"Dangi Tola, Rajgir - BSPCB",01-03-2026 08:00:00,25.03280,85.41948,PM2.5,25,63,43
India,Bihar,Rajgir,"Dangi Tola, Rajgir - BSPCB",01-03-2026 08:00:00,25.03280,85.41948,OZONE,23,28,25
India,Delhi,Delhi,"Lodhi Road, Delhi - IMD",01-03-2026 08:00:00,28.5918245,77.2273074,OZONE,5,157,12
India,Delhi,Delhi,"Major Dhyan Chand National Stadium, Delhi - DPCC",01-03-2026 08:00:00,28.611281,77.237738,NH3,13,17,15
India,Delhi,Delhi,"Major Dhyan Chand National Stadium, Delhi - DPCC",01-03-2026 08:00:00,28.611281,77.237738,SO2,17,26,22
India,Delhi,Delhi,"Mandir Marg, Delhi - DPCC",01-03-2026 08:00:00,28.636429,77.201067,NH3,10,13,11
India,Delhi,Delhi,"Mandir Marg, Delhi - DPCC",01-03-2026 08:00:00,28.636429,77.201067,SO2,4,31,14
India,Delhi,Delhi,"Mandir Marg, Delhi - DPCC",01-03-2026 08:00:00,28.636429,77.201067,CO,86,120,105
India,Delhi,Delhi,"Mandir Marg, Delhi - DPCC",01-03-2026 08:00:00,28.636429,77.201067,OZONE,6,97,7
India,Delhi,Delhi,"Mundka, Delhi - DPCC",01-03-2026 08:00:00,28.684678,77.076574,PM2.5,70,375,239
India,Delhi,Delhi,"NSIT Dwarka, Delhi - CPCB",01-03-2026 08:00:00,28.60909,77.0325413,NO2,92,169,106
India,Delhi,Delhi,"NSIT Dwarka, Delhi - CPCB",01-03-2026 08:00:00,28.60909,77.0325413,NH3,6,9,7
India,Delhi,Delhi,"NSIT Dwarka, Delhi - CPCB",01-03-2026 08:00:00,28.60909,77.0325413,CO,36,69,42
India,Delhi,Delhi,"Najafgarh, Delhi - DPCC",01-03-2026 08:00:00,28.570173,76.933762,NH3,11,13,12
India,Delhi,Delhi,"Najafgarh, Delhi - DPCC",01-03-2026 08:00:00,28.570173,76.933762,CO,6,115,60
India,Delhi,Delhi,"Najafgarh, Delhi - DPCC",01-03-2026 08:00:00,28.570173,76.933762,OZONE,4,146,6
India,Delhi,Delhi,"Narela, Delhi - DPCC",01-03-2026 08:00:00,28.822836,77.101981,NH3,5,7,5
India,Delhi,Delhi,"Narela, Delhi - DPCC",01-03-2026 08:00:00,28.822836,77.101981,CO,6,76,54
India,Delhi,Delhi,"Narela, Delhi - DPCC",01-03-2026 08:00:00,28.822836,77.101981,OZONE,2,107,14
India,Delhi,Delhi,"Nehru Nagar, Delhi - DPCC",01-03-2026 08:00:00,28.567890,77.250515,PM10,112,335,192
India,Delhi,Delhi,"North Campus, DU, Delhi - IMD",01-03-2026 08:00:00,28.6573814,77.1585447,PM10,115,395,204
India,Delhi,Delhi,"Okhla Phase-2, Delhi - DPCC",01-03-2026 08:00:00,28.530785,77.271255,CO,14,136,111
India,Delhi,Delhi,"Patparganj, Delhi - DPCC",01-03-2026 08:00:00,28.623763,77.287209,PM2.5,57,310,164
India,Delhi,Delhi,"Patparganj, Delhi - DPCC",01-03-2026 08:00:00,28.623763,77.287209,PM10,123,288,182
India,Chhattisgarh,Bhilai,"32Bungalows, Bhilai - CECB",01-03-2026 08:00:00,21.194815,81.314770,SO2,7,9,8
India,Chhattisgarh,Bhilai,"Civic Center, Bhilai - Bhilai Steel Plant",01-03-2026 08:00:00,21.185571,81.343175,PM2.5,13,70,36
India,Chhattisgarh,Bhilai,"Civic Center, Bhilai - Bhilai Steel Plant",01-03-2026 08:00:00,21.185571,81.343175,PM10,25,105,46
India,Chhattisgarh,Bhilai,"Civic Center, Bhilai - Bhilai Steel Plant",01-03-2026 08:00:00,21.185571,81.343175,NO2,11,11,11
India,Chhattisgarh,Bhilai,"Civic Center, Bhilai - Bhilai Steel Plant",01-03-2026 08:00:00,21.185571,81.343175,OZONE,8,13,11
India,Chhattisgarh,Bhilai,"Hathkhoj, Bhilai - CECB",01-03-2026 08:00:00,21.224231,81.408350,CO,16,104,60
India,Chhattisgarh,Chhal,"Nawapara SECL Colony, Chhal - CECB",01-03-2026 08:00:00,22.118125,83.140608,PM10,NA,NA,NA
India,Chhattisgarh,Chhal,"Nawapara SECL Colony, Chhal - CECB",01-03-2026 08:00:00,22.118125,83.140608,NO2,NA,NA,NA
India,Chhattisgarh,Chhal,"Nawapara SECL Colony, Chhal - CECB",01-03-2026 08:00:00,22.118125,83.140608,NH3,NA,NA,NA
India,Chhattisgarh,Korba,"Rampur, Korba - CECB",01-03-2026 08:00:00,22.368195,82.746431,NO2,10,53,24
India,Chhattisgarh,Korba,"Urja Nagar, Korba - CECB",01-03-2026 08:00:00,22.348441,82.549611,PM2.5,NA,NA,NA
India,Chhattisgarh,Korba,"Urja Nagar, Korba - CECB",01-03-2026 08:00:00,22.348441,82.549611,NO2,22,31,27
India,Chhattisgarh,Korba,"Urja Nagar, Korba - CECB",01-03-2026 08:00:00,22.348441,82.549611,CO,8,48,42
India,Chhattisgarh,Kunjemura,"OP Jindal School, Kunjemura - CECB",01-03-2026 08:00:00,22.126650,83.483212,NH3,2,2,2
India,Chhattisgarh,Milupara,"Govt. Higher Secondary School, Milupara - CECB",01-03-2026 08:00:00,22.1910172,83.5197009,PM10,40,197,91
India,Chhattisgarh,Raipur,"AIIMS, Raipur - CECB",01-03-2026 08:00:00,21.258815,81.578979,NH3,4,5,4
India,Chhattisgarh,Raipur,"Bhatagaon New ISBT, Raipur - CECB",01-03-2026 08:00:00,21.219665,81.630094,OZONE,NA,NA,NA
India,Delhi,Delhi,"Punjabi Bagh, Delhi - DPCC",01-03-2026 08:00:00,28.674045,77.131023,CO,41,110,64
India,Delhi,Delhi,"Pusa, Delhi - DPCC",01-03-2026 08:00:00,28.639652,77.146275,PM10,131,306,194
India,Delhi,Delhi,"Pusa, Delhi - DPCC",01-03-2026 08:00:00,28.639652,77.146275,NO2,44,167,92
India,Delhi,Delhi,"Rohini, Delhi - DPCC",01-03-2026 08:00:00,28.732528,77.119920,NO2,17,129,55
India,Delhi,Delhi,"Shadipur, Delhi - CPCB",01-03-2026 08:00:00,28.6514781,77.1473105,PM10,107,216,150
India,Delhi,Delhi,"Shadipur, Delhi - CPCB",01-03-2026 08:00:00,28.6514781,77.1473105,NH3,11,16,13
India,Delhi,Delhi,"Sirifort, Delhi - CPCB",01-03-2026 08:00:00,28.5504249,77.2159377,PM2.5,65,337,180
India,Delhi,Delhi,"IIT Delhi, Delhi - IITM",01-03-2026 08:00:00,28.542460,77.191651,OZONE,1,47,2
India,Delhi,Delhi,"Jahangirpuri, Delhi - DPCC",01-03-2026 08:00:00,28.732820,77.170633,NO2,91,144,108
India,Delhi,Delhi,"Jawaharlal Nehru Stadium, Delhi - DPCC",01-03-2026 08:00:00,28.580280,77.233829,PM2.5,52,304,153
India,Delhi,Delhi,"Jawaharlal Nehru Stadium, Delhi - DPCC",01-03-2026 08:00:00,28.580280,77.233829,PM10,107,361,188
India,Delhi,Delhi,"Jawaharlal Nehru Stadium, Delhi - DPCC",01-03-2026 08:00:00,28.580280,77.233829,NO2,30,143,91
India,Delhi,Delhi,"Ashok Vihar, Delhi - DPCC",01-03-2026 08:00:00,28.695381,77.181665,OZONE,7,128,13
India,Delhi,Delhi,"Aya Nagar, Delhi - IMD",01-03-2026 08:00:00,28.4706914,77.1099364,PM10,105,300,158
India,Delhi,Delhi,"Commonwealth Sports Complex, Delhi - DPCC",01-03-2026 08:00:00,28.615828 ,77.271992 ,NH3,1,4,2
India,Delhi,Delhi,"Commonwealth Sports Complex, Delhi - DPCC",01-03-2026 08:00:00,28.615828 ,77.271992 ,OZONE,1,153,2
India,Chhattisgarh,Raipur,"Siltara Phase-II, Raipur - CECB",01-03-2026 08:00:00,21.371751,81.664929,PM10,48,150,106
India,Chhattisgarh,Raipur,"Siltara Phase-II, Raipur - CECB",01-03-2026 08:00:00,21.371751,81.664929,CO,10,14,12
India,Chhattisgarh,Tumidih,"OP Jindal Industrial Park, Tumidih - CECB",01-03-2026 08:00:00,22.06631475,83.33820077,OZONE,3,95,7
India,Delhi,Delhi,"DTU, Delhi - CPCB",01-03-2026 08:00:00,28.7500499,77.1112615,PM2.5,57,326,183
India,Delhi,Delhi,"DTU, Delhi - CPCB",01-03-2026 08:00:00,28.7500499,77.1112615,OZONE,19,29,20
India,Delhi,Delhi,"IGNOU_Maidan Garhi, Delhi - DPCC",01-03-2026 08:00:00,28.493624 ,77.201159 ,NO2,1,1,1
India,Haryana,Manesar,"Sector-2 IMT, Manesar - HSPCB",01-03-2026 08:00:00,28.360699,76.936090,CO,11,44,31
India,Haryana,Palwal,"Shyam Nagar, Palwal - HSPCB",01-03-2026 08:00:00,28.1485564,77.3320667,SO2,6,13,10
India,Haryana,Panchgaon,"Amity University, Panchgaon - IITM",01-03-2026 08:00:00,28.3153,76.9143,NH3,3,17,9
India,Haryana,Panchkula,"Sector-6, Panchkula - HSPCB ",01-03-2026 08:00:00,30.7057778,76.8531805555555,CO,NA,NA,NA
India,Haryana,Sirsa,"F-Block, Sirsa - HSPCB",01-03-2026 08:00:00,29.536400,75.015800,PM10,NA,NA,NA
India,Haryana,Sirsa,"F-Block, Sirsa - HSPCB",01-03-2026 08:00:00,29.536400,75.015800,NO2,17,273,34
India,Haryana,Sirsa,"F-Block, Sirsa - HSPCB",01-03-2026 08:00:00,29.536400,75.015800,CO,35,100,64
India,Haryana,Sonipat,"Murthal, Sonipat - HSPCB",01-03-2026 08:00:00,29.027200,77.062100,PM10,NA,NA,NA
India,Delhi,Delhi,"Sri Aurobindo Marg, Delhi - DPCC",01-03-2026 08:00:00,28.531346,77.190156,PM2.5,57,250,114
India,Delhi,Delhi,"Talkatora Garden, Delhi - DPCC",01-03-2026 08:00:00,28.621810,77.1944633,PM10,100,193,143
India,Delhi,Delhi,"Talkatora Garden, Delhi - DPCC",01-03-2026 08:00:00,28.621810,77.1944633,OZONE,1,1,1
India,Delhi,Delhi,"Vivek Vihar, Delhi - DPCC",01-03-2026 08:00:00,28.672342,77.315260,OZONE,1,167,2
India,Delhi,Delhi,"Wazirpur, Delhi - DPCC",01-03-2026 08:00:00,28.699793,77.165453,NH3,9,76,16
India,Delhi,Delhi,"Wazirpur, Delhi - DPCC",01-03-2026 08:00:00,28.699793,77.165453,SO2,2,27,13
India,Gujarat,Ahmedabad,"Chandkheda, Ahmedabad - IITM",01-03-2026 08:00:00,23.107969,72.574648,PM10,87,149,113
India,Gujarat,Vapi,"Phase-1 GIDC, Vapi - GPCB",01-03-2026 08:00:00,20.362421,72.918013,PM10,53,89,66
India,Gujarat,Vatva,"Phase-4 GIDC, Vatva - GPCB",01-03-2026 08:00:00,22.969611,72.643500,PM2.5,56,320,148
India,Gujarat,Vatva,"Phase-4 GIDC, Vatva - GPCB",01-03-2026 08:00:00,22.969611,72.643500,PM10,51,222,146
India,Gujarat,Vatva,"Phase-4 GIDC, Vatva - GPCB",01-03-2026 08:00:00,22.969611,72.643500,OZONE,30,46,30
India,Haryana,Ambala,"Patti Mehar, Ambala - HSPCB",01-03-2026 08:00:00,30.379589,76.778328,NO2,7,12,10
India,Haryana,Bahadurgarh,"Arya Nagar, Bahadurgarh - HSPCB",01-03-2026 08:00:00,28.6701,76.9254,PM10,NA,NA,NA
India,Haryana,Bahadurgarh,"Arya Nagar, Bahadurgarh - HSPCB",01-03-2026 08:00:00,28.6701,76.9254,NO2,13,14,13
India,Haryana,Jind,"Police Lines, Jind - HSPCB",01-03-2026 08:00:00,29.307814,76.337619,PM10,80,137,107
India,Haryana,Jind,"Police Lines, Jind - HSPCB",01-03-2026 08:00:00,29.307814,76.337619,OZONE,11,24,13
India,Haryana,Kurukshetra,"Sector-7, Kurukshetra - HSPCB",01-03-2026 08:00:00,29.966942,76.875879,PM2.5,128,237,167
India,Haryana,Kurukshetra,"Sector-7, Kurukshetra - HSPCB",01-03-2026 08:00:00,29.966942,76.875879,NO2,3,6,4
India,Haryana,Kurukshetra,"Sector-7, Kurukshetra - HSPCB",01-03-2026 08:00:00,29.966942,76.875879,NH3,5,8,6
India,Haryana,Manesar,"Sector-2 IMT, Manesar - HSPCB",01-03-2026 08:00:00,28.360699,76.936090,NO2,34,41,38
India,Haryana,Manesar,"Sector-2 IMT, Manesar - HSPCB",01-03-2026 08:00:00,28.360699,76.936090,NH3,8,10,9
India,Gujarat,Mehsana,"Sadanand Nagar, Mehsana - Nexteng Enviro",01-03-2026 08:00:00,23.593150,72.372792,CO,111,121,113
India,Gujarat,Nandesari,"GIDC, Nandesari - Nandesari Ind. Association",01-03-2026 08:00:00,22.410802,73.097923,SO2,NA,NA,NA
India,Gujarat,Rajkot,"Mavdi, Rajkot - Nexteng Enviro ",01-03-2026 08:00:00,22.248853,70.776774,CO,111,113,112
India,Gujarat,Rajkot,"Mavdi, Rajkot - Nexteng Enviro ",01-03-2026 08:00:00,22.248853,70.776774,OZONE,9,29,13
India,Gujarat,Surat,"Science Center, Surat - SMC",01-03-2026 08:00:00,21.170046,72.795405,PM2.5,NA,NA,NA
India,Haryana,Faridabad,"Sector 30, Faridabad - HSPCB",01-03-2026 08:00:00,28.4417,77.3217,CO,20,64,61
India,Haryana,Fatehabad,"Huda Sector, Fatehabad - HSPCB",01-03-2026 08:00:00,29.503664,75.467934,PM2.5,10,25,15
India,Haryana,Gurugram,"Sector-51, Gurugram - HSPCB",01-03-2026 08:00:00,28.4227,77.0667,PM10,103,405,235
India,Haryana,Gurugram,"Teri Gram, Gurugram - HSPCB",01-03-2026 08:00:00,28.4275,77.1465,PM2.5,NA,NA,NA
India,Haryana,Gurugram,"Vikas Sadan, Gurugram - HSPCB",01-03-2026 08:00:00,28.4501238,77.0263051,PM10,NA,NA,NA
India,Haryana,Dharuhera,"Municipal Corporation Office, Dharuhera -  HSPCB",01-03-2026 08:00:00,28.206800,76.799700,NH3,10,30,21
India,Haryana,Dharuhera,"Municipal Corporation Office, Dharuhera -  HSPCB",01-03-2026 08:00:00,28.206800,76.799700,SO2,7,17,11
India,Haryana,Faridabad,"New Industrial Town, Faridabad - HSPCB",01-03-2026 08:00:00,28.39072,77.30059,NO2,24,26,25
India,Haryana,Faridabad,"New Industrial Town, Faridabad - HSPCB",01-03-2026 08:00:00,28.39072,77.30059,SO2,8,8,8
India,Haryana,Faridabad,"Sector 11, Faridabad - HSPCB",01-03-2026 08:00:00,28.376058,77.315741,PM2.5,63,440,293
India,Gujarat,Ahmedabad,"SAC ISRO Satellite, Ahmedabad - IITM",01-03-2026 08:00:00,23.023389,72.515201,CO,3,63,16
India,Gujarat,Ahmedabad,"SAC ISRO Satellite, Ahmedabad - IITM",01-03-2026 08:00:00,23.023389,72.515201,OZONE,1,39,11
India,Gujarat,Ankleshwar,"GIDC, Ankleshwar - GPCB",01-03-2026 08:00:00,21.613267,73.010555,OZONE,NA,NA,NA
India,Gujarat,Bhavnagar,"Vidhyanagar, Bhavnagar - Nexteng Enviro",01-03-2026 08:00:00,21.755417,72.139056,PM10,44,104,74
India,Gujarat,Bhavnagar,"Vidhyanagar, Bhavnagar - Nexteng Enviro",01-03-2026 08:00:00,21.755417,72.139056,NH3,3,8,6
India,Gujarat,Ahmedabad,"Maninagar, Ahmedabad - GPCB",01-03-2026 08:00:00,23.002657,72.591912,SO2,25,41,33
India,Gujarat,Ahmedabad,"Rakhial, Ahmedabad - IITM",01-03-2026 08:00:00,23.016834,72.625775,PM10,70,236,122
India,Gujarat,Ahmedabad,"SAC ISRO Bopal, Ahmedabad - IITM",01-03-2026 08:00:00,23.041137,72.456691,PM2.5,39,152,84
India,Gujarat,Ahmedabad,"SAC ISRO Bopal, Ahmedabad - IITM",01-03-2026 08:00:00,23.041137,72.456691,NH3,7,13,10
India,Haryana,Yamuna Nagar,"Gobind Pura, Yamuna Nagar - HSPCB",01-03-2026 08:00:00,30.1480566,77.2893471,PM10,117,431,165
India,Haryana,Yamuna Nagar,"Gobind Pura, Yamuna Nagar - HSPCB",01-03-2026 08:00:00,30.1480566,77.2893471,SO2,10,15,12
India,Haryana,Yamuna Nagar,"Gobind Pura, Yamuna Nagar - HSPCB",01-03-2026 08:00:00,30.1480566,77.2893471,CO,26,53,35
India,Himachal Pradesh,Baddi,"HIMUDA Complex Phase-1, Baddi - HPPCB",01-03-2026 08:00:00,30.943887,76.801991,PM10,94,246,147
India,Jammu_and_Kashmir,Srinagar,"Khunmoh, Srinagar - JKPCC",01-03-2026 08:00:00,34.06313,74.96017,PM2.5,12,24,19
India,Jammu_and_Kashmir,Srinagar,"Khunmoh, Srinagar - JKPCC",01-03-2026 08:00:00,34.06313,74.96017,NO2,7,37,17
India,Jammu_and_Kashmir,Srinagar,"Rajbagh, Srinagar - JKPCC",01-03-2026 08:00:00,34.066206,74.819820,PM2.5,16,33,24
India,Jammu_and_Kashmir,Srinagar,"Rajbagh, Srinagar - JKPCC",01-03-2026 08:00:00,34.066206,74.819820,OZONE,NA,NA,NA
India,Jharkhand,Dhanbad,"Sardar Patel Nagar, Dhanbad - JSPCB",01-03-2026 08:00:00,23.80569,86.44268,CO,2,82,8
India,Madhya Pradesh,Bhopal,"T T Nagar, Bhopal - MPPCB",01-03-2026 08:00:00,23.233584,77.400574,CO,27,105,30
India,Madhya Pradesh,Dewas,"Bhopal Chauraha, Dewas - MPPCB",01-03-2026 08:00:00,22.9682591,76.064118,PM10,70,178,104
India,Madhya Pradesh,Dewas,"Bhopal Chauraha, Dewas - MPPCB",01-03-2026 08:00:00,22.9682591,76.064118,SO2,12,61,32
India,Madhya Pradesh,Gwalior,"City Center, Gwalior - MPPCB",01-03-2026 08:00:00,26.203442,78.193251,SO2,4,14,10
India,Madhya Pradesh,Gwalior,"Deen Dayal Nagar, Gwalior - MPPCB",01-03-2026 08:00:00,26.259242,78.216432,CO,2,76,39
India,Madhya Pradesh,Gwalior,"Deen Dayal Nagar, Gwalior - MPPCB",01-03-2026 08:00:00,26.259242,78.216432,OZONE,31,123,52
India,Madhya Pradesh,Gwalior,"Maharaj Bada, Gwalior - MPPCB",01-03-2026 08:00:00,26.200388,78.147714,PM2.5,35,160,74
India,Madhya Pradesh,Gwalior,"Maharaj Bada, Gwalior - MPPCB",01-03-2026 08:00:00,26.200388,78.147714,SO2,6,11,8
India,Madhya Pradesh,Indore,"Airport Area, Indore - IMC",01-03-2026 08:00:00,22.7289,75.8076,OZONE,NA,NA,NA
India,Karnataka,Bengaluru,"Bapuji Nagar, Bengaluru - KSPCB",01-03-2026 08:00:00,12.951913,77.539784,NH3,3,4,3
India,Karnataka,Bengaluru,"Hebbal, Bengaluru - KSPCB",01-03-2026 08:00:00,13.029152,77.585901,PM2.5,72,205,120
India,Karnataka,Bengaluru,"Hombegowda Nagar, Bengaluru - KSPCB",01-03-2026 08:00:00,12.938539,77.590100,CO,6,70,37
India,Karnataka,Bengaluru,"Jayanagar 5th Block, Bengaluru - KSPCB",01-03-2026 08:00:00,12.920984,77.584908,PM2.5,87,194,121
India,Karnataka,Bengaluru,"Jayanagar 5th Block, Bengaluru - KSPCB",01-03-2026 08:00:00,12.920984,77.584908,SO2,1,13,7
India,Karnataka,Bengaluru,"Jayanagar 5th Block, Bengaluru - KSPCB",01-03-2026 08:00:00,12.920984,77.584908,CO,13,54,17
India,Karnataka,Bengaluru,"Jigani, Bengaluru - KSPCB",01-03-2026 08:00:00,12.7816279,77.6299145,PM2.5,41,90,66
India,Karnataka,Bengaluru,"Jigani, Bengaluru - KSPCB",01-03-2026 08:00:00,12.7816279,77.6299145,SO2,19,20,20
India,Karnataka,Bengaluru,"Jigani, Bengaluru - KSPCB",01-03-2026 08:00:00,12.7816279,77.6299145,CO,42,44,43
India,Karnataka,Bengaluru,"Peenya, Bengaluru - CPCB",01-03-2026 08:00:00,13.0270199,77.494094,NH3,3,5,4
India,Karnataka,Ramanagara,"Vijay Nagar, Ramanagara - KSPCB",01-03-2026 08:00:00,12.733409,77.298051,OZONE,22,60,25
India,Karnataka,Vijayapura,"Ibrahimpur, Vijayapura - KSPCB",01-03-2026 08:00:00,16.802639,75.722694,NH3,1,2,1
India,Karnataka,Vijayapura,"Ibrahimpur, Vijayapura - KSPCB",01-03-2026 08:00:00,16.802639,75.722694,CO,14,34,20
India,Karnataka,Yadgir,"Collector Office, Yadgir - KSPCB",01-03-2026 08:00:00,16.7602,77.1428,PM2.5,47,107,80
India,Karnataka,Yadgir,"Collector Office, Yadgir - KSPCB",01-03-2026 08:00:00,16.7602,77.1428,SO2,6,17,11
India,Karnataka,Yadgir,"Collector Office, Yadgir - KSPCB",01-03-2026 08:00:00,16.7602,77.1428,CO,16,31,26
India,Kerala,Kannur,"Thavakkara, Kannur - Kerala PCB",01-03-2026 08:00:00,11.875000,75.373200,PM10,75,96,90
India,Kerala,Kannur,"Thavakkara, Kannur - Kerala PCB",01-03-2026 08:00:00,11.875000,75.373200,NO2,14,16,15
India,Kerala,Kollam,"Polayathode, Kollam - Kerala PCB",01-03-2026 08:00:00,8.8787,76.6073,PM2.5,NA,NA,NA
India,Kerala,Thiruvananthapuram,"Kariavattom, Thiruvananthapuram - Kerala PCB",01-03-2026 08:00:00,8.563700,76.886500,SO2,1,14,5
India,Kerala,Thiruvananthapuram,"Plammoodu, Thiruvananthapuram - Kerala PCB",01-03-2026 08:00:00,8.5149093,76.9435879,SO2,10,24,18
India,Kerala,Thrissur,"Corporation Ground, Thrissur - Kerala PCB",01-03-2026 08:00:00,10.532400,76.215900,PM10,62,80,72
India,Kerala,Thrissur,"Corporation Ground, Thrissur - Kerala PCB",01-03-2026 08:00:00,10.532400,76.215900,NO2,6,8,7
India,Madhya Pradesh,Bhopal,"Paryavaran Parisar, Bhopal - MPPCB",01-03-2026 08:00:00,23.210494,77.425409,PM2.5,20,120,45
India,Madhya Pradesh,Bhopal,"Paryavaran Parisar, Bhopal - MPPCB",01-03-2026 08:00:00,23.210494,77.425409,PM10,48,153,84
India,Madhya Pradesh,Bhopal,"Paryavaran Parisar, Bhopal - MPPCB",01-03-2026 08:00:00,23.210494,77.425409,NO2,11,65,28
India,Madhya Pradesh,Bhopal,"T T Nagar, Bhopal - MPPCB",01-03-2026 08:00:00,23.233584,77.400574,PM10,53,164,88
India,Madhya Pradesh,Indore,"Chhoti Gwaltoli, Indore - MPPCB",01-03-2026 08:00:00,22.4310,75.5213,NH3,7,24,20
India,Madhya Pradesh,Indore,"Regional Park, Indore - IMC",01-03-2026 08:00:00,22.6780,75.8559,PM2.5,21,130,57
India,Madhya Pradesh,Indore,"Regional Park, Indore - IMC",01-03-2026 08:00:00,22.6780,75.8559,PM10,18,87,43
India,Madhya Pradesh,Indore,"Regional Park, Indore - IMC",01-03-2026 08:00:00,22.6780,75.8559,NO2,15,24,20
India,Madhya Pradesh,Indore,"Regional Park, Indore - IMC",01-03-2026 08:00:00,22.6780,75.8559,NH3,1,4,2
India,Madhya Pradesh,Indore,"Residency Area, Indore - IMC",01-03-2026 08:00:00,22.7084,75.8815,PM2.5,25,140,63
India,Madhya Pradesh,Indore,"Residency Area, Indore - IMC",01-03-2026 08:00:00,22.7084,75.8815,PM10,26,125,67
India,Madhya Pradesh,Jabalpur,"Govindh Bhavan Colony, Jabalpur - JMC",01-03-2026 08:00:00,23.163174,79.973061,PM2.5,55,103,77
India,Madhya Pradesh,Jabalpur,"Marhatal, Jabalpur - MPPCB",01-03-2026 08:00:00,23.168606,79.932247,NO2,26,35,29
India,Madhya Pradesh,Jabalpur,"Marhatal, Jabalpur - MPPCB",01-03-2026 08:00:00,23.168606,79.932247,OZONE,30,62,31
India,Madhya Pradesh,Jabalpur,"Suhagi, Jabalpur - JMC",01-03-2026 08:00:00,23.218135,79.957770,PM2.5,38,140,82
India,Madhya Pradesh,Katni,"Gole Bazar, Katni - MPPCB",01-03-2026 08:00:00,23.50016,80.23284,NH3,4,8,6
India,Madhya Pradesh,Mandideep,"Sector-D Industrial Area, Mandideep - MPPCB",01-03-2026 08:00:00,23.108440,77.511428,PM10,59,128,91
India,Madhya Pradesh,Ratlam,"Shasthri Nagar, Ratlam - IPCA Lab",01-03-2026 08:00:00,23.331731,75.045981,SO2,33,36,34
India,Karnataka,Chikkamagaluru,"Kalyana Nagara, Chikkamagaluru - KSPCB",01-03-2026 08:00:00,13.328028,75.797056,PM2.5,NA,NA,NA
India,Karnataka,Chikkamagaluru,"Kalyana Nagara, Chikkamagaluru - KSPCB",01-03-2026 08:00:00,13.328028,75.797056,NH3,NA,NA,NA
India,Karnataka,Kalaburagi,"Mahatma Basaveswar Colony, Kalaburgi - KSPCB",01-03-2026 08:00:00,17.336318,76.847397,CO,44,97,52
India,Karnataka,Mysuru,"Hebbal 1st Stage, Mysuru - KSPCB",01-03-2026 08:00:00,12.21041,76.37376,PM2.5,20,58,35
India,Karnataka,Mysuru,"Hebbal 1st Stage, Mysuru - KSPCB",01-03-2026 08:00:00,12.21041,76.37376,PM10,46,107,79
India,Karnataka,Mysuru,"Hebbal 1st Stage, Mysuru - KSPCB",01-03-2026 08:00:00,12.21041,76.37376,NH3,4,5,5
India,Karnataka,Mysuru,"Hebbal 1st Stage, Mysuru - KSPCB",01-03-2026 08:00:00,12.21041,76.37376,SO2,2,4,3
India,Karnataka,Bengaluru,"Silk Board, Bengaluru - KSPCB",01-03-2026 08:00:00,12.917348,77.622813,SO2,3,16,7
India,Karnataka,Bengaluru,"Silk Board, Bengaluru - KSPCB",01-03-2026 08:00:00,12.917348,77.622813,OZONE,21,90,35
India,Karnataka,Chikkaballapur,"Chikkaballapur Rural, Chikkaballapur - KSPCB",01-03-2026 08:00:00,13.428828,77.731418,PM10,55,101,81
India,Maharashtra,Aurangabad,"Rachnakar Colony, Aurangabad - MPCB",01-03-2026 08:00:00,19.863756,75.321188,PM10,30,164,89
India,Maharashtra,Aurangabad,"Rachnakar Colony, Aurangabad - MPCB",01-03-2026 08:00:00,19.863756,75.321188,OZONE,13,85,15
India,Maharashtra,Badlapur,"Katrap, Badlapur - MPCB",01-03-2026 08:00:00,19.16485,73.23409,CO,16,36,32
India,Maharashtra,Badlapur,"Katrap, Badlapur - MPCB",01-03-2026 08:00:00,19.16485,73.23409,OZONE,12,80,14
India,Maharashtra,Belapur,"CBD Belapur, Belapur - MPCB",01-03-2026 08:00:00,19.0243902,73.0406721,NO2,41,58,47
India,Maharashtra,Belapur,"CBD Belapur, Belapur - MPCB",01-03-2026 08:00:00,19.0243902,73.0406721,OZONE,1,50,7
India,Maharashtra,Bhiwandi,"Gokul Nagar, Bhiwandi - MPCB",01-03-2026 08:00:00,19.309073,73.057223,NO2,15,37,26
India,Maharashtra,Bhiwandi,"Gokul Nagar, Bhiwandi - MPCB",01-03-2026 08:00:00,19.309073,73.057223,OZONE,13,85,15
India,Maharashtra,Boisar,"Khaira, Boisar - MPCB",01-03-2026 08:00:00,19.786089,72.757971,PM2.5,25,62,39
India,Maharashtra,Boisar,"Khaira, Boisar - MPCB",01-03-2026 08:00:00,19.786089,72.757971,NO2,13,38,23
India,Maharashtra,Boisar,"Khaira, Boisar - MPCB",01-03-2026 08:00:00,19.786089,72.757971,SO2,1,89,17
India,Maharashtra,Chandrapur,"Chauhan Colony, Chandrapur - MPCB",01-03-2026 08:00:00,19.962900,79.298714,PM2.5,43,99,66
