country,state,city,station,last_update,latitude,longitude,pollutant_id,min_value,max_value,avg_value
India,Assam,Byrnihat,"Central Academy for SFS, Byrnihat - PCBA",09-09-2025 07:00:00,26.071318,91.87488,NO2,NA,NA,NA
India,Assam,Byrnihat,"Central Academy for SFS, Byrnihat - PCBA",09-09-2025 07:00:00,26.071318,91.87488,CO,31,70,48
India,Assam,Guwahati,"IITG, Guwahati - PCBA",09-09-2025 07:00:00,26.2028636,91.70046436,NH3,5,5,5
India,Assam,Guwahati,"LGBI Airport, Guwahati - PCBA",09-09-2025 07:00:00,26.10887,91.589544,PM10,16,306,70
India,Assam,Guwahati,"Pan Bazaar, Guwahati - PCBA",09-09-2025 07:00:00,26.187500,91.744194,PM2.5,14,51,29
India,Assam,Guwahati,"Pan Bazaar, Guwahati - PCBA",09-09-2025 07:00:00,26.187500,91.744194,CO,8,38,25
India,Assam,Guwahati,"Pan Bazaar, Guwahati - PCBA",09-09-2025 07:00:00,26.187500,91.744194,OZONE,18,18,18
India,Assam,Guwahati,"Railway Colony, Guwahati - PCBA",09-09-2025 07:00:00,26.181742,91.78063,PM10,32,135,69
India,Assam,Guwahati,"Railway Colony, Guwahati - PCBA",09-09-2025 07:00:00,26.181742,91.78063,NO2,3,3,3
India,Andhra_Pradesh,Vijayawada,"HB Colony, Vijayawada - APPCB",09-09-2025 07:00:00,16.536107,80.594233,NH3,5,5,5
India,Andhra_Pradesh,Vijayawada,"Rajiv Gandhi Park, Vijayawada - APPCB",09-09-2025 07:00:00,16.509717,80.612222,PM2.5,38,83,57
India,Andhra_Pradesh,Vijayawada,"Rajiv Gandhi Park, Vijayawada - APPCB",09-09-2025 07:00:00,16.509717,80.612222,NH3,4,5,5
India,Andhra_Pradesh,Vijayawada,"Rajiv Gandhi Park, Vijayawada - APPCB",09-09-2025 07:00:00,16.509717,80.612222,OZONE,24,42,29
India,Andhra_Pradesh,Visakhapatnam,"GVM Corporation, Visakhapatnam - APPCB",09-09-2025 07:00:00,17.72,83.3,SO2,1,16,8
India,Assam,Byrnihat,"Central Academy for SFS, Byrnihat - PCBA",09-09-2025 07:00:00,26.071318,91.87488,PM2.5,NA,NA,NA
India,Bihar,Buxar,"Charitra Van, Buxar - BSPCB",09-09-2025 07:00:00,25.567520,83.966379,PM10,68,72,71
India,Bihar,Chhapra,"Darshan Nagar, Chhapra - BSPCB",09-09-2025 07:00:00,25.7808257,84.7446768,PM10,1,199,131
India,Bihar,Chhapra,"Darshan Nagar, Chhapra - BSPCB",09-09-2025 07:00:00,25.7808257,84.7446768,SO2,9,9,9
India,Bihar,Gaya,"Collectorate, Gaya - BSPCB",09-09-2025 07:00:00,24.7955,84.9994,PM2.5,42,186,71
India,Bihar,Gaya,"Kareemganj, Gaya - BSPCB",09-09-2025 07:00:00,24.792403,84.992416,PM2.5,23,88,49
India,Bihar,Gaya,"Kareemganj, Gaya - BSPCB",09-09-2025 07:00:00,24.792403,84.992416,NH3,4,6,5
India,Bihar,Gaya,"Kareemganj, Gaya - BSPCB",09-09-2025 07:00:00,24.792403,84.992416,OZONE,3,73,26
India,Assam,Sivasagar,"Girls College, Sivasagar - PCBA",09-09-2025 07:00:00,26.987634,94.636574,CO,8,28,22
India,Bihar,Araria,"Kharahiya Basti, Araria - BSPCB",09-09-2025 07:00:00,26.146529,87.454184,SO2,5,22,13
India,Bihar,Aurangabad,"Gurdeo Nagar, Aurangabad - BSPCB",09-09-2025 07:00:00,24.75746,84.366208,PM2.5,15,417,134
India,Bihar,Aurangabad,"Gurdeo Nagar, Aurangabad - BSPCB",09-09-2025 07:00:00,24.75746,84.366208,SO2,6,26,12
India,Bihar,Begusarai,"Lohiyanagar, Begusarai - BSPCB",09-09-2025 07:00:00,25.42742023,86.13886079,PM10,24,64,45
India,Bihar,Begusarai,"Lohiyanagar, Begusarai - BSPCB",09-09-2025 07:00:00,25.42742023,86.13886079,NO2,8,22,15
India,Andhra_Pradesh,Kadapa,"Yerramukkapalli, Kadapa - APPCB",09-09-2025 07:00:00,14.465052,78.824187,NO2,NA,NA,NA
India,Andhra_Pradesh,Kadapa,"Yerramukkapalli, Kadapa - APPCB",09-09-2025 07:00:00,14.465052,78.824187,SO2,NA,NA,NA
India,Andhra_Pradesh,Tirumala,"Toll Gate, Tirumala - APPCB",09-09-2025 07:00:00,13.67,79.35,NO2,11,22,17
India,Andhra_Pradesh,Tirumala,"Toll Gate, Tirumala - APPCB",09-09-2025 07:00:00,13.67,79.35,CO,13,88,25
India,Andhra_Pradesh,Tirupati,"Vaikuntapuram, Tirupati - APPCB",09-09-2025 07:00:00,13.615387,79.409230,PM10,54,82,69
India,Andhra_Pradesh,Tirupati,"Vaikuntapuram, Tirupati - APPCB",09-09-2025 07:00:00,13.615387,79.409230,SO2,27,28,27
India,Andhra_Pradesh,Vijayawada,"HB Colony, Vijayawada - APPCB",09-09-2025 07:00:00,16.536107,80.594233,PM2.5,57,76,66
India,Assam,Nagaon,"Christianpatty, Nagaon - PCBA",09-09-2025 07:00:00,26.349082,92.68449,PM10,29,49,38
India,Assam,Nagaon,"Christianpatty, Nagaon - PCBA",09-09-2025 07:00:00,26.349082,92.68449,NH3,3,4,4
India,Assam,Nagaon,"Christianpatty, Nagaon - PCBA",09-09-2025 07:00:00,26.349082,92.68449,SO2,7,18,12
India,Assam,Silchar,"Tarapur, Silchar - PCBA",09-09-2025 07:00:00,24.82827,92.79525,NH3,1,1,1
India,Assam,Sivasagar,"Girls College, Sivasagar - PCBA",09-09-2025 07:00:00,26.987634,94.636574,NH3,3,5,4
India,Bihar,Bhagalpur,"DM Office_Kachari Chowk, Bhagalpur - BSPCB",09-09-2025 07:00:00,25.251013,86.989001,SO2,42,65,52
India,Bihar,Bihar Sharif,"D M Colony, Bihar Sharif - BSPCB",09-09-2025 07:00:00,25.204762,85.514960,NO2,9,10,9
India,Bihar,Bihar Sharif,"D M Colony, Bihar Sharif - BSPCB",09-09-2025 07:00:00,25.204762,85.514960,NH3,2,3,2
India,Bihar,Bihar Sharif,"D M Colony, Bihar Sharif - BSPCB",09-09-2025 07:00:00,25.204762,85.514960,CO,NA,NA,NA
India,Bihar,Hajipur,"Industrial Area, Hajipur - BSPCB",09-09-2025 07:00:00,25.697189,85.245900,PM10,31,59,44
India,Bihar,Hajipur,"Industrial Area, Hajipur - BSPCB",09-09-2025 07:00:00,25.697189,85.245900,NO2,27,38,32
India,Bihar,Hajipur,"Industrial Area, Hajipur - BSPCB",09-09-2025 07:00:00,25.697189,85.245900,NH3,5,8,6
India,Bihar,Katihar,"Mirchaibari, Katihar - BSPCB",09-09-2025 07:00:00,25.560083,87.553265,NO2,12,15,14
India,Andhra_Pradesh,Amaravati,"Secretariat, Amaravati - APPCB",09-09-2025 07:00:00,16.5150833,80.5181667,PM2.5,14,37,23
India,Andhra_Pradesh,Anantapur,"Gulzarpet, Anantapur - APPCB",09-09-2025 07:00:00,14.675886,77.593027,PM10,47,68,55
India,Andhra_Pradesh,Anantapur,"Gulzarpet, Anantapur - APPCB",09-09-2025 07:00:00,14.675886,77.593027,NO2,18,25,19
India,Andaman and Nicobar,Sri Vijaya Puram,"Police Line, Sri Vijaya Puram - ANPCC",09-09-2025 07:00:00,11.654054,92.734055,NH3,NA,NA,NA
India,Chhattisgarh,Chhal,"Nawapara SECL Colony, Chhal - CECB",09-09-2025 07:00:00,22.118125,83.140608,SO2,5,79,17
India,Chhattisgarh,Korba,"Rampur, Korba - CECB",09-09-2025 07:00:00,22.368195,82.746431,NO2,3,21,8
India,Chhattisgarh,Korba,"Rampur, Korba - CECB",09-09-2025 07:00:00,22.368195,82.746431,CO,12,18,14
India,Chhattisgarh,Kunjemura,"OP Jindal School, Kunjemura - CECB",09-09-2025 07:00:00,22.126650,83.483212,PM10,21,105,63
India,Chhattisgarh,Kunjemura,"OP Jindal School, Kunjemura - CECB",09-09-2025 07:00:00,22.126650,83.483212,OZONE,3,9,7
India,Chhattisgarh,Milupara,"Govt. Higher Secondary School, Milupara - CECB",09-09-2025 07:00:00,22.1910172,83.5197009,NH3,NA,NA,NA
India,Chhattisgarh,Milupara,"Govt. Higher Secondary School, Milupara - CECB",09-09-2025 07:00:00,22.1910172,83.5197009,CO,14,20,20
India,Bihar,Muzaffarpur,"MIT-Daudpur Kothi, Muzaffarpur - BSPCB",09-09-2025 07:00:00,26.1403345,85.3650192,OZONE,23,36,34
India,Bihar,Muzaffarpur,"Muzaffarpur Collectorate, Muzaffarpur - BSPCB",09-09-2025 07:00:00,26.1209,85.3647,PM2.5,28,60,36
India,Bihar,Muzaffarpur,"Muzaffarpur Collectorate, Muzaffarpur - BSPCB",09-09-2025 07:00:00,26.1209,85.3647,NO2,11,18,12
India,Bihar,Muzaffarpur,"Muzaffarpur Collectorate, Muzaffarpur - BSPCB",09-09-2025 07:00:00,26.1209,85.3647,OZONE,12,67,15
India,Bihar,Patna,"DRM Office Danapur, Patna - BSPCB",09-09-2025 07:00:00,25.586562,85.043586,CO,20,68,40
India,Bihar,Patna,"DRM Office Danapur, Patna - BSPCB",09-09-2025 07:00:00,25.586562,85.043586,OZONE,24,59,50
India,Bihar,Patna,"Govt. High School Shikarpur, Patna - BSPCB",09-09-2025 07:00:00,25.592539,85.227158,OZONE,9,12,10
India,Bihar,Siwan,"Chitragupta Nagar, Siwan - BSPCB",09-09-2025 07:00:00,26.2271665,84.3570427,NO2,1,1,1
India,Bihar,Siwan,"Chitragupta Nagar, Siwan - BSPCB",09-09-2025 07:00:00,26.2271665,84.3570427,NH3,1,1,1
India,Bihar,Siwan,"Chitragupta Nagar, Siwan - BSPCB",09-09-2025 07:00:00,26.2271665,84.3570427,SO2,7,10,9
India,Chandigarh,Chandigarh,"Sector 22, Chandigarh - CPCC",09-09-2025 07:00:00,30.735567,76.775714,CO,37,84,61
India,Chandigarh,Chandigarh,"Sector-25, Chandigarh - CPCC",09-09-2025 07:00:00,30.751462,76.762879,PM10,10,91,57
India,Chandigarh,Chandigarh,"Sector-25, Chandigarh - CPCC",09-09-2025 07:00:00,30.751462,76.762879,SO2,NA,NA,NA
India,Chhattisgarh,Bhilai,"32Bungalows, Bhilai - CECB",09-09-2025 07:00:00,21.194815,81.314770,PM2.5,6,36,14
India,Bihar,Patna,"Muradpur, Patna - BSPCB",09-09-2025 07:00:00,25.619651,85.147382,CO,30,64,49
India,Bihar,Patna,"Rajbansi Nagar, Patna - BSPCB",09-09-2025 07:00:00,25.599486,85.113666,PM2.5,25,77,49
India,Bihar,Patna,"Rajbansi Nagar, Patna - BSPCB",09-09-2025 07:00:00,25.599486,85.113666,NH3,1,2,2
India,Bihar,Patna,"Samanpura, Patna - BSPCB",09-09-2025 07:00:00,25.596727,85.085624,NH3,6,7,6
India,Bihar,Patna,"Samanpura, Patna - BSPCB",09-09-2025 07:00:00,25.596727,85.085624,SO2,1,1,1
India,Bihar,Purnia,"Mariam Nagar, Purnia - BSPCB",09-09-2025 07:00:00,25.366336,87.117468,OZONE,16,49,36
India,Chhattisgarh,Raipur,"Bhatagaon New ISBT, Raipur - CECB",09-09-2025 07:00:00,21.219665,81.630094,CO,14,86,23
India,Chhattisgarh,Raipur,"Krishak Nagar, Raipur - CECB",09-09-2025 07:00:00,21.237755,81.705301,PM2.5,9,60,31
India,Chhattisgarh,Raipur,"Siltara Phase-II, Raipur - CECB",09-09-2025 07:00:00,21.371751,81.664929,SO2,2,12,8
India,Chhattisgarh,Tumidih,"OP Jindal Industrial Park, Tumidih - CECB",09-09-2025 07:00:00,22.06631475,83.33820077,PM2.5,39,165,84
India,Bihar,Rajgir,"Dangi Tola, Rajgir - BSPCB",09-09-2025 07:00:00,25.03280,85.41948,PM10,33,101,68
India,Bihar,Rajgir,"Dangi Tola, Rajgir - BSPCB",09-09-2025 07:00:00,25.03280,85.41948,NO2,8,10,9
India,Bihar,Saharsa,"Police Line, Saharsa - BSPCB",09-09-2025 07:00:00,25.892357,86.590325,PM2.5,NA,NA,NA
India,Bihar,Samastipur,"DM Office_Kasipur, Samastipur - BSPCB",09-09-2025 07:00:00,25.859655,85.77944,CO,2,131,60
India,Bihar,Samastipur,"DM Office_Kasipur, Samastipur - BSPCB",09-09-2025 07:00:00,25.859655,85.77944,OZONE,7,11,9
India,Bihar,Motihari,"Gandak Colony, Motihari - BSPCB",09-09-2025 07:00:00,26.63086,84.90051,NH3,3,3,3
India,Bihar,Motihari,"Gandak Colony, Motihari - BSPCB",09-09-2025 07:00:00,26.63086,84.90051,OZONE,2,5,2
India,Bihar,Muzaffarpur,"Buddha Colony, Muzaffarpur - BSPCB",09-09-2025 07:00:00,26.11442,85.39813,PM10,37,64,50
India,Bihar,Muzaffarpur,"Buddha Colony, Muzaffarpur - BSPCB",09-09-2025 07:00:00,26.11442,85.39813,NH3,3,6,5
India,Bihar,Muzaffarpur,"MIT-Daudpur Kothi, Muzaffarpur - BSPCB",09-09-2025 07:00:00,26.1403345,85.3650192,CO,35,80,79
India,Chhattisgarh,Raipur,"AIIMS, Raipur - CECB",09-09-2025 07:00:00,21.258815,81.578979,NO2,7,15,9
India,Chhattisgarh,Raipur,"Bhatagaon New ISBT, Raipur - CECB",09-09-2025 07:00:00,21.219665,81.630094,PM10,13,121,56
India,Chhattisgarh,Raipur,"Bhatagaon New ISBT, Raipur - CECB",09-09-2025 07:00:00,21.219665,81.630094,NO2,6,24,12
India,Chhattisgarh,Bhilai,"32Bungalows, Bhilai - CECB",09-09-2025 07:00:00,21.194815,81.314770,NO2,7,42,17
India,Chhattisgarh,Bhilai,"32Bungalows, Bhilai - CECB",09-09-2025 07:00:00,21.194815,81.314770,SO2,5,9,6
India,Delhi,Delhi,"Punjabi Bagh, Delhi - DPCC",09-09-2025 07:00:00,28.674045,77.131023,PM10,33,294,110
India,Delhi,Delhi,"Punjabi Bagh, Delhi - DPCC",09-09-2025 07:00:00,28.674045,77.131023,SO2,7,9,8
India,Delhi,Delhi,"Pusa, Delhi - DPCC",09-09-2025 07:00:00,28.639652,77.146275,PM10,36,131,83
India,Delhi,Delhi,"Pusa, Delhi - DPCC",09-09-2025 07:00:00,28.639652,77.146275,CO,26,102,61
India,Delhi,Delhi,"Pusa, Delhi - IMD",09-09-2025 07:00:00,28.636110,77.173332,CO,88,115,108
India,Delhi,Delhi,"R K Puram, Delhi - DPCC",09-09-2025 07:00:00,28.563262,77.186937,NH3,2,4,3
India,Delhi,Delhi,"R K Puram, Delhi - DPCC",09-09-2025 07:00:00,28.563262,77.186937,CO,27,115,61
India,Delhi,Delhi,"Rohini, Delhi - DPCC",09-09-2025 07:00:00,28.732528,77.119920,PM2.5,12,177,54
India,Delhi,Delhi,"Rohini, Delhi - DPCC",09-09-2025 07:00:00,28.732528,77.119920,NH3,4,7,5
India,Delhi,Delhi,"DTU, Delhi - CPCB",09-09-2025 07:00:00,28.7500499,77.1112615,SO2,26,30,27
India,Delhi,Delhi,"Dr. Karni Singh Shooting Range, Delhi - DPCC",09-09-2025 07:00:00,28.498571,77.264840,OZONE,8,51,13
India,Delhi,Delhi,"Dwarka-Sector 8, Delhi - DPCC ",09-09-2025 07:00:00,28.5710274,77.0719006,PM2.5,20,93,47
India,Delhi,Delhi,"Dwarka-Sector 8, Delhi - DPCC ",09-09-2025 07:00:00,28.5710274,77.0719006,SO2,8,14,12
India,Delhi,Delhi,"Dwarka-Sector 8, Delhi - DPCC ",09-09-2025 07:00:00,28.5710274,77.0719006,OZONE,4,46,7
India,Delhi,Delhi,"IGI Airport (T3), Delhi - IMD",09-09-2025 07:00:00,28.5627763,77.1180053,PM2.5,16,71,38
India,Delhi,Delhi,"Major Dhyan Chand National Stadium, Delhi - DPCC",09-09-2025 07:00:00,28.611281,77.237738,NO2,15,80,41
India,Delhi,Delhi,"Major Dhyan Chand National Stadium, Delhi - DPCC",09-09-2025 07:00:00,28.611281,77.237738,NH3,12,14,14
India,Delhi,Delhi,"Major Dhyan Chand National Stadium, Delhi - DPCC",09-09-2025 07:00:00,28.611281,77.237738,SO2,3,14,7
India,Delhi,Delhi,"Mandir Marg, Delhi - DPCC",09-09-2025 07:00:00,28.636429,77.201067,PM2.5,NA,NA,NA
India,Delhi,Delhi,"Mandir Marg, Delhi - DPCC",09-09-2025 07:00:00,28.636429,77.201067,PM10,12,105,62
India,Delhi,Delhi,"Mandir Marg, Delhi - DPCC",09-09-2025 07:00:00,28.636429,77.201067,SO2,2,17,6
India,Delhi,Delhi,"Mundka, Delhi - DPCC",09-09-2025 07:00:00,28.684678,77.076574,PM2.5,5,83,45
India,Delhi,Delhi,"Nehru Nagar, Delhi - DPCC",09-09-2025 07:00:00,28.567890,77.250515,NO2,16,40,25
India,Delhi,Delhi,"Nehru Nagar, Delhi - DPCC",09-09-2025 07:00:00,28.567890,77.250515,NH3,3,5,4
India,Delhi,Delhi,"North Campus, DU, Delhi - IMD",09-09-2025 07:00:00,28.6573814,77.1585447,PM2.5,18,358,113
India,Delhi,Delhi,"North Campus, DU, Delhi - IMD",09-09-2025 07:00:00,28.6573814,77.1585447,CO,2,117,82
India,Delhi,Delhi,"Okhla Phase-2, Delhi - DPCC",09-09-2025 07:00:00,28.530785,77.271255,NH3,4,6,5
India,Delhi,Delhi,"Okhla Phase-2, Delhi - DPCC",09-09-2025 07:00:00,28.530785,77.271255,SO2,4,8,6
India,Delhi,Delhi,"ITO, Delhi - CPCB",09-09-2025 07:00:00,28.628624,77.241060,NO2,82,103,91
India,Delhi,Delhi,"ITO, Delhi - CPCB",09-09-2025 07:00:00,28.628624,77.241060,NH3,5,7,6
India,Delhi,Delhi,"Jahangirpuri, Delhi - DPCC",09-09-2025 07:00:00,28.732820,77.170633,PM2.5,70,334,178
India,Delhi,Delhi,"Jahangirpuri, Delhi - DPCC",09-09-2025 07:00:00,28.732820,77.170633,PM10,34,425,143
India,Delhi,Delhi,"Jawaharlal Nehru Stadium, Delhi - DPCC",09-09-2025 07:00:00,28.580280,77.233829,PM10,28,112,73
India,Delhi,Delhi,"Jawaharlal Nehru Stadium, Delhi - DPCC",09-09-2025 07:00:00,28.580280,77.233829,OZONE,6,19,7
India,Delhi,Delhi,"Mundka, Delhi - DPCC",09-09-2025 07:00:00,28.684678,77.076574,SO2,6,10,8
India,Delhi,Delhi,"Mundka, Delhi - DPCC",09-09-2025 07:00:00,28.684678,77.076574,OZONE,1,77,4
India,Delhi,Delhi,"NSIT Dwarka, Delhi - CPCB",09-09-2025 07:00:00,28.60909,77.0325413,NH3,5,7,6
India,Delhi,Delhi,"Najafgarh, Delhi - DPCC",09-09-2025 07:00:00,28.570173,76.933762,PM2.5,5,50,22
India,Delhi,Delhi,"Najafgarh, Delhi - DPCC",09-09-2025 07:00:00,28.570173,76.933762,OZONE,4,30,6
India,Chhattisgarh,Tumidih,"OP Jindal Industrial Park, Tumidih - CECB",09-09-2025 07:00:00,22.06631475,83.33820077,SO2,5,10,6
India,Chhattisgarh,Tumidih,"OP Jindal Industrial Park, Tumidih - CECB",09-09-2025 07:00:00,22.06631475,83.33820077,OZONE,5,39,7
India,Delhi,Delhi,"Ashok Vihar, Delhi - DPCC",09-09-2025 07:00:00,28.695381,77.181665,NH3,4,6,5
India,Delhi,Delhi,"Ashok Vihar, Delhi - DPCC",09-09-2025 07:00:00,28.695381,77.181665,SO2,7,14,10
India,Delhi,Delhi,"Bawana, Delhi - DPCC",09-09-2025 07:00:00,28.776200,77.051074,NH3,2,9,4
India,Delhi,Delhi,"CRRI Mathura Road, Delhi - IMD",09-09-2025 07:00:00,28.5512005,77.2735737,PM10,44,130,99
India,Delhi,Delhi,"CRRI Mathura Road, Delhi - IMD",09-09-2025 07:00:00,28.5512005,77.2735737,NO2,18,94,38
India,Delhi,Delhi,"Chandni Chowk, Delhi - IITM",09-09-2025 07:00:00,28.656756,77.227234,NH3,7,19,12
India,Delhi,Delhi,"Patparganj, Delhi - DPCC",09-09-2025 07:00:00,28.623763,77.287209,PM10,48,217,110
India,Delhi,Delhi,"Patparganj, Delhi - DPCC",09-09-2025 07:00:00,28.623763,77.287209,SO2,9,12,10
India,Haryana,Panchgaon,"Amity University, Panchgaon - IITM",09-09-2025 07:00:00,28.3153,76.9143,PM10,NA,NA,NA
India,Haryana,Panchgaon,"Amity University, Panchgaon - IITM",09-09-2025 07:00:00,28.3153,76.9143,NO2,NA,NA,NA
India,Himachal Pradesh,Baddi,"HIMUDA Complex Phase-1, Baddi - HPPCB",09-09-2025 07:00:00,30.943887,76.801991,PM2.5,25,170,69
India,Jharkhand,Dhanbad,"Sardar Patel Nagar, Dhanbad - JSPCB",09-09-2025 07:00:00,23.80569,86.44268,PM2.5,2,40,14
India,Jharkhand,Dhanbad,"Sardar Patel Nagar, Dhanbad - JSPCB",09-09-2025 07:00:00,23.80569,86.44268,NO2,64,73,66
India,Jharkhand,Dhanbad,"Sardar Patel Nagar, Dhanbad - JSPCB",09-09-2025 07:00:00,23.80569,86.44268,OZONE,NA,NA,NA
India,Jharkhand,Jorapokhar,"Tata Stadium, Jorapokhar - JSPCB",09-09-2025 07:00:00,23.707909,86.414670,SO2,4,4,4
India,Jharkhand,Jorapokhar,"Tata Stadium, Jorapokhar - JSPCB",09-09-2025 07:00:00,23.707909,86.414670,OZONE,1,19,4
India,Karnataka,Bagalkot,"Vidayagiri, Bagalkot - KSPCB",09-09-2025 07:00:00,16.172806,75.659694,PM2.5,33,34,34
India,Karnataka,Bagalkot,"Vidayagiri, Bagalkot - KSPCB",09-09-2025 07:00:00,16.172806,75.659694,NO2,9,10,9
India,Karnataka,Bagalkot,"Vidayagiri, Bagalkot - KSPCB",09-09-2025 07:00:00,16.172806,75.659694,NH3,1,2,1
India,Karnataka,Bagalkot,"Vidayagiri, Bagalkot - KSPCB",09-09-2025 07:00:00,16.172806,75.659694,OZONE,12,17,16
India,Delhi,Delhi,"Vivek Vihar, Delhi - DPCC",09-09-2025 07:00:00,28.672342,77.315260,PM10,33,248,110
India,Delhi,Delhi,"Vivek Vihar, Delhi - DPCC",09-09-2025 07:00:00,28.672342,77.315260,NH3,1,3,1
India,Delhi,Delhi,"Vivek Vihar, Delhi - DPCC",09-09-2025 07:00:00,28.672342,77.315260,OZONE,1,14,4
India,Delhi,Delhi,"Wazirpur, Delhi - DPCC",09-09-2025 07:00:00,28.699793,77.165453,PM10,104,329,180
India,Gujarat,Ahmedabad,"Chandkheda, Ahmedabad - IITM",09-09-2025 07:00:00,23.107969,72.574648,NO2,1,10,5
India,Gujarat,Ahmedabad,"Chandkheda, Ahmedabad - IITM",09-09-2025 07:00:00,23.107969,72.574648,SO2,4,14,9
India,Gujarat,Ahmedabad,"Gyaspur, Ahmedabad - IITM",09-09-2025 07:00:00,22.977134,72.553024,NO2,45,161,96
India,Gujarat,Ahmedabad,"Gyaspur, Ahmedabad - IITM",09-09-2025 07:00:00,22.977134,72.553024,CO,16,54,52
India,Gujarat,Ahmedabad,"Maninagar, Ahmedabad - GPCB",09-09-2025 07:00:00,23.002657,72.591912,PM10,39,65,54
India,Gujarat,Gandhinagar,"Sector-10, Gandhinagar - GPCB",09-09-2025 07:00:00,23.221714,72.654328,PM10,9,51,22
India,Gujarat,Nandesari,"GIDC, Nandesari - Nandesari Ind. Association",09-09-2025 07:00:00,22.410802,73.097923,PM2.5,NA,NA,NA
India,Gujarat,Nandesari,"GIDC, Nandesari - Nandesari Ind. Association",09-09-2025 07:00:00,22.410802,73.097923,NO2,NA,NA,NA
India,Gujarat,Surat,"Science Center, Surat - SMC",09-09-2025 07:00:00,21.170046,72.795405,PM10,NA,NA,NA
India,Gujarat,Vapi,"Phase-1 GIDC, Vapi - GPCB",09-09-2025 07:00:00,20.362421,72.918013,PM10,49,140,87
India,Gujarat,Vapi,"Phase-1 GIDC, Vapi - GPCB",09-09-2025 07:00:00,20.362421,72.918013,OZONE,2,2,2
India,Haryana,Gurugram,"NISE Gwal Pahari, Gurugram - IMD",09-09-2025 07:00:00,28.422681,77.148944,PM10,25,82,47
India,Haryana,Gurugram,"NISE Gwal Pahari, Gurugram - IMD",09-09-2025 07:00:00,28.422681,77.148944,CO,40,52,49
India,Karnataka,Bengaluru,"Hombegowda Nagar, Bengaluru - KSPCB",09-09-2025 07:00:00,12.938539,77.590100,CO,1,43,13
India,Karnataka,Bengaluru,"Jayanagar 5th Block, Bengaluru - KSPCB",09-09-2025 07:00:00,12.920984,77.584908,PM10,27,83,48
India,Karnataka,Bengaluru,"Jayanagar 5th Block, Bengaluru - KSPCB",09-09-2025 07:00:00,12.920984,77.584908,SO2,1,8,4
India,Karnataka,Bengaluru,"Jigani, Bengaluru - KSPCB",09-09-2025 07:00:00,12.7816279,77.6299145,PM2.5,35,47,41
India,Karnataka,Bengaluru,"Jigani, Bengaluru - KSPCB",09-09-2025 07:00:00,12.7816279,77.6299145,NO2,20,30,24
India,Karnataka,Bengaluru,"RVCE-Mailasandra, Bengaluru - KSPCB",09-09-2025 07:00:00,12.921418,77.502466,NO2,30,32,31
India,Karnataka,Bengaluru,"RVCE-Mailasandra, Bengaluru - KSPCB",09-09-2025 07:00:00,12.921418,77.502466,NH3,5,5,5
India,Karnataka,Bengaluru,"Shivapura_Peenya, Bengaluru - KSPCB",09-09-2025 07:00:00,13.0246342,77.5080115,PM10,46,92,65
India,Karnataka,Bengaluru,"Shivapura_Peenya, Bengaluru - KSPCB",09-09-2025 07:00:00,13.0246342,77.5080115,OZONE,23,25,24
India,Karnataka,Bengaluru,"Silk Board, Bengaluru - KSPCB",09-09-2025 07:00:00,12.917348,77.622813,NH3,1,2,2
India,Karnataka,Bengaluru,"Silk Board, Bengaluru - KSPCB",09-09-2025 07:00:00,12.917348,77.622813,SO2,9,16,13
India,Karnataka,Bengaluru,"Silk Board, Bengaluru - KSPCB",09-09-2025 07:00:00,12.917348,77.622813,CO,30,61,34
India,Karnataka,Chamarajanagar,"Urban, Chamarajanagar - KSPCB",09-09-2025 07:00:00,11.55358,76.55521,NH3,1,3,2
India,Karnataka,Chamarajanagar,"Urban, Chamarajanagar - KSPCB",09-09-2025 07:00:00,11.55358,76.55521,SO2,2,8,4
India,Karnataka,Chikkaballapur,"Chikkaballapur Rural, Chikkaballapur - KSPCB",09-09-2025 07:00:00,13.428828,77.731418,PM10,14,83,36
India,Karnataka,Chikkaballapur,"Chikkaballapur Rural, Chikkaballapur - KSPCB",09-09-2025 07:00:00,13.428828,77.731418,SO2,8,19,14
India,Delhi,Delhi,"Shadipur, Delhi - CPCB",09-09-2025 07:00:00,28.6514781,77.1473105,PM2.5,45,325,118
India,Delhi,Delhi,"Shadipur, Delhi - CPCB",09-09-2025 07:00:00,28.6514781,77.1473105,PM10,30,169,72
India,Delhi,Delhi,"Shadipur, Delhi - CPCB",09-09-2025 07:00:00,28.6514781,77.1473105,NO2,61,129,83
India,Delhi,Delhi,"Sirifort, Delhi - CPCB",09-09-2025 07:00:00,28.5504249,77.2159377,CO,16,89,63
India,Delhi,Delhi,"Sonia Vihar, Delhi - DPCC",09-09-2025 07:00:00,28.710508,77.249485,PM10,28,213,104
India,Delhi,Delhi,"Sonia Vihar, Delhi - DPCC",09-09-2025 07:00:00,28.710508,77.249485,NH3,8,11,9
India,Delhi,Delhi,"Vivek Vihar, Delhi - DPCC",09-09-2025 07:00:00,28.672342,77.315260,PM2.5,7,140,58
India,Gujarat,Ahmedabad,"Raikhad, Ahmedabad - IITM",09-09-2025 07:00:00,23.020509,72.579261,PM2.5,35,69,51
India,Gujarat,Ahmedabad,"Rakhial, Ahmedabad - IITM",09-09-2025 07:00:00,23.016834,72.625775,NO2,NA,NA,NA
India,Gujarat,Ahmedabad,"Rakhial, Ahmedabad - IITM",09-09-2025 07:00:00,23.016834,72.625775,NH3,NA,NA,NA
India,Gujarat,Ahmedabad,"Rakhial, Ahmedabad - IITM",09-09-2025 07:00:00,23.016834,72.625775,CO,NA,NA,NA
India,Gujarat,Ahmedabad,"Rakhial, Ahmedabad - IITM",09-09-2025 07:00:00,23.016834,72.625775,OZONE,NA,NA,NA
India,Gujarat,Ahmedabad,"SAC ISRO Bopal, Ahmedabad - IITM",09-09-2025 07:00:00,23.041137,72.456691,NH3,2,4,3
India,Gujarat,Ahmedabad,"SAC ISRO Satellite, Ahmedabad - IITM",09-09-2025 07:00:00,23.023389,72.515201,PM2.5,29,46,40
India,Gujarat,Ahmedabad,"SAC ISRO Satellite, Ahmedabad - IITM",09-09-2025 07:00:00,23.023389,72.515201,CO,34,66,42
India,Gujarat,Ankleshwar,"GIDC, Ankleshwar - GPCB",09-09-2025 07:00:00,21.613267,73.010555,SO2,60,75,72
India,Gujarat,Gandhinagar,"GIFT City, Gandhinagar - IITM",09-09-2025 07:00:00,23.163798,72.677768,OZONE,1,10,2
India,Karnataka,Bengaluru,"BTM Layout, Bengaluru - CPCB",09-09-2025 07:00:00,12.9135218,77.5950804,OZONE,20,21,21
India,Karnataka,Bengaluru,"Bapuji Nagar, Bengaluru - KSPCB",09-09-2025 07:00:00,12.951913,77.539784,NO2,4,14,7
India,Karnataka,Bengaluru,"Hebbal, Bengaluru - KSPCB",09-09-2025 07:00:00,13.029152,77.585901,PM2.5,NA,NA,NA
India,Madhya Pradesh,Indore,"Chhoti Gwaltoli, Indore - MPPCB",09-09-2025 07:00:00,22.4310,75.5213,PM10,64,188,113
India,Madhya Pradesh,Indore,"Chhoti Gwaltoli, Indore - MPPCB",09-09-2025 07:00:00,22.4310,75.5213,OZONE,9,37,11
India,Madhya Pradesh,Indore,"Maguda Nagar, Indore - IMC",09-09-2025 07:00:00,22.7524,75.8872,NH3,NA,NA,NA
India,Madhya Pradesh,Indore,"Maguda Nagar, Indore - IMC",09-09-2025 07:00:00,22.7524,75.8872,SO2,35,42,39
India,Madhya Pradesh,Indore,"Maguda Nagar, Indore - IMC",09-09-2025 07:00:00,22.7524,75.8872,CO,18,26,25
India,Madhya Pradesh,Indore,"Regional Park, Indore - IMC",09-09-2025 07:00:00,22.6780,75.8559,NH3,NA,NA,NA
India,Madhya Pradesh,Indore,"Residency Area, Indore - IMC",09-09-2025 07:00:00,22.7084,75.8815,PM2.5,21,96,41
India,Madhya Pradesh,Indore,"Residency Area, Indore - IMC",09-09-2025 07:00:00,22.7084,75.8815,CO,12,18,16
India,Madhya Pradesh,Indore,"Residency Area, Indore - IMC",09-09-2025 07:00:00,22.7084,75.8815,OZONE,9,12,11
India,Madhya Pradesh,Jabalpur,"Govindh Bhavan Colony, Jabalpur - JMC",09-09-2025 07:00:00,23.163174,79.973061,PM2.5,7,28,18
India,Madhya Pradesh,Jabalpur,"Govindh Bhavan Colony, Jabalpur - JMC",09-09-2025 07:00:00,23.163174,79.973061,PM10,16,32,24
India,Karnataka,Koppal,"Diwator Nagar, Koppal - KSPCB",09-09-2025 07:00:00,15.347630,76.181767,PM2.5,NA,NA,NA
India,Karnataka,Madikeri,"Stuart Hill, Madikeri - KSPCB",09-09-2025 07:00:00,12.415911,75.735050,SO2,7,7,7
India,Karnataka,Mangalore,"Kadri, Mangalore - KSPCB",09-09-2025 07:00:00,12.889250,74.853000,PM2.5,16,36,29
India,Karnataka,Mangalore,"Kadri, Mangalore - KSPCB",09-09-2025 07:00:00,12.889250,74.853000,OZONE,4,36,24
India,Karnataka,Mysuru,"Hebbal 1st Stage, Mysuru - KSPCB",09-09-2025 07:00:00,12.21041,76.37376,PM10,31,84,59
India,Karnataka,Ramanagara,"Vijay Nagar, Ramanagara - KSPCB",09-09-2025 07:00:00,12.733409,77.298051,PM10,NA,NA,NA
India,Karnataka,Shivamogga,"Vinoba Nagara, Shivamogga - KSPCB",09-09-2025 07:00:00,13.940000,75.555917,SO2,3,6,4
India,Karnataka,Tumakuru,"Thimmalapura, Tumakuru - KSPCB",09-09-2025 07:00:00,13.377516,77.099072,PM2.5,NA,NA,NA
India,Karnataka,Tumakuru,"Thimmalapura, Tumakuru - KSPCB",09-09-2025 07:00:00,13.377516,77.099072,NH3,NA,NA,NA
India,Karnataka,Vijayapura,"Ibrahimpur, Vijayapura - KSPCB",09-09-2025 07:00:00,16.802639,75.722694,CO,6,119,34
India,Karnataka,Yadgir,"Collector Office, Yadgir - KSPCB",09-09-2025 07:00:00,16.7602,77.1428,PM2.5,4,31,17
India,Karnataka,Yadgir,"Collector Office, Yadgir - KSPCB",09-09-2025 07:00:00,16.7602,77.1428,PM10,16,82,46
India,Kerala,Eloor,"Udyogamandal, Eloor - Kerala PCB",09-09-2025 07:00:00,10.073232,76.302765,SO2,1,1,1
India,Kerala,Kollam,"Polayathode, Kollam - Kerala PCB",09-09-2025 07:00:00,8.8787,76.6073,PM10,42,64,55
India,Kerala,Kollam,"Polayathode, Kollam - Kerala PCB",09-09-2025 07:00:00,8.8787,76.6073,SO2,2,3,2
India,Kerala,Kollam,"Polayathode, Kollam - Kerala PCB",09-09-2025 07:00:00,8.8787,76.6073,OZONE,30,35,31
India,Kerala,Thiruvananthapuram,"Kariavattom, Thiruvananthapuram - Kerala PCB",09-09-2025 07:00:00,8.563700,76.886500,NH3,NA,NA,NA
India,Kerala,Thiruvananthapuram,"Plammoodu, Thiruvananthapuram - Kerala PCB",09-09-2025 07:00:00,8.5149093,76.9435879,PM10,3,127,42
India,Madhya Pradesh,Bhopal,"Idgah Hills, Bhopal - MPPCB",09-09-2025 07:00:00,23.264759,77.381568,SO2,9,11,10
India,Madhya Pradesh,Bhopal,"Paryavaran Parisar, Bhopal - MPPCB",09-09-2025 07:00:00,23.210494,77.425409,PM2.5,17,57,31
India,Madhya Pradesh,Bhopal,"Paryavaran Parisar, Bhopal - MPPCB",09-09-2025 07:00:00,23.210494,77.425409,PM10,28,82,52
India,Madhya Pradesh,Bhopal,"T T Nagar, Bhopal - MPPCB",09-09-2025 07:00:00,23.233584,77.400574,PM2.5,24,52,34
India,Madhya Pradesh,Bhopal,"T T Nagar, Bhopal - MPPCB",09-09-2025 07:00:00,23.233584,77.400574,CO,12,60,25
India,Madhya Pradesh,Damoh,"Shrivastav Colony, Damoh - MPPCB",09-09-2025 07:00:00,23.81748678,79.446246,PM2.5,1,18,7
India,Madhya Pradesh,Jabalpur,"Govindh Bhavan Colony, Jabalpur - JMC",09-09-2025 07:00:00,23.163174,79.973061,CO,24,32,32
India,Madhya Pradesh,Jabalpur,"Gupteshwar, Jabalpur - JMC",09-09-2025 07:00:00,23.142888,79.916147,PM10,NA,NA,NA
India,Madhya Pradesh,Jabalpur,"Gupteshwar, Jabalpur - JMC",09-09-2025 07:00:00,23.142888,79.916147,CO,36,102,47
India,Madhya Pradesh,Jabalpur,"Suhagi, Jabalpur - JMC",09-09-2025 07:00:00,23.218135,79.957770,SO2,6,10,8
India,Madhya Pradesh,Katni,"Gole Bazar, Katni - MPPCB",09-09-2025 07:00:00,23.50016,80.23284,PM10,32,83,53
India,Madhya Pradesh,Katni,"Gole Bazar, Katni - MPPCB",09-09-2025 07:00:00,23.50016,80.23284,NH3,3,3,3
India,Madhya Pradesh,Dewas,"Bhopal Chauraha, Dewas - MPPCB",09-09-2025 07:00:00,22.9682591,76.064118,CO,6,55,18
India,Madhya Pradesh,Gwalior,"Deen Dayal Nagar, Gwalior - MPPCB",09-09-2025 07:00:00,26.259242,78.216432,NH3,2,5,4
India,Madhya Pradesh,Gwalior,"Maharaj Bada, Gwalior - MPPCB",09-09-2025 07:00:00,26.200388,78.147714,PM2.5,12,47,29
India,Madhya Pradesh,Gwalior,"Maharaj Bada, Gwalior - MPPCB",09-09-2025 07:00:00,26.200388,78.147714,NO2,14,20,17
India,Madhya Pradesh,Indore,"Airport Area, Indore - IMC",09-09-2025 07:00:00,22.7289,75.8076,SO2,24,28,26
India,Karnataka,Hubballi,"Lingaraj Nagar, Hubballi - KSPCB",09-09-2025 07:00:00,15.3714823,75.1160168,CO,6,18,9
India,Karnataka,Kalaburagi,"Lal Bahadur Shastri Nagar, Kalaburagi - KSPCB",09-09-2025 07:00:00,17.321993,76.822628,PM2.5,NA,NA,NA
India,Karnataka,Kalaburagi,"Lal Bahadur Shastri Nagar, Kalaburagi - KSPCB",09-09-2025 07:00:00,17.321993,76.822628,OZONE,20,34,34
India,Karnataka,Chikkamagaluru,"Kalyana Nagara, Chikkamagaluru - KSPCB",09-09-2025 07:00:00,13.328028,75.797056,PM10,20,41,37
India,Karnataka,Dharwad,"Kalabhavan, Dharwad - KSPCB",09-09-2025 07:00:00,15.459706,75.008381,CO,26,72,38
India,Karnataka,Dharwad,"Kalabhavan, Dharwad - KSPCB",09-09-2025 07:00:00,15.459706,75.008381,OZONE,11,19,14
India,Maharashtra,Chandrapur,"Chauhan Colony, Chandrapur - MPCB",09-09-2025 07:00:00,19.962900,79.298714,PM10,7,500,60
India,Maharashtra,Dhule,"Deopur, Dhule - MPCB",09-09-2025 07:00:00,20.918946,74.776388,PM2.5,19,51,32
India,Maharashtra,Dhule,"Deopur, Dhule - MPCB",09-09-2025 07:00:00,20.918946,74.776388,NH3,2,4,3
India,Maharashtra,Dhule,"Deopur, Dhule - MPCB",09-09-2025 07:00:00,20.918946,74.776388,SO2,4,10,8
India,Maharashtra,Jalgaon,"Prabhat Colony, Jalgaon - MPCB",09-09-2025 07:00:00,21.001264,75.565602,PM2.5,20,41,31
India,Maharashtra,Jalgaon,"Prabhat Colony, Jalgaon - MPCB",09-09-2025 07:00:00,21.001264,75.565602,NO2,4,19,7
India,Maharashtra,Jalgaon,"Prabhat Colony, Jalgaon - MPCB",09-09-2025 07:00:00,21.001264,75.565602,NH3,2,3,2
India,Maharashtra,Jalgaon,"Prabhat Colony, Jalgaon - MPCB",09-09-2025 07:00:00,21.001264,75.565602,SO2,2,11,5
India,Maharashtra,Jalgaon,"Prabhat Colony, Jalgaon - MPCB",09-09-2025 07:00:00,21.001264,75.565602,CO,4,24,7
India,Maharashtra,Jalna,"Old MIDC, Jalna - MPCB",09-09-2025 07:00:00,19.854616,75.905894,PM2.5,15,30,20
India,Madhya Pradesh,Pithampur,"Sector-2 Industrial Area, Pithampur - MPPCB",09-09-2025 07:00:00,22.624758,75.675238,NH3,3,4,3
India,Madhya Pradesh,Pithampur,"Sector-2 Industrial Area, Pithampur - MPPCB",09-09-2025 07:00:00,22.624758,75.675238,CO,16,25,21
India,Madhya Pradesh,Ratlam,"Shasthri Nagar, Ratlam - IPCA Lab",09-09-2025 07:00:00,23.331731,75.045981,PM2.5,2,198,41
India,Madhya Pradesh,Ratlam,"Shasthri Nagar, Ratlam - IPCA Lab",09-09-2025 07:00:00,23.331731,75.045981,PM10,29,167,67
India,Madhya Pradesh,Satna,"Bandhavgar Colony, Satna - Birla Cement",09-09-2025 07:00:00,24.58434363,80.8549414,SO2,19,19,19
India,Madhya Pradesh,Singrauli,"Suryakiran Bhawan NCL, Singrauli - MPPCB",09-09-2025 07:00:00,24.108970,82.645580,PM2.5,NA,NA,NA
India,Maharashtra,Mumbai,"Bandra Kurla Complex, Mumbai - MPCB",09-09-2025 07:00:00,19.065931,72.862131,PM10,30,83,62
India,Maharashtra,Mumbai,"Borivali East, Mumbai - MPCB",09-09-2025 07:00:00,19.2243333,72.8658113,OZONE,5,9,6
India,Maharashtra,Mumbai,"Byculla, Mumbai - BMC",09-09-2025 07:00:00,18.9767,72.8380,PM2.5,32,45,38
India,Maharashtra,Mumbai,"Chakala-Andheri East, Mumbai - IITM",09-09-2025 07:00:00,19.11074,72.86084,PM2.5,13,38,28
India,Maharashtra,Mumbai,"Chakala-Andheri East, Mumbai - IITM",09-09-2025 07:00:00,19.11074,72.86084,NH3,NA,NA,NA
India,Maharashtra,Amravati,"Shri Shivaji Science College, Amravati - MPCB",09-09-2025 07:00:00,20.939198,77.765701,NO2,1,19,9
India,Maharashtra,Amravati,"Shri Shivaji Science College, Amravati - MPCB",09-09-2025 07:00:00,20.939198,77.765701,CO,20,48,30
India,Maharashtra,Aurangabad,"MIDC Chilkalthana, Aurangabad - MPCB",09-09-2025 07:00:00,19.875620,75.387310,SO2,NA,NA,NA
India,Maharashtra,Aurangabad,"More Chowk Waluj, Aurangabad - MPCB",09-09-2025 07:00:00,19.8389439,75.244448,PM10,22,64,40
India,Maharashtra,Aurangabad,"More Chowk Waluj, Aurangabad - MPCB",09-09-2025 07:00:00,19.8389439,75.244448,OZONE,52,59,55
India,Maharashtra,Ahmednagar,"Tarakpur, Ahmednagar - MPCB",09-09-2025 07:00:00,19.10122,74.73339,PM10,44,111,62
India,Maharashtra,Ahmednagar,"Tarakpur, Ahmednagar - MPCB",09-09-2025 07:00:00,19.10122,74.73339,CO,4,49,11
India,Maharashtra,Akola,"Ramdaspeth, Akola - MPCB",09-09-2025 07:00:00,20.719516,77.000253,PM10,18,60,34
India,Maharashtra,Akola,"Ramdaspeth, Akola - MPCB",09-09-2025 07:00:00,20.719516,77.000253,SO2,4,19,10
India,Maharashtra,Amravati,"Shivneri Colony, Amravati - MPCB",09-09-2025 07:00:00,20.9402359,77.7895248,CO,12,30,16
India,Maharashtra,Jalna,"Old MIDC, Jalna - MPCB",09-09-2025 07:00:00,19.854616,75.905894,NH3,2,5,4
India,Maharashtra,Kalyan,"Khadakpada, Kalyan - MPCB",09-09-2025 07:00:00,19.25292,73.142019,CO,10,16,14
India,Maharashtra,Kolhapur,"Shivaji University, Kolhapur - MPCB",09-09-2025 07:00:00,16.6870449,74.2505872,NO2,4,26,12
India,Maharashtra,Latur,"Sawe Wadi, Latur - MPCB",09-09-2025 07:00:00,18.39963,76.57452,NO2,5,63,24
India,Maharashtra,Mahad,"Kamble Tarf Birwadi, Mahad - MPCB",09-09-2025 07:00:00,18.1023399,73.4783687,PM10,1,81,34
India,Maharashtra,Mahad,"Kamble Tarf Birwadi, Mahad - MPCB",09-09-2025 07:00:00,18.1023399,73.4783687,OZONE,14,39,31
India,Maharashtra,Malegaon,"Mahesh Nagar, Malegaon - MPCB",09-09-2025 07:00:00,20.555712,74.529236,PM10,43,96,71
India,Maharashtra,Mira-Bhayandar,"Bhayandar West, Mira-Bhayandar - MPCB",09-09-2025 07:00:00,19.296481,72.840923,NO2,1,112,24
India,Maharashtra,Belapur,"CBD Belapur, Belapur - MPCB",09-09-2025 07:00:00,19.0243902,73.0406721,NO2,5,16,10
India,Maharashtra,Bhiwandi,"Gokul Nagar, Bhiwandi - MPCB",09-09-2025 07:00:00,19.309073,73.057223,PM2.5,23,67,53
India,Maharashtra,Bhiwandi,"Gokul Nagar, Bhiwandi - MPCB",09-09-2025 07:00:00,19.309073,73.057223,OZONE,13,39,16
India,Maharashtra,Boisar,"Khaira, Boisar - MPCB",09-09-2025 07:00:00,19.786089,72.757971,NO2,4,14,7
India,Maharashtra,Mumbai,"Chembur, Mumbai - MPCB",09-09-2025 07:00:00,19.0364585,72.8954371,CO,14,69,23
India,Maharashtra,Mumbai,"Chhatrapati Shivaji Intl. Airport (T2), Mumbai - MPCB",09-09-2025 07:00:00,19.10078,72.87462,PM2.5,31,41,38
India,Maharashtra,Mumbai,"Mindspace-Malad West, Mumbai - MPCB",09-09-2025 07:00:00,19.1878657,72.8304069,OZONE,29,31,30
India,Maharashtra,Mumbai,"Mulund West, Mumbai - MPCB",09-09-2025 07:00:00,19.1750,72.9419,PM10,NA,NA,NA
India,Maharashtra,Mumbai,"Mulund West, Mumbai - MPCB",09-09-2025 07:00:00,19.1750,72.9419,SO2,NA,NA,NA
India,Maharashtra,Mumbai,"Navy Nagar-Colaba, Mumbai - IITM",09-09-2025 07:00:00,18.897756,72.813320,NO2,8,49,28
India,Maharashtra,Mumbai,"Navy Nagar-Colaba, Mumbai - IITM",09-09-2025 07:00:00,18.897756,72.813320,SO2,8,14,9
India,Maharashtra,Mumbai,"Sewri, Mumbai - BMC",09-09-2025 07:00:00,19.000084,72.856730,NO2,1,11,3
India,Maharashtra,Mumbai,"Shivaji Nagar, Mumbai - BMC",09-09-2025 07:00:00,19.060498,72.923356,SO2,12,14,13
India,Maharashtra,Mumbai,"Siddharth Nagar-Worli, Mumbai - IITM",09-09-2025 07:00:00,19.000083,72.813993,PM10,28,74,53
India,Maharashtra,Mumbai,"Siddharth Nagar-Worli, Mumbai - IITM",09-09-2025 07:00:00,19.000083,72.813993,OZONE,1,16,2
India,Maharashtra,Mumbai,"Khindipada-Bhandup West, Mumbai - IITM",09-09-2025 07:00:00,19.1653323,72.922099,CO,11,26,16
India,Maharashtra,Mumbai,"Khindipada-Bhandup West, Mumbai - IITM",09-09-2025 07:00:00,19.1653323,72.922099,OZONE,2,25,10
India,Maharashtra,Mumbai,"Kurla, Mumbai - MPCB",09-09-2025 07:00:00,19.0863,72.8888,PM10,55,96,75
India,Maharashtra,Mumbai,"Malad West, Mumbai - IITM",09-09-2025 07:00:00,19.19709,72.82204,SO2,4,8,5
India,Maharashtra,Mumbai,"Malad West, Mumbai - IITM",09-09-2025 07:00:00,19.19709,72.82204,CO,35,84,60
India,Maharashtra,Mumbai,"Mazgaon, Mumbai - IITM",09-09-2025 07:00:00,18.96702,72.84214,PM10,8,120,41
India,Maharashtra,Mumbai,"Mazgaon, Mumbai - IITM",09-09-2025 07:00:00,18.96702,72.84214,SO2,1,12,3
India,Maharashtra,Mumbai,"Mazgaon, Mumbai - IITM",09-09-2025 07:00:00,18.96702,72.84214,CO,2,90,80
India,Maharashtra,Mumbai,"Mindspace-Malad West, Mumbai - MPCB",09-09-2025 07:00:00,19.1878657,72.8304069,NO2,15,16,15
India,Maharashtra,Nashik,"MIDC Ambad, Nashik - MPCB",09-09-2025 07:00:00,19.950220,73.731480,PM10,49,102,78
India,Maharashtra,Nashik,"MIDC Ambad, Nashik - MPCB",09-09-2025 07:00:00,19.950220,73.731480,SO2,1,8,4
India,Maharashtra,Nashik,"MIDC Ambad, Nashik - MPCB",09-09-2025 07:00:00,19.950220,73.731480,CO,9,16,14
India,Maharashtra,Nashik,"Pandav Nagari, Nashik - MPCB",09-09-2025 07:00:00,19.9591346,73.7788008,OZONE,4,29,10
India,Maharashtra,Navi Mumbai,"Kopripada-Vashi, Navi Mumbai - MPCB",09-09-2025 07:00:00,19.090337,73.014232,PM10,12,35,26
India,Maharashtra,Navi Mumbai,"Kopripada-Vashi, Navi Mumbai - MPCB",09-09-2025 07:00:00,19.090337,73.014232,SO2,14,18,15
India,Maharashtra,Navi Mumbai,"Mahape, Navi Mumbai - MPCB",09-09-2025 07:00:00,19.1135051,73.008978,CO,8,48,15
India,Maharashtra,Parbhani,"Masoom Colony, Parbhani - MPCB",09-09-2025 07:00:00,19.265594,76.761463,SO2,NA,NA,NA
India,Maharashtra,Pimpri-Chinchwad,"Gavalinagar, Pimpri Chinchwad - MPCB",09-09-2025 07:00:00,18.63673,73.82487,OZONE,NA,NA,NA
India,Maharashtra,Pimpri-Chinchwad,"Park Street Wakad, Pimpri Chinchwad - MPCB",09-09-2025 07:00:00,18.59051,73.77946,PM2.5,11,41,26
India,Maharashtra,Pimpri-Chinchwad,"Park Street Wakad, Pimpri Chinchwad - MPCB",09-09-2025 07:00:00,18.59051,73.77946,PM10,27,67,48
India,Maharashtra,Pimpri-Chinchwad,"Park Street Wakad, Pimpri Chinchwad - MPCB",09-09-2025 07:00:00,18.59051,73.77946,NO2,11,18,14
India,Maharashtra,Pimpri-Chinchwad,"Park Street Wakad, Pimpri Chinchwad - MPCB",09-09-2025 07:00:00,18.59051,73.77946,CO,8,36,22
India,Maharashtra,Nagpur,"Ram Nagar, Nagpur - MPCB",09-09-2025 07:00:00,21.143383,79.048912,PM10,5,84,42
India,Maharashtra,Nagpur,"Ram Nagar, Nagpur - MPCB",09-09-2025 07:00:00,21.143383,79.048912,OZONE,1,8,2
India,Maharashtra,Nanded,"Sneh Nagar, Nanded - MPCB",09-09-2025 07:00:00,19.173852,77.296291,NH3,3,5,4
India,Maharashtra,Nashik,"Gangapur Road, Nashik - MPCB",09-09-2025 07:00:00,20.0073285,73.7762427,PM2.5,22,96,52
India,Maharashtra,Nashik,"Hirawadi, Nashik - MPCB",09-09-2025 07:00:00,20.021503,73.813844,SO2,1,9,2
India,Maharashtra,Pimpri-Chinchwad,"Thergaon, Pimpri Chinchwad - MPCB",09-09-2025 07:00:00,18.616318,73.765797,NH3,1,13,5
India,Maharashtra,Pimpri-Chinchwad,"Thergaon, Pimpri Chinchwad - MPCB",09-09-2025 07:00:00,18.616318,73.765797,OZONE,11,20,11
India,Maharashtra,Pune,"Bhumkar Nagar, Pune - IITM",09-09-2025 07:00:00,18.605770,73.749976,PM2.5,11,51,24
India,Maharashtra,Pune,"Bhumkar Nagar, Pune - IITM",09-09-2025 07:00:00,18.605770,73.749976,NO2,3,14,8
India,Maharashtra,Pune,"Mhada Colony, Pune - IITM",09-09-2025 07:00:00,18.573040,73.927715,NO2,33,49,39
India,Maharashtra,Navi Mumbai,"Sanpada, Navi Mumbai - MPCB",09-09-2025 07:00:00,19.0575752,73.0151367,PM2.5,2,27,19
India,Maharashtra,Navi Mumbai,"Sanpada, Navi Mumbai - MPCB",09-09-2025 07:00:00,19.0575752,73.0151367,PM10,1,69,42
India,Maharashtra,Navi Mumbai,"Sector-2E Kalamboli, Navi Mumbai - MPCB",09-09-2025 07:00:00,19.02579,73.10297,NO2,17,75,34
India,Maharashtra,Navi Mumbai,"Tondare-Taloja, Navi Mumbai - MPCB",09-09-2025 07:00:00,19.0630,73.1209,PM2.5,11,63,44
India,Maharashtra,Nagpur,"Ambazari, Nagpur - MPCB",09-09-2025 07:00:00,21.121801,79.04952,OZONE,2,26,6
India,Maharashtra,Nagpur,"Mahal, Nagpur - MPCB",09-09-2025 07:00:00,21.14472,79.107595,NO2,8,61,21
India,Maharashtra,Nagpur,"Mahal, Nagpur - MPCB",09-09-2025 07:00:00,21.14472,79.107595,NH3,3,4,4
India,Maharashtra,Nagpur,"Mahal, Nagpur - MPCB",09-09-2025 07:00:00,21.14472,79.107595,SO2,5,72,45
India,Maharashtra,Mumbai,"Kandivali East, Mumbai - MPCB",09-09-2025 07:00:00,19.205800,72.868200,CO,8,38,8
India,Odisha,Cuttack,"CDA Area, Cuttack - OSPCB",09-09-2025 07:00:00,20.48891     ,85.84768     ,OZONE,5,40,9
India,Odisha,Keonjhar,"Jagamohanpur, Keonjhar - OSPCB",09-09-2025 07:00:00,21.643900,85.599355,PM2.5,NA,NA,NA
India,Odisha,Keonjhar,"Jagamohanpur, Keonjhar - OSPCB",09-09-2025 07:00:00,21.643900,85.599355,NO2,NA,NA,NA
India,Odisha,Keonjhar,"Jagamohanpur, Keonjhar - OSPCB",09-09-2025 07:00:00,21.643900,85.599355,NH3,NA,NA,NA
India,Odisha,Keonjhar,"Jagamohanpur, Keonjhar - OSPCB",09-09-2025 07:00:00,21.643900,85.599355,SO2,5,10,6
India,Odisha,Nayagarh,"Dabuna, Nayagarh - OSPCB",09-09-2025 07:00:00,21.847279,85.416905,PM10,NA,NA,NA
India,Odisha,Nayagarh,"Dabuna, Nayagarh - OSPCB",09-09-2025 07:00:00,21.847279,85.416905,SO2,NA,NA,NA
India,Odisha,Rairangpur,"Divisional Forest Office, Rairangpur - OSPCB",09-09-2025 07:00:00,22.265816,86.174829,PM2.5,23,52,33
India,Odisha,Rairangpur,"Divisional Forest Office, Rairangpur - OSPCB",09-09-2025 07:00:00,22.265816,86.174829,PM10,55,121,91
India,Maharashtra,Solapur,"Ratandeep Housing Society, Solapur - MPCB",09-09-2025 07:00:00,17.65439,75.90649,PM2.5,3,44,20
India,Maharashtra,Solapur,"Ratandeep Housing Society, Solapur - MPCB",09-09-2025 07:00:00,17.65439,75.90649,NO2,4,56,16
India,Maharashtra,Thane,"Kasarvadavali, Thane - MPCB",09-09-2025 07:00:00,19.26777,72.97182,NO2,1,16,9
India,Maharashtra,Thane,"Kasarvadavali, Thane - MPCB",09-09-2025 07:00:00,19.26777,72.97182,OZONE,14,16,15
India,Maharashtra,Thane,"Upvan Fort, Thane - MPCB",09-09-2025 07:00:00,19.222279,72.957979,PM2.5,13,42,22
India,Maharashtra,Thane,"Upvan Fort, Thane - MPCB",09-09-2025 07:00:00,19.222279,72.957979,PM10,53,72,62
India,Maharashtra,Thane,"Upvan Fort, Thane - MPCB",09-09-2025 07:00:00,19.222279,72.957979,NO2,4,24,10
India,Maharashtra,Thane,"Upvan Fort, Thane - MPCB",09-09-2025 07:00:00,19.222279,72.957979,CO,54,87,74
India,Maharashtra,Thane,"Upvan Fort, Thane - MPCB",09-09-2025 07:00:00,19.222279,72.957979,OZONE,6,13,6
India,Maharashtra,Pune,"Savitribai Phule Pune University, Pune - MPCB",09-09-2025 07:00:00,18.547056,73.826908,OZONE,2,17,6
India,Maharashtra,Sangli,"Vijay Nagar, Sangli - MPCB",09-09-2025 07:00:00, 16.5038,74.3623,PM2.5,9,34,18
India,Maharashtra,Sangli,"Vijay Nagar, Sangli - MPCB",09-09-2025 07:00:00, 16.5038,74.3623,NO2,3,21,8
India,Maharashtra,Solapur,"Dnyaneshwar Nagar, Solapur - MPCB",09-09-2025 07:00:00,17.6336264,75.9132495,NO2,1,19,7
India,Maharashtra,Solapur,"Dnyaneshwar Nagar, Solapur - MPCB",09-09-2025 07:00:00,17.6336264,75.9132495,NH3,5,17,8
India,Maharashtra,Solapur,"Dnyaneshwar Nagar, Solapur - MPCB",09-09-2025 07:00:00,17.6336264,75.9132495,CO,7,38,10
India,Maharashtra,Ulhasnagar,"Sidhi Vinayak Nagar, Ulhasnagar - MPCB",09-09-2025 07:00:00,19.235581,73.159121,OZONE,12,37,16
India,Maharashtra,Virar,"Bolinj, Virar - MPCB",09-09-2025 07:00:00,19.4458210,72.7988231,NH3,NA,NA,NA
India,Nagaland,Kohima,"PWD Junction, Kohima - NPCB",09-09-2025 07:00:00,25.6635413,94.0989878,PM2.5,7,309,62
India,Odisha,Angul,"Hakimapada, Angul - OSPCB",09-09-2025 07:00:00,20.832874,85.104082,NH3,2,3,3
India,Odisha,Bhubaneswar,"Patia, Bhubaneswar - OSPCB",09-09-2025 07:00:00,20.34652,85.81630,SO2,2,4,3
India,Odisha,Bileipada,"Tata Township, Bileipada - OSPCB",09-09-2025 07:00:00,22.06156703,85.47409613,SO2,16,24,19
India,Odisha,Bileipada,"Tata Township, Bileipada - OSPCB",09-09-2025 07:00:00,22.06156703,85.47409613,CO,38,47,43
India,Odisha,Bileipada,"Tata Township, Bileipada - OSPCB",09-09-2025 07:00:00,22.06156703,85.47409613,OZONE,11,13,12
India,Odisha,Byasanagar,"Ferro Chrome Colony, Byasanagar - OSPCB",09-09-2025 07:00:00,20.94185,86.11510,PM2.5,33,70,44
India,Odisha,Balasore,"Kalidaspur, Balasore - OSPCB",09-09-2025 07:00:00,21.51161,86.89088,NH3,2,5,3
India,Odisha,Barbil,"Forest Office, Barbil - OSPCB",09-09-2025 07:00:00,22.1166054,85.3945546,SO2,8,32,15
India,Odisha,Barbil,"Forest Office, Barbil - OSPCB",09-09-2025 07:00:00,22.1166054,85.3945546,CO,24,54,38
India,Odisha,Bhubaneswar,"Lingraj Mandir, Bhubaneswar - OSPCB",09-09-2025 07:00:00,20.240790,85.836784,NO2,4,34,18
India,Odisha,Bhubaneswar,"Lingraj Mandir, Bhubaneswar - OSPCB",09-09-2025 07:00:00,20.240790,85.836784,CO,12,60,34
India,Punjab,Mandi Gobindgarh,"RIMT University, Mandi Gobindgarh - PPCB",09-09-2025 07:00:00,30.649961,76.331442,PM10,35,58,45
India,Punjab,Mandi Gobindgarh,"RIMT University, Mandi Gobindgarh - PPCB",09-09-2025 07:00:00,30.649961,76.331442,CO,26,82,33
India,Punjab,Rupnagar,"Ratanpura, Rupnagar - Ambuja Cements",09-09-2025 07:00:00,31.0325454,76.5623046,PM10,23,166,82
India,Rajasthan,Ajmer,"Civil Lines,  Ajmer - RSPCB",09-09-2025 07:00:00,26.470859,74.646594,NH3,2,8,4
India,Punjab,Bathinda,"Hardev Nagar, Bathinda - PPCB",09-09-2025 07:00:00,30.233011,74.907758,PM2.5,8,29,15
India,Punjab,Khanna,"Kalal Majra, Khanna - PPCB",09-09-2025 07:00:00,30.736056 ,76.209694,PM10,18,112,50
India,Punjab,Ludhiana,"Punjab Agricultural University, Ludhiana - PPCB",09-09-2025 07:00:00,30.9028,75.8086,PM2.5,NA,NA,NA
India,Odisha,Rourkela,"Raghunathpali, Rourkela - OSPCB",09-09-2025 07:00:00,22.220833,84.809444,PM2.5,54,117,78
India,Odisha,Rourkela,"Raghunathpali, Rourkela - OSPCB",09-09-2025 07:00:00,22.220833,84.809444,CO,26,50,34
India,Rajasthan,Kota,"Dhanmandi, Kota - RSPCB",09-09-2025 07:00:00,25.164090,75.858137,NH3,2,3,2
India,Rajasthan,Kota,"Nayapura, Kota - RSPCB",09-09-2025 07:00:00,25.196024,75.855668,NO2,10,50,23
India,Rajasthan,Kota,"Nayapura, Kota - RSPCB",09-09-2025 07:00:00,25.196024,75.855668,CO,30,52,44
India,Rajasthan,Kota,"Nayapura, Kota - RSPCB",09-09-2025 07:00:00,25.196024,75.855668,OZONE,9,55,27
India,Rajasthan,Kota,"Shrinath Puram, Kota - RSPCB",09-09-2025 07:00:00,25.14389,75.821256,PM2.5,20,121,50
India,Rajasthan,Kota,"Shrinath Puram, Kota - RSPCB",09-09-2025 07:00:00,25.14389,75.821256,SO2,4,9,6
India,Rajasthan,Kota,"Shrinath Puram, Kota - RSPCB",09-09-2025 07:00:00,25.14389,75.821256,CO,45,107,65
India,Rajasthan,Kota,"Shrinath Puram, Kota - RSPCB",09-09-2025 07:00:00,25.14389,75.821256,OZONE,14,27,20
India,Rajasthan,Nagaur,"Karni Colony, Nagaur - RSPCB",09-09-2025 07:00:00,27.213494,73.734444,PM2.5,13,70,34
India,Rajasthan,Bhilwara,"Pratap Nagar, Bhilwara - RSPCB",09-09-2025 07:00:00,25.339605,74.618883,PM2.5,22,58,38
India,Rajasthan,Bhiwadi,"RIICO Ind. Area III, Bhiwadi - RSPCB",09-09-2025 07:00:00,28.194909,76.862296,SO2,1,19,8
India,Rajasthan,Bhiwadi,"RIICO Ind. Area III, Bhiwadi - RSPCB",09-09-2025 07:00:00,28.194909,76.862296,CO,3,102,39
India,Rajasthan,Bhiwadi,"Vasundhara Nagar_UIT, Bhiwadi - RSPCB",09-09-2025 07:00:00,28.207266,76.829265,PM10,21,116,52
India,Rajasthan,Bhiwadi,"Vasundhara Nagar_UIT, Bhiwadi - RSPCB",09-09-2025 07:00:00,28.207266,76.829265,NO2,9,29,16
India,Rajasthan,Bhiwadi,"Vasundhara Nagar_UIT, Bhiwadi - RSPCB",09-09-2025 07:00:00,28.207266,76.829265,OZONE,9,31,10
India,Rajasthan,Bikaner,"MM Ground, Bikaner - RSPCB",09-09-2025 07:00:00,28.018792,73.292658,NO2,7,54,25
India,Rajasthan,Bikaner,"MM Ground, Bikaner - RSPCB",09-09-2025 07:00:00,28.018792,73.292658,NH3,4,5,5
India,Rajasthan,Jhalawar,"Rajlaxmi Nagar, Jhalawar - RSPCB",09-09-2025 07:00:00,24.588397,76.172782,NH3,2,2,2
India,Rajasthan,Jhunjhunu,"Indra Nagar, Jhunjhunu - RSPCB",09-09-2025 07:00:00,28.108988,75.386577,OZONE,16,55,27
India,Rajasthan,Jodhpur,"Collectorate, Jodhpur - RSPCB",09-09-2025 07:00:00,26.268249,73.0193853,PM2.5,20,127,48
India,Rajasthan,Jodhpur,"Collectorate, Jodhpur - RSPCB",09-09-2025 07:00:00,26.268249,73.0193853,SO2,1,13,5
India,Rajasthan,Jodhpur,"Digari Kalan, Jodhpur - RSPCB",09-09-2025 07:00:00,26.295810,73.082283,PM10,23,101,56
India,Rajasthan,Jodhpur,"Digari Kalan, Jodhpur - RSPCB",09-09-2025 07:00:00,26.295810,73.082283,OZONE,3,36,13
India,Rajasthan,Jodhpur,"Jhalamand, Jodhpur - RSPCB",09-09-2025 07:00:00,26.215415,73.070156,PM2.5,13,45,32
India,Rajasthan,Alwar,"Moti Doongri, Alwar - RSPCB",09-09-2025 07:00:00,27.554793,76.611536,NH3,8,10,9
India,Rajasthan,Banswara,"Rati Talai, Banswara - RSPCB",09-09-2025 07:00:00,23.555190,74.440010,OZONE,3,244,22
India,Rajasthan,Barmer,"Railway Colony, Barmer - RSPCB",09-09-2025 07:00:00,25.747299,71.393989,OZONE,23,54,39
India,Rajasthan,Bharatpur,"Krishna Nagar, Bharatpur - RSPCB",09-09-2025 07:00:00,27.215415,77.50873,NO2,12,23,16
India,Rajasthan,Jaipur,"Adarsh Nagar, Jaipur - RSPCB",09-09-2025 07:00:00,26.902909,75.836858,PM10,38,110,71
India,Rajasthan,Jaipur,"Adarsh Nagar, Jaipur - RSPCB",09-09-2025 07:00:00,26.902909,75.836858,NO2,12,88,35
India,Rajasthan,Jaipur,"Adarsh Nagar, Jaipur - RSPCB",09-09-2025 07:00:00,26.902909,75.836858,SO2,15,29,23
India,Rajasthan,Jaipur,"Mansarovar Sector-12, Jaipur - RSPCB",09-09-2025 07:00:00,26.843698,75.766894,PM10,26,133,75
India,Rajasthan,Jaipur,"Mansarovar Sector-12, Jaipur - RSPCB",09-09-2025 07:00:00,26.843698,75.766894,NH3,6,7,7
India,Rajasthan,Jaipur,"Mansarovar Sector-12, Jaipur - RSPCB",09-09-2025 07:00:00,26.843698,75.766894,OZONE,22,75,33
India,Rajasthan,Bundi,"New Colony, Bundi - RSPCB",09-09-2025 07:00:00,25.435774,75.644272,PM10,34,98,55
India,Rajasthan,Bundi,"New Colony, Bundi - RSPCB",09-09-2025 07:00:00,25.435774,75.644272,SO2,6,15,9
India,Rajasthan,Chittorgarh,"Shastri Nagar, Chittorgarh - RSPCB",09-09-2025 07:00:00,24.892047,74.623527,OZONE,16,48,19
India,Rajasthan,Dausa,"Khatikan Mohalla, Dausa - RSPCB",09-09-2025 07:00:00,26.895552,76.334753,PM2.5,25,347,82
India,Rajasthan,Jaipur,"Sector-2 Murlipura, Jaipur - RSPCB",09-09-2025 07:00:00,26.960669,75.771817,PM10,27,120,73
India,Rajasthan,Jalore,"Mudtra Sili, Jalore - RSPCB",09-09-2025 07:00:00,25.344694,72.626208,PM10,24,78,55
India,Rajasthan,Jalore,"Mudtra Sili, Jalore - RSPCB",09-09-2025 07:00:00,25.344694,72.626208,CO,1,56,12
India,Rajasthan,Jalore,"Mudtra Sili, Jalore - RSPCB",09-09-2025 07:00:00,25.344694,72.626208,OZONE,21,37,28
India,Rajasthan,Jodhpur,"Mandor, Jodhpur - RSPCB",09-09-2025 07:00:00,26.358805,73.047444,PM10,NA,NA,NA
India,Rajasthan,Jodhpur,"Mandor, Jodhpur - RSPCB",09-09-2025 07:00:00,26.358805,73.047444,OZONE,6,42,22
India,Rajasthan,Jodhpur,"Samrat Ashok Udhyan, Jodhpur - RSPCB",09-09-2025 07:00:00,26.253384,72.976571,PM2.5,27,43,34
India,Rajasthan,Jodhpur,"Samrat Ashok Udhyan, Jodhpur - RSPCB",09-09-2025 07:00:00,26.253384,72.976571,PM10,38,85,67
India,Rajasthan,Dausa,"Khatikan Mohalla, Dausa - RSPCB",09-09-2025 07:00:00,26.895552,76.334753,SO2,3,6,5
India,Rajasthan,Dholpur,"Raja Ganj, Dholpur - RSPCB",09-09-2025 07:00:00,26.699557,77.898881,CO,1,18,14
India,Rajasthan,Udaipur,"Ashok Nagar, Udaipur - RSPCB",09-09-2025 07:00:00,24.5886166,73.6321397,CO,5,96,17
India,Sikkim,Gangtok,"Zero Point GICI, Gangtok - SSPCB",09-09-2025 07:00:00,27.338530,88.614099,PM10,9,38,20
India,Sikkim,Gangtok,"Zero Point GICI, Gangtok - SSPCB",09-09-2025 07:00:00,27.338530,88.614099,NO2,1,9,1
India,TamilNadu,Ariyalur,"Keelapalur, Ariyalur - TNPCB",09-09-2025 07:00:00,11.06825,79.07033,PM2.5,27,104,48
India,TamilNadu,Chengalpattu,"Crescent University, Chengalpattu - TNPCB",09-09-2025 07:00:00,12.8777316,80.0834807,PM2.5,10,40,26
India,TamilNadu,Chengalpattu,"Crescent University, Chengalpattu - TNPCB",09-09-2025 07:00:00,12.8777316,80.0834807,SO2,17,21,19
India,TamilNadu,Chennai,"Alandur Bus Depot, Chennai - CPCB",09-09-2025 07:00:00,12.9099161,80.1076538,PM10,47,51,50
India,TamilNadu,Chennai,"Arumbakkam, Chennai - TNPCB",09-09-2025 07:00:00,13.0664,80.2112 ,PM10,50,150,96
India,TamilNadu,Dindigul,"Mendonsa Colony, Dindigul - TNPCB",09-09-2025 07:00:00,10.358535,77.984321,NH3,2,3,2
India,TamilNadu,Dindigul,"Mendonsa Colony, Dindigul - TNPCB",09-09-2025 07:00:00,10.358535,77.984321,SO2,19,23,21
India,TamilNadu,Dindigul,"Mendonsa Colony, Dindigul - TNPCB",09-09-2025 07:00:00,10.358535,77.984321,CO,6,16,10
India,TamilNadu,Gummidipoondi,"Anthoni Pillai Nagar, Gummidipoondi - TNPCB",09-09-2025 07:00:00,13.4127,80.1081,NH3,1,6,2
India,TamilNadu,Gummidipoondi,"Anthoni Pillai Nagar, Gummidipoondi - TNPCB",09-09-2025 07:00:00,13.4127,80.1081,SO2,5,16,11
India,TamilNadu,Hosur,"SIPCOT Phase-1, Hosur - TNPCB",09-09-2025 07:00:00,12.746998,77.813811,SO2,NA,NA,NA
India,TamilNadu,Hosur,"SIPCOT Phase-1, Hosur - TNPCB",09-09-2025 07:00:00,12.746998,77.813811,CO,NA,NA,NA
India,TamilNadu,Kanchipuram,"Kilambi, Kanchipuram - TNPCB",09-09-2025 07:00:00,12.864618,79.659968,NO2,1,2,1
India,TamilNadu,Karur,"Kamadenu Nagar, Karur - TNPCB",09-09-2025 07:00:00,10.967820,78.080882,NH3,3,3,3
India,TamilNadu,Karur,"Kamadenu Nagar, Karur - TNPCB",09-09-2025 07:00:00,10.967820,78.080882,SO2,15,16,15
India,TamilNadu,Karur,"Kamadenu Nagar, Karur - TNPCB",09-09-2025 07:00:00,10.967820,78.080882,CO,2,16,6
India,TamilNadu,Karur,"Kamadenu Nagar, Karur - TNPCB",09-09-2025 07:00:00,10.967820,78.080882,OZONE,7,9,8
India,TamilNadu,Madurai,"Uchapatti, Madurai - TNPCB",09-09-2025 07:00:00,9.865935,78.022669,NH3,4,4,4
India,TamilNadu,Nagapattinam,"Velippalayam, Nagapattinam - TNPCB",09-09-2025 07:00:00,10.798548,79.838212,OZONE,9,72,28
India,TamilNadu,Namakkal,"Ponnusamy Nagar, Namakkal - TNPCB",09-09-2025 07:00:00,11.273992,78.163545,PM2.5,NA,NA,NA
India,TamilNadu,Ooty,"Bombay Castel, Ooty - TNPCB",09-09-2025 07:00:00,11.4068288,76.7138973,PM10,33,76,52
India,TamilNadu,Ooty,"Bombay Castel, Ooty - TNPCB",09-09-2025 07:00:00,11.4068288,76.7138973,NO2,2,5,3
India,TamilNadu,Ooty,"Bombay Castel, Ooty - TNPCB",09-09-2025 07:00:00,11.4068288,76.7138973,SO2,22,23,23
India,TamilNadu,Ooty,"Bombay Castel, Ooty - TNPCB",09-09-2025 07:00:00,11.4068288,76.7138973,CO,NA,NA,NA
India,TamilNadu,Salem,"Sona College of Technology, Salem - TNPCB",09-09-2025 07:00:00,11.679111,78.125052,SO2,30,33,31
India,TamilNadu,Salem,"Sona College of Technology, Salem - TNPCB",09-09-2025 07:00:00,11.679111,78.125052,CO,18,18,18
India,TamilNadu,Thanjavur,"Parisutham Nagar, Thanjavur - TNPCB",09-09-2025 07:00:00,10.7654824,79.1389968,PM10,15,52,31
India,TamilNadu,Thoothukudi,"Meelavittan, Thoothukudi - TNPCB",09-09-2025 07:00:00,8.816428 ,78.099039,NO2,16,28,21
India,TamilNadu,Thoothukudi,"Meelavittan, Thoothukudi - TNPCB",09-09-2025 07:00:00,8.816428 ,78.099039,SO2,2,9,5
India,TamilNadu,Tirunelveli,"Municipal Corporation Office, Tirunelveli - TNPCB",09-09-2025 07:00:00,8.728442,77.6962,SO2,15,19,18
India,TamilNadu,Tirunelveli,"Municipal Corporation Office, Tirunelveli - TNPCB",09-09-2025 07:00:00,8.728442,77.6962,CO,28,30,28
India,TamilNadu,Chennai,"Velachery Res. Area, Chennai - CPCB",09-09-2025 07:00:00,13.0052189,80.2398125,PM2.5,41,62,50
India,TamilNadu,Chennai,"Velachery Res. Area, Chennai - CPCB",09-09-2025 07:00:00,13.0052189,80.2398125,SO2,8,10,9
India,TamilNadu,Coimbatore,"SIDCO Kurichi, Coimbatore - TNPCB",09-09-2025 07:00:00,10.942451,76.978996,PM2.5,2,53,28
India,TamilNadu,Coimbatore,"SIDCO Kurichi, Coimbatore - TNPCB",09-09-2025 07:00:00,10.942451,76.978996,OZONE,1,32,2
India,TamilNadu,Cuddalore,"Kudikadu, Cuddalore - TNPCB",09-09-2025 07:00:00,11.6829898,79.7532099,NH3,4,5,5
India,TamilNadu,Cuddalore,"Semmandalam, Cuddalore - TNPCB",09-09-2025 07:00:00,11.7637683,79.7499835,PM2.5,12,129,52
India,Rajasthan,Pali,"Indira Colony Vistar, Pali - RSPCB",09-09-2025 07:00:00,25.771061, 73.340227,OZONE,8,77,13
India,Rajasthan,Pratapgarh,"Pragati Nagar, Pratapgarh - RSPCB",09-09-2025 07:00:00,24.041198,74.780702,PM2.5,27,65,42
India,Rajasthan,Pratapgarh,"Pragati Nagar, Pratapgarh - RSPCB",09-09-2025 07:00:00,24.041198,74.780702,NO2,6,27,12
India,Rajasthan,Pratapgarh,"Pragati Nagar, Pratapgarh - RSPCB",09-09-2025 07:00:00,24.041198,74.780702,NH3,NA,NA,NA
India,Rajasthan,Rajsamand,"Dhoinda, Rajsamand - RSPCB",09-09-2025 07:00:00,25.036360,73.883502,NO2,6,17,10
India,Rajasthan,Sawai Madhopur,"Sahu Nagar, Sawai Madhopur - RSPCB",09-09-2025 07:00:00,26.031443,76.359327,NO2,14,21,16
India,TamilNadu,Palkalaiperur,"Bharathidasan University, Palkalaiperur - TNPCB",09-09-2025 07:00:00,10.681158,78.741746,NO2,NA,NA,NA
India,TamilNadu,Ramanathapuram,"Chalai Bazaar, Ramanathapuram - TNPCB",09-09-2025 07:00:00,9.36399,78.831977,CO,24,36,25
India,Rajasthan,Sirohi,"Vedhaynath Colony, Sirohi - RSPCB",09-09-2025 07:00:00,24.885261,72.857549,PM10,42,85,62
India,Rajasthan,Tonk,"Shastri Nagar, Tonk - RSPCB",09-09-2025 07:00:00,26.159933,75.780517,SO2,3,17,4
India,TamilNadu,Chennai,"Manali Village, Chennai - TNPCB",09-09-2025 07:00:00,13.1662,80.2584,CO,10,19,15
India,Telangana,Hyderabad,"ECIL Kapra, Hyderabad - TSPCB",09-09-2025 07:00:00,17.470431,78.566959,SO2,5,18,11
India,Telangana,Hyderabad,"ECIL Kapra, Hyderabad - TSPCB",09-09-2025 07:00:00,17.470431,78.566959,OZONE,12,41,12
India,Telangana,Hyderabad,"ICRISAT Patancheru, Hyderabad - TSPCB",09-09-2025 07:00:00,17.518400,78.278777,NH3,1,2,1
India,Telangana,Hyderabad,"IITH Kandi, Hyderabad - TSPCB",09-09-2025 07:00:00,17.585705,78.126199,PM10,74,75,74
India,Telangana,Hyderabad,"IITH Kandi, Hyderabad - TSPCB",09-09-2025 07:00:00,17.585705,78.126199,CO,18,24,20
India,Telangana,Hyderabad,"IITH Kandi, Hyderabad - TSPCB",09-09-2025 07:00:00,17.585705,78.126199,OZONE,20,35,22
India,Telangana,Hyderabad,"Kokapet, Hyderabad - TSPCB",09-09-2025 07:00:00,17.393559,78.339194,NO2,12,16,14
India,Telangana,Hyderabad,"Kokapet, Hyderabad - TSPCB",09-09-2025 07:00:00,17.393559,78.339194,SO2,9,14,10
India,Telangana,Hyderabad,"Kompally Municipal Office, Hyderabad - TSPCB",09-09-2025 07:00:00,17.544899,78.486949,PM10,NA,NA,NA
India,Uttar_Pradesh,Ghaziabad,"Sanjay Nagar, Ghaziabad - UPPCB",09-09-2025 07:00:00,28.685382,77.453839,CO,22,88,33
India,Uttar_Pradesh,Ghaziabad,"Vasundhara, Ghaziabad - UPPCB",09-09-2025 07:00:00,28.6603346,77.3572563,OZONE,4,107,6
India,Uttar_Pradesh,Gorakhpur,"Madan Mohan Malaviya University of Technology, Gorakhpur - UPPCB",09-09-2025 07:00:00,26.730136,83.433859,NO2,11,12,11
India,Uttar_Pradesh,Greater Noida,"Knowledge Park - III, Greater Noida - UPPCB",09-09-2025 07:00:00,28.47272,77.482000,PM2.5,15,108,61
India,Uttar_Pradesh,Greater Noida,"Knowledge Park - III, Greater Noida - UPPCB",09-09-2025 07:00:00,28.47272,77.482000,PM10,23,431,158
India,Uttar_Pradesh,Greater Noida,"Knowledge Park - III, Greater Noida - UPPCB",09-09-2025 07:00:00,28.47272,77.482000,NH3,1,46,9
India,Uttar_Pradesh,Greater Noida,"Knowledge Park - III, Greater Noida - UPPCB",09-09-2025 07:00:00,28.47272,77.482000,CO,12,118,21
India,Uttar_Pradesh,Firozabad,"Nagla Bhau, Firozabad - UPPCB",09-09-2025 07:00:00,27.168897,78.376960,NO2,17,17,17
India,Uttar_Pradesh,Firozabad,"Nagla Bhau, Firozabad - UPPCB",09-09-2025 07:00:00,27.168897,78.376960,NH3,2,2,2
India,Uttar_Pradesh,Firozabad,"Vibhab Nagar, Firozabad - UPPCB",09-09-2025 07:00:00,27.1594,78.3953,CO,7,14,10
India,Uttar_Pradesh,Firozabad,"Vibhab Nagar, Firozabad - UPPCB",09-09-2025 07:00:00,27.1594,78.3953,OZONE,4,11,6
India,Uttar_Pradesh,Ghaziabad,"Indirapuram, Ghaziabad - UPPCB",09-09-2025 07:00:00,28.646233,77.358075,NO2,21,84,47
India,Uttar_Pradesh,Ghaziabad,"Loni, Ghaziabad - UPPCB",09-09-2025 07:00:00,28.757294,77.278792,SO2,8,16,12
India,Uttar_Pradesh,Ghaziabad,"Loni, Ghaziabad - UPPCB",09-09-2025 07:00:00,28.757294,77.278792,CO,36,102,73
India,Telangana,Hyderabad,"Sanathnagar, Hyderabad - TSPCB",09-09-2025 07:00:00,17.4559458,78.4332152,CO,2,14,9
India,Telangana,Hyderabad,"Somajiguda, Hyderabad - TSPCB",09-09-2025 07:00:00,17.417094,78.457437,NO2,20,49,32
India,Telangana,Hyderabad,"Somajiguda, Hyderabad - TSPCB",09-09-2025 07:00:00,17.417094,78.457437,SO2,13,34,20
India,Telangana,Hyderabad,"Somajiguda, Hyderabad - TSPCB",09-09-2025 07:00:00,17.417094,78.457437,OZONE,14,32,18
India,Uttar_Pradesh,Agra,"Manoharpur, Agra - UPPCB",09-09-2025 07:00:00,27.23711,78.01936,NO2,24,24,24
India,Uttar_Pradesh,Agra,"Manoharpur, Agra - UPPCB",09-09-2025 07:00:00,27.23711,78.01936,CO,10,16,12
India,Uttar_Pradesh,Agra,"Manoharpur, Agra - UPPCB",09-09-2025 07:00:00,27.23711,78.01936,OZONE,8,8,8
India,Uttar_Pradesh,Greater Noida,"Knowledge Park - V, Greater Noida - UPPCB",09-09-2025 07:00:00,28.557054,77.453663,CO,17,85,50
India,Uttar_Pradesh,Greater Noida,"Knowledge Park - V, Greater Noida - UPPCB",09-09-2025 07:00:00,28.557054,77.453663,OZONE,4,72,12
India,Uttar_Pradesh,Jhansi,"Shivaji Nagar, Jhansi - UPPCB",09-09-2025 07:00:00,25.4547,78.6039,NO2,6,7,6
India,Uttar_Pradesh,Jhansi,"Shivaji Nagar, Jhansi - UPPCB",09-09-2025 07:00:00,25.4547,78.6039,OZONE,2,10,5
India,Uttar_Pradesh,Kanpur,"FTI Kidwai Nagar, Kanpur - UPPCB",09-09-2025 07:00:00,26.428282,80.327067,PM2.5,NA,NA,NA
India,Uttar_Pradesh,Kanpur,"FTI Kidwai Nagar, Kanpur - UPPCB",09-09-2025 07:00:00,26.428282,80.327067,SO2,9,28,20
India,TamilNadu,Vellore,"Vasanthapuram, Vellore - TNPCB",09-09-2025 07:00:00,12.909494,79.131861,NO2,NA,NA,NA
India,TamilNadu,Virudhunagar,"Collectorate Office, Virudhunagar - TNPCB",09-09-2025 07:00:00,9.559382,77.948828,SO2,19,19,19
India,Telangana,Hyderabad,"Bollaram Industrial Area, Hyderabad - TSPCB",09-09-2025 07:00:00,17.540891,78.358528,SO2,4,8,6
India,Telangana,Hyderabad,"Central University, Hyderabad - TSPCB",09-09-2025 07:00:00,17.460103,78.334361,PM2.5,14,60,27
India,Telangana,Hyderabad,"Central University, Hyderabad - TSPCB",09-09-2025 07:00:00,17.460103,78.334361,NO2,18,54,42
India,Uttar_Pradesh,Agra,"Rohta, Agra - UPPCB",09-09-2025 07:00:00,27.106972,78.000111,NO2,16,17,16
India,Uttar_Pradesh,Agra,"Rohta, Agra - UPPCB",09-09-2025 07:00:00,27.106972,78.000111,SO2,10,16,14
India,Uttar_Pradesh,Agra,"Rohta, Agra - UPPCB",09-09-2025 07:00:00,27.106972,78.000111,OZONE,11,12,12
India,Uttar_Pradesh,Agra,"Sector-3B Avas Vikas Colony, Agra - UPPCB",09-09-2025 07:00:00,27.19412,77.96237,SO2,8,9,9
India,Uttar_Pradesh,Agra,"Sector-3B Avas Vikas Colony, Agra - UPPCB",09-09-2025 07:00:00,27.19412,77.96237,OZONE,7,8,7
India,Uttar_Pradesh,Agra,"Shahjahan Garden, Agra - UPPCB",09-09-2025 07:00:00,27.169338,78.03582,PM10,53,132,77
India,Uttar_Pradesh,Agra,"Shahjahan Garden, Agra - UPPCB",09-09-2025 07:00:00,27.169338,78.03582,NH3,1,1,1
India,Uttar_Pradesh,Baghpat,"Sardar Patel Inter College, Baghpat - UPPCB",09-09-2025 07:00:00,28.964949,77.278761,CO,2,35,9
India,Uttar_Pradesh,Bareilly,"Civil Lines, Bareilly - UPPCB",09-09-2025 07:00:00,28.359581,79.414455,PM10,7,21,13
India,Uttar_Pradesh,Bareilly,"Rajendra Nagar, Bareilly - UPPCB",09-09-2025 07:00:00,28.38910936,79.42963708,SO2,46,47,46
India,Uttar_Pradesh,Bulandshahr,"Yamunapuram, Bulandshahr - UPPCB",09-09-2025 07:00:00,28.406963,77.849831,PM10,25,118,61
India,Telangana,Hyderabad,"New Malakpet, Hyderabad - TSPCB",09-09-2025 07:00:00,17.37206,78.50864,PM10,65,85,73
India,Telangana,Hyderabad,"Ramachandrapuram, Hyderabad - TSPCB",09-09-2025 07:00:00,17.528544,78.286195,OZONE,20,58,20
India,Telangana,Hyderabad,"Sanathnagar, Hyderabad - TSPCB",09-09-2025 07:00:00,17.4559458,78.4332152,SO2,1,7,4
India,Uttar_Pradesh,Prayagraj,"Nagar Nigam, Prayagraj - UPPCB",09-09-2025 07:00:00,25.44919916 ,81.82735986 ,PM10,23,95,40
India,Uttar_Pradesh,Prayagraj,"Nagar Nigam, Prayagraj - UPPCB",09-09-2025 07:00:00,25.44919916 ,81.82735986 ,NH3,1,3,2
India,Uttar_Pradesh,Varanasi,"Ardhali Bazar, Varanasi - UPPCB",09-09-2025 07:00:00,25.3505986,82.9083074,PM2.5,11,72,40
India,Uttar_Pradesh,Varanasi,"Ardhali Bazar, Varanasi - UPPCB",09-09-2025 07:00:00,25.3505986,82.9083074,PM10,11,99,53
India,Uttar_Pradesh,Varanasi,"Ardhali Bazar, Varanasi - UPPCB",09-09-2025 07:00:00,25.3505986,82.9083074,SO2,17,19,18
India,Uttar_Pradesh,Varanasi,"Ardhali Bazar, Varanasi - UPPCB",09-09-2025 07:00:00,25.3505986,82.9083074,CO,6,16,10
India,Uttar_Pradesh,Varanasi,"Bhelupur, Varanasi - UPPCB",09-09-2025 07:00:00,25.301778,82.996789,PM10,28,112,73
India,Uttar_Pradesh,Varanasi,"Bhelupur, Varanasi - UPPCB",09-09-2025 07:00:00,25.301778,82.996789,CO,8,31,15
India,Uttar_Pradesh,Varanasi,"IESD Banaras Hindu University, Varanasi - UPPCB",09-09-2025 07:00:00,25.262326,82.995408,NO2,1,3,2
India,Uttar_Pradesh,Varanasi,"IESD Banaras Hindu University, Varanasi - UPPCB",09-09-2025 07:00:00,25.262326,82.995408,CO,4,12,7
India,Uttar_Pradesh,Kanpur,"FTI Kidwai Nagar, Kanpur - UPPCB",09-09-2025 07:00:00,26.428282,80.327067,OZONE,7,63,7
India,Uttar_Pradesh,Kanpur,"NSI Kalyanpur, Kanpur - UPPCB",09-09-2025 07:00:00,26.509954,80.249612,OZONE,17,19,18
India,Uttar_Pradesh,Khurja,"Kalindi Kunj, Khurja - UPPCB",09-09-2025 07:00:00,28.2348927,77.8683002,PM10,17,75,40
India,Uttar_Pradesh,Khurja,"Kalindi Kunj, Khurja - UPPCB",09-09-2025 07:00:00,28.2348927,77.8683002,NH3,1,1,1
India,Uttar_Pradesh,Khurja,"Kalindi Kunj, Khurja - UPPCB",09-09-2025 07:00:00,28.2348927,77.8683002,OZONE,4,7,4
India,Uttar_Pradesh,Lucknow,"B R Ambedkar University, Lucknow - UPPCB",09-09-2025 07:00:00,26.766433,80.927299,CO,27,46,38
India,Uttar_Pradesh,Lucknow,"Talkatora District Industries Center, Lucknow - CPCB",09-09-2025 07:00:00,26.83399722,80.8917361,CO,7,46,23
India,Uttar_Pradesh,Meerut,"Ganga Nagar, Meerut - UPPCB",09-09-2025 07:00:00,28.999264,77.7590354,NH3,4,8,5
India,Uttar_Pradesh,Meerut,"Ganga Nagar, Meerut - UPPCB",09-09-2025 07:00:00,28.999264,77.7590354,SO2,12,16,14
India,Uttar_Pradesh,Meerut,"Jai Bhim Nagar, Meerut - UPPCB",09-09-2025 07:00:00,28.9535882,77.7622941,PM2.5,2,65,29
India,Uttar_Pradesh,Meerut,"Pallavpuram Phase 2, Meerut - UPPCB",09-09-2025 07:00:00,29.063510,77.709723,CO,31,66,50
India,Uttar_Pradesh,Moradabad,"Eco Herbal Park, Moradabad - UPPCB",09-09-2025 07:00:00,28.840739,78.697531,PM10,NA,NA,NA
India,Uttar_Pradesh,Moradabad,"Eco Herbal Park, Moradabad - UPPCB",09-09-2025 07:00:00,28.840739,78.697531,SO2,NA,NA,NA
India,Uttar_Pradesh,Moradabad,"Employment Office, Moradabad - UPPCB",09-09-2025 07:00:00,28.88528,78.73880,PM10,58,110,77
India,Uttar_Pradesh,Moradabad,"Employment Office, Moradabad - UPPCB",09-09-2025 07:00:00,28.88528,78.73880,NH3,4,4,4
India,Uttar_Pradesh,Moradabad,"Employment Office, Moradabad - UPPCB",09-09-2025 07:00:00,28.88528,78.73880,OZONE,15,35,21
India,Uttar_Pradesh,Moradabad,"Jigar Colony, Moradabad - UPPCB",09-09-2025 07:00:00,28.856664,78.772638,SO2,31,60,53
India,Uttar_Pradesh,Lucknow,"Gomti Nagar, Lucknow - UPPCB",09-09-2025 07:00:00,26.868120,81.005119,CO,37,41,37
India,Uttar_Pradesh,Lucknow,"Kendriya Vidyalaya, Lucknow - CPCB",09-09-2025 07:00:00,26.906111,80.948222,PM2.5,5,44,20
India,Uttar_Pradesh,Lucknow,"Kukrail Picnic Spot-1, Lucknow - UPPCB",09-09-2025 07:00:00,26.90723,80.98579,OZONE,24,51,28
India,Uttar_Pradesh,Lucknow,"Lalbagh, Lucknow - CPCB",09-09-2025 07:00:00,26.8458805,80.9365541,NH3,14,23,16
India,Uttar_Pradesh,Noida,"Sector-1, Noida - UPPCB",09-09-2025 07:00:00,28.5898,77.3101,CO,8,106,38
India,Uttar_Pradesh,Prayagraj,"Jhunsi, Prayagraj - UPPCB",09-09-2025 07:00:00,25.425602,81.917152,PM2.5,8,45,21
India,Uttar_Pradesh,Prayagraj,"Jhunsi, Prayagraj - UPPCB",09-09-2025 07:00:00,25.425602,81.917152,NH3,5,5,5
India,Uttar_Pradesh,Prayagraj,"Nagar Nigam, Prayagraj - UPPCB",09-09-2025 07:00:00,25.44919916 ,81.82735986 ,PM2.5,16,46,26
India,Uttar_Pradesh,Moradabad,"Transport Nagar, Moradabad - UPPCB",09-09-2025 07:00:00,28.802625,78.753728,NO2,27,28,27
India,Uttar_Pradesh,Noida,"Sector - 125, Noida - UPPCB",09-09-2025 07:00:00,28.5447608,77.3231257,PM2.5,20,149,60
India,Uttar_Pradesh,Noida,"Sector - 125, Noida - UPPCB",09-09-2025 07:00:00,28.5447608,77.3231257,NH3,6,12,10
India,Uttar_Pradesh,Lucknow,"Lalbagh, Lucknow - CPCB",09-09-2025 07:00:00,26.8458805,80.9365541,OZONE,31,63,33
India,Uttar_Pradesh,Lucknow,"Talkatora District Industries Center, Lucknow - CPCB",09-09-2025 07:00:00,26.83399722,80.8917361,SO2,1,13,7
India,Uttar_Pradesh,Noida,"Sector - 62, Noida - IMD",09-09-2025 07:00:00,28.6245479,77.3577104,OZONE,11,179,13
India,Uttar_Pradesh,Vrindavan,"Omex Eternity, Vrindavan - UPPCB",09-09-2025 07:00:00,27.5714090,77.6557570,OZONE,15,15,15
India,Uttarakhand,Kashipur,"Govt. Girls Inter College, Kashipur - UKPCB",09-09-2025 07:00:00,29.2124114,78.9611753,NH3,1,3,2
India,West_Bengal,Asansol,"Asansol Court Area, Asansol - WBPCB",09-09-2025 07:00:00,23.685297,86.945968,NO2,21,39,25
India,West_Bengal,Asansol,"Asansol Court Area, Asansol - WBPCB",09-09-2025 07:00:00,23.685297,86.945968,NH3,3,7,6
India,West_Bengal,Asansol,"Evelyn Lodge, Asansol - WBPCB",09-09-2025 07:00:00,23.6979360,86.9443950,NO2,3,25,11
India,West_Bengal,Asansol,"Evelyn Lodge, Asansol - WBPCB",09-09-2025 07:00:00,23.6979360,86.9443950,SO2,4,5,4
India,West_Bengal,Asansol,"Mahabir Colliery, Asansol - WBPCB",09-09-2025 07:00:00,23.6181830,87.1057180,OZONE,11,40,14
India,West_Bengal,Asansol,"Trivenidevi Bhalotia College, Asansol - WBPCB",09-09-2025 07:00:00,23.616515,87.119133,NO2,7,18,12
India,West_Bengal,Barrackpore,"SVSPA Campus, Barrackpore - WBPCB",09-09-2025 07:00:00,22.7605581,88.3617589,NO2,11,33,19
India,West_Bengal,Barrackpore,"SVSPA Campus, Barrackpore - WBPCB",09-09-2025 07:00:00,22.7605581,88.3617589,NH3,10,16,13
India,West_Bengal,Durgapur,"Mahishkapur Road_B-Zone, Durgapur - WBPCB",09-09-2025 07:00:00,23.567923,87.306843,PM2.5,18,87,48
India,West_Bengal,Durgapur,"Mahishkapur Road_B-Zone, Durgapur - WBPCB",09-09-2025 07:00:00,23.567923,87.306843,CO,38,106,62
India,West_Bengal,Durgapur,"Mahishkapur Road_B-Zone, Durgapur - WBPCB",09-09-2025 07:00:00,23.567923,87.306843,OZONE,12,34,14
India,West_Bengal,Durgapur,"PCBL Residential Complex, Durgapur - WBPCB",09-09-2025 07:00:00,23.5087640,87.3544400,PM10,37,85,53
India,West_Bengal,Durgapur,"PCBL Residential Complex, Durgapur - WBPCB",09-09-2025 07:00:00,23.5087640,87.3544400,NO2,3,16,8
India,West_Bengal,Durgapur,"Womens College_City Center, Durgapur - WBPCB (Formerly known as Sidhu Kanhu Indoor Stadium)",09-09-2025 07:00:00,23.549395,87.300496,PM2.5,19,94,63
India,West_Bengal,Haldia,"Priyambada Housing Estate, Haldia - WBPCB",09-09-2025 07:00:00,22.06047,88.109737,OZONE,20,37,27
India,West_Bengal,Howrah,"Botanical Garden, Howrah - WBPCB",09-09-2025 07:00:00,22.554954,88.292568,NH3,2,2,2
India,West_Bengal,Howrah,"Dasnagar, Howrah - WBPCB",09-09-2025 07:00:00,22.6025571,88.3105664,PM2.5,13,107,53
India,West_Bengal,Howrah,"Dasnagar, Howrah - WBPCB",09-09-2025 07:00:00,22.6025571,88.3105664,OZONE,3,57,6
India,West_Bengal,Howrah,"Ghusuri, Howrah - WBPCB",09-09-2025 07:00:00,22.611968,88.347422,PM10,22,207,71
India,West_Bengal,Howrah,"Ghusuri, Howrah - WBPCB",09-09-2025 07:00:00,22.611968,88.347422,NH3,9,10,10
India,West_Bengal,Howrah,"Ghusuri, Howrah - WBPCB",09-09-2025 07:00:00,22.611968,88.347422,OZONE,12,48,15
India,West_Bengal,Kolkata,"Jadavpur, Kolkata - WBPCB",09-09-2025 07:00:00,22.49929,88.36917,NO2,9,82,58
India,West_Bengal,Kolkata,"Rabindra Bharati University, Kolkata - WBPCB",09-09-2025 07:00:00,22.627847,88.380669,PM10,49,70,62
India,West_Bengal,Kolkata,"Rabindra Bharati University, Kolkata - WBPCB",09-09-2025 07:00:00,22.627847,88.380669,NH3,7,10,8
India,West_Bengal,Kolkata,"Victoria, Kolkata - WBPCB",09-09-2025 07:00:00,22.5448082,88.3403691,PM10,57,87,69
India,Andhra_Pradesh,Visakhapatnam,"GVM Corporation, Visakhapatnam - APPCB",09-09-2025 07:00:00,17.72,83.3,NO2,14,83,48
India,Andhra_Pradesh,Visakhapatnam,"GVM Corporation, Visakhapatnam - APPCB",09-09-2025 07:00:00,17.72,83.3,NH3,3,3,3
India,Andhra_Pradesh,Visakhapatnam,"GVM Corporation, Visakhapatnam - APPCB",09-09-2025 07:00:00,17.72,83.3,CO,8,107,31
India,Andhra_Pradesh,Visakhapatnam,"GVM Corporation, Visakhapatnam - APPCB",09-09-2025 07:00:00,17.72,83.3,OZONE,8,24,11
India,Arunachal_Pradesh,Naharlagun,"Naharlagun, Naharlagun - APSPCB",09-09-2025 07:00:00,27.103358,93.679645,PM2.5,17,106,37
India,Arunachal_Pradesh,Naharlagun,"Naharlagun, Naharlagun - APSPCB",09-09-2025 07:00:00,27.103358,93.679645,SO2,7,8,8
India,Arunachal_Pradesh,Naharlagun,"Naharlagun, Naharlagun - APSPCB",09-09-2025 07:00:00,27.103358,93.679645,CO,8,15,11
India,Arunachal_Pradesh,Naharlagun,"Naharlagun, Naharlagun - APSPCB",09-09-2025 07:00:00,27.103358,93.679645,OZONE,4,5,5
India,Assam,Guwahati,"IITG, Guwahati - PCBA",09-09-2025 07:00:00,26.2028636,91.70046436,PM2.5,26,64,42
India,Bihar,Arrah,"New DM Office, Arrah - BSPCB",09-09-2025 07:00:00,25.5626095,84.663264,CO,24,67,52
India,Bihar,Aurangabad,"Gurdeo Nagar, Aurangabad - BSPCB",09-09-2025 07:00:00,24.75746,84.366208,NO2,7,8,8
India,Bihar,Aurangabad,"Gurdeo Nagar, Aurangabad - BSPCB",09-09-2025 07:00:00,24.75746,84.366208,NH3,1,2,1
India,Bihar,Aurangabad,"Gurdeo Nagar, Aurangabad - BSPCB",09-09-2025 07:00:00,24.75746,84.366208,CO,16,64,35
India,Bihar,Aurangabad,"Gurdeo Nagar, Aurangabad - BSPCB",09-09-2025 07:00:00,24.75746,84.366208,OZONE,5,32,10
India,Bihar,Bettiah,"Kamalnath Nagar, Bettiah - BSPCB",09-09-2025 07:00:00,26.80365,84.51954,PM2.5,27,65,40
India,Bihar,Bettiah,"Kamalnath Nagar, Bettiah - BSPCB",09-09-2025 07:00:00,26.80365,84.51954,NO2,6,17,9
India,Bihar,Bhagalpur,"DM Office_Kachari Chowk, Bhagalpur - BSPCB",09-09-2025 07:00:00,25.251013,86.989001,NO2,14,18,15
India,Bihar,Katihar,"Mirchaibari, Katihar - BSPCB",09-09-2025 07:00:00,25.560083,87.553265,CO,60,80,69
India,Bihar,Kishanganj,"SDM Office_Khagra, Kishanganj - BSPCB",09-09-2025 07:00:00,26.0881305,87.93840336,NO2,7,9,8
India,Bihar,Kishanganj,"SDM Office_Khagra, Kishanganj - BSPCB",09-09-2025 07:00:00,26.0881305,87.93840336,SO2,7,9,8
India,Bihar,Manguraha,"Forest Rest House, Manguraha - BSPCB",09-09-2025 07:00:00,27.308328,84.531742,SO2,6,20,8
India,Bihar,Motihari,"Gandak Colony, Motihari - BSPCB",09-09-2025 07:00:00,26.63086,84.90051,NO2,1,2,1
India,Bihar,Munger,"Town Hall, Munger - BSPCB",09-09-2025 07:00:00,25.376776,86.471523,PM10,38,159,71
India,Bihar,Bihar Sharif,"D M Colony, Bihar Sharif - BSPCB",09-09-2025 07:00:00,25.204762,85.514960,PM2.5,88,116,98
India,Bihar,Bihar Sharif,"D M Colony, Bihar Sharif - BSPCB",09-09-2025 07:00:00,25.204762,85.514960,PM10,85,102,93
India,Bihar,Buxar,"Charitra Van, Buxar - BSPCB",09-09-2025 07:00:00,25.567520,83.966379,PM2.5,61,65,63
India,Bihar,Buxar,"Charitra Van, Buxar - BSPCB",09-09-2025 07:00:00,25.567520,83.966379,NH3,3,3,3
India,Bihar,Buxar,"Charitra Van, Buxar - BSPCB",09-09-2025 07:00:00,25.567520,83.966379,CO,21,29,25
India,Bihar,Chhapra,"Darshan Nagar, Chhapra - BSPCB",09-09-2025 07:00:00,25.7808257,84.7446768,PM2.5,55,323,214
India,Bihar,Chhapra,"Darshan Nagar, Chhapra - BSPCB",09-09-2025 07:00:00,25.7808257,84.7446768,NH3,2,4,3
India,Assam,Nalbari,"Bata Chowk, Nalbari - PCBA",09-09-2025 07:00:00,26.446912,91.439057,NO2,2,8,5
India,Assam,Nalbari,"Bata Chowk, Nalbari - PCBA",09-09-2025 07:00:00,26.446912,91.439057,NH3,1,4,2
India,Assam,Silchar,"Tarapur, Silchar - PCBA",09-09-2025 07:00:00,24.82827,92.79525,NO2,13,16,15
India,Assam,Sivasagar,"Girls College, Sivasagar - PCBA",09-09-2025 07:00:00,26.987634,94.636574,SO2,9,12,10
India,Bihar,Araria,"Kharahiya Basti, Araria - BSPCB",09-09-2025 07:00:00,26.146529,87.454184,PM10,NA,NA,NA
India,Bihar,Araria,"Kharahiya Basti, Araria - BSPCB",09-09-2025 07:00:00,26.146529,87.454184,OZONE,3,11,8
India,Assam,Guwahati,"IITG, Guwahati - PCBA",09-09-2025 07:00:00,26.2028636,91.70046436,OZONE,1,30,2
India,Assam,Guwahati,"LGBI Airport, Guwahati - PCBA",09-09-2025 07:00:00,26.10887,91.589544,NH3,6,6,6
India,Assam,Guwahati,"Railway Colony, Guwahati - PCBA",09-09-2025 07:00:00,26.181742,91.78063,PM2.5,29,102,52
India,Assam,Nalbari,"Bata Chowk, Nalbari - PCBA",09-09-2025 07:00:00,26.446912,91.439057,PM2.5,33,417,104
India,Assam,Nalbari,"Bata Chowk, Nalbari - PCBA",09-09-2025 07:00:00,26.446912,91.439057,PM10,30,362,89
India,Bihar,Gaya,"Kareemganj, Gaya - BSPCB",09-09-2025 07:00:00,24.792403,84.992416,SO2,14,18,16
India,Bihar,Gaya,"SFTI Kusdihra, Gaya - BSPCB",09-09-2025 07:00:00,24.762518,84.982348,PM2.5,6,218,49
India,Bihar,Gaya,"SFTI Kusdihra, Gaya - BSPCB",09-09-2025 07:00:00,24.762518,84.982348,NO2,16,19,18
India,Bihar,Gaya,"SFTI Kusdihra, Gaya - BSPCB",09-09-2025 07:00:00,24.762518,84.982348,CO,5,31,27
India,Bihar,Katihar,"Mirchaibari, Katihar - BSPCB",09-09-2025 07:00:00,25.560083,87.553265,NH3,1,1,1
India,Andhra_Pradesh,Anantapur,"Gulzarpet, Anantapur - APPCB",09-09-2025 07:00:00,14.675886,77.593027,CO,16,64,21
India,Andhra_Pradesh,Chittoor,"Gangineni Cheruvu, Chittoor - APPCB",09-09-2025 07:00:00,13.204880,79.097889,NH3,9,11,9
India,Andhra_Pradesh,Kadapa,"Yerramukkapalli, Kadapa - APPCB",09-09-2025 07:00:00,14.465052,78.824187,PM2.5,NA,NA,NA
India,Andhra_Pradesh,Kadapa,"Yerramukkapalli, Kadapa - APPCB",09-09-2025 07:00:00,14.465052,78.824187,PM10,NA,NA,NA
India,Andhra_Pradesh,Tirupati,"Vaikuntapuram, Tirupati - APPCB",09-09-2025 07:00:00,13.615387,79.409230,PM2.5,61,92,77
India,Andhra_Pradesh,Tirupati,"Vaikuntapuram, Tirupati - APPCB",09-09-2025 07:00:00,13.615387,79.409230,NO2,2,5,4
India,Andhra_Pradesh,Vijayawada,"HB Colony, Vijayawada - APPCB",09-09-2025 07:00:00,16.536107,80.594233,SO2,9,17,12
India,Andaman and Nicobar,Sri Vijaya Puram,"Police Line, Sri Vijaya Puram - ANPCC",09-09-2025 07:00:00,11.654054,92.734055,OZONE,1,55,1
India,Andhra_Pradesh,Amaravati,"Secretariat, Amaravati - APPCB",09-09-2025 07:00:00,16.5150833,80.5181667,OZONE,7,25,13
India,Chandigarh,Chandigarh,"Sector-25, Chandigarh - CPCC",09-09-2025 07:00:00,30.751462,76.762879,NO2,5,19,9
India,Chandigarh,Chandigarh,"Sector-53, Chandigarh - CPCC",09-09-2025 07:00:00,30.719859,76.738637,PM2.5,NA,NA,NA
India,Chandigarh,Chandigarh,"Sector-53, Chandigarh - CPCC",09-09-2025 07:00:00,30.719859,76.738637,NO2,6,40,18
India,Chandigarh,Chandigarh,"Sector-53, Chandigarh - CPCC",09-09-2025 07:00:00,30.719859,76.738637,NH3,1,5,4
India,Chandigarh,Chandigarh,"Sector-53, Chandigarh - CPCC",09-09-2025 07:00:00,30.719859,76.738637,SO2,12,21,17
India,Chhattisgarh,Bhilai,"32Bungalows, Bhilai - CECB",09-09-2025 07:00:00,21.194815,81.314770,PM10,9,40,18
India,Chhattisgarh,Bhilai,"32Bungalows, Bhilai - CECB",09-09-2025 07:00:00,21.194815,81.314770,NH3,3,4,4
India,Chhattisgarh,Bhilai,"32Bungalows, Bhilai - CECB",09-09-2025 07:00:00,21.194815,81.314770,OZONE,2,23,7
India,Chhattisgarh,Bhilai,"Civic Center, Bhilai - Bhilai Steel Plant",09-09-2025 07:00:00,21.185571,81.343175,PM10,17,46,31
India,Chhattisgarh,Bhilai,"Civic Center, Bhilai - Bhilai Steel Plant",09-09-2025 07:00:00,21.185571,81.343175,NO2,8,10,10
India,Chhattisgarh,Bhilai,"Civic Center, Bhilai - Bhilai Steel Plant",09-09-2025 07:00:00,21.185571,81.343175,SO2,7,10,9
India,Bihar,Patna,"Govt. High School Shikarpur, Patna - BSPCB",09-09-2025 07:00:00,25.592539,85.227158,NO2,5,6,5
India,Bihar,Patna,"Govt. High School Shikarpur, Patna - BSPCB",09-09-2025 07:00:00,25.592539,85.227158,CO,30,118,54
India,Bihar,Patna,"IGSC Planetarium Complex, Patna - BSPCB",09-09-2025 07:00:00,25.610369,85.132568,SO2,21,28,26
India,Bihar,Patna,"IGSC Planetarium Complex, Patna - BSPCB",09-09-2025 07:00:00,25.610369,85.132568,CO,82,100,98
India,Bihar,Patna,"IGSC Planetarium Complex, Patna - BSPCB",09-09-2025 07:00:00,25.610369,85.132568,OZONE,46,47,47
India,Bihar,Patna,"Muradpur, Patna - BSPCB",09-09-2025 07:00:00,25.619651,85.147382,PM2.5,39,107,66
India,Bihar,Patna,"Muradpur, Patna - BSPCB",09-09-2025 07:00:00,25.619651,85.147382,OZONE,10,16,13
India,Bihar,Patna,"Rajbansi Nagar, Patna - BSPCB",09-09-2025 07:00:00,25.599486,85.113666,CO,8,105,39
India,Bihar,Patna,"Samanpura, Patna - BSPCB",09-09-2025 07:00:00,25.596727,85.085624,PM2.5,127,261,201
India,Delhi,Delhi,"Anand Vihar, Delhi - DPCC",09-09-2025 07:00:00,28.647622,77.3158090,CO,64,114,93
India,Delhi,Delhi,"Anand Vihar, Delhi - DPCC",09-09-2025 07:00:00,28.647622,77.3158090,OZONE,7,41,18
India,Delhi,Delhi,"Aya Nagar, Delhi - IMD",09-09-2025 07:00:00,28.4706914,77.1099364,OZONE,11,57,17
India,Delhi,Delhi,"Bawana, Delhi - DPCC",09-09-2025 07:00:00,28.776200,77.051074,SO2,5,8,7
India,Delhi,Delhi,"Burari Crossing, Delhi - IMD",09-09-2025 07:00:00,28.7256504,77.2011573,OZONE,15,183,20
India,Delhi,Delhi,"CRRI Mathura Road, Delhi - IMD",09-09-2025 07:00:00,28.5512005,77.2735737,CO,72,114,96
India,Bihar,Patna,"Samanpura, Patna - BSPCB",09-09-2025 07:00:00,25.596727,85.085624,OZONE,15,26,18
India,Bihar,Purnia,"Mariam Nagar, Purnia - BSPCB",09-09-2025 07:00:00,25.366336,87.117468,PM2.5,NA,NA,NA
India,Bihar,Purnia,"Mariam Nagar, Purnia - BSPCB",09-09-2025 07:00:00,25.366336,87.117468,NH3,3,3,3
India,Bihar,Rajgir,"Dangi Tola, Rajgir - BSPCB",09-09-2025 07:00:00,25.03280,85.41948,OZONE,3,46,33
India,Bihar,Saharsa,"Police Line, Saharsa - BSPCB",09-09-2025 07:00:00,25.892357,86.590325,NO2,6,9,7
India,Bihar,Saharsa,"Police Line, Saharsa - BSPCB",09-09-2025 07:00:00,25.892357,86.590325,CO,35,42,38
India,Bihar,Samastipur,"DM Office_Kasipur, Samastipur - BSPCB",09-09-2025 07:00:00,25.859655,85.77944,PM10,79,500,281
India,Bihar,Samastipur,"DM Office_Kasipur, Samastipur - BSPCB",09-09-2025 07:00:00,25.859655,85.77944,NH3,2,2,2
India,Bihar,Samastipur,"DM Office_Kasipur, Samastipur - BSPCB",09-09-2025 07:00:00,25.859655,85.77944,SO2,1,30,12
India,Bihar,Sasaram,"Dada Peer, Sasaram - BSPCB",09-09-2025 07:00:00,24.952822,84.002396,PM2.5,NA,NA,NA
India,Chandigarh,Chandigarh,"Sector 22, Chandigarh - CPCC",09-09-2025 07:00:00,30.735567,76.775714,PM2.5,17,42,28
India,Chandigarh,Chandigarh,"Sector 22, Chandigarh - CPCC",09-09-2025 07:00:00,30.735567,76.775714,SO2,3,6,4
India,Chhattisgarh,Kunjemura,"OP Jindal School, Kunjemura - CECB",09-09-2025 07:00:00,22.126650,83.483212,NO2,3,3,3
India,Chhattisgarh,Milupara,"Govt. Higher Secondary School, Milupara - CECB",09-09-2025 07:00:00,22.1910172,83.5197009,SO2,NA,NA,NA
India,Chhattisgarh,Milupara,"Govt. Higher Secondary School, Milupara - CECB",09-09-2025 07:00:00,22.1910172,83.5197009,OZONE,48,136,48
India,Chhattisgarh,Raipur,"AIIMS, Raipur - CECB",09-09-2025 07:00:00,21.258815,81.578979,CO,20,38,30
India,Chhattisgarh,Raipur,"Bhatagaon New ISBT, Raipur - CECB",09-09-2025 07:00:00,21.219665,81.630094,NH3,2,2,2
India,Chhattisgarh,Bhilai,"Hathkhoj, Bhilai - CECB",09-09-2025 07:00:00,21.224231,81.408350,PM2.5,8,35,20
India,Chhattisgarh,Bhilai,"Hathkhoj, Bhilai - CECB",09-09-2025 07:00:00,21.224231,81.408350,PM10,13,52,34
India,Chhattisgarh,Bhilai,"Hathkhoj, Bhilai - CECB",09-09-2025 07:00:00,21.224231,81.408350,SO2,5,9,7
India,Chhattisgarh,Bilaspur,"Mangala, Bilaspur - NTPC",09-09-2025 07:00:00,22.08815,82.13737,PM2.5,15,307,58
India,Chhattisgarh,Kunjemura,"OP Jindal School, Kunjemura - CECB",09-09-2025 07:00:00,22.126650,83.483212,PM2.5,7,70,42
India,Chhattisgarh,Raipur,"Siltara Phase-II, Raipur - CECB",09-09-2025 07:00:00,21.371751,81.664929,PM10,34,143,84
India,Chhattisgarh,Tumidih,"OP Jindal Industrial Park, Tumidih - CECB",09-09-2025 07:00:00,22.06631475,83.33820077,NO2,10,45,22
India,Delhi,Delhi,"Anand Vihar, Delhi - DPCC",09-09-2025 07:00:00,28.647622,77.3158090,NO2,17,48,32
India,Bihar,Muzaffarpur,"MIT-Daudpur Kothi, Muzaffarpur - BSPCB",09-09-2025 07:00:00,26.1403345,85.3650192,NH3,2,2,2
India,Bihar,Patna,"DRM Office Danapur, Patna - BSPCB",09-09-2025 07:00:00,25.586562,85.043586,PM2.5,5,80,50
India,Delhi,Delhi,"Dwarka-Sector 8, Delhi - DPCC ",09-09-2025 07:00:00,28.5710274,77.0719006,CO,32,112,57
India,Delhi,Delhi,"IGI Airport (T3), Delhi - IMD",09-09-2025 07:00:00,28.5627763,77.1180053,OZONE,1,2,1
India,Delhi,Delhi,"IHBAS, Dilshad Garden, Delhi - CPCB",09-09-2025 07:00:00,28.6811736,77.3025234,NH3,2,2,2
India,Delhi,Delhi,"IHBAS, Dilshad Garden, Delhi - CPCB",09-09-2025 07:00:00,28.6811736,77.3025234,CO,12,49,26
India,Delhi,Delhi,"ITO, Delhi - CPCB",09-09-2025 07:00:00,28.628624,77.241060,SO2,14,29,22
India,Delhi,Delhi,"ITO, Delhi - CPCB",09-09-2025 07:00:00,28.628624,77.241060,OZONE,8,9,8
India,Delhi,Delhi,"Jahangirpuri, Delhi - DPCC",09-09-2025 07:00:00,28.732820,77.170633,NO2,13,24,18
India,Delhi,Delhi,"Jahangirpuri, Delhi - DPCC",09-09-2025 07:00:00,28.732820,77.170633,NH3,6,6,6
India,Delhi,Delhi,"Jahangirpuri, Delhi - DPCC",09-09-2025 07:00:00,28.732820,77.170633,SO2,1,17,10
India,Delhi,Delhi,"Jahangirpuri, Delhi - DPCC",09-09-2025 07:00:00,28.732820,77.170633,CO,17,102,68
India,Delhi,Delhi,"Patparganj, Delhi - DPCC",09-09-2025 07:00:00,28.623763,77.287209,NO2,15,72,40
India,Delhi,Delhi,"Patparganj, Delhi - DPCC",09-09-2025 07:00:00,28.623763,77.287209,NH3,4,6,5
India,Delhi,Delhi,"Patparganj, Delhi - DPCC",09-09-2025 07:00:00,28.623763,77.287209,CO,12,90,46
India,Delhi,Delhi,"Punjabi Bagh, Delhi - DPCC",09-09-2025 07:00:00,28.674045,77.131023,OZONE,5,61,9
India,Delhi,Delhi,"Pusa, Delhi - DPCC",09-09-2025 07:00:00,28.639652,77.146275,NO2,24,64,42
India,Delhi,Delhi,"Pusa, Delhi - DPCC",09-09-2025 07:00:00,28.639652,77.146275,NH3,1,2,2
India,Delhi,Delhi,"Pusa, Delhi - DPCC",09-09-2025 07:00:00,28.639652,77.146275,OZONE,1,37,3
India,Delhi,Delhi,"Pusa, Delhi - IMD",09-09-2025 07:00:00,28.636110,77.173332,PM2.5,5,98,39
India,Delhi,Delhi,"Pusa, Delhi - IMD",09-09-2025 07:00:00,28.636110,77.173332,NO2,2,26,12
India,Delhi,Delhi,"Pusa, Delhi - IMD",09-09-2025 07:00:00,28.636110,77.173332,OZONE,21,36,23
India,Delhi,Delhi,"Sonia Vihar, Delhi - DPCC",09-09-2025 07:00:00,28.710508,77.249485,OZONE,2,47,3
India,Delhi,Delhi,"Sri Aurobindo Marg, Delhi - DPCC",09-09-2025 07:00:00,28.531346,77.190156,NO2,2,23,10
India,Delhi,Delhi,"Sri Aurobindo Marg, Delhi - DPCC",09-09-2025 07:00:00,28.531346,77.190156,SO2,12,15,13
India,Delhi,Delhi,"Sri Aurobindo Marg, Delhi - DPCC",09-09-2025 07:00:00,28.531346,77.190156,CO,16,70,46
India,Delhi,Delhi,"Wazirpur, Delhi - DPCC",09-09-2025 07:00:00,28.699793,77.165453,NH3,8,10,8
India,Gujarat,Ahmedabad,"Chandkheda, Ahmedabad - IITM",09-09-2025 07:00:00,23.107969,72.574648,PM2.5,9,37,24
India,Gujarat,Ahmedabad,"Chandkheda, Ahmedabad - IITM",09-09-2025 07:00:00,23.107969,72.574648,NH3,1,2,1
India,Gujarat,Ahmedabad,"Chandkheda, Ahmedabad - IITM",09-09-2025 07:00:00,23.107969,72.574648,CO,3,26,16
India,Delhi,Delhi,"Chandni Chowk, Delhi - IITM",09-09-2025 07:00:00,28.656756,77.227234,PM2.5,14,87,43
India,Delhi,Delhi,"Chandni Chowk, Delhi - IITM",09-09-2025 07:00:00,28.656756,77.227234,CO,50,115,83
India,Delhi,Delhi,"Chandni Chowk, Delhi - IITM",09-09-2025 07:00:00,28.656756,77.227234,OZONE,8,100,12
India,Delhi,Delhi,"DTU, Delhi - CPCB",09-09-2025 07:00:00,28.7500499,77.1112615,NH3,9,11,9
India,Delhi,Delhi,"DTU, Delhi - CPCB",09-09-2025 07:00:00,28.7500499,77.1112615,CO,24,51,41
India,Delhi,Delhi,"Dr. Karni Singh Shooting Range, Delhi - DPCC",09-09-2025 07:00:00,28.498571,77.264840,PM10,24,94,61
India,Delhi,Delhi,"Dr. Karni Singh Shooting Range, Delhi - DPCC",09-09-2025 07:00:00,28.498571,77.264840,SO2,6,12,9
India,Delhi,Delhi,"Jahangirpuri, Delhi - DPCC",09-09-2025 07:00:00,28.732820,77.170633,OZONE,14,30,17
India,Delhi,Delhi,"Jawaharlal Nehru Stadium, Delhi - DPCC",09-09-2025 07:00:00,28.580280,77.233829,PM2.5,NA,NA,NA
India,Delhi,Delhi,"Jawaharlal Nehru Stadium, Delhi - DPCC",09-09-2025 07:00:00,28.580280,77.233829,NO2,16,151,83
India,Delhi,Delhi,"Lodhi Road, Delhi - IITM",09-09-2025 07:00:00,28.588333,77.221667,SO2,4,20,11
India,Delhi,Delhi,"R K Puram, Delhi - DPCC",09-09-2025 07:00:00,28.563262,77.186937,NO2,6,54,27
India,Delhi,Delhi,"Shadipur, Delhi - CPCB",09-09-2025 07:00:00,28.6514781,77.1473105,NH3,6,8,7
India,Delhi,Delhi,"Sirifort, Delhi - CPCB",09-09-2025 07:00:00,28.5504249,77.2159377,PM2.5,23,63,42
India,Delhi,Delhi,"Narela, Delhi - DPCC",09-09-2025 07:00:00,28.822836,77.101981,NO2,5,30,14
India,Delhi,Delhi,"North Campus, DU, Delhi - IMD",09-09-2025 07:00:00,28.6573814,77.1585447,PM10,36,357,125
India,Delhi,Delhi,"Mandir Marg, Delhi - DPCC",09-09-2025 07:00:00,28.636429,77.201067,OZONE,6,81,16
India,Delhi,Delhi,"NSIT Dwarka, Delhi - CPCB",09-09-2025 07:00:00,28.60909,77.0325413,SO2,2,13,8
India,Delhi,Delhi,"Okhla Phase-2, Delhi - DPCC",09-09-2025 07:00:00,28.530785,77.271255,OZONE,9,71,11
India,Delhi,Delhi,"Patparganj, Delhi - DPCC",09-09-2025 07:00:00,28.623763,77.287209,PM2.5,20,180,63
India,Gujarat,Ahmedabad,"SAC ISRO Bopal, Ahmedabad - IITM",09-09-2025 07:00:00,23.041137,72.456691,OZONE,3,30,7
India,Gujarat,Ahmedabad,"SAC ISRO Satellite, Ahmedabad - IITM",09-09-2025 07:00:00,23.023389,72.515201,PM10,36,68,51
India,Gujarat,Ahmedabad,"SVPI Airport Hansol, Ahmedabad - IITM",09-09-2025 07:00:00,23.076793,72.627874,PM10,31,53,42
India,Gujarat,Ahmedabad,"SVPI Airport Hansol, Ahmedabad - IITM",09-09-2025 07:00:00,23.076793,72.627874,NH3,1,2,1
India,Gujarat,Ahmedabad,"SVPI Airport Hansol, Ahmedabad - IITM",09-09-2025 07:00:00,23.076793,72.627874,SO2,4,17,10
India,Gujarat,Ahmedabad,"SVPI Airport Hansol, Ahmedabad - IITM",09-09-2025 07:00:00,23.076793,72.627874,CO,36,60,50
India,Gujarat,Ankleshwar,"GIDC, Ankleshwar - GPCB",09-09-2025 07:00:00,21.613267,73.010555,PM2.5,29,57,41
India,Gujarat,Ankleshwar,"GIDC, Ankleshwar - GPCB",09-09-2025 07:00:00,21.613267,73.010555,PM10,49,68,60
India,Gujarat,Ankleshwar,"GIDC, Ankleshwar - GPCB",09-09-2025 07:00:00,21.613267,73.010555,CO,5,30,18
India,Gujarat,Gandhinagar,"GIFT City, Gandhinagar - IITM",09-09-2025 07:00:00,23.163798,72.677768,NO2,9,26,15
India,Gujarat,Ahmedabad,"Gyaspur, Ahmedabad - IITM",09-09-2025 07:00:00,22.977134,72.553024,OZONE,2,11,2
India,Gujarat,Ahmedabad,"Maninagar, Ahmedabad - GPCB",09-09-2025 07:00:00,23.002657,72.591912,NO2,16,24,19
India,Gujarat,Ahmedabad,"Rakhial, Ahmedabad - IITM",09-09-2025 07:00:00,23.016834,72.625775,SO2,NA,NA,NA
India,Gujarat,Ahmedabad,"SAC ISRO Bopal, Ahmedabad - IITM",09-09-2025 07:00:00,23.041137,72.456691,PM10,32,91,57
India,Gujarat,Ahmedabad,"SAC ISRO Bopal, Ahmedabad - IITM",09-09-2025 07:00:00,23.041137,72.456691,NO2,18,27,23
India,Gujarat,Gandhinagar,"IIPHG Lekawada, Gandhinagar - IITM",09-09-2025 07:00:00,23.243639,72.68994,NH3,1,1,1
India,Gujarat,Gandhinagar,"IIPHG Lekawada, Gandhinagar - IITM",09-09-2025 07:00:00,23.243639,72.68994,OZONE,1,19,3
India,Gujarat,Gandhinagar,"Sector-10, Gandhinagar - GPCB",09-09-2025 07:00:00,23.221714,72.654328,NO2,9,9,9
India,Gujarat,Gandhinagar,"Sector-10, Gandhinagar - GPCB",09-09-2025 07:00:00,23.221714,72.654328,CO,10,31,17
India,Gujarat,Vapi,"Phase-1 GIDC, Vapi - GPCB",09-09-2025 07:00:00,20.362421,72.918013,NO2,13,14,14
India,Gujarat,Vapi,"Phase-1 GIDC, Vapi - GPCB",09-09-2025 07:00:00,20.362421,72.918013,SO2,43,47,44
India,Haryana,Gurugram,"NISE Gwal Pahari, Gurugram - IMD",09-09-2025 07:00:00,28.422681,77.148944,NO2,1,7,4
India,Himachal Pradesh,Baddi,"HIMUDA Complex Phase-1, Baddi - HPPCB",09-09-2025 07:00:00,30.943887,76.801991,NH3,6,9,7
India,Himachal Pradesh,Baddi,"HIMUDA Complex Phase-1, Baddi - HPPCB",09-09-2025 07:00:00,30.943887,76.801991,SO2,19,103,48
India,Karnataka,Bengaluru,"Bapuji Nagar, Bengaluru - KSPCB",09-09-2025 07:00:00,12.951913,77.539784,PM10,38,119,69
India,Karnataka,Bengaluru,"Bapuji Nagar, Bengaluru - KSPCB",09-09-2025 07:00:00,12.951913,77.539784,NH3,1,2,1
India,Karnataka,Bengaluru,"Bapuji Nagar, Bengaluru - KSPCB",09-09-2025 07:00:00,12.951913,77.539784,SO2,3,14,7
India,Karnataka,Bengaluru,"City Railway Station, Bengaluru - KSPCB",09-09-2025 07:00:00,12.9756843,77.5660749,NO2,44,52,49
India,Karnataka,Bengaluru,"City Railway Station, Bengaluru - KSPCB",09-09-2025 07:00:00,12.9756843,77.5660749,CO,58,62,60
India,Karnataka,Bengaluru,"Shivapura_Peenya, Bengaluru - KSPCB",09-09-2025 07:00:00,13.0246342,77.5080115,NH3,4,4,4
India,Karnataka,Bengaluru,"Shivapura_Peenya, Bengaluru - KSPCB",09-09-2025 07:00:00,13.0246342,77.5080115,SO2,6,22,11
India,Karnataka,Bengaluru,"Silk Board, Bengaluru - KSPCB",09-09-2025 07:00:00,12.917348,77.622813,OZONE,30,39,38
India,Karnataka,Chamarajanagar,"Urban, Chamarajanagar - KSPCB",09-09-2025 07:00:00,11.55358,76.55521,PM10,29,66,46
India,Karnataka,Bengaluru,"Jayanagar 5th Block, Bengaluru - KSPCB",09-09-2025 07:00:00,12.920984,77.584908,NO2,14,83,40
India,Karnataka,Bengaluru,"Jayanagar 5th Block, Bengaluru - KSPCB",09-09-2025 07:00:00,12.920984,77.584908,OZONE,9,50,23
India,Karnataka,Bengaluru,"RVCE-Mailasandra, Bengaluru - KSPCB",09-09-2025 07:00:00,12.921418,77.502466,CO,24,46,40
India,Karnataka,Bengaluru,"Sanegurava Halli, Bengaluru - KSPCB",09-09-2025 07:00:00,12.990328,77.5431385,PM10,NA,NA,NA
India,Karnataka,Chikkaballapur,"Chikkaballapur Rural, Chikkaballapur - KSPCB",09-09-2025 07:00:00,13.428828,77.731418,NH3,1,2,1
India,Karnataka,Chikkaballapur,"Chikkaballapur Rural, Chikkaballapur - KSPCB",09-09-2025 07:00:00,13.428828,77.731418,OZONE,18,21,19
India,Karnataka,Chikkamagaluru,"Kalyana Nagara, Chikkamagaluru - KSPCB",09-09-2025 07:00:00,13.328028,75.797056,NO2,14,25,23
India,Karnataka,Chikkamagaluru,"Kalyana Nagara, Chikkamagaluru - KSPCB",09-09-2025 07:00:00,13.328028,75.797056,OZONE,13,43,43
India,Karnataka,Hassan,"B.Katihalli, Hassan - KSPCB",09-09-2025 07:00:00,13.008556,76.125258,NH3,1,3,2
India,Karnataka,Yadgir,"Collector Office, Yadgir - KSPCB",09-09-2025 07:00:00,16.7602,77.1428,NH3,2,3,3
India,Karnataka,Yadgir,"Collector Office, Yadgir - KSPCB",09-09-2025 07:00:00,16.7602,77.1428,SO2,3,18,13
India,Karnataka,Yadgir,"Collector Office, Yadgir - KSPCB",09-09-2025 07:00:00,16.7602,77.1428,CO,12,103,13
India,Kerala,Eloor,"Udyogamandal, Eloor - Kerala PCB",09-09-2025 07:00:00,10.073232,76.302765,PM10,44,63,52
India,Kerala,Kollam,"Polayathode, Kollam - Kerala PCB",09-09-2025 07:00:00,8.8787,76.6073,PM2.5,20,27,23
India,Kerala,Thiruvananthapuram,"Kariavattom, Thiruvananthapuram - Kerala PCB",09-09-2025 07:00:00,8.563700,76.886500,PM10,54,72,64
India,Kerala,Thiruvananthapuram,"Kariavattom, Thiruvananthapuram - Kerala PCB",09-09-2025 07:00:00,8.563700,76.886500,OZONE,36,36,36
India,Madhya Pradesh,Pithampur,"Sector-2 Industrial Area, Pithampur - MPPCB",09-09-2025 07:00:00,22.624758,75.675238,NO2,8,41,23
India,Madhya Pradesh,Pithampur,"Sector-2 Industrial Area, Pithampur - MPPCB",09-09-2025 07:00:00,22.624758,75.675238,OZONE,1,26,5
India,Madhya Pradesh,Ratlam,"Shasthri Nagar, Ratlam - IPCA Lab",09-09-2025 07:00:00,23.331731,75.045981,SO2,25,27,26
India,Madhya Pradesh,Sagar,"Civil Lines, Sagar - MPPCB",09-09-2025 07:00:00,23.838586,78.759431,NO2,3,4,3
India,Madhya Pradesh,Sagar,"Civil Lines, Sagar - MPPCB",09-09-2025 07:00:00,23.838586,78.759431,SO2,2,9,4
India,Madhya Pradesh,Sagar,"Civil Lines, Sagar - MPPCB",09-09-2025 07:00:00,23.838586,78.759431,CO,26,60,32
India,Madhya Pradesh,Singrauli,"Suryakiran Bhawan NCL, Singrauli - MPPCB",09-09-2025 07:00:00,24.108970,82.645580,PM10,NA,NA,NA
India,Kerala,Thrissur,"Corporation Ground, Thrissur - Kerala PCB",09-09-2025 07:00:00,10.532400,76.215900,PM10,51,61,56
India,Kerala,Thrissur,"Corporation Ground, Thrissur - Kerala PCB",09-09-2025 07:00:00,10.532400,76.215900,SO2,1,1,1
India,Madhya Pradesh,Bhopal,"Idgah Hills, Bhopal - MPPCB",09-09-2025 07:00:00,23.264759,77.381568,OZONE,16,31,20
India,Madhya Pradesh,Bhopal,"Paryavaran Parisar, Bhopal - MPPCB",09-09-2025 07:00:00,23.210494,77.425409,NO2,7,24,11
India,Madhya Pradesh,Bhopal,"T T Nagar, Bhopal - MPPCB",09-09-2025 07:00:00,23.233584,77.400574,NH3,5,6,5
India,Madhya Pradesh,Bhopal,"T T Nagar, Bhopal - MPPCB",09-09-2025 07:00:00,23.233584,77.400574,SO2,5,31,19
India,Karnataka,Kalaburagi,"Mahatma Basaveswar Colony, Kalaburgi - KSPCB",09-09-2025 07:00:00,17.336318,76.847397,OZONE,10,18,13
India,Karnataka,Koppal,"Diwator Nagar, Koppal - KSPCB",09-09-2025 07:00:00,15.347630,76.181767,NH3,NA,NA,NA
India,Karnataka,Madikeri,"Stuart Hill, Madikeri - KSPCB",09-09-2025 07:00:00,12.415911,75.735050,PM10,34,77,45
India,Karnataka,Madikeri,"Stuart Hill, Madikeri - KSPCB",09-09-2025 07:00:00,12.415911,75.735050,OZONE,2,6,4
India,Karnataka,Mysuru,"Hebbal 1st Stage, Mysuru - KSPCB",09-09-2025 07:00:00,12.21041,76.37376,NO2,9,32,22
India,Karnataka,Hassan,"B.Katihalli, Hassan - KSPCB",09-09-2025 07:00:00,13.008556,76.125258,CO,3,27,6
India,Karnataka,Hubballi,"Lingaraj Nagar, Hubballi - KSPCB",09-09-2025 07:00:00,15.3714823,75.1160168,PM10,41,45,43
India,Karnataka,Hubballi,"Lingaraj Nagar, Hubballi - KSPCB",09-09-2025 07:00:00,15.3714823,75.1160168,NO2,7,7,7
India,Karnataka,Hubballi,"Lingaraj Nagar, Hubballi - KSPCB",09-09-2025 07:00:00,15.3714823,75.1160168,NH3,1,2,1
India,Karnataka,Hubballi,"Lingaraj Nagar, Hubballi - KSPCB",09-09-2025 07:00:00,15.3714823,75.1160168,OZONE,11,15,15
India,Karnataka,Kalaburagi,"Lal Bahadur Shastri Nagar, Kalaburagi - KSPCB",09-09-2025 07:00:00,17.321993,76.822628,PM10,NA,NA,NA
India,Madhya Pradesh,Damoh,"Shrivastav Colony, Damoh - MPPCB",09-09-2025 07:00:00,23.81748678,79.446246,PM10,5,29,17
India,Madhya Pradesh,Dewas,"Bhopal Chauraha, Dewas - MPPCB",09-09-2025 07:00:00,22.9682591,76.064118,NO2,37,63,46
India,Madhya Pradesh,Dewas,"Bhopal Chauraha, Dewas - MPPCB",09-09-2025 07:00:00,22.9682591,76.064118,OZONE,28,31,29
India,Madhya Pradesh,Gwalior,"City Center, Gwalior - MPPCB",09-09-2025 07:00:00,26.203442,78.193251,NO2,6,8,8
India,Madhya Pradesh,Gwalior,"Deen Dayal Nagar, Gwalior - MPPCB",09-09-2025 07:00:00,26.259242,78.216432,SO2,7,10,8
India,Madhya Pradesh,Gwalior,"Maharaj Bada, Gwalior - MPPCB",09-09-2025 07:00:00,26.200388,78.147714,OZONE,41,54,50
India,Madhya Pradesh,Indore,"Airport Area, Indore - IMC",09-09-2025 07:00:00,22.7289,75.8076,PM2.5,15,34,25
India,Madhya Pradesh,Indore,"Regional Park, Indore - IMC",09-09-2025 07:00:00,22.6780,75.8559,CO,11,30,28
India,Madhya Pradesh,Indore,"Residency Area, Indore - IMC",09-09-2025 07:00:00,22.7084,75.8815,SO2,36,40,38
India,Madhya Pradesh,Jabalpur,"Suhagi, Jabalpur - JMC",09-09-2025 07:00:00,23.218135,79.957770,NO2,26,51,30
India,Madhya Pradesh,Katni,"Gole Bazar, Katni - MPPCB",09-09-2025 07:00:00,23.50016,80.23284,PM2.5,14,42,23
India,Madhya Pradesh,Katni,"Gole Bazar, Katni - MPPCB",09-09-2025 07:00:00,23.50016,80.23284,CO,22,34,27
India,Karnataka,Shivamogga,"Vinoba Nagara, Shivamogga - KSPCB",09-09-2025 07:00:00,13.940000,75.555917,PM10,40,51,44
India,Karnataka,Vijayapura,"Ibrahimpur, Vijayapura - KSPCB",09-09-2025 07:00:00,16.802639,75.722694,NO2,9,10,9
India,Madhya Pradesh,Singrauli,"Suryakiran Bhawan NCL, Singrauli - MPPCB",09-09-2025 07:00:00,24.108970,82.645580,SO2,NA,NA,NA
India,Madhya Pradesh,Singrauli,"Suryakiran Bhawan NCL, Singrauli - MPPCB",09-09-2025 07:00:00,24.108970,82.645580,CO,NA,NA,NA
India,Madhya Pradesh,Singrauli,"Suryakiran Bhawan NCL, Singrauli - MPPCB",09-09-2025 07:00:00,24.108970,82.645580,OZONE,NA,NA,NA
India,Maharashtra,Ahmednagar,"Tarakpur, Ahmednagar - MPCB",09-09-2025 07:00:00,19.10122,74.73339,OZONE,2,22,4
India,Maharashtra,Akola,"Ramdaspeth, Akola - MPCB",09-09-2025 07:00:00,20.719516,77.000253,PM2.5,16,68,32
India,Maharashtra,Amravati,"Shivneri Colony, Amravati - MPCB",09-09-2025 07:00:00,20.9402359,77.7895248,PM10,20,104,58
India,Maharashtra,Amravati,"Shivneri Colony, Amravati - MPCB",09-09-2025 07:00:00,20.9402359,77.7895248,NH3,1,1,1
India,Maharashtra,Amravati,"Shri Shivaji Science College, Amravati - MPCB",09-09-2025 07:00:00,20.939198,77.765701,PM10,21,116,56
India,Maharashtra,Mumbai,"Chembur, Mumbai - MPCB",09-09-2025 07:00:00,19.0364585,72.8954371,PM10,32,114,60
India,Maharashtra,Mumbai,"Chembur, Mumbai - MPCB",09-09-2025 07:00:00,19.0364585,72.8954371,NO2,11,26,19
India,Maharashtra,Mumbai,"Chembur, Mumbai - MPCB",09-09-2025 07:00:00,19.0364585,72.8954371,OZONE,1,30,2
India,Maharashtra,Mumbai,"Chhatrapati Shivaji Intl. Airport (T2), Mumbai - MPCB",09-09-2025 07:00:00,19.10078,72.87462,NH3,1,2,1
India,Maharashtra,Mumbai,"Chhatrapati Shivaji Intl. Airport (T2), Mumbai - MPCB",09-09-2025 07:00:00,19.10078,72.87462,SO2,20,21,20
India,Maharashtra,Mumbai,"Colaba, Mumbai - MPCB",09-09-2025 07:00:00,18.910000,72.820000,PM10,NA,NA,NA
India,Maharashtra,Mumbai,"Colaba, Mumbai - MPCB",09-09-2025 07:00:00,18.910000,72.820000,SO2,NA,NA,NA
India,Maharashtra,Mumbai,"Deonar, Mumbai - IITM",09-09-2025 07:00:00,19.04946,72.9230,NO2,8,17,12
India,Maharashtra,Mumbai,"Deonar, Mumbai - IITM",09-09-2025 07:00:00,19.04946,72.9230,NH3,1,13,7
India,Maharashtra,Mumbai,"Deonar, Mumbai - IITM",09-09-2025 07:00:00,19.04946,72.9230,CO,2,53,30
India,Maharashtra,Latur,"Sawe Wadi, Latur - MPCB",09-09-2025 07:00:00,18.39963,76.57452,NH3,1,19,7
India,Maharashtra,Latur,"Sawe Wadi, Latur - MPCB",09-09-2025 07:00:00,18.39963,76.57452,SO2,3,9,4
India,Maharashtra,Latur,"Sawe Wadi, Latur - MPCB",09-09-2025 07:00:00,18.39963,76.57452,OZONE,3,37,12
India,Maharashtra,Mahad,"Kamble Tarf Birwadi, Mahad - MPCB",09-09-2025 07:00:00,18.1023399,73.4783687,PM2.5,2,62,27
India,Maharashtra,Mira-Bhayandar,"Bhayandar West, Mira-Bhayandar - MPCB",09-09-2025 07:00:00,19.296481,72.840923,OZONE,NA,NA,NA
India,Maharashtra,Mumbai,"Bandra Kurla Complex, Mumbai - IITM",09-09-2025 07:00:00,19.053536,72.84643,PM2.5,10,55,29
India,Maharashtra,Aurangabad,"MIDC Chilkalthana, Aurangabad - MPCB",09-09-2025 07:00:00,19.875620,75.387310,OZONE,NA,NA,NA
India,Maharashtra,Aurangabad,"Rachnakar Colony, Aurangabad - MPCB",09-09-2025 07:00:00,19.863756,75.321188,PM10,26,43,35
India,Maharashtra,Aurangabad,"Rachnakar Colony, Aurangabad - MPCB",09-09-2025 07:00:00,19.863756,75.321188,NO2,17,26,21
India,Maharashtra,Aurangabad,"Rachnakar Colony, Aurangabad - MPCB",09-09-2025 07:00:00,19.863756,75.321188,SO2,5,28,16
