country,state,city,station,last_update,latitude,longitude,pollutant_id,min_value,max_value,avg_value
India,Bihar,Buxar,"Charitra Van, Buxar - BSPCB",05-03-2026 16:00:00,25.567520,83.966379,PM10,56,87,72
India,Bihar,Buxar,"Charitra Van, Buxar - BSPCB",05-03-2026 16:00:00,25.567520,83.966379,NO2,9,10,10
India,Bihar,Chhapra,"Darshan Nagar, Chhapra - BSPCB",05-03-2026 16:00:00,25.7808257,84.7446768,SO2,19,21,20
India,Bihar,Gaya,"Kareemganj, Gaya - BSPCB",05-03-2026 16:00:00,24.792403,84.992416,PM2.5,52,203,96
India,Bihar,Gaya,"Kareemganj, Gaya - BSPCB",05-03-2026 16:00:00,24.792403,84.992416,OZONE,12,32,20
India,Bihar,Gaya,"SFTI Kusdihra, Gaya - BSPCB",05-03-2026 16:00:00,24.762518,84.982348,PM2.5,67,118,85
India,Bihar,Gaya,"SFTI Kusdihra, Gaya - BSPCB",05-03-2026 16:00:00,24.762518,84.982348,SO2,8,13,10
India,Bihar,Hajipur,"Industrial Area, Hajipur - BSPCB",05-03-2026 16:00:00,25.697189,85.245900,SO2,6,8,7
India,Bihar,Katihar,"Mirchaibari, Katihar - BSPCB",05-03-2026 16:00:00,25.560083,87.553265,NO2,NA,NA,NA
India,Andhra_Pradesh,Tirumala,"Toll Gate, Tirumala - APPCB",05-03-2026 16:00:00,13.67,79.35,PM10,77,122,97
India,Andhra_Pradesh,Tirumala,"Toll Gate, Tirumala - APPCB",05-03-2026 16:00:00,13.67,79.35,OZONE,27,389,70
India,Andhra_Pradesh,Tirupati,"Vaikuntapuram, Tirupati - APPCB",05-03-2026 16:00:00,13.615387,79.409230,CO,18,28,21
India,Andhra_Pradesh,Tirupati,"Vaikuntapuram, Tirupati - APPCB",05-03-2026 16:00:00,13.615387,79.409230,OZONE,12,22,15
India,Andhra_Pradesh,Vijayawada,"Kanuru, Vijayawada - APPCB",05-03-2026 16:00:00,16.486692,80.699436,PM10,49,115,63
India,Andhra_Pradesh,Vijayawada,"Rajiv Gandhi Park, Vijayawada - APPCB",05-03-2026 16:00:00,16.509717,80.612222,SO2,11,18,13
India,Andhra_Pradesh,Vijayawada,"Rajiv Gandhi Park, Vijayawada - APPCB",05-03-2026 16:00:00,16.509717,80.612222,CO,29,37,31
India,Andhra_Pradesh,Vijayawada,"Rajiv Nagar, Vijayawada - APPCB",05-03-2026 16:00:00,16.554731,80.649110,PM2.5,60,77,64
India,Bihar,Kishanganj,"SDM Office_Khagra, Kishanganj - BSPCB",05-03-2026 16:00:00,26.0881305,87.93840336,PM2.5,38,321,123
India,Bihar,Manguraha,"Forest Rest House, Manguraha - BSPCB",05-03-2026 16:00:00,27.308328,84.531742,CO,32,33,32
India,Bihar,Motihari,"Gandak Colony, Motihari - BSPCB",05-03-2026 16:00:00,26.63086,84.90051,OZONE,3,8,5
India,Bihar,Munger,"Town Hall, Munger - BSPCB",05-03-2026 16:00:00,25.376776,86.471523,PM10,14,112,39
India,Bihar,Munger,"Town Hall, Munger - BSPCB",05-03-2026 16:00:00,25.376776,86.471523,NO2,4,5,5
India,Bihar,Munger,"Town Hall, Munger - BSPCB",05-03-2026 16:00:00,25.376776,86.471523,NH3,2,3,3
India,Bihar,Muzaffarpur,"Buddha Colony, Muzaffarpur - BSPCB",05-03-2026 16:00:00,26.11442,85.39813,NO2,27,57,35
India,Bihar,Begusarai,"Lohiyanagar, Begusarai - BSPCB",05-03-2026 16:00:00,25.42742023,86.13886079,PM10,47,109,70
India,Bihar,Bettiah,"Kamalnath Nagar, Bettiah - BSPCB",05-03-2026 16:00:00,26.80365,84.51954,NO2,8,9,8
India,Bihar,Bettiah,"Kamalnath Nagar, Bettiah - BSPCB",05-03-2026 16:00:00,26.80365,84.51954,OZONE,20,23,21
India,Bihar,Bhagalpur,"DM Office_Kachari Chowk, Bhagalpur - BSPCB",05-03-2026 16:00:00,25.251013,86.989001,PM10,29,85,60
India,Bihar,Bhagalpur,"DM Office_Kachari Chowk, Bhagalpur - BSPCB",05-03-2026 16:00:00,25.251013,86.989001,NH3,1,1,1
India,Bihar,Bhagalpur,"Mayaganj, Bhagalpur - BSPCB",05-03-2026 16:00:00,25.265194,87.012947,OZONE,11,26,20
India,Bihar,Bihar Sharif,"D M Colony, Bihar Sharif - BSPCB",05-03-2026 16:00:00,25.204762,85.514960,PM2.5,30,123,64
India,Andhra_Pradesh,Vijayawada,"Rajiv Nagar, Vijayawada - APPCB",05-03-2026 16:00:00,16.554731,80.649110,NO2,17,26,23
India,Andhra_Pradesh,Vijayawada,"Rajiv Nagar, Vijayawada - APPCB",05-03-2026 16:00:00,16.554731,80.649110,OZONE,22,31,25
India,Andhra_Pradesh,Visakhapatnam,"GVM Corporation, Visakhapatnam - APPCB",05-03-2026 16:00:00,17.72,83.3,SO2,2,106,27
India,Arunachal_Pradesh,Naharlagun,"Naharlagun, Naharlagun - APSPCB",05-03-2026 16:00:00,27.103358,93.679645,OZONE,6,6,6
India,Assam,Byrnihat,"Central Academy for SFS, Byrnihat - PCBA",05-03-2026 16:00:00,26.071318,91.87488,CO,43,77,55
India,Assam,Guwahati,"LGBI Airport, Guwahati - PCBA",05-03-2026 16:00:00,26.10887,91.589544,OZONE,13,16,14
India,Assam,Guwahati,"Railway Colony, Guwahati - PCBA",05-03-2026 16:00:00,26.181742,91.78063,PM10,NA,NA,NA
India,Assam,Guwahati,"Railway Colony, Guwahati - PCBA",05-03-2026 16:00:00,26.181742,91.78063,NO2,3,3,3
India,Assam,Nalbari,"Bata Chowk, Nalbari - PCBA",05-03-2026 16:00:00,26.446912,91.439057,CO,20,23,21
India,Assam,Silchar,"Tarapur, Silchar - PCBA",05-03-2026 16:00:00,24.82827,92.79525,NO2,23,31,28
India,Assam,Silchar,"Tarapur, Silchar - PCBA",05-03-2026 16:00:00,24.82827,92.79525,OZONE,2,7,4
India,Assam,Sivasagar,"Girls College, Sivasagar - PCBA",05-03-2026 16:00:00,26.987634,94.636574,NH3,4,16,8
India,Bihar,Muzaffarpur,"Muzaffarpur Collectorate, Muzaffarpur - BSPCB",05-03-2026 16:00:00,26.1209,85.3647,PM2.5,NA,NA,NA
India,Bihar,Patna,"Govt. High School Shikarpur, Patna - BSPCB",05-03-2026 16:00:00,25.592539,85.227158,NH3,4,6,5
India,Bihar,Patna,"Govt. High School Shikarpur, Patna - BSPCB",05-03-2026 16:00:00,25.592539,85.227158,CO,50,121,60
India,Bihar,Patna,"IGSC Planetarium Complex, Patna - BSPCB",05-03-2026 16:00:00,25.610369,85.132568,NO2,1,2,2
India,Bihar,Patna,"Rajbansi Nagar, Patna - BSPCB",05-03-2026 16:00:00,25.599486,85.113666,PM2.5,48,66,58
India,Andhra_Pradesh,Amaravati,"Secretariat, Amaravati - APPCB",05-03-2026 16:00:00,16.5150833,80.5181667,PM10,60,133,96
India,Andhra_Pradesh,Kadapa,"Yerramukkapalli, Kadapa - APPCB",05-03-2026 16:00:00,14.465052,78.824187,PM2.5,50,87,77
India,Andhra_Pradesh,Kadapa,"Yerramukkapalli, Kadapa - APPCB",05-03-2026 16:00:00,14.465052,78.824187,NO2,17,23,22
India,Andhra_Pradesh,Rajamahendravaram,"Anand Kala Kshetram, Rajamahendravaram - APPCB",05-03-2026 16:00:00,16.9872867,81.7363176,NO2,12,36,20
India,Bihar,Aurangabad,"Gurdeo Nagar, Aurangabad - BSPCB",05-03-2026 16:00:00,24.75746,84.366208,PM10,50,91,66
India,Bihar,Aurangabad,"Gurdeo Nagar, Aurangabad - BSPCB",05-03-2026 16:00:00,24.75746,84.366208,NH3,1,2,1
India,Bihar,Patna,"Samanpura, Patna - BSPCB",05-03-2026 16:00:00,25.596727,85.085624,PM10,92,143,117
India,Bihar,Patna,"Samanpura, Patna - BSPCB",05-03-2026 16:00:00,25.596727,85.085624,SO2,4,7,6
India,Bihar,Patna,"Samanpura, Patna - BSPCB",05-03-2026 16:00:00,25.596727,85.085624,CO,68,109,84
India,Bihar,Purnia,"Mariam Nagar, Purnia - BSPCB",05-03-2026 16:00:00,25.366336,87.117468,CO,54,68,61
India,Bihar,Purnia,"Mariam Nagar, Purnia - BSPCB",05-03-2026 16:00:00,25.366336,87.117468,OZONE,6,31,19
India,Bihar,Rajgir,"Dangi Tola, Rajgir - BSPCB",05-03-2026 16:00:00,25.03280,85.41948,SO2,2,3,3
India,Bihar,Saharsa,"Police Line, Saharsa - BSPCB",05-03-2026 16:00:00,25.892357,86.590325,CO,32,40,35
India,Bihar,Samastipur,"DM Office_Kasipur, Samastipur - BSPCB",05-03-2026 16:00:00,25.859655,85.77944,PM2.5,20,317,98
India,Bihar,Samastipur,"DM Office_Kasipur, Samastipur - BSPCB",05-03-2026 16:00:00,25.859655,85.77944,PM10,20,191,85
India,Bihar,Samastipur,"DM Office_Kasipur, Samastipur - BSPCB",05-03-2026 16:00:00,25.859655,85.77944,NO2,8,9,8
India,Chhattisgarh,Raipur,"Siltara Phase-II, Raipur - CECB",05-03-2026 16:00:00,21.371751,81.664929,SO2,4,32,11
India,Chhattisgarh,Tumidih,"OP Jindal Industrial Park, Tumidih - CECB",05-03-2026 16:00:00,22.06631475,83.33820077,CO,14,52,21
India,Delhi,Delhi,"Alipur, Delhi - DPCC",05-03-2026 16:00:00,28.815329,77.153010,PM10,107,189,128
India,Delhi,Delhi,"Alipur, Delhi - DPCC",05-03-2026 16:00:00,28.815329,77.153010,CO,13,28,23
India,Delhi,Delhi,"Anand Vihar, Delhi - DPCC",05-03-2026 16:00:00,28.647622,77.3158090,PM2.5,70,223,123
India,Delhi,Delhi,"Anand Vihar, Delhi - DPCC",05-03-2026 16:00:00,28.647622,77.3158090,NH3,5,7,6
India,Delhi,Delhi,"Ashok Vihar, Delhi - DPCC",05-03-2026 16:00:00,28.695381,77.181665,PM2.5,67,302,124
India,Delhi,Delhi,"Ashok Vihar, Delhi - DPCC",05-03-2026 16:00:00,28.695381,77.181665,SO2,18,37,27
India,Bihar,Siwan,"Chitragupta Nagar, Siwan - BSPCB",05-03-2026 16:00:00,26.2271665,84.3570427,NO2,2,2,2
India,Bihar,Siwan,"Chitragupta Nagar, Siwan - BSPCB",05-03-2026 16:00:00,26.2271665,84.3570427,OZONE,15,16,15
India,Chandigarh,Chandigarh,"Sector 22, Chandigarh - CPCC",05-03-2026 16:00:00,30.735567,76.775714,PM2.5,32,72,50
India,Chandigarh,Chandigarh,"Sector 22, Chandigarh - CPCC",05-03-2026 16:00:00,30.735567,76.775714,PM10,41,90,59
India,Chandigarh,Chandigarh,"Sector 22, Chandigarh - CPCC",05-03-2026 16:00:00,30.735567,76.775714,NH3,11,20,15
India,Chandigarh,Chandigarh,"Sector 22, Chandigarh - CPCC",05-03-2026 16:00:00,30.735567,76.775714,CO,64,87,76
India,Chandigarh,Chandigarh,"Sector-25, Chandigarh - CPCC",05-03-2026 16:00:00,30.751462,76.762879,PM2.5,61,128,90
India,Chandigarh,Chandigarh,"Sector-25, Chandigarh - CPCC",05-03-2026 16:00:00,30.751462,76.762879,PM10,55,121,96
India,Chandigarh,Chandigarh,"Sector-53, Chandigarh - CPCC",05-03-2026 16:00:00,30.719859,76.738637,PM2.5,35,63,49
India,Delhi,Delhi,"Bawana, Delhi - DPCC",05-03-2026 16:00:00,28.776200,77.051074,NO2,5,16,9
India,Delhi,Delhi,"CRRI Mathura Road, Delhi - IMD",05-03-2026 16:00:00,28.5512005,77.2735737,PM10,101,165,125
India,Delhi,Delhi,"CRRI Mathura Road, Delhi - IMD",05-03-2026 16:00:00,28.5512005,77.2735737,OZONE,6,65,35
India,Delhi,Delhi,"Cantonment Area, Delhi - DPCC ",05-03-2026 16:00:00,28.594169 ,77.125100 ,PM2.5,25,52,40
India,Delhi,Delhi,"Cantonment Area, Delhi - DPCC ",05-03-2026 16:00:00,28.594169 ,77.125100 ,NH3,3,6,4
India,Delhi,Delhi,"Chandni Chowk, Delhi - IITM",05-03-2026 16:00:00,28.656756,77.227234,NO2,24,53,40
India,Delhi,Delhi,"Chandni Chowk, Delhi - IITM",05-03-2026 16:00:00,28.656756,77.227234,CO,26,102,84
India,Delhi,Delhi,"Commonwealth Sports Complex, Delhi - DPCC",05-03-2026 16:00:00,28.615828 ,77.271992 ,NO2,17,144,30
India,Chhattisgarh,Korba,"Urja Nagar, Korba - CECB",05-03-2026 16:00:00,22.348441,82.549611,SO2,9,18,14
India,Chhattisgarh,Kunjemura,"OP Jindal School, Kunjemura - CECB",05-03-2026 16:00:00,22.126650,83.483212,PM2.5,22,46,36
India,Chhattisgarh,Milupara,"Govt. Higher Secondary School, Milupara - CECB",05-03-2026 16:00:00,22.1910172,83.5197009,NO2,11,44,23
India,Chhattisgarh,Milupara,"Govt. Higher Secondary School, Milupara - CECB",05-03-2026 16:00:00,22.1910172,83.5197009,CO,18,59,26
India,Chhattisgarh,Raipur,"AIIMS, Raipur - CECB",05-03-2026 16:00:00,21.258815,81.578979,PM2.5,NA,NA,NA
India,Chhattisgarh,Raipur,"Siltara Phase-II, Raipur - CECB",05-03-2026 16:00:00,21.371751,81.664929,PM10,16,84,45
India,Delhi,Delhi,"DTU, Delhi - CPCB",05-03-2026 16:00:00,28.7500499,77.1112615,NO2,47,61,56
India,Delhi,Delhi,"DTU, Delhi - CPCB",05-03-2026 16:00:00,28.7500499,77.1112615,CO,10,26,18
India,Delhi,Delhi,"Dwarka-Sector 8, Delhi - DPCC ",05-03-2026 16:00:00,28.5710274,77.0719006,SO2,20,36,27
India,Delhi,Delhi,"IGI Airport (T3), Delhi - IMD",05-03-2026 16:00:00,28.5627763,77.1180053,NO2,31,65,43
India,Delhi,Delhi,"IGNOU_Maidan Garhi, Delhi - DPCC",05-03-2026 16:00:00,28.493624 ,77.201159 ,PM2.5,74,226,122
India,Delhi,Delhi,"IIT Delhi, Delhi - IITM",05-03-2026 16:00:00,28.542460,77.191651,PM2.5,74,147,92
India,Delhi,Delhi,"IIT Delhi, Delhi - IITM",05-03-2026 16:00:00,28.542460,77.191651,NO2,6,58,25
India,Delhi,Delhi,"IIT Delhi, Delhi - IITM",05-03-2026 16:00:00,28.542460,77.191651,CO,28,46,37
India,Delhi,Delhi,"JNU, Delhi - DPCC",05-03-2026 16:00:00,28.540721 ,77.168544 ,PM2.5,64,145,94
India,Delhi,Delhi,"JNU, Delhi - DPCC",05-03-2026 16:00:00,28.540721 ,77.168544 ,NO2,6,44,19
India,Delhi,Delhi,"Jahangirpuri, Delhi - DPCC",05-03-2026 16:00:00,28.732820,77.170633,NO2,33,50,40
India,Chhattisgarh,Bhilai,"32Bungalows, Bhilai - CECB",05-03-2026 16:00:00,21.194815,81.314770,NH3,NA,NA,NA
India,Chhattisgarh,Bhilai,"Civic Center, Bhilai - Bhilai Steel Plant",05-03-2026 16:00:00,21.185571,81.343175,PM10,13,38,21
India,Chhattisgarh,Bilaspur,"Mangala, Bilaspur - NTPC",05-03-2026 16:00:00,22.08815,82.13737,NO2,19,30,28
India,Delhi,Delhi,"Aya Nagar, Delhi - IMD",05-03-2026 16:00:00,28.4706914,77.1099364,PM10,93,173,125
India,Delhi,Delhi,"Major Dhyan Chand National Stadium, Delhi - DPCC",05-03-2026 16:00:00,28.611281,77.237738,PM10,102,172,129
India,Delhi,Delhi,"Major Dhyan Chand National Stadium, Delhi - DPCC",05-03-2026 16:00:00,28.611281,77.237738,NO2,19,74,36
India,Delhi,Delhi,"Major Dhyan Chand National Stadium, Delhi - DPCC",05-03-2026 16:00:00,28.611281,77.237738,SO2,21,41,27
India,Delhi,Delhi,"Mandir Marg, Delhi - DPCC",05-03-2026 16:00:00,28.636429,77.201067,NH3,10,13,12
India,Delhi,Delhi,"Mandir Marg, Delhi - DPCC",05-03-2026 16:00:00,28.636429,77.201067,CO,34,58,47
India,Delhi,Delhi,"Mundka, Delhi - DPCC",05-03-2026 16:00:00,28.684678,77.076574,NO2,55,69,61
India,Delhi,Delhi,"Mundka, Delhi - DPCC",05-03-2026 16:00:00,28.684678,77.076574,CO,42,60,57
India,Delhi,Delhi,"NSIT Dwarka, Delhi - CPCB",05-03-2026 16:00:00,28.60909,77.0325413,OZONE,14,46,34
India,Delhi,Delhi,"NSUT Jaffarpur, Delhi - DPCC",05-03-2026 16:00:00,28.594004 ,76.909423 ,PM2.5,85,264,166
India,Delhi,Delhi,"NSUT Jaffarpur, Delhi - DPCC",05-03-2026 16:00:00,28.594004 ,76.909423 ,SO2,77,82,80
India,Delhi,Delhi,"Najafgarh, Delhi - DPCC",05-03-2026 16:00:00,28.570173,76.933762,PM2.5,58,193,95
India,Delhi,Delhi,"Najafgarh, Delhi - DPCC",05-03-2026 16:00:00,28.570173,76.933762,NO2,24,101,76
India,Delhi,Delhi,"Najafgarh, Delhi - DPCC",05-03-2026 16:00:00,28.570173,76.933762,SO2,17,84,25
India,Delhi,Delhi,"Nehru Nagar, Delhi - DPCC",05-03-2026 16:00:00,28.567890,77.250515,NH3,21,25,23
India,Delhi,Delhi,"Nehru Nagar, Delhi - DPCC",05-03-2026 16:00:00,28.567890,77.250515,SO2,23,113,30
India,Delhi,Delhi,"North Campus, DU, Delhi - IMD",05-03-2026 16:00:00,28.6573814,77.1585447,PM2.5,64,172,96
India,Delhi,Delhi,"North Campus, DU, Delhi - IMD",05-03-2026 16:00:00,28.6573814,77.1585447,PM10,100,167,134
India,Delhi,Delhi,"North Campus, DU, Delhi - IMD",05-03-2026 16:00:00,28.6573814,77.1585447,CO,6,46,24
India,Delhi,Delhi,"Patparganj, Delhi - DPCC",05-03-2026 16:00:00,28.623763,77.287209,PM2.5,60,187,100
India,Delhi,Delhi,"Punjabi Bagh, Delhi - DPCC",05-03-2026 16:00:00,28.674045,77.131023,PM2.5,78,301,157
India,Delhi,Delhi,"Pusa, Delhi - DPCC",05-03-2026 16:00:00,28.639652,77.146275,PM2.5,73,250,132
India,Delhi,Delhi,"Pusa, Delhi - DPCC",05-03-2026 16:00:00,28.639652,77.146275,NO2,29,100,55
India,Delhi,Delhi,"Pusa, Delhi - DPCC",05-03-2026 16:00:00,28.639652,77.146275,CO,30,110,80
India,Delhi,Delhi,"Pusa, Delhi - IMD",05-03-2026 16:00:00,28.636110,77.173332,NO2,32,99,56
India,Delhi,Delhi,"Pusa, Delhi - IMD",05-03-2026 16:00:00,28.636110,77.173332,CO,72,101,83
India,Delhi,Delhi,"Pusa, Delhi - IMD",05-03-2026 16:00:00,28.636110,77.173332,OZONE,43,158,153
India,Delhi,Delhi,"Talkatora Garden, Delhi - DPCC",05-03-2026 16:00:00,28.621810,77.1944633,OZONE,NA,NA,NA
India,Delhi,Delhi,"Vivek Vihar, Delhi - DPCC",05-03-2026 16:00:00,28.672342,77.315260,CO,50,72,65
India,Delhi,Delhi,"Wazirpur, Delhi - DPCC",05-03-2026 16:00:00,28.699793,77.165453,PM2.5,63,302,126
India,Delhi,Delhi,"Wazirpur, Delhi - DPCC",05-03-2026 16:00:00,28.699793,77.165453,NO2,34,54,44
India,Delhi,Delhi,"Sonia Vihar, Delhi - DPCC",05-03-2026 16:00:00,28.710508,77.249485,PM2.5,60,183,107
India,Delhi,Delhi,"Sonia Vihar, Delhi - DPCC",05-03-2026 16:00:00,28.710508,77.249485,OZONE,12,86,65
India,Delhi,Delhi,"Sri Aurobindo Marg, Delhi - DPCC",05-03-2026 16:00:00,28.531346,77.190156,NO2,13,54,30
India,Delhi,Delhi,"Shadipur, Delhi - CPCB",05-03-2026 16:00:00,28.6514781,77.1473105,OZONE,10,41,34
India,Delhi,Delhi,"Sirifort, Delhi - CPCB",05-03-2026 16:00:00,28.5504249,77.2159377,PM10,116,282,150
India,Delhi,Delhi,"Sirifort, Delhi - CPCB",05-03-2026 16:00:00,28.5504249,77.2159377,CO,6,18,14
India,Delhi,Delhi,"Jawaharlal Nehru Stadium, Delhi - DPCC",05-03-2026 16:00:00,28.580280,77.233829,OZONE,16,117,84
India,Delhi,Delhi,"Lodhi Road, Delhi - IMD",05-03-2026 16:00:00,28.5918245,77.2273074,PM10,87,212,132
India,Delhi,Delhi,"R K Puram, Delhi - DPCC",05-03-2026 16:00:00,28.563262,77.186937,NH3,7,15,9
India,Delhi,Delhi,"R K Puram, Delhi - DPCC",05-03-2026 16:00:00,28.563262,77.186937,OZONE,10,105,78
India,Gujarat,Ahmedabad,"Maninagar, Ahmedabad - GPCB",05-03-2026 16:00:00,23.002657,72.591912,NO2,80,90,85
India,Gujarat,Gandhinagar,"IIPHG Lekawada, Gandhinagar - IITM",05-03-2026 16:00:00,23.243639,72.68994,OZONE,5,25,19
India,Gujarat,Gandhinagar,"Sector-10, Gandhinagar - GPCB",05-03-2026 16:00:00,23.221714,72.654328,PM2.5,52,88,69
India,Gujarat,Gandhinagar,"Sector-10, Gandhinagar - GPCB",05-03-2026 16:00:00,23.221714,72.654328,PM10,58,94,75
India,Gujarat,Gandhinagar,"Sector-10, Gandhinagar - GPCB",05-03-2026 16:00:00,23.221714,72.654328,NO2,23,33,28
India,Gujarat,Gandhinagar,"Sector-10, Gandhinagar - GPCB",05-03-2026 16:00:00,23.221714,72.654328,NH3,2,3,2
India,Gujarat,Gandhinagar,"Sector-10, Gandhinagar - GPCB",05-03-2026 16:00:00,23.221714,72.654328,CO,32,44,38
India,Gujarat,Gandhinagar,"Sector-10, Gandhinagar - GPCB",05-03-2026 16:00:00,23.221714,72.654328,OZONE,3,59,37
India,Gujarat,Mehsana,"Sadanand Nagar, Mehsana - Nexteng Enviro",05-03-2026 16:00:00,23.593150,72.372792,CO,20,88,38
India,Gujarat,Rajkot,"Mavdi, Rajkot - Nexteng Enviro ",05-03-2026 16:00:00,22.248853,70.776774,NH3,2,2,2
India,Gujarat,Rajkot,"Mavdi, Rajkot - Nexteng Enviro ",05-03-2026 16:00:00,22.248853,70.776774,OZONE,8,23,17
India,Gujarat,Surat,"Science Center, Surat - SMC",05-03-2026 16:00:00,21.170046,72.795405,PM2.5,61,301,105
India,Haryana,Dharuhera,"Municipal Corporation Office, Dharuhera -  HSPCB",05-03-2026 16:00:00,28.206800,76.799700,NO2,16,56,42
India,Haryana,Dharuhera,"Municipal Corporation Office, Dharuhera -  HSPCB",05-03-2026 16:00:00,28.206800,76.799700,NH3,10,30,21
India,Haryana,Dharuhera,"Municipal Corporation Office, Dharuhera -  HSPCB",05-03-2026 16:00:00,28.206800,76.799700,OZONE,6,47,33
India,Haryana,Faridabad,"New Industrial Town, Faridabad - HSPCB",05-03-2026 16:00:00,28.39072,77.30059,CO,10,12,11
India,Haryana,Faridabad,"Sector 11, Faridabad - HSPCB",05-03-2026 16:00:00,28.376058,77.315741,PM2.5,103,246,178
India,Haryana,Faridabad,"Sector 11, Faridabad - HSPCB",05-03-2026 16:00:00,28.376058,77.315741,CO,26,44,42
India,Haryana,Faridabad,"Sector 11, Faridabad - HSPCB",05-03-2026 16:00:00,28.376058,77.315741,OZONE,14,16,15
India,Haryana,Faridabad,"Sector 30, Faridabad - HSPCB",05-03-2026 16:00:00,28.4417,77.3217,PM2.5,96,114,103
India,Haryana,Faridabad,"Sector 30, Faridabad - HSPCB",05-03-2026 16:00:00,28.4417,77.3217,PM10,108,117,112
India,Haryana,Faridabad,"Sector 30, Faridabad - HSPCB",05-03-2026 16:00:00,28.4417,77.3217,SO2,4,4,4
India,Gujarat,Surat,"Science Center, Surat - SMC",05-03-2026 16:00:00,21.170046,72.795405,SO2,33,50,38
India,Gujarat,Vadodara,"Bapunagar, Vadodara - Nexteng Enviro",05-03-2026 16:00:00,22.320153,73.216285,PM10,65,134,105
India,Gujarat,Vapi,"Phase-1 GIDC, Vapi - GPCB",05-03-2026 16:00:00,20.362421,72.918013,PM10,NA,NA,NA
India,Gujarat,Vapi,"Phase-1 GIDC, Vapi - GPCB",05-03-2026 16:00:00,20.362421,72.918013,NO2,NA,NA,NA
India,Gujarat,Vapi,"Phase-1 GIDC, Vapi - GPCB",05-03-2026 16:00:00,20.362421,72.918013,SO2,NA,NA,NA
India,Haryana,Ambala,"Patti Mehar, Ambala - HSPCB",05-03-2026 16:00:00,30.379589,76.778328,NH3,7,8,8
India,Haryana,Ambala,"Patti Mehar, Ambala - HSPCB",05-03-2026 16:00:00,30.379589,76.778328,CO,22,48,28
India,Gujarat,Ahmedabad,"SVPI Airport Hansol, Ahmedabad - IITM",05-03-2026 16:00:00,23.076793,72.627874,SO2,4,10,6
India,Gujarat,Ankleshwar,"GIDC, Ankleshwar - GPCB",05-03-2026 16:00:00,21.613267,73.010555,NO2,NA,NA,NA
India,Gujarat,Bhavnagar,"Vidhyanagar, Bhavnagar - Nexteng Enviro",05-03-2026 16:00:00,21.755417,72.139056,PM2.5,13,63,39
India,Gujarat,Bhavnagar,"Vidhyanagar, Bhavnagar - Nexteng Enviro",05-03-2026 16:00:00,21.755417,72.139056,NO2,44,71,51
India,Gujarat,Gandhinagar,"GIFT City, Gandhinagar - IITM",05-03-2026 16:00:00,23.163798,72.677768,PM2.5,34,62,47
India,Gujarat,Gandhinagar,"IIPHG Lekawada, Gandhinagar - IITM",05-03-2026 16:00:00,23.243639,72.68994,SO2,NA,NA,NA
India,Haryana,Fatehabad,"Huda Sector, Fatehabad - HSPCB",05-03-2026 16:00:00,29.503664,75.467934,OZONE,55,76,70
India,Haryana,Gurugram,"Sector-51, Gurugram - HSPCB",05-03-2026 16:00:00,28.4227,77.0667,PM2.5,138,290,210
India,Haryana,Gurugram,"Vikas Sadan, Gurugram - HSPCB",05-03-2026 16:00:00,28.4501238,77.0263051,OZONE,4,31,24
India,Haryana,Hisar,"Urban Estate-II, Hisar - HSPCB",05-03-2026 16:00:00,29.140560,75.744941,SO2,5,16,10
India,Haryana,Faridabad,"Sector 30, Faridabad - HSPCB",05-03-2026 16:00:00,28.4417,77.3217,OZONE,14,34,28
India,Haryana,Fatehabad,"Huda Sector, Fatehabad - HSPCB",05-03-2026 16:00:00,29.503664,75.467934,PM2.5,12,34,24
India,Gujarat,Ahmedabad,"SAC ISRO Bopal, Ahmedabad - IITM",05-03-2026 16:00:00,23.041137,72.456691,NH3,5,10,8
India,Gujarat,Ahmedabad,"SAC ISRO Bopal, Ahmedabad - IITM",05-03-2026 16:00:00,23.041137,72.456691,CO,4,34,18
India,Haryana,Ballabgarh,"Nathu Colony, Ballabgarh - HSPCB",05-03-2026 16:00:00,28.3419248,77.319699,NO2,19,21,20
India,Karnataka,Hubballi,"Lingaraj Nagar, Hubballi - KSPCB",05-03-2026 16:00:00,15.3714823,75.1160168,NO2,7,11,11
India,Karnataka,Kalaburagi,"Mahatma Basaveswar Colony, Kalaburgi - KSPCB",05-03-2026 16:00:00,17.336318,76.847397,PM10,32,92,63
India,Karnataka,Kalaburagi,"Mahatma Basaveswar Colony, Kalaburgi - KSPCB",05-03-2026 16:00:00,17.336318,76.847397,NO2,13,18,16
India,Karnataka,Madikeri,"Stuart Hill, Madikeri - KSPCB",05-03-2026 16:00:00,12.415911,75.735050,PM2.5,36,52,43
India,Karnataka,Mysuru,"Hebbal 1st Stage, Mysuru - KSPCB",05-03-2026 16:00:00,12.21041,76.37376,PM2.5,32,66,45
India,Karnataka,Mysuru,"Hebbal 1st Stage, Mysuru - KSPCB",05-03-2026 16:00:00,12.21041,76.37376,NH3,4,6,5
India,Karnataka,Ramanagara,"Vijay Nagar, Ramanagara - KSPCB",05-03-2026 16:00:00,12.733409,77.298051,CO,5,36,22
India,Jammu_and_Kashmir,Srinagar,"Rajbagh, Srinagar - JKPCC",05-03-2026 16:00:00,34.066206,74.819820,PM2.5,20,44,28
India,Jammu_and_Kashmir,Srinagar,"Rajbagh, Srinagar - JKPCC",05-03-2026 16:00:00,34.066206,74.819820,OZONE,1,3,1
India,Jharkhand,Dhanbad,"Sardar Patel Nagar, Dhanbad - JSPCB",05-03-2026 16:00:00,23.80569,86.44268,SO2,NA,NA,NA
India,Karnataka,Bengaluru,"BTM Layout, Bengaluru - CPCB",05-03-2026 16:00:00,12.9135218,77.5950804,PM2.5,24,61,49
India,Karnataka,Bengaluru,"BTM Layout, Bengaluru - CPCB",05-03-2026 16:00:00,12.9135218,77.5950804,PM10,76,105,78
India,Karnataka,Bengaluru,"BWSSB Kadabesanahalli, Bengaluru - CPCB",05-03-2026 16:00:00,12.9352049,77.6814488,PM2.5,59,329,191
India,Karnataka,Bengaluru,"BWSSB Kadabesanahalli, Bengaluru - CPCB",05-03-2026 16:00:00,12.9352049,77.6814488,SO2,2,8,5
India,Haryana,Mandikhera,"General Hospital, Mandikhera(Nuh) - HSPCB",05-03-2026 16:00:00,27.9002,76.9938,NH3,13,14,13
India,Haryana,Narnaul,"Shastri Nagar, Narnaul - HSPCB",05-03-2026 16:00:00,28.060249,76.113115,PM10,51,80,62
India,Haryana,Narnaul,"Shastri Nagar, Narnaul - HSPCB",05-03-2026 16:00:00,28.060249,76.113115,OZONE,8,28,21
India,Haryana,Panchgaon,"Amity University, Panchgaon - IITM",05-03-2026 16:00:00,28.3153,76.9143,SO2,7,17,12
India,Haryana,Panchgaon,"Amity University, Panchgaon - IITM",05-03-2026 16:00:00,28.3153,76.9143,CO,1,12,7
India,Haryana,Panchkula,"Sector-6, Panchkula - HSPCB ",05-03-2026 16:00:00,30.7057778,76.8531805555555,PM2.5,15,60,34
India,Haryana,Panchkula,"Sector-6, Panchkula - HSPCB ",05-03-2026 16:00:00,30.7057778,76.8531805555555,CO,6,30,22
India,Karnataka,Shivamogga,"Vinoba Nagara, Shivamogga - KSPCB",05-03-2026 16:00:00,13.940000,75.555917,NH3,2,3,2
India,Karnataka,Vijayapura,"Ibrahimpur, Vijayapura - KSPCB",05-03-2026 16:00:00,16.802639,75.722694,NO2,11,12,11
India,Karnataka,Vijayapura,"Ibrahimpur, Vijayapura - KSPCB",05-03-2026 16:00:00,16.802639,75.722694,SO2,3,6,3
India,Karnataka,Yadgir,"Collector Office, Yadgir - KSPCB",05-03-2026 16:00:00,16.7602,77.1428,NO2,4,24,12
India,Kerala,Kollam,"Polayathode, Kollam - Kerala PCB",05-03-2026 16:00:00,8.8787,76.6073,PM10,NA,NA,NA
India,Kerala,Thiruvananthapuram,"Kariavattom, Thiruvananthapuram - Kerala PCB",05-03-2026 16:00:00,8.563700,76.886500,NO2,6,7,6
India,Karnataka,Bengaluru,"Jayanagar 5th Block, Bengaluru - KSPCB",05-03-2026 16:00:00,12.920984,77.584908,PM2.5,118,222,157
India,Karnataka,Bengaluru,"Jigani, Bengaluru - KSPCB",05-03-2026 16:00:00,12.7816279,77.6299145,NO2,21,23,22
India,Karnataka,Bengaluru,"Jigani, Bengaluru - KSPCB",05-03-2026 16:00:00,12.7816279,77.6299145,NH3,3,3,3
India,Karnataka,Bengaluru,"Peenya, Bengaluru - CPCB",05-03-2026 16:00:00,13.0270199,77.494094,OZONE,28,29,29
India,Karnataka,Bengaluru,"RVCE-Mailasandra, Bengaluru - KSPCB",05-03-2026 16:00:00,12.921418,77.502466,NO2,24,31,31
India,Karnataka,Bengaluru,"RVCE-Mailasandra, Bengaluru - KSPCB",05-03-2026 16:00:00,12.921418,77.502466,NH3,3,4,4
India,Karnataka,Bengaluru,"RVCE-Mailasandra, Bengaluru - KSPCB",05-03-2026 16:00:00,12.921418,77.502466,OZONE,23,24,23
India,Haryana,Kaithal,"Rishi Nagar, Kaithal - HSPCB",05-03-2026 16:00:00,29.8006,76.4155,PM2.5,61,81,71
India,Haryana,Kaithal,"Rishi Nagar, Kaithal - HSPCB",05-03-2026 16:00:00,29.8006,76.4155,PM10,74,99,87
India,Haryana,Kaithal,"Rishi Nagar, Kaithal - HSPCB",05-03-2026 16:00:00,29.8006,76.4155,NO2,29,34,31
India,Haryana,Kaithal,"Rishi Nagar, Kaithal - HSPCB",05-03-2026 16:00:00,29.8006,76.4155,NH3,5,6,6
India,Haryana,Kaithal,"Rishi Nagar, Kaithal - HSPCB",05-03-2026 16:00:00,29.8006,76.4155,SO2,NA,NA,NA
India,Haryana,Karnal,"Sector-12, Karnal - HSPCB",05-03-2026 16:00:00,29.695300,77.002700,NO2,6,7,6
India,Karnataka,Bengaluru,"Bapuji Nagar, Bengaluru - KSPCB",05-03-2026 16:00:00,12.951913,77.539784,SO2,11,42,26
India,Karnataka,Bengaluru,"Bapuji Nagar, Bengaluru - KSPCB",05-03-2026 16:00:00,12.951913,77.539784,CO,12,63,43
India,Karnataka,Bengaluru,"City Railway Station, Bengaluru - KSPCB",05-03-2026 16:00:00,12.9756843,77.5660749,CO,60,66,63
India,Karnataka,Bengaluru,"Hebbal, Bengaluru - KSPCB",05-03-2026 16:00:00,13.029152,77.585901,PM10,90,233,126
India,Karnataka,Bengaluru,"Silk Board, Bengaluru - KSPCB",05-03-2026 16:00:00,12.917348,77.622813,SO2,5,19,7
India,Karnataka,Chikkaballapur,"Chikkaballapur Rural, Chikkaballapur - KSPCB",05-03-2026 16:00:00,13.428828,77.731418,PM2.5,78,152,106
India,Karnataka,Dharwad,"Kalabhavan, Dharwad - KSPCB",05-03-2026 16:00:00,15.459706,75.008381,NH3,6,6,6
India,Haryana,Yamuna Nagar,"Gobind Pura, Yamuna Nagar - HSPCB",05-03-2026 16:00:00,30.1480566,77.2893471,CO,26,53,44
India,Haryana,Yamuna Nagar,"Gobind Pura, Yamuna Nagar - HSPCB",05-03-2026 16:00:00,30.1480566,77.2893471,OZONE,8,39,36
India,Jammu_and_Kashmir,Pampore,"Khrew, Pampore - JKPCC",05-03-2026 16:00:00,34.031606,75.009712,NO2,21,69,38
India,Kerala,Thiruvananthapuram,"Plammoodu, Thiruvananthapuram - Kerala PCB",05-03-2026 16:00:00,8.5149093,76.9435879,SO2,10,28,17
India,Kerala,Thiruvananthapuram,"Plammoodu, Thiruvananthapuram - Kerala PCB",05-03-2026 16:00:00,8.5149093,76.9435879,CO,12,38,16
India,Kerala,Thrissur,"Corporation Ground, Thrissur - Kerala PCB",05-03-2026 16:00:00,10.532400,76.215900,PM2.5,41,67,57
India,Kerala,Thrissur,"Corporation Ground, Thrissur - Kerala PCB",05-03-2026 16:00:00,10.532400,76.215900,SO2,NA,NA,NA
India,Kerala,Thrissur,"Corporation Ground, Thrissur - Kerala PCB",05-03-2026 16:00:00,10.532400,76.215900,OZONE,29,30,30
India,Madhya Pradesh,Bhopal,"Idgah Hills, Bhopal - MPPCB",05-03-2026 16:00:00,23.264759,77.381568,CO,21,46,34
India,Madhya Pradesh,Bhopal,"Paryavaran Parisar, Bhopal - MPPCB",05-03-2026 16:00:00,23.210494,77.425409,CO,9,67,23
India,Madhya Pradesh,Bhopal,"T T Nagar, Bhopal - MPPCB",05-03-2026 16:00:00,23.233584,77.400574,PM2.5,12,64,37
India,Madhya Pradesh,Bhopal,"T T Nagar, Bhopal - MPPCB",05-03-2026 16:00:00,23.233584,77.400574,NH3,5,6,6
India,Madhya Pradesh,Bhopal,"T T Nagar, Bhopal - MPPCB",05-03-2026 16:00:00,23.233584,77.400574,CO,27,76,36
India,Madhya Pradesh,Damoh,"Shrivastav Colony, Damoh - MPPCB",05-03-2026 16:00:00,23.81748678,79.446246,PM10,57,153,91
India,Madhya Pradesh,Dewas,"Bhopal Chauraha, Dewas - MPPCB",05-03-2026 16:00:00,22.9682591,76.064118,PM2.5,NA,NA,NA
India,Madhya Pradesh,Dewas,"Bhopal Chauraha, Dewas - MPPCB",05-03-2026 16:00:00,22.9682591,76.064118,OZONE,35,91,44
India,Madhya Pradesh,Jabalpur,"Marhatal, Jabalpur - MPPCB",05-03-2026 16:00:00,23.168606,79.932247,PM10,66,397,120
India,Madhya Pradesh,Jabalpur,"Marhatal, Jabalpur - MPPCB",05-03-2026 16:00:00,23.168606,79.932247,SO2,21,27,24
India,Madhya Pradesh,Jabalpur,"Marhatal, Jabalpur - MPPCB",05-03-2026 16:00:00,23.168606,79.932247,CO,28,87,40
India,Madhya Pradesh,Jabalpur,"Suhagi, Jabalpur - JMC",05-03-2026 16:00:00,23.218135,79.957770,PM2.5,18,60,34
India,Madhya Pradesh,Jabalpur,"Suhagi, Jabalpur - JMC",05-03-2026 16:00:00,23.218135,79.957770,NO2,42,110,56
India,Madhya Pradesh,Katni,"Gole Bazar, Katni - MPPCB",05-03-2026 16:00:00,23.50016,80.23284,SO2,3,130,78
India,Madhya Pradesh,Katni,"Gole Bazar, Katni - MPPCB",05-03-2026 16:00:00,23.50016,80.23284,CO,10,52,24
India,Madhya Pradesh,Mandideep,"Sector-D Industrial Area, Mandideep - MPPCB",05-03-2026 16:00:00,23.108440,77.511428,PM2.5,NA,NA,NA
India,Madhya Pradesh,Mandideep,"Sector-D Industrial Area, Mandideep - MPPCB",05-03-2026 16:00:00,23.108440,77.511428,NO2,NA,NA,NA
India,Madhya Pradesh,Mandideep,"Sector-D Industrial Area, Mandideep - MPPCB",05-03-2026 16:00:00,23.108440,77.511428,NH3,NA,NA,NA
India,Madhya Pradesh,Mandideep,"Sector-D Industrial Area, Mandideep - MPPCB",05-03-2026 16:00:00,23.108440,77.511428,SO2,NA,NA,NA
India,Madhya Pradesh,Mandideep,"Sector-D Industrial Area, Mandideep - MPPCB",05-03-2026 16:00:00,23.108440,77.511428,CO,8,26,18
India,Madhya Pradesh,Pithampur,"Sector-2 Industrial Area, Pithampur - MPPCB",05-03-2026 16:00:00,22.624758,75.675238,PM2.5,36,122,61
India,Madhya Pradesh,Pithampur,"Sector-2 Industrial Area, Pithampur - MPPCB",05-03-2026 16:00:00,22.624758,75.675238,CO,12,44,29
India,Maharashtra,Boisar,"Khaira, Boisar - MPCB",05-03-2026 16:00:00,19.786089,72.757971,PM10,52,116,78
India,Maharashtra,Boisar,"Khaira, Boisar - MPCB",05-03-2026 16:00:00,19.786089,72.757971,NH3,5,9,6
India,Maharashtra,Boisar,"Khaira, Boisar - MPCB",05-03-2026 16:00:00,19.786089,72.757971,OZONE,14,105,47
India,Maharashtra,Chandrapur,"Chauhan Colony, Chandrapur - MPCB",05-03-2026 16:00:00,19.962900,79.298714,PM2.5,NA,NA,NA
India,Maharashtra,Chandrapur,"Chauhan Colony, Chandrapur - MPCB",05-03-2026 16:00:00,19.962900,79.298714,NH3,NA,NA,NA
India,Maharashtra,Chandrapur,"MIDC Khutala, Chandrapur - MPCB",05-03-2026 16:00:00,19.9775302,79.2337086,PM10,52,152,103
India,Maharashtra,Chandrapur,"MIDC Khutala, Chandrapur - MPCB",05-03-2026 16:00:00,19.9775302,79.2337086,NO2,NA,NA,NA
India,Maharashtra,Dhule,"Deopur, Dhule - MPCB",05-03-2026 16:00:00,20.918946,74.776388,NO2,4,56,17
India,Maharashtra,Dhule,"Deopur, Dhule - MPCB",05-03-2026 16:00:00,20.918946,74.776388,CO,7,105,14
India,Madhya Pradesh,Ratlam,"Shasthri Nagar, Ratlam - IPCA Lab",05-03-2026 16:00:00,23.331731,75.045981,NO2,15,58,30
India,Madhya Pradesh,Sagar,"Civil Lines, Sagar - MPPCB",05-03-2026 16:00:00,23.838586,78.759431,PM2.5,13,75,37
India,Madhya Pradesh,Satna,"Bandhavgar Colony, Satna - Birla Cement",05-03-2026 16:00:00,24.58434363,80.8549414,PM2.5,49,51,50
India,Madhya Pradesh,Singrauli,"Suryakiran Bhawan NCL, Singrauli - MPPCB",05-03-2026 16:00:00,24.108970,82.645580,PM10,89,178,114
India,Madhya Pradesh,Gwalior,"Maharaj Bada, Gwalior - MPPCB",05-03-2026 16:00:00,26.200388,78.147714,CO,16,112,40
India,Madhya Pradesh,Indore,"Chhoti Gwaltoli, Indore - MPPCB",05-03-2026 16:00:00,22.4310,75.5213,NH3,21,26,24
India,Madhya Pradesh,Indore,"Maguda Nagar, Indore - IMC",05-03-2026 16:00:00,22.7524,75.8872,CO,28,98,45
India,Madhya Pradesh,Indore,"Residency Area, Indore - IMC",05-03-2026 16:00:00,22.7084,75.8815,OZONE,6,14,12
India,Maharashtra,Akola,"Ramdaspeth, Akola - MPCB",05-03-2026 16:00:00,20.719516,77.000253,NO2,10,101,38
India,Maharashtra,Amravati,"Shivneri Colony, Amravati - MPCB",05-03-2026 16:00:00,20.9402359,77.7895248,NO2,7,33,17
India,Maharashtra,Amravati,"Shivneri Colony, Amravati - MPCB",05-03-2026 16:00:00,20.9402359,77.7895248,CO,10,28,18
India,Maharashtra,Amravati,"Shri Shivaji Science College, Amravati - MPCB",05-03-2026 16:00:00,20.939198,77.765701,OZONE,1,69,62
India,Madhya Pradesh,Gwalior,"City Center, Gwalior - MPPCB",05-03-2026 16:00:00,26.203442,78.193251,PM10,63,161,103
India,Madhya Pradesh,Gwalior,"City Center, Gwalior - MPPCB",05-03-2026 16:00:00,26.203442,78.193251,NO2,23,105,45
India,Madhya Pradesh,Gwalior,"City Center, Gwalior - MPPCB",05-03-2026 16:00:00,26.203442,78.193251,NH3,4,7,5
India,Madhya Pradesh,Gwalior,"City Center, Gwalior - MPPCB",05-03-2026 16:00:00,26.203442,78.193251,CO,10,105,18
India,Madhya Pradesh,Gwalior,"Deen Dayal Nagar, Gwalior - MPPCB",05-03-2026 16:00:00,26.259242,78.216432,PM2.5,43,283,121
India,Maharashtra,Badlapur,"Katrap, Badlapur - MPCB",05-03-2026 16:00:00,19.16485,73.23409,PM10,64,159,112
India,Maharashtra,Belapur,"CBD Belapur, Belapur - MPCB",05-03-2026 16:00:00,19.0243902,73.0406721,PM2.5,23,63,45
India,Maharashtra,Belapur,"CBD Belapur, Belapur - MPCB",05-03-2026 16:00:00,19.0243902,73.0406721,PM10,37,102,76
India,Maharashtra,Aurangabad,"More Chowk Waluj, Aurangabad - MPCB",05-03-2026 16:00:00,19.8389439,75.244448,PM2.5,38,204,67
India,Maharashtra,Jalgaon,"Prabhat Colony, Jalgaon - MPCB",05-03-2026 16:00:00,21.001264,75.565602,NO2,4,37,15
India,Maharashtra,Jalna,"Old MIDC, Jalna - MPCB",05-03-2026 16:00:00,19.854616,75.905894,SO2,15,29,19
India,Maharashtra,Kalyan,"Khadakpada, Kalyan - MPCB",05-03-2026 16:00:00,19.25292,73.142019,OZONE,8,8,8
India,Maharashtra,Kalyan,"Pimpleshwar Mandir, Kalyan - MPCB",05-03-2026 16:00:00,19.192056,72.9585188,SO2,12,43,23
India,Maharashtra,Kalyan,"Pimpleshwar Mandir, Kalyan - MPCB",05-03-2026 16:00:00,19.192056,72.9585188,OZONE,3,47,31
India,Maharashtra,Kolhapur,"Shivaji University, Kolhapur - MPCB",05-03-2026 16:00:00,16.6870449,74.2505872,NO2,14,94,28
India,Maharashtra,Kolhapur,"Shivaji University, Kolhapur - MPCB",05-03-2026 16:00:00,16.6870449,74.2505872,NH3,3,5,4
India,Maharashtra,Kolhapur,"Shivaji University, Kolhapur - MPCB",05-03-2026 16:00:00,16.6870449,74.2505872,SO2,2,4,3
India,Maharashtra,Kolhapur,"Shivaji University, Kolhapur - MPCB",05-03-2026 16:00:00,16.6870449,74.2505872,CO,9,44,24
India,Maharashtra,Latur,"Sawe Wadi, Latur - MPCB",05-03-2026 16:00:00,18.39963,76.57452,PM2.5,47,104,76
India,Maharashtra,Mumbai,"Byculla, Mumbai - BMC",05-03-2026 16:00:00,18.9767,72.8380,OZONE,1,89,54
India,Maharashtra,Mumbai,"Chakala-Andheri East, Mumbai - IITM",05-03-2026 16:00:00,19.11074,72.86084,NO2,21,92,72
India,Maharashtra,Mumbai,"Chakala-Andheri East, Mumbai - IITM",05-03-2026 16:00:00,19.11074,72.86084,OZONE,1,66,39
India,Maharashtra,Mumbai,"Chembur, Mumbai - MPCB",05-03-2026 16:00:00,19.0364585,72.8954371,CO,14,54,27
India,Maharashtra,Mumbai,"Chhatrapati Shivaji Intl. Airport (T2), Mumbai - MPCB",05-03-2026 16:00:00,19.10078,72.87462,SO2,30,113,96
India,Maharashtra,Mumbai,"Deonar, Mumbai - IITM",05-03-2026 16:00:00,19.04946,72.9230,PM2.5,19,115,57
India,Maharashtra,Mumbai,"Deonar, Mumbai - IITM",05-03-2026 16:00:00,19.04946,72.9230,NO2,10,76,31
India,Maharashtra,Mumbai,"Ghatkopar, Mumbai - BMC",05-03-2026 16:00:00,19.083694,72.920967,PM2.5,47,131,68
India,Maharashtra,Mahad,"Kamble Tarf Birwadi, Mahad - MPCB",05-03-2026 16:00:00,18.1023399,73.4783687,NO2,10,99,27
India,Maharashtra,Mahad,"Kamble Tarf Birwadi, Mahad - MPCB",05-03-2026 16:00:00,18.1023399,73.4783687,CO,10,38,24
India,Maharashtra,Malegaon,"Mahesh Nagar, Malegaon - MPCB",05-03-2026 16:00:00,20.555712,74.529236,PM10,8,94,59
India,Maharashtra,Malegaon,"Mahesh Nagar, Malegaon - MPCB",05-03-2026 16:00:00,20.555712,74.529236,NH3,1,1,1
India,Maharashtra,Mira-Bhayandar,"Bhayandar West, Mira-Bhayandar - MPCB",05-03-2026 16:00:00,19.296481,72.840923,PM2.5,37,79,61
India,Maharashtra,Mira-Bhayandar,"Bhayandar West, Mira-Bhayandar - MPCB",05-03-2026 16:00:00,19.296481,72.840923,NH3,1,9,6
India,Maharashtra,Mumbai,"Bandra Kurla Complex, Mumbai - IITM",05-03-2026 16:00:00,19.053536,72.84643,PM10,84,152,115
India,Maharashtra,Mumbai,"Bandra Kurla Complex, Mumbai - IITM",05-03-2026 16:00:00,19.053536,72.84643,NO2,21,81,55
India,Maharashtra,Mumbai,"Kherwadi_Bandra East, Mumbai - MPCB",05-03-2026 16:00:00,19.0632143,72.8456324,SO2,2,4,3
India,Maharashtra,Mumbai,"Khindipada-Bhandup West, Mumbai - IITM",05-03-2026 16:00:00,19.1653323,72.922099,NO2,7,27,14
India,Maharashtra,Mumbai,"Kurla, Mumbai - MPCB",05-03-2026 16:00:00,19.0863,72.8888,NO2,NA,NA,NA
India,Maharashtra,Mumbai,"Kurla, Mumbai - MPCB",05-03-2026 16:00:00,19.0863,72.8888,OZONE,29,29,29
India,Maharashtra,Mumbai,"Mazgaon, Mumbai - IITM",05-03-2026 16:00:00,18.96702,72.84214,NO2,NA,NA,NA
India,Maharashtra,Mumbai,"Mindspace-Malad West, Mumbai - MPCB",05-03-2026 16:00:00,19.1878657,72.8304069,PM10,NA,NA,NA
India,Maharashtra,Mumbai,"Sewri, Mumbai - BMC",05-03-2026 16:00:00,19.000084,72.856730,CO,2,60,22
India,Maharashtra,Mumbai,"Shivaji Nagar, Mumbai - BMC",05-03-2026 16:00:00,19.060498,72.923356,PM2.5,16,183,75
India,Maharashtra,Mumbai,"Shivaji Nagar, Mumbai - BMC",05-03-2026 16:00:00,19.060498,72.923356,NO2,8,38,20
India,Maharashtra,Mumbai,"Shivaji Nagar, Mumbai - BMC",05-03-2026 16:00:00,19.060498,72.923356,CO,5,130,11
India,Maharashtra,Mumbai,"Siddharth Nagar-Worli, Mumbai - IITM",05-03-2026 16:00:00,19.000083,72.813993,OZONE,43,89,61
India,Maharashtra,Mumbai,"Vile Parle West, Mumbai - MPCB",05-03-2026 16:00:00,19.10861,72.83622,CO,23,26,24
India,Maharashtra,Mumbai,"Worli, Mumbai -MPCB",05-03-2026 16:00:00,18.9942180,72.8158167,PM10,29,107,77
India,Maharashtra,Mumbai,"Worli, Mumbai -MPCB",05-03-2026 16:00:00,18.9942180,72.8158167,NO2,3,12,9
India,Maharashtra,Mumbai,"Borivali East, Mumbai - MPCB",05-03-2026 16:00:00,19.2243333,72.8658113,CO,12,18,15
India,Maharashtra,Mumbai,"Borivali East, Mumbai - MPCB",05-03-2026 16:00:00,19.2243333,72.8658113,OZONE,9,12,10
India,Maharashtra,Mumbai,"Byculla, Mumbai - BMC",05-03-2026 16:00:00,18.9767,72.8380,NH3,6,18,11
India,Maharashtra,Mumbai,"Navy Nagar-Colaba, Mumbai - IITM",05-03-2026 16:00:00,18.897756,72.813320,NO2,53,175,90
India,Maharashtra,Mumbai,"Powai, Mumbai - MPCB",05-03-2026 16:00:00,19.137500,72.915056,OZONE,9,9,9
India,Maharashtra,Mumbai,"Kandivali West, Mumbai - BMC",05-03-2026 16:00:00,19.215859,72.831718,PM10,37,83,65
India,Maharashtra,Ulhasnagar,"Vithalwadi, Ulhasnagar - MPCB",05-03-2026 16:00:00,19.2307571 ,73.1551920,CO,6,50,16
India,Maharashtra,Virar,"Bolinj, Virar - MPCB",05-03-2026 16:00:00,19.4458210,72.7988231,PM2.5,15,76,45
India,Maharashtra,Virar,"Bolinj, Virar - MPCB",05-03-2026 16:00:00,19.4458210,72.7988231,NH3,1,4,2
India,Maharashtra,Virar,"Bolinj, Virar - MPCB",05-03-2026 16:00:00,19.4458210,72.7988231,SO2,10,32,17
India,Maharashtra,Virar,"Bolinj, Virar - MPCB",05-03-2026 16:00:00,19.4458210,72.7988231,CO,17,71,23
India,Meghalaya,Shillong,"JN Stadium, Shillong - Meghalaya PCB",05-03-2026 16:00:00,25.5803419,91.8942571,PM2.5,NA,NA,NA
India,Meghalaya,Shillong,"JN Stadium, Shillong - Meghalaya PCB",05-03-2026 16:00:00,25.5803419,91.8942571,PM10,NA,NA,NA
India,Meghalaya,Shillong,"JN Stadium, Shillong - Meghalaya PCB",05-03-2026 16:00:00,25.5803419,91.8942571,NO2,12,29,20
India,Meghalaya,Shillong,"Lumpyngngad, Shillong - Meghalaya PCB",05-03-2026 16:00:00,25.5586,91.8985,OZONE,29,54,35
India,Mizoram,Aizawl,"Sikulpuikawn, Aizawl - Mizoram PCB",05-03-2026 16:00:00,23.7176342,92.7192841,PM2.5,53,58,56
India,Mizoram,Aizawl,"Sikulpuikawn, Aizawl - Mizoram PCB",05-03-2026 16:00:00,23.7176342,92.7192841,OZONE,2,8,7
India,Nagaland,Kohima,"PWD Junction, Kohima - NPCB",05-03-2026 16:00:00,25.6635413,94.0989878,PM10,34,96,52
India,Nagaland,Kohima,"PWD Junction, Kohima - NPCB",05-03-2026 16:00:00,25.6635413,94.0989878,CO,7,18,8
India,Maharashtra,Navi Mumbai,"Mahape, Navi Mumbai - MPCB",05-03-2026 16:00:00,19.1135051,73.008978,OZONE,8,15,12
India,Maharashtra,Navi Mumbai,"Nerul, Navi Mumbai - MPCB",05-03-2026 16:00:00,19.008751,73.016620,NO2,46,46,46
India,Maharashtra,Navi Mumbai,"Nerul, Navi Mumbai - MPCB",05-03-2026 16:00:00,19.008751,73.016620,SO2,NA,NA,NA
India,Maharashtra,Navi Mumbai,"Sanpada, Navi Mumbai - MPCB",05-03-2026 16:00:00,19.0575752,73.0151367,PM2.5,42,94,74
India,Maharashtra,Navi Mumbai,"Sanpada, Navi Mumbai - MPCB",05-03-2026 16:00:00,19.0575752,73.0151367,OZONE,43,43,43
India,Maharashtra,Navi Mumbai,"Sector-2E Kalamboli, Navi Mumbai - MPCB",05-03-2026 16:00:00,19.02579,73.10297,NH3,3,12,6
India,Maharashtra,Navi Mumbai,"Tondare-Taloja, Navi Mumbai - MPCB",05-03-2026 16:00:00,19.0630,73.1209,CO,2,28,9
India,Maharashtra,Parbhani,"Masoom Colony, Parbhani - MPCB",05-03-2026 16:00:00,19.265594,76.761463,SO2,NA,NA,NA
India,Maharashtra,Parbhani,"Masoom Colony, Parbhani - MPCB",05-03-2026 16:00:00,19.265594,76.761463,OZONE,10,10,10
India,Maharashtra,Pimpri-Chinchwad,"Gavalinagar, Pimpri Chinchwad - MPCB",05-03-2026 16:00:00,18.63673,73.82487,PM10,82,137,109
India,Maharashtra,Solapur,"Dnyaneshwar Nagar, Solapur - MPCB",05-03-2026 16:00:00,17.6336264,75.9132495,SO2,1,20,9
India,Maharashtra,Solapur,"Ratandeep Housing Society, Solapur - MPCB",05-03-2026 16:00:00,17.65439,75.90649,PM10,78,181,121
India,Maharashtra,Thane,"Kasarvadavali, Thane - MPCB",05-03-2026 16:00:00,19.26777,72.97182,SO2,4,12,7
India,Maharashtra,Thane,"Upvan Fort, Thane - MPCB",05-03-2026 16:00:00,19.222279,72.957979,NH3,3,4,3
India,Maharashtra,Thane,"Upvan Fort, Thane - MPCB",05-03-2026 16:00:00,19.222279,72.957979,SO2,7,33,19
India,Maharashtra,Ulhasnagar,"Sidhi Vinayak Nagar, Ulhasnagar - MPCB",05-03-2026 16:00:00,19.235581,73.159121,PM10,64,130,99
India,Maharashtra,Ulhasnagar,"Sidhi Vinayak Nagar, Ulhasnagar - MPCB",05-03-2026 16:00:00,19.235581,73.159121,CO,6,36,12
India,Maharashtra,Ulhasnagar,"Sidhi Vinayak Nagar, Ulhasnagar - MPCB",05-03-2026 16:00:00,19.235581,73.159121,OZONE,7,86,59
India,Maharashtra,Ulhasnagar,"Vithalwadi, Ulhasnagar - MPCB",05-03-2026 16:00:00,19.2307571 ,73.1551920,NO2,15,65,34
India,Maharashtra,Pimpri-Chinchwad,"Park Street Wakad, Pimpri Chinchwad - MPCB",05-03-2026 16:00:00,18.59051,73.77946,PM10,67,152,107
India,Maharashtra,Pimpri-Chinchwad,"Park Street Wakad, Pimpri Chinchwad - MPCB",05-03-2026 16:00:00,18.59051,73.77946,NO2,39,115,69
India,Maharashtra,Pimpri-Chinchwad,"Savta Mali Nagar, Pimpri-Chinchwad - IITM",05-03-2026 16:00:00,18.614767,73.799516,OZONE,28,37,31
India,Maharashtra,Pune,"Bhosari, Pune - IITM",05-03-2026 16:00:00,18.640051,73.848956,PM2.5,19,190,96
India,Maharashtra,Pune,"Dhankawadi, Pune - IITM",05-03-2026 16:00:00,18.459883,73.852193,PM10,74,187,129
India,Maharashtra,Pune,"Hadapsar, Pune - IITM",05-03-2026 16:00:00,18.501793,73.927532,PM10,56,202,137
India,Maharashtra,Pune,"Hadapsar, Pune - IITM",05-03-2026 16:00:00,18.501793,73.927532,OZONE,1,87,50
India,Maharashtra,Pune,"Katraj Dairy, Pune - MPCB",05-03-2026 16:00:00,18.454450,73.854155,PM2.5,61,93,76
India,Maharashtra,Nashik,"Gangapur Road, Nashik - MPCB",05-03-2026 16:00:00,20.0073285,73.7762427,PM10,41,151,86
India,Maharashtra,Nashik,"Gangapur Road, Nashik - MPCB",05-03-2026 16:00:00,20.0073285,73.7762427,OZONE,8,29,27
India,Maharashtra,Navi Mumbai,"Kopripada-Vashi, Navi Mumbai - MPCB",05-03-2026 16:00:00,19.090337,73.014232,NH3,4,5,4
India,Maharashtra,Navi Mumbai,"Mahape, Navi Mumbai - MPCB",05-03-2026 16:00:00,19.1135051,73.008978,NO2,84,87,85
India,Maharashtra,Mumbai,"Worli, Mumbai -MPCB",05-03-2026 16:00:00,18.9942180,72.8158167,CO,16,30,22
India,Maharashtra,Nagpur,"Ambazari, Nagpur - MPCB",05-03-2026 16:00:00,21.121801,79.04952,NH3,1,9,3
India,Maharashtra,Nagpur,"Ambazari, Nagpur - MPCB",05-03-2026 16:00:00,21.121801,79.04952,CO,2,56,5
India,Maharashtra,Nagpur,"Mahal, Nagpur - MPCB",05-03-2026 16:00:00,21.14472,79.107595,PM2.5,44,94,72
India,Maharashtra,Nagpur,"Ram Nagar, Nagpur - MPCB",05-03-2026 16:00:00,21.143383,79.048912,SO2,7,36,16
India,Maharashtra,Nanded,"Sneh Nagar, Nanded - MPCB",05-03-2026 16:00:00,19.173852,77.296291,NO2,5,70,25
India,Maharashtra,Nashik,"Gangapur Road, Nashik - MPCB",05-03-2026 16:00:00,20.0073285,73.7762427,PM2.5,36,95,58
India,Maharashtra,Pune,"Savitribai Phule Pune University, Pune - MPCB",05-03-2026 16:00:00,18.547056,73.826908,SO2,2,5,4
India,Maharashtra,Sangli,"Vijay Nagar, Sangli - MPCB",05-03-2026 16:00:00, 16.5038,74.3623,PM2.5,62,215,135
India,Maharashtra,Pune,"Mhada Colony, Pune - IITM",05-03-2026 16:00:00,18.573040,73.927715,PM10,74,129,108
India,Maharashtra,Pune,"Mhada Colony, Pune - IITM",05-03-2026 16:00:00,18.573040,73.927715,NO2,21,141,79
India,Odisha,Rairangpur,"Divisional Forest Office, Rairangpur - OSPCB",05-03-2026 16:00:00,22.265816,86.174829,OZONE,2,62,46
India,Odisha,Rourkela,"Fertilizer Township, Rourkela - OSPCB",05-03-2026 16:00:00,22.18972222,84.86277778,PM10,NA,NA,NA
India,Odisha,Rourkela,"Raghunathpali, Rourkela - OSPCB",05-03-2026 16:00:00,22.220833,84.809444,NH3,1,2,2
India,Odisha,Rourkela,"Sector-2, Rourkela - OSPCB",05-03-2026 16:00:00,22.24500000,84.88111111,CO,30,59,42
India,Odisha,Suakati,"OMC Colony, Suakati - OSPCB",05-03-2026 16:00:00,21.606865,85.510538,PM10,55,73,63
India,Odisha,Talcher,"Talcher Coalfields,Talcher - OSPCB",05-03-2026 16:00:00,20.9360711,85.1707021,SO2,6,49,23
India,Odisha,Talcher,"Talcher Coalfields,Talcher - OSPCB",05-03-2026 16:00:00,20.9360711,85.1707021,CO,2,42,31
India,Puducherry,Puducherry,"Jawahar Nagar, Puducherry - PPCC",05-03-2026 16:00:00,11.9309,79.8027,PM10,24,94,53
India,Puducherry,Puducherry,"Jawahar Nagar, Puducherry - PPCC",05-03-2026 16:00:00,11.9309,79.8027,NH3,2,7,4
India,Odisha,Balasore,"Kalidaspur, Balasore - OSPCB",05-03-2026 16:00:00,21.51161,86.89088,PM2.5,65,303,166
India,Odisha,Barbil,"Forest Office, Barbil - OSPCB",05-03-2026 16:00:00,22.1166054,85.3945546,NO2,14,61,22
India,Odisha,Barbil,"Forest Office, Barbil - OSPCB",05-03-2026 16:00:00,22.1166054,85.3945546,OZONE,20,183,177
India,Odisha,Baripada,"Meher Colony, Baripada - OSPCB",05-03-2026 16:00:00,21.941841,86.728318,PM2.5,74,337,182
India,Odisha,Baripada,"Meher Colony, Baripada - OSPCB",05-03-2026 16:00:00,21.941841,86.728318,NO2,2,27,11
India,Odisha,Baripada,"Meher Colony, Baripada - OSPCB",05-03-2026 16:00:00,21.941841,86.728318,SO2,10,30,18
India,Odisha,Bhubaneswar,"Lingraj Mandir, Bhubaneswar - OSPCB",05-03-2026 16:00:00,20.240790,85.836784,PM2.5,97,302,198
India,Odisha,Bhubaneswar,"Patia, Bhubaneswar - OSPCB",05-03-2026 16:00:00,20.34652,85.81630,PM2.5,77,273,161
India,Odisha,Bhubaneswar,"Patia, Bhubaneswar - OSPCB",05-03-2026 16:00:00,20.34652,85.81630,PM10,93,179,137
India,Odisha,Bileipada,"Tata Township, Bileipada - OSPCB",05-03-2026 16:00:00,22.06156703,85.47409613,PM2.5,43,128,78
India,Rajasthan,Bikaner,"MM Ground, Bikaner - RSPCB",05-03-2026 16:00:00,28.018792,73.292658,CO,10,111,18
India,Rajasthan,Chittorgarh,"Shastri Nagar, Chittorgarh - RSPCB",05-03-2026 16:00:00,24.892047,74.623527,NO2,6,75,35
India,Rajasthan,Chittorgarh,"Shastri Nagar, Chittorgarh - RSPCB",05-03-2026 16:00:00,24.892047,74.623527,NH3,6,15,11
India,Rajasthan,Churu,"Subash Chowk, Churu - RSPCB",05-03-2026 16:00:00,28.296139,74.961696,PM2.5,23,74,41
India,Rajasthan,Churu,"Subash Chowk, Churu - RSPCB",05-03-2026 16:00:00,28.296139,74.961696,NH3,4,8,6
India,Rajasthan,Churu,"Subash Chowk, Churu - RSPCB",05-03-2026 16:00:00,28.296139,74.961696,SO2,4,7,5
India,Rajasthan,Churu,"Subash Chowk, Churu - RSPCB",05-03-2026 16:00:00,28.296139,74.961696,CO,2,30,20
India,Rajasthan,Churu,"Subash Chowk, Churu - RSPCB",05-03-2026 16:00:00,28.296139,74.961696,OZONE,30,91,82
India,Rajasthan,Dausa,"Khatikan Mohalla, Dausa - RSPCB",05-03-2026 16:00:00,26.895552,76.334753,PM2.5,10,163,33
India,Rajasthan,Bharatpur,"Krishna Nagar, Bharatpur - RSPCB",05-03-2026 16:00:00,27.215415,77.50873,OZONE,34,128,99
India,Rajasthan,Bhilwara,"Pratap Nagar, Bhilwara - RSPCB",05-03-2026 16:00:00,25.339605,74.618883,CO,39,127,43
India,Rajasthan,Bhiwadi,"RIICO Ind. Area III, Bhiwadi - RSPCB",05-03-2026 16:00:00,28.194909,76.862296,NO2,14,106,56
India,Rajasthan,Bhiwadi,"RIICO Ind. Area III, Bhiwadi - RSPCB",05-03-2026 16:00:00,28.194909,76.862296,OZONE,5,54,36
India,Rajasthan,Bhiwadi,"Vasundhara Nagar_UIT, Bhiwadi - RSPCB",05-03-2026 16:00:00,28.207266,76.829265,PM2.5,47,161,89
India,Rajasthan,Bhiwadi,"Vasundhara Nagar_UIT, Bhiwadi - RSPCB",05-03-2026 16:00:00,28.207266,76.829265,SO2,8,22,13
India,Rajasthan,Alwar,"Moti Doongri, Alwar - RSPCB",05-03-2026 16:00:00,27.554793,76.611536,CO,13,108,31
India,Rajasthan,Banswara,"Rati Talai, Banswara - RSPCB",05-03-2026 16:00:00,23.555190,74.440010,PM2.5,33,85,54
India,Rajasthan,Banswara,"Rati Talai, Banswara - RSPCB",05-03-2026 16:00:00,23.555190,74.440010,CO,20,84,28
India,Rajasthan,Baran,"Bamboliya, Baran - RSPCB",05-03-2026 16:00:00,25.106006,76.469948,NH3,3,8,5
India,Rajasthan,Baran,"Bamboliya, Baran - RSPCB",05-03-2026 16:00:00,25.106006,76.469948,SO2,5,30,13
India,Rajasthan,Barmer,"Railway Colony, Barmer - RSPCB",05-03-2026 16:00:00,25.747299,71.393989,OZONE,61,130,99
India,Odisha,Cuttack,"CDA Area, Cuttack - OSPCB",05-03-2026 16:00:00,20.48891     ,85.84768     ,NH3,5,9,7
India,Odisha,Cuttack,"CDA Area, Cuttack - OSPCB",05-03-2026 16:00:00,20.48891     ,85.84768     ,CO,14,103,44
India,Odisha,Keonjhar,"Jagamohanpur, Keonjhar - OSPCB",05-03-2026 16:00:00,21.643900,85.599355,SO2,15,25,19
India,Odisha,Nayagarh,"Dabuna, Nayagarh - OSPCB",05-03-2026 16:00:00,21.847279,85.416905,NO2,9,10,10
India,Odisha,Rairangpur,"Divisional Forest Office, Rairangpur - OSPCB",05-03-2026 16:00:00,22.265816,86.174829,PM2.5,47,164,101
India,Punjab,Jalandhar,"Civil Line, Jalandhar - PPCB",05-03-2026 16:00:00,31.321907,75.578914,PM2.5,43,82,63
India,Punjab,Khanna,"Kalal Majra, Khanna - PPCB",05-03-2026 16:00:00,30.736056 ,76.209694,NO2,26,30,28
India,Punjab,Khanna,"Kalal Majra, Khanna - PPCB",05-03-2026 16:00:00,30.736056 ,76.209694,OZONE,19,41,37
India,Punjab,Mandi Gobindgarh,"RIMT University, Mandi Gobindgarh - PPCB",05-03-2026 16:00:00,30.649961,76.331442,NH3,6,6,6
India,Punjab,Patiala,"Model Town, Patiala - PPCB",05-03-2026 16:00:00,30.349388,76.366642,OZONE,14,42,29
India,Punjab,Rupnagar,"Ratanpura, Rupnagar - Ambuja Cements",05-03-2026 16:00:00,31.0325454,76.5623046,PM2.5,31,90,52
India,Punjab,Rupnagar,"Ratanpura, Rupnagar - Ambuja Cements",05-03-2026 16:00:00,31.0325454,76.5623046,SO2,8,15,12
India,Punjab,Rupnagar,"Ratanpura, Rupnagar - Ambuja Cements",05-03-2026 16:00:00,31.0325454,76.5623046,CO,24,31,27
India,Rajasthan,Dausa,"Khatikan Mohalla, Dausa - RSPCB",05-03-2026 16:00:00,26.895552,76.334753,CO,26,106,60
India,Rajasthan,Dholpur,"Raja Ganj, Dholpur - RSPCB",05-03-2026 16:00:00,26.699557,77.898881,NH3,9,15,11
India,Rajasthan,Sirohi,"Vedhaynath Colony, Sirohi - RSPCB",05-03-2026 16:00:00,24.885261,72.857549,NO2,6,60,20
India,Rajasthan,Sirohi,"Vedhaynath Colony, Sirohi - RSPCB",05-03-2026 16:00:00,24.885261,72.857549,CO,24,50,36
India,Rajasthan,Sri Ganganagar,"Old City, Sri Ganganagar - RSPCB",05-03-2026 16:00:00,29.931624,73.864511,NH3,3,10,5
India,Rajasthan,Sri Ganganagar,"Old City, Sri Ganganagar - RSPCB",05-03-2026 16:00:00,29.931624,73.864511,CO,2,139,28
India,Rajasthan,Tonk,"Shastri Nagar, Tonk - RSPCB",05-03-2026 16:00:00,26.159933,75.780517,NH3,5,9,7
India,Rajasthan,Tonk,"Shastri Nagar, Tonk - RSPCB",05-03-2026 16:00:00,26.159933,75.780517,SO2,1,6,3
India,Rajasthan,Tonk,"Shastri Nagar, Tonk - RSPCB",05-03-2026 16:00:00,26.159933,75.780517,CO,20,79,34
India,Rajasthan,Udaipur,"Ashok Nagar, Udaipur - RSPCB",05-03-2026 16:00:00,24.5886166,73.6321397,SO2,7,13,9
India,Rajasthan,Udaipur,"Ashok Nagar, Udaipur - RSPCB",05-03-2026 16:00:00,24.5886166,73.6321397,CO,5,69,25
India,TamilNadu,Chennai,"Arumbakkam, Chennai - TNPCB",05-03-2026 16:00:00,13.0664,80.2112 ,SO2,2,13,4
India,TamilNadu,Chennai,"Kodungaiyur, Chennai - TNPCB",05-03-2026 16:00:00,13.1278,80.2642,PM10,53,127,90
India,TamilNadu,Chennai,"Kodungaiyur, Chennai - TNPCB",05-03-2026 16:00:00,13.1278,80.2642,NO2,11,17,14
India,TamilNadu,Chennai,"Manali Village, Chennai - TNPCB",05-03-2026 16:00:00,13.1662,80.2584,SO2,15,17,16
India,TamilNadu,Chennai,"Manali, Chennai - CPCB",05-03-2026 16:00:00,13.164544,80.26285,NH3,NA,NA,NA
India,TamilNadu,Chennai,"Perungudi, Chennai - TNPCB",05-03-2026 16:00:00,12.9533,80.2357,CO,30,44,41
India,TamilNadu,Chennai,"Royapuram, Chennai - TNPCB",05-03-2026 16:00:00,13.1036,80.2909,PM10,30,187,83
India,TamilNadu,Chennai,"Royapuram, Chennai - TNPCB",05-03-2026 16:00:00,13.1036,80.2909,CO,42,64,54
India,Rajasthan,Nagaur,"Karni Colony, Nagaur - RSPCB",05-03-2026 16:00:00,27.213494,73.734444,SO2,5,19,9
India,Rajasthan,Pali,"Indira Colony Vistar, Pali - RSPCB",05-03-2026 16:00:00,25.771061, 73.340227,NH3,6,16,9
India,Rajasthan,Pali,"Indira Colony Vistar, Pali - RSPCB",05-03-2026 16:00:00,25.771061, 73.340227,SO2,7,12,10
India,Rajasthan,Pratapgarh,"Pragati Nagar, Pratapgarh - RSPCB",05-03-2026 16:00:00,24.041198,74.780702,OZONE,14,132,106
India,Rajasthan,Rajsamand,"Dhoinda, Rajsamand - RSPCB",05-03-2026 16:00:00,25.036360,73.883502,NO2,9,66,22
India,Rajasthan,Sikar,"Radhakishan Pura, Sikar - RSPCB",05-03-2026 16:00:00,27.608912,75.153302,PM10,36,173,100
India,Rajasthan,Sikar,"Radhakishan Pura, Sikar - RSPCB",05-03-2026 16:00:00,27.608912,75.153302,NH3,7,14,10
India,Rajasthan,Jhunjhunu,"Indra Nagar, Jhunjhunu - RSPCB",05-03-2026 16:00:00,28.108988,75.386577,PM2.5,27,210,56
India,Rajasthan,Jhunjhunu,"Indra Nagar, Jhunjhunu - RSPCB",05-03-2026 16:00:00,28.108988,75.386577,NH3,4,8,6
India,Rajasthan,Jhunjhunu,"Indra Nagar, Jhunjhunu - RSPCB",05-03-2026 16:00:00,28.108988,75.386577,CO,8,38,20
India,Rajasthan,Jhunjhunu,"Indra Nagar, Jhunjhunu - RSPCB",05-03-2026 16:00:00,28.108988,75.386577,OZONE,39,132,107
India,Rajasthan,Jodhpur,"Collectorate, Jodhpur - RSPCB",05-03-2026 16:00:00,26.268249,73.0193853,CO,5,114,42
India,Rajasthan,Jodhpur,"Digari Kalan, Jodhpur - RSPCB",05-03-2026 16:00:00,26.295810,73.082283,PM10,58,238,134
India,Rajasthan,Jaipur,"Police Commissionerate, Jaipur - RSPCB",05-03-2026 16:00:00,26.9164092,75.7994901,NO2,39,56,41
India,Rajasthan,Jaipur,"RIICO Sitapura, Jaipur - RSPCB",05-03-2026 16:00:00,26.786682,75.827928,PM10,54,257,123
India,Rajasthan,Jaipur,"RIICO Sitapura, Jaipur - RSPCB",05-03-2026 16:00:00,26.786682,75.827928,NH3,4,8,6
India,Rajasthan,Jaipur,"RIICO Sitapura, Jaipur - RSPCB",05-03-2026 16:00:00,26.786682,75.827928,CO,20,124,36
India,Rajasthan,Jaipur,"Sector-2 Murlipura, Jaipur - RSPCB",05-03-2026 16:00:00,26.960669,75.771817,PM2.5,27,113,59
India,Rajasthan,Jaipur,"Shastri Nagar, Jaipur - RSPCB",05-03-2026 16:00:00,26.9502929,75.730943,PM10,92,153,117
India,Rajasthan,Jaisalmer,"Sadar Bazar, Jaisalmer - RSPCB",05-03-2026 16:00:00,26.912329,70.909168,SO2,2,11,6
India,Rajasthan,Jaisalmer,"Sadar Bazar, Jaisalmer - RSPCB",05-03-2026 16:00:00,26.912329,70.909168,CO,10,36,15
India,Rajasthan,Jalore,"Mudtra Sili, Jalore - RSPCB",05-03-2026 16:00:00,25.344694,72.626208,NO2,4,102,29
India,Rajasthan,Jalore,"Mudtra Sili, Jalore - RSPCB",05-03-2026 16:00:00,25.344694,72.626208,CO,16,106,27
India,Rajasthan,Karauli,"Satyawati Vihar, Karauli - RSPCB",05-03-2026 16:00:00,26.506177,77.025989,CO,16,39,24
India,Rajasthan,Kota,"Nayapura, Kota - RSPCB",05-03-2026 16:00:00,25.196024,75.855668,NH3,1,23,3
India,Rajasthan,Kota,"Shrinath Puram, Kota - RSPCB",05-03-2026 16:00:00,25.14389,75.821256,CO,NA,NA,NA
India,Rajasthan,Nagaur,"Karni Colony, Nagaur - RSPCB",05-03-2026 16:00:00,27.213494,73.734444,PM10,60,364,132
India,Rajasthan,Dholpur,"Raja Ganj, Dholpur - RSPCB",05-03-2026 16:00:00,26.699557,77.898881,SO2,7,15,10
India,Rajasthan,Dungarpur,"Bhoiwada, Dungarpur - RSPCB",05-03-2026 16:00:00,23.837789,73.714926,NO2,14,37,20
India,Rajasthan,Hanumangarh,"Housing Board, Hanumangarh - RSPCB",05-03-2026 16:00:00,29.610750,74.283608,NO2,3,61,20
India,Rajasthan,Hanumangarh,"Housing Board, Hanumangarh - RSPCB",05-03-2026 16:00:00,29.610750,74.283608,SO2,37,47,40
India,Rajasthan,Hanumangarh,"Housing Board, Hanumangarh - RSPCB",05-03-2026 16:00:00,29.610750,74.283608,CO,47,70,52
India,Rajasthan,Jaipur,"Mansarovar Sector-12, Jaipur - RSPCB",05-03-2026 16:00:00,26.843698,75.766894,PM2.5,22,290,76
India,Rajasthan,Jaipur,"Mansarovar Sector-12, Jaipur - RSPCB",05-03-2026 16:00:00,26.843698,75.766894,CO,8,130,28
India,Uttar_Pradesh,Agra,"Sector-3B Avas Vikas Colony, Agra - UPPCB",05-03-2026 16:00:00,27.19412,77.96237,OZONE,1,24,6
India,Uttar_Pradesh,Agra,"Shahjahan Garden, Agra - UPPCB",05-03-2026 16:00:00,27.169338,78.03582,PM2.5,8,35,21
India,Uttar_Pradesh,Agra,"Shastripuram, Agra - UPPCB",05-03-2026 16:00:00,27.19862,77.92066,NO2,43,43,43
India,Uttar_Pradesh,Baghpat,"Sardar Patel Inter College, Baghpat - UPPCB",05-03-2026 16:00:00,28.964949,77.278761,NH3,1,2,2
India,Uttar_Pradesh,Baghpat,"Sardar Patel Inter College, Baghpat - UPPCB",05-03-2026 16:00:00,28.964949,77.278761,CO,31,62,52
India,Uttar_Pradesh,Bareilly,"Civil Lines, Bareilly - UPPCB",05-03-2026 16:00:00,28.359581,79.414455,NO2,2,3,2
India,Uttar_Pradesh,Bareilly,"Rajendra Nagar, Bareilly - UPPCB",05-03-2026 16:00:00,28.38910936,79.42963708,PM2.5,41,67,54
India,Uttar_Pradesh,Bareilly,"Rajendra Nagar, Bareilly - UPPCB",05-03-2026 16:00:00,28.38910936,79.42963708,CO,12,62,25
India,Telangana,Hyderabad,"Ramachandrapuram, Hyderabad - TSPCB",05-03-2026 16:00:00,17.528544,78.286195,SO2,12,23,15
India,Telangana,Hyderabad,"Sanathnagar, Hyderabad - TSPCB",05-03-2026 16:00:00,17.4559458,78.4332152,PM2.5,25,183,78
India,Telangana,Hyderabad,"Sanathnagar, Hyderabad - TSPCB",05-03-2026 16:00:00,17.4559458,78.4332152,SO2,10,37,21
India,Telangana,Hyderabad,"Zoo Park, Hyderabad - TSPCB",05-03-2026 16:00:00,17.349694,78.451437,NO2,3,12,8
India,Tripura,Agartala,"Bardowali, Agartala - Tripura SPCB",05-03-2026 16:00:00,23.8175497,91.2726974,PM2.5,128,334,239
India,Tripura,Agartala,"Bardowali, Agartala - Tripura SPCB",05-03-2026 16:00:00,23.8175497,91.2726974,NO2,20,29,24
India,Tripura,Agartala,"Bardowali, Agartala - Tripura SPCB",05-03-2026 16:00:00,23.8175497,91.2726974,SO2,1,1,1
India,TamilNadu,Chennai,"Velachery Res. Area, Chennai - CPCB",05-03-2026 16:00:00,13.0052189,80.2398125,PM10,NA,NA,NA
India,TamilNadu,Chennai,"Velachery Res. Area, Chennai - CPCB",05-03-2026 16:00:00,13.0052189,80.2398125,NH3,3,4,3
India,TamilNadu,Coimbatore,"PSG College of Arts and Science, Coimbatore - TNPCB",05-03-2026 16:00:00,11.0328,77.0349,NO2,10,11,11
India,TamilNadu,Coimbatore,"SIDCO Kurichi, Coimbatore - TNPCB",05-03-2026 16:00:00,10.942451,76.978996,CO,22,28,25
India,TamilNadu,Gummidipoondi,"Anthoni Pillai Nagar, Gummidipoondi - TNPCB",05-03-2026 16:00:00,13.4127,80.1081,PM10,52,148,94
India,TamilNadu,Gummidipoondi,"Anthoni Pillai Nagar, Gummidipoondi - TNPCB",05-03-2026 16:00:00,13.4127,80.1081,SO2,15,27,20
India,TamilNadu,Thoothukudi,"Meelavittan, Thoothukudi - TNPCB",05-03-2026 16:00:00,8.816428 ,78.099039,OZONE,26,36,32
India,Telangana,Hyderabad,"Central University, Hyderabad - TSPCB",05-03-2026 16:00:00,17.460103,78.334361,NH3,4,7,6
India,Telangana,Hyderabad,"Central University, Hyderabad - TSPCB",05-03-2026 16:00:00,17.460103,78.334361,CO,13,53,27
India,Telangana,Hyderabad,"Central University, Hyderabad - TSPCB",05-03-2026 16:00:00,17.460103,78.334361,OZONE,13,21,15
India,Telangana,Hyderabad,"ECIL Kapra, Hyderabad - TSPCB",05-03-2026 16:00:00,17.470431,78.566959,OZONE,21,62,46
India,Telangana,Hyderabad,"ICRISAT Patancheru, Hyderabad - TSPCB",05-03-2026 16:00:00,17.518400,78.278777,PM2.5,27,101,65
India,Telangana,Hyderabad,"IITH Kandi, Hyderabad - TSPCB",05-03-2026 16:00:00,17.585705,78.126199,NH3,5,7,6
India,Telangana,Hyderabad,"IITH Kandi, Hyderabad - TSPCB",05-03-2026 16:00:00,17.585705,78.126199,SO2,11,16,14
India,Telangana,Hyderabad,"Kokapet, Hyderabad - TSPCB",05-03-2026 16:00:00,17.393559,78.339194,PM10,85,111,93
India,Telangana,Hyderabad,"Kokapet, Hyderabad - TSPCB",05-03-2026 16:00:00,17.393559,78.339194,NH3,2,3,2
India,Telangana,Hyderabad,"Kompally Municipal Office, Hyderabad - TSPCB",05-03-2026 16:00:00,17.544899,78.486949,NH3,3,5,4
India,Telangana,Hyderabad,"New Malakpet, Hyderabad - TSPCB",05-03-2026 16:00:00,17.37206,78.50864,PM2.5,37,130,74
India,Telangana,Hyderabad,"New Malakpet, Hyderabad - TSPCB",05-03-2026 16:00:00,17.37206,78.50864,NO2,15,19,16
India,Uttar_Pradesh,Agra,"Sanjay Palace, Agra - UPPCB",05-03-2026 16:00:00,27.19865833,78.00598056,PM2.5,17,113,43
India,Uttar_Pradesh,Agra,"Sector-3B Avas Vikas Colony, Agra - UPPCB",05-03-2026 16:00:00,27.19412,77.96237,PM10,80,200,115
India,Uttar_Pradesh,Agra,"Rohta, Agra - UPPCB",05-03-2026 16:00:00,27.106972,78.000111,NH3,5,5,5
India,Uttar_Pradesh,Agra,"Rohta, Agra - UPPCB",05-03-2026 16:00:00,27.106972,78.000111,CO,10,28,16
India,Telangana,Hyderabad,"IDA Pashamylaram, Hyderabad - TSPCB",05-03-2026 16:00:00,17.5316895,78.218939,CO,2,64,31
India,Uttar_Pradesh,Moradabad,"Jigar Colony, Moradabad - UPPCB",05-03-2026 16:00:00,28.856664,78.772638,NO2,24,25,25
India,Uttar_Pradesh,Moradabad,"Jigar Colony, Moradabad - UPPCB",05-03-2026 16:00:00,28.856664,78.772638,CO,40,40,40
India,Uttar_Pradesh,Moradabad,"Kashiram Nagar, Moradabad - UPPCB",05-03-2026 16:00:00,28.849399,78.742362,PM10,76,140,106
India,Uttar_Pradesh,Moradabad,"Kashiram Nagar, Moradabad - UPPCB",05-03-2026 16:00:00,28.849399,78.742362,NO2,25,25,25
India,Uttar_Pradesh,Moradabad,"Kashiram Nagar, Moradabad - UPPCB",05-03-2026 16:00:00,28.849399,78.742362,NH3,4,4,4
India,Uttar_Pradesh,Moradabad,"Transport Nagar, Moradabad - UPPCB",05-03-2026 16:00:00,28.802625,78.753728,NH3,5,5,5
India,Uttar_Pradesh,Moradabad,"Transport Nagar, Moradabad - UPPCB",05-03-2026 16:00:00,28.802625,78.753728,OZONE,27,40,32
India,Uttar_Pradesh,Muzaffarnagar,"New Mandi, Muzaffarnagar - UPPCB",05-03-2026 16:00:00,29.4723508,77.7194031,PM2.5,59,324,142
India,Uttar_Pradesh,Muzaffarnagar,"New Mandi, Muzaffarnagar - UPPCB",05-03-2026 16:00:00,29.4723508,77.7194031,SO2,7,25,14
India,Uttar_Pradesh,Noida,"Sector - 125, Noida - UPPCB",05-03-2026 16:00:00,28.5447608,77.3231257,PM2.5,65,152,99
India,Uttar_Pradesh,Noida,"Sector - 62, Noida - IMD",05-03-2026 16:00:00,28.6245479,77.3577104,PM2.5,55,208,99
India,Uttar_Pradesh,Noida,"Sector - 62, Noida - IMD",05-03-2026 16:00:00,28.6245479,77.3577104,PM10,101,161,127
India,Uttar_Pradesh,Varanasi,"Ardhali Bazar, Varanasi - UPPCB",05-03-2026 16:00:00,25.3505986,82.9083074,OZONE,15,40,26
India,Uttar_Pradesh,Varanasi,"Bhelupur, Varanasi - UPPCB",05-03-2026 16:00:00,25.301778,82.996789,PM2.5,29,80,49
India,Uttar_Pradesh,Varanasi,"Bhelupur, Varanasi - UPPCB",05-03-2026 16:00:00,25.301778,82.996789,NH3,1,1,1
India,Uttar_Pradesh,Varanasi,"Bhelupur, Varanasi - UPPCB",05-03-2026 16:00:00,25.301778,82.996789,CO,9,32,15
India,Uttar_Pradesh,Varanasi,"IESD Banaras Hindu University, Varanasi - UPPCB",05-03-2026 16:00:00,25.262326,82.995408,OZONE,2,23,10
India,Uttar_Pradesh,Varanasi,"Maldahiya, Varanasi - UPPCB",05-03-2026 16:00:00,25.32393,82.99687,PM10,38,84,55
India,Uttar_Pradesh,Varanasi,"Maldahiya, Varanasi - UPPCB",05-03-2026 16:00:00,25.32393,82.99687,NO2,1,4,3
India,Uttar_Pradesh,Varanasi,"Maldahiya, Varanasi - UPPCB",05-03-2026 16:00:00,25.32393,82.99687,SO2,30,30,30
India,Uttar_Pradesh,Varanasi,"Maldahiya, Varanasi - UPPCB",05-03-2026 16:00:00,25.32393,82.99687,OZONE,3,10,6
India,Uttar_Pradesh,Vrindavan,"Omex Eternity, Vrindavan - UPPCB",05-03-2026 16:00:00,27.5714090,77.6557570,PM2.5,18,68,40
India,Uttar_Pradesh,Vrindavan,"Omex Eternity, Vrindavan - UPPCB",05-03-2026 16:00:00,27.5714090,77.6557570,PM10,51,106,73
India,Uttarakhand,Dehradun,"Doon University, Dehradun - UKPCB",05-03-2026 16:00:00,30.269444,78.044167,SO2,NA,NA,NA
India,Uttarakhand,Dehradun,"Doon University, Dehradun - UKPCB",05-03-2026 16:00:00,30.269444,78.044167,OZONE,78,89,83
India,Uttarakhand,Kashipur,"Govt. Girls Inter College, Kashipur - UKPCB",05-03-2026 16:00:00,29.2124114,78.9611753,PM2.5,87,191,129
India,Uttarakhand,Rishikesh,"Shivaji Nagar, Rishikesh - UKPCB",05-03-2026 16:00:00,30.075911,78.2859547,SO2,NA,NA,NA
India,Uttarakhand,Rishikesh,"Shivaji Nagar, Rishikesh - UKPCB",05-03-2026 16:00:00,30.075911,78.2859547,CO,37,37,37
India,West_Bengal,Asansol,"Asansol Court Area, Asansol - WBPCB",05-03-2026 16:00:00,23.685297,86.945968,SO2,26,105,44
India,West_Bengal,Asansol,"Evelyn Lodge, Asansol - WBPCB",05-03-2026 16:00:00,23.6979360,86.9443950,NO2,11,30,22
India,West_Bengal,Asansol,"Evelyn Lodge, Asansol - WBPCB",05-03-2026 16:00:00,23.6979360,86.9443950,OZONE,5,81,58
India,West_Bengal,Asansol,"Mahabir Colliery, Asansol - WBPCB",05-03-2026 16:00:00,23.6181830,87.1057180,NO2,11,41,20
India,Uttar_Pradesh,Lucknow,"Kendriya Vidyalaya, Lucknow - CPCB",05-03-2026 16:00:00,26.906111,80.948222,PM2.5,78,194,142
India,Uttar_Pradesh,Lucknow,"Kendriya Vidyalaya, Lucknow - CPCB",05-03-2026 16:00:00,26.906111,80.948222,NO2,27,53,45
India,Uttar_Pradesh,Lucknow,"Kukrail Picnic Spot-1, Lucknow - UPPCB",05-03-2026 16:00:00,26.90723,80.98579,PM10,70,148,102
India,Uttar_Pradesh,Lucknow,"Lalbagh, Lucknow - CPCB",05-03-2026 16:00:00,26.8458805,80.9365541,PM10,98,428,166
India,Uttar_Pradesh,Lucknow,"Lalbagh, Lucknow - CPCB",05-03-2026 16:00:00,26.8458805,80.9365541,SO2,1,14,5
India,Uttar_Pradesh,Lucknow,"Lalbagh, Lucknow - CPCB",05-03-2026 16:00:00,26.8458805,80.9365541,OZONE,9,50,40
India,Uttar_Pradesh,Lucknow,"Talkatora District Industries Center, Lucknow - CPCB",05-03-2026 16:00:00,26.83399722,80.8917361,PM10,63,141,104
India,Uttar_Pradesh,Lucknow,"Talkatora District Industries Center, Lucknow - CPCB",05-03-2026 16:00:00,26.83399722,80.8917361,NO2,8,28,20
India,Uttar_Pradesh,Meerut,"Ganga Nagar, Meerut - UPPCB",05-03-2026 16:00:00,28.999264,77.7590354,PM2.5,50,122,75
India,Uttar_Pradesh,Meerut,"Ganga Nagar, Meerut - UPPCB",05-03-2026 16:00:00,28.999264,77.7590354,CO,46,66,64
India,Uttar_Pradesh,Meerut,"Jai Bhim Nagar, Meerut - UPPCB",05-03-2026 16:00:00,28.9535882,77.7622941,PM2.5,47,137,76
India,Uttar_Pradesh,Moradabad,"Buddhi Vihar, Moradabad - UPPCB",05-03-2026 16:00:00,28.83526,78.74460,CO,39,56,46
India,Uttar_Pradesh,Moradabad,"Eco Herbal Park, Moradabad - UPPCB",05-03-2026 16:00:00,28.840739,78.697531,CO,50,112,104
India,Uttar_Pradesh,Moradabad,"Eco Herbal Park, Moradabad - UPPCB",05-03-2026 16:00:00,28.840739,78.697531,OZONE,4,65,47
India,Uttar_Pradesh,Moradabad,"Employment Office, Moradabad - UPPCB",05-03-2026 16:00:00,28.88528,78.73880,SO2,24,31,25
India,Uttar_Pradesh,Moradabad,"Employment Office, Moradabad - UPPCB",05-03-2026 16:00:00,28.88528,78.73880,OZONE,17,42,19
India,Uttar_Pradesh,Moradabad,"Jigar Colony, Moradabad - UPPCB",05-03-2026 16:00:00,28.856664,78.772638,PM10,72,145,109
India,Uttar_Pradesh,Noida,"Sector-1, Noida - UPPCB",05-03-2026 16:00:00,28.5898,77.3101,NH3,7,26,11
India,Uttar_Pradesh,Noida,"Sector-116, Noida - UPPCB",05-03-2026 16:00:00,28.569230,77.393848,SO2,3,19,11
India,Uttar_Pradesh,Noida,"Sector-116, Noida - UPPCB",05-03-2026 16:00:00,28.569230,77.393848,OZONE,17,21,20
India,Uttar_Pradesh,Prayagraj,"Motilal Nehru NIT, Prayagraj - UPPCB",05-03-2026 16:00:00,25.494,81.863,PM2.5,28,64,46
India,Uttar_Pradesh,Prayagraj,"Motilal Nehru NIT, Prayagraj - UPPCB",05-03-2026 16:00:00,25.494,81.863,PM10,39,68,53
India,Uttar_Pradesh,Prayagraj,"Motilal Nehru NIT, Prayagraj - UPPCB",05-03-2026 16:00:00,25.494,81.863,NO2,12,12,12
India,Uttar_Pradesh,Prayagraj,"Nagar Nigam, Prayagraj - UPPCB",05-03-2026 16:00:00,25.44919916 ,81.82735986 ,NH3,7,9,8
India,Uttar_Pradesh,Raebareli," Indira Nagar, Raebareli - NTPC Unchahar",05-03-2026 16:00:00,26.207781,81.245571,PM10,NA,NA,NA
India,Uttar_Pradesh,Jhansi,"Shivaji Nagar, Jhansi - UPPCB",05-03-2026 16:00:00,25.4547,78.6039,NH3,4,4,4
India,Uttar_Pradesh,Jhansi,"Shivaji Nagar, Jhansi - UPPCB",05-03-2026 16:00:00,25.4547,78.6039,CO,6,62,10
India,Uttar_Pradesh,Jhansi,"Shivaji Nagar, Jhansi - UPPCB",05-03-2026 16:00:00,25.4547,78.6039,OZONE,2,8,6
India,Uttar_Pradesh,Kanpur,"FTI Kidwai Nagar, Kanpur - UPPCB",05-03-2026 16:00:00,26.428282,80.327067,CO,34,38,35
India,Uttar_Pradesh,Kanpur,"NSI Kalyanpur, Kanpur - UPPCB",05-03-2026 16:00:00,26.509954,80.249612,NO2,25,25,25
India,Uttar_Pradesh,Kanpur,"Nehru Nagar, Kanpur - UPPCB",05-03-2026 16:00:00,26.4703136,80.3229863,SO2,13,16,14
India,Uttar_Pradesh,Lucknow,"B R Ambedkar University, Lucknow - UPPCB",05-03-2026 16:00:00,26.766433,80.927299,PM10,46,86,71
India,Uttar_Pradesh,Lucknow,"B R Ambedkar University, Lucknow - UPPCB",05-03-2026 16:00:00,26.766433,80.927299,SO2,17,17,17
India,Uttar_Pradesh,Ghaziabad,"Vasundhara, Ghaziabad - UPPCB",05-03-2026 16:00:00,28.6603346,77.3572563,CO,34,77,60
India,Uttar_Pradesh,Gorakhpur,"Madan Mohan Malaviya University of Technology, Gorakhpur - UPPCB",05-03-2026 16:00:00,26.730136,83.433859,NO2,11,12,11
India,Uttar_Pradesh,Greater Noida,"Knowledge Park - III, Greater Noida - UPPCB",05-03-2026 16:00:00,28.47272,77.482000,NH3,8,13,11
India,Uttar_Pradesh,Greater Noida,"Knowledge Park - III, Greater Noida - UPPCB",05-03-2026 16:00:00,28.47272,77.482000,CO,5,79,50
India,Uttar_Pradesh,Hapur,"Anand Vihar, Hapur - UPPCB",05-03-2026 16:00:00,28.725645,77.749675,NH3,5,7,6
India,Uttar_Pradesh,Hapur,"Anand Vihar, Hapur - UPPCB",05-03-2026 16:00:00,28.725645,77.749675,CO,16,76,61
India,Uttar_Pradesh,Hapur,"Anand Vihar, Hapur - UPPCB",05-03-2026 16:00:00,28.725645,77.749675,OZONE,1,13,9
India,Uttar_Pradesh,Bulandshahr,"Yamunapuram, Bulandshahr - UPPCB",05-03-2026 16:00:00,28.406963,77.849831,NH3,9,16,12
India,Uttar_Pradesh,Firozabad,"Vibhab Nagar, Firozabad - UPPCB",05-03-2026 16:00:00,27.1594,78.3953,PM10,32,54,40
India,Uttar_Pradesh,Firozabad,"Vibhab Nagar, Firozabad - UPPCB",05-03-2026 16:00:00,27.1594,78.3953,CO,6,8,8
India,Uttar_Pradesh,Ghaziabad,"Indirapuram, Ghaziabad - UPPCB",05-03-2026 16:00:00,28.646233,77.358075,NH3,16,18,18
India,Uttar_Pradesh,Ghaziabad,"Sanjay Nagar, Ghaziabad - UPPCB",05-03-2026 16:00:00,28.685382,77.453839,NH3,6,11,9
India,Uttar_Pradesh,Ghaziabad,"Sanjay Nagar, Ghaziabad - UPPCB",05-03-2026 16:00:00,28.685382,77.453839,CO,6,64,41
India,West_Bengal,Asansol,"Mahabir Colliery, Asansol - WBPCB",05-03-2026 16:00:00,23.6181830,87.1057180,NH3,1,2,1
India,West_Bengal,Asansol,"Mahabir Colliery, Asansol - WBPCB",05-03-2026 16:00:00,23.6181830,87.1057180,OZONE,5,58,38
India,West_Bengal,Barrackpore,"SVSPA Campus, Barrackpore - WBPCB",05-03-2026 16:00:00,22.7605581,88.3617589,PM10,66,112,88
India,West_Bengal,Durgapur,"Mahishkapur Road_B-Zone, Durgapur - WBPCB",05-03-2026 16:00:00,23.567923,87.306843,PM2.5,54,191,96
India,West_Bengal,Durgapur,"Mahishkapur Road_B-Zone, Durgapur - WBPCB",05-03-2026 16:00:00,23.567923,87.306843,PM10,45,117,83
India,West_Bengal,Durgapur,"PCBL Residential Complex, Durgapur - WBPCB",05-03-2026 16:00:00,23.5087640,87.3544400,NH3,12,17,16
India,West_Bengal,Durgapur,"Womens College_City Center, Durgapur - WBPCB",05-03-2026 16:00:00,23.549395,87.300496,PM10,71,222,121
India,West_Bengal,Durgapur,"Womens College_City Center, Durgapur - WBPCB",05-03-2026 16:00:00,23.549395,87.300496,SO2,27,28,28
India,West_Bengal,Haldia,"Priyambada Housing Estate, Haldia - WBPCB",05-03-2026 16:00:00,22.06047,88.109737,CO,32,74,40
India,West_Bengal,Howrah,"Belur Math, Howrah - WBPCB",05-03-2026 16:00:00,22.629801,88.352017,NO2,25,119,70
India,West_Bengal,Howrah,"Botanical Garden, Howrah - WBPCB",05-03-2026 16:00:00,22.554954,88.292568,PM10,59,111,90
India,West_Bengal,Howrah,"Ghusuri, Howrah - WBPCB",05-03-2026 16:00:00,22.611968,88.347422,SO2,6,13,11
India,West_Bengal,Howrah,"Ghusuri, Howrah - WBPCB",05-03-2026 16:00:00,22.611968,88.347422,CO,8,70,34
India,West_Bengal,Kolkata,"Ballygunge, Kolkata - WBPCB",05-03-2026 16:00:00,22.5367507,88.3638022,NO2,23,90,49
India,West_Bengal,Kolkata,"Bidhannagar, Kolkata - WBPCB",05-03-2026 16:00:00,22.58157048,88.41002457,SO2,4,13,8
India,West_Bengal,Kolkata,"Jadavpur, Kolkata - WBPCB",05-03-2026 16:00:00,22.49929,88.36917,NH3,5,7,6
India,West_Bengal,Kolkata,"Jadavpur, Kolkata - WBPCB",05-03-2026 16:00:00,22.49929,88.36917,OZONE,5,110,38
India,West_Bengal,Kolkata,"Rabindra Bharati University, Kolkata - WBPCB",05-03-2026 16:00:00,22.627847,88.380669,SO2,1,10,7
India,West_Bengal,Kolkata,"Rabindra Bharati University, Kolkata - WBPCB",05-03-2026 16:00:00,22.627847,88.380669,CO,34,91,44
India,West_Bengal,Kolkata,"Rabindra Sarobar, Kolkata - WBPCB",05-03-2026 16:00:00,22.51106,88.35142,SO2,15,30,20
India,West_Bengal,Kolkata,"Rabindra Sarobar, Kolkata - WBPCB",05-03-2026 16:00:00,22.51106,88.35142,OZONE,7,41,34
India,West_Bengal,Kolkata,"Victoria, Kolkata - WBPCB",05-03-2026 16:00:00,22.5448082,88.3403691,PM10,100,127,115
India,West_Bengal,Kolkata,"Victoria, Kolkata - WBPCB",05-03-2026 16:00:00,22.5448082,88.3403691,SO2,15,45,22
India,West_Bengal,Kolkata,"Victoria, Kolkata - WBPCB",05-03-2026 16:00:00,22.5448082,88.3403691,OZONE,7,110,69
India,West_Bengal,Siliguri,"Ward-32 Bapupara, Siliguri - WBPCB",05-03-2026 16:00:00,26.6879226,88.4152495,PM10,NA,NA,NA
India,West_Bengal,Siliguri,"Ward-32 Bapupara, Siliguri - WBPCB",05-03-2026 16:00:00,26.6879226,88.4152495,NO2,NA,NA,NA
India,West_Bengal,Siliguri,"Ward-32 Bapupara, Siliguri - WBPCB",05-03-2026 16:00:00,26.6879226,88.4152495,SO2,NA,NA,NA
India,Andhra_Pradesh,Tirumala,"Toll Gate, Tirumala - APPCB",05-03-2026 16:00:00,13.67,79.35,PM2.5,75,163,110
India,Andhra_Pradesh,Tirumala,"Toll Gate, Tirumala - APPCB",05-03-2026 16:00:00,13.67,79.35,CO,16,43,24
India,Andhra_Pradesh,Tirupati,"Vaikuntapuram, Tirupati - APPCB",05-03-2026 16:00:00,13.615387,79.409230,PM2.5,59,105,75
India,Andhra_Pradesh,Tirupati,"Vaikuntapuram, Tirupati - APPCB",05-03-2026 16:00:00,13.615387,79.409230,PM10,52,91,66
India,Andhra_Pradesh,Vijayawada,"HB Colony, Vijayawada - APPCB",05-03-2026 16:00:00,16.536107,80.594233,PM2.5,48,67,55
India,Andhra_Pradesh,Vijayawada,"HB Colony, Vijayawada - APPCB",05-03-2026 16:00:00,16.536107,80.594233,PM10,45,65,52
India,Andhra_Pradesh,Vijayawada,"HB Colony, Vijayawada - APPCB",05-03-2026 16:00:00,16.536107,80.594233,NO2,15,26,16
India,Andhra_Pradesh,Vijayawada,"HB Colony, Vijayawada - APPCB",05-03-2026 16:00:00,16.536107,80.594233,SO2,17,20,17
India,Andhra_Pradesh,Vijayawada,"HB Colony, Vijayawada - APPCB",05-03-2026 16:00:00,16.536107,80.594233,CO,37,46,43
India,Andhra_Pradesh,Vijayawada,"HB Colony, Vijayawada - APPCB",05-03-2026 16:00:00,16.536107,80.594233,OZONE,16,20,16
India,Andhra_Pradesh,Vijayawada,"Kanuru, Vijayawada - APPCB",05-03-2026 16:00:00,16.486692,80.699436,SO2,12,21,15
India,Andhra_Pradesh,Vijayawada,"Rajiv Gandhi Park, Vijayawada - APPCB",05-03-2026 16:00:00,16.509717,80.612222,PM2.5,55,151,77
India,Andhra_Pradesh,Vijayawada,"Rajiv Gandhi Park, Vijayawada - APPCB",05-03-2026 16:00:00,16.509717,80.612222,NO2,23,61,33
India,Andhra_Pradesh,Amaravati,"Secretariat, Amaravati - APPCB",05-03-2026 16:00:00,16.5150833,80.5181667,PM2.5,40,76,59
India,Andhra_Pradesh,Anantapur,"Gulzarpet, Anantapur - APPCB",05-03-2026 16:00:00,14.675886,77.593027,NO2,16,20,16
India,Andhra_Pradesh,Anantapur,"Gulzarpet, Anantapur - APPCB",05-03-2026 16:00:00,14.675886,77.593027,SO2,10,17,12
India,Andhra_Pradesh,Chittoor,"Gangineni Cheruvu, Chittoor - APPCB",05-03-2026 16:00:00,13.204880,79.097889,PM10,43,67,52
India,Andhra_Pradesh,Chittoor,"Gangineni Cheruvu, Chittoor - APPCB",05-03-2026 16:00:00,13.204880,79.097889,NO2,32,36,33
India,Andhra_Pradesh,Chittoor,"Gangineni Cheruvu, Chittoor - APPCB",05-03-2026 16:00:00,13.204880,79.097889,CO,23,44,27
India,Andhra_Pradesh,Kadapa,"Yerramukkapalli, Kadapa - APPCB",05-03-2026 16:00:00,14.465052,78.824187,SO2,11,18,12
India,Andhra_Pradesh,Kadapa,"Yerramukkapalli, Kadapa - APPCB",05-03-2026 16:00:00,14.465052,78.824187,OZONE,13,16,14
India,Andhra_Pradesh,Rajamahendravaram,"Anand Kala Kshetram, Rajamahendravaram - APPCB",05-03-2026 16:00:00,16.9872867,81.7363176,PM10,53,112,79
India,Andhra_Pradesh,Rajamahendravaram,"Anand Kala Kshetram, Rajamahendravaram - APPCB",05-03-2026 16:00:00,16.9872867,81.7363176,SO2,5,32,12
India,Andhra_Pradesh,Rajamahendravaram,"Anand Kala Kshetram, Rajamahendravaram - APPCB",05-03-2026 16:00:00,16.9872867,81.7363176,CO,14,46,24
India,Bihar,Muzaffarpur,"MIT-Daudpur Kothi, Muzaffarpur - BSPCB",05-03-2026 16:00:00,26.1403345,85.3650192,NO2,1,1,1
India,Bihar,Patna,"DRM Office Danapur, Patna - BSPCB",05-03-2026 16:00:00,25.586562,85.043586,PM2.5,55,100,78
India,Bihar,Patna,"Govt. High School Shikarpur, Patna - BSPCB",05-03-2026 16:00:00,25.592539,85.227158,PM10,101,141,117
India,Bihar,Patna,"Govt. High School Shikarpur, Patna - BSPCB",05-03-2026 16:00:00,25.592539,85.227158,SO2,4,7,5
India,Bihar,Patna,"Govt. High School Shikarpur, Patna - BSPCB",05-03-2026 16:00:00,25.592539,85.227158,OZONE,21,92,73
India,Bihar,Patna,"IGSC Planetarium Complex, Patna - BSPCB",05-03-2026 16:00:00,25.610369,85.132568,CO,14,34,28
India,Bihar,Patna,"Muradpur, Patna - BSPCB",05-03-2026 16:00:00,25.619651,85.147382,PM2.5,90,167,120
India,Bihar,Patna,"Muradpur, Patna - BSPCB",05-03-2026 16:00:00,25.619651,85.147382,NO2,10,12,11
India,Bihar,Patna,"Muradpur, Patna - BSPCB",05-03-2026 16:00:00,25.619651,85.147382,SO2,8,10,9
India,Andhra_Pradesh,Vijayawada,"Rajiv Nagar, Vijayawada - APPCB",05-03-2026 16:00:00,16.554731,80.649110,SO2,14,21,16
India,Andhra_Pradesh,Visakhapatnam,"GVM Corporation, Visakhapatnam - APPCB",05-03-2026 16:00:00,17.72,83.3,NO2,23,144,82
India,Arunachal_Pradesh,Naharlagun,"Naharlagun, Naharlagun - APSPCB",05-03-2026 16:00:00,27.103358,93.679645,PM2.5,45,316,115
India,Arunachal_Pradesh,Naharlagun,"Naharlagun, Naharlagun - APSPCB",05-03-2026 16:00:00,27.103358,93.679645,NO2,7,8,7
India,Arunachal_Pradesh,Naharlagun,"Naharlagun, Naharlagun - APSPCB",05-03-2026 16:00:00,27.103358,93.679645,SO2,9,10,10
India,Assam,Byrnihat,"Central Academy for SFS, Byrnihat - PCBA",05-03-2026 16:00:00,26.071318,91.87488,PM2.5,86,406,178
India,Assam,Guwahati,"LGBI Airport, Guwahati - PCBA",05-03-2026 16:00:00,26.10887,91.589544,PM2.5,37,48,42
India,Bihar,Begusarai,"Lohiyanagar, Begusarai - BSPCB",05-03-2026 16:00:00,25.42742023,86.13886079,SO2,22,27,25
India,Bihar,Bettiah,"Kamalnath Nagar, Bettiah - BSPCB",05-03-2026 16:00:00,26.80365,84.51954,PM10,24,115,63
India,Bihar,Bettiah,"Kamalnath Nagar, Bettiah - BSPCB",05-03-2026 16:00:00,26.80365,84.51954,CO,38,62,46
India,Bihar,Bhagalpur,"DM Office_Kachari Chowk, Bhagalpur - BSPCB",05-03-2026 16:00:00,25.251013,86.989001,SO2,36,81,58
India,Bihar,Bhagalpur,"DM Office_Kachari Chowk, Bhagalpur - BSPCB",05-03-2026 16:00:00,25.251013,86.989001,OZONE,9,27,17
India,Bihar,Bhagalpur,"Mayaganj, Bhagalpur - BSPCB",05-03-2026 16:00:00,25.265194,87.012947,SO2,44,54,49
India,Bihar,Bihar Sharif,"D M Colony, Bihar Sharif - BSPCB",05-03-2026 16:00:00,25.204762,85.514960,NO2,9,10,9
India,Bihar,Bihar Sharif,"D M Colony, Bihar Sharif - BSPCB",05-03-2026 16:00:00,25.204762,85.514960,SO2,10,10,10
India,Bihar,Buxar,"Charitra Van, Buxar - BSPCB",05-03-2026 16:00:00,25.567520,83.966379,PM2.5,58,87,73
India,Bihar,Chhapra,"Darshan Nagar, Chhapra - BSPCB",05-03-2026 16:00:00,25.7808257,84.7446768,PM2.5,33,72,48
India,Bihar,Chhapra,"Darshan Nagar, Chhapra - BSPCB",05-03-2026 16:00:00,25.7808257,84.7446768,NO2,2,2,2
India,Bihar,Chhapra,"Darshan Nagar, Chhapra - BSPCB",05-03-2026 16:00:00,25.7808257,84.7446768,NH3,7,9,8
India,Bihar,Chhapra,"Darshan Nagar, Chhapra - BSPCB",05-03-2026 16:00:00,25.7808257,84.7446768,OZONE,2,36,22
India,Bihar,Gaya,"SFTI Kusdihra, Gaya - BSPCB",05-03-2026 16:00:00,24.762518,84.982348,NO2,14,34,25
India,Bihar,Hajipur,"Industrial Area, Hajipur - BSPCB",05-03-2026 16:00:00,25.697189,85.245900,NH3,20,23,21
India,Bihar,Katihar,"Mirchaibari, Katihar - BSPCB",05-03-2026 16:00:00,25.560083,87.553265,PM10,NA,NA,NA
India,Bihar,Katihar,"Mirchaibari, Katihar - BSPCB",05-03-2026 16:00:00,25.560083,87.553265,OZONE,14,44,27
India,Bihar,Kishanganj,"SDM Office_Khagra, Kishanganj - BSPCB",05-03-2026 16:00:00,26.0881305,87.93840336,NH3,3,3,3
India,Bihar,Manguraha,"Forest Rest House, Manguraha - BSPCB",05-03-2026 16:00:00,27.308328,84.531742,PM2.5,77,213,119
India,Bihar,Manguraha,"Forest Rest House, Manguraha - BSPCB",05-03-2026 16:00:00,27.308328,84.531742,NO2,5,12,7
India,Bihar,Muzaffarpur,"Buddha Colony, Muzaffarpur - BSPCB",05-03-2026 16:00:00,26.11442,85.39813,PM2.5,80,174,136
India,Bihar,Muzaffarpur,"Buddha Colony, Muzaffarpur - BSPCB",05-03-2026 16:00:00,26.11442,85.39813,PM10,80,114,96
India,Bihar,Muzaffarpur,"Buddha Colony, Muzaffarpur - BSPCB",05-03-2026 16:00:00,26.11442,85.39813,NH3,13,23,18
India,Bihar,Muzaffarpur,"Buddha Colony, Muzaffarpur - BSPCB",05-03-2026 16:00:00,26.11442,85.39813,OZONE,38,146,88
India,Assam,Guwahati,"Pan Bazaar, Guwahati - PCBA",05-03-2026 16:00:00,26.187500,91.744194,CO,14,78,29
India,Assam,Nalbari,"Bata Chowk, Nalbari - PCBA",05-03-2026 16:00:00,26.446912,91.439057,PM2.5,100,197,158
India,Assam,Nalbari,"Bata Chowk, Nalbari - PCBA",05-03-2026 16:00:00,26.446912,91.439057,SO2,2,8,8
India,Assam,Silchar,"Tarapur, Silchar - PCBA",05-03-2026 16:00:00,24.82827,92.79525,SO2,5,6,6
India,Assam,Sivasagar,"Girls College, Sivasagar - PCBA",05-03-2026 16:00:00,26.987634,94.636574,NO2,26,55,41
India,Assam,Sivasagar,"Girls College, Sivasagar - PCBA",05-03-2026 16:00:00,26.987634,94.636574,SO2,8,13,11
India,Bihar,Araria,"Kharahiya Basti, Araria - BSPCB",05-03-2026 16:00:00,26.146529,87.454184,NH3,4,4,4
India,Bihar,Araria,"Kharahiya Basti, Araria - BSPCB",05-03-2026 16:00:00,26.146529,87.454184,OZONE,9,10,10
India,Bihar,Arrah,"New DM Office, Arrah - BSPCB",05-03-2026 16:00:00,25.5626095,84.663264,SO2,NA,NA,NA
India,Bihar,Samastipur,"DM Office_Kasipur, Samastipur - BSPCB",05-03-2026 16:00:00,25.859655,85.77944,OZONE,7,8,8
India,Bihar,Sasaram,"Dada Peer, Sasaram - BSPCB",05-03-2026 16:00:00,24.952822,84.002396,PM2.5,24,279,51
India,Bihar,Sasaram,"Dada Peer, Sasaram - BSPCB",05-03-2026 16:00:00,24.952822,84.002396,CO,35,113,63
India,Bihar,Sasaram,"Dada Peer, Sasaram - BSPCB",05-03-2026 16:00:00,24.952822,84.002396,OZONE,4,37,21
India,Bihar,Siwan,"Chitragupta Nagar, Siwan - BSPCB",05-03-2026 16:00:00,26.2271665,84.3570427,SO2,8,9,9
India,Chandigarh,Chandigarh,"Sector 22, Chandigarh - CPCC",05-03-2026 16:00:00,30.735567,76.775714,NO2,4,12,7
India,Chandigarh,Chandigarh,"Sector 22, Chandigarh - CPCC",05-03-2026 16:00:00,30.735567,76.775714,OZONE,47,166,91
India,Chandigarh,Chandigarh,"Sector-53, Chandigarh - CPCC",05-03-2026 16:00:00,30.719859,76.738637,SO2,5,13,7
India,Chhattisgarh,Bhilai,"32Bungalows, Bhilai - CECB",05-03-2026 16:00:00,21.194815,81.314770,PM2.5,6,16,12
India,Chhattisgarh,Bhilai,"32Bungalows, Bhilai - CECB",05-03-2026 16:00:00,21.194815,81.314770,PM10,9,22,16
India,Delhi,Delhi,"Bawana, Delhi - DPCC",05-03-2026 16:00:00,28.776200,77.051074,PM10,117,168,141
India,Delhi,Delhi,"Bawana, Delhi - DPCC",05-03-2026 16:00:00,28.776200,77.051074,CO,33,47,40
India,Delhi,Delhi,"Burari Crossing, Delhi - IMD",05-03-2026 16:00:00,28.7256504,77.2011573,NO2,55,74,62
India,Delhi,Delhi,"CRRI Mathura Road, Delhi - IMD",05-03-2026 16:00:00,28.5512005,77.2735737,PM2.5,47,143,89
India,Delhi,Delhi,"Cantonment Area, Delhi - DPCC ",05-03-2026 16:00:00,28.594169 ,77.125100 ,PM10,116,147,129
India,Delhi,Delhi,"Cantonment Area, Delhi - DPCC ",05-03-2026 16:00:00,28.594169 ,77.125100 ,OZONE,3,48,38
India,Delhi,Delhi,"Chandni Chowk, Delhi - IITM",05-03-2026 16:00:00,28.656756,77.227234,OZONE,15,90,70
India,Delhi,Delhi,"Commonwealth Sports Complex, Delhi - DPCC",05-03-2026 16:00:00,28.615828 ,77.271992 ,CO,74,94,86
India,Delhi,Delhi,"DTU, Delhi - CPCB",05-03-2026 16:00:00,28.7500499,77.1112615,PM10,77,121,97
India,Delhi,Delhi,"DTU, Delhi - CPCB",05-03-2026 16:00:00,28.7500499,77.1112615,OZONE,24,40,30
India,Delhi,Delhi,"Dr. Karni Singh Shooting Range, Delhi - DPCC",05-03-2026 16:00:00,28.498571,77.264840,PM2.5,65,143,100
India,Delhi,Delhi,"Dr. Karni Singh Shooting Range, Delhi - DPCC",05-03-2026 16:00:00,28.498571,77.264840,PM10,NA,NA,NA
India,Delhi,Delhi,"Dr. Karni Singh Shooting Range, Delhi - DPCC",05-03-2026 16:00:00,28.498571,77.264840,NO2,NA,NA,NA
India,Delhi,Delhi,"Dwarka-Sector 8, Delhi - DPCC ",05-03-2026 16:00:00,28.5710274,77.0719006,PM2.5,77,187,125
India,Delhi,Delhi,"IGI Airport (T3), Delhi - IMD",05-03-2026 16:00:00,28.5627763,77.1180053,PM2.5,48,136,80
India,Delhi,Delhi,"IGI Airport (T3), Delhi - IMD",05-03-2026 16:00:00,28.5627763,77.1180053,PM10,106,181,128
India,Delhi,Delhi,"IGI Airport (T3), Delhi - IMD",05-03-2026 16:00:00,28.5627763,77.1180053,OZONE,4,61,46
India,Delhi,Delhi,"IGNOU_Maidan Garhi, Delhi - DPCC",05-03-2026 16:00:00,28.493624 ,77.201159 ,CO,90,108,100
India,Chhattisgarh,Kunjemura,"OP Jindal School, Kunjemura - CECB",05-03-2026 16:00:00,22.126650,83.483212,PM10,31,82,55
India,Chhattisgarh,Kunjemura,"OP Jindal School, Kunjemura - CECB",05-03-2026 16:00:00,22.126650,83.483212,NH3,2,2,2
India,Chhattisgarh,Kunjemura,"OP Jindal School, Kunjemura - CECB",05-03-2026 16:00:00,22.126650,83.483212,CO,17,54,29
India,Chhattisgarh,Kunjemura,"OP Jindal School, Kunjemura - CECB",05-03-2026 16:00:00,22.126650,83.483212,OZONE,5,51,40
India,Chhattisgarh,Raipur,"AIIMS, Raipur - CECB",05-03-2026 16:00:00,21.258815,81.578979,NO2,NA,NA,NA
India,Chhattisgarh,Raipur,"AIIMS, Raipur - CECB",05-03-2026 16:00:00,21.258815,81.578979,CO,17,24,20
India,Chhattisgarh,Raipur,"Bhatagaon New ISBT, Raipur - CECB",05-03-2026 16:00:00,21.219665,81.630094,NH3,NA,NA,NA
India,Chhattisgarh,Raipur,"Krishak Nagar, Raipur - CECB",05-03-2026 16:00:00,21.237755,81.705301,SO2,4,26,7
India,Chhattisgarh,Raipur,"Krishak Nagar, Raipur - CECB",05-03-2026 16:00:00,21.237755,81.705301,CO,17,38,31
India,Chhattisgarh,Raipur,"Krishak Nagar, Raipur - CECB",05-03-2026 16:00:00,21.237755,81.705301,OZONE,19,34,24
India,Chhattisgarh,Bhilai,"32Bungalows, Bhilai - CECB",05-03-2026 16:00:00,21.194815,81.314770,OZONE,1,21,17
India,Chhattisgarh,Bhilai,"Hathkhoj, Bhilai - CECB",05-03-2026 16:00:00,21.224231,81.408350,PM10,11,51,26
India,Chhattisgarh,Bhilai,"Hathkhoj, Bhilai - CECB",05-03-2026 16:00:00,21.224231,81.408350,NH3,4,6,5
India,Chhattisgarh,Bhilai,"Hathkhoj, Bhilai - CECB",05-03-2026 16:00:00,21.224231,81.408350,CO,11,44,20
India,Chhattisgarh,Bilaspur,"Mangala, Bilaspur - NTPC",05-03-2026 16:00:00,22.08815,82.13737,CO,14,62,25
India,Chhattisgarh,Chhal,"Nawapara SECL Colony, Chhal - CECB",05-03-2026 16:00:00,22.118125,83.140608,SO2,3,46,12
India,Chhattisgarh,Korba,"Rampur, Korba - CECB",05-03-2026 16:00:00,22.368195,82.746431,PM10,16,62,38
India,Chhattisgarh,Tumidih,"OP Jindal Industrial Park, Tumidih - CECB",05-03-2026 16:00:00,22.06631475,83.33820077,NO2,30,74,51
India,Chhattisgarh,Tumidih,"OP Jindal Industrial Park, Tumidih - CECB",05-03-2026 16:00:00,22.06631475,83.33820077,SO2,5,10,6
India,Delhi,Delhi,"Alipur, Delhi - DPCC",05-03-2026 16:00:00,28.815329,77.153010,PM2.5,65,217,102
India,Delhi,Delhi,"Alipur, Delhi - DPCC",05-03-2026 16:00:00,28.815329,77.153010,SO2,3,16,7
India,Delhi,Delhi,"Anand Vihar, Delhi - DPCC",05-03-2026 16:00:00,28.647622,77.3158090,PM10,129,406,185
India,Delhi,Delhi,"Anand Vihar, Delhi - DPCC",05-03-2026 16:00:00,28.647622,77.3158090,OZONE,10,29,14
India,Bihar,Purnia,"Mariam Nagar, Purnia - BSPCB",05-03-2026 16:00:00,25.366336,87.117468,PM10,58,93,74
India,Bihar,Purnia,"Mariam Nagar, Purnia - BSPCB",05-03-2026 16:00:00,25.366336,87.117468,SO2,16,19,17
India,Bihar,Rajgir,"Dangi Tola, Rajgir - BSPCB",05-03-2026 16:00:00,25.03280,85.41948,NO2,13,15,14
India,Bihar,Rajgir,"Dangi Tola, Rajgir - BSPCB",05-03-2026 16:00:00,25.03280,85.41948,CO,36,52,41
India,Bihar,Samastipur,"DM Office_Kasipur, Samastipur - BSPCB",05-03-2026 16:00:00,25.859655,85.77944,NH3,1,1,1
India,Bihar,Samastipur,"DM Office_Kasipur, Samastipur - BSPCB",05-03-2026 16:00:00,25.859655,85.77944,SO2,21,30,26
India,Delhi,Delhi,"IIT Delhi, Delhi - IITM",05-03-2026 16:00:00,28.542460,77.191651,PM10,102,232,139
India,Delhi,Delhi,"ITO, Delhi - CPCB",05-03-2026 16:00:00,28.628624,77.241060,NH3,1,5,3
India,Delhi,Delhi,"JNU, Delhi - DPCC",05-03-2026 16:00:00,28.540721 ,77.168544 ,PM10,113,139,122
India,Delhi,Delhi,"JNU, Delhi - DPCC",05-03-2026 16:00:00,28.540721 ,77.168544 ,NH3,3,6,5
India,Delhi,Delhi,"JNU, Delhi - DPCC",05-03-2026 16:00:00,28.540721 ,77.168544 ,CO,28,69,51
India,Delhi,Delhi,"Jahangirpuri, Delhi - DPCC",05-03-2026 16:00:00,28.732820,77.170633,CO,28,60,41
India,Delhi,Delhi,"Aya Nagar, Delhi - IMD",05-03-2026 16:00:00,28.4706914,77.1099364,PM2.5,44,112,78
India,Delhi,Delhi,"Aya Nagar, Delhi - IMD",05-03-2026 16:00:00,28.4706914,77.1099364,OZONE,27,71,58
India,Delhi,Delhi,"Najafgarh, Delhi - DPCC",05-03-2026 16:00:00,28.570173,76.933762,CO,18,107,27
India,Delhi,Delhi,"Narela, Delhi - DPCC",05-03-2026 16:00:00,28.822836,77.101981,PM10,105,142,118
India,Delhi,Delhi,"Narela, Delhi - DPCC",05-03-2026 16:00:00,28.822836,77.101981,NH3,5,6,5
India,Delhi,Delhi,"Narela, Delhi - DPCC",05-03-2026 16:00:00,28.822836,77.101981,SO2,10,24,14
India,Delhi,Delhi,"Narela, Delhi - DPCC",05-03-2026 16:00:00,28.822836,77.101981,CO,48,64,56
India,Delhi,Delhi,"Narela, Delhi - DPCC",05-03-2026 16:00:00,28.822836,77.101981,OZONE,11,68,41
India,Delhi,Delhi,"Nehru Nagar, Delhi - DPCC",05-03-2026 16:00:00,28.567890,77.250515,CO,78,148,94
India,Delhi,Delhi,"Nehru Nagar, Delhi - DPCC",05-03-2026 16:00:00,28.567890,77.250515,OZONE,13,219,180
India,Delhi,Delhi,"Okhla Phase-2, Delhi - DPCC",05-03-2026 16:00:00,28.530785,77.271255,PM10,105,210,141
India,Delhi,Delhi,"Okhla Phase-2, Delhi - DPCC",05-03-2026 16:00:00,28.530785,77.271255,NH3,7,14,9
India,Delhi,Delhi,"Major Dhyan Chand National Stadium, Delhi - DPCC",05-03-2026 16:00:00,28.611281,77.237738,PM2.5,32,120,74
India,Delhi,Delhi,"Mandir Marg, Delhi - DPCC",05-03-2026 16:00:00,28.636429,77.201067,PM2.5,NA,NA,NA
India,Delhi,Delhi,"Mundka, Delhi - DPCC",05-03-2026 16:00:00,28.684678,77.076574,NH3,8,11,10
India,Delhi,Delhi,"NSIT Dwarka, Delhi - CPCB",05-03-2026 16:00:00,28.60909,77.0325413,NO2,31,303,99
India,Delhi,Delhi,"NSIT Dwarka, Delhi - CPCB",05-03-2026 16:00:00,28.60909,77.0325413,SO2,9,21,15
India,Delhi,Delhi,"NSUT Jaffarpur, Delhi - DPCC",05-03-2026 16:00:00,28.594004 ,76.909423 ,NO2,2,21,12
India,Delhi,Delhi,"Najafgarh, Delhi - DPCC",05-03-2026 16:00:00,28.570173,76.933762,PM10,84,129,105
India,Delhi,Delhi,"Sri Aurobindo Marg, Delhi - DPCC",05-03-2026 16:00:00,28.531346,77.190156,OZONE,7,73,54
India,Delhi,Delhi,"Talkatora Garden, Delhi - DPCC",05-03-2026 16:00:00,28.621810,77.1944633,PM10,105,156,127
India,Delhi,Delhi,"Talkatora Garden, Delhi - DPCC",05-03-2026 16:00:00,28.621810,77.1944633,SO2,83,105,97
India,Delhi,Delhi,"Vivek Vihar, Delhi - DPCC",05-03-2026 16:00:00,28.672342,77.315260,PM10,NA,NA,NA
India,Delhi,Delhi,"Wazirpur, Delhi - DPCC",05-03-2026 16:00:00,28.699793,77.165453,PM10,109,267,159
India,Delhi,Delhi,"Wazirpur, Delhi - DPCC",05-03-2026 16:00:00,28.699793,77.165453,CO,44,78,57
India,Delhi,Delhi,"Wazirpur, Delhi - DPCC",05-03-2026 16:00:00,28.699793,77.165453,OZONE,2,36,19
India,Gujarat,Ahmedabad,"Gyaspur, Ahmedabad - IITM",05-03-2026 16:00:00,22.977134,72.553024,CO,19,48,24
India,Gujarat,Ahmedabad,"Maninagar, Ahmedabad - GPCB",05-03-2026 16:00:00,23.002657,72.591912,PM2.5,49,92,75
India,Gujarat,Ahmedabad,"Maninagar, Ahmedabad - GPCB",05-03-2026 16:00:00,23.002657,72.591912,PM10,64,129,94
India,Gujarat,Ahmedabad,"Rakhial, Ahmedabad - IITM",05-03-2026 16:00:00,23.016834,72.625775,NH3,4,6,5
India,Gujarat,Ahmedabad,"Rakhial, Ahmedabad - IITM",05-03-2026 16:00:00,23.016834,72.625775,SO2,6,123,41
India,Delhi,Delhi,"Jahangirpuri, Delhi - DPCC",05-03-2026 16:00:00,28.732820,77.170633,OZONE,12,74,48
India,Delhi,Delhi,"Jawaharlal Nehru Stadium, Delhi - DPCC",05-03-2026 16:00:00,28.580280,77.233829,PM10,111,201,138
India,Delhi,Delhi,"Lodhi Road, Delhi - IMD",05-03-2026 16:00:00,28.5918245,77.2273074,CO,20,30,25
India,Delhi,Delhi,"Lodhi Road, Delhi - IMD",05-03-2026 16:00:00,28.5918245,77.2273074,OZONE,25,110,80
India,Gujarat,Ahmedabad,"SAC ISRO Satellite, Ahmedabad - IITM",05-03-2026 16:00:00,23.023389,72.515201,PM10,50,107,84
India,Gujarat,Ahmedabad,"SAC ISRO Satellite, Ahmedabad - IITM",05-03-2026 16:00:00,23.023389,72.515201,NH3,4,12,8
India,Gujarat,Ahmedabad,"SVPI Airport Hansol, Ahmedabad - IITM",05-03-2026 16:00:00,23.076793,72.627874,PM10,68,111,90
India,Delhi,Delhi,"Punjabi Bagh, Delhi - DPCC",05-03-2026 16:00:00,28.674045,77.131023,NO2,13,25,20
India,Delhi,Delhi,"Punjabi Bagh, Delhi - DPCC",05-03-2026 16:00:00,28.674045,77.131023,SO2,40,56,46
India,Delhi,Delhi,"Punjabi Bagh, Delhi - DPCC",05-03-2026 16:00:00,28.674045,77.131023,OZONE,15,62,41
India,Delhi,Delhi,"Pusa, Delhi - DPCC",05-03-2026 16:00:00,28.639652,77.146275,SO2,7,18,13
India,Delhi,Delhi,"R K Puram, Delhi - DPCC",05-03-2026 16:00:00,28.563262,77.186937,CO,12,74,33
India,Delhi,Delhi,"Rohini, Delhi - DPCC",05-03-2026 16:00:00,28.732528,77.119920,SO2,11,24,16
India,Delhi,Delhi,"Rohini, Delhi - DPCC",05-03-2026 16:00:00,28.732528,77.119920,CO,4,42,12
India,Gujarat,Ahmedabad,"SAC ISRO Bopal, Ahmedabad - IITM",05-03-2026 16:00:00,23.041137,72.456691,NO2,7,25,15
India,Gujarat,Ahmedabad,"SAC ISRO Bopal, Ahmedabad - IITM",05-03-2026 16:00:00,23.041137,72.456691,OZONE,7,96,52
India,Gujarat,Gandhinagar,"IIPHG Lekawada, Gandhinagar - IITM",05-03-2026 16:00:00,23.243639,72.68994,CO,1,16,8
India,Gujarat,Mehsana,"Sadanand Nagar, Mehsana - Nexteng Enviro",05-03-2026 16:00:00,23.593150,72.372792,NO2,41,64,52
India,Gujarat,Mehsana,"Sadanand Nagar, Mehsana - Nexteng Enviro",05-03-2026 16:00:00,23.593150,72.372792,SO2,8,17,12
India,Gujarat,Nandesari,"GIDC, Nandesari - Nandesari Ind. Association",05-03-2026 16:00:00,22.410802,73.097923,NO2,NA,NA,NA
India,Gujarat,Rajkot,"Mavdi, Rajkot - Nexteng Enviro ",05-03-2026 16:00:00,22.248853,70.776774,PM10,47,118,86
India,Gujarat,Rajkot,"Mavdi, Rajkot - Nexteng Enviro ",05-03-2026 16:00:00,22.248853,70.776774,SO2,5,57,19
India,Gujarat,Surat,"Science Center, Surat - SMC",05-03-2026 16:00:00,21.170046,72.795405,NO2,12,17,15
India,Gujarat,Vadodara,"Bapunagar, Vadodara - Nexteng Enviro",05-03-2026 16:00:00,22.320153,73.216285,OZONE,2,8,5
India,Gujarat,Vapi,"Phase-1 GIDC, Vapi - GPCB",05-03-2026 16:00:00,20.362421,72.918013,PM2.5,NA,NA,NA
India,Gujarat,Vatva,"Phase-4 GIDC, Vatva - GPCB",05-03-2026 16:00:00,22.969611,72.643500,SO2,21,43,26
India,Haryana,Ambala,"Patti Mehar, Ambala - HSPCB",05-03-2026 16:00:00,30.379589,76.778328,PM10,54,86,71
India,Haryana,Ambala,"Patti Mehar, Ambala - HSPCB",05-03-2026 16:00:00,30.379589,76.778328,OZONE,11,21,20
India,Haryana,Bahadurgarh,"Arya Nagar, Bahadurgarh - HSPCB",05-03-2026 16:00:00,28.6701,76.9254,PM2.5,70,337,241
India,Haryana,Bahadurgarh,"Arya Nagar, Bahadurgarh - HSPCB",05-03-2026 16:00:00,28.6701,76.9254,SO2,7,7,7
India,Gujarat,Ankleshwar,"GIDC, Ankleshwar - GPCB",05-03-2026 16:00:00,21.613267,73.010555,PM2.5,NA,NA,NA
India,Gujarat,Bhavnagar,"Vidhyanagar, Bhavnagar - Nexteng Enviro",05-03-2026 16:00:00,21.755417,72.139056,SO2,14,86,28
India,Gujarat,Gandhinagar,"GIFT City, Gandhinagar - IITM",05-03-2026 16:00:00,23.163798,72.677768,PM10,64,121,95
India,Gujarat,Gandhinagar,"GIFT City, Gandhinagar - IITM",05-03-2026 16:00:00,23.163798,72.677768,NO2,14,33,20
India,Gujarat,Gandhinagar,"IIPHG Lekawada, Gandhinagar - IITM",05-03-2026 16:00:00,23.243639,72.68994,NO2,8,65,22
India,Haryana,Gurugram,"Vikas Sadan, Gurugram - HSPCB",05-03-2026 16:00:00,28.4501238,77.0263051,CO,62,114,91
India,Haryana,Hisar,"Urban Estate-II, Hisar - HSPCB",05-03-2026 16:00:00,29.140560,75.744941,NH3,10,11,11
India,Haryana,Jind,"Police Lines, Jind - HSPCB",05-03-2026 16:00:00,29.307814,76.337619,PM2.5,92,186,118
India,Haryana,Jind,"Police Lines, Jind - HSPCB",05-03-2026 16:00:00,29.307814,76.337619,PM10,78,115,92
India,Haryana,Faridabad,"New Industrial Town, Faridabad - HSPCB",05-03-2026 16:00:00,28.39072,77.30059,PM2.5,184,196,191
India,Haryana,Faridabad,"Sector 11, Faridabad - HSPCB",05-03-2026 16:00:00,28.376058,77.315741,NH3,10,10,10
India,Haryana,Faridabad,"Sector 11, Faridabad - HSPCB",05-03-2026 16:00:00,28.376058,77.315741,SO2,3,3,3
India,Haryana,Faridabad,"Sector 30, Faridabad - HSPCB",05-03-2026 16:00:00,28.4417,77.3217,CO,58,66,62
India,Haryana,Gurugram,"NISE Gwal Pahari, Gurugram - IMD",05-03-2026 16:00:00,28.422681,77.148944,PM2.5,NA,NA,NA
India,Haryana,Gurugram,"NISE Gwal Pahari, Gurugram - IMD",05-03-2026 16:00:00,28.422681,77.148944,NO2,NA,NA,NA
India,Haryana,Gurugram,"NISE Gwal Pahari, Gurugram - IMD",05-03-2026 16:00:00,28.422681,77.148944,OZONE,28,59,43
India,Haryana,Gurugram,"Sector-51, Gurugram - HSPCB",05-03-2026 16:00:00,28.4227,77.0667,PM10,101,145,122
India,Haryana,Charkhi Dadri,"Mini Secretariat, Charkhi Dadri - HSPCB",05-03-2026 16:00:00,28.593883,76.270653,PM2.5,91,307,247
India,Haryana,Charkhi Dadri,"Mini Secretariat, Charkhi Dadri - HSPCB",05-03-2026 16:00:00,28.593883,76.270653,PM10,85,151,126
India,Haryana,Charkhi Dadri,"Mini Secretariat, Charkhi Dadri - HSPCB",05-03-2026 16:00:00,28.593883,76.270653,SO2,9,11,10
India,Haryana,Charkhi Dadri,"Mini Secretariat, Charkhi Dadri - HSPCB",05-03-2026 16:00:00,28.593883,76.270653,OZONE,13,17,14
India,Haryana,Ballabgarh,"Nathu Colony, Ballabgarh - HSPCB",05-03-2026 16:00:00,28.3419248,77.319699,PM10,134,261,175
India,Haryana,Ballabgarh,"Nathu Colony, Ballabgarh - HSPCB",05-03-2026 16:00:00,28.3419248,77.319699,CO,24,56,34
India,Haryana,Fatehabad,"Huda Sector, Fatehabad - HSPCB",05-03-2026 16:00:00,29.503664,75.467934,CO,26,40,30
India,Haryana,Panipat,"Sector-18, Panipat - HSPCB",05-03-2026 16:00:00,29.432304,76.972765,NH3,2,3,3
India,Haryana,Sirsa,"F-Block, Sirsa - HSPCB",05-03-2026 16:00:00,29.536400,75.015800,SO2,2,23,10
India,Haryana,Sonipat,"Murthal, Sonipat - HSPCB",05-03-2026 16:00:00,29.027200,77.062100,PM2.5,55,265,136
India,Haryana,Sonipat,"Murthal, Sonipat - HSPCB",05-03-2026 16:00:00,29.027200,77.062100,SO2,2,18,8
India,Haryana,Sonipat,"Murthal, Sonipat - HSPCB",05-03-2026 16:00:00,29.027200,77.062100,CO,2,13,8
India,Haryana,Yamuna Nagar,"Gobind Pura, Yamuna Nagar - HSPCB",05-03-2026 16:00:00,30.1480566,77.2893471,PM10,109,413,143
India,Haryana,Yamuna Nagar,"Gobind Pura, Yamuna Nagar - HSPCB",05-03-2026 16:00:00,30.1480566,77.2893471,SO2,10,53,17
India,Himachal Pradesh,Baddi,"HIMUDA Complex Phase-1, Baddi - HPPCB",05-03-2026 16:00:00,30.943887,76.801991,NO2,9,39,24
India,Himachal Pradesh,Baddi,"HIMUDA Complex Phase-1, Baddi - HPPCB",05-03-2026 16:00:00,30.943887,76.801991,NH3,5,31,7
India,Himachal Pradesh,Baddi,"HIMUDA Complex Phase-1, Baddi - HPPCB",05-03-2026 16:00:00,30.943887,76.801991,OZONE,39,141,101
India,Jammu_and_Kashmir,Pampore,"Khrew, Pampore - JKPCC",05-03-2026 16:00:00,34.031606,75.009712,SO2,2,4,3
India,Jammu_and_Kashmir,Srinagar,"Khunmoh, Srinagar - JKPCC",05-03-2026 16:00:00,34.06313,74.96017,NO2,8,37,18
India,Jammu_and_Kashmir,Srinagar,"Khunmoh, Srinagar - JKPCC",05-03-2026 16:00:00,34.06313,74.96017,SO2,2,4,3
India,Karnataka,Bengaluru,"Hebbal, Bengaluru - KSPCB",05-03-2026 16:00:00,13.029152,77.585901,SO2,7,23,15
India,Karnataka,Bengaluru,"Hebbal, Bengaluru - KSPCB",05-03-2026 16:00:00,13.029152,77.585901,OZONE,20,149,126
India,Karnataka,Bengaluru,"Hombegowda Nagar, Bengaluru - KSPCB",05-03-2026 16:00:00,12.938539,77.590100,PM10,94,133,111
India,Karnataka,Bengaluru,"Hombegowda Nagar, Bengaluru - KSPCB",05-03-2026 16:00:00,12.938539,77.590100,NH3,4,11,5
India,Karnataka,Bengaluru,"Hombegowda Nagar, Bengaluru - KSPCB",05-03-2026 16:00:00,12.938539,77.590100,OZONE,40,157,140
India,Karnataka,Bengaluru,"Jayanagar 5th Block, Bengaluru - KSPCB",05-03-2026 16:00:00,12.920984,77.584908,OZONE,27,80,71
India,Karnataka,Bengaluru,"Jigani, Bengaluru - KSPCB",05-03-2026 16:00:00,12.7816279,77.6299145,SO2,19,20,20
India,Karnataka,Bengaluru,"Peenya, Bengaluru - CPCB",05-03-2026 16:00:00,13.0270199,77.494094,PM10,88,107,100
India,Karnataka,Bengaluru,"Peenya, Bengaluru - CPCB",05-03-2026 16:00:00,13.0270199,77.494094,NO2,20,31,25
India,Karnataka,Bengaluru,"Peenya, Bengaluru - CPCB",05-03-2026 16:00:00,13.0270199,77.494094,CO,18,60,26
India,Karnataka,Bengaluru,"Silk Board, Bengaluru - KSPCB",05-03-2026 16:00:00,12.917348,77.622813,PM2.5,88,303,141
India,Karnataka,Bengaluru,"Silk Board, Bengaluru - KSPCB",05-03-2026 16:00:00,12.917348,77.622813,PM10,92,233,153
India,Karnataka,Chamarajanagar,"Urban, Chamarajanagar - KSPCB",05-03-2026 16:00:00,11.55358,76.55521,PM10,NA,NA,NA
