country,state,city,station,last_update,latitude,longitude,pollutant_id,min_value,max_value,avg_value
India,Assam,Guwahati,"Railway Colony, Guwahati - PCBA",04-02-2026 08:00:00,26.181742,91.78063,PM2.5,53,394,240
India,Assam,Nagaon,"Christianpatty, Nagaon - PCBA",04-02-2026 08:00:00,26.349082,92.68449,NO2,1,9,1
India,Assam,Nagaon,"Christianpatty, Nagaon - PCBA",04-02-2026 08:00:00,26.349082,92.68449,NH3,4,4,4
India,Assam,Nagaon,"Christianpatty, Nagaon - PCBA",04-02-2026 08:00:00,26.349082,92.68449,SO2,9,13,11
India,Assam,Nalbari,"Bata Chowk, Nalbari - PCBA",04-02-2026 08:00:00,26.446912,91.439057,PM2.5,127,177,156
India,Assam,Nalbari,"Bata Chowk, Nalbari - PCBA",04-02-2026 08:00:00,26.446912,91.439057,PM10,107,124,116
India,Assam,Nalbari,"Bata Chowk, Nalbari - PCBA",04-02-2026 08:00:00,26.446912,91.439057,NO2,14,16,14
India,Assam,Nalbari,"Bata Chowk, Nalbari - PCBA",04-02-2026 08:00:00,26.446912,91.439057,CO,20,22,21
India,Assam,Silchar,"Tarapur, Silchar - PCBA",04-02-2026 08:00:00,24.82827,92.79525,NH3,1,1,1
India,Assam,Sivasagar,"Girls College, Sivasagar - PCBA",04-02-2026 08:00:00,26.987634,94.636574,NH3,4,36,13
India,Assam,Sivasagar,"Girls College, Sivasagar - PCBA",04-02-2026 08:00:00,26.987634,94.636574,SO2,11,13,12
India,Andhra_Pradesh,Amaravati,"Secretariat, Amaravati - APPCB",04-02-2026 08:00:00,16.5150833,80.5181667,OZONE,2,60,28
India,Andhra_Pradesh,Anantapur,"Gulzarpet, Anantapur - APPCB",04-02-2026 08:00:00,14.675886,77.593027,PM2.5,4,427,105
India,Andhra_Pradesh,Chittoor,"Gangineni Cheruvu, Chittoor - APPCB",04-02-2026 08:00:00,13.204880,79.097889,NO2,24,31,27
India,Andhra_Pradesh,Chittoor,"Gangineni Cheruvu, Chittoor - APPCB",04-02-2026 08:00:00,13.204880,79.097889,SO2,9,36,20
India,Andhra_Pradesh,Kadapa,"Yerramukkapalli, Kadapa - APPCB",04-02-2026 08:00:00,14.465052,78.824187,CO,38,50,47
India,Andhra_Pradesh,Rajamahendravaram,"Anand Kala Kshetram, Rajamahendravaram - APPCB",04-02-2026 08:00:00,16.9872867,81.7363176,SO2,7,24,15
India,Bihar,Araria,"Kharahiya Basti, Araria - BSPCB",04-02-2026 08:00:00,26.146529,87.454184,OZONE,9,11,10
India,Bihar,Arrah,"New DM Office, Arrah - BSPCB",04-02-2026 08:00:00,25.5626095,84.663264,NO2,6,8,7
India,Bihar,Arrah,"New DM Office, Arrah - BSPCB",04-02-2026 08:00:00,25.5626095,84.663264,NH3,1,1,1
India,Bihar,Begusarai,"Lohiyanagar, Begusarai - BSPCB",04-02-2026 08:00:00,25.42742023,86.13886079,OZONE,26,40,32
India,Bihar,Bettiah,"Kamalnath Nagar, Bettiah - BSPCB",04-02-2026 08:00:00,26.80365,84.51954,NH3,1,1,1
India,Bihar,Bhagalpur,"DM Office_Kachari Chowk, Bhagalpur - BSPCB",04-02-2026 08:00:00,25.251013,86.989001,PM10,42,124,87
India,Bihar,Bhagalpur,"DM Office_Kachari Chowk, Bhagalpur - BSPCB",04-02-2026 08:00:00,25.251013,86.989001,NO2,5,18,10
India,Andhra_Pradesh,Visakhapatnam,"GVM Corporation, Visakhapatnam - APPCB",04-02-2026 08:00:00,17.72,83.3,PM2.5,108,265,188
India,Andhra_Pradesh,Visakhapatnam,"GVM Corporation, Visakhapatnam - APPCB",04-02-2026 08:00:00,17.72,83.3,CO,14,38,26
India,Arunachal_Pradesh,Naharlagun,"Naharlagun, Naharlagun - APSPCB",04-02-2026 08:00:00,27.103358,93.679645,PM10,59,427,171
India,Arunachal_Pradesh,Naharlagun,"Naharlagun, Naharlagun - APSPCB",04-02-2026 08:00:00,27.103358,93.679645,OZONE,6,6,6
India,Assam,Byrnihat,"Central Academy for SFS, Byrnihat - PCBA",04-02-2026 08:00:00,26.071318,91.87488,CO,13,68,50
India,Assam,Guwahati,"Pan Bazaar, Guwahati - PCBA",04-02-2026 08:00:00,26.187500,91.744194,PM2.5,89,379,226
India,Bihar,Hajipur,"Industrial Area, Hajipur - BSPCB",04-02-2026 08:00:00,25.697189,85.245900,PM10,74,156,102
India,Bihar,Hajipur,"Industrial Area, Hajipur - BSPCB",04-02-2026 08:00:00,25.697189,85.245900,SO2,3,9,6
India,Bihar,Hajipur,"Industrial Area, Hajipur - BSPCB",04-02-2026 08:00:00,25.697189,85.245900,OZONE,1,110,15
India,Bihar,Kishanganj,"SDM Office_Khagra, Kishanganj - BSPCB",04-02-2026 08:00:00,26.0881305,87.93840336,OZONE,32,34,33
India,Bihar,Manguraha,"Forest Rest House, Manguraha - BSPCB",04-02-2026 08:00:00,27.308328,84.531742,NH3,1,2,1
India,Bihar,Motihari,"Gandak Colony, Motihari - BSPCB",04-02-2026 08:00:00,26.63086,84.90051,SO2,3,3,3
India,Bihar,Motihari,"Gandak Colony, Motihari - BSPCB",04-02-2026 08:00:00,26.63086,84.90051,CO,28,43,32
India,Bihar,Bihar Sharif,"D M Colony, Bihar Sharif - BSPCB",04-02-2026 08:00:00,25.204762,85.514960,NO2,9,10,10
India,Bihar,Bihar Sharif,"D M Colony, Bihar Sharif - BSPCB",04-02-2026 08:00:00,25.204762,85.514960,SO2,9,10,10
India,Bihar,Bihar Sharif,"D M Colony, Bihar Sharif - BSPCB",04-02-2026 08:00:00,25.204762,85.514960,CO,44,67,50
India,Bihar,Chhapra,"Darshan Nagar, Chhapra - BSPCB",04-02-2026 08:00:00,25.7808257,84.7446768,PM2.5,27,177,69
India,Bihar,Gaya,"Collectorate, Gaya - BSPCB",04-02-2026 08:00:00,24.7955,84.9994,NO2,9,9,9
India,Bihar,Gaya,"Kareemganj, Gaya - BSPCB",04-02-2026 08:00:00,24.792403,84.992416,SO2,42,46,44
India,Bihar,Gaya,"SFTI Kusdihra, Gaya - BSPCB",04-02-2026 08:00:00,24.762518,84.982348,NH3,3,5,4
India,Bihar,Munger,"Town Hall, Munger - BSPCB",04-02-2026 08:00:00,25.376776,86.471523,OZONE,8,12,11
India,Bihar,Muzaffarpur,"MIT-Daudpur Kothi, Muzaffarpur - BSPCB",04-02-2026 08:00:00,26.1403345,85.3650192,PM2.5,87,113,104
India,Bihar,Muzaffarpur,"MIT-Daudpur Kothi, Muzaffarpur - BSPCB",04-02-2026 08:00:00,26.1403345,85.3650192,PM10,64,77,71
India,Bihar,Muzaffarpur,"MIT-Daudpur Kothi, Muzaffarpur - BSPCB",04-02-2026 08:00:00,26.1403345,85.3650192,NH3,6,6,6
India,Bihar,Muzaffarpur,"MIT-Daudpur Kothi, Muzaffarpur - BSPCB",04-02-2026 08:00:00,26.1403345,85.3650192,CO,47,58,50
India,Bihar,Patna,"DRM Office Danapur, Patna - BSPCB",04-02-2026 08:00:00,25.586562,85.043586,PM2.5,NA,NA,NA
India,Bihar,Patna,"DRM Office Danapur, Patna - BSPCB",04-02-2026 08:00:00,25.586562,85.043586,OZONE,NA,NA,NA
India,Bihar,Patna,"Govt. High School Shikarpur, Patna - BSPCB",04-02-2026 08:00:00,25.592539,85.227158,PM10,98,108,104
India,Andhra_Pradesh,Rajamahendravaram,"Anand Kala Kshetram, Rajamahendravaram - APPCB",04-02-2026 08:00:00,16.9872867,81.7363176,OZONE,16,39,22
India,Andhra_Pradesh,Amaravati,"Secretariat, Amaravati - APPCB",04-02-2026 08:00:00,16.5150833,80.5181667,CO,2,40,26
India,Delhi,Delhi,"IGI Airport (T3), Delhi - IMD",04-02-2026 08:00:00,28.5627763,77.1180053,CO,21,139,127
India,Delhi,Delhi,"IGI Airport (T3), Delhi - IMD",04-02-2026 08:00:00,28.5627763,77.1180053,OZONE,4,66,5
India,Delhi,Delhi,"IHBAS, Dilshad Garden, Delhi - CPCB",04-02-2026 08:00:00,28.6811736,77.3025234,PM10,122,217,162
India,Delhi,Delhi,"IHBAS, Dilshad Garden, Delhi - CPCB",04-02-2026 08:00:00,28.6811736,77.3025234,SO2,7,36,16
India,Delhi,Delhi,"ITO, Delhi - CPCB",04-02-2026 08:00:00,28.628624,77.241060,NO2,33,118,75
India,Delhi,Delhi,"ITO, Delhi - CPCB",04-02-2026 08:00:00,28.628624,77.241060,NH3,1,4,3
India,Delhi,Delhi,"Jahangirpuri, Delhi - DPCC",04-02-2026 08:00:00,28.732820,77.170633,PM2.5,237,460,388
India,Delhi,Delhi,"Jahangirpuri, Delhi - DPCC",04-02-2026 08:00:00,28.732820,77.170633,SO2,40,54,46
India,Delhi,Delhi,"Jawaharlal Nehru Stadium, Delhi - DPCC",04-02-2026 08:00:00,28.580280,77.233829,PM2.5,147,411,319
India,Delhi,Delhi,"Jawaharlal Nehru Stadium, Delhi - DPCC",04-02-2026 08:00:00,28.580280,77.233829,PM10,108,449,267
India,Delhi,Delhi,"Lodhi Road, Delhi - IMD",04-02-2026 08:00:00,28.5918245,77.2273074,OZONE,11,198,14
India,Bihar,Purnia,"Mariam Nagar, Purnia - BSPCB",04-02-2026 08:00:00,25.366336,87.117468,NO2,5,7,6
India,Bihar,Saharsa,"Police Line, Saharsa - BSPCB",04-02-2026 08:00:00,25.892357,86.590325,NO2,5,10,7
India,Bihar,Saharsa,"Police Line, Saharsa - BSPCB",04-02-2026 08:00:00,25.892357,86.590325,SO2,15,19,17
India,Bihar,Saharsa,"Police Line, Saharsa - BSPCB",04-02-2026 08:00:00,25.892357,86.590325,CO,35,43,40
India,Bihar,Samastipur,"DM Office_Kasipur, Samastipur - BSPCB",04-02-2026 08:00:00,25.859655,85.77944,PM10,42,109,69
India,Bihar,Samastipur,"DM Office_Kasipur, Samastipur - BSPCB",04-02-2026 08:00:00,25.859655,85.77944,NH3,1,1,1
India,Bihar,Sasaram,"Dada Peer, Sasaram - BSPCB",04-02-2026 08:00:00,24.952822,84.002396,PM10,51,76,63
India,Bihar,Sasaram,"Dada Peer, Sasaram - BSPCB",04-02-2026 08:00:00,24.952822,84.002396,NH3,3,3,3
India,Bihar,Siwan,"Chitragupta Nagar, Siwan - BSPCB",04-02-2026 08:00:00,26.2271665,84.3570427,PM2.5,25,65,45
India,Chhattisgarh,Bilaspur,"Mangala, Bilaspur - NTPC",04-02-2026 08:00:00,22.08815,82.13737,PM2.5,33,98,60
India,Chhattisgarh,Chhal,"Nawapara SECL Colony, Chhal - CECB",04-02-2026 08:00:00,22.118125,83.140608,NH3,5,5,5
India,Chhattisgarh,Chhal,"Nawapara SECL Colony, Chhal - CECB",04-02-2026 08:00:00,22.118125,83.140608,OZONE,3,96,7
India,Chhattisgarh,Korba,"Rampur, Korba - CECB",04-02-2026 08:00:00,22.368195,82.746431,SO2,4,11,7
India,Chhattisgarh,Korba,"Urja Nagar, Korba - CECB",04-02-2026 08:00:00,22.348441,82.549611,PM2.5,33,151,71
India,Chhattisgarh,Kunjemura,"OP Jindal School, Kunjemura - CECB",04-02-2026 08:00:00,22.126650,83.483212,PM2.5,42,75,57
India,Chhattisgarh,Kunjemura,"OP Jindal School, Kunjemura - CECB",04-02-2026 08:00:00,22.126650,83.483212,SO2,1,91,26
India,Delhi,Delhi,"Chandni Chowk, Delhi - IITM",04-02-2026 08:00:00,28.656756,77.227234,PM2.5,304,455,363
India,Delhi,Delhi,"Chandni Chowk, Delhi - IITM",04-02-2026 08:00:00,28.656756,77.227234,NO2,20,90,45
India,Delhi,Delhi,"DTU, Delhi - CPCB",04-02-2026 08:00:00,28.7500499,77.1112615,SO2,31,39,36
India,Delhi,Delhi,"DTU, Delhi - CPCB",04-02-2026 08:00:00,28.7500499,77.1112615,CO,31,98,94
India,Delhi,Delhi,"Dr. Karni Singh Shooting Range, Delhi - DPCC",04-02-2026 08:00:00,28.498571,77.264840,NO2,34,116,65
India,Delhi,Delhi,"Dr. Karni Singh Shooting Range, Delhi - DPCC",04-02-2026 08:00:00,28.498571,77.264840,SO2,9,40,16
India,Delhi,Delhi,"Dwarka-Sector 8, Delhi - DPCC ",04-02-2026 08:00:00,28.5710274,77.0719006,NH3,10,23,15
India,Chhattisgarh,Milupara,"Govt. Higher Secondary School, Milupara - CECB",04-02-2026 08:00:00,22.1910172,83.5197009,NH3,1,2,2
India,Chhattisgarh,Raipur,"AIIMS, Raipur - CECB",04-02-2026 08:00:00,21.258815,81.578979,SO2,NA,NA,NA
India,Chhattisgarh,Raipur,"AIIMS, Raipur - CECB",04-02-2026 08:00:00,21.258815,81.578979,OZONE,NA,NA,NA
India,Chhattisgarh,Raipur,"Bhatagaon New ISBT, Raipur - CECB",04-02-2026 08:00:00,21.219665,81.630094,CO,22,105,48
India,Chhattisgarh,Raipur,"Krishak Nagar, Raipur - CECB",04-02-2026 08:00:00,21.237755,81.705301,PM2.5,44,76,62
India,Chhattisgarh,Raipur,"Krishak Nagar, Raipur - CECB",04-02-2026 08:00:00,21.237755,81.705301,NO2,15,24,20
India,Bihar,Siwan,"Chitragupta Nagar, Siwan - BSPCB",04-02-2026 08:00:00,26.2271665,84.3570427,SO2,7,8,8
India,Chandigarh,Chandigarh,"Sector 22, Chandigarh - CPCC",04-02-2026 08:00:00,30.735567,76.775714,SO2,5,14,9
India,Chandigarh,Chandigarh,"Sector-25, Chandigarh - CPCC",04-02-2026 08:00:00,30.751462,76.762879,PM2.5,84,279,183
India,Chandigarh,Chandigarh,"Sector-25, Chandigarh - CPCC",04-02-2026 08:00:00,30.751462,76.762879,CO,25,104,42
India,Chhattisgarh,Bhilai,"32Bungalows, Bhilai - CECB",04-02-2026 08:00:00,21.194815,81.314770,CO,26,43,30
India,Bihar,Patna,"IGSC Planetarium Complex, Patna - BSPCB",04-02-2026 08:00:00,25.610369,85.132568,SO2,15,17,16
India,Bihar,Patna,"Muradpur, Patna - BSPCB",04-02-2026 08:00:00,25.619651,85.147382,PM10,76,127,99
India,Bihar,Patna,"Muradpur, Patna - BSPCB",04-02-2026 08:00:00,25.619651,85.147382,OZONE,5,16,5
India,Bihar,Patna,"Rajbansi Nagar, Patna - BSPCB",04-02-2026 08:00:00,25.599486,85.113666,NH3,5,7,6
India,Bihar,Patna,"Samanpura, Patna - BSPCB",04-02-2026 08:00:00,25.596727,85.085624,OZONE,8,95,20
India,Delhi,Delhi,"Alipur, Delhi - DPCC",04-02-2026 08:00:00,28.815329,77.153010,SO2,5,11,8
India,Delhi,Delhi,"Aya Nagar, Delhi - IMD",04-02-2026 08:00:00,28.4706914,77.1099364,PM10,77,465,265
India,Delhi,Delhi,"Bawana, Delhi - DPCC",04-02-2026 08:00:00,28.776200,77.051074,NH3,7,9,8
India,Bihar,Patna,"IGSC Planetarium Complex, Patna - BSPCB",04-02-2026 08:00:00,25.610369,85.132568,PM2.5,61,276,114
India,Delhi,Delhi,"Pusa, Delhi - IMD",04-02-2026 08:00:00,28.636110,77.173332,NO2,34,210,103
India,Delhi,Delhi,"R K Puram, Delhi - DPCC",04-02-2026 08:00:00,28.563262,77.186937,PM2.5,203,500,354
India,Delhi,Delhi,"Rohini, Delhi - DPCC",04-02-2026 08:00:00,28.732528,77.119920,NH3,9,15,12
India,Delhi,Delhi,"Rohini, Delhi - DPCC",04-02-2026 08:00:00,28.732528,77.119920,OZONE,6,147,7
India,Delhi,Delhi,"Shadipur, Delhi - CPCB",04-02-2026 08:00:00,28.6514781,77.1473105,NH3,12,24,16
India,Delhi,Delhi,"Sirifort, Delhi - CPCB",04-02-2026 08:00:00,28.5504249,77.2159377,NO2,23,38,31
India,Delhi,Delhi,"Sirifort, Delhi - CPCB",04-02-2026 08:00:00,28.5504249,77.2159377,NH3,4,7,5
India,Delhi,Delhi,"Sonia Vihar, Delhi - DPCC",04-02-2026 08:00:00,28.710508,77.249485,SO2,1,19,7
India,Delhi,Delhi,"Nehru Nagar, Delhi - DPCC",04-02-2026 08:00:00,28.567890,77.250515,SO2,6,111,29
India,Delhi,Delhi,"North Campus, DU, Delhi - IMD",04-02-2026 08:00:00,28.6573814,77.1585447,NO2,35,119,76
India,Delhi,Delhi,"Patparganj, Delhi - DPCC",04-02-2026 08:00:00,28.623763,77.287209,PM10,123,414,269
India,Delhi,Delhi,"Patparganj, Delhi - DPCC",04-02-2026 08:00:00,28.623763,77.287209,NO2,49,155,99
India,Delhi,Delhi,"Patparganj, Delhi - DPCC",04-02-2026 08:00:00,28.623763,77.287209,OZONE,3,185,4
India,Delhi,Delhi,"Punjabi Bagh, Delhi - DPCC",04-02-2026 08:00:00,28.674045,77.131023,SO2,5,26,15
India,Delhi,Delhi,"Pusa, Delhi - DPCC",04-02-2026 08:00:00,28.639652,77.146275,PM2.5,250,411,340
India,Delhi,Delhi,"Pusa, Delhi - DPCC",04-02-2026 08:00:00,28.639652,77.146275,NH3,2,15,7
India,Gujarat,Ankleshwar,"GIDC, Ankleshwar - GPCB",04-02-2026 08:00:00,21.613267,73.010555,PM10,89,126,102
India,Gujarat,Ankleshwar,"GIDC, Ankleshwar - GPCB",04-02-2026 08:00:00,21.613267,73.010555,NO2,13,23,17
India,Gujarat,Ankleshwar,"GIDC, Ankleshwar - GPCB",04-02-2026 08:00:00,21.613267,73.010555,CO,46,88,71
India,Gujarat,Ankleshwar,"GIDC, Ankleshwar - GPCB",04-02-2026 08:00:00,21.613267,73.010555,OZONE,6,59,13
India,Gujarat,Gandhinagar,"GIFT City, Gandhinagar - IITM",04-02-2026 08:00:00,23.163798,72.677768,PM10,92,174,134
India,Gujarat,Gandhinagar,"GIFT City, Gandhinagar - IITM",04-02-2026 08:00:00,23.163798,72.677768,NO2,19,86,38
India,Gujarat,Gandhinagar,"GIFT City, Gandhinagar - IITM",04-02-2026 08:00:00,23.163798,72.677768,SO2,5,14,9
India,Gujarat,Gandhinagar,"IIPHG Lekawada, Gandhinagar - IITM",04-02-2026 08:00:00,23.243639,72.68994,PM2.5,51,142,91
India,Gujarat,Gandhinagar,"IIPHG Lekawada, Gandhinagar - IITM",04-02-2026 08:00:00,23.243639,72.68994,NO2,13,39,19
India,Delhi,Delhi,"Mundka, Delhi - DPCC",04-02-2026 08:00:00,28.684678,77.076574,PM2.5,240,500,386
India,Delhi,Delhi,"Mundka, Delhi - DPCC",04-02-2026 08:00:00,28.684678,77.076574,NH3,12,18,15
India,Delhi,Delhi,"Mundka, Delhi - DPCC",04-02-2026 08:00:00,28.684678,77.076574,CO,48,123,86
India,Delhi,Delhi,"NSIT Dwarka, Delhi - CPCB",04-02-2026 08:00:00,28.60909,77.0325413,PM2.5,148,349,257
India,Delhi,Delhi,"NSIT Dwarka, Delhi - CPCB",04-02-2026 08:00:00,28.60909,77.0325413,NH3,6,9,7
India,Delhi,Delhi,"NSIT Dwarka, Delhi - CPCB",04-02-2026 08:00:00,28.60909,77.0325413,SO2,10,22,15
India,Delhi,Delhi,"Najafgarh, Delhi - DPCC",04-02-2026 08:00:00,28.570173,76.933762,PM10,69,265,154
India,Delhi,Delhi,"Najafgarh, Delhi - DPCC",04-02-2026 08:00:00,28.570173,76.933762,NO2,96,135,108
India,Delhi,Delhi,"Sonia Vihar, Delhi - DPCC",04-02-2026 08:00:00,28.710508,77.249485,CO,67,130,103
India,Delhi,Delhi,"Sri Aurobindo Marg, Delhi - DPCC",04-02-2026 08:00:00,28.531346,77.190156,PM10,90,278,178
India,Delhi,Delhi,"Sri Aurobindo Marg, Delhi - DPCC",04-02-2026 08:00:00,28.531346,77.190156,OZONE,2,108,2
India,Gujarat,Ahmedabad,"Chandkheda, Ahmedabad - IITM",04-02-2026 08:00:00,23.107969,72.574648,CO,6,40,9
India,Gujarat,Ahmedabad,"Gyaspur, Ahmedabad - IITM",04-02-2026 08:00:00,22.977134,72.553024,PM10,104,182,147
India,Gujarat,Ahmedabad,"Gyaspur, Ahmedabad - IITM",04-02-2026 08:00:00,22.977134,72.553024,OZONE,4,59,32
India,Gujarat,Ahmedabad,"Maninagar, Ahmedabad - GPCB",04-02-2026 08:00:00,23.002657,72.591912,SO2,31,89,59
India,Gujarat,Ahmedabad,"Raikhad, Ahmedabad - IITM",04-02-2026 08:00:00,23.020509,72.579261,PM10,101,172,137
India,Gujarat,Ahmedabad,"Raikhad, Ahmedabad - IITM",04-02-2026 08:00:00,23.020509,72.579261,NH3,NA,NA,NA
India,Gujarat,Ahmedabad,"Rakhial, Ahmedabad - IITM",04-02-2026 08:00:00,23.016834,72.625775,OZONE,6,60,34
India,Gujarat,Ahmedabad,"SAC ISRO Bopal, Ahmedabad - IITM",04-02-2026 08:00:00,23.041137,72.456691,PM2.5,82,200,150
India,Gujarat,Ahmedabad,"SAC ISRO Bopal, Ahmedabad - IITM",04-02-2026 08:00:00,23.041137,72.456691,OZONE,15,68,28
India,Delhi,Delhi,"Major Dhyan Chand National Stadium, Delhi - DPCC",04-02-2026 08:00:00,28.611281,77.237738,SO2,5,39,14
India,Delhi,Delhi,"Major Dhyan Chand National Stadium, Delhi - DPCC",04-02-2026 08:00:00,28.611281,77.237738,CO,43,136,104
India,Delhi,Delhi,"Major Dhyan Chand National Stadium, Delhi - DPCC",04-02-2026 08:00:00,28.611281,77.237738,OZONE,1,176,2
India,Delhi,Delhi,"Mandir Marg, Delhi - DPCC",04-02-2026 08:00:00,28.636429,77.201067,NO2,40,118,85
India,Delhi,Delhi,"Narela, Delhi - DPCC",04-02-2026 08:00:00,28.822836,77.101981,NH3,6,9,7
India,Delhi,Delhi,"Narela, Delhi - DPCC",04-02-2026 08:00:00,28.822836,77.101981,OZONE,8,91,10
India,Delhi,Delhi,"Nehru Nagar, Delhi - DPCC",04-02-2026 08:00:00,28.567890,77.250515,PM2.5,220,500,389
India,Delhi,Delhi,"Najafgarh, Delhi - DPCC",04-02-2026 08:00:00,28.570173,76.933762,OZONE,4,193,4
India,Jammu_and_Kashmir,Srinagar,"Rajbagh, Srinagar - JKPCC",04-02-2026 08:00:00,34.066206,74.819820,SO2,3,4,3
India,Jammu_and_Kashmir,Srinagar,"Rajbagh, Srinagar - JKPCC",04-02-2026 08:00:00,34.066206,74.819820,OZONE,1,4,1
India,Jharkhand,Dhanbad,"Sardar Patel Nagar, Dhanbad - JSPCB",04-02-2026 08:00:00,23.80569,86.44268,SO2,2,30,27
India,Karnataka,Bagalkot,"Vidayagiri, Bagalkot - KSPCB",04-02-2026 08:00:00,16.172806,75.659694,PM2.5,34,36,35
India,Karnataka,Bagalkot,"Vidayagiri, Bagalkot - KSPCB",04-02-2026 08:00:00,16.172806,75.659694,OZONE,11,12,12
India,Karnataka,Belgaum,"Ramteerth Nagar, Belgaum - KSPCB",04-02-2026 08:00:00,15.888653,74.541751,CO,1,3,1
India,Karnataka,Bengaluru,"BTM Layout, Bengaluru - CPCB",04-02-2026 08:00:00,12.9135218,77.5950804,PM10,109,111,110
India,Karnataka,Bengaluru,"BTM Layout, Bengaluru - CPCB",04-02-2026 08:00:00,12.9135218,77.5950804,NH3,5,7,6
India,Karnataka,Bengaluru,"BTM Layout, Bengaluru - CPCB",04-02-2026 08:00:00,12.9135218,77.5950804,SO2,23,23,23
India,Karnataka,Bengaluru,"BWSSB Kadabesanahalli, Bengaluru - CPCB",04-02-2026 08:00:00,12.9352049,77.6814488,PM10,80,270,140
India,Haryana,Panchkula,"Sector-6, Panchkula - HSPCB ",04-02-2026 08:00:00,30.7057778,76.8531805555555,OZONE,8,13,11
India,Haryana,Panipat,"Sector-18, Panipat - HSPCB",04-02-2026 08:00:00,29.432304,76.972765,NH3,2,3,2
India,Haryana,Panipat,"Sector-18, Panipat - HSPCB",04-02-2026 08:00:00,29.432304,76.972765,SO2,18,19,19
India,Haryana,Rohtak,"MD University, Rohtak - HSPCB",04-02-2026 08:00:00,28.52123,76.37138,NO2,10,15,12
India,Haryana,Yamuna Nagar,"Gobind Pura, Yamuna Nagar - HSPCB",04-02-2026 08:00:00,30.1480566,77.2893471,PM10,71,270,147
India,Haryana,Yamuna Nagar,"Gobind Pura, Yamuna Nagar - HSPCB",04-02-2026 08:00:00,30.1480566,77.2893471,OZONE,8,34,11
India,Himachal Pradesh,Baddi,"HIMUDA Complex Phase-1, Baddi - HPPCB",04-02-2026 08:00:00,30.943887,76.801991,CO,44,98,60
India,Jammu_and_Kashmir,Srinagar,"Khunmoh, Srinagar - JKPCC",04-02-2026 08:00:00,34.06313,74.96017,PM2.5,8,18,13
India,Jammu_and_Kashmir,Srinagar,"Khunmoh, Srinagar - JKPCC",04-02-2026 08:00:00,34.06313,74.96017,SO2,3,5,4
India,Haryana,Ballabgarh,"Nathu Colony, Ballabgarh - HSPCB",04-02-2026 08:00:00,28.3419248,77.319699,PM10,380,416,406
India,Haryana,Charkhi Dadri,"Mini Secretariat, Charkhi Dadri - HSPCB",04-02-2026 08:00:00,28.593883,76.270653,PM2.5,76,421,325
India,Haryana,Charkhi Dadri,"Mini Secretariat, Charkhi Dadri - HSPCB",04-02-2026 08:00:00,28.593883,76.270653,PM10,65,372,211
India,Haryana,Charkhi Dadri,"Mini Secretariat, Charkhi Dadri - HSPCB",04-02-2026 08:00:00,28.593883,76.270653,SO2,10,11,10
India,Haryana,Charkhi Dadri,"Mini Secretariat, Charkhi Dadri - HSPCB",04-02-2026 08:00:00,28.593883,76.270653,OZONE,13,17,15
India,Haryana,Dharuhera,"Municipal Corporation Office, Dharuhera -  HSPCB",04-02-2026 08:00:00,28.206800,76.799700,PM2.5,79,500,312
India,Haryana,Faridabad,"New Industrial Town, Faridabad - HSPCB",04-02-2026 08:00:00,28.39072,77.30059,NO2,24,26,25
India,Haryana,Faridabad,"New Industrial Town, Faridabad - HSPCB",04-02-2026 08:00:00,28.39072,77.30059,SO2,8,9,8
India,Haryana,Mandikhera,"General Hospital, Mandikhera(Nuh) - HSPCB",04-02-2026 08:00:00,27.9002,76.9938,OZONE,22,31,28
India,Haryana,Manesar,"Sector-2 IMT, Manesar - HSPCB",04-02-2026 08:00:00,28.360699,76.936090,NO2,46,53,50
India,Haryana,Narnaul,"Shastri Nagar, Narnaul - HSPCB",04-02-2026 08:00:00,28.060249,76.113115,PM10,96,173,135
India,Haryana,Narnaul,"Shastri Nagar, Narnaul - HSPCB",04-02-2026 08:00:00,28.060249,76.113115,OZONE,NA,NA,NA
India,Haryana,Palwal,"Shyam Nagar, Palwal - HSPCB",04-02-2026 08:00:00,28.1485564,77.3320667,OZONE,16,17,16
India,Haryana,Panchgaon,"Amity University, Panchgaon - IITM",04-02-2026 08:00:00,28.3153,76.9143,NH3,7,24,12
India,Haryana,Panchgaon,"Amity University, Panchgaon - IITM",04-02-2026 08:00:00,28.3153,76.9143,OZONE,1,96,2
India,Haryana,Faridabad,"Sector 30, Faridabad - HSPCB",04-02-2026 08:00:00,28.4417,77.3217,PM2.5,94,99,96
India,Haryana,Faridabad,"Sector 30, Faridabad - HSPCB",04-02-2026 08:00:00,28.4417,77.3217,NH3,11,12,11
India,Haryana,Fatehabad,"Huda Sector, Fatehabad - HSPCB",04-02-2026 08:00:00,29.503664,75.467934,CO,25,43,28
India,Haryana,Gurugram,"NISE Gwal Pahari, Gurugram - IMD",04-02-2026 08:00:00,28.422681,77.148944,OZONE,5,63,6
India,Haryana,Gurugram,"Sector-51, Gurugram - HSPCB",04-02-2026 08:00:00,28.4227,77.0667,NO2,6,15,9
India,Haryana,Gurugram,"Sector-51, Gurugram - HSPCB",04-02-2026 08:00:00,28.4227,77.0667,OZONE,3,16,3
India,Haryana,Gurugram,"Teri Gram, Gurugram - HSPCB",04-02-2026 08:00:00,28.4275,77.1465,PM10,104,246,171
India,Gujarat,Vatva,"Phase-4 GIDC, Vatva - GPCB",04-02-2026 08:00:00,22.969611,72.643500,PM2.5,79,240,133
India,Haryana,Ambala,"Patti Mehar, Ambala - HSPCB",04-02-2026 08:00:00,30.379589,76.778328,NO2,20,26,23
India,Haryana,Ambala,"Patti Mehar, Ambala - HSPCB",04-02-2026 08:00:00,30.379589,76.778328,NH3,9,11,10
India,Haryana,Bahadurgarh,"Arya Nagar, Bahadurgarh - HSPCB",04-02-2026 08:00:00,28.6701,76.9254,NH3,12,13,13
India,Haryana,Bahadurgarh,"Arya Nagar, Bahadurgarh - HSPCB",04-02-2026 08:00:00,28.6701,76.9254,CO,44,52,47
India,Haryana,Bahadurgarh,"Arya Nagar, Bahadurgarh - HSPCB",04-02-2026 08:00:00,28.6701,76.9254,OZONE,15,20,17
India,Gujarat,Mehsana,"Sadanand Nagar, Mehsana - Nexteng Enviro",04-02-2026 08:00:00,23.593150,72.372792,CO,141,175,147
India,Gujarat,Rajkot,"Mavdi, Rajkot - Nexteng Enviro ",04-02-2026 08:00:00,22.248853,70.776774,PM10,69,172,125
India,Gujarat,Surat,"Katargam, Surat - Nexteng Enviro",04-02-2026 08:00:00,21.217779 ,72.834787 ,PM2.5,111,307,196
India,Gujarat,Surat,"Katargam, Surat - Nexteng Enviro",04-02-2026 08:00:00,21.217779 ,72.834787 ,NH3,3,6,5
India,Gujarat,Surat,"Science Center, Surat - SMC",04-02-2026 08:00:00,21.170046,72.795405,CO,38,42,39
India,Haryana,Gurugram,"Teri Gram, Gurugram - HSPCB",04-02-2026 08:00:00,28.4275,77.1465,CO,72,108,104
India,Haryana,Hisar,"Urban Estate-II, Hisar - HSPCB",04-02-2026 08:00:00,29.140560,75.744941,PM2.5,41,111,77
India,Haryana,Jind,"Police Lines, Jind - HSPCB",04-02-2026 08:00:00,29.307814,76.337619,NH3,1,4,2
India,Haryana,Karnal,"Sector-12, Karnal - HSPCB",04-02-2026 08:00:00,29.695300,77.002700,NO2,6,6,6
India,Gujarat,Vadodara,"Bapunagar, Vadodara - Nexteng Enviro",04-02-2026 08:00:00,22.320153,73.216285,NH3,1,2,1
India,Gujarat,Vadodara,"Bapunagar, Vadodara - Nexteng Enviro",04-02-2026 08:00:00,22.320153,73.216285,SO2,7,8,8
India,Gujarat,Vadodara,"Bapunagar, Vadodara - Nexteng Enviro",04-02-2026 08:00:00,22.320153,73.216285,OZONE,1,4,1
India,Gujarat,Vapi,"Phase-1 GIDC, Vapi - GPCB",04-02-2026 08:00:00,20.362421,72.918013,NO2,15,21,17
India,Gujarat,Vapi,"Phase-1 GIDC, Vapi - GPCB",04-02-2026 08:00:00,20.362421,72.918013,NH3,2,5,4
India,Madhya Pradesh,Gwalior,"Deen Dayal Nagar, Gwalior - MPPCB",04-02-2026 08:00:00,26.259242,78.216432,NH3,6,11,8
India,Madhya Pradesh,Gwalior,"Maharaj Bada, Gwalior - MPPCB",04-02-2026 08:00:00,26.200388,78.147714,NH3,2,4,3
India,Madhya Pradesh,Indore,"Airport Area, Indore - IMC",04-02-2026 08:00:00,22.7289,75.8076,PM2.5,74,308,142
India,Madhya Pradesh,Indore,"Airport Area, Indore - IMC",04-02-2026 08:00:00,22.7289,75.8076,PM10,48,135,82
India,Madhya Pradesh,Indore,"Airport Area, Indore - IMC",04-02-2026 08:00:00,22.7289,75.8076,SO2,2,3,2
India,Madhya Pradesh,Indore,"Chhoti Gwaltoli, Indore - MPPCB",04-02-2026 08:00:00,22.4310,75.5213,NO2,52,97,74
India,Madhya Pradesh,Indore,"Chhoti Gwaltoli, Indore - MPPCB",04-02-2026 08:00:00,22.4310,75.5213,SO2,22,27,25
India,Madhya Pradesh,Indore,"Chhoti Gwaltoli, Indore - MPPCB",04-02-2026 08:00:00,22.4310,75.5213,OZONE,7,40,17
India,Madhya Pradesh,Indore,"Maguda Nagar, Indore - IMC",04-02-2026 08:00:00,22.7524,75.8872,CO,22,36,24
India,Kerala,Thrissur,"Corporation Ground, Thrissur - Kerala PCB",04-02-2026 08:00:00,10.532400,76.215900,PM2.5,54,73,64
India,Kerala,Thrissur,"Corporation Ground, Thrissur - Kerala PCB",04-02-2026 08:00:00,10.532400,76.215900,PM10,65,83,73
India,Madhya Pradesh,Bhopal,"Idgah Hills, Bhopal - MPPCB",04-02-2026 08:00:00,23.264759,77.381568,PM10,NA,NA,NA
India,Madhya Pradesh,Bhopal,"Paryavaran Parisar, Bhopal - MPPCB",04-02-2026 08:00:00,23.210494,77.425409,OZONE,20,45,27
India,Madhya Pradesh,Damoh,"Shrivastav Colony, Damoh - MPPCB",04-02-2026 08:00:00,23.81748678,79.446246,PM2.5,2,25,11
India,Madhya Pradesh,Gwalior,"City Center, Gwalior - MPPCB",04-02-2026 08:00:00,26.203442,78.193251,PM2.5,72,252,141
India,Madhya Pradesh,Gwalior,"City Center, Gwalior - MPPCB",04-02-2026 08:00:00,26.203442,78.193251,PM10,77,140,111
India,Madhya Pradesh,Gwalior,"City Center, Gwalior - MPPCB",04-02-2026 08:00:00,26.203442,78.193251,NO2,73,90,82
India,Karnataka,Bengaluru,"Bapuji Nagar, Bengaluru - KSPCB",04-02-2026 08:00:00,12.951913,77.539784,PM2.5,36,126,67
India,Karnataka,Bengaluru,"Bapuji Nagar, Bengaluru - KSPCB",04-02-2026 08:00:00,12.951913,77.539784,SO2,8,28,20
India,Karnataka,Bengaluru,"Bapuji Nagar, Bengaluru - KSPCB",04-02-2026 08:00:00,12.951913,77.539784,CO,2,70,19
India,Karnataka,Bengaluru,"City Railway Station, Bengaluru - KSPCB",04-02-2026 08:00:00,12.9756843,77.5660749,SO2,21,22,22
India,Karnataka,Bengaluru,"Hebbal, Bengaluru - KSPCB",04-02-2026 08:00:00,13.029152,77.585901,PM2.5,NA,NA,NA
India,Karnataka,Bengaluru,"Hebbal, Bengaluru - KSPCB",04-02-2026 08:00:00,13.029152,77.585901,SO2,8,18,14
India,Karnataka,Bengaluru,"Jayanagar 5th Block, Bengaluru - KSPCB",04-02-2026 08:00:00,12.920984,77.584908,PM2.5,52,191,91
India,Karnataka,Bengaluru,"Jayanagar 5th Block, Bengaluru - KSPCB",04-02-2026 08:00:00,12.920984,77.584908,OZONE,31,85,58
India,Karnataka,Bengaluru,"Jigani, Bengaluru - KSPCB",04-02-2026 08:00:00,12.7816279,77.6299145,CO,32,34,32
India,Madhya Pradesh,Indore,"Residency Area, Indore - IMC",04-02-2026 08:00:00,22.7084,75.8815,PM2.5,35,74,51
India,Madhya Pradesh,Indore,"Residency Area, Indore - IMC",04-02-2026 08:00:00,22.7084,75.8815,CO,24,37,25
India,Madhya Pradesh,Jabalpur,"Govindh Bhavan Colony, Jabalpur - JMC",04-02-2026 08:00:00,23.163174,79.973061,NH3,1,2,2
India,Madhya Pradesh,Jabalpur,"Govindh Bhavan Colony, Jabalpur - JMC",04-02-2026 08:00:00,23.163174,79.973061,CO,16,37,26
India,Madhya Pradesh,Jabalpur,"Marhatal, Jabalpur - MPPCB",04-02-2026 08:00:00,23.168606,79.932247,NO2,16,54,27
India,Madhya Pradesh,Jabalpur,"Suhagi, Jabalpur - JMC",04-02-2026 08:00:00,23.218135,79.957770,OZONE,50,72,54
India,Madhya Pradesh,Katni,"Gole Bazar, Katni - MPPCB",04-02-2026 08:00:00,23.50016,80.23284,SO2,18,117,41
India,Madhya Pradesh,Katni,"Gole Bazar, Katni - MPPCB",04-02-2026 08:00:00,23.50016,80.23284,CO,34,53,43
India,Karnataka,Bengaluru,"Peenya, Bengaluru - CPCB",04-02-2026 08:00:00,13.0270199,77.494094,PM2.5,18,41,32
India,Karnataka,Bengaluru,"Peenya, Bengaluru - CPCB",04-02-2026 08:00:00,13.0270199,77.494094,NH3,3,4,4
India,Karnataka,Bengaluru,"Peenya, Bengaluru - CPCB",04-02-2026 08:00:00,13.0270199,77.494094,OZONE,20,21,21
India,Karnataka,Bengaluru,"Sanegurava Halli, Bengaluru - KSPCB",04-02-2026 08:00:00,12.990328,77.5431385,NO2,17,19,18
India,Karnataka,Bengaluru,"Shivapura_Peenya, Bengaluru - KSPCB",04-02-2026 08:00:00,13.0246342,77.5080115,PM2.5,29,71,45
India,Karnataka,Bengaluru,"Shivapura_Peenya, Bengaluru - KSPCB",04-02-2026 08:00:00,13.0246342,77.5080115,NO2,17,19,18
India,Karnataka,Bengaluru,"Shivapura_Peenya, Bengaluru - KSPCB",04-02-2026 08:00:00,13.0246342,77.5080115,NH3,2,3,3
India,Karnataka,Bengaluru,"Shivapura_Peenya, Bengaluru - KSPCB",04-02-2026 08:00:00,13.0246342,77.5080115,SO2,3,3,3
India,Karnataka,Chamarajanagar,"Urban, Chamarajanagar - KSPCB",04-02-2026 08:00:00,11.55358,76.55521,PM10,37,70,47
India,Karnataka,Chikkaballapur,"Chikkaballapur Rural, Chikkaballapur - KSPCB",04-02-2026 08:00:00,13.428828,77.731418,NH3,4,7,5
India,Karnataka,Chikkaballapur,"Chikkaballapur Rural, Chikkaballapur - KSPCB",04-02-2026 08:00:00,13.428828,77.731418,SO2,24,49,33
India,Karnataka,Chikkamagaluru,"Kalyana Nagara, Chikkamagaluru - KSPCB",04-02-2026 08:00:00,13.328028,75.797056,NO2,NA,NA,NA
India,Karnataka,Davanagere,"Devaraj Urs Badavane, Davanagere - KSPCB",04-02-2026 08:00:00,14.475800,75.905200,NO2,22,41,26
India,Karnataka,Dharwad,"Kalabhavan, Dharwad - KSPCB",04-02-2026 08:00:00,15.459706,75.008381,CO,59,101,65
India,Karnataka,Hubballi,"Lingaraj Nagar, Hubballi - KSPCB",04-02-2026 08:00:00,15.3714823,75.1160168,SO2,1,4,2
India,Karnataka,Madikeri,"Stuart Hill, Madikeri - KSPCB",04-02-2026 08:00:00,12.415911,75.735050,PM10,41,68,51
India,Karnataka,Madikeri,"Stuart Hill, Madikeri - KSPCB",04-02-2026 08:00:00,12.415911,75.735050,CO,12,20,15
India,Karnataka,Mysuru,"Hebbal 1st Stage, Mysuru - KSPCB",04-02-2026 08:00:00,12.21041,76.37376,NO2,14,21,17
India,Karnataka,Mysuru,"Hebbal 1st Stage, Mysuru - KSPCB",04-02-2026 08:00:00,12.21041,76.37376,SO2,2,4,3
India,Karnataka,Mysuru,"Hebbal 1st Stage, Mysuru - KSPCB",04-02-2026 08:00:00,12.21041,76.37376,CO,14,76,20
India,Karnataka,Ramanagara,"Vijay Nagar, Ramanagara - KSPCB",04-02-2026 08:00:00,12.733409,77.298051,PM10,68,179,116
India,Karnataka,Ramanagara,"Vijay Nagar, Ramanagara - KSPCB",04-02-2026 08:00:00,12.733409,77.298051,SO2,12,24,18
India,Karnataka,Tumakuru,"Thimmalapura, Tumakuru - KSPCB",04-02-2026 08:00:00,13.377516,77.099072,PM2.5,79,407,168
India,Karnataka,Tumakuru,"Thimmalapura, Tumakuru - KSPCB",04-02-2026 08:00:00,13.377516,77.099072,NO2,31,32,32
India,Karnataka,Tumakuru,"Thimmalapura, Tumakuru - KSPCB",04-02-2026 08:00:00,13.377516,77.099072,CO,53,54,53
India,Karnataka,Tumakuru,"Thimmalapura, Tumakuru - KSPCB",04-02-2026 08:00:00,13.377516,77.099072,OZONE,23,23,23
India,Kerala,Eloor,"Udyogamandal, Eloor - Kerala PCB",04-02-2026 08:00:00,10.073232,76.302765,SO2,1,1,1
India,Kerala,Kannur,"Thavakkara, Kannur - Kerala PCB",04-02-2026 08:00:00,11.875000,75.373200,NO2,15,18,17
India,Maharashtra,Chandrapur,"MIDC Khutala, Chandrapur - MPCB",04-02-2026 08:00:00,19.9775302,79.2337086,NH3,1,11,4
India,Maharashtra,Chandrapur,"MIDC Khutala, Chandrapur - MPCB",04-02-2026 08:00:00,19.9775302,79.2337086,OZONE,17,19,18
India,Maharashtra,Dhule,"Deopur, Dhule - MPCB",04-02-2026 08:00:00,20.918946,74.776388,NO2,5,19,11
India,Maharashtra,Jalgaon,"Prabhat Colony, Jalgaon - MPCB",04-02-2026 08:00:00,21.001264,75.565602,NO2,4,28,9
India,Maharashtra,Jalgaon,"Prabhat Colony, Jalgaon - MPCB",04-02-2026 08:00:00,21.001264,75.565602,NH3,2,3,2
India,Maharashtra,Jalna,"Old MIDC, Jalna - MPCB",04-02-2026 08:00:00,19.854616,75.905894,SO2,11,29,16
India,Maharashtra,Kalyan,"Pimpleshwar Mandir, Kalyan - MPCB",04-02-2026 08:00:00,19.192056,72.9585188,PM2.5,63,204,118
India,Maharashtra,Kalyan,"Pimpleshwar Mandir, Kalyan - MPCB",04-02-2026 08:00:00,19.192056,72.9585188,PM10,124,197,162
India,Madhya Pradesh,Singrauli,"Suryakiran Bhawan NCL, Singrauli - MPPCB",04-02-2026 08:00:00,24.108970,82.645580,PM10,123,279,182
India,Madhya Pradesh,Ujjain,"Mahashweta Nagar, Ujjain - MPPCB",04-02-2026 08:00:00,23.1633321,75.800225,PM2.5,58,187,107
India,Madhya Pradesh,Ujjain,"Mahashweta Nagar, Ujjain - MPPCB",04-02-2026 08:00:00,23.1633321,75.800225,NO2,30,55,40
India,Madhya Pradesh,Ujjain,"Mahashweta Nagar, Ujjain - MPPCB",04-02-2026 08:00:00,23.1633321,75.800225,SO2,3,9,6
India,Maharashtra,Ahmednagar,"Tarakpur, Ahmednagar - MPCB",04-02-2026 08:00:00,19.10122,74.73339,NO2,1,23,11
India,Maharashtra,Ahmednagar,"Tarakpur, Ahmednagar - MPCB",04-02-2026 08:00:00,19.10122,74.73339,NH3,3,17,6
India,Maharashtra,Ahmednagar,"Tarakpur, Ahmednagar - MPCB",04-02-2026 08:00:00,19.10122,74.73339,SO2,1,6,3
India,Maharashtra,Amravati,"Shivneri Colony, Amravati - MPCB",04-02-2026 08:00:00,20.9402359,77.7895248,PM2.5,52,90,69
India,Maharashtra,Mira-Bhayandar,"Bhayandar West, Mira-Bhayandar - MPCB",04-02-2026 08:00:00,19.296481,72.840923,CO,NA,NA,NA
India,Maharashtra,Mumbai,"Bandra Kurla Complex, Mumbai - IITM",04-02-2026 08:00:00,19.053536,72.84643,NO2,55,107,89
India,Maharashtra,Mumbai,"Borivali East, Mumbai - IITM",04-02-2026 08:00:00,19.23241,72.86895,PM10,97,171,131
India,Maharashtra,Mumbai,"Borivali East, Mumbai - IITM",04-02-2026 08:00:00,19.23241,72.86895,CO,2,50,12
India,Maharashtra,Mumbai,"Byculla, Mumbai - BMC",04-02-2026 08:00:00,18.9767,72.8380,SO2,1,5,3
India,Maharashtra,Mumbai,"Byculla, Mumbai - BMC",04-02-2026 08:00:00,18.9767,72.8380,CO,52,112,103
India,Maharashtra,Mumbai,"Chakala-Andheri East, Mumbai - IITM",04-02-2026 08:00:00,19.11074,72.86084,PM2.5,NA,NA,NA
India,Maharashtra,Kolhapur,"Shivaji University, Kolhapur - MPCB",04-02-2026 08:00:00,16.6870449,74.2505872,CO,18,63,34
India,Maharashtra,Kolhapur,"Sinchan Bhavan, Kolhapur - MPCB",04-02-2026 08:00:00,16.7143745,74.2426398,PM10,43,124,74
India,Maharashtra,Kolhapur,"Sinchan Bhavan, Kolhapur - MPCB",04-02-2026 08:00:00,16.7143745,74.2426398,OZONE,1,32,7
India,Maharashtra,Latur,"Sawe Wadi, Latur - MPCB",04-02-2026 08:00:00,18.39963,76.57452,OZONE,21,53,34
India,Maharashtra,Mahad,"Kamble Tarf Birwadi, Mahad - MPCB",04-02-2026 08:00:00,18.1023399,73.4783687,CO,2,30,21
India,Maharashtra,Malegaon,"Mahesh Nagar, Malegaon - MPCB",04-02-2026 08:00:00,20.555712,74.529236,CO,30,54,45
India,Maharashtra,Belapur,"CBD Belapur, Belapur - MPCB",04-02-2026 08:00:00,19.0243902,73.0406721,PM2.5,NA,NA,NA
India,Maharashtra,Belapur,"CBD Belapur, Belapur - MPCB",04-02-2026 08:00:00,19.0243902,73.0406721,CO,14,52,36
India,Maharashtra,Bhiwandi,"Gokul Nagar, Bhiwandi - MPCB",04-02-2026 08:00:00,19.309073,73.057223,PM2.5,63,199,133
India,Maharashtra,Bhiwandi,"Gokul Nagar, Bhiwandi - MPCB",04-02-2026 08:00:00,19.309073,73.057223,PM10,105,174,144
India,Maharashtra,Bhiwandi,"Gokul Nagar, Bhiwandi - MPCB",04-02-2026 08:00:00,19.309073,73.057223,NH3,3,9,6
India,Maharashtra,Bhiwandi,"Gokul Nagar, Bhiwandi - MPCB",04-02-2026 08:00:00,19.309073,73.057223,SO2,4,16,9
India,Maharashtra,Boisar,"Khaira, Boisar - MPCB",04-02-2026 08:00:00,19.786089,72.757971,PM2.5,61,106,85
India,Maharashtra,Mumbai,"Chakala-Andheri East, Mumbai - IITM",04-02-2026 08:00:00,19.11074,72.86084,OZONE,4,72,14
India,Maharashtra,Mumbai,"Chembur, Mumbai - MPCB",04-02-2026 08:00:00,19.0364585,72.8954371,NO2,28,104,57
India,Maharashtra,Mumbai,"Chembur, Mumbai - MPCB",04-02-2026 08:00:00,19.0364585,72.8954371,SO2,1,29,11
India,Maharashtra,Mumbai,"Deonar, Mumbai - IITM",04-02-2026 08:00:00,19.04946,72.9230,NO2,14,59,31
India,Maharashtra,Mumbai,"Deonar, Mumbai - IITM",04-02-2026 08:00:00,19.04946,72.9230,OZONE,1,39,1
India,Maharashtra,Mumbai,"Kandivali East, Mumbai - MPCB",04-02-2026 08:00:00,19.205800,72.868200,NO2,30,30,30
India,Maharashtra,Amravati,"Shri Shivaji Science College, Amravati - MPCB",04-02-2026 08:00:00,20.939198,77.765701,OZONE,12,79,50
India,Maharashtra,Aurangabad,"MIDC Chilkalthana, Aurangabad - MPCB",04-02-2026 08:00:00,19.875620,75.387310,NO2,19,74,40
India,Maharashtra,Aurangabad,"MIDC Chilkalthana, Aurangabad - MPCB",04-02-2026 08:00:00,19.875620,75.387310,OZONE,17,58,28
India,Maharashtra,Aurangabad,"More Chowk Waluj, Aurangabad - MPCB",04-02-2026 08:00:00,19.8389439,75.244448,CO,1,88,38
India,Maharashtra,Aurangabad,"More Chowk Waluj, Aurangabad - MPCB",04-02-2026 08:00:00,19.8389439,75.244448,OZONE,9,88,48
India,Maharashtra,Aurangabad,"Rachnakar Colony, Aurangabad - MPCB",04-02-2026 08:00:00,19.863756,75.321188,NH3,2,6,4
India,Maharashtra,Badlapur,"Katrap, Badlapur - MPCB",04-02-2026 08:00:00,19.16485,73.23409,PM2.5,74,208,129
India,Maharashtra,Badlapur,"Katrap, Badlapur - MPCB",04-02-2026 08:00:00,19.16485,73.23409,NO2,9,37,25
India,Maharashtra,Badlapur,"Katrap, Badlapur - MPCB",04-02-2026 08:00:00,19.16485,73.23409,CO,18,40,35
India,Madhya Pradesh,Mandideep,"Sector-D Industrial Area, Mandideep - MPPCB",04-02-2026 08:00:00,23.108440,77.511428,OZONE,17,89,25
India,Madhya Pradesh,Ratlam,"Shasthri Nagar, Ratlam - IPCA Lab",04-02-2026 08:00:00,23.331731,75.045981,PM2.5,31,120,66
India,Madhya Pradesh,Sagar,"Civil Lines, Sagar - MPPCB",04-02-2026 08:00:00,23.838586,78.759431,PM2.5,30,107,56
India,Maharashtra,Mumbai,"Mazgaon, Mumbai - IITM",04-02-2026 08:00:00,18.96702,72.84214,SO2,1,23,12
India,Maharashtra,Mumbai,"Mazgaon, Mumbai - IITM",04-02-2026 08:00:00,18.96702,72.84214,OZONE,2,80,6
India,Maharashtra,Mumbai,"Mindspace-Malad West, Mumbai - MPCB",04-02-2026 08:00:00,19.1878657,72.8304069,PM2.5,86,93,90
India,Maharashtra,Mumbai,"Mindspace-Malad West, Mumbai - MPCB",04-02-2026 08:00:00,19.1878657,72.8304069,PM10,113,126,120
India,Maharashtra,Mumbai,"Mindspace-Malad West, Mumbai - MPCB",04-02-2026 08:00:00,19.1878657,72.8304069,NO2,18,101,56
India,Maharashtra,Mumbai,"Mindspace-Malad West, Mumbai - MPCB",04-02-2026 08:00:00,19.1878657,72.8304069,SO2,12,60,30
India,Maharashtra,Mumbai,"Mulund West, Mumbai - MPCB",04-02-2026 08:00:00,19.1750,72.9419,NH3,NA,NA,NA
India,Maharashtra,Mumbai,"Mulund West, Mumbai - MPCB",04-02-2026 08:00:00,19.1750,72.9419,SO2,NA,NA,NA
India,Maharashtra,Mumbai,"Navy Nagar-Colaba, Mumbai - IITM",04-02-2026 08:00:00,18.897756,72.813320,SO2,11,83,32
India,Maharashtra,Mumbai,"Powai, Mumbai - MPCB",04-02-2026 08:00:00,19.137500,72.915056,PM2.5,60,93,77
India,Maharashtra,Mumbai,"Powai, Mumbai - MPCB",04-02-2026 08:00:00,19.137500,72.915056,PM10,64,99,83
India,Maharashtra,Mumbai,"Powai, Mumbai - MPCB",04-02-2026 08:00:00,19.137500,72.915056,NH3,1,2,2
India,Maharashtra,Mumbai,"Sewri, Mumbai - BMC",04-02-2026 08:00:00,19.000084,72.856730,SO2,NA,NA,NA
India,Maharashtra,Mumbai,"Kandivali East, Mumbai - MPCB",04-02-2026 08:00:00,19.205800,72.868200,OZONE,18,18,18
India,Maharashtra,Mumbai,"Kandivali West, Mumbai - BMC",04-02-2026 08:00:00,19.215859,72.831718,PM2.5,NA,NA,NA
India,Maharashtra,Mumbai,"Kandivali West, Mumbai - BMC",04-02-2026 08:00:00,19.215859,72.831718,PM10,NA,NA,NA
India,Maharashtra,Mumbai,"Kandivali West, Mumbai - BMC",04-02-2026 08:00:00,19.215859,72.831718,CO,20,102,102
India,Maharashtra,Mumbai,"Kherwadi_Bandra East, Mumbai - MPCB",04-02-2026 08:00:00,19.0632143,72.8456324,NH3,15,27,21
India,Maharashtra,Mumbai,"Khindipada-Bhandup West, Mumbai - IITM",04-02-2026 08:00:00,19.1653323,72.922099,NH3,4,7,6
India,Maharashtra,Mumbai,"Khindipada-Bhandup West, Mumbai - IITM",04-02-2026 08:00:00,19.1653323,72.922099,OZONE,28,80,44
India,Maharashtra,Mumbai,"Kurla, Mumbai - MPCB",04-02-2026 08:00:00,19.0863,72.8888,NH3,2,3,2
India,Maharashtra,Mumbai,"Malad West, Mumbai - IITM",04-02-2026 08:00:00,19.19709,72.82204,SO2,3,35,18
India,Maharashtra,Mumbai,"Mazgaon, Mumbai - IITM",04-02-2026 08:00:00,18.96702,72.84214,PM10,84,137,116
India,Maharashtra,Mumbai,"Mazgaon, Mumbai - IITM",04-02-2026 08:00:00,18.96702,72.84214,NO2,NA,NA,NA
India,Maharashtra,Nagpur,"Opp GPO Civil Lines, Nagpur - MPCB",04-02-2026 08:00:00,21.152875,79.0517531,NH3,4,19,10
India,Maharashtra,Nagpur,"Opp GPO Civil Lines, Nagpur - MPCB",04-02-2026 08:00:00,21.152875,79.0517531,SO2,5,52,18
India,Maharashtra,Nagpur,"Opp GPO Civil Lines, Nagpur - MPCB",04-02-2026 08:00:00,21.152875,79.0517531,OZONE,2,41,4
India,Maharashtra,Nagpur,"Ram Nagar, Nagpur - MPCB",04-02-2026 08:00:00,21.143383,79.048912,NH3,4,4,4
India,Maharashtra,Nagpur,"Ram Nagar, Nagpur - MPCB",04-02-2026 08:00:00,21.143383,79.048912,CO,32,99,55
India,Maharashtra,Nanded,"Sneh Nagar, Nanded - MPCB",04-02-2026 08:00:00,19.173852,77.296291,OZONE,16,101,47
India,Maharashtra,Nashik,"Gangapur Road, Nashik - MPCB",04-02-2026 08:00:00,20.0073285,73.7762427,PM2.5,37,160,93
India,Maharashtra,Nashik,"Hirawadi, Nashik - MPCB",04-02-2026 08:00:00,20.021503,73.813844,CO,46,69,52
India,Maharashtra,Nashik,"MIDC Ambad, Nashik - MPCB",04-02-2026 08:00:00,19.950220,73.731480,NO2,17,64,44
India,Maharashtra,Mumbai,"Siddharth Nagar-Worli, Mumbai - IITM",04-02-2026 08:00:00,19.000083,72.813993,PM2.5,85,180,125
India,Maharashtra,Mumbai,"Siddharth Nagar-Worli, Mumbai - IITM",04-02-2026 08:00:00,19.000083,72.813993,PM10,69,138,112
India,Maharashtra,Mumbai,"Siddharth Nagar-Worli, Mumbai - IITM",04-02-2026 08:00:00,19.000083,72.813993,OZONE,10,87,27
India,Maharashtra,Nagpur,"Ambazari, Nagpur - MPCB",04-02-2026 08:00:00,21.121801,79.04952,PM10,104,143,124
India,Maharashtra,Nagpur,"Ambazari, Nagpur - MPCB",04-02-2026 08:00:00,21.121801,79.04952,OZONE,1,79,14
India,Maharashtra,Nagpur,"Mahal, Nagpur - MPCB",04-02-2026 08:00:00,21.14472,79.107595,PM10,103,187,137
India,Maharashtra,Nagpur,"Opp GPO Civil Lines, Nagpur - MPCB",04-02-2026 08:00:00,21.152875,79.0517531,PM10,92,185,142
India,Maharashtra,Pimpri-Chinchwad,"Park Street Wakad, Pimpri Chinchwad - MPCB",04-02-2026 08:00:00,18.59051,73.77946,PM2.5,NA,NA,NA
India,Maharashtra,Pimpri-Chinchwad,"Park Street Wakad, Pimpri Chinchwad - MPCB",04-02-2026 08:00:00,18.59051,73.77946,PM10,89,166,129
India,Maharashtra,Pimpri-Chinchwad,"Park Street Wakad, Pimpri Chinchwad - MPCB",04-02-2026 08:00:00,18.59051,73.77946,CO,32,116,77
India,Maharashtra,Pimpri-Chinchwad,"Savta Mali Nagar, Pimpri-Chinchwad - IITM",04-02-2026 08:00:00,18.614767,73.799516,NO2,15,131,59
India,Maharashtra,Pimpri-Chinchwad,"Savta Mali Nagar, Pimpri-Chinchwad - IITM",04-02-2026 08:00:00,18.614767,73.799516,OZONE,2,52,10
India,Maharashtra,Pimpri-Chinchwad,"Thergaon, Pimpri Chinchwad - MPCB",04-02-2026 08:00:00,18.616318,73.765797,NO2,41,106,69
India,Maharashtra,Pimpri-Chinchwad,"Thergaon, Pimpri Chinchwad - MPCB",04-02-2026 08:00:00,18.616318,73.765797,SO2,1,5,3
India,Maharashtra,Nashik,"Pandav Nagari, Nashik - MPCB",04-02-2026 08:00:00,19.9591346,73.7788008,NH3,3,7,5
India,Maharashtra,Navi Mumbai,"Kopripada-Vashi, Navi Mumbai - MPCB",04-02-2026 08:00:00,19.090337,73.014232,PM10,106,171,140
India,Maharashtra,Navi Mumbai,"Kopripada-Vashi, Navi Mumbai - MPCB",04-02-2026 08:00:00,19.090337,73.014232,OZONE,1,78,1
India,Maharashtra,Navi Mumbai,"Mahape, Navi Mumbai - MPCB",04-02-2026 08:00:00,19.1135051,73.008978,PM10,128,409,185
India,Maharashtra,Navi Mumbai,"Mahape, Navi Mumbai - MPCB",04-02-2026 08:00:00,19.1135051,73.008978,NO2,84,86,85
India,Maharashtra,Navi Mumbai,"Sanpada, Navi Mumbai - MPCB",04-02-2026 08:00:00,19.0575752,73.0151367,PM10,109,214,145
India,Maharashtra,Navi Mumbai,"Sanpada, Navi Mumbai - MPCB",04-02-2026 08:00:00,19.0575752,73.0151367,NO2,14,81,34
India,Maharashtra,Parbhani,"Masoom Colony, Parbhani - MPCB",04-02-2026 08:00:00,19.265594,76.761463,PM2.5,81,157,111
India,Maharashtra,Parbhani,"Masoom Colony, Parbhani - MPCB",04-02-2026 08:00:00,19.265594,76.761463,PM10,74,139,106
India,Maharashtra,Parbhani,"Masoom Colony, Parbhani - MPCB",04-02-2026 08:00:00,19.265594,76.761463,NO2,11,14,13
India,Maharashtra,Navi Mumbai,"Sector-2E Kalamboli, Navi Mumbai - MPCB",04-02-2026 08:00:00,19.02579,73.10297,SO2,2,20,8
India,Maharashtra,Pune,"Revenue Colony-Shivajinagar, Pune - IITM",04-02-2026 08:00:00,18.530085,73.849598,SO2,2,21,8
India,Maharashtra,Pune,"Savitribai Phule Pune University, Pune - MPCB",04-02-2026 08:00:00,18.547056,73.826908,NO2,11,41,23
India,Maharashtra,Sangli,"Vijay Nagar, Sangli - MPCB",04-02-2026 08:00:00, 16.5038,74.3623,SO2,2,29,18
India,Maharashtra,Sangli,"Vijay Nagar, Sangli - MPCB",04-02-2026 08:00:00, 16.5038,74.3623,OZONE,17,63,35
India,Maharashtra,Solapur,"Ratandeep Housing Society, Solapur - MPCB",04-02-2026 08:00:00,17.65439,75.90649,OZONE,8,38,26
India,Maharashtra,Thane,"Kasarvadavali, Thane - MPCB",04-02-2026 08:00:00,19.26777,72.97182,PM2.5,43,87,66
India,Maharashtra,Thane,"Kasarvadavali, Thane - MPCB",04-02-2026 08:00:00,19.26777,72.97182,NH3,3,6,4
India,Odisha,Bileipada,"Tata Township, Bileipada - OSPCB",04-02-2026 08:00:00,22.06156703,85.47409613,SO2,11,11,11
India,Odisha,Bileipada,"Tata Township, Bileipada - OSPCB",04-02-2026 08:00:00,22.06156703,85.47409613,CO,22,60,42
India,Odisha,Brajrajnagar,"GM Office, Brajrajnagar - OSPCB",04-02-2026 08:00:00,21.8004996,83.8396977,NH3,6,6,6
India,Odisha,Byasanagar,"Ferro Chrome Colony, Byasanagar - OSPCB",04-02-2026 08:00:00,20.94185,86.11510,OZONE,32,202,64
India,Odisha,Cuttack,"CDA Area, Cuttack - OSPCB",04-02-2026 08:00:00,20.48891     ,85.84768     ,OZONE,6,247,50
India,Odisha,Nayagarh,"Dabuna, Nayagarh - OSPCB",04-02-2026 08:00:00,21.847279,85.416905,PM10,NA,NA,NA
India,Odisha,Rairangpur,"Divisional Forest Office, Rairangpur - OSPCB",04-02-2026 08:00:00,22.265816,86.174829,OZONE,9,66,12
India,Odisha,Rourkela,"Fertilizer Township, Rourkela - OSPCB",04-02-2026 08:00:00,22.18972222,84.86277778,NO2,11,11,11
India,Odisha,Suakati,"OMC Colony, Suakati - OSPCB",04-02-2026 08:00:00,21.606865,85.510538,SO2,NA,NA,NA
India,Odisha,Talcher,"Talcher Coalfields,Talcher - OSPCB",04-02-2026 08:00:00,20.9360711,85.1707021,OZONE,27,119,32
India,Odisha,Tensa,"Barsua Iron Ore Mines, Tensa - OSPCB",04-02-2026 08:00:00,21.869985,85.167016,PM2.5,NA,NA,NA
India,Maharashtra,Ulhasnagar,"Sidhi Vinayak Nagar, Ulhasnagar - MPCB",04-02-2026 08:00:00,19.235581,73.159121,SO2,5,23,10
India,Maharashtra,Virar,"Bolinj, Virar - MPCB",04-02-2026 08:00:00,19.4458210,72.7988231,NH3,1,3,2
India,Maharashtra,Virar,"Bolinj, Virar - MPCB",04-02-2026 08:00:00,19.4458210,72.7988231,SO2,6,26,13
India,Meghalaya,Shillong,"Lumpyngngad, Shillong - Meghalaya PCB",04-02-2026 08:00:00,25.5586,91.8985,PM10,5,202,37
India,Nagaland,Kohima,"PWD Junction, Kohima - NPCB",04-02-2026 08:00:00,25.6635413,94.0989878,OZONE,2,12,4
India,Maharashtra,Pune,"Bhosari, Pune - IITM",04-02-2026 08:00:00,18.640051,73.848956,PM10,81,213,138
India,Maharashtra,Pune,"Bhumkar Nagar, Pune - IITM",04-02-2026 08:00:00,18.605770,73.749976,OZONE,1,115,1
India,Maharashtra,Pune,"Dhankawadi, Pune - IITM",04-02-2026 08:00:00,18.459883,73.852193,CO,NA,NA,NA
India,Maharashtra,Pune,"Mhada Colony, Pune - IITM",04-02-2026 08:00:00,18.573040,73.927715,CO,2,2,2
India,Maharashtra,Pune,"Revenue Colony-Shivajinagar, Pune - IITM",04-02-2026 08:00:00,18.530085,73.849598,PM2.5,87,230,159
India,Odisha,Balasore,"Kalidaspur, Balasore - OSPCB",04-02-2026 08:00:00,21.51161,86.89088,CO,24,70,40
India,Odisha,Barbil,"Forest Office, Barbil - OSPCB",04-02-2026 08:00:00,22.1166054,85.3945546,SO2,11,82,21
India,Odisha,Barbil,"Forest Office, Barbil - OSPCB",04-02-2026 08:00:00,22.1166054,85.3945546,CO,22,101,50
India,Odisha,Barbil,"Forest Office, Barbil - OSPCB",04-02-2026 08:00:00,22.1166054,85.3945546,OZONE,2,83,4
India,Punjab,Jalandhar,"Civil Line, Jalandhar - PPCB",04-02-2026 08:00:00,31.321907,75.578914,NH3,4,5,5
India,Punjab,Khanna,"Kalal Majra, Khanna - PPCB",04-02-2026 08:00:00,30.736056 ,76.209694,PM2.5,47,94,78
India,Punjab,Khanna,"Kalal Majra, Khanna - PPCB",04-02-2026 08:00:00,30.736056 ,76.209694,NO2,26,32,28
India,Punjab,Amritsar,"Golden Temple, Amritsar - PPCB",04-02-2026 08:00:00,31.620000,74.876512,SO2,16,52,26
India,Punjab,Bathinda,"Hardev Nagar, Bathinda - PPCB",04-02-2026 08:00:00,30.233011,74.907758,NO2,12,18,15
India,Puducherry,Puducherry,"Jawahar Nagar, Puducherry - PPCC",04-02-2026 08:00:00,11.9309,79.8027,NO2,11,34,24
India,Rajasthan,Jaipur,"Police Commissionerate, Jaipur - RSPCB",04-02-2026 08:00:00,26.9164092,75.7994901,PM2.5,84,270,137
India,Rajasthan,Jaipur,"Police Commissionerate, Jaipur - RSPCB",04-02-2026 08:00:00,26.9164092,75.7994901,PM10,62,141,95
India,Rajasthan,Jaipur,"Police Commissionerate, Jaipur - RSPCB",04-02-2026 08:00:00,26.9164092,75.7994901,SO2,22,30,25
India,Rajasthan,Jaipur,"RIICO Sitapura, Jaipur - RSPCB",04-02-2026 08:00:00,26.786682,75.827928,PM2.5,67,321,193
India,Rajasthan,Jaipur,"RIICO Sitapura, Jaipur - RSPCB",04-02-2026 08:00:00,26.786682,75.827928,PM10,94,206,133
India,Rajasthan,Jaipur,"RIICO Sitapura, Jaipur - RSPCB",04-02-2026 08:00:00,26.786682,75.827928,NO2,32,349,102
India,Rajasthan,Jaipur,"RIICO Sitapura, Jaipur - RSPCB",04-02-2026 08:00:00,26.786682,75.827928,NH3,3,39,11
India,Rajasthan,Jaipur,"RIICO Sitapura, Jaipur - RSPCB",04-02-2026 08:00:00,26.786682,75.827928,OZONE,31,120,48
India,Rajasthan,Jaipur,"Sector-2 Murlipura, Jaipur - RSPCB",04-02-2026 08:00:00,26.960669,75.771817,PM2.5,22,303,88
India,Rajasthan,Jaisalmer,"Sadar Bazar, Jaisalmer - RSPCB",04-02-2026 08:00:00,26.912329,70.909168,PM2.5,48,267,107
India,Punjab,Khanna,"Kalal Majra, Khanna - PPCB",04-02-2026 08:00:00,30.736056 ,76.209694,SO2,8,18,11
India,Punjab,Ludhiana,"Punjab Agricultural University, Ludhiana - PPCB",04-02-2026 08:00:00,30.9028,75.8086,NH3,8,12,9
India,Punjab,Ludhiana,"Punjab Agricultural University, Ludhiana - PPCB",04-02-2026 08:00:00,30.9028,75.8086,SO2,18,44,31
India,Punjab,Patiala,"Model Town, Patiala - PPCB",04-02-2026 08:00:00,30.349388,76.366642,PM10,66,150,121
India,Punjab,Patiala,"Model Town, Patiala - PPCB",04-02-2026 08:00:00,30.349388,76.366642,NO2,17,20,18
India,Punjab,Patiala,"Model Town, Patiala - PPCB",04-02-2026 08:00:00,30.349388,76.366642,CO,1,72,17
India,Punjab,Rupnagar,"Ratanpura, Rupnagar - Ambuja Cements",04-02-2026 08:00:00,31.0325454,76.5623046,PM2.5,79,414,286
India,Rajasthan,Ajmer,"Civil Lines,  Ajmer - RSPCB",04-02-2026 08:00:00,26.470859,74.646594,SO2,3,8,6
India,Rajasthan,Bhiwadi,"RIICO Ind. Area III, Bhiwadi - RSPCB",04-02-2026 08:00:00,28.194909,76.862296,SO2,9,35,19
India,Rajasthan,Bhiwadi,"RIICO Ind. Area III, Bhiwadi - RSPCB",04-02-2026 08:00:00,28.194909,76.862296,OZONE,3,24,4
India,Rajasthan,Bhiwadi,"Vasundhara Nagar_UIT, Bhiwadi - RSPCB",04-02-2026 08:00:00,28.207266,76.829265,NH3,4,9,7
India,Rajasthan,Bikaner,"MM Ground, Bikaner - RSPCB",04-02-2026 08:00:00,28.018792,73.292658,NH3,2,10,8
India,Rajasthan,Bikaner,"MM Ground, Bikaner - RSPCB",04-02-2026 08:00:00,28.018792,73.292658,SO2,1,20,8
India,Rajasthan,Bundi,"New Colony, Bundi - RSPCB",04-02-2026 08:00:00,25.435774,75.644272,PM10,76,130,108
India,Rajasthan,Chittorgarh,"Shastri Nagar, Chittorgarh - RSPCB",04-02-2026 08:00:00,24.892047,74.623527,SO2,8,130,51
India,Rajasthan,Chittorgarh,"Shastri Nagar, Chittorgarh - RSPCB",04-02-2026 08:00:00,24.892047,74.623527,CO,8,82,34
India,Rajasthan,Jodhpur,"Digari Kalan, Jodhpur - RSPCB",04-02-2026 08:00:00,26.295810,73.082283,OZONE,23,95,38
India,Rajasthan,Jodhpur,"Jhalamand, Jodhpur - RSPCB",04-02-2026 08:00:00,26.215415,73.070156,NH3,6,14,9
India,Rajasthan,Jodhpur,"Mandor, Jodhpur - RSPCB",04-02-2026 08:00:00,26.358805,73.047444,PM2.5,18,309,92
India,Rajasthan,Jodhpur,"Mandor, Jodhpur - RSPCB",04-02-2026 08:00:00,26.358805,73.047444,OZONE,33,75,40
India,Rajasthan,Jodhpur,"Samrat Ashok Udhyan, Jodhpur - RSPCB",04-02-2026 08:00:00,26.253384,72.976571,CO,24,38,27
India,Rajasthan,Karauli,"Satyawati Vihar, Karauli - RSPCB",04-02-2026 08:00:00,26.506177,77.025989,PM2.5,33,110,63
India,Rajasthan,Karauli,"Satyawati Vihar, Karauli - RSPCB",04-02-2026 08:00:00,26.506177,77.025989,CO,16,31,21
India,Rajasthan,Banswara,"Rati Talai, Banswara - RSPCB",04-02-2026 08:00:00,23.555190,74.440010,PM10,50,183,91
India,Rajasthan,Barmer,"Railway Colony, Barmer - RSPCB",04-02-2026 08:00:00,25.747299,71.393989,PM2.5,15,287,55
India,Rajasthan,Bharatpur,"Krishna Nagar, Bharatpur - RSPCB",04-02-2026 08:00:00,27.215415,77.50873,PM2.5,33,180,74
India,Rajasthan,Bharatpur,"Krishna Nagar, Bharatpur - RSPCB",04-02-2026 08:00:00,27.215415,77.50873,CO,32,88,45
India,Rajasthan,Bhilwara,"Pratap Nagar, Bhilwara - RSPCB",04-02-2026 08:00:00,25.339605,74.618883,SO2,4,14,8
India,Rajasthan,Bhilwara,"Pratap Nagar, Bhilwara - RSPCB",04-02-2026 08:00:00,25.339605,74.618883,CO,14,47,34
India,Rajasthan,Kota,"Dhanmandi, Kota - RSPCB",04-02-2026 08:00:00,25.164090,75.858137,NO2,21,192,47
India,Rajasthan,Kota,"Nayapura, Kota - RSPCB",04-02-2026 08:00:00,25.196024,75.855668,PM2.5,62,213,124
India,Rajasthan,Kota,"Shrinath Puram, Kota - RSPCB",04-02-2026 08:00:00,25.14389,75.821256,PM2.5,102,198,144
India,Rajasthan,Kota,"Shrinath Puram, Kota - RSPCB",04-02-2026 08:00:00,25.14389,75.821256,NO2,11,16,13
India,Rajasthan,Kota,"Shrinath Puram, Kota - RSPCB",04-02-2026 08:00:00,25.14389,75.821256,NH3,4,7,5
India,Rajasthan,Nagaur,"Karni Colony, Nagaur - RSPCB",04-02-2026 08:00:00,27.213494,73.734444,NO2,13,65,28
India,Rajasthan,Churu,"Subash Chowk, Churu - RSPCB",04-02-2026 08:00:00,28.296139,74.961696,OZONE,13,117,52
India,Rajasthan,Dholpur,"Raja Ganj, Dholpur - RSPCB",04-02-2026 08:00:00,26.699557,77.898881,PM2.5,23,110,57
India,Rajasthan,Hanumangarh,"Housing Board, Hanumangarh - RSPCB",04-02-2026 08:00:00,29.610750,74.283608,NH3,10,17,12
India,Rajasthan,Jhunjhunu,"Indra Nagar, Jhunjhunu - RSPCB",04-02-2026 08:00:00,28.108988,75.386577,CO,14,65,42
India,Rajasthan,Jhunjhunu,"Indra Nagar, Jhunjhunu - RSPCB",04-02-2026 08:00:00,28.108988,75.386577,OZONE,11,111,34
India,Rajasthan,Jhalawar,"Rajlaxmi Nagar, Jhalawar - RSPCB",04-02-2026 08:00:00,24.588397,76.172782,SO2,12,19,15
India,Rajasthan,Jhalawar,"Rajlaxmi Nagar, Jhalawar - RSPCB",04-02-2026 08:00:00,24.588397,76.172782,OZONE,31,94,53
India,Rajasthan,Rajsamand,"Dhoinda, Rajsamand - RSPCB",04-02-2026 08:00:00,25.036360,73.883502,NO2,13,40,21
India,Rajasthan,Rajsamand,"Dhoinda, Rajsamand - RSPCB",04-02-2026 08:00:00,25.036360,73.883502,SO2,3,10,6
India,Rajasthan,Sikar,"Radhakishan Pura, Sikar - RSPCB",04-02-2026 08:00:00,27.608912,75.153302,PM10,68,245,136
India,Rajasthan,Sikar,"Radhakishan Pura, Sikar - RSPCB",04-02-2026 08:00:00,27.608912,75.153302,CO,16,90,37
India,Rajasthan,Sirohi,"Vedhaynath Colony, Sirohi - RSPCB",04-02-2026 08:00:00,24.885261,72.857549,NH3,2,4,3
India,Rajasthan,Sri Ganganagar,"Old City, Sri Ganganagar - RSPCB",04-02-2026 08:00:00,29.931624,73.864511,PM10,68,225,135
India,Rajasthan,Sri Ganganagar,"Old City, Sri Ganganagar - RSPCB",04-02-2026 08:00:00,29.931624,73.864511,NO2,32,139,73
India,Rajasthan,Sri Ganganagar,"Old City, Sri Ganganagar - RSPCB",04-02-2026 08:00:00,29.931624,73.864511,NH3,2,31,10
India,Rajasthan,Sri Ganganagar,"Old City, Sri Ganganagar - RSPCB",04-02-2026 08:00:00,29.931624,73.864511,SO2,1,7,2
India,Rajasthan,Tonk,"Shastri Nagar, Tonk - RSPCB",04-02-2026 08:00:00,26.159933,75.780517,NO2,10,55,22
India,Rajasthan,Tonk,"Shastri Nagar, Tonk - RSPCB",04-02-2026 08:00:00,26.159933,75.780517,NH3,7,11,8
India,Rajasthan,Udaipur,"Ashok Nagar, Udaipur - RSPCB",04-02-2026 08:00:00,24.5886166,73.6321397,OZONE,8,62,38
India,Sikkim,Gangtok,"Zero Point GICI, Gangtok - SSPCB",04-02-2026 08:00:00,27.338530,88.614099,CO,7,38,9
India,TamilNadu,Chennai,"Arumbakkam, Chennai - TNPCB",04-02-2026 08:00:00,13.0664,80.2112 ,PM2.5,30,213,75
India,TamilNadu,Chennai,"Arumbakkam, Chennai - TNPCB",04-02-2026 08:00:00,13.0664,80.2112 ,NH3,1,2,2
India,TamilNadu,Chennai,"Arumbakkam, Chennai - TNPCB",04-02-2026 08:00:00,13.0664,80.2112 ,SO2,4,36,13
India,TamilNadu,Chennai,"Manali Village, Chennai - TNPCB",04-02-2026 08:00:00,13.1662,80.2584,SO2,14,16,15
India,TamilNadu,Chennai,"Manali Village, Chennai - TNPCB",04-02-2026 08:00:00,13.1662,80.2584,CO,24,51,27
India,TamilNadu,Chennai,"Manali, Chennai - CPCB",04-02-2026 08:00:00,13.164544,80.26285,NH3,7,7,7
India,Telangana,Hyderabad,"Ramachandrapuram, Hyderabad - TSPCB",04-02-2026 08:00:00,17.528544,78.286195,SO2,11,17,14
India,Telangana,Hyderabad,"Sanathnagar, Hyderabad - TSPCB",04-02-2026 08:00:00,17.4559458,78.4332152,CO,44,52,48
India,Telangana,Hyderabad,"Somajiguda, Hyderabad - TSPCB",04-02-2026 08:00:00,17.417094,78.457437,PM2.5,52,68,57
India,Telangana,Hyderabad,"Somajiguda, Hyderabad - TSPCB",04-02-2026 08:00:00,17.417094,78.457437,PM10,85,96,90
India,Telangana,Hyderabad,"Zoo Park, Hyderabad - TSPCB",04-02-2026 08:00:00,17.349694,78.451437,PM2.5,73,158,116
India,Telangana,Hyderabad,"Zoo Park, Hyderabad - TSPCB",04-02-2026 08:00:00,17.349694,78.451437,CO,27,92,47
India,Tripura,Agartala,"Bardowali, Agartala - Tripura SPCB",04-02-2026 08:00:00,23.8175497,91.2726974,PM2.5,10,65,33
India,TamilNadu,Madurai,"Uchapatti, Madurai - TNPCB",04-02-2026 08:00:00,9.865935,78.022669,NO2,NA,NA,NA
India,TamilNadu,Nagapattinam,"Velippalayam, Nagapattinam - TNPCB",04-02-2026 08:00:00,10.798548,79.838212,NO2,NA,NA,NA
India,TamilNadu,Nagapattinam,"Velippalayam, Nagapattinam - TNPCB",04-02-2026 08:00:00,10.798548,79.838212,SO2,NA,NA,NA
India,TamilNadu,Perundurai,"SIPCOT Industrial Park, Perundurai - TNPCB",04-02-2026 08:00:00,11.258242,77.552761,SO2,13,15,14
India,TamilNadu,Ramanathapuram,"Chalai Bazaar, Ramanathapuram - TNPCB",04-02-2026 08:00:00,9.36399,78.831977,SO2,NA,NA,NA
India,TamilNadu,Thanjavur,"Parisutham Nagar, Thanjavur - TNPCB",04-02-2026 08:00:00,10.7654824,79.1389968,NH3,1,1,1
India,TamilNadu,Thoothukudi,"Meelavittan, Thoothukudi - TNPCB",04-02-2026 08:00:00,8.816428 ,78.099039,CO,22,53,33
India,Telangana,Hyderabad,"Bollaram Industrial Area, Hyderabad - TSPCB",04-02-2026 08:00:00,17.540891,78.358528,PM2.5,NA,NA,NA
India,Telangana,Hyderabad,"Bollaram Industrial Area, Hyderabad - TSPCB",04-02-2026 08:00:00,17.540891,78.358528,PM10,NA,NA,NA
India,Telangana,Hyderabad,"Bollaram Industrial Area, Hyderabad - TSPCB",04-02-2026 08:00:00,17.540891,78.358528,NO2,14,43,29
India,Telangana,Hyderabad,"Bollaram Industrial Area, Hyderabad - TSPCB",04-02-2026 08:00:00,17.540891,78.358528,NH3,2,6,4
India,Telangana,Hyderabad,"Bollaram Industrial Area, Hyderabad - TSPCB",04-02-2026 08:00:00,17.540891,78.358528,SO2,3,10,7
India,TamilNadu,Chennai,"Perungudi, Chennai - TNPCB",04-02-2026 08:00:00,12.9533,80.2357,CO,26,68,48
India,TamilNadu,Chennai,"Perungudi, Chennai - TNPCB",04-02-2026 08:00:00,12.9533,80.2357,OZONE,2,21,4
India,TamilNadu,Chennai,"Royapuram, Chennai - TNPCB",04-02-2026 08:00:00,13.1036,80.2909,PM10,36,123,58
India,TamilNadu,Chennai,"Royapuram, Chennai - TNPCB",04-02-2026 08:00:00,13.1036,80.2909,NO2,1,4,2
India,TamilNadu,Coimbatore,"SIDCO Kurichi, Coimbatore - TNPCB",04-02-2026 08:00:00,10.942451,76.978996,NH3,2,2,2
India,Telangana,Hyderabad,"Central University, Hyderabad - TSPCB",04-02-2026 08:00:00,17.460103,78.334361,PM2.5,52,113,88
India,Telangana,Hyderabad,"Central University, Hyderabad - TSPCB",04-02-2026 08:00:00,17.460103,78.334361,CO,14,40,27
India,Telangana,Hyderabad,"Central University, Hyderabad - TSPCB",04-02-2026 08:00:00,17.460103,78.334361,OZONE,6,15,12
India,Telangana,Hyderabad,"ECIL Kapra, Hyderabad - TSPCB",04-02-2026 08:00:00,17.470431,78.566959,PM2.5,51,446,124
India,Telangana,Hyderabad,"ICRISAT Patancheru, Hyderabad - TSPCB",04-02-2026 08:00:00,17.518400,78.278777,CO,12,96,26
India,Telangana,Hyderabad,"Kompally Municipal Office, Hyderabad - TSPCB",04-02-2026 08:00:00,17.544899,78.486949,SO2,NA,NA,NA
India,Telangana,Hyderabad,"Kompally Municipal Office, Hyderabad - TSPCB",04-02-2026 08:00:00,17.544899,78.486949,OZONE,20,40,39
India,Telangana,Hyderabad,"IDA Pashamylaram, Hyderabad - TSPCB",04-02-2026 08:00:00,17.5316895,78.218939,NO2,7,7,7
India,Telangana,Hyderabad,"IDA Pashamylaram, Hyderabad - TSPCB",04-02-2026 08:00:00,17.5316895,78.218939,SO2,1,16,9
India,Uttar_Pradesh,Moradabad,"Jigar Colony, Moradabad - UPPCB",04-02-2026 08:00:00,28.856664,78.772638,NO2,25,25,25
India,Uttar_Pradesh,Moradabad,"Kashiram Nagar, Moradabad - UPPCB",04-02-2026 08:00:00,28.849399,78.742362,SO2,1,44,17
India,Uttar_Pradesh,Moradabad,"Kashiram Nagar, Moradabad - UPPCB",04-02-2026 08:00:00,28.849399,78.742362,CO,26,31,28
India,Uttar_Pradesh,Moradabad,"Transport Nagar, Moradabad - UPPCB",04-02-2026 08:00:00,28.802625,78.753728,PM2.5,29,136,58
India,Uttar_Pradesh,Muzaffarnagar,"New Mandi, Muzaffarnagar - UPPCB",04-02-2026 08:00:00,29.4723508,77.7194031,PM10,83,208,129
India,Uttar_Pradesh,Muzaffarnagar,"New Mandi, Muzaffarnagar - UPPCB",04-02-2026 08:00:00,29.4723508,77.7194031,NH3,7,10,8
India,Uttar_Pradesh,Noida,"Sector - 125, Noida - UPPCB",04-02-2026 08:00:00,28.5447608,77.3231257,PM10,130,440,255
India,Uttar_Pradesh,Noida,"Sector - 125, Noida - UPPCB",04-02-2026 08:00:00,28.5447608,77.3231257,NH3,2,4,3
India,Uttar_Pradesh,Noida,"Sector - 62, Noida - IMD",04-02-2026 08:00:00,28.6245479,77.3577104,PM10,110,447,209
India,Uttar_Pradesh,Noida,"Sector - 62, Noida - IMD",04-02-2026 08:00:00,28.6245479,77.3577104,CO,22,69,66
India,Uttar_Pradesh,Agra,"Manoharpur, Agra - UPPCB",04-02-2026 08:00:00,27.23711,78.01936,PM10,57,225,105
India,Uttar_Pradesh,Agra,"Manoharpur, Agra - UPPCB",04-02-2026 08:00:00,27.23711,78.01936,NO2,33,33,33
India,Uttar_Pradesh,Agra,"Manoharpur, Agra - UPPCB",04-02-2026 08:00:00,27.23711,78.01936,SO2,4,8,5
India,Uttar_Pradesh,Agra,"Sanjay Palace, Agra - UPPCB",04-02-2026 08:00:00,27.19865833,78.00598056,PM2.5,56,349,151
India,Uttar_Pradesh,Agra,"Sanjay Palace, Agra - UPPCB",04-02-2026 08:00:00,27.19865833,78.00598056,PM10,57,226,131
India,Uttar_Pradesh,Agra,"Sanjay Palace, Agra - UPPCB",04-02-2026 08:00:00,27.19865833,78.00598056,NO2,1,34,5
India,Uttar_Pradesh,Agra,"Sanjay Palace, Agra - UPPCB",04-02-2026 08:00:00,27.19865833,78.00598056,OZONE,2,38,9
India,Uttar_Pradesh,Agra,"Sector-3B Avas Vikas Colony, Agra - UPPCB",04-02-2026 08:00:00,27.19412,77.96237,NH3,3,8,6
India,Uttar_Pradesh,Agra,"Shahjahan Garden, Agra - UPPCB",04-02-2026 08:00:00,27.169338,78.03582,NO2,8,10,9
India,Uttar_Pradesh,Agra,"Shastripuram, Agra - UPPCB",04-02-2026 08:00:00,27.19862,77.92066,PM2.5,32,225,83
India,Uttar_Pradesh,Meerut,"Jai Bhim Nagar, Meerut - UPPCB",04-02-2026 08:00:00,28.9535882,77.7622941,SO2,7,13,8
India,Uttar_Pradesh,Meerut,"Pallavpuram Phase 2, Meerut - UPPCB",04-02-2026 08:00:00,29.063510,77.709723,NH3,4,6,5
India,Uttar_Pradesh,Meerut,"Pallavpuram Phase 2, Meerut - UPPCB",04-02-2026 08:00:00,29.063510,77.709723,CO,24,93,38
India,Uttar_Pradesh,Moradabad,"Buddhi Vihar, Moradabad - UPPCB",04-02-2026 08:00:00,28.83526,78.74460,NO2,29,29,29
India,Uttar_Pradesh,Moradabad,"Eco Herbal Park, Moradabad - UPPCB",04-02-2026 08:00:00,28.840739,78.697531,PM2.5,33,92,61
India,Uttar_Pradesh,Moradabad,"Eco Herbal Park, Moradabad - UPPCB",04-02-2026 08:00:00,28.840739,78.697531,SO2,8,14,11
India,Uttar_Pradesh,Moradabad,"Employment Office, Moradabad - UPPCB",04-02-2026 08:00:00,28.88528,78.73880,PM2.5,50,142,86
India,Uttar_Pradesh,Moradabad,"Employment Office, Moradabad - UPPCB",04-02-2026 08:00:00,28.88528,78.73880,NO2,16,16,16
India,Uttar_Pradesh,Moradabad,"Employment Office, Moradabad - UPPCB",04-02-2026 08:00:00,28.88528,78.73880,SO2,22,25,23
India,Uttar_Pradesh,Firozabad,"Vibhab Nagar, Firozabad - UPPCB",04-02-2026 08:00:00,27.1594,78.3953,SO2,18,21,19
India,Uttar_Pradesh,Ghaziabad,"Indirapuram, Ghaziabad - UPPCB",04-02-2026 08:00:00,28.646233,77.358075,PM2.5,260,500,388
India,Uttar_Pradesh,Ghaziabad,"Indirapuram, Ghaziabad - UPPCB",04-02-2026 08:00:00,28.646233,77.358075,NH3,19,29,24
India,Uttar_Pradesh,Ghaziabad,"Indirapuram, Ghaziabad - UPPCB",04-02-2026 08:00:00,28.646233,77.358075,CO,34,132,85
India,Uttar_Pradesh,Ghaziabad,"Loni, Ghaziabad - UPPCB",04-02-2026 08:00:00,28.757294,77.278792,PM10,105,500,314
India,Uttar_Pradesh,Ghaziabad,"Loni, Ghaziabad - UPPCB",04-02-2026 08:00:00,28.757294,77.278792,OZONE,3,17,3
India,Uttar_Pradesh,Ghaziabad,"Sanjay Nagar, Ghaziabad - UPPCB",04-02-2026 08:00:00,28.685382,77.453839,OZONE,15,43,17
India,Uttar_Pradesh,Ghaziabad,"Vasundhara, Ghaziabad - UPPCB",04-02-2026 08:00:00,28.6603346,77.3572563,PM2.5,238,500,386
India,Uttar_Pradesh,Kanpur,"FTI Kidwai Nagar, Kanpur - UPPCB",04-02-2026 08:00:00,26.428282,80.327067,OZONE,NA,NA,NA
India,Uttar_Pradesh,Kanpur,"NSI Kalyanpur, Kanpur - UPPCB",04-02-2026 08:00:00,26.509954,80.249612,PM10,43,129,70
India,Uttar_Pradesh,Kanpur,"NSI Kalyanpur, Kanpur - UPPCB",04-02-2026 08:00:00,26.509954,80.249612,OZONE,16,18,17
India,Uttar_Pradesh,Kanpur,"Nehru Nagar, Kanpur - UPPCB",04-02-2026 08:00:00,26.4703136,80.3229863,CO,25,68,46
India,Uttar_Pradesh,Kanpur,"Nehru Nagar, Kanpur - UPPCB",04-02-2026 08:00:00,26.4703136,80.3229863,OZONE,6,6,6
India,Uttar_Pradesh,Khurja,"Kalindi Kunj, Khurja - UPPCB",04-02-2026 08:00:00,28.2348927,77.8683002,CO,50,65,54
India,Uttar_Pradesh,Lucknow,"Gomti Nagar, Lucknow - UPPCB",04-02-2026 08:00:00,26.868120,81.005119,PM10,15,98,53
India,Uttar_Pradesh,Baghpat,"Sardar Patel Inter College, Baghpat - UPPCB",04-02-2026 08:00:00,28.964949,77.278761,PM2.5,77,406,301
India,Uttar_Pradesh,Baghpat,"Sardar Patel Inter College, Baghpat - UPPCB",04-02-2026 08:00:00,28.964949,77.278761,PM10,77,248,164
India,Uttar_Pradesh,Bareilly,"Civil Lines, Bareilly - UPPCB",04-02-2026 08:00:00,28.359581,79.414455,NH3,1,2,1
India,Uttar_Pradesh,Bareilly,"Rajendra Nagar, Bareilly - UPPCB",04-02-2026 08:00:00,28.38910936,79.42963708,PM10,44,118,76
India,Uttar_Pradesh,Greater Noida,"Knowledge Park - III, Greater Noida - UPPCB",04-02-2026 08:00:00,28.47272,77.482000,NO2,36,119,72
India,Uttar_Pradesh,Greater Noida,"Knowledge Park - V, Greater Noida - UPPCB",04-02-2026 08:00:00,28.557054,77.453663,NO2,77,168,119
India,Uttar_Pradesh,Greater Noida,"Knowledge Park - V, Greater Noida - UPPCB",04-02-2026 08:00:00,28.557054,77.453663,CO,40,116,72
India,Uttar_Pradesh,Kanpur,"FTI Kidwai Nagar, Kanpur - UPPCB",04-02-2026 08:00:00,26.428282,80.327067,NO2,NA,NA,NA
India,Uttar_Pradesh,Lucknow,"Lalbagh, Lucknow - CPCB",04-02-2026 08:00:00,26.8458805,80.9365541,CO,49,104,60
India,Uttar_Pradesh,Lucknow,"Talkatora District Industries Center, Lucknow - CPCB",04-02-2026 08:00:00,26.83399722,80.8917361,OZONE,9,54,14
India,Uttar_Pradesh,Lucknow,"Kukrail Picnic Spot-1, Lucknow - UPPCB",04-02-2026 08:00:00,26.90723,80.98579,NH3,6,6,6
India,Uttar_Pradesh,Noida,"Sector - 62, Noida - IMD",04-02-2026 08:00:00,28.6245479,77.3577104,OZONE,17,53,24
India,Uttar_Pradesh,Noida,"Sector-1, Noida - UPPCB",04-02-2026 08:00:00,28.5898,77.3101,OZONE,1,7,2
India,Uttar_Pradesh,Prayagraj,"Jhunsi, Prayagraj - UPPCB",04-02-2026 08:00:00,25.425602,81.917152,PM2.5,32,152,66
India,Uttar_Pradesh,Prayagraj,"Jhunsi, Prayagraj - UPPCB",04-02-2026 08:00:00,25.425602,81.917152,NO2,6,6,6
India,Uttar_Pradesh,Prayagraj,"Jhunsi, Prayagraj - UPPCB",04-02-2026 08:00:00,25.425602,81.917152,CO,12,35,17
India,Uttar_Pradesh,Prayagraj,"Motilal Nehru NIT, Prayagraj - UPPCB",04-02-2026 08:00:00,25.494,81.863,PM2.5,42,180,78
India,Uttar_Pradesh,Prayagraj,"Motilal Nehru NIT, Prayagraj - UPPCB",04-02-2026 08:00:00,25.494,81.863,SO2,36,48,42
India,Uttar_Pradesh,Prayagraj,"Motilal Nehru NIT, Prayagraj - UPPCB",04-02-2026 08:00:00,25.494,81.863,CO,20,66,27
India,Uttar_Pradesh,Varanasi,"Maldahiya, Varanasi - UPPCB",04-02-2026 08:00:00,25.32393,82.99687,PM2.5,30,121,57
India,Uttar_Pradesh,Vrindavan,"Omex Eternity, Vrindavan - UPPCB",04-02-2026 08:00:00,27.5714090,77.6557570,CO,29,78,64
India,Uttar_Pradesh,Vrindavan,"Omex Eternity, Vrindavan - UPPCB",04-02-2026 08:00:00,27.5714090,77.6557570,OZONE,15,15,15
India,Uttarakhand,Kashipur,"Govt. Girls Inter College, Kashipur - UKPCB",04-02-2026 08:00:00,29.2124114,78.9611753,NO2,8,19,13
India,West_Bengal,Asansol,"Asansol Court Area, Asansol - WBPCB",04-02-2026 08:00:00,23.685297,86.945968,PM10,79,165,114
India,West_Bengal,Asansol,"Asansol Court Area, Asansol - WBPCB",04-02-2026 08:00:00,23.685297,86.945968,NO2,15,27,22
India,West_Bengal,Asansol,"Evelyn Lodge, Asansol - WBPCB",04-02-2026 08:00:00,23.6979360,86.9443950,PM10,62,171,106
India,West_Bengal,Barrackpore,"SVSPA Campus, Barrackpore - WBPCB",04-02-2026 08:00:00,22.7605581,88.3617589,NH3,4,6,5
India,West_Bengal,Barrackpore,"SVSPA Campus, Barrackpore - WBPCB",04-02-2026 08:00:00,22.7605581,88.3617589,OZONE,2,62,7
India,West_Bengal,Durgapur,"Mahishkapur Road_B-Zone, Durgapur - WBPCB",04-02-2026 08:00:00,23.567923,87.306843,PM2.5,52,184,111
India,West_Bengal,Durgapur,"Mahishkapur Road_B-Zone, Durgapur - WBPCB",04-02-2026 08:00:00,23.567923,87.306843,PM10,48,130,93
India,West_Bengal,Durgapur,"Mahishkapur Road_B-Zone, Durgapur - WBPCB",04-02-2026 08:00:00,23.567923,87.306843,NH3,2,2,2
India,West_Bengal,Durgapur,"Mahishkapur Road_B-Zone, Durgapur - WBPCB",04-02-2026 08:00:00,23.567923,87.306843,CO,25,101,47
India,West_Bengal,Durgapur,"PCBL Residential Complex, Durgapur - WBPCB",04-02-2026 08:00:00,23.5087640,87.3544400,PM10,59,158,100
India,West_Bengal,Durgapur,"PCBL Residential Complex, Durgapur - WBPCB",04-02-2026 08:00:00,23.5087640,87.3544400,NO2,31,68,43
India,West_Bengal,Durgapur,"Womens College_City Center, Durgapur - WBPCB",04-02-2026 08:00:00,23.549395,87.300496,NH3,3,4,4
India,West_Bengal,Durgapur,"Womens College_City Center, Durgapur - WBPCB",04-02-2026 08:00:00,23.549395,87.300496,CO,26,56,41
India,West_Bengal,Howrah,"Belur Math, Howrah - WBPCB",04-02-2026 08:00:00,22.629801,88.352017,SO2,10,23,15
India,West_Bengal,Howrah,"Belur Math, Howrah - WBPCB",04-02-2026 08:00:00,22.629801,88.352017,OZONE,13,43,17
India,West_Bengal,Howrah,"Botanical Garden, Howrah - WBPCB",04-02-2026 08:00:00,22.554954,88.292568,NH3,2,3,3
India,West_Bengal,Howrah,"Botanical Garden, Howrah - WBPCB",04-02-2026 08:00:00,22.554954,88.292568,OZONE,5,23,6
India,West_Bengal,Howrah,"Dasnagar, Howrah - WBPCB",04-02-2026 08:00:00,22.6025571,88.3105664,SO2,11,95,32
India,West_Bengal,Howrah,"Dasnagar, Howrah - WBPCB",04-02-2026 08:00:00,22.6025571,88.3105664,CO,14,78,40
India,West_Bengal,Howrah,"Ghusuri, Howrah - WBPCB",04-02-2026 08:00:00,22.611968,88.347422,OZONE,11,57,12
India,West_Bengal,Howrah,"Padmapukur, Howrah - WBPCB",04-02-2026 08:00:00,22.5687319,88.2797276,NH3,4,14,7
India,West_Bengal,Howrah,"Padmapukur, Howrah - WBPCB",04-02-2026 08:00:00,22.5687319,88.2797276,CO,34,113,90
India,West_Bengal,Kolkata,"Ballygunge, Kolkata - WBPCB",04-02-2026 08:00:00,22.5367507,88.3638022,PM10,109,158,133
India,West_Bengal,Kolkata,"Ballygunge, Kolkata - WBPCB",04-02-2026 08:00:00,22.5367507,88.3638022,SO2,9,28,17
India,West_Bengal,Kolkata,"Bidhannagar, Kolkata - WBPCB",04-02-2026 08:00:00,22.58157048,88.41002457,NO2,13,15,13
India,West_Bengal,Kolkata,"Bidhannagar, Kolkata - WBPCB",04-02-2026 08:00:00,22.58157048,88.41002457,SO2,5,12,8
India,West_Bengal,Kolkata,"Fort William, Kolkata - WBPCB",04-02-2026 08:00:00,22.556640,88.342674,SO2,6,23,11
India,West_Bengal,Kolkata,"Jadavpur, Kolkata - WBPCB",04-02-2026 08:00:00,22.49929,88.36917,PM10,108,190,143
India,West_Bengal,Kolkata,"Jadavpur, Kolkata - WBPCB",04-02-2026 08:00:00,22.49929,88.36917,CO,36,109,94
India,West_Bengal,Kolkata,"Rabindra Sarobar, Kolkata - WBPCB",04-02-2026 08:00:00,22.51106,88.35142,PM2.5,77,112,90
India,West_Bengal,Kolkata,"Rabindra Sarobar, Kolkata - WBPCB",04-02-2026 08:00:00,22.51106,88.35142,PM10,105,126,112
India,West_Bengal,Kolkata,"Rabindra Sarobar, Kolkata - WBPCB",04-02-2026 08:00:00,22.51106,88.35142,NO2,25,113,70
India,West_Bengal,Kolkata,"Rabindra Sarobar, Kolkata - WBPCB",04-02-2026 08:00:00,22.51106,88.35142,SO2,7,28,14
India,West_Bengal,Kolkata,"Victoria, Kolkata - WBPCB",04-02-2026 08:00:00,22.5448082,88.3403691,SO2,9,25,15
India,West_Bengal,Kolkata,"Victoria, Kolkata - WBPCB",04-02-2026 08:00:00,22.5448082,88.3403691,OZONE,6,60,8
India,West_Bengal,Siliguri,"Ward-32 Bapupara, Siliguri - WBPCB",04-02-2026 08:00:00,26.6879226,88.4152495,PM2.5,55,234,111
India,West_Bengal,Siliguri,"Ward-32 Bapupara, Siliguri - WBPCB",04-02-2026 08:00:00,26.6879226,88.4152495,PM10,73,281,131
India,Bihar,Katihar,"Mirchaibari, Katihar - BSPCB",04-02-2026 08:00:00,25.560083,87.553265,CO,54,85,75
India,Bihar,Katihar,"Mirchaibari, Katihar - BSPCB",04-02-2026 08:00:00,25.560083,87.553265,OZONE,4,23,6
India,Bihar,Kishanganj,"SDM Office_Khagra, Kishanganj - BSPCB",04-02-2026 08:00:00,26.0881305,87.93840336,NH3,3,3,3
India,Bihar,Kishanganj,"SDM Office_Khagra, Kishanganj - BSPCB",04-02-2026 08:00:00,26.0881305,87.93840336,CO,16,22,16
India,Bihar,Manguraha,"Forest Rest House, Manguraha - BSPCB",04-02-2026 08:00:00,27.308328,84.531742,PM2.5,30,253,129
India,Bihar,Manguraha,"Forest Rest House, Manguraha - BSPCB",04-02-2026 08:00:00,27.308328,84.531742,OZONE,9,11,10
India,Bihar,Motihari,"Gandak Colony, Motihari - BSPCB",04-02-2026 08:00:00,26.63086,84.90051,PM10,29,137,74
India,Bihar,Motihari,"Gandak Colony, Motihari - BSPCB",04-02-2026 08:00:00,26.63086,84.90051,NO2,6,10,8
India,Bihar,Motihari,"Gandak Colony, Motihari - BSPCB",04-02-2026 08:00:00,26.63086,84.90051,NH3,3,3,3
India,Bihar,Munger,"Town Hall, Munger - BSPCB",04-02-2026 08:00:00,25.376776,86.471523,PM10,59,115,85
India,Bihar,Munger,"Town Hall, Munger - BSPCB",04-02-2026 08:00:00,25.376776,86.471523,NH3,2,2,2
India,Bihar,Muzaffarpur,"Buddha Colony, Muzaffarpur - BSPCB",04-02-2026 08:00:00,26.11442,85.39813,PM2.5,85,237,139
India,Bihar,Muzaffarpur,"Buddha Colony, Muzaffarpur - BSPCB",04-02-2026 08:00:00,26.11442,85.39813,SO2,3,8,6
India,Bihar,Aurangabad,"Gurdeo Nagar, Aurangabad - BSPCB",04-02-2026 08:00:00,24.75746,84.366208,NH3,1,2,1
India,Bihar,Begusarai,"Lohiyanagar, Begusarai - BSPCB",04-02-2026 08:00:00,25.42742023,86.13886079,NO2,6,15,8
India,Bihar,Begusarai,"Lohiyanagar, Begusarai - BSPCB",04-02-2026 08:00:00,25.42742023,86.13886079,NH3,10,11,11
India,Bihar,Begusarai,"Lohiyanagar, Begusarai - BSPCB",04-02-2026 08:00:00,25.42742023,86.13886079,CO,58,76,67
India,Bihar,Bettiah,"Kamalnath Nagar, Bettiah - BSPCB",04-02-2026 08:00:00,26.80365,84.51954,NO2,7,9,8
India,Bihar,Bhagalpur,"DM Office_Kachari Chowk, Bhagalpur - BSPCB",04-02-2026 08:00:00,25.251013,86.989001,PM2.5,45,127,77
India,Bihar,Bhagalpur,"Mayaganj, Bhagalpur - BSPCB",04-02-2026 08:00:00,25.265194,87.012947,PM2.5,47,100,68
India,Bihar,Bhagalpur,"Mayaganj, Bhagalpur - BSPCB",04-02-2026 08:00:00,25.265194,87.012947,PM10,81,157,113
India,Bihar,Buxar,"Charitra Van, Buxar - BSPCB",04-02-2026 08:00:00,25.567520,83.966379,PM2.5,57,127,81
India,Bihar,Buxar,"Charitra Van, Buxar - BSPCB",04-02-2026 08:00:00,25.567520,83.966379,PM10,54,111,78
India,Bihar,Buxar,"Charitra Van, Buxar - BSPCB",04-02-2026 08:00:00,25.567520,83.966379,NO2,9,10,10
India,Bihar,Buxar,"Charitra Van, Buxar - BSPCB",04-02-2026 08:00:00,25.567520,83.966379,SO2,4,39,26
India,Arunachal_Pradesh,Naharlagun,"Naharlagun, Naharlagun - APSPCB",04-02-2026 08:00:00,27.103358,93.679645,NH3,1,1,1
India,Assam,Byrnihat,"Central Academy for SFS, Byrnihat - PCBA",04-02-2026 08:00:00,26.071318,91.87488,PM2.5,91,311,153
India,Assam,Byrnihat,"Central Academy for SFS, Byrnihat - PCBA",04-02-2026 08:00:00,26.071318,91.87488,NH3,4,4,4
India,Assam,Byrnihat,"Central Academy for SFS, Byrnihat - PCBA",04-02-2026 08:00:00,26.071318,91.87488,SO2,12,32,31
India,Assam,Guwahati,"LGBI Airport, Guwahati - PCBA",04-02-2026 08:00:00,26.10887,91.589544,PM2.5,39,148,99
India,Assam,Guwahati,"Pan Bazaar, Guwahati - PCBA",04-02-2026 08:00:00,26.187500,91.744194,SO2,23,50,35
India,Assam,Guwahati,"Pan Bazaar, Guwahati - PCBA",04-02-2026 08:00:00,26.187500,91.744194,OZONE,13,18,13
India,Assam,Guwahati,"Railway Colony, Guwahati - PCBA",04-02-2026 08:00:00,26.181742,91.78063,SO2,23,27,25
India,Assam,Nagaon,"Christianpatty, Nagaon - PCBA",04-02-2026 08:00:00,26.349082,92.68449,PM2.5,85,229,134
India,Assam,Nagaon,"Christianpatty, Nagaon - PCBA",04-02-2026 08:00:00,26.349082,92.68449,CO,10,24,20
India,Assam,Silchar,"Tarapur, Silchar - PCBA",04-02-2026 08:00:00,24.82827,92.79525,SO2,3,6,4
India,Assam,Silchar,"Tarapur, Silchar - PCBA",04-02-2026 08:00:00,24.82827,92.79525,CO,25,49,41
India,Assam,Silchar,"Tarapur, Silchar - PCBA",04-02-2026 08:00:00,24.82827,92.79525,OZONE,2,7,2
India,Assam,Sivasagar,"Girls College, Sivasagar - PCBA",04-02-2026 08:00:00,26.987634,94.636574,NO2,30,62,41
India,Bihar,Araria,"Kharahiya Basti, Araria - BSPCB",04-02-2026 08:00:00,26.146529,87.454184,SO2,18,52,34
India,Bihar,Arrah,"New DM Office, Arrah - BSPCB",04-02-2026 08:00:00,25.5626095,84.663264,PM2.5,23,65,35
India,Bihar,Arrah,"New DM Office, Arrah - BSPCB",04-02-2026 08:00:00,25.5626095,84.663264,CO,49,58,54
India,Andhra_Pradesh,Kadapa,"Yerramukkapalli, Kadapa - APPCB",04-02-2026 08:00:00,14.465052,78.824187,PM10,58,123,94
India,Andhra_Pradesh,Kadapa,"Yerramukkapalli, Kadapa - APPCB",04-02-2026 08:00:00,14.465052,78.824187,NO2,20,26,24
India,Andhra_Pradesh,Kadapa,"Yerramukkapalli, Kadapa - APPCB",04-02-2026 08:00:00,14.465052,78.824187,NH3,3,4,4
India,Andhra_Pradesh,Rajamahendravaram,"Anand Kala Kshetram, Rajamahendravaram - APPCB",04-02-2026 08:00:00,16.9872867,81.7363176,CO,34,56,40
India,Andhra_Pradesh,Tirumala,"Toll Gate, Tirumala - APPCB",04-02-2026 08:00:00,13.67,79.35,PM10,54,122,77
India,Andhra_Pradesh,Tirumala,"Toll Gate, Tirumala - APPCB",04-02-2026 08:00:00,13.67,79.35,NH3,1,2,1
India,Andhra_Pradesh,Tirupati,"Vaikuntapuram, Tirupati - APPCB",04-02-2026 08:00:00,13.615387,79.409230,PM2.5,36,145,80
India,Andhra_Pradesh,Tirupati,"Vaikuntapuram, Tirupati - APPCB",04-02-2026 08:00:00,13.615387,79.409230,SO2,11,14,12
India,Bihar,Muzaffarpur,"MIT-Daudpur Kothi, Muzaffarpur - BSPCB",04-02-2026 08:00:00,26.1403345,85.3650192,NO2,2,3,2
India,Bihar,Muzaffarpur,"MIT-Daudpur Kothi, Muzaffarpur - BSPCB",04-02-2026 08:00:00,26.1403345,85.3650192,OZONE,16,38,16
India,Bihar,Muzaffarpur,"Muzaffarpur Collectorate, Muzaffarpur - BSPCB",04-02-2026 08:00:00,26.1209,85.3647,PM2.5,90,115,105
India,Bihar,Muzaffarpur,"Muzaffarpur Collectorate, Muzaffarpur - BSPCB",04-02-2026 08:00:00,26.1209,85.3647,NO2,10,17,12
India,Bihar,Patna,"DRM Office Danapur, Patna - BSPCB",04-02-2026 08:00:00,25.586562,85.043586,SO2,NA,NA,NA
India,Bihar,Patna,"DRM Office Danapur, Patna - BSPCB",04-02-2026 08:00:00,25.586562,85.043586,CO,NA,NA,NA
India,Bihar,Patna,"Govt. High School Shikarpur, Patna - BSPCB",04-02-2026 08:00:00,25.592539,85.227158,PM2.5,71,81,76
India,Bihar,Buxar,"Charitra Van, Buxar - BSPCB",04-02-2026 08:00:00,25.567520,83.966379,CO,22,28,24
India,Bihar,Chhapra,"Darshan Nagar, Chhapra - BSPCB",04-02-2026 08:00:00,25.7808257,84.7446768,CO,38,57,53
India,Bihar,Gaya,"SFTI Kusdihra, Gaya - BSPCB",04-02-2026 08:00:00,24.762518,84.982348,PM10,77,97,85
India,Bihar,Hajipur,"Industrial Area, Hajipur - BSPCB",04-02-2026 08:00:00,25.697189,85.245900,NO2,22,49,30
India,Bihar,Hajipur,"Industrial Area, Hajipur - BSPCB",04-02-2026 08:00:00,25.697189,85.245900,NH3,13,18,15
India,Bihar,Katihar,"Mirchaibari, Katihar - BSPCB",04-02-2026 08:00:00,25.560083,87.553265,PM10,90,157,124
India,Andhra_Pradesh,Vijayawada,"HB Colony, Vijayawada - APPCB",04-02-2026 08:00:00,16.536107,80.594233,PM2.5,50,62,54
India,Andhra_Pradesh,Vijayawada,"HB Colony, Vijayawada - APPCB",04-02-2026 08:00:00,16.536107,80.594233,OZONE,12,48,33
India,Andhra_Pradesh,Vijayawada,"Rajiv Gandhi Park, Vijayawada - APPCB",04-02-2026 08:00:00,16.509717,80.612222,PM2.5,59,103,85
India,Andhra_Pradesh,Vijayawada,"Rajiv Gandhi Park, Vijayawada - APPCB",04-02-2026 08:00:00,16.509717,80.612222,PM10,55,97,81
India,Andhra_Pradesh,Vijayawada,"Rajiv Nagar, Vijayawada - APPCB",04-02-2026 08:00:00,16.554731,80.649110,NH3,4,6,4
India,Andhra_Pradesh,Visakhapatnam,"GVM Corporation, Visakhapatnam - APPCB",04-02-2026 08:00:00,17.72,83.3,NH3,3,4,3
India,Andhra_Pradesh,Amaravati,"Secretariat, Amaravati - APPCB",04-02-2026 08:00:00,16.5150833,80.5181667,NO2,19,65,30
India,Andhra_Pradesh,Amaravati,"Secretariat, Amaravati - APPCB",04-02-2026 08:00:00,16.5150833,80.5181667,NH3,4,8,6
India,Andhra_Pradesh,Amaravati,"Secretariat, Amaravati - APPCB",04-02-2026 08:00:00,16.5150833,80.5181667,SO2,12,22,14
India,Andhra_Pradesh,Anantapur,"Gulzarpet, Anantapur - APPCB",04-02-2026 08:00:00,14.675886,77.593027,PM10,5,268,63
India,Andhra_Pradesh,Anantapur,"Gulzarpet, Anantapur - APPCB",04-02-2026 08:00:00,14.675886,77.593027,NO2,17,20,20
India,Bihar,Siwan,"Chitragupta Nagar, Siwan - BSPCB",04-02-2026 08:00:00,26.2271665,84.3570427,OZONE,12,15,12
India,Chandigarh,Chandigarh,"Sector 22, Chandigarh - CPCC",04-02-2026 08:00:00,30.735567,76.775714,CO,27,114,40
India,Chandigarh,Chandigarh,"Sector 22, Chandigarh - CPCC",04-02-2026 08:00:00,30.735567,76.775714,OZONE,5,102,6
India,Chandigarh,Chandigarh,"Sector-25, Chandigarh - CPCC",04-02-2026 08:00:00,30.751462,76.762879,NO2,9,26,16
India,Chhattisgarh,Bhilai,"32Bungalows, Bhilai - CECB",04-02-2026 08:00:00,21.194815,81.314770,PM2.5,15,44,29
India,Chhattisgarh,Bhilai,"32Bungalows, Bhilai - CECB",04-02-2026 08:00:00,21.194815,81.314770,NO2,32,53,42
India,Chhattisgarh,Bhilai,"32Bungalows, Bhilai - CECB",04-02-2026 08:00:00,21.194815,81.314770,SO2,5,7,7
India,Chhattisgarh,Bhilai,"Civic Center, Bhilai - Bhilai Steel Plant",04-02-2026 08:00:00,21.185571,81.343175,PM10,27,130,53
India,Chhattisgarh,Bhilai,"Civic Center, Bhilai - Bhilai Steel Plant",04-02-2026 08:00:00,21.185571,81.343175,NH3,1,3,3
India,Chhattisgarh,Bhilai,"Hathkhoj, Bhilai - CECB",04-02-2026 08:00:00,21.224231,81.408350,PM10,30,70,48
India,Chhattisgarh,Bhilai,"Hathkhoj, Bhilai - CECB",04-02-2026 08:00:00,21.224231,81.408350,NH3,4,5,5
India,Chhattisgarh,Bhilai,"Hathkhoj, Bhilai - CECB",04-02-2026 08:00:00,21.224231,81.408350,SO2,17,82,40
India,Chhattisgarh,Bhilai,"Hathkhoj, Bhilai - CECB",04-02-2026 08:00:00,21.224231,81.408350,OZONE,6,17,8
India,Chhattisgarh,Raipur,"Siltara Phase-II, Raipur - CECB",04-02-2026 08:00:00,21.371751,81.664929,SO2,3,16,6
India,Delhi,Delhi,"Anand Vihar, Delhi - DPCC",04-02-2026 08:00:00,28.647622,77.3158090,PM2.5,257,450,381
India,Delhi,Delhi,"Anand Vihar, Delhi - DPCC",04-02-2026 08:00:00,28.647622,77.3158090,PM10,156,487,343
India,Delhi,Delhi,"Anand Vihar, Delhi - DPCC",04-02-2026 08:00:00,28.647622,77.3158090,CO,46,121,112
India,Delhi,Delhi,"Anand Vihar, Delhi - DPCC",04-02-2026 08:00:00,28.647622,77.3158090,OZONE,2,13,11
India,Delhi,Delhi,"Ashok Vihar, Delhi - DPCC",04-02-2026 08:00:00,28.695381,77.181665,PM2.5,180,477,374
India,Delhi,Delhi,"Ashok Vihar, Delhi - DPCC",04-02-2026 08:00:00,28.695381,77.181665,PM10,139,482,317
India,Delhi,Delhi,"Ashok Vihar, Delhi - DPCC",04-02-2026 08:00:00,28.695381,77.181665,NO2,38,131,73
India,Delhi,Delhi,"Aya Nagar, Delhi - IMD",04-02-2026 08:00:00,28.4706914,77.1099364,PM2.5,73,376,252
India,Delhi,Delhi,"Aya Nagar, Delhi - IMD",04-02-2026 08:00:00,28.4706914,77.1099364,OZONE,5,74,5
India,Delhi,Delhi,"Bawana, Delhi - DPCC",04-02-2026 08:00:00,28.776200,77.051074,PM10,73,470,246
India,Delhi,Delhi,"Burari Crossing, Delhi - IMD",04-02-2026 08:00:00,28.7256504,77.2011573,PM10,85,403,263
India,Delhi,Delhi,"Burari Crossing, Delhi - IMD",04-02-2026 08:00:00,28.7256504,77.2011573,CO,43,105,103
India,Chhattisgarh,Chhal,"Nawapara SECL Colony, Chhal - CECB",04-02-2026 08:00:00,22.118125,83.140608,NO2,6,28,14
India,Chhattisgarh,Chhal,"Nawapara SECL Colony, Chhal - CECB",04-02-2026 08:00:00,22.118125,83.140608,CO,27,52,34
India,Chhattisgarh,Korba,"Rampur, Korba - CECB",04-02-2026 08:00:00,22.368195,82.746431,PM2.5,1,62,34
India,Chhattisgarh,Korba,"Rampur, Korba - CECB",04-02-2026 08:00:00,22.368195,82.746431,NH3,1,2,1
India,Chhattisgarh,Korba,"Rampur, Korba - CECB",04-02-2026 08:00:00,22.368195,82.746431,CO,14,24,21
India,Chhattisgarh,Korba,"Urja Nagar, Korba - CECB",04-02-2026 08:00:00,22.348441,82.549611,PM10,41,103,72
India,Chhattisgarh,Korba,"Urja Nagar, Korba - CECB",04-02-2026 08:00:00,22.348441,82.549611,OZONE,12,26,24
India,Chhattisgarh,Milupara,"Govt. Higher Secondary School, Milupara - CECB",04-02-2026 08:00:00,22.1910172,83.5197009,PM10,47,117,81
India,Chhattisgarh,Milupara,"Govt. Higher Secondary School, Milupara - CECB",04-02-2026 08:00:00,22.1910172,83.5197009,NO2,17,69,31
India,Chhattisgarh,Raipur,"AIIMS, Raipur - CECB",04-02-2026 08:00:00,21.258815,81.578979,PM2.5,NA,NA,NA
India,Chhattisgarh,Raipur,"AIIMS, Raipur - CECB",04-02-2026 08:00:00,21.258815,81.578979,NO2,NA,NA,NA
India,Delhi,Delhi,"IHBAS, Dilshad Garden, Delhi - CPCB",04-02-2026 08:00:00,28.6811736,77.3025234,CO,88,124,88
India,Delhi,Delhi,"IIT Delhi, Delhi - IITM",04-02-2026 08:00:00,28.542460,77.191651,CO,34,115,112
India,Delhi,Delhi,"ITO, Delhi - CPCB",04-02-2026 08:00:00,28.628624,77.241060,SO2,1,21,10
India,Delhi,Delhi,"ITO, Delhi - CPCB",04-02-2026 08:00:00,28.628624,77.241060,OZONE,2,75,21
India,Delhi,Delhi,"Jawaharlal Nehru Stadium, Delhi - DPCC",04-02-2026 08:00:00,28.580280,77.233829,NO2,36,133,75
India,Delhi,Delhi,"Jawaharlal Nehru Stadium, Delhi - DPCC",04-02-2026 08:00:00,28.580280,77.233829,NH3,17,21,19
India,Delhi,Delhi,"Jawaharlal Nehru Stadium, Delhi - DPCC",04-02-2026 08:00:00,28.580280,77.233829,SO2,7,36,21
India,Delhi,Delhi,"Jawaharlal Nehru Stadium, Delhi - DPCC",04-02-2026 08:00:00,28.580280,77.233829,OZONE,2,200,3
India,Delhi,Delhi,"Lodhi Road, Delhi - IMD",04-02-2026 08:00:00,28.5918245,77.2273074,PM10,89,310,198
India,Delhi,Delhi,"Major Dhyan Chand National Stadium, Delhi - DPCC",04-02-2026 08:00:00,28.611281,77.237738,PM10,119,398,231
India,Bihar,Patna,"Muradpur, Patna - BSPCB",04-02-2026 08:00:00,25.619651,85.147382,NH3,4,5,5
India,Bihar,Patna,"Muradpur, Patna - BSPCB",04-02-2026 08:00:00,25.619651,85.147382,SO2,8,10,9
India,Bihar,Patna,"Rajbansi Nagar, Patna - BSPCB",04-02-2026 08:00:00,25.599486,85.113666,CO,11,74,24
India,Bihar,Patna,"Samanpura, Patna - BSPCB",04-02-2026 08:00:00,25.596727,85.085624,PM10,94,176,133
India,Bihar,Purnia,"Mariam Nagar, Purnia - BSPCB",04-02-2026 08:00:00,25.366336,87.117468,SO2,2,57,14
India,Bihar,Purnia,"Mariam Nagar, Purnia - BSPCB",04-02-2026 08:00:00,25.366336,87.117468,OZONE,7,27,20
India,Bihar,Rajgir,"Dangi Tola, Rajgir - BSPCB",04-02-2026 08:00:00,25.03280,85.41948,PM2.5,NA,NA,NA
India,Bihar,Rajgir,"Dangi Tola, Rajgir - BSPCB",04-02-2026 08:00:00,25.03280,85.41948,NO2,8,11,9
India,Bihar,Rajgir,"Dangi Tola, Rajgir - BSPCB",04-02-2026 08:00:00,25.03280,85.41948,NH3,4,8,6
India,Bihar,Rajgir,"Dangi Tola, Rajgir - BSPCB",04-02-2026 08:00:00,25.03280,85.41948,OZONE,NA,NA,NA
India,Bihar,Saharsa,"Police Line, Saharsa - BSPCB",04-02-2026 08:00:00,25.892357,86.590325,PM10,87,157,117
India,Bihar,Samastipur,"DM Office_Kasipur, Samastipur - BSPCB",04-02-2026 08:00:00,25.859655,85.77944,PM2.5,42,127,70
India,Bihar,Samastipur,"DM Office_Kasipur, Samastipur - BSPCB",04-02-2026 08:00:00,25.859655,85.77944,SO2,3,28,17
India,Bihar,Samastipur,"DM Office_Kasipur, Samastipur - BSPCB",04-02-2026 08:00:00,25.859655,85.77944,CO,8,10,8
India,Bihar,Sasaram,"Dada Peer, Sasaram - BSPCB",04-02-2026 08:00:00,24.952822,84.002396,SO2,5,5,5
India,Bihar,Siwan,"Chitragupta Nagar, Siwan - BSPCB",04-02-2026 08:00:00,26.2271665,84.3570427,PM10,38,98,67
India,Delhi,Delhi,"CRRI Mathura Road, Delhi - IMD",04-02-2026 08:00:00,28.5512005,77.2735737,OZONE,4,96,5
India,Delhi,Delhi,"Chandni Chowk, Delhi - IITM",04-02-2026 08:00:00,28.656756,77.227234,NH3,6,14,10
India,Delhi,Delhi,"Chandni Chowk, Delhi - IITM",04-02-2026 08:00:00,28.656756,77.227234,CO,23,147,125
India,Delhi,Delhi,"Chandni Chowk, Delhi - IITM",04-02-2026 08:00:00,28.656756,77.227234,OZONE,1,166,4
India,Delhi,Delhi,"DTU, Delhi - CPCB",04-02-2026 08:00:00,28.7500499,77.1112615,PM10,82,279,175
India,Delhi,Delhi,"IGI Airport (T3), Delhi - IMD",04-02-2026 08:00:00,28.5627763,77.1180053,NO2,53,124,82
India,Delhi,Delhi,"IHBAS, Dilshad Garden, Delhi - CPCB",04-02-2026 08:00:00,28.6811736,77.3025234,NH3,6,14,10
India,Chhattisgarh,Raipur,"Bhatagaon New ISBT, Raipur - CECB",04-02-2026 08:00:00,21.219665,81.630094,NH3,2,2,2
India,Chhattisgarh,Raipur,"Krishak Nagar, Raipur - CECB",04-02-2026 08:00:00,21.237755,81.705301,SO2,4,14,6
India,Chhattisgarh,Raipur,"Siltara Phase-II, Raipur - CECB",04-02-2026 08:00:00,21.371751,81.664929,PM2.5,48,237,125
India,Chhattisgarh,Raipur,"Siltara Phase-II, Raipur - CECB",04-02-2026 08:00:00,21.371751,81.664929,NO2,44,54,48
India,Bihar,Patna,"Govt. High School Shikarpur, Patna - BSPCB",04-02-2026 08:00:00,25.592539,85.227158,SO2,12,19,15
India,Bihar,Patna,"IGSC Planetarium Complex, Patna - BSPCB",04-02-2026 08:00:00,25.610369,85.132568,NO2,2,2,2
India,Gujarat,Ahmedabad,"SAC ISRO Satellite, Ahmedabad - IITM",04-02-2026 08:00:00,23.023389,72.515201,PM10,49,158,93
India,Gujarat,Ahmedabad,"SAC ISRO Satellite, Ahmedabad - IITM",04-02-2026 08:00:00,23.023389,72.515201,NH3,6,14,10
India,Gujarat,Ahmedabad,"SVPI Airport Hansol, Ahmedabad - IITM",04-02-2026 08:00:00,23.076793,72.627874,PM2.5,50,87,70
India,Gujarat,Ahmedabad,"SVPI Airport Hansol, Ahmedabad - IITM",04-02-2026 08:00:00,23.076793,72.627874,PM10,68,131,105
India,Gujarat,Ahmedabad,"SVPI Airport Hansol, Ahmedabad - IITM",04-02-2026 08:00:00,23.076793,72.627874,NH3,3,8,4
India,Gujarat,Ahmedabad,"SVPI Airport Hansol, Ahmedabad - IITM",04-02-2026 08:00:00,23.076793,72.627874,OZONE,14,74,37
India,Gujarat,Ankleshwar,"GIDC, Ankleshwar - GPCB",04-02-2026 08:00:00,21.613267,73.010555,PM2.5,75,169,104
India,Gujarat,Gandhinagar,"GIFT City, Gandhinagar - IITM",04-02-2026 08:00:00,23.163798,72.677768,NH3,5,16,8
India,Gujarat,Gandhinagar,"Sector-10, Gandhinagar - GPCB",04-02-2026 08:00:00,23.221714,72.654328,SO2,2,9,6
India,Gujarat,Mehsana,"Sadanand Nagar, Mehsana - Nexteng Enviro",04-02-2026 08:00:00,23.593150,72.372792,PM2.5,39,357,122
India,Gujarat,Mehsana,"Sadanand Nagar, Mehsana - Nexteng Enviro",04-02-2026 08:00:00,23.593150,72.372792,NH3,2,5,4
India,Gujarat,Rajkot,"Mavdi, Rajkot - Nexteng Enviro ",04-02-2026 08:00:00,22.248853,70.776774,PM2.5,51,248,111
India,Gujarat,Surat,"Katargam, Surat - Nexteng Enviro",04-02-2026 08:00:00,21.217779 ,72.834787 ,NO2,22,96,57
India,Gujarat,Surat,"Science Center, Surat - SMC",04-02-2026 08:00:00,21.170046,72.795405,PM2.5,11,109,54
India,Delhi,Delhi,"Patparganj, Delhi - DPCC",04-02-2026 08:00:00,28.623763,77.287209,CO,58,125,104
India,Delhi,Delhi,"Punjabi Bagh, Delhi - DPCC",04-02-2026 08:00:00,28.674045,77.131023,PM2.5,177,455,348
India,Delhi,Delhi,"Punjabi Bagh, Delhi - DPCC",04-02-2026 08:00:00,28.674045,77.131023,PM10,111,453,279
India,Delhi,Delhi,"Pusa, Delhi - IMD",04-02-2026 08:00:00,28.636110,77.173332,PM2.5,83,378,272
India,Delhi,Delhi,"Pusa, Delhi - IMD",04-02-2026 08:00:00,28.636110,77.173332,PM10,83,398,247
India,Delhi,Delhi,"R K Puram, Delhi - DPCC",04-02-2026 08:00:00,28.563262,77.186937,OZONE,2,126,3
India,Delhi,Delhi,"Shadipur, Delhi - CPCB",04-02-2026 08:00:00,28.6514781,77.1473105,PM10,105,462,272
India,Delhi,Delhi,"Sonia Vihar, Delhi - DPCC",04-02-2026 08:00:00,28.710508,77.249485,PM2.5,203,428,349
India,Delhi,Delhi,"Vivek Vihar, Delhi - DPCC",04-02-2026 08:00:00,28.672342,77.315260,NO2,26,116,61
India,Delhi,Delhi,"Vivek Vihar, Delhi - DPCC",04-02-2026 08:00:00,28.672342,77.315260,SO2,9,38,16
India,Delhi,Delhi,"Wazirpur, Delhi - DPCC",04-02-2026 08:00:00,28.699793,77.165453,PM2.5,240,449,366
India,Delhi,Delhi,"Wazirpur, Delhi - DPCC",04-02-2026 08:00:00,28.699793,77.165453,NH3,11,16,13
India,Gujarat,Ahmedabad,"Maninagar, Ahmedabad - GPCB",04-02-2026 08:00:00,23.002657,72.591912,PM10,60,154,107
India,Gujarat,Ahmedabad,"Rakhial, Ahmedabad - IITM",04-02-2026 08:00:00,23.016834,72.625775,PM10,80,168,120
India,Gujarat,Ahmedabad,"Rakhial, Ahmedabad - IITM",04-02-2026 08:00:00,23.016834,72.625775,NH3,5,11,8
India,Gujarat,Ahmedabad,"SAC ISRO Bopal, Ahmedabad - IITM",04-02-2026 08:00:00,23.041137,72.456691,PM10,83,143,118
India,Delhi,Delhi,"Nehru Nagar, Delhi - DPCC",04-02-2026 08:00:00,28.567890,77.250515,CO,41,145,76
India,Delhi,Delhi,"Okhla Phase-2, Delhi - DPCC",04-02-2026 08:00:00,28.530785,77.271255,PM2.5,240,465,369
India,Delhi,Delhi,"Okhla Phase-2, Delhi - DPCC",04-02-2026 08:00:00,28.530785,77.271255,PM10,125,468,293
India,Delhi,Delhi,"Patparganj, Delhi - DPCC",04-02-2026 08:00:00,28.623763,77.287209,PM2.5,223,426,365
India,Delhi,Delhi,"NSIT Dwarka, Delhi - CPCB",04-02-2026 08:00:00,28.60909,77.0325413,PM10,107,322,190
India,Delhi,Delhi,"Narela, Delhi - DPCC",04-02-2026 08:00:00,28.822836,77.101981,PM10,107,424,254
India,Delhi,Delhi,"Mandir Marg, Delhi - DPCC",04-02-2026 08:00:00,28.636429,77.201067,NH3,4,7,5
India,Haryana,Rohtak,"MD University, Rohtak - HSPCB",04-02-2026 08:00:00,28.52123,76.37138,PM2.5,58,310,180
India,Haryana,Rohtak,"MD University, Rohtak - HSPCB",04-02-2026 08:00:00,28.52123,76.37138,SO2,10,13,12
India,Haryana,Sirsa,"F-Block, Sirsa - HSPCB",04-02-2026 08:00:00,29.536400,75.015800,PM10,102,153,121
India,Haryana,Sirsa,"F-Block, Sirsa - HSPCB",04-02-2026 08:00:00,29.536400,75.015800,NO2,15,25,20
India,Haryana,Yamuna Nagar,"Gobind Pura, Yamuna Nagar - HSPCB",04-02-2026 08:00:00,30.1480566,77.2893471,NH3,1,6,4
India,Himachal Pradesh,Baddi,"HIMUDA Complex Phase-1, Baddi - HPPCB",04-02-2026 08:00:00,30.943887,76.801991,NO2,9,65,30
India,Jammu_and_Kashmir,Srinagar,"Khunmoh, Srinagar - JKPCC",04-02-2026 08:00:00,34.06313,74.96017,NO2,4,11,7
India,Jammu_and_Kashmir,Srinagar,"Rajbagh, Srinagar - JKPCC",04-02-2026 08:00:00,34.066206,74.819820,PM10,25,35,29
India,Jharkhand,Dhanbad,"Sardar Patel Nagar, Dhanbad - JSPCB",04-02-2026 08:00:00,23.80569,86.44268,PM2.5,41,224,93
India,Jharkhand,Dhanbad,"Sardar Patel Nagar, Dhanbad - JSPCB",04-02-2026 08:00:00,23.80569,86.44268,NO2,47,51,50
India,Haryana,Charkhi Dadri,"Mini Secretariat, Charkhi Dadri - HSPCB",04-02-2026 08:00:00,28.593883,76.270653,NO2,9,22,15
India,Haryana,Charkhi Dadri,"Mini Secretariat, Charkhi Dadri - HSPCB",04-02-2026 08:00:00,28.593883,76.270653,CO,8,25,14
India,Haryana,Dharuhera,"Municipal Corporation Office, Dharuhera -  HSPCB",04-02-2026 08:00:00,28.206800,76.799700,NH3,8,27,19
India,Haryana,Dharuhera,"Municipal Corporation Office, Dharuhera -  HSPCB",04-02-2026 08:00:00,28.206800,76.799700,CO,54,102,90
India,Haryana,Faridabad,"New Industrial Town, Faridabad - HSPCB",04-02-2026 08:00:00,28.39072,77.30059,PM10,129,138,134
India,Haryana,Faridabad,"New Industrial Town, Faridabad - HSPCB",04-02-2026 08:00:00,28.39072,77.30059,CO,10,13,12
India,Haryana,Faridabad,"New Industrial Town, Faridabad - HSPCB",04-02-2026 08:00:00,28.39072,77.30059,OZONE,25,35,32
India,Haryana,Faridabad,"Sector 11, Faridabad - HSPCB",04-02-2026 08:00:00,28.376058,77.315741,PM10,89,315,180
India,Haryana,Faridabad,"Sector 11, Faridabad - HSPCB",04-02-2026 08:00:00,28.376058,77.315741,NO2,30,33,31
India,Haryana,Faridabad,"Sector 11, Faridabad - HSPCB",04-02-2026 08:00:00,28.376058,77.315741,SO2,4,5,4
India,Haryana,Faridabad,"Sector 30, Faridabad - HSPCB",04-02-2026 08:00:00,28.4417,77.3217,NO2,34,40,37
India,Haryana,Kaithal,"Rishi Nagar, Kaithal - HSPCB",04-02-2026 08:00:00,29.8006,76.4155,NH3,3,6,6
India,Haryana,Kaithal,"Rishi Nagar, Kaithal - HSPCB",04-02-2026 08:00:00,29.8006,76.4155,CO,20,93,50
India,Haryana,Kaithal,"Rishi Nagar, Kaithal - HSPCB",04-02-2026 08:00:00,29.8006,76.4155,OZONE,3,27,8
India,Haryana,Karnal,"Sector-12, Karnal - HSPCB",04-02-2026 08:00:00,29.695300,77.002700,NH3,5,7,6
India,Haryana,Kurukshetra,"Sector-7, Kurukshetra - HSPCB",04-02-2026 08:00:00,29.966942,76.875879,PM2.5,44,223,123
India,Haryana,Mandikhera,"General Hospital, Mandikhera(Nuh) - HSPCB",04-02-2026 08:00:00,27.9002,76.9938,PM2.5,55,217,126
India,Haryana,Mandikhera,"General Hospital, Mandikhera(Nuh) - HSPCB",04-02-2026 08:00:00,27.9002,76.9938,NH3,12,15,14
India,Haryana,Mandikhera,"General Hospital, Mandikhera(Nuh) - HSPCB",04-02-2026 08:00:00,27.9002,76.9938,SO2,30,37,34
India,Haryana,Mandikhera,"General Hospital, Mandikhera(Nuh) - HSPCB",04-02-2026 08:00:00,27.9002,76.9938,CO,54,90,77
India,Haryana,Manesar,"Sector-2 IMT, Manesar - HSPCB",04-02-2026 08:00:00,28.360699,76.936090,CO,22,70,48
India,Jharkhand,Dhanbad,"Sardar Patel Nagar, Dhanbad - JSPCB",04-02-2026 08:00:00,23.80569,86.44268,OZONE,1,24,4
India,Karnataka,Bagalkot,"Vidayagiri, Bagalkot - KSPCB",04-02-2026 08:00:00,16.172806,75.659694,NH3,1,2,1
India,Karnataka,Belgaum,"Ramteerth Nagar, Belgaum - KSPCB",04-02-2026 08:00:00,15.888653,74.541751,NO2,30,86,46
India,Karnataka,Belgaum,"Ramteerth Nagar, Belgaum - KSPCB",04-02-2026 08:00:00,15.888653,74.541751,NH3,8,11,10
India,Karnataka,Bengaluru,"BWSSB Kadabesanahalli, Bengaluru - CPCB",04-02-2026 08:00:00,12.9352049,77.6814488,NH3,NA,NA,NA
India,Karnataka,Bengaluru,"Bapuji Nagar, Bengaluru - KSPCB",04-02-2026 08:00:00,12.951913,77.539784,NO2,11,67,28
India,Karnataka,Bengaluru,"Bapuji Nagar, Bengaluru - KSPCB",04-02-2026 08:00:00,12.951913,77.539784,NH3,2,4,4
India,Karnataka,Bengaluru,"Bapuji Nagar, Bengaluru - KSPCB",04-02-2026 08:00:00,12.951913,77.539784,OZONE,18,56,25
India,Karnataka,Bengaluru,"Hebbal, Bengaluru - KSPCB",04-02-2026 08:00:00,13.029152,77.585901,PM10,NA,NA,NA
India,Karnataka,Bengaluru,"Hebbal, Bengaluru - KSPCB",04-02-2026 08:00:00,13.029152,77.585901,CO,10,64,20
India,Karnataka,Bengaluru,"Hombegowda Nagar, Bengaluru - KSPCB",04-02-2026 08:00:00,12.938539,77.590100,PM10,40,98,62
India,Karnataka,Bengaluru,"Hombegowda Nagar, Bengaluru - KSPCB",04-02-2026 08:00:00,12.938539,77.590100,CO,6,21,13
India,Karnataka,Bengaluru,"Hombegowda Nagar, Bengaluru - KSPCB",04-02-2026 08:00:00,12.938539,77.590100,OZONE,15,58,24
India,Karnataka,Bengaluru,"Jayanagar 5th Block, Bengaluru - KSPCB",04-02-2026 08:00:00,12.920984,77.584908,NO2,12,40,25
India,Karnataka,Bengaluru,"Jayanagar 5th Block, Bengaluru - KSPCB",04-02-2026 08:00:00,12.920984,77.584908,NH3,2,3,2
India,Karnataka,Bengaluru,"Peenya, Bengaluru - CPCB",04-02-2026 08:00:00,13.0270199,77.494094,PM10,78,110,98
India,Karnataka,Bengaluru,"Peenya, Bengaluru - CPCB",04-02-2026 08:00:00,13.0270199,77.494094,SO2,7,15,11
India,Haryana,Palwal,"Shyam Nagar, Palwal - HSPCB",04-02-2026 08:00:00,28.1485564,77.3320667,PM2.5,49,70,59
India,Haryana,Palwal,"Shyam Nagar, Palwal - HSPCB",04-02-2026 08:00:00,28.1485564,77.3320667,SO2,11,18,15
India,Haryana,Panchgaon,"Amity University, Panchgaon - IITM",04-02-2026 08:00:00,28.3153,76.9143,PM2.5,10,58,31
India,Haryana,Panchgaon,"Amity University, Panchgaon - IITM",04-02-2026 08:00:00,28.3153,76.9143,PM10,10,53,32
India,Haryana,Panchkula,"Sector-6, Panchkula - HSPCB ",04-02-2026 08:00:00,30.7057778,76.8531805555555,CO,14,29,24
India,Haryana,Panipat,"Sector-18, Panipat - HSPCB",04-02-2026 08:00:00,29.432304,76.972765,PM2.5,18,190,114
India,Haryana,Panipat,"Sector-18, Panipat - HSPCB",04-02-2026 08:00:00,29.432304,76.972765,NO2,31,32,31
India,Gujarat,Vadodara,"Bapunagar, Vadodara - Nexteng Enviro",04-02-2026 08:00:00,22.320153,73.216285,CO,119,121,120
India,Gujarat,Vapi,"Phase-1 GIDC, Vapi - GPCB",04-02-2026 08:00:00,20.362421,72.918013,SO2,18,26,21
India,Gujarat,Vatva,"Phase-4 GIDC, Vatva - GPCB",04-02-2026 08:00:00,22.969611,72.643500,NH3,11,14,13
India,Gujarat,Vatva,"Phase-4 GIDC, Vatva - GPCB",04-02-2026 08:00:00,22.969611,72.643500,OZONE,24,42,25
India,Haryana,Bahadurgarh,"Arya Nagar, Bahadurgarh - HSPCB",04-02-2026 08:00:00,28.6701,76.9254,PM2.5,54,308,187
India,Haryana,Gurugram,"Teri Gram, Gurugram - HSPCB",04-02-2026 08:00:00,28.4275,77.1465,NO2,50,102,70
India,Haryana,Gurugram,"Teri Gram, Gurugram - HSPCB",04-02-2026 08:00:00,28.4275,77.1465,SO2,6,61,25
India,Haryana,Gurugram,"Teri Gram, Gurugram - HSPCB",04-02-2026 08:00:00,28.4275,77.1465,OZONE,4,19,5
India,Haryana,Gurugram,"Vikas Sadan, Gurugram - HSPCB",04-02-2026 08:00:00,28.4501238,77.0263051,SO2,2,8,5
India,Haryana,Hisar,"Urban Estate-II, Hisar - HSPCB",04-02-2026 08:00:00,29.140560,75.744941,NO2,26,27,27
India,Haryana,Jind,"Police Lines, Jind - HSPCB",04-02-2026 08:00:00,29.307814,76.337619,PM10,71,179,127
India,Karnataka,Bengaluru,"Shivapura_Peenya, Bengaluru - KSPCB",04-02-2026 08:00:00,13.0246342,77.5080115,PM10,84,130,104
India,Karnataka,Bengaluru,"Silk Board, Bengaluru - KSPCB",04-02-2026 08:00:00,12.917348,77.622813,NH3,3,5,4
India,Karnataka,Chamarajanagar,"Urban, Chamarajanagar - KSPCB",04-02-2026 08:00:00,11.55358,76.55521,PM2.5,26,77,37
India,Karnataka,Chamarajanagar,"Urban, Chamarajanagar - KSPCB",04-02-2026 08:00:00,11.55358,76.55521,NH3,1,3,2
India,Madhya Pradesh,Gwalior,"Maharaj Bada, Gwalior - MPPCB",04-02-2026 08:00:00,26.200388,78.147714,NO2,23,69,38
India,Madhya Pradesh,Gwalior,"Maharaj Bada, Gwalior - MPPCB",04-02-2026 08:00:00,26.200388,78.147714,CO,4,76,16
